{"displayFieldName":"TOWNNAME","fieldAliases":{"ID":"ID","DIS_CODE":"DIS_CODE","TOWNNAME":"TOWNNAME","LI":"LI","LIN":"LIN","STREET":"STREET","SECT":"SECT","MAREA":"MAREA","LANE":"LANE","ALLEY":"ALLEY","HOUSE_NO":"HOUSE_NO","E_COORD97":"E_COORD97","N_COORD97":"N_COORD97","ADDRESS":"ADDRESS","OBJECTID":"OBJECTID"},"geometryType":"esriGeometryPoint","spatialReference":{"wkid":102443,"latestWkid":3826},"fields":[{"name":"ID","type":"esriFieldTypeDouble","alias":"ID"},{"name":"DIS_CODE","type":"esriFieldTypeInteger","alias":"DIS_CODE"},{"name":"TOWNNAME","type":"esriFieldTypeString","alias":"TOWNNAME","length":8},{"name":"LI","type":"esriFieldTypeString","alias":"LI","length":8},{"name":"LIN","type":"esriFieldTypeString","alias":"LIN","length":12},{"name":"STREET","type":"esriFieldTypeString","alias":"STREET","length":20},{"name":"SECT","type":"esriFieldTypeString","alias":"SECT","length":8},{"name":"MAREA","type":"esriFieldTypeString","alias":"MAREA","length":12},{"name":"LANE","type":"esriFieldTypeString","alias":"LANE","length":10},{"name":"ALLEY","type":"esriFieldTypeString","alias":"ALLEY","length":10},{"name":"HOUSE_NO","type":"esriFieldTypeString","alias":"HOUSE_NO","length":20},{"name":"E_COORD97","type":"esriFieldTypeDouble","alias":"E_COORD97"},{"name":"N_COORD97","type":"esriFieldTypeDouble","alias":"N_COORD97"},{"name":"ADDRESS","type":"esriFieldTypeString","alias":"ADDRESS","length":50},{"name":"OBJECTID","type":"esriFieldTypeOID","alias":"OBJECTID"}],"features":[{"attributes":{"ID":270806,"DIS_CODE":0,"TOWNNAME":"佳里區","LI":"安西里","LIN":"34鄰","STREET":"安西路","SECT":" ","MAREA":" ","LANE":" ","ALLEY":" ","HOUSE_NO":"１８１號","E_COORD97":165115.47,"N_COORD97":2562641.77,"ADDRESS":"安西路１８１號","OBJECTID":270801},"geometry":{"x":165115.46999999974,"y":2562641.7700000033}},{"attributes":{"ID":270807,"DIS_CODE":0,"TOWNNAME":"佳里區","LI":"安西里","LIN":"34鄰","STREET":"安西路","SECT":" ","MAREA":" ","LANE":" ","ALLEY":" ","HOUSE_NO":"１８３號","E_COORD97":165114.89999999999,"N_COORD97":2562646.0800000001,"ADDRESS":"安西路１８３號","OBJECTID":270802},"geometry":{"x":165114.90000000037,"y":2562646.0800000001}},{"attributes":{"ID":270808,"DIS_CODE":0,"TOWNNAME":"南區","LI":"佛壇里","LIN":"3鄰","STREET":"興南街","SECT":" ","MAREA":" ","LANE":" ","ALLEY":" ","HOUSE_NO":"１８２號","E_COORD97":166065.03,"N_COORD97":2535843.3399999999,"ADDRESS":"興南街１８２號","OBJECTID":270803},"geometry":{"x":166065.03000000026,"y":2535843.3399999999}},{"attributes":{"ID":270809,"DIS_CODE":0,"TOWNNAME":"永康區","LI":"王行里","LIN":"14鄰","STREET":"經建路","SECT":" ","MAREA":" ","LANE":" ","ALLEY":" ","HOUSE_NO":"７號","E_COORD97":175478.37,"N_COORD97":2549792.79,"ADDRESS":"經建路７號","OBJECTID":270804},"geometry":{"x":175478.37000000104,"y":2549792.790000001}},{"attributes":{"ID":270810,"DIS_CODE":0,"TOWNNAME":"北區","LI":"裕民里","LIN":"8鄰","STREET":"成功路","SECT":" ","MAREA":" ","LANE":"５７２巷","ALLEY":" ","HOUSE_NO":"１１號","E_COORD97":167574.91,"N_COORD97":2544744.54,"ADDRESS":"成功路５７２巷１１號","OBJECTID":270805},"geometry":{"x":167574.90999999922,"y":2544744.5399999991}},{"attributes":{"ID":270811,"DIS_CODE":0,"TOWNNAME":"東區","LI":"德光里","LIN":"3鄰","STREET":"崇德路","SECT":" ","MAREA":" ","LANE":" ","ALLEY":" ","HOUSE_NO":"４０號","E_COORD97":169773.35999999999,"N_COORD97":2542449.4399999999,"ADDRESS":"崇德路４０號","OBJECTID":270806},"geometry":{"x":169773.36000000034,"y":2542449.4399999995}},{"attributes":{"ID":270812,"DIS_CODE":0,"TOWNNAME":"北區","LI":"裕民里","LIN":"8鄰","STREET":"成功路","SECT":" ","MAREA":" ","LANE":"５７２巷","ALLEY":" ","HOUSE_NO":"１３號","E_COORD97":167576.92999999999,"N_COORD97":2544746.0899999999,"ADDRESS":"成功路５７２巷１３號","OBJECTID":270807},"geometry":{"x":167576.9299999997,"y":2544746.0900000017}},{"attributes":{"ID":270813,"DIS_CODE":0,"TOWNNAME":"北區","LI":"裕民里","LIN":"8鄰","STREET":"成功路","SECT":" ","MAREA":" ","LANE":"５７２巷","ALLEY":" ","HOUSE_NO":"１５號","E_COORD97":167576.92999999999,"N_COORD97":2544742.52,"ADDRESS":"成功路５７２巷１５號","OBJECTID":270808},"geometry":{"x":167576.9299999997,"y":2544742.5200000033}},{"attributes":{"ID":270814,"DIS_CODE":0,"TOWNNAME":"北區","LI":"裕民里","LIN":"8鄰","STREET":"成功路","SECT":" ","MAREA":" ","LANE":"５７２巷","ALLEY":" ","HOUSE_NO":"１號","E_COORD97":167562.39999999999,"N_COORD97":2544735.6200000001,"ADDRESS":"成功路５７２巷１號","OBJECTID":270809},"geometry":{"x":167562.4000000013,"y":2544735.620000001}},{"attributes":{"ID":270815,"DIS_CODE":0,"TOWNNAME":"東區","LI":"德光里","LIN":"3鄰","STREET":"崇明二街","SECT":" ","MAREA":" ","LANE":" ","ALLEY":" ","HOUSE_NO":"５６號","E_COORD97":169712.51999999999,"N_COORD97":2542425.54,"ADDRESS":"崇明二街５６號","OBJECTID":270810},"geometry":{"x":169712.51999999955,"y":2542425.5399999991}},{"attributes":{"ID":270816,"DIS_CODE":0,"TOWNNAME":"北區","LI":"裕民里","LIN":"8鄰","STREET":"成功路","SECT":" ","MAREA":" ","LANE":"５７２巷","ALLEY":" ","HOUSE_NO":"３號","E_COORD97":167565.48999999999,"N_COORD97":2544737.2799999998,"ADDRESS":"成功路５７２巷３號","OBJECTID":270811},"geometry":{"x":167565.49000000022,"y":2544737.2800000031}},{"attributes":{"ID":270817,"DIS_CODE":0,"TOWNNAME":"南區","LI":"文南里","LIN":"8鄰","STREET":"健康路","SECT":"二段","MAREA":" ","LANE":"２６４巷","ALLEY":" ","HOUSE_NO":"２４號","E_COORD97":166980.84,"N_COORD97":2542569.9300000002,"ADDRESS":"健康路二段２６４巷２４號","OBJECTID":270812},"geometry":{"x":166980.84000000078,"y":2542569.9300000034}},{"attributes":{"ID":270818,"DIS_CODE":0,"TOWNNAME":"南區","LI":"國宅里","LIN":"8鄰","STREET":"金華路","SECT":"二段","MAREA":" ","LANE":"３３巷","ALLEY":" ","HOUSE_NO":"４０號","E_COORD97":166936.01999999999,"N_COORD97":2541986.3900000001,"ADDRESS":"金華路二段３３巷４０號","OBJECTID":270813},"geometry":{"x":166936.01999999955,"y":2541986.3900000006}},{"attributes":{"ID":270819,"DIS_CODE":0,"TOWNNAME":"南區","LI":"新昌里","LIN":"8鄰","STREET":"西門路","SECT":"一段","MAREA":" ","LANE":"５４５巷","ALLEY":" ","HOUSE_NO":"１６號","E_COORD97":167654.45000000001,"N_COORD97":2542701.0800000001,"ADDRESS":"西門路一段５４５巷１６號","OBJECTID":270814},"geometry":{"x":167654.45000000205,"y":2542701.0800000001}},{"attributes":{"ID":270820,"DIS_CODE":0,"TOWNNAME":"北區","LI":"大山里","LIN":"8鄰","STREET":"公園路","SECT":" ","MAREA":" ","LANE":"６３４巷","ALLEY":" ","HOUSE_NO":"７５號","E_COORD97":169253.95000000001,"N_COORD97":2545366.6299999999,"ADDRESS":"公園路６３４巷７５號","OBJECTID":270815},"geometry":{"x":169253.95000000019,"y":2545366.629999999}},{"attributes":{"ID":270821,"DIS_CODE":0,"TOWNNAME":"南區","LI":"文南里","LIN":"8鄰","STREET":"健康路","SECT":"二段","MAREA":" ","LANE":"２６４巷","ALLEY":" ","HOUSE_NO":"３２號","E_COORD97":166982.45000000001,"N_COORD97":2542588.0699999998,"ADDRESS":"健康路二段２６４巷３２號","OBJECTID":270816},"geometry":{"x":166982.45000000019,"y":2542588.0700000022}},{"attributes":{"ID":270822,"DIS_CODE":0,"TOWNNAME":"新化區","LI":"東榮里","LIN":"8鄰","STREET":"信義路","SECT":" ","MAREA":" ","LANE":"１１７巷","ALLEY":" ","HOUSE_NO":"３０號之８","E_COORD97":179736.94,"N_COORD97":2548270.2599999998,"ADDRESS":"信義路１１７巷３０號之８","OBJECTID":270817},"geometry":{"x":179736.94000000134,"y":2548270.2600000035}},{"attributes":{"ID":270823,"DIS_CODE":0,"TOWNNAME":"新化區","LI":"東榮里","LIN":"8鄰","STREET":"信義路","SECT":" ","MAREA":" ","LANE":"１１７巷","ALLEY":" ","HOUSE_NO":"７３號之８","E_COORD97":179772.34,"N_COORD97":2548253.2599999998,"ADDRESS":"信義路１１７巷７３號之８","OBJECTID":270818},"geometry":{"x":179772.34000000078,"y":2548253.2599999979}},{"attributes":{"ID":270824,"DIS_CODE":0,"TOWNNAME":"新化區","LI":"東榮里","LIN":"8鄰","STREET":"信義路","SECT":" ","MAREA":" ","LANE":"１１７巷","ALLEY":" ","HOUSE_NO":"２８號之７０","E_COORD97":179834.87,"N_COORD97":2548282.2599999998,"ADDRESS":"信義路１１７巷２８號之７０","OBJECTID":270819},"geometry":{"x":179834.87000000197,"y":2548282.2599999998}},{"attributes":{"ID":270825,"DIS_CODE":0,"TOWNNAME":"新化區","LI":"東榮里","LIN":"8鄰","STREET":"信義路","SECT":" ","MAREA":" ","LANE":"１１７巷","ALLEY":" ","HOUSE_NO":"２８號之７２","E_COORD97":179843.38,"N_COORD97":2548281.2599999998,"ADDRESS":"信義路１１７巷２８號之７２","OBJECTID":270820},"geometry":{"x":179843.38000000082,"y":2548281.2600000016}},{"attributes":{"ID":270826,"DIS_CODE":0,"TOWNNAME":"新化區","LI":"東榮里","LIN":"8鄰","STREET":"信義路","SECT":" ","MAREA":" ","LANE":"１１７巷","ALLEY":" ","HOUSE_NO":"２８號之５９","E_COORD97":179785.26999999999,"N_COORD97":2548265.2599999998,"ADDRESS":"信義路１１７巷２８號之５９","OBJECTID":270821},"geometry":{"x":179785.26999999955,"y":2548265.2600000016}},{"attributes":{"ID":270827,"DIS_CODE":0,"TOWNNAME":"北區","LI":"大港里","LIN":"8鄰","STREET":"大興街","SECT":" ","MAREA":" ","LANE":"２４６巷","ALLEY":" ","HOUSE_NO":"２０號","E_COORD97":166687.23000000001,"N_COORD97":2545775.8199999998,"ADDRESS":"大興街２４６巷２０號","OBJECTID":270822},"geometry":{"x":166687.23000000138,"y":2545775.8200000022}},{"attributes":{"ID":270828,"DIS_CODE":0,"TOWNNAME":"北區","LI":"大港里","LIN":"8鄰","STREET":"大興街","SECT":" ","MAREA":" ","LANE":"２４６巷","ALLEY":" ","HOUSE_NO":"２２號","E_COORD97":166685.98000000001,"N_COORD97":2545779.5600000001,"ADDRESS":"大興街２４６巷２２號","OBJECTID":270823},"geometry":{"x":166685.98000000045,"y":2545779.5600000005}},{"attributes":{"ID":270829,"DIS_CODE":0,"TOWNNAME":"北區","LI":"大港里","LIN":"8鄰","STREET":"大興街","SECT":" ","MAREA":" ","LANE":"２４６巷","ALLEY":" ","HOUSE_NO":"２４號","E_COORD97":166682.95000000001,"N_COORD97":2545783.4700000002,"ADDRESS":"大興街２４６巷２４號","OBJECTID":270824},"geometry":{"x":166682.94999999925,"y":2545783.4700000007}},{"attributes":{"ID":270830,"DIS_CODE":0,"TOWNNAME":"北區","LI":"大港里","LIN":"8鄰","STREET":"大興街","SECT":" ","MAREA":" ","LANE":"２４６巷","ALLEY":" ","HOUSE_NO":"２６號","E_COORD97":166680.82000000001,"N_COORD97":2545788.0899999999,"ADDRESS":"大興街２４６巷２６號","OBJECTID":270825},"geometry":{"x":166680.82000000216,"y":2545788.0900000017}},{"attributes":{"ID":270831,"DIS_CODE":0,"TOWNNAME":"北區","LI":"大港里","LIN":"8鄰","STREET":"大興街","SECT":" ","MAREA":" ","LANE":"２４６巷","ALLEY":" ","HOUSE_NO":"２８號","E_COORD97":166678.67999999999,"N_COORD97":2545791.4700000002,"ADDRESS":"大興街２４６巷２８號","OBJECTID":270826},"geometry":{"x":166678.6799999997,"y":2545791.4700000044}},{"attributes":{"ID":270832,"DIS_CODE":0,"TOWNNAME":"北區","LI":"大港里","LIN":"8鄰","STREET":"大興街","SECT":" ","MAREA":" ","LANE":"２４６巷","ALLEY":" ","HOUSE_NO":"２之２號","E_COORD97":166709.31,"N_COORD97":2545733.4900000002,"ADDRESS":"大興街２４６巷２之２號","OBJECTID":270827},"geometry":{"x":166709.31000000052,"y":2545733.4900000039}},{"attributes":{"ID":270833,"DIS_CODE":0,"TOWNNAME":"北區","LI":"大港里","LIN":"8鄰","STREET":"大興街","SECT":" ","MAREA":" ","LANE":"２４６巷","ALLEY":" ","HOUSE_NO":"２號","E_COORD97":166720.35000000001,"N_COORD97":2545725.3100000001,"ADDRESS":"大興街２４６巷２號","OBJECTID":270828},"geometry":{"x":166720.3499999987,"y":2545725.3100000024}},{"attributes":{"ID":270834,"DIS_CODE":0,"TOWNNAME":"北區","LI":"大港里","LIN":"8鄰","STREET":"大興街","SECT":" ","MAREA":" ","LANE":"２４６巷","ALLEY":" ","HOUSE_NO":"２號之１","E_COORD97":166714.12,"N_COORD97":2545729.7599999998,"ADDRESS":"大興街２４６巷２號之１","OBJECTID":270829},"geometry":{"x":166714.12000000197,"y":2545729.7599999998}},{"attributes":{"ID":270835,"DIS_CODE":0,"TOWNNAME":"永康區","LI":"北灣里","LIN":"20鄰","STREET":"北興路","SECT":" ","MAREA":" ","LANE":"３２巷","ALLEY":" ","HOUSE_NO":"２號","E_COORD97":174654.73000000001,"N_COORD97":2546025.0699999998,"ADDRESS":"北興路３２巷２號","OBJECTID":270830},"geometry":{"x":174654.73000000138,"y":2546025.0700000022}},{"attributes":{"ID":270836,"DIS_CODE":0,"TOWNNAME":"東區","LI":"德光里","LIN":"3鄰","STREET":"崇明三街","SECT":" ","MAREA":" ","LANE":" ","ALLEY":" ","HOUSE_NO":"９１號","E_COORD97":169772.64000000001,"N_COORD97":2542415.8599999999,"ADDRESS":"崇明三街９１號","OBJECTID":270831},"geometry":{"x":169772.63999999966,"y":2542415.8599999994}},{"attributes":{"ID":270837,"DIS_CODE":0,"TOWNNAME":"北區","LI":"大港里","LIN":"8鄰","STREET":"大興街","SECT":" ","MAREA":" ","LANE":"２４６巷","ALLEY":" ","HOUSE_NO":"３０號","E_COORD97":166675.82999999999,"N_COORD97":2545795.0299999998,"ADDRESS":"大興街２４６巷３０號","OBJECTID":270832},"geometry":{"x":166675.83000000101,"y":2545795.0299999993}},{"attributes":{"ID":270838,"DIS_CODE":0,"TOWNNAME":"北區","LI":"大港里","LIN":"8鄰","STREET":"大興街","SECT":" ","MAREA":" ","LANE":"２４６巷","ALLEY":" ","HOUSE_NO":"３２號","E_COORD97":166674.57999999999,"N_COORD97":2545798.23,"ADDRESS":"大興街２４６巷３２號","OBJECTID":270833},"geometry":{"x":166674.58000000007,"y":2545798.2300000004}},{"attributes":{"ID":270839,"DIS_CODE":0,"TOWNNAME":"北區","LI":"大港里","LIN":"8鄰","STREET":"大興街","SECT":" ","MAREA":" ","LANE":"２４６巷","ALLEY":" ","HOUSE_NO":"３４號","E_COORD97":166674.04999999999,"N_COORD97":2545801.79,"ADDRESS":"大興街２４６巷３４號","OBJECTID":270834},"geometry":{"x":166674.05000000075,"y":2545801.790000001}},{"attributes":{"ID":270840,"DIS_CODE":0,"TOWNNAME":"北區","LI":"大港里","LIN":"8鄰","STREET":"大興街","SECT":" ","MAREA":" ","LANE":"２４６巷","ALLEY":" ","HOUSE_NO":"３６號","E_COORD97":166675.82999999999,"N_COORD97":2545805.8799999999,"ADDRESS":"大興街２４６巷３６號","OBJECTID":270835},"geometry":{"x":166675.83000000101,"y":2545805.879999999}},{"attributes":{"ID":270841,"DIS_CODE":0,"TOWNNAME":"北區","LI":"大港里","LIN":"8鄰","STREET":"大興街","SECT":" ","MAREA":" ","LANE":"２４６巷","ALLEY":" ","HOUSE_NO":"４號之１","E_COORD97":166704.32999999999,"N_COORD97":2545737.3999999999,"ADDRESS":"大興街２４６巷４號之１","OBJECTID":270836},"geometry":{"x":166704.33000000101,"y":2545737.4000000041}},{"attributes":{"ID":270842,"DIS_CODE":0,"TOWNNAME":"北區","LI":"大港里","LIN":"8鄰","STREET":"大興街","SECT":" ","MAREA":" ","LANE":"２４６巷","ALLEY":" ","HOUSE_NO":"６號","E_COORD97":166695.23999999999,"N_COORD97":2545745.9399999999,"ADDRESS":"大興街２４６巷６號","OBJECTID":270837},"geometry":{"x":166695.24000000115,"y":2545745.9399999995}},{"attributes":{"ID":270843,"DIS_CODE":0,"TOWNNAME":"北區","LI":"大港里","LIN":"8鄰","STREET":"大興街","SECT":" ","MAREA":" ","LANE":"２４６巷","ALLEY":" ","HOUSE_NO":"８號","E_COORD97":166694.53,"N_COORD97":2545750.21,"ADDRESS":"大興街２４６巷８號","OBJECTID":270838},"geometry":{"x":166694.53000000212,"y":2545750.2100000028}},{"attributes":{"ID":270844,"DIS_CODE":0,"TOWNNAME":"北區","LI":"大港里","LIN":"8鄰","STREET":"大興街","SECT":" ","MAREA":" ","LANE":"２４６巷","ALLEY":" ","HOUSE_NO":"１１號","E_COORD97":166675.48999999999,"N_COORD97":2545769.2799999998,"ADDRESS":"大興街２４６巷１１號","OBJECTID":270839},"geometry":{"x":166675.49000000022,"y":2545769.2800000012}},{"attributes":{"ID":270845,"DIS_CODE":0,"TOWNNAME":"北區","LI":"賢北里","LIN":"8鄰","STREET":"賢北街","SECT":" ","MAREA":" ","LANE":"１７巷","ALLEY":" ","HOUSE_NO":"１０號","E_COORD97":166282.79999999999,"N_COORD97":2545263.5800000001,"ADDRESS":"賢北街１７巷１０號","OBJECTID":270840},"geometry":{"x":166282.79999999981,"y":2545263.5800000001}},{"attributes":{"ID":270846,"DIS_CODE":0,"TOWNNAME":"北區","LI":"賢北里","LIN":"8鄰","STREET":"賢北街","SECT":" ","MAREA":" ","LANE":"１７巷","ALLEY":" ","HOUSE_NO":"１１號","E_COORD97":166288.89999999999,"N_COORD97":2545228.46,"ADDRESS":"賢北街１７巷１１號","OBJECTID":270841},"geometry":{"x":166288.9000000013,"y":2545228.4600000009}},{"attributes":{"ID":270847,"DIS_CODE":0,"TOWNNAME":"北區","LI":"賢北里","LIN":"8鄰","STREET":"賢北街","SECT":" ","MAREA":" ","LANE":"１７巷","ALLEY":" ","HOUSE_NO":"１２號","E_COORD97":166274.82999999999,"N_COORD97":2545259.6000000001,"ADDRESS":"賢北街１７巷１２號","OBJECTID":270842},"geometry":{"x":166274.83000000007,"y":2545259.5999999996}},{"attributes":{"ID":270848,"DIS_CODE":0,"TOWNNAME":"北區","LI":"賢北里","LIN":"8鄰","STREET":"賢北街","SECT":" ","MAREA":" ","LANE":"１７巷","ALLEY":" ","HOUSE_NO":"１３號","E_COORD97":166281.16,"N_COORD97":2545226.3500000001,"ADDRESS":"賢北街１７巷１３號","OBJECTID":270843},"geometry":{"x":166281.16000000015,"y":2545226.3500000015}},{"attributes":{"ID":270849,"DIS_CODE":0,"TOWNNAME":"北區","LI":"賢北里","LIN":"8鄰","STREET":"賢北街","SECT":" ","MAREA":" ","LANE":"１７巷","ALLEY":" ","HOUSE_NO":"１４號","E_COORD97":166268.03,"N_COORD97":2545256.3199999998,"ADDRESS":"賢北街１７巷１４號","OBJECTID":270844},"geometry":{"x":166268.03000000119,"y":2545256.3199999984}},{"attributes":{"ID":270850,"DIS_CODE":0,"TOWNNAME":"北區","LI":"賢北里","LIN":"8鄰","STREET":"賢北街","SECT":" ","MAREA":" ","LANE":"１７巷","ALLEY":" ","HOUSE_NO":"１５號","E_COORD97":166273.66,"N_COORD97":2545223.0699999998,"ADDRESS":"賢北街１７巷１５號","OBJECTID":270845},"geometry":{"x":166273.66000000108,"y":2545223.0700000003}},{"attributes":{"ID":270851,"DIS_CODE":0,"TOWNNAME":"北區","LI":"賢北里","LIN":"8鄰","STREET":"賢北街","SECT":" ","MAREA":" ","LANE":"１７巷","ALLEY":" ","HOUSE_NO":"１６號","E_COORD97":166260.76999999999,"N_COORD97":2545253.2799999998,"ADDRESS":"賢北街１７巷１６號","OBJECTID":270846},"geometry":{"x":166260.76999999955,"y":2545253.2800000012}},{"attributes":{"ID":270852,"DIS_CODE":0,"TOWNNAME":"佳里區","LI":"安西里","LIN":"34鄰","STREET":"安西路","SECT":" ","MAREA":" ","LANE":" ","ALLEY":" ","HOUSE_NO":"１８５號","E_COORD97":165115.38,"N_COORD97":2562650.1600000001,"ADDRESS":"安西路１８５號","OBJECTID":270847},"geometry":{"x":165115.38000000082,"y":2562650.1600000039}},{"attributes":{"ID":270853,"DIS_CODE":0,"TOWNNAME":"佳里區","LI":"安西里","LIN":"34鄰","STREET":"安西路","SECT":" ","MAREA":" ","LANE":" ","ALLEY":" ","HOUSE_NO":"１８７號","E_COORD97":165115.16,"N_COORD97":2562653.8900000001,"ADDRESS":"安西路１８７號","OBJECTID":270848},"geometry":{"x":165115.15999999922,"y":2562653.8900000025}},{"attributes":{"ID":270854,"DIS_CODE":0,"TOWNNAME":"佳里區","LI":"安西里","LIN":"34鄰","STREET":"安西路","SECT":" ","MAREA":" ","LANE":" ","ALLEY":" ","HOUSE_NO":"１８９號","E_COORD97":165115.67000000001,"N_COORD97":2562659.0800000001,"ADDRESS":"安西路１８９號","OBJECTID":270849},"geometry":{"x":165115.67000000086,"y":2562659.0800000001}},{"attributes":{"ID":270855,"DIS_CODE":0,"TOWNNAME":"佳里區","LI":"安西里","LIN":"34鄰","STREET":"安西路","SECT":" ","MAREA":" ","LANE":" ","ALLEY":" ","HOUSE_NO":"１９１號","E_COORD97":165115.94,"N_COORD97":2562663.1299999999,"ADDRESS":"安西路１９１號","OBJECTID":270850},"geometry":{"x":165115.94000000134,"y":2562663.1300000008}},{"attributes":{"ID":270856,"DIS_CODE":0,"TOWNNAME":"佳里區","LI":"安西里","LIN":"34鄰","STREET":"安西路","SECT":" ","MAREA":" ","LANE":" ","ALLEY":" ","HOUSE_NO":"１９３號","E_COORD97":165115.70000000001,"N_COORD97":2562667.9100000001,"ADDRESS":"安西路１９３號","OBJECTID":270851},"geometry":{"x":165115.70000000112,"y":2562667.9100000001}},{"attributes":{"ID":270857,"DIS_CODE":0,"TOWNNAME":"佳里區","LI":"安西里","LIN":"34鄰","STREET":"安西路","SECT":" ","MAREA":" ","LANE":" ","ALLEY":" ","HOUSE_NO":"１９５號","E_COORD97":165115.60999999999,"N_COORD97":2562672.3100000001,"ADDRESS":"安西路１９５號","OBJECTID":270852},"geometry":{"x":165115.61000000034,"y":2562672.3100000005}},{"attributes":{"ID":270858,"DIS_CODE":0,"TOWNNAME":"佳里區","LI":"安西里","LIN":"34鄰","STREET":"安西路","SECT":" ","MAREA":" ","LANE":" ","ALLEY":" ","HOUSE_NO":"１９７號","E_COORD97":165115.57000000001,"N_COORD97":2562676.1200000001,"ADDRESS":"安西路１９７號","OBJECTID":270853},"geometry":{"x":165115.5700000003,"y":2562676.1200000029}},{"attributes":{"ID":270859,"DIS_CODE":0,"TOWNNAME":"新營區","LI":"民榮里","LIN":"34鄰","STREET":"復興路","SECT":" ","MAREA":" ","LANE":" ","ALLEY":" ","HOUSE_NO":"３０１號十七樓之３","E_COORD97":178609.88,"N_COORD97":2578135.3500000001,"ADDRESS":"復興路３０１號十七樓之３","OBJECTID":270854},"geometry":{"x":178609.87999999989,"y":2578135.3500000034}},{"attributes":{"ID":270860,"DIS_CODE":0,"TOWNNAME":"仁德區","LI":"仁義里","LIN":"34鄰","STREET":"正義二街","SECT":" ","MAREA":" ","LANE":" ","ALLEY":" ","HOUSE_NO":"１５６號七樓","E_COORD97":173784.87,"N_COORD97":2541581.02,"ADDRESS":"正義二街１５６號七樓","OBJECTID":270855},"geometry":{"x":173784.87000000104,"y":2541581.0199999996}},{"attributes":{"ID":270861,"DIS_CODE":0,"TOWNNAME":"仁德區","LI":"仁義里","LIN":"34鄰","STREET":"正義二街","SECT":" ","MAREA":" ","LANE":" ","ALLEY":" ","HOUSE_NO":"１５６號六樓","E_COORD97":173784.87,"N_COORD97":2541581.02,"ADDRESS":"正義二街１５６號六樓","OBJECTID":270856},"geometry":{"x":173784.87000000104,"y":2541581.0199999996}},{"attributes":{"ID":270862,"DIS_CODE":0,"TOWNNAME":"仁德區","LI":"仁義里","LIN":"34鄰","STREET":"正義二街","SECT":" ","MAREA":" ","LANE":" ","ALLEY":" ","HOUSE_NO":"１５６號八樓","E_COORD97":173784.87,"N_COORD97":2541581.02,"ADDRESS":"正義二街１５６號八樓","OBJECTID":270857},"geometry":{"x":173784.87000000104,"y":2541581.0199999996}},{"attributes":{"ID":270863,"DIS_CODE":0,"TOWNNAME":"善化區","LI":"光文里","LIN":"15鄰","STREET":"信義路","SECT":" ","MAREA":" ","LANE":" ","ALLEY":" ","HOUSE_NO":"１１６號","E_COORD97":178269.95999999999,"N_COORD97":2558900.25,"ADDRESS":"信義路１１６號","OBJECTID":270858},"geometry":{"x":178269.96000000089,"y":2558900.2500000019}},{"attributes":{"ID":270864,"DIS_CODE":0,"TOWNNAME":"善化區","LI":"西關里","LIN":"13鄰","STREET":"興農路","SECT":" ","MAREA":" ","LANE":" ","ALLEY":" ","HOUSE_NO":"３０３號","E_COORD97":175682.85000000001,"N_COORD97":2559013.5099999998,"ADDRESS":"興農路３０３號","OBJECTID":270859},"geometry":{"x":175682.8499999987,"y":2559013.5100000016}},{"attributes":{"ID":270865,"DIS_CODE":0,"TOWNNAME":"北區","LI":"賢北里","LIN":"8鄰","STREET":"賢北街","SECT":" ","MAREA":" ","LANE":"１７巷","ALLEY":" ","HOUSE_NO":"１７號","E_COORD97":166267.79999999999,"N_COORD97":2545219.5600000001,"ADDRESS":"賢北街１７巷１７號","OBJECTID":270860},"geometry":{"x":166267.79999999981,"y":2545219.5600000005}},{"attributes":{"ID":270866,"DIS_CODE":0,"TOWNNAME":"北區","LI":"賢北里","LIN":"8鄰","STREET":"賢北街","SECT":" ","MAREA":" ","LANE":"１７巷","ALLEY":" ","HOUSE_NO":"１８號","E_COORD97":166254.20000000001,"N_COORD97":2545250.4700000002,"ADDRESS":"賢北街１７巷１８號","OBJECTID":270861},"geometry":{"x":166254.20000000205,"y":2545250.4700000025}},{"attributes":{"ID":270867,"DIS_CODE":0,"TOWNNAME":"北區","LI":"賢北里","LIN":"8鄰","STREET":"賢北街","SECT":" ","MAREA":" ","LANE":"１７巷","ALLEY":" ","HOUSE_NO":"１９號","E_COORD97":166258.66,"N_COORD97":2545216.0499999998,"ADDRESS":"賢北街１７巷１９號","OBJECTID":270862},"geometry":{"x":166258.66000000108,"y":2545216.0500000026}},{"attributes":{"ID":270868,"DIS_CODE":0,"TOWNNAME":"新營區","LI":"三仙里","LIN":"8鄰","STREET":"博愛街","SECT":" ","MAREA":" ","LANE":"８４巷","ALLEY":" ","HOUSE_NO":"５號","E_COORD97":179685.69,"N_COORD97":2578157.7999999998,"ADDRESS":"博愛街８４巷５號","OBJECTID":270863},"geometry":{"x":179685.69000000134,"y":2578157.8000000026}},{"attributes":{"ID":270869,"DIS_CODE":0,"TOWNNAME":"新營區","LI":"民權里","LIN":"8鄰","STREET":"博愛街","SECT":" ","MAREA":" ","LANE":"７５巷","ALLEY":" ","HOUSE_NO":"６號","E_COORD97":179838.87,"N_COORD97":2578106.1299999999,"ADDRESS":"博愛街７５巷６號","OBJECTID":270864},"geometry":{"x":179838.87000000104,"y":2578106.1300000008}},{"attributes":{"ID":270870,"DIS_CODE":0,"TOWNNAME":"新營區","LI":"三仙里","LIN":"8鄰","STREET":"博愛街","SECT":" ","MAREA":" ","LANE":"８４巷","ALLEY":" ","HOUSE_NO":"１１號","E_COORD97":179684.92999999999,"N_COORD97":2578169.9900000002,"ADDRESS":"博愛街８４巷１１號","OBJECTID":270865},"geometry":{"x":179684.93000000156,"y":2578169.9900000021}},{"attributes":{"ID":270871,"DIS_CODE":0,"TOWNNAME":"善化區","LI":"坐駕里","LIN":" ","STREET":"自強路","SECT":" ","MAREA":" ","LANE":" ","ALLEY":" ","HOUSE_NO":"９８號","E_COORD97":178050.04000000001,"N_COORD97":2558738,"ADDRESS":"自強路９８號","OBJECTID":270866},"geometry":{"x":178050.04000000004,"y":2558738}},{"attributes":{"ID":270872,"DIS_CODE":0,"TOWNNAME":"善化區","LI":"文昌里","LIN":"13鄰","STREET":"大信路","SECT":" ","MAREA":" ","LANE":" ","ALLEY":" ","HOUSE_NO":"４７號","E_COORD97":177560.87,"N_COORD97":2558849.25,"ADDRESS":"大信路４７號","OBJECTID":270867},"geometry":{"x":177560.87000000011,"y":2558849.2500000019}},{"attributes":{"ID":270873,"DIS_CODE":0,"TOWNNAME":"善化區","LI":"坐駕里","LIN":"4鄰","STREET":"中正路","SECT":" ","MAREA":" ","LANE":" ","ALLEY":" ","HOUSE_NO":"４４０之１號","E_COORD97":177699.29000000001,"N_COORD97":2558943.02,"ADDRESS":"中正路４４０之１號","OBJECTID":270868},"geometry":{"x":177699.2900000019,"y":2558943.0199999996}},{"attributes":{"ID":270874,"DIS_CODE":0,"TOWNNAME":"善化區","LI":"東關里","LIN":" ","STREET":"進學路","SECT":" ","MAREA":" ","LANE":" ","ALLEY":" ","HOUSE_NO":"３２號","E_COORD97":177302.91,"N_COORD97":2559239.5,"ADDRESS":"進學路３２號","OBJECTID":270869},"geometry":{"x":177302.91000000015,"y":2559239.5}},{"attributes":{"ID":270875,"DIS_CODE":0,"TOWNNAME":"善化區","LI":"坐駕里","LIN":" ","STREET":"大成路","SECT":" ","MAREA":" ","LANE":" ","ALLEY":" ","HOUSE_NO":"３６１號","E_COORD97":177951.88,"N_COORD97":2558779.5,"ADDRESS":"大成路３６１號","OBJECTID":270870},"geometry":{"x":177951.88000000082,"y":2558779.5000000019}},{"attributes":{"ID":270876,"DIS_CODE":0,"TOWNNAME":"善化區","LI":"東關里","LIN":" ","STREET":"中山路","SECT":" ","MAREA":" ","LANE":" ","ALLEY":" ","HOUSE_NO":"３７７之２３號","E_COORD97":177441.03,"N_COORD97":2559086.77,"ADDRESS":"中山路３７７之２３號","OBJECTID":270871},"geometry":{"x":177441.03000000119,"y":2559086.7700000014}},{"attributes":{"ID":270877,"DIS_CODE":0,"TOWNNAME":"善化區","LI":"光文里","LIN":"20鄰","STREET":"和平路","SECT":" ","MAREA":" ","LANE":" ","ALLEY":" ","HOUSE_NO":"１２９號","E_COORD97":178114.56,"N_COORD97":2558934.25,"ADDRESS":"和平路１２９號","OBJECTID":270872},"geometry":{"x":178114.56000000052,"y":2558934.2500000019}},{"attributes":{"ID":270878,"DIS_CODE":0,"TOWNNAME":"新化區","LI":"東榮里","LIN":"8鄰","STREET":"信義路","SECT":" ","MAREA":" ","LANE":"１１７巷","ALLEY":" ","HOUSE_NO":"２８號之４５","E_COORD97":179778.48999999999,"N_COORD97":2548295.2599999998,"ADDRESS":"信義路１１７巷２８號之４５","OBJECTID":270873},"geometry":{"x":179778.49000000115,"y":2548295.2600000016}},{"attributes":{"ID":270879,"DIS_CODE":0,"TOWNNAME":"新化區","LI":"豐榮里","LIN":"8鄰","STREET":"大智路","SECT":" ","MAREA":" ","LANE":"７７巷","ALLEY":" ","HOUSE_NO":"５號","E_COORD97":178277.48000000001,"N_COORD97":2548278.25,"ADDRESS":"大智路７７巷５號","OBJECTID":270874},"geometry":{"x":178277.48000000045,"y":2548278.2500000019}},{"attributes":{"ID":270880,"DIS_CODE":0,"TOWNNAME":"南區","LI":"佛壇里","LIN":"8鄰","STREET":"興南街","SECT":" ","MAREA":" ","LANE":"５５巷","ALLEY":" ","HOUSE_NO":"３３號","E_COORD97":166314.47,"N_COORD97":2535995.04,"ADDRESS":"興南街５５巷３３號","OBJECTID":270875},"geometry":{"x":166314.46999999974,"y":2535995.040000001}},{"attributes":{"ID":270881,"DIS_CODE":0,"TOWNNAME":"南區","LI":"佛壇里","LIN":"8鄰","STREET":"興南街","SECT":" ","MAREA":" ","LANE":"５５巷","ALLEY":" ","HOUSE_NO":"３５號","E_COORD97":166314.57000000001,"N_COORD97":2535990.1699999999,"ADDRESS":"興南街５５巷３５號","OBJECTID":270876},"geometry":{"x":166314.57000000216,"y":2535990.1699999999}},{"attributes":{"ID":270882,"DIS_CODE":0,"TOWNNAME":"南區","LI":"佛壇里","LIN":"8鄰","STREET":"興南街","SECT":" ","MAREA":" ","LANE":"５５巷","ALLEY":" ","HOUSE_NO":"３７號","E_COORD97":166315.04999999999,"N_COORD97":2535987.1600000001,"ADDRESS":"興南街５５巷３７號","OBJECTID":270877},"geometry":{"x":166315.04999999981,"y":2535987.1600000001}},{"attributes":{"ID":270883,"DIS_CODE":0,"TOWNNAME":"南區","LI":"佛壇里","LIN":"8鄰","STREET":"興南街","SECT":" ","MAREA":" ","LANE":"５５巷","ALLEY":" ","HOUSE_NO":"３９號","E_COORD97":166316.31,"N_COORD97":2535983.29,"ADDRESS":"興南街５５巷３９號","OBJECTID":270878},"geometry":{"x":166316.31000000052,"y":2535983.290000001}},{"attributes":{"ID":270884,"DIS_CODE":0,"TOWNNAME":"南區","LI":"佛壇里","LIN":"8鄰","STREET":"興南街","SECT":" ","MAREA":" ","LANE":"５５巷","ALLEY":" ","HOUSE_NO":"４１號","E_COORD97":166323.87,"N_COORD97":2535980.8700000001,"ADDRESS":"興南街５５巷４１號","OBJECTID":270879},"geometry":{"x":166323.87000000011,"y":2535980.8700000048}},{"attributes":{"ID":270885,"DIS_CODE":0,"TOWNNAME":"南區","LI":"佛壇里","LIN":"8鄰","STREET":"興南街","SECT":" ","MAREA":" ","LANE":"５５巷","ALLEY":" ","HOUSE_NO":"４３號","E_COORD97":166319.12,"N_COORD97":2535975.0600000001,"ADDRESS":"興南街５５巷４３號","OBJECTID":270880},"geometry":{"x":166319.12000000197,"y":2535975.0600000005}},{"attributes":{"ID":270886,"DIS_CODE":0,"TOWNNAME":"南區","LI":"佛壇里","LIN":"8鄰","STREET":"興南街","SECT":" ","MAREA":" ","LANE":"５５巷","ALLEY":" ","HOUSE_NO":"４５號","E_COORD97":166320.19,"N_COORD97":2535970.7000000002,"ADDRESS":"興南街５５巷４５號","OBJECTID":270881},"geometry":{"x":166320.19000000041,"y":2535970.7000000011}},{"attributes":{"ID":270887,"DIS_CODE":0,"TOWNNAME":"南區","LI":"佛壇里","LIN":"8鄰","STREET":"興南街","SECT":" ","MAREA":" ","LANE":"５５巷","ALLEY":" ","HOUSE_NO":"４７號","E_COORD97":166319.89999999999,"N_COORD97":2535966.54,"ADDRESS":"興南街５５巷４７號","OBJECTID":270882},"geometry":{"x":166319.9000000013,"y":2535966.5399999991}},{"attributes":{"ID":270888,"DIS_CODE":0,"TOWNNAME":"南區","LI":"佛壇里","LIN":"8鄰","STREET":"興南街","SECT":" ","MAREA":" ","LANE":"５５巷","ALLEY":" ","HOUSE_NO":"４９號","E_COORD97":166321.26000000001,"N_COORD97":2535963.1499999999,"ADDRESS":"興南街５５巷４９號","OBJECTID":270883},"geometry":{"x":166321.26000000164,"y":2535963.1500000004}},{"attributes":{"ID":270889,"DIS_CODE":0,"TOWNNAME":"南區","LI":"佛壇里","LIN":"8鄰","STREET":"興南街","SECT":" ","MAREA":" ","LANE":"５５巷","ALLEY":" ","HOUSE_NO":"５１號","E_COORD97":166321.45000000001,"N_COORD97":2535958.8900000001,"ADDRESS":"興南街５５巷５１號","OBJECTID":270884},"geometry":{"x":166321.45000000019,"y":2535958.8900000006}},{"attributes":{"ID":270890,"DIS_CODE":0,"TOWNNAME":"南區","LI":"佛壇里","LIN":"8鄰","STREET":"興南街","SECT":" ","MAREA":" ","LANE":"５５巷","ALLEY":" ","HOUSE_NO":"５３號","E_COORD97":166322.13,"N_COORD97":2535955.0099999998,"ADDRESS":"興南街５５巷５３號","OBJECTID":270885},"geometry":{"x":166322.13000000175,"y":2535955.0100000035}},{"attributes":{"ID":270891,"DIS_CODE":0,"TOWNNAME":"南區","LI":"佛壇里","LIN":"8鄰","STREET":"興南街","SECT":" ","MAREA":" ","LANE":"５５巷","ALLEY":" ","HOUSE_NO":"５５號","E_COORD97":166323.29000000001,"N_COORD97":2535951.04,"ADDRESS":"興南街５５巷５５號","OBJECTID":270886},"geometry":{"x":166323.29000000097,"y":2535951.040000001}},{"attributes":{"ID":270892,"DIS_CODE":0,"TOWNNAME":"南區","LI":"佛壇里","LIN":"8鄰","STREET":"興南街","SECT":" ","MAREA":" ","LANE":"５５巷","ALLEY":" ","HOUSE_NO":"５７號","E_COORD97":166324.35999999999,"N_COORD97":2535948.0600000001,"ADDRESS":"興南街５５巷５７號","OBJECTID":270887},"geometry":{"x":166324.3599999994,"y":2535948.0600000005}},{"attributes":{"ID":270893,"DIS_CODE":0,"TOWNNAME":"南區","LI":"佛壇里","LIN":"8鄰","STREET":"興南街","SECT":" ","MAREA":" ","LANE":"５５巷","ALLEY":" ","HOUSE_NO":"５９號","E_COORD97":166324.42000000001,"N_COORD97":2535943.3799999999,"ADDRESS":"興南街５５巷５９號","OBJECTID":270888},"geometry":{"x":166324.42000000086,"y":2535943.379999999}},{"attributes":{"ID":270894,"DIS_CODE":0,"TOWNNAME":"南區","LI":"佛壇里","LIN":"8鄰","STREET":"興南街","SECT":" ","MAREA":" ","LANE":"５５巷","ALLEY":" ","HOUSE_NO":"６１號","E_COORD97":166324.23000000001,"N_COORD97":2535936.5800000001,"ADDRESS":"興南街５５巷６１號","OBJECTID":270889},"geometry":{"x":166324.23000000138,"y":2535936.5800000001}},{"attributes":{"ID":270895,"DIS_CODE":0,"TOWNNAME":"歸仁區","LI":"西埔里","LIN":"8鄰","STREET":"保大路","SECT":"二段","MAREA":" ","LANE":"１２２巷","ALLEY":" ","HOUSE_NO":"１０１號","E_COORD97":176844.97,"N_COORD97":2544477.2799999998,"ADDRESS":"保大路二段１２２巷１０１號","OBJECTID":270890},"geometry":{"x":176844.96999999974,"y":2544477.2800000012}},{"attributes":{"ID":270896,"DIS_CODE":0,"TOWNNAME":"善化區","LI":"文正里","LIN":"14鄰","STREET":"興農路","SECT":" ","MAREA":" ","LANE":" ","ALLEY":" ","HOUSE_NO":"２５８號","E_COORD97":175806.37,"N_COORD97":2559080.0099999998,"ADDRESS":"興農路２５８號","OBJECTID":270891},"geometry":{"x":175806.37000000011,"y":2559080.0099999998}},{"attributes":{"ID":270897,"DIS_CODE":0,"TOWNNAME":"善化區","LI":"文正里","LIN":"8鄰","STREET":"文正路","SECT":" ","MAREA":" ","LANE":" ","ALLEY":" ","HOUSE_NO":"５７號之１","E_COORD97":177020.89000000001,"N_COORD97":2559257.0299999998,"ADDRESS":"文正路５７號之１","OBJECTID":270892},"geometry":{"x":177020.8900000006,"y":2559257.0300000012}},{"attributes":{"ID":270898,"DIS_CODE":0,"TOWNNAME":"仁德區","LI":"中洲里","LIN":"3鄰","STREET":" ","SECT":" ","MAREA":"中洲","LANE":" ","ALLEY":" ","HOUSE_NO":"２８號之３","E_COORD97":173243.04000000001,"N_COORD97":2534385.54,"ADDRESS":"中洲２８號之３","OBJECTID":270893},"geometry":{"x":173243.04000000097,"y":2534385.540000001}},{"attributes":{"ID":270899,"DIS_CODE":0,"TOWNNAME":"歸仁區","LI":"武東里","LIN":"8鄰","STREET":"武東一街","SECT":" ","MAREA":" ","LANE":"６０巷","ALLEY":" ","HOUSE_NO":"１６號","E_COORD97":175694.39000000001,"N_COORD97":2535405.25,"ADDRESS":"武東一街６０巷１６號","OBJECTID":270894},"geometry":{"x":175694.38999999966,"y":2535405.2500000019}},{"attributes":{"ID":270900,"DIS_CODE":0,"TOWNNAME":"歸仁區","LI":"南興里","LIN":"8鄰","STREET":"文化十六街","SECT":" ","MAREA":" ","LANE":"５０巷","ALLEY":" ","HOUSE_NO":"１３號","E_COORD97":176074.44,"N_COORD97":2541320.3300000001,"ADDRESS":"文化十六街５０巷１３號","OBJECTID":270895},"geometry":{"x":176074.44000000041,"y":2541320.3300000019}},{"attributes":{"ID":270901,"DIS_CODE":0,"TOWNNAME":"歸仁區","LI":"大廟里","LIN":"8鄰","STREET":"大廟一街","SECT":" ","MAREA":" ","LANE":"９３巷","ALLEY":" ","HOUSE_NO":"２１號","E_COORD97":175845.01999999999,"N_COORD97":2543925.25,"ADDRESS":"大廟一街９３巷２１號","OBJECTID":270896},"geometry":{"x":175845.02000000048,"y":2543925.2500000019}},{"attributes":{"ID":270902,"DIS_CODE":0,"TOWNNAME":"歸仁區","LI":"新厝里","LIN":"8鄰","STREET":"中正三街","SECT":" ","MAREA":" ","LANE":"５６巷","ALLEY":" ","HOUSE_NO":"１１號","E_COORD97":177754.28,"N_COORD97":2540517.3100000001,"ADDRESS":"中正三街５６巷１１號","OBJECTID":270897},"geometry":{"x":177754.28000000119,"y":2540517.3100000042}},{"attributes":{"ID":270903,"DIS_CODE":0,"TOWNNAME":"歸仁區","LI":"新厝里","LIN":"8鄰","STREET":"中正三街","SECT":" ","MAREA":" ","LANE":"５６巷","ALLEY":" ","HOUSE_NO":"１３號","E_COORD97":177754,"N_COORD97":2540514.71,"ADDRESS":"中正三街５６巷１３號","OBJECTID":270898},"geometry":{"x":177754.00000000093,"y":2540514.7100000046}},{"attributes":{"ID":270904,"DIS_CODE":0,"TOWNNAME":"歸仁區","LI":"新厝里","LIN":"8鄰","STREET":"中正三街","SECT":" ","MAREA":" ","LANE":"５６巷","ALLEY":" ","HOUSE_NO":"１５號","E_COORD97":177753.5,"N_COORD97":2540512.1800000002,"ADDRESS":"中正三街５６巷１５號","OBJECTID":270899},"geometry":{"x":177753.5,"y":2540512.1799999997}},{"attributes":{"ID":270905,"DIS_CODE":0,"TOWNNAME":"歸仁區","LI":"新厝里","LIN":"8鄰","STREET":"中正三街","SECT":" ","MAREA":" ","LANE":"５６巷","ALLEY":" ","HOUSE_NO":"１７號","E_COORD97":177753.26000000001,"N_COORD97":2540509.8700000001,"ADDRESS":"中正三街５６巷１７號","OBJECTID":270900},"geometry":{"x":177753.25999999978,"y":2540509.870000001}},{"attributes":{"ID":270906,"DIS_CODE":0,"TOWNNAME":"歸仁區","LI":"新厝里","LIN":"8鄰","STREET":"中正三街","SECT":" ","MAREA":" ","LANE":"５６巷","ALLEY":" ","HOUSE_NO":"１９號","E_COORD97":177752.97,"N_COORD97":2540507.6200000001,"ADDRESS":"中正三街５６巷１９號","OBJECTID":270901},"geometry":{"x":177752.96999999974,"y":2540507.620000001}},{"attributes":{"ID":270907,"DIS_CODE":0,"TOWNNAME":"歸仁區","LI":"新厝里","LIN":"8鄰","STREET":"中正三街","SECT":" ","MAREA":" ","LANE":"５６巷","ALLEY":" ","HOUSE_NO":"７號","E_COORD97":177754.73999999999,"N_COORD97":2540522.4700000002,"ADDRESS":"中正三街５６巷７號","OBJECTID":270902},"geometry":{"x":177754.74000000115,"y":2540522.4700000007}},{"attributes":{"ID":270908,"DIS_CODE":0,"TOWNNAME":"歸仁區","LI":"新厝里","LIN":"8鄰","STREET":"中正三街","SECT":" ","MAREA":" ","LANE":"５６巷","ALLEY":" ","HOUSE_NO":"９號","E_COORD97":177754.32999999999,"N_COORD97":2540520,"ADDRESS":"中正三街５６巷９號","OBJECTID":270903},"geometry":{"x":177754.33000000007,"y":2540520.0000000019}},{"attributes":{"ID":270909,"DIS_CODE":0,"TOWNNAME":"南區","LI":"新昌里","LIN":"8鄰","STREET":"五妃街","SECT":" ","MAREA":" ","LANE":"３８６巷","ALLEY":" ","HOUSE_NO":"７號","E_COORD97":167575.84,"N_COORD97":2542646.3700000001,"ADDRESS":"五妃街３８６巷７號","OBJECTID":270904},"geometry":{"x":167575.84000000078,"y":2542646.3700000048}},{"attributes":{"ID":270910,"DIS_CODE":0,"TOWNNAME":"南區","LI":"文華里","LIN":"8鄰","STREET":"金華路","SECT":"二段","MAREA":" ","LANE":"３４５巷","ALLEY":" ","HOUSE_NO":"１０號","E_COORD97":167082.14000000001,"N_COORD97":2542935.6200000001,"ADDRESS":"金華路二段３４５巷１０號","OBJECTID":270905},"geometry":{"x":167082.1400000006,"y":2542935.620000001}},{"attributes":{"ID":270911,"DIS_CODE":0,"TOWNNAME":"南區","LI":"文華里","LIN":"8鄰","STREET":"金華路","SECT":"二段","MAREA":" ","LANE":"３４５巷","ALLEY":" ","HOUSE_NO":"１２號","E_COORD97":167076.76000000001,"N_COORD97":2542935.7999999998,"ADDRESS":"金華路二段３４５巷１２號","OBJECTID":270906},"geometry":{"x":167076.75999999978,"y":2542935.8000000026}},{"attributes":{"ID":270912,"DIS_CODE":0,"TOWNNAME":"南區","LI":"喜北里","LIN":"8鄰","STREET":"喜樹路","SECT":" ","MAREA":" ","LANE":"１１８巷","ALLEY":" ","HOUSE_NO":"２７號","E_COORD97":165790.09,"N_COORD97":2538330.4700000002,"ADDRESS":"喜樹路１１８巷２７號","OBJECTID":270907},"geometry":{"x":165790.09000000171,"y":2538330.4700000025}},{"attributes":{"ID":270913,"DIS_CODE":0,"TOWNNAME":"善化區","LI":"文昌里","LIN":"15鄰","STREET":"永福路","SECT":" ","MAREA":" ","LANE":" ","ALLEY":" ","HOUSE_NO":"１號","E_COORD97":177636.81,"N_COORD97":2558906.75,"ADDRESS":"永福路１號","OBJECTID":270908},"geometry":{"x":177636.81000000052,"y":2558906.7500000019}},{"attributes":{"ID":270914,"DIS_CODE":0,"TOWNNAME":"善化區","LI":"文昌里","LIN":"15鄰","STREET":"文昌路","SECT":" ","MAREA":" ","LANE":" ","ALLEY":" ","HOUSE_NO":"１１號之２","E_COORD97":177552.75,"N_COORD97":2558804.0299999998,"ADDRESS":"文昌路１１號之２","OBJECTID":270909},"geometry":{"x":177552.75000000093,"y":2558804.0299999993}},{"attributes":{"ID":270915,"DIS_CODE":0,"TOWNNAME":"善化區","LI":"文昌里","LIN":"15鄰","STREET":"文昌路","SECT":" ","MAREA":" ","LANE":" ","ALLEY":" ","HOUSE_NO":"１３號","E_COORD97":177546.07999999999,"N_COORD97":2558803.2799999998,"ADDRESS":"文昌路１３號","OBJECTID":270910},"geometry":{"x":177546.08000000007,"y":2558803.2799999993}},{"attributes":{"ID":270916,"DIS_CODE":0,"TOWNNAME":"善化區","LI":"文昌里","LIN":"15鄰","STREET":"光復路","SECT":" ","MAREA":" ","LANE":" ","ALLEY":" ","HOUSE_NO":"２８號","E_COORD97":177616.70000000001,"N_COORD97":2558735.5099999998,"ADDRESS":"光復路２８號","OBJECTID":270911},"geometry":{"x":177616.70000000019,"y":2558735.5100000016}},{"attributes":{"ID":270917,"DIS_CODE":0,"TOWNNAME":"善化區","LI":"文昌里","LIN":"15鄰","STREET":"文昌路","SECT":" ","MAREA":" ","LANE":" ","ALLEY":" ","HOUSE_NO":"２１號","E_COORD97":177512.66,"N_COORD97":2558749.0299999998,"ADDRESS":"文昌路２１號","OBJECTID":270912},"geometry":{"x":177512.66000000108,"y":2558749.0300000012}},{"attributes":{"ID":270918,"DIS_CODE":0,"TOWNNAME":"善化區","LI":"文昌里","LIN":"15鄰","STREET":"永福路","SECT":" ","MAREA":" ","LANE":" ","ALLEY":" ","HOUSE_NO":"２５號","E_COORD97":177604.85000000001,"N_COORD97":2558874.5,"ADDRESS":"永福路２５號","OBJECTID":270913},"geometry":{"x":177604.84999999963,"y":2558874.5000000019}},{"attributes":{"ID":270919,"DIS_CODE":0,"TOWNNAME":"善化區","LI":"文昌里","LIN":"15鄰","STREET":"永福路","SECT":" ","MAREA":" ","LANE":" ","ALLEY":" ","HOUSE_NO":"２１號","E_COORD97":177618.32000000001,"N_COORD97":2558884.75,"ADDRESS":"永福路２１號","OBJECTID":270914},"geometry":{"x":177618.32000000123,"y":2558884.75}},{"attributes":{"ID":270920,"DIS_CODE":0,"TOWNNAME":"善化區","LI":"文昌里","LIN":"15鄰","STREET":"文昌路","SECT":" ","MAREA":" ","LANE":" ","ALLEY":" ","HOUSE_NO":"４號之７","E_COORD97":177632.04999999999,"N_COORD97":2558860.5299999998,"ADDRESS":"文昌路４號之７","OBJECTID":270915},"geometry":{"x":177632.05000000075,"y":2558860.5300000012}},{"attributes":{"ID":270921,"DIS_CODE":0,"TOWNNAME":"仁德區","LI":"保安里","LIN":"3鄰","STREET":"保安路","SECT":"一段","MAREA":" ","LANE":" ","ALLEY":" ","HOUSE_NO":"１４５號","E_COORD97":171191.34,"N_COORD97":2536872.3100000001,"ADDRESS":"保安路一段１４５號","OBJECTID":270916},"geometry":{"x":171191.34000000078,"y":2536872.3100000042}},{"attributes":{"ID":270922,"DIS_CODE":0,"TOWNNAME":"仁德區","LI":"仁愛里","LIN":"3鄰","STREET":" ","SECT":" ","MAREA":"仁愛","LANE":" ","ALLEY":" ","HOUSE_NO":"４３號","E_COORD97":170337.97921799999,"N_COORD97":2540059.9536899999,"ADDRESS":"仁愛４３號","OBJECTID":270917},"geometry":{"x":170337.97921799961,"y":2540059.953687001}},{"attributes":{"ID":270923,"DIS_CODE":0,"TOWNNAME":"仁德區","LI":"中洲里","LIN":"3鄰","STREET":" ","SECT":" ","MAREA":"中洲","LANE":" ","ALLEY":" ","HOUSE_NO":"１９號","E_COORD97":173259.82000000001,"N_COORD97":2534446.2400000002,"ADDRESS":"中洲１９號","OBJECTID":270918},"geometry":{"x":173259.82000000216,"y":2534446.2400000021}},{"attributes":{"ID":270924,"DIS_CODE":0,"TOWNNAME":"仁德區","LI":"三甲里","LIN":"3鄰","STREET":" ","SECT":" ","MAREA":"三甲子","LANE":" ","ALLEY":" ","HOUSE_NO":"２３號之１","E_COORD97":171758.85000000001,"N_COORD97":2536906.5499999998,"ADDRESS":"三甲子２３號之１","OBJECTID":270919},"geometry":{"x":171758.85000000056,"y":2536906.5500000026}},{"attributes":{"ID":270925,"DIS_CODE":0,"TOWNNAME":"仁德區","LI":"三甲里","LIN":"3鄰","STREET":" ","SECT":" ","MAREA":"三甲子","LANE":" ","ALLEY":" ","HOUSE_NO":"２６之１２號","E_COORD97":171857.62,"N_COORD97":2536879.0499999998,"ADDRESS":"三甲子２６之１２號","OBJECTID":270920},"geometry":{"x":171857.62000000104,"y":2536879.0500000026}},{"attributes":{"ID":270926,"DIS_CODE":0,"TOWNNAME":"仁德區","LI":"三甲里","LIN":"3鄰","STREET":" ","SECT":" ","MAREA":"三甲子","LANE":" ","ALLEY":" ","HOUSE_NO":"２６號之７","E_COORD97":171834.32000000001,"N_COORD97":2536883.7999999998,"ADDRESS":"三甲子２６號之７","OBJECTID":270921},"geometry":{"x":171834.32000000123,"y":2536883.8000000026}},{"attributes":{"ID":270927,"DIS_CODE":0,"TOWNNAME":"仁德區","LI":"三甲里","LIN":"3鄰","STREET":" ","SECT":" ","MAREA":"三甲子","LANE":" ","ALLEY":" ","HOUSE_NO":"２６號之４","E_COORD97":171820.75,"N_COORD97":2536896.7999999998,"ADDRESS":"三甲子２６號之４","OBJECTID":270922},"geometry":{"x":171820.75000000186,"y":2536896.8000000026}},{"attributes":{"ID":270928,"DIS_CODE":0,"TOWNNAME":"仁德區","LI":"中洲里","LIN":"3鄰","STREET":" ","SECT":" ","MAREA":"中洲","LANE":" ","ALLEY":" ","HOUSE_NO":"２１號","E_COORD97":173248.42999999999,"N_COORD97":2534448.9900000002,"ADDRESS":"中洲２１號","OBJECTID":270923},"geometry":{"x":173248.43000000063,"y":2534448.9900000002}},{"attributes":{"ID":270929,"DIS_CODE":0,"TOWNNAME":"中西區","LI":"西賢里","LIN":"3鄰","STREET":"湖美街","SECT":" ","MAREA":" ","LANE":" ","ALLEY":" ","HOUSE_NO":"１０３之２號","E_COORD97":165922.52906,"N_COORD97":2544721.9840699998,"ADDRESS":"湖美街１０３之２號","OBJECTID":270924},"geometry":{"x":165922.52905999962,"y":2544721.9840680026}},{"attributes":{"ID":270930,"DIS_CODE":0,"TOWNNAME":"南區","LI":"喜北里","LIN":"8鄰","STREET":"喜樹路","SECT":" ","MAREA":" ","LANE":"１１８巷","ALLEY":" ","HOUSE_NO":"２９號","E_COORD97":165784.60000000001,"N_COORD97":2538330.6699999999,"ADDRESS":"喜樹路１１８巷２９號","OBJECTID":270925},"geometry":{"x":165784.5999999987,"y":2538330.6700000037}},{"attributes":{"ID":270931,"DIS_CODE":0,"TOWNNAME":"安平區","LI":"平通里","LIN":"8鄰","STREET":"健康三街","SECT":" ","MAREA":" ","LANE":"５９２巷","ALLEY":" ","HOUSE_NO":"２６號","E_COORD97":164918.51999999999,"N_COORD97":2544191.79,"ADDRESS":"健康三街５９２巷２６號","OBJECTID":270926},"geometry":{"x":164918.51999999955,"y":2544191.790000001}},{"attributes":{"ID":270932,"DIS_CODE":0,"TOWNNAME":"安平區","LI":"平通里","LIN":"8鄰","STREET":"健康三街","SECT":" ","MAREA":" ","LANE":"５９２巷","ALLEY":" ","HOUSE_NO":"３０號","E_COORD97":164943.12,"N_COORD97":2544187.8999999999,"ADDRESS":"健康三街５９２巷３０號","OBJECTID":270927},"geometry":{"x":164943.12000000104,"y":2544187.8999999985}},{"attributes":{"ID":270933,"DIS_CODE":0,"TOWNNAME":"仁德區","LI":"新田里","LIN":"3鄰","STREET":"新田二街","SECT":" ","MAREA":" ","LANE":"１１６巷","ALLEY":" ","HOUSE_NO":"６６號","E_COORD97":174854.95000000001,"N_COORD97":2539578.5,"ADDRESS":"新田二街１１６巷６６號","OBJECTID":270928},"geometry":{"x":174854.95000000019,"y":2539578.5}},{"attributes":{"ID":270934,"DIS_CODE":0,"TOWNNAME":"仁德區","LI":"仁德里","LIN":"3鄰","STREET":"仁中五街","SECT":" ","MAREA":" ","LANE":" ","ALLEY":" ","HOUSE_NO":"５１號","E_COORD97":173399.60999999999,"N_COORD97":2540279.7400000002,"ADDRESS":"仁中五街５１號","OBJECTID":270929},"geometry":{"x":173399.61000000034,"y":2540279.7399999984}},{"attributes":{"ID":270935,"DIS_CODE":0,"TOWNNAME":"仁德區","LI":"大甲里","LIN":"3鄰","STREET":"行大一街","SECT":" ","MAREA":" ","LANE":" ","ALLEY":" ","HOUSE_NO":"１３４號","E_COORD97":169907.73000000001,"N_COORD97":2535020.5,"ADDRESS":"行大一街１３４號","OBJECTID":270930},"geometry":{"x":169907.73000000138,"y":2535020.5000000019}},{"attributes":{"ID":270936,"DIS_CODE":0,"TOWNNAME":"仁德區","LI":"仁德里","LIN":"3鄰","STREET":"仁中三街","SECT":" ","MAREA":" ","LANE":" ","ALLEY":" ","HOUSE_NO":"３７號","E_COORD97":173358.88,"N_COORD97":2540411,"ADDRESS":"仁中三街３７號","OBJECTID":270931},"geometry":{"x":173358.88000000175,"y":2540411.0000000019}},{"attributes":{"ID":270937,"DIS_CODE":0,"TOWNNAME":"仁德區","LI":"仁德里","LIN":"3鄰","STREET":"中正路","SECT":"二段","MAREA":" ","LANE":" ","ALLEY":" ","HOUSE_NO":"７４１號","E_COORD97":173460.04999999999,"N_COORD97":2540233.7799999998,"ADDRESS":"中正路二段７４１號","OBJECTID":270932},"geometry":{"x":173460.05000000075,"y":2540233.7799999993}},{"attributes":{"ID":270938,"DIS_CODE":0,"TOWNNAME":"安平區","LI":"平通里","LIN":"8鄰","STREET":"健康三街","SECT":" ","MAREA":" ","LANE":"５９２巷","ALLEY":" ","HOUSE_NO":"３２號","E_COORD97":164942.09,"N_COORD97":2544182.8399999999,"ADDRESS":"健康三街５９２巷３２號","OBJECTID":270933},"geometry":{"x":164942.08999999985,"y":2544182.8399999999}},{"attributes":{"ID":270939,"DIS_CODE":0,"TOWNNAME":"仁德區","LI":"三甲里","LIN":"3鄰","STREET":" ","SECT":" ","MAREA":"三甲子","LANE":" ","ALLEY":" ","HOUSE_NO":"２６號之３","E_COORD97":171825.94952699999,"N_COORD97":2536872.1344900001,"ADDRESS":"三甲子２６號之３","OBJECTID":270934},"geometry":{"x":171825.94952700008,"y":2536872.1344869994}},{"attributes":{"ID":270940,"DIS_CODE":0,"TOWNNAME":"仁德區","LI":"三甲里","LIN":"3鄰","STREET":" ","SECT":" ","MAREA":"三甲子","LANE":" ","ALLEY":" ","HOUSE_NO":"２９之１號","E_COORD97":171814.75,"N_COORD97":2536848.04,"ADDRESS":"三甲子２９之１號","OBJECTID":270935},"geometry":{"x":171814.75,"y":2536848.0399999991}},{"attributes":{"ID":270941,"DIS_CODE":0,"TOWNNAME":"仁德區","LI":"中生里","LIN":"3鄰","STREET":" ","SECT":" ","MAREA":"中洲","LANE":" ","ALLEY":" ","HOUSE_NO":"９３之５２號","E_COORD97":172969.79000000001,"N_COORD97":2534544.79,"ADDRESS":"中洲９３之５２號","OBJECTID":270936},"geometry":{"x":172969.7900000019,"y":2534544.7899999991}},{"attributes":{"ID":270942,"DIS_CODE":0,"TOWNNAME":"仁德區","LI":"三甲里","LIN":"3鄰","STREET":" ","SECT":" ","MAREA":"三甲子","LANE":" ","ALLEY":" ","HOUSE_NO":"２６號之１８","E_COORD97":171850.42999999999,"N_COORD97":2536902.7999999998,"ADDRESS":"三甲子２６號之１８","OBJECTID":270937},"geometry":{"x":171850.43000000063,"y":2536902.8000000007}},{"attributes":{"ID":270943,"DIS_CODE":0,"TOWNNAME":"仁德區","LI":"中生里","LIN":"3鄰","STREET":" ","SECT":" ","MAREA":"中洲","LANE":" ","ALLEY":" ","HOUSE_NO":"９３號之８","E_COORD97":173055.5,"N_COORD97":2534403.2999999998,"ADDRESS":"中洲９３號之８","OBJECTID":270938},"geometry":{"x":173055.50000000093,"y":2534403.3000000007}},{"attributes":{"ID":270944,"DIS_CODE":0,"TOWNNAME":"安平區","LI":"平通里","LIN":"8鄰","STREET":"健康三街","SECT":" ","MAREA":" ","LANE":"５９２巷","ALLEY":" ","HOUSE_NO":"３６號","E_COORD97":164941.31,"N_COORD97":2544178.5499999998,"ADDRESS":"健康三街５９２巷３６號","OBJECTID":270939},"geometry":{"x":164941.31000000052,"y":2544178.5500000026}},{"attributes":{"ID":270945,"DIS_CODE":0,"TOWNNAME":"仁德區","LI":"中生里","LIN":"3鄰","STREET":" ","SECT":" ","MAREA":"中洲","LANE":" ","ALLEY":" ","HOUSE_NO":"９３號之１０","E_COORD97":173041.98999999999,"N_COORD97":2534369.29,"ADDRESS":"中洲９３號之１０","OBJECTID":270940},"geometry":{"x":173041.99000000115,"y":2534369.290000001}},{"attributes":{"ID":270946,"DIS_CODE":0,"TOWNNAME":"安平區","LI":"平通里","LIN":"8鄰","STREET":"健康三街","SECT":" ","MAREA":" ","LANE":"５９２巷","ALLEY":" ","HOUSE_NO":"３８號","E_COORD97":164936.81,"N_COORD97":2544172.2799999998,"ADDRESS":"健康三街５９２巷３８號","OBJECTID":270941},"geometry":{"x":164936.80999999959,"y":2544172.2800000012}},{"attributes":{"ID":270947,"DIS_CODE":0,"TOWNNAME":"南區","LI":"竹溪里","LIN":"8鄰","STREET":"健康路","SECT":"一段","MAREA":" ","LANE":"１３３巷","ALLEY":" ","HOUSE_NO":"１１０號","E_COORD97":168836.84,"N_COORD97":2542145.4399999999,"ADDRESS":"健康路一段１３３巷１１０號","OBJECTID":270942},"geometry":{"x":168836.84000000078,"y":2542145.4399999995}},{"attributes":{"ID":270948,"DIS_CODE":0,"TOWNNAME":"仁德區","LI":"中生里","LIN":"3鄰","STREET":" ","SECT":" ","MAREA":"中洲","LANE":" ","ALLEY":" ","HOUSE_NO":"９３號之６","E_COORD97":173057.76000000001,"N_COORD97":2534395.2999999998,"ADDRESS":"中洲９３號之６","OBJECTID":270943},"geometry":{"x":173057.75999999885,"y":2534395.3000000026}},{"attributes":{"ID":270949,"DIS_CODE":0,"TOWNNAME":"仁德區","LI":"中生里","LIN":"3鄰","STREET":" ","SECT":" ","MAREA":"中洲","LANE":" ","ALLEY":" ","HOUSE_NO":"８８號之４","E_COORD97":173084.34,"N_COORD97":2534296.7999999998,"ADDRESS":"中洲８８號之４","OBJECTID":270944},"geometry":{"x":173084.33999999985,"y":2534296.8000000026}},{"attributes":{"ID":270950,"DIS_CODE":0,"TOWNNAME":"南區","LI":"竹溪里","LIN":"8鄰","STREET":"健康路","SECT":"一段","MAREA":" ","LANE":"１３３巷","ALLEY":" ","HOUSE_NO":"１１３號","E_COORD97":168876.17000000001,"N_COORD97":2542157.5899999999,"ADDRESS":"健康路一段１３３巷１１３號","OBJECTID":270945},"geometry":{"x":168876.16999999993,"y":2542157.5899999999}},{"attributes":{"ID":270951,"DIS_CODE":0,"TOWNNAME":"南區","LI":"竹溪里","LIN":"8鄰","STREET":"健康路","SECT":"一段","MAREA":" ","LANE":"１３３巷","ALLEY":" ","HOUSE_NO":"１１４號","E_COORD97":168858.31,"N_COORD97":2542128.3999999999,"ADDRESS":"健康路一段１３３巷１１４號","OBJECTID":270946},"geometry":{"x":168858.31000000145,"y":2542128.4000000022}},{"attributes":{"ID":270952,"DIS_CODE":0,"TOWNNAME":"南區","LI":"竹溪里","LIN":"8鄰","STREET":"健康路","SECT":"一段","MAREA":" ","LANE":"１３３巷","ALLEY":" ","HOUSE_NO":"１１５號","E_COORD97":168884.82999999999,"N_COORD97":2542149.48,"ADDRESS":"健康路一段１３３巷１１５號","OBJECTID":270947},"geometry":{"x":168884.83000000101,"y":2542149.4800000004}},{"attributes":{"ID":270953,"DIS_CODE":0,"TOWNNAME":"仁德區","LI":"仁愛里","LIN":"3鄰","STREET":" ","SECT":" ","MAREA":"仁愛","LANE":" ","ALLEY":" ","HOUSE_NO":"３７號","E_COORD97":170345.06849999999,"N_COORD97":2540089.1636700002,"ADDRESS":"仁愛３７號","OBJECTID":270948},"geometry":{"x":170345.06850000005,"y":2540089.1636710018}},{"attributes":{"ID":270954,"DIS_CODE":0,"TOWNNAME":"仁德區","LI":"中生里","LIN":"3鄰","STREET":" ","SECT":" ","MAREA":"中洲","LANE":" ","ALLEY":" ","HOUSE_NO":"９３號之１","E_COORD97":173063.26000000001,"N_COORD97":2534375.04,"ADDRESS":"中洲９３號之１","OBJECTID":270949},"geometry":{"x":173063.26000000071,"y":2534375.040000001}},{"attributes":{"ID":270955,"DIS_CODE":0,"TOWNNAME":"佳里區","LI":"龍安里","LIN":"3鄰","STREET":" ","SECT":" ","MAREA":"塭子內","LANE":" ","ALLEY":" ","HOUSE_NO":"２９號","E_COORD97":164406.66,"N_COORD97":2558307.9500000002,"ADDRESS":"塭子內２９號","OBJECTID":270950},"geometry":{"x":164406.66000000201,"y":2558307.9500000011}},{"attributes":{"ID":270956,"DIS_CODE":0,"TOWNNAME":"佳里區","LI":"龍安里","LIN":"3鄰","STREET":" ","SECT":" ","MAREA":"塭子內","LANE":" ","ALLEY":" ","HOUSE_NO":"３０號","E_COORD97":164403.60999999999,"N_COORD97":2558288.3599999999,"ADDRESS":"塭子內３０號","OBJECTID":270951},"geometry":{"x":164403.61000000034,"y":2558288.3600000013}},{"attributes":{"ID":270957,"DIS_CODE":0,"TOWNNAME":"佳里區","LI":"龍安里","LIN":"3鄰","STREET":" ","SECT":" ","MAREA":"塭子內","LANE":" ","ALLEY":" ","HOUSE_NO":"３２號","E_COORD97":164376.37,"N_COORD97":2558299.6600000001,"ADDRESS":"塭子內３２號","OBJECTID":270952},"geometry":{"x":164376.37000000197,"y":2558299.6600000001}},{"attributes":{"ID":270958,"DIS_CODE":0,"TOWNNAME":"佳里區","LI":"龍安里","LIN":"3鄰","STREET":" ","SECT":" ","MAREA":"塭子內","LANE":" ","ALLEY":" ","HOUSE_NO":"３３號之１０","E_COORD97":164306.76000000001,"N_COORD97":2558295.2200000002,"ADDRESS":"塭子內３３號之１０","OBJECTID":270953},"geometry":{"x":164306.75999999978,"y":2558295.2200000025}},{"attributes":{"ID":270959,"DIS_CODE":0,"TOWNNAME":"佳里區","LI":"龍安里","LIN":"3鄰","STREET":" ","SECT":" ","MAREA":"塭子內","LANE":" ","ALLEY":" ","HOUSE_NO":"３３號之１１","E_COORD97":164313.26999999999,"N_COORD97":2558311.71,"ADDRESS":"塭子內３３號之１１","OBJECTID":270954},"geometry":{"x":164313.26999999955,"y":2558311.7100000028}},{"attributes":{"ID":270960,"DIS_CODE":0,"TOWNNAME":"佳里區","LI":"龍安里","LIN":"3鄰","STREET":" ","SECT":" ","MAREA":"塭子內","LANE":" ","ALLEY":" ","HOUSE_NO":"３３號之１２","E_COORD97":164314.01000000001,"N_COORD97":2558317.0499999998,"ADDRESS":"塭子內３３號之１２","OBJECTID":270955},"geometry":{"x":164314.01000000164,"y":2558317.0500000007}},{"attributes":{"ID":270961,"DIS_CODE":0,"TOWNNAME":"佳里區","LI":"龍安里","LIN":"3鄰","STREET":" ","SECT":" ","MAREA":"塭子內","LANE":" ","ALLEY":" ","HOUSE_NO":"３３號之１３","E_COORD97":164326.06,"N_COORD97":2558307.4300000002,"ADDRESS":"塭子內３３號之１３","OBJECTID":270956},"geometry":{"x":164326.06000000052,"y":2558307.4299999997}},{"attributes":{"ID":270962,"DIS_CODE":0,"TOWNNAME":"佳里區","LI":"龍安里","LIN":"3鄰","STREET":" ","SECT":" ","MAREA":"塭子內","LANE":" ","ALLEY":" ","HOUSE_NO":"３３號之１４","E_COORD97":164331.29000000001,"N_COORD97":2558306.27,"ADDRESS":"塭子內３３號之１４","OBJECTID":270957},"geometry":{"x":164331.29000000097,"y":2558306.2700000014}},{"attributes":{"ID":270963,"DIS_CODE":0,"TOWNNAME":"佳里區","LI":"龍安里","LIN":"3鄰","STREET":" ","SECT":" ","MAREA":"塭子內","LANE":" ","ALLEY":" ","HOUSE_NO":"３３號之１","E_COORD97":164346.88,"N_COORD97":2558229.52,"ADDRESS":"塭子內３３號之１","OBJECTID":270958},"geometry":{"x":164346.87999999989,"y":2558229.5200000033}},{"attributes":{"ID":270964,"DIS_CODE":0,"TOWNNAME":"南區","LI":"竹溪里","LIN":"8鄰","STREET":"健康路","SECT":"一段","MAREA":" ","LANE":"１３３巷","ALLEY":" ","HOUSE_NO":"１１６號","E_COORD97":168853.44,"N_COORD97":2542129.48,"ADDRESS":"健康路一段１３３巷１１６號","OBJECTID":270959},"geometry":{"x":168853.44000000134,"y":2542129.4799999986}},{"attributes":{"ID":270965,"DIS_CODE":0,"TOWNNAME":"南區","LI":"竹溪里","LIN":"8鄰","STREET":"健康路","SECT":"一段","MAREA":" ","LANE":"１３３巷","ALLEY":" ","HOUSE_NO":"１１７號","E_COORD97":168884.29000000001,"N_COORD97":2542142.4500000002,"ADDRESS":"健康路一段１３３巷１１７號","OBJECTID":270960},"geometry":{"x":168884.28999999911,"y":2542142.4500000011}},{"attributes":{"ID":270966,"DIS_CODE":0,"TOWNNAME":"歸仁區","LI":"南興里","LIN":"8鄰","STREET":"文化十六街","SECT":" ","MAREA":" ","LANE":"４２巷","ALLEY":" ","HOUSE_NO":"２６號","E_COORD97":176077.62,"N_COORD97":2541264.2599999998,"ADDRESS":"文化十六街４２巷２６號","OBJECTID":270961},"geometry":{"x":176077.62000000011,"y":2541264.2599999998}},{"attributes":{"ID":270967,"DIS_CODE":0,"TOWNNAME":"歸仁區","LI":"南興里","LIN":"8鄰","STREET":"文化十六街","SECT":" ","MAREA":" ","LANE":"４６巷","ALLEY":" ","HOUSE_NO":"１５號","E_COORD97":176066.42000000001,"N_COORD97":2541281.2599999998,"ADDRESS":"文化十六街４６巷１５號","OBJECTID":270962},"geometry":{"x":176066.42000000086,"y":2541281.2599999998}},{"attributes":{"ID":270968,"DIS_CODE":0,"TOWNNAME":"歸仁區","LI":"南興里","LIN":"8鄰","STREET":"文化十六街","SECT":" ","MAREA":" ","LANE":"４６巷","ALLEY":" ","HOUSE_NO":"１１號","E_COORD97":176057.12,"N_COORD97":2541281.2599999998,"ADDRESS":"文化十六街４６巷１１號","OBJECTID":270963},"geometry":{"x":176057.12000000011,"y":2541281.2599999998}},{"attributes":{"ID":270969,"DIS_CODE":0,"TOWNNAME":"善化區","LI":"文昌里","LIN":"15鄰","STREET":"文賢街","SECT":" ","MAREA":" ","LANE":" ","ALLEY":" ","HOUSE_NO":"１２號","E_COORD97":177647.26000000001,"N_COORD97":2558897.0299999998,"ADDRESS":"文賢街１２號","OBJECTID":270964},"geometry":{"x":177647.26000000071,"y":2558897.0300000031}},{"attributes":{"ID":270970,"DIS_CODE":0,"TOWNNAME":"善化區","LI":"文昌里","LIN":"15鄰","STREET":"文昌路","SECT":" ","MAREA":" ","LANE":" ","ALLEY":" ","HOUSE_NO":"３號之２","E_COORD97":177602.45000000001,"N_COORD97":2558825.2799999998,"ADDRESS":"文昌路３號之２","OBJECTID":270965},"geometry":{"x":177602.45000000112,"y":2558825.2800000012}},{"attributes":{"ID":270971,"DIS_CODE":0,"TOWNNAME":"永康區","LI":"北灣里","LIN":"25鄰","STREET":"大同街","SECT":" ","MAREA":" ","LANE":" ","ALLEY":" ","HOUSE_NO":"４９號","E_COORD97":175215,"N_COORD97":2545414.25,"ADDRESS":"大同街４９號","OBJECTID":270966},"geometry":{"x":175215.00000000093,"y":2545414.2500000019}},{"attributes":{"ID":270972,"DIS_CODE":0,"TOWNNAME":"北區","LI":"大豐里","LIN":"8鄰","STREET":"文賢路","SECT":" ","MAREA":" ","LANE":"３１３巷","ALLEY":" ","HOUSE_NO":"１４號","E_COORD97":167270.38,"N_COORD97":2545258.8300000001,"ADDRESS":"文賢路３１３巷１４號","OBJECTID":270967},"geometry":{"x":167270.38000000082,"y":2545258.8300000001}},{"attributes":{"ID":270973,"DIS_CODE":0,"TOWNNAME":"永康區","LI":"北灣里","LIN":"31鄰","STREET":"大同街","SECT":" ","MAREA":" ","LANE":" ","ALLEY":" ","HOUSE_NO":"２８號","E_COORD97":175281.56,"N_COORD97":2545420.9900000002,"ADDRESS":"大同街２８號","OBJECTID":270968},"geometry":{"x":175281.56000000052,"y":2545420.9900000002}},{"attributes":{"ID":270974,"DIS_CODE":0,"TOWNNAME":"北區","LI":"大豐里","LIN":"8鄰","STREET":"文賢路","SECT":" ","MAREA":" ","LANE":"３１３巷","ALLEY":" ","HOUSE_NO":"１６號","E_COORD97":167265.67999999999,"N_COORD97":2545259.2799999998,"ADDRESS":"文賢路３１３巷１６號","OBJECTID":270969},"geometry":{"x":167265.6799999997,"y":2545259.2800000031}},{"attributes":{"ID":270975,"DIS_CODE":0,"TOWNNAME":"北區","LI":"大豐里","LIN":"8鄰","STREET":"文賢路","SECT":" ","MAREA":" ","LANE":"３１３巷","ALLEY":" ","HOUSE_NO":"１８號","E_COORD97":167260.76999999999,"N_COORD97":2545259.9900000002,"ADDRESS":"文賢路３１３巷１８號","OBJECTID":270970},"geometry":{"x":167260.77000000048,"y":2545259.9900000021}},{"attributes":{"ID":270976,"DIS_CODE":0,"TOWNNAME":"北區","LI":"大豐里","LIN":"8鄰","STREET":"文賢路","SECT":" ","MAREA":" ","LANE":"３１３巷","ALLEY":" ","HOUSE_NO":"２０號","E_COORD97":167256.89999999999,"N_COORD97":2545260.8900000001,"ADDRESS":"文賢路３１３巷２０號","OBJECTID":270971},"geometry":{"x":167256.9000000013,"y":2545260.8900000025}},{"attributes":{"ID":270977,"DIS_CODE":0,"TOWNNAME":"佳里區","LI":"龍安里","LIN":"3鄰","STREET":" ","SECT":" ","MAREA":"塭子內","LANE":" ","ALLEY":" ","HOUSE_NO":"３５號之１０","E_COORD97":164340.35000000001,"N_COORD97":2558169.96,"ADDRESS":"塭子內３５號之１０","OBJECTID":270972},"geometry":{"x":164340.3499999987,"y":2558169.959999999}},{"attributes":{"ID":270978,"DIS_CODE":0,"TOWNNAME":"北區","LI":"大豐里","LIN":"8鄰","STREET":"文賢路","SECT":" ","MAREA":" ","LANE":"３１３巷","ALLEY":" ","HOUSE_NO":"２２號","E_COORD97":167252.57999999999,"N_COORD97":2545261.73,"ADDRESS":"文賢路３１３巷２２號","OBJECTID":270973},"geometry":{"x":167252.58000000007,"y":2545261.7300000023}},{"attributes":{"ID":270979,"DIS_CODE":0,"TOWNNAME":"佳里區","LI":"龍安里","LIN":"3鄰","STREET":" ","SECT":" ","MAREA":"塭子內","LANE":" ","ALLEY":" ","HOUSE_NO":"３５號之１１","E_COORD97":164336.39999999999,"N_COORD97":2558162.29,"ADDRESS":"塭子內３５號之１１","OBJECTID":270974},"geometry":{"x":164336.4000000013,"y":2558162.2899999991}},{"attributes":{"ID":270980,"DIS_CODE":0,"TOWNNAME":"佳里區","LI":"龍安里","LIN":"3鄰","STREET":" ","SECT":" ","MAREA":"塭子內","LANE":" ","ALLEY":" ","HOUSE_NO":"３５號之１２","E_COORD97":164338,"N_COORD97":2558165.8500000001,"ADDRESS":"塭子內３５號之１２","OBJECTID":270975},"geometry":{"x":164337.99999999907,"y":2558165.8499999996}},{"attributes":{"ID":270981,"DIS_CODE":0,"TOWNNAME":"佳里區","LI":"龍安里","LIN":"3鄰","STREET":" ","SECT":" ","MAREA":"塭子內","LANE":" ","ALLEY":" ","HOUSE_NO":"３５號之１３","E_COORD97":164347.95999999999,"N_COORD97":2558190.1200000001,"ADDRESS":"塭子內３５號之１３","OBJECTID":270976},"geometry":{"x":164347.95999999996,"y":2558190.1200000029}},{"attributes":{"ID":270982,"DIS_CODE":0,"TOWNNAME":"佳里區","LI":"龍安里","LIN":"3鄰","STREET":" ","SECT":" ","MAREA":"塭子內","LANE":" ","ALLEY":" ","HOUSE_NO":"３５號之１６","E_COORD97":164328.47,"N_COORD97":2558145.8900000001,"ADDRESS":"塭子內３５號之１６","OBJECTID":270977},"geometry":{"x":164328.47000000067,"y":2558145.8900000006}},{"attributes":{"ID":270983,"DIS_CODE":0,"TOWNNAME":"北區","LI":"大豐里","LIN":"8鄰","STREET":"文賢路","SECT":" ","MAREA":" ","LANE":"３１３巷","ALLEY":" ","HOUSE_NO":"２６號","E_COORD97":167241.48000000001,"N_COORD97":2545263.3399999999,"ADDRESS":"文賢路３１３巷２６號","OBJECTID":270978},"geometry":{"x":167241.48000000138,"y":2545263.3400000017}},{"attributes":{"ID":270984,"DIS_CODE":0,"TOWNNAME":"北區","LI":"大豐里","LIN":"8鄰","STREET":"文賢路","SECT":" ","MAREA":" ","LANE":"３１３巷","ALLEY":" ","HOUSE_NO":"２８號","E_COORD97":167236.39000000001,"N_COORD97":2545264.1800000002,"ADDRESS":"文賢路３１３巷２８號","OBJECTID":270979},"geometry":{"x":167236.3900000006,"y":2545264.1800000016}},{"attributes":{"ID":270985,"DIS_CODE":0,"TOWNNAME":"北區","LI":"大豐里","LIN":"8鄰","STREET":"文賢路","SECT":" ","MAREA":" ","LANE":"３１３巷","ALLEY":" ","HOUSE_NO":"３０號","E_COORD97":167232.51999999999,"N_COORD97":2545264.8799999999,"ADDRESS":"文賢路３１３巷３０號","OBJECTID":270980},"geometry":{"x":167232.51999999955,"y":2545264.8800000027}},{"attributes":{"ID":270986,"DIS_CODE":0,"TOWNNAME":"北區","LI":"延平里","LIN":"8鄰","STREET":"公園路","SECT":" ","MAREA":" ","LANE":"７８８巷","ALLEY":" ","HOUSE_NO":"５２號","E_COORD97":169265.51999999999,"N_COORD97":2545720.8900000001,"ADDRESS":"公園路７８８巷５２號","OBJECTID":270981},"geometry":{"x":169265.52000000142,"y":2545720.8900000043}},{"attributes":{"ID":270987,"DIS_CODE":0,"TOWNNAME":"佳里區","LI":"龍安里","LIN":"3鄰","STREET":" ","SECT":" ","MAREA":"塭子內","LANE":" ","ALLEY":" ","HOUSE_NO":"３５號之１８","E_COORD97":164322.95000000001,"N_COORD97":2558133.52,"ADDRESS":"塭子內３５號之１８","OBJECTID":270982},"geometry":{"x":164322.95000000019,"y":2558133.5199999996}},{"attributes":{"ID":270988,"DIS_CODE":0,"TOWNNAME":"佳里區","LI":"龍安里","LIN":"3鄰","STREET":" ","SECT":" ","MAREA":"塭子內","LANE":" ","ALLEY":" ","HOUSE_NO":"３５號之１９","E_COORD97":164321.5,"N_COORD97":2558128.9900000002,"ADDRESS":"塭子內３５號之１９","OBJECTID":270983},"geometry":{"x":164321.50000000093,"y":2558128.9900000021}},{"attributes":{"ID":270989,"DIS_CODE":0,"TOWNNAME":"佳里區","LI":"溪州里","LIN":"3鄰","STREET":" ","SECT":" ","MAREA":"溪州","LANE":" ","ALLEY":" ","HOUSE_NO":"２０號","E_COORD97":166309.19,"N_COORD97":2567345.9300000002,"ADDRESS":"溪州２０號","OBJECTID":270984},"geometry":{"x":166309.19000000134,"y":2567345.9299999997}},{"attributes":{"ID":270990,"DIS_CODE":0,"TOWNNAME":"佳里區","LI":"溪州里","LIN":"3鄰","STREET":" ","SECT":" ","MAREA":"溪州","LANE":" ","ALLEY":" ","HOUSE_NO":"２２號","E_COORD97":166296.79000000001,"N_COORD97":2567320.5499999998,"ADDRESS":"溪州２２號","OBJECTID":270985},"geometry":{"x":166296.79000000004,"y":2567320.5500000026}},{"attributes":{"ID":270991,"DIS_CODE":0,"TOWNNAME":"北區","LI":"延平里","LIN":"8鄰","STREET":"公園路","SECT":" ","MAREA":" ","LANE":"７８８巷","ALLEY":" ","HOUSE_NO":"５４號","E_COORD97":169272,"N_COORD97":2545718.9500000002,"ADDRESS":"公園路７８８巷５４號","OBJECTID":270986},"geometry":{"x":169272,"y":2545718.950000003}},{"attributes":{"ID":270992,"DIS_CODE":0,"TOWNNAME":"北區","LI":"延平里","LIN":"8鄰","STREET":"公園路","SECT":" ","MAREA":" ","LANE":"７５８巷","ALLEY":" ","HOUSE_NO":"５９號","E_COORD97":169289.17999999999,"N_COORD97":2545653.4399999999,"ADDRESS":"公園路７５８巷５９號","OBJECTID":270987},"geometry":{"x":169289.1799999997,"y":2545653.4399999995}},{"attributes":{"ID":270993,"DIS_CODE":0,"TOWNNAME":"北區","LI":"延平里","LIN":"8鄰","STREET":"公園路","SECT":" ","MAREA":" ","LANE":"７５８巷","ALLEY":" ","HOUSE_NO":"５７號","E_COORD97":169280.73999999999,"N_COORD97":2545654.2999999998,"ADDRESS":"公園路７５８巷５７號","OBJECTID":270988},"geometry":{"x":169280.74000000022,"y":2545654.3000000026}},{"attributes":{"ID":270994,"DIS_CODE":0,"TOWNNAME":"北區","LI":"延平里","LIN":"8鄰","STREET":"公園路","SECT":" ","MAREA":" ","LANE":"７５８巷","ALLEY":" ","HOUSE_NO":"５３號","E_COORD97":169270.79999999999,"N_COORD97":2545657.54,"ADDRESS":"公園路７５８巷５３號","OBJECTID":270989},"geometry":{"x":169270.80000000075,"y":2545657.540000001}},{"attributes":{"ID":270995,"DIS_CODE":0,"TOWNNAME":"佳里區","LI":"溪州里","LIN":"3鄰","STREET":" ","SECT":" ","MAREA":"溪州","LANE":" ","ALLEY":" ","HOUSE_NO":"２３號","E_COORD97":166311.76999999999,"N_COORD97":2567321.79,"ADDRESS":"溪州２３號","OBJECTID":270990},"geometry":{"x":166311.76999999955,"y":2567321.7899999991}},{"attributes":{"ID":270996,"DIS_CODE":0,"TOWNNAME":"北區","LI":"延平里","LIN":"8鄰","STREET":"公園路","SECT":" ","MAREA":" ","LANE":"７５８巷","ALLEY":" ","HOUSE_NO":"５１號","E_COORD97":169265.60999999999,"N_COORD97":2545659.9199999999,"ADDRESS":"公園路７５８巷５１號","OBJECTID":270991},"geometry":{"x":169265.6100000022,"y":2545659.9200000018}},{"attributes":{"ID":270997,"DIS_CODE":0,"TOWNNAME":"佳里區","LI":"溪州里","LIN":"3鄰","STREET":" ","SECT":" ","MAREA":"溪州","LANE":" ","ALLEY":" ","HOUSE_NO":"２５號","E_COORD97":166327.89000000001,"N_COORD97":2567338.52,"ADDRESS":"溪州２５號","OBJECTID":270992},"geometry":{"x":166327.88999999966,"y":2567338.5199999996}},{"attributes":{"ID":270998,"DIS_CODE":0,"TOWNNAME":"佳里區","LI":"溪州里","LIN":"3鄰","STREET":" ","SECT":" ","MAREA":"溪州","LANE":" ","ALLEY":" ","HOUSE_NO":"２６號","E_COORD97":166350.16,"N_COORD97":2567400.46,"ADDRESS":"溪州２６號","OBJECTID":270993},"geometry":{"x":166350.16000000108,"y":2567400.4600000009}},{"attributes":{"ID":270999,"DIS_CODE":0,"TOWNNAME":"佳里區","LI":"溪州里","LIN":"3鄰","STREET":" ","SECT":" ","MAREA":"溪州","LANE":" ","ALLEY":" ","HOUSE_NO":"２７號","E_COORD97":166316.22,"N_COORD97":2567418.6099999999,"ADDRESS":"溪州２７號","OBJECTID":270994},"geometry":{"x":166316.21999999881,"y":2567418.6099999994}},{"attributes":{"ID":271000,"DIS_CODE":0,"TOWNNAME":"北區","LI":"延平里","LIN":"8鄰","STREET":"公園路","SECT":" ","MAREA":" ","LANE":"７５８巷","ALLEY":" ","HOUSE_NO":"４９號","E_COORD97":169256.31,"N_COORD97":2545662.5699999998,"ADDRESS":"公園路７５８巷４９號","OBJECTID":270995},"geometry":{"x":169256.30999999959,"y":2545662.5700000022}},{"attributes":{"ID":271001,"DIS_CODE":0,"TOWNNAME":"北區","LI":"延平里","LIN":"8鄰","STREET":"公園路","SECT":" ","MAREA":" ","LANE":"７５８巷","ALLEY":" ","HOUSE_NO":"４７號","E_COORD97":169250.48000000001,"N_COORD97":2545668.1899999999,"ADDRESS":"公園路７５８巷４７號","OBJECTID":270996},"geometry":{"x":169250.48000000138,"y":2545668.1900000013}},{"attributes":{"ID":271002,"DIS_CODE":0,"TOWNNAME":"北區","LI":"延平里","LIN":"8鄰","STREET":"公園路","SECT":" ","MAREA":" ","LANE":"７５８巷","ALLEY":" ","HOUSE_NO":"４３號","E_COORD97":169244.98000000001,"N_COORD97":2545682.8799999999,"ADDRESS":"公園路７５８巷４３號","OBJECTID":270997},"geometry":{"x":169244.98000000138,"y":2545682.8800000008}},{"attributes":{"ID":271003,"DIS_CODE":0,"TOWNNAME":"佳里區","LI":"忠仁里","LIN":"3鄰","STREET":"興中街","SECT":" ","MAREA":" ","LANE":" ","ALLEY":" ","HOUSE_NO":"５８號","E_COORD97":165833.5,"N_COORD97":2562194.52,"ADDRESS":"興中街５８號","OBJECTID":270998},"geometry":{"x":165833.50000000093,"y":2562194.5199999996}},{"attributes":{"ID":271004,"DIS_CODE":0,"TOWNNAME":"佳里區","LI":"忠仁里","LIN":"3鄰","STREET":"興中街","SECT":" ","MAREA":" ","LANE":" ","ALLEY":" ","HOUSE_NO":"６０號","E_COORD97":165828.75,"N_COORD97":2562193.9700000002,"ADDRESS":"興中街６０號","OBJECTID":270999},"geometry":{"x":165828.75000000093,"y":2562193.9699999988}},{"attributes":{"ID":271005,"DIS_CODE":0,"TOWNNAME":"北區","LI":"延平里","LIN":"8鄰","STREET":"公園路","SECT":" ","MAREA":" ","LANE":"７５８巷","ALLEY":" ","HOUSE_NO":"２５號","E_COORD97":169200.09,"N_COORD97":2545679.1099999999,"ADDRESS":"公園路７５８巷２５號","OBJECTID":271000},"geometry":{"x":169200.08999999985,"y":2545679.1099999994}}]}