{"displayFieldName":"TOWNNAME","fieldAliases":{"ID":"ID","DIS_CODE":"DIS_CODE","TOWNNAME":"TOWNNAME","LI":"LI","LIN":"LIN","STREET":"STREET","SECT":"SECT","MAREA":"MAREA","LANE":"LANE","ALLEY":"ALLEY","HOUSE_NO":"HOUSE_NO","E_COORD97":"E_COORD97","N_COORD97":"N_COORD97","ADDRESS":"ADDRESS","OBJECTID":"OBJECTID"},"geometryType":"esriGeometryPoint","spatialReference":{"wkid":102443,"latestWkid":3826},"fields":[{"name":"ID","type":"esriFieldTypeDouble","alias":"ID"},{"name":"DIS_CODE","type":"esriFieldTypeInteger","alias":"DIS_CODE"},{"name":"TOWNNAME","type":"esriFieldTypeString","alias":"TOWNNAME","length":8},{"name":"LI","type":"esriFieldTypeString","alias":"LI","length":8},{"name":"LIN","type":"esriFieldTypeString","alias":"LIN","length":12},{"name":"STREET","type":"esriFieldTypeString","alias":"STREET","length":20},{"name":"SECT","type":"esriFieldTypeString","alias":"SECT","length":8},{"name":"MAREA","type":"esriFieldTypeString","alias":"MAREA","length":12},{"name":"LANE","type":"esriFieldTypeString","alias":"LANE","length":10},{"name":"ALLEY","type":"esriFieldTypeString","alias":"ALLEY","length":10},{"name":"HOUSE_NO","type":"esriFieldTypeString","alias":"HOUSE_NO","length":20},{"name":"E_COORD97","type":"esriFieldTypeDouble","alias":"E_COORD97"},{"name":"N_COORD97","type":"esriFieldTypeDouble","alias":"N_COORD97"},{"name":"ADDRESS","type":"esriFieldTypeString","alias":"ADDRESS","length":50},{"name":"OBJECTID","type":"esriFieldTypeOID","alias":"OBJECTID"}],"features":[{"attributes":{"ID":507828,"DIS_CODE":0,"TOWNNAME":"柳營區","LI":"東昇里","LIN":"15鄰","STREET":"建國路","SECT":" ","MAREA":" ","LANE":" ","ALLEY":" ","HOUSE_NO":"７５號","E_COORD97":180484.57000000001,"N_COORD97":2575222.4300000002,"ADDRESS":"建國路７５號","OBJECTID":507801},"geometry":{"x":180484.57000000216,"y":2575222.4299999978}},{"attributes":{"ID":507829,"DIS_CODE":0,"TOWNNAME":"柳營區","LI":"士林里","LIN":"15鄰","STREET":"柳營路","SECT":"一段","MAREA":" ","LANE":" ","ALLEY":" ","HOUSE_NO":"６３９號","E_COORD97":179731.45000000001,"N_COORD97":2574550.7000000002,"ADDRESS":"柳營路一段６３９號","OBJECTID":507802},"geometry":{"x":179731.45000000112,"y":2574550.7000000011}},{"attributes":{"ID":507830,"DIS_CODE":0,"TOWNNAME":"柳營區","LI":"士林里","LIN":"15鄰","STREET":"柳營路","SECT":"一段","MAREA":" ","LANE":" ","ALLEY":" ","HOUSE_NO":"６６１號","E_COORD97":179726.23999999999,"N_COORD97":2574593.0600000001,"ADDRESS":"柳營路一段６６１號","OBJECTID":507803},"geometry":{"x":179726.24000000115,"y":2574593.0600000024}},{"attributes":{"ID":507831,"DIS_CODE":0,"TOWNNAME":"柳營區","LI":"士林里","LIN":"15鄰","STREET":"柳營路","SECT":"一段","MAREA":" ","LANE":" ","ALLEY":" ","HOUSE_NO":"６７９號","E_COORD97":179715.39000000001,"N_COORD97":2574636.0600000001,"ADDRESS":"柳營路一段６７９號","OBJECTID":507804},"geometry":{"x":179715.38999999966,"y":2574636.0600000042}},{"attributes":{"ID":507832,"DIS_CODE":0,"TOWNNAME":"柳營區","LI":"士林里","LIN":"15鄰","STREET":"柳營路","SECT":"一段","MAREA":" ","LANE":" ","ALLEY":" ","HOUSE_NO":"７３７號","E_COORD97":179727.34,"N_COORD97":2574764.0099999998,"ADDRESS":"柳營路一段７３７號","OBJECTID":507805},"geometry":{"x":179727.33999999985,"y":2574764.0099999998}},{"attributes":{"ID":507833,"DIS_CODE":0,"TOWNNAME":"柳營區","LI":"士林里","LIN":"15鄰","STREET":"柳營路","SECT":"一段","MAREA":" ","LANE":" ","ALLEY":" ","HOUSE_NO":"７３９號","E_COORD97":179726.35000000001,"N_COORD97":2574769.7799999998,"ADDRESS":"柳營路一段７３９號","OBJECTID":507806},"geometry":{"x":179726.35000000056,"y":2574769.7800000012}},{"attributes":{"ID":507834,"DIS_CODE":0,"TOWNNAME":"柳營區","LI":"士林里","LIN":"15鄰","STREET":"柳營路","SECT":"一段","MAREA":" ","LANE":" ","ALLEY":" ","HOUSE_NO":"７４５號","E_COORD97":179718.60999999999,"N_COORD97":2574788.2799999998,"ADDRESS":"柳營路一段７４５號","OBJECTID":507807},"geometry":{"x":179718.61000000127,"y":2574788.2799999993}},{"attributes":{"ID":507835,"DIS_CODE":0,"TOWNNAME":"柳營區","LI":"士林里","LIN":"15鄰","STREET":"柳營路","SECT":"一段","MAREA":" ","LANE":" ","ALLEY":" ","HOUSE_NO":"７５５號","E_COORD97":179637.35999999999,"N_COORD97":2574919.8500000001,"ADDRESS":"柳營路一段７５５號","OBJECTID":507808},"geometry":{"x":179637.36000000127,"y":2574919.8499999996}},{"attributes":{"ID":507836,"DIS_CODE":0,"TOWNNAME":"柳營區","LI":"人和里","LIN":"15鄰","STREET":"柳營路","SECT":"三段","MAREA":" ","LANE":" ","ALLEY":" ","HOUSE_NO":"１０３號","E_COORD97":179634.47,"N_COORD97":2576481.9399999999,"ADDRESS":"柳營路三段１０３號","OBJECTID":507809},"geometry":{"x":179634.47000000067,"y":2576481.9399999995}},{"attributes":{"ID":507837,"DIS_CODE":0,"TOWNNAME":"柳營區","LI":"人和里","LIN":"15鄰","STREET":"柳營路","SECT":"三段","MAREA":" ","LANE":" ","ALLEY":" ","HOUSE_NO":"１０９號","E_COORD97":179631.45999999999,"N_COORD97":2576491.3700000001,"ADDRESS":"柳營路三段１０９號","OBJECTID":507810},"geometry":{"x":179631.46000000089,"y":2576491.370000001}},{"attributes":{"ID":507838,"DIS_CODE":0,"TOWNNAME":"柳營區","LI":"人和里","LIN":"15鄰","STREET":"柳營路","SECT":"三段","MAREA":" ","LANE":" ","ALLEY":" ","HOUSE_NO":"１１１號","E_COORD97":179631.07999999999,"N_COORD97":2576497.9399999999,"ADDRESS":"柳營路三段１１１號","OBJECTID":507811},"geometry":{"x":179631.08000000007,"y":2576497.9400000013}},{"attributes":{"ID":507839,"DIS_CODE":0,"TOWNNAME":"柳營區","LI":"人和里","LIN":"15鄰","STREET":"柳營路","SECT":"三段","MAREA":" ","LANE":" ","ALLEY":" ","HOUSE_NO":"１１５號","E_COORD97":179630.70999999999,"N_COORD97":2576505.1699999999,"ADDRESS":"柳營路三段１１５號","OBJECTID":507812},"geometry":{"x":179630.71000000183,"y":2576505.1699999999}},{"attributes":{"ID":507840,"DIS_CODE":0,"TOWNNAME":"柳營區","LI":"人和里","LIN":"15鄰","STREET":"柳營路","SECT":"三段","MAREA":" ","LANE":" ","ALLEY":" ","HOUSE_NO":"１１９號","E_COORD97":179632.35999999999,"N_COORD97":2576516.0499999998,"ADDRESS":"柳營路三段１１９號","OBJECTID":507813},"geometry":{"x":179632.36000000127,"y":2576516.0500000026}},{"attributes":{"ID":507841,"DIS_CODE":0,"TOWNNAME":"柳營區","LI":"人和里","LIN":"15鄰","STREET":"柳營路","SECT":"三段","MAREA":" ","LANE":" ","ALLEY":" ","HOUSE_NO":"１３７號","E_COORD97":179640.39000000001,"N_COORD97":2576558.6499999999,"ADDRESS":"柳營路三段１３７號","OBJECTID":507814},"geometry":{"x":179640.38999999966,"y":2576558.6500000022}},{"attributes":{"ID":507842,"DIS_CODE":0,"TOWNNAME":"柳營區","LI":"人和里","LIN":"15鄰","STREET":"柳營路","SECT":"三段","MAREA":" ","LANE":" ","ALLEY":" ","HOUSE_NO":"１４３號","E_COORD97":179641.12,"N_COORD97":2576569.3700000001,"ADDRESS":"柳營路三段１４３號","OBJECTID":507815},"geometry":{"x":179641.12000000011,"y":2576569.370000001}},{"attributes":{"ID":507843,"DIS_CODE":0,"TOWNNAME":"柳營區","LI":"人和里","LIN":"15鄰","STREET":"柳營路","SECT":"三段","MAREA":" ","LANE":" ","ALLEY":" ","HOUSE_NO":"１４７號","E_COORD97":179637.53,"N_COORD97":2576579.8300000001,"ADDRESS":"柳營路三段１４７號","OBJECTID":507816},"geometry":{"x":179637.53000000119,"y":2576579.8300000038}},{"attributes":{"ID":507844,"DIS_CODE":0,"TOWNNAME":"柳營區","LI":"人和里","LIN":"15鄰","STREET":"柳營路","SECT":"三段","MAREA":" ","LANE":" ","ALLEY":" ","HOUSE_NO":"１５３號","E_COORD97":179636.73999999999,"N_COORD97":2576589.7000000002,"ADDRESS":"柳營路三段１５３號","OBJECTID":507817},"geometry":{"x":179636.74000000022,"y":2576589.6999999993}},{"attributes":{"ID":507845,"DIS_CODE":0,"TOWNNAME":"柳營區","LI":"人和里","LIN":"15鄰","STREET":"柳營路","SECT":"三段","MAREA":" ","LANE":" ","ALLEY":" ","HOUSE_NO":"１５５號","E_COORD97":179635.28,"N_COORD97":2576602.5800000001,"ADDRESS":"柳營路三段１５５號","OBJECTID":507818},"geometry":{"x":179635.28000000026,"y":2576602.5800000019}},{"attributes":{"ID":507846,"DIS_CODE":0,"TOWNNAME":"柳營區","LI":"人和里","LIN":"15鄰","STREET":"柳營路","SECT":"三段","MAREA":" ","LANE":" ","ALLEY":" ","HOUSE_NO":"１６３號","E_COORD97":179640.84,"N_COORD97":2576615.0099999998,"ADDRESS":"柳營路三段１６３號","OBJECTID":507819},"geometry":{"x":179640.83999999985,"y":2576615.0099999998}},{"attributes":{"ID":507847,"DIS_CODE":0,"TOWNNAME":"柳營區","LI":"人和里","LIN":"15鄰","STREET":"柳營路","SECT":"三段","MAREA":" ","LANE":" ","ALLEY":" ","HOUSE_NO":"１６５號","E_COORD97":179639.89999999999,"N_COORD97":2576620.6099999999,"ADDRESS":"柳營路三段１６５號","OBJECTID":507820},"geometry":{"x":179639.90000000224,"y":2576620.6099999994}},{"attributes":{"ID":507848,"DIS_CODE":0,"TOWNNAME":"柳營區","LI":"人和里","LIN":"15鄰","STREET":"柳營路","SECT":"三段","MAREA":" ","LANE":" ","ALLEY":" ","HOUSE_NO":"１６７號","E_COORD97":179639.60000000001,"N_COORD97":2576626.1899999999,"ADDRESS":"柳營路三段１６７號","OBJECTID":507821},"geometry":{"x":179639.60000000149,"y":2576626.1899999995}},{"attributes":{"ID":507849,"DIS_CODE":0,"TOWNNAME":"柳營區","LI":"人和里","LIN":"15鄰","STREET":"柳營路","SECT":"三段","MAREA":" ","LANE":" ","ALLEY":" ","HOUSE_NO":"１６９號","E_COORD97":179644.04999999999,"N_COORD97":2576633.6600000001,"ADDRESS":"柳營路三段１６９號","OBJECTID":507822},"geometry":{"x":179644.05000000075,"y":2576633.660000002}},{"attributes":{"ID":507850,"DIS_CODE":0,"TOWNNAME":"北區","LI":"文元里","LIN":"15鄰","STREET":"文賢路","SECT":" ","MAREA":" ","LANE":" ","ALLEY":" ","HOUSE_NO":"１０２０號","E_COORD97":167375.78,"N_COORD97":2546031.5499999998,"ADDRESS":"文賢路１０２０號","OBJECTID":507823},"geometry":{"x":167375.78000000026,"y":2546031.5499999989}},{"attributes":{"ID":507851,"DIS_CODE":0,"TOWNNAME":"北區","LI":"文元里","LIN":"15鄰","STREET":"文成路","SECT":" ","MAREA":" ","LANE":" ","ALLEY":" ","HOUSE_NO":"７８５號","E_COORD97":167426.06,"N_COORD97":2545842.8300000001,"ADDRESS":"文成路７８５號","OBJECTID":507824},"geometry":{"x":167426.06000000052,"y":2545842.8300000038}},{"attributes":{"ID":507852,"DIS_CODE":0,"TOWNNAME":"歸仁區","LI":"七甲里","LIN":"15鄰","STREET":"南潭三街","SECT":" ","MAREA":" ","LANE":" ","ALLEY":" ","HOUSE_NO":"６號","E_COORD97":176047.64000000001,"N_COORD97":2543202.25,"ADDRESS":"南潭三街６號","OBJECTID":507825},"geometry":{"x":176047.6400000006,"y":2543202.2500000037}},{"attributes":{"ID":507853,"DIS_CODE":0,"TOWNNAME":"歸仁區","LI":"大廟里","LIN":"15鄰","STREET":"大廟五街","SECT":" ","MAREA":" ","LANE":" ","ALLEY":" ","HOUSE_NO":"１４６號","E_COORD97":176116.12,"N_COORD97":2544505.25,"ADDRESS":"大廟五街１４６號","OBJECTID":507826},"geometry":{"x":176116.12000000104,"y":2544505.2500000019}},{"attributes":{"ID":507854,"DIS_CODE":0,"TOWNNAME":"歸仁區","LI":"武東里","LIN":"15鄰","STREET":"中正南路","SECT":"二段","MAREA":" ","LANE":" ","ALLEY":" ","HOUSE_NO":"８５號","E_COORD97":175822.68070200001,"N_COORD97":2536262.8620099998,"ADDRESS":"中正南路二段８５號","OBJECTID":507827},"geometry":{"x":175822.68070199993,"y":2536262.8620130029}},{"attributes":{"ID":507855,"DIS_CODE":0,"TOWNNAME":"歸仁區","LI":"大廟里","LIN":"15鄰","STREET":"大廟五街","SECT":" ","MAREA":" ","LANE":" ","ALLEY":" ","HOUSE_NO":"１３８號","E_COORD97":176085.98000000001,"N_COORD97":2544469.5299999998,"ADDRESS":"大廟五街１３８號","OBJECTID":507828},"geometry":{"x":176085.98000000045,"y":2544469.5299999993}},{"attributes":{"ID":507856,"DIS_CODE":0,"TOWNNAME":"歸仁區","LI":"武東里","LIN":"15鄰","STREET":"高鐵十二路","SECT":" ","MAREA":" ","LANE":" ","ALLEY":" ","HOUSE_NO":"７５號","E_COORD97":175879.45999999999,"N_COORD97":2536263.21,"ADDRESS":"高鐵十二路７５號","OBJECTID":507829},"geometry":{"x":175879.46000000089,"y":2536263.2100000046}},{"attributes":{"ID":507857,"DIS_CODE":0,"TOWNNAME":"歸仁區","LI":"武東里","LIN":"15鄰","STREET":"中正南路","SECT":"二段","MAREA":" ","LANE":" ","ALLEY":" ","HOUSE_NO":"８７號","E_COORD97":175821.833786,"N_COORD97":2536257.8878500001,"ADDRESS":"中正南路二段８７號","OBJECTID":507830},"geometry":{"x":175821.83378599957,"y":2536257.8878489994}},{"attributes":{"ID":507858,"DIS_CODE":0,"TOWNNAME":"歸仁區","LI":"武東里","LIN":"15鄰","STREET":"高鐵十二路","SECT":" ","MAREA":" ","LANE":" ","ALLEY":" ","HOUSE_NO":"８１號","E_COORD97":175886.76000000001,"N_COORD97":2536275.21,"ADDRESS":"高鐵十二路８１號","OBJECTID":507831},"geometry":{"x":175886.75999999978,"y":2536275.2100000009}},{"attributes":{"ID":507859,"DIS_CODE":0,"TOWNNAME":"歸仁區","LI":"武東里","LIN":"15鄰","STREET":"中正南路","SECT":"二段","MAREA":" ","LANE":" ","ALLEY":" ","HOUSE_NO":"５５號","E_COORD97":175852.85999999999,"N_COORD97":2536330.5,"ADDRESS":"中正南路二段５５號","OBJECTID":507832},"geometry":{"x":175852.86000000034,"y":2536330.5}},{"attributes":{"ID":507860,"DIS_CODE":0,"TOWNNAME":"歸仁區","LI":"武東里","LIN":"15鄰","STREET":"高鐵十二路","SECT":" ","MAREA":" ","LANE":" ","ALLEY":" ","HOUSE_NO":"９９號","E_COORD97":175900.26000000001,"N_COORD97":2536313.21,"ADDRESS":"高鐵十二路９９號","OBJECTID":507833},"geometry":{"x":175900.25999999978,"y":2536313.2100000009}},{"attributes":{"ID":507861,"DIS_CODE":0,"TOWNNAME":"歸仁區","LI":"七甲里","LIN":"15鄰","STREET":"南潭三街","SECT":" ","MAREA":" ","LANE":" ","ALLEY":" ","HOUSE_NO":"１２１號","E_COORD97":176329.23999999999,"N_COORD97":2543241.25,"ADDRESS":"南潭三街１２１號","OBJECTID":507834},"geometry":{"x":176329.24000000115,"y":2543241.25}},{"attributes":{"ID":507862,"DIS_CODE":0,"TOWNNAME":"歸仁區","LI":"大廟里","LIN":"15鄰","STREET":"大廟五街","SECT":" ","MAREA":" ","LANE":" ","ALLEY":" ","HOUSE_NO":"１２８號","E_COORD97":176076.67999999999,"N_COORD97":2544447.5299999998,"ADDRESS":"大廟五街１２８號","OBJECTID":507835},"geometry":{"x":176076.6799999997,"y":2544447.5300000012}},{"attributes":{"ID":507863,"DIS_CODE":0,"TOWNNAME":"歸仁區","LI":"大廟里","LIN":"15鄰","STREET":"大廟五街","SECT":" ","MAREA":" ","LANE":" ","ALLEY":" ","HOUSE_NO":"１３０號","E_COORD97":176077.67999999999,"N_COORD97":2544452.5299999998,"ADDRESS":"大廟五街１３０號","OBJECTID":507836},"geometry":{"x":176077.68000000063,"y":2544452.5299999993}},{"attributes":{"ID":507864,"DIS_CODE":0,"TOWNNAME":"歸仁區","LI":"大廟里","LIN":"15鄰","STREET":"大廟五街","SECT":" ","MAREA":" ","LANE":" ","ALLEY":" ","HOUSE_NO":"１４０號","E_COORD97":176087.07999999999,"N_COORD97":2544474.5299999998,"ADDRESS":"大廟五街１４０號","OBJECTID":507837},"geometry":{"x":176087.08000000194,"y":2544474.5300000012}},{"attributes":{"ID":507865,"DIS_CODE":0,"TOWNNAME":"歸仁區","LI":"武東里","LIN":"15鄰","STREET":"中正南路","SECT":"二段","MAREA":" ","LANE":" ","ALLEY":" ","HOUSE_NO":"４９號","E_COORD97":175861.16,"N_COORD97":2536350.5,"ADDRESS":"中正南路二段４９號","OBJECTID":507838},"geometry":{"x":175861.16000000201,"y":2536350.5}},{"attributes":{"ID":507866,"DIS_CODE":0,"TOWNNAME":"關廟區","LI":"香洋里","LIN":"15鄰","STREET":"中央路","SECT":" ","MAREA":" ","LANE":" ","ALLEY":" ","HOUSE_NO":"１６８號","E_COORD97":181376.85999999999,"N_COORD97":2540029.3199999998,"ADDRESS":"中央路１６８號","OBJECTID":507839},"geometry":{"x":181376.86000000127,"y":2540029.3200000022}},{"attributes":{"ID":507867,"DIS_CODE":0,"TOWNNAME":"關廟區","LI":"南花里","LIN":"15鄰","STREET":"和平路","SECT":" ","MAREA":" ","LANE":" ","ALLEY":" ","HOUSE_NO":"３０１號","E_COORD97":181607.23999999999,"N_COORD97":2540191.25,"ADDRESS":"和平路３０１號","OBJECTID":507840},"geometry":{"x":181607.24000000209,"y":2540191.2499999981}},{"attributes":{"ID":507868,"DIS_CODE":0,"TOWNNAME":"關廟區","LI":"五甲里","LIN":"15鄰","STREET":"東興一街","SECT":" ","MAREA":" ","LANE":" ","ALLEY":" ","HOUSE_NO":"７６號","E_COORD97":181271.76999999999,"N_COORD97":2539459.25,"ADDRESS":"東興一街７６號","OBJECTID":507841},"geometry":{"x":181271.76999999955,"y":2539459.2500000037}},{"attributes":{"ID":507869,"DIS_CODE":0,"TOWNNAME":"關廟區","LI":"南花里","LIN":"15鄰","STREET":"中正路","SECT":" ","MAREA":" ","LANE":" ","ALLEY":" ","HOUSE_NO":"８７１號","E_COORD97":181491.16,"N_COORD97":2540223.25,"ADDRESS":"中正路８７１號","OBJECTID":507842},"geometry":{"x":181491.16000000108,"y":2540223.2500000019}},{"attributes":{"ID":507870,"DIS_CODE":0,"TOWNNAME":"關廟區","LI":"山西里","LIN":"15鄰","STREET":"忠孝街","SECT":" ","MAREA":" ","LANE":" ","ALLEY":" ","HOUSE_NO":"１３５號","E_COORD97":181054.44,"N_COORD97":2540417.25,"ADDRESS":"忠孝街１３５號","OBJECTID":507843},"geometry":{"x":181054.44000000041,"y":2540417.25}},{"attributes":{"ID":507871,"DIS_CODE":0,"TOWNNAME":"關廟區","LI":"山西里","LIN":"15鄰","STREET":"忠孝街","SECT":" ","MAREA":" ","LANE":" ","ALLEY":" ","HOUSE_NO":"１５９號","E_COORD97":181077.14000000001,"N_COORD97":2540466.25,"ADDRESS":"忠孝街１５９號","OBJECTID":507844},"geometry":{"x":181077.1400000006,"y":2540466.2500000037}},{"attributes":{"ID":507872,"DIS_CODE":0,"TOWNNAME":"關廟區","LI":"五甲里","LIN":"15鄰","STREET":"東興一街","SECT":" ","MAREA":" ","LANE":" ","ALLEY":" ","HOUSE_NO":"８２號","E_COORD97":181276.37,"N_COORD97":2539448.25,"ADDRESS":"東興一街８２號","OBJECTID":507845},"geometry":{"x":181276.37000000104,"y":2539448.25}},{"attributes":{"ID":507873,"DIS_CODE":0,"TOWNNAME":"關廟區","LI":"山西里","LIN":"15鄰","STREET":"忠孝街","SECT":" ","MAREA":" ","LANE":" ","ALLEY":" ","HOUSE_NO":"１４５號","E_COORD97":181063.23999999999,"N_COORD97":2540437.25,"ADDRESS":"忠孝街１４５號","OBJECTID":507846},"geometry":{"x":181063.24000000209,"y":2540437.25}},{"attributes":{"ID":507874,"DIS_CODE":0,"TOWNNAME":"關廟區","LI":"松腳里","LIN":"15鄰","STREET":"民權街","SECT":" ","MAREA":" ","LANE":" ","ALLEY":" ","HOUSE_NO":"５１號","E_COORD97":181550.64000000001,"N_COORD97":2539726.29,"ADDRESS":"民權街５１號","OBJECTID":507847},"geometry":{"x":181550.63999999966,"y":2539726.290000001}},{"attributes":{"ID":507875,"DIS_CODE":0,"TOWNNAME":"關廟區","LI":"南花里","LIN":"15鄰","STREET":"和平路","SECT":" ","MAREA":" ","LANE":" ","ALLEY":" ","HOUSE_NO":"３１５號","E_COORD97":181596.44,"N_COORD97":2540225.25,"ADDRESS":"和平路３１５號","OBJECTID":507848},"geometry":{"x":181596.44000000134,"y":2540225.2500000037}},{"attributes":{"ID":507876,"DIS_CODE":0,"TOWNNAME":"關廟區","LI":"南花里","LIN":"15鄰","STREET":"中正路","SECT":" ","MAREA":" ","LANE":" ","ALLEY":" ","HOUSE_NO":"８６１號","E_COORD97":181516.56,"N_COORD97":2540233.25,"ADDRESS":"中正路８６１號","OBJECTID":507849},"geometry":{"x":181516.56000000052,"y":2540233.2500000019}},{"attributes":{"ID":507877,"DIS_CODE":0,"TOWNNAME":"關廟區","LI":"五甲里","LIN":"15鄰","STREET":"南雄路","SECT":"一段","MAREA":" ","LANE":" ","ALLEY":" ","HOUSE_NO":"９５０號","E_COORD97":181235.39000000001,"N_COORD97":2539454.2799999998,"ADDRESS":"南雄路一段９５０號","OBJECTID":507850},"geometry":{"x":181235.38999999966,"y":2539454.2799999993}},{"attributes":{"ID":507878,"DIS_CODE":0,"TOWNNAME":"關廟區","LI":"南花里","LIN":"15鄰","STREET":"花園一街","SECT":" ","MAREA":" ","LANE":" ","ALLEY":" ","HOUSE_NO":"２８２號","E_COORD97":181516.07999999999,"N_COORD97":2540173.1899999999,"ADDRESS":"花園一街２８２號","OBJECTID":507851},"geometry":{"x":181516.08000000007,"y":2540173.1899999995}},{"attributes":{"ID":507879,"DIS_CODE":0,"TOWNNAME":"關廟區","LI":"山西里","LIN":"15鄰","STREET":"崇仁街","SECT":" ","MAREA":" ","LANE":" ","ALLEY":" ","HOUSE_NO":"５３號","E_COORD97":180994.92000000001,"N_COORD97":2540506.25,"ADDRESS":"崇仁街５３號","OBJECTID":507852},"geometry":{"x":180994.91999999993,"y":2540506.25}},{"attributes":{"ID":507880,"DIS_CODE":0,"TOWNNAME":"關廟區","LI":"山西里","LIN":"15鄰","STREET":"忠孝街","SECT":" ","MAREA":" ","LANE":" ","ALLEY":" ","HOUSE_NO":"１５７號","E_COORD97":181075.54000000001,"N_COORD97":2540463.25,"ADDRESS":"忠孝街１５７號","OBJECTID":507853},"geometry":{"x":181075.54000000004,"y":2540463.2500000019}},{"attributes":{"ID":507881,"DIS_CODE":0,"TOWNNAME":"關廟區","LI":"五甲里","LIN":"15鄰","STREET":"東興二街","SECT":" ","MAREA":" ","LANE":" ","ALLEY":" ","HOUSE_NO":"９９號","E_COORD97":181320.47,"N_COORD97":2539422.25,"ADDRESS":"東興二街９９號","OBJECTID":507854},"geometry":{"x":181320.4700000016,"y":2539422.2500000019}},{"attributes":{"ID":507882,"DIS_CODE":0,"TOWNNAME":"關廟區","LI":"東勢里","LIN":"15鄰","STREET":"東興路","SECT":" ","MAREA":" ","LANE":" ","ALLEY":" ","HOUSE_NO":"１７０號","E_COORD97":181593.07000000001,"N_COORD97":2539555.25,"ADDRESS":"東興路１７０號","OBJECTID":507855},"geometry":{"x":181593.0700000003,"y":2539555.2500000019}},{"attributes":{"ID":507883,"DIS_CODE":0,"TOWNNAME":"關廟區","LI":"北花里","LIN":"15鄰","STREET":"中正路","SECT":" ","MAREA":" ","LANE":" ","ALLEY":" ","HOUSE_NO":"１５１號","E_COORD97":183498.76000000001,"N_COORD97":2540902.25,"ADDRESS":"中正路１５１號","OBJECTID":507856},"geometry":{"x":183498.76000000071,"y":2540902.25}},{"attributes":{"ID":507884,"DIS_CODE":0,"TOWNNAME":"關廟區","LI":"香洋里","LIN":"15鄰","STREET":"中央路","SECT":" ","MAREA":" ","LANE":" ","ALLEY":" ","HOUSE_NO":"１３８號","E_COORD97":181405.95999999999,"N_COORD97":2540019.3199999998,"ADDRESS":"中央路１３８號","OBJECTID":507857},"geometry":{"x":181405.96000000089,"y":2540019.3200000022}},{"attributes":{"ID":507885,"DIS_CODE":0,"TOWNNAME":"關廟區","LI":"香洋里","LIN":"15鄰","STREET":"中央路","SECT":" ","MAREA":" ","LANE":" ","ALLEY":" ","HOUSE_NO":"１８０號","E_COORD97":181364.16,"N_COORD97":2540032.3199999998,"ADDRESS":"中央路１８０號","OBJECTID":507858},"geometry":{"x":181364.16000000108,"y":2540032.3200000022}},{"attributes":{"ID":507886,"DIS_CODE":0,"TOWNNAME":"關廟區","LI":"松腳里","LIN":"15鄰","STREET":"民權街","SECT":" ","MAREA":" ","LANE":" ","ALLEY":" ","HOUSE_NO":"２７號","E_COORD97":181615.54000000001,"N_COORD97":2539702.29,"ADDRESS":"民權街２７號","OBJECTID":507859},"geometry":{"x":181615.54000000097,"y":2539702.290000001}},{"attributes":{"ID":507887,"DIS_CODE":0,"TOWNNAME":"關廟區","LI":"五甲里","LIN":"15鄰","STREET":"東興二街","SECT":" ","MAREA":" ","LANE":" ","ALLEY":" ","HOUSE_NO":"６０號","E_COORD97":181312.76999999999,"N_COORD97":2539503.25,"ADDRESS":"東興二街６０號","OBJECTID":507860},"geometry":{"x":181312.76999999955,"y":2539503.2500000037}},{"attributes":{"ID":507888,"DIS_CODE":0,"TOWNNAME":"關廟區","LI":"北花里","LIN":"15鄰","STREET":"中正路","SECT":" ","MAREA":" ","LANE":" ","ALLEY":" ","HOUSE_NO":"２１９號","E_COORD97":183359.76000000001,"N_COORD97":2540883.25,"ADDRESS":"中正路２１９號","OBJECTID":507861},"geometry":{"x":183359.76000000071,"y":2540883.2500000037}},{"attributes":{"ID":507889,"DIS_CODE":0,"TOWNNAME":"關廟區","LI":"香洋里","LIN":"15鄰","STREET":"中央路","SECT":" ","MAREA":" ","LANE":" ","ALLEY":" ","HOUSE_NO":"１６０號","E_COORD97":181389.06,"N_COORD97":2540025.3199999998,"ADDRESS":"中央路１６０號","OBJECTID":507862},"geometry":{"x":181389.05999999866,"y":2540025.320000004}},{"attributes":{"ID":507890,"DIS_CODE":0,"TOWNNAME":"北區","LI":"文元里","LIN":"15鄰","STREET":"和緯路","SECT":"三段","MAREA":" ","LANE":" ","ALLEY":" ","HOUSE_NO":"３２２號","E_COORD97":167567.62,"N_COORD97":2545640.79,"ADDRESS":"和緯路三段３２２號","OBJECTID":507863},"geometry":{"x":167567.62000000011,"y":2545640.7899999991}},{"attributes":{"ID":507891,"DIS_CODE":0,"TOWNNAME":"北區","LI":"文元里","LIN":"15鄰","STREET":"和緯路","SECT":"三段","MAREA":" ","LANE":" ","ALLEY":" ","HOUSE_NO":"３２６號","E_COORD97":167561.42999999999,"N_COORD97":2545640,"ADDRESS":"和緯路三段３２６號","OBJECTID":507864},"geometry":{"x":167561.43000000063,"y":2545640}},{"attributes":{"ID":507892,"DIS_CODE":0,"TOWNNAME":"北區","LI":"文元里","LIN":"15鄰","STREET":"和緯路","SECT":"三段","MAREA":" ","LANE":" ","ALLEY":" ","HOUSE_NO":"３２８號","E_COORD97":167556.67000000001,"N_COORD97":2545638.4100000001,"ADDRESS":"和緯路三段３２８號","OBJECTID":507865},"geometry":{"x":167556.67000000086,"y":2545638.4100000001}},{"attributes":{"ID":507893,"DIS_CODE":0,"TOWNNAME":"北區","LI":"文元里","LIN":"15鄰","STREET":"和緯路","SECT":"三段","MAREA":" ","LANE":" ","ALLEY":" ","HOUSE_NO":"３３０號","E_COORD97":167552.22,"N_COORD97":2545636.5,"ADDRESS":"和緯路三段３３０號","OBJECTID":507866},"geometry":{"x":167552.2200000016,"y":2545636.5}},{"attributes":{"ID":507894,"DIS_CODE":0,"TOWNNAME":"北區","LI":"文元里","LIN":"15鄰","STREET":"和緯路","SECT":"三段","MAREA":" ","LANE":" ","ALLEY":" ","HOUSE_NO":"３７０號","E_COORD97":167397.92000000001,"N_COORD97":2545609.7599999998,"ADDRESS":"和緯路三段３７０號","OBJECTID":507867},"geometry":{"x":167397.91999999993,"y":2545609.7600000016}},{"attributes":{"ID":507895,"DIS_CODE":0,"TOWNNAME":"安平區","LI":"平通里","LIN":"15鄰","STREET":"平通路","SECT":" ","MAREA":" ","LANE":" ","ALLEY":" ","HOUSE_NO":"６１６號","E_COORD97":164857.62,"N_COORD97":2543861.27,"ADDRESS":"平通路６１６號","OBJECTID":507868},"geometry":{"x":164857.62000000011,"y":2543861.2699999996}},{"attributes":{"ID":507896,"DIS_CODE":0,"TOWNNAME":"安平區","LI":"平通里","LIN":"15鄰","STREET":"平通路","SECT":" ","MAREA":" ","LANE":" ","ALLEY":" ","HOUSE_NO":"６１８號","E_COORD97":164853.35000000001,"N_COORD97":2543862.0800000001,"ADDRESS":"平通路６１８號","OBJECTID":507869},"geometry":{"x":164853.34999999963,"y":2543862.0800000019}},{"attributes":{"ID":507897,"DIS_CODE":0,"TOWNNAME":"安平區","LI":"平通里","LIN":"15鄰","STREET":"平通路","SECT":" ","MAREA":" ","LANE":" ","ALLEY":" ","HOUSE_NO":"６２０號","E_COORD97":164848.67000000001,"N_COORD97":2543862.7200000002,"ADDRESS":"平通路６２０號","OBJECTID":507870},"geometry":{"x":164848.66999999993,"y":2543862.7200000007}},{"attributes":{"ID":507898,"DIS_CODE":0,"TOWNNAME":"安平區","LI":"平通里","LIN":"15鄰","STREET":"平通路","SECT":" ","MAREA":" ","LANE":" ","ALLEY":" ","HOUSE_NO":"６２２號","E_COORD97":164844.56,"N_COORD97":2543863.6099999999,"ADDRESS":"平通路６２２號","OBJECTID":507871},"geometry":{"x":164844.56000000052,"y":2543863.6100000031}},{"attributes":{"ID":507899,"DIS_CODE":0,"TOWNNAME":"安平區","LI":"平通里","LIN":"15鄰","STREET":"平通路","SECT":" ","MAREA":" ","LANE":" ","ALLEY":" ","HOUSE_NO":"６２４號","E_COORD97":164839.81,"N_COORD97":2543865.54,"ADDRESS":"平通路６２４號","OBJECTID":507872},"geometry":{"x":164839.81000000052,"y":2543865.5399999991}},{"attributes":{"ID":507900,"DIS_CODE":0,"TOWNNAME":"安平區","LI":"海頭里","LIN":"15鄰","STREET":"安北路","SECT":" ","MAREA":" ","LANE":" ","ALLEY":" ","HOUSE_NO":"１２２號","E_COORD97":164150.87,"N_COORD97":2544848.27,"ADDRESS":"安北路１２２號","OBJECTID":507873},"geometry":{"x":164150.87000000197,"y":2544848.2699999996}},{"attributes":{"ID":507901,"DIS_CODE":0,"TOWNNAME":"安平區","LI":"海頭里","LIN":"15鄰","STREET":"安北路","SECT":" ","MAREA":" ","LANE":" ","ALLEY":" ","HOUSE_NO":"１２６號","E_COORD97":164131.42000000001,"N_COORD97":2544857.4399999999,"ADDRESS":"安北路１２６號","OBJECTID":507874},"geometry":{"x":164131.41999999993,"y":2544857.4399999995}},{"attributes":{"ID":507902,"DIS_CODE":0,"TOWNNAME":"安平區","LI":"海頭里","LIN":"15鄰","STREET":"安北路","SECT":" ","MAREA":" ","LANE":" ","ALLEY":" ","HOUSE_NO":"１２８號","E_COORD97":164123.01999999999,"N_COORD97":2544865.7599999998,"ADDRESS":"安北路１２８號","OBJECTID":507875},"geometry":{"x":164123.02000000048,"y":2544865.7599999998}},{"attributes":{"ID":507903,"DIS_CODE":0,"TOWNNAME":"安平區","LI":"海頭里","LIN":"15鄰","STREET":"安北路","SECT":" ","MAREA":" ","LANE":" ","ALLEY":" ","HOUSE_NO":"１３０號","E_COORD97":164118.60999999999,"N_COORD97":2544862.75,"ADDRESS":"安北路１３０號","OBJECTID":507876},"geometry":{"x":164118.61000000034,"y":2544862.75}},{"attributes":{"ID":507904,"DIS_CODE":0,"TOWNNAME":"安平區","LI":"海頭里","LIN":"15鄰","STREET":"安北路","SECT":" ","MAREA":" ","LANE":" ","ALLEY":" ","HOUSE_NO":"１３２號","E_COORD97":164114.54999999999,"N_COORD97":2544863.9399999999,"ADDRESS":"安北路１３２號","OBJECTID":507877},"geometry":{"x":164114.55000000075,"y":2544863.9399999995}},{"attributes":{"ID":507905,"DIS_CODE":0,"TOWNNAME":"安平區","LI":"海頭里","LIN":"15鄰","STREET":"安北路","SECT":" ","MAREA":" ","LANE":" ","ALLEY":" ","HOUSE_NO":"１３２號之１","E_COORD97":164105.10000000001,"N_COORD97":2544871.8500000001,"ADDRESS":"安北路１３２號之１","OBJECTID":507878},"geometry":{"x":164105.10000000056,"y":2544871.8499999996}},{"attributes":{"ID":507906,"DIS_CODE":0,"TOWNNAME":"安平區","LI":"海頭里","LIN":"15鄰","STREET":"安北路","SECT":" ","MAREA":" ","LANE":" ","ALLEY":" ","HOUSE_NO":"１３４號","E_COORD97":164096.32999999999,"N_COORD97":2544861.77,"ADDRESS":"安北路１３４號","OBJECTID":507879},"geometry":{"x":164096.33000000007,"y":2544861.7699999996}},{"attributes":{"ID":507907,"DIS_CODE":0,"TOWNNAME":"安平區","LI":"海頭里","LIN":"15鄰","STREET":"安北路","SECT":" ","MAREA":" ","LANE":" ","ALLEY":" ","HOUSE_NO":"１３６號","E_COORD97":164090.87,"N_COORD97":2544864.2200000002,"ADDRESS":"安北路１３６號","OBJECTID":507880},"geometry":{"x":164090.87000000011,"y":2544864.2200000044}},{"attributes":{"ID":507908,"DIS_CODE":0,"TOWNNAME":"安平區","LI":"海頭里","LIN":"15鄰","STREET":"安北路","SECT":" ","MAREA":" ","LANE":" ","ALLEY":" ","HOUSE_NO":"１３８號","E_COORD97":164086.17999999999,"N_COORD97":2544863.1699999999,"ADDRESS":"安北路１３８號","OBJECTID":507881},"geometry":{"x":164086.18000000063,"y":2544863.1699999999}},{"attributes":{"ID":507909,"DIS_CODE":0,"TOWNNAME":"安平區","LI":"海頭里","LIN":"15鄰","STREET":"安北路","SECT":" ","MAREA":" ","LANE":" ","ALLEY":" ","HOUSE_NO":"１４０號","E_COORD97":164081.70000000001,"N_COORD97":2544864.5,"ADDRESS":"安北路１４０號","OBJECTID":507882},"geometry":{"x":164081.70000000112,"y":2544864.5}},{"attributes":{"ID":507910,"DIS_CODE":0,"TOWNNAME":"安平區","LI":"海頭里","LIN":"15鄰","STREET":"安北路","SECT":" ","MAREA":" ","LANE":" ","ALLEY":" ","HOUSE_NO":"１４２號","E_COORD97":164078.42000000001,"N_COORD97":2544866.1099999999,"ADDRESS":"安北路１４２號","OBJECTID":507883},"geometry":{"x":164078.41999999993,"y":2544866.1099999994}},{"attributes":{"ID":507911,"DIS_CODE":0,"TOWNNAME":"安平區","LI":"海頭里","LIN":"15鄰","STREET":"安北路","SECT":" ","MAREA":" ","LANE":" ","ALLEY":" ","HOUSE_NO":"１４４號","E_COORD97":164076.89000000001,"N_COORD97":2544867.3700000001,"ADDRESS":"安北路１４４號","OBJECTID":507884},"geometry":{"x":164076.88999999966,"y":2544867.3700000029}},{"attributes":{"ID":507912,"DIS_CODE":0,"TOWNNAME":"安平區","LI":"海頭里","LIN":"15鄰","STREET":"安北路","SECT":" ","MAREA":" ","LANE":" ","ALLEY":" ","HOUSE_NO":"１４８號","E_COORD97":164068.44,"N_COORD97":2544863.71,"ADDRESS":"安北路１４８號","OBJECTID":507885},"geometry":{"x":164068.44000000134,"y":2544863.7100000009}},{"attributes":{"ID":507913,"DIS_CODE":0,"TOWNNAME":"安平區","LI":"海頭里","LIN":"15鄰","STREET":"安北路","SECT":" ","MAREA":" ","LANE":" ","ALLEY":" ","HOUSE_NO":"１４９號之１","E_COORD97":164031.64999999999,"N_COORD97":2544831.25,"ADDRESS":"安北路１４９號之１","OBJECTID":507886},"geometry":{"x":164031.65000000037,"y":2544831.25}},{"attributes":{"ID":507914,"DIS_CODE":0,"TOWNNAME":"安平區","LI":"海頭里","LIN":"15鄰","STREET":"安北路","SECT":" ","MAREA":" ","LANE":" ","ALLEY":" ","HOUSE_NO":"１５０號","E_COORD97":164064.31,"N_COORD97":2544865.46,"ADDRESS":"安北路１５０號","OBJECTID":507887},"geometry":{"x":164064.31000000145,"y":2544865.4600000009}},{"attributes":{"ID":507915,"DIS_CODE":0,"TOWNNAME":"安平區","LI":"海頭里","LIN":"15鄰","STREET":"安北路","SECT":" ","MAREA":" ","LANE":" ","ALLEY":" ","HOUSE_NO":"１５０號之１","E_COORD97":164060.45999999999,"N_COORD97":2544863.3599999999,"ADDRESS":"安北路１５０號之１","OBJECTID":507888},"geometry":{"x":164060.46000000089,"y":2544863.3600000013}},{"attributes":{"ID":507916,"DIS_CODE":0,"TOWNNAME":"安平區","LI":"海頭里","LIN":"15鄰","STREET":"安北路","SECT":" ","MAREA":" ","LANE":" ","ALLEY":" ","HOUSE_NO":"１５０號之２","E_COORD97":164055.84,"N_COORD97":2544864.6200000001,"ADDRESS":"安北路１５０號之２","OBJECTID":507889},"geometry":{"x":164055.83999999892,"y":2544864.620000001}},{"attributes":{"ID":507917,"DIS_CODE":0,"TOWNNAME":"安平區","LI":"海頭里","LIN":"15鄰","STREET":"安北路","SECT":" ","MAREA":" ","LANE":" ","ALLEY":" ","HOUSE_NO":"１５０號之３","E_COORD97":164051.14999999999,"N_COORD97":2544862.7400000002,"ADDRESS":"安北路１５０號之３","OBJECTID":507890},"geometry":{"x":164051.1500000013,"y":2544862.7400000002}},{"attributes":{"ID":507918,"DIS_CODE":0,"TOWNNAME":"安平區","LI":"海頭里","LIN":"15鄰","STREET":"安北路","SECT":" ","MAREA":" ","LANE":" ","ALLEY":" ","HOUSE_NO":"１５０號之４","E_COORD97":164046.32000000001,"N_COORD97":2544863.8500000001,"ADDRESS":"安北路１５０號之４","OBJECTID":507891},"geometry":{"x":164046.32000000216,"y":2544863.8500000015}},{"attributes":{"ID":507919,"DIS_CODE":0,"TOWNNAME":"安平區","LI":"海頭里","LIN":"15鄰","STREET":"安北路","SECT":" ","MAREA":" ","LANE":" ","ALLEY":" ","HOUSE_NO":"１５０號之５","E_COORD97":164041.91,"N_COORD97":2544865.7400000002,"ADDRESS":"安北路１５０號之５","OBJECTID":507892},"geometry":{"x":164041.91000000015,"y":2544865.7400000002}},{"attributes":{"ID":507920,"DIS_CODE":0,"TOWNNAME":"新營區","LI":"中營里","LIN":"15鄰","STREET":"開元路","SECT":" ","MAREA":" ","LANE":" ","ALLEY":" ","HOUSE_NO":"９４號","E_COORD97":181564.20999999999,"N_COORD97":2579336.1800000002,"ADDRESS":"開元路９４號","OBJECTID":507893},"geometry":{"x":181564.20999999996,"y":2579336.1799999997}},{"attributes":{"ID":507921,"DIS_CODE":0,"TOWNNAME":"新營區","LI":"新北里","LIN":"15鄰","STREET":"南新街","SECT":" ","MAREA":" ","LANE":" ","ALLEY":" ","HOUSE_NO":"１７號","E_COORD97":179342.44,"N_COORD97":2578848.2599999998,"ADDRESS":"南新街１７號","OBJECTID":507894},"geometry":{"x":179342.44000000041,"y":2578848.2600000035}},{"attributes":{"ID":507922,"DIS_CODE":0,"TOWNNAME":"新營區","LI":"新東里","LIN":"15鄰","STREET":"東泰七街","SECT":" ","MAREA":" ","LANE":" ","ALLEY":" ","HOUSE_NO":"６１號","E_COORD97":180978.06,"N_COORD97":2579747.5499999998,"ADDRESS":"東泰七街６１號","OBJECTID":507895},"geometry":{"x":180978.06000000052,"y":2579747.5500000007}},{"attributes":{"ID":507923,"DIS_CODE":0,"TOWNNAME":"新營區","LI":"新東里","LIN":"15鄰","STREET":"東智街","SECT":" ","MAREA":" ","LANE":" ","ALLEY":" ","HOUSE_NO":"８號","E_COORD97":181001.66,"N_COORD97":2579581.3300000001,"ADDRESS":"東智街８號","OBJECTID":507896},"geometry":{"x":181001.66000000108,"y":2579581.3300000019}},{"attributes":{"ID":507924,"DIS_CODE":0,"TOWNNAME":"新營區","LI":"王公里","LIN":"15鄰","STREET":"大勇街","SECT":" ","MAREA":" ","LANE":" ","ALLEY":" ","HOUSE_NO":"３２號","E_COORD97":180259.67000000001,"N_COORD97":2579427.5499999998,"ADDRESS":"大勇街３２號","OBJECTID":507897},"geometry":{"x":180259.66999999899,"y":2579427.5500000026}},{"attributes":{"ID":507925,"DIS_CODE":0,"TOWNNAME":"新營區","LI":"新東里","LIN":"15鄰","STREET":"東智街","SECT":" ","MAREA":" ","LANE":" ","ALLEY":" ","HOUSE_NO":"４３之６號","E_COORD97":180969.97,"N_COORD97":2579655.75,"ADDRESS":"東智街４３之６號","OBJECTID":507898},"geometry":{"x":180969.97000000067,"y":2579655.7500000019}},{"attributes":{"ID":507926,"DIS_CODE":0,"TOWNNAME":"新營區","LI":"新東里","LIN":"15鄰","STREET":"東智街","SECT":" ","MAREA":" ","LANE":" ","ALLEY":" ","HOUSE_NO":"１０號","E_COORD97":181002.87,"N_COORD97":2579585.7599999998,"ADDRESS":"東智街１０號","OBJECTID":507899},"geometry":{"x":181002.87000000197,"y":2579585.7599999998}},{"attributes":{"ID":507927,"DIS_CODE":0,"TOWNNAME":"新營區","LI":"大宏里","LIN":"15鄰","STREET":"大同路","SECT":" ","MAREA":" ","LANE":" ","ALLEY":" ","HOUSE_NO":"３９號","E_COORD97":180681.07000000001,"N_COORD97":2578775.5,"ADDRESS":"大同路３９號","OBJECTID":507900},"geometry":{"x":180681.0700000003,"y":2578775.5000000037}},{"attributes":{"ID":507928,"DIS_CODE":0,"TOWNNAME":"新營區","LI":"新東里","LIN":"15鄰","STREET":"東智街","SECT":" ","MAREA":" ","LANE":" ","ALLEY":" ","HOUSE_NO":"６５號","E_COORD97":180981.07999999999,"N_COORD97":2579737.5800000001,"ADDRESS":"東智街６５號","OBJECTID":507901},"geometry":{"x":180981.08000000194,"y":2579737.5800000001}},{"attributes":{"ID":507929,"DIS_CODE":0,"TOWNNAME":"新營區","LI":"南興里","LIN":"15鄰","STREET":"建業路","SECT":" ","MAREA":" ","LANE":" ","ALLEY":" ","HOUSE_NO":"１１０號","E_COORD97":179227.76000000001,"N_COORD97":2577491.0899999999,"ADDRESS":"建業路１１０號","OBJECTID":507902},"geometry":{"x":179227.75999999978,"y":2577491.0900000017}},{"attributes":{"ID":507930,"DIS_CODE":0,"TOWNNAME":"新營區","LI":"民榮里","LIN":"15鄰","STREET":"新進路","SECT":"二段","MAREA":" ","LANE":" ","ALLEY":" ","HOUSE_NO":"５１２號","E_COORD97":178666.97,"N_COORD97":2578079.6200000001,"ADDRESS":"新進路二段５１２號","OBJECTID":507903},"geometry":{"x":178666.96999999974,"y":2578079.620000001}},{"attributes":{"ID":507931,"DIS_CODE":0,"TOWNNAME":"新營區","LI":"王公里","LIN":"15鄰","STREET":"大勇街","SECT":" ","MAREA":" ","LANE":" ","ALLEY":" ","HOUSE_NO":"２０號","E_COORD97":180234.07000000001,"N_COORD97":2579425.4500000002,"ADDRESS":"大勇街２０號","OBJECTID":507904},"geometry":{"x":180234.07000000123,"y":2579425.4499999993}},{"attributes":{"ID":507932,"DIS_CODE":0,"TOWNNAME":"新營區","LI":"民生里","LIN":"15鄰","STREET":"中華路","SECT":" ","MAREA":" ","LANE":" ","ALLEY":" ","HOUSE_NO":"９６之３號","E_COORD97":179273.10000000001,"N_COORD97":2578163.1499999999,"ADDRESS":"中華路９６之３號","OBJECTID":507905},"geometry":{"x":179273.09999999963,"y":2578163.1500000004}},{"attributes":{"ID":507933,"DIS_CODE":0,"TOWNNAME":"新營區","LI":"民榮里","LIN":"15鄰","STREET":"復興路","SECT":" ","MAREA":" ","LANE":" ","ALLEY":" ","HOUSE_NO":"２６１號","E_COORD97":178779.60999999999,"N_COORD97":2578092.3599999999,"ADDRESS":"復興路２６１號","OBJECTID":507906},"geometry":{"x":178779.61000000127,"y":2578092.3600000013}},{"attributes":{"ID":507934,"DIS_CODE":0,"TOWNNAME":"新營區","LI":"南興里","LIN":"15鄰","STREET":"建業路","SECT":" ","MAREA":" ","LANE":" ","ALLEY":" ","HOUSE_NO":"１００號","E_COORD97":179252.29999999999,"N_COORD97":2577489.8700000001,"ADDRESS":"建業路１００號","OBJECTID":507907},"geometry":{"x":179252.30000000075,"y":2577489.8700000029}},{"attributes":{"ID":507935,"DIS_CODE":0,"TOWNNAME":"新營區","LI":"南興里","LIN":"15鄰","STREET":"建業路","SECT":" ","MAREA":" ","LANE":" ","ALLEY":" ","HOUSE_NO":"１１４號","E_COORD97":179216.51000000001,"N_COORD97":2577491.1400000001,"ADDRESS":"建業路１１４號","OBJECTID":507908},"geometry":{"x":179216.51000000164,"y":2577491.1400000025}},{"attributes":{"ID":507936,"DIS_CODE":0,"TOWNNAME":"新營區","LI":"民榮里","LIN":"15鄰","STREET":"復興路","SECT":" ","MAREA":" ","LANE":" ","ALLEY":" ","HOUSE_NO":"１９１號","E_COORD97":178941.95000000001,"N_COORD97":2578043.9700000002,"ADDRESS":"復興路１９１號","OBJECTID":507909},"geometry":{"x":178941.95000000019,"y":2578043.9699999988}},{"attributes":{"ID":507937,"DIS_CODE":0,"TOWNNAME":"新營區","LI":"民榮里","LIN":"15鄰","STREET":"復興路","SECT":" ","MAREA":" ","LANE":" ","ALLEY":" ","HOUSE_NO":"２９３號","E_COORD97":178675.41,"N_COORD97":2578122.77,"ADDRESS":"復興路２９３號","OBJECTID":507910},"geometry":{"x":178675.41000000108,"y":2578122.7700000014}},{"attributes":{"ID":507938,"DIS_CODE":0,"TOWNNAME":"新營區","LI":"民榮里","LIN":"15鄰","STREET":"復興路","SECT":" ","MAREA":" ","LANE":" ","ALLEY":" ","HOUSE_NO":"２５５號","E_COORD97":178794.92000000001,"N_COORD97":2578087.8599999999,"ADDRESS":"復興路２５５號","OBJECTID":507911},"geometry":{"x":178794.91999999993,"y":2578087.8600000031}},{"attributes":{"ID":507939,"DIS_CODE":0,"TOWNNAME":"新營區","LI":"民榮里","LIN":"15鄰","STREET":"復興路","SECT":" ","MAREA":" ","LANE":" ","ALLEY":" ","HOUSE_NO":"２８１號","E_COORD97":178727.51000000001,"N_COORD97":2578108.1299999999,"ADDRESS":"復興路２８１號","OBJECTID":507912},"geometry":{"x":178727.50999999978,"y":2578108.129999999}},{"attributes":{"ID":507940,"DIS_CODE":0,"TOWNNAME":"新營區","LI":"民榮里","LIN":"15鄰","STREET":"復興路","SECT":" ","MAREA":" ","LANE":" ","ALLEY":" ","HOUSE_NO":"２３５號","E_COORD97":178857.23000000001,"N_COORD97":2578068.7400000002,"ADDRESS":"復興路２３５號","OBJECTID":507913},"geometry":{"x":178857.23000000045,"y":2578068.7400000002}},{"attributes":{"ID":507941,"DIS_CODE":0,"TOWNNAME":"新營區","LI":"民榮里","LIN":"15鄰","STREET":"復興路","SECT":" ","MAREA":" ","LANE":" ","ALLEY":" ","HOUSE_NO":"２４１之２號","E_COORD97":178826.01999999999,"N_COORD97":2578078.9100000001,"ADDRESS":"復興路２４１之２號","OBJECTID":507914},"geometry":{"x":178826.01999999955,"y":2578078.910000002}},{"attributes":{"ID":507942,"DIS_CODE":0,"TOWNNAME":"新營區","LI":"埤寮里","LIN":"15鄰","STREET":"中正路","SECT":" ","MAREA":" ","LANE":" ","ALLEY":" ","HOUSE_NO":"２６０號","E_COORD97":180087.29000000001,"N_COORD97":2579916.7599999998,"ADDRESS":"中正路２６０號","OBJECTID":507915},"geometry":{"x":180087.29000000004,"y":2579916.7600000016}},{"attributes":{"ID":507943,"DIS_CODE":0,"TOWNNAME":"新營區","LI":"埤寮里","LIN":"15鄰","STREET":"中正路","SECT":" ","MAREA":" ","LANE":" ","ALLEY":" ","HOUSE_NO":"２７６號","E_COORD97":180113.04000000001,"N_COORD97":2579955.3900000001,"ADDRESS":"中正路２７６號","OBJECTID":507916},"geometry":{"x":180113.04000000004,"y":2579955.3900000006}},{"attributes":{"ID":507944,"DIS_CODE":0,"TOWNNAME":"新營區","LI":"民榮里","LIN":"15鄰","STREET":"復興路","SECT":" ","MAREA":" ","LANE":" ","ALLEY":" ","HOUSE_NO":"２６７之１號","E_COORD97":178757.57999999999,"N_COORD97":2578099.1800000002,"ADDRESS":"復興路２６７之１號","OBJECTID":507917},"geometry":{"x":178757.58000000101,"y":2578099.1799999978}},{"attributes":{"ID":507945,"DIS_CODE":0,"TOWNNAME":"新營區","LI":"民榮里","LIN":"15鄰","STREET":"復興路","SECT":" ","MAREA":" ","LANE":" ","ALLEY":" ","HOUSE_NO":"２７５號","E_COORD97":178739.76999999999,"N_COORD97":2578103.6400000001,"ADDRESS":"復興路２７５號","OBJECTID":507918},"geometry":{"x":178739.77000000142,"y":2578103.6400000006}},{"attributes":{"ID":507946,"DIS_CODE":0,"TOWNNAME":"新營區","LI":"民榮里","LIN":"15鄰","STREET":"復興路","SECT":" ","MAREA":" ","LANE":" ","ALLEY":" ","HOUSE_NO":"２７３號","E_COORD97":178743.85000000001,"N_COORD97":2578102.5099999998,"ADDRESS":"復興路２７３號","OBJECTID":507919},"geometry":{"x":178743.84999999963,"y":2578102.5099999998}},{"attributes":{"ID":507947,"DIS_CODE":0,"TOWNNAME":"新營區","LI":"埤寮里","LIN":"15鄰","STREET":"中正路","SECT":" ","MAREA":" ","LANE":" ","ALLEY":" ","HOUSE_NO":"２７８號","E_COORD97":180085.44,"N_COORD97":2579957.7400000002,"ADDRESS":"中正路２７８號","OBJECTID":507920},"geometry":{"x":180085.43999999948,"y":2579957.7400000039}},{"attributes":{"ID":507948,"DIS_CODE":0,"TOWNNAME":"新營區","LI":"新東里","LIN":"15鄰","STREET":"東泰一街","SECT":" ","MAREA":" ","LANE":" ","ALLEY":" ","HOUSE_NO":"２６號","E_COORD97":181038.54000000001,"N_COORD97":2579545.7200000002,"ADDRESS":"東泰一街２６號","OBJECTID":507921},"geometry":{"x":181038.54000000004,"y":2579545.7200000025}},{"attributes":{"ID":507949,"DIS_CODE":0,"TOWNNAME":"鹽水區","LI":"水正里","LIN":"15鄰","STREET":"中正路","SECT":" ","MAREA":" ","LANE":" ","ALLEY":" ","HOUSE_NO":"１７４號","E_COORD97":175018.60000000001,"N_COORD97":2579614.8700000001,"ADDRESS":"中正路１７４號","OBJECTID":507922},"geometry":{"x":175018.60000000056,"y":2579614.8699999992}},{"attributes":{"ID":507950,"DIS_CODE":0,"TOWNNAME":"鹽水區","LI":"橋南里","LIN":"15鄰","STREET":"月津路","SECT":" ","MAREA":" ","LANE":" ","ALLEY":" ","HOUSE_NO":"１０號","E_COORD97":174995.51000000001,"N_COORD97":2579526.4399999999,"ADDRESS":"月津路１０號","OBJECTID":507923},"geometry":{"x":174995.51000000164,"y":2579526.4400000013}},{"attributes":{"ID":507951,"DIS_CODE":0,"TOWNNAME":"鹽水區","LI":"橋南里","LIN":"15鄰","STREET":"月津路","SECT":" ","MAREA":" ","LANE":" ","ALLEY":" ","HOUSE_NO":"１２號","E_COORD97":174993.73999999999,"N_COORD97":2579521.7400000002,"ADDRESS":"月津路１２號","OBJECTID":507924},"geometry":{"x":174993.74000000022,"y":2579521.7400000021}},{"attributes":{"ID":507952,"DIS_CODE":0,"TOWNNAME":"鹽水區","LI":"橋南里","LIN":"15鄰","STREET":"月津路","SECT":" ","MAREA":" ","LANE":" ","ALLEY":" ","HOUSE_NO":"１６號","E_COORD97":174908.07999999999,"N_COORD97":2579475.7799999998,"ADDRESS":"月津路１６號","OBJECTID":507925},"geometry":{"x":174908.08000000007,"y":2579475.7800000012}},{"attributes":{"ID":507953,"DIS_CODE":0,"TOWNNAME":"鹽水區","LI":"橋南里","LIN":"15鄰","STREET":"月津路","SECT":" ","MAREA":" ","LANE":" ","ALLEY":" ","HOUSE_NO":"１９號","E_COORD97":175003.70000000001,"N_COORD97":2579446.3999999999,"ADDRESS":"月津路１９號","OBJECTID":507926},"geometry":{"x":175003.70000000112,"y":2579446.4000000004}},{"attributes":{"ID":507954,"DIS_CODE":0,"TOWNNAME":"鹽水區","LI":"橋南里","LIN":"15鄰","STREET":"月津路","SECT":" ","MAREA":" ","LANE":" ","ALLEY":" ","HOUSE_NO":"１號","E_COORD97":175012.23000000001,"N_COORD97":2579483.7400000002,"ADDRESS":"月津路１號","OBJECTID":507927},"geometry":{"x":175012.23000000138,"y":2579483.7400000021}},{"attributes":{"ID":507955,"DIS_CODE":0,"TOWNNAME":"鹽水區","LI":"橋南里","LIN":"15鄰","STREET":"月津路","SECT":" ","MAREA":" ","LANE":" ","ALLEY":" ","HOUSE_NO":"２１號","E_COORD97":175002.07000000001,"N_COORD97":2579441.8599999999,"ADDRESS":"月津路２１號","OBJECTID":507928},"geometry":{"x":175002.0700000003,"y":2579441.8600000013}},{"attributes":{"ID":507956,"DIS_CODE":0,"TOWNNAME":"鹽水區","LI":"橋南里","LIN":"15鄰","STREET":"月津路","SECT":" ","MAREA":" ","LANE":" ","ALLEY":" ","HOUSE_NO":"２３號","E_COORD97":175000.63,"N_COORD97":2579437.77,"ADDRESS":"月津路２３號","OBJECTID":507929},"geometry":{"x":175000.63000000082,"y":2579437.7700000033}},{"attributes":{"ID":507957,"DIS_CODE":0,"TOWNNAME":"鹽水區","LI":"橋南里","LIN":"15鄰","STREET":"月津路","SECT":" ","MAREA":" ","LANE":" ","ALLEY":" ","HOUSE_NO":"２５號","E_COORD97":174999.06,"N_COORD97":2579433.7000000002,"ADDRESS":"月津路２５號","OBJECTID":507930},"geometry":{"x":174999.06000000052,"y":2579433.6999999993}},{"attributes":{"ID":507958,"DIS_CODE":0,"TOWNNAME":"鹽水區","LI":"橋南里","LIN":"15鄰","STREET":"月津路","SECT":" ","MAREA":" ","LANE":" ","ALLEY":" ","HOUSE_NO":"２７號","E_COORD97":174995.09,"N_COORD97":2579425.8599999999,"ADDRESS":"月津路２７號","OBJECTID":507931},"geometry":{"x":174995.09000000171,"y":2579425.8599999994}},{"attributes":{"ID":507959,"DIS_CODE":0,"TOWNNAME":"鹽水區","LI":"橋南里","LIN":"15鄰","STREET":"月津路","SECT":" ","MAREA":" ","LANE":" ","ALLEY":" ","HOUSE_NO":"２號","E_COORD97":174999.66,"N_COORD97":2579544.3799999999,"ADDRESS":"月津路２號","OBJECTID":507932},"geometry":{"x":174999.66000000015,"y":2579544.379999999}},{"attributes":{"ID":507960,"DIS_CODE":0,"TOWNNAME":"鹽水區","LI":"橋南里","LIN":"15鄰","STREET":"月津路","SECT":" ","MAREA":" ","LANE":" ","ALLEY":" ","HOUSE_NO":"３１號","E_COORD97":174993.57999999999,"N_COORD97":2579417.8399999999,"ADDRESS":"月津路３１號","OBJECTID":507933},"geometry":{"x":174993.58000000194,"y":2579417.8400000017}},{"attributes":{"ID":507961,"DIS_CODE":0,"TOWNNAME":"鹽水區","LI":"橋南里","LIN":"15鄰","STREET":"月津路","SECT":" ","MAREA":" ","LANE":" ","ALLEY":" ","HOUSE_NO":"３３號","E_COORD97":174992.39999999999,"N_COORD97":2579413.54,"ADDRESS":"月津路３３號","OBJECTID":507934},"geometry":{"x":174992.4000000013,"y":2579413.5399999991}},{"attributes":{"ID":507962,"DIS_CODE":0,"TOWNNAME":"安平區","LI":"石門里","LIN":"15鄰","STREET":"民權路","SECT":"四段","MAREA":" ","LANE":" ","ALLEY":" ","HOUSE_NO":"７６５號","E_COORD97":164708.92000000001,"N_COORD97":2544691.96,"ADDRESS":"民權路四段７６５號","OBJECTID":507935},"geometry":{"x":164708.92000000086,"y":2544691.9600000009}},{"attributes":{"ID":507963,"DIS_CODE":0,"TOWNNAME":"安平區","LI":"石門里","LIN":"15鄰","STREET":"民權路","SECT":"四段","MAREA":" ","LANE":" ","ALLEY":" ","HOUSE_NO":"７６７號","E_COORD97":164705.39999999999,"N_COORD97":2544694.1600000001,"ADDRESS":"民權路四段７６７號","OBJECTID":507936},"geometry":{"x":164705.40000000224,"y":2544694.1600000001}},{"attributes":{"ID":507964,"DIS_CODE":0,"TOWNNAME":"安平區","LI":"石門里","LIN":"15鄰","STREET":"民權路","SECT":"四段","MAREA":" ","LANE":" ","ALLEY":" ","HOUSE_NO":"７６９號","E_COORD97":164701.87,"N_COORD97":2544696.3700000001,"ADDRESS":"民權路四段７６９號","OBJECTID":507937},"geometry":{"x":164701.87000000197,"y":2544696.370000001}},{"attributes":{"ID":507965,"DIS_CODE":0,"TOWNNAME":"安平區","LI":"石門里","LIN":"15鄰","STREET":"民權路","SECT":"四段","MAREA":" ","LANE":" ","ALLEY":" ","HOUSE_NO":"７７１號","E_COORD97":164694.37,"N_COORD97":2544698.5699999998,"ADDRESS":"民權路四段７７１號","OBJECTID":507938},"geometry":{"x":164694.37000000011,"y":2544698.5699999984}},{"attributes":{"ID":507966,"DIS_CODE":0,"TOWNNAME":"安平區","LI":"石門里","LIN":"15鄰","STREET":"民權路","SECT":"四段","MAREA":" ","LANE":" ","ALLEY":" ","HOUSE_NO":"７７１號之１","E_COORD97":164689.51000000001,"N_COORD97":2544688.4300000002,"ADDRESS":"民權路四段７７１號之１","OBJECTID":507939},"geometry":{"x":164689.51000000071,"y":2544688.4299999997}},{"attributes":{"ID":507967,"DIS_CODE":0,"TOWNNAME":"安平區","LI":"石門里","LIN":"15鄰","STREET":"民權路","SECT":"四段","MAREA":" ","LANE":" ","ALLEY":" ","HOUSE_NO":"７７１號之２","E_COORD97":164689.95000000001,"N_COORD97":2544684.4700000002,"ADDRESS":"民權路四段７７１號之２","OBJECTID":507940},"geometry":{"x":164689.95000000112,"y":2544684.4700000025}},{"attributes":{"ID":507968,"DIS_CODE":0,"TOWNNAME":"安平區","LI":"石門里","LIN":"15鄰","STREET":"民權路","SECT":"四段","MAREA":" ","LANE":" ","ALLEY":" ","HOUSE_NO":"７７３號","E_COORD97":164667.51000000001,"N_COORD97":2544709.1400000001,"ADDRESS":"民權路四段７７３號","OBJECTID":507941},"geometry":{"x":164667.51000000071,"y":2544709.1400000025}},{"attributes":{"ID":507969,"DIS_CODE":0,"TOWNNAME":"安平區","LI":"石門里","LIN":"15鄰","STREET":"民權路","SECT":"四段","MAREA":" ","LANE":" ","ALLEY":" ","HOUSE_NO":"７７３號之１","E_COORD97":164657.92999999999,"N_COORD97":2544701.6699999999,"ADDRESS":"民權路四段７７３號之１","OBJECTID":507942},"geometry":{"x":164657.9299999997,"y":2544701.6700000018}},{"attributes":{"ID":507970,"DIS_CODE":0,"TOWNNAME":"安平區","LI":"石門里","LIN":"15鄰","STREET":"民權路","SECT":"四段","MAREA":" ","LANE":" ","ALLEY":" ","HOUSE_NO":"７７３號之２","E_COORD97":164655.79000000001,"N_COORD97":2544697.6499999999,"ADDRESS":"民權路四段７７３號之２","OBJECTID":507943},"geometry":{"x":164655.79000000004,"y":2544697.6500000004}},{"attributes":{"ID":507971,"DIS_CODE":0,"TOWNNAME":"安平區","LI":"石門里","LIN":"15鄰","STREET":"民權路","SECT":"四段","MAREA":" ","LANE":" ","ALLEY":" ","HOUSE_NO":"７７５號","E_COORD97":164660.89000000001,"N_COORD97":2544710.4700000002,"ADDRESS":"民權路四段７７５號","OBJECTID":507944},"geometry":{"x":164660.8900000006,"y":2544710.4700000025}},{"attributes":{"ID":507972,"DIS_CODE":0,"TOWNNAME":"安平區","LI":"石門里","LIN":"15鄰","STREET":"民權路","SECT":"四段","MAREA":" ","LANE":" ","ALLEY":" ","HOUSE_NO":"７７７號","E_COORD97":164656.48000000001,"N_COORD97":2544712.6699999999,"ADDRESS":"民權路四段７７７號","OBJECTID":507945},"geometry":{"x":164656.48000000138,"y":2544712.6700000018}},{"attributes":{"ID":507973,"DIS_CODE":0,"TOWNNAME":"安平區","LI":"石門里","LIN":"15鄰","STREET":"民權路","SECT":"四段","MAREA":" ","LANE":" ","ALLEY":" ","HOUSE_NO":"７７９號","E_COORD97":164652.51000000001,"N_COORD97":2544713.1099999999,"ADDRESS":"民權路四段７７９號","OBJECTID":507946},"geometry":{"x":164652.50999999978,"y":2544713.1099999994}},{"attributes":{"ID":507974,"DIS_CODE":0,"TOWNNAME":"安平區","LI":"石門里","LIN":"15鄰","STREET":"民權路","SECT":"四段","MAREA":" ","LANE":" ","ALLEY":" ","HOUSE_NO":"７８１號","E_COORD97":164647.20999999999,"N_COORD97":2544713.5499999998,"ADDRESS":"民權路四段７８１號","OBJECTID":507947},"geometry":{"x":164647.21000000089,"y":2544713.5500000026}},{"attributes":{"ID":507975,"DIS_CODE":0,"TOWNNAME":"安平區","LI":"石門里","LIN":"15鄰","STREET":"民權路","SECT":"四段","MAREA":" ","LANE":" ","ALLEY":" ","HOUSE_NO":"７８３號","E_COORD97":164644.57000000001,"N_COORD97":2544714.8700000001,"ADDRESS":"民權路四段７８３號","OBJECTID":507948},"geometry":{"x":164644.5700000003,"y":2544714.8700000029}},{"attributes":{"ID":507976,"DIS_CODE":0,"TOWNNAME":"安平區","LI":"石門里","LIN":"15鄰","STREET":"民權路","SECT":"四段","MAREA":" ","LANE":" ","ALLEY":" ","HOUSE_NO":"７８５號","E_COORD97":164640.14999999999,"N_COORD97":2544717.0800000001,"ADDRESS":"民權路四段７８５號","OBJECTID":507949},"geometry":{"x":164640.15000000037,"y":2544717.0800000019}},{"attributes":{"ID":507977,"DIS_CODE":0,"TOWNNAME":"安平區","LI":"石門里","LIN":"15鄰","STREET":"民權路","SECT":"四段","MAREA":" ","LANE":" ","ALLEY":" ","HOUSE_NO":"７８７號","E_COORD97":164636.17999999999,"N_COORD97":2544717.96,"ADDRESS":"民權路四段７８７號","OBJECTID":507950},"geometry":{"x":164636.1799999997,"y":2544717.9600000028}},{"attributes":{"ID":507978,"DIS_CODE":0,"TOWNNAME":"安平區","LI":"石門里","LIN":"15鄰","STREET":"民權路","SECT":"四段","MAREA":" ","LANE":" ","ALLEY":" ","HOUSE_NO":"７８９號","E_COORD97":164632.64999999999,"N_COORD97":2544719.7200000002,"ADDRESS":"民權路四段７８９號","OBJECTID":507951},"geometry":{"x":164632.6500000013,"y":2544719.7200000025}},{"attributes":{"ID":507979,"DIS_CODE":0,"TOWNNAME":"安平區","LI":"石門里","LIN":"15鄰","STREET":"民權路","SECT":"四段","MAREA":" ","LANE":" ","ALLEY":" ","HOUSE_NO":"７９１號","E_COORD97":164628.23999999999,"N_COORD97":2544721.04,"ADDRESS":"民權路四段７９１號","OBJECTID":507952},"geometry":{"x":164628.24000000209,"y":2544721.0399999991}},{"attributes":{"ID":507980,"DIS_CODE":0,"TOWNNAME":"安平區","LI":"石門里","LIN":"15鄰","STREET":"民權路","SECT":"四段","MAREA":" ","LANE":" ","ALLEY":" ","HOUSE_NO":"７９３號","E_COORD97":164623.82999999999,"N_COORD97":2544723.2400000002,"ADDRESS":"民權路四段７９３號","OBJECTID":507953},"geometry":{"x":164623.83000000007,"y":2544723.2400000002}},{"attributes":{"ID":507981,"DIS_CODE":0,"TOWNNAME":"安平區","LI":"石門里","LIN":"15鄰","STREET":"民權路","SECT":"四段","MAREA":" ","LANE":" ","ALLEY":" ","HOUSE_NO":"７９５號","E_COORD97":164620.73999999999,"N_COORD97":2544724.5699999998,"ADDRESS":"民權路四段７９５號","OBJECTID":507954},"geometry":{"x":164620.74000000022,"y":2544724.5700000003}},{"attributes":{"ID":507982,"DIS_CODE":0,"TOWNNAME":"安平區","LI":"石門里","LIN":"15鄰","STREET":"民權路","SECT":"四段","MAREA":" ","LANE":" ","ALLEY":" ","HOUSE_NO":"７９７號","E_COORD97":164615.01000000001,"N_COORD97":2544725.8900000001,"ADDRESS":"民權路四段７９７號","OBJECTID":507955},"geometry":{"x":164615.00999999978,"y":2544725.8900000006}},{"attributes":{"ID":507983,"DIS_CODE":0,"TOWNNAME":"安平區","LI":"石門里","LIN":"15鄰","STREET":"民權路","SECT":"四段","MAREA":" ","LANE":" ","ALLEY":" ","HOUSE_NO":"７９９號","E_COORD97":164611.03,"N_COORD97":2544727.6499999999,"ADDRESS":"民權路四段７９９號","OBJECTID":507956},"geometry":{"x":164611.03000000212,"y":2544727.6500000004}},{"attributes":{"ID":507984,"DIS_CODE":0,"TOWNNAME":"安平區","LI":"石門里","LIN":"15鄰","STREET":"民權路","SECT":"四段","MAREA":" ","LANE":" ","ALLEY":" ","HOUSE_NO":"８０１號","E_COORD97":164607.06,"N_COORD97":2544728.5299999998,"ADDRESS":"民權路四段８０１號","OBJECTID":507957},"geometry":{"x":164607.06000000052,"y":2544728.5300000031}},{"attributes":{"ID":507985,"DIS_CODE":0,"TOWNNAME":"安平區","LI":"石門里","LIN":"15鄰","STREET":"民權路","SECT":"四段","MAREA":" ","LANE":" ","ALLEY":" ","HOUSE_NO":"８０３號","E_COORD97":164603.09,"N_COORD97":2544729.8500000001,"ADDRESS":"民權路四段８０３號","OBJECTID":507958},"geometry":{"x":164603.08999999985,"y":2544729.8499999978}},{"attributes":{"ID":507986,"DIS_CODE":0,"TOWNNAME":"安平區","LI":"石門里","LIN":"15鄰","STREET":"民權路","SECT":"四段","MAREA":" ","LANE":" ","ALLEY":" ","HOUSE_NO":"８０５號","E_COORD97":164598.67999999999,"N_COORD97":2544732.0600000001,"ADDRESS":"民權路四段８０５號","OBJECTID":507959},"geometry":{"x":164598.6799999997,"y":2544732.0600000005}},{"attributes":{"ID":507987,"DIS_CODE":0,"TOWNNAME":"安平區","LI":"石門里","LIN":"15鄰","STREET":"民權路","SECT":"四段","MAREA":" ","LANE":" ","ALLEY":" ","HOUSE_NO":"８０７號","E_COORD97":164594.70999999999,"N_COORD97":2544732.5,"ADDRESS":"民權路四段８０７號","OBJECTID":507960},"geometry":{"x":164594.71000000089,"y":2544732.5}},{"attributes":{"ID":507988,"DIS_CODE":0,"TOWNNAME":"安平區","LI":"石門里","LIN":"15鄰","STREET":"民權路","SECT":"四段","MAREA":" ","LANE":" ","ALLEY":" ","HOUSE_NO":"８０９號","E_COORD97":164590.29999999999,"N_COORD97":2544734.7000000002,"ADDRESS":"民權路四段８０９號","OBJECTID":507961},"geometry":{"x":164590.30000000075,"y":2544734.7000000011}},{"attributes":{"ID":507989,"DIS_CODE":0,"TOWNNAME":"安平區","LI":"石門里","LIN":"15鄰","STREET":"民權路","SECT":"四段","MAREA":" ","LANE":" ","ALLEY":" ","HOUSE_NO":"８１１號","E_COORD97":164586.76999999999,"N_COORD97":2544736.46,"ADDRESS":"民權路四段８１１號","OBJECTID":507962},"geometry":{"x":164586.77000000142,"y":2544736.4600000009}},{"attributes":{"ID":507990,"DIS_CODE":0,"TOWNNAME":"安平區","LI":"石門里","LIN":"15鄰","STREET":"民權路","SECT":"四段","MAREA":" ","LANE":" ","ALLEY":" ","HOUSE_NO":"８１３號","E_COORD97":164581.03,"N_COORD97":2544737.79,"ADDRESS":"民權路四段８１３號","OBJECTID":507963},"geometry":{"x":164581.03000000119,"y":2544737.790000001}},{"attributes":{"ID":507991,"DIS_CODE":0,"TOWNNAME":"安平區","LI":"石門里","LIN":"15鄰","STREET":"民權路","SECT":"四段","MAREA":" ","LANE":" ","ALLEY":" ","HOUSE_NO":"８１５號","E_COORD97":164577.5,"N_COORD97":2544738.23,"ADDRESS":"民權路四段８１５號","OBJECTID":507964},"geometry":{"x":164577.50000000093,"y":2544738.2300000004}},{"attributes":{"ID":507992,"DIS_CODE":0,"TOWNNAME":"安平區","LI":"石門里","LIN":"15鄰","STREET":"民權路","SECT":"四段","MAREA":" ","LANE":" ","ALLEY":" ","HOUSE_NO":"８１７號","E_COORD97":164573.53,"N_COORD97":2544740.4300000002,"ADDRESS":"民權路四段８１７號","OBJECTID":507965},"geometry":{"x":164573.53000000026,"y":2544740.4300000016}},{"attributes":{"ID":507993,"DIS_CODE":0,"TOWNNAME":"安平區","LI":"石門里","LIN":"15鄰","STREET":"民權路","SECT":"四段","MAREA":" ","LANE":" ","ALLEY":" ","HOUSE_NO":"８１９號","E_COORD97":164568.23999999999,"N_COORD97":2544742.6299999999,"ADDRESS":"民權路四段８１９號","OBJECTID":507966},"geometry":{"x":164568.24000000022,"y":2544742.6300000008}},{"attributes":{"ID":507994,"DIS_CODE":0,"TOWNNAME":"安平區","LI":"石門里","LIN":"15鄰","STREET":"民權路","SECT":"四段","MAREA":" ","LANE":" ","ALLEY":" ","HOUSE_NO":"８２１號","E_COORD97":164564.26999999999,"N_COORD97":2544744.8399999999,"ADDRESS":"民權路四段８２１號","OBJECTID":507967},"geometry":{"x":164564.26999999955,"y":2544744.8400000017}},{"attributes":{"ID":507995,"DIS_CODE":0,"TOWNNAME":"安平區","LI":"石門里","LIN":"15鄰","STREET":"民權路","SECT":"四段","MAREA":" ","LANE":" ","ALLEY":" ","HOUSE_NO":"８２３號","E_COORD97":164559.41,"N_COORD97":2544745.7200000002,"ADDRESS":"民權路四段８２３號","OBJECTID":507968},"geometry":{"x":164559.41000000108,"y":2544745.7200000044}},{"attributes":{"ID":507996,"DIS_CODE":0,"TOWNNAME":"安平區","LI":"石門里","LIN":"15鄰","STREET":"民權路","SECT":"四段","MAREA":" ","LANE":" ","ALLEY":" ","HOUSE_NO":"８２５號","E_COORD97":164555,"N_COORD97":2544748.3599999999,"ADDRESS":"民權路四段８２５號","OBJECTID":507969},"geometry":{"x":164554.99999999907,"y":2544748.3600000013}},{"attributes":{"ID":507997,"DIS_CODE":0,"TOWNNAME":"麻豆區","LI":"油車里","LIN":"15鄰","STREET":"新生北路","SECT":" ","MAREA":" ","LANE":" ","ALLEY":" ","HOUSE_NO":"２９５號","E_COORD97":172401.60000000001,"N_COORD97":2565592.6299999999,"ADDRESS":"新生北路２９５號","OBJECTID":507970},"geometry":{"x":172401.60000000056,"y":2565592.6300000008}},{"attributes":{"ID":507998,"DIS_CODE":0,"TOWNNAME":"麻豆區","LI":"油車里","LIN":"15鄰","STREET":"新生北路","SECT":" ","MAREA":" ","LANE":" ","ALLEY":" ","HOUSE_NO":"３２５號之１","E_COORD97":172491.82999999999,"N_COORD97":2565593.46,"ADDRESS":"新生北路３２５號之１","OBJECTID":507971},"geometry":{"x":172491.83000000101,"y":2565593.4600000009}},{"attributes":{"ID":507999,"DIS_CODE":0,"TOWNNAME":"麻豆區","LI":"油車里","LIN":"15鄰","STREET":"新生北路","SECT":" ","MAREA":" ","LANE":" ","ALLEY":" ","HOUSE_NO":"３２５號","E_COORD97":172483.95999999999,"N_COORD97":2565589.4500000002,"ADDRESS":"新生北路３２５號","OBJECTID":507972},"geometry":{"x":172483.96000000089,"y":2565589.4499999993}},{"attributes":{"ID":508000,"DIS_CODE":0,"TOWNNAME":"歸仁區","LI":"看東里","LIN":"15鄰","STREET":"中山一街","SECT":" ","MAREA":" ","LANE":" ","ALLEY":" ","HOUSE_NO":"１１９號","E_COORD97":178684.01000000001,"N_COORD97":2540329.6800000002,"ADDRESS":"中山一街１１９號","OBJECTID":507973},"geometry":{"x":178684.00999999978,"y":2540329.6799999997}},{"attributes":{"ID":508001,"DIS_CODE":0,"TOWNNAME":"歸仁區","LI":"看西里","LIN":"15鄰","STREET":"成功路","SECT":"一段","MAREA":" ","LANE":" ","ALLEY":" ","HOUSE_NO":"２４８號","E_COORD97":178383.31,"N_COORD97":2540075.1200000001,"ADDRESS":"成功路一段２４８號","OBJECTID":507974},"geometry":{"x":178383.30999999959,"y":2540075.1200000029}},{"attributes":{"ID":508002,"DIS_CODE":0,"TOWNNAME":"歸仁區","LI":"看東里","LIN":"15鄰","STREET":"中山一街","SECT":" ","MAREA":" ","LANE":" ","ALLEY":" ","HOUSE_NO":"１２３號","E_COORD97":178686.01000000001,"N_COORD97":2540315.6800000002,"ADDRESS":"中山一街１２３號","OBJECTID":507975},"geometry":{"x":178686.01000000164,"y":2540315.6799999997}},{"attributes":{"ID":508003,"DIS_CODE":0,"TOWNNAME":"歸仁區","LI":"南興里","LIN":"15鄰","STREET":"文化街","SECT":"三段","MAREA":" ","LANE":" ","ALLEY":" ","HOUSE_NO":"５３８號","E_COORD97":175768.94,"N_COORD97":2541213.3300000001,"ADDRESS":"文化街三段５３８號","OBJECTID":507976},"geometry":{"x":175768.94000000041,"y":2541213.3300000001}},{"attributes":{"ID":508004,"DIS_CODE":0,"TOWNNAME":"歸仁區","LI":"六甲里","LIN":"15鄰","STREET":"六甲一街","SECT":" ","MAREA":" ","LANE":" ","ALLEY":" ","HOUSE_NO":"２２號","E_COORD97":175841.37,"N_COORD97":2539156.25,"ADDRESS":"六甲一街２２號","OBJECTID":507977},"geometry":{"x":175841.37000000104,"y":2539156.25}},{"attributes":{"ID":508005,"DIS_CODE":0,"TOWNNAME":"歸仁區","LI":"歸仁里","LIN":"15鄰","STREET":"信義北路","SECT":" ","MAREA":" ","LANE":" ","ALLEY":" ","HOUSE_NO":"９４號","E_COORD97":178002.47,"N_COORD97":2541042.1099999999,"ADDRESS":"信義北路９４號","OBJECTID":507978},"geometry":{"x":178002.46999999974,"y":2541042.1099999994}},{"attributes":{"ID":508006,"DIS_CODE":0,"TOWNNAME":"歸仁區","LI":"歸南里","LIN":"15鄰","STREET":"民生十一街","SECT":" ","MAREA":" ","LANE":" ","ALLEY":" ","HOUSE_NO":"５２號","E_COORD97":176243.66,"N_COORD97":2539736.25,"ADDRESS":"民生十一街５２號","OBJECTID":507979},"geometry":{"x":176243.66000000015,"y":2539736.25}},{"attributes":{"ID":508007,"DIS_CODE":0,"TOWNNAME":"歸仁區","LI":"新厝里","LIN":"15鄰","STREET":"中正南路","SECT":"一段","MAREA":" ","LANE":" ","ALLEY":" ","HOUSE_NO":"１２９號","E_COORD97":177495.95000000001,"N_COORD97":2540449.5899999999,"ADDRESS":"中正南路一段１２９號","OBJECTID":507980},"geometry":{"x":177495.95000000019,"y":2540449.5899999999}},{"attributes":{"ID":508008,"DIS_CODE":0,"TOWNNAME":"歸仁區","LI":"歸南里","LIN":"15鄰","STREET":"民生南街","SECT":"二段","MAREA":" ","LANE":" ","ALLEY":" ","HOUSE_NO":"３７７號","E_COORD97":176135.66,"N_COORD97":2539785.25,"ADDRESS":"民生南街二段３７７號","OBJECTID":507981},"geometry":{"x":176135.66000000201,"y":2539785.2500000019}},{"attributes":{"ID":508009,"DIS_CODE":0,"TOWNNAME":"北區","LI":"賢北里","LIN":"7鄰","STREET":"和緯路","SECT":"五段","MAREA":" ","LANE":" ","ALLEY":" ","HOUSE_NO":"１００號","E_COORD97":166296.41,"N_COORD97":2545162.2000000002,"ADDRESS":"和緯路五段１００號","OBJECTID":507982},"geometry":{"x":166296.41000000015,"y":2545162.2000000011}},{"attributes":{"ID":508010,"DIS_CODE":0,"TOWNNAME":"北區","LI":"賢北里","LIN":"7鄰","STREET":"和緯路","SECT":"五段","MAREA":" ","LANE":" ","ALLEY":" ","HOUSE_NO":"１４６號","E_COORD97":166234.91,"N_COORD97":2545134.2000000002,"ADDRESS":"和緯路五段１４６號","OBJECTID":507983},"geometry":{"x":166234.91000000108,"y":2545134.200000003}},{"attributes":{"ID":508011,"DIS_CODE":0,"TOWNNAME":"北區","LI":"賢北里","LIN":"7鄰","STREET":"和緯路","SECT":"五段","MAREA":" ","LANE":" ","ALLEY":" ","HOUSE_NO":"１４８號","E_COORD97":166229.48999999999,"N_COORD97":2545131.3700000001,"ADDRESS":"和緯路五段１４８號","OBJECTID":507984},"geometry":{"x":166229.49000000022,"y":2545131.3700000048}},{"attributes":{"ID":508012,"DIS_CODE":0,"TOWNNAME":"北區","LI":"賢北里","LIN":"7鄰","STREET":"和緯路","SECT":"五段","MAREA":" ","LANE":" ","ALLEY":" ","HOUSE_NO":"１５０號","E_COORD97":166225.01000000001,"N_COORD97":2545129.73,"ADDRESS":"和緯路五段１５０號","OBJECTID":507985},"geometry":{"x":166225.01000000071,"y":2545129.7300000023}},{"attributes":{"ID":508013,"DIS_CODE":0,"TOWNNAME":"北區","LI":"賢北里","LIN":"7鄰","STREET":"和緯路","SECT":"五段","MAREA":" ","LANE":" ","ALLEY":" ","HOUSE_NO":"１５２號","E_COORD97":166221,"N_COORD97":2545127.8399999999,"ADDRESS":"和緯路五段１５２號","OBJECTID":507986},"geometry":{"x":166221,"y":2545127.8400000017}},{"attributes":{"ID":508014,"DIS_CODE":0,"TOWNNAME":"北區","LI":"賢北里","LIN":"7鄰","STREET":"和緯路","SECT":"五段","MAREA":" ","LANE":" ","ALLEY":" ","HOUSE_NO":"１５６號","E_COORD97":166211.34,"N_COORD97":2545123.3700000001,"ADDRESS":"和緯路五段１５６號","OBJECTID":507987},"geometry":{"x":166211.34000000078,"y":2545123.370000001}},{"attributes":{"ID":508015,"DIS_CODE":0,"TOWNNAME":"北區","LI":"賢北里","LIN":"7鄰","STREET":"和緯路","SECT":"五段","MAREA":" ","LANE":" ","ALLEY":" ","HOUSE_NO":"１５８號","E_COORD97":166207.81,"N_COORD97":2545120.3100000001,"ADDRESS":"和緯路五段１５８號","OBJECTID":507988},"geometry":{"x":166207.81000000052,"y":2545120.3100000005}},{"attributes":{"ID":508016,"DIS_CODE":0,"TOWNNAME":"歸仁區","LI":"歸南里","LIN":"15鄰","STREET":"民生十一街","SECT":" ","MAREA":" ","LANE":" ","ALLEY":" ","HOUSE_NO":"５６號","E_COORD97":176255.95999999999,"N_COORD97":2539737.25,"ADDRESS":"民生十一街５６號","OBJECTID":507989},"geometry":{"x":176255.96000000089,"y":2539737.2500000037}},{"attributes":{"ID":508017,"DIS_CODE":0,"TOWNNAME":"歸仁區","LI":"許厝里","LIN":"15鄰","STREET":"仁愛六街","SECT":" ","MAREA":" ","LANE":" ","ALLEY":" ","HOUSE_NO":"４５號","E_COORD97":178208.64000000001,"N_COORD97":2540776.5600000001,"ADDRESS":"仁愛六街４５號","OBJECTID":507990},"geometry":{"x":178208.64000000153,"y":2540776.5600000042}},{"attributes":{"ID":508018,"DIS_CODE":0,"TOWNNAME":"歸仁區","LI":"新厝里","LIN":"15鄰","STREET":"中正南路","SECT":"一段","MAREA":" ","LANE":" ","ALLEY":" ","HOUSE_NO":"１２７號","E_COORD97":177499.04999999999,"N_COORD97":2540453.5899999999,"ADDRESS":"中正南路一段１２７號","OBJECTID":507991},"geometry":{"x":177499.05000000168,"y":2540453.5900000036}},{"attributes":{"ID":508019,"DIS_CODE":0,"TOWNNAME":"歸仁區","LI":"歸南里","LIN":"15鄰","STREET":"民生十一街","SECT":" ","MAREA":" ","LANE":" ","ALLEY":" ","HOUSE_NO":"４８號","E_COORD97":176230.35999999999,"N_COORD97":2539733.25,"ADDRESS":"民生十一街４８號","OBJECTID":507992},"geometry":{"x":176230.36000000034,"y":2539733.25}},{"attributes":{"ID":508020,"DIS_CODE":0,"TOWNNAME":"歸仁區","LI":"歸南里","LIN":"15鄰","STREET":"民生十一街","SECT":" ","MAREA":" ","LANE":" ","ALLEY":" ","HOUSE_NO":"３８號","E_COORD97":176204.66,"N_COORD97":2539729.25,"ADDRESS":"民生十一街３８號","OBJECTID":507993},"geometry":{"x":176204.66000000015,"y":2539729.25}},{"attributes":{"ID":508021,"DIS_CODE":0,"TOWNNAME":"歸仁區","LI":"歸仁里","LIN":"15鄰","STREET":"信義北路","SECT":" ","MAREA":" ","LANE":" ","ALLEY":" ","HOUSE_NO":"９２號","E_COORD97":177999.37,"N_COORD97":2541037.1099999999,"ADDRESS":"信義北路９２號","OBJECTID":507994},"geometry":{"x":177999.37000000104,"y":2541037.1100000013}},{"attributes":{"ID":508022,"DIS_CODE":0,"TOWNNAME":"歸仁區","LI":"歸南里","LIN":"15鄰","STREET":"民生十一街","SECT":" ","MAREA":" ","LANE":" ","ALLEY":" ","HOUSE_NO":"３６號","E_COORD97":176198.45999999999,"N_COORD97":2539728.25,"ADDRESS":"民生十一街３６號","OBJECTID":507995},"geometry":{"x":176198.46000000089,"y":2539728.2500000019}},{"attributes":{"ID":508023,"DIS_CODE":0,"TOWNNAME":"歸仁區","LI":"新厝里","LIN":"15鄰","STREET":"中正南路","SECT":"一段","MAREA":" ","LANE":" ","ALLEY":" ","HOUSE_NO":"１１５號","E_COORD97":177511.45000000001,"N_COORD97":2540467.5899999999,"ADDRESS":"中正南路一段１１５號","OBJECTID":507996},"geometry":{"x":177511.45000000019,"y":2540467.5900000017}},{"attributes":{"ID":508024,"DIS_CODE":0,"TOWNNAME":"歸仁區","LI":"崙頂里","LIN":"15鄰","STREET":"崙頂街","SECT":" ","MAREA":" ","LANE":" ","ALLEY":" ","HOUSE_NO":"５１號","E_COORD97":177870.35999999999,"N_COORD97":2539964.1099999999,"ADDRESS":"崙頂街５１號","OBJECTID":507997},"geometry":{"x":177870.3600000022,"y":2539964.1099999994}},{"attributes":{"ID":508025,"DIS_CODE":0,"TOWNNAME":"歸仁區","LI":"崙頂里","LIN":"15鄰","STREET":"崙頂一街","SECT":" ","MAREA":" ","LANE":" ","ALLEY":" ","HOUSE_NO":"２０號","E_COORD97":177914.60999999999,"N_COORD97":2539956.1099999999,"ADDRESS":"崙頂一街２０號","OBJECTID":507998},"geometry":{"x":177914.6100000022,"y":2539956.1100000013}},{"attributes":{"ID":508026,"DIS_CODE":0,"TOWNNAME":"歸仁區","LI":"南興里","LIN":"15鄰","STREET":"文化街","SECT":"三段","MAREA":" ","LANE":" ","ALLEY":" ","HOUSE_NO":"５３６號","E_COORD97":175775.04000000001,"N_COORD97":2541213.3300000001,"ADDRESS":"文化街三段５３６號","OBJECTID":507999},"geometry":{"x":175775.04000000004,"y":2541213.3300000001}},{"attributes":{"ID":508027,"DIS_CODE":0,"TOWNNAME":"歸仁區","LI":"看東里","LIN":"15鄰","STREET":"成功路","SECT":"一段","MAREA":" ","LANE":" ","ALLEY":" ","HOUSE_NO":"６０號","E_COORD97":178871.07999999999,"N_COORD97":2540382.25,"ADDRESS":"成功路一段６０號","OBJECTID":508000},"geometry":{"x":178871.08000000101,"y":2540382.2500000019}}]}