{"displayFieldName":"TOWNNAME","fieldAliases":{"ID":"ID","DIS_CODE":"DIS_CODE","TOWNNAME":"TOWNNAME","LI":"LI","LIN":"LIN","STREET":"STREET","SECT":"SECT","MAREA":"MAREA","LANE":"LANE","ALLEY":"ALLEY","HOUSE_NO":"HOUSE_NO","E_COORD97":"E_COORD97","N_COORD97":"N_COORD97","ADDRESS":"ADDRESS","OBJECTID":"OBJECTID"},"geometryType":"esriGeometryPoint","spatialReference":{"wkid":102443,"latestWkid":3826},"fields":[{"name":"ID","type":"esriFieldTypeDouble","alias":"ID"},{"name":"DIS_CODE","type":"esriFieldTypeInteger","alias":"DIS_CODE"},{"name":"TOWNNAME","type":"esriFieldTypeString","alias":"TOWNNAME","length":8},{"name":"LI","type":"esriFieldTypeString","alias":"LI","length":8},{"name":"LIN","type":"esriFieldTypeString","alias":"LIN","length":12},{"name":"STREET","type":"esriFieldTypeString","alias":"STREET","length":20},{"name":"SECT","type":"esriFieldTypeString","alias":"SECT","length":8},{"name":"MAREA","type":"esriFieldTypeString","alias":"MAREA","length":12},{"name":"LANE","type":"esriFieldTypeString","alias":"LANE","length":10},{"name":"ALLEY","type":"esriFieldTypeString","alias":"ALLEY","length":10},{"name":"HOUSE_NO","type":"esriFieldTypeString","alias":"HOUSE_NO","length":20},{"name":"E_COORD97","type":"esriFieldTypeDouble","alias":"E_COORD97"},{"name":"N_COORD97","type":"esriFieldTypeDouble","alias":"N_COORD97"},{"name":"ADDRESS","type":"esriFieldTypeString","alias":"ADDRESS","length":50},{"name":"OBJECTID","type":"esriFieldTypeOID","alias":"OBJECTID"}],"features":[{"attributes":{"ID":515228,"DIS_CODE":0,"TOWNNAME":"六甲區","LI":"二甲里","LIN":"1鄰","STREET":"自由街","SECT":" ","MAREA":" ","LANE":" ","ALLEY":" ","HOUSE_NO":"３號","E_COORD97":183231.70999999999,"N_COORD97":2569564.2999999998,"ADDRESS":"自由街３號","OBJECTID":515201},"geometry":{"x":183231.71000000089,"y":2569564.3000000026}},{"attributes":{"ID":515229,"DIS_CODE":0,"TOWNNAME":"六甲區","LI":"二甲里","LIN":"1鄰","STREET":"自由街","SECT":" ","MAREA":" ","LANE":" ","ALLEY":" ","HOUSE_NO":"４號","E_COORD97":183238.70999999999,"N_COORD97":2569585.48,"ADDRESS":"自由街４號","OBJECTID":515202},"geometry":{"x":183238.71000000089,"y":2569585.4800000023}},{"attributes":{"ID":515230,"DIS_CODE":0,"TOWNNAME":"六甲區","LI":"二甲里","LIN":"1鄰","STREET":"自由街","SECT":" ","MAREA":" ","LANE":" ","ALLEY":" ","HOUSE_NO":"５號","E_COORD97":183210.85000000001,"N_COORD97":2569556.52,"ADDRESS":"自由街５號","OBJECTID":515203},"geometry":{"x":183210.84999999963,"y":2569556.5200000033}},{"attributes":{"ID":515231,"DIS_CODE":0,"TOWNNAME":"六甲區","LI":"甲東里","LIN":"1鄰","STREET":"忠孝街","SECT":" ","MAREA":" ","LANE":" ","ALLEY":" ","HOUSE_NO":"１５５號","E_COORD97":183987.31,"N_COORD97":2569919.79,"ADDRESS":"忠孝街１５５號","OBJECTID":515204},"geometry":{"x":183987.30999999959,"y":2569919.7899999991}},{"attributes":{"ID":515232,"DIS_CODE":0,"TOWNNAME":"六甲區","LI":"甲東里","LIN":"1鄰","STREET":"忠孝街","SECT":" ","MAREA":" ","LANE":" ","ALLEY":" ","HOUSE_NO":"１６３號","E_COORD97":183987.78,"N_COORD97":2569938.6400000001,"ADDRESS":"忠孝街１６３號","OBJECTID":515205},"geometry":{"x":183987.78000000119,"y":2569938.6400000006}},{"attributes":{"ID":515233,"DIS_CODE":0,"TOWNNAME":"六甲區","LI":"甲東里","LIN":"1鄰","STREET":"忠孝街","SECT":" ","MAREA":" ","LANE":" ","ALLEY":" ","HOUSE_NO":"１６５號","E_COORD97":183989.31,"N_COORD97":2569943.5699999998,"ADDRESS":"忠孝街１６５號","OBJECTID":515206},"geometry":{"x":183989.30999999959,"y":2569943.570000004}},{"attributes":{"ID":515234,"DIS_CODE":0,"TOWNNAME":"六甲區","LI":"甲東里","LIN":"1鄰","STREET":"忠孝街","SECT":" ","MAREA":" ","LANE":" ","ALLEY":" ","HOUSE_NO":"１６７號","E_COORD97":183992.73999999999,"N_COORD97":2569951.7400000002,"ADDRESS":"忠孝街１６７號","OBJECTID":515207},"geometry":{"x":183992.74000000115,"y":2569951.7400000002}},{"attributes":{"ID":515235,"DIS_CODE":0,"TOWNNAME":"六甲區","LI":"甲東里","LIN":"1鄰","STREET":"忠孝街","SECT":" ","MAREA":" ","LANE":" ","ALLEY":" ","HOUSE_NO":"１６９號","E_COORD97":183991.47,"N_COORD97":2569947.9900000002,"ADDRESS":"忠孝街１６９號","OBJECTID":515208},"geometry":{"x":183991.46999999974,"y":2569947.9900000021}},{"attributes":{"ID":515236,"DIS_CODE":0,"TOWNNAME":"六甲區","LI":"水林里","LIN":"1鄰","STREET":"信義街","SECT":" ","MAREA":" ","LANE":" ","ALLEY":" ","HOUSE_NO":"３３７號","E_COORD97":183393.04999999999,"N_COORD97":2570068.5299999998,"ADDRESS":"信義街３３７號","OBJECTID":515209},"geometry":{"x":183393.04999999981,"y":2570068.5300000012}},{"attributes":{"ID":515237,"DIS_CODE":0,"TOWNNAME":"六甲區","LI":"水林里","LIN":"1鄰","STREET":"信義街","SECT":" ","MAREA":" ","LANE":" ","ALLEY":" ","HOUSE_NO":"３３８號","E_COORD97":183422.51999999999,"N_COORD97":2570084.5499999998,"ADDRESS":"信義街３３８號","OBJECTID":515210},"geometry":{"x":183422.52000000048,"y":2570084.5500000026}},{"attributes":{"ID":515238,"DIS_CODE":0,"TOWNNAME":"六甲區","LI":"水林里","LIN":"1鄰","STREET":"信義街","SECT":" ","MAREA":" ","LANE":" ","ALLEY":" ","HOUSE_NO":"３３９號","E_COORD97":183394.07999999999,"N_COORD97":2570072.5699999998,"ADDRESS":"信義街３３９號","OBJECTID":515211},"geometry":{"x":183394.08000000101,"y":2570072.570000004}},{"attributes":{"ID":515239,"DIS_CODE":0,"TOWNNAME":"六甲區","LI":"水林里","LIN":"1鄰","STREET":"信義街","SECT":" ","MAREA":" ","LANE":" ","ALLEY":" ","HOUSE_NO":"３４１號","E_COORD97":183395,"N_COORD97":2570076.8700000001,"ADDRESS":"信義街３４１號","OBJECTID":515212},"geometry":{"x":183395,"y":2570076.870000001}},{"attributes":{"ID":515240,"DIS_CODE":0,"TOWNNAME":"六甲區","LI":"水林里","LIN":"1鄰","STREET":"信義街","SECT":" ","MAREA":" ","LANE":" ","ALLEY":" ","HOUSE_NO":"３４３號","E_COORD97":183396.57999999999,"N_COORD97":2570081.96,"ADDRESS":"信義街３４３號","OBJECTID":515213},"geometry":{"x":183396.57999999914,"y":2570081.9600000028}},{"attributes":{"ID":515241,"DIS_CODE":0,"TOWNNAME":"六甲區","LI":"水林里","LIN":"1鄰","STREET":"信義街","SECT":" ","MAREA":" ","LANE":" ","ALLEY":" ","HOUSE_NO":"３４５號","E_COORD97":183397.69,"N_COORD97":2570086.48,"ADDRESS":"信義街３４５號","OBJECTID":515214},"geometry":{"x":183397.69000000041,"y":2570086.4799999986}},{"attributes":{"ID":515242,"DIS_CODE":0,"TOWNNAME":"六甲區","LI":"水林里","LIN":"1鄰","STREET":"信義街","SECT":" ","MAREA":" ","LANE":" ","ALLEY":" ","HOUSE_NO":"３４７號","E_COORD97":183398.87,"N_COORD97":2570091.1099999999,"ADDRESS":"信義街３４７號","OBJECTID":515215},"geometry":{"x":183398.87000000104,"y":2570091.1099999994}},{"attributes":{"ID":515243,"DIS_CODE":0,"TOWNNAME":"六甲區","LI":"二甲里","LIN":"1鄰","STREET":"信義街","SECT":" ","MAREA":" ","LANE":" ","ALLEY":" ","HOUSE_NO":"１０１號","E_COORD97":183239.29999999999,"N_COORD97":2569546.3100000001,"ADDRESS":"信義街１０１號","OBJECTID":515216},"geometry":{"x":183239.30000000075,"y":2569546.3100000024}},{"attributes":{"ID":515244,"DIS_CODE":0,"TOWNNAME":"六甲區","LI":"二甲里","LIN":"1鄰","STREET":"信義街","SECT":" ","MAREA":" ","LANE":" ","ALLEY":" ","HOUSE_NO":"１０３號","E_COORD97":183241.69,"N_COORD97":2569553.6299999999,"ADDRESS":"信義街１０３號","OBJECTID":515217},"geometry":{"x":183241.69000000041,"y":2569553.629999999}},{"attributes":{"ID":515245,"DIS_CODE":0,"TOWNNAME":"六甲區","LI":"二甲里","LIN":"1鄰","STREET":"信義街","SECT":" ","MAREA":" ","LANE":" ","ALLEY":" ","HOUSE_NO":"１５７號","E_COORD97":183221.35000000001,"N_COORD97":2569547.8300000001,"ADDRESS":"信義街１５７號","OBJECTID":515218},"geometry":{"x":183221.3499999987,"y":2569547.8300000001}},{"attributes":{"ID":515246,"DIS_CODE":0,"TOWNNAME":"六甲區","LI":"二甲里","LIN":"1鄰","STREET":"信義街","SECT":" ","MAREA":" ","LANE":" ","ALLEY":" ","HOUSE_NO":"９５號","E_COORD97":183234.85000000001,"N_COORD97":2569531.2200000002,"ADDRESS":"信義街９５號","OBJECTID":515219},"geometry":{"x":183234.84999999963,"y":2569531.2200000007}},{"attributes":{"ID":515247,"DIS_CODE":0,"TOWNNAME":"六甲區","LI":"二甲里","LIN":"1鄰","STREET":"信義街","SECT":" ","MAREA":" ","LANE":" ","ALLEY":" ","HOUSE_NO":"９７號","E_COORD97":183235.84,"N_COORD97":2569535.9399999999,"ADDRESS":"信義街９７號","OBJECTID":515220},"geometry":{"x":183235.84000000078,"y":2569535.9399999995}},{"attributes":{"ID":515248,"DIS_CODE":0,"TOWNNAME":"六甲區","LI":"二甲里","LIN":"1鄰","STREET":"信義街","SECT":" ","MAREA":" ","LANE":" ","ALLEY":" ","HOUSE_NO":"９９號","E_COORD97":183237.53,"N_COORD97":2569540.8700000001,"ADDRESS":"信義街９９號","OBJECTID":515221},"geometry":{"x":183237.53000000026,"y":2569540.870000001}},{"attributes":{"ID":515249,"DIS_CODE":0,"TOWNNAME":"仁德區","LI":"仁義里","LIN":"1鄰","STREET":"義林六街","SECT":" ","MAREA":" ","LANE":" ","ALLEY":" ","HOUSE_NO":"１３號","E_COORD97":174454.48000000001,"N_COORD97":2541047.77,"ADDRESS":"義林六街１３號","OBJECTID":515222},"geometry":{"x":174454.48000000138,"y":2541047.7699999996}},{"attributes":{"ID":515250,"DIS_CODE":0,"TOWNNAME":"六甲區","LI":"甲東里","LIN":"1鄰","STREET":"復興街","SECT":" ","MAREA":" ","LANE":" ","ALLEY":" ","HOUSE_NO":"１８號","E_COORD97":183941.64000000001,"N_COORD97":2569923.96,"ADDRESS":"復興街１８號","OBJECTID":515223},"geometry":{"x":183941.64000000153,"y":2569923.9600000009}},{"attributes":{"ID":515251,"DIS_CODE":0,"TOWNNAME":"六甲區","LI":"甲東里","LIN":"1鄰","STREET":"復興街","SECT":" ","MAREA":" ","LANE":" ","ALLEY":" ","HOUSE_NO":"２０號","E_COORD97":183937.10000000001,"N_COORD97":2569924.79,"ADDRESS":"復興街２０號","OBJECTID":515224},"geometry":{"x":183937.10000000056,"y":2569924.790000001}},{"attributes":{"ID":515252,"DIS_CODE":0,"TOWNNAME":"六甲區","LI":"甲南里","LIN":"1鄰","STREET":"復興街","SECT":" ","MAREA":" ","LANE":" ","ALLEY":" ","HOUSE_NO":"２７號","E_COORD97":183864.76999999999,"N_COORD97":2569920.3500000001,"ADDRESS":"復興街２７號","OBJECTID":515225},"geometry":{"x":183864.77000000048,"y":2569920.3499999978}},{"attributes":{"ID":515253,"DIS_CODE":0,"TOWNNAME":"六甲區","LI":"甲南里","LIN":"1鄰","STREET":"復興街","SECT":" ","MAREA":" ","LANE":" ","ALLEY":" ","HOUSE_NO":"２９號","E_COORD97":183860.12,"N_COORD97":2569921.3100000001,"ADDRESS":"復興街２９號","OBJECTID":515226},"geometry":{"x":183860.12000000011,"y":2569921.3100000005}},{"attributes":{"ID":515254,"DIS_CODE":0,"TOWNNAME":"六甲區","LI":"甲東里","LIN":"1鄰","STREET":"復興街","SECT":" ","MAREA":" ","LANE":" ","ALLEY":" ","HOUSE_NO":"２號","E_COORD97":183988.07000000001,"N_COORD97":2569909.5099999998,"ADDRESS":"復興街２號","OBJECTID":515227},"geometry":{"x":183988.0700000003,"y":2569909.5100000035}},{"attributes":{"ID":515255,"DIS_CODE":0,"TOWNNAME":"六甲區","LI":"甲南里","LIN":"1鄰","STREET":"復興街","SECT":" ","MAREA":" ","LANE":" ","ALLEY":" ","HOUSE_NO":"３１號","E_COORD97":183855.28,"N_COORD97":2569921.6600000001,"ADDRESS":"復興街３１號","OBJECTID":515228},"geometry":{"x":183855.28000000119,"y":2569921.6600000001}},{"attributes":{"ID":515256,"DIS_CODE":0,"TOWNNAME":"六甲區","LI":"甲南里","LIN":"1鄰","STREET":"復興街","SECT":" ","MAREA":" ","LANE":" ","ALLEY":" ","HOUSE_NO":"３７號","E_COORD97":183839.78,"N_COORD97":2569921.25,"ADDRESS":"復興街３７號","OBJECTID":515229},"geometry":{"x":183839.78000000119,"y":2569921.25}},{"attributes":{"ID":515257,"DIS_CODE":0,"TOWNNAME":"安平區","LI":"港仔里","LIN":"1鄰","STREET":"安平路","SECT":" ","MAREA":" ","LANE":" ","ALLEY":" ","HOUSE_NO":"２１號","E_COORD97":164692.88,"N_COORD97":2544414,"ADDRESS":"安平路２１號","OBJECTID":515230},"geometry":{"x":164692.87999999989,"y":2544413.9999999981}},{"attributes":{"ID":515258,"DIS_CODE":0,"TOWNNAME":"安平區","LI":"港仔里","LIN":"1鄰","STREET":"安平路","SECT":" ","MAREA":" ","LANE":" ","ALLEY":" ","HOUSE_NO":"３５號","E_COORD97":164639.10000000001,"N_COORD97":2544430.6499999999,"ADDRESS":"安平路３５號","OBJECTID":515231},"geometry":{"x":164639.10000000056,"y":2544430.6500000041}},{"attributes":{"ID":515259,"DIS_CODE":0,"TOWNNAME":"安平區","LI":"港仔里","LIN":"1鄰","STREET":"安平路","SECT":" ","MAREA":" ","LANE":" ","ALLEY":" ","HOUSE_NO":"３５號之１","E_COORD97":164634.57999999999,"N_COORD97":2544432.3199999998,"ADDRESS":"安平路３５號之１","OBJECTID":515232},"geometry":{"x":164634.58000000101,"y":2544432.3200000003}},{"attributes":{"ID":515260,"DIS_CODE":0,"TOWNNAME":"安平區","LI":"港仔里","LIN":"1鄰","STREET":"安平路","SECT":" ","MAREA":" ","LANE":" ","ALLEY":" ","HOUSE_NO":"３５號之２","E_COORD97":164630.45000000001,"N_COORD97":2544433.2999999998,"ADDRESS":"安平路３５號之２","OBJECTID":515233},"geometry":{"x":164630.45000000112,"y":2544433.3000000045}},{"attributes":{"ID":515261,"DIS_CODE":0,"TOWNNAME":"安平區","LI":"港仔里","LIN":"1鄰","STREET":"安平路","SECT":" ","MAREA":" ","LANE":" ","ALLEY":" ","HOUSE_NO":"３５號之３","E_COORD97":164627.20999999999,"N_COORD97":2544435.1600000001,"ADDRESS":"安平路３５號之３","OBJECTID":515234},"geometry":{"x":164627.21000000089,"y":2544435.160000002}},{"attributes":{"ID":515262,"DIS_CODE":0,"TOWNNAME":"安平區","LI":"港仔里","LIN":"1鄰","STREET":"安平路","SECT":" ","MAREA":" ","LANE":" ","ALLEY":" ","HOUSE_NO":"３７號","E_COORD97":164621.60999999999,"N_COORD97":2544436.1400000001,"ADDRESS":"安平路３７號","OBJECTID":515235},"geometry":{"x":164621.61000000127,"y":2544436.1400000006}},{"attributes":{"ID":515263,"DIS_CODE":0,"TOWNNAME":"安平區","LI":"港仔里","LIN":"1鄰","STREET":"安平路","SECT":" ","MAREA":" ","LANE":" ","ALLEY":" ","HOUSE_NO":"３９號","E_COORD97":164609.51000000001,"N_COORD97":2544437.6499999999,"ADDRESS":"安平路３９號","OBJECTID":515236},"geometry":{"x":164609.51000000071,"y":2544437.6500000022}},{"attributes":{"ID":515264,"DIS_CODE":0,"TOWNNAME":"安平區","LI":"港仔里","LIN":"1鄰","STREET":"安平路","SECT":" ","MAREA":" ","LANE":" ","ALLEY":" ","HOUSE_NO":"４１之１號","E_COORD97":164593.98000000001,"N_COORD97":2544442.7200000002,"ADDRESS":"安平路４１之１號","OBJECTID":515237},"geometry":{"x":164593.98000000045,"y":2544442.7200000007}},{"attributes":{"ID":515265,"DIS_CODE":0,"TOWNNAME":"安平區","LI":"港仔里","LIN":"1鄰","STREET":"安平路","SECT":" ","MAREA":" ","LANE":" ","ALLEY":" ","HOUSE_NO":"４１號","E_COORD97":164596.98000000001,"N_COORD97":2544440.3799999999,"ADDRESS":"安平路４１號","OBJECTID":515238},"geometry":{"x":164596.98000000138,"y":2544440.379999999}},{"attributes":{"ID":515266,"DIS_CODE":0,"TOWNNAME":"安平區","LI":"港仔里","LIN":"1鄰","STREET":"安平路","SECT":" ","MAREA":" ","LANE":" ","ALLEY":" ","HOUSE_NO":"４３號","E_COORD97":164588.79999999999,"N_COORD97":2544445.2200000002,"ADDRESS":"安平路４３號","OBJECTID":515239},"geometry":{"x":164588.80000000075,"y":2544445.2200000025}},{"attributes":{"ID":515267,"DIS_CODE":0,"TOWNNAME":"安平區","LI":"港仔里","LIN":"1鄰","STREET":"安平路","SECT":" ","MAREA":" ","LANE":" ","ALLEY":" ","HOUSE_NO":"４５號","E_COORD97":164583.79999999999,"N_COORD97":2544442.8900000001,"ADDRESS":"安平路４５號","OBJECTID":515240},"geometry":{"x":164583.80000000075,"y":2544442.8900000043}},{"attributes":{"ID":515268,"DIS_CODE":0,"TOWNNAME":"安平區","LI":"港仔里","LIN":"1鄰","STREET":"安平路","SECT":" ","MAREA":" ","LANE":" ","ALLEY":" ","HOUSE_NO":"４７號","E_COORD97":164576.45000000001,"N_COORD97":2544444.0499999998,"ADDRESS":"安平路４７號","OBJECTID":515241},"geometry":{"x":164576.45000000112,"y":2544444.0500000007}},{"attributes":{"ID":515269,"DIS_CODE":0,"TOWNNAME":"麻豆區","LI":"新建里","LIN":"1鄰","STREET":"自由路","SECT":" ","MAREA":" ","LANE":" ","ALLEY":" ","HOUSE_NO":"２８號之１","E_COORD97":172642.57999999999,"N_COORD97":2564796.4199999999,"ADDRESS":"自由路２８號之１","OBJECTID":515242},"geometry":{"x":172642.58000000101,"y":2564796.4199999999}},{"attributes":{"ID":515270,"DIS_CODE":0,"TOWNNAME":"麻豆區","LI":"油車里","LIN":"1鄰","STREET":"自由路","SECT":" ","MAREA":" ","LANE":" ","ALLEY":" ","HOUSE_NO":"３４號之１０","E_COORD97":172605.75,"N_COORD97":2565089.9199999999,"ADDRESS":"自由路３４號之１０","OBJECTID":515243},"geometry":{"x":172605.75000000093,"y":2565089.9200000018}},{"attributes":{"ID":515271,"DIS_CODE":0,"TOWNNAME":"麻豆區","LI":"油車里","LIN":"1鄰","STREET":"自由路","SECT":" ","MAREA":" ","LANE":" ","ALLEY":" ","HOUSE_NO":"３４號之１１","E_COORD97":172582.45000000001,"N_COORD97":2565108.21,"ADDRESS":"自由路３４號之１１","OBJECTID":515244},"geometry":{"x":172582.45000000205,"y":2565108.2100000009}},{"attributes":{"ID":515272,"DIS_CODE":0,"TOWNNAME":"麻豆區","LI":"油車里","LIN":"1鄰","STREET":"自強街","SECT":" ","MAREA":" ","LANE":" ","ALLEY":" ","HOUSE_NO":"１號之１４","E_COORD97":172664.67999999999,"N_COORD97":2565068.8100000001,"ADDRESS":"自強街１號之１４","OBJECTID":515245},"geometry":{"x":172664.6799999997,"y":2565068.8100000005}},{"attributes":{"ID":515273,"DIS_CODE":0,"TOWNNAME":"麻豆區","LI":"油車里","LIN":"1鄰","STREET":"自強街","SECT":" ","MAREA":" ","LANE":" ","ALLEY":" ","HOUSE_NO":"１號之１５","E_COORD97":172668.78,"N_COORD97":2565069.27,"ADDRESS":"自強街１號之１５","OBJECTID":515246},"geometry":{"x":172668.78000000119,"y":2565069.2699999977}},{"attributes":{"ID":515274,"DIS_CODE":0,"TOWNNAME":"麻豆區","LI":"油車里","LIN":"1鄰","STREET":"自強街","SECT":" ","MAREA":" ","LANE":" ","ALLEY":" ","HOUSE_NO":"１號之１６","E_COORD97":172672.89000000001,"N_COORD97":2565069.73,"ADDRESS":"自強街１號之１６","OBJECTID":515247},"geometry":{"x":172672.8900000006,"y":2565069.7300000004}},{"attributes":{"ID":515275,"DIS_CODE":0,"TOWNNAME":"麻豆區","LI":"油車里","LIN":"1鄰","STREET":"自強街","SECT":" ","MAREA":" ","LANE":" ","ALLEY":" ","HOUSE_NO":"１號之１７","E_COORD97":172667.10999999999,"N_COORD97":2565081.0499999998,"ADDRESS":"自強街１號之１７","OBJECTID":515248},"geometry":{"x":172667.11000000034,"y":2565081.0500000007}},{"attributes":{"ID":515276,"DIS_CODE":0,"TOWNNAME":"麻豆區","LI":"油車里","LIN":"1鄰","STREET":"自強街","SECT":" ","MAREA":" ","LANE":" ","ALLEY":" ","HOUSE_NO":"１號之１８","E_COORD97":172666.28,"N_COORD97":2565087.54,"ADDRESS":"自強街１號之１８","OBJECTID":515249},"geometry":{"x":172666.28000000026,"y":2565087.5400000028}},{"attributes":{"ID":515277,"DIS_CODE":0,"TOWNNAME":"麻豆區","LI":"油車里","LIN":"1鄰","STREET":"自強街","SECT":" ","MAREA":" ","LANE":" ","ALLEY":" ","HOUSE_NO":"１號之１９","E_COORD97":172665.45000000001,"N_COORD97":2565094.04,"ADDRESS":"自強街１號之１９","OBJECTID":515250},"geometry":{"x":172665.45000000205,"y":2565094.0399999972}},{"attributes":{"ID":515278,"DIS_CODE":0,"TOWNNAME":"麻豆區","LI":"油車里","LIN":"1鄰","STREET":"自強街","SECT":" ","MAREA":" ","LANE":" ","ALLEY":" ","HOUSE_NO":"１號之１","E_COORD97":172609.48000000001,"N_COORD97":2565064.4100000001,"ADDRESS":"自強街１號之１","OBJECTID":515251},"geometry":{"x":172609.48000000231,"y":2565064.4100000001}},{"attributes":{"ID":515279,"DIS_CODE":0,"TOWNNAME":"麻豆區","LI":"油車里","LIN":"1鄰","STREET":"自強街","SECT":" ","MAREA":" ","LANE":" ","ALLEY":" ","HOUSE_NO":"１號之２０","E_COORD97":172664.62,"N_COORD97":2565100.54,"ADDRESS":"自強街１號之２０","OBJECTID":515252},"geometry":{"x":172664.62000000104,"y":2565100.5399999991}},{"attributes":{"ID":515280,"DIS_CODE":0,"TOWNNAME":"麻豆區","LI":"油車里","LIN":"1鄰","STREET":"自強街","SECT":" ","MAREA":" ","LANE":" ","ALLEY":" ","HOUSE_NO":"１號之２１","E_COORD97":172663.79000000001,"N_COORD97":2565107.04,"ADDRESS":"自強街１號之２１","OBJECTID":515253},"geometry":{"x":172663.79000000097,"y":2565107.0399999991}},{"attributes":{"ID":515281,"DIS_CODE":0,"TOWNNAME":"麻豆區","LI":"油車里","LIN":"1鄰","STREET":"自強街","SECT":" ","MAREA":" ","LANE":" ","ALLEY":" ","HOUSE_NO":"１號之２","E_COORD97":172614.45000000001,"N_COORD97":2565064.6800000002,"ADDRESS":"自強街１號之２","OBJECTID":515254},"geometry":{"x":172614.44999999925,"y":2565064.6800000016}},{"attributes":{"ID":515282,"DIS_CODE":0,"TOWNNAME":"麻豆區","LI":"油車里","LIN":"1鄰","STREET":"自強街","SECT":" ","MAREA":" ","LANE":" ","ALLEY":" ","HOUSE_NO":"１號之７","E_COORD97":172628.59,"N_COORD97":2565066.3500000001,"ADDRESS":"自強街１號之７","OBJECTID":515255},"geometry":{"x":172628.59000000171,"y":2565066.3500000015}},{"attributes":{"ID":515283,"DIS_CODE":0,"TOWNNAME":"麻豆區","LI":"油車里","LIN":"1鄰","STREET":"自強街","SECT":" ","MAREA":" ","LANE":" ","ALLEY":" ","HOUSE_NO":"１號之８","E_COORD97":172632.98000000001,"N_COORD97":2565066.75,"ADDRESS":"自強街１號之８","OBJECTID":515256},"geometry":{"x":172632.98000000045,"y":2565066.7500000037}},{"attributes":{"ID":515284,"DIS_CODE":0,"TOWNNAME":"麻豆區","LI":"油車里","LIN":"1鄰","STREET":"自強街","SECT":" ","MAREA":" ","LANE":" ","ALLEY":" ","HOUSE_NO":"１號之９","E_COORD97":172637.37,"N_COORD97":2565067.1499999999,"ADDRESS":"自強街１號之９","OBJECTID":515257},"geometry":{"x":172637.37000000104,"y":2565067.1500000004}},{"attributes":{"ID":515285,"DIS_CODE":0,"TOWNNAME":"麻豆區","LI":"油車里","LIN":"1鄰","STREET":"自強街","SECT":" ","MAREA":" ","LANE":" ","ALLEY":" ","HOUSE_NO":"２號之１５","E_COORD97":172623.04000000001,"N_COORD97":2565126.0099999998,"ADDRESS":"自強街２號之１５","OBJECTID":515258},"geometry":{"x":172623.04000000097,"y":2565126.0100000016}},{"attributes":{"ID":515286,"DIS_CODE":0,"TOWNNAME":"麻豆區","LI":"油車里","LIN":"1鄰","STREET":"自強街","SECT":" ","MAREA":" ","LANE":" ","ALLEY":" ","HOUSE_NO":"２號之１","E_COORD97":172612.47,"N_COORD97":2565096.6299999999,"ADDRESS":"自強街２號之１","OBJECTID":515259},"geometry":{"x":172612.47000000067,"y":2565096.6299999971}},{"attributes":{"ID":515287,"DIS_CODE":0,"TOWNNAME":"麻豆區","LI":"油車里","LIN":"1鄰","STREET":"自強街","SECT":" ","MAREA":" ","LANE":" ","ALLEY":" ","HOUSE_NO":"２號之２","E_COORD97":172628.26000000001,"N_COORD97":2565090.8700000001,"ADDRESS":"自強街２號之２","OBJECTID":515260},"geometry":{"x":172628.25999999978,"y":2565090.8700000048}},{"attributes":{"ID":515288,"DIS_CODE":0,"TOWNNAME":"麻豆區","LI":"油車里","LIN":"1鄰","STREET":"自強街","SECT":" ","MAREA":" ","LANE":" ","ALLEY":" ","HOUSE_NO":"２號之３","E_COORD97":172627.38,"N_COORD97":2565095.71,"ADDRESS":"自強街２號之３","OBJECTID":515261},"geometry":{"x":172627.38000000082,"y":2565095.7100000028}},{"attributes":{"ID":515289,"DIS_CODE":0,"TOWNNAME":"麻豆區","LI":"油車里","LIN":"1鄰","STREET":"自強街","SECT":" ","MAREA":" ","LANE":" ","ALLEY":" ","HOUSE_NO":"２號之４","E_COORD97":172626.78,"N_COORD97":2565100.6499999999,"ADDRESS":"自強街２號之４","OBJECTID":515262},"geometry":{"x":172626.78000000119,"y":2565100.6500000004}},{"attributes":{"ID":515290,"DIS_CODE":0,"TOWNNAME":"麻豆區","LI":"油車里","LIN":"1鄰","STREET":"自強街","SECT":" ","MAREA":" ","LANE":" ","ALLEY":" ","HOUSE_NO":"２號之５","E_COORD97":172649.79999999999,"N_COORD97":2565105.2200000002,"ADDRESS":"自強街２號之５","OBJECTID":515263},"geometry":{"x":172649.80000000075,"y":2565105.2200000025}},{"attributes":{"ID":515291,"DIS_CODE":0,"TOWNNAME":"麻豆區","LI":"油車里","LIN":"1鄰","STREET":"自強街","SECT":" ","MAREA":" ","LANE":" ","ALLEY":" ","HOUSE_NO":"２號之６","E_COORD97":172650.51999999999,"N_COORD97":2565098.5699999998,"ADDRESS":"自強街２號之６","OBJECTID":515264},"geometry":{"x":172650.51999999955,"y":2565098.570000004}},{"attributes":{"ID":515292,"DIS_CODE":0,"TOWNNAME":"麻豆區","LI":"油車里","LIN":"1鄰","STREET":"自強街","SECT":" ","MAREA":" ","LANE":" ","ALLEY":" ","HOUSE_NO":"２號之７","E_COORD97":172651.25,"N_COORD97":2565091.9300000002,"ADDRESS":"自強街２號之７","OBJECTID":515265},"geometry":{"x":172651.25000000186,"y":2565091.9299999997}},{"attributes":{"ID":515293,"DIS_CODE":0,"TOWNNAME":"麻豆區","LI":"油車里","LIN":"1鄰","STREET":"自強街","SECT":" ","MAREA":" ","LANE":" ","ALLEY":" ","HOUSE_NO":"２號之８","E_COORD97":172651.97,"N_COORD97":2565085.29,"ADDRESS":"自強街２號之８","OBJECTID":515266},"geometry":{"x":172651.97000000067,"y":2565085.2899999991}},{"attributes":{"ID":515294,"DIS_CODE":0,"TOWNNAME":"麻豆區","LI":"油車里","LIN":"1鄰","STREET":"自強街","SECT":" ","MAREA":" ","LANE":" ","ALLEY":" ","HOUSE_NO":"２號之９","E_COORD97":172652.69,"N_COORD97":2565078.6499999999,"ADDRESS":"自強街２號之９","OBJECTID":515267},"geometry":{"x":172652.69000000134,"y":2565078.6500000022}},{"attributes":{"ID":515295,"DIS_CODE":0,"TOWNNAME":"麻豆區","LI":"油車里","LIN":"1鄰","STREET":"自強街","SECT":" ","MAREA":" ","LANE":" ","ALLEY":" ","HOUSE_NO":"４號之１０","E_COORD97":172655.92000000001,"N_COORD97":2565124.3900000001,"ADDRESS":"自強街４號之１０","OBJECTID":515268},"geometry":{"x":172655.92000000086,"y":2565124.3900000025}},{"attributes":{"ID":515296,"DIS_CODE":0,"TOWNNAME":"麻豆區","LI":"油車里","LIN":"1鄰","STREET":"自強街","SECT":" ","MAREA":" ","LANE":" ","ALLEY":" ","HOUSE_NO":"４號之１１","E_COORD97":172667.48999999999,"N_COORD97":2565144.8700000001,"ADDRESS":"自強街４號之１１","OBJECTID":515269},"geometry":{"x":172667.49000000115,"y":2565144.8700000048}},{"attributes":{"ID":515297,"DIS_CODE":0,"TOWNNAME":"麻豆區","LI":"油車里","LIN":"1鄰","STREET":"自強街","SECT":" ","MAREA":" ","LANE":" ","ALLEY":" ","HOUSE_NO":"４號之１２","E_COORD97":172663.19,"N_COORD97":2565144.1200000001,"ADDRESS":"自強街４號之１２","OBJECTID":515270},"geometry":{"x":172663.19000000041,"y":2565144.1200000029}},{"attributes":{"ID":515298,"DIS_CODE":0,"TOWNNAME":"麻豆區","LI":"油車里","LIN":"1鄰","STREET":"自強街","SECT":" ","MAREA":" ","LANE":" ","ALLEY":" ","HOUSE_NO":"４號之１３","E_COORD97":172658.89999999999,"N_COORD97":2565143.3599999999,"ADDRESS":"自強街４號之１３","OBJECTID":515271},"geometry":{"x":172658.90000000037,"y":2565143.3600000031}},{"attributes":{"ID":515299,"DIS_CODE":0,"TOWNNAME":"麻豆區","LI":"油車里","LIN":"1鄰","STREET":"自強街","SECT":" ","MAREA":" ","LANE":" ","ALLEY":" ","HOUSE_NO":"４號之１４","E_COORD97":172654.60000000001,"N_COORD97":2565142.6099999999,"ADDRESS":"自強街４號之１４","OBJECTID":515272},"geometry":{"x":172654.59999999963,"y":2565142.6100000013}},{"attributes":{"ID":515300,"DIS_CODE":0,"TOWNNAME":"麻豆區","LI":"油車里","LIN":"1鄰","STREET":"自強街","SECT":" ","MAREA":" ","LANE":" ","ALLEY":" ","HOUSE_NO":"４號之１５","E_COORD97":172650.29999999999,"N_COORD97":2565141.8599999999,"ADDRESS":"自強街４號之１５","OBJECTID":515273},"geometry":{"x":172650.29999999981,"y":2565141.8599999994}},{"attributes":{"ID":515301,"DIS_CODE":0,"TOWNNAME":"麻豆區","LI":"油車里","LIN":"1鄰","STREET":"自強街","SECT":" ","MAREA":" ","LANE":" ","ALLEY":" ","HOUSE_NO":"４號之１６","E_COORD97":172646.01000000001,"N_COORD97":2565141.1000000001,"ADDRESS":"自強街４號之１６","OBJECTID":515274},"geometry":{"x":172646.01000000164,"y":2565141.0999999996}},{"attributes":{"ID":515302,"DIS_CODE":0,"TOWNNAME":"麻豆區","LI":"油車里","LIN":"1鄰","STREET":"自強街","SECT":" ","MAREA":" ","LANE":" ","ALLEY":" ","HOUSE_NO":"４號之１７","E_COORD97":172641.70999999999,"N_COORD97":2565140.3500000001,"ADDRESS":"自強街４號之１７","OBJECTID":515275},"geometry":{"x":172641.71000000089,"y":2565140.3500000034}},{"attributes":{"ID":515303,"DIS_CODE":0,"TOWNNAME":"麻豆區","LI":"油車里","LIN":"1鄰","STREET":"自強街","SECT":" ","MAREA":" ","LANE":" ","ALLEY":" ","HOUSE_NO":"４號之１８","E_COORD97":172637.41,"N_COORD97":2565139.5899999999,"ADDRESS":"自強街４號之１８","OBJECTID":515276},"geometry":{"x":172637.41000000108,"y":2565139.5900000017}},{"attributes":{"ID":515304,"DIS_CODE":0,"TOWNNAME":"麻豆區","LI":"油車里","LIN":"1鄰","STREET":"自強街","SECT":" ","MAREA":" ","LANE":" ","ALLEY":" ","HOUSE_NO":"４號之１９","E_COORD97":172662.23999999999,"N_COORD97":2565154.77,"ADDRESS":"自強街４號之１９","OBJECTID":515277},"geometry":{"x":172662.24000000115,"y":2565154.7700000014}},{"attributes":{"ID":515305,"DIS_CODE":0,"TOWNNAME":"麻豆區","LI":"油車里","LIN":"1鄰","STREET":"自強街","SECT":" ","MAREA":" ","LANE":" ","ALLEY":" ","HOUSE_NO":"４號之１","E_COORD97":172626.79999999999,"N_COORD97":2565112.23,"ADDRESS":"自強街４號之１","OBJECTID":515278},"geometry":{"x":172626.79999999981,"y":2565112.2300000023}},{"attributes":{"ID":515306,"DIS_CODE":0,"TOWNNAME":"麻豆區","LI":"油車里","LIN":"1鄰","STREET":"自強街","SECT":" ","MAREA":" ","LANE":" ","ALLEY":" ","HOUSE_NO":"４號之２","E_COORD97":172625.10999999999,"N_COORD97":2565117.21,"ADDRESS":"自強街４號之２","OBJECTID":515279},"geometry":{"x":172625.11000000034,"y":2565117.2100000009}},{"attributes":{"ID":515307,"DIS_CODE":0,"TOWNNAME":"麻豆區","LI":"油車里","LIN":"1鄰","STREET":"自強街","SECT":" ","MAREA":" ","LANE":" ","ALLEY":" ","HOUSE_NO":"４號之３","E_COORD97":172624.07999999999,"N_COORD97":2565121.6400000001,"ADDRESS":"自強街４號之３","OBJECTID":515280},"geometry":{"x":172624.08000000101,"y":2565121.6400000006}},{"attributes":{"ID":515308,"DIS_CODE":0,"TOWNNAME":"麻豆區","LI":"油車里","LIN":"1鄰","STREET":"自強街","SECT":" ","MAREA":" ","LANE":" ","ALLEY":" ","HOUSE_NO":"４號之５","E_COORD97":172622.01000000001,"N_COORD97":2565130.52,"ADDRESS":"自強街４號之５","OBJECTID":515281},"geometry":{"x":172622.00999999978,"y":2565130.5199999996}},{"attributes":{"ID":515309,"DIS_CODE":0,"TOWNNAME":"麻豆區","LI":"油車里","LIN":"1鄰","STREET":"自強街","SECT":" ","MAREA":" ","LANE":" ","ALLEY":" ","HOUSE_NO":"４號之６","E_COORD97":172643.57000000001,"N_COORD97":2565117.8199999998,"ADDRESS":"自強街４號之６","OBJECTID":515282},"geometry":{"x":172643.5700000003,"y":2565117.8200000022}},{"attributes":{"ID":515310,"DIS_CODE":0,"TOWNNAME":"麻豆區","LI":"油車里","LIN":"1鄰","STREET":"自強街","SECT":" ","MAREA":" ","LANE":" ","ALLEY":" ","HOUSE_NO":"４號之７","E_COORD97":172657.60000000001,"N_COORD97":2565111.9399999999,"ADDRESS":"自強街４號之７","OBJECTID":515283},"geometry":{"x":172657.60000000056,"y":2565111.9399999995}},{"attributes":{"ID":515311,"DIS_CODE":0,"TOWNNAME":"麻豆區","LI":"油車里","LIN":"1鄰","STREET":"自強街","SECT":" ","MAREA":" ","LANE":" ","ALLEY":" ","HOUSE_NO":"４號之８","E_COORD97":172656.84,"N_COORD97":2565115.9399999999,"ADDRESS":"自強街４號之８","OBJECTID":515284},"geometry":{"x":172656.83999999985,"y":2565115.9400000013}},{"attributes":{"ID":515312,"DIS_CODE":0,"TOWNNAME":"麻豆區","LI":"油車里","LIN":"1鄰","STREET":"自強街","SECT":" ","MAREA":" ","LANE":" ","ALLEY":" ","HOUSE_NO":"４號之９","E_COORD97":172656.51999999999,"N_COORD97":2565120.1499999999,"ADDRESS":"自強街４號之９","OBJECTID":515285},"geometry":{"x":172656.52000000048,"y":2565120.1500000022}},{"attributes":{"ID":515313,"DIS_CODE":0,"TOWNNAME":"麻豆區","LI":"油車里","LIN":"1鄰","STREET":"自強街","SECT":" ","MAREA":" ","LANE":" ","ALLEY":" ","HOUSE_NO":"４號","E_COORD97":172628.09,"N_COORD97":2565107.9900000002,"ADDRESS":"自強街４號","OBJECTID":515286},"geometry":{"x":172628.08999999985,"y":2565107.9900000002}},{"attributes":{"ID":515314,"DIS_CODE":0,"TOWNNAME":"新營區","LI":"埤寮里","LIN":"1鄰","STREET":"中正路","SECT":" ","MAREA":" ","LANE":" ","ALLEY":" ","HOUSE_NO":"５１２號","E_COORD97":180091.82000000001,"N_COORD97":2580886.8599999999,"ADDRESS":"中正路５１２號","OBJECTID":515287},"geometry":{"x":180091.82000000123,"y":2580886.8599999994}},{"attributes":{"ID":515315,"DIS_CODE":0,"TOWNNAME":"新營區","LI":"新東里","LIN":"1鄰","STREET":"開元路","SECT":" ","MAREA":" ","LANE":" ","ALLEY":" ","HOUSE_NO":"１４７號","E_COORD97":181259.60000000001,"N_COORD97":2579100.6099999999,"ADDRESS":"開元路１４７號","OBJECTID":515288},"geometry":{"x":181259.59999999963,"y":2579100.6100000013}},{"attributes":{"ID":515316,"DIS_CODE":0,"TOWNNAME":"新營區","LI":"王公里","LIN":"1鄰","STREET":"中正路","SECT":" ","MAREA":" ","LANE":" ","ALLEY":" ","HOUSE_NO":"３４之１號","E_COORD97":180111.35000000001,"N_COORD97":2578894.52,"ADDRESS":"中正路３４之１號","OBJECTID":515289},"geometry":{"x":180111.35000000056,"y":2578894.5200000014}},{"attributes":{"ID":515317,"DIS_CODE":0,"TOWNNAME":"新營區","LI":"埤寮里","LIN":"1鄰","STREET":"中正路","SECT":" ","MAREA":" ","LANE":" ","ALLEY":" ","HOUSE_NO":"５１８號","E_COORD97":180093.94,"N_COORD97":2580903.4700000002,"ADDRESS":"中正路５１８號","OBJECTID":515290},"geometry":{"x":180093.93999999948,"y":2580903.4700000025}},{"attributes":{"ID":515318,"DIS_CODE":0,"TOWNNAME":"新營區","LI":"新北里","LIN":"1鄰","STREET":"周武街","SECT":" ","MAREA":" ","LANE":" ","ALLEY":" ","HOUSE_NO":"１９號","E_COORD97":179391.57000000001,"N_COORD97":2578856.8999999999,"ADDRESS":"周武街１９號","OBJECTID":515291},"geometry":{"x":179391.57000000123,"y":2578856.9000000004}},{"attributes":{"ID":515319,"DIS_CODE":0,"TOWNNAME":"新營區","LI":"新北里","LIN":"1鄰","STREET":"周武街","SECT":" ","MAREA":" ","LANE":" ","ALLEY":" ","HOUSE_NO":"２１號","E_COORD97":179391.66,"N_COORD97":2578860.2200000002,"ADDRESS":"周武街２１號","OBJECTID":515292},"geometry":{"x":179391.66000000015,"y":2578860.2200000025}},{"attributes":{"ID":515320,"DIS_CODE":0,"TOWNNAME":"新營區","LI":"忠政里","LIN":"1鄰","STREET":"中正路","SECT":" ","MAREA":" ","LANE":" ","ALLEY":" ","HOUSE_NO":"２７之５號","E_COORD97":180094.37,"N_COORD97":2578985.4100000001,"ADDRESS":"中正路２７之５號","OBJECTID":515293},"geometry":{"x":180094.37000000104,"y":2578985.4100000001}},{"attributes":{"ID":515321,"DIS_CODE":0,"TOWNNAME":"新營區","LI":"埤寮里","LIN":"1鄰","STREET":"中正路","SECT":" ","MAREA":" ","LANE":" ","ALLEY":" ","HOUSE_NO":"５１１號","E_COORD97":180054.88,"N_COORD97":2580644.5099999998,"ADDRESS":"中正路５１１號","OBJECTID":515294},"geometry":{"x":180054.88000000175,"y":2580644.5100000016}},{"attributes":{"ID":515322,"DIS_CODE":0,"TOWNNAME":"新營區","LI":"新南里","LIN":"1鄰","STREET":"民治路","SECT":" ","MAREA":" ","LANE":" ","ALLEY":" ","HOUSE_NO":"２０８號","E_COORD97":178882.26000000001,"N_COORD97":2578594.6600000001,"ADDRESS":"民治路２０８號","OBJECTID":515295},"geometry":{"x":178882.25999999978,"y":2578594.6600000001}},{"attributes":{"ID":515323,"DIS_CODE":0,"TOWNNAME":"新營區","LI":"新南里","LIN":"1鄰","STREET":"民治路","SECT":" ","MAREA":" ","LANE":" ","ALLEY":" ","HOUSE_NO":"２０２號之１","E_COORD97":178901.85000000001,"N_COORD97":2578610.1200000001,"ADDRESS":"民治路２０２號之１","OBJECTID":515296},"geometry":{"x":178901.84999999963,"y":2578610.1200000029}},{"attributes":{"ID":515324,"DIS_CODE":0,"TOWNNAME":"新營區","LI":"埤寮里","LIN":"1鄰","STREET":"中正路","SECT":" ","MAREA":" ","LANE":" ","ALLEY":" ","HOUSE_NO":"５１２之２號","E_COORD97":180096.41,"N_COORD97":2580896.8799999999,"ADDRESS":"中正路５１２之２號","OBJECTID":515297},"geometry":{"x":180096.41000000108,"y":2580896.879999999}},{"attributes":{"ID":515325,"DIS_CODE":0,"TOWNNAME":"新營區","LI":"王公里","LIN":"1鄰","STREET":"中正路","SECT":" ","MAREA":" ","LANE":" ","ALLEY":" ","HOUSE_NO":"６４之１號","E_COORD97":180130.20000000001,"N_COORD97":2579004.0699999998,"ADDRESS":"中正路６４之１號","OBJECTID":515298},"geometry":{"x":180130.20000000019,"y":2579004.0700000022}},{"attributes":{"ID":515326,"DIS_CODE":0,"TOWNNAME":"新營區","LI":"民榮里","LIN":"1鄰","STREET":"復興路","SECT":" ","MAREA":" ","LANE":" ","ALLEY":" ","HOUSE_NO":"１２９號","E_COORD97":179394.04000000001,"N_COORD97":2578040.7000000002,"ADDRESS":"復興路１２９號","OBJECTID":515299},"geometry":{"x":179394.04000000004,"y":2578040.6999999993}},{"attributes":{"ID":515327,"DIS_CODE":0,"TOWNNAME":"新營區","LI":"埤寮里","LIN":"1鄰","STREET":"中正路","SECT":" ","MAREA":" ","LANE":" ","ALLEY":" ","HOUSE_NO":"５０１號","E_COORD97":180053.73999999999,"N_COORD97":2580620.1499999999,"ADDRESS":"中正路５０１號","OBJECTID":515300},"geometry":{"x":180053.74000000022,"y":2580620.1500000022}},{"attributes":{"ID":515328,"DIS_CODE":0,"TOWNNAME":"新營區","LI":"埤寮里","LIN":"1鄰","STREET":"中正路","SECT":" ","MAREA":" ","LANE":" ","ALLEY":" ","HOUSE_NO":"５０８號","E_COORD97":180087.48000000001,"N_COORD97":2580833.73,"ADDRESS":"中正路５０８號","OBJECTID":515301},"geometry":{"x":180087.48000000138,"y":2580833.7300000023}},{"attributes":{"ID":515329,"DIS_CODE":0,"TOWNNAME":"新營區","LI":"埤寮里","LIN":"1鄰","STREET":"中正路","SECT":" ","MAREA":" ","LANE":" ","ALLEY":" ","HOUSE_NO":"５８１號","E_COORD97":180082.07999999999,"N_COORD97":2580989.8999999999,"ADDRESS":"中正路５８１號","OBJECTID":515302},"geometry":{"x":180082.08000000007,"y":2580989.9000000004}},{"attributes":{"ID":515330,"DIS_CODE":0,"TOWNNAME":"新營區","LI":"新南里","LIN":"1鄰","STREET":"民治路","SECT":" ","MAREA":" ","LANE":" ","ALLEY":" ","HOUSE_NO":"２２８號","E_COORD97":178848.35999999999,"N_COORD97":2578564.9199999999,"ADDRESS":"民治路２２８號","OBJECTID":515303},"geometry":{"x":178848.36000000034,"y":2578564.9199999999}},{"attributes":{"ID":515331,"DIS_CODE":0,"TOWNNAME":"新營區","LI":"延平里","LIN":"1鄰","STREET":"延平路","SECT":" ","MAREA":" ","LANE":" ","ALLEY":" ","HOUSE_NO":"１０２號","E_COORD97":179761.60000000001,"N_COORD97":2577680.1299999999,"ADDRESS":"延平路１０２號","OBJECTID":515304},"geometry":{"x":179761.60000000149,"y":2577680.1300000008}},{"attributes":{"ID":515332,"DIS_CODE":0,"TOWNNAME":"新營區","LI":"埤寮里","LIN":"1鄰","STREET":"中正路","SECT":" ","MAREA":" ","LANE":" ","ALLEY":" ","HOUSE_NO":"５２２號","E_COORD97":180096.03,"N_COORD97":2580912.3199999998,"ADDRESS":"中正路５２２號","OBJECTID":515305},"geometry":{"x":180096.03000000026,"y":2580912.3200000003}},{"attributes":{"ID":515333,"DIS_CODE":0,"TOWNNAME":"新營區","LI":"埤寮里","LIN":"1鄰","STREET":"中正路","SECT":" ","MAREA":" ","LANE":" ","ALLEY":" ","HOUSE_NO":"５４７號","E_COORD97":180064.10000000001,"N_COORD97":2580863.7400000002,"ADDRESS":"中正路５４７號","OBJECTID":515306},"geometry":{"x":180064.10000000056,"y":2580863.7400000021}},{"attributes":{"ID":515334,"DIS_CODE":0,"TOWNNAME":"新營區","LI":"忠政里","LIN":"1鄰","STREET":"中正路","SECT":" ","MAREA":" ","LANE":" ","ALLEY":" ","HOUSE_NO":"２７之１０號","E_COORD97":180106.97,"N_COORD97":2579006.3999999999,"ADDRESS":"中正路２７之１０號","OBJECTID":515307},"geometry":{"x":180106.97000000067,"y":2579006.4000000004}},{"attributes":{"ID":515335,"DIS_CODE":0,"TOWNNAME":"新營區","LI":"民榮里","LIN":"1鄰","STREET":"復興路","SECT":" ","MAREA":" ","LANE":" ","ALLEY":" ","HOUSE_NO":"１３３號","E_COORD97":179329.54999999999,"N_COORD97":2578029.9300000002,"ADDRESS":"復興路１３３號","OBJECTID":515308},"geometry":{"x":179329.54999999981,"y":2578029.9300000034}},{"attributes":{"ID":515336,"DIS_CODE":0,"TOWNNAME":"新營區","LI":"埤寮里","LIN":"1鄰","STREET":"中正路","SECT":" ","MAREA":" ","LANE":" ","ALLEY":" ","HOUSE_NO":"４５２號","E_COORD97":180081.45999999999,"N_COORD97":2580631.0899999999,"ADDRESS":"中正路４５２號","OBJECTID":515309},"geometry":{"x":180081.45999999903,"y":2580631.0900000017}},{"attributes":{"ID":515337,"DIS_CODE":0,"TOWNNAME":"歸仁區","LI":"八甲里","LIN":"1鄰","STREET":"中正北路","SECT":"一段","MAREA":" ","LANE":" ","ALLEY":" ","HOUSE_NO":"１８２號","E_COORD97":177808.42999999999,"N_COORD97":2541566.4900000002,"ADDRESS":"中正北路一段１８２號","OBJECTID":515310},"geometry":{"x":177808.43000000063,"y":2541566.4900000039}},{"attributes":{"ID":515338,"DIS_CODE":0,"TOWNNAME":"歸仁區","LI":"八甲里","LIN":"1鄰","STREET":"中正北路","SECT":"一段","MAREA":" ","LANE":" ","ALLEY":" ","HOUSE_NO":"１８８號","E_COORD97":177810.53,"N_COORD97":2541577.4900000002,"ADDRESS":"中正北路一段１８８號","OBJECTID":515311},"geometry":{"x":177810.53000000119,"y":2541577.4900000021}},{"attributes":{"ID":515339,"DIS_CODE":0,"TOWNNAME":"歸仁區","LI":"八甲里","LIN":"1鄰","STREET":"中正北路","SECT":"一段","MAREA":" ","LANE":" ","ALLEY":" ","HOUSE_NO":"１９０號","E_COORD97":177811.63,"N_COORD97":2541581.4900000002,"ADDRESS":"中正北路一段１９０號","OBJECTID":515312},"geometry":{"x":177811.62999999989,"y":2541581.4900000021}},{"attributes":{"ID":515340,"DIS_CODE":0,"TOWNNAME":"歸仁區","LI":"八甲里","LIN":"1鄰","STREET":"忠孝北路","SECT":" ","MAREA":" ","LANE":" ","ALLEY":" ","HOUSE_NO":"２６７號","E_COORD97":177913.32999999999,"N_COORD97":2541466.25,"ADDRESS":"忠孝北路２６７號","OBJECTID":515313},"geometry":{"x":177913.33000000101,"y":2541466.2500000037}},{"attributes":{"ID":515341,"DIS_CODE":0,"TOWNNAME":"歸仁區","LI":"七甲里","LIN":"1鄰","STREET":"七甲五街","SECT":" ","MAREA":" ","LANE":" ","ALLEY":" ","HOUSE_NO":"６９號","E_COORD97":177270.78,"N_COORD97":2542570.25,"ADDRESS":"七甲五街６９號","OBJECTID":515314},"geometry":{"x":177270.78000000212,"y":2542570.25}},{"attributes":{"ID":515342,"DIS_CODE":0,"TOWNNAME":"歸仁區","LI":"武東里","LIN":"1鄰","STREET":"中正南路","SECT":"二段","MAREA":" ","LANE":" ","ALLEY":" ","HOUSE_NO":"２６３號","E_COORD97":175371.10999999999,"N_COORD97":2535204.2799999998,"ADDRESS":"中正南路二段２６３號","OBJECTID":515315},"geometry":{"x":175371.11000000034,"y":2535204.2800000012}},{"attributes":{"ID":515343,"DIS_CODE":0,"TOWNNAME":"歸仁區","LI":"八甲里","LIN":"1鄰","STREET":"中正北路","SECT":"一段","MAREA":" ","LANE":" ","ALLEY":" ","HOUSE_NO":"１７６號","E_COORD97":177806.32999999999,"N_COORD97":2541553.4900000002,"ADDRESS":"中正北路一段１７６號","OBJECTID":515316},"geometry":{"x":177806.33000000101,"y":2541553.4900000021}},{"attributes":{"ID":515344,"DIS_CODE":0,"TOWNNAME":"歸仁區","LI":"八甲里","LIN":"1鄰","STREET":"忠孝北路","SECT":" ","MAREA":" ","LANE":" ","ALLEY":" ","HOUSE_NO":"２９１號","E_COORD97":177836.76999999999,"N_COORD97":2541554.25,"ADDRESS":"忠孝北路２９１號","OBJECTID":515317},"geometry":{"x":177836.77000000048,"y":2541554.2500000037}},{"attributes":{"ID":515345,"DIS_CODE":0,"TOWNNAME":"歸仁區","LI":"八甲里","LIN":"1鄰","STREET":"忠孝北路","SECT":" ","MAREA":" ","LANE":" ","ALLEY":" ","HOUSE_NO":"２５９號","E_COORD97":177938.82999999999,"N_COORD97":2541431.25,"ADDRESS":"忠孝北路２５９號","OBJECTID":515318},"geometry":{"x":177938.83000000101,"y":2541431.25}},{"attributes":{"ID":515346,"DIS_CODE":0,"TOWNNAME":"歸仁區","LI":"大廟里","LIN":"1鄰","STREET":"大廟二街","SECT":" ","MAREA":" ","LANE":" ","ALLEY":" ","HOUSE_NO":"４１號","E_COORD97":175993.57000000001,"N_COORD97":2544026.25,"ADDRESS":"大廟二街４１號","OBJECTID":515319},"geometry":{"x":175993.5700000003,"y":2544026.2500000019}},{"attributes":{"ID":515347,"DIS_CODE":0,"TOWNNAME":"歸仁區","LI":"大廟里","LIN":"1鄰","STREET":"大廟二街","SECT":" ","MAREA":" ","LANE":" ","ALLEY":" ","HOUSE_NO":"１７號","E_COORD97":175986.47,"N_COORD97":2544038.25,"ADDRESS":"大廟二街１７號","OBJECTID":515320},"geometry":{"x":175986.47000000067,"y":2544038.25}},{"attributes":{"ID":515348,"DIS_CODE":0,"TOWNNAME":"歸仁區","LI":"大廟里","LIN":"1鄰","STREET":"大廟二街","SECT":" ","MAREA":" ","LANE":" ","ALLEY":" ","HOUSE_NO":"４７號","E_COORD97":175990.26999999999,"N_COORD97":2543993.25,"ADDRESS":"大廟二街４７號","OBJECTID":515321},"geometry":{"x":175990.27000000142,"y":2543993.2500000019}},{"attributes":{"ID":515349,"DIS_CODE":0,"TOWNNAME":"歸仁區","LI":"大廟里","LIN":"1鄰","STREET":"大廟二街","SECT":" ","MAREA":" ","LANE":" ","ALLEY":" ","HOUSE_NO":"３１號","E_COORD97":176017.17000000001,"N_COORD97":2544041.25,"ADDRESS":"大廟二街３１號","OBJECTID":515322},"geometry":{"x":176017.17000000086,"y":2544041.25}},{"attributes":{"ID":515350,"DIS_CODE":0,"TOWNNAME":"歸仁區","LI":"大廟里","LIN":"1鄰","STREET":"大廟二街","SECT":" ","MAREA":" ","LANE":" ","ALLEY":" ","HOUSE_NO":"２９號","E_COORD97":176012.07000000001,"N_COORD97":2544042.25,"ADDRESS":"大廟二街２９號","OBJECTID":515323},"geometry":{"x":176012.0700000003,"y":2544042.25}},{"attributes":{"ID":515351,"DIS_CODE":0,"TOWNNAME":"歸仁區","LI":"八甲里","LIN":"1鄰","STREET":"大德路","SECT":" ","MAREA":" ","LANE":" ","ALLEY":" ","HOUSE_NO":"１６６號","E_COORD97":177914.89000000001,"N_COORD97":2541406.25,"ADDRESS":"大德路１６６號","OBJECTID":515324},"geometry":{"x":177914.88999999966,"y":2541406.2500000019}},{"attributes":{"ID":515352,"DIS_CODE":0,"TOWNNAME":"歸仁區","LI":"大廟里","LIN":"1鄰","STREET":"保大路","SECT":"三段","MAREA":" ","LANE":" ","ALLEY":" ","HOUSE_NO":"１５３號","E_COORD97":176043.57000000001,"N_COORD97":2544099.2799999998,"ADDRESS":"保大路三段１５３號","OBJECTID":515325},"geometry":{"x":176043.57000000123,"y":2544099.2799999993}},{"attributes":{"ID":515353,"DIS_CODE":0,"TOWNNAME":"歸仁區","LI":"大廟里","LIN":"1鄰","STREET":"保大路","SECT":"三段","MAREA":" ","LANE":" ","ALLEY":" ","HOUSE_NO":"１５５號","E_COORD97":176039.47,"N_COORD97":2544099.2799999998,"ADDRESS":"保大路三段１５５號","OBJECTID":515326},"geometry":{"x":176039.46999999974,"y":2544099.2799999993}},{"attributes":{"ID":515354,"DIS_CODE":0,"TOWNNAME":"歸仁區","LI":"八甲里","LIN":"1鄰","STREET":"大德路","SECT":" ","MAREA":" ","LANE":" ","ALLEY":" ","HOUSE_NO":"２００號","E_COORD97":177838,"N_COORD97":2541473.4900000002,"ADDRESS":"大德路２００號","OBJECTID":515327},"geometry":{"x":177838,"y":2541473.4900000002}},{"attributes":{"ID":515355,"DIS_CODE":0,"TOWNNAME":"歸仁區","LI":"八甲里","LIN":"1鄰","STREET":"大德路","SECT":" ","MAREA":" ","LANE":" ","ALLEY":" ","HOUSE_NO":"６４２號","E_COORD97":177032.63,"N_COORD97":2541556.25,"ADDRESS":"大德路６４２號","OBJECTID":515328},"geometry":{"x":177032.63000000082,"y":2541556.25}},{"attributes":{"ID":515356,"DIS_CODE":0,"TOWNNAME":"歸仁區","LI":"八甲里","LIN":"1鄰","STREET":"大德路","SECT":" ","MAREA":" ","LANE":" ","ALLEY":" ","HOUSE_NO":"３６０號","E_COORD97":177600.39999999999,"N_COORD97":2541529.4900000002,"ADDRESS":"大德路３６０號","OBJECTID":515329},"geometry":{"x":177600.40000000037,"y":2541529.4900000039}},{"attributes":{"ID":515357,"DIS_CODE":0,"TOWNNAME":"歸仁區","LI":"八甲里","LIN":"1鄰","STREET":"大德路","SECT":" ","MAREA":" ","LANE":" ","ALLEY":" ","HOUSE_NO":"３５０號","E_COORD97":177633.20000000001,"N_COORD97":2541519.4900000002,"ADDRESS":"大德路３５０號","OBJECTID":515330},"geometry":{"x":177633.20000000019,"y":2541519.4900000021}},{"attributes":{"ID":515358,"DIS_CODE":0,"TOWNNAME":"北區","LI":"大豐里","LIN":"1鄰","STREET":"文賢路","SECT":" ","MAREA":" ","LANE":" ","ALLEY":" ","HOUSE_NO":"２９１號","E_COORD97":167320.04000000001,"N_COORD97":2545189.9399999999,"ADDRESS":"文賢路２９１號","OBJECTID":515331},"geometry":{"x":167320.04000000097,"y":2545189.9399999995}},{"attributes":{"ID":515359,"DIS_CODE":0,"TOWNNAME":"歸仁區","LI":"武東里","LIN":"1鄰","STREET":"中正南路","SECT":"二段","MAREA":" ","LANE":" ","ALLEY":" ","HOUSE_NO":"２５５號","E_COORD97":175382.60999999999,"N_COORD97":2535233.2799999998,"ADDRESS":"中正南路二段２５５號","OBJECTID":515332},"geometry":{"x":175382.61000000127,"y":2535233.2799999993}},{"attributes":{"ID":515360,"DIS_CODE":0,"TOWNNAME":"歸仁區","LI":"七甲里","LIN":"1鄰","STREET":"七甲五街","SECT":" ","MAREA":" ","LANE":" ","ALLEY":" ","HOUSE_NO":"８５號","E_COORD97":177213.28,"N_COORD97":2542574.25,"ADDRESS":"七甲五街８５號","OBJECTID":515333},"geometry":{"x":177213.28000000119,"y":2542574.25}},{"attributes":{"ID":515361,"DIS_CODE":0,"TOWNNAME":"歸仁區","LI":"大潭里","LIN":"1鄰","STREET":"中正南路","SECT":"三段","MAREA":" ","LANE":" ","ALLEY":" ","HOUSE_NO":"８９號","E_COORD97":175290.06,"N_COORD97":2535022.2799999998,"ADDRESS":"中正南路三段８９號","OBJECTID":515334},"geometry":{"x":175290.06000000052,"y":2535022.2799999993}},{"attributes":{"ID":515362,"DIS_CODE":0,"TOWNNAME":"歸仁區","LI":"大廟里","LIN":"1鄰","STREET":"保大路","SECT":"三段","MAREA":" ","LANE":" ","ALLEY":" ","HOUSE_NO":"１５９號","E_COORD97":176029.26999999999,"N_COORD97":2544105.2799999998,"ADDRESS":"保大路三段１５９號","OBJECTID":515335},"geometry":{"x":176029.27000000142,"y":2544105.2799999993}},{"attributes":{"ID":515363,"DIS_CODE":0,"TOWNNAME":"北區","LI":"公園里","LIN":"9鄰","STREET":"西華街","SECT":" ","MAREA":" ","LANE":" ","ALLEY":" ","HOUSE_NO":"５０號","E_COORD97":169103.29000000001,"N_COORD97":2544513.4199999999,"ADDRESS":"西華街５０號","OBJECTID":515336},"geometry":{"x":169103.29000000097,"y":2544513.4200000018}},{"attributes":{"ID":515364,"DIS_CODE":0,"TOWNNAME":"北區","LI":"公園里","LIN":" ","STREET":"成功路","SECT":" ","MAREA":" ","LANE":" ","ALLEY":" ","HOUSE_NO":"５０號","E_COORD97":168765.81,"N_COORD97":2544291.5699999998,"ADDRESS":"成功路５０號","OBJECTID":515337},"geometry":{"x":168765.81000000052,"y":2544291.5700000003}},{"attributes":{"ID":515365,"DIS_CODE":0,"TOWNNAME":"北區","LI":"公園里","LIN":"4鄰","STREET":"公園南路","SECT":" ","MAREA":" ","LANE":" ","ALLEY":" ","HOUSE_NO":"１７號之１","E_COORD97":169230.204291,"N_COORD97":2544504.66891,"ADDRESS":"公園南路１７號之１","OBJECTID":515338},"geometry":{"x":169230.20429100003,"y":2544504.6689070016}},{"attributes":{"ID":515366,"DIS_CODE":0,"TOWNNAME":"北區","LI":"公園里","LIN":" ","STREET":"公園路","SECT":" ","MAREA":" ","LANE":" ","ALLEY":" ","HOUSE_NO":"３５６號","E_COORD97":169075.17000000001,"N_COORD97":2544842.2200000002,"ADDRESS":"公園路３５６號","OBJECTID":515339},"geometry":{"x":169075.17000000086,"y":2544842.2200000025}},{"attributes":{"ID":515367,"DIS_CODE":0,"TOWNNAME":"北區","LI":"公園里","LIN":" ","STREET":"小東路","SECT":" ","MAREA":" ","LANE":" ","ALLEY":" ","HOUSE_NO":"６號","E_COORD97":169424.26999999999,"N_COORD97":2544916.4300000002,"ADDRESS":"小東路６號","OBJECTID":515340},"geometry":{"x":169424.26999999955,"y":2544916.4300000016}},{"attributes":{"ID":515368,"DIS_CODE":0,"TOWNNAME":"歸仁區","LI":"大潭里","LIN":"1鄰","STREET":"中正南路","SECT":"三段","MAREA":" ","LANE":" ","ALLEY":" ","HOUSE_NO":"６５號","E_COORD97":175304.45999999999,"N_COORD97":2535043.2799999998,"ADDRESS":"中正南路三段６５號","OBJECTID":515341},"geometry":{"x":175304.46000000183,"y":2535043.2799999993}},{"attributes":{"ID":515369,"DIS_CODE":0,"TOWNNAME":"北區","LI":"六甲里","LIN":"1鄰","STREET":"公園路","SECT":" ","MAREA":" ","LANE":" ","ALLEY":" ","HOUSE_NO":"４７７號","E_COORD97":169031.51999999999,"N_COORD97":2545488.52,"ADDRESS":"公園路４７７號","OBJECTID":515342},"geometry":{"x":169031.52000000142,"y":2545488.5200000033}},{"attributes":{"ID":515370,"DIS_CODE":0,"TOWNNAME":"北區","LI":"東興里","LIN":"1鄰","STREET":"小東路","SECT":" ","MAREA":" ","LANE":" ","ALLEY":" ","HOUSE_NO":"１６１號","E_COORD97":170751.56,"N_COORD97":2544541.8999999999,"ADDRESS":"小東路１６１號","OBJECTID":515343},"geometry":{"x":170751.55999999959,"y":2544541.9000000022}},{"attributes":{"ID":515371,"DIS_CODE":0,"TOWNNAME":"北區","LI":"東興里","LIN":"1鄰","STREET":"小東路","SECT":" ","MAREA":" ","LANE":" ","ALLEY":" ","HOUSE_NO":"１６３號","E_COORD97":170756.13,"N_COORD97":2544540.9199999999,"ADDRESS":"小東路１６３號","OBJECTID":515344},"geometry":{"x":170756.12999999989,"y":2544540.9200000018}},{"attributes":{"ID":515372,"DIS_CODE":0,"TOWNNAME":"北區","LI":"東興里","LIN":"1鄰","STREET":"小東路","SECT":" ","MAREA":" ","LANE":" ","ALLEY":" ","HOUSE_NO":"１６５號","E_COORD97":170759.82999999999,"N_COORD97":2544538.1099999999,"ADDRESS":"小東路１６５號","OBJECTID":515345},"geometry":{"x":170759.83000000101,"y":2544538.1100000031}},{"attributes":{"ID":515373,"DIS_CODE":0,"TOWNNAME":"北區","LI":"仁愛里","LIN":"1鄰","STREET":"東豐路","SECT":" ","MAREA":" ","LANE":" ","ALLEY":" ","HOUSE_NO":"１６７號之１","E_COORD97":169948.81,"N_COORD97":2544890.4300000002,"ADDRESS":"東豐路１６７號之１","OBJECTID":515346},"geometry":{"x":169948.81000000052,"y":2544890.4300000016}},{"attributes":{"ID":515374,"DIS_CODE":0,"TOWNNAME":"北區","LI":"勝安里","LIN":"1鄰","STREET":"開元路","SECT":" ","MAREA":" ","LANE":" ","ALLEY":" ","HOUSE_NO":"３號之２","E_COORD97":169504.69,"N_COORD97":2545104.5899999999,"ADDRESS":"開元路３號之２","OBJECTID":515347},"geometry":{"x":169504.69000000134,"y":2545104.5899999999}},{"attributes":{"ID":515375,"DIS_CODE":0,"TOWNNAME":"北區","LI":"國姓里","LIN":"1鄰","STREET":"公園路","SECT":" ","MAREA":" ","LANE":" ","ALLEY":" ","HOUSE_NO":"３９３號","E_COORD97":169012.47,"N_COORD97":2545238.6099999999,"ADDRESS":"公園路３９３號","OBJECTID":515348},"geometry":{"x":169012.47000000067,"y":2545238.6099999994}},{"attributes":{"ID":515376,"DIS_CODE":0,"TOWNNAME":"柳營區","LI":"光福里","LIN":"1鄰","STREET":"建利街","SECT":" ","MAREA":" ","LANE":" ","ALLEY":" ","HOUSE_NO":"１３號","E_COORD97":179743.26000000001,"N_COORD97":2575023.71,"ADDRESS":"建利街１３號","OBJECTID":515349},"geometry":{"x":179743.25999999978,"y":2575023.7100000009}},{"attributes":{"ID":515377,"DIS_CODE":0,"TOWNNAME":"北區","LI":"興南里","LIN":"1鄰","STREET":"公園南路","SECT":" ","MAREA":" ","LANE":" ","ALLEY":" ","HOUSE_NO":"３２號","E_COORD97":168856.85999999999,"N_COORD97":2544645.1000000001,"ADDRESS":"公園南路３２號","OBJECTID":515350},"geometry":{"x":168856.86000000034,"y":2544645.1000000015}},{"attributes":{"ID":515378,"DIS_CODE":0,"TOWNNAME":"北區","LI":"興南里","LIN":"1鄰","STREET":"公園南路","SECT":" ","MAREA":" ","LANE":" ","ALLEY":" ","HOUSE_NO":"３６號","E_COORD97":168852.98999999999,"N_COORD97":2544646.5099999998,"ADDRESS":"公園南路３６號","OBJECTID":515351},"geometry":{"x":168852.99000000115,"y":2544646.5099999998}},{"attributes":{"ID":515379,"DIS_CODE":0,"TOWNNAME":"北區","LI":"興南里","LIN":"1鄰","STREET":"公園南路","SECT":" ","MAREA":" ","LANE":" ","ALLEY":" ","HOUSE_NO":"８號","E_COORD97":168869.14999999999,"N_COORD97":2544637.21,"ADDRESS":"公園南路８號","OBJECTID":515352},"geometry":{"x":168869.1500000013,"y":2544637.209999999}},{"attributes":{"ID":515380,"DIS_CODE":0,"TOWNNAME":"北區","LI":"興南里","LIN":"1鄰","STREET":"公園南路","SECT":" ","MAREA":" ","LANE":" ","ALLEY":" ","HOUSE_NO":"２０號","E_COORD97":168863.92000000001,"N_COORD97":2544651.1400000001,"ADDRESS":"公園南路２０號","OBJECTID":515353},"geometry":{"x":168863.91999999993,"y":2544651.1400000043}},{"attributes":{"ID":515381,"DIS_CODE":0,"TOWNNAME":"北區","LI":"安民里","LIN":"1鄰","STREET":"海安路","SECT":"三段","MAREA":" ","LANE":" ","ALLEY":" ","HOUSE_NO":"２號","E_COORD97":167899.48000000001,"N_COORD97":2544578.48,"ADDRESS":"海安路三段２號","OBJECTID":515354},"geometry":{"x":167899.48000000045,"y":2544578.4800000023}},{"attributes":{"ID":515382,"DIS_CODE":0,"TOWNNAME":"北區","LI":"和順里","LIN":"1鄰","STREET":"民德路","SECT":" ","MAREA":" ","LANE":" ","ALLEY":" ","HOUSE_NO":"９２號","E_COORD97":168064.12,"N_COORD97":2545270.3900000001,"ADDRESS":"民德路９２號","OBJECTID":515355},"geometry":{"x":168064.12000000104,"y":2545270.3900000025}},{"attributes":{"ID":515383,"DIS_CODE":0,"TOWNNAME":"北區","LI":"和順里","LIN":"1鄰","STREET":"民德路","SECT":" ","MAREA":" ","LANE":" ","ALLEY":" ","HOUSE_NO":"９４號","E_COORD97":168059.45000000001,"N_COORD97":2545270.1600000001,"ADDRESS":"民德路９４號","OBJECTID":515356},"geometry":{"x":168059.44999999925,"y":2545270.1600000001}},{"attributes":{"ID":515384,"DIS_CODE":0,"TOWNNAME":"北區","LI":"和順里","LIN":"1鄰","STREET":"民德路","SECT":" ","MAREA":" ","LANE":" ","ALLEY":" ","HOUSE_NO":"９６號","E_COORD97":168054.56,"N_COORD97":2545270.3900000001,"ADDRESS":"民德路９６號","OBJECTID":515357},"geometry":{"x":168054.55999999959,"y":2545270.3900000025}},{"attributes":{"ID":515385,"DIS_CODE":0,"TOWNNAME":"北區","LI":"和順里","LIN":"1鄰","STREET":"民德路","SECT":" ","MAREA":" ","LANE":" ","ALLEY":" ","HOUSE_NO":"９８號","E_COORD97":168050.32999999999,"N_COORD97":2545270.6099999999,"ADDRESS":"民德路９８號","OBJECTID":515358},"geometry":{"x":168050.33000000101,"y":2545270.6100000031}},{"attributes":{"ID":515386,"DIS_CODE":0,"TOWNNAME":"北區","LI":"和順里","LIN":"1鄰","STREET":"民德路","SECT":" ","MAREA":" ","LANE":" ","ALLEY":" ","HOUSE_NO":"１００號","E_COORD97":168046.10999999999,"N_COORD97":2545270.6099999999,"ADDRESS":"民德路１００號","OBJECTID":515359},"geometry":{"x":168046.11000000034,"y":2545270.6100000031}},{"attributes":{"ID":515387,"DIS_CODE":0,"TOWNNAME":"北區","LI":"興北里","LIN":"1鄰","STREET":"東豐路","SECT":" ","MAREA":" ","LANE":" ","ALLEY":" ","HOUSE_NO":"３號","E_COORD97":169435.85000000001,"N_COORD97":2544974.7200000002,"ADDRESS":"東豐路３號","OBJECTID":515360},"geometry":{"x":169435.84999999963,"y":2544974.7200000007}},{"attributes":{"ID":515388,"DIS_CODE":0,"TOWNNAME":"北區","LI":"力行里","LIN":"1鄰","STREET":"開南街","SECT":" ","MAREA":" ","LANE":" ","ALLEY":" ","HOUSE_NO":"２２３號","E_COORD97":170823.57999999999,"N_COORD97":2544970.8999999999,"ADDRESS":"開南街２２３號","OBJECTID":515361},"geometry":{"x":170823.58000000101,"y":2544970.9000000004}},{"attributes":{"ID":515389,"DIS_CODE":0,"TOWNNAME":"柳營區","LI":"光福里","LIN":"1鄰","STREET":"建安街","SECT":" ","MAREA":" ","LANE":" ","ALLEY":" ","HOUSE_NO":"７號","E_COORD97":179745.14000000001,"N_COORD97":2574984.3199999998,"ADDRESS":"建安街７號","OBJECTID":515362},"geometry":{"x":179745.1400000006,"y":2574984.3200000022}},{"attributes":{"ID":515390,"DIS_CODE":0,"TOWNNAME":"柳營區","LI":"光福里","LIN":"1鄰","STREET":"建安街","SECT":" ","MAREA":" ","LANE":" ","ALLEY":" ","HOUSE_NO":"９號","E_COORD97":179759.48000000001,"N_COORD97":2574982.8799999999,"ADDRESS":"建安街９號","OBJECTID":515363},"geometry":{"x":179759.48000000045,"y":2574982.8800000008}},{"attributes":{"ID":515391,"DIS_CODE":0,"TOWNNAME":"柳營區","LI":"光福里","LIN":"1鄰","STREET":"建利街","SECT":" ","MAREA":" ","LANE":" ","ALLEY":" ","HOUSE_NO":"１號","E_COORD97":179740.75,"N_COORD97":2574996.5,"ADDRESS":"建利街１號","OBJECTID":515364},"geometry":{"x":179740.75000000093,"y":2574996.5000000019}},{"attributes":{"ID":515392,"DIS_CODE":0,"TOWNNAME":"柳營區","LI":"光福里","LIN":"1鄰","STREET":"建利街","SECT":" ","MAREA":" ","LANE":" ","ALLEY":" ","HOUSE_NO":"２１號","E_COORD97":179743.47,"N_COORD97":2575036.1200000001,"ADDRESS":"建利街２１號","OBJECTID":515365},"geometry":{"x":179743.46999999974,"y":2575036.1199999992}},{"attributes":{"ID":515393,"DIS_CODE":0,"TOWNNAME":"柳營區","LI":"光福里","LIN":"1鄰","STREET":"建利街","SECT":" ","MAREA":" ","LANE":" ","ALLEY":" ","HOUSE_NO":"３號","E_COORD97":179740.75,"N_COORD97":2575001.0299999998,"ADDRESS":"建利街３號","OBJECTID":515366},"geometry":{"x":179740.75000000093,"y":2575001.0299999975}},{"attributes":{"ID":515394,"DIS_CODE":0,"TOWNNAME":"柳營區","LI":"光福里","LIN":"1鄰","STREET":"建利街","SECT":" ","MAREA":" ","LANE":" ","ALLEY":" ","HOUSE_NO":"５號","E_COORD97":179740.75,"N_COORD97":2575005.5600000001,"ADDRESS":"建利街５號","OBJECTID":515367},"geometry":{"x":179740.75000000093,"y":2575005.5600000042}},{"attributes":{"ID":515395,"DIS_CODE":0,"TOWNNAME":"柳營區","LI":"光福里","LIN":"1鄰","STREET":"建利街","SECT":" ","MAREA":" ","LANE":" ","ALLEY":" ","HOUSE_NO":"７號","E_COORD97":179740.75,"N_COORD97":2575010.0899999999,"ADDRESS":"建利街７號","OBJECTID":515368},"geometry":{"x":179740.75000000093,"y":2575010.0899999999}},{"attributes":{"ID":515396,"DIS_CODE":0,"TOWNNAME":"柳營區","LI":"光福里","LIN":"1鄰","STREET":"柳營路","SECT":"一段","MAREA":" ","LANE":" ","ALLEY":" ","HOUSE_NO":"９５６號","E_COORD97":179716.64000000001,"N_COORD97":2574983.8999999999,"ADDRESS":"柳營路一段９５６號","OBJECTID":515369},"geometry":{"x":179716.63999999966,"y":2574983.9000000022}},{"attributes":{"ID":515397,"DIS_CODE":0,"TOWNNAME":"柳營區","LI":"光福里","LIN":"1鄰","STREET":"柳營路","SECT":"一段","MAREA":" ","LANE":" ","ALLEY":" ","HOUSE_NO":"９６０號","E_COORD97":179711.98000000001,"N_COORD97":2574996.46,"ADDRESS":"柳營路一段９６０號","OBJECTID":515370},"geometry":{"x":179711.98000000045,"y":2574996.4600000046}},{"attributes":{"ID":515398,"DIS_CODE":0,"TOWNNAME":"柳營區","LI":"光福里","LIN":"1鄰","STREET":"柳營路","SECT":"一段","MAREA":" ","LANE":" ","ALLEY":" ","HOUSE_NO":"９６２號","E_COORD97":179710.29000000001,"N_COORD97":2575003.29,"ADDRESS":"柳營路一段９６２號","OBJECTID":515371},"geometry":{"x":179710.29000000097,"y":2575003.290000001}},{"attributes":{"ID":515399,"DIS_CODE":0,"TOWNNAME":"柳營區","LI":"光福里","LIN":"1鄰","STREET":"柳營路","SECT":"一段","MAREA":" ","LANE":" ","ALLEY":" ","HOUSE_NO":"９６６號","E_COORD97":179709.04000000001,"N_COORD97":2575012.1400000001,"ADDRESS":"柳營路一段９６６號","OBJECTID":515372},"geometry":{"x":179709.04000000004,"y":2575012.1400000043}},{"attributes":{"ID":515400,"DIS_CODE":0,"TOWNNAME":"柳營區","LI":"光福里","LIN":"1鄰","STREET":"柳營路","SECT":"一段","MAREA":" ","LANE":" ","ALLEY":" ","HOUSE_NO":"９６８號","E_COORD97":179708.22,"N_COORD97":2575016.02,"ADDRESS":"柳營路一段９６８號","OBJECTID":515373},"geometry":{"x":179708.21999999881,"y":2575016.0200000014}},{"attributes":{"ID":515401,"DIS_CODE":0,"TOWNNAME":"柳營區","LI":"光福里","LIN":"1鄰","STREET":"柳營路","SECT":"一段","MAREA":" ","LANE":" ","ALLEY":" ","HOUSE_NO":"９７０號","E_COORD97":179707.10000000001,"N_COORD97":2575020.2200000002,"ADDRESS":"柳營路一段９７０號","OBJECTID":515374},"geometry":{"x":179707.09999999963,"y":2575020.2200000007}},{"attributes":{"ID":515402,"DIS_CODE":0,"TOWNNAME":"柳營區","LI":"光福里","LIN":"1鄰","STREET":"柳營路","SECT":"一段","MAREA":" ","LANE":" ","ALLEY":" ","HOUSE_NO":"９７２號","E_COORD97":179705.79000000001,"N_COORD97":2575024.1800000002,"ADDRESS":"柳營路一段９７２號","OBJECTID":515375},"geometry":{"x":179705.79000000004,"y":2575024.1799999978}},{"attributes":{"ID":515403,"DIS_CODE":0,"TOWNNAME":"柳營區","LI":"人和里","LIN":"1鄰","STREET":"界和路","SECT":" ","MAREA":" ","LANE":" ","ALLEY":" ","HOUSE_NO":"１５８號","E_COORD97":178573.76999999999,"N_COORD97":2576243.1800000002,"ADDRESS":"界和路１５８號","OBJECTID":515376},"geometry":{"x":178573.77000000142,"y":2576243.1799999997}},{"attributes":{"ID":515404,"DIS_CODE":0,"TOWNNAME":"柳營區","LI":"人和里","LIN":"1鄰","STREET":"界和路","SECT":" ","MAREA":" ","LANE":" ","ALLEY":" ","HOUSE_NO":"１７２號","E_COORD97":178553.41,"N_COORD97":2576261.98,"ADDRESS":"界和路１７２號","OBJECTID":515377},"geometry":{"x":178553.41000000108,"y":2576261.9800000023}},{"attributes":{"ID":515405,"DIS_CODE":0,"TOWNNAME":"柳營區","LI":"人和里","LIN":"1鄰","STREET":"界和路","SECT":" ","MAREA":" ","LANE":" ","ALLEY":" ","HOUSE_NO":"１８６號","E_COORD97":178534.75,"N_COORD97":2576248.04,"ADDRESS":"界和路１８６號","OBJECTID":515378},"geometry":{"x":178534.75,"y":2576248.0399999991}},{"attributes":{"ID":515406,"DIS_CODE":0,"TOWNNAME":"柳營區","LI":"人和里","LIN":"1鄰","STREET":"界和路","SECT":" ","MAREA":" ","LANE":" ","ALLEY":" ","HOUSE_NO":"８７號","E_COORD97":178549.89999999999,"N_COORD97":2576181.9300000002,"ADDRESS":"界和路８７號","OBJECTID":515379},"geometry":{"x":178549.90000000224,"y":2576181.9299999978}},{"attributes":{"ID":515407,"DIS_CODE":0,"TOWNNAME":"柳營區","LI":"大農里","LIN":"1鄰","STREET":"義士路","SECT":"一段","MAREA":" ","LANE":" ","ALLEY":" ","HOUSE_NO":"２４８號","E_COORD97":186424.76999999999,"N_COORD97":2575847.1400000001,"ADDRESS":"義士路一段２４８號","OBJECTID":515380},"geometry":{"x":186424.77000000048,"y":2575847.1400000025}},{"attributes":{"ID":515408,"DIS_CODE":0,"TOWNNAME":"柳營區","LI":"大農里","LIN":"1鄰","STREET":"義士路","SECT":"一段","MAREA":" ","LANE":" ","ALLEY":" ","HOUSE_NO":"２５８號","E_COORD97":186377.44,"N_COORD97":2575837.29,"ADDRESS":"義士路一段２５８號","OBJECTID":515381},"geometry":{"x":186377.44000000041,"y":2575837.290000001}},{"attributes":{"ID":515409,"DIS_CODE":0,"TOWNNAME":"柳營區","LI":"大農里","LIN":"1鄰","STREET":"義士路","SECT":"一段","MAREA":" ","LANE":" ","ALLEY":" ","HOUSE_NO":"２６０號","E_COORD97":186362.26999999999,"N_COORD97":2575834.9500000002,"ADDRESS":"義士路一段２６０號","OBJECTID":515382},"geometry":{"x":186362.26999999955,"y":2575834.9499999993}},{"attributes":{"ID":515410,"DIS_CODE":0,"TOWNNAME":"柳營區","LI":"大農里","LIN":"1鄰","STREET":"義士路","SECT":"一段","MAREA":" ","LANE":" ","ALLEY":" ","HOUSE_NO":"２２８號","E_COORD97":186465.73999999999,"N_COORD97":2575855.46,"ADDRESS":"義士路一段２２８號","OBJECTID":515383},"geometry":{"x":186465.74000000209,"y":2575855.4600000028}},{"attributes":{"ID":515411,"DIS_CODE":0,"TOWNNAME":"柳營區","LI":"大農里","LIN":"1鄰","STREET":"義士路","SECT":"一段","MAREA":" ","LANE":" ","ALLEY":" ","HOUSE_NO":"２３６號","E_COORD97":186444.48000000001,"N_COORD97":2575844.5899999999,"ADDRESS":"義士路一段２３６號","OBJECTID":515384},"geometry":{"x":186444.48000000138,"y":2575844.5899999999}},{"attributes":{"ID":515412,"DIS_CODE":0,"TOWNNAME":"柳營區","LI":"大農里","LIN":"1鄰","STREET":"義士路","SECT":"一段","MAREA":" ","LANE":" ","ALLEY":" ","HOUSE_NO":"２６６號","E_COORD97":186336.20999999999,"N_COORD97":2575841.4900000002,"ADDRESS":"義士路一段２６６號","OBJECTID":515385},"geometry":{"x":186336.20999999996,"y":2575841.4900000021}},{"attributes":{"ID":515413,"DIS_CODE":0,"TOWNNAME":"柳營區","LI":"大農里","LIN":"1鄰","STREET":"義士路","SECT":"一段","MAREA":" ","LANE":" ","ALLEY":" ","HOUSE_NO":"２８２號","E_COORD97":186330.16,"N_COORD97":2575823.04,"ADDRESS":"義士路一段２８２號","OBJECTID":515386},"geometry":{"x":186330.16000000015,"y":2575823.040000001}},{"attributes":{"ID":515414,"DIS_CODE":0,"TOWNNAME":"柳營區","LI":"大農里","LIN":"1鄰","STREET":"義士路","SECT":"一段","MAREA":" ","LANE":" ","ALLEY":" ","HOUSE_NO":"２８６號","E_COORD97":186318.31,"N_COORD97":2575829.6200000001,"ADDRESS":"義士路一段２８６號","OBJECTID":515387},"geometry":{"x":186318.30999999959,"y":2575829.6200000048}},{"attributes":{"ID":515415,"DIS_CODE":0,"TOWNNAME":"柳營區","LI":"大農里","LIN":"1鄰","STREET":"義士路","SECT":"一段","MAREA":" ","LANE":" ","ALLEY":" ","HOUSE_NO":"２９０號","E_COORD97":186302.95999999999,"N_COORD97":2575819.29,"ADDRESS":"義士路一段２９０號","OBJECTID":515388},"geometry":{"x":186302.96000000183,"y":2575819.2899999991}},{"attributes":{"ID":515416,"DIS_CODE":0,"TOWNNAME":"柳營區","LI":"大農里","LIN":"1鄰","STREET":"義士路","SECT":"一段","MAREA":" ","LANE":" ","ALLEY":" ","HOUSE_NO":"２９２號","E_COORD97":186298.17000000001,"N_COORD97":2575817.3599999999,"ADDRESS":"義士路一段２９２號","OBJECTID":515389},"geometry":{"x":186298.17000000179,"y":2575817.3600000013}},{"attributes":{"ID":515417,"DIS_CODE":0,"TOWNNAME":"柳營區","LI":"大農里","LIN":"1鄰","STREET":"義士路","SECT":"一段","MAREA":" ","LANE":" ","ALLEY":" ","HOUSE_NO":"２９６號","E_COORD97":186293.35000000001,"N_COORD97":2575816.0600000001,"ADDRESS":"義士路一段２９６號","OBJECTID":515390},"geometry":{"x":186293.35000000056,"y":2575816.0600000042}},{"attributes":{"ID":515418,"DIS_CODE":0,"TOWNNAME":"柳營區","LI":"重溪里","LIN":"1鄰","STREET":"義士路","SECT":"二段","MAREA":" ","LANE":" ","ALLEY":" ","HOUSE_NO":"３６０號","E_COORD97":184085.20000000001,"N_COORD97":2576167.4500000002,"ADDRESS":"義士路二段３６０號","OBJECTID":515391},"geometry":{"x":184085.20000000019,"y":2576167.4499999993}},{"attributes":{"ID":515419,"DIS_CODE":0,"TOWNNAME":"柳營區","LI":"重溪里","LIN":"1鄰","STREET":"義士路","SECT":"二段","MAREA":" ","LANE":" ","ALLEY":" ","HOUSE_NO":"３６２號","E_COORD97":184079.04999999999,"N_COORD97":2576178.3700000001,"ADDRESS":"義士路二段３６２號","OBJECTID":515392},"geometry":{"x":184079.04999999981,"y":2576178.3700000029}},{"attributes":{"ID":515420,"DIS_CODE":0,"TOWNNAME":"柳營區","LI":"重溪里","LIN":"1鄰","STREET":"義士路","SECT":"二段","MAREA":" ","LANE":" ","ALLEY":" ","HOUSE_NO":"４３８號","E_COORD97":183943.39000000001,"N_COORD97":2576209.0899999999,"ADDRESS":"義士路二段４３８號","OBJECTID":515393},"geometry":{"x":183943.39000000153,"y":2576209.0900000017}},{"attributes":{"ID":515421,"DIS_CODE":0,"TOWNNAME":"柳營區","LI":"重溪里","LIN":"1鄰","STREET":"義士路","SECT":"二段","MAREA":" ","LANE":" ","ALLEY":" ","HOUSE_NO":"４７８號","E_COORD97":183859.56,"N_COORD97":2576247.0600000001,"ADDRESS":"義士路二段４７８號","OBJECTID":515394},"geometry":{"x":183859.56000000052,"y":2576247.0600000024}},{"attributes":{"ID":515422,"DIS_CODE":0,"TOWNNAME":"柳營區","LI":"重溪里","LIN":"1鄰","STREET":"義士路","SECT":"二段","MAREA":" ","LANE":" ","ALLEY":" ","HOUSE_NO":"６２６號","E_COORD97":183720.01999999999,"N_COORD97":2576349.5,"ADDRESS":"義士路二段６２６號","OBJECTID":515395},"geometry":{"x":183720.01999999955,"y":2576349.5000000019}},{"attributes":{"ID":515423,"DIS_CODE":0,"TOWNNAME":"柳營區","LI":"重溪里","LIN":"1鄰","STREET":"義士路","SECT":"二段","MAREA":" ","LANE":" ","ALLEY":" ","HOUSE_NO":"６號","E_COORD97":184890.70999999999,"N_COORD97":2576069.1499999999,"ADDRESS":"義士路二段６號","OBJECTID":515396},"geometry":{"x":184890.70999999903,"y":2576069.1500000004}},{"attributes":{"ID":515424,"DIS_CODE":0,"TOWNNAME":"柳營區","LI":"重溪里","LIN":"1鄰","STREET":"義士路","SECT":"二段","MAREA":" ","LANE":" ","ALLEY":" ","HOUSE_NO":"８２號","E_COORD97":184756.70000000001,"N_COORD97":2576097.71,"ADDRESS":"義士路二段８２號","OBJECTID":515397},"geometry":{"x":184756.70000000019,"y":2576097.7100000028}},{"attributes":{"ID":515425,"DIS_CODE":0,"TOWNNAME":"柳營區","LI":"重溪里","LIN":"1鄰","STREET":"義士路","SECT":"二段","MAREA":" ","LANE":" ","ALLEY":" ","HOUSE_NO":"８６號","E_COORD97":184737.85999999999,"N_COORD97":2576092.6200000001,"ADDRESS":"義士路二段８６號","OBJECTID":515398},"geometry":{"x":184737.86000000127,"y":2576092.620000001}},{"attributes":{"ID":515426,"DIS_CODE":0,"TOWNNAME":"北區","LI":"實踐里","LIN":"1鄰","STREET":"實踐街","SECT":" ","MAREA":" ","LANE":" ","ALLEY":" ","HOUSE_NO":"８８號","E_COORD97":169963.42999999999,"N_COORD97":2546001.9100000001,"ADDRESS":"實踐街８８號","OBJECTID":515399},"geometry":{"x":169963.43000000063,"y":2546001.910000002}},{"attributes":{"ID":515427,"DIS_CODE":0,"TOWNNAME":"北區","LI":"國興里","LIN":"1鄰","STREET":"開元路","SECT":" ","MAREA":" ","LANE":" ","ALLEY":" ","HOUSE_NO":"３９０號","E_COORD97":170556.73999999999,"N_COORD97":2545621.0699999998,"ADDRESS":"開元路３９０號","OBJECTID":515400},"geometry":{"x":170556.74000000115,"y":2545621.070000004}}]}