{"displayFieldName":"TOWNNAME","fieldAliases":{"ID":"ID","DIS_CODE":"DIS_CODE","TOWNNAME":"TOWNNAME","LI":"LI","LIN":"LIN","STREET":"STREET","SECT":"SECT","MAREA":"MAREA","LANE":"LANE","ALLEY":"ALLEY","HOUSE_NO":"HOUSE_NO","E_COORD97":"E_COORD97","N_COORD97":"N_COORD97","ADDRESS":"ADDRESS","OBJECTID":"OBJECTID"},"geometryType":"esriGeometryPoint","spatialReference":{"wkid":102443,"latestWkid":3826},"fields":[{"name":"ID","type":"esriFieldTypeDouble","alias":"ID"},{"name":"DIS_CODE","type":"esriFieldTypeInteger","alias":"DIS_CODE"},{"name":"TOWNNAME","type":"esriFieldTypeString","alias":"TOWNNAME","length":8},{"name":"LI","type":"esriFieldTypeString","alias":"LI","length":8},{"name":"LIN","type":"esriFieldTypeString","alias":"LIN","length":12},{"name":"STREET","type":"esriFieldTypeString","alias":"STREET","length":20},{"name":"SECT","type":"esriFieldTypeString","alias":"SECT","length":8},{"name":"MAREA","type":"esriFieldTypeString","alias":"MAREA","length":12},{"name":"LANE","type":"esriFieldTypeString","alias":"LANE","length":10},{"name":"ALLEY","type":"esriFieldTypeString","alias":"ALLEY","length":10},{"name":"HOUSE_NO","type":"esriFieldTypeString","alias":"HOUSE_NO","length":20},{"name":"E_COORD97","type":"esriFieldTypeDouble","alias":"E_COORD97"},{"name":"N_COORD97","type":"esriFieldTypeDouble","alias":"N_COORD97"},{"name":"ADDRESS","type":"esriFieldTypeString","alias":"ADDRESS","length":50},{"name":"OBJECTID","type":"esriFieldTypeOID","alias":"OBJECTID"}],"features":[{"attributes":{"ID":335810,"DIS_CODE":0,"TOWNNAME":"北區","LI":"勝安里","LIN":"5鄰","STREET":"開元路","SECT":" ","MAREA":" ","LANE":" ","ALLEY":" ","HOUSE_NO":"１４７號地下層之１","E_COORD97":169896.14000000001,"N_COORD97":2545268.9399999999,"ADDRESS":"開元路１４７號地下層之１","OBJECTID":335801},"geometry":{"x":169896.1400000006,"y":2545268.9400000013}},{"attributes":{"ID":335811,"DIS_CODE":0,"TOWNNAME":"安南區","LI":"頂安里","LIN":"8鄰","STREET":"頂安街","SECT":" ","MAREA":" ","LANE":" ","ALLEY":" ","HOUSE_NO":"５４２號之１","E_COORD97":168599.14000000001,"N_COORD97":2549297.1400000001,"ADDRESS":"頂安街５４２號之１","OBJECTID":335802},"geometry":{"x":168599.1400000006,"y":2549297.1400000025}},{"attributes":{"ID":335812,"DIS_CODE":0,"TOWNNAME":"中西區","LI":"文賢里","LIN":"8鄰","STREET":"和善街","SECT":" ","MAREA":" ","LANE":" ","ALLEY":" ","HOUSE_NO":"６８號","E_COORD97":166995.82000000001,"N_COORD97":2544723.1299999999,"ADDRESS":"和善街６８號","OBJECTID":335803},"geometry":{"x":166995.8200000003,"y":2544723.129999999}},{"attributes":{"ID":335813,"DIS_CODE":0,"TOWNNAME":"中西區","LI":"文賢里","LIN":"8鄰","STREET":"和善街","SECT":" ","MAREA":" ","LANE":" ","ALLEY":" ","HOUSE_NO":"７０號","E_COORD97":166992.41,"N_COORD97":2544726.4300000002,"ADDRESS":"和善街７０號","OBJECTID":335804},"geometry":{"x":166992.41000000108,"y":2544726.4300000034}},{"attributes":{"ID":335814,"DIS_CODE":0,"TOWNNAME":"中西區","LI":"文賢里","LIN":"8鄰","STREET":"和善街","SECT":" ","MAREA":" ","LANE":" ","ALLEY":" ","HOUSE_NO":"７４號","E_COORD97":166986.34,"N_COORD97":2544733.7599999998,"ADDRESS":"和善街７４號","OBJECTID":335805},"geometry":{"x":166986.33999999985,"y":2544733.7599999998}},{"attributes":{"ID":335815,"DIS_CODE":0,"TOWNNAME":"中西區","LI":"文賢里","LIN":"8鄰","STREET":"和善街","SECT":" ","MAREA":" ","LANE":" ","ALLEY":" ","HOUSE_NO":"８２號","E_COORD97":166975.56,"N_COORD97":2544751.23,"ADDRESS":"和善街８２號","OBJECTID":335806},"geometry":{"x":166975.56000000052,"y":2544751.2300000004}},{"attributes":{"ID":335816,"DIS_CODE":0,"TOWNNAME":"學甲區","LI":"中洲里","LIN":"36鄰","STREET":" ","SECT":" ","MAREA":"中洲","LANE":" ","ALLEY":" ","HOUSE_NO":"４８１號","E_COORD97":163813.14000000001,"N_COORD97":2571621.1800000002,"ADDRESS":"中洲４８１號","OBJECTID":335807},"geometry":{"x":163813.1400000006,"y":2571621.1800000016}},{"attributes":{"ID":335817,"DIS_CODE":0,"TOWNNAME":"永康區","LI":"北灣里","LIN":"36鄰","STREET":"大灣路","SECT":" ","MAREA":" ","LANE":"４０巷","ALLEY":" ","HOUSE_NO":"１２２號","E_COORD97":174915.94,"N_COORD97":2546261.6699999999,"ADDRESS":"大灣路４０巷１２２號","OBJECTID":335808},"geometry":{"x":174915.94000000134,"y":2546261.6700000018}},{"attributes":{"ID":335818,"DIS_CODE":0,"TOWNNAME":"永康區","LI":"北灣里","LIN":"36鄰","STREET":"大灣路","SECT":" ","MAREA":" ","LANE":"４０巷","ALLEY":" ","HOUSE_NO":"１２６號","E_COORD97":174912.31,"N_COORD97":2546264.4399999999,"ADDRESS":"大灣路４０巷１２６號","OBJECTID":335809},"geometry":{"x":174912.31000000052,"y":2546264.4399999995}},{"attributes":{"ID":335819,"DIS_CODE":0,"TOWNNAME":"永康區","LI":"北灣里","LIN":"36鄰","STREET":"大灣路","SECT":" ","MAREA":" ","LANE":"４０巷","ALLEY":" ","HOUSE_NO":"１４２號","E_COORD97":174875.14000000001,"N_COORD97":2546313.4900000002,"ADDRESS":"大灣路４０巷１４２號","OBJECTID":335810},"geometry":{"x":174875.13999999966,"y":2546313.4900000021}},{"attributes":{"ID":335820,"DIS_CODE":0,"TOWNNAME":"永康區","LI":"\u25A0行里","LIN":"36鄰","STREET":"三村一街","SECT":" ","MAREA":" ","LANE":"３０巷","ALLEY":" ","HOUSE_NO":"７號","E_COORD97":172251.39999999999,"N_COORD97":2549286.23,"ADDRESS":"三村一街３０巷７號","OBJECTID":335811},"geometry":{"x":172251.4000000013,"y":2549286.2300000023}},{"attributes":{"ID":335821,"DIS_CODE":0,"TOWNNAME":"安南區","LI":"溪頂里","LIN":"1鄰","STREET":"惠安街","SECT":" ","MAREA":" ","LANE":"３９巷","ALLEY":" ","HOUSE_NO":"８號","E_COORD97":169042.35000000001,"N_COORD97":2547455.9399999999,"ADDRESS":"惠安街３９巷８號","OBJECTID":335812},"geometry":{"x":169042.34999999963,"y":2547455.9400000013}},{"attributes":{"ID":335822,"DIS_CODE":0,"TOWNNAME":"安南區","LI":"溪頂里","LIN":"1鄰","STREET":"惠安街","SECT":" ","MAREA":" ","LANE":"３９巷","ALLEY":" ","HOUSE_NO":"９號","E_COORD97":169069.34,"N_COORD97":2547449.3999999999,"ADDRESS":"惠安街３９巷９號","OBJECTID":335813},"geometry":{"x":169069.34000000078,"y":2547449.3999999985}},{"attributes":{"ID":335823,"DIS_CODE":0,"TOWNNAME":"安南區","LI":"溪頂里","LIN":"1鄰","STREET":"惠安街","SECT":" ","MAREA":" ","LANE":"５１巷","ALLEY":" ","HOUSE_NO":"１號","E_COORD97":169021.10999999999,"N_COORD97":2547469.0899999999,"ADDRESS":"惠安街５１巷１號","OBJECTID":335814},"geometry":{"x":169021.11000000034,"y":2547469.0900000017}},{"attributes":{"ID":335824,"DIS_CODE":0,"TOWNNAME":"安南區","LI":"溪頂里","LIN":"1鄰","STREET":"惠安街","SECT":" ","MAREA":" ","LANE":"５１巷","ALLEY":" ","HOUSE_NO":"３號","E_COORD97":169020.98000000001,"N_COORD97":2547460.6099999999,"ADDRESS":"惠安街５１巷３號","OBJECTID":335815},"geometry":{"x":169020.98000000138,"y":2547460.6100000031}},{"attributes":{"ID":335825,"DIS_CODE":0,"TOWNNAME":"安南區","LI":"溪頂里","LIN":"1鄰","STREET":"惠安街","SECT":" ","MAREA":" ","LANE":"５１巷","ALLEY":" ","HOUSE_NO":"７號","E_COORD97":169022.25,"N_COORD97":2547444.8900000001,"ADDRESS":"惠安街５１巷７號","OBJECTID":335816},"geometry":{"x":169022.25000000093,"y":2547444.8900000006}},{"attributes":{"ID":335826,"DIS_CODE":0,"TOWNNAME":"永康區","LI":"建國里","LIN":"1鄰","STREET":"復興路","SECT":" ","MAREA":" ","LANE":"２６巷","ALLEY":" ","HOUSE_NO":"７４之２號","E_COORD97":173124.73000000001,"N_COORD97":2544960.71,"ADDRESS":"復興路２６巷７４之２號","OBJECTID":335817},"geometry":{"x":173124.73000000045,"y":2544960.7100000028}},{"attributes":{"ID":335827,"DIS_CODE":0,"TOWNNAME":"永康區","LI":"永康里","LIN":"1鄰","STREET":"中山北路","SECT":" ","MAREA":" ","LANE":"７９巷","ALLEY":" ","HOUSE_NO":"１０號之４","E_COORD97":174014.37,"N_COORD97":2547470.2000000002,"ADDRESS":"中山北路７９巷１０號之４","OBJECTID":335818},"geometry":{"x":174014.37000000104,"y":2547470.200000003}},{"attributes":{"ID":335828,"DIS_CODE":0,"TOWNNAME":"永康區","LI":"西勢里","LIN":"1鄰","STREET":"富強路","SECT":"二段","MAREA":" ","LANE":"１９巷","ALLEY":" ","HOUSE_NO":"２４號","E_COORD97":175620.39000000001,"N_COORD97":2546873.1099999999,"ADDRESS":"富強路二段１９巷２４號","OBJECTID":335819},"geometry":{"x":175620.3900000006,"y":2546873.1099999994}},{"attributes":{"ID":335829,"DIS_CODE":0,"TOWNNAME":"永康區","LI":"尚頂里","LIN":"1鄰","STREET":"尚頂路","SECT":" ","MAREA":" ","LANE":"１７７巷","ALLEY":" ","HOUSE_NO":"３號","E_COORD97":170763.51999999999,"N_COORD97":2547863.5,"ADDRESS":"尚頂路１７７巷３號","OBJECTID":335820},"geometry":{"x":170763.51999999955,"y":2547863.5000000019}},{"attributes":{"ID":335830,"DIS_CODE":0,"TOWNNAME":"永康區","LI":"永康里","LIN":"1鄰","STREET":"中山北路","SECT":" ","MAREA":" ","LANE":"７９巷","ALLEY":" ","HOUSE_NO":"１６號","E_COORD97":174012.69,"N_COORD97":2547483.21,"ADDRESS":"中山北路７９巷１６號","OBJECTID":335821},"geometry":{"x":174012.69000000041,"y":2547483.2100000028}},{"attributes":{"ID":335831,"DIS_CODE":0,"TOWNNAME":"南區","LI":"田寮里","LIN":"10鄰","STREET":"新興路","SECT":" ","MAREA":" ","LANE":"１１３巷","ALLEY":" ","HOUSE_NO":"５３號","E_COORD97":167576.89999999999,"N_COORD97":2542031.1000000001,"ADDRESS":"新興路１１３巷５３號","OBJECTID":335822},"geometry":{"x":167576.89999999944,"y":2542031.1000000015}},{"attributes":{"ID":335832,"DIS_CODE":0,"TOWNNAME":"南區","LI":"白雪里","LIN":"1鄰","STREET":"鹽埕路","SECT":" ","MAREA":" ","LANE":"１５９巷","ALLEY":" ","HOUSE_NO":"８６號","E_COORD97":166628.66,"N_COORD97":2541190.4399999999,"ADDRESS":"鹽埕路１５９巷８６號","OBJECTID":335823},"geometry":{"x":166628.66000000015,"y":2541190.4400000013}},{"attributes":{"ID":335833,"DIS_CODE":0,"TOWNNAME":"永康區","LI":"東橋里","LIN":"1鄰","STREET":"中山南路","SECT":" ","MAREA":" ","LANE":"１９５巷","ALLEY":" ","HOUSE_NO":"８７號","E_COORD97":171348.92000000001,"N_COORD97":2546536.04,"ADDRESS":"中山南路１９５巷８７號","OBJECTID":335824},"geometry":{"x":171348.92000000086,"y":2546536.040000001}},{"attributes":{"ID":335834,"DIS_CODE":0,"TOWNNAME":"東區","LI":"復興里","LIN":"1鄰","STREET":"富農街","SECT":"一段","MAREA":" ","LANE":"２５８巷","ALLEY":" ","HOUSE_NO":"１０號","E_COORD97":171627.85999999999,"N_COORD97":2542640.8700000001,"ADDRESS":"富農街一段２５８巷１０號","OBJECTID":335825},"geometry":{"x":171627.86000000127,"y":2542640.8700000029}},{"attributes":{"ID":335835,"DIS_CODE":0,"TOWNNAME":"東區","LI":"復興里","LIN":"1鄰","STREET":"富農街","SECT":"一段","MAREA":" ","LANE":"２５８巷","ALLEY":" ","HOUSE_NO":"１１號","E_COORD97":171635.34,"N_COORD97":2542657.8199999998,"ADDRESS":"富農街一段２５８巷１１號","OBJECTID":335826},"geometry":{"x":171635.34000000078,"y":2542657.8200000003}},{"attributes":{"ID":335836,"DIS_CODE":0,"TOWNNAME":"東區","LI":"復興里","LIN":"1鄰","STREET":"富農街","SECT":"一段","MAREA":" ","LANE":"２５８巷","ALLEY":" ","HOUSE_NO":"１２號","E_COORD97":171632.26999999999,"N_COORD97":2542640.7999999998,"ADDRESS":"富農街一段２５８巷１２號","OBJECTID":335827},"geometry":{"x":171632.27000000048,"y":2542640.8000000026}},{"attributes":{"ID":335837,"DIS_CODE":0,"TOWNNAME":"東區","LI":"復興里","LIN":"1鄰","STREET":"富農街","SECT":"一段","MAREA":" ","LANE":"２５８巷","ALLEY":" ","HOUSE_NO":"１３號","E_COORD97":171640.45000000001,"N_COORD97":2542658.5,"ADDRESS":"富農街一段２５８巷１３號","OBJECTID":335828},"geometry":{"x":171640.45000000112,"y":2542658.5000000019}},{"attributes":{"ID":335838,"DIS_CODE":0,"TOWNNAME":"東區","LI":"復興里","LIN":"1鄰","STREET":"富農街","SECT":"一段","MAREA":" ","LANE":"２５８巷","ALLEY":" ","HOUSE_NO":"１４號","E_COORD97":171637.38,"N_COORD97":2542642.1600000001,"ADDRESS":"富農街一段２５８巷１４號","OBJECTID":335829},"geometry":{"x":171637.38000000082,"y":2542642.1600000001}},{"attributes":{"ID":335839,"DIS_CODE":0,"TOWNNAME":"東區","LI":"復興里","LIN":"1鄰","STREET":"富農街","SECT":"一段","MAREA":" ","LANE":"２５８巷","ALLEY":" ","HOUSE_NO":"１５號","E_COORD97":171645.23000000001,"N_COORD97":2542658.8399999999,"ADDRESS":"富農街一段２５８巷１５號","OBJECTID":335830},"geometry":{"x":171645.23000000138,"y":2542658.8400000036}},{"attributes":{"ID":335840,"DIS_CODE":0,"TOWNNAME":"東區","LI":"復興里","LIN":"1鄰","STREET":"富農街","SECT":"一段","MAREA":" ","LANE":"２５８巷","ALLEY":" ","HOUSE_NO":"１６號","E_COORD97":171641.82000000001,"N_COORD97":2542642.5,"ADDRESS":"富農街一段２５８巷１６號","OBJECTID":335831},"geometry":{"x":171641.8200000003,"y":2542642.5000000019}},{"attributes":{"ID":335841,"DIS_CODE":0,"TOWNNAME":"東區","LI":"復興里","LIN":"1鄰","STREET":"富農街","SECT":"一段","MAREA":" ","LANE":"２５８巷","ALLEY":" ","HOUSE_NO":"１７號","E_COORD97":171649.66,"N_COORD97":2542659.1800000002,"ADDRESS":"富農街一段２５８巷１７號","OBJECTID":335832},"geometry":{"x":171649.66000000015,"y":2542659.1799999997}},{"attributes":{"ID":335842,"DIS_CODE":0,"TOWNNAME":"東區","LI":"復興里","LIN":"1鄰","STREET":"富農街","SECT":"一段","MAREA":" ","LANE":"２５８巷","ALLEY":" ","HOUSE_NO":"１８號","E_COORD97":171646.92999999999,"N_COORD97":2542642.5,"ADDRESS":"富農街一段２５８巷１８號","OBJECTID":335833},"geometry":{"x":171646.93000000063,"y":2542642.5000000019}},{"attributes":{"ID":335843,"DIS_CODE":0,"TOWNNAME":"東區","LI":"復興里","LIN":"1鄰","STREET":"富農街","SECT":"一段","MAREA":" ","LANE":"２５８巷","ALLEY":" ","HOUSE_NO":"１９號","E_COORD97":171654.42999999999,"N_COORD97":2542660.2000000002,"ADDRESS":"富農街一段２５８巷１９號","OBJECTID":335834},"geometry":{"x":171654.4299999997,"y":2542660.2000000011}},{"attributes":{"ID":335844,"DIS_CODE":0,"TOWNNAME":"東區","LI":"復興里","LIN":"1鄰","STREET":"富農街","SECT":"一段","MAREA":" ","LANE":"２５８巷","ALLEY":" ","HOUSE_NO":"１號","E_COORD97":171611.54999999999,"N_COORD97":2542655.7999999998,"ADDRESS":"富農街一段２５８巷１號","OBJECTID":335835},"geometry":{"x":171611.54999999888,"y":2542655.8000000007}},{"attributes":{"ID":335845,"DIS_CODE":0,"TOWNNAME":"中西區","LI":"文賢里","LIN":"8鄰","STREET":"和善街","SECT":" ","MAREA":" ","LANE":" ","ALLEY":" ","HOUSE_NO":"８６號","E_COORD97":166969.5,"N_COORD97":2544761.54,"ADDRESS":"和善街８６號","OBJECTID":335836},"geometry":{"x":166969.50000000093,"y":2544761.5399999991}},{"attributes":{"ID":335846,"DIS_CODE":0,"TOWNNAME":"中西區","LI":"文賢里","LIN":"8鄰","STREET":"和善街","SECT":" ","MAREA":" ","LANE":" ","ALLEY":" ","HOUSE_NO":"８８號","E_COORD97":166967.26000000001,"N_COORD97":2544765.1499999999,"ADDRESS":"和善街８８號","OBJECTID":335837},"geometry":{"x":166967.26000000071,"y":2544765.1500000004}},{"attributes":{"ID":335847,"DIS_CODE":0,"TOWNNAME":"中西區","LI":"文賢里","LIN":"8鄰","STREET":"和善街","SECT":" ","MAREA":" ","LANE":" ","ALLEY":" ","HOUSE_NO":"９０號","E_COORD97":166966.09,"N_COORD97":2544768.98,"ADDRESS":"和善街９０號","OBJECTID":335838},"geometry":{"x":166966.08999999985,"y":2544768.9800000023}},{"attributes":{"ID":335848,"DIS_CODE":0,"TOWNNAME":"麻豆區","LI":"中興里","LIN":"8鄰","STREET":"三民路","SECT":" ","MAREA":" ","LANE":" ","ALLEY":" ","HOUSE_NO":"５５號","E_COORD97":172812.75,"N_COORD97":2564372.1800000002,"ADDRESS":"三民路５５號","OBJECTID":335839},"geometry":{"x":172812.75000000093,"y":2564372.1800000016}},{"attributes":{"ID":335849,"DIS_CODE":0,"TOWNNAME":"永康區","LI":"\u25A0洲里","LIN":"36鄰","STREET":"\u25A0洲二街","SECT":" ","MAREA":" ","LANE":"１７５巷","ALLEY":" ","HOUSE_NO":"７９號","E_COORD97":171633.23999999999,"N_COORD97":2549502.2400000002,"ADDRESS":"\u25A0洲二街１７５巷７９號","OBJECTID":335840},"geometry":{"x":171633.24000000115,"y":2549502.2400000021}},{"attributes":{"ID":335850,"DIS_CODE":0,"TOWNNAME":"永康區","LI":"\u25A0洲里","LIN":"36鄰","STREET":"\u25A0洲二街","SECT":" ","MAREA":" ","LANE":"１７５巷","ALLEY":" ","HOUSE_NO":"４５號","E_COORD97":171628.41,"N_COORD97":2549486.1400000001,"ADDRESS":"\u25A0洲二街１７５巷４５號","OBJECTID":335841},"geometry":{"x":171628.41000000108,"y":2549486.1400000025}},{"attributes":{"ID":335851,"DIS_CODE":0,"TOWNNAME":"永康區","LI":"西灣里","LIN":"36鄰","STREET":"大勇路","SECT":" ","MAREA":" ","LANE":"１３５巷","ALLEY":" ","HOUSE_NO":"２４號","E_COORD97":174191.67999999999,"N_COORD97":2545653,"ADDRESS":"大勇路１３５巷２４號","OBJECTID":335842},"geometry":{"x":174191.6799999997,"y":2545653.0000000019}},{"attributes":{"ID":335852,"DIS_CODE":0,"TOWNNAME":"永康區","LI":"復華里","LIN":"36鄰","STREET":"復國一路","SECT":" ","MAREA":" ","LANE":"４７５巷","ALLEY":" ","HOUSE_NO":"１９號","E_COORD97":172565.59,"N_COORD97":2546074.3599999999,"ADDRESS":"復國一路４７５巷１９號","OBJECTID":335843},"geometry":{"x":172565.58999999985,"y":2546074.3599999994}},{"attributes":{"ID":335853,"DIS_CODE":0,"TOWNNAME":"永康區","LI":"崑山里","LIN":"36鄰","STREET":"大仁街","SECT":" ","MAREA":" ","LANE":"１８１巷","ALLEY":" ","HOUSE_NO":"１３號","E_COORD97":173853,"N_COORD97":2545005.5299999998,"ADDRESS":"大仁街１８１巷１３號","OBJECTID":335844},"geometry":{"x":173853,"y":2545005.5299999993}},{"attributes":{"ID":335854,"DIS_CODE":0,"TOWNNAME":"永康區","LI":"崑山里","LIN":"36鄰","STREET":"大仁街","SECT":" ","MAREA":" ","LANE":"１９９巷","ALLEY":" ","HOUSE_NO":"７號之２","E_COORD97":173895.39000000001,"N_COORD97":2545042.04,"ADDRESS":"大仁街１９９巷７號之２","OBJECTID":335845},"geometry":{"x":173895.38999999966,"y":2545042.0399999991}},{"attributes":{"ID":335855,"DIS_CODE":0,"TOWNNAME":"永康區","LI":"崑山里","LIN":"36鄰","STREET":"大仁街","SECT":" ","MAREA":" ","LANE":"１９９巷","ALLEY":" ","HOUSE_NO":"２９號","E_COORD97":173848.89000000001,"N_COORD97":2545066.7999999998,"ADDRESS":"大仁街１９９巷２９號","OBJECTID":335846},"geometry":{"x":173848.8900000006,"y":2545066.8000000007}},{"attributes":{"ID":335856,"DIS_CODE":0,"TOWNNAME":"永康區","LI":"崑山里","LIN":"36鄰","STREET":"大仁街","SECT":" ","MAREA":" ","LANE":"１９９巷","ALLEY":" ","HOUSE_NO":"３７號","E_COORD97":173831.95999999999,"N_COORD97":2545069.7999999998,"ADDRESS":"大仁街１９９巷３７號","OBJECTID":335847},"geometry":{"x":173831.96000000089,"y":2545069.8000000007}},{"attributes":{"ID":335857,"DIS_CODE":0,"TOWNNAME":"中西區","LI":"安海里","LIN":"21鄰","STREET":"民生路","SECT":"二段","MAREA":" ","LANE":"４６３巷","ALLEY":" ","HOUSE_NO":"２號","E_COORD97":166750.23000000001,"N_COORD97":2544219.29,"ADDRESS":"民生路二段４６３巷２號","OBJECTID":335848},"geometry":{"x":166750.23000000045,"y":2544219.290000001}},{"attributes":{"ID":335858,"DIS_CODE":0,"TOWNNAME":"東區","LI":"復興里","LIN":"1鄰","STREET":"富農街","SECT":"一段","MAREA":" ","LANE":"２５８巷","ALLEY":" ","HOUSE_NO":"２０號","E_COORD97":171651.70000000001,"N_COORD97":2542643.52,"ADDRESS":"富農街一段２５８巷２０號","OBJECTID":335849},"geometry":{"x":171651.70000000205,"y":2542643.5199999977}},{"attributes":{"ID":335859,"DIS_CODE":0,"TOWNNAME":"東區","LI":"復興里","LIN":"1鄰","STREET":"富農街","SECT":"一段","MAREA":" ","LANE":"２５８巷","ALLEY":" ","HOUSE_NO":"２１號","E_COORD97":171660.22,"N_COORD97":2542660.8799999999,"ADDRESS":"富農街一段２５８巷２１號","OBJECTID":335850},"geometry":{"x":171660.22000000067,"y":2542660.8799999971}},{"attributes":{"ID":335860,"DIS_CODE":0,"TOWNNAME":"玉井區","LI":"沙田里","LIN":"5鄰","STREET":" ","SECT":" ","MAREA":"沙田","LANE":" ","ALLEY":" ","HOUSE_NO":"４９號","E_COORD97":197411.37,"N_COORD97":2556715.2799999998,"ADDRESS":"沙田４９號","OBJECTID":335851},"geometry":{"x":197411.37000000104,"y":2556715.2800000031}},{"attributes":{"ID":335861,"DIS_CODE":0,"TOWNNAME":"東區","LI":"復興里","LIN":"1鄰","STREET":"富農街","SECT":"一段","MAREA":" ","LANE":"２５８巷","ALLEY":" ","HOUSE_NO":"２２號","E_COORD97":171656.82000000001,"N_COORD97":2542644.54,"ADDRESS":"富農街一段２５８巷２２號","OBJECTID":335852},"geometry":{"x":171656.82000000123,"y":2542644.540000001}},{"attributes":{"ID":335862,"DIS_CODE":0,"TOWNNAME":"東區","LI":"復興里","LIN":"1鄰","STREET":"富農街","SECT":"一段","MAREA":" ","LANE":"２５８巷","ALLEY":" ","HOUSE_NO":"２３號","E_COORD97":171665.34,"N_COORD97":2542661.2200000002,"ADDRESS":"富農街一段２５８巷２３號","OBJECTID":335853},"geometry":{"x":171665.33999999985,"y":2542661.2200000025}},{"attributes":{"ID":335863,"DIS_CODE":0,"TOWNNAME":"東區","LI":"復興里","LIN":"1鄰","STREET":"富農街","SECT":"一段","MAREA":" ","LANE":"２５８巷","ALLEY":" ","HOUSE_NO":"２４號","E_COORD97":171661.92999999999,"N_COORD97":2542643.8599999999,"ADDRESS":"富農街一段２５８巷２４號","OBJECTID":335854},"geometry":{"x":171661.93000000063,"y":2542643.8599999994}},{"attributes":{"ID":335864,"DIS_CODE":0,"TOWNNAME":"仁德區","LI":"土庫里","LIN":"8鄰","STREET":"土庫路","SECT":" ","MAREA":" ","LANE":" ","ALLEY":" ","HOUSE_NO":"１８號","E_COORD97":174205.48000000001,"N_COORD97":2543355.2400000002,"ADDRESS":"土庫路１８號","OBJECTID":335855},"geometry":{"x":174205.48000000138,"y":2543355.2400000021}},{"attributes":{"ID":335865,"DIS_CODE":0,"TOWNNAME":"永康區","LI":"三合里","LIN":"8鄰","STREET":"南工街","SECT":" ","MAREA":" ","LANE":" ","ALLEY":" ","HOUSE_NO":"１４１號","E_COORD97":172090.14000000001,"N_COORD97":2545803.1600000001,"ADDRESS":"南工街１４１號","OBJECTID":335856},"geometry":{"x":172090.13999999966,"y":2545803.1600000039}},{"attributes":{"ID":335866,"DIS_CODE":0,"TOWNNAME":"永康區","LI":"三合里","LIN":"8鄰","STREET":"南工街","SECT":" ","MAREA":" ","LANE":" ","ALLEY":" ","HOUSE_NO":"１４３號之２","E_COORD97":172092.29000000001,"N_COORD97":2545816.21,"ADDRESS":"南工街１４３號之２","OBJECTID":335857},"geometry":{"x":172092.29000000097,"y":2545816.2100000009}},{"attributes":{"ID":335867,"DIS_CODE":0,"TOWNNAME":"永康區","LI":"三合里","LIN":"8鄰","STREET":"南工街","SECT":" ","MAREA":" ","LANE":" ","ALLEY":" ","HOUSE_NO":"１１５號","E_COORD97":172090.95999999999,"N_COORD97":2545745.9900000002,"ADDRESS":"南工街１１５號","OBJECTID":335858},"geometry":{"x":172090.96000000089,"y":2545745.9900000002}},{"attributes":{"ID":335868,"DIS_CODE":0,"TOWNNAME":"永康區","LI":"三合里","LIN":"8鄰","STREET":"南工街","SECT":" ","MAREA":" ","LANE":" ","ALLEY":" ","HOUSE_NO":"１３１號","E_COORD97":172089.54000000001,"N_COORD97":2545780.2400000002,"ADDRESS":"南工街１３１號","OBJECTID":335859},"geometry":{"x":172089.54000000004,"y":2545780.2400000021}},{"attributes":{"ID":335869,"DIS_CODE":0,"TOWNNAME":"永康區","LI":"三合里","LIN":"8鄰","STREET":"南工街","SECT":" ","MAREA":" ","LANE":" ","ALLEY":" ","HOUSE_NO":"１３９號","E_COORD97":172090.39000000001,"N_COORD97":2545799.4100000001,"ADDRESS":"南工街１３９號","OBJECTID":335860},"geometry":{"x":172090.38999999966,"y":2545799.410000002}},{"attributes":{"ID":335870,"DIS_CODE":0,"TOWNNAME":"仁德區","LI":"仁義里","LIN":"8鄰","STREET":"中山路","SECT":" ","MAREA":" ","LANE":" ","ALLEY":" ","HOUSE_NO":"４５３號","E_COORD97":173698.87,"N_COORD97":2541263.75,"ADDRESS":"中山路４５３號","OBJECTID":335861},"geometry":{"x":173698.87000000104,"y":2541263.7500000019}},{"attributes":{"ID":335871,"DIS_CODE":0,"TOWNNAME":"仁德區","LI":"土庫里","LIN":"8鄰","STREET":"土庫路","SECT":" ","MAREA":" ","LANE":" ","ALLEY":" ","HOUSE_NO":"４０號","E_COORD97":174221.84,"N_COORD97":2543289.7400000002,"ADDRESS":"土庫路４０號","OBJECTID":335862},"geometry":{"x":174221.83999999985,"y":2543289.7400000002}},{"attributes":{"ID":335872,"DIS_CODE":0,"TOWNNAME":"仁德區","LI":"土庫里","LIN":"8鄰","STREET":"土庫路","SECT":" ","MAREA":" ","LANE":" ","ALLEY":" ","HOUSE_NO":"２２號","E_COORD97":174207.67999999999,"N_COORD97":2543347.75,"ADDRESS":"土庫路２２號","OBJECTID":335863},"geometry":{"x":174207.68000000156,"y":2543347.7500000037}},{"attributes":{"ID":335873,"DIS_CODE":0,"TOWNNAME":"仁德區","LI":"仁義里","LIN":"8鄰","STREET":"中山路","SECT":" ","MAREA":" ","LANE":" ","ALLEY":" ","HOUSE_NO":"４８１號","E_COORD97":173629.78,"N_COORD97":2541271.75,"ADDRESS":"中山路４８１號","OBJECTID":335864},"geometry":{"x":173629.78000000119,"y":2541271.75}},{"attributes":{"ID":335874,"DIS_CODE":0,"TOWNNAME":"仁德區","LI":"仁義里","LIN":"8鄰","STREET":"中山路","SECT":" ","MAREA":" ","LANE":" ","ALLEY":" ","HOUSE_NO":"４９７號","E_COORD97":173597.32000000001,"N_COORD97":2541279.4900000002,"ADDRESS":"中山路４９７號","OBJECTID":335865},"geometry":{"x":173597.32000000123,"y":2541279.4900000021}},{"attributes":{"ID":335875,"DIS_CODE":0,"TOWNNAME":"學甲區","LI":"中洲里","LIN":"36鄰","STREET":" ","SECT":" ","MAREA":"中洲","LANE":" ","ALLEY":" ","HOUSE_NO":"４７３號之１","E_COORD97":163864.39999999999,"N_COORD97":2571705.6899999999,"ADDRESS":"中洲４７３號之１","OBJECTID":335866},"geometry":{"x":163864.39999999944,"y":2571705.6900000013}},{"attributes":{"ID":335876,"DIS_CODE":0,"TOWNNAME":"學甲區","LI":"中洲里","LIN":"36鄰","STREET":" ","SECT":" ","MAREA":"中洲","LANE":" ","ALLEY":" ","HOUSE_NO":"４７３號","E_COORD97":163881.35000000001,"N_COORD97":2571709.9300000002,"ADDRESS":"中洲４７３號","OBJECTID":335867},"geometry":{"x":163881.35000000056,"y":2571709.9299999997}},{"attributes":{"ID":335877,"DIS_CODE":0,"TOWNNAME":"學甲區","LI":"中洲里","LIN":"36鄰","STREET":" ","SECT":" ","MAREA":"中洲","LANE":" ","ALLEY":" ","HOUSE_NO":"４７４號","E_COORD97":163826.87,"N_COORD97":2571662.6499999999,"ADDRESS":"中洲４７４號","OBJECTID":335868},"geometry":{"x":163826.87000000011,"y":2571662.6500000022}},{"attributes":{"ID":335878,"DIS_CODE":0,"TOWNNAME":"永康區","LI":"復國里","LIN":"36鄰","STREET":"興國街","SECT":" ","MAREA":" ","LANE":"１０巷","ALLEY":" ","HOUSE_NO":"１０號","E_COORD97":172677.85999999999,"N_COORD97":2544728.4900000002,"ADDRESS":"興國街１０巷１０號","OBJECTID":335869},"geometry":{"x":172677.86000000034,"y":2544728.4900000002}},{"attributes":{"ID":335879,"DIS_CODE":0,"TOWNNAME":"東區","LI":"復興里","LIN":"1鄰","STREET":"富農街","SECT":"一段","MAREA":" ","LANE":"２５８巷","ALLEY":" ","HOUSE_NO":"２５號","E_COORD97":171670.45000000001,"N_COORD97":2542661.8999999999,"ADDRESS":"富農街一段２５８巷２５號","OBJECTID":335870},"geometry":{"x":171670.45000000205,"y":2542661.9000000004}},{"attributes":{"ID":335880,"DIS_CODE":0,"TOWNNAME":"學甲區","LI":"中洲里","LIN":"36鄰","STREET":" ","SECT":" ","MAREA":"中洲","LANE":" ","ALLEY":" ","HOUSE_NO":"４７５號","E_COORD97":163829.29000000001,"N_COORD97":2571684.6600000001,"ADDRESS":"中洲４７５號","OBJECTID":335871},"geometry":{"x":163829.2900000019,"y":2571684.6600000001}},{"attributes":{"ID":335881,"DIS_CODE":0,"TOWNNAME":"學甲區","LI":"中洲里","LIN":"36鄰","STREET":" ","SECT":" ","MAREA":"中洲","LANE":" ","ALLEY":" ","HOUSE_NO":"４７７號之１","E_COORD97":163827.25,"N_COORD97":2571719.3300000001,"ADDRESS":"中洲４７７號之１","OBJECTID":335872},"geometry":{"x":163827.25,"y":2571719.3300000019}},{"attributes":{"ID":335882,"DIS_CODE":0,"TOWNNAME":"學甲區","LI":"中洲里","LIN":"36鄰","STREET":" ","SECT":" ","MAREA":"中洲","LANE":" ","ALLEY":" ","HOUSE_NO":"４７７號","E_COORD97":163825.79000000001,"N_COORD97":2571710.0499999998,"ADDRESS":"中洲４７７號","OBJECTID":335873},"geometry":{"x":163825.78999999911,"y":2571710.0500000007}},{"attributes":{"ID":335883,"DIS_CODE":0,"TOWNNAME":"學甲區","LI":"中洲里","LIN":"36鄰","STREET":" ","SECT":" ","MAREA":"中洲","LANE":" ","ALLEY":" ","HOUSE_NO":"４８０號","E_COORD97":163817.88,"N_COORD97":2571634.1099999999,"ADDRESS":"中洲４８０號","OBJECTID":335874},"geometry":{"x":163817.87999999989,"y":2571634.1100000031}},{"attributes":{"ID":335884,"DIS_CODE":0,"TOWNNAME":"東區","LI":"復興里","LIN":"1鄰","STREET":"富農街","SECT":"一段","MAREA":" ","LANE":"２５８巷","ALLEY":" ","HOUSE_NO":"２６號","E_COORD97":171667.72,"N_COORD97":2542644.2000000002,"ADDRESS":"富農街一段２５８巷２６號","OBJECTID":335875},"geometry":{"x":171667.71999999974,"y":2542644.1999999993}},{"attributes":{"ID":335885,"DIS_CODE":0,"TOWNNAME":"學甲區","LI":"中洲里","LIN":"36鄰","STREET":" ","SECT":" ","MAREA":"中洲","LANE":" ","ALLEY":" ","HOUSE_NO":"４８３號之１","E_COORD97":163820.76999999999,"N_COORD97":2571619.9500000002,"ADDRESS":"中洲４８３號之１","OBJECTID":335876},"geometry":{"x":163820.77000000048,"y":2571619.9499999993}},{"attributes":{"ID":335886,"DIS_CODE":0,"TOWNNAME":"東區","LI":"復興里","LIN":"1鄰","STREET":"富農街","SECT":"一段","MAREA":" ","LANE":"２５８巷","ALLEY":" ","HOUSE_NO":"２７號","E_COORD97":171675.57000000001,"N_COORD97":2542662.2400000002,"ADDRESS":"富農街一段２５８巷２７號","OBJECTID":335877},"geometry":{"x":171675.5700000003,"y":2542662.2400000002}},{"attributes":{"ID":335887,"DIS_CODE":0,"TOWNNAME":"東區","LI":"復興里","LIN":"1鄰","STREET":"富農街","SECT":"一段","MAREA":" ","LANE":"２５８巷","ALLEY":" ","HOUSE_NO":"２８號","E_COORD97":171672.16,"N_COORD97":2542644.8799999999,"ADDRESS":"富農街一段２５８巷２８號","OBJECTID":335878},"geometry":{"x":171672.15999999922,"y":2542644.8800000008}},{"attributes":{"ID":335888,"DIS_CODE":0,"TOWNNAME":"學甲區","LI":"中洲里","LIN":"36鄰","STREET":" ","SECT":" ","MAREA":"中洲","LANE":" ","ALLEY":" ","HOUSE_NO":"４８３號","E_COORD97":163835.67999999999,"N_COORD97":2571642.27,"ADDRESS":"中洲４８３號","OBJECTID":335879},"geometry":{"x":163835.6799999997,"y":2571642.2699999996}},{"attributes":{"ID":335889,"DIS_CODE":0,"TOWNNAME":"學甲區","LI":"中洲里","LIN":"36鄰","STREET":" ","SECT":" ","MAREA":"中洲","LANE":" ","ALLEY":" ","HOUSE_NO":"４８５號","E_COORD97":163831.72,"N_COORD97":2571618.48,"ADDRESS":"中洲４８５號","OBJECTID":335880},"geometry":{"x":163831.72000000067,"y":2571618.4800000004}},{"attributes":{"ID":335890,"DIS_CODE":0,"TOWNNAME":"學甲區","LI":"中洲里","LIN":"36鄰","STREET":" ","SECT":" ","MAREA":"中洲","LANE":" ","ALLEY":" ","HOUSE_NO":"４８６號","E_COORD97":163852.91,"N_COORD97":2571646.4900000002,"ADDRESS":"中洲４８６號","OBJECTID":335881},"geometry":{"x":163852.91000000108,"y":2571646.4900000021}},{"attributes":{"ID":335891,"DIS_CODE":0,"TOWNNAME":"東區","LI":"復興里","LIN":"1鄰","STREET":"富農街","SECT":"一段","MAREA":" ","LANE":"２５８巷","ALLEY":" ","HOUSE_NO":"２號","E_COORD97":171607.64000000001,"N_COORD97":2542638.2599999998,"ADDRESS":"富農街一段２５８巷２號","OBJECTID":335882},"geometry":{"x":171607.6400000006,"y":2542638.2599999998}},{"attributes":{"ID":335892,"DIS_CODE":0,"TOWNNAME":"仁德區","LI":"仁義里","LIN":"8鄰","STREET":"中山路","SECT":" ","MAREA":" ","LANE":" ","ALLEY":" ","HOUSE_NO":"４５５號","E_COORD97":173694.67000000001,"N_COORD97":2541266.75,"ADDRESS":"中山路４５５號","OBJECTID":335883},"geometry":{"x":173694.67000000086,"y":2541266.7500000019}},{"attributes":{"ID":335893,"DIS_CODE":0,"TOWNNAME":"玉井區","LI":"玉田里","LIN":"36鄰","STREET":"玉安街","SECT":" ","MAREA":" ","LANE":"３０巷","ALLEY":" ","HOUSE_NO":"１號","E_COORD97":195080.32000000001,"N_COORD97":2558374.3100000001,"ADDRESS":"玉安街３０巷１號","OBJECTID":335884},"geometry":{"x":195080.32000000216,"y":2558374.3100000042}},{"attributes":{"ID":335894,"DIS_CODE":0,"TOWNNAME":"玉井區","LI":"玉田里","LIN":"36鄰","STREET":"玉安街","SECT":" ","MAREA":" ","LANE":"３０巷","ALLEY":" ","HOUSE_NO":"７號","E_COORD97":195092.20999999999,"N_COORD97":2558369.3100000001,"ADDRESS":"玉安街３０巷７號","OBJECTID":335885},"geometry":{"x":195092.20999999996,"y":2558369.3100000005}},{"attributes":{"ID":335895,"DIS_CODE":0,"TOWNNAME":"玉井區","LI":"玉田里","LIN":"36鄰","STREET":"玉安街","SECT":" ","MAREA":" ","LANE":"３０巷","ALLEY":" ","HOUSE_NO":"１３號","E_COORD97":195104.97,"N_COORD97":2558363.3199999998,"ADDRESS":"玉安街３０巷１３號","OBJECTID":335886},"geometry":{"x":195104.96999999974,"y":2558363.3200000003}},{"attributes":{"ID":335896,"DIS_CODE":0,"TOWNNAME":"玉井區","LI":"玉田里","LIN":"36鄰","STREET":"玉安街","SECT":" ","MAREA":" ","LANE":"３０巷","ALLEY":" ","HOUSE_NO":"８號","E_COORD97":195093.32000000001,"N_COORD97":2558356.3199999998,"ADDRESS":"玉安街３０巷８號","OBJECTID":335887},"geometry":{"x":195093.3200000003,"y":2558356.3200000003}},{"attributes":{"ID":335897,"DIS_CODE":0,"TOWNNAME":"玉井區","LI":"玉田里","LIN":"36鄰","STREET":"玉安街","SECT":" ","MAREA":" ","LANE":"３０巷","ALLEY":" ","HOUSE_NO":"１１號","E_COORD97":195100.76000000001,"N_COORD97":2558365.3199999998,"ADDRESS":"玉安街３０巷１１號","OBJECTID":335888},"geometry":{"x":195100.76000000071,"y":2558365.3200000022}},{"attributes":{"ID":335898,"DIS_CODE":0,"TOWNNAME":"玉井區","LI":"玉田里","LIN":"36鄰","STREET":"玉安街","SECT":" ","MAREA":" ","LANE":"３０巷","ALLEY":" ","HOUSE_NO":"６號","E_COORD97":195086.20999999999,"N_COORD97":2558359.3199999998,"ADDRESS":"玉安街３０巷６號","OBJECTID":335889},"geometry":{"x":195086.21000000089,"y":2558359.3200000003}},{"attributes":{"ID":335899,"DIS_CODE":0,"TOWNNAME":"玉井區","LI":"玉田里","LIN":"36鄰","STREET":"玉安街","SECT":" ","MAREA":" ","LANE":"３０巷","ALLEY":" ","HOUSE_NO":"１７號","E_COORD97":195112.17000000001,"N_COORD97":2558359.3199999998,"ADDRESS":"玉安街３０巷１７號","OBJECTID":335890},"geometry":{"x":195112.17000000086,"y":2558359.3200000003}},{"attributes":{"ID":335900,"DIS_CODE":0,"TOWNNAME":"玉井區","LI":"玉田里","LIN":"36鄰","STREET":"玉安街","SECT":" ","MAREA":" ","LANE":"３０巷","ALLEY":" ","HOUSE_NO":"１０號","E_COORD97":195103.17000000001,"N_COORD97":2558352.3199999998,"ADDRESS":"玉安街３０巷１０號","OBJECTID":335891},"geometry":{"x":195103.17000000086,"y":2558352.3200000003}},{"attributes":{"ID":335901,"DIS_CODE":0,"TOWNNAME":"東區","LI":"復興里","LIN":"1鄰","STREET":"富農街","SECT":"一段","MAREA":" ","LANE":"２５８巷","ALLEY":" ","HOUSE_NO":"３０號","E_COORD97":171677.26999999999,"N_COORD97":2542645.8999999999,"ADDRESS":"富農街一段２５８巷３０號","OBJECTID":335892},"geometry":{"x":171677.26999999955,"y":2542645.9000000022}},{"attributes":{"ID":335902,"DIS_CODE":0,"TOWNNAME":"東區","LI":"復興里","LIN":"1鄰","STREET":"富農街","SECT":"一段","MAREA":" ","LANE":"２５８巷","ALLEY":" ","HOUSE_NO":"３號","E_COORD97":171616.32999999999,"N_COORD97":2542656.48,"ADDRESS":"富農街一段２５８巷３號","OBJECTID":335893},"geometry":{"x":171616.33000000007,"y":2542656.4800000023}},{"attributes":{"ID":335903,"DIS_CODE":0,"TOWNNAME":"東區","LI":"復興里","LIN":"1鄰","STREET":"富農街","SECT":"一段","MAREA":" ","LANE":"２５８巷","ALLEY":" ","HOUSE_NO":"４號","E_COORD97":171613.25,"N_COORD97":2542638.2599999998,"ADDRESS":"富農街一段２５８巷４號","OBJECTID":335894},"geometry":{"x":171613.25,"y":2542638.2599999998}},{"attributes":{"ID":335904,"DIS_CODE":0,"TOWNNAME":"東區","LI":"復興里","LIN":"1鄰","STREET":"裕學路","SECT":" ","MAREA":" ","LANE":" ","ALLEY":" ","HOUSE_NO":"１９３號","E_COORD97":171653.41,"N_COORD97":2542806.9100000001,"ADDRESS":"裕學路１９３號","OBJECTID":335895},"geometry":{"x":171653.41000000015,"y":2542806.9100000001}},{"attributes":{"ID":335905,"DIS_CODE":0,"TOWNNAME":"東區","LI":"復興里","LIN":"1鄰","STREET":"裕學路","SECT":" ","MAREA":" ","LANE":" ","ALLEY":" ","HOUSE_NO":"１９１號","E_COORD97":171657.84,"N_COORD97":2542806.5699999998,"ADDRESS":"裕學路１９１號","OBJECTID":335896},"geometry":{"x":171657.84000000078,"y":2542806.5700000003}},{"attributes":{"ID":335906,"DIS_CODE":0,"TOWNNAME":"仁德區","LI":"土庫里","LIN":"8鄰","STREET":"土庫路","SECT":" ","MAREA":" ","LANE":" ","ALLEY":" ","HOUSE_NO":"５４號","E_COORD97":174233.39000000001,"N_COORD97":2543241.5,"ADDRESS":"土庫路５４號","OBJECTID":335897},"geometry":{"x":174233.39000000153,"y":2543241.5000000019}},{"attributes":{"ID":335907,"DIS_CODE":0,"TOWNNAME":"仁德區","LI":"仁義里","LIN":"8鄰","STREET":"仁義一街","SECT":" ","MAREA":" ","LANE":" ","ALLEY":" ","HOUSE_NO":"１２５號","E_COORD97":173608.26000000001,"N_COORD97":2541195.0099999998,"ADDRESS":"仁義一街１２５號","OBJECTID":335898},"geometry":{"x":173608.25999999978,"y":2541195.0099999998}},{"attributes":{"ID":335908,"DIS_CODE":0,"TOWNNAME":"仁德區","LI":"土庫里","LIN":"8鄰","STREET":"土庫路","SECT":" ","MAREA":" ","LANE":" ","ALLEY":" ","HOUSE_NO":"３０之１號","E_COORD97":174216.25,"N_COORD97":2543314.9900000002,"ADDRESS":"土庫路３０之１號","OBJECTID":335899},"geometry":{"x":174216.25000000093,"y":2543314.9900000002}},{"attributes":{"ID":335909,"DIS_CODE":0,"TOWNNAME":"仁德區","LI":"土庫里","LIN":"8鄰","STREET":"土庫六街","SECT":" ","MAREA":" ","LANE":" ","ALLEY":" ","HOUSE_NO":"３５號","E_COORD97":174225.01000000001,"N_COORD97":2543261.7400000002,"ADDRESS":"土庫六街３５號","OBJECTID":335900},"geometry":{"x":174225.00999999978,"y":2543261.7400000002}},{"attributes":{"ID":335910,"DIS_CODE":0,"TOWNNAME":"仁德區","LI":"仁義里","LIN":"8鄰","STREET":"中山路","SECT":" ","MAREA":" ","LANE":" ","ALLEY":" ","HOUSE_NO":"４６１號","E_COORD97":173682.29999999999,"N_COORD97":2541268.75,"ADDRESS":"中山路４６１號","OBJECTID":335901},"geometry":{"x":173682.29999999981,"y":2541268.75}},{"attributes":{"ID":335911,"DIS_CODE":0,"TOWNNAME":"仁德區","LI":"土庫里","LIN":"8鄰","STREET":"土庫路","SECT":" ","MAREA":" ","LANE":" ","ALLEY":" ","HOUSE_NO":"２０號","E_COORD97":174206.51999999999,"N_COORD97":2543351.4900000002,"ADDRESS":"土庫路２０號","OBJECTID":335902},"geometry":{"x":174206.51999999955,"y":2543351.4900000021}},{"attributes":{"ID":335912,"DIS_CODE":0,"TOWNNAME":"仁德區","LI":"仁義里","LIN":"8鄰","STREET":"仁義一街","SECT":" ","MAREA":" ","LANE":" ","ALLEY":" ","HOUSE_NO":"１０１號","E_COORD97":173557.92000000001,"N_COORD97":2541199.7599999998,"ADDRESS":"仁義一街１０１號","OBJECTID":335903},"geometry":{"x":173557.91999999993,"y":2541199.7599999998}},{"attributes":{"ID":335913,"DIS_CODE":0,"TOWNNAME":"仁德區","LI":"土庫里","LIN":"8鄰","STREET":"土庫六街","SECT":" ","MAREA":" ","LANE":" ","ALLEY":" ","HOUSE_NO":"３２號","E_COORD97":174222.10000000001,"N_COORD97":2543277.4900000002,"ADDRESS":"土庫六街３２號","OBJECTID":335904},"geometry":{"x":174222.10000000056,"y":2543277.4900000002}},{"attributes":{"ID":335914,"DIS_CODE":0,"TOWNNAME":"仁德區","LI":"土庫里","LIN":"8鄰","STREET":"土庫路","SECT":" ","MAREA":" ","LANE":" ","ALLEY":" ","HOUSE_NO":"４８號","E_COORD97":174229.29999999999,"N_COORD97":2543255.7400000002,"ADDRESS":"土庫路４８號","OBJECTID":335905},"geometry":{"x":174229.30000000075,"y":2543255.7400000002}},{"attributes":{"ID":335915,"DIS_CODE":0,"TOWNNAME":"東區","LI":"虎尾里","LIN":"36鄰","STREET":"東成街","SECT":" ","MAREA":" ","LANE":"２００巷","ALLEY":" ","HOUSE_NO":"５３號三樓","E_COORD97":171906.72,"N_COORD97":2542145.0699999998,"ADDRESS":"東成街２００巷５３號三樓","OBJECTID":335906},"geometry":{"x":171906.71999999974,"y":2542145.0700000003}},{"attributes":{"ID":335916,"DIS_CODE":0,"TOWNNAME":"東區","LI":"虎尾里","LIN":"36鄰","STREET":"東成街","SECT":" ","MAREA":" ","LANE":"２００巷","ALLEY":" ","HOUSE_NO":"５３號六樓","E_COORD97":171906.72,"N_COORD97":2542145.0699999998,"ADDRESS":"東成街２００巷５３號六樓","OBJECTID":335907},"geometry":{"x":171906.71999999974,"y":2542145.0700000003}},{"attributes":{"ID":335917,"DIS_CODE":0,"TOWNNAME":"東區","LI":"虎尾里","LIN":"36鄰","STREET":"東成街","SECT":" ","MAREA":" ","LANE":"２００巷","ALLEY":" ","HOUSE_NO":"５３號四樓","E_COORD97":171906.72,"N_COORD97":2542145.0699999998,"ADDRESS":"東成街２００巷５３號四樓","OBJECTID":335908},"geometry":{"x":171906.71999999974,"y":2542145.0700000003}},{"attributes":{"ID":335918,"DIS_CODE":0,"TOWNNAME":"東區","LI":"虎尾里","LIN":"36鄰","STREET":"東成街","SECT":" ","MAREA":" ","LANE":"２００巷","ALLEY":" ","HOUSE_NO":"５５號五樓","E_COORD97":171896.07999999999,"N_COORD97":2542144.29,"ADDRESS":"東成街２００巷５５號五樓","OBJECTID":335909},"geometry":{"x":171896.08000000007,"y":2542144.290000001}},{"attributes":{"ID":335919,"DIS_CODE":0,"TOWNNAME":"永康區","LI":"尚頂里","LIN":"1鄰","STREET":"尚頂路","SECT":" ","MAREA":" ","LANE":"１７７巷","ALLEY":" ","HOUSE_NO":"１號","E_COORD97":170774.32000000001,"N_COORD97":2547863.1699999999,"ADDRESS":"尚頂路１７７巷１號","OBJECTID":335910},"geometry":{"x":170774.3200000003,"y":2547863.1699999999}},{"attributes":{"ID":335920,"DIS_CODE":0,"TOWNNAME":"東區","LI":"虎尾里","LIN":"36鄰","STREET":"東成街","SECT":" ","MAREA":" ","LANE":"２００巷","ALLEY":" ","HOUSE_NO":"５５號四樓","E_COORD97":171896.07999999999,"N_COORD97":2542144.29,"ADDRESS":"東成街２００巷５５號四樓","OBJECTID":335911},"geometry":{"x":171896.08000000007,"y":2542144.290000001}},{"attributes":{"ID":335921,"DIS_CODE":0,"TOWNNAME":"東區","LI":"虎尾里","LIN":"36鄰","STREET":"東成街","SECT":" ","MAREA":" ","LANE":"２００巷","ALLEY":" ","HOUSE_NO":"５７號七樓","E_COORD97":171895.69,"N_COORD97":2542136.8100000001,"ADDRESS":"東成街２００巷５７號七樓","OBJECTID":335912},"geometry":{"x":171895.69000000041,"y":2542136.8100000005}},{"attributes":{"ID":335922,"DIS_CODE":0,"TOWNNAME":"東區","LI":"虎尾里","LIN":"36鄰","STREET":"東成街","SECT":" ","MAREA":" ","LANE":"２００巷","ALLEY":" ","HOUSE_NO":"５７號三樓","E_COORD97":171895.69,"N_COORD97":2542136.8100000001,"ADDRESS":"東成街２００巷５７號三樓","OBJECTID":335913},"geometry":{"x":171895.69000000041,"y":2542136.8100000005}},{"attributes":{"ID":335923,"DIS_CODE":0,"TOWNNAME":"東區","LI":"虎尾里","LIN":"36鄰","STREET":"東成街","SECT":" ","MAREA":" ","LANE":"２００巷","ALLEY":" ","HOUSE_NO":"５７號五樓","E_COORD97":171895.69,"N_COORD97":2542136.8100000001,"ADDRESS":"東成街２００巷５７號五樓","OBJECTID":335914},"geometry":{"x":171895.69000000041,"y":2542136.8100000005}},{"attributes":{"ID":335924,"DIS_CODE":0,"TOWNNAME":"東區","LI":"虎尾里","LIN":"36鄰","STREET":"東成街","SECT":" ","MAREA":" ","LANE":"２００巷","ALLEY":" ","HOUSE_NO":"５７號四樓","E_COORD97":171895.69,"N_COORD97":2542136.8100000001,"ADDRESS":"東成街２００巷５７號四樓","OBJECTID":335915},"geometry":{"x":171895.69000000041,"y":2542136.8100000005}},{"attributes":{"ID":335925,"DIS_CODE":0,"TOWNNAME":"東區","LI":"虎尾里","LIN":"36鄰","STREET":"東成街","SECT":" ","MAREA":" ","LANE":"２００巷","ALLEY":" ","HOUSE_NO":"５９號三樓","E_COORD97":171895.82000000001,"N_COORD97":2542129.46,"ADDRESS":"東成街２００巷５９號三樓","OBJECTID":335916},"geometry":{"x":171895.82000000123,"y":2542129.4600000009}},{"attributes":{"ID":335926,"DIS_CODE":0,"TOWNNAME":"東區","LI":"虎尾里","LIN":"36鄰","STREET":"東成街","SECT":" ","MAREA":" ","LANE":"２００巷","ALLEY":" ","HOUSE_NO":"５９號五樓","E_COORD97":171895.82000000001,"N_COORD97":2542129.46,"ADDRESS":"東成街２００巷５９號五樓","OBJECTID":335917},"geometry":{"x":171895.82000000123,"y":2542129.4600000009}},{"attributes":{"ID":335927,"DIS_CODE":0,"TOWNNAME":"東區","LI":"虎尾里","LIN":"36鄰","STREET":"東成街","SECT":" ","MAREA":" ","LANE":"２００巷","ALLEY":" ","HOUSE_NO":"５９號六樓","E_COORD97":171895.82000000001,"N_COORD97":2542129.46,"ADDRESS":"東成街２００巷５９號六樓","OBJECTID":335918},"geometry":{"x":171895.82000000123,"y":2542129.4600000009}},{"attributes":{"ID":335928,"DIS_CODE":0,"TOWNNAME":"東區","LI":"虎尾里","LIN":"36鄰","STREET":"東成街","SECT":" ","MAREA":" ","LANE":"２００巷","ALLEY":" ","HOUSE_NO":"５９號四樓","E_COORD97":171895.82000000001,"N_COORD97":2542129.46,"ADDRESS":"東成街２００巷５９號四樓","OBJECTID":335919},"geometry":{"x":171895.82000000123,"y":2542129.4600000009}},{"attributes":{"ID":335929,"DIS_CODE":0,"TOWNNAME":"東區","LI":"虎尾里","LIN":"36鄰","STREET":"東成街","SECT":" ","MAREA":" ","LANE":"２００巷","ALLEY":" ","HOUSE_NO":"６１號七樓","E_COORD97":171895.95000000001,"N_COORD97":2542122.3700000001,"ADDRESS":"東成街２００巷６１號七樓","OBJECTID":335920},"geometry":{"x":171895.95000000112,"y":2542122.3700000029}},{"attributes":{"ID":335930,"DIS_CODE":0,"TOWNNAME":"東區","LI":"虎尾里","LIN":"36鄰","STREET":"東成街","SECT":" ","MAREA":" ","LANE":"２００巷","ALLEY":" ","HOUSE_NO":"６１號三樓","E_COORD97":171895.95000000001,"N_COORD97":2542122.3700000001,"ADDRESS":"東成街２００巷６１號三樓","OBJECTID":335921},"geometry":{"x":171895.95000000112,"y":2542122.3700000029}},{"attributes":{"ID":335931,"DIS_CODE":0,"TOWNNAME":"永康區","LI":"西勢里","LIN":" ","STREET":"富強路","SECT":"一段","MAREA":" ","LANE":" ","ALLEY":" ","HOUSE_NO":"７３之１１號","E_COORD97":175420.56,"N_COORD97":2546129.2799999998,"ADDRESS":"富強路一段７３之１１號","OBJECTID":335922},"geometry":{"x":175420.56000000052,"y":2546129.2799999993}},{"attributes":{"ID":335932,"DIS_CODE":0,"TOWNNAME":"永康區","LI":"正強里","LIN":" ","STREET":"正強街","SECT":" ","MAREA":" ","LANE":" ","ALLEY":" ","HOUSE_NO":"１９３號","E_COORD97":173299.04999999999,"N_COORD97":2547655.75,"ADDRESS":"正強街１９３號","OBJECTID":335923},"geometry":{"x":173299.05000000075,"y":2547655.75}},{"attributes":{"ID":335933,"DIS_CODE":0,"TOWNNAME":"永康區","LI":"西橋里","LIN":" ","STREET":"大橋一街","SECT":" ","MAREA":" ","LANE":" ","ALLEY":" ","HOUSE_NO":"４２之１號","E_COORD97":170629.34,"N_COORD97":2546214.0499999998,"ADDRESS":"大橋一街４２之１號","OBJECTID":335924},"geometry":{"x":170629.33999999985,"y":2546214.0500000007}},{"attributes":{"ID":335934,"DIS_CODE":0,"TOWNNAME":"永康區","LI":"\u25A0洲里","LIN":"5鄰","STREET":"仁愛街","SECT":" ","MAREA":" ","LANE":" ","ALLEY":" ","HOUSE_NO":"９９號","E_COORD97":172037.39000000001,"N_COORD97":2549456.0299999998,"ADDRESS":"仁愛街９９號","OBJECTID":335925},"geometry":{"x":172037.38999999966,"y":2549456.0300000012}},{"attributes":{"ID":335935,"DIS_CODE":0,"TOWNNAME":"永康區","LI":"\u25A0行里","LIN":"26鄰","STREET":"中正南路","SECT":" ","MAREA":" ","LANE":" ","ALLEY":" ","HOUSE_NO":"３８８號","E_COORD97":171018.95000000001,"N_COORD97":2548252.77,"ADDRESS":"中正南路３８８號","OBJECTID":335926},"geometry":{"x":171018.95000000019,"y":2548252.7699999996}},{"attributes":{"ID":335936,"DIS_CODE":0,"TOWNNAME":"永康區","LI":"\u25A0行里","LIN":"15鄰","STREET":"中正南路","SECT":" ","MAREA":" ","LANE":" ","ALLEY":" ","HOUSE_NO":"７５０號","E_COORD97":171742.67999999999,"N_COORD97":2548966.4900000002,"ADDRESS":"中正南路７５０號","OBJECTID":335927},"geometry":{"x":171742.6799999997,"y":2548966.4900000002}},{"attributes":{"ID":335937,"DIS_CODE":0,"TOWNNAME":"永康區","LI":"勝利里","LIN":" ","STREET":"中華路","SECT":" ","MAREA":" ","LANE":" ","ALLEY":" ","HOUSE_NO":"３０９號","E_COORD97":171497.39999999999,"N_COORD97":2545325.9900000002,"ADDRESS":"中華路３０９號","OBJECTID":335928},"geometry":{"x":171497.40000000037,"y":2545325.9900000002}},{"attributes":{"ID":335938,"DIS_CODE":0,"TOWNNAME":"永康區","LI":"復國里","LIN":" ","STREET":"復國一路","SECT":" ","MAREA":" ","LANE":" ","ALLEY":" ","HOUSE_NO":"２５５號","E_COORD97":172730.72,"N_COORD97":2545448.02,"ADDRESS":"復國一路２５５號","OBJECTID":335929},"geometry":{"x":172730.71999999974,"y":2545448.0200000014}},{"attributes":{"ID":335939,"DIS_CODE":0,"TOWNNAME":"永康區","LI":"南灣里","LIN":" ","STREET":"南興路","SECT":" ","MAREA":" ","LANE":" ","ALLEY":" ","HOUSE_NO":"６９之３號","E_COORD97":174192.67999999999,"N_COORD97":2544273.7000000002,"ADDRESS":"南興路６９之３號","OBJECTID":335930},"geometry":{"x":174192.68000000063,"y":2544273.7000000011}},{"attributes":{"ID":335940,"DIS_CODE":0,"TOWNNAME":"永康區","LI":"永康里","LIN":" ","STREET":"永正路","SECT":" ","MAREA":" ","LANE":" ","ALLEY":" ","HOUSE_NO":"８１之９號","E_COORD97":173526.44,"N_COORD97":2547488.5499999998,"ADDRESS":"永正路８１之９號","OBJECTID":335931},"geometry":{"x":173526.44000000041,"y":2547488.5500000007}},{"attributes":{"ID":335941,"DIS_CODE":0,"TOWNNAME":"永康區","LI":"王行里","LIN":" ","STREET":"中山北路","SECT":" ","MAREA":" ","LANE":" ","ALLEY":" ","HOUSE_NO":"６３３之２號","E_COORD97":175530.03,"N_COORD97":2547793.7799999998,"ADDRESS":"中山北路６３３之２號","OBJECTID":335932},"geometry":{"x":175530.03000000119,"y":2547793.7799999993}},{"attributes":{"ID":335942,"DIS_CODE":0,"TOWNNAME":"永康區","LI":"甲頂里","LIN":" ","STREET":"小北路","SECT":" ","MAREA":" ","LANE":" ","ALLEY":" ","HOUSE_NO":"１０９號","E_COORD97":169644.91,"N_COORD97":2546947,"ADDRESS":"小北路１０９號","OBJECTID":335933},"geometry":{"x":169644.91000000201,"y":2546947.0000000037}},{"attributes":{"ID":335943,"DIS_CODE":0,"TOWNNAME":"永康區","LI":"\u25A0洲里","LIN":"20鄰","STREET":"中正南路","SECT":" ","MAREA":" ","LANE":" ","ALLEY":" ","HOUSE_NO":"８１７號","E_COORD97":171734.87,"N_COORD97":2549004.75,"ADDRESS":"中正南路８１７號","OBJECTID":335934},"geometry":{"x":171734.87000000011,"y":2549004.75}},{"attributes":{"ID":335944,"DIS_CODE":0,"TOWNNAME":"永康區","LI":"勝利里","LIN":"40鄰","STREET":"中華一路","SECT":" ","MAREA":" ","LANE":" ","ALLEY":" ","HOUSE_NO":"１９４號","E_COORD97":171479.23000000001,"N_COORD97":2544981.25,"ADDRESS":"中華一路１９４號","OBJECTID":335935},"geometry":{"x":171479.23000000138,"y":2544981.25}},{"attributes":{"ID":335945,"DIS_CODE":0,"TOWNNAME":"永康區","LI":"勝利里","LIN":" ","STREET":"中華一路","SECT":" ","MAREA":" ","LANE":" ","ALLEY":" ","HOUSE_NO":"２１９號","E_COORD97":171411.23999999999,"N_COORD97":2544965.25,"ADDRESS":"中華一路２１９號","OBJECTID":335936},"geometry":{"x":171411.24000000115,"y":2544965.2500000037}},{"attributes":{"ID":335946,"DIS_CODE":0,"TOWNNAME":"永康區","LI":"蔦松里","LIN":" ","STREET":"中正北路","SECT":" ","MAREA":" ","LANE":" ","ALLEY":" ","HOUSE_NO":"８３９號","E_COORD97":175147.62,"N_COORD97":2550565.75,"ADDRESS":"中正北路８３９號","OBJECTID":335937},"geometry":{"x":175147.62000000197,"y":2550565.7499999981}},{"attributes":{"ID":335947,"DIS_CODE":0,"TOWNNAME":"永康區","LI":"二王里","LIN":" ","STREET":"南工街","SECT":" ","MAREA":" ","LANE":" ","ALLEY":" ","HOUSE_NO":"２９６號","E_COORD97":171800.70000000001,"N_COORD97":2546063.0800000001,"ADDRESS":"南工街２９６號","OBJECTID":335938},"geometry":{"x":171800.70000000019,"y":2546063.0800000019}},{"attributes":{"ID":335948,"DIS_CODE":0,"TOWNNAME":"永康區","LI":"正強里","LIN":" ","STREET":"正強街","SECT":" ","MAREA":" ","LANE":" ","ALLEY":" ","HOUSE_NO":"７６號","E_COORD97":173354.29999999999,"N_COORD97":2547323.2400000002,"ADDRESS":"正強街７６號","OBJECTID":335939},"geometry":{"x":173354.30000000168,"y":2547323.2400000021}},{"attributes":{"ID":335949,"DIS_CODE":0,"TOWNNAME":"東區","LI":"復興里","LIN":"1鄰","STREET":"裕學路","SECT":" ","MAREA":" ","LANE":" ","ALLEY":" ","HOUSE_NO":"１８９號","E_COORD97":171661.92999999999,"N_COORD97":2542804.8700000001,"ADDRESS":"裕學路１８９號","OBJECTID":335940},"geometry":{"x":171661.93000000063,"y":2542804.870000001}},{"attributes":{"ID":335950,"DIS_CODE":0,"TOWNNAME":"永康區","LI":"東橋里","LIN":"1鄰","STREET":"中山南路","SECT":" ","MAREA":" ","LANE":"１９５巷","ALLEY":" ","HOUSE_NO":"８１號","E_COORD97":171355.29999999999,"N_COORD97":2546555.54,"ADDRESS":"中山南路１９５巷８１號","OBJECTID":335941},"geometry":{"x":171355.29999999981,"y":2546555.5400000028}},{"attributes":{"ID":335951,"DIS_CODE":0,"TOWNNAME":"永康區","LI":"北灣里","LIN":"1鄰","STREET":"大灣路","SECT":" ","MAREA":" ","LANE":"１１９巷","ALLEY":" ","HOUSE_NO":"６號","E_COORD97":175145.84,"N_COORD97":2545514.5800000001,"ADDRESS":"大灣路１１９巷６號","OBJECTID":335942},"geometry":{"x":175145.84000000171,"y":2545514.5800000001}},{"attributes":{"ID":335952,"DIS_CODE":0,"TOWNNAME":"永康區","LI":"王行里","LIN":"1鄰","STREET":"王行路","SECT":" ","MAREA":" ","LANE":"２２４巷","ALLEY":" ","HOUSE_NO":"１１號","E_COORD97":175711.39999999999,"N_COORD97":2548201.8700000001,"ADDRESS":"王行路２２４巷１１號","OBJECTID":335943},"geometry":{"x":175711.40000000037,"y":2548201.870000001}},{"attributes":{"ID":335953,"DIS_CODE":0,"TOWNNAME":"永康區","LI":"東橋里","LIN":"1鄰","STREET":"中山南路","SECT":" ","MAREA":" ","LANE":"１９５巷","ALLEY":" ","HOUSE_NO":"９２號","E_COORD97":171317.29999999999,"N_COORD97":2546584.2799999998,"ADDRESS":"中山南路１９５巷９２號","OBJECTID":335944},"geometry":{"x":171317.30000000075,"y":2546584.2799999993}},{"attributes":{"ID":335954,"DIS_CODE":0,"TOWNNAME":"永康區","LI":"二王里","LIN":"1鄰","STREET":"二王路","SECT":" ","MAREA":" ","LANE":"２７巷","ALLEY":" ","HOUSE_NO":"３３號","E_COORD97":173089.32000000001,"N_COORD97":2546823.71,"ADDRESS":"二王路２７巷３３號","OBJECTID":335945},"geometry":{"x":173089.32000000123,"y":2546823.7100000009}},{"attributes":{"ID":335955,"DIS_CODE":0,"TOWNNAME":"永康區","LI":"永康里","LIN":"1鄰","STREET":"永埔街","SECT":" ","MAREA":" ","LANE":"３３巷","ALLEY":" ","HOUSE_NO":"３８號","E_COORD97":173927.23000000001,"N_COORD97":2547516.2400000002,"ADDRESS":"永埔街３３巷３８號","OBJECTID":335946},"geometry":{"x":173927.23000000138,"y":2547516.2400000021}},{"attributes":{"ID":335956,"DIS_CODE":0,"TOWNNAME":"永康區","LI":"建國里","LIN":"1鄰","STREET":"復興路","SECT":" ","MAREA":" ","LANE":"２６巷","ALLEY":" ","HOUSE_NO":"７４之１５號","E_COORD97":173178.32999999999,"N_COORD97":2544946.4900000002,"ADDRESS":"復興路２６巷７４之１５號","OBJECTID":335947},"geometry":{"x":173178.33000000101,"y":2544946.4899999984}},{"attributes":{"ID":335957,"DIS_CODE":0,"TOWNNAME":"永康區","LI":"新樹里","LIN":"1鄰","STREET":"富強路","SECT":"二段","MAREA":" ","LANE":"２７５巷","ALLEY":" ","HOUSE_NO":"６號","E_COORD97":175576.20999999999,"N_COORD97":2547442.6600000001,"ADDRESS":"富強路二段２７５巷６號","OBJECTID":335948},"geometry":{"x":175576.21000000089,"y":2547442.6600000001}},{"attributes":{"ID":335958,"DIS_CODE":0,"TOWNNAME":"安南區","LI":"溪頂里","LIN":"1鄰","STREET":"惠安街","SECT":" ","MAREA":" ","LANE":"５１巷","ALLEY":" ","HOUSE_NO":"５號","E_COORD97":169021.57999999999,"N_COORD97":2547452.4399999999,"ADDRESS":"惠安街５１巷５號","OBJECTID":335949},"geometry":{"x":169021.58000000194,"y":2547452.4400000013}},{"attributes":{"ID":335959,"DIS_CODE":0,"TOWNNAME":"安南區","LI":"州北里","LIN":"1鄰","STREET":"安和路","SECT":"五段","MAREA":" ","LANE":"８１巷","ALLEY":" ","HOUSE_NO":"３０號之１","E_COORD97":169835.10999999999,"N_COORD97":2551656.5299999998,"ADDRESS":"安和路五段８１巷３０號之１","OBJECTID":335950},"geometry":{"x":169835.1099999994,"y":2551656.5300000012}},{"attributes":{"ID":335960,"DIS_CODE":0,"TOWNNAME":"安南區","LI":"\u25A0南里","LIN":"1鄰","STREET":"環福街","SECT":" ","MAREA":" ","LANE":"５０巷","ALLEY":" ","HOUSE_NO":"１１號之１","E_COORD97":170249.28,"N_COORD97":2552409,"ADDRESS":"環福街５０巷１１號之１","OBJECTID":335951},"geometry":{"x":170249.28000000212,"y":2552409.0000000019}},{"attributes":{"ID":335961,"DIS_CODE":0,"TOWNNAME":"安南區","LI":"海西里","LIN":"1鄰","STREET":"海中街","SECT":" ","MAREA":" ","LANE":"１６９巷","ALLEY":" ","HOUSE_NO":"３６號","E_COORD97":166262.09,"N_COORD97":2549137.1800000002,"ADDRESS":"海中街１６９巷３６號","OBJECTID":335952},"geometry":{"x":166262.09000000078,"y":2549137.1799999997}},{"attributes":{"ID":335962,"DIS_CODE":0,"TOWNNAME":"安南區","LI":"海西里","LIN":"1鄰","STREET":"海中街","SECT":" ","MAREA":" ","LANE":"１６９巷","ALLEY":" ","HOUSE_NO":"３２號","E_COORD97":166280.51999999999,"N_COORD97":2549115.4300000002,"ADDRESS":"海中街１６９巷３２號","OBJECTID":335953},"geometry":{"x":166280.52000000048,"y":2549115.4299999997}},{"attributes":{"ID":335963,"DIS_CODE":0,"TOWNNAME":"下營區","LI":"宅內里","LIN":"1鄰","STREET":"人和三街","SECT":" ","MAREA":" ","LANE":"７１巷","ALLEY":" ","HOUSE_NO":"６２號","E_COORD97":174254.26000000001,"N_COORD97":2570533.9500000002,"ADDRESS":"人和三街７１巷６２號","OBJECTID":335954},"geometry":{"x":174254.25999999978,"y":2570533.9500000011}},{"attributes":{"ID":335964,"DIS_CODE":0,"TOWNNAME":"下營區","LI":"宅內里","LIN":"1鄰","STREET":"人和三街","SECT":" ","MAREA":" ","LANE":"７１巷","ALLEY":" ","HOUSE_NO":"６６號","E_COORD97":174255.19,"N_COORD97":2570530.1299999999,"ADDRESS":"人和三街７１巷６６號","OBJECTID":335955},"geometry":{"x":174255.19000000041,"y":2570530.129999999}},{"attributes":{"ID":335965,"DIS_CODE":0,"TOWNNAME":"下營區","LI":"宅內里","LIN":"1鄰","STREET":"人和三街","SECT":" ","MAREA":" ","LANE":"７１巷","ALLEY":" ","HOUSE_NO":"７０號","E_COORD97":174257.10999999999,"N_COORD97":2570521.1299999999,"ADDRESS":"人和三街７１巷７０號","OBJECTID":335956},"geometry":{"x":174257.11000000034,"y":2570521.129999999}},{"attributes":{"ID":335966,"DIS_CODE":0,"TOWNNAME":"下營區","LI":"宅內里","LIN":"1鄰","STREET":"人和三街","SECT":" ","MAREA":" ","LANE":"７１巷","ALLEY":" ","HOUSE_NO":"７２號","E_COORD97":174252.10000000001,"N_COORD97":2570520.1299999999,"ADDRESS":"人和三街７１巷７２號","OBJECTID":335957},"geometry":{"x":174252.0999999987,"y":2570520.129999999}},{"attributes":{"ID":335967,"DIS_CODE":0,"TOWNNAME":"下營區","LI":"宅內里","LIN":"1鄰","STREET":"人和三街","SECT":" ","MAREA":" ","LANE":"７１巷","ALLEY":" ","HOUSE_NO":"７６號","E_COORD97":174247.04999999999,"N_COORD97":2570519.29,"ADDRESS":"人和三街７１巷７６號","OBJECTID":335958},"geometry":{"x":174247.04999999981,"y":2570519.2899999991}},{"attributes":{"ID":335968,"DIS_CODE":0,"TOWNNAME":"下營區","LI":"宅內里","LIN":"1鄰","STREET":"人和三街","SECT":" ","MAREA":" ","LANE":"７１巷","ALLEY":" ","HOUSE_NO":"８０號","E_COORD97":174259.59,"N_COORD97":2570507.2400000002,"ADDRESS":"人和三街７１巷８０號","OBJECTID":335959},"geometry":{"x":174259.59000000078,"y":2570507.2400000002}},{"attributes":{"ID":335969,"DIS_CODE":0,"TOWNNAME":"下營區","LI":"宅內里","LIN":"1鄰","STREET":"人和三街","SECT":" ","MAREA":" ","LANE":"７１巷","ALLEY":" ","HOUSE_NO":"８２號","E_COORD97":174240.92000000001,"N_COORD97":2570504.3700000001,"ADDRESS":"人和三街７１巷８２號","OBJECTID":335960},"geometry":{"x":174240.92000000086,"y":2570504.370000001}},{"attributes":{"ID":335970,"DIS_CODE":0,"TOWNNAME":"下營區","LI":"宅內里","LIN":"1鄰","STREET":"人和三街","SECT":" ","MAREA":" ","LANE":"７１巷","ALLEY":" ","HOUSE_NO":"８６號","E_COORD97":174266.81,"N_COORD97":2570480.6600000001,"ADDRESS":"人和三街７１巷８６號","OBJECTID":335961},"geometry":{"x":174266.81000000052,"y":2570480.6600000001}},{"attributes":{"ID":335971,"DIS_CODE":0,"TOWNNAME":"南區","LI":"府南里","LIN":"18鄰","STREET":"大成路","SECT":"二段","MAREA":" ","LANE":"１７７巷","ALLEY":" ","HOUSE_NO":"１０號","E_COORD97":167232.04000000001,"N_COORD97":2541688.7400000002,"ADDRESS":"大成路二段１７７巷１０號","OBJECTID":335962},"geometry":{"x":167232.04000000097,"y":2541688.7400000002}},{"attributes":{"ID":335972,"DIS_CODE":0,"TOWNNAME":"南區","LI":"府南里","LIN":"18鄰","STREET":"大成路","SECT":"二段","MAREA":" ","LANE":"１７７巷","ALLEY":" ","HOUSE_NO":"１２號","E_COORD97":167236.07999999999,"N_COORD97":2541686.9399999999,"ADDRESS":"大成路二段１７７巷１２號","OBJECTID":335963},"geometry":{"x":167236.08000000007,"y":2541686.9399999995}},{"attributes":{"ID":335973,"DIS_CODE":0,"TOWNNAME":"南區","LI":"府南里","LIN":"18鄰","STREET":"大成路","SECT":"二段","MAREA":" ","LANE":"１７７巷","ALLEY":" ","HOUSE_NO":"１４號","E_COORD97":167240.29000000001,"N_COORD97":2541685.1299999999,"ADDRESS":"大成路二段１７７巷１４號","OBJECTID":335964},"geometry":{"x":167240.29000000097,"y":2541685.129999999}},{"attributes":{"ID":335974,"DIS_CODE":0,"TOWNNAME":"南區","LI":"府南里","LIN":"18鄰","STREET":"大成路","SECT":"二段","MAREA":" ","LANE":"１７７巷","ALLEY":" ","HOUSE_NO":"１６號","E_COORD97":167254.82999999999,"N_COORD97":2541677.0600000001,"ADDRESS":"大成路二段１７７巷１６號","OBJECTID":335965},"geometry":{"x":167254.83000000007,"y":2541677.0600000005}},{"attributes":{"ID":335975,"DIS_CODE":0,"TOWNNAME":"南區","LI":"府南里","LIN":"18鄰","STREET":"大成路","SECT":"二段","MAREA":" ","LANE":"１７７巷","ALLEY":" ","HOUSE_NO":"１８號","E_COORD97":167253.10999999999,"N_COORD97":2541672.0699999998,"ADDRESS":"大成路二段１７７巷１８號","OBJECTID":335966},"geometry":{"x":167253.11000000034,"y":2541672.0700000022}},{"attributes":{"ID":335976,"DIS_CODE":0,"TOWNNAME":"南區","LI":"府南里","LIN":"18鄰","STREET":"大成路","SECT":"二段","MAREA":" ","LANE":"１７７巷","ALLEY":" ","HOUSE_NO":"２０號","E_COORD97":167252.32999999999,"N_COORD97":2541668.4700000002,"ADDRESS":"大成路二段１７７巷２０號","OBJECTID":335967},"geometry":{"x":167252.33000000101,"y":2541668.4700000007}},{"attributes":{"ID":335977,"DIS_CODE":0,"TOWNNAME":"南區","LI":"府南里","LIN":"18鄰","STREET":"大成路","SECT":"二段","MAREA":" ","LANE":"１７７巷","ALLEY":" ","HOUSE_NO":"２２號","E_COORD97":167250.78,"N_COORD97":2541665.1200000001,"ADDRESS":"大成路二段１７７巷２２號","OBJECTID":335968},"geometry":{"x":167250.78000000119,"y":2541665.1200000029}},{"attributes":{"ID":335978,"DIS_CODE":0,"TOWNNAME":"南區","LI":"府南里","LIN":"18鄰","STREET":"大成路","SECT":"二段","MAREA":" ","LANE":"１７７巷","ALLEY":" ","HOUSE_NO":"２４號","E_COORD97":167249.92000000001,"N_COORD97":2541661.0299999998,"ADDRESS":"大成路二段１７７巷２４號","OBJECTID":335969},"geometry":{"x":167249.92000000086,"y":2541661.0300000012}},{"attributes":{"ID":335979,"DIS_CODE":0,"TOWNNAME":"南區","LI":"府南里","LIN":"18鄰","STREET":"大成路","SECT":"二段","MAREA":" ","LANE":"１７７巷","ALLEY":" ","HOUSE_NO":"２６號","E_COORD97":167249.48999999999,"N_COORD97":2541657.5899999999,"ADDRESS":"大成路二段１７７巷２６號","OBJECTID":335970},"geometry":{"x":167249.49000000115,"y":2541657.5900000017}},{"attributes":{"ID":335980,"DIS_CODE":0,"TOWNNAME":"南區","LI":"府南里","LIN":"18鄰","STREET":"大成路","SECT":"二段","MAREA":" ","LANE":"１７７巷","ALLEY":" ","HOUSE_NO":"８號","E_COORD97":167229.20000000001,"N_COORD97":2541690.1299999999,"ADDRESS":"大成路二段１７７巷８號","OBJECTID":335971},"geometry":{"x":167229.20000000112,"y":2541690.1300000008}},{"attributes":{"ID":335981,"DIS_CODE":0,"TOWNNAME":"下營區","LI":"宅內里","LIN":"1鄰","STREET":"人和三街","SECT":" ","MAREA":" ","LANE":"７１巷","ALLEY":" ","HOUSE_NO":"８８號","E_COORD97":174268.28,"N_COORD97":2570475.4100000001,"ADDRESS":"人和三街７１巷８８號","OBJECTID":335972},"geometry":{"x":174268.28000000026,"y":2570475.4100000001}},{"attributes":{"ID":335982,"DIS_CODE":0,"TOWNNAME":"中西區","LI":"西賢里","LIN":"1鄰","STREET":"湖美街","SECT":" ","MAREA":" ","LANE":"１５巷","ALLEY":" ","HOUSE_NO":"１９號","E_COORD97":165890.29000000001,"N_COORD97":2544452.73,"ADDRESS":"湖美街１５巷１９號","OBJECTID":335973},"geometry":{"x":165890.29000000004,"y":2544452.7300000004}},{"attributes":{"ID":335983,"DIS_CODE":0,"TOWNNAME":"中西區","LI":"西賢里","LIN":"1鄰","STREET":"湖美街","SECT":" ","MAREA":" ","LANE":"１５巷","ALLEY":" ","HOUSE_NO":"２１號","E_COORD97":165887.12,"N_COORD97":2544452.73,"ADDRESS":"湖美街１５巷２１號","OBJECTID":335974},"geometry":{"x":165887.12000000104,"y":2544452.7300000004}},{"attributes":{"ID":335984,"DIS_CODE":0,"TOWNNAME":"安南區","LI":"頂安里","LIN":"1鄰","STREET":"長溪路","SECT":"一段","MAREA":" ","LANE":"４０６巷","ALLEY":" ","HOUSE_NO":"６號","E_COORD97":168652.01000000001,"N_COORD97":2548949.6800000002,"ADDRESS":"長溪路一段４０６巷６號","OBJECTID":335975},"geometry":{"x":168652.01000000164,"y":2548949.6800000016}},{"attributes":{"ID":335985,"DIS_CODE":0,"TOWNNAME":"安南區","LI":"總頭里","LIN":"1鄰","STREET":"長溪路","SECT":"二段","MAREA":" ","LANE":"４８６巷","ALLEY":" ","HOUSE_NO":"１１號","E_COORD97":168286.45000000001,"N_COORD97":2550422.8799999999,"ADDRESS":"長溪路二段４８６巷１１號","OBJECTID":335976},"geometry":{"x":168286.45000000019,"y":2550422.8800000008}},{"attributes":{"ID":335986,"DIS_CODE":0,"TOWNNAME":"安南區","LI":"淵東里","LIN":"1鄰","STREET":"海佃路","SECT":"四段","MAREA":" ","LANE":"５５巷","ALLEY":" ","HOUSE_NO":"３號","E_COORD97":165685.64999999999,"N_COORD97":2550580.79,"ADDRESS":"海佃路四段５５巷３號","OBJECTID":335977},"geometry":{"x":165685.6500000013,"y":2550580.7899999991}},{"attributes":{"ID":335987,"DIS_CODE":0,"TOWNNAME":"安南區","LI":"淵東里","LIN":"1鄰","STREET":"海佃路","SECT":"四段","MAREA":" ","LANE":"５５巷","ALLEY":" ","HOUSE_NO":"５號","E_COORD97":165681.64999999999,"N_COORD97":2550579.5600000001,"ADDRESS":"海佃路四段５５巷５號","OBJECTID":335978},"geometry":{"x":165681.64999999944,"y":2550579.5600000024}},{"attributes":{"ID":335988,"DIS_CODE":0,"TOWNNAME":"安南區","LI":"頂安里","LIN":"1鄰","STREET":"長溪路","SECT":"一段","MAREA":" ","LANE":"４０６巷","ALLEY":" ","HOUSE_NO":"１５號","E_COORD97":168629.42999999999,"N_COORD97":2548976.8199999998,"ADDRESS":"長溪路一段４０６巷１５號","OBJECTID":335979},"geometry":{"x":168629.43000000063,"y":2548976.8200000022}},{"attributes":{"ID":335989,"DIS_CODE":0,"TOWNNAME":"安南區","LI":"頂安里","LIN":"1鄰","STREET":"長溪路","SECT":"一段","MAREA":" ","LANE":"４０６巷","ALLEY":" ","HOUSE_NO":"１９號","E_COORD97":168601.97,"N_COORD97":2548984.79,"ADDRESS":"長溪路一段４０６巷１９號","OBJECTID":335980},"geometry":{"x":168601.97000000067,"y":2548984.7900000028}},{"attributes":{"ID":335990,"DIS_CODE":0,"TOWNNAME":"安南區","LI":"頂安里","LIN":"1鄰","STREET":"長溪路","SECT":"一段","MAREA":" ","LANE":"４０６巷","ALLEY":" ","HOUSE_NO":"５號","E_COORD97":168613.48000000001,"N_COORD97":2548963.5499999998,"ADDRESS":"長溪路一段４０６巷５號","OBJECTID":335981},"geometry":{"x":168613.48000000045,"y":2548963.5500000007}},{"attributes":{"ID":335991,"DIS_CODE":0,"TOWNNAME":"安南區","LI":"頂安里","LIN":"1鄰","STREET":"長溪路","SECT":"一段","MAREA":" ","LANE":"４５４巷","ALLEY":" ","HOUSE_NO":"１３號","E_COORD97":168536.63,"N_COORD97":2549039.7400000002,"ADDRESS":"長溪路一段４５４巷１３號","OBJECTID":335982},"geometry":{"x":168536.63000000082,"y":2549039.7400000002}},{"attributes":{"ID":335992,"DIS_CODE":0,"TOWNNAME":"安南區","LI":"頂安里","LIN":"1鄰","STREET":"長溪路","SECT":"一段","MAREA":" ","LANE":"４５４巷","ALLEY":" ","HOUSE_NO":"１５號","E_COORD97":168541.45000000001,"N_COORD97":2549041.98,"ADDRESS":"長溪路一段４５４巷１５號","OBJECTID":335983},"geometry":{"x":168541.45000000112,"y":2549041.9800000004}},{"attributes":{"ID":335993,"DIS_CODE":0,"TOWNNAME":"安南區","LI":"頂安里","LIN":"1鄰","STREET":"長溪路","SECT":"一段","MAREA":" ","LANE":"４５４巷","ALLEY":" ","HOUSE_NO":"１７號","E_COORD97":168547.23000000001,"N_COORD97":2549039.7400000002,"ADDRESS":"長溪路一段４５４巷１７號","OBJECTID":335984},"geometry":{"x":168547.23000000045,"y":2549039.7400000002}},{"attributes":{"ID":335994,"DIS_CODE":0,"TOWNNAME":"安南區","LI":"頂安里","LIN":"1鄰","STREET":"長溪路","SECT":"一段","MAREA":" ","LANE":"４５４巷","ALLEY":" ","HOUSE_NO":"３號","E_COORD97":168510.94,"N_COORD97":2549038.1299999999,"ADDRESS":"長溪路一段４５４巷３號","OBJECTID":335985},"geometry":{"x":168510.94000000134,"y":2549038.1300000008}},{"attributes":{"ID":335995,"DIS_CODE":0,"TOWNNAME":"安南區","LI":"頂安里","LIN":"1鄰","STREET":"長溪路","SECT":"一段","MAREA":" ","LANE":"４５４巷","ALLEY":" ","HOUSE_NO":"５號","E_COORD97":168516.39999999999,"N_COORD97":2549038.1299999999,"ADDRESS":"長溪路一段４５４巷５號","OBJECTID":335986},"geometry":{"x":168516.4000000013,"y":2549038.1300000008}},{"attributes":{"ID":335996,"DIS_CODE":0,"TOWNNAME":"安南區","LI":"頂安里","LIN":"1鄰","STREET":"長溪路","SECT":"一段","MAREA":" ","LANE":"４５４巷","ALLEY":" ","HOUSE_NO":"７號","E_COORD97":168521.54000000001,"N_COORD97":2549039.1000000001,"ADDRESS":"長溪路一段４５４巷７號","OBJECTID":335987},"geometry":{"x":168521.5400000019,"y":2549039.1000000015}},{"attributes":{"ID":335997,"DIS_CODE":0,"TOWNNAME":"安南區","LI":"頂安里","LIN":"1鄰","STREET":"長溪路","SECT":"一段","MAREA":" ","LANE":"４５４巷","ALLEY":" ","HOUSE_NO":"９號","E_COORD97":168526.03,"N_COORD97":2549038.46,"ADDRESS":"長溪路一段４５４巷９號","OBJECTID":335988},"geometry":{"x":168526.03000000119,"y":2549038.4600000009}},{"attributes":{"ID":335998,"DIS_CODE":0,"TOWNNAME":"安南區","LI":"頂安里","LIN":"1鄰","STREET":"長溪路","SECT":"一段","MAREA":" ","LANE":"４７６巷","ALLEY":" ","HOUSE_NO":"２０號","E_COORD97":168544.34,"N_COORD97":2549055.7799999998,"ADDRESS":"長溪路一段４７６巷２０號","OBJECTID":335989},"geometry":{"x":168544.33999999985,"y":2549055.7799999993}},{"attributes":{"ID":335999,"DIS_CODE":0,"TOWNNAME":"安南區","LI":"頂安里","LIN":"1鄰","STREET":"長溪路","SECT":"一段","MAREA":" ","LANE":"４７６巷","ALLEY":" ","HOUSE_NO":"１２號","E_COORD97":168523.47,"N_COORD97":2549052.8900000001,"ADDRESS":"長溪路一段４７６巷１２號","OBJECTID":335990},"geometry":{"x":168523.4700000016,"y":2549052.8900000006}},{"attributes":{"ID":336000,"DIS_CODE":0,"TOWNNAME":"安南區","LI":"頂安里","LIN":"1鄰","STREET":"長溪路","SECT":"一段","MAREA":" ","LANE":"４７６巷","ALLEY":" ","HOUSE_NO":"１６號","E_COORD97":168534.70000000001,"N_COORD97":2549054.5,"ADDRESS":"長溪路一段４７６巷１６號","OBJECTID":335991},"geometry":{"x":168534.70000000112,"y":2549054.5}},{"attributes":{"ID":336001,"DIS_CODE":0,"TOWNNAME":"安南區","LI":"頂安里","LIN":"1鄰","STREET":"長溪路","SECT":"一段","MAREA":" ","LANE":"４７６巷","ALLEY":" ","HOUSE_NO":"１８號","E_COORD97":168538.88,"N_COORD97":2549053.21,"ADDRESS":"長溪路一段４７６巷１８號","OBJECTID":335992},"geometry":{"x":168538.87999999989,"y":2549053.2100000028}},{"attributes":{"ID":336002,"DIS_CODE":0,"TOWNNAME":"安南區","LI":"頂安里","LIN":"1鄰","STREET":"長溪路","SECT":"一段","MAREA":" ","LANE":"４７６巷","ALLEY":" ","HOUSE_NO":"２２號","E_COORD97":168549.79999999999,"N_COORD97":2549053.8500000001,"ADDRESS":"長溪路一段４７６巷２２號","OBJECTID":335993},"geometry":{"x":168549.79999999981,"y":2549053.8500000015}},{"attributes":{"ID":336003,"DIS_CODE":0,"TOWNNAME":"安南區","LI":"頂安里","LIN":"1鄰","STREET":"長溪路","SECT":"一段","MAREA":" ","LANE":"４７６巷","ALLEY":" ","HOUSE_NO":"３０號","E_COORD97":168589.60000000001,"N_COORD97":2549044.02,"ADDRESS":"長溪路一段４７６巷３０號","OBJECTID":335994},"geometry":{"x":168589.59999999963,"y":2549044.0199999996}},{"attributes":{"ID":336004,"DIS_CODE":0,"TOWNNAME":"安南區","LI":"頂安里","LIN":"1鄰","STREET":"長溪路","SECT":"一段","MAREA":" ","LANE":"４７６巷","ALLEY":" ","HOUSE_NO":"８號","E_COORD97":168513.51000000001,"N_COORD97":2549052.5699999998,"ADDRESS":"長溪路一段４７６巷８號","OBJECTID":335995},"geometry":{"x":168513.51000000071,"y":2549052.5700000022}},{"attributes":{"ID":336005,"DIS_CODE":0,"TOWNNAME":"安南區","LI":"安慶里","LIN":"1鄰","STREET":"長溪路","SECT":"一段","MAREA":" ","LANE":"１６８巷","ALLEY":" ","HOUSE_NO":"２５４號","E_COORD97":168902.04999999999,"N_COORD97":2548936.8199999998,"ADDRESS":"長溪路一段１６８巷２５４號","OBJECTID":335996},"geometry":{"x":168902.04999999981,"y":2548936.8200000003}},{"attributes":{"ID":336006,"DIS_CODE":0,"TOWNNAME":"安南區","LI":"安慶里","LIN":"1鄰","STREET":"長溪路","SECT":"一段","MAREA":" ","LANE":"１６８巷","ALLEY":" ","HOUSE_NO":"２５６號","E_COORD97":168881.89999999999,"N_COORD97":2548936.1000000001,"ADDRESS":"長溪路一段１６８巷２５６號","OBJECTID":335997},"geometry":{"x":168881.90000000037,"y":2548936.1000000034}},{"attributes":{"ID":336007,"DIS_CODE":0,"TOWNNAME":"安南區","LI":"安慶里","LIN":"1鄰","STREET":"長溪路","SECT":"一段","MAREA":" ","LANE":"１６８巷","ALLEY":" ","HOUSE_NO":"２６０號","E_COORD97":168900.60999999999,"N_COORD97":2548928.73,"ADDRESS":"長溪路一段１６８巷２６０號","OBJECTID":335998},"geometry":{"x":168900.61000000034,"y":2548928.7300000004}},{"attributes":{"ID":336008,"DIS_CODE":0,"TOWNNAME":"安南區","LI":"安慶里","LIN":"1鄰","STREET":"長溪路","SECT":"一段","MAREA":" ","LANE":"１６８巷","ALLEY":" ","HOUSE_NO":"２７１號","E_COORD97":168925.79000000001,"N_COORD97":2548895.54,"ADDRESS":"長溪路一段１６８巷２７１號","OBJECTID":335999},"geometry":{"x":168925.79000000097,"y":2548895.540000001}},{"attributes":{"ID":336009,"DIS_CODE":0,"TOWNNAME":"安南區","LI":"安慶里","LIN":"1鄰","STREET":"長溪路","SECT":"一段","MAREA":" ","LANE":"１６８巷","ALLEY":" ","HOUSE_NO":"２７２號","E_COORD97":168900.04000000001,"N_COORD97":2548901.5299999998,"ADDRESS":"長溪路一段１６８巷２７２號","OBJECTID":336000},"geometry":{"x":168900.04000000097,"y":2548901.5299999993}}]}