{"displayFieldName":"TOWNNAME","fieldAliases":{"ID":"ID","DIS_CODE":"DIS_CODE","TOWNNAME":"TOWNNAME","LI":"LI","LIN":"LIN","STREET":"STREET","SECT":"SECT","MAREA":"MAREA","LANE":"LANE","ALLEY":"ALLEY","HOUSE_NO":"HOUSE_NO","E_COORD97":"E_COORD97","N_COORD97":"N_COORD97","ADDRESS":"ADDRESS","OBJECTID":"OBJECTID"},"geometryType":"esriGeometryPoint","spatialReference":{"wkid":102443,"latestWkid":3826},"fields":[{"name":"ID","type":"esriFieldTypeDouble","alias":"ID"},{"name":"DIS_CODE","type":"esriFieldTypeInteger","alias":"DIS_CODE"},{"name":"TOWNNAME","type":"esriFieldTypeString","alias":"TOWNNAME","length":8},{"name":"LI","type":"esriFieldTypeString","alias":"LI","length":8},{"name":"LIN","type":"esriFieldTypeString","alias":"LIN","length":12},{"name":"STREET","type":"esriFieldTypeString","alias":"STREET","length":20},{"name":"SECT","type":"esriFieldTypeString","alias":"SECT","length":8},{"name":"MAREA","type":"esriFieldTypeString","alias":"MAREA","length":12},{"name":"LANE","type":"esriFieldTypeString","alias":"LANE","length":10},{"name":"ALLEY","type":"esriFieldTypeString","alias":"ALLEY","length":10},{"name":"HOUSE_NO","type":"esriFieldTypeString","alias":"HOUSE_NO","length":20},{"name":"E_COORD97","type":"esriFieldTypeDouble","alias":"E_COORD97"},{"name":"N_COORD97","type":"esriFieldTypeDouble","alias":"N_COORD97"},{"name":"ADDRESS","type":"esriFieldTypeString","alias":"ADDRESS","length":50},{"name":"OBJECTID","type":"esriFieldTypeOID","alias":"OBJECTID"}],"features":[{"attributes":{"ID":414425,"DIS_CODE":0,"TOWNNAME":"安南區","LI":"幸福里","LIN":"3鄰","STREET":"國安街","SECT":" ","MAREA":" ","LANE":"７３巷","ALLEY":" ","HOUSE_NO":"１３號","E_COORD97":166974.39000000001,"N_COORD97":2546948.9700000002,"ADDRESS":"國安街７３巷１３號","OBJECTID":414401},"geometry":{"x":166974.38999999873,"y":2546948.9700000025}},{"attributes":{"ID":414426,"DIS_CODE":0,"TOWNNAME":"安南區","LI":"幸福里","LIN":"3鄰","STREET":"國安街","SECT":" ","MAREA":" ","LANE":"７３巷","ALLEY":" ","HOUSE_NO":"１４號","E_COORD97":166947.39000000001,"N_COORD97":2546944.3100000001,"ADDRESS":"國安街７３巷１４號","OBJECTID":414402},"geometry":{"x":166947.39000000153,"y":2546944.3100000005}},{"attributes":{"ID":414427,"DIS_CODE":0,"TOWNNAME":"安南區","LI":"幸福里","LIN":"3鄰","STREET":"國安街","SECT":" ","MAREA":" ","LANE":"７３巷","ALLEY":" ","HOUSE_NO":"１５號","E_COORD97":166975.07999999999,"N_COORD97":2546943.8500000001,"ADDRESS":"國安街７３巷１５號","OBJECTID":414403},"geometry":{"x":166975.08000000007,"y":2546943.8499999978}},{"attributes":{"ID":414428,"DIS_CODE":0,"TOWNNAME":"安南區","LI":"幸福里","LIN":"3鄰","STREET":"國安街","SECT":" ","MAREA":" ","LANE":"７３巷","ALLEY":" ","HOUSE_NO":"１６號","E_COORD97":166948.35000000001,"N_COORD97":2546938.98,"ADDRESS":"國安街７３巷１６號","OBJECTID":414404},"geometry":{"x":166948.35000000056,"y":2546938.9800000004}},{"attributes":{"ID":414429,"DIS_CODE":0,"TOWNNAME":"東區","LI":"大智里","LIN":"24鄰","STREET":"文東街","SECT":" ","MAREA":" ","LANE":"３０巷","ALLEY":" ","HOUSE_NO":"７號","E_COORD97":171358.54999999999,"N_COORD97":2540166.27,"ADDRESS":"文東街３０巷７號","OBJECTID":414405},"geometry":{"x":171358.54999999981,"y":2540166.2699999996}},{"attributes":{"ID":414430,"DIS_CODE":0,"TOWNNAME":"安南區","LI":"幸福里","LIN":"3鄰","STREET":"國安街","SECT":" ","MAREA":" ","LANE":"７３巷","ALLEY":" ","HOUSE_NO":"１７號","E_COORD97":166976.04000000001,"N_COORD97":2546939.21,"ADDRESS":"國安街７３巷１７號","OBJECTID":414406},"geometry":{"x":166976.04000000097,"y":2546939.2100000009}},{"attributes":{"ID":414431,"DIS_CODE":0,"TOWNNAME":"安南區","LI":"幸福里","LIN":"3鄰","STREET":"國安街","SECT":" ","MAREA":" ","LANE":"７３巷","ALLEY":" ","HOUSE_NO":"１８號","E_COORD97":166949.57999999999,"N_COORD97":2546934.52,"ADDRESS":"國安街７３巷１８號","OBJECTID":414407},"geometry":{"x":166949.58000000007,"y":2546934.5199999996}},{"attributes":{"ID":414432,"DIS_CODE":0,"TOWNNAME":"安南區","LI":"幸福里","LIN":"3鄰","STREET":"國安街","SECT":" ","MAREA":" ","LANE":"７３巷","ALLEY":" ","HOUSE_NO":"１９號","E_COORD97":166977.48999999999,"N_COORD97":2546934.6800000002,"ADDRESS":"國安街７３巷１９號","OBJECTID":414408},"geometry":{"x":166977.49000000022,"y":2546934.6799999997}},{"attributes":{"ID":414433,"DIS_CODE":0,"TOWNNAME":"安南區","LI":"幸福里","LIN":"3鄰","STREET":"國安街","SECT":" ","MAREA":" ","LANE":"７３巷","ALLEY":" ","HOUSE_NO":"１號","E_COORD97":166968.01999999999,"N_COORD97":2546978.1600000001,"ADDRESS":"國安街７３巷１號","OBJECTID":414409},"geometry":{"x":166968.01999999955,"y":2546978.1600000001}},{"attributes":{"ID":414434,"DIS_CODE":0,"TOWNNAME":"安南區","LI":"幸福里","LIN":"3鄰","STREET":"國安街","SECT":" ","MAREA":" ","LANE":"７３巷","ALLEY":" ","HOUSE_NO":"２０號","E_COORD97":166950.28,"N_COORD97":2546929.3599999999,"ADDRESS":"國安街７３巷２０號","OBJECTID":414410},"geometry":{"x":166950.28000000026,"y":2546929.3599999994}},{"attributes":{"ID":414435,"DIS_CODE":0,"TOWNNAME":"安南區","LI":"幸福里","LIN":"3鄰","STREET":"國安街","SECT":" ","MAREA":" ","LANE":"７３巷","ALLEY":" ","HOUSE_NO":"２２號","E_COORD97":166951.16,"N_COORD97":2546925.04,"ADDRESS":"國安街７３巷２２號","OBJECTID":414411},"geometry":{"x":166951.16000000201,"y":2546925.0399999972}},{"attributes":{"ID":414436,"DIS_CODE":0,"TOWNNAME":"安南區","LI":"幸福里","LIN":"3鄰","STREET":"國安街","SECT":" ","MAREA":" ","LANE":"７３巷","ALLEY":" ","HOUSE_NO":"２號","E_COORD97":166942.39000000001,"N_COORD97":2546973.5600000001,"ADDRESS":"國安街７３巷２號","OBJECTID":414412},"geometry":{"x":166942.39000000153,"y":2546973.5600000005}},{"attributes":{"ID":414437,"DIS_CODE":0,"TOWNNAME":"安南區","LI":"幸福里","LIN":"3鄰","STREET":"國安街","SECT":" ","MAREA":" ","LANE":"７３巷","ALLEY":" ","HOUSE_NO":"３號","E_COORD97":166969.82000000001,"N_COORD97":2546973.3199999998,"ADDRESS":"國安街７３巷３號","OBJECTID":414413},"geometry":{"x":166969.8200000003,"y":2546973.3200000022}},{"attributes":{"ID":414438,"DIS_CODE":0,"TOWNNAME":"安南區","LI":"幸福里","LIN":"3鄰","STREET":"國安街","SECT":" ","MAREA":" ","LANE":"７３巷","ALLEY":" ","HOUSE_NO":"４號","E_COORD97":166942.73999999999,"N_COORD97":2546969.0299999998,"ADDRESS":"國安街７３巷４號","OBJECTID":414414},"geometry":{"x":166942.74000000115,"y":2546969.0299999993}},{"attributes":{"ID":414439,"DIS_CODE":0,"TOWNNAME":"安南區","LI":"幸福里","LIN":"3鄰","STREET":"國安街","SECT":" ","MAREA":" ","LANE":"７３巷","ALLEY":" ","HOUSE_NO":"５號","E_COORD97":166970.79000000001,"N_COORD97":2546968.4700000002,"ADDRESS":"國安街７３巷５號","OBJECTID":414415},"geometry":{"x":166970.79000000097,"y":2546968.4700000025}},{"attributes":{"ID":414440,"DIS_CODE":0,"TOWNNAME":"安南區","LI":"幸福里","LIN":"3鄰","STREET":"國安街","SECT":" ","MAREA":" ","LANE":"７３巷","ALLEY":" ","HOUSE_NO":"７號","E_COORD97":166971.20999999999,"N_COORD97":2546963.3599999999,"ADDRESS":"國安街７３巷７號","OBJECTID":414416},"geometry":{"x":166971.21000000089,"y":2546963.3599999994}},{"attributes":{"ID":414441,"DIS_CODE":0,"TOWNNAME":"安南區","LI":"幸福里","LIN":"3鄰","STREET":"國安街","SECT":" ","MAREA":" ","LANE":"９１巷","ALLEY":" ","HOUSE_NO":"１１號","E_COORD97":166928.37,"N_COORD97":2546946.1299999999,"ADDRESS":"國安街９１巷１１號","OBJECTID":414417},"geometry":{"x":166928.37000000104,"y":2546946.1300000008}},{"attributes":{"ID":414442,"DIS_CODE":0,"TOWNNAME":"安南區","LI":"幸福里","LIN":"3鄰","STREET":"國安街","SECT":" ","MAREA":" ","LANE":"９１巷","ALLEY":" ","HOUSE_NO":"１３號","E_COORD97":166930.16,"N_COORD97":2546940.5099999998,"ADDRESS":"國安街９１巷１３號","OBJECTID":414418},"geometry":{"x":166930.16000000015,"y":2546940.5100000016}},{"attributes":{"ID":414443,"DIS_CODE":0,"TOWNNAME":"安南區","LI":"幸福里","LIN":"3鄰","STREET":"國安街","SECT":" ","MAREA":" ","LANE":"９１巷","ALLEY":" ","HOUSE_NO":"１５號","E_COORD97":166930.60000000001,"N_COORD97":2546935.8599999999,"ADDRESS":"國安街９１巷１５號","OBJECTID":414419},"geometry":{"x":166930.60000000149,"y":2546935.8599999994}},{"attributes":{"ID":414444,"DIS_CODE":0,"TOWNNAME":"安南區","LI":"幸福里","LIN":"3鄰","STREET":"國安街","SECT":" ","MAREA":" ","LANE":"９１巷","ALLEY":" ","HOUSE_NO":"１７號","E_COORD97":166931.28,"N_COORD97":2546931.1000000001,"ADDRESS":"國安街９１巷１７號","OBJECTID":414420},"geometry":{"x":166931.28000000026,"y":2546931.0999999996}},{"attributes":{"ID":414445,"DIS_CODE":0,"TOWNNAME":"安南區","LI":"幸福里","LIN":"3鄰","STREET":"國安街","SECT":" ","MAREA":" ","LANE":"９１巷","ALLEY":" ","HOUSE_NO":"１９號","E_COORD97":166931.79000000001,"N_COORD97":2546925.9900000002,"ADDRESS":"國安街９１巷１９號","OBJECTID":414421},"geometry":{"x":166931.79000000097,"y":2546925.9900000002}},{"attributes":{"ID":414446,"DIS_CODE":0,"TOWNNAME":"安南區","LI":"幸福里","LIN":"3鄰","STREET":"國安街","SECT":" ","MAREA":" ","LANE":"９１巷","ALLEY":" ","HOUSE_NO":"１號","E_COORD97":166923.48999999999,"N_COORD97":2546969.9399999999,"ADDRESS":"國安街９１巷１號","OBJECTID":414422},"geometry":{"x":166923.48999999929,"y":2546969.9399999995}},{"attributes":{"ID":414447,"DIS_CODE":0,"TOWNNAME":"安南區","LI":"幸福里","LIN":"3鄰","STREET":"國安街","SECT":" ","MAREA":" ","LANE":"９１巷","ALLEY":" ","HOUSE_NO":"２１號","E_COORD97":166933.07000000001,"N_COORD97":2546920.6299999999,"ADDRESS":"國安街９１巷２１號","OBJECTID":414423},"geometry":{"x":166933.0700000003,"y":2546920.629999999}},{"attributes":{"ID":414448,"DIS_CODE":0,"TOWNNAME":"安南區","LI":"幸福里","LIN":"3鄰","STREET":"國安街","SECT":" ","MAREA":" ","LANE":"９１巷","ALLEY":" ","HOUSE_NO":"２３號","E_COORD97":166934.26000000001,"N_COORD97":2546916.4500000002,"ADDRESS":"國安街９１巷２３號","OBJECTID":414424},"geometry":{"x":166934.25999999978,"y":2546916.4500000011}},{"attributes":{"ID":414449,"DIS_CODE":0,"TOWNNAME":"安南區","LI":"幸福里","LIN":"3鄰","STREET":"國安街","SECT":" ","MAREA":" ","LANE":"９１巷","ALLEY":" ","HOUSE_NO":"３號","E_COORD97":166924.26000000001,"N_COORD97":2546965.1699999999,"ADDRESS":"國安街９１巷３號","OBJECTID":414425},"geometry":{"x":166924.25999999978,"y":2546965.1699999999}},{"attributes":{"ID":414450,"DIS_CODE":0,"TOWNNAME":"安南區","LI":"幸福里","LIN":"3鄰","STREET":"國安街","SECT":" ","MAREA":" ","LANE":"９１巷","ALLEY":" ","HOUSE_NO":"５號","E_COORD97":166925.45000000001,"N_COORD97":2546960.23,"ADDRESS":"國安街９１巷５號","OBJECTID":414426},"geometry":{"x":166925.45000000205,"y":2546960.2300000023}},{"attributes":{"ID":414451,"DIS_CODE":0,"TOWNNAME":"安南區","LI":"幸福里","LIN":"3鄰","STREET":"國安街","SECT":" ","MAREA":" ","LANE":"９１巷","ALLEY":" ","HOUSE_NO":"７號","E_COORD97":166926.32000000001,"N_COORD97":2546954.98,"ADDRESS":"國安街９１巷７號","OBJECTID":414427},"geometry":{"x":166926.3200000003,"y":2546954.9800000023}},{"attributes":{"ID":414452,"DIS_CODE":0,"TOWNNAME":"永康區","LI":"五王里","LIN":"3鄰","STREET":"成功路","SECT":" ","MAREA":" ","LANE":"１３０巷","ALLEY":" ","HOUSE_NO":"３５號","E_COORD97":171564.98999999999,"N_COORD97":2545561.4399999999,"ADDRESS":"成功路１３０巷３５號","OBJECTID":414428},"geometry":{"x":171564.99000000209,"y":2545561.4400000013}},{"attributes":{"ID":414453,"DIS_CODE":0,"TOWNNAME":"永康區","LI":"三民里","LIN":"3鄰","STREET":"三民街","SECT":" ","MAREA":" ","LANE":"３巷","ALLEY":" ","HOUSE_NO":"１５６號","E_COORD97":173038.32999999999,"N_COORD97":2550054.79,"ADDRESS":"三民街３巷１５６號","OBJECTID":414429},"geometry":{"x":173038.33000000007,"y":2550054.7899999991}},{"attributes":{"ID":414454,"DIS_CODE":0,"TOWNNAME":"永康區","LI":"復華里","LIN":"3鄰","STREET":"復國二路","SECT":" ","MAREA":" ","LANE":"３３８巷","ALLEY":" ","HOUSE_NO":"１１號","E_COORD97":173060.60999999999,"N_COORD97":2546125.8999999999,"ADDRESS":"復國二路３３８巷１１號","OBJECTID":414430},"geometry":{"x":173060.61000000034,"y":2546125.9000000004}},{"attributes":{"ID":414455,"DIS_CODE":0,"TOWNNAME":"永康區","LI":"尚頂里","LIN":"3鄰","STREET":"中正二街","SECT":" ","MAREA":" ","LANE":"１６２巷","ALLEY":" ","HOUSE_NO":"６號","E_COORD97":171355.54999999999,"N_COORD97":2547639.9900000002,"ADDRESS":"中正二街１６２巷６號","OBJECTID":414431},"geometry":{"x":171355.54999999888,"y":2547639.9900000021}},{"attributes":{"ID":414456,"DIS_CODE":0,"TOWNNAME":"永康區","LI":"復國里","LIN":"3鄰","STREET":"復國一路","SECT":" ","MAREA":" ","LANE":"４４巷","ALLEY":" ","HOUSE_NO":"１８號","E_COORD97":172774.14999999999,"N_COORD97":2544800.2999999998,"ADDRESS":"復國一路４４巷１８號","OBJECTID":414432},"geometry":{"x":172774.15000000037,"y":2544800.3000000026}},{"attributes":{"ID":414457,"DIS_CODE":0,"TOWNNAME":"永康區","LI":"大橋里","LIN":"3鄰","STREET":"大橋一街","SECT":" ","MAREA":" ","LANE":"７３巷","ALLEY":" ","HOUSE_NO":"７４號","E_COORD97":170740.59,"N_COORD97":2546612.5,"ADDRESS":"大橋一街７３巷７４號","OBJECTID":414433},"geometry":{"x":170740.59000000078,"y":2546612.5000000019}},{"attributes":{"ID":414458,"DIS_CODE":0,"TOWNNAME":"永康區","LI":"三民里","LIN":"3鄰","STREET":"三民街","SECT":" ","MAREA":" ","LANE":"４２巷","ALLEY":" ","HOUSE_NO":"３５號","E_COORD97":173247.67000000001,"N_COORD97":2550228.7799999998,"ADDRESS":"三民街４２巷３５號","OBJECTID":414434},"geometry":{"x":173247.66999999993,"y":2550228.7799999993}},{"attributes":{"ID":414459,"DIS_CODE":0,"TOWNNAME":"永康區","LI":"三民里","LIN":"3鄰","STREET":"三民街","SECT":" ","MAREA":" ","LANE":"４１巷","ALLEY":" ","HOUSE_NO":"３３號","E_COORD97":172849.32999999999,"N_COORD97":2550145.6299999999,"ADDRESS":"三民街４１巷３３號","OBJECTID":414435},"geometry":{"x":172849.33000000101,"y":2550145.6300000008}},{"attributes":{"ID":414460,"DIS_CODE":0,"TOWNNAME":"永康區","LI":"神洲里","LIN":"3鄰","STREET":"忠孝路","SECT":" ","MAREA":" ","LANE":"３２巷","ALLEY":" ","HOUSE_NO":"１９號","E_COORD97":172164.84,"N_COORD97":2544649.25,"ADDRESS":"忠孝路３２巷１９號","OBJECTID":414436},"geometry":{"x":172164.84000000078,"y":2544649.25}},{"attributes":{"ID":414461,"DIS_CODE":0,"TOWNNAME":"永康區","LI":"三合里","LIN":"3鄰","STREET":"中華二路","SECT":" ","MAREA":" ","LANE":"８８巷","ALLEY":" ","HOUSE_NO":"１０號","E_COORD97":172085.70999999999,"N_COORD97":2545476.75,"ADDRESS":"中華二路８８巷１０號","OBJECTID":414437},"geometry":{"x":172085.71000000089,"y":2545476.75}},{"attributes":{"ID":414462,"DIS_CODE":0,"TOWNNAME":"永康區","LI":"六合里","LIN":"3鄰","STREET":"中山南路","SECT":" ","MAREA":" ","LANE":"１１８巷","ALLEY":" ","HOUSE_NO":"５號","E_COORD97":171095.14000000001,"N_COORD97":2545916.25,"ADDRESS":"中山南路１１８巷５號","OBJECTID":414438},"geometry":{"x":171095.13999999966,"y":2545916.25}},{"attributes":{"ID":414463,"DIS_CODE":0,"TOWNNAME":"北區","LI":"玉皇里","LIN":"13鄰","STREET":"公園路","SECT":" ","MAREA":" ","LANE":" ","ALLEY":" ","HOUSE_NO":"１７７號","E_COORD97":168746.53,"N_COORD97":2544394.2999999998,"ADDRESS":"公園路１７７號","OBJECTID":414439},"geometry":{"x":168746.53000000026,"y":2544394.3000000007}},{"attributes":{"ID":414464,"DIS_CODE":0,"TOWNNAME":"中西區","LI":"安海里","LIN":"3鄰","STREET":"河中街","SECT":" ","MAREA":" ","LANE":"５４巷","ALLEY":" ","HOUSE_NO":"３號","E_COORD97":167320.39000000001,"N_COORD97":2544064.9700000002,"ADDRESS":"河中街５４巷３號","OBJECTID":414440},"geometry":{"x":167320.39000000153,"y":2544064.9700000007}},{"attributes":{"ID":414465,"DIS_CODE":0,"TOWNNAME":"永康區","LI":"復興里","LIN":"3鄰","STREET":"復興路","SECT":" ","MAREA":" ","LANE":"２７７巷","ALLEY":" ","HOUSE_NO":"２３０號","E_COORD97":172404.45999999999,"N_COORD97":2543719.5099999998,"ADDRESS":"復興路２７７巷２３０號","OBJECTID":414441},"geometry":{"x":172404.46000000089,"y":2543719.5100000016}},{"attributes":{"ID":414466,"DIS_CODE":0,"TOWNNAME":"安南區","LI":"州北里","LIN":"3鄰","STREET":"安和路","SECT":"五段","MAREA":" ","LANE":"１７１巷","ALLEY":" ","HOUSE_NO":"１４３號之１","E_COORD97":169641.51000000001,"N_COORD97":2551632.1499999999,"ADDRESS":"安和路五段１７１巷１４３號之１","OBJECTID":414442},"geometry":{"x":169641.50999999978,"y":2551632.1500000022}},{"attributes":{"ID":414467,"DIS_CODE":0,"TOWNNAME":"安南區","LI":"城中里","LIN":"3鄰","STREET":"安中路","SECT":"六段","MAREA":" ","LANE":"５０７巷","ALLEY":" ","HOUSE_NO":"１０號","E_COORD97":160926.38,"N_COORD97":2551299.1000000001,"ADDRESS":"安中路六段５０７巷１０號","OBJECTID":414443},"geometry":{"x":160926.38000000175,"y":2551299.1000000034}},{"attributes":{"ID":414468,"DIS_CODE":0,"TOWNNAME":"安南區","LI":"城中里","LIN":"3鄰","STREET":"安中路","SECT":"六段","MAREA":" ","LANE":"５０７巷","ALLEY":" ","HOUSE_NO":"１２號","E_COORD97":160923.09,"N_COORD97":2551295.2599999998,"ADDRESS":"安中路六段５０７巷１２號","OBJECTID":414444},"geometry":{"x":160923.08999999892,"y":2551295.2600000016}},{"attributes":{"ID":414469,"DIS_CODE":0,"TOWNNAME":"安南區","LI":"城中里","LIN":"3鄰","STREET":"安中路","SECT":"六段","MAREA":" ","LANE":"５０７巷","ALLEY":" ","HOUSE_NO":"１４號","E_COORD97":160919.51999999999,"N_COORD97":2551292.52,"ADDRESS":"安中路六段５０７巷１４號","OBJECTID":414445},"geometry":{"x":160919.51999999955,"y":2551292.5200000033}},{"attributes":{"ID":414470,"DIS_CODE":0,"TOWNNAME":"安南區","LI":"城中里","LIN":"3鄰","STREET":"安中路","SECT":"六段","MAREA":" ","LANE":"５０７巷","ALLEY":" ","HOUSE_NO":"２２號","E_COORD97":160897.34,"N_COORD97":2551287.3199999998,"ADDRESS":"安中路六段５０７巷２２號","OBJECTID":414446},"geometry":{"x":160897.33999999985,"y":2551287.3200000003}},{"attributes":{"ID":414471,"DIS_CODE":0,"TOWNNAME":"安南區","LI":"城中里","LIN":"3鄰","STREET":"安中路","SECT":"六段","MAREA":" ","LANE":"５０７巷","ALLEY":" ","HOUSE_NO":"２４號","E_COORD97":160892.07000000001,"N_COORD97":2551285.1499999999,"ADDRESS":"安中路六段５０７巷２４號","OBJECTID":414447},"geometry":{"x":160892.07000000123,"y":2551285.1500000004}},{"attributes":{"ID":414472,"DIS_CODE":0,"TOWNNAME":"安南區","LI":"城中里","LIN":"3鄰","STREET":"安中路","SECT":"六段","MAREA":" ","LANE":"５０７巷","ALLEY":" ","HOUSE_NO":"２６號","E_COORD97":160884.95000000001,"N_COORD97":2551284.5299999998,"ADDRESS":"安中路六段５０７巷２６號","OBJECTID":414448},"geometry":{"x":160884.95000000019,"y":2551284.5299999993}},{"attributes":{"ID":414473,"DIS_CODE":0,"TOWNNAME":"安南區","LI":"城中里","LIN":"3鄰","STREET":"安中路","SECT":"六段","MAREA":" ","LANE":"５０７巷","ALLEY":" ","HOUSE_NO":"２８號","E_COORD97":160879.06,"N_COORD97":2551282.3599999999,"ADDRESS":"安中路六段５０７巷２８號","OBJECTID":414449},"geometry":{"x":160879.06000000145,"y":2551282.3599999994}},{"attributes":{"ID":414474,"DIS_CODE":0,"TOWNNAME":"安南區","LI":"城中里","LIN":"3鄰","STREET":"安中路","SECT":"六段","MAREA":" ","LANE":"５０７巷","ALLEY":" ","HOUSE_NO":"３０號","E_COORD97":160871.31,"N_COORD97":2551280.8100000001,"ADDRESS":"安中路六段５０７巷３０號","OBJECTID":414450},"geometry":{"x":160871.31000000052,"y":2551280.8100000005}},{"attributes":{"ID":414475,"DIS_CODE":0,"TOWNNAME":"安南區","LI":"城中里","LIN":"3鄰","STREET":"安中路","SECT":"六段","MAREA":" ","LANE":"５０７巷","ALLEY":" ","HOUSE_NO":"３２號","E_COORD97":160867.89999999999,"N_COORD97":2551278.96,"ADDRESS":"安中路六段５０７巷３２號","OBJECTID":414451},"geometry":{"x":160867.9000000013,"y":2551278.9600000028}},{"attributes":{"ID":414476,"DIS_CODE":0,"TOWNNAME":"安南區","LI":"城中里","LIN":"3鄰","STREET":"安中路","SECT":"六段","MAREA":" ","LANE":"５０７巷","ALLEY":" ","HOUSE_NO":"６號","E_COORD97":160933.51000000001,"N_COORD97":2551303.48,"ADDRESS":"安中路六段５０７巷６號","OBJECTID":414452},"geometry":{"x":160933.50999999978,"y":2551303.4800000004}},{"attributes":{"ID":414477,"DIS_CODE":0,"TOWNNAME":"安南區","LI":"城中里","LIN":"3鄰","STREET":"安中路","SECT":"六段","MAREA":" ","LANE":"５０７巷","ALLEY":" ","HOUSE_NO":"８號","E_COORD97":160929.39000000001,"N_COORD97":2551301.29,"ADDRESS":"安中路六段５０７巷８號","OBJECTID":414453},"geometry":{"x":160929.38999999873,"y":2551301.290000001}},{"attributes":{"ID":414478,"DIS_CODE":0,"TOWNNAME":"安南區","LI":"城中里","LIN":"3鄰","STREET":"安中路","SECT":"六段","MAREA":" ","LANE":"５１９巷","ALLEY":" ","HOUSE_NO":"１１號","E_COORD97":160908.26999999999,"N_COORD97":2551308.96,"ADDRESS":"安中路六段５１９巷１１號","OBJECTID":414454},"geometry":{"x":160908.27000000048,"y":2551308.9600000028}},{"attributes":{"ID":414479,"DIS_CODE":0,"TOWNNAME":"安南區","LI":"城中里","LIN":"3鄰","STREET":"安中路","SECT":"六段","MAREA":" ","LANE":"５１９巷","ALLEY":" ","HOUSE_NO":"１３號","E_COORD97":160904.42999999999,"N_COORD97":2551307.5899999999,"ADDRESS":"安中路六段５１９巷１３號","OBJECTID":414455},"geometry":{"x":160904.43000000063,"y":2551307.5900000017}},{"attributes":{"ID":414480,"DIS_CODE":0,"TOWNNAME":"安南區","LI":"城中里","LIN":"3鄰","STREET":"安中路","SECT":"六段","MAREA":" ","LANE":"５１９巷","ALLEY":" ","HOUSE_NO":"１５號","E_COORD97":160900.32000000001,"N_COORD97":2551305.9500000002,"ADDRESS":"安中路六段５１９巷１５號","OBJECTID":414456},"geometry":{"x":160900.32000000123,"y":2551305.9499999993}},{"attributes":{"ID":414481,"DIS_CODE":0,"TOWNNAME":"安南區","LI":"城中里","LIN":"3鄰","STREET":"安中路","SECT":"六段","MAREA":" ","LANE":"５１９巷","ALLEY":" ","HOUSE_NO":"１７號","E_COORD97":160896.48000000001,"N_COORD97":2551302.9399999999,"ADDRESS":"安中路六段５１９巷１７號","OBJECTID":414457},"geometry":{"x":160896.48000000138,"y":2551302.9399999995}},{"attributes":{"ID":414482,"DIS_CODE":0,"TOWNNAME":"安南區","LI":"城中里","LIN":"3鄰","STREET":"安中路","SECT":"六段","MAREA":" ","LANE":"５１９巷","ALLEY":" ","HOUSE_NO":"３號","E_COORD97":160919.25,"N_COORD97":2551325.2000000002,"ADDRESS":"安中路六段５１９巷３號","OBJECTID":414458},"geometry":{"x":160919.25000000093,"y":2551325.200000003}},{"attributes":{"ID":414483,"DIS_CODE":0,"TOWNNAME":"安南區","LI":"城中里","LIN":"3鄰","STREET":"安中路","SECT":"六段","MAREA":" ","LANE":"５１９巷","ALLEY":" ","HOUSE_NO":"５號","E_COORD97":160917.87,"N_COORD97":2551316.6400000001,"ADDRESS":"安中路六段５１９巷５號","OBJECTID":414459},"geometry":{"x":160917.87000000011,"y":2551316.6400000043}},{"attributes":{"ID":414484,"DIS_CODE":0,"TOWNNAME":"安南區","LI":"城中里","LIN":"3鄰","STREET":"安中路","SECT":"六段","MAREA":" ","LANE":"５１９巷","ALLEY":" ","HOUSE_NO":"７號","E_COORD97":160914.31,"N_COORD97":2551314.9900000002,"ADDRESS":"安中路六段５１９巷７號","OBJECTID":414460},"geometry":{"x":160914.30999999959,"y":2551314.9900000021}},{"attributes":{"ID":414485,"DIS_CODE":0,"TOWNNAME":"安南區","LI":"城中里","LIN":"3鄰","STREET":"安中路","SECT":"六段","MAREA":" ","LANE":"５１９巷","ALLEY":" ","HOUSE_NO":"９號","E_COORD97":160911.56,"N_COORD97":2551312.5299999998,"ADDRESS":"安中路六段５１９巷９號","OBJECTID":414461},"geometry":{"x":160911.56000000052,"y":2551312.5300000031}},{"attributes":{"ID":414486,"DIS_CODE":0,"TOWNNAME":"安南區","LI":"公\u25A0里","LIN":"3鄰","STREET":"安興街","SECT":" ","MAREA":" ","LANE":"４３巷","ALLEY":" ","HOUSE_NO":"３５號","E_COORD97":164308.51000000001,"N_COORD97":2552176.46,"ADDRESS":"安興街４３巷３５號","OBJECTID":414462},"geometry":{"x":164308.50999999978,"y":2552176.4600000028}},{"attributes":{"ID":414487,"DIS_CODE":0,"TOWNNAME":"安南區","LI":"公\u25A0里","LIN":"3鄰","STREET":"安興街","SECT":" ","MAREA":" ","LANE":"４３巷","ALLEY":" ","HOUSE_NO":"３７號","E_COORD97":164305.69,"N_COORD97":2552172.2400000002,"ADDRESS":"安興街４３巷３７號","OBJECTID":414463},"geometry":{"x":164305.69000000134,"y":2552172.2400000002}},{"attributes":{"ID":414488,"DIS_CODE":0,"TOWNNAME":"安南區","LI":"公\u25A0里","LIN":"3鄰","STREET":"安興街","SECT":" ","MAREA":" ","LANE":"４３巷","ALLEY":" ","HOUSE_NO":"３９號","E_COORD97":164302.85999999999,"N_COORD97":2552168.9500000002,"ADDRESS":"安興街４３巷３９號","OBJECTID":414464},"geometry":{"x":164302.86000000127,"y":2552168.9500000011}},{"attributes":{"ID":414489,"DIS_CODE":0,"TOWNNAME":"安南區","LI":"公\u25A0里","LIN":"3鄰","STREET":"安興街","SECT":" ","MAREA":" ","LANE":"４３巷","ALLEY":" ","HOUSE_NO":"４１號","E_COORD97":164298.63,"N_COORD97":2552165.6600000001,"ADDRESS":"安興街４３巷４１號","OBJECTID":414465},"geometry":{"x":164298.63000000082,"y":2552165.6600000001}},{"attributes":{"ID":414490,"DIS_CODE":0,"TOWNNAME":"安南區","LI":"海西里","LIN":"3鄰","STREET":"海中街","SECT":" ","MAREA":" ","LANE":"１６９巷","ALLEY":" ","HOUSE_NO":"５９號","E_COORD97":166236.45999999999,"N_COORD97":2549052.27,"ADDRESS":"海中街１６９巷５９號","OBJECTID":414466},"geometry":{"x":166236.45999999996,"y":2549052.2699999996}},{"attributes":{"ID":414491,"DIS_CODE":0,"TOWNNAME":"安南區","LI":"淵中里","LIN":"3鄰","STREET":"安中路","SECT":"四段","MAREA":" ","LANE":"１１９巷","ALLEY":" ","HOUSE_NO":"１５號","E_COORD97":165072.26999999999,"N_COORD97":2549898.8999999999,"ADDRESS":"安中路四段１１９巷１５號","OBJECTID":414467},"geometry":{"x":165072.27000000048,"y":2549898.9000000022}},{"attributes":{"ID":414492,"DIS_CODE":0,"TOWNNAME":"安南區","LI":"淵中里","LIN":"3鄰","STREET":"安中路","SECT":"四段","MAREA":" ","LANE":"１１９巷","ALLEY":" ","HOUSE_NO":"１７號","E_COORD97":165068.85000000001,"N_COORD97":2549895.2000000002,"ADDRESS":"安中路四段１１９巷１７號","OBJECTID":414468},"geometry":{"x":165068.84999999963,"y":2549895.2000000011}},{"attributes":{"ID":414493,"DIS_CODE":0,"TOWNNAME":"安南區","LI":"淵中里","LIN":"3鄰","STREET":"安中路","SECT":"四段","MAREA":" ","LANE":"１１９巷","ALLEY":" ","HOUSE_NO":"１９號","E_COORD97":165067.32000000001,"N_COORD97":2549891.52,"ADDRESS":"安中路四段１１９巷１９號","OBJECTID":414469},"geometry":{"x":165067.32000000123,"y":2549891.5199999996}},{"attributes":{"ID":414494,"DIS_CODE":0,"TOWNNAME":"安南區","LI":"淵中里","LIN":"3鄰","STREET":"安中路","SECT":"四段","MAREA":" ","LANE":"１１９巷","ALLEY":" ","HOUSE_NO":"１號","E_COORD97":165089.42999999999,"N_COORD97":2549923.7000000002,"ADDRESS":"安中路四段１１９巷１號","OBJECTID":414470},"geometry":{"x":165089.43000000063,"y":2549923.6999999993}},{"attributes":{"ID":414495,"DIS_CODE":0,"TOWNNAME":"安南區","LI":"淵中里","LIN":"3鄰","STREET":"安中路","SECT":"四段","MAREA":" ","LANE":"１１９巷","ALLEY":" ","HOUSE_NO":"２１號","E_COORD97":165064.45000000001,"N_COORD97":2549888.29,"ADDRESS":"安中路四段１１９巷２１號","OBJECTID":414471},"geometry":{"x":165064.45000000112,"y":2549888.290000001}},{"attributes":{"ID":414496,"DIS_CODE":0,"TOWNNAME":"安南區","LI":"淵中里","LIN":"3鄰","STREET":"安中路","SECT":"四段","MAREA":" ","LANE":"１１９巷","ALLEY":" ","HOUSE_NO":"２３號","E_COORD97":165062.01999999999,"N_COORD97":2549884.5899999999,"ADDRESS":"安中路四段１１９巷２３號","OBJECTID":414472},"geometry":{"x":165062.02000000048,"y":2549884.5899999999}},{"attributes":{"ID":414497,"DIS_CODE":0,"TOWNNAME":"安南區","LI":"淵中里","LIN":"3鄰","STREET":"安中路","SECT":"四段","MAREA":" ","LANE":"１１９巷","ALLEY":" ","HOUSE_NO":"３號","E_COORD97":165087.37,"N_COORD97":2549919.9399999999,"ADDRESS":"安中路四段１１９巷３號","OBJECTID":414473},"geometry":{"x":165087.37000000104,"y":2549919.9400000032}},{"attributes":{"ID":414498,"DIS_CODE":0,"TOWNNAME":"安南區","LI":"淵中里","LIN":"3鄰","STREET":"安中路","SECT":"四段","MAREA":" ","LANE":"１１９巷","ALLEY":" ","HOUSE_NO":"５號","E_COORD97":165084.85000000001,"N_COORD97":2549916.4399999999,"ADDRESS":"安中路四段１１９巷５號","OBJECTID":414474},"geometry":{"x":165084.85000000056,"y":2549916.4399999976}},{"attributes":{"ID":414499,"DIS_CODE":0,"TOWNNAME":"安南區","LI":"淵中里","LIN":"3鄰","STREET":"安中路","SECT":"四段","MAREA":" ","LANE":"１１９巷","ALLEY":" ","HOUSE_NO":"７號","E_COORD97":165082.25,"N_COORD97":2549913.21,"ADDRESS":"安中路四段１１９巷７號","OBJECTID":414475},"geometry":{"x":165082.25000000186,"y":2549913.2100000028}},{"attributes":{"ID":414500,"DIS_CODE":0,"TOWNNAME":"安南區","LI":"淵中里","LIN":"3鄰","STREET":"安中路","SECT":"四段","MAREA":" ","LANE":"１１９巷","ALLEY":" ","HOUSE_NO":"９號","E_COORD97":165079.91,"N_COORD97":2549908.9900000002,"ADDRESS":"安中路四段１１９巷９號","OBJECTID":414476},"geometry":{"x":165079.91000000108,"y":2549908.9900000002}},{"attributes":{"ID":414501,"DIS_CODE":0,"TOWNNAME":"麻豆區","LI":"中興里","LIN":"3鄰","STREET":"中華街","SECT":" ","MAREA":" ","LANE":"３４巷","ALLEY":" ","HOUSE_NO":"１８號","E_COORD97":172843.57999999999,"N_COORD97":2564640.54,"ADDRESS":"中華街３４巷１８號","OBJECTID":414477},"geometry":{"x":172843.58000000007,"y":2564640.540000001}},{"attributes":{"ID":414502,"DIS_CODE":0,"TOWNNAME":"麻豆區","LI":"中興里","LIN":"3鄰","STREET":"中華街","SECT":" ","MAREA":" ","LANE":"３４巷","ALLEY":" ","HOUSE_NO":"２０號","E_COORD97":172835.73000000001,"N_COORD97":2564640.0800000001,"ADDRESS":"中華街３４巷２０號","OBJECTID":414478},"geometry":{"x":172835.73000000138,"y":2564640.0800000001}},{"attributes":{"ID":414503,"DIS_CODE":0,"TOWNNAME":"麻豆區","LI":"中興里","LIN":"3鄰","STREET":"中華街","SECT":" ","MAREA":" ","LANE":"３４巷","ALLEY":" ","HOUSE_NO":"２２號","E_COORD97":172815.56,"N_COORD97":2564637.0899999999,"ADDRESS":"中華街３４巷２２號","OBJECTID":414479},"geometry":{"x":172815.56000000052,"y":2564637.0900000036}},{"attributes":{"ID":414504,"DIS_CODE":0,"TOWNNAME":"麻豆區","LI":"中興里","LIN":"3鄰","STREET":"中華街","SECT":" ","MAREA":" ","LANE":"３４巷","ALLEY":" ","HOUSE_NO":"２號","E_COORD97":172912.17999999999,"N_COORD97":2564660.6600000001,"ADDRESS":"中華街３４巷２號","OBJECTID":414480},"geometry":{"x":172912.1799999997,"y":2564660.6600000039}},{"attributes":{"ID":414505,"DIS_CODE":0,"TOWNNAME":"麻豆區","LI":"中興里","LIN":"3鄰","STREET":"中華街","SECT":" ","MAREA":" ","LANE":"３４巷","ALLEY":" ","HOUSE_NO":"４號","E_COORD97":172906.45000000001,"N_COORD97":2564659.3300000001,"ADDRESS":"中華街３４巷４號","OBJECTID":414481},"geometry":{"x":172906.45000000112,"y":2564659.3300000038}},{"attributes":{"ID":414506,"DIS_CODE":0,"TOWNNAME":"麻豆區","LI":"中興里","LIN":"3鄰","STREET":"中華街","SECT":" ","MAREA":" ","LANE":"３４巷","ALLEY":" ","HOUSE_NO":"６號","E_COORD97":172901.09,"N_COORD97":2564658.1200000001,"ADDRESS":"中華街３４巷６號","OBJECTID":414482},"geometry":{"x":172901.08999999985,"y":2564658.1199999992}},{"attributes":{"ID":414507,"DIS_CODE":0,"TOWNNAME":"麻豆區","LI":"中興里","LIN":"3鄰","STREET":"中華街","SECT":" ","MAREA":" ","LANE":"３４巷","ALLEY":" ","HOUSE_NO":"８號","E_COORD97":172895.20000000001,"N_COORD97":2564656.9100000001,"ADDRESS":"中華街３４巷８號","OBJECTID":414483},"geometry":{"x":172895.20000000019,"y":2564656.910000002}},{"attributes":{"ID":414508,"DIS_CODE":0,"TOWNNAME":"麻豆區","LI":"興農里","LIN":"3鄰","STREET":"仁愛路","SECT":" ","MAREA":" ","LANE":"２９巷","ALLEY":" ","HOUSE_NO":"４４號","E_COORD97":172530.44,"N_COORD97":2564330.4100000001,"ADDRESS":"仁愛路２９巷４４號","OBJECTID":414484},"geometry":{"x":172530.44000000134,"y":2564330.410000002}},{"attributes":{"ID":414509,"DIS_CODE":0,"TOWNNAME":"麻豆區","LI":"興農里","LIN":"3鄰","STREET":"仁愛路","SECT":" ","MAREA":" ","LANE":"２９巷","ALLEY":" ","HOUSE_NO":"４６號","E_COORD97":172546.29000000001,"N_COORD97":2564330.8199999998,"ADDRESS":"仁愛路２９巷４６號","OBJECTID":414485},"geometry":{"x":172546.29000000097,"y":2564330.820000004}},{"attributes":{"ID":414510,"DIS_CODE":0,"TOWNNAME":"麻豆區","LI":"興農里","LIN":"3鄰","STREET":"仁愛路","SECT":" ","MAREA":" ","LANE":"２９巷","ALLEY":" ","HOUSE_NO":"４８號","E_COORD97":172572.57000000001,"N_COORD97":2564356.5499999998,"ADDRESS":"仁愛路２９巷４８號","OBJECTID":414486},"geometry":{"x":172572.5700000003,"y":2564356.5499999989}},{"attributes":{"ID":414511,"DIS_CODE":0,"TOWNNAME":"新市區","LI":"港墘里","LIN":"3鄰","STREET":"三民街","SECT":" ","MAREA":" ","LANE":"５０巷","ALLEY":" ","HOUSE_NO":"６號","E_COORD97":178509.39000000001,"N_COORD97":2553426.54,"ADDRESS":"三民街５０巷６號","OBJECTID":414487},"geometry":{"x":178509.3900000006,"y":2553426.5399999991}},{"attributes":{"ID":414512,"DIS_CODE":0,"TOWNNAME":"中西區","LI":"建國里","LIN":"3鄰","STREET":"中正路","SECT":" ","MAREA":" ","LANE":"１３８巷","ALLEY":" ","HOUSE_NO":"３號","E_COORD97":167921.64999999999,"N_COORD97":2543726.8900000001,"ADDRESS":"中正路１３８巷３號","OBJECTID":414488},"geometry":{"x":167921.6500000013,"y":2543726.8900000006}},{"attributes":{"ID":414513,"DIS_CODE":0,"TOWNNAME":"中西區","LI":"建國里","LIN":"3鄰","STREET":"中正路","SECT":" ","MAREA":" ","LANE":"１５０巷","ALLEY":" ","HOUSE_NO":"１０號","E_COORD97":167911.64999999999,"N_COORD97":2543729.8300000001,"ADDRESS":"中正路１５０巷１０號","OBJECTID":414489},"geometry":{"x":167911.6500000013,"y":2543729.8300000001}},{"attributes":{"ID":414514,"DIS_CODE":0,"TOWNNAME":"仁德區","LI":"仁德里","LIN":"3鄰","STREET":"仁德五街","SECT":" ","MAREA":" ","LANE":"２４巷","ALLEY":" ","HOUSE_NO":"５號","E_COORD97":173377.54000000001,"N_COORD97":2540256.5099999998,"ADDRESS":"仁德五街２４巷５號","OBJECTID":414490},"geometry":{"x":173377.54000000004,"y":2540256.5099999998}},{"attributes":{"ID":414515,"DIS_CODE":0,"TOWNNAME":"中西區","LI":"建國里","LIN":"3鄰","STREET":"中正路","SECT":" ","MAREA":" ","LANE":"１５０巷","ALLEY":" ","HOUSE_NO":"１２號","E_COORD97":167912.82999999999,"N_COORD97":2543736.0899999999,"ADDRESS":"中正路１５０巷１２號","OBJECTID":414491},"geometry":{"x":167912.83000000194,"y":2543736.0900000017}},{"attributes":{"ID":414516,"DIS_CODE":0,"TOWNNAME":"中西區","LI":"建國里","LIN":"3鄰","STREET":"中正路","SECT":" ","MAREA":" ","LANE":"１５０巷","ALLEY":" ","HOUSE_NO":"３號","E_COORD97":167896.16,"N_COORD97":2543722.9700000002,"ADDRESS":"中正路１５０巷３號","OBJECTID":414492},"geometry":{"x":167896.16000000108,"y":2543722.9700000007}},{"attributes":{"ID":414517,"DIS_CODE":0,"TOWNNAME":"中西區","LI":"建國里","LIN":"3鄰","STREET":"中正路","SECT":" ","MAREA":" ","LANE":"１５０巷","ALLEY":" ","HOUSE_NO":"５號","E_COORD97":167896.94,"N_COORD97":2543727.6699999999,"ADDRESS":"中正路１５０巷５號","OBJECTID":414493},"geometry":{"x":167896.94000000041,"y":2543727.6699999999}},{"attributes":{"ID":414518,"DIS_CODE":0,"TOWNNAME":"中西區","LI":"建國里","LIN":"3鄰","STREET":"中正路","SECT":" ","MAREA":" ","LANE":"１５０巷","ALLEY":" ","HOUSE_NO":"８號","E_COORD97":167910.87,"N_COORD97":2543726.5,"ADDRESS":"中正路１５０巷８號","OBJECTID":414494},"geometry":{"x":167910.87000000197,"y":2543726.5000000019}},{"attributes":{"ID":414519,"DIS_CODE":0,"TOWNNAME":"中西區","LI":"建國里","LIN":"3鄰","STREET":"西門路","SECT":"二段","MAREA":" ","LANE":"１１６巷","ALLEY":" ","HOUSE_NO":"１０號","E_COORD97":167901.26000000001,"N_COORD97":2543736.46,"ADDRESS":"西門路二段１１６巷１０號","OBJECTID":414495},"geometry":{"x":167901.26000000071,"y":2543736.4600000009}},{"attributes":{"ID":414520,"DIS_CODE":0,"TOWNNAME":"中西區","LI":"建國里","LIN":"3鄰","STREET":"西門路","SECT":"二段","MAREA":" ","LANE":"１１６巷","ALLEY":" ","HOUSE_NO":"６號","E_COORD97":167892.82000000001,"N_COORD97":2543735.2799999998,"ADDRESS":"西門路二段１１６巷６號","OBJECTID":414496},"geometry":{"x":167892.82000000216,"y":2543735.2799999993}},{"attributes":{"ID":414521,"DIS_CODE":0,"TOWNNAME":"中西區","LI":"建國里","LIN":"3鄰","STREET":"西門路","SECT":"二段","MAREA":" ","LANE":"１１６巷","ALLEY":" ","HOUSE_NO":"８號","E_COORD97":167896.16,"N_COORD97":2543734.6899999999,"ADDRESS":"西門路二段１１６巷８號","OBJECTID":414497},"geometry":{"x":167896.16000000108,"y":2543734.6900000013}},{"attributes":{"ID":414522,"DIS_CODE":0,"TOWNNAME":"中西區","LI":"建國里","LIN":"3鄰","STREET":"中正路","SECT":" ","MAREA":" ","LANE":"１０８巷","ALLEY":" ","HOUSE_NO":"１號","E_COORD97":167995.91,"N_COORD97":2543697.8199999998,"ADDRESS":"中正路１０８巷１號","OBJECTID":414498},"geometry":{"x":167995.91000000108,"y":2543697.8200000022}},{"attributes":{"ID":414523,"DIS_CODE":0,"TOWNNAME":"中西區","LI":"建國里","LIN":"3鄰","STREET":"中正路","SECT":" ","MAREA":" ","LANE":"１３８巷","ALLEY":" ","HOUSE_NO":"２號","E_COORD97":167933.17999999999,"N_COORD97":2543716.9500000002,"ADDRESS":"中正路１３８巷２號","OBJECTID":414499},"geometry":{"x":167933.1799999997,"y":2543716.9500000011}},{"attributes":{"ID":414524,"DIS_CODE":0,"TOWNNAME":"中西區","LI":"建國里","LIN":"3鄰","STREET":"中正路","SECT":" ","MAREA":" ","LANE":"１３８巷","ALLEY":" ","HOUSE_NO":"６號","E_COORD97":167934.25,"N_COORD97":2543722.04,"ADDRESS":"中正路１３８巷６號","OBJECTID":414500},"geometry":{"x":167934.25000000093,"y":2543722.040000001}},{"attributes":{"ID":414525,"DIS_CODE":0,"TOWNNAME":"中西區","LI":"建國里","LIN":"3鄰","STREET":"中正路","SECT":" ","MAREA":" ","LANE":"１３８巷","ALLEY":" ","HOUSE_NO":"８號","E_COORD97":167935.98999999999,"N_COORD97":2543730.46,"ADDRESS":"中正路１３８巷８號","OBJECTID":414501},"geometry":{"x":167935.99000000115,"y":2543730.4600000046}},{"attributes":{"ID":414526,"DIS_CODE":0,"TOWNNAME":"中西區","LI":"建國里","LIN":"3鄰","STREET":"民生路","SECT":"一段","MAREA":" ","LANE":"１５７巷","ALLEY":" ","HOUSE_NO":"３２號","E_COORD97":167961.42999999999,"N_COORD97":2543722.04,"ADDRESS":"民生路一段１５７巷３２號","OBJECTID":414502},"geometry":{"x":167961.43000000063,"y":2543722.040000001}},{"attributes":{"ID":414527,"DIS_CODE":0,"TOWNNAME":"中西區","LI":"建國里","LIN":"3鄰","STREET":"民生路","SECT":"一段","MAREA":" ","LANE":"１５７巷","ALLEY":" ","HOUSE_NO":"３４號","E_COORD97":167960.64000000001,"N_COORD97":2543718.0499999998,"ADDRESS":"民生路一段１５７巷３４號","OBJECTID":414503},"geometry":{"x":167960.63999999966,"y":2543718.0500000007}},{"attributes":{"ID":414528,"DIS_CODE":0,"TOWNNAME":"中西區","LI":"永華里","LIN":"3鄰","STREET":"府前路","SECT":"一段","MAREA":" ","LANE":"１９６巷","ALLEY":" ","HOUSE_NO":"１號","E_COORD97":168529.81,"N_COORD97":2543315.2599999998,"ADDRESS":"府前路一段１９６巷１號","OBJECTID":414504},"geometry":{"x":168529.81000000052,"y":2543315.2600000016}},{"attributes":{"ID":414529,"DIS_CODE":0,"TOWNNAME":"仁德區","LI":"保安里","LIN":"3鄰","STREET":"保安路","SECT":"一段","MAREA":" ","LANE":"７２巷","ALLEY":" ","HOUSE_NO":"８號","E_COORD97":170797.01000000001,"N_COORD97":2536281.8199999998,"ADDRESS":"保安路一段７２巷８號","OBJECTID":414505},"geometry":{"x":170797.01000000071,"y":2536281.8200000003}},{"attributes":{"ID":414530,"DIS_CODE":0,"TOWNNAME":"仁德區","LI":"田厝里","LIN":"3鄰","STREET":"田厝三街","SECT":" ","MAREA":" ","LANE":"９３巷","ALLEY":" ","HOUSE_NO":"１８號","E_COORD97":172556.14999999999,"N_COORD97":2537485.2400000002,"ADDRESS":"田厝三街９３巷１８號","OBJECTID":414506},"geometry":{"x":172556.1500000013,"y":2537485.2400000002}},{"attributes":{"ID":414531,"DIS_CODE":0,"TOWNNAME":"仁德區","LI":"仁德里","LIN":"3鄰","STREET":"仁德五街","SECT":" ","MAREA":" ","LANE":"２４巷","ALLEY":" ","HOUSE_NO":"３號","E_COORD97":173376.59,"N_COORD97":2540252.5099999998,"ADDRESS":"仁德五街２４巷３號","OBJECTID":414507},"geometry":{"x":173376.59000000078,"y":2540252.5099999998}},{"attributes":{"ID":414532,"DIS_CODE":0,"TOWNNAME":"仁德區","LI":"仁德里","LIN":"3鄰","STREET":"仁德五街","SECT":" ","MAREA":" ","LANE":"２４巷","ALLEY":" ","HOUSE_NO":"１１號","E_COORD97":173381.89000000001,"N_COORD97":2540268.0099999998,"ADDRESS":"仁德五街２４巷１１號","OBJECTID":414508},"geometry":{"x":173381.88999999966,"y":2540268.0100000016}},{"attributes":{"ID":414533,"DIS_CODE":0,"TOWNNAME":"仁德區","LI":"仁德里","LIN":"3鄰","STREET":"仁德五街","SECT":" ","MAREA":" ","LANE":"２４巷","ALLEY":" ","HOUSE_NO":"１３號","E_COORD97":173383,"N_COORD97":2540271.7599999998,"ADDRESS":"仁德五街２４巷１３號","OBJECTID":414509},"geometry":{"x":173383,"y":2540271.7599999998}},{"attributes":{"ID":414534,"DIS_CODE":0,"TOWNNAME":"仁德區","LI":"保安里","LIN":"3鄰","STREET":"保安路","SECT":"一段","MAREA":" ","LANE":"５６巷","ALLEY":" ","HOUSE_NO":"８號","E_COORD97":170623.22,"N_COORD97":2535987.0699999998,"ADDRESS":"保安路一段５６巷８號","OBJECTID":414510},"geometry":{"x":170623.21999999974,"y":2535987.0700000022}},{"attributes":{"ID":414535,"DIS_CODE":0,"TOWNNAME":"仁德區","LI":"田厝里","LIN":"3鄰","STREET":"田厝三街","SECT":" ","MAREA":" ","LANE":"９３巷","ALLEY":" ","HOUSE_NO":"８號之５","E_COORD97":172604.92000000001,"N_COORD97":2537451.29,"ADDRESS":"田厝三街９３巷８號之５","OBJECTID":414511},"geometry":{"x":172604.92000000086,"y":2537451.290000001}},{"attributes":{"ID":414536,"DIS_CODE":0,"TOWNNAME":"仁德區","LI":"田厝里","LIN":"3鄰","STREET":"田厝三街","SECT":" ","MAREA":" ","LANE":"９３巷","ALLEY":" ","HOUSE_NO":"６號","E_COORD97":172581.57000000001,"N_COORD97":2537442,"ADDRESS":"田厝三街９３巷６號","OBJECTID":414512},"geometry":{"x":172581.56999999937,"y":2537442}},{"attributes":{"ID":414537,"DIS_CODE":0,"TOWNNAME":"仁德區","LI":"田厝里","LIN":"3鄰","STREET":"田厝三街","SECT":" ","MAREA":" ","LANE":"９３巷","ALLEY":" ","HOUSE_NO":"１４號","E_COORD97":172566.14000000001,"N_COORD97":2537487.23,"ADDRESS":"田厝三街９３巷１４號","OBJECTID":414513},"geometry":{"x":172566.13999999966,"y":2537487.2300000023}},{"attributes":{"ID":414538,"DIS_CODE":0,"TOWNNAME":"仁德區","LI":"田厝里","LIN":"3鄰","STREET":"田厝三街","SECT":" ","MAREA":" ","LANE":"９３巷","ALLEY":" ","HOUSE_NO":"８號之３","E_COORD97":172600.51000000001,"N_COORD97":2537450.79,"ADDRESS":"田厝三街９３巷８號之３","OBJECTID":414514},"geometry":{"x":172600.51000000071,"y":2537450.7900000028}},{"attributes":{"ID":414539,"DIS_CODE":0,"TOWNNAME":"仁德區","LI":"田厝里","LIN":"3鄰","STREET":"田厝三街","SECT":" ","MAREA":" ","LANE":"９３巷","ALLEY":" ","HOUSE_NO":"１６號","E_COORD97":172560.97,"N_COORD97":2537485.9900000002,"ADDRESS":"田厝三街９３巷１６號","OBJECTID":414515},"geometry":{"x":172560.96999999974,"y":2537485.9900000021}},{"attributes":{"ID":414540,"DIS_CODE":0,"TOWNNAME":"仁德區","LI":"田厝里","LIN":"3鄰","STREET":"田厝三街","SECT":" ","MAREA":" ","LANE":"９３巷","ALLEY":" ","HOUSE_NO":"８號之２","E_COORD97":172596.14999999999,"N_COORD97":2537449.79,"ADDRESS":"田厝三街９３巷８號之２","OBJECTID":414516},"geometry":{"x":172596.15000000037,"y":2537449.7899999991}},{"attributes":{"ID":414541,"DIS_CODE":0,"TOWNNAME":"仁德區","LI":"田厝里","LIN":"3鄰","STREET":"田厝三街","SECT":" ","MAREA":" ","LANE":"９３巷","ALLEY":" ","HOUSE_NO":"８號之１","E_COORD97":172591.31,"N_COORD97":2537449.04,"ADDRESS":"田厝三街９３巷８號之１","OBJECTID":414517},"geometry":{"x":172591.31000000052,"y":2537449.0400000028}},{"attributes":{"ID":414542,"DIS_CODE":0,"TOWNNAME":"仁德區","LI":"仁德里","LIN":"3鄰","STREET":"仁德五街","SECT":" ","MAREA":" ","LANE":"２４巷","ALLEY":" ","HOUSE_NO":"２號","E_COORD97":173386.70999999999,"N_COORD97":2540245.5099999998,"ADDRESS":"仁德五街２４巷２號","OBJECTID":414518},"geometry":{"x":173386.70999999996,"y":2540245.5099999998}},{"attributes":{"ID":414543,"DIS_CODE":0,"TOWNNAME":"仁德區","LI":"田厝里","LIN":"3鄰","STREET":"田厝三街","SECT":" ","MAREA":" ","LANE":"９３巷","ALLEY":" ","HOUSE_NO":"３３號","E_COORD97":172499.82000000001,"N_COORD97":2537484.2400000002,"ADDRESS":"田厝三街９３巷３３號","OBJECTID":414519},"geometry":{"x":172499.8200000003,"y":2537484.2400000021}},{"attributes":{"ID":414544,"DIS_CODE":0,"TOWNNAME":"仁德區","LI":"田厝里","LIN":"3鄰","STREET":"田厝三街","SECT":" ","MAREA":" ","LANE":"１３５巷","ALLEY":" ","HOUSE_NO":"１０號","E_COORD97":172596.14999999999,"N_COORD97":2537538.25,"ADDRESS":"田厝三街１３５巷１０號","OBJECTID":414520},"geometry":{"x":172596.15000000037,"y":2537538.2500000019}},{"attributes":{"ID":414545,"DIS_CODE":0,"TOWNNAME":"仁德區","LI":"保安里","LIN":"3鄰","STREET":"保安路","SECT":"一段","MAREA":" ","LANE":"８２巷","ALLEY":" ","HOUSE_NO":"２號","E_COORD97":170688.23000000001,"N_COORD97":2536356.8100000001,"ADDRESS":"保安路一段８２巷２號","OBJECTID":414521},"geometry":{"x":170688.23000000045,"y":2536356.8099999987}},{"attributes":{"ID":414546,"DIS_CODE":0,"TOWNNAME":"仁德區","LI":"保安里","LIN":"3鄰","STREET":"保安路","SECT":"一段","MAREA":" ","LANE":"７２巷","ALLEY":" ","HOUSE_NO":"３號","E_COORD97":170731.48999999999,"N_COORD97":2536319.3100000001,"ADDRESS":"保安路一段７２巷３號","OBJECTID":414522},"geometry":{"x":170731.49000000115,"y":2536319.3100000005}},{"attributes":{"ID":414547,"DIS_CODE":0,"TOWNNAME":"仁德區","LI":"仁德里","LIN":"3鄰","STREET":"仁德五街","SECT":" ","MAREA":" ","LANE":"２４巷","ALLEY":" ","HOUSE_NO":"１號","E_COORD97":173375.5,"N_COORD97":2540248.0099999998,"ADDRESS":"仁德五街２４巷１號","OBJECTID":414523},"geometry":{"x":173375.50000000093,"y":2540248.0100000016}},{"attributes":{"ID":414548,"DIS_CODE":0,"TOWNNAME":"仁德區","LI":"仁德里","LIN":"3鄰","STREET":"仁德五街","SECT":" ","MAREA":" ","LANE":"２４巷","ALLEY":" ","HOUSE_NO":"７號","E_COORD97":173378.64000000001,"N_COORD97":2540260.2599999998,"ADDRESS":"仁德五街２４巷７號","OBJECTID":414524},"geometry":{"x":173378.63999999966,"y":2540260.2600000016}},{"attributes":{"ID":414549,"DIS_CODE":0,"TOWNNAME":"仁德區","LI":"成功里","LIN":"3鄰","STREET":"保生東路","SECT":" ","MAREA":" ","LANE":"２１８巷","ALLEY":" ","HOUSE_NO":"５０號","E_COORD97":171241.10000000001,"N_COORD97":2539693.0899999999,"ADDRESS":"保生東路２１８巷５０號","OBJECTID":414525},"geometry":{"x":171241.09999999963,"y":2539693.0899999999}},{"attributes":{"ID":414550,"DIS_CODE":0,"TOWNNAME":"永康區","LI":"新樹里","LIN":"3鄰","STREET":"中山北路","SECT":" ","MAREA":" ","LANE":"７６２巷","ALLEY":" ","HOUSE_NO":"１１號","E_COORD97":176217.16,"N_COORD97":2547779.5800000001,"ADDRESS":"中山北路７６２巷１１號","OBJECTID":414526},"geometry":{"x":176217.16000000201,"y":2547779.5800000001}},{"attributes":{"ID":414551,"DIS_CODE":0,"TOWNNAME":"仁德區","LI":"成功里","LIN":"3鄰","STREET":"保生東路","SECT":" ","MAREA":" ","LANE":"２１８巷","ALLEY":" ","HOUSE_NO":"７２號","E_COORD97":171244.87,"N_COORD97":2539654.8300000001,"ADDRESS":"保生東路２１８巷７２號","OBJECTID":414527},"geometry":{"x":171244.87000000011,"y":2539654.8300000001}},{"attributes":{"ID":414552,"DIS_CODE":0,"TOWNNAME":"仁德區","LI":"成功里","LIN":"3鄰","STREET":"保生東路","SECT":" ","MAREA":" ","LANE":"２１８巷","ALLEY":" ","HOUSE_NO":"７８號","E_COORD97":171242.89000000001,"N_COORD97":2539647.5800000001,"ADDRESS":"保生東路２１８巷７８號","OBJECTID":414528},"geometry":{"x":171242.88999999873,"y":2539647.5800000019}},{"attributes":{"ID":414553,"DIS_CODE":0,"TOWNNAME":"仁德區","LI":"新田里","LIN":"3鄰","STREET":"新田二街","SECT":" ","MAREA":" ","LANE":"１１６巷","ALLEY":" ","HOUSE_NO":"２７號","E_COORD97":174911.54000000001,"N_COORD97":2539721.75,"ADDRESS":"新田二街１１６巷２７號","OBJECTID":414529},"geometry":{"x":174911.54000000097,"y":2539721.7500000019}},{"attributes":{"ID":414554,"DIS_CODE":0,"TOWNNAME":"仁德區","LI":"田厝里","LIN":"3鄰","STREET":"田厝三街","SECT":" ","MAREA":" ","LANE":"１２７巷","ALLEY":" ","HOUSE_NO":"８號","E_COORD97":172598.97,"N_COORD97":2537504,"ADDRESS":"田厝三街１２７巷８號","OBJECTID":414530},"geometry":{"x":172598.97000000067,"y":2537504}},{"attributes":{"ID":414555,"DIS_CODE":0,"TOWNNAME":"仁德區","LI":"新田里","LIN":"3鄰","STREET":"新田二街","SECT":" ","MAREA":" ","LANE":"１２０巷","ALLEY":" ","HOUSE_NO":"１６號","E_COORD97":174986.23000000001,"N_COORD97":2539890.25,"ADDRESS":"新田二街１２０巷１６號","OBJECTID":414531},"geometry":{"x":174986.23000000231,"y":2539890.2500000019}},{"attributes":{"ID":414556,"DIS_CODE":0,"TOWNNAME":"永康區","LI":"北灣里","LIN":"3鄰","STREET":"文賢街","SECT":" ","MAREA":" ","LANE":"１２２巷","ALLEY":" ","HOUSE_NO":"３號","E_COORD97":175414.60999999999,"N_COORD97":2545527.3799999999,"ADDRESS":"文賢街１２２巷３號","OBJECTID":414532},"geometry":{"x":175414.61000000127,"y":2545527.3800000008}},{"attributes":{"ID":414557,"DIS_CODE":0,"TOWNNAME":"永康區","LI":"北灣里","LIN":"3鄰","STREET":"文賢街","SECT":" ","MAREA":" ","LANE":"２２７巷","ALLEY":" ","HOUSE_NO":"９號","E_COORD97":175311.81,"N_COORD97":2545599.5800000001,"ADDRESS":"文賢街２２７巷９號","OBJECTID":414533},"geometry":{"x":175311.80999999866,"y":2545599.5800000001}},{"attributes":{"ID":414558,"DIS_CODE":0,"TOWNNAME":"永康區","LI":"王行里","LIN":"3鄰","STREET":"王行路","SECT":" ","MAREA":" ","LANE":"２４６巷","ALLEY":" ","HOUSE_NO":"９７號","E_COORD97":175828.16,"N_COORD97":2548153.7400000002,"ADDRESS":"王行路２４６巷９７號","OBJECTID":414534},"geometry":{"x":175828.16000000015,"y":2548153.7400000021}},{"attributes":{"ID":414559,"DIS_CODE":0,"TOWNNAME":"永康區","LI":"北灣里","LIN":"3鄰","STREET":"文賢街","SECT":" ","MAREA":" ","LANE":"２２７巷","ALLEY":" ","HOUSE_NO":"２２號","E_COORD97":175320.76000000001,"N_COORD97":2545612.1699999999,"ADDRESS":"文賢街２２７巷２２號","OBJECTID":414535},"geometry":{"x":175320.75999999978,"y":2545612.1699999999}},{"attributes":{"ID":414560,"DIS_CODE":0,"TOWNNAME":"永康區","LI":"北灣里","LIN":"3鄰","STREET":"文賢街","SECT":" ","MAREA":" ","LANE":"２２７巷","ALLEY":" ","HOUSE_NO":"２號","E_COORD97":175354.20999999999,"N_COORD97":2545616.6699999999,"ADDRESS":"文賢街２２７巷２號","OBJECTID":414536},"geometry":{"x":175354.21000000089,"y":2545616.6700000037}},{"attributes":{"ID":414561,"DIS_CODE":0,"TOWNNAME":"永康區","LI":"王行里","LIN":"3鄰","STREET":"王行路","SECT":" ","MAREA":" ","LANE":"２４６巷","ALLEY":" ","HOUSE_NO":"８７號","E_COORD97":175819.23999999999,"N_COORD97":2548204.73,"ADDRESS":"王行路２４６巷８７號","OBJECTID":414537},"geometry":{"x":175819.24000000022,"y":2548204.7300000023}},{"attributes":{"ID":414562,"DIS_CODE":0,"TOWNNAME":"永康區","LI":"北灣里","LIN":"3鄰","STREET":"文賢街","SECT":" ","MAREA":" ","LANE":"２２７巷","ALLEY":" ","HOUSE_NO":"６０號","E_COORD97":175249.84,"N_COORD97":2545570.3199999998,"ADDRESS":"文賢街２２７巷６０號","OBJECTID":414538},"geometry":{"x":175249.84000000078,"y":2545570.3200000003}},{"attributes":{"ID":414563,"DIS_CODE":0,"TOWNNAME":"永康區","LI":"北灣里","LIN":"3鄰","STREET":"大灣路","SECT":" ","MAREA":" ","LANE":"１１９巷","ALLEY":" ","HOUSE_NO":"６１之１號","E_COORD97":175325.20999999999,"N_COORD97":2545582.5499999998,"ADDRESS":"大灣路１１９巷６１之１號","OBJECTID":414539},"geometry":{"x":175325.21000000089,"y":2545582.5500000026}},{"attributes":{"ID":414564,"DIS_CODE":0,"TOWNNAME":"永康區","LI":"王行里","LIN":"3鄰","STREET":"王行路","SECT":" ","MAREA":" ","LANE":"２４６巷","ALLEY":" ","HOUSE_NO":"１０３號","E_COORD97":175829.10000000001,"N_COORD97":2548140.4900000002,"ADDRESS":"王行路２４６巷１０３號","OBJECTID":414540},"geometry":{"x":175829.10000000056,"y":2548140.4900000039}},{"attributes":{"ID":414565,"DIS_CODE":0,"TOWNNAME":"永康區","LI":"北灣里","LIN":"3鄰","STREET":"文賢街","SECT":" ","MAREA":" ","LANE":"２２７巷","ALLEY":" ","HOUSE_NO":"１８號","E_COORD97":175331.76000000001,"N_COORD97":2545612.9199999999,"ADDRESS":"文賢街２２７巷１８號","OBJECTID":414541},"geometry":{"x":175331.76000000071,"y":2545612.9200000018}},{"attributes":{"ID":414566,"DIS_CODE":0,"TOWNNAME":"永康區","LI":"王行里","LIN":"3鄰","STREET":"王行路","SECT":" ","MAREA":" ","LANE":"２４６巷","ALLEY":" ","HOUSE_NO":"３２號","E_COORD97":175729.01000000001,"N_COORD97":2548246.73,"ADDRESS":"王行路２４６巷３２號","OBJECTID":414542},"geometry":{"x":175729.00999999978,"y":2548246.7300000004}},{"attributes":{"ID":414567,"DIS_CODE":0,"TOWNNAME":"永康區","LI":"王行里","LIN":"3鄰","STREET":"王行路","SECT":" ","MAREA":" ","LANE":"２４６巷","ALLEY":" ","HOUSE_NO":"４０號","E_COORD97":175778.66,"N_COORD97":2548241.0600000001,"ADDRESS":"王行路２４６巷４０號","OBJECTID":414543},"geometry":{"x":175778.66000000108,"y":2548241.0600000005}},{"attributes":{"ID":414568,"DIS_CODE":0,"TOWNNAME":"永康區","LI":"北灣里","LIN":"3鄰","STREET":"文賢街","SECT":" ","MAREA":" ","LANE":"２２７巷","ALLEY":" ","HOUSE_NO":"１號","E_COORD97":175357.79000000001,"N_COORD97":2545607.4300000002,"ADDRESS":"文賢街２２７巷１號","OBJECTID":414544},"geometry":{"x":175357.79000000004,"y":2545607.4299999997}},{"attributes":{"ID":414569,"DIS_CODE":0,"TOWNNAME":"永康區","LI":"王行里","LIN":"3鄰","STREET":"王行路","SECT":" ","MAREA":" ","LANE":"２４６巷","ALLEY":" ","HOUSE_NO":"５２號","E_COORD97":175796.79999999999,"N_COORD97":2548206.8100000001,"ADDRESS":"王行路２４６巷５２號","OBJECTID":414545},"geometry":{"x":175796.79999999981,"y":2548206.8100000024}},{"attributes":{"ID":414570,"DIS_CODE":0,"TOWNNAME":"永康區","LI":"北灣里","LIN":"3鄰","STREET":"文賢街","SECT":" ","MAREA":" ","LANE":"１２２巷","ALLEY":" ","HOUSE_NO":"５號","E_COORD97":175427.70999999999,"N_COORD97":2545526.8799999999,"ADDRESS":"文賢街１２２巷５號","OBJECTID":414546},"geometry":{"x":175427.70999999996,"y":2545526.8800000008}},{"attributes":{"ID":414571,"DIS_CODE":0,"TOWNNAME":"永康區","LI":"五王里","LIN":"3鄰","STREET":"中華二路","SECT":" ","MAREA":" ","LANE":"２０６巷","ALLEY":" ","HOUSE_NO":"５７號","E_COORD97":171586.79000000001,"N_COORD97":2545619.0099999998,"ADDRESS":"中華二路２０６巷５７號","OBJECTID":414547},"geometry":{"x":171586.79000000097,"y":2545619.0100000016}},{"attributes":{"ID":414572,"DIS_CODE":0,"TOWNNAME":"中西區","LI":"民權里","LIN":"3鄰","STREET":"民生路","SECT":"二段","MAREA":" ","LANE":"１４４巷","ALLEY":" ","HOUSE_NO":"２５號","E_COORD97":167503.10000000001,"N_COORD97":2544110.27,"ADDRESS":"民生路二段１４４巷２５號","OBJECTID":414548},"geometry":{"x":167503.09999999963,"y":2544110.2700000033}},{"attributes":{"ID":414573,"DIS_CODE":0,"TOWNNAME":"中西區","LI":"民權里","LIN":"3鄰","STREET":"民生路","SECT":"二段","MAREA":" ","LANE":"１４４巷","ALLEY":" ","HOUSE_NO":"２６號","E_COORD97":167512.30494100001,"N_COORD97":2544113.8537599999,"ADDRESS":"民生路二段１４４巷２６號","OBJECTID":414549},"geometry":{"x":167512.30494100042,"y":2544113.8537560012}},{"attributes":{"ID":414574,"DIS_CODE":0,"TOWNNAME":"中西區","LI":"民權里","LIN":"3鄰","STREET":"民生路","SECT":"二段","MAREA":" ","LANE":"１４４巷","ALLEY":" ","HOUSE_NO":"２７號","E_COORD97":167501.41,"N_COORD97":2544112.79,"ADDRESS":"民生路二段１４４巷２７號","OBJECTID":414550},"geometry":{"x":167501.41000000015,"y":2544112.7900000028}},{"attributes":{"ID":414575,"DIS_CODE":0,"TOWNNAME":"中西區","LI":"民權里","LIN":"3鄰","STREET":"民生路","SECT":"二段","MAREA":" ","LANE":"１４４巷","ALLEY":" ","HOUSE_NO":"２９號","E_COORD97":167498.51999999999,"N_COORD97":2544120,"ADDRESS":"民生路二段１４４巷２９號","OBJECTID":414551},"geometry":{"x":167498.51999999955,"y":2544120.0000000019}},{"attributes":{"ID":414576,"DIS_CODE":0,"TOWNNAME":"中西區","LI":"民權里","LIN":"3鄰","STREET":"民生路","SECT":"二段","MAREA":" ","LANE":"１４４巷","ALLEY":" ","HOUSE_NO":"３１號","E_COORD97":167498.51999999999,"N_COORD97":2544122.96,"ADDRESS":"民生路二段１４４巷３１號","OBJECTID":414552},"geometry":{"x":167498.51999999955,"y":2544122.9600000009}},{"attributes":{"ID":414577,"DIS_CODE":0,"TOWNNAME":"中西區","LI":"民權里","LIN":"3鄰","STREET":"民生路","SECT":"二段","MAREA":" ","LANE":"１４４巷","ALLEY":" ","HOUSE_NO":"１１號","E_COORD97":167507.01173999999,"N_COORD97":2544081.4687700002,"ADDRESS":"民生路二段１４４巷１１號","OBJECTID":414553},"geometry":{"x":167507.01173999999,"y":2544081.4687730037}},{"attributes":{"ID":414578,"DIS_CODE":0,"TOWNNAME":"中西區","LI":"民權里","LIN":"3鄰","STREET":"民生路","SECT":"二段","MAREA":" ","LANE":"１４４巷","ALLEY":" ","HOUSE_NO":"１號","E_COORD97":167503.60000000001,"N_COORD97":2544055.8300000001,"ADDRESS":"民生路二段１４４巷１號","OBJECTID":414554},"geometry":{"x":167503.60000000149,"y":2544055.8299999982}},{"attributes":{"ID":414579,"DIS_CODE":0,"TOWNNAME":"中西區","LI":"民權里","LIN":"3鄰","STREET":"民生路","SECT":"二段","MAREA":" ","LANE":"１４４巷","ALLEY":" ","HOUSE_NO":"３號","E_COORD97":167505.74137199999,"N_COORD97":2544061.5721200001,"ADDRESS":"民生路二段１４４巷３號","OBJECTID":414555},"geometry":{"x":167505.74137200136,"y":2544061.5721170008}},{"attributes":{"ID":414580,"DIS_CODE":0,"TOWNNAME":"中西區","LI":"民權里","LIN":"3鄰","STREET":"民生路","SECT":"二段","MAREA":" ","LANE":"１４４巷","ALLEY":" ","HOUSE_NO":"５號","E_COORD97":167506.376556,"N_COORD97":2544066.4404500001,"ADDRESS":"民生路二段１４４巷５號","OBJECTID":414556},"geometry":{"x":167506.37655600067,"y":2544066.4404480029}},{"attributes":{"ID":414581,"DIS_CODE":0,"TOWNNAME":"中西區","LI":"民權里","LIN":"3鄰","STREET":"民生路","SECT":"二段","MAREA":" ","LANE":"１４４巷","ALLEY":" ","HOUSE_NO":"７號","E_COORD97":167507.22346899999,"N_COORD97":2544071.3087800001,"ADDRESS":"民生路二段１４４巷７號","OBJECTID":414557},"geometry":{"x":167507.22346900031,"y":2544071.3087789994}},{"attributes":{"ID":414582,"DIS_CODE":0,"TOWNNAME":"中西區","LI":"民權里","LIN":"3鄰","STREET":"民生路","SECT":"二段","MAREA":" ","LANE":"１４４巷","ALLEY":" ","HOUSE_NO":"９號","E_COORD97":167506.588284,"N_COORD97":2544076.17711,"ADDRESS":"民生路二段１４４巷９號","OBJECTID":414558},"geometry":{"x":167506.58828399982,"y":2544076.1771090031}},{"attributes":{"ID":414583,"DIS_CODE":0,"TOWNNAME":"中西區","LI":"協和里","LIN":"3鄰","STREET":"民族路","SECT":"三段","MAREA":" ","LANE":"２２２巷","ALLEY":" ","HOUSE_NO":"１０號","E_COORD97":167373.91,"N_COORD97":2544503.3300000001,"ADDRESS":"民族路三段２２２巷１０號","OBJECTID":414559},"geometry":{"x":167373.91000000108,"y":2544503.3299999982}},{"attributes":{"ID":414584,"DIS_CODE":0,"TOWNNAME":"中西區","LI":"協和里","LIN":"3鄰","STREET":"民族路","SECT":"三段","MAREA":" ","LANE":"２２２巷","ALLEY":" ","HOUSE_NO":"１２號","E_COORD97":167368.72,"N_COORD97":2544506.9199999999,"ADDRESS":"民族路三段２２２巷１２號","OBJECTID":414560},"geometry":{"x":167368.71999999974,"y":2544506.9200000018}},{"attributes":{"ID":414585,"DIS_CODE":0,"TOWNNAME":"中西區","LI":"協和里","LIN":"3鄰","STREET":"民族路","SECT":"三段","MAREA":" ","LANE":"２２２巷","ALLEY":" ","HOUSE_NO":"１３號","E_COORD97":167364.84,"N_COORD97":2544510.0899999999,"ADDRESS":"民族路三段２２２巷１３號","OBJECTID":414561},"geometry":{"x":167364.83999999892,"y":2544510.0899999999}},{"attributes":{"ID":414586,"DIS_CODE":0,"TOWNNAME":"中西區","LI":"協和里","LIN":"3鄰","STREET":"民族路","SECT":"三段","MAREA":" ","LANE":"２２２巷","ALLEY":" ","HOUSE_NO":"１６號","E_COORD97":167360.78,"N_COORD97":2544511.8500000001,"ADDRESS":"民族路三段２２２巷１６號","OBJECTID":414562},"geometry":{"x":167360.78000000212,"y":2544511.8499999996}},{"attributes":{"ID":414587,"DIS_CODE":0,"TOWNNAME":"中西區","LI":"協和里","LIN":"3鄰","STREET":"民族路","SECT":"三段","MAREA":" ","LANE":"２２２巷","ALLEY":" ","HOUSE_NO":"１８號","E_COORD97":167356.72,"N_COORD97":2544513.27,"ADDRESS":"民族路三段２２２巷１８號","OBJECTID":414563},"geometry":{"x":167356.71999999974,"y":2544513.2699999996}},{"attributes":{"ID":414588,"DIS_CODE":0,"TOWNNAME":"中西區","LI":"協和里","LIN":"3鄰","STREET":"民族路","SECT":"三段","MAREA":" ","LANE":"２２２巷","ALLEY":" ","HOUSE_NO":"２０號","E_COORD97":167351.42000000001,"N_COORD97":2544515.2000000002,"ADDRESS":"民族路三段２２２巷２０號","OBJECTID":414564},"geometry":{"x":167351.42000000086,"y":2544515.2000000011}},{"attributes":{"ID":414589,"DIS_CODE":0,"TOWNNAME":"中西區","LI":"協和里","LIN":"3鄰","STREET":"民族路","SECT":"三段","MAREA":" ","LANE":"２２２巷","ALLEY":" ","HOUSE_NO":"２２號","E_COORD97":167347.01000000001,"N_COORD97":2544517.5,"ADDRESS":"民族路三段２２２巷２２號","OBJECTID":414565},"geometry":{"x":167347.01000000071,"y":2544517.5000000019}},{"attributes":{"ID":414590,"DIS_CODE":0,"TOWNNAME":"中西區","LI":"協和里","LIN":"3鄰","STREET":"民族路","SECT":"三段","MAREA":" ","LANE":"２２２巷","ALLEY":" ","HOUSE_NO":"２４號","E_COORD97":167342.23999999999,"N_COORD97":2544519.79,"ADDRESS":"民族路三段２２２巷２４號","OBJECTID":414566},"geometry":{"x":167342.24000000209,"y":2544519.7900000028}},{"attributes":{"ID":414591,"DIS_CODE":0,"TOWNNAME":"中西區","LI":"協和里","LIN":"3鄰","STREET":"民族路","SECT":"三段","MAREA":" ","LANE":"２２２巷","ALLEY":" ","HOUSE_NO":"２６號","E_COORD97":167337.48000000001,"N_COORD97":2544521.5499999998,"ADDRESS":"民族路三段２２２巷２６號","OBJECTID":414567},"geometry":{"x":167337.48000000231,"y":2544521.5500000007}},{"attributes":{"ID":414592,"DIS_CODE":0,"TOWNNAME":"中西區","LI":"協和里","LIN":"3鄰","STREET":"民族路","SECT":"三段","MAREA":" ","LANE":"２２２巷","ALLEY":" ","HOUSE_NO":"２８號","E_COORD97":167332,"N_COORD97":2544523.4900000002,"ADDRESS":"民族路三段２２２巷２８號","OBJECTID":414568},"geometry":{"x":167332.00000000093,"y":2544523.4900000021}},{"attributes":{"ID":414593,"DIS_CODE":0,"TOWNNAME":"中西區","LI":"協和里","LIN":"3鄰","STREET":"民族路","SECT":"三段","MAREA":" ","LANE":"２２２巷","ALLEY":" ","HOUSE_NO":"２號","E_COORD97":167397.39000000001,"N_COORD97":2544493.2799999998,"ADDRESS":"民族路三段２２２巷２號","OBJECTID":414569},"geometry":{"x":167397.3900000006,"y":2544493.2800000012}},{"attributes":{"ID":414594,"DIS_CODE":0,"TOWNNAME":"東區","LI":"大智里","LIN":"24鄰","STREET":"文東街","SECT":" ","MAREA":" ","LANE":"３０巷","ALLEY":" ","HOUSE_NO":"８號","E_COORD97":171351.98000000001,"N_COORD97":2540152.21,"ADDRESS":"文東街３０巷８號","OBJECTID":414570},"geometry":{"x":171351.98000000138,"y":2540152.2100000046}},{"attributes":{"ID":414595,"DIS_CODE":0,"TOWNNAME":"中西區","LI":"協和里","LIN":"3鄰","STREET":"民族路","SECT":"三段","MAREA":" ","LANE":"２２２巷","ALLEY":" ","HOUSE_NO":"３０號","E_COORD97":167326.53,"N_COORD97":2544525.25,"ADDRESS":"民族路三段２２２巷３０號","OBJECTID":414571},"geometry":{"x":167326.53000000026,"y":2544525.2500000019}},{"attributes":{"ID":414596,"DIS_CODE":0,"TOWNNAME":"中西區","LI":"協和里","LIN":"3鄰","STREET":"民族路","SECT":"三段","MAREA":" ","LANE":"２２２巷","ALLEY":" ","HOUSE_NO":"３２號","E_COORD97":167321.23000000001,"N_COORD97":2544526.8399999999,"ADDRESS":"民族路三段２２２巷３２號","OBJECTID":414572},"geometry":{"x":167321.23000000138,"y":2544526.8400000036}},{"attributes":{"ID":414597,"DIS_CODE":0,"TOWNNAME":"永康區","LI":"新樹里","LIN":"3鄰","STREET":"中山北路","SECT":" ","MAREA":" ","LANE":"７６４巷","ALLEY":" ","HOUSE_NO":"６３號","E_COORD97":176295.17000000001,"N_COORD97":2547470.5299999998,"ADDRESS":"中山北路７６４巷６３號","OBJECTID":414573},"geometry":{"x":176295.17000000086,"y":2547470.5299999993}},{"attributes":{"ID":414598,"DIS_CODE":0,"TOWNNAME":"永康區","LI":"尚頂里","LIN":"3鄰","STREET":"中正二街","SECT":" ","MAREA":" ","LANE":"１８２巷","ALLEY":" ","HOUSE_NO":"３９號","E_COORD97":171462.39000000001,"N_COORD97":2547640.9199999999,"ADDRESS":"中正二街１８２巷３９號","OBJECTID":414574},"geometry":{"x":171462.3900000006,"y":2547640.9199999999}},{"attributes":{"ID":414599,"DIS_CODE":0,"TOWNNAME":"永康區","LI":"龍潭里","LIN":"3鄰","STREET":"龍安街","SECT":" ","MAREA":" ","LANE":"１７巷","ALLEY":" ","HOUSE_NO":"３１號","E_COORD97":174471.26999999999,"N_COORD97":2548080,"ADDRESS":"龍安街１７巷３１號","OBJECTID":414575},"geometry":{"x":174471.27000000142,"y":2548080.0000000019}},{"attributes":{"ID":414600,"DIS_CODE":0,"TOWNNAME":"永康區","LI":"龍潭里","LIN":"3鄰","STREET":"龍安街","SECT":" ","MAREA":" ","LANE":"１７巷","ALLEY":" ","HOUSE_NO":"３３號","E_COORD97":174465.84,"N_COORD97":2548082.6000000001,"ADDRESS":"龍安街１７巷３３號","OBJECTID":414576},"geometry":{"x":174465.83999999985,"y":2548082.6000000015}},{"attributes":{"ID":414601,"DIS_CODE":0,"TOWNNAME":"永康區","LI":"龍潭里","LIN":"3鄰","STREET":"龍安街","SECT":" ","MAREA":" ","LANE":"１７巷","ALLEY":" ","HOUSE_NO":"１０號","E_COORD97":174524.44,"N_COORD97":2548101.9700000002,"ADDRESS":"龍安街１７巷１０號","OBJECTID":414577},"geometry":{"x":174524.44000000134,"y":2548101.9700000025}},{"attributes":{"ID":414602,"DIS_CODE":0,"TOWNNAME":"永康區","LI":"龍潭里","LIN":"3鄰","STREET":"龍安街","SECT":" ","MAREA":" ","LANE":"１７巷","ALLEY":" ","HOUSE_NO":"１２號","E_COORD97":174518.87,"N_COORD97":2548102.7400000002,"ADDRESS":"龍安街１７巷１２號","OBJECTID":414578},"geometry":{"x":174518.87000000104,"y":2548102.7400000021}},{"attributes":{"ID":414603,"DIS_CODE":0,"TOWNNAME":"永康區","LI":"龍潭里","LIN":"3鄰","STREET":"龍安街","SECT":" ","MAREA":" ","LANE":"１７巷","ALLEY":" ","HOUSE_NO":"１６號","E_COORD97":174516.63,"N_COORD97":2548100.5899999999,"ADDRESS":"龍安街１７巷１６號","OBJECTID":414579},"geometry":{"x":174516.62999999896,"y":2548100.5899999999}},{"attributes":{"ID":414604,"DIS_CODE":0,"TOWNNAME":"永康區","LI":"龍潭里","LIN":"3鄰","STREET":"龍安街","SECT":" ","MAREA":" ","LANE":"１７巷","ALLEY":" ","HOUSE_NO":"１８號","E_COORD97":174510.47,"N_COORD97":2548103.8900000001,"ADDRESS":"龍安街１７巷１８號","OBJECTID":414580},"geometry":{"x":174510.46999999974,"y":2548103.8900000006}},{"attributes":{"ID":414605,"DIS_CODE":0,"TOWNNAME":"永康區","LI":"龍潭里","LIN":"3鄰","STREET":"龍安街","SECT":" ","MAREA":" ","LANE":"１７巷","ALLEY":" ","HOUSE_NO":"２０號","E_COORD97":174506.41,"N_COORD97":2548104.4500000002,"ADDRESS":"龍安街１７巷２０號","OBJECTID":414581},"geometry":{"x":174506.41000000015,"y":2548104.4499999993}},{"attributes":{"ID":414606,"DIS_CODE":0,"TOWNNAME":"永康區","LI":"龍潭里","LIN":"3鄰","STREET":"龍安街","SECT":" ","MAREA":" ","LANE":"１７巷","ALLEY":" ","HOUSE_NO":"２２號","E_COORD97":174502.35999999999,"N_COORD97":2548105,"ADDRESS":"龍安街１７巷２２號","OBJECTID":414582},"geometry":{"x":174502.36000000127,"y":2548105}},{"attributes":{"ID":414607,"DIS_CODE":0,"TOWNNAME":"永康區","LI":"龍潭里","LIN":"3鄰","STREET":"龍安街","SECT":" ","MAREA":" ","LANE":"１７巷","ALLEY":" ","HOUSE_NO":"２６號","E_COORD97":174497.92000000001,"N_COORD97":2548103.8799999999,"ADDRESS":"龍安街１７巷２６號","OBJECTID":414583},"geometry":{"x":174497.92000000179,"y":2548103.8800000008}},{"attributes":{"ID":414608,"DIS_CODE":0,"TOWNNAME":"永康區","LI":"龍潭里","LIN":"3鄰","STREET":"龍安街","SECT":" ","MAREA":" ","LANE":"１７巷","ALLEY":" ","HOUSE_NO":"２８號","E_COORD97":174494.17999999999,"N_COORD97":2548103.71,"ADDRESS":"龍安街１７巷２８號","OBJECTID":414584},"geometry":{"x":174494.18000000156,"y":2548103.7100000028}},{"attributes":{"ID":414609,"DIS_CODE":0,"TOWNNAME":"永康區","LI":"龍潭里","LIN":"3鄰","STREET":"龍安街","SECT":" ","MAREA":" ","LANE":"１７巷","ALLEY":" ","HOUSE_NO":"３０號","E_COORD97":174490.81,"N_COORD97":2548106.5899999999,"ADDRESS":"龍安街１７巷３０號","OBJECTID":414585},"geometry":{"x":174490.80999999959,"y":2548106.5900000017}},{"attributes":{"ID":414610,"DIS_CODE":0,"TOWNNAME":"永康區","LI":"龍潭里","LIN":"3鄰","STREET":"龍安街","SECT":" ","MAREA":" ","LANE":"１７巷","ALLEY":" ","HOUSE_NO":"３２號","E_COORD97":174486.70999999999,"N_COORD97":2548107.1499999999,"ADDRESS":"龍安街１７巷３２號","OBJECTID":414586},"geometry":{"x":174486.70999999996,"y":2548107.1500000022}},{"attributes":{"ID":414611,"DIS_CODE":0,"TOWNNAME":"永康區","LI":"龍潭里","LIN":"3鄰","STREET":"龍安街","SECT":" ","MAREA":" ","LANE":"１７巷","ALLEY":" ","HOUSE_NO":"３６號","E_COORD97":174482.62,"N_COORD97":2548107.71,"ADDRESS":"龍安街１７巷３６號","OBJECTID":414587},"geometry":{"x":174482.62000000011,"y":2548107.7100000009}},{"attributes":{"ID":414612,"DIS_CODE":0,"TOWNNAME":"永康區","LI":"龍潭里","LIN":"3鄰","STREET":"龍安街","SECT":" ","MAREA":" ","LANE":"１７巷","ALLEY":" ","HOUSE_NO":"３８號","E_COORD97":174478.26999999999,"N_COORD97":2548106.6099999999,"ADDRESS":"龍安街１７巷３８號","OBJECTID":414588},"geometry":{"x":174478.27000000048,"y":2548106.6099999994}},{"attributes":{"ID":414613,"DIS_CODE":0,"TOWNNAME":"永康區","LI":"龍潭里","LIN":"3鄰","STREET":"龍安街","SECT":" ","MAREA":" ","LANE":"１７巷","ALLEY":" ","HOUSE_NO":"４０號","E_COORD97":174474.17000000001,"N_COORD97":2548108.8700000001,"ADDRESS":"龍安街１７巷４０號","OBJECTID":414589},"geometry":{"x":174474.17000000179,"y":2548108.8700000029}},{"attributes":{"ID":414614,"DIS_CODE":0,"TOWNNAME":"東山區","LI":"東原里","LIN":"2鄰","STREET":" ","SECT":" ","MAREA":"前大埔","LANE":" ","ALLEY":" ","HOUSE_NO":"１８之１號","E_COORD97":193249.123712,"N_COORD97":2573683.1955200001,"ADDRESS":"前大埔１８之１號","OBJECTID":414590},"geometry":{"x":193249.12371200044,"y":2573683.1955250017}},{"attributes":{"ID":414615,"DIS_CODE":0,"TOWNNAME":"永康區","LI":"龍潭里","LIN":"3鄰","STREET":"龍安街","SECT":" ","MAREA":" ","LANE":"１７巷","ALLEY":" ","HOUSE_NO":"４２號","E_COORD97":174469.59,"N_COORD97":2548109.5,"ADDRESS":"龍安街１７巷４２號","OBJECTID":414591},"geometry":{"x":174469.59000000171,"y":2548109.4999999981}},{"attributes":{"ID":414616,"DIS_CODE":0,"TOWNNAME":"永康區","LI":"龍潭里","LIN":"3鄰","STREET":"龍安街","SECT":" ","MAREA":" ","LANE":"３９巷","ALLEY":" ","HOUSE_NO":"１３號","E_COORD97":174515.16,"N_COORD97":2548125.0899999999,"ADDRESS":"龍安街３９巷１３號","OBJECTID":414592},"geometry":{"x":174515.16000000201,"y":2548125.0899999999}},{"attributes":{"ID":414617,"DIS_CODE":0,"TOWNNAME":"永康區","LI":"龍潭里","LIN":"3鄰","STREET":"龍安街","SECT":" ","MAREA":" ","LANE":"３９巷","ALLEY":" ","HOUSE_NO":"１５號","E_COORD97":174510.92000000001,"N_COORD97":2548125.6499999999,"ADDRESS":"龍安街３９巷１５號","OBJECTID":414593},"geometry":{"x":174510.91999999993,"y":2548125.6500000004}},{"attributes":{"ID":414618,"DIS_CODE":0,"TOWNNAME":"永康區","LI":"龍潭里","LIN":"3鄰","STREET":"龍安街","SECT":" ","MAREA":" ","LANE":"３９巷","ALLEY":" ","HOUSE_NO":"１７號","E_COORD97":174506.73000000001,"N_COORD97":2548126.2000000002,"ADDRESS":"龍安街３９巷１７號","OBJECTID":414594},"geometry":{"x":174506.73000000138,"y":2548126.1999999993}},{"attributes":{"ID":414619,"DIS_CODE":0,"TOWNNAME":"永康區","LI":"龍潭里","LIN":"3鄰","STREET":"龍安街","SECT":" ","MAREA":" ","LANE":"３９巷","ALLEY":" ","HOUSE_NO":"１９號","E_COORD97":174501.73999999999,"N_COORD97":2548128.2400000002,"ADDRESS":"龍安街３９巷１９號","OBJECTID":414595},"geometry":{"x":174501.74000000115,"y":2548128.2400000002}},{"attributes":{"ID":414620,"DIS_CODE":0,"TOWNNAME":"永康區","LI":"龍潭里","LIN":"3鄰","STREET":"龍安街","SECT":" ","MAREA":" ","LANE":"３９巷","ALLEY":" ","HOUSE_NO":"２１號","E_COORD97":174497.78,"N_COORD97":2548126,"ADDRESS":"龍安街３９巷２１號","OBJECTID":414596},"geometry":{"x":174497.78000000119,"y":2548126}},{"attributes":{"ID":414621,"DIS_CODE":0,"TOWNNAME":"永康區","LI":"龍潭里","LIN":"3鄰","STREET":"龍安街","SECT":" ","MAREA":" ","LANE":"３９巷","ALLEY":" ","HOUSE_NO":"２３號","E_COORD97":174493.45999999999,"N_COORD97":2548127.9399999999,"ADDRESS":"龍安街３９巷２３號","OBJECTID":414597},"geometry":{"x":174493.45999999996,"y":2548127.9400000013}},{"attributes":{"ID":414622,"DIS_CODE":0,"TOWNNAME":"永康區","LI":"龍潭里","LIN":"3鄰","STREET":"龍安街","SECT":" ","MAREA":" ","LANE":"３９巷","ALLEY":" ","HOUSE_NO":"２５號","E_COORD97":174489.25,"N_COORD97":2548128.4900000002,"ADDRESS":"龍安街３９巷２５號","OBJECTID":414598},"geometry":{"x":174489.25000000093,"y":2548128.4900000021}},{"attributes":{"ID":414623,"DIS_CODE":0,"TOWNNAME":"永康區","LI":"龍潭里","LIN":"3鄰","STREET":"龍安街","SECT":" ","MAREA":" ","LANE":"３９巷","ALLEY":" ","HOUSE_NO":"２７號","E_COORD97":174485.04999999999,"N_COORD97":2548129.0299999998,"ADDRESS":"龍安街３９巷２７號","OBJECTID":414599},"geometry":{"x":174485.05000000168,"y":2548129.0300000031}},{"attributes":{"ID":414624,"DIS_CODE":0,"TOWNNAME":"永康區","LI":"龍潭里","LIN":"3鄰","STREET":"龍安街","SECT":" ","MAREA":" ","LANE":"３９巷","ALLEY":" ","HOUSE_NO":"２９號","E_COORD97":174480.56,"N_COORD97":2548131,"ADDRESS":"龍安街３９巷２９號","OBJECTID":414600},"geometry":{"x":174480.55999999959,"y":2548131.0000000019}}]}