{"displayFieldName":"TOWNNAME","fieldAliases":{"ID":"ID","DIS_CODE":"DIS_CODE","TOWNNAME":"TOWNNAME","LI":"LI","LIN":"LIN","STREET":"STREET","SECT":"SECT","MAREA":"MAREA","LANE":"LANE","ALLEY":"ALLEY","HOUSE_NO":"HOUSE_NO","E_COORD97":"E_COORD97","N_COORD97":"N_COORD97","ADDRESS":"ADDRESS","OBJECTID":"OBJECTID"},"geometryType":"esriGeometryPoint","spatialReference":{"wkid":102443,"latestWkid":3826},"fields":[{"name":"ID","type":"esriFieldTypeDouble","alias":"ID"},{"name":"DIS_CODE","type":"esriFieldTypeInteger","alias":"DIS_CODE"},{"name":"TOWNNAME","type":"esriFieldTypeString","alias":"TOWNNAME","length":8},{"name":"LI","type":"esriFieldTypeString","alias":"LI","length":8},{"name":"LIN","type":"esriFieldTypeString","alias":"LIN","length":12},{"name":"STREET","type":"esriFieldTypeString","alias":"STREET","length":20},{"name":"SECT","type":"esriFieldTypeString","alias":"SECT","length":8},{"name":"MAREA","type":"esriFieldTypeString","alias":"MAREA","length":12},{"name":"LANE","type":"esriFieldTypeString","alias":"LANE","length":10},{"name":"ALLEY","type":"esriFieldTypeString","alias":"ALLEY","length":10},{"name":"HOUSE_NO","type":"esriFieldTypeString","alias":"HOUSE_NO","length":20},{"name":"E_COORD97","type":"esriFieldTypeDouble","alias":"E_COORD97"},{"name":"N_COORD97","type":"esriFieldTypeDouble","alias":"N_COORD97"},{"name":"ADDRESS","type":"esriFieldTypeString","alias":"ADDRESS","length":50},{"name":"OBJECTID","type":"esriFieldTypeOID","alias":"OBJECTID"}],"features":[{"attributes":{"ID":413425,"DIS_CODE":0,"TOWNNAME":"善化區","LI":"文正里","LIN":"3鄰","STREET":"文正路","SECT":" ","MAREA":" ","LANE":"７９巷","ALLEY":" ","HOUSE_NO":"１８號","E_COORD97":177102.89000000001,"N_COORD97":2559382.0299999998,"ADDRESS":"文正路７９巷１８號","OBJECTID":413401},"geometry":{"x":177102.88999999966,"y":2559382.0300000012}},{"attributes":{"ID":413426,"DIS_CODE":0,"TOWNNAME":"安南區","LI":"城南里","LIN":"3鄰","STREET":"城西街","SECT":"一段","MAREA":" ","LANE":"６１巷","ALLEY":" ","HOUSE_NO":"９８號","E_COORD97":160718.07999999999,"N_COORD97":2551233.9100000001,"ADDRESS":"城西街一段６１巷９８號","OBJECTID":413402},"geometry":{"x":160718.08000000007,"y":2551233.910000002}},{"attributes":{"ID":413427,"DIS_CODE":0,"TOWNNAME":"安南區","LI":"鳳凰里","LIN":"3鄰","STREET":"安中路","SECT":"一段","MAREA":" ","LANE":"６２２巷","ALLEY":" ","HOUSE_NO":"９９號","E_COORD97":168083.29000000001,"N_COORD97":2549198.1499999999,"ADDRESS":"安中路一段６２２巷９９號","OBJECTID":413403},"geometry":{"x":168083.29000000097,"y":2549198.1500000022}},{"attributes":{"ID":413428,"DIS_CODE":0,"TOWNNAME":"安南區","LI":"海西里","LIN":"3鄰","STREET":"海中街","SECT":" ","MAREA":" ","LANE":"１６９巷","ALLEY":" ","HOUSE_NO":"７６號","E_COORD97":166220.54000000001,"N_COORD97":2549075.2799999998,"ADDRESS":"海中街１６９巷７６號","OBJECTID":413404},"geometry":{"x":166220.54000000004,"y":2549075.2799999993}},{"attributes":{"ID":413429,"DIS_CODE":0,"TOWNNAME":"安南區","LI":"海西里","LIN":"3鄰","STREET":"海中街","SECT":" ","MAREA":" ","LANE":"１６９巷","ALLEY":" ","HOUSE_NO":"７８號","E_COORD97":166213.84,"N_COORD97":2549072.3500000001,"ADDRESS":"海中街１６９巷７８號","OBJECTID":413405},"geometry":{"x":166213.84000000171,"y":2549072.3499999996}},{"attributes":{"ID":413430,"DIS_CODE":0,"TOWNNAME":"安南區","LI":"頂安里","LIN":"3鄰","STREET":"怡安路","SECT":"一段","MAREA":" ","LANE":"３８５巷","ALLEY":" ","HOUSE_NO":"４０號","E_COORD97":168685.16,"N_COORD97":2549095.6600000001,"ADDRESS":"怡安路一段３８５巷４０號","OBJECTID":413406},"geometry":{"x":168685.16000000015,"y":2549095.660000002}},{"attributes":{"ID":413431,"DIS_CODE":0,"TOWNNAME":"東區","LI":"大學里","LIN":"8鄰","STREET":"大學路","SECT":" ","MAREA":" ","LANE":"１８巷","ALLEY":" ","HOUSE_NO":"１６號","E_COORD97":170109.45000000001,"N_COORD97":2543914.3399999999,"ADDRESS":"大學路１８巷１６號","OBJECTID":413407},"geometry":{"x":170109.45000000112,"y":2543914.3400000017}},{"attributes":{"ID":413432,"DIS_CODE":0,"TOWNNAME":"東區","LI":"忠孝里","LIN":"31鄰","STREET":"中華東路","SECT":"三段","MAREA":" ","LANE":"３８０巷","ALLEY":" ","HOUSE_NO":"９號","E_COORD97":170035.28,"N_COORD97":2541619.1899999999,"ADDRESS":"中華東路三段３８０巷９號","OBJECTID":413408},"geometry":{"x":170035.28000000026,"y":2541619.1900000013}},{"attributes":{"ID":413433,"DIS_CODE":0,"TOWNNAME":"東區","LI":"崇誨里","LIN":"28鄰","STREET":"裕豐街","SECT":" ","MAREA":" ","LANE":"１８５巷","ALLEY":" ","HOUSE_NO":"３２號","E_COORD97":170692.67999999999,"N_COORD97":2543195.3300000001,"ADDRESS":"裕豐街１８５巷３２號","OBJECTID":413409},"geometry":{"x":170692.6799999997,"y":2543195.3300000019}},{"attributes":{"ID":413434,"DIS_CODE":0,"TOWNNAME":"東區","LI":"崇德里","LIN":"23鄰","STREET":"崇德路","SECT":" ","MAREA":" ","LANE":"５３０巷","ALLEY":" ","HOUSE_NO":"２２之１號","E_COORD97":170717.57000000001,"N_COORD97":2541522.52,"ADDRESS":"崇德路５３０巷２２之１號","OBJECTID":413410},"geometry":{"x":170717.57000000123,"y":2541522.5200000014}},{"attributes":{"ID":413435,"DIS_CODE":0,"TOWNNAME":"官田區","LI":"隆本里","LIN":"3鄰","STREET":"中華路","SECT":"二段","MAREA":" ","LANE":"５８巷","ALLEY":" ","HOUSE_NO":"１２號","E_COORD97":180189.5,"N_COORD97":2566409.8100000001,"ADDRESS":"中華路二段５８巷１２號","OBJECTID":413411},"geometry":{"x":180189.5,"y":2566409.8100000024}},{"attributes":{"ID":413436,"DIS_CODE":0,"TOWNNAME":"仁德區","LI":"仁義里","LIN":"3鄰","STREET":"仁義三街","SECT":" ","MAREA":" ","LANE":"２４３巷","ALLEY":" ","HOUSE_NO":"２１號","E_COORD97":173959.12,"N_COORD97":2541176.7599999998,"ADDRESS":"仁義三街２４３巷２１號","OBJECTID":413412},"geometry":{"x":173959.12000000011,"y":2541176.7599999998}},{"attributes":{"ID":413437,"DIS_CODE":0,"TOWNNAME":"仁德區","LI":"仁義里","LIN":"3鄰","STREET":"仁義四街","SECT":" ","MAREA":" ","LANE":"８２巷","ALLEY":" ","HOUSE_NO":"３號","E_COORD97":173920.06,"N_COORD97":2541044.27,"ADDRESS":"仁義四街８２巷３號","OBJECTID":413413},"geometry":{"x":173920.05999999866,"y":2541044.2699999996}},{"attributes":{"ID":413438,"DIS_CODE":0,"TOWNNAME":"永康區","LI":"南灣里","LIN":"40鄰","STREET":"南灣街","SECT":" ","MAREA":" ","LANE":"１３８巷","ALLEY":" ","HOUSE_NO":"３號","E_COORD97":174314.62,"N_COORD97":2545060.6200000001,"ADDRESS":"南灣街１３８巷３號","OBJECTID":413414},"geometry":{"x":174314.62000000011,"y":2545060.620000001}},{"attributes":{"ID":413439,"DIS_CODE":0,"TOWNNAME":"仁德區","LI":"仁義里","LIN":"3鄰","STREET":"仁義三街","SECT":" ","MAREA":" ","LANE":"２０５巷","ALLEY":" ","HOUSE_NO":"１０號","E_COORD97":173893.20000000001,"N_COORD97":2541148.52,"ADDRESS":"仁義三街２０５巷１０號","OBJECTID":413415},"geometry":{"x":173893.20000000112,"y":2541148.5200000033}},{"attributes":{"ID":413440,"DIS_CODE":0,"TOWNNAME":"仁德區","LI":"仁義里","LIN":"3鄰","STREET":"仁義三街","SECT":" ","MAREA":" ","LANE":"２４３巷","ALLEY":" ","HOUSE_NO":"１１號","E_COORD97":173958.57000000001,"N_COORD97":2541160.77,"ADDRESS":"仁義三街２４３巷１１號","OBJECTID":413416},"geometry":{"x":173958.57000000123,"y":2541160.7700000014}},{"attributes":{"ID":413441,"DIS_CODE":0,"TOWNNAME":"永康區","LI":"\u25A0行里","LIN":"3鄰","STREET":"中正路","SECT":" ","MAREA":" ","LANE":"８７２巷","ALLEY":" ","HOUSE_NO":"９號","E_COORD97":172096.23000000001,"N_COORD97":2548859.4900000002,"ADDRESS":"中正路８７２巷９號","OBJECTID":413417},"geometry":{"x":172096.23000000138,"y":2548859.4900000039}},{"attributes":{"ID":413442,"DIS_CODE":0,"TOWNNAME":"仁德區","LI":"仁義里","LIN":"3鄰","STREET":"仁義三街","SECT":" ","MAREA":" ","LANE":"２４３巷","ALLEY":" ","HOUSE_NO":"５號","E_COORD97":173962.20000000001,"N_COORD97":2541146.52,"ADDRESS":"仁義三街２４３巷５號","OBJECTID":413418},"geometry":{"x":173962.20000000205,"y":2541146.5200000014}},{"attributes":{"ID":413443,"DIS_CODE":0,"TOWNNAME":"仁德區","LI":"土庫里","LIN":"3鄰","STREET":"土庫路","SECT":" ","MAREA":" ","LANE":"２００巷","ALLEY":" ","HOUSE_NO":"９號","E_COORD97":174206.20999999999,"N_COORD97":2542877.2400000002,"ADDRESS":"土庫路２００巷９號","OBJECTID":413419},"geometry":{"x":174206.21000000089,"y":2542877.2400000021}},{"attributes":{"ID":413444,"DIS_CODE":0,"TOWNNAME":"仁德區","LI":"二行里","LIN":"3鄰","STREET":"二行一路","SECT":" ","MAREA":" ","LANE":"１５３巷","ALLEY":" ","HOUSE_NO":"２０號","E_COORD97":170464.29000000001,"N_COORD97":2535567.75,"ADDRESS":"二行一路１５３巷２０號","OBJECTID":413420},"geometry":{"x":170464.2900000019,"y":2535567.7500000019}},{"attributes":{"ID":413445,"DIS_CODE":0,"TOWNNAME":"仁德區","LI":"土庫里","LIN":"3鄰","STREET":"土庫路","SECT":" ","MAREA":" ","LANE":"２００巷","ALLEY":" ","HOUSE_NO":"２６號","E_COORD97":174203.70999999999,"N_COORD97":2542908.5,"ADDRESS":"土庫路２００巷２６號","OBJECTID":413421},"geometry":{"x":174203.70999999996,"y":2542908.5}},{"attributes":{"ID":413446,"DIS_CODE":0,"TOWNNAME":"仁德區","LI":"一甲里","LIN":"3鄰","STREET":"中正路","SECT":"三段","MAREA":" ","LANE":"１１４巷","ALLEY":" ","HOUSE_NO":"１４號","E_COORD97":173449.60000000001,"N_COORD97":2541642.98,"ADDRESS":"中正路三段１１４巷１４號","OBJECTID":413422},"geometry":{"x":173449.59999999963,"y":2541642.9800000023}},{"attributes":{"ID":413447,"DIS_CODE":0,"TOWNNAME":"東區","LI":"大智里","LIN":"31鄰","STREET":"德東街","SECT":" ","MAREA":" ","LANE":"１８９巷","ALLEY":" ","HOUSE_NO":"１０號","E_COORD97":171298.64000000001,"N_COORD97":2540318.1099999999,"ADDRESS":"德東街１８９巷１０號","OBJECTID":413423},"geometry":{"x":171298.63999999966,"y":2540318.1100000013}},{"attributes":{"ID":413448,"DIS_CODE":0,"TOWNNAME":"東區","LI":"大智里","LIN":"31鄰","STREET":"德東街","SECT":" ","MAREA":" ","LANE":"１８９巷","ALLEY":" ","HOUSE_NO":"１１號","E_COORD97":171262.95000000001,"N_COORD97":2540303.2999999998,"ADDRESS":"德東街１８９巷１１號","OBJECTID":413424},"geometry":{"x":171262.95000000019,"y":2540303.3000000007}},{"attributes":{"ID":413449,"DIS_CODE":0,"TOWNNAME":"東區","LI":"大智里","LIN":"31鄰","STREET":"德東街","SECT":" ","MAREA":" ","LANE":"１８９巷","ALLEY":" ","HOUSE_NO":"１２號","E_COORD97":171299.06,"N_COORD97":2540323.3799999999,"ADDRESS":"德東街１８９巷１２號","OBJECTID":413425},"geometry":{"x":171299.05999999959,"y":2540323.379999999}},{"attributes":{"ID":413450,"DIS_CODE":0,"TOWNNAME":"東區","LI":"大智里","LIN":"31鄰","STREET":"德東街","SECT":" ","MAREA":" ","LANE":"１８９巷","ALLEY":" ","HOUSE_NO":"１３號","E_COORD97":171258.38,"N_COORD97":2540301.2599999998,"ADDRESS":"德東街１８９巷１３號","OBJECTID":413426},"geometry":{"x":171258.37999999989,"y":2540301.2600000016}},{"attributes":{"ID":413451,"DIS_CODE":0,"TOWNNAME":"東區","LI":"大智里","LIN":"31鄰","STREET":"德東街","SECT":" ","MAREA":" ","LANE":"１８９巷","ALLEY":" ","HOUSE_NO":"１４號","E_COORD97":171298.42999999999,"N_COORD97":2540329.5,"ADDRESS":"德東街１８９巷１４號","OBJECTID":413427},"geometry":{"x":171298.4299999997,"y":2540329.5000000019}},{"attributes":{"ID":413452,"DIS_CODE":0,"TOWNNAME":"東區","LI":"大智里","LIN":"31鄰","STREET":"德東街","SECT":" ","MAREA":" ","LANE":"１８９巷","ALLEY":" ","HOUSE_NO":"１５號","E_COORD97":171259.34,"N_COORD97":2540288.9900000002,"ADDRESS":"德東街１８９巷１５號","OBJECTID":413428},"geometry":{"x":171259.34000000078,"y":2540288.9900000021}},{"attributes":{"ID":413453,"DIS_CODE":0,"TOWNNAME":"東區","LI":"大智里","LIN":"31鄰","STREET":"德東街","SECT":" ","MAREA":" ","LANE":"１８９巷","ALLEY":" ","HOUSE_NO":"１６號","E_COORD97":171298.01000000001,"N_COORD97":2540334.1499999999,"ADDRESS":"德東街１８９巷１６號","OBJECTID":413429},"geometry":{"x":171298.00999999978,"y":2540334.1500000004}},{"attributes":{"ID":413454,"DIS_CODE":0,"TOWNNAME":"東區","LI":"大智里","LIN":"31鄰","STREET":"德東街","SECT":" ","MAREA":" ","LANE":"１８９巷","ALLEY":" ","HOUSE_NO":"１７號","E_COORD97":171259.10000000001,"N_COORD97":2540283.5800000001,"ADDRESS":"德東街１８９巷１７號","OBJECTID":413430},"geometry":{"x":171259.10000000056,"y":2540283.5800000001}},{"attributes":{"ID":413455,"DIS_CODE":0,"TOWNNAME":"東區","LI":"大智里","LIN":"31鄰","STREET":"德東街","SECT":" ","MAREA":" ","LANE":"１８９巷","ALLEY":" ","HOUSE_NO":"１８號","E_COORD97":171299.26999999999,"N_COORD97":2540339,"ADDRESS":"德東街１８９巷１８號","OBJECTID":413431},"geometry":{"x":171299.26999999955,"y":2540339.0000000037}},{"attributes":{"ID":413456,"DIS_CODE":0,"TOWNNAME":"東區","LI":"大智里","LIN":"31鄰","STREET":"德東街","SECT":" ","MAREA":" ","LANE":"１８９巷","ALLEY":" ","HOUSE_NO":"１９號","E_COORD97":171240.29000000001,"N_COORD97":2540283.29,"ADDRESS":"德東街１８９巷１９號","OBJECTID":413432},"geometry":{"x":171240.29000000004,"y":2540283.290000001}},{"attributes":{"ID":413457,"DIS_CODE":0,"TOWNNAME":"東區","LI":"大智里","LIN":"31鄰","STREET":"德東街","SECT":" ","MAREA":" ","LANE":"１８９巷","ALLEY":" ","HOUSE_NO":"２０號","E_COORD97":171297.79000000001,"N_COORD97":2540345.7599999998,"ADDRESS":"德東街１８９巷２０號","OBJECTID":413433},"geometry":{"x":171297.79000000004,"y":2540345.7599999998}},{"attributes":{"ID":413458,"DIS_CODE":0,"TOWNNAME":"東區","LI":"大智里","LIN":"31鄰","STREET":"德東街","SECT":" ","MAREA":" ","LANE":"１８９巷","ALLEY":" ","HOUSE_NO":"２１號","E_COORD97":171239.57999999999,"N_COORD97":2540289.9199999999,"ADDRESS":"德東街１８９巷２１號","OBJECTID":413434},"geometry":{"x":171239.58000000101,"y":2540289.9200000018}},{"attributes":{"ID":413459,"DIS_CODE":0,"TOWNNAME":"東區","LI":"大智里","LIN":"31鄰","STREET":"德東街","SECT":" ","MAREA":" ","LANE":"１８９巷","ALLEY":" ","HOUSE_NO":"２３號","E_COORD97":171238.85999999999,"N_COORD97":2540295.4700000002,"ADDRESS":"德東街１８９巷２３號","OBJECTID":413435},"geometry":{"x":171238.8600000022,"y":2540295.4699999988}},{"attributes":{"ID":413460,"DIS_CODE":0,"TOWNNAME":"東區","LI":"大智里","LIN":"31鄰","STREET":"德東街","SECT":" ","MAREA":" ","LANE":"１８９巷","ALLEY":" ","HOUSE_NO":"２５號","E_COORD97":171239.22,"N_COORD97":2540301.7400000002,"ADDRESS":"德東街１８９巷２５號","OBJECTID":413436},"geometry":{"x":171239.2200000016,"y":2540301.7400000021}},{"attributes":{"ID":413461,"DIS_CODE":0,"TOWNNAME":"東區","LI":"大智里","LIN":"22鄰","STREET":"崇善十五街","SECT":" ","MAREA":" ","LANE":"３３巷","ALLEY":" ","HOUSE_NO":"８４號","E_COORD97":171327.73000000001,"N_COORD97":2540448.5800000001,"ADDRESS":"崇善十五街３３巷８４號","OBJECTID":413437},"geometry":{"x":171327.73000000045,"y":2540448.5800000019}},{"attributes":{"ID":413462,"DIS_CODE":0,"TOWNNAME":"東區","LI":"大智里","LIN":"22鄰","STREET":"崇善十五街","SECT":" ","MAREA":" ","LANE":"３３巷","ALLEY":" ","HOUSE_NO":"８６號","E_COORD97":171318.20000000001,"N_COORD97":2540449.77,"ADDRESS":"崇善十五街３３巷８６號","OBJECTID":413438},"geometry":{"x":171318.20000000112,"y":2540449.7700000014}},{"attributes":{"ID":413463,"DIS_CODE":0,"TOWNNAME":"東區","LI":"大智里","LIN":"22鄰","STREET":"崇善十五街","SECT":" ","MAREA":" ","LANE":"３３巷","ALLEY":" ","HOUSE_NO":"８８號","E_COORD97":171307.19,"N_COORD97":2540449.4700000002,"ADDRESS":"崇善十五街３３巷８８號","OBJECTID":413439},"geometry":{"x":171307.19000000041,"y":2540449.4700000025}},{"attributes":{"ID":413464,"DIS_CODE":0,"TOWNNAME":"東區","LI":"大智里","LIN":"31鄰","STREET":"德東街","SECT":" ","MAREA":" ","LANE":"１８９巷","ALLEY":" ","HOUSE_NO":"２７號","E_COORD97":171239.22,"N_COORD97":2540306.9300000002,"ADDRESS":"德東街１８９巷２７號","OBJECTID":413440},"geometry":{"x":171239.2200000016,"y":2540306.9299999997}},{"attributes":{"ID":413465,"DIS_CODE":0,"TOWNNAME":"東區","LI":"大智里","LIN":"31鄰","STREET":"德東街","SECT":" ","MAREA":" ","LANE":"１８９巷","ALLEY":" ","HOUSE_NO":"２９號","E_COORD97":171239.39999999999,"N_COORD97":2540313.02,"ADDRESS":"德東街１８９巷２９號","OBJECTID":413441},"geometry":{"x":171239.4000000013,"y":2540313.0199999996}},{"attributes":{"ID":413466,"DIS_CODE":0,"TOWNNAME":"東區","LI":"大智里","LIN":"31鄰","STREET":"德東街","SECT":" ","MAREA":" ","LANE":"１８９巷","ALLEY":" ","HOUSE_NO":"２號","E_COORD97":171300.54000000001,"N_COORD97":2540284.5499999998,"ADDRESS":"德東街１８９巷２號","OBJECTID":413442},"geometry":{"x":171300.54000000097,"y":2540284.5500000007}},{"attributes":{"ID":413467,"DIS_CODE":0,"TOWNNAME":"東區","LI":"大智里","LIN":"31鄰","STREET":"德東街","SECT":" ","MAREA":" ","LANE":"１８９巷","ALLEY":" ","HOUSE_NO":"３１號","E_COORD97":171237.95999999999,"N_COORD97":2540318.3900000001,"ADDRESS":"德東街１８９巷３１號","OBJECTID":413443},"geometry":{"x":171237.96000000089,"y":2540318.3900000006}},{"attributes":{"ID":413468,"DIS_CODE":0,"TOWNNAME":"東區","LI":"大智里","LIN":"31鄰","STREET":"德東街","SECT":" ","MAREA":" ","LANE":"１８９巷","ALLEY":" ","HOUSE_NO":"３３號","E_COORD97":171237.25,"N_COORD97":2540324.2999999998,"ADDRESS":"德東街１８９巷３３號","OBJECTID":413444},"geometry":{"x":171237.25,"y":2540324.3000000045}},{"attributes":{"ID":413469,"DIS_CODE":0,"TOWNNAME":"北區","LI":"玉皇里","LIN":"13鄰","STREET":"公園路","SECT":" ","MAREA":" ","LANE":" ","ALLEY":" ","HOUSE_NO":"２１７號","E_COORD97":168787.54999999999,"N_COORD97":2544463.73,"ADDRESS":"公園路２１７號","OBJECTID":413445},"geometry":{"x":168787.55000000168,"y":2544463.7299999986}},{"attributes":{"ID":413470,"DIS_CODE":0,"TOWNNAME":"東區","LI":"大智里","LIN":"31鄰","STREET":"德東街","SECT":" ","MAREA":" ","LANE":"１８９巷","ALLEY":" ","HOUSE_NO":"３５號","E_COORD97":171236.53,"N_COORD97":2540329.1299999999,"ADDRESS":"德東街１８９巷３５號","OBJECTID":413446},"geometry":{"x":171236.53000000119,"y":2540329.129999999}},{"attributes":{"ID":413471,"DIS_CODE":0,"TOWNNAME":"東區","LI":"大智里","LIN":"31鄰","STREET":"德東街","SECT":" ","MAREA":" ","LANE":"１８９巷","ALLEY":" ","HOUSE_NO":"３７號","E_COORD97":171236.53,"N_COORD97":2540335.2200000002,"ADDRESS":"德東街１８９巷３７號","OBJECTID":413447},"geometry":{"x":171236.53000000119,"y":2540335.2200000025}},{"attributes":{"ID":413472,"DIS_CODE":0,"TOWNNAME":"東區","LI":"大智里","LIN":"31鄰","STREET":"德東街","SECT":" ","MAREA":" ","LANE":"１８９巷","ALLEY":" ","HOUSE_NO":"３９號","E_COORD97":171259.56,"N_COORD97":2540334.1499999999,"ADDRESS":"德東街１８９巷３９號","OBJECTID":413448},"geometry":{"x":171259.56000000052,"y":2540334.1500000004}},{"attributes":{"ID":413473,"DIS_CODE":0,"TOWNNAME":"東區","LI":"大智里","LIN":"31鄰","STREET":"德東街","SECT":" ","MAREA":" ","LANE":"１８９巷","ALLEY":" ","HOUSE_NO":"３號","E_COORD97":171282.57999999999,"N_COORD97":2540288.5600000001,"ADDRESS":"德東街１８９巷３號","OBJECTID":413449},"geometry":{"x":171282.58000000007,"y":2540288.5600000024}},{"attributes":{"ID":413474,"DIS_CODE":0,"TOWNNAME":"東區","LI":"大智里","LIN":"31鄰","STREET":"德東街","SECT":" ","MAREA":" ","LANE":"１８９巷","ALLEY":" ","HOUSE_NO":"４１號","E_COORD97":171260.20999999999,"N_COORD97":2540330.0299999998,"ADDRESS":"德東街１８９巷４１號","OBJECTID":413450},"geometry":{"x":171260.21000000089,"y":2540330.0299999993}},{"attributes":{"ID":413475,"DIS_CODE":0,"TOWNNAME":"東區","LI":"大智里","LIN":"31鄰","STREET":"德東街","SECT":" ","MAREA":" ","LANE":"１８９巷","ALLEY":" ","HOUSE_NO":"４３號","E_COORD97":171258.5,"N_COORD97":2540319.3700000001,"ADDRESS":"德東街１８９巷４３號","OBJECTID":413451},"geometry":{"x":171258.50000000093,"y":2540319.370000001}},{"attributes":{"ID":413476,"DIS_CODE":0,"TOWNNAME":"東區","LI":"大智里","LIN":"31鄰","STREET":"德東街","SECT":" ","MAREA":" ","LANE":"１８９巷","ALLEY":" ","HOUSE_NO":"４５號","E_COORD97":171270.32999999999,"N_COORD97":2540319.5800000001,"ADDRESS":"德東街１８９巷４５號","OBJECTID":413452},"geometry":{"x":171270.33000000007,"y":2540319.5800000019}},{"attributes":{"ID":413477,"DIS_CODE":0,"TOWNNAME":"東區","LI":"大智里","LIN":"31鄰","STREET":"德東街","SECT":" ","MAREA":" ","LANE":"１８９巷","ALLEY":" ","HOUSE_NO":"４７號","E_COORD97":171282.37,"N_COORD97":2540318.3199999998,"ADDRESS":"德東街１８９巷４７號","OBJECTID":413453},"geometry":{"x":171282.37000000011,"y":2540318.3200000022}},{"attributes":{"ID":413478,"DIS_CODE":0,"TOWNNAME":"東區","LI":"大智里","LIN":"31鄰","STREET":"德東街","SECT":" ","MAREA":" ","LANE":"１８９巷","ALLEY":" ","HOUSE_NO":"４９號","E_COORD97":171282.16,"N_COORD97":2540324.02,"ADDRESS":"德東街１８９巷４９號","OBJECTID":413454},"geometry":{"x":171282.16000000015,"y":2540324.0199999996}},{"attributes":{"ID":413479,"DIS_CODE":0,"TOWNNAME":"仁德區","LI":"一甲里","LIN":"3鄰","STREET":"中正路","SECT":"三段","MAREA":" ","LANE":"１１４巷","ALLEY":" ","HOUSE_NO":"１１號","E_COORD97":173459.87,"N_COORD97":2541656.4700000002,"ADDRESS":"中正路三段１１４巷１１號","OBJECTID":413455},"geometry":{"x":173459.87000000104,"y":2541656.4700000025}},{"attributes":{"ID":413480,"DIS_CODE":0,"TOWNNAME":"仁德區","LI":"土庫里","LIN":"3鄰","STREET":"土庫路","SECT":" ","MAREA":" ","LANE":"２００巷","ALLEY":" ","HOUSE_NO":"２８號","E_COORD97":174199.59,"N_COORD97":2542913.25,"ADDRESS":"土庫路２００巷２８號","OBJECTID":413456},"geometry":{"x":174199.58999999985,"y":2542913.25}},{"attributes":{"ID":413481,"DIS_CODE":0,"TOWNNAME":"東區","LI":"小東里","LIN":"3鄰","STREET":"小東路","SECT":" ","MAREA":" ","LANE":"１９８巷","ALLEY":" ","HOUSE_NO":"２６號","E_COORD97":170822.95000000001,"N_COORD97":2544391.1600000001,"ADDRESS":"小東路１９８巷２６號","OBJECTID":413457},"geometry":{"x":170822.95000000112,"y":2544391.160000002}},{"attributes":{"ID":413482,"DIS_CODE":0,"TOWNNAME":"東區","LI":"小東里","LIN":"3鄰","STREET":"小東路","SECT":" ","MAREA":" ","LANE":"１９８巷","ALLEY":" ","HOUSE_NO":"３０號","E_COORD97":170823.19,"N_COORD97":2544382.0600000001,"ADDRESS":"小東路１９８巷３０號","OBJECTID":413458},"geometry":{"x":170823.19000000134,"y":2544382.0600000024}},{"attributes":{"ID":413483,"DIS_CODE":0,"TOWNNAME":"東區","LI":"小東里","LIN":"3鄰","STREET":"小東路","SECT":" ","MAREA":" ","LANE":"１９８巷","ALLEY":" ","HOUSE_NO":"３４號","E_COORD97":170823.67000000001,"N_COORD97":2544374.8799999999,"ADDRESS":"小東路１９８巷３４號","OBJECTID":413459},"geometry":{"x":170823.66999999993,"y":2544374.879999999}},{"attributes":{"ID":413484,"DIS_CODE":0,"TOWNNAME":"東區","LI":"小東里","LIN":"3鄰","STREET":"小東路","SECT":" ","MAREA":" ","LANE":"１９８巷","ALLEY":" ","HOUSE_NO":"２號","E_COORD97":170830.42000000001,"N_COORD97":2544445.3500000001,"ADDRESS":"小東路１９８巷２號","OBJECTID":413460},"geometry":{"x":170830.41999999993,"y":2544445.3500000034}},{"attributes":{"ID":413485,"DIS_CODE":0,"TOWNNAME":"東區","LI":"小東里","LIN":"3鄰","STREET":"小東路","SECT":" ","MAREA":" ","LANE":"１９８巷","ALLEY":" ","HOUSE_NO":"３２號","E_COORD97":170823.19,"N_COORD97":2544378.9500000002,"ADDRESS":"小東路１９８巷３２號","OBJECTID":413461},"geometry":{"x":170823.19000000134,"y":2544378.9499999993}},{"attributes":{"ID":413486,"DIS_CODE":0,"TOWNNAME":"東區","LI":"小東里","LIN":"3鄰","STREET":"小東路","SECT":" ","MAREA":" ","LANE":"１９８巷","ALLEY":" ","HOUSE_NO":"４２號","E_COORD97":170824.14999999999,"N_COORD97":2544356.2000000002,"ADDRESS":"小東路１９８巷４２號","OBJECTID":413462},"geometry":{"x":170824.15000000037,"y":2544356.1999999993}},{"attributes":{"ID":413487,"DIS_CODE":0,"TOWNNAME":"東區","LI":"小東里","LIN":"3鄰","STREET":"小東路","SECT":" ","MAREA":" ","LANE":"１９８巷","ALLEY":" ","HOUSE_NO":"２８號","E_COORD97":170822.95000000001,"N_COORD97":2544386.6099999999,"ADDRESS":"小東路１９８巷２８號","OBJECTID":413463},"geometry":{"x":170822.95000000112,"y":2544386.6100000013}},{"attributes":{"ID":413488,"DIS_CODE":0,"TOWNNAME":"東區","LI":"小東里","LIN":"3鄰","STREET":"小東路","SECT":" ","MAREA":" ","LANE":"１９８巷","ALLEY":" ","HOUSE_NO":"３６號","E_COORD97":170823.79000000001,"N_COORD97":2544370.3300000001,"ADDRESS":"小東路１９８巷３６號","OBJECTID":413464},"geometry":{"x":170823.7900000019,"y":2544370.3300000001}},{"attributes":{"ID":413489,"DIS_CODE":0,"TOWNNAME":"東區","LI":"小東里","LIN":"3鄰","STREET":"小東路","SECT":" ","MAREA":" ","LANE":"１９８巷","ALLEY":" ","HOUSE_NO":"３８號","E_COORD97":170823.79000000001,"N_COORD97":2544367.2200000002,"ADDRESS":"小東路１９８巷３８號","OBJECTID":413465},"geometry":{"x":170823.7900000019,"y":2544367.2200000025}},{"attributes":{"ID":413490,"DIS_CODE":0,"TOWNNAME":"東區","LI":"小東里","LIN":"3鄰","STREET":"小東路","SECT":" ","MAREA":" ","LANE":"１９８巷","ALLEY":" ","HOUSE_NO":"４６號","E_COORD97":170824.75,"N_COORD97":2544347.8199999998,"ADDRESS":"小東路１９８巷４６號","OBJECTID":413466},"geometry":{"x":170824.75,"y":2544347.820000004}},{"attributes":{"ID":413491,"DIS_CODE":0,"TOWNNAME":"東區","LI":"小東里","LIN":"3鄰","STREET":"小東路","SECT":" ","MAREA":" ","LANE":"１９８巷","ALLEY":" ","HOUSE_NO":"４４號","E_COORD97":170824.63,"N_COORD97":2544351.77,"ADDRESS":"小東路１９８巷４４號","OBJECTID":413467},"geometry":{"x":170824.63000000175,"y":2544351.7700000014}},{"attributes":{"ID":413492,"DIS_CODE":0,"TOWNNAME":"東區","LI":"大福里","LIN":"3鄰","STREET":"立德二路","SECT":" ","MAREA":" ","LANE":"５４巷","ALLEY":" ","HOUSE_NO":"３８號","E_COORD97":169631.10000000001,"N_COORD97":2541682.4100000001,"ADDRESS":"立德二路５４巷３８號","OBJECTID":413468},"geometry":{"x":169631.10000000149,"y":2541682.4100000039}},{"attributes":{"ID":413493,"DIS_CODE":0,"TOWNNAME":"東區","LI":"大福里","LIN":"3鄰","STREET":"立德二路","SECT":" ","MAREA":" ","LANE":"５４巷","ALLEY":" ","HOUSE_NO":"４２號","E_COORD97":169620.66,"N_COORD97":2541678.8399999999,"ADDRESS":"立德二路５４巷４２號","OBJECTID":413469},"geometry":{"x":169620.66000000015,"y":2541678.839999998}},{"attributes":{"ID":413494,"DIS_CODE":0,"TOWNNAME":"東區","LI":"大福里","LIN":"3鄰","STREET":"立德二路","SECT":" ","MAREA":" ","LANE":"５４巷","ALLEY":" ","HOUSE_NO":"４６號","E_COORD97":169615.17000000001,"N_COORD97":2541676.3700000001,"ADDRESS":"立德二路５４巷４６號","OBJECTID":413470},"geometry":{"x":169615.16999999993,"y":2541676.370000001}},{"attributes":{"ID":413495,"DIS_CODE":0,"TOWNNAME":"東區","LI":"大福里","LIN":"3鄰","STREET":"立德二路","SECT":" ","MAREA":" ","LANE":"５４巷","ALLEY":" ","HOUSE_NO":"４０號","E_COORD97":169626.16,"N_COORD97":2541681.04,"ADDRESS":"立德二路５４巷４０號","OBJECTID":413471},"geometry":{"x":169626.16000000201,"y":2541681.040000001}},{"attributes":{"ID":413496,"DIS_CODE":0,"TOWNNAME":"東區","LI":"大福里","LIN":"3鄰","STREET":"立德二路","SECT":" ","MAREA":" ","LANE":"５４巷","ALLEY":" ","HOUSE_NO":"７４號","E_COORD97":169615.44,"N_COORD97":2541654.9700000002,"ADDRESS":"立德二路５４巷７４號","OBJECTID":413472},"geometry":{"x":169615.44000000041,"y":2541654.9700000007}},{"attributes":{"ID":413497,"DIS_CODE":0,"TOWNNAME":"東區","LI":"大福里","LIN":"3鄰","STREET":"立德二路","SECT":" ","MAREA":" ","LANE":"５４巷","ALLEY":" ","HOUSE_NO":"７６號","E_COORD97":169608.57000000001,"N_COORD97":2541653.0499999998,"ADDRESS":"立德二路５４巷７６號","OBJECTID":413473},"geometry":{"x":169608.57000000123,"y":2541653.0500000026}},{"attributes":{"ID":413498,"DIS_CODE":0,"TOWNNAME":"東區","LI":"大福里","LIN":"3鄰","STREET":"立德二路","SECT":" ","MAREA":" ","LANE":"５４巷","ALLEY":" ","HOUSE_NO":"４８號","E_COORD97":169609.39999999999,"N_COORD97":2541674.73,"ADDRESS":"立德二路５４巷４８號","OBJECTID":413474},"geometry":{"x":169609.39999999944,"y":2541674.7300000023}},{"attributes":{"ID":413499,"DIS_CODE":0,"TOWNNAME":"東區","LI":"大福里","LIN":"3鄰","STREET":"立德二路","SECT":" ","MAREA":" ","LANE":"５４巷","ALLEY":" ","HOUSE_NO":"６０號","E_COORD97":169628.63,"N_COORD97":2541672.2599999998,"ADDRESS":"立德二路５４巷６０號","OBJECTID":413475},"geometry":{"x":169628.63000000082,"y":2541672.2599999998}},{"attributes":{"ID":413500,"DIS_CODE":0,"TOWNNAME":"東區","LI":"大福里","LIN":"3鄰","STREET":"立德二路","SECT":" ","MAREA":" ","LANE":"５４巷","ALLEY":" ","HOUSE_NO":"５０號","E_COORD97":169603.35000000001,"N_COORD97":2541673.3500000001,"ADDRESS":"立德二路５４巷５０號","OBJECTID":413476},"geometry":{"x":169603.34999999963,"y":2541673.3500000015}},{"attributes":{"ID":413501,"DIS_CODE":0,"TOWNNAME":"東區","LI":"裕農里","LIN":"3鄰","STREET":"裕農路","SECT":" ","MAREA":" ","LANE":"２９１巷","ALLEY":" ","HOUSE_NO":"３號","E_COORD97":170879.85999999999,"N_COORD97":2543024.5600000001,"ADDRESS":"裕農路２９１巷３號","OBJECTID":413477},"geometry":{"x":170879.86000000127,"y":2543024.5600000024}},{"attributes":{"ID":413502,"DIS_CODE":0,"TOWNNAME":"東區","LI":"小東里","LIN":"3鄰","STREET":"小東路","SECT":" ","MAREA":" ","LANE":"１９８巷","ALLEY":" ","HOUSE_NO":"４號","E_COORD97":170829.5,"N_COORD97":2544441.3399999999,"ADDRESS":"小東路１９８巷４號","OBJECTID":413478},"geometry":{"x":170829.50000000093,"y":2544441.3399999999}},{"attributes":{"ID":413503,"DIS_CODE":0,"TOWNNAME":"東區","LI":"小東里","LIN":"3鄰","STREET":"小東路","SECT":" ","MAREA":" ","LANE":"１９８巷","ALLEY":" ","HOUSE_NO":"４號之１","E_COORD97":170828.26000000001,"N_COORD97":2544436.4100000001,"ADDRESS":"小東路１９８巷４號之１","OBJECTID":413479},"geometry":{"x":170828.25999999978,"y":2544436.410000002}},{"attributes":{"ID":413504,"DIS_CODE":0,"TOWNNAME":"東區","LI":"大福里","LIN":"3鄰","STREET":"立德二路","SECT":" ","MAREA":" ","LANE":"５４巷","ALLEY":" ","HOUSE_NO":"２８號","E_COORD97":169607.20000000001,"N_COORD97":2541686.7999999998,"ADDRESS":"立德二路５４巷２８號","OBJECTID":413480},"geometry":{"x":169607.19999999925,"y":2541686.7999999989}},{"attributes":{"ID":413505,"DIS_CODE":0,"TOWNNAME":"東區","LI":"龍山里","LIN":"3鄰","STREET":"富德街","SECT":" ","MAREA":" ","LANE":"２５巷","ALLEY":" ","HOUSE_NO":"８號","E_COORD97":170325.70000000001,"N_COORD97":2542826.8799999999,"ADDRESS":"富德街２５巷８號","OBJECTID":413481},"geometry":{"x":170325.70000000019,"y":2542826.879999999}},{"attributes":{"ID":413506,"DIS_CODE":0,"TOWNNAME":"東區","LI":"龍山里","LIN":"3鄰","STREET":"富德街","SECT":" ","MAREA":" ","LANE":"２５巷","ALLEY":" ","HOUSE_NO":"１０號","E_COORD97":170314.84,"N_COORD97":2542830.9500000002,"ADDRESS":"富德街２５巷１０號","OBJECTID":413482},"geometry":{"x":170314.84000000078,"y":2542830.9500000011}},{"attributes":{"ID":413507,"DIS_CODE":0,"TOWNNAME":"東區","LI":"後甲里","LIN":"3鄰","STREET":"裕農路","SECT":" ","MAREA":" ","LANE":"６２１巷","ALLEY":" ","HOUSE_NO":"６號之１","E_COORD97":171634.92999999999,"N_COORD97":2543277.0299999998,"ADDRESS":"裕農路６２１巷６號之１","OBJECTID":413483},"geometry":{"x":171634.93000000063,"y":2543277.0299999993}},{"attributes":{"ID":413508,"DIS_CODE":0,"TOWNNAME":"東區","LI":"衛國里","LIN":"3鄰","STREET":"衛國街","SECT":" ","MAREA":" ","LANE":"１１２巷","ALLEY":" ","HOUSE_NO":"１４號","E_COORD97":170488.14000000001,"N_COORD97":2543084.5899999999,"ADDRESS":"衛國街１１２巷１４號","OBJECTID":413484},"geometry":{"x":170488.13999999966,"y":2543084.5900000036}},{"attributes":{"ID":413509,"DIS_CODE":0,"TOWNNAME":"東區","LI":"衛國里","LIN":"3鄰","STREET":"衛國街","SECT":" ","MAREA":" ","LANE":"１１２巷","ALLEY":" ","HOUSE_NO":"１６號","E_COORD97":170494.07999999999,"N_COORD97":2543074.8100000001,"ADDRESS":"衛國街１１２巷１６號","OBJECTID":413485},"geometry":{"x":170494.08000000007,"y":2543074.8100000024}},{"attributes":{"ID":413510,"DIS_CODE":0,"TOWNNAME":"東區","LI":"衛國里","LIN":"3鄰","STREET":"衛國街","SECT":" ","MAREA":" ","LANE":"１１２巷","ALLEY":" ","HOUSE_NO":"１８號","E_COORD97":170501.76000000001,"N_COORD97":2543076.1600000001,"ADDRESS":"衛國街１１２巷１８號","OBJECTID":413486},"geometry":{"x":170501.76000000071,"y":2543076.1600000001}},{"attributes":{"ID":413511,"DIS_CODE":0,"TOWNNAME":"東區","LI":"衛國里","LIN":"3鄰","STREET":"衛國街","SECT":" ","MAREA":" ","LANE":"１１２巷","ALLEY":" ","HOUSE_NO":"２０號","E_COORD97":170503.67000000001,"N_COORD97":2543086.7000000002,"ADDRESS":"衛國街１１２巷２０號","OBJECTID":413487},"geometry":{"x":170503.66999999993,"y":2543086.7000000011}},{"attributes":{"ID":413512,"DIS_CODE":0,"TOWNNAME":"東區","LI":"虎尾里","LIN":"3鄰","STREET":"東門路","SECT":"三段","MAREA":" ","LANE":"１７９巷","ALLEY":" ","HOUSE_NO":"１４５號","E_COORD97":171768.35000000001,"N_COORD97":2542045.6099999999,"ADDRESS":"東門路三段１７９巷１４５號","OBJECTID":413488},"geometry":{"x":171768.34999999963,"y":2542045.6099999994}},{"attributes":{"ID":413513,"DIS_CODE":0,"TOWNNAME":"東區","LI":"龍山里","LIN":"3鄰","STREET":"富德街","SECT":" ","MAREA":" ","LANE":"２５巷","ALLEY":" ","HOUSE_NO":"１５號","E_COORD97":170305.79000000001,"N_COORD97":2542816.4700000002,"ADDRESS":"富德街２５巷１５號","OBJECTID":413489},"geometry":{"x":170305.79000000004,"y":2542816.4700000025}},{"attributes":{"ID":413514,"DIS_CODE":0,"TOWNNAME":"東區","LI":"龍山里","LIN":"3鄰","STREET":"富德街","SECT":" ","MAREA":" ","LANE":"２５巷","ALLEY":" ","HOUSE_NO":"１３號","E_COORD97":170308.5,"N_COORD97":2542813.7599999998,"ADDRESS":"富德街２５巷１３號","OBJECTID":413490},"geometry":{"x":170308.50000000186,"y":2542813.7599999998}},{"attributes":{"ID":413515,"DIS_CODE":0,"TOWNNAME":"東區","LI":"裕農里","LIN":"3鄰","STREET":"裕農路","SECT":" ","MAREA":" ","LANE":"２９１巷","ALLEY":" ","HOUSE_NO":"１０號","E_COORD97":170875.01000000001,"N_COORD97":2543035.25,"ADDRESS":"裕農路２９１巷１０號","OBJECTID":413491},"geometry":{"x":170875.01000000071,"y":2543035.25}},{"attributes":{"ID":413516,"DIS_CODE":0,"TOWNNAME":"東區","LI":"裕農里","LIN":"3鄰","STREET":"裕農路","SECT":" ","MAREA":" ","LANE":"２９１巷","ALLEY":" ","HOUSE_NO":"２０號","E_COORD97":170866.42000000001,"N_COORD97":2543083.1200000001,"ADDRESS":"裕農路２９１巷２０號","OBJECTID":413492},"geometry":{"x":170866.41999999993,"y":2543083.1200000029}},{"attributes":{"ID":413517,"DIS_CODE":0,"TOWNNAME":"東區","LI":"裕農里","LIN":"3鄰","STREET":"裕農路","SECT":" ","MAREA":" ","LANE":"２９１巷","ALLEY":" ","HOUSE_NO":"２１號","E_COORD97":170864.97,"N_COORD97":2543087.6000000001,"ADDRESS":"裕農路２９１巷２１號","OBJECTID":413493},"geometry":{"x":170864.97000000067,"y":2543087.6000000034}},{"attributes":{"ID":413518,"DIS_CODE":0,"TOWNNAME":"東區","LI":"裕農里","LIN":"3鄰","STREET":"裕農路","SECT":" ","MAREA":" ","LANE":"２９１巷","ALLEY":" ","HOUSE_NO":"２２號","E_COORD97":170863.85000000001,"N_COORD97":2543092.4300000002,"ADDRESS":"裕農路２９１巷２２號","OBJECTID":413494},"geometry":{"x":170863.85000000056,"y":2543092.4300000016}},{"attributes":{"ID":413519,"DIS_CODE":0,"TOWNNAME":"東區","LI":"東光里","LIN":"3鄰","STREET":"東興路","SECT":" ","MAREA":" ","LANE":"４０巷","ALLEY":" ","HOUSE_NO":"１０號","E_COORD97":170976.37,"N_COORD97":2543478.04,"ADDRESS":"東興路４０巷１０號","OBJECTID":413495},"geometry":{"x":170976.37000000104,"y":2543478.040000001}},{"attributes":{"ID":413520,"DIS_CODE":0,"TOWNNAME":"東區","LI":"東光里","LIN":"3鄰","STREET":"東興路","SECT":" ","MAREA":" ","LANE":"４０巷","ALLEY":" ","HOUSE_NO":"１１號","E_COORD97":170986.57000000001,"N_COORD97":2543507.4300000002,"ADDRESS":"東興路４０巷１１號","OBJECTID":413496},"geometry":{"x":170986.57000000216,"y":2543507.4299999997}},{"attributes":{"ID":413521,"DIS_CODE":0,"TOWNNAME":"東區","LI":"東光里","LIN":"3鄰","STREET":"東興路","SECT":" ","MAREA":" ","LANE":"４０巷","ALLEY":" ","HOUSE_NO":"１２號","E_COORD97":170977.54999999999,"N_COORD97":2543483.9399999999,"ADDRESS":"東興路４０巷１２號","OBJECTID":413497},"geometry":{"x":170977.54999999888,"y":2543483.9399999995}},{"attributes":{"ID":413522,"DIS_CODE":0,"TOWNNAME":"東區","LI":"東光里","LIN":"3鄰","STREET":"東興路","SECT":" ","MAREA":" ","LANE":"４０巷","ALLEY":" ","HOUSE_NO":"１３號","E_COORD97":170989.85999999999,"N_COORD97":2543505.2799999998,"ADDRESS":"東興路４０巷１３號","OBJECTID":413498},"geometry":{"x":170989.86000000127,"y":2543505.2799999993}},{"attributes":{"ID":413523,"DIS_CODE":0,"TOWNNAME":"下營區","LI":"茅港里","LIN":"7鄰","STREET":" ","SECT":" ","MAREA":"茅港尾","LANE":" ","ALLEY":" ","HOUSE_NO":"２１０號之１","E_COORD97":177514.05288,"N_COORD97":2567112.96551,"ADDRESS":"茅港尾２１０號之１","OBJECTID":413499},"geometry":{"x":177514.05288000125,"y":2567112.9655099995}},{"attributes":{"ID":413524,"DIS_CODE":0,"TOWNNAME":"東區","LI":"東光里","LIN":"3鄰","STREET":"東興路","SECT":" ","MAREA":" ","LANE":"４０巷","ALLEY":" ","HOUSE_NO":"１６號","E_COORD97":170980.17999999999,"N_COORD97":2543493.9199999999,"ADDRESS":"東興路４０巷１６號","OBJECTID":413500},"geometry":{"x":170980.18000000063,"y":2543493.9200000018}},{"attributes":{"ID":413525,"DIS_CODE":0,"TOWNNAME":"東區","LI":"東光里","LIN":"3鄰","STREET":"東興路","SECT":" ","MAREA":" ","LANE":"４０巷","ALLEY":" ","HOUSE_NO":"１號","E_COORD97":170965.53,"N_COORD97":2543513.1499999999,"ADDRESS":"東興路４０巷１號","OBJECTID":413501},"geometry":{"x":170965.53000000026,"y":2543513.1500000022}},{"attributes":{"ID":413526,"DIS_CODE":0,"TOWNNAME":"東區","LI":"東光里","LIN":"3鄰","STREET":"東興路","SECT":" ","MAREA":" ","LANE":"４０巷","ALLEY":" ","HOUSE_NO":"２號之１","E_COORD97":170967.47,"N_COORD97":2543495.2799999998,"ADDRESS":"東興路４０巷２號之１","OBJECTID":413502},"geometry":{"x":170967.46999999974,"y":2543495.2799999993}},{"attributes":{"ID":413527,"DIS_CODE":0,"TOWNNAME":"東區","LI":"東光里","LIN":"3鄰","STREET":"東興路","SECT":" ","MAREA":" ","LANE":"４０巷","ALLEY":" ","HOUSE_NO":"５號","E_COORD97":170974.39999999999,"N_COORD97":2543512.4300000002,"ADDRESS":"東興路４０巷５號","OBJECTID":413503},"geometry":{"x":170974.4000000013,"y":2543512.4300000034}},{"attributes":{"ID":413528,"DIS_CODE":0,"TOWNNAME":"東區","LI":"東光里","LIN":"3鄰","STREET":"東興路","SECT":" ","MAREA":" ","LANE":"４０巷","ALLEY":" ","HOUSE_NO":"６號","E_COORD97":170965.92000000001,"N_COORD97":2543486.21,"ADDRESS":"東興路４０巷６號","OBJECTID":413504},"geometry":{"x":170965.91999999993,"y":2543486.2100000028}},{"attributes":{"ID":413529,"DIS_CODE":0,"TOWNNAME":"東區","LI":"東光里","LIN":"3鄰","STREET":"東興路","SECT":" ","MAREA":" ","LANE":"４０巷","ALLEY":" ","HOUSE_NO":"８號","E_COORD97":170965.29000000001,"N_COORD97":2543481.4900000002,"ADDRESS":"東興路４０巷８號","OBJECTID":413505},"geometry":{"x":170965.29000000004,"y":2543481.4900000002}},{"attributes":{"ID":413530,"DIS_CODE":0,"TOWNNAME":"東區","LI":"東光里","LIN":"3鄰","STREET":"東興路","SECT":" ","MAREA":" ","LANE":"４０巷","ALLEY":" ","HOUSE_NO":"９號","E_COORD97":170982.98999999999,"N_COORD97":2543510.29,"ADDRESS":"東興路４０巷９號","OBJECTID":413506},"geometry":{"x":170982.99000000022,"y":2543510.290000001}},{"attributes":{"ID":413531,"DIS_CODE":0,"TOWNNAME":"東區","LI":"東安里","LIN":"3鄰","STREET":"長榮路","SECT":"二段","MAREA":" ","LANE":"２４巷","ALLEY":" ","HOUSE_NO":"１３２號","E_COORD97":170078.29999999999,"N_COORD97":2543024.4700000002,"ADDRESS":"長榮路二段２４巷１３２號","OBJECTID":413507},"geometry":{"x":170078.30000000075,"y":2543024.4700000007}},{"attributes":{"ID":413532,"DIS_CODE":0,"TOWNNAME":"東區","LI":"東安里","LIN":"3鄰","STREET":"長榮路","SECT":"二段","MAREA":" ","LANE":"２４巷","ALLEY":" ","HOUSE_NO":"１３４號","E_COORD97":170079.26999999999,"N_COORD97":2543030.02,"ADDRESS":"長榮路二段２４巷１３４號","OBJECTID":413508},"geometry":{"x":170079.27000000048,"y":2543030.0199999977}},{"attributes":{"ID":413533,"DIS_CODE":0,"TOWNNAME":"東區","LI":"東安里","LIN":"3鄰","STREET":"長榮路","SECT":"二段","MAREA":" ","LANE":"２４巷","ALLEY":" ","HOUSE_NO":"１３６號","E_COORD97":170081.92999999999,"N_COORD97":2543034.0099999998,"ADDRESS":"長榮路二段２４巷１３６號","OBJECTID":413509},"geometry":{"x":170081.93000000063,"y":2543034.0100000035}},{"attributes":{"ID":413534,"DIS_CODE":0,"TOWNNAME":"東區","LI":"東安里","LIN":"3鄰","STREET":"長榮路","SECT":"二段","MAREA":" ","LANE":"２４巷","ALLEY":" ","HOUSE_NO":"１４０號","E_COORD97":170091.81,"N_COORD97":2543032.77,"ADDRESS":"長榮路二段２４巷１４０號","OBJECTID":413510},"geometry":{"x":170091.80999999959,"y":2543032.7700000014}},{"attributes":{"ID":413535,"DIS_CODE":0,"TOWNNAME":"東區","LI":"東安里","LIN":"3鄰","STREET":"長榮路","SECT":"二段","MAREA":" ","LANE":"２４巷","ALLEY":" ","HOUSE_NO":"１４２號","E_COORD97":170095.89000000001,"N_COORD97":2543031.3500000001,"ADDRESS":"長榮路二段２４巷１４２號","OBJECTID":413511},"geometry":{"x":170095.8900000006,"y":2543031.3499999978}},{"attributes":{"ID":413536,"DIS_CODE":0,"TOWNNAME":"永康區","LI":"西灣里","LIN":"3鄰","STREET":"大灣五街","SECT":" ","MAREA":" ","LANE":"６９巷","ALLEY":" ","HOUSE_NO":"５６號","E_COORD97":174649.98999999999,"N_COORD97":2545161.6400000001,"ADDRESS":"大灣五街６９巷５６號","OBJECTID":413512},"geometry":{"x":174649.99000000022,"y":2545161.6400000006}},{"attributes":{"ID":413537,"DIS_CODE":0,"TOWNNAME":"北區","LI":"玉皇里","LIN":"13鄰","STREET":"公園路","SECT":" ","MAREA":" ","LANE":" ","ALLEY":" ","HOUSE_NO":"２１９號","E_COORD97":168788.88,"N_COORD97":2544466.71,"ADDRESS":"公園路２１９號","OBJECTID":413513},"geometry":{"x":168788.88000000082,"y":2544466.7100000009}},{"attributes":{"ID":413538,"DIS_CODE":0,"TOWNNAME":"永康區","LI":"尚頂里","LIN":"3鄰","STREET":"中正二街","SECT":" ","MAREA":" ","LANE":"１８２巷","ALLEY":" ","HOUSE_NO":"４０號","E_COORD97":171449.10999999999,"N_COORD97":2547565.25,"ADDRESS":"中正二街１８２巷４０號","OBJECTID":413514},"geometry":{"x":171449.1100000022,"y":2547565.2499999981}},{"attributes":{"ID":413539,"DIS_CODE":0,"TOWNNAME":"永康區","LI":"尚頂里","LIN":"3鄰","STREET":"中正二街","SECT":" ","MAREA":" ","LANE":"１８２巷","ALLEY":" ","HOUSE_NO":"４２號","E_COORD97":171450.94,"N_COORD97":2547555.4500000002,"ADDRESS":"中正二街１８２巷４２號","OBJECTID":413515},"geometry":{"x":171450.94000000134,"y":2547555.4499999993}},{"attributes":{"ID":413540,"DIS_CODE":0,"TOWNNAME":"永康區","LI":"尚頂里","LIN":"3鄰","STREET":"中正二街","SECT":" ","MAREA":" ","LANE":"１８２巷","ALLEY":" ","HOUSE_NO":"３６號","E_COORD97":171445.38,"N_COORD97":2547583.6800000002,"ADDRESS":"中正二街１８２巷３６號","OBJECTID":413516},"geometry":{"x":171445.38000000082,"y":2547583.6800000016}},{"attributes":{"ID":413541,"DIS_CODE":0,"TOWNNAME":"永康區","LI":"東橋里","LIN":"3鄰","STREET":"大橋一街","SECT":" ","MAREA":" ","LANE":"３２４巷","ALLEY":" ","HOUSE_NO":"２７號","E_COORD97":171357.95999999999,"N_COORD97":2546613.04,"ADDRESS":"大橋一街３２４巷２７號","OBJECTID":413517},"geometry":{"x":171357.95999999996,"y":2546613.0399999972}},{"attributes":{"ID":413542,"DIS_CODE":0,"TOWNNAME":"永康區","LI":"尚頂里","LIN":"3鄰","STREET":"中正二街","SECT":" ","MAREA":" ","LANE":"１８２巷","ALLEY":" ","HOUSE_NO":"４５號","E_COORD97":171462.67999999999,"N_COORD97":2547620.7400000002,"ADDRESS":"中正二街１８２巷４５號","OBJECTID":413518},"geometry":{"x":171462.6799999997,"y":2547620.7400000021}},{"attributes":{"ID":413543,"DIS_CODE":0,"TOWNNAME":"永康區","LI":"尚頂里","LIN":"3鄰","STREET":"中正二街","SECT":" ","MAREA":" ","LANE":"１８２巷","ALLEY":" ","HOUSE_NO":"２２號","E_COORD97":171441.22,"N_COORD97":2547622.75,"ADDRESS":"中正二街１８２巷２２號","OBJECTID":413519},"geometry":{"x":171441.22000000067,"y":2547622.75}},{"attributes":{"ID":413544,"DIS_CODE":0,"TOWNNAME":"永康區","LI":"尚頂里","LIN":"3鄰","STREET":"中正二街","SECT":" ","MAREA":" ","LANE":"１８２巷","ALLEY":" ","HOUSE_NO":"６１號","E_COORD97":171472.73999999999,"N_COORD97":2547557.25,"ADDRESS":"中正二街１８２巷６１號","OBJECTID":413520},"geometry":{"x":171472.74000000022,"y":2547557.25}},{"attributes":{"ID":413545,"DIS_CODE":0,"TOWNNAME":"永康區","LI":"尚頂里","LIN":"3鄰","STREET":"中正二街","SECT":" ","MAREA":" ","LANE":"１８２巷","ALLEY":" ","HOUSE_NO":"１２號","E_COORD97":171436.44,"N_COORD97":2547655.4100000001,"ADDRESS":"中正二街１８２巷１２號","OBJECTID":413521},"geometry":{"x":171436.44000000041,"y":2547655.4100000001}},{"attributes":{"ID":413546,"DIS_CODE":0,"TOWNNAME":"東區","LI":"東門里","LIN":"10鄰","STREET":"新樓街","SECT":" ","MAREA":" ","LANE":"３７巷","ALLEY":" ","HOUSE_NO":"５號","E_COORD97":169381.98999999999,"N_COORD97":2543394.21,"ADDRESS":"新樓街３７巷５號","OBJECTID":413522},"geometry":{"x":169381.99000000115,"y":2543394.2100000028}},{"attributes":{"ID":413547,"DIS_CODE":0,"TOWNNAME":"永康區","LI":"東橋里","LIN":"3鄰","STREET":"大橋一街","SECT":" ","MAREA":" ","LANE":"３２４巷","ALLEY":" ","HOUSE_NO":"３５號","E_COORD97":171367.95999999999,"N_COORD97":2546600.2799999998,"ADDRESS":"大橋一街３２４巷３５號","OBJECTID":413523},"geometry":{"x":171367.95999999996,"y":2546600.2799999993}},{"attributes":{"ID":413548,"DIS_CODE":0,"TOWNNAME":"永康區","LI":"尚頂里","LIN":"3鄰","STREET":"中正二街","SECT":" ","MAREA":" ","LANE":"１８２巷","ALLEY":" ","HOUSE_NO":"５７號","E_COORD97":171470.45000000001,"N_COORD97":2547573,"ADDRESS":"中正二街１８２巷５７號","OBJECTID":413524},"geometry":{"x":171470.45000000112,"y":2547573}},{"attributes":{"ID":413549,"DIS_CODE":0,"TOWNNAME":"永康區","LI":"尚頂里","LIN":"3鄰","STREET":"中正二街","SECT":" ","MAREA":" ","LANE":"１８２巷","ALLEY":" ","HOUSE_NO":"３８號","E_COORD97":171447.16,"N_COORD97":2547575.1499999999,"ADDRESS":"中正二街１８２巷３８號","OBJECTID":413525},"geometry":{"x":171447.16000000108,"y":2547575.1500000004}},{"attributes":{"ID":413550,"DIS_CODE":0,"TOWNNAME":"永康區","LI":"尚頂里","LIN":"3鄰","STREET":"中正二街","SECT":" ","MAREA":" ","LANE":"１８２巷","ALLEY":" ","HOUSE_NO":"８號","E_COORD97":171432.01000000001,"N_COORD97":2547672.1099999999,"ADDRESS":"中正二街１８２巷８號","OBJECTID":413526},"geometry":{"x":171432.00999999978,"y":2547672.1100000013}},{"attributes":{"ID":413551,"DIS_CODE":0,"TOWNNAME":"永康區","LI":"西勢里","LIN":"3鄰","STREET":"富強路","SECT":"一段","MAREA":" ","LANE":"３２１巷","ALLEY":" ","HOUSE_NO":"４２號","E_COORD97":175602.70999999999,"N_COORD97":2546746.73,"ADDRESS":"富強路一段３２１巷４２號","OBJECTID":413527},"geometry":{"x":175602.70999999996,"y":2546746.7300000023}},{"attributes":{"ID":413552,"DIS_CODE":0,"TOWNNAME":"東區","LI":"大福里","LIN":"14鄰","STREET":"榮譽街","SECT":" ","MAREA":" ","LANE":"４７巷","ALLEY":" ","HOUSE_NO":"６號","E_COORD97":169631.66,"N_COORD97":2541710.27,"ADDRESS":"榮譽街４７巷６號","OBJECTID":413528},"geometry":{"x":169631.66000000108,"y":2541710.2700000014}},{"attributes":{"ID":413553,"DIS_CODE":0,"TOWNNAME":"東區","LI":"大福里","LIN":"14鄰","STREET":"榮譽街","SECT":" ","MAREA":" ","LANE":"４７巷","ALLEY":" ","HOUSE_NO":"７號","E_COORD97":169643.29999999999,"N_COORD97":2541713.96,"ADDRESS":"榮譽街４７巷７號","OBJECTID":413529},"geometry":{"x":169643.29999999981,"y":2541713.9600000028}},{"attributes":{"ID":413554,"DIS_CODE":0,"TOWNNAME":"東區","LI":"大福里","LIN":"14鄰","STREET":"榮譽街","SECT":" ","MAREA":" ","LANE":"４７巷","ALLEY":" ","HOUSE_NO":"８號","E_COORD97":169654.67000000001,"N_COORD97":2541719.5099999998,"ADDRESS":"榮譽街４７巷８號","OBJECTID":413530},"geometry":{"x":169654.67000000179,"y":2541719.5100000016}},{"attributes":{"ID":413555,"DIS_CODE":0,"TOWNNAME":"東區","LI":"大福里","LIN":"14鄰","STREET":"榮譽街","SECT":" ","MAREA":" ","LANE":"４７巷","ALLEY":" ","HOUSE_NO":"９號","E_COORD97":169664.45999999999,"N_COORD97":2541718.7200000002,"ADDRESS":"榮譽街４７巷９號","OBJECTID":413531},"geometry":{"x":169664.45999999996,"y":2541718.7200000025}},{"attributes":{"ID":413556,"DIS_CODE":0,"TOWNNAME":"永康區","LI":"西灣里","LIN":"3鄰","STREET":"大灣五街","SECT":" ","MAREA":" ","LANE":"６９巷","ALLEY":" ","HOUSE_NO":"２８號","E_COORD97":174669.48999999999,"N_COORD97":2545205.25,"ADDRESS":"大灣五街６９巷２８號","OBJECTID":413532},"geometry":{"x":174669.49000000115,"y":2545205.25}},{"attributes":{"ID":413557,"DIS_CODE":0,"TOWNNAME":"永康區","LI":"西灣里","LIN":"3鄰","STREET":"大灣五街","SECT":" ","MAREA":" ","LANE":"６９巷","ALLEY":" ","HOUSE_NO":"４２號","E_COORD97":174642.57000000001,"N_COORD97":2545187.25,"ADDRESS":"大灣五街６９巷４２號","OBJECTID":413533},"geometry":{"x":174642.5700000003,"y":2545187.25}},{"attributes":{"ID":413558,"DIS_CODE":0,"TOWNNAME":"永康區","LI":"尚頂里","LIN":"3鄰","STREET":"中正二街","SECT":" ","MAREA":" ","LANE":"１８２巷","ALLEY":" ","HOUSE_NO":"４７號","E_COORD97":171464.13,"N_COORD97":2547612.2400000002,"ADDRESS":"中正二街１８２巷４７號","OBJECTID":413534},"geometry":{"x":171464.13000000082,"y":2547612.2400000002}},{"attributes":{"ID":413559,"DIS_CODE":0,"TOWNNAME":"東區","LI":"東門里","LIN":"1鄰","STREET":"東門路","SECT":"一段","MAREA":" ","LANE":"３３巷","ALLEY":" ","HOUSE_NO":"１７號","E_COORD97":169219.09,"N_COORD97":2543335.3599999999,"ADDRESS":"東門路一段３３巷１７號","OBJECTID":413535},"geometry":{"x":169219.08999999985,"y":2543335.3599999994}},{"attributes":{"ID":413560,"DIS_CODE":0,"TOWNNAME":"東區","LI":"東門里","LIN":"1鄰","STREET":"東門路","SECT":"一段","MAREA":" ","LANE":"３３巷","ALLEY":" ","HOUSE_NO":"１８號","E_COORD97":169216.20999999999,"N_COORD97":2543339.73,"ADDRESS":"東門路一段３３巷１８號","OBJECTID":413536},"geometry":{"x":169216.21000000089,"y":2543339.7300000023}},{"attributes":{"ID":413561,"DIS_CODE":0,"TOWNNAME":"東區","LI":"東門里","LIN":"1鄰","STREET":"東門路","SECT":"一段","MAREA":" ","LANE":"３３巷","ALLEY":" ","HOUSE_NO":"１號","E_COORD97":169219.84,"N_COORD97":2543276.0499999998,"ADDRESS":"東門路一段３３巷１號","OBJECTID":413537},"geometry":{"x":169219.84000000078,"y":2543276.0500000026}},{"attributes":{"ID":413562,"DIS_CODE":0,"TOWNNAME":"東區","LI":"東門里","LIN":"1鄰","STREET":"東門路","SECT":"一段","MAREA":" ","LANE":"３３巷","ALLEY":" ","HOUSE_NO":"２號","E_COORD97":169221.10000000001,"N_COORD97":2543280.2000000002,"ADDRESS":"東門路一段３３巷２號","OBJECTID":413538},"geometry":{"x":169221.10000000056,"y":2543280.2000000011}},{"attributes":{"ID":413563,"DIS_CODE":0,"TOWNNAME":"中西區","LI":"萬昌里","LIN":"3鄰","STREET":"府前路","SECT":"一段","MAREA":" ","LANE":"９０巷","ALLEY":" ","HOUSE_NO":"１１號","E_COORD97":168875.53,"N_COORD97":2543327.4500000002,"ADDRESS":"府前路一段９０巷１１號","OBJECTID":413539},"geometry":{"x":168875.53000000026,"y":2543327.4499999993}},{"attributes":{"ID":413564,"DIS_CODE":0,"TOWNNAME":"中西區","LI":"萬昌里","LIN":"3鄰","STREET":"府前路","SECT":"一段","MAREA":" ","LANE":"９０巷","ALLEY":" ","HOUSE_NO":"１３號","E_COORD97":168876.5,"N_COORD97":2543329.5899999999,"ADDRESS":"府前路一段９０巷１３號","OBJECTID":413540},"geometry":{"x":168876.50000000093,"y":2543329.5900000017}},{"attributes":{"ID":413565,"DIS_CODE":0,"TOWNNAME":"中西區","LI":"萬昌里","LIN":"3鄰","STREET":"府前路","SECT":"一段","MAREA":" ","LANE":"９０巷","ALLEY":" ","HOUSE_NO":"１５號","E_COORD97":168877.09,"N_COORD97":2543335.0499999998,"ADDRESS":"府前路一段９０巷１５號","OBJECTID":413541},"geometry":{"x":168877.09000000171,"y":2543335.0500000007}},{"attributes":{"ID":413566,"DIS_CODE":0,"TOWNNAME":"中西區","LI":"萬昌里","LIN":"3鄰","STREET":"府前路","SECT":"一段","MAREA":" ","LANE":"９０巷","ALLEY":" ","HOUSE_NO":"１號","E_COORD97":168865.38,"N_COORD97":2543303.0800000001,"ADDRESS":"府前路一段９０巷１號","OBJECTID":413542},"geometry":{"x":168865.38000000082,"y":2543303.0800000019}},{"attributes":{"ID":413567,"DIS_CODE":0,"TOWNNAME":"中西區","LI":"萬昌里","LIN":"3鄰","STREET":"府前路","SECT":"一段","MAREA":" ","LANE":"９０巷","ALLEY":" ","HOUSE_NO":"２１號","E_COORD97":168852.28,"N_COORD97":2543338.6400000001,"ADDRESS":"府前路一段９０巷２１號","OBJECTID":413543},"geometry":{"x":168852.28000000026,"y":2543338.6400000006}},{"attributes":{"ID":413568,"DIS_CODE":0,"TOWNNAME":"中西區","LI":"萬昌里","LIN":"3鄰","STREET":"府前路","SECT":"一段","MAREA":" ","LANE":"９０巷","ALLEY":" ","HOUSE_NO":"２１號之１","E_COORD97":168852.51000000001,"N_COORD97":2543340.9500000002,"ADDRESS":"府前路一段９０巷２１號之１","OBJECTID":413544},"geometry":{"x":168852.51000000071,"y":2543340.9499999993}},{"attributes":{"ID":413569,"DIS_CODE":0,"TOWNNAME":"中西區","LI":"萬昌里","LIN":"3鄰","STREET":"府前路","SECT":"一段","MAREA":" ","LANE":"９０巷","ALLEY":" ","HOUSE_NO":"２３號","E_COORD97":168853.66,"N_COORD97":2543345.79,"ADDRESS":"府前路一段９０巷２３號","OBJECTID":413545},"geometry":{"x":168853.66000000108,"y":2543345.7899999991}},{"attributes":{"ID":413570,"DIS_CODE":0,"TOWNNAME":"中西區","LI":"萬昌里","LIN":"3鄰","STREET":"府前路","SECT":"一段","MAREA":" ","LANE":"９０巷","ALLEY":" ","HOUSE_NO":"２５號","E_COORD97":168866.35000000001,"N_COORD97":2543345.5600000001,"ADDRESS":"府前路一段９０巷２５號","OBJECTID":413546},"geometry":{"x":168866.34999999963,"y":2543345.5600000005}},{"attributes":{"ID":413571,"DIS_CODE":0,"TOWNNAME":"中西區","LI":"萬昌里","LIN":"3鄰","STREET":"府前路","SECT":"一段","MAREA":" ","LANE":"９０巷","ALLEY":" ","HOUSE_NO":"２７號","E_COORD97":168880.79999999999,"N_COORD97":2543339.9199999999,"ADDRESS":"府前路一段９０巷２７號","OBJECTID":413547},"geometry":{"x":168880.80000000168,"y":2543339.9200000037}},{"attributes":{"ID":413572,"DIS_CODE":0,"TOWNNAME":"中西區","LI":"萬昌里","LIN":"3鄰","STREET":"府前路","SECT":"一段","MAREA":" ","LANE":"９０巷","ALLEY":" ","HOUSE_NO":"２９號","E_COORD97":168880.01999999999,"N_COORD97":2543344.21,"ADDRESS":"府前路一段９０巷２９號","OBJECTID":413548},"geometry":{"x":168880.01999999955,"y":2543344.2100000009}},{"attributes":{"ID":413573,"DIS_CODE":0,"TOWNNAME":"中西區","LI":"萬昌里","LIN":"3鄰","STREET":"府前路","SECT":"一段","MAREA":" ","LANE":"９０巷","ALLEY":" ","HOUSE_NO":"３１號","E_COORD97":168885.09,"N_COORD97":2543347.9199999999,"ADDRESS":"府前路一段９０巷３１號","OBJECTID":413549},"geometry":{"x":168885.08999999985,"y":2543347.9200000018}},{"attributes":{"ID":413574,"DIS_CODE":0,"TOWNNAME":"中西區","LI":"萬昌里","LIN":"3鄰","STREET":"府前路","SECT":"一段","MAREA":" ","LANE":"９０巷","ALLEY":" ","HOUSE_NO":"３３號","E_COORD97":168886.07000000001,"N_COORD97":2543352.0099999998,"ADDRESS":"府前路一段９０巷３３號","OBJECTID":413550},"geometry":{"x":168886.07000000216,"y":2543352.0099999998}},{"attributes":{"ID":413575,"DIS_CODE":0,"TOWNNAME":"中西區","LI":"萬昌里","LIN":"3鄰","STREET":"府前路","SECT":"一段","MAREA":" ","LANE":"９０巷","ALLEY":" ","HOUSE_NO":"３５號","E_COORD97":168887.04000000001,"N_COORD97":2543356.1099999999,"ADDRESS":"府前路一段９０巷３５號","OBJECTID":413551},"geometry":{"x":168887.04000000004,"y":2543356.1100000013}},{"attributes":{"ID":413576,"DIS_CODE":0,"TOWNNAME":"中西區","LI":"萬昌里","LIN":"3鄰","STREET":"府前路","SECT":"一段","MAREA":" ","LANE":"９０巷","ALLEY":" ","HOUSE_NO":"３７號","E_COORD97":168888.98999999999,"N_COORD97":2543359.8100000001,"ADDRESS":"府前路一段９０巷３７號","OBJECTID":413552},"geometry":{"x":168888.99000000115,"y":2543359.8100000024}},{"attributes":{"ID":413577,"DIS_CODE":0,"TOWNNAME":"中西區","LI":"萬昌里","LIN":"3鄰","STREET":"府前路","SECT":"一段","MAREA":" ","LANE":"９０巷","ALLEY":" ","HOUSE_NO":"３號","E_COORD97":168868.31,"N_COORD97":2543307.1699999999,"ADDRESS":"府前路一段９０巷３號","OBJECTID":413553},"geometry":{"x":168868.30999999959,"y":2543307.1699999999}},{"attributes":{"ID":413578,"DIS_CODE":0,"TOWNNAME":"中西區","LI":"萬昌里","LIN":"3鄰","STREET":"府前路","SECT":"一段","MAREA":" ","LANE":"９０巷","ALLEY":" ","HOUSE_NO":"５號","E_COORD97":168868.10999999999,"N_COORD97":2543311.6499999999,"ADDRESS":"府前路一段９０巷５號","OBJECTID":413554},"geometry":{"x":168868.11000000034,"y":2543311.6500000041}},{"attributes":{"ID":413579,"DIS_CODE":0,"TOWNNAME":"中西區","LI":"萬昌里","LIN":"3鄰","STREET":"府前路","SECT":"一段","MAREA":" ","LANE":"９０巷","ALLEY":" ","HOUSE_NO":"７號","E_COORD97":168868.70000000001,"N_COORD97":2543315.9399999999,"ADDRESS":"府前路一段９０巷７號","OBJECTID":413555},"geometry":{"x":168868.70000000112,"y":2543315.9400000013}},{"attributes":{"ID":413580,"DIS_CODE":0,"TOWNNAME":"中西區","LI":"萬昌里","LIN":"3鄰","STREET":"府前路","SECT":"一段","MAREA":" ","LANE":"９０巷","ALLEY":" ","HOUSE_NO":"７號之１","E_COORD97":168875.14000000001,"N_COORD97":2543320.4300000002,"ADDRESS":"府前路一段９０巷７號之１","OBJECTID":413556},"geometry":{"x":168875.1400000006,"y":2543320.4300000016}},{"attributes":{"ID":413581,"DIS_CODE":0,"TOWNNAME":"中西區","LI":"萬昌里","LIN":"3鄰","STREET":"府前路","SECT":"一段","MAREA":" ","LANE":"９０巷","ALLEY":" ","HOUSE_NO":"９號","E_COORD97":168874.94,"N_COORD97":2543323.7400000002,"ADDRESS":"府前路一段９０巷９號","OBJECTID":413557},"geometry":{"x":168874.94000000041,"y":2543323.7400000002}},{"attributes":{"ID":413582,"DIS_CODE":0,"TOWNNAME":"中西區","LI":"萬昌里","LIN":"3鄰","STREET":"城隍街","SECT":" ","MAREA":" ","LANE":"６６巷","ALLEY":" ","HOUSE_NO":"１２號","E_COORD97":168864.28,"N_COORD97":2543362.3900000001,"ADDRESS":"城隍街６６巷１２號","OBJECTID":413558},"geometry":{"x":168864.28000000212,"y":2543362.3900000025}},{"attributes":{"ID":413583,"DIS_CODE":0,"TOWNNAME":"中西區","LI":"萬昌里","LIN":"3鄰","STREET":"城隍街","SECT":" ","MAREA":" ","LANE":"６６巷","ALLEY":" ","HOUSE_NO":"１６號","E_COORD97":168868.66,"N_COORD97":2543361.0099999998,"ADDRESS":"城隍街６６巷１６號","OBJECTID":413559},"geometry":{"x":168868.66000000108,"y":2543361.0100000016}},{"attributes":{"ID":413584,"DIS_CODE":0,"TOWNNAME":"中西區","LI":"萬昌里","LIN":"3鄰","STREET":"城隍街","SECT":" ","MAREA":" ","LANE":"６６巷","ALLEY":" ","HOUSE_NO":"１８號","E_COORD97":168873.97,"N_COORD97":2543360.5499999998,"ADDRESS":"城隍街６６巷１８號","OBJECTID":413560},"geometry":{"x":168873.96999999974,"y":2543360.5500000026}},{"attributes":{"ID":413585,"DIS_CODE":0,"TOWNNAME":"安南區","LI":"青草里","LIN":"3鄰","STREET":"青砂街","SECT":"二段","MAREA":" ","LANE":"４５６巷","ALLEY":" ","HOUSE_NO":"３８號","E_COORD97":158811.10999999999,"N_COORD97":2553016.4700000002,"ADDRESS":"青砂街二段４５６巷３８號","OBJECTID":413561},"geometry":{"x":158811.11000000034,"y":2553016.4700000044}},{"attributes":{"ID":413586,"DIS_CODE":0,"TOWNNAME":"安南區","LI":"青草里","LIN":"3鄰","STREET":"青砂街","SECT":"二段","MAREA":" ","LANE":"４５６巷","ALLEY":" ","HOUSE_NO":"６８號","E_COORD97":158740.73000000001,"N_COORD97":2553066.9900000002,"ADDRESS":"青砂街二段４５６巷６８號","OBJECTID":413562},"geometry":{"x":158740.73000000045,"y":2553066.9900000021}},{"attributes":{"ID":413587,"DIS_CODE":0,"TOWNNAME":"安南區","LI":"砂崙里","LIN":"3鄰","STREET":"城北路","SECT":" ","MAREA":" ","LANE":"８７１巷","ALLEY":" ","HOUSE_NO":"１４３號","E_COORD97":160502.60999999999,"N_COORD97":2553214.8500000001,"ADDRESS":"城北路８７１巷１４３號","OBJECTID":413563},"geometry":{"x":160502.61000000034,"y":2553214.8499999996}},{"attributes":{"ID":413588,"DIS_CODE":0,"TOWNNAME":"安南區","LI":"砂崙里","LIN":"3鄰","STREET":"城北路","SECT":" ","MAREA":" ","LANE":"８７１巷","ALLEY":" ","HOUSE_NO":"１４９號","E_COORD97":160472.67000000001,"N_COORD97":2553219.3900000001,"ADDRESS":"城北路８７１巷１４９號","OBJECTID":413564},"geometry":{"x":160472.67000000086,"y":2553219.3900000006}},{"attributes":{"ID":413589,"DIS_CODE":0,"TOWNNAME":"安南區","LI":"城西里","LIN":"3鄰","STREET":"城西街","SECT":"三段","MAREA":" ","LANE":"５１０巷","ALLEY":" ","HOUSE_NO":"４１３號之２１１","E_COORD97":157385.04000000001,"N_COORD97":2552044.8599999999,"ADDRESS":"城西街三段５１０巷４１３號之２１１","OBJECTID":413565},"geometry":{"x":157385.04000000097,"y":2552044.8599999994}},{"attributes":{"ID":413590,"DIS_CODE":0,"TOWNNAME":"安南區","LI":"城西里","LIN":"3鄰","STREET":"城西街","SECT":"三段","MAREA":" ","LANE":"５１０巷","ALLEY":" ","HOUSE_NO":"４１３號之３５５","E_COORD97":156855.42000000001,"N_COORD97":2551840.8500000001,"ADDRESS":"城西街三段５１０巷４１３號之３５５","OBJECTID":413566},"geometry":{"x":156855.41999999993,"y":2551840.8500000015}},{"attributes":{"ID":413591,"DIS_CODE":0,"TOWNNAME":"安南區","LI":"城西里","LIN":"3鄰","STREET":"城西街","SECT":"三段","MAREA":" ","LANE":"５１０巷","ALLEY":" ","HOUSE_NO":"４１３號之４５５","E_COORD97":156548.14999999999,"N_COORD97":2551708.6600000001,"ADDRESS":"城西街三段５１０巷４１３號之４５５","OBJECTID":413567},"geometry":{"x":156548.15000000224,"y":2551708.6600000001}},{"attributes":{"ID":413592,"DIS_CODE":0,"TOWNNAME":"安南區","LI":"城西里","LIN":"3鄰","STREET":"城西街","SECT":"三段","MAREA":" ","LANE":"５１０巷","ALLEY":" ","HOUSE_NO":"４１３號之４７５","E_COORD97":156552.03,"N_COORD97":2551625.21,"ADDRESS":"城西街三段５１０巷４１３號之４７５","OBJECTID":413568},"geometry":{"x":156552.03000000026,"y":2551625.2100000046}},{"attributes":{"ID":413593,"DIS_CODE":0,"TOWNNAME":"東區","LI":"東門里","LIN":"8鄰","STREET":"前鋒路","SECT":" ","MAREA":" ","LANE":"３８巷","ALLEY":" ","HOUSE_NO":"１４號","E_COORD97":169334.16,"N_COORD97":2543456.5600000001,"ADDRESS":"前鋒路３８巷１４號","OBJECTID":413569},"geometry":{"x":169334.16000000015,"y":2543456.5600000005}},{"attributes":{"ID":413594,"DIS_CODE":0,"TOWNNAME":"東區","LI":"東門里","LIN":"9鄰","STREET":"前鋒路","SECT":" ","MAREA":" ","LANE":"３５巷","ALLEY":" ","HOUSE_NO":"１號","E_COORD97":169263.12,"N_COORD97":2543389.3100000001,"ADDRESS":"前鋒路３５巷１號","OBJECTID":413570},"geometry":{"x":169263.12000000011,"y":2543389.3100000024}},{"attributes":{"ID":413595,"DIS_CODE":0,"TOWNNAME":"東區","LI":"東門里","LIN":"9鄰","STREET":"前鋒路","SECT":" ","MAREA":" ","LANE":"３５巷","ALLEY":" ","HOUSE_NO":"２號","E_COORD97":169262.01999999999,"N_COORD97":2543432.1299999999,"ADDRESS":"前鋒路３５巷２號","OBJECTID":413571},"geometry":{"x":169262.02000000142,"y":2543432.1299999971}},{"attributes":{"ID":413596,"DIS_CODE":0,"TOWNNAME":"東區","LI":"東門里","LIN":"9鄰","STREET":"前鋒路","SECT":" ","MAREA":" ","LANE":"３５巷","ALLEY":" ","HOUSE_NO":"３號","E_COORD97":169258.98999999999,"N_COORD97":2543390.6000000001,"ADDRESS":"前鋒路３５巷３號","OBJECTID":413572},"geometry":{"x":169258.99000000022,"y":2543390.6000000015}},{"attributes":{"ID":413597,"DIS_CODE":0,"TOWNNAME":"東區","LI":"東門里","LIN":"9鄰","STREET":"前鋒路","SECT":" ","MAREA":" ","LANE":"３５巷","ALLEY":" ","HOUSE_NO":"５號","E_COORD97":169254.5,"N_COORD97":2543400.6699999999,"ADDRESS":"前鋒路３５巷５號","OBJECTID":413573},"geometry":{"x":169254.50000000093,"y":2543400.6700000018}},{"attributes":{"ID":413598,"DIS_CODE":0,"TOWNNAME":"東區","LI":"東門里","LIN":"9鄰","STREET":"前鋒路","SECT":" ","MAREA":" ","LANE":"３５巷","ALLEY":" ","HOUSE_NO":"７號","E_COORD97":169257.98000000001,"N_COORD97":2543407.8199999998,"ADDRESS":"前鋒路３５巷７號","OBJECTID":413574},"geometry":{"x":169257.98000000045,"y":2543407.8200000003}},{"attributes":{"ID":413599,"DIS_CODE":0,"TOWNNAME":"東區","LI":"東門里","LIN":"9鄰","STREET":"前鋒路","SECT":" ","MAREA":" ","LANE":"３５巷","ALLEY":" ","HOUSE_NO":"９號","E_COORD97":169261.73999999999,"N_COORD97":2543409.5800000001,"ADDRESS":"前鋒路３５巷９號","OBJECTID":413575},"geometry":{"x":169261.74000000115,"y":2543409.5800000001}},{"attributes":{"ID":413600,"DIS_CODE":0,"TOWNNAME":"東區","LI":"東門里","LIN":"10鄰","STREET":"新樓街","SECT":" ","MAREA":" ","LANE":"２１巷","ALLEY":" ","HOUSE_NO":"１０號","E_COORD97":169347.75,"N_COORD97":2543396.9500000002,"ADDRESS":"新樓街２１巷１０號","OBJECTID":413576},"geometry":{"x":169347.75000000093,"y":2543396.9500000011}},{"attributes":{"ID":413601,"DIS_CODE":0,"TOWNNAME":"東區","LI":"東門里","LIN":"10鄰","STREET":"新樓街","SECT":" ","MAREA":" ","LANE":"２１巷","ALLEY":" ","HOUSE_NO":"１１號","E_COORD97":169331.23999999999,"N_COORD97":2543408.1800000002,"ADDRESS":"新樓街２１巷１１號","OBJECTID":413577},"geometry":{"x":169331.24000000115,"y":2543408.1799999997}},{"attributes":{"ID":413602,"DIS_CODE":0,"TOWNNAME":"東區","LI":"東門里","LIN":"10鄰","STREET":"新樓街","SECT":" ","MAREA":" ","LANE":"２１巷","ALLEY":" ","HOUSE_NO":"１２號","E_COORD97":169348.81,"N_COORD97":2543400.7400000002,"ADDRESS":"新樓街２１巷１２號","OBJECTID":413578},"geometry":{"x":169348.81000000052,"y":2543400.7400000002}},{"attributes":{"ID":413603,"DIS_CODE":0,"TOWNNAME":"東區","LI":"東門里","LIN":"10鄰","STREET":"新樓街","SECT":" ","MAREA":" ","LANE":"２１巷","ALLEY":" ","HOUSE_NO":"１３號","E_COORD97":169332.38,"N_COORD97":2543412.1699999999,"ADDRESS":"新樓街２１巷１３號","OBJECTID":413579},"geometry":{"x":169332.37999999989,"y":2543412.1699999999}},{"attributes":{"ID":413604,"DIS_CODE":0,"TOWNNAME":"東區","LI":"東門里","LIN":"10鄰","STREET":"新樓街","SECT":" ","MAREA":" ","LANE":"２１巷","ALLEY":" ","HOUSE_NO":"１４號","E_COORD97":169348.81,"N_COORD97":2543404.8599999999,"ADDRESS":"新樓街２１巷１４號","OBJECTID":413580},"geometry":{"x":169348.81000000052,"y":2543404.8600000013}},{"attributes":{"ID":413605,"DIS_CODE":0,"TOWNNAME":"東區","LI":"東門里","LIN":"10鄰","STREET":"新樓街","SECT":" ","MAREA":" ","LANE":"２１巷","ALLEY":" ","HOUSE_NO":"１號","E_COORD97":169325.19,"N_COORD97":2543389.0299999998,"ADDRESS":"新樓街２１巷１號","OBJECTID":413581},"geometry":{"x":169325.19000000134,"y":2543389.0299999993}},{"attributes":{"ID":413606,"DIS_CODE":0,"TOWNNAME":"東區","LI":"東門里","LIN":"10鄰","STREET":"新樓街","SECT":" ","MAREA":" ","LANE":"２１巷","ALLEY":" ","HOUSE_NO":"２號","E_COORD97":169346.28,"N_COORD97":2543385.0499999998,"ADDRESS":"新樓街２１巷２號","OBJECTID":413582},"geometry":{"x":169346.28000000119,"y":2543385.0500000026}},{"attributes":{"ID":413607,"DIS_CODE":0,"TOWNNAME":"東區","LI":"東門里","LIN":"10鄰","STREET":"新樓街","SECT":" ","MAREA":" ","LANE":"２１巷","ALLEY":" ","HOUSE_NO":"３號","E_COORD97":169326.92000000001,"N_COORD97":2543392.7599999998,"ADDRESS":"新樓街２１巷３號","OBJECTID":413583},"geometry":{"x":169326.91999999993,"y":2543392.7600000016}},{"attributes":{"ID":413608,"DIS_CODE":0,"TOWNNAME":"東區","LI":"東門里","LIN":"10鄰","STREET":"新樓街","SECT":" ","MAREA":" ","LANE":"３７巷","ALLEY":" ","HOUSE_NO":"１０號","E_COORD97":169394.57000000001,"N_COORD97":2543392.1600000001,"ADDRESS":"新樓街３７巷１０號","OBJECTID":413584},"geometry":{"x":169394.56999999937,"y":2543392.1600000001}},{"attributes":{"ID":413609,"DIS_CODE":0,"TOWNNAME":"東區","LI":"東門里","LIN":"10鄰","STREET":"新樓街","SECT":" ","MAREA":" ","LANE":"３７巷","ALLEY":" ","HOUSE_NO":"１２號","E_COORD97":169394.5,"N_COORD97":2543396.21,"ADDRESS":"新樓街３７巷１２號","OBJECTID":413585},"geometry":{"x":169394.5,"y":2543396.2100000009}},{"attributes":{"ID":413610,"DIS_CODE":0,"TOWNNAME":"東區","LI":"東門里","LIN":"10鄰","STREET":"新樓街","SECT":" ","MAREA":" ","LANE":"３７巷","ALLEY":" ","HOUSE_NO":"１４號","E_COORD97":169394.63,"N_COORD97":2543399.6000000001,"ADDRESS":"新樓街３７巷１４號","OBJECTID":413586},"geometry":{"x":169394.63000000082,"y":2543399.6000000034}},{"attributes":{"ID":413611,"DIS_CODE":0,"TOWNNAME":"東區","LI":"東門里","LIN":"10鄰","STREET":"新樓街","SECT":" ","MAREA":" ","LANE":"３７巷","ALLEY":" ","HOUSE_NO":"１號","E_COORD97":169381.32000000001,"N_COORD97":2543386.0899999999,"ADDRESS":"新樓街３７巷１號","OBJECTID":413587},"geometry":{"x":169381.32000000123,"y":2543386.0900000036}},{"attributes":{"ID":413612,"DIS_CODE":0,"TOWNNAME":"東區","LI":"東門里","LIN":"10鄰","STREET":"新樓街","SECT":" ","MAREA":" ","LANE":"３７巷","ALLEY":" ","HOUSE_NO":"２號","E_COORD97":169397.82999999999,"N_COORD97":2543375.71,"ADDRESS":"新樓街３７巷２號","OBJECTID":413588},"geometry":{"x":169397.83000000194,"y":2543375.7100000009}},{"attributes":{"ID":413613,"DIS_CODE":0,"TOWNNAME":"東區","LI":"東門里","LIN":"10鄰","STREET":"新樓街","SECT":" ","MAREA":" ","LANE":"３７巷","ALLEY":" ","HOUSE_NO":"６號","E_COORD97":169398.82999999999,"N_COORD97":2543384.1099999999,"ADDRESS":"新樓街３７巷６號","OBJECTID":413589},"geometry":{"x":169398.83000000007,"y":2543384.1099999994}},{"attributes":{"ID":413614,"DIS_CODE":0,"TOWNNAME":"東區","LI":"東門里","LIN":"10鄰","STREET":"新樓街","SECT":" ","MAREA":" ","LANE":"３７巷","ALLEY":" ","HOUSE_NO":"７號","E_COORD97":169382.19,"N_COORD97":2543397.6000000001,"ADDRESS":"新樓街３７巷７號","OBJECTID":413590},"geometry":{"x":169382.19000000227,"y":2543397.6000000015}},{"attributes":{"ID":413615,"DIS_CODE":0,"TOWNNAME":"東區","LI":"東門里","LIN":"10鄰","STREET":"新樓街","SECT":" ","MAREA":" ","LANE":"３７巷","ALLEY":" ","HOUSE_NO":"８號","E_COORD97":169394.23000000001,"N_COORD97":2543388.7000000002,"ADDRESS":"新樓街３７巷８號","OBJECTID":413591},"geometry":{"x":169394.23000000138,"y":2543388.7000000011}},{"attributes":{"ID":413616,"DIS_CODE":0,"TOWNNAME":"東區","LI":"東門里","LIN":"10鄰","STREET":"新樓街","SECT":" ","MAREA":" ","LANE":"３７巷","ALLEY":" ","HOUSE_NO":"９號","E_COORD97":169382.32000000001,"N_COORD97":2543401.2599999998,"ADDRESS":"新樓街３７巷９號","OBJECTID":413592},"geometry":{"x":169382.3200000003,"y":2543401.2599999998}},{"attributes":{"ID":413617,"DIS_CODE":0,"TOWNNAME":"善化區","LI":"西關里","LIN":"3鄰","STREET":"中華路","SECT":" ","MAREA":" ","LANE":"１５７巷","ALLEY":" ","HOUSE_NO":"１號","E_COORD97":177210.62,"N_COORD97":2559104.5,"ADDRESS":"中華路１５７巷１號","OBJECTID":413593},"geometry":{"x":177210.62000000197,"y":2559104.4999999981}},{"attributes":{"ID":413618,"DIS_CODE":0,"TOWNNAME":"善化區","LI":"北關里","LIN":"3鄰","STREET":"中山路","SECT":" ","MAREA":" ","LANE":"５２４巷","ALLEY":" ","HOUSE_NO":"８號","E_COORD97":177068.92000000001,"N_COORD97":2559221.75,"ADDRESS":"中山路５２４巷８號","OBJECTID":413594},"geometry":{"x":177068.91999999993,"y":2559221.7500000037}},{"attributes":{"ID":413619,"DIS_CODE":0,"TOWNNAME":"東區","LI":"東門里","LIN":"12鄰","STREET":"東榮街","SECT":" ","MAREA":" ","LANE":"４４巷","ALLEY":" ","HOUSE_NO":"１７號","E_COORD97":169513.69,"N_COORD97":2543374.1800000002,"ADDRESS":"東榮街４４巷１７號","OBJECTID":413595},"geometry":{"x":169513.69000000041,"y":2543374.1799999997}},{"attributes":{"ID":413620,"DIS_CODE":0,"TOWNNAME":"東區","LI":"東門里","LIN":"12鄰","STREET":"東榮街","SECT":" ","MAREA":" ","LANE":"４４巷","ALLEY":" ","HOUSE_NO":"１號","E_COORD97":169526.29000000001,"N_COORD97":2543396.2200000002,"ADDRESS":"東榮街４４巷１號","OBJECTID":413596},"geometry":{"x":169526.29000000004,"y":2543396.2200000044}},{"attributes":{"ID":413621,"DIS_CODE":0,"TOWNNAME":"東區","LI":"東門里","LIN":"12鄰","STREET":"東榮街","SECT":" ","MAREA":" ","LANE":"４４巷","ALLEY":" ","HOUSE_NO":"３號","E_COORD97":169521.81,"N_COORD97":2543396.6099999999,"ADDRESS":"東榮街４４巷３號","OBJECTID":413597},"geometry":{"x":169521.81000000052,"y":2543396.6100000013}},{"attributes":{"ID":413622,"DIS_CODE":0,"TOWNNAME":"東區","LI":"東門里","LIN":"12鄰","STREET":"東榮街","SECT":" ","MAREA":" ","LANE":"４４巷","ALLEY":" ","HOUSE_NO":"５號","E_COORD97":169501.5,"N_COORD97":2543396.46,"ADDRESS":"東榮街４４巷５號","OBJECTID":413598},"geometry":{"x":169501.5,"y":2543396.4600000028}},{"attributes":{"ID":413623,"DIS_CODE":0,"TOWNNAME":"東區","LI":"東門里","LIN":"12鄰","STREET":"東榮街","SECT":" ","MAREA":" ","LANE":"４４巷","ALLEY":" ","HOUSE_NO":"７號","E_COORD97":169513.69,"N_COORD97":2543397.5299999998,"ADDRESS":"東榮街４４巷７號","OBJECTID":413599},"geometry":{"x":169513.69000000041,"y":2543397.5300000012}},{"attributes":{"ID":413624,"DIS_CODE":0,"TOWNNAME":"東區","LI":"東門里","LIN":"12鄰","STREET":"東榮街","SECT":" ","MAREA":" ","LANE":"４４巷","ALLEY":" ","HOUSE_NO":"９號","E_COORD97":169501.26999999999,"N_COORD97":2543385.8799999999,"ADDRESS":"東榮街４４巷９號","OBJECTID":413600},"geometry":{"x":169501.27000000048,"y":2543385.879999999}}]}