{"displayFieldName":"TOWNNAME","fieldAliases":{"ID":"ID","DIS_CODE":"DIS_CODE","TOWNNAME":"TOWNNAME","LI":"LI","LIN":"LIN","STREET":"STREET","SECT":"SECT","MAREA":"MAREA","LANE":"LANE","ALLEY":"ALLEY","HOUSE_NO":"HOUSE_NO","E_COORD97":"E_COORD97","N_COORD97":"N_COORD97","ADDRESS":"ADDRESS","OBJECTID":"OBJECTID"},"geometryType":"esriGeometryPoint","spatialReference":{"wkid":102443,"latestWkid":3826},"fields":[{"name":"ID","type":"esriFieldTypeDouble","alias":"ID"},{"name":"DIS_CODE","type":"esriFieldTypeInteger","alias":"DIS_CODE"},{"name":"TOWNNAME","type":"esriFieldTypeString","alias":"TOWNNAME","length":8},{"name":"LI","type":"esriFieldTypeString","alias":"LI","length":8},{"name":"LIN","type":"esriFieldTypeString","alias":"LIN","length":12},{"name":"STREET","type":"esriFieldTypeString","alias":"STREET","length":20},{"name":"SECT","type":"esriFieldTypeString","alias":"SECT","length":8},{"name":"MAREA","type":"esriFieldTypeString","alias":"MAREA","length":12},{"name":"LANE","type":"esriFieldTypeString","alias":"LANE","length":10},{"name":"ALLEY","type":"esriFieldTypeString","alias":"ALLEY","length":10},{"name":"HOUSE_NO","type":"esriFieldTypeString","alias":"HOUSE_NO","length":20},{"name":"E_COORD97","type":"esriFieldTypeDouble","alias":"E_COORD97"},{"name":"N_COORD97","type":"esriFieldTypeDouble","alias":"N_COORD97"},{"name":"ADDRESS","type":"esriFieldTypeString","alias":"ADDRESS","length":50},{"name":"OBJECTID","type":"esriFieldTypeOID","alias":"OBJECTID"}],"features":[{"attributes":{"ID":338410,"DIS_CODE":0,"TOWNNAME":"北區","LI":"興北里","LIN":"1鄰","STREET":"北門路","SECT":"二段","MAREA":" ","LANE":"２０２巷","ALLEY":" ","HOUSE_NO":"９號","E_COORD97":169489.44,"N_COORD97":2545134.4100000001,"ADDRESS":"北門路二段２０２巷９號","OBJECTID":338401},"geometry":{"x":169489.44000000134,"y":2545134.410000002}},{"attributes":{"ID":338411,"DIS_CODE":0,"TOWNNAME":"安平區","LI":"金城里","LIN":"10鄰","STREET":"同平路","SECT":" ","MAREA":" ","LANE":"１５６巷","ALLEY":" ","HOUSE_NO":"２號","E_COORD97":163128.82000000001,"N_COORD97":2544020.9900000002,"ADDRESS":"同平路１５６巷２號","OBJECTID":338402},"geometry":{"x":163128.8200000003,"y":2544020.9899999984}},{"attributes":{"ID":338412,"DIS_CODE":0,"TOWNNAME":"北區","LI":"安民里","LIN":"1鄰","STREET":"海安路","SECT":"三段","MAREA":" ","LANE":"１４巷","ALLEY":" ","HOUSE_NO":"６號","E_COORD97":167937.64999999999,"N_COORD97":2544618.04,"ADDRESS":"海安路三段１４巷６號","OBJECTID":338403},"geometry":{"x":167937.65000000037,"y":2544618.040000001}},{"attributes":{"ID":338413,"DIS_CODE":0,"TOWNNAME":"北區","LI":"安民里","LIN":"1鄰","STREET":"海安路","SECT":"三段","MAREA":" ","LANE":"１４巷","ALLEY":" ","HOUSE_NO":"７號","E_COORD97":167942.67999999999,"N_COORD97":2544618.2599999998,"ADDRESS":"海安路三段１４巷７號","OBJECTID":338404},"geometry":{"x":167942.68000000063,"y":2544618.2599999998}},{"attributes":{"ID":338414,"DIS_CODE":0,"TOWNNAME":"北區","LI":"安民里","LIN":"1鄰","STREET":"海安路","SECT":"三段","MAREA":" ","LANE":"１４巷","ALLEY":" ","HOUSE_NO":"８號","E_COORD97":167946.56,"N_COORD97":2544619.4100000001,"ADDRESS":"海安路三段１４巷８號","OBJECTID":338405},"geometry":{"x":167946.56000000052,"y":2544619.410000002}},{"attributes":{"ID":338415,"DIS_CODE":0,"TOWNNAME":"北區","LI":"安民里","LIN":"1鄰","STREET":"國華街","SECT":"四段","MAREA":" ","LANE":"５巷","ALLEY":" ","HOUSE_NO":"１１號","E_COORD97":167929.64999999999,"N_COORD97":2544578.48,"ADDRESS":"國華街四段５巷１１號","OBJECTID":338406},"geometry":{"x":167929.65000000224,"y":2544578.4800000023}},{"attributes":{"ID":338416,"DIS_CODE":0,"TOWNNAME":"北區","LI":"安民里","LIN":"1鄰","STREET":"國華街","SECT":"四段","MAREA":" ","LANE":"５巷","ALLEY":" ","HOUSE_NO":"１２號","E_COORD97":167925.76000000001,"N_COORD97":2544578.48,"ADDRESS":"國華街四段５巷１２號","OBJECTID":338407},"geometry":{"x":167925.75999999978,"y":2544578.4800000023}},{"attributes":{"ID":338417,"DIS_CODE":0,"TOWNNAME":"北區","LI":"安民里","LIN":"1鄰","STREET":"國華街","SECT":"四段","MAREA":" ","LANE":"５巷","ALLEY":" ","HOUSE_NO":"１３號","E_COORD97":167920.28,"N_COORD97":2544578.9399999999,"ADDRESS":"國華街四段５巷１３號","OBJECTID":338408},"geometry":{"x":167920.28000000119,"y":2544578.9399999995}},{"attributes":{"ID":338418,"DIS_CODE":0,"TOWNNAME":"北區","LI":"安民里","LIN":"1鄰","STREET":"國華街","SECT":"四段","MAREA":" ","LANE":"５巷","ALLEY":" ","HOUSE_NO":"１５號","E_COORD97":167915.25,"N_COORD97":2544578.02,"ADDRESS":"國華街四段５巷１５號","OBJECTID":338409},"geometry":{"x":167915.25000000093,"y":2544578.0199999996}},{"attributes":{"ID":338419,"DIS_CODE":0,"TOWNNAME":"北區","LI":"安民里","LIN":"1鄰","STREET":"國華街","SECT":"四段","MAREA":" ","LANE":"５巷","ALLEY":" ","HOUSE_NO":"１６號","E_COORD97":167909.98999999999,"N_COORD97":2544577.7999999998,"ADDRESS":"國華街四段５巷１６號","OBJECTID":338410},"geometry":{"x":167909.99000000022,"y":2544577.8000000007}},{"attributes":{"ID":338420,"DIS_CODE":0,"TOWNNAME":"佳里區","LI":"溪州里","LIN":"5鄰","STREET":" ","SECT":" ","MAREA":"溪州","LANE":" ","ALLEY":" ","HOUSE_NO":"４０號","E_COORD97":166423.53,"N_COORD97":2567312.8599999999,"ADDRESS":"溪州４０號","OBJECTID":338411},"geometry":{"x":166423.53000000119,"y":2567312.8599999975}},{"attributes":{"ID":338421,"DIS_CODE":0,"TOWNNAME":"北區","LI":"安民里","LIN":"1鄰","STREET":"國華街","SECT":"四段","MAREA":" ","LANE":"５巷","ALLEY":" ","HOUSE_NO":"１７號","E_COORD97":167902.67999999999,"N_COORD97":2544578.25,"ADDRESS":"國華街四段５巷１７號","OBJECTID":338412},"geometry":{"x":167902.6799999997,"y":2544578.25}},{"attributes":{"ID":338422,"DIS_CODE":0,"TOWNNAME":"北區","LI":"安民里","LIN":"1鄰","STREET":"國華街","SECT":"四段","MAREA":" ","LANE":"５巷","ALLEY":" ","HOUSE_NO":"９號","E_COORD97":167940.85000000001,"N_COORD97":2544580.9900000002,"ADDRESS":"國華街四段５巷９號","OBJECTID":338413},"geometry":{"x":167940.84999999963,"y":2544580.9900000021}},{"attributes":{"ID":338423,"DIS_CODE":0,"TOWNNAME":"北區","LI":"安民里","LIN":"1鄰","STREET":"國華街","SECT":"四段","MAREA":" ","LANE":"９巷","ALLEY":" ","HOUSE_NO":"７號","E_COORD97":167967.82000000001,"N_COORD97":2544599.0899999999,"ADDRESS":"國華街四段９巷７號","OBJECTID":338414},"geometry":{"x":167967.82000000123,"y":2544599.0899999999}},{"attributes":{"ID":338424,"DIS_CODE":0,"TOWNNAME":"北區","LI":"安民里","LIN":"1鄰","STREET":"國華街","SECT":"四段","MAREA":" ","LANE":"９巷","ALLEY":" ","HOUSE_NO":"８號","E_COORD97":167961.64999999999,"N_COORD97":2544601.1400000001,"ADDRESS":"國華街四段９巷８號","OBJECTID":338415},"geometry":{"x":167961.65000000037,"y":2544601.1400000025}},{"attributes":{"ID":338425,"DIS_CODE":0,"TOWNNAME":"北區","LI":"安民里","LIN":"1鄰","STREET":"國華街","SECT":"四段","MAREA":" ","LANE":"９巷","ALLEY":" ","HOUSE_NO":"９號","E_COORD97":167956.39000000001,"N_COORD97":2544603.4300000002,"ADDRESS":"國華街四段９巷９號","OBJECTID":338416},"geometry":{"x":167956.3900000006,"y":2544603.4299999997}},{"attributes":{"ID":338426,"DIS_CODE":0,"TOWNNAME":"永康區","LI":"五王里","LIN":"1鄰","STREET":"中華二路","SECT":" ","MAREA":" ","LANE":"２０６巷","ALLEY":" ","HOUSE_NO":"２號三樓之２","E_COORD97":171609.98000000001,"N_COORD97":2545460.3100000001,"ADDRESS":"中華二路２０６巷２號三樓之２","OBJECTID":338417},"geometry":{"x":171609.98000000138,"y":2545460.3100000042}},{"attributes":{"ID":338427,"DIS_CODE":0,"TOWNNAME":"東區","LI":"裕聖里","LIN":"1鄰","STREET":"裕忠一街","SECT":" ","MAREA":" ","LANE":" ","ALLEY":" ","HOUSE_NO":"２３號","E_COORD97":172318.92999999999,"N_COORD97":2542422.3900000001,"ADDRESS":"裕忠一街２３號","OBJECTID":338418},"geometry":{"x":172318.9299999997,"y":2542422.3900000025}},{"attributes":{"ID":338428,"DIS_CODE":0,"TOWNNAME":"永康區","LI":"五王里","LIN":"1鄰","STREET":"中華二路","SECT":" ","MAREA":" ","LANE":"２０６巷","ALLEY":" ","HOUSE_NO":"２號七樓之５","E_COORD97":171610,"N_COORD97":2545460.3100000001,"ADDRESS":"中華二路２０６巷２號七樓之５","OBJECTID":338419},"geometry":{"x":171610,"y":2545460.3100000042}},{"attributes":{"ID":338429,"DIS_CODE":0,"TOWNNAME":"永康區","LI":"五王里","LIN":"1鄰","STREET":"中華二路","SECT":" ","MAREA":" ","LANE":"２０６巷","ALLEY":" ","HOUSE_NO":"２號三樓之５","E_COORD97":171610,"N_COORD97":2545460.3100000001,"ADDRESS":"中華二路２０６巷２號三樓之５","OBJECTID":338420},"geometry":{"x":171610,"y":2545460.3100000042}},{"attributes":{"ID":338430,"DIS_CODE":0,"TOWNNAME":"永康區","LI":"五王里","LIN":"1鄰","STREET":"中華二路","SECT":" ","MAREA":" ","LANE":"２０６巷","ALLEY":" ","HOUSE_NO":"２號三樓之１","E_COORD97":171609.85000000001,"N_COORD97":2545460.3100000001,"ADDRESS":"中華二路２０６巷２號三樓之１","OBJECTID":338421},"geometry":{"x":171609.85000000056,"y":2545460.3100000042}},{"attributes":{"ID":338431,"DIS_CODE":0,"TOWNNAME":"安平區","LI":"建平里","LIN":"8鄰","STREET":"府前三街","SECT":" ","MAREA":" ","LANE":"２５巷","ALLEY":" ","HOUSE_NO":"１７號","E_COORD97":166514.62,"N_COORD97":2543776.8500000001,"ADDRESS":"府前三街２５巷１７號","OBJECTID":338422},"geometry":{"x":166514.62000000104,"y":2543776.8499999996}},{"attributes":{"ID":338432,"DIS_CODE":0,"TOWNNAME":"安平區","LI":"建平里","LIN":"8鄰","STREET":"府前三街","SECT":" ","MAREA":" ","LANE":"２５巷","ALLEY":" ","HOUSE_NO":"１９號","E_COORD97":166509,"N_COORD97":2543776.1499999999,"ADDRESS":"府前三街２５巷１９號","OBJECTID":338423},"geometry":{"x":166509,"y":2543776.1500000041}},{"attributes":{"ID":338433,"DIS_CODE":0,"TOWNNAME":"安平區","LI":"建平里","LIN":"8鄰","STREET":"府前三街","SECT":" ","MAREA":" ","LANE":"２５巷","ALLEY":" ","HOUSE_NO":"２１號","E_COORD97":166505.25,"N_COORD97":2543779.6600000001,"ADDRESS":"府前三街２５巷２１號","OBJECTID":338424},"geometry":{"x":166505.25000000093,"y":2543779.660000002}},{"attributes":{"ID":338434,"DIS_CODE":0,"TOWNNAME":"安平區","LI":"建平里","LIN":"8鄰","STREET":"府前三街","SECT":" ","MAREA":" ","LANE":"２５巷","ALLEY":" ","HOUSE_NO":"２３號","E_COORD97":166500.56,"N_COORD97":2543777.79,"ADDRESS":"府前三街２５巷２３號","OBJECTID":338425},"geometry":{"x":166500.56000000052,"y":2543777.790000001}},{"attributes":{"ID":338435,"DIS_CODE":0,"TOWNNAME":"安平區","LI":"建平里","LIN":"8鄰","STREET":"府前三街","SECT":" ","MAREA":" ","LANE":"２５巷","ALLEY":" ","HOUSE_NO":"２９號","E_COORD97":166483.09,"N_COORD97":2543793.7599999998,"ADDRESS":"府前三街２５巷２９號","OBJECTID":338426},"geometry":{"x":166483.08999999985,"y":2543793.7599999998}},{"attributes":{"ID":338436,"DIS_CODE":0,"TOWNNAME":"安平區","LI":"建平里","LIN":"8鄰","STREET":"府前三街","SECT":" ","MAREA":" ","LANE":"２５巷","ALLEY":" ","HOUSE_NO":"３３號","E_COORD97":166472.85000000001,"N_COORD97":2543796.1000000001,"ADDRESS":"府前三街２５巷３３號","OBJECTID":338427},"geometry":{"x":166472.8499999987,"y":2543796.1000000034}},{"attributes":{"ID":338437,"DIS_CODE":0,"TOWNNAME":"安平區","LI":"建平里","LIN":"8鄰","STREET":"府前三街","SECT":" ","MAREA":" ","LANE":"２５巷","ALLEY":" ","HOUSE_NO":"３５號","E_COORD97":166464.95999999999,"N_COORD97":2543795.0299999998,"ADDRESS":"府前三街２５巷３５號","OBJECTID":338428},"geometry":{"x":166464.95999999996,"y":2543795.0299999993}},{"attributes":{"ID":338438,"DIS_CODE":0,"TOWNNAME":"南區","LI":"明興里","LIN":"10鄰","STREET":"金華路","SECT":"一段","MAREA":" ","LANE":"１０２巷","ALLEY":" ","HOUSE_NO":"１８號","E_COORD97":167014.60000000001,"N_COORD97":2540513.8700000001,"ADDRESS":"金華路一段１０２巷１８號","OBJECTID":338429},"geometry":{"x":167014.59999999963,"y":2540513.8700000048}},{"attributes":{"ID":338439,"DIS_CODE":0,"TOWNNAME":"安平區","LI":"建平里","LIN":"7鄰","STREET":"建平十二街","SECT":" ","MAREA":" ","LANE":"２４巷","ALLEY":" ","HOUSE_NO":"４８號","E_COORD97":166414.16,"N_COORD97":2544032.73,"ADDRESS":"建平十二街２４巷４８號","OBJECTID":338430},"geometry":{"x":166414.16000000108,"y":2544032.7300000004}},{"attributes":{"ID":338440,"DIS_CODE":0,"TOWNNAME":"安平區","LI":"建平里","LIN":"7鄰","STREET":"建平十二街","SECT":" ","MAREA":" ","LANE":"２４巷","ALLEY":" ","HOUSE_NO":"５０號","E_COORD97":166414.54999999999,"N_COORD97":2544045.7000000002,"ADDRESS":"建平十二街２４巷５０號","OBJECTID":338431},"geometry":{"x":166414.55000000075,"y":2544045.700000003}},{"attributes":{"ID":338441,"DIS_CODE":0,"TOWNNAME":"安平區","LI":"建平里","LIN":"7鄰","STREET":"建平十二街","SECT":" ","MAREA":" ","LANE":"２４巷","ALLEY":" ","HOUSE_NO":"５１號","E_COORD97":166386.78,"N_COORD97":2544042.8599999999,"ADDRESS":"建平十二街２４巷５１號","OBJECTID":338432},"geometry":{"x":166386.78000000119,"y":2544042.8600000013}},{"attributes":{"ID":338442,"DIS_CODE":0,"TOWNNAME":"安平區","LI":"建平里","LIN":"7鄰","STREET":"建平十二街","SECT":" ","MAREA":" ","LANE":"２４巷","ALLEY":" ","HOUSE_NO":"５３號","E_COORD97":166386.48999999999,"N_COORD97":2544051.4399999999,"ADDRESS":"建平十二街２４巷５３號","OBJECTID":338433},"geometry":{"x":166386.49000000115,"y":2544051.4400000032}},{"attributes":{"ID":338443,"DIS_CODE":0,"TOWNNAME":"安平區","LI":"建平里","LIN":"7鄰","STREET":"建平十二街","SECT":" ","MAREA":" ","LANE":"２４巷","ALLEY":" ","HOUSE_NO":"５７號","E_COORD97":166390.72,"N_COORD97":2544073.6899999999,"ADDRESS":"建平十二街２４巷５７號","OBJECTID":338434},"geometry":{"x":166390.71999999974,"y":2544073.6900000013}},{"attributes":{"ID":338444,"DIS_CODE":0,"TOWNNAME":"安平區","LI":"建平里","LIN":"7鄰","STREET":"建平十二街","SECT":" ","MAREA":" ","LANE":"２４巷","ALLEY":" ","HOUSE_NO":"５９號","E_COORD97":166390.42999999999,"N_COORD97":2544078.21,"ADDRESS":"建平十二街２４巷５９號","OBJECTID":338435},"geometry":{"x":166390.4299999997,"y":2544078.2100000046}},{"attributes":{"ID":338445,"DIS_CODE":0,"TOWNNAME":"安平區","LI":"建平里","LIN":"7鄰","STREET":"建平十二街","SECT":" ","MAREA":" ","LANE":"２４巷","ALLEY":" ","HOUSE_NO":"６１號","E_COORD97":166389.98999999999,"N_COORD97":2544085.0499999998,"ADDRESS":"建平十二街２４巷６１號","OBJECTID":338436},"geometry":{"x":166389.99000000115,"y":2544085.0500000007}},{"attributes":{"ID":338446,"DIS_CODE":0,"TOWNNAME":"安平區","LI":"金城里","LIN":"14鄰","STREET":"世平一街","SECT":" ","MAREA":" ","LANE":"８巷","ALLEY":" ","HOUSE_NO":"２號","E_COORD97":163006.03,"N_COORD97":2544045.3500000001,"ADDRESS":"世平一街８巷２號","OBJECTID":338437},"geometry":{"x":163006.03000000119,"y":2544045.3500000034}},{"attributes":{"ID":338447,"DIS_CODE":0,"TOWNNAME":"安平區","LI":"金城里","LIN":"14鄰","STREET":"世平一街","SECT":" ","MAREA":" ","LANE":"８巷","ALLEY":" ","HOUSE_NO":"４號","E_COORD97":163004.45000000001,"N_COORD97":2544049.1499999999,"ADDRESS":"世平一街８巷４號","OBJECTID":338438},"geometry":{"x":163004.44999999925,"y":2544049.1500000004}},{"attributes":{"ID":338448,"DIS_CODE":0,"TOWNNAME":"安平區","LI":"金城里","LIN":"14鄰","STREET":"世平一街","SECT":" ","MAREA":" ","LANE":"８巷","ALLEY":" ","HOUSE_NO":"８號","E_COORD97":163002.07000000001,"N_COORD97":2544057.0699999998,"ADDRESS":"世平一街８巷８號","OBJECTID":338439},"geometry":{"x":163002.07000000216,"y":2544057.0700000003}},{"attributes":{"ID":338449,"DIS_CODE":0,"TOWNNAME":"安平區","LI":"金城里","LIN":"14鄰","STREET":"世平一街","SECT":" ","MAREA":" ","LANE":"８巷","ALLEY":" ","HOUSE_NO":"１０號","E_COORD97":163000.79999999999,"N_COORD97":2544060.8700000001,"ADDRESS":"世平一街８巷１０號","OBJECTID":338440},"geometry":{"x":163000.80000000075,"y":2544060.8700000029}},{"attributes":{"ID":338450,"DIS_CODE":0,"TOWNNAME":"安平區","LI":"金城里","LIN":"14鄰","STREET":"世平一街","SECT":" ","MAREA":" ","LANE":"８巷","ALLEY":" ","HOUSE_NO":"１２號","E_COORD97":162999.54000000001,"N_COORD97":2544064.9900000002,"ADDRESS":"世平一街８巷１２號","OBJECTID":338441},"geometry":{"x":162999.54000000004,"y":2544064.9899999984}},{"attributes":{"ID":338451,"DIS_CODE":0,"TOWNNAME":"安平區","LI":"金城里","LIN":"14鄰","STREET":"世平一街","SECT":" ","MAREA":" ","LANE":"８巷","ALLEY":" ","HOUSE_NO":"１４號","E_COORD97":162998.10999999999,"N_COORD97":2544068.4700000002,"ADDRESS":"世平一街８巷１４號","OBJECTID":338442},"geometry":{"x":162998.11000000034,"y":2544068.4700000007}},{"attributes":{"ID":338452,"DIS_CODE":0,"TOWNNAME":"安平區","LI":"金城里","LIN":"14鄰","STREET":"世平一街","SECT":" ","MAREA":" ","LANE":"８巷","ALLEY":" ","HOUSE_NO":"１６號","E_COORD97":162996.84,"N_COORD97":2544072.4300000002,"ADDRESS":"世平一街８巷１６號","OBJECTID":338443},"geometry":{"x":162996.84000000078,"y":2544072.4300000016}},{"attributes":{"ID":338453,"DIS_CODE":0,"TOWNNAME":"安平區","LI":"金城里","LIN":"14鄰","STREET":"世平一街","SECT":" ","MAREA":" ","LANE":"８巷","ALLEY":" ","HOUSE_NO":"１８號","E_COORD97":162995.89000000001,"N_COORD97":2544076.3900000001,"ADDRESS":"世平一街８巷１８號","OBJECTID":338444},"geometry":{"x":162995.89000000153,"y":2544076.3900000043}},{"attributes":{"ID":338454,"DIS_CODE":0,"TOWNNAME":"安平區","LI":"金城里","LIN":"14鄰","STREET":"世平一街","SECT":" ","MAREA":" ","LANE":"８巷","ALLEY":" ","HOUSE_NO":"２０號","E_COORD97":162994.31,"N_COORD97":2544080.3399999999,"ADDRESS":"世平一街８巷２０號","OBJECTID":338445},"geometry":{"x":162994.30999999959,"y":2544080.3400000017}},{"attributes":{"ID":338455,"DIS_CODE":0,"TOWNNAME":"安平區","LI":"金城里","LIN":"13鄰","STREET":"世平三街","SECT":" ","MAREA":" ","LANE":"１２巷","ALLEY":" ","HOUSE_NO":"１７號","E_COORD97":162782.60999999999,"N_COORD97":2544049.4199999999,"ADDRESS":"世平三街１２巷１７號","OBJECTID":338446},"geometry":{"x":162782.61000000034,"y":2544049.4200000018}},{"attributes":{"ID":338456,"DIS_CODE":0,"TOWNNAME":"安平區","LI":"金城里","LIN":"13鄰","STREET":"世平三街","SECT":" ","MAREA":" ","LANE":"１２巷","ALLEY":" ","HOUSE_NO":"１９號","E_COORD97":162774.22,"N_COORD97":2544060.5899999999,"ADDRESS":"世平三街１２巷１９號","OBJECTID":338447},"geometry":{"x":162774.21999999974,"y":2544060.589999998}},{"attributes":{"ID":338457,"DIS_CODE":0,"TOWNNAME":"永康區","LI":"五王里","LIN":"1鄰","STREET":"中華二路","SECT":" ","MAREA":" ","LANE":"２０６巷","ALLEY":" ","HOUSE_NO":"２號七樓之３","E_COORD97":171609.95000000001,"N_COORD97":2545460.3100000001,"ADDRESS":"中華二路２０６巷２號七樓之３","OBJECTID":338448},"geometry":{"x":171609.95000000112,"y":2545460.3100000042}},{"attributes":{"ID":338458,"DIS_CODE":0,"TOWNNAME":"安平區","LI":"億載里","LIN":"5鄰","STREET":"永華十一街","SECT":" ","MAREA":" ","LANE":"１１３巷","ALLEY":" ","HOUSE_NO":"５４號","E_COORD97":163934.12,"N_COORD97":2543688.2200000002,"ADDRESS":"永華十一街１１３巷５４號","OBJECTID":338449},"geometry":{"x":163934.12000000104,"y":2543688.2200000025}},{"attributes":{"ID":338459,"DIS_CODE":0,"TOWNNAME":"安平區","LI":"華平里","LIN":"17鄰","STREET":"永華八街","SECT":" ","MAREA":" ","LANE":"１９３巷","ALLEY":" ","HOUSE_NO":"２４號之３","E_COORD97":165097.14000000001,"N_COORD97":2543768.1299999999,"ADDRESS":"永華八街１９３巷２４號之３","OBJECTID":338450},"geometry":{"x":165097.13999999966,"y":2543768.1300000027}},{"attributes":{"ID":338460,"DIS_CODE":0,"TOWNNAME":"安平區","LI":"華平里","LIN":"17鄰","STREET":"永華八街","SECT":" ","MAREA":" ","LANE":"１９３巷","ALLEY":" ","HOUSE_NO":"３０號之１","E_COORD97":165081.85999999999,"N_COORD97":2543758.2000000002,"ADDRESS":"永華八街１９３巷３０號之１","OBJECTID":338451},"geometry":{"x":165081.8600000022,"y":2543758.2000000011}},{"attributes":{"ID":338461,"DIS_CODE":0,"TOWNNAME":"中西區","LI":"藥王里","LIN":"1鄰","STREET":"金華路","SECT":"四段","MAREA":" ","LANE":"４７巷","ALLEY":" ","HOUSE_NO":"２０號三樓之１","E_COORD97":167398.25,"N_COORD97":2544308.5600000001,"ADDRESS":"金華路四段４７巷２０號三樓之１","OBJECTID":338452},"geometry":{"x":167398.25000000093,"y":2544308.5600000005}},{"attributes":{"ID":338462,"DIS_CODE":0,"TOWNNAME":"中西區","LI":"藥王里","LIN":"1鄰","STREET":"金華路","SECT":"四段","MAREA":" ","LANE":"４７巷","ALLEY":" ","HOUSE_NO":"２０號三樓之２","E_COORD97":167398.25,"N_COORD97":2544308.5600000001,"ADDRESS":"金華路四段４７巷２０號三樓之２","OBJECTID":338453},"geometry":{"x":167398.25000000093,"y":2544308.5600000005}},{"attributes":{"ID":338463,"DIS_CODE":0,"TOWNNAME":"永康區","LI":"五王里","LIN":"1鄰","STREET":"中華二路","SECT":" ","MAREA":" ","LANE":"２０６巷","ALLEY":" ","HOUSE_NO":"２號四樓之３","E_COORD97":171609.95000000001,"N_COORD97":2545460.3100000001,"ADDRESS":"中華二路２０６巷２號四樓之３","OBJECTID":338454},"geometry":{"x":171609.95000000112,"y":2545460.3100000042}},{"attributes":{"ID":338464,"DIS_CODE":0,"TOWNNAME":"永康區","LI":"五王里","LIN":"1鄰","STREET":"中華二路","SECT":" ","MAREA":" ","LANE":"２０６巷","ALLEY":" ","HOUSE_NO":"２號五樓之１","E_COORD97":171609.85000000001,"N_COORD97":2545460.3100000001,"ADDRESS":"中華二路２０６巷２號五樓之１","OBJECTID":338455},"geometry":{"x":171609.85000000056,"y":2545460.3100000042}},{"attributes":{"ID":338465,"DIS_CODE":0,"TOWNNAME":"安平區","LI":"億載里","LIN":"5鄰","STREET":"永華十一街","SECT":" ","MAREA":" ","LANE":"１１３巷","ALLEY":" ","HOUSE_NO":"６２號","E_COORD97":163913.70000000001,"N_COORD97":2543683.5099999998,"ADDRESS":"永華十一街１１３巷６２號","OBJECTID":338456},"geometry":{"x":163913.70000000112,"y":2543683.5099999998}},{"attributes":{"ID":338466,"DIS_CODE":0,"TOWNNAME":"安平區","LI":"建平里","LIN":"25鄰","STREET":"建平九街","SECT":" ","MAREA":" ","LANE":"６０巷","ALLEY":" ","HOUSE_NO":"３６號","E_COORD97":166042.35000000001,"N_COORD97":2543598.77,"ADDRESS":"建平九街６０巷３６號","OBJECTID":338457},"geometry":{"x":166042.35000000149,"y":2543598.7700000014}},{"attributes":{"ID":338467,"DIS_CODE":0,"TOWNNAME":"永康區","LI":"五王里","LIN":"1鄰","STREET":"中華二路","SECT":" ","MAREA":" ","LANE":"２０６巷","ALLEY":" ","HOUSE_NO":"２號四樓之２","E_COORD97":171609.98000000001,"N_COORD97":2545460.3100000001,"ADDRESS":"中華二路２０６巷２號四樓之２","OBJECTID":338458},"geometry":{"x":171609.98000000138,"y":2545460.3100000042}},{"attributes":{"ID":338468,"DIS_CODE":0,"TOWNNAME":"永康區","LI":"五王里","LIN":"1鄰","STREET":"中華二路","SECT":" ","MAREA":" ","LANE":"２０６巷","ALLEY":" ","HOUSE_NO":"２號六樓之２","E_COORD97":171609.98000000001,"N_COORD97":2545460.3100000001,"ADDRESS":"中華二路２０６巷２號六樓之２","OBJECTID":338459},"geometry":{"x":171609.98000000138,"y":2545460.3100000042}},{"attributes":{"ID":338469,"DIS_CODE":0,"TOWNNAME":"安平區","LI":"怡平里","LIN":"18鄰","STREET":"文平路","SECT":" ","MAREA":" ","LANE":"４６１巷","ALLEY":" ","HOUSE_NO":"４９號","E_COORD97":165686.84038099999,"N_COORD97":2543875.9185199998,"ADDRESS":"文平路４６１巷４９號","OBJECTID":338460},"geometry":{"x":165686.84038100019,"y":2543875.9185240027}},{"attributes":{"ID":338470,"DIS_CODE":0,"TOWNNAME":"安平區","LI":"文平里","LIN":"7鄰","STREET":"建平七街","SECT":" ","MAREA":" ","LANE":"５８巷","ALLEY":" ","HOUSE_NO":"４１號","E_COORD97":166287.89000000001,"N_COORD97":2543264.3100000001,"ADDRESS":"建平七街５８巷４１號","OBJECTID":338461},"geometry":{"x":166287.88999999873,"y":2543264.3100000024}},{"attributes":{"ID":338471,"DIS_CODE":0,"TOWNNAME":"安平區","LI":"文平里","LIN":"7鄰","STREET":"建平七街","SECT":" ","MAREA":" ","LANE":"５８巷","ALLEY":" ","HOUSE_NO":"４３號","E_COORD97":166283.22,"N_COORD97":2543265.25,"ADDRESS":"建平七街５８巷４３號","OBJECTID":338462},"geometry":{"x":166283.22000000067,"y":2543265.25}},{"attributes":{"ID":338472,"DIS_CODE":0,"TOWNNAME":"安平區","LI":"文平里","LIN":"7鄰","STREET":"建平七街","SECT":" ","MAREA":" ","LANE":"５８巷","ALLEY":" ","HOUSE_NO":"４５號","E_COORD97":166278.89000000001,"N_COORD97":2543265.8300000001,"ADDRESS":"建平七街５８巷４５號","OBJECTID":338463},"geometry":{"x":166278.88999999966,"y":2543265.8299999982}},{"attributes":{"ID":338473,"DIS_CODE":0,"TOWNNAME":"安平區","LI":"文平里","LIN":"7鄰","STREET":"建平七街","SECT":" ","MAREA":" ","LANE":"５８巷","ALLEY":" ","HOUSE_NO":"４７號","E_COORD97":166274.32000000001,"N_COORD97":2543266.1800000002,"ADDRESS":"建平七街５８巷４７號","OBJECTID":338464},"geometry":{"x":166274.32000000123,"y":2543266.1799999997}},{"attributes":{"ID":338474,"DIS_CODE":0,"TOWNNAME":"安平區","LI":"文平里","LIN":"7鄰","STREET":"建平七街","SECT":" ","MAREA":" ","LANE":"５８巷","ALLEY":" ","HOUSE_NO":"４９號","E_COORD97":166269.98999999999,"N_COORD97":2543266.8799999999,"ADDRESS":"建平七街５８巷４９號","OBJECTID":338465},"geometry":{"x":166269.99000000115,"y":2543266.879999999}},{"attributes":{"ID":338475,"DIS_CODE":0,"TOWNNAME":"安平區","LI":"文平里","LIN":"7鄰","STREET":"建平七街","SECT":" ","MAREA":" ","LANE":"５８巷","ALLEY":" ","HOUSE_NO":"５１號","E_COORD97":166265.31,"N_COORD97":2543267.5800000001,"ADDRESS":"建平七街５８巷５１號","OBJECTID":338466},"geometry":{"x":166265.31000000052,"y":2543267.5799999982}},{"attributes":{"ID":338476,"DIS_CODE":0,"TOWNNAME":"安平區","LI":"文平里","LIN":"7鄰","STREET":"建平七街","SECT":" ","MAREA":" ","LANE":"５８巷","ALLEY":" ","HOUSE_NO":"５３號","E_COORD97":166260.51999999999,"N_COORD97":2543268.2799999998,"ADDRESS":"建平七街５８巷５３號","OBJECTID":338467},"geometry":{"x":166260.52000000048,"y":2543268.2799999993}},{"attributes":{"ID":338477,"DIS_CODE":0,"TOWNNAME":"永康區","LI":"五王里","LIN":"1鄰","STREET":"中華二路","SECT":" ","MAREA":" ","LANE":"２０６巷","ALLEY":" ","HOUSE_NO":"２號四樓之１","E_COORD97":171609.85000000001,"N_COORD97":2545460.3100000001,"ADDRESS":"中華二路２０６巷２號四樓之１","OBJECTID":338468},"geometry":{"x":171609.85000000056,"y":2545460.3100000042}},{"attributes":{"ID":338478,"DIS_CODE":0,"TOWNNAME":"永康區","LI":"五王里","LIN":"1鄰","STREET":"中華二路","SECT":" ","MAREA":" ","LANE":"２０６巷","ALLEY":" ","HOUSE_NO":"２號六樓之１","E_COORD97":171609.85000000001,"N_COORD97":2545460.3100000001,"ADDRESS":"中華二路２０６巷２號六樓之１","OBJECTID":338469},"geometry":{"x":171609.85000000056,"y":2545460.3100000042}},{"attributes":{"ID":338479,"DIS_CODE":0,"TOWNNAME":"安平區","LI":"文平里","LIN":"7鄰","STREET":"建平七街","SECT":" ","MAREA":" ","LANE":"５８巷","ALLEY":" ","HOUSE_NO":"６３號","E_COORD97":166237.59,"N_COORD97":2543272.02,"ADDRESS":"建平七街５８巷６３號","OBJECTID":338470},"geometry":{"x":166237.59000000171,"y":2543272.0200000014}},{"attributes":{"ID":338480,"DIS_CODE":0,"TOWNNAME":"永康區","LI":"五王里","LIN":"1鄰","STREET":"中華二路","SECT":" ","MAREA":" ","LANE":"２０６巷","ALLEY":" ","HOUSE_NO":"２號七樓之２","E_COORD97":171609.98000000001,"N_COORD97":2545460.3100000001,"ADDRESS":"中華二路２０６巷２號七樓之２","OBJECTID":338471},"geometry":{"x":171609.98000000138,"y":2545460.3100000042}},{"attributes":{"ID":338481,"DIS_CODE":0,"TOWNNAME":"永康區","LI":"五王里","LIN":"1鄰","STREET":"中華二路","SECT":" ","MAREA":" ","LANE":"２０６巷","ALLEY":" ","HOUSE_NO":"２號五樓之３","E_COORD97":171609.95000000001,"N_COORD97":2545460.3100000001,"ADDRESS":"中華二路２０６巷２號五樓之３","OBJECTID":338472},"geometry":{"x":171609.95000000112,"y":2545460.3100000042}},{"attributes":{"ID":338482,"DIS_CODE":0,"TOWNNAME":"永康區","LI":"五王里","LIN":"1鄰","STREET":"中華二路","SECT":" ","MAREA":" ","LANE":"２０６巷","ALLEY":" ","HOUSE_NO":"２號六樓之５","E_COORD97":171610,"N_COORD97":2545460.3100000001,"ADDRESS":"中華二路２０６巷２號六樓之５","OBJECTID":338473},"geometry":{"x":171610,"y":2545460.3100000042}},{"attributes":{"ID":338483,"DIS_CODE":0,"TOWNNAME":"永康區","LI":"五王里","LIN":"1鄰","STREET":"中華二路","SECT":" ","MAREA":" ","LANE":"２０６巷","ALLEY":" ","HOUSE_NO":"２號七樓之１","E_COORD97":171609.85000000001,"N_COORD97":2545460.3100000001,"ADDRESS":"中華二路２０６巷２號七樓之１","OBJECTID":338474},"geometry":{"x":171609.85000000056,"y":2545460.3100000042}},{"attributes":{"ID":338484,"DIS_CODE":0,"TOWNNAME":"北區","LI":"延平里","LIN":"1鄰","STREET":"公園路","SECT":" ","MAREA":" ","LANE":"６３４巷","ALLEY":" ","HOUSE_NO":"３１號三樓","E_COORD97":169131.32000000001,"N_COORD97":2545360.8300000001,"ADDRESS":"公園路６３４巷３１號三樓","OBJECTID":338475},"geometry":{"x":169131.3200000003,"y":2545360.8300000001}},{"attributes":{"ID":338485,"DIS_CODE":0,"TOWNNAME":"安南區","LI":"溪東里","LIN":"1鄰","STREET":"府安路","SECT":"五段","MAREA":" ","LANE":"１４４巷","ALLEY":" ","HOUSE_NO":"１８號三樓之１","E_COORD97":167888.07999999999,"N_COORD97":2547117.6400000001,"ADDRESS":"府安路五段１４４巷１８號三樓之１","OBJECTID":338476},"geometry":{"x":167888.08000000101,"y":2547117.6400000025}},{"attributes":{"ID":338486,"DIS_CODE":0,"TOWNNAME":"安南區","LI":"溪東里","LIN":"1鄰","STREET":"府安路","SECT":"五段","MAREA":" ","LANE":"１４４巷","ALLEY":" ","HOUSE_NO":"１８號三樓之２","E_COORD97":167888.07999999999,"N_COORD97":2547117.6400000001,"ADDRESS":"府安路五段１４４巷１８號三樓之２","OBJECTID":338477},"geometry":{"x":167888.08000000101,"y":2547117.6400000025}},{"attributes":{"ID":338487,"DIS_CODE":0,"TOWNNAME":"安南區","LI":"溪東里","LIN":"1鄰","STREET":"府安路","SECT":"五段","MAREA":" ","LANE":"１４４巷","ALLEY":" ","HOUSE_NO":"１８號三樓之３","E_COORD97":167888.07999999999,"N_COORD97":2547117.6400000001,"ADDRESS":"府安路五段１４４巷１８號三樓之３","OBJECTID":338478},"geometry":{"x":167888.08000000101,"y":2547117.6400000025}},{"attributes":{"ID":338488,"DIS_CODE":0,"TOWNNAME":"安南區","LI":"溪東里","LIN":"1鄰","STREET":"府安路","SECT":"五段","MAREA":" ","LANE":"１４４巷","ALLEY":" ","HOUSE_NO":"１８號三樓之５","E_COORD97":167888.07999999999,"N_COORD97":2547117.6400000001,"ADDRESS":"府安路五段１４４巷１８號三樓之５","OBJECTID":338479},"geometry":{"x":167888.08000000101,"y":2547117.6400000025}},{"attributes":{"ID":338489,"DIS_CODE":0,"TOWNNAME":"安南區","LI":"溪東里","LIN":"1鄰","STREET":"府安路","SECT":"五段","MAREA":" ","LANE":"１４４巷","ALLEY":" ","HOUSE_NO":"１８號三樓之６","E_COORD97":167888.07999999999,"N_COORD97":2547117.6400000001,"ADDRESS":"府安路五段１４４巷１８號三樓之６","OBJECTID":338480},"geometry":{"x":167888.08000000101,"y":2547117.6400000025}},{"attributes":{"ID":338490,"DIS_CODE":0,"TOWNNAME":"東區","LI":"大同里","LIN":"8鄰","STREET":"樹林街","SECT":"一段","MAREA":" ","LANE":" ","ALLEY":" ","HOUSE_NO":"２１１號","E_COORD97":169203.42999999999,"N_COORD97":2542996.7999999998,"ADDRESS":"樹林街一段２１１號","OBJECTID":338481},"geometry":{"x":169203.43000000156,"y":2542996.8000000026}},{"attributes":{"ID":338491,"DIS_CODE":0,"TOWNNAME":"安南區","LI":"溪東里","LIN":"1鄰","STREET":"府安路","SECT":"五段","MAREA":" ","LANE":"１４４巷","ALLEY":" ","HOUSE_NO":"１８號五樓之１","E_COORD97":167888.07999999999,"N_COORD97":2547117.6400000001,"ADDRESS":"府安路五段１４４巷１８號五樓之１","OBJECTID":338482},"geometry":{"x":167888.08000000101,"y":2547117.6400000025}},{"attributes":{"ID":338492,"DIS_CODE":0,"TOWNNAME":"安南區","LI":"溪東里","LIN":"1鄰","STREET":"府安路","SECT":"五段","MAREA":" ","LANE":"１４４巷","ALLEY":" ","HOUSE_NO":"１８號五樓之１０","E_COORD97":167888.07999999999,"N_COORD97":2547117.6400000001,"ADDRESS":"府安路五段１４４巷１８號五樓之１０","OBJECTID":338483},"geometry":{"x":167888.08000000101,"y":2547117.6400000025}},{"attributes":{"ID":338493,"DIS_CODE":0,"TOWNNAME":"中西區","LI":"銀同里","LIN":"1鄰","STREET":"開山路","SECT":" ","MAREA":" ","LANE":"１０９巷","ALLEY":" ","HOUSE_NO":"６號之１三樓之２","E_COORD97":168774.26999999999,"N_COORD97":2543335.98,"ADDRESS":"開山路１０９巷６號之１三樓之２","OBJECTID":338484},"geometry":{"x":168774.27000000048,"y":2543335.9800000004}},{"attributes":{"ID":338494,"DIS_CODE":0,"TOWNNAME":"安南區","LI":"溪東里","LIN":"1鄰","STREET":"府安路","SECT":"五段","MAREA":" ","LANE":"１４４巷","ALLEY":" ","HOUSE_NO":"１８號五樓之１１","E_COORD97":167888.07999999999,"N_COORD97":2547117.6400000001,"ADDRESS":"府安路五段１４４巷１８號五樓之１１","OBJECTID":338485},"geometry":{"x":167888.08000000101,"y":2547117.6400000025}},{"attributes":{"ID":338495,"DIS_CODE":0,"TOWNNAME":"安南區","LI":"溪東里","LIN":"1鄰","STREET":"府安路","SECT":"五段","MAREA":" ","LANE":"１４４巷","ALLEY":" ","HOUSE_NO":"１８號五樓之２","E_COORD97":167888.07999999999,"N_COORD97":2547117.6400000001,"ADDRESS":"府安路五段１４４巷１８號五樓之２","OBJECTID":338486},"geometry":{"x":167888.08000000101,"y":2547117.6400000025}},{"attributes":{"ID":338496,"DIS_CODE":0,"TOWNNAME":"安南區","LI":"溪東里","LIN":"1鄰","STREET":"府安路","SECT":"五段","MAREA":" ","LANE":"１４４巷","ALLEY":" ","HOUSE_NO":"１８號五樓之３","E_COORD97":167888.07999999999,"N_COORD97":2547117.6400000001,"ADDRESS":"府安路五段１４４巷１８號五樓之３","OBJECTID":338487},"geometry":{"x":167888.08000000101,"y":2547117.6400000025}},{"attributes":{"ID":338497,"DIS_CODE":0,"TOWNNAME":"安南區","LI":"溪東里","LIN":"1鄰","STREET":"府安路","SECT":"五段","MAREA":" ","LANE":"１４４巷","ALLEY":" ","HOUSE_NO":"１８號五樓之４","E_COORD97":167888.07999999999,"N_COORD97":2547117.6400000001,"ADDRESS":"府安路五段１４４巷１８號五樓之４","OBJECTID":338488},"geometry":{"x":167888.08000000101,"y":2547117.6400000025}},{"attributes":{"ID":338498,"DIS_CODE":0,"TOWNNAME":"安南區","LI":"溪東里","LIN":"1鄰","STREET":"府安路","SECT":"五段","MAREA":" ","LANE":"１４４巷","ALLEY":" ","HOUSE_NO":"１８號五樓之５","E_COORD97":167888.07999999999,"N_COORD97":2547117.6400000001,"ADDRESS":"府安路五段１４４巷１８號五樓之５","OBJECTID":338489},"geometry":{"x":167888.08000000101,"y":2547117.6400000025}},{"attributes":{"ID":338499,"DIS_CODE":0,"TOWNNAME":"安南區","LI":"溪東里","LIN":"1鄰","STREET":"府安路","SECT":"五段","MAREA":" ","LANE":"１４４巷","ALLEY":" ","HOUSE_NO":"１８號五樓之６","E_COORD97":167888.07999999999,"N_COORD97":2547117.6400000001,"ADDRESS":"府安路五段１４４巷１８號五樓之６","OBJECTID":338490},"geometry":{"x":167888.08000000101,"y":2547117.6400000025}},{"attributes":{"ID":338500,"DIS_CODE":0,"TOWNNAME":"安南區","LI":"溪東里","LIN":"1鄰","STREET":"府安路","SECT":"五段","MAREA":" ","LANE":"１４４巷","ALLEY":" ","HOUSE_NO":"１８號五樓之７","E_COORD97":167888.07999999999,"N_COORD97":2547117.6400000001,"ADDRESS":"府安路五段１４４巷１８號五樓之７","OBJECTID":338491},"geometry":{"x":167888.08000000101,"y":2547117.6400000025}},{"attributes":{"ID":338501,"DIS_CODE":0,"TOWNNAME":"安南區","LI":"溪東里","LIN":"1鄰","STREET":"府安路","SECT":"五段","MAREA":" ","LANE":"１４４巷","ALLEY":" ","HOUSE_NO":"１８號五樓之８","E_COORD97":167888.07999999999,"N_COORD97":2547117.6400000001,"ADDRESS":"府安路五段１４４巷１８號五樓之８","OBJECTID":338492},"geometry":{"x":167888.08000000101,"y":2547117.6400000025}},{"attributes":{"ID":338502,"DIS_CODE":0,"TOWNNAME":"安南區","LI":"溪東里","LIN":"1鄰","STREET":"府安路","SECT":"五段","MAREA":" ","LANE":"１４４巷","ALLEY":" ","HOUSE_NO":"１８號五樓之９","E_COORD97":167888.07999999999,"N_COORD97":2547117.6400000001,"ADDRESS":"府安路五段１４４巷１８號五樓之９","OBJECTID":338493},"geometry":{"x":167888.08000000101,"y":2547117.6400000025}},{"attributes":{"ID":338503,"DIS_CODE":0,"TOWNNAME":"安南區","LI":"溪東里","LIN":"1鄰","STREET":"府安路","SECT":"五段","MAREA":" ","LANE":"１４４巷","ALLEY":" ","HOUSE_NO":"１８號四樓之１","E_COORD97":167888.07999999999,"N_COORD97":2547117.6400000001,"ADDRESS":"府安路五段１４４巷１８號四樓之１","OBJECTID":338494},"geometry":{"x":167888.08000000101,"y":2547117.6400000025}},{"attributes":{"ID":338504,"DIS_CODE":0,"TOWNNAME":"安南區","LI":"溪東里","LIN":"1鄰","STREET":"府安路","SECT":"五段","MAREA":" ","LANE":"１４４巷","ALLEY":" ","HOUSE_NO":"１８號四樓之２","E_COORD97":167888.07999999999,"N_COORD97":2547117.6400000001,"ADDRESS":"府安路五段１４４巷１８號四樓之２","OBJECTID":338495},"geometry":{"x":167888.08000000101,"y":2547117.6400000025}},{"attributes":{"ID":338505,"DIS_CODE":0,"TOWNNAME":"安南區","LI":"溪東里","LIN":"1鄰","STREET":"府安路","SECT":"五段","MAREA":" ","LANE":"１４４巷","ALLEY":" ","HOUSE_NO":"１８號四樓之３","E_COORD97":167888.07999999999,"N_COORD97":2547117.6400000001,"ADDRESS":"府安路五段１４４巷１８號四樓之３","OBJECTID":338496},"geometry":{"x":167888.08000000101,"y":2547117.6400000025}},{"attributes":{"ID":338506,"DIS_CODE":0,"TOWNNAME":"安南區","LI":"溪東里","LIN":"1鄰","STREET":"府安路","SECT":"五段","MAREA":" ","LANE":"１４４巷","ALLEY":" ","HOUSE_NO":"１８號四樓之５","E_COORD97":167888.07999999999,"N_COORD97":2547117.6400000001,"ADDRESS":"府安路五段１４４巷１８號四樓之５","OBJECTID":338497},"geometry":{"x":167888.08000000101,"y":2547117.6400000025}},{"attributes":{"ID":338507,"DIS_CODE":0,"TOWNNAME":"安南區","LI":"溪東里","LIN":"1鄰","STREET":"府安路","SECT":"五段","MAREA":" ","LANE":"１４４巷","ALLEY":" ","HOUSE_NO":"１８號四樓之６","E_COORD97":167888.07999999999,"N_COORD97":2547117.6400000001,"ADDRESS":"府安路五段１４４巷１８號四樓之６","OBJECTID":338498},"geometry":{"x":167888.08000000101,"y":2547117.6400000025}},{"attributes":{"ID":338508,"DIS_CODE":0,"TOWNNAME":"安南區","LI":"溪東里","LIN":"1鄰","STREET":"府安路","SECT":"五段","MAREA":" ","LANE":"１４４巷","ALLEY":" ","HOUSE_NO":"２０號二樓之１","E_COORD97":167904.94,"N_COORD97":2547126.75,"ADDRESS":"府安路五段１４４巷２０號二樓之１","OBJECTID":338499},"geometry":{"x":167904.94000000041,"y":2547126.75}},{"attributes":{"ID":338509,"DIS_CODE":0,"TOWNNAME":"安南區","LI":"溪東里","LIN":"1鄰","STREET":"府安路","SECT":"五段","MAREA":" ","LANE":"１４４巷","ALLEY":" ","HOUSE_NO":"２０號二樓之２","E_COORD97":167904.94,"N_COORD97":2547126.75,"ADDRESS":"府安路五段１４４巷２０號二樓之２","OBJECTID":338500},"geometry":{"x":167904.94000000041,"y":2547126.75}},{"attributes":{"ID":338510,"DIS_CODE":0,"TOWNNAME":"安南區","LI":"溪東里","LIN":"1鄰","STREET":"府安路","SECT":"五段","MAREA":" ","LANE":"１４４巷","ALLEY":" ","HOUSE_NO":"２０號三樓","E_COORD97":167904.94,"N_COORD97":2547126.75,"ADDRESS":"府安路五段１４４巷２０號三樓","OBJECTID":338501},"geometry":{"x":167904.94000000041,"y":2547126.75}},{"attributes":{"ID":338511,"DIS_CODE":0,"TOWNNAME":"北區","LI":"延平里","LIN":"1鄰","STREET":"公園路","SECT":" ","MAREA":" ","LANE":"６３４巷","ALLEY":" ","HOUSE_NO":"３１號五樓","E_COORD97":169131.32000000001,"N_COORD97":2545360.8300000001,"ADDRESS":"公園路６３４巷３１號五樓","OBJECTID":338502},"geometry":{"x":169131.3200000003,"y":2545360.8300000001}},{"attributes":{"ID":338512,"DIS_CODE":0,"TOWNNAME":"安南區","LI":"溪東里","LIN":"1鄰","STREET":"府安路","SECT":"五段","MAREA":" ","LANE":"１４４巷","ALLEY":" ","HOUSE_NO":"２０號五樓之１","E_COORD97":167904.94,"N_COORD97":2547126.75,"ADDRESS":"府安路五段１４４巷２０號五樓之１","OBJECTID":338503},"geometry":{"x":167904.94000000041,"y":2547126.75}},{"attributes":{"ID":338513,"DIS_CODE":0,"TOWNNAME":"安南區","LI":"溪東里","LIN":"1鄰","STREET":"府安路","SECT":"五段","MAREA":" ","LANE":"１４４巷","ALLEY":" ","HOUSE_NO":"２０號五樓之２","E_COORD97":167904.94,"N_COORD97":2547126.75,"ADDRESS":"府安路五段１４４巷２０號五樓之２","OBJECTID":338504},"geometry":{"x":167904.94000000041,"y":2547126.75}},{"attributes":{"ID":338514,"DIS_CODE":0,"TOWNNAME":"安南區","LI":"溪東里","LIN":"1鄰","STREET":"府安路","SECT":"五段","MAREA":" ","LANE":"１４４巷","ALLEY":" ","HOUSE_NO":"２０號四樓","E_COORD97":167904.94,"N_COORD97":2547126.75,"ADDRESS":"府安路五段１４４巷２０號四樓","OBJECTID":338505},"geometry":{"x":167904.94000000041,"y":2547126.75}},{"attributes":{"ID":338515,"DIS_CODE":0,"TOWNNAME":"安南區","LI":"溪東里","LIN":"1鄰","STREET":"府安路","SECT":"五段","MAREA":" ","LANE":"１４４巷","ALLEY":" ","HOUSE_NO":"２６號二樓之１","E_COORD97":167906.26999999999,"N_COORD97":2547101.3300000001,"ADDRESS":"府安路五段１４４巷２６號二樓之１","OBJECTID":338506},"geometry":{"x":167906.27000000048,"y":2547101.3300000019}},{"attributes":{"ID":338516,"DIS_CODE":0,"TOWNNAME":"安南區","LI":"溪東里","LIN":"1鄰","STREET":"府安路","SECT":"五段","MAREA":" ","LANE":"１４４巷","ALLEY":" ","HOUSE_NO":"２６號二樓之２","E_COORD97":167906.26999999999,"N_COORD97":2547101.3300000001,"ADDRESS":"府安路五段１４４巷２６號二樓之２","OBJECTID":338507},"geometry":{"x":167906.27000000048,"y":2547101.3300000019}},{"attributes":{"ID":338517,"DIS_CODE":0,"TOWNNAME":"安南區","LI":"溪東里","LIN":"1鄰","STREET":"府安路","SECT":"五段","MAREA":" ","LANE":"１４４巷","ALLEY":" ","HOUSE_NO":"２６號三樓","E_COORD97":167906.26999999999,"N_COORD97":2547101.3300000001,"ADDRESS":"府安路五段１４４巷２６號三樓","OBJECTID":338508},"geometry":{"x":167906.27000000048,"y":2547101.3300000019}},{"attributes":{"ID":338518,"DIS_CODE":0,"TOWNNAME":"安南區","LI":"溪東里","LIN":"1鄰","STREET":"府安路","SECT":"五段","MAREA":" ","LANE":"１４４巷","ALLEY":" ","HOUSE_NO":"２６號五樓之１","E_COORD97":167906.26999999999,"N_COORD97":2547101.3300000001,"ADDRESS":"府安路五段１４４巷２６號五樓之１","OBJECTID":338509},"geometry":{"x":167906.27000000048,"y":2547101.3300000019}},{"attributes":{"ID":338519,"DIS_CODE":0,"TOWNNAME":"安南區","LI":"理想里","LIN":"1鄰","STREET":"同安路","SECT":" ","MAREA":" ","LANE":"３６巷","ALLEY":" ","HOUSE_NO":"５號","E_COORD97":166868,"N_COORD97":2548834.8199999998,"ADDRESS":"同安路３６巷５號","OBJECTID":338510},"geometry":{"x":166868.00000000093,"y":2548834.8200000022}},{"attributes":{"ID":338520,"DIS_CODE":0,"TOWNNAME":"安南區","LI":"溪東里","LIN":"1鄰","STREET":"府安路","SECT":"五段","MAREA":" ","LANE":"１４４巷","ALLEY":" ","HOUSE_NO":"２６號五樓之２","E_COORD97":167906.26999999999,"N_COORD97":2547101.3300000001,"ADDRESS":"府安路五段１４４巷２６號五樓之２","OBJECTID":338511},"geometry":{"x":167906.27000000048,"y":2547101.3300000019}},{"attributes":{"ID":338521,"DIS_CODE":0,"TOWNNAME":"安南區","LI":"溪東里","LIN":"1鄰","STREET":"府安路","SECT":"五段","MAREA":" ","LANE":"１４４巷","ALLEY":" ","HOUSE_NO":"２６號四樓","E_COORD97":167906.26999999999,"N_COORD97":2547101.3300000001,"ADDRESS":"府安路五段１４４巷２６號四樓","OBJECTID":338512},"geometry":{"x":167906.27000000048,"y":2547101.3300000019}},{"attributes":{"ID":338522,"DIS_CODE":0,"TOWNNAME":"中西區","LI":"銀同里","LIN":"1鄰","STREET":"開山路","SECT":" ","MAREA":" ","LANE":"１０９巷","ALLEY":" ","HOUSE_NO":"６號之１五樓之１","E_COORD97":168774.26999999999,"N_COORD97":2543335.98,"ADDRESS":"開山路１０９巷６號之１五樓之１","OBJECTID":338513},"geometry":{"x":168774.27000000048,"y":2543335.9800000004}},{"attributes":{"ID":338523,"DIS_CODE":0,"TOWNNAME":"中西區","LI":"銀同里","LIN":"1鄰","STREET":"開山路","SECT":" ","MAREA":" ","LANE":"１０９巷","ALLEY":" ","HOUSE_NO":"６號之１五樓之２","E_COORD97":168774.26999999999,"N_COORD97":2543335.98,"ADDRESS":"開山路１０９巷６號之１五樓之２","OBJECTID":338514},"geometry":{"x":168774.27000000048,"y":2543335.9800000004}},{"attributes":{"ID":338524,"DIS_CODE":0,"TOWNNAME":"中西區","LI":"銀同里","LIN":"1鄰","STREET":"開山路","SECT":" ","MAREA":" ","LANE":"１０９巷","ALLEY":" ","HOUSE_NO":"６號之１四樓之１","E_COORD97":168774.26999999999,"N_COORD97":2543335.98,"ADDRESS":"開山路１０９巷６號之１四樓之１","OBJECTID":338515},"geometry":{"x":168774.27000000048,"y":2543335.9800000004}},{"attributes":{"ID":338525,"DIS_CODE":0,"TOWNNAME":"中西區","LI":"銀同里","LIN":"1鄰","STREET":"開山路","SECT":" ","MAREA":" ","LANE":"１０９巷","ALLEY":" ","HOUSE_NO":"６號之１四樓之２","E_COORD97":168774.26999999999,"N_COORD97":2543335.98,"ADDRESS":"開山路１０９巷６號之１四樓之２","OBJECTID":338516},"geometry":{"x":168774.27000000048,"y":2543335.9800000004}},{"attributes":{"ID":338526,"DIS_CODE":0,"TOWNNAME":"安南區","LI":"溪東里","LIN":"1鄰","STREET":"府安路","SECT":"五段","MAREA":" ","LANE":"１４４巷","ALLEY":" ","HOUSE_NO":"１８號三樓之４","E_COORD97":167888.07999999999,"N_COORD97":2547117.6400000001,"ADDRESS":"府安路五段１４４巷１８號三樓之４","OBJECTID":338517},"geometry":{"x":167888.08000000101,"y":2547117.6400000025}},{"attributes":{"ID":338527,"DIS_CODE":0,"TOWNNAME":"東區","LI":"東光里","LIN":"1鄰","STREET":"東光路","SECT":"一段","MAREA":" ","LANE":"５巷","ALLEY":" ","HOUSE_NO":"２６號二樓","E_COORD97":171054.28,"N_COORD97":2543382.29,"ADDRESS":"東光路一段５巷２６號二樓","OBJECTID":338518},"geometry":{"x":171054.28000000026,"y":2543382.2899999991}},{"attributes":{"ID":338528,"DIS_CODE":0,"TOWNNAME":"東區","LI":"東光里","LIN":"1鄰","STREET":"東光路","SECT":"一段","MAREA":" ","LANE":"５巷","ALLEY":" ","HOUSE_NO":"２６號三樓","E_COORD97":171054.28,"N_COORD97":2543382.29,"ADDRESS":"東光路一段５巷２６號三樓","OBJECTID":338519},"geometry":{"x":171054.28000000026,"y":2543382.2899999991}},{"attributes":{"ID":338529,"DIS_CODE":0,"TOWNNAME":"東區","LI":"東光里","LIN":"1鄰","STREET":"東光路","SECT":"一段","MAREA":" ","LANE":"５巷","ALLEY":" ","HOUSE_NO":"２６號四樓","E_COORD97":171054.28,"N_COORD97":2543382.29,"ADDRESS":"東光路一段５巷２６號四樓","OBJECTID":338520},"geometry":{"x":171054.28000000026,"y":2543382.2899999991}},{"attributes":{"ID":338530,"DIS_CODE":0,"TOWNNAME":"永康區","LI":"五王里","LIN":"1鄰","STREET":"中華二路","SECT":" ","MAREA":" ","LANE":"２０６巷","ALLEY":" ","HOUSE_NO":"２號五樓之２","E_COORD97":171609.98000000001,"N_COORD97":2545460.3100000001,"ADDRESS":"中華二路２０６巷２號五樓之２","OBJECTID":338521},"geometry":{"x":171609.98000000138,"y":2545460.3100000042}},{"attributes":{"ID":338531,"DIS_CODE":0,"TOWNNAME":"永康區","LI":"安康里","LIN":"1鄰","STREET":"中華路","SECT":" ","MAREA":" ","LANE":"７２７巷","ALLEY":" ","HOUSE_NO":"１６號八樓之３","E_COORD97":170790.76000000001,"N_COORD97":2546399.8300000001,"ADDRESS":"中華路７２７巷１６號八樓之３","OBJECTID":338522},"geometry":{"x":170790.75999999978,"y":2546399.8300000019}},{"attributes":{"ID":338532,"DIS_CODE":0,"TOWNNAME":"永康區","LI":"五王里","LIN":"1鄰","STREET":"中華二路","SECT":" ","MAREA":" ","LANE":"２０６巷","ALLEY":" ","HOUSE_NO":"２號三樓之３","E_COORD97":171609.95000000001,"N_COORD97":2545460.3100000001,"ADDRESS":"中華二路２０６巷２號三樓之３","OBJECTID":338523},"geometry":{"x":171609.95000000112,"y":2545460.3100000042}},{"attributes":{"ID":338533,"DIS_CODE":0,"TOWNNAME":"永康區","LI":"安康里","LIN":"1鄰","STREET":"中華路","SECT":" ","MAREA":" ","LANE":"７２７巷","ALLEY":" ","HOUSE_NO":"１６號六樓之９","E_COORD97":170790.73999999999,"N_COORD97":2546399.8300000001,"ADDRESS":"中華路７２７巷１６號六樓之９","OBJECTID":338524},"geometry":{"x":170790.74000000115,"y":2546399.8300000019}},{"attributes":{"ID":338534,"DIS_CODE":0,"TOWNNAME":"永康區","LI":"安康里","LIN":"1鄰","STREET":"中華路","SECT":" ","MAREA":" ","LANE":"７２７巷","ALLEY":" ","HOUSE_NO":"１６號六樓之３","E_COORD97":170790.76000000001,"N_COORD97":2546399.8300000001,"ADDRESS":"中華路７２７巷１６號六樓之３","OBJECTID":338525},"geometry":{"x":170790.75999999978,"y":2546399.8300000019}},{"attributes":{"ID":338535,"DIS_CODE":0,"TOWNNAME":"永康區","LI":"安康里","LIN":"1鄰","STREET":"中華路","SECT":" ","MAREA":" ","LANE":"７２７巷","ALLEY":" ","HOUSE_NO":"１６號十四樓之１","E_COORD97":170791.91,"N_COORD97":2546399.8300000001,"ADDRESS":"中華路７２７巷１６號十四樓之１","OBJECTID":338526},"geometry":{"x":170791.91000000015,"y":2546399.8300000019}},{"attributes":{"ID":338536,"DIS_CODE":0,"TOWNNAME":"永康區","LI":"安康里","LIN":"1鄰","STREET":"中華路","SECT":" ","MAREA":" ","LANE":"７２７巷","ALLEY":" ","HOUSE_NO":"１６號十四樓之３","E_COORD97":170792.01000000001,"N_COORD97":2546399.8300000001,"ADDRESS":"中華路７２７巷１６號十四樓之３","OBJECTID":338527},"geometry":{"x":170792.01000000071,"y":2546399.8300000019}},{"attributes":{"ID":338537,"DIS_CODE":0,"TOWNNAME":"永康區","LI":"安康里","LIN":"1鄰","STREET":"中華路","SECT":" ","MAREA":" ","LANE":"７２７巷","ALLEY":" ","HOUSE_NO":"１６號四樓之９","E_COORD97":170790.73999999999,"N_COORD97":2546399.8300000001,"ADDRESS":"中華路７２７巷１６號四樓之９","OBJECTID":338528},"geometry":{"x":170790.74000000115,"y":2546399.8300000019}},{"attributes":{"ID":338538,"DIS_CODE":0,"TOWNNAME":"永康區","LI":"安康里","LIN":"1鄰","STREET":"中華路","SECT":" ","MAREA":" ","LANE":"７２７巷","ALLEY":" ","HOUSE_NO":"１６號十三樓之９","E_COORD97":170791.98999999999,"N_COORD97":2546399.8300000001,"ADDRESS":"中華路７２７巷１６號十三樓之９","OBJECTID":338529},"geometry":{"x":170791.99000000209,"y":2546399.8300000019}},{"attributes":{"ID":338539,"DIS_CODE":0,"TOWNNAME":"中西區","LI":"保安里","LIN":"1鄰","STREET":"西門路","SECT":"二段","MAREA":" ","LANE":"５９巷","ALLEY":" ","HOUSE_NO":"１２號二樓之２","E_COORD97":167734.35000000001,"N_COORD97":2543566.5,"ADDRESS":"西門路二段５９巷１２號二樓之２","OBJECTID":338530},"geometry":{"x":167734.35000000056,"y":2543566.5000000037}},{"attributes":{"ID":338540,"DIS_CODE":0,"TOWNNAME":"中西區","LI":"保安里","LIN":"1鄰","STREET":"西門路","SECT":"二段","MAREA":" ","LANE":"５９巷","ALLEY":" ","HOUSE_NO":"１２號三樓之２","E_COORD97":167734.35000000001,"N_COORD97":2543566.5,"ADDRESS":"西門路二段５９巷１２號三樓之２","OBJECTID":338531},"geometry":{"x":167734.35000000056,"y":2543566.5000000037}},{"attributes":{"ID":338541,"DIS_CODE":0,"TOWNNAME":"中西區","LI":"保安里","LIN":"1鄰","STREET":"西門路","SECT":"二段","MAREA":" ","LANE":"５９巷","ALLEY":" ","HOUSE_NO":"１２號四樓之１","E_COORD97":167734.35000000001,"N_COORD97":2543566.5,"ADDRESS":"西門路二段５９巷１２號四樓之１","OBJECTID":338532},"geometry":{"x":167734.35000000056,"y":2543566.5000000037}},{"attributes":{"ID":338542,"DIS_CODE":0,"TOWNNAME":"中西區","LI":"保安里","LIN":"1鄰","STREET":"西門路","SECT":"二段","MAREA":" ","LANE":"５９巷","ALLEY":" ","HOUSE_NO":"１２號四樓之２","E_COORD97":167734.35000000001,"N_COORD97":2543566.5,"ADDRESS":"西門路二段５９巷１２號四樓之２","OBJECTID":338533},"geometry":{"x":167734.35000000056,"y":2543566.5000000037}},{"attributes":{"ID":338543,"DIS_CODE":0,"TOWNNAME":"永康區","LI":"蔦松里","LIN":"1鄰","STREET":"蔦松二街","SECT":" ","MAREA":" ","LANE":"８７巷","ALLEY":" ","HOUSE_NO":"６２號五樓之１","E_COORD97":173620.59,"N_COORD97":2549243.7999999998,"ADDRESS":"蔦松二街８７巷６２號五樓之１","OBJECTID":338534},"geometry":{"x":173620.59000000078,"y":2549243.8000000007}},{"attributes":{"ID":338544,"DIS_CODE":0,"TOWNNAME":"永康區","LI":"蔦松里","LIN":"1鄰","STREET":"蔦松二街","SECT":" ","MAREA":" ","LANE":"８７巷","ALLEY":" ","HOUSE_NO":"６２號七樓之１","E_COORD97":173620.59,"N_COORD97":2549243.7999999998,"ADDRESS":"蔦松二街８７巷６２號七樓之１","OBJECTID":338535},"geometry":{"x":173620.59000000078,"y":2549243.8000000007}},{"attributes":{"ID":338545,"DIS_CODE":0,"TOWNNAME":"永康區","LI":"蔦松里","LIN":"1鄰","STREET":"蔦松二街","SECT":" ","MAREA":" ","LANE":"８７巷","ALLEY":" ","HOUSE_NO":"６２號四樓之１","E_COORD97":173620.59,"N_COORD97":2549243.7999999998,"ADDRESS":"蔦松二街８７巷６２號四樓之１","OBJECTID":338536},"geometry":{"x":173620.59000000078,"y":2549243.8000000007}},{"attributes":{"ID":338546,"DIS_CODE":0,"TOWNNAME":"永康區","LI":"蔦松里","LIN":"1鄰","STREET":"蔦松二街","SECT":" ","MAREA":" ","LANE":"８７巷","ALLEY":" ","HOUSE_NO":"６２號三樓之３","E_COORD97":173620.67999999999,"N_COORD97":2549243.7999999998,"ADDRESS":"蔦松二街８７巷６２號三樓之３","OBJECTID":338537},"geometry":{"x":173620.6799999997,"y":2549243.8000000007}},{"attributes":{"ID":338547,"DIS_CODE":0,"TOWNNAME":"永康區","LI":"蔦松里","LIN":"1鄰","STREET":"蔦松二街","SECT":" ","MAREA":" ","LANE":"８７巷","ALLEY":" ","HOUSE_NO":"６２號四樓之３","E_COORD97":173620.67999999999,"N_COORD97":2549243.7999999998,"ADDRESS":"蔦松二街８７巷６２號四樓之３","OBJECTID":338538},"geometry":{"x":173620.6799999997,"y":2549243.8000000007}},{"attributes":{"ID":338548,"DIS_CODE":0,"TOWNNAME":"東區","LI":"崇信里","LIN":"1鄰","STREET":"東門路","SECT":"二段","MAREA":" ","LANE":"３９０巷","ALLEY":" ","HOUSE_NO":"１２號四樓","E_COORD97":170789.10999999999,"N_COORD97":2542500.3399999999,"ADDRESS":"東門路二段３９０巷１２號四樓","OBJECTID":338539},"geometry":{"x":170789.11000000034,"y":2542500.3400000017}},{"attributes":{"ID":338549,"DIS_CODE":0,"TOWNNAME":"東區","LI":"崇信里","LIN":"1鄰","STREET":"東門路","SECT":"二段","MAREA":" ","LANE":"３９０巷","ALLEY":" ","HOUSE_NO":"１４號三樓","E_COORD97":170786.06,"N_COORD97":2542496.5600000001,"ADDRESS":"東門路二段３９０巷１４號三樓","OBJECTID":338540},"geometry":{"x":170786.06000000052,"y":2542496.5600000024}},{"attributes":{"ID":338550,"DIS_CODE":0,"TOWNNAME":"下營區","LI":"宅內里","LIN":"1鄰","STREET":"友愛街","SECT":" ","MAREA":" ","LANE":"９０巷","ALLEY":" ","HOUSE_NO":"１號","E_COORD97":174215.81,"N_COORD97":2570514.9900000002,"ADDRESS":"友愛街９０巷１號","OBJECTID":338541},"geometry":{"x":174215.81000000052,"y":2570514.9900000021}},{"attributes":{"ID":338551,"DIS_CODE":0,"TOWNNAME":"東區","LI":"崇信里","LIN":"1鄰","STREET":"東門路","SECT":"二段","MAREA":" ","LANE":"３９０巷","ALLEY":" ","HOUSE_NO":"１４號五樓","E_COORD97":170786.06,"N_COORD97":2542496.5600000001,"ADDRESS":"東門路二段３９０巷１４號五樓","OBJECTID":338542},"geometry":{"x":170786.06000000052,"y":2542496.5600000024}},{"attributes":{"ID":338552,"DIS_CODE":0,"TOWNNAME":"東區","LI":"崇信里","LIN":"1鄰","STREET":"東門路","SECT":"二段","MAREA":" ","LANE":"３９０巷","ALLEY":" ","HOUSE_NO":"１４號四樓","E_COORD97":170786.06,"N_COORD97":2542496.5600000001,"ADDRESS":"東門路二段３９０巷１４號四樓","OBJECTID":338543},"geometry":{"x":170786.06000000052,"y":2542496.5600000024}},{"attributes":{"ID":338553,"DIS_CODE":0,"TOWNNAME":"東區","LI":"崇信里","LIN":"1鄰","STREET":"東門路","SECT":"二段","MAREA":" ","LANE":"３９０巷","ALLEY":" ","HOUSE_NO":"６號三樓之１","E_COORD97":170798.70999999999,"N_COORD97":2542512.3900000001,"ADDRESS":"東門路二段３９０巷６號三樓之１","OBJECTID":338544},"geometry":{"x":170798.71000000183,"y":2542512.3900000006}},{"attributes":{"ID":338554,"DIS_CODE":0,"TOWNNAME":"東區","LI":"崇信里","LIN":"1鄰","STREET":"東門路","SECT":"二段","MAREA":" ","LANE":"３９０巷","ALLEY":" ","HOUSE_NO":"６號三樓之２","E_COORD97":170798.70999999999,"N_COORD97":2542512.3900000001,"ADDRESS":"東門路二段３９０巷６號三樓之２","OBJECTID":338545},"geometry":{"x":170798.71000000183,"y":2542512.3900000006}},{"attributes":{"ID":338555,"DIS_CODE":0,"TOWNNAME":"東區","LI":"崇信里","LIN":"1鄰","STREET":"東門路","SECT":"二段","MAREA":" ","LANE":"３９０巷","ALLEY":" ","HOUSE_NO":"６號五樓","E_COORD97":170798.70999999999,"N_COORD97":2542512.3900000001,"ADDRESS":"東門路二段３９０巷６號五樓","OBJECTID":338546},"geometry":{"x":170798.71000000183,"y":2542512.3900000006}},{"attributes":{"ID":338556,"DIS_CODE":0,"TOWNNAME":"東區","LI":"崇信里","LIN":"1鄰","STREET":"東門路","SECT":"二段","MAREA":" ","LANE":"３９０巷","ALLEY":" ","HOUSE_NO":"６號四樓","E_COORD97":170798.70999999999,"N_COORD97":2542512.3900000001,"ADDRESS":"東門路二段３９０巷６號四樓","OBJECTID":338547},"geometry":{"x":170798.71000000183,"y":2542512.3900000006}},{"attributes":{"ID":338557,"DIS_CODE":0,"TOWNNAME":"東區","LI":"崇信里","LIN":"1鄰","STREET":"東門路","SECT":"二段","MAREA":" ","LANE":"３９０巷","ALLEY":" ","HOUSE_NO":"８號二樓","E_COORD97":170795.51000000001,"N_COORD97":2542508.0299999998,"ADDRESS":"東門路二段３９０巷８號二樓","OBJECTID":338548},"geometry":{"x":170795.51000000071,"y":2542508.0300000031}},{"attributes":{"ID":338558,"DIS_CODE":0,"TOWNNAME":"麻豆區","LI":"巷口里","LIN":"1鄰","STREET":"興南路","SECT":" ","MAREA":" ","LANE":"３８巷","ALLEY":" ","HOUSE_NO":"７號之１二樓","E_COORD97":173147.53,"N_COORD97":2564663.2000000002,"ADDRESS":"興南路３８巷７號之１二樓","OBJECTID":338549},"geometry":{"x":173147.53000000026,"y":2564663.2000000011}},{"attributes":{"ID":338559,"DIS_CODE":0,"TOWNNAME":"永康區","LI":"安康里","LIN":"1鄰","STREET":"中華路","SECT":" ","MAREA":" ","LANE":"７２７巷","ALLEY":" ","HOUSE_NO":"１６號十四樓之９","E_COORD97":170791.98999999999,"N_COORD97":2546399.8300000001,"ADDRESS":"中華路７２７巷１６號十四樓之９","OBJECTID":338550},"geometry":{"x":170791.99000000209,"y":2546399.8300000019}},{"attributes":{"ID":338560,"DIS_CODE":0,"TOWNNAME":"永康區","LI":"五王里","LIN":"1鄰","STREET":"中華二路","SECT":" ","MAREA":" ","LANE":"２０６巷","ALLEY":" ","HOUSE_NO":"２號六樓之３","E_COORD97":171609.95000000001,"N_COORD97":2545460.3100000001,"ADDRESS":"中華二路２０６巷２號六樓之３","OBJECTID":338551},"geometry":{"x":171609.95000000112,"y":2545460.3100000042}},{"attributes":{"ID":338561,"DIS_CODE":0,"TOWNNAME":"永康區","LI":"蔦松里","LIN":"1鄰","STREET":"蔦松二街","SECT":" ","MAREA":" ","LANE":"８７巷","ALLEY":" ","HOUSE_NO":"６２號六樓之３","E_COORD97":173620.67999999999,"N_COORD97":2549243.7999999998,"ADDRESS":"蔦松二街８７巷６２號六樓之３","OBJECTID":338552},"geometry":{"x":173620.6799999997,"y":2549243.8000000007}},{"attributes":{"ID":338562,"DIS_CODE":0,"TOWNNAME":"永康區","LI":"安康里","LIN":"1鄰","STREET":"中華路","SECT":" ","MAREA":" ","LANE":"７２７巷","ALLEY":" ","HOUSE_NO":"１６號八樓之７","E_COORD97":170790.73999999999,"N_COORD97":2546399.8300000001,"ADDRESS":"中華路７２７巷１６號八樓之７","OBJECTID":338553},"geometry":{"x":170790.74000000115,"y":2546399.8300000019}},{"attributes":{"ID":338563,"DIS_CODE":0,"TOWNNAME":"永康區","LI":"安康里","LIN":"1鄰","STREET":"中華路","SECT":" ","MAREA":" ","LANE":"７２７巷","ALLEY":" ","HOUSE_NO":"１６號三樓之１","E_COORD97":170790.66,"N_COORD97":2546399.8300000001,"ADDRESS":"中華路７２７巷１６號三樓之１","OBJECTID":338554},"geometry":{"x":170790.65999999922,"y":2546399.8300000019}},{"attributes":{"ID":338564,"DIS_CODE":0,"TOWNNAME":"永康區","LI":"安康里","LIN":"1鄰","STREET":"中華路","SECT":" ","MAREA":" ","LANE":"７２７巷","ALLEY":" ","HOUSE_NO":"１６號九樓之８","E_COORD97":170790.81,"N_COORD97":2546399.8300000001,"ADDRESS":"中華路７２７巷１６號九樓之８","OBJECTID":338555},"geometry":{"x":170790.81000000145,"y":2546399.8300000019}},{"attributes":{"ID":338565,"DIS_CODE":0,"TOWNNAME":"永康區","LI":"安康里","LIN":"1鄰","STREET":"中華路","SECT":" ","MAREA":" ","LANE":"７２７巷","ALLEY":" ","HOUSE_NO":"１６號十三樓之３","E_COORD97":170792.01000000001,"N_COORD97":2546399.8300000001,"ADDRESS":"中華路７２７巷１６號十三樓之３","OBJECTID":338556},"geometry":{"x":170792.01000000071,"y":2546399.8300000019}},{"attributes":{"ID":338566,"DIS_CODE":0,"TOWNNAME":"永康區","LI":"安康里","LIN":"1鄰","STREET":"中華路","SECT":" ","MAREA":" ","LANE":"７２７巷","ALLEY":" ","HOUSE_NO":"１６號十樓之９","E_COORD97":170790.73999999999,"N_COORD97":2546399.8300000001,"ADDRESS":"中華路７２７巷１６號十樓之９","OBJECTID":338557},"geometry":{"x":170790.74000000115,"y":2546399.8300000019}},{"attributes":{"ID":338567,"DIS_CODE":0,"TOWNNAME":"永康區","LI":"安康里","LIN":"1鄰","STREET":"中華路","SECT":" ","MAREA":" ","LANE":"７２７巷","ALLEY":" ","HOUSE_NO":"１６號四樓之７","E_COORD97":170790.73999999999,"N_COORD97":2546399.8300000001,"ADDRESS":"中華路７２７巷１６號四樓之７","OBJECTID":338558},"geometry":{"x":170790.74000000115,"y":2546399.8300000019}},{"attributes":{"ID":338568,"DIS_CODE":0,"TOWNNAME":"永康區","LI":"安康里","LIN":"1鄰","STREET":"中華路","SECT":" ","MAREA":" ","LANE":"７２７巷","ALLEY":" ","HOUSE_NO":"１６號三樓之８","E_COORD97":170790.81,"N_COORD97":2546399.8300000001,"ADDRESS":"中華路７２７巷１６號三樓之８","OBJECTID":338559},"geometry":{"x":170790.81000000145,"y":2546399.8300000019}},{"attributes":{"ID":338569,"DIS_CODE":0,"TOWNNAME":"永康區","LI":"安康里","LIN":"1鄰","STREET":"中華路","SECT":" ","MAREA":" ","LANE":"７２７巷","ALLEY":" ","HOUSE_NO":"１６號七樓之５","E_COORD97":170790.81,"N_COORD97":2546399.8300000001,"ADDRESS":"中華路７２７巷１６號七樓之５","OBJECTID":338560},"geometry":{"x":170790.81000000145,"y":2546399.8300000019}},{"attributes":{"ID":338570,"DIS_CODE":0,"TOWNNAME":"永康區","LI":"安康里","LIN":"1鄰","STREET":"中華路","SECT":" ","MAREA":" ","LANE":"７２７巷","ALLEY":" ","HOUSE_NO":"１６號七樓之７","E_COORD97":170790.73999999999,"N_COORD97":2546399.8300000001,"ADDRESS":"中華路７２７巷１６號七樓之７","OBJECTID":338561},"geometry":{"x":170790.74000000115,"y":2546399.8300000019}},{"attributes":{"ID":338571,"DIS_CODE":0,"TOWNNAME":"永康區","LI":"安康里","LIN":"1鄰","STREET":"中華路","SECT":" ","MAREA":" ","LANE":"７２７巷","ALLEY":" ","HOUSE_NO":"１６號六樓之５","E_COORD97":170790.81,"N_COORD97":2546399.8300000001,"ADDRESS":"中華路７２７巷１６號六樓之５","OBJECTID":338562},"geometry":{"x":170790.81000000145,"y":2546399.8300000019}},{"attributes":{"ID":338572,"DIS_CODE":0,"TOWNNAME":"永康區","LI":"安康里","LIN":"1鄰","STREET":"中華路","SECT":" ","MAREA":" ","LANE":"７２７巷","ALLEY":" ","HOUSE_NO":"１６號十三樓之７","E_COORD97":170791.98999999999,"N_COORD97":2546399.8300000001,"ADDRESS":"中華路７２７巷１６號十三樓之７","OBJECTID":338563},"geometry":{"x":170791.99000000209,"y":2546399.8300000019}},{"attributes":{"ID":338573,"DIS_CODE":0,"TOWNNAME":"永康區","LI":"安康里","LIN":"1鄰","STREET":"中華路","SECT":" ","MAREA":" ","LANE":"７２７巷","ALLEY":" ","HOUSE_NO":"１６號九樓之１","E_COORD97":170790.66,"N_COORD97":2546399.8300000001,"ADDRESS":"中華路７２７巷１６號九樓之１","OBJECTID":338564},"geometry":{"x":170790.65999999922,"y":2546399.8300000019}},{"attributes":{"ID":338574,"DIS_CODE":0,"TOWNNAME":"永康區","LI":"五王里","LIN":"1鄰","STREET":"中華二路","SECT":" ","MAREA":" ","LANE":"２０６巷","ALLEY":" ","HOUSE_NO":"２號四樓之５","E_COORD97":171610,"N_COORD97":2545460.3100000001,"ADDRESS":"中華二路２０６巷２號四樓之５","OBJECTID":338565},"geometry":{"x":171610,"y":2545460.3100000042}},{"attributes":{"ID":338575,"DIS_CODE":0,"TOWNNAME":"永康區","LI":"安康里","LIN":"1鄰","STREET":"中華路","SECT":" ","MAREA":" ","LANE":"７２７巷","ALLEY":" ","HOUSE_NO":"１６號三樓之２","E_COORD97":170790.79000000001,"N_COORD97":2546399.8300000001,"ADDRESS":"中華路７２７巷１６號三樓之２","OBJECTID":338566},"geometry":{"x":170790.79000000004,"y":2546399.8300000019}},{"attributes":{"ID":338576,"DIS_CODE":0,"TOWNNAME":"永康區","LI":"安康里","LIN":"1鄰","STREET":"中華路","SECT":" ","MAREA":" ","LANE":"７２７巷","ALLEY":" ","HOUSE_NO":"１６號四樓之１","E_COORD97":170790.66,"N_COORD97":2546399.8300000001,"ADDRESS":"中華路７２７巷１６號四樓之１","OBJECTID":338567},"geometry":{"x":170790.65999999922,"y":2546399.8300000019}},{"attributes":{"ID":338577,"DIS_CODE":0,"TOWNNAME":"永康區","LI":"安康里","LIN":"1鄰","STREET":"中華路","SECT":" ","MAREA":" ","LANE":"７２７巷","ALLEY":" ","HOUSE_NO":"１６號十一樓之１","E_COORD97":170791.91,"N_COORD97":2546399.8300000001,"ADDRESS":"中華路７２７巷１６號十一樓之１","OBJECTID":338568},"geometry":{"x":170791.91000000015,"y":2546399.8300000019}},{"attributes":{"ID":338578,"DIS_CODE":0,"TOWNNAME":"永康區","LI":"安康里","LIN":"1鄰","STREET":"中華路","SECT":" ","MAREA":" ","LANE":"７２７巷","ALLEY":" ","HOUSE_NO":"１６號五樓之２","E_COORD97":170790.79000000001,"N_COORD97":2546399.8300000001,"ADDRESS":"中華路７２７巷１６號五樓之２","OBJECTID":338569},"geometry":{"x":170790.79000000004,"y":2546399.8300000019}},{"attributes":{"ID":338579,"DIS_CODE":0,"TOWNNAME":"永康區","LI":"安康里","LIN":"1鄰","STREET":"中華路","SECT":" ","MAREA":" ","LANE":"７２７巷","ALLEY":" ","HOUSE_NO":"１６號八樓之１","E_COORD97":170790.66,"N_COORD97":2546399.8300000001,"ADDRESS":"中華路７２７巷１６號八樓之１","OBJECTID":338570},"geometry":{"x":170790.65999999922,"y":2546399.8300000019}},{"attributes":{"ID":338580,"DIS_CODE":0,"TOWNNAME":"永康區","LI":"安康里","LIN":"1鄰","STREET":"中華路","SECT":" ","MAREA":" ","LANE":"７２７巷","ALLEY":" ","HOUSE_NO":"１６號七樓之９","E_COORD97":170790.73999999999,"N_COORD97":2546399.8300000001,"ADDRESS":"中華路７２７巷１６號七樓之９","OBJECTID":338571},"geometry":{"x":170790.74000000115,"y":2546399.8300000019}},{"attributes":{"ID":338581,"DIS_CODE":0,"TOWNNAME":"永康區","LI":"安康里","LIN":"1鄰","STREET":"中華路","SECT":" ","MAREA":" ","LANE":"７２７巷","ALLEY":" ","HOUSE_NO":"１６號九樓之６","E_COORD97":170790.76000000001,"N_COORD97":2546399.8300000001,"ADDRESS":"中華路７２７巷１６號九樓之６","OBJECTID":338572},"geometry":{"x":170790.75999999978,"y":2546399.8300000019}},{"attributes":{"ID":338582,"DIS_CODE":0,"TOWNNAME":"永康區","LI":"安康里","LIN":"1鄰","STREET":"中華路","SECT":" ","MAREA":" ","LANE":"７２７巷","ALLEY":" ","HOUSE_NO":"１６號六樓之６","E_COORD97":170790.76000000001,"N_COORD97":2546399.8300000001,"ADDRESS":"中華路７２７巷１６號六樓之６","OBJECTID":338573},"geometry":{"x":170790.75999999978,"y":2546399.8300000019}},{"attributes":{"ID":338583,"DIS_CODE":0,"TOWNNAME":"永康區","LI":"安康里","LIN":"1鄰","STREET":"中華路","SECT":" ","MAREA":" ","LANE":"７２７巷","ALLEY":" ","HOUSE_NO":"１６號五樓之１","E_COORD97":170790.66,"N_COORD97":2546399.8300000001,"ADDRESS":"中華路７２７巷１６號五樓之１","OBJECTID":338574},"geometry":{"x":170790.65999999922,"y":2546399.8300000019}},{"attributes":{"ID":338584,"DIS_CODE":0,"TOWNNAME":"永康區","LI":"安康里","LIN":"1鄰","STREET":"中華路","SECT":" ","MAREA":" ","LANE":"７２７巷","ALLEY":" ","HOUSE_NO":"１６號十三樓之２","E_COORD97":170792.04000000001,"N_COORD97":2546399.8300000001,"ADDRESS":"中華路７２７巷１６號十三樓之２","OBJECTID":338575},"geometry":{"x":170792.04000000097,"y":2546399.8300000019}},{"attributes":{"ID":338585,"DIS_CODE":0,"TOWNNAME":"永康區","LI":"安康里","LIN":"1鄰","STREET":"中華路","SECT":" ","MAREA":" ","LANE":"７２７巷","ALLEY":" ","HOUSE_NO":"１６號四樓之８","E_COORD97":170790.81,"N_COORD97":2546399.8300000001,"ADDRESS":"中華路７２７巷１６號四樓之８","OBJECTID":338576},"geometry":{"x":170790.81000000145,"y":2546399.8300000019}},{"attributes":{"ID":338586,"DIS_CODE":0,"TOWNNAME":"永康區","LI":"安康里","LIN":"1鄰","STREET":"中華路","SECT":" ","MAREA":" ","LANE":"７２７巷","ALLEY":" ","HOUSE_NO":"１６號五樓之７","E_COORD97":170790.73999999999,"N_COORD97":2546399.8300000001,"ADDRESS":"中華路７２７巷１６號五樓之７","OBJECTID":338577},"geometry":{"x":170790.74000000115,"y":2546399.8300000019}},{"attributes":{"ID":338587,"DIS_CODE":0,"TOWNNAME":"永康區","LI":"安康里","LIN":"1鄰","STREET":"中華路","SECT":" ","MAREA":" ","LANE":"７２７巷","ALLEY":" ","HOUSE_NO":"１６號三樓之７","E_COORD97":170790.73999999999,"N_COORD97":2546399.8300000001,"ADDRESS":"中華路７２７巷１６號三樓之７","OBJECTID":338578},"geometry":{"x":170790.74000000115,"y":2546399.8300000019}},{"attributes":{"ID":338588,"DIS_CODE":0,"TOWNNAME":"永康區","LI":"安康里","LIN":"1鄰","STREET":"中華路","SECT":" ","MAREA":" ","LANE":"７２７巷","ALLEY":" ","HOUSE_NO":"１６號十一樓之５","E_COORD97":170792.06,"N_COORD97":2546399.8300000001,"ADDRESS":"中華路７２７巷１６號十一樓之５","OBJECTID":338579},"geometry":{"x":170792.05999999959,"y":2546399.8300000019}},{"attributes":{"ID":338589,"DIS_CODE":0,"TOWNNAME":"永康區","LI":"安康里","LIN":"1鄰","STREET":"中華路","SECT":" ","MAREA":" ","LANE":"７２７巷","ALLEY":" ","HOUSE_NO":"１６號三樓之６","E_COORD97":170790.76000000001,"N_COORD97":2546399.8300000001,"ADDRESS":"中華路７２７巷１６號三樓之６","OBJECTID":338580},"geometry":{"x":170790.75999999978,"y":2546399.8300000019}},{"attributes":{"ID":338590,"DIS_CODE":0,"TOWNNAME":"安南區","LI":"理想里","LIN":"1鄰","STREET":"同安路","SECT":" ","MAREA":" ","LANE":"３６巷","ALLEY":" ","HOUSE_NO":"１號","E_COORD97":166862.76999999999,"N_COORD97":2548840.98,"ADDRESS":"同安路３６巷１號","OBJECTID":338581},"geometry":{"x":166862.76999999955,"y":2548840.9800000004}},{"attributes":{"ID":338591,"DIS_CODE":0,"TOWNNAME":"北區","LI":"仁愛里","LIN":"1鄰","STREET":"勝利路","SECT":" ","MAREA":" ","LANE":"１９０巷","ALLEY":" ","HOUSE_NO":"８號二樓之１","E_COORD97":169964.06,"N_COORD97":2544932.8900000001,"ADDRESS":"勝利路１９０巷８號二樓之１","OBJECTID":338582},"geometry":{"x":169964.06000000052,"y":2544932.8900000006}},{"attributes":{"ID":338592,"DIS_CODE":0,"TOWNNAME":"北區","LI":"仁愛里","LIN":"1鄰","STREET":"勝利路","SECT":" ","MAREA":" ","LANE":"１９０巷","ALLEY":" ","HOUSE_NO":"８號二樓之２","E_COORD97":169964.06,"N_COORD97":2544932.8900000001,"ADDRESS":"勝利路１９０巷８號二樓之２","OBJECTID":338583},"geometry":{"x":169964.06000000052,"y":2544932.8900000006}},{"attributes":{"ID":338593,"DIS_CODE":0,"TOWNNAME":"北區","LI":"仁愛里","LIN":"1鄰","STREET":"勝利路","SECT":" ","MAREA":" ","LANE":"１９０巷","ALLEY":" ","HOUSE_NO":"８號二樓之３","E_COORD97":169964.06,"N_COORD97":2544932.8900000001,"ADDRESS":"勝利路１９０巷８號二樓之３","OBJECTID":338584},"geometry":{"x":169964.06000000052,"y":2544932.8900000006}},{"attributes":{"ID":338594,"DIS_CODE":0,"TOWNNAME":"北區","LI":"仁愛里","LIN":"1鄰","STREET":"勝利路","SECT":" ","MAREA":" ","LANE":"１９０巷","ALLEY":" ","HOUSE_NO":"８號三樓之１","E_COORD97":169964.06,"N_COORD97":2544932.8900000001,"ADDRESS":"勝利路１９０巷８號三樓之１","OBJECTID":338585},"geometry":{"x":169964.06000000052,"y":2544932.8900000006}},{"attributes":{"ID":338595,"DIS_CODE":0,"TOWNNAME":"北區","LI":"仁愛里","LIN":"1鄰","STREET":"勝利路","SECT":" ","MAREA":" ","LANE":"１９０巷","ALLEY":" ","HOUSE_NO":"８號三樓之２","E_COORD97":169964.06,"N_COORD97":2544932.8900000001,"ADDRESS":"勝利路１９０巷８號三樓之２","OBJECTID":338586},"geometry":{"x":169964.06000000052,"y":2544932.8900000006}},{"attributes":{"ID":338596,"DIS_CODE":0,"TOWNNAME":"北區","LI":"仁愛里","LIN":"1鄰","STREET":"勝利路","SECT":" ","MAREA":" ","LANE":"１９０巷","ALLEY":" ","HOUSE_NO":"８號三樓之３","E_COORD97":169964.06,"N_COORD97":2544932.8900000001,"ADDRESS":"勝利路１９０巷８號三樓之３","OBJECTID":338587},"geometry":{"x":169964.06000000052,"y":2544932.8900000006}},{"attributes":{"ID":338597,"DIS_CODE":0,"TOWNNAME":"北區","LI":"延平里","LIN":"1鄰","STREET":"公園路","SECT":" ","MAREA":" ","LANE":"６３４巷","ALLEY":" ","HOUSE_NO":"３１號二樓","E_COORD97":169131.32000000001,"N_COORD97":2545360.8300000001,"ADDRESS":"公園路６３４巷３１號二樓","OBJECTID":338588},"geometry":{"x":169131.3200000003,"y":2545360.8300000001}},{"attributes":{"ID":338598,"DIS_CODE":0,"TOWNNAME":"北區","LI":"延平里","LIN":"1鄰","STREET":"公園路","SECT":" ","MAREA":" ","LANE":"６３４巷","ALLEY":" ","HOUSE_NO":"３１號四樓","E_COORD97":169131.32000000001,"N_COORD97":2545360.8300000001,"ADDRESS":"公園路６３４巷３１號四樓","OBJECTID":338589},"geometry":{"x":169131.3200000003,"y":2545360.8300000001}},{"attributes":{"ID":338599,"DIS_CODE":0,"TOWNNAME":"北區","LI":"延平里","LIN":"1鄰","STREET":"公園路","SECT":" ","MAREA":" ","LANE":"６３４巷","ALLEY":" ","HOUSE_NO":"３３號二樓","E_COORD97":169141.28,"N_COORD97":2545357.3300000001,"ADDRESS":"公園路６３４巷３３號二樓","OBJECTID":338590},"geometry":{"x":169141.28000000119,"y":2545357.3300000001}},{"attributes":{"ID":338600,"DIS_CODE":0,"TOWNNAME":"北區","LI":"延平里","LIN":"1鄰","STREET":"公園路","SECT":" ","MAREA":" ","LANE":"６３４巷","ALLEY":" ","HOUSE_NO":"３３號三樓","E_COORD97":169141.28,"N_COORD97":2545357.3300000001,"ADDRESS":"公園路６３４巷３３號三樓","OBJECTID":338591},"geometry":{"x":169141.28000000119,"y":2545357.3300000001}},{"attributes":{"ID":338601,"DIS_CODE":0,"TOWNNAME":"北區","LI":"延平里","LIN":"1鄰","STREET":"公園路","SECT":" ","MAREA":" ","LANE":"６３４巷","ALLEY":" ","HOUSE_NO":"３３號五樓","E_COORD97":169141.28,"N_COORD97":2545357.3300000001,"ADDRESS":"公園路６３４巷３３號五樓","OBJECTID":338592},"geometry":{"x":169141.28000000119,"y":2545357.3300000001}},{"attributes":{"ID":338602,"DIS_CODE":0,"TOWNNAME":"北區","LI":"延平里","LIN":"1鄰","STREET":"公園路","SECT":" ","MAREA":" ","LANE":"６３４巷","ALLEY":" ","HOUSE_NO":"３３號四樓","E_COORD97":169141.28,"N_COORD97":2545357.3300000001,"ADDRESS":"公園路６３４巷３３號四樓","OBJECTID":338593},"geometry":{"x":169141.28000000119,"y":2545357.3300000001}},{"attributes":{"ID":338603,"DIS_CODE":0,"TOWNNAME":"歸仁區","LI":"七甲里","LIN":"1鄰","STREET":"中正北路","SECT":"二段","MAREA":" ","LANE":"７５巷","ALLEY":" ","HOUSE_NO":"７８號五樓之２","E_COORD97":177452.70999999999,"N_COORD97":2542293.2599999998,"ADDRESS":"中正北路二段７５巷７８號五樓之２","OBJECTID":338594},"geometry":{"x":177452.71000000089,"y":2542293.2600000035}},{"attributes":{"ID":338604,"DIS_CODE":0,"TOWNNAME":"歸仁區","LI":"七甲里","LIN":"1鄰","STREET":"中正北路","SECT":"二段","MAREA":" ","LANE":"７５巷","ALLEY":" ","HOUSE_NO":"７７號一樓之１","E_COORD97":177428.89000000001,"N_COORD97":2542267.2599999998,"ADDRESS":"中正北路二段７５巷７７號一樓之１","OBJECTID":338595},"geometry":{"x":177428.8900000006,"y":2542267.2600000016}},{"attributes":{"ID":338605,"DIS_CODE":0,"TOWNNAME":"歸仁區","LI":"七甲里","LIN":"1鄰","STREET":"中正北路","SECT":"二段","MAREA":" ","LANE":"７５巷","ALLEY":" ","HOUSE_NO":"８０號五樓之２","E_COORD97":177437.31,"N_COORD97":2542293.2599999998,"ADDRESS":"中正北路二段７５巷８０號五樓之２","OBJECTID":338596},"geometry":{"x":177437.30999999959,"y":2542293.2600000035}},{"attributes":{"ID":338606,"DIS_CODE":0,"TOWNNAME":"歸仁區","LI":"七甲里","LIN":"1鄰","STREET":"中正北路","SECT":"二段","MAREA":" ","LANE":"７５巷","ALLEY":" ","HOUSE_NO":"８０號一樓之１","E_COORD97":177437.29000000001,"N_COORD97":2542293.2599999998,"ADDRESS":"中正北路二段７５巷８０號一樓之１","OBJECTID":338597},"geometry":{"x":177437.29000000097,"y":2542293.2600000035}},{"attributes":{"ID":338607,"DIS_CODE":0,"TOWNNAME":"北區","LI":"安民里","LIN":"1鄰","STREET":"國華街","SECT":"四段","MAREA":" ","LANE":"５巷","ALLEY":" ","HOUSE_NO":"１１號五樓","E_COORD97":167929.64999999999,"N_COORD97":2544578.48,"ADDRESS":"國華街四段５巷１１號五樓","OBJECTID":338598},"geometry":{"x":167929.65000000224,"y":2544578.4800000023}},{"attributes":{"ID":338608,"DIS_CODE":0,"TOWNNAME":"歸仁區","LI":"七甲里","LIN":"1鄰","STREET":"中正北路","SECT":"二段","MAREA":" ","LANE":"７５巷","ALLEY":" ","HOUSE_NO":"７８號四樓之１","E_COORD97":177452.69,"N_COORD97":2542293.2599999998,"ADDRESS":"中正北路二段７５巷７８號四樓之１","OBJECTID":338599},"geometry":{"x":177452.69000000041,"y":2542293.2600000035}},{"attributes":{"ID":338609,"DIS_CODE":0,"TOWNNAME":"歸仁區","LI":"七甲里","LIN":"1鄰","STREET":"中正北路","SECT":"二段","MAREA":" ","LANE":"７５巷","ALLEY":" ","HOUSE_NO":"８０號四樓之１","E_COORD97":177437.29000000001,"N_COORD97":2542293.2599999998,"ADDRESS":"中正北路二段７５巷８０號四樓之１","OBJECTID":338600},"geometry":{"x":177437.29000000097,"y":2542293.2600000035}}]}