{"displayFieldName":"TOWNNAME","fieldAliases":{"ID":"ID","DIS_CODE":"DIS_CODE","TOWNNAME":"TOWNNAME","LI":"LI","LIN":"LIN","STREET":"STREET","SECT":"SECT","MAREA":"MAREA","LANE":"LANE","ALLEY":"ALLEY","HOUSE_NO":"HOUSE_NO","E_COORD97":"E_COORD97","N_COORD97":"N_COORD97","ADDRESS":"ADDRESS","OBJECTID":"OBJECTID"},"geometryType":"esriGeometryPoint","spatialReference":{"wkid":102443,"latestWkid":3826},"fields":[{"name":"ID","type":"esriFieldTypeDouble","alias":"ID"},{"name":"DIS_CODE","type":"esriFieldTypeInteger","alias":"DIS_CODE"},{"name":"TOWNNAME","type":"esriFieldTypeString","alias":"TOWNNAME","length":8},{"name":"LI","type":"esriFieldTypeString","alias":"LI","length":8},{"name":"LIN","type":"esriFieldTypeString","alias":"LIN","length":12},{"name":"STREET","type":"esriFieldTypeString","alias":"STREET","length":20},{"name":"SECT","type":"esriFieldTypeString","alias":"SECT","length":8},{"name":"MAREA","type":"esriFieldTypeString","alias":"MAREA","length":12},{"name":"LANE","type":"esriFieldTypeString","alias":"LANE","length":10},{"name":"ALLEY","type":"esriFieldTypeString","alias":"ALLEY","length":10},{"name":"HOUSE_NO","type":"esriFieldTypeString","alias":"HOUSE_NO","length":20},{"name":"E_COORD97","type":"esriFieldTypeDouble","alias":"E_COORD97"},{"name":"N_COORD97","type":"esriFieldTypeDouble","alias":"N_COORD97"},{"name":"ADDRESS","type":"esriFieldTypeString","alias":"ADDRESS","length":50},{"name":"OBJECTID","type":"esriFieldTypeOID","alias":"OBJECTID"}],"features":[{"attributes":{"ID":118801,"DIS_CODE":0,"TOWNNAME":"安南區","LI":"安慶里","LIN":"23鄰","STREET":"安中路","SECT":"一段","MAREA":" ","LANE":"１８９巷","ALLEY":"９２弄","HOUSE_NO":"４７號","E_COORD97":168639.97,"N_COORD97":2548230.4300000002,"ADDRESS":"安中路一段１８９巷９２弄４７號","OBJECTID":118801},"geometry":{"x":168639.96999999974,"y":2548230.4299999997}},{"attributes":{"ID":118802,"DIS_CODE":0,"TOWNNAME":"安南區","LI":"安慶里","LIN":"23鄰","STREET":"安中路","SECT":"一段","MAREA":" ","LANE":"１８９巷","ALLEY":"９２弄","HOUSE_NO":"４８號","E_COORD97":168655,"N_COORD97":2548261.48,"ADDRESS":"安中路一段１８９巷９２弄４８號","OBJECTID":118802},"geometry":{"x":168655,"y":2548261.4800000004}},{"attributes":{"ID":118803,"DIS_CODE":0,"TOWNNAME":"安南區","LI":"安慶里","LIN":"23鄰","STREET":"安中路","SECT":"一段","MAREA":" ","LANE":"１８９巷","ALLEY":"９２弄","HOUSE_NO":"４９號","E_COORD97":168640.87,"N_COORD97":2548226.3500000001,"ADDRESS":"安中路一段１８９巷９２弄４９號","OBJECTID":118803},"geometry":{"x":168640.87000000011,"y":2548226.3500000015}},{"attributes":{"ID":118804,"DIS_CODE":0,"TOWNNAME":"下營區","LI":"開化里","LIN":"4鄰","STREET":" ","SECT":" ","MAREA":"中營","LANE":" ","ALLEY":" ","HOUSE_NO":"２９０之４２號","E_COORD97":175495.5,"N_COORD97":2567230.3300000001,"ADDRESS":"中營２９０之４２號","OBJECTID":118804},"geometry":{"x":175495.5,"y":2567230.3300000019}},{"attributes":{"ID":118805,"DIS_CODE":0,"TOWNNAME":"安南區","LI":"安慶里","LIN":"23鄰","STREET":"安中路","SECT":"一段","MAREA":" ","LANE":"１８９巷","ALLEY":"９２弄","HOUSE_NO":"５０號","E_COORD97":168651.60000000001,"N_COORD97":2548261.48,"ADDRESS":"安中路一段１８９巷９２弄５０號","OBJECTID":118805},"geometry":{"x":168651.60000000056,"y":2548261.4800000004}},{"attributes":{"ID":118806,"DIS_CODE":0,"TOWNNAME":"安南區","LI":"安慶里","LIN":"23鄰","STREET":"安中路","SECT":"一段","MAREA":" ","LANE":"１８９巷","ALLEY":"９２弄","HOUSE_NO":"５１號","E_COORD97":168640.98999999999,"N_COORD97":2548221.8300000001,"ADDRESS":"安中路一段１８９巷９２弄５１號","OBJECTID":118806},"geometry":{"x":168640.99000000115,"y":2548221.8300000001}},{"attributes":{"ID":118807,"DIS_CODE":0,"TOWNNAME":"下營區","LI":"開化里","LIN":"4鄰","STREET":" ","SECT":" ","MAREA":"中營","LANE":" ","ALLEY":" ","HOUSE_NO":"２９０號之５２","E_COORD97":175325.64000000001,"N_COORD97":2566917.9300000002,"ADDRESS":"中營２９０號之５２","OBJECTID":118807},"geometry":{"x":175325.6400000006,"y":2566917.9300000016}},{"attributes":{"ID":118808,"DIS_CODE":0,"TOWNNAME":"下營區","LI":"開化里","LIN":"4鄰","STREET":" ","SECT":" ","MAREA":"中營","LANE":" ","ALLEY":" ","HOUSE_NO":"２９０號之５","E_COORD97":175759.85999999999,"N_COORD97":2567823.3599999999,"ADDRESS":"中營２９０號之５","OBJECTID":118808},"geometry":{"x":175759.8600000022,"y":2567823.3599999994}},{"attributes":{"ID":118809,"DIS_CODE":0,"TOWNNAME":"佳里區","LI":"民安里","LIN":"4鄰","STREET":" ","SECT":" ","MAREA":"同安寮","LANE":" ","ALLEY":" ","HOUSE_NO":"５１號之６","E_COORD97":167294.07000000001,"N_COORD97":2562501.3799999999,"ADDRESS":"同安寮５１號之６","OBJECTID":118809},"geometry":{"x":167294.0700000003,"y":2562501.3799999971}},{"attributes":{"ID":118810,"DIS_CODE":0,"TOWNNAME":"佳里區","LI":"民安里","LIN":"4鄰","STREET":" ","SECT":" ","MAREA":"同安寮","LANE":" ","ALLEY":" ","HOUSE_NO":"５１號之７","E_COORD97":167304.22,"N_COORD97":2562514.5499999998,"ADDRESS":"同安寮５１號之７","OBJECTID":118810},"geometry":{"x":167304.21999999974,"y":2562514.5500000007}},{"attributes":{"ID":118811,"DIS_CODE":0,"TOWNNAME":"佳里區","LI":"民安里","LIN":"4鄰","STREET":" ","SECT":" ","MAREA":"同安寮","LANE":" ","ALLEY":" ","HOUSE_NO":"５１號之８","E_COORD97":167301.5,"N_COORD97":2562499.5299999998,"ADDRESS":"同安寮５１號之８","OBJECTID":118811},"geometry":{"x":167301.50000000093,"y":2562499.5299999993}},{"attributes":{"ID":118812,"DIS_CODE":0,"TOWNNAME":"安南區","LI":"安慶里","LIN":"23鄰","STREET":"安中路","SECT":"一段","MAREA":" ","LANE":"１８９巷","ALLEY":"９２弄","HOUSE_NO":"５３號","E_COORD97":168641.67000000001,"N_COORD97":2548218.0899999999,"ADDRESS":"安中路一段１８９巷９２弄５３號","OBJECTID":118812},"geometry":{"x":168641.67000000086,"y":2548218.0900000017}},{"attributes":{"ID":118813,"DIS_CODE":0,"TOWNNAME":"安南區","LI":"安慶里","LIN":"23鄰","STREET":"安中路","SECT":"一段","MAREA":" ","LANE":"１８９巷","ALLEY":"９２弄","HOUSE_NO":"５４號","E_COORD97":168643.29000000001,"N_COORD97":2548260.5,"ADDRESS":"安中路一段１８９巷９２弄５４號","OBJECTID":118813},"geometry":{"x":168643.29000000004,"y":2548260.5000000019}},{"attributes":{"ID":118814,"DIS_CODE":0,"TOWNNAME":"六甲區","LI":"六甲里","LIN":"23鄰","STREET":"中正路","SECT":" ","MAREA":" ","LANE":"４５９巷","ALLEY":"３４弄","HOUSE_NO":"５號","E_COORD97":183543.41,"N_COORD97":2569860.6499999999,"ADDRESS":"中正路４５９巷３４弄５號","OBJECTID":118814},"geometry":{"x":183543.41000000015,"y":2569860.6500000004}},{"attributes":{"ID":118815,"DIS_CODE":0,"TOWNNAME":"安南區","LI":"安慶里","LIN":"23鄰","STREET":"安中路","SECT":"一段","MAREA":" ","LANE":"１８９巷","ALLEY":"９２弄","HOUSE_NO":"５５號","E_COORD97":168642.12,"N_COORD97":2548214.7000000002,"ADDRESS":"安中路一段１８９巷９２弄５５號","OBJECTID":118815},"geometry":{"x":168642.12000000104,"y":2548214.6999999993}},{"attributes":{"ID":118816,"DIS_CODE":0,"TOWNNAME":"安南區","LI":"安慶里","LIN":"23鄰","STREET":"安中路","SECT":"一段","MAREA":" ","LANE":"１８９巷","ALLEY":"９２弄","HOUSE_NO":"６號","E_COORD97":168739.39999999999,"N_COORD97":2548272.3999999999,"ADDRESS":"安中路一段１８９巷９２弄６號","OBJECTID":118816},"geometry":{"x":168739.40000000037,"y":2548272.4000000004}},{"attributes":{"ID":118817,"DIS_CODE":0,"TOWNNAME":"安南區","LI":"安東里","LIN":"23鄰","STREET":"安和路","SECT":"一段","MAREA":" ","LANE":"４９６巷","ALLEY":"４１弄","HOUSE_NO":"４２號","E_COORD97":169625.32999999999,"N_COORD97":2548387.25,"ADDRESS":"安和路一段４９６巷４１弄４２號","OBJECTID":118817},"geometry":{"x":169625.33000000101,"y":2548387.2500000019}},{"attributes":{"ID":118818,"DIS_CODE":0,"TOWNNAME":"安南區","LI":"州南里","LIN":"23鄰","STREET":"安和路","SECT":"四段","MAREA":" ","LANE":"５３７巷","ALLEY":"３７弄","HOUSE_NO":"１５號","E_COORD97":169823.48999999999,"N_COORD97":2551358.1499999999,"ADDRESS":"安和路四段５３７巷３７弄１５號","OBJECTID":118818},"geometry":{"x":169823.49000000022,"y":2551358.1500000022}},{"attributes":{"ID":118819,"DIS_CODE":0,"TOWNNAME":"安南區","LI":"州南里","LIN":"23鄰","STREET":"安和路","SECT":"四段","MAREA":" ","LANE":"５３７巷","ALLEY":"３７弄","HOUSE_NO":"２１號","E_COORD97":169810.42000000001,"N_COORD97":2551352.6699999999,"ADDRESS":"安和路四段５３７巷３７弄２１號","OBJECTID":118819},"geometry":{"x":169810.41999999993,"y":2551352.6699999999}},{"attributes":{"ID":118820,"DIS_CODE":0,"TOWNNAME":"安南區","LI":"安東里","LIN":"23鄰","STREET":"安和路","SECT":"一段","MAREA":" ","LANE":"４９６巷","ALLEY":"４１弄","HOUSE_NO":"２４號","E_COORD97":169588.73000000001,"N_COORD97":2548383.8999999999,"ADDRESS":"安和路一段４９６巷４１弄２４號","OBJECTID":118820},"geometry":{"x":169588.73000000231,"y":2548383.9000000004}},{"attributes":{"ID":118821,"DIS_CODE":0,"TOWNNAME":"佳里區","LI":"民安里","LIN":"4鄰","STREET":" ","SECT":" ","MAREA":"同安寮","LANE":" ","ALLEY":" ","HOUSE_NO":"５１號之９","E_COORD97":167311.06,"N_COORD97":2562513.0099999998,"ADDRESS":"同安寮５１號之９","OBJECTID":118821},"geometry":{"x":167311.06000000052,"y":2562513.0100000016}},{"attributes":{"ID":118822,"DIS_CODE":0,"TOWNNAME":"安南區","LI":"安東里","LIN":"23鄰","STREET":"安和路","SECT":"一段","MAREA":" ","LANE":"４９６巷","ALLEY":"４１弄","HOUSE_NO":"２８號","E_COORD97":169597.53,"N_COORD97":2548383.0600000001,"ADDRESS":"安和路一段４９６巷４１弄２８號","OBJECTID":118822},"geometry":{"x":169597.53000000026,"y":2548383.0600000005}},{"attributes":{"ID":118823,"DIS_CODE":0,"TOWNNAME":"安南區","LI":"安東里","LIN":"23鄰","STREET":"安和路","SECT":"一段","MAREA":" ","LANE":"４９６巷","ALLEY":"４１弄","HOUSE_NO":"３０號","E_COORD97":169600.88,"N_COORD97":2548384.7400000002,"ADDRESS":"安和路一段４９６巷４１弄３０號","OBJECTID":118823},"geometry":{"x":169600.88000000082,"y":2548384.7400000002}},{"attributes":{"ID":118824,"DIS_CODE":0,"TOWNNAME":"安南區","LI":"安東里","LIN":"23鄰","STREET":"安和路","SECT":"一段","MAREA":" ","LANE":"４９６巷","ALLEY":"４１弄","HOUSE_NO":"３２號","E_COORD97":169604.79000000001,"N_COORD97":2548385.1600000001,"ADDRESS":"安和路一段４９６巷４１弄３２號","OBJECTID":118824},"geometry":{"x":169604.7900000019,"y":2548385.1600000001}},{"attributes":{"ID":118825,"DIS_CODE":0,"TOWNNAME":"安南區","LI":"安東里","LIN":"23鄰","STREET":"安和路","SECT":"一段","MAREA":" ","LANE":"４９６巷","ALLEY":"４１弄","HOUSE_NO":"３４號","E_COORD97":169609.13,"N_COORD97":2548384.6000000001,"ADDRESS":"安和路一段４９６巷４１弄３４號","OBJECTID":118825},"geometry":{"x":169609.13000000175,"y":2548384.6000000015}},{"attributes":{"ID":118826,"DIS_CODE":0,"TOWNNAME":"佳里區","LI":"民安里","LIN":"4鄰","STREET":" ","SECT":" ","MAREA":"同安寮","LANE":" ","ALLEY":" ","HOUSE_NO":"５１號","E_COORD97":167281.82000000001,"N_COORD97":2562520.23,"ADDRESS":"同安寮５１號","OBJECTID":118826},"geometry":{"x":167281.8200000003,"y":2562520.2300000004}},{"attributes":{"ID":118827,"DIS_CODE":0,"TOWNNAME":"安南區","LI":"安東里","LIN":"23鄰","STREET":"安和路","SECT":"一段","MAREA":" ","LANE":"４９６巷","ALLEY":"４１弄","HOUSE_NO":"３６號","E_COORD97":169612.76000000001,"N_COORD97":2548385.71,"ADDRESS":"安和路一段４９６巷４１弄３６號","OBJECTID":118827},"geometry":{"x":169612.75999999978,"y":2548385.7100000009}},{"attributes":{"ID":118828,"DIS_CODE":0,"TOWNNAME":"安南區","LI":"安東里","LIN":"23鄰","STREET":"安和路","SECT":"一段","MAREA":" ","LANE":"４９６巷","ALLEY":"４１弄","HOUSE_NO":"３８號","E_COORD97":169616.81,"N_COORD97":2548386.4100000001,"ADDRESS":"安和路一段４９６巷４１弄３８號","OBJECTID":118828},"geometry":{"x":169616.81000000052,"y":2548386.410000002}},{"attributes":{"ID":118829,"DIS_CODE":0,"TOWNNAME":"安南區","LI":"安東里","LIN":"23鄰","STREET":"安和路","SECT":"一段","MAREA":" ","LANE":"４９６巷","ALLEY":"４１弄","HOUSE_NO":"４０號","E_COORD97":169620.85999999999,"N_COORD97":2548386.9700000002,"ADDRESS":"安和路一段４９６巷４１弄４０號","OBJECTID":118829},"geometry":{"x":169620.86000000034,"y":2548386.9700000007}},{"attributes":{"ID":118830,"DIS_CODE":0,"TOWNNAME":"安南區","LI":"安東里","LIN":"23鄰","STREET":"安和路","SECT":"一段","MAREA":" ","LANE":"４９６巷","ALLEY":"４１弄","HOUSE_NO":"５２號","E_COORD97":169645.5,"N_COORD97":2548388.8399999999,"ADDRESS":"安和路一段４９６巷４１弄５２號","OBJECTID":118830},"geometry":{"x":169645.5,"y":2548388.8400000036}},{"attributes":{"ID":118831,"DIS_CODE":0,"TOWNNAME":"安南區","LI":"安東里","LIN":"23鄰","STREET":"安和路","SECT":"一段","MAREA":" ","LANE":"４９６巷","ALLEY":"４１弄","HOUSE_NO":"５４號","E_COORD97":169648.76999999999,"N_COORD97":2548389.3399999999,"ADDRESS":"安和路一段４９６巷４１弄５４號","OBJECTID":118831},"geometry":{"x":169648.77000000048,"y":2548389.3400000017}},{"attributes":{"ID":118832,"DIS_CODE":0,"TOWNNAME":"新營區","LI":"忠政里","LIN":"24鄰","STREET":"健康路","SECT":" ","MAREA":" ","LANE":" ","ALLEY":" ","HOUSE_NO":"２６８號","E_COORD97":179671.34,"N_COORD97":2579553.27,"ADDRESS":"健康路２６８號","OBJECTID":118832},"geometry":{"x":179671.33999999985,"y":2579553.2700000033}},{"attributes":{"ID":118833,"DIS_CODE":0,"TOWNNAME":"安南區","LI":"安東里","LIN":"23鄰","STREET":"安和路","SECT":"一段","MAREA":" ","LANE":"４９６巷","ALLEY":"４１弄","HOUSE_NO":"５６號","E_COORD97":169653.04000000001,"N_COORD97":2548389.3399999999,"ADDRESS":"安和路一段４９６巷４１弄５６號","OBJECTID":118833},"geometry":{"x":169653.04000000097,"y":2548389.3400000017}},{"attributes":{"ID":118834,"DIS_CODE":0,"TOWNNAME":"安南區","LI":"安東里","LIN":"23鄰","STREET":"安和路","SECT":"一段","MAREA":" ","LANE":"４９６巷","ALLEY":"４１弄","HOUSE_NO":"５８號","E_COORD97":169656.81,"N_COORD97":2548389.8399999999,"ADDRESS":"安和路一段４９６巷４１弄５８號","OBJECTID":118834},"geometry":{"x":169656.81000000145,"y":2548389.8400000017}},{"attributes":{"ID":118835,"DIS_CODE":0,"TOWNNAME":"安南區","LI":"安東里","LIN":"23鄰","STREET":"安和路","SECT":"一段","MAREA":" ","LANE":"４９６巷","ALLEY":"４１弄","HOUSE_NO":"６０號","E_COORD97":169660.57999999999,"N_COORD97":2548390.3399999999,"ADDRESS":"安和路一段４９６巷４１弄６０號","OBJECTID":118835},"geometry":{"x":169660.58000000194,"y":2548390.3399999999}},{"attributes":{"ID":118836,"DIS_CODE":0,"TOWNNAME":"安南區","LI":"安東里","LIN":"23鄰","STREET":"安和路","SECT":"一段","MAREA":" ","LANE":"４９６巷","ALLEY":"４１弄","HOUSE_NO":"６２號","E_COORD97":169665.10000000001,"N_COORD97":2548391.3500000001,"ADDRESS":"安和路一段４９６巷４１弄６２號","OBJECTID":118836},"geometry":{"x":169665.10000000149,"y":2548391.3499999996}},{"attributes":{"ID":118837,"DIS_CODE":0,"TOWNNAME":"安南區","LI":"安東里","LIN":"23鄰","STREET":"安和路","SECT":"一段","MAREA":" ","LANE":"４９６巷","ALLEY":"４１弄","HOUSE_NO":"６４號","E_COORD97":169668.60999999999,"N_COORD97":2548391.0899999999,"ADDRESS":"安和路一段４９６巷４１弄６４號","OBJECTID":118837},"geometry":{"x":169668.61000000034,"y":2548391.0900000017}},{"attributes":{"ID":118838,"DIS_CODE":0,"TOWNNAME":"玉井區","LI":"玉田里","LIN":"24鄰","STREET":"中華路","SECT":" ","MAREA":" ","LANE":" ","ALLEY":" ","HOUSE_NO":"１２０號","E_COORD97":195153.95999999999,"N_COORD97":2557926.25,"ADDRESS":"中華路１２０號","OBJECTID":118838},"geometry":{"x":195153.96000000089,"y":2557926.2499999981}},{"attributes":{"ID":118839,"DIS_CODE":0,"TOWNNAME":"永康區","LI":"龍潭里","LIN":"14鄰","STREET":"龍埔街","SECT":" ","MAREA":" ","LANE":" ","ALLEY":" ","HOUSE_NO":"１２２號","E_COORD97":174495.10000000001,"N_COORD97":2548278.6800000002,"ADDRESS":"龍埔街１２２號","OBJECTID":118839},"geometry":{"x":174495.10000000056,"y":2548278.6800000016}},{"attributes":{"ID":118840,"DIS_CODE":0,"TOWNNAME":"永康區","LI":"東橋里","LIN":"17鄰","STREET":"東橋三路","SECT":" ","MAREA":" ","LANE":" ","ALLEY":" ","HOUSE_NO":"２２７號","E_COORD97":171417.53,"N_COORD97":2546942.54,"ADDRESS":"東橋三路２２７號","OBJECTID":118840},"geometry":{"x":171417.53000000119,"y":2546942.540000001}},{"attributes":{"ID":118841,"DIS_CODE":0,"TOWNNAME":"東區","LI":"文聖里","LIN":"15鄰","STREET":"裕興街","SECT":" ","MAREA":" ","LANE":" ","ALLEY":" ","HOUSE_NO":"２４９號","E_COORD97":172471.47,"N_COORD97":2542657.9300000002,"ADDRESS":"裕興街２４９號","OBJECTID":118841},"geometry":{"x":172471.46999999881,"y":2542657.9299999978}},{"attributes":{"ID":118842,"DIS_CODE":0,"TOWNNAME":"東區","LI":"文聖里","LIN":"15鄰","STREET":"裕興街","SECT":" ","MAREA":" ","LANE":" ","ALLEY":" ","HOUSE_NO":"２５１號","E_COORD97":172475.97,"N_COORD97":2542661.8900000001,"ADDRESS":"裕興街２５１號","OBJECTID":118842},"geometry":{"x":172475.96999999974,"y":2542661.8900000006}},{"attributes":{"ID":118843,"DIS_CODE":0,"TOWNNAME":"安南區","LI":"安東里","LIN":"23鄰","STREET":"安和路","SECT":"一段","MAREA":" ","LANE":"４９６巷","ALLEY":"４１弄","HOUSE_NO":"６６號","E_COORD97":169672.13,"N_COORD97":2548392.3500000001,"ADDRESS":"安和路一段４９６巷４１弄６６號","OBJECTID":118843},"geometry":{"x":169672.13000000082,"y":2548392.3500000015}},{"attributes":{"ID":118844,"DIS_CODE":0,"TOWNNAME":"安南區","LI":"安東里","LIN":"23鄰","STREET":"安和路","SECT":"一段","MAREA":" ","LANE":"４９６巷","ALLEY":"４１弄","HOUSE_NO":"６８號","E_COORD97":169677.14999999999,"N_COORD97":2548392.6000000001,"ADDRESS":"安和路一段４９６巷４１弄６８號","OBJECTID":118844},"geometry":{"x":169677.15000000037,"y":2548392.5999999996}},{"attributes":{"ID":118845,"DIS_CODE":0,"TOWNNAME":"新營區","LI":"新南里","LIN":"23鄰","STREET":"復興路","SECT":" ","MAREA":" ","LANE":"６２０巷","ALLEY":"１５弄","HOUSE_NO":"４６號","E_COORD97":177949.37,"N_COORD97":2578419.7599999998,"ADDRESS":"復興路６２０巷１５弄４６號","OBJECTID":118845},"geometry":{"x":177949.37000000011,"y":2578419.7599999998}},{"attributes":{"ID":118846,"DIS_CODE":0,"TOWNNAME":"六甲區","LI":"六甲里","LIN":"23鄰","STREET":"中正路","SECT":" ","MAREA":" ","LANE":"４５９巷","ALLEY":"３４弄","HOUSE_NO":"１２號","E_COORD97":183547.23999999999,"N_COORD97":2569821.6899999999,"ADDRESS":"中正路４５９巷３４弄１２號","OBJECTID":118846},"geometry":{"x":183547.24000000115,"y":2569821.6899999995}},{"attributes":{"ID":118847,"DIS_CODE":0,"TOWNNAME":"六甲區","LI":"六甲里","LIN":"23鄰","STREET":"中正路","SECT":" ","MAREA":" ","LANE":"４５９巷","ALLEY":"３４弄","HOUSE_NO":"１１號","E_COORD97":183555.64999999999,"N_COORD97":2569856.7400000002,"ADDRESS":"中正路４５９巷３４弄１１號","OBJECTID":118847},"geometry":{"x":183555.65000000037,"y":2569856.7400000002}},{"attributes":{"ID":118848,"DIS_CODE":0,"TOWNNAME":"六甲區","LI":"六甲里","LIN":"23鄰","STREET":"中正路","SECT":" ","MAREA":" ","LANE":"４５９巷","ALLEY":"３４弄","HOUSE_NO":"１３號","E_COORD97":183559.42000000001,"N_COORD97":2569855.4300000002,"ADDRESS":"中正路４５９巷３４弄１３號","OBJECTID":118848},"geometry":{"x":183559.42000000086,"y":2569855.4299999978}},{"attributes":{"ID":118849,"DIS_CODE":0,"TOWNNAME":"六甲區","LI":"六甲里","LIN":"23鄰","STREET":"中正路","SECT":" ","MAREA":" ","LANE":"４５９巷","ALLEY":"３４弄","HOUSE_NO":"２號","E_COORD97":183543.12,"N_COORD97":2569847.6400000001,"ADDRESS":"中正路４５９巷３４弄２號","OBJECTID":118849},"geometry":{"x":183543.12000000011,"y":2569847.6400000006}},{"attributes":{"ID":118850,"DIS_CODE":0,"TOWNNAME":"六甲區","LI":"六甲里","LIN":"23鄰","STREET":"中正路","SECT":" ","MAREA":" ","LANE":"４５９巷","ALLEY":"３４弄","HOUSE_NO":"３號","E_COORD97":183539.13,"N_COORD97":2569862.1200000001,"ADDRESS":"中正路４５９巷３４弄３號","OBJECTID":118850},"geometry":{"x":183539.13000000082,"y":2569862.120000001}},{"attributes":{"ID":118851,"DIS_CODE":0,"TOWNNAME":"六甲區","LI":"六甲里","LIN":"23鄰","STREET":"中正路","SECT":" ","MAREA":" ","LANE":"４５９巷","ALLEY":"３４弄","HOUSE_NO":"４號","E_COORD97":183547.07999999999,"N_COORD97":2569846.6299999999,"ADDRESS":"中正路４５９巷３４弄４號","OBJECTID":118851},"geometry":{"x":183547.08000000007,"y":2569846.6299999971}},{"attributes":{"ID":118852,"DIS_CODE":0,"TOWNNAME":"六甲區","LI":"六甲里","LIN":"23鄰","STREET":"中正路","SECT":" ","MAREA":" ","LANE":"４５９巷","ALLEY":"３４弄","HOUSE_NO":"６號","E_COORD97":183551.35999999999,"N_COORD97":2569845.96,"ADDRESS":"中正路４５９巷３４弄６號","OBJECTID":118852},"geometry":{"x":183551.36000000127,"y":2569845.9600000009}},{"attributes":{"ID":118853,"DIS_CODE":0,"TOWNNAME":"六甲區","LI":"六甲里","LIN":"23鄰","STREET":"中正路","SECT":" ","MAREA":" ","LANE":"４５９巷","ALLEY":"３４弄","HOUSE_NO":"７號","E_COORD97":183547.59,"N_COORD97":2569859.6499999999,"ADDRESS":"中正路４５９巷３４弄７號","OBJECTID":118853},"geometry":{"x":183547.59000000078,"y":2569859.6500000022}},{"attributes":{"ID":118854,"DIS_CODE":0,"TOWNNAME":"六甲區","LI":"六甲里","LIN":"23鄰","STREET":"中正路","SECT":" ","MAREA":" ","LANE":"４５９巷","ALLEY":"３４弄","HOUSE_NO":"８號","E_COORD97":183555.25,"N_COORD97":2569844.6699999999,"ADDRESS":"中正路４５９巷３４弄８號","OBJECTID":118854},"geometry":{"x":183555.25000000093,"y":2569844.6700000018}},{"attributes":{"ID":118855,"DIS_CODE":0,"TOWNNAME":"六甲區","LI":"六甲里","LIN":"23鄰","STREET":"中正路","SECT":" ","MAREA":" ","LANE":"４５９巷","ALLEY":"３４弄","HOUSE_NO":"９號","E_COORD97":183551.42000000001,"N_COORD97":2569858.0600000001,"ADDRESS":"中正路４５９巷３４弄９號","OBJECTID":118855},"geometry":{"x":183551.41999999993,"y":2569858.0600000005}},{"attributes":{"ID":118856,"DIS_CODE":0,"TOWNNAME":"南區","LI":"明亮里","LIN":"16鄰","STREET":"金華路","SECT":"一段","MAREA":" ","LANE":"３５２巷","ALLEY":"１１１弄","HOUSE_NO":"１０號","E_COORD97":167291.79000000001,"N_COORD97":2541071.02,"ADDRESS":"金華路一段３５２巷１１１弄１０號","OBJECTID":118856},"geometry":{"x":167291.79000000004,"y":2541071.0200000014}},{"attributes":{"ID":118857,"DIS_CODE":0,"TOWNNAME":"南區","LI":"明亮里","LIN":"16鄰","STREET":"金華路","SECT":"一段","MAREA":" ","LANE":"３５２巷","ALLEY":"１１１弄","HOUSE_NO":"５６號","E_COORD97":167355.67999999999,"N_COORD97":2541105.9300000002,"ADDRESS":"金華路一段３５２巷１１１弄５６號","OBJECTID":118857},"geometry":{"x":167355.68000000156,"y":2541105.9300000016}},{"attributes":{"ID":118858,"DIS_CODE":0,"TOWNNAME":"南區","LI":"明亮里","LIN":"16鄰","STREET":"金華路","SECT":"一段","MAREA":" ","LANE":"３５２巷","ALLEY":"１１１弄","HOUSE_NO":"５６號之１","E_COORD97":167357.29000000001,"N_COORD97":2541102.3199999998,"ADDRESS":"金華路一段３５２巷１１１弄５６號之１","OBJECTID":118858},"geometry":{"x":167357.29000000097,"y":2541102.3200000003}},{"attributes":{"ID":118859,"DIS_CODE":0,"TOWNNAME":"南區","LI":"明亮里","LIN":"16鄰","STREET":"金華路","SECT":"一段","MAREA":" ","LANE":"３５２巷","ALLEY":"１１１弄","HOUSE_NO":"５６號之１０","E_COORD97":167372.56,"N_COORD97":2541068.21,"ADDRESS":"金華路一段３５２巷１１１弄５６號之１０","OBJECTID":118859},"geometry":{"x":167372.55999999959,"y":2541068.2100000028}},{"attributes":{"ID":118860,"DIS_CODE":0,"TOWNNAME":"南區","LI":"明亮里","LIN":"16鄰","STREET":"金華路","SECT":"一段","MAREA":" ","LANE":"３５２巷","ALLEY":"１１１弄","HOUSE_NO":"５６號之１１","E_COORD97":167368.14000000001,"N_COORD97":2541065.3999999999,"ADDRESS":"金華路一段３５２巷１１１弄５６號之１１","OBJECTID":118860},"geometry":{"x":167368.1400000006,"y":2541065.4000000041}},{"attributes":{"ID":118861,"DIS_CODE":0,"TOWNNAME":"南區","LI":"明亮里","LIN":"16鄰","STREET":"金華路","SECT":"一段","MAREA":" ","LANE":"３５２巷","ALLEY":"１１１弄","HOUSE_NO":"５６號之２","E_COORD97":167359.29999999999,"N_COORD97":2541097.9100000001,"ADDRESS":"金華路一段３５２巷１１１弄５６號之２","OBJECTID":118861},"geometry":{"x":167359.29999999981,"y":2541097.9100000001}},{"attributes":{"ID":118862,"DIS_CODE":0,"TOWNNAME":"新營區","LI":"大宏里","LIN":"24鄰","STREET":"民治路","SECT":" ","MAREA":" ","LANE":" ","ALLEY":" ","HOUSE_NO":"３號之７","E_COORD97":180554.66,"N_COORD97":2578879.1400000001,"ADDRESS":"民治路３號之７","OBJECTID":118862},"geometry":{"x":180554.66000000015,"y":2578879.1400000006}},{"attributes":{"ID":118863,"DIS_CODE":0,"TOWNNAME":"南區","LI":"明亮里","LIN":"16鄰","STREET":"金華路","SECT":"一段","MAREA":" ","LANE":"３５２巷","ALLEY":"１１１弄","HOUSE_NO":"５６號之３","E_COORD97":167360.89999999999,"N_COORD97":2541093.8900000001,"ADDRESS":"金華路一段３５２巷１１１弄５６號之３","OBJECTID":118863},"geometry":{"x":167360.90000000037,"y":2541093.8900000025}},{"attributes":{"ID":118864,"DIS_CODE":0,"TOWNNAME":"南區","LI":"明亮里","LIN":"16鄰","STREET":"金華路","SECT":"一段","MAREA":" ","LANE":"３５２巷","ALLEY":"１１１弄","HOUSE_NO":"５６號之４","E_COORD97":167362.91,"N_COORD97":2541090.2799999998,"ADDRESS":"金華路一段３５２巷１１１弄５６號之４","OBJECTID":118864},"geometry":{"x":167362.91000000015,"y":2541090.2800000012}},{"attributes":{"ID":118865,"DIS_CODE":0,"TOWNNAME":"南區","LI":"明亮里","LIN":"16鄰","STREET":"金華路","SECT":"一段","MAREA":" ","LANE":"３５２巷","ALLEY":"１１１弄","HOUSE_NO":"５６號之５","E_COORD97":167365.72,"N_COORD97":2541087.4700000002,"ADDRESS":"金華路一段３５２巷１１１弄５６號之５","OBJECTID":118865},"geometry":{"x":167365.7200000016,"y":2541087.4700000007}},{"attributes":{"ID":118866,"DIS_CODE":0,"TOWNNAME":"南區","LI":"明亮里","LIN":"16鄰","STREET":"金華路","SECT":"一段","MAREA":" ","LANE":"３５２巷","ALLEY":"１１１弄","HOUSE_NO":"５６號之６","E_COORD97":167367.73000000001,"N_COORD97":2541082.6600000001,"ADDRESS":"金華路一段３５２巷１１１弄５６號之６","OBJECTID":118866},"geometry":{"x":167367.73000000045,"y":2541082.6600000001}},{"attributes":{"ID":118867,"DIS_CODE":0,"TOWNNAME":"東區","LI":"文聖里","LIN":"15鄰","STREET":"裕興街","SECT":" ","MAREA":" ","LANE":" ","ALLEY":" ","HOUSE_NO":"２５３號","E_COORD97":172481.01999999999,"N_COORD97":2542658.6099999999,"ADDRESS":"裕興街２５３號","OBJECTID":118867},"geometry":{"x":172481.01999999955,"y":2542658.6099999994}},{"attributes":{"ID":118868,"DIS_CODE":0,"TOWNNAME":"七股區","LI":"竹橋里","LIN":"4鄰","STREET":" ","SECT":" ","MAREA":"竹橋","LANE":" ","ALLEY":" ","HOUSE_NO":"４３號之９","E_COORD97":164191.34,"N_COORD97":2555823.3199999998,"ADDRESS":"竹橋４３號之９","OBJECTID":118868},"geometry":{"x":164191.33999999985,"y":2555823.3200000003}},{"attributes":{"ID":118869,"DIS_CODE":0,"TOWNNAME":"七股區","LI":"竹橋里","LIN":"4鄰","STREET":" ","SECT":" ","MAREA":"竹橋","LANE":" ","ALLEY":" ","HOUSE_NO":"４３號","E_COORD97":164178.30816399999,"N_COORD97":2555892.40802,"ADDRESS":"竹橋４３號","OBJECTID":118869},"geometry":{"x":164178.30816400051,"y":2555892.4080170002}},{"attributes":{"ID":118870,"DIS_CODE":0,"TOWNNAME":"南區","LI":"明亮里","LIN":"16鄰","STREET":"金華路","SECT":"一段","MAREA":" ","LANE":"３５２巷","ALLEY":"１１１弄","HOUSE_NO":"５６號之７","E_COORD97":167368.54000000001,"N_COORD97":2541078.2400000002,"ADDRESS":"金華路一段３５２巷１１１弄５６號之７","OBJECTID":118870},"geometry":{"x":167368.54000000004,"y":2541078.2400000021}},{"attributes":{"ID":118871,"DIS_CODE":0,"TOWNNAME":"南區","LI":"明亮里","LIN":"16鄰","STREET":"金華路","SECT":"一段","MAREA":" ","LANE":"３５２巷","ALLEY":"１１１弄","HOUSE_NO":"５６號之８","E_COORD97":167381.39000000001,"N_COORD97":2541069.0099999998,"ADDRESS":"金華路一段３５２巷１１１弄５６號之８","OBJECTID":118871},"geometry":{"x":167381.39000000153,"y":2541069.0100000016}},{"attributes":{"ID":118872,"DIS_CODE":0,"TOWNNAME":"南區","LI":"明亮里","LIN":"16鄰","STREET":"金華路","SECT":"一段","MAREA":" ","LANE":"３５２巷","ALLEY":"１１１弄","HOUSE_NO":"５６號之９","E_COORD97":167378.17999999999,"N_COORD97":2541067.4100000001,"ADDRESS":"金華路一段３５２巷１１１弄５６號之９","OBJECTID":118872},"geometry":{"x":167378.18000000063,"y":2541067.4100000001}},{"attributes":{"ID":118873,"DIS_CODE":0,"TOWNNAME":"七股區","LI":"竹橋里","LIN":"4鄰","STREET":" ","SECT":" ","MAREA":"竹橋","LANE":" ","ALLEY":" ","HOUSE_NO":"４４號之２","E_COORD97":164153.01000000001,"N_COORD97":2555864.6400000001,"ADDRESS":"竹橋４４號之２","OBJECTID":118873},"geometry":{"x":164153.01000000164,"y":2555864.6400000025}},{"attributes":{"ID":118874,"DIS_CODE":0,"TOWNNAME":"南區","LI":"府南里","LIN":"16鄰","STREET":"大成路","SECT":"二段","MAREA":" ","LANE":"２２３巷","ALLEY":"１弄","HOUSE_NO":"１１號","E_COORD97":167182.14999999999,"N_COORD97":2541701.8300000001,"ADDRESS":"大成路二段２２３巷１弄１１號","OBJECTID":118874},"geometry":{"x":167182.1500000013,"y":2541701.8300000001}},{"attributes":{"ID":118875,"DIS_CODE":0,"TOWNNAME":"南區","LI":"府南里","LIN":"16鄰","STREET":"大成路","SECT":"二段","MAREA":" ","LANE":"２２３巷","ALLEY":"１弄","HOUSE_NO":"５號","E_COORD97":167170.45999999999,"N_COORD97":2541705.2799999998,"ADDRESS":"大成路二段２２３巷１弄５號","OBJECTID":118875},"geometry":{"x":167170.45999999996,"y":2541705.2799999993}},{"attributes":{"ID":118876,"DIS_CODE":0,"TOWNNAME":"南區","LI":"府南里","LIN":"16鄰","STREET":"大成路","SECT":"二段","MAREA":" ","LANE":"２２３巷","ALLEY":"１弄","HOUSE_NO":"７號","E_COORD97":167174.48000000001,"N_COORD97":2541703.75,"ADDRESS":"大成路二段２２３巷１弄７號","OBJECTID":118876},"geometry":{"x":167174.48000000045,"y":2541703.7500000037}},{"attributes":{"ID":118877,"DIS_CODE":0,"TOWNNAME":"南區","LI":"府南里","LIN":"16鄰","STREET":"大成路","SECT":"二段","MAREA":" ","LANE":"２２３巷","ALLEY":"１弄","HOUSE_NO":"９號","E_COORD97":167178.89000000001,"N_COORD97":2541702.8799999999,"ADDRESS":"大成路二段２２３巷１弄９號","OBJECTID":118877},"geometry":{"x":167178.88999999966,"y":2541702.8800000008}},{"attributes":{"ID":118878,"DIS_CODE":0,"TOWNNAME":"南區","LI":"建南里","LIN":"16鄰","STREET":"中華南路","SECT":"二段","MAREA":" ","LANE":"２３３巷","ALLEY":"３６弄","HOUSE_NO":"１０號","E_COORD97":166883.42000000001,"N_COORD97":2540092.6800000002,"ADDRESS":"中華南路二段２３３巷３６弄１０號","OBJECTID":118878},"geometry":{"x":166883.42000000086,"y":2540092.6799999997}},{"attributes":{"ID":118879,"DIS_CODE":0,"TOWNNAME":"南區","LI":"建南里","LIN":"16鄰","STREET":"中華南路","SECT":"二段","MAREA":" ","LANE":"２３３巷","ALLEY":"３６弄","HOUSE_NO":"１２號","E_COORD97":166882.04999999999,"N_COORD97":2540096.9900000002,"ADDRESS":"中華南路二段２３３巷３６弄１２號","OBJECTID":118879},"geometry":{"x":166882.05000000168,"y":2540096.9900000002}},{"attributes":{"ID":118880,"DIS_CODE":0,"TOWNNAME":"南區","LI":"建南里","LIN":"16鄰","STREET":"中華南路","SECT":"二段","MAREA":" ","LANE":"２３３巷","ALLEY":"３６弄","HOUSE_NO":"１４號","E_COORD97":166879.5,"N_COORD97":2540102.6600000001,"ADDRESS":"中華南路二段２３３巷３６弄１４號","OBJECTID":118880},"geometry":{"x":166879.50000000093,"y":2540102.6600000001}},{"attributes":{"ID":118881,"DIS_CODE":0,"TOWNNAME":"南區","LI":"建南里","LIN":"16鄰","STREET":"中華南路","SECT":"二段","MAREA":" ","LANE":"２３３巷","ALLEY":"３６弄","HOUSE_NO":"１６號","E_COORD97":166877.73000000001,"N_COORD97":2540106.5800000001,"ADDRESS":"中華南路二段２３３巷３６弄１６號","OBJECTID":118881},"geometry":{"x":166877.73000000045,"y":2540106.5800000001}},{"attributes":{"ID":118882,"DIS_CODE":0,"TOWNNAME":"南區","LI":"建南里","LIN":"16鄰","STREET":"中華南路","SECT":"二段","MAREA":" ","LANE":"２３３巷","ALLEY":"３６弄","HOUSE_NO":"１８號","E_COORD97":166874.79000000001,"N_COORD97":2540110.6899999999,"ADDRESS":"中華南路二段２３３巷３６弄１８號","OBJECTID":118882},"geometry":{"x":166874.79000000004,"y":2540110.6900000013}},{"attributes":{"ID":118883,"DIS_CODE":0,"TOWNNAME":"南區","LI":"建南里","LIN":"16鄰","STREET":"中華南路","SECT":"二段","MAREA":" ","LANE":"２３３巷","ALLEY":"３６弄","HOUSE_NO":"２０號","E_COORD97":166873.42000000001,"N_COORD97":2540118.52,"ADDRESS":"中華南路二段２３３巷３６弄２０號","OBJECTID":118883},"geometry":{"x":166873.42000000086,"y":2540118.5200000014}},{"attributes":{"ID":118884,"DIS_CODE":0,"TOWNNAME":"永康區","LI":"永康里","LIN":"35鄰","STREET":"大同街","SECT":" ","MAREA":" ","LANE":"９０６巷","ALLEY":" ","HOUSE_NO":"７號","E_COORD97":174481.07999999999,"N_COORD97":2546970.4199999999,"ADDRESS":"大同街９０６巷７號","OBJECTID":118884},"geometry":{"x":174481.08000000007,"y":2546970.4199999999}},{"attributes":{"ID":118885,"DIS_CODE":0,"TOWNNAME":"玉井區","LI":"玉田里","LIN":"24鄰","STREET":"中華路","SECT":" ","MAREA":" ","LANE":" ","ALLEY":" ","HOUSE_NO":"１６２號","E_COORD97":195112.26000000001,"N_COORD97":2557892.2400000002,"ADDRESS":"中華路１６２號","OBJECTID":118885},"geometry":{"x":195112.26000000164,"y":2557892.2400000002}},{"attributes":{"ID":118886,"DIS_CODE":0,"TOWNNAME":"玉井區","LI":"玉田里","LIN":"24鄰","STREET":"中華路","SECT":" ","MAREA":" ","LANE":" ","ALLEY":" ","HOUSE_NO":"１８６號","E_COORD97":195159.04999999999,"N_COORD97":2557849.25,"ADDRESS":"中華路１８６號","OBJECTID":118886},"geometry":{"x":195159.04999999981,"y":2557849.2500000019}},{"attributes":{"ID":118887,"DIS_CODE":0,"TOWNNAME":"新營區","LI":"大宏里","LIN":"24鄰","STREET":"民治路","SECT":" ","MAREA":" ","LANE":" ","ALLEY":" ","HOUSE_NO":"３號之２９","E_COORD97":180564.76999999999,"N_COORD97":2578800.46,"ADDRESS":"民治路３號之２９","OBJECTID":118887},"geometry":{"x":180564.76999999955,"y":2578800.4600000046}},{"attributes":{"ID":118888,"DIS_CODE":0,"TOWNNAME":"新營區","LI":"王公里","LIN":"24鄰","STREET":"公正街","SECT":" ","MAREA":" ","LANE":" ","ALLEY":" ","HOUSE_NO":"７９號","E_COORD97":180147.07999999999,"N_COORD97":2579422.54,"ADDRESS":"公正街７９號","OBJECTID":118888},"geometry":{"x":180147.08000000194,"y":2579422.540000001}},{"attributes":{"ID":118889,"DIS_CODE":0,"TOWNNAME":"新營區","LI":"忠政里","LIN":"24鄰","STREET":"健康路","SECT":" ","MAREA":" ","LANE":" ","ALLEY":" ","HOUSE_NO":"３２之１號","E_COORD97":179685.67999999999,"N_COORD97":2578967.2999999998,"ADDRESS":"健康路３２之１號","OBJECTID":118889},"geometry":{"x":179685.6799999997,"y":2578967.3000000007}},{"attributes":{"ID":118890,"DIS_CODE":0,"TOWNNAME":"新營區","LI":"大宏里","LIN":"24鄰","STREET":"民治路","SECT":" ","MAREA":" ","LANE":" ","ALLEY":" ","HOUSE_NO":"３號之２２","E_COORD97":180591.45000000001,"N_COORD97":2578810.3100000001,"ADDRESS":"民治路３號之２２","OBJECTID":118890},"geometry":{"x":180591.45000000019,"y":2578810.3100000005}},{"attributes":{"ID":118891,"DIS_CODE":0,"TOWNNAME":"新營區","LI":"忠政里","LIN":"24鄰","STREET":"健康路","SECT":" ","MAREA":" ","LANE":" ","ALLEY":" ","HOUSE_NO":"３１０號","E_COORD97":179669.82999999999,"N_COORD97":2579660.7000000002,"ADDRESS":"健康路３１０號","OBJECTID":118891},"geometry":{"x":179669.83000000007,"y":2579660.6999999993}},{"attributes":{"ID":118892,"DIS_CODE":0,"TOWNNAME":"新營區","LI":"忠政里","LIN":"24鄰","STREET":"健康路","SECT":" ","MAREA":" ","LANE":" ","ALLEY":" ","HOUSE_NO":"３０２號","E_COORD97":179669.75,"N_COORD97":2579644.0800000001,"ADDRESS":"健康路３０２號","OBJECTID":118892},"geometry":{"x":179669.75000000093,"y":2579644.0800000019}},{"attributes":{"ID":118893,"DIS_CODE":0,"TOWNNAME":"新營區","LI":"忠政里","LIN":"24鄰","STREET":"健康路","SECT":" ","MAREA":" ","LANE":" ","ALLEY":" ","HOUSE_NO":"２７８號","E_COORD97":179671.45999999999,"N_COORD97":2579576.5299999998,"ADDRESS":"健康路２７８號","OBJECTID":118893},"geometry":{"x":179671.46000000089,"y":2579576.5300000012}},{"attributes":{"ID":118894,"DIS_CODE":0,"TOWNNAME":"新營區","LI":"三仙里","LIN":"24鄰","STREET":"育德一街","SECT":" ","MAREA":" ","LANE":" ","ALLEY":" ","HOUSE_NO":"４１號","E_COORD97":179491.13,"N_COORD97":2578911.79,"ADDRESS":"育德一街４１號","OBJECTID":118894},"geometry":{"x":179491.13000000082,"y":2578911.7900000028}},{"attributes":{"ID":118895,"DIS_CODE":0,"TOWNNAME":"新營區","LI":"大宏里","LIN":"24鄰","STREET":"民治路","SECT":" ","MAREA":" ","LANE":" ","ALLEY":" ","HOUSE_NO":"３號之２４","E_COORD97":180591.28,"N_COORD97":2578797.02,"ADDRESS":"民治路３號之２４","OBJECTID":118895},"geometry":{"x":180591.28000000026,"y":2578797.0200000014}},{"attributes":{"ID":118896,"DIS_CODE":0,"TOWNNAME":"新營區","LI":"王公里","LIN":"24鄰","STREET":"中正路","SECT":" ","MAREA":" ","LANE":" ","ALLEY":" ","HOUSE_NO":"１１０之１號","E_COORD97":180108.72,"N_COORD97":2579391.7799999998,"ADDRESS":"中正路１１０之１號","OBJECTID":118896},"geometry":{"x":180108.72000000067,"y":2579391.7799999993}},{"attributes":{"ID":118897,"DIS_CODE":0,"TOWNNAME":"新營區","LI":"忠政里","LIN":"24鄰","STREET":"健康路","SECT":" ","MAREA":" ","LANE":" ","ALLEY":" ","HOUSE_NO":"１２２號","E_COORD97":179673.60999999999,"N_COORD97":2579184.4700000002,"ADDRESS":"健康路１２２號","OBJECTID":118897},"geometry":{"x":179673.61000000034,"y":2579184.4700000025}},{"attributes":{"ID":118898,"DIS_CODE":0,"TOWNNAME":"新營區","LI":"王公里","LIN":"24鄰","STREET":"中正路","SECT":" ","MAREA":" ","LANE":" ","ALLEY":" ","HOUSE_NO":"１１２號","E_COORD97":180104.41,"N_COORD97":2579442.6800000002,"ADDRESS":"中正路１１２號","OBJECTID":118898},"geometry":{"x":180104.41000000108,"y":2579442.6800000016}},{"attributes":{"ID":118899,"DIS_CODE":0,"TOWNNAME":"東區","LI":"崇文里","LIN":"35鄰","STREET":"生產路","SECT":" ","MAREA":" ","LANE":" ","ALLEY":" ","HOUSE_NO":"３６９號","E_COORD97":171190.89999999999,"N_COORD97":2540740.3799999999,"ADDRESS":"生產路３６９號","OBJECTID":118899},"geometry":{"x":171190.90000000037,"y":2540740.379999999}},{"attributes":{"ID":118900,"DIS_CODE":0,"TOWNNAME":"東區","LI":"崇文里","LIN":"35鄰","STREET":"生產路","SECT":" ","MAREA":" ","LANE":" ","ALLEY":" ","HOUSE_NO":"３６９號之１","E_COORD97":171195.48000000001,"N_COORD97":2540741.6699999999,"ADDRESS":"生產路３６９號之１","OBJECTID":118900},"geometry":{"x":171195.48000000045,"y":2540741.6700000018}},{"attributes":{"ID":118901,"DIS_CODE":0,"TOWNNAME":"永康區","LI":"正強里","LIN":"4鄰","STREET":"正義街","SECT":" ","MAREA":" ","LANE":" ","ALLEY":" ","HOUSE_NO":"４２號","E_COORD97":173570.94,"N_COORD97":2547677.6400000001,"ADDRESS":"正義街４２號","OBJECTID":118901},"geometry":{"x":173570.94000000227,"y":2547677.6400000006}},{"attributes":{"ID":118902,"DIS_CODE":0,"TOWNNAME":"東區","LI":"崇文里","LIN":"35鄰","STREET":"生產路","SECT":" ","MAREA":" ","LANE":" ","ALLEY":" ","HOUSE_NO":"３６９號之２","E_COORD97":171200.35999999999,"N_COORD97":2540743.27,"ADDRESS":"生產路３６９號之２","OBJECTID":118902},"geometry":{"x":171200.36000000127,"y":2540743.2699999977}},{"attributes":{"ID":118903,"DIS_CODE":0,"TOWNNAME":"東區","LI":"崇文里","LIN":"35鄰","STREET":"生產路","SECT":" ","MAREA":" ","LANE":" ","ALLEY":" ","HOUSE_NO":"３６９號之３","E_COORD97":171204.73999999999,"N_COORD97":2540745.0600000001,"ADDRESS":"生產路３６９號之３","OBJECTID":118903},"geometry":{"x":171204.74000000115,"y":2540745.0600000005}},{"attributes":{"ID":118904,"DIS_CODE":0,"TOWNNAME":"東區","LI":"崇文里","LIN":"35鄰","STREET":"生產路","SECT":" ","MAREA":" ","LANE":" ","ALLEY":" ","HOUSE_NO":"３７１號","E_COORD97":171203.14000000001,"N_COORD97":2540758.8700000001,"ADDRESS":"生產路３７１號","OBJECTID":118904},"geometry":{"x":171203.1400000006,"y":2540758.8700000029}},{"attributes":{"ID":118905,"DIS_CODE":0,"TOWNNAME":"南區","LI":"建南里","LIN":"16鄰","STREET":"中華南路","SECT":"二段","MAREA":" ","LANE":"２３３巷","ALLEY":"３６弄","HOUSE_NO":"８號","E_COORD97":166885.57000000001,"N_COORD97":2540087.98,"ADDRESS":"中華南路二段２３３巷３６弄８號","OBJECTID":118905},"geometry":{"x":166885.5700000003,"y":2540087.9800000004}},{"attributes":{"ID":118906,"DIS_CODE":0,"TOWNNAME":"歸仁區","LI":"看東里","LIN":"16鄰","STREET":"中山路","SECT":"一段","MAREA":" ","LANE":"１巷","ALLEY":"３８弄","HOUSE_NO":"８號","E_COORD97":179545.13,"N_COORD97":2540235.5699999998,"ADDRESS":"中山路一段１巷３８弄８號","OBJECTID":118906},"geometry":{"x":179545.13000000082,"y":2540235.5700000003}},{"attributes":{"ID":118907,"DIS_CODE":0,"TOWNNAME":"歸仁區","LI":"南興里","LIN":"16鄰","STREET":"南興一街","SECT":" ","MAREA":" ","LANE":"４８巷","ALLEY":"１弄","HOUSE_NO":"７號","E_COORD97":175774.89000000001,"N_COORD97":2541306.25,"ADDRESS":"南興一街４８巷１弄７號","OBJECTID":118907},"geometry":{"x":175774.8900000006,"y":2541306.25}},{"attributes":{"ID":118908,"DIS_CODE":0,"TOWNNAME":"歸仁區","LI":"南興里","LIN":"16鄰","STREET":"南興一街","SECT":" ","MAREA":" ","LANE":"４８巷","ALLEY":"１弄","HOUSE_NO":"９號","E_COORD97":175780.98999999999,"N_COORD97":2541306.25,"ADDRESS":"南興一街４８巷１弄９號","OBJECTID":118908},"geometry":{"x":175780.99000000209,"y":2541306.25}},{"attributes":{"ID":118909,"DIS_CODE":0,"TOWNNAME":"歸仁區","LI":"武東里","LIN":"16鄰","STREET":"光明街","SECT":" ","MAREA":" ","LANE":"８６巷","ALLEY":"３４０弄","HOUSE_NO":"１１８號","E_COORD97":175339.48999999999,"N_COORD97":2536907.25,"ADDRESS":"光明街８６巷３４０弄１１８號","OBJECTID":118909},"geometry":{"x":175339.49000000022,"y":2536907.2500000019}},{"attributes":{"ID":118910,"DIS_CODE":0,"TOWNNAME":"歸仁區","LI":"南興里","LIN":"16鄰","STREET":"南興一街","SECT":" ","MAREA":" ","LANE":"４８巷","ALLEY":"１弄","HOUSE_NO":"１１號","E_COORD97":175788.44,"N_COORD97":2541306.25,"ADDRESS":"南興一街４８巷１弄１１號","OBJECTID":118910},"geometry":{"x":175788.44000000134,"y":2541306.25}},{"attributes":{"ID":118911,"DIS_CODE":0,"TOWNNAME":"歸仁區","LI":"武東里","LIN":"16鄰","STREET":"光明街","SECT":" ","MAREA":" ","LANE":"８６巷","ALLEY":"１３６弄","HOUSE_NO":"１０號","E_COORD97":175427.04000000001,"N_COORD97":2536612.25,"ADDRESS":"光明街８６巷１３６弄１０號","OBJECTID":118911},"geometry":{"x":175427.04000000004,"y":2536612.2500000019}},{"attributes":{"ID":118912,"DIS_CODE":0,"TOWNNAME":"歸仁區","LI":"七甲里","LIN":"16鄰","STREET":"南潭二街","SECT":" ","MAREA":" ","LANE":"１３０巷","ALLEY":"７弄","HOUSE_NO":"２３號","E_COORD97":176487.06,"N_COORD97":2542947.0299999998,"ADDRESS":"南潭二街１３０巷７弄２３號","OBJECTID":118912},"geometry":{"x":176487.06000000052,"y":2542947.0299999993}},{"attributes":{"ID":118913,"DIS_CODE":0,"TOWNNAME":"北區","LI":"正覺里","LIN":"16鄰","STREET":"正覺街","SECT":" ","MAREA":" ","LANE":"１０２巷","ALLEY":"４弄","HOUSE_NO":"１０號","E_COORD97":169359.62,"N_COORD97":2546460.8799999999,"ADDRESS":"正覺街１０２巷４弄１０號","OBJECTID":118913},"geometry":{"x":169359.62000000011,"y":2546460.879999999}},{"attributes":{"ID":118914,"DIS_CODE":0,"TOWNNAME":"北區","LI":"正覺里","LIN":"16鄰","STREET":"正覺街","SECT":" ","MAREA":" ","LANE":"１０２巷","ALLEY":"４弄","HOUSE_NO":"１１號","E_COORD97":169394.13,"N_COORD97":2546461.1800000002,"ADDRESS":"正覺街１０２巷４弄１１號","OBJECTID":118914},"geometry":{"x":169394.13000000082,"y":2546461.1800000016}},{"attributes":{"ID":118915,"DIS_CODE":0,"TOWNNAME":"北區","LI":"正覺里","LIN":"16鄰","STREET":"正覺街","SECT":" ","MAREA":" ","LANE":"１０２巷","ALLEY":"４弄","HOUSE_NO":"１２號","E_COORD97":169358.91,"N_COORD97":2546456.4199999999,"ADDRESS":"正覺街１０２巷４弄１２號","OBJECTID":118915},"geometry":{"x":169358.91000000108,"y":2546456.4200000018}},{"attributes":{"ID":118916,"DIS_CODE":0,"TOWNNAME":"北區","LI":"正覺里","LIN":"16鄰","STREET":"正覺街","SECT":" ","MAREA":" ","LANE":"１０２巷","ALLEY":"４弄","HOUSE_NO":"１３號","E_COORD97":169387.75,"N_COORD97":2546447.4900000002,"ADDRESS":"正覺街１０２巷４弄１３號","OBJECTID":118916},"geometry":{"x":169387.75,"y":2546447.4900000002}},{"attributes":{"ID":118917,"DIS_CODE":0,"TOWNNAME":"北區","LI":"正覺里","LIN":"16鄰","STREET":"正覺街","SECT":" ","MAREA":" ","LANE":"１０２巷","ALLEY":"４弄","HOUSE_NO":"１４號","E_COORD97":169356.98999999999,"N_COORD97":2546451.8900000001,"ADDRESS":"正覺街１０２巷４弄１４號","OBJECTID":118917},"geometry":{"x":169356.99000000115,"y":2546451.8900000006}},{"attributes":{"ID":118918,"DIS_CODE":0,"TOWNNAME":"北區","LI":"正覺里","LIN":"16鄰","STREET":"正覺街","SECT":" ","MAREA":" ","LANE":"１０２巷","ALLEY":"４弄","HOUSE_NO":"１５號","E_COORD97":169377.41,"N_COORD97":2546454.9900000002,"ADDRESS":"正覺街１０２巷４弄１５號","OBJECTID":118918},"geometry":{"x":169377.41000000108,"y":2546454.9900000002}},{"attributes":{"ID":118919,"DIS_CODE":0,"TOWNNAME":"北區","LI":"正覺里","LIN":"16鄰","STREET":"正覺街","SECT":" ","MAREA":" ","LANE":"１０２巷","ALLEY":"４弄","HOUSE_NO":"１６號","E_COORD97":169347.72,"N_COORD97":2546452.7400000002,"ADDRESS":"正覺街１０２巷４弄１６號","OBJECTID":118919},"geometry":{"x":169347.72000000067,"y":2546452.7400000002}},{"attributes":{"ID":118920,"DIS_CODE":0,"TOWNNAME":"北區","LI":"正覺里","LIN":"16鄰","STREET":"正覺街","SECT":" ","MAREA":" ","LANE":"１０２巷","ALLEY":"４弄","HOUSE_NO":"１７號","E_COORD97":169377.06,"N_COORD97":2546450.46,"ADDRESS":"正覺街１０２巷４弄１７號","OBJECTID":118920},"geometry":{"x":169377.06000000145,"y":2546450.4600000028}},{"attributes":{"ID":118921,"DIS_CODE":0,"TOWNNAME":"北區","LI":"正覺里","LIN":"16鄰","STREET":"正覺街","SECT":" ","MAREA":" ","LANE":"１０２巷","ALLEY":"４弄","HOUSE_NO":"１８號","E_COORD97":169343.95999999999,"N_COORD97":2546452.96,"ADDRESS":"正覺街１０２巷４弄１８號","OBJECTID":118921},"geometry":{"x":169343.95999999996,"y":2546452.9600000046}},{"attributes":{"ID":118922,"DIS_CODE":0,"TOWNNAME":"北區","LI":"正覺里","LIN":"16鄰","STREET":"正覺街","SECT":" ","MAREA":" ","LANE":"１０２巷","ALLEY":"４弄","HOUSE_NO":"１９號","E_COORD97":169376.56,"N_COORD97":2546445.6499999999,"ADDRESS":"正覺街１０２巷４弄１９號","OBJECTID":118922},"geometry":{"x":169376.55999999959,"y":2546445.6500000022}},{"attributes":{"ID":118923,"DIS_CODE":0,"TOWNNAME":"北區","LI":"正覺里","LIN":"16鄰","STREET":"正覺街","SECT":" ","MAREA":" ","LANE":"１０２巷","ALLEY":"４弄","HOUSE_NO":"１號","E_COORD97":169378.69,"N_COORD97":2546476.9700000002,"ADDRESS":"正覺街１０２巷４弄１號","OBJECTID":118923},"geometry":{"x":169378.69000000227,"y":2546476.9700000025}},{"attributes":{"ID":118924,"DIS_CODE":0,"TOWNNAME":"北區","LI":"成德里","LIN":"35鄰","STREET":"文成二路","SECT":" ","MAREA":" ","LANE":" ","ALLEY":" ","HOUSE_NO":"９６號","E_COORD97":168564.42000000001,"N_COORD97":2546178.8399999999,"ADDRESS":"文成二路９６號","OBJECTID":118924},"geometry":{"x":168564.41999999993,"y":2546178.8400000017}},{"attributes":{"ID":118925,"DIS_CODE":0,"TOWNNAME":"七股區","LI":"竹橋里","LIN":"4鄰","STREET":" ","SECT":" ","MAREA":"竹橋","LANE":" ","ALLEY":" ","HOUSE_NO":"４４號之３","E_COORD97":164146.91,"N_COORD97":2555863.1400000001,"ADDRESS":"竹橋４４號之３","OBJECTID":118925},"geometry":{"x":164146.91000000015,"y":2555863.1400000043}},{"attributes":{"ID":118926,"DIS_CODE":0,"TOWNNAME":"七股區","LI":"竹橋里","LIN":"4鄰","STREET":" ","SECT":" ","MAREA":"竹橋","LANE":" ","ALLEY":" ","HOUSE_NO":"４５號之１","E_COORD97":164139.20999999999,"N_COORD97":2555861.6299999999,"ADDRESS":"竹橋４５號之１","OBJECTID":118926},"geometry":{"x":164139.20999999996,"y":2555861.6300000027}},{"attributes":{"ID":118927,"DIS_CODE":0,"TOWNNAME":"七股區","LI":"樹林里","LIN":"4鄰","STREET":" ","SECT":" ","MAREA":"樹林","LANE":" ","ALLEY":" ","HOUSE_NO":"４１號之７","E_COORD97":164083.03,"N_COORD97":2557178.3999999999,"ADDRESS":"樹林４１號之７","OBJECTID":118927},"geometry":{"x":164083.03000000119,"y":2557178.4000000004}},{"attributes":{"ID":118928,"DIS_CODE":0,"TOWNNAME":"七股區","LI":"樹林里","LIN":"4鄰","STREET":" ","SECT":" ","MAREA":"樹林","LANE":" ","ALLEY":" ","HOUSE_NO":"４１號之８","E_COORD97":164112.62,"N_COORD97":2557193.7599999998,"ADDRESS":"樹林４１號之８","OBJECTID":118928},"geometry":{"x":164112.62000000104,"y":2557193.7600000035}},{"attributes":{"ID":118929,"DIS_CODE":0,"TOWNNAME":"七股區","LI":"樹林里","LIN":"4鄰","STREET":" ","SECT":" ","MAREA":"樹林","LANE":" ","ALLEY":" ","HOUSE_NO":"４１號之９","E_COORD97":164136.63,"N_COORD97":2557239.7599999998,"ADDRESS":"樹林４１號之９","OBJECTID":118929},"geometry":{"x":164136.62999999989,"y":2557239.7599999998}},{"attributes":{"ID":118930,"DIS_CODE":0,"TOWNNAME":"七股區","LI":"樹林里","LIN":"4鄰","STREET":" ","SECT":" ","MAREA":"樹林","LANE":" ","ALLEY":" ","HOUSE_NO":"４２號之１０","E_COORD97":164033.91,"N_COORD97":2557176.6699999999,"ADDRESS":"樹林４２號之１０","OBJECTID":118930},"geometry":{"x":164033.91000000108,"y":2557176.6699999999}},{"attributes":{"ID":118931,"DIS_CODE":0,"TOWNNAME":"永康區","LI":"龍潭里","LIN":"35鄰","STREET":"自強路","SECT":" ","MAREA":" ","LANE":" ","ALLEY":" ","HOUSE_NO":"８２４號","E_COORD97":174613.20000000001,"N_COORD97":2548638.1099999999,"ADDRESS":"自強路８２４號","OBJECTID":118931},"geometry":{"x":174613.20000000205,"y":2548638.1100000013}},{"attributes":{"ID":118932,"DIS_CODE":0,"TOWNNAME":"永康區","LI":"復華里","LIN":"35鄰","STREET":"復華七街","SECT":" ","MAREA":" ","LANE":" ","ALLEY":" ","HOUSE_NO":"４３號","E_COORD97":172662.35999999999,"N_COORD97":2545997.9700000002,"ADDRESS":"復華七街４３號","OBJECTID":118932},"geometry":{"x":172662.36000000034,"y":2545997.9700000007}},{"attributes":{"ID":118933,"DIS_CODE":0,"TOWNNAME":"北區","LI":"正覺里","LIN":"16鄰","STREET":"正覺街","SECT":" ","MAREA":" ","LANE":"１０２巷","ALLEY":"４弄","HOUSE_NO":"２１號","E_COORD97":169376.14000000001,"N_COORD97":2546442.25,"ADDRESS":"正覺街１０２巷４弄２１號","OBJECTID":118933},"geometry":{"x":169376.13999999966,"y":2546442.25}},{"attributes":{"ID":118934,"DIS_CODE":0,"TOWNNAME":"新市區","LI":"新和里","LIN":"35鄰","STREET":"仁愛街","SECT":" ","MAREA":" ","LANE":" ","ALLEY":" ","HOUSE_NO":"２２９號","E_COORD97":177613.12,"N_COORD97":2552885.2799999998,"ADDRESS":"仁愛街２２９號","OBJECTID":118934},"geometry":{"x":177613.12000000104,"y":2552885.2800000012}},{"attributes":{"ID":118935,"DIS_CODE":0,"TOWNNAME":"新市區","LI":"新和里","LIN":"35鄰","STREET":"仁愛街","SECT":" ","MAREA":" ","LANE":" ","ALLEY":" ","HOUSE_NO":"２３５號","E_COORD97":177615.78,"N_COORD97":2552897.7799999998,"ADDRESS":"仁愛街２３５號","OBJECTID":118935},"geometry":{"x":177615.78000000026,"y":2552897.7800000031}},{"attributes":{"ID":118936,"DIS_CODE":0,"TOWNNAME":"新市區","LI":"新和里","LIN":"35鄰","STREET":"仁愛街","SECT":" ","MAREA":" ","LANE":" ","ALLEY":" ","HOUSE_NO":"２４５號","E_COORD97":177620.42000000001,"N_COORD97":2552920.2799999998,"ADDRESS":"仁愛街２４５號","OBJECTID":118936},"geometry":{"x":177620.42000000179,"y":2552920.2799999993}},{"attributes":{"ID":118937,"DIS_CODE":0,"TOWNNAME":"北區","LI":"正覺里","LIN":"16鄰","STREET":"正覺街","SECT":" ","MAREA":" ","LANE":"１０２巷","ALLEY":"４弄","HOUSE_NO":"２號","E_COORD97":169366.63,"N_COORD97":2546478.4399999999,"ADDRESS":"正覺街１０２巷４弄２號","OBJECTID":118937},"geometry":{"x":169366.62999999896,"y":2546478.4399999995}},{"attributes":{"ID":118938,"DIS_CODE":0,"TOWNNAME":"北區","LI":"正覺里","LIN":"16鄰","STREET":"正覺街","SECT":" ","MAREA":" ","LANE":"１０２巷","ALLEY":"４弄","HOUSE_NO":"３號","E_COORD97":169379.60999999999,"N_COORD97":2546473.0800000001,"ADDRESS":"正覺街１０２巷４弄３號","OBJECTID":118938},"geometry":{"x":169379.61000000127,"y":2546473.0800000019}},{"attributes":{"ID":118939,"DIS_CODE":0,"TOWNNAME":"北區","LI":"正覺里","LIN":"16鄰","STREET":"正覺街","SECT":" ","MAREA":" ","LANE":"１０２巷","ALLEY":"４弄","HOUSE_NO":"４號","E_COORD97":169363.44,"N_COORD97":2546473.2000000002,"ADDRESS":"正覺街１０２巷４弄４號","OBJECTID":118939},"geometry":{"x":169363.44000000227,"y":2546473.1999999974}},{"attributes":{"ID":118940,"DIS_CODE":0,"TOWNNAME":"北區","LI":"正覺里","LIN":"16鄰","STREET":"正覺街","SECT":" ","MAREA":" ","LANE":"１０２巷","ALLEY":"４弄","HOUSE_NO":"５號","E_COORD97":169379.32999999999,"N_COORD97":2546470.04,"ADDRESS":"正覺街１０２巷４弄５號","OBJECTID":118940},"geometry":{"x":169379.33000000101,"y":2546470.0399999991}},{"attributes":{"ID":118941,"DIS_CODE":0,"TOWNNAME":"北區","LI":"正覺里","LIN":"16鄰","STREET":"正覺街","SECT":" ","MAREA":" ","LANE":"１０２巷","ALLEY":"４弄","HOUSE_NO":"６號","E_COORD97":169362.23999999999,"N_COORD97":2546468.3900000001,"ADDRESS":"正覺街１０２巷４弄６號","OBJECTID":118941},"geometry":{"x":169362.24000000022,"y":2546468.3900000025}},{"attributes":{"ID":118942,"DIS_CODE":0,"TOWNNAME":"新市區","LI":"大社里","LIN":"35鄰","STREET":" ","SECT":" ","MAREA":"大社","LANE":" ","ALLEY":" ","HOUSE_NO":"５８９之１２號","E_COORD97":179298.54000000001,"N_COORD97":2554518.7999999998,"ADDRESS":"大社５８９之１２號","OBJECTID":118942},"geometry":{"x":179298.54000000097,"y":2554518.8000000007}},{"attributes":{"ID":118943,"DIS_CODE":0,"TOWNNAME":"北區","LI":"正覺里","LIN":"16鄰","STREET":"正覺街","SECT":" ","MAREA":" ","LANE":"１０２巷","ALLEY":"４弄","HOUSE_NO":"７號","E_COORD97":169378.76000000001,"N_COORD97":2546465.5800000001,"ADDRESS":"正覺街１０２巷４弄７號","OBJECTID":118943},"geometry":{"x":169378.75999999978,"y":2546465.5800000019}},{"attributes":{"ID":118944,"DIS_CODE":0,"TOWNNAME":"新市區","LI":"大社里","LIN":"35鄰","STREET":" ","SECT":" ","MAREA":"大社","LANE":" ","ALLEY":" ","HOUSE_NO":"５８９之８３號","E_COORD97":179375.09,"N_COORD97":2554575.0499999998,"ADDRESS":"大社５８９之８３號","OBJECTID":118944},"geometry":{"x":179375.08999999985,"y":2554575.0500000007}},{"attributes":{"ID":118945,"DIS_CODE":0,"TOWNNAME":"北區","LI":"正覺里","LIN":"16鄰","STREET":"正覺街","SECT":" ","MAREA":" ","LANE":"１０２巷","ALLEY":"４弄","HOUSE_NO":"８號","E_COORD97":169361.10000000001,"N_COORD97":2546464.7799999998,"ADDRESS":"正覺街１０２巷４弄８號","OBJECTID":118945},"geometry":{"x":169361.09999999963,"y":2546464.7799999993}},{"attributes":{"ID":118946,"DIS_CODE":0,"TOWNNAME":"北區","LI":"正覺里","LIN":"16鄰","STREET":"正覺街","SECT":" ","MAREA":" ","LANE":"１０２巷","ALLEY":"４弄","HOUSE_NO":"９號","E_COORD97":169389.60000000001,"N_COORD97":2546462.0299999998,"ADDRESS":"正覺街１０２巷４弄９號","OBJECTID":118946},"geometry":{"x":169389.59999999963,"y":2546462.0300000012}},{"attributes":{"ID":118947,"DIS_CODE":0,"TOWNNAME":"安平區","LI":"港仔里","LIN":"16鄰","STREET":"運河路","SECT":" ","MAREA":" ","LANE":"１３巷","ALLEY":"３１弄","HOUSE_NO":"１９號","E_COORD97":164123.07000000001,"N_COORD97":2544503.3100000001,"ADDRESS":"運河路１３巷３１弄１９號","OBJECTID":118947},"geometry":{"x":164123.07000000123,"y":2544503.3100000005}},{"attributes":{"ID":118948,"DIS_CODE":0,"TOWNNAME":"安平區","LI":"港仔里","LIN":"16鄰","STREET":"運河路","SECT":" ","MAREA":" ","LANE":"１３巷","ALLEY":"３弄","HOUSE_NO":"１４號","E_COORD97":164122.67000000001,"N_COORD97":2544439.0899999999,"ADDRESS":"運河路１３巷３弄１４號","OBJECTID":118948},"geometry":{"x":164122.66999999993,"y":2544439.0899999999}},{"attributes":{"ID":118949,"DIS_CODE":0,"TOWNNAME":"安平區","LI":"港仔里","LIN":"16鄰","STREET":"運河路","SECT":" ","MAREA":" ","LANE":"１３巷","ALLEY":"３弄","HOUSE_NO":"１６號","E_COORD97":164122.07000000001,"N_COORD97":2544428.8100000001,"ADDRESS":"運河路１３巷３弄１６號","OBJECTID":118949},"geometry":{"x":164122.0700000003,"y":2544428.8100000005}},{"attributes":{"ID":118950,"DIS_CODE":0,"TOWNNAME":"安平區","LI":"港仔里","LIN":"16鄰","STREET":"運河路","SECT":" ","MAREA":" ","LANE":"１３巷","ALLEY":"３弄","HOUSE_NO":"１８號","E_COORD97":164114.39999999999,"N_COORD97":2544441.5099999998,"ADDRESS":"運河路１３巷３弄１８號","OBJECTID":118950},"geometry":{"x":164114.4000000013,"y":2544441.5100000016}},{"attributes":{"ID":118951,"DIS_CODE":0,"TOWNNAME":"安平區","LI":"港仔里","LIN":"16鄰","STREET":"運河路","SECT":" ","MAREA":" ","LANE":"１３巷","ALLEY":"３１弄","HOUSE_NO":"１５號","E_COORD97":164131.44,"N_COORD97":2544500.1899999999,"ADDRESS":"運河路１３巷３１弄１５號","OBJECTID":118951},"geometry":{"x":164131.44000000041,"y":2544500.1899999976}},{"attributes":{"ID":118952,"DIS_CODE":0,"TOWNNAME":"新市區","LI":"大社里","LIN":"35鄰","STREET":" ","SECT":" ","MAREA":"大社","LANE":" ","ALLEY":" ","HOUSE_NO":"５８９之５７號","E_COORD97":179305.95999999999,"N_COORD97":2554546.7999999998,"ADDRESS":"大社５８９之５７號","OBJECTID":118952},"geometry":{"x":179305.96000000089,"y":2554546.8000000045}},{"attributes":{"ID":118953,"DIS_CODE":0,"TOWNNAME":"新市區","LI":"大社里","LIN":"35鄰","STREET":" ","SECT":" ","MAREA":"大社","LANE":" ","ALLEY":" ","HOUSE_NO":"５８９之５８號","E_COORD97":179309.54000000001,"N_COORD97":2554549.0499999998,"ADDRESS":"大社５８９之５８號","OBJECTID":118953},"geometry":{"x":179309.54000000004,"y":2554549.0500000026}},{"attributes":{"ID":118954,"DIS_CODE":0,"TOWNNAME":"新市區","LI":"大社里","LIN":"35鄰","STREET":" ","SECT":" ","MAREA":"大社","LANE":" ","ALLEY":" ","HOUSE_NO":"５８９之４７號","E_COORD97":179324.01999999999,"N_COORD97":2554575.7999999998,"ADDRESS":"大社５８９之４７號","OBJECTID":118954},"geometry":{"x":179324.01999999955,"y":2554575.8000000007}},{"attributes":{"ID":118955,"DIS_CODE":0,"TOWNNAME":"新市區","LI":"大社里","LIN":"35鄰","STREET":" ","SECT":" ","MAREA":"大社","LANE":" ","ALLEY":" ","HOUSE_NO":"５８９之９號","E_COORD97":179290.17999999999,"N_COORD97":2554529.5499999998,"ADDRESS":"大社５８９之９號","OBJECTID":118955},"geometry":{"x":179290.18000000063,"y":2554529.5500000026}},{"attributes":{"ID":118956,"DIS_CODE":0,"TOWNNAME":"歸仁區","LI":"後市里","LIN":"35鄰","STREET":"國光街","SECT":" ","MAREA":" ","LANE":" ","ALLEY":" ","HOUSE_NO":"１０５號","E_COORD97":177305.34,"N_COORD97":2540996.7400000002,"ADDRESS":"國光街１０５號","OBJECTID":118956},"geometry":{"x":177305.33999999985,"y":2540996.7400000021}},{"attributes":{"ID":118957,"DIS_CODE":0,"TOWNNAME":"歸仁區","LI":"後市里","LIN":"35鄰","STREET":"國光街","SECT":" ","MAREA":" ","LANE":" ","ALLEY":" ","HOUSE_NO":"９９號","E_COORD97":177284.48999999999,"N_COORD97":2540970.7400000002,"ADDRESS":"國光街９９號","OBJECTID":118957},"geometry":{"x":177284.48999999929,"y":2540970.7400000002}},{"attributes":{"ID":118958,"DIS_CODE":0,"TOWNNAME":"安平區","LI":"港仔里","LIN":"16鄰","STREET":"運河路","SECT":" ","MAREA":" ","LANE":"１３巷","ALLEY":"３１弄","HOUSE_NO":"１７號","E_COORD97":164128.42000000001,"N_COORD97":2544501.3999999999,"ADDRESS":"運河路１３巷３１弄１７號","OBJECTID":118958},"geometry":{"x":164128.42000000179,"y":2544501.4000000022}},{"attributes":{"ID":118959,"DIS_CODE":0,"TOWNNAME":"後壁區","LI":"崁頂里","LIN":"6鄰","STREET":" ","SECT":" ","MAREA":"崁頂","LANE":" ","ALLEY":" ","HOUSE_NO":"６２號","E_COORD97":183085.82000000001,"N_COORD97":2586696.6899999999,"ADDRESS":"崁頂６２號","OBJECTID":118959},"geometry":{"x":183085.82000000123,"y":2586696.6899999995}},{"attributes":{"ID":118960,"DIS_CODE":0,"TOWNNAME":"六甲區","LI":"水林里","LIN":"16鄰","STREET":"林森街","SECT":" ","MAREA":" ","LANE":"２４巷","ALLEY":"７弄","HOUSE_NO":"１１號","E_COORD97":183307.95000000001,"N_COORD97":2570212.96,"ADDRESS":"林森街２４巷７弄１１號","OBJECTID":118960},"geometry":{"x":183307.95000000112,"y":2570212.9600000046}},{"attributes":{"ID":118961,"DIS_CODE":0,"TOWNNAME":"七股區","LI":"樹林里","LIN":"4鄰","STREET":" ","SECT":" ","MAREA":"樹林","LANE":" ","ALLEY":" ","HOUSE_NO":"４２號之１１","E_COORD97":164032.42999999999,"N_COORD97":2557171.9100000001,"ADDRESS":"樹林４２號之１１","OBJECTID":118961},"geometry":{"x":164032.4299999997,"y":2557171.9100000001}},{"attributes":{"ID":118962,"DIS_CODE":0,"TOWNNAME":"六甲區","LI":"水林里","LIN":"16鄰","STREET":"林森街","SECT":" ","MAREA":" ","LANE":"２４巷","ALLEY":"７弄","HOUSE_NO":"１號","E_COORD97":183300.51000000001,"N_COORD97":2570183.9399999999,"ADDRESS":"林森街２４巷７弄１號","OBJECTID":118962},"geometry":{"x":183300.51000000071,"y":2570183.9399999995}},{"attributes":{"ID":118963,"DIS_CODE":0,"TOWNNAME":"七股區","LI":"樹林里","LIN":"4鄰","STREET":" ","SECT":" ","MAREA":"樹林","LANE":" ","ALLEY":" ","HOUSE_NO":"４２號之１２","E_COORD97":164030.95000000001,"N_COORD97":2557167.1600000001,"ADDRESS":"樹林４２號之１２","OBJECTID":118963},"geometry":{"x":164030.95000000112,"y":2557167.1600000001}},{"attributes":{"ID":118964,"DIS_CODE":0,"TOWNNAME":"六甲區","LI":"水林里","LIN":"16鄰","STREET":"林森街","SECT":" ","MAREA":" ","LANE":"２４巷","ALLEY":"７弄","HOUSE_NO":"３號","E_COORD97":183301.95000000001,"N_COORD97":2570189.7400000002,"ADDRESS":"林森街２４巷７弄３號","OBJECTID":118964},"geometry":{"x":183301.95000000019,"y":2570189.7400000039}},{"attributes":{"ID":118965,"DIS_CODE":0,"TOWNNAME":"六甲區","LI":"水林里","LIN":"16鄰","STREET":"林森街","SECT":" ","MAREA":" ","LANE":"２４巷","ALLEY":"７弄","HOUSE_NO":"５號","E_COORD97":183303.23000000001,"N_COORD97":2570196.04,"ADDRESS":"林森街２４巷７弄５號","OBJECTID":118965},"geometry":{"x":183303.23000000138,"y":2570196.0399999991}},{"attributes":{"ID":118966,"DIS_CODE":0,"TOWNNAME":"六甲區","LI":"水林里","LIN":"16鄰","STREET":"林森街","SECT":" ","MAREA":" ","LANE":"２４巷","ALLEY":"７弄","HOUSE_NO":"７號","E_COORD97":183304.42999999999,"N_COORD97":2570202.0299999998,"ADDRESS":"林森街２４巷７弄７號","OBJECTID":118966},"geometry":{"x":183304.43000000063,"y":2570202.0300000012}},{"attributes":{"ID":118967,"DIS_CODE":0,"TOWNNAME":"七股區","LI":"樹林里","LIN":"4鄰","STREET":" ","SECT":" ","MAREA":"樹林","LANE":" ","ALLEY":" ","HOUSE_NO":"４２號之１５","E_COORD97":164019.22,"N_COORD97":2557162.8399999999,"ADDRESS":"樹林４２號之１５","OBJECTID":118967},"geometry":{"x":164019.21999999881,"y":2557162.8400000036}},{"attributes":{"ID":118968,"DIS_CODE":0,"TOWNNAME":"官田區","LI":"大崎里","LIN":"4鄰","STREET":" ","SECT":" ","MAREA":"大崎","LANE":" ","ALLEY":" ","HOUSE_NO":"３８號之２","E_COORD97":185715.79000000001,"N_COORD97":2565581.9300000002,"ADDRESS":"大崎３８號之２","OBJECTID":118968},"geometry":{"x":185715.78999999911,"y":2565581.9300000016}},{"attributes":{"ID":118969,"DIS_CODE":0,"TOWNNAME":"官田區","LI":"大崎里","LIN":"4鄰","STREET":" ","SECT":" ","MAREA":"大崎","LANE":" ","ALLEY":" ","HOUSE_NO":"３８號之３","E_COORD97":185728.53,"N_COORD97":2565588.8700000001,"ADDRESS":"大崎３８號之３","OBJECTID":118969},"geometry":{"x":185728.53000000119,"y":2565588.8699999992}},{"attributes":{"ID":118970,"DIS_CODE":0,"TOWNNAME":"官田區","LI":"大崎里","LIN":"4鄰","STREET":" ","SECT":" ","MAREA":"大崎","LANE":" ","ALLEY":" ","HOUSE_NO":"３８號","E_COORD97":185656.98000000001,"N_COORD97":2565553.5600000001,"ADDRESS":"大崎３８號","OBJECTID":118970},"geometry":{"x":185656.98000000045,"y":2565553.5600000042}},{"attributes":{"ID":118971,"DIS_CODE":0,"TOWNNAME":"六甲區","LI":"水林里","LIN":"16鄰","STREET":"林森街","SECT":" ","MAREA":" ","LANE":"２４巷","ALLEY":"７弄","HOUSE_NO":"９號","E_COORD97":183305.57000000001,"N_COORD97":2570207.3500000001,"ADDRESS":"林森街２４巷７弄９號","OBJECTID":118971},"geometry":{"x":183305.57000000123,"y":2570207.3499999996}},{"attributes":{"ID":118972,"DIS_CODE":0,"TOWNNAME":"六甲區","LI":"二甲里","LIN":"16鄰","STREET":"信義街","SECT":" ","MAREA":" ","LANE":"２１１巷","ALLEY":"１２弄","HOUSE_NO":"１號","E_COORD97":183272.34,"N_COORD97":2569772.7200000002,"ADDRESS":"信義街２１１巷１２弄１號","OBJECTID":118972},"geometry":{"x":183272.33999999985,"y":2569772.7200000007}},{"attributes":{"ID":118973,"DIS_CODE":0,"TOWNNAME":"官田區","LI":"大崎里","LIN":"4鄰","STREET":" ","SECT":" ","MAREA":"大崎","LANE":" ","ALLEY":" ","HOUSE_NO":"３９號之１","E_COORD97":185642.37,"N_COORD97":2565587.52,"ADDRESS":"大崎３９號之１","OBJECTID":118973},"geometry":{"x":185642.37000000011,"y":2565587.5200000014}},{"attributes":{"ID":118974,"DIS_CODE":0,"TOWNNAME":"六甲區","LI":"二甲里","LIN":"16鄰","STREET":"信義街","SECT":" ","MAREA":" ","LANE":"２１１巷","ALLEY":"１２弄","HOUSE_NO":"２號","E_COORD97":183290.92999999999,"N_COORD97":2569765.0699999998,"ADDRESS":"信義街２１１巷１２弄２號","OBJECTID":118974},"geometry":{"x":183290.93000000063,"y":2569765.0700000022}},{"attributes":{"ID":118975,"DIS_CODE":0,"TOWNNAME":"六甲區","LI":"二甲里","LIN":"16鄰","STREET":"信義街","SECT":" ","MAREA":" ","LANE":"２１１巷","ALLEY":"１２弄","HOUSE_NO":"３號","E_COORD97":183274.16,"N_COORD97":2569776.8599999999,"ADDRESS":"信義街２１１巷１２弄３號","OBJECTID":118975},"geometry":{"x":183274.16000000201,"y":2569776.8599999994}},{"attributes":{"ID":118976,"DIS_CODE":0,"TOWNNAME":"官田區","LI":"大崎里","LIN":"4鄰","STREET":" ","SECT":" ","MAREA":"大崎","LANE":" ","ALLEY":" ","HOUSE_NO":"３９號之２","E_COORD97":185634.39999999999,"N_COORD97":2565594.6000000001,"ADDRESS":"大崎３９號之２","OBJECTID":118976},"geometry":{"x":185634.4000000013,"y":2565594.5999999996}},{"attributes":{"ID":118977,"DIS_CODE":0,"TOWNNAME":"官田區","LI":"大崎里","LIN":"4鄰","STREET":" ","SECT":" ","MAREA":"大崎","LANE":" ","ALLEY":" ","HOUSE_NO":"３９號之３","E_COORD97":185655.48999999999,"N_COORD97":2565582.0499999998,"ADDRESS":"大崎３９號之３","OBJECTID":118977},"geometry":{"x":185655.49000000209,"y":2565582.0500000026}},{"attributes":{"ID":118978,"DIS_CODE":0,"TOWNNAME":"官田區","LI":"大崎里","LIN":"4鄰","STREET":" ","SECT":" ","MAREA":"大崎","LANE":" ","ALLEY":" ","HOUSE_NO":"３９號","E_COORD97":185671.42999999999,"N_COORD97":2565580.1699999999,"ADDRESS":"大崎３９號","OBJECTID":118978},"geometry":{"x":185671.4299999997,"y":2565580.1700000018}},{"attributes":{"ID":118979,"DIS_CODE":0,"TOWNNAME":"白河區","LI":"竹門里","LIN":"4鄰","STREET":" ","SECT":" ","MAREA":"竹子門","LANE":" ","ALLEY":" ","HOUSE_NO":"５４號","E_COORD97":193572.73999999999,"N_COORD97":2586200.0800000001,"ADDRESS":"竹子門５４號","OBJECTID":118979},"geometry":{"x":193572.74000000115,"y":2586200.0800000038}},{"attributes":{"ID":118980,"DIS_CODE":0,"TOWNNAME":"六甲區","LI":"二甲里","LIN":"16鄰","STREET":"信義街","SECT":" ","MAREA":" ","LANE":"２１１巷","ALLEY":"１２弄","HOUSE_NO":"６號","E_COORD97":183292.13,"N_COORD97":2569769.3500000001,"ADDRESS":"信義街２１１巷１２弄６號","OBJECTID":118980},"geometry":{"x":183292.12999999989,"y":2569769.3500000015}},{"attributes":{"ID":118981,"DIS_CODE":0,"TOWNNAME":"六甲區","LI":"水林里","LIN":"16鄰","STREET":"信義街","SECT":" ","MAREA":" ","LANE":"３４９巷","ALLEY":"１４弄","HOUSE_NO":"１６號","E_COORD97":183361.92000000001,"N_COORD97":2570116.25,"ADDRESS":"信義街３４９巷１４弄１６號","OBJECTID":118981},"geometry":{"x":183361.92000000179,"y":2570116.2500000019}},{"attributes":{"ID":118982,"DIS_CODE":0,"TOWNNAME":"白河區","LI":"竹門里","LIN":"4鄰","STREET":" ","SECT":" ","MAREA":"竹子門","LANE":" ","ALLEY":" ","HOUSE_NO":"５６號","E_COORD97":193583.75,"N_COORD97":2586206.5099999998,"ADDRESS":"竹子門５６號","OBJECTID":118982},"geometry":{"x":193583.75000000093,"y":2586206.5099999998}},{"attributes":{"ID":118983,"DIS_CODE":0,"TOWNNAME":"六甲區","LI":"水林里","LIN":"16鄰","STREET":"信義街","SECT":" ","MAREA":" ","LANE":"３４９巷","ALLEY":"１４弄","HOUSE_NO":"１８號","E_COORD97":183363.16,"N_COORD97":2570120.1499999999,"ADDRESS":"信義街３４９巷１４弄１８號","OBJECTID":118983},"geometry":{"x":183363.16000000015,"y":2570120.1500000022}},{"attributes":{"ID":118984,"DIS_CODE":0,"TOWNNAME":"六甲區","LI":"水林里","LIN":"16鄰","STREET":"信義街","SECT":" ","MAREA":" ","LANE":"３４９巷","ALLEY":"１４弄","HOUSE_NO":"１號","E_COORD97":183347.51000000001,"N_COORD97":2570131.52,"ADDRESS":"信義街３４９巷１４弄１號","OBJECTID":118984},"geometry":{"x":183347.50999999978,"y":2570131.5199999996}},{"attributes":{"ID":118985,"DIS_CODE":0,"TOWNNAME":"六甲區","LI":"水林里","LIN":"16鄰","STREET":"信義街","SECT":" ","MAREA":" ","LANE":"３４９巷","ALLEY":"１４弄","HOUSE_NO":"２０號","E_COORD97":183364.53,"N_COORD97":2570124.7000000002,"ADDRESS":"信義街３４９巷１４弄２０號","OBJECTID":118985},"geometry":{"x":183364.53000000026,"y":2570124.700000003}},{"attributes":{"ID":118986,"DIS_CODE":0,"TOWNNAME":"六甲區","LI":"水林里","LIN":"16鄰","STREET":"信義街","SECT":" ","MAREA":" ","LANE":"３４９巷","ALLEY":"１４弄","HOUSE_NO":"２２號","E_COORD97":183365.57999999999,"N_COORD97":2570128.7000000002,"ADDRESS":"信義街３４９巷１４弄２２號","OBJECTID":118986},"geometry":{"x":183365.58000000007,"y":2570128.7000000011}},{"attributes":{"ID":118987,"DIS_CODE":0,"TOWNNAME":"六甲區","LI":"水林里","LIN":"16鄰","STREET":"信義街","SECT":" ","MAREA":" ","LANE":"３４９巷","ALLEY":"１４弄","HOUSE_NO":"２４號","E_COORD97":183366.89000000001,"N_COORD97":2570133.0600000001,"ADDRESS":"信義街３４９巷１４弄２４號","OBJECTID":118987},"geometry":{"x":183366.88999999873,"y":2570133.0600000005}},{"attributes":{"ID":118988,"DIS_CODE":0,"TOWNNAME":"白河區","LI":"竹門里","LIN":"4鄰","STREET":" ","SECT":" ","MAREA":"竹子門","LANE":" ","ALLEY":" ","HOUSE_NO":"５７號","E_COORD97":193613.31,"N_COORD97":2586184.6299999999,"ADDRESS":"竹子門５７號","OBJECTID":118988},"geometry":{"x":193613.31000000145,"y":2586184.629999999}},{"attributes":{"ID":118989,"DIS_CODE":0,"TOWNNAME":"白河區","LI":"竹門里","LIN":"4鄰","STREET":" ","SECT":" ","MAREA":"竹子門","LANE":" ","ALLEY":" ","HOUSE_NO":"５８之１０號","E_COORD97":193665.10000000001,"N_COORD97":2586180.8199999998,"ADDRESS":"竹子門５８之１０號","OBJECTID":118989},"geometry":{"x":193665.09999999963,"y":2586180.8200000003}},{"attributes":{"ID":118990,"DIS_CODE":0,"TOWNNAME":"白河區","LI":"竹門里","LIN":"4鄰","STREET":" ","SECT":" ","MAREA":"竹子門","LANE":" ","ALLEY":" ","HOUSE_NO":"５８之１１號","E_COORD97":193666.48000000001,"N_COORD97":2586175.79,"ADDRESS":"竹子門５８之１１號","OBJECTID":118990},"geometry":{"x":193666.48000000045,"y":2586175.7899999991}},{"attributes":{"ID":118991,"DIS_CODE":0,"TOWNNAME":"歸仁區","LI":"南興里","LIN":"35鄰","STREET":"中山路","SECT":"三段","MAREA":" ","LANE":" ","ALLEY":" ","HOUSE_NO":"２５２號","E_COORD97":176368.45999999999,"N_COORD97":2540953.2799999998,"ADDRESS":"中山路三段２５２號","OBJECTID":118991},"geometry":{"x":176368.45999999996,"y":2540953.2800000031}},{"attributes":{"ID":118992,"DIS_CODE":0,"TOWNNAME":"歸仁區","LI":"南興里","LIN":"35鄰","STREET":"中山路","SECT":"三段","MAREA":" ","LANE":" ","ALLEY":" ","HOUSE_NO":"２４２號","E_COORD97":176380.76000000001,"N_COORD97":2540952.2799999998,"ADDRESS":"中山路三段２４２號","OBJECTID":118992},"geometry":{"x":176380.76000000071,"y":2540952.2799999993}},{"attributes":{"ID":118993,"DIS_CODE":0,"TOWNNAME":"歸仁區","LI":"六甲里","LIN":"35鄰","STREET":"民生十二街","SECT":" ","MAREA":" ","LANE":" ","ALLEY":" ","HOUSE_NO":"１９９號","E_COORD97":175544.79000000001,"N_COORD97":2539442.29,"ADDRESS":"民生十二街１９９號","OBJECTID":118993},"geometry":{"x":175544.7900000019,"y":2539442.290000001}},{"attributes":{"ID":118994,"DIS_CODE":0,"TOWNNAME":"歸仁區","LI":"南興里","LIN":"35鄰","STREET":"中山路","SECT":"三段","MAREA":" ","LANE":" ","ALLEY":" ","HOUSE_NO":"２９０號","E_COORD97":176288.45999999999,"N_COORD97":2540963.2799999998,"ADDRESS":"中山路三段２９０號","OBJECTID":118994},"geometry":{"x":176288.46000000089,"y":2540963.2799999975}},{"attributes":{"ID":118995,"DIS_CODE":0,"TOWNNAME":"玉井區","LI":"玉田里","LIN":"35鄰","STREET":"民族路","SECT":" ","MAREA":" ","LANE":" ","ALLEY":" ","HOUSE_NO":"２７１號","E_COORD97":195671.88,"N_COORD97":2558093.2799999998,"ADDRESS":"民族路２７１號","OBJECTID":118995},"geometry":{"x":195671.87999999989,"y":2558093.2800000012}},{"attributes":{"ID":118996,"DIS_CODE":0,"TOWNNAME":"玉井區","LI":"玉田里","LIN":"35鄰","STREET":"大成路","SECT":" ","MAREA":" ","LANE":" ","ALLEY":" ","HOUSE_NO":"１７２號","E_COORD97":195698.45999999999,"N_COORD97":2558148.27,"ADDRESS":"大成路１７２號","OBJECTID":118996},"geometry":{"x":195698.46000000089,"y":2558148.2699999996}},{"attributes":{"ID":118997,"DIS_CODE":0,"TOWNNAME":"六甲區","LI":"水林里","LIN":"16鄰","STREET":"信義街","SECT":" ","MAREA":" ","LANE":"３４９巷","ALLEY":"１４弄","HOUSE_NO":"２６號","E_COORD97":183367.73999999999,"N_COORD97":2570137.2799999998,"ADDRESS":"信義街３４９巷１４弄２６號","OBJECTID":118997},"geometry":{"x":183367.74000000115,"y":2570137.2799999993}},{"attributes":{"ID":118998,"DIS_CODE":0,"TOWNNAME":"六甲區","LI":"水林里","LIN":"16鄰","STREET":"信義街","SECT":" ","MAREA":" ","LANE":"３４９巷","ALLEY":"１４弄","HOUSE_NO":"２８號","E_COORD97":183368.57000000001,"N_COORD97":2570142.0600000001,"ADDRESS":"信義街３４９巷１４弄２８號","OBJECTID":118998},"geometry":{"x":183368.57000000123,"y":2570142.0600000024}},{"attributes":{"ID":118999,"DIS_CODE":0,"TOWNNAME":"六甲區","LI":"水林里","LIN":"16鄰","STREET":"信義街","SECT":" ","MAREA":" ","LANE":"３４９巷","ALLEY":"１４弄","HOUSE_NO":"３０號","E_COORD97":183370.35000000001,"N_COORD97":2570147.5800000001,"ADDRESS":"信義街３４９巷１４弄３０號","OBJECTID":118999},"geometry":{"x":183370.34999999963,"y":2570147.5800000019}},{"attributes":{"ID":119000,"DIS_CODE":0,"TOWNNAME":"白河區","LI":"竹門里","LIN":"4鄰","STREET":" ","SECT":" ","MAREA":"竹子門","LANE":" ","ALLEY":" ","HOUSE_NO":"５８之１２號","E_COORD97":193667.85000000001,"N_COORD97":2586170.75,"ADDRESS":"竹子門５８之１２號","OBJECTID":119000},"geometry":{"x":193667.85000000056,"y":2586170.75}}]}