{"displayFieldName":"TOWNNAME","fieldAliases":{"ID":"ID","DIS_CODE":"DIS_CODE","TOWNNAME":"TOWNNAME","LI":"LI","LIN":"LIN","STREET":"STREET","SECT":"SECT","MAREA":"MAREA","LANE":"LANE","ALLEY":"ALLEY","HOUSE_NO":"HOUSE_NO","E_COORD97":"E_COORD97","N_COORD97":"N_COORD97","ADDRESS":"ADDRESS","OBJECTID":"OBJECTID"},"geometryType":"esriGeometryPoint","spatialReference":{"wkid":102443,"latestWkid":3826},"fields":[{"name":"ID","type":"esriFieldTypeDouble","alias":"ID"},{"name":"DIS_CODE","type":"esriFieldTypeInteger","alias":"DIS_CODE"},{"name":"TOWNNAME","type":"esriFieldTypeString","alias":"TOWNNAME","length":8},{"name":"LI","type":"esriFieldTypeString","alias":"LI","length":8},{"name":"LIN","type":"esriFieldTypeString","alias":"LIN","length":12},{"name":"STREET","type":"esriFieldTypeString","alias":"STREET","length":20},{"name":"SECT","type":"esriFieldTypeString","alias":"SECT","length":8},{"name":"MAREA","type":"esriFieldTypeString","alias":"MAREA","length":12},{"name":"LANE","type":"esriFieldTypeString","alias":"LANE","length":10},{"name":"ALLEY","type":"esriFieldTypeString","alias":"ALLEY","length":10},{"name":"HOUSE_NO","type":"esriFieldTypeString","alias":"HOUSE_NO","length":20},{"name":"E_COORD97","type":"esriFieldTypeDouble","alias":"E_COORD97"},{"name":"N_COORD97","type":"esriFieldTypeDouble","alias":"N_COORD97"},{"name":"ADDRESS","type":"esriFieldTypeString","alias":"ADDRESS","length":50},{"name":"OBJECTID","type":"esriFieldTypeOID","alias":"OBJECTID"}],"features":[{"attributes":{"ID":13001,"DIS_CODE":0,"TOWNNAME":"安平區","LI":"華平里","LIN":"24鄰","STREET":"建平八街","SECT":" ","MAREA":" ","LANE":"４１６巷","ALLEY":"６弄","HOUSE_NO":"２１號","E_COORD97":165229.38,"N_COORD97":2543622.8199999998,"ADDRESS":"建平八街４１６巷６弄２１號","OBJECTID":13001},"geometry":{"x":165229.38000000082,"y":2543622.8200000022}},{"attributes":{"ID":13002,"DIS_CODE":0,"TOWNNAME":"新市區","LI":"大社里","LIN":"24鄰","STREET":" ","SECT":" ","MAREA":"大社","LANE":" ","ALLEY":" ","HOUSE_NO":"８８６之７號","E_COORD97":179813.85999999999,"N_COORD97":2553979.5499999998,"ADDRESS":"大社８８６之７號","OBJECTID":13002},"geometry":{"x":179813.86000000127,"y":2553979.5500000026}},{"attributes":{"ID":13003,"DIS_CODE":0,"TOWNNAME":"新市區","LI":"大社里","LIN":"24鄰","STREET":" ","SECT":" ","MAREA":"大社","LANE":" ","ALLEY":" ","HOUSE_NO":"８８６之８號","E_COORD97":179809.31,"N_COORD97":2553978.1400000001,"ADDRESS":"大社８８６之８號","OBJECTID":13003},"geometry":{"x":179809.31000000145,"y":2553978.1400000043}},{"attributes":{"ID":13004,"DIS_CODE":0,"TOWNNAME":"新市區","LI":"大社里","LIN":"24鄰","STREET":" ","SECT":" ","MAREA":"大社","LANE":" ","ALLEY":" ","HOUSE_NO":"８８６之９號","E_COORD97":179804.26999999999,"N_COORD97":2553978.48,"ADDRESS":"大社８８６之９號","OBJECTID":13004},"geometry":{"x":179804.26999999862,"y":2553978.4800000004}},{"attributes":{"ID":13005,"DIS_CODE":0,"TOWNNAME":"安平區","LI":"華平里","LIN":"24鄰","STREET":"建平八街","SECT":" ","MAREA":" ","LANE":"４１６巷","ALLEY":"６弄","HOUSE_NO":"２２號","E_COORD97":165230.73000000001,"N_COORD97":2543632.9900000002,"ADDRESS":"建平八街４１６巷６弄２２號","OBJECTID":13005},"geometry":{"x":165230.73000000138,"y":2543632.9900000002}},{"attributes":{"ID":13006,"DIS_CODE":0,"TOWNNAME":"安平區","LI":"華平里","LIN":"24鄰","STREET":"建平八街","SECT":" ","MAREA":" ","LANE":"４１６巷","ALLEY":"６弄","HOUSE_NO":"２３號","E_COORD97":165224.54000000001,"N_COORD97":2543623.4100000001,"ADDRESS":"建平八街４１６巷６弄２３號","OBJECTID":13006},"geometry":{"x":165224.5400000019,"y":2543623.4100000001}},{"attributes":{"ID":13007,"DIS_CODE":0,"TOWNNAME":"安平區","LI":"華平里","LIN":"24鄰","STREET":"建平八街","SECT":" ","MAREA":" ","LANE":"４１６巷","ALLEY":"６弄","HOUSE_NO":"２４號","E_COORD97":165225.39999999999,"N_COORD97":2543633.5899999999,"ADDRESS":"建平八街４１６巷６弄２４號","OBJECTID":13007},"geometry":{"x":165225.40000000037,"y":2543633.5900000036}},{"attributes":{"ID":13008,"DIS_CODE":0,"TOWNNAME":"中西區","LI":"民生里","LIN":"13鄰","STREET":"大勇街","SECT":" ","MAREA":" ","LANE":" ","ALLEY":" ","HOUSE_NO":"７０號之１","E_COORD97":167255.85000000001,"N_COORD97":2543412.23,"ADDRESS":"大勇街７０號之１","OBJECTID":13008},"geometry":{"x":167255.84999999963,"y":2543412.2300000004}},{"attributes":{"ID":13009,"DIS_CODE":0,"TOWNNAME":"中西區","LI":"民生里","LIN":"13鄰","STREET":"大勇街","SECT":" ","MAREA":" ","LANE":" ","ALLEY":" ","HOUSE_NO":"７０號之２","E_COORD97":167253.07999999999,"N_COORD97":2543412.9900000002,"ADDRESS":"大勇街７０號之２","OBJECTID":13009},"geometry":{"x":167253.08000000007,"y":2543412.9900000002}},{"attributes":{"ID":13010,"DIS_CODE":0,"TOWNNAME":"中西區","LI":"民生里","LIN":"13鄰","STREET":"大勇街","SECT":" ","MAREA":" ","LANE":" ","ALLEY":" ","HOUSE_NO":"７０號之３","E_COORD97":167249.79000000001,"N_COORD97":2543413.2400000002,"ADDRESS":"大勇街７０號之３","OBJECTID":13010},"geometry":{"x":167249.79000000004,"y":2543413.2400000021}},{"attributes":{"ID":13011,"DIS_CODE":0,"TOWNNAME":"中西區","LI":"民生里","LIN":"13鄰","STREET":"大勇街","SECT":" ","MAREA":" ","LANE":" ","ALLEY":" ","HOUSE_NO":"７０號之４","E_COORD97":167246.76000000001,"N_COORD97":2543413.75,"ADDRESS":"大勇街７０號之４","OBJECTID":13011},"geometry":{"x":167246.76000000164,"y":2543413.7500000019}},{"attributes":{"ID":13012,"DIS_CODE":0,"TOWNNAME":"中西區","LI":"民生里","LIN":"13鄰","STREET":"大勇街","SECT":" ","MAREA":" ","LANE":" ","ALLEY":" ","HOUSE_NO":"７０號之５","E_COORD97":167242.22,"N_COORD97":2543415.0099999998,"ADDRESS":"大勇街７０號之５","OBJECTID":13012},"geometry":{"x":167242.22000000067,"y":2543415.0100000016}},{"attributes":{"ID":13013,"DIS_CODE":0,"TOWNNAME":"中西區","LI":"民生里","LIN":"13鄰","STREET":"大勇街","SECT":" ","MAREA":" ","LANE":" ","ALLEY":" ","HOUSE_NO":"７０號之６","E_COORD97":167238.94,"N_COORD97":2543415.5099999998,"ADDRESS":"大勇街７０號之６","OBJECTID":13013},"geometry":{"x":167238.94000000041,"y":2543415.5099999998}},{"attributes":{"ID":13014,"DIS_CODE":0,"TOWNNAME":"中西區","LI":"民生里","LIN":"13鄰","STREET":"大勇街","SECT":" ","MAREA":" ","LANE":" ","ALLEY":" ","HOUSE_NO":"７４號","E_COORD97":167231.85999999999,"N_COORD97":2543416.27,"ADDRESS":"大勇街７４號","OBJECTID":13014},"geometry":{"x":167231.86000000127,"y":2543416.2700000014}},{"attributes":{"ID":13015,"DIS_CODE":0,"TOWNNAME":"中西區","LI":"民生里","LIN":"13鄰","STREET":"大智街","SECT":" ","MAREA":" ","LANE":" ","ALLEY":" ","HOUSE_NO":"９２號","E_COORD97":167271.44,"N_COORD97":2543412.6299999999,"ADDRESS":"大智街９２號","OBJECTID":13015},"geometry":{"x":167271.44000000041,"y":2543412.6300000008}},{"attributes":{"ID":13016,"DIS_CODE":0,"TOWNNAME":"安平區","LI":"華平里","LIN":"24鄰","STREET":"建平八街","SECT":" ","MAREA":" ","LANE":"４１６巷","ALLEY":"６弄","HOUSE_NO":"２５號","E_COORD97":165219.17999999999,"N_COORD97":2543623.9300000002,"ADDRESS":"建平八街４１６巷６弄２５號","OBJECTID":13016},"geometry":{"x":165219.1799999997,"y":2543623.9299999997}},{"attributes":{"ID":13017,"DIS_CODE":0,"TOWNNAME":"南區","LI":"文南里","LIN":"20鄰","STREET":"仁南四街","SECT":" ","MAREA":" ","LANE":" ","ALLEY":" ","HOUSE_NO":"１９號","E_COORD97":166473.82999999999,"N_COORD97":2542745.6600000001,"ADDRESS":"仁南四街１９號","OBJECTID":13017},"geometry":{"x":166473.83000000101,"y":2542745.660000002}},{"attributes":{"ID":13018,"DIS_CODE":0,"TOWNNAME":"安平區","LI":"華平里","LIN":"24鄰","STREET":"建平八街","SECT":" ","MAREA":" ","LANE":"４１６巷","ALLEY":"６弄","HOUSE_NO":"２６號","E_COORD97":165221.07999999999,"N_COORD97":2543633.9300000002,"ADDRESS":"建平八街４１６巷６弄２６號","OBJECTID":13018},"geometry":{"x":165221.08000000101,"y":2543633.9299999997}},{"attributes":{"ID":13019,"DIS_CODE":0,"TOWNNAME":"南區","LI":"文南里","LIN":"20鄰","STREET":"仁南四街","SECT":" ","MAREA":" ","LANE":" ","ALLEY":" ","HOUSE_NO":"２１號","E_COORD97":166474.45999999999,"N_COORD97":2542751.7000000002,"ADDRESS":"仁南四街２１號","OBJECTID":13019},"geometry":{"x":166474.46000000089,"y":2542751.7000000011}},{"attributes":{"ID":13020,"DIS_CODE":0,"TOWNNAME":"安定區","LI":"港南里","LIN":"13鄰","STREET":" ","SECT":" ","MAREA":"港口","LANE":" ","ALLEY":" ","HOUSE_NO":"１０７之３號","E_COORD97":171326.89000000001,"N_COORD97":2554477.2999999998,"ADDRESS":"港口１０７之３號","OBJECTID":13020},"geometry":{"x":171326.8900000006,"y":2554477.3000000007}},{"attributes":{"ID":13021,"DIS_CODE":0,"TOWNNAME":"安平區","LI":"華平里","LIN":"24鄰","STREET":"建平八街","SECT":" ","MAREA":" ","LANE":"４１６巷","ALLEY":"６弄","HOUSE_NO":"２７號","E_COORD97":165214.69,"N_COORD97":2543623.9300000002,"ADDRESS":"建平八街４１６巷６弄２７號","OBJECTID":13021},"geometry":{"x":165214.69000000041,"y":2543623.9299999997}},{"attributes":{"ID":13022,"DIS_CODE":0,"TOWNNAME":"安平區","LI":"華平里","LIN":"24鄰","STREET":"建平八街","SECT":" ","MAREA":" ","LANE":"４１６巷","ALLEY":"６弄","HOUSE_NO":"２８號","E_COORD97":165216.42000000001,"N_COORD97":2543634.4500000002,"ADDRESS":"建平八街４１６巷６弄２８號","OBJECTID":13022},"geometry":{"x":165216.41999999993,"y":2543634.4500000011}},{"attributes":{"ID":13023,"DIS_CODE":0,"TOWNNAME":"安平區","LI":"華平里","LIN":"24鄰","STREET":"建平八街","SECT":" ","MAREA":" ","LANE":"４１６巷","ALLEY":"６弄","HOUSE_NO":"２９號","E_COORD97":165209.85999999999,"N_COORD97":2543624.6200000001,"ADDRESS":"建平八街４１６巷６弄２９號","OBJECTID":13023},"geometry":{"x":165209.86000000127,"y":2543624.6200000048}},{"attributes":{"ID":13024,"DIS_CODE":0,"TOWNNAME":"安平區","LI":"華平里","LIN":"24鄰","STREET":"建平八街","SECT":" ","MAREA":" ","LANE":"４１６巷","ALLEY":"６弄","HOUSE_NO":"２號","E_COORD97":165284.75,"N_COORD97":2543622.71,"ADDRESS":"建平八街４１６巷６弄２號","OBJECTID":13024},"geometry":{"x":165284.75000000093,"y":2543622.7100000009}},{"attributes":{"ID":13025,"DIS_CODE":0,"TOWNNAME":"安定區","LI":"大同里","LIN":"13鄰","STREET":" ","SECT":" ","MAREA":"大同","LANE":" ","ALLEY":" ","HOUSE_NO":"１４８之３號","E_COORD97":170338.92000000001,"N_COORD97":2553660.2999999998,"ADDRESS":"大同１４８之３號","OBJECTID":13025},"geometry":{"x":170338.91999999993,"y":2553660.3000000007}},{"attributes":{"ID":13026,"DIS_CODE":0,"TOWNNAME":"安定區","LI":"海寮里","LIN":"13鄰","STREET":" ","SECT":" ","MAREA":"海寮","LANE":" ","ALLEY":" ","HOUSE_NO":"１２６號之１９","E_COORD97":169000.81,"N_COORD97":2555212.2999999998,"ADDRESS":"海寮１２６號之１９","OBJECTID":13026},"geometry":{"x":169000.81000000145,"y":2555212.3000000026}},{"attributes":{"ID":13027,"DIS_CODE":0,"TOWNNAME":"安定區","LI":"港尾里","LIN":"13鄰","STREET":" ","SECT":" ","MAREA":"港子尾","LANE":" ","ALLEY":" ","HOUSE_NO":"８２之１號","E_COORD97":171366.89000000001,"N_COORD97":2556053.2999999998,"ADDRESS":"港子尾８２之１號","OBJECTID":13027},"geometry":{"x":171366.8900000006,"y":2556053.3000000026}},{"attributes":{"ID":13028,"DIS_CODE":0,"TOWNNAME":"安平區","LI":"華平里","LIN":"24鄰","STREET":"建平八街","SECT":" ","MAREA":" ","LANE":"４１６巷","ALLEY":"６弄","HOUSE_NO":"３０號","E_COORD97":165211.92999999999,"N_COORD97":2543635.1400000001,"ADDRESS":"建平八街４１６巷６弄３０號","OBJECTID":13028},"geometry":{"x":165211.93000000063,"y":2543635.1400000025}},{"attributes":{"ID":13029,"DIS_CODE":0,"TOWNNAME":"安定區","LI":"海寮里","LIN":"13鄰","STREET":" ","SECT":" ","MAREA":"海寮","LANE":" ","ALLEY":" ","HOUSE_NO":"１２６號之１８","E_COORD97":169002.07999999999,"N_COORD97":2555207.2999999998,"ADDRESS":"海寮１２６號之１８","OBJECTID":13029},"geometry":{"x":169002.08000000007,"y":2555207.3000000007}},{"attributes":{"ID":13030,"DIS_CODE":0,"TOWNNAME":"中西區","LI":"民生里","LIN":"13鄰","STREET":"大智街","SECT":" ","MAREA":" ","LANE":" ","ALLEY":" ","HOUSE_NO":"９２號之１","E_COORD97":167270.92999999999,"N_COORD97":2543409.0899999999,"ADDRESS":"大智街９２號之１","OBJECTID":13030},"geometry":{"x":167270.93000000156,"y":2543409.0899999999}},{"attributes":{"ID":13031,"DIS_CODE":0,"TOWNNAME":"中西區","LI":"民生里","LIN":"13鄰","STREET":"大智街","SECT":" ","MAREA":" ","LANE":" ","ALLEY":" ","HOUSE_NO":"９０號之１","E_COORD97":167272.32999999999,"N_COORD97":2543418.9399999999,"ADDRESS":"大智街９０號之１","OBJECTID":13031},"geometry":{"x":167272.33000000101,"y":2543418.9399999995}},{"attributes":{"ID":13032,"DIS_CODE":0,"TOWNNAME":"中西區","LI":"民生里","LIN":"13鄰","STREET":"大智街","SECT":" ","MAREA":" ","LANE":" ","ALLEY":" ","HOUSE_NO":"９０號","E_COORD97":167272.70000000001,"N_COORD97":2543423.3599999999,"ADDRESS":"大智街９０號","OBJECTID":13032},"geometry":{"x":167272.70000000019,"y":2543423.3599999994}},{"attributes":{"ID":13033,"DIS_CODE":0,"TOWNNAME":"中西區","LI":"民權里","LIN":"13鄰","STREET":"神農街","SECT":" ","MAREA":" ","LANE":" ","ALLEY":" ","HOUSE_NO":"８６號","E_COORD97":167621.41,"N_COORD97":2544255.96,"ADDRESS":"神農街８６號","OBJECTID":13033},"geometry":{"x":167621.41000000108,"y":2544255.9600000046}},{"attributes":{"ID":13034,"DIS_CODE":0,"TOWNNAME":"中西區","LI":"民權里","LIN":"13鄰","STREET":"神農街","SECT":" ","MAREA":" ","LANE":" ","ALLEY":" ","HOUSE_NO":"８０號","E_COORD97":167634.34,"N_COORD97":2544249.54,"ADDRESS":"神農街８０號","OBJECTID":13034},"geometry":{"x":167634.33999999892,"y":2544249.5399999991}},{"attributes":{"ID":13035,"DIS_CODE":0,"TOWNNAME":"新化區","LI":"全興里","LIN":"13鄰","STREET":" ","SECT":" ","MAREA":"竹子\u25A0","LANE":" ","ALLEY":" ","HOUSE_NO":"２４７號之１６２","E_COORD97":178217.59,"N_COORD97":2546761.2599999998,"ADDRESS":"竹子\u25A0２４７號之１６２","OBJECTID":13035},"geometry":{"x":178217.59000000171,"y":2546761.2599999998}},{"attributes":{"ID":13036,"DIS_CODE":0,"TOWNNAME":"新化區","LI":"全興里","LIN":"13鄰","STREET":" ","SECT":" ","MAREA":"竹子\u25A0","LANE":" ","ALLEY":" ","HOUSE_NO":"２４７號之１５５","E_COORD97":178184.39000000001,"N_COORD97":2546792.2599999998,"ADDRESS":"竹子\u25A0２４７號之１５５","OBJECTID":13036},"geometry":{"x":178184.38999999966,"y":2546792.2600000035}},{"attributes":{"ID":13037,"DIS_CODE":0,"TOWNNAME":"安平區","LI":"華平里","LIN":"24鄰","STREET":"建平八街","SECT":" ","MAREA":" ","LANE":"４１６巷","ALLEY":"６弄","HOUSE_NO":"３１號","E_COORD97":165205.88,"N_COORD97":2543625.6600000001,"ADDRESS":"建平八街４１６巷６弄３１號","OBJECTID":13037},"geometry":{"x":165205.88000000082,"y":2543625.6600000001}},{"attributes":{"ID":13038,"DIS_CODE":0,"TOWNNAME":"安平區","LI":"華平里","LIN":"24鄰","STREET":"建平八街","SECT":" ","MAREA":" ","LANE":"４１６巷","ALLEY":"６弄","HOUSE_NO":"３２號","E_COORD97":165207.26999999999,"N_COORD97":2543636.3500000001,"ADDRESS":"建平八街４１６巷６弄３２號","OBJECTID":13038},"geometry":{"x":165207.27000000048,"y":2543636.3500000015}},{"attributes":{"ID":13039,"DIS_CODE":0,"TOWNNAME":"安平區","LI":"華平里","LIN":"24鄰","STREET":"建平八街","SECT":" ","MAREA":" ","LANE":"４１６巷","ALLEY":"６弄","HOUSE_NO":"３號","E_COORD97":165278.60000000001,"N_COORD97":2543616.23,"ADDRESS":"建平八街４１６巷６弄３號","OBJECTID":13039},"geometry":{"x":165278.60000000056,"y":2543616.2300000042}},{"attributes":{"ID":13040,"DIS_CODE":0,"TOWNNAME":"安平區","LI":"華平里","LIN":"24鄰","STREET":"建平八街","SECT":" ","MAREA":" ","LANE":"４１６巷","ALLEY":"６弄","HOUSE_NO":"４號","E_COORD97":165280.28,"N_COORD97":2543627.0699999998,"ADDRESS":"建平八街４１６巷６弄４號","OBJECTID":13040},"geometry":{"x":165280.28000000026,"y":2543627.0700000003}},{"attributes":{"ID":13041,"DIS_CODE":0,"TOWNNAME":"安平區","LI":"華平里","LIN":"24鄰","STREET":"建平八街","SECT":" ","MAREA":" ","LANE":"４１６巷","ALLEY":"６弄","HOUSE_NO":"５號","E_COORD97":165273.12,"N_COORD97":2543616.3399999999,"ADDRESS":"建平八街４１６巷６弄５號","OBJECTID":13041},"geometry":{"x":165273.12000000197,"y":2543616.3400000017}},{"attributes":{"ID":13042,"DIS_CODE":0,"TOWNNAME":"安南區","LI":"安西里","LIN":"13鄰","STREET":"安通路","SECT":"四段","MAREA":" ","LANE":" ","ALLEY":" ","HOUSE_NO":"５號","E_COORD97":169343.42000000001,"N_COORD97":2547775.8100000001,"ADDRESS":"安通路四段５號","OBJECTID":13042},"geometry":{"x":169343.42000000086,"y":2547775.8100000042}},{"attributes":{"ID":13043,"DIS_CODE":0,"TOWNNAME":"新化區","LI":"全興里","LIN":"13鄰","STREET":" ","SECT":" ","MAREA":"竹子\u25A0","LANE":" ","ALLEY":" ","HOUSE_NO":"２４７號之１７６","E_COORD97":178172.17999999999,"N_COORD97":2546764.2599999998,"ADDRESS":"竹子\u25A0２４７號之１７６","OBJECTID":13043},"geometry":{"x":178172.1799999997,"y":2546764.2599999998}},{"attributes":{"ID":13044,"DIS_CODE":0,"TOWNNAME":"新化區","LI":"全興里","LIN":"13鄰","STREET":" ","SECT":" ","MAREA":"竹子\u25A0","LANE":" ","ALLEY":" ","HOUSE_NO":"２４７號之２４１","E_COORD97":178234.35999999999,"N_COORD97":2546747.2599999998,"ADDRESS":"竹子\u25A0２４７號之２４１","OBJECTID":13044},"geometry":{"x":178234.36000000034,"y":2546747.2599999998}},{"attributes":{"ID":13045,"DIS_CODE":0,"TOWNNAME":"新化區","LI":"全興里","LIN":"13鄰","STREET":" ","SECT":" ","MAREA":"竹子\u25A0","LANE":" ","ALLEY":" ","HOUSE_NO":"２４７號之１７０","E_COORD97":178186.37,"N_COORD97":2546763.2599999998,"ADDRESS":"竹子\u25A0２４７號之１７０","OBJECTID":13045},"geometry":{"x":178186.37000000011,"y":2546763.2600000016}},{"attributes":{"ID":13046,"DIS_CODE":0,"TOWNNAME":"新化區","LI":"全興里","LIN":"13鄰","STREET":" ","SECT":" ","MAREA":"竹子\u25A0","LANE":" ","ALLEY":" ","HOUSE_NO":"２４７號之１４４","E_COORD97":178258.17000000001,"N_COORD97":2546759.2599999998,"ADDRESS":"竹子\u25A0２４７號之１４４","OBJECTID":13046},"geometry":{"x":178258.17000000086,"y":2546759.2600000016}},{"attributes":{"ID":13047,"DIS_CODE":0,"TOWNNAME":"新化區","LI":"全興里","LIN":"13鄰","STREET":" ","SECT":" ","MAREA":"竹子\u25A0","LANE":" ","ALLEY":" ","HOUSE_NO":"２４７號之１７８","E_COORD97":178167.29000000001,"N_COORD97":2546764.2599999998,"ADDRESS":"竹子\u25A0２４７號之１７８","OBJECTID":13047},"geometry":{"x":178167.2900000019,"y":2546764.2599999998}},{"attributes":{"ID":13048,"DIS_CODE":0,"TOWNNAME":"新化區","LI":"全興里","LIN":"13鄰","STREET":" ","SECT":" ","MAREA":"竹子\u25A0","LANE":" ","ALLEY":" ","HOUSE_NO":"２４７號之２４５","E_COORD97":178220.89000000001,"N_COORD97":2546747.2599999998,"ADDRESS":"竹子\u25A0２４７號之２４５","OBJECTID":13048},"geometry":{"x":178220.8900000006,"y":2546747.2599999998}},{"attributes":{"ID":13049,"DIS_CODE":0,"TOWNNAME":"新化區","LI":"全興里","LIN":"13鄰","STREET":" ","SECT":" ","MAREA":"竹子\u25A0","LANE":" ","ALLEY":" ","HOUSE_NO":"２４７號之１５６","E_COORD97":178230.17999999999,"N_COORD97":2546760.2599999998,"ADDRESS":"竹子\u25A0２４７號之１５６","OBJECTID":13049},"geometry":{"x":178230.1799999997,"y":2546760.2599999998}},{"attributes":{"ID":13050,"DIS_CODE":0,"TOWNNAME":"新化區","LI":"全興里","LIN":"13鄰","STREET":" ","SECT":" ","MAREA":"竹子\u25A0","LANE":" ","ALLEY":" ","HOUSE_NO":"２４７號之１３８","E_COORD97":178272.09,"N_COORD97":2546758.2599999998,"ADDRESS":"竹子\u25A0２４７號之１３８","OBJECTID":13050},"geometry":{"x":178272.09000000078,"y":2546758.2600000035}},{"attributes":{"ID":13051,"DIS_CODE":0,"TOWNNAME":"新化區","LI":"全興里","LIN":"13鄰","STREET":" ","SECT":" ","MAREA":"竹子\u25A0","LANE":" ","ALLEY":" ","HOUSE_NO":"２４７號之１５９","E_COORD97":178175.07999999999,"N_COORD97":2546791.2599999998,"ADDRESS":"竹子\u25A0２４７號之１５９","OBJECTID":13051},"geometry":{"x":178175.08000000007,"y":2546791.2599999998}},{"attributes":{"ID":13052,"DIS_CODE":0,"TOWNNAME":"新化區","LI":"全興里","LIN":"13鄰","STREET":" ","SECT":" ","MAREA":"竹子\u25A0","LANE":" ","ALLEY":" ","HOUSE_NO":"２４７號之１５０","E_COORD97":178244.26999999999,"N_COORD97":2546759.2599999998,"ADDRESS":"竹子\u25A0２４７號之１５０","OBJECTID":13052},"geometry":{"x":178244.26999999955,"y":2546759.2600000016}},{"attributes":{"ID":13053,"DIS_CODE":0,"TOWNNAME":"新市區","LI":"大社里","LIN":"24鄰","STREET":" ","SECT":" ","MAREA":"大社","LANE":" ","ALLEY":" ","HOUSE_NO":"８８６之１０號","E_COORD97":179799.69,"N_COORD97":2553977.0299999998,"ADDRESS":"大社８８６之１０號","OBJECTID":13053},"geometry":{"x":179799.69000000134,"y":2553977.0299999993}},{"attributes":{"ID":13054,"DIS_CODE":0,"TOWNNAME":"安南區","LI":"安西里","LIN":"13鄰","STREET":"安通路","SECT":"四段","MAREA":" ","LANE":" ","ALLEY":" ","HOUSE_NO":"６號","E_COORD97":169339.67000000001,"N_COORD97":2547775.2400000002,"ADDRESS":"安通路四段６號","OBJECTID":13054},"geometry":{"x":169339.67000000086,"y":2547775.2400000002}},{"attributes":{"ID":13055,"DIS_CODE":0,"TOWNNAME":"安南區","LI":"學東里","LIN":"13鄰","STREET":"公學路","SECT":"七段","MAREA":" ","LANE":" ","ALLEY":" ","HOUSE_NO":"６５號","E_COORD97":161842.14000000001,"N_COORD97":2553353.02,"ADDRESS":"公學路七段６５號","OBJECTID":13055},"geometry":{"x":161842.1400000006,"y":2553353.0199999996}},{"attributes":{"ID":13056,"DIS_CODE":0,"TOWNNAME":"新市區","LI":"大社里","LIN":"24鄰","STREET":" ","SECT":" ","MAREA":"大社","LANE":" ","ALLEY":" ","HOUSE_NO":"８８６之１１號","E_COORD97":179792.95000000001,"N_COORD97":2553970.96,"ADDRESS":"大社８８６之１１號","OBJECTID":13056},"geometry":{"x":179792.95000000019,"y":2553970.9600000028}},{"attributes":{"ID":13057,"DIS_CODE":0,"TOWNNAME":"新市區","LI":"大社里","LIN":"24鄰","STREET":" ","SECT":" ","MAREA":"大社","LANE":" ","ALLEY":" ","HOUSE_NO":"８８６之１２號","E_COORD97":179854.28,"N_COORD97":2554033.5699999998,"ADDRESS":"大社８８６之１２號","OBJECTID":13057},"geometry":{"x":179854.28000000212,"y":2554033.5700000022}},{"attributes":{"ID":13058,"DIS_CODE":0,"TOWNNAME":"安平區","LI":"華平里","LIN":"24鄰","STREET":"建平八街","SECT":" ","MAREA":" ","LANE":"４１６巷","ALLEY":"６弄","HOUSE_NO":"６號","E_COORD97":165275.92000000001,"N_COORD97":2543627.6200000001,"ADDRESS":"建平八街４１６巷６弄６號","OBJECTID":13058},"geometry":{"x":165275.91999999899,"y":2543627.6199999992}},{"attributes":{"ID":13059,"DIS_CODE":0,"TOWNNAME":"安平區","LI":"華平里","LIN":"24鄰","STREET":"建平八街","SECT":" ","MAREA":" ","LANE":"４１６巷","ALLEY":"６弄","HOUSE_NO":"７號","E_COORD97":165268.53,"N_COORD97":2543617.23,"ADDRESS":"建平八街４１６巷６弄７號","OBJECTID":13059},"geometry":{"x":165268.53000000026,"y":2543617.2300000023}},{"attributes":{"ID":13060,"DIS_CODE":0,"TOWNNAME":"安平區","LI":"華平里","LIN":"24鄰","STREET":"建平八街","SECT":" ","MAREA":" ","LANE":"４１６巷","ALLEY":"６弄","HOUSE_NO":"８號","E_COORD97":165270.88,"N_COORD97":2543628.1800000002,"ADDRESS":"建平八街４１６巷６弄８號","OBJECTID":13060},"geometry":{"x":165270.87999999989,"y":2543628.1799999997}},{"attributes":{"ID":13061,"DIS_CODE":0,"TOWNNAME":"安平區","LI":"華平里","LIN":"24鄰","STREET":"建平八街","SECT":" ","MAREA":" ","LANE":"４１６巷","ALLEY":"６弄","HOUSE_NO":"９號","E_COORD97":165264.62,"N_COORD97":2543617.79,"ADDRESS":"建平八街４１６巷６弄９號","OBJECTID":13061},"geometry":{"x":165264.62000000197,"y":2543617.7900000028}},{"attributes":{"ID":13062,"DIS_CODE":0,"TOWNNAME":"安平區","LI":"華平里","LIN":"24鄰","STREET":"建平八街","SECT":" ","MAREA":" ","LANE":"４３４巷","ALLEY":"６弄","HOUSE_NO":"１０號","E_COORD97":165175.66,"N_COORD97":2543639.98,"ADDRESS":"建平八街４３４巷６弄１０號","OBJECTID":13062},"geometry":{"x":165175.66000000015,"y":2543639.9800000023}},{"attributes":{"ID":13063,"DIS_CODE":0,"TOWNNAME":"安平區","LI":"華平里","LIN":"24鄰","STREET":"建平八街","SECT":" ","MAREA":" ","LANE":"４３４巷","ALLEY":"６弄","HOUSE_NO":"１號","E_COORD97":165193.10000000001,"N_COORD97":2543628.9399999999,"ADDRESS":"建平八街４３４巷６弄１號","OBJECTID":13063},"geometry":{"x":165193.10000000149,"y":2543628.9400000013}},{"attributes":{"ID":13064,"DIS_CODE":0,"TOWNNAME":"安平區","LI":"華平里","LIN":"24鄰","STREET":"建平八街","SECT":" ","MAREA":" ","LANE":"４３４巷","ALLEY":"６弄","HOUSE_NO":"２號","E_COORD97":165195.17000000001,"N_COORD97":2543637.5699999998,"ADDRESS":"建平八街４３４巷６弄２號","OBJECTID":13064},"geometry":{"x":165195.17000000086,"y":2543637.570000004}},{"attributes":{"ID":13065,"DIS_CODE":0,"TOWNNAME":"安平區","LI":"華平里","LIN":"24鄰","STREET":"建平八街","SECT":" ","MAREA":" ","LANE":"４３４巷","ALLEY":"６弄","HOUSE_NO":"３號","E_COORD97":165188.26999999999,"N_COORD97":2543629.98,"ADDRESS":"建平八街４３４巷６弄３號","OBJECTID":13065},"geometry":{"x":165188.26999999955,"y":2543629.9800000004}},{"attributes":{"ID":13066,"DIS_CODE":0,"TOWNNAME":"安平區","LI":"華平里","LIN":"24鄰","STREET":"建平八街","SECT":" ","MAREA":" ","LANE":"４３４巷","ALLEY":"６弄","HOUSE_NO":"４號","E_COORD97":165189.82000000001,"N_COORD97":2543638.4300000002,"ADDRESS":"建平八街４３４巷６弄４號","OBJECTID":13066},"geometry":{"x":165189.8200000003,"y":2543638.4300000016}},{"attributes":{"ID":13067,"DIS_CODE":0,"TOWNNAME":"安平區","LI":"華平里","LIN":"24鄰","STREET":"建平八街","SECT":" ","MAREA":" ","LANE":"４３４巷","ALLEY":"６弄","HOUSE_NO":"５號","E_COORD97":165184.29000000001,"N_COORD97":2543630.4900000002,"ADDRESS":"建平八街４３４巷６弄５號","OBJECTID":13067},"geometry":{"x":165184.29000000097,"y":2543630.4900000002}},{"attributes":{"ID":13068,"DIS_CODE":0,"TOWNNAME":"安平區","LI":"華平里","LIN":"24鄰","STREET":"建平八街","SECT":" ","MAREA":" ","LANE":"４３４巷","ALLEY":"６弄","HOUSE_NO":"６號","E_COORD97":165185.32999999999,"N_COORD97":2543639.1200000001,"ADDRESS":"建平八街４３４巷６弄６號","OBJECTID":13068},"geometry":{"x":165185.33000000194,"y":2543639.1200000029}},{"attributes":{"ID":13069,"DIS_CODE":0,"TOWNNAME":"安平區","LI":"華平里","LIN":"24鄰","STREET":"建平八街","SECT":" ","MAREA":" ","LANE":"４３４巷","ALLEY":"６弄","HOUSE_NO":"７號","E_COORD97":165179.63,"N_COORD97":2543632.2200000002,"ADDRESS":"建平八街４３４巷６弄７號","OBJECTID":13069},"geometry":{"x":165179.63000000175,"y":2543632.2200000007}},{"attributes":{"ID":13070,"DIS_CODE":0,"TOWNNAME":"安平區","LI":"華平里","LIN":"24鄰","STREET":"建平八街","SECT":" ","MAREA":" ","LANE":"４３４巷","ALLEY":"６弄","HOUSE_NO":"９號","E_COORD97":165174.26999999999,"N_COORD97":2543633.0800000001,"ADDRESS":"建平八街４３４巷６弄９號","OBJECTID":13070},"geometry":{"x":165174.26999999955,"y":2543633.0800000001}},{"attributes":{"ID":13071,"DIS_CODE":0,"TOWNNAME":"歸仁區","LI":"歸南里","LIN":"24鄰","STREET":"民生八街","SECT":" ","MAREA":" ","LANE":"２１巷","ALLEY":"１弄","HOUSE_NO":"５號","E_COORD97":176141.19,"N_COORD97":2540310.29,"ADDRESS":"民生八街２１巷１弄５號","OBJECTID":13071},"geometry":{"x":176141.19000000134,"y":2540310.290000001}},{"attributes":{"ID":13072,"DIS_CODE":0,"TOWNNAME":"鹽水區","LI":"橋南里","LIN":"24鄰","STREET":"南門路","SECT":" ","MAREA":" ","LANE":"８０巷","ALLEY":"２０弄","HOUSE_NO":"９號","E_COORD97":175075.91,"N_COORD97":2579211.0099999998,"ADDRESS":"南門路８０巷２０弄９號","OBJECTID":13072},"geometry":{"x":175075.91000000015,"y":2579211.0099999998}},{"attributes":{"ID":13073,"DIS_CODE":0,"TOWNNAME":"北區","LI":"和順里","LIN":"24鄰","STREET":"西門路","SECT":"三段","MAREA":" ","LANE":"４５巷","ALLEY":"４２弄","HOUSE_NO":"１８號","E_COORD97":168135.32999999999,"N_COORD97":2544774.2799999998,"ADDRESS":"西門路三段４５巷４２弄１８號","OBJECTID":13073},"geometry":{"x":168135.33000000101,"y":2544774.2800000031}},{"attributes":{"ID":13074,"DIS_CODE":0,"TOWNNAME":"北區","LI":"和順里","LIN":"24鄰","STREET":"西門路","SECT":"三段","MAREA":" ","LANE":"４５巷","ALLEY":"４２弄","HOUSE_NO":"１０號","E_COORD97":168137.67999999999,"N_COORD97":2544760.6000000001,"ADDRESS":"西門路三段４５巷４２弄１０號","OBJECTID":13074},"geometry":{"x":168137.68000000063,"y":2544760.5999999996}},{"attributes":{"ID":13075,"DIS_CODE":0,"TOWNNAME":"新市區","LI":"大社里","LIN":"24鄰","STREET":" ","SECT":" ","MAREA":"大社","LANE":" ","ALLEY":" ","HOUSE_NO":"８８６之１３號","E_COORD97":179861.20000000001,"N_COORD97":2554013.96,"ADDRESS":"大社８８６之１３號","OBJECTID":13075},"geometry":{"x":179861.20000000019,"y":2554013.9600000028}},{"attributes":{"ID":13076,"DIS_CODE":0,"TOWNNAME":"新市區","LI":"大社里","LIN":"24鄰","STREET":" ","SECT":" ","MAREA":"大社","LANE":" ","ALLEY":" ","HOUSE_NO":"８８６之１５號","E_COORD97":179856.95000000001,"N_COORD97":2554009.8100000001,"ADDRESS":"大社８８６之１５號","OBJECTID":13076},"geometry":{"x":179856.95000000112,"y":2554009.8100000005}},{"attributes":{"ID":13077,"DIS_CODE":0,"TOWNNAME":"北區","LI":"和順里","LIN":"24鄰","STREET":"西門路","SECT":"三段","MAREA":" ","LANE":"４５巷","ALLEY":"４２弄","HOUSE_NO":"１１號","E_COORD97":168125.64999999999,"N_COORD97":2544765.8799999999,"ADDRESS":"西門路三段４５巷４２弄１１號","OBJECTID":13077},"geometry":{"x":168125.65000000037,"y":2544765.879999999}},{"attributes":{"ID":13078,"DIS_CODE":0,"TOWNNAME":"北區","LI":"和順里","LIN":"24鄰","STREET":"西門路","SECT":"三段","MAREA":" ","LANE":"４５巷","ALLEY":"４２弄","HOUSE_NO":"１２號","E_COORD97":168137.04000000001,"N_COORD97":2544763.7000000002,"ADDRESS":"西門路三段４５巷４２弄１２號","OBJECTID":13078},"geometry":{"x":168137.04000000097,"y":2544763.6999999993}},{"attributes":{"ID":13079,"DIS_CODE":0,"TOWNNAME":"北區","LI":"和順里","LIN":"24鄰","STREET":"西門路","SECT":"三段","MAREA":" ","LANE":"４５巷","ALLEY":"４２弄","HOUSE_NO":"１３號","E_COORD97":168124.60000000001,"N_COORD97":2544771.46,"ADDRESS":"西門路三段４５巷４２弄１３號","OBJECTID":13079},"geometry":{"x":168124.60000000056,"y":2544771.4600000046}},{"attributes":{"ID":13080,"DIS_CODE":0,"TOWNNAME":"北區","LI":"和順里","LIN":"24鄰","STREET":"西門路","SECT":"三段","MAREA":" ","LANE":"４５巷","ALLEY":"４２弄","HOUSE_NO":"１４號","E_COORD97":168136.39999999999,"N_COORD97":2544767.1200000001,"ADDRESS":"西門路三段４５巷４２弄１４號","OBJECTID":13080},"geometry":{"x":168136.40000000224,"y":2544767.1200000048}},{"attributes":{"ID":13081,"DIS_CODE":0,"TOWNNAME":"安南區","LI":"新順里","LIN":"13鄰","STREET":"永安路","SECT":" ","MAREA":" ","LANE":" ","ALLEY":" ","HOUSE_NO":"２７號","E_COORD97":170129.51999999999,"N_COORD97":2549502.6699999999,"ADDRESS":"永安路２７號","OBJECTID":13081},"geometry":{"x":170129.51999999955,"y":2549502.6700000018}},{"attributes":{"ID":13082,"DIS_CODE":0,"TOWNNAME":"北區","LI":"和順里","LIN":"24鄰","STREET":"西門路","SECT":"三段","MAREA":" ","LANE":"４５巷","ALLEY":"４２弄","HOUSE_NO":"１５號","E_COORD97":168124.14000000001,"N_COORD97":2544775.0699999998,"ADDRESS":"西門路三段４５巷４２弄１５號","OBJECTID":13082},"geometry":{"x":168124.1400000006,"y":2544775.0700000003}},{"attributes":{"ID":13083,"DIS_CODE":0,"TOWNNAME":"安南區","LI":"溪心里","LIN":"13鄰","STREET":"樂安一街","SECT":" ","MAREA":" ","LANE":" ","ALLEY":" ","HOUSE_NO":"１３９號","E_COORD97":165871.04000000001,"N_COORD97":2549768.79,"ADDRESS":"樂安一街１３９號","OBJECTID":13083},"geometry":{"x":165871.04000000097,"y":2549768.790000001}},{"attributes":{"ID":13084,"DIS_CODE":0,"TOWNNAME":"安南區","LI":"溪心里","LIN":"13鄰","STREET":"樂安一街","SECT":" ","MAREA":" ","LANE":" ","ALLEY":" ","HOUSE_NO":"１４１號","E_COORD97":165867.07000000001,"N_COORD97":2549770.0899999999,"ADDRESS":"樂安一街１４１號","OBJECTID":13084},"geometry":{"x":165867.07000000216,"y":2549770.0900000036}},{"attributes":{"ID":13085,"DIS_CODE":0,"TOWNNAME":"安南區","LI":"頂安里","LIN":"13鄰","STREET":"安中路","SECT":"一段","MAREA":" ","LANE":" ","ALLEY":" ","HOUSE_NO":"３８４號之１","E_COORD97":168382.48999999999,"N_COORD97":2548781.04,"ADDRESS":"安中路一段３８４號之１","OBJECTID":13085},"geometry":{"x":168382.49000000022,"y":2548781.040000001}},{"attributes":{"ID":13086,"DIS_CODE":0,"TOWNNAME":"安南區","LI":"安順里","LIN":"13鄰","STREET":"育安街","SECT":" ","MAREA":" ","LANE":" ","ALLEY":" ","HOUSE_NO":"２５６號","E_COORD97":169604.91,"N_COORD97":2550098.1000000001,"ADDRESS":"育安街２５６號","OBJECTID":13086},"geometry":{"x":169604.91000000108,"y":2550098.0999999996}},{"attributes":{"ID":13087,"DIS_CODE":0,"TOWNNAME":"安南區","LI":"新順里","LIN":"13鄰","STREET":"開安一街","SECT":" ","MAREA":" ","LANE":" ","ALLEY":" ","HOUSE_NO":"７號","E_COORD97":170480.45000000001,"N_COORD97":2549701.5699999998,"ADDRESS":"開安一街７號","OBJECTID":13087},"geometry":{"x":170480.45000000112,"y":2549701.5700000003}},{"attributes":{"ID":13088,"DIS_CODE":0,"TOWNNAME":"北區","LI":"和順里","LIN":"24鄰","STREET":"西門路","SECT":"三段","MAREA":" ","LANE":"４５巷","ALLEY":"４２弄","HOUSE_NO":"１６號","E_COORD97":168135.54000000001,"N_COORD97":2544771.0699999998,"ADDRESS":"西門路三段４５巷４２弄１６號","OBJECTID":13088},"geometry":{"x":168135.54000000097,"y":2544771.0700000022}},{"attributes":{"ID":13089,"DIS_CODE":0,"TOWNNAME":"北區","LI":"和順里","LIN":"24鄰","STREET":"西門路","SECT":"三段","MAREA":" ","LANE":"４５巷","ALLEY":"４２弄","HOUSE_NO":"１號","E_COORD97":168128.79999999999,"N_COORD97":2544742.27,"ADDRESS":"西門路三段４５巷４２弄１號","OBJECTID":13089},"geometry":{"x":168128.80000000075,"y":2544742.2700000014}},{"attributes":{"ID":13090,"DIS_CODE":0,"TOWNNAME":"北區","LI":"和順里","LIN":"24鄰","STREET":"西門路","SECT":"三段","MAREA":" ","LANE":"４５巷","ALLEY":"４２弄","HOUSE_NO":"２號","E_COORD97":168142.82000000001,"N_COORD97":2544746.3799999999,"ADDRESS":"西門路三段４５巷４２弄２號","OBJECTID":13090},"geometry":{"x":168142.8200000003,"y":2544746.3800000027}},{"attributes":{"ID":13091,"DIS_CODE":0,"TOWNNAME":"北區","LI":"和順里","LIN":"24鄰","STREET":"西門路","SECT":"三段","MAREA":" ","LANE":"４５巷","ALLEY":"４２弄","HOUSE_NO":"３號","E_COORD97":168128.45000000001,"N_COORD97":2544746.46,"ADDRESS":"西門路三段４５巷４２弄３號","OBJECTID":13091},"geometry":{"x":168128.45000000019,"y":2544746.4600000009}},{"attributes":{"ID":13092,"DIS_CODE":0,"TOWNNAME":"北區","LI":"和順里","LIN":"24鄰","STREET":"西門路","SECT":"三段","MAREA":" ","LANE":"４５巷","ALLEY":"４２弄","HOUSE_NO":"４號","E_COORD97":168138.97,"N_COORD97":2544749.6899999999,"ADDRESS":"西門路三段４５巷４２弄４號","OBJECTID":13092},"geometry":{"x":168138.97000000067,"y":2544749.6899999995}},{"attributes":{"ID":13093,"DIS_CODE":0,"TOWNNAME":"北區","LI":"和順里","LIN":"24鄰","STREET":"西門路","SECT":"三段","MAREA":" ","LANE":"４５巷","ALLEY":"４２弄","HOUSE_NO":"５號","E_COORD97":168127.63,"N_COORD97":2544750.1800000002,"ADDRESS":"西門路三段４５巷４２弄５號","OBJECTID":13093},"geometry":{"x":168127.63000000175,"y":2544750.1799999997}},{"attributes":{"ID":13094,"DIS_CODE":0,"TOWNNAME":"北區","LI":"和順里","LIN":"24鄰","STREET":"西門路","SECT":"三段","MAREA":" ","LANE":"４５巷","ALLEY":"４２弄","HOUSE_NO":"６號","E_COORD97":168138.42999999999,"N_COORD97":2544752.8999999999,"ADDRESS":"西門路三段４５巷４２弄６號","OBJECTID":13094},"geometry":{"x":168138.4299999997,"y":2544752.9000000004}},{"attributes":{"ID":13095,"DIS_CODE":0,"TOWNNAME":"北區","LI":"和順里","LIN":"24鄰","STREET":"西門路","SECT":"三段","MAREA":" ","LANE":"４５巷","ALLEY":"４２弄","HOUSE_NO":"７號","E_COORD97":168127.17000000001,"N_COORD97":2544753.8999999999,"ADDRESS":"西門路三段４５巷４２弄７號","OBJECTID":13095},"geometry":{"x":168127.16999999993,"y":2544753.9000000004}},{"attributes":{"ID":13096,"DIS_CODE":0,"TOWNNAME":"北區","LI":"和順里","LIN":"24鄰","STREET":"西門路","SECT":"三段","MAREA":" ","LANE":"４５巷","ALLEY":"４２弄","HOUSE_NO":"８號","E_COORD97":168138.42999999999,"N_COORD97":2544756.75,"ADDRESS":"西門路三段４５巷４２弄８號","OBJECTID":13096},"geometry":{"x":168138.4299999997,"y":2544756.75}},{"attributes":{"ID":13097,"DIS_CODE":0,"TOWNNAME":"北區","LI":"和順里","LIN":"24鄰","STREET":"西門路","SECT":"三段","MAREA":" ","LANE":"４５巷","ALLEY":"４２弄","HOUSE_NO":"９號","E_COORD97":168126.23000000001,"N_COORD97":2544759.02,"ADDRESS":"西門路三段４５巷４２弄９號","OBJECTID":13097},"geometry":{"x":168126.23000000138,"y":2544759.0199999996}},{"attributes":{"ID":13098,"DIS_CODE":0,"TOWNNAME":"楠西區","LI":"楠西里","LIN":"24鄰","STREET":"中興路","SECT":" ","MAREA":" ","LANE":"６３巷","ALLEY":"３弄","HOUSE_NO":"４號","E_COORD97":197159.72,"N_COORD97":2564331.8900000001,"ADDRESS":"中興路６３巷３弄４號","OBJECTID":13098},"geometry":{"x":197159.71999999974,"y":2564331.8900000025}},{"attributes":{"ID":13099,"DIS_CODE":0,"TOWNNAME":"新市區","LI":"大社里","LIN":"24鄰","STREET":" ","SECT":" ","MAREA":"大社","LANE":" ","ALLEY":" ","HOUSE_NO":"８８６之１６號","E_COORD97":179851.31,"N_COORD97":2554031.0299999998,"ADDRESS":"大社８８６之１６號","OBJECTID":13099},"geometry":{"x":179851.30999999959,"y":2554031.0299999993}},{"attributes":{"ID":13100,"DIS_CODE":0,"TOWNNAME":"新市區","LI":"大社里","LIN":"24鄰","STREET":" ","SECT":" ","MAREA":"大社","LANE":" ","ALLEY":" ","HOUSE_NO":"８８６之１７號","E_COORD97":179854.01000000001,"N_COORD97":2554008.4900000002,"ADDRESS":"大社８８６之１７號","OBJECTID":13100},"geometry":{"x":179854.01000000071,"y":2554008.4900000002}},{"attributes":{"ID":13101,"DIS_CODE":0,"TOWNNAME":"新市區","LI":"大社里","LIN":"24鄰","STREET":" ","SECT":" ","MAREA":"大社","LANE":" ","ALLEY":" ","HOUSE_NO":"８８６之１８號","E_COORD97":179847.19,"N_COORD97":2554029.6099999999,"ADDRESS":"大社８８６之１８號","OBJECTID":13101},"geometry":{"x":179847.19000000134,"y":2554029.6099999994}},{"attributes":{"ID":13102,"DIS_CODE":0,"TOWNNAME":"新市區","LI":"大社里","LIN":"24鄰","STREET":" ","SECT":" ","MAREA":"大社","LANE":" ","ALLEY":" ","HOUSE_NO":"８８６之１９號","E_COORD97":179849.34,"N_COORD97":2554006.1400000001,"ADDRESS":"大社８８６之１９號","OBJECTID":13102},"geometry":{"x":179849.33999999985,"y":2554006.1400000025}},{"attributes":{"ID":13103,"DIS_CODE":0,"TOWNNAME":"新市區","LI":"大社里","LIN":"24鄰","STREET":" ","SECT":" ","MAREA":"大社","LANE":" ","ALLEY":" ","HOUSE_NO":"８８６之２０號","E_COORD97":179842.92000000001,"N_COORD97":2554028.1400000001,"ADDRESS":"大社８８６之２０號","OBJECTID":13103},"geometry":{"x":179842.92000000086,"y":2554028.1400000006}},{"attributes":{"ID":13104,"DIS_CODE":0,"TOWNNAME":"新市區","LI":"大社里","LIN":"24鄰","STREET":" ","SECT":" ","MAREA":"大社","LANE":" ","ALLEY":" ","HOUSE_NO":"８８６之２１號","E_COORD97":179837.23000000001,"N_COORD97":2554005.6099999999,"ADDRESS":"大社８８６之２１號","OBJECTID":13104},"geometry":{"x":179837.23000000045,"y":2554005.6100000013}},{"attributes":{"ID":13105,"DIS_CODE":0,"TOWNNAME":"新市區","LI":"大社里","LIN":"24鄰","STREET":" ","SECT":" ","MAREA":"大社","LANE":" ","ALLEY":" ","HOUSE_NO":"８８６之２２號","E_COORD97":179831.35000000001,"N_COORD97":2554024.1200000001,"ADDRESS":"大社８８６之２２號","OBJECTID":13105},"geometry":{"x":179831.35000000056,"y":2554024.1200000029}},{"attributes":{"ID":13106,"DIS_CODE":0,"TOWNNAME":"新市區","LI":"大社里","LIN":"24鄰","STREET":" ","SECT":" ","MAREA":"大社","LANE":" ","ALLEY":" ","HOUSE_NO":"８８６之２３號","E_COORD97":179832.73999999999,"N_COORD97":2554004.0600000001,"ADDRESS":"大社８８６之２３號","OBJECTID":13106},"geometry":{"x":179832.74000000115,"y":2554004.0600000005}},{"attributes":{"ID":13107,"DIS_CODE":0,"TOWNNAME":"新市區","LI":"大社里","LIN":"24鄰","STREET":" ","SECT":" ","MAREA":"大社","LANE":" ","ALLEY":" ","HOUSE_NO":"８８６之２５號","E_COORD97":179828.39000000001,"N_COORD97":2554002.5600000001,"ADDRESS":"大社８８６之２５號","OBJECTID":13107},"geometry":{"x":179828.38999999966,"y":2554002.5600000024}},{"attributes":{"ID":13108,"DIS_CODE":0,"TOWNNAME":"安南區","LI":"安順里","LIN":"13鄰","STREET":"總安街","SECT":"一段","MAREA":" ","LANE":" ","ALLEY":" ","HOUSE_NO":"１１９號","E_COORD97":169676.67000000001,"N_COORD97":2550136.2200000002,"ADDRESS":"總安街一段１１９號","OBJECTID":13108},"geometry":{"x":169676.67000000179,"y":2550136.2200000044}},{"attributes":{"ID":13109,"DIS_CODE":0,"TOWNNAME":"安南區","LI":"安順里","LIN":"13鄰","STREET":"總安街","SECT":"一段","MAREA":" ","LANE":" ","ALLEY":" ","HOUSE_NO":"１２１號","E_COORD97":169671.20000000001,"N_COORD97":2550139.5600000001,"ADDRESS":"總安街一段１２１號","OBJECTID":13109},"geometry":{"x":169671.20000000019,"y":2550139.5600000005}},{"attributes":{"ID":13110,"DIS_CODE":0,"TOWNNAME":"安南區","LI":"安順里","LIN":"13鄰","STREET":"總安街","SECT":"一段","MAREA":" ","LANE":" ","ALLEY":" ","HOUSE_NO":"１２３號","E_COORD97":169666.79999999999,"N_COORD97":2550142.1299999999,"ADDRESS":"總安街一段１２３號","OBJECTID":13110},"geometry":{"x":169666.79999999981,"y":2550142.1300000027}},{"attributes":{"ID":13111,"DIS_CODE":0,"TOWNNAME":"安南區","LI":"安順里","LIN":"13鄰","STREET":"總安街","SECT":"一段","MAREA":" ","LANE":" ","ALLEY":" ","HOUSE_NO":"１２７號","E_COORD97":169658.29000000001,"N_COORD97":2550145.3199999998,"ADDRESS":"總安街一段１２７號","OBJECTID":13111},"geometry":{"x":169658.29000000004,"y":2550145.320000004}},{"attributes":{"ID":13112,"DIS_CODE":0,"TOWNNAME":"安南區","LI":"安順里","LIN":"13鄰","STREET":"總安街","SECT":"一段","MAREA":" ","LANE":" ","ALLEY":" ","HOUSE_NO":"１２９號","E_COORD97":169654.04000000001,"N_COORD97":2550146.23,"ADDRESS":"總安街一段１２９號","OBJECTID":13112},"geometry":{"x":169654.0400000019,"y":2550146.2300000042}},{"attributes":{"ID":13113,"DIS_CODE":0,"TOWNNAME":"官田區","LI":"二鎮里","LIN":"14鄰","STREET":" ","SECT":" ","MAREA":"程泰","LANE":" ","ALLEY":" ","HOUSE_NO":"５６號","E_COORD97":181726.97,"N_COORD97":2566501.3100000001,"ADDRESS":"程泰５６號","OBJECTID":13113},"geometry":{"x":181726.96999999974,"y":2566501.3100000024}},{"attributes":{"ID":13114,"DIS_CODE":0,"TOWNNAME":"安南區","LI":"安順里","LIN":"13鄰","STREET":"總安街","SECT":"一段","MAREA":" ","LANE":" ","ALLEY":" ","HOUSE_NO":"１３１號","E_COORD97":169649.63,"N_COORD97":2550147.8999999999,"ADDRESS":"總安街一段１３１號","OBJECTID":13114},"geometry":{"x":169649.62999999989,"y":2550147.9000000004}},{"attributes":{"ID":13115,"DIS_CODE":0,"TOWNNAME":"安南區","LI":"安順里","LIN":"13鄰","STREET":"總安街","SECT":"一段","MAREA":" ","LANE":" ","ALLEY":" ","HOUSE_NO":"１３３號","E_COORD97":169644.47,"N_COORD97":2550149.2599999998,"ADDRESS":"總安街一段１３３號","OBJECTID":13115},"geometry":{"x":169644.47000000067,"y":2550149.2600000016}},{"attributes":{"ID":13116,"DIS_CODE":0,"TOWNNAME":"安南區","LI":"安順里","LIN":"13鄰","STREET":"總安街","SECT":"一段","MAREA":" ","LANE":" ","ALLEY":" ","HOUSE_NO":"１３５號","E_COORD97":169640.06,"N_COORD97":2550150.1699999999,"ADDRESS":"總安街一段１３５號","OBJECTID":13116},"geometry":{"x":169640.06000000052,"y":2550150.1700000018}},{"attributes":{"ID":13117,"DIS_CODE":0,"TOWNNAME":"安南區","LI":"安順里","LIN":"13鄰","STREET":"總安街","SECT":"一段","MAREA":" ","LANE":" ","ALLEY":" ","HOUSE_NO":"１３７號","E_COORD97":169635.20000000001,"N_COORD97":2550150.48,"ADDRESS":"總安街一段１３７號","OBJECTID":13117},"geometry":{"x":169635.20000000112,"y":2550150.4800000004}},{"attributes":{"ID":13118,"DIS_CODE":0,"TOWNNAME":"安南區","LI":"安順里","LIN":"13鄰","STREET":"總安街","SECT":"一段","MAREA":" ","LANE":" ","ALLEY":" ","HOUSE_NO":"１３９號","E_COORD97":169630.64999999999,"N_COORD97":2550151.2400000002,"ADDRESS":"總安街一段１３９號","OBJECTID":13118},"geometry":{"x":169630.6500000013,"y":2550151.2400000002}},{"attributes":{"ID":13119,"DIS_CODE":0,"TOWNNAME":"安南區","LI":"新順里","LIN":"13鄰","STREET":"永安路","SECT":" ","MAREA":" ","LANE":" ","ALLEY":" ","HOUSE_NO":"１３號","E_COORD97":170032.32999999999,"N_COORD97":2549561.7799999998,"ADDRESS":"永安路１３號","OBJECTID":13119},"geometry":{"x":170032.33000000101,"y":2549561.7800000031}},{"attributes":{"ID":13120,"DIS_CODE":0,"TOWNNAME":"新市區","LI":"大社里","LIN":"24鄰","STREET":" ","SECT":" ","MAREA":"大社","LANE":" ","ALLEY":" ","HOUSE_NO":"８８６之２６號","E_COORD97":179827.98999999999,"N_COORD97":2554023.5600000001,"ADDRESS":"大社８８６之２６號","OBJECTID":13120},"geometry":{"x":179827.99000000115,"y":2554023.5600000024}},{"attributes":{"ID":13121,"DIS_CODE":0,"TOWNNAME":"新市區","LI":"大社里","LIN":"24鄰","STREET":" ","SECT":" ","MAREA":"大社","LANE":" ","ALLEY":" ","HOUSE_NO":"８８６之２７號","E_COORD97":179824.01000000001,"N_COORD97":2554001.04,"ADDRESS":"大社８８６之２７號","OBJECTID":13121},"geometry":{"x":179824.01000000071,"y":2554001.0400000028}},{"attributes":{"ID":13122,"DIS_CODE":0,"TOWNNAME":"新市區","LI":"大社里","LIN":"24鄰","STREET":" ","SECT":" ","MAREA":"大社","LANE":" ","ALLEY":" ","HOUSE_NO":"８８６之２８號","E_COORD97":179823.64000000001,"N_COORD97":2554022.0600000001,"ADDRESS":"大社８８６之２８號","OBJECTID":13122},"geometry":{"x":179823.63999999966,"y":2554022.0600000005}},{"attributes":{"ID":13123,"DIS_CODE":0,"TOWNNAME":"新市區","LI":"大社里","LIN":"24鄰","STREET":" ","SECT":" ","MAREA":"大社","LANE":" ","ALLEY":" ","HOUSE_NO":"８８６之２９號","E_COORD97":179818.70000000001,"N_COORD97":2554002.2400000002,"ADDRESS":"大社８８６之２９號","OBJECTID":13123},"geometry":{"x":179818.70000000019,"y":2554002.2400000021}},{"attributes":{"ID":13124,"DIS_CODE":0,"TOWNNAME":"新市區","LI":"大社里","LIN":"24鄰","STREET":" ","SECT":" ","MAREA":"大社","LANE":" ","ALLEY":" ","HOUSE_NO":"８８６之３０號","E_COORD97":179819.29000000001,"N_COORD97":2554020.5600000001,"ADDRESS":"大社８８６之３０號","OBJECTID":13124},"geometry":{"x":179819.29000000004,"y":2554020.5600000024}},{"attributes":{"ID":13125,"DIS_CODE":0,"TOWNNAME":"新市區","LI":"大社里","LIN":"24鄰","STREET":" ","SECT":" ","MAREA":"大社","LANE":" ","ALLEY":" ","HOUSE_NO":"８８６之３１號","E_COORD97":179814.32999999999,"N_COORD97":2554000.7400000002,"ADDRESS":"大社８８６之３１號","OBJECTID":13125},"geometry":{"x":179814.33000000007,"y":2554000.7400000039}},{"attributes":{"ID":13126,"DIS_CODE":0,"TOWNNAME":"楠西區","LI":"楠西里","LIN":"24鄰","STREET":"中興路","SECT":" ","MAREA":" ","LANE":"６３巷","ALLEY":"３弄","HOUSE_NO":"２號","E_COORD97":197160.32000000001,"N_COORD97":2564335.8900000001,"ADDRESS":"中興路６３巷３弄２號","OBJECTID":13126},"geometry":{"x":197160.32000000216,"y":2564335.8900000006}},{"attributes":{"ID":13127,"DIS_CODE":0,"TOWNNAME":"新營區","LI":"民生里","LIN":"24鄰","STREET":"民生路","SECT":" ","MAREA":" ","LANE":"１３９巷","ALLEY":"７弄","HOUSE_NO":"１５號","E_COORD97":179199.89000000001,"N_COORD97":2578556.5899999999,"ADDRESS":"民生路１３９巷７弄１５號","OBJECTID":13127},"geometry":{"x":179199.88999999966,"y":2578556.5899999999}},{"attributes":{"ID":13128,"DIS_CODE":0,"TOWNNAME":"新營區","LI":"民生里","LIN":"24鄰","STREET":"民生路","SECT":" ","MAREA":" ","LANE":"１３９巷","ALLEY":"７弄","HOUSE_NO":"１６號","E_COORD97":179191.64000000001,"N_COORD97":2578543.3399999999,"ADDRESS":"民生路１３９巷７弄１６號","OBJECTID":13128},"geometry":{"x":179191.63999999873,"y":2578543.3400000017}},{"attributes":{"ID":13129,"DIS_CODE":0,"TOWNNAME":"北區","LI":"文元里","LIN":"24鄰","STREET":"文成三路","SECT":" ","MAREA":" ","LANE":"６８２巷","ALLEY":"４１弄","HOUSE_NO":"１號","E_COORD97":167919.82999999999,"N_COORD97":2546420.27,"ADDRESS":"文成三路６８２巷４１弄１號","OBJECTID":13129},"geometry":{"x":167919.83000000101,"y":2546420.2700000014}},{"attributes":{"ID":13130,"DIS_CODE":0,"TOWNNAME":"北區","LI":"文元里","LIN":"24鄰","STREET":"文成三路","SECT":" ","MAREA":" ","LANE":"６８２巷","ALLEY":"４１弄","HOUSE_NO":"２號","E_COORD97":167919.57999999999,"N_COORD97":2546426.8700000001,"ADDRESS":"文成三路６８２巷４１弄２號","OBJECTID":13130},"geometry":{"x":167919.58000000194,"y":2546426.8700000048}},{"attributes":{"ID":13131,"DIS_CODE":0,"TOWNNAME":"北區","LI":"文元里","LIN":"24鄰","STREET":"文成三路","SECT":" ","MAREA":" ","LANE":"６８２巷","ALLEY":"４１弄","HOUSE_NO":"３號","E_COORD97":167914.75,"N_COORD97":2546419.8900000001,"ADDRESS":"文成三路６８２巷４１弄３號","OBJECTID":13131},"geometry":{"x":167914.75,"y":2546419.8900000025}},{"attributes":{"ID":13132,"DIS_CODE":0,"TOWNNAME":"北區","LI":"文元里","LIN":"24鄰","STREET":"文成三路","SECT":" ","MAREA":" ","LANE":"６８２巷","ALLEY":"４１弄","HOUSE_NO":"５號","E_COORD97":167909.04000000001,"N_COORD97":2546419.3799999999,"ADDRESS":"文成三路６８２巷４１弄５號","OBJECTID":13132},"geometry":{"x":167909.04000000004,"y":2546419.379999999}},{"attributes":{"ID":13133,"DIS_CODE":0,"TOWNNAME":"新市區","LI":"大社里","LIN":"24鄰","STREET":" ","SECT":" ","MAREA":"大社","LANE":" ","ALLEY":" ","HOUSE_NO":"８８６之３２號","E_COORD97":179814.92999999999,"N_COORD97":2554019.0499999998,"ADDRESS":"大社８８６之３２號","OBJECTID":13133},"geometry":{"x":179814.9299999997,"y":2554019.0500000007}},{"attributes":{"ID":13134,"DIS_CODE":0,"TOWNNAME":"新市區","LI":"大社里","LIN":"24鄰","STREET":" ","SECT":" ","MAREA":"大社","LANE":" ","ALLEY":" ","HOUSE_NO":"８８６之３３號","E_COORD97":179809.98000000001,"N_COORD97":2553999.2400000002,"ADDRESS":"大社８８６之３３號","OBJECTID":13134},"geometry":{"x":179809.98000000045,"y":2553999.2400000002}},{"attributes":{"ID":13135,"DIS_CODE":0,"TOWNNAME":"北區","LI":"文元里","LIN":"24鄰","STREET":"文成三路","SECT":" ","MAREA":" ","LANE":"６８２巷","ALLEY":"４１弄","HOUSE_NO":"６號","E_COORD97":167914.37,"N_COORD97":2546426.6200000001,"ADDRESS":"文成三路６８２巷４１弄６號","OBJECTID":13135},"geometry":{"x":167914.37000000197,"y":2546426.620000001}},{"attributes":{"ID":13136,"DIS_CODE":0,"TOWNNAME":"北區","LI":"文元里","LIN":"24鄰","STREET":"文成三路","SECT":" ","MAREA":" ","LANE":"６８２巷","ALLEY":"４１弄","HOUSE_NO":"７號","E_COORD97":167903.07000000001,"N_COORD97":2546418.8700000001,"ADDRESS":"文成三路６８２巷４１弄７號","OBJECTID":13136},"geometry":{"x":167903.07000000123,"y":2546418.870000001}},{"attributes":{"ID":13137,"DIS_CODE":0,"TOWNNAME":"北區","LI":"文元里","LIN":"24鄰","STREET":"文成三路","SECT":" ","MAREA":" ","LANE":"６８２巷","ALLEY":"４１弄","HOUSE_NO":"８號","E_COORD97":167908.78,"N_COORD97":2546426.6200000001,"ADDRESS":"文成三路６８２巷４１弄８號","OBJECTID":13137},"geometry":{"x":167908.78000000119,"y":2546426.620000001}},{"attributes":{"ID":13138,"DIS_CODE":0,"TOWNNAME":"新市區","LI":"大社里","LIN":"24鄰","STREET":" ","SECT":" ","MAREA":"大社","LANE":" ","ALLEY":" ","HOUSE_NO":"８８６之３５號","E_COORD97":179806.29999999999,"N_COORD97":2553996.4700000002,"ADDRESS":"大社８８６之３５號","OBJECTID":13138},"geometry":{"x":179806.30000000168,"y":2553996.4700000044}},{"attributes":{"ID":13139,"DIS_CODE":0,"TOWNNAME":"北門區","LI":"保吉里","LIN":"24鄰","STREET":" ","SECT":" ","MAREA":"蚵寮","LANE":" ","ALLEY":" ","HOUSE_NO":"４９１號","E_COORD97":161451.09,"N_COORD97":2576295.9199999999,"ADDRESS":"蚵寮４９１號","OBJECTID":13139},"geometry":{"x":161451.09000000078,"y":2576295.9200000018}},{"attributes":{"ID":13140,"DIS_CODE":0,"TOWNNAME":"新市區","LI":"大社里","LIN":"24鄰","STREET":" ","SECT":" ","MAREA":"大社","LANE":" ","ALLEY":" ","HOUSE_NO":"８８７之２號","E_COORD97":179817.48000000001,"N_COORD97":2554101.2999999998,"ADDRESS":"大社８８７之２號","OBJECTID":13140},"geometry":{"x":179817.48000000231,"y":2554101.3000000007}},{"attributes":{"ID":13141,"DIS_CODE":0,"TOWNNAME":"新營區","LI":"護鎮里","LIN":"5鄰","STREET":" ","SECT":" ","MAREA":"後鎮","LANE":" ","ALLEY":" ","HOUSE_NO":"５９之１０號","E_COORD97":179116.09,"N_COORD97":2581202.7599999998,"ADDRESS":"後鎮５９之１０號","OBJECTID":13141},"geometry":{"x":179116.09000000171,"y":2581202.7600000016}},{"attributes":{"ID":13142,"DIS_CODE":0,"TOWNNAME":"新市區","LI":"大社里","LIN":"24鄰","STREET":" ","SECT":" ","MAREA":"大社","LANE":" ","ALLEY":" ","HOUSE_NO":"８７３之１號","E_COORD97":179738.70000000001,"N_COORD97":2554031.25,"ADDRESS":"大社８７３之１號","OBJECTID":13142},"geometry":{"x":179738.70000000019,"y":2554031.2500000019}},{"attributes":{"ID":13143,"DIS_CODE":0,"TOWNNAME":"新市區","LI":"大社里","LIN":"24鄰","STREET":" ","SECT":" ","MAREA":"大社","LANE":" ","ALLEY":" ","HOUSE_NO":"８９０號","E_COORD97":179847.23000000001,"N_COORD97":2554064,"ADDRESS":"大社８９０號","OBJECTID":13143},"geometry":{"x":179847.23000000045,"y":2554064.0000000019}},{"attributes":{"ID":13144,"DIS_CODE":0,"TOWNNAME":"東山區","LI":"青山里","LIN":"16鄰","STREET":" ","SECT":" ","MAREA":"青山","LANE":" ","ALLEY":" ","HOUSE_NO":"４６號之１０","E_COORD97":195584.92999999999,"N_COORD97":2575231.5099999998,"ADDRESS":"青山４６號之１０","OBJECTID":13144},"geometry":{"x":195584.9299999997,"y":2575231.5099999998}},{"attributes":{"ID":13145,"DIS_CODE":0,"TOWNNAME":"安南區","LI":"新順里","LIN":"13鄰","STREET":"永安路","SECT":" ","MAREA":" ","LANE":" ","ALLEY":" ","HOUSE_NO":"１９號","E_COORD97":170082.31,"N_COORD97":2549544.6299999999,"ADDRESS":"永安路１９號","OBJECTID":13145},"geometry":{"x":170082.31000000145,"y":2549544.629999999}},{"attributes":{"ID":13146,"DIS_CODE":0,"TOWNNAME":"安南區","LI":"新順里","LIN":"13鄰","STREET":"永安路","SECT":" ","MAREA":" ","LANE":" ","ALLEY":" ","HOUSE_NO":"６９號","E_COORD97":170297.78,"N_COORD97":2549408.6600000001,"ADDRESS":"永安路６９號","OBJECTID":13146},"geometry":{"x":170297.78000000026,"y":2549408.660000002}},{"attributes":{"ID":13147,"DIS_CODE":0,"TOWNNAME":"安南區","LI":"新順里","LIN":"13鄰","STREET":"永安路","SECT":" ","MAREA":" ","LANE":" ","ALLEY":" ","HOUSE_NO":"７５號","E_COORD97":170326.14000000001,"N_COORD97":2549398.2000000002,"ADDRESS":"永安路７５號","OBJECTID":13147},"geometry":{"x":170326.1400000006,"y":2549398.1999999993}},{"attributes":{"ID":13148,"DIS_CODE":0,"TOWNNAME":"安南區","LI":"新順里","LIN":"13鄰","STREET":"永安路","SECT":" ","MAREA":" ","LANE":" ","ALLEY":" ","HOUSE_NO":"７７號","E_COORD97":170374.92000000001,"N_COORD97":2549380.4900000002,"ADDRESS":"永安路７７號","OBJECTID":13148},"geometry":{"x":170374.91999999993,"y":2549380.4900000002}},{"attributes":{"ID":13149,"DIS_CODE":0,"TOWNNAME":"安南區","LI":"新順里","LIN":"13鄰","STREET":"永安路","SECT":" ","MAREA":" ","LANE":" ","ALLEY":" ","HOUSE_NO":"７９號","E_COORD97":170385.69,"N_COORD97":2549359.75,"ADDRESS":"永安路７９號","OBJECTID":13149},"geometry":{"x":170385.69000000227,"y":2549359.7500000019}},{"attributes":{"ID":13150,"DIS_CODE":0,"TOWNNAME":"安南區","LI":"新順里","LIN":"13鄰","STREET":"永安路","SECT":" ","MAREA":" ","LANE":" ","ALLEY":" ","HOUSE_NO":"８３號","E_COORD97":170438.57999999999,"N_COORD97":2549337.8399999999,"ADDRESS":"永安路８３號","OBJECTID":13150},"geometry":{"x":170438.58000000194,"y":2549337.8400000036}},{"attributes":{"ID":13151,"DIS_CODE":0,"TOWNNAME":"安南區","LI":"新順里","LIN":"13鄰","STREET":"永安路","SECT":" ","MAREA":" ","LANE":" ","ALLEY":" ","HOUSE_NO":"９１號","E_COORD97":170485.28,"N_COORD97":2549323.2200000002,"ADDRESS":"永安路９１號","OBJECTID":13151},"geometry":{"x":170485.28000000119,"y":2549323.2200000025}},{"attributes":{"ID":13152,"DIS_CODE":0,"TOWNNAME":"新市區","LI":"大營里","LIN":"24鄰","STREET":" ","SECT":" ","MAREA":"大營","LANE":" ","ALLEY":" ","HOUSE_NO":"１３１之２６號","E_COORD97":179251.42000000001,"N_COORD97":2554771.5499999998,"ADDRESS":"大營１３１之２６號","OBJECTID":13152},"geometry":{"x":179251.42000000086,"y":2554771.5500000007}},{"attributes":{"ID":13153,"DIS_CODE":0,"TOWNNAME":"新市區","LI":"大營里","LIN":"24鄰","STREET":" ","SECT":" ","MAREA":"大營","LANE":" ","ALLEY":" ","HOUSE_NO":"１３１之５４號","E_COORD97":179202.42999999999,"N_COORD97":2554756.2999999998,"ADDRESS":"大營１３１之５４號","OBJECTID":13153},"geometry":{"x":179202.43000000063,"y":2554756.3000000007}},{"attributes":{"ID":13154,"DIS_CODE":0,"TOWNNAME":"新市區","LI":"大營里","LIN":"24鄰","STREET":" ","SECT":" ","MAREA":"大營","LANE":" ","ALLEY":" ","HOUSE_NO":"１３１之５６號","E_COORD97":179201.01000000001,"N_COORD97":2554736.5499999998,"ADDRESS":"大營１３１之５６號","OBJECTID":13154},"geometry":{"x":179201.00999999978,"y":2554736.5500000026}},{"attributes":{"ID":13155,"DIS_CODE":0,"TOWNNAME":"新市區","LI":"大營里","LIN":"24鄰","STREET":" ","SECT":" ","MAREA":"大營","LANE":" ","ALLEY":" ","HOUSE_NO":"１３１之４６號","E_COORD97":179177.85000000001,"N_COORD97":2554694.5499999998,"ADDRESS":"大營１３１之４６號","OBJECTID":13155},"geometry":{"x":179177.84999999963,"y":2554694.5500000026}},{"attributes":{"ID":13156,"DIS_CODE":0,"TOWNNAME":"新市區","LI":"大營里","LIN":"24鄰","STREET":" ","SECT":" ","MAREA":"大營","LANE":" ","ALLEY":" ","HOUSE_NO":"１３１之２３號","E_COORD97":179188.48999999999,"N_COORD97":2554665.0499999998,"ADDRESS":"大營１３１之２３號","OBJECTID":13156},"geometry":{"x":179188.49000000115,"y":2554665.0500000026}},{"attributes":{"ID":13157,"DIS_CODE":0,"TOWNNAME":"新市區","LI":"大營里","LIN":"24鄰","STREET":" ","SECT":" ","MAREA":"大營","LANE":" ","ALLEY":" ","HOUSE_NO":"１３１之３８號","E_COORD97":179200.06,"N_COORD97":2554717.7999999998,"ADDRESS":"大營１３１之３８號","OBJECTID":13157},"geometry":{"x":179200.05999999959,"y":2554717.8000000026}},{"attributes":{"ID":13158,"DIS_CODE":0,"TOWNNAME":"新市區","LI":"大社里","LIN":"24鄰","STREET":" ","SECT":" ","MAREA":"大社","LANE":" ","ALLEY":" ","HOUSE_NO":"８８５號","E_COORD97":179794.07000000001,"N_COORD97":2553999,"ADDRESS":"大社８８５號","OBJECTID":13158},"geometry":{"x":179794.0700000003,"y":2553999.0000000037}},{"attributes":{"ID":13159,"DIS_CODE":0,"TOWNNAME":"新市區","LI":"大營里","LIN":"24鄰","STREET":" ","SECT":" ","MAREA":"大營","LANE":" ","ALLEY":" ","HOUSE_NO":"１３１之６號","E_COORD97":179239.54000000001,"N_COORD97":2554719.2999999998,"ADDRESS":"大營１３１之６號","OBJECTID":13159},"geometry":{"x":179239.54000000004,"y":2554719.3000000007}},{"attributes":{"ID":13160,"DIS_CODE":0,"TOWNNAME":"新市區","LI":"大營里","LIN":"24鄰","STREET":" ","SECT":" ","MAREA":"大營","LANE":" ","ALLEY":" ","HOUSE_NO":"１３１之８號","E_COORD97":179232.89999999999,"N_COORD97":2554712.5499999998,"ADDRESS":"大營１３１之８號","OBJECTID":13160},"geometry":{"x":179232.90000000037,"y":2554712.5500000026}},{"attributes":{"ID":13161,"DIS_CODE":0,"TOWNNAME":"新市區","LI":"大營里","LIN":"24鄰","STREET":" ","SECT":" ","MAREA":"大營","LANE":" ","ALLEY":" ","HOUSE_NO":"１３１之１９號","E_COORD97":179200.60000000001,"N_COORD97":2554677.7999999998,"ADDRESS":"大營１３１之１９號","OBJECTID":13161},"geometry":{"x":179200.60000000056,"y":2554677.8000000007}},{"attributes":{"ID":13162,"DIS_CODE":0,"TOWNNAME":"北區","LI":"文元里","LIN":"24鄰","STREET":"文成三路","SECT":" ","MAREA":" ","LANE":"６８２巷","ALLEY":"４１弄","HOUSE_NO":"９號","E_COORD97":167897.22,"N_COORD97":2546418.3700000001,"ADDRESS":"文成三路６８２巷４１弄９號","OBJECTID":13162},"geometry":{"x":167897.21999999974,"y":2546418.370000001}},{"attributes":{"ID":13163,"DIS_CODE":0,"TOWNNAME":"北區","LI":"文元里","LIN":"24鄰","STREET":"文成三路","SECT":" ","MAREA":" ","LANE":"６８２巷","ALLEY":"４１弄","HOUSE_NO":"１０號","E_COORD97":167902.81,"N_COORD97":2546425.9900000002,"ADDRESS":"文成三路６８２巷４１弄１０號","OBJECTID":13163},"geometry":{"x":167902.81000000052,"y":2546425.9900000021}},{"attributes":{"ID":13164,"DIS_CODE":0,"TOWNNAME":"北區","LI":"文元里","LIN":"24鄰","STREET":"文成三路","SECT":" ","MAREA":" ","LANE":"６８２巷","ALLEY":"４１弄","HOUSE_NO":"１１號","E_COORD97":167890.48999999999,"N_COORD97":2546418.3700000001,"ADDRESS":"文成三路６８２巷４１弄１１號","OBJECTID":13164},"geometry":{"x":167890.49000000115,"y":2546418.370000001}},{"attributes":{"ID":13165,"DIS_CODE":0,"TOWNNAME":"北區","LI":"文元里","LIN":"24鄰","STREET":"文成三路","SECT":" ","MAREA":" ","LANE":"６８２巷","ALLEY":"４１弄","HOUSE_NO":"１２號","E_COORD97":167896.84,"N_COORD97":2546425.6000000001,"ADDRESS":"文成三路６８２巷４１弄１２號","OBJECTID":13165},"geometry":{"x":167896.83999999985,"y":2546425.5999999996}},{"attributes":{"ID":13166,"DIS_CODE":0,"TOWNNAME":"北區","LI":"文元里","LIN":"24鄰","STREET":"文成三路","SECT":" ","MAREA":" ","LANE":"６８２巷","ALLEY":"４１弄","HOUSE_NO":"１３號","E_COORD97":167885.16,"N_COORD97":2546418.3700000001,"ADDRESS":"文成三路６８２巷４１弄１３號","OBJECTID":13166},"geometry":{"x":167885.16000000201,"y":2546418.370000001}},{"attributes":{"ID":13167,"DIS_CODE":0,"TOWNNAME":"北區","LI":"文元里","LIN":"24鄰","STREET":"文成三路","SECT":" ","MAREA":" ","LANE":"６８２巷","ALLEY":"４１弄","HOUSE_NO":"１５號","E_COORD97":167879.44,"N_COORD97":2546418.1099999999,"ADDRESS":"文成三路６８２巷４１弄１５號","OBJECTID":13167},"geometry":{"x":167879.44000000041,"y":2546418.1100000013}},{"attributes":{"ID":13168,"DIS_CODE":0,"TOWNNAME":"北區","LI":"文元里","LIN":"24鄰","STREET":"文成三路","SECT":" ","MAREA":" ","LANE":"６８２巷","ALLEY":"４１弄","HOUSE_NO":"１６號","E_COORD97":167890.37,"N_COORD97":2546425.48,"ADDRESS":"文成三路６８２巷４１弄１６號","OBJECTID":13168},"geometry":{"x":167890.37000000011,"y":2546425.4800000042}},{"attributes":{"ID":13169,"DIS_CODE":0,"TOWNNAME":"北區","LI":"文元里","LIN":"24鄰","STREET":"文成三路","SECT":" ","MAREA":" ","LANE":"６８２巷","ALLEY":"４１弄","HOUSE_NO":"１７號","E_COORD97":167873.73000000001,"N_COORD97":2546417.8599999999,"ADDRESS":"文成三路６８２巷４１弄１７號","OBJECTID":13169},"geometry":{"x":167873.73000000138,"y":2546417.8599999994}},{"attributes":{"ID":13170,"DIS_CODE":0,"TOWNNAME":"北區","LI":"文元里","LIN":"24鄰","STREET":"文成三路","SECT":" ","MAREA":" ","LANE":"６８２巷","ALLEY":"４１弄","HOUSE_NO":"１８號","E_COORD97":167884.78,"N_COORD97":2546424.9700000002,"ADDRESS":"文成三路６８２巷４１弄１８號","OBJECTID":13170},"geometry":{"x":167884.78000000119,"y":2546424.9700000007}},{"attributes":{"ID":13171,"DIS_CODE":0,"TOWNNAME":"北區","LI":"文元里","LIN":"24鄰","STREET":"文成三路","SECT":" ","MAREA":" ","LANE":"６８２巷","ALLEY":"４１弄","HOUSE_NO":"１９號","E_COORD97":167867.76000000001,"N_COORD97":2546417.73,"ADDRESS":"文成三路６８２巷４１弄１９號","OBJECTID":13171},"geometry":{"x":167867.76000000071,"y":2546417.7300000023}},{"attributes":{"ID":13172,"DIS_CODE":0,"TOWNNAME":"北區","LI":"文元里","LIN":"24鄰","STREET":"文成三路","SECT":" ","MAREA":" ","LANE":"６８２巷","ALLEY":"４１弄","HOUSE_NO":"２０號","E_COORD97":167879.06,"N_COORD97":2546424.8399999999,"ADDRESS":"文成三路６８２巷４１弄２０號","OBJECTID":13172},"geometry":{"x":167879.06000000052,"y":2546424.8399999999}},{"attributes":{"ID":13173,"DIS_CODE":0,"TOWNNAME":"安南區","LI":"新順里","LIN":"13鄰","STREET":"開安路","SECT":" ","MAREA":" ","LANE":" ","ALLEY":" ","HOUSE_NO":"２號","E_COORD97":170256.59,"N_COORD97":2549429.8199999998,"ADDRESS":"開安路２號","OBJECTID":13173},"geometry":{"x":170256.58999999985,"y":2549429.8199999984}},{"attributes":{"ID":13174,"DIS_CODE":0,"TOWNNAME":"安南區","LI":"新順里","LIN":"13鄰","STREET":"開安路","SECT":" ","MAREA":" ","LANE":" ","ALLEY":" ","HOUSE_NO":"３４號","E_COORD97":170360.51000000001,"N_COORD97":2549614.7000000002,"ADDRESS":"開安路３４號","OBJECTID":13174},"geometry":{"x":170360.50999999978,"y":2549614.6999999993}},{"attributes":{"ID":13175,"DIS_CODE":0,"TOWNNAME":"安南區","LI":"新順里","LIN":"13鄰","STREET":"開安路","SECT":" ","MAREA":" ","LANE":" ","ALLEY":" ","HOUSE_NO":"３５號","E_COORD97":170288.92000000001,"N_COORD97":2549575.0499999998,"ADDRESS":"開安路３５號","OBJECTID":13175},"geometry":{"x":170288.92000000086,"y":2549575.0500000026}},{"attributes":{"ID":13176,"DIS_CODE":0,"TOWNNAME":"安南區","LI":"新順里","LIN":"13鄰","STREET":"開安路","SECT":" ","MAREA":" ","LANE":" ","ALLEY":" ","HOUSE_NO":"３６號","E_COORD97":170374.67000000001,"N_COORD97":2549650.8199999998,"ADDRESS":"開安路３６號","OBJECTID":13176},"geometry":{"x":170374.66999999993,"y":2549650.8200000022}},{"attributes":{"ID":13177,"DIS_CODE":0,"TOWNNAME":"安南區","LI":"新順里","LIN":"13鄰","STREET":"開安路","SECT":" ","MAREA":" ","LANE":" ","ALLEY":" ","HOUSE_NO":"３７號","E_COORD97":170295.23000000001,"N_COORD97":2549594.6899999999,"ADDRESS":"開安路３７號","OBJECTID":13177},"geometry":{"x":170295.23000000045,"y":2549594.6899999995}},{"attributes":{"ID":13178,"DIS_CODE":0,"TOWNNAME":"安南區","LI":"新順里","LIN":"13鄰","STREET":"開安路","SECT":" ","MAREA":" ","LANE":" ","ALLEY":" ","HOUSE_NO":"４５號","E_COORD97":170323.42000000001,"N_COORD97":2549635.4500000002,"ADDRESS":"開安路４５號","OBJECTID":13178},"geometry":{"x":170323.42000000086,"y":2549635.4500000011}},{"attributes":{"ID":13179,"DIS_CODE":0,"TOWNNAME":"安南區","LI":"新順里","LIN":"13鄰","STREET":"開安路","SECT":" ","MAREA":" ","LANE":" ","ALLEY":" ","HOUSE_NO":"５９號","E_COORD97":170365.76000000001,"N_COORD97":2549712.7000000002,"ADDRESS":"開安路５９號","OBJECTID":13179},"geometry":{"x":170365.75999999885,"y":2549712.7000000011}},{"attributes":{"ID":13180,"DIS_CODE":0,"TOWNNAME":"新化區","LI":"太平里","LIN":"13鄰","STREET":"太平街","SECT":" ","MAREA":" ","LANE":" ","ALLEY":" ","HOUSE_NO":"２６號之１","E_COORD97":178913.10000000001,"N_COORD97":2548813.2599999998,"ADDRESS":"太平街２６號之１","OBJECTID":13180},"geometry":{"x":178913.10000000056,"y":2548813.2600000016}},{"attributes":{"ID":13181,"DIS_CODE":0,"TOWNNAME":"安南區","LI":"新順里","LIN":"13鄰","STREET":"安和路","SECT":"三段","MAREA":" ","LANE":" ","ALLEY":" ","HOUSE_NO":"１３２之１０號","E_COORD97":169886.26000000001,"N_COORD97":2549709.1200000001,"ADDRESS":"安和路三段１３２之１０號","OBJECTID":13181},"geometry":{"x":169886.26000000164,"y":2549709.120000001}},{"attributes":{"ID":13182,"DIS_CODE":0,"TOWNNAME":"安南區","LI":"新順里","LIN":"13鄰","STREET":"安和路","SECT":"三段","MAREA":" ","LANE":" ","ALLEY":" ","HOUSE_NO":"１３２之１１號","E_COORD97":169887.28,"N_COORD97":2549713.1899999999,"ADDRESS":"安和路三段１３２之１１號","OBJECTID":13182},"geometry":{"x":169887.28000000119,"y":2549713.1899999995}},{"attributes":{"ID":13183,"DIS_CODE":0,"TOWNNAME":"北區","LI":"文元里","LIN":"24鄰","STREET":"文成三路","SECT":" ","MAREA":" ","LANE":"６８２巷","ALLEY":"４１弄","HOUSE_NO":"２２號","E_COORD97":167873.35000000001,"N_COORD97":2546424.5899999999,"ADDRESS":"文成三路６８２巷４１弄２２號","OBJECTID":13183},"geometry":{"x":167873.35000000056,"y":2546424.5900000017}},{"attributes":{"ID":13184,"DIS_CODE":0,"TOWNNAME":"北區","LI":"文元里","LIN":"24鄰","STREET":"文成三路","SECT":" ","MAREA":" ","LANE":"６８２巷","ALLEY":"４１弄","HOUSE_NO":"２６號","E_COORD97":167867.38,"N_COORD97":2546424.46,"ADDRESS":"文成三路６８２巷４１弄２６號","OBJECTID":13184},"geometry":{"x":167867.37999999989,"y":2546424.4600000009}},{"attributes":{"ID":13185,"DIS_CODE":0,"TOWNNAME":"北區","LI":"成功里","LIN":"24鄰","STREET":"北成路","SECT":" ","MAREA":" ","LANE":"１２８巷","ALLEY":"１１弄","HOUSE_NO":"９號","E_COORD97":168894.75,"N_COORD97":2546740.7999999998,"ADDRESS":"北成路１２８巷１１弄９號","OBJECTID":13185},"geometry":{"x":168894.75000000186,"y":2546740.8000000007}},{"attributes":{"ID":13186,"DIS_CODE":0,"TOWNNAME":"北區","LI":"成功里","LIN":"24鄰","STREET":"北成路","SECT":" ","MAREA":" ","LANE":"１２８巷","ALLEY":"１１弄","HOUSE_NO":"１１號","E_COORD97":168888.39999999999,"N_COORD97":2546744.1000000001,"ADDRESS":"北成路１２８巷１１弄１１號","OBJECTID":13186},"geometry":{"x":168888.40000000037,"y":2546744.0999999996}},{"attributes":{"ID":13187,"DIS_CODE":0,"TOWNNAME":"新市區","LI":"大營里","LIN":"24鄰","STREET":" ","SECT":" ","MAREA":"大營","LANE":" ","ALLEY":" ","HOUSE_NO":"１３１之６０號","E_COORD97":179188.12,"N_COORD97":2554723.2999999998,"ADDRESS":"大營１３１之６０號","OBJECTID":13187},"geometry":{"x":179188.12000000011,"y":2554723.3000000045}},{"attributes":{"ID":13188,"DIS_CODE":0,"TOWNNAME":"新市區","LI":"大營里","LIN":"24鄰","STREET":" ","SECT":" ","MAREA":"大營","LANE":" ","ALLEY":" ","HOUSE_NO":"１３１之６１號","E_COORD97":179185.12,"N_COORD97":2554720.0499999998,"ADDRESS":"大營１３１之６１號","OBJECTID":13188},"geometry":{"x":179185.12000000011,"y":2554720.0500000007}},{"attributes":{"ID":13189,"DIS_CODE":0,"TOWNNAME":"新市區","LI":"大營里","LIN":"24鄰","STREET":" ","SECT":" ","MAREA":"大營","LANE":" ","ALLEY":" ","HOUSE_NO":"１３１之３１號","E_COORD97":179234.82000000001,"N_COORD97":2554753.7999999998,"ADDRESS":"大營１３１之３１號","OBJECTID":13189},"geometry":{"x":179234.8200000003,"y":2554753.8000000045}},{"attributes":{"ID":13190,"DIS_CODE":0,"TOWNNAME":"新市區","LI":"大營里","LIN":"24鄰","STREET":" ","SECT":" ","MAREA":"大營","LANE":" ","ALLEY":" ","HOUSE_NO":"１３１之２０號","E_COORD97":179197.60000000001,"N_COORD97":2554674.5499999998,"ADDRESS":"大營１３１之２０號","OBJECTID":13190},"geometry":{"x":179197.60000000056,"y":2554674.5500000026}},{"attributes":{"ID":13191,"DIS_CODE":0,"TOWNNAME":"北區","LI":"成功里","LIN":"24鄰","STREET":"北成路","SECT":" ","MAREA":" ","LANE":"１２８巷","ALLEY":"１１弄","HOUSE_NO":"２號","E_COORD97":168923.20000000001,"N_COORD97":2546737.6200000001,"ADDRESS":"北成路１２８巷１１弄２號","OBJECTID":13191},"geometry":{"x":168923.20000000112,"y":2546737.6200000029}},{"attributes":{"ID":13192,"DIS_CODE":0,"TOWNNAME":"北區","LI":"成功里","LIN":"24鄰","STREET":"北成路","SECT":" ","MAREA":" ","LANE":"１２８巷","ALLEY":"１１弄","HOUSE_NO":"６號","E_COORD97":168916.97,"N_COORD97":2546741.3100000001,"ADDRESS":"北成路１２８巷１１弄６號","OBJECTID":13192},"geometry":{"x":168916.97000000067,"y":2546741.3100000005}},{"attributes":{"ID":13193,"DIS_CODE":0,"TOWNNAME":"北區","LI":"成功里","LIN":"24鄰","STREET":"北成路","SECT":" ","MAREA":" ","LANE":"１２８巷","ALLEY":"１１弄","HOUSE_NO":"８號","E_COORD97":168910.88,"N_COORD97":2546744.6099999999,"ADDRESS":"北成路１２８巷１１弄８號","OBJECTID":13193},"geometry":{"x":168910.88000000082,"y":2546744.6099999994}},{"attributes":{"ID":13194,"DIS_CODE":0,"TOWNNAME":"北區","LI":"成功里","LIN":"24鄰","STREET":"北成路","SECT":" ","MAREA":" ","LANE":"１２８巷","ALLEY":"１１弄","HOUSE_NO":"１０號","E_COORD97":168904.78,"N_COORD97":2546748.1699999999,"ADDRESS":"北成路１２８巷１１弄１０號","OBJECTID":13194},"geometry":{"x":168904.78000000026,"y":2546748.1699999999}},{"attributes":{"ID":13195,"DIS_CODE":0,"TOWNNAME":"北區","LI":"成功里","LIN":"24鄰","STREET":"北成路","SECT":" ","MAREA":" ","LANE":"１２８巷","ALLEY":"１１弄","HOUSE_NO":"１２號","E_COORD97":168898.94,"N_COORD97":2546751.4700000002,"ADDRESS":"北成路１２８巷１１弄１２號","OBJECTID":13195},"geometry":{"x":168898.94000000227,"y":2546751.4700000025}},{"attributes":{"ID":13196,"DIS_CODE":0,"TOWNNAME":"北區","LI":"成功里","LIN":"24鄰","STREET":"北成路","SECT":" ","MAREA":" ","LANE":"１２８巷","ALLEY":"１１弄","HOUSE_NO":"１６號","E_COORD97":168892.97,"N_COORD97":2546754.77,"ADDRESS":"北成路１２８巷１１弄１６號","OBJECTID":13196},"geometry":{"x":168892.9700000016,"y":2546754.7700000033}},{"attributes":{"ID":13197,"DIS_CODE":0,"TOWNNAME":"東區","LI":"衛國里","LIN":"24鄰","STREET":"林森路","SECT":"二段","MAREA":" ","LANE":"１９２巷","ALLEY":"２４弄","HOUSE_NO":"１８號二樓","E_COORD97":170569.89999999999,"N_COORD97":2543233.52,"ADDRESS":"林森路二段１９２巷２４弄１８號二樓","OBJECTID":13197},"geometry":{"x":170569.90000000037,"y":2543233.5199999977}},{"attributes":{"ID":13198,"DIS_CODE":0,"TOWNNAME":"新市區","LI":"大營里","LIN":"24鄰","STREET":" ","SECT":" ","MAREA":"大營","LANE":" ","ALLEY":" ","HOUSE_NO":"１３１之１２號","E_COORD97":179221.48999999999,"N_COORD97":2554699.5499999998,"ADDRESS":"大營１３１之１２號","OBJECTID":13198},"geometry":{"x":179221.49000000022,"y":2554699.5500000007}},{"attributes":{"ID":13199,"DIS_CODE":0,"TOWNNAME":"新營區","LI":"太南里","LIN":" ","STREET":" ","SECT":" ","MAREA":"太子宮","LANE":" ","ALLEY":" ","HOUSE_NO":"２５４之４號","E_COORD97":176027.98999999999,"N_COORD97":2576765.8900000001,"ADDRESS":"太子宮２５４之４號","OBJECTID":13199},"geometry":{"x":176027.99000000022,"y":2576765.8900000006}},{"attributes":{"ID":13200,"DIS_CODE":0,"TOWNNAME":"新營區","LI":"太南里","LIN":" ","STREET":" ","SECT":" ","MAREA":"太子宮","LANE":" ","ALLEY":" ","HOUSE_NO":"２３６之６號","E_COORD97":176008.25,"N_COORD97":2576908.8500000001,"ADDRESS":"太子宮２３６之６號","OBJECTID":13200},"geometry":{"x":176008.25000000093,"y":2576908.8500000015}}]}