{"displayFieldName":"TOWNNAME","fieldAliases":{"ID":"ID","DIS_CODE":"DIS_CODE","TOWNNAME":"TOWNNAME","LI":"LI","LIN":"LIN","STREET":"STREET","SECT":"SECT","MAREA":"MAREA","LANE":"LANE","ALLEY":"ALLEY","HOUSE_NO":"HOUSE_NO","E_COORD97":"E_COORD97","N_COORD97":"N_COORD97","ADDRESS":"ADDRESS","OBJECTID":"OBJECTID"},"geometryType":"esriGeometryPoint","spatialReference":{"wkid":102443,"latestWkid":3826},"fields":[{"name":"ID","type":"esriFieldTypeDouble","alias":"ID"},{"name":"DIS_CODE","type":"esriFieldTypeInteger","alias":"DIS_CODE"},{"name":"TOWNNAME","type":"esriFieldTypeString","alias":"TOWNNAME","length":8},{"name":"LI","type":"esriFieldTypeString","alias":"LI","length":8},{"name":"LIN","type":"esriFieldTypeString","alias":"LIN","length":12},{"name":"STREET","type":"esriFieldTypeString","alias":"STREET","length":20},{"name":"SECT","type":"esriFieldTypeString","alias":"SECT","length":8},{"name":"MAREA","type":"esriFieldTypeString","alias":"MAREA","length":12},{"name":"LANE","type":"esriFieldTypeString","alias":"LANE","length":10},{"name":"ALLEY","type":"esriFieldTypeString","alias":"ALLEY","length":10},{"name":"HOUSE_NO","type":"esriFieldTypeString","alias":"HOUSE_NO","length":20},{"name":"E_COORD97","type":"esriFieldTypeDouble","alias":"E_COORD97"},{"name":"N_COORD97","type":"esriFieldTypeDouble","alias":"N_COORD97"},{"name":"ADDRESS","type":"esriFieldTypeString","alias":"ADDRESS","length":50},{"name":"OBJECTID","type":"esriFieldTypeOID","alias":"OBJECTID"}],"features":[{"attributes":{"ID":588428,"DIS_CODE":0,"TOWNNAME":"永康區","LI":"西勢里","LIN":"11鄰","STREET":"廣盛街","SECT":" ","MAREA":" ","LANE":" ","ALLEY":" ","HOUSE_NO":"１２９號","E_COORD97":176073.56,"N_COORD97":2546665.4300000002,"ADDRESS":"廣盛街１２９號","OBJECTID":588401},"geometry":{"x":176073.56000000052,"y":2546665.4300000034}},{"attributes":{"ID":588429,"DIS_CODE":0,"TOWNNAME":"永康區","LI":"西橋里","LIN":"11鄰","STREET":"大橋一街","SECT":" ","MAREA":" ","LANE":" ","ALLEY":" ","HOUSE_NO":"１７號","E_COORD97":170547.87,"N_COORD97":2546171.9900000002,"ADDRESS":"大橋一街１７號","OBJECTID":588402},"geometry":{"x":170547.87000000011,"y":2546171.9900000021}},{"attributes":{"ID":588430,"DIS_CODE":0,"TOWNNAME":"永康區","LI":"西灣里","LIN":"11鄰","STREET":"大灣五街","SECT":" ","MAREA":" ","LANE":" ","ALLEY":" ","HOUSE_NO":"１１１號","E_COORD97":174555.51999999999,"N_COORD97":2545308.8900000001,"ADDRESS":"大灣五街１１１號","OBJECTID":588403},"geometry":{"x":174555.51999999955,"y":2545308.8900000006}},{"attributes":{"ID":588431,"DIS_CODE":0,"TOWNNAME":"永康區","LI":"西勢里","LIN":"11鄰","STREET":"廣盛街","SECT":" ","MAREA":" ","LANE":" ","ALLEY":" ","HOUSE_NO":"１０７號","E_COORD97":176066.60000000001,"N_COORD97":2546619.0800000001,"ADDRESS":"廣盛街１０７號","OBJECTID":588404},"geometry":{"x":176066.60000000056,"y":2546619.0800000019}},{"attributes":{"ID":588432,"DIS_CODE":0,"TOWNNAME":"永康區","LI":"尚頂里","LIN":"11鄰","STREET":"正南一街","SECT":" ","MAREA":" ","LANE":" ","ALLEY":" ","HOUSE_NO":"４９號","E_COORD97":171160.16,"N_COORD97":2547299.7799999998,"ADDRESS":"正南一街４９號","OBJECTID":588405},"geometry":{"x":171160.16000000015,"y":2547299.7799999993}},{"attributes":{"ID":588433,"DIS_CODE":0,"TOWNNAME":"永康區","LI":"西勢里","LIN":"11鄰","STREET":"廣興街","SECT":" ","MAREA":" ","LANE":" ","ALLEY":" ","HOUSE_NO":"５１號","E_COORD97":175874.20000000001,"N_COORD97":2546590.96,"ADDRESS":"廣興街５１號","OBJECTID":588406},"geometry":{"x":175874.20000000019,"y":2546590.9600000009}},{"attributes":{"ID":588434,"DIS_CODE":0,"TOWNNAME":"永康區","LI":"西勢里","LIN":"11鄰","STREET":"廣盛街","SECT":" ","MAREA":" ","LANE":" ","ALLEY":" ","HOUSE_NO":"１０３號","E_COORD97":176065.85000000001,"N_COORD97":2546611.3199999998,"ADDRESS":"廣盛街１０３號","OBJECTID":588407},"geometry":{"x":176065.84999999963,"y":2546611.3200000003}},{"attributes":{"ID":588435,"DIS_CODE":0,"TOWNNAME":"永康區","LI":"西橋里","LIN":"11鄰","STREET":"大橋一街","SECT":" ","MAREA":" ","LANE":" ","ALLEY":" ","HOUSE_NO":"２３號","E_COORD97":170541.76999999999,"N_COORD97":2546183.2400000002,"ADDRESS":"大橋一街２３號","OBJECTID":588408},"geometry":{"x":170541.76999999862,"y":2546183.2400000021}},{"attributes":{"ID":588436,"DIS_CODE":0,"TOWNNAME":"永康區","LI":"西勢里","LIN":"11鄰","STREET":"廣興街","SECT":" ","MAREA":" ","LANE":" ","ALLEY":" ","HOUSE_NO":"５７號","E_COORD97":175890.70000000001,"N_COORD97":2546588.0299999998,"ADDRESS":"廣興街５７號","OBJECTID":588409},"geometry":{"x":175890.70000000019,"y":2546588.0300000012}},{"attributes":{"ID":588437,"DIS_CODE":0,"TOWNNAME":"永康區","LI":"西灣里","LIN":"11鄰","STREET":"大灣五街","SECT":" ","MAREA":" ","LANE":" ","ALLEY":" ","HOUSE_NO":"１１３號","E_COORD97":174545.66,"N_COORD97":2545316.0099999998,"ADDRESS":"大灣五街１１３號","OBJECTID":588410},"geometry":{"x":174545.66000000201,"y":2545316.0100000016}},{"attributes":{"ID":588438,"DIS_CODE":0,"TOWNNAME":"永康區","LI":"西勢里","LIN":"11鄰","STREET":"廣興街","SECT":" ","MAREA":" ","LANE":" ","ALLEY":" ","HOUSE_NO":"６７號","E_COORD97":175912.64999999999,"N_COORD97":2546587.5299999998,"ADDRESS":"廣興街６７號","OBJECTID":588411},"geometry":{"x":175912.6500000013,"y":2546587.5300000012}},{"attributes":{"ID":588439,"DIS_CODE":0,"TOWNNAME":"永康區","LI":"西灣里","LIN":"11鄰","STREET":"大灣五街","SECT":" ","MAREA":" ","LANE":" ","ALLEY":" ","HOUSE_NO":"１０１號","E_COORD97":174566.53,"N_COORD97":2545284.5600000001,"ADDRESS":"大灣五街１０１號","OBJECTID":588412},"geometry":{"x":174566.53000000026,"y":2545284.5600000005}},{"attributes":{"ID":588440,"DIS_CODE":0,"TOWNNAME":"永康區","LI":"西勢里","LIN":"11鄰","STREET":"廣興街","SECT":" ","MAREA":" ","LANE":" ","ALLEY":" ","HOUSE_NO":"１２９號","E_COORD97":176058.64999999999,"N_COORD97":2546603.4300000002,"ADDRESS":"廣興街１２９號","OBJECTID":588413},"geometry":{"x":176058.6500000013,"y":2546603.4299999997}},{"attributes":{"ID":588441,"DIS_CODE":0,"TOWNNAME":"永康區","LI":"西灣里","LIN":"11鄰","STREET":"大灣五街","SECT":" ","MAREA":" ","LANE":" ","ALLEY":" ","HOUSE_NO":"１２１號","E_COORD97":174528.73999999999,"N_COORD97":2545312,"ADDRESS":"大灣五街１２１號","OBJECTID":588414},"geometry":{"x":174528.74000000115,"y":2545312}},{"attributes":{"ID":588442,"DIS_CODE":0,"TOWNNAME":"東區","LI":"南聖里","LIN":"11鄰","STREET":"裕誠街","SECT":" ","MAREA":" ","LANE":" ","ALLEY":" ","HOUSE_NO":"１０５號","E_COORD97":172319.04000000001,"N_COORD97":2543282.0899999999,"ADDRESS":"裕誠街１０５號","OBJECTID":588415},"geometry":{"x":172319.04000000097,"y":2543282.0900000017}},{"attributes":{"ID":588443,"DIS_CODE":0,"TOWNNAME":"東區","LI":"南聖里","LIN":"11鄰","STREET":"裕誠街","SECT":" ","MAREA":" ","LANE":" ","ALLEY":" ","HOUSE_NO":"１０１號","E_COORD97":172309.04999999999,"N_COORD97":2543280.4500000002,"ADDRESS":"裕誠街１０１號","OBJECTID":588416},"geometry":{"x":172309.05000000075,"y":2543280.4499999993}},{"attributes":{"ID":588444,"DIS_CODE":0,"TOWNNAME":"東區","LI":"南聖里","LIN":"11鄰","STREET":"裕誠街","SECT":" ","MAREA":" ","LANE":" ","ALLEY":" ","HOUSE_NO":"１０３號","E_COORD97":172314.13,"N_COORD97":2543281.4300000002,"ADDRESS":"裕誠街１０３號","OBJECTID":588417},"geometry":{"x":172314.12999999989,"y":2543281.4299999997}},{"attributes":{"ID":588445,"DIS_CODE":0,"TOWNNAME":"東區","LI":"南聖里","LIN":"11鄰","STREET":"裕誠街","SECT":" ","MAREA":" ","LANE":" ","ALLEY":" ","HOUSE_NO":"６７號","E_COORD97":172194.12,"N_COORD97":2543258.6699999999,"ADDRESS":"裕誠街６７號","OBJECTID":588418},"geometry":{"x":172194.12000000011,"y":2543258.6699999999}},{"attributes":{"ID":588446,"DIS_CODE":0,"TOWNNAME":"東區","LI":"南聖里","LIN":"11鄰","STREET":"裕誠街","SECT":" ","MAREA":" ","LANE":" ","ALLEY":" ","HOUSE_NO":"６９號","E_COORD97":172199.19,"N_COORD97":2543259.6600000001,"ADDRESS":"裕誠街６９號","OBJECTID":588419},"geometry":{"x":172199.19000000041,"y":2543259.6600000001}},{"attributes":{"ID":588447,"DIS_CODE":0,"TOWNNAME":"東區","LI":"南聖里","LIN":"11鄰","STREET":"裕誠街","SECT":" ","MAREA":" ","LANE":" ","ALLEY":" ","HOUSE_NO":"７９號","E_COORD97":172262.06,"N_COORD97":2543271.2799999998,"ADDRESS":"裕誠街７９號","OBJECTID":588420},"geometry":{"x":172262.05999999959,"y":2543271.2799999993}},{"attributes":{"ID":588448,"DIS_CODE":0,"TOWNNAME":"東區","LI":"南聖里","LIN":"11鄰","STREET":"裕誠街","SECT":" ","MAREA":" ","LANE":" ","ALLEY":" ","HOUSE_NO":"８７號","E_COORD97":172279.09,"N_COORD97":2543274.0600000001,"ADDRESS":"裕誠街８７號","OBJECTID":588421},"geometry":{"x":172279.08999999985,"y":2543274.0600000005}},{"attributes":{"ID":588449,"DIS_CODE":0,"TOWNNAME":"東區","LI":"南聖里","LIN":"11鄰","STREET":"裕誠街","SECT":" ","MAREA":" ","LANE":" ","ALLEY":" ","HOUSE_NO":"８１號","E_COORD97":172266.32000000001,"N_COORD97":2543271.6099999999,"ADDRESS":"裕誠街８１號","OBJECTID":588422},"geometry":{"x":172266.32000000216,"y":2543271.6100000013}},{"attributes":{"ID":588450,"DIS_CODE":0,"TOWNNAME":"東區","LI":"南聖里","LIN":"11鄰","STREET":"裕誠街","SECT":" ","MAREA":" ","LANE":" ","ALLEY":" ","HOUSE_NO":"８３號","E_COORD97":172270.41,"N_COORD97":2543272.75,"ADDRESS":"裕誠街８３號","OBJECTID":588423},"geometry":{"x":172270.41000000015,"y":2543272.75}},{"attributes":{"ID":588451,"DIS_CODE":0,"TOWNNAME":"東區","LI":"南聖里","LIN":"11鄰","STREET":"裕誠街","SECT":" ","MAREA":" ","LANE":" ","ALLEY":" ","HOUSE_NO":"８５號","E_COORD97":172274.67000000001,"N_COORD97":2543273.4100000001,"ADDRESS":"裕誠街８５號","OBJECTID":588424},"geometry":{"x":172274.66999999993,"y":2543273.410000002}},{"attributes":{"ID":588452,"DIS_CODE":0,"TOWNNAME":"東區","LI":"南聖里","LIN":"11鄰","STREET":"裕誠街","SECT":" ","MAREA":" ","LANE":" ","ALLEY":" ","HOUSE_NO":"８９號","E_COORD97":172282.85999999999,"N_COORD97":2543275.0499999998,"ADDRESS":"裕誠街８９號","OBJECTID":588425},"geometry":{"x":172282.86000000034,"y":2543275.0500000007}},{"attributes":{"ID":588453,"DIS_CODE":0,"TOWNNAME":"東區","LI":"南聖里","LIN":"11鄰","STREET":"裕誠街","SECT":" ","MAREA":" ","LANE":" ","ALLEY":" ","HOUSE_NO":"９１號","E_COORD97":172287.28,"N_COORD97":2543276.0299999998,"ADDRESS":"裕誠街９１號","OBJECTID":588426},"geometry":{"x":172287.28000000119,"y":2543276.0299999993}},{"attributes":{"ID":588454,"DIS_CODE":0,"TOWNNAME":"東區","LI":"南聖里","LIN":"11鄰","STREET":"裕誠街","SECT":" ","MAREA":" ","LANE":" ","ALLEY":" ","HOUSE_NO":"９３號","E_COORD97":172291.70000000001,"N_COORD97":2543276.8500000001,"ADDRESS":"裕誠街９３號","OBJECTID":588427},"geometry":{"x":172291.70000000019,"y":2543276.8500000015}},{"attributes":{"ID":588455,"DIS_CODE":0,"TOWNNAME":"東區","LI":"南聖里","LIN":"11鄰","STREET":"裕誠街","SECT":" ","MAREA":" ","LANE":" ","ALLEY":" ","HOUSE_NO":"９５號","E_COORD97":172296.12,"N_COORD97":2543277.6699999999,"ADDRESS":"裕誠街９５號","OBJECTID":588428},"geometry":{"x":172296.12000000011,"y":2543277.6700000018}},{"attributes":{"ID":588456,"DIS_CODE":0,"TOWNNAME":"東區","LI":"南聖里","LIN":"11鄰","STREET":"裕誠街","SECT":" ","MAREA":" ","LANE":" ","ALLEY":" ","HOUSE_NO":"９７號","E_COORD97":172300.70000000001,"N_COORD97":2543278.6499999999,"ADDRESS":"裕誠街９７號","OBJECTID":588429},"geometry":{"x":172300.70000000019,"y":2543278.6500000022}},{"attributes":{"ID":588457,"DIS_CODE":0,"TOWNNAME":"東區","LI":"南聖里","LIN":"11鄰","STREET":"裕誠街","SECT":" ","MAREA":" ","LANE":" ","ALLEY":" ","HOUSE_NO":"９９號","E_COORD97":172304.63,"N_COORD97":2543279.4700000002,"ADDRESS":"裕誠街９９號","OBJECTID":588430},"geometry":{"x":172304.63000000082,"y":2543279.4700000044}},{"attributes":{"ID":588458,"DIS_CODE":0,"TOWNNAME":"東區","LI":"關聖里","LIN":"11鄰","STREET":"裕農一街","SECT":" ","MAREA":" ","LANE":" ","ALLEY":" ","HOUSE_NO":"１２３號","E_COORD97":171931.85999999999,"N_COORD97":2542885.6000000001,"ADDRESS":"裕農一街１２３號","OBJECTID":588431},"geometry":{"x":171931.86000000034,"y":2542885.6000000015}},{"attributes":{"ID":588459,"DIS_CODE":0,"TOWNNAME":"東區","LI":"關聖里","LIN":"11鄰","STREET":"裕農一街","SECT":" ","MAREA":" ","LANE":" ","ALLEY":" ","HOUSE_NO":"１２５號","E_COORD97":171932.01999999999,"N_COORD97":2542879,"ADDRESS":"裕農一街１２５號","OBJECTID":588432},"geometry":{"x":171932.02000000142,"y":2542879.0000000019}},{"attributes":{"ID":588460,"DIS_CODE":0,"TOWNNAME":"東區","LI":"關聖里","LIN":"11鄰","STREET":"裕農一街","SECT":" ","MAREA":" ","LANE":" ","ALLEY":" ","HOUSE_NO":"１２７號","E_COORD97":171932.17999999999,"N_COORD97":2542873.1899999999,"ADDRESS":"裕農一街１２７號","OBJECTID":588433},"geometry":{"x":171932.1799999997,"y":2542873.1900000032}},{"attributes":{"ID":588461,"DIS_CODE":0,"TOWNNAME":"東區","LI":"關聖里","LIN":"11鄰","STREET":"裕農一街","SECT":" ","MAREA":" ","LANE":" ","ALLEY":" ","HOUSE_NO":"１２９號","E_COORD97":171932.32999999999,"N_COORD97":2542867.5299999998,"ADDRESS":"裕農一街１２９號","OBJECTID":588434},"geometry":{"x":171932.33000000101,"y":2542867.5300000012}},{"attributes":{"ID":588462,"DIS_CODE":0,"TOWNNAME":"東區","LI":"關聖里","LIN":"11鄰","STREET":"裕農二街","SECT":" ","MAREA":" ","LANE":" ","ALLEY":" ","HOUSE_NO":"１１８號","E_COORD97":171965.88,"N_COORD97":2542932.7000000002,"ADDRESS":"裕農二街１１８號","OBJECTID":588435},"geometry":{"x":171965.88000000082,"y":2542932.6999999993}},{"attributes":{"ID":588463,"DIS_CODE":0,"TOWNNAME":"東區","LI":"南聖里","LIN":"11鄰","STREET":"裕農路","SECT":" ","MAREA":" ","LANE":" ","ALLEY":" ","HOUSE_NO":"８７０號","E_COORD97":172321.13,"N_COORD97":2543309.98,"ADDRESS":"裕農路８７０號","OBJECTID":588436},"geometry":{"x":172321.12999999989,"y":2543309.9800000023}},{"attributes":{"ID":588464,"DIS_CODE":0,"TOWNNAME":"東區","LI":"南聖里","LIN":"11鄰","STREET":"裕農路","SECT":" ","MAREA":" ","LANE":" ","ALLEY":" ","HOUSE_NO":"８７６號","E_COORD97":172334.01000000001,"N_COORD97":2543312.5299999998,"ADDRESS":"裕農路８７６號","OBJECTID":588437},"geometry":{"x":172334.01000000164,"y":2543312.5300000012}},{"attributes":{"ID":588465,"DIS_CODE":0,"TOWNNAME":"東區","LI":"南聖里","LIN":"11鄰","STREET":"裕農路","SECT":" ","MAREA":" ","LANE":" ","ALLEY":" ","HOUSE_NO":"８６６之１號","E_COORD97":172235.10000000001,"N_COORD97":2543302.0299999998,"ADDRESS":"裕農路８６６之１號","OBJECTID":588438},"geometry":{"x":172235.10000000056,"y":2543302.0300000012}},{"attributes":{"ID":588466,"DIS_CODE":0,"TOWNNAME":"東區","LI":"南聖里","LIN":"11鄰","STREET":"裕農路","SECT":" ","MAREA":" ","LANE":" ","ALLEY":" ","HOUSE_NO":"８６６之２號","E_COORD97":172240.03,"N_COORD97":2543300.2799999998,"ADDRESS":"裕農路８６６之２號","OBJECTID":588439},"geometry":{"x":172240.03000000119,"y":2543300.2800000012}},{"attributes":{"ID":588467,"DIS_CODE":0,"TOWNNAME":"東區","LI":"南聖里","LIN":"11鄰","STREET":"裕農路","SECT":" ","MAREA":" ","LANE":" ","ALLEY":" ","HOUSE_NO":"８６６之３號","E_COORD97":172242.57000000001,"N_COORD97":2543304.8900000001,"ADDRESS":"裕農路８６６之３號","OBJECTID":588440},"geometry":{"x":172242.57000000216,"y":2543304.8900000025}},{"attributes":{"ID":588468,"DIS_CODE":0,"TOWNNAME":"東區","LI":"南聖里","LIN":"11鄰","STREET":"裕農路","SECT":" ","MAREA":" ","LANE":" ","ALLEY":" ","HOUSE_NO":"８６６之５號","E_COORD97":172246.54999999999,"N_COORD97":2543302.1899999999,"ADDRESS":"裕農路８６６之５號","OBJECTID":588441},"geometry":{"x":172246.54999999981,"y":2543302.1899999995}},{"attributes":{"ID":588469,"DIS_CODE":0,"TOWNNAME":"東區","LI":"南聖里","LIN":"11鄰","STREET":"裕農路","SECT":" ","MAREA":" ","LANE":" ","ALLEY":" ","HOUSE_NO":"８６６之６號","E_COORD97":172249.73000000001,"N_COORD97":2543305.3700000001,"ADDRESS":"裕農路８６６之６號","OBJECTID":588442},"geometry":{"x":172249.73000000045,"y":2543305.3700000029}},{"attributes":{"ID":588470,"DIS_CODE":0,"TOWNNAME":"東區","LI":"南聖里","LIN":"11鄰","STREET":"裕農路","SECT":" ","MAREA":" ","LANE":" ","ALLEY":" ","HOUSE_NO":"８６６之７號","E_COORD97":172254.66,"N_COORD97":2543304.1000000001,"ADDRESS":"裕農路８６６之７號","OBJECTID":588443},"geometry":{"x":172254.66000000015,"y":2543304.0999999996}},{"attributes":{"ID":588471,"DIS_CODE":0,"TOWNNAME":"東區","LI":"南聖里","LIN":"11鄰","STREET":"裕農路","SECT":" ","MAREA":" ","LANE":" ","ALLEY":" ","HOUSE_NO":"８６６之８號","E_COORD97":172258,"N_COORD97":2543308.23,"ADDRESS":"裕農路８６６之８號","OBJECTID":588444},"geometry":{"x":172258.00000000186,"y":2543308.2300000023}},{"attributes":{"ID":588472,"DIS_CODE":0,"TOWNNAME":"東區","LI":"南聖里","LIN":"11鄰","STREET":"裕農路","SECT":" ","MAREA":" ","LANE":" ","ALLEY":" ","HOUSE_NO":"８６６之９號","E_COORD97":172262.29000000001,"N_COORD97":2543305.3700000001,"ADDRESS":"裕農路８６６之９號","OBJECTID":588445},"geometry":{"x":172262.29000000004,"y":2543305.3700000029}},{"attributes":{"ID":588473,"DIS_CODE":0,"TOWNNAME":"東區","LI":"南聖里","LIN":"11鄰","STREET":"裕農路","SECT":" ","MAREA":" ","LANE":" ","ALLEY":" ","HOUSE_NO":"８６６之１０號","E_COORD97":172265.14999999999,"N_COORD97":2543309.5,"ADDRESS":"裕農路８６６之１０號","OBJECTID":588446},"geometry":{"x":172265.15000000037,"y":2543309.5000000019}},{"attributes":{"ID":588474,"DIS_CODE":0,"TOWNNAME":"東區","LI":"南聖里","LIN":"11鄰","STREET":"裕農路","SECT":" ","MAREA":" ","LANE":" ","ALLEY":" ","HOUSE_NO":"８６６號","E_COORD97":172231.44,"N_COORD97":2543298.3700000001,"ADDRESS":"裕農路８６６號","OBJECTID":588447},"geometry":{"x":172231.44000000041,"y":2543298.3700000029}},{"attributes":{"ID":588475,"DIS_CODE":0,"TOWNNAME":"東區","LI":"南聖里","LIN":"11鄰","STREET":"裕農路","SECT":" ","MAREA":" ","LANE":" ","ALLEY":" ","HOUSE_NO":"８６８之１０號","E_COORD97":172312.22,"N_COORD97":2543313.96,"ADDRESS":"裕農路８６８之１０號","OBJECTID":588448},"geometry":{"x":172312.2200000016,"y":2543313.9600000028}},{"attributes":{"ID":588476,"DIS_CODE":0,"TOWNNAME":"東區","LI":"南聖里","LIN":"11鄰","STREET":"裕農路","SECT":" ","MAREA":" ","LANE":" ","ALLEY":" ","HOUSE_NO":"８６８之１號","E_COORD97":172275.17000000001,"N_COORD97":2543307.4399999999,"ADDRESS":"裕農路８６８之１號","OBJECTID":588449},"geometry":{"x":172275.16999999993,"y":2543307.4399999995}},{"attributes":{"ID":588477,"DIS_CODE":0,"TOWNNAME":"東區","LI":"南聖里","LIN":"11鄰","STREET":"裕農路","SECT":" ","MAREA":" ","LANE":" ","ALLEY":" ","HOUSE_NO":"８６８之２號","E_COORD97":172278.35000000001,"N_COORD97":2543312.0499999998,"ADDRESS":"裕農路８６８之２號","OBJECTID":588450},"geometry":{"x":172278.34999999963,"y":2543312.0500000007}},{"attributes":{"ID":588478,"DIS_CODE":0,"TOWNNAME":"東區","LI":"南聖里","LIN":"11鄰","STREET":"裕農路","SECT":" ","MAREA":" ","LANE":" ","ALLEY":" ","HOUSE_NO":"８６８之３號","E_COORD97":172283.12,"N_COORD97":2543308.8700000001,"ADDRESS":"裕農路８６８之３號","OBJECTID":588451},"geometry":{"x":172283.12000000104,"y":2543308.8700000029}},{"attributes":{"ID":588479,"DIS_CODE":0,"TOWNNAME":"東區","LI":"南聖里","LIN":"11鄰","STREET":"裕農路","SECT":" ","MAREA":" ","LANE":" ","ALLEY":" ","HOUSE_NO":"８６８之５號","E_COORD97":172286.14000000001,"N_COORD97":2543312.3700000001,"ADDRESS":"裕農路８６８之５號","OBJECTID":588452},"geometry":{"x":172286.1400000006,"y":2543312.3700000029}},{"attributes":{"ID":588480,"DIS_CODE":0,"TOWNNAME":"東區","LI":"南聖里","LIN":"11鄰","STREET":"裕農路","SECT":" ","MAREA":" ","LANE":" ","ALLEY":" ","HOUSE_NO":"８６８之６號","E_COORD97":172291.70999999999,"N_COORD97":2543310.9399999999,"ADDRESS":"裕農路８６８之６號","OBJECTID":588453},"geometry":{"x":172291.70999999996,"y":2543310.9399999995}},{"attributes":{"ID":588481,"DIS_CODE":0,"TOWNNAME":"東區","LI":"南聖里","LIN":"11鄰","STREET":"裕農路","SECT":" ","MAREA":" ","LANE":" ","ALLEY":" ","HOUSE_NO":"８６８之７號","E_COORD97":172296.16,"N_COORD97":2543315.0699999998,"ADDRESS":"裕農路８６８之７號","OBJECTID":588454},"geometry":{"x":172296.16000000201,"y":2543315.0700000003}},{"attributes":{"ID":588482,"DIS_CODE":0,"TOWNNAME":"東區","LI":"南聖里","LIN":"11鄰","STREET":"裕農路","SECT":" ","MAREA":" ","LANE":" ","ALLEY":" ","HOUSE_NO":"８６８之８號","E_COORD97":172302.84,"N_COORD97":2543312.5299999998,"ADDRESS":"裕農路８６８之８號","OBJECTID":588455},"geometry":{"x":172302.83999999985,"y":2543312.5300000012}},{"attributes":{"ID":588483,"DIS_CODE":0,"TOWNNAME":"東區","LI":"南聖里","LIN":"11鄰","STREET":"裕農路","SECT":" ","MAREA":" ","LANE":" ","ALLEY":" ","HOUSE_NO":"８６８之９號","E_COORD97":172306.98000000001,"N_COORD97":2543316.6600000001,"ADDRESS":"裕農路８６８之９號","OBJECTID":588456},"geometry":{"x":172306.98000000045,"y":2543316.6600000001}},{"attributes":{"ID":588484,"DIS_CODE":0,"TOWNNAME":"東區","LI":"南聖里","LIN":"11鄰","STREET":"裕農路","SECT":" ","MAREA":" ","LANE":" ","ALLEY":" ","HOUSE_NO":"８６８號","E_COORD97":172269.45000000001,"N_COORD97":2543308.3900000001,"ADDRESS":"裕農路８６８號","OBJECTID":588457},"geometry":{"x":172269.45000000112,"y":2543308.3900000025}},{"attributes":{"ID":588485,"DIS_CODE":0,"TOWNNAME":"東區","LI":"復興里","LIN":"11鄰","STREET":"裕文路","SECT":" ","MAREA":" ","LANE":" ","ALLEY":" ","HOUSE_NO":"７０之１號","E_COORD97":172234.39000000001,"N_COORD97":2542547.7799999998,"ADDRESS":"裕文路７０之１號","OBJECTID":588458},"geometry":{"x":172234.38999999966,"y":2542547.7800000012}},{"attributes":{"ID":588486,"DIS_CODE":0,"TOWNNAME":"東區","LI":"復興里","LIN":"11鄰","STREET":"裕文路","SECT":" ","MAREA":" ","LANE":" ","ALLEY":" ","HOUSE_NO":"７２號","E_COORD97":172238.64999999999,"N_COORD97":2542543.6800000002,"ADDRESS":"裕文路７２號","OBJECTID":588459},"geometry":{"x":172238.64999999944,"y":2542543.6799999997}},{"attributes":{"ID":588487,"DIS_CODE":0,"TOWNNAME":"東區","LI":"復興里","LIN":"11鄰","STREET":"裕文路","SECT":" ","MAREA":" ","LANE":" ","ALLEY":" ","HOUSE_NO":"７２之１號","E_COORD97":172242.57000000001,"N_COORD97":2542547.7799999998,"ADDRESS":"裕文路７２之１號","OBJECTID":588460},"geometry":{"x":172242.57000000216,"y":2542547.7800000012}},{"attributes":{"ID":588488,"DIS_CODE":0,"TOWNNAME":"東區","LI":"崇成里","LIN":"11鄰","STREET":"崇德路","SECT":" ","MAREA":" ","LANE":" ","ALLEY":" ","HOUSE_NO":"６１５號","E_COORD97":170805.32000000001,"N_COORD97":2541386.9500000002,"ADDRESS":"崇德路６１５號","OBJECTID":588461},"geometry":{"x":170805.32000000123,"y":2541386.9500000011}},{"attributes":{"ID":588489,"DIS_CODE":0,"TOWNNAME":"東區","LI":"莊敬里","LIN":"11鄰","STREET":"莊敬路","SECT":" ","MAREA":" ","LANE":" ","ALLEY":" ","HOUSE_NO":"３００之１號","E_COORD97":172517.14000000001,"N_COORD97":2542242.5099999998,"ADDRESS":"莊敬路３００之１號","OBJECTID":588462},"geometry":{"x":172517.13999999966,"y":2542242.5099999998}},{"attributes":{"ID":588490,"DIS_CODE":0,"TOWNNAME":"白河區","LI":"白河里","LIN":"11鄰","STREET":"中正路","SECT":" ","MAREA":" ","LANE":" ","ALLEY":" ","HOUSE_NO":"１０號","E_COORD97":190307.14999999999,"N_COORD97":2583091.6699999999,"ADDRESS":"中正路１０號","OBJECTID":588463},"geometry":{"x":190307.15000000037,"y":2583091.6700000018}},{"attributes":{"ID":588491,"DIS_CODE":0,"TOWNNAME":"白河區","LI":"白河里","LIN":"11鄰","STREET":"中正路","SECT":" ","MAREA":" ","LANE":" ","ALLEY":" ","HOUSE_NO":"８號","E_COORD97":190311.45999999999,"N_COORD97":2583090.7400000002,"ADDRESS":"中正路８號","OBJECTID":588464},"geometry":{"x":190311.45999999996,"y":2583090.7400000021}},{"attributes":{"ID":588492,"DIS_CODE":0,"TOWNNAME":"安南區","LI":"溪心里","LIN":"11鄰","STREET":"功安四街","SECT":" ","MAREA":" ","LANE":" ","ALLEY":" ","HOUSE_NO":"７號","E_COORD97":166291.87,"N_COORD97":2549993.7400000002,"ADDRESS":"功安四街７號","OBJECTID":588465},"geometry":{"x":166291.86999999918,"y":2549993.7400000021}},{"attributes":{"ID":588493,"DIS_CODE":0,"TOWNNAME":"安南區","LI":"溪心里","LIN":"11鄰","STREET":"功安四街","SECT":" ","MAREA":" ","LANE":" ","ALLEY":" ","HOUSE_NO":"９號","E_COORD97":166300.32999999999,"N_COORD97":2550005.1299999999,"ADDRESS":"功安四街９號","OBJECTID":588466},"geometry":{"x":166300.33000000007,"y":2550005.129999999}},{"attributes":{"ID":588494,"DIS_CODE":0,"TOWNNAME":"南區","LI":"佛壇里","LIN":"11鄰","STREET":"興南街","SECT":" ","MAREA":" ","LANE":" ","ALLEY":" ","HOUSE_NO":"５７之１號","E_COORD97":166262.89999999999,"N_COORD97":2536062.1699999999,"ADDRESS":"興南街５７之１號","OBJECTID":588467},"geometry":{"x":166262.90000000037,"y":2536062.1699999981}},{"attributes":{"ID":588495,"DIS_CODE":0,"TOWNNAME":"南區","LI":"明興里","LIN":"11鄰","STREET":"永興四街","SECT":" ","MAREA":" ","LANE":" ","ALLEY":" ","HOUSE_NO":"４１號","E_COORD97":167148.42000000001,"N_COORD97":2540559.0499999998,"ADDRESS":"永興四街４１號","OBJECTID":588468},"geometry":{"x":167148.41999999993,"y":2540559.0500000007}},{"attributes":{"ID":588496,"DIS_CODE":0,"TOWNNAME":"南區","LI":"明興里","LIN":"11鄰","STREET":"永興四街","SECT":" ","MAREA":" ","LANE":" ","ALLEY":" ","HOUSE_NO":"４３號","E_COORD97":167143.66,"N_COORD97":2540559.52,"ADDRESS":"永興四街４３號","OBJECTID":588469},"geometry":{"x":167143.66000000015,"y":2540559.5200000014}},{"attributes":{"ID":588497,"DIS_CODE":0,"TOWNNAME":"南區","LI":"彰南里","LIN":"11鄰","STREET":"新忠路","SECT":" ","MAREA":" ","LANE":" ","ALLEY":" ","HOUSE_NO":"１４號","E_COORD97":166053.12,"N_COORD97":2542287.1299999999,"ADDRESS":"新忠路１４號","OBJECTID":588470},"geometry":{"x":166053.12000000104,"y":2542287.1300000008}},{"attributes":{"ID":588498,"DIS_CODE":0,"TOWNNAME":"南區","LI":"彰南里","LIN":"11鄰","STREET":"新樂路","SECT":" ","MAREA":" ","LANE":" ","ALLEY":" ","HOUSE_NO":"１之５號","E_COORD97":166015.14000000001,"N_COORD97":2542403.7999999998,"ADDRESS":"新樂路１之５號","OBJECTID":588471},"geometry":{"x":166015.14000000153,"y":2542403.8000000026}},{"attributes":{"ID":588499,"DIS_CODE":0,"TOWNNAME":"善化區","LI":"西關里","LIN":"11鄰","STREET":"復興街","SECT":" ","MAREA":" ","LANE":" ","ALLEY":" ","HOUSE_NO":"４６號","E_COORD97":176971.64999999999,"N_COORD97":2559057.5099999998,"ADDRESS":"復興街４６號","OBJECTID":588472},"geometry":{"x":176971.64999999944,"y":2559057.5100000016}},{"attributes":{"ID":588500,"DIS_CODE":0,"TOWNNAME":"安南區","LI":"溪心里","LIN":"11鄰","STREET":"海佃路","SECT":"三段","MAREA":" ","LANE":" ","ALLEY":" ","HOUSE_NO":"１１０號","E_COORD97":166199.82999999999,"N_COORD97":2549977.8799999999,"ADDRESS":"海佃路三段１１０號","OBJECTID":588473},"geometry":{"x":166199.83000000007,"y":2549977.8800000008}},{"attributes":{"ID":588501,"DIS_CODE":0,"TOWNNAME":"安南區","LI":"溪心里","LIN":"11鄰","STREET":"海佃路","SECT":"三段","MAREA":" ","LANE":" ","ALLEY":" ","HOUSE_NO":"１１２號","E_COORD97":166197.29999999999,"N_COORD97":2549982.8999999999,"ADDRESS":"海佃路三段１１２號","OBJECTID":588474},"geometry":{"x":166197.30000000168,"y":2549982.9000000022}},{"attributes":{"ID":588502,"DIS_CODE":0,"TOWNNAME":"安南區","LI":"溪心里","LIN":"11鄰","STREET":"仁安八街","SECT":" ","MAREA":" ","LANE":" ","ALLEY":" ","HOUSE_NO":"３７號","E_COORD97":166262.97,"N_COORD97":2549936.8599999999,"ADDRESS":"仁安八街３７號","OBJECTID":588475},"geometry":{"x":166262.96999999974,"y":2549936.8599999994}},{"attributes":{"ID":588503,"DIS_CODE":0,"TOWNNAME":"安南區","LI":"安西里","LIN":"11鄰","STREET":"長溪路","SECT":"一段","MAREA":" ","LANE":" ","ALLEY":" ","HOUSE_NO":"３３號之１","E_COORD97":169204.32000000001,"N_COORD97":2548274.2599999998,"ADDRESS":"長溪路一段３３號之１","OBJECTID":588476},"geometry":{"x":169204.3200000003,"y":2548274.2600000016}},{"attributes":{"ID":588504,"DIS_CODE":0,"TOWNNAME":"安南區","LI":"頂安里","LIN":"11鄰","STREET":"北安路","SECT":"三段","MAREA":" ","LANE":" ","ALLEY":" ","HOUSE_NO":"２６１號之３","E_COORD97":168477.70000000001,"N_COORD97":2549385.9900000002,"ADDRESS":"北安路三段２６１號之３","OBJECTID":588477},"geometry":{"x":168477.70000000019,"y":2549385.9900000021}},{"attributes":{"ID":588505,"DIS_CODE":0,"TOWNNAME":"安南區","LI":"頂安里","LIN":"11鄰","STREET":"北安路","SECT":"三段","MAREA":" ","LANE":" ","ALLEY":" ","HOUSE_NO":"２６１號之１","E_COORD97":168476.54999999999,"N_COORD97":2549373.3599999999,"ADDRESS":"北安路三段２６１號之１","OBJECTID":588478},"geometry":{"x":168476.54999999981,"y":2549373.3599999994}},{"attributes":{"ID":588506,"DIS_CODE":0,"TOWNNAME":"安南區","LI":"頂安里","LIN":"11鄰","STREET":"北安路","SECT":"三段","MAREA":" ","LANE":" ","ALLEY":" ","HOUSE_NO":"２６１號之２","E_COORD97":168476.92999999999,"N_COORD97":2549378.7200000002,"ADDRESS":"北安路三段２６１號之２","OBJECTID":588479},"geometry":{"x":168476.93000000063,"y":2549378.7200000007}},{"attributes":{"ID":588507,"DIS_CODE":0,"TOWNNAME":"安南區","LI":"頂安里","LIN":"11鄰","STREET":"北安路","SECT":"三段","MAREA":" ","LANE":" ","ALLEY":" ","HOUSE_NO":"２６１號之４","E_COORD97":168478.07999999999,"N_COORD97":2549392.8700000001,"ADDRESS":"北安路三段２６１號之４","OBJECTID":588480},"geometry":{"x":168478.08000000101,"y":2549392.870000001}},{"attributes":{"ID":588508,"DIS_CODE":0,"TOWNNAME":"安南區","LI":"新順里","LIN":"11鄰","STREET":"安豐五街","SECT":" ","MAREA":" ","LANE":" ","ALLEY":" ","HOUSE_NO":"１６８號","E_COORD97":169781.42000000001,"N_COORD97":2549768.6099999999,"ADDRESS":"安豐五街１６８號","OBJECTID":588481},"geometry":{"x":169781.41999999993,"y":2549768.6099999994}},{"attributes":{"ID":588509,"DIS_CODE":0,"TOWNNAME":"安南區","LI":"新順里","LIN":"11鄰","STREET":"安豐五街","SECT":" ","MAREA":" ","LANE":" ","ALLEY":" ","HOUSE_NO":"１７０號","E_COORD97":169785.14000000001,"N_COORD97":2549766.6099999999,"ADDRESS":"安豐五街１７０號","OBJECTID":588482},"geometry":{"x":169785.14000000153,"y":2549766.6100000013}},{"attributes":{"ID":588510,"DIS_CODE":0,"TOWNNAME":"安南區","LI":"新順里","LIN":"11鄰","STREET":"安豐五街","SECT":" ","MAREA":" ","LANE":" ","ALLEY":" ","HOUSE_NO":"１７２號","E_COORD97":169790,"N_COORD97":2549768.3199999998,"ADDRESS":"安豐五街１７２號","OBJECTID":588483},"geometry":{"x":169790.00000000093,"y":2549768.3200000003}},{"attributes":{"ID":588511,"DIS_CODE":0,"TOWNNAME":"安南區","LI":"新順里","LIN":"11鄰","STREET":"安豐五街","SECT":" ","MAREA":" ","LANE":" ","ALLEY":" ","HOUSE_NO":"１７４號","E_COORD97":169794,"N_COORD97":2549766.8900000001,"ADDRESS":"安豐五街１７４號","OBJECTID":588484},"geometry":{"x":169794.00000000093,"y":2549766.8900000025}},{"attributes":{"ID":588512,"DIS_CODE":0,"TOWNNAME":"安南區","LI":"新順里","LIN":"11鄰","STREET":"安豐五街","SECT":" ","MAREA":" ","LANE":" ","ALLEY":" ","HOUSE_NO":"１７６號","E_COORD97":169798.28,"N_COORD97":2549768.0299999998,"ADDRESS":"安豐五街１７６號","OBJECTID":588485},"geometry":{"x":169798.27999999933,"y":2549768.0300000012}},{"attributes":{"ID":588513,"DIS_CODE":0,"TOWNNAME":"安南區","LI":"新順里","LIN":"11鄰","STREET":"安豐五街","SECT":" ","MAREA":" ","LANE":" ","ALLEY":" ","HOUSE_NO":"１７８號","E_COORD97":169802,"N_COORD97":2549766.3199999998,"ADDRESS":"安豐五街１７８號","OBJECTID":588486},"geometry":{"x":169802.00000000093,"y":2549766.3200000022}},{"attributes":{"ID":588514,"DIS_CODE":0,"TOWNNAME":"安南區","LI":"新順里","LIN":"11鄰","STREET":"安豐五街","SECT":" ","MAREA":" ","LANE":" ","ALLEY":" ","HOUSE_NO":"１８０號","E_COORD97":169806.29000000001,"N_COORD97":2549767.46,"ADDRESS":"安豐五街１８０號","OBJECTID":588487},"geometry":{"x":169806.29000000004,"y":2549767.4600000009}},{"attributes":{"ID":588515,"DIS_CODE":0,"TOWNNAME":"安南區","LI":"新順里","LIN":"11鄰","STREET":"安豐五街","SECT":" ","MAREA":" ","LANE":" ","ALLEY":" ","HOUSE_NO":"１８２號","E_COORD97":169810,"N_COORD97":2549766.8900000001,"ADDRESS":"安豐五街１８２號","OBJECTID":588488},"geometry":{"x":169810,"y":2549766.8900000025}},{"attributes":{"ID":588516,"DIS_CODE":0,"TOWNNAME":"安南區","LI":"海東里","LIN":"11鄰","STREET":"海中街","SECT":" ","MAREA":" ","LANE":" ","ALLEY":" ","HOUSE_NO":"４６號之５","E_COORD97":166447.73000000001,"N_COORD97":2548922.5699999998,"ADDRESS":"海中街４６號之５","OBJECTID":588489},"geometry":{"x":166447.73000000138,"y":2548922.5700000003}},{"attributes":{"ID":588517,"DIS_CODE":0,"TOWNNAME":"善化區","LI":"光文里","LIN":"11鄰","STREET":"仁愛路","SECT":" ","MAREA":" ","LANE":" ","ALLEY":" ","HOUSE_NO":"５２號","E_COORD97":178517.07000000001,"N_COORD97":2559002.7599999998,"ADDRESS":"仁愛路５２號","OBJECTID":588490},"geometry":{"x":178517.07000000123,"y":2559002.7599999998}},{"attributes":{"ID":588518,"DIS_CODE":0,"TOWNNAME":"善化區","LI":"坐駕里","LIN":"11鄰","STREET":"自強路","SECT":" ","MAREA":" ","LANE":" ","ALLEY":" ","HOUSE_NO":"１３５號","E_COORD97":177926.53,"N_COORD97":2558690.25,"ADDRESS":"自強路１３５號","OBJECTID":588491},"geometry":{"x":177926.53000000026,"y":2558690.2500000019}},{"attributes":{"ID":588519,"DIS_CODE":0,"TOWNNAME":"善化區","LI":"西關里","LIN":"11鄰","STREET":"復興街","SECT":" ","MAREA":" ","LANE":" ","ALLEY":" ","HOUSE_NO":"６０號","E_COORD97":176894.35000000001,"N_COORD97":2559030.2599999998,"ADDRESS":"復興街６０號","OBJECTID":588492},"geometry":{"x":176894.34999999963,"y":2559030.2599999998}},{"attributes":{"ID":588520,"DIS_CODE":0,"TOWNNAME":"善化區","LI":"東關里","LIN":"11鄰","STREET":"中山路","SECT":" ","MAREA":" ","LANE":" ","ALLEY":" ","HOUSE_NO":"４０３號","E_COORD97":177380.56,"N_COORD97":2559099.75,"ADDRESS":"中山路４０３號","OBJECTID":588493},"geometry":{"x":177380.56000000052,"y":2559099.7500000037}},{"attributes":{"ID":588521,"DIS_CODE":0,"TOWNNAME":"善化區","LI":"光文里","LIN":"11鄰","STREET":"民權路","SECT":" ","MAREA":" ","LANE":" ","ALLEY":" ","HOUSE_NO":"８４號","E_COORD97":178546.82000000001,"N_COORD97":2559069.0099999998,"ADDRESS":"民權路８４號","OBJECTID":588494},"geometry":{"x":178546.8200000003,"y":2559069.0099999998}},{"attributes":{"ID":588522,"DIS_CODE":0,"TOWNNAME":"善化區","LI":"北關里","LIN":"11鄰","STREET":"博愛路","SECT":" ","MAREA":" ","LANE":" ","ALLEY":" ","HOUSE_NO":"２８號","E_COORD97":177227.31,"N_COORD97":2559236.2599999998,"ADDRESS":"博愛路２８號","OBJECTID":588495},"geometry":{"x":177227.30999999959,"y":2559236.2600000016}},{"attributes":{"ID":588523,"DIS_CODE":0,"TOWNNAME":"善化區","LI":"光文里","LIN":"11鄰","STREET":"仁愛路","SECT":" ","MAREA":" ","LANE":" ","ALLEY":" ","HOUSE_NO":"４２之１號","E_COORD97":178519.10000000001,"N_COORD97":2558985.27,"ADDRESS":"仁愛路４２之１號","OBJECTID":588496},"geometry":{"x":178519.10000000149,"y":2558985.2700000014}},{"attributes":{"ID":588524,"DIS_CODE":0,"TOWNNAME":"善化區","LI":"光文里","LIN":"11鄰","STREET":"仁愛路","SECT":" ","MAREA":" ","LANE":" ","ALLEY":" ","HOUSE_NO":"４８號","E_COORD97":178518.85000000001,"N_COORD97":2558994.5099999998,"ADDRESS":"仁愛路４８號","OBJECTID":588497},"geometry":{"x":178518.8499999987,"y":2558994.5099999998}},{"attributes":{"ID":588525,"DIS_CODE":0,"TOWNNAME":"善化區","LI":"坐駕里","LIN":"11鄰","STREET":"自強路","SECT":" ","MAREA":" ","LANE":" ","ALLEY":" ","HOUSE_NO":"１１６號","E_COORD97":177974.38,"N_COORD97":2558715.5,"ADDRESS":"自強路１１６號","OBJECTID":588498},"geometry":{"x":177974.37999999989,"y":2558715.5000000019}},{"attributes":{"ID":588526,"DIS_CODE":0,"TOWNNAME":"善化區","LI":"東關里","LIN":"11鄰","STREET":"中山路","SECT":" ","MAREA":" ","LANE":" ","ALLEY":" ","HOUSE_NO":"３９５號","E_COORD97":177396.51000000001,"N_COORD97":2559097.75,"ADDRESS":"中山路３９５號","OBJECTID":588499},"geometry":{"x":177396.51000000071,"y":2559097.7500000019}},{"attributes":{"ID":588527,"DIS_CODE":0,"TOWNNAME":"善化區","LI":"西關里","LIN":"11鄰","STREET":"復興街","SECT":" ","MAREA":" ","LANE":" ","ALLEY":" ","HOUSE_NO":"５２號之１","E_COORD97":176930.26000000001,"N_COORD97":2559050.52,"ADDRESS":"復興街５２號之１","OBJECTID":588500},"geometry":{"x":176930.26000000071,"y":2559050.5200000014}},{"attributes":{"ID":588528,"DIS_CODE":0,"TOWNNAME":"善化區","LI":"光文里","LIN":"11鄰","STREET":"仁愛路","SECT":" ","MAREA":" ","LANE":" ","ALLEY":" ","HOUSE_NO":"６２號","E_COORD97":178513.89000000001,"N_COORD97":2559023.7599999998,"ADDRESS":"仁愛路６２號","OBJECTID":588501},"geometry":{"x":178513.8900000006,"y":2559023.7599999998}},{"attributes":{"ID":588529,"DIS_CODE":0,"TOWNNAME":"新化區","LI":"東榮里","LIN":"22鄰","STREET":"復興路","SECT":" ","MAREA":" ","LANE":" ","ALLEY":" ","HOUSE_NO":"２２７號之３","E_COORD97":179372.76999999999,"N_COORD97":2548134.2599999998,"ADDRESS":"復興路２２７號之３","OBJECTID":588502},"geometry":{"x":179372.77000000048,"y":2548134.2599999998}},{"attributes":{"ID":588530,"DIS_CODE":0,"TOWNNAME":"善化區","LI":"光文里","LIN":"11鄰","STREET":"忠孝路","SECT":" ","MAREA":" ","LANE":" ","ALLEY":" ","HOUSE_NO":"５７號","E_COORD97":178627,"N_COORD97":2559034,"ADDRESS":"忠孝路５７號","OBJECTID":588503},"geometry":{"x":178627.00000000093,"y":2559034.0000000019}},{"attributes":{"ID":588531,"DIS_CODE":0,"TOWNNAME":"善化區","LI":"光文里","LIN":"11鄰","STREET":"仁愛路","SECT":" ","MAREA":" ","LANE":" ","ALLEY":" ","HOUSE_NO":"４０號","E_COORD97":178523.44,"N_COORD97":2558977.7599999998,"ADDRESS":"仁愛路４０號","OBJECTID":588504},"geometry":{"x":178523.44000000041,"y":2558977.7600000016}},{"attributes":{"ID":588532,"DIS_CODE":0,"TOWNNAME":"善化區","LI":"光文里","LIN":"11鄰","STREET":"仁愛路","SECT":" ","MAREA":" ","LANE":" ","ALLEY":" ","HOUSE_NO":"６８號","E_COORD97":178512.01999999999,"N_COORD97":2559035.5099999998,"ADDRESS":"仁愛路６８號","OBJECTID":588505},"geometry":{"x":178512.01999999955,"y":2559035.5099999998}},{"attributes":{"ID":588533,"DIS_CODE":0,"TOWNNAME":"善化區","LI":"光文里","LIN":"11鄰","STREET":"仁愛路","SECT":" ","MAREA":" ","LANE":" ","ALLEY":" ","HOUSE_NO":"７０號","E_COORD97":178511.85999999999,"N_COORD97":2559041.0099999998,"ADDRESS":"仁愛路７０號","OBJECTID":588506},"geometry":{"x":178511.86000000127,"y":2559041.0100000016}},{"attributes":{"ID":588534,"DIS_CODE":0,"TOWNNAME":"善化區","LI":"光文里","LIN":"11鄰","STREET":"仁愛路","SECT":" ","MAREA":" ","LANE":" ","ALLEY":" ","HOUSE_NO":"５８號","E_COORD97":178514.69,"N_COORD97":2559015.5099999998,"ADDRESS":"仁愛路５８號","OBJECTID":588507},"geometry":{"x":178514.69000000134,"y":2559015.5099999998}},{"attributes":{"ID":588535,"DIS_CODE":0,"TOWNNAME":"善化區","LI":"北關里","LIN":"11鄰","STREET":"博愛路","SECT":" ","MAREA":" ","LANE":" ","ALLEY":" ","HOUSE_NO":"１８號","E_COORD97":177243.32000000001,"N_COORD97":2559227.2599999998,"ADDRESS":"博愛路１８號","OBJECTID":588508},"geometry":{"x":177243.31999999937,"y":2559227.2599999998}},{"attributes":{"ID":588536,"DIS_CODE":0,"TOWNNAME":"安南區","LI":"安慶里","LIN":"11鄰","STREET":"長溪路","SECT":"一段","MAREA":" ","LANE":" ","ALLEY":" ","HOUSE_NO":"２２０號之５","E_COORD97":168910.85999999999,"N_COORD97":2548679.5699999998,"ADDRESS":"長溪路一段２２０號之５","OBJECTID":588509},"geometry":{"x":168910.86000000034,"y":2548679.5700000022}},{"attributes":{"ID":588537,"DIS_CODE":0,"TOWNNAME":"安南區","LI":"新順里","LIN":"11鄰","STREET":"安和路","SECT":"三段","MAREA":" ","LANE":" ","ALLEY":" ","HOUSE_NO":"１５７號","E_COORD97":169857.45000000001,"N_COORD97":2549748.3300000001,"ADDRESS":"安和路三段１５７號","OBJECTID":588510},"geometry":{"x":169857.45000000019,"y":2549748.3300000038}},{"attributes":{"ID":588538,"DIS_CODE":0,"TOWNNAME":"安南區","LI":"溪心里","LIN":"11鄰","STREET":"功安三街","SECT":" ","MAREA":" ","LANE":" ","ALLEY":" ","HOUSE_NO":"１５號","E_COORD97":166245.78,"N_COORD97":2549974.9300000002,"ADDRESS":"功安三街１５號","OBJECTID":588511},"geometry":{"x":166245.78000000119,"y":2549974.9300000016}},{"attributes":{"ID":588539,"DIS_CODE":0,"TOWNNAME":"安南區","LI":"溪心里","LIN":"11鄰","STREET":"功安三街","SECT":" ","MAREA":" ","LANE":" ","ALLEY":" ","HOUSE_NO":"１７號","E_COORD97":166241.70999999999,"N_COORD97":2549979.3300000001,"ADDRESS":"功安三街１７號","OBJECTID":588512},"geometry":{"x":166241.70999999996,"y":2549979.3300000019}},{"attributes":{"ID":588540,"DIS_CODE":0,"TOWNNAME":"安南區","LI":"安順里","LIN":"11鄰","STREET":"安和路","SECT":"四段","MAREA":" ","LANE":" ","ALLEY":" ","HOUSE_NO":"１４２號","E_COORD97":169963.57000000001,"N_COORD97":2550407.77,"ADDRESS":"安和路四段１４２號","OBJECTID":588513},"geometry":{"x":169963.5700000003,"y":2550407.7699999996}},{"attributes":{"ID":588541,"DIS_CODE":0,"TOWNNAME":"安南區","LI":"安順里","LIN":"11鄰","STREET":"安和路","SECT":"四段","MAREA":" ","LANE":" ","ALLEY":" ","HOUSE_NO":"１３６號","E_COORD97":169962.79999999999,"N_COORD97":2550383.4399999999,"ADDRESS":"安和路四段１３６號","OBJECTID":588514},"geometry":{"x":169962.80000000075,"y":2550383.4399999995}},{"attributes":{"ID":588542,"DIS_CODE":0,"TOWNNAME":"安南區","LI":"學東里","LIN":"11鄰","STREET":"公學路","SECT":"六段","MAREA":" ","LANE":" ","ALLEY":" ","HOUSE_NO":"６５４號","E_COORD97":162250.70999999999,"N_COORD97":2553268.1099999999,"ADDRESS":"公學路六段６５４號","OBJECTID":588515},"geometry":{"x":162250.70999999996,"y":2553268.1099999994}},{"attributes":{"ID":588543,"DIS_CODE":0,"TOWNNAME":"安南區","LI":"安順里","LIN":"11鄰","STREET":"安和路","SECT":"四段","MAREA":" ","LANE":" ","ALLEY":" ","HOUSE_NO":"１２２號之６","E_COORD97":170010.75,"N_COORD97":2550357.1099999999,"ADDRESS":"安和路四段１２２號之６","OBJECTID":588516},"geometry":{"x":170010.75000000093,"y":2550357.1100000013}},{"attributes":{"ID":588544,"DIS_CODE":0,"TOWNNAME":"安南區","LI":"安順里","LIN":"11鄰","STREET":"安和路","SECT":"四段","MAREA":" ","LANE":" ","ALLEY":" ","HOUSE_NO":"１２２號之５","E_COORD97":169995.84,"N_COORD97":2550356.8599999999,"ADDRESS":"安和路四段１２２號之５","OBJECTID":588517},"geometry":{"x":169995.84000000171,"y":2550356.8599999994}},{"attributes":{"ID":588545,"DIS_CODE":0,"TOWNNAME":"安南區","LI":"安順里","LIN":"11鄰","STREET":"安和路","SECT":"四段","MAREA":" ","LANE":" ","ALLEY":" ","HOUSE_NO":"１２２號之３","E_COORD97":169981.42999999999,"N_COORD97":2550356.3599999999,"ADDRESS":"安和路四段１２２號之３","OBJECTID":588518},"geometry":{"x":169981.42999999877,"y":2550356.3599999994}},{"attributes":{"ID":588546,"DIS_CODE":0,"TOWNNAME":"安南區","LI":"安順里","LIN":"11鄰","STREET":"安和路","SECT":"四段","MAREA":" ","LANE":" ","ALLEY":" ","HOUSE_NO":"１２２號之２","E_COORD97":169970.01000000001,"N_COORD97":2550355.8700000001,"ADDRESS":"安和路四段１２２號之２","OBJECTID":588519},"geometry":{"x":169970.01000000071,"y":2550355.8699999992}},{"attributes":{"ID":588547,"DIS_CODE":0,"TOWNNAME":"安南區","LI":"新順里","LIN":"11鄰","STREET":"安和路","SECT":"三段","MAREA":" ","LANE":" ","ALLEY":" ","HOUSE_NO":"１４５號","E_COORD97":169848.01999999999,"N_COORD97":2549703.21,"ADDRESS":"安和路三段１４５號","OBJECTID":588520},"geometry":{"x":169848.01999999955,"y":2549703.2100000028}},{"attributes":{"ID":588548,"DIS_CODE":0,"TOWNNAME":"安南區","LI":"安順里","LIN":"11鄰","STREET":"安和路","SECT":"四段","MAREA":" ","LANE":" ","ALLEY":" ","HOUSE_NO":"１２２號之１","E_COORD97":169954.60000000001,"N_COORD97":2550373.5099999998,"ADDRESS":"安和路四段１２２號之１","OBJECTID":588521},"geometry":{"x":169954.59999999963,"y":2550373.5099999998}},{"attributes":{"ID":588549,"DIS_CODE":0,"TOWNNAME":"安南區","LI":"安順里","LIN":"11鄰","STREET":"安和路","SECT":"四段","MAREA":" ","LANE":" ","ALLEY":" ","HOUSE_NO":"１２２號","E_COORD97":169956.22,"N_COORD97":2550355.6299999999,"ADDRESS":"安和路四段１２２號","OBJECTID":588522},"geometry":{"x":169956.22000000067,"y":2550355.6300000027}},{"attributes":{"ID":588550,"DIS_CODE":0,"TOWNNAME":"東區","LI":"崇德里","LIN":"5鄰","STREET":"中華東路","SECT":"三段","MAREA":" ","LANE":" ","ALLEY":" ","HOUSE_NO":"１５１號","E_COORD97":170686.45000000001,"N_COORD97":2541995.4399999999,"ADDRESS":"中華東路三段１５１號","OBJECTID":588523},"geometry":{"x":170686.45000000019,"y":2541995.4399999995}},{"attributes":{"ID":588551,"DIS_CODE":0,"TOWNNAME":"安南區","LI":"安順里","LIN":"11鄰","STREET":"安和路","SECT":"四段","MAREA":" ","LANE":" ","ALLEY":" ","HOUSE_NO":"１２２號之８","E_COORD97":170002.04999999999,"N_COORD97":2550383.6899999999,"ADDRESS":"安和路四段１２２號之８","OBJECTID":588524},"geometry":{"x":170002.04999999981,"y":2550383.6900000013}},{"attributes":{"ID":588552,"DIS_CODE":0,"TOWNNAME":"安南區","LI":"安順里","LIN":"11鄰","STREET":"安和路","SECT":"四段","MAREA":" ","LANE":" ","ALLEY":" ","HOUSE_NO":"１２２號之７","E_COORD97":169987.89000000001,"N_COORD97":2550383.4399999999,"ADDRESS":"安和路四段１２２號之７","OBJECTID":588525},"geometry":{"x":169987.88999999966,"y":2550383.4399999995}},{"attributes":{"ID":588553,"DIS_CODE":0,"TOWNNAME":"安南區","LI":"安順里","LIN":"11鄰","STREET":"安和路","SECT":"四段","MAREA":" ","LANE":" ","ALLEY":" ","HOUSE_NO":"１３６號之１","E_COORD97":169964.35999999999,"N_COORD97":2550398.71,"ADDRESS":"安和路四段１３６號之１","OBJECTID":588526},"geometry":{"x":169964.36000000127,"y":2550398.7100000028}},{"attributes":{"ID":588554,"DIS_CODE":0,"TOWNNAME":"安南區","LI":"淵中里","LIN":"11鄰","STREET":"本原街","SECT":"三段","MAREA":" ","LANE":" ","ALLEY":" ","HOUSE_NO":"２３８號","E_COORD97":165327.51999999999,"N_COORD97":2550254.5499999998,"ADDRESS":"本原街三段２３８號","OBJECTID":588527},"geometry":{"x":165327.52000000142,"y":2550254.5500000007}},{"attributes":{"ID":588555,"DIS_CODE":0,"TOWNNAME":"安南區","LI":"淵中里","LIN":"11鄰","STREET":"本原街","SECT":"三段","MAREA":" ","LANE":" ","ALLEY":" ","HOUSE_NO":"２４０號","E_COORD97":165326.17000000001,"N_COORD97":2550250.3900000001,"ADDRESS":"本原街三段２４０號","OBJECTID":588528},"geometry":{"x":165326.16999999993,"y":2550250.3900000043}},{"attributes":{"ID":588556,"DIS_CODE":0,"TOWNNAME":"安南區","LI":"淵中里","LIN":"11鄰","STREET":"本原街","SECT":"三段","MAREA":" ","LANE":" ","ALLEY":" ","HOUSE_NO":"２３６號","E_COORD97":165328.51999999999,"N_COORD97":2550259.9900000002,"ADDRESS":"本原街三段２３６號","OBJECTID":588529},"geometry":{"x":165328.51999999955,"y":2550259.9900000021}},{"attributes":{"ID":588557,"DIS_CODE":0,"TOWNNAME":"安南區","LI":"淵中里","LIN":"11鄰","STREET":"本原街","SECT":"三段","MAREA":" ","LANE":" ","ALLEY":" ","HOUSE_NO":"２４２號","E_COORD97":165325.26000000001,"N_COORD97":2550245.2400000002,"ADDRESS":"本原街三段２４２號","OBJECTID":588530},"geometry":{"x":165325.25999999978,"y":2550245.2400000021}},{"attributes":{"ID":588558,"DIS_CODE":0,"TOWNNAME":"安南區","LI":"學東里","LIN":"11鄰","STREET":"公學路","SECT":"六段","MAREA":" ","LANE":" ","ALLEY":" ","HOUSE_NO":"７０２號","E_COORD97":162113.54000000001,"N_COORD97":2553309.8999999999,"ADDRESS":"公學路六段７０２號","OBJECTID":588531},"geometry":{"x":162113.54000000004,"y":2553309.9000000004}},{"attributes":{"ID":588559,"DIS_CODE":0,"TOWNNAME":"安南區","LI":"學東里","LIN":"11鄰","STREET":"公學路","SECT":"六段","MAREA":" ","LANE":" ","ALLEY":" ","HOUSE_NO":"７０６號","E_COORD97":162107.84,"N_COORD97":2553309.3300000001,"ADDRESS":"公學路六段７０６號","OBJECTID":588532},"geometry":{"x":162107.83999999985,"y":2553309.3300000019}},{"attributes":{"ID":588560,"DIS_CODE":0,"TOWNNAME":"安南區","LI":"學東里","LIN":"11鄰","STREET":"公學路","SECT":"六段","MAREA":" ","LANE":" ","ALLEY":" ","HOUSE_NO":"７０８號","E_COORD97":162104.56,"N_COORD97":2553311.4700000002,"ADDRESS":"公學路六段７０８號","OBJECTID":588533},"geometry":{"x":162104.55999999866,"y":2553311.4700000044}},{"attributes":{"ID":588561,"DIS_CODE":0,"TOWNNAME":"安南區","LI":"學東里","LIN":"11鄰","STREET":"公學路","SECT":"六段","MAREA":" ","LANE":" ","ALLEY":" ","HOUSE_NO":"７１０號","E_COORD97":162100.54000000001,"N_COORD97":2553314.5499999998,"ADDRESS":"公學路六段７１０號","OBJECTID":588534},"geometry":{"x":162100.54000000097,"y":2553314.5500000045}},{"attributes":{"ID":588562,"DIS_CODE":0,"TOWNNAME":"安南區","LI":"學東里","LIN":"11鄰","STREET":"公學路","SECT":"六段","MAREA":" ","LANE":" ","ALLEY":" ","HOUSE_NO":"７１２號","E_COORD97":162096.17999999999,"N_COORD97":2553315.8100000001,"ADDRESS":"公學路六段７１２號","OBJECTID":588535},"geometry":{"x":162096.18000000063,"y":2553315.8100000042}},{"attributes":{"ID":588563,"DIS_CODE":0,"TOWNNAME":"安南區","LI":"學東里","LIN":"11鄰","STREET":"公學路","SECT":"六段","MAREA":" ","LANE":" ","ALLEY":" ","HOUSE_NO":"７１６號","E_COORD97":162090.91,"N_COORD97":2553317.2400000002,"ADDRESS":"公學路六段７１６號","OBJECTID":588536},"geometry":{"x":162090.91000000015,"y":2553317.2400000021}},{"attributes":{"ID":588564,"DIS_CODE":0,"TOWNNAME":"安南區","LI":"安順里","LIN":"11鄰","STREET":"安和路","SECT":"四段","MAREA":" ","LANE":" ","ALLEY":" ","HOUSE_NO":"１２２號之９","E_COORD97":170013.48000000001,"N_COORD97":2550384.1800000002,"ADDRESS":"安和路四段１２２號之９","OBJECTID":588537},"geometry":{"x":170013.48000000045,"y":2550384.1800000016}},{"attributes":{"ID":588565,"DIS_CODE":0,"TOWNNAME":"官田區","LI":"隆本里","LIN":"11鄰","STREET":"中華路","SECT":"二段","MAREA":" ","LANE":" ","ALLEY":" ","HOUSE_NO":"３號之１","E_COORD97":180061.94,"N_COORD97":2566452.4100000001,"ADDRESS":"中華路二段３號之１","OBJECTID":588538},"geometry":{"x":180061.94000000227,"y":2566452.4100000039}},{"attributes":{"ID":588566,"DIS_CODE":0,"TOWNNAME":"官田區","LI":"隆本里","LIN":"11鄰","STREET":"中華路","SECT":"二段","MAREA":" ","LANE":" ","ALLEY":" ","HOUSE_NO":"３號","E_COORD97":180067.70000000001,"N_COORD97":2566446.6200000001,"ADDRESS":"中華路二段３號","OBJECTID":588539},"geometry":{"x":180067.70000000019,"y":2566446.6200000029}},{"attributes":{"ID":588567,"DIS_CODE":0,"TOWNNAME":"官田區","LI":"隆本里","LIN":"11鄰","STREET":"中華路","SECT":"二段","MAREA":" ","LANE":" ","ALLEY":" ","HOUSE_NO":"５號","E_COORD97":180057.66,"N_COORD97":2566464.98,"ADDRESS":"中華路二段５號","OBJECTID":588540},"geometry":{"x":180057.66000000015,"y":2566464.9800000004}},{"attributes":{"ID":588568,"DIS_CODE":0,"TOWNNAME":"官田區","LI":"隆田里","LIN":"11鄰","STREET":"文化街","SECT":" ","MAREA":" ","LANE":" ","ALLEY":" ","HOUSE_NO":"１０號","E_COORD97":180200.10000000001,"N_COORD97":2565825.6000000001,"ADDRESS":"文化街１０號","OBJECTID":588541},"geometry":{"x":180200.09999999963,"y":2565825.5999999996}},{"attributes":{"ID":588569,"DIS_CODE":0,"TOWNNAME":"官田區","LI":"隆田里","LIN":"11鄰","STREET":"文化街","SECT":" ","MAREA":" ","LANE":" ","ALLEY":" ","HOUSE_NO":"１２號","E_COORD97":180200.60999999999,"N_COORD97":2565830.1099999999,"ADDRESS":"文化街１２號","OBJECTID":588542},"geometry":{"x":180200.61000000034,"y":2565830.1100000013}},{"attributes":{"ID":588570,"DIS_CODE":0,"TOWNNAME":"官田區","LI":"隆田里","LIN":"11鄰","STREET":"文化街","SECT":" ","MAREA":" ","LANE":" ","ALLEY":" ","HOUSE_NO":"１４號","E_COORD97":180200.60000000001,"N_COORD97":2565834.9300000002,"ADDRESS":"文化街１４號","OBJECTID":588543},"geometry":{"x":180200.60000000149,"y":2565834.9300000034}},{"attributes":{"ID":588571,"DIS_CODE":0,"TOWNNAME":"官田區","LI":"隆田里","LIN":"11鄰","STREET":"文化街","SECT":" ","MAREA":" ","LANE":" ","ALLEY":" ","HOUSE_NO":"１６號","E_COORD97":180200.81,"N_COORD97":2565839.1699999999,"ADDRESS":"文化街１６號","OBJECTID":588544},"geometry":{"x":180200.81000000145,"y":2565839.1699999999}},{"attributes":{"ID":588572,"DIS_CODE":0,"TOWNNAME":"官田區","LI":"隆田里","LIN":"11鄰","STREET":"文化街","SECT":" ","MAREA":" ","LANE":" ","ALLEY":" ","HOUSE_NO":"１８號","E_COORD97":180201.01000000001,"N_COORD97":2565843.6800000002,"ADDRESS":"文化街１８號","OBJECTID":588545},"geometry":{"x":180201.00999999978,"y":2565843.6800000016}},{"attributes":{"ID":588573,"DIS_CODE":0,"TOWNNAME":"官田區","LI":"隆田里","LIN":"11鄰","STREET":"文化街","SECT":" ","MAREA":" ","LANE":" ","ALLEY":" ","HOUSE_NO":"２２號","E_COORD97":180201.20999999999,"N_COORD97":2565852.48,"ADDRESS":"文化街２２號","OBJECTID":588546},"geometry":{"x":180201.20999999996,"y":2565852.4800000023}},{"attributes":{"ID":588574,"DIS_CODE":0,"TOWNNAME":"官田區","LI":"隆田里","LIN":"11鄰","STREET":"文化街","SECT":" ","MAREA":" ","LANE":" ","ALLEY":" ","HOUSE_NO":"２４號","E_COORD97":180200.85999999999,"N_COORD97":2565856.0800000001,"ADDRESS":"文化街２４號","OBJECTID":588547},"geometry":{"x":180200.86000000034,"y":2565856.0800000019}},{"attributes":{"ID":588575,"DIS_CODE":0,"TOWNNAME":"官田區","LI":"隆田里","LIN":"11鄰","STREET":"文化街","SECT":" ","MAREA":" ","LANE":" ","ALLEY":" ","HOUSE_NO":"２６號","E_COORD97":180201.47,"N_COORD97":2565860.4900000002,"ADDRESS":"文化街２６號","OBJECTID":588548},"geometry":{"x":180201.46999999974,"y":2565860.4900000002}},{"attributes":{"ID":588576,"DIS_CODE":0,"TOWNNAME":"官田區","LI":"隆田里","LIN":"11鄰","STREET":"文化街","SECT":" ","MAREA":" ","LANE":" ","ALLEY":" ","HOUSE_NO":"２８號","E_COORD97":180201.26999999999,"N_COORD97":2565864.3900000001,"ADDRESS":"文化街２８號","OBJECTID":588549},"geometry":{"x":180201.27000000048,"y":2565864.3900000025}},{"attributes":{"ID":588577,"DIS_CODE":0,"TOWNNAME":"官田區","LI":"隆田里","LIN":"11鄰","STREET":"文化街","SECT":" ","MAREA":" ","LANE":" ","ALLEY":" ","HOUSE_NO":"３０號","E_COORD97":180200.76999999999,"N_COORD97":2565869.2200000002,"ADDRESS":"文化街３０號","OBJECTID":588550},"geometry":{"x":180200.76999999955,"y":2565869.2200000025}},{"attributes":{"ID":588578,"DIS_CODE":0,"TOWNNAME":"官田區","LI":"隆田里","LIN":"11鄰","STREET":"文化街","SECT":" ","MAREA":" ","LANE":" ","ALLEY":" ","HOUSE_NO":"３４號","E_COORD97":180197.79000000001,"N_COORD97":2565877.2599999998,"ADDRESS":"文化街３４號","OBJECTID":588551},"geometry":{"x":180197.79000000004,"y":2565877.2600000016}},{"attributes":{"ID":588579,"DIS_CODE":0,"TOWNNAME":"官田區","LI":"隆田里","LIN":"11鄰","STREET":"文化街","SECT":" ","MAREA":" ","LANE":" ","ALLEY":" ","HOUSE_NO":"３６號","E_COORD97":180197.70000000001,"N_COORD97":2565882.29,"ADDRESS":"文化街３６號","OBJECTID":588552},"geometry":{"x":180197.70000000112,"y":2565882.2899999972}},{"attributes":{"ID":588580,"DIS_CODE":0,"TOWNNAME":"官田區","LI":"隆田里","LIN":"11鄰","STREET":"文化街","SECT":" ","MAREA":" ","LANE":" ","ALLEY":" ","HOUSE_NO":"３８號","E_COORD97":180197.44,"N_COORD97":2565886.7599999998,"ADDRESS":"文化街３８號","OBJECTID":588553},"geometry":{"x":180197.44000000227,"y":2565886.7600000035}},{"attributes":{"ID":588581,"DIS_CODE":0,"TOWNNAME":"官田區","LI":"隆田里","LIN":"11鄰","STREET":"文化街","SECT":" ","MAREA":" ","LANE":" ","ALLEY":" ","HOUSE_NO":"４２號之１","E_COORD97":180195.64999999999,"N_COORD97":2565899.2000000002,"ADDRESS":"文化街４２號之１","OBJECTID":588554},"geometry":{"x":180195.65000000037,"y":2565899.1999999993}},{"attributes":{"ID":588582,"DIS_CODE":0,"TOWNNAME":"官田區","LI":"隆田里","LIN":"11鄰","STREET":"文化街","SECT":" ","MAREA":" ","LANE":" ","ALLEY":" ","HOUSE_NO":"４２號","E_COORD97":180196.06,"N_COORD97":2565895.1099999999,"ADDRESS":"文化街４２號","OBJECTID":588555},"geometry":{"x":180196.06000000052,"y":2565895.1100000013}},{"attributes":{"ID":588583,"DIS_CODE":0,"TOWNNAME":"官田區","LI":"隆田里","LIN":"11鄰","STREET":"文化街","SECT":" ","MAREA":" ","LANE":" ","ALLEY":" ","HOUSE_NO":"８號","E_COORD97":180200.62,"N_COORD97":2565821.5,"ADDRESS":"文化街８號","OBJECTID":588556},"geometry":{"x":180200.62000000011,"y":2565821.5000000019}},{"attributes":{"ID":588584,"DIS_CODE":0,"TOWNNAME":"官田區","LI":"隆田里","LIN":"11鄰","STREET":"自強街","SECT":" ","MAREA":" ","LANE":" ","ALLEY":" ","HOUSE_NO":"１１號","E_COORD97":180144.78,"N_COORD97":2565843.98,"ADDRESS":"自強街１１號","OBJECTID":588557},"geometry":{"x":180144.78000000119,"y":2565843.9800000004}},{"attributes":{"ID":588585,"DIS_CODE":0,"TOWNNAME":"官田區","LI":"隆田里","LIN":"11鄰","STREET":"自強街","SECT":" ","MAREA":" ","LANE":" ","ALLEY":" ","HOUSE_NO":"１３號","E_COORD97":180145.51999999999,"N_COORD97":2565847.4700000002,"ADDRESS":"自強街１３號","OBJECTID":588558},"geometry":{"x":180145.52000000048,"y":2565847.4700000007}},{"attributes":{"ID":588586,"DIS_CODE":0,"TOWNNAME":"永康區","LI":"五王里","LIN":"31鄰","STREET":"五福街","SECT":" ","MAREA":" ","LANE":" ","ALLEY":" ","HOUSE_NO":"５號","E_COORD97":171269.48000000001,"N_COORD97":2545867.3799999999,"ADDRESS":"五福街５號","OBJECTID":588559},"geometry":{"x":171269.48000000138,"y":2545867.379999999}},{"attributes":{"ID":588587,"DIS_CODE":0,"TOWNNAME":"東區","LI":"大福里","LIN":"18鄰","STREET":"立德七路","SECT":" ","MAREA":" ","LANE":" ","ALLEY":" ","HOUSE_NO":"５３號","E_COORD97":169616.92999999999,"N_COORD97":2541926.2400000002,"ADDRESS":"立德七路５３號","OBJECTID":588560},"geometry":{"x":169616.9299999997,"y":2541926.2400000002}},{"attributes":{"ID":588588,"DIS_CODE":0,"TOWNNAME":"東區","LI":"中西里","LIN":"9鄰","STREET":"勝利路","SECT":" ","MAREA":" ","LANE":" ","ALLEY":" ","HOUSE_NO":"７４號","E_COORD97":169821.85000000001,"N_COORD97":2543617.5600000001,"ADDRESS":"勝利路７４號","OBJECTID":588561},"geometry":{"x":169821.84999999963,"y":2543617.5600000042}},{"attributes":{"ID":588589,"DIS_CODE":0,"TOWNNAME":"東區","LI":"中西里","LIN":"9鄰","STREET":"勝利路","SECT":" ","MAREA":" ","LANE":" ","ALLEY":" ","HOUSE_NO":"７６號","E_COORD97":169821.95999999999,"N_COORD97":2543621.4399999999,"ADDRESS":"勝利路７６號","OBJECTID":588562},"geometry":{"x":169821.95999999996,"y":2543621.4400000013}},{"attributes":{"ID":588590,"DIS_CODE":0,"TOWNNAME":"官田區","LI":"隆田里","LIN":"11鄰","STREET":"自強街","SECT":" ","MAREA":" ","LANE":" ","ALLEY":" ","HOUSE_NO":"１５號","E_COORD97":180144.91,"N_COORD97":2565851.79,"ADDRESS":"自強街１５號","OBJECTID":588563},"geometry":{"x":180144.91000000201,"y":2565851.7899999972}},{"attributes":{"ID":588591,"DIS_CODE":0,"TOWNNAME":"官田區","LI":"隆田里","LIN":"11鄰","STREET":"自強街","SECT":" ","MAREA":" ","LANE":" ","ALLEY":" ","HOUSE_NO":"１７號","E_COORD97":180145.07000000001,"N_COORD97":2565856.4399999999,"ADDRESS":"自強街１７號","OBJECTID":588564},"geometry":{"x":180145.0700000003,"y":2565856.4400000013}},{"attributes":{"ID":588592,"DIS_CODE":0,"TOWNNAME":"官田區","LI":"隆田里","LIN":"11鄰","STREET":"自強街","SECT":" ","MAREA":" ","LANE":" ","ALLEY":" ","HOUSE_NO":"１９號","E_COORD97":180144.97,"N_COORD97":2565860.73,"ADDRESS":"自強街１９號","OBJECTID":588565},"geometry":{"x":180144.96999999974,"y":2565860.7300000042}},{"attributes":{"ID":588593,"DIS_CODE":0,"TOWNNAME":"官田區","LI":"隆田里","LIN":"11鄰","STREET":"自強街","SECT":" ","MAREA":" ","LANE":" ","ALLEY":" ","HOUSE_NO":"１號","E_COORD97":180145.60999999999,"N_COORD97":2565822.1000000001,"ADDRESS":"自強街１號","OBJECTID":588566},"geometry":{"x":180145.61000000127,"y":2565822.0999999996}},{"attributes":{"ID":588594,"DIS_CODE":0,"TOWNNAME":"官田區","LI":"隆田里","LIN":"11鄰","STREET":"自強街","SECT":" ","MAREA":" ","LANE":" ","ALLEY":" ","HOUSE_NO":"３５號","E_COORD97":180142.81,"N_COORD97":2565906.6299999999,"ADDRESS":"自強街３５號","OBJECTID":588567},"geometry":{"x":180142.80999999959,"y":2565906.629999999}},{"attributes":{"ID":588595,"DIS_CODE":0,"TOWNNAME":"官田區","LI":"隆田里","LIN":"11鄰","STREET":"自強街","SECT":" ","MAREA":" ","LANE":" ","ALLEY":" ","HOUSE_NO":"３號","E_COORD97":180145.81,"N_COORD97":2565826.54,"ADDRESS":"自強街３號","OBJECTID":588568},"geometry":{"x":180145.80999999959,"y":2565826.5400000028}},{"attributes":{"ID":588596,"DIS_CODE":0,"TOWNNAME":"官田區","LI":"隆田里","LIN":"11鄰","STREET":"自強街","SECT":" ","MAREA":" ","LANE":" ","ALLEY":" ","HOUSE_NO":"５號","E_COORD97":180145.81,"N_COORD97":2565831.0699999998,"ADDRESS":"自強街５號","OBJECTID":588569},"geometry":{"x":180145.80999999959,"y":2565831.070000004}},{"attributes":{"ID":588597,"DIS_CODE":0,"TOWNNAME":"官田區","LI":"隆田里","LIN":"11鄰","STREET":"自強街","SECT":" ","MAREA":" ","LANE":" ","ALLEY":" ","HOUSE_NO":"７號","E_COORD97":180145.76999999999,"N_COORD97":2565834.8300000001,"ADDRESS":"自強街７號","OBJECTID":588570},"geometry":{"x":180145.77000000048,"y":2565834.8300000001}},{"attributes":{"ID":588598,"DIS_CODE":0,"TOWNNAME":"東區","LI":"裕農里","LIN":"14鄰","STREET":"裕豐街","SECT":" ","MAREA":" ","LANE":" ","ALLEY":" ","HOUSE_NO":"２１６號","E_COORD97":170793.78,"N_COORD97":2543171.5099999998,"ADDRESS":"裕豐街２１６號","OBJECTID":588571},"geometry":{"x":170793.78000000119,"y":2543171.5099999998}},{"attributes":{"ID":588599,"DIS_CODE":0,"TOWNNAME":"東區","LI":"裕農里","LIN":"14鄰","STREET":"裕豐街","SECT":" ","MAREA":" ","LANE":" ","ALLEY":" ","HOUSE_NO":"２１８號","E_COORD97":170794.56,"N_COORD97":2543174.6499999999,"ADDRESS":"裕豐街２１８號","OBJECTID":588572},"geometry":{"x":170794.56000000052,"y":2543174.6500000004}},{"attributes":{"ID":588600,"DIS_CODE":0,"TOWNNAME":"東區","LI":"裕農里","LIN":"14鄰","STREET":"裕豐街","SECT":" ","MAREA":" ","LANE":" ","ALLEY":" ","HOUSE_NO":"２１８號之１","E_COORD97":170795.35000000001,"N_COORD97":2543177.79,"ADDRESS":"裕豐街２１８號之１","OBJECTID":588573},"geometry":{"x":170795.34999999963,"y":2543177.790000001}},{"attributes":{"ID":588601,"DIS_CODE":0,"TOWNNAME":"東區","LI":"裕農里","LIN":"14鄰","STREET":"裕豐街","SECT":" ","MAREA":" ","LANE":" ","ALLEY":" ","HOUSE_NO":"２１８號之２","E_COORD97":170796.14000000001,"N_COORD97":2543180.9300000002,"ADDRESS":"裕豐街２１８號之２","OBJECTID":588574},"geometry":{"x":170796.1400000006,"y":2543180.9300000016}},{"attributes":{"ID":588602,"DIS_CODE":0,"TOWNNAME":"官田區","LI":"隆田里","LIN":"11鄰","STREET":"自強街","SECT":" ","MAREA":" ","LANE":" ","ALLEY":" ","HOUSE_NO":"９號","E_COORD97":180145.60999999999,"N_COORD97":2565839.3399999999,"ADDRESS":"自強街９號","OBJECTID":588575},"geometry":{"x":180145.61000000127,"y":2565839.3400000017}},{"attributes":{"ID":588603,"DIS_CODE":0,"TOWNNAME":"東區","LI":"裕農里","LIN":"14鄰","STREET":"裕豐街","SECT":" ","MAREA":" ","LANE":" ","ALLEY":" ","HOUSE_NO":"２１８號之３","E_COORD97":170797.17999999999,"N_COORD97":2543184.0699999998,"ADDRESS":"裕豐街２１８號之３","OBJECTID":588576},"geometry":{"x":170797.18000000063,"y":2543184.0700000022}},{"attributes":{"ID":588604,"DIS_CODE":0,"TOWNNAME":"仁德區","LI":"一甲里","LIN":"11鄰","STREET":"忠義二街","SECT":" ","MAREA":" ","LANE":" ","ALLEY":" ","HOUSE_NO":"２７號","E_COORD97":173888.51000000001,"N_COORD97":2542082.7599999998,"ADDRESS":"忠義二街２７號","OBJECTID":588577},"geometry":{"x":173888.51000000164,"y":2542082.7599999979}},{"attributes":{"ID":588605,"DIS_CODE":0,"TOWNNAME":"仁德區","LI":"一甲里","LIN":"11鄰","STREET":"忠義二街","SECT":" ","MAREA":" ","LANE":" ","ALLEY":" ","HOUSE_NO":"３０號","E_COORD97":173959.60000000001,"N_COORD97":2542164.77,"ADDRESS":"忠義二街３０號","OBJECTID":588578},"geometry":{"x":173959.60000000056,"y":2542164.7700000014}},{"attributes":{"ID":588606,"DIS_CODE":0,"TOWNNAME":"仁德區","LI":"上崙里","LIN":"11鄰","STREET":"德崙路","SECT":" ","MAREA":" ","LANE":" ","ALLEY":" ","HOUSE_NO":"３５５號","E_COORD97":174048.60999999999,"N_COORD97":2538119.27,"ADDRESS":"德崙路３５５號","OBJECTID":588579},"geometry":{"x":174048.61000000034,"y":2538119.2700000033}},{"attributes":{"ID":588607,"DIS_CODE":0,"TOWNNAME":"仁德區","LI":"一甲里","LIN":"11鄰","STREET":"忠義二街","SECT":" ","MAREA":" ","LANE":" ","ALLEY":" ","HOUSE_NO":"２９號","E_COORD97":173884.29000000001,"N_COORD97":2542065.77,"ADDRESS":"忠義二街２９號","OBJECTID":588580},"geometry":{"x":173884.29000000097,"y":2542065.7700000033}},{"attributes":{"ID":588608,"DIS_CODE":0,"TOWNNAME":"仁德區","LI":"大甲里","LIN":"11鄰","STREET":"行大一街","SECT":" ","MAREA":" ","LANE":" ","ALLEY":" ","HOUSE_NO":"３４１號","E_COORD97":169570.62,"N_COORD97":2535074.9900000002,"ADDRESS":"行大一街３４１號","OBJECTID":588581},"geometry":{"x":169570.62000000104,"y":2535074.9900000021}},{"attributes":{"ID":588609,"DIS_CODE":0,"TOWNNAME":"仁德區","LI":"上崙里","LIN":"11鄰","STREET":"德崙路","SECT":" ","MAREA":" ","LANE":" ","ALLEY":" ","HOUSE_NO":"３７１號","E_COORD97":174096.89999999999,"N_COORD97":2538117.5099999998,"ADDRESS":"德崙路３７１號","OBJECTID":588582},"geometry":{"x":174096.9000000013,"y":2538117.5099999998}},{"attributes":{"ID":588610,"DIS_CODE":0,"TOWNNAME":"仁德區","LI":"上崙里","LIN":"11鄰","STREET":"德崙路","SECT":" ","MAREA":" ","LANE":" ","ALLEY":" ","HOUSE_NO":"３５９號","E_COORD97":174057.85000000001,"N_COORD97":2538117.5099999998,"ADDRESS":"德崙路３５９號","OBJECTID":588583},"geometry":{"x":174057.85000000056,"y":2538117.5099999998}},{"attributes":{"ID":588611,"DIS_CODE":0,"TOWNNAME":"仁德區","LI":"上崙里","LIN":"11鄰","STREET":"德崙路","SECT":" ","MAREA":" ","LANE":" ","ALLEY":" ","HOUSE_NO":"３７７號","E_COORD97":174111.04999999999,"N_COORD97":2538105.2599999998,"ADDRESS":"德崙路３７７號","OBJECTID":588584},"geometry":{"x":174111.05000000075,"y":2538105.2599999998}},{"attributes":{"ID":588612,"DIS_CODE":0,"TOWNNAME":"仁德區","LI":"上崙里","LIN":"11鄰","STREET":"德崙路","SECT":" ","MAREA":" ","LANE":" ","ALLEY":" ","HOUSE_NO":"３７５號","E_COORD97":174106.51000000001,"N_COORD97":2538106.2599999998,"ADDRESS":"德崙路３７５號","OBJECTID":588585},"geometry":{"x":174106.50999999978,"y":2538106.2600000035}},{"attributes":{"ID":588613,"DIS_CODE":0,"TOWNNAME":"東區","LI":"裕農里","LIN":"14鄰","STREET":"東寧路","SECT":" ","MAREA":" ","LANE":" ","ALLEY":" ","HOUSE_NO":"３４２號","E_COORD97":170826.60000000001,"N_COORD97":2543378.3999999999,"ADDRESS":"東寧路３４２號","OBJECTID":588586},"geometry":{"x":170826.60000000056,"y":2543378.4000000022}},{"attributes":{"ID":588614,"DIS_CODE":0,"TOWNNAME":"東區","LI":"崇德里","LIN":"8鄰","STREET":"崇德路","SECT":" ","MAREA":" ","LANE":" ","ALLEY":" ","HOUSE_NO":"４９１號","E_COORD97":170755.42999999999,"N_COORD97":2541662.3399999999,"ADDRESS":"崇德路４９１號","OBJECTID":588587},"geometry":{"x":170755.4299999997,"y":2541662.3400000036}},{"attributes":{"ID":588615,"DIS_CODE":0,"TOWNNAME":"東區","LI":"關聖里","LIN":"6鄰","STREET":"富農街","SECT":"二段","MAREA":" ","LANE":" ","ALLEY":" ","HOUSE_NO":"６０號","E_COORD97":171657.95999999999,"N_COORD97":2542955.6600000001,"ADDRESS":"富農街二段６０號","OBJECTID":588588},"geometry":{"x":171657.95999999996,"y":2542955.660000002}},{"attributes":{"ID":588616,"DIS_CODE":0,"TOWNNAME":"東區","LI":"崇德里","LIN":"21鄰","STREET":"崇德路","SECT":" ","MAREA":" ","LANE":" ","ALLEY":" ","HOUSE_NO":"４５６號","E_COORD97":170692.35000000001,"N_COORD97":2541671.2400000002,"ADDRESS":"崇德路４５６號","OBJECTID":588589},"geometry":{"x":170692.35000000149,"y":2541671.2400000021}},{"attributes":{"ID":588617,"DIS_CODE":0,"TOWNNAME":"東區","LI":"中西里","LIN":"23鄰","STREET":"長榮路","SECT":"二段","MAREA":" ","LANE":" ","ALLEY":" ","HOUSE_NO":"２８６號","E_COORD97":170170.39999999999,"N_COORD97":2543494.7799999998,"ADDRESS":"長榮路二段２８６號","OBJECTID":588590},"geometry":{"x":170170.40000000037,"y":2543494.7799999993}},{"attributes":{"ID":588618,"DIS_CODE":0,"TOWNNAME":"仁德區","LI":"一甲里","LIN":"11鄰","STREET":"忠義二街","SECT":" ","MAREA":" ","LANE":" ","ALLEY":" ","HOUSE_NO":"６號","E_COORD97":174002.07000000001,"N_COORD97":2542073.77,"ADDRESS":"忠義二街６號","OBJECTID":588591},"geometry":{"x":174002.0700000003,"y":2542073.7700000014}},{"attributes":{"ID":588619,"DIS_CODE":0,"TOWNNAME":"仁德區","LI":"一甲里","LIN":"11鄰","STREET":"忠義路","SECT":" ","MAREA":" ","LANE":" ","ALLEY":" ","HOUSE_NO":"１６號","E_COORD97":174558.47,"N_COORD97":2541675.52,"ADDRESS":"忠義路１６號","OBJECTID":588592},"geometry":{"x":174558.47000000067,"y":2541675.5200000014}},{"attributes":{"ID":588620,"DIS_CODE":0,"TOWNNAME":"東區","LI":"小東里","LIN":"18鄰","STREET":"東和路","SECT":" ","MAREA":" ","LANE":" ","ALLEY":" ","HOUSE_NO":"５４號之１","E_COORD97":170914.22,"N_COORD97":2544336.0699999998,"ADDRESS":"東和路５４號之１","OBJECTID":588593},"geometry":{"x":170914.22000000067,"y":2544336.070000004}},{"attributes":{"ID":588621,"DIS_CODE":0,"TOWNNAME":"東區","LI":"小東里","LIN":"18鄰","STREET":"東和路","SECT":" ","MAREA":" ","LANE":" ","ALLEY":" ","HOUSE_NO":"５４號","E_COORD97":170918.63,"N_COORD97":2544336.8999999999,"ADDRESS":"東和路５４號","OBJECTID":588594},"geometry":{"x":170918.63000000082,"y":2544336.9000000004}},{"attributes":{"ID":588622,"DIS_CODE":0,"TOWNNAME":"東區","LI":"小東里","LIN":"18鄰","STREET":"東和路","SECT":" ","MAREA":" ","LANE":" ","ALLEY":" ","HOUSE_NO":"５４號之２","E_COORD97":170904.54000000001,"N_COORD97":2544334.8999999999,"ADDRESS":"東和路５４號之２","OBJECTID":588595},"geometry":{"x":170904.54000000004,"y":2544334.9000000022}},{"attributes":{"ID":588623,"DIS_CODE":0,"TOWNNAME":"東區","LI":"崇德里","LIN":"14鄰","STREET":"崇明路","SECT":" ","MAREA":" ","LANE":" ","ALLEY":" ","HOUSE_NO":"４４３號","E_COORD97":170476.5,"N_COORD97":2541539.04,"ADDRESS":"崇明路４４３號","OBJECTID":588596},"geometry":{"x":170476.50000000186,"y":2541539.040000001}},{"attributes":{"ID":588624,"DIS_CODE":0,"TOWNNAME":"東區","LI":"崇德里","LIN":"14鄰","STREET":"崇明路","SECT":" ","MAREA":" ","LANE":" ","ALLEY":" ","HOUSE_NO":"４４５號","E_COORD97":170480.69,"N_COORD97":2541535.23,"ADDRESS":"崇明路４４５號","OBJECTID":588597},"geometry":{"x":170480.69000000227,"y":2541535.2300000023}},{"attributes":{"ID":588625,"DIS_CODE":0,"TOWNNAME":"東區","LI":"富強里","LIN":"1鄰","STREET":"裕農路","SECT":" ","MAREA":" ","LANE":" ","ALLEY":" ","HOUSE_NO":"２９６號之１３","E_COORD97":170871.10999999999,"N_COORD97":2542964.1699999999,"ADDRESS":"裕農路２９６號之１３","OBJECTID":588598},"geometry":{"x":170871.11000000127,"y":2542964.1699999999}},{"attributes":{"ID":588626,"DIS_CODE":0,"TOWNNAME":"東區","LI":"忠孝里","LIN":"10鄰","STREET":"崇明路","SECT":" ","MAREA":" ","LANE":" ","ALLEY":" ","HOUSE_NO":"３７４號","E_COORD97":170118.98000000001,"N_COORD97":2541881.6899999999,"ADDRESS":"崇明路３７４號","OBJECTID":588599},"geometry":{"x":170118.98000000045,"y":2541881.6899999995}},{"attributes":{"ID":588627,"DIS_CODE":0,"TOWNNAME":"仁德區","LI":"一甲里","LIN":"11鄰","STREET":"忠義二街","SECT":" ","MAREA":" ","LANE":" ","ALLEY":" ","HOUSE_NO":"１８號","E_COORD97":173959.45999999999,"N_COORD97":2542140.7599999998,"ADDRESS":"忠義二街１８號","OBJECTID":588600},"geometry":{"x":173959.45999999996,"y":2542140.7600000035}}]}