{"displayFieldName":"TOWNNAME","fieldAliases":{"ID":"ID","DIS_CODE":"DIS_CODE","TOWNNAME":"TOWNNAME","LI":"LI","LIN":"LIN","STREET":"STREET","SECT":"SECT","MAREA":"MAREA","LANE":"LANE","ALLEY":"ALLEY","HOUSE_NO":"HOUSE_NO","E_COORD97":"E_COORD97","N_COORD97":"N_COORD97","ADDRESS":"ADDRESS","OBJECTID":"OBJECTID"},"geometryType":"esriGeometryPoint","spatialReference":{"wkid":102443,"latestWkid":3826},"fields":[{"name":"ID","type":"esriFieldTypeDouble","alias":"ID"},{"name":"DIS_CODE","type":"esriFieldTypeInteger","alias":"DIS_CODE"},{"name":"TOWNNAME","type":"esriFieldTypeString","alias":"TOWNNAME","length":8},{"name":"LI","type":"esriFieldTypeString","alias":"LI","length":8},{"name":"LIN","type":"esriFieldTypeString","alias":"LIN","length":12},{"name":"STREET","type":"esriFieldTypeString","alias":"STREET","length":20},{"name":"SECT","type":"esriFieldTypeString","alias":"SECT","length":8},{"name":"MAREA","type":"esriFieldTypeString","alias":"MAREA","length":12},{"name":"LANE","type":"esriFieldTypeString","alias":"LANE","length":10},{"name":"ALLEY","type":"esriFieldTypeString","alias":"ALLEY","length":10},{"name":"HOUSE_NO","type":"esriFieldTypeString","alias":"HOUSE_NO","length":20},{"name":"E_COORD97","type":"esriFieldTypeDouble","alias":"E_COORD97"},{"name":"N_COORD97","type":"esriFieldTypeDouble","alias":"N_COORD97"},{"name":"ADDRESS","type":"esriFieldTypeString","alias":"ADDRESS","length":50},{"name":"OBJECTID","type":"esriFieldTypeOID","alias":"OBJECTID"}],"features":[{"attributes":{"ID":401025,"DIS_CODE":0,"TOWNNAME":"東區","LI":"東聖里","LIN":"15鄰","STREET":"中華東路","SECT":"二段","MAREA":" ","LANE":"７３巷","ALLEY":" ","HOUSE_NO":"７號之４地下層","E_COORD97":171459.17000000001,"N_COORD97":2543067.3900000001,"ADDRESS":"中華東路二段７３巷７號之４地下層","OBJECTID":401001},"geometry":{"x":171459.17000000086,"y":2543067.3900000025}},{"attributes":{"ID":401026,"DIS_CODE":0,"TOWNNAME":"東區","LI":"東聖里","LIN":"15鄰","STREET":"中華東路","SECT":"二段","MAREA":" ","LANE":"７３巷","ALLEY":" ","HOUSE_NO":"１５號地下層","E_COORD97":171477.67999999999,"N_COORD97":2543071.5600000001,"ADDRESS":"中華東路二段７３巷１５號地下層","OBJECTID":401002},"geometry":{"x":171477.6799999997,"y":2543071.5600000042}},{"attributes":{"ID":401027,"DIS_CODE":0,"TOWNNAME":"東區","LI":"東聖里","LIN":"16鄰","STREET":"中華東路","SECT":"二段","MAREA":" ","LANE":"７３巷","ALLEY":" ","HOUSE_NO":"１０號之１","E_COORD97":171489.67000000001,"N_COORD97":2542985.9300000002,"ADDRESS":"中華東路二段７３巷１０號之１","OBJECTID":401003},"geometry":{"x":171489.67000000086,"y":2542985.9299999997}},{"attributes":{"ID":401028,"DIS_CODE":0,"TOWNNAME":"東區","LI":"東聖里","LIN":"16鄰","STREET":"中華東路","SECT":"二段","MAREA":" ","LANE":"７３巷","ALLEY":" ","HOUSE_NO":"１０號之２","E_COORD97":171490.04000000001,"N_COORD97":2542996.7599999998,"ADDRESS":"中華東路二段７３巷１０號之２","OBJECTID":401004},"geometry":{"x":171490.04000000097,"y":2542996.7599999998}},{"attributes":{"ID":401029,"DIS_CODE":0,"TOWNNAME":"東區","LI":"東聖里","LIN":"16鄰","STREET":"中華東路","SECT":"二段","MAREA":" ","LANE":"７３巷","ALLEY":" ","HOUSE_NO":"１０號之３","E_COORD97":171487.62,"N_COORD97":2543006.7999999998,"ADDRESS":"中華東路二段７３巷１０號之３","OBJECTID":401005},"geometry":{"x":171487.61999999918,"y":2543006.8000000026}},{"attributes":{"ID":401030,"DIS_CODE":0,"TOWNNAME":"東區","LI":"東聖里","LIN":"16鄰","STREET":"中華東路","SECT":"二段","MAREA":" ","LANE":"７３巷","ALLEY":" ","HOUSE_NO":"２號","E_COORD97":171454.13,"N_COORD97":2542990.02,"ADDRESS":"中華東路二段７３巷２號","OBJECTID":401006},"geometry":{"x":171454.13000000082,"y":2542990.0200000014}},{"attributes":{"ID":401031,"DIS_CODE":0,"TOWNNAME":"新營區","LI":"南紙里","LIN":"11鄰","STREET":"太子路","SECT":" ","MAREA":" ","LANE":"２００巷","ALLEY":" ","HOUSE_NO":"１１號","E_COORD97":177887.45000000001,"N_COORD97":2577903.98,"ADDRESS":"太子路２００巷１１號","OBJECTID":401007},"geometry":{"x":177887.45000000019,"y":2577903.9800000004}},{"attributes":{"ID":401032,"DIS_CODE":0,"TOWNNAME":"南區","LI":"佛壇里","LIN":"11鄰","STREET":"灣裡路","SECT":" ","MAREA":" ","LANE":"４２１巷","ALLEY":" ","HOUSE_NO":"２號","E_COORD97":166265.39000000001,"N_COORD97":2535984.6299999999,"ADDRESS":"灣裡路４２１巷２號","OBJECTID":401008},"geometry":{"x":166265.38999999966,"y":2535984.6300000008}},{"attributes":{"ID":401033,"DIS_CODE":0,"TOWNNAME":"南區","LI":"佛壇里","LIN":"11鄰","STREET":"灣裡路","SECT":" ","MAREA":" ","LANE":"４２１巷","ALLEY":" ","HOUSE_NO":"５號","E_COORD97":166273.23000000001,"N_COORD97":2536012.1600000001,"ADDRESS":"灣裡路４２１巷５號","OBJECTID":401009},"geometry":{"x":166273.23000000138,"y":2536012.160000002}},{"attributes":{"ID":401034,"DIS_CODE":0,"TOWNNAME":"南區","LI":"佛壇里","LIN":"11鄰","STREET":"灣裡路","SECT":" ","MAREA":" ","LANE":"４２１巷","ALLEY":" ","HOUSE_NO":"６號","E_COORD97":166274.04000000001,"N_COORD97":2535985.73,"ADDRESS":"灣裡路４２１巷６號","OBJECTID":401010},"geometry":{"x":166274.04000000097,"y":2535985.7300000023}},{"attributes":{"ID":401035,"DIS_CODE":0,"TOWNNAME":"南區","LI":"佛壇里","LIN":"11鄰","STREET":"灣裡路","SECT":" ","MAREA":" ","LANE":"４２１巷","ALLEY":" ","HOUSE_NO":"８號","E_COORD97":166278.09,"N_COORD97":2535986.8300000001,"ADDRESS":"灣裡路４２１巷８號","OBJECTID":401011},"geometry":{"x":166278.08999999985,"y":2535986.8300000038}},{"attributes":{"ID":401036,"DIS_CODE":0,"TOWNNAME":"北區","LI":"元寶里","LIN":"11鄰","STREET":"北園街","SECT":" ","MAREA":" ","LANE":"８巷","ALLEY":" ","HOUSE_NO":"１０號","E_COORD97":170410.14000000001,"N_COORD97":2545642.3799999999,"ADDRESS":"北園街８巷１０號","OBJECTID":401012},"geometry":{"x":170410.13999999966,"y":2545642.3800000008}},{"attributes":{"ID":401037,"DIS_CODE":0,"TOWNNAME":"北區","LI":"元寶里","LIN":"11鄰","STREET":"北園街","SECT":" ","MAREA":" ","LANE":"８巷","ALLEY":" ","HOUSE_NO":"８號","E_COORD97":170403.62,"N_COORD97":2545641.7000000002,"ADDRESS":"北園街８巷８號","OBJECTID":401013},"geometry":{"x":170403.62000000104,"y":2545641.6999999993}},{"attributes":{"ID":401038,"DIS_CODE":0,"TOWNNAME":"南區","LI":"興農里","LIN":"11鄰","STREET":"明興路","SECT":" ","MAREA":" ","LANE":"１１８１巷","ALLEY":" ","HOUSE_NO":"９５號之９","E_COORD97":167142.76000000001,"N_COORD97":2536615.3300000001,"ADDRESS":"明興路１１８１巷９５號之９","OBJECTID":401014},"geometry":{"x":167142.75999999978,"y":2536615.3300000019}},{"attributes":{"ID":401039,"DIS_CODE":0,"TOWNNAME":"安平區","LI":"西門里","LIN":"11鄰","STREET":"古堡街","SECT":" ","MAREA":" ","LANE":"８１巷","ALLEY":" ","HOUSE_NO":"９號","E_COORD97":163947.51000000001,"N_COORD97":2544807.6899999999,"ADDRESS":"古堡街８１巷９號","OBJECTID":401015},"geometry":{"x":163947.50999999978,"y":2544807.6899999995}},{"attributes":{"ID":401040,"DIS_CODE":0,"TOWNNAME":"安平區","LI":"怡平里","LIN":"11鄰","STREET":"建平十二街","SECT":" ","MAREA":" ","LANE":"１４８巷","ALLEY":" ","HOUSE_NO":"１５號","E_COORD97":165776.39000000001,"N_COORD97":2544053.4100000001,"ADDRESS":"建平十二街１４８巷１５號","OBJECTID":401016},"geometry":{"x":165776.3900000006,"y":2544053.410000002}},{"attributes":{"ID":401041,"DIS_CODE":0,"TOWNNAME":"安平區","LI":"怡平里","LIN":"11鄰","STREET":"建平十二街","SECT":" ","MAREA":" ","LANE":"１４８巷","ALLEY":" ","HOUSE_NO":"１７號","E_COORD97":165776.92000000001,"N_COORD97":2544057.6499999999,"ADDRESS":"建平十二街１４８巷１７號","OBJECTID":401017},"geometry":{"x":165776.92000000086,"y":2544057.6500000041}},{"attributes":{"ID":401042,"DIS_CODE":0,"TOWNNAME":"安平區","LI":"怡平里","LIN":"11鄰","STREET":"建平十二街","SECT":" ","MAREA":" ","LANE":"１４８巷","ALLEY":" ","HOUSE_NO":"１９號","E_COORD97":165777.17999999999,"N_COORD97":2544062.9500000002,"ADDRESS":"建平十二街１４８巷１９號","OBJECTID":401018},"geometry":{"x":165777.1799999997,"y":2544062.9499999993}},{"attributes":{"ID":401043,"DIS_CODE":0,"TOWNNAME":"新營區","LI":"大宏里","LIN":"11鄰","STREET":"三民路","SECT":" ","MAREA":" ","LANE":"８巷","ALLEY":" ","HOUSE_NO":"４１之２號","E_COORD97":180532.35999999999,"N_COORD97":2578595.7400000002,"ADDRESS":"三民路８巷４１之２號","OBJECTID":401019},"geometry":{"x":180532.36000000127,"y":2578595.7400000021}},{"attributes":{"ID":401044,"DIS_CODE":0,"TOWNNAME":"新營區","LI":"新北里","LIN":"11鄰","STREET":"三興街","SECT":" ","MAREA":" ","LANE":"３０１巷","ALLEY":" ","HOUSE_NO":"７２號","E_COORD97":179154.34,"N_COORD97":2579719.6299999999,"ADDRESS":"三興街３０１巷７２號","OBJECTID":401020},"geometry":{"x":179154.33999999985,"y":2579719.6300000027}},{"attributes":{"ID":401045,"DIS_CODE":0,"TOWNNAME":"新營區","LI":"王公里","LIN":"11鄰","STREET":"義和街","SECT":" ","MAREA":" ","LANE":"８巷","ALLEY":" ","HOUSE_NO":"２號","E_COORD97":180507.39999999999,"N_COORD97":2579089.71,"ADDRESS":"義和街８巷２號","OBJECTID":401021},"geometry":{"x":180507.40000000037,"y":2579089.7100000009}},{"attributes":{"ID":401046,"DIS_CODE":0,"TOWNNAME":"新營區","LI":"民權里","LIN":"11鄰","STREET":"信義街","SECT":" ","MAREA":" ","LANE":"５３巷","ALLEY":" ","HOUSE_NO":"１７號","E_COORD97":179833.76999999999,"N_COORD97":2578278.9199999999,"ADDRESS":"信義街５３巷１７號","OBJECTID":401022},"geometry":{"x":179833.77000000048,"y":2578278.9200000018}},{"attributes":{"ID":401047,"DIS_CODE":0,"TOWNNAME":"歸仁區","LI":"六甲里","LIN":"11鄰","STREET":"中正南路","SECT":"一段","MAREA":" ","LANE":"１２０１巷","ALLEY":" ","HOUSE_NO":"３６號","E_COORD97":176152.54000000001,"N_COORD97":2538645.8300000001,"ADDRESS":"中正南路一段１２０１巷３６號","OBJECTID":401023},"geometry":{"x":176152.54000000004,"y":2538645.8300000019}},{"attributes":{"ID":401048,"DIS_CODE":0,"TOWNNAME":"南區","LI":"喜北里","LIN":"11鄰","STREET":"喜樹路","SECT":" ","MAREA":" ","LANE":"１７８巷","ALLEY":" ","HOUSE_NO":"１２號","E_COORD97":165808.82000000001,"N_COORD97":2538214.5499999998,"ADDRESS":"喜樹路１７８巷１２號","OBJECTID":401024},"geometry":{"x":165808.8200000003,"y":2538214.5500000026}},{"attributes":{"ID":401049,"DIS_CODE":0,"TOWNNAME":"南區","LI":"喜北里","LIN":"11鄰","STREET":"喜樹路","SECT":" ","MAREA":" ","LANE":"１７８巷","ALLEY":" ","HOUSE_NO":"１號","E_COORD97":165827.85999999999,"N_COORD97":2538200.5899999999,"ADDRESS":"喜樹路１７８巷１號","OBJECTID":401025},"geometry":{"x":165827.8600000022,"y":2538200.5899999999}},{"attributes":{"ID":401050,"DIS_CODE":0,"TOWNNAME":"南區","LI":"喜北里","LIN":"11鄰","STREET":"喜樹路","SECT":" ","MAREA":" ","LANE":"１７８巷","ALLEY":" ","HOUSE_NO":"６號","E_COORD97":165841.78,"N_COORD97":2538207.3700000001,"ADDRESS":"喜樹路１７８巷６號","OBJECTID":401026},"geometry":{"x":165841.78000000212,"y":2538207.370000001}},{"attributes":{"ID":401051,"DIS_CODE":0,"TOWNNAME":"歸仁區","LI":"南保里","LIN":"11鄰","STREET":"文化街","SECT":"三段","MAREA":" ","LANE":"１６０巷","ALLEY":" ","HOUSE_NO":"６號","E_COORD97":176631.12,"N_COORD97":2541229.2599999998,"ADDRESS":"文化街三段１６０巷６號","OBJECTID":401027},"geometry":{"x":176631.12000000104,"y":2541229.2600000016}},{"attributes":{"ID":401052,"DIS_CODE":0,"TOWNNAME":"北區","LI":"延平里","LIN":"11鄰","STREET":"公園路","SECT":" ","MAREA":" ","LANE":"７８８巷","ALLEY":" ","HOUSE_NO":"５１號","E_COORD97":169239.57000000001,"N_COORD97":2545738.4500000002,"ADDRESS":"公園路７８８巷５１號","OBJECTID":401028},"geometry":{"x":169239.57000000123,"y":2545738.4499999993}},{"attributes":{"ID":401053,"DIS_CODE":0,"TOWNNAME":"新營區","LI":"民生里","LIN":"11鄰","STREET":"三民路","SECT":" ","MAREA":" ","LANE":"１８６巷","ALLEY":" ","HOUSE_NO":"５６號","E_COORD97":179133.26999999999,"N_COORD97":2578311.0499999998,"ADDRESS":"三民路１８６巷５６號","OBJECTID":401029},"geometry":{"x":179133.27000000048,"y":2578311.0500000007}},{"attributes":{"ID":401054,"DIS_CODE":0,"TOWNNAME":"新營區","LI":"民生里","LIN":"11鄰","STREET":"三民路","SECT":" ","MAREA":" ","LANE":"１８６巷","ALLEY":" ","HOUSE_NO":"２之６號","E_COORD97":179216.98999999999,"N_COORD97":2578223.27,"ADDRESS":"三民路１８６巷２之６號","OBJECTID":401030},"geometry":{"x":179216.98999999929,"y":2578223.2699999996}},{"attributes":{"ID":401055,"DIS_CODE":0,"TOWNNAME":"新營區","LI":"民生里","LIN":"11鄰","STREET":"三民路","SECT":" ","MAREA":" ","LANE":"１８６巷","ALLEY":" ","HOUSE_NO":"２之７號","E_COORD97":179213.32000000001,"N_COORD97":2578225.1499999999,"ADDRESS":"三民路１８６巷２之７號","OBJECTID":401031},"geometry":{"x":179213.32000000216,"y":2578225.1500000004}},{"attributes":{"ID":401056,"DIS_CODE":0,"TOWNNAME":"新營區","LI":"民生里","LIN":"11鄰","STREET":"三民路","SECT":" ","MAREA":" ","LANE":"１８６巷","ALLEY":" ","HOUSE_NO":"２之８號","E_COORD97":179208.85999999999,"N_COORD97":2578227.3300000001,"ADDRESS":"三民路１８６巷２之８號","OBJECTID":401032},"geometry":{"x":179208.86000000034,"y":2578227.3300000001}},{"attributes":{"ID":401057,"DIS_CODE":0,"TOWNNAME":"新化區","LI":"協興里","LIN":"11鄰","STREET":"太平街","SECT":" ","MAREA":" ","LANE":"１５０巷","ALLEY":" ","HOUSE_NO":"２４０號","E_COORD97":178336.62,"N_COORD97":2548955.25,"ADDRESS":"太平街１５０巷２４０號","OBJECTID":401033},"geometry":{"x":178336.62000000104,"y":2548955.25}},{"attributes":{"ID":401058,"DIS_CODE":0,"TOWNNAME":"新化區","LI":"太平里","LIN":"11鄰","STREET":"中正路","SECT":" ","MAREA":" ","LANE":"７０７巷","ALLEY":" ","HOUSE_NO":"３１號","E_COORD97":178606.06,"N_COORD97":2549102.25,"ADDRESS":"中正路７０７巷３１號","OBJECTID":401034},"geometry":{"x":178606.06000000052,"y":2549102.2500000019}},{"attributes":{"ID":401059,"DIS_CODE":0,"TOWNNAME":"新化區","LI":"護國里","LIN":"11鄰","STREET":"中山路","SECT":" ","MAREA":" ","LANE":"１９巷","ALLEY":" ","HOUSE_NO":"４１號","E_COORD97":180443.60999999999,"N_COORD97":2549496.25,"ADDRESS":"中山路１９巷４１號","OBJECTID":401035},"geometry":{"x":180443.6099999994,"y":2549496.2500000019}},{"attributes":{"ID":401060,"DIS_CODE":0,"TOWNNAME":"東區","LI":"德光里","LIN":"11鄰","STREET":"崇德三街","SECT":" ","MAREA":" ","LANE":"６２巷","ALLEY":" ","HOUSE_NO":"１號","E_COORD97":170292.14999999999,"N_COORD97":2542257.8399999999,"ADDRESS":"崇德三街６２巷１號","OBJECTID":401036},"geometry":{"x":170292.15000000037,"y":2542257.8399999999}},{"attributes":{"ID":401061,"DIS_CODE":0,"TOWNNAME":"東區","LI":"德光里","LIN":"11鄰","STREET":"崇德三街","SECT":" ","MAREA":" ","LANE":"６２巷","ALLEY":" ","HOUSE_NO":"２號","E_COORD97":170281.09,"N_COORD97":2542243.0499999998,"ADDRESS":"崇德三街６２巷２號","OBJECTID":401037},"geometry":{"x":170281.09000000078,"y":2542243.0500000026}},{"attributes":{"ID":401062,"DIS_CODE":0,"TOWNNAME":"南區","LI":"文南里","LIN":"11鄰","STREET":"美南街","SECT":" ","MAREA":" ","LANE":"１４８巷","ALLEY":" ","HOUSE_NO":"１６號","E_COORD97":166665.07000000001,"N_COORD97":2542838.3599999999,"ADDRESS":"美南街１４８巷１６號","OBJECTID":401038},"geometry":{"x":166665.0700000003,"y":2542838.3600000013}},{"attributes":{"ID":401063,"DIS_CODE":0,"TOWNNAME":"南區","LI":"文南里","LIN":"11鄰","STREET":"美南街","SECT":" ","MAREA":" ","LANE":"１４８巷","ALLEY":" ","HOUSE_NO":"１８號","E_COORD97":166658.54999999999,"N_COORD97":2542839.1200000001,"ADDRESS":"美南街１４８巷１８號","OBJECTID":401039},"geometry":{"x":166658.55000000075,"y":2542839.1200000029}},{"attributes":{"ID":401064,"DIS_CODE":0,"TOWNNAME":"南區","LI":"文南里","LIN":"11鄰","STREET":"美南街","SECT":" ","MAREA":" ","LANE":"１４８巷","ALLEY":" ","HOUSE_NO":"２０號","E_COORD97":166652.79999999999,"N_COORD97":2542839.1200000001,"ADDRESS":"美南街１４８巷２０號","OBJECTID":401040},"geometry":{"x":166652.79999999981,"y":2542839.1200000029}},{"attributes":{"ID":401065,"DIS_CODE":0,"TOWNNAME":"南區","LI":"竹溪里","LIN":"11鄰","STREET":"健康路","SECT":"一段","MAREA":" ","LANE":"１３３巷","ALLEY":" ","HOUSE_NO":"６２號","E_COORD97":168850.73000000001,"N_COORD97":2542224.6099999999,"ADDRESS":"健康路一段１３３巷６２號","OBJECTID":401041},"geometry":{"x":168850.73000000045,"y":2542224.6099999994}},{"attributes":{"ID":401066,"DIS_CODE":0,"TOWNNAME":"南區","LI":"竹溪里","LIN":"11鄰","STREET":"健康路","SECT":"一段","MAREA":" ","LANE":"１３３巷","ALLEY":" ","HOUSE_NO":"６４號","E_COORD97":168846.39999999999,"N_COORD97":2542224.0699999998,"ADDRESS":"健康路一段１３３巷６４號","OBJECTID":401042},"geometry":{"x":168846.40000000037,"y":2542224.0700000022}},{"attributes":{"ID":401067,"DIS_CODE":0,"TOWNNAME":"南區","LI":"竹溪里","LIN":"11鄰","STREET":"健康路","SECT":"一段","MAREA":" ","LANE":"１３３巷","ALLEY":" ","HOUSE_NO":"６６號","E_COORD97":168841.53,"N_COORD97":2542225.1499999999,"ADDRESS":"健康路一段１３３巷６６號","OBJECTID":401043},"geometry":{"x":168841.53000000026,"y":2542225.1500000004}},{"attributes":{"ID":401068,"DIS_CODE":0,"TOWNNAME":"南區","LI":"竹溪里","LIN":"11鄰","STREET":"體育路","SECT":" ","MAREA":" ","LANE":"４３巷","ALLEY":" ","HOUSE_NO":"３９號","E_COORD97":168821.73000000001,"N_COORD97":2542199.5899999999,"ADDRESS":"體育路４３巷３９號","OBJECTID":401044},"geometry":{"x":168821.73000000045,"y":2542199.5900000036}},{"attributes":{"ID":401069,"DIS_CODE":0,"TOWNNAME":"南區","LI":"竹溪里","LIN":"11鄰","STREET":"體育路","SECT":" ","MAREA":" ","LANE":"４３巷","ALLEY":" ","HOUSE_NO":"４１號","E_COORD97":168825.54000000001,"N_COORD97":2542199.5899999999,"ADDRESS":"體育路４３巷４１號","OBJECTID":401045},"geometry":{"x":168825.54000000097,"y":2542199.5900000036}},{"attributes":{"ID":401070,"DIS_CODE":0,"TOWNNAME":"新化區","LI":"豐榮里","LIN":"13鄰","STREET":"民治路","SECT":" ","MAREA":" ","LANE":"１８巷","ALLEY":" ","HOUSE_NO":"７號","E_COORD97":178769.56,"N_COORD97":2548022.25,"ADDRESS":"民治路１８巷７號","OBJECTID":401046},"geometry":{"x":178769.55999999959,"y":2548022.25}},{"attributes":{"ID":401071,"DIS_CODE":0,"TOWNNAME":"南區","LI":"竹溪里","LIN":"11鄰","STREET":"體育路","SECT":" ","MAREA":" ","LANE":"４３巷","ALLEY":" ","HOUSE_NO":"３１號","E_COORD97":168823.12,"N_COORD97":2542220.3700000001,"ADDRESS":"體育路４３巷３１號","OBJECTID":401047},"geometry":{"x":168823.12000000104,"y":2542220.3700000029}},{"attributes":{"ID":401072,"DIS_CODE":0,"TOWNNAME":"南區","LI":"竹溪里","LIN":"11鄰","STREET":"體育路","SECT":" ","MAREA":" ","LANE":"４３巷","ALLEY":" ","HOUSE_NO":"３３號","E_COORD97":168824.5,"N_COORD97":2542220.3700000001,"ADDRESS":"體育路４３巷３３號","OBJECTID":401048},"geometry":{"x":168824.5,"y":2542220.3700000029}},{"attributes":{"ID":401073,"DIS_CODE":0,"TOWNNAME":"南區","LI":"竹溪里","LIN":"11鄰","STREET":"體育路","SECT":" ","MAREA":" ","LANE":"４３巷","ALLEY":" ","HOUSE_NO":"３５號","E_COORD97":168808.20000000001,"N_COORD97":2542201.3199999998,"ADDRESS":"體育路４３巷３５號","OBJECTID":401049},"geometry":{"x":168808.20000000019,"y":2542201.3200000003}},{"attributes":{"ID":401074,"DIS_CODE":0,"TOWNNAME":"南區","LI":"竹溪里","LIN":"11鄰","STREET":"健康路","SECT":"一段","MAREA":" ","LANE":"１３３巷","ALLEY":" ","HOUSE_NO":"７０號","E_COORD97":168845.85999999999,"N_COORD97":2542194.8799999999,"ADDRESS":"健康路一段１３３巷７０號","OBJECTID":401050},"geometry":{"x":168845.86000000127,"y":2542194.879999999}},{"attributes":{"ID":401075,"DIS_CODE":0,"TOWNNAME":"南區","LI":"竹溪里","LIN":"11鄰","STREET":"健康路","SECT":"一段","MAREA":" ","LANE":"１３３巷","ALLEY":" ","HOUSE_NO":"７２號","E_COORD97":168851.26999999999,"N_COORD97":2542195.4199999999,"ADDRESS":"健康路一段１３３巷７２號","OBJECTID":401051},"geometry":{"x":168851.26999999955,"y":2542195.4200000018}},{"attributes":{"ID":401076,"DIS_CODE":0,"TOWNNAME":"南區","LI":"竹溪里","LIN":"11鄰","STREET":"健康路","SECT":"一段","MAREA":" ","LANE":"１３３巷","ALLEY":" ","HOUSE_NO":"７４號","E_COORD97":168857.76999999999,"N_COORD97":2542193.2599999998,"ADDRESS":"健康路一段１３３巷７４號","OBJECTID":401052},"geometry":{"x":168857.76999999955,"y":2542193.2599999998}},{"attributes":{"ID":401077,"DIS_CODE":0,"TOWNNAME":"南區","LI":"府南里","LIN":"11鄰","STREET":"永成路","SECT":"三段","MAREA":" ","LANE":"４３２巷","ALLEY":" ","HOUSE_NO":"１１號","E_COORD97":167553.76999999999,"N_COORD97":2541113.6899999999,"ADDRESS":"永成路三段４３２巷１１號","OBJECTID":401053},"geometry":{"x":167553.77000000048,"y":2541113.6900000032}},{"attributes":{"ID":401078,"DIS_CODE":0,"TOWNNAME":"南區","LI":"府南里","LIN":"11鄰","STREET":"永成路","SECT":"三段","MAREA":" ","LANE":"４３２巷","ALLEY":" ","HOUSE_NO":"１３號","E_COORD97":167560.17000000001,"N_COORD97":2541116.1000000001,"ADDRESS":"永成路三段４３２巷１３號","OBJECTID":401054},"geometry":{"x":167560.17000000086,"y":2541116.0999999996}},{"attributes":{"ID":401079,"DIS_CODE":0,"TOWNNAME":"南區","LI":"府南里","LIN":"11鄰","STREET":"永成路","SECT":"三段","MAREA":" ","LANE":"４３２巷","ALLEY":" ","HOUSE_NO":"１５號","E_COORD97":167566.41,"N_COORD97":2541117.3799999999,"ADDRESS":"永成路三段４３２巷１５號","OBJECTID":401055},"geometry":{"x":167566.40999999922,"y":2541117.379999999}},{"attributes":{"ID":401080,"DIS_CODE":0,"TOWNNAME":"南區","LI":"府南里","LIN":"11鄰","STREET":"永成路","SECT":"三段","MAREA":" ","LANE":"４３２巷","ALLEY":" ","HOUSE_NO":"１７號","E_COORD97":167571.38,"N_COORD97":2541117.3799999999,"ADDRESS":"永成路三段４３２巷１７號","OBJECTID":401056},"geometry":{"x":167571.37999999989,"y":2541117.379999999}},{"attributes":{"ID":401081,"DIS_CODE":0,"TOWNNAME":"南區","LI":"府南里","LIN":"11鄰","STREET":"永成路","SECT":"三段","MAREA":" ","LANE":"４３２巷","ALLEY":" ","HOUSE_NO":"１９號","E_COORD97":167575.51999999999,"N_COORD97":2541118.21,"ADDRESS":"永成路三段４３２巷１９號","OBJECTID":401057},"geometry":{"x":167575.52000000048,"y":2541118.2100000046}},{"attributes":{"ID":401082,"DIS_CODE":0,"TOWNNAME":"南區","LI":"府南里","LIN":"11鄰","STREET":"永成路","SECT":"三段","MAREA":" ","LANE":"４３２巷","ALLEY":" ","HOUSE_NO":"１號","E_COORD97":167523.92999999999,"N_COORD97":2541106.5299999998,"ADDRESS":"永成路三段４３２巷１號","OBJECTID":401058},"geometry":{"x":167523.93000000063,"y":2541106.5299999993}},{"attributes":{"ID":401083,"DIS_CODE":0,"TOWNNAME":"南區","LI":"府南里","LIN":"11鄰","STREET":"永成路","SECT":"三段","MAREA":" ","LANE":"４３２巷","ALLEY":" ","HOUSE_NO":"２１號","E_COORD97":167580.19,"N_COORD97":2541118.96,"ADDRESS":"永成路三段４３２巷２１號","OBJECTID":401059},"geometry":{"x":167580.19000000227,"y":2541118.9600000009}},{"attributes":{"ID":401084,"DIS_CODE":0,"TOWNNAME":"東區","LI":"崇信里","LIN":"11鄰","STREET":"崇善一街","SECT":" ","MAREA":" ","LANE":"４３巷","ALLEY":" ","HOUSE_NO":"１２之１號","E_COORD97":170735.79000000001,"N_COORD97":2542242.5600000001,"ADDRESS":"崇善一街４３巷１２之１號","OBJECTID":401060},"geometry":{"x":170735.79000000097,"y":2542242.5600000024}},{"attributes":{"ID":401085,"DIS_CODE":0,"TOWNNAME":"仁德區","LI":"太子里","LIN":"11鄰","STREET":"長興二街","SECT":" ","MAREA":" ","LANE":"８４巷","ALLEY":" ","HOUSE_NO":"３號","E_COORD97":174229.67999999999,"N_COORD97":2543724.5099999998,"ADDRESS":"長興二街８４巷３號","OBJECTID":401061},"geometry":{"x":174229.68000000156,"y":2543724.5099999998}},{"attributes":{"ID":401086,"DIS_CODE":0,"TOWNNAME":"南區","LI":"明興里","LIN":"11鄰","STREET":"永興四街","SECT":" ","MAREA":" ","LANE":"６５巷","ALLEY":" ","HOUSE_NO":"１１號","E_COORD97":167099.62,"N_COORD97":2540521.6299999999,"ADDRESS":"永興四街６５巷１１號","OBJECTID":401062},"geometry":{"x":167099.62000000104,"y":2540521.6300000008}},{"attributes":{"ID":401087,"DIS_CODE":0,"TOWNNAME":"南區","LI":"明興里","LIN":"11鄰","STREET":"永興四街","SECT":" ","MAREA":" ","LANE":"６５巷","ALLEY":" ","HOUSE_NO":"１２號","E_COORD97":167083.73000000001,"N_COORD97":2540548.4100000001,"ADDRESS":"永興四街６５巷１２號","OBJECTID":401063},"geometry":{"x":167083.73000000138,"y":2540548.4100000001}},{"attributes":{"ID":401088,"DIS_CODE":0,"TOWNNAME":"南區","LI":"明興里","LIN":"11鄰","STREET":"永興四街","SECT":" ","MAREA":" ","LANE":"６５巷","ALLEY":" ","HOUSE_NO":"１４號","E_COORD97":167083.98999999999,"N_COORD97":2540544.3100000001,"ADDRESS":"永興四街６５巷１４號","OBJECTID":401064},"geometry":{"x":167083.99000000022,"y":2540544.3100000042}},{"attributes":{"ID":401089,"DIS_CODE":0,"TOWNNAME":"南區","LI":"明興里","LIN":"11鄰","STREET":"永興四街","SECT":" ","MAREA":" ","LANE":"６５巷","ALLEY":" ","HOUSE_NO":"２０號","E_COORD97":167084.32999999999,"N_COORD97":2540532.3500000001,"ADDRESS":"永興四街６５巷２０號","OBJECTID":401065},"geometry":{"x":167084.33000000101,"y":2540532.3499999996}},{"attributes":{"ID":401090,"DIS_CODE":0,"TOWNNAME":"南區","LI":"明興里","LIN":"11鄰","STREET":"永興四街","SECT":" ","MAREA":" ","LANE":"６５巷","ALLEY":" ","HOUSE_NO":"２２號","E_COORD97":167084.5,"N_COORD97":2540528.5299999998,"ADDRESS":"永興四街６５巷２２號","OBJECTID":401066},"geometry":{"x":167084.50000000093,"y":2540528.5300000012}},{"attributes":{"ID":401091,"DIS_CODE":0,"TOWNNAME":"南區","LI":"明興里","LIN":"11鄰","STREET":"永興四街","SECT":" ","MAREA":" ","LANE":"６５巷","ALLEY":" ","HOUSE_NO":"２４號","E_COORD97":167084.75,"N_COORD97":2540524.6800000002,"ADDRESS":"永興四街６５巷２４號","OBJECTID":401067},"geometry":{"x":167084.75000000093,"y":2540524.6800000016}},{"attributes":{"ID":401092,"DIS_CODE":0,"TOWNNAME":"南區","LI":"明興里","LIN":"11鄰","STREET":"永興四街","SECT":" ","MAREA":" ","LANE":"６５巷","ALLEY":" ","HOUSE_NO":"２６號","E_COORD97":167084.67000000001,"N_COORD97":2540520.9500000002,"ADDRESS":"永興四街６５巷２６號","OBJECTID":401068},"geometry":{"x":167084.66999999899,"y":2540520.9499999993}},{"attributes":{"ID":401093,"DIS_CODE":0,"TOWNNAME":"東區","LI":"富強里","LIN":"11鄰","STREET":"中華東路","SECT":"二段","MAREA":" ","LANE":"９６巷","ALLEY":" ","HOUSE_NO":"５３號","E_COORD97":171155.51999999999,"N_COORD97":2542828.8500000001,"ADDRESS":"中華東路二段９６巷５３號","OBJECTID":401069},"geometry":{"x":171155.52000000142,"y":2542828.8500000015}},{"attributes":{"ID":401094,"DIS_CODE":0,"TOWNNAME":"中西區","LI":"銀同里","LIN":"11鄰","STREET":"開山路","SECT":" ","MAREA":" ","LANE":"３５巷","ALLEY":" ","HOUSE_NO":"７號之１","E_COORD97":168674.01999999999,"N_COORD97":2543499.7999999998,"ADDRESS":"開山路３５巷７號之１","OBJECTID":401070},"geometry":{"x":168674.02000000048,"y":2543499.8000000007}},{"attributes":{"ID":401095,"DIS_CODE":0,"TOWNNAME":"中西區","LI":"仙草里","LIN":"11鄰","STREET":"府緯街","SECT":" ","MAREA":" ","LANE":"９巷","ALLEY":" ","HOUSE_NO":"２６號","E_COORD97":167841.89999999999,"N_COORD97":2542692.9900000002,"ADDRESS":"府緯街９巷２６號","OBJECTID":401071},"geometry":{"x":167841.9000000013,"y":2542692.9900000021}},{"attributes":{"ID":401096,"DIS_CODE":0,"TOWNNAME":"中西區","LI":"仙草里","LIN":"11鄰","STREET":"府緯街","SECT":" ","MAREA":" ","LANE":"９巷","ALLEY":" ","HOUSE_NO":"２０號","E_COORD97":167857.54999999999,"N_COORD97":2542692,"ADDRESS":"府緯街９巷２０號","OBJECTID":401072},"geometry":{"x":167857.55000000075,"y":2542692.0000000037}},{"attributes":{"ID":401097,"DIS_CODE":0,"TOWNNAME":"中西區","LI":"仙草里","LIN":"11鄰","STREET":"府緯街","SECT":" ","MAREA":" ","LANE":"９巷","ALLEY":" ","HOUSE_NO":"１３號","E_COORD97":167876.57000000001,"N_COORD97":2542658.4900000002,"ADDRESS":"府緯街９巷１３號","OBJECTID":401073},"geometry":{"x":167876.57000000123,"y":2542658.4900000039}},{"attributes":{"ID":401098,"DIS_CODE":0,"TOWNNAME":"中西區","LI":"仙草里","LIN":"11鄰","STREET":"府緯街","SECT":" ","MAREA":" ","LANE":"９巷","ALLEY":" ","HOUSE_NO":"１５號","E_COORD97":167877.56,"N_COORD97":2542662.8399999999,"ADDRESS":"府緯街９巷１５號","OBJECTID":401074},"geometry":{"x":167877.56000000052,"y":2542662.8400000017}},{"attributes":{"ID":401099,"DIS_CODE":0,"TOWNNAME":"中西區","LI":"仙草里","LIN":"11鄰","STREET":"府緯街","SECT":" ","MAREA":" ","LANE":"９巷","ALLEY":" ","HOUSE_NO":"１７號","E_COORD97":167876.76999999999,"N_COORD97":2542668.7799999998,"ADDRESS":"府緯街９巷１７號","OBJECTID":401075},"geometry":{"x":167876.76999999955,"y":2542668.7800000031}},{"attributes":{"ID":401100,"DIS_CODE":0,"TOWNNAME":"中西區","LI":"仙草里","LIN":"11鄰","STREET":"府緯街","SECT":" ","MAREA":" ","LANE":"９巷","ALLEY":" ","HOUSE_NO":"１９號","E_COORD97":167876.76999999999,"N_COORD97":2542675.3199999998,"ADDRESS":"府緯街９巷１９號","OBJECTID":401076},"geometry":{"x":167876.76999999955,"y":2542675.3200000003}},{"attributes":{"ID":401101,"DIS_CODE":0,"TOWNNAME":"中西區","LI":"安海里","LIN":"13鄰","STREET":"環河街","SECT":" ","MAREA":" ","LANE":" ","ALLEY":" ","HOUSE_NO":"１１２號","E_COORD97":167248.06,"N_COORD97":2544038.46,"ADDRESS":"環河街１１２號","OBJECTID":401077},"geometry":{"x":167248.06000000052,"y":2544038.4600000009}},{"attributes":{"ID":401102,"DIS_CODE":0,"TOWNNAME":"中西區","LI":"仙草里","LIN":"11鄰","STREET":"府緯街","SECT":" ","MAREA":" ","LANE":"９巷","ALLEY":" ","HOUSE_NO":"２１號","E_COORD97":167866.67000000001,"N_COORD97":2542658.0899999999,"ADDRESS":"府緯街９巷２１號","OBJECTID":401078},"geometry":{"x":167866.67000000086,"y":2542658.0900000017}},{"attributes":{"ID":401103,"DIS_CODE":0,"TOWNNAME":"中西區","LI":"仙草里","LIN":"11鄰","STREET":"府緯街","SECT":" ","MAREA":" ","LANE":"９巷","ALLEY":" ","HOUSE_NO":"２３號","E_COORD97":167862.89999999999,"N_COORD97":2542663.2400000002,"ADDRESS":"府緯街９巷２３號","OBJECTID":401079},"geometry":{"x":167862.90000000037,"y":2542663.2400000039}},{"attributes":{"ID":401104,"DIS_CODE":0,"TOWNNAME":"中西區","LI":"仙草里","LIN":"11鄰","STREET":"府緯街","SECT":" ","MAREA":" ","LANE":"９巷","ALLEY":" ","HOUSE_NO":"２５號","E_COORD97":167862.10999999999,"N_COORD97":2542669.1800000002,"ADDRESS":"府緯街９巷２５號","OBJECTID":401080},"geometry":{"x":167862.1100000022,"y":2542669.1799999997}},{"attributes":{"ID":401105,"DIS_CODE":0,"TOWNNAME":"中西區","LI":"仙草里","LIN":"11鄰","STREET":"府緯街","SECT":" ","MAREA":" ","LANE":"９巷","ALLEY":" ","HOUSE_NO":"２７號","E_COORD97":167862.10999999999,"N_COORD97":2542674.9199999999,"ADDRESS":"府緯街９巷２７號","OBJECTID":401081},"geometry":{"x":167862.1100000022,"y":2542674.9199999999}},{"attributes":{"ID":401106,"DIS_CODE":0,"TOWNNAME":"中西區","LI":"銀同里","LIN":"11鄰","STREET":"開山路","SECT":" ","MAREA":" ","LANE":"３５巷","ALLEY":" ","HOUSE_NO":"２５號","E_COORD97":168683.42000000001,"N_COORD97":2543488.0299999998,"ADDRESS":"開山路３５巷２５號","OBJECTID":401082},"geometry":{"x":168683.42000000179,"y":2543488.0300000012}},{"attributes":{"ID":401107,"DIS_CODE":0,"TOWNNAME":"中西區","LI":"銀同里","LIN":"11鄰","STREET":"開山路","SECT":" ","MAREA":" ","LANE":"３５巷","ALLEY":" ","HOUSE_NO":"２７號","E_COORD97":168686.22,"N_COORD97":2543484.7999999998,"ADDRESS":"開山路３５巷２７號","OBJECTID":401083},"geometry":{"x":168686.2200000016,"y":2543484.8000000026}},{"attributes":{"ID":401108,"DIS_CODE":0,"TOWNNAME":"中西區","LI":"仙草里","LIN":"11鄰","STREET":"府緯街","SECT":" ","MAREA":" ","LANE":"９巷","ALLEY":" ","HOUSE_NO":"１４號","E_COORD97":167884.70000000001,"N_COORD97":2542691.0099999998,"ADDRESS":"府緯街９巷１４號","OBJECTID":401084},"geometry":{"x":167884.70000000019,"y":2542691.0099999998}},{"attributes":{"ID":401109,"DIS_CODE":0,"TOWNNAME":"中西區","LI":"仙草里","LIN":"11鄰","STREET":"府緯街","SECT":" ","MAREA":" ","LANE":"９巷","ALLEY":" ","HOUSE_NO":"１６號","E_COORD97":167875.78,"N_COORD97":2542690.8199999998,"ADDRESS":"府緯街９巷１６號","OBJECTID":401085},"geometry":{"x":167875.78000000026,"y":2542690.8200000022}},{"attributes":{"ID":401110,"DIS_CODE":0,"TOWNNAME":"中西區","LI":"仙草里","LIN":"11鄰","STREET":"府緯街","SECT":" ","MAREA":" ","LANE":"９巷","ALLEY":" ","HOUSE_NO":"１８號","E_COORD97":167869.64000000001,"N_COORD97":2542691.0099999998,"ADDRESS":"府緯街９巷１８號","OBJECTID":401086},"geometry":{"x":167869.64000000153,"y":2542691.0099999998}},{"attributes":{"ID":401111,"DIS_CODE":0,"TOWNNAME":"中西區","LI":"仙草里","LIN":"11鄰","STREET":"府緯街","SECT":" ","MAREA":" ","LANE":"９巷","ALLEY":" ","HOUSE_NO":"１１號","E_COORD97":167886.64000000001,"N_COORD97":2542669.2799999998,"ADDRESS":"府緯街９巷１１號","OBJECTID":401087},"geometry":{"x":167886.64000000153,"y":2542669.2800000012}},{"attributes":{"ID":401112,"DIS_CODE":0,"TOWNNAME":"中西區","LI":"仙草里","LIN":"11鄰","STREET":"府緯街","SECT":" ","MAREA":" ","LANE":"９巷","ALLEY":" ","HOUSE_NO":"９號","E_COORD97":167890.76000000001,"N_COORD97":2542668.9500000002,"ADDRESS":"府緯街９巷９號","OBJECTID":401088},"geometry":{"x":167890.75999999978,"y":2542668.9500000011}},{"attributes":{"ID":401113,"DIS_CODE":0,"TOWNNAME":"永康區","LI":"神洲里","LIN":"11鄰","STREET":"忠孝路","SECT":" ","MAREA":" ","LANE":"１５２巷","ALLEY":" ","HOUSE_NO":"３６號","E_COORD97":172244.42999999999,"N_COORD97":2545070.8999999999,"ADDRESS":"忠孝路１５２巷３６號","OBJECTID":401089},"geometry":{"x":172244.4299999997,"y":2545070.9000000022}},{"attributes":{"ID":401114,"DIS_CODE":0,"TOWNNAME":"永康區","LI":"崑山里","LIN":"11鄰","STREET":"大灣路","SECT":" ","MAREA":" ","LANE":"１０２０巷","ALLEY":" ","HOUSE_NO":"１號","E_COORD97":173430.64000000001,"N_COORD97":2544398.2400000002,"ADDRESS":"大灣路１０２０巷１號","OBJECTID":401090},"geometry":{"x":173430.63999999966,"y":2544398.2400000002}},{"attributes":{"ID":401115,"DIS_CODE":0,"TOWNNAME":"永康區","LI":"東灣里","LIN":"11鄰","STREET":"立興街","SECT":" ","MAREA":" ","LANE":"２８巷","ALLEY":" ","HOUSE_NO":"１１號","E_COORD97":174662.23000000001,"N_COORD97":2544910.4900000002,"ADDRESS":"立興街２８巷１１號","OBJECTID":401091},"geometry":{"x":174662.23000000045,"y":2544910.4900000021}},{"attributes":{"ID":401116,"DIS_CODE":0,"TOWNNAME":"南區","LI":"開南里","LIN":"11鄰","STREET":"新建路","SECT":" ","MAREA":" ","LANE":"５２巷","ALLEY":" ","HOUSE_NO":"１１號","E_COORD97":166403.10000000001,"N_COORD97":2540540.9399999999,"ADDRESS":"新建路５２巷１１號","OBJECTID":401092},"geometry":{"x":166403.09999999963,"y":2540540.9399999995}},{"attributes":{"ID":401117,"DIS_CODE":0,"TOWNNAME":"南區","LI":"開南里","LIN":"11鄰","STREET":"新建路","SECT":" ","MAREA":" ","LANE":"５２巷","ALLEY":" ","HOUSE_NO":"１號","E_COORD97":166443.75,"N_COORD97":2540541.1099999999,"ADDRESS":"新建路５２巷１號","OBJECTID":401093},"geometry":{"x":166443.75000000093,"y":2540541.1100000031}},{"attributes":{"ID":401118,"DIS_CODE":0,"TOWNNAME":"南區","LI":"開南里","LIN":"11鄰","STREET":"新建路","SECT":" ","MAREA":" ","LANE":"５２巷","ALLEY":" ","HOUSE_NO":"３號","E_COORD97":166439.29000000001,"N_COORD97":2540541.25,"ADDRESS":"新建路５２巷３號","OBJECTID":401094},"geometry":{"x":166439.29000000004,"y":2540541.2500000019}},{"attributes":{"ID":401119,"DIS_CODE":0,"TOWNNAME":"南區","LI":"新昌里","LIN":"11鄰","STREET":"西門路","SECT":"一段","MAREA":" ","LANE":"５９７巷","ALLEY":" ","HOUSE_NO":"１１號","E_COORD97":167666.35000000001,"N_COORD97":2542817.27,"ADDRESS":"西門路一段５９７巷１１號","OBJECTID":401095},"geometry":{"x":167666.35000000149,"y":2542817.2699999996}},{"attributes":{"ID":401120,"DIS_CODE":0,"TOWNNAME":"南區","LI":"新昌里","LIN":"11鄰","STREET":"西門路","SECT":"一段","MAREA":" ","LANE":"５９７巷","ALLEY":" ","HOUSE_NO":"１２號","E_COORD97":167668.28,"N_COORD97":2542829.48,"ADDRESS":"西門路一段５９７巷１２號","OBJECTID":401096},"geometry":{"x":167668.28000000119,"y":2542829.4800000023}},{"attributes":{"ID":401121,"DIS_CODE":0,"TOWNNAME":"新化區","LI":"護國里","LIN":"11鄰","STREET":"中山路","SECT":" ","MAREA":" ","LANE":"１９巷","ALLEY":" ","HOUSE_NO":"１５號之１０","E_COORD97":180426.10000000001,"N_COORD97":2549745.2599999998,"ADDRESS":"中山路１９巷１５號之１０","OBJECTID":401097},"geometry":{"x":180426.10000000149,"y":2549745.2600000035}},{"attributes":{"ID":401122,"DIS_CODE":0,"TOWNNAME":"永康區","LI":"西勢里","LIN":"11鄰","STREET":"廣興街","SECT":" ","MAREA":" ","LANE":"６９巷","ALLEY":" ","HOUSE_NO":"１１號","E_COORD97":175918.09,"N_COORD97":2546623.29,"ADDRESS":"廣興街６９巷１１號","OBJECTID":401098},"geometry":{"x":175918.08999999985,"y":2546623.290000001}},{"attributes":{"ID":401123,"DIS_CODE":0,"TOWNNAME":"永康區","LI":"西勢里","LIN":"11鄰","STREET":"廣興街","SECT":" ","MAREA":" ","LANE":"５３巷","ALLEY":" ","HOUSE_NO":"１號","E_COORD97":175873.98000000001,"N_COORD97":2546607.46,"ADDRESS":"廣興街５３巷１號","OBJECTID":401099},"geometry":{"x":175873.98000000045,"y":2546607.4600000009}},{"attributes":{"ID":401124,"DIS_CODE":0,"TOWNNAME":"南區","LI":"興農里","LIN":"11鄰","STREET":"萬年五街","SECT":" ","MAREA":" ","LANE":"２０巷","ALLEY":" ","HOUSE_NO":"１８號","E_COORD97":166831.92000000001,"N_COORD97":2536381.0499999998,"ADDRESS":"萬年五街２０巷１８號","OBJECTID":401100},"geometry":{"x":166831.91999999993,"y":2536381.0500000026}},{"attributes":{"ID":401125,"DIS_CODE":0,"TOWNNAME":"南區","LI":"興農里","LIN":"11鄰","STREET":"萬年五街","SECT":" ","MAREA":" ","LANE":"４０巷","ALLEY":" ","HOUSE_NO":"２０號","E_COORD97":166884.57999999999,"N_COORD97":2536421.5299999998,"ADDRESS":"萬年五街４０巷２０號","OBJECTID":401101},"geometry":{"x":166884.58000000101,"y":2536421.5299999993}},{"attributes":{"ID":401126,"DIS_CODE":0,"TOWNNAME":"中西區","LI":"三民里","LIN":"11鄰","STREET":"民族路","SECT":"二段","MAREA":" ","LANE":"１７３巷","ALLEY":" ","HOUSE_NO":"３號","E_COORD97":168664.26000000001,"N_COORD97":2543928.46,"ADDRESS":"民族路二段１７３巷３號","OBJECTID":401102},"geometry":{"x":168664.26000000071,"y":2543928.4600000028}},{"attributes":{"ID":401127,"DIS_CODE":0,"TOWNNAME":"中西區","LI":"三民里","LIN":"11鄰","STREET":"民族路","SECT":"二段","MAREA":" ","LANE":"１７３巷","ALLEY":" ","HOUSE_NO":"５號","E_COORD97":168660.59,"N_COORD97":2543917.46,"ADDRESS":"民族路二段１７３巷５號","OBJECTID":401103},"geometry":{"x":168660.59000000078,"y":2543917.4600000028}},{"attributes":{"ID":401128,"DIS_CODE":0,"TOWNNAME":"中西區","LI":"三民里","LIN":"11鄰","STREET":"民族路","SECT":"二段","MAREA":" ","LANE":"１７３巷","ALLEY":" ","HOUSE_NO":"７號","E_COORD97":168656.29999999999,"N_COORD97":2543912.3700000001,"ADDRESS":"民族路二段１７３巷７號","OBJECTID":401104},"geometry":{"x":168656.29999999981,"y":2543912.3700000029}},{"attributes":{"ID":401129,"DIS_CODE":0,"TOWNNAME":"中西區","LI":"三民里","LIN":"11鄰","STREET":"中山路","SECT":" ","MAREA":" ","LANE":"７９巷","ALLEY":" ","HOUSE_NO":"９０號","E_COORD97":168660.79000000001,"N_COORD97":2543897.0899999999,"ADDRESS":"中山路７９巷９０號","OBJECTID":401105},"geometry":{"x":168660.79000000097,"y":2543897.0899999999}},{"attributes":{"ID":401130,"DIS_CODE":0,"TOWNNAME":"中西區","LI":"三民里","LIN":"11鄰","STREET":"中山路","SECT":" ","MAREA":" ","LANE":"７９巷","ALLEY":" ","HOUSE_NO":"９２號","E_COORD97":168654.47,"N_COORD97":2543884.8700000001,"ADDRESS":"中山路７９巷９２號","OBJECTID":401106},"geometry":{"x":168654.47000000067,"y":2543884.8700000029}},{"attributes":{"ID":401131,"DIS_CODE":0,"TOWNNAME":"中西區","LI":"三民里","LIN":"11鄰","STREET":"中山路","SECT":" ","MAREA":" ","LANE":"７９巷","ALLEY":" ","HOUSE_NO":"９４號","E_COORD97":168650.59,"N_COORD97":2543886.9100000001,"ADDRESS":"中山路７９巷９４號","OBJECTID":401107},"geometry":{"x":168650.59000000078,"y":2543886.910000002}},{"attributes":{"ID":401132,"DIS_CODE":0,"TOWNNAME":"中西區","LI":"三民里","LIN":"11鄰","STREET":"中山路","SECT":" ","MAREA":" ","LANE":"７９巷","ALLEY":" ","HOUSE_NO":"９６號","E_COORD97":168645.09,"N_COORD97":2543890.1699999999,"ADDRESS":"中山路７９巷９６號","OBJECTID":401108},"geometry":{"x":168645.09000000078,"y":2543890.1699999999}},{"attributes":{"ID":401133,"DIS_CODE":0,"TOWNNAME":"東區","LI":"裕農里","LIN":"11鄰","STREET":"東寧路","SECT":" ","MAREA":" ","LANE":"５１２巷","ALLEY":" ","HOUSE_NO":"１４號","E_COORD97":171107.60999999999,"N_COORD97":2543241.2599999998,"ADDRESS":"東寧路５１２巷１４號","OBJECTID":401109},"geometry":{"x":171107.61000000034,"y":2543241.2599999998}},{"attributes":{"ID":401134,"DIS_CODE":0,"TOWNNAME":"東區","LI":"裕農里","LIN":"11鄰","STREET":"東寧路","SECT":" ","MAREA":" ","LANE":"５１２巷","ALLEY":" ","HOUSE_NO":"１６號","E_COORD97":171100.34,"N_COORD97":2543240.9300000002,"ADDRESS":"東寧路５１２巷１６號","OBJECTID":401110},"geometry":{"x":171100.33999999985,"y":2543240.9299999997}},{"attributes":{"ID":401135,"DIS_CODE":0,"TOWNNAME":"東區","LI":"裕農里","LIN":"11鄰","STREET":"東寧路","SECT":" ","MAREA":" ","LANE":"５１２巷","ALLEY":" ","HOUSE_NO":"１８號","E_COORD97":171095.39000000001,"N_COORD97":2543242.2400000002,"ADDRESS":"東寧路５１２巷１８號","OBJECTID":401111},"geometry":{"x":171095.38999999873,"y":2543242.2400000002}},{"attributes":{"ID":401136,"DIS_CODE":0,"TOWNNAME":"東區","LI":"裕農里","LIN":"11鄰","STREET":"東寧路","SECT":" ","MAREA":" ","LANE":"５１２巷","ALLEY":" ","HOUSE_NO":"２０號","E_COORD97":171089.44,"N_COORD97":2543241.2599999998,"ADDRESS":"東寧路５１２巷２０號","OBJECTID":401112},"geometry":{"x":171089.44000000134,"y":2543241.2599999998}},{"attributes":{"ID":401137,"DIS_CODE":0,"TOWNNAME":"永康區","LI":"西勢里","LIN":"11鄰","STREET":"廣興街","SECT":" ","MAREA":" ","LANE":"６９巷","ALLEY":" ","HOUSE_NO":"１９號","E_COORD97":175917.10999999999,"N_COORD97":2546659.1099999999,"ADDRESS":"廣興街６９巷１９號","OBJECTID":401113},"geometry":{"x":175917.11000000034,"y":2546659.1099999994}},{"attributes":{"ID":401138,"DIS_CODE":0,"TOWNNAME":"永康區","LI":"西勢里","LIN":"11鄰","STREET":"廣興街","SECT":" ","MAREA":" ","LANE":"５３巷","ALLEY":" ","HOUSE_NO":"８號","E_COORD97":175882.09,"N_COORD97":2546621.29,"ADDRESS":"廣興街５３巷８號","OBJECTID":401114},"geometry":{"x":175882.09000000078,"y":2546621.2899999991}},{"attributes":{"ID":401139,"DIS_CODE":0,"TOWNNAME":"永康區","LI":"\u25A0行里","LIN":"11鄰","STREET":"中正路","SECT":" ","MAREA":" ","LANE":"５１９巷","ALLEY":" ","HOUSE_NO":"２０號","E_COORD97":172135.10000000001,"N_COORD97":2548636.7400000002,"ADDRESS":"中正路５１９巷２０號","OBJECTID":401115},"geometry":{"x":172135.10000000056,"y":2548636.7400000002}},{"attributes":{"ID":401140,"DIS_CODE":0,"TOWNNAME":"安南區","LI":"海南里","LIN":"11鄰","STREET":"府安路","SECT":"七段","MAREA":" ","LANE":"３７巷","ALLEY":" ","HOUSE_NO":"１９號","E_COORD97":165961.87,"N_COORD97":2546033.7599999998,"ADDRESS":"府安路七段３７巷１９號","OBJECTID":401116},"geometry":{"x":165961.87000000104,"y":2546033.7600000016}},{"attributes":{"ID":401141,"DIS_CODE":0,"TOWNNAME":"安南區","LI":"海南里","LIN":"11鄰","STREET":"府安路","SECT":"七段","MAREA":" ","LANE":"３７巷","ALLEY":" ","HOUSE_NO":"２１號","E_COORD97":165958.76000000001,"N_COORD97":2546036.96,"ADDRESS":"府安路七段３７巷２１號","OBJECTID":401117},"geometry":{"x":165958.76000000071,"y":2546036.9600000028}},{"attributes":{"ID":401142,"DIS_CODE":0,"TOWNNAME":"東區","LI":"大學里","LIN":"11鄰","STREET":"長榮路","SECT":"三段","MAREA":" ","LANE":"６６巷","ALLEY":" ","HOUSE_NO":"２５號","E_COORD97":170312.07000000001,"N_COORD97":2543799.5699999998,"ADDRESS":"長榮路三段６６巷２５號","OBJECTID":401118},"geometry":{"x":170312.07000000123,"y":2543799.5700000003}},{"attributes":{"ID":401143,"DIS_CODE":0,"TOWNNAME":"東區","LI":"大學里","LIN":"11鄰","STREET":"長榮路","SECT":"三段","MAREA":" ","LANE":"６６巷","ALLEY":" ","HOUSE_NO":"２９號","E_COORD97":170310.48000000001,"N_COORD97":2543821.96,"ADDRESS":"長榮路三段６６巷２９號","OBJECTID":401119},"geometry":{"x":170310.48000000045,"y":2543821.9600000046}},{"attributes":{"ID":401144,"DIS_CODE":0,"TOWNNAME":"永康區","LI":"網寮里","LIN":"11鄰","STREET":"永勝街","SECT":" ","MAREA":" ","LANE":"２１８巷","ALLEY":" ","HOUSE_NO":"３號","E_COORD97":173344.56,"N_COORD97":2546496.0499999998,"ADDRESS":"永勝街２１８巷３號","OBJECTID":401120},"geometry":{"x":173344.56000000052,"y":2546496.0499999989}},{"attributes":{"ID":401145,"DIS_CODE":0,"TOWNNAME":"永康區","LI":"網寮里","LIN":"11鄰","STREET":"永勝街","SECT":" ","MAREA":" ","LANE":"２３０巷","ALLEY":" ","HOUSE_NO":"１６號","E_COORD97":173385.31,"N_COORD97":2546533.1200000001,"ADDRESS":"永勝街２３０巷１６號","OBJECTID":401121},"geometry":{"x":173385.31000000052,"y":2546533.120000001}},{"attributes":{"ID":401146,"DIS_CODE":0,"TOWNNAME":"永康區","LI":"網寮里","LIN":"11鄰","STREET":"永勝街","SECT":" ","MAREA":" ","LANE":"２２２巷","ALLEY":" ","HOUSE_NO":"９號","E_COORD97":173374.76999999999,"N_COORD97":2546514.52,"ADDRESS":"永勝街２２２巷９號","OBJECTID":401122},"geometry":{"x":173374.77000000048,"y":2546514.5199999996}},{"attributes":{"ID":401147,"DIS_CODE":0,"TOWNNAME":"永康區","LI":"網寮里","LIN":"11鄰","STREET":"永勝街","SECT":" ","MAREA":" ","LANE":"１５５巷","ALLEY":" ","HOUSE_NO":"８號","E_COORD97":173290.92999999999,"N_COORD97":2546462.2999999998,"ADDRESS":"永勝街１５５巷８號","OBJECTID":401123},"geometry":{"x":173290.93000000063,"y":2546462.3000000026}},{"attributes":{"ID":401148,"DIS_CODE":0,"TOWNNAME":"仁德區","LI":"仁義里","LIN":"11鄰","STREET":"中山路","SECT":" ","MAREA":" ","LANE":"５９１巷","ALLEY":" ","HOUSE_NO":"２號","E_COORD97":173342.56,"N_COORD97":2541299.9900000002,"ADDRESS":"中山路５９１巷２號","OBJECTID":401124},"geometry":{"x":173342.56000000052,"y":2541299.9900000021}},{"attributes":{"ID":401149,"DIS_CODE":0,"TOWNNAME":"東區","LI":"大學里","LIN":"11鄰","STREET":"長榮路","SECT":"三段","MAREA":" ","LANE":"６６巷","ALLEY":" ","HOUSE_NO":"３號","E_COORD97":170244.44,"N_COORD97":2543820.6299999999,"ADDRESS":"長榮路三段６６巷３號","OBJECTID":401125},"geometry":{"x":170244.44000000041,"y":2543820.629999999}},{"attributes":{"ID":401150,"DIS_CODE":0,"TOWNNAME":"東區","LI":"大學里","LIN":"11鄰","STREET":"長榮路","SECT":"三段","MAREA":" ","LANE":"６６巷","ALLEY":" ","HOUSE_NO":"５號之１","E_COORD97":170254.70999999999,"N_COORD97":2543821.4700000002,"ADDRESS":"長榮路三段６６巷５號之１","OBJECTID":401126},"geometry":{"x":170254.71000000089,"y":2543821.4699999988}},{"attributes":{"ID":401151,"DIS_CODE":0,"TOWNNAME":"東區","LI":"大學里","LIN":"11鄰","STREET":"長榮路","SECT":"三段","MAREA":" ","LANE":"６６巷","ALLEY":" ","HOUSE_NO":"５號","E_COORD97":170252.69,"N_COORD97":2543809.8599999999,"ADDRESS":"長榮路三段６６巷５號","OBJECTID":401127},"geometry":{"x":170252.69000000041,"y":2543809.8599999994}},{"attributes":{"ID":401152,"DIS_CODE":0,"TOWNNAME":"東區","LI":"莊敬里","LIN":"11鄰","STREET":"中華東路","SECT":"一段","MAREA":" ","LANE":"２巷","ALLEY":" ","HOUSE_NO":"１０號","E_COORD97":171461.67000000001,"N_COORD97":2544281.7000000002,"ADDRESS":"中華東路一段２巷１０號","OBJECTID":401128},"geometry":{"x":171461.66999999899,"y":2544281.6999999993}},{"attributes":{"ID":401153,"DIS_CODE":0,"TOWNNAME":"東區","LI":"莊敬里","LIN":"11鄰","STREET":"中華東路","SECT":"一段","MAREA":" ","LANE":"２巷","ALLEY":" ","HOUSE_NO":"１號","E_COORD97":171508.87,"N_COORD97":2544277.6899999999,"ADDRESS":"中華東路一段２巷１號","OBJECTID":401129},"geometry":{"x":171508.87000000104,"y":2544277.6900000013}},{"attributes":{"ID":401154,"DIS_CODE":0,"TOWNNAME":"東區","LI":"莊敬里","LIN":"11鄰","STREET":"中華東路","SECT":"一段","MAREA":" ","LANE":"２巷","ALLEY":" ","HOUSE_NO":"２號","E_COORD97":171504.13,"N_COORD97":2544276.7599999998,"ADDRESS":"中華東路一段２巷２號","OBJECTID":401130},"geometry":{"x":171504.12999999989,"y":2544276.7600000035}},{"attributes":{"ID":401155,"DIS_CODE":0,"TOWNNAME":"永康區","LI":"中華里","LIN":"11鄰","STREET":"忠義街","SECT":" ","MAREA":" ","LANE":"１０巷","ALLEY":" ","HOUSE_NO":"１８號","E_COORD97":171786.82999999999,"N_COORD97":2544372.1299999999,"ADDRESS":"忠義街１０巷１８號","OBJECTID":401131},"geometry":{"x":171786.83000000101,"y":2544372.1300000008}},{"attributes":{"ID":401156,"DIS_CODE":0,"TOWNNAME":"永康區","LI":"中華里","LIN":"11鄰","STREET":"忠義街","SECT":" ","MAREA":" ","LANE":"１０巷","ALLEY":" ","HOUSE_NO":"６號","E_COORD97":171754.57000000001,"N_COORD97":2544372.1299999999,"ADDRESS":"忠義街１０巷６號","OBJECTID":401132},"geometry":{"x":171754.57000000123,"y":2544372.1300000008}},{"attributes":{"ID":401157,"DIS_CODE":0,"TOWNNAME":"永康區","LI":"中華里","LIN":"11鄰","STREET":"忠義街","SECT":" ","MAREA":" ","LANE":"１０巷","ALLEY":" ","HOUSE_NO":"２０號","E_COORD97":171790.88,"N_COORD97":2544372.1299999999,"ADDRESS":"忠義街１０巷２０號","OBJECTID":401133},"geometry":{"x":171790.88000000175,"y":2544372.1300000008}},{"attributes":{"ID":401158,"DIS_CODE":0,"TOWNNAME":"永康區","LI":"中華里","LIN":"11鄰","STREET":"忠義街","SECT":" ","MAREA":" ","LANE":"１０巷","ALLEY":" ","HOUSE_NO":"８號","E_COORD97":171758.64000000001,"N_COORD97":2544372.1299999999,"ADDRESS":"忠義街１０巷８號","OBJECTID":401134},"geometry":{"x":171758.6400000006,"y":2544372.1300000008}},{"attributes":{"ID":401159,"DIS_CODE":0,"TOWNNAME":"永康區","LI":"中華里","LIN":"11鄰","STREET":"忠義街","SECT":" ","MAREA":" ","LANE":"１０巷","ALLEY":" ","HOUSE_NO":"１４號","E_COORD97":171778.92000000001,"N_COORD97":2544360.5899999999,"ADDRESS":"忠義街１０巷１４號","OBJECTID":401135},"geometry":{"x":171778.92000000086,"y":2544360.5900000017}},{"attributes":{"ID":401160,"DIS_CODE":0,"TOWNNAME":"永康區","LI":"二王里","LIN":"11鄰","STREET":"永二街","SECT":" ","MAREA":" ","LANE":"３９３巷","ALLEY":" ","HOUSE_NO":"７號","E_COORD97":172913.98999999999,"N_COORD97":2546598.6699999999,"ADDRESS":"永二街３９３巷７號","OBJECTID":401136},"geometry":{"x":172913.99000000022,"y":2546598.6699999999}},{"attributes":{"ID":401161,"DIS_CODE":0,"TOWNNAME":"中西區","LI":"大涼里","LIN":"11鄰","STREET":"府前路","SECT":"二段","MAREA":" ","LANE":"２５８巷","ALLEY":" ","HOUSE_NO":"５５號","E_COORD97":167042.26000000001,"N_COORD97":2543805.4300000002,"ADDRESS":"府前路二段２５８巷５５號","OBJECTID":401137},"geometry":{"x":167042.26000000071,"y":2543805.4300000016}},{"attributes":{"ID":401162,"DIS_CODE":0,"TOWNNAME":"仁德區","LI":"仁義里","LIN":"11鄰","STREET":"中山路","SECT":" ","MAREA":" ","LANE":"５９１巷","ALLEY":" ","HOUSE_NO":"１０號","E_COORD97":173345.95999999999,"N_COORD97":2541283.9900000002,"ADDRESS":"中山路５９１巷１０號","OBJECTID":401138},"geometry":{"x":173345.95999999996,"y":2541283.9900000002}},{"attributes":{"ID":401163,"DIS_CODE":0,"TOWNNAME":"新市區","LI":"新和里","LIN":"6鄰","STREET":"富強路","SECT":" ","MAREA":" ","LANE":"３１巷","ALLEY":" ","HOUSE_NO":"２號","E_COORD97":177328.48000000001,"N_COORD97":2552419.25,"ADDRESS":"富強路３１巷２號","OBJECTID":401139},"geometry":{"x":177328.48000000045,"y":2552419.25}},{"attributes":{"ID":401164,"DIS_CODE":0,"TOWNNAME":"仁德區","LI":"成功里","LIN":"11鄰","STREET":"成功二街","SECT":" ","MAREA":" ","LANE":"３１巷","ALLEY":" ","HOUSE_NO":"３２號","E_COORD97":171007.19,"N_COORD97":2539840.5,"ADDRESS":"成功二街３１巷３２號","OBJECTID":401140},"geometry":{"x":171007.19000000041,"y":2539840.5000000037}},{"attributes":{"ID":401165,"DIS_CODE":0,"TOWNNAME":"仁德區","LI":"田厝里","LIN":"11鄰","STREET":"田厝二街","SECT":" ","MAREA":" ","LANE":"７１巷","ALLEY":" ","HOUSE_NO":"１６號","E_COORD97":172289.41,"N_COORD97":2537679.4900000002,"ADDRESS":"田厝二街７１巷１６號","OBJECTID":401141},"geometry":{"x":172289.41000000201,"y":2537679.4900000002}},{"attributes":{"ID":401166,"DIS_CODE":0,"TOWNNAME":"東區","LI":"大學里","LIN":"11鄰","STREET":"長榮路","SECT":"三段","MAREA":" ","LANE":"６６巷","ALLEY":" ","HOUSE_NO":"３５號","E_COORD97":170347.04000000001,"N_COORD97":2543821.7000000002,"ADDRESS":"長榮路三段６６巷３５號","OBJECTID":401142},"geometry":{"x":170347.04000000004,"y":2543821.6999999993}},{"attributes":{"ID":401167,"DIS_CODE":0,"TOWNNAME":"善化區","LI":"坐駕里","LIN":"11鄰","STREET":"自強路","SECT":" ","MAREA":" ","LANE":"１４０巷","ALLEY":" ","HOUSE_NO":"１號","E_COORD97":177936.98000000001,"N_COORD97":2558729.75,"ADDRESS":"自強路１４０巷１號","OBJECTID":401143},"geometry":{"x":177936.98000000045,"y":2558729.7499999981}},{"attributes":{"ID":401168,"DIS_CODE":0,"TOWNNAME":"永康區","LI":"復華里","LIN":"11鄰","STREET":"復國二路","SECT":" ","MAREA":" ","LANE":"２１５巷","ALLEY":" ","HOUSE_NO":"２６號","E_COORD97":172925.72,"N_COORD97":2546055.3300000001,"ADDRESS":"復國二路２１５巷２６號","OBJECTID":401144},"geometry":{"x":172925.71999999974,"y":2546055.3300000001}},{"attributes":{"ID":401169,"DIS_CODE":0,"TOWNNAME":"善化區","LI":"坐駕里","LIN":"11鄰","STREET":"自強路","SECT":" ","MAREA":" ","LANE":"１４０巷","ALLEY":" ","HOUSE_NO":"４號","E_COORD97":177952.92999999999,"N_COORD97":2558732,"ADDRESS":"自強路１４０巷４號","OBJECTID":401145},"geometry":{"x":177952.93000000063,"y":2558732.0000000019}},{"attributes":{"ID":401170,"DIS_CODE":0,"TOWNNAME":"安南區","LI":"安富里","LIN":"12鄰","STREET":"安富街","SECT":" ","MAREA":" ","LANE":"２５１巷","ALLEY":"２８弄","HOUSE_NO":"３０號","E_COORD97":167417.034633,"N_COORD97":2547355.7689899998,"ADDRESS":"安富街２５１巷２８弄３０號","OBJECTID":401146},"geometry":{"x":167417.03463300038,"y":2547355.7689880021}},{"attributes":{"ID":401171,"DIS_CODE":0,"TOWNNAME":"善化區","LI":"坐駕里","LIN":"11鄰","STREET":"自強路","SECT":" ","MAREA":" ","LANE":"１４０巷","ALLEY":" ","HOUSE_NO":"２號","E_COORD97":177943.13,"N_COORD97":2558730.5,"ADDRESS":"自強路１４０巷２號","OBJECTID":401147},"geometry":{"x":177943.13000000082,"y":2558730.5}},{"attributes":{"ID":401172,"DIS_CODE":0,"TOWNNAME":"永康區","LI":"二王里","LIN":"11鄰","STREET":"永二街","SECT":" ","MAREA":" ","LANE":"３９３巷","ALLEY":" ","HOUSE_NO":"２號","E_COORD97":172874.29000000001,"N_COORD97":2546613.0800000001,"ADDRESS":"永二街３９３巷２號","OBJECTID":401148},"geometry":{"x":172874.29000000004,"y":2546613.0800000001}},{"attributes":{"ID":401173,"DIS_CODE":0,"TOWNNAME":"永康區","LI":"二王里","LIN":"15鄰","STREET":"忠孝路","SECT":" ","MAREA":" ","LANE":"４５０巷","ALLEY":" ","HOUSE_NO":"１號","E_COORD97":172506.17000000001,"N_COORD97":2546622.52,"ADDRESS":"忠孝路４５０巷１號","OBJECTID":401149},"geometry":{"x":172506.17000000086,"y":2546622.5199999996}},{"attributes":{"ID":401174,"DIS_CODE":0,"TOWNNAME":"永康區","LI":"三民里","LIN":"11鄰","STREET":"和平路","SECT":" ","MAREA":" ","LANE":"２４６巷","ALLEY":" ","HOUSE_NO":"７號","E_COORD97":174776.69,"N_COORD97":2550806.2000000002,"ADDRESS":"和平路２４６巷７號","OBJECTID":401150},"geometry":{"x":174776.69000000134,"y":2550806.200000003}},{"attributes":{"ID":401175,"DIS_CODE":0,"TOWNNAME":"永康區","LI":"大灣里","LIN":"11鄰","STREET":"民族路","SECT":" ","MAREA":" ","LANE":"３２６巷","ALLEY":" ","HOUSE_NO":"３號","E_COORD97":174926.45999999999,"N_COORD97":2545328.0800000001,"ADDRESS":"民族路３２６巷３號","OBJECTID":401151},"geometry":{"x":174926.46000000183,"y":2545328.0800000001}},{"attributes":{"ID":401176,"DIS_CODE":0,"TOWNNAME":"永康區","LI":"安康里","LIN":"11鄰","STREET":"中華路","SECT":" ","MAREA":" ","LANE":"６１９巷","ALLEY":" ","HOUSE_NO":"２５號之３","E_COORD97":170981.26000000001,"N_COORD97":2546054.04,"ADDRESS":"中華路６１９巷２５號之３","OBJECTID":401152},"geometry":{"x":170981.26000000164,"y":2546054.0400000028}},{"attributes":{"ID":401177,"DIS_CODE":0,"TOWNNAME":"永康區","LI":"安康里","LIN":"11鄰","STREET":"中華路","SECT":" ","MAREA":" ","LANE":"６１９巷","ALLEY":" ","HOUSE_NO":"２９號之３","E_COORD97":170967.35999999999,"N_COORD97":2546048.29,"ADDRESS":"中華路６１９巷２９號之３","OBJECTID":401153},"geometry":{"x":170967.36000000034,"y":2546048.2899999991}},{"attributes":{"ID":401178,"DIS_CODE":0,"TOWNNAME":"永康區","LI":"三民里","LIN":"11鄰","STREET":"和平路","SECT":" ","MAREA":" ","LANE":"２３８巷","ALLEY":" ","HOUSE_NO":"３號","E_COORD97":174776.38,"N_COORD97":2550759.9700000002,"ADDRESS":"和平路２３８巷３號","OBJECTID":401154},"geometry":{"x":174776.38000000082,"y":2550759.9700000025}},{"attributes":{"ID":401179,"DIS_CODE":0,"TOWNNAME":"中西區","LI":"永華里","LIN":"11鄰","STREET":"開山路","SECT":" ","MAREA":" ","LANE":"１２２巷","ALLEY":" ","HOUSE_NO":"１８號","E_COORD97":168655.70999999999,"N_COORD97":2543344.7999999998,"ADDRESS":"開山路１２２巷１８號","OBJECTID":401155},"geometry":{"x":168655.70999999996,"y":2543344.8000000045}},{"attributes":{"ID":401180,"DIS_CODE":0,"TOWNNAME":"中西區","LI":"永華里","LIN":"11鄰","STREET":"開山路","SECT":" ","MAREA":" ","LANE":"１２２巷","ALLEY":" ","HOUSE_NO":"２０號","E_COORD97":168649.48000000001,"N_COORD97":2543347.4300000002,"ADDRESS":"開山路１２２巷２０號","OBJECTID":401156},"geometry":{"x":168649.47999999952,"y":2543347.4300000016}},{"attributes":{"ID":401181,"DIS_CODE":0,"TOWNNAME":"中西區","LI":"永華里","LIN":"11鄰","STREET":"開山路","SECT":" ","MAREA":" ","LANE":"１２２巷","ALLEY":" ","HOUSE_NO":"２２號","E_COORD97":168652.67000000001,"N_COORD97":2543332.3799999999,"ADDRESS":"開山路１２２巷２２號","OBJECTID":401157},"geometry":{"x":168652.66999999993,"y":2543332.3800000027}},{"attributes":{"ID":401182,"DIS_CODE":0,"TOWNNAME":"中西區","LI":"永華里","LIN":"11鄰","STREET":"開山路","SECT":" ","MAREA":" ","LANE":"１２２巷","ALLEY":" ","HOUSE_NO":"２４號","E_COORD97":168648.29000000001,"N_COORD97":2543333.3399999999,"ADDRESS":"開山路１２２巷２４號","OBJECTID":401158},"geometry":{"x":168648.29000000004,"y":2543333.339999998}},{"attributes":{"ID":401183,"DIS_CODE":0,"TOWNNAME":"中西區","LI":"永華里","LIN":"11鄰","STREET":"開山路","SECT":" ","MAREA":" ","LANE":"１２２巷","ALLEY":" ","HOUSE_NO":"２６號","E_COORD97":168644.42999999999,"N_COORD97":2543333.4100000001,"ADDRESS":"開山路１２２巷２６號","OBJECTID":401159},"geometry":{"x":168644.43000000063,"y":2543333.4100000039}},{"attributes":{"ID":401184,"DIS_CODE":0,"TOWNNAME":"中西區","LI":"永華里","LIN":"11鄰","STREET":"開山路","SECT":" ","MAREA":" ","LANE":"１２２巷","ALLEY":" ","HOUSE_NO":"２８號","E_COORD97":168640.26999999999,"N_COORD97":2543334.4500000002,"ADDRESS":"開山路１２２巷２８號","OBJECTID":401160},"geometry":{"x":168640.27000000048,"y":2543334.4499999993}},{"attributes":{"ID":401185,"DIS_CODE":0,"TOWNNAME":"中西區","LI":"永華里","LIN":"11鄰","STREET":"開山路","SECT":" ","MAREA":" ","LANE":"１２２巷","ALLEY":" ","HOUSE_NO":"３０號","E_COORD97":168636.92999999999,"N_COORD97":2543334.1600000001,"ADDRESS":"開山路１２２巷３０號","OBJECTID":401161},"geometry":{"x":168636.9299999997,"y":2543334.1600000001}},{"attributes":{"ID":401186,"DIS_CODE":0,"TOWNNAME":"中西區","LI":"永華里","LIN":"11鄰","STREET":"開山路","SECT":" ","MAREA":" ","LANE":"１２２巷","ALLEY":" ","HOUSE_NO":"３２號","E_COORD97":168633.51000000001,"N_COORD97":2543334.5299999998,"ADDRESS":"開山路１２２巷３２號","OBJECTID":401162},"geometry":{"x":168633.51000000164,"y":2543334.5299999993}},{"attributes":{"ID":401187,"DIS_CODE":0,"TOWNNAME":"中西區","LI":"永華里","LIN":"11鄰","STREET":"開山路","SECT":" ","MAREA":" ","LANE":"１２２巷","ALLEY":" ","HOUSE_NO":"３４號","E_COORD97":168628.76000000001,"N_COORD97":2543334.1600000001,"ADDRESS":"開山路１２２巷３４號","OBJECTID":401163},"geometry":{"x":168628.76000000071,"y":2543334.1600000001}},{"attributes":{"ID":401188,"DIS_CODE":0,"TOWNNAME":"中西區","LI":"永華里","LIN":"11鄰","STREET":"開山路","SECT":" ","MAREA":" ","LANE":"８４巷","ALLEY":" ","HOUSE_NO":"１４號","E_COORD97":168630.47,"N_COORD97":2543355.8199999998,"ADDRESS":"開山路８４巷１４號","OBJECTID":401164},"geometry":{"x":168630.47000000067,"y":2543355.8200000022}},{"attributes":{"ID":401189,"DIS_CODE":0,"TOWNNAME":"中西區","LI":"永華里","LIN":"11鄰","STREET":"開山路","SECT":" ","MAREA":" ","LANE":"８４巷","ALLEY":" ","HOUSE_NO":"１６號","E_COORD97":168646.57999999999,"N_COORD97":2543363.9900000002,"ADDRESS":"開山路８４巷１６號","OBJECTID":401165},"geometry":{"x":168646.58000000007,"y":2543363.9900000021}},{"attributes":{"ID":401190,"DIS_CODE":0,"TOWNNAME":"中西區","LI":"永華里","LIN":"11鄰","STREET":"開山路","SECT":" ","MAREA":" ","LANE":"８４巷","ALLEY":" ","HOUSE_NO":"１８號","E_COORD97":168664.72,"N_COORD97":2543373.4100000001,"ADDRESS":"開山路８４巷１８號","OBJECTID":401166},"geometry":{"x":168664.72000000067,"y":2543373.4100000001}},{"attributes":{"ID":401191,"DIS_CODE":0,"TOWNNAME":"中西區","LI":"永華里","LIN":"11鄰","STREET":"開山路","SECT":" ","MAREA":" ","LANE":"８４巷","ALLEY":" ","HOUSE_NO":"２２號","E_COORD97":168653.81,"N_COORD97":2543369.8500000001,"ADDRESS":"開山路８４巷２２號","OBJECTID":401167},"geometry":{"x":168653.81000000052,"y":2543369.8499999996}},{"attributes":{"ID":401192,"DIS_CODE":0,"TOWNNAME":"中西區","LI":"永華里","LIN":"11鄰","STREET":"開山路","SECT":" ","MAREA":" ","LANE":"８４巷","ALLEY":" ","HOUSE_NO":"２８號","E_COORD97":168651.64999999999,"N_COORD97":2543358.5800000001,"ADDRESS":"開山路８４巷２８號","OBJECTID":401168},"geometry":{"x":168651.64999999944,"y":2543358.5800000001}},{"attributes":{"ID":401193,"DIS_CODE":0,"TOWNNAME":"中西區","LI":"永華里","LIN":"11鄰","STREET":"開山路","SECT":" ","MAREA":" ","LANE":"８４巷","ALLEY":" ","HOUSE_NO":"３２號","E_COORD97":168659.60000000001,"N_COORD97":2543358.9500000002,"ADDRESS":"開山路８４巷３２號","OBJECTID":401169},"geometry":{"x":168659.59999999963,"y":2543358.9499999993}},{"attributes":{"ID":401194,"DIS_CODE":0,"TOWNNAME":"中西區","LI":"永華里","LIN":"11鄰","STREET":"開山路","SECT":" ","MAREA":" ","LANE":"８４巷","ALLEY":" ","HOUSE_NO":"３４號","E_COORD97":168664.35000000001,"N_COORD97":2543360.3599999999,"ADDRESS":"開山路８４巷３４號","OBJECTID":401170},"geometry":{"x":168664.34999999963,"y":2543360.3600000013}},{"attributes":{"ID":401195,"DIS_CODE":0,"TOWNNAME":"中西區","LI":"永華里","LIN":"11鄰","STREET":"開山路","SECT":" ","MAREA":" ","LANE":"８４巷","ALLEY":" ","HOUSE_NO":"３６號","E_COORD97":168669.10000000001,"N_COORD97":2543362.8100000001,"ADDRESS":"開山路８４巷３６號","OBJECTID":401171},"geometry":{"x":168669.09999999963,"y":2543362.8100000024}},{"attributes":{"ID":401196,"DIS_CODE":0,"TOWNNAME":"中西區","LI":"永華里","LIN":"11鄰","STREET":"開山路","SECT":" ","MAREA":" ","LANE":"８４巷","ALLEY":" ","HOUSE_NO":"３８號","E_COORD97":168674.67000000001,"N_COORD97":2543354.9500000002,"ADDRESS":"開山路８４巷３８號","OBJECTID":401172},"geometry":{"x":168674.66999999993,"y":2543354.9499999993}},{"attributes":{"ID":401197,"DIS_CODE":0,"TOWNNAME":"中西區","LI":"永華里","LIN":"11鄰","STREET":"開山路","SECT":" ","MAREA":" ","LANE":"８４巷","ALLEY":" ","HOUSE_NO":"４０號","E_COORD97":168676.67000000001,"N_COORD97":2543351.9100000001,"ADDRESS":"開山路８４巷４０號","OBJECTID":401173},"geometry":{"x":168676.67000000179,"y":2543351.910000002}},{"attributes":{"ID":401198,"DIS_CODE":0,"TOWNNAME":"中西區","LI":"永華里","LIN":"11鄰","STREET":"開山路","SECT":" ","MAREA":" ","LANE":"８４巷","ALLEY":" ","HOUSE_NO":"４２號","E_COORD97":168677.64000000001,"N_COORD97":2543348.4100000001,"ADDRESS":"開山路８４巷４２號","OBJECTID":401174},"geometry":{"x":168677.63999999966,"y":2543348.410000002}},{"attributes":{"ID":401199,"DIS_CODE":0,"TOWNNAME":"中西區","LI":"安海里","LIN":"13鄰","STREET":"環河街","SECT":" ","MAREA":" ","LANE":" ","ALLEY":" ","HOUSE_NO":"１１４號","E_COORD97":167249.23999999999,"N_COORD97":2544042.6000000001,"ADDRESS":"環河街１１４號","OBJECTID":401175},"geometry":{"x":167249.24000000115,"y":2544042.5999999996}},{"attributes":{"ID":401200,"DIS_CODE":0,"TOWNNAME":"中西區","LI":"永華里","LIN":"11鄰","STREET":"開山路","SECT":" ","MAREA":" ","LANE":"８４巷","ALLEY":" ","HOUSE_NO":"４６號","E_COORD97":168679.64000000001,"N_COORD97":2543345.1099999999,"ADDRESS":"開山路８４巷４６號","OBJECTID":401176},"geometry":{"x":168679.63999999966,"y":2543345.1100000013}},{"attributes":{"ID":401201,"DIS_CODE":0,"TOWNNAME":"仁德區","LI":"保安里","LIN":"11鄰","STREET":"中正路","SECT":"一段","MAREA":" ","LANE":"２５１巷","ALLEY":" ","HOUSE_NO":"１９號之８","E_COORD97":171708.57000000001,"N_COORD97":2536010.29,"ADDRESS":"中正路一段２５１巷１９號之８","OBJECTID":401177},"geometry":{"x":171708.57000000216,"y":2536010.290000001}},{"attributes":{"ID":401202,"DIS_CODE":0,"TOWNNAME":"仁德區","LI":"成功里","LIN":"11鄰","STREET":"成功二街","SECT":" ","MAREA":" ","LANE":"３１巷","ALLEY":" ","HOUSE_NO":"１２號","E_COORD97":170964,"N_COORD97":2539842.5,"ADDRESS":"成功二街３１巷１２號","OBJECTID":401178},"geometry":{"x":170964,"y":2539842.5}},{"attributes":{"ID":401203,"DIS_CODE":0,"TOWNNAME":"永康區","LI":"復華里","LIN":"11鄰","STREET":"復國二路","SECT":" ","MAREA":" ","LANE":"２１５巷","ALLEY":" ","HOUSE_NO":"１５號","E_COORD97":172965.48999999999,"N_COORD97":2546024.48,"ADDRESS":"復國二路２１５巷１５號","OBJECTID":401179},"geometry":{"x":172965.49000000115,"y":2546024.4800000004}},{"attributes":{"ID":401204,"DIS_CODE":0,"TOWNNAME":"永康區","LI":"復國里","LIN":"11鄰","STREET":"復國一路","SECT":" ","MAREA":" ","LANE":"２８０巷","ALLEY":" ","HOUSE_NO":"１７號","E_COORD97":172816.95999999999,"N_COORD97":2545509.98,"ADDRESS":"復國一路２８０巷１７號","OBJECTID":401180},"geometry":{"x":172816.95999999996,"y":2545509.9800000042}},{"attributes":{"ID":401205,"DIS_CODE":0,"TOWNNAME":"永康區","LI":"復華里","LIN":"11鄰","STREET":"復國二路","SECT":" ","MAREA":" ","LANE":"２４３巷","ALLEY":" ","HOUSE_NO":"２５號","E_COORD97":172957.01000000001,"N_COORD97":2546119.3399999999,"ADDRESS":"復國二路２４３巷２５號","OBJECTID":401181},"geometry":{"x":172957.00999999978,"y":2546119.3399999999}},{"attributes":{"ID":401206,"DIS_CODE":0,"TOWNNAME":"永康區","LI":"復華里","LIN":"11鄰","STREET":"國華街","SECT":" ","MAREA":" ","LANE":"１０２巷","ALLEY":" ","HOUSE_NO":"４２號","E_COORD97":172900.78,"N_COORD97":2546084.0499999998,"ADDRESS":"國華街１０２巷４２號","OBJECTID":401182},"geometry":{"x":172900.78000000119,"y":2546084.0500000026}},{"attributes":{"ID":401207,"DIS_CODE":0,"TOWNNAME":"永康區","LI":"勝利里","LIN":"11鄰","STREET":"勝利街","SECT":" ","MAREA":" ","LANE":"７３巷","ALLEY":" ","HOUSE_NO":"６號","E_COORD97":171323.53,"N_COORD97":2544722.75,"ADDRESS":"勝利街７３巷６號","OBJECTID":401183},"geometry":{"x":171323.53000000026,"y":2544722.75}},{"attributes":{"ID":401208,"DIS_CODE":0,"TOWNNAME":"永康區","LI":"復華里","LIN":"11鄰","STREET":"復國二路","SECT":" ","MAREA":" ","LANE":"２０５巷","ALLEY":" ","HOUSE_NO":"１０號","E_COORD97":172961.81,"N_COORD97":2546001.8900000001,"ADDRESS":"復國二路２０５巷１０號","OBJECTID":401184},"geometry":{"x":172961.80999999959,"y":2546001.8900000006}},{"attributes":{"ID":401209,"DIS_CODE":0,"TOWNNAME":"永康區","LI":"大橋里","LIN":"11鄰","STREET":"大橋三街","SECT":" ","MAREA":" ","LANE":"２６６巷","ALLEY":" ","HOUSE_NO":"７７號","E_COORD97":170977.14999999999,"N_COORD97":2546764.25,"ADDRESS":"大橋三街２６６巷７７號","OBJECTID":401185},"geometry":{"x":170977.15000000037,"y":2546764.25}},{"attributes":{"ID":401210,"DIS_CODE":0,"TOWNNAME":"仁德區","LI":"保安里","LIN":"11鄰","STREET":"中正路","SECT":"一段","MAREA":" ","LANE":"２５１巷","ALLEY":" ","HOUSE_NO":"１９號之３","E_COORD97":171725.01000000001,"N_COORD97":2536025.54,"ADDRESS":"中正路一段２５１巷１９號之３","OBJECTID":401186},"geometry":{"x":171725.00999999978,"y":2536025.540000001}},{"attributes":{"ID":401211,"DIS_CODE":0,"TOWNNAME":"仁德區","LI":"成功里","LIN":"11鄰","STREET":"成功二街","SECT":" ","MAREA":" ","LANE":"３１巷","ALLEY":" ","HOUSE_NO":"４０號","E_COORD97":171023.70000000001,"N_COORD97":2539840,"ADDRESS":"成功二街３１巷４０號","OBJECTID":401187},"geometry":{"x":171023.70000000019,"y":2539840}},{"attributes":{"ID":401212,"DIS_CODE":0,"TOWNNAME":"善化區","LI":"坐駕里","LIN":"11鄰","STREET":"自強路","SECT":" ","MAREA":" ","LANE":"１４０巷","ALLEY":" ","HOUSE_NO":"３號","E_COORD97":177947.88,"N_COORD97":2558731.25,"ADDRESS":"自強路１４０巷３號","OBJECTID":401188},"geometry":{"x":177947.88000000175,"y":2558731.2500000019}},{"attributes":{"ID":401213,"DIS_CODE":0,"TOWNNAME":"中西區","LI":"保安里","LIN":"11鄰","STREET":"中正路","SECT":" ","MAREA":" ","LANE":"２０９巷","ALLEY":" ","HOUSE_NO":"１號","E_COORD97":167746.88,"N_COORD97":2543702.25,"ADDRESS":"中正路２０９巷１號","OBJECTID":401189},"geometry":{"x":167746.88000000082,"y":2543702.25}},{"attributes":{"ID":401214,"DIS_CODE":0,"TOWNNAME":"中西區","LI":"普濟里","LIN":"11鄰","STREET":"成功路","SECT":" ","MAREA":" ","LANE":"３１３巷","ALLEY":" ","HOUSE_NO":"１０號","E_COORD97":168033.5,"N_COORD97":2544469.6099999999,"ADDRESS":"成功路３１３巷１０號","OBJECTID":401190},"geometry":{"x":168033.49999999907,"y":2544469.6099999994}},{"attributes":{"ID":401215,"DIS_CODE":0,"TOWNNAME":"中西區","LI":"普濟里","LIN":"11鄰","STREET":"成功路","SECT":" ","MAREA":" ","LANE":"３１３巷","ALLEY":" ","HOUSE_NO":"１２號","E_COORD97":168036.29000000001,"N_COORD97":2544469.3799999999,"ADDRESS":"成功路３１３巷１２號","OBJECTID":401191},"geometry":{"x":168036.29000000004,"y":2544469.3800000008}},{"attributes":{"ID":401216,"DIS_CODE":0,"TOWNNAME":"中西區","LI":"普濟里","LIN":"11鄰","STREET":"成功路","SECT":" ","MAREA":" ","LANE":"３１３巷","ALLEY":" ","HOUSE_NO":"３０號","E_COORD97":168032.39000000001,"N_COORD97":2544443.5899999999,"ADDRESS":"成功路３１３巷３０號","OBJECTID":401192},"geometry":{"x":168032.39000000153,"y":2544443.5899999999}},{"attributes":{"ID":401217,"DIS_CODE":0,"TOWNNAME":"中西區","LI":"普濟里","LIN":"11鄰","STREET":"成功路","SECT":" ","MAREA":" ","LANE":"３１３巷","ALLEY":" ","HOUSE_NO":"３２號","E_COORD97":168026.10999999999,"N_COORD97":2544441.04,"ADDRESS":"成功路３１３巷３２號","OBJECTID":401193},"geometry":{"x":168026.11000000034,"y":2544441.040000001}},{"attributes":{"ID":401218,"DIS_CODE":0,"TOWNNAME":"中西區","LI":"普濟里","LIN":"11鄰","STREET":"國華街","SECT":"三段","MAREA":" ","LANE":"２５０巷","ALLEY":" ","HOUSE_NO":"２９號","E_COORD97":168019.35999999999,"N_COORD97":2544439.5699999998,"ADDRESS":"國華街三段２５０巷２９號","OBJECTID":401194},"geometry":{"x":168019.36000000034,"y":2544439.5700000003}},{"attributes":{"ID":401219,"DIS_CODE":0,"TOWNNAME":"中西區","LI":"普濟里","LIN":"11鄰","STREET":"國華街","SECT":"三段","MAREA":" ","LANE":"２５０巷","ALLEY":" ","HOUSE_NO":"３１號","E_COORD97":168023.29000000001,"N_COORD97":2544439.8100000001,"ADDRESS":"國華街三段２５０巷３１號","OBJECTID":401195},"geometry":{"x":168023.2900000019,"y":2544439.8100000042}},{"attributes":{"ID":401220,"DIS_CODE":0,"TOWNNAME":"善化區","LI":"小新里","LIN":"11鄰","STREET":"陽光三路","SECT":" ","MAREA":" ","LANE":"３２８巷","ALLEY":" ","HOUSE_NO":"７號","E_COORD97":179337.01586399999,"N_COORD97":2557480.52098,"ADDRESS":"陽光三路３２８巷７號","OBJECTID":401196},"geometry":{"x":179337.01586400066,"y":2557480.5209829994}},{"attributes":{"ID":401221,"DIS_CODE":0,"TOWNNAME":"善化區","LI":"小新里","LIN":"11鄰","STREET":"陽光三路","SECT":" ","MAREA":" ","LANE":"３２８巷","ALLEY":" ","HOUSE_NO":"５號","E_COORD97":179331.720543,"N_COORD97":2557480.7326500001,"ADDRESS":"陽光三路３２８巷５號","OBJECTID":401197},"geometry":{"x":179331.72054300085,"y":2557480.7326490022}},{"attributes":{"ID":401222,"DIS_CODE":0,"TOWNNAME":"東區","LI":"富裕里","LIN":"11鄰","STREET":"裕豐街","SECT":" ","MAREA":" ","LANE":"５４巷","ALLEY":" ","HOUSE_NO":"１５號","E_COORD97":170782.29000000001,"N_COORD97":2542772.5099999998,"ADDRESS":"裕豐街５４巷１５號","OBJECTID":401198},"geometry":{"x":170782.29000000004,"y":2542772.5099999998}},{"attributes":{"ID":401223,"DIS_CODE":0,"TOWNNAME":"中西區","LI":"民權里","LIN":"11鄰","STREET":"康樂街","SECT":" ","MAREA":" ","LANE":"２９７巷","ALLEY":" ","HOUSE_NO":"２號","E_COORD97":167559.66,"N_COORD97":2544247.6099999999,"ADDRESS":"康樂街２９７巷２號","OBJECTID":401199},"geometry":{"x":167559.66000000201,"y":2544247.6100000013}},{"attributes":{"ID":401224,"DIS_CODE":0,"TOWNNAME":"東區","LI":"莊敬里","LIN":"11鄰","STREET":"中華東路","SECT":"一段","MAREA":" ","LANE":"２巷","ALLEY":" ","HOUSE_NO":"１１號","E_COORD97":171455.26000000001,"N_COORD97":2544281.6099999999,"ADDRESS":"中華東路一段２巷１１號","OBJECTID":401200},"geometry":{"x":171455.25999999978,"y":2544281.6100000013}}]}