{"displayFieldName":"TOWNNAME","fieldAliases":{"ID":"ID","DIS_CODE":"DIS_CODE","TOWNNAME":"TOWNNAME","LI":"LI","LIN":"LIN","STREET":"STREET","SECT":"SECT","MAREA":"MAREA","LANE":"LANE","ALLEY":"ALLEY","HOUSE_NO":"HOUSE_NO","E_COORD97":"E_COORD97","N_COORD97":"N_COORD97","ADDRESS":"ADDRESS","OBJECTID":"OBJECTID"},"geometryType":"esriGeometryPoint","spatialReference":{"wkid":102443,"latestWkid":3826},"fields":[{"name":"ID","type":"esriFieldTypeDouble","alias":"ID"},{"name":"DIS_CODE","type":"esriFieldTypeInteger","alias":"DIS_CODE"},{"name":"TOWNNAME","type":"esriFieldTypeString","alias":"TOWNNAME","length":8},{"name":"LI","type":"esriFieldTypeString","alias":"LI","length":8},{"name":"LIN","type":"esriFieldTypeString","alias":"LIN","length":12},{"name":"STREET","type":"esriFieldTypeString","alias":"STREET","length":20},{"name":"SECT","type":"esriFieldTypeString","alias":"SECT","length":8},{"name":"MAREA","type":"esriFieldTypeString","alias":"MAREA","length":12},{"name":"LANE","type":"esriFieldTypeString","alias":"LANE","length":10},{"name":"ALLEY","type":"esriFieldTypeString","alias":"ALLEY","length":10},{"name":"HOUSE_NO","type":"esriFieldTypeString","alias":"HOUSE_NO","length":20},{"name":"E_COORD97","type":"esriFieldTypeDouble","alias":"E_COORD97"},{"name":"N_COORD97","type":"esriFieldTypeDouble","alias":"N_COORD97"},{"name":"ADDRESS","type":"esriFieldTypeString","alias":"ADDRESS","length":50},{"name":"OBJECTID","type":"esriFieldTypeOID","alias":"OBJECTID"}],"features":[{"attributes":{"ID":233405,"DIS_CODE":0,"TOWNNAME":"永康區","LI":"西橋里","LIN":"23鄰","STREET":"大橋三街","SECT":" ","MAREA":" ","LANE":"５７巷","ALLEY":" ","HOUSE_NO":"２３號","E_COORD97":170499.51000000001,"N_COORD97":2546584.2400000002,"ADDRESS":"大橋三街５７巷２３號","OBJECTID":233401},"geometry":{"x":170499.50999999978,"y":2546584.2400000021}},{"attributes":{"ID":233406,"DIS_CODE":0,"TOWNNAME":"永康區","LI":"西橋里","LIN":"23鄰","STREET":"大橋三街","SECT":" ","MAREA":" ","LANE":"５７巷","ALLEY":" ","HOUSE_NO":"２７號","E_COORD97":170492.95000000001,"N_COORD97":2546588.7400000002,"ADDRESS":"大橋三街５７巷２７號","OBJECTID":233402},"geometry":{"x":170492.95000000112,"y":2546588.7400000002}},{"attributes":{"ID":233407,"DIS_CODE":0,"TOWNNAME":"永康區","LI":"西勢里","LIN":"23鄰","STREET":"富強路","SECT":"一段","MAREA":" ","LANE":"１９４巷","ALLEY":" ","HOUSE_NO":"３０號","E_COORD97":175668.85999999999,"N_COORD97":2546281.3199999998,"ADDRESS":"富強路一段１９４巷３０號","OBJECTID":233403},"geometry":{"x":175668.86000000127,"y":2546281.3200000022}},{"attributes":{"ID":233408,"DIS_CODE":0,"TOWNNAME":"永康區","LI":"西橋里","LIN":"23鄰","STREET":"大橋三街","SECT":" ","MAREA":" ","LANE":"５７巷","ALLEY":" ","HOUSE_NO":"２１號","E_COORD97":170502.10000000001,"N_COORD97":2546581.2400000002,"ADDRESS":"大橋三街５７巷２１號","OBJECTID":233404},"geometry":{"x":170502.09999999963,"y":2546581.2400000002}},{"attributes":{"ID":233409,"DIS_CODE":0,"TOWNNAME":"永康區","LI":"西橋里","LIN":"23鄰","STREET":"大橋三街","SECT":" ","MAREA":" ","LANE":"５７巷","ALLEY":" ","HOUSE_NO":"２９號","E_COORD97":170489.64999999999,"N_COORD97":2546591.2400000002,"ADDRESS":"大橋三街５７巷２９號","OBJECTID":233405},"geometry":{"x":170489.6500000013,"y":2546591.2400000002}},{"attributes":{"ID":233410,"DIS_CODE":0,"TOWNNAME":"永康區","LI":"西勢里","LIN":"23鄰","STREET":"富強路","SECT":"一段","MAREA":" ","LANE":"１９４巷","ALLEY":" ","HOUSE_NO":"４０號","E_COORD97":175683.47,"N_COORD97":2546267.5699999998,"ADDRESS":"富強路一段１９４巷４０號","OBJECTID":233406},"geometry":{"x":175683.46999999974,"y":2546267.5700000003}},{"attributes":{"ID":233411,"DIS_CODE":0,"TOWNNAME":"永康區","LI":"西橋里","LIN":"23鄰","STREET":"大橋三街","SECT":" ","MAREA":" ","LANE":"５７巷","ALLEY":" ","HOUSE_NO":"３５號","E_COORD97":170479.79000000001,"N_COORD97":2546597.9900000002,"ADDRESS":"大橋三街５７巷３５號","OBJECTID":233407},"geometry":{"x":170479.79000000097,"y":2546597.9900000039}},{"attributes":{"ID":233412,"DIS_CODE":0,"TOWNNAME":"安南區","LI":"安慶里","LIN":"23鄰","STREET":"安中路","SECT":"一段","MAREA":" ","LANE":"１８９巷","ALLEY":" ","HOUSE_NO":"８８號","E_COORD97":168760.76999999999,"N_COORD97":2548270.9500000002,"ADDRESS":"安中路一段１８９巷８８號","OBJECTID":233408},"geometry":{"x":168760.77000000048,"y":2548270.9499999993}},{"attributes":{"ID":233413,"DIS_CODE":0,"TOWNNAME":"安南區","LI":"安慶里","LIN":"23鄰","STREET":"安中路","SECT":"一段","MAREA":" ","LANE":"１８９巷","ALLEY":" ","HOUSE_NO":"８６號","E_COORD97":168760.76999999999,"N_COORD97":2548274.8100000001,"ADDRESS":"安中路一段１８９巷８６號","OBJECTID":233409},"geometry":{"x":168760.77000000048,"y":2548274.8100000024}},{"attributes":{"ID":233414,"DIS_CODE":0,"TOWNNAME":"安南區","LI":"安慶里","LIN":"23鄰","STREET":"安中路","SECT":"一段","MAREA":" ","LANE":"１８９巷","ALLEY":" ","HOUSE_NO":"９０號","E_COORD97":168761.89000000001,"N_COORD97":2548267.2799999998,"ADDRESS":"安中路一段１８９巷９０號","OBJECTID":233410},"geometry":{"x":168761.8900000006,"y":2548267.2800000012}},{"attributes":{"ID":233415,"DIS_CODE":0,"TOWNNAME":"永康區","LI":"崑山里","LIN":"48鄰","STREET":"永華路","SECT":" ","MAREA":" ","LANE":"５２巷","ALLEY":" ","HOUSE_NO":"３３號","E_COORD97":174181.26999999999,"N_COORD97":2545248.48,"ADDRESS":"永華路５２巷３３號","OBJECTID":233411},"geometry":{"x":174181.26999999955,"y":2545248.4800000004}},{"attributes":{"ID":233416,"DIS_CODE":0,"TOWNNAME":"永康區","LI":"\u25A0行里","LIN":"48鄰","STREET":"新行街","SECT":" ","MAREA":" ","LANE":"１２２巷","ALLEY":" ","HOUSE_NO":"１２號","E_COORD97":172387.73999999999,"N_COORD97":2549032.6600000001,"ADDRESS":"新行街１２２巷１２號","OBJECTID":233412},"geometry":{"x":172387.74000000115,"y":2549032.6600000001}},{"attributes":{"ID":233417,"DIS_CODE":0,"TOWNNAME":"仁德區","LI":"仁義里","LIN":"48鄰","STREET":"仁義路","SECT":" ","MAREA":" ","LANE":"９５巷","ALLEY":" ","HOUSE_NO":"２１號","E_COORD97":173620.88,"N_COORD97":2541037.02,"ADDRESS":"仁義路９５巷２１號","OBJECTID":233413},"geometry":{"x":173620.87999999989,"y":2541037.0200000014}},{"attributes":{"ID":233418,"DIS_CODE":0,"TOWNNAME":"永康區","LI":"崑山里","LIN":"48鄰","STREET":"永華路","SECT":" ","MAREA":" ","LANE":"５２巷","ALLEY":" ","HOUSE_NO":"１５號","E_COORD97":174145.59,"N_COORD97":2545262.2999999998,"ADDRESS":"永華路５２巷１５號","OBJECTID":233414},"geometry":{"x":174145.58999999892,"y":2545262.3000000007}},{"attributes":{"ID":233419,"DIS_CODE":0,"TOWNNAME":"永康區","LI":"崑山里","LIN":"48鄰","STREET":"永華路","SECT":" ","MAREA":" ","LANE":"５２巷","ALLEY":" ","HOUSE_NO":"１６號","E_COORD97":174162.42999999999,"N_COORD97":2545235.3300000001,"ADDRESS":"永華路５２巷１６號","OBJECTID":233415},"geometry":{"x":174162.43000000063,"y":2545235.3300000001}},{"attributes":{"ID":233420,"DIS_CODE":0,"TOWNNAME":"永康區","LI":"崑山里","LIN":"48鄰","STREET":"永華路","SECT":" ","MAREA":" ","LANE":"５２巷","ALLEY":" ","HOUSE_NO":"３２號","E_COORD97":174172.28,"N_COORD97":2545229.5899999999,"ADDRESS":"永華路５２巷３２號","OBJECTID":233416},"geometry":{"x":174172.28000000119,"y":2545229.5899999999}},{"attributes":{"ID":233421,"DIS_CODE":0,"TOWNNAME":"永康區","LI":"崑山里","LIN":"48鄰","STREET":"永華路","SECT":" ","MAREA":" ","LANE":"５２巷","ALLEY":" ","HOUSE_NO":"４１號","E_COORD97":174196.20000000001,"N_COORD97":2545242.54,"ADDRESS":"永華路５２巷４１號","OBJECTID":233417},"geometry":{"x":174196.20000000205,"y":2545242.5399999991}},{"attributes":{"ID":233422,"DIS_CODE":0,"TOWNNAME":"仁德區","LI":"成功里","LIN":"39鄰","STREET":"文賢路","SECT":"一段","MAREA":" ","LANE":"２９巷","ALLEY":" ","HOUSE_NO":"１５號","E_COORD97":170146.45000000001,"N_COORD97":2538302.8199999998,"ADDRESS":"文賢路一段２９巷１５號","OBJECTID":233418},"geometry":{"x":170146.45000000205,"y":2538302.820000004}},{"attributes":{"ID":233423,"DIS_CODE":0,"TOWNNAME":"永康區","LI":"崑山里","LIN":"48鄰","STREET":"國光六街","SECT":" ","MAREA":" ","LANE":"３７巷","ALLEY":" ","HOUSE_NO":"５號","E_COORD97":174224.13,"N_COORD97":2545240.1899999999,"ADDRESS":"國光六街３７巷５號","OBJECTID":233419},"geometry":{"x":174224.13000000082,"y":2545240.1900000013}},{"attributes":{"ID":233424,"DIS_CODE":0,"TOWNNAME":"仁德區","LI":"仁義里","LIN":"48鄰","STREET":"仁義路","SECT":" ","MAREA":" ","LANE":"９５巷","ALLEY":" ","HOUSE_NO":"１７號","E_COORD97":173620.45000000001,"N_COORD97":2541028.77,"ADDRESS":"仁義路９５巷１７號","OBJECTID":233420},"geometry":{"x":173620.45000000112,"y":2541028.7700000014}},{"attributes":{"ID":233425,"DIS_CODE":0,"TOWNNAME":"中西區","LI":"三合里","LIN":"6鄰","STREET":"民族路","SECT":"三段","MAREA":" ","LANE":"１４８巷","ALLEY":" ","HOUSE_NO":"１０號","E_COORD97":167589.07000000001,"N_COORD97":2544407.1299999999,"ADDRESS":"民族路三段１４８巷１０號","OBJECTID":233421},"geometry":{"x":167589.0700000003,"y":2544407.129999999}},{"attributes":{"ID":233426,"DIS_CODE":0,"TOWNNAME":"中西區","LI":"協和里","LIN":"14鄰","STREET":"永和街","SECT":" ","MAREA":" ","LANE":" ","ALLEY":" ","HOUSE_NO":"１２７號","E_COORD97":167130.26000000001,"N_COORD97":2544719.79,"ADDRESS":"永和街１２７號","OBJECTID":233422},"geometry":{"x":167130.26000000071,"y":2544719.7900000028}},{"attributes":{"ID":233427,"DIS_CODE":0,"TOWNNAME":"中西區","LI":"協和里","LIN":"14鄰","STREET":"永和街","SECT":" ","MAREA":" ","LANE":" ","ALLEY":" ","HOUSE_NO":"１３７號","E_COORD97":167146.45999999999,"N_COORD97":2544727.8900000001,"ADDRESS":"永和街１３７號","OBJECTID":233423},"geometry":{"x":167146.45999999996,"y":2544727.8900000025}},{"attributes":{"ID":233428,"DIS_CODE":0,"TOWNNAME":"中西區","LI":"協和里","LIN":"14鄰","STREET":"永和街","SECT":" ","MAREA":" ","LANE":" ","ALLEY":" ","HOUSE_NO":"１４３號","E_COORD97":167157.48000000001,"N_COORD97":2544730.0899999999,"ADDRESS":"永和街１４３號","OBJECTID":233424},"geometry":{"x":167157.48000000045,"y":2544730.0900000017}},{"attributes":{"ID":233429,"DIS_CODE":0,"TOWNNAME":"中西區","LI":"協和里","LIN":"14鄰","STREET":"西和路","SECT":" ","MAREA":" ","LANE":" ","ALLEY":" ","HOUSE_NO":"２００號","E_COORD97":167095.72,"N_COORD97":2544717.4700000002,"ADDRESS":"西和路２００號","OBJECTID":233425},"geometry":{"x":167095.71999999974,"y":2544717.4700000025}},{"attributes":{"ID":233430,"DIS_CODE":0,"TOWNNAME":"中西區","LI":"協和里","LIN":"14鄰","STREET":"西和路","SECT":" ","MAREA":" ","LANE":" ","ALLEY":" ","HOUSE_NO":"２０８號","E_COORD97":167113.53,"N_COORD97":2544728.7799999998,"ADDRESS":"西和路２０８號","OBJECTID":233426},"geometry":{"x":167113.53000000119,"y":2544728.7799999993}},{"attributes":{"ID":233431,"DIS_CODE":0,"TOWNNAME":"中西區","LI":"協和里","LIN":"14鄰","STREET":"西和路","SECT":" ","MAREA":" ","LANE":" ","ALLEY":" ","HOUSE_NO":"２２０號","E_COORD97":167136.17000000001,"N_COORD97":2544742.9300000002,"ADDRESS":"西和路２２０號","OBJECTID":233427},"geometry":{"x":167136.17000000086,"y":2544742.9299999978}},{"attributes":{"ID":233432,"DIS_CODE":0,"TOWNNAME":"中西區","LI":"協和里","LIN":"14鄰","STREET":"和美街","SECT":" ","MAREA":" ","LANE":" ","ALLEY":" ","HOUSE_NO":"３３號","E_COORD97":167155.60000000001,"N_COORD97":2544733.2599999998,"ADDRESS":"和美街３３號","OBJECTID":233428},"geometry":{"x":167155.59999999963,"y":2544733.2599999998}},{"attributes":{"ID":233433,"DIS_CODE":0,"TOWNNAME":"中西區","LI":"協和里","LIN":"14鄰","STREET":"和美街","SECT":" ","MAREA":" ","LANE":" ","ALLEY":" ","HOUSE_NO":"３５號","E_COORD97":167153.12,"N_COORD97":2544735.8300000001,"ADDRESS":"和美街３５號","OBJECTID":233429},"geometry":{"x":167153.12000000197,"y":2544735.8300000001}},{"attributes":{"ID":233434,"DIS_CODE":0,"TOWNNAME":"中西區","LI":"協和里","LIN":"14鄰","STREET":"和美街","SECT":" ","MAREA":" ","LANE":" ","ALLEY":" ","HOUSE_NO":"３７號","E_COORD97":167150.64000000001,"N_COORD97":2544738.6000000001,"ADDRESS":"和美街３７號","OBJECTID":233430},"geometry":{"x":167150.63999999966,"y":2544738.6000000034}},{"attributes":{"ID":233435,"DIS_CODE":0,"TOWNNAME":"中西區","LI":"協和里","LIN":"14鄰","STREET":"和美街","SECT":" ","MAREA":" ","LANE":" ","ALLEY":" ","HOUSE_NO":"３９號","E_COORD97":167148.35999999999,"N_COORD97":2544741.2799999998,"ADDRESS":"和美街３９號","OBJECTID":233431},"geometry":{"x":167148.3600000022,"y":2544741.2800000012}},{"attributes":{"ID":233436,"DIS_CODE":0,"TOWNNAME":"中西區","LI":"協和里","LIN":"14鄰","STREET":"和美街","SECT":" ","MAREA":" ","LANE":" ","ALLEY":" ","HOUSE_NO":"４１號","E_COORD97":167146.48000000001,"N_COORD97":2544744.25,"ADDRESS":"和美街４１號","OBJECTID":233432},"geometry":{"x":167146.48000000138,"y":2544744.25}},{"attributes":{"ID":233437,"DIS_CODE":0,"TOWNNAME":"安南區","LI":"州南里","LIN":"23鄰","STREET":"安和路","SECT":"四段","MAREA":" ","LANE":"５３３巷","ALLEY":" ","HOUSE_NO":"１０號","E_COORD97":169897.85000000001,"N_COORD97":2551314.4300000002,"ADDRESS":"安和路四段５３３巷１０號","OBJECTID":233433},"geometry":{"x":169897.85000000056,"y":2551314.4300000016}},{"attributes":{"ID":233438,"DIS_CODE":0,"TOWNNAME":"安南區","LI":"州南里","LIN":"23鄰","STREET":"安和路","SECT":"四段","MAREA":" ","LANE":"５３３巷","ALLEY":" ","HOUSE_NO":"１２號","E_COORD97":169893.75,"N_COORD97":2551311.8500000001,"ADDRESS":"安和路四段５３３巷１２號","OBJECTID":233434},"geometry":{"x":169893.75000000093,"y":2551311.8500000015}},{"attributes":{"ID":233439,"DIS_CODE":0,"TOWNNAME":"安南區","LI":"州南里","LIN":"23鄰","STREET":"安和路","SECT":"四段","MAREA":" ","LANE":"５３３巷","ALLEY":" ","HOUSE_NO":"１４號","E_COORD97":169889.95000000001,"N_COORD97":2551310.7799999998,"ADDRESS":"安和路四段５３３巷１４號","OBJECTID":233435},"geometry":{"x":169889.95000000019,"y":2551310.7799999975}},{"attributes":{"ID":233440,"DIS_CODE":0,"TOWNNAME":"安南區","LI":"州南里","LIN":"23鄰","STREET":"安和路","SECT":"四段","MAREA":" ","LANE":"５３３巷","ALLEY":" ","HOUSE_NO":"１６號","E_COORD97":169885.07999999999,"N_COORD97":2551309.4199999999,"ADDRESS":"安和路四段５３３巷１６號","OBJECTID":233436},"geometry":{"x":169885.08000000101,"y":2551309.4199999999}},{"attributes":{"ID":233441,"DIS_CODE":0,"TOWNNAME":"安南區","LI":"州南里","LIN":"23鄰","STREET":"安和路","SECT":"四段","MAREA":" ","LANE":"５３３巷","ALLEY":" ","HOUSE_NO":"１８號","E_COORD97":169880.67000000001,"N_COORD97":2551307.7400000002,"ADDRESS":"安和路四段５３３巷１８號","OBJECTID":233437},"geometry":{"x":169880.67000000086,"y":2551307.7400000002}},{"attributes":{"ID":233442,"DIS_CODE":0,"TOWNNAME":"安南區","LI":"州南里","LIN":"23鄰","STREET":"安和路","SECT":"四段","MAREA":" ","LANE":"５３３巷","ALLEY":" ","HOUSE_NO":"２０號","E_COORD97":169875.95999999999,"N_COORD97":2551307.29,"ADDRESS":"安和路四段５３３巷２０號","OBJECTID":233438},"geometry":{"x":169875.95999999996,"y":2551307.2900000028}},{"attributes":{"ID":233443,"DIS_CODE":0,"TOWNNAME":"安南區","LI":"州南里","LIN":"23鄰","STREET":"安和路","SECT":"四段","MAREA":" ","LANE":"５３３巷","ALLEY":" ","HOUSE_NO":"３８號","E_COORD97":169849.59,"N_COORD97":2551294.2999999998,"ADDRESS":"安和路四段５３３巷３８號","OBJECTID":233439},"geometry":{"x":169849.58999999985,"y":2551294.3000000007}},{"attributes":{"ID":233444,"DIS_CODE":0,"TOWNNAME":"安南區","LI":"州南里","LIN":"23鄰","STREET":"安和路","SECT":"四段","MAREA":" ","LANE":"５３３巷","ALLEY":" ","HOUSE_NO":"４０號","E_COORD97":169845.91,"N_COORD97":2551292.0600000001,"ADDRESS":"安和路四段５３３巷４０號","OBJECTID":233440},"geometry":{"x":169845.91000000015,"y":2551292.0600000005}},{"attributes":{"ID":233445,"DIS_CODE":0,"TOWNNAME":"中西區","LI":"三合里","LIN":"6鄰","STREET":"民族路","SECT":"三段","MAREA":" ","LANE":"１４８巷","ALLEY":" ","HOUSE_NO":"１２號","E_COORD97":167590.35999999999,"N_COORD97":2544409.4500000002,"ADDRESS":"民族路三段１４８巷１２號","OBJECTID":233441},"geometry":{"x":167590.36000000034,"y":2544409.4499999993}},{"attributes":{"ID":233446,"DIS_CODE":0,"TOWNNAME":"永康區","LI":"正強里","LIN":"48鄰","STREET":"中正路","SECT":" ","MAREA":" ","LANE":"２５６巷","ALLEY":" ","HOUSE_NO":"１３號之２６","E_COORD97":173256.03,"N_COORD97":2548001.6699999999,"ADDRESS":"中正路２５６巷１３號之２６","OBJECTID":233442},"geometry":{"x":173256.03000000026,"y":2548001.6699999999}},{"attributes":{"ID":233447,"DIS_CODE":0,"TOWNNAME":"永康區","LI":"西灣里","LIN":"48鄰","STREET":"永華路","SECT":" ","MAREA":" ","LANE":"２７３巷","ALLEY":" ","HOUSE_NO":"２５號","E_COORD97":174002.23000000001,"N_COORD97":2545802.5,"ADDRESS":"永華路２７３巷２５號","OBJECTID":233443},"geometry":{"x":174002.23000000045,"y":2545802.5000000019}},{"attributes":{"ID":233448,"DIS_CODE":0,"TOWNNAME":"永康區","LI":"崑山里","LIN":"48鄰","STREET":"永華路","SECT":" ","MAREA":" ","LANE":"５２巷","ALLEY":" ","HOUSE_NO":"５號","E_COORD97":174114.51000000001,"N_COORD97":2545271.4500000002,"ADDRESS":"永華路５２巷５號","OBJECTID":233444},"geometry":{"x":174114.51000000071,"y":2545271.450000003}},{"attributes":{"ID":233449,"DIS_CODE":0,"TOWNNAME":"新市區","LI":"新和里","LIN":"48鄰","STREET":"和平街","SECT":" ","MAREA":" ","LANE":"７６巷","ALLEY":" ","HOUSE_NO":"３號","E_COORD97":177583.10000000001,"N_COORD97":2553431.25,"ADDRESS":"和平街７６巷３號","OBJECTID":233445},"geometry":{"x":177583.09999999963,"y":2553431.2500000019}},{"attributes":{"ID":233450,"DIS_CODE":0,"TOWNNAME":"永康區","LI":"正強里","LIN":"48鄰","STREET":"中正路","SECT":" ","MAREA":" ","LANE":"２５６巷","ALLEY":" ","HOUSE_NO":"１３號之２１","E_COORD97":173255.92999999999,"N_COORD97":2548001.6699999999,"ADDRESS":"中正路２５６巷１３號之２１","OBJECTID":233446},"geometry":{"x":173255.9299999997,"y":2548001.6699999999}},{"attributes":{"ID":233451,"DIS_CODE":0,"TOWNNAME":"永康區","LI":"正強里","LIN":"48鄰","STREET":"中正路","SECT":" ","MAREA":" ","LANE":"２５６巷","ALLEY":" ","HOUSE_NO":"１３號之１６","E_COORD97":173256.03,"N_COORD97":2548001.6699999999,"ADDRESS":"中正路２５６巷１３號之１６","OBJECTID":233447},"geometry":{"x":173256.03000000026,"y":2548001.6699999999}},{"attributes":{"ID":233452,"DIS_CODE":0,"TOWNNAME":"新市區","LI":"新和里","LIN":"48鄰","STREET":"和平街","SECT":" ","MAREA":" ","LANE":"１３８巷","ALLEY":" ","HOUSE_NO":"１號","E_COORD97":177495.82000000001,"N_COORD97":2553363,"ADDRESS":"和平街１３８巷１號","OBJECTID":233448},"geometry":{"x":177495.8200000003,"y":2553363.0000000019}},{"attributes":{"ID":233453,"DIS_CODE":0,"TOWNNAME":"新市區","LI":"新和里","LIN":"48鄰","STREET":"和平街","SECT":" ","MAREA":" ","LANE":"１３８巷","ALLEY":" ","HOUSE_NO":"２１號","E_COORD97":177470.57000000001,"N_COORD97":2553400.75,"ADDRESS":"和平街１３８巷２１號","OBJECTID":233449},"geometry":{"x":177470.57000000216,"y":2553400.7500000019}},{"attributes":{"ID":233454,"DIS_CODE":0,"TOWNNAME":"新市區","LI":"新和里","LIN":"48鄰","STREET":"和平街","SECT":" ","MAREA":" ","LANE":"１５４巷","ALLEY":" ","HOUSE_NO":"１２號","E_COORD97":177454.98000000001,"N_COORD97":2553370.75,"ADDRESS":"和平街１５４巷１２號","OBJECTID":233450},"geometry":{"x":177454.98000000138,"y":2553370.7500000019}},{"attributes":{"ID":233455,"DIS_CODE":0,"TOWNNAME":"新市區","LI":"新和里","LIN":"48鄰","STREET":"和平街","SECT":" ","MAREA":" ","LANE":"１５４巷","ALLEY":" ","HOUSE_NO":"３號","E_COORD97":177458.92999999999,"N_COORD97":2553343,"ADDRESS":"和平街１５４巷３號","OBJECTID":233451},"geometry":{"x":177458.92999999877,"y":2553343}},{"attributes":{"ID":233456,"DIS_CODE":0,"TOWNNAME":"永康區","LI":"崑山里","LIN":"48鄰","STREET":"國光六街","SECT":" ","MAREA":" ","LANE":"３７巷","ALLEY":" ","HOUSE_NO":"２５號","E_COORD97":174204.66,"N_COORD97":2545192.0099999998,"ADDRESS":"國光六街３７巷２５號","OBJECTID":233452},"geometry":{"x":174204.66000000015,"y":2545192.0099999998}},{"attributes":{"ID":233457,"DIS_CODE":0,"TOWNNAME":"永康區","LI":"崑山里","LIN":"48鄰","STREET":"國光六街","SECT":" ","MAREA":" ","LANE":"３７巷","ALLEY":" ","HOUSE_NO":"２７號","E_COORD97":174203.5,"N_COORD97":2545186.8799999999,"ADDRESS":"國光六街３７巷２７號","OBJECTID":233453},"geometry":{"x":174203.5,"y":2545186.8800000027}},{"attributes":{"ID":233458,"DIS_CODE":0,"TOWNNAME":"永康區","LI":"崑山里","LIN":"48鄰","STREET":"國光六街","SECT":" ","MAREA":" ","LANE":"３７巷","ALLEY":" ","HOUSE_NO":"２９號","E_COORD97":174193.26999999999,"N_COORD97":2545182.0800000001,"ADDRESS":"國光六街３７巷２９號","OBJECTID":233454},"geometry":{"x":174193.27000000142,"y":2545182.0800000001}},{"attributes":{"ID":233459,"DIS_CODE":0,"TOWNNAME":"永康區","LI":"正強里","LIN":"48鄰","STREET":"中正路","SECT":" ","MAREA":" ","LANE":"２５６巷","ALLEY":" ","HOUSE_NO":"１３號之１８","E_COORD97":173256.07999999999,"N_COORD97":2548001.6699999999,"ADDRESS":"中正路２５６巷１３號之１８","OBJECTID":233455},"geometry":{"x":173256.08000000194,"y":2548001.6699999999}},{"attributes":{"ID":233460,"DIS_CODE":0,"TOWNNAME":"中西區","LI":"協和里","LIN":"14鄰","STREET":"和美街","SECT":" ","MAREA":" ","LANE":" ","ALLEY":" ","HOUSE_NO":"４３號","E_COORD97":167143.89999999999,"N_COORD97":2544747.52,"ADDRESS":"和美街４３號","OBJECTID":233456},"geometry":{"x":167143.90000000037,"y":2544747.5199999996}},{"attributes":{"ID":233461,"DIS_CODE":0,"TOWNNAME":"永康區","LI":"北灣里","LIN":"14鄰","STREET":"文賢街","SECT":" ","MAREA":" ","LANE":" ","ALLEY":" ","HOUSE_NO":"３１０號","E_COORD97":175014.85999999999,"N_COORD97":2545842.0099999998,"ADDRESS":"文賢街３１０號","OBJECTID":233457},"geometry":{"x":175014.86000000034,"y":2545842.0100000016}},{"attributes":{"ID":233462,"DIS_CODE":0,"TOWNNAME":"永康區","LI":"東橋里","LIN":"14鄰","STREET":"東橋三路","SECT":" ","MAREA":" ","LANE":" ","ALLEY":" ","HOUSE_NO":"１３１號","E_COORD97":171491.35000000001,"N_COORD97":2546747.8199999998,"ADDRESS":"東橋三路１３１號","OBJECTID":233458},"geometry":{"x":171491.35000000056,"y":2546747.8200000003}},{"attributes":{"ID":233463,"DIS_CODE":0,"TOWNNAME":"永康區","LI":"東橋里","LIN":"14鄰","STREET":"東橋三路","SECT":" ","MAREA":" ","LANE":" ","ALLEY":" ","HOUSE_NO":"１３３號","E_COORD97":171489.75,"N_COORD97":2546751.54,"ADDRESS":"東橋三路１３３號","OBJECTID":233459},"geometry":{"x":171489.75,"y":2546751.5399999991}},{"attributes":{"ID":233464,"DIS_CODE":0,"TOWNNAME":"永康區","LI":"東橋里","LIN":"14鄰","STREET":"東橋三路","SECT":" ","MAREA":" ","LANE":" ","ALLEY":" ","HOUSE_NO":"１３５號","E_COORD97":171489.60000000001,"N_COORD97":2546756.6600000001,"ADDRESS":"東橋三路１３５號","OBJECTID":233460},"geometry":{"x":171489.60000000056,"y":2546756.660000002}},{"attributes":{"ID":233465,"DIS_CODE":0,"TOWNNAME":"永康區","LI":"東橋里","LIN":"14鄰","STREET":"東橋三路","SECT":" ","MAREA":" ","LANE":" ","ALLEY":" ","HOUSE_NO":"１３７號","E_COORD97":171488.17000000001,"N_COORD97":2546760.0699999998,"ADDRESS":"東橋三路１３７號","OBJECTID":233461},"geometry":{"x":171488.16999999993,"y":2546760.070000004}},{"attributes":{"ID":233466,"DIS_CODE":0,"TOWNNAME":"永康區","LI":"北灣里","LIN":"14鄰","STREET":"文賢街","SECT":" ","MAREA":" ","LANE":" ","ALLEY":" ","HOUSE_NO":"３０８號","E_COORD97":175021.98999999999,"N_COORD97":2545843.4700000002,"ADDRESS":"文賢街３０８號","OBJECTID":233462},"geometry":{"x":175021.99000000115,"y":2545843.4700000025}},{"attributes":{"ID":233467,"DIS_CODE":0,"TOWNNAME":"永康區","LI":"王行里","LIN":"14鄰","STREET":"環工路","SECT":" ","MAREA":" ","LANE":" ","ALLEY":" ","HOUSE_NO":"５８號","E_COORD97":174938.70000000001,"N_COORD97":2549840.1699999999,"ADDRESS":"環工路５８號","OBJECTID":233463},"geometry":{"x":174938.70000000205,"y":2549840.1699999999}},{"attributes":{"ID":233468,"DIS_CODE":0,"TOWNNAME":"南區","LI":"郡南里","LIN":"4鄰","STREET":"新都路","SECT":" ","MAREA":" ","LANE":" ","ALLEY":" ","HOUSE_NO":"４５９號","E_COORD97":167246.70999999999,"N_COORD97":2540779.3300000001,"ADDRESS":"新都路４５９號","OBJECTID":233464},"geometry":{"x":167246.70999999996,"y":2540779.3300000001}},{"attributes":{"ID":233469,"DIS_CODE":0,"TOWNNAME":"南區","LI":"明興里","LIN":"5鄰","STREET":"金華路","SECT":"一段","MAREA":" ","LANE":" ","ALLEY":" ","HOUSE_NO":"１９２號","E_COORD97":166954.29999999999,"N_COORD97":2540755.96,"ADDRESS":"金華路一段１９２號","OBJECTID":233465},"geometry":{"x":166954.29999999981,"y":2540755.9600000009}},{"attributes":{"ID":233470,"DIS_CODE":0,"TOWNNAME":"安南區","LI":"州南里","LIN":"23鄰","STREET":"安和路","SECT":"四段","MAREA":" ","LANE":"５３７巷","ALLEY":" ","HOUSE_NO":"７號","E_COORD97":169908.48000000001,"N_COORD97":2551328.6800000002,"ADDRESS":"安和路四段５３７巷７號","OBJECTID":233466},"geometry":{"x":169908.48000000045,"y":2551328.6799999997}},{"attributes":{"ID":233471,"DIS_CODE":0,"TOWNNAME":"安南區","LI":"州南里","LIN":"23鄰","STREET":"安和路","SECT":"四段","MAREA":" ","LANE":"５３７巷","ALLEY":" ","HOUSE_NO":"９號","E_COORD97":169905.14000000001,"N_COORD97":2551330.6200000001,"ADDRESS":"安和路四段５３７巷９號","OBJECTID":233467},"geometry":{"x":169905.13999999966,"y":2551330.6199999992}},{"attributes":{"ID":233472,"DIS_CODE":0,"TOWNNAME":"安南區","LI":"安東里","LIN":"23鄰","STREET":"安和路","SECT":"一段","MAREA":" ","LANE":"４９６巷","ALLEY":" ","HOUSE_NO":"４７號","E_COORD97":169566.09,"N_COORD97":2548379.9900000002,"ADDRESS":"安和路一段４９６巷４７號","OBJECTID":233468},"geometry":{"x":169566.09000000078,"y":2548379.9900000002}},{"attributes":{"ID":233473,"DIS_CODE":0,"TOWNNAME":"安南區","LI":"安東里","LIN":"23鄰","STREET":"安和路","SECT":"一段","MAREA":" ","LANE":"４９６巷","ALLEY":" ","HOUSE_NO":"４９號","E_COORD97":169568.75,"N_COORD97":2548374.8199999998,"ADDRESS":"安和路一段４９６巷４９號","OBJECTID":233469},"geometry":{"x":169568.75,"y":2548374.8200000003}},{"attributes":{"ID":233474,"DIS_CODE":0,"TOWNNAME":"新營區","LI":"忠政里","LIN":"23鄰","STREET":"府西路","SECT":" ","MAREA":" ","LANE":"１８１巷","ALLEY":" ","HOUSE_NO":"７號","E_COORD97":179756.16,"N_COORD97":2579426.6000000001,"ADDRESS":"府西路１８１巷７號","OBJECTID":233470},"geometry":{"x":179756.16000000015,"y":2579426.6000000015}},{"attributes":{"ID":233475,"DIS_CODE":0,"TOWNNAME":"新營區","LI":"新北里","LIN":"23鄰","STREET":"民生路","SECT":" ","MAREA":" ","LANE":"３８６巷","ALLEY":" ","HOUSE_NO":"２０號","E_COORD97":178892.66,"N_COORD97":2579316.6600000001,"ADDRESS":"民生路３８６巷２０號","OBJECTID":233471},"geometry":{"x":178892.66000000108,"y":2579316.6600000001}},{"attributes":{"ID":233476,"DIS_CODE":0,"TOWNNAME":"新營區","LI":"南紙里","LIN":"23鄰","STREET":"南紙街","SECT":" ","MAREA":" ","LANE":"１１９巷","ALLEY":" ","HOUSE_NO":"５號","E_COORD97":177851.17000000001,"N_COORD97":2577427.9399999999,"ADDRESS":"南紙街１１９巷５號","OBJECTID":233472},"geometry":{"x":177851.17000000086,"y":2577427.9399999995}},{"attributes":{"ID":233477,"DIS_CODE":0,"TOWNNAME":"新營區","LI":"民榮里","LIN":"23鄰","STREET":"裕民路","SECT":" ","MAREA":" ","LANE":"１６巷","ALLEY":" ","HOUSE_NO":"１７號","E_COORD97":179079.17000000001,"N_COORD97":2577910.4100000001,"ADDRESS":"裕民路１６巷１７號","OBJECTID":233473},"geometry":{"x":179079.16999999993,"y":2577910.4100000001}},{"attributes":{"ID":233478,"DIS_CODE":0,"TOWNNAME":"新營區","LI":"南紙里","LIN":"23鄰","STREET":"南紙街","SECT":" ","MAREA":" ","LANE":"１１７巷","ALLEY":" ","HOUSE_NO":"１６號","E_COORD97":177855.67000000001,"N_COORD97":2577470.0099999998,"ADDRESS":"南紙街１１７巷１６號","OBJECTID":233474},"geometry":{"x":177855.66999999993,"y":2577470.0100000035}},{"attributes":{"ID":233479,"DIS_CODE":0,"TOWNNAME":"永康區","LI":"正強里","LIN":"48鄰","STREET":"中正路","SECT":" ","MAREA":" ","LANE":"２５６巷","ALLEY":" ","HOUSE_NO":"１３號之４６","E_COORD97":173256.03,"N_COORD97":2548001.6699999999,"ADDRESS":"中正路２５６巷１３號之４６","OBJECTID":233475},"geometry":{"x":173256.03000000026,"y":2548001.6699999999}},{"attributes":{"ID":233480,"DIS_CODE":0,"TOWNNAME":"永康區","LI":"西灣里","LIN":"48鄰","STREET":"永華路","SECT":" ","MAREA":" ","LANE":"２７３巷","ALLEY":" ","HOUSE_NO":"２３號","E_COORD97":174006.42999999999,"N_COORD97":2545803.4399999999,"ADDRESS":"永華路２７３巷２３號","OBJECTID":233476},"geometry":{"x":174006.43000000063,"y":2545803.4399999995}},{"attributes":{"ID":233481,"DIS_CODE":0,"TOWNNAME":"永康區","LI":"西灣里","LIN":"48鄰","STREET":"永華路","SECT":" ","MAREA":" ","LANE":"２７３巷","ALLEY":" ","HOUSE_NO":"３１號","E_COORD97":173979.32000000001,"N_COORD97":2545795.4100000001,"ADDRESS":"永華路２７３巷３１號","OBJECTID":233477},"geometry":{"x":173979.32000000123,"y":2545795.410000002}},{"attributes":{"ID":233482,"DIS_CODE":0,"TOWNNAME":"中西區","LI":"三合里","LIN":"16鄰","STREET":"成功路","SECT":" ","MAREA":" ","LANE":"４９３巷","ALLEY":" ","HOUSE_NO":"９號","E_COORD97":167487.70999999999,"N_COORD97":2544683.6099999999,"ADDRESS":"成功路４９３巷９號","OBJECTID":233478},"geometry":{"x":167487.70999999996,"y":2544683.6099999994}},{"attributes":{"ID":233483,"DIS_CODE":0,"TOWNNAME":"中西區","LI":"三合里","LIN":"16鄰","STREET":"信義街","SECT":" ","MAREA":" ","LANE":"１０８巷","ALLEY":" ","HOUSE_NO":"５５號","E_COORD97":167482.20000000001,"N_COORD97":2544642.7799999998,"ADDRESS":"信義街１０８巷５５號","OBJECTID":233479},"geometry":{"x":167482.20000000112,"y":2544642.7800000012}},{"attributes":{"ID":233484,"DIS_CODE":0,"TOWNNAME":"佳里區","LI":"安西里","LIN":"48鄰","STREET":"育善街","SECT":" ","MAREA":" ","LANE":"３２巷","ALLEY":" ","HOUSE_NO":"３１號","E_COORD97":165032.73999999999,"N_COORD97":2562191.1699999999,"ADDRESS":"育善街３２巷３１號","OBJECTID":233480},"geometry":{"x":165032.74000000022,"y":2562191.1699999999}},{"attributes":{"ID":233485,"DIS_CODE":0,"TOWNNAME":"佳里區","LI":"安西里","LIN":"48鄰","STREET":"育善街","SECT":" ","MAREA":" ","LANE":"３２巷","ALLEY":" ","HOUSE_NO":"３３號","E_COORD97":165032.42999999999,"N_COORD97":2562195.9900000002,"ADDRESS":"育善街３２巷３３號","OBJECTID":233481},"geometry":{"x":165032.43000000063,"y":2562195.9900000002}},{"attributes":{"ID":233486,"DIS_CODE":0,"TOWNNAME":"新化區","LI":"知義里","LIN":"14鄰","STREET":"中正路","SECT":" ","MAREA":" ","LANE":" ","ALLEY":" ","HOUSE_NO":"８６號","E_COORD97":179156.76000000001,"N_COORD97":2547321.25,"ADDRESS":"中正路８６號","OBJECTID":233482},"geometry":{"x":179156.75999999978,"y":2547321.2499999981}},{"attributes":{"ID":233487,"DIS_CODE":0,"TOWNNAME":"新化區","LI":"太平里","LIN":"14鄰","STREET":"太平街","SECT":" ","MAREA":" ","LANE":" ","ALLEY":" ","HOUSE_NO":"６４號之７","E_COORD97":178735.42000000001,"N_COORD97":2548773.2599999998,"ADDRESS":"太平街６４號之７","OBJECTID":233483},"geometry":{"x":178735.41999999993,"y":2548773.2600000016}},{"attributes":{"ID":233488,"DIS_CODE":0,"TOWNNAME":"安南區","LI":"城東里","LIN":"14鄰","STREET":"城北路","SECT":" ","MAREA":" ","LANE":" ","ALLEY":" ","HOUSE_NO":"４８４號之１２","E_COORD97":160918,"N_COORD97":2552446.3599999999,"ADDRESS":"城北路４８４號之１２","OBJECTID":233484},"geometry":{"x":160918.00000000093,"y":2552446.3600000031}},{"attributes":{"ID":233489,"DIS_CODE":0,"TOWNNAME":"安南區","LI":"城南里","LIN":"14鄰","STREET":"城西街","SECT":"二段","MAREA":" ","LANE":" ","ALLEY":" ","HOUSE_NO":"１８７號","E_COORD97":159875.31,"N_COORD97":2551002.98,"ADDRESS":"城西街二段１８７號","OBJECTID":233485},"geometry":{"x":159875.30999999959,"y":2551002.9800000023}},{"attributes":{"ID":233490,"DIS_CODE":0,"TOWNNAME":"安南區","LI":"城南里","LIN":"14鄰","STREET":"城西街","SECT":"二段","MAREA":" ","LANE":" ","ALLEY":" ","HOUSE_NO":"２２１號","E_COORD97":159797.92999999999,"N_COORD97":2550986.1699999999,"ADDRESS":"城西街二段２２１號","OBJECTID":233486},"geometry":{"x":159797.9299999997,"y":2550986.1699999999}},{"attributes":{"ID":233491,"DIS_CODE":0,"TOWNNAME":"安南區","LI":"城南里","LIN":"14鄰","STREET":"城西街","SECT":"二段","MAREA":" ","LANE":" ","ALLEY":" ","HOUSE_NO":"２２３號","E_COORD97":159793.95999999999,"N_COORD97":2550988.2999999998,"ADDRESS":"城西街二段２２３號","OBJECTID":233487},"geometry":{"x":159793.96000000089,"y":2550988.3000000026}},{"attributes":{"ID":233492,"DIS_CODE":0,"TOWNNAME":"安南區","LI":"城南里","LIN":"14鄰","STREET":"城西街","SECT":"二段","MAREA":" ","LANE":" ","ALLEY":" ","HOUSE_NO":"２２５號","E_COORD97":159789.69,"N_COORD97":2550982.8199999998,"ADDRESS":"城西街二段２２５號","OBJECTID":233488},"geometry":{"x":159789.69000000134,"y":2550982.820000004}},{"attributes":{"ID":233493,"DIS_CODE":0,"TOWNNAME":"安南區","LI":"城南里","LIN":"14鄰","STREET":"城西街","SECT":"二段","MAREA":" ","LANE":" ","ALLEY":" ","HOUSE_NO":"２２７號","E_COORD97":159786.03,"N_COORD97":2550979.4700000002,"ADDRESS":"城西街二段２２７號","OBJECTID":233489},"geometry":{"x":159786.03000000026,"y":2550979.4700000025}},{"attributes":{"ID":233494,"DIS_CODE":0,"TOWNNAME":"安南區","LI":"城南里","LIN":"14鄰","STREET":"城西街","SECT":"二段","MAREA":" ","LANE":" ","ALLEY":" ","HOUSE_NO":"２２９號","E_COORD97":159781.45999999999,"N_COORD97":2550981.6000000001,"ADDRESS":"城西街二段２２９號","OBJECTID":233490},"geometry":{"x":159781.45999999996,"y":2550981.6000000015}},{"attributes":{"ID":233495,"DIS_CODE":0,"TOWNNAME":"佳里區","LI":"安西里","LIN":"48鄰","STREET":"育善街","SECT":" ","MAREA":" ","LANE":"３２巷","ALLEY":" ","HOUSE_NO":"３５號","E_COORD97":165031.35999999999,"N_COORD97":2562202.4399999999,"ADDRESS":"育善街３２巷３５號","OBJECTID":233491},"geometry":{"x":165031.36000000127,"y":2562202.4399999995}},{"attributes":{"ID":233496,"DIS_CODE":0,"TOWNNAME":"佳里區","LI":"安西里","LIN":"48鄰","STREET":"育善街","SECT":" ","MAREA":" ","LANE":"３２巷","ALLEY":" ","HOUSE_NO":"３７號","E_COORD97":165031.48000000001,"N_COORD97":2562206.7000000002,"ADDRESS":"育善街３２巷３７號","OBJECTID":233492},"geometry":{"x":165031.48000000045,"y":2562206.6999999993}},{"attributes":{"ID":233497,"DIS_CODE":0,"TOWNNAME":"佳里區","LI":"安西里","LIN":"48鄰","STREET":"育善街","SECT":" ","MAREA":" ","LANE":"３２巷","ALLEY":" ","HOUSE_NO":"３９號","E_COORD97":165031.70999999999,"N_COORD97":2562211.6400000001,"ADDRESS":"育善街３２巷３９號","OBJECTID":233493},"geometry":{"x":165031.71000000183,"y":2562211.6400000006}},{"attributes":{"ID":233498,"DIS_CODE":0,"TOWNNAME":"佳里區","LI":"安西里","LIN":"48鄰","STREET":"育善街","SECT":" ","MAREA":" ","LANE":"３２巷","ALLEY":" ","HOUSE_NO":"４１號","E_COORD97":165032.57000000001,"N_COORD97":2562216.1800000002,"ADDRESS":"育善街３２巷４１號","OBJECTID":233494},"geometry":{"x":165032.5700000003,"y":2562216.1800000016}},{"attributes":{"ID":233499,"DIS_CODE":0,"TOWNNAME":"佳里區","LI":"安西里","LIN":"48鄰","STREET":"育善街","SECT":" ","MAREA":" ","LANE":"３２巷","ALLEY":" ","HOUSE_NO":"４３號","E_COORD97":165032.73999999999,"N_COORD97":2562220.6899999999,"ADDRESS":"育善街３２巷４３號","OBJECTID":233495},"geometry":{"x":165032.74000000022,"y":2562220.6899999995}},{"attributes":{"ID":233500,"DIS_CODE":0,"TOWNNAME":"佳里區","LI":"安西里","LIN":"48鄰","STREET":"育善街","SECT":" ","MAREA":" ","LANE":"３２巷","ALLEY":" ","HOUSE_NO":"４５號","E_COORD97":165033.26000000001,"N_COORD97":2562225.3300000001,"ADDRESS":"育善街３２巷４５號","OBJECTID":233496},"geometry":{"x":165033.26000000071,"y":2562225.3300000019}},{"attributes":{"ID":233501,"DIS_CODE":0,"TOWNNAME":"佳里區","LI":"安西里","LIN":"48鄰","STREET":"育善街","SECT":" ","MAREA":" ","LANE":"３２巷","ALLEY":" ","HOUSE_NO":"５號","E_COORD97":165021.29000000001,"N_COORD97":2562160.5,"ADDRESS":"育善街３２巷５號","OBJECTID":233497},"geometry":{"x":165021.29000000097,"y":2562160.5000000019}},{"attributes":{"ID":233502,"DIS_CODE":0,"TOWNNAME":"佳里區","LI":"安西里","LIN":"48鄰","STREET":"育善街","SECT":" ","MAREA":" ","LANE":"３２巷","ALLEY":" ","HOUSE_NO":"７號","E_COORD97":165029.01000000001,"N_COORD97":2562160.7400000002,"ADDRESS":"育善街３２巷７號","OBJECTID":233498},"geometry":{"x":165029.00999999978,"y":2562160.7400000002}},{"attributes":{"ID":233503,"DIS_CODE":0,"TOWNNAME":"六甲區","LI":"六甲里","LIN":"23鄰","STREET":"中正路","SECT":" ","MAREA":" ","LANE":"４５９巷","ALLEY":" ","HOUSE_NO":"２６號","E_COORD97":183522.84,"N_COORD97":2569839.9900000002,"ADDRESS":"中正路４５９巷２６號","OBJECTID":233499},"geometry":{"x":183522.83999999985,"y":2569839.9900000021}},{"attributes":{"ID":233504,"DIS_CODE":0,"TOWNNAME":"六甲區","LI":"六甲里","LIN":"23鄰","STREET":"中正路","SECT":" ","MAREA":" ","LANE":"４５９巷","ALLEY":" ","HOUSE_NO":"２號","E_COORD97":183563.32999999999,"N_COORD97":2569818.3300000001,"ADDRESS":"中正路４５９巷２號","OBJECTID":233500},"geometry":{"x":183563.33000000101,"y":2569818.3300000001}},{"attributes":{"ID":233505,"DIS_CODE":0,"TOWNNAME":"六甲區","LI":"六甲里","LIN":"23鄰","STREET":"中正路","SECT":" ","MAREA":" ","LANE":"４５９巷","ALLEY":" ","HOUSE_NO":"３０號","E_COORD97":183529.09,"N_COORD97":2569847.9399999999,"ADDRESS":"中正路４５９巷３０號","OBJECTID":233501},"geometry":{"x":183529.09000000078,"y":2569847.9399999995}},{"attributes":{"ID":233506,"DIS_CODE":0,"TOWNNAME":"六甲區","LI":"六甲里","LIN":"23鄰","STREET":"中正路","SECT":" ","MAREA":" ","LANE":"４５９巷","ALLEY":" ","HOUSE_NO":"３２號","E_COORD97":183530.44,"N_COORD97":2569852.3700000001,"ADDRESS":"中正路４５９巷３２號","OBJECTID":233502},"geometry":{"x":183530.44000000134,"y":2569852.3700000029}},{"attributes":{"ID":233507,"DIS_CODE":0,"TOWNNAME":"六甲區","LI":"六甲里","LIN":"23鄰","STREET":"中正路","SECT":" ","MAREA":" ","LANE":"４５９巷","ALLEY":" ","HOUSE_NO":"４號","E_COORD97":183559.06,"N_COORD97":2569819.2799999998,"ADDRESS":"中正路４５９巷４號","OBJECTID":233503},"geometry":{"x":183559.06000000145,"y":2569819.2800000031}},{"attributes":{"ID":233508,"DIS_CODE":0,"TOWNNAME":"六甲區","LI":"六甲里","LIN":"23鄰","STREET":"中正路","SECT":" ","MAREA":" ","LANE":"４５９巷","ALLEY":" ","HOUSE_NO":"８號","E_COORD97":183551.5,"N_COORD97":2569820.5899999999,"ADDRESS":"中正路４５９巷８號","OBJECTID":233504},"geometry":{"x":183551.50000000186,"y":2569820.5899999999}},{"attributes":{"ID":233509,"DIS_CODE":0,"TOWNNAME":"六甲區","LI":"六甲里","LIN":"23鄰","STREET":"中正路","SECT":" ","MAREA":" ","LANE":"４８５巷","ALLEY":" ","HOUSE_NO":"１０號","E_COORD97":183574.51999999999,"N_COORD97":2569894.4700000002,"ADDRESS":"中正路４８５巷１０號","OBJECTID":233505},"geometry":{"x":183574.52000000142,"y":2569894.4700000025}},{"attributes":{"ID":233510,"DIS_CODE":0,"TOWNNAME":"六甲區","LI":"六甲里","LIN":"23鄰","STREET":"中正路","SECT":" ","MAREA":" ","LANE":"４８５巷","ALLEY":" ","HOUSE_NO":"１１號","E_COORD97":183566.95999999999,"N_COORD97":2569873.0499999998,"ADDRESS":"中正路４８５巷１１號","OBJECTID":233506},"geometry":{"x":183566.96000000183,"y":2569873.0500000045}},{"attributes":{"ID":233511,"DIS_CODE":0,"TOWNNAME":"六甲區","LI":"六甲里","LIN":"23鄰","STREET":"中正路","SECT":" ","MAREA":" ","LANE":"４８５巷","ALLEY":" ","HOUSE_NO":"１３號","E_COORD97":183562.82000000001,"N_COORD97":2569874.1600000001,"ADDRESS":"中正路４８５巷１３號","OBJECTID":233507},"geometry":{"x":183562.8200000003,"y":2569874.1600000001}},{"attributes":{"ID":233512,"DIS_CODE":0,"TOWNNAME":"六甲區","LI":"六甲里","LIN":"23鄰","STREET":"中正路","SECT":" ","MAREA":" ","LANE":"４８５巷","ALLEY":" ","HOUSE_NO":"１４號","E_COORD97":183567.06,"N_COORD97":2569896.6299999999,"ADDRESS":"中正路４８５巷１４號","OBJECTID":233508},"geometry":{"x":183567.05999999959,"y":2569896.629999999}},{"attributes":{"ID":233513,"DIS_CODE":0,"TOWNNAME":"安南區","LI":"城南里","LIN":"14鄰","STREET":"城西街","SECT":"二段","MAREA":" ","LANE":" ","ALLEY":" ","HOUSE_NO":"２３１號","E_COORD97":159776.88,"N_COORD97":2550983.73,"ADDRESS":"城西街二段２３１號","OBJECTID":233509},"geometry":{"x":159776.87999999989,"y":2550983.7300000042}},{"attributes":{"ID":233514,"DIS_CODE":0,"TOWNNAME":"安南區","LI":"城南里","LIN":"14鄰","STREET":"城西街","SECT":"二段","MAREA":" ","LANE":" ","ALLEY":" ","HOUSE_NO":"２０５號","E_COORD97":159831.78,"N_COORD97":2550996.2200000002,"ADDRESS":"城西街二段２０５號","OBJECTID":233510},"geometry":{"x":159831.78000000026,"y":2550996.2200000007}},{"attributes":{"ID":233515,"DIS_CODE":0,"TOWNNAME":"南區","LI":"大忠里","LIN":"7鄰","STREET":"中華南路","SECT":"一段","MAREA":" ","LANE":" ","ALLEY":" ","HOUSE_NO":"６０號","E_COORD97":169336.59,"N_COORD97":2541412.2000000002,"ADDRESS":"中華南路一段６０號","OBJECTID":233511},"geometry":{"x":169336.59000000078,"y":2541412.2000000011}},{"attributes":{"ID":233516,"DIS_CODE":0,"TOWNNAME":"永康區","LI":"北灣里","LIN":"14鄰","STREET":"文賢街","SECT":" ","MAREA":" ","LANE":" ","ALLEY":" ","HOUSE_NO":"３０６號","E_COORD97":174998.5,"N_COORD97":2545843.7400000002,"ADDRESS":"文賢街３０６號","OBJECTID":233512},"geometry":{"x":174998.5,"y":2545843.7400000039}},{"attributes":{"ID":233517,"DIS_CODE":0,"TOWNNAME":"永康區","LI":"西勢里","LIN":"14鄰","STREET":"西勢路","SECT":" ","MAREA":" ","LANE":" ","ALLEY":" ","HOUSE_NO":"７１號","E_COORD97":176154.29000000001,"N_COORD97":2546749.9100000001,"ADDRESS":"西勢路７１號","OBJECTID":233513},"geometry":{"x":176154.29000000004,"y":2546749.9100000001}},{"attributes":{"ID":233518,"DIS_CODE":0,"TOWNNAME":"永康區","LI":"西灣里","LIN":"14鄰","STREET":"大灣五街","SECT":" ","MAREA":" ","LANE":" ","ALLEY":" ","HOUSE_NO":"５８號","E_COORD97":174727.29999999999,"N_COORD97":2545253.9199999999,"ADDRESS":"大灣五街５８號","OBJECTID":233514},"geometry":{"x":174727.29999999888,"y":2545253.9199999999}},{"attributes":{"ID":233519,"DIS_CODE":0,"TOWNNAME":"永康區","LI":"大橋里","LIN":"14鄰","STREET":"大橋二街","SECT":" ","MAREA":" ","LANE":" ","ALLEY":" ","HOUSE_NO":"３６號","E_COORD97":170796.47,"N_COORD97":2546557.5299999998,"ADDRESS":"大橋二街３６號","OBJECTID":233515},"geometry":{"x":170796.46999999974,"y":2546557.5300000012}},{"attributes":{"ID":233520,"DIS_CODE":0,"TOWNNAME":"永康區","LI":"尚頂里","LIN":"14鄰","STREET":"正南一街","SECT":" ","MAREA":" ","LANE":" ","ALLEY":" ","HOUSE_NO":"２０１號","E_COORD97":170624.20000000001,"N_COORD97":2547441.1699999999,"ADDRESS":"正南一街２０１號","OBJECTID":233516},"geometry":{"x":170624.20000000019,"y":2547441.1700000018}},{"attributes":{"ID":233521,"DIS_CODE":0,"TOWNNAME":"永康區","LI":"北灣里","LIN":"14鄰","STREET":"文賢街","SECT":" ","MAREA":" ","LANE":" ","ALLEY":" ","HOUSE_NO":"３００號","E_COORD97":175044.04999999999,"N_COORD97":2545837.8700000001,"ADDRESS":"文賢街３００號","OBJECTID":233517},"geometry":{"x":175044.04999999981,"y":2545837.8700000029}},{"attributes":{"ID":233522,"DIS_CODE":0,"TOWNNAME":"永康區","LI":"網寮里","LIN":"14鄰","STREET":"永和街","SECT":" ","MAREA":" ","LANE":" ","ALLEY":" ","HOUSE_NO":"２７２號","E_COORD97":173373.62,"N_COORD97":2546586.1600000001,"ADDRESS":"永和街２７２號","OBJECTID":233518},"geometry":{"x":173373.62000000011,"y":2546586.1600000001}},{"attributes":{"ID":233523,"DIS_CODE":0,"TOWNNAME":"佳里區","LI":"安西里","LIN":"48鄰","STREET":"育善街","SECT":" ","MAREA":" ","LANE":"３２巷","ALLEY":" ","HOUSE_NO":"９號","E_COORD97":165036.54999999999,"N_COORD97":2562161.6099999999,"ADDRESS":"育善街３２巷９號","OBJECTID":233519},"geometry":{"x":165036.55000000075,"y":2562161.6100000031}},{"attributes":{"ID":233524,"DIS_CODE":0,"TOWNNAME":"東區","LI":"成大里","LIN":"24鄰","STREET":"育樂街","SECT":" ","MAREA":" ","LANE":"１１７巷","ALLEY":" ","HOUSE_NO":"２５號","E_COORD97":169560.37,"N_COORD97":2543959.7799999998,"ADDRESS":"育樂街１１７巷２５號","OBJECTID":233520},"geometry":{"x":169560.37000000197,"y":2543959.7799999993}},{"attributes":{"ID":233525,"DIS_CODE":0,"TOWNNAME":"東區","LI":"成大里","LIN":"24鄰","STREET":"育樂街","SECT":" ","MAREA":" ","LANE":"１１７巷","ALLEY":" ","HOUSE_NO":"２６號","E_COORD97":169563.42999999999,"N_COORD97":2543961.2999999998,"ADDRESS":"育樂街１１７巷２６號","OBJECTID":233521},"geometry":{"x":169563.43000000063,"y":2543961.3000000007}},{"attributes":{"ID":233526,"DIS_CODE":0,"TOWNNAME":"東區","LI":"成大里","LIN":"24鄰","STREET":"育樂街","SECT":" ","MAREA":" ","LANE":"１１７巷","ALLEY":" ","HOUSE_NO":"２７號","E_COORD97":169567.84,"N_COORD97":2543963.8500000001,"ADDRESS":"育樂街１１７巷２７號","OBJECTID":233522},"geometry":{"x":169567.83999999985,"y":2543963.8500000034}},{"attributes":{"ID":233527,"DIS_CODE":0,"TOWNNAME":"東區","LI":"成大里","LIN":"24鄰","STREET":"育樂街","SECT":" ","MAREA":" ","LANE":"１１７巷","ALLEY":" ","HOUSE_NO":"２８號","E_COORD97":169572.25,"N_COORD97":2543969.4399999999,"ADDRESS":"育樂街１１７巷２８號","OBJECTID":233523},"geometry":{"x":169572.25,"y":2543969.4399999995}},{"attributes":{"ID":233528,"DIS_CODE":0,"TOWNNAME":"東區","LI":"成大里","LIN":"24鄰","STREET":"育樂街","SECT":" ","MAREA":" ","LANE":"１１７巷","ALLEY":" ","HOUSE_NO":"２９號","E_COORD97":169583.45000000001,"N_COORD97":2543974.3500000001,"ADDRESS":"育樂街１１７巷２９號","OBJECTID":233524},"geometry":{"x":169583.44999999925,"y":2543974.3500000015}},{"attributes":{"ID":233529,"DIS_CODE":0,"TOWNNAME":"佳里區","LI":"安西里","LIN":"48鄰","STREET":"育善街","SECT":" ","MAREA":" ","LANE":"６９巷","ALLEY":" ","HOUSE_NO":"１１號","E_COORD97":164949.95000000001,"N_COORD97":2562188.2200000002,"ADDRESS":"育善街６９巷１１號","OBJECTID":233525},"geometry":{"x":164949.95000000019,"y":2562188.2200000007}},{"attributes":{"ID":233530,"DIS_CODE":0,"TOWNNAME":"佳里區","LI":"安西里","LIN":"48鄰","STREET":"育善街","SECT":" ","MAREA":" ","LANE":"６９巷","ALLEY":" ","HOUSE_NO":"１３號","E_COORD97":164944.89000000001,"N_COORD97":2562188.25,"ADDRESS":"育善街６９巷１３號","OBJECTID":233526},"geometry":{"x":164944.88999999966,"y":2562188.2500000037}},{"attributes":{"ID":233531,"DIS_CODE":0,"TOWNNAME":"佳里區","LI":"安西里","LIN":"48鄰","STREET":"育善街","SECT":" ","MAREA":" ","LANE":"６９巷","ALLEY":" ","HOUSE_NO":"１５號","E_COORD97":164939.84,"N_COORD97":2562188.2799999998,"ADDRESS":"育善街６９巷１５號","OBJECTID":233527},"geometry":{"x":164939.84000000078,"y":2562188.2800000012}},{"attributes":{"ID":233532,"DIS_CODE":0,"TOWNNAME":"佳里區","LI":"安西里","LIN":"48鄰","STREET":"育善街","SECT":" ","MAREA":" ","LANE":"６９巷","ALLEY":" ","HOUSE_NO":"８號","E_COORD97":164891.13,"N_COORD97":2562227.6000000001,"ADDRESS":"育善街６９巷８號","OBJECTID":233528},"geometry":{"x":164891.12999999989,"y":2562227.6000000015}},{"attributes":{"ID":233533,"DIS_CODE":0,"TOWNNAME":"佳里區","LI":"安西里","LIN":"48鄰","STREET":"育善街","SECT":" ","MAREA":" ","LANE":"６９巷","ALLEY":" ","HOUSE_NO":"９號","E_COORD97":164954.88,"N_COORD97":2562188.0299999998,"ADDRESS":"育善街６９巷９號","OBJECTID":233529},"geometry":{"x":164954.88000000082,"y":2562188.0299999993}},{"attributes":{"ID":233534,"DIS_CODE":0,"TOWNNAME":"新市區","LI":"新和里","LIN":"48鄰","STREET":"和平街","SECT":" ","MAREA":" ","LANE":"１５４巷","ALLEY":" ","HOUSE_NO":"２７號","E_COORD97":177426.79000000001,"N_COORD97":2553405.75,"ADDRESS":"和平街１５４巷２７號","OBJECTID":233530},"geometry":{"x":177426.79000000097,"y":2553405.75}},{"attributes":{"ID":233535,"DIS_CODE":0,"TOWNNAME":"新市區","LI":"新和里","LIN":"48鄰","STREET":"和平街","SECT":" ","MAREA":" ","LANE":"１３８巷","ALLEY":" ","HOUSE_NO":"４號","E_COORD97":177506.98000000001,"N_COORD97":2553370.25,"ADDRESS":"和平街１３８巷４號","OBJECTID":233531},"geometry":{"x":177506.98000000231,"y":2553370.2500000019}},{"attributes":{"ID":233536,"DIS_CODE":0,"TOWNNAME":"新市區","LI":"新和里","LIN":"48鄰","STREET":"和平街","SECT":" ","MAREA":" ","LANE":"１５４巷","ALLEY":" ","HOUSE_NO":"１７號","E_COORD97":177440.23000000001,"N_COORD97":2553379.25,"ADDRESS":"和平街１５４巷１７號","OBJECTID":233532},"geometry":{"x":177440.23000000045,"y":2553379.25}},{"attributes":{"ID":233537,"DIS_CODE":0,"TOWNNAME":"新市區","LI":"新和里","LIN":"48鄰","STREET":"和平街","SECT":" ","MAREA":" ","LANE":"１３８巷","ALLEY":" ","HOUSE_NO":"１９號","E_COORD97":177474.17000000001,"N_COORD97":2553396.5,"ADDRESS":"和平街１３８巷１９號","OBJECTID":233533},"geometry":{"x":177474.16999999993,"y":2553396.5000000019}},{"attributes":{"ID":233538,"DIS_CODE":0,"TOWNNAME":"北區","LI":"成德里","LIN":"38鄰","STREET":"育德二路","SECT":" ","MAREA":" ","LANE":"８０９巷","ALLEY":" ","HOUSE_NO":"２號","E_COORD97":168107.76000000001,"N_COORD97":2546756.9199999999,"ADDRESS":"育德二路８０９巷２號","OBJECTID":233534},"geometry":{"x":168107.75999999978,"y":2546756.9199999999}},{"attributes":{"ID":233539,"DIS_CODE":0,"TOWNNAME":"永康區","LI":"北灣里","LIN":"14鄰","STREET":"文賢街","SECT":" ","MAREA":" ","LANE":" ","ALLEY":" ","HOUSE_NO":"３１２號","E_COORD97":175024.03,"N_COORD97":2545833.7999999998,"ADDRESS":"文賢街３１２號","OBJECTID":233535},"geometry":{"x":175024.03000000026,"y":2545833.8000000026}},{"attributes":{"ID":233540,"DIS_CODE":0,"TOWNNAME":"新營區","LI":"太北里","LIN":"19鄰","STREET":" ","SECT":" ","MAREA":"太子宮","LANE":" ","ALLEY":" ","HOUSE_NO":"４４號之１１","E_COORD97":175697.60999999999,"N_COORD97":2577180.6299999999,"ADDRESS":"太子宮４４號之１１","OBJECTID":233536},"geometry":{"x":175697.61000000127,"y":2577180.6300000008}},{"attributes":{"ID":233541,"DIS_CODE":0,"TOWNNAME":"柳營區","LI":"太康里","LIN":"16鄰","STREET":" ","SECT":" ","MAREA":"太康","LANE":" ","ALLEY":" ","HOUSE_NO":"１４５之１號","E_COORD97":181855.97,"N_COORD97":2576415.1299999999,"ADDRESS":"太康１４５之１號","OBJECTID":233537},"geometry":{"x":181855.96999999974,"y":2576415.1300000008}},{"attributes":{"ID":233542,"DIS_CODE":0,"TOWNNAME":"新營區","LI":"南紙里","LIN":"19鄰","STREET":"太子路","SECT":" ","MAREA":" ","LANE":" ","ALLEY":" ","HOUSE_NO":"２４０號之１","E_COORD97":177791.73000000001,"N_COORD97":2577838.0699999998,"ADDRESS":"太子路２４０號之１","OBJECTID":233538},"geometry":{"x":177791.73000000231,"y":2577838.0700000003}},{"attributes":{"ID":233543,"DIS_CODE":0,"TOWNNAME":"東區","LI":"大同里","LIN":"11鄰","STREET":"大同路","SECT":"一段","MAREA":" ","LANE":"１４１巷","ALLEY":" ","HOUSE_NO":"５４號","E_COORD97":169314.45999999999,"N_COORD97":2542936.3599999999,"ADDRESS":"大同路一段１４１巷５４號","OBJECTID":233539},"geometry":{"x":169314.46000000089,"y":2542936.3600000031}},{"attributes":{"ID":233544,"DIS_CODE":0,"TOWNNAME":"東區","LI":"大同里","LIN":"11鄰","STREET":"大同路","SECT":"一段","MAREA":" ","LANE":"１４１巷","ALLEY":" ","HOUSE_NO":"５５號","E_COORD97":169282.78,"N_COORD97":2542987.0699999998,"ADDRESS":"大同路一段１４１巷５５號","OBJECTID":233540},"geometry":{"x":169282.78000000026,"y":2542987.0700000022}},{"attributes":{"ID":233545,"DIS_CODE":0,"TOWNNAME":"柳營區","LI":"太康里","LIN":"16鄰","STREET":" ","SECT":" ","MAREA":"太康","LANE":" ","ALLEY":" ","HOUSE_NO":"１４５之２號","E_COORD97":181851.67999999999,"N_COORD97":2576420.5099999998,"ADDRESS":"太康１４５之２號","OBJECTID":233541},"geometry":{"x":181851.68000000063,"y":2576420.5100000016}},{"attributes":{"ID":233546,"DIS_CODE":0,"TOWNNAME":"柳營區","LI":"太康里","LIN":"16鄰","STREET":" ","SECT":" ","MAREA":"太康","LANE":" ","ALLEY":" ","HOUSE_NO":"１４５號","E_COORD97":181849.60000000001,"N_COORD97":2576412.4100000001,"ADDRESS":"太康１４５號","OBJECTID":233542},"geometry":{"x":181849.59999999963,"y":2576412.4100000001}},{"attributes":{"ID":233547,"DIS_CODE":0,"TOWNNAME":"柳營區","LI":"太康里","LIN":"16鄰","STREET":" ","SECT":" ","MAREA":"太康","LANE":" ","ALLEY":" ","HOUSE_NO":"１４６之３號","E_COORD97":181881.06,"N_COORD97":2576414.8199999998,"ADDRESS":"太康１４６之３號","OBJECTID":233543},"geometry":{"x":181881.06000000052,"y":2576414.8200000022}},{"attributes":{"ID":233548,"DIS_CODE":0,"TOWNNAME":"柳營區","LI":"太康里","LIN":"16鄰","STREET":" ","SECT":" ","MAREA":"太康","LANE":" ","ALLEY":" ","HOUSE_NO":"１４６號","E_COORD97":181895.31,"N_COORD97":2576408.3500000001,"ADDRESS":"太康１４６號","OBJECTID":233544},"geometry":{"x":181895.30999999959,"y":2576408.3499999996}},{"attributes":{"ID":233549,"DIS_CODE":0,"TOWNNAME":"柳營區","LI":"太康里","LIN":"16鄰","STREET":" ","SECT":" ","MAREA":"太康","LANE":" ","ALLEY":" ","HOUSE_NO":"１４７號","E_COORD97":181865.85999999999,"N_COORD97":2576452.6299999999,"ADDRESS":"太康１４７號","OBJECTID":233545},"geometry":{"x":181865.8599999994,"y":2576452.6300000008}},{"attributes":{"ID":233550,"DIS_CODE":0,"TOWNNAME":"柳營區","LI":"太康里","LIN":"16鄰","STREET":" ","SECT":" ","MAREA":"太康","LANE":" ","ALLEY":" ","HOUSE_NO":"１４８號","E_COORD97":181871.39999999999,"N_COORD97":2576440.4399999999,"ADDRESS":"太康１４８號","OBJECTID":233546},"geometry":{"x":181871.4000000013,"y":2576440.4400000013}},{"attributes":{"ID":233551,"DIS_CODE":0,"TOWNNAME":"柳營區","LI":"太康里","LIN":"16鄰","STREET":" ","SECT":" ","MAREA":"太康","LANE":" ","ALLEY":" ","HOUSE_NO":"１４９之１號","E_COORD97":181879.54000000001,"N_COORD97":2576499.0099999998,"ADDRESS":"太康１４９之１號","OBJECTID":233547},"geometry":{"x":181879.54000000004,"y":2576499.0099999998}},{"attributes":{"ID":233552,"DIS_CODE":0,"TOWNNAME":"東區","LI":"忠孝里","LIN":"4鄰","STREET":"崇明四街","SECT":" ","MAREA":" ","LANE":"２６巷","ALLEY":" ","HOUSE_NO":"４號","E_COORD97":169657.67000000001,"N_COORD97":2542289.27,"ADDRESS":"崇明四街２６巷４號","OBJECTID":233548},"geometry":{"x":169657.66999999993,"y":2542289.2699999977}},{"attributes":{"ID":233553,"DIS_CODE":0,"TOWNNAME":"南區","LI":"建南里","LIN":"16鄰","STREET":"中華南路","SECT":"二段","MAREA":" ","LANE":"２３３巷","ALLEY":" ","HOUSE_NO":"３００號","E_COORD97":167136.17000000001,"N_COORD97":2539198.5600000001,"ADDRESS":"中華南路二段２３３巷３００號","OBJECTID":233549},"geometry":{"x":167136.17000000086,"y":2539198.5600000005}},{"attributes":{"ID":233554,"DIS_CODE":0,"TOWNNAME":"東區","LI":"忠孝里","LIN":"4鄰","STREET":"崇明四街","SECT":" ","MAREA":" ","LANE":"２６巷","ALLEY":" ","HOUSE_NO":"６號","E_COORD97":169658.28,"N_COORD97":2542274.1299999999,"ADDRESS":"崇明四街２６巷６號","OBJECTID":233550},"geometry":{"x":169658.28000000119,"y":2542274.1300000008}},{"attributes":{"ID":233555,"DIS_CODE":0,"TOWNNAME":"東區","LI":"忠孝里","LIN":"41鄰","STREET":"崇明路","SECT":" ","MAREA":" ","LANE":"２６６巷","ALLEY":" ","HOUSE_NO":"１號","E_COORD97":169948.45999999999,"N_COORD97":2542032.73,"ADDRESS":"崇明路２６６巷１號","OBJECTID":233551},"geometry":{"x":169948.46000000089,"y":2542032.7300000004}},{"attributes":{"ID":233556,"DIS_CODE":0,"TOWNNAME":"東區","LI":"忠孝里","LIN":"1鄰","STREET":"中華東路","SECT":"三段","MAREA":" ","LANE":"３３６巷","ALLEY":" ","HOUSE_NO":"４５號","E_COORD97":170101.57000000001,"N_COORD97":2541745.7000000002,"ADDRESS":"中華東路三段３３６巷４５號","OBJECTID":233552},"geometry":{"x":170101.57000000216,"y":2541745.6999999993}},{"attributes":{"ID":233557,"DIS_CODE":0,"TOWNNAME":"東區","LI":"忠孝里","LIN":"1鄰","STREET":"中華東路","SECT":"三段","MAREA":" ","LANE":"３３６巷","ALLEY":" ","HOUSE_NO":"４７號","E_COORD97":170098.63,"N_COORD97":2541750.21,"ADDRESS":"中華東路三段３３６巷４７號","OBJECTID":233553},"geometry":{"x":170098.62999999989,"y":2541750.2100000028}},{"attributes":{"ID":233558,"DIS_CODE":0,"TOWNNAME":"東區","LI":"東聖里","LIN":"22鄰","STREET":"富農街","SECT":"二段","MAREA":" ","LANE":"４３巷","ALLEY":" ","HOUSE_NO":"１號","E_COORD97":171613.17999999999,"N_COORD97":2542946.46,"ADDRESS":"富農街二段４３巷１號","OBJECTID":233554},"geometry":{"x":171613.1799999997,"y":2542946.4600000009}},{"attributes":{"ID":233559,"DIS_CODE":0,"TOWNNAME":"東區","LI":"東聖里","LIN":"22鄰","STREET":"富農街","SECT":"二段","MAREA":" ","LANE":"４３巷","ALLEY":" ","HOUSE_NO":"３號","E_COORD97":171608.53,"N_COORD97":2542946.2799999998,"ADDRESS":"富農街二段４３巷３號","OBJECTID":233555},"geometry":{"x":171608.53000000026,"y":2542946.2799999993}},{"attributes":{"ID":233560,"DIS_CODE":0,"TOWNNAME":"東區","LI":"東聖里","LIN":"22鄰","STREET":"富農街","SECT":"二段","MAREA":" ","LANE":"４３巷","ALLEY":" ","HOUSE_NO":"５號","E_COORD97":171604.06,"N_COORD97":2542945.1600000001,"ADDRESS":"富農街二段４３巷５號","OBJECTID":233556},"geometry":{"x":171604.05999999959,"y":2542945.1600000039}},{"attributes":{"ID":233561,"DIS_CODE":0,"TOWNNAME":"東區","LI":"虎尾里","LIN":"11鄰","STREET":"東門路","SECT":"三段","MAREA":" ","LANE":"１７９巷","ALLEY":" ","HOUSE_NO":"１０３號","E_COORD97":171602.73000000001,"N_COORD97":2542046.3100000001,"ADDRESS":"東門路三段１７９巷１０３號","OBJECTID":233557},"geometry":{"x":171602.73000000231,"y":2542046.3100000042}},{"attributes":{"ID":233562,"DIS_CODE":0,"TOWNNAME":"東區","LI":"虎尾里","LIN":"11鄰","STREET":"東門路","SECT":"三段","MAREA":" ","LANE":"１７９巷","ALLEY":" ","HOUSE_NO":"１０５號","E_COORD97":171628.79000000001,"N_COORD97":2542033.3500000001,"ADDRESS":"東門路三段１７９巷１０５號","OBJECTID":233558},"geometry":{"x":171628.78999999911,"y":2542033.3499999996}},{"attributes":{"ID":233563,"DIS_CODE":0,"TOWNNAME":"東區","LI":"虎尾里","LIN":"12鄰","STREET":"富農街","SECT":"一段","MAREA":" ","LANE":"３６巷","ALLEY":" ","HOUSE_NO":"９號","E_COORD97":171539.87,"N_COORD97":2542097.77,"ADDRESS":"富農街一段３６巷９號","OBJECTID":233559},"geometry":{"x":171539.87000000011,"y":2542097.7700000014}},{"attributes":{"ID":233564,"DIS_CODE":0,"TOWNNAME":"東區","LI":"復興里","LIN":"21鄰","STREET":"自由路","SECT":"三段","MAREA":" ","LANE":" ","ALLEY":" ","HOUSE_NO":"２８０號","E_COORD97":171824.98000000001,"N_COORD97":2542380.5099999998,"ADDRESS":"自由路三段２８０號","OBJECTID":233560},"geometry":{"x":171824.98000000138,"y":2542380.5100000016}},{"attributes":{"ID":233565,"DIS_CODE":0,"TOWNNAME":"柳營區","LI":"果毅里","LIN":"16鄰","STREET":" ","SECT":" ","MAREA":"果毅後","LANE":" ","ALLEY":" ","HOUSE_NO":"１９６號","E_COORD97":185529.10999999999,"N_COORD97":2572803.1899999999,"ADDRESS":"果毅後１９６號","OBJECTID":233561},"geometry":{"x":185529.11000000034,"y":2572803.1899999976}},{"attributes":{"ID":233566,"DIS_CODE":0,"TOWNNAME":"柳營區","LI":"果毅里","LIN":"16鄰","STREET":" ","SECT":" ","MAREA":"果毅後","LANE":" ","ALLEY":" ","HOUSE_NO":"１９７號","E_COORD97":185524.29999999999,"N_COORD97":2572804.1099999999,"ADDRESS":"果毅後１９７號","OBJECTID":233562},"geometry":{"x":185524.30000000075,"y":2572804.1100000013}},{"attributes":{"ID":233567,"DIS_CODE":0,"TOWNNAME":"柳營區","LI":"果毅里","LIN":"16鄰","STREET":" ","SECT":" ","MAREA":"果毅後","LANE":" ","ALLEY":" ","HOUSE_NO":"１９９號","E_COORD97":185517.76000000001,"N_COORD97":2572807.3100000001,"ADDRESS":"果毅後１９９號","OBJECTID":233563},"geometry":{"x":185517.76000000071,"y":2572807.3100000024}},{"attributes":{"ID":233568,"DIS_CODE":0,"TOWNNAME":"柳營區","LI":"果毅里","LIN":"16鄰","STREET":" ","SECT":" ","MAREA":"果毅後","LANE":" ","ALLEY":" ","HOUSE_NO":"２００號","E_COORD97":185513.89000000001,"N_COORD97":2572808.6200000001,"ADDRESS":"果毅後２００號","OBJECTID":233564},"geometry":{"x":185513.8900000006,"y":2572808.6199999992}},{"attributes":{"ID":233569,"DIS_CODE":0,"TOWNNAME":"柳營區","LI":"果毅里","LIN":"16鄰","STREET":" ","SECT":" ","MAREA":"果毅後","LANE":" ","ALLEY":" ","HOUSE_NO":"２０１號","E_COORD97":185509.89000000001,"N_COORD97":2572810.29,"ADDRESS":"果毅後２０１號","OBJECTID":233565},"geometry":{"x":185509.8900000006,"y":2572810.290000001}},{"attributes":{"ID":233570,"DIS_CODE":0,"TOWNNAME":"柳營區","LI":"果毅里","LIN":"16鄰","STREET":" ","SECT":" ","MAREA":"果毅後","LANE":" ","ALLEY":" ","HOUSE_NO":"２０２號","E_COORD97":185505.78,"N_COORD97":2572811.8300000001,"ADDRESS":"果毅後２０２號","OBJECTID":233566},"geometry":{"x":185505.78000000026,"y":2572811.8300000001}},{"attributes":{"ID":233571,"DIS_CODE":0,"TOWNNAME":"永康區","LI":"正強里","LIN":"14鄰","STREET":"正強街","SECT":" ","MAREA":" ","LANE":" ","ALLEY":" ","HOUSE_NO":"１０１號","E_COORD97":173329.57999999999,"N_COORD97":2547387,"ADDRESS":"正強街１０１號","OBJECTID":233567},"geometry":{"x":173329.58000000101,"y":2547387}},{"attributes":{"ID":233572,"DIS_CODE":0,"TOWNNAME":"永康區","LI":"正強里","LIN":"14鄰","STREET":"正強街","SECT":" ","MAREA":" ","LANE":" ","ALLEY":" ","HOUSE_NO":"８９號","E_COORD97":173330.29000000001,"N_COORD97":2547363.5,"ADDRESS":"正強街８９號","OBJECTID":233568},"geometry":{"x":173330.29000000004,"y":2547363.4999999981}},{"attributes":{"ID":233573,"DIS_CODE":0,"TOWNNAME":"永康區","LI":"王行里","LIN":"14鄰","STREET":"環工路","SECT":" ","MAREA":" ","LANE":" ","ALLEY":" ","HOUSE_NO":"８１號","E_COORD97":174822.39999999999,"N_COORD97":2549571.7400000002,"ADDRESS":"環工路８１號","OBJECTID":233569},"geometry":{"x":174822.4000000013,"y":2549571.7400000002}},{"attributes":{"ID":233574,"DIS_CODE":0,"TOWNNAME":"東區","LI":"復興里","LIN":"21鄰","STREET":"自由路","SECT":"三段","MAREA":" ","LANE":" ","ALLEY":" ","HOUSE_NO":"１３５號","E_COORD97":171796.31,"N_COORD97":2542355.9900000002,"ADDRESS":"自由路三段１３５號","OBJECTID":233570},"geometry":{"x":171796.31000000052,"y":2542355.9900000002}},{"attributes":{"ID":233575,"DIS_CODE":0,"TOWNNAME":"東區","LI":"復興里","LIN":"21鄰","STREET":"自由路","SECT":"三段","MAREA":" ","LANE":" ","ALLEY":" ","HOUSE_NO":"２８２號","E_COORD97":171824.19,"N_COORD97":2542386.48,"ADDRESS":"自由路三段２８２號","OBJECTID":233571},"geometry":{"x":171824.19000000041,"y":2542386.4800000004}},{"attributes":{"ID":233576,"DIS_CODE":0,"TOWNNAME":"東區","LI":"復興里","LIN":"21鄰","STREET":"自由路","SECT":"三段","MAREA":" ","LANE":" ","ALLEY":" ","HOUSE_NO":"１３９號","E_COORD97":171796.31,"N_COORD97":2542369.1099999999,"ADDRESS":"自由路三段１３９號","OBJECTID":233572},"geometry":{"x":171796.31000000052,"y":2542369.1100000013}},{"attributes":{"ID":233577,"DIS_CODE":0,"TOWNNAME":"南區","LI":"建南里","LIN":"16鄰","STREET":"中華南路","SECT":"二段","MAREA":" ","LANE":"２３３巷","ALLEY":" ","HOUSE_NO":"３２號","E_COORD97":166909.29000000001,"N_COORD97":2540076.9199999999,"ADDRESS":"中華南路二段２３３巷３２號","OBJECTID":233573},"geometry":{"x":166909.29000000004,"y":2540076.9199999999}},{"attributes":{"ID":233578,"DIS_CODE":0,"TOWNNAME":"南區","LI":"建南里","LIN":"16鄰","STREET":"中華南路","SECT":"二段","MAREA":" ","LANE":"２３３巷","ALLEY":" ","HOUSE_NO":"３４號","E_COORD97":166914.70999999999,"N_COORD97":2540074.1400000001,"ADDRESS":"中華南路二段２３３巷３４號","OBJECTID":233574},"geometry":{"x":166914.70999999996,"y":2540074.1400000043}},{"attributes":{"ID":233579,"DIS_CODE":0,"TOWNNAME":"南區","LI":"建南里","LIN":"16鄰","STREET":"中華南路","SECT":"二段","MAREA":" ","LANE":"２３３巷","ALLEY":" ","HOUSE_NO":"１０號","E_COORD97":166890.48999999999,"N_COORD97":2540127.25,"ADDRESS":"中華南路二段２３３巷１０號","OBJECTID":233575},"geometry":{"x":166890.49000000115,"y":2540127.2500000037}},{"attributes":{"ID":233580,"DIS_CODE":0,"TOWNNAME":"南區","LI":"建南里","LIN":"16鄰","STREET":"中華南路","SECT":"二段","MAREA":" ","LANE":"２３３巷","ALLEY":" ","HOUSE_NO":"１２號","E_COORD97":166892.84,"N_COORD97":2540122.9399999999,"ADDRESS":"中華南路二段２３３巷１２號","OBJECTID":233576},"geometry":{"x":166892.83999999985,"y":2540122.9400000013}},{"attributes":{"ID":233581,"DIS_CODE":0,"TOWNNAME":"南區","LI":"建南里","LIN":"16鄰","STREET":"中華南路","SECT":"二段","MAREA":" ","LANE":"２３３巷","ALLEY":" ","HOUSE_NO":"２０號","E_COORD97":166898.72,"N_COORD97":2540104.54,"ADDRESS":"中華南路二段２３３巷２０號","OBJECTID":233577},"geometry":{"x":166898.71999999974,"y":2540104.540000001}},{"attributes":{"ID":233582,"DIS_CODE":0,"TOWNNAME":"南區","LI":"建南里","LIN":"16鄰","STREET":"中華南路","SECT":"二段","MAREA":" ","LANE":"２３３巷","ALLEY":" ","HOUSE_NO":"１４號","E_COORD97":166893.63,"N_COORD97":2540118.8300000001,"ADDRESS":"中華南路二段２３３巷１４號","OBJECTID":233578},"geometry":{"x":166893.63000000082,"y":2540118.8300000001}},{"attributes":{"ID":233583,"DIS_CODE":0,"TOWNNAME":"東區","LI":"復興里","LIN":"21鄰","STREET":"自由路","SECT":"三段","MAREA":" ","LANE":" ","ALLEY":" ","HOUSE_NO":"２９８號","E_COORD97":171838.13,"N_COORD97":2542388.0699999998,"ADDRESS":"自由路三段２９８號","OBJECTID":233579},"geometry":{"x":171838.12999999989,"y":2542388.0700000022}},{"attributes":{"ID":233584,"DIS_CODE":0,"TOWNNAME":"東區","LI":"復興里","LIN":"21鄰","STREET":"自由路","SECT":"三段","MAREA":" ","LANE":" ","ALLEY":" ","HOUSE_NO":"１４１號","E_COORD97":171795.51999999999,"N_COORD97":2542373.0899999999,"ADDRESS":"自由路三段１４１號","OBJECTID":233580},"geometry":{"x":171795.51999999955,"y":2542373.0900000017}},{"attributes":{"ID":233585,"DIS_CODE":0,"TOWNNAME":"東區","LI":"復興里","LIN":"21鄰","STREET":"自由路","SECT":"三段","MAREA":" ","LANE":" ","ALLEY":" ","HOUSE_NO":"３００號","E_COORD97":171831.75,"N_COORD97":2542416.2999999998,"ADDRESS":"自由路三段３００號","OBJECTID":233581},"geometry":{"x":171831.75,"y":2542416.3000000026}},{"attributes":{"ID":233586,"DIS_CODE":0,"TOWNNAME":"東區","LI":"復興里","LIN":"21鄰","STREET":"自由路","SECT":"三段","MAREA":" ","LANE":" ","ALLEY":" ","HOUSE_NO":"１４３號","E_COORD97":171795.12,"N_COORD97":2542377.8599999999,"ADDRESS":"自由路三段１４３號","OBJECTID":233582},"geometry":{"x":171795.12000000104,"y":2542377.8600000013}},{"attributes":{"ID":233587,"DIS_CODE":0,"TOWNNAME":"永康區","LI":"永康里","LIN":"14鄰","STREET":"永中街","SECT":" ","MAREA":" ","LANE":" ","ALLEY":" ","HOUSE_NO":"５６號","E_COORD97":173910.51999999999,"N_COORD97":2547151.1200000001,"ADDRESS":"永中街５６號","OBJECTID":233583},"geometry":{"x":173910.52000000048,"y":2547151.1200000029}},{"attributes":{"ID":233588,"DIS_CODE":0,"TOWNNAME":"永康區","LI":"三民里","LIN":"14鄰","STREET":"中正北路","SECT":" ","MAREA":" ","LANE":" ","ALLEY":" ","HOUSE_NO":"９５２號之１０","E_COORD97":175689.34,"N_COORD97":2550692.0499999998,"ADDRESS":"中正北路９５２號之１０","OBJECTID":233584},"geometry":{"x":175689.33999999985,"y":2550692.0500000007}},{"attributes":{"ID":233589,"DIS_CODE":0,"TOWNNAME":"永康區","LI":"三民里","LIN":"14鄰","STREET":"中正北路","SECT":" ","MAREA":" ","LANE":" ","ALLEY":" ","HOUSE_NO":"９５０號","E_COORD97":175610.34,"N_COORD97":2550625.2400000002,"ADDRESS":"中正北路９５０號","OBJECTID":233585},"geometry":{"x":175610.34000000171,"y":2550625.2400000021}},{"attributes":{"ID":233590,"DIS_CODE":0,"TOWNNAME":"永康區","LI":"王行里","LIN":"14鄰","STREET":"環工路","SECT":" ","MAREA":" ","LANE":" ","ALLEY":" ","HOUSE_NO":"５１號","E_COORD97":175187.60000000001,"N_COORD97":2549221.25,"ADDRESS":"環工路５１號","OBJECTID":233586},"geometry":{"x":175187.59999999963,"y":2549221.2500000019}},{"attributes":{"ID":233591,"DIS_CODE":0,"TOWNNAME":"關廟區","LI":"田中里","LIN":"8鄰","STREET":"南雄南路","SECT":" ","MAREA":" ","LANE":"５７０巷","ALLEY":" ","HOUSE_NO":"１０號","E_COORD97":183515.40889300001,"N_COORD97":2534004.1617100001,"ADDRESS":"南雄南路５７０巷１０號","OBJECTID":233587},"geometry":{"x":183515.40889300033,"y":2534004.1617069989}},{"attributes":{"ID":233592,"DIS_CODE":0,"TOWNNAME":"永康區","LI":"三民里","LIN":"14鄰","STREET":"中正北路","SECT":" ","MAREA":" ","LANE":" ","ALLEY":" ","HOUSE_NO":"９５０號之１１","E_COORD97":175651.16,"N_COORD97":2550658.5499999998,"ADDRESS":"中正北路９５０號之１１","OBJECTID":233588},"geometry":{"x":175651.16000000108,"y":2550658.5500000007}},{"attributes":{"ID":233593,"DIS_CODE":0,"TOWNNAME":"永康區","LI":"龍潭里","LIN":"14鄰","STREET":"龍埔街","SECT":" ","MAREA":" ","LANE":" ","ALLEY":" ","HOUSE_NO":"８２號","E_COORD97":174605.10000000001,"N_COORD97":2548251.79,"ADDRESS":"龍埔街８２號","OBJECTID":233589},"geometry":{"x":174605.10000000056,"y":2548251.7899999991}},{"attributes":{"ID":233594,"DIS_CODE":0,"TOWNNAME":"永康區","LI":"南灣里","LIN":"14鄰","STREET":"大灣路","SECT":" ","MAREA":" ","LANE":" ","ALLEY":" ","HOUSE_NO":"６１０號","E_COORD97":174580.42000000001,"N_COORD97":2544627.9700000002,"ADDRESS":"大灣路６１０號","OBJECTID":233590},"geometry":{"x":174580.41999999993,"y":2544627.9700000007}},{"attributes":{"ID":233595,"DIS_CODE":0,"TOWNNAME":"南區","LI":"建南里","LIN":"16鄰","STREET":"中華南路","SECT":"二段","MAREA":" ","LANE":"２３３巷","ALLEY":" ","HOUSE_NO":"３８號","E_COORD97":166922.13,"N_COORD97":2540058.0600000001,"ADDRESS":"中華南路二段２３３巷３８號","OBJECTID":233591},"geometry":{"x":166922.12999999896,"y":2540058.0600000024}},{"attributes":{"ID":233596,"DIS_CODE":0,"TOWNNAME":"東區","LI":"復興里","LIN":"21鄰","STREET":"自由路","SECT":"三段","MAREA":" ","LANE":" ","ALLEY":" ","HOUSE_NO":"１４５號","E_COORD97":171795.51999999999,"N_COORD97":2542381.4399999999,"ADDRESS":"自由路三段１４５號","OBJECTID":233592},"geometry":{"x":171795.51999999955,"y":2542381.4400000013}},{"attributes":{"ID":233597,"DIS_CODE":0,"TOWNNAME":"東區","LI":"復興里","LIN":"21鄰","STREET":"自由路","SECT":"三段","MAREA":" ","LANE":" ","ALLEY":" ","HOUSE_NO":"１２５號","E_COORD97":171796.70999999999,"N_COORD97":2542332.1299999999,"ADDRESS":"自由路三段１２５號","OBJECTID":233593},"geometry":{"x":171796.70999999996,"y":2542332.1300000008}},{"attributes":{"ID":233598,"DIS_CODE":0,"TOWNNAME":"東區","LI":"虎尾里","LIN":"19鄰","STREET":"東成街","SECT":" ","MAREA":" ","LANE":"２８巷","ALLEY":" ","HOUSE_NO":"１４號","E_COORD97":171335.04000000001,"N_COORD97":2542212.5899999999,"ADDRESS":"東成街２８巷１４號","OBJECTID":233594},"geometry":{"x":171335.04000000004,"y":2542212.5899999999}},{"attributes":{"ID":233599,"DIS_CODE":0,"TOWNNAME":"東區","LI":"虎尾里","LIN":"19鄰","STREET":"東成街","SECT":" ","MAREA":" ","LANE":"２８巷","ALLEY":" ","HOUSE_NO":"２號","E_COORD97":171304.32999999999,"N_COORD97":2542236.9700000002,"ADDRESS":"東成街２８巷２號","OBJECTID":233595},"geometry":{"x":171304.33000000007,"y":2542236.9700000007}},{"attributes":{"ID":233600,"DIS_CODE":0,"TOWNNAME":"永康區","LI":"埔園里","LIN":"31鄰","STREET":"八德街","SECT":" ","MAREA":" ","LANE":"１９６巷","ALLEY":" ","HOUSE_NO":"２０號","E_COORD97":173905.09,"N_COORD97":2548644.2599999998,"ADDRESS":"八德街１９６巷２０號","OBJECTID":233596},"geometry":{"x":173905.09000000171,"y":2548644.2600000016}},{"attributes":{"ID":233601,"DIS_CODE":0,"TOWNNAME":"永康區","LI":"埔園里","LIN":"29鄰","STREET":"龍埔街","SECT":" ","MAREA":" ","LANE":"２９１巷","ALLEY":" ","HOUSE_NO":"２號之３","E_COORD97":173939.07999999999,"N_COORD97":2548295.5499999998,"ADDRESS":"龍埔街２９１巷２號之３","OBJECTID":233597},"geometry":{"x":173939.07999999914,"y":2548295.5500000007}},{"attributes":{"ID":233602,"DIS_CODE":0,"TOWNNAME":"永康區","LI":"南灣里","LIN":"19鄰","STREET":"大灣路","SECT":" ","MAREA":" ","LANE":"７６４巷","ALLEY":" ","HOUSE_NO":"１１２號","E_COORD97":174238.14000000001,"N_COORD97":2544734.23,"ADDRESS":"大灣路７６４巷１１２號","OBJECTID":233598},"geometry":{"x":174238.13999999966,"y":2544734.2300000004}},{"attributes":{"ID":233603,"DIS_CODE":0,"TOWNNAME":"永康區","LI":"西灣里","LIN":"50鄰","STREET":"永華路","SECT":" ","MAREA":" ","LANE":"２７３巷","ALLEY":" ","HOUSE_NO":"２４號","E_COORD97":173961.67000000001,"N_COORD97":2545809.1499999999,"ADDRESS":"永華路２７３巷２４號","OBJECTID":233599},"geometry":{"x":173961.66999999993,"y":2545809.1500000004}},{"attributes":{"ID":233604,"DIS_CODE":0,"TOWNNAME":"永康區","LI":"尚頂里","LIN":"32鄰","STREET":"中正南路","SECT":" ","MAREA":" ","LANE":"２３５巷","ALLEY":" ","HOUSE_NO":"２３號之１","E_COORD97":170127.76999999999,"N_COORD97":2547572.1400000001,"ADDRESS":"中正南路２３５巷２３號之１","OBJECTID":233600},"geometry":{"x":170127.76999999955,"y":2547572.1400000006}}]}