{"displayFieldName":"TOWNNAME","fieldAliases":{"ID":"ID","DIS_CODE":"DIS_CODE","TOWNNAME":"TOWNNAME","LI":"LI","LIN":"LIN","STREET":"STREET","SECT":"SECT","MAREA":"MAREA","LANE":"LANE","ALLEY":"ALLEY","HOUSE_NO":"HOUSE_NO","E_COORD97":"E_COORD97","N_COORD97":"N_COORD97","ADDRESS":"ADDRESS","OBJECTID":"OBJECTID"},"geometryType":"esriGeometryPoint","spatialReference":{"wkid":102443,"latestWkid":3826},"fields":[{"name":"ID","type":"esriFieldTypeDouble","alias":"ID"},{"name":"DIS_CODE","type":"esriFieldTypeInteger","alias":"DIS_CODE"},{"name":"TOWNNAME","type":"esriFieldTypeString","alias":"TOWNNAME","length":8},{"name":"LI","type":"esriFieldTypeString","alias":"LI","length":8},{"name":"LIN","type":"esriFieldTypeString","alias":"LIN","length":12},{"name":"STREET","type":"esriFieldTypeString","alias":"STREET","length":20},{"name":"SECT","type":"esriFieldTypeString","alias":"SECT","length":8},{"name":"MAREA","type":"esriFieldTypeString","alias":"MAREA","length":12},{"name":"LANE","type":"esriFieldTypeString","alias":"LANE","length":10},{"name":"ALLEY","type":"esriFieldTypeString","alias":"ALLEY","length":10},{"name":"HOUSE_NO","type":"esriFieldTypeString","alias":"HOUSE_NO","length":20},{"name":"E_COORD97","type":"esriFieldTypeDouble","alias":"E_COORD97"},{"name":"N_COORD97","type":"esriFieldTypeDouble","alias":"N_COORD97"},{"name":"ADDRESS","type":"esriFieldTypeString","alias":"ADDRESS","length":50},{"name":"OBJECTID","type":"esriFieldTypeOID","alias":"OBJECTID"}],"features":[{"attributes":{"ID":345410,"DIS_CODE":0,"TOWNNAME":"北區","LI":"和順里","LIN":"31鄰","STREET":"臨安路","SECT":"二段","MAREA":" ","LANE":"１６９巷","ALLEY":" ","HOUSE_NO":"４號四樓之２","E_COORD97":167860.22,"N_COORD97":2544943.52,"ADDRESS":"臨安路二段１６９巷４號四樓之２","OBJECTID":345401},"geometry":{"x":167860.21999999974,"y":2544943.5200000014}},{"attributes":{"ID":345411,"DIS_CODE":0,"TOWNNAME":"北區","LI":"和順里","LIN":"31鄰","STREET":"臨安路","SECT":"二段","MAREA":" ","LANE":"１６９巷","ALLEY":" ","HOUSE_NO":"２號九樓","E_COORD97":167850.51999999999,"N_COORD97":2544917.5600000001,"ADDRESS":"臨安路二段１６９巷２號九樓","OBJECTID":345402},"geometry":{"x":167850.52000000048,"y":2544917.5600000024}},{"attributes":{"ID":345412,"DIS_CODE":0,"TOWNNAME":"北區","LI":"和順里","LIN":"31鄰","STREET":"臨安路","SECT":"二段","MAREA":" ","LANE":"１６９巷","ALLEY":" ","HOUSE_NO":"４號五樓之１","E_COORD97":167860.22,"N_COORD97":2544943.52,"ADDRESS":"臨安路二段１６９巷４號五樓之１","OBJECTID":345403},"geometry":{"x":167860.21999999974,"y":2544943.5200000014}},{"attributes":{"ID":345413,"DIS_CODE":0,"TOWNNAME":"北區","LI":"和順里","LIN":"31鄰","STREET":"臨安路","SECT":"二段","MAREA":" ","LANE":"１６９巷","ALLEY":" ","HOUSE_NO":"４號五樓之２","E_COORD97":167860.22,"N_COORD97":2544943.52,"ADDRESS":"臨安路二段１６９巷４號五樓之２","OBJECTID":345404},"geometry":{"x":167860.21999999974,"y":2544943.5200000014}},{"attributes":{"ID":345414,"DIS_CODE":0,"TOWNNAME":"北區","LI":"和順里","LIN":"31鄰","STREET":"臨安路","SECT":"二段","MAREA":" ","LANE":"１６９巷","ALLEY":" ","HOUSE_NO":"４號六樓之２","E_COORD97":167860.22,"N_COORD97":2544943.52,"ADDRESS":"臨安路二段１６９巷４號六樓之２","OBJECTID":345405},"geometry":{"x":167860.21999999974,"y":2544943.5200000014}},{"attributes":{"ID":345415,"DIS_CODE":0,"TOWNNAME":"安平區","LI":"國平里","LIN":"31鄰","STREET":"健康三街","SECT":" ","MAREA":" ","LANE":"１２巷","ALLEY":" ","HOUSE_NO":"１號三樓之２０","E_COORD97":164774.88,"N_COORD97":2542904.3999999999,"ADDRESS":"健康三街１２巷１號三樓之２０","OBJECTID":345406},"geometry":{"x":164774.88000000082,"y":2542904.4000000022}},{"attributes":{"ID":345416,"DIS_CODE":0,"TOWNNAME":"安平區","LI":"國平里","LIN":"31鄰","STREET":"健康三街","SECT":" ","MAREA":" ","LANE":"１２巷","ALLEY":" ","HOUSE_NO":"１號三樓之２１","E_COORD97":164774.88,"N_COORD97":2542904.3999999999,"ADDRESS":"健康三街１２巷１號三樓之２１","OBJECTID":345407},"geometry":{"x":164774.88000000082,"y":2542904.4000000022}},{"attributes":{"ID":345417,"DIS_CODE":0,"TOWNNAME":"安平區","LI":"國平里","LIN":"31鄰","STREET":"健康三街","SECT":" ","MAREA":" ","LANE":"１２巷","ALLEY":" ","HOUSE_NO":"１號三樓之２２","E_COORD97":164774.88,"N_COORD97":2542904.3999999999,"ADDRESS":"健康三街１２巷１號三樓之２２","OBJECTID":345408},"geometry":{"x":164774.88000000082,"y":2542904.4000000022}},{"attributes":{"ID":345418,"DIS_CODE":0,"TOWNNAME":"安平區","LI":"國平里","LIN":"31鄰","STREET":"健康三街","SECT":" ","MAREA":" ","LANE":"１２巷","ALLEY":" ","HOUSE_NO":"１號三樓之２３","E_COORD97":164774.88,"N_COORD97":2542904.3999999999,"ADDRESS":"健康三街１２巷１號三樓之２３","OBJECTID":345409},"geometry":{"x":164774.88000000082,"y":2542904.4000000022}},{"attributes":{"ID":345419,"DIS_CODE":0,"TOWNNAME":"安平區","LI":"國平里","LIN":"31鄰","STREET":"健康三街","SECT":" ","MAREA":" ","LANE":"１２巷","ALLEY":" ","HOUSE_NO":"１號三樓之２４","E_COORD97":164774.88,"N_COORD97":2542904.3999999999,"ADDRESS":"健康三街１２巷１號三樓之２４","OBJECTID":345410},"geometry":{"x":164774.88000000082,"y":2542904.4000000022}},{"attributes":{"ID":345420,"DIS_CODE":0,"TOWNNAME":"佳里區","LI":"鎮山里","LIN":"1鄰","STREET":"四安街","SECT":" ","MAREA":" ","LANE":" ","ALLEY":" ","HOUSE_NO":"７號","E_COORD97":165891.64000000001,"N_COORD97":2561839.2799999998,"ADDRESS":"四安街７號","OBJECTID":345411},"geometry":{"x":165891.6400000006,"y":2561839.2800000012}},{"attributes":{"ID":345421,"DIS_CODE":0,"TOWNNAME":"新化區","LI":"唪口里","LIN":"5鄰","STREET":" ","SECT":" ","MAREA":"唪口","LANE":" ","ALLEY":" ","HOUSE_NO":"５３號","E_COORD97":178127.60000000001,"N_COORD97":2549054.25,"ADDRESS":"唪口５３號","OBJECTID":345412},"geometry":{"x":178127.60000000056,"y":2549054.2500000019}},{"attributes":{"ID":345422,"DIS_CODE":0,"TOWNNAME":"新化區","LI":"太平里","LIN":"5鄰","STREET":"民生路","SECT":" ","MAREA":" ","LANE":"２３４巷","ALLEY":" ","HOUSE_NO":"１０號","E_COORD97":179086.76000000001,"N_COORD97":2549023.25,"ADDRESS":"民生路２３４巷１０號","OBJECTID":345413},"geometry":{"x":179086.76000000071,"y":2549023.2500000037}},{"attributes":{"ID":345423,"DIS_CODE":0,"TOWNNAME":"新化區","LI":"武安里","LIN":"5鄰","STREET":"中正路","SECT":" ","MAREA":" ","LANE":"３６９巷","ALLEY":" ","HOUSE_NO":"２７號","E_COORD97":179058.95999999999,"N_COORD97":2548264.25,"ADDRESS":"中正路３６９巷２７號","OBJECTID":345414},"geometry":{"x":179058.95999999996,"y":2548264.2500000019}},{"attributes":{"ID":345424,"DIS_CODE":0,"TOWNNAME":"新化區","LI":"觀音里","LIN":"5鄰","STREET":"仁愛街","SECT":" ","MAREA":" ","LANE":"６５巷","ALLEY":" ","HOUSE_NO":"２２號之２","E_COORD97":178951.79000000001,"N_COORD97":2548512.2599999998,"ADDRESS":"仁愛街６５巷２２號之２","OBJECTID":345415},"geometry":{"x":178951.79000000004,"y":2548512.2600000016}},{"attributes":{"ID":345425,"DIS_CODE":0,"TOWNNAME":"官田區","LI":"隆本里","LIN":"5鄰","STREET":"中華路","SECT":"二段","MAREA":" ","LANE":"１０８巷","ALLEY":" ","HOUSE_NO":"２１號","E_COORD97":180118.07000000001,"N_COORD97":2566546.52,"ADDRESS":"中華路二段１０８巷２１號","OBJECTID":345416},"geometry":{"x":180118.0700000003,"y":2566546.5200000014}},{"attributes":{"ID":345426,"DIS_CODE":0,"TOWNNAME":"新化區","LI":"唪口里","LIN":"5鄰","STREET":" ","SECT":" ","MAREA":"唪口","LANE":" ","ALLEY":" ","HOUSE_NO":"５６號之２","E_COORD97":178093.45000000001,"N_COORD97":2549112.2599999998,"ADDRESS":"唪口５６號之２","OBJECTID":345417},"geometry":{"x":178093.45000000205,"y":2549112.2600000016}},{"attributes":{"ID":345427,"DIS_CODE":0,"TOWNNAME":"白河區","LI":"詔安里","LIN":"5鄰","STREET":" ","SECT":" ","MAREA":"詔安厝","LANE":" ","ALLEY":" ","HOUSE_NO":"５２之１號","E_COORD97":189801.23000000001,"N_COORD97":2587998.0099999998,"ADDRESS":"詔安厝５２之１號","OBJECTID":345418},"geometry":{"x":189801.23000000138,"y":2587998.0100000016}},{"attributes":{"ID":345428,"DIS_CODE":0,"TOWNNAME":"官田區","LI":"隆本里","LIN":"5鄰","STREET":"中華路","SECT":"二段","MAREA":" ","LANE":"１０８巷","ALLEY":" ","HOUSE_NO":"２３號","E_COORD97":180122.70000000001,"N_COORD97":2566546.8799999999,"ADDRESS":"中華路二段１０８巷２３號","OBJECTID":345419},"geometry":{"x":180122.70000000112,"y":2566546.8800000008}},{"attributes":{"ID":345429,"DIS_CODE":0,"TOWNNAME":"官田區","LI":"隆本里","LIN":"5鄰","STREET":"中華路","SECT":"二段","MAREA":" ","LANE":"１０８巷","ALLEY":" ","HOUSE_NO":"２５號","E_COORD97":180127.39000000001,"N_COORD97":2566547.3500000001,"ADDRESS":"中華路二段１０８巷２５號","OBJECTID":345420},"geometry":{"x":180127.38999999873,"y":2566547.3500000034}},{"attributes":{"ID":345430,"DIS_CODE":0,"TOWNNAME":"官田區","LI":"隆本里","LIN":"5鄰","STREET":"中華路","SECT":"二段","MAREA":" ","LANE":"１０８巷","ALLEY":" ","HOUSE_NO":"２７號","E_COORD97":180132.01000000001,"N_COORD97":2566547.8599999999,"ADDRESS":"中華路二段１０８巷２７號","OBJECTID":345421},"geometry":{"x":180132.01000000164,"y":2566547.8600000013}},{"attributes":{"ID":345431,"DIS_CODE":0,"TOWNNAME":"安平區","LI":"國平里","LIN":"31鄰","STREET":"健康三街","SECT":" ","MAREA":" ","LANE":"１２巷","ALLEY":" ","HOUSE_NO":"１號三樓之２５","E_COORD97":164774.88,"N_COORD97":2542904.3999999999,"ADDRESS":"健康三街１２巷１號三樓之２５","OBJECTID":345422},"geometry":{"x":164774.88000000082,"y":2542904.4000000022}},{"attributes":{"ID":345432,"DIS_CODE":0,"TOWNNAME":"安平區","LI":"國平里","LIN":"31鄰","STREET":"健康三街","SECT":" ","MAREA":" ","LANE":"１２巷","ALLEY":" ","HOUSE_NO":"１號四樓之２０","E_COORD97":164774.88,"N_COORD97":2542904.3999999999,"ADDRESS":"健康三街１２巷１號四樓之２０","OBJECTID":345423},"geometry":{"x":164774.88000000082,"y":2542904.4000000022}},{"attributes":{"ID":345433,"DIS_CODE":0,"TOWNNAME":"安平區","LI":"國平里","LIN":"31鄰","STREET":"健康三街","SECT":" ","MAREA":" ","LANE":"１２巷","ALLEY":" ","HOUSE_NO":"１號四樓之２１","E_COORD97":164774.88,"N_COORD97":2542904.3999999999,"ADDRESS":"健康三街１２巷１號四樓之２１","OBJECTID":345424},"geometry":{"x":164774.88000000082,"y":2542904.4000000022}},{"attributes":{"ID":345434,"DIS_CODE":0,"TOWNNAME":"中西區","LI":"法華里","LIN":"8鄰","STREET":"五妃街","SECT":" ","MAREA":" ","LANE":" ","ALLEY":" ","HOUSE_NO":"１１之１號五樓之１","E_COORD97":169067.39999999999,"N_COORD97":2542552.1200000001,"ADDRESS":"五妃街１１之１號五樓之１","OBJECTID":345425},"geometry":{"x":169067.4000000013,"y":2542552.120000001}},{"attributes":{"ID":345435,"DIS_CODE":0,"TOWNNAME":"中西區","LI":"法華里","LIN":"8鄰","STREET":"五妃街","SECT":" ","MAREA":" ","LANE":" ","ALLEY":" ","HOUSE_NO":"１１之１號五樓之２","E_COORD97":169067.39999999999,"N_COORD97":2542552.1200000001,"ADDRESS":"五妃街１１之１號五樓之２","OBJECTID":345426},"geometry":{"x":169067.4000000013,"y":2542552.120000001}},{"attributes":{"ID":345436,"DIS_CODE":0,"TOWNNAME":"中西區","LI":"法華里","LIN":"8鄰","STREET":"五妃街","SECT":" ","MAREA":" ","LANE":" ","ALLEY":" ","HOUSE_NO":"１１之１號六樓之１","E_COORD97":169067.39999999999,"N_COORD97":2542552.1200000001,"ADDRESS":"五妃街１１之１號六樓之１","OBJECTID":345427},"geometry":{"x":169067.4000000013,"y":2542552.120000001}},{"attributes":{"ID":345437,"DIS_CODE":0,"TOWNNAME":"中西區","LI":"法華里","LIN":"8鄰","STREET":"五妃街","SECT":" ","MAREA":" ","LANE":" ","ALLEY":" ","HOUSE_NO":"１１之１號六樓之２","E_COORD97":169067.39999999999,"N_COORD97":2542552.1200000001,"ADDRESS":"五妃街１１之１號六樓之２","OBJECTID":345428},"geometry":{"x":169067.4000000013,"y":2542552.120000001}},{"attributes":{"ID":345438,"DIS_CODE":0,"TOWNNAME":"中西區","LI":"法華里","LIN":"8鄰","STREET":"五妃街","SECT":" ","MAREA":" ","LANE":" ","ALLEY":" ","HOUSE_NO":"１１之１號四樓之１","E_COORD97":169067.39999999999,"N_COORD97":2542552.1200000001,"ADDRESS":"五妃街１１之１號四樓之１","OBJECTID":345429},"geometry":{"x":169067.4000000013,"y":2542552.120000001}},{"attributes":{"ID":345439,"DIS_CODE":0,"TOWNNAME":"中西區","LI":"法華里","LIN":"8鄰","STREET":"五妃街","SECT":" ","MAREA":" ","LANE":" ","ALLEY":" ","HOUSE_NO":"１１之１號四樓之２","E_COORD97":169067.39999999999,"N_COORD97":2542552.1200000001,"ADDRESS":"五妃街１１之１號四樓之２","OBJECTID":345430},"geometry":{"x":169067.4000000013,"y":2542552.120000001}},{"attributes":{"ID":345440,"DIS_CODE":0,"TOWNNAME":"中西區","LI":"法華里","LIN":"8鄰","STREET":"五妃街","SECT":" ","MAREA":" ","LANE":" ","ALLEY":" ","HOUSE_NO":"１１之２號七樓","E_COORD97":169091.98999999999,"N_COORD97":2542542.8500000001,"ADDRESS":"五妃街１１之２號七樓","OBJECTID":345431},"geometry":{"x":169091.99000000115,"y":2542542.8499999996}},{"attributes":{"ID":345441,"DIS_CODE":0,"TOWNNAME":"白河區","LI":"詔安里","LIN":"5鄰","STREET":" ","SECT":" ","MAREA":"詔安厝","LANE":" ","ALLEY":" ","HOUSE_NO":"６０之２號","E_COORD97":189768.10999999999,"N_COORD97":2587902.3599999999,"ADDRESS":"詔安厝６０之２號","OBJECTID":345432},"geometry":{"x":189768.11000000034,"y":2587902.3599999994}},{"attributes":{"ID":345442,"DIS_CODE":0,"TOWNNAME":"白河區","LI":"詔安里","LIN":"5鄰","STREET":" ","SECT":" ","MAREA":"詔安厝","LANE":" ","ALLEY":" ","HOUSE_NO":"６０之３號","E_COORD97":189786.56,"N_COORD97":2587902.1400000001,"ADDRESS":"詔安厝６０之３號","OBJECTID":345433},"geometry":{"x":189786.55999999959,"y":2587902.1400000043}},{"attributes":{"ID":345443,"DIS_CODE":0,"TOWNNAME":"白河區","LI":"詔安里","LIN":"5鄰","STREET":" ","SECT":" ","MAREA":"詔安厝","LANE":" ","ALLEY":" ","HOUSE_NO":"６３之１號","E_COORD97":189755.16,"N_COORD97":2587940.3199999998,"ADDRESS":"詔安厝６３之１號","OBJECTID":345434},"geometry":{"x":189755.16000000108,"y":2587940.3200000003}},{"attributes":{"ID":345444,"DIS_CODE":0,"TOWNNAME":"白河區","LI":"詔安里","LIN":"5鄰","STREET":" ","SECT":" ","MAREA":"詔安厝","LANE":" ","ALLEY":" ","HOUSE_NO":"６３號","E_COORD97":189757.64999999999,"N_COORD97":2587958.3399999999,"ADDRESS":"詔安厝６３號","OBJECTID":345435},"geometry":{"x":189757.6500000013,"y":2587958.3400000017}},{"attributes":{"ID":345445,"DIS_CODE":0,"TOWNNAME":"白河區","LI":"詔安里","LIN":"5鄰","STREET":" ","SECT":" ","MAREA":"詔安厝","LANE":" ","ALLEY":" ","HOUSE_NO":"６４之１號","E_COORD97":189696.45000000001,"N_COORD97":2587917.6400000001,"ADDRESS":"詔安厝６４之１號","OBJECTID":345436},"geometry":{"x":189696.45000000019,"y":2587917.6400000006}},{"attributes":{"ID":345446,"DIS_CODE":0,"TOWNNAME":"安平區","LI":"國平里","LIN":"31鄰","STREET":"健康三街","SECT":" ","MAREA":" ","LANE":"１２巷","ALLEY":" ","HOUSE_NO":"１號四樓之２２","E_COORD97":164774.88,"N_COORD97":2542904.3999999999,"ADDRESS":"健康三街１２巷１號四樓之２２","OBJECTID":345437},"geometry":{"x":164774.88000000082,"y":2542904.4000000022}},{"attributes":{"ID":345447,"DIS_CODE":0,"TOWNNAME":"白河區","LI":"詔安里","LIN":"5鄰","STREET":" ","SECT":" ","MAREA":"詔安厝","LANE":" ","ALLEY":" ","HOUSE_NO":"６４之２號","E_COORD97":189679.89999999999,"N_COORD97":2587960.6299999999,"ADDRESS":"詔安厝６４之２號","OBJECTID":345438},"geometry":{"x":189679.90000000037,"y":2587960.629999999}},{"attributes":{"ID":345448,"DIS_CODE":0,"TOWNNAME":"白河區","LI":"詔安里","LIN":"5鄰","STREET":" ","SECT":" ","MAREA":"詔安厝","LANE":" ","ALLEY":" ","HOUSE_NO":"６４之６號","E_COORD97":189657.19,"N_COORD97":2587848.73,"ADDRESS":"詔安厝６４之６號","OBJECTID":345439},"geometry":{"x":189657.19000000134,"y":2587848.7300000023}},{"attributes":{"ID":345449,"DIS_CODE":0,"TOWNNAME":"白河區","LI":"詔安里","LIN":"5鄰","STREET":" ","SECT":" ","MAREA":"詔安厝","LANE":" ","ALLEY":" ","HOUSE_NO":"６４之９號","E_COORD97":189746.42000000001,"N_COORD97":2587898.0499999998,"ADDRESS":"詔安厝６４之９號","OBJECTID":345440},"geometry":{"x":189746.42000000086,"y":2587898.0500000007}},{"attributes":{"ID":345450,"DIS_CODE":0,"TOWNNAME":"白河區","LI":"詔安里","LIN":"5鄰","STREET":" ","SECT":" ","MAREA":"詔安厝","LANE":" ","ALLEY":" ","HOUSE_NO":"６４號","E_COORD97":189747.53,"N_COORD97":2587944.3500000001,"ADDRESS":"詔安厝６４號","OBJECTID":345441},"geometry":{"x":189747.53000000119,"y":2587944.3500000015}},{"attributes":{"ID":345451,"DIS_CODE":0,"TOWNNAME":"白河區","LI":"河東里","LIN":"5鄰","STREET":" ","SECT":" ","MAREA":"糞箕湖","LANE":" ","ALLEY":" ","HOUSE_NO":"６６之１號","E_COORD97":192236.31,"N_COORD97":2582555.9700000002,"ADDRESS":"糞箕湖６６之１號","OBJECTID":345442},"geometry":{"x":192236.30999999959,"y":2582555.9700000007}},{"attributes":{"ID":345452,"DIS_CODE":0,"TOWNNAME":"白河區","LI":"河東里","LIN":"5鄰","STREET":" ","SECT":" ","MAREA":"糞箕湖","LANE":" ","ALLEY":" ","HOUSE_NO":"６６之２號","E_COORD97":192205.28,"N_COORD97":2582520.2999999998,"ADDRESS":"糞箕湖６６之２號","OBJECTID":345443},"geometry":{"x":192205.27999999933,"y":2582520.3000000007}},{"attributes":{"ID":345453,"DIS_CODE":0,"TOWNNAME":"玉井區","LI":"玉田里","LIN":"31鄰","STREET":"民生路","SECT":" ","MAREA":" ","LANE":"２７９巷","ALLEY":" ","HOUSE_NO":"５號","E_COORD97":195204.29000000001,"N_COORD97":2558170.2799999998,"ADDRESS":"民生路２７９巷５號","OBJECTID":345444},"geometry":{"x":195204.29000000097,"y":2558170.2800000012}},{"attributes":{"ID":345454,"DIS_CODE":0,"TOWNNAME":"白河區","LI":"河東里","LIN":"5鄰","STREET":" ","SECT":" ","MAREA":"糞箕湖","LANE":" ","ALLEY":" ","HOUSE_NO":"６６之３號","E_COORD97":192183.98000000001,"N_COORD97":2582487.3599999999,"ADDRESS":"糞箕湖６６之３號","OBJECTID":345445},"geometry":{"x":192183.98000000231,"y":2582487.3599999994}},{"attributes":{"ID":345455,"DIS_CODE":0,"TOWNNAME":"白河區","LI":"河東里","LIN":"5鄰","STREET":" ","SECT":" ","MAREA":"糞箕湖","LANE":" ","ALLEY":" ","HOUSE_NO":"６７號","E_COORD97":192168.32000000001,"N_COORD97":2582439.02,"ADDRESS":"糞箕湖６７號","OBJECTID":345446},"geometry":{"x":192168.32000000123,"y":2582439.0199999996}},{"attributes":{"ID":345456,"DIS_CODE":0,"TOWNNAME":"西港區","LI":"新復里","LIN":"5鄰","STREET":" ","SECT":" ","MAREA":"新港","LANE":" ","ALLEY":" ","HOUSE_NO":"４０號","E_COORD97":166512.48000000001,"N_COORD97":2556482.46,"ADDRESS":"新港４０號","OBJECTID":345447},"geometry":{"x":166512.48000000138,"y":2556482.4600000028}},{"attributes":{"ID":345457,"DIS_CODE":0,"TOWNNAME":"西港區","LI":"新復里","LIN":"5鄰","STREET":" ","SECT":" ","MAREA":"新港","LANE":" ","ALLEY":" ","HOUSE_NO":"４１之１２號","E_COORD97":166746.10000000001,"N_COORD97":2557263.98,"ADDRESS":"新港４１之１２號","OBJECTID":345448},"geometry":{"x":166746.10000000056,"y":2557263.9800000004}},{"attributes":{"ID":345458,"DIS_CODE":0,"TOWNNAME":"西港區","LI":"新復里","LIN":"5鄰","STREET":" ","SECT":" ","MAREA":"新港","LANE":" ","ALLEY":" ","HOUSE_NO":"４１號之１","E_COORD97":166530.76999999999,"N_COORD97":2556571.73,"ADDRESS":"新港４１號之１","OBJECTID":345449},"geometry":{"x":166530.76999999955,"y":2556571.7300000023}},{"attributes":{"ID":345459,"DIS_CODE":0,"TOWNNAME":"西港區","LI":"新復里","LIN":"5鄰","STREET":" ","SECT":" ","MAREA":"新港","LANE":" ","ALLEY":" ","HOUSE_NO":"４１號之２","E_COORD97":166523.76000000001,"N_COORD97":2556549.1499999999,"ADDRESS":"新港４１號之２","OBJECTID":345450},"geometry":{"x":166523.75999999978,"y":2556549.1500000022}},{"attributes":{"ID":345460,"DIS_CODE":0,"TOWNNAME":"西港區","LI":"慶安里","LIN":"5鄰","STREET":"新興街","SECT":" ","MAREA":" ","LANE":"２０１巷","ALLEY":" ","HOUSE_NO":"５號","E_COORD97":168105.76999999999,"N_COORD97":2558576.1800000002,"ADDRESS":"新興街２０１巷５號","OBJECTID":345451},"geometry":{"x":168105.76999999862,"y":2558576.1799999997}},{"attributes":{"ID":345461,"DIS_CODE":0,"TOWNNAME":"永康區","LI":"東橋里","LIN":"5鄰","STREET":"中山南路","SECT":" ","MAREA":" ","LANE":"１９５巷","ALLEY":" ","HOUSE_NO":"３２號","E_COORD97":171459.32999999999,"N_COORD97":2546367.5099999998,"ADDRESS":"中山南路１９５巷３２號","OBJECTID":345452},"geometry":{"x":171459.33000000101,"y":2546367.5100000016}},{"attributes":{"ID":345462,"DIS_CODE":0,"TOWNNAME":"西港區","LI":"新復里","LIN":"5鄰","STREET":" ","SECT":" ","MAREA":"新港","LANE":" ","ALLEY":" ","HOUSE_NO":"４１號之３","E_COORD97":166534.13,"N_COORD97":2556588.5299999998,"ADDRESS":"新港４１號之３","OBJECTID":345453},"geometry":{"x":166534.13000000175,"y":2556588.5300000012}},{"attributes":{"ID":345463,"DIS_CODE":0,"TOWNNAME":"永康區","LI":"西灣里","LIN":"5鄰","STREET":"大灣五街","SECT":" ","MAREA":" ","LANE":"９３巷","ALLEY":" ","HOUSE_NO":"２１號","E_COORD97":174618.70999999999,"N_COORD97":2545248.9900000002,"ADDRESS":"大灣五街９３巷２１號","OBJECTID":345454},"geometry":{"x":174618.71000000089,"y":2545248.9900000021}},{"attributes":{"ID":345464,"DIS_CODE":0,"TOWNNAME":"永康區","LI":"西橋里","LIN":"5鄰","STREET":"中華西街","SECT":" ","MAREA":" ","LANE":"２１巷","ALLEY":" ","HOUSE_NO":"１２號之１","E_COORD97":170743.63,"N_COORD97":2545935.5499999998,"ADDRESS":"中華西街２１巷１２號之１","OBJECTID":345455},"geometry":{"x":170743.63000000082,"y":2545935.5500000007}},{"attributes":{"ID":345465,"DIS_CODE":0,"TOWNNAME":"安平區","LI":"國平里","LIN":"31鄰","STREET":"健康三街","SECT":" ","MAREA":" ","LANE":"１２巷","ALLEY":" ","HOUSE_NO":"１號四樓之２３","E_COORD97":164774.88,"N_COORD97":2542904.3999999999,"ADDRESS":"健康三街１２巷１號四樓之２３","OBJECTID":345456},"geometry":{"x":164774.88000000082,"y":2542904.4000000022}},{"attributes":{"ID":345466,"DIS_CODE":0,"TOWNNAME":"安平區","LI":"國平里","LIN":"31鄰","STREET":"健康三街","SECT":" ","MAREA":" ","LANE":"１２巷","ALLEY":" ","HOUSE_NO":"１號四樓之２４","E_COORD97":164774.88,"N_COORD97":2542904.3999999999,"ADDRESS":"健康三街１２巷１號四樓之２４","OBJECTID":345457},"geometry":{"x":164774.88000000082,"y":2542904.4000000022}},{"attributes":{"ID":345467,"DIS_CODE":0,"TOWNNAME":"安平區","LI":"國平里","LIN":"31鄰","STREET":"健康三街","SECT":" ","MAREA":" ","LANE":"１２巷","ALLEY":" ","HOUSE_NO":"１號四樓之２５","E_COORD97":164774.88,"N_COORD97":2542904.3999999999,"ADDRESS":"健康三街１２巷１號四樓之２５","OBJECTID":345458},"geometry":{"x":164774.88000000082,"y":2542904.4000000022}},{"attributes":{"ID":345468,"DIS_CODE":0,"TOWNNAME":"西港區","LI":"新復里","LIN":"5鄰","STREET":" ","SECT":" ","MAREA":"新港","LANE":" ","ALLEY":" ","HOUSE_NO":"４１號之４","E_COORD97":166516.95000000001,"N_COORD97":2556540.9900000002,"ADDRESS":"新港４１號之４","OBJECTID":345459},"geometry":{"x":166516.95000000205,"y":2556540.9900000002}},{"attributes":{"ID":345469,"DIS_CODE":0,"TOWNNAME":"安平區","LI":"國平里","LIN":"31鄰","STREET":"健康三街","SECT":" ","MAREA":" ","LANE":"１２巷","ALLEY":" ","HOUSE_NO":"１號五樓之２０","E_COORD97":164774.88,"N_COORD97":2542904.3999999999,"ADDRESS":"健康三街１２巷１號五樓之２０","OBJECTID":345460},"geometry":{"x":164774.88000000082,"y":2542904.4000000022}},{"attributes":{"ID":345470,"DIS_CODE":0,"TOWNNAME":"西港區","LI":"新復里","LIN":"5鄰","STREET":" ","SECT":" ","MAREA":"新港","LANE":" ","ALLEY":" ","HOUSE_NO":"４１號之５","E_COORD97":166520.12,"N_COORD97":2556522.48,"ADDRESS":"新港４１號之５","OBJECTID":345461},"geometry":{"x":166520.12000000011,"y":2556522.4800000023}},{"attributes":{"ID":345471,"DIS_CODE":0,"TOWNNAME":"安平區","LI":"國平里","LIN":"31鄰","STREET":"健康三街","SECT":" ","MAREA":" ","LANE":"１２巷","ALLEY":" ","HOUSE_NO":"１號五樓之２１","E_COORD97":164774.88,"N_COORD97":2542904.3999999999,"ADDRESS":"健康三街１２巷１號五樓之２１","OBJECTID":345462},"geometry":{"x":164774.88000000082,"y":2542904.4000000022}},{"attributes":{"ID":345472,"DIS_CODE":0,"TOWNNAME":"安平區","LI":"國平里","LIN":"31鄰","STREET":"健康三街","SECT":" ","MAREA":" ","LANE":"１２巷","ALLEY":" ","HOUSE_NO":"１號五樓之２２","E_COORD97":164774.88,"N_COORD97":2542904.3999999999,"ADDRESS":"健康三街１２巷１號五樓之２２","OBJECTID":345463},"geometry":{"x":164774.88000000082,"y":2542904.4000000022}},{"attributes":{"ID":345473,"DIS_CODE":0,"TOWNNAME":"東區","LI":"大福里","LIN":"13鄰","STREET":"立德四路","SECT":" ","MAREA":" ","LANE":" ","ALLEY":" ","HOUSE_NO":"９號","E_COORD97":169522.13,"N_COORD97":2541809.8300000001,"ADDRESS":"立德四路９號","OBJECTID":345464},"geometry":{"x":169522.12999999989,"y":2541809.8300000019}},{"attributes":{"ID":345474,"DIS_CODE":0,"TOWNNAME":"中西區","LI":"法華里","LIN":"8鄰","STREET":"五妃街","SECT":" ","MAREA":" ","LANE":" ","ALLEY":" ","HOUSE_NO":"１１之２號二樓","E_COORD97":169091.98999999999,"N_COORD97":2542542.8500000001,"ADDRESS":"五妃街１１之２號二樓","OBJECTID":345465},"geometry":{"x":169091.99000000115,"y":2542542.8499999996}},{"attributes":{"ID":345475,"DIS_CODE":0,"TOWNNAME":"中西區","LI":"法華里","LIN":"8鄰","STREET":"五妃街","SECT":" ","MAREA":" ","LANE":" ","ALLEY":" ","HOUSE_NO":"１１之２號八樓","E_COORD97":169091.98999999999,"N_COORD97":2542542.8500000001,"ADDRESS":"五妃街１１之２號八樓","OBJECTID":345466},"geometry":{"x":169091.99000000115,"y":2542542.8499999996}},{"attributes":{"ID":345476,"DIS_CODE":0,"TOWNNAME":"西港區","LI":"新復里","LIN":"5鄰","STREET":" ","SECT":" ","MAREA":"新港","LANE":" ","ALLEY":" ","HOUSE_NO":"４１號","E_COORD97":166512.32000000001,"N_COORD97":2556500.9500000002,"ADDRESS":"新港４１號","OBJECTID":345467},"geometry":{"x":166512.3200000003,"y":2556500.9500000011}},{"attributes":{"ID":345477,"DIS_CODE":0,"TOWNNAME":"西港區","LI":"新復里","LIN":"5鄰","STREET":" ","SECT":" ","MAREA":"新港","LANE":" ","ALLEY":" ","HOUSE_NO":"４２號","E_COORD97":166493.32000000001,"N_COORD97":2556497.9500000002,"ADDRESS":"新港４２號","OBJECTID":345468},"geometry":{"x":166493.32000000123,"y":2556497.9500000011}},{"attributes":{"ID":345478,"DIS_CODE":0,"TOWNNAME":"西港區","LI":"新復里","LIN":"5鄰","STREET":" ","SECT":" ","MAREA":"新港","LANE":" ","ALLEY":" ","HOUSE_NO":"４３號之１","E_COORD97":166460.39000000001,"N_COORD97":2556513.21,"ADDRESS":"新港４３號之１","OBJECTID":345469},"geometry":{"x":166460.38999999966,"y":2556513.2100000009}},{"attributes":{"ID":345479,"DIS_CODE":0,"TOWNNAME":"西港區","LI":"新復里","LIN":"5鄰","STREET":" ","SECT":" ","MAREA":"新港","LANE":" ","ALLEY":" ","HOUSE_NO":"４３號","E_COORD97":166477.70000000001,"N_COORD97":2556498.79,"ADDRESS":"新港４３號","OBJECTID":345470},"geometry":{"x":166477.70000000019,"y":2556498.790000001}},{"attributes":{"ID":345480,"DIS_CODE":0,"TOWNNAME":"中西區","LI":"法華里","LIN":"8鄰","STREET":"五妃街","SECT":" ","MAREA":" ","LANE":" ","ALLEY":" ","HOUSE_NO":"１１之２號三樓","E_COORD97":169091.98999999999,"N_COORD97":2542542.8500000001,"ADDRESS":"五妃街１１之２號三樓","OBJECTID":345471},"geometry":{"x":169091.99000000115,"y":2542542.8499999996}},{"attributes":{"ID":345481,"DIS_CODE":0,"TOWNNAME":"中西區","LI":"法華里","LIN":"8鄰","STREET":"五妃街","SECT":" ","MAREA":" ","LANE":" ","ALLEY":" ","HOUSE_NO":"１１之２號五樓","E_COORD97":169091.98999999999,"N_COORD97":2542542.8500000001,"ADDRESS":"五妃街１１之２號五樓","OBJECTID":345472},"geometry":{"x":169091.99000000115,"y":2542542.8499999996}},{"attributes":{"ID":345482,"DIS_CODE":0,"TOWNNAME":"永康區","LI":"東橋里","LIN":"5鄰","STREET":"大橋一街","SECT":" ","MAREA":" ","LANE":"３２４巷","ALLEY":" ","HOUSE_NO":"７８號","E_COORD97":171459.34,"N_COORD97":2546458.5,"ADDRESS":"大橋一街３２４巷７８號","OBJECTID":345473},"geometry":{"x":171459.34000000078,"y":2546458.5000000037}},{"attributes":{"ID":345483,"DIS_CODE":0,"TOWNNAME":"中西區","LI":"法華里","LIN":"8鄰","STREET":"五妃街","SECT":" ","MAREA":" ","LANE":" ","ALLEY":" ","HOUSE_NO":"１１之２號六樓","E_COORD97":169091.98999999999,"N_COORD97":2542542.8500000001,"ADDRESS":"五妃街１１之２號六樓","OBJECTID":345474},"geometry":{"x":169091.99000000115,"y":2542542.8499999996}},{"attributes":{"ID":345484,"DIS_CODE":0,"TOWNNAME":"安平區","LI":"國平里","LIN":"31鄰","STREET":"健康三街","SECT":" ","MAREA":" ","LANE":"１２巷","ALLEY":" ","HOUSE_NO":"１號五樓之２３","E_COORD97":164774.88,"N_COORD97":2542904.3999999999,"ADDRESS":"健康三街１２巷１號五樓之２３","OBJECTID":345475},"geometry":{"x":164774.88000000082,"y":2542904.4000000022}},{"attributes":{"ID":345485,"DIS_CODE":0,"TOWNNAME":"安平區","LI":"國平里","LIN":"31鄰","STREET":"健康三街","SECT":" ","MAREA":" ","LANE":"１２巷","ALLEY":" ","HOUSE_NO":"１號五樓之２４","E_COORD97":164774.88,"N_COORD97":2542904.3999999999,"ADDRESS":"健康三街１２巷１號五樓之２４","OBJECTID":345476},"geometry":{"x":164774.88000000082,"y":2542904.4000000022}},{"attributes":{"ID":345486,"DIS_CODE":0,"TOWNNAME":"安平區","LI":"國平里","LIN":"31鄰","STREET":"健康三街","SECT":" ","MAREA":" ","LANE":"１２巷","ALLEY":" ","HOUSE_NO":"１號五樓之２５","E_COORD97":164774.88,"N_COORD97":2542904.3999999999,"ADDRESS":"健康三街１２巷１號五樓之２５","OBJECTID":345477},"geometry":{"x":164774.88000000082,"y":2542904.4000000022}},{"attributes":{"ID":345487,"DIS_CODE":0,"TOWNNAME":"安平區","LI":"國平里","LIN":"31鄰","STREET":"健康三街","SECT":" ","MAREA":" ","LANE":"１２巷","ALLEY":" ","HOUSE_NO":"１號六樓之２０","E_COORD97":164774.88,"N_COORD97":2542904.3999999999,"ADDRESS":"健康三街１２巷１號六樓之２０","OBJECTID":345478},"geometry":{"x":164774.88000000082,"y":2542904.4000000022}},{"attributes":{"ID":345488,"DIS_CODE":0,"TOWNNAME":"安平區","LI":"國平里","LIN":"31鄰","STREET":"健康三街","SECT":" ","MAREA":" ","LANE":"１２巷","ALLEY":" ","HOUSE_NO":"１號六樓之２１","E_COORD97":164774.88,"N_COORD97":2542904.3999999999,"ADDRESS":"健康三街１２巷１號六樓之２１","OBJECTID":345479},"geometry":{"x":164774.88000000082,"y":2542904.4000000022}},{"attributes":{"ID":345489,"DIS_CODE":0,"TOWNNAME":"安平區","LI":"國平里","LIN":"31鄰","STREET":"健康三街","SECT":" ","MAREA":" ","LANE":"１２巷","ALLEY":" ","HOUSE_NO":"１號六樓之２２","E_COORD97":164774.88,"N_COORD97":2542904.3999999999,"ADDRESS":"健康三街１２巷１號六樓之２２","OBJECTID":345480},"geometry":{"x":164774.88000000082,"y":2542904.4000000022}},{"attributes":{"ID":345490,"DIS_CODE":0,"TOWNNAME":"安平區","LI":"國平里","LIN":"31鄰","STREET":"健康三街","SECT":" ","MAREA":" ","LANE":"１２巷","ALLEY":" ","HOUSE_NO":"１號六樓之２３","E_COORD97":164774.88,"N_COORD97":2542904.3999999999,"ADDRESS":"健康三街１２巷１號六樓之２３","OBJECTID":345481},"geometry":{"x":164774.88000000082,"y":2542904.4000000022}},{"attributes":{"ID":345491,"DIS_CODE":0,"TOWNNAME":"安平區","LI":"國平里","LIN":"31鄰","STREET":"健康三街","SECT":" ","MAREA":" ","LANE":"１２巷","ALLEY":" ","HOUSE_NO":"１號六樓之２４","E_COORD97":164774.88,"N_COORD97":2542904.3999999999,"ADDRESS":"健康三街１２巷１號六樓之２４","OBJECTID":345482},"geometry":{"x":164774.88000000082,"y":2542904.4000000022}},{"attributes":{"ID":345492,"DIS_CODE":0,"TOWNNAME":"安平區","LI":"國平里","LIN":"31鄰","STREET":"健康三街","SECT":" ","MAREA":" ","LANE":"１２巷","ALLEY":" ","HOUSE_NO":"１號六樓之２５","E_COORD97":164774.88,"N_COORD97":2542904.3999999999,"ADDRESS":"健康三街１２巷１號六樓之２５","OBJECTID":345483},"geometry":{"x":164774.88000000082,"y":2542904.4000000022}},{"attributes":{"ID":345493,"DIS_CODE":0,"TOWNNAME":"安平區","LI":"國平里","LIN":"31鄰","STREET":"健康三街","SECT":" ","MAREA":" ","LANE":"１２巷","ALLEY":" ","HOUSE_NO":"１號七樓之２０","E_COORD97":164774.88,"N_COORD97":2542904.3999999999,"ADDRESS":"健康三街１２巷１號七樓之２０","OBJECTID":345484},"geometry":{"x":164774.88000000082,"y":2542904.4000000022}},{"attributes":{"ID":345494,"DIS_CODE":0,"TOWNNAME":"安平區","LI":"國平里","LIN":"31鄰","STREET":"健康三街","SECT":" ","MAREA":" ","LANE":"１２巷","ALLEY":" ","HOUSE_NO":"１號七樓之２１","E_COORD97":164774.88,"N_COORD97":2542904.3999999999,"ADDRESS":"健康三街１２巷１號七樓之２１","OBJECTID":345485},"geometry":{"x":164774.88000000082,"y":2542904.4000000022}},{"attributes":{"ID":345495,"DIS_CODE":0,"TOWNNAME":"安平區","LI":"國平里","LIN":"31鄰","STREET":"健康三街","SECT":" ","MAREA":" ","LANE":"１２巷","ALLEY":" ","HOUSE_NO":"１號七樓之２２","E_COORD97":164774.88,"N_COORD97":2542904.3999999999,"ADDRESS":"健康三街１２巷１號七樓之２２","OBJECTID":345486},"geometry":{"x":164774.88000000082,"y":2542904.4000000022}},{"attributes":{"ID":345496,"DIS_CODE":0,"TOWNNAME":"安平區","LI":"國平里","LIN":"31鄰","STREET":"健康三街","SECT":" ","MAREA":" ","LANE":"１２巷","ALLEY":" ","HOUSE_NO":"１號七樓之２３","E_COORD97":164774.88,"N_COORD97":2542904.3999999999,"ADDRESS":"健康三街１２巷１號七樓之２３","OBJECTID":345487},"geometry":{"x":164774.88000000082,"y":2542904.4000000022}},{"attributes":{"ID":345497,"DIS_CODE":0,"TOWNNAME":"安平區","LI":"國平里","LIN":"31鄰","STREET":"健康三街","SECT":" ","MAREA":" ","LANE":"１２巷","ALLEY":" ","HOUSE_NO":"１號七樓之２４","E_COORD97":164774.88,"N_COORD97":2542904.3999999999,"ADDRESS":"健康三街１２巷１號七樓之２４","OBJECTID":345488},"geometry":{"x":164774.88000000082,"y":2542904.4000000022}},{"attributes":{"ID":345498,"DIS_CODE":0,"TOWNNAME":"安平區","LI":"國平里","LIN":"31鄰","STREET":"健康三街","SECT":" ","MAREA":" ","LANE":"１２巷","ALLEY":" ","HOUSE_NO":"１號七樓之２５","E_COORD97":164774.88,"N_COORD97":2542904.3999999999,"ADDRESS":"健康三街１２巷１號七樓之２５","OBJECTID":345489},"geometry":{"x":164774.88000000082,"y":2542904.4000000022}},{"attributes":{"ID":345499,"DIS_CODE":0,"TOWNNAME":"安平區","LI":"國平里","LIN":"31鄰","STREET":"健康三街","SECT":" ","MAREA":" ","LANE":"１２巷","ALLEY":" ","HOUSE_NO":"１號八樓之２０","E_COORD97":164774.88,"N_COORD97":2542904.3999999999,"ADDRESS":"健康三街１２巷１號八樓之２０","OBJECTID":345490},"geometry":{"x":164774.88000000082,"y":2542904.4000000022}},{"attributes":{"ID":345500,"DIS_CODE":0,"TOWNNAME":"安平區","LI":"國平里","LIN":"31鄰","STREET":"健康三街","SECT":" ","MAREA":" ","LANE":"１２巷","ALLEY":" ","HOUSE_NO":"１號八樓之２１","E_COORD97":164774.88,"N_COORD97":2542904.3999999999,"ADDRESS":"健康三街１２巷１號八樓之２１","OBJECTID":345491},"geometry":{"x":164774.88000000082,"y":2542904.4000000022}},{"attributes":{"ID":345501,"DIS_CODE":0,"TOWNNAME":"安平區","LI":"國平里","LIN":"31鄰","STREET":"健康三街","SECT":" ","MAREA":" ","LANE":"１２巷","ALLEY":" ","HOUSE_NO":"１號八樓之２２","E_COORD97":164774.88,"N_COORD97":2542904.3999999999,"ADDRESS":"健康三街１２巷１號八樓之２２","OBJECTID":345492},"geometry":{"x":164774.88000000082,"y":2542904.4000000022}},{"attributes":{"ID":345502,"DIS_CODE":0,"TOWNNAME":"安平區","LI":"國平里","LIN":"31鄰","STREET":"健康三街","SECT":" ","MAREA":" ","LANE":"１２巷","ALLEY":" ","HOUSE_NO":"１號八樓之２３","E_COORD97":164774.88,"N_COORD97":2542904.3999999999,"ADDRESS":"健康三街１２巷１號八樓之２３","OBJECTID":345493},"geometry":{"x":164774.88000000082,"y":2542904.4000000022}},{"attributes":{"ID":345503,"DIS_CODE":0,"TOWNNAME":"安平區","LI":"國平里","LIN":"31鄰","STREET":"健康三街","SECT":" ","MAREA":" ","LANE":"１２巷","ALLEY":" ","HOUSE_NO":"１號八樓之２４","E_COORD97":164774.88,"N_COORD97":2542904.3999999999,"ADDRESS":"健康三街１２巷１號八樓之２４","OBJECTID":345494},"geometry":{"x":164774.88000000082,"y":2542904.4000000022}},{"attributes":{"ID":345504,"DIS_CODE":0,"TOWNNAME":"安平區","LI":"國平里","LIN":"31鄰","STREET":"健康三街","SECT":" ","MAREA":" ","LANE":"１２巷","ALLEY":" ","HOUSE_NO":"１號八樓之２５","E_COORD97":164774.88,"N_COORD97":2542904.3999999999,"ADDRESS":"健康三街１２巷１號八樓之２５","OBJECTID":345495},"geometry":{"x":164774.88000000082,"y":2542904.4000000022}},{"attributes":{"ID":345505,"DIS_CODE":0,"TOWNNAME":"安平區","LI":"國平里","LIN":"31鄰","STREET":"健康三街","SECT":" ","MAREA":" ","LANE":"１２巷","ALLEY":" ","HOUSE_NO":"１號九樓之２０","E_COORD97":164774.88,"N_COORD97":2542904.3999999999,"ADDRESS":"健康三街１２巷１號九樓之２０","OBJECTID":345496},"geometry":{"x":164774.88000000082,"y":2542904.4000000022}},{"attributes":{"ID":345506,"DIS_CODE":0,"TOWNNAME":"安平區","LI":"國平里","LIN":"31鄰","STREET":"健康三街","SECT":" ","MAREA":" ","LANE":"１２巷","ALLEY":" ","HOUSE_NO":"１號九樓之２１","E_COORD97":164774.88,"N_COORD97":2542904.3999999999,"ADDRESS":"健康三街１２巷１號九樓之２１","OBJECTID":345497},"geometry":{"x":164774.88000000082,"y":2542904.4000000022}},{"attributes":{"ID":345507,"DIS_CODE":0,"TOWNNAME":"安平區","LI":"國平里","LIN":"31鄰","STREET":"健康三街","SECT":" ","MAREA":" ","LANE":"１２巷","ALLEY":" ","HOUSE_NO":"１號九樓之２２","E_COORD97":164774.88,"N_COORD97":2542904.3999999999,"ADDRESS":"健康三街１２巷１號九樓之２２","OBJECTID":345498},"geometry":{"x":164774.88000000082,"y":2542904.4000000022}},{"attributes":{"ID":345508,"DIS_CODE":0,"TOWNNAME":"安平區","LI":"國平里","LIN":"31鄰","STREET":"健康三街","SECT":" ","MAREA":" ","LANE":"１２巷","ALLEY":" ","HOUSE_NO":"１號九樓之２３","E_COORD97":164774.88,"N_COORD97":2542904.3999999999,"ADDRESS":"健康三街１２巷１號九樓之２３","OBJECTID":345499},"geometry":{"x":164774.88000000082,"y":2542904.4000000022}},{"attributes":{"ID":345509,"DIS_CODE":0,"TOWNNAME":"安平區","LI":"國平里","LIN":"31鄰","STREET":"健康三街","SECT":" ","MAREA":" ","LANE":"１２巷","ALLEY":" ","HOUSE_NO":"１號九樓之２４","E_COORD97":164774.88,"N_COORD97":2542904.3999999999,"ADDRESS":"健康三街１２巷１號九樓之２４","OBJECTID":345500},"geometry":{"x":164774.88000000082,"y":2542904.4000000022}},{"attributes":{"ID":345510,"DIS_CODE":0,"TOWNNAME":"東區","LI":"虎尾里","LIN":"5鄰","STREET":"富農街","SECT":"一段","MAREA":" ","LANE":"４８巷","ALLEY":" ","HOUSE_NO":"９號","E_COORD97":171540.51999999999,"N_COORD97":2542142.1899999999,"ADDRESS":"富農街一段４８巷９號","OBJECTID":345501},"geometry":{"x":171540.52000000048,"y":2542142.1900000013}},{"attributes":{"ID":345511,"DIS_CODE":0,"TOWNNAME":"東區","LI":"龍山里","LIN":"5鄰","STREET":"崇仁街","SECT":" ","MAREA":" ","LANE":"６６巷","ALLEY":" ","HOUSE_NO":"１號","E_COORD97":170338.76000000001,"N_COORD97":2542728.5800000001,"ADDRESS":"崇仁街６６巷１號","OBJECTID":345502},"geometry":{"x":170338.76000000164,"y":2542728.5800000038}},{"attributes":{"ID":345512,"DIS_CODE":0,"TOWNNAME":"東區","LI":"龍山里","LIN":"5鄰","STREET":"崇仁街","SECT":" ","MAREA":" ","LANE":"６６巷","ALLEY":" ","HOUSE_NO":"３號","E_COORD97":170333.72,"N_COORD97":2542722.4100000001,"ADDRESS":"崇仁街６６巷３號","OBJECTID":345503},"geometry":{"x":170333.71999999974,"y":2542722.4100000001}},{"attributes":{"ID":345513,"DIS_CODE":0,"TOWNNAME":"安平區","LI":"國平里","LIN":"31鄰","STREET":"健康三街","SECT":" ","MAREA":" ","LANE":"１２巷","ALLEY":" ","HOUSE_NO":"１號九樓之２５","E_COORD97":164774.88,"N_COORD97":2542904.3999999999,"ADDRESS":"健康三街１２巷１號九樓之２５","OBJECTID":345504},"geometry":{"x":164774.88000000082,"y":2542904.4000000022}},{"attributes":{"ID":345514,"DIS_CODE":0,"TOWNNAME":"安平區","LI":"國平里","LIN":"31鄰","STREET":"健康三街","SECT":" ","MAREA":" ","LANE":"１２巷","ALLEY":" ","HOUSE_NO":"１號十樓之２０","E_COORD97":164774.88,"N_COORD97":2542904.3999999999,"ADDRESS":"健康三街１２巷１號十樓之２０","OBJECTID":345505},"geometry":{"x":164774.88000000082,"y":2542904.4000000022}},{"attributes":{"ID":345515,"DIS_CODE":0,"TOWNNAME":"安平區","LI":"國平里","LIN":"31鄰","STREET":"健康三街","SECT":" ","MAREA":" ","LANE":"１２巷","ALLEY":" ","HOUSE_NO":"１號十樓之２１","E_COORD97":164774.88,"N_COORD97":2542904.3999999999,"ADDRESS":"健康三街１２巷１號十樓之２１","OBJECTID":345506},"geometry":{"x":164774.88000000082,"y":2542904.4000000022}},{"attributes":{"ID":345516,"DIS_CODE":0,"TOWNNAME":"安平區","LI":"國平里","LIN":"31鄰","STREET":"健康三街","SECT":" ","MAREA":" ","LANE":"１２巷","ALLEY":" ","HOUSE_NO":"１號十樓之２２","E_COORD97":164774.88,"N_COORD97":2542904.3999999999,"ADDRESS":"健康三街１２巷１號十樓之２２","OBJECTID":345507},"geometry":{"x":164774.88000000082,"y":2542904.4000000022}},{"attributes":{"ID":345517,"DIS_CODE":0,"TOWNNAME":"安平區","LI":"國平里","LIN":"31鄰","STREET":"健康三街","SECT":" ","MAREA":" ","LANE":"１２巷","ALLEY":" ","HOUSE_NO":"１號十樓之２３","E_COORD97":164774.88,"N_COORD97":2542904.3999999999,"ADDRESS":"健康三街１２巷１號十樓之２３","OBJECTID":345508},"geometry":{"x":164774.88000000082,"y":2542904.4000000022}},{"attributes":{"ID":345518,"DIS_CODE":0,"TOWNNAME":"安平區","LI":"國平里","LIN":"31鄰","STREET":"健康三街","SECT":" ","MAREA":" ","LANE":"１２巷","ALLEY":" ","HOUSE_NO":"１號十樓之２４","E_COORD97":164774.88,"N_COORD97":2542904.3999999999,"ADDRESS":"健康三街１２巷１號十樓之２４","OBJECTID":345509},"geometry":{"x":164774.88000000082,"y":2542904.4000000022}},{"attributes":{"ID":345519,"DIS_CODE":0,"TOWNNAME":"安平區","LI":"國平里","LIN":"31鄰","STREET":"健康三街","SECT":" ","MAREA":" ","LANE":"１２巷","ALLEY":" ","HOUSE_NO":"１號十樓之２５","E_COORD97":164774.88,"N_COORD97":2542904.3999999999,"ADDRESS":"健康三街１２巷１號十樓之２５","OBJECTID":345510},"geometry":{"x":164774.88000000082,"y":2542904.4000000022}},{"attributes":{"ID":345520,"DIS_CODE":0,"TOWNNAME":"安平區","LI":"國平里","LIN":"31鄰","STREET":"健康三街","SECT":" ","MAREA":" ","LANE":"１２巷","ALLEY":" ","HOUSE_NO":"１號十一樓之２０","E_COORD97":164774.88,"N_COORD97":2542904.3999999999,"ADDRESS":"健康三街１２巷１號十一樓之２０","OBJECTID":345511},"geometry":{"x":164774.88000000082,"y":2542904.4000000022}},{"attributes":{"ID":345521,"DIS_CODE":0,"TOWNNAME":"安平區","LI":"國平里","LIN":"31鄰","STREET":"健康三街","SECT":" ","MAREA":" ","LANE":"１２巷","ALLEY":" ","HOUSE_NO":"１號十一樓之２１","E_COORD97":164774.88,"N_COORD97":2542904.3999999999,"ADDRESS":"健康三街１２巷１號十一樓之２１","OBJECTID":345512},"geometry":{"x":164774.88000000082,"y":2542904.4000000022}},{"attributes":{"ID":345522,"DIS_CODE":0,"TOWNNAME":"安平區","LI":"國平里","LIN":"31鄰","STREET":"健康三街","SECT":" ","MAREA":" ","LANE":"１２巷","ALLEY":" ","HOUSE_NO":"１號十一樓之２２","E_COORD97":164774.88,"N_COORD97":2542904.3999999999,"ADDRESS":"健康三街１２巷１號十一樓之２２","OBJECTID":345513},"geometry":{"x":164774.88000000082,"y":2542904.4000000022}},{"attributes":{"ID":345523,"DIS_CODE":0,"TOWNNAME":"安平區","LI":"國平里","LIN":"31鄰","STREET":"健康三街","SECT":" ","MAREA":" ","LANE":"１２巷","ALLEY":" ","HOUSE_NO":"１號十一樓之２３","E_COORD97":164774.88,"N_COORD97":2542904.3999999999,"ADDRESS":"健康三街１２巷１號十一樓之２３","OBJECTID":345514},"geometry":{"x":164774.88000000082,"y":2542904.4000000022}},{"attributes":{"ID":345524,"DIS_CODE":0,"TOWNNAME":"安平區","LI":"國平里","LIN":"31鄰","STREET":"健康三街","SECT":" ","MAREA":" ","LANE":"１２巷","ALLEY":" ","HOUSE_NO":"１號十一樓之２４","E_COORD97":164774.88,"N_COORD97":2542904.3999999999,"ADDRESS":"健康三街１２巷１號十一樓之２４","OBJECTID":345515},"geometry":{"x":164774.88000000082,"y":2542904.4000000022}},{"attributes":{"ID":345525,"DIS_CODE":0,"TOWNNAME":"安平區","LI":"國平里","LIN":"31鄰","STREET":"健康三街","SECT":" ","MAREA":" ","LANE":"１２巷","ALLEY":" ","HOUSE_NO":"１號十一樓之２５","E_COORD97":164774.88,"N_COORD97":2542904.3999999999,"ADDRESS":"健康三街１２巷１號十一樓之２５","OBJECTID":345516},"geometry":{"x":164774.88000000082,"y":2542904.4000000022}},{"attributes":{"ID":345526,"DIS_CODE":0,"TOWNNAME":"安平區","LI":"國平里","LIN":"31鄰","STREET":"健康三街","SECT":" ","MAREA":" ","LANE":"１２巷","ALLEY":" ","HOUSE_NO":"１號十二樓之２０","E_COORD97":164774.88,"N_COORD97":2542904.3999999999,"ADDRESS":"健康三街１２巷１號十二樓之２０","OBJECTID":345517},"geometry":{"x":164774.88000000082,"y":2542904.4000000022}},{"attributes":{"ID":345527,"DIS_CODE":0,"TOWNNAME":"安平區","LI":"國平里","LIN":"31鄰","STREET":"健康三街","SECT":" ","MAREA":" ","LANE":"１２巷","ALLEY":" ","HOUSE_NO":"１號十二樓之２１","E_COORD97":164774.88,"N_COORD97":2542904.3999999999,"ADDRESS":"健康三街１２巷１號十二樓之２１","OBJECTID":345518},"geometry":{"x":164774.88000000082,"y":2542904.4000000022}},{"attributes":{"ID":345528,"DIS_CODE":0,"TOWNNAME":"安平區","LI":"國平里","LIN":"31鄰","STREET":"健康三街","SECT":" ","MAREA":" ","LANE":"１２巷","ALLEY":" ","HOUSE_NO":"１號十二樓之２２","E_COORD97":164774.88,"N_COORD97":2542904.3999999999,"ADDRESS":"健康三街１２巷１號十二樓之２２","OBJECTID":345519},"geometry":{"x":164774.88000000082,"y":2542904.4000000022}},{"attributes":{"ID":345529,"DIS_CODE":0,"TOWNNAME":"中西區","LI":"法華里","LIN":"8鄰","STREET":"五妃街","SECT":" ","MAREA":" ","LANE":" ","ALLEY":" ","HOUSE_NO":"１１之２號四樓","E_COORD97":169091.98999999999,"N_COORD97":2542542.8500000001,"ADDRESS":"五妃街１１之２號四樓","OBJECTID":345520},"geometry":{"x":169091.99000000115,"y":2542542.8499999996}},{"attributes":{"ID":345530,"DIS_CODE":0,"TOWNNAME":"中西區","LI":"法華里","LIN":"8鄰","STREET":"五妃街","SECT":" ","MAREA":" ","LANE":" ","ALLEY":" ","HOUSE_NO":"１１之３號七樓","E_COORD97":169085.95999999999,"N_COORD97":2542539.6099999999,"ADDRESS":"五妃街１１之３號七樓","OBJECTID":345521},"geometry":{"x":169085.95999999996,"y":2542539.6099999994}},{"attributes":{"ID":345531,"DIS_CODE":0,"TOWNNAME":"佳里區","LI":"鎮山里","LIN":"1鄰","STREET":"四安街","SECT":" ","MAREA":" ","LANE":" ","ALLEY":" ","HOUSE_NO":"８號","E_COORD97":165889.10000000001,"N_COORD97":2561868.3500000001,"ADDRESS":"四安街８號","OBJECTID":345522},"geometry":{"x":165889.09999999963,"y":2561868.3500000034}},{"attributes":{"ID":345532,"DIS_CODE":0,"TOWNNAME":"西港區","LI":"劉厝里","LIN":"5鄰","STREET":" ","SECT":" ","MAREA":"劉厝","LANE":" ","ALLEY":" ","HOUSE_NO":"３０號之１","E_COORD97":165868.34,"N_COORD97":2558661.5800000001,"ADDRESS":"劉厝３０號之１","OBJECTID":345523},"geometry":{"x":165868.34000000078,"y":2558661.5800000019}},{"attributes":{"ID":345533,"DIS_CODE":0,"TOWNNAME":"白河區","LI":"河東里","LIN":"5鄰","STREET":" ","SECT":" ","MAREA":"糞箕湖","LANE":" ","ALLEY":" ","HOUSE_NO":"８０之７號","E_COORD97":192368.37,"N_COORD97":2582418.7799999998,"ADDRESS":"糞箕湖８０之７號","OBJECTID":345524},"geometry":{"x":192368.37000000011,"y":2582418.7800000012}},{"attributes":{"ID":345534,"DIS_CODE":0,"TOWNNAME":"白河區","LI":"河東里","LIN":"5鄰","STREET":" ","SECT":" ","MAREA":"糞箕湖","LANE":" ","ALLEY":" ","HOUSE_NO":"８０之８號","E_COORD97":192373.28,"N_COORD97":2582421.73,"ADDRESS":"糞箕湖８０之８號","OBJECTID":345525},"geometry":{"x":192373.28000000212,"y":2582421.7300000004}},{"attributes":{"ID":345535,"DIS_CODE":0,"TOWNNAME":"東區","LI":"大學里","LIN":"5鄰","STREET":"東寧路","SECT":" ","MAREA":" ","LANE":"３巷","ALLEY":" ","HOUSE_NO":"６號","E_COORD97":169984.34,"N_COORD97":2543664.9300000002,"ADDRESS":"東寧路３巷６號","OBJECTID":345526},"geometry":{"x":169984.34000000078,"y":2543664.9300000034}},{"attributes":{"ID":345536,"DIS_CODE":0,"TOWNNAME":"安平區","LI":"國平里","LIN":"31鄰","STREET":"健康三街","SECT":" ","MAREA":" ","LANE":"１２巷","ALLEY":" ","HOUSE_NO":"１號十二樓之２３","E_COORD97":164774.88,"N_COORD97":2542904.3999999999,"ADDRESS":"健康三街１２巷１號十二樓之２３","OBJECTID":345527},"geometry":{"x":164774.88000000082,"y":2542904.4000000022}},{"attributes":{"ID":345537,"DIS_CODE":0,"TOWNNAME":"白河區","LI":"外角里","LIN":"5鄰","STREET":" ","SECT":" ","MAREA":" ","LANE":"三民西巷","ALLEY":" ","HOUSE_NO":"２０號","E_COORD97":190509.39000000001,"N_COORD97":2583225.0099999998,"ADDRESS":"三民西巷２０號","OBJECTID":345528},"geometry":{"x":190509.3900000006,"y":2583225.0100000016}},{"attributes":{"ID":345538,"DIS_CODE":0,"TOWNNAME":"南區","LI":"同安里","LIN":"5鄰","STREET":"灣裡路","SECT":" ","MAREA":" ","LANE":"３５１巷","ALLEY":" ","HOUSE_NO":"１０之１號","E_COORD97":166249.03,"N_COORD97":2536187.5,"ADDRESS":"灣裡路３５１巷１０之１號","OBJECTID":345529},"geometry":{"x":166249.03000000119,"y":2536187.5}},{"attributes":{"ID":345539,"DIS_CODE":0,"TOWNNAME":"南區","LI":"建南里","LIN":"5鄰","STREET":"興隆路","SECT":" ","MAREA":" ","LANE":"２１巷","ALLEY":" ","HOUSE_NO":"１５號","E_COORD97":167435.17000000001,"N_COORD97":2539912.1200000001,"ADDRESS":"興隆路２１巷１５號","OBJECTID":345530},"geometry":{"x":167435.16999999993,"y":2539912.1200000048}},{"attributes":{"ID":345540,"DIS_CODE":0,"TOWNNAME":"中西區","LI":"法華里","LIN":"8鄰","STREET":"五妃街","SECT":" ","MAREA":" ","LANE":" ","ALLEY":" ","HOUSE_NO":"１１之３號八樓","E_COORD97":169085.95999999999,"N_COORD97":2542539.6099999999,"ADDRESS":"五妃街１１之３號八樓","OBJECTID":345531},"geometry":{"x":169085.95999999996,"y":2542539.6099999994}},{"attributes":{"ID":345541,"DIS_CODE":0,"TOWNNAME":"中西區","LI":"法華里","LIN":"8鄰","STREET":"五妃街","SECT":" ","MAREA":" ","LANE":" ","ALLEY":" ","HOUSE_NO":"１１之３號三樓","E_COORD97":169085.95999999999,"N_COORD97":2542539.6099999999,"ADDRESS":"五妃街１１之３號三樓","OBJECTID":345532},"geometry":{"x":169085.95999999996,"y":2542539.6099999994}},{"attributes":{"ID":345542,"DIS_CODE":0,"TOWNNAME":"佳里區","LI":"鎮山里","LIN":"1鄰","STREET":"四安街","SECT":" ","MAREA":" ","LANE":" ","ALLEY":" ","HOUSE_NO":"９號","E_COORD97":165892.78,"N_COORD97":2561834.7799999998,"ADDRESS":"四安街９號","OBJECTID":345533},"geometry":{"x":165892.78000000212,"y":2561834.7800000031}},{"attributes":{"ID":345543,"DIS_CODE":0,"TOWNNAME":"南區","LI":"建南里","LIN":"5鄰","STREET":"興隆路","SECT":" ","MAREA":" ","LANE":"２１巷","ALLEY":" ","HOUSE_NO":"１２號","E_COORD97":167417.85999999999,"N_COORD97":2539923.1499999999,"ADDRESS":"興隆路２１巷１２號","OBJECTID":345534},"geometry":{"x":167417.8600000022,"y":2539923.1500000004}},{"attributes":{"ID":345544,"DIS_CODE":0,"TOWNNAME":"南區","LI":"建南里","LIN":"5鄰","STREET":"興隆路","SECT":" ","MAREA":" ","LANE":"２１巷","ALLEY":" ","HOUSE_NO":"２２號","E_COORD97":167419.13,"N_COORD97":2539911.4100000001,"ADDRESS":"興隆路２１巷２２號","OBJECTID":345535},"geometry":{"x":167419.13000000082,"y":2539911.4100000001}},{"attributes":{"ID":345545,"DIS_CODE":0,"TOWNNAME":"南區","LI":"建南里","LIN":"5鄰","STREET":"興隆路","SECT":" ","MAREA":" ","LANE":"２１巷","ALLEY":" ","HOUSE_NO":"２０號","E_COORD97":167418.81,"N_COORD97":2539915.0600000001,"ADDRESS":"興隆路２１巷２０號","OBJECTID":345536},"geometry":{"x":167418.80999999959,"y":2539915.0599999987}},{"attributes":{"ID":345546,"DIS_CODE":0,"TOWNNAME":"南區","LI":"建南里","LIN":"5鄰","STREET":"興隆路","SECT":" ","MAREA":" ","LANE":"２１巷","ALLEY":" ","HOUSE_NO":"１８號","E_COORD97":167418.66,"N_COORD97":2539918.5499999998,"ADDRESS":"興隆路２１巷１８號","OBJECTID":345537},"geometry":{"x":167418.66000000015,"y":2539918.5500000007}},{"attributes":{"ID":345547,"DIS_CODE":0,"TOWNNAME":"安平區","LI":"國平里","LIN":"31鄰","STREET":"健康三街","SECT":" ","MAREA":" ","LANE":"１２巷","ALLEY":" ","HOUSE_NO":"１號十二樓之２４","E_COORD97":164774.88,"N_COORD97":2542904.3999999999,"ADDRESS":"健康三街１２巷１號十二樓之２４","OBJECTID":345538},"geometry":{"x":164774.88000000082,"y":2542904.4000000022}},{"attributes":{"ID":345548,"DIS_CODE":0,"TOWNNAME":"安平區","LI":"國平里","LIN":"31鄰","STREET":"健康三街","SECT":" ","MAREA":" ","LANE":"１２巷","ALLEY":" ","HOUSE_NO":"１號十二樓之２５","E_COORD97":164774.88,"N_COORD97":2542904.3999999999,"ADDRESS":"健康三街１２巷１號十二樓之２５","OBJECTID":345539},"geometry":{"x":164774.88000000082,"y":2542904.4000000022}},{"attributes":{"ID":345549,"DIS_CODE":0,"TOWNNAME":"安平區","LI":"國平里","LIN":"31鄰","STREET":"健康三街","SECT":" ","MAREA":" ","LANE":"１２巷","ALLEY":" ","HOUSE_NO":"１號十三樓之２０","E_COORD97":164774.88,"N_COORD97":2542904.3999999999,"ADDRESS":"健康三街１２巷１號十三樓之２０","OBJECTID":345540},"geometry":{"x":164774.88000000082,"y":2542904.4000000022}},{"attributes":{"ID":345550,"DIS_CODE":0,"TOWNNAME":"安平區","LI":"國平里","LIN":"31鄰","STREET":"健康三街","SECT":" ","MAREA":" ","LANE":"１２巷","ALLEY":" ","HOUSE_NO":"１號十三樓之２１","E_COORD97":164774.88,"N_COORD97":2542904.3999999999,"ADDRESS":"健康三街１２巷１號十三樓之２１","OBJECTID":345541},"geometry":{"x":164774.88000000082,"y":2542904.4000000022}},{"attributes":{"ID":345551,"DIS_CODE":0,"TOWNNAME":"安平區","LI":"國平里","LIN":"31鄰","STREET":"健康三街","SECT":" ","MAREA":" ","LANE":"１２巷","ALLEY":" ","HOUSE_NO":"１號十三樓之２２","E_COORD97":164774.88,"N_COORD97":2542904.3999999999,"ADDRESS":"健康三街１２巷１號十三樓之２２","OBJECTID":345542},"geometry":{"x":164774.88000000082,"y":2542904.4000000022}},{"attributes":{"ID":345552,"DIS_CODE":0,"TOWNNAME":"安平區","LI":"國平里","LIN":"31鄰","STREET":"健康三街","SECT":" ","MAREA":" ","LANE":"１２巷","ALLEY":" ","HOUSE_NO":"１號十三樓之２３","E_COORD97":164774.88,"N_COORD97":2542904.3999999999,"ADDRESS":"健康三街１２巷１號十三樓之２３","OBJECTID":345543},"geometry":{"x":164774.88000000082,"y":2542904.4000000022}},{"attributes":{"ID":345553,"DIS_CODE":0,"TOWNNAME":"安平區","LI":"國平里","LIN":"31鄰","STREET":"健康三街","SECT":" ","MAREA":" ","LANE":"１２巷","ALLEY":" ","HOUSE_NO":"１號十三樓之２４","E_COORD97":164774.88,"N_COORD97":2542904.3999999999,"ADDRESS":"健康三街１２巷１號十三樓之２４","OBJECTID":345544},"geometry":{"x":164774.88000000082,"y":2542904.4000000022}},{"attributes":{"ID":345554,"DIS_CODE":0,"TOWNNAME":"安平區","LI":"國平里","LIN":"31鄰","STREET":"健康三街","SECT":" ","MAREA":" ","LANE":"１２巷","ALLEY":" ","HOUSE_NO":"１號十三樓之２５","E_COORD97":164774.88,"N_COORD97":2542904.3999999999,"ADDRESS":"健康三街１２巷１號十三樓之２５","OBJECTID":345545},"geometry":{"x":164774.88000000082,"y":2542904.4000000022}},{"attributes":{"ID":345555,"DIS_CODE":0,"TOWNNAME":"安平區","LI":"國平里","LIN":"31鄰","STREET":"健康三街","SECT":" ","MAREA":" ","LANE":"１２巷","ALLEY":" ","HOUSE_NO":"１號十四樓之２０","E_COORD97":164774.88,"N_COORD97":2542904.3999999999,"ADDRESS":"健康三街１２巷１號十四樓之２０","OBJECTID":345546},"geometry":{"x":164774.88000000082,"y":2542904.4000000022}},{"attributes":{"ID":345556,"DIS_CODE":0,"TOWNNAME":"安平區","LI":"國平里","LIN":"31鄰","STREET":"健康三街","SECT":" ","MAREA":" ","LANE":"１２巷","ALLEY":" ","HOUSE_NO":"１號十四樓之２１","E_COORD97":164774.88,"N_COORD97":2542904.3999999999,"ADDRESS":"健康三街１２巷１號十四樓之２１","OBJECTID":345547},"geometry":{"x":164774.88000000082,"y":2542904.4000000022}},{"attributes":{"ID":345557,"DIS_CODE":0,"TOWNNAME":"安平區","LI":"國平里","LIN":"31鄰","STREET":"健康三街","SECT":" ","MAREA":" ","LANE":"１２巷","ALLEY":" ","HOUSE_NO":"１號十四樓之２２","E_COORD97":164774.88,"N_COORD97":2542904.3999999999,"ADDRESS":"健康三街１２巷１號十四樓之２２","OBJECTID":345548},"geometry":{"x":164774.88000000082,"y":2542904.4000000022}},{"attributes":{"ID":345558,"DIS_CODE":0,"TOWNNAME":"安平區","LI":"國平里","LIN":"31鄰","STREET":"健康三街","SECT":" ","MAREA":" ","LANE":"１２巷","ALLEY":" ","HOUSE_NO":"１號十四樓之２３","E_COORD97":164774.88,"N_COORD97":2542904.3999999999,"ADDRESS":"健康三街１２巷１號十四樓之２３","OBJECTID":345549},"geometry":{"x":164774.88000000082,"y":2542904.4000000022}},{"attributes":{"ID":345559,"DIS_CODE":0,"TOWNNAME":"安平區","LI":"國平里","LIN":"31鄰","STREET":"健康三街","SECT":" ","MAREA":" ","LANE":"１２巷","ALLEY":" ","HOUSE_NO":"１號十四樓之２４","E_COORD97":164774.88,"N_COORD97":2542904.3999999999,"ADDRESS":"健康三街１２巷１號十四樓之２４","OBJECTID":345550},"geometry":{"x":164774.88000000082,"y":2542904.4000000022}},{"attributes":{"ID":345560,"DIS_CODE":0,"TOWNNAME":"安平區","LI":"國平里","LIN":"31鄰","STREET":"健康三街","SECT":" ","MAREA":" ","LANE":"１２巷","ALLEY":" ","HOUSE_NO":"１號十四樓之２５","E_COORD97":164774.88,"N_COORD97":2542904.3999999999,"ADDRESS":"健康三街１２巷１號十四樓之２５","OBJECTID":345551},"geometry":{"x":164774.88000000082,"y":2542904.4000000022}},{"attributes":{"ID":345561,"DIS_CODE":0,"TOWNNAME":"安平區","LI":"育平里","LIN":"31鄰","STREET":"健康三街","SECT":" ","MAREA":" ","LANE":"１０７巷","ALLEY":" ","HOUSE_NO":"１９號四樓之４","E_COORD97":164679.60000000001,"N_COORD97":2543139.7799999998,"ADDRESS":"健康三街１０７巷１９號四樓之４","OBJECTID":345552},"geometry":{"x":164679.60000000056,"y":2543139.7799999993}},{"attributes":{"ID":345562,"DIS_CODE":0,"TOWNNAME":"中西區","LI":"法華里","LIN":"8鄰","STREET":"五妃街","SECT":" ","MAREA":" ","LANE":" ","ALLEY":" ","HOUSE_NO":"１１之３號五樓","E_COORD97":169085.95999999999,"N_COORD97":2542539.6099999999,"ADDRESS":"五妃街１１之３號五樓","OBJECTID":345553},"geometry":{"x":169085.95999999996,"y":2542539.6099999994}},{"attributes":{"ID":345563,"DIS_CODE":0,"TOWNNAME":"中西區","LI":"法華里","LIN":"8鄰","STREET":"五妃街","SECT":" ","MAREA":" ","LANE":" ","ALLEY":" ","HOUSE_NO":"１１之３號六樓","E_COORD97":169085.95999999999,"N_COORD97":2542539.6099999999,"ADDRESS":"五妃街１１之３號六樓","OBJECTID":345554},"geometry":{"x":169085.95999999996,"y":2542539.6099999994}},{"attributes":{"ID":345564,"DIS_CODE":0,"TOWNNAME":"中西區","LI":"法華里","LIN":"8鄰","STREET":"五妃街","SECT":" ","MAREA":" ","LANE":" ","ALLEY":" ","HOUSE_NO":"１１之３號四樓","E_COORD97":169085.95999999999,"N_COORD97":2542539.6099999999,"ADDRESS":"五妃街１１之３號四樓","OBJECTID":345555},"geometry":{"x":169085.95999999996,"y":2542539.6099999994}},{"attributes":{"ID":345565,"DIS_CODE":0,"TOWNNAME":"善化區","LI":"六分里","LIN":"5鄰","STREET":" ","SECT":" ","MAREA":"東勢宅","LANE":" ","ALLEY":" ","HOUSE_NO":"２４號","E_COORD97":177793.95999999999,"N_COORD97":2561027.7599999998,"ADDRESS":"東勢宅２４號","OBJECTID":345556},"geometry":{"x":177793.95999999996,"y":2561027.7599999998}},{"attributes":{"ID":345566,"DIS_CODE":0,"TOWNNAME":"東區","LI":"大學里","LIN":"5鄰","STREET":"東寧路","SECT":" ","MAREA":" ","LANE":"３巷","ALLEY":" ","HOUSE_NO":"３０號","E_COORD97":169993.51999999999,"N_COORD97":2543751.3100000001,"ADDRESS":"東寧路３巷３０號","OBJECTID":345557},"geometry":{"x":169993.51999999955,"y":2543751.3099999987}},{"attributes":{"ID":345567,"DIS_CODE":0,"TOWNNAME":"東區","LI":"大學里","LIN":"5鄰","STREET":"東寧路","SECT":" ","MAREA":" ","LANE":"３巷","ALLEY":" ","HOUSE_NO":"８號","E_COORD97":169985.56,"N_COORD97":2543669.4199999999,"ADDRESS":"東寧路３巷８號","OBJECTID":345558},"geometry":{"x":169985.55999999866,"y":2543669.4200000018}},{"attributes":{"ID":345568,"DIS_CODE":0,"TOWNNAME":"東區","LI":"大學里","LIN":"5鄰","STREET":"東寧路","SECT":" ","MAREA":" ","LANE":"１５巷","ALLEY":" ","HOUSE_NO":"３號","E_COORD97":170021.88,"N_COORD97":2543663.7999999998,"ADDRESS":"東寧路１５巷３號","OBJECTID":345559},"geometry":{"x":170021.88000000082,"y":2543663.8000000045}},{"attributes":{"ID":345569,"DIS_CODE":0,"TOWNNAME":"東區","LI":"中西里","LIN":"5鄰","STREET":"勝利路","SECT":" ","MAREA":" ","LANE":"１２巷","ALLEY":" ","HOUSE_NO":"６２號","E_COORD97":169982.59,"N_COORD97":2543343.9300000002,"ADDRESS":"勝利路１２巷６２號","OBJECTID":345560},"geometry":{"x":169982.59000000078,"y":2543343.9300000016}},{"attributes":{"ID":345570,"DIS_CODE":0,"TOWNNAME":"東區","LI":"中西里","LIN":"5鄰","STREET":"勝利路","SECT":" ","MAREA":" ","LANE":"１２巷","ALLEY":" ","HOUSE_NO":"５６號","E_COORD97":169965.73999999999,"N_COORD97":2543351.0800000001,"ADDRESS":"勝利路１２巷５６號","OBJECTID":345561},"geometry":{"x":169965.74000000022,"y":2543351.0800000001}},{"attributes":{"ID":345571,"DIS_CODE":0,"TOWNNAME":"東區","LI":"中西里","LIN":"5鄰","STREET":"勝利路","SECT":" ","MAREA":" ","LANE":"１２巷","ALLEY":" ","HOUSE_NO":"４６號","E_COORD97":169938.76000000001,"N_COORD97":2543358.4199999999,"ADDRESS":"勝利路１２巷４６號","OBJECTID":345562},"geometry":{"x":169938.76000000164,"y":2543358.4200000018}},{"attributes":{"ID":345572,"DIS_CODE":0,"TOWNNAME":"東區","LI":"大學里","LIN":"5鄰","STREET":"東寧路","SECT":" ","MAREA":" ","LANE":"３巷","ALLEY":" ","HOUSE_NO":"３２號","E_COORD97":169996.92999999999,"N_COORD97":2543775.9700000002,"ADDRESS":"東寧路３巷３２號","OBJECTID":345563},"geometry":{"x":169996.93000000156,"y":2543775.9700000007}},{"attributes":{"ID":345573,"DIS_CODE":0,"TOWNNAME":"安南區","LI":"佃東里","LIN":"5鄰","STREET":"公學路","SECT":"四段","MAREA":" ","LANE":"１２６巷","ALLEY":" ","HOUSE_NO":"１６號","E_COORD97":165553.41,"N_COORD97":2552081.2599999998,"ADDRESS":"公學路四段１２６巷１６號","OBJECTID":345564},"geometry":{"x":165553.41000000108,"y":2552081.2600000035}},{"attributes":{"ID":345574,"DIS_CODE":0,"TOWNNAME":"安南區","LI":"佃東里","LIN":"5鄰","STREET":"公學路","SECT":"四段","MAREA":" ","LANE":"１２６巷","ALLEY":" ","HOUSE_NO":"１８號","E_COORD97":165546.87,"N_COORD97":2552072.3599999999,"ADDRESS":"公學路四段１２６巷１８號","OBJECTID":345565},"geometry":{"x":165546.87000000104,"y":2552072.3599999994}},{"attributes":{"ID":345575,"DIS_CODE":0,"TOWNNAME":"安南區","LI":"佃東里","LIN":"5鄰","STREET":"公學路","SECT":"四段","MAREA":" ","LANE":"１２６巷","ALLEY":" ","HOUSE_NO":"２０號","E_COORD97":165543.28,"N_COORD97":2552069.1000000001,"ADDRESS":"公學路四段１２６巷２０號","OBJECTID":345566},"geometry":{"x":165543.28000000026,"y":2552069.1000000015}},{"attributes":{"ID":345576,"DIS_CODE":0,"TOWNNAME":"安平區","LI":"育平里","LIN":"31鄰","STREET":"健康三街","SECT":" ","MAREA":" ","LANE":"１０７巷","ALLEY":" ","HOUSE_NO":"１９號七樓之１","E_COORD97":164679.60000000001,"N_COORD97":2543139.7799999998,"ADDRESS":"健康三街１０７巷１９號七樓之１","OBJECTID":345567},"geometry":{"x":164679.60000000056,"y":2543139.7799999993}},{"attributes":{"ID":345577,"DIS_CODE":0,"TOWNNAME":"安平區","LI":"育平里","LIN":"31鄰","STREET":"健康三街","SECT":" ","MAREA":" ","LANE":"１０７巷","ALLEY":" ","HOUSE_NO":"１９號七樓之２","E_COORD97":164679.60000000001,"N_COORD97":2543139.7799999998,"ADDRESS":"健康三街１０７巷１９號七樓之２","OBJECTID":345568},"geometry":{"x":164679.60000000056,"y":2543139.7799999993}},{"attributes":{"ID":345578,"DIS_CODE":0,"TOWNNAME":"安平區","LI":"育平里","LIN":"31鄰","STREET":"健康三街","SECT":" ","MAREA":" ","LANE":"１０７巷","ALLEY":" ","HOUSE_NO":"１９號七樓之３","E_COORD97":164679.60000000001,"N_COORD97":2543139.7799999998,"ADDRESS":"健康三街１０７巷１９號七樓之３","OBJECTID":345569},"geometry":{"x":164679.60000000056,"y":2543139.7799999993}},{"attributes":{"ID":345579,"DIS_CODE":0,"TOWNNAME":"安平區","LI":"育平里","LIN":"31鄰","STREET":"健康三街","SECT":" ","MAREA":" ","LANE":"１０７巷","ALLEY":" ","HOUSE_NO":"１９號七樓之４","E_COORD97":164679.60000000001,"N_COORD97":2543139.7799999998,"ADDRESS":"健康三街１０７巷１９號七樓之４","OBJECTID":345570},"geometry":{"x":164679.60000000056,"y":2543139.7799999993}},{"attributes":{"ID":345580,"DIS_CODE":0,"TOWNNAME":"安平區","LI":"育平里","LIN":"31鄰","STREET":"健康三街","SECT":" ","MAREA":" ","LANE":"１０７巷","ALLEY":" ","HOUSE_NO":"１９號七樓之５","E_COORD97":164679.60000000001,"N_COORD97":2543139.7799999998,"ADDRESS":"健康三街１０７巷１９號七樓之５","OBJECTID":345571},"geometry":{"x":164679.60000000056,"y":2543139.7799999993}},{"attributes":{"ID":345581,"DIS_CODE":0,"TOWNNAME":"中西區","LI":"法華里","LIN":"8鄰","STREET":"五妃街","SECT":" ","MAREA":" ","LANE":" ","ALLEY":" ","HOUSE_NO":"１１之５號七樓","E_COORD97":169072.97,"N_COORD97":2542541.9300000002,"ADDRESS":"五妃街１１之５號七樓","OBJECTID":345572},"geometry":{"x":169072.97000000067,"y":2542541.9299999997}},{"attributes":{"ID":345582,"DIS_CODE":0,"TOWNNAME":"中西區","LI":"法華里","LIN":"8鄰","STREET":"五妃街","SECT":" ","MAREA":" ","LANE":" ","ALLEY":" ","HOUSE_NO":"１１之５號二樓","E_COORD97":169072.97,"N_COORD97":2542541.9300000002,"ADDRESS":"五妃街１１之５號二樓","OBJECTID":345573},"geometry":{"x":169072.97000000067,"y":2542541.9299999997}},{"attributes":{"ID":345583,"DIS_CODE":0,"TOWNNAME":"中西區","LI":"法華里","LIN":"8鄰","STREET":"五妃街","SECT":" ","MAREA":" ","LANE":" ","ALLEY":" ","HOUSE_NO":"１１之５號八樓","E_COORD97":169072.97,"N_COORD97":2542541.9300000002,"ADDRESS":"五妃街１１之５號八樓","OBJECTID":345574},"geometry":{"x":169072.97000000067,"y":2542541.9299999997}},{"attributes":{"ID":345584,"DIS_CODE":0,"TOWNNAME":"中西區","LI":"法華里","LIN":"8鄰","STREET":"五妃街","SECT":" ","MAREA":" ","LANE":" ","ALLEY":" ","HOUSE_NO":"１１之５號三樓","E_COORD97":169072.97,"N_COORD97":2542541.9300000002,"ADDRESS":"五妃街１１之５號三樓","OBJECTID":345575},"geometry":{"x":169072.97000000067,"y":2542541.9299999997}},{"attributes":{"ID":345585,"DIS_CODE":0,"TOWNNAME":"中西區","LI":"法華里","LIN":"8鄰","STREET":"五妃街","SECT":" ","MAREA":" ","LANE":" ","ALLEY":" ","HOUSE_NO":"１１之５號五樓","E_COORD97":169072.97,"N_COORD97":2542541.9300000002,"ADDRESS":"五妃街１１之５號五樓","OBJECTID":345576},"geometry":{"x":169072.97000000067,"y":2542541.9299999997}},{"attributes":{"ID":345586,"DIS_CODE":0,"TOWNNAME":"中西區","LI":"法華里","LIN":"8鄰","STREET":"五妃街","SECT":" ","MAREA":" ","LANE":" ","ALLEY":" ","HOUSE_NO":"１１之５號六樓","E_COORD97":169072.97,"N_COORD97":2542541.9300000002,"ADDRESS":"五妃街１１之５號六樓","OBJECTID":345577},"geometry":{"x":169072.97000000067,"y":2542541.9299999997}},{"attributes":{"ID":345587,"DIS_CODE":0,"TOWNNAME":"中西區","LI":"法華里","LIN":"8鄰","STREET":"五妃街","SECT":" ","MAREA":" ","LANE":" ","ALLEY":" ","HOUSE_NO":"１１之５號四樓","E_COORD97":169072.97,"N_COORD97":2542541.9300000002,"ADDRESS":"五妃街１１之５號四樓","OBJECTID":345578},"geometry":{"x":169072.97000000067,"y":2542541.9299999997}},{"attributes":{"ID":345588,"DIS_CODE":0,"TOWNNAME":"中西區","LI":"法華里","LIN":"8鄰","STREET":"五妃街","SECT":" ","MAREA":" ","LANE":" ","ALLEY":" ","HOUSE_NO":"１１之６號七樓","E_COORD97":169066.92999999999,"N_COORD97":2542539.6099999999,"ADDRESS":"五妃街１１之６號七樓","OBJECTID":345579},"geometry":{"x":169066.93000000063,"y":2542539.6099999994}},{"attributes":{"ID":345589,"DIS_CODE":0,"TOWNNAME":"善化區","LI":"南關里","LIN":"8鄰","STREET":"光復路","SECT":" ","MAREA":" ","LANE":" ","ALLEY":" ","HOUSE_NO":"５００號","E_COORD97":176825.45000000001,"N_COORD97":2558836.5099999998,"ADDRESS":"光復路５００號","OBJECTID":345580},"geometry":{"x":176825.45000000205,"y":2558836.5100000035}},{"attributes":{"ID":345590,"DIS_CODE":0,"TOWNNAME":"中西區","LI":"法華里","LIN":"8鄰","STREET":"五妃街","SECT":" ","MAREA":" ","LANE":" ","ALLEY":" ","HOUSE_NO":"１１之６號二樓","E_COORD97":169066.92999999999,"N_COORD97":2542539.6099999999,"ADDRESS":"五妃街１１之６號二樓","OBJECTID":345581},"geometry":{"x":169066.93000000063,"y":2542539.6099999994}},{"attributes":{"ID":345591,"DIS_CODE":0,"TOWNNAME":"中西區","LI":"法華里","LIN":"8鄰","STREET":"五妃街","SECT":" ","MAREA":" ","LANE":" ","ALLEY":" ","HOUSE_NO":"１１之６號八樓","E_COORD97":169066.92999999999,"N_COORD97":2542539.6099999999,"ADDRESS":"五妃街１１之６號八樓","OBJECTID":345582},"geometry":{"x":169066.93000000063,"y":2542539.6099999994}},{"attributes":{"ID":345592,"DIS_CODE":0,"TOWNNAME":"善化區","LI":"嘉南里","LIN":"5鄰","STREET":" ","SECT":" ","MAREA":"茄拔","LANE":" ","ALLEY":" ","HOUSE_NO":"９２之２號","E_COORD97":180933.31,"N_COORD97":2559469.77,"ADDRESS":"茄拔９２之２號","OBJECTID":345583},"geometry":{"x":180933.31000000052,"y":2559469.7700000014}},{"attributes":{"ID":345593,"DIS_CODE":0,"TOWNNAME":"善化區","LI":"嘉北里","LIN":"5鄰","STREET":" ","SECT":" ","MAREA":"茄拔","LANE":" ","ALLEY":" ","HOUSE_NO":"１５５號","E_COORD97":181000.70999999999,"N_COORD97":2559774.7599999998,"ADDRESS":"茄拔１５５號","OBJECTID":345584},"geometry":{"x":181000.71000000089,"y":2559774.7600000016}},{"attributes":{"ID":345594,"DIS_CODE":0,"TOWNNAME":"安南區","LI":"淵東里","LIN":"5鄰","STREET":"本原街","SECT":"三段","MAREA":" ","LANE":"１３６巷","ALLEY":" ","HOUSE_NO":"２６號","E_COORD97":165506.45000000001,"N_COORD97":2550391.79,"ADDRESS":"本原街三段１３６巷２６號","OBJECTID":345585},"geometry":{"x":165506.45000000019,"y":2550391.7900000028}},{"attributes":{"ID":345595,"DIS_CODE":0,"TOWNNAME":"善化區","LI":"南關里","LIN":"5鄰","STREET":"永安路","SECT":" ","MAREA":" ","LANE":"９１巷","ALLEY":" ","HOUSE_NO":"４號","E_COORD97":177100.04999999999,"N_COORD97":2558793.77,"ADDRESS":"永安路９１巷４號","OBJECTID":345586},"geometry":{"x":177100.04999999981,"y":2558793.7700000033}},{"attributes":{"ID":345596,"DIS_CODE":0,"TOWNNAME":"安平區","LI":"育平里","LIN":"31鄰","STREET":"健康三街","SECT":" ","MAREA":" ","LANE":"１０７巷","ALLEY":" ","HOUSE_NO":"１９號七樓之６","E_COORD97":164679.60000000001,"N_COORD97":2543139.7799999998,"ADDRESS":"健康三街１０７巷１９號七樓之６","OBJECTID":345587},"geometry":{"x":164679.60000000056,"y":2543139.7799999993}},{"attributes":{"ID":345597,"DIS_CODE":0,"TOWNNAME":"安平區","LI":"育平里","LIN":"31鄰","STREET":"健康三街","SECT":" ","MAREA":" ","LANE":"１０７巷","ALLEY":" ","HOUSE_NO":"１９號七樓之７","E_COORD97":164679.60000000001,"N_COORD97":2543139.7799999998,"ADDRESS":"健康三街１０７巷１９號七樓之７","OBJECTID":345588},"geometry":{"x":164679.60000000056,"y":2543139.7799999993}},{"attributes":{"ID":345598,"DIS_CODE":0,"TOWNNAME":"新化區","LI":"唪口里","LIN":"5鄰","STREET":" ","SECT":" ","MAREA":" ","LANE":" ","ALLEY":" ","HOUSE_NO":"５０號","E_COORD97":178183.17999999999,"N_COORD97":2549032.25,"ADDRESS":"５０號","OBJECTID":345589},"geometry":{"x":178183.18000000063,"y":2549032.25}},{"attributes":{"ID":345599,"DIS_CODE":0,"TOWNNAME":"安平區","LI":"育平里","LIN":"31鄰","STREET":"健康三街","SECT":" ","MAREA":" ","LANE":"１０７巷","ALLEY":" ","HOUSE_NO":"１９號二樓","E_COORD97":164679.60000000001,"N_COORD97":2543139.7799999998,"ADDRESS":"健康三街１０７巷１９號二樓","OBJECTID":345590},"geometry":{"x":164679.60000000056,"y":2543139.7799999993}},{"attributes":{"ID":345600,"DIS_CODE":0,"TOWNNAME":"安平區","LI":"育平里","LIN":"31鄰","STREET":"健康三街","SECT":" ","MAREA":" ","LANE":"１０７巷","ALLEY":" ","HOUSE_NO":"１９號八樓之１","E_COORD97":164679.60000000001,"N_COORD97":2543139.7799999998,"ADDRESS":"健康三街１０７巷１９號八樓之１","OBJECTID":345591},"geometry":{"x":164679.60000000056,"y":2543139.7799999993}},{"attributes":{"ID":345601,"DIS_CODE":0,"TOWNNAME":"安平區","LI":"育平里","LIN":"31鄰","STREET":"健康三街","SECT":" ","MAREA":" ","LANE":"１０７巷","ALLEY":" ","HOUSE_NO":"１９號八樓之２","E_COORD97":164679.60000000001,"N_COORD97":2543139.7799999998,"ADDRESS":"健康三街１０７巷１９號八樓之２","OBJECTID":345592},"geometry":{"x":164679.60000000056,"y":2543139.7799999993}},{"attributes":{"ID":345602,"DIS_CODE":0,"TOWNNAME":"中西區","LI":"法華里","LIN":"8鄰","STREET":"五妃街","SECT":" ","MAREA":" ","LANE":" ","ALLEY":" ","HOUSE_NO":"１１之６號三樓","E_COORD97":169066.92999999999,"N_COORD97":2542539.6099999999,"ADDRESS":"五妃街１１之６號三樓","OBJECTID":345593},"geometry":{"x":169066.93000000063,"y":2542539.6099999994}},{"attributes":{"ID":345603,"DIS_CODE":0,"TOWNNAME":"中西區","LI":"法華里","LIN":"8鄰","STREET":"五妃街","SECT":" ","MAREA":" ","LANE":" ","ALLEY":" ","HOUSE_NO":"１１之６號五樓","E_COORD97":169066.92999999999,"N_COORD97":2542539.6099999999,"ADDRESS":"五妃街１１之６號五樓","OBJECTID":345594},"geometry":{"x":169066.93000000063,"y":2542539.6099999994}},{"attributes":{"ID":345604,"DIS_CODE":0,"TOWNNAME":"善化區","LI":"東昌里","LIN":"5鄰","STREET":" ","SECT":" ","MAREA":"東勢寮","LANE":" ","ALLEY":" ","HOUSE_NO":"４８之２０號","E_COORD97":180641.26000000001,"N_COORD97":2561821.02,"ADDRESS":"東勢寮４８之２０號","OBJECTID":345595},"geometry":{"x":180641.26000000071,"y":2561821.0200000014}},{"attributes":{"ID":345605,"DIS_CODE":0,"TOWNNAME":"善化區","LI":"牛庄里","LIN":"5鄰","STREET":" ","SECT":" ","MAREA":"牛庄","LANE":" ","ALLEY":" ","HOUSE_NO":"６１號","E_COORD97":180214.47,"N_COORD97":2559983.75,"ADDRESS":"牛庄６１號","OBJECTID":345596},"geometry":{"x":180214.46999999974,"y":2559983.75}},{"attributes":{"ID":345606,"DIS_CODE":0,"TOWNNAME":"善化區","LI":"田寮里","LIN":"5鄰","STREET":" ","SECT":" ","MAREA":"六分寮","LANE":" ","ALLEY":" ","HOUSE_NO":"６４號之１５","E_COORD97":178494.31,"N_COORD97":2561247.52,"ADDRESS":"六分寮６４號之１５","OBJECTID":345597},"geometry":{"x":178494.31000000052,"y":2561247.5200000014}},{"attributes":{"ID":345607,"DIS_CODE":0,"TOWNNAME":"善化區","LI":"小新里","LIN":"5鄰","STREET":" ","SECT":" ","MAREA":"小新營","LANE":" ","ALLEY":" ","HOUSE_NO":"４３號之１","E_COORD97":179745.62,"N_COORD97":2558241,"ADDRESS":"小新營４３號之１","OBJECTID":345598},"geometry":{"x":179745.62000000104,"y":2558241.0000000019}},{"attributes":{"ID":345608,"DIS_CODE":0,"TOWNNAME":"善化區","LI":"東昌里","LIN":"5鄰","STREET":" ","SECT":" ","MAREA":"東勢寮","LANE":" ","ALLEY":" ","HOUSE_NO":"６０之１號","E_COORD97":180569.54999999999,"N_COORD97":2561873.27,"ADDRESS":"東勢寮６０之１號","OBJECTID":345599},"geometry":{"x":180569.55000000075,"y":2561873.2700000014}},{"attributes":{"ID":345609,"DIS_CODE":0,"TOWNNAME":"善化區","LI":"嘉北里","LIN":"5鄰","STREET":" ","SECT":" ","MAREA":"茄拔","LANE":" ","ALLEY":" ","HOUSE_NO":"１５１號之１３","E_COORD97":181072.31,"N_COORD97":2559730.77,"ADDRESS":"茄拔１５１號之１３","OBJECTID":345600},"geometry":{"x":181072.31000000052,"y":2559730.7700000014}}]}