{"displayFieldName":"TOWNNAME","fieldAliases":{"ID":"ID","DIS_CODE":"DIS_CODE","TOWNNAME":"TOWNNAME","LI":"LI","LIN":"LIN","STREET":"STREET","SECT":"SECT","MAREA":"MAREA","LANE":"LANE","ALLEY":"ALLEY","HOUSE_NO":"HOUSE_NO","E_COORD97":"E_COORD97","N_COORD97":"N_COORD97","ADDRESS":"ADDRESS","OBJECTID":"OBJECTID"},"geometryType":"esriGeometryPoint","spatialReference":{"wkid":102443,"latestWkid":3826},"fields":[{"name":"ID","type":"esriFieldTypeDouble","alias":"ID"},{"name":"DIS_CODE","type":"esriFieldTypeInteger","alias":"DIS_CODE"},{"name":"TOWNNAME","type":"esriFieldTypeString","alias":"TOWNNAME","length":8},{"name":"LI","type":"esriFieldTypeString","alias":"LI","length":8},{"name":"LIN","type":"esriFieldTypeString","alias":"LIN","length":12},{"name":"STREET","type":"esriFieldTypeString","alias":"STREET","length":20},{"name":"SECT","type":"esriFieldTypeString","alias":"SECT","length":8},{"name":"MAREA","type":"esriFieldTypeString","alias":"MAREA","length":12},{"name":"LANE","type":"esriFieldTypeString","alias":"LANE","length":10},{"name":"ALLEY","type":"esriFieldTypeString","alias":"ALLEY","length":10},{"name":"HOUSE_NO","type":"esriFieldTypeString","alias":"HOUSE_NO","length":20},{"name":"E_COORD97","type":"esriFieldTypeDouble","alias":"E_COORD97"},{"name":"N_COORD97","type":"esriFieldTypeDouble","alias":"N_COORD97"},{"name":"ADDRESS","type":"esriFieldTypeString","alias":"ADDRESS","length":50},{"name":"OBJECTID","type":"esriFieldTypeOID","alias":"OBJECTID"}],"features":[{"attributes":{"ID":495628,"DIS_CODE":0,"TOWNNAME":"麻豆區","LI":"\u25A0江里","LIN":"8鄰","STREET":"建南街","SECT":" ","MAREA":" ","LANE":" ","ALLEY":" ","HOUSE_NO":"２０４號","E_COORD97":173492.67999999999,"N_COORD97":2564275.1499999999,"ADDRESS":"建南街２０４號","OBJECTID":495601},"geometry":{"x":173492.68000000063,"y":2564275.1500000022}},{"attributes":{"ID":495629,"DIS_CODE":0,"TOWNNAME":"麻豆區","LI":"\u25A0江里","LIN":"8鄰","STREET":"建南街","SECT":" ","MAREA":" ","LANE":" ","ALLEY":" ","HOUSE_NO":"２０６號","E_COORD97":173496.25,"N_COORD97":2564275.6200000001,"ADDRESS":"建南街２０６號","OBJECTID":495602},"geometry":{"x":173496.25000000093,"y":2564275.6200000029}},{"attributes":{"ID":495630,"DIS_CODE":0,"TOWNNAME":"麻豆區","LI":"\u25A0江里","LIN":"8鄰","STREET":"建南街","SECT":" ","MAREA":" ","LANE":" ","ALLEY":" ","HOUSE_NO":"２０８號","E_COORD97":173500.48999999999,"N_COORD97":2564276.0800000001,"ADDRESS":"建南街２０８號","OBJECTID":495603},"geometry":{"x":173500.49000000022,"y":2564276.0800000019}},{"attributes":{"ID":495631,"DIS_CODE":0,"TOWNNAME":"北區","LI":"勝安里","LIN":"10鄰","STREET":"開元路","SECT":" ","MAREA":" ","LANE":"７３巷","ALLEY":"９４弄","HOUSE_NO":"９號","E_COORD97":169906.17999999999,"N_COORD97":2545465.9100000001,"ADDRESS":"開元路７３巷９４弄９號","OBJECTID":495604},"geometry":{"x":169906.1799999997,"y":2545465.9100000039}},{"attributes":{"ID":495632,"DIS_CODE":0,"TOWNNAME":"麻豆區","LI":"\u25A0江里","LIN":"8鄰","STREET":"建南街","SECT":" ","MAREA":" ","LANE":" ","ALLEY":" ","HOUSE_NO":"２１０號","E_COORD97":173504.26000000001,"N_COORD97":2564276.4300000002,"ADDRESS":"建南街２１０號","OBJECTID":495605},"geometry":{"x":173504.26000000071,"y":2564276.4300000016}},{"attributes":{"ID":495633,"DIS_CODE":0,"TOWNNAME":"麻豆區","LI":"\u25A0江里","LIN":"8鄰","STREET":"建南街","SECT":" ","MAREA":" ","LANE":" ","ALLEY":" ","HOUSE_NO":"２１２號","E_COORD97":173508.23000000001,"N_COORD97":2564276.7599999998,"ADDRESS":"建南街２１２號","OBJECTID":495606},"geometry":{"x":173508.23000000138,"y":2564276.7600000016}},{"attributes":{"ID":495634,"DIS_CODE":0,"TOWNNAME":"麻豆區","LI":"\u25A0江里","LIN":"8鄰","STREET":"建南街","SECT":" ","MAREA":" ","LANE":" ","ALLEY":" ","HOUSE_NO":"２１４號","E_COORD97":173512.04999999999,"N_COORD97":2564277.29,"ADDRESS":"建南街２１４號","OBJECTID":495607},"geometry":{"x":173512.05000000168,"y":2564277.2899999991}},{"attributes":{"ID":495635,"DIS_CODE":0,"TOWNNAME":"麻豆區","LI":"\u25A0江里","LIN":"8鄰","STREET":"建南街","SECT":" ","MAREA":" ","LANE":" ","ALLEY":" ","HOUSE_NO":"２１６號","E_COORD97":173515.75,"N_COORD97":2564277.5499999998,"ADDRESS":"建南街２１６號","OBJECTID":495608},"geometry":{"x":173515.74999999907,"y":2564277.5500000007}},{"attributes":{"ID":495636,"DIS_CODE":0,"TOWNNAME":"麻豆區","LI":"\u25A0江里","LIN":"8鄰","STREET":"建南街","SECT":" ","MAREA":" ","LANE":" ","ALLEY":" ","HOUSE_NO":"２１８號","E_COORD97":173519.85999999999,"N_COORD97":2564278.0099999998,"ADDRESS":"建南街２１８號","OBJECTID":495609},"geometry":{"x":173519.86000000034,"y":2564278.0100000035}},{"attributes":{"ID":495637,"DIS_CODE":0,"TOWNNAME":"麻豆區","LI":"巷口里","LIN":"8鄰","STREET":"建南街","SECT":" ","MAREA":" ","LANE":" ","ALLEY":" ","HOUSE_NO":"６１號","E_COORD97":173186.14999999999,"N_COORD97":2564271.8199999998,"ADDRESS":"建南街６１號","OBJECTID":495610},"geometry":{"x":173186.15000000037,"y":2564271.8200000003}},{"attributes":{"ID":495638,"DIS_CODE":0,"TOWNNAME":"麻豆區","LI":"巷口里","LIN":"8鄰","STREET":"建南街","SECT":" ","MAREA":" ","LANE":" ","ALLEY":" ","HOUSE_NO":"８５號","E_COORD97":173256.29000000001,"N_COORD97":2564297.4100000001,"ADDRESS":"建南街８５號","OBJECTID":495611},"geometry":{"x":173256.2900000019,"y":2564297.410000002}},{"attributes":{"ID":495639,"DIS_CODE":0,"TOWNNAME":"麻豆區","LI":"巷口里","LIN":"8鄰","STREET":"建南街","SECT":" ","MAREA":" ","LANE":" ","ALLEY":" ","HOUSE_NO":"８７號","E_COORD97":173256.81,"N_COORD97":2564279.4700000002,"ADDRESS":"建南街８７號","OBJECTID":495612},"geometry":{"x":173256.80999999959,"y":2564279.4700000044}},{"attributes":{"ID":495640,"DIS_CODE":0,"TOWNNAME":"麻豆區","LI":"巷口里","LIN":"8鄰","STREET":"建南街","SECT":" ","MAREA":" ","LANE":" ","ALLEY":" ","HOUSE_NO":"８９號","E_COORD97":173261.29000000001,"N_COORD97":2564279.5600000001,"ADDRESS":"建南街８９號","OBJECTID":495613},"geometry":{"x":173261.2900000019,"y":2564279.5600000024}},{"attributes":{"ID":495641,"DIS_CODE":0,"TOWNNAME":"麻豆區","LI":"巷口里","LIN":"8鄰","STREET":"建南街","SECT":" ","MAREA":" ","LANE":" ","ALLEY":" ","HOUSE_NO":"９１號","E_COORD97":173270.56,"N_COORD97":2564278.48,"ADDRESS":"建南街９１號","OBJECTID":495614},"geometry":{"x":173270.55999999959,"y":2564278.4800000004}},{"attributes":{"ID":495642,"DIS_CODE":0,"TOWNNAME":"麻豆區","LI":"巷口里","LIN":"8鄰","STREET":"建南街","SECT":" ","MAREA":" ","LANE":" ","ALLEY":" ","HOUSE_NO":"９９號","E_COORD97":173288.79000000001,"N_COORD97":2564286,"ADDRESS":"建南街９９號","OBJECTID":495615},"geometry":{"x":173288.79000000097,"y":2564286.0000000019}},{"attributes":{"ID":495643,"DIS_CODE":0,"TOWNNAME":"仁德區","LI":"大甲里","LIN":"8鄰","STREET":"行大街","SECT":" ","MAREA":" ","LANE":" ","ALLEY":" ","HOUSE_NO":"３１９號","E_COORD97":169686.20999999999,"N_COORD97":2535177.4900000002,"ADDRESS":"行大街３１９號","OBJECTID":495616},"geometry":{"x":169686.20999999996,"y":2535177.4900000002}},{"attributes":{"ID":495644,"DIS_CODE":0,"TOWNNAME":"仁德區","LI":"二行里","LIN":"8鄰","STREET":"行大街","SECT":" ","MAREA":" ","LANE":" ","ALLEY":" ","HOUSE_NO":"９５號","E_COORD97":170148.48999999999,"N_COORD97":2535114.5,"ADDRESS":"行大街９５號","OBJECTID":495617},"geometry":{"x":170148.49000000115,"y":2535114.5000000037}},{"attributes":{"ID":495645,"DIS_CODE":0,"TOWNNAME":"仁德區","LI":"一甲里","LIN":"8鄰","STREET":"中正路","SECT":"三段","MAREA":" ","LANE":" ","ALLEY":" ","HOUSE_NO":"２０８號","E_COORD97":173517.60000000001,"N_COORD97":2541867.0299999998,"ADDRESS":"中正路三段２０８號","OBJECTID":495618},"geometry":{"x":173517.59999999963,"y":2541867.0300000031}},{"attributes":{"ID":495646,"DIS_CODE":0,"TOWNNAME":"仁德區","LI":"土庫里","LIN":"8鄰","STREET":"土庫五街","SECT":" ","MAREA":" ","LANE":" ","ALLEY":" ","HOUSE_NO":"３５號","E_COORD97":174000.01000000001,"N_COORD97":2543187.9900000002,"ADDRESS":"土庫五街３５號","OBJECTID":495619},"geometry":{"x":174000.00999999978,"y":2543187.9900000021}},{"attributes":{"ID":495647,"DIS_CODE":0,"TOWNNAME":"仁德區","LI":"大甲里","LIN":"8鄰","STREET":"行大街","SECT":" ","MAREA":" ","LANE":" ","ALLEY":" ","HOUSE_NO":"３２５號","E_COORD97":169676.67000000001,"N_COORD97":2535182.4900000002,"ADDRESS":"行大街３２５號","OBJECTID":495620},"geometry":{"x":169676.67000000179,"y":2535182.4900000039}},{"attributes":{"ID":495648,"DIS_CODE":0,"TOWNNAME":"仁德區","LI":"土庫里","LIN":"8鄰","STREET":"土庫五街","SECT":" ","MAREA":" ","LANE":" ","ALLEY":" ","HOUSE_NO":"６７號","E_COORD97":174026.98000000001,"N_COORD97":2543255.4900000002,"ADDRESS":"土庫五街６７號","OBJECTID":495621},"geometry":{"x":174026.98000000138,"y":2543255.4900000021}},{"attributes":{"ID":495649,"DIS_CODE":0,"TOWNNAME":"仁德區","LI":"仁義里","LIN":"8鄰","STREET":"中山路","SECT":" ","MAREA":" ","LANE":" ","ALLEY":" ","HOUSE_NO":"４６９號","E_COORD97":173664.23999999999,"N_COORD97":2541271.25,"ADDRESS":"中山路４６９號","OBJECTID":495622},"geometry":{"x":173664.24000000115,"y":2541271.2500000019}},{"attributes":{"ID":495650,"DIS_CODE":0,"TOWNNAME":"仁德區","LI":"仁義里","LIN":"8鄰","STREET":"中山路","SECT":" ","MAREA":" ","LANE":" ","ALLEY":" ","HOUSE_NO":"４９１號","E_COORD97":173610.37,"N_COORD97":2541278.2400000002,"ADDRESS":"中山路４９１號","OBJECTID":495623},"geometry":{"x":173610.37000000104,"y":2541278.2400000021}},{"attributes":{"ID":495651,"DIS_CODE":0,"TOWNNAME":"仁德區","LI":"土庫里","LIN":"8鄰","STREET":"土庫路","SECT":" ","MAREA":" ","LANE":" ","ALLEY":" ","HOUSE_NO":"２８號","E_COORD97":174210.89000000001,"N_COORD97":2543327.6899999999,"ADDRESS":"土庫路２８號","OBJECTID":495624},"geometry":{"x":174210.88999999966,"y":2543327.6900000013}},{"attributes":{"ID":495652,"DIS_CODE":0,"TOWNNAME":"仁德區","LI":"仁義里","LIN":"8鄰","STREET":"仁義一街","SECT":" ","MAREA":" ","LANE":" ","ALLEY":" ","HOUSE_NO":"１０３號","E_COORD97":173572.06,"N_COORD97":2541226.27,"ADDRESS":"仁義一街１０３號","OBJECTID":495625},"geometry":{"x":173572.05999999959,"y":2541226.2700000014}},{"attributes":{"ID":495653,"DIS_CODE":0,"TOWNNAME":"仁德區","LI":"仁義里","LIN":"8鄰","STREET":"仁義一街","SECT":" ","MAREA":" ","LANE":" ","ALLEY":" ","HOUSE_NO":"１２７號","E_COORD97":173612.53,"N_COORD97":2541194.5099999998,"ADDRESS":"仁義一街１２７號","OBJECTID":495626},"geometry":{"x":173612.53000000212,"y":2541194.5100000016}},{"attributes":{"ID":495654,"DIS_CODE":0,"TOWNNAME":"仁德區","LI":"仁義里","LIN":"8鄰","STREET":"中清路","SECT":" ","MAREA":" ","LANE":" ","ALLEY":" ","HOUSE_NO":"７７號","E_COORD97":173696.95000000001,"N_COORD97":2541243.2999999998,"ADDRESS":"中清路７７號","OBJECTID":495627},"geometry":{"x":173696.95000000019,"y":2541243.3000000026}},{"attributes":{"ID":495655,"DIS_CODE":0,"TOWNNAME":"仁德區","LI":"太子里","LIN":"8鄰","STREET":"太子路","SECT":" ","MAREA":" ","LANE":" ","ALLEY":" ","HOUSE_NO":"１７４號","E_COORD97":174369.98000000001,"N_COORD97":2543522.2599999998,"ADDRESS":"太子路１７４號","OBJECTID":495628},"geometry":{"x":174369.98000000138,"y":2543522.2599999998}},{"attributes":{"ID":495656,"DIS_CODE":0,"TOWNNAME":"東區","LI":"大智里","LIN":"8鄰","STREET":"長東街","SECT":" ","MAREA":" ","LANE":" ","ALLEY":" ","HOUSE_NO":"１１１號","E_COORD97":171025.95999999999,"N_COORD97":2540314.1200000001,"ADDRESS":"長東街１１１號","OBJECTID":495629},"geometry":{"x":171025.96000000183,"y":2540314.120000001}},{"attributes":{"ID":495657,"DIS_CODE":0,"TOWNNAME":"東區","LI":"大智里","LIN":"8鄰","STREET":"長東街","SECT":" ","MAREA":" ","LANE":" ","ALLEY":" ","HOUSE_NO":"１１３號","E_COORD97":171026.53,"N_COORD97":2540305.6200000001,"ADDRESS":"長東街１１３號","OBJECTID":495630},"geometry":{"x":171026.53000000119,"y":2540305.6200000029}},{"attributes":{"ID":495658,"DIS_CODE":0,"TOWNNAME":"東區","LI":"大智里","LIN":"8鄰","STREET":"長東街","SECT":" ","MAREA":" ","LANE":" ","ALLEY":" ","HOUSE_NO":"１１９號","E_COORD97":171027.66,"N_COORD97":2540292.25,"ADDRESS":"長東街１１９號","OBJECTID":495631},"geometry":{"x":171027.66000000015,"y":2540292.25}},{"attributes":{"ID":495659,"DIS_CODE":0,"TOWNNAME":"東區","LI":"大智里","LIN":"8鄰","STREET":"長東街","SECT":" ","MAREA":" ","LANE":" ","ALLEY":" ","HOUSE_NO":"１２１號","E_COORD97":171027.66,"N_COORD97":2540287.2599999998,"ADDRESS":"長東街１２１號","OBJECTID":495632},"geometry":{"x":171027.66000000015,"y":2540287.2600000016}},{"attributes":{"ID":495660,"DIS_CODE":0,"TOWNNAME":"東區","LI":"大智里","LIN":"8鄰","STREET":"長東街","SECT":" ","MAREA":" ","LANE":" ","ALLEY":" ","HOUSE_NO":"１２３號","E_COORD97":171026.87,"N_COORD97":2540283.6400000001,"ADDRESS":"長東街１２３號","OBJECTID":495633},"geometry":{"x":171026.87000000104,"y":2540283.6400000006}},{"attributes":{"ID":495661,"DIS_CODE":0,"TOWNNAME":"東區","LI":"大智里","LIN":"8鄰","STREET":"德東街","SECT":" ","MAREA":" ","LANE":" ","ALLEY":" ","HOUSE_NO":"８７號","E_COORD97":171026.82000000001,"N_COORD97":2540263.6899999999,"ADDRESS":"德東街８７號","OBJECTID":495634},"geometry":{"x":171026.8200000003,"y":2540263.6900000013}},{"attributes":{"ID":495662,"DIS_CODE":0,"TOWNNAME":"東區","LI":"大智里","LIN":"8鄰","STREET":"德東街","SECT":" ","MAREA":" ","LANE":" ","ALLEY":" ","HOUSE_NO":"８９號","E_COORD97":171032.06,"N_COORD97":2540264.0099999998,"ADDRESS":"德東街８９號","OBJECTID":495635},"geometry":{"x":171032.06000000052,"y":2540264.0100000035}},{"attributes":{"ID":495663,"DIS_CODE":0,"TOWNNAME":"東區","LI":"大德里","LIN":"8鄰","STREET":"大同路","SECT":"二段","MAREA":" ","LANE":" ","ALLEY":" ","HOUSE_NO":"１１５號","E_COORD97":169377.45999999999,"N_COORD97":2542101.25,"ADDRESS":"大同路二段１１５號","OBJECTID":495636},"geometry":{"x":169377.45999999996,"y":2542101.2500000019}},{"attributes":{"ID":495664,"DIS_CODE":0,"TOWNNAME":"東區","LI":"大德里","LIN":"8鄰","STREET":"大同路","SECT":"二段","MAREA":" ","LANE":" ","ALLEY":" ","HOUSE_NO":"１１９號","E_COORD97":169380.64999999999,"N_COORD97":2542088.5299999998,"ADDRESS":"大同路二段１１９號","OBJECTID":495637},"geometry":{"x":169380.65000000224,"y":2542088.5300000012}},{"attributes":{"ID":495665,"DIS_CODE":0,"TOWNNAME":"安南區","LI":"頂安里","LIN":"8鄰","STREET":"頂安街","SECT":" ","MAREA":" ","LANE":" ","ALLEY":" ","HOUSE_NO":"５２３號","E_COORD97":168644.64999999999,"N_COORD97":2549275.9100000001,"ADDRESS":"頂安街５２３號","OBJECTID":495638},"geometry":{"x":168644.65000000037,"y":2549275.9100000001}},{"attributes":{"ID":495666,"DIS_CODE":0,"TOWNNAME":"安南區","LI":"城中里","LIN":"8鄰","STREET":"城安西街","SECT":" ","MAREA":" ","LANE":" ","ALLEY":" ","HOUSE_NO":"２７號","E_COORD97":160704.885427,"N_COORD97":2551551.78737,"ADDRESS":"城安西街２７號","OBJECTID":495639},"geometry":{"x":160704.88542700093,"y":2551551.7873700019}},{"attributes":{"ID":495667,"DIS_CODE":0,"TOWNNAME":"安南區","LI":"頂安里","LIN":"8鄰","STREET":"頂安街","SECT":" ","MAREA":" ","LANE":" ","ALLEY":" ","HOUSE_NO":"５２５號","E_COORD97":168644.64999999999,"N_COORD97":2549275.9100000001,"ADDRESS":"頂安街５２５號","OBJECTID":495640},"geometry":{"x":168644.65000000037,"y":2549275.9100000001}},{"attributes":{"ID":495668,"DIS_CODE":0,"TOWNNAME":"白河區","LI":"永安里","LIN":"8鄰","STREET":"十全街","SECT":" ","MAREA":" ","LANE":" ","ALLEY":" ","HOUSE_NO":"２５７號","E_COORD97":189733.25,"N_COORD97":2582952.25,"ADDRESS":"十全街２５７號","OBJECTID":495641},"geometry":{"x":189733.25,"y":2582952.2500000019}},{"attributes":{"ID":495669,"DIS_CODE":0,"TOWNNAME":"白河區","LI":"永安里","LIN":"8鄰","STREET":"十全街","SECT":" ","MAREA":" ","LANE":" ","ALLEY":" ","HOUSE_NO":"２５９號","E_COORD97":189731.82000000001,"N_COORD97":2582958.25,"ADDRESS":"十全街２５９號","OBJECTID":495642},"geometry":{"x":189731.82000000216,"y":2582958.2500000019}},{"attributes":{"ID":495670,"DIS_CODE":0,"TOWNNAME":"白河區","LI":"永安里","LIN":"8鄰","STREET":"十全街","SECT":" ","MAREA":" ","LANE":" ","ALLEY":" ","HOUSE_NO":"２６１號","E_COORD97":189727.79000000001,"N_COORD97":2582962.6000000001,"ADDRESS":"十全街２６１號","OBJECTID":495643},"geometry":{"x":189727.79000000004,"y":2582962.6000000015}},{"attributes":{"ID":495671,"DIS_CODE":0,"TOWNNAME":"永康區","LI":"\u25A0行里","LIN":"8鄰","STREET":"中正五街","SECT":" ","MAREA":" ","LANE":" ","ALLEY":" ","HOUSE_NO":"７６號","E_COORD97":172755.57000000001,"N_COORD97":2548442.2400000002,"ADDRESS":"中正五街７６號","OBJECTID":495644},"geometry":{"x":172755.5700000003,"y":2548442.2400000002}},{"attributes":{"ID":495672,"DIS_CODE":0,"TOWNNAME":"永康區","LI":"\u25A0洲里","LIN":"8鄰","STREET":"中正南路","SECT":" ","MAREA":" ","LANE":" ","ALLEY":" ","HOUSE_NO":"８４９號","E_COORD97":171780.78,"N_COORD97":2549046.9900000002,"ADDRESS":"中正南路８４９號","OBJECTID":495645},"geometry":{"x":171780.78000000119,"y":2549046.9900000021}},{"attributes":{"ID":495673,"DIS_CODE":0,"TOWNNAME":"永康區","LI":"\u25A0洲里","LIN":"8鄰","STREET":"中正南路","SECT":" ","MAREA":" ","LANE":" ","ALLEY":" ","HOUSE_NO":"８５１號","E_COORD97":171783.57000000001,"N_COORD97":2549050.2400000002,"ADDRESS":"中正南路８５１號","OBJECTID":495646},"geometry":{"x":171783.57000000123,"y":2549050.2400000002}},{"attributes":{"ID":495674,"DIS_CODE":0,"TOWNNAME":"永康區","LI":"\u25A0洲里","LIN":"8鄰","STREET":"中正南路","SECT":" ","MAREA":" ","LANE":" ","ALLEY":" ","HOUSE_NO":"８６１號","E_COORD97":171796.73000000001,"N_COORD97":2549062.4900000002,"ADDRESS":"中正南路８６１號","OBJECTID":495647},"geometry":{"x":171796.73000000045,"y":2549062.4899999984}},{"attributes":{"ID":495675,"DIS_CODE":0,"TOWNNAME":"安南區","LI":"公親里","LIN":"8鄰","STREET":"公學路","SECT":"一段","MAREA":" ","LANE":" ","ALLEY":" ","HOUSE_NO":"１３５號","E_COORD97":168226.12,"N_COORD97":2553019.8199999998,"ADDRESS":"公學路一段１３５號","OBJECTID":495648},"geometry":{"x":168226.12000000197,"y":2553019.8200000003}},{"attributes":{"ID":495676,"DIS_CODE":0,"TOWNNAME":"安南區","LI":"安東里","LIN":"8鄰","STREET":"安和路","SECT":"一段","MAREA":" ","LANE":" ","ALLEY":" ","HOUSE_NO":"２８４號","E_COORD97":169310.06,"N_COORD97":2548037.1899999999,"ADDRESS":"安和路一段２８４號","OBJECTID":495649},"geometry":{"x":169310.06000000052,"y":2548037.1900000013}},{"attributes":{"ID":495677,"DIS_CODE":0,"TOWNNAME":"安南區","LI":"安東里","LIN":"8鄰","STREET":"安和路","SECT":"一段","MAREA":" ","LANE":" ","ALLEY":" ","HOUSE_NO":"２８６號","E_COORD97":169311.26999999999,"N_COORD97":2548041.5800000001,"ADDRESS":"安和路一段２８６號","OBJECTID":495650},"geometry":{"x":169311.27000000142,"y":2548041.5800000038}},{"attributes":{"ID":495678,"DIS_CODE":0,"TOWNNAME":"善化區","LI":"南關里","LIN":"8鄰","STREET":"三民路","SECT":" ","MAREA":" ","LANE":" ","ALLEY":" ","HOUSE_NO":"２５號之１","E_COORD97":177060.78585300001,"N_COORD97":2558894.6851499998,"ADDRESS":"三民路２５號之１","OBJECTID":495651},"geometry":{"x":177060.78585300129,"y":2558894.6851530019}},{"attributes":{"ID":495679,"DIS_CODE":0,"TOWNNAME":"善化區","LI":"南關里","LIN":"8鄰","STREET":"光復路","SECT":" ","MAREA":" ","LANE":" ","ALLEY":" ","HOUSE_NO":"５６２號","E_COORD97":176788.60999999999,"N_COORD97":2558951.0099999998,"ADDRESS":"光復路５６２號","OBJECTID":495652},"geometry":{"x":176788.61000000034,"y":2558951.0099999998}},{"attributes":{"ID":495680,"DIS_CODE":0,"TOWNNAME":"善化區","LI":"南關里","LIN":"8鄰","STREET":"光復路","SECT":" ","MAREA":" ","LANE":" ","ALLEY":" ","HOUSE_NO":"５５８號","E_COORD97":176790.89999999999,"N_COORD97":2558941.2599999998,"ADDRESS":"光復路５５８號","OBJECTID":495653},"geometry":{"x":176790.9000000013,"y":2558941.2600000016}},{"attributes":{"ID":495681,"DIS_CODE":0,"TOWNNAME":"善化區","LI":"南關里","LIN":"8鄰","STREET":"三民路","SECT":" ","MAREA":" ","LANE":" ","ALLEY":" ","HOUSE_NO":"２３號之２","E_COORD97":177043.64999999999,"N_COORD97":2558862.77,"ADDRESS":"三民路２３號之２","OBJECTID":495654},"geometry":{"x":177043.6500000013,"y":2558862.7700000014}},{"attributes":{"ID":495682,"DIS_CODE":0,"TOWNNAME":"善化區","LI":"南關里","LIN":"8鄰","STREET":"光復路","SECT":" ","MAREA":" ","LANE":" ","ALLEY":" ","HOUSE_NO":"４１８號","E_COORD97":176917.78,"N_COORD97":2558701.7599999998,"ADDRESS":"光復路４１８號","OBJECTID":495655},"geometry":{"x":176917.78000000026,"y":2558701.7599999998}},{"attributes":{"ID":495683,"DIS_CODE":0,"TOWNNAME":"善化區","LI":"南關里","LIN":"8鄰","STREET":"自由路","SECT":" ","MAREA":" ","LANE":" ","ALLEY":" ","HOUSE_NO":"１５０號","E_COORD97":177021.67999999999,"N_COORD97":2558896.75,"ADDRESS":"自由路１５０號","OBJECTID":495656},"geometry":{"x":177021.68000000156,"y":2558896.7500000019}},{"attributes":{"ID":495684,"DIS_CODE":0,"TOWNNAME":"善化區","LI":"南關里","LIN":"8鄰","STREET":"自由路","SECT":" ","MAREA":" ","LANE":" ","ALLEY":" ","HOUSE_NO":"１４８號","E_COORD97":177026.29000000001,"N_COORD97":2558896.5,"ADDRESS":"自由路１４８號","OBJECTID":495657},"geometry":{"x":177026.28999999911,"y":2558896.5}},{"attributes":{"ID":495685,"DIS_CODE":0,"TOWNNAME":"善化區","LI":"南關里","LIN":"8鄰","STREET":"光復路","SECT":" ","MAREA":" ","LANE":" ","ALLEY":" ","HOUSE_NO":"４３０號","E_COORD97":176891.07999999999,"N_COORD97":2558730.2599999998,"ADDRESS":"光復路４３０號","OBJECTID":495658},"geometry":{"x":176891.08000000101,"y":2558730.2600000016}},{"attributes":{"ID":495686,"DIS_CODE":0,"TOWNNAME":"善化區","LI":"南關里","LIN":"8鄰","STREET":"自由路","SECT":" ","MAREA":" ","LANE":" ","ALLEY":" ","HOUSE_NO":"１６４號","E_COORD97":176986.48999999999,"N_COORD97":2558919,"ADDRESS":"自由路１６４號","OBJECTID":495659},"geometry":{"x":176986.49000000115,"y":2558919.0000000019}},{"attributes":{"ID":495687,"DIS_CODE":0,"TOWNNAME":"善化區","LI":"東關里","LIN":"8鄰","STREET":"中興路","SECT":" ","MAREA":" ","LANE":" ","ALLEY":" ","HOUSE_NO":"１６０號","E_COORD97":177261.63,"N_COORD97":2559058.25,"ADDRESS":"中興路１６０號","OBJECTID":495660},"geometry":{"x":177261.63000000082,"y":2559058.25}},{"attributes":{"ID":495688,"DIS_CODE":0,"TOWNNAME":"善化區","LI":"南關里","LIN":"8鄰","STREET":"光復路","SECT":" ","MAREA":" ","LANE":" ","ALLEY":" ","HOUSE_NO":"４９８號","E_COORD97":176826.81,"N_COORD97":2558832.7599999998,"ADDRESS":"光復路４９８號","OBJECTID":495661},"geometry":{"x":176826.80999999959,"y":2558832.7600000016}},{"attributes":{"ID":495689,"DIS_CODE":0,"TOWNNAME":"善化區","LI":"南關里","LIN":"8鄰","STREET":"光復路","SECT":" ","MAREA":" ","LANE":" ","ALLEY":" ","HOUSE_NO":"５４８號","E_COORD97":176794.92000000001,"N_COORD97":2558923.7599999998,"ADDRESS":"光復路５４８號","OBJECTID":495662},"geometry":{"x":176794.92000000179,"y":2558923.7600000016}},{"attributes":{"ID":495690,"DIS_CODE":0,"TOWNNAME":"善化區","LI":"南關里","LIN":"8鄰","STREET":"三民路","SECT":" ","MAREA":" ","LANE":" ","ALLEY":" ","HOUSE_NO":"１７號之５","E_COORD97":176952.81,"N_COORD97":2558821.52,"ADDRESS":"三民路１７號之５","OBJECTID":495663},"geometry":{"x":176952.81000000145,"y":2558821.5199999996}},{"attributes":{"ID":495691,"DIS_CODE":0,"TOWNNAME":"善化區","LI":"南關里","LIN":"8鄰","STREET":"光復路","SECT":" ","MAREA":" ","LANE":" ","ALLEY":" ","HOUSE_NO":"４２６號","E_COORD97":176896.73000000001,"N_COORD97":2558723.2599999998,"ADDRESS":"光復路４２６號","OBJECTID":495664},"geometry":{"x":176896.73000000231,"y":2558723.2600000016}},{"attributes":{"ID":495692,"DIS_CODE":0,"TOWNNAME":"善化區","LI":"南關里","LIN":"8鄰","STREET":"光復路","SECT":" ","MAREA":" ","LANE":" ","ALLEY":" ","HOUSE_NO":"４９２號","E_COORD97":176842.59,"N_COORD97":2558812.7599999998,"ADDRESS":"光復路４９２號","OBJECTID":495665},"geometry":{"x":176842.58999999985,"y":2558812.7600000016}},{"attributes":{"ID":495693,"DIS_CODE":0,"TOWNNAME":"善化區","LI":"東關里","LIN":"8鄰","STREET":"中興路","SECT":" ","MAREA":" ","LANE":" ","ALLEY":" ","HOUSE_NO":"１５６號","E_COORD97":177269.70000000001,"N_COORD97":2559053.75,"ADDRESS":"中興路１５６號","OBJECTID":495666},"geometry":{"x":177269.70000000112,"y":2559053.7500000019}},{"attributes":{"ID":495694,"DIS_CODE":0,"TOWNNAME":"善化區","LI":"南關里","LIN":"8鄰","STREET":"光復路","SECT":" ","MAREA":" ","LANE":" ","ALLEY":" ","HOUSE_NO":"５５６號","E_COORD97":176792.03,"N_COORD97":2558936.2599999998,"ADDRESS":"光復路５５６號","OBJECTID":495667},"geometry":{"x":176792.03000000026,"y":2558936.2599999979}},{"attributes":{"ID":495695,"DIS_CODE":0,"TOWNNAME":"善化區","LI":"南關里","LIN":"8鄰","STREET":"光復路","SECT":" ","MAREA":" ","LANE":" ","ALLEY":" ","HOUSE_NO":"４２０號","E_COORD97":176914.54000000001,"N_COORD97":2558705.7599999998,"ADDRESS":"光復路４２０號","OBJECTID":495668},"geometry":{"x":176914.5400000019,"y":2558705.7599999979}},{"attributes":{"ID":495696,"DIS_CODE":0,"TOWNNAME":"善化區","LI":"東關里","LIN":"8鄰","STREET":"中山路","SECT":" ","MAREA":" ","LANE":" ","ALLEY":" ","HOUSE_NO":"４５３號","E_COORD97":177283.28,"N_COORD97":2559115,"ADDRESS":"中山路４５３號","OBJECTID":495669},"geometry":{"x":177283.28000000119,"y":2559115.0000000037}},{"attributes":{"ID":495697,"DIS_CODE":0,"TOWNNAME":"善化區","LI":"南關里","LIN":"8鄰","STREET":"光復路","SECT":" ","MAREA":" ","LANE":" ","ALLEY":" ","HOUSE_NO":"４１０號","E_COORD97":176926.54000000001,"N_COORD97":2558692.0099999998,"ADDRESS":"光復路４１０號","OBJECTID":495670},"geometry":{"x":176926.54000000097,"y":2558692.0100000016}},{"attributes":{"ID":495698,"DIS_CODE":0,"TOWNNAME":"善化區","LI":"南關里","LIN":"8鄰","STREET":"光復路","SECT":" ","MAREA":" ","LANE":" ","ALLEY":" ","HOUSE_NO":"５６０號","E_COORD97":176789.51000000001,"N_COORD97":2558945.2599999998,"ADDRESS":"光復路５６０號","OBJECTID":495671},"geometry":{"x":176789.51000000071,"y":2558945.2599999998}},{"attributes":{"ID":495699,"DIS_CODE":0,"TOWNNAME":"善化區","LI":"光文里","LIN":"8鄰","STREET":"光文路","SECT":" ","MAREA":" ","LANE":" ","ALLEY":" ","HOUSE_NO":"１８號之１","E_COORD97":178978.98000000001,"N_COORD97":2559332.7799999998,"ADDRESS":"光文路１８號之１","OBJECTID":495672},"geometry":{"x":178978.98000000138,"y":2559332.7800000031}},{"attributes":{"ID":495700,"DIS_CODE":0,"TOWNNAME":"善化區","LI":"光文里","LIN":"8鄰","STREET":"光文路","SECT":" ","MAREA":" ","LANE":" ","ALLEY":" ","HOUSE_NO":"２８號","E_COORD97":178939.17000000001,"N_COORD97":2559303.2799999998,"ADDRESS":"光文路２８號","OBJECTID":495673},"geometry":{"x":178939.17000000179,"y":2559303.2800000012}},{"attributes":{"ID":495701,"DIS_CODE":0,"TOWNNAME":"善化區","LI":"北關里","LIN":"8鄰","STREET":"進學路","SECT":" ","MAREA":" ","LANE":" ","ALLEY":" ","HOUSE_NO":"６２號","E_COORD97":177252.75,"N_COORD97":2559305.75,"ADDRESS":"進學路６２號","OBJECTID":495674},"geometry":{"x":177252.75000000093,"y":2559305.75}},{"attributes":{"ID":495702,"DIS_CODE":0,"TOWNNAME":"善化區","LI":"北關里","LIN":"8鄰","STREET":"進學路","SECT":" ","MAREA":" ","LANE":" ","ALLEY":" ","HOUSE_NO":"６４號","E_COORD97":177250.16,"N_COORD97":2559309.5,"ADDRESS":"進學路６４號","OBJECTID":495675},"geometry":{"x":177250.16000000108,"y":2559309.5000000019}},{"attributes":{"ID":495703,"DIS_CODE":0,"TOWNNAME":"善化區","LI":"光文里","LIN":"8鄰","STREET":"光文路","SECT":" ","MAREA":" ","LANE":" ","ALLEY":" ","HOUSE_NO":"２２號","E_COORD97":178930.89000000001,"N_COORD97":2559269.2799999998,"ADDRESS":"光文路２２號","OBJECTID":495676},"geometry":{"x":178930.8900000006,"y":2559269.2800000012}},{"attributes":{"ID":495704,"DIS_CODE":0,"TOWNNAME":"善化區","LI":"西關里","LIN":"8鄰","STREET":"中山路","SECT":" ","MAREA":" ","LANE":" ","ALLEY":" ","HOUSE_NO":"５６７號","E_COORD97":177015.17999999999,"N_COORD97":2559162.5,"ADDRESS":"中山路５６７號","OBJECTID":495677},"geometry":{"x":177015.18000000063,"y":2559162.5000000037}},{"attributes":{"ID":495705,"DIS_CODE":0,"TOWNNAME":"善化區","LI":"北關里","LIN":"8鄰","STREET":"進學路","SECT":" ","MAREA":" ","LANE":" ","ALLEY":" ","HOUSE_NO":"６６號","E_COORD97":177247.70999999999,"N_COORD97":2559312.75,"ADDRESS":"進學路６６號","OBJECTID":495678},"geometry":{"x":177247.71000000089,"y":2559312.75}},{"attributes":{"ID":495706,"DIS_CODE":0,"TOWNNAME":"善化區","LI":"北關里","LIN":"8鄰","STREET":"進學路","SECT":" ","MAREA":" ","LANE":" ","ALLEY":" ","HOUSE_NO":"６８號","E_COORD97":177245.35999999999,"N_COORD97":2559316.5,"ADDRESS":"進學路６８號","OBJECTID":495679},"geometry":{"x":177245.36000000127,"y":2559316.5000000019}},{"attributes":{"ID":495707,"DIS_CODE":0,"TOWNNAME":"善化區","LI":"南關里","LIN":"8鄰","STREET":"自由路","SECT":" ","MAREA":" ","LANE":" ","ALLEY":" ","HOUSE_NO":"１４９號","E_COORD97":176998.25,"N_COORD97":2558882,"ADDRESS":"自由路１４９號","OBJECTID":495680},"geometry":{"x":176998.25000000093,"y":2558882.0000000019}},{"attributes":{"ID":495708,"DIS_CODE":0,"TOWNNAME":"永康區","LI":"正強里","LIN":"8鄰","STREET":"正義街","SECT":" ","MAREA":" ","LANE":" ","ALLEY":" ","HOUSE_NO":"６５號","E_COORD97":173531.13,"N_COORD97":2547613.7000000002,"ADDRESS":"正義街６５號","OBJECTID":495681},"geometry":{"x":173531.12999999989,"y":2547613.7000000011}},{"attributes":{"ID":495709,"DIS_CODE":0,"TOWNNAME":"安南區","LI":"總頭里","LIN":"8鄰","STREET":"長溪路","SECT":"二段","MAREA":" ","LANE":" ","ALLEY":" ","HOUSE_NO":"６３９號","E_COORD97":168158.82000000001,"N_COORD97":2550812.2000000002,"ADDRESS":"長溪路二段６３９號","OBJECTID":495682},"geometry":{"x":168158.81999999937,"y":2550812.1999999993}},{"attributes":{"ID":495710,"DIS_CODE":0,"TOWNNAME":"東區","LI":"崇成里","LIN":"8鄰","STREET":"崇德十三街","SECT":" ","MAREA":" ","LANE":" ","ALLEY":" ","HOUSE_NO":"２１號地下層","E_COORD97":170866.73999999999,"N_COORD97":2541303.77,"ADDRESS":"崇德十三街２１號地下層","OBJECTID":495683},"geometry":{"x":170866.74000000115,"y":2541303.7700000014}},{"attributes":{"ID":495711,"DIS_CODE":0,"TOWNNAME":"東區","LI":"崇成里","LIN":"8鄰","STREET":"崇德十三街","SECT":" ","MAREA":" ","LANE":" ","ALLEY":" ","HOUSE_NO":"２５號","E_COORD97":170852.45999999999,"N_COORD97":2541317.3900000001,"ADDRESS":"崇德十三街２５號","OBJECTID":495684},"geometry":{"x":170852.45999999996,"y":2541317.3900000025}},{"attributes":{"ID":495712,"DIS_CODE":0,"TOWNNAME":"東區","LI":"崇成里","LIN":"8鄰","STREET":"崇德十三街","SECT":" ","MAREA":" ","LANE":" ","ALLEY":" ","HOUSE_NO":"２７號","E_COORD97":170864.35999999999,"N_COORD97":2541317.29,"ADDRESS":"崇德十三街２７號","OBJECTID":495685},"geometry":{"x":170864.36000000127,"y":2541317.290000001}},{"attributes":{"ID":495713,"DIS_CODE":0,"TOWNNAME":"東區","LI":"崇成里","LIN":"8鄰","STREET":"崇德十三街","SECT":" ","MAREA":" ","LANE":" ","ALLEY":" ","HOUSE_NO":"２９號","E_COORD97":170862.85000000001,"N_COORD97":2541303.5499999998,"ADDRESS":"崇德十三街２９號","OBJECTID":495686},"geometry":{"x":170862.84999999963,"y":2541303.5500000026}},{"attributes":{"ID":495714,"DIS_CODE":0,"TOWNNAME":"東區","LI":"崇成里","LIN":"8鄰","STREET":"崇德十三街","SECT":" ","MAREA":" ","LANE":" ","ALLEY":" ","HOUSE_NO":"３１號","E_COORD97":170873.01999999999,"N_COORD97":2541311.23,"ADDRESS":"崇德十三街３１號","OBJECTID":495687},"geometry":{"x":170873.02000000048,"y":2541311.2300000023}},{"attributes":{"ID":495715,"DIS_CODE":0,"TOWNNAME":"東區","LI":"崇成里","LIN":"8鄰","STREET":"崇德十三街","SECT":" ","MAREA":" ","LANE":" ","ALLEY":" ","HOUSE_NO":"３３號","E_COORD97":170883.09,"N_COORD97":2541311.1200000001,"ADDRESS":"崇德十三街３３號","OBJECTID":495688},"geometry":{"x":170883.09000000078,"y":2541311.120000001}},{"attributes":{"ID":495716,"DIS_CODE":0,"TOWNNAME":"東區","LI":"崇成里","LIN":"8鄰","STREET":"崇德十三街","SECT":" ","MAREA":" ","LANE":" ","ALLEY":" ","HOUSE_NO":"３５號","E_COORD97":170891.85999999999,"N_COORD97":2541311.23,"ADDRESS":"崇德十三街３５號","OBJECTID":495689},"geometry":{"x":170891.86000000127,"y":2541311.2300000023}},{"attributes":{"ID":495717,"DIS_CODE":0,"TOWNNAME":"東區","LI":"崇成里","LIN":"8鄰","STREET":"崇德十三街","SECT":" ","MAREA":" ","LANE":" ","ALLEY":" ","HOUSE_NO":"３９號","E_COORD97":170904.95000000001,"N_COORD97":2541311.23,"ADDRESS":"崇德十三街３９號","OBJECTID":495690},"geometry":{"x":170904.95000000112,"y":2541311.2300000023}},{"attributes":{"ID":495718,"DIS_CODE":0,"TOWNNAME":"下營區","LI":"營前里","LIN":"8鄰","STREET":"健康路","SECT":" ","MAREA":" ","LANE":" ","ALLEY":" ","HOUSE_NO":"５３號","E_COORD97":174637.10000000001,"N_COORD97":2570176.9399999999,"ADDRESS":"健康路５３號","OBJECTID":495691},"geometry":{"x":174637.10000000149,"y":2570176.9399999995}},{"attributes":{"ID":495719,"DIS_CODE":0,"TOWNNAME":"永康區","LI":"\u25A0行里","LIN":"8鄰","STREET":"中正一街","SECT":" ","MAREA":" ","LANE":" ","ALLEY":" ","HOUSE_NO":"２６號","E_COORD97":172728.07000000001,"N_COORD97":2548243.9900000002,"ADDRESS":"中正一街２６號","OBJECTID":495692},"geometry":{"x":172728.07000000123,"y":2548243.9900000002}},{"attributes":{"ID":495720,"DIS_CODE":0,"TOWNNAME":"永康區","LI":"\u25A0洲里","LIN":"8鄰","STREET":"\u25A0行路","SECT":" ","MAREA":" ","LANE":" ","ALLEY":" ","HOUSE_NO":"２３號","E_COORD97":171749.89000000001,"N_COORD97":2549113.3199999998,"ADDRESS":"\u25A0行路２３號","OBJECTID":495693},"geometry":{"x":171749.89000000153,"y":2549113.3200000003}},{"attributes":{"ID":495721,"DIS_CODE":0,"TOWNNAME":"永康區","LI":"復國里","LIN":"8鄰","STREET":"復國二路","SECT":" ","MAREA":" ","LANE":" ","ALLEY":" ","HOUSE_NO":"５４號","E_COORD97":172847.48000000001,"N_COORD97":2545087.7799999998,"ADDRESS":"復國二路５４號","OBJECTID":495694},"geometry":{"x":172847.48000000138,"y":2545087.7800000012}},{"attributes":{"ID":495722,"DIS_CODE":0,"TOWNNAME":"永康區","LI":"烏竹里","LIN":"8鄰","STREET":"龍橋街","SECT":" ","MAREA":" ","LANE":" ","ALLEY":" ","HOUSE_NO":"３８７號","E_COORD97":174440.82999999999,"N_COORD97":2549153.02,"ADDRESS":"龍橋街３８７號","OBJECTID":495695},"geometry":{"x":174440.82999999914,"y":2549153.0199999977}},{"attributes":{"ID":495723,"DIS_CODE":0,"TOWNNAME":"永康區","LI":"烏竹里","LIN":"8鄰","STREET":"竹園二街","SECT":" ","MAREA":" ","LANE":" ","ALLEY":" ","HOUSE_NO":"６６號","E_COORD97":174345.14000000001,"N_COORD97":2549150.9900000002,"ADDRESS":"竹園二街６６號","OBJECTID":495696},"geometry":{"x":174345.14000000153,"y":2549150.9900000039}},{"attributes":{"ID":495724,"DIS_CODE":0,"TOWNNAME":"永康區","LI":"復國里","LIN":"8鄰","STREET":"復國二路","SECT":" ","MAREA":" ","LANE":" ","ALLEY":" ","HOUSE_NO":"６２號","E_COORD97":172842.92999999999,"N_COORD97":2545114.77,"ADDRESS":"復國二路６２號","OBJECTID":495697},"geometry":{"x":172842.92999999877,"y":2545114.7700000014}},{"attributes":{"ID":495725,"DIS_CODE":0,"TOWNNAME":"永康區","LI":"復國里","LIN":"8鄰","STREET":"復國二路","SECT":" ","MAREA":" ","LANE":" ","ALLEY":" ","HOUSE_NO":"７６號","E_COORD97":172845.12,"N_COORD97":2545151.77,"ADDRESS":"復國二路７６號","OBJECTID":495698},"geometry":{"x":172845.12000000011,"y":2545151.7700000014}},{"attributes":{"ID":495726,"DIS_CODE":0,"TOWNNAME":"永康區","LI":"\u25A0洲里","LIN":"8鄰","STREET":"中正南路","SECT":" ","MAREA":" ","LANE":" ","ALLEY":" ","HOUSE_NO":"８６７號","E_COORD97":171805.79000000001,"N_COORD97":2549071.2400000002,"ADDRESS":"中正南路８６７號","OBJECTID":495699},"geometry":{"x":171805.79000000097,"y":2549071.2400000039}},{"attributes":{"ID":495727,"DIS_CODE":0,"TOWNNAME":"永康區","LI":"崑山里","LIN":"8鄰","STREET":"大灣路","SECT":" ","MAREA":" ","LANE":" ","ALLEY":" ","HOUSE_NO":"９５１號","E_COORD97":173406.95999999999,"N_COORD97":2544351.5099999998,"ADDRESS":"大灣路９５１號","OBJECTID":495700},"geometry":{"x":173406.95999999996,"y":2544351.5099999998}},{"attributes":{"ID":495728,"DIS_CODE":0,"TOWNNAME":"佳里區","LI":"建南里","LIN":"8鄰","STREET":"建南街","SECT":" ","MAREA":" ","LANE":" ","ALLEY":" ","HOUSE_NO":"１３８號","E_COORD97":165707.85999999999,"N_COORD97":2562121.96,"ADDRESS":"建南街１３８號","OBJECTID":495701},"geometry":{"x":165707.86000000127,"y":2562121.9600000009}},{"attributes":{"ID":495729,"DIS_CODE":0,"TOWNNAME":"佳里區","LI":"建南里","LIN":"8鄰","STREET":"建南街","SECT":" ","MAREA":" ","LANE":" ","ALLEY":" ","HOUSE_NO":"１３９號","E_COORD97":165679.73999999999,"N_COORD97":2562103.4199999999,"ADDRESS":"建南街１３９號","OBJECTID":495702},"geometry":{"x":165679.74000000115,"y":2562103.4200000018}},{"attributes":{"ID":495730,"DIS_CODE":0,"TOWNNAME":"佳里區","LI":"建南里","LIN":"8鄰","STREET":"建南街","SECT":" ","MAREA":" ","LANE":" ","ALLEY":" ","HOUSE_NO":"１４０號","E_COORD97":165709.85999999999,"N_COORD97":2562126.0499999998,"ADDRESS":"建南街１４０號","OBJECTID":495703},"geometry":{"x":165709.86000000127,"y":2562126.0500000045}},{"attributes":{"ID":495731,"DIS_CODE":0,"TOWNNAME":"佳里區","LI":"建南里","LIN":"8鄰","STREET":"建南街","SECT":" ","MAREA":" ","LANE":" ","ALLEY":" ","HOUSE_NO":"１４１號","E_COORD97":165680.31,"N_COORD97":2562107.71,"ADDRESS":"建南街１４１號","OBJECTID":495704},"geometry":{"x":165680.31000000052,"y":2562107.7100000009}},{"attributes":{"ID":495732,"DIS_CODE":0,"TOWNNAME":"佳里區","LI":"建南里","LIN":"8鄰","STREET":"建南街","SECT":" ","MAREA":" ","LANE":" ","ALLEY":" ","HOUSE_NO":"１４２號","E_COORD97":165711.06,"N_COORD97":2562129.5800000001,"ADDRESS":"建南街１４２號","OBJECTID":495705},"geometry":{"x":165711.06000000052,"y":2562129.5800000019}},{"attributes":{"ID":495733,"DIS_CODE":0,"TOWNNAME":"佳里區","LI":"建南里","LIN":"8鄰","STREET":"建南街","SECT":" ","MAREA":" ","LANE":" ","ALLEY":" ","HOUSE_NO":"１４２號之１","E_COORD97":165711.45999999999,"N_COORD97":2562134.2799999998,"ADDRESS":"建南街１４２號之１","OBJECTID":495706},"geometry":{"x":165711.46000000183,"y":2562134.2800000012}},{"attributes":{"ID":495734,"DIS_CODE":0,"TOWNNAME":"佳里區","LI":"建南里","LIN":"8鄰","STREET":"建南街","SECT":" ","MAREA":" ","LANE":" ","ALLEY":" ","HOUSE_NO":"１４６號","E_COORD97":165713.70000000001,"N_COORD97":2562140.3599999999,"ADDRESS":"建南街１４６號","OBJECTID":495707},"geometry":{"x":165713.70000000112,"y":2562140.3600000013}},{"attributes":{"ID":495735,"DIS_CODE":0,"TOWNNAME":"佳里區","LI":"建南里","LIN":"8鄰","STREET":"建南街","SECT":" ","MAREA":" ","LANE":" ","ALLEY":" ","HOUSE_NO":"１４９號","E_COORD97":165690.09,"N_COORD97":2562131.2200000002,"ADDRESS":"建南街１４９號","OBJECTID":495708},"geometry":{"x":165690.09000000171,"y":2562131.2199999988}},{"attributes":{"ID":495736,"DIS_CODE":0,"TOWNNAME":"佳里區","LI":"建南里","LIN":"8鄰","STREET":"建南街","SECT":" ","MAREA":" ","LANE":" ","ALLEY":" ","HOUSE_NO":"１６１號","E_COORD97":165684.72,"N_COORD97":2562158.5499999998,"ADDRESS":"建南街１６１號","OBJECTID":495709},"geometry":{"x":165684.72000000067,"y":2562158.5500000007}},{"attributes":{"ID":495737,"DIS_CODE":0,"TOWNNAME":"安南區","LI":"砂崙里","LIN":"8鄰","STREET":"青砂街","SECT":"一段","MAREA":" ","LANE":" ","ALLEY":" ","HOUSE_NO":"６８９號","E_COORD97":159932.75,"N_COORD97":2552844.1899999999,"ADDRESS":"青砂街一段６８９號","OBJECTID":495710},"geometry":{"x":159932.75000000093,"y":2552844.1900000032}},{"attributes":{"ID":495738,"DIS_CODE":0,"TOWNNAME":"下營區","LI":"仁里里","LIN":"8鄰","STREET":"蚵寮街","SECT":" ","MAREA":" ","LANE":" ","ALLEY":" ","HOUSE_NO":"５３號","E_COORD97":174018.75,"N_COORD97":2570326.3399999999,"ADDRESS":"蚵寮街５３號","OBJECTID":495711},"geometry":{"x":174018.75,"y":2570326.3399999999}},{"attributes":{"ID":495739,"DIS_CODE":0,"TOWNNAME":"東區","LI":"仁和里","LIN":"10鄰","STREET":"仁和路","SECT":" ","MAREA":" ","LANE":"１３９巷","ALLEY":"７弄","HOUSE_NO":"１號","E_COORD97":171555.69,"N_COORD97":2541100.6200000001,"ADDRESS":"仁和路１３９巷７弄１號","OBJECTID":495712},"geometry":{"x":171555.69000000134,"y":2541100.620000001}},{"attributes":{"ID":495740,"DIS_CODE":0,"TOWNNAME":"下營區","LI":"仁里里","LIN":"8鄰","STREET":"蚵寮街","SECT":" ","MAREA":" ","LANE":" ","ALLEY":" ","HOUSE_NO":"９７號","E_COORD97":173887.67999999999,"N_COORD97":2570342.3500000001,"ADDRESS":"蚵寮街９７號","OBJECTID":495713},"geometry":{"x":173887.68000000063,"y":2570342.3500000015}},{"attributes":{"ID":495741,"DIS_CODE":0,"TOWNNAME":"永康區","LI":"\u25A0洲里","LIN":"8鄰","STREET":"中正南路","SECT":" ","MAREA":" ","LANE":" ","ALLEY":" ","HOUSE_NO":"８４７號","E_COORD97":171776.13,"N_COORD97":2549044.5,"ADDRESS":"中正南路８４７號","OBJECTID":495714},"geometry":{"x":171776.13000000082,"y":2549044.5}},{"attributes":{"ID":495742,"DIS_CODE":0,"TOWNNAME":"永康區","LI":"\u25A0洲里","LIN":"8鄰","STREET":"中正南路","SECT":" ","MAREA":" ","LANE":" ","ALLEY":" ","HOUSE_NO":"８５７號","E_COORD97":171790.06,"N_COORD97":2549056.9900000002,"ADDRESS":"中正南路８５７號","OBJECTID":495715},"geometry":{"x":171790.06000000052,"y":2549056.9900000021}},{"attributes":{"ID":495743,"DIS_CODE":0,"TOWNNAME":"下營區","LI":"仁里里","LIN":"8鄰","STREET":"蚵寮街","SECT":" ","MAREA":" ","LANE":" ","ALLEY":" ","HOUSE_NO":"９９號","E_COORD97":173882.82999999999,"N_COORD97":2570342.2400000002,"ADDRESS":"蚵寮街９９號","OBJECTID":495716},"geometry":{"x":173882.83000000007,"y":2570342.2400000039}},{"attributes":{"ID":495744,"DIS_CODE":0,"TOWNNAME":"下營區","LI":"仁里里","LIN":"8鄰","STREET":"蚵寮街","SECT":" ","MAREA":" ","LANE":" ","ALLEY":" ","HOUSE_NO":"６１號","E_COORD97":173988.87,"N_COORD97":2570318.71,"ADDRESS":"蚵寮街６１號","OBJECTID":495717},"geometry":{"x":173988.87000000104,"y":2570318.7100000009}},{"attributes":{"ID":495745,"DIS_CODE":0,"TOWNNAME":"下營區","LI":"仁里里","LIN":"8鄰","STREET":"蚵寮街","SECT":" ","MAREA":" ","LANE":" ","ALLEY":" ","HOUSE_NO":"６３號","E_COORD97":173978.35999999999,"N_COORD97":2570322.5499999998,"ADDRESS":"蚵寮街６３號","OBJECTID":495718},"geometry":{"x":173978.3600000022,"y":2570322.5500000007}},{"attributes":{"ID":495746,"DIS_CODE":0,"TOWNNAME":"下營區","LI":"仁里里","LIN":"8鄰","STREET":"蚵寮街","SECT":" ","MAREA":" ","LANE":" ","ALLEY":" ","HOUSE_NO":"６７號","E_COORD97":173970.32999999999,"N_COORD97":2570315.0800000001,"ADDRESS":"蚵寮街６７號","OBJECTID":495719},"geometry":{"x":173970.33000000101,"y":2570315.0800000001}},{"attributes":{"ID":495747,"DIS_CODE":0,"TOWNNAME":"東區","LI":"崇信里","LIN":"8鄰","STREET":"中華東路","SECT":"三段","MAREA":" ","LANE":" ","ALLEY":" ","HOUSE_NO":"４８號","E_COORD97":170867.04999999999,"N_COORD97":2542284.9199999999,"ADDRESS":"中華東路三段４８號","OBJECTID":495720},"geometry":{"x":170867.04999999981,"y":2542284.9199999999}},{"attributes":{"ID":495748,"DIS_CODE":0,"TOWNNAME":"東區","LI":"崇信里","LIN":"8鄰","STREET":"中華東路","SECT":"三段","MAREA":" ","LANE":" ","ALLEY":" ","HOUSE_NO":"５０號","E_COORD97":170864.26999999999,"N_COORD97":2542274.1299999999,"ADDRESS":"中華東路三段５０號","OBJECTID":495721},"geometry":{"x":170864.27000000048,"y":2542274.1300000008}},{"attributes":{"ID":495749,"DIS_CODE":0,"TOWNNAME":"東區","LI":"崇信里","LIN":"8鄰","STREET":"中華東路","SECT":"三段","MAREA":" ","LANE":" ","ALLEY":" ","HOUSE_NO":"５２號","E_COORD97":170861.35000000001,"N_COORD97":2542270.7799999998,"ADDRESS":"中華東路三段５２號","OBJECTID":495722},"geometry":{"x":170861.34999999963,"y":2542270.7799999993}},{"attributes":{"ID":495750,"DIS_CODE":0,"TOWNNAME":"東區","LI":"崇信里","LIN":"8鄰","STREET":"中華東路","SECT":"三段","MAREA":" ","LANE":" ","ALLEY":" ","HOUSE_NO":"５４號","E_COORD97":170859.31,"N_COORD97":2542268.2999999998,"ADDRESS":"中華東路三段５４號","OBJECTID":495723},"geometry":{"x":170859.31000000052,"y":2542268.3000000026}},{"attributes":{"ID":495751,"DIS_CODE":0,"TOWNNAME":"東區","LI":"崇信里","LIN":"8鄰","STREET":"中華東路","SECT":"三段","MAREA":" ","LANE":" ","ALLEY":" ","HOUSE_NO":"５６號","E_COORD97":170856.39000000001,"N_COORD97":2542265.3799999999,"ADDRESS":"中華東路三段５６號","OBJECTID":495724},"geometry":{"x":170856.38999999873,"y":2542265.3800000008}},{"attributes":{"ID":495752,"DIS_CODE":0,"TOWNNAME":"東區","LI":"崇信里","LIN":"8鄰","STREET":"中華東路","SECT":"三段","MAREA":" ","LANE":" ","ALLEY":" ","HOUSE_NO":"５８號","E_COORD97":170853.32000000001,"N_COORD97":2542262.6099999999,"ADDRESS":"中華東路三段５８號","OBJECTID":495725},"geometry":{"x":170853.32000000123,"y":2542262.6099999994}},{"attributes":{"ID":495753,"DIS_CODE":0,"TOWNNAME":"東區","LI":"崇信里","LIN":"8鄰","STREET":"中華東路","SECT":"三段","MAREA":" ","LANE":" ","ALLEY":" ","HOUSE_NO":"６０號","E_COORD97":170850.25,"N_COORD97":2542259.1099999999,"ADDRESS":"中華東路三段６０號","OBJECTID":495726},"geometry":{"x":170850.25,"y":2542259.1099999994}},{"attributes":{"ID":495754,"DIS_CODE":0,"TOWNNAME":"東區","LI":"崇信里","LIN":"8鄰","STREET":"中華東路","SECT":"三段","MAREA":" ","LANE":" ","ALLEY":" ","HOUSE_NO":"６２號","E_COORD97":170847.04000000001,"N_COORD97":2542255.1699999999,"ADDRESS":"中華東路三段６２號","OBJECTID":495727},"geometry":{"x":170847.04000000004,"y":2542255.1699999999}},{"attributes":{"ID":495755,"DIS_CODE":0,"TOWNNAME":"東區","LI":"崇信里","LIN":"8鄰","STREET":"中華東路","SECT":"三段","MAREA":" ","LANE":" ","ALLEY":" ","HOUSE_NO":"６４號","E_COORD97":170842.66,"N_COORD97":2542250.3599999999,"ADDRESS":"中華東路三段６４號","OBJECTID":495728},"geometry":{"x":170842.66000000015,"y":2542250.3599999994}},{"attributes":{"ID":495756,"DIS_CODE":0,"TOWNNAME":"東區","LI":"崇信里","LIN":"8鄰","STREET":"中華東路","SECT":"三段","MAREA":" ","LANE":" ","ALLEY":" ","HOUSE_NO":"６６號","E_COORD97":170838.72,"N_COORD97":2542245.2599999998,"ADDRESS":"中華東路三段６６號","OBJECTID":495729},"geometry":{"x":170838.71999999974,"y":2542245.2599999998}},{"attributes":{"ID":495757,"DIS_CODE":0,"TOWNNAME":"東區","LI":"崇信里","LIN":"8鄰","STREET":"中華東路","SECT":"三段","MAREA":" ","LANE":" ","ALLEY":" ","HOUSE_NO":"６８號","E_COORD97":170834.63,"N_COORD97":2542241.3199999998,"ADDRESS":"中華東路三段６８號","OBJECTID":495730},"geometry":{"x":170834.62999999896,"y":2542241.3200000003}},{"attributes":{"ID":495758,"DIS_CODE":0,"TOWNNAME":"東區","LI":"崇信里","LIN":"8鄰","STREET":"中華東路","SECT":"三段","MAREA":" ","LANE":" ","ALLEY":" ","HOUSE_NO":"７０號","E_COORD97":170830.98000000001,"N_COORD97":2542236.5099999998,"ADDRESS":"中華東路三段７０號","OBJECTID":495731},"geometry":{"x":170830.98000000045,"y":2542236.5099999998}},{"attributes":{"ID":495759,"DIS_CODE":0,"TOWNNAME":"東區","LI":"崇信里","LIN":"8鄰","STREET":"中華東路","SECT":"三段","MAREA":" ","LANE":" ","ALLEY":" ","HOUSE_NO":"７２號","E_COORD97":170828.20999999999,"N_COORD97":2542231.8399999999,"ADDRESS":"中華東路三段７２號","OBJECTID":495732},"geometry":{"x":170828.21000000089,"y":2542231.8400000036}},{"attributes":{"ID":495760,"DIS_CODE":0,"TOWNNAME":"東區","LI":"崇信里","LIN":"8鄰","STREET":"崇信街","SECT":" ","MAREA":" ","LANE":" ","ALLEY":" ","HOUSE_NO":"１２３號","E_COORD97":170805.29999999999,"N_COORD97":2542254.21,"ADDRESS":"崇信街１２３號","OBJECTID":495733},"geometry":{"x":170805.30000000075,"y":2542254.2100000046}},{"attributes":{"ID":495761,"DIS_CODE":0,"TOWNNAME":"東區","LI":"崇信里","LIN":"8鄰","STREET":"崇信街","SECT":" ","MAREA":" ","LANE":" ","ALLEY":" ","HOUSE_NO":"１２５號","E_COORD97":170808.94,"N_COORD97":2542250.5699999998,"ADDRESS":"崇信街１２５號","OBJECTID":495734},"geometry":{"x":170808.94000000041,"y":2542250.5700000003}},{"attributes":{"ID":495762,"DIS_CODE":0,"TOWNNAME":"東區","LI":"崇信里","LIN":"8鄰","STREET":"崇信街","SECT":" ","MAREA":" ","LANE":" ","ALLEY":" ","HOUSE_NO":"１２７號","E_COORD97":170811.97,"N_COORD97":2542246.8599999999,"ADDRESS":"崇信街１２７號","OBJECTID":495735},"geometry":{"x":170811.9700000016,"y":2542246.8599999994}},{"attributes":{"ID":495763,"DIS_CODE":0,"TOWNNAME":"東區","LI":"崇信里","LIN":"8鄰","STREET":"崇信街","SECT":" ","MAREA":" ","LANE":" ","ALLEY":" ","HOUSE_NO":"１２９號","E_COORD97":170816.22,"N_COORD97":2542243.1499999999,"ADDRESS":"崇信街１２９號","OBJECTID":495736},"geometry":{"x":170816.21999999974,"y":2542243.1500000004}},{"attributes":{"ID":495764,"DIS_CODE":0,"TOWNNAME":"東區","LI":"崇信里","LIN":"8鄰","STREET":"崇信街","SECT":" ","MAREA":" ","LANE":" ","ALLEY":" ","HOUSE_NO":"１３１號","E_COORD97":170820.48000000001,"N_COORD97":2542239.5,"ADDRESS":"崇信街１３１號","OBJECTID":495737},"geometry":{"x":170820.48000000045,"y":2542239.5}},{"attributes":{"ID":495765,"DIS_CODE":0,"TOWNNAME":"東區","LI":"崇信里","LIN":"8鄰","STREET":"崇信街","SECT":" ","MAREA":" ","LANE":" ","ALLEY":" ","HOUSE_NO":"１３３號","E_COORD97":170824.53,"N_COORD97":2542235.21,"ADDRESS":"崇信街１３３號","OBJECTID":495738},"geometry":{"x":170824.53000000119,"y":2542235.2100000028}},{"attributes":{"ID":495766,"DIS_CODE":0,"TOWNNAME":"永康區","LI":"崑山里","LIN":"8鄰","STREET":"大灣路","SECT":" ","MAREA":" ","LANE":" ","ALLEY":" ","HOUSE_NO":"９６３號","E_COORD97":173377.51000000001,"N_COORD97":2544350.5600000001,"ADDRESS":"大灣路９６３號","OBJECTID":495739},"geometry":{"x":173377.50999999978,"y":2544350.5600000024}},{"attributes":{"ID":495767,"DIS_CODE":0,"TOWNNAME":"下營區","LI":"仁里里","LIN":"8鄰","STREET":"蚵寮街","SECT":" ","MAREA":" ","LANE":" ","ALLEY":" ","HOUSE_NO":"８７號","E_COORD97":173922.31,"N_COORD97":2570339.1200000001,"ADDRESS":"蚵寮街８７號","OBJECTID":495740},"geometry":{"x":173922.31000000052,"y":2570339.120000001}},{"attributes":{"ID":495768,"DIS_CODE":0,"TOWNNAME":"永康區","LI":"\u25A0洲里","LIN":"8鄰","STREET":"\u25A0行路","SECT":" ","MAREA":" ","LANE":" ","ALLEY":" ","HOUSE_NO":"９號","E_COORD97":171789.98000000001,"N_COORD97":2549086.3100000001,"ADDRESS":"\u25A0行路９號","OBJECTID":495741},"geometry":{"x":171789.98000000045,"y":2549086.3100000005}},{"attributes":{"ID":495769,"DIS_CODE":0,"TOWNNAME":"北區","LI":"大道里","LIN":"8鄰","STREET":"和緯路","SECT":"一段","MAREA":" ","LANE":" ","ALLEY":" ","HOUSE_NO":"５８號","E_COORD97":169531.54999999999,"N_COORD97":2545559.5299999998,"ADDRESS":"和緯路一段５８號","OBJECTID":495742},"geometry":{"x":169531.54999999888,"y":2545559.5300000012}},{"attributes":{"ID":495770,"DIS_CODE":0,"TOWNNAME":"永康區","LI":"\u25A0行里","LIN":"8鄰","STREET":"中正路","SECT":" ","MAREA":" ","LANE":" ","ALLEY":" ","HOUSE_NO":"７１２號","E_COORD97":172422.56,"N_COORD97":2548479,"ADDRESS":"中正路７１２號","OBJECTID":495743},"geometry":{"x":172422.55999999959,"y":2548478.9999999981}},{"attributes":{"ID":495771,"DIS_CODE":0,"TOWNNAME":"永康區","LI":"\u25A0洲里","LIN":"8鄰","STREET":"\u25A0行路","SECT":" ","MAREA":" ","LANE":" ","ALLEY":" ","HOUSE_NO":"１９號","E_COORD97":171767.69,"N_COORD97":2549101.8199999998,"ADDRESS":"\u25A0行路１９號","OBJECTID":495744},"geometry":{"x":171767.69000000134,"y":2549101.8200000022}},{"attributes":{"ID":495772,"DIS_CODE":0,"TOWNNAME":"永康區","LI":"\u25A0行里","LIN":"8鄰","STREET":"中正五街","SECT":" ","MAREA":" ","LANE":" ","ALLEY":" ","HOUSE_NO":"７２號","E_COORD97":172740.12,"N_COORD97":2548443.4900000002,"ADDRESS":"中正五街７２號","OBJECTID":495745},"geometry":{"x":172740.12000000011,"y":2548443.4900000021}},{"attributes":{"ID":495773,"DIS_CODE":0,"TOWNNAME":"下營區","LI":"仁里里","LIN":"8鄰","STREET":"蚵寮街","SECT":" ","MAREA":" ","LANE":" ","ALLEY":" ","HOUSE_NO":"８９號","E_COORD97":173917.95999999999,"N_COORD97":2570339.3100000001,"ADDRESS":"蚵寮街８９號","OBJECTID":495746},"geometry":{"x":173917.96000000183,"y":2570339.3100000024}},{"attributes":{"ID":495774,"DIS_CODE":0,"TOWNNAME":"東區","LI":"路東里","LIN":"8鄰","STREET":"大同路","SECT":"二段","MAREA":" ","LANE":" ","ALLEY":" ","HOUSE_NO":"３９號","E_COORD97":169286.95000000001,"N_COORD97":2542302.8300000001,"ADDRESS":"大同路二段３９號","OBJECTID":495747},"geometry":{"x":169286.95000000205,"y":2542302.8300000001}},{"attributes":{"ID":495775,"DIS_CODE":0,"TOWNNAME":"東區","LI":"路東里","LIN":"8鄰","STREET":"大同路","SECT":"二段","MAREA":" ","LANE":" ","ALLEY":" ","HOUSE_NO":"４７號","E_COORD97":169293.47,"N_COORD97":2542286.27,"ADDRESS":"大同路二段４７號","OBJECTID":495748},"geometry":{"x":169293.47000000067,"y":2542286.2700000033}},{"attributes":{"ID":495776,"DIS_CODE":0,"TOWNNAME":"東區","LI":"路東里","LIN":"8鄰","STREET":"大同路","SECT":"二段","MAREA":" ","LANE":" ","ALLEY":" ","HOUSE_NO":"４９號","E_COORD97":169294.01999999999,"N_COORD97":2542281.9300000002,"ADDRESS":"大同路二段４９號","OBJECTID":495749},"geometry":{"x":169294.01999999955,"y":2542281.9300000034}},{"attributes":{"ID":495777,"DIS_CODE":0,"TOWNNAME":"東區","LI":"路東里","LIN":"8鄰","STREET":"大同路","SECT":"二段","MAREA":" ","LANE":" ","ALLEY":" ","HOUSE_NO":"５１號","E_COORD97":169295.47,"N_COORD97":2542277.52,"ADDRESS":"大同路二段５１號","OBJECTID":495750},"geometry":{"x":169295.47000000067,"y":2542277.5200000033}},{"attributes":{"ID":495778,"DIS_CODE":0,"TOWNNAME":"東區","LI":"路東里","LIN":"8鄰","STREET":"大同路","SECT":"二段","MAREA":" ","LANE":" ","ALLEY":" ","HOUSE_NO":"５１號之１","E_COORD97":169296.28,"N_COORD97":2542274.29,"ADDRESS":"大同路二段５１號之１","OBJECTID":495751},"geometry":{"x":169296.28000000026,"y":2542274.2899999991}},{"attributes":{"ID":495779,"DIS_CODE":0,"TOWNNAME":"東區","LI":"路東里","LIN":"8鄰","STREET":"大同路","SECT":"二段","MAREA":" ","LANE":" ","ALLEY":" ","HOUSE_NO":"５１號之２","E_COORD97":169299.5,"N_COORD97":2542271.4700000002,"ADDRESS":"大同路二段５１號之２","OBJECTID":495752},"geometry":{"x":169299.5,"y":2542271.4700000007}},{"attributes":{"ID":495780,"DIS_CODE":0,"TOWNNAME":"東區","LI":"路東里","LIN":"8鄰","STREET":"大同路","SECT":"二段","MAREA":" ","LANE":" ","ALLEY":" ","HOUSE_NO":"５１號之３","E_COORD97":169306.69,"N_COORD97":2542269.4700000002,"ADDRESS":"大同路二段５１號之３","OBJECTID":495753},"geometry":{"x":169306.69000000134,"y":2542269.4700000025}},{"attributes":{"ID":495781,"DIS_CODE":0,"TOWNNAME":"歸仁區","LI":"後市里","LIN":"8鄰","STREET":"中山五街","SECT":" ","MAREA":" ","LANE":" ","ALLEY":" ","HOUSE_NO":"２９號","E_COORD97":177101.79000000001,"N_COORD97":2540731.25,"ADDRESS":"中山五街２９號","OBJECTID":495754},"geometry":{"x":177101.79000000097,"y":2540731.2500000019}},{"attributes":{"ID":495782,"DIS_CODE":0,"TOWNNAME":"歸仁區","LI":"新厝里","LIN":"8鄰","STREET":"中正三街","SECT":" ","MAREA":" ","LANE":" ","ALLEY":" ","HOUSE_NO":"６４號","E_COORD97":177765.5,"N_COORD97":2540555.27,"ADDRESS":"中正三街６４號","OBJECTID":495755},"geometry":{"x":177765.5,"y":2540555.2700000014}},{"attributes":{"ID":495783,"DIS_CODE":0,"TOWNNAME":"歸仁區","LI":"歸南里","LIN":"8鄰","STREET":"中正十六街","SECT":" ","MAREA":" ","LANE":" ","ALLEY":" ","HOUSE_NO":"１７號","E_COORD97":176532.26000000001,"N_COORD97":2539873.9500000002,"ADDRESS":"中正十六街１７號","OBJECTID":495756},"geometry":{"x":176532.25999999978,"y":2539873.950000003}},{"attributes":{"ID":495784,"DIS_CODE":0,"TOWNNAME":"歸仁區","LI":"許厝里","LIN":"8鄰","STREET":"公園路","SECT":" ","MAREA":" ","LANE":" ","ALLEY":" ","HOUSE_NO":"１２號","E_COORD97":178231.82999999999,"N_COORD97":2540580.7999999998,"ADDRESS":"公園路１２號","OBJECTID":495757},"geometry":{"x":178231.83000000101,"y":2540580.8000000007}},{"attributes":{"ID":495785,"DIS_CODE":0,"TOWNNAME":"歸仁區","LI":"崙頂里","LIN":"8鄰","STREET":"崙頂五街","SECT":" ","MAREA":" ","LANE":" ","ALLEY":" ","HOUSE_NO":"９９號","E_COORD97":178048.92999999999,"N_COORD97":2539865.25,"ADDRESS":"崙頂五街９９號","OBJECTID":495758},"geometry":{"x":178048.93000000156,"y":2539865.25}},{"attributes":{"ID":495786,"DIS_CODE":0,"TOWNNAME":"歸仁區","LI":"崙頂里","LIN":"8鄰","STREET":"崙頂三街","SECT":" ","MAREA":" ","LANE":" ","ALLEY":" ","HOUSE_NO":"５６號","E_COORD97":177980.10999999999,"N_COORD97":2539915.1099999999,"ADDRESS":"崙頂三街５６號","OBJECTID":495759},"geometry":{"x":177980.11000000034,"y":2539915.1100000013}},{"attributes":{"ID":495787,"DIS_CODE":0,"TOWNNAME":"安平區","LI":"建平里","LIN":"8鄰","STREET":"府前三街","SECT":" ","MAREA":" ","LANE":" ","ALLEY":" ","HOUSE_NO":"９０號","E_COORD97":166536.23000000001,"N_COORD97":2543872.3999999999,"ADDRESS":"府前三街９０號","OBJECTID":495760},"geometry":{"x":166536.23000000138,"y":2543872.4000000004}},{"attributes":{"ID":495788,"DIS_CODE":0,"TOWNNAME":"安平區","LI":"平通里","LIN":"8鄰","STREET":"健康三街","SECT":" ","MAREA":" ","LANE":" ","ALLEY":" ","HOUSE_NO":"５９６號","E_COORD97":164873.78,"N_COORD97":2544213.2200000002,"ADDRESS":"健康三街５９６號","OBJECTID":495761},"geometry":{"x":164873.77999999933,"y":2544213.2200000044}},{"attributes":{"ID":495789,"DIS_CODE":0,"TOWNNAME":"安平區","LI":"平通里","LIN":"8鄰","STREET":"健康三街","SECT":" ","MAREA":" ","LANE":" ","ALLEY":" ","HOUSE_NO":"５９８號","E_COORD97":164873.78,"N_COORD97":2544217.8199999998,"ADDRESS":"健康三街５９８號","OBJECTID":495762},"geometry":{"x":164873.77999999933,"y":2544217.8200000003}},{"attributes":{"ID":495790,"DIS_CODE":0,"TOWNNAME":"安平區","LI":"平通里","LIN":"8鄰","STREET":"健康三街","SECT":" ","MAREA":" ","LANE":" ","ALLEY":" ","HOUSE_NO":"６００號","E_COORD97":164874.25,"N_COORD97":2544223.0600000001,"ADDRESS":"健康三街６００號","OBJECTID":495763},"geometry":{"x":164874.25000000093,"y":2544223.0600000005}},{"attributes":{"ID":495791,"DIS_CODE":0,"TOWNNAME":"安平區","LI":"平通里","LIN":"8鄰","STREET":"健康三街","SECT":" ","MAREA":" ","LANE":" ","ALLEY":" ","HOUSE_NO":"６０２號","E_COORD97":164874.25,"N_COORD97":2544227.5099999998,"ADDRESS":"健康三街６０２號","OBJECTID":495764},"geometry":{"x":164874.25000000093,"y":2544227.5100000035}},{"attributes":{"ID":495792,"DIS_CODE":0,"TOWNNAME":"北區","LI":"大道里","LIN":"8鄰","STREET":"和緯路","SECT":"一段","MAREA":" ","LANE":" ","ALLEY":" ","HOUSE_NO":"５６號","E_COORD97":169536.63,"N_COORD97":2545557.6299999999,"ADDRESS":"和緯路一段５６號","OBJECTID":495765},"geometry":{"x":169536.63000000082,"y":2545557.629999999}},{"attributes":{"ID":495793,"DIS_CODE":0,"TOWNNAME":"新營區","LI":"興安里","LIN":"8鄰","STREET":"新進路","SECT":" ","MAREA":" ","LANE":" ","ALLEY":" ","HOUSE_NO":"２６５號","E_COORD97":179999.63,"N_COORD97":2577816.3399999999,"ADDRESS":"新進路２６５號","OBJECTID":495766},"geometry":{"x":179999.63000000082,"y":2577816.3399999999}},{"attributes":{"ID":495794,"DIS_CODE":0,"TOWNNAME":"新營區","LI":"三仙里","LIN":"8鄰","STREET":"中華路","SECT":" ","MAREA":" ","LANE":" ","ALLEY":" ","HOUSE_NO":"４３號","E_COORD97":179666.73000000001,"N_COORD97":2578197.7599999998,"ADDRESS":"中華路４３號","OBJECTID":495767},"geometry":{"x":179666.73000000231,"y":2578197.7600000016}},{"attributes":{"ID":495795,"DIS_CODE":0,"TOWNNAME":"南區","LI":"新興里","LIN":"8鄰","STREET":"健康路","SECT":"二段","MAREA":" ","LANE":" ","ALLEY":" ","HOUSE_NO":"７５號","E_COORD97":167526.76999999999,"N_COORD97":2542439.8599999999,"ADDRESS":"健康路二段７５號","OBJECTID":495768},"geometry":{"x":167526.77000000048,"y":2542439.8599999994}},{"attributes":{"ID":495796,"DIS_CODE":0,"TOWNNAME":"南區","LI":"新興里","LIN":"8鄰","STREET":"健康路","SECT":"二段","MAREA":" ","LANE":" ","ALLEY":" ","HOUSE_NO":"８１號","E_COORD97":167520.85999999999,"N_COORD97":2542439.8599999999,"ADDRESS":"健康路二段８１號","OBJECTID":495769},"geometry":{"x":167520.86000000034,"y":2542439.8599999994}},{"attributes":{"ID":495797,"DIS_CODE":0,"TOWNNAME":"南區","LI":"新興里","LIN":"8鄰","STREET":"健康路","SECT":"二段","MAREA":" ","LANE":" ","ALLEY":" ","HOUSE_NO":"８５號","E_COORD97":167498.01999999999,"N_COORD97":2542437.46,"ADDRESS":"健康路二段８５號","OBJECTID":495770},"geometry":{"x":167498.02000000048,"y":2542437.4600000009}},{"attributes":{"ID":495798,"DIS_CODE":0,"TOWNNAME":"玉井區","LI":"中正里","LIN":"8鄰","STREET":"健康街","SECT":" ","MAREA":" ","LANE":" ","ALLEY":" ","HOUSE_NO":"８１號","E_COORD97":195536.23000000001,"N_COORD97":2558871.2999999998,"ADDRESS":"健康街８１號","OBJECTID":495771},"geometry":{"x":195536.23000000045,"y":2558871.3000000007}},{"attributes":{"ID":495799,"DIS_CODE":0,"TOWNNAME":"安平區","LI":"國平里","LIN":"8鄰","STREET":"建平三街","SECT":" ","MAREA":" ","LANE":" ","ALLEY":" ","HOUSE_NO":"２１１號","E_COORD97":165417.95000000001,"N_COORD97":2542954.4300000002,"ADDRESS":"建平三街２１１號","OBJECTID":495772},"geometry":{"x":165417.95000000019,"y":2542954.4300000016}},{"attributes":{"ID":495800,"DIS_CODE":0,"TOWNNAME":"安平區","LI":"國平里","LIN":"8鄰","STREET":"建平三街","SECT":" ","MAREA":" ","LANE":" ","ALLEY":" ","HOUSE_NO":"１７５號","E_COORD97":165509.70999999999,"N_COORD97":2542941.5499999998,"ADDRESS":"建平三街１７５號","OBJECTID":495773},"geometry":{"x":165509.71000000183,"y":2542941.5500000007}},{"attributes":{"ID":495801,"DIS_CODE":0,"TOWNNAME":"安平區","LI":"國平里","LIN":"8鄰","STREET":"建平三街","SECT":" ","MAREA":" ","LANE":" ","ALLEY":" ","HOUSE_NO":"１７７號","E_COORD97":165505.73000000001,"N_COORD97":2542943.2599999998,"ADDRESS":"建平三街１７７號","OBJECTID":495774},"geometry":{"x":165505.73000000138,"y":2542943.2599999998}},{"attributes":{"ID":495802,"DIS_CODE":0,"TOWNNAME":"安平區","LI":"國平里","LIN":"8鄰","STREET":"建平三街","SECT":" ","MAREA":" ","LANE":" ","ALLEY":" ","HOUSE_NO":"１７９號","E_COORD97":165500.88,"N_COORD97":2542944.1099999999,"ADDRESS":"建平三街１７９號","OBJECTID":495775},"geometry":{"x":165500.87999999989,"y":2542944.1099999994}},{"attributes":{"ID":495803,"DIS_CODE":0,"TOWNNAME":"安平區","LI":"國平里","LIN":"8鄰","STREET":"建平三街","SECT":" ","MAREA":" ","LANE":" ","ALLEY":" ","HOUSE_NO":"２１５號","E_COORD97":165408.95000000001,"N_COORD97":2542955.5,"ADDRESS":"建平三街２１５號","OBJECTID":495776},"geometry":{"x":165408.95000000112,"y":2542955.5}},{"attributes":{"ID":495804,"DIS_CODE":0,"TOWNNAME":"玉井區","LI":"竹圍里","LIN":"8鄰","STREET":"武成街","SECT":" ","MAREA":" ","LANE":" ","ALLEY":" ","HOUSE_NO":"７５號","E_COORD97":196064.51999999999,"N_COORD97":2559032.1800000002,"ADDRESS":"武成街７５號","OBJECTID":495777},"geometry":{"x":196064.51999999862,"y":2559032.1800000034}},{"attributes":{"ID":495805,"DIS_CODE":0,"TOWNNAME":"安平區","LI":"華平里","LIN":"8鄰","STREET":"健康二街","SECT":" ","MAREA":" ","LANE":" ","ALLEY":" ","HOUSE_NO":"４９６號","E_COORD97":165369.88,"N_COORD97":2543961.6099999999,"ADDRESS":"健康二街４９６號","OBJECTID":495778},"geometry":{"x":165369.88000000082,"y":2543961.6099999975}},{"attributes":{"ID":495806,"DIS_CODE":0,"TOWNNAME":"安平區","LI":"華平里","LIN":"8鄰","STREET":"健康二街","SECT":" ","MAREA":" ","LANE":" ","ALLEY":" ","HOUSE_NO":"４９６號之１","E_COORD97":165370.45999999999,"N_COORD97":2543964.3799999999,"ADDRESS":"健康二街４９６號之１","OBJECTID":495779},"geometry":{"x":165370.45999999996,"y":2543964.3800000008}},{"attributes":{"ID":495807,"DIS_CODE":0,"TOWNNAME":"安平區","LI":"華平里","LIN":"8鄰","STREET":"健康二街","SECT":" ","MAREA":" ","LANE":" ","ALLEY":" ","HOUSE_NO":"４９８號","E_COORD97":165371.34,"N_COORD97":2543967.73,"ADDRESS":"健康二街４９８號","OBJECTID":495780},"geometry":{"x":165371.34000000171,"y":2543967.7300000004}},{"attributes":{"ID":495808,"DIS_CODE":0,"TOWNNAME":"歸仁區","LI":"後市里","LIN":"8鄰","STREET":"中山五街","SECT":" ","MAREA":" ","LANE":" ","ALLEY":" ","HOUSE_NO":"３３號","E_COORD97":177102.79000000001,"N_COORD97":2540724.25,"ADDRESS":"中山五街３３號","OBJECTID":495781},"geometry":{"x":177102.79000000097,"y":2540724.2500000019}},{"attributes":{"ID":495809,"DIS_CODE":0,"TOWNNAME":"歸仁區","LI":"文化里","LIN":"8鄰","STREET":"文化北街","SECT":" ","MAREA":" ","LANE":" ","ALLEY":" ","HOUSE_NO":"１２７號","E_COORD97":177155.91,"N_COORD97":2541403.3399999999,"ADDRESS":"文化北街１２７號","OBJECTID":495782},"geometry":{"x":177155.91000000015,"y":2541403.3399999999}},{"attributes":{"ID":495810,"DIS_CODE":0,"TOWNNAME":"玉井區","LI":"中正里","LIN":"8鄰","STREET":"健康街","SECT":" ","MAREA":" ","LANE":" ","ALLEY":" ","HOUSE_NO":"２３號","E_COORD97":195651.14000000001,"N_COORD97":2558834.2999999998,"ADDRESS":"健康街２３號","OBJECTID":495783},"geometry":{"x":195651.1400000006,"y":2558834.3000000007}},{"attributes":{"ID":495811,"DIS_CODE":0,"TOWNNAME":"北區","LI":"裕民里","LIN":"8鄰","STREET":"金華路","SECT":"五段","MAREA":" ","LANE":" ","ALLEY":" ","HOUSE_NO":"２９之１號","E_COORD97":167618.84,"N_COORD97":2544782.8199999998,"ADDRESS":"金華路五段２９之１號","OBJECTID":495784},"geometry":{"x":167618.83999999985,"y":2544782.8200000022}},{"attributes":{"ID":495812,"DIS_CODE":0,"TOWNNAME":"南區","LI":"南都里","LIN":"8鄰","STREET":"中華南路","SECT":"二段","MAREA":" ","LANE":" ","ALLEY":" ","HOUSE_NO":"２９１號","E_COORD97":166522.37,"N_COORD97":2540259.7000000002,"ADDRESS":"中華南路二段２９１號","OBJECTID":495785},"geometry":{"x":166522.36999999918,"y":2540259.7000000011}},{"attributes":{"ID":495813,"DIS_CODE":0,"TOWNNAME":"南區","LI":"南都里","LIN":"8鄰","STREET":"中華南路","SECT":"二段","MAREA":" ","LANE":" ","ALLEY":" ","HOUSE_NO":"２９３號","E_COORD97":166518.13,"N_COORD97":2540257.1600000001,"ADDRESS":"中華南路二段２９３號","OBJECTID":495786},"geometry":{"x":166518.12999999989,"y":2540257.160000002}},{"attributes":{"ID":495814,"DIS_CODE":0,"TOWNNAME":"南區","LI":"南都里","LIN":"8鄰","STREET":"中華南路","SECT":"二段","MAREA":" ","LANE":" ","ALLEY":" ","HOUSE_NO":"２９５號","E_COORD97":166514.17000000001,"N_COORD97":2540259.4199999999,"ADDRESS":"中華南路二段２９５號","OBJECTID":495787},"geometry":{"x":166514.17000000086,"y":2540259.4200000018}},{"attributes":{"ID":495815,"DIS_CODE":0,"TOWNNAME":"南區","LI":"南都里","LIN":"8鄰","STREET":"中華南路","SECT":"二段","MAREA":" ","LANE":" ","ALLEY":" ","HOUSE_NO":"２９７號","E_COORD97":166509.92999999999,"N_COORD97":2540257.1600000001,"ADDRESS":"中華南路二段２９７號","OBJECTID":495788},"geometry":{"x":166509.93000000156,"y":2540257.160000002}},{"attributes":{"ID":495816,"DIS_CODE":0,"TOWNNAME":"南區","LI":"南都里","LIN":"8鄰","STREET":"中華南路","SECT":"二段","MAREA":" ","LANE":" ","ALLEY":" ","HOUSE_NO":"２９９號","E_COORD97":166504.28,"N_COORD97":2540259.4199999999,"ADDRESS":"中華南路二段２９９號","OBJECTID":495789},"geometry":{"x":166504.28000000026,"y":2540259.4200000018}},{"attributes":{"ID":495817,"DIS_CODE":0,"TOWNNAME":"南區","LI":"南都里","LIN":"8鄰","STREET":"中華南路","SECT":"二段","MAREA":" ","LANE":" ","ALLEY":" ","HOUSE_NO":"３０１號","E_COORD97":166500.04000000001,"N_COORD97":2540257.1600000001,"ADDRESS":"中華南路二段３０１號","OBJECTID":495790},"geometry":{"x":166500.04000000097,"y":2540257.160000002}},{"attributes":{"ID":495818,"DIS_CODE":0,"TOWNNAME":"南區","LI":"南都里","LIN":"8鄰","STREET":"中華南路","SECT":"二段","MAREA":" ","LANE":" ","ALLEY":" ","HOUSE_NO":"３０３號","E_COORD97":166495.51000000001,"N_COORD97":2540259.4199999999,"ADDRESS":"中華南路二段３０３號","OBJECTID":495791},"geometry":{"x":166495.50999999978,"y":2540259.4200000018}},{"attributes":{"ID":495819,"DIS_CODE":0,"TOWNNAME":"南區","LI":"南都里","LIN":"8鄰","STREET":"中華南路","SECT":"二段","MAREA":" ","LANE":" ","ALLEY":" ","HOUSE_NO":"３０５號","E_COORD97":166490.98999999999,"N_COORD97":2540257.1600000001,"ADDRESS":"中華南路二段３０５號","OBJECTID":495792},"geometry":{"x":166490.99000000022,"y":2540257.160000002}},{"attributes":{"ID":495820,"DIS_CODE":0,"TOWNNAME":"南區","LI":"南都里","LIN":"8鄰","STREET":"中華南路","SECT":"二段","MAREA":" ","LANE":" ","ALLEY":" ","HOUSE_NO":"３０７號","E_COORD97":166486.17999999999,"N_COORD97":2540259.1400000001,"ADDRESS":"中華南路二段３０７號","OBJECTID":495793},"geometry":{"x":166486.18000000156,"y":2540259.1400000006}},{"attributes":{"ID":495821,"DIS_CODE":0,"TOWNNAME":"南區","LI":"南都里","LIN":"8鄰","STREET":"中華南路","SECT":"二段","MAREA":" ","LANE":" ","ALLEY":" ","HOUSE_NO":"３０９號","E_COORD97":166482.22,"N_COORD97":2540256.8799999999,"ADDRESS":"中華南路二段３０９號","OBJECTID":495794},"geometry":{"x":166482.21999999974,"y":2540256.879999999}},{"attributes":{"ID":495822,"DIS_CODE":0,"TOWNNAME":"南區","LI":"南都里","LIN":"8鄰","STREET":"中華南路","SECT":"二段","MAREA":" ","LANE":" ","ALLEY":" ","HOUSE_NO":"３１１號","E_COORD97":166478.26000000001,"N_COORD97":2540259.4199999999,"ADDRESS":"中華南路二段３１１號","OBJECTID":495795},"geometry":{"x":166478.25999999978,"y":2540259.4200000018}},{"attributes":{"ID":495823,"DIS_CODE":0,"TOWNNAME":"南區","LI":"南都里","LIN":"8鄰","STREET":"中華南路","SECT":"二段","MAREA":" ","LANE":" ","ALLEY":" ","HOUSE_NO":"３１３號","E_COORD97":166474.31,"N_COORD97":2540256.8799999999,"ADDRESS":"中華南路二段３１３號","OBJECTID":495796},"geometry":{"x":166474.30999999959,"y":2540256.879999999}},{"attributes":{"ID":495824,"DIS_CODE":0,"TOWNNAME":"南區","LI":"廣州里","LIN":"8鄰","STREET":"夏林路","SECT":" ","MAREA":" ","LANE":" ","ALLEY":" ","HOUSE_NO":"１號之２６","E_COORD97":167482.19,"N_COORD97":2542951.9300000002,"ADDRESS":"夏林路１號之２６","OBJECTID":495797},"geometry":{"x":167482.19000000134,"y":2542951.9299999997}},{"attributes":{"ID":495825,"DIS_CODE":0,"TOWNNAME":"北區","LI":"文元里","LIN":"8鄰","STREET":"中華北路","SECT":"二段","MAREA":" ","LANE":" ","ALLEY":" ","HOUSE_NO":"４８號","E_COORD97":167545.39999999999,"N_COORD97":2546585.0099999998,"ADDRESS":"中華北路二段４８號","OBJECTID":495798},"geometry":{"x":167545.4000000013,"y":2546585.0100000016}},{"attributes":{"ID":495826,"DIS_CODE":0,"TOWNNAME":"北區","LI":"大道里","LIN":"8鄰","STREET":"和緯路","SECT":"一段","MAREA":" ","LANE":" ","ALLEY":" ","HOUSE_NO":"５２號","E_COORD97":169540.76000000001,"N_COORD97":2545556.04,"ADDRESS":"和緯路一段５２號","OBJECTID":495799},"geometry":{"x":169540.76000000071,"y":2545556.040000001}},{"attributes":{"ID":495827,"DIS_CODE":0,"TOWNNAME":"北區","LI":"大道里","LIN":"8鄰","STREET":"和緯路","SECT":"一段","MAREA":" ","LANE":" ","ALLEY":" ","HOUSE_NO":"４８號","E_COORD97":169549.64999999999,"N_COORD97":2545553.1800000002,"ADDRESS":"和緯路一段４８號","OBJECTID":495800},"geometry":{"x":169549.65000000037,"y":2545553.1800000016}}]}