{"displayFieldName":"TOWNNAME","fieldAliases":{"ID":"ID","DIS_CODE":"DIS_CODE","TOWNNAME":"TOWNNAME","LI":"LI","LIN":"LIN","STREET":"STREET","SECT":"SECT","MAREA":"MAREA","LANE":"LANE","ALLEY":"ALLEY","HOUSE_NO":"HOUSE_NO","E_COORD97":"E_COORD97","N_COORD97":"N_COORD97","ADDRESS":"ADDRESS","OBJECTID":"OBJECTID"},"geometryType":"esriGeometryPoint","spatialReference":{"wkid":102443,"latestWkid":3826},"fields":[{"name":"ID","type":"esriFieldTypeDouble","alias":"ID"},{"name":"DIS_CODE","type":"esriFieldTypeInteger","alias":"DIS_CODE"},{"name":"TOWNNAME","type":"esriFieldTypeString","alias":"TOWNNAME","length":8},{"name":"LI","type":"esriFieldTypeString","alias":"LI","length":8},{"name":"LIN","type":"esriFieldTypeString","alias":"LIN","length":12},{"name":"STREET","type":"esriFieldTypeString","alias":"STREET","length":20},{"name":"SECT","type":"esriFieldTypeString","alias":"SECT","length":8},{"name":"MAREA","type":"esriFieldTypeString","alias":"MAREA","length":12},{"name":"LANE","type":"esriFieldTypeString","alias":"LANE","length":10},{"name":"ALLEY","type":"esriFieldTypeString","alias":"ALLEY","length":10},{"name":"HOUSE_NO","type":"esriFieldTypeString","alias":"HOUSE_NO","length":20},{"name":"E_COORD97","type":"esriFieldTypeDouble","alias":"E_COORD97"},{"name":"N_COORD97","type":"esriFieldTypeDouble","alias":"N_COORD97"},{"name":"ADDRESS","type":"esriFieldTypeString","alias":"ADDRESS","length":50},{"name":"OBJECTID","type":"esriFieldTypeOID","alias":"OBJECTID"}],"features":[{"attributes":{"ID":279007,"DIS_CODE":0,"TOWNNAME":"安南區","LI":"安富里","LIN":"31鄰","STREET":"海佃路","SECT":"一段","MAREA":" ","LANE":"１５８巷","ALLEY":" ","HOUSE_NO":"９６號","E_COORD97":167427.41,"N_COORD97":2547230.52,"ADDRESS":"海佃路一段１５８巷９６號","OBJECTID":279001},"geometry":{"x":167427.40999999922,"y":2547230.5199999996}},{"attributes":{"ID":279008,"DIS_CODE":0,"TOWNNAME":"永康區","LI":"崑山里","LIN":"31鄰","STREET":"崑山街","SECT":" ","MAREA":" ","LANE":"９６巷","ALLEY":" ","HOUSE_NO":"２６號","E_COORD97":174049.45000000001,"N_COORD97":2544718.9100000001,"ADDRESS":"崑山街９６巷２６號","OBJECTID":279002},"geometry":{"x":174049.45000000112,"y":2544718.9100000001}},{"attributes":{"ID":279009,"DIS_CODE":0,"TOWNNAME":"永康區","LI":"崑山里","LIN":"31鄰","STREET":"崑山街","SECT":" ","MAREA":" ","LANE":"９６巷","ALLEY":" ","HOUSE_NO":"１３號","E_COORD97":174027.95000000001,"N_COORD97":2544739.2200000002,"ADDRESS":"崑山街９６巷１３號","OBJECTID":279003},"geometry":{"x":174027.95000000019,"y":2544739.2200000025}},{"attributes":{"ID":279010,"DIS_CODE":0,"TOWNNAME":"永康區","LI":"埔園里","LIN":"31鄰","STREET":"永大路","SECT":"三段","MAREA":" ","LANE":"４６９巷","ALLEY":" ","HOUSE_NO":"１２３號","E_COORD97":173664.70999999999,"N_COORD97":2548790.48,"ADDRESS":"永大路三段４６９巷１２３號","OBJECTID":279004},"geometry":{"x":173664.70999999996,"y":2548790.4800000004}},{"attributes":{"ID":279011,"DIS_CODE":0,"TOWNNAME":"永康區","LI":"埔園里","LIN":"31鄰","STREET":"八德街","SECT":" ","MAREA":" ","LANE":"１４０巷","ALLEY":" ","HOUSE_NO":"１１號","E_COORD97":173985.39999999999,"N_COORD97":2548630.2599999998,"ADDRESS":"八德街１４０巷１１號","OBJECTID":279005},"geometry":{"x":173985.4000000013,"y":2548630.2600000016}},{"attributes":{"ID":279012,"DIS_CODE":0,"TOWNNAME":"永康區","LI":"埔園里","LIN":"31鄰","STREET":"八德街","SECT":" ","MAREA":" ","LANE":"１４０巷","ALLEY":" ","HOUSE_NO":"１３號","E_COORD97":173986.16,"N_COORD97":2548633.7999999998,"ADDRESS":"八德街１４０巷１３號","OBJECTID":279006},"geometry":{"x":173986.16000000201,"y":2548633.8000000045}},{"attributes":{"ID":279013,"DIS_CODE":0,"TOWNNAME":"永康區","LI":"埔園里","LIN":"31鄰","STREET":"八德街","SECT":" ","MAREA":" ","LANE":"１４０巷","ALLEY":" ","HOUSE_NO":"１５號","E_COORD97":173986.73000000001,"N_COORD97":2548637.2200000002,"ADDRESS":"八德街１４０巷１５號","OBJECTID":279007},"geometry":{"x":173986.73000000138,"y":2548637.2200000007}},{"attributes":{"ID":279014,"DIS_CODE":0,"TOWNNAME":"永康區","LI":"埔園里","LIN":"31鄰","STREET":"八德街","SECT":" ","MAREA":" ","LANE":"１４０巷","ALLEY":" ","HOUSE_NO":"１７號","E_COORD97":173987.63,"N_COORD97":2548640.96,"ADDRESS":"八德街１４０巷１７號","OBJECTID":279008},"geometry":{"x":173987.62999999989,"y":2548640.9600000028}},{"attributes":{"ID":279015,"DIS_CODE":0,"TOWNNAME":"永康區","LI":"埔園里","LIN":"31鄰","STREET":"八德街","SECT":" ","MAREA":" ","LANE":"１４０巷","ALLEY":" ","HOUSE_NO":"１９號","E_COORD97":173988.07000000001,"N_COORD97":2548644.4500000002,"ADDRESS":"八德街１４０巷１９號","OBJECTID":279009},"geometry":{"x":173988.0700000003,"y":2548644.4499999993}},{"attributes":{"ID":279016,"DIS_CODE":0,"TOWNNAME":"永康區","LI":"埔園里","LIN":"31鄰","STREET":"八德街","SECT":" ","MAREA":" ","LANE":"１４０巷","ALLEY":" ","HOUSE_NO":"２１號","E_COORD97":173988.59,"N_COORD97":2548647.5699999998,"ADDRESS":"八德街１４０巷２１號","OBJECTID":279010},"geometry":{"x":173988.59000000078,"y":2548647.5700000003}},{"attributes":{"ID":279017,"DIS_CODE":0,"TOWNNAME":"永康區","LI":"埔園里","LIN":"31鄰","STREET":"八德街","SECT":" ","MAREA":" ","LANE":"１４０巷","ALLEY":" ","HOUSE_NO":"７號","E_COORD97":173983.79000000001,"N_COORD97":2548623.3900000001,"ADDRESS":"八德街１４０巷７號","OBJECTID":279011},"geometry":{"x":173983.79000000097,"y":2548623.3900000025}},{"attributes":{"ID":279018,"DIS_CODE":0,"TOWNNAME":"永康區","LI":"埔園里","LIN":"31鄰","STREET":"八德街","SECT":" ","MAREA":" ","LANE":"１４０巷","ALLEY":" ","HOUSE_NO":"９號","E_COORD97":173984.10999999999,"N_COORD97":2548627,"ADDRESS":"八德街１４０巷９號","OBJECTID":279012},"geometry":{"x":173984.11000000127,"y":2548627}},{"attributes":{"ID":279019,"DIS_CODE":0,"TOWNNAME":"永康區","LI":"大灣里","LIN":"31鄰","STREET":"民族路","SECT":" ","MAREA":" ","LANE":"１２６巷","ALLEY":" ","HOUSE_NO":"２９號","E_COORD97":175375.37,"N_COORD97":2545006.6800000002,"ADDRESS":"民族路１２６巷２９號","OBJECTID":279013},"geometry":{"x":175375.37000000104,"y":2545006.6800000016}},{"attributes":{"ID":279020,"DIS_CODE":0,"TOWNNAME":"永康區","LI":"大灣里","LIN":"31鄰","STREET":"民族路","SECT":" ","MAREA":" ","LANE":"１２６巷","ALLEY":" ","HOUSE_NO":"３９號","E_COORD97":175392,"N_COORD97":2544970.2599999998,"ADDRESS":"民族路１２６巷３９號","OBJECTID":279014},"geometry":{"x":175392,"y":2544970.2599999998}},{"attributes":{"ID":279021,"DIS_CODE":0,"TOWNNAME":"永康區","LI":"埔園里","LIN":"31鄰","STREET":"永大路","SECT":"三段","MAREA":" ","LANE":"４６９巷","ALLEY":" ","HOUSE_NO":"１０號","E_COORD97":173988.75,"N_COORD97":2548765.27,"ADDRESS":"永大路三段４６９巷１０號","OBJECTID":279015},"geometry":{"x":173988.75000000186,"y":2548765.2700000033}},{"attributes":{"ID":279022,"DIS_CODE":0,"TOWNNAME":"東區","LI":"後甲里","LIN":"1鄰","STREET":"裕農路","SECT":" ","MAREA":" ","LANE":" ","ALLEY":" ","HOUSE_NO":"８１１號","E_COORD97":172191.787828,"N_COORD97":2543321.7239600001,"ADDRESS":"裕農路８１１號","OBJECTID":279016},"geometry":{"x":172191.78782800026,"y":2543321.723960001}},{"attributes":{"ID":279023,"DIS_CODE":0,"TOWNNAME":"永康區","LI":"埔園里","LIN":"31鄰","STREET":"永大路","SECT":"三段","MAREA":" ","LANE":"４６９巷","ALLEY":" ","HOUSE_NO":"１２號","E_COORD97":173984.17999999999,"N_COORD97":2548765.9300000002,"ADDRESS":"永大路三段４６９巷１２號","OBJECTID":279017},"geometry":{"x":173984.18000000063,"y":2548765.9299999997}},{"attributes":{"ID":279024,"DIS_CODE":0,"TOWNNAME":"永康區","LI":"埔園里","LIN":"31鄰","STREET":"永大路","SECT":"三段","MAREA":" ","LANE":"４６９巷","ALLEY":" ","HOUSE_NO":"１６號","E_COORD97":173979.23999999999,"N_COORD97":2548766.6699999999,"ADDRESS":"永大路三段４６９巷１６號","OBJECTID":279018},"geometry":{"x":173979.24000000115,"y":2548766.6700000018}},{"attributes":{"ID":279025,"DIS_CODE":0,"TOWNNAME":"永康區","LI":"埔園里","LIN":"31鄰","STREET":"永大路","SECT":"三段","MAREA":" ","LANE":"４６９巷","ALLEY":" ","HOUSE_NO":"１８號","E_COORD97":173974.85999999999,"N_COORD97":2548767.23,"ADDRESS":"永大路三段４６９巷１８號","OBJECTID":279019},"geometry":{"x":173974.8600000022,"y":2548767.2300000023}},{"attributes":{"ID":279026,"DIS_CODE":0,"TOWNNAME":"永康區","LI":"埔園里","LIN":"31鄰","STREET":"永大路","SECT":"三段","MAREA":" ","LANE":"４６９巷","ALLEY":" ","HOUSE_NO":"２０號","E_COORD97":173970.20000000001,"N_COORD97":2548767.8799999999,"ADDRESS":"永大路三段４６９巷２０號","OBJECTID":279020},"geometry":{"x":173970.20000000019,"y":2548767.8800000008}},{"attributes":{"ID":279027,"DIS_CODE":0,"TOWNNAME":"永康區","LI":"埔園里","LIN":"31鄰","STREET":"永大路","SECT":"三段","MAREA":" ","LANE":"４６９巷","ALLEY":" ","HOUSE_NO":"２號","E_COORD97":174001.56,"N_COORD97":2548763.52,"ADDRESS":"永大路三段４６９巷２號","OBJECTID":279021},"geometry":{"x":174001.56000000145,"y":2548763.5200000033}},{"attributes":{"ID":279028,"DIS_CODE":0,"TOWNNAME":"永康區","LI":"埔園里","LIN":"31鄰","STREET":"永大路","SECT":"三段","MAREA":" ","LANE":"４６９巷","ALLEY":" ","HOUSE_NO":"３６號","E_COORD97":173934.89000000001,"N_COORD97":2548774.4500000002,"ADDRESS":"永大路三段４６９巷３６號","OBJECTID":279022},"geometry":{"x":173934.88999999873,"y":2548774.4500000011}},{"attributes":{"ID":279029,"DIS_CODE":0,"TOWNNAME":"永康區","LI":"埔園里","LIN":"31鄰","STREET":"永大路","SECT":"三段","MAREA":" ","LANE":"４６９巷","ALLEY":" ","HOUSE_NO":"３８號","E_COORD97":173929.41,"N_COORD97":2548774.9300000002,"ADDRESS":"永大路三段４６９巷３８號","OBJECTID":279023},"geometry":{"x":173929.41000000015,"y":2548774.9300000016}},{"attributes":{"ID":279030,"DIS_CODE":0,"TOWNNAME":"永康區","LI":"埔園里","LIN":"31鄰","STREET":"永大路","SECT":"三段","MAREA":" ","LANE":"４６９巷","ALLEY":" ","HOUSE_NO":"４０號","E_COORD97":173925.09,"N_COORD97":2548775.6000000001,"ADDRESS":"永大路三段４６９巷４０號","OBJECTID":279024},"geometry":{"x":173925.08999999985,"y":2548775.5999999996}},{"attributes":{"ID":279031,"DIS_CODE":0,"TOWNNAME":"永康區","LI":"埔園里","LIN":"31鄰","STREET":"永大路","SECT":"三段","MAREA":" ","LANE":"４６９巷","ALLEY":" ","HOUSE_NO":"４２號","E_COORD97":173920.57999999999,"N_COORD97":2548775.8100000001,"ADDRESS":"永大路三段４６９巷４２號","OBJECTID":279025},"geometry":{"x":173920.58000000194,"y":2548775.8099999987}},{"attributes":{"ID":279032,"DIS_CODE":0,"TOWNNAME":"永康區","LI":"埔園里","LIN":"31鄰","STREET":"永大路","SECT":"三段","MAREA":" ","LANE":"４６９巷","ALLEY":" ","HOUSE_NO":"４６號","E_COORD97":173915.75,"N_COORD97":2548776.29,"ADDRESS":"永大路三段４６９巷４６號","OBJECTID":279026},"geometry":{"x":173915.75,"y":2548776.290000001}},{"attributes":{"ID":279033,"DIS_CODE":0,"TOWNNAME":"永康區","LI":"埔園里","LIN":"31鄰","STREET":"永大路","SECT":"三段","MAREA":" ","LANE":"４６９巷","ALLEY":" ","HOUSE_NO":"４８號","E_COORD97":173911.23999999999,"N_COORD97":2548776.8399999999,"ADDRESS":"永大路三段４６９巷４８號","OBJECTID":279027},"geometry":{"x":173911.24000000209,"y":2548776.8399999999}},{"attributes":{"ID":279034,"DIS_CODE":0,"TOWNNAME":"永康區","LI":"埔園里","LIN":"31鄰","STREET":"永大路","SECT":"三段","MAREA":" ","LANE":"４６９巷","ALLEY":" ","HOUSE_NO":"５０號","E_COORD97":173906.12,"N_COORD97":2548777.8599999999,"ADDRESS":"永大路三段４６９巷５０號","OBJECTID":279028},"geometry":{"x":173906.12000000011,"y":2548777.8600000031}},{"attributes":{"ID":279035,"DIS_CODE":0,"TOWNNAME":"永康區","LI":"埔園里","LIN":"31鄰","STREET":"永大路","SECT":"三段","MAREA":" ","LANE":"４６９巷","ALLEY":" ","HOUSE_NO":"６號","E_COORD97":173996.82999999999,"N_COORD97":2548764.1800000002,"ADDRESS":"永大路三段４６９巷６號","OBJECTID":279029},"geometry":{"x":173996.83000000194,"y":2548764.1799999997}},{"attributes":{"ID":279036,"DIS_CODE":0,"TOWNNAME":"永康區","LI":"埔園里","LIN":"31鄰","STREET":"永大路","SECT":"三段","MAREA":" ","LANE":"４６９巷","ALLEY":" ","HOUSE_NO":"８號","E_COORD97":173992.16,"N_COORD97":2548764.7200000002,"ADDRESS":"永大路三段４６９巷８號","OBJECTID":279030},"geometry":{"x":173992.16000000015,"y":2548764.7200000025}},{"attributes":{"ID":279037,"DIS_CODE":0,"TOWNNAME":"安南區","LI":"安富里","LIN":"31鄰","STREET":"海佃路","SECT":"一段","MAREA":" ","LANE":"１５８巷","ALLEY":" ","HOUSE_NO":"６８號","E_COORD97":167337.72,"N_COORD97":2547206.1400000001,"ADDRESS":"海佃路一段１５８巷６８號","OBJECTID":279031},"geometry":{"x":167337.71999999974,"y":2547206.1400000006}},{"attributes":{"ID":279038,"DIS_CODE":0,"TOWNNAME":"永康區","LI":"埔園里","LIN":"31鄰","STREET":"永大路","SECT":"三段","MAREA":" ","LANE":"４６９巷","ALLEY":" ","HOUSE_NO":"１５２號","E_COORD97":173734.32000000001,"N_COORD97":2548800.5899999999,"ADDRESS":"永大路三段４６９巷１５２號","OBJECTID":279032},"geometry":{"x":173734.32000000216,"y":2548800.5900000036}},{"attributes":{"ID":279039,"DIS_CODE":0,"TOWNNAME":"永康區","LI":"崑山里","LIN":"31鄰","STREET":"崑山街","SECT":" ","MAREA":" ","LANE":"１１６巷","ALLEY":" ","HOUSE_NO":"１０號","E_COORD97":174036.54000000001,"N_COORD97":2544776,"ADDRESS":"崑山街１１６巷１０號","OBJECTID":279033},"geometry":{"x":174036.54000000097,"y":2544776}},{"attributes":{"ID":279040,"DIS_CODE":0,"TOWNNAME":"永康區","LI":"埔園里","LIN":"31鄰","STREET":"永大路","SECT":"三段","MAREA":" ","LANE":"４６９巷","ALLEY":" ","HOUSE_NO":"１６０號","E_COORD97":173721.26999999999,"N_COORD97":2548802.5899999999,"ADDRESS":"永大路三段４６９巷１６０號","OBJECTID":279034},"geometry":{"x":173721.26999999955,"y":2548802.5899999999}},{"attributes":{"ID":279041,"DIS_CODE":0,"TOWNNAME":"永康區","LI":"\u25A0洲里","LIN":"31鄰","STREET":"洲尾街","SECT":" ","MAREA":" ","LANE":"３１９巷","ALLEY":" ","HOUSE_NO":"１３號","E_COORD97":171052.45999999999,"N_COORD97":2549190.48,"ADDRESS":"洲尾街３１９巷１３號","OBJECTID":279035},"geometry":{"x":171052.45999999996,"y":2549190.4800000004}},{"attributes":{"ID":279042,"DIS_CODE":0,"TOWNNAME":"永康區","LI":"大灣里","LIN":"31鄰","STREET":"民族路","SECT":" ","MAREA":" ","LANE":"１２６巷","ALLEY":" ","HOUSE_NO":"１７號之１","E_COORD97":175372.14000000001,"N_COORD97":2544965.0299999998,"ADDRESS":"民族路１２６巷１７號之１","OBJECTID":279036},"geometry":{"x":175372.13999999966,"y":2544965.0299999993}},{"attributes":{"ID":279043,"DIS_CODE":0,"TOWNNAME":"東區","LI":"小東里","LIN":"31鄰","STREET":"東安路","SECT":" ","MAREA":" ","LANE":"２５１巷","ALLEY":" ","HOUSE_NO":"７號","E_COORD97":170750.73999999999,"N_COORD97":2544106.2400000002,"ADDRESS":"東安路２５１巷７號","OBJECTID":279037},"geometry":{"x":170750.74000000022,"y":2544106.2400000002}},{"attributes":{"ID":279044,"DIS_CODE":0,"TOWNNAME":"永康區","LI":"崑山里","LIN":"31鄰","STREET":"崑山街","SECT":" ","MAREA":" ","LANE":"１１６巷","ALLEY":" ","HOUSE_NO":"２４號","E_COORD97":174064.03,"N_COORD97":2544768.5,"ADDRESS":"崑山街１１６巷２４號","OBJECTID":279038},"geometry":{"x":174064.03000000119,"y":2544768.5}},{"attributes":{"ID":279045,"DIS_CODE":0,"TOWNNAME":"永康區","LI":"埔園里","LIN":"31鄰","STREET":"永大路","SECT":"三段","MAREA":" ","LANE":"４６９巷","ALLEY":" ","HOUSE_NO":"１７０號","E_COORD97":173695.64999999999,"N_COORD97":2548805.48,"ADDRESS":"永大路三段４６９巷１７０號","OBJECTID":279039},"geometry":{"x":173695.6500000013,"y":2548805.4800000042}},{"attributes":{"ID":279046,"DIS_CODE":0,"TOWNNAME":"永康區","LI":"崑山里","LIN":"31鄰","STREET":"崑山街","SECT":" ","MAREA":" ","LANE":"１１６巷","ALLEY":" ","HOUSE_NO":"３０號","E_COORD97":174075.98000000001,"N_COORD97":2544764.25,"ADDRESS":"崑山街１１６巷３０號","OBJECTID":279040},"geometry":{"x":174075.98000000231,"y":2544764.25}},{"attributes":{"ID":279047,"DIS_CODE":0,"TOWNNAME":"永康區","LI":"崑山里","LIN":"31鄰","STREET":"崑山街","SECT":" ","MAREA":" ","LANE":"１１６巷","ALLEY":" ","HOUSE_NO":"２０號","E_COORD97":174054.54000000001,"N_COORD97":2544771.5,"ADDRESS":"崑山街１１６巷２０號","OBJECTID":279041},"geometry":{"x":174054.54000000004,"y":2544771.5000000019}},{"attributes":{"ID":279048,"DIS_CODE":0,"TOWNNAME":"永康區","LI":"埔園里","LIN":"31鄰","STREET":"永大路","SECT":"三段","MAREA":" ","LANE":"４６９巷","ALLEY":" ","HOUSE_NO":"１７６號","E_COORD97":173687.89000000001,"N_COORD97":2548806.98,"ADDRESS":"永大路三段４６９巷１７６號","OBJECTID":279042},"geometry":{"x":173687.8900000006,"y":2548806.9800000023}},{"attributes":{"ID":279049,"DIS_CODE":0,"TOWNNAME":"永康區","LI":"埔園里","LIN":"31鄰","STREET":"永大路","SECT":"三段","MAREA":" ","LANE":"４６９巷","ALLEY":" ","HOUSE_NO":"１５８號","E_COORD97":173725.37,"N_COORD97":2548802.2999999998,"ADDRESS":"永大路三段４６９巷１５８號","OBJECTID":279043},"geometry":{"x":173725.37000000197,"y":2548802.3000000007}},{"attributes":{"ID":279050,"DIS_CODE":0,"TOWNNAME":"新營區","LI":"永生里","LIN":"2鄰","STREET":"中山路","SECT":" ","MAREA":" ","LANE":" ","ALLEY":" ","HOUSE_NO":"１３７號三樓","E_COORD97":180117.04000000001,"N_COORD97":2578121.46,"ADDRESS":"中山路１３７號三樓","OBJECTID":279044},"geometry":{"x":180117.04000000097,"y":2578121.4600000009}},{"attributes":{"ID":279051,"DIS_CODE":0,"TOWNNAME":"東區","LI":"小東里","LIN":"31鄰","STREET":"東安路","SECT":" ","MAREA":" ","LANE":"２５１巷","ALLEY":" ","HOUSE_NO":"９號","E_COORD97":170746.03,"N_COORD97":2544106.73,"ADDRESS":"東安路２５１巷９號","OBJECTID":279045},"geometry":{"x":170746.03000000212,"y":2544106.7300000004}},{"attributes":{"ID":279052,"DIS_CODE":0,"TOWNNAME":"東區","LI":"小東里","LIN":"31鄰","STREET":"東安路","SECT":" ","MAREA":" ","LANE":"２５１巷","ALLEY":" ","HOUSE_NO":"５１號","E_COORD97":170653.5,"N_COORD97":2544106.5699999998,"ADDRESS":"東安路２５１巷５１號","OBJECTID":279046},"geometry":{"x":170653.50000000093,"y":2544106.5700000022}},{"attributes":{"ID":279053,"DIS_CODE":0,"TOWNNAME":"東區","LI":"小東里","LIN":"31鄰","STREET":"東安路","SECT":" ","MAREA":" ","LANE":"２５１巷","ALLEY":" ","HOUSE_NO":"５３號","E_COORD97":170643.41,"N_COORD97":2544106.6499999999,"ADDRESS":"東安路２５１巷５３號","OBJECTID":279047},"geometry":{"x":170643.41000000201,"y":2544106.6500000022}},{"attributes":{"ID":279054,"DIS_CODE":0,"TOWNNAME":"北區","LI":"成德里","LIN":"2鄰","STREET":"西門路","SECT":"四段","MAREA":" ","LANE":" ","ALLEY":" ","HOUSE_NO":"１５號三樓","E_COORD97":168594.82000000001,"N_COORD97":2545252.8799999999,"ADDRESS":"西門路四段１５號三樓","OBJECTID":279048},"geometry":{"x":168594.82000000123,"y":2545252.8800000008}},{"attributes":{"ID":279055,"DIS_CODE":0,"TOWNNAME":"北區","LI":"成德里","LIN":"2鄰","STREET":"西門路","SECT":"四段","MAREA":" ","LANE":" ","ALLEY":" ","HOUSE_NO":"１５號五樓","E_COORD97":168594.82000000001,"N_COORD97":2545252.8799999999,"ADDRESS":"西門路四段１５號五樓","OBJECTID":279049},"geometry":{"x":168594.82000000123,"y":2545252.8800000008}},{"attributes":{"ID":279056,"DIS_CODE":0,"TOWNNAME":"北區","LI":"成德里","LIN":"2鄰","STREET":"西門路","SECT":"四段","MAREA":" ","LANE":" ","ALLEY":" ","HOUSE_NO":"１５號六樓","E_COORD97":168594.82000000001,"N_COORD97":2545252.8799999999,"ADDRESS":"西門路四段１５號六樓","OBJECTID":279050},"geometry":{"x":168594.82000000123,"y":2545252.8800000008}},{"attributes":{"ID":279057,"DIS_CODE":0,"TOWNNAME":"北區","LI":"成德里","LIN":"2鄰","STREET":"西門路","SECT":"四段","MAREA":" ","LANE":" ","ALLEY":" ","HOUSE_NO":"１５號四樓","E_COORD97":168594.82000000001,"N_COORD97":2545252.8799999999,"ADDRESS":"西門路四段１５號四樓","OBJECTID":279051},"geometry":{"x":168594.82000000123,"y":2545252.8800000008}},{"attributes":{"ID":279058,"DIS_CODE":0,"TOWNNAME":"北區","LI":"大仁里","LIN":"2鄰","STREET":"北門路","SECT":"二段","MAREA":" ","LANE":" ","ALLEY":" ","HOUSE_NO":"３０２號二樓","E_COORD97":169534.39999999999,"N_COORD97":2545306.1099999999,"ADDRESS":"北門路二段３０２號二樓","OBJECTID":279052},"geometry":{"x":169534.40000000037,"y":2545306.1100000013}},{"attributes":{"ID":279059,"DIS_CODE":0,"TOWNNAME":"北區","LI":"大仁里","LIN":"2鄰","STREET":"北門路","SECT":"二段","MAREA":" ","LANE":" ","ALLEY":" ","HOUSE_NO":"３０２號三樓","E_COORD97":169534.39999999999,"N_COORD97":2545306.1099999999,"ADDRESS":"北門路二段３０２號三樓","OBJECTID":279053},"geometry":{"x":169534.40000000037,"y":2545306.1100000013}},{"attributes":{"ID":279060,"DIS_CODE":0,"TOWNNAME":"東區","LI":"小東里","LIN":"31鄰","STREET":"東安路","SECT":" ","MAREA":" ","LANE":"２５１巷","ALLEY":" ","HOUSE_NO":"５７號","E_COORD97":170625.03,"N_COORD97":2544107.3799999999,"ADDRESS":"東安路２５１巷５７號","OBJECTID":279054},"geometry":{"x":170625.03000000026,"y":2544107.379999999}},{"attributes":{"ID":279061,"DIS_CODE":0,"TOWNNAME":"仁德區","LI":"後壁里","LIN":"31鄰","STREET":"德洋路","SECT":" ","MAREA":" ","LANE":"１８０巷","ALLEY":" ","HOUSE_NO":"７號","E_COORD97":172527.48999999999,"N_COORD97":2539440.0099999998,"ADDRESS":"德洋路１８０巷７號","OBJECTID":279055},"geometry":{"x":172527.49000000022,"y":2539440.0099999979}},{"attributes":{"ID":279062,"DIS_CODE":0,"TOWNNAME":"歸仁區","LI":"辜厝里","LIN":"31鄰","STREET":"大順三街","SECT":" ","MAREA":" ","LANE":"７８巷","ALLEY":" ","HOUSE_NO":"１號","E_COORD97":177387.53,"N_COORD97":2540456.9500000002,"ADDRESS":"大順三街７８巷１號","OBJECTID":279056},"geometry":{"x":177387.53000000026,"y":2540456.9499999974}},{"attributes":{"ID":279063,"DIS_CODE":0,"TOWNNAME":"新營區","LI":"忠政里","LIN":"31鄰","STREET":"府西路","SECT":" ","MAREA":" ","LANE":"７７巷","ALLEY":" ","HOUSE_NO":"２５號","E_COORD97":179725.41,"N_COORD97":2579141.04,"ADDRESS":"府西路７７巷２５號","OBJECTID":279057},"geometry":{"x":179725.41000000015,"y":2579141.040000001}},{"attributes":{"ID":279064,"DIS_CODE":0,"TOWNNAME":"新營區","LI":"忠政里","LIN":"31鄰","STREET":"府西路","SECT":" ","MAREA":" ","LANE":"６３巷","ALLEY":" ","HOUSE_NO":"１０號","E_COORD97":179770.12,"N_COORD97":2579094.3100000001,"ADDRESS":"府西路６３巷１０號","OBJECTID":279058},"geometry":{"x":179770.12000000011,"y":2579094.3100000024}},{"attributes":{"ID":279065,"DIS_CODE":0,"TOWNNAME":"新營區","LI":"王公里","LIN":"31鄰","STREET":"大勇街","SECT":" ","MAREA":" ","LANE":"１９巷","ALLEY":" ","HOUSE_NO":"６號","E_COORD97":180229.95999999999,"N_COORD97":2579484.1699999999,"ADDRESS":"大勇街１９巷６號","OBJECTID":279059},"geometry":{"x":180229.95999999996,"y":2579484.1700000018}},{"attributes":{"ID":279066,"DIS_CODE":0,"TOWNNAME":"新營區","LI":"王公里","LIN":"31鄰","STREET":"大勇街","SECT":" ","MAREA":" ","LANE":"１９巷","ALLEY":" ","HOUSE_NO":"１號","E_COORD97":180231.82999999999,"N_COORD97":2579447.6000000001,"ADDRESS":"大勇街１９巷１號","OBJECTID":279060},"geometry":{"x":180231.83000000194,"y":2579447.5999999996}},{"attributes":{"ID":279067,"DIS_CODE":0,"TOWNNAME":"玉井區","LI":"玉田里","LIN":"31鄰","STREET":"民生路","SECT":" ","MAREA":" ","LANE":"２５７巷","ALLEY":" ","HOUSE_NO":"１號","E_COORD97":195194.29000000001,"N_COORD97":2558220.29,"ADDRESS":"民生路２５７巷１號","OBJECTID":279061},"geometry":{"x":195194.29000000097,"y":2558220.2900000028}},{"attributes":{"ID":279068,"DIS_CODE":0,"TOWNNAME":"玉井區","LI":"玉田里","LIN":"31鄰","STREET":"民生路","SECT":" ","MAREA":" ","LANE":"２５７巷","ALLEY":" ","HOUSE_NO":"１０號","E_COORD97":195213.64000000001,"N_COORD97":2558205.2799999998,"ADDRESS":"民生路２５７巷１０號","OBJECTID":279062},"geometry":{"x":195213.6400000006,"y":2558205.2800000012}},{"attributes":{"ID":279069,"DIS_CODE":0,"TOWNNAME":"新營區","LI":"民榮里","LIN":"31鄰","STREET":"太子路","SECT":" ","MAREA":" ","LANE":"５３巷","ALLEY":" ","HOUSE_NO":"５號","E_COORD97":178337.84,"N_COORD97":2578011.4300000002,"ADDRESS":"太子路５３巷５號","OBJECTID":279063},"geometry":{"x":178337.84000000171,"y":2578011.4299999997}},{"attributes":{"ID":279070,"DIS_CODE":0,"TOWNNAME":"新營區","LI":"民榮里","LIN":"31鄰","STREET":"太子路","SECT":" ","MAREA":" ","LANE":"５３巷","ALLEY":" ","HOUSE_NO":"１７號","E_COORD97":178358.35000000001,"N_COORD97":2577978.1099999999,"ADDRESS":"太子路５３巷１７號","OBJECTID":279064},"geometry":{"x":178358.35000000056,"y":2577978.1100000013}},{"attributes":{"ID":279071,"DIS_CODE":0,"TOWNNAME":"新營區","LI":"三仙里","LIN":"31鄰","STREET":"三興街","SECT":" ","MAREA":" ","LANE":"１４４巷","ALLEY":" ","HOUSE_NO":"１０號","E_COORD97":179476.45999999999,"N_COORD97":2579285.0800000001,"ADDRESS":"三興街１４４巷１０號","OBJECTID":279065},"geometry":{"x":179476.46000000183,"y":2579285.0800000019}},{"attributes":{"ID":279072,"DIS_CODE":0,"TOWNNAME":"新營區","LI":"忠政里","LIN":"31鄰","STREET":"府西路","SECT":" ","MAREA":" ","LANE":"４７巷","ALLEY":" ","HOUSE_NO":"１３號之５","E_COORD97":179755.67000000001,"N_COORD97":2579014.7000000002,"ADDRESS":"府西路４７巷１３號之５","OBJECTID":279066},"geometry":{"x":179755.66999999993,"y":2579014.7000000011}},{"attributes":{"ID":279073,"DIS_CODE":0,"TOWNNAME":"新營區","LI":"忠政里","LIN":"31鄰","STREET":"府西路","SECT":" ","MAREA":" ","LANE":"４７巷","ALLEY":" ","HOUSE_NO":"１３之２號","E_COORD97":179755.88,"N_COORD97":2579014.7000000002,"ADDRESS":"府西路４７巷１３之２號","OBJECTID":279067},"geometry":{"x":179755.87999999989,"y":2579014.7000000011}},{"attributes":{"ID":279074,"DIS_CODE":0,"TOWNNAME":"北區","LI":"大仁里","LIN":"2鄰","STREET":"北門路","SECT":"二段","MAREA":" ","LANE":" ","ALLEY":" ","HOUSE_NO":"３０２號四樓","E_COORD97":169534.39999999999,"N_COORD97":2545306.1099999999,"ADDRESS":"北門路二段３０２號四樓","OBJECTID":279068},"geometry":{"x":169534.40000000037,"y":2545306.1100000013}},{"attributes":{"ID":279075,"DIS_CODE":0,"TOWNNAME":"北區","LI":"和順里","LIN":"31鄰","STREET":"臨安路","SECT":"二段","MAREA":" ","LANE":"１６９巷","ALLEY":" ","HOUSE_NO":"１１號","E_COORD97":167825.73999999999,"N_COORD97":2544936.21,"ADDRESS":"臨安路二段１６９巷１１號","OBJECTID":279069},"geometry":{"x":167825.74000000115,"y":2544936.2100000028}},{"attributes":{"ID":279076,"DIS_CODE":0,"TOWNNAME":"北區","LI":"和順里","LIN":"31鄰","STREET":"臨安路","SECT":"二段","MAREA":" ","LANE":"１６９巷","ALLEY":" ","HOUSE_NO":"１２號","E_COORD97":167849.64000000001,"N_COORD97":2544943.7400000002,"ADDRESS":"臨安路二段１６９巷１２號","OBJECTID":279070},"geometry":{"x":167849.6400000006,"y":2544943.7400000002}},{"attributes":{"ID":279077,"DIS_CODE":0,"TOWNNAME":"東區","LI":"成大里","LIN":"29鄰","STREET":"大學路","SECT":"西段","MAREA":" ","LANE":" ","ALLEY":" ","HOUSE_NO":"６５之６號","E_COORD97":169581.56,"N_COORD97":2544094.9199999999,"ADDRESS":"大學路西段６５之６號","OBJECTID":279071},"geometry":{"x":169581.55999999959,"y":2544094.9199999999}},{"attributes":{"ID":279078,"DIS_CODE":0,"TOWNNAME":"北區","LI":"和順里","LIN":"31鄰","STREET":"臨安路","SECT":"二段","MAREA":" ","LANE":"１６９巷","ALLEY":" ","HOUSE_NO":"１３號","E_COORD97":167825.73999999999,"N_COORD97":2544940.8300000001,"ADDRESS":"臨安路二段１６９巷１３號","OBJECTID":279072},"geometry":{"x":167825.74000000115,"y":2544940.8300000038}},{"attributes":{"ID":279079,"DIS_CODE":0,"TOWNNAME":"北區","LI":"和順里","LIN":"31鄰","STREET":"臨安路","SECT":"二段","MAREA":" ","LANE":"１６９巷","ALLEY":" ","HOUSE_NO":"１４號","E_COORD97":167852.70000000001,"N_COORD97":2544949.5899999999,"ADDRESS":"臨安路二段１６９巷１４號","OBJECTID":279073},"geometry":{"x":167852.70000000205,"y":2544949.5900000017}},{"attributes":{"ID":279080,"DIS_CODE":0,"TOWNNAME":"東區","LI":"崇文里","LIN":"26鄰","STREET":"崇德二十二街","SECT":" ","MAREA":" ","LANE":" ","ALLEY":" ","HOUSE_NO":"８４號","E_COORD97":171041.57999999999,"N_COORD97":2540801.1899999999,"ADDRESS":"崇德二十二街８４號","OBJECTID":279074},"geometry":{"x":171041.58000000007,"y":2540801.1899999995}},{"attributes":{"ID":279081,"DIS_CODE":0,"TOWNNAME":"東區","LI":"關聖里","LIN":"18鄰","STREET":"裕信路","SECT":" ","MAREA":" ","LANE":" ","ALLEY":" ","HOUSE_NO":"１７６之３號","E_COORD97":172541.45999999999,"N_COORD97":2543077.6200000001,"ADDRESS":"裕信路１７６之３號","OBJECTID":279075},"geometry":{"x":172541.46000000183,"y":2543077.620000001}},{"attributes":{"ID":279082,"DIS_CODE":0,"TOWNNAME":"東區","LI":"關聖里","LIN":"18鄰","STREET":"裕信路","SECT":" ","MAREA":" ","LANE":" ","ALLEY":" ","HOUSE_NO":"１７６之５號","E_COORD97":172540.88,"N_COORD97":2543084.8900000001,"ADDRESS":"裕信路１７６之５號","OBJECTID":279076},"geometry":{"x":172540.88000000082,"y":2543084.8900000006}},{"attributes":{"ID":279083,"DIS_CODE":0,"TOWNNAME":"東區","LI":"圍下里","LIN":"4鄰","STREET":"東榮街","SECT":" ","MAREA":" ","LANE":" ","ALLEY":" ","HOUSE_NO":"３號之１","E_COORD97":169567.60000000001,"N_COORD97":2543492.77,"ADDRESS":"東榮街３號之１","OBJECTID":279077},"geometry":{"x":169567.59999999963,"y":2543492.7699999996}},{"attributes":{"ID":279084,"DIS_CODE":0,"TOWNNAME":"東區","LI":"成大里","LIN":"29鄰","STREET":"大學路","SECT":"西段","MAREA":" ","LANE":" ","ALLEY":" ","HOUSE_NO":"６５之７號","E_COORD97":169575.51999999999,"N_COORD97":2544096.5600000001,"ADDRESS":"大學路西段６５之７號","OBJECTID":279078},"geometry":{"x":169575.51999999862,"y":2544096.5600000024}},{"attributes":{"ID":279085,"DIS_CODE":0,"TOWNNAME":"東區","LI":"大福里","LIN":"20鄰","STREET":"立德八路","SECT":" ","MAREA":" ","LANE":" ","ALLEY":" ","HOUSE_NO":"２２號","E_COORD97":169459.95000000001,"N_COORD97":2541909.4100000001,"ADDRESS":"立德八路２２號","OBJECTID":279079},"geometry":{"x":169459.95000000112,"y":2541909.4100000039}},{"attributes":{"ID":279086,"DIS_CODE":0,"TOWNNAME":"東區","LI":"大德里","LIN":"8鄰","STREET":"立德十一路","SECT":" ","MAREA":" ","LANE":" ","ALLEY":" ","HOUSE_NO":"１９號","E_COORD97":169423.72,"N_COORD97":2542096.3999999999,"ADDRESS":"立德十一路１９號","OBJECTID":279080},"geometry":{"x":169423.7200000016,"y":2542096.4000000041}},{"attributes":{"ID":279087,"DIS_CODE":0,"TOWNNAME":"東區","LI":"大德里","LIN":"8鄰","STREET":"立德十一路","SECT":" ","MAREA":" ","LANE":" ","ALLEY":" ","HOUSE_NO":"２７號","E_COORD97":169438.28,"N_COORD97":2542099.9500000002,"ADDRESS":"立德十一路２７號","OBJECTID":279081},"geometry":{"x":169438.28000000026,"y":2542099.9499999993}},{"attributes":{"ID":279088,"DIS_CODE":0,"TOWNNAME":"北區","LI":"和順里","LIN":"31鄰","STREET":"臨安路","SECT":"二段","MAREA":" ","LANE":"１６９巷","ALLEY":" ","HOUSE_NO":"１５號","E_COORD97":167825.51999999999,"N_COORD97":2544944.8999999999,"ADDRESS":"臨安路二段１６９巷１５號","OBJECTID":279082},"geometry":{"x":167825.51999999955,"y":2544944.9000000022}},{"attributes":{"ID":279089,"DIS_CODE":0,"TOWNNAME":"北區","LI":"和順里","LIN":"31鄰","STREET":"臨安路","SECT":"二段","MAREA":" ","LANE":"１６９巷","ALLEY":" ","HOUSE_NO":"１６號","E_COORD97":167852.48999999999,"N_COORD97":2544953.77,"ADDRESS":"臨安路二段１６９巷１６號","OBJECTID":279083},"geometry":{"x":167852.49000000209,"y":2544953.7699999996}},{"attributes":{"ID":279090,"DIS_CODE":0,"TOWNNAME":"北區","LI":"和順里","LIN":"31鄰","STREET":"臨安路","SECT":"二段","MAREA":" ","LANE":"１６９巷","ALLEY":" ","HOUSE_NO":"１７號","E_COORD97":167825.29999999999,"N_COORD97":2544948.9700000002,"ADDRESS":"臨安路二段１６９巷１７號","OBJECTID":279084},"geometry":{"x":167825.30000000075,"y":2544948.9700000025}},{"attributes":{"ID":279091,"DIS_CODE":0,"TOWNNAME":"北區","LI":"和順里","LIN":"31鄰","STREET":"臨安路","SECT":"二段","MAREA":" ","LANE":"１６９巷","ALLEY":" ","HOUSE_NO":"１８號","E_COORD97":167852.14999999999,"N_COORD97":2544958.0899999999,"ADDRESS":"臨安路二段１６９巷１８號","OBJECTID":279085},"geometry":{"x":167852.1500000013,"y":2544958.0899999999}},{"attributes":{"ID":279092,"DIS_CODE":0,"TOWNNAME":"北區","LI":"和順里","LIN":"31鄰","STREET":"臨安路","SECT":"二段","MAREA":" ","LANE":"１６９巷","ALLEY":" ","HOUSE_NO":"１９號","E_COORD97":167825.41,"N_COORD97":2544953.2599999998,"ADDRESS":"臨安路二段１６９巷１９號","OBJECTID":279086},"geometry":{"x":167825.41000000015,"y":2544953.2599999998}},{"attributes":{"ID":279093,"DIS_CODE":0,"TOWNNAME":"北區","LI":"和順里","LIN":"31鄰","STREET":"臨安路","SECT":"二段","MAREA":" ","LANE":"１６９巷","ALLEY":" ","HOUSE_NO":"２０號","E_COORD97":167852.01000000001,"N_COORD97":2544961.48,"ADDRESS":"臨安路二段１６９巷２０號","OBJECTID":279087},"geometry":{"x":167852.01000000164,"y":2544961.4800000023}},{"attributes":{"ID":279094,"DIS_CODE":0,"TOWNNAME":"北區","LI":"和順里","LIN":"31鄰","STREET":"臨安路","SECT":"二段","MAREA":" ","LANE":"１６９巷","ALLEY":" ","HOUSE_NO":"２１號","E_COORD97":167825.41,"N_COORD97":2544957.2200000002,"ADDRESS":"臨安路二段１６９巷２１號","OBJECTID":279088},"geometry":{"x":167825.41000000015,"y":2544957.2200000025}},{"attributes":{"ID":279095,"DIS_CODE":0,"TOWNNAME":"安平區","LI":"育平里","LIN":"31鄰","STREET":"健康三街","SECT":" ","MAREA":" ","LANE":"１０７巷","ALLEY":" ","HOUSE_NO":"１９號六樓之７","E_COORD97":164679.60000000001,"N_COORD97":2543139.7799999998,"ADDRESS":"健康三街１０７巷１９號六樓之７","OBJECTID":279089},"geometry":{"x":164679.60000000056,"y":2543139.7799999993}},{"attributes":{"ID":279096,"DIS_CODE":0,"TOWNNAME":"東區","LI":"大德里","LIN":"8鄰","STREET":"立德十一路","SECT":" ","MAREA":" ","LANE":" ","ALLEY":" ","HOUSE_NO":"３１號","E_COORD97":169449.29000000001,"N_COORD97":2542101.3700000001,"ADDRESS":"立德十一路３１號","OBJECTID":279090},"geometry":{"x":169449.29000000097,"y":2542101.3700000029}},{"attributes":{"ID":279097,"DIS_CODE":0,"TOWNNAME":"東區","LI":"大德里","LIN":"8鄰","STREET":"立德十一路","SECT":" ","MAREA":" ","LANE":" ","ALLEY":" ","HOUSE_NO":"３３號","E_COORD97":169453.54999999999,"N_COORD97":2542101.7200000002,"ADDRESS":"立德十一路３３號","OBJECTID":279091},"geometry":{"x":169453.54999999888,"y":2542101.7200000025}},{"attributes":{"ID":279098,"DIS_CODE":0,"TOWNNAME":"東區","LI":"大德里","LIN":"8鄰","STREET":"立德十一路","SECT":" ","MAREA":" ","LANE":" ","ALLEY":" ","HOUSE_NO":"４３號","E_COORD97":169474.5,"N_COORD97":2542105.2599999998,"ADDRESS":"立德十一路４３號","OBJECTID":279092},"geometry":{"x":169474.50000000186,"y":2542105.2599999998}},{"attributes":{"ID":279099,"DIS_CODE":0,"TOWNNAME":"東區","LI":"大德里","LIN":"8鄰","STREET":"立德十一路","SECT":" ","MAREA":" ","LANE":" ","ALLEY":" ","HOUSE_NO":"４９號","E_COORD97":169486.20999999999,"N_COORD97":2542106.6899999999,"ADDRESS":"立德十一路４９號","OBJECTID":279093},"geometry":{"x":169486.20999999996,"y":2542106.6899999976}},{"attributes":{"ID":279100,"DIS_CODE":0,"TOWNNAME":"安平區","LI":"育平里","LIN":"31鄰","STREET":"健康三街","SECT":" ","MAREA":" ","LANE":"１０７巷","ALLEY":" ","HOUSE_NO":"１９號四樓之１","E_COORD97":164679.60000000001,"N_COORD97":2543139.7799999998,"ADDRESS":"健康三街１０７巷１９號四樓之１","OBJECTID":279094},"geometry":{"x":164679.60000000056,"y":2543139.7799999993}},{"attributes":{"ID":279101,"DIS_CODE":0,"TOWNNAME":"安平區","LI":"育平里","LIN":"31鄰","STREET":"健康三街","SECT":" ","MAREA":" ","LANE":"１０７巷","ALLEY":" ","HOUSE_NO":"１９號四樓之２","E_COORD97":164679.60000000001,"N_COORD97":2543139.7799999998,"ADDRESS":"健康三街１０７巷１９號四樓之２","OBJECTID":279095},"geometry":{"x":164679.60000000056,"y":2543139.7799999993}},{"attributes":{"ID":279102,"DIS_CODE":0,"TOWNNAME":"安平區","LI":"育平里","LIN":"31鄰","STREET":"健康三街","SECT":" ","MAREA":" ","LANE":"１０７巷","ALLEY":" ","HOUSE_NO":"１９號四樓之３","E_COORD97":164679.60000000001,"N_COORD97":2543139.7799999998,"ADDRESS":"健康三街１０７巷１９號四樓之３","OBJECTID":279096},"geometry":{"x":164679.60000000056,"y":2543139.7799999993}},{"attributes":{"ID":279103,"DIS_CODE":0,"TOWNNAME":"東區","LI":"中西里","LIN":"7鄰","STREET":"懷恩街","SECT":" ","MAREA":" ","LANE":" ","ALLEY":" ","HOUSE_NO":"３４號","E_COORD97":169883.22,"N_COORD97":2543332.3900000001,"ADDRESS":"懷恩街３４號","OBJECTID":279097},"geometry":{"x":169883.22000000067,"y":2543332.3900000006}},{"attributes":{"ID":279104,"DIS_CODE":0,"TOWNNAME":"東區","LI":"大德里","LIN":"7鄰","STREET":"立德九路","SECT":" ","MAREA":" ","LANE":" ","ALLEY":" ","HOUSE_NO":"７１號","E_COORD97":169587.13,"N_COORD97":2541985.5,"ADDRESS":"立德九路７１號","OBJECTID":279098},"geometry":{"x":169587.13000000175,"y":2541985.5}},{"attributes":{"ID":279105,"DIS_CODE":0,"TOWNNAME":"東區","LI":"大德里","LIN":"8鄰","STREET":"立德十一路","SECT":" ","MAREA":" ","LANE":" ","ALLEY":" ","HOUSE_NO":"５１號","E_COORD97":169489.41,"N_COORD97":2542107.75,"ADDRESS":"立德十一路５１號","OBJECTID":279099},"geometry":{"x":169489.41000000108,"y":2542107.7500000019}},{"attributes":{"ID":279106,"DIS_CODE":0,"TOWNNAME":"安平區","LI":"育平里","LIN":"31鄰","STREET":"健康三街","SECT":" ","MAREA":" ","LANE":"１０７巷","ALLEY":" ","HOUSE_NO":"１９號四樓之５","E_COORD97":164679.60000000001,"N_COORD97":2543139.7799999998,"ADDRESS":"健康三街１０７巷１９號四樓之５","OBJECTID":279100},"geometry":{"x":164679.60000000056,"y":2543139.7799999993}},{"attributes":{"ID":279107,"DIS_CODE":0,"TOWNNAME":"安平區","LI":"育平里","LIN":"31鄰","STREET":"健康三街","SECT":" ","MAREA":" ","LANE":"１０７巷","ALLEY":" ","HOUSE_NO":"１９號四樓之６","E_COORD97":164679.60000000001,"N_COORD97":2543139.7799999998,"ADDRESS":"健康三街１０７巷１９號四樓之６","OBJECTID":279101},"geometry":{"x":164679.60000000056,"y":2543139.7799999993}},{"attributes":{"ID":279108,"DIS_CODE":0,"TOWNNAME":"安南區","LI":"淵中里","LIN":"2鄰","STREET":"安中路","SECT":"三段","MAREA":" ","LANE":" ","ALLEY":" ","HOUSE_NO":"３９７號","E_COORD97":165378.47,"N_COORD97":2550006.7200000002,"ADDRESS":"安中路三段３９７號","OBJECTID":279102},"geometry":{"x":165378.46999999974,"y":2550006.7200000007}},{"attributes":{"ID":279109,"DIS_CODE":0,"TOWNNAME":"安南區","LI":"溪心里","LIN":"2鄰","STREET":"海佃路","SECT":"二段","MAREA":" ","LANE":" ","ALLEY":" ","HOUSE_NO":"６０７號之１","E_COORD97":166534.20000000001,"N_COORD97":2549460.3199999998,"ADDRESS":"海佃路二段６０７號之１","OBJECTID":279103},"geometry":{"x":166534.20000000112,"y":2549460.3199999984}},{"attributes":{"ID":279110,"DIS_CODE":0,"TOWNNAME":"安南區","LI":"公\u25A0里","LIN":"2鄰","STREET":"安興街","SECT":" ","MAREA":" ","LANE":" ","ALLEY":" ","HOUSE_NO":"５５號","E_COORD97":164337.48999999999,"N_COORD97":2552252.8500000001,"ADDRESS":"安興街５５號","OBJECTID":279104},"geometry":{"x":164337.49000000115,"y":2552252.8499999996}},{"attributes":{"ID":279111,"DIS_CODE":0,"TOWNNAME":"安南區","LI":"公\u25A0里","LIN":"2鄰","STREET":"安興街","SECT":" ","MAREA":" ","LANE":" ","ALLEY":" ","HOUSE_NO":"５７號","E_COORD97":164333.85999999999,"N_COORD97":2552250.54,"ADDRESS":"安興街５７號","OBJECTID":279105},"geometry":{"x":164333.86000000034,"y":2552250.5399999991}},{"attributes":{"ID":279112,"DIS_CODE":0,"TOWNNAME":"東區","LI":"大德里","LIN":"7鄰","STREET":"立德九路","SECT":" ","MAREA":" ","LANE":" ","ALLEY":" ","HOUSE_NO":"６７號","E_COORD97":169576.10000000001,"N_COORD97":2541985.5,"ADDRESS":"立德九路６７號","OBJECTID":279106},"geometry":{"x":169576.09999999963,"y":2541985.5}},{"attributes":{"ID":279113,"DIS_CODE":0,"TOWNNAME":"東區","LI":"後甲里","LIN":"13鄰","STREET":"裕農路","SECT":" ","MAREA":" ","LANE":" ","ALLEY":" ","HOUSE_NO":"６０９號","E_COORD97":171581.66,"N_COORD97":2543238.52,"ADDRESS":"裕農路６０９號","OBJECTID":279107},"geometry":{"x":171581.66000000015,"y":2543238.5200000014}},{"attributes":{"ID":279114,"DIS_CODE":0,"TOWNNAME":"東區","LI":"大德里","LIN":"1鄰","STREET":"立德九路","SECT":" ","MAREA":" ","LANE":" ","ALLEY":" ","HOUSE_NO":"６８號","E_COORD97":169587.89999999999,"N_COORD97":2541968,"ADDRESS":"立德九路６８號","OBJECTID":279108},"geometry":{"x":169587.9000000013,"y":2541968}},{"attributes":{"ID":279115,"DIS_CODE":0,"TOWNNAME":"東區","LI":"後甲里","LIN":"13鄰","STREET":"裕農路","SECT":" ","MAREA":" ","LANE":" ","ALLEY":" ","HOUSE_NO":"６１１號","E_COORD97":171586.23999999999,"N_COORD97":2543240.6899999999,"ADDRESS":"裕農路６１１號","OBJECTID":279109},"geometry":{"x":171586.24000000022,"y":2543240.6900000013}},{"attributes":{"ID":279116,"DIS_CODE":0,"TOWNNAME":"東區","LI":"後甲里","LIN":"13鄰","STREET":"裕農路","SECT":" ","MAREA":" ","LANE":" ","ALLEY":" ","HOUSE_NO":"６１１號之１","E_COORD97":171590.34,"N_COORD97":2543238.7599999998,"ADDRESS":"裕農路６１１號之１","OBJECTID":279110},"geometry":{"x":171590.33999999985,"y":2543238.7599999998}},{"attributes":{"ID":279117,"DIS_CODE":0,"TOWNNAME":"東區","LI":"後甲里","LIN":"13鄰","STREET":"裕農路","SECT":" ","MAREA":" ","LANE":" ","ALLEY":" ","HOUSE_NO":"６０７號","E_COORD97":171577.31,"N_COORD97":2543240.6899999999,"ADDRESS":"裕農路６０７號","OBJECTID":279111},"geometry":{"x":171577.30999999866,"y":2543240.6900000013}},{"attributes":{"ID":279118,"DIS_CODE":0,"TOWNNAME":"東區","LI":"小東里","LIN":"4鄰","STREET":"光明街","SECT":" ","MAREA":" ","LANE":" ","ALLEY":" ","HOUSE_NO":"１０號","E_COORD97":170866.54000000001,"N_COORD97":2544433.29,"ADDRESS":"光明街１０號","OBJECTID":279112},"geometry":{"x":170866.54000000097,"y":2544433.2899999991}},{"attributes":{"ID":279119,"DIS_CODE":0,"TOWNNAME":"東區","LI":"小東里","LIN":"4鄰","STREET":"光明街","SECT":" ","MAREA":" ","LANE":" ","ALLEY":" ","HOUSE_NO":"３４號","E_COORD97":170872.57999999999,"N_COORD97":2544381.2599999998,"ADDRESS":"光明街３４號","OBJECTID":279113},"geometry":{"x":170872.58000000194,"y":2544381.2599999998}},{"attributes":{"ID":279120,"DIS_CODE":0,"TOWNNAME":"東區","LI":"小東里","LIN":"4鄰","STREET":"光明街","SECT":" ","MAREA":" ","LANE":" ","ALLEY":" ","HOUSE_NO":"１４號","E_COORD97":170867.17999999999,"N_COORD97":2544420.7999999998,"ADDRESS":"光明街１４號","OBJECTID":279114},"geometry":{"x":170867.18000000063,"y":2544420.8000000026}},{"attributes":{"ID":279121,"DIS_CODE":0,"TOWNNAME":"東區","LI":"小東里","LIN":"4鄰","STREET":"光明街","SECT":" ","MAREA":" ","LANE":" ","ALLEY":" ","HOUSE_NO":"１６號","E_COORD97":170868.26000000001,"N_COORD97":2544416.6400000001,"ADDRESS":"光明街１６號","OBJECTID":279115},"geometry":{"x":170868.26000000071,"y":2544416.6400000006}},{"attributes":{"ID":279122,"DIS_CODE":0,"TOWNNAME":"安平區","LI":"育平里","LIN":"31鄰","STREET":"健康三街","SECT":" ","MAREA":" ","LANE":"１０７巷","ALLEY":" ","HOUSE_NO":"１９號四樓之７","E_COORD97":164679.60000000001,"N_COORD97":2543139.7799999998,"ADDRESS":"健康三街１０７巷１９號四樓之７","OBJECTID":279116},"geometry":{"x":164679.60000000056,"y":2543139.7799999993}},{"attributes":{"ID":279123,"DIS_CODE":0,"TOWNNAME":"永康區","LI":"北灣里","LIN":"31鄰","STREET":"大同街","SECT":" ","MAREA":" ","LANE":"３３巷","ALLEY":" ","HOUSE_NO":"１０號","E_COORD97":175252.57999999999,"N_COORD97":2545379,"ADDRESS":"大同街３３巷１０號","OBJECTID":279117},"geometry":{"x":175252.58000000007,"y":2545379}},{"attributes":{"ID":279124,"DIS_CODE":0,"TOWNNAME":"永康區","LI":"北灣里","LIN":"31鄰","STREET":"大同街","SECT":" ","MAREA":" ","LANE":"３３巷","ALLEY":" ","HOUSE_NO":"１２號","E_COORD97":175252.29999999999,"N_COORD97":2545371,"ADDRESS":"大同街３３巷１２號","OBJECTID":279118},"geometry":{"x":175252.29999999981,"y":2545371.0000000019}},{"attributes":{"ID":279125,"DIS_CODE":0,"TOWNNAME":"東區","LI":"崇文里","LIN":"31鄰","STREET":"生產路","SECT":" ","MAREA":" ","LANE":"２９７巷","ALLEY":" ","HOUSE_NO":"２０號","E_COORD97":170998.72,"N_COORD97":2540679.3300000001,"ADDRESS":"生產路２９７巷２０號","OBJECTID":279119},"geometry":{"x":170998.72000000067,"y":2540679.3300000038}},{"attributes":{"ID":279126,"DIS_CODE":0,"TOWNNAME":"東區","LI":"崇文里","LIN":"31鄰","STREET":"生產路","SECT":" ","MAREA":" ","LANE":"２９７巷","ALLEY":" ","HOUSE_NO":"２２號","E_COORD97":170998.62,"N_COORD97":2540683.6099999999,"ADDRESS":"生產路２９７巷２２號","OBJECTID":279120},"geometry":{"x":170998.62000000104,"y":2540683.6100000031}},{"attributes":{"ID":279127,"DIS_CODE":0,"TOWNNAME":"東區","LI":"崇文里","LIN":"31鄰","STREET":"生產路","SECT":" ","MAREA":" ","LANE":"２９７巷","ALLEY":" ","HOUSE_NO":"２４號","E_COORD97":170998.92000000001,"N_COORD97":2540687.79,"ADDRESS":"生產路２９７巷２４號","OBJECTID":279121},"geometry":{"x":170998.92000000179,"y":2540687.7899999991}},{"attributes":{"ID":279128,"DIS_CODE":0,"TOWNNAME":"東區","LI":"崇文里","LIN":"31鄰","STREET":"生產路","SECT":" ","MAREA":" ","LANE":"２９７巷","ALLEY":" ","HOUSE_NO":"２６號","E_COORD97":170998.82000000001,"N_COORD97":2540692.6600000001,"ADDRESS":"生產路２９７巷２６號","OBJECTID":279122},"geometry":{"x":170998.82000000123,"y":2540692.6600000001}},{"attributes":{"ID":279129,"DIS_CODE":0,"TOWNNAME":"東區","LI":"崇文里","LIN":"31鄰","STREET":"生產路","SECT":" ","MAREA":" ","LANE":"２９７巷","ALLEY":" ","HOUSE_NO":"２８號","E_COORD97":170998.51999999999,"N_COORD97":2540696.6400000001,"ADDRESS":"生產路２９７巷２８號","OBJECTID":279123},"geometry":{"x":170998.52000000048,"y":2540696.6400000006}},{"attributes":{"ID":279130,"DIS_CODE":0,"TOWNNAME":"東區","LI":"崇文里","LIN":"31鄰","STREET":"生產路","SECT":" ","MAREA":" ","LANE":"２９７巷","ALLEY":" ","HOUSE_NO":"２９號","E_COORD97":170973.56,"N_COORD97":2540714.8900000001,"ADDRESS":"生產路２９７巷２９號","OBJECTID":279124},"geometry":{"x":170973.55999999959,"y":2540714.8900000025}},{"attributes":{"ID":279131,"DIS_CODE":0,"TOWNNAME":"東區","LI":"崇文里","LIN":"31鄰","STREET":"生產路","SECT":" ","MAREA":" ","LANE":"２９７巷","ALLEY":" ","HOUSE_NO":"３０號","E_COORD97":170998.62,"N_COORD97":2540700.6200000001,"ADDRESS":"生產路２９７巷３０號","OBJECTID":279125},"geometry":{"x":170998.62000000104,"y":2540700.620000001}},{"attributes":{"ID":279132,"DIS_CODE":0,"TOWNNAME":"東區","LI":"崇文里","LIN":"31鄰","STREET":"生產路","SECT":" ","MAREA":" ","LANE":"２９７巷","ALLEY":" ","HOUSE_NO":"３１號","E_COORD97":170973.35999999999,"N_COORD97":2540719.4700000002,"ADDRESS":"生產路２９７巷３１號","OBJECTID":279126},"geometry":{"x":170973.36000000127,"y":2540719.4700000044}},{"attributes":{"ID":279133,"DIS_CODE":0,"TOWNNAME":"東區","LI":"崇文里","LIN":"31鄰","STREET":"生產路","SECT":" ","MAREA":" ","LANE":"２９７巷","ALLEY":" ","HOUSE_NO":"３２號","E_COORD97":170998.62,"N_COORD97":2540705.4199999999,"ADDRESS":"生產路２９７巷３２號","OBJECTID":279127},"geometry":{"x":170998.62000000104,"y":2540705.4200000037}},{"attributes":{"ID":279134,"DIS_CODE":0,"TOWNNAME":"東區","LI":"小東里","LIN":"4鄰","STREET":"光明街","SECT":" ","MAREA":" ","LANE":" ","ALLEY":" ","HOUSE_NO":"１８號","E_COORD97":170868.57000000001,"N_COORD97":2544412.1699999999,"ADDRESS":"光明街１８號","OBJECTID":279128},"geometry":{"x":170868.57000000123,"y":2544412.1699999999}},{"attributes":{"ID":279135,"DIS_CODE":0,"TOWNNAME":"東區","LI":"小東里","LIN":"4鄰","STREET":"光明街","SECT":" ","MAREA":" ","LANE":" ","ALLEY":" ","HOUSE_NO":"２０號","E_COORD97":170869.03,"N_COORD97":2544408,"ADDRESS":"光明街２０號","OBJECTID":279129},"geometry":{"x":170869.03000000026,"y":2544408.0000000019}},{"attributes":{"ID":279136,"DIS_CODE":0,"TOWNNAME":"安南區","LI":"城西里","LIN":"2鄰","STREET":"城西街","SECT":"三段","MAREA":" ","LANE":" ","ALLEY":" ","HOUSE_NO":"５０２號","E_COORD97":157158.42999999999,"N_COORD97":2550866.1600000001,"ADDRESS":"城西街三段５０２號","OBJECTID":279130},"geometry":{"x":157158.4299999997,"y":2550866.160000002}},{"attributes":{"ID":279137,"DIS_CODE":0,"TOWNNAME":"安南區","LI":"公親里","LIN":"2鄰","STREET":"公學路","SECT":"一段","MAREA":" ","LANE":" ","ALLEY":" ","HOUSE_NO":"２９０號之６","E_COORD97":167895.81,"N_COORD97":2552860.0099999998,"ADDRESS":"公學路一段２９０號之６","OBJECTID":279131},"geometry":{"x":167895.81000000052,"y":2552860.0100000016}},{"attributes":{"ID":279138,"DIS_CODE":0,"TOWNNAME":"東區","LI":"崇文里","LIN":"31鄰","STREET":"生產路","SECT":" ","MAREA":" ","LANE":"２９７巷","ALLEY":" ","HOUSE_NO":"３３號","E_COORD97":170973.56,"N_COORD97":2540723.4500000002,"ADDRESS":"生產路２９７巷３３號","OBJECTID":279132},"geometry":{"x":170973.55999999959,"y":2540723.4499999993}},{"attributes":{"ID":279139,"DIS_CODE":0,"TOWNNAME":"東區","LI":"崇文里","LIN":"31鄰","STREET":"生產路","SECT":" ","MAREA":" ","LANE":"２９７巷","ALLEY":" ","HOUSE_NO":"３４號","E_COORD97":170998.22,"N_COORD97":2540710.1899999999,"ADDRESS":"生產路２９７巷３４號","OBJECTID":279133},"geometry":{"x":170998.21999999974,"y":2540710.1900000032}},{"attributes":{"ID":279140,"DIS_CODE":0,"TOWNNAME":"東區","LI":"崇文里","LIN":"31鄰","STREET":"生產路","SECT":" ","MAREA":" ","LANE":"２９７巷","ALLEY":" ","HOUSE_NO":"３５號","E_COORD97":170973.35999999999,"N_COORD97":2540728.02,"ADDRESS":"生產路２９７巷３５號","OBJECTID":279134},"geometry":{"x":170973.36000000127,"y":2540728.0199999977}},{"attributes":{"ID":279141,"DIS_CODE":0,"TOWNNAME":"東區","LI":"崇文里","LIN":"31鄰","STREET":"生產路","SECT":" ","MAREA":" ","LANE":"２９７巷","ALLEY":" ","HOUSE_NO":"３６號","E_COORD97":170997.92000000001,"N_COORD97":2540714.4700000002,"ADDRESS":"生產路２９７巷３６號","OBJECTID":279135},"geometry":{"x":170997.92000000086,"y":2540714.4700000007}},{"attributes":{"ID":279142,"DIS_CODE":0,"TOWNNAME":"安南區","LI":"溪心里","LIN":"2鄰","STREET":"海佃路","SECT":"二段","MAREA":" ","LANE":" ","ALLEY":" ","HOUSE_NO":"５５９號","E_COORD97":166607.62,"N_COORD97":2549348.73,"ADDRESS":"海佃路二段５５９號","OBJECTID":279136},"geometry":{"x":166607.62000000104,"y":2549348.7300000004}},{"attributes":{"ID":279143,"DIS_CODE":0,"TOWNNAME":"安南區","LI":"溪心里","LIN":"2鄰","STREET":"海佃路","SECT":"二段","MAREA":" ","LANE":" ","ALLEY":" ","HOUSE_NO":"５６１號","E_COORD97":166605.62,"N_COORD97":2549352.73,"ADDRESS":"海佃路二段５６１號","OBJECTID":279137},"geometry":{"x":166605.62000000197,"y":2549352.7300000042}},{"attributes":{"ID":279144,"DIS_CODE":0,"TOWNNAME":"安南區","LI":"公\u25A0里","LIN":"2鄰","STREET":"安興街","SECT":" ","MAREA":" ","LANE":" ","ALLEY":" ","HOUSE_NO":"５３號","E_COORD97":164341.12,"N_COORD97":2552255.1600000001,"ADDRESS":"安興街５３號","OBJECTID":279138},"geometry":{"x":164341.12000000104,"y":2552255.1600000039}},{"attributes":{"ID":279145,"DIS_CODE":0,"TOWNNAME":"安南區","LI":"海西里","LIN":"2鄰","STREET":"海環街","SECT":" ","MAREA":" ","LANE":" ","ALLEY":" ","HOUSE_NO":"４２０號","E_COORD97":166171.95999999999,"N_COORD97":2549067.75,"ADDRESS":"海環街４２０號","OBJECTID":279139},"geometry":{"x":166171.95999999996,"y":2549067.7500000019}},{"attributes":{"ID":279146,"DIS_CODE":0,"TOWNNAME":"安南區","LI":"海西里","LIN":"2鄰","STREET":"海環街","SECT":" ","MAREA":" ","LANE":" ","ALLEY":" ","HOUSE_NO":"４２２號","E_COORD97":166179.07999999999,"N_COORD97":2549075.6899999999,"ADDRESS":"海環街４２２號","OBJECTID":279140},"geometry":{"x":166179.08000000101,"y":2549075.6900000013}},{"attributes":{"ID":279147,"DIS_CODE":0,"TOWNNAME":"安南區","LI":"總頭里","LIN":"2鄰","STREET":"總安街","SECT":"二段","MAREA":" ","LANE":" ","ALLEY":" ","HOUSE_NO":"３０３號","E_COORD97":168449.88,"N_COORD97":2550470.5299999998,"ADDRESS":"總安街二段３０３號","OBJECTID":279141},"geometry":{"x":168449.88000000082,"y":2550470.5299999993}},{"attributes":{"ID":279148,"DIS_CODE":0,"TOWNNAME":"安南區","LI":"總頭里","LIN":"2鄰","STREET":"總安街","SECT":"二段","MAREA":" ","LANE":" ","ALLEY":" ","HOUSE_NO":"３０５號","E_COORD97":168445.04999999999,"N_COORD97":2550471.3300000001,"ADDRESS":"總安街二段３０５號","OBJECTID":279142},"geometry":{"x":168445.05000000168,"y":2550471.3300000019}},{"attributes":{"ID":279149,"DIS_CODE":0,"TOWNNAME":"永康區","LI":"崑山里","LIN":"31鄰","STREET":"崑山街","SECT":" ","MAREA":" ","LANE":"１１６巷","ALLEY":" ","HOUSE_NO":"２８號","E_COORD97":174072.03,"N_COORD97":2544765.75,"ADDRESS":"崑山街１１６巷２８號","OBJECTID":279143},"geometry":{"x":174072.03000000212,"y":2544765.7500000019}},{"attributes":{"ID":279150,"DIS_CODE":0,"TOWNNAME":"永康區","LI":"復國里","LIN":"31鄰","STREET":"復國一路","SECT":" ","MAREA":" ","LANE":"１５９巷","ALLEY":" ","HOUSE_NO":"２號","E_COORD97":172696.13,"N_COORD97":2545178.5299999998,"ADDRESS":"復國一路１５９巷２號","OBJECTID":279144},"geometry":{"x":172696.13000000175,"y":2545178.5299999993}},{"attributes":{"ID":279151,"DIS_CODE":0,"TOWNNAME":"永康區","LI":"復國里","LIN":"31鄰","STREET":"復國一路","SECT":" ","MAREA":" ","LANE":"１７３巷","ALLEY":" ","HOUSE_NO":"３７號","E_COORD97":172567.85000000001,"N_COORD97":2545211.5299999998,"ADDRESS":"復國一路１７３巷３７號","OBJECTID":279145},"geometry":{"x":172567.85000000056,"y":2545211.5300000012}},{"attributes":{"ID":279152,"DIS_CODE":0,"TOWNNAME":"永康區","LI":"復國里","LIN":"31鄰","STREET":"復國一路","SECT":" ","MAREA":" ","LANE":"１５９巷","ALLEY":" ","HOUSE_NO":"８號","E_COORD97":172683.72,"N_COORD97":2545180.71,"ADDRESS":"復國一路１５９巷８號","OBJECTID":279146},"geometry":{"x":172683.72000000067,"y":2545180.7100000028}},{"attributes":{"ID":279153,"DIS_CODE":0,"TOWNNAME":"永康區","LI":"崑山里","LIN":"31鄰","STREET":"崑山街","SECT":" ","MAREA":" ","LANE":"１１６巷","ALLEY":" ","HOUSE_NO":"３４號","E_COORD97":174084.17999999999,"N_COORD97":2544761.5,"ADDRESS":"崑山街１１６巷３４號","OBJECTID":279147},"geometry":{"x":174084.18000000063,"y":2544761.5000000019}},{"attributes":{"ID":279154,"DIS_CODE":0,"TOWNNAME":"永康區","LI":"龍潭里","LIN":"31鄰","STREET":"中山北路","SECT":" ","MAREA":" ","LANE":"３２１巷","ALLEY":" ","HOUSE_NO":"１１號","E_COORD97":174668.14999999999,"N_COORD97":2547737.9399999999,"ADDRESS":"中山北路３２１巷１１號","OBJECTID":279148},"geometry":{"x":174668.1500000013,"y":2547737.9400000013}},{"attributes":{"ID":279155,"DIS_CODE":0,"TOWNNAME":"新市區","LI":"新和里","LIN":"31鄰","STREET":"光華街","SECT":" ","MAREA":" ","LANE":"２３４巷","ALLEY":" ","HOUSE_NO":"１４號","E_COORD97":177884.57000000001,"N_COORD97":2553056.25,"ADDRESS":"光華街２３４巷１４號","OBJECTID":279149},"geometry":{"x":177884.57000000123,"y":2553056.25}},{"attributes":{"ID":279156,"DIS_CODE":0,"TOWNNAME":"新市區","LI":"新和里","LIN":"31鄰","STREET":"光華街","SECT":" ","MAREA":" ","LANE":"２３４巷","ALLEY":" ","HOUSE_NO":"１０號","E_COORD97":177873.29000000001,"N_COORD97":2553056.5,"ADDRESS":"光華街２３４巷１０號","OBJECTID":279150},"geometry":{"x":177873.29000000004,"y":2553056.5000000019}},{"attributes":{"ID":279157,"DIS_CODE":0,"TOWNNAME":"新營區","LI":"忠政里","LIN":"31鄰","STREET":"府西路","SECT":" ","MAREA":" ","LANE":"４７巷","ALLEY":" ","HOUSE_NO":"１５之３號","E_COORD97":179760.95999999999,"N_COORD97":2579006.9199999999,"ADDRESS":"府西路４７巷１５之３號","OBJECTID":279151},"geometry":{"x":179760.95999999996,"y":2579006.9200000018}},{"attributes":{"ID":279158,"DIS_CODE":0,"TOWNNAME":"新營區","LI":"民榮里","LIN":"31鄰","STREET":"太子路","SECT":" ","MAREA":" ","LANE":"５３巷","ALLEY":" ","HOUSE_NO":"９號","E_COORD97":178340.81,"N_COORD97":2578001.4500000002,"ADDRESS":"太子路５３巷９號","OBJECTID":279152},"geometry":{"x":178340.80999999959,"y":2578001.4499999993}},{"attributes":{"ID":279159,"DIS_CODE":0,"TOWNNAME":"東區","LI":"小東里","LIN":"4鄰","STREET":"光明街","SECT":" ","MAREA":" ","LANE":" ","ALLEY":" ","HOUSE_NO":"２２號","E_COORD97":170869.64999999999,"N_COORD97":2544405.0699999998,"ADDRESS":"光明街２２號","OBJECTID":279153},"geometry":{"x":170869.6500000013,"y":2544405.0700000022}},{"attributes":{"ID":279160,"DIS_CODE":0,"TOWNNAME":"東區","LI":"小東里","LIN":"4鄰","STREET":"光明街","SECT":" ","MAREA":" ","LANE":" ","ALLEY":" ","HOUSE_NO":"３０號","E_COORD97":170871.5,"N_COORD97":2544388.8799999999,"ADDRESS":"光明街３０號","OBJECTID":279154},"geometry":{"x":170871.50000000093,"y":2544388.879999999}},{"attributes":{"ID":279161,"DIS_CODE":0,"TOWNNAME":"東區","LI":"小東里","LIN":"4鄰","STREET":"光明街","SECT":" ","MAREA":" ","LANE":" ","ALLEY":" ","HOUSE_NO":"３６號之１","E_COORD97":170873.66,"N_COORD97":2544372.7799999998,"ADDRESS":"光明街３６號之１","OBJECTID":279155},"geometry":{"x":170873.66000000015,"y":2544372.7799999993}},{"attributes":{"ID":279162,"DIS_CODE":0,"TOWNNAME":"東區","LI":"小東里","LIN":"4鄰","STREET":"光明街","SECT":" ","MAREA":" ","LANE":" ","ALLEY":" ","HOUSE_NO":"３６號之２","E_COORD97":170874.59,"N_COORD97":2544369.0800000001,"ADDRESS":"光明街３６號之２","OBJECTID":279156},"geometry":{"x":170874.59000000078,"y":2544369.0800000001}},{"attributes":{"ID":279163,"DIS_CODE":0,"TOWNNAME":"麻豆區","LI":"大埕里","LIN":"6鄰","STREET":"文昌路","SECT":" ","MAREA":" ","LANE":" ","ALLEY":" ","HOUSE_NO":"５７號","E_COORD97":173552.82000000001,"N_COORD97":2565439.73,"ADDRESS":"文昌路５７號","OBJECTID":279157},"geometry":{"x":173552.8200000003,"y":2565439.7300000004}},{"attributes":{"ID":279164,"DIS_CODE":0,"TOWNNAME":"新營區","LI":"民榮里","LIN":"31鄰","STREET":"太子路","SECT":" ","MAREA":" ","LANE":"５３巷","ALLEY":" ","HOUSE_NO":"４７號","E_COORD97":178385.66,"N_COORD97":2577898.25,"ADDRESS":"太子路５３巷４７號","OBJECTID":279158},"geometry":{"x":178385.66000000108,"y":2577898.25}},{"attributes":{"ID":279165,"DIS_CODE":0,"TOWNNAME":"新營區","LI":"民榮里","LIN":"31鄰","STREET":"太子路","SECT":" ","MAREA":" ","LANE":"５３巷","ALLEY":" ","HOUSE_NO":"３號","E_COORD97":178335.89000000001,"N_COORD97":2578015.8700000001,"ADDRESS":"太子路５３巷３號","OBJECTID":279159},"geometry":{"x":178335.8900000006,"y":2578015.8700000029}},{"attributes":{"ID":279166,"DIS_CODE":0,"TOWNNAME":"六甲區","LI":"六甲里","LIN":"31鄰","STREET":"中正路","SECT":" ","MAREA":" ","LANE":"１８９巷","ALLEY":" ","HOUSE_NO":"１０號","E_COORD97":183417.17000000001,"N_COORD97":2569125.5699999998,"ADDRESS":"中正路１８９巷１０號","OBJECTID":279160},"geometry":{"x":183417.16999999993,"y":2569125.5700000003}},{"attributes":{"ID":279167,"DIS_CODE":0,"TOWNNAME":"六甲區","LI":"六甲里","LIN":"31鄰","STREET":"中正路","SECT":" ","MAREA":" ","LANE":"１８９巷","ALLEY":" ","HOUSE_NO":"１２號","E_COORD97":183413.72,"N_COORD97":2569127.6000000001,"ADDRESS":"中正路１８９巷１２號","OBJECTID":279161},"geometry":{"x":183413.71999999974,"y":2569127.5999999996}},{"attributes":{"ID":279168,"DIS_CODE":0,"TOWNNAME":"六甲區","LI":"六甲里","LIN":"31鄰","STREET":"中正路","SECT":" ","MAREA":" ","LANE":"１８９巷","ALLEY":" ","HOUSE_NO":"１４號","E_COORD97":183410.23999999999,"N_COORD97":2569129.5800000001,"ADDRESS":"中正路１８９巷１４號","OBJECTID":279162},"geometry":{"x":183410.24000000022,"y":2569129.5800000038}},{"attributes":{"ID":279169,"DIS_CODE":0,"TOWNNAME":"六甲區","LI":"六甲里","LIN":"31鄰","STREET":"中正路","SECT":" ","MAREA":" ","LANE":"１８９巷","ALLEY":" ","HOUSE_NO":"１６號","E_COORD97":183406.51000000001,"N_COORD97":2569131.9700000002,"ADDRESS":"中正路１８９巷１６號","OBJECTID":279163},"geometry":{"x":183406.50999999978,"y":2569131.9700000025}},{"attributes":{"ID":279170,"DIS_CODE":0,"TOWNNAME":"六甲區","LI":"六甲里","LIN":"31鄰","STREET":"中正路","SECT":" ","MAREA":" ","LANE":"１８９巷","ALLEY":" ","HOUSE_NO":"１８號","E_COORD97":183402.92000000001,"N_COORD97":2569133.6499999999,"ADDRESS":"中正路１８９巷１８號","OBJECTID":279164},"geometry":{"x":183402.92000000086,"y":2569133.6500000022}},{"attributes":{"ID":279171,"DIS_CODE":0,"TOWNNAME":"六甲區","LI":"六甲里","LIN":"31鄰","STREET":"中正路","SECT":" ","MAREA":" ","LANE":"１８９巷","ALLEY":" ","HOUSE_NO":"２０號","E_COORD97":183399.70000000001,"N_COORD97":2569135.8599999999,"ADDRESS":"中正路１８９巷２０號","OBJECTID":279165},"geometry":{"x":183399.70000000112,"y":2569135.8599999994}},{"attributes":{"ID":279172,"DIS_CODE":0,"TOWNNAME":"六甲區","LI":"六甲里","LIN":"31鄰","STREET":"中正路","SECT":" ","MAREA":" ","LANE":"１８９巷","ALLEY":" ","HOUSE_NO":"２２號","E_COORD97":183396.39000000001,"N_COORD97":2569137.79,"ADDRESS":"中正路１８９巷２２號","OBJECTID":279166},"geometry":{"x":183396.3900000006,"y":2569137.790000001}},{"attributes":{"ID":279173,"DIS_CODE":0,"TOWNNAME":"六甲區","LI":"六甲里","LIN":"31鄰","STREET":"中正路","SECT":" ","MAREA":" ","LANE":"１８９巷","ALLEY":" ","HOUSE_NO":"２８號","E_COORD97":183385.28,"N_COORD97":2569144.25,"ADDRESS":"中正路１８９巷２８號","OBJECTID":279167},"geometry":{"x":183385.28000000212,"y":2569144.25}},{"attributes":{"ID":279174,"DIS_CODE":0,"TOWNNAME":"六甲區","LI":"六甲里","LIN":"31鄰","STREET":"中正路","SECT":" ","MAREA":" ","LANE":"１８９巷","ALLEY":" ","HOUSE_NO":"３０號","E_COORD97":183381.72,"N_COORD97":2569145.8199999998,"ADDRESS":"中正路１８９巷３０號","OBJECTID":279168},"geometry":{"x":183381.7200000016,"y":2569145.8200000022}},{"attributes":{"ID":279175,"DIS_CODE":0,"TOWNNAME":"六甲區","LI":"六甲里","LIN":"31鄰","STREET":"中正路","SECT":" ","MAREA":" ","LANE":"１８９巷","ALLEY":" ","HOUSE_NO":"３２號","E_COORD97":183378.01000000001,"N_COORD97":2569147.02,"ADDRESS":"中正路１８９巷３２號","OBJECTID":279169},"geometry":{"x":183378.00999999978,"y":2569147.0200000014}},{"attributes":{"ID":279176,"DIS_CODE":0,"TOWNNAME":"六甲區","LI":"六甲里","LIN":"31鄰","STREET":"中正路","SECT":" ","MAREA":" ","LANE":"１８９巷","ALLEY":" ","HOUSE_NO":"３４號","E_COORD97":183374.54000000001,"N_COORD97":2569148.46,"ADDRESS":"中正路１８９巷３４號","OBJECTID":279170},"geometry":{"x":183374.54000000004,"y":2569148.4600000028}},{"attributes":{"ID":279177,"DIS_CODE":0,"TOWNNAME":"東區","LI":"東安里","LIN":"20鄰","STREET":"衛國街","SECT":" ","MAREA":" ","LANE":" ","ALLEY":" ","HOUSE_NO":"３４號之１","E_COORD97":170258.67000000001,"N_COORD97":2543036.6000000001,"ADDRESS":"衛國街３４號之１","OBJECTID":279171},"geometry":{"x":170258.67000000086,"y":2543036.6000000034}},{"attributes":{"ID":279178,"DIS_CODE":0,"TOWNNAME":"六甲區","LI":"六甲里","LIN":"31鄰","STREET":"中正路","SECT":" ","MAREA":" ","LANE":"１８９巷","ALLEY":" ","HOUSE_NO":"８號","E_COORD97":183420.94,"N_COORD97":2569123.2599999998,"ADDRESS":"中正路１８９巷８號","OBJECTID":279172},"geometry":{"x":183420.94000000041,"y":2569123.2599999998}},{"attributes":{"ID":279179,"DIS_CODE":0,"TOWNNAME":"東區","LI":"大智里","LIN":"4鄰","STREET":"生產路","SECT":" ","MAREA":" ","LANE":" ","ALLEY":" ","HOUSE_NO":"５３２號","E_COORD97":171077.39999999999,"N_COORD97":2540648.6299999999,"ADDRESS":"生產路５３２號","OBJECTID":279173},"geometry":{"x":171077.40000000037,"y":2540648.6299999971}},{"attributes":{"ID":279180,"DIS_CODE":0,"TOWNNAME":"東區","LI":"大德里","LIN":"8鄰","STREET":"立德十一路","SECT":" ","MAREA":" ","LANE":" ","ALLEY":" ","HOUSE_NO":"１８號之１","E_COORD97":169477.56,"N_COORD97":2542084.0899999999,"ADDRESS":"立德十一路１８號之１","OBJECTID":279174},"geometry":{"x":169477.56000000052,"y":2542084.0900000036}},{"attributes":{"ID":279181,"DIS_CODE":0,"TOWNNAME":"東區","LI":"大德里","LIN":"8鄰","STREET":"立德十一路","SECT":" ","MAREA":" ","LANE":" ","ALLEY":" ","HOUSE_NO":"１８號","E_COORD97":169475.07999999999,"N_COORD97":2542088.3500000001,"ADDRESS":"立德十一路１８號","OBJECTID":279175},"geometry":{"x":169475.08000000007,"y":2542088.3499999996}},{"attributes":{"ID":279182,"DIS_CODE":0,"TOWNNAME":"東區","LI":"小東里","LIN":"15鄰","STREET":"光明街","SECT":" ","MAREA":" ","LANE":" ","ALLEY":" ","HOUSE_NO":"９６號","E_COORD97":170901.57999999999,"N_COORD97":2544103.6899999999,"ADDRESS":"光明街９６號","OBJECTID":279176},"geometry":{"x":170901.58000000101,"y":2544103.6900000032}},{"attributes":{"ID":279183,"DIS_CODE":0,"TOWNNAME":"東區","LI":"大德里","LIN":"8鄰","STREET":"立德十一路","SECT":" ","MAREA":" ","LANE":" ","ALLEY":" ","HOUSE_NO":"１８號之３","E_COORD97":169477.20999999999,"N_COORD97":2542074.8799999999,"ADDRESS":"立德十一路１８號之３","OBJECTID":279177},"geometry":{"x":169477.21000000089,"y":2542074.8800000008}},{"attributes":{"ID":279184,"DIS_CODE":0,"TOWNNAME":"新營區","LI":"王公里","LIN":"15鄰","STREET":"大勇街","SECT":" ","MAREA":" ","LANE":"６巷","ALLEY":" ","HOUSE_NO":"１號","E_COORD97":180199.381976,"N_COORD97":2579423.3727099998,"ADDRESS":"大勇街６巷１號","OBJECTID":279178},"geometry":{"x":180199.38197600003,"y":2579423.3727130014}},{"attributes":{"ID":279185,"DIS_CODE":0,"TOWNNAME":"東區","LI":"中西里","LIN":"7鄰","STREET":"懷恩街","SECT":" ","MAREA":" ","LANE":" ","ALLEY":" ","HOUSE_NO":"３６號","E_COORD97":169878.07999999999,"N_COORD97":2543332.75,"ADDRESS":"懷恩街３６號","OBJECTID":279179},"geometry":{"x":169878.08000000101,"y":2543332.75}},{"attributes":{"ID":279186,"DIS_CODE":0,"TOWNNAME":"東區","LI":"和平里","LIN":"1鄰","STREET":"仁和路","SECT":" ","MAREA":" ","LANE":" ","ALLEY":" ","HOUSE_NO":"１１號之１","E_COORD97":171095.42999999999,"N_COORD97":2542210.7000000002,"ADDRESS":"仁和路１１號之１","OBJECTID":279180},"geometry":{"x":171095.43000000063,"y":2542210.6999999993}},{"attributes":{"ID":279187,"DIS_CODE":0,"TOWNNAME":"新營區","LI":"民榮里","LIN":"31鄰","STREET":"太子路","SECT":" ","MAREA":" ","LANE":"５３巷","ALLEY":" ","HOUSE_NO":"３１號","E_COORD97":178368.51999999999,"N_COORD97":2577948.1600000001,"ADDRESS":"太子路５３巷３１號","OBJECTID":279181},"geometry":{"x":178368.52000000142,"y":2577948.160000002}},{"attributes":{"ID":279188,"DIS_CODE":0,"TOWNNAME":"新營區","LI":"民榮里","LIN":"31鄰","STREET":"太子路","SECT":" ","MAREA":" ","LANE":"５３巷","ALLEY":" ","HOUSE_NO":"７號","E_COORD97":178338.85999999999,"N_COORD97":2578007,"ADDRESS":"太子路５３巷７號","OBJECTID":279182},"geometry":{"x":178338.86000000127,"y":2578007.0000000019}},{"attributes":{"ID":279189,"DIS_CODE":0,"TOWNNAME":"玉井區","LI":"玉田里","LIN":"31鄰","STREET":"民生路","SECT":" ","MAREA":" ","LANE":"２５７巷","ALLEY":" ","HOUSE_NO":"７號","E_COORD97":195215.59,"N_COORD97":2558219.29,"ADDRESS":"民生路２５７巷７號","OBJECTID":279183},"geometry":{"x":195215.59000000078,"y":2558219.2899999991}},{"attributes":{"ID":279190,"DIS_CODE":0,"TOWNNAME":"玉井區","LI":"玉田里","LIN":"31鄰","STREET":"民生路","SECT":" ","MAREA":" ","LANE":"２７９巷","ALLEY":" ","HOUSE_NO":"３號","E_COORD97":195199.88,"N_COORD97":2558170.2799999998,"ADDRESS":"民生路２７９巷３號","OBJECTID":279184},"geometry":{"x":195199.88000000082,"y":2558170.2800000012}},{"attributes":{"ID":279191,"DIS_CODE":0,"TOWNNAME":"玉井區","LI":"玉田里","LIN":"31鄰","STREET":"民族路","SECT":" ","MAREA":" ","LANE":"９９巷","ALLEY":" ","HOUSE_NO":"１２號","E_COORD97":195253.29000000001,"N_COORD97":2558157.29,"ADDRESS":"民族路９９巷１２號","OBJECTID":279185},"geometry":{"x":195253.29000000097,"y":2558157.290000001}},{"attributes":{"ID":279192,"DIS_CODE":0,"TOWNNAME":"新營區","LI":"王公里","LIN":"31鄰","STREET":"大勇街","SECT":" ","MAREA":" ","LANE":"１９巷","ALLEY":" ","HOUSE_NO":"７號","E_COORD97":180228.98999999999,"N_COORD97":2579489.71,"ADDRESS":"大勇街１９巷７號","OBJECTID":279186},"geometry":{"x":180228.98999999929,"y":2579489.7100000009}},{"attributes":{"ID":279193,"DIS_CODE":0,"TOWNNAME":"新營區","LI":"南興里","LIN":"31鄰","STREET":"建業路","SECT":" ","MAREA":" ","LANE":"１６７巷","ALLEY":" ","HOUSE_NO":"７號","E_COORD97":178341.26999999999,"N_COORD97":2577447.71,"ADDRESS":"建業路１６７巷７號","OBJECTID":279187},"geometry":{"x":178341.26999999955,"y":2577447.7100000028}},{"attributes":{"ID":279194,"DIS_CODE":0,"TOWNNAME":"東區","LI":"裕農里","LIN":"6鄰","STREET":"裕農路","SECT":" ","MAREA":" ","LANE":" ","ALLEY":" ","HOUSE_NO":"３４３號","E_COORD97":170972.26999999999,"N_COORD97":2543050.71,"ADDRESS":"裕農路３４３號","OBJECTID":279188},"geometry":{"x":170972.26999999955,"y":2543050.7100000046}},{"attributes":{"ID":279195,"DIS_CODE":0,"TOWNNAME":"安南區","LI":"四草里","LIN":"4鄰","STREET":"大眾五街","SECT":" ","MAREA":" ","LANE":"３６巷","ALLEY":" ","HOUSE_NO":"８號","E_COORD97":160717.446536,"N_COORD97":2546273.25666,"ADDRESS":"大眾五街３６巷８號","OBJECTID":279189},"geometry":{"x":160717.44653600082,"y":2546273.2566560041}},{"attributes":{"ID":279196,"DIS_CODE":0,"TOWNNAME":"新營區","LI":"南興里","LIN":"31鄰","STREET":"建業路","SECT":" ","MAREA":" ","LANE":"１６７巷","ALLEY":" ","HOUSE_NO":"５號","E_COORD97":178346.35999999999,"N_COORD97":2577446.5800000001,"ADDRESS":"建業路１６７巷５號","OBJECTID":279190},"geometry":{"x":178346.36000000034,"y":2577446.5800000019}},{"attributes":{"ID":279197,"DIS_CODE":0,"TOWNNAME":"新營區","LI":"三仙里","LIN":"31鄰","STREET":"三興街","SECT":" ","MAREA":" ","LANE":"１４４巷","ALLEY":" ","HOUSE_NO":"３０號","E_COORD97":179562.48999999999,"N_COORD97":2579290.21,"ADDRESS":"三興街１４４巷３０號","OBJECTID":279191},"geometry":{"x":179562.49000000022,"y":2579290.2100000009}},{"attributes":{"ID":279198,"DIS_CODE":0,"TOWNNAME":"新營區","LI":"王公里","LIN":"31鄰","STREET":"大勇街","SECT":" ","MAREA":" ","LANE":"１９巷","ALLEY":" ","HOUSE_NO":"４號","E_COORD97":180230.98999999999,"N_COORD97":2579469.77,"ADDRESS":"大勇街１９巷４號","OBJECTID":279192},"geometry":{"x":180230.99000000115,"y":2579469.7700000014}},{"attributes":{"ID":279199,"DIS_CODE":0,"TOWNNAME":"南區","LI":"金華里","LIN":"31鄰","STREET":"新孝路","SECT":" ","MAREA":" ","LANE":"１７２巷","ALLEY":" ","HOUSE_NO":"５６號之１","E_COORD97":166529.42999999999,"N_COORD97":2542199.3900000001,"ADDRESS":"新孝路１７２巷５６號之１","OBJECTID":279193},"geometry":{"x":166529.4299999997,"y":2542199.3900000025}},{"attributes":{"ID":279200,"DIS_CODE":0,"TOWNNAME":"安南區","LI":"總頭里","LIN":"2鄰","STREET":"總安街","SECT":"二段","MAREA":" ","LANE":" ","ALLEY":" ","HOUSE_NO":"３３０號","E_COORD97":168384.69,"N_COORD97":2550538.4900000002,"ADDRESS":"總安街二段３３０號","OBJECTID":279194},"geometry":{"x":168384.69000000041,"y":2550538.4900000021}},{"attributes":{"ID":279201,"DIS_CODE":0,"TOWNNAME":"安南區","LI":"總頭里","LIN":"2鄰","STREET":"總安街","SECT":"二段","MAREA":" ","LANE":" ","ALLEY":" ","HOUSE_NO":"３３０號之１","E_COORD97":168379.60000000001,"N_COORD97":2550538.4900000002,"ADDRESS":"總安街二段３３０號之１","OBJECTID":279195},"geometry":{"x":168379.59999999963,"y":2550538.4900000021}},{"attributes":{"ID":279202,"DIS_CODE":0,"TOWNNAME":"安南區","LI":"海佃里","LIN":"2鄰","STREET":"國安街","SECT":" ","MAREA":" ","LANE":" ","ALLEY":" ","HOUSE_NO":"６８號","E_COORD97":166974.14000000001,"N_COORD97":2547016.7200000002,"ADDRESS":"國安街６８號","OBJECTID":279196},"geometry":{"x":166974.13999999966,"y":2547016.7200000007}},{"attributes":{"ID":279203,"DIS_CODE":0,"TOWNNAME":"東區","LI":"崇文里","LIN":"2鄰","STREET":"崇善路","SECT":" ","MAREA":" ","LANE":" ","ALLEY":" ","HOUSE_NO":"５７４之１號","E_COORD97":171086.60000000001,"N_COORD97":2541190.2000000002,"ADDRESS":"崇善路５７４之１號","OBJECTID":279197},"geometry":{"x":171086.59999999963,"y":2541190.1999999993}},{"attributes":{"ID":279204,"DIS_CODE":0,"TOWNNAME":"東區","LI":"崇文里","LIN":"2鄰","STREET":"崇善路","SECT":" ","MAREA":" ","LANE":" ","ALLEY":" ","HOUSE_NO":"５７４號","E_COORD97":171084.01000000001,"N_COORD97":2541198.0499999998,"ADDRESS":"崇善路５７４號","OBJECTID":279198},"geometry":{"x":171084.00999999978,"y":2541198.0500000026}},{"attributes":{"ID":279205,"DIS_CODE":0,"TOWNNAME":"東區","LI":"崇文里","LIN":"2鄰","STREET":"崇善路","SECT":" ","MAREA":" ","LANE":" ","ALLEY":" ","HOUSE_NO":"５７６號","E_COORD97":171088.48999999999,"N_COORD97":2541186.1200000001,"ADDRESS":"崇善路５７６號","OBJECTID":279199},"geometry":{"x":171088.49000000022,"y":2541186.120000001}},{"attributes":{"ID":279206,"DIS_CODE":0,"TOWNNAME":"南區","LI":"金華里","LIN":"31鄰","STREET":"新孝路","SECT":" ","MAREA":" ","LANE":"１７２巷","ALLEY":" ","HOUSE_NO":"５６號之２","E_COORD97":166524.59,"N_COORD97":2542200.1499999999,"ADDRESS":"新孝路１７２巷５６號之２","OBJECTID":279200},"geometry":{"x":166524.59000000078,"y":2542200.1500000022}}]}