{"displayFieldName":"TOWNNAME","fieldAliases":{"ID":"ID","DIS_CODE":"DIS_CODE","TOWNNAME":"TOWNNAME","LI":"LI","LIN":"LIN","STREET":"STREET","SECT":"SECT","MAREA":"MAREA","LANE":"LANE","ALLEY":"ALLEY","HOUSE_NO":"HOUSE_NO","E_COORD97":"E_COORD97","N_COORD97":"N_COORD97","ADDRESS":"ADDRESS","OBJECTID":"OBJECTID"},"geometryType":"esriGeometryPoint","spatialReference":{"wkid":102443,"latestWkid":3826},"fields":[{"name":"ID","type":"esriFieldTypeDouble","alias":"ID"},{"name":"DIS_CODE","type":"esriFieldTypeInteger","alias":"DIS_CODE"},{"name":"TOWNNAME","type":"esriFieldTypeString","alias":"TOWNNAME","length":8},{"name":"LI","type":"esriFieldTypeString","alias":"LI","length":8},{"name":"LIN","type":"esriFieldTypeString","alias":"LIN","length":12},{"name":"STREET","type":"esriFieldTypeString","alias":"STREET","length":20},{"name":"SECT","type":"esriFieldTypeString","alias":"SECT","length":8},{"name":"MAREA","type":"esriFieldTypeString","alias":"MAREA","length":12},{"name":"LANE","type":"esriFieldTypeString","alias":"LANE","length":10},{"name":"ALLEY","type":"esriFieldTypeString","alias":"ALLEY","length":10},{"name":"HOUSE_NO","type":"esriFieldTypeString","alias":"HOUSE_NO","length":20},{"name":"E_COORD97","type":"esriFieldTypeDouble","alias":"E_COORD97"},{"name":"N_COORD97","type":"esriFieldTypeDouble","alias":"N_COORD97"},{"name":"ADDRESS","type":"esriFieldTypeString","alias":"ADDRESS","length":50},{"name":"OBJECTID","type":"esriFieldTypeOID","alias":"OBJECTID"}],"features":[{"attributes":{"ID":513028,"DIS_CODE":0,"TOWNNAME":"安平區","LI":"建平里","LIN":"1鄰","STREET":"慶平路","SECT":" ","MAREA":" ","LANE":" ","ALLEY":" ","HOUSE_NO":"６２號","E_COORD97":166223.88,"N_COORD97":2544191.7599999998,"ADDRESS":"慶平路６２號","OBJECTID":513001},"geometry":{"x":166223.88000000175,"y":2544191.7600000035}},{"attributes":{"ID":513029,"DIS_CODE":0,"TOWNNAME":"東區","LI":"崇明里","LIN":"1鄰","STREET":"中華東路","SECT":"三段","MAREA":" ","LANE":" ","ALLEY":" ","HOUSE_NO":"５４１號四樓之２","E_COORD97":169596.76000000001,"N_COORD97":2541439.25,"ADDRESS":"中華東路三段５４１號四樓之２","OBJECTID":513002},"geometry":{"x":169596.76000000071,"y":2541439.2500000037}},{"attributes":{"ID":513030,"DIS_CODE":0,"TOWNNAME":"東區","LI":"崇明里","LIN":"1鄰","STREET":"中華東路","SECT":"三段","MAREA":" ","LANE":" ","ALLEY":" ","HOUSE_NO":"５４１號五樓","E_COORD97":169596.76000000001,"N_COORD97":2541439.25,"ADDRESS":"中華東路三段５４１號五樓","OBJECTID":513003},"geometry":{"x":169596.76000000071,"y":2541439.2500000037}},{"attributes":{"ID":513031,"DIS_CODE":0,"TOWNNAME":"東區","LI":"崇明里","LIN":"1鄰","STREET":"中華東路","SECT":"三段","MAREA":" ","LANE":" ","ALLEY":" ","HOUSE_NO":"５４１號六樓","E_COORD97":169596.76000000001,"N_COORD97":2541439.25,"ADDRESS":"中華東路三段５４１號六樓","OBJECTID":513004},"geometry":{"x":169596.76000000071,"y":2541439.2500000037}},{"attributes":{"ID":513032,"DIS_CODE":0,"TOWNNAME":"東區","LI":"崇明里","LIN":"1鄰","STREET":"中華東路","SECT":"三段","MAREA":" ","LANE":" ","ALLEY":" ","HOUSE_NO":"５４１號七樓之１","E_COORD97":169596.76000000001,"N_COORD97":2541439.25,"ADDRESS":"中華東路三段５４１號七樓之１","OBJECTID":513005},"geometry":{"x":169596.76000000071,"y":2541439.2500000037}},{"attributes":{"ID":513033,"DIS_CODE":0,"TOWNNAME":"東區","LI":"崇明里","LIN":"1鄰","STREET":"中華東路","SECT":"三段","MAREA":" ","LANE":" ","ALLEY":" ","HOUSE_NO":"５４１號七樓之２","E_COORD97":169596.76000000001,"N_COORD97":2541439.25,"ADDRESS":"中華東路三段５４１號七樓之２","OBJECTID":513006},"geometry":{"x":169596.76000000071,"y":2541439.2500000037}},{"attributes":{"ID":513034,"DIS_CODE":0,"TOWNNAME":"東區","LI":"崇明里","LIN":"1鄰","STREET":"中華東路","SECT":"三段","MAREA":" ","LANE":" ","ALLEY":" ","HOUSE_NO":"５４１號十樓","E_COORD97":169596.76000000001,"N_COORD97":2541439.25,"ADDRESS":"中華東路三段５４１號十樓","OBJECTID":513007},"geometry":{"x":169596.76000000071,"y":2541439.2500000037}},{"attributes":{"ID":513035,"DIS_CODE":0,"TOWNNAME":"東區","LI":"東聖里","LIN":"1鄰","STREET":"裕農路","SECT":" ","MAREA":" ","LANE":" ","ALLEY":" ","HOUSE_NO":"５８８號二樓","E_COORD97":171544,"N_COORD97":2543202.0499999998,"ADDRESS":"裕農路５８８號二樓","OBJECTID":513008},"geometry":{"x":171544,"y":2543202.0500000026}},{"attributes":{"ID":513036,"DIS_CODE":0,"TOWNNAME":"東區","LI":"東聖里","LIN":"1鄰","STREET":"裕農路","SECT":" ","MAREA":" ","LANE":" ","ALLEY":" ","HOUSE_NO":"５８８號三樓","E_COORD97":171544,"N_COORD97":2543202.0499999998,"ADDRESS":"裕農路５８８號三樓","OBJECTID":513009},"geometry":{"x":171544,"y":2543202.0500000026}},{"attributes":{"ID":513037,"DIS_CODE":0,"TOWNNAME":"東區","LI":"東聖里","LIN":"1鄰","STREET":"裕農路","SECT":" ","MAREA":" ","LANE":" ","ALLEY":" ","HOUSE_NO":"５８８號四樓","E_COORD97":171544,"N_COORD97":2543202.0499999998,"ADDRESS":"裕農路５８８號四樓","OBJECTID":513010},"geometry":{"x":171544,"y":2543202.0500000026}},{"attributes":{"ID":513038,"DIS_CODE":0,"TOWNNAME":"永康區","LI":"大橋里","LIN":"1鄰","STREET":"中華路","SECT":" ","MAREA":" ","LANE":" ","ALLEY":" ","HOUSE_NO":"８６２號二樓","E_COORD97":170633.48999999999,"N_COORD97":2546605.75,"ADDRESS":"中華路８６２號二樓","OBJECTID":513011},"geometry":{"x":170633.49000000022,"y":2546605.7499999981}},{"attributes":{"ID":513039,"DIS_CODE":0,"TOWNNAME":"永康區","LI":"大灣里","LIN":"1鄰","STREET":"大安街","SECT":" ","MAREA":" ","LANE":" ","ALLEY":" ","HOUSE_NO":"４１８號四樓之３","E_COORD97":174639.51999999999,"N_COORD97":2545787,"ADDRESS":"大安街４１８號四樓之３","OBJECTID":513012},"geometry":{"x":174639.52000000048,"y":2545786.9999999981}},{"attributes":{"ID":513040,"DIS_CODE":0,"TOWNNAME":"永康區","LI":"大灣里","LIN":"1鄰","STREET":"大安街","SECT":" ","MAREA":" ","LANE":" ","ALLEY":" ","HOUSE_NO":"４１８號五樓之６","E_COORD97":174639.51999999999,"N_COORD97":2545787,"ADDRESS":"大安街４１８號五樓之６","OBJECTID":513013},"geometry":{"x":174639.52000000048,"y":2545786.9999999981}},{"attributes":{"ID":513041,"DIS_CODE":0,"TOWNNAME":"永康區","LI":"大灣里","LIN":"1鄰","STREET":"大安街","SECT":" ","MAREA":" ","LANE":" ","ALLEY":" ","HOUSE_NO":"４１８號二樓之２","E_COORD97":174639.54999999999,"N_COORD97":2545787,"ADDRESS":"大安街４１８號二樓之２","OBJECTID":513014},"geometry":{"x":174639.55000000075,"y":2545786.9999999981}},{"attributes":{"ID":513042,"DIS_CODE":0,"TOWNNAME":"永康區","LI":"大灣里","LIN":"1鄰","STREET":"大安街","SECT":" ","MAREA":" ","LANE":" ","ALLEY":" ","HOUSE_NO":"４１８號二樓之１","E_COORD97":174639.42000000001,"N_COORD97":2545787,"ADDRESS":"大安街４１８號二樓之１","OBJECTID":513015},"geometry":{"x":174639.41999999993,"y":2545786.9999999981}},{"attributes":{"ID":513043,"DIS_CODE":0,"TOWNNAME":"永康區","LI":"大灣里","LIN":"1鄰","STREET":"大安街","SECT":" ","MAREA":" ","LANE":" ","ALLEY":" ","HOUSE_NO":"４１８號四樓之６","E_COORD97":174639.51999999999,"N_COORD97":2545787,"ADDRESS":"大安街４１８號四樓之６","OBJECTID":513016},"geometry":{"x":174639.52000000048,"y":2545786.9999999981}},{"attributes":{"ID":513044,"DIS_CODE":0,"TOWNNAME":"永康區","LI":"大灣里","LIN":"1鄰","STREET":"大安街","SECT":" ","MAREA":" ","LANE":" ","ALLEY":" ","HOUSE_NO":"４１８號四樓之５","E_COORD97":174639.57000000001,"N_COORD97":2545787,"ADDRESS":"大安街４１８號四樓之５","OBJECTID":513017},"geometry":{"x":174639.57000000216,"y":2545786.9999999981}},{"attributes":{"ID":513045,"DIS_CODE":0,"TOWNNAME":"永康區","LI":"大灣里","LIN":"1鄰","STREET":"大安街","SECT":" ","MAREA":" ","LANE":" ","ALLEY":" ","HOUSE_NO":"４１８號五樓之１","E_COORD97":174639.42000000001,"N_COORD97":2545787,"ADDRESS":"大安街４１８號五樓之１","OBJECTID":513018},"geometry":{"x":174639.41999999993,"y":2545786.9999999981}},{"attributes":{"ID":513046,"DIS_CODE":0,"TOWNNAME":"安平區","LI":"怡平里","LIN":"7鄰","STREET":"慶平路","SECT":" ","MAREA":" ","LANE":" ","ALLEY":" ","HOUSE_NO":"１９４號","E_COORD97":165818.53,"N_COORD97":2544197.5800000001,"ADDRESS":"慶平路１９４號","OBJECTID":513019},"geometry":{"x":165818.53000000119,"y":2544197.5800000019}},{"attributes":{"ID":513047,"DIS_CODE":0,"TOWNNAME":"永康區","LI":"大灣里","LIN":"1鄰","STREET":"大安街","SECT":" ","MAREA":" ","LANE":" ","ALLEY":" ","HOUSE_NO":"４１８號三樓之５","E_COORD97":174639.57000000001,"N_COORD97":2545787,"ADDRESS":"大安街４１８號三樓之５","OBJECTID":513020},"geometry":{"x":174639.57000000216,"y":2545786.9999999981}},{"attributes":{"ID":513048,"DIS_CODE":0,"TOWNNAME":"永康區","LI":"大灣里","LIN":"1鄰","STREET":"大安街","SECT":" ","MAREA":" ","LANE":" ","ALLEY":" ","HOUSE_NO":"４１８號五樓之２","E_COORD97":174639.54999999999,"N_COORD97":2545787,"ADDRESS":"大安街４１８號五樓之２","OBJECTID":513021},"geometry":{"x":174639.55000000075,"y":2545786.9999999981}},{"attributes":{"ID":513049,"DIS_CODE":0,"TOWNNAME":"永康區","LI":"大橋里","LIN":"1鄰","STREET":"中華路","SECT":" ","MAREA":" ","LANE":" ","ALLEY":" ","HOUSE_NO":"８６２號五樓之２","E_COORD97":170635.76000000001,"N_COORD97":2546605.79,"ADDRESS":"中華路８６２號五樓之２","OBJECTID":513022},"geometry":{"x":170635.76000000071,"y":2546605.790000001}},{"attributes":{"ID":513050,"DIS_CODE":0,"TOWNNAME":"永康區","LI":"六合里","LIN":"1鄰","STREET":"新興街","SECT":" ","MAREA":" ","LANE":" ","ALLEY":" ","HOUSE_NO":"８號十樓之２","E_COORD97":170922.70999999999,"N_COORD97":2545756.79,"ADDRESS":"新興街８號十樓之２","OBJECTID":513023},"geometry":{"x":170922.71000000089,"y":2545756.7899999991}},{"attributes":{"ID":513051,"DIS_CODE":0,"TOWNNAME":"永康區","LI":"六合里","LIN":"1鄰","STREET":"新興街","SECT":" ","MAREA":" ","LANE":" ","ALLEY":" ","HOUSE_NO":"８之２號六樓之３","E_COORD97":170938.87,"N_COORD97":2545746.29,"ADDRESS":"新興街８之２號六樓之３","OBJECTID":513024},"geometry":{"x":170938.87000000104,"y":2545746.2899999991}},{"attributes":{"ID":513052,"DIS_CODE":0,"TOWNNAME":"永康區","LI":"六合里","LIN":"1鄰","STREET":"新興街","SECT":" ","MAREA":" ","LANE":" ","ALLEY":" ","HOUSE_NO":"８之２號八樓之５","E_COORD97":170938.92999999999,"N_COORD97":2545746.29,"ADDRESS":"新興街８之２號八樓之５","OBJECTID":513025},"geometry":{"x":170938.9299999997,"y":2545746.2899999991}},{"attributes":{"ID":513053,"DIS_CODE":0,"TOWNNAME":"永康區","LI":"六合里","LIN":"1鄰","STREET":"新興街","SECT":" ","MAREA":" ","LANE":" ","ALLEY":" ","HOUSE_NO":"８號五樓之５","E_COORD97":170922.73000000001,"N_COORD97":2545756.79,"ADDRESS":"新興街８號五樓之５","OBJECTID":513026},"geometry":{"x":170922.72999999952,"y":2545756.7899999991}},{"attributes":{"ID":513054,"DIS_CODE":0,"TOWNNAME":"永康區","LI":"六合里","LIN":"1鄰","STREET":"新興街","SECT":" ","MAREA":" ","LANE":" ","ALLEY":" ","HOUSE_NO":"８之１號三樓之３","E_COORD97":170947.97,"N_COORD97":2545766.79,"ADDRESS":"新興街８之１號三樓之３","OBJECTID":513027},"geometry":{"x":170947.97000000067,"y":2545766.7899999991}},{"attributes":{"ID":513055,"DIS_CODE":0,"TOWNNAME":"永康區","LI":"六合里","LIN":"1鄰","STREET":"新興街","SECT":" ","MAREA":" ","LANE":" ","ALLEY":" ","HOUSE_NO":"８之１號四樓之６","E_COORD97":170947.98000000001,"N_COORD97":2545766.79,"ADDRESS":"新興街８之１號四樓之６","OBJECTID":513028},"geometry":{"x":170947.98000000045,"y":2545766.7899999991}},{"attributes":{"ID":513056,"DIS_CODE":0,"TOWNNAME":"永康區","LI":"六合里","LIN":"1鄰","STREET":"新興街","SECT":" ","MAREA":" ","LANE":" ","ALLEY":" ","HOUSE_NO":"８號三樓之２","E_COORD97":170922.70999999999,"N_COORD97":2545756.79,"ADDRESS":"新興街８號三樓之２","OBJECTID":513029},"geometry":{"x":170922.71000000089,"y":2545756.7899999991}},{"attributes":{"ID":513057,"DIS_CODE":0,"TOWNNAME":"永康區","LI":"六合里","LIN":"1鄰","STREET":"新興街","SECT":" ","MAREA":" ","LANE":" ","ALLEY":" ","HOUSE_NO":"８之１號七樓之２","E_COORD97":170948.01000000001,"N_COORD97":2545766.79,"ADDRESS":"新興街８之１號七樓之２","OBJECTID":513030},"geometry":{"x":170948.01000000071,"y":2545766.7899999991}},{"attributes":{"ID":513058,"DIS_CODE":0,"TOWNNAME":"永康區","LI":"六合里","LIN":"1鄰","STREET":"新興街","SECT":" ","MAREA":" ","LANE":" ","ALLEY":" ","HOUSE_NO":"８之２號九樓之３","E_COORD97":170938.87,"N_COORD97":2545746.29,"ADDRESS":"新興街８之２號九樓之３","OBJECTID":513031},"geometry":{"x":170938.87000000104,"y":2545746.2899999991}},{"attributes":{"ID":513059,"DIS_CODE":0,"TOWNNAME":"永康區","LI":"六合里","LIN":"1鄰","STREET":"新興街","SECT":" ","MAREA":" ","LANE":" ","ALLEY":" ","HOUSE_NO":"８之２號四樓之２","E_COORD97":170938.91,"N_COORD97":2545746.29,"ADDRESS":"新興街８之２號四樓之２","OBJECTID":513032},"geometry":{"x":170938.91000000108,"y":2545746.2899999991}},{"attributes":{"ID":513060,"DIS_CODE":0,"TOWNNAME":"永康區","LI":"六合里","LIN":"1鄰","STREET":"新興街","SECT":" ","MAREA":" ","LANE":" ","ALLEY":" ","HOUSE_NO":"８之２號八樓之１","E_COORD97":170938.76999999999,"N_COORD97":2545746.29,"ADDRESS":"新興街８之２號八樓之１","OBJECTID":513033},"geometry":{"x":170938.77000000048,"y":2545746.2899999991}},{"attributes":{"ID":513061,"DIS_CODE":0,"TOWNNAME":"永康區","LI":"六合里","LIN":"1鄰","STREET":"新興街","SECT":" ","MAREA":" ","LANE":" ","ALLEY":" ","HOUSE_NO":"８之１號七樓之５","E_COORD97":170948.03,"N_COORD97":2545766.79,"ADDRESS":"新興街８之１號七樓之５","OBJECTID":513034},"geometry":{"x":170948.03000000119,"y":2545766.7899999991}},{"attributes":{"ID":513062,"DIS_CODE":0,"TOWNNAME":"永康區","LI":"六合里","LIN":"1鄰","STREET":"新興街","SECT":" ","MAREA":" ","LANE":" ","ALLEY":" ","HOUSE_NO":"８之１號八樓之３","E_COORD97":170947.97,"N_COORD97":2545766.79,"ADDRESS":"新興街８之１號八樓之３","OBJECTID":513035},"geometry":{"x":170947.97000000067,"y":2545766.7899999991}},{"attributes":{"ID":513063,"DIS_CODE":0,"TOWNNAME":"永康區","LI":"六合里","LIN":"1鄰","STREET":"新興街","SECT":" ","MAREA":" ","LANE":" ","ALLEY":" ","HOUSE_NO":"８之１號十樓之６","E_COORD97":170947.98000000001,"N_COORD97":2545766.79,"ADDRESS":"新興街８之１號十樓之６","OBJECTID":513036},"geometry":{"x":170947.98000000045,"y":2545766.7899999991}},{"attributes":{"ID":513064,"DIS_CODE":0,"TOWNNAME":"永康區","LI":"六合里","LIN":"1鄰","STREET":"新興街","SECT":" ","MAREA":" ","LANE":" ","ALLEY":" ","HOUSE_NO":"８之２號九樓之１","E_COORD97":170938.76999999999,"N_COORD97":2545746.29,"ADDRESS":"新興街８之２號九樓之１","OBJECTID":513037},"geometry":{"x":170938.77000000048,"y":2545746.2899999991}},{"attributes":{"ID":513065,"DIS_CODE":0,"TOWNNAME":"永康區","LI":"六合里","LIN":"1鄰","STREET":"新興街","SECT":" ","MAREA":" ","LANE":" ","ALLEY":" ","HOUSE_NO":"８之１號十一樓之１","E_COORD97":170949.12,"N_COORD97":2545766.79,"ADDRESS":"新興街８之１號十一樓之１","OBJECTID":513038},"geometry":{"x":170949.12000000104,"y":2545766.7899999991}},{"attributes":{"ID":513066,"DIS_CODE":0,"TOWNNAME":"永康區","LI":"六合里","LIN":"1鄰","STREET":"新興街","SECT":" ","MAREA":" ","LANE":" ","ALLEY":" ","HOUSE_NO":"８之２號四樓之３","E_COORD97":170938.87,"N_COORD97":2545746.29,"ADDRESS":"新興街８之２號四樓之３","OBJECTID":513039},"geometry":{"x":170938.87000000104,"y":2545746.2899999991}},{"attributes":{"ID":513067,"DIS_CODE":0,"TOWNNAME":"永康區","LI":"六合里","LIN":"1鄰","STREET":"新興街","SECT":" ","MAREA":" ","LANE":" ","ALLEY":" ","HOUSE_NO":"８之１號六樓之５","E_COORD97":170948.03,"N_COORD97":2545766.79,"ADDRESS":"新興街８之１號六樓之５","OBJECTID":513040},"geometry":{"x":170948.03000000119,"y":2545766.7899999991}},{"attributes":{"ID":513068,"DIS_CODE":0,"TOWNNAME":"永康區","LI":"六合里","LIN":"1鄰","STREET":"新興街","SECT":" ","MAREA":" ","LANE":" ","ALLEY":" ","HOUSE_NO":"８之１號三樓之１","E_COORD97":170947.87,"N_COORD97":2545766.79,"ADDRESS":"新興街８之１號三樓之１","OBJECTID":513041},"geometry":{"x":170947.87000000011,"y":2545766.7899999991}},{"attributes":{"ID":513069,"DIS_CODE":0,"TOWNNAME":"永康區","LI":"六合里","LIN":"1鄰","STREET":"新興街","SECT":" ","MAREA":" ","LANE":" ","ALLEY":" ","HOUSE_NO":"８之３號九樓之７","E_COORD97":170947.23000000001,"N_COORD97":2545728.0499999998,"ADDRESS":"新興街８之３號九樓之７","OBJECTID":513042},"geometry":{"x":170947.23000000138,"y":2545728.0500000026}},{"attributes":{"ID":513070,"DIS_CODE":0,"TOWNNAME":"永康區","LI":"六合里","LIN":"1鄰","STREET":"新興街","SECT":" ","MAREA":" ","LANE":" ","ALLEY":" ","HOUSE_NO":"８號六樓之１","E_COORD97":170922.57000000001,"N_COORD97":2545756.79,"ADDRESS":"新興街８號六樓之１","OBJECTID":513043},"geometry":{"x":170922.57000000123,"y":2545756.7899999991}},{"attributes":{"ID":513071,"DIS_CODE":0,"TOWNNAME":"永康區","LI":"六合里","LIN":"1鄰","STREET":"新興街","SECT":" ","MAREA":" ","LANE":" ","ALLEY":" ","HOUSE_NO":"８之１號五樓之３","E_COORD97":170947.97,"N_COORD97":2545766.79,"ADDRESS":"新興街８之１號五樓之３","OBJECTID":513044},"geometry":{"x":170947.97000000067,"y":2545766.7899999991}},{"attributes":{"ID":513072,"DIS_CODE":0,"TOWNNAME":"永康區","LI":"六合里","LIN":"1鄰","STREET":"新興街","SECT":" ","MAREA":" ","LANE":" ","ALLEY":" ","HOUSE_NO":"８之３號十樓之２","E_COORD97":170947.29000000001,"N_COORD97":2545728.0499999998,"ADDRESS":"新興街８之３號十樓之２","OBJECTID":513045},"geometry":{"x":170947.28999999911,"y":2545728.0500000026}},{"attributes":{"ID":513073,"DIS_CODE":0,"TOWNNAME":"永康區","LI":"六合里","LIN":"1鄰","STREET":"新興街","SECT":" ","MAREA":" ","LANE":" ","ALLEY":" ","HOUSE_NO":"８之２號七樓之５","E_COORD97":170938.92999999999,"N_COORD97":2545746.29,"ADDRESS":"新興街８之２號七樓之５","OBJECTID":513046},"geometry":{"x":170938.9299999997,"y":2545746.2899999991}},{"attributes":{"ID":513074,"DIS_CODE":0,"TOWNNAME":"安平區","LI":"建平里","LIN":"5鄰","STREET":"慶平路","SECT":" ","MAREA":" ","LANE":" ","ALLEY":" ","HOUSE_NO":"１００號","E_COORD97":166066.35000000001,"N_COORD97":2544202.0499999998,"ADDRESS":"慶平路１００號","OBJECTID":513047},"geometry":{"x":166066.35000000056,"y":2544202.0500000026}},{"attributes":{"ID":513075,"DIS_CODE":0,"TOWNNAME":"安平區","LI":"建平里","LIN":"5鄰","STREET":"慶平路","SECT":" ","MAREA":" ","LANE":" ","ALLEY":" ","HOUSE_NO":"１０２號","E_COORD97":166061.98999999999,"N_COORD97":2544202.3199999998,"ADDRESS":"慶平路１０２號","OBJECTID":513048},"geometry":{"x":166061.99000000022,"y":2544202.320000004}},{"attributes":{"ID":513076,"DIS_CODE":0,"TOWNNAME":"安平區","LI":"建平里","LIN":"7鄰","STREET":"建平十六街","SECT":" ","MAREA":" ","LANE":" ","ALLEY":" ","HOUSE_NO":"１號","E_COORD97":166442.25,"N_COORD97":2544124.3799999999,"ADDRESS":"建平十六街１號","OBJECTID":513049},"geometry":{"x":166442.25000000093,"y":2544124.379999999}},{"attributes":{"ID":513077,"DIS_CODE":0,"TOWNNAME":"永康區","LI":"六合里","LIN":"1鄰","STREET":"新興街","SECT":" ","MAREA":" ","LANE":" ","ALLEY":" ","HOUSE_NO":"８之３號十一樓之７","E_COORD97":170948.48000000001,"N_COORD97":2545728.0499999998,"ADDRESS":"新興街８之３號十一樓之７","OBJECTID":513050},"geometry":{"x":170948.48000000138,"y":2545728.0500000026}},{"attributes":{"ID":513078,"DIS_CODE":0,"TOWNNAME":"永康區","LI":"六合里","LIN":"1鄰","STREET":"新興街","SECT":" ","MAREA":" ","LANE":" ","ALLEY":" ","HOUSE_NO":"８之１號七樓之６","E_COORD97":170947.98000000001,"N_COORD97":2545766.79,"ADDRESS":"新興街８之１號七樓之６","OBJECTID":513051},"geometry":{"x":170947.98000000045,"y":2545766.7899999991}},{"attributes":{"ID":513079,"DIS_CODE":0,"TOWNNAME":"永康區","LI":"六合里","LIN":"1鄰","STREET":"新興街","SECT":" ","MAREA":" ","LANE":" ","ALLEY":" ","HOUSE_NO":"８之１號五樓之２","E_COORD97":170948.01000000001,"N_COORD97":2545766.79,"ADDRESS":"新興街８之１號五樓之２","OBJECTID":513052},"geometry":{"x":170948.01000000071,"y":2545766.7899999991}},{"attributes":{"ID":513080,"DIS_CODE":0,"TOWNNAME":"永康區","LI":"六合里","LIN":"1鄰","STREET":"新興街","SECT":" ","MAREA":" ","LANE":" ","ALLEY":" ","HOUSE_NO":"８之１號二樓之２","E_COORD97":170948.01000000001,"N_COORD97":2545766.79,"ADDRESS":"新興街８之１號二樓之２","OBJECTID":513053},"geometry":{"x":170948.01000000071,"y":2545766.7899999991}},{"attributes":{"ID":513081,"DIS_CODE":0,"TOWNNAME":"永康區","LI":"六合里","LIN":"1鄰","STREET":"新興街","SECT":" ","MAREA":" ","LANE":" ","ALLEY":" ","HOUSE_NO":"８之２號二樓之２","E_COORD97":170938.91,"N_COORD97":2545746.29,"ADDRESS":"新興街８之２號二樓之２","OBJECTID":513054},"geometry":{"x":170938.91000000108,"y":2545746.2899999991}},{"attributes":{"ID":513082,"DIS_CODE":0,"TOWNNAME":"永康區","LI":"六合里","LIN":"1鄰","STREET":"新興街","SECT":" ","MAREA":" ","LANE":" ","ALLEY":" ","HOUSE_NO":"８之２號五樓之６","E_COORD97":170938.88,"N_COORD97":2545746.29,"ADDRESS":"新興街８之２號五樓之６","OBJECTID":513055},"geometry":{"x":170938.88000000082,"y":2545746.2899999991}},{"attributes":{"ID":513083,"DIS_CODE":0,"TOWNNAME":"永康區","LI":"六合里","LIN":"1鄰","STREET":"新興街","SECT":" ","MAREA":" ","LANE":" ","ALLEY":" ","HOUSE_NO":"８號六樓之２","E_COORD97":170922.70999999999,"N_COORD97":2545756.79,"ADDRESS":"新興街８號六樓之２","OBJECTID":513056},"geometry":{"x":170922.71000000089,"y":2545756.7899999991}},{"attributes":{"ID":513084,"DIS_CODE":0,"TOWNNAME":"永康區","LI":"六合里","LIN":"1鄰","STREET":"新興街","SECT":" ","MAREA":" ","LANE":" ","ALLEY":" ","HOUSE_NO":"８之２號二樓之５","E_COORD97":170938.92999999999,"N_COORD97":2545746.29,"ADDRESS":"新興街８之２號二樓之５","OBJECTID":513057},"geometry":{"x":170938.9299999997,"y":2545746.2899999991}},{"attributes":{"ID":513085,"DIS_CODE":0,"TOWNNAME":"永康區","LI":"六合里","LIN":"1鄰","STREET":"新興街","SECT":" ","MAREA":" ","LANE":" ","ALLEY":" ","HOUSE_NO":"８之３號九樓之５","E_COORD97":170947.31,"N_COORD97":2545728.0499999998,"ADDRESS":"新興街８之３號九樓之５","OBJECTID":513058},"geometry":{"x":170947.31000000052,"y":2545728.0500000026}},{"attributes":{"ID":513086,"DIS_CODE":0,"TOWNNAME":"永康區","LI":"六合里","LIN":"1鄰","STREET":"新興街","SECT":" ","MAREA":" ","LANE":" ","ALLEY":" ","HOUSE_NO":"８之１號十樓之３","E_COORD97":170947.97,"N_COORD97":2545766.79,"ADDRESS":"新興街８之１號十樓之３","OBJECTID":513059},"geometry":{"x":170947.97000000067,"y":2545766.7899999991}},{"attributes":{"ID":513087,"DIS_CODE":0,"TOWNNAME":"永康區","LI":"六合里","LIN":"1鄰","STREET":"新興街","SECT":" ","MAREA":" ","LANE":" ","ALLEY":" ","HOUSE_NO":"８之１號六樓之６","E_COORD97":170947.98000000001,"N_COORD97":2545766.79,"ADDRESS":"新興街８之１號六樓之６","OBJECTID":513060},"geometry":{"x":170947.98000000045,"y":2545766.7899999991}},{"attributes":{"ID":513088,"DIS_CODE":0,"TOWNNAME":"永康區","LI":"六合里","LIN":"1鄰","STREET":"新興街","SECT":" ","MAREA":" ","LANE":" ","ALLEY":" ","HOUSE_NO":"８之１號十一樓之３","E_COORD97":170949.22,"N_COORD97":2545766.79,"ADDRESS":"新興街８之１號十一樓之３","OBJECTID":513061},"geometry":{"x":170949.2200000016,"y":2545766.7899999991}},{"attributes":{"ID":513089,"DIS_CODE":0,"TOWNNAME":"永康區","LI":"六合里","LIN":"1鄰","STREET":"新興街","SECT":" ","MAREA":" ","LANE":" ","ALLEY":" ","HOUSE_NO":"８號三樓之６","E_COORD97":170922.67999999999,"N_COORD97":2545756.79,"ADDRESS":"新興街８號三樓之６","OBJECTID":513062},"geometry":{"x":170922.68000000063,"y":2545756.7899999991}},{"attributes":{"ID":513090,"DIS_CODE":0,"TOWNNAME":"永康區","LI":"六合里","LIN":"1鄰","STREET":"新興街","SECT":" ","MAREA":" ","LANE":" ","ALLEY":" ","HOUSE_NO":"８之１號十一樓之６","E_COORD97":170949.23000000001,"N_COORD97":2545766.79,"ADDRESS":"新興街８之１號十一樓之６","OBJECTID":513063},"geometry":{"x":170949.23000000045,"y":2545766.7899999991}},{"attributes":{"ID":513091,"DIS_CODE":0,"TOWNNAME":"永康區","LI":"六合里","LIN":"1鄰","STREET":"新興街","SECT":" ","MAREA":" ","LANE":" ","ALLEY":" ","HOUSE_NO":"８之３號三樓之６","E_COORD97":170947.26000000001,"N_COORD97":2545728.0499999998,"ADDRESS":"新興街８之３號三樓之６","OBJECTID":513064},"geometry":{"x":170947.25999999885,"y":2545728.0500000026}},{"attributes":{"ID":513092,"DIS_CODE":0,"TOWNNAME":"永康區","LI":"六合里","LIN":"1鄰","STREET":"新興街","SECT":" ","MAREA":" ","LANE":" ","ALLEY":" ","HOUSE_NO":"８之１號八樓之６","E_COORD97":170947.98000000001,"N_COORD97":2545766.79,"ADDRESS":"新興街８之１號八樓之６","OBJECTID":513065},"geometry":{"x":170947.98000000045,"y":2545766.7899999991}},{"attributes":{"ID":513093,"DIS_CODE":0,"TOWNNAME":"永康區","LI":"六合里","LIN":"1鄰","STREET":"新興街","SECT":" ","MAREA":" ","LANE":" ","ALLEY":" ","HOUSE_NO":"８號六樓之６","E_COORD97":170922.67999999999,"N_COORD97":2545756.79,"ADDRESS":"新興街８號六樓之６","OBJECTID":513066},"geometry":{"x":170922.68000000063,"y":2545756.7899999991}},{"attributes":{"ID":513094,"DIS_CODE":0,"TOWNNAME":"永康區","LI":"六合里","LIN":"1鄰","STREET":"新興街","SECT":" ","MAREA":" ","LANE":" ","ALLEY":" ","HOUSE_NO":"８之２號二樓之１","E_COORD97":170938.76999999999,"N_COORD97":2545746.29,"ADDRESS":"新興街８之２號二樓之１","OBJECTID":513067},"geometry":{"x":170938.77000000048,"y":2545746.2899999991}},{"attributes":{"ID":513095,"DIS_CODE":0,"TOWNNAME":"永康區","LI":"六合里","LIN":"1鄰","STREET":"新興街","SECT":" ","MAREA":" ","LANE":" ","ALLEY":" ","HOUSE_NO":"８之５號十一樓之２","E_COORD97":170952.20000000001,"N_COORD97":2545708.7999999998,"ADDRESS":"新興街８之５號十一樓之２","OBJECTID":513068},"geometry":{"x":170952.20000000112,"y":2545708.8000000026}},{"attributes":{"ID":513096,"DIS_CODE":0,"TOWNNAME":"永康區","LI":"六合里","LIN":"1鄰","STREET":"新興街","SECT":" ","MAREA":" ","LANE":" ","ALLEY":" ","HOUSE_NO":"８之１號九樓之５","E_COORD97":170948.03,"N_COORD97":2545766.79,"ADDRESS":"新興街８之１號九樓之５","OBJECTID":513069},"geometry":{"x":170948.03000000119,"y":2545766.7899999991}},{"attributes":{"ID":513097,"DIS_CODE":0,"TOWNNAME":"永康區","LI":"六合里","LIN":"1鄰","STREET":"新興街","SECT":" ","MAREA":" ","LANE":" ","ALLEY":" ","HOUSE_NO":"８之２號九樓之６","E_COORD97":170938.88,"N_COORD97":2545746.29,"ADDRESS":"新興街８之２號九樓之６","OBJECTID":513070},"geometry":{"x":170938.88000000082,"y":2545746.2899999991}},{"attributes":{"ID":513098,"DIS_CODE":0,"TOWNNAME":"永康區","LI":"六合里","LIN":"1鄰","STREET":"新興街","SECT":" ","MAREA":" ","LANE":" ","ALLEY":" ","HOUSE_NO":"８之２號七樓之７","E_COORD97":170938.85000000001,"N_COORD97":2545746.29,"ADDRESS":"新興街８之２號七樓之７","OBJECTID":513071},"geometry":{"x":170938.85000000056,"y":2545746.2899999991}},{"attributes":{"ID":513099,"DIS_CODE":0,"TOWNNAME":"永康區","LI":"六合里","LIN":"1鄰","STREET":"新興街","SECT":" ","MAREA":" ","LANE":" ","ALLEY":" ","HOUSE_NO":"８之１號七樓之３","E_COORD97":170947.97,"N_COORD97":2545766.79,"ADDRESS":"新興街８之１號七樓之３","OBJECTID":513072},"geometry":{"x":170947.97000000067,"y":2545766.7899999991}},{"attributes":{"ID":513100,"DIS_CODE":0,"TOWNNAME":"永康區","LI":"六合里","LIN":"1鄰","STREET":"新興街","SECT":" ","MAREA":" ","LANE":" ","ALLEY":" ","HOUSE_NO":"８之２號二樓之３","E_COORD97":170938.87,"N_COORD97":2545746.29,"ADDRESS":"新興街８之２號二樓之３","OBJECTID":513073},"geometry":{"x":170938.87000000104,"y":2545746.2899999991}},{"attributes":{"ID":513101,"DIS_CODE":0,"TOWNNAME":"永康區","LI":"六合里","LIN":"1鄰","STREET":"新興街","SECT":" ","MAREA":" ","LANE":" ","ALLEY":" ","HOUSE_NO":"６之１號七樓之３","E_COORD97":170932.95999999999,"N_COORD97":2545719.7999999998,"ADDRESS":"新興街６之１號七樓之３","OBJECTID":513074},"geometry":{"x":170932.96000000089,"y":2545719.8000000026}},{"attributes":{"ID":513102,"DIS_CODE":0,"TOWNNAME":"永康區","LI":"六合里","LIN":"1鄰","STREET":"新興街","SECT":" ","MAREA":" ","LANE":" ","ALLEY":" ","HOUSE_NO":"８之１號十樓之１","E_COORD97":170947.87,"N_COORD97":2545766.79,"ADDRESS":"新興街８之１號十樓之１","OBJECTID":513075},"geometry":{"x":170947.87000000011,"y":2545766.7899999991}},{"attributes":{"ID":513103,"DIS_CODE":0,"TOWNNAME":"永康區","LI":"六合里","LIN":"1鄰","STREET":"新興街","SECT":" ","MAREA":" ","LANE":" ","ALLEY":" ","HOUSE_NO":"８之３號七樓之７","E_COORD97":170947.23000000001,"N_COORD97":2545728.0499999998,"ADDRESS":"新興街８之３號七樓之７","OBJECTID":513076},"geometry":{"x":170947.23000000138,"y":2545728.0500000026}},{"attributes":{"ID":513104,"DIS_CODE":0,"TOWNNAME":"安平區","LI":"建平里","LIN":"11鄰","STREET":"建平十五街","SECT":" ","MAREA":" ","LANE":" ","ALLEY":" ","HOUSE_NO":"５８號","E_COORD97":166193.59,"N_COORD97":2544127.6000000001,"ADDRESS":"建平十五街５８號","OBJECTID":513077},"geometry":{"x":166193.59000000171,"y":2544127.5999999996}},{"attributes":{"ID":513105,"DIS_CODE":0,"TOWNNAME":"安平區","LI":"建平里","LIN":"11鄰","STREET":"建平十五街","SECT":" ","MAREA":" ","LANE":" ","ALLEY":" ","HOUSE_NO":"６０號","E_COORD97":166189.23999999999,"N_COORD97":2544127.2799999998,"ADDRESS":"建平十五街６０號","OBJECTID":513078},"geometry":{"x":166189.24000000022,"y":2544127.2800000012}},{"attributes":{"ID":513106,"DIS_CODE":0,"TOWNNAME":"永康區","LI":"六合里","LIN":"1鄰","STREET":"新興街","SECT":" ","MAREA":" ","LANE":" ","ALLEY":" ","HOUSE_NO":"８之２號八樓之７","E_COORD97":170938.85000000001,"N_COORD97":2545746.29,"ADDRESS":"新興街８之２號八樓之７","OBJECTID":513079},"geometry":{"x":170938.85000000056,"y":2545746.2899999991}},{"attributes":{"ID":513107,"DIS_CODE":0,"TOWNNAME":"安平區","LI":"建平里","LIN":"4鄰","STREET":"慶平路","SECT":" ","MAREA":" ","LANE":" ","ALLEY":" ","HOUSE_NO":"１６０號","E_COORD97":166027.38,"N_COORD97":2544205.7000000002,"ADDRESS":"慶平路１６０號","OBJECTID":513080},"geometry":{"x":166027.38000000082,"y":2544205.7000000011}},{"attributes":{"ID":513108,"DIS_CODE":0,"TOWNNAME":"永康區","LI":"六合里","LIN":"1鄰","STREET":"新興街","SECT":" ","MAREA":" ","LANE":" ","ALLEY":" ","HOUSE_NO":"６之１號七樓之６","E_COORD97":170932.97,"N_COORD97":2545719.7999999998,"ADDRESS":"新興街６之１號七樓之６","OBJECTID":513081},"geometry":{"x":170932.97000000067,"y":2545719.8000000026}},{"attributes":{"ID":513109,"DIS_CODE":0,"TOWNNAME":"永康區","LI":"六合里","LIN":"1鄰","STREET":"新興街","SECT":" ","MAREA":" ","LANE":" ","ALLEY":" ","HOUSE_NO":"８號四樓之２","E_COORD97":170922.70999999999,"N_COORD97":2545756.79,"ADDRESS":"新興街８號四樓之２","OBJECTID":513082},"geometry":{"x":170922.71000000089,"y":2545756.7899999991}},{"attributes":{"ID":513110,"DIS_CODE":0,"TOWNNAME":"永康區","LI":"六合里","LIN":"1鄰","STREET":"新興街","SECT":" ","MAREA":" ","LANE":" ","ALLEY":" ","HOUSE_NO":"６之１號九樓之３","E_COORD97":170932.95999999999,"N_COORD97":2545719.7999999998,"ADDRESS":"新興街６之１號九樓之３","OBJECTID":513083},"geometry":{"x":170932.96000000089,"y":2545719.8000000026}},{"attributes":{"ID":513111,"DIS_CODE":0,"TOWNNAME":"永康區","LI":"六合里","LIN":"1鄰","STREET":"新興街","SECT":" ","MAREA":" ","LANE":" ","ALLEY":" ","HOUSE_NO":"８之２號七樓之３","E_COORD97":170938.87,"N_COORD97":2545746.29,"ADDRESS":"新興街８之２號七樓之３","OBJECTID":513084},"geometry":{"x":170938.87000000104,"y":2545746.2899999991}},{"attributes":{"ID":513112,"DIS_CODE":0,"TOWNNAME":"永康區","LI":"六合里","LIN":"1鄰","STREET":"新興街","SECT":" ","MAREA":" ","LANE":" ","ALLEY":" ","HOUSE_NO":"８之２號九樓之７","E_COORD97":170938.85000000001,"N_COORD97":2545746.29,"ADDRESS":"新興街８之２號九樓之７","OBJECTID":513085},"geometry":{"x":170938.85000000056,"y":2545746.2899999991}},{"attributes":{"ID":513113,"DIS_CODE":0,"TOWNNAME":"永康區","LI":"六合里","LIN":"1鄰","STREET":"新興街","SECT":" ","MAREA":" ","LANE":" ","ALLEY":" ","HOUSE_NO":"８之２號五樓之７","E_COORD97":170938.85000000001,"N_COORD97":2545746.29,"ADDRESS":"新興街８之２號五樓之７","OBJECTID":513086},"geometry":{"x":170938.85000000056,"y":2545746.2899999991}},{"attributes":{"ID":513114,"DIS_CODE":0,"TOWNNAME":"永康區","LI":"六合里","LIN":"1鄰","STREET":"新興街","SECT":" ","MAREA":" ","LANE":" ","ALLEY":" ","HOUSE_NO":"８之２號十樓之１","E_COORD97":170938.76999999999,"N_COORD97":2545746.29,"ADDRESS":"新興街８之２號十樓之１","OBJECTID":513087},"geometry":{"x":170938.77000000048,"y":2545746.2899999991}},{"attributes":{"ID":513115,"DIS_CODE":0,"TOWNNAME":"永康區","LI":"六合里","LIN":"1鄰","STREET":"新興街","SECT":" ","MAREA":" ","LANE":" ","ALLEY":" ","HOUSE_NO":"８之５號十一樓之５","E_COORD97":170952.22,"N_COORD97":2545708.7999999998,"ADDRESS":"新興街８之５號十一樓之５","OBJECTID":513088},"geometry":{"x":170952.21999999974,"y":2545708.8000000026}},{"attributes":{"ID":513116,"DIS_CODE":0,"TOWNNAME":"永康區","LI":"六合里","LIN":"1鄰","STREET":"新興街","SECT":" ","MAREA":" ","LANE":" ","ALLEY":" ","HOUSE_NO":"８之３號七樓之１","E_COORD97":170947.14999999999,"N_COORD97":2545728.0499999998,"ADDRESS":"新興街８之３號七樓之１","OBJECTID":513089},"geometry":{"x":170947.15000000224,"y":2545728.0500000026}},{"attributes":{"ID":513117,"DIS_CODE":0,"TOWNNAME":"永康區","LI":"六合里","LIN":"1鄰","STREET":"新興街","SECT":" ","MAREA":" ","LANE":" ","ALLEY":" ","HOUSE_NO":"６之１號二樓之５","E_COORD97":170933.01999999999,"N_COORD97":2545719.7999999998,"ADDRESS":"新興街６之１號二樓之５","OBJECTID":513090},"geometry":{"x":170933.01999999955,"y":2545719.8000000026}},{"attributes":{"ID":513118,"DIS_CODE":0,"TOWNNAME":"永康區","LI":"六合里","LIN":"1鄰","STREET":"新興街","SECT":" ","MAREA":" ","LANE":" ","ALLEY":" ","HOUSE_NO":"６之１號七樓之５","E_COORD97":170933.01999999999,"N_COORD97":2545719.7999999998,"ADDRESS":"新興街６之１號七樓之５","OBJECTID":513091},"geometry":{"x":170933.01999999955,"y":2545719.8000000026}},{"attributes":{"ID":513119,"DIS_CODE":0,"TOWNNAME":"永康區","LI":"六合里","LIN":"1鄰","STREET":"新興街","SECT":" ","MAREA":" ","LANE":" ","ALLEY":" ","HOUSE_NO":"６之１號二樓之１","E_COORD97":170932.85999999999,"N_COORD97":2545719.7999999998,"ADDRESS":"新興街６之１號二樓之１","OBJECTID":513092},"geometry":{"x":170932.86000000034,"y":2545719.8000000026}},{"attributes":{"ID":513120,"DIS_CODE":0,"TOWNNAME":"永康區","LI":"六合里","LIN":"1鄰","STREET":"新興街","SECT":" ","MAREA":" ","LANE":" ","ALLEY":" ","HOUSE_NO":"８之３號七樓之５","E_COORD97":170947.31,"N_COORD97":2545728.0499999998,"ADDRESS":"新興街８之３號七樓之５","OBJECTID":513093},"geometry":{"x":170947.31000000052,"y":2545728.0500000026}},{"attributes":{"ID":513121,"DIS_CODE":0,"TOWNNAME":"永康區","LI":"六合里","LIN":"1鄰","STREET":"新興街","SECT":" ","MAREA":" ","LANE":" ","ALLEY":" ","HOUSE_NO":"８之２號四樓之１","E_COORD97":170938.76999999999,"N_COORD97":2545746.29,"ADDRESS":"新興街８之２號四樓之１","OBJECTID":513094},"geometry":{"x":170938.77000000048,"y":2545746.2899999991}},{"attributes":{"ID":513122,"DIS_CODE":0,"TOWNNAME":"永康區","LI":"六合里","LIN":"1鄰","STREET":"新興街","SECT":" ","MAREA":" ","LANE":" ","ALLEY":" ","HOUSE_NO":"８之２號五樓之２","E_COORD97":170938.91,"N_COORD97":2545746.29,"ADDRESS":"新興街８之２號五樓之２","OBJECTID":513095},"geometry":{"x":170938.91000000108,"y":2545746.2899999991}},{"attributes":{"ID":513123,"DIS_CODE":0,"TOWNNAME":"永康區","LI":"六合里","LIN":"1鄰","STREET":"新興街","SECT":" ","MAREA":" ","LANE":" ","ALLEY":" ","HOUSE_NO":"８之２號八樓之６","E_COORD97":170938.88,"N_COORD97":2545746.29,"ADDRESS":"新興街８之２號八樓之６","OBJECTID":513096},"geometry":{"x":170938.88000000082,"y":2545746.2899999991}},{"attributes":{"ID":513124,"DIS_CODE":0,"TOWNNAME":"永康區","LI":"六合里","LIN":"1鄰","STREET":"新興街","SECT":" ","MAREA":" ","LANE":" ","ALLEY":" ","HOUSE_NO":"８之２號二樓之６","E_COORD97":170938.88,"N_COORD97":2545746.29,"ADDRESS":"新興街８之２號二樓之６","OBJECTID":513097},"geometry":{"x":170938.88000000082,"y":2545746.2899999991}},{"attributes":{"ID":513125,"DIS_CODE":0,"TOWNNAME":"永康區","LI":"六合里","LIN":"1鄰","STREET":"新興街","SECT":" ","MAREA":" ","LANE":" ","ALLEY":" ","HOUSE_NO":"８之３號二樓之３","E_COORD97":170947.25,"N_COORD97":2545728.0499999998,"ADDRESS":"新興街８之３號二樓之３","OBJECTID":513098},"geometry":{"x":170947.25,"y":2545728.0500000026}},{"attributes":{"ID":513126,"DIS_CODE":0,"TOWNNAME":"永康區","LI":"六合里","LIN":"1鄰","STREET":"新興街","SECT":" ","MAREA":" ","LANE":" ","ALLEY":" ","HOUSE_NO":"８之３號六樓之６","E_COORD97":170947.26000000001,"N_COORD97":2545728.0499999998,"ADDRESS":"新興街８之３號六樓之６","OBJECTID":513099},"geometry":{"x":170947.25999999885,"y":2545728.0500000026}},{"attributes":{"ID":513127,"DIS_CODE":0,"TOWNNAME":"永康區","LI":"六合里","LIN":"1鄰","STREET":"新興街","SECT":" ","MAREA":" ","LANE":" ","ALLEY":" ","HOUSE_NO":"６之１號六樓之７","E_COORD97":170932.94,"N_COORD97":2545719.7999999998,"ADDRESS":"新興街６之１號六樓之７","OBJECTID":513100},"geometry":{"x":170932.94000000041,"y":2545719.8000000026}},{"attributes":{"ID":513128,"DIS_CODE":0,"TOWNNAME":"永康區","LI":"六合里","LIN":"1鄰","STREET":"新興街","SECT":" ","MAREA":" ","LANE":" ","ALLEY":" ","HOUSE_NO":"８之５號四樓之２","E_COORD97":170950.95000000001,"N_COORD97":2545708.7999999998,"ADDRESS":"新興街８之５號四樓之２","OBJECTID":513101},"geometry":{"x":170950.95000000019,"y":2545708.8000000026}},{"attributes":{"ID":513129,"DIS_CODE":0,"TOWNNAME":"永康區","LI":"六合里","LIN":"1鄰","STREET":"新興街","SECT":" ","MAREA":" ","LANE":" ","ALLEY":" ","HOUSE_NO":"６之１號十樓之７","E_COORD97":170932.94,"N_COORD97":2545719.7999999998,"ADDRESS":"新興街６之１號十樓之７","OBJECTID":513102},"geometry":{"x":170932.94000000041,"y":2545719.8000000026}},{"attributes":{"ID":513130,"DIS_CODE":0,"TOWNNAME":"永康區","LI":"六合里","LIN":"1鄰","STREET":"新興街","SECT":" ","MAREA":" ","LANE":" ","ALLEY":" ","HOUSE_NO":"８之３號十一樓之３","E_COORD97":170948.5,"N_COORD97":2545728.0499999998,"ADDRESS":"新興街８之３號十一樓之３","OBJECTID":513103},"geometry":{"x":170948.5,"y":2545728.0500000026}},{"attributes":{"ID":513131,"DIS_CODE":0,"TOWNNAME":"永康區","LI":"六合里","LIN":"1鄰","STREET":"新興街","SECT":" ","MAREA":" ","LANE":" ","ALLEY":" ","HOUSE_NO":"８之１號九樓之３","E_COORD97":170947.97,"N_COORD97":2545766.79,"ADDRESS":"新興街８之１號九樓之３","OBJECTID":513104},"geometry":{"x":170947.97000000067,"y":2545766.7899999991}},{"attributes":{"ID":513132,"DIS_CODE":0,"TOWNNAME":"永康區","LI":"六合里","LIN":"1鄰","STREET":"新興街","SECT":" ","MAREA":" ","LANE":" ","ALLEY":" ","HOUSE_NO":"８之５號四樓之６","E_COORD97":170950.92000000001,"N_COORD97":2545708.7999999998,"ADDRESS":"新興街８之５號四樓之６","OBJECTID":513105},"geometry":{"x":170950.91999999993,"y":2545708.8000000026}},{"attributes":{"ID":513133,"DIS_CODE":0,"TOWNNAME":"永康區","LI":"六合里","LIN":"1鄰","STREET":"新興街","SECT":" ","MAREA":" ","LANE":" ","ALLEY":" ","HOUSE_NO":"８之３號三樓之５","E_COORD97":170947.31,"N_COORD97":2545728.0499999998,"ADDRESS":"新興街８之３號三樓之５","OBJECTID":513106},"geometry":{"x":170947.31000000052,"y":2545728.0500000026}},{"attributes":{"ID":513134,"DIS_CODE":0,"TOWNNAME":"永康區","LI":"六合里","LIN":"1鄰","STREET":"新興街","SECT":" ","MAREA":" ","LANE":" ","ALLEY":" ","HOUSE_NO":"８之３號十一樓之６","E_COORD97":170948.51000000001,"N_COORD97":2545728.0499999998,"ADDRESS":"新興街８之３號十一樓之６","OBJECTID":513107},"geometry":{"x":170948.50999999978,"y":2545728.0500000026}},{"attributes":{"ID":513135,"DIS_CODE":0,"TOWNNAME":"永康區","LI":"六合里","LIN":"1鄰","STREET":"新興街","SECT":" ","MAREA":" ","LANE":" ","ALLEY":" ","HOUSE_NO":"８之２號十一樓之７","E_COORD97":170940.10000000001,"N_COORD97":2545746.29,"ADDRESS":"新興街８之２號十一樓之７","OBJECTID":513108},"geometry":{"x":170940.10000000056,"y":2545746.2899999991}},{"attributes":{"ID":513136,"DIS_CODE":0,"TOWNNAME":"永康區","LI":"六合里","LIN":"1鄰","STREET":"新興街","SECT":" ","MAREA":" ","LANE":" ","ALLEY":" ","HOUSE_NO":"８之２號十一樓之６","E_COORD97":170940.13,"N_COORD97":2545746.29,"ADDRESS":"新興街８之２號十一樓之６","OBJECTID":513109},"geometry":{"x":170940.13000000082,"y":2545746.2899999991}},{"attributes":{"ID":513137,"DIS_CODE":0,"TOWNNAME":"永康區","LI":"六合里","LIN":"1鄰","STREET":"新興街","SECT":" ","MAREA":" ","LANE":" ","ALLEY":" ","HOUSE_NO":"８之２號十樓之３","E_COORD97":170938.87,"N_COORD97":2545746.29,"ADDRESS":"新興街８之２號十樓之３","OBJECTID":513110},"geometry":{"x":170938.87000000104,"y":2545746.2899999991}},{"attributes":{"ID":513138,"DIS_CODE":0,"TOWNNAME":"永康區","LI":"六合里","LIN":"1鄰","STREET":"新興街","SECT":" ","MAREA":" ","LANE":" ","ALLEY":" ","HOUSE_NO":"６之１號五樓之３","E_COORD97":170932.95999999999,"N_COORD97":2545719.7999999998,"ADDRESS":"新興街６之１號五樓之３","OBJECTID":513111},"geometry":{"x":170932.96000000089,"y":2545719.8000000026}},{"attributes":{"ID":513139,"DIS_CODE":0,"TOWNNAME":"永康區","LI":"六合里","LIN":"1鄰","STREET":"新興街","SECT":" ","MAREA":" ","LANE":" ","ALLEY":" ","HOUSE_NO":"６之１號二樓之３","E_COORD97":170932.95999999999,"N_COORD97":2545719.7999999998,"ADDRESS":"新興街６之１號二樓之３","OBJECTID":513112},"geometry":{"x":170932.96000000089,"y":2545719.8000000026}},{"attributes":{"ID":513140,"DIS_CODE":0,"TOWNNAME":"鹽水區","LI":"中境里","LIN":" ","STREET":"中正路","SECT":" ","MAREA":" ","LANE":" ","ALLEY":" ","HOUSE_NO":"５８號","E_COORD97":175095.56,"N_COORD97":2579901.6099999999,"ADDRESS":"中正路５８號","OBJECTID":513113},"geometry":{"x":175095.56000000052,"y":2579901.6099999994}},{"attributes":{"ID":513141,"DIS_CODE":0,"TOWNNAME":"安平區","LI":"怡平里","LIN":"8鄰","STREET":"慶平路","SECT":" ","MAREA":" ","LANE":" ","ALLEY":" ","HOUSE_NO":"２１３號","E_COORD97":165745.67000000001,"N_COORD97":2544168.6200000001,"ADDRESS":"慶平路２１３號","OBJECTID":513114},"geometry":{"x":165745.67000000179,"y":2544168.6200000029}},{"attributes":{"ID":513142,"DIS_CODE":0,"TOWNNAME":"安平區","LI":"怡平里","LIN":"1鄰","STREET":"慶平路","SECT":" ","MAREA":" ","LANE":" ","ALLEY":" ","HOUSE_NO":"２０２號","E_COORD97":165794.62,"N_COORD97":2544196.79,"ADDRESS":"慶平路２０２號","OBJECTID":513115},"geometry":{"x":165794.62000000011,"y":2544196.7899999991}},{"attributes":{"ID":513143,"DIS_CODE":0,"TOWNNAME":"永康區","LI":"六合里","LIN":"1鄰","STREET":"新興街","SECT":" ","MAREA":" ","LANE":" ","ALLEY":" ","HOUSE_NO":"８之５號五樓之１","E_COORD97":170950.81,"N_COORD97":2545708.7999999998,"ADDRESS":"新興街８之５號五樓之１","OBJECTID":513116},"geometry":{"x":170950.81000000052,"y":2545708.8000000026}},{"attributes":{"ID":513144,"DIS_CODE":0,"TOWNNAME":"永康區","LI":"六合里","LIN":"1鄰","STREET":"新興街","SECT":" ","MAREA":" ","LANE":" ","ALLEY":" ","HOUSE_NO":"８之３號五樓之７","E_COORD97":170947.23000000001,"N_COORD97":2545728.0499999998,"ADDRESS":"新興街８之３號五樓之７","OBJECTID":513117},"geometry":{"x":170947.23000000138,"y":2545728.0500000026}},{"attributes":{"ID":513145,"DIS_CODE":0,"TOWNNAME":"永康區","LI":"六合里","LIN":"1鄰","STREET":"新興街","SECT":" ","MAREA":" ","LANE":" ","ALLEY":" ","HOUSE_NO":"６之１號二樓之７","E_COORD97":170932.94,"N_COORD97":2545719.7999999998,"ADDRESS":"新興街６之１號二樓之７","OBJECTID":513118},"geometry":{"x":170932.94000000041,"y":2545719.8000000026}},{"attributes":{"ID":513146,"DIS_CODE":0,"TOWNNAME":"永康區","LI":"六合里","LIN":"1鄰","STREET":"新興街","SECT":" ","MAREA":" ","LANE":" ","ALLEY":" ","HOUSE_NO":"８之２號七樓之２","E_COORD97":170938.91,"N_COORD97":2545746.29,"ADDRESS":"新興街８之２號七樓之２","OBJECTID":513119},"geometry":{"x":170938.91000000108,"y":2545746.2899999991}},{"attributes":{"ID":513147,"DIS_CODE":0,"TOWNNAME":"永康區","LI":"六合里","LIN":"1鄰","STREET":"新興街","SECT":" ","MAREA":" ","LANE":" ","ALLEY":" ","HOUSE_NO":"８號十一樓之３","E_COORD97":170923.92000000001,"N_COORD97":2545756.79,"ADDRESS":"新興街８號十一樓之３","OBJECTID":513120},"geometry":{"x":170923.91999999993,"y":2545756.7899999991}},{"attributes":{"ID":513148,"DIS_CODE":0,"TOWNNAME":"永康區","LI":"六合里","LIN":"1鄰","STREET":"新興街","SECT":" ","MAREA":" ","LANE":" ","ALLEY":" ","HOUSE_NO":"８之２號五樓之３","E_COORD97":170938.87,"N_COORD97":2545746.29,"ADDRESS":"新興街８之２號五樓之３","OBJECTID":513121},"geometry":{"x":170938.87000000104,"y":2545746.2899999991}},{"attributes":{"ID":513149,"DIS_CODE":0,"TOWNNAME":"安平區","LI":"建平里","LIN":"15鄰","STREET":"建平十二街","SECT":" ","MAREA":" ","LANE":" ","ALLEY":" ","HOUSE_NO":"８８號","E_COORD97":166188.92000000001,"N_COORD97":2543972.48,"ADDRESS":"建平十二街８８號","OBJECTID":513122},"geometry":{"x":166188.91999999993,"y":2543972.4800000004}},{"attributes":{"ID":513150,"DIS_CODE":0,"TOWNNAME":"永康區","LI":"六合里","LIN":"1鄰","STREET":"新興街","SECT":" ","MAREA":" ","LANE":" ","ALLEY":" ","HOUSE_NO":"８之３號八樓之７","E_COORD97":170947.23000000001,"N_COORD97":2545728.0499999998,"ADDRESS":"新興街８之３號八樓之７","OBJECTID":513123},"geometry":{"x":170947.23000000138,"y":2545728.0500000026}},{"attributes":{"ID":513151,"DIS_CODE":0,"TOWNNAME":"永康區","LI":"六合里","LIN":"1鄰","STREET":"新興街","SECT":" ","MAREA":" ","LANE":" ","ALLEY":" ","HOUSE_NO":"６之１號七樓之２","E_COORD97":170933,"N_COORD97":2545719.7999999998,"ADDRESS":"新興街６之１號七樓之２","OBJECTID":513124},"geometry":{"x":170933.00000000093,"y":2545719.8000000026}},{"attributes":{"ID":513152,"DIS_CODE":0,"TOWNNAME":"永康區","LI":"六合里","LIN":"1鄰","STREET":"新興街","SECT":" ","MAREA":" ","LANE":" ","ALLEY":" ","HOUSE_NO":"８之１號四樓之２","E_COORD97":170948.01000000001,"N_COORD97":2545766.79,"ADDRESS":"新興街８之１號四樓之２","OBJECTID":513125},"geometry":{"x":170948.01000000071,"y":2545766.7899999991}},{"attributes":{"ID":513153,"DIS_CODE":0,"TOWNNAME":"永康區","LI":"六合里","LIN":"1鄰","STREET":"新興街","SECT":" ","MAREA":" ","LANE":" ","ALLEY":" ","HOUSE_NO":"８之１號二樓之１","E_COORD97":170947.87,"N_COORD97":2545766.79,"ADDRESS":"新興街８之１號二樓之１","OBJECTID":513126},"geometry":{"x":170947.87000000011,"y":2545766.7899999991}},{"attributes":{"ID":513154,"DIS_CODE":0,"TOWNNAME":"永康區","LI":"六合里","LIN":"1鄰","STREET":"新興街","SECT":" ","MAREA":" ","LANE":" ","ALLEY":" ","HOUSE_NO":"８之３號九樓之３","E_COORD97":170947.25,"N_COORD97":2545728.0499999998,"ADDRESS":"新興街８之３號九樓之３","OBJECTID":513127},"geometry":{"x":170947.25,"y":2545728.0500000026}},{"attributes":{"ID":513155,"DIS_CODE":0,"TOWNNAME":"永康區","LI":"六合里","LIN":"1鄰","STREET":"新興街","SECT":" ","MAREA":" ","LANE":" ","ALLEY":" ","HOUSE_NO":"８之１號八樓之５","E_COORD97":170948.03,"N_COORD97":2545766.79,"ADDRESS":"新興街８之１號八樓之５","OBJECTID":513128},"geometry":{"x":170948.03000000119,"y":2545766.7899999991}},{"attributes":{"ID":513156,"DIS_CODE":0,"TOWNNAME":"永康區","LI":"六合里","LIN":"1鄰","STREET":"新興街","SECT":" ","MAREA":" ","LANE":" ","ALLEY":" ","HOUSE_NO":"８之３號七樓之３","E_COORD97":170947.25,"N_COORD97":2545728.0499999998,"ADDRESS":"新興街８之３號七樓之３","OBJECTID":513129},"geometry":{"x":170947.25,"y":2545728.0500000026}},{"attributes":{"ID":513157,"DIS_CODE":0,"TOWNNAME":"永康區","LI":"六合里","LIN":"1鄰","STREET":"新興街","SECT":" ","MAREA":" ","LANE":" ","ALLEY":" ","HOUSE_NO":"６之１號六樓之１","E_COORD97":170932.85999999999,"N_COORD97":2545719.7999999998,"ADDRESS":"新興街６之１號六樓之１","OBJECTID":513130},"geometry":{"x":170932.86000000034,"y":2545719.8000000026}},{"attributes":{"ID":513158,"DIS_CODE":0,"TOWNNAME":"永康區","LI":"六合里","LIN":"1鄰","STREET":"新興街","SECT":" ","MAREA":" ","LANE":" ","ALLEY":" ","HOUSE_NO":"８號十一樓之２","E_COORD97":170923.95999999999,"N_COORD97":2545756.79,"ADDRESS":"新興街８號十一樓之２","OBJECTID":513131},"geometry":{"x":170923.95999999996,"y":2545756.7899999991}},{"attributes":{"ID":513159,"DIS_CODE":0,"TOWNNAME":"永康區","LI":"六合里","LIN":"1鄰","STREET":"新興街","SECT":" ","MAREA":" ","LANE":" ","ALLEY":" ","HOUSE_NO":"８之２號十一樓之３","E_COORD97":170940.12,"N_COORD97":2545746.29,"ADDRESS":"新興街８之２號十一樓之３","OBJECTID":513132},"geometry":{"x":170940.12000000197,"y":2545746.2899999991}},{"attributes":{"ID":513160,"DIS_CODE":0,"TOWNNAME":"永康區","LI":"六合里","LIN":"1鄰","STREET":"新興街","SECT":" ","MAREA":" ","LANE":" ","ALLEY":" ","HOUSE_NO":"６之１號四樓之２","E_COORD97":170933,"N_COORD97":2545719.7999999998,"ADDRESS":"新興街６之１號四樓之２","OBJECTID":513133},"geometry":{"x":170933.00000000093,"y":2545719.8000000026}},{"attributes":{"ID":513161,"DIS_CODE":0,"TOWNNAME":"永康區","LI":"六合里","LIN":"1鄰","STREET":"新興街","SECT":" ","MAREA":" ","LANE":" ","ALLEY":" ","HOUSE_NO":"８之５號十樓之３","E_COORD97":170950.91,"N_COORD97":2545708.7999999998,"ADDRESS":"新興街８之５號十樓之３","OBJECTID":513134},"geometry":{"x":170950.91000000108,"y":2545708.8000000026}},{"attributes":{"ID":513162,"DIS_CODE":0,"TOWNNAME":"永康區","LI":"六合里","LIN":"1鄰","STREET":"新興街","SECT":" ","MAREA":" ","LANE":" ","ALLEY":" ","HOUSE_NO":"８之５號十樓之５","E_COORD97":170950.97,"N_COORD97":2545708.7999999998,"ADDRESS":"新興街８之５號十樓之５","OBJECTID":513135},"geometry":{"x":170950.9700000016,"y":2545708.8000000026}},{"attributes":{"ID":513163,"DIS_CODE":0,"TOWNNAME":"永康區","LI":"六合里","LIN":"1鄰","STREET":"新興街","SECT":" ","MAREA":" ","LANE":" ","ALLEY":" ","HOUSE_NO":"８之２號三樓之１","E_COORD97":170938.76999999999,"N_COORD97":2545746.29,"ADDRESS":"新興街８之２號三樓之１","OBJECTID":513136},"geometry":{"x":170938.77000000048,"y":2545746.2899999991}},{"attributes":{"ID":513164,"DIS_CODE":0,"TOWNNAME":"永康區","LI":"六合里","LIN":"1鄰","STREET":"新興街","SECT":" ","MAREA":" ","LANE":" ","ALLEY":" ","HOUSE_NO":"８之２號五樓之５","E_COORD97":170938.92999999999,"N_COORD97":2545746.29,"ADDRESS":"新興街８之２號五樓之５","OBJECTID":513137},"geometry":{"x":170938.9299999997,"y":2545746.2899999991}},{"attributes":{"ID":513165,"DIS_CODE":0,"TOWNNAME":"永康區","LI":"六合里","LIN":"1鄰","STREET":"新興街","SECT":" ","MAREA":" ","LANE":" ","ALLEY":" ","HOUSE_NO":"８之２號三樓之５","E_COORD97":170938.92999999999,"N_COORD97":2545746.29,"ADDRESS":"新興街８之２號三樓之５","OBJECTID":513138},"geometry":{"x":170938.9299999997,"y":2545746.2899999991}},{"attributes":{"ID":513166,"DIS_CODE":0,"TOWNNAME":"永康區","LI":"六合里","LIN":"1鄰","STREET":"新興街","SECT":" ","MAREA":" ","LANE":" ","ALLEY":" ","HOUSE_NO":"６之１號八樓之１","E_COORD97":170932.85999999999,"N_COORD97":2545719.7999999998,"ADDRESS":"新興街６之１號八樓之１","OBJECTID":513139},"geometry":{"x":170932.86000000034,"y":2545719.8000000026}},{"attributes":{"ID":513167,"DIS_CODE":0,"TOWNNAME":"永康區","LI":"六合里","LIN":"1鄰","STREET":"新興街","SECT":" ","MAREA":" ","LANE":" ","ALLEY":" ","HOUSE_NO":"８之３號六樓之５","E_COORD97":170947.31,"N_COORD97":2545728.0499999998,"ADDRESS":"新興街８之３號六樓之５","OBJECTID":513140},"geometry":{"x":170947.31000000052,"y":2545728.0500000026}},{"attributes":{"ID":513168,"DIS_CODE":0,"TOWNNAME":"永康區","LI":"六合里","LIN":"1鄰","STREET":"新興街","SECT":" ","MAREA":" ","LANE":" ","ALLEY":" ","HOUSE_NO":"６之１號八樓之６","E_COORD97":170932.97,"N_COORD97":2545719.7999999998,"ADDRESS":"新興街６之１號八樓之６","OBJECTID":513141},"geometry":{"x":170932.97000000067,"y":2545719.8000000026}},{"attributes":{"ID":513169,"DIS_CODE":0,"TOWNNAME":"永康區","LI":"六合里","LIN":"1鄰","STREET":"新興街","SECT":" ","MAREA":" ","LANE":" ","ALLEY":" ","HOUSE_NO":"８號八樓之６","E_COORD97":170922.67999999999,"N_COORD97":2545756.79,"ADDRESS":"新興街８號八樓之６","OBJECTID":513142},"geometry":{"x":170922.68000000063,"y":2545756.7899999991}},{"attributes":{"ID":513170,"DIS_CODE":0,"TOWNNAME":"永康區","LI":"六合里","LIN":"1鄰","STREET":"新興街","SECT":" ","MAREA":" ","LANE":" ","ALLEY":" ","HOUSE_NO":"８之２號四樓之５","E_COORD97":170938.92999999999,"N_COORD97":2545746.29,"ADDRESS":"新興街８之２號四樓之５","OBJECTID":513143},"geometry":{"x":170938.9299999997,"y":2545746.2899999991}},{"attributes":{"ID":513171,"DIS_CODE":0,"TOWNNAME":"安平區","LI":"建平里","LIN":"6鄰","STREET":"慶平路","SECT":" ","MAREA":" ","LANE":" ","ALLEY":" ","HOUSE_NO":"１７０號","E_COORD97":165931.91,"N_COORD97":2544205.2799999998,"ADDRESS":"慶平路１７０號","OBJECTID":513144},"geometry":{"x":165931.91000000015,"y":2544205.2800000012}},{"attributes":{"ID":513172,"DIS_CODE":0,"TOWNNAME":"安平區","LI":"建平里","LIN":"5鄰","STREET":"慶平路","SECT":" ","MAREA":" ","LANE":" ","ALLEY":" ","HOUSE_NO":"８０號","E_COORD97":166158.17999999999,"N_COORD97":2544198.8399999999,"ADDRESS":"慶平路８０號","OBJECTID":513145},"geometry":{"x":166158.1799999997,"y":2544198.8400000017}},{"attributes":{"ID":513173,"DIS_CODE":0,"TOWNNAME":"安平區","LI":"建平里","LIN":"5鄰","STREET":"慶平路","SECT":" ","MAREA":" ","LANE":" ","ALLEY":" ","HOUSE_NO":"８８號","E_COORD97":166131.37,"N_COORD97":2544197.7000000002,"ADDRESS":"慶平路８８號","OBJECTID":513146},"geometry":{"x":166131.37000000104,"y":2544197.6999999993}},{"attributes":{"ID":513174,"DIS_CODE":0,"TOWNNAME":"永康區","LI":"六合里","LIN":"1鄰","STREET":"新興街","SECT":" ","MAREA":" ","LANE":" ","ALLEY":" ","HOUSE_NO":"６之１號九樓之７","E_COORD97":170932.94,"N_COORD97":2545719.7999999998,"ADDRESS":"新興街６之１號九樓之７","OBJECTID":513147},"geometry":{"x":170932.94000000041,"y":2545719.8000000026}},{"attributes":{"ID":513175,"DIS_CODE":0,"TOWNNAME":"永康區","LI":"六合里","LIN":"1鄰","STREET":"新興街","SECT":" ","MAREA":" ","LANE":" ","ALLEY":" ","HOUSE_NO":"８之２號三樓之３","E_COORD97":170938.87,"N_COORD97":2545746.29,"ADDRESS":"新興街８之２號三樓之３","OBJECTID":513148},"geometry":{"x":170938.87000000104,"y":2545746.2899999991}},{"attributes":{"ID":513176,"DIS_CODE":0,"TOWNNAME":"永康區","LI":"六合里","LIN":"1鄰","STREET":"新興街","SECT":" ","MAREA":" ","LANE":" ","ALLEY":" ","HOUSE_NO":"６之１號十樓之２","E_COORD97":170933,"N_COORD97":2545719.7999999998,"ADDRESS":"新興街６之１號十樓之２","OBJECTID":513149},"geometry":{"x":170933.00000000093,"y":2545719.8000000026}},{"attributes":{"ID":513177,"DIS_CODE":0,"TOWNNAME":"永康區","LI":"六合里","LIN":"1鄰","STREET":"新興街","SECT":" ","MAREA":" ","LANE":" ","ALLEY":" ","HOUSE_NO":"６之１號十一樓之５","E_COORD97":170934.26999999999,"N_COORD97":2545719.7999999998,"ADDRESS":"新興街６之１號十一樓之５","OBJECTID":513150},"geometry":{"x":170934.27000000048,"y":2545719.8000000026}},{"attributes":{"ID":513178,"DIS_CODE":0,"TOWNNAME":"永康區","LI":"六合里","LIN":"1鄰","STREET":"新興街","SECT":" ","MAREA":" ","LANE":" ","ALLEY":" ","HOUSE_NO":"８之３號十樓之５","E_COORD97":170947.31,"N_COORD97":2545728.0499999998,"ADDRESS":"新興街８之３號十樓之５","OBJECTID":513151},"geometry":{"x":170947.31000000052,"y":2545728.0500000026}},{"attributes":{"ID":513179,"DIS_CODE":0,"TOWNNAME":"永康區","LI":"六合里","LIN":"1鄰","STREET":"新興街","SECT":" ","MAREA":" ","LANE":" ","ALLEY":" ","HOUSE_NO":"６之１號七樓之７","E_COORD97":170932.94,"N_COORD97":2545719.7999999998,"ADDRESS":"新興街６之１號七樓之７","OBJECTID":513152},"geometry":{"x":170932.94000000041,"y":2545719.8000000026}},{"attributes":{"ID":513180,"DIS_CODE":0,"TOWNNAME":"永康區","LI":"六合里","LIN":"1鄰","STREET":"新興街","SECT":" ","MAREA":" ","LANE":" ","ALLEY":" ","HOUSE_NO":"６之１號二樓之６","E_COORD97":170932.97,"N_COORD97":2545719.7999999998,"ADDRESS":"新興街６之１號二樓之６","OBJECTID":513153},"geometry":{"x":170932.97000000067,"y":2545719.8000000026}},{"attributes":{"ID":513181,"DIS_CODE":0,"TOWNNAME":"永康區","LI":"六合里","LIN":"1鄰","STREET":"新興街","SECT":" ","MAREA":" ","LANE":" ","ALLEY":" ","HOUSE_NO":"８之３號二樓之７","E_COORD97":170947.23000000001,"N_COORD97":2545728.0499999998,"ADDRESS":"新興街８之３號二樓之７","OBJECTID":513154},"geometry":{"x":170947.23000000138,"y":2545728.0500000026}},{"attributes":{"ID":513182,"DIS_CODE":0,"TOWNNAME":"永康區","LI":"六合里","LIN":"1鄰","STREET":"新興街","SECT":" ","MAREA":" ","LANE":" ","ALLEY":" ","HOUSE_NO":"６之１號五樓之２","E_COORD97":170933,"N_COORD97":2545719.7999999998,"ADDRESS":"新興街６之１號五樓之２","OBJECTID":513155},"geometry":{"x":170933.00000000093,"y":2545719.8000000026}},{"attributes":{"ID":513183,"DIS_CODE":0,"TOWNNAME":"永康區","LI":"六合里","LIN":"1鄰","STREET":"新興街","SECT":" ","MAREA":" ","LANE":" ","ALLEY":" ","HOUSE_NO":"８之１號八樓之１","E_COORD97":170947.87,"N_COORD97":2545766.79,"ADDRESS":"新興街８之１號八樓之１","OBJECTID":513156},"geometry":{"x":170947.87000000011,"y":2545766.7899999991}},{"attributes":{"ID":513184,"DIS_CODE":0,"TOWNNAME":"永康區","LI":"六合里","LIN":"1鄰","STREET":"新興街","SECT":" ","MAREA":" ","LANE":" ","ALLEY":" ","HOUSE_NO":"８之３號五樓之５","E_COORD97":170947.31,"N_COORD97":2545728.0499999998,"ADDRESS":"新興街８之３號五樓之５","OBJECTID":513157},"geometry":{"x":170947.31000000052,"y":2545728.0500000026}},{"attributes":{"ID":513185,"DIS_CODE":0,"TOWNNAME":"永康區","LI":"六合里","LIN":"1鄰","STREET":"新興街","SECT":" ","MAREA":" ","LANE":" ","ALLEY":" ","HOUSE_NO":"６之１號八樓之５","E_COORD97":170933.01999999999,"N_COORD97":2545719.7999999998,"ADDRESS":"新興街６之１號八樓之５","OBJECTID":513158},"geometry":{"x":170933.01999999955,"y":2545719.8000000026}},{"attributes":{"ID":513186,"DIS_CODE":0,"TOWNNAME":"永康區","LI":"六合里","LIN":"1鄰","STREET":"新興街","SECT":" ","MAREA":" ","LANE":" ","ALLEY":" ","HOUSE_NO":"８之５號十樓之２","E_COORD97":170950.95000000001,"N_COORD97":2545708.7999999998,"ADDRESS":"新興街８之５號十樓之２","OBJECTID":513159},"geometry":{"x":170950.95000000019,"y":2545708.8000000026}},{"attributes":{"ID":513187,"DIS_CODE":0,"TOWNNAME":"永康區","LI":"六合里","LIN":"1鄰","STREET":"新興街","SECT":" ","MAREA":" ","LANE":" ","ALLEY":" ","HOUSE_NO":"６之１號五樓之５","E_COORD97":170933.01999999999,"N_COORD97":2545719.7999999998,"ADDRESS":"新興街６之１號五樓之５","OBJECTID":513160},"geometry":{"x":170933.01999999955,"y":2545719.8000000026}},{"attributes":{"ID":513188,"DIS_CODE":0,"TOWNNAME":"永康區","LI":"六合里","LIN":"1鄰","STREET":"新興街","SECT":" ","MAREA":" ","LANE":" ","ALLEY":" ","HOUSE_NO":"６號四樓之５","E_COORD97":170919.42999999999,"N_COORD97":2545737.29,"ADDRESS":"新興街６號四樓之５","OBJECTID":513161},"geometry":{"x":170919.43000000063,"y":2545737.290000001}},{"attributes":{"ID":513189,"DIS_CODE":0,"TOWNNAME":"永康區","LI":"六合里","LIN":"1鄰","STREET":"新興街","SECT":" ","MAREA":" ","LANE":" ","ALLEY":" ","HOUSE_NO":"６之１號四樓之６","E_COORD97":170932.97,"N_COORD97":2545719.7999999998,"ADDRESS":"新興街６之１號四樓之６","OBJECTID":513162},"geometry":{"x":170932.97000000067,"y":2545719.8000000026}},{"attributes":{"ID":513190,"DIS_CODE":0,"TOWNNAME":"永康區","LI":"六合里","LIN":"1鄰","STREET":"新興街","SECT":" ","MAREA":" ","LANE":" ","ALLEY":" ","HOUSE_NO":"８之５號三樓之６","E_COORD97":170950.92000000001,"N_COORD97":2545708.7999999998,"ADDRESS":"新興街８之５號三樓之６","OBJECTID":513163},"geometry":{"x":170950.91999999993,"y":2545708.8000000026}},{"attributes":{"ID":513191,"DIS_CODE":0,"TOWNNAME":"永康區","LI":"六合里","LIN":"1鄰","STREET":"新興街","SECT":" ","MAREA":" ","LANE":" ","ALLEY":" ","HOUSE_NO":"６之１號三樓之６","E_COORD97":170932.97,"N_COORD97":2545719.7999999998,"ADDRESS":"新興街６之１號三樓之６","OBJECTID":513164},"geometry":{"x":170932.97000000067,"y":2545719.8000000026}},{"attributes":{"ID":513192,"DIS_CODE":0,"TOWNNAME":"永康區","LI":"六合里","LIN":"1鄰","STREET":"新興街","SECT":" ","MAREA":" ","LANE":" ","ALLEY":" ","HOUSE_NO":"８之３號五樓之６","E_COORD97":170947.26000000001,"N_COORD97":2545728.0499999998,"ADDRESS":"新興街８之３號五樓之６","OBJECTID":513165},"geometry":{"x":170947.25999999885,"y":2545728.0500000026}},{"attributes":{"ID":513193,"DIS_CODE":0,"TOWNNAME":"永康區","LI":"六合里","LIN":"1鄰","STREET":"新興街","SECT":" ","MAREA":" ","LANE":" ","ALLEY":" ","HOUSE_NO":"８之２號六樓之７","E_COORD97":170938.85000000001,"N_COORD97":2545746.29,"ADDRESS":"新興街８之２號六樓之７","OBJECTID":513166},"geometry":{"x":170938.85000000056,"y":2545746.2899999991}},{"attributes":{"ID":513194,"DIS_CODE":0,"TOWNNAME":"永康區","LI":"六合里","LIN":"1鄰","STREET":"新興街","SECT":" ","MAREA":" ","LANE":" ","ALLEY":" ","HOUSE_NO":"６之１號三樓之５","E_COORD97":170933.01999999999,"N_COORD97":2545719.7999999998,"ADDRESS":"新興街６之１號三樓之５","OBJECTID":513167},"geometry":{"x":170933.01999999955,"y":2545719.8000000026}},{"attributes":{"ID":513195,"DIS_CODE":0,"TOWNNAME":"永康區","LI":"六合里","LIN":"1鄰","STREET":"新興街","SECT":" ","MAREA":" ","LANE":" ","ALLEY":" ","HOUSE_NO":"８之３號八樓之６","E_COORD97":170947.26000000001,"N_COORD97":2545728.0499999998,"ADDRESS":"新興街８之３號八樓之６","OBJECTID":513168},"geometry":{"x":170947.25999999885,"y":2545728.0500000026}},{"attributes":{"ID":513196,"DIS_CODE":0,"TOWNNAME":"永康區","LI":"六合里","LIN":"1鄰","STREET":"新興街","SECT":" ","MAREA":" ","LANE":" ","ALLEY":" ","HOUSE_NO":"６之１號六樓之５","E_COORD97":170933.01999999999,"N_COORD97":2545719.7999999998,"ADDRESS":"新興街６之１號六樓之５","OBJECTID":513169},"geometry":{"x":170933.01999999955,"y":2545719.8000000026}},{"attributes":{"ID":513197,"DIS_CODE":0,"TOWNNAME":"永康區","LI":"六合里","LIN":"1鄰","STREET":"新興街","SECT":" ","MAREA":" ","LANE":" ","ALLEY":" ","HOUSE_NO":"８之５號三樓之２","E_COORD97":170950.95000000001,"N_COORD97":2545708.7999999998,"ADDRESS":"新興街８之５號三樓之２","OBJECTID":513170},"geometry":{"x":170950.95000000019,"y":2545708.8000000026}},{"attributes":{"ID":513198,"DIS_CODE":0,"TOWNNAME":"永康區","LI":"六合里","LIN":"1鄰","STREET":"新興街","SECT":" ","MAREA":" ","LANE":" ","ALLEY":" ","HOUSE_NO":"８之２號十樓之６","E_COORD97":170938.88,"N_COORD97":2545746.29,"ADDRESS":"新興街８之２號十樓之６","OBJECTID":513171},"geometry":{"x":170938.88000000082,"y":2545746.2899999991}},{"attributes":{"ID":513199,"DIS_CODE":0,"TOWNNAME":"永康區","LI":"六合里","LIN":"1鄰","STREET":"新興街","SECT":" ","MAREA":" ","LANE":" ","ALLEY":" ","HOUSE_NO":"８之５號十樓之６","E_COORD97":170950.92000000001,"N_COORD97":2545708.7999999998,"ADDRESS":"新興街８之５號十樓之６","OBJECTID":513172},"geometry":{"x":170950.91999999993,"y":2545708.8000000026}},{"attributes":{"ID":513200,"DIS_CODE":0,"TOWNNAME":"永康區","LI":"六合里","LIN":"1鄰","STREET":"新興街","SECT":" ","MAREA":" ","LANE":" ","ALLEY":" ","HOUSE_NO":"８之５號六樓之６","E_COORD97":170950.92000000001,"N_COORD97":2545708.7999999998,"ADDRESS":"新興街８之５號六樓之６","OBJECTID":513173},"geometry":{"x":170950.91999999993,"y":2545708.8000000026}},{"attributes":{"ID":513201,"DIS_CODE":0,"TOWNNAME":"永康區","LI":"六合里","LIN":"1鄰","STREET":"新興街","SECT":" ","MAREA":" ","LANE":" ","ALLEY":" ","HOUSE_NO":"６之１號三樓之７","E_COORD97":170932.94,"N_COORD97":2545719.7999999998,"ADDRESS":"新興街６之１號三樓之７","OBJECTID":513174},"geometry":{"x":170932.94000000041,"y":2545719.8000000026}},{"attributes":{"ID":513202,"DIS_CODE":0,"TOWNNAME":"安平區","LI":"建平里","LIN":"5鄰","STREET":"慶平路","SECT":" ","MAREA":" ","LANE":" ","ALLEY":" ","HOUSE_NO":"９８號","E_COORD97":166082.20000000001,"N_COORD97":2544201.0600000001,"ADDRESS":"慶平路９８號","OBJECTID":513175},"geometry":{"x":166082.20000000019,"y":2544201.0600000024}},{"attributes":{"ID":513203,"DIS_CODE":0,"TOWNNAME":"永康區","LI":"六合里","LIN":"1鄰","STREET":"新興街","SECT":" ","MAREA":" ","LANE":" ","ALLEY":" ","HOUSE_NO":"８之３號三樓之２","E_COORD97":170947.29000000001,"N_COORD97":2545728.0499999998,"ADDRESS":"新興街８之３號三樓之２","OBJECTID":513176},"geometry":{"x":170947.28999999911,"y":2545728.0500000026}},{"attributes":{"ID":513204,"DIS_CODE":0,"TOWNNAME":"永康區","LI":"六合里","LIN":"1鄰","STREET":"新興街","SECT":" ","MAREA":" ","LANE":" ","ALLEY":" ","HOUSE_NO":"８之３號十一樓之５","E_COORD97":170948.56,"N_COORD97":2545728.0499999998,"ADDRESS":"新興街８之３號十一樓之５","OBJECTID":513177},"geometry":{"x":170948.56000000145,"y":2545728.0500000026}},{"attributes":{"ID":513205,"DIS_CODE":0,"TOWNNAME":"永康區","LI":"六合里","LIN":"1鄰","STREET":"新興街","SECT":" ","MAREA":" ","LANE":" ","ALLEY":" ","HOUSE_NO":"８之２號三樓之７","E_COORD97":170938.85000000001,"N_COORD97":2545746.29,"ADDRESS":"新興街８之２號三樓之７","OBJECTID":513178},"geometry":{"x":170938.85000000056,"y":2545746.2899999991}},{"attributes":{"ID":513206,"DIS_CODE":0,"TOWNNAME":"永康區","LI":"六合里","LIN":"1鄰","STREET":"新興街","SECT":" ","MAREA":" ","LANE":" ","ALLEY":" ","HOUSE_NO":"６號八樓之１","E_COORD97":170919.26999999999,"N_COORD97":2545737.29,"ADDRESS":"新興街６號八樓之１","OBJECTID":513179},"geometry":{"x":170919.26999999955,"y":2545737.290000001}},{"attributes":{"ID":513207,"DIS_CODE":0,"TOWNNAME":"永康區","LI":"六合里","LIN":"1鄰","STREET":"新興街","SECT":" ","MAREA":" ","LANE":" ","ALLEY":" ","HOUSE_NO":"８之５號五樓之５","E_COORD97":170950.97,"N_COORD97":2545708.7999999998,"ADDRESS":"新興街８之５號五樓之５","OBJECTID":513180},"geometry":{"x":170950.9700000016,"y":2545708.8000000026}},{"attributes":{"ID":513208,"DIS_CODE":0,"TOWNNAME":"永康區","LI":"六合里","LIN":"1鄰","STREET":"新興街","SECT":" ","MAREA":" ","LANE":" ","ALLEY":" ","HOUSE_NO":"８號九樓之１","E_COORD97":170922.57000000001,"N_COORD97":2545756.79,"ADDRESS":"新興街８號九樓之１","OBJECTID":513181},"geometry":{"x":170922.57000000123,"y":2545756.7899999991}},{"attributes":{"ID":513209,"DIS_CODE":0,"TOWNNAME":"永康區","LI":"六合里","LIN":"1鄰","STREET":"新興街","SECT":" ","MAREA":" ","LANE":" ","ALLEY":" ","HOUSE_NO":"８之２號十一樓之５","E_COORD97":170940.17999999999,"N_COORD97":2545746.29,"ADDRESS":"新興街８之２號十一樓之５","OBJECTID":513182},"geometry":{"x":170940.1799999997,"y":2545746.2899999991}},{"attributes":{"ID":513210,"DIS_CODE":0,"TOWNNAME":"永康區","LI":"六合里","LIN":"1鄰","STREET":"新興街","SECT":" ","MAREA":" ","LANE":" ","ALLEY":" ","HOUSE_NO":"６之１號四樓之５","E_COORD97":170933.01999999999,"N_COORD97":2545719.7999999998,"ADDRESS":"新興街６之１號四樓之５","OBJECTID":513183},"geometry":{"x":170933.01999999955,"y":2545719.8000000026}},{"attributes":{"ID":513211,"DIS_CODE":0,"TOWNNAME":"永康區","LI":"六合里","LIN":"1鄰","STREET":"新興街","SECT":" ","MAREA":" ","LANE":" ","ALLEY":" ","HOUSE_NO":"８之３號八樓之３","E_COORD97":170947.25,"N_COORD97":2545728.0499999998,"ADDRESS":"新興街８之３號八樓之３","OBJECTID":513184},"geometry":{"x":170947.25,"y":2545728.0500000026}},{"attributes":{"ID":513212,"DIS_CODE":0,"TOWNNAME":"永康區","LI":"六合里","LIN":"1鄰","STREET":"新興街","SECT":" ","MAREA":" ","LANE":" ","ALLEY":" ","HOUSE_NO":"８之３號三樓之１","E_COORD97":170947.14999999999,"N_COORD97":2545728.0499999998,"ADDRESS":"新興街８之３號三樓之１","OBJECTID":513185},"geometry":{"x":170947.15000000224,"y":2545728.0500000026}},{"attributes":{"ID":513213,"DIS_CODE":0,"TOWNNAME":"安平區","LI":"建平里","LIN":"15鄰","STREET":"建平十二街","SECT":" ","MAREA":" ","LANE":" ","ALLEY":" ","HOUSE_NO":"９０號","E_COORD97":166184.26000000001,"N_COORD97":2543972.8399999999,"ADDRESS":"建平十二街９０號","OBJECTID":513186},"geometry":{"x":166184.26000000071,"y":2543972.8399999999}},{"attributes":{"ID":513214,"DIS_CODE":0,"TOWNNAME":"永康區","LI":"六合里","LIN":"1鄰","STREET":"新興街","SECT":" ","MAREA":" ","LANE":" ","ALLEY":" ","HOUSE_NO":"６之１號九樓之２","E_COORD97":170933,"N_COORD97":2545719.7999999998,"ADDRESS":"新興街６之１號九樓之２","OBJECTID":513187},"geometry":{"x":170933.00000000093,"y":2545719.8000000026}},{"attributes":{"ID":513215,"DIS_CODE":0,"TOWNNAME":"永康區","LI":"六合里","LIN":"1鄰","STREET":"新興街","SECT":" ","MAREA":" ","LANE":" ","ALLEY":" ","HOUSE_NO":"８之３號十一樓之１","E_COORD97":170948.39999999999,"N_COORD97":2545728.0499999998,"ADDRESS":"新興街８之３號十一樓之１","OBJECTID":513188},"geometry":{"x":170948.40000000037,"y":2545728.0500000026}},{"attributes":{"ID":513216,"DIS_CODE":0,"TOWNNAME":"永康區","LI":"六合里","LIN":"1鄰","STREET":"新興街","SECT":" ","MAREA":" ","LANE":" ","ALLEY":" ","HOUSE_NO":"８之３號九樓之２","E_COORD97":170947.29000000001,"N_COORD97":2545728.0499999998,"ADDRESS":"新興街８之３號九樓之２","OBJECTID":513189},"geometry":{"x":170947.28999999911,"y":2545728.0500000026}},{"attributes":{"ID":513217,"DIS_CODE":0,"TOWNNAME":"永康區","LI":"六合里","LIN":"1鄰","STREET":"新興街","SECT":" ","MAREA":" ","LANE":" ","ALLEY":" ","HOUSE_NO":"８之３號五樓之３","E_COORD97":170947.25,"N_COORD97":2545728.0499999998,"ADDRESS":"新興街８之３號五樓之３","OBJECTID":513190},"geometry":{"x":170947.25,"y":2545728.0500000026}},{"attributes":{"ID":513218,"DIS_CODE":0,"TOWNNAME":"永康區","LI":"六合里","LIN":"1鄰","STREET":"新興街","SECT":" ","MAREA":" ","LANE":" ","ALLEY":" ","HOUSE_NO":"８之３號三樓之３","E_COORD97":170947.25,"N_COORD97":2545728.0499999998,"ADDRESS":"新興街８之３號三樓之３","OBJECTID":513191},"geometry":{"x":170947.25,"y":2545728.0500000026}},{"attributes":{"ID":513219,"DIS_CODE":0,"TOWNNAME":"永康區","LI":"六合里","LIN":"1鄰","STREET":"新興街","SECT":" ","MAREA":" ","LANE":" ","ALLEY":" ","HOUSE_NO":"８之２號五樓之１","E_COORD97":170938.76999999999,"N_COORD97":2545746.29,"ADDRESS":"新興街８之２號五樓之１","OBJECTID":513192},"geometry":{"x":170938.77000000048,"y":2545746.2899999991}},{"attributes":{"ID":513220,"DIS_CODE":0,"TOWNNAME":"永康區","LI":"六合里","LIN":"1鄰","STREET":"新興街","SECT":" ","MAREA":" ","LANE":" ","ALLEY":" ","HOUSE_NO":"６之１號五樓之７","E_COORD97":170932.94,"N_COORD97":2545719.7999999998,"ADDRESS":"新興街６之１號五樓之７","OBJECTID":513193},"geometry":{"x":170932.94000000041,"y":2545719.8000000026}},{"attributes":{"ID":513221,"DIS_CODE":0,"TOWNNAME":"鹽水區","LI":"橋南里","LIN":" ","STREET":"月津路","SECT":" ","MAREA":" ","LANE":" ","ALLEY":" ","HOUSE_NO":"１１３號","E_COORD97":174863.07999999999,"N_COORD97":2579151.73,"ADDRESS":"月津路１１３號","OBJECTID":513194},"geometry":{"x":174863.08000000194,"y":2579151.7300000023}},{"attributes":{"ID":513222,"DIS_CODE":0,"TOWNNAME":"永康區","LI":"六合里","LIN":"1鄰","STREET":"新興街","SECT":" ","MAREA":" ","LANE":" ","ALLEY":" ","HOUSE_NO":"６之１號十樓之１","E_COORD97":170932.85999999999,"N_COORD97":2545719.7999999998,"ADDRESS":"新興街６之１號十樓之１","OBJECTID":513195},"geometry":{"x":170932.86000000034,"y":2545719.8000000026}},{"attributes":{"ID":513223,"DIS_CODE":0,"TOWNNAME":"永康區","LI":"六合里","LIN":"1鄰","STREET":"新興街","SECT":" ","MAREA":" ","LANE":" ","ALLEY":" ","HOUSE_NO":"６之１號九樓之６","E_COORD97":170932.97,"N_COORD97":2545719.7999999998,"ADDRESS":"新興街６之１號九樓之６","OBJECTID":513196},"geometry":{"x":170932.97000000067,"y":2545719.8000000026}},{"attributes":{"ID":513224,"DIS_CODE":0,"TOWNNAME":"永康區","LI":"六合里","LIN":"1鄰","STREET":"新興街","SECT":" ","MAREA":" ","LANE":" ","ALLEY":" ","HOUSE_NO":"６之１號三樓之２","E_COORD97":170933,"N_COORD97":2545719.7999999998,"ADDRESS":"新興街６之１號三樓之２","OBJECTID":513197},"geometry":{"x":170933.00000000093,"y":2545719.8000000026}},{"attributes":{"ID":513225,"DIS_CODE":0,"TOWNNAME":"永康區","LI":"六合里","LIN":"1鄰","STREET":"新興街","SECT":" ","MAREA":" ","LANE":" ","ALLEY":" ","HOUSE_NO":"８號七樓之２","E_COORD97":170922.70999999999,"N_COORD97":2545756.79,"ADDRESS":"新興街８號七樓之２","OBJECTID":513198},"geometry":{"x":170922.71000000089,"y":2545756.7899999991}},{"attributes":{"ID":513226,"DIS_CODE":0,"TOWNNAME":"永康區","LI":"六合里","LIN":"1鄰","STREET":"新興街","SECT":" ","MAREA":" ","LANE":" ","ALLEY":" ","HOUSE_NO":"８之３號八樓之５","E_COORD97":170947.31,"N_COORD97":2545728.0499999998,"ADDRESS":"新興街８之３號八樓之５","OBJECTID":513199},"geometry":{"x":170947.31000000052,"y":2545728.0500000026}},{"attributes":{"ID":513227,"DIS_CODE":0,"TOWNNAME":"永康區","LI":"五王里","LIN":"1鄰","STREET":"成功路","SECT":" ","MAREA":" ","LANE":" ","ALLEY":" ","HOUSE_NO":"６４號五樓之２","E_COORD97":171547.29999999999,"N_COORD97":2545487.0499999998,"ADDRESS":"成功路６４號五樓之２","OBJECTID":513200},"geometry":{"x":171547.30000000168,"y":2545487.0500000026}}]}