{"displayFieldName":"TOWNNAME","fieldAliases":{"ID":"ID","DIS_CODE":"DIS_CODE","TOWNNAME":"TOWNNAME","LI":"LI","LIN":"LIN","STREET":"STREET","SECT":"SECT","MAREA":"MAREA","LANE":"LANE","ALLEY":"ALLEY","HOUSE_NO":"HOUSE_NO","E_COORD97":"E_COORD97","N_COORD97":"N_COORD97","ADDRESS":"ADDRESS","OBJECTID":"OBJECTID"},"geometryType":"esriGeometryPoint","spatialReference":{"wkid":102443,"latestWkid":3826},"fields":[{"name":"ID","type":"esriFieldTypeDouble","alias":"ID"},{"name":"DIS_CODE","type":"esriFieldTypeInteger","alias":"DIS_CODE"},{"name":"TOWNNAME","type":"esriFieldTypeString","alias":"TOWNNAME","length":8},{"name":"LI","type":"esriFieldTypeString","alias":"LI","length":8},{"name":"LIN","type":"esriFieldTypeString","alias":"LIN","length":12},{"name":"STREET","type":"esriFieldTypeString","alias":"STREET","length":20},{"name":"SECT","type":"esriFieldTypeString","alias":"SECT","length":8},{"name":"MAREA","type":"esriFieldTypeString","alias":"MAREA","length":12},{"name":"LANE","type":"esriFieldTypeString","alias":"LANE","length":10},{"name":"ALLEY","type":"esriFieldTypeString","alias":"ALLEY","length":10},{"name":"HOUSE_NO","type":"esriFieldTypeString","alias":"HOUSE_NO","length":20},{"name":"E_COORD97","type":"esriFieldTypeDouble","alias":"E_COORD97"},{"name":"N_COORD97","type":"esriFieldTypeDouble","alias":"N_COORD97"},{"name":"ADDRESS","type":"esriFieldTypeString","alias":"ADDRESS","length":50},{"name":"OBJECTID","type":"esriFieldTypeOID","alias":"OBJECTID"}],"features":[{"attributes":{"ID":235805,"DIS_CODE":0,"TOWNNAME":"西港區","LI":"南海里","LIN":"16鄰","STREET":" ","SECT":" ","MAREA":"東港","LANE":" ","ALLEY":" ","HOUSE_NO":"１２號之１","E_COORD97":166981.13,"N_COORD97":2556251.6499999999,"ADDRESS":"東港１２號之１","OBJECTID":235801},"geometry":{"x":166981.12999999989,"y":2556251.6500000004}},{"attributes":{"ID":235806,"DIS_CODE":0,"TOWNNAME":"西港區","LI":"南海里","LIN":"16鄰","STREET":" ","SECT":" ","MAREA":"東港","LANE":" ","ALLEY":" ","HOUSE_NO":"１２號之２","E_COORD97":166930.92000000001,"N_COORD97":2556271.7400000002,"ADDRESS":"東港１２號之２","OBJECTID":235802},"geometry":{"x":166930.92000000086,"y":2556271.7400000002}},{"attributes":{"ID":235807,"DIS_CODE":0,"TOWNNAME":"西港區","LI":"南海里","LIN":"16鄰","STREET":" ","SECT":" ","MAREA":"東港","LANE":" ","ALLEY":" ","HOUSE_NO":"１２號之３","E_COORD97":166948.17000000001,"N_COORD97":2556287.6400000001,"ADDRESS":"東港１２號之３","OBJECTID":235803},"geometry":{"x":166948.17000000086,"y":2556287.6400000025}},{"attributes":{"ID":235808,"DIS_CODE":0,"TOWNNAME":"西港區","LI":"南海里","LIN":"16鄰","STREET":" ","SECT":" ","MAREA":"東港","LANE":" ","ALLEY":" ","HOUSE_NO":"１２號之４","E_COORD97":167001.54999999999,"N_COORD97":2556268.1400000001,"ADDRESS":"東港１２號之４","OBJECTID":235804},"geometry":{"x":167001.55000000075,"y":2556268.1400000025}},{"attributes":{"ID":235809,"DIS_CODE":0,"TOWNNAME":"西港區","LI":"南海里","LIN":"16鄰","STREET":" ","SECT":" ","MAREA":"東港","LANE":" ","ALLEY":" ","HOUSE_NO":"１２號之５","E_COORD97":166996.07000000001,"N_COORD97":2556245.3500000001,"ADDRESS":"東港１２號之５","OBJECTID":235805},"geometry":{"x":166996.07000000216,"y":2556245.3500000015}},{"attributes":{"ID":235810,"DIS_CODE":0,"TOWNNAME":"西港區","LI":"南海里","LIN":"16鄰","STREET":" ","SECT":" ","MAREA":"東港","LANE":" ","ALLEY":" ","HOUSE_NO":"１２之８號","E_COORD97":166976.20999999999,"N_COORD97":2556193.7200000002,"ADDRESS":"東港１２之８號","OBJECTID":235806},"geometry":{"x":166976.21000000089,"y":2556193.7200000007}},{"attributes":{"ID":235811,"DIS_CODE":0,"TOWNNAME":"西港區","LI":"南海里","LIN":"16鄰","STREET":" ","SECT":" ","MAREA":"東港","LANE":" ","ALLEY":" ","HOUSE_NO":"１２號","E_COORD97":166953.04000000001,"N_COORD97":2556267.9199999999,"ADDRESS":"東港１２號","OBJECTID":235807},"geometry":{"x":166953.04000000004,"y":2556267.9200000018}},{"attributes":{"ID":235812,"DIS_CODE":0,"TOWNNAME":"東區","LI":"大德里","LIN":"16鄰","STREET":"立德十一路","SECT":" ","MAREA":" ","LANE":"５５巷","ALLEY":" ","HOUSE_NO":"１７號","E_COORD97":169470.75,"N_COORD97":2542196.1099999999,"ADDRESS":"立德十一路５５巷１７號","OBJECTID":235808},"geometry":{"x":169470.75,"y":2542196.1100000013}},{"attributes":{"ID":235813,"DIS_CODE":0,"TOWNNAME":"東區","LI":"大德里","LIN":"16鄰","STREET":"立德十一路","SECT":" ","MAREA":" ","LANE":"５５巷","ALLEY":" ","HOUSE_NO":"１９號","E_COORD97":169463.60999999999,"N_COORD97":2542194.1600000001,"ADDRESS":"立德十一路５５巷１９號","OBJECTID":235809},"geometry":{"x":169463.61000000034,"y":2542194.160000002}},{"attributes":{"ID":235814,"DIS_CODE":0,"TOWNNAME":"東區","LI":"大德里","LIN":"16鄰","STREET":"立德十一路","SECT":" ","MAREA":" ","LANE":"５５巷","ALLEY":" ","HOUSE_NO":"１５號","E_COORD97":169476.47,"N_COORD97":2542195.7400000002,"ADDRESS":"立德十一路５５巷１５號","OBJECTID":235810},"geometry":{"x":169476.47000000067,"y":2542195.7400000021}},{"attributes":{"ID":235815,"DIS_CODE":0,"TOWNNAME":"東區","LI":"大德里","LIN":"16鄰","STREET":"立德十一路","SECT":" ","MAREA":" ","LANE":"５５巷","ALLEY":" ","HOUSE_NO":"１１號","E_COORD97":169477.14000000001,"N_COORD97":2542186.2599999998,"ADDRESS":"立德十一路５５巷１１號","OBJECTID":235811},"geometry":{"x":169477.1400000006,"y":2542186.2600000016}},{"attributes":{"ID":235816,"DIS_CODE":0,"TOWNNAME":"東區","LI":"大德里","LIN":"16鄰","STREET":"立德十一路","SECT":" ","MAREA":" ","LANE":"５５巷","ALLEY":" ","HOUSE_NO":"７號","E_COORD97":169480.07000000001,"N_COORD97":2542162.6600000001,"ADDRESS":"立德十一路５５巷７號","OBJECTID":235812},"geometry":{"x":169480.07000000123,"y":2542162.660000002}},{"attributes":{"ID":235817,"DIS_CODE":0,"TOWNNAME":"東區","LI":"大德里","LIN":"16鄰","STREET":"立德十一路","SECT":" ","MAREA":" ","LANE":"５５巷","ALLEY":" ","HOUSE_NO":"５號","E_COORD97":169485.38,"N_COORD97":2542146.9199999999,"ADDRESS":"立德十一路５５巷５號","OBJECTID":235813},"geometry":{"x":169485.38000000175,"y":2542146.9200000018}},{"attributes":{"ID":235818,"DIS_CODE":0,"TOWNNAME":"東區","LI":"大德里","LIN":"16鄰","STREET":"立德十一路","SECT":" ","MAREA":" ","LANE":"５５巷","ALLEY":" ","HOUSE_NO":"３號","E_COORD97":169487.48999999999,"N_COORD97":2542138.0699999998,"ADDRESS":"立德十一路５５巷３號","OBJECTID":235814},"geometry":{"x":169487.49000000115,"y":2542138.0700000003}},{"attributes":{"ID":235819,"DIS_CODE":0,"TOWNNAME":"東區","LI":"大德里","LIN":"16鄰","STREET":"立德十一路","SECT":" ","MAREA":" ","LANE":"５５巷","ALLEY":" ","HOUSE_NO":"６５號","E_COORD97":169463.67999999999,"N_COORD97":2542261.04,"ADDRESS":"立德十一路５５巷６５號","OBJECTID":235815},"geometry":{"x":169463.6799999997,"y":2542261.040000001}},{"attributes":{"ID":235820,"DIS_CODE":0,"TOWNNAME":"東區","LI":"大德里","LIN":"16鄰","STREET":"立德十一路","SECT":" ","MAREA":" ","LANE":"５５巷","ALLEY":" ","HOUSE_NO":"６３號","E_COORD97":169463.76000000001,"N_COORD97":2542257.3700000001,"ADDRESS":"立德十一路５５巷６３號","OBJECTID":235816},"geometry":{"x":169463.75999999978,"y":2542257.3700000029}},{"attributes":{"ID":235821,"DIS_CODE":0,"TOWNNAME":"東區","LI":"大德里","LIN":"16鄰","STREET":"立德十一路","SECT":" ","MAREA":" ","LANE":"５５巷","ALLEY":" ","HOUSE_NO":"６１號","E_COORD97":169463.76000000001,"N_COORD97":2542253.7599999998,"ADDRESS":"立德十一路５５巷６１號","OBJECTID":235817},"geometry":{"x":169463.75999999978,"y":2542253.7600000016}},{"attributes":{"ID":235822,"DIS_CODE":0,"TOWNNAME":"東區","LI":"大德里","LIN":"16鄰","STREET":"立德十一路","SECT":" ","MAREA":" ","LANE":"５５巷","ALLEY":" ","HOUSE_NO":"５９號","E_COORD97":169453.91,"N_COORD97":2542257.1400000001,"ADDRESS":"立德十一路５５巷５９號","OBJECTID":235818},"geometry":{"x":169453.91000000108,"y":2542257.1400000006}},{"attributes":{"ID":235823,"DIS_CODE":0,"TOWNNAME":"東區","LI":"大德里","LIN":"16鄰","STREET":"立德十一路","SECT":" ","MAREA":" ","LANE":"５５巷","ALLEY":" ","HOUSE_NO":"５７號","E_COORD97":169449.85999999999,"N_COORD97":2542256.77,"ADDRESS":"立德十一路５５巷５７號","OBJECTID":235819},"geometry":{"x":169449.86000000034,"y":2542256.7700000014}},{"attributes":{"ID":235824,"DIS_CODE":0,"TOWNNAME":"東區","LI":"復興里","LIN":"13鄰","STREET":"自由路","SECT":"三段","MAREA":" ","LANE":" ","ALLEY":" ","HOUSE_NO":"２４１號二樓之２","E_COORD97":171746.82999999999,"N_COORD97":2542603.2599999998,"ADDRESS":"自由路三段２４１號二樓之２","OBJECTID":235820},"geometry":{"x":171746.83000000007,"y":2542603.2600000016}},{"attributes":{"ID":235825,"DIS_CODE":0,"TOWNNAME":"東區","LI":"復興里","LIN":"13鄰","STREET":"自由路","SECT":"三段","MAREA":" ","LANE":" ","ALLEY":" ","HOUSE_NO":"２４１號八樓","E_COORD97":171746.82999999999,"N_COORD97":2542603.2599999998,"ADDRESS":"自由路三段２４１號八樓","OBJECTID":235821},"geometry":{"x":171746.83000000007,"y":2542603.2600000016}},{"attributes":{"ID":235826,"DIS_CODE":0,"TOWNNAME":"東區","LI":"復興里","LIN":"13鄰","STREET":"自由路","SECT":"三段","MAREA":" ","LANE":" ","ALLEY":" ","HOUSE_NO":"２４１號八樓之１","E_COORD97":171746.82999999999,"N_COORD97":2542603.2599999998,"ADDRESS":"自由路三段２４１號八樓之１","OBJECTID":235822},"geometry":{"x":171746.83000000007,"y":2542603.2600000016}},{"attributes":{"ID":235827,"DIS_CODE":0,"TOWNNAME":"東區","LI":"復興里","LIN":"13鄰","STREET":"自由路","SECT":"三段","MAREA":" ","LANE":" ","ALLEY":" ","HOUSE_NO":"２４１號八樓之２","E_COORD97":171746.82999999999,"N_COORD97":2542603.2599999998,"ADDRESS":"自由路三段２４１號八樓之２","OBJECTID":235823},"geometry":{"x":171746.83000000007,"y":2542603.2600000016}},{"attributes":{"ID":235828,"DIS_CODE":0,"TOWNNAME":"歸仁區","LI":"西埔里","LIN":"10鄰","STREET":"西埔一街","SECT":" ","MAREA":" ","LANE":"１８８巷","ALLEY":" ","HOUSE_NO":"１３號","E_COORD97":177112.88359400001,"N_COORD97":2544611.3585600001,"ADDRESS":"西埔一街１８８巷１３號","OBJECTID":235824},"geometry":{"x":177112.88359400071,"y":2544611.3585650008}},{"attributes":{"ID":235829,"DIS_CODE":0,"TOWNNAME":"永康區","LI":"\u25A0行里","LIN":"14鄰","STREET":"中正六街","SECT":" ","MAREA":" ","LANE":" ","ALLEY":" ","HOUSE_NO":"１７５號二樓","E_COORD97":171856.04999999999,"N_COORD97":2548861.52,"ADDRESS":"中正六街１７５號二樓","OBJECTID":235825},"geometry":{"x":171856.05000000075,"y":2548861.5199999977}},{"attributes":{"ID":235830,"DIS_CODE":0,"TOWNNAME":"東區","LI":"圍下里","LIN":"14鄰","STREET":"前鋒路","SECT":" ","MAREA":" ","LANE":" ","ALLEY":" ","HOUSE_NO":"８７號三樓之３","E_COORD97":169297.45000000001,"N_COORD97":2543610.73,"ADDRESS":"前鋒路８７號三樓之３","OBJECTID":235826},"geometry":{"x":169297.45000000112,"y":2543610.7300000023}},{"attributes":{"ID":235831,"DIS_CODE":0,"TOWNNAME":"東區","LI":"圍下里","LIN":"14鄰","STREET":"前鋒路","SECT":" ","MAREA":" ","LANE":" ","ALLEY":" ","HOUSE_NO":"８７號三樓之４","E_COORD97":169297.45000000001,"N_COORD97":2543610.73,"ADDRESS":"前鋒路８７號三樓之４","OBJECTID":235827},"geometry":{"x":169297.45000000112,"y":2543610.7300000023}},{"attributes":{"ID":235832,"DIS_CODE":0,"TOWNNAME":"東區","LI":"圍下里","LIN":"14鄰","STREET":"前鋒路","SECT":" ","MAREA":" ","LANE":" ","ALLEY":" ","HOUSE_NO":"８７號四樓之１","E_COORD97":169297.45000000001,"N_COORD97":2543610.73,"ADDRESS":"前鋒路８７號四樓之１","OBJECTID":235828},"geometry":{"x":169297.45000000112,"y":2543610.7300000023}},{"attributes":{"ID":235833,"DIS_CODE":0,"TOWNNAME":"東區","LI":"圍下里","LIN":"14鄰","STREET":"前鋒路","SECT":" ","MAREA":" ","LANE":" ","ALLEY":" ","HOUSE_NO":"８７號四樓之２","E_COORD97":169297.45000000001,"N_COORD97":2543610.73,"ADDRESS":"前鋒路８７號四樓之２","OBJECTID":235829},"geometry":{"x":169297.45000000112,"y":2543610.7300000023}},{"attributes":{"ID":235834,"DIS_CODE":0,"TOWNNAME":"東區","LI":"圍下里","LIN":"14鄰","STREET":"前鋒路","SECT":" ","MAREA":" ","LANE":" ","ALLEY":" ","HOUSE_NO":"８７號四樓之３","E_COORD97":169297.45000000001,"N_COORD97":2543610.73,"ADDRESS":"前鋒路８７號四樓之３","OBJECTID":235830},"geometry":{"x":169297.45000000112,"y":2543610.7300000023}},{"attributes":{"ID":235835,"DIS_CODE":0,"TOWNNAME":"東區","LI":"圍下里","LIN":"14鄰","STREET":"前鋒路","SECT":" ","MAREA":" ","LANE":" ","ALLEY":" ","HOUSE_NO":"８７號四樓之４","E_COORD97":169297.45000000001,"N_COORD97":2543610.73,"ADDRESS":"前鋒路８７號四樓之４","OBJECTID":235831},"geometry":{"x":169297.45000000112,"y":2543610.7300000023}},{"attributes":{"ID":235836,"DIS_CODE":0,"TOWNNAME":"東區","LI":"圍下里","LIN":"14鄰","STREET":"前鋒路","SECT":" ","MAREA":" ","LANE":" ","ALLEY":" ","HOUSE_NO":"８７號五樓之２","E_COORD97":169297.45000000001,"N_COORD97":2543610.73,"ADDRESS":"前鋒路８７號五樓之２","OBJECTID":235832},"geometry":{"x":169297.45000000112,"y":2543610.7300000023}},{"attributes":{"ID":235837,"DIS_CODE":0,"TOWNNAME":"東區","LI":"圍下里","LIN":"14鄰","STREET":"前鋒路","SECT":" ","MAREA":" ","LANE":" ","ALLEY":" ","HOUSE_NO":"８７號五樓之３","E_COORD97":169297.45000000001,"N_COORD97":2543610.73,"ADDRESS":"前鋒路８７號五樓之３","OBJECTID":235833},"geometry":{"x":169297.45000000112,"y":2543610.7300000023}},{"attributes":{"ID":235838,"DIS_CODE":0,"TOWNNAME":"東區","LI":"圍下里","LIN":"14鄰","STREET":"前鋒路","SECT":" ","MAREA":" ","LANE":" ","ALLEY":" ","HOUSE_NO":"８７號五樓之４","E_COORD97":169297.45000000001,"N_COORD97":2543610.73,"ADDRESS":"前鋒路８７號五樓之４","OBJECTID":235834},"geometry":{"x":169297.45000000112,"y":2543610.7300000023}},{"attributes":{"ID":235839,"DIS_CODE":0,"TOWNNAME":"東區","LI":"圍下里","LIN":"14鄰","STREET":"前鋒路","SECT":" ","MAREA":" ","LANE":" ","ALLEY":" ","HOUSE_NO":"８７號六樓之１","E_COORD97":169297.45000000001,"N_COORD97":2543610.73,"ADDRESS":"前鋒路８７號六樓之１","OBJECTID":235835},"geometry":{"x":169297.45000000112,"y":2543610.7300000023}},{"attributes":{"ID":235840,"DIS_CODE":0,"TOWNNAME":"東區","LI":"圍下里","LIN":"14鄰","STREET":"前鋒路","SECT":" ","MAREA":" ","LANE":" ","ALLEY":" ","HOUSE_NO":"８７號六樓之２","E_COORD97":169297.45000000001,"N_COORD97":2543610.73,"ADDRESS":"前鋒路８７號六樓之２","OBJECTID":235836},"geometry":{"x":169297.45000000112,"y":2543610.7300000023}},{"attributes":{"ID":235841,"DIS_CODE":0,"TOWNNAME":"東區","LI":"東光里","LIN":"16鄰","STREET":"莊敬路","SECT":" ","MAREA":" ","LANE":"５８巷","ALLEY":" ","HOUSE_NO":"１１號","E_COORD97":171391.28,"N_COORD97":2543825.1000000001,"ADDRESS":"莊敬路５８巷１１號","OBJECTID":235837},"geometry":{"x":171391.28000000026,"y":2543825.0999999996}},{"attributes":{"ID":235842,"DIS_CODE":0,"TOWNNAME":"東區","LI":"東光里","LIN":"16鄰","STREET":"莊敬路","SECT":" ","MAREA":" ","LANE":"５８巷","ALLEY":" ","HOUSE_NO":"１號","E_COORD97":171370.89000000001,"N_COORD97":2543824.3999999999,"ADDRESS":"莊敬路５８巷１號","OBJECTID":235838},"geometry":{"x":171370.8900000006,"y":2543824.4000000004}},{"attributes":{"ID":235843,"DIS_CODE":0,"TOWNNAME":"東區","LI":"東光里","LIN":"16鄰","STREET":"莊敬路","SECT":" ","MAREA":" ","LANE":"５８巷","ALLEY":" ","HOUSE_NO":"３號","E_COORD97":171375.20999999999,"N_COORD97":2543826.3999999999,"ADDRESS":"莊敬路５８巷３號","OBJECTID":235839},"geometry":{"x":171375.21000000089,"y":2543826.4000000022}},{"attributes":{"ID":235844,"DIS_CODE":0,"TOWNNAME":"東區","LI":"東光里","LIN":"16鄰","STREET":"莊敬路","SECT":" ","MAREA":" ","LANE":"５８巷","ALLEY":" ","HOUSE_NO":"５號","E_COORD97":171378.72,"N_COORD97":2543822.8900000001,"ADDRESS":"莊敬路５８巷５號","OBJECTID":235840},"geometry":{"x":171378.72000000067,"y":2543822.8900000025}},{"attributes":{"ID":235845,"DIS_CODE":0,"TOWNNAME":"東區","LI":"東光里","LIN":"16鄰","STREET":"莊敬路","SECT":" ","MAREA":" ","LANE":"５８巷","ALLEY":" ","HOUSE_NO":"７號","E_COORD97":171383.14000000001,"N_COORD97":2543825.1000000001,"ADDRESS":"莊敬路５８巷７號","OBJECTID":235841},"geometry":{"x":171383.13999999966,"y":2543825.0999999996}},{"attributes":{"ID":235846,"DIS_CODE":0,"TOWNNAME":"東區","LI":"東光里","LIN":"16鄰","STREET":"莊敬路","SECT":" ","MAREA":" ","LANE":"５８巷","ALLEY":" ","HOUSE_NO":"９號","E_COORD97":171387.16,"N_COORD97":2543823.3900000001,"ADDRESS":"莊敬路５８巷９號","OBJECTID":235842},"geometry":{"x":171387.16000000015,"y":2543823.3900000025}},{"attributes":{"ID":235847,"DIS_CODE":0,"TOWNNAME":"東區","LI":"東光里","LIN":"16鄰","STREET":"莊敬路","SECT":" ","MAREA":" ","LANE":"５８巷","ALLEY":" ","HOUSE_NO":"１３號","E_COORD97":171394.98999999999,"N_COORD97":2543821.6899999999,"ADDRESS":"莊敬路５８巷１３號","OBJECTID":235843},"geometry":{"x":171394.99000000022,"y":2543821.6899999995}},{"attributes":{"ID":235848,"DIS_CODE":0,"TOWNNAME":"東區","LI":"東光里","LIN":"16鄰","STREET":"莊敬路","SECT":" ","MAREA":" ","LANE":"５８巷","ALLEY":" ","HOUSE_NO":"１５號","E_COORD97":171399.31,"N_COORD97":2543824.1899999999,"ADDRESS":"莊敬路５８巷１５號","OBJECTID":235844},"geometry":{"x":171399.30999999866,"y":2543824.1899999995}},{"attributes":{"ID":235849,"DIS_CODE":0,"TOWNNAME":"東區","LI":"東光里","LIN":"16鄰","STREET":"莊敬路","SECT":" ","MAREA":" ","LANE":"５８巷","ALLEY":" ","HOUSE_NO":"１７號","E_COORD97":171403.32000000001,"N_COORD97":2543820.6800000002,"ADDRESS":"莊敬路５８巷１７號","OBJECTID":235845},"geometry":{"x":171403.3200000003,"y":2543820.6800000016}},{"attributes":{"ID":235850,"DIS_CODE":0,"TOWNNAME":"東區","LI":"東光里","LIN":"16鄰","STREET":"莊敬路","SECT":" ","MAREA":" ","LANE":"５８巷","ALLEY":" ","HOUSE_NO":"１９號","E_COORD97":171408.23999999999,"N_COORD97":2543823.3900000001,"ADDRESS":"莊敬路５８巷１９號","OBJECTID":235846},"geometry":{"x":171408.24000000022,"y":2543823.3900000025}},{"attributes":{"ID":235851,"DIS_CODE":0,"TOWNNAME":"東區","LI":"復興里","LIN":"13鄰","STREET":"自由路","SECT":"三段","MAREA":" ","LANE":" ","ALLEY":" ","HOUSE_NO":"２４１號十樓","E_COORD97":171746.82999999999,"N_COORD97":2542603.2599999998,"ADDRESS":"自由路三段２４１號十樓","OBJECTID":235847},"geometry":{"x":171746.83000000007,"y":2542603.2600000016}},{"attributes":{"ID":235852,"DIS_CODE":0,"TOWNNAME":"東區","LI":"復興里","LIN":"13鄰","STREET":"自由路","SECT":"三段","MAREA":" ","LANE":" ","ALLEY":" ","HOUSE_NO":"２４１號十樓之１","E_COORD97":171746.82999999999,"N_COORD97":2542603.2599999998,"ADDRESS":"自由路三段２４１號十樓之１","OBJECTID":235848},"geometry":{"x":171746.83000000007,"y":2542603.2600000016}},{"attributes":{"ID":235853,"DIS_CODE":0,"TOWNNAME":"東區","LI":"復興里","LIN":"13鄰","STREET":"自由路","SECT":"三段","MAREA":" ","LANE":" ","ALLEY":" ","HOUSE_NO":"２４１號十樓之２","E_COORD97":171746.82999999999,"N_COORD97":2542603.2599999998,"ADDRESS":"自由路三段２４１號十樓之２","OBJECTID":235849},"geometry":{"x":171746.83000000007,"y":2542603.2600000016}},{"attributes":{"ID":235854,"DIS_CODE":0,"TOWNNAME":"東區","LI":"復興里","LIN":"13鄰","STREET":"自由路","SECT":"三段","MAREA":" ","LANE":" ","ALLEY":" ","HOUSE_NO":"２４１號三樓","E_COORD97":171746.82999999999,"N_COORD97":2542603.2599999998,"ADDRESS":"自由路三段２４１號三樓","OBJECTID":235850},"geometry":{"x":171746.83000000007,"y":2542603.2600000016}},{"attributes":{"ID":235855,"DIS_CODE":0,"TOWNNAME":"東區","LI":"復興里","LIN":"13鄰","STREET":"自由路","SECT":"三段","MAREA":" ","LANE":" ","ALLEY":" ","HOUSE_NO":"２４１號三樓之１","E_COORD97":171746.82999999999,"N_COORD97":2542603.2599999998,"ADDRESS":"自由路三段２４１號三樓之１","OBJECTID":235851},"geometry":{"x":171746.83000000007,"y":2542603.2600000016}},{"attributes":{"ID":235856,"DIS_CODE":0,"TOWNNAME":"東區","LI":"復興里","LIN":"13鄰","STREET":"自由路","SECT":"三段","MAREA":" ","LANE":" ","ALLEY":" ","HOUSE_NO":"２４１號三樓之２","E_COORD97":171746.82999999999,"N_COORD97":2542603.2599999998,"ADDRESS":"自由路三段２４１號三樓之２","OBJECTID":235852},"geometry":{"x":171746.83000000007,"y":2542603.2600000016}},{"attributes":{"ID":235857,"DIS_CODE":0,"TOWNNAME":"東區","LI":"復興里","LIN":"13鄰","STREET":"自由路","SECT":"三段","MAREA":" ","LANE":" ","ALLEY":" ","HOUSE_NO":"２４１號五樓","E_COORD97":171746.82999999999,"N_COORD97":2542603.2599999998,"ADDRESS":"自由路三段２４１號五樓","OBJECTID":235853},"geometry":{"x":171746.83000000007,"y":2542603.2600000016}},{"attributes":{"ID":235858,"DIS_CODE":0,"TOWNNAME":"東區","LI":"復興里","LIN":"13鄰","STREET":"自由路","SECT":"三段","MAREA":" ","LANE":" ","ALLEY":" ","HOUSE_NO":"２２９號七樓","E_COORD97":171775.10999999999,"N_COORD97":2542584.1699999999,"ADDRESS":"自由路三段２２９號七樓","OBJECTID":235854},"geometry":{"x":171775.11000000127,"y":2542584.1699999999}},{"attributes":{"ID":235859,"DIS_CODE":0,"TOWNNAME":"東區","LI":"復興里","LIN":"13鄰","STREET":"自由路","SECT":"三段","MAREA":" ","LANE":" ","ALLEY":" ","HOUSE_NO":"２２９號七樓之１","E_COORD97":171775.10999999999,"N_COORD97":2542584.1699999999,"ADDRESS":"自由路三段２２９號七樓之１","OBJECTID":235855},"geometry":{"x":171775.11000000127,"y":2542584.1699999999}},{"attributes":{"ID":235860,"DIS_CODE":0,"TOWNNAME":"新營區","LI":"民榮里","LIN":"1鄰","STREET":"復興路","SECT":" ","MAREA":" ","LANE":"１３５巷","ALLEY":" ","HOUSE_NO":"３號之１","E_COORD97":179337.41946100001,"N_COORD97":2577979.5444100001,"ADDRESS":"復興路１３５巷３號之１","OBJECTID":235856},"geometry":{"x":179337.41946099978,"y":2577979.5444100015}},{"attributes":{"ID":235861,"DIS_CODE":0,"TOWNNAME":"東區","LI":"復興里","LIN":"13鄰","STREET":"自由路","SECT":"三段","MAREA":" ","LANE":" ","ALLEY":" ","HOUSE_NO":"２２９號七樓之２","E_COORD97":171775.10999999999,"N_COORD97":2542584.1699999999,"ADDRESS":"自由路三段２２９號七樓之２","OBJECTID":235857},"geometry":{"x":171775.11000000127,"y":2542584.1699999999}},{"attributes":{"ID":235862,"DIS_CODE":0,"TOWNNAME":"東區","LI":"復興里","LIN":"13鄰","STREET":"自由路","SECT":"三段","MAREA":" ","LANE":" ","ALLEY":" ","HOUSE_NO":"２２９號九樓","E_COORD97":171775.10999999999,"N_COORD97":2542584.1699999999,"ADDRESS":"自由路三段２２９號九樓","OBJECTID":235858},"geometry":{"x":171775.11000000127,"y":2542584.1699999999}},{"attributes":{"ID":235863,"DIS_CODE":0,"TOWNNAME":"東區","LI":"圍下里","LIN":"14鄰","STREET":"前鋒路","SECT":" ","MAREA":" ","LANE":" ","ALLEY":" ","HOUSE_NO":"８７號六樓之３","E_COORD97":169297.45000000001,"N_COORD97":2543610.73,"ADDRESS":"前鋒路８７號六樓之３","OBJECTID":235859},"geometry":{"x":169297.45000000112,"y":2543610.7300000023}},{"attributes":{"ID":235864,"DIS_CODE":0,"TOWNNAME":"東區","LI":"圍下里","LIN":"14鄰","STREET":"前鋒路","SECT":" ","MAREA":" ","LANE":" ","ALLEY":" ","HOUSE_NO":"８７號六樓之４","E_COORD97":169297.45000000001,"N_COORD97":2543610.73,"ADDRESS":"前鋒路８７號六樓之４","OBJECTID":235860},"geometry":{"x":169297.45000000112,"y":2543610.7300000023}},{"attributes":{"ID":235865,"DIS_CODE":0,"TOWNNAME":"東區","LI":"圍下里","LIN":"14鄰","STREET":"前鋒路","SECT":" ","MAREA":" ","LANE":" ","ALLEY":" ","HOUSE_NO":"８７號七樓之１","E_COORD97":169297.45000000001,"N_COORD97":2543610.73,"ADDRESS":"前鋒路８７號七樓之１","OBJECTID":235861},"geometry":{"x":169297.45000000112,"y":2543610.7300000023}},{"attributes":{"ID":235866,"DIS_CODE":0,"TOWNNAME":"東區","LI":"圍下里","LIN":"14鄰","STREET":"前鋒路","SECT":" ","MAREA":" ","LANE":" ","ALLEY":" ","HOUSE_NO":"８７號七樓之２","E_COORD97":169297.45000000001,"N_COORD97":2543610.73,"ADDRESS":"前鋒路８７號七樓之２","OBJECTID":235862},"geometry":{"x":169297.45000000112,"y":2543610.7300000023}},{"attributes":{"ID":235867,"DIS_CODE":0,"TOWNNAME":"東區","LI":"圍下里","LIN":"14鄰","STREET":"前鋒路","SECT":" ","MAREA":" ","LANE":" ","ALLEY":" ","HOUSE_NO":"８７號七樓之３","E_COORD97":169297.45000000001,"N_COORD97":2543610.73,"ADDRESS":"前鋒路８７號七樓之３","OBJECTID":235863},"geometry":{"x":169297.45000000112,"y":2543610.7300000023}},{"attributes":{"ID":235868,"DIS_CODE":0,"TOWNNAME":"東區","LI":"圍下里","LIN":"14鄰","STREET":"前鋒路","SECT":" ","MAREA":" ","LANE":" ","ALLEY":" ","HOUSE_NO":"８７號七樓之４","E_COORD97":169297.45000000001,"N_COORD97":2543610.73,"ADDRESS":"前鋒路８７號七樓之４","OBJECTID":235864},"geometry":{"x":169297.45000000112,"y":2543610.7300000023}},{"attributes":{"ID":235869,"DIS_CODE":0,"TOWNNAME":"東區","LI":"圍下里","LIN":"14鄰","STREET":"前鋒路","SECT":" ","MAREA":" ","LANE":" ","ALLEY":" ","HOUSE_NO":"８９號二樓之１","E_COORD97":169299.07000000001,"N_COORD97":2543628.4900000002,"ADDRESS":"前鋒路８９號二樓之１","OBJECTID":235865},"geometry":{"x":169299.0700000003,"y":2543628.4900000021}},{"attributes":{"ID":235870,"DIS_CODE":0,"TOWNNAME":"東區","LI":"圍下里","LIN":"14鄰","STREET":"前鋒路","SECT":" ","MAREA":" ","LANE":" ","ALLEY":" ","HOUSE_NO":"８９號二樓之２","E_COORD97":169299.07000000001,"N_COORD97":2543628.4900000002,"ADDRESS":"前鋒路８９號二樓之２","OBJECTID":235866},"geometry":{"x":169299.0700000003,"y":2543628.4900000021}},{"attributes":{"ID":235871,"DIS_CODE":0,"TOWNNAME":"東區","LI":"圍下里","LIN":"14鄰","STREET":"前鋒路","SECT":" ","MAREA":" ","LANE":" ","ALLEY":" ","HOUSE_NO":"８９號二樓之３","E_COORD97":169299.07000000001,"N_COORD97":2543628.4900000002,"ADDRESS":"前鋒路８９號二樓之３","OBJECTID":235867},"geometry":{"x":169299.0700000003,"y":2543628.4900000021}},{"attributes":{"ID":235872,"DIS_CODE":0,"TOWNNAME":"東區","LI":"圍下里","LIN":"14鄰","STREET":"前鋒路","SECT":" ","MAREA":" ","LANE":" ","ALLEY":" ","HOUSE_NO":"８９號二樓之４","E_COORD97":169299.07000000001,"N_COORD97":2543628.4900000002,"ADDRESS":"前鋒路８９號二樓之４","OBJECTID":235868},"geometry":{"x":169299.0700000003,"y":2543628.4900000021}},{"attributes":{"ID":235873,"DIS_CODE":0,"TOWNNAME":"東區","LI":"復興里","LIN":"13鄰","STREET":"自由路","SECT":"三段","MAREA":" ","LANE":" ","ALLEY":" ","HOUSE_NO":"２２９號九樓之１","E_COORD97":171775.10999999999,"N_COORD97":2542584.1699999999,"ADDRESS":"自由路三段２２９號九樓之１","OBJECTID":235869},"geometry":{"x":171775.11000000127,"y":2542584.1699999999}},{"attributes":{"ID":235874,"DIS_CODE":0,"TOWNNAME":"東區","LI":"復興里","LIN":"13鄰","STREET":"自由路","SECT":"三段","MAREA":" ","LANE":" ","ALLEY":" ","HOUSE_NO":"２２９號二樓","E_COORD97":171775.10999999999,"N_COORD97":2542584.1699999999,"ADDRESS":"自由路三段２２９號二樓","OBJECTID":235870},"geometry":{"x":171775.11000000127,"y":2542584.1699999999}},{"attributes":{"ID":235875,"DIS_CODE":0,"TOWNNAME":"東區","LI":"復興里","LIN":"13鄰","STREET":"自由路","SECT":"三段","MAREA":" ","LANE":" ","ALLEY":" ","HOUSE_NO":"２２９號二樓之１","E_COORD97":171775.10999999999,"N_COORD97":2542584.1699999999,"ADDRESS":"自由路三段２２９號二樓之１","OBJECTID":235871},"geometry":{"x":171775.11000000127,"y":2542584.1699999999}},{"attributes":{"ID":235876,"DIS_CODE":0,"TOWNNAME":"東區","LI":"復興里","LIN":"13鄰","STREET":"自由路","SECT":"三段","MAREA":" ","LANE":" ","ALLEY":" ","HOUSE_NO":"２２９號二樓之２","E_COORD97":171775.10999999999,"N_COORD97":2542584.1699999999,"ADDRESS":"自由路三段２２９號二樓之２","OBJECTID":235872},"geometry":{"x":171775.11000000127,"y":2542584.1699999999}},{"attributes":{"ID":235877,"DIS_CODE":0,"TOWNNAME":"東區","LI":"復興里","LIN":"13鄰","STREET":"自由路","SECT":"三段","MAREA":" ","LANE":" ","ALLEY":" ","HOUSE_NO":"２２９號八樓","E_COORD97":171775.10999999999,"N_COORD97":2542584.1699999999,"ADDRESS":"自由路三段２２９號八樓","OBJECTID":235873},"geometry":{"x":171775.11000000127,"y":2542584.1699999999}},{"attributes":{"ID":235878,"DIS_CODE":0,"TOWNNAME":"東區","LI":"復興里","LIN":"13鄰","STREET":"自由路","SECT":"三段","MAREA":" ","LANE":" ","ALLEY":" ","HOUSE_NO":"２２９號八樓之１","E_COORD97":171775.10999999999,"N_COORD97":2542584.1699999999,"ADDRESS":"自由路三段２２９號八樓之１","OBJECTID":235874},"geometry":{"x":171775.11000000127,"y":2542584.1699999999}},{"attributes":{"ID":235879,"DIS_CODE":0,"TOWNNAME":"東區","LI":"復興里","LIN":"13鄰","STREET":"自由路","SECT":"三段","MAREA":" ","LANE":" ","ALLEY":" ","HOUSE_NO":"２２９號十樓","E_COORD97":171775.10999999999,"N_COORD97":2542584.1699999999,"ADDRESS":"自由路三段２２９號十樓","OBJECTID":235875},"geometry":{"x":171775.11000000127,"y":2542584.1699999999}},{"attributes":{"ID":235880,"DIS_CODE":0,"TOWNNAME":"西港區","LI":"後營里","LIN":"16鄰","STREET":" ","SECT":" ","MAREA":"後營","LANE":" ","ALLEY":" ","HOUSE_NO":"２９９號之１","E_COORD97":170017.5,"N_COORD97":2559960.6899999999,"ADDRESS":"後營２９９號之１","OBJECTID":235876},"geometry":{"x":170017.50000000093,"y":2559960.6900000032}},{"attributes":{"ID":235881,"DIS_CODE":0,"TOWNNAME":"西港區","LI":"後營里","LIN":"16鄰","STREET":" ","SECT":" ","MAREA":"後營","LANE":" ","ALLEY":" ","HOUSE_NO":"２９９之３號","E_COORD97":170010.73999999999,"N_COORD97":2559960.8700000001,"ADDRESS":"後營２９９之３號","OBJECTID":235877},"geometry":{"x":170010.74000000115,"y":2559960.8699999992}},{"attributes":{"ID":235882,"DIS_CODE":0,"TOWNNAME":"西港區","LI":"後營里","LIN":"16鄰","STREET":" ","SECT":" ","MAREA":"後營","LANE":" ","ALLEY":" ","HOUSE_NO":"２９９號之６","E_COORD97":170040.14999999999,"N_COORD97":2559958.8100000001,"ADDRESS":"後營２９９號之６","OBJECTID":235878},"geometry":{"x":170040.15000000224,"y":2559958.8100000024}},{"attributes":{"ID":235883,"DIS_CODE":0,"TOWNNAME":"西港區","LI":"後營里","LIN":"16鄰","STREET":" ","SECT":" ","MAREA":"後營","LANE":" ","ALLEY":" ","HOUSE_NO":"２９９號","E_COORD97":170012.5,"N_COORD97":2559985.3399999999,"ADDRESS":"後營２９９號","OBJECTID":235879},"geometry":{"x":170012.50000000093,"y":2559985.3400000017}},{"attributes":{"ID":235884,"DIS_CODE":0,"TOWNNAME":"西港區","LI":"營西里","LIN":"16鄰","STREET":" ","SECT":" ","MAREA":"後營","LANE":" ","ALLEY":" ","HOUSE_NO":"１２０號之１","E_COORD97":169822.70000000001,"N_COORD97":2560436.3500000001,"ADDRESS":"後營１２０號之１","OBJECTID":235880},"geometry":{"x":169822.70000000205,"y":2560436.3499999996}},{"attributes":{"ID":235885,"DIS_CODE":0,"TOWNNAME":"西港區","LI":"營西里","LIN":"16鄰","STREET":" ","SECT":" ","MAREA":"後營","LANE":" ","ALLEY":" ","HOUSE_NO":"１２０號","E_COORD97":169818.5,"N_COORD97":2560435.4300000002,"ADDRESS":"後營１２０號","OBJECTID":235881},"geometry":{"x":169818.5,"y":2560435.4300000016}},{"attributes":{"ID":235886,"DIS_CODE":0,"TOWNNAME":"西港區","LI":"營西里","LIN":"16鄰","STREET":" ","SECT":" ","MAREA":"後營","LANE":" ","ALLEY":" ","HOUSE_NO":"１２１號之１","E_COORD97":169844.29999999999,"N_COORD97":2560413.04,"ADDRESS":"後營１２１號之１","OBJECTID":235882},"geometry":{"x":169844.30000000075,"y":2560413.040000001}},{"attributes":{"ID":235887,"DIS_CODE":0,"TOWNNAME":"西港區","LI":"營西里","LIN":"16鄰","STREET":" ","SECT":" ","MAREA":"後營","LANE":" ","ALLEY":" ","HOUSE_NO":"１２１號","E_COORD97":169842.47,"N_COORD97":2560429.21,"ADDRESS":"後營１２１號","OBJECTID":235883},"geometry":{"x":169842.47000000067,"y":2560429.2100000009}},{"attributes":{"ID":235888,"DIS_CODE":0,"TOWNNAME":"西港區","LI":"營西里","LIN":"16鄰","STREET":" ","SECT":" ","MAREA":"後營","LANE":" ","ALLEY":" ","HOUSE_NO":"１２２號之３","E_COORD97":169841.16,"N_COORD97":2560436.0800000001,"ADDRESS":"後營１２２號之３","OBJECTID":235884},"geometry":{"x":169841.16000000015,"y":2560436.0800000001}},{"attributes":{"ID":235889,"DIS_CODE":0,"TOWNNAME":"新市區","LI":"新市里","LIN":"16鄰","STREET":"和平街","SECT":" ","MAREA":" ","LANE":"４５巷","ALLEY":" ","HOUSE_NO":"１２號","E_COORD97":177694.32000000001,"N_COORD97":2553387.75,"ADDRESS":"和平街４５巷１２號","OBJECTID":235885},"geometry":{"x":177694.32000000216,"y":2553387.7500000019}},{"attributes":{"ID":235890,"DIS_CODE":0,"TOWNNAME":"西港區","LI":"後營里","LIN":"16鄰","STREET":" ","SECT":" ","MAREA":"後營","LANE":" ","ALLEY":" ","HOUSE_NO":"３００號之９","E_COORD97":170026.07999999999,"N_COORD97":2560033.98,"ADDRESS":"後營３００號之９","OBJECTID":235886},"geometry":{"x":170026.08000000007,"y":2560033.9799999986}},{"attributes":{"ID":235891,"DIS_CODE":0,"TOWNNAME":"西港區","LI":"後營里","LIN":"16鄰","STREET":" ","SECT":" ","MAREA":"後營","LANE":" ","ALLEY":" ","HOUSE_NO":"３００號","E_COORD97":170017.26000000001,"N_COORD97":2560006.04,"ADDRESS":"後營３００號","OBJECTID":235887},"geometry":{"x":170017.26000000071,"y":2560006.040000001}},{"attributes":{"ID":235892,"DIS_CODE":0,"TOWNNAME":"新市區","LI":"新市里","LIN":"16鄰","STREET":"和平街","SECT":" ","MAREA":" ","LANE":"４５巷","ALLEY":" ","HOUSE_NO":"８號","E_COORD97":177690.85000000001,"N_COORD97":2553395.7400000002,"ADDRESS":"和平街４５巷８號","OBJECTID":235888},"geometry":{"x":177690.85000000056,"y":2553395.7400000002}},{"attributes":{"ID":235893,"DIS_CODE":0,"TOWNNAME":"新市區","LI":"新市里","LIN":"16鄰","STREET":"和平街","SECT":" ","MAREA":" ","LANE":"４５巷","ALLEY":" ","HOUSE_NO":"１０號","E_COORD97":177692.60000000001,"N_COORD97":2553391.75,"ADDRESS":"和平街４５巷１０號","OBJECTID":235889},"geometry":{"x":177692.59999999963,"y":2553391.7500000019}},{"attributes":{"ID":235894,"DIS_CODE":0,"TOWNNAME":"西港區","LI":"後營里","LIN":"16鄰","STREET":" ","SECT":" ","MAREA":"後營","LANE":" ","ALLEY":" ","HOUSE_NO":"３０２號之１","E_COORD97":170006.66,"N_COORD97":2560058.6099999999,"ADDRESS":"後營３０２號之１","OBJECTID":235890},"geometry":{"x":170006.66000000108,"y":2560058.6099999994}},{"attributes":{"ID":235895,"DIS_CODE":0,"TOWNNAME":"新市區","LI":"新市里","LIN":"16鄰","STREET":"中正路","SECT":" ","MAREA":" ","LANE":"３２３巷","ALLEY":" ","HOUSE_NO":"２８號","E_COORD97":177668.12,"N_COORD97":2553351.75,"ADDRESS":"中正路３２３巷２８號","OBJECTID":235891},"geometry":{"x":177668.12000000011,"y":2553351.75}},{"attributes":{"ID":235896,"DIS_CODE":0,"TOWNNAME":"新市區","LI":"新市里","LIN":"16鄰","STREET":"中正路","SECT":" ","MAREA":" ","LANE":"３２３巷","ALLEY":" ","HOUSE_NO":"５２號","E_COORD97":177636.82000000001,"N_COORD97":2553396.25,"ADDRESS":"中正路３２３巷５２號","OBJECTID":235892},"geometry":{"x":177636.82000000216,"y":2553396.25}},{"attributes":{"ID":235897,"DIS_CODE":0,"TOWNNAME":"東區","LI":"圍下里","LIN":"14鄰","STREET":"前鋒路","SECT":" ","MAREA":" ","LANE":" ","ALLEY":" ","HOUSE_NO":"８９號三樓之１","E_COORD97":169299.07000000001,"N_COORD97":2543628.4900000002,"ADDRESS":"前鋒路８９號三樓之１","OBJECTID":235893},"geometry":{"x":169299.0700000003,"y":2543628.4900000021}},{"attributes":{"ID":235898,"DIS_CODE":0,"TOWNNAME":"東區","LI":"圍下里","LIN":"14鄰","STREET":"前鋒路","SECT":" ","MAREA":" ","LANE":" ","ALLEY":" ","HOUSE_NO":"８９號三樓之２","E_COORD97":169299.07000000001,"N_COORD97":2543628.4900000002,"ADDRESS":"前鋒路８９號三樓之２","OBJECTID":235894},"geometry":{"x":169299.0700000003,"y":2543628.4900000021}},{"attributes":{"ID":235899,"DIS_CODE":0,"TOWNNAME":"東區","LI":"圍下里","LIN":"14鄰","STREET":"前鋒路","SECT":" ","MAREA":" ","LANE":" ","ALLEY":" ","HOUSE_NO":"８９號三樓之３","E_COORD97":169299.07000000001,"N_COORD97":2543628.4900000002,"ADDRESS":"前鋒路８９號三樓之３","OBJECTID":235895},"geometry":{"x":169299.0700000003,"y":2543628.4900000021}},{"attributes":{"ID":235900,"DIS_CODE":0,"TOWNNAME":"東區","LI":"圍下里","LIN":"14鄰","STREET":"前鋒路","SECT":" ","MAREA":" ","LANE":" ","ALLEY":" ","HOUSE_NO":"８９號三樓之４","E_COORD97":169299.07000000001,"N_COORD97":2543628.4900000002,"ADDRESS":"前鋒路８９號三樓之４","OBJECTID":235896},"geometry":{"x":169299.0700000003,"y":2543628.4900000021}},{"attributes":{"ID":235901,"DIS_CODE":0,"TOWNNAME":"東區","LI":"圍下里","LIN":"14鄰","STREET":"前鋒路","SECT":" ","MAREA":" ","LANE":" ","ALLEY":" ","HOUSE_NO":"８９號四樓之１","E_COORD97":169299.07000000001,"N_COORD97":2543628.4900000002,"ADDRESS":"前鋒路８９號四樓之１","OBJECTID":235897},"geometry":{"x":169299.0700000003,"y":2543628.4900000021}},{"attributes":{"ID":235902,"DIS_CODE":0,"TOWNNAME":"新市區","LI":"新市里","LIN":"16鄰","STREET":"中正路","SECT":" ","MAREA":" ","LANE":"３２３巷","ALLEY":" ","HOUSE_NO":"４０號","E_COORD97":177651.26999999999,"N_COORD97":2553374,"ADDRESS":"中正路３２３巷４０號","OBJECTID":235898},"geometry":{"x":177651.26999999955,"y":2553374}},{"attributes":{"ID":235903,"DIS_CODE":0,"TOWNNAME":"新市區","LI":"社內里","LIN":"16鄰","STREET":" ","SECT":" ","MAREA":"社內","LANE":" ","ALLEY":" ","HOUSE_NO":"１７３號","E_COORD97":176160.34,"N_COORD97":2552900,"ADDRESS":"社內１７３號","OBJECTID":235899},"geometry":{"x":176160.34000000078,"y":2552899.9999999981}},{"attributes":{"ID":235904,"DIS_CODE":0,"TOWNNAME":"新市區","LI":"新市里","LIN":"16鄰","STREET":"中正路","SECT":" ","MAREA":" ","LANE":"３２３巷","ALLEY":" ","HOUSE_NO":"５０號","E_COORD97":177639.51999999999,"N_COORD97":2553392,"ADDRESS":"中正路３２３巷５０號","OBJECTID":235900},"geometry":{"x":177639.51999999862,"y":2553392.0000000037}},{"attributes":{"ID":235905,"DIS_CODE":0,"TOWNNAME":"新市區","LI":"社內里","LIN":"16鄰","STREET":" ","SECT":" ","MAREA":"社內","LANE":" ","ALLEY":" ","HOUSE_NO":"１６６之２號","E_COORD97":176219.79000000001,"N_COORD97":2552916.0499999998,"ADDRESS":"社內１６６之２號","OBJECTID":235901},"geometry":{"x":176219.79000000097,"y":2552916.0500000007}},{"attributes":{"ID":235906,"DIS_CODE":0,"TOWNNAME":"新市區","LI":"社內里","LIN":"16鄰","STREET":" ","SECT":" ","MAREA":"社內","LANE":" ","ALLEY":" ","HOUSE_NO":"１７２之１號","E_COORD97":176183.32999999999,"N_COORD97":2552900.2999999998,"ADDRESS":"社內１７２之１號","OBJECTID":235902},"geometry":{"x":176183.33000000007,"y":2552900.3000000026}},{"attributes":{"ID":235907,"DIS_CODE":0,"TOWNNAME":"新市區","LI":"社內里","LIN":"16鄰","STREET":" ","SECT":" ","MAREA":"社內","LANE":" ","ALLEY":" ","HOUSE_NO":"１６７之２號","E_COORD97":176209.39999999999,"N_COORD97":2552965.2999999998,"ADDRESS":"社內１６７之２號","OBJECTID":235903},"geometry":{"x":176209.4000000013,"y":2552965.3000000007}},{"attributes":{"ID":235908,"DIS_CODE":0,"TOWNNAME":"新市區","LI":"社內里","LIN":"16鄰","STREET":" ","SECT":" ","MAREA":"社內","LANE":" ","ALLEY":" ","HOUSE_NO":"１６６之３號","E_COORD97":176214.34,"N_COORD97":2552914.2999999998,"ADDRESS":"社內１６６之３號","OBJECTID":235904},"geometry":{"x":176214.34000000078,"y":2552914.3000000007}},{"attributes":{"ID":235909,"DIS_CODE":0,"TOWNNAME":"新市區","LI":"新市里","LIN":"16鄰","STREET":"中正路","SECT":" ","MAREA":" ","LANE":"３２３巷","ALLEY":" ","HOUSE_NO":"２６號","E_COORD97":177670.51999999999,"N_COORD97":2553348,"ADDRESS":"中正路３２３巷２６號","OBJECTID":235905},"geometry":{"x":177670.52000000048,"y":2553348.0000000037}},{"attributes":{"ID":235910,"DIS_CODE":0,"TOWNNAME":"新市區","LI":"新市里","LIN":"16鄰","STREET":"中正路","SECT":" ","MAREA":" ","LANE":"３２３巷","ALLEY":" ","HOUSE_NO":"４２號","E_COORD97":177647.79000000001,"N_COORD97":2553379.75,"ADDRESS":"中正路３２３巷４２號","OBJECTID":235906},"geometry":{"x":177647.79000000004,"y":2553379.7499999981}},{"attributes":{"ID":235911,"DIS_CODE":0,"TOWNNAME":"安南區","LI":"溪墘里","LIN":"16鄰","STREET":"海佃路","SECT":"一段","MAREA":" ","LANE":"３４０巷","ALLEY":" ","HOUSE_NO":"３５號","E_COORD97":167195.89000000001,"N_COORD97":2547551.5699999998,"ADDRESS":"海佃路一段３４０巷３５號","OBJECTID":235907},"geometry":{"x":167195.88999999966,"y":2547551.5700000022}},{"attributes":{"ID":235912,"DIS_CODE":0,"TOWNNAME":"新市區","LI":"社內里","LIN":"16鄰","STREET":" ","SECT":" ","MAREA":"社內","LANE":" ","ALLEY":" ","HOUSE_NO":"１６６之７號","E_COORD97":176197.25,"N_COORD97":2552908.7999999998,"ADDRESS":"社內１６６之７號","OBJECTID":235908},"geometry":{"x":176197.25,"y":2552908.8000000007}},{"attributes":{"ID":235913,"DIS_CODE":0,"TOWNNAME":"安南區","LI":"安和里","LIN":"16鄰","STREET":"安和路","SECT":"一段","MAREA":" ","LANE":"１５０巷","ALLEY":" ","HOUSE_NO":"４號","E_COORD97":169506.64999999999,"N_COORD97":2547702.4300000002,"ADDRESS":"安和路一段１５０巷４號","OBJECTID":235909},"geometry":{"x":169506.6500000013,"y":2547702.4299999997}},{"attributes":{"ID":235914,"DIS_CODE":0,"TOWNNAME":"東區","LI":"虎尾里","LIN":"16鄰","STREET":"東成街","SECT":" ","MAREA":" ","LANE":"４６巷","ALLEY":" ","HOUSE_NO":"２５號","E_COORD97":171363.48999999999,"N_COORD97":2542181.1800000002,"ADDRESS":"東成街４６巷２５號","OBJECTID":235910},"geometry":{"x":171363.49000000115,"y":2542181.1799999997}},{"attributes":{"ID":235915,"DIS_CODE":0,"TOWNNAME":"東區","LI":"圍下里","LIN":"14鄰","STREET":"前鋒路","SECT":" ","MAREA":" ","LANE":" ","ALLEY":" ","HOUSE_NO":"８９號四樓之２","E_COORD97":169299.07000000001,"N_COORD97":2543628.4900000002,"ADDRESS":"前鋒路８９號四樓之２","OBJECTID":235911},"geometry":{"x":169299.0700000003,"y":2543628.4900000021}},{"attributes":{"ID":235916,"DIS_CODE":0,"TOWNNAME":"東區","LI":"圍下里","LIN":"14鄰","STREET":"前鋒路","SECT":" ","MAREA":" ","LANE":" ","ALLEY":" ","HOUSE_NO":"８９號四樓之３","E_COORD97":169299.07000000001,"N_COORD97":2543628.4900000002,"ADDRESS":"前鋒路８９號四樓之３","OBJECTID":235912},"geometry":{"x":169299.0700000003,"y":2543628.4900000021}},{"attributes":{"ID":235917,"DIS_CODE":0,"TOWNNAME":"東區","LI":"圍下里","LIN":"14鄰","STREET":"前鋒路","SECT":" ","MAREA":" ","LANE":" ","ALLEY":" ","HOUSE_NO":"８９號四樓之４","E_COORD97":169299.07000000001,"N_COORD97":2543628.4900000002,"ADDRESS":"前鋒路８９號四樓之４","OBJECTID":235913},"geometry":{"x":169299.0700000003,"y":2543628.4900000021}},{"attributes":{"ID":235918,"DIS_CODE":0,"TOWNNAME":"東區","LI":"圍下里","LIN":"14鄰","STREET":"前鋒路","SECT":" ","MAREA":" ","LANE":" ","ALLEY":" ","HOUSE_NO":"８９號五樓之１","E_COORD97":169299.07000000001,"N_COORD97":2543628.4900000002,"ADDRESS":"前鋒路８９號五樓之１","OBJECTID":235914},"geometry":{"x":169299.0700000003,"y":2543628.4900000021}},{"attributes":{"ID":235919,"DIS_CODE":0,"TOWNNAME":"東區","LI":"圍下里","LIN":"14鄰","STREET":"前鋒路","SECT":" ","MAREA":" ","LANE":" ","ALLEY":" ","HOUSE_NO":"８９號五樓之２","E_COORD97":169299.07000000001,"N_COORD97":2543628.4900000002,"ADDRESS":"前鋒路８９號五樓之２","OBJECTID":235915},"geometry":{"x":169299.0700000003,"y":2543628.4900000021}},{"attributes":{"ID":235920,"DIS_CODE":0,"TOWNNAME":"東區","LI":"圍下里","LIN":"14鄰","STREET":"前鋒路","SECT":" ","MAREA":" ","LANE":" ","ALLEY":" ","HOUSE_NO":"８９號七樓之２","E_COORD97":169299.07000000001,"N_COORD97":2543628.4900000002,"ADDRESS":"前鋒路８９號七樓之２","OBJECTID":235916},"geometry":{"x":169299.0700000003,"y":2543628.4900000021}},{"attributes":{"ID":235921,"DIS_CODE":0,"TOWNNAME":"東區","LI":"圍下里","LIN":"14鄰","STREET":"前鋒路","SECT":" ","MAREA":" ","LANE":" ","ALLEY":" ","HOUSE_NO":"８９號七樓之３","E_COORD97":169299.07000000001,"N_COORD97":2543628.4900000002,"ADDRESS":"前鋒路８９號七樓之３","OBJECTID":235917},"geometry":{"x":169299.0700000003,"y":2543628.4900000021}},{"attributes":{"ID":235922,"DIS_CODE":0,"TOWNNAME":"南區","LI":"郡南里","LIN":"16鄰","STREET":"德興路","SECT":" ","MAREA":" ","LANE":"１２３巷","ALLEY":" ","HOUSE_NO":"３３號","E_COORD97":167357.95000000001,"N_COORD97":2540489.7400000002,"ADDRESS":"德興路１２３巷３３號","OBJECTID":235918},"geometry":{"x":167357.95000000112,"y":2540489.7400000002}},{"attributes":{"ID":235923,"DIS_CODE":0,"TOWNNAME":"南區","LI":"郡南里","LIN":"16鄰","STREET":"德興路","SECT":" ","MAREA":" ","LANE":"１２３巷","ALLEY":" ","HOUSE_NO":"３４號","E_COORD97":167360.39000000001,"N_COORD97":2540490.0099999998,"ADDRESS":"德興路１２３巷３４號","OBJECTID":235919},"geometry":{"x":167360.38999999966,"y":2540490.0099999998}},{"attributes":{"ID":235924,"DIS_CODE":0,"TOWNNAME":"南區","LI":"郡南里","LIN":"16鄰","STREET":"德興路","SECT":" ","MAREA":" ","LANE":"１３９巷","ALLEY":" ","HOUSE_NO":"５３號","E_COORD97":167458.91,"N_COORD97":2540477.04,"ADDRESS":"德興路１３９巷５３號","OBJECTID":235920},"geometry":{"x":167458.91000000015,"y":2540477.040000001}},{"attributes":{"ID":235925,"DIS_CODE":0,"TOWNNAME":"東區","LI":"復興里","LIN":"13鄰","STREET":"自由路","SECT":"三段","MAREA":" ","LANE":" ","ALLEY":" ","HOUSE_NO":"２２９號十樓之１","E_COORD97":171775.10999999999,"N_COORD97":2542584.1699999999,"ADDRESS":"自由路三段２２９號十樓之１","OBJECTID":235921},"geometry":{"x":171775.11000000127,"y":2542584.1699999999}},{"attributes":{"ID":235926,"DIS_CODE":0,"TOWNNAME":"東區","LI":"復興里","LIN":"13鄰","STREET":"自由路","SECT":"三段","MAREA":" ","LANE":" ","ALLEY":" ","HOUSE_NO":"２２９號十樓之２","E_COORD97":171775.10999999999,"N_COORD97":2542584.1699999999,"ADDRESS":"自由路三段２２９號十樓之２","OBJECTID":235922},"geometry":{"x":171775.11000000127,"y":2542584.1699999999}},{"attributes":{"ID":235927,"DIS_CODE":0,"TOWNNAME":"東區","LI":"復興里","LIN":"13鄰","STREET":"自由路","SECT":"三段","MAREA":" ","LANE":" ","ALLEY":" ","HOUSE_NO":"２２９號三樓","E_COORD97":171775.10999999999,"N_COORD97":2542584.1699999999,"ADDRESS":"自由路三段２２９號三樓","OBJECTID":235923},"geometry":{"x":171775.11000000127,"y":2542584.1699999999}},{"attributes":{"ID":235928,"DIS_CODE":0,"TOWNNAME":"東區","LI":"復興里","LIN":"13鄰","STREET":"自由路","SECT":"三段","MAREA":" ","LANE":" ","ALLEY":" ","HOUSE_NO":"２２９號三樓之１","E_COORD97":171775.10999999999,"N_COORD97":2542584.1699999999,"ADDRESS":"自由路三段２２９號三樓之１","OBJECTID":235924},"geometry":{"x":171775.11000000127,"y":2542584.1699999999}},{"attributes":{"ID":235929,"DIS_CODE":0,"TOWNNAME":"東區","LI":"復興里","LIN":"13鄰","STREET":"自由路","SECT":"三段","MAREA":" ","LANE":" ","ALLEY":" ","HOUSE_NO":"２２９號三樓之２","E_COORD97":171775.10999999999,"N_COORD97":2542584.1699999999,"ADDRESS":"自由路三段２２９號三樓之２","OBJECTID":235925},"geometry":{"x":171775.11000000127,"y":2542584.1699999999}},{"attributes":{"ID":235930,"DIS_CODE":0,"TOWNNAME":"東區","LI":"復興里","LIN":"13鄰","STREET":"自由路","SECT":"三段","MAREA":" ","LANE":" ","ALLEY":" ","HOUSE_NO":"２２９號三樓之３","E_COORD97":171775.10999999999,"N_COORD97":2542584.1699999999,"ADDRESS":"自由路三段２２９號三樓之３","OBJECTID":235926},"geometry":{"x":171775.11000000127,"y":2542584.1699999999}},{"attributes":{"ID":235931,"DIS_CODE":0,"TOWNNAME":"東區","LI":"復興里","LIN":"13鄰","STREET":"自由路","SECT":"三段","MAREA":" ","LANE":" ","ALLEY":" ","HOUSE_NO":"２２９號五樓","E_COORD97":171775.10999999999,"N_COORD97":2542584.1699999999,"ADDRESS":"自由路三段２２９號五樓","OBJECTID":235927},"geometry":{"x":171775.11000000127,"y":2542584.1699999999}},{"attributes":{"ID":235932,"DIS_CODE":0,"TOWNNAME":"東區","LI":"復興里","LIN":"13鄰","STREET":"自由路","SECT":"三段","MAREA":" ","LANE":" ","ALLEY":" ","HOUSE_NO":"２２９號五樓之１","E_COORD97":171775.10999999999,"N_COORD97":2542584.1699999999,"ADDRESS":"自由路三段２２９號五樓之１","OBJECTID":235928},"geometry":{"x":171775.11000000127,"y":2542584.1699999999}},{"attributes":{"ID":235933,"DIS_CODE":0,"TOWNNAME":"東區","LI":"復興里","LIN":"13鄰","STREET":"自由路","SECT":"三段","MAREA":" ","LANE":" ","ALLEY":" ","HOUSE_NO":"２２９號五樓之２","E_COORD97":171775.10999999999,"N_COORD97":2542584.1699999999,"ADDRESS":"自由路三段２２９號五樓之２","OBJECTID":235929},"geometry":{"x":171775.11000000127,"y":2542584.1699999999}},{"attributes":{"ID":235934,"DIS_CODE":0,"TOWNNAME":"東區","LI":"復興里","LIN":"13鄰","STREET":"自由路","SECT":"三段","MAREA":" ","LANE":" ","ALLEY":" ","HOUSE_NO":"２２９號五樓之３","E_COORD97":171775.10999999999,"N_COORD97":2542584.1699999999,"ADDRESS":"自由路三段２２９號五樓之３","OBJECTID":235930},"geometry":{"x":171775.11000000127,"y":2542584.1699999999}},{"attributes":{"ID":235935,"DIS_CODE":0,"TOWNNAME":"東區","LI":"復興里","LIN":"13鄰","STREET":"自由路","SECT":"三段","MAREA":" ","LANE":" ","ALLEY":" ","HOUSE_NO":"２２９號六樓","E_COORD97":171775.10999999999,"N_COORD97":2542584.1699999999,"ADDRESS":"自由路三段２２９號六樓","OBJECTID":235931},"geometry":{"x":171775.11000000127,"y":2542584.1699999999}},{"attributes":{"ID":235936,"DIS_CODE":0,"TOWNNAME":"東區","LI":"復興里","LIN":"13鄰","STREET":"自由路","SECT":"三段","MAREA":" ","LANE":" ","ALLEY":" ","HOUSE_NO":"２２９號六樓之１","E_COORD97":171775.10999999999,"N_COORD97":2542584.1699999999,"ADDRESS":"自由路三段２２９號六樓之１","OBJECTID":235932},"geometry":{"x":171775.11000000127,"y":2542584.1699999999}},{"attributes":{"ID":235937,"DIS_CODE":0,"TOWNNAME":"東區","LI":"復興里","LIN":"13鄰","STREET":"自由路","SECT":"三段","MAREA":" ","LANE":" ","ALLEY":" ","HOUSE_NO":"２２９號六樓之２","E_COORD97":171775.10999999999,"N_COORD97":2542584.1699999999,"ADDRESS":"自由路三段２２９號六樓之２","OBJECTID":235933},"geometry":{"x":171775.11000000127,"y":2542584.1699999999}},{"attributes":{"ID":235938,"DIS_CODE":0,"TOWNNAME":"東區","LI":"復興里","LIN":"13鄰","STREET":"自由路","SECT":"三段","MAREA":" ","LANE":" ","ALLEY":" ","HOUSE_NO":"２２９號六樓之３","E_COORD97":171775.10999999999,"N_COORD97":2542584.1699999999,"ADDRESS":"自由路三段２２９號六樓之３","OBJECTID":235934},"geometry":{"x":171775.11000000127,"y":2542584.1699999999}},{"attributes":{"ID":235939,"DIS_CODE":0,"TOWNNAME":"東區","LI":"復興里","LIN":"13鄰","STREET":"自由路","SECT":"三段","MAREA":" ","LANE":" ","ALLEY":" ","HOUSE_NO":"２２９號四樓","E_COORD97":171775.10999999999,"N_COORD97":2542584.1699999999,"ADDRESS":"自由路三段２２９號四樓","OBJECTID":235935},"geometry":{"x":171775.11000000127,"y":2542584.1699999999}},{"attributes":{"ID":235940,"DIS_CODE":0,"TOWNNAME":"東區","LI":"復興里","LIN":"13鄰","STREET":"自由路","SECT":"三段","MAREA":" ","LANE":" ","ALLEY":" ","HOUSE_NO":"２２９號四樓之１","E_COORD97":171775.10999999999,"N_COORD97":2542584.1699999999,"ADDRESS":"自由路三段２２９號四樓之１","OBJECTID":235936},"geometry":{"x":171775.11000000127,"y":2542584.1699999999}},{"attributes":{"ID":235941,"DIS_CODE":0,"TOWNNAME":"東區","LI":"復興里","LIN":"13鄰","STREET":"自由路","SECT":"三段","MAREA":" ","LANE":" ","ALLEY":" ","HOUSE_NO":"２２９號四樓之２","E_COORD97":171775.10999999999,"N_COORD97":2542584.1699999999,"ADDRESS":"自由路三段２２９號四樓之２","OBJECTID":235937},"geometry":{"x":171775.11000000127,"y":2542584.1699999999}},{"attributes":{"ID":235942,"DIS_CODE":0,"TOWNNAME":"東區","LI":"復興里","LIN":"13鄰","STREET":"自由路","SECT":"三段","MAREA":" ","LANE":" ","ALLEY":" ","HOUSE_NO":"２２９號四樓之３","E_COORD97":171775.10999999999,"N_COORD97":2542584.1699999999,"ADDRESS":"自由路三段２２９號四樓之３","OBJECTID":235938},"geometry":{"x":171775.11000000127,"y":2542584.1699999999}},{"attributes":{"ID":235943,"DIS_CODE":0,"TOWNNAME":"東區","LI":"復興里","LIN":"13鄰","STREET":"自由路","SECT":"三段","MAREA":" ","LANE":" ","ALLEY":" ","HOUSE_NO":"２３５號七樓","E_COORD97":171752.01000000001,"N_COORD97":2542582.98,"ADDRESS":"自由路三段２３５號七樓","OBJECTID":235939},"geometry":{"x":171752.00999999978,"y":2542582.9800000004}},{"attributes":{"ID":235944,"DIS_CODE":0,"TOWNNAME":"東區","LI":"復興里","LIN":"13鄰","STREET":"自由路","SECT":"三段","MAREA":" ","LANE":" ","ALLEY":" ","HOUSE_NO":"２３５號七樓之１","E_COORD97":171752.01000000001,"N_COORD97":2542582.98,"ADDRESS":"自由路三段２３５號七樓之１","OBJECTID":235940},"geometry":{"x":171752.00999999978,"y":2542582.9800000004}},{"attributes":{"ID":235945,"DIS_CODE":0,"TOWNNAME":"東區","LI":"復興里","LIN":"13鄰","STREET":"自由路","SECT":"三段","MAREA":" ","LANE":" ","ALLEY":" ","HOUSE_NO":"２３５號七樓之２","E_COORD97":171752.01000000001,"N_COORD97":2542582.98,"ADDRESS":"自由路三段２３５號七樓之２","OBJECTID":235941},"geometry":{"x":171752.00999999978,"y":2542582.9800000004}},{"attributes":{"ID":235946,"DIS_CODE":0,"TOWNNAME":"東區","LI":"復興里","LIN":"13鄰","STREET":"自由路","SECT":"三段","MAREA":" ","LANE":" ","ALLEY":" ","HOUSE_NO":"２３５號九樓","E_COORD97":171752.01000000001,"N_COORD97":2542582.98,"ADDRESS":"自由路三段２３５號九樓","OBJECTID":235942},"geometry":{"x":171752.00999999978,"y":2542582.9800000004}},{"attributes":{"ID":235947,"DIS_CODE":0,"TOWNNAME":"東區","LI":"復興里","LIN":"13鄰","STREET":"自由路","SECT":"三段","MAREA":" ","LANE":" ","ALLEY":" ","HOUSE_NO":"２３５號九樓之１","E_COORD97":171752.01000000001,"N_COORD97":2542582.98,"ADDRESS":"自由路三段２３５號九樓之１","OBJECTID":235943},"geometry":{"x":171752.00999999978,"y":2542582.9800000004}},{"attributes":{"ID":235948,"DIS_CODE":0,"TOWNNAME":"東區","LI":"復興里","LIN":"13鄰","STREET":"自由路","SECT":"三段","MAREA":" ","LANE":" ","ALLEY":" ","HOUSE_NO":"２４１號五樓之１","E_COORD97":171746.82999999999,"N_COORD97":2542603.2599999998,"ADDRESS":"自由路三段２４１號五樓之１","OBJECTID":235944},"geometry":{"x":171746.83000000007,"y":2542603.2600000016}},{"attributes":{"ID":235949,"DIS_CODE":0,"TOWNNAME":"東區","LI":"圍下里","LIN":"14鄰","STREET":"前鋒路","SECT":" ","MAREA":" ","LANE":" ","ALLEY":" ","HOUSE_NO":"８９號七樓之４","E_COORD97":169299.07000000001,"N_COORD97":2543628.4900000002,"ADDRESS":"前鋒路８９號七樓之４","OBJECTID":235945},"geometry":{"x":169299.0700000003,"y":2543628.4900000021}},{"attributes":{"ID":235950,"DIS_CODE":0,"TOWNNAME":"中西區","LI":"郡西里","LIN":"14鄰","STREET":"康樂街","SECT":" ","MAREA":" ","LANE":" ","ALLEY":" ","HOUSE_NO":"２８號","E_COORD97":167374.81,"N_COORD97":2543457.75,"ADDRESS":"康樂街２８號","OBJECTID":235946},"geometry":{"x":167374.80999999959,"y":2543457.7500000019}},{"attributes":{"ID":235951,"DIS_CODE":0,"TOWNNAME":"南區","LI":"郡南里","LIN":"16鄰","STREET":"德興路","SECT":" ","MAREA":" ","LANE":"１３９巷","ALLEY":" ","HOUSE_NO":"４９號","E_COORD97":167445.22,"N_COORD97":2540477.3900000001,"ADDRESS":"德興路１３９巷４９號","OBJECTID":235947},"geometry":{"x":167445.21999999881,"y":2540477.3900000025}},{"attributes":{"ID":235952,"DIS_CODE":0,"TOWNNAME":"新營區","LI":"民榮里","LIN":"7鄰","STREET":"復興路","SECT":" ","MAREA":" ","LANE":"１３５巷","ALLEY":" ","HOUSE_NO":"１７號","E_COORD97":179351.29677700001,"N_COORD97":2577871.1711400002,"ADDRESS":"復興路１３５巷１７號","OBJECTID":235948},"geometry":{"x":179351.29677700065,"y":2577871.1711350046}},{"attributes":{"ID":235953,"DIS_CODE":0,"TOWNNAME":"南區","LI":"郡南里","LIN":"16鄰","STREET":"德興路","SECT":" ","MAREA":" ","LANE":"１３９巷","ALLEY":" ","HOUSE_NO":"５５號","E_COORD97":167464.51999999999,"N_COORD97":2540475.8100000001,"ADDRESS":"德興路１３９巷５５號","OBJECTID":235949},"geometry":{"x":167464.51999999955,"y":2540475.8100000005}},{"attributes":{"ID":235954,"DIS_CODE":0,"TOWNNAME":"南區","LI":"國宅里","LIN":"16鄰","STREET":"金華路","SECT":"二段","MAREA":" ","LANE":"３３巷","ALLEY":" ","HOUSE_NO":"８０號","E_COORD97":166815.17000000001,"N_COORD97":2541996.1099999999,"ADDRESS":"金華路二段３３巷８０號","OBJECTID":235950},"geometry":{"x":166815.17000000179,"y":2541996.1100000013}},{"attributes":{"ID":235955,"DIS_CODE":0,"TOWNNAME":"南區","LI":"國宅里","LIN":"16鄰","STREET":"金華路","SECT":"二段","MAREA":" ","LANE":"３３巷","ALLEY":" ","HOUSE_NO":"８２號","E_COORD97":166808.84,"N_COORD97":2541998,"ADDRESS":"金華路二段３３巷８２號","OBJECTID":235951},"geometry":{"x":166808.83999999892,"y":2541998.0000000019}},{"attributes":{"ID":235956,"DIS_CODE":0,"TOWNNAME":"南區","LI":"國宅里","LIN":"16鄰","STREET":"金華路","SECT":"二段","MAREA":" ","LANE":"３３巷","ALLEY":" ","HOUSE_NO":"８４號","E_COORD97":166802.51000000001,"N_COORD97":2541998.4199999999,"ADDRESS":"金華路二段３３巷８４號","OBJECTID":235952},"geometry":{"x":166802.50999999885,"y":2541998.4200000018}},{"attributes":{"ID":235957,"DIS_CODE":0,"TOWNNAME":"南區","LI":"國宅里","LIN":"16鄰","STREET":"金華路","SECT":"二段","MAREA":" ","LANE":"３３巷","ALLEY":" ","HOUSE_NO":"８６號","E_COORD97":166795.76000000001,"N_COORD97":2541998.8500000001,"ADDRESS":"金華路二段３３巷８６號","OBJECTID":235953},"geometry":{"x":166795.76000000164,"y":2541998.8500000015}},{"attributes":{"ID":235958,"DIS_CODE":0,"TOWNNAME":"南區","LI":"國宅里","LIN":"16鄰","STREET":"金華路","SECT":"二段","MAREA":" ","LANE":"３３巷","ALLEY":" ","HOUSE_NO":"８８號","E_COORD97":166790.69,"N_COORD97":2541999.6899999999,"ADDRESS":"金華路二段３３巷８８號","OBJECTID":235954},"geometry":{"x":166790.69000000134,"y":2541999.6900000013}},{"attributes":{"ID":235959,"DIS_CODE":0,"TOWNNAME":"東區","LI":"復興里","LIN":"13鄰","STREET":"自由路","SECT":"三段","MAREA":" ","LANE":" ","ALLEY":" ","HOUSE_NO":"２４１號五樓之２","E_COORD97":171746.82999999999,"N_COORD97":2542603.2599999998,"ADDRESS":"自由路三段２４１號五樓之２","OBJECTID":235955},"geometry":{"x":171746.83000000007,"y":2542603.2600000016}},{"attributes":{"ID":235960,"DIS_CODE":0,"TOWNNAME":"東區","LI":"復興里","LIN":"13鄰","STREET":"自由路","SECT":"三段","MAREA":" ","LANE":" ","ALLEY":" ","HOUSE_NO":"２４１號六樓","E_COORD97":171746.82999999999,"N_COORD97":2542603.2599999998,"ADDRESS":"自由路三段２４１號六樓","OBJECTID":235956},"geometry":{"x":171746.83000000007,"y":2542603.2600000016}},{"attributes":{"ID":235961,"DIS_CODE":0,"TOWNNAME":"東區","LI":"復興里","LIN":"13鄰","STREET":"自由路","SECT":"三段","MAREA":" ","LANE":" ","ALLEY":" ","HOUSE_NO":"２４１號六樓之１","E_COORD97":171746.82999999999,"N_COORD97":2542603.2599999998,"ADDRESS":"自由路三段２４１號六樓之１","OBJECTID":235957},"geometry":{"x":171746.83000000007,"y":2542603.2600000016}},{"attributes":{"ID":235962,"DIS_CODE":0,"TOWNNAME":"東區","LI":"復興里","LIN":"13鄰","STREET":"自由路","SECT":"三段","MAREA":" ","LANE":" ","ALLEY":" ","HOUSE_NO":"２４１號六樓之２","E_COORD97":171746.82999999999,"N_COORD97":2542603.2599999998,"ADDRESS":"自由路三段２４１號六樓之２","OBJECTID":235958},"geometry":{"x":171746.83000000007,"y":2542603.2600000016}},{"attributes":{"ID":235963,"DIS_CODE":0,"TOWNNAME":"東區","LI":"復興里","LIN":"13鄰","STREET":"自由路","SECT":"三段","MAREA":" ","LANE":" ","ALLEY":" ","HOUSE_NO":"２４１號四樓","E_COORD97":171746.82999999999,"N_COORD97":2542603.2599999998,"ADDRESS":"自由路三段２４１號四樓","OBJECTID":235959},"geometry":{"x":171746.83000000007,"y":2542603.2600000016}},{"attributes":{"ID":235964,"DIS_CODE":0,"TOWNNAME":"東區","LI":"復興里","LIN":"13鄰","STREET":"自由路","SECT":"三段","MAREA":" ","LANE":" ","ALLEY":" ","HOUSE_NO":"２４１號四樓之１","E_COORD97":171746.82999999999,"N_COORD97":2542603.2599999998,"ADDRESS":"自由路三段２４１號四樓之１","OBJECTID":235960},"geometry":{"x":171746.83000000007,"y":2542603.2600000016}},{"attributes":{"ID":235965,"DIS_CODE":0,"TOWNNAME":"東區","LI":"復興里","LIN":"13鄰","STREET":"自由路","SECT":"三段","MAREA":" ","LANE":" ","ALLEY":" ","HOUSE_NO":"２４１號四樓之２","E_COORD97":171746.82999999999,"N_COORD97":2542603.2599999998,"ADDRESS":"自由路三段２４１號四樓之２","OBJECTID":235961},"geometry":{"x":171746.83000000007,"y":2542603.2600000016}},{"attributes":{"ID":235966,"DIS_CODE":0,"TOWNNAME":"東區","LI":"復興里","LIN":"13鄰","STREET":"自由路","SECT":"三段","MAREA":" ","LANE":" ","ALLEY":" ","HOUSE_NO":"２４３號七樓","E_COORD97":171759.97,"N_COORD97":2542606.8399999999,"ADDRESS":"自由路三段２４３號七樓","OBJECTID":235962},"geometry":{"x":171759.97000000067,"y":2542606.8399999999}},{"attributes":{"ID":235967,"DIS_CODE":0,"TOWNNAME":"東區","LI":"復興里","LIN":"13鄰","STREET":"自由路","SECT":"三段","MAREA":" ","LANE":" ","ALLEY":" ","HOUSE_NO":"２４３號七樓之１","E_COORD97":171759.97,"N_COORD97":2542606.8399999999,"ADDRESS":"自由路三段２４３號七樓之１","OBJECTID":235963},"geometry":{"x":171759.97000000067,"y":2542606.8399999999}},{"attributes":{"ID":235968,"DIS_CODE":0,"TOWNNAME":"東區","LI":"復興里","LIN":"13鄰","STREET":"自由路","SECT":"三段","MAREA":" ","LANE":" ","ALLEY":" ","HOUSE_NO":"２４３號七樓之２","E_COORD97":171759.97,"N_COORD97":2542606.8399999999,"ADDRESS":"自由路三段２４３號七樓之２","OBJECTID":235964},"geometry":{"x":171759.97000000067,"y":2542606.8399999999}},{"attributes":{"ID":235969,"DIS_CODE":0,"TOWNNAME":"東區","LI":"復興里","LIN":"13鄰","STREET":"自由路","SECT":"三段","MAREA":" ","LANE":" ","ALLEY":" ","HOUSE_NO":"２４３號九樓","E_COORD97":171759.97,"N_COORD97":2542606.8399999999,"ADDRESS":"自由路三段２４３號九樓","OBJECTID":235965},"geometry":{"x":171759.97000000067,"y":2542606.8399999999}},{"attributes":{"ID":235970,"DIS_CODE":0,"TOWNNAME":"東區","LI":"復興里","LIN":"13鄰","STREET":"自由路","SECT":"三段","MAREA":" ","LANE":" ","ALLEY":" ","HOUSE_NO":"２４３號九樓之１","E_COORD97":171759.97,"N_COORD97":2542606.8399999999,"ADDRESS":"自由路三段２４３號九樓之１","OBJECTID":235966},"geometry":{"x":171759.97000000067,"y":2542606.8399999999}},{"attributes":{"ID":235971,"DIS_CODE":0,"TOWNNAME":"東區","LI":"復興里","LIN":"13鄰","STREET":"自由路","SECT":"三段","MAREA":" ","LANE":" ","ALLEY":" ","HOUSE_NO":"２４３號九樓之２","E_COORD97":171759.97,"N_COORD97":2542606.8399999999,"ADDRESS":"自由路三段２４３號九樓之２","OBJECTID":235967},"geometry":{"x":171759.97000000067,"y":2542606.8399999999}},{"attributes":{"ID":235972,"DIS_CODE":0,"TOWNNAME":"永康區","LI":"\u25A0行里","LIN":"14鄰","STREET":"中正六街","SECT":" ","MAREA":" ","LANE":" ","ALLEY":" ","HOUSE_NO":"１７５號五樓之３","E_COORD97":171858.29000000001,"N_COORD97":2548861.5600000001,"ADDRESS":"中正六街１７５號五樓之３","OBJECTID":235968},"geometry":{"x":171858.29000000097,"y":2548861.5600000005}},{"attributes":{"ID":235973,"DIS_CODE":0,"TOWNNAME":"永康區","LI":"\u25A0行里","LIN":"14鄰","STREET":"中正六街","SECT":" ","MAREA":" ","LANE":" ","ALLEY":" ","HOUSE_NO":"１７５號六樓之１","E_COORD97":171858.19,"N_COORD97":2548861.5600000001,"ADDRESS":"中正六街１７５號六樓之１","OBJECTID":235969},"geometry":{"x":171858.19000000041,"y":2548861.5600000005}},{"attributes":{"ID":235974,"DIS_CODE":0,"TOWNNAME":"永康區","LI":"\u25A0行里","LIN":"14鄰","STREET":"中正六街","SECT":" ","MAREA":" ","LANE":" ","ALLEY":" ","HOUSE_NO":"１７５號六樓之２","E_COORD97":171858.32000000001,"N_COORD97":2548861.5600000001,"ADDRESS":"中正六街１７５號六樓之２","OBJECTID":235970},"geometry":{"x":171858.32000000123,"y":2548861.5600000005}},{"attributes":{"ID":235975,"DIS_CODE":0,"TOWNNAME":"永康區","LI":"\u25A0行里","LIN":"14鄰","STREET":"中正六街","SECT":" ","MAREA":" ","LANE":" ","ALLEY":" ","HOUSE_NO":"１７５號四樓之１","E_COORD97":171858.19,"N_COORD97":2548861.5600000001,"ADDRESS":"中正六街１７５號四樓之１","OBJECTID":235971},"geometry":{"x":171858.19000000041,"y":2548861.5600000005}},{"attributes":{"ID":235976,"DIS_CODE":0,"TOWNNAME":"永康區","LI":"\u25A0行里","LIN":"14鄰","STREET":"中正六街","SECT":" ","MAREA":" ","LANE":" ","ALLEY":" ","HOUSE_NO":"１７５號六樓之５","E_COORD97":171858.34,"N_COORD97":2548861.5600000001,"ADDRESS":"中正六街１７５號六樓之５","OBJECTID":235972},"geometry":{"x":171858.33999999985,"y":2548861.5600000005}},{"attributes":{"ID":235977,"DIS_CODE":0,"TOWNNAME":"永康區","LI":"\u25A0行里","LIN":"14鄰","STREET":"中正六街","SECT":" ","MAREA":" ","LANE":" ","ALLEY":" ","HOUSE_NO":"１７５號四樓之３","E_COORD97":171858.29000000001,"N_COORD97":2548861.5600000001,"ADDRESS":"中正六街１７５號四樓之３","OBJECTID":235973},"geometry":{"x":171858.29000000097,"y":2548861.5600000005}},{"attributes":{"ID":235978,"DIS_CODE":0,"TOWNNAME":"永康區","LI":"\u25A0行里","LIN":"14鄰","STREET":"中正六街","SECT":" ","MAREA":" ","LANE":" ","ALLEY":" ","HOUSE_NO":"１７５號七樓之３","E_COORD97":171858.29000000001,"N_COORD97":2548861.5600000001,"ADDRESS":"中正六街１７５號七樓之３","OBJECTID":235974},"geometry":{"x":171858.29000000097,"y":2548861.5600000005}},{"attributes":{"ID":235979,"DIS_CODE":0,"TOWNNAME":"南區","LI":"喜北里","LIN":"16鄰","STREET":"喜樹路","SECT":" ","MAREA":" ","LANE":"２２２巷","ALLEY":" ","HOUSE_NO":"５５號","E_COORD97":165471.75,"N_COORD97":2538087.4500000002,"ADDRESS":"喜樹路２２２巷５５號","OBJECTID":235975},"geometry":{"x":165471.75,"y":2538087.450000003}},{"attributes":{"ID":235980,"DIS_CODE":0,"TOWNNAME":"南區","LI":"喜北里","LIN":"16鄰","STREET":"喜樹路","SECT":" ","MAREA":" ","LANE":"２２２巷","ALLEY":" ","HOUSE_NO":"５７號","E_COORD97":165463.45999999999,"N_COORD97":2538097.8500000001,"ADDRESS":"喜樹路２２２巷５７號","OBJECTID":235976},"geometry":{"x":165463.45999999996,"y":2538097.8499999996}},{"attributes":{"ID":235981,"DIS_CODE":0,"TOWNNAME":"南區","LI":"喜北里","LIN":"16鄰","STREET":"喜樹路","SECT":" ","MAREA":" ","LANE":"２２２巷","ALLEY":" ","HOUSE_NO":"５９號","E_COORD97":165462.60000000001,"N_COORD97":2538110.3199999998,"ADDRESS":"喜樹路２２２巷５９號","OBJECTID":235977},"geometry":{"x":165462.60000000149,"y":2538110.3200000022}},{"attributes":{"ID":235982,"DIS_CODE":0,"TOWNNAME":"永康區","LI":"烏竹里","LIN":"16鄰","STREET":"龍橋街","SECT":" ","MAREA":" ","LANE":"２９６巷","ALLEY":" ","HOUSE_NO":"６號","E_COORD97":174540.14000000001,"N_COORD97":2548996.25,"ADDRESS":"龍橋街２９６巷６號","OBJECTID":235978},"geometry":{"x":174540.14000000153,"y":2548996.2500000037}},{"attributes":{"ID":235983,"DIS_CODE":0,"TOWNNAME":"東區","LI":"復興里","LIN":"13鄰","STREET":"自由路","SECT":"三段","MAREA":" ","LANE":" ","ALLEY":" ","HOUSE_NO":"２４３號二樓","E_COORD97":171759.97,"N_COORD97":2542606.8399999999,"ADDRESS":"自由路三段２４３號二樓","OBJECTID":235979},"geometry":{"x":171759.97000000067,"y":2542606.8399999999}},{"attributes":{"ID":235984,"DIS_CODE":0,"TOWNNAME":"東區","LI":"復興里","LIN":"13鄰","STREET":"自由路","SECT":"三段","MAREA":" ","LANE":" ","ALLEY":" ","HOUSE_NO":"２４３號二樓之１","E_COORD97":171759.97,"N_COORD97":2542606.8399999999,"ADDRESS":"自由路三段２４３號二樓之１","OBJECTID":235980},"geometry":{"x":171759.97000000067,"y":2542606.8399999999}},{"attributes":{"ID":235985,"DIS_CODE":0,"TOWNNAME":"東區","LI":"復興里","LIN":"13鄰","STREET":"自由路","SECT":"三段","MAREA":" ","LANE":" ","ALLEY":" ","HOUSE_NO":"２４３號二樓之２","E_COORD97":171759.97,"N_COORD97":2542606.8399999999,"ADDRESS":"自由路三段２４３號二樓之２","OBJECTID":235981},"geometry":{"x":171759.97000000067,"y":2542606.8399999999}},{"attributes":{"ID":235986,"DIS_CODE":0,"TOWNNAME":"東區","LI":"復興里","LIN":"13鄰","STREET":"自由路","SECT":"三段","MAREA":" ","LANE":" ","ALLEY":" ","HOUSE_NO":"２４３號八樓","E_COORD97":171759.97,"N_COORD97":2542606.8399999999,"ADDRESS":"自由路三段２４３號八樓","OBJECTID":235982},"geometry":{"x":171759.97000000067,"y":2542606.8399999999}},{"attributes":{"ID":235987,"DIS_CODE":0,"TOWNNAME":"東區","LI":"復興里","LIN":"13鄰","STREET":"自由路","SECT":"三段","MAREA":" ","LANE":" ","ALLEY":" ","HOUSE_NO":"２４３號八樓之１","E_COORD97":171759.97,"N_COORD97":2542606.8399999999,"ADDRESS":"自由路三段２４３號八樓之１","OBJECTID":235983},"geometry":{"x":171759.97000000067,"y":2542606.8399999999}},{"attributes":{"ID":235988,"DIS_CODE":0,"TOWNNAME":"東區","LI":"復興里","LIN":"13鄰","STREET":"自由路","SECT":"三段","MAREA":" ","LANE":" ","ALLEY":" ","HOUSE_NO":"２４３號八樓之２","E_COORD97":171759.97,"N_COORD97":2542606.8399999999,"ADDRESS":"自由路三段２４３號八樓之２","OBJECTID":235984},"geometry":{"x":171759.97000000067,"y":2542606.8399999999}},{"attributes":{"ID":235989,"DIS_CODE":0,"TOWNNAME":"東區","LI":"復興里","LIN":"13鄰","STREET":"自由路","SECT":"三段","MAREA":" ","LANE":" ","ALLEY":" ","HOUSE_NO":"２４３號十樓","E_COORD97":171759.97,"N_COORD97":2542606.8399999999,"ADDRESS":"自由路三段２４３號十樓","OBJECTID":235985},"geometry":{"x":171759.97000000067,"y":2542606.8399999999}},{"attributes":{"ID":235990,"DIS_CODE":0,"TOWNNAME":"東區","LI":"復興里","LIN":"13鄰","STREET":"自由路","SECT":"三段","MAREA":" ","LANE":" ","ALLEY":" ","HOUSE_NO":"２４３號十樓之１","E_COORD97":171759.97,"N_COORD97":2542606.8399999999,"ADDRESS":"自由路三段２４３號十樓之１","OBJECTID":235986},"geometry":{"x":171759.97000000067,"y":2542606.8399999999}},{"attributes":{"ID":235991,"DIS_CODE":0,"TOWNNAME":"東區","LI":"復興里","LIN":"13鄰","STREET":"自由路","SECT":"三段","MAREA":" ","LANE":" ","ALLEY":" ","HOUSE_NO":"２４３號十樓之２","E_COORD97":171759.97,"N_COORD97":2542606.8399999999,"ADDRESS":"自由路三段２４３號十樓之２","OBJECTID":235987},"geometry":{"x":171759.97000000067,"y":2542606.8399999999}},{"attributes":{"ID":235992,"DIS_CODE":0,"TOWNNAME":"東區","LI":"復興里","LIN":"13鄰","STREET":"自由路","SECT":"三段","MAREA":" ","LANE":" ","ALLEY":" ","HOUSE_NO":"２４３號三樓","E_COORD97":171759.97,"N_COORD97":2542606.8399999999,"ADDRESS":"自由路三段２４３號三樓","OBJECTID":235988},"geometry":{"x":171759.97000000067,"y":2542606.8399999999}},{"attributes":{"ID":235993,"DIS_CODE":0,"TOWNNAME":"東區","LI":"復興里","LIN":"13鄰","STREET":"自由路","SECT":"三段","MAREA":" ","LANE":" ","ALLEY":" ","HOUSE_NO":"２４３號三樓之１","E_COORD97":171759.97,"N_COORD97":2542606.8399999999,"ADDRESS":"自由路三段２４３號三樓之１","OBJECTID":235989},"geometry":{"x":171759.97000000067,"y":2542606.8399999999}},{"attributes":{"ID":235994,"DIS_CODE":0,"TOWNNAME":"東區","LI":"復興里","LIN":"13鄰","STREET":"自由路","SECT":"三段","MAREA":" ","LANE":" ","ALLEY":" ","HOUSE_NO":"２４３號三樓之２","E_COORD97":171759.97,"N_COORD97":2542606.8399999999,"ADDRESS":"自由路三段２４３號三樓之２","OBJECTID":235990},"geometry":{"x":171759.97000000067,"y":2542606.8399999999}},{"attributes":{"ID":235995,"DIS_CODE":0,"TOWNNAME":"東區","LI":"復興里","LIN":"13鄰","STREET":"自由路","SECT":"三段","MAREA":" ","LANE":" ","ALLEY":" ","HOUSE_NO":"２４３號三樓之３","E_COORD97":171759.97,"N_COORD97":2542606.8399999999,"ADDRESS":"自由路三段２４３號三樓之３","OBJECTID":235991},"geometry":{"x":171759.97000000067,"y":2542606.8399999999}},{"attributes":{"ID":235996,"DIS_CODE":0,"TOWNNAME":"東區","LI":"復興里","LIN":"13鄰","STREET":"自由路","SECT":"三段","MAREA":" ","LANE":" ","ALLEY":" ","HOUSE_NO":"２４３號五樓","E_COORD97":171759.97,"N_COORD97":2542606.8399999999,"ADDRESS":"自由路三段２４３號五樓","OBJECTID":235992},"geometry":{"x":171759.97000000067,"y":2542606.8399999999}},{"attributes":{"ID":235997,"DIS_CODE":0,"TOWNNAME":"東區","LI":"復興里","LIN":"13鄰","STREET":"自由路","SECT":"三段","MAREA":" ","LANE":" ","ALLEY":" ","HOUSE_NO":"２４３號五樓之１","E_COORD97":171759.97,"N_COORD97":2542606.8399999999,"ADDRESS":"自由路三段２４３號五樓之１","OBJECTID":235993},"geometry":{"x":171759.97000000067,"y":2542606.8399999999}},{"attributes":{"ID":235998,"DIS_CODE":0,"TOWNNAME":"東區","LI":"復興里","LIN":"13鄰","STREET":"自由路","SECT":"三段","MAREA":" ","LANE":" ","ALLEY":" ","HOUSE_NO":"２４３號五樓之２","E_COORD97":171759.97,"N_COORD97":2542606.8399999999,"ADDRESS":"自由路三段２４３號五樓之２","OBJECTID":235994},"geometry":{"x":171759.97000000067,"y":2542606.8399999999}},{"attributes":{"ID":235999,"DIS_CODE":0,"TOWNNAME":"東區","LI":"復興里","LIN":"13鄰","STREET":"自由路","SECT":"三段","MAREA":" ","LANE":" ","ALLEY":" ","HOUSE_NO":"２４３號五樓之３","E_COORD97":171759.97,"N_COORD97":2542606.8399999999,"ADDRESS":"自由路三段２４３號五樓之３","OBJECTID":235995},"geometry":{"x":171759.97000000067,"y":2542606.8399999999}},{"attributes":{"ID":236000,"DIS_CODE":0,"TOWNNAME":"東區","LI":"復興里","LIN":"13鄰","STREET":"自由路","SECT":"三段","MAREA":" ","LANE":" ","ALLEY":" ","HOUSE_NO":"２４３號六樓","E_COORD97":171759.97,"N_COORD97":2542606.8399999999,"ADDRESS":"自由路三段２４３號六樓","OBJECTID":235996},"geometry":{"x":171759.97000000067,"y":2542606.8399999999}},{"attributes":{"ID":236001,"DIS_CODE":0,"TOWNNAME":"東區","LI":"復興里","LIN":"13鄰","STREET":"自由路","SECT":"三段","MAREA":" ","LANE":" ","ALLEY":" ","HOUSE_NO":"２４３號六樓之１","E_COORD97":171759.97,"N_COORD97":2542606.8399999999,"ADDRESS":"自由路三段２４３號六樓之１","OBJECTID":235997},"geometry":{"x":171759.97000000067,"y":2542606.8399999999}},{"attributes":{"ID":236002,"DIS_CODE":0,"TOWNNAME":"永康區","LI":"\u25A0行里","LIN":"14鄰","STREET":"中正六街","SECT":" ","MAREA":" ","LANE":" ","ALLEY":" ","HOUSE_NO":"１７５號五樓之１","E_COORD97":171858.19,"N_COORD97":2548861.5600000001,"ADDRESS":"中正六街１７５號五樓之１","OBJECTID":235998},"geometry":{"x":171858.19000000041,"y":2548861.5600000005}},{"attributes":{"ID":236003,"DIS_CODE":0,"TOWNNAME":"永康區","LI":"\u25A0行里","LIN":"14鄰","STREET":"中正六街","SECT":" ","MAREA":" ","LANE":" ","ALLEY":" ","HOUSE_NO":"１７５號七樓之５","E_COORD97":171858.34,"N_COORD97":2548861.5600000001,"ADDRESS":"中正六街１７５號七樓之５","OBJECTID":235999},"geometry":{"x":171858.33999999985,"y":2548861.5600000005}},{"attributes":{"ID":236004,"DIS_CODE":0,"TOWNNAME":"永康區","LI":"\u25A0行里","LIN":"14鄰","STREET":"中正六街","SECT":" ","MAREA":" ","LANE":" ","ALLEY":" ","HOUSE_NO":"１７５號五樓之２","E_COORD97":171858.32000000001,"N_COORD97":2548861.5600000001,"ADDRESS":"中正六街１７５號五樓之２","OBJECTID":236000},"geometry":{"x":171858.32000000123,"y":2548861.5600000005}}]}