{"displayFieldName":"TOWNNAME","fieldAliases":{"ID":"ID","DIS_CODE":"DIS_CODE","TOWNNAME":"TOWNNAME","LI":"LI","LIN":"LIN","STREET":"STREET","SECT":"SECT","MAREA":"MAREA","LANE":"LANE","ALLEY":"ALLEY","HOUSE_NO":"HOUSE_NO","E_COORD97":"E_COORD97","N_COORD97":"N_COORD97","ADDRESS":"ADDRESS","OBJECTID":"OBJECTID"},"geometryType":"esriGeometryPoint","spatialReference":{"wkid":102443,"latestWkid":3826},"fields":[{"name":"ID","type":"esriFieldTypeDouble","alias":"ID"},{"name":"DIS_CODE","type":"esriFieldTypeInteger","alias":"DIS_CODE"},{"name":"TOWNNAME","type":"esriFieldTypeString","alias":"TOWNNAME","length":8},{"name":"LI","type":"esriFieldTypeString","alias":"LI","length":8},{"name":"LIN","type":"esriFieldTypeString","alias":"LIN","length":12},{"name":"STREET","type":"esriFieldTypeString","alias":"STREET","length":20},{"name":"SECT","type":"esriFieldTypeString","alias":"SECT","length":8},{"name":"MAREA","type":"esriFieldTypeString","alias":"MAREA","length":12},{"name":"LANE","type":"esriFieldTypeString","alias":"LANE","length":10},{"name":"ALLEY","type":"esriFieldTypeString","alias":"ALLEY","length":10},{"name":"HOUSE_NO","type":"esriFieldTypeString","alias":"HOUSE_NO","length":20},{"name":"E_COORD97","type":"esriFieldTypeDouble","alias":"E_COORD97"},{"name":"N_COORD97","type":"esriFieldTypeDouble","alias":"N_COORD97"},{"name":"ADDRESS","type":"esriFieldTypeString","alias":"ADDRESS","length":50},{"name":"OBJECTID","type":"esriFieldTypeOID","alias":"OBJECTID"}],"features":[{"attributes":{"ID":636828,"DIS_CODE":0,"TOWNNAME":"麻豆區","LI":"巷口里","LIN":"4鄰","STREET":"和平路","SECT":" ","MAREA":" ","LANE":" ","ALLEY":" ","HOUSE_NO":"２號之７四樓","E_COORD97":173130.26999999999,"N_COORD97":2564414.73,"ADDRESS":"和平路２號之７四樓","OBJECTID":636801},"geometry":{"x":173130.26999999955,"y":2564414.7300000004}},{"attributes":{"ID":636829,"DIS_CODE":0,"TOWNNAME":"麻豆區","LI":"巷口里","LIN":"4鄰","STREET":"和平路","SECT":" ","MAREA":" ","LANE":" ","ALLEY":" ","HOUSE_NO":"２號之９七樓","E_COORD97":173120.73000000001,"N_COORD97":2564412.4900000002,"ADDRESS":"和平路２號之９七樓","OBJECTID":636802},"geometry":{"x":173120.73000000045,"y":2564412.4900000021}},{"attributes":{"ID":636830,"DIS_CODE":0,"TOWNNAME":"麻豆區","LI":"巷口里","LIN":"4鄰","STREET":"和平路","SECT":" ","MAREA":" ","LANE":" ","ALLEY":" ","HOUSE_NO":"２號之９三樓","E_COORD97":173120.73000000001,"N_COORD97":2564412.4900000002,"ADDRESS":"和平路２號之９三樓","OBJECTID":636803},"geometry":{"x":173120.73000000045,"y":2564412.4900000021}},{"attributes":{"ID":636831,"DIS_CODE":0,"TOWNNAME":"麻豆區","LI":"巷口里","LIN":"4鄰","STREET":"和平路","SECT":" ","MAREA":" ","LANE":" ","ALLEY":" ","HOUSE_NO":"２號之９五樓","E_COORD97":173120.73000000001,"N_COORD97":2564412.4900000002,"ADDRESS":"和平路２號之９五樓","OBJECTID":636804},"geometry":{"x":173120.73000000045,"y":2564412.4900000021}},{"attributes":{"ID":636832,"DIS_CODE":0,"TOWNNAME":"麻豆區","LI":"巷口里","LIN":"4鄰","STREET":"和平路","SECT":" ","MAREA":" ","LANE":" ","ALLEY":" ","HOUSE_NO":"２號之９六樓","E_COORD97":173120.73000000001,"N_COORD97":2564412.4900000002,"ADDRESS":"和平路２號之９六樓","OBJECTID":636805},"geometry":{"x":173120.73000000045,"y":2564412.4900000021}},{"attributes":{"ID":636833,"DIS_CODE":0,"TOWNNAME":"北區","LI":"成德里","LIN":"25鄰","STREET":"育德一街","SECT":" ","MAREA":" ","LANE":" ","ALLEY":" ","HOUSE_NO":"１０號二樓","E_COORD97":168572.01000000001,"N_COORD97":2545774.4900000002,"ADDRESS":"育德一街１０號二樓","OBJECTID":636806},"geometry":{"x":168572.00999999978,"y":2545774.4900000021}},{"attributes":{"ID":636834,"DIS_CODE":0,"TOWNNAME":"北區","LI":"成德里","LIN":"25鄰","STREET":"育德一街","SECT":" ","MAREA":" ","LANE":" ","ALLEY":" ","HOUSE_NO":"１０號三樓","E_COORD97":168572.01000000001,"N_COORD97":2545774.4900000002,"ADDRESS":"育德一街１０號三樓","OBJECTID":636807},"geometry":{"x":168572.00999999978,"y":2545774.4900000021}},{"attributes":{"ID":636835,"DIS_CODE":0,"TOWNNAME":"北區","LI":"成德里","LIN":"25鄰","STREET":"育德一街","SECT":" ","MAREA":" ","LANE":" ","ALLEY":" ","HOUSE_NO":"１０號四樓","E_COORD97":168572.01000000001,"N_COORD97":2545774.4900000002,"ADDRESS":"育德一街１０號四樓","OBJECTID":636808},"geometry":{"x":168572.00999999978,"y":2545774.4900000021}},{"attributes":{"ID":636836,"DIS_CODE":0,"TOWNNAME":"北區","LI":"成德里","LIN":"25鄰","STREET":"育德一街","SECT":" ","MAREA":" ","LANE":" ","ALLEY":" ","HOUSE_NO":"１２號二樓","E_COORD97":168572.97,"N_COORD97":2545791.6299999999,"ADDRESS":"育德一街１２號二樓","OBJECTID":636809},"geometry":{"x":168572.97000000067,"y":2545791.629999999}},{"attributes":{"ID":636837,"DIS_CODE":0,"TOWNNAME":"北區","LI":"成德里","LIN":"25鄰","STREET":"育德一街","SECT":" ","MAREA":" ","LANE":" ","ALLEY":" ","HOUSE_NO":"１２號三樓","E_COORD97":168572.97,"N_COORD97":2545791.6299999999,"ADDRESS":"育德一街１２號三樓","OBJECTID":636810},"geometry":{"x":168572.97000000067,"y":2545791.629999999}},{"attributes":{"ID":636838,"DIS_CODE":0,"TOWNNAME":"北區","LI":"成德里","LIN":"25鄰","STREET":"育德一街","SECT":" ","MAREA":" ","LANE":" ","ALLEY":" ","HOUSE_NO":"１２號四樓","E_COORD97":168572.97,"N_COORD97":2545791.6299999999,"ADDRESS":"育德一街１２號四樓","OBJECTID":636811},"geometry":{"x":168572.97000000067,"y":2545791.629999999}},{"attributes":{"ID":636839,"DIS_CODE":0,"TOWNNAME":"北區","LI":"成德里","LIN":"25鄰","STREET":"育德一街","SECT":" ","MAREA":" ","LANE":" ","ALLEY":" ","HOUSE_NO":"１２號五樓","E_COORD97":168572.97,"N_COORD97":2545791.6299999999,"ADDRESS":"育德一街１２號五樓","OBJECTID":636812},"geometry":{"x":168572.97000000067,"y":2545791.629999999}},{"attributes":{"ID":636840,"DIS_CODE":0,"TOWNNAME":"北區","LI":"成德里","LIN":"25鄰","STREET":"育德一街","SECT":" ","MAREA":" ","LANE":" ","ALLEY":" ","HOUSE_NO":"１２號六樓","E_COORD97":168572.97,"N_COORD97":2545791.6299999999,"ADDRESS":"育德一街１２號六樓","OBJECTID":636813},"geometry":{"x":168572.97000000067,"y":2545791.629999999}},{"attributes":{"ID":636841,"DIS_CODE":0,"TOWNNAME":"北區","LI":"成德里","LIN":"25鄰","STREET":"育德一街","SECT":" ","MAREA":" ","LANE":" ","ALLEY":" ","HOUSE_NO":"１２號七樓","E_COORD97":168572.97,"N_COORD97":2545791.6299999999,"ADDRESS":"育德一街１２號七樓","OBJECTID":636814},"geometry":{"x":168572.97000000067,"y":2545791.629999999}},{"attributes":{"ID":636842,"DIS_CODE":0,"TOWNNAME":"北區","LI":"成德里","LIN":"25鄰","STREET":"育德一街","SECT":" ","MAREA":" ","LANE":" ","ALLEY":" ","HOUSE_NO":"１２號八樓","E_COORD97":168572.97,"N_COORD97":2545791.6299999999,"ADDRESS":"育德一街１２號八樓","OBJECTID":636815},"geometry":{"x":168572.97000000067,"y":2545791.629999999}},{"attributes":{"ID":636843,"DIS_CODE":0,"TOWNNAME":"北區","LI":"成德里","LIN":"25鄰","STREET":"育德一街","SECT":" ","MAREA":" ","LANE":" ","ALLEY":" ","HOUSE_NO":"１２號九樓","E_COORD97":168572.97,"N_COORD97":2545791.6299999999,"ADDRESS":"育德一街１２號九樓","OBJECTID":636816},"geometry":{"x":168572.97000000067,"y":2545791.629999999}},{"attributes":{"ID":636844,"DIS_CODE":0,"TOWNNAME":"北區","LI":"成德里","LIN":"25鄰","STREET":"育德一街","SECT":" ","MAREA":" ","LANE":" ","ALLEY":" ","HOUSE_NO":"１２號十樓","E_COORD97":168572.97,"N_COORD97":2545791.6299999999,"ADDRESS":"育德一街１２號十樓","OBJECTID":636817},"geometry":{"x":168572.97000000067,"y":2545791.629999999}},{"attributes":{"ID":636845,"DIS_CODE":0,"TOWNNAME":"北區","LI":"成德里","LIN":"25鄰","STREET":"育德一街","SECT":" ","MAREA":" ","LANE":" ","ALLEY":" ","HOUSE_NO":"１６號二樓","E_COORD97":168559.31,"N_COORD97":2545793.8500000001,"ADDRESS":"育德一街１６號二樓","OBJECTID":636818},"geometry":{"x":168559.30999999959,"y":2545793.8499999996}},{"attributes":{"ID":636846,"DIS_CODE":0,"TOWNNAME":"北區","LI":"成德里","LIN":"25鄰","STREET":"育德一街","SECT":" ","MAREA":" ","LANE":" ","ALLEY":" ","HOUSE_NO":"１６號三樓","E_COORD97":168559.31,"N_COORD97":2545793.8500000001,"ADDRESS":"育德一街１６號三樓","OBJECTID":636819},"geometry":{"x":168559.30999999959,"y":2545793.8499999996}},{"attributes":{"ID":636847,"DIS_CODE":0,"TOWNNAME":"北區","LI":"成德里","LIN":"25鄰","STREET":"育德一街","SECT":" ","MAREA":" ","LANE":" ","ALLEY":" ","HOUSE_NO":"１６號四樓","E_COORD97":168559.31,"N_COORD97":2545793.8500000001,"ADDRESS":"育德一街１６號四樓","OBJECTID":636820},"geometry":{"x":168559.30999999959,"y":2545793.8499999996}},{"attributes":{"ID":636848,"DIS_CODE":0,"TOWNNAME":"北區","LI":"成德里","LIN":"25鄰","STREET":"育德一街","SECT":" ","MAREA":" ","LANE":" ","ALLEY":" ","HOUSE_NO":"１６號五樓","E_COORD97":168559.31,"N_COORD97":2545793.8500000001,"ADDRESS":"育德一街１６號五樓","OBJECTID":636821},"geometry":{"x":168559.30999999959,"y":2545793.8499999996}},{"attributes":{"ID":636849,"DIS_CODE":0,"TOWNNAME":"北區","LI":"成德里","LIN":"25鄰","STREET":"育德一街","SECT":" ","MAREA":" ","LANE":" ","ALLEY":" ","HOUSE_NO":"１６號六樓","E_COORD97":168559.31,"N_COORD97":2545793.8500000001,"ADDRESS":"育德一街１６號六樓","OBJECTID":636822},"geometry":{"x":168559.30999999959,"y":2545793.8499999996}},{"attributes":{"ID":636850,"DIS_CODE":0,"TOWNNAME":"北區","LI":"成德里","LIN":"25鄰","STREET":"育德一街","SECT":" ","MAREA":" ","LANE":" ","ALLEY":" ","HOUSE_NO":"１６號七樓","E_COORD97":168559.31,"N_COORD97":2545793.8500000001,"ADDRESS":"育德一街１６號七樓","OBJECTID":636823},"geometry":{"x":168559.30999999959,"y":2545793.8499999996}},{"attributes":{"ID":636851,"DIS_CODE":0,"TOWNNAME":"北區","LI":"成德里","LIN":"25鄰","STREET":"育德一街","SECT":" ","MAREA":" ","LANE":" ","ALLEY":" ","HOUSE_NO":"１６號八樓","E_COORD97":168559.31,"N_COORD97":2545793.8500000001,"ADDRESS":"育德一街１６號八樓","OBJECTID":636824},"geometry":{"x":168559.30999999959,"y":2545793.8499999996}},{"attributes":{"ID":636852,"DIS_CODE":0,"TOWNNAME":"北區","LI":"成德里","LIN":"25鄰","STREET":"育德一街","SECT":" ","MAREA":" ","LANE":" ","ALLEY":" ","HOUSE_NO":"１６號九樓","E_COORD97":168559.31,"N_COORD97":2545793.8500000001,"ADDRESS":"育德一街１６號九樓","OBJECTID":636825},"geometry":{"x":168559.30999999959,"y":2545793.8499999996}},{"attributes":{"ID":636853,"DIS_CODE":0,"TOWNNAME":"北區","LI":"成德里","LIN":"25鄰","STREET":"育德一街","SECT":" ","MAREA":" ","LANE":" ","ALLEY":" ","HOUSE_NO":"１６號十樓","E_COORD97":168559.31,"N_COORD97":2545793.8500000001,"ADDRESS":"育德一街１６號十樓","OBJECTID":636826},"geometry":{"x":168559.30999999959,"y":2545793.8499999996}},{"attributes":{"ID":636854,"DIS_CODE":0,"TOWNNAME":"北區","LI":"成德里","LIN":"25鄰","STREET":"育德一街","SECT":" ","MAREA":" ","LANE":" ","ALLEY":" ","HOUSE_NO":"１８號二樓","E_COORD97":168553.32000000001,"N_COORD97":2545813.4100000001,"ADDRESS":"育德一街１８號二樓","OBJECTID":636827},"geometry":{"x":168553.3200000003,"y":2545813.410000002}},{"attributes":{"ID":636855,"DIS_CODE":0,"TOWNNAME":"北區","LI":"成德里","LIN":"25鄰","STREET":"育德一街","SECT":" ","MAREA":" ","LANE":" ","ALLEY":" ","HOUSE_NO":"１８號三樓","E_COORD97":168553.32000000001,"N_COORD97":2545813.4100000001,"ADDRESS":"育德一街１８號三樓","OBJECTID":636828},"geometry":{"x":168553.3200000003,"y":2545813.410000002}},{"attributes":{"ID":636856,"DIS_CODE":0,"TOWNNAME":"北區","LI":"成德里","LIN":"25鄰","STREET":"育德一街","SECT":" ","MAREA":" ","LANE":" ","ALLEY":" ","HOUSE_NO":"１８號四樓","E_COORD97":168553.32000000001,"N_COORD97":2545813.4100000001,"ADDRESS":"育德一街１８號四樓","OBJECTID":636829},"geometry":{"x":168553.3200000003,"y":2545813.410000002}},{"attributes":{"ID":636857,"DIS_CODE":0,"TOWNNAME":"北區","LI":"成德里","LIN":"25鄰","STREET":"育德一街","SECT":" ","MAREA":" ","LANE":" ","ALLEY":" ","HOUSE_NO":"１８號五樓","E_COORD97":168553.32000000001,"N_COORD97":2545813.4100000001,"ADDRESS":"育德一街１８號五樓","OBJECTID":636830},"geometry":{"x":168553.3200000003,"y":2545813.410000002}},{"attributes":{"ID":636858,"DIS_CODE":0,"TOWNNAME":"北區","LI":"成德里","LIN":"25鄰","STREET":"育德一街","SECT":" ","MAREA":" ","LANE":" ","ALLEY":" ","HOUSE_NO":"１８號六樓","E_COORD97":168553.32000000001,"N_COORD97":2545813.4100000001,"ADDRESS":"育德一街１８號六樓","OBJECTID":636831},"geometry":{"x":168553.3200000003,"y":2545813.410000002}},{"attributes":{"ID":636859,"DIS_CODE":0,"TOWNNAME":"北區","LI":"成德里","LIN":"25鄰","STREET":"育德一街","SECT":" ","MAREA":" ","LANE":" ","ALLEY":" ","HOUSE_NO":"１８號七樓","E_COORD97":168553.32000000001,"N_COORD97":2545813.4100000001,"ADDRESS":"育德一街１８號七樓","OBJECTID":636832},"geometry":{"x":168553.3200000003,"y":2545813.410000002}},{"attributes":{"ID":636860,"DIS_CODE":0,"TOWNNAME":"北區","LI":"成德里","LIN":"25鄰","STREET":"育德一街","SECT":" ","MAREA":" ","LANE":" ","ALLEY":" ","HOUSE_NO":"１８號八樓","E_COORD97":168553.32000000001,"N_COORD97":2545813.4100000001,"ADDRESS":"育德一街１８號八樓","OBJECTID":636833},"geometry":{"x":168553.3200000003,"y":2545813.410000002}},{"attributes":{"ID":636861,"DIS_CODE":0,"TOWNNAME":"北區","LI":"成德里","LIN":"25鄰","STREET":"育德一街","SECT":" ","MAREA":" ","LANE":" ","ALLEY":" ","HOUSE_NO":"１８號九樓","E_COORD97":168553.32000000001,"N_COORD97":2545813.4100000001,"ADDRESS":"育德一街１８號九樓","OBJECTID":636834},"geometry":{"x":168553.3200000003,"y":2545813.410000002}},{"attributes":{"ID":636862,"DIS_CODE":0,"TOWNNAME":"北區","LI":"成德里","LIN":"25鄰","STREET":"育德一街","SECT":" ","MAREA":" ","LANE":" ","ALLEY":" ","HOUSE_NO":"１８號十樓","E_COORD97":168553.32000000001,"N_COORD97":2545813.4100000001,"ADDRESS":"育德一街１８號十樓","OBJECTID":636835},"geometry":{"x":168553.3200000003,"y":2545813.410000002}},{"attributes":{"ID":636863,"DIS_CODE":0,"TOWNNAME":"北區","LI":"成德里","LIN":"25鄰","STREET":"育德一街","SECT":" ","MAREA":" ","LANE":" ","ALLEY":" ","HOUSE_NO":"２０號二樓","E_COORD97":168564.10999999999,"N_COORD97":2545813.73,"ADDRESS":"育德一街２０號二樓","OBJECTID":636836},"geometry":{"x":168564.11000000127,"y":2545813.7300000023}},{"attributes":{"ID":636864,"DIS_CODE":0,"TOWNNAME":"北區","LI":"成德里","LIN":"25鄰","STREET":"育德一街","SECT":" ","MAREA":" ","LANE":" ","ALLEY":" ","HOUSE_NO":"２０號三樓","E_COORD97":168564.10999999999,"N_COORD97":2545813.73,"ADDRESS":"育德一街２０號三樓","OBJECTID":636837},"geometry":{"x":168564.11000000127,"y":2545813.7300000023}},{"attributes":{"ID":636865,"DIS_CODE":0,"TOWNNAME":"北區","LI":"成德里","LIN":"25鄰","STREET":"育德一街","SECT":" ","MAREA":" ","LANE":" ","ALLEY":" ","HOUSE_NO":"２０號四樓","E_COORD97":168564.10999999999,"N_COORD97":2545813.73,"ADDRESS":"育德一街２０號四樓","OBJECTID":636838},"geometry":{"x":168564.11000000127,"y":2545813.7300000023}},{"attributes":{"ID":636866,"DIS_CODE":0,"TOWNNAME":"北區","LI":"成德里","LIN":"25鄰","STREET":"育德一街","SECT":" ","MAREA":" ","LANE":" ","ALLEY":" ","HOUSE_NO":"２０號五樓","E_COORD97":168564.10999999999,"N_COORD97":2545813.73,"ADDRESS":"育德一街２０號五樓","OBJECTID":636839},"geometry":{"x":168564.11000000127,"y":2545813.7300000023}},{"attributes":{"ID":636867,"DIS_CODE":0,"TOWNNAME":"北區","LI":"成德里","LIN":"25鄰","STREET":"育德一街","SECT":" ","MAREA":" ","LANE":" ","ALLEY":" ","HOUSE_NO":"２０號六樓","E_COORD97":168564.10999999999,"N_COORD97":2545813.73,"ADDRESS":"育德一街２０號六樓","OBJECTID":636840},"geometry":{"x":168564.11000000127,"y":2545813.7300000023}},{"attributes":{"ID":636868,"DIS_CODE":0,"TOWNNAME":"北區","LI":"成德里","LIN":"25鄰","STREET":"育德一街","SECT":" ","MAREA":" ","LANE":" ","ALLEY":" ","HOUSE_NO":"２０號七樓","E_COORD97":168564.10999999999,"N_COORD97":2545813.73,"ADDRESS":"育德一街２０號七樓","OBJECTID":636841},"geometry":{"x":168564.11000000127,"y":2545813.7300000023}},{"attributes":{"ID":636869,"DIS_CODE":0,"TOWNNAME":"北區","LI":"成德里","LIN":"25鄰","STREET":"育德一街","SECT":" ","MAREA":" ","LANE":" ","ALLEY":" ","HOUSE_NO":"２０號八樓","E_COORD97":168564.10999999999,"N_COORD97":2545813.73,"ADDRESS":"育德一街２０號八樓","OBJECTID":636842},"geometry":{"x":168564.11000000127,"y":2545813.7300000023}},{"attributes":{"ID":636870,"DIS_CODE":0,"TOWNNAME":"北區","LI":"成德里","LIN":"25鄰","STREET":"育德一街","SECT":" ","MAREA":" ","LANE":" ","ALLEY":" ","HOUSE_NO":"２０號九樓","E_COORD97":168564.10999999999,"N_COORD97":2545813.73,"ADDRESS":"育德一街２０號九樓","OBJECTID":636843},"geometry":{"x":168564.11000000127,"y":2545813.7300000023}},{"attributes":{"ID":636871,"DIS_CODE":0,"TOWNNAME":"佳里區","LI":"建南里","LIN":"34鄰","STREET":"佳南路","SECT":" ","MAREA":" ","LANE":" ","ALLEY":" ","HOUSE_NO":"２１５號","E_COORD97":166002.64000000001,"N_COORD97":2560957.5099999998,"ADDRESS":"佳南路２１５號","OBJECTID":636844},"geometry":{"x":166002.63999999966,"y":2560957.5099999998}},{"attributes":{"ID":636872,"DIS_CODE":0,"TOWNNAME":"北區","LI":"成德里","LIN":"25鄰","STREET":"育德一街","SECT":" ","MAREA":" ","LANE":" ","ALLEY":" ","HOUSE_NO":"２０號十樓","E_COORD97":168564.10999999999,"N_COORD97":2545813.73,"ADDRESS":"育德一街２０號十樓","OBJECTID":636845},"geometry":{"x":168564.11000000127,"y":2545813.7300000023}},{"attributes":{"ID":636873,"DIS_CODE":0,"TOWNNAME":"北區","LI":"成德里","LIN":"25鄰","STREET":"育德一街","SECT":" ","MAREA":" ","LANE":" ","ALLEY":" ","HOUSE_NO":"２２號二樓","E_COORD97":168566.17999999999,"N_COORD97":2545833.1000000001,"ADDRESS":"育德一街２２號二樓","OBJECTID":636846},"geometry":{"x":168566.18000000156,"y":2545833.0999999996}},{"attributes":{"ID":636874,"DIS_CODE":0,"TOWNNAME":"北區","LI":"成德里","LIN":"25鄰","STREET":"育德一街","SECT":" ","MAREA":" ","LANE":" ","ALLEY":" ","HOUSE_NO":"２２號三樓","E_COORD97":168566.17999999999,"N_COORD97":2545833.1000000001,"ADDRESS":"育德一街２２號三樓","OBJECTID":636847},"geometry":{"x":168566.18000000156,"y":2545833.0999999996}},{"attributes":{"ID":636875,"DIS_CODE":0,"TOWNNAME":"北區","LI":"成德里","LIN":"25鄰","STREET":"育德一街","SECT":" ","MAREA":" ","LANE":" ","ALLEY":" ","HOUSE_NO":"２２號四樓","E_COORD97":168566.17999999999,"N_COORD97":2545833.1000000001,"ADDRESS":"育德一街２２號四樓","OBJECTID":636848},"geometry":{"x":168566.18000000156,"y":2545833.0999999996}},{"attributes":{"ID":636876,"DIS_CODE":0,"TOWNNAME":"北區","LI":"成德里","LIN":"25鄰","STREET":"育德一街","SECT":" ","MAREA":" ","LANE":" ","ALLEY":" ","HOUSE_NO":"２２號五樓","E_COORD97":168566.17999999999,"N_COORD97":2545833.1000000001,"ADDRESS":"育德一街２２號五樓","OBJECTID":636849},"geometry":{"x":168566.18000000156,"y":2545833.0999999996}},{"attributes":{"ID":636877,"DIS_CODE":0,"TOWNNAME":"北區","LI":"成德里","LIN":"25鄰","STREET":"育德一街","SECT":" ","MAREA":" ","LANE":" ","ALLEY":" ","HOUSE_NO":"２２號六樓","E_COORD97":168566.17999999999,"N_COORD97":2545833.1000000001,"ADDRESS":"育德一街２２號六樓","OBJECTID":636850},"geometry":{"x":168566.18000000156,"y":2545833.0999999996}},{"attributes":{"ID":636878,"DIS_CODE":0,"TOWNNAME":"北區","LI":"成德里","LIN":"25鄰","STREET":"育德一街","SECT":" ","MAREA":" ","LANE":" ","ALLEY":" ","HOUSE_NO":"２２號七樓","E_COORD97":168566.17999999999,"N_COORD97":2545833.1000000001,"ADDRESS":"育德一街２２號七樓","OBJECTID":636851},"geometry":{"x":168566.18000000156,"y":2545833.0999999996}},{"attributes":{"ID":636879,"DIS_CODE":0,"TOWNNAME":"北區","LI":"成德里","LIN":"25鄰","STREET":"育德一街","SECT":" ","MAREA":" ","LANE":" ","ALLEY":" ","HOUSE_NO":"２２號八樓","E_COORD97":168566.17999999999,"N_COORD97":2545833.1000000001,"ADDRESS":"育德一街２２號八樓","OBJECTID":636852},"geometry":{"x":168566.18000000156,"y":2545833.0999999996}},{"attributes":{"ID":636880,"DIS_CODE":0,"TOWNNAME":"北區","LI":"成德里","LIN":"25鄰","STREET":"育德一街","SECT":" ","MAREA":" ","LANE":" ","ALLEY":" ","HOUSE_NO":"２２號九樓","E_COORD97":168566.17999999999,"N_COORD97":2545833.1000000001,"ADDRESS":"育德一街２２號九樓","OBJECTID":636853},"geometry":{"x":168566.18000000156,"y":2545833.0999999996}},{"attributes":{"ID":636881,"DIS_CODE":0,"TOWNNAME":"北區","LI":"成德里","LIN":"25鄰","STREET":"育德一街","SECT":" ","MAREA":" ","LANE":" ","ALLEY":" ","HOUSE_NO":"２２號十樓","E_COORD97":168566.17999999999,"N_COORD97":2545833.1000000001,"ADDRESS":"育德一街２２號十樓","OBJECTID":636854},"geometry":{"x":168566.18000000156,"y":2545833.0999999996}},{"attributes":{"ID":636882,"DIS_CODE":0,"TOWNNAME":"北區","LI":"成德里","LIN":"25鄰","STREET":"育德一街","SECT":" ","MAREA":" ","LANE":" ","ALLEY":" ","HOUSE_NO":"２６號四樓","E_COORD97":168553.95000000001,"N_COORD97":2545834.3599999999,"ADDRESS":"育德一街２６號四樓","OBJECTID":636855},"geometry":{"x":168553.95000000019,"y":2545834.3599999994}},{"attributes":{"ID":636883,"DIS_CODE":0,"TOWNNAME":"北區","LI":"成德里","LIN":"25鄰","STREET":"育德一街","SECT":" ","MAREA":" ","LANE":" ","ALLEY":" ","HOUSE_NO":"２６號五樓","E_COORD97":168553.95000000001,"N_COORD97":2545834.3599999999,"ADDRESS":"育德一街２６號五樓","OBJECTID":636856},"geometry":{"x":168553.95000000019,"y":2545834.3599999994}},{"attributes":{"ID":636884,"DIS_CODE":0,"TOWNNAME":"北區","LI":"成德里","LIN":"25鄰","STREET":"育德一街","SECT":" ","MAREA":" ","LANE":" ","ALLEY":" ","HOUSE_NO":"２６號六樓","E_COORD97":168553.95000000001,"N_COORD97":2545834.3599999999,"ADDRESS":"育德一街２６號六樓","OBJECTID":636857},"geometry":{"x":168553.95000000019,"y":2545834.3599999994}},{"attributes":{"ID":636885,"DIS_CODE":0,"TOWNNAME":"北區","LI":"成德里","LIN":"25鄰","STREET":"育德一街","SECT":" ","MAREA":" ","LANE":" ","ALLEY":" ","HOUSE_NO":"２６號七樓","E_COORD97":168553.95000000001,"N_COORD97":2545834.3599999999,"ADDRESS":"育德一街２６號七樓","OBJECTID":636858},"geometry":{"x":168553.95000000019,"y":2545834.3599999994}},{"attributes":{"ID":636886,"DIS_CODE":0,"TOWNNAME":"北區","LI":"成德里","LIN":"25鄰","STREET":"育德一街","SECT":" ","MAREA":" ","LANE":" ","ALLEY":" ","HOUSE_NO":"２６號八樓","E_COORD97":168553.95000000001,"N_COORD97":2545834.3599999999,"ADDRESS":"育德一街２６號八樓","OBJECTID":636859},"geometry":{"x":168553.95000000019,"y":2545834.3599999994}},{"attributes":{"ID":636887,"DIS_CODE":0,"TOWNNAME":"北區","LI":"成德里","LIN":"25鄰","STREET":"育德一街","SECT":" ","MAREA":" ","LANE":" ","ALLEY":" ","HOUSE_NO":"２６號九樓","E_COORD97":168553.95000000001,"N_COORD97":2545834.3599999999,"ADDRESS":"育德一街２６號九樓","OBJECTID":636860},"geometry":{"x":168553.95000000019,"y":2545834.3599999994}},{"attributes":{"ID":636888,"DIS_CODE":0,"TOWNNAME":"北區","LI":"成德里","LIN":"25鄰","STREET":"育德一街","SECT":" ","MAREA":" ","LANE":" ","ALLEY":" ","HOUSE_NO":"２６號十樓","E_COORD97":168553.95000000001,"N_COORD97":2545834.3599999999,"ADDRESS":"育德一街２６號十樓","OBJECTID":636861},"geometry":{"x":168553.95000000019,"y":2545834.3599999994}},{"attributes":{"ID":636889,"DIS_CODE":0,"TOWNNAME":"北區","LI":"成德里","LIN":"25鄰","STREET":"育德一街","SECT":" ","MAREA":" ","LANE":" ","ALLEY":" ","HOUSE_NO":"６號六樓","E_COORD97":168539.14999999999,"N_COORD97":2545779.0099999998,"ADDRESS":"育德一街６號六樓","OBJECTID":636862},"geometry":{"x":168539.15000000037,"y":2545779.0099999998}},{"attributes":{"ID":636890,"DIS_CODE":0,"TOWNNAME":"北區","LI":"成德里","LIN":"25鄰","STREET":"育德一街","SECT":" ","MAREA":" ","LANE":" ","ALLEY":" ","HOUSE_NO":"６號七樓","E_COORD97":168539.14999999999,"N_COORD97":2545779.0099999998,"ADDRESS":"育德一街６號七樓","OBJECTID":636863},"geometry":{"x":168539.15000000037,"y":2545779.0099999998}},{"attributes":{"ID":636891,"DIS_CODE":0,"TOWNNAME":"北區","LI":"成德里","LIN":"25鄰","STREET":"育德一街","SECT":" ","MAREA":" ","LANE":" ","ALLEY":" ","HOUSE_NO":"６號八樓","E_COORD97":168539.14999999999,"N_COORD97":2545779.0099999998,"ADDRESS":"育德一街６號八樓","OBJECTID":636864},"geometry":{"x":168539.15000000037,"y":2545779.0099999998}},{"attributes":{"ID":636892,"DIS_CODE":0,"TOWNNAME":"北區","LI":"成德里","LIN":"25鄰","STREET":"育德一街","SECT":" ","MAREA":" ","LANE":" ","ALLEY":" ","HOUSE_NO":"６號九樓","E_COORD97":168539.14999999999,"N_COORD97":2545779.0099999998,"ADDRESS":"育德一街６號九樓","OBJECTID":636865},"geometry":{"x":168539.15000000037,"y":2545779.0099999998}},{"attributes":{"ID":636893,"DIS_CODE":0,"TOWNNAME":"北區","LI":"成德里","LIN":"25鄰","STREET":"育德一街","SECT":" ","MAREA":" ","LANE":" ","ALLEY":" ","HOUSE_NO":"６號十樓","E_COORD97":168539.14999999999,"N_COORD97":2545779.0099999998,"ADDRESS":"育德一街６號十樓","OBJECTID":636866},"geometry":{"x":168539.15000000037,"y":2545779.0099999998}},{"attributes":{"ID":636894,"DIS_CODE":0,"TOWNNAME":"北區","LI":"成德里","LIN":"25鄰","STREET":"育德一街","SECT":" ","MAREA":" ","LANE":" ","ALLEY":" ","HOUSE_NO":"８號二樓","E_COORD97":168556.29999999999,"N_COORD97":2545776.79,"ADDRESS":"育德一街８號二樓","OBJECTID":636867},"geometry":{"x":168556.29999999981,"y":2545776.7899999991}},{"attributes":{"ID":636895,"DIS_CODE":0,"TOWNNAME":"北區","LI":"成德里","LIN":"25鄰","STREET":"育德一街","SECT":" ","MAREA":" ","LANE":" ","ALLEY":" ","HOUSE_NO":"８號三樓","E_COORD97":168556.29999999999,"N_COORD97":2545776.79,"ADDRESS":"育德一街８號三樓","OBJECTID":636868},"geometry":{"x":168556.29999999981,"y":2545776.7899999991}},{"attributes":{"ID":636896,"DIS_CODE":0,"TOWNNAME":"北區","LI":"成德里","LIN":"25鄰","STREET":"育德一街","SECT":" ","MAREA":" ","LANE":" ","ALLEY":" ","HOUSE_NO":"８號四樓","E_COORD97":168556.29999999999,"N_COORD97":2545776.79,"ADDRESS":"育德一街８號四樓","OBJECTID":636869},"geometry":{"x":168556.29999999981,"y":2545776.7899999991}},{"attributes":{"ID":636897,"DIS_CODE":0,"TOWNNAME":"東區","LI":"崇文里","LIN":"6鄰","STREET":"崇德路","SECT":" ","MAREA":" ","LANE":" ","ALLEY":" ","HOUSE_NO":"６６９號","E_COORD97":170806.60000000001,"N_COORD97":2541072.4399999999,"ADDRESS":"崇德路６６９號","OBJECTID":636870},"geometry":{"x":170806.60000000056,"y":2541072.4400000013}},{"attributes":{"ID":636898,"DIS_CODE":0,"TOWNNAME":"佳里區","LI":"建南里","LIN":"34鄰","STREET":"佳南路","SECT":" ","MAREA":" ","LANE":" ","ALLEY":" ","HOUSE_NO":"２１７號","E_COORD97":165997.79000000001,"N_COORD97":2560956.3799999999,"ADDRESS":"佳南路２１７號","OBJECTID":636871},"geometry":{"x":165997.79000000097,"y":2560956.3800000008}},{"attributes":{"ID":636899,"DIS_CODE":0,"TOWNNAME":"安平區","LI":"平通里","LIN":"19鄰","STREET":"慶平路","SECT":" ","MAREA":" ","LANE":" ","ALLEY":" ","HOUSE_NO":"７０５號四樓之９","E_COORD97":164590.81,"N_COORD97":2544263.6200000001,"ADDRESS":"慶平路７０５號四樓之９","OBJECTID":636872},"geometry":{"x":164590.80999999959,"y":2544263.620000001}},{"attributes":{"ID":636900,"DIS_CODE":0,"TOWNNAME":"安平區","LI":"育平里","LIN":"19鄰","STREET":"郡平路","SECT":" ","MAREA":" ","LANE":" ","ALLEY":" ","HOUSE_NO":"１８８號七樓之２９","E_COORD97":164673.29000000001,"N_COORD97":2543361.6800000002,"ADDRESS":"郡平路１８８號七樓之２９","OBJECTID":636873},"geometry":{"x":164673.29000000004,"y":2543361.6800000034}},{"attributes":{"ID":636901,"DIS_CODE":0,"TOWNNAME":"佳里區","LI":"安西里","LIN":"56鄰","STREET":"佳安中街","SECT":" ","MAREA":" ","LANE":" ","ALLEY":" ","HOUSE_NO":"５２號","E_COORD97":163863.94,"N_COORD97":2562296.7000000002,"ADDRESS":"佳安中街５２號","OBJECTID":636874},"geometry":{"x":163863.94000000041,"y":2562296.7000000011}},{"attributes":{"ID":636902,"DIS_CODE":0,"TOWNNAME":"安平區","LI":"育平里","LIN":"19鄰","STREET":"郡平路","SECT":" ","MAREA":" ","LANE":" ","ALLEY":" ","HOUSE_NO":"１８８號七樓之３０","E_COORD97":164673.29000000001,"N_COORD97":2543361.6800000002,"ADDRESS":"郡平路１８８號七樓之３０","OBJECTID":636875},"geometry":{"x":164673.29000000004,"y":2543361.6800000034}},{"attributes":{"ID":636903,"DIS_CODE":0,"TOWNNAME":"安平區","LI":"育平里","LIN":"19鄰","STREET":"郡平路","SECT":" ","MAREA":" ","LANE":" ","ALLEY":" ","HOUSE_NO":"１８８號七樓之３１","E_COORD97":164673.29000000001,"N_COORD97":2543361.6800000002,"ADDRESS":"郡平路１８８號七樓之３１","OBJECTID":636876},"geometry":{"x":164673.29000000004,"y":2543361.6800000034}},{"attributes":{"ID":636904,"DIS_CODE":0,"TOWNNAME":"安平區","LI":"育平里","LIN":"19鄰","STREET":"郡平路","SECT":" ","MAREA":" ","LANE":" ","ALLEY":" ","HOUSE_NO":"１８８號七樓之３２","E_COORD97":164673.29000000001,"N_COORD97":2543361.6800000002,"ADDRESS":"郡平路１８８號七樓之３２","OBJECTID":636877},"geometry":{"x":164673.29000000004,"y":2543361.6800000034}},{"attributes":{"ID":636905,"DIS_CODE":0,"TOWNNAME":"安平區","LI":"育平里","LIN":"19鄰","STREET":"郡平路","SECT":" ","MAREA":" ","LANE":" ","ALLEY":" ","HOUSE_NO":"１８８號七樓之３３","E_COORD97":164673.29000000001,"N_COORD97":2543361.6800000002,"ADDRESS":"郡平路１８８號七樓之３３","OBJECTID":636878},"geometry":{"x":164673.29000000004,"y":2543361.6800000034}},{"attributes":{"ID":636906,"DIS_CODE":0,"TOWNNAME":"安平區","LI":"育平里","LIN":"19鄰","STREET":"郡平路","SECT":" ","MAREA":" ","LANE":" ","ALLEY":" ","HOUSE_NO":"１８８號七樓之３４","E_COORD97":164673.29000000001,"N_COORD97":2543361.6800000002,"ADDRESS":"郡平路１８８號七樓之３４","OBJECTID":636879},"geometry":{"x":164673.29000000004,"y":2543361.6800000034}},{"attributes":{"ID":636907,"DIS_CODE":0,"TOWNNAME":"安平區","LI":"平通里","LIN":"16鄰","STREET":"國平路","SECT":" ","MAREA":" ","LANE":" ","ALLEY":" ","HOUSE_NO":"３８７號四樓之８","E_COORD97":165039.04000000001,"N_COORD97":2543846.9900000002,"ADDRESS":"國平路３８７號四樓之８","OBJECTID":636880},"geometry":{"x":165039.04000000004,"y":2543846.9900000002}},{"attributes":{"ID":636908,"DIS_CODE":0,"TOWNNAME":"安平區","LI":"平通里","LIN":"16鄰","STREET":"國平路","SECT":" ","MAREA":" ","LANE":" ","ALLEY":" ","HOUSE_NO":"３８７號四樓之９","E_COORD97":165039.04000000001,"N_COORD97":2543846.9900000002,"ADDRESS":"國平路３８７號四樓之９","OBJECTID":636881},"geometry":{"x":165039.04000000004,"y":2543846.9900000002}},{"attributes":{"ID":636909,"DIS_CODE":0,"TOWNNAME":"安平區","LI":"育平里","LIN":"19鄰","STREET":"郡平路","SECT":" ","MAREA":" ","LANE":" ","ALLEY":" ","HOUSE_NO":"１８８號七樓之３５","E_COORD97":164673.29000000001,"N_COORD97":2543361.6800000002,"ADDRESS":"郡平路１８８號七樓之３５","OBJECTID":636882},"geometry":{"x":164673.29000000004,"y":2543361.6800000034}},{"attributes":{"ID":636910,"DIS_CODE":0,"TOWNNAME":"安平區","LI":"育平里","LIN":"19鄰","STREET":"郡平路","SECT":" ","MAREA":" ","LANE":" ","ALLEY":" ","HOUSE_NO":"１８８號七樓之３６","E_COORD97":164673.29000000001,"N_COORD97":2543361.6800000002,"ADDRESS":"郡平路１８８號七樓之３６","OBJECTID":636883},"geometry":{"x":164673.29000000004,"y":2543361.6800000034}},{"attributes":{"ID":636911,"DIS_CODE":0,"TOWNNAME":"安平區","LI":"育平里","LIN":"19鄰","STREET":"郡平路","SECT":" ","MAREA":" ","LANE":" ","ALLEY":" ","HOUSE_NO":"１８８號九樓之２９","E_COORD97":164673.29000000001,"N_COORD97":2543361.6800000002,"ADDRESS":"郡平路１８８號九樓之２９","OBJECTID":636884},"geometry":{"x":164673.29000000004,"y":2543361.6800000034}},{"attributes":{"ID":636912,"DIS_CODE":0,"TOWNNAME":"安平區","LI":"育平里","LIN":"19鄰","STREET":"郡平路","SECT":" ","MAREA":" ","LANE":" ","ALLEY":" ","HOUSE_NO":"１８８號九樓之３０","E_COORD97":164673.29000000001,"N_COORD97":2543361.6800000002,"ADDRESS":"郡平路１８８號九樓之３０","OBJECTID":636885},"geometry":{"x":164673.29000000004,"y":2543361.6800000034}},{"attributes":{"ID":636913,"DIS_CODE":0,"TOWNNAME":"安平區","LI":"育平里","LIN":"19鄰","STREET":"郡平路","SECT":" ","MAREA":" ","LANE":" ","ALLEY":" ","HOUSE_NO":"１８８號九樓之３１","E_COORD97":164673.29000000001,"N_COORD97":2543361.6800000002,"ADDRESS":"郡平路１８８號九樓之３１","OBJECTID":636886},"geometry":{"x":164673.29000000004,"y":2543361.6800000034}},{"attributes":{"ID":636914,"DIS_CODE":0,"TOWNNAME":"安平區","LI":"育平里","LIN":"19鄰","STREET":"郡平路","SECT":" ","MAREA":" ","LANE":" ","ALLEY":" ","HOUSE_NO":"１８８號九樓之３２","E_COORD97":164673.29000000001,"N_COORD97":2543361.6800000002,"ADDRESS":"郡平路１８８號九樓之３２","OBJECTID":636887},"geometry":{"x":164673.29000000004,"y":2543361.6800000034}},{"attributes":{"ID":636915,"DIS_CODE":0,"TOWNNAME":"安平區","LI":"育平里","LIN":"19鄰","STREET":"郡平路","SECT":" ","MAREA":" ","LANE":" ","ALLEY":" ","HOUSE_NO":"１８８號十七樓之２９","E_COORD97":164673.29000000001,"N_COORD97":2543361.6800000002,"ADDRESS":"郡平路１８８號十七樓之２９","OBJECTID":636888},"geometry":{"x":164673.29000000004,"y":2543361.6800000034}},{"attributes":{"ID":636916,"DIS_CODE":0,"TOWNNAME":"安平區","LI":"育平里","LIN":"19鄰","STREET":"郡平路","SECT":" ","MAREA":" ","LANE":" ","ALLEY":" ","HOUSE_NO":"１８８號十七樓之３０","E_COORD97":164673.29000000001,"N_COORD97":2543361.6800000002,"ADDRESS":"郡平路１８８號十七樓之３０","OBJECTID":636889},"geometry":{"x":164673.29000000004,"y":2543361.6800000034}},{"attributes":{"ID":636917,"DIS_CODE":0,"TOWNNAME":"安平區","LI":"育平里","LIN":"19鄰","STREET":"郡平路","SECT":" ","MAREA":" ","LANE":" ","ALLEY":" ","HOUSE_NO":"１８８號十二樓之１９","E_COORD97":164673.29000000001,"N_COORD97":2543361.6800000002,"ADDRESS":"郡平路１８８號十二樓之１９","OBJECTID":636890},"geometry":{"x":164673.29000000004,"y":2543361.6800000034}},{"attributes":{"ID":636918,"DIS_CODE":0,"TOWNNAME":"安平區","LI":"育平里","LIN":"19鄰","STREET":"郡平路","SECT":" ","MAREA":" ","LANE":" ","ALLEY":" ","HOUSE_NO":"１８８號十二樓之２６","E_COORD97":164673.29000000001,"N_COORD97":2543361.6800000002,"ADDRESS":"郡平路１８８號十二樓之２６","OBJECTID":636891},"geometry":{"x":164673.29000000004,"y":2543361.6800000034}},{"attributes":{"ID":636919,"DIS_CODE":0,"TOWNNAME":"安平區","LI":"育平里","LIN":"19鄰","STREET":"郡平路","SECT":" ","MAREA":" ","LANE":" ","ALLEY":" ","HOUSE_NO":"１８８號十二樓之２７","E_COORD97":164673.29000000001,"N_COORD97":2543361.6800000002,"ADDRESS":"郡平路１８８號十二樓之２７","OBJECTID":636892},"geometry":{"x":164673.29000000004,"y":2543361.6800000034}},{"attributes":{"ID":636920,"DIS_CODE":0,"TOWNNAME":"安平區","LI":"育平里","LIN":"19鄰","STREET":"郡平路","SECT":" ","MAREA":" ","LANE":" ","ALLEY":" ","HOUSE_NO":"１８８號十二樓之２８","E_COORD97":164673.29000000001,"N_COORD97":2543361.6800000002,"ADDRESS":"郡平路１８８號十二樓之２８","OBJECTID":636893},"geometry":{"x":164673.29000000004,"y":2543361.6800000034}},{"attributes":{"ID":636921,"DIS_CODE":0,"TOWNNAME":"安平區","LI":"平通里","LIN":"24鄰","STREET":"育平八街","SECT":" ","MAREA":" ","LANE":" ","ALLEY":" ","HOUSE_NO":"３２號六樓之５","E_COORD97":164499.09,"N_COORD97":2543941.6299999999,"ADDRESS":"育平八街３２號六樓之５","OBJECTID":636894},"geometry":{"x":164499.09000000078,"y":2543941.6300000008}},{"attributes":{"ID":636922,"DIS_CODE":0,"TOWNNAME":"安平區","LI":"育平里","LIN":"19鄰","STREET":"郡平路","SECT":" ","MAREA":" ","LANE":" ","ALLEY":" ","HOUSE_NO":"１８８號六樓之２８","E_COORD97":164673.29000000001,"N_COORD97":2543361.6800000002,"ADDRESS":"郡平路１８８號六樓之２８","OBJECTID":636895},"geometry":{"x":164673.29000000004,"y":2543361.6800000034}},{"attributes":{"ID":636923,"DIS_CODE":0,"TOWNNAME":"安平區","LI":"育平里","LIN":"19鄰","STREET":"郡平路","SECT":" ","MAREA":" ","LANE":" ","ALLEY":" ","HOUSE_NO":"１８８號六樓之２９","E_COORD97":164673.29000000001,"N_COORD97":2543361.6800000002,"ADDRESS":"郡平路１８８號六樓之２９","OBJECTID":636896},"geometry":{"x":164673.29000000004,"y":2543361.6800000034}},{"attributes":{"ID":636924,"DIS_CODE":0,"TOWNNAME":"安平區","LI":"育平里","LIN":"19鄰","STREET":"郡平路","SECT":" ","MAREA":" ","LANE":" ","ALLEY":" ","HOUSE_NO":"１８８號六樓之３０","E_COORD97":164673.29000000001,"N_COORD97":2543361.6800000002,"ADDRESS":"郡平路１８８號六樓之３０","OBJECTID":636897},"geometry":{"x":164673.29000000004,"y":2543361.6800000034}},{"attributes":{"ID":636925,"DIS_CODE":0,"TOWNNAME":"安平區","LI":"育平里","LIN":"19鄰","STREET":"郡平路","SECT":" ","MAREA":" ","LANE":" ","ALLEY":" ","HOUSE_NO":"１８８號四樓之２６","E_COORD97":164673.29000000001,"N_COORD97":2543361.6800000002,"ADDRESS":"郡平路１８８號四樓之２６","OBJECTID":636898},"geometry":{"x":164673.29000000004,"y":2543361.6800000034}},{"attributes":{"ID":636926,"DIS_CODE":0,"TOWNNAME":"安平區","LI":"育平里","LIN":"19鄰","STREET":"郡平路","SECT":" ","MAREA":" ","LANE":" ","ALLEY":" ","HOUSE_NO":"１８８號四樓之２７","E_COORD97":164673.29000000001,"N_COORD97":2543361.6800000002,"ADDRESS":"郡平路１８８號四樓之２７","OBJECTID":636899},"geometry":{"x":164673.29000000004,"y":2543361.6800000034}},{"attributes":{"ID":636927,"DIS_CODE":0,"TOWNNAME":"安平區","LI":"育平里","LIN":"19鄰","STREET":"郡平路","SECT":" ","MAREA":" ","LANE":" ","ALLEY":" ","HOUSE_NO":"１８８號四樓之２８","E_COORD97":164673.29000000001,"N_COORD97":2543361.6800000002,"ADDRESS":"郡平路１８８號四樓之２８","OBJECTID":636900},"geometry":{"x":164673.29000000004,"y":2543361.6800000034}},{"attributes":{"ID":636928,"DIS_CODE":0,"TOWNNAME":"安平區","LI":"育平里","LIN":"19鄰","STREET":"郡平路","SECT":" ","MAREA":" ","LANE":" ","ALLEY":" ","HOUSE_NO":"１８８號四樓之２９","E_COORD97":164673.29000000001,"N_COORD97":2543361.6800000002,"ADDRESS":"郡平路１８８號四樓之２９","OBJECTID":636901},"geometry":{"x":164673.29000000004,"y":2543361.6800000034}},{"attributes":{"ID":636929,"DIS_CODE":0,"TOWNNAME":"安平區","LI":"育平里","LIN":"19鄰","STREET":"郡平路","SECT":" ","MAREA":" ","LANE":" ","ALLEY":" ","HOUSE_NO":"１８８號八樓之２３","E_COORD97":164673.29000000001,"N_COORD97":2543361.6800000002,"ADDRESS":"郡平路１８８號八樓之２３","OBJECTID":636902},"geometry":{"x":164673.29000000004,"y":2543361.6800000034}},{"attributes":{"ID":636930,"DIS_CODE":0,"TOWNNAME":"安平區","LI":"育平里","LIN":"19鄰","STREET":"郡平路","SECT":" ","MAREA":" ","LANE":" ","ALLEY":" ","HOUSE_NO":"１８８號八樓之２４","E_COORD97":164673.29000000001,"N_COORD97":2543361.6800000002,"ADDRESS":"郡平路１８８號八樓之２４","OBJECTID":636903},"geometry":{"x":164673.29000000004,"y":2543361.6800000034}},{"attributes":{"ID":636931,"DIS_CODE":0,"TOWNNAME":"安平區","LI":"育平里","LIN":"19鄰","STREET":"郡平路","SECT":" ","MAREA":" ","LANE":" ","ALLEY":" ","HOUSE_NO":"１８８號八樓之２５","E_COORD97":164673.29000000001,"N_COORD97":2543361.6800000002,"ADDRESS":"郡平路１８８號八樓之２５","OBJECTID":636904},"geometry":{"x":164673.29000000004,"y":2543361.6800000034}},{"attributes":{"ID":636932,"DIS_CODE":0,"TOWNNAME":"安平區","LI":"育平里","LIN":"19鄰","STREET":"郡平路","SECT":" ","MAREA":" ","LANE":" ","ALLEY":" ","HOUSE_NO":"１８８號十七樓之２３","E_COORD97":164673.29000000001,"N_COORD97":2543361.6800000002,"ADDRESS":"郡平路１８８號十七樓之２３","OBJECTID":636905},"geometry":{"x":164673.29000000004,"y":2543361.6800000034}},{"attributes":{"ID":636933,"DIS_CODE":0,"TOWNNAME":"安平區","LI":"育平里","LIN":"19鄰","STREET":"郡平路","SECT":" ","MAREA":" ","LANE":" ","ALLEY":" ","HOUSE_NO":"１８８號十七樓之２４","E_COORD97":164673.29000000001,"N_COORD97":2543361.6800000002,"ADDRESS":"郡平路１８８號十七樓之２４","OBJECTID":636906},"geometry":{"x":164673.29000000004,"y":2543361.6800000034}},{"attributes":{"ID":636934,"DIS_CODE":0,"TOWNNAME":"安平區","LI":"育平里","LIN":"19鄰","STREET":"郡平路","SECT":" ","MAREA":" ","LANE":" ","ALLEY":" ","HOUSE_NO":"１８８號十七樓之２５","E_COORD97":164673.29000000001,"N_COORD97":2543361.6800000002,"ADDRESS":"郡平路１８８號十七樓之２５","OBJECTID":636907},"geometry":{"x":164673.29000000004,"y":2543361.6800000034}},{"attributes":{"ID":636935,"DIS_CODE":0,"TOWNNAME":"安平區","LI":"育平里","LIN":"19鄰","STREET":"郡平路","SECT":" ","MAREA":" ","LANE":" ","ALLEY":" ","HOUSE_NO":"１８８號十二樓之２３","E_COORD97":164673.29000000001,"N_COORD97":2543361.6800000002,"ADDRESS":"郡平路１８８號十二樓之２３","OBJECTID":636908},"geometry":{"x":164673.29000000004,"y":2543361.6800000034}},{"attributes":{"ID":636936,"DIS_CODE":0,"TOWNNAME":"安平區","LI":"育平里","LIN":"19鄰","STREET":"郡平路","SECT":" ","MAREA":" ","LANE":" ","ALLEY":" ","HOUSE_NO":"１８８號十二樓之２４","E_COORD97":164673.29000000001,"N_COORD97":2543361.6800000002,"ADDRESS":"郡平路１８８號十二樓之２４","OBJECTID":636909},"geometry":{"x":164673.29000000004,"y":2543361.6800000034}},{"attributes":{"ID":636937,"DIS_CODE":0,"TOWNNAME":"安平區","LI":"育平里","LIN":"19鄰","STREET":"郡平路","SECT":" ","MAREA":" ","LANE":" ","ALLEY":" ","HOUSE_NO":"１８８號十二樓之２５","E_COORD97":164673.29000000001,"N_COORD97":2543361.6800000002,"ADDRESS":"郡平路１８８號十二樓之２５","OBJECTID":636910},"geometry":{"x":164673.29000000004,"y":2543361.6800000034}},{"attributes":{"ID":636938,"DIS_CODE":0,"TOWNNAME":"安平區","LI":"育平里","LIN":"19鄰","STREET":"郡平路","SECT":" ","MAREA":" ","LANE":" ","ALLEY":" ","HOUSE_NO":"１８８號十六樓之２３","E_COORD97":164673.29000000001,"N_COORD97":2543361.6800000002,"ADDRESS":"郡平路１８８號十六樓之２３","OBJECTID":636911},"geometry":{"x":164673.29000000004,"y":2543361.6800000034}},{"attributes":{"ID":636939,"DIS_CODE":0,"TOWNNAME":"安平區","LI":"育平里","LIN":"19鄰","STREET":"郡平路","SECT":" ","MAREA":" ","LANE":" ","ALLEY":" ","HOUSE_NO":"１８８號十六樓之２４","E_COORD97":164673.29000000001,"N_COORD97":2543361.6800000002,"ADDRESS":"郡平路１８８號十六樓之２４","OBJECTID":636912},"geometry":{"x":164673.29000000004,"y":2543361.6800000034}},{"attributes":{"ID":636940,"DIS_CODE":0,"TOWNNAME":"安平區","LI":"育平里","LIN":"19鄰","STREET":"郡平路","SECT":" ","MAREA":" ","LANE":" ","ALLEY":" ","HOUSE_NO":"１８８號十六樓之２５","E_COORD97":164673.29000000001,"N_COORD97":2543361.6800000002,"ADDRESS":"郡平路１８８號十六樓之２５","OBJECTID":636913},"geometry":{"x":164673.29000000004,"y":2543361.6800000034}},{"attributes":{"ID":636941,"DIS_CODE":0,"TOWNNAME":"安平區","LI":"育平里","LIN":"19鄰","STREET":"郡平路","SECT":" ","MAREA":" ","LANE":" ","ALLEY":" ","HOUSE_NO":"１８８號十四樓之２３","E_COORD97":164673.29000000001,"N_COORD97":2543361.6800000002,"ADDRESS":"郡平路１８８號十四樓之２３","OBJECTID":636914},"geometry":{"x":164673.29000000004,"y":2543361.6800000034}},{"attributes":{"ID":636942,"DIS_CODE":0,"TOWNNAME":"安平區","LI":"育平里","LIN":"19鄰","STREET":"郡平路","SECT":" ","MAREA":" ","LANE":" ","ALLEY":" ","HOUSE_NO":"１８８號十四樓之２４","E_COORD97":164673.29000000001,"N_COORD97":2543361.6800000002,"ADDRESS":"郡平路１８８號十四樓之２４","OBJECTID":636915},"geometry":{"x":164673.29000000004,"y":2543361.6800000034}},{"attributes":{"ID":636943,"DIS_CODE":0,"TOWNNAME":"安平區","LI":"育平里","LIN":"19鄰","STREET":"郡平路","SECT":" ","MAREA":" ","LANE":" ","ALLEY":" ","HOUSE_NO":"１８８號十四樓之２５","E_COORD97":164673.29000000001,"N_COORD97":2543361.6800000002,"ADDRESS":"郡平路１８８號十四樓之２５","OBJECTID":636916},"geometry":{"x":164673.29000000004,"y":2543361.6800000034}},{"attributes":{"ID":636944,"DIS_CODE":0,"TOWNNAME":"安平區","LI":"育平里","LIN":"19鄰","STREET":"郡平路","SECT":" ","MAREA":" ","LANE":" ","ALLEY":" ","HOUSE_NO":"１８８號十樓之２３","E_COORD97":164673.29000000001,"N_COORD97":2543361.6800000002,"ADDRESS":"郡平路１８８號十樓之２３","OBJECTID":636917},"geometry":{"x":164673.29000000004,"y":2543361.6800000034}},{"attributes":{"ID":636945,"DIS_CODE":0,"TOWNNAME":"安平區","LI":"育平里","LIN":"19鄰","STREET":"郡平路","SECT":" ","MAREA":" ","LANE":" ","ALLEY":" ","HOUSE_NO":"１８８號十樓之２４","E_COORD97":164673.29000000001,"N_COORD97":2543361.6800000002,"ADDRESS":"郡平路１８８號十樓之２４","OBJECTID":636918},"geometry":{"x":164673.29000000004,"y":2543361.6800000034}},{"attributes":{"ID":636946,"DIS_CODE":0,"TOWNNAME":"安平區","LI":"育平里","LIN":"19鄰","STREET":"郡平路","SECT":" ","MAREA":" ","LANE":" ","ALLEY":" ","HOUSE_NO":"１８８號十樓之２５","E_COORD97":164673.29000000001,"N_COORD97":2543361.6800000002,"ADDRESS":"郡平路１８８號十樓之２５","OBJECTID":636919},"geometry":{"x":164673.29000000004,"y":2543361.6800000034}},{"attributes":{"ID":636947,"DIS_CODE":0,"TOWNNAME":"安平區","LI":"育平里","LIN":"22鄰","STREET":"郡平路","SECT":" ","MAREA":" ","LANE":" ","ALLEY":" ","HOUSE_NO":"１８８號三樓之１","E_COORD97":164673.29000000001,"N_COORD97":2543361.6800000002,"ADDRESS":"郡平路１８８號三樓之１","OBJECTID":636920},"geometry":{"x":164673.29000000004,"y":2543361.6800000034}},{"attributes":{"ID":636948,"DIS_CODE":0,"TOWNNAME":"安平區","LI":"育平里","LIN":"22鄰","STREET":"郡平路","SECT":" ","MAREA":" ","LANE":" ","ALLEY":" ","HOUSE_NO":"１８８號三樓之２","E_COORD97":164673.29000000001,"N_COORD97":2543361.6800000002,"ADDRESS":"郡平路１８８號三樓之２","OBJECTID":636921},"geometry":{"x":164673.29000000004,"y":2543361.6800000034}},{"attributes":{"ID":636949,"DIS_CODE":0,"TOWNNAME":"安平區","LI":"育平里","LIN":"19鄰","STREET":"郡平路","SECT":" ","MAREA":" ","LANE":" ","ALLEY":" ","HOUSE_NO":"１８８號六樓之２３","E_COORD97":164673.29000000001,"N_COORD97":2543361.6800000002,"ADDRESS":"郡平路１８８號六樓之２３","OBJECTID":636922},"geometry":{"x":164673.29000000004,"y":2543361.6800000034}},{"attributes":{"ID":636950,"DIS_CODE":0,"TOWNNAME":"安平區","LI":"育平里","LIN":"19鄰","STREET":"郡平路","SECT":" ","MAREA":" ","LANE":" ","ALLEY":" ","HOUSE_NO":"１８８號六樓之２４","E_COORD97":164673.29000000001,"N_COORD97":2543361.6800000002,"ADDRESS":"郡平路１８８號六樓之２４","OBJECTID":636923},"geometry":{"x":164673.29000000004,"y":2543361.6800000034}},{"attributes":{"ID":636951,"DIS_CODE":0,"TOWNNAME":"安平區","LI":"育平里","LIN":"19鄰","STREET":"郡平路","SECT":" ","MAREA":" ","LANE":" ","ALLEY":" ","HOUSE_NO":"１８８號六樓之２５","E_COORD97":164673.29000000001,"N_COORD97":2543361.6800000002,"ADDRESS":"郡平路１８８號六樓之２５","OBJECTID":636924},"geometry":{"x":164673.29000000004,"y":2543361.6800000034}},{"attributes":{"ID":636952,"DIS_CODE":0,"TOWNNAME":"東區","LI":"崇文里","LIN":"8鄰","STREET":"崇善路","SECT":" ","MAREA":" ","LANE":" ","ALLEY":" ","HOUSE_NO":"６１２號","E_COORD97":171124.70000000001,"N_COORD97":2541079.6299999999,"ADDRESS":"崇善路６１２號","OBJECTID":636925},"geometry":{"x":171124.70000000112,"y":2541079.6300000027}},{"attributes":{"ID":636953,"DIS_CODE":0,"TOWNNAME":"南區","LI":"金華里","LIN":"6鄰","STREET":"聖南街","SECT":" ","MAREA":" ","LANE":" ","ALLEY":" ","HOUSE_NO":"４６號五樓之３","E_COORD97":167008.76000000001,"N_COORD97":2542292.3300000001,"ADDRESS":"聖南街４６號五樓之３","OBJECTID":636926},"geometry":{"x":167008.75999999978,"y":2542292.3300000001}},{"attributes":{"ID":636954,"DIS_CODE":0,"TOWNNAME":"安平區","LI":"育平里","LIN":"19鄰","STREET":"郡平路","SECT":" ","MAREA":" ","LANE":" ","ALLEY":" ","HOUSE_NO":"１８８號四樓之２２","E_COORD97":164673.29000000001,"N_COORD97":2543361.6800000002,"ADDRESS":"郡平路１８８號四樓之２２","OBJECTID":636927},"geometry":{"x":164673.29000000004,"y":2543361.6800000034}},{"attributes":{"ID":636955,"DIS_CODE":0,"TOWNNAME":"安平區","LI":"育平里","LIN":"19鄰","STREET":"郡平路","SECT":" ","MAREA":" ","LANE":" ","ALLEY":" ","HOUSE_NO":"１８８號四樓之２３","E_COORD97":164673.29000000001,"N_COORD97":2543361.6800000002,"ADDRESS":"郡平路１８８號四樓之２３","OBJECTID":636928},"geometry":{"x":164673.29000000004,"y":2543361.6800000034}},{"attributes":{"ID":636956,"DIS_CODE":0,"TOWNNAME":"安平區","LI":"育平里","LIN":"19鄰","STREET":"郡平路","SECT":" ","MAREA":" ","LANE":" ","ALLEY":" ","HOUSE_NO":"１８８號四樓之２４","E_COORD97":164673.29000000001,"N_COORD97":2543361.6800000002,"ADDRESS":"郡平路１８８號四樓之２４","OBJECTID":636929},"geometry":{"x":164673.29000000004,"y":2543361.6800000034}},{"attributes":{"ID":636957,"DIS_CODE":0,"TOWNNAME":"安平區","LI":"育平里","LIN":"19鄰","STREET":"郡平路","SECT":" ","MAREA":" ","LANE":" ","ALLEY":" ","HOUSE_NO":"１８８號四樓之２５","E_COORD97":164673.29000000001,"N_COORD97":2543361.6800000002,"ADDRESS":"郡平路１８８號四樓之２５","OBJECTID":636930},"geometry":{"x":164673.29000000004,"y":2543361.6800000034}},{"attributes":{"ID":636958,"DIS_CODE":0,"TOWNNAME":"安平區","LI":"育平里","LIN":"21鄰","STREET":"郡平路","SECT":" ","MAREA":" ","LANE":" ","ALLEY":" ","HOUSE_NO":"１８８號七樓之１","E_COORD97":164673.29000000001,"N_COORD97":2543361.6800000002,"ADDRESS":"郡平路１８８號七樓之１","OBJECTID":636931},"geometry":{"x":164673.29000000004,"y":2543361.6800000034}},{"attributes":{"ID":636959,"DIS_CODE":0,"TOWNNAME":"安平區","LI":"育平里","LIN":"21鄰","STREET":"郡平路","SECT":" ","MAREA":" ","LANE":" ","ALLEY":" ","HOUSE_NO":"１８８號七樓之２","E_COORD97":164673.29000000001,"N_COORD97":2543361.6800000002,"ADDRESS":"郡平路１８８號七樓之２","OBJECTID":636932},"geometry":{"x":164673.29000000004,"y":2543361.6800000034}},{"attributes":{"ID":636960,"DIS_CODE":0,"TOWNNAME":"安平區","LI":"平安里","LIN":"4鄰","STREET":"安平路","SECT":" ","MAREA":" ","LANE":" ","ALLEY":" ","HOUSE_NO":"１２６號一樓之１","E_COORD97":166271.01999999999,"N_COORD97":2544359.0299999998,"ADDRESS":"安平路１２６號一樓之１","OBJECTID":636933},"geometry":{"x":166271.01999999955,"y":2544359.0300000031}},{"attributes":{"ID":636961,"DIS_CODE":0,"TOWNNAME":"安平區","LI":"平安里","LIN":"4鄰","STREET":"安平路","SECT":" ","MAREA":" ","LANE":" ","ALLEY":" ","HOUSE_NO":"１２６號一樓之２","E_COORD97":166271.01999999999,"N_COORD97":2544359.0299999998,"ADDRESS":"安平路１２６號一樓之２","OBJECTID":636934},"geometry":{"x":166271.01999999955,"y":2544359.0300000031}},{"attributes":{"ID":636962,"DIS_CODE":0,"TOWNNAME":"安平區","LI":"平安里","LIN":"4鄰","STREET":"安平路","SECT":" ","MAREA":" ","LANE":" ","ALLEY":" ","HOUSE_NO":"１２６號一樓之３","E_COORD97":166271.01999999999,"N_COORD97":2544359.0299999998,"ADDRESS":"安平路１２６號一樓之３","OBJECTID":636935},"geometry":{"x":166271.01999999955,"y":2544359.0300000031}},{"attributes":{"ID":636963,"DIS_CODE":0,"TOWNNAME":"安平區","LI":"國平里","LIN":"18鄰","STREET":"永華路","SECT":"二段","MAREA":" ","LANE":" ","ALLEY":" ","HOUSE_NO":"７８５號二樓","E_COORD97":164919.34,"N_COORD97":2543528.3999999999,"ADDRESS":"永華路二段７８５號二樓","OBJECTID":636936},"geometry":{"x":164919.34000000078,"y":2543528.4000000022}},{"attributes":{"ID":636964,"DIS_CODE":0,"TOWNNAME":"安平區","LI":"國平里","LIN":"18鄰","STREET":"永華路","SECT":"二段","MAREA":" ","LANE":" ","ALLEY":" ","HOUSE_NO":"７８７號之１二樓","E_COORD97":164904.37,"N_COORD97":2543530.8100000001,"ADDRESS":"永華路二段７８７號之１二樓","OBJECTID":636937},"geometry":{"x":164904.37000000104,"y":2543530.8100000005}},{"attributes":{"ID":636965,"DIS_CODE":0,"TOWNNAME":"安平區","LI":"育平里","LIN":"26鄰","STREET":"郡平路","SECT":" ","MAREA":" ","LANE":" ","ALLEY":" ","HOUSE_NO":"１８１號七樓之２０","E_COORD97":164638.45000000001,"N_COORD97":2543300.3100000001,"ADDRESS":"郡平路１８１號七樓之２０","OBJECTID":636938},"geometry":{"x":164638.45000000019,"y":2543300.3099999987}},{"attributes":{"ID":636966,"DIS_CODE":0,"TOWNNAME":"安平區","LI":"育平里","LIN":"26鄰","STREET":"郡平路","SECT":" ","MAREA":" ","LANE":" ","ALLEY":" ","HOUSE_NO":"１８１號七樓之２１","E_COORD97":164638.45000000001,"N_COORD97":2543300.3100000001,"ADDRESS":"郡平路１８１號七樓之２１","OBJECTID":636939},"geometry":{"x":164638.45000000019,"y":2543300.3099999987}},{"attributes":{"ID":636967,"DIS_CODE":0,"TOWNNAME":"安平區","LI":"育平里","LIN":"25鄰","STREET":"郡平路","SECT":" ","MAREA":" ","LANE":" ","ALLEY":" ","HOUSE_NO":"１８１號七樓之１０","E_COORD97":164638.45000000001,"N_COORD97":2543300.3100000001,"ADDRESS":"郡平路１８１號七樓之１０","OBJECTID":636940},"geometry":{"x":164638.45000000019,"y":2543300.3099999987}},{"attributes":{"ID":636968,"DIS_CODE":0,"TOWNNAME":"安平區","LI":"育平里","LIN":"25鄰","STREET":"郡平路","SECT":" ","MAREA":" ","LANE":" ","ALLEY":" ","HOUSE_NO":"１８１號七樓之１１","E_COORD97":164638.45000000001,"N_COORD97":2543300.3100000001,"ADDRESS":"郡平路１８１號七樓之１１","OBJECTID":636941},"geometry":{"x":164638.45000000019,"y":2543300.3099999987}},{"attributes":{"ID":636969,"DIS_CODE":0,"TOWNNAME":"安平區","LI":"育平里","LIN":"25鄰","STREET":"郡平路","SECT":" ","MAREA":" ","LANE":" ","ALLEY":" ","HOUSE_NO":"１８１號七樓之１２","E_COORD97":164638.45000000001,"N_COORD97":2543300.3100000001,"ADDRESS":"郡平路１８１號七樓之１２","OBJECTID":636942},"geometry":{"x":164638.45000000019,"y":2543300.3099999987}},{"attributes":{"ID":636970,"DIS_CODE":0,"TOWNNAME":"安平區","LI":"育平里","LIN":"25鄰","STREET":"郡平路","SECT":" ","MAREA":" ","LANE":" ","ALLEY":" ","HOUSE_NO":"１８１號七樓之１３","E_COORD97":164638.45000000001,"N_COORD97":2543300.3100000001,"ADDRESS":"郡平路１８１號七樓之１３","OBJECTID":636943},"geometry":{"x":164638.45000000019,"y":2543300.3099999987}},{"attributes":{"ID":636971,"DIS_CODE":0,"TOWNNAME":"安平區","LI":"育平里","LIN":"25鄰","STREET":"郡平路","SECT":" ","MAREA":" ","LANE":" ","ALLEY":" ","HOUSE_NO":"１８１號七樓之１４","E_COORD97":164638.45000000001,"N_COORD97":2543300.3100000001,"ADDRESS":"郡平路１８１號七樓之１４","OBJECTID":636944},"geometry":{"x":164638.45000000019,"y":2543300.3099999987}},{"attributes":{"ID":636972,"DIS_CODE":0,"TOWNNAME":"安平區","LI":"育平里","LIN":"25鄰","STREET":"郡平路","SECT":" ","MAREA":" ","LANE":" ","ALLEY":" ","HOUSE_NO":"１８１號七樓之１５","E_COORD97":164638.45000000001,"N_COORD97":2543300.3100000001,"ADDRESS":"郡平路１８１號七樓之１５","OBJECTID":636945},"geometry":{"x":164638.45000000019,"y":2543300.3099999987}},{"attributes":{"ID":636973,"DIS_CODE":0,"TOWNNAME":"安平區","LI":"育平里","LIN":"25鄰","STREET":"郡平路","SECT":" ","MAREA":" ","LANE":" ","ALLEY":" ","HOUSE_NO":"１８１號七樓之１６","E_COORD97":164638.45000000001,"N_COORD97":2543300.3100000001,"ADDRESS":"郡平路１８１號七樓之１６","OBJECTID":636946},"geometry":{"x":164638.45000000019,"y":2543300.3099999987}},{"attributes":{"ID":636974,"DIS_CODE":0,"TOWNNAME":"安平區","LI":"育平里","LIN":"25鄰","STREET":"郡平路","SECT":" ","MAREA":" ","LANE":" ","ALLEY":" ","HOUSE_NO":"１８１號七樓之１７","E_COORD97":164638.45000000001,"N_COORD97":2543300.3100000001,"ADDRESS":"郡平路１８１號七樓之１７","OBJECTID":636947},"geometry":{"x":164638.45000000019,"y":2543300.3099999987}},{"attributes":{"ID":636975,"DIS_CODE":0,"TOWNNAME":"安平區","LI":"育平里","LIN":"25鄰","STREET":"郡平路","SECT":" ","MAREA":" ","LANE":" ","ALLEY":" ","HOUSE_NO":"１８１號七樓之１８","E_COORD97":164638.45000000001,"N_COORD97":2543300.3100000001,"ADDRESS":"郡平路１８１號七樓之１８","OBJECTID":636948},"geometry":{"x":164638.45000000019,"y":2543300.3099999987}},{"attributes":{"ID":636976,"DIS_CODE":0,"TOWNNAME":"安平區","LI":"育平里","LIN":"25鄰","STREET":"郡平路","SECT":" ","MAREA":" ","LANE":" ","ALLEY":" ","HOUSE_NO":"１８１號七樓之１９","E_COORD97":164638.45000000001,"N_COORD97":2543300.3100000001,"ADDRESS":"郡平路１８１號七樓之１９","OBJECTID":636949},"geometry":{"x":164638.45000000019,"y":2543300.3099999987}},{"attributes":{"ID":636977,"DIS_CODE":0,"TOWNNAME":"安平區","LI":"育平里","LIN":"24鄰","STREET":"郡平路","SECT":" ","MAREA":" ","LANE":" ","ALLEY":" ","HOUSE_NO":"１８１號七樓之１","E_COORD97":164638.45000000001,"N_COORD97":2543300.3100000001,"ADDRESS":"郡平路１８１號七樓之１","OBJECTID":636950},"geometry":{"x":164638.45000000019,"y":2543300.3099999987}},{"attributes":{"ID":636978,"DIS_CODE":0,"TOWNNAME":"安平區","LI":"育平里","LIN":"24鄰","STREET":"郡平路","SECT":" ","MAREA":" ","LANE":" ","ALLEY":" ","HOUSE_NO":"１８１號七樓之２","E_COORD97":164638.45000000001,"N_COORD97":2543300.3100000001,"ADDRESS":"郡平路１８１號七樓之２","OBJECTID":636951},"geometry":{"x":164638.45000000019,"y":2543300.3099999987}},{"attributes":{"ID":636979,"DIS_CODE":0,"TOWNNAME":"安平區","LI":"育平里","LIN":"25鄰","STREET":"郡平路","SECT":" ","MAREA":" ","LANE":" ","ALLEY":" ","HOUSE_NO":"１８１號九樓之１０","E_COORD97":164638.45000000001,"N_COORD97":2543300.3100000001,"ADDRESS":"郡平路１８１號九樓之１０","OBJECTID":636952},"geometry":{"x":164638.45000000019,"y":2543300.3099999987}},{"attributes":{"ID":636980,"DIS_CODE":0,"TOWNNAME":"安平區","LI":"育平里","LIN":"25鄰","STREET":"郡平路","SECT":" ","MAREA":" ","LANE":" ","ALLEY":" ","HOUSE_NO":"１８１號九樓之１１","E_COORD97":164638.45000000001,"N_COORD97":2543300.3100000001,"ADDRESS":"郡平路１８１號九樓之１１","OBJECTID":636953},"geometry":{"x":164638.45000000019,"y":2543300.3099999987}},{"attributes":{"ID":636981,"DIS_CODE":0,"TOWNNAME":"安平區","LI":"育平里","LIN":"25鄰","STREET":"郡平路","SECT":" ","MAREA":" ","LANE":" ","ALLEY":" ","HOUSE_NO":"１８１號九樓之１２","E_COORD97":164638.45000000001,"N_COORD97":2543300.3100000001,"ADDRESS":"郡平路１８１號九樓之１２","OBJECTID":636954},"geometry":{"x":164638.45000000019,"y":2543300.3099999987}},{"attributes":{"ID":636982,"DIS_CODE":0,"TOWNNAME":"安平區","LI":"育平里","LIN":"25鄰","STREET":"郡平路","SECT":" ","MAREA":" ","LANE":" ","ALLEY":" ","HOUSE_NO":"１８１號九樓之１３","E_COORD97":164638.45000000001,"N_COORD97":2543300.3100000001,"ADDRESS":"郡平路１８１號九樓之１３","OBJECTID":636955},"geometry":{"x":164638.45000000019,"y":2543300.3099999987}},{"attributes":{"ID":636983,"DIS_CODE":0,"TOWNNAME":"安平區","LI":"育平里","LIN":"25鄰","STREET":"郡平路","SECT":" ","MAREA":" ","LANE":" ","ALLEY":" ","HOUSE_NO":"１８１號九樓之１４","E_COORD97":164638.45000000001,"N_COORD97":2543300.3100000001,"ADDRESS":"郡平路１８１號九樓之１４","OBJECTID":636956},"geometry":{"x":164638.45000000019,"y":2543300.3099999987}},{"attributes":{"ID":636984,"DIS_CODE":0,"TOWNNAME":"安平區","LI":"育平里","LIN":"25鄰","STREET":"郡平路","SECT":" ","MAREA":" ","LANE":" ","ALLEY":" ","HOUSE_NO":"１８１號九樓之１５","E_COORD97":164638.45000000001,"N_COORD97":2543300.3100000001,"ADDRESS":"郡平路１８１號九樓之１５","OBJECTID":636957},"geometry":{"x":164638.45000000019,"y":2543300.3099999987}},{"attributes":{"ID":636985,"DIS_CODE":0,"TOWNNAME":"安平區","LI":"育平里","LIN":"25鄰","STREET":"郡平路","SECT":" ","MAREA":" ","LANE":" ","ALLEY":" ","HOUSE_NO":"１８１號九樓之１６","E_COORD97":164638.45000000001,"N_COORD97":2543300.3100000001,"ADDRESS":"郡平路１８１號九樓之１６","OBJECTID":636958},"geometry":{"x":164638.45000000019,"y":2543300.3099999987}},{"attributes":{"ID":636986,"DIS_CODE":0,"TOWNNAME":"佳里區","LI":"安西里","LIN":"56鄰","STREET":"佳安中街","SECT":" ","MAREA":" ","LANE":" ","ALLEY":" ","HOUSE_NO":"５０號","E_COORD97":163868.64999999999,"N_COORD97":2562296.4500000002,"ADDRESS":"佳安中街５０號","OBJECTID":636959},"geometry":{"x":163868.6500000013,"y":2562296.4499999993}},{"attributes":{"ID":636987,"DIS_CODE":0,"TOWNNAME":"安平區","LI":"育平里","LIN":"25鄰","STREET":"郡平路","SECT":" ","MAREA":" ","LANE":" ","ALLEY":" ","HOUSE_NO":"１８１號二樓之１","E_COORD97":164638.45000000001,"N_COORD97":2543300.3100000001,"ADDRESS":"郡平路１８１號二樓之１","OBJECTID":636960},"geometry":{"x":164638.45000000019,"y":2543300.3099999987}},{"attributes":{"ID":636988,"DIS_CODE":0,"TOWNNAME":"安平區","LI":"育平里","LIN":"25鄰","STREET":"郡平路","SECT":" ","MAREA":" ","LANE":" ","ALLEY":" ","HOUSE_NO":"１８１號八樓之１０","E_COORD97":164638.45000000001,"N_COORD97":2543300.3100000001,"ADDRESS":"郡平路１８１號八樓之１０","OBJECTID":636961},"geometry":{"x":164638.45000000019,"y":2543300.3099999987}},{"attributes":{"ID":636989,"DIS_CODE":0,"TOWNNAME":"安平區","LI":"育平里","LIN":"25鄰","STREET":"郡平路","SECT":" ","MAREA":" ","LANE":" ","ALLEY":" ","HOUSE_NO":"１８１號八樓之１１","E_COORD97":164638.45000000001,"N_COORD97":2543300.3100000001,"ADDRESS":"郡平路１８１號八樓之１１","OBJECTID":636962},"geometry":{"x":164638.45000000019,"y":2543300.3099999987}},{"attributes":{"ID":636990,"DIS_CODE":0,"TOWNNAME":"安平區","LI":"育平里","LIN":"25鄰","STREET":"郡平路","SECT":" ","MAREA":" ","LANE":" ","ALLEY":" ","HOUSE_NO":"１８１號八樓之１２","E_COORD97":164638.45000000001,"N_COORD97":2543300.3100000001,"ADDRESS":"郡平路１８１號八樓之１２","OBJECTID":636963},"geometry":{"x":164638.45000000019,"y":2543300.3099999987}},{"attributes":{"ID":636991,"DIS_CODE":0,"TOWNNAME":"安平區","LI":"育平里","LIN":"25鄰","STREET":"郡平路","SECT":" ","MAREA":" ","LANE":" ","ALLEY":" ","HOUSE_NO":"１８１號八樓之１３","E_COORD97":164638.45000000001,"N_COORD97":2543300.3100000001,"ADDRESS":"郡平路１８１號八樓之１３","OBJECTID":636964},"geometry":{"x":164638.45000000019,"y":2543300.3099999987}},{"attributes":{"ID":636992,"DIS_CODE":0,"TOWNNAME":"安平區","LI":"育平里","LIN":"25鄰","STREET":"郡平路","SECT":" ","MAREA":" ","LANE":" ","ALLEY":" ","HOUSE_NO":"１８１號八樓之１４","E_COORD97":164638.45000000001,"N_COORD97":2543300.3100000001,"ADDRESS":"郡平路１８１號八樓之１４","OBJECTID":636965},"geometry":{"x":164638.45000000019,"y":2543300.3099999987}},{"attributes":{"ID":636993,"DIS_CODE":0,"TOWNNAME":"安平區","LI":"育平里","LIN":"25鄰","STREET":"郡平路","SECT":" ","MAREA":" ","LANE":" ","ALLEY":" ","HOUSE_NO":"１８１號八樓之１５","E_COORD97":164638.45000000001,"N_COORD97":2543300.3100000001,"ADDRESS":"郡平路１８１號八樓之１５","OBJECTID":636966},"geometry":{"x":164638.45000000019,"y":2543300.3099999987}},{"attributes":{"ID":636994,"DIS_CODE":0,"TOWNNAME":"安平區","LI":"育平里","LIN":"25鄰","STREET":"郡平路","SECT":" ","MAREA":" ","LANE":" ","ALLEY":" ","HOUSE_NO":"１８１號八樓之１６","E_COORD97":164638.45000000001,"N_COORD97":2543300.3100000001,"ADDRESS":"郡平路１８１號八樓之１６","OBJECTID":636967},"geometry":{"x":164638.45000000019,"y":2543300.3099999987}},{"attributes":{"ID":636995,"DIS_CODE":0,"TOWNNAME":"安平區","LI":"育平里","LIN":"25鄰","STREET":"郡平路","SECT":" ","MAREA":" ","LANE":" ","ALLEY":" ","HOUSE_NO":"１８１號八樓之１７","E_COORD97":164638.45000000001,"N_COORD97":2543300.3100000001,"ADDRESS":"郡平路１８１號八樓之１７","OBJECTID":636968},"geometry":{"x":164638.45000000019,"y":2543300.3099999987}},{"attributes":{"ID":636996,"DIS_CODE":0,"TOWNNAME":"安平區","LI":"育平里","LIN":"25鄰","STREET":"郡平路","SECT":" ","MAREA":" ","LANE":" ","ALLEY":" ","HOUSE_NO":"１８１號八樓之１８","E_COORD97":164638.45000000001,"N_COORD97":2543300.3100000001,"ADDRESS":"郡平路１８１號八樓之１８","OBJECTID":636969},"geometry":{"x":164638.45000000019,"y":2543300.3099999987}},{"attributes":{"ID":636997,"DIS_CODE":0,"TOWNNAME":"安平區","LI":"育平里","LIN":"25鄰","STREET":"郡平路","SECT":" ","MAREA":" ","LANE":" ","ALLEY":" ","HOUSE_NO":"１８１號八樓之１９","E_COORD97":164638.45000000001,"N_COORD97":2543300.3100000001,"ADDRESS":"郡平路１８１號八樓之１９","OBJECTID":636970},"geometry":{"x":164638.45000000019,"y":2543300.3099999987}},{"attributes":{"ID":636998,"DIS_CODE":0,"TOWNNAME":"安平區","LI":"育平里","LIN":"25鄰","STREET":"郡平路","SECT":" ","MAREA":" ","LANE":" ","ALLEY":" ","HOUSE_NO":"１８１號十一樓之１０","E_COORD97":164638.45000000001,"N_COORD97":2543300.3100000001,"ADDRESS":"郡平路１８１號十一樓之１０","OBJECTID":636971},"geometry":{"x":164638.45000000019,"y":2543300.3099999987}},{"attributes":{"ID":636999,"DIS_CODE":0,"TOWNNAME":"安平區","LI":"育平里","LIN":"25鄰","STREET":"郡平路","SECT":" ","MAREA":" ","LANE":" ","ALLEY":" ","HOUSE_NO":"１８１號十一樓之１１","E_COORD97":164638.45000000001,"N_COORD97":2543300.3100000001,"ADDRESS":"郡平路１８１號十一樓之１１","OBJECTID":636972},"geometry":{"x":164638.45000000019,"y":2543300.3099999987}},{"attributes":{"ID":637000,"DIS_CODE":0,"TOWNNAME":"安平區","LI":"育平里","LIN":"25鄰","STREET":"郡平路","SECT":" ","MAREA":" ","LANE":" ","ALLEY":" ","HOUSE_NO":"１８１號十一樓之１２","E_COORD97":164638.45000000001,"N_COORD97":2543300.3100000001,"ADDRESS":"郡平路１８１號十一樓之１２","OBJECTID":636973},"geometry":{"x":164638.45000000019,"y":2543300.3099999987}},{"attributes":{"ID":637001,"DIS_CODE":0,"TOWNNAME":"安平區","LI":"育平里","LIN":"25鄰","STREET":"郡平路","SECT":" ","MAREA":" ","LANE":" ","ALLEY":" ","HOUSE_NO":"１８１號十一樓之１３","E_COORD97":164638.45000000001,"N_COORD97":2543300.3100000001,"ADDRESS":"郡平路１８１號十一樓之１３","OBJECTID":636974},"geometry":{"x":164638.45000000019,"y":2543300.3099999987}},{"attributes":{"ID":637002,"DIS_CODE":0,"TOWNNAME":"安平區","LI":"育平里","LIN":"25鄰","STREET":"郡平路","SECT":" ","MAREA":" ","LANE":" ","ALLEY":" ","HOUSE_NO":"１８１號十一樓之１４","E_COORD97":164638.45000000001,"N_COORD97":2543300.3100000001,"ADDRESS":"郡平路１８１號十一樓之１４","OBJECTID":636975},"geometry":{"x":164638.45000000019,"y":2543300.3099999987}},{"attributes":{"ID":637003,"DIS_CODE":0,"TOWNNAME":"安平區","LI":"育平里","LIN":"25鄰","STREET":"郡平路","SECT":" ","MAREA":" ","LANE":" ","ALLEY":" ","HOUSE_NO":"１８１號十一樓之１５","E_COORD97":164638.45000000001,"N_COORD97":2543300.3100000001,"ADDRESS":"郡平路１８１號十一樓之１５","OBJECTID":636976},"geometry":{"x":164638.45000000019,"y":2543300.3099999987}},{"attributes":{"ID":637004,"DIS_CODE":0,"TOWNNAME":"安平區","LI":"育平里","LIN":"26鄰","STREET":"郡平路","SECT":" ","MAREA":" ","LANE":" ","ALLEY":" ","HOUSE_NO":"１８１號十一樓之２０","E_COORD97":164638.45000000001,"N_COORD97":2543300.3100000001,"ADDRESS":"郡平路１８１號十一樓之２０","OBJECTID":636977},"geometry":{"x":164638.45000000019,"y":2543300.3099999987}},{"attributes":{"ID":637005,"DIS_CODE":0,"TOWNNAME":"安平區","LI":"育平里","LIN":"25鄰","STREET":"郡平路","SECT":" ","MAREA":" ","LANE":" ","ALLEY":" ","HOUSE_NO":"１８１號十一樓之１７","E_COORD97":164638.45000000001,"N_COORD97":2543300.3100000001,"ADDRESS":"郡平路１８１號十一樓之１７","OBJECTID":636978},"geometry":{"x":164638.45000000019,"y":2543300.3099999987}},{"attributes":{"ID":637006,"DIS_CODE":0,"TOWNNAME":"安平區","LI":"育平里","LIN":"25鄰","STREET":"郡平路","SECT":" ","MAREA":" ","LANE":" ","ALLEY":" ","HOUSE_NO":"１８１號十一樓之１８","E_COORD97":164638.45000000001,"N_COORD97":2543300.3100000001,"ADDRESS":"郡平路１８１號十一樓之１８","OBJECTID":636979},"geometry":{"x":164638.45000000019,"y":2543300.3099999987}},{"attributes":{"ID":637007,"DIS_CODE":0,"TOWNNAME":"安平區","LI":"育平里","LIN":"25鄰","STREET":"郡平路","SECT":" ","MAREA":" ","LANE":" ","ALLEY":" ","HOUSE_NO":"１８１號十一樓之１９","E_COORD97":164638.45000000001,"N_COORD97":2543300.3100000001,"ADDRESS":"郡平路１８１號十一樓之１９","OBJECTID":636980},"geometry":{"x":164638.45000000019,"y":2543300.3099999987}},{"attributes":{"ID":637008,"DIS_CODE":0,"TOWNNAME":"安平區","LI":"育平里","LIN":"25鄰","STREET":"郡平路","SECT":" ","MAREA":" ","LANE":" ","ALLEY":" ","HOUSE_NO":"１８１號十二樓之１０","E_COORD97":164638.45000000001,"N_COORD97":2543300.3100000001,"ADDRESS":"郡平路１８１號十二樓之１０","OBJECTID":636981},"geometry":{"x":164638.45000000019,"y":2543300.3099999987}},{"attributes":{"ID":637009,"DIS_CODE":0,"TOWNNAME":"安平區","LI":"育平里","LIN":"25鄰","STREET":"郡平路","SECT":" ","MAREA":" ","LANE":" ","ALLEY":" ","HOUSE_NO":"１８１號十二樓之１１","E_COORD97":164638.45000000001,"N_COORD97":2543300.3100000001,"ADDRESS":"郡平路１８１號十二樓之１１","OBJECTID":636982},"geometry":{"x":164638.45000000019,"y":2543300.3099999987}},{"attributes":{"ID":637010,"DIS_CODE":0,"TOWNNAME":"安平區","LI":"育平里","LIN":"25鄰","STREET":"郡平路","SECT":" ","MAREA":" ","LANE":" ","ALLEY":" ","HOUSE_NO":"１８１號十二樓之１２","E_COORD97":164638.45000000001,"N_COORD97":2543300.3100000001,"ADDRESS":"郡平路１８１號十二樓之１２","OBJECTID":636983},"geometry":{"x":164638.45000000019,"y":2543300.3099999987}},{"attributes":{"ID":637011,"DIS_CODE":0,"TOWNNAME":"安平區","LI":"育平里","LIN":"25鄰","STREET":"郡平路","SECT":" ","MAREA":" ","LANE":" ","ALLEY":" ","HOUSE_NO":"１８１號十二樓之１３","E_COORD97":164638.45000000001,"N_COORD97":2543300.3100000001,"ADDRESS":"郡平路１８１號十二樓之１３","OBJECTID":636984},"geometry":{"x":164638.45000000019,"y":2543300.3099999987}},{"attributes":{"ID":637012,"DIS_CODE":0,"TOWNNAME":"安平區","LI":"育平里","LIN":"24鄰","STREET":"郡平路","SECT":" ","MAREA":" ","LANE":" ","ALLEY":" ","HOUSE_NO":"１８１號十一樓之２","E_COORD97":164638.45000000001,"N_COORD97":2543300.3100000001,"ADDRESS":"郡平路１８１號十一樓之２","OBJECTID":636985},"geometry":{"x":164638.45000000019,"y":2543300.3099999987}},{"attributes":{"ID":637013,"DIS_CODE":0,"TOWNNAME":"安平區","LI":"育平里","LIN":"25鄰","STREET":"郡平路","SECT":" ","MAREA":" ","LANE":" ","ALLEY":" ","HOUSE_NO":"１８１號十二樓之１４","E_COORD97":164638.45000000001,"N_COORD97":2543300.3100000001,"ADDRESS":"郡平路１８１號十二樓之１４","OBJECTID":636986},"geometry":{"x":164638.45000000019,"y":2543300.3099999987}},{"attributes":{"ID":637014,"DIS_CODE":0,"TOWNNAME":"安平區","LI":"育平里","LIN":"25鄰","STREET":"郡平路","SECT":" ","MAREA":" ","LANE":" ","ALLEY":" ","HOUSE_NO":"１８１號十二樓之１５","E_COORD97":164638.45000000001,"N_COORD97":2543300.3100000001,"ADDRESS":"郡平路１８１號十二樓之１５","OBJECTID":636987},"geometry":{"x":164638.45000000019,"y":2543300.3099999987}},{"attributes":{"ID":637015,"DIS_CODE":0,"TOWNNAME":"安平區","LI":"育平里","LIN":"25鄰","STREET":"郡平路","SECT":" ","MAREA":" ","LANE":" ","ALLEY":" ","HOUSE_NO":"１８１號十二樓之１６","E_COORD97":164638.45000000001,"N_COORD97":2543300.3100000001,"ADDRESS":"郡平路１８１號十二樓之１６","OBJECTID":636988},"geometry":{"x":164638.45000000019,"y":2543300.3099999987}},{"attributes":{"ID":637016,"DIS_CODE":0,"TOWNNAME":"安平區","LI":"育平里","LIN":"25鄰","STREET":"郡平路","SECT":" ","MAREA":" ","LANE":" ","ALLEY":" ","HOUSE_NO":"１８１號十二樓之１７","E_COORD97":164638.45000000001,"N_COORD97":2543300.3100000001,"ADDRESS":"郡平路１８１號十二樓之１７","OBJECTID":636989},"geometry":{"x":164638.45000000019,"y":2543300.3099999987}},{"attributes":{"ID":637017,"DIS_CODE":0,"TOWNNAME":"安平區","LI":"育平里","LIN":"25鄰","STREET":"郡平路","SECT":" ","MAREA":" ","LANE":" ","ALLEY":" ","HOUSE_NO":"１８１號十二樓之１８","E_COORD97":164638.45000000001,"N_COORD97":2543300.3100000001,"ADDRESS":"郡平路１８１號十二樓之１８","OBJECTID":636990},"geometry":{"x":164638.45000000019,"y":2543300.3099999987}},{"attributes":{"ID":637018,"DIS_CODE":0,"TOWNNAME":"安平區","LI":"育平里","LIN":"25鄰","STREET":"郡平路","SECT":" ","MAREA":" ","LANE":" ","ALLEY":" ","HOUSE_NO":"１８１號十二樓之１９","E_COORD97":164638.45000000001,"N_COORD97":2543300.3100000001,"ADDRESS":"郡平路１８１號十二樓之１９","OBJECTID":636991},"geometry":{"x":164638.45000000019,"y":2543300.3099999987}},{"attributes":{"ID":637019,"DIS_CODE":0,"TOWNNAME":"安平區","LI":"育平里","LIN":"25鄰","STREET":"郡平路","SECT":" ","MAREA":" ","LANE":" ","ALLEY":" ","HOUSE_NO":"１８１號十三樓之１０","E_COORD97":164638.45000000001,"N_COORD97":2543300.3100000001,"ADDRESS":"郡平路１８１號十三樓之１０","OBJECTID":636992},"geometry":{"x":164638.45000000019,"y":2543300.3099999987}},{"attributes":{"ID":637020,"DIS_CODE":0,"TOWNNAME":"安平區","LI":"育平里","LIN":"25鄰","STREET":"郡平路","SECT":" ","MAREA":" ","LANE":" ","ALLEY":" ","HOUSE_NO":"１８１號十三樓之１１","E_COORD97":164638.45000000001,"N_COORD97":2543300.3100000001,"ADDRESS":"郡平路１８１號十三樓之１１","OBJECTID":636993},"geometry":{"x":164638.45000000019,"y":2543300.3099999987}},{"attributes":{"ID":637021,"DIS_CODE":0,"TOWNNAME":"安平區","LI":"育平里","LIN":"26鄰","STREET":"郡平路","SECT":" ","MAREA":" ","LANE":" ","ALLEY":" ","HOUSE_NO":"１８１號十三樓之２０","E_COORD97":164638.45000000001,"N_COORD97":2543300.3100000001,"ADDRESS":"郡平路１８１號十三樓之２０","OBJECTID":636994},"geometry":{"x":164638.45000000019,"y":2543300.3099999987}},{"attributes":{"ID":637022,"DIS_CODE":0,"TOWNNAME":"安平區","LI":"育平里","LIN":"26鄰","STREET":"郡平路","SECT":" ","MAREA":" ","LANE":" ","ALLEY":" ","HOUSE_NO":"１８１號十三樓之２１","E_COORD97":164638.45000000001,"N_COORD97":2543300.3100000001,"ADDRESS":"郡平路１８１號十三樓之２１","OBJECTID":636995},"geometry":{"x":164638.45000000019,"y":2543300.3099999987}},{"attributes":{"ID":637023,"DIS_CODE":0,"TOWNNAME":"安平區","LI":"育平里","LIN":"26鄰","STREET":"郡平路","SECT":" ","MAREA":" ","LANE":" ","ALLEY":" ","HOUSE_NO":"１８１號十三樓之２２","E_COORD97":164638.45000000001,"N_COORD97":2543300.3100000001,"ADDRESS":"郡平路１８１號十三樓之２２","OBJECTID":636996},"geometry":{"x":164638.45000000019,"y":2543300.3099999987}},{"attributes":{"ID":637024,"DIS_CODE":0,"TOWNNAME":"安平區","LI":"育平里","LIN":"26鄰","STREET":"郡平路","SECT":" ","MAREA":" ","LANE":" ","ALLEY":" ","HOUSE_NO":"１８１號十三樓之２３","E_COORD97":164638.45000000001,"N_COORD97":2543300.3100000001,"ADDRESS":"郡平路１８１號十三樓之２３","OBJECTID":636997},"geometry":{"x":164638.45000000019,"y":2543300.3099999987}},{"attributes":{"ID":637025,"DIS_CODE":0,"TOWNNAME":"安平區","LI":"育平里","LIN":"26鄰","STREET":"郡平路","SECT":" ","MAREA":" ","LANE":" ","ALLEY":" ","HOUSE_NO":"１８１號十三樓之２４","E_COORD97":164638.45000000001,"N_COORD97":2543300.3100000001,"ADDRESS":"郡平路１８１號十三樓之２４","OBJECTID":636998},"geometry":{"x":164638.45000000019,"y":2543300.3099999987}},{"attributes":{"ID":637026,"DIS_CODE":0,"TOWNNAME":"安平區","LI":"育平里","LIN":"26鄰","STREET":"郡平路","SECT":" ","MAREA":" ","LANE":" ","ALLEY":" ","HOUSE_NO":"１８１號十三樓之２５","E_COORD97":164638.45000000001,"N_COORD97":2543300.3100000001,"ADDRESS":"郡平路１８１號十三樓之２５","OBJECTID":636999},"geometry":{"x":164638.45000000019,"y":2543300.3099999987}},{"attributes":{"ID":637027,"DIS_CODE":0,"TOWNNAME":"安平區","LI":"育平里","LIN":"26鄰","STREET":"郡平路","SECT":" ","MAREA":" ","LANE":" ","ALLEY":" ","HOUSE_NO":"１８１號十三樓之２６","E_COORD97":164638.45000000001,"N_COORD97":2543300.3100000001,"ADDRESS":"郡平路１８１號十三樓之２６","OBJECTID":637000},"geometry":{"x":164638.45000000019,"y":2543300.3099999987}}]}