{"displayFieldName":"TOWNNAME","fieldAliases":{"ID":"ID","DIS_CODE":"DIS_CODE","TOWNNAME":"TOWNNAME","LI":"LI","LIN":"LIN","STREET":"STREET","SECT":"SECT","MAREA":"MAREA","LANE":"LANE","ALLEY":"ALLEY","HOUSE_NO":"HOUSE_NO","E_COORD97":"E_COORD97","N_COORD97":"N_COORD97","ADDRESS":"ADDRESS","OBJECTID":"OBJECTID"},"geometryType":"esriGeometryPoint","spatialReference":{"wkid":102443,"latestWkid":3826},"fields":[{"name":"ID","type":"esriFieldTypeDouble","alias":"ID"},{"name":"DIS_CODE","type":"esriFieldTypeInteger","alias":"DIS_CODE"},{"name":"TOWNNAME","type":"esriFieldTypeString","alias":"TOWNNAME","length":8},{"name":"LI","type":"esriFieldTypeString","alias":"LI","length":8},{"name":"LIN","type":"esriFieldTypeString","alias":"LIN","length":12},{"name":"STREET","type":"esriFieldTypeString","alias":"STREET","length":20},{"name":"SECT","type":"esriFieldTypeString","alias":"SECT","length":8},{"name":"MAREA","type":"esriFieldTypeString","alias":"MAREA","length":12},{"name":"LANE","type":"esriFieldTypeString","alias":"LANE","length":10},{"name":"ALLEY","type":"esriFieldTypeString","alias":"ALLEY","length":10},{"name":"HOUSE_NO","type":"esriFieldTypeString","alias":"HOUSE_NO","length":20},{"name":"E_COORD97","type":"esriFieldTypeDouble","alias":"E_COORD97"},{"name":"N_COORD97","type":"esriFieldTypeDouble","alias":"N_COORD97"},{"name":"ADDRESS","type":"esriFieldTypeString","alias":"ADDRESS","length":50},{"name":"OBJECTID","type":"esriFieldTypeOID","alias":"OBJECTID"}],"features":[{"attributes":{"ID":575028,"DIS_CODE":0,"TOWNNAME":"安南區","LI":"溪頂里","LIN":"23鄰","STREET":"泰安街","SECT":" ","MAREA":" ","LANE":" ","ALLEY":" ","HOUSE_NO":"４３號","E_COORD97":168767.28,"N_COORD97":2547596.8700000001,"ADDRESS":"泰安街４３號","OBJECTID":575001},"geometry":{"x":168767.28000000026,"y":2547596.8700000029}},{"attributes":{"ID":575029,"DIS_CODE":0,"TOWNNAME":"安南區","LI":"溪頂里","LIN":"23鄰","STREET":"泰安街","SECT":" ","MAREA":" ","LANE":" ","ALLEY":" ","HOUSE_NO":"４５號","E_COORD97":168766.75,"N_COORD97":2547600.9399999999,"ADDRESS":"泰安街４５號","OBJECTID":575002},"geometry":{"x":168766.75000000093,"y":2547600.9400000032}},{"attributes":{"ID":575030,"DIS_CODE":0,"TOWNNAME":"安南區","LI":"溪頂里","LIN":"23鄰","STREET":"泰安街","SECT":" ","MAREA":" ","LANE":" ","ALLEY":" ","HOUSE_NO":"４７號","E_COORD97":168766.22,"N_COORD97":2547604.8399999999,"ADDRESS":"泰安街４７號","OBJECTID":575003},"geometry":{"x":168766.22000000067,"y":2547604.8399999999}},{"attributes":{"ID":575031,"DIS_CODE":0,"TOWNNAME":"安南區","LI":"溪頂里","LIN":"23鄰","STREET":"泰安街","SECT":" ","MAREA":" ","LANE":" ","ALLEY":" ","HOUSE_NO":"５１號","E_COORD97":168765.85999999999,"N_COORD97":2547613.5099999998,"ADDRESS":"泰安街５１號","OBJECTID":575004},"geometry":{"x":168765.86000000127,"y":2547613.5099999998}},{"attributes":{"ID":575032,"DIS_CODE":0,"TOWNNAME":"安南區","LI":"溪頂里","LIN":"23鄰","STREET":"泰安街","SECT":" ","MAREA":" ","LANE":" ","ALLEY":" ","HOUSE_NO":"５３號","E_COORD97":168765.32999999999,"N_COORD97":2547618.1099999999,"ADDRESS":"泰安街５３號","OBJECTID":575005},"geometry":{"x":168765.33000000007,"y":2547618.1100000013}},{"attributes":{"ID":575033,"DIS_CODE":0,"TOWNNAME":"安南區","LI":"溪頂里","LIN":"23鄰","STREET":"泰安街","SECT":" ","MAREA":" ","LANE":" ","ALLEY":" ","HOUSE_NO":"５５號","E_COORD97":168764.62,"N_COORD97":2547621.4700000002,"ADDRESS":"泰安街５５號","OBJECTID":575006},"geometry":{"x":168764.62000000011,"y":2547621.4700000007}},{"attributes":{"ID":575034,"DIS_CODE":0,"TOWNNAME":"安南區","LI":"溪頂里","LIN":"23鄰","STREET":"泰安街","SECT":" ","MAREA":" ","LANE":" ","ALLEY":" ","HOUSE_NO":"７號","E_COORD97":168774.01999999999,"N_COORD97":2547516.6499999999,"ADDRESS":"泰安街７號","OBJECTID":575007},"geometry":{"x":168774.02000000048,"y":2547516.6500000022}},{"attributes":{"ID":575035,"DIS_CODE":0,"TOWNNAME":"安南區","LI":"溪頂里","LIN":"23鄰","STREET":"泰安街","SECT":" ","MAREA":" ","LANE":" ","ALLEY":" ","HOUSE_NO":"９號","E_COORD97":168773.67000000001,"N_COORD97":2547521.4300000002,"ADDRESS":"泰安街９號","OBJECTID":575008},"geometry":{"x":168773.67000000086,"y":2547521.4300000016}},{"attributes":{"ID":575036,"DIS_CODE":0,"TOWNNAME":"安南區","LI":"溪頂里","LIN":"23鄰","STREET":"惠安街","SECT":" ","MAREA":" ","LANE":" ","ALLEY":" ","HOUSE_NO":"１０２號","E_COORD97":168783.10999999999,"N_COORD97":2547491.98,"ADDRESS":"惠安街１０２號","OBJECTID":575009},"geometry":{"x":168783.11000000127,"y":2547491.9800000004}},{"attributes":{"ID":575037,"DIS_CODE":0,"TOWNNAME":"安南區","LI":"溪頂里","LIN":"23鄰","STREET":"惠安街","SECT":" ","MAREA":" ","LANE":" ","ALLEY":" ","HOUSE_NO":"１０４號","E_COORD97":168778.67999999999,"N_COORD97":2547491.71,"ADDRESS":"惠安街１０４號","OBJECTID":575010},"geometry":{"x":168778.68000000063,"y":2547491.7100000009}},{"attributes":{"ID":575038,"DIS_CODE":0,"TOWNNAME":"安南區","LI":"溪頂里","LIN":"23鄰","STREET":"惠安街","SECT":" ","MAREA":" ","LANE":" ","ALLEY":" ","HOUSE_NO":"１０６號","E_COORD97":168774.76000000001,"N_COORD97":2547491.3399999999,"ADDRESS":"惠安街１０６號","OBJECTID":575011},"geometry":{"x":168774.76000000071,"y":2547491.3400000017}},{"attributes":{"ID":575039,"DIS_CODE":0,"TOWNNAME":"安南區","LI":"溪頂里","LIN":"23鄰","STREET":"惠安街","SECT":" ","MAREA":" ","LANE":" ","ALLEY":" ","HOUSE_NO":"１０８號","E_COORD97":168770.45999999999,"N_COORD97":2547490.9700000002,"ADDRESS":"惠安街１０８號","OBJECTID":575012},"geometry":{"x":168770.45999999996,"y":2547490.9700000025}},{"attributes":{"ID":575040,"DIS_CODE":0,"TOWNNAME":"安南區","LI":"溪頂里","LIN":"23鄰","STREET":"惠安街","SECT":" ","MAREA":" ","LANE":" ","ALLEY":" ","HOUSE_NO":"１１２號","E_COORD97":168761.85999999999,"N_COORD97":2547490.71,"ADDRESS":"惠安街１１２號","OBJECTID":575013},"geometry":{"x":168761.86000000034,"y":2547490.7100000009}},{"attributes":{"ID":575041,"DIS_CODE":0,"TOWNNAME":"安南區","LI":"溪頂里","LIN":"23鄰","STREET":"惠安街","SECT":" ","MAREA":" ","LANE":" ","ALLEY":" ","HOUSE_NO":"１１４號","E_COORD97":168757.42999999999,"N_COORD97":2547490.8399999999,"ADDRESS":"惠安街１１４號","OBJECTID":575014},"geometry":{"x":168757.4299999997,"y":2547490.8400000017}},{"attributes":{"ID":575042,"DIS_CODE":0,"TOWNNAME":"安南區","LI":"溪頂里","LIN":"23鄰","STREET":"惠安街","SECT":" ","MAREA":" ","LANE":" ","ALLEY":" ","HOUSE_NO":"１１６號","E_COORD97":168752.62,"N_COORD97":2547490.46,"ADDRESS":"惠安街１１６號","OBJECTID":575015},"geometry":{"x":168752.62000000011,"y":2547490.4600000046}},{"attributes":{"ID":575043,"DIS_CODE":0,"TOWNNAME":"安南區","LI":"溪頂里","LIN":"23鄰","STREET":"泰安街","SECT":" ","MAREA":" ","LANE":" ","ALLEY":" ","HOUSE_NO":"１８號","E_COORD97":168800.04999999999,"N_COORD97":2547562.1000000001,"ADDRESS":"泰安街１８號","OBJECTID":575016},"geometry":{"x":168800.05000000075,"y":2547562.0999999996}},{"attributes":{"ID":575044,"DIS_CODE":0,"TOWNNAME":"安南區","LI":"溪頂里","LIN":"23鄰","STREET":"泰安街","SECT":" ","MAREA":" ","LANE":" ","ALLEY":" ","HOUSE_NO":"２２號","E_COORD97":168797.89000000001,"N_COORD97":2547570.5600000001,"ADDRESS":"泰安街２２號","OBJECTID":575017},"geometry":{"x":168797.88999999966,"y":2547570.5599999987}},{"attributes":{"ID":575045,"DIS_CODE":0,"TOWNNAME":"仁德區","LI":"保安里","LIN":"23鄰","STREET":"保學路","SECT":" ","MAREA":" ","LANE":" ","ALLEY":" ","HOUSE_NO":"３３號","E_COORD97":171549,"N_COORD97":2535601.2999999998,"ADDRESS":"保學路３３號","OBJECTID":575018},"geometry":{"x":171549,"y":2535601.3000000045}},{"attributes":{"ID":575046,"DIS_CODE":0,"TOWNNAME":"安南區","LI":"溪頂里","LIN":"23鄰","STREET":"泰安街","SECT":" ","MAREA":" ","LANE":" ","ALLEY":" ","HOUSE_NO":"２６號","E_COORD97":168797.10000000001,"N_COORD97":2547579.71,"ADDRESS":"泰安街２６號","OBJECTID":575019},"geometry":{"x":168797.10000000149,"y":2547579.7100000009}},{"attributes":{"ID":575047,"DIS_CODE":0,"TOWNNAME":"安南區","LI":"溪頂里","LIN":"23鄰","STREET":"泰安街","SECT":" ","MAREA":" ","LANE":" ","ALLEY":" ","HOUSE_NO":"２０號","E_COORD97":168798.78,"N_COORD97":2547566.1400000001,"ADDRESS":"泰安街２０號","OBJECTID":575020},"geometry":{"x":168798.78000000119,"y":2547566.1400000006}},{"attributes":{"ID":575048,"DIS_CODE":0,"TOWNNAME":"安南區","LI":"溪頂里","LIN":"23鄰","STREET":"泰安街","SECT":" ","MAREA":" ","LANE":" ","ALLEY":" ","HOUSE_NO":"２４號","E_COORD97":168797.39999999999,"N_COORD97":2547575.3799999999,"ADDRESS":"泰安街２４號","OBJECTID":575021},"geometry":{"x":168797.39999999944,"y":2547575.3800000008}},{"attributes":{"ID":575049,"DIS_CODE":0,"TOWNNAME":"中西區","LI":"天后里","LIN":"23鄰","STREET":"赤嵌街","SECT":" ","MAREA":" ","LANE":" ","ALLEY":" ","HOUSE_NO":"４７號","E_COORD97":168239.81,"N_COORD97":2544340.9500000002,"ADDRESS":"赤嵌街４７號","OBJECTID":575022},"geometry":{"x":168239.81000000052,"y":2544340.9499999993}},{"attributes":{"ID":575050,"DIS_CODE":0,"TOWNNAME":"仁德區","LI":"保安里","LIN":"23鄰","STREET":"保學路","SECT":" ","MAREA":" ","LANE":" ","ALLEY":" ","HOUSE_NO":"５１號","E_COORD97":171619.85999999999,"N_COORD97":2535638.02,"ADDRESS":"保學路５１號","OBJECTID":575023},"geometry":{"x":171619.86000000034,"y":2535638.0199999996}},{"attributes":{"ID":575051,"DIS_CODE":0,"TOWNNAME":"仁德區","LI":"保安里","LIN":"23鄰","STREET":"保學路","SECT":" ","MAREA":" ","LANE":" ","ALLEY":" ","HOUSE_NO":"１７號","E_COORD97":171501.32999999999,"N_COORD97":2535588.0099999998,"ADDRESS":"保學路１７號","OBJECTID":575024},"geometry":{"x":171501.33000000007,"y":2535588.0099999998}},{"attributes":{"ID":575052,"DIS_CODE":0,"TOWNNAME":"仁德區","LI":"保安里","LIN":"23鄰","STREET":"保學路","SECT":" ","MAREA":" ","LANE":" ","ALLEY":" ","HOUSE_NO":"５３號","E_COORD97":171628.01999999999,"N_COORD97":2535642.3900000001,"ADDRESS":"保學路５３號","OBJECTID":575025},"geometry":{"x":171628.01999999955,"y":2535642.3900000025}},{"attributes":{"ID":575053,"DIS_CODE":0,"TOWNNAME":"仁德區","LI":"保安里","LIN":"23鄰","STREET":"保學路","SECT":" ","MAREA":" ","LANE":" ","ALLEY":" ","HOUSE_NO":"１號","E_COORD97":171457.41,"N_COORD97":2535610.4300000002,"ADDRESS":"保學路１號","OBJECTID":575026},"geometry":{"x":171457.41000000108,"y":2535610.4300000016}},{"attributes":{"ID":575054,"DIS_CODE":0,"TOWNNAME":"仁德區","LI":"太子里","LIN":"23鄰","STREET":"中正路","SECT":"三段","MAREA":" ","LANE":" ","ALLEY":" ","HOUSE_NO":"７１９號","E_COORD97":173742.64000000001,"N_COORD97":2543702.5800000001,"ADDRESS":"中正路三段７１９號","OBJECTID":575027},"geometry":{"x":173742.63999999966,"y":2543702.5800000019}},{"attributes":{"ID":575055,"DIS_CODE":0,"TOWNNAME":"仁德區","LI":"保安里","LIN":"23鄰","STREET":"保學路","SECT":" ","MAREA":" ","LANE":" ","ALLEY":" ","HOUSE_NO":"５５號","E_COORD97":171636.70999999999,"N_COORD97":2535646.6000000001,"ADDRESS":"保學路５５號","OBJECTID":575028},"geometry":{"x":171636.71000000089,"y":2535646.6000000015}},{"attributes":{"ID":575056,"DIS_CODE":0,"TOWNNAME":"仁德區","LI":"保安里","LIN":"23鄰","STREET":"保學路","SECT":" ","MAREA":" ","LANE":" ","ALLEY":" ","HOUSE_NO":"２１號","E_COORD97":171514.39999999999,"N_COORD97":2535589.1200000001,"ADDRESS":"保學路２１號","OBJECTID":575029},"geometry":{"x":171514.40000000037,"y":2535589.1199999992}},{"attributes":{"ID":575057,"DIS_CODE":0,"TOWNNAME":"仁德區","LI":"大甲里","LIN":"23鄰","STREET":"中正西路","SECT":" ","MAREA":" ","LANE":" ","ALLEY":" ","HOUSE_NO":"１２３８號","E_COORD97":167788.25,"N_COORD97":2536049.0699999998,"ADDRESS":"中正西路１２３８號","OBJECTID":575030},"geometry":{"x":167788.25000000093,"y":2536049.0700000003}},{"attributes":{"ID":575058,"DIS_CODE":0,"TOWNNAME":"仁德區","LI":"保安里","LIN":"23鄰","STREET":"保學路","SECT":" ","MAREA":" ","LANE":" ","ALLEY":" ","HOUSE_NO":"５７號","E_COORD97":171645.53,"N_COORD97":2535651.3300000001,"ADDRESS":"保學路５７號","OBJECTID":575031},"geometry":{"x":171645.53000000026,"y":2535651.3300000038}},{"attributes":{"ID":575059,"DIS_CODE":0,"TOWNNAME":"仁德區","LI":"太子里","LIN":"23鄰","STREET":"中正路","SECT":"三段","MAREA":" ","LANE":" ","ALLEY":" ","HOUSE_NO":"７１４號","E_COORD97":173753.32000000001,"N_COORD97":2543628.4500000002,"ADDRESS":"中正路三段７１４號","OBJECTID":575032},"geometry":{"x":173753.32000000123,"y":2543628.4500000011}},{"attributes":{"ID":575060,"DIS_CODE":0,"TOWNNAME":"仁德區","LI":"保安里","LIN":"23鄰","STREET":"保學路","SECT":" ","MAREA":" ","LANE":" ","ALLEY":" ","HOUSE_NO":"２３號","E_COORD97":171524.54000000001,"N_COORD97":2535591.3700000001,"ADDRESS":"保學路２３號","OBJECTID":575033},"geometry":{"x":171524.54000000097,"y":2535591.3700000029}},{"attributes":{"ID":575061,"DIS_CODE":0,"TOWNNAME":"仁德區","LI":"太子里","LIN":"23鄰","STREET":"中正路","SECT":"三段","MAREA":" ","LANE":" ","ALLEY":" ","HOUSE_NO":"７１６號","E_COORD97":173760.12,"N_COORD97":2543638.2799999998,"ADDRESS":"中正路三段７１６號","OBJECTID":575034},"geometry":{"x":173760.12000000011,"y":2543638.2799999975}},{"attributes":{"ID":575062,"DIS_CODE":0,"TOWNNAME":"仁德區","LI":"仁德里","LIN":"23鄰","STREET":"文心路","SECT":" ","MAREA":" ","LANE":" ","ALLEY":" ","HOUSE_NO":"１３８號","E_COORD97":172264.57000000001,"N_COORD97":2541614.7799999998,"ADDRESS":"文心路１３８號","OBJECTID":575035},"geometry":{"x":172264.56999999937,"y":2541614.7800000012}},{"attributes":{"ID":575063,"DIS_CODE":0,"TOWNNAME":"仁德區","LI":"仁德里","LIN":"23鄰","STREET":"文善街","SECT":" ","MAREA":" ","LANE":" ","ALLEY":" ","HOUSE_NO":"８５號","E_COORD97":172314.78094699999,"N_COORD97":2541439.3024900001,"ADDRESS":"文善街８５號","OBJECTID":575036},"geometry":{"x":172314.78094700072,"y":2541439.3024920002}},{"attributes":{"ID":575064,"DIS_CODE":0,"TOWNNAME":"善化區","LI":"南關里","LIN":"5鄰","STREET":"三民路","SECT":" ","MAREA":" ","LANE":" ","ALLEY":" ","HOUSE_NO":"１４號之１７","E_COORD97":177012.63,"N_COORD97":2558639.77,"ADDRESS":"三民路１４號之１７","OBJECTID":575037},"geometry":{"x":177012.63000000082,"y":2558639.7699999996}},{"attributes":{"ID":575065,"DIS_CODE":0,"TOWNNAME":"仁德區","LI":"保安里","LIN":"23鄰","STREET":"保學一街","SECT":" ","MAREA":" ","LANE":" ","ALLEY":" ","HOUSE_NO":"１１號","E_COORD97":171584.48999999999,"N_COORD97":2535579.6200000001,"ADDRESS":"保學一街１１號","OBJECTID":575038},"geometry":{"x":171584.49000000115,"y":2535579.6200000029}},{"attributes":{"ID":575066,"DIS_CODE":0,"TOWNNAME":"仁德區","LI":"保安里","LIN":"23鄰","STREET":"保學一街","SECT":" ","MAREA":" ","LANE":" ","ALLEY":" ","HOUSE_NO":"１３號","E_COORD97":171586.63,"N_COORD97":2535575.3799999999,"ADDRESS":"保學一街１３號","OBJECTID":575039},"geometry":{"x":171586.62999999989,"y":2535575.3800000027}},{"attributes":{"ID":575067,"DIS_CODE":0,"TOWNNAME":"仁德區","LI":"保安里","LIN":"23鄰","STREET":"保學一街","SECT":" ","MAREA":" ","LANE":" ","ALLEY":" ","HOUSE_NO":"１５號","E_COORD97":171589.04999999999,"N_COORD97":2535571.25,"ADDRESS":"保學一街１５號","OBJECTID":575040},"geometry":{"x":171589.04999999981,"y":2535571.2500000019}},{"attributes":{"ID":575068,"DIS_CODE":0,"TOWNNAME":"仁德區","LI":"保安里","LIN":"23鄰","STREET":"保學二街","SECT":" ","MAREA":" ","LANE":" ","ALLEY":" ","HOUSE_NO":"１０號","E_COORD97":171730.62,"N_COORD97":2535740.1800000002,"ADDRESS":"保學二街１０號","OBJECTID":575041},"geometry":{"x":171730.62000000104,"y":2535740.1800000034}},{"attributes":{"ID":575069,"DIS_CODE":0,"TOWNNAME":"仁德區","LI":"保安里","LIN":"23鄰","STREET":"保學二街","SECT":" ","MAREA":" ","LANE":" ","ALLEY":" ","HOUSE_NO":"１２號","E_COORD97":171733.67000000001,"N_COORD97":2535735.1499999999,"ADDRESS":"保學二街１２號","OBJECTID":575042},"geometry":{"x":171733.67000000086,"y":2535735.1500000022}},{"attributes":{"ID":575070,"DIS_CODE":0,"TOWNNAME":"仁德區","LI":"保安里","LIN":"23鄰","STREET":"保學二街","SECT":" ","MAREA":" ","LANE":" ","ALLEY":" ","HOUSE_NO":"１６號","E_COORD97":171736.72,"N_COORD97":2535729.5699999998,"ADDRESS":"保學二街１６號","OBJECTID":575043},"geometry":{"x":171736.71999999974,"y":2535729.5700000003}},{"attributes":{"ID":575071,"DIS_CODE":0,"TOWNNAME":"仁德區","LI":"保安里","LIN":"23鄰","STREET":"保學二街","SECT":" ","MAREA":" ","LANE":" ","ALLEY":" ","HOUSE_NO":"２號","E_COORD97":171720.70000000001,"N_COORD97":2535756,"ADDRESS":"保學二街２號","OBJECTID":575044},"geometry":{"x":171720.70000000019,"y":2535756.0000000019}},{"attributes":{"ID":575072,"DIS_CODE":0,"TOWNNAME":"仁德區","LI":"保安里","LIN":"23鄰","STREET":"保學二街","SECT":" ","MAREA":" ","LANE":" ","ALLEY":" ","HOUSE_NO":"３２號","E_COORD97":171769.45999999999,"N_COORD97":2535678.7200000002,"ADDRESS":"保學二街３２號","OBJECTID":575045},"geometry":{"x":171769.45999999996,"y":2535678.7200000007}},{"attributes":{"ID":575073,"DIS_CODE":0,"TOWNNAME":"仁德區","LI":"保安里","LIN":"23鄰","STREET":"保學二街","SECT":" ","MAREA":" ","LANE":" ","ALLEY":" ","HOUSE_NO":"３６號","E_COORD97":171771.76999999999,"N_COORD97":2535674.3100000001,"ADDRESS":"保學二街３６號","OBJECTID":575046},"geometry":{"x":171771.76999999955,"y":2535674.3100000005}},{"attributes":{"ID":575074,"DIS_CODE":0,"TOWNNAME":"仁德區","LI":"保安里","LIN":"23鄰","STREET":"保學二街","SECT":" ","MAREA":" ","LANE":" ","ALLEY":" ","HOUSE_NO":"３８號","E_COORD97":171773.59,"N_COORD97":2535670.3799999999,"ADDRESS":"保學二街３８號","OBJECTID":575047},"geometry":{"x":171773.58999999985,"y":2535670.3800000008}},{"attributes":{"ID":575075,"DIS_CODE":0,"TOWNNAME":"仁德區","LI":"保安里","LIN":"23鄰","STREET":"保學二街","SECT":" ","MAREA":" ","LANE":" ","ALLEY":" ","HOUSE_NO":"４０號","E_COORD97":171776.66,"N_COORD97":2535666.7000000002,"ADDRESS":"保學二街４０號","OBJECTID":575048},"geometry":{"x":171776.66000000015,"y":2535666.6999999993}},{"attributes":{"ID":575076,"DIS_CODE":0,"TOWNNAME":"仁德區","LI":"保安里","LIN":"23鄰","STREET":"保學二街","SECT":" ","MAREA":" ","LANE":" ","ALLEY":" ","HOUSE_NO":"８號","E_COORD97":171727.44,"N_COORD97":2535745.1899999999,"ADDRESS":"保學二街８號","OBJECTID":575049},"geometry":{"x":171727.44000000041,"y":2535745.1899999995}},{"attributes":{"ID":575077,"DIS_CODE":0,"TOWNNAME":"仁德區","LI":"保安里","LIN":"23鄰","STREET":"保學路","SECT":" ","MAREA":" ","LANE":" ","ALLEY":" ","HOUSE_NO":"１００號","E_COORD97":171667.26000000001,"N_COORD97":2535647.8599999999,"ADDRESS":"保學路１００號","OBJECTID":575050},"geometry":{"x":171667.25999999978,"y":2535647.8600000013}},{"attributes":{"ID":575078,"DIS_CODE":0,"TOWNNAME":"仁德區","LI":"保安里","LIN":"23鄰","STREET":"保學路","SECT":" ","MAREA":" ","LANE":" ","ALLEY":" ","HOUSE_NO":"１０２號","E_COORD97":171677.88,"N_COORD97":2535653.02,"ADDRESS":"保學路１０２號","OBJECTID":575051},"geometry":{"x":171677.88000000082,"y":2535653.0200000033}},{"attributes":{"ID":575079,"DIS_CODE":0,"TOWNNAME":"仁德區","LI":"保安里","LIN":"23鄰","STREET":"保學路","SECT":" ","MAREA":" ","LANE":" ","ALLEY":" ","HOUSE_NO":"１０６號","E_COORD97":171685.63,"N_COORD97":2535657.25,"ADDRESS":"保學路１０６號","OBJECTID":575052},"geometry":{"x":171685.62999999896,"y":2535657.25}},{"attributes":{"ID":575080,"DIS_CODE":0,"TOWNNAME":"仁德區","LI":"保安里","LIN":"23鄰","STREET":"保學路","SECT":" ","MAREA":" ","LANE":" ","ALLEY":" ","HOUSE_NO":"１０８號","E_COORD97":171695.04000000001,"N_COORD97":2535661.8999999999,"ADDRESS":"保學路１０８號","OBJECTID":575053},"geometry":{"x":171695.0400000019,"y":2535661.9000000022}},{"attributes":{"ID":575081,"DIS_CODE":0,"TOWNNAME":"仁德區","LI":"保安里","LIN":"23鄰","STREET":"保學路","SECT":" ","MAREA":" ","LANE":" ","ALLEY":" ","HOUSE_NO":"１１０號","E_COORD97":171703.35999999999,"N_COORD97":2535666.2000000002,"ADDRESS":"保學路１１０號","OBJECTID":575054},"geometry":{"x":171703.3600000022,"y":2535666.2000000011}},{"attributes":{"ID":575082,"DIS_CODE":0,"TOWNNAME":"仁德區","LI":"保安里","LIN":"23鄰","STREET":"保學路","SECT":" ","MAREA":" ","LANE":" ","ALLEY":" ","HOUSE_NO":"１１２號","E_COORD97":171712.56,"N_COORD97":2535670.6600000001,"ADDRESS":"保學路１１２號","OBJECTID":575055},"geometry":{"x":171712.55999999959,"y":2535670.660000002}},{"attributes":{"ID":575083,"DIS_CODE":0,"TOWNNAME":"仁德區","LI":"保安里","LIN":"23鄰","STREET":"保學路","SECT":" ","MAREA":" ","LANE":" ","ALLEY":" ","HOUSE_NO":"１１６號","E_COORD97":171721.04000000001,"N_COORD97":2535675.3100000001,"ADDRESS":"保學路１１６號","OBJECTID":575056},"geometry":{"x":171721.04000000097,"y":2535675.3100000005}},{"attributes":{"ID":575084,"DIS_CODE":0,"TOWNNAME":"仁德區","LI":"保安里","LIN":"23鄰","STREET":"保學路","SECT":" ","MAREA":" ","LANE":" ","ALLEY":" ","HOUSE_NO":"１１８號","E_COORD97":171730.70000000001,"N_COORD97":2535679.6800000002,"ADDRESS":"保學路１１８號","OBJECTID":575057},"geometry":{"x":171730.70000000019,"y":2535679.6800000016}},{"attributes":{"ID":575085,"DIS_CODE":0,"TOWNNAME":"仁德區","LI":"保安里","LIN":"23鄰","STREET":"保學路","SECT":" ","MAREA":" ","LANE":" ","ALLEY":" ","HOUSE_NO":"１１號","E_COORD97":171484.72,"N_COORD97":2535591.98,"ADDRESS":"保學路１１號","OBJECTID":575058},"geometry":{"x":171484.71999999974,"y":2535591.9800000004}},{"attributes":{"ID":575086,"DIS_CODE":0,"TOWNNAME":"仁德區","LI":"保安里","LIN":"23鄰","STREET":"保學路","SECT":" ","MAREA":" ","LANE":" ","ALLEY":" ","HOUSE_NO":"１２０號","E_COORD97":171739.35999999999,"N_COORD97":2535684.1400000001,"ADDRESS":"保學路１２０號","OBJECTID":575059},"geometry":{"x":171739.36000000127,"y":2535684.1400000025}},{"attributes":{"ID":575087,"DIS_CODE":0,"TOWNNAME":"仁德區","LI":"保安里","LIN":"23鄰","STREET":"保學路","SECT":" ","MAREA":" ","LANE":" ","ALLEY":" ","HOUSE_NO":"１２２號","E_COORD97":171748.20000000001,"N_COORD97":2535688.6899999999,"ADDRESS":"保學路１２２號","OBJECTID":575060},"geometry":{"x":171748.19999999925,"y":2535688.6899999976}},{"attributes":{"ID":575088,"DIS_CODE":0,"TOWNNAME":"仁德區","LI":"保安里","LIN":"23鄰","STREET":"保學路","SECT":" ","MAREA":" ","LANE":" ","ALLEY":" ","HOUSE_NO":"１２６號","E_COORD97":171756.85999999999,"N_COORD97":2535693.0699999998,"ADDRESS":"保學路１２６號","OBJECTID":575061},"geometry":{"x":171756.86000000034,"y":2535693.0700000003}},{"attributes":{"ID":575089,"DIS_CODE":0,"TOWNNAME":"仁德區","LI":"保安里","LIN":"23鄰","STREET":"保學路","SECT":" ","MAREA":" ","LANE":" ","ALLEY":" ","HOUSE_NO":"１３號","E_COORD97":171490.04999999999,"N_COORD97":2535590.1699999999,"ADDRESS":"保學路１３號","OBJECTID":575062},"geometry":{"x":171490.05000000075,"y":2535590.1699999999}},{"attributes":{"ID":575090,"DIS_CODE":0,"TOWNNAME":"仁德區","LI":"保安里","LIN":"23鄰","STREET":"保學路","SECT":" ","MAREA":" ","LANE":" ","ALLEY":" ","HOUSE_NO":"１５號","E_COORD97":171495.60999999999,"N_COORD97":2535589,"ADDRESS":"保學路１５號","OBJECTID":575063},"geometry":{"x":171495.61000000127,"y":2535589.0000000037}},{"attributes":{"ID":575091,"DIS_CODE":0,"TOWNNAME":"善化區","LI":"坐駕里","LIN":"6鄰","STREET":"建國路","SECT":" ","MAREA":" ","LANE":" ","ALLEY":" ","HOUSE_NO":"１５９號","E_COORD97":177953.22,"N_COORD97":2559014.5299999998,"ADDRESS":"建國路１５９號","OBJECTID":575064},"geometry":{"x":177953.21999999974,"y":2559014.5299999993}},{"attributes":{"ID":575092,"DIS_CODE":0,"TOWNNAME":"仁德區","LI":"保安里","LIN":"23鄰","STREET":"保學路","SECT":" ","MAREA":" ","LANE":" ","ALLEY":" ","HOUSE_NO":"３９號","E_COORD97":171567.26000000001,"N_COORD97":2535610.2999999998,"ADDRESS":"保學路３９號","OBJECTID":575065},"geometry":{"x":171567.25999999978,"y":2535610.3000000007}},{"attributes":{"ID":575093,"DIS_CODE":0,"TOWNNAME":"仁德區","LI":"保安里","LIN":"23鄰","STREET":"保學路","SECT":" ","MAREA":" ","LANE":" ","ALLEY":" ","HOUSE_NO":"３號","E_COORD97":171465.66,"N_COORD97":2535602.8599999999,"ADDRESS":"保學路３號","OBJECTID":575066},"geometry":{"x":171465.66000000108,"y":2535602.8600000031}},{"attributes":{"ID":575094,"DIS_CODE":0,"TOWNNAME":"仁德區","LI":"保安里","LIN":"23鄰","STREET":"保學路","SECT":" ","MAREA":" ","LANE":" ","ALLEY":" ","HOUSE_NO":"４１號","E_COORD97":171576.48000000001,"N_COORD97":2535615.9100000001,"ADDRESS":"保學路４１號","OBJECTID":575067},"geometry":{"x":171576.48000000045,"y":2535615.9100000001}},{"attributes":{"ID":575095,"DIS_CODE":0,"TOWNNAME":"仁德區","LI":"保安里","LIN":"23鄰","STREET":"保學路","SECT":" ","MAREA":" ","LANE":" ","ALLEY":" ","HOUSE_NO":"５９號","E_COORD97":171654.07999999999,"N_COORD97":2535655.4399999999,"ADDRESS":"保學路５９號","OBJECTID":575068},"geometry":{"x":171654.08000000194,"y":2535655.4399999995}},{"attributes":{"ID":575096,"DIS_CODE":0,"TOWNNAME":"仁德區","LI":"保安里","LIN":"23鄰","STREET":"保學路","SECT":" ","MAREA":" ","LANE":" ","ALLEY":" ","HOUSE_NO":"５號","E_COORD97":171469.35000000001,"N_COORD97":2535599.71,"ADDRESS":"保學路５號","OBJECTID":575069},"geometry":{"x":171469.35000000056,"y":2535599.7100000028}},{"attributes":{"ID":575097,"DIS_CODE":0,"TOWNNAME":"仁德區","LI":"保安里","LIN":"23鄰","STREET":"保學路","SECT":" ","MAREA":" ","LANE":" ","ALLEY":" ","HOUSE_NO":"６１號","E_COORD97":171662.75,"N_COORD97":2535659.7400000002,"ADDRESS":"保學路６１號","OBJECTID":575070},"geometry":{"x":171662.75,"y":2535659.7400000021}},{"attributes":{"ID":575098,"DIS_CODE":0,"TOWNNAME":"仁德區","LI":"保安里","LIN":"23鄰","STREET":"保學路","SECT":" ","MAREA":" ","LANE":" ","ALLEY":" ","HOUSE_NO":"６３號","E_COORD97":171670.79000000001,"N_COORD97":2535664.0499999998,"ADDRESS":"保學路６３號","OBJECTID":575071},"geometry":{"x":171670.79000000004,"y":2535664.0500000045}},{"attributes":{"ID":575099,"DIS_CODE":0,"TOWNNAME":"仁德區","LI":"保安里","LIN":"23鄰","STREET":"保學路","SECT":" ","MAREA":" ","LANE":" ","ALLEY":" ","HOUSE_NO":"６５號","E_COORD97":171679.95000000001,"N_COORD97":2535669.0699999998,"ADDRESS":"保學路６５號","OBJECTID":575072},"geometry":{"x":171679.95000000019,"y":2535669.0700000003}},{"attributes":{"ID":575100,"DIS_CODE":0,"TOWNNAME":"仁德區","LI":"保安里","LIN":"23鄰","STREET":"保學路","SECT":" ","MAREA":" ","LANE":" ","ALLEY":" ","HOUSE_NO":"６７號","E_COORD97":171688.37,"N_COORD97":2535673.5699999998,"ADDRESS":"保學路６７號","OBJECTID":575073},"geometry":{"x":171688.37000000104,"y":2535673.570000004}},{"attributes":{"ID":575101,"DIS_CODE":0,"TOWNNAME":"仁德區","LI":"保安里","LIN":"23鄰","STREET":"保學路","SECT":" ","MAREA":" ","LANE":" ","ALLEY":" ","HOUSE_NO":"６９號","E_COORD97":171697.04999999999,"N_COORD97":2535677.8100000001,"ADDRESS":"保學路６９號","OBJECTID":575074},"geometry":{"x":171697.05000000075,"y":2535677.8100000005}},{"attributes":{"ID":575102,"DIS_CODE":0,"TOWNNAME":"仁德區","LI":"保安里","LIN":"23鄰","STREET":"保學路","SECT":" ","MAREA":" ","LANE":" ","ALLEY":" ","HOUSE_NO":"７１號","E_COORD97":171705.34,"N_COORD97":2535682.1400000001,"ADDRESS":"保學路７１號","OBJECTID":575075},"geometry":{"x":171705.34000000078,"y":2535682.1400000006}},{"attributes":{"ID":575103,"DIS_CODE":0,"TOWNNAME":"仁德區","LI":"保安里","LIN":"23鄰","STREET":"保學路","SECT":" ","MAREA":" ","LANE":" ","ALLEY":" ","HOUSE_NO":"７３號","E_COORD97":171714.03,"N_COORD97":2535686.8599999999,"ADDRESS":"保學路７３號","OBJECTID":575076},"geometry":{"x":171714.03000000212,"y":2535686.8599999994}},{"attributes":{"ID":575104,"DIS_CODE":0,"TOWNNAME":"仁德區","LI":"保安里","LIN":"23鄰","STREET":"保學路","SECT":" ","MAREA":" ","LANE":" ","ALLEY":" ","HOUSE_NO":"７５號","E_COORD97":171722.47,"N_COORD97":2535691.25,"ADDRESS":"保學路７５號","OBJECTID":575077},"geometry":{"x":171722.47000000067,"y":2535691.25}},{"attributes":{"ID":575105,"DIS_CODE":0,"TOWNNAME":"仁德區","LI":"保安里","LIN":"23鄰","STREET":"保學路","SECT":" ","MAREA":" ","LANE":" ","ALLEY":" ","HOUSE_NO":"７７號","E_COORD97":171731.42000000001,"N_COORD97":2535696.1400000001,"ADDRESS":"保學路７７號","OBJECTID":575078},"geometry":{"x":171731.42000000179,"y":2535696.1400000006}},{"attributes":{"ID":575106,"DIS_CODE":0,"TOWNNAME":"仁德區","LI":"保安里","LIN":"23鄰","STREET":"保學路","SECT":" ","MAREA":" ","LANE":" ","ALLEY":" ","HOUSE_NO":"７９號","E_COORD97":171739.60000000001,"N_COORD97":2535699.77,"ADDRESS":"保學路７９號","OBJECTID":575079},"geometry":{"x":171739.59999999963,"y":2535699.7700000014}},{"attributes":{"ID":575107,"DIS_CODE":0,"TOWNNAME":"仁德區","LI":"保安里","LIN":"23鄰","STREET":"保學路","SECT":" ","MAREA":" ","LANE":" ","ALLEY":" ","HOUSE_NO":"７號","E_COORD97":171473.57999999999,"N_COORD97":2535596.79,"ADDRESS":"保學路７號","OBJECTID":575080},"geometry":{"x":171473.58000000007,"y":2535596.790000001}},{"attributes":{"ID":575108,"DIS_CODE":0,"TOWNNAME":"仁德區","LI":"保安里","LIN":"23鄰","STREET":"保學路","SECT":" ","MAREA":" ","LANE":" ","ALLEY":" ","HOUSE_NO":"８１號","E_COORD97":171748.54999999999,"N_COORD97":2535704.6600000001,"ADDRESS":"保學路８１號","OBJECTID":575081},"geometry":{"x":171748.54999999981,"y":2535704.660000002}},{"attributes":{"ID":575109,"DIS_CODE":0,"TOWNNAME":"仁德區","LI":"保安里","LIN":"23鄰","STREET":"保學路","SECT":" ","MAREA":" ","LANE":" ","ALLEY":" ","HOUSE_NO":"８２號","E_COORD97":171605.32999999999,"N_COORD97":2535616.8999999999,"ADDRESS":"保學路８２號","OBJECTID":575082},"geometry":{"x":171605.33000000101,"y":2535616.9000000004}},{"attributes":{"ID":575110,"DIS_CODE":0,"TOWNNAME":"下營區","LI":"後街里","LIN":"23鄰","STREET":"大仁街","SECT":" ","MAREA":" ","LANE":" ","ALLEY":" ","HOUSE_NO":"１８號","E_COORD97":174742.98999999999,"N_COORD97":2571099.6200000001,"ADDRESS":"大仁街１８號","OBJECTID":575083},"geometry":{"x":174742.99000000022,"y":2571099.620000001}},{"attributes":{"ID":575111,"DIS_CODE":0,"TOWNNAME":"下營區","LI":"後街里","LIN":"23鄰","STREET":"大忠街","SECT":" ","MAREA":" ","LANE":" ","ALLEY":" ","HOUSE_NO":"１２號","E_COORD97":174818.78,"N_COORD97":2571058.3700000001,"ADDRESS":"大忠街１２號","OBJECTID":575084},"geometry":{"x":174818.78000000026,"y":2571058.3700000029}},{"attributes":{"ID":575112,"DIS_CODE":0,"TOWNNAME":"下營區","LI":"後街里","LIN":"23鄰","STREET":"大忠街","SECT":" ","MAREA":" ","LANE":" ","ALLEY":" ","HOUSE_NO":"１６號","E_COORD97":174807.75,"N_COORD97":2571052.8100000001,"ADDRESS":"大忠街１６號","OBJECTID":575085},"geometry":{"x":174807.75000000093,"y":2571052.8100000005}},{"attributes":{"ID":575113,"DIS_CODE":0,"TOWNNAME":"下營區","LI":"後街里","LIN":"23鄰","STREET":"大忠街","SECT":" ","MAREA":" ","LANE":" ","ALLEY":" ","HOUSE_NO":"１８號","E_COORD97":174790.20000000001,"N_COORD97":2571051.7000000002,"ADDRESS":"大忠街１８號","OBJECTID":575086},"geometry":{"x":174790.20000000112,"y":2571051.7000000011}},{"attributes":{"ID":575114,"DIS_CODE":0,"TOWNNAME":"下營區","LI":"後街里","LIN":"23鄰","STREET":"大忠街","SECT":" ","MAREA":" ","LANE":" ","ALLEY":" ","HOUSE_NO":"２０號","E_COORD97":174784.47,"N_COORD97":2571051.2400000002,"ADDRESS":"大忠街２０號","OBJECTID":575087},"geometry":{"x":174784.47000000067,"y":2571051.2400000021}},{"attributes":{"ID":575115,"DIS_CODE":0,"TOWNNAME":"下營區","LI":"後街里","LIN":"23鄰","STREET":"大忠街","SECT":" ","MAREA":" ","LANE":" ","ALLEY":" ","HOUSE_NO":"２２號","E_COORD97":174779.91,"N_COORD97":2571050.6699999999,"ADDRESS":"大忠街２２號","OBJECTID":575088},"geometry":{"x":174779.91000000108,"y":2571050.6699999999}},{"attributes":{"ID":575116,"DIS_CODE":0,"TOWNNAME":"下營區","LI":"後街里","LIN":"23鄰","STREET":"大忠街","SECT":" ","MAREA":" ","LANE":" ","ALLEY":" ","HOUSE_NO":"２６號","E_COORD97":174775.39000000001,"N_COORD97":2571050.5600000001,"ADDRESS":"大忠街２６號","OBJECTID":575089},"geometry":{"x":174775.38999999966,"y":2571050.5600000024}},{"attributes":{"ID":575117,"DIS_CODE":0,"TOWNNAME":"下營區","LI":"後街里","LIN":"23鄰","STREET":"大忠街","SECT":" ","MAREA":" ","LANE":" ","ALLEY":" ","HOUSE_NO":"３２號","E_COORD97":174760,"N_COORD97":2571055.1600000001,"ADDRESS":"大忠街３２號","OBJECTID":575090},"geometry":{"x":174759.99999999907,"y":2571055.160000002}},{"attributes":{"ID":575118,"DIS_CODE":0,"TOWNNAME":"下營區","LI":"後街里","LIN":"23鄰","STREET":"大忠街","SECT":" ","MAREA":" ","LANE":" ","ALLEY":" ","HOUSE_NO":"３６號","E_COORD97":174754.19,"N_COORD97":2571046.2599999998,"ADDRESS":"大忠街３６號","OBJECTID":575091},"geometry":{"x":174754.19000000227,"y":2571046.2599999998}},{"attributes":{"ID":575119,"DIS_CODE":0,"TOWNNAME":"中西區","LI":"西賢里","LIN":"23鄰","STREET":"華平路","SECT":" ","MAREA":" ","LANE":" ","ALLEY":" ","HOUSE_NO":"７９６號","E_COORD97":165524.92000000001,"N_COORD97":2544537.1000000001,"ADDRESS":"華平路７９６號","OBJECTID":575092},"geometry":{"x":165524.91999999993,"y":2544537.0999999996}},{"attributes":{"ID":575120,"DIS_CODE":0,"TOWNNAME":"中西區","LI":"西賢里","LIN":"23鄰","STREET":"西賢二街","SECT":" ","MAREA":" ","LANE":" ","ALLEY":" ","HOUSE_NO":"６１號","E_COORD97":165554.38,"N_COORD97":2544490.9399999999,"ADDRESS":"西賢二街６１號","OBJECTID":575093},"geometry":{"x":165554.38000000175,"y":2544490.9399999995}},{"attributes":{"ID":575121,"DIS_CODE":0,"TOWNNAME":"中西區","LI":"西賢里","LIN":"23鄰","STREET":"西賢二街","SECT":" ","MAREA":" ","LANE":" ","ALLEY":" ","HOUSE_NO":"６３號","E_COORD97":165546.25,"N_COORD97":2544490.9399999999,"ADDRESS":"西賢二街６３號","OBJECTID":575094},"geometry":{"x":165546.25,"y":2544490.9399999995}},{"attributes":{"ID":575122,"DIS_CODE":0,"TOWNNAME":"中西區","LI":"西賢里","LIN":"23鄰","STREET":"西賢二街","SECT":" ","MAREA":" ","LANE":" ","ALLEY":" ","HOUSE_NO":"６５號","E_COORD97":165537.87,"N_COORD97":2544490.6899999999,"ADDRESS":"西賢二街６５號","OBJECTID":575095},"geometry":{"x":165537.87000000104,"y":2544490.6900000013}},{"attributes":{"ID":575123,"DIS_CODE":0,"TOWNNAME":"中西區","LI":"西賢里","LIN":"23鄰","STREET":"華平路","SECT":" ","MAREA":" ","LANE":" ","ALLEY":" ","HOUSE_NO":"７７６號","E_COORD97":165525.54999999999,"N_COORD97":2544493.6099999999,"ADDRESS":"華平路７７６號","OBJECTID":575096},"geometry":{"x":165525.54999999981,"y":2544493.6099999994}},{"attributes":{"ID":575124,"DIS_CODE":0,"TOWNNAME":"中西區","LI":"西賢里","LIN":"23鄰","STREET":"華平路","SECT":" ","MAREA":" ","LANE":" ","ALLEY":" ","HOUSE_NO":"７７２號","E_COORD97":165525.29999999999,"N_COORD97":2544488.7799999998,"ADDRESS":"華平路７７２號","OBJECTID":575097},"geometry":{"x":165525.29999999981,"y":2544488.7799999993}},{"attributes":{"ID":575125,"DIS_CODE":0,"TOWNNAME":"中西區","LI":"西賢里","LIN":"23鄰","STREET":"華平路","SECT":" ","MAREA":" ","LANE":" ","ALLEY":" ","HOUSE_NO":"７７０號","E_COORD97":165525.29999999999,"N_COORD97":2544483.8300000001,"ADDRESS":"華平路７７０號","OBJECTID":575098},"geometry":{"x":165525.29999999981,"y":2544483.8300000019}},{"attributes":{"ID":575126,"DIS_CODE":0,"TOWNNAME":"中西區","LI":"西賢里","LIN":"23鄰","STREET":"華平路","SECT":" ","MAREA":" ","LANE":" ","ALLEY":" ","HOUSE_NO":"７９０號","E_COORD97":165525.04000000001,"N_COORD97":2544529.8700000001,"ADDRESS":"華平路７９０號","OBJECTID":575099},"geometry":{"x":165525.04000000097,"y":2544529.870000001}},{"attributes":{"ID":575127,"DIS_CODE":0,"TOWNNAME":"中西區","LI":"西賢里","LIN":"23鄰","STREET":"西賢二街","SECT":" ","MAREA":" ","LANE":" ","ALLEY":" ","HOUSE_NO":"６７號","E_COORD97":165580.92000000001,"N_COORD97":2544507.1299999999,"ADDRESS":"西賢二街６７號","OBJECTID":575100},"geometry":{"x":165580.91999999993,"y":2544507.1300000027}},{"attributes":{"ID":575128,"DIS_CODE":0,"TOWNNAME":"中西區","LI":"西賢里","LIN":"23鄰","STREET":"西賢二街","SECT":" ","MAREA":" ","LANE":" ","ALLEY":" ","HOUSE_NO":"６９號","E_COORD97":165573.94,"N_COORD97":2544506.8799999999,"ADDRESS":"西賢二街６９號","OBJECTID":575101},"geometry":{"x":165573.94000000041,"y":2544506.8800000008}},{"attributes":{"ID":575129,"DIS_CODE":0,"TOWNNAME":"中西區","LI":"西賢里","LIN":"23鄰","STREET":"西賢二街","SECT":" ","MAREA":" ","LANE":" ","ALLEY":" ","HOUSE_NO":"７１號","E_COORD97":165569.23999999999,"N_COORD97":2544506.75,"ADDRESS":"西賢二街７１號","OBJECTID":575102},"geometry":{"x":165569.24000000209,"y":2544506.75}},{"attributes":{"ID":575130,"DIS_CODE":0,"TOWNNAME":"中西區","LI":"西賢里","LIN":"23鄰","STREET":"西賢二街","SECT":" ","MAREA":" ","LANE":" ","ALLEY":" ","HOUSE_NO":"７３號","E_COORD97":165563.39999999999,"N_COORD97":2544506.75,"ADDRESS":"西賢二街７３號","OBJECTID":575103},"geometry":{"x":165563.4000000013,"y":2544506.75}},{"attributes":{"ID":575131,"DIS_CODE":0,"TOWNNAME":"中西區","LI":"西賢里","LIN":"23鄰","STREET":"西賢二街","SECT":" ","MAREA":" ","LANE":" ","ALLEY":" ","HOUSE_NO":"７５號","E_COORD97":165556.41,"N_COORD97":2544506.8799999999,"ADDRESS":"西賢二街７５號","OBJECTID":575104},"geometry":{"x":165556.41000000108,"y":2544506.8800000008}},{"attributes":{"ID":575132,"DIS_CODE":0,"TOWNNAME":"中西區","LI":"西賢里","LIN":"23鄰","STREET":"西賢二街","SECT":" ","MAREA":" ","LANE":" ","ALLEY":" ","HOUSE_NO":"７７號","E_COORD97":165550.70000000001,"N_COORD97":2544506.8799999999,"ADDRESS":"西賢二街７７號","OBJECTID":575105},"geometry":{"x":165550.70000000205,"y":2544506.8800000008}},{"attributes":{"ID":575133,"DIS_CODE":0,"TOWNNAME":"中西區","LI":"西賢里","LIN":"23鄰","STREET":"西賢二街","SECT":" ","MAREA":" ","LANE":" ","ALLEY":" ","HOUSE_NO":"７９號","E_COORD97":165544.09,"N_COORD97":2544506.8799999999,"ADDRESS":"西賢二街７９號","OBJECTID":575106},"geometry":{"x":165544.08999999985,"y":2544506.8800000008}},{"attributes":{"ID":575134,"DIS_CODE":0,"TOWNNAME":"中西區","LI":"西賢里","LIN":"23鄰","STREET":"西賢二街","SECT":" ","MAREA":" ","LANE":" ","ALLEY":" ","HOUSE_NO":"８１號","E_COORD97":165537.87,"N_COORD97":2544506.6200000001,"ADDRESS":"西賢二街８１號","OBJECTID":575107},"geometry":{"x":165537.87000000104,"y":2544506.6200000029}},{"attributes":{"ID":575135,"DIS_CODE":0,"TOWNNAME":"中西區","LI":"西賢里","LIN":"23鄰","STREET":"西賢二街","SECT":" ","MAREA":" ","LANE":" ","ALLEY":" ","HOUSE_NO":"８３號","E_COORD97":165536.85000000001,"N_COORD97":2544515.77,"ADDRESS":"西賢二街８３號","OBJECTID":575108},"geometry":{"x":165536.84999999963,"y":2544515.7699999996}},{"attributes":{"ID":575136,"DIS_CODE":0,"TOWNNAME":"中西區","LI":"西賢里","LIN":"23鄰","STREET":"西賢二街","SECT":" ","MAREA":" ","LANE":" ","ALLEY":" ","HOUSE_NO":"８５號","E_COORD97":165542.82000000001,"N_COORD97":2544516.1499999999,"ADDRESS":"西賢二街８５號","OBJECTID":575109},"geometry":{"x":165542.8200000003,"y":2544516.1500000022}},{"attributes":{"ID":575137,"DIS_CODE":0,"TOWNNAME":"中西區","LI":"西賢里","LIN":"23鄰","STREET":"西賢二街","SECT":" ","MAREA":" ","LANE":" ","ALLEY":" ","HOUSE_NO":"８７號","E_COORD97":165550.06,"N_COORD97":2544517.04,"ADDRESS":"西賢二街８７號","OBJECTID":575110},"geometry":{"x":165550.06000000052,"y":2544517.0399999991}},{"attributes":{"ID":575138,"DIS_CODE":0,"TOWNNAME":"中西區","LI":"西賢里","LIN":"23鄰","STREET":"西賢二街","SECT":" ","MAREA":" ","LANE":" ","ALLEY":" ","HOUSE_NO":"８９號","E_COORD97":165555.89999999999,"N_COORD97":2544517.29,"ADDRESS":"西賢二街８９號","OBJECTID":575111},"geometry":{"x":165555.90000000037,"y":2544517.290000001}},{"attributes":{"ID":575139,"DIS_CODE":0,"TOWNNAME":"中西區","LI":"西賢里","LIN":"23鄰","STREET":"西賢二街","SECT":" ","MAREA":" ","LANE":" ","ALLEY":" ","HOUSE_NO":"９１號","E_COORD97":165562.25,"N_COORD97":2544517.29,"ADDRESS":"西賢二街９１號","OBJECTID":575112},"geometry":{"x":165562.25000000093,"y":2544517.290000001}},{"attributes":{"ID":575140,"DIS_CODE":0,"TOWNNAME":"中西區","LI":"西賢里","LIN":"23鄰","STREET":"西賢二街","SECT":" ","MAREA":" ","LANE":" ","ALLEY":" ","HOUSE_NO":"９３號","E_COORD97":165567.07999999999,"N_COORD97":2544517.4199999999,"ADDRESS":"西賢二街９３號","OBJECTID":575113},"geometry":{"x":165567.08000000101,"y":2544517.4200000018}},{"attributes":{"ID":575141,"DIS_CODE":0,"TOWNNAME":"中西區","LI":"西賢里","LIN":"23鄰","STREET":"西賢二街","SECT":" ","MAREA":" ","LANE":" ","ALLEY":" ","HOUSE_NO":"９５號","E_COORD97":165573.29999999999,"N_COORD97":2544518.0499999998,"ADDRESS":"西賢二街９５號","OBJECTID":575114},"geometry":{"x":165573.30000000168,"y":2544518.0500000007}},{"attributes":{"ID":575142,"DIS_CODE":0,"TOWNNAME":"中西區","LI":"西賢里","LIN":"23鄰","STREET":"西賢二街","SECT":" ","MAREA":" ","LANE":" ","ALLEY":" ","HOUSE_NO":"９７號","E_COORD97":165579.39999999999,"N_COORD97":2544518.6899999999,"ADDRESS":"西賢二街９７號","OBJECTID":575115},"geometry":{"x":165579.40000000037,"y":2544518.6900000013}},{"attributes":{"ID":575143,"DIS_CODE":0,"TOWNNAME":"中西區","LI":"西賢里","LIN":"23鄰","STREET":"華平路","SECT":" ","MAREA":" ","LANE":" ","ALLEY":" ","HOUSE_NO":"８００號","E_COORD97":165525.29999999999,"N_COORD97":2544544.6000000001,"ADDRESS":"華平路８００號","OBJECTID":575116},"geometry":{"x":165525.29999999981,"y":2544544.5999999996}},{"attributes":{"ID":575144,"DIS_CODE":0,"TOWNNAME":"中西區","LI":"西賢里","LIN":"23鄰","STREET":"華平路","SECT":" ","MAREA":" ","LANE":" ","ALLEY":" ","HOUSE_NO":"７９８號","E_COORD97":165524.92000000001,"N_COORD97":2544541.1699999999,"ADDRESS":"華平路７９８號","OBJECTID":575117},"geometry":{"x":165524.91999999993,"y":2544541.1699999999}},{"attributes":{"ID":575145,"DIS_CODE":0,"TOWNNAME":"中西區","LI":"西賢里","LIN":"23鄰","STREET":"西賢二街","SECT":" ","MAREA":" ","LANE":" ","ALLEY":" ","HOUSE_NO":"５５號","E_COORD97":165581.29999999999,"N_COORD97":2544490.8100000001,"ADDRESS":"西賢二街５５號","OBJECTID":575118},"geometry":{"x":165581.29999999981,"y":2544490.8100000042}},{"attributes":{"ID":575146,"DIS_CODE":0,"TOWNNAME":"新市區","LI":"港墘里","LIN":"23鄰","STREET":"南昌街","SECT":" ","MAREA":" ","LANE":" ","ALLEY":" ","HOUSE_NO":"１３之４號","E_COORD97":177990.04999999999,"N_COORD97":2552834.7999999998,"ADDRESS":"南昌街１３之４號","OBJECTID":575119},"geometry":{"x":177990.04999999981,"y":2552834.8000000045}},{"attributes":{"ID":575147,"DIS_CODE":0,"TOWNNAME":"新市區","LI":"新市里","LIN":"23鄰","STREET":"和平街","SECT":" ","MAREA":" ","LANE":" ","ALLEY":" ","HOUSE_NO":"１４號","E_COORD97":177760.14999999999,"N_COORD97":2553472.75,"ADDRESS":"和平街１４號","OBJECTID":575120},"geometry":{"x":177760.1500000013,"y":2553472.7500000019}},{"attributes":{"ID":575148,"DIS_CODE":0,"TOWNNAME":"新市區","LI":"新和里","LIN":"23鄰","STREET":"中正路","SECT":" ","MAREA":" ","LANE":" ","ALLEY":" ","HOUSE_NO":"１４７號","E_COORD97":177395.23000000001,"N_COORD97":2552790.5,"ADDRESS":"中正路１４７號","OBJECTID":575121},"geometry":{"x":177395.23000000138,"y":2552790.5}},{"attributes":{"ID":575149,"DIS_CODE":0,"TOWNNAME":"新市區","LI":"港墘里","LIN":"23鄰","STREET":"南昌街","SECT":" ","MAREA":" ","LANE":" ","ALLEY":" ","HOUSE_NO":"２５號","E_COORD97":177975.26000000001,"N_COORD97":2552923.75,"ADDRESS":"南昌街２５號","OBJECTID":575122},"geometry":{"x":177975.25999999978,"y":2552923.7500000019}},{"attributes":{"ID":575150,"DIS_CODE":0,"TOWNNAME":"新市區","LI":"新和里","LIN":"23鄰","STREET":"中正路","SECT":" ","MAREA":" ","LANE":" ","ALLEY":" ","HOUSE_NO":"１５３號","E_COORD97":177398.17999999999,"N_COORD97":2552806.25,"ADDRESS":"中正路１５３號","OBJECTID":575123},"geometry":{"x":177398.18000000063,"y":2552806.25}},{"attributes":{"ID":575151,"DIS_CODE":0,"TOWNNAME":"新市區","LI":"港墘里","LIN":"23鄰","STREET":"南昌街","SECT":" ","MAREA":" ","LANE":" ","ALLEY":" ","HOUSE_NO":"１５之１號","E_COORD97":177986.76000000001,"N_COORD97":2552861.7999999998,"ADDRESS":"南昌街１５之１號","OBJECTID":575124},"geometry":{"x":177986.75999999978,"y":2552861.8000000045}},{"attributes":{"ID":575152,"DIS_CODE":0,"TOWNNAME":"新市區","LI":"新和里","LIN":"23鄰","STREET":"中正路","SECT":" ","MAREA":" ","LANE":" ","ALLEY":" ","HOUSE_NO":"１９２號","E_COORD97":177417.12,"N_COORD97":2552763,"ADDRESS":"中正路１９２號","OBJECTID":575125},"geometry":{"x":177417.12000000011,"y":2552763}},{"attributes":{"ID":575153,"DIS_CODE":0,"TOWNNAME":"新市區","LI":"新市里","LIN":"23鄰","STREET":"復興路","SECT":" ","MAREA":" ","LANE":" ","ALLEY":" ","HOUSE_NO":"８３號","E_COORD97":177798.17000000001,"N_COORD97":2553538.7799999998,"ADDRESS":"復興路８３號","OBJECTID":575126},"geometry":{"x":177798.16999999993,"y":2553538.7800000012}},{"attributes":{"ID":575154,"DIS_CODE":0,"TOWNNAME":"新市區","LI":"新市里","LIN":"23鄰","STREET":"復興路","SECT":" ","MAREA":" ","LANE":" ","ALLEY":" ","HOUSE_NO":"６９號","E_COORD97":177799.37,"N_COORD97":2553498.2799999998,"ADDRESS":"復興路６９號","OBJECTID":575127},"geometry":{"x":177799.37000000104,"y":2553498.2800000012}},{"attributes":{"ID":575155,"DIS_CODE":0,"TOWNNAME":"新市區","LI":"新市里","LIN":"23鄰","STREET":"復興路","SECT":" ","MAREA":" ","LANE":" ","ALLEY":" ","HOUSE_NO":"７９號","E_COORD97":177798.37,"N_COORD97":2553526.2799999998,"ADDRESS":"復興路７９號","OBJECTID":575128},"geometry":{"x":177798.37000000011,"y":2553526.2800000012}},{"attributes":{"ID":575156,"DIS_CODE":0,"TOWNNAME":"新市區","LI":"新市里","LIN":"23鄰","STREET":"復興路","SECT":" ","MAREA":" ","LANE":" ","ALLEY":" ","HOUSE_NO":"６５號","E_COORD97":177799.67000000001,"N_COORD97":2553487.7799999998,"ADDRESS":"復興路６５號","OBJECTID":575129},"geometry":{"x":177799.66999999993,"y":2553487.7800000031}},{"attributes":{"ID":575157,"DIS_CODE":0,"TOWNNAME":"新市區","LI":"新市里","LIN":"23鄰","STREET":"復興路","SECT":" ","MAREA":" ","LANE":" ","ALLEY":" ","HOUSE_NO":"７５號","E_COORD97":177798.95999999999,"N_COORD97":2553514.7799999998,"ADDRESS":"復興路７５號","OBJECTID":575130},"geometry":{"x":177798.96000000089,"y":2553514.7800000031}},{"attributes":{"ID":575158,"DIS_CODE":0,"TOWNNAME":"新市區","LI":"新市里","LIN":"23鄰","STREET":"復興路","SECT":" ","MAREA":" ","LANE":" ","ALLEY":" ","HOUSE_NO":"７１號","E_COORD97":177799.26000000001,"N_COORD97":2553503.5299999998,"ADDRESS":"復興路７１號","OBJECTID":575131},"geometry":{"x":177799.26000000164,"y":2553503.5300000012}},{"attributes":{"ID":575159,"DIS_CODE":0,"TOWNNAME":"新市區","LI":"新市里","LIN":"23鄰","STREET":"復興路","SECT":" ","MAREA":" ","LANE":" ","ALLEY":" ","HOUSE_NO":"９１號","E_COORD97":177797.57000000001,"N_COORD97":2553562.2799999998,"ADDRESS":"復興路９１號","OBJECTID":575132},"geometry":{"x":177797.5700000003,"y":2553562.2800000031}},{"attributes":{"ID":575160,"DIS_CODE":0,"TOWNNAME":"新市區","LI":"新市里","LIN":"23鄰","STREET":"復興路","SECT":" ","MAREA":" ","LANE":" ","ALLEY":" ","HOUSE_NO":"８７號","E_COORD97":177797.95999999999,"N_COORD97":2553552.0299999998,"ADDRESS":"復興路８７號","OBJECTID":575133},"geometry":{"x":177797.95999999996,"y":2553552.0299999993}},{"attributes":{"ID":575161,"DIS_CODE":0,"TOWNNAME":"安南區","LI":"溪墘里","LIN":"23鄰","STREET":"海佃路","SECT":"一段","MAREA":" ","LANE":" ","ALLEY":" ","HOUSE_NO":"１２８號","E_COORD97":167183.95000000001,"N_COORD97":2547119.9500000002,"ADDRESS":"海佃路一段１２８號","OBJECTID":575134},"geometry":{"x":167183.95000000112,"y":2547119.9500000011}},{"attributes":{"ID":575162,"DIS_CODE":0,"TOWNNAME":"安南區","LI":"溪墘里","LIN":"23鄰","STREET":"海佃路","SECT":"一段","MAREA":" ","LANE":" ","ALLEY":" ","HOUSE_NO":"１３０號","E_COORD97":167183.23000000001,"N_COORD97":2547123.5600000001,"ADDRESS":"海佃路一段１３０號","OBJECTID":575135},"geometry":{"x":167183.23000000231,"y":2547123.5600000024}},{"attributes":{"ID":575163,"DIS_CODE":0,"TOWNNAME":"安南區","LI":"溪墘里","LIN":"23鄰","STREET":"海佃路","SECT":"一段","MAREA":" ","LANE":" ","ALLEY":" ","HOUSE_NO":"１３２號","E_COORD97":167182.37,"N_COORD97":2547127.7999999998,"ADDRESS":"海佃路一段１３２號","OBJECTID":575136},"geometry":{"x":167182.37000000104,"y":2547127.8000000007}},{"attributes":{"ID":575164,"DIS_CODE":0,"TOWNNAME":"安南區","LI":"溪墘里","LIN":"23鄰","STREET":"海佃路","SECT":"一段","MAREA":" ","LANE":" ","ALLEY":" ","HOUSE_NO":"１３４號","E_COORD97":167181.57999999999,"N_COORD97":2547132.1800000002,"ADDRESS":"海佃路一段１３４號","OBJECTID":575137},"geometry":{"x":167181.58000000007,"y":2547132.1800000016}},{"attributes":{"ID":575165,"DIS_CODE":0,"TOWNNAME":"安南區","LI":"溪墘里","LIN":"23鄰","STREET":"海佃路","SECT":"一段","MAREA":" ","LANE":" ","ALLEY":" ","HOUSE_NO":"１３６號","E_COORD97":167181.35999999999,"N_COORD97":2547136.8500000001,"ADDRESS":"海佃路一段１３６號","OBJECTID":575138},"geometry":{"x":167181.36000000127,"y":2547136.8499999996}},{"attributes":{"ID":575166,"DIS_CODE":0,"TOWNNAME":"安南區","LI":"溪墘里","LIN":"23鄰","STREET":"海佃路","SECT":"一段","MAREA":" ","LANE":" ","ALLEY":" ","HOUSE_NO":"１３８號","E_COORD97":167179.85000000001,"N_COORD97":2547140.8799999999,"ADDRESS":"海佃路一段１３８號","OBJECTID":575139},"geometry":{"x":167179.85000000149,"y":2547140.8800000008}},{"attributes":{"ID":575167,"DIS_CODE":0,"TOWNNAME":"安南區","LI":"溪墘里","LIN":"23鄰","STREET":"海佃路","SECT":"一段","MAREA":" ","LANE":" ","ALLEY":" ","HOUSE_NO":"１４０號","E_COORD97":167179.35000000001,"N_COORD97":2547145.6200000001,"ADDRESS":"海佃路一段１４０號","OBJECTID":575140},"geometry":{"x":167179.34999999963,"y":2547145.620000001}},{"attributes":{"ID":575168,"DIS_CODE":0,"TOWNNAME":"安南區","LI":"溪墘里","LIN":"23鄰","STREET":"海佃路","SECT":"一段","MAREA":" ","LANE":" ","ALLEY":" ","HOUSE_NO":"１５２號","E_COORD97":167174.73999999999,"N_COORD97":2547168.0899999999,"ADDRESS":"海佃路一段１５２號","OBJECTID":575141},"geometry":{"x":167174.74000000115,"y":2547168.0899999999}},{"attributes":{"ID":575169,"DIS_CODE":0,"TOWNNAME":"安南區","LI":"溪北里","LIN":"23鄰","STREET":"敦安街","SECT":" ","MAREA":" ","LANE":" ","ALLEY":" ","HOUSE_NO":"５２號","E_COORD97":169234.85999999999,"N_COORD97":2547557.3999999999,"ADDRESS":"敦安街５２號","OBJECTID":575142},"geometry":{"x":169234.86000000034,"y":2547557.4000000004}},{"attributes":{"ID":575170,"DIS_CODE":0,"TOWNNAME":"安南區","LI":"溪墘里","LIN":"23鄰","STREET":"海佃路","SECT":"一段","MAREA":" ","LANE":" ","ALLEY":" ","HOUSE_NO":"１４２號","E_COORD97":167177.20000000001,"N_COORD97":2547152.8500000001,"ADDRESS":"海佃路一段１４２號","OBJECTID":575143},"geometry":{"x":167177.20000000112,"y":2547152.8499999996}},{"attributes":{"ID":575171,"DIS_CODE":0,"TOWNNAME":"善化區","LI":"南關里","LIN":"7鄰","STREET":"三民路","SECT":" ","MAREA":" ","LANE":" ","ALLEY":" ","HOUSE_NO":"１號之１１","E_COORD97":176825.56,"N_COORD97":2558521.02,"ADDRESS":"三民路１號之１１","OBJECTID":575144},"geometry":{"x":176825.55999999959,"y":2558521.0200000033}},{"attributes":{"ID":575172,"DIS_CODE":0,"TOWNNAME":"善化區","LI":"東關里","LIN":"7鄰","STREET":"中山路","SECT":" ","MAREA":" ","LANE":" ","ALLEY":" ","HOUSE_NO":"４７７號","E_COORD97":177243.73999999999,"N_COORD97":2559121.25,"ADDRESS":"中山路４７７號","OBJECTID":575145},"geometry":{"x":177243.74000000022,"y":2559121.2500000019}},{"attributes":{"ID":575173,"DIS_CODE":0,"TOWNNAME":"善化區","LI":"坐駕里","LIN":"10鄰","STREET":"青年路","SECT":" ","MAREA":" ","LANE":" ","ALLEY":" ","HOUSE_NO":"９８號","E_COORD97":177921.06,"N_COORD97":2558590.5,"ADDRESS":"青年路９８號","OBJECTID":575146},"geometry":{"x":177921.06000000052,"y":2558590.5000000019}},{"attributes":{"ID":575174,"DIS_CODE":0,"TOWNNAME":"佳里區","LI":"鎮山里","LIN":"23鄰","STREET":"仁愛路","SECT":" ","MAREA":" ","LANE":" ","ALLEY":" ","HOUSE_NO":"３０號","E_COORD97":166584.14000000001,"N_COORD97":2561224.1800000002,"ADDRESS":"仁愛路３０號","OBJECTID":575147},"geometry":{"x":166584.13999999966,"y":2561224.1799999997}},{"attributes":{"ID":575175,"DIS_CODE":0,"TOWNNAME":"佳里區","LI":"鎮山里","LIN":"23鄰","STREET":"仁愛路","SECT":" ","MAREA":" ","LANE":" ","ALLEY":" ","HOUSE_NO":"１２７號","E_COORD97":166417.98000000001,"N_COORD97":2561341.0299999998,"ADDRESS":"仁愛路１２７號","OBJECTID":575148},"geometry":{"x":166417.98000000045,"y":2561341.0299999993}},{"attributes":{"ID":575176,"DIS_CODE":0,"TOWNNAME":"佳里區","LI":"鎮山里","LIN":"23鄰","STREET":"仁愛路","SECT":" ","MAREA":" ","LANE":" ","ALLEY":" ","HOUSE_NO":"１２９號","E_COORD97":166413.72,"N_COORD97":2561341.9399999999,"ADDRESS":"仁愛路１２９號","OBJECTID":575149},"geometry":{"x":166413.72000000067,"y":2561341.9399999976}},{"attributes":{"ID":575177,"DIS_CODE":0,"TOWNNAME":"佳里區","LI":"鎮山里","LIN":"23鄰","STREET":"仁愛路","SECT":" ","MAREA":" ","LANE":" ","ALLEY":" ","HOUSE_NO":"１３１號","E_COORD97":166409.20000000001,"N_COORD97":2561343.6200000001,"ADDRESS":"仁愛路１３１號","OBJECTID":575150},"geometry":{"x":166409.20000000112,"y":2561343.6200000029}},{"attributes":{"ID":575178,"DIS_CODE":0,"TOWNNAME":"佳里區","LI":"鎮山里","LIN":"23鄰","STREET":"仁愛路","SECT":" ","MAREA":" ","LANE":" ","ALLEY":" ","HOUSE_NO":"１３３號","E_COORD97":166405.13,"N_COORD97":2561344.4199999999,"ADDRESS":"仁愛路１３３號","OBJECTID":575151},"geometry":{"x":166405.12999999896,"y":2561344.4200000018}},{"attributes":{"ID":575179,"DIS_CODE":0,"TOWNNAME":"佳里區","LI":"鎮山里","LIN":"23鄰","STREET":"仁愛路","SECT":" ","MAREA":" ","LANE":" ","ALLEY":" ","HOUSE_NO":"１５５號","E_COORD97":166357.95000000001,"N_COORD97":2561364.0899999999,"ADDRESS":"仁愛路１５５號","OBJECTID":575152},"geometry":{"x":166357.95000000112,"y":2561364.0899999999}},{"attributes":{"ID":575180,"DIS_CODE":0,"TOWNNAME":"佳里區","LI":"鎮山里","LIN":"23鄰","STREET":"仁愛路","SECT":" ","MAREA":" ","LANE":" ","ALLEY":" ","HOUSE_NO":"１５７號","E_COORD97":166353.53,"N_COORD97":2561365.3399999999,"ADDRESS":"仁愛路１５７號","OBJECTID":575153},"geometry":{"x":166353.53000000026,"y":2561365.3399999999}},{"attributes":{"ID":575181,"DIS_CODE":0,"TOWNNAME":"佳里區","LI":"鎮山里","LIN":"23鄰","STREET":"仁愛路","SECT":" ","MAREA":" ","LANE":" ","ALLEY":" ","HOUSE_NO":"１５９號","E_COORD97":166349.12,"N_COORD97":2561366.6000000001,"ADDRESS":"仁愛路１５９號","OBJECTID":575154},"geometry":{"x":166349.12000000011,"y":2561366.6000000015}},{"attributes":{"ID":575182,"DIS_CODE":0,"TOWNNAME":"佳里區","LI":"鎮山里","LIN":"23鄰","STREET":"仁愛路","SECT":" ","MAREA":" ","LANE":" ","ALLEY":" ","HOUSE_NO":"１６１號","E_COORD97":166344.70000000001,"N_COORD97":2561367.8500000001,"ADDRESS":"仁愛路１６１號","OBJECTID":575155},"geometry":{"x":166344.70000000112,"y":2561367.8500000015}},{"attributes":{"ID":575183,"DIS_CODE":0,"TOWNNAME":"佳里區","LI":"鎮山里","LIN":"23鄰","STREET":"仁愛路","SECT":" ","MAREA":" ","LANE":" ","ALLEY":" ","HOUSE_NO":"１６３號","E_COORD97":166340.39999999999,"N_COORD97":2561368.3599999999,"ADDRESS":"仁愛路１６３號","OBJECTID":575156},"geometry":{"x":166340.40000000037,"y":2561368.3599999994}},{"attributes":{"ID":575184,"DIS_CODE":0,"TOWNNAME":"佳里區","LI":"鎮山里","LIN":"23鄰","STREET":"仁愛路","SECT":" ","MAREA":" ","LANE":" ","ALLEY":" ","HOUSE_NO":"２０號之１","E_COORD97":166599.57000000001,"N_COORD97":2561208.4700000002,"ADDRESS":"仁愛路２０號之１","OBJECTID":575157},"geometry":{"x":166599.57000000123,"y":2561208.4700000025}},{"attributes":{"ID":575185,"DIS_CODE":0,"TOWNNAME":"佳里區","LI":"鎮山里","LIN":"23鄰","STREET":"仁愛路","SECT":" ","MAREA":" ","LANE":" ","ALLEY":" ","HOUSE_NO":"２０號之２","E_COORD97":166595.64999999999,"N_COORD97":2561212.4300000002,"ADDRESS":"仁愛路２０號之２","OBJECTID":575158},"geometry":{"x":166595.6500000013,"y":2561212.4299999997}},{"attributes":{"ID":575186,"DIS_CODE":0,"TOWNNAME":"佳里區","LI":"鎮山里","LIN":"23鄰","STREET":"仁愛路","SECT":" ","MAREA":" ","LANE":" ","ALLEY":" ","HOUSE_NO":"２０號","E_COORD97":166602.89000000001,"N_COORD97":2561204.2000000002,"ADDRESS":"仁愛路２０號","OBJECTID":575159},"geometry":{"x":166602.88999999966,"y":2561204.1999999993}},{"attributes":{"ID":575187,"DIS_CODE":0,"TOWNNAME":"佳里區","LI":"鎮山里","LIN":"23鄰","STREET":"仁愛路","SECT":" ","MAREA":" ","LANE":" ","ALLEY":" ","HOUSE_NO":"２２號之１","E_COORD97":166592.60000000001,"N_COORD97":2561217.1600000001,"ADDRESS":"仁愛路２２號之１","OBJECTID":575160},"geometry":{"x":166592.59999999963,"y":2561217.160000002}},{"attributes":{"ID":575188,"DIS_CODE":0,"TOWNNAME":"佳里區","LI":"鎮山里","LIN":"23鄰","STREET":"仁愛路","SECT":" ","MAREA":" ","LANE":" ","ALLEY":" ","HOUSE_NO":"６７號之１","E_COORD97":166485.34,"N_COORD97":2561282.9300000002,"ADDRESS":"仁愛路６７號之１","OBJECTID":575161},"geometry":{"x":166485.34000000078,"y":2561282.9300000016}},{"attributes":{"ID":575189,"DIS_CODE":0,"TOWNNAME":"佳里區","LI":"鎮山里","LIN":"23鄰","STREET":"仁愛路","SECT":" ","MAREA":" ","LANE":" ","ALLEY":" ","HOUSE_NO":"６７號","E_COORD97":166508.72,"N_COORD97":2561248.3399999999,"ADDRESS":"仁愛路６７號","OBJECTID":575162},"geometry":{"x":166508.71999999974,"y":2561248.3400000036}},{"attributes":{"ID":575190,"DIS_CODE":0,"TOWNNAME":"東區","LI":"自強里","LIN":"23鄰","STREET":"富農街","SECT":"一段","MAREA":" ","LANE":" ","ALLEY":" ","HOUSE_NO":"１９３號","E_COORD97":171553.60999999999,"N_COORD97":2542587.3300000001,"ADDRESS":"富農街一段１９３號","OBJECTID":575163},"geometry":{"x":171553.61000000034,"y":2542587.3300000001}},{"attributes":{"ID":575191,"DIS_CODE":0,"TOWNNAME":"東區","LI":"自強里","LIN":"23鄰","STREET":"富農街","SECT":"一段","MAREA":" ","LANE":" ","ALLEY":" ","HOUSE_NO":"１９３號地下一層","E_COORD97":171553.60999999999,"N_COORD97":2542587.3300000001,"ADDRESS":"富農街一段１９３號地下一層","OBJECTID":575164},"geometry":{"x":171553.61000000034,"y":2542587.3300000001}},{"attributes":{"ID":575192,"DIS_CODE":0,"TOWNNAME":"東區","LI":"自強里","LIN":"23鄰","STREET":"富農街","SECT":"一段","MAREA":" ","LANE":" ","ALLEY":" ","HOUSE_NO":"１９３號地下二層","E_COORD97":171553.60999999999,"N_COORD97":2542587.3300000001,"ADDRESS":"富農街一段１９３號地下二層","OBJECTID":575165},"geometry":{"x":171553.61000000034,"y":2542587.3300000001}},{"attributes":{"ID":575193,"DIS_CODE":0,"TOWNNAME":"東區","LI":"自強里","LIN":"23鄰","STREET":"富農街","SECT":"一段","MAREA":" ","LANE":" ","ALLEY":" ","HOUSE_NO":"１９３號地下三層","E_COORD97":171553.60999999999,"N_COORD97":2542587.3300000001,"ADDRESS":"富農街一段１９３號地下三層","OBJECTID":575166},"geometry":{"x":171553.61000000034,"y":2542587.3300000001}},{"attributes":{"ID":575194,"DIS_CODE":0,"TOWNNAME":"佳里區","LI":"建南里","LIN":"23鄰","STREET":"四維三街","SECT":" ","MAREA":" ","LANE":" ","ALLEY":" ","HOUSE_NO":"１０１號","E_COORD97":165534.84,"N_COORD97":2561176.4100000001,"ADDRESS":"四維三街１０１號","OBJECTID":575167},"geometry":{"x":165534.84000000078,"y":2561176.4100000001}},{"attributes":{"ID":575195,"DIS_CODE":0,"TOWNNAME":"佳里區","LI":"建南里","LIN":"23鄰","STREET":"四維三街","SECT":" ","MAREA":" ","LANE":" ","ALLEY":" ","HOUSE_NO":"１０３號","E_COORD97":165534.17999999999,"N_COORD97":2561171.98,"ADDRESS":"四維三街１０３號","OBJECTID":575168},"geometry":{"x":165534.18000000063,"y":2561171.9800000004}},{"attributes":{"ID":575196,"DIS_CODE":0,"TOWNNAME":"佳里區","LI":"建南里","LIN":"23鄰","STREET":"四維三街","SECT":" ","MAREA":" ","LANE":" ","ALLEY":" ","HOUSE_NO":"１０５號","E_COORD97":165533.53,"N_COORD97":2561167.5499999998,"ADDRESS":"四維三街１０５號","OBJECTID":575169},"geometry":{"x":165533.53000000119,"y":2561167.5500000026}},{"attributes":{"ID":575197,"DIS_CODE":0,"TOWNNAME":"佳里區","LI":"建南里","LIN":"23鄰","STREET":"四維三街","SECT":" ","MAREA":" ","LANE":" ","ALLEY":" ","HOUSE_NO":"１０７號","E_COORD97":165532.88,"N_COORD97":2561163.1200000001,"ADDRESS":"四維三街１０７號","OBJECTID":575170},"geometry":{"x":165532.88000000082,"y":2561163.1200000048}},{"attributes":{"ID":575198,"DIS_CODE":0,"TOWNNAME":"佳里區","LI":"建南里","LIN":"23鄰","STREET":"四維三街","SECT":" ","MAREA":" ","LANE":" ","ALLEY":" ","HOUSE_NO":"１０９號","E_COORD97":165532.22,"N_COORD97":2561158.6899999999,"ADDRESS":"四維三街１０９號","OBJECTID":575171},"geometry":{"x":165532.22000000067,"y":2561158.6900000013}},{"attributes":{"ID":575199,"DIS_CODE":0,"TOWNNAME":"佳里區","LI":"建南里","LIN":"23鄰","STREET":"四維三街","SECT":" ","MAREA":" ","LANE":" ","ALLEY":" ","HOUSE_NO":"１１１號","E_COORD97":165531.57000000001,"N_COORD97":2561154.2599999998,"ADDRESS":"四維三街１１１號","OBJECTID":575172},"geometry":{"x":165531.57000000123,"y":2561154.2600000016}},{"attributes":{"ID":575200,"DIS_CODE":0,"TOWNNAME":"佳里區","LI":"建南里","LIN":"23鄰","STREET":"四維三街","SECT":" ","MAREA":" ","LANE":" ","ALLEY":" ","HOUSE_NO":"１１３號","E_COORD97":165530.92000000001,"N_COORD97":2561149.8300000001,"ADDRESS":"四維三街１１３號","OBJECTID":575173},"geometry":{"x":165530.92000000086,"y":2561149.8300000001}},{"attributes":{"ID":575201,"DIS_CODE":0,"TOWNNAME":"佳里區","LI":"建南里","LIN":"23鄰","STREET":"四維三街","SECT":" ","MAREA":" ","LANE":" ","ALLEY":" ","HOUSE_NO":"１１５號","E_COORD97":165531.63,"N_COORD97":2561130.8700000001,"ADDRESS":"四維三街１１５號","OBJECTID":575174},"geometry":{"x":165531.62999999989,"y":2561130.8700000048}},{"attributes":{"ID":575202,"DIS_CODE":0,"TOWNNAME":"佳里區","LI":"建南里","LIN":"23鄰","STREET":"四維三街","SECT":" ","MAREA":" ","LANE":" ","ALLEY":" ","HOUSE_NO":"１１７號","E_COORD97":165530.41,"N_COORD97":2561125.6600000001,"ADDRESS":"四維三街１１７號","OBJECTID":575175},"geometry":{"x":165530.41000000015,"y":2561125.660000002}},{"attributes":{"ID":575203,"DIS_CODE":0,"TOWNNAME":"佳里區","LI":"建南里","LIN":"23鄰","STREET":"四維三街","SECT":" ","MAREA":" ","LANE":" ","ALLEY":" ","HOUSE_NO":"１１９號","E_COORD97":165529.45999999999,"N_COORD97":2561121.3100000001,"ADDRESS":"四維三街１１９號","OBJECTID":575176},"geometry":{"x":165529.45999999996,"y":2561121.3100000024}},{"attributes":{"ID":575204,"DIS_CODE":0,"TOWNNAME":"佳里區","LI":"建南里","LIN":"23鄰","STREET":"四維三街","SECT":" ","MAREA":" ","LANE":" ","ALLEY":" ","HOUSE_NO":"１２１號","E_COORD97":165529.38,"N_COORD97":2561116.52,"ADDRESS":"四維三街１２１號","OBJECTID":575177},"geometry":{"x":165529.38000000082,"y":2561116.5199999996}},{"attributes":{"ID":575205,"DIS_CODE":0,"TOWNNAME":"佳里區","LI":"建南里","LIN":"23鄰","STREET":"四維三街","SECT":" ","MAREA":" ","LANE":" ","ALLEY":" ","HOUSE_NO":"１２３號","E_COORD97":165528.51000000001,"N_COORD97":2561112.3399999999,"ADDRESS":"四維三街１２３號","OBJECTID":575178},"geometry":{"x":165528.51000000071,"y":2561112.3399999999}},{"attributes":{"ID":575206,"DIS_CODE":0,"TOWNNAME":"佳里區","LI":"建南里","LIN":"23鄰","STREET":"四維三街","SECT":" ","MAREA":" ","LANE":" ","ALLEY":" ","HOUSE_NO":"１２５號","E_COORD97":165527.73999999999,"N_COORD97":2561107.1800000002,"ADDRESS":"四維三街１２５號","OBJECTID":575179},"geometry":{"x":165527.74000000022,"y":2561107.1800000016}},{"attributes":{"ID":575207,"DIS_CODE":0,"TOWNNAME":"佳里區","LI":"建南里","LIN":"23鄰","STREET":"四維三街","SECT":" ","MAREA":" ","LANE":" ","ALLEY":" ","HOUSE_NO":"７９號","E_COORD97":165540.44,"N_COORD97":2561224.2599999998,"ADDRESS":"四維三街７９號","OBJECTID":575180},"geometry":{"x":165540.44000000041,"y":2561224.2599999998}},{"attributes":{"ID":575208,"DIS_CODE":0,"TOWNNAME":"佳里區","LI":"建南里","LIN":"23鄰","STREET":"四維三街","SECT":" ","MAREA":" ","LANE":" ","ALLEY":" ","HOUSE_NO":"８１號","E_COORD97":165539.89000000001,"N_COORD97":2561219.7599999998,"ADDRESS":"四維三街８１號","OBJECTID":575181},"geometry":{"x":165539.88999999966,"y":2561219.7600000016}},{"attributes":{"ID":575209,"DIS_CODE":0,"TOWNNAME":"佳里區","LI":"建南里","LIN":"23鄰","STREET":"四維三街","SECT":" ","MAREA":" ","LANE":" ","ALLEY":" ","HOUSE_NO":"８３號","E_COORD97":165539.63,"N_COORD97":2561215.8100000001,"ADDRESS":"四維三街８３號","OBJECTID":575182},"geometry":{"x":165539.63000000082,"y":2561215.8100000024}},{"attributes":{"ID":575210,"DIS_CODE":0,"TOWNNAME":"佳里區","LI":"建南里","LIN":"23鄰","STREET":"四維三街","SECT":" ","MAREA":" ","LANE":" ","ALLEY":" ","HOUSE_NO":"８５號","E_COORD97":165538.78,"N_COORD97":2561210.9199999999,"ADDRESS":"四維三街８５號","OBJECTID":575183},"geometry":{"x":165538.78000000119,"y":2561210.9200000018}},{"attributes":{"ID":575211,"DIS_CODE":0,"TOWNNAME":"佳里區","LI":"建南里","LIN":"23鄰","STREET":"四維三街","SECT":" ","MAREA":" ","LANE":" ","ALLEY":" ","HOUSE_NO":"８７號","E_COORD97":165538.60000000001,"N_COORD97":2561207.21,"ADDRESS":"四維三街８７號","OBJECTID":575184},"geometry":{"x":165538.59999999963,"y":2561207.2100000028}},{"attributes":{"ID":575212,"DIS_CODE":0,"TOWNNAME":"佳里區","LI":"建南里","LIN":"23鄰","STREET":"四維三街","SECT":" ","MAREA":" ","LANE":" ","ALLEY":" ","HOUSE_NO":"８９號","E_COORD97":165537.63,"N_COORD97":2561202.6899999999,"ADDRESS":"四維三街８９號","OBJECTID":575185},"geometry":{"x":165537.63000000082,"y":2561202.6900000013}},{"attributes":{"ID":575213,"DIS_CODE":0,"TOWNNAME":"佳里區","LI":"建南里","LIN":"23鄰","STREET":"四維三街","SECT":" ","MAREA":" ","LANE":" ","ALLEY":" ","HOUSE_NO":"９１號","E_COORD97":165537.06,"N_COORD97":2561198.54,"ADDRESS":"四維三街９１號","OBJECTID":575186},"geometry":{"x":165537.05999999959,"y":2561198.5399999972}},{"attributes":{"ID":575214,"DIS_CODE":0,"TOWNNAME":"佳里區","LI":"建南里","LIN":"23鄰","STREET":"四維三街","SECT":" ","MAREA":" ","LANE":" ","ALLEY":" ","HOUSE_NO":"９３號","E_COORD97":165536.66,"N_COORD97":2561194.6699999999,"ADDRESS":"四維三街９３號","OBJECTID":575187},"geometry":{"x":165536.66000000015,"y":2561194.6699999999}},{"attributes":{"ID":575215,"DIS_CODE":0,"TOWNNAME":"永康區","LI":"網寮里","LIN":"23鄰","STREET":"文化路","SECT":" ","MAREA":" ","LANE":" ","ALLEY":" ","HOUSE_NO":"１２２號","E_COORD97":173910.88,"N_COORD97":2546244.0099999998,"ADDRESS":"文化路１２２號","OBJECTID":575188},"geometry":{"x":173910.87999999989,"y":2546244.0099999998}},{"attributes":{"ID":575216,"DIS_CODE":0,"TOWNNAME":"佳里區","LI":"建南里","LIN":"23鄰","STREET":"四維三街","SECT":" ","MAREA":" ","LANE":" ","ALLEY":" ","HOUSE_NO":"９７號","E_COORD97":165536.14000000001,"N_COORD97":2561185.27,"ADDRESS":"四維三街９７號","OBJECTID":575189},"geometry":{"x":165536.1400000006,"y":2561185.2700000014}},{"attributes":{"ID":575217,"DIS_CODE":0,"TOWNNAME":"佳里區","LI":"建南里","LIN":"23鄰","STREET":"四維三街","SECT":" ","MAREA":" ","LANE":" ","ALLEY":" ","HOUSE_NO":"９９號","E_COORD97":165535.48999999999,"N_COORD97":2561180.8399999999,"ADDRESS":"四維三街９９號","OBJECTID":575190},"geometry":{"x":165535.49000000115,"y":2561180.8400000017}},{"attributes":{"ID":575218,"DIS_CODE":0,"TOWNNAME":"永康區","LI":"尚頂里","LIN":"23鄰","STREET":"南台街","SECT":" ","MAREA":" ","LANE":" ","ALLEY":" ","HOUSE_NO":"４６號","E_COORD97":170363.23000000001,"N_COORD97":2546975.5600000001,"ADDRESS":"南台街４６號","OBJECTID":575191},"geometry":{"x":170363.23000000045,"y":2546975.5600000024}},{"attributes":{"ID":575219,"DIS_CODE":0,"TOWNNAME":"永康區","LI":"網寮里","LIN":"23鄰","STREET":"文化路","SECT":" ","MAREA":" ","LANE":" ","ALLEY":" ","HOUSE_NO":"９０號","E_COORD97":174061.17999999999,"N_COORD97":2546295.8199999998,"ADDRESS":"文化路９０號","OBJECTID":575192},"geometry":{"x":174061.1799999997,"y":2546295.8200000003}},{"attributes":{"ID":575220,"DIS_CODE":0,"TOWNNAME":"永康區","LI":"正強里","LIN":"23鄰","STREET":"正強街","SECT":" ","MAREA":" ","LANE":" ","ALLEY":" ","HOUSE_NO":"２２６號","E_COORD97":173312.87,"N_COORD97":2547702.9900000002,"ADDRESS":"正強街２２６號","OBJECTID":575193},"geometry":{"x":173312.87000000011,"y":2547702.9900000039}},{"attributes":{"ID":575221,"DIS_CODE":0,"TOWNNAME":"永康區","LI":"甲頂里","LIN":"23鄰","STREET":"中正南路","SECT":" ","MAREA":" ","LANE":" ","ALLEY":" ","HOUSE_NO":"１０２號","E_COORD97":169674.22,"N_COORD97":2546868.4100000001,"ADDRESS":"中正南路１０２號","OBJECTID":575194},"geometry":{"x":169674.21999999974,"y":2546868.4100000001}},{"attributes":{"ID":575222,"DIS_CODE":0,"TOWNNAME":"永康區","LI":"尚頂里","LIN":"23鄰","STREET":"南台街","SECT":" ","MAREA":" ","LANE":" ","ALLEY":" ","HOUSE_NO":"５０號","E_COORD97":170355.44,"N_COORD97":2546978.8100000001,"ADDRESS":"南台街５０號","OBJECTID":575195},"geometry":{"x":170355.44000000134,"y":2546978.8100000005}},{"attributes":{"ID":575223,"DIS_CODE":0,"TOWNNAME":"永康區","LI":"龍潭里","LIN":"23鄰","STREET":"龍中街","SECT":" ","MAREA":" ","LANE":" ","ALLEY":" ","HOUSE_NO":"１３６號","E_COORD97":174417.48000000001,"N_COORD97":2548279.7799999998,"ADDRESS":"龍中街１３６號","OBJECTID":575196},"geometry":{"x":174417.48000000045,"y":2548279.7799999975}},{"attributes":{"ID":575224,"DIS_CODE":0,"TOWNNAME":"永康區","LI":"東灣里","LIN":"23鄰","STREET":"大灣一街","SECT":" ","MAREA":" ","LANE":" ","ALLEY":" ","HOUSE_NO":"２８５之１號","E_COORD97":175051.70000000001,"N_COORD97":2544763.46,"ADDRESS":"大灣一街２８５之１號","OBJECTID":575197},"geometry":{"x":175051.70000000019,"y":2544763.4600000009}},{"attributes":{"ID":575225,"DIS_CODE":0,"TOWNNAME":"永康區","LI":"東灣里","LIN":"23鄰","STREET":"大灣一街","SECT":" ","MAREA":" ","LANE":" ","ALLEY":" ","HOUSE_NO":"２８５號","E_COORD97":175048.31,"N_COORD97":2544757.3399999999,"ADDRESS":"大灣一街２８５號","OBJECTID":575198},"geometry":{"x":175048.31000000052,"y":2544757.339999998}},{"attributes":{"ID":575226,"DIS_CODE":0,"TOWNNAME":"永康區","LI":"南灣里","LIN":"23鄰","STREET":"永大路","SECT":"二段","MAREA":" ","LANE":" ","ALLEY":" ","HOUSE_NO":"９０號","E_COORD97":174153.82000000001,"N_COORD97":2544676.2000000002,"ADDRESS":"永大路二段９０號","OBJECTID":575199},"geometry":{"x":174153.82000000123,"y":2544676.1999999974}},{"attributes":{"ID":575227,"DIS_CODE":0,"TOWNNAME":"永康區","LI":"南灣里","LIN":"23鄰","STREET":"大灣一街","SECT":" ","MAREA":" ","LANE":" ","ALLEY":" ","HOUSE_NO":"６號","E_COORD97":174196.76999999999,"N_COORD97":2544774.3599999999,"ADDRESS":"大灣一街６號","OBJECTID":575200},"geometry":{"x":174196.77000000142,"y":2544774.3600000013}}]}