{"displayFieldName":"TOWNNAME","fieldAliases":{"ID":"ID","DIS_CODE":"DIS_CODE","TOWNNAME":"TOWNNAME","LI":"LI","LIN":"LIN","STREET":"STREET","SECT":"SECT","MAREA":"MAREA","LANE":"LANE","ALLEY":"ALLEY","HOUSE_NO":"HOUSE_NO","E_COORD97":"E_COORD97","N_COORD97":"N_COORD97","ADDRESS":"ADDRESS","OBJECTID":"OBJECTID"},"geometryType":"esriGeometryPoint","spatialReference":{"wkid":102443,"latestWkid":3826},"fields":[{"name":"ID","type":"esriFieldTypeDouble","alias":"ID"},{"name":"DIS_CODE","type":"esriFieldTypeInteger","alias":"DIS_CODE"},{"name":"TOWNNAME","type":"esriFieldTypeString","alias":"TOWNNAME","length":8},{"name":"LI","type":"esriFieldTypeString","alias":"LI","length":8},{"name":"LIN","type":"esriFieldTypeString","alias":"LIN","length":12},{"name":"STREET","type":"esriFieldTypeString","alias":"STREET","length":20},{"name":"SECT","type":"esriFieldTypeString","alias":"SECT","length":8},{"name":"MAREA","type":"esriFieldTypeString","alias":"MAREA","length":12},{"name":"LANE","type":"esriFieldTypeString","alias":"LANE","length":10},{"name":"ALLEY","type":"esriFieldTypeString","alias":"ALLEY","length":10},{"name":"HOUSE_NO","type":"esriFieldTypeString","alias":"HOUSE_NO","length":20},{"name":"E_COORD97","type":"esriFieldTypeDouble","alias":"E_COORD97"},{"name":"N_COORD97","type":"esriFieldTypeDouble","alias":"N_COORD97"},{"name":"ADDRESS","type":"esriFieldTypeString","alias":"ADDRESS","length":50},{"name":"OBJECTID","type":"esriFieldTypeOID","alias":"OBJECTID"}],"features":[{"attributes":{"ID":595628,"DIS_CODE":0,"TOWNNAME":"學甲區","LI":"慈福里","LIN":"27鄰","STREET":"民生路","SECT":" ","MAREA":" ","LANE":" ","ALLEY":" ","HOUSE_NO":"３９號之１２","E_COORD97":166506.44,"N_COORD97":2570422.8999999999,"ADDRESS":"民生路３９號之１２","OBJECTID":595601},"geometry":{"x":166506.44000000041,"y":2570422.9000000041}},{"attributes":{"ID":595629,"DIS_CODE":0,"TOWNNAME":"學甲區","LI":"慈福里","LIN":"27鄰","STREET":"民生路","SECT":" ","MAREA":" ","LANE":" ","ALLEY":" ","HOUSE_NO":"３９號之１","E_COORD97":166497.62,"N_COORD97":2570381.6000000001,"ADDRESS":"民生路３９號之１","OBJECTID":595602},"geometry":{"x":166497.62000000104,"y":2570381.6000000015}},{"attributes":{"ID":595630,"DIS_CODE":0,"TOWNNAME":"學甲區","LI":"慈福里","LIN":"27鄰","STREET":"民生路","SECT":" ","MAREA":" ","LANE":" ","ALLEY":" ","HOUSE_NO":"３９號之２","E_COORD97":166498.64999999999,"N_COORD97":2570385.4700000002,"ADDRESS":"民生路３９號之２","OBJECTID":595603},"geometry":{"x":166498.65000000037,"y":2570385.4700000044}},{"attributes":{"ID":595631,"DIS_CODE":0,"TOWNNAME":"學甲區","LI":"慈福里","LIN":"27鄰","STREET":"民生路","SECT":" ","MAREA":" ","LANE":" ","ALLEY":" ","HOUSE_NO":"３９號之３","E_COORD97":166499.63,"N_COORD97":2570389.4900000002,"ADDRESS":"民生路３９號之３","OBJECTID":595604},"geometry":{"x":166499.62999999989,"y":2570389.4900000021}},{"attributes":{"ID":595632,"DIS_CODE":0,"TOWNNAME":"學甲區","LI":"慈福里","LIN":"27鄰","STREET":"民生路","SECT":" ","MAREA":" ","LANE":" ","ALLEY":" ","HOUSE_NO":"３９號之４","E_COORD97":166500.56,"N_COORD97":2570393.5899999999,"ADDRESS":"民生路３９號之４","OBJECTID":595605},"geometry":{"x":166500.56000000052,"y":2570393.589999998}},{"attributes":{"ID":595633,"DIS_CODE":0,"TOWNNAME":"學甲區","LI":"慈福里","LIN":"27鄰","STREET":"民生路","SECT":" ","MAREA":" ","LANE":" ","ALLEY":" ","HOUSE_NO":"３９號","E_COORD97":166495.89000000001,"N_COORD97":2570377.7400000002,"ADDRESS":"民生路３９號","OBJECTID":595606},"geometry":{"x":166495.88999999966,"y":2570377.7400000021}},{"attributes":{"ID":595634,"DIS_CODE":0,"TOWNNAME":"歸仁區","LI":"南興里","LIN":"27鄰","STREET":"文化二十街","SECT":" ","MAREA":" ","LANE":" ","ALLEY":" ","HOUSE_NO":"４１號","E_COORD97":175458.29000000001,"N_COORD97":2541289.3300000001,"ADDRESS":"文化二十街４１號","OBJECTID":595607},"geometry":{"x":175458.2900000019,"y":2541289.3300000038}},{"attributes":{"ID":595635,"DIS_CODE":0,"TOWNNAME":"歸仁區","LI":"南興里","LIN":"27鄰","STREET":"文化二十街","SECT":" ","MAREA":" ","LANE":" ","ALLEY":" ","HOUSE_NO":"３７號","E_COORD97":175442.98999999999,"N_COORD97":2541291.3300000001,"ADDRESS":"文化二十街３７號","OBJECTID":595608},"geometry":{"x":175442.99000000022,"y":2541291.3300000001}},{"attributes":{"ID":595636,"DIS_CODE":0,"TOWNNAME":"歸仁區","LI":"南興里","LIN":"27鄰","STREET":"文化二十街","SECT":" ","MAREA":" ","LANE":" ","ALLEY":" ","HOUSE_NO":"４９號","E_COORD97":175467.69,"N_COORD97":2541306.3300000001,"ADDRESS":"文化二十街４９號","OBJECTID":595609},"geometry":{"x":175467.69000000041,"y":2541306.3300000038}},{"attributes":{"ID":595637,"DIS_CODE":0,"TOWNNAME":"仁德區","LI":"後壁里","LIN":"8鄰","STREET":"民安路","SECT":"二段","MAREA":" ","LANE":" ","ALLEY":" ","HOUSE_NO":"１５４號","E_COORD97":173715.51000000001,"N_COORD97":2539012.0600000001,"ADDRESS":"民安路二段１５４號","OBJECTID":595610},"geometry":{"x":173715.50999999885,"y":2539012.0600000005}},{"attributes":{"ID":595638,"DIS_CODE":0,"TOWNNAME":"仁德區","LI":"新田里","LIN":"15鄰","STREET":"北保東路","SECT":" ","MAREA":" ","LANE":" ","ALLEY":" ","HOUSE_NO":"２號","E_COORD97":173354.51999999999,"N_COORD97":2539412.7400000002,"ADDRESS":"北保東路２號","OBJECTID":595611},"geometry":{"x":173354.52000000048,"y":2539412.7400000021}},{"attributes":{"ID":595639,"DIS_CODE":0,"TOWNNAME":"仁德區","LI":"田厝里","LIN":"1鄰","STREET":"中正路","SECT":"一段","MAREA":" ","LANE":" ","ALLEY":" ","HOUSE_NO":"４７９號","E_COORD97":172791.09,"N_COORD97":2537389.27,"ADDRESS":"中正路一段４７９號","OBJECTID":595612},"geometry":{"x":172791.08999999985,"y":2537389.2699999996}},{"attributes":{"ID":595640,"DIS_CODE":0,"TOWNNAME":"仁德區","LI":"新田里","LIN":"9鄰","STREET":"中正路","SECT":"二段","MAREA":" ","LANE":" ","ALLEY":" ","HOUSE_NO":"６１２號","E_COORD97":173392.26000000001,"N_COORD97":2539768.02,"ADDRESS":"中正路二段６１２號","OBJECTID":595613},"geometry":{"x":173392.26000000071,"y":2539768.0199999996}},{"attributes":{"ID":595641,"DIS_CODE":0,"TOWNNAME":"仁德區","LI":"新田里","LIN":"13鄰","STREET":"中正路","SECT":"二段","MAREA":" ","LANE":" ","ALLEY":" ","HOUSE_NO":"４２５號","E_COORD97":173303.51000000001,"N_COORD97":2539398.7799999998,"ADDRESS":"中正路二段４２５號","OBJECTID":595614},"geometry":{"x":173303.50999999978,"y":2539398.7800000012}},{"attributes":{"ID":595642,"DIS_CODE":0,"TOWNNAME":"仁德區","LI":"新田里","LIN":"6鄰","STREET":"勝利路","SECT":" ","MAREA":" ","LANE":" ","ALLEY":" ","HOUSE_NO":"２４５號","E_COORD97":174844.45999999999,"N_COORD97":2539442.25,"ADDRESS":"勝利路２４５號","OBJECTID":595615},"geometry":{"x":174844.45999999996,"y":2539442.2500000037}},{"attributes":{"ID":595643,"DIS_CODE":0,"TOWNNAME":"仁德區","LI":"後壁里","LIN":"12鄰","STREET":"德南路","SECT":" ","MAREA":" ","LANE":" ","ALLEY":" ","HOUSE_NO":"１０２號","E_COORD97":173585.26000000001,"N_COORD97":2538575.52,"ADDRESS":"德南路１０２號","OBJECTID":595616},"geometry":{"x":173585.26000000071,"y":2538575.5200000033}},{"attributes":{"ID":595644,"DIS_CODE":0,"TOWNNAME":"仁德區","LI":"後壁里","LIN":"12鄰","STREET":"德南路","SECT":" ","MAREA":" ","LANE":" ","ALLEY":" ","HOUSE_NO":"１０２之１６號","E_COORD97":173570.73999999999,"N_COORD97":2538553.0499999998,"ADDRESS":"德南路１０２之１６號","OBJECTID":595617},"geometry":{"x":173570.74000000115,"y":2538553.0500000026}},{"attributes":{"ID":595645,"DIS_CODE":0,"TOWNNAME":"仁德區","LI":"後壁里","LIN":"5鄰","STREET":"德善一街","SECT":" ","MAREA":" ","LANE":" ","ALLEY":" ","HOUSE_NO":"４０號","E_COORD97":173462.35999999999,"N_COORD97":2538933.5099999998,"ADDRESS":"德善一街４０號","OBJECTID":595618},"geometry":{"x":173462.36000000034,"y":2538933.5099999998}},{"attributes":{"ID":595646,"DIS_CODE":0,"TOWNNAME":"仁德區","LI":"後壁里","LIN":"42鄰","STREET":"德崙路","SECT":" ","MAREA":" ","LANE":" ","ALLEY":" ","HOUSE_NO":"３６號","E_COORD97":173284.88,"N_COORD97":2538568.77,"ADDRESS":"德崙路３６號","OBJECTID":595619},"geometry":{"x":173284.88000000082,"y":2538568.7699999996}},{"attributes":{"ID":595647,"DIS_CODE":0,"TOWNNAME":"仁德區","LI":"新田里","LIN":"15鄰","STREET":"中正路","SECT":"二段","MAREA":" ","LANE":" ","ALLEY":" ","HOUSE_NO":"４８０號","E_COORD97":173334.35000000001,"N_COORD97":2539412.0299999998,"ADDRESS":"中正路二段４８０號","OBJECTID":595620},"geometry":{"x":173334.34999999963,"y":2539412.0299999993}},{"attributes":{"ID":595648,"DIS_CODE":0,"TOWNNAME":"楠西區","LI":"楠西里","LIN":"27鄰","STREET":"中正路","SECT":" ","MAREA":" ","LANE":" ","ALLEY":" ","HOUSE_NO":"３８８號之２","E_COORD97":197447.03,"N_COORD97":2562925.2999999998,"ADDRESS":"中正路３８８號之２","OBJECTID":595621},"geometry":{"x":197447.03000000212,"y":2562925.3000000026}},{"attributes":{"ID":595649,"DIS_CODE":0,"TOWNNAME":"楠西區","LI":"楠西里","LIN":"27鄰","STREET":"中正路","SECT":" ","MAREA":" ","LANE":" ","ALLEY":" ","HOUSE_NO":"３８８號之４","E_COORD97":197432.51999999999,"N_COORD97":2562915.2999999998,"ADDRESS":"中正路３８８號之４","OBJECTID":595622},"geometry":{"x":197432.51999999955,"y":2562915.3000000026}},{"attributes":{"ID":595650,"DIS_CODE":0,"TOWNNAME":"仁德區","LI":"新田里","LIN":"4鄰","STREET":"勝利路","SECT":" ","MAREA":" ","LANE":" ","ALLEY":" ","HOUSE_NO":"１６３號","E_COORD97":174334.42999999999,"N_COORD97":2539610.0099999998,"ADDRESS":"勝利路１６３號","OBJECTID":595623},"geometry":{"x":174334.4299999997,"y":2539610.0100000016}},{"attributes":{"ID":595651,"DIS_CODE":0,"TOWNNAME":"楠西區","LI":"楠西里","LIN":"27鄰","STREET":"中正路","SECT":" ","MAREA":" ","LANE":" ","ALLEY":" ","HOUSE_NO":"３８８號之１","E_COORD97":197456.5,"N_COORD97":2562930.2999999998,"ADDRESS":"中正路３８８號之１","OBJECTID":595624},"geometry":{"x":197456.5,"y":2562930.3000000007}},{"attributes":{"ID":595652,"DIS_CODE":0,"TOWNNAME":"楠西區","LI":"楠西里","LIN":"27鄰","STREET":"中正路","SECT":" ","MAREA":" ","LANE":" ","ALLEY":" ","HOUSE_NO":"３８８號","E_COORD97":197617.95999999999,"N_COORD97":2562915.25,"ADDRESS":"中正路３８８號","OBJECTID":595625},"geometry":{"x":197617.95999999996,"y":2562915.2500000019}},{"attributes":{"ID":595653,"DIS_CODE":0,"TOWNNAME":"楠西區","LI":"楠西里","LIN":"27鄰","STREET":"中正路","SECT":" ","MAREA":" ","LANE":" ","ALLEY":" ","HOUSE_NO":"３８８號之１０","E_COORD97":197496.70000000001,"N_COORD97":2562922.2999999998,"ADDRESS":"中正路３８８號之１０","OBJECTID":595626},"geometry":{"x":197496.70000000112,"y":2562922.3000000026}},{"attributes":{"ID":595654,"DIS_CODE":0,"TOWNNAME":"楠西區","LI":"楠西里","LIN":"27鄰","STREET":"博愛路","SECT":" ","MAREA":" ","LANE":" ","ALLEY":" ","HOUSE_NO":"６５號","E_COORD97":197350.82000000001,"N_COORD97":2563457.2799999998,"ADDRESS":"博愛路６５號","OBJECTID":595627},"geometry":{"x":197350.82000000123,"y":2563457.2799999993}},{"attributes":{"ID":595655,"DIS_CODE":0,"TOWNNAME":"楠西區","LI":"楠西里","LIN":"27鄰","STREET":"博愛路","SECT":" ","MAREA":" ","LANE":" ","ALLEY":" ","HOUSE_NO":"６９號","E_COORD97":197340.72,"N_COORD97":2563456.2799999998,"ADDRESS":"博愛路６９號","OBJECTID":595628},"geometry":{"x":197340.72000000067,"y":2563456.2800000012}},{"attributes":{"ID":595656,"DIS_CODE":0,"TOWNNAME":"楠西區","LI":"楠西里","LIN":"27鄰","STREET":"博愛路","SECT":" ","MAREA":" ","LANE":" ","ALLEY":" ","HOUSE_NO":"６３號","E_COORD97":197355.22,"N_COORD97":2563457.2799999998,"ADDRESS":"博愛路６３號","OBJECTID":595629},"geometry":{"x":197355.2200000016,"y":2563457.2799999993}},{"attributes":{"ID":595657,"DIS_CODE":0,"TOWNNAME":"楠西區","LI":"楠西里","LIN":"27鄰","STREET":"博愛路","SECT":" ","MAREA":" ","LANE":" ","ALLEY":" ","HOUSE_NO":"５９號","E_COORD97":197366.82000000001,"N_COORD97":2563457.2799999998,"ADDRESS":"博愛路５９號","OBJECTID":595630},"geometry":{"x":197366.8200000003,"y":2563457.2799999993}},{"attributes":{"ID":595658,"DIS_CODE":0,"TOWNNAME":"楠西區","LI":"楠西里","LIN":"27鄰","STREET":"中正路","SECT":" ","MAREA":" ","LANE":" ","ALLEY":" ","HOUSE_NO":"３２２號","E_COORD97":197447.76000000001,"N_COORD97":2563139.25,"ADDRESS":"中正路３２２號","OBJECTID":595631},"geometry":{"x":197447.75999999978,"y":2563139.25}},{"attributes":{"ID":595659,"DIS_CODE":0,"TOWNNAME":"柳營區","LI":"光福里","LIN":"27鄰","STREET":"十美街","SECT":" ","MAREA":" ","LANE":" ","ALLEY":" ","HOUSE_NO":"３９２號","E_COORD97":180107.16,"N_COORD97":2575555,"ADDRESS":"十美街３９２號","OBJECTID":595632},"geometry":{"x":180107.16000000015,"y":2575555.0000000037}},{"attributes":{"ID":595660,"DIS_CODE":0,"TOWNNAME":"柳營區","LI":"光福里","LIN":"27鄰","STREET":"十美街","SECT":" ","MAREA":" ","LANE":" ","ALLEY":" ","HOUSE_NO":"３９６號","E_COORD97":180103.17000000001,"N_COORD97":2575555.02,"ADDRESS":"十美街３９６號","OBJECTID":595633},"geometry":{"x":180103.16999999993,"y":2575555.0200000014}},{"attributes":{"ID":595661,"DIS_CODE":0,"TOWNNAME":"柳營區","LI":"光福里","LIN":"27鄰","STREET":"十美街","SECT":" ","MAREA":" ","LANE":" ","ALLEY":" ","HOUSE_NO":"３９８號","E_COORD97":180099.17999999999,"N_COORD97":2575555.0299999998,"ADDRESS":"十美街３９８號","OBJECTID":595634},"geometry":{"x":180099.18000000063,"y":2575555.0300000012}},{"attributes":{"ID":595662,"DIS_CODE":0,"TOWNNAME":"柳營區","LI":"光福里","LIN":"27鄰","STREET":"十美街","SECT":" ","MAREA":" ","LANE":" ","ALLEY":" ","HOUSE_NO":"４０２號","E_COORD97":180095.17999999999,"N_COORD97":2575555.04,"ADDRESS":"十美街４０２號","OBJECTID":595635},"geometry":{"x":180095.18000000156,"y":2575555.040000001}},{"attributes":{"ID":595663,"DIS_CODE":0,"TOWNNAME":"柳營區","LI":"光福里","LIN":"27鄰","STREET":"十美街","SECT":" ","MAREA":" ","LANE":" ","ALLEY":" ","HOUSE_NO":"４０６號","E_COORD97":180091.19,"N_COORD97":2575555.0600000001,"ADDRESS":"十美街４０６號","OBJECTID":595636},"geometry":{"x":180091.19000000134,"y":2575555.0600000042}},{"attributes":{"ID":595664,"DIS_CODE":0,"TOWNNAME":"柳營區","LI":"光福里","LIN":"27鄰","STREET":"十美街","SECT":" ","MAREA":" ","LANE":" ","ALLEY":" ","HOUSE_NO":"４０８號","E_COORD97":180087.20000000001,"N_COORD97":2575555.0699999998,"ADDRESS":"十美街４０８號","OBJECTID":595637},"geometry":{"x":180087.20000000112,"y":2575555.0700000022}},{"attributes":{"ID":595665,"DIS_CODE":0,"TOWNNAME":"柳營區","LI":"光福里","LIN":"27鄰","STREET":"十美街","SECT":" ","MAREA":" ","LANE":" ","ALLEY":" ","HOUSE_NO":"４１２號","E_COORD97":180074.89999999999,"N_COORD97":2575556.9100000001,"ADDRESS":"十美街４１２號","OBJECTID":595638},"geometry":{"x":180074.90000000037,"y":2575556.910000002}},{"attributes":{"ID":595666,"DIS_CODE":0,"TOWNNAME":"新營區","LI":"民榮里","LIN":"27鄰","STREET":"太子路","SECT":" ","MAREA":" ","LANE":" ","ALLEY":" ","HOUSE_NO":"１６號","E_COORD97":178392.92000000001,"N_COORD97":2578146.2799999998,"ADDRESS":"太子路１６號","OBJECTID":595639},"geometry":{"x":178392.91999999993,"y":2578146.2800000012}},{"attributes":{"ID":595667,"DIS_CODE":0,"TOWNNAME":"新營區","LI":"新北里","LIN":"27鄰","STREET":"金華路","SECT":"二段","MAREA":" ","LANE":" ","ALLEY":" ","HOUSE_NO":"４６號","E_COORD97":178897.41,"N_COORD97":2579026.48,"ADDRESS":"金華路二段４６號","OBJECTID":595640},"geometry":{"x":178897.41000000108,"y":2579026.4800000004}},{"attributes":{"ID":595668,"DIS_CODE":0,"TOWNNAME":"新營區","LI":"王公里","LIN":"27鄰","STREET":"民族路","SECT":" ","MAREA":" ","LANE":" ","ALLEY":" ","HOUSE_NO":"２５３號","E_COORD97":180387.54999999999,"N_COORD97":2579608.5800000001,"ADDRESS":"民族路２５３號","OBJECTID":595641},"geometry":{"x":180387.55000000168,"y":2579608.5800000001}},{"attributes":{"ID":595669,"DIS_CODE":0,"TOWNNAME":"新營區","LI":"新東里","LIN":"27鄰","STREET":"東興路","SECT":" ","MAREA":" ","LANE":" ","ALLEY":" ","HOUSE_NO":"２２９號","E_COORD97":180725.23000000001,"N_COORD97":2579641.3199999998,"ADDRESS":"東興路２２９號","OBJECTID":595642},"geometry":{"x":180725.23000000138,"y":2579641.3200000003}},{"attributes":{"ID":595670,"DIS_CODE":0,"TOWNNAME":"新營區","LI":"民生里","LIN":"27鄰","STREET":"進修街","SECT":" ","MAREA":" ","LANE":" ","ALLEY":" ","HOUSE_NO":"３１之１號","E_COORD97":178935.29000000001,"N_COORD97":2578510.29,"ADDRESS":"進修街３１之１號","OBJECTID":595643},"geometry":{"x":178935.29000000097,"y":2578510.2899999991}},{"attributes":{"ID":595671,"DIS_CODE":0,"TOWNNAME":"仁德區","LI":"後壁里","LIN":"42鄰","STREET":"德崙路","SECT":" ","MAREA":" ","LANE":" ","ALLEY":" ","HOUSE_NO":"６８號","E_COORD97":173347.57000000001,"N_COORD97":2538521.2599999998,"ADDRESS":"德崙路６８號","OBJECTID":595644},"geometry":{"x":173347.5700000003,"y":2538521.2600000016}},{"attributes":{"ID":595672,"DIS_CODE":0,"TOWNNAME":"仁德區","LI":"後壁里","LIN":"39鄰","STREET":"德善一街","SECT":" ","MAREA":" ","LANE":" ","ALLEY":" ","HOUSE_NO":"３３號","E_COORD97":173439.89999999999,"N_COORD97":2538996.52,"ADDRESS":"德善一街３３號","OBJECTID":595645},"geometry":{"x":173439.90000000037,"y":2538996.5200000014}},{"attributes":{"ID":595673,"DIS_CODE":0,"TOWNNAME":"仁德區","LI":"後壁里","LIN":"42鄰","STREET":"德崙路","SECT":" ","MAREA":" ","LANE":" ","ALLEY":" ","HOUSE_NO":"２２號","E_COORD97":173257.51999999999,"N_COORD97":2538592.2599999998,"ADDRESS":"德崙路２２號","OBJECTID":595646},"geometry":{"x":173257.52000000142,"y":2538592.2600000016}},{"attributes":{"ID":595674,"DIS_CODE":0,"TOWNNAME":"仁德區","LI":"新田里","LIN":"15鄰","STREET":"北保東路","SECT":" ","MAREA":" ","LANE":" ","ALLEY":" ","HOUSE_NO":"１０號","E_COORD97":173381.37,"N_COORD97":2539404,"ADDRESS":"北保東路１０號","OBJECTID":595647},"geometry":{"x":173381.37000000197,"y":2539404.0000000019}},{"attributes":{"ID":595675,"DIS_CODE":0,"TOWNNAME":"仁德區","LI":"成功里","LIN":"31鄰","STREET":"成功一街","SECT":" ","MAREA":" ","LANE":" ","ALLEY":" ","HOUSE_NO":"９號","E_COORD97":170546.57000000001,"N_COORD97":2540199.02,"ADDRESS":"成功一街９號","OBJECTID":595648},"geometry":{"x":170546.57000000123,"y":2540199.0199999977}},{"attributes":{"ID":595676,"DIS_CODE":0,"TOWNNAME":"安平區","LI":"建平里","LIN":"27鄰","STREET":"永華五街","SECT":" ","MAREA":" ","LANE":" ","ALLEY":" ","HOUSE_NO":"７９號","E_COORD97":165892.48999999999,"N_COORD97":2543635.5499999998,"ADDRESS":"永華五街７９號","OBJECTID":595649},"geometry":{"x":165892.49000000022,"y":2543635.5500000026}},{"attributes":{"ID":595677,"DIS_CODE":0,"TOWNNAME":"安平區","LI":"建平里","LIN":"27鄰","STREET":"永華五街","SECT":" ","MAREA":" ","LANE":" ","ALLEY":" ","HOUSE_NO":"８３號","E_COORD97":165892.13,"N_COORD97":2543640.46,"ADDRESS":"永華五街８３號","OBJECTID":595650},"geometry":{"x":165892.13000000082,"y":2543640.4600000028}},{"attributes":{"ID":595678,"DIS_CODE":0,"TOWNNAME":"安平區","LI":"建平里","LIN":"27鄰","STREET":"永華五街","SECT":" ","MAREA":" ","LANE":" ","ALLEY":" ","HOUSE_NO":"８５號","E_COORD97":165888.57000000001,"N_COORD97":2543643.9500000002,"ADDRESS":"永華五街８５號","OBJECTID":595651},"geometry":{"x":165888.5700000003,"y":2543643.950000003}},{"attributes":{"ID":595679,"DIS_CODE":0,"TOWNNAME":"安平區","LI":"建平里","LIN":"27鄰","STREET":"永華五街","SECT":" ","MAREA":" ","LANE":" ","ALLEY":" ","HOUSE_NO":"８７號","E_COORD97":165892.91,"N_COORD97":2543646.6600000001,"ADDRESS":"永華五街８７號","OBJECTID":595652},"geometry":{"x":165892.91000000015,"y":2543646.6600000001}},{"attributes":{"ID":595680,"DIS_CODE":0,"TOWNNAME":"安平區","LI":"建平里","LIN":"27鄰","STREET":"永華五街","SECT":" ","MAREA":" ","LANE":" ","ALLEY":" ","HOUSE_NO":"８９號","E_COORD97":165894.42999999999,"N_COORD97":2543651.8599999999,"ADDRESS":"永華五街８９號","OBJECTID":595653},"geometry":{"x":165894.43000000156,"y":2543651.8600000031}},{"attributes":{"ID":595681,"DIS_CODE":0,"TOWNNAME":"安平區","LI":"建平里","LIN":"27鄰","STREET":"永華五街","SECT":" ","MAREA":" ","LANE":" ","ALLEY":" ","HOUSE_NO":"９１號","E_COORD97":165874.98000000001,"N_COORD97":2543677.2200000002,"ADDRESS":"永華五街９１號","OBJECTID":595654},"geometry":{"x":165874.98000000138,"y":2543677.2200000007}},{"attributes":{"ID":595682,"DIS_CODE":0,"TOWNNAME":"安平區","LI":"華平里","LIN":"27鄰","STREET":"平通路","SECT":" ","MAREA":" ","LANE":" ","ALLEY":" ","HOUSE_NO":"４３２號","E_COORD97":165308.94,"N_COORD97":2543784.0099999998,"ADDRESS":"平通路４３２號","OBJECTID":595655},"geometry":{"x":165308.94000000134,"y":2543784.0100000016}},{"attributes":{"ID":595683,"DIS_CODE":0,"TOWNNAME":"安平區","LI":"華平里","LIN":"27鄰","STREET":"平通路","SECT":" ","MAREA":" ","LANE":" ","ALLEY":" ","HOUSE_NO":"４３４號","E_COORD97":165304.56,"N_COORD97":2543784.6000000001,"ADDRESS":"平通路４３４號","OBJECTID":595656},"geometry":{"x":165304.55999999959,"y":2543784.5999999996}},{"attributes":{"ID":595684,"DIS_CODE":0,"TOWNNAME":"安平區","LI":"華平里","LIN":"27鄰","STREET":"平通路","SECT":" ","MAREA":" ","LANE":" ","ALLEY":" ","HOUSE_NO":"４３６號","E_COORD97":165301.19,"N_COORD97":2543785.4399999999,"ADDRESS":"平通路４３６號","OBJECTID":595657},"geometry":{"x":165301.19000000041,"y":2543785.4399999995}},{"attributes":{"ID":595685,"DIS_CODE":0,"TOWNNAME":"安平區","LI":"華平里","LIN":"27鄰","STREET":"平通路","SECT":" ","MAREA":" ","LANE":" ","ALLEY":" ","HOUSE_NO":"４３８號","E_COORD97":165296.64000000001,"N_COORD97":2543785.77,"ADDRESS":"平通路４３８號","OBJECTID":595658},"geometry":{"x":165296.6400000006,"y":2543785.7700000014}},{"attributes":{"ID":595686,"DIS_CODE":0,"TOWNNAME":"安平區","LI":"華平里","LIN":"27鄰","STREET":"平通路","SECT":" ","MAREA":" ","LANE":" ","ALLEY":" ","HOUSE_NO":"４４０號","E_COORD97":165292.51999999999,"N_COORD97":2543786.0299999998,"ADDRESS":"平通路４４０號","OBJECTID":595659},"geometry":{"x":165292.52000000048,"y":2543786.0300000031}},{"attributes":{"ID":595687,"DIS_CODE":0,"TOWNNAME":"安平區","LI":"華平里","LIN":"27鄰","STREET":"平通路","SECT":" ","MAREA":" ","LANE":" ","ALLEY":" ","HOUSE_NO":"４４２號","E_COORD97":165288.22,"N_COORD97":2543786.7799999998,"ADDRESS":"平通路４４２號","OBJECTID":595660},"geometry":{"x":165288.21999999974,"y":2543786.7799999993}},{"attributes":{"ID":595688,"DIS_CODE":0,"TOWNNAME":"安平區","LI":"華平里","LIN":"27鄰","STREET":"平通路","SECT":" ","MAREA":" ","LANE":" ","ALLEY":" ","HOUSE_NO":"４４４號","E_COORD97":165283.92999999999,"N_COORD97":2543787.2000000002,"ADDRESS":"平通路４４４號","OBJECTID":595661},"geometry":{"x":165283.9299999997,"y":2543787.1999999993}},{"attributes":{"ID":595689,"DIS_CODE":0,"TOWNNAME":"安平區","LI":"華平里","LIN":"27鄰","STREET":"平通路","SECT":" ","MAREA":" ","LANE":" ","ALLEY":" ","HOUSE_NO":"４４６號","E_COORD97":165280.47,"N_COORD97":2543788.1299999999,"ADDRESS":"平通路４４６號","OBJECTID":595662},"geometry":{"x":165280.46999999881,"y":2543788.1299999971}},{"attributes":{"ID":595690,"DIS_CODE":0,"TOWNNAME":"安平區","LI":"華平里","LIN":"27鄰","STREET":"平通路","SECT":" ","MAREA":" ","LANE":" ","ALLEY":" ","HOUSE_NO":"４４８號","E_COORD97":165276.20000000001,"N_COORD97":2543788.4700000002,"ADDRESS":"平通路４４８號","OBJECTID":595663},"geometry":{"x":165276.20000000205,"y":2543788.4700000025}},{"attributes":{"ID":595691,"DIS_CODE":0,"TOWNNAME":"安平區","LI":"華平里","LIN":"27鄰","STREET":"平通路","SECT":" ","MAREA":" ","LANE":" ","ALLEY":" ","HOUSE_NO":"４５０號","E_COORD97":165272.32999999999,"N_COORD97":2543789.1400000001,"ADDRESS":"平通路４５０號","OBJECTID":595664},"geometry":{"x":165272.33000000101,"y":2543789.1400000006}},{"attributes":{"ID":595692,"DIS_CODE":0,"TOWNNAME":"安平區","LI":"華平里","LIN":"27鄰","STREET":"平通路","SECT":" ","MAREA":" ","LANE":" ","ALLEY":" ","HOUSE_NO":"４５２號","E_COORD97":165269.29999999999,"N_COORD97":2543789.6499999999,"ADDRESS":"平通路４５２號","OBJECTID":595665},"geometry":{"x":165269.29999999981,"y":2543789.6500000041}},{"attributes":{"ID":595693,"DIS_CODE":0,"TOWNNAME":"安平區","LI":"華平里","LIN":"27鄰","STREET":"平通路","SECT":" ","MAREA":" ","LANE":" ","ALLEY":" ","HOUSE_NO":"４５４號","E_COORD97":165263.91,"N_COORD97":2543790.6600000001,"ADDRESS":"平通路４５４號","OBJECTID":595666},"geometry":{"x":165263.91000000015,"y":2543790.660000002}},{"attributes":{"ID":595694,"DIS_CODE":0,"TOWNNAME":"安平區","LI":"華平里","LIN":"27鄰","STREET":"平通路","SECT":" ","MAREA":" ","LANE":" ","ALLEY":" ","HOUSE_NO":"４５６號","E_COORD97":165259.95000000001,"N_COORD97":2543791.0800000001,"ADDRESS":"平通路４５６號","OBJECTID":595667},"geometry":{"x":165259.95000000112,"y":2543791.0800000019}},{"attributes":{"ID":595695,"DIS_CODE":0,"TOWNNAME":"仁德區","LI":"成功里","LIN":"20鄰","STREET":"保生路","SECT":" ","MAREA":" ","LANE":" ","ALLEY":" ","HOUSE_NO":"９８號","E_COORD97":170674.51000000001,"N_COORD97":2539820,"ADDRESS":"保生路９８號","OBJECTID":595668},"geometry":{"x":170674.51000000164,"y":2539819.9999999981}},{"attributes":{"ID":595696,"DIS_CODE":0,"TOWNNAME":"仁德區","LI":"新田里","LIN":"17鄰","STREET":"民安路","SECT":"二段","MAREA":" ","LANE":" ","ALLEY":" ","HOUSE_NO":"７３號","E_COORD97":173468.29000000001,"N_COORD97":2539217.8100000001,"ADDRESS":"民安路二段７３號","OBJECTID":595669},"geometry":{"x":173468.2900000019,"y":2539217.8100000005}},{"attributes":{"ID":595697,"DIS_CODE":0,"TOWNNAME":"安平區","LI":"華平里","LIN":"27鄰","STREET":"平通路","SECT":" ","MAREA":" ","LANE":" ","ALLEY":" ","HOUSE_NO":"４５８號","E_COORD97":165255.48999999999,"N_COORD97":2543792,"ADDRESS":"平通路４５８號","OBJECTID":595670},"geometry":{"x":165255.49000000209,"y":2543792.0000000019}},{"attributes":{"ID":595698,"DIS_CODE":0,"TOWNNAME":"安平區","LI":"華平里","LIN":"27鄰","STREET":"平通路","SECT":" ","MAREA":" ","LANE":" ","ALLEY":" ","HOUSE_NO":"４６０號","E_COORD97":165251.85999999999,"N_COORD97":2543792.5099999998,"ADDRESS":"平通路４６０號","OBJECTID":595671},"geometry":{"x":165251.86000000127,"y":2543792.5099999998}},{"attributes":{"ID":595699,"DIS_CODE":0,"TOWNNAME":"安平區","LI":"華平里","LIN":"27鄰","STREET":"平通路","SECT":" ","MAREA":" ","LANE":" ","ALLEY":" ","HOUSE_NO":"４６２號","E_COORD97":165248.07000000001,"N_COORD97":2543793.0099999998,"ADDRESS":"平通路４６２號","OBJECTID":595672},"geometry":{"x":165248.0700000003,"y":2543793.0099999998}},{"attributes":{"ID":595700,"DIS_CODE":0,"TOWNNAME":"安平區","LI":"華平里","LIN":"27鄰","STREET":"平通路","SECT":" ","MAREA":" ","LANE":" ","ALLEY":" ","HOUSE_NO":"４６４號","E_COORD97":165243.78,"N_COORD97":2543793.4300000002,"ADDRESS":"平通路４６４號","OBJECTID":595673},"geometry":{"x":165243.78000000119,"y":2543793.4299999997}},{"attributes":{"ID":595701,"DIS_CODE":0,"TOWNNAME":"安平區","LI":"華平里","LIN":"27鄰","STREET":"平通路","SECT":" ","MAREA":" ","LANE":" ","ALLEY":" ","HOUSE_NO":"４６６號","E_COORD97":165239.73999999999,"N_COORD97":2543794.1000000001,"ADDRESS":"平通路４６６號","OBJECTID":595674},"geometry":{"x":165239.74000000022,"y":2543794.1000000015}},{"attributes":{"ID":595702,"DIS_CODE":0,"TOWNNAME":"安平區","LI":"華平里","LIN":"27鄰","STREET":"平通路","SECT":" ","MAREA":" ","LANE":" ","ALLEY":" ","HOUSE_NO":"４６８號","E_COORD97":165235.35999999999,"N_COORD97":2543795.2799999998,"ADDRESS":"平通路４６８號","OBJECTID":595675},"geometry":{"x":165235.36000000034,"y":2543795.2800000012}},{"attributes":{"ID":595703,"DIS_CODE":0,"TOWNNAME":"安平區","LI":"華平里","LIN":"27鄰","STREET":"平通路","SECT":" ","MAREA":" ","LANE":" ","ALLEY":" ","HOUSE_NO":"４７０號","E_COORD97":165231.73999999999,"N_COORD97":2543796.6299999999,"ADDRESS":"平通路４７０號","OBJECTID":595676},"geometry":{"x":165231.74000000209,"y":2543796.6300000008}},{"attributes":{"ID":595704,"DIS_CODE":0,"TOWNNAME":"安平區","LI":"華平里","LIN":"27鄰","STREET":"平通路","SECT":" ","MAREA":" ","LANE":" ","ALLEY":" ","HOUSE_NO":"４７４號","E_COORD97":165223.57000000001,"N_COORD97":2543797.5299999998,"ADDRESS":"平通路４７４號","OBJECTID":595677},"geometry":{"x":165223.57000000123,"y":2543797.5300000012}},{"attributes":{"ID":595705,"DIS_CODE":0,"TOWNNAME":"安平區","LI":"華平里","LIN":"27鄰","STREET":"平通路","SECT":" ","MAREA":" ","LANE":" ","ALLEY":" ","HOUSE_NO":"４７６號","E_COORD97":165218.44,"N_COORD97":2543798.3500000001,"ADDRESS":"平通路４７６號","OBJECTID":595678},"geometry":{"x":165218.44000000041,"y":2543798.3500000015}},{"attributes":{"ID":595706,"DIS_CODE":0,"TOWNNAME":"安平區","LI":"華平里","LIN":"27鄰","STREET":"平通路","SECT":" ","MAREA":" ","LANE":" ","ALLEY":" ","HOUSE_NO":"４７８號","E_COORD97":165215.12,"N_COORD97":2543798.8500000001,"ADDRESS":"平通路４７８號","OBJECTID":595679},"geometry":{"x":165215.12000000011,"y":2543798.8500000015}},{"attributes":{"ID":595707,"DIS_CODE":0,"TOWNNAME":"安平區","LI":"華平里","LIN":"27鄰","STREET":"平通路","SECT":" ","MAREA":" ","LANE":" ","ALLEY":" ","HOUSE_NO":"４８０號","E_COORD97":165211.14999999999,"N_COORD97":2543799.1800000002,"ADDRESS":"平通路４８０號","OBJECTID":595680},"geometry":{"x":165211.1500000013,"y":2543799.1800000034}},{"attributes":{"ID":595708,"DIS_CODE":0,"TOWNNAME":"安平區","LI":"華平里","LIN":"27鄰","STREET":"平通路","SECT":" ","MAREA":" ","LANE":" ","ALLEY":" ","HOUSE_NO":"４８２號","E_COORD97":165207.5,"N_COORD97":2543800.0099999998,"ADDRESS":"平通路４８２號","OBJECTID":595681},"geometry":{"x":165207.5,"y":2543800.0099999979}},{"attributes":{"ID":595709,"DIS_CODE":0,"TOWNNAME":"安平區","LI":"華平里","LIN":"27鄰","STREET":"平通路","SECT":" ","MAREA":" ","LANE":" ","ALLEY":" ","HOUSE_NO":"４８４號","E_COORD97":165203.35999999999,"N_COORD97":2543801.1699999999,"ADDRESS":"平通路４８４號","OBJECTID":595682},"geometry":{"x":165203.36000000034,"y":2543801.1699999999}},{"attributes":{"ID":595710,"DIS_CODE":0,"TOWNNAME":"安平區","LI":"華平里","LIN":"27鄰","STREET":"平通路","SECT":" ","MAREA":" ","LANE":" ","ALLEY":" ","HOUSE_NO":"４８６號","E_COORD97":165198.72,"N_COORD97":2543801.6600000001,"ADDRESS":"平通路４８６號","OBJECTID":595683},"geometry":{"x":165198.71999999974,"y":2543801.6600000001}},{"attributes":{"ID":595711,"DIS_CODE":0,"TOWNNAME":"安平區","LI":"華平里","LIN":"27鄰","STREET":"平通路","SECT":" ","MAREA":" ","LANE":" ","ALLEY":" ","HOUSE_NO":"４８８號","E_COORD97":165195.41,"N_COORD97":2543802.1600000001,"ADDRESS":"平通路４８８號","OBJECTID":595684},"geometry":{"x":165195.41000000108,"y":2543802.1600000001}},{"attributes":{"ID":595712,"DIS_CODE":0,"TOWNNAME":"安平區","LI":"華平里","LIN":"27鄰","STREET":"平通路","SECT":" ","MAREA":" ","LANE":" ","ALLEY":" ","HOUSE_NO":"４９０號","E_COORD97":165190.60999999999,"N_COORD97":2543802.3199999998,"ADDRESS":"平通路４９０號","OBJECTID":595685},"geometry":{"x":165190.61000000127,"y":2543802.3200000022}},{"attributes":{"ID":595713,"DIS_CODE":0,"TOWNNAME":"安平區","LI":"華平里","LIN":"27鄰","STREET":"平通路","SECT":" ","MAREA":" ","LANE":" ","ALLEY":" ","HOUSE_NO":"４９４號","E_COORD97":165180.82999999999,"N_COORD97":2543803.8100000001,"ADDRESS":"平通路４９４號","OBJECTID":595686},"geometry":{"x":165180.83000000101,"y":2543803.8100000024}},{"attributes":{"ID":595714,"DIS_CODE":0,"TOWNNAME":"安平區","LI":"華平里","LIN":"27鄰","STREET":"平通路","SECT":" ","MAREA":" ","LANE":" ","ALLEY":" ","HOUSE_NO":"４９６號","E_COORD97":165176.53,"N_COORD97":2543804.6400000001,"ADDRESS":"平通路４９６號","OBJECTID":595687},"geometry":{"x":165176.53000000026,"y":2543804.6400000025}},{"attributes":{"ID":595715,"DIS_CODE":0,"TOWNNAME":"安平區","LI":"華平里","LIN":"27鄰","STREET":"平通路","SECT":" ","MAREA":" ","LANE":" ","ALLEY":" ","HOUSE_NO":"５００號","E_COORD97":165156.73999999999,"N_COORD97":2543806.6899999999,"ADDRESS":"平通路５００號","OBJECTID":595688},"geometry":{"x":165156.74000000022,"y":2543806.6900000013}},{"attributes":{"ID":595716,"DIS_CODE":0,"TOWNNAME":"安平區","LI":"華平里","LIN":"27鄰","STREET":"平通路","SECT":" ","MAREA":" ","LANE":" ","ALLEY":" ","HOUSE_NO":"５０２號","E_COORD97":165152.26000000001,"N_COORD97":2543807.5099999998,"ADDRESS":"平通路５０２號","OBJECTID":595689},"geometry":{"x":165152.26000000071,"y":2543807.5100000016}},{"attributes":{"ID":595717,"DIS_CODE":0,"TOWNNAME":"安平區","LI":"華平里","LIN":"27鄰","STREET":"平通路","SECT":" ","MAREA":" ","LANE":" ","ALLEY":" ","HOUSE_NO":"５０４號","E_COORD97":165148.12,"N_COORD97":2543808.0099999998,"ADDRESS":"平通路５０４號","OBJECTID":595690},"geometry":{"x":165148.12000000104,"y":2543808.0100000016}},{"attributes":{"ID":595718,"DIS_CODE":0,"TOWNNAME":"安平區","LI":"華平里","LIN":"27鄰","STREET":"平通路","SECT":" ","MAREA":" ","LANE":" ","ALLEY":" ","HOUSE_NO":"５０６號","E_COORD97":165143.82000000001,"N_COORD97":2543808.6699999999,"ADDRESS":"平通路５０６號","OBJECTID":595691},"geometry":{"x":165143.82000000123,"y":2543808.6699999999}},{"attributes":{"ID":595719,"DIS_CODE":0,"TOWNNAME":"安平區","LI":"華平里","LIN":"27鄰","STREET":"平通路","SECT":" ","MAREA":" ","LANE":" ","ALLEY":" ","HOUSE_NO":"５０８號","E_COORD97":165139.17999999999,"N_COORD97":2543809.1699999999,"ADDRESS":"平通路５０８號","OBJECTID":595692},"geometry":{"x":165139.18000000063,"y":2543809.1699999981}},{"attributes":{"ID":595720,"DIS_CODE":0,"TOWNNAME":"安平區","LI":"華平里","LIN":"27鄰","STREET":"平通路","SECT":" ","MAREA":" ","LANE":" ","ALLEY":" ","HOUSE_NO":"５１０號","E_COORD97":165135.04000000001,"N_COORD97":2543809.6699999999,"ADDRESS":"平通路５１０號","OBJECTID":595693},"geometry":{"x":165135.04000000097,"y":2543809.6700000037}},{"attributes":{"ID":595721,"DIS_CODE":0,"TOWNNAME":"安平區","LI":"華平里","LIN":"27鄰","STREET":"平通路","SECT":" ","MAREA":" ","LANE":" ","ALLEY":" ","HOUSE_NO":"５１４號","E_COORD97":165126.42000000001,"N_COORD97":2543811.4900000002,"ADDRESS":"平通路５１４號","OBJECTID":595694},"geometry":{"x":165126.41999999993,"y":2543811.4900000021}},{"attributes":{"ID":595722,"DIS_CODE":0,"TOWNNAME":"安平區","LI":"華平里","LIN":"27鄰","STREET":"平通路","SECT":" ","MAREA":" ","LANE":" ","ALLEY":" ","HOUSE_NO":"５１６號","E_COORD97":165121.62,"N_COORD97":2543812.1499999999,"ADDRESS":"平通路５１６號","OBJECTID":595695},"geometry":{"x":165121.62000000011,"y":2543812.1500000004}},{"attributes":{"ID":595723,"DIS_CODE":0,"TOWNNAME":"安平區","LI":"華平里","LIN":"27鄰","STREET":"平通路","SECT":" ","MAREA":" ","LANE":" ","ALLEY":" ","HOUSE_NO":"５１８號","E_COORD97":165117.81,"N_COORD97":2543812.9700000002,"ADDRESS":"平通路５１８號","OBJECTID":595696},"geometry":{"x":165117.81000000052,"y":2543812.9700000025}},{"attributes":{"ID":595724,"DIS_CODE":0,"TOWNNAME":"安平區","LI":"華平里","LIN":"27鄰","STREET":"平通路","SECT":" ","MAREA":" ","LANE":" ","ALLEY":" ","HOUSE_NO":"５２０號","E_COORD97":165113.82999999999,"N_COORD97":2543813.1400000001,"ADDRESS":"平通路５２０號","OBJECTID":595697},"geometry":{"x":165113.83000000007,"y":2543813.1400000006}},{"attributes":{"ID":595725,"DIS_CODE":0,"TOWNNAME":"安平區","LI":"華平里","LIN":"27鄰","STREET":"平通路","SECT":" ","MAREA":" ","LANE":" ","ALLEY":" ","HOUSE_NO":"５２２號","E_COORD97":165109.03,"N_COORD97":2543813.7999999998,"ADDRESS":"平通路５２２號","OBJECTID":595698},"geometry":{"x":165109.03000000026,"y":2543813.8000000026}},{"attributes":{"ID":595726,"DIS_CODE":0,"TOWNNAME":"安平區","LI":"華平里","LIN":"27鄰","STREET":"平通路","SECT":" ","MAREA":" ","LANE":" ","ALLEY":" ","HOUSE_NO":"５２４號","E_COORD97":165104.56,"N_COORD97":2543814.79,"ADDRESS":"平通路５２４號","OBJECTID":595699},"geometry":{"x":165104.55999999959,"y":2543814.7900000028}},{"attributes":{"ID":595727,"DIS_CODE":0,"TOWNNAME":"仁德區","LI":"後壁里","LIN":"5鄰","STREET":"德善一街","SECT":" ","MAREA":" ","LANE":" ","ALLEY":" ","HOUSE_NO":"２８號","E_COORD97":173418.59,"N_COORD97":2538948.52,"ADDRESS":"德善一街２８號","OBJECTID":595700},"geometry":{"x":173418.59000000171,"y":2538948.5200000014}},{"attributes":{"ID":595728,"DIS_CODE":0,"TOWNNAME":"仁德區","LI":"成功里","LIN":"20鄰","STREET":"保生路","SECT":" ","MAREA":" ","LANE":" ","ALLEY":" ","HOUSE_NO":"９２號","E_COORD97":170691.42999999999,"N_COORD97":2539815.75,"ADDRESS":"保生路９２號","OBJECTID":595701},"geometry":{"x":170691.4299999997,"y":2539815.7500000019}},{"attributes":{"ID":595729,"DIS_CODE":0,"TOWNNAME":"仁德區","LI":"後壁里","LIN":"43鄰","STREET":"德崙路","SECT":" ","MAREA":" ","LANE":" ","ALLEY":" ","HOUSE_NO":"２９號","E_COORD97":173276.92999999999,"N_COORD97":2538602.7599999998,"ADDRESS":"德崙路２９號","OBJECTID":595702},"geometry":{"x":173276.93000000156,"y":2538602.7599999998}},{"attributes":{"ID":595730,"DIS_CODE":0,"TOWNNAME":"仁德區","LI":"後壁里","LIN":"15鄰","STREET":"德南路","SECT":" ","MAREA":" ","LANE":" ","ALLEY":" ","HOUSE_NO":"１４５號","E_COORD97":173576.06,"N_COORD97":2538607.5099999998,"ADDRESS":"德南路１４５號","OBJECTID":595703},"geometry":{"x":173576.06000000145,"y":2538607.5100000016}},{"attributes":{"ID":595731,"DIS_CODE":0,"TOWNNAME":"仁德區","LI":"成功里","LIN":"33鄰","STREET":"成功一街","SECT":" ","MAREA":" ","LANE":" ","ALLEY":" ","HOUSE_NO":"３９號","E_COORD97":170537.95000000001,"N_COORD97":2540116.77,"ADDRESS":"成功一街３９號","OBJECTID":595704},"geometry":{"x":170537.95000000205,"y":2540116.7700000014}},{"attributes":{"ID":595732,"DIS_CODE":0,"TOWNNAME":"安平區","LI":"建平里","LIN":"27鄰","STREET":"文平路","SECT":" ","MAREA":" ","LANE":" ","ALLEY":" ","HOUSE_NO":"４０８號","E_COORD97":165818.60999999999,"N_COORD97":2543685.4100000001,"ADDRESS":"文平路４０８號","OBJECTID":595705},"geometry":{"x":165818.61000000034,"y":2543685.4100000001}},{"attributes":{"ID":595733,"DIS_CODE":0,"TOWNNAME":"學甲區","LI":"慈福里","LIN":"27鄰","STREET":"華宗路","SECT":" ","MAREA":" ","LANE":" ","ALLEY":" ","HOUSE_NO":"４１８號","E_COORD97":166352.17000000001,"N_COORD97":2570384.6099999999,"ADDRESS":"華宗路４１８號","OBJECTID":595706},"geometry":{"x":166352.16999999993,"y":2570384.6100000013}},{"attributes":{"ID":595734,"DIS_CODE":0,"TOWNNAME":"仁德區","LI":"新田里","LIN":"13鄰","STREET":"中正路","SECT":"二段","MAREA":" ","LANE":" ","ALLEY":" ","HOUSE_NO":"４０１號","E_COORD97":173283.35000000001,"N_COORD97":2539346.27,"ADDRESS":"中正路二段４０１號","OBJECTID":595707},"geometry":{"x":173283.35000000056,"y":2539346.2699999996}},{"attributes":{"ID":595735,"DIS_CODE":0,"TOWNNAME":"仁德區","LI":"新田里","LIN":"15鄰","STREET":"北保東路","SECT":" ","MAREA":" ","LANE":" ","ALLEY":" ","HOUSE_NO":"２號之１","E_COORD97":173360.64000000001,"N_COORD97":2539411.2999999998,"ADDRESS":"北保東路２號之１","OBJECTID":595708},"geometry":{"x":173360.6400000006,"y":2539411.3000000007}},{"attributes":{"ID":595736,"DIS_CODE":0,"TOWNNAME":"學甲區","LI":"慈福里","LIN":"27鄰","STREET":"華宗路","SECT":" ","MAREA":" ","LANE":" ","ALLEY":" ","HOUSE_NO":"４２８號","E_COORD97":166359.20999999999,"N_COORD97":2570411.98,"ADDRESS":"華宗路４２８號","OBJECTID":595709},"geometry":{"x":166359.21000000089,"y":2570411.9799999986}},{"attributes":{"ID":595737,"DIS_CODE":0,"TOWNNAME":"學甲區","LI":"慈福里","LIN":"27鄰","STREET":"華宗路","SECT":" ","MAREA":" ","LANE":" ","ALLEY":" ","HOUSE_NO":"４３４號","E_COORD97":166362.67000000001,"N_COORD97":2570424.6499999999,"ADDRESS":"華宗路４３４號","OBJECTID":595710},"geometry":{"x":166362.67000000179,"y":2570424.6500000041}},{"attributes":{"ID":595738,"DIS_CODE":0,"TOWNNAME":"學甲區","LI":"慈福里","LIN":"27鄰","STREET":"華宗路","SECT":" ","MAREA":" ","LANE":" ","ALLEY":" ","HOUSE_NO":"４３６號","E_COORD97":166363.04999999999,"N_COORD97":2570428.6000000001,"ADDRESS":"華宗路４３６號","OBJECTID":595711},"geometry":{"x":166363.04999999981,"y":2570428.6000000015}},{"attributes":{"ID":595739,"DIS_CODE":0,"TOWNNAME":"學甲區","LI":"慈福里","LIN":"27鄰","STREET":"綿和路","SECT":" ","MAREA":" ","LANE":" ","ALLEY":" ","HOUSE_NO":"２０號之１","E_COORD97":166446.42999999999,"N_COORD97":2570346.5600000001,"ADDRESS":"綿和路２０號之１","OBJECTID":595712},"geometry":{"x":166446.4299999997,"y":2570346.5600000005}},{"attributes":{"ID":595740,"DIS_CODE":0,"TOWNNAME":"學甲區","LI":"慈福里","LIN":"27鄰","STREET":"綿和路","SECT":" ","MAREA":" ","LANE":" ","ALLEY":" ","HOUSE_NO":"２０號之２","E_COORD97":166454.98000000001,"N_COORD97":2570345.5699999998,"ADDRESS":"綿和路２０號之２","OBJECTID":595713},"geometry":{"x":166454.98000000138,"y":2570345.5700000003}},{"attributes":{"ID":595741,"DIS_CODE":0,"TOWNNAME":"學甲區","LI":"慈福里","LIN":"27鄰","STREET":"綿和路","SECT":" ","MAREA":" ","LANE":" ","ALLEY":" ","HOUSE_NO":"２０號之３","E_COORD97":166450.42000000001,"N_COORD97":2570346.0299999998,"ADDRESS":"綿和路２０號之３","OBJECTID":595714},"geometry":{"x":166450.41999999993,"y":2570346.0299999975}},{"attributes":{"ID":595742,"DIS_CODE":0,"TOWNNAME":"學甲區","LI":"慈福里","LIN":"27鄰","STREET":"綿和路","SECT":" ","MAREA":" ","LANE":" ","ALLEY":" ","HOUSE_NO":"２０號","E_COORD97":166458.92000000001,"N_COORD97":2570345.29,"ADDRESS":"綿和路２０號","OBJECTID":595715},"geometry":{"x":166458.91999999993,"y":2570345.290000001}},{"attributes":{"ID":595743,"DIS_CODE":0,"TOWNNAME":"學甲區","LI":"慈福里","LIN":"27鄰","STREET":"綿和路","SECT":" ","MAREA":" ","LANE":" ","ALLEY":" ","HOUSE_NO":"２２號","E_COORD97":166441.35999999999,"N_COORD97":2570348.0899999999,"ADDRESS":"綿和路２２號","OBJECTID":595716},"geometry":{"x":166441.3599999994,"y":2570348.0899999999}},{"attributes":{"ID":595744,"DIS_CODE":0,"TOWNNAME":"學甲區","LI":"慈福里","LIN":"27鄰","STREET":"綿和路","SECT":" ","MAREA":" ","LANE":" ","ALLEY":" ","HOUSE_NO":"２４號","E_COORD97":166432.89000000001,"N_COORD97":2570358.6499999999,"ADDRESS":"綿和路２４號","OBJECTID":595717},"geometry":{"x":166432.8900000006,"y":2570358.6500000004}},{"attributes":{"ID":595745,"DIS_CODE":0,"TOWNNAME":"學甲區","LI":"慈福里","LIN":"27鄰","STREET":"綿和路","SECT":" ","MAREA":" ","LANE":" ","ALLEY":" ","HOUSE_NO":"２６號","E_COORD97":166420.88,"N_COORD97":2570359.4900000002,"ADDRESS":"綿和路２６號","OBJECTID":595718},"geometry":{"x":166420.88000000082,"y":2570359.4900000002}},{"attributes":{"ID":595746,"DIS_CODE":0,"TOWNNAME":"學甲區","LI":"慈福里","LIN":"27鄰","STREET":"綿和路","SECT":" ","MAREA":" ","LANE":" ","ALLEY":" ","HOUSE_NO":"２８號之１","E_COORD97":166396.97,"N_COORD97":2570355.8900000001,"ADDRESS":"綿和路２８號之１","OBJECTID":595719},"geometry":{"x":166396.96999999974,"y":2570355.8900000025}},{"attributes":{"ID":595747,"DIS_CODE":0,"TOWNNAME":"學甲區","LI":"慈福里","LIN":"27鄰","STREET":"綿和路","SECT":" ","MAREA":" ","LANE":" ","ALLEY":" ","HOUSE_NO":"２８號","E_COORD97":166402.34,"N_COORD97":2570355.46,"ADDRESS":"綿和路２８號","OBJECTID":595720},"geometry":{"x":166402.34000000078,"y":2570355.4600000028}},{"attributes":{"ID":595748,"DIS_CODE":0,"TOWNNAME":"南區","LI":"府南里","LIN":"27鄰","STREET":"大成路","SECT":"二段","MAREA":" ","LANE":" ","ALLEY":" ","HOUSE_NO":"１１９號","E_COORD97":167384.63,"N_COORD97":2541719.79,"ADDRESS":"大成路二段１１９號","OBJECTID":595721},"geometry":{"x":167384.62999999989,"y":2541719.790000001}},{"attributes":{"ID":595749,"DIS_CODE":0,"TOWNNAME":"南區","LI":"府南里","LIN":"27鄰","STREET":"大成路","SECT":"二段","MAREA":" ","LANE":" ","ALLEY":" ","HOUSE_NO":"１２５號","E_COORD97":167362.78,"N_COORD97":2541719.8700000001,"ADDRESS":"大成路二段１２５號","OBJECTID":595722},"geometry":{"x":167362.78000000119,"y":2541719.870000001}},{"attributes":{"ID":595750,"DIS_CODE":0,"TOWNNAME":"南區","LI":"文華里","LIN":"27鄰","STREET":"中華西路","SECT":"一段","MAREA":" ","LANE":" ","ALLEY":" ","HOUSE_NO":"４８４號","E_COORD97":166626.94,"N_COORD97":2542993.1299999999,"ADDRESS":"中華西路一段４８４號","OBJECTID":595723},"geometry":{"x":166626.94000000041,"y":2542993.1300000008}},{"attributes":{"ID":595751,"DIS_CODE":0,"TOWNNAME":"仁德區","LI":"新田里","LIN":"14鄰","STREET":"中正路","SECT":"二段","MAREA":" ","LANE":" ","ALLEY":" ","HOUSE_NO":"４９２之１號","E_COORD97":173348.87,"N_COORD97":2539446.29,"ADDRESS":"中正路二段４９２之１號","OBJECTID":595724},"geometry":{"x":173348.87000000011,"y":2539446.2899999991}},{"attributes":{"ID":595752,"DIS_CODE":0,"TOWNNAME":"仁德區","LI":"新田里","LIN":"15鄰","STREET":"中正路","SECT":"二段","MAREA":" ","LANE":" ","ALLEY":" ","HOUSE_NO":"４４０號","E_COORD97":173304.35000000001,"N_COORD97":2539334.77,"ADDRESS":"中正路二段４４０號","OBJECTID":595725},"geometry":{"x":173304.34999999963,"y":2539334.7699999996}},{"attributes":{"ID":595753,"DIS_CODE":0,"TOWNNAME":"永康區","LI":"復國里","LIN":"27鄰","STREET":"復華三街","SECT":" ","MAREA":" ","LANE":" ","ALLEY":" ","HOUSE_NO":"６６號七樓之１","E_COORD97":172710.54000000001,"N_COORD97":2545600.7999999998,"ADDRESS":"復華三街６６號七樓之１","OBJECTID":595726},"geometry":{"x":172710.5400000019,"y":2545600.8000000026}},{"attributes":{"ID":595754,"DIS_CODE":0,"TOWNNAME":"永康區","LI":"復國里","LIN":"27鄰","STREET":"復華三街","SECT":" ","MAREA":" ","LANE":" ","ALLEY":" ","HOUSE_NO":"６６號九樓之３","E_COORD97":172710.63,"N_COORD97":2545600.7999999998,"ADDRESS":"復華三街６６號九樓之３","OBJECTID":595727},"geometry":{"x":172710.62999999989,"y":2545600.8000000026}},{"attributes":{"ID":595755,"DIS_CODE":0,"TOWNNAME":"永康區","LI":"復國里","LIN":"27鄰","STREET":"復華三街","SECT":" ","MAREA":" ","LANE":" ","ALLEY":" ","HOUSE_NO":"６６號十八樓之７","E_COORD97":172711.85999999999,"N_COORD97":2545600.7999999998,"ADDRESS":"復華三街６６號十八樓之７","OBJECTID":595728},"geometry":{"x":172711.8599999994,"y":2545600.8000000026}},{"attributes":{"ID":595756,"DIS_CODE":0,"TOWNNAME":"永康區","LI":"復國里","LIN":"27鄰","STREET":"復華三街","SECT":" ","MAREA":" ","LANE":" ","ALLEY":" ","HOUSE_NO":"６８號十七樓之３","E_COORD97":172700.35000000001,"N_COORD97":2545576.0499999998,"ADDRESS":"復華三街６８號十七樓之３","OBJECTID":595729},"geometry":{"x":172700.34999999963,"y":2545576.0500000007}},{"attributes":{"ID":595757,"DIS_CODE":0,"TOWNNAME":"仁德區","LI":"新田里","LIN":"4鄰","STREET":"勝利路","SECT":" ","MAREA":" ","LANE":" ","ALLEY":" ","HOUSE_NO":"１６５號","E_COORD97":174360.09,"N_COORD97":2539608.0099999998,"ADDRESS":"勝利路１６５號","OBJECTID":595730},"geometry":{"x":174360.09000000078,"y":2539608.0099999998}},{"attributes":{"ID":595758,"DIS_CODE":0,"TOWNNAME":"仁德區","LI":"後壁里","LIN":"40鄰","STREET":"德善一街","SECT":" ","MAREA":" ","LANE":" ","ALLEY":" ","HOUSE_NO":"５６號","E_COORD97":173514.57000000001,"N_COORD97":2539049.0099999998,"ADDRESS":"德善一街５６號","OBJECTID":595731},"geometry":{"x":173514.57000000123,"y":2539049.0099999998}},{"attributes":{"ID":595759,"DIS_CODE":0,"TOWNNAME":"仁德區","LI":"後壁里","LIN":"15鄰","STREET":"德南路","SECT":" ","MAREA":" ","LANE":" ","ALLEY":" ","HOUSE_NO":"１４７號","E_COORD97":173584.45999999999,"N_COORD97":2538603.5099999998,"ADDRESS":"德南路１４７號","OBJECTID":595732},"geometry":{"x":173584.46000000089,"y":2538603.5100000016}},{"attributes":{"ID":595760,"DIS_CODE":0,"TOWNNAME":"仁德區","LI":"後壁里","LIN":"35鄰","STREET":"德洋二街","SECT":" ","MAREA":" ","LANE":" ","ALLEY":" ","HOUSE_NO":"２８號","E_COORD97":172373.45999999999,"N_COORD97":2539454.0099999998,"ADDRESS":"德洋二街２８號","OBJECTID":595733},"geometry":{"x":172373.45999999903,"y":2539454.0100000016}},{"attributes":{"ID":595761,"DIS_CODE":0,"TOWNNAME":"東區","LI":"德高里","LIN":"9鄰","STREET":"德高街","SECT":" ","MAREA":" ","LANE":" ","ALLEY":" ","HOUSE_NO":"１７號","E_COORD97":171402.42000000001,"N_COORD97":2540916.8799999999,"ADDRESS":"德高街１７號","OBJECTID":595734},"geometry":{"x":171402.42000000179,"y":2540916.879999999}},{"attributes":{"ID":595762,"DIS_CODE":0,"TOWNNAME":"仁德區","LI":"後壁里","LIN":"9鄰","STREET":"民安路","SECT":"二段","MAREA":" ","LANE":" ","ALLEY":" ","HOUSE_NO":"１７４號","E_COORD97":173764.82000000001,"N_COORD97":2538942.3100000001,"ADDRESS":"民安路二段１７４號","OBJECTID":595735},"geometry":{"x":173764.81999999937,"y":2538942.3100000005}},{"attributes":{"ID":595763,"DIS_CODE":0,"TOWNNAME":"仁德區","LI":"新田里","LIN":"9鄰","STREET":"北保路","SECT":" ","MAREA":" ","LANE":" ","ALLEY":" ","HOUSE_NO":"１６９號","E_COORD97":173462.92000000001,"N_COORD97":2539458.7400000002,"ADDRESS":"北保路１６９號","OBJECTID":595736},"geometry":{"x":173462.92000000086,"y":2539458.7400000002}},{"attributes":{"ID":595764,"DIS_CODE":0,"TOWNNAME":"永康區","LI":"復國里","LIN":"27鄰","STREET":"復華三街","SECT":" ","MAREA":" ","LANE":" ","ALLEY":" ","HOUSE_NO":"６６號八樓之７","E_COORD97":172710.60999999999,"N_COORD97":2545600.7999999998,"ADDRESS":"復華三街６６號八樓之７","OBJECTID":595737},"geometry":{"x":172710.61000000127,"y":2545600.8000000026}},{"attributes":{"ID":595765,"DIS_CODE":0,"TOWNNAME":"永康區","LI":"復國里","LIN":"27鄰","STREET":"復華三街","SECT":" ","MAREA":" ","LANE":" ","ALLEY":" ","HOUSE_NO":"６８號十三樓之３","E_COORD97":172700.35000000001,"N_COORD97":2545576.0499999998,"ADDRESS":"復華三街６８號十三樓之３","OBJECTID":595738},"geometry":{"x":172700.34999999963,"y":2545576.0500000007}},{"attributes":{"ID":595766,"DIS_CODE":0,"TOWNNAME":"永康區","LI":"復國里","LIN":"27鄰","STREET":"復華三街","SECT":" ","MAREA":" ","LANE":" ","ALLEY":" ","HOUSE_NO":"６８號十五樓之５","E_COORD97":172700.41,"N_COORD97":2545576.0499999998,"ADDRESS":"復華三街６８號十五樓之５","OBJECTID":595739},"geometry":{"x":172700.41000000015,"y":2545576.0500000007}},{"attributes":{"ID":595767,"DIS_CODE":0,"TOWNNAME":"永康區","LI":"復國里","LIN":"27鄰","STREET":"復華三街","SECT":" ","MAREA":" ","LANE":" ","ALLEY":" ","HOUSE_NO":"６６號十二樓之７","E_COORD97":172711.85999999999,"N_COORD97":2545600.7999999998,"ADDRESS":"復華三街６６號十二樓之７","OBJECTID":595740},"geometry":{"x":172711.8599999994,"y":2545600.8000000026}},{"attributes":{"ID":595768,"DIS_CODE":0,"TOWNNAME":"永康區","LI":"復國里","LIN":"27鄰","STREET":"復華三街","SECT":" ","MAREA":" ","LANE":" ","ALLEY":" ","HOUSE_NO":"６８號十五樓之３","E_COORD97":172700.35000000001,"N_COORD97":2545576.0499999998,"ADDRESS":"復華三街６８號十五樓之３","OBJECTID":595741},"geometry":{"x":172700.34999999963,"y":2545576.0500000007}},{"attributes":{"ID":595769,"DIS_CODE":0,"TOWNNAME":"永康區","LI":"復國里","LIN":"27鄰","STREET":"復華三街","SECT":" ","MAREA":" ","LANE":" ","ALLEY":" ","HOUSE_NO":"６６號十八樓之５","E_COORD97":172711.94,"N_COORD97":2545600.7999999998,"ADDRESS":"復華三街６６號十八樓之５","OBJECTID":595742},"geometry":{"x":172711.94000000134,"y":2545600.8000000026}},{"attributes":{"ID":595770,"DIS_CODE":0,"TOWNNAME":"永康區","LI":"復國里","LIN":"27鄰","STREET":"復華三街","SECT":" ","MAREA":" ","LANE":" ","ALLEY":" ","HOUSE_NO":"６８號十六樓之１","E_COORD97":172700.26000000001,"N_COORD97":2545576.0499999998,"ADDRESS":"復華三街６８號十六樓之１","OBJECTID":595743},"geometry":{"x":172700.26000000164,"y":2545576.0500000007}},{"attributes":{"ID":595771,"DIS_CODE":0,"TOWNNAME":"永康區","LI":"復國里","LIN":"27鄰","STREET":"復華三街","SECT":" ","MAREA":" ","LANE":" ","ALLEY":" ","HOUSE_NO":"６６號十八樓之３","E_COORD97":172711.88,"N_COORD97":2545600.7999999998,"ADDRESS":"復華三街６６號十八樓之３","OBJECTID":595744},"geometry":{"x":172711.88000000082,"y":2545600.8000000026}},{"attributes":{"ID":595772,"DIS_CODE":0,"TOWNNAME":"永康區","LI":"復國里","LIN":"27鄰","STREET":"復華三街","SECT":" ","MAREA":" ","LANE":" ","ALLEY":" ","HOUSE_NO":"６８號五樓之６","E_COORD97":172699.10999999999,"N_COORD97":2545576.0499999998,"ADDRESS":"復華三街６８號五樓之６","OBJECTID":595745},"geometry":{"x":172699.11000000127,"y":2545576.0500000007}},{"attributes":{"ID":595773,"DIS_CODE":0,"TOWNNAME":"永康區","LI":"復國里","LIN":"27鄰","STREET":"復華三街","SECT":" ","MAREA":" ","LANE":" ","ALLEY":" ","HOUSE_NO":"６６號八樓之５","E_COORD97":172710.69,"N_COORD97":2545600.7999999998,"ADDRESS":"復華三街６６號八樓之５","OBJECTID":595746},"geometry":{"x":172710.69000000041,"y":2545600.8000000026}},{"attributes":{"ID":595774,"DIS_CODE":0,"TOWNNAME":"永康區","LI":"復國里","LIN":"27鄰","STREET":"復華三街","SECT":" ","MAREA":" ","LANE":" ","ALLEY":" ","HOUSE_NO":"６６號八樓之２","E_COORD97":172710.67000000001,"N_COORD97":2545600.7999999998,"ADDRESS":"復華三街６６號八樓之２","OBJECTID":595747},"geometry":{"x":172710.66999999993,"y":2545600.8000000026}},{"attributes":{"ID":595775,"DIS_CODE":0,"TOWNNAME":"永康區","LI":"復國里","LIN":"27鄰","STREET":"復華三街","SECT":" ","MAREA":" ","LANE":" ","ALLEY":" ","HOUSE_NO":"６８號十四樓之１","E_COORD97":172700.26000000001,"N_COORD97":2545576.0499999998,"ADDRESS":"復華三街６８號十四樓之１","OBJECTID":595748},"geometry":{"x":172700.26000000164,"y":2545576.0500000007}},{"attributes":{"ID":595776,"DIS_CODE":0,"TOWNNAME":"永康區","LI":"復國里","LIN":"27鄰","STREET":"復華三街","SECT":" ","MAREA":" ","LANE":" ","ALLEY":" ","HOUSE_NO":"６６號十七樓之３","E_COORD97":172711.88,"N_COORD97":2545600.7999999998,"ADDRESS":"復華三街６６號十七樓之３","OBJECTID":595749},"geometry":{"x":172711.88000000082,"y":2545600.8000000026}},{"attributes":{"ID":595777,"DIS_CODE":0,"TOWNNAME":"永康區","LI":"復國里","LIN":"27鄰","STREET":"復華三街","SECT":" ","MAREA":" ","LANE":" ","ALLEY":" ","HOUSE_NO":"６８號十六樓之４","E_COORD97":172700.28,"N_COORD97":2545576.0499999998,"ADDRESS":"復華三街６８號十六樓之４","OBJECTID":595750},"geometry":{"x":172700.28000000026,"y":2545576.0500000007}},{"attributes":{"ID":595778,"DIS_CODE":0,"TOWNNAME":"永康區","LI":"復國里","LIN":"27鄰","STREET":"復華三街","SECT":" ","MAREA":" ","LANE":" ","ALLEY":" ","HOUSE_NO":"６８號十五樓之４","E_COORD97":172700.28,"N_COORD97":2545576.0499999998,"ADDRESS":"復華三街６８號十五樓之４","OBJECTID":595751},"geometry":{"x":172700.28000000026,"y":2545576.0500000007}},{"attributes":{"ID":595779,"DIS_CODE":0,"TOWNNAME":"永康區","LI":"復國里","LIN":"27鄰","STREET":"復華三街","SECT":" ","MAREA":" ","LANE":" ","ALLEY":" ","HOUSE_NO":"６８號十六樓之５","E_COORD97":172700.41,"N_COORD97":2545576.0499999998,"ADDRESS":"復華三街６８號十六樓之５","OBJECTID":595752},"geometry":{"x":172700.41000000015,"y":2545576.0500000007}},{"attributes":{"ID":595780,"DIS_CODE":0,"TOWNNAME":"仁德區","LI":"新田里","LIN":"14鄰","STREET":"北保東路","SECT":" ","MAREA":" ","LANE":" ","ALLEY":" ","HOUSE_NO":"４５號","E_COORD97":173455.5,"N_COORD97":2539384.5,"ADDRESS":"北保東路４５號","OBJECTID":595753},"geometry":{"x":173455.50000000093,"y":2539384.5000000019}},{"attributes":{"ID":595781,"DIS_CODE":0,"TOWNNAME":"仁德區","LI":"保安里","LIN":"19鄰","STREET":"中正路","SECT":"一段","MAREA":" ","LANE":" ","ALLEY":" ","HOUSE_NO":"２５８之１號","E_COORD97":171736.20000000001,"N_COORD97":2535901.54,"ADDRESS":"中正路一段２５８之１號","OBJECTID":595754},"geometry":{"x":171736.20000000019,"y":2535901.5399999991}},{"attributes":{"ID":595782,"DIS_CODE":0,"TOWNNAME":"永康區","LI":"復國里","LIN":"27鄰","STREET":"復華三街","SECT":" ","MAREA":" ","LANE":" ","ALLEY":" ","HOUSE_NO":"６６號八樓之１","E_COORD97":172710.54000000001,"N_COORD97":2545600.7999999998,"ADDRESS":"復華三街６６號八樓之１","OBJECTID":595755},"geometry":{"x":172710.5400000019,"y":2545600.8000000026}},{"attributes":{"ID":595783,"DIS_CODE":0,"TOWNNAME":"永康區","LI":"復國里","LIN":"27鄰","STREET":"復華三街","SECT":" ","MAREA":" ","LANE":" ","ALLEY":" ","HOUSE_NO":"６６號十二樓之６","E_COORD97":172711.89000000001,"N_COORD97":2545600.7999999998,"ADDRESS":"復華三街６６號十二樓之６","OBJECTID":595756},"geometry":{"x":172711.88999999966,"y":2545600.8000000026}},{"attributes":{"ID":595784,"DIS_CODE":0,"TOWNNAME":"永康區","LI":"復國里","LIN":"27鄰","STREET":"復華三街","SECT":" ","MAREA":" ","LANE":" ","ALLEY":" ","HOUSE_NO":"６６號十二樓之２","E_COORD97":172711.92000000001,"N_COORD97":2545600.7999999998,"ADDRESS":"復華三街６６號十二樓之２","OBJECTID":595757},"geometry":{"x":172711.92000000086,"y":2545600.8000000026}},{"attributes":{"ID":595785,"DIS_CODE":0,"TOWNNAME":"永康區","LI":"復國里","LIN":"27鄰","STREET":"復華三街","SECT":" ","MAREA":" ","LANE":" ","ALLEY":" ","HOUSE_NO":"６６號十一樓之３","E_COORD97":172711.88,"N_COORD97":2545600.7999999998,"ADDRESS":"復華三街６６號十一樓之３","OBJECTID":595758},"geometry":{"x":172711.88000000082,"y":2545600.8000000026}},{"attributes":{"ID":595786,"DIS_CODE":0,"TOWNNAME":"永康區","LI":"復國里","LIN":"27鄰","STREET":"復華三街","SECT":" ","MAREA":" ","LANE":" ","ALLEY":" ","HOUSE_NO":"６６號十二樓之４","E_COORD97":172711.81,"N_COORD97":2545600.7999999998,"ADDRESS":"復華三街６６號十二樓之４","OBJECTID":595759},"geometry":{"x":172711.81000000052,"y":2545600.8000000026}},{"attributes":{"ID":595787,"DIS_CODE":0,"TOWNNAME":"中西區","LI":"藥王里","LIN":"4鄰","STREET":"大福街","SECT":" ","MAREA":" ","LANE":" ","ALLEY":" ","HOUSE_NO":"２５號","E_COORD97":167314.98999999999,"N_COORD97":2544382.3700000001,"ADDRESS":"大福街２５號","OBJECTID":595760},"geometry":{"x":167314.99000000022,"y":2544382.3700000048}},{"attributes":{"ID":595788,"DIS_CODE":0,"TOWNNAME":"仁德區","LI":"後壁里","LIN":"5鄰","STREET":"德善一街","SECT":" ","MAREA":" ","LANE":" ","ALLEY":" ","HOUSE_NO":"３６號","E_COORD97":173460.73999999999,"N_COORD97":2538986.27,"ADDRESS":"德善一街３６號","OBJECTID":595761},"geometry":{"x":173460.74000000115,"y":2538986.2699999996}},{"attributes":{"ID":595789,"DIS_CODE":0,"TOWNNAME":"仁德區","LI":"新田里","LIN":"8鄰","STREET":"北保路","SECT":" ","MAREA":" ","LANE":" ","ALLEY":" ","HOUSE_NO":"１７９號","E_COORD97":173483.54000000001,"N_COORD97":2539450.7400000002,"ADDRESS":"北保路１７９號","OBJECTID":595762},"geometry":{"x":173483.5400000019,"y":2539450.7400000021}},{"attributes":{"ID":595790,"DIS_CODE":0,"TOWNNAME":"永康區","LI":"復國里","LIN":"27鄰","STREET":"復華三街","SECT":" ","MAREA":" ","LANE":" ","ALLEY":" ","HOUSE_NO":"６６號十七樓之４","E_COORD97":172711.81,"N_COORD97":2545600.7999999998,"ADDRESS":"復華三街６６號十七樓之４","OBJECTID":595763},"geometry":{"x":172711.81000000052,"y":2545600.8000000026}},{"attributes":{"ID":595791,"DIS_CODE":0,"TOWNNAME":"永康區","LI":"復國里","LIN":"27鄰","STREET":"復華三街","SECT":" ","MAREA":" ","LANE":" ","ALLEY":" ","HOUSE_NO":"６６號十二樓之１","E_COORD97":172711.79000000001,"N_COORD97":2545600.7999999998,"ADDRESS":"復華三街６６號十二樓之１","OBJECTID":595764},"geometry":{"x":172711.79000000004,"y":2545600.8000000026}},{"attributes":{"ID":595792,"DIS_CODE":0,"TOWNNAME":"永康區","LI":"復國里","LIN":"27鄰","STREET":"復華三街","SECT":" ","MAREA":" ","LANE":" ","ALLEY":" ","HOUSE_NO":"６６號十九樓之６","E_COORD97":172711.89000000001,"N_COORD97":2545600.7999999998,"ADDRESS":"復華三街６６號十九樓之６","OBJECTID":595765},"geometry":{"x":172711.88999999966,"y":2545600.8000000026}},{"attributes":{"ID":595793,"DIS_CODE":0,"TOWNNAME":"永康區","LI":"復國里","LIN":"27鄰","STREET":"復華三街","SECT":" ","MAREA":" ","LANE":" ","ALLEY":" ","HOUSE_NO":"６８號十七樓之５","E_COORD97":172700.41,"N_COORD97":2545576.0499999998,"ADDRESS":"復華三街６８號十七樓之５","OBJECTID":595766},"geometry":{"x":172700.41000000015,"y":2545576.0500000007}},{"attributes":{"ID":595794,"DIS_CODE":0,"TOWNNAME":"東區","LI":"大同里","LIN":"27鄰","STREET":"林森路","SECT":"一段","MAREA":" ","LANE":" ","ALLEY":" ","HOUSE_NO":"５１號三樓","E_COORD97":169336.81,"N_COORD97":2542479.0099999998,"ADDRESS":"林森路一段５１號三樓","OBJECTID":595767},"geometry":{"x":169336.81000000052,"y":2542479.0100000016}},{"attributes":{"ID":595795,"DIS_CODE":0,"TOWNNAME":"東區","LI":"大同里","LIN":"27鄰","STREET":"林森路","SECT":"一段","MAREA":" ","LANE":" ","ALLEY":" ","HOUSE_NO":"５１號四樓","E_COORD97":169336.81,"N_COORD97":2542479.0099999998,"ADDRESS":"林森路一段５１號四樓","OBJECTID":595768},"geometry":{"x":169336.81000000052,"y":2542479.0100000016}},{"attributes":{"ID":595796,"DIS_CODE":0,"TOWNNAME":"永康區","LI":"復國里","LIN":"27鄰","STREET":"復華三街","SECT":" ","MAREA":" ","LANE":" ","ALLEY":" ","HOUSE_NO":"６６號五樓之２","E_COORD97":172710.67000000001,"N_COORD97":2545600.7999999998,"ADDRESS":"復華三街６６號五樓之２","OBJECTID":595769},"geometry":{"x":172710.66999999993,"y":2545600.8000000026}},{"attributes":{"ID":595797,"DIS_CODE":0,"TOWNNAME":"東區","LI":"仁和里","LIN":"27鄰","STREET":"仁東街","SECT":" ","MAREA":" ","LANE":" ","ALLEY":" ","HOUSE_NO":"７０號八樓之１","E_COORD97":171704.29999999999,"N_COORD97":2541174.2000000002,"ADDRESS":"仁東街７０號八樓之１","OBJECTID":595770},"geometry":{"x":171704.29999999981,"y":2541174.200000003}},{"attributes":{"ID":595798,"DIS_CODE":0,"TOWNNAME":"東區","LI":"仁和里","LIN":"27鄰","STREET":"仁東街","SECT":" ","MAREA":" ","LANE":" ","ALLEY":" ","HOUSE_NO":"７０號八樓之２","E_COORD97":171704.29999999999,"N_COORD97":2541174.2000000002,"ADDRESS":"仁東街７０號八樓之２","OBJECTID":595771},"geometry":{"x":171704.29999999981,"y":2541174.200000003}},{"attributes":{"ID":595799,"DIS_CODE":0,"TOWNNAME":"東區","LI":"仁和里","LIN":"27鄰","STREET":"仁東街","SECT":" ","MAREA":" ","LANE":" ","ALLEY":" ","HOUSE_NO":"７０號三樓","E_COORD97":171704.29999999999,"N_COORD97":2541174.2000000002,"ADDRESS":"仁東街７０號三樓","OBJECTID":595772},"geometry":{"x":171704.29999999981,"y":2541174.200000003}},{"attributes":{"ID":595800,"DIS_CODE":0,"TOWNNAME":"東區","LI":"仁和里","LIN":"27鄰","STREET":"仁東街","SECT":" ","MAREA":" ","LANE":" ","ALLEY":" ","HOUSE_NO":"７０號五樓","E_COORD97":171704.29999999999,"N_COORD97":2541174.2000000002,"ADDRESS":"仁東街７０號五樓","OBJECTID":595773},"geometry":{"x":171704.29999999981,"y":2541174.200000003}},{"attributes":{"ID":595801,"DIS_CODE":0,"TOWNNAME":"東區","LI":"仁和里","LIN":"27鄰","STREET":"仁東街","SECT":" ","MAREA":" ","LANE":" ","ALLEY":" ","HOUSE_NO":"７０號五樓之１","E_COORD97":171704.29999999999,"N_COORD97":2541174.2000000002,"ADDRESS":"仁東街７０號五樓之１","OBJECTID":595774},"geometry":{"x":171704.29999999981,"y":2541174.200000003}},{"attributes":{"ID":595802,"DIS_CODE":0,"TOWNNAME":"東區","LI":"仁和里","LIN":"27鄰","STREET":"仁東街","SECT":" ","MAREA":" ","LANE":" ","ALLEY":" ","HOUSE_NO":"７０號五樓之２","E_COORD97":171704.29999999999,"N_COORD97":2541174.2000000002,"ADDRESS":"仁東街７０號五樓之２","OBJECTID":595775},"geometry":{"x":171704.29999999981,"y":2541174.200000003}},{"attributes":{"ID":595803,"DIS_CODE":0,"TOWNNAME":"東區","LI":"仁和里","LIN":"27鄰","STREET":"仁東街","SECT":" ","MAREA":" ","LANE":" ","ALLEY":" ","HOUSE_NO":"７０號六樓","E_COORD97":171704.29999999999,"N_COORD97":2541174.2000000002,"ADDRESS":"仁東街７０號六樓","OBJECTID":595776},"geometry":{"x":171704.29999999981,"y":2541174.200000003}},{"attributes":{"ID":595804,"DIS_CODE":0,"TOWNNAME":"東區","LI":"仁和里","LIN":"27鄰","STREET":"仁東街","SECT":" ","MAREA":" ","LANE":" ","ALLEY":" ","HOUSE_NO":"７０號六樓之１","E_COORD97":171704.29999999999,"N_COORD97":2541174.2000000002,"ADDRESS":"仁東街７０號六樓之１","OBJECTID":595777},"geometry":{"x":171704.29999999981,"y":2541174.200000003}},{"attributes":{"ID":595805,"DIS_CODE":0,"TOWNNAME":"東區","LI":"仁和里","LIN":"27鄰","STREET":"仁東街","SECT":" ","MAREA":" ","LANE":" ","ALLEY":" ","HOUSE_NO":"７０號六樓之２","E_COORD97":171704.29999999999,"N_COORD97":2541174.2000000002,"ADDRESS":"仁東街７０號六樓之２","OBJECTID":595778},"geometry":{"x":171704.29999999981,"y":2541174.200000003}},{"attributes":{"ID":595806,"DIS_CODE":0,"TOWNNAME":"東區","LI":"仁和里","LIN":"27鄰","STREET":"仁東街","SECT":" ","MAREA":" ","LANE":" ","ALLEY":" ","HOUSE_NO":"７０號四樓","E_COORD97":171704.29999999999,"N_COORD97":2541174.2000000002,"ADDRESS":"仁東街７０號四樓","OBJECTID":595779},"geometry":{"x":171704.29999999981,"y":2541174.200000003}},{"attributes":{"ID":595807,"DIS_CODE":0,"TOWNNAME":"仁德區","LI":"後壁里","LIN":"5鄰","STREET":"德善二街","SECT":" ","MAREA":" ","LANE":" ","ALLEY":" ","HOUSE_NO":"９號","E_COORD97":173514.79000000001,"N_COORD97":2538891.02,"ADDRESS":"德善二街９號","OBJECTID":595780},"geometry":{"x":173514.79000000004,"y":2538891.0200000014}},{"attributes":{"ID":595808,"DIS_CODE":0,"TOWNNAME":"仁德區","LI":"後壁里","LIN":"5鄰","STREET":"德善二街","SECT":" ","MAREA":" ","LANE":" ","ALLEY":" ","HOUSE_NO":"７號","E_COORD97":173505.82000000001,"N_COORD97":2538882.27,"ADDRESS":"德善二街７號","OBJECTID":595781},"geometry":{"x":173505.82000000123,"y":2538882.2700000033}},{"attributes":{"ID":595809,"DIS_CODE":0,"TOWNNAME":"仁德區","LI":"新田里","LIN":"13鄰","STREET":"中正路","SECT":"二段","MAREA":" ","LANE":" ","ALLEY":" ","HOUSE_NO":"４１５號","E_COORD97":173294.67999999999,"N_COORD97":2539376.0299999998,"ADDRESS":"中正路二段４１５號","OBJECTID":595782},"geometry":{"x":173294.68000000063,"y":2539376.0300000012}},{"attributes":{"ID":595810,"DIS_CODE":0,"TOWNNAME":"仁德區","LI":"新田里","LIN":"8鄰","STREET":"北保路","SECT":" ","MAREA":" ","LANE":" ","ALLEY":" ","HOUSE_NO":"１８７號","E_COORD97":173504.23999999999,"N_COORD97":2539439.9900000002,"ADDRESS":"北保路１８７號","OBJECTID":595783},"geometry":{"x":173504.24000000209,"y":2539439.9900000002}},{"attributes":{"ID":595811,"DIS_CODE":0,"TOWNNAME":"仁德區","LI":"後壁里","LIN":"8鄰","STREET":"德善二街","SECT":" ","MAREA":" ","LANE":" ","ALLEY":" ","HOUSE_NO":"７１號","E_COORD97":173685.03,"N_COORD97":2538995.02,"ADDRESS":"德善二街７１號","OBJECTID":595784},"geometry":{"x":173685.03000000026,"y":2538995.0199999996}},{"attributes":{"ID":595812,"DIS_CODE":0,"TOWNNAME":"東區","LI":"仁和里","LIN":"27鄰","STREET":"仁東街","SECT":" ","MAREA":" ","LANE":" ","ALLEY":" ","HOUSE_NO":"７０號四樓之１","E_COORD97":171704.29999999999,"N_COORD97":2541174.2000000002,"ADDRESS":"仁東街７０號四樓之１","OBJECTID":595785},"geometry":{"x":171704.29999999981,"y":2541174.200000003}},{"attributes":{"ID":595813,"DIS_CODE":0,"TOWNNAME":"東區","LI":"仁和里","LIN":"27鄰","STREET":"仁東街","SECT":" ","MAREA":" ","LANE":" ","ALLEY":" ","HOUSE_NO":"７０號四樓之２","E_COORD97":171704.29999999999,"N_COORD97":2541174.2000000002,"ADDRESS":"仁東街７０號四樓之２","OBJECTID":595786},"geometry":{"x":171704.29999999981,"y":2541174.200000003}},{"attributes":{"ID":595814,"DIS_CODE":0,"TOWNNAME":"東區","LI":"仁和里","LIN":"27鄰","STREET":"利東街","SECT":" ","MAREA":" ","LANE":" ","ALLEY":" ","HOUSE_NO":"３７號七樓","E_COORD97":171692.89000000001,"N_COORD97":2541160.4900000002,"ADDRESS":"利東街３７號七樓","OBJECTID":595787},"geometry":{"x":171692.8900000006,"y":2541160.4900000021}},{"attributes":{"ID":595815,"DIS_CODE":0,"TOWNNAME":"東區","LI":"仁和里","LIN":"27鄰","STREET":"利東街","SECT":" ","MAREA":" ","LANE":" ","ALLEY":" ","HOUSE_NO":"３７號七樓之１","E_COORD97":171692.89000000001,"N_COORD97":2541160.4900000002,"ADDRESS":"利東街３７號七樓之１","OBJECTID":595788},"geometry":{"x":171692.8900000006,"y":2541160.4900000021}},{"attributes":{"ID":595816,"DIS_CODE":0,"TOWNNAME":"東區","LI":"仁和里","LIN":"27鄰","STREET":"利東街","SECT":" ","MAREA":" ","LANE":" ","ALLEY":" ","HOUSE_NO":"３７號七樓之２","E_COORD97":171692.89000000001,"N_COORD97":2541160.4900000002,"ADDRESS":"利東街３７號七樓之２","OBJECTID":595789},"geometry":{"x":171692.8900000006,"y":2541160.4900000021}},{"attributes":{"ID":595817,"DIS_CODE":0,"TOWNNAME":"東區","LI":"仁和里","LIN":"27鄰","STREET":"利東街","SECT":" ","MAREA":" ","LANE":" ","ALLEY":" ","HOUSE_NO":"３７號九樓","E_COORD97":171692.89000000001,"N_COORD97":2541160.4900000002,"ADDRESS":"利東街３７號九樓","OBJECTID":595790},"geometry":{"x":171692.8900000006,"y":2541160.4900000021}},{"attributes":{"ID":595818,"DIS_CODE":0,"TOWNNAME":"東區","LI":"仁和里","LIN":"27鄰","STREET":"利東街","SECT":" ","MAREA":" ","LANE":" ","ALLEY":" ","HOUSE_NO":"３７號九樓之１","E_COORD97":171692.89000000001,"N_COORD97":2541160.4900000002,"ADDRESS":"利東街３７號九樓之１","OBJECTID":595791},"geometry":{"x":171692.8900000006,"y":2541160.4900000021}},{"attributes":{"ID":595819,"DIS_CODE":0,"TOWNNAME":"東區","LI":"仁和里","LIN":"27鄰","STREET":"利東街","SECT":" ","MAREA":" ","LANE":" ","ALLEY":" ","HOUSE_NO":"３７號二樓","E_COORD97":171692.89000000001,"N_COORD97":2541160.4900000002,"ADDRESS":"利東街３７號二樓","OBJECTID":595792},"geometry":{"x":171692.8900000006,"y":2541160.4900000021}},{"attributes":{"ID":595820,"DIS_CODE":0,"TOWNNAME":"東區","LI":"仁和里","LIN":"27鄰","STREET":"利東街","SECT":" ","MAREA":" ","LANE":" ","ALLEY":" ","HOUSE_NO":"３７號八樓","E_COORD97":171692.89000000001,"N_COORD97":2541160.4900000002,"ADDRESS":"利東街３７號八樓","OBJECTID":595793},"geometry":{"x":171692.8900000006,"y":2541160.4900000021}},{"attributes":{"ID":595821,"DIS_CODE":0,"TOWNNAME":"東區","LI":"仁和里","LIN":"27鄰","STREET":"利東街","SECT":" ","MAREA":" ","LANE":" ","ALLEY":" ","HOUSE_NO":"３７號八樓之１","E_COORD97":171692.89000000001,"N_COORD97":2541160.4900000002,"ADDRESS":"利東街３７號八樓之１","OBJECTID":595794},"geometry":{"x":171692.8900000006,"y":2541160.4900000021}},{"attributes":{"ID":595822,"DIS_CODE":0,"TOWNNAME":"東區","LI":"仁和里","LIN":"27鄰","STREET":"利東街","SECT":" ","MAREA":" ","LANE":" ","ALLEY":" ","HOUSE_NO":"３７號八樓之２","E_COORD97":171692.89000000001,"N_COORD97":2541160.4900000002,"ADDRESS":"利東街３７號八樓之２","OBJECTID":595795},"geometry":{"x":171692.8900000006,"y":2541160.4900000021}},{"attributes":{"ID":595823,"DIS_CODE":0,"TOWNNAME":"東區","LI":"仁和里","LIN":"27鄰","STREET":"利東街","SECT":" ","MAREA":" ","LANE":" ","ALLEY":" ","HOUSE_NO":"３７號三樓","E_COORD97":171692.89000000001,"N_COORD97":2541160.4900000002,"ADDRESS":"利東街３７號三樓","OBJECTID":595796},"geometry":{"x":171692.8900000006,"y":2541160.4900000021}},{"attributes":{"ID":595824,"DIS_CODE":0,"TOWNNAME":"東區","LI":"仁和里","LIN":"27鄰","STREET":"利東街","SECT":" ","MAREA":" ","LANE":" ","ALLEY":" ","HOUSE_NO":"３７號三樓之１","E_COORD97":171692.89000000001,"N_COORD97":2541160.4900000002,"ADDRESS":"利東街３７號三樓之１","OBJECTID":595797},"geometry":{"x":171692.8900000006,"y":2541160.4900000021}},{"attributes":{"ID":595825,"DIS_CODE":0,"TOWNNAME":"東區","LI":"仁和里","LIN":"27鄰","STREET":"利東街","SECT":" ","MAREA":" ","LANE":" ","ALLEY":" ","HOUSE_NO":"３７號三樓之２","E_COORD97":171692.89000000001,"N_COORD97":2541160.4900000002,"ADDRESS":"利東街３７號三樓之２","OBJECTID":595798},"geometry":{"x":171692.8900000006,"y":2541160.4900000021}},{"attributes":{"ID":595826,"DIS_CODE":0,"TOWNNAME":"東區","LI":"仁和里","LIN":"27鄰","STREET":"利東街","SECT":" ","MAREA":" ","LANE":" ","ALLEY":" ","HOUSE_NO":"３７號五樓","E_COORD97":171692.89000000001,"N_COORD97":2541160.4900000002,"ADDRESS":"利東街３７號五樓","OBJECTID":595799},"geometry":{"x":171692.8900000006,"y":2541160.4900000021}},{"attributes":{"ID":595827,"DIS_CODE":0,"TOWNNAME":"東區","LI":"仁和里","LIN":"27鄰","STREET":"利東街","SECT":" ","MAREA":" ","LANE":" ","ALLEY":" ","HOUSE_NO":"３７號五樓之１","E_COORD97":171692.89000000001,"N_COORD97":2541160.4900000002,"ADDRESS":"利東街３７號五樓之１","OBJECTID":595800},"geometry":{"x":171692.8900000006,"y":2541160.4900000021}}]}