{"displayFieldName":"TOWNNAME","fieldAliases":{"ID":"ID","DIS_CODE":"DIS_CODE","TOWNNAME":"TOWNNAME","LI":"LI","LIN":"LIN","STREET":"STREET","SECT":"SECT","MAREA":"MAREA","LANE":"LANE","ALLEY":"ALLEY","HOUSE_NO":"HOUSE_NO","E_COORD97":"E_COORD97","N_COORD97":"N_COORD97","ADDRESS":"ADDRESS","OBJECTID":"OBJECTID"},"geometryType":"esriGeometryPoint","spatialReference":{"wkid":102443,"latestWkid":3826},"fields":[{"name":"ID","type":"esriFieldTypeDouble","alias":"ID"},{"name":"DIS_CODE","type":"esriFieldTypeInteger","alias":"DIS_CODE"},{"name":"TOWNNAME","type":"esriFieldTypeString","alias":"TOWNNAME","length":8},{"name":"LI","type":"esriFieldTypeString","alias":"LI","length":8},{"name":"LIN","type":"esriFieldTypeString","alias":"LIN","length":12},{"name":"STREET","type":"esriFieldTypeString","alias":"STREET","length":20},{"name":"SECT","type":"esriFieldTypeString","alias":"SECT","length":8},{"name":"MAREA","type":"esriFieldTypeString","alias":"MAREA","length":12},{"name":"LANE","type":"esriFieldTypeString","alias":"LANE","length":10},{"name":"ALLEY","type":"esriFieldTypeString","alias":"ALLEY","length":10},{"name":"HOUSE_NO","type":"esriFieldTypeString","alias":"HOUSE_NO","length":20},{"name":"E_COORD97","type":"esriFieldTypeDouble","alias":"E_COORD97"},{"name":"N_COORD97","type":"esriFieldTypeDouble","alias":"N_COORD97"},{"name":"ADDRESS","type":"esriFieldTypeString","alias":"ADDRESS","length":50},{"name":"OBJECTID","type":"esriFieldTypeOID","alias":"OBJECTID"}],"features":[{"attributes":{"ID":111601,"DIS_CODE":0,"TOWNNAME":"西港區","LI":"永樂里","LIN":"8鄰","STREET":" ","SECT":" ","MAREA":"大塭寮","LANE":" ","ALLEY":" ","HOUSE_NO":"７０號之５","E_COORD97":165860.01999999999,"N_COORD97":2556170.4500000002,"ADDRESS":"大塭寮７０號之５","OBJECTID":111601},"geometry":{"x":165860.02000000048,"y":2556170.4499999993}},{"attributes":{"ID":111602,"DIS_CODE":0,"TOWNNAME":"西港區","LI":"永樂里","LIN":"8鄰","STREET":" ","SECT":" ","MAREA":"大塭寮","LANE":" ","ALLEY":" ","HOUSE_NO":"７０號之６","E_COORD97":165859,"N_COORD97":2556166.7200000002,"ADDRESS":"大塭寮７０號之６","OBJECTID":111602},"geometry":{"x":165859.00000000093,"y":2556166.7200000007}},{"attributes":{"ID":111603,"DIS_CODE":0,"TOWNNAME":"西港區","LI":"永樂里","LIN":"8鄰","STREET":" ","SECT":" ","MAREA":"大塭寮","LANE":" ","ALLEY":" ","HOUSE_NO":"７０號之７","E_COORD97":165857.67000000001,"N_COORD97":2556162.1000000001,"ADDRESS":"大塭寮７０號之７","OBJECTID":111603},"geometry":{"x":165857.67000000086,"y":2556162.1000000015}},{"attributes":{"ID":111604,"DIS_CODE":0,"TOWNNAME":"西港區","LI":"永樂里","LIN":"8鄰","STREET":" ","SECT":" ","MAREA":"大塭寮","LANE":" ","ALLEY":" ","HOUSE_NO":"７０號","E_COORD97":165865.84,"N_COORD97":2556190.3300000001,"ADDRESS":"大塭寮７０號","OBJECTID":111604},"geometry":{"x":165865.83999999985,"y":2556190.3300000038}},{"attributes":{"ID":111605,"DIS_CODE":0,"TOWNNAME":"西港區","LI":"永樂里","LIN":"8鄰","STREET":" ","SECT":" ","MAREA":"大塭寮","LANE":" ","ALLEY":" ","HOUSE_NO":"７１號","E_COORD97":165851.79999999999,"N_COORD97":2556206.3900000001,"ADDRESS":"大塭寮７１號","OBJECTID":111605},"geometry":{"x":165851.80000000075,"y":2556206.3900000006}},{"attributes":{"ID":111606,"DIS_CODE":0,"TOWNNAME":"西港區","LI":"西港里","LIN":"8鄰","STREET":" ","SECT":" ","MAREA":"西港","LANE":" ","ALLEY":" ","HOUSE_NO":"２６之１０號","E_COORD97":168575.76000000001,"N_COORD97":2558083.4100000001,"ADDRESS":"西港２６之１０號","OBJECTID":111606},"geometry":{"x":168575.76000000164,"y":2558083.4100000001}},{"attributes":{"ID":111607,"DIS_CODE":0,"TOWNNAME":"西港區","LI":"劉厝里","LIN":"8鄰","STREET":" ","SECT":" ","MAREA":"劉厝","LANE":" ","ALLEY":" ","HOUSE_NO":"５１之３號","E_COORD97":165852.45999999999,"N_COORD97":2558757.4500000002,"ADDRESS":"劉厝５１之３號","OBJECTID":111607},"geometry":{"x":165852.46000000089,"y":2558757.4499999993}},{"attributes":{"ID":111608,"DIS_CODE":0,"TOWNNAME":"西港區","LI":"檨林里","LIN":"8鄰","STREET":" ","SECT":" ","MAREA":"檨子林","LANE":" ","ALLEY":" ","HOUSE_NO":"５９號","E_COORD97":171329.34,"N_COORD97":2559554.0899999999,"ADDRESS":"檨子林５９號","OBJECTID":111608},"geometry":{"x":171329.33999999985,"y":2559554.0899999999}},{"attributes":{"ID":111609,"DIS_CODE":0,"TOWNNAME":"西港區","LI":"檨林里","LIN":"8鄰","STREET":" ","SECT":" ","MAREA":"檨子林","LANE":" ","ALLEY":" ","HOUSE_NO":"６４號之２","E_COORD97":171398.14999999999,"N_COORD97":2559479.9900000002,"ADDRESS":"檨子林６４號之２","OBJECTID":111609},"geometry":{"x":171398.1500000013,"y":2559479.9900000002}},{"attributes":{"ID":111610,"DIS_CODE":0,"TOWNNAME":"西港區","LI":"檨林里","LIN":"8鄰","STREET":" ","SECT":" ","MAREA":"檨子林","LANE":" ","ALLEY":" ","HOUSE_NO":"６４號之３","E_COORD97":171402.29000000001,"N_COORD97":2559479.4900000002,"ADDRESS":"檨子林６４號之３","OBJECTID":111610},"geometry":{"x":171402.29000000097,"y":2559479.4900000021}},{"attributes":{"ID":111611,"DIS_CODE":0,"TOWNNAME":"西港區","LI":"檨林里","LIN":"8鄰","STREET":" ","SECT":" ","MAREA":"檨子林","LANE":" ","ALLEY":" ","HOUSE_NO":"６４號之４","E_COORD97":171406.42999999999,"N_COORD97":2559479,"ADDRESS":"檨子林６４號之４","OBJECTID":111611},"geometry":{"x":171406.4299999997,"y":2559479.0000000019}},{"attributes":{"ID":111612,"DIS_CODE":0,"TOWNNAME":"西港區","LI":"檨林里","LIN":"8鄰","STREET":" ","SECT":" ","MAREA":"檨子林","LANE":" ","ALLEY":" ","HOUSE_NO":"６４號之５","E_COORD97":171410.56,"N_COORD97":2559478.5099999998,"ADDRESS":"檨子林６４號之５","OBJECTID":111612},"geometry":{"x":171410.55999999959,"y":2559478.5100000016}},{"attributes":{"ID":111613,"DIS_CODE":0,"TOWNNAME":"西港區","LI":"檨林里","LIN":"8鄰","STREET":" ","SECT":" ","MAREA":"檨子林","LANE":" ","ALLEY":" ","HOUSE_NO":"６４之６號","E_COORD97":171414.70000000001,"N_COORD97":2559478.0099999998,"ADDRESS":"檨子林６４之６號","OBJECTID":111613},"geometry":{"x":171414.70000000112,"y":2559478.0100000016}},{"attributes":{"ID":111614,"DIS_CODE":0,"TOWNNAME":"東區","LI":"富強里","LIN":"9鄰","STREET":"裕農路","SECT":" ","MAREA":" ","LANE":"４４６巷","ALLEY":"９０弄","HOUSE_NO":"５號","E_COORD97":171218.92999999999,"N_COORD97":2542891.2599999998,"ADDRESS":"裕農路４４６巷９０弄５號","OBJECTID":111614},"geometry":{"x":171218.92999999877,"y":2542891.2600000016}},{"attributes":{"ID":111615,"DIS_CODE":0,"TOWNNAME":"東區","LI":"富強里","LIN":"9鄰","STREET":"裕農路","SECT":" ","MAREA":" ","LANE":"４４６巷","ALLEY":"９０弄","HOUSE_NO":"７號","E_COORD97":171214.95000000001,"N_COORD97":2542890.1400000001,"ADDRESS":"裕農路４４６巷９０弄７號","OBJECTID":111615},"geometry":{"x":171214.95000000112,"y":2542890.1400000006}},{"attributes":{"ID":111616,"DIS_CODE":0,"TOWNNAME":"東區","LI":"富強里","LIN":"9鄰","STREET":"裕農路","SECT":" ","MAREA":" ","LANE":"４４６巷","ALLEY":"９０弄","HOUSE_NO":"９號","E_COORD97":171221.01999999999,"N_COORD97":2542880.7000000002,"ADDRESS":"裕農路４４６巷９０弄９號","OBJECTID":111616},"geometry":{"x":171221.01999999955,"y":2542880.7000000011}},{"attributes":{"ID":111617,"DIS_CODE":0,"TOWNNAME":"東區","LI":"虎尾里","LIN":"9鄰","STREET":"東成街","SECT":" ","MAREA":" ","LANE":"１８２巷","ALLEY":"４弄","HOUSE_NO":"１８號","E_COORD97":171706.84,"N_COORD97":2542230.1200000001,"ADDRESS":"東成街１８２巷４弄１８號","OBJECTID":111617},"geometry":{"x":171706.84000000078,"y":2542230.120000001}},{"attributes":{"ID":111618,"DIS_CODE":0,"TOWNNAME":"安南區","LI":"青草里","LIN":"9鄰","STREET":"青砂街","SECT":"二段","MAREA":" ","LANE":"２９９巷","ALLEY":"７６弄","HOUSE_NO":"１９號","E_COORD97":159049.56612800001,"N_COORD97":2553033.99132,"ADDRESS":"青砂街二段２９９巷７６弄１９號","OBJECTID":111618},"geometry":{"x":159049.56612800062,"y":2553033.9913170002}},{"attributes":{"ID":111619,"DIS_CODE":0,"TOWNNAME":"安南區","LI":"海西里","LIN":"9鄰","STREET":"海中街","SECT":" ","MAREA":" ","LANE":"７７巷","ALLEY":"４５弄","HOUSE_NO":"１０號","E_COORD97":166308.39000000001,"N_COORD97":2548831.9199999999,"ADDRESS":"海中街７７巷４５弄１０號","OBJECTID":111619},"geometry":{"x":166308.39000000153,"y":2548831.9199999999}},{"attributes":{"ID":111620,"DIS_CODE":0,"TOWNNAME":"安南區","LI":"淵中里","LIN":"9鄰","STREET":"安中路","SECT":"四段","MAREA":" ","LANE":"４巷","ALLEY":"４８弄","HOUSE_NO":"７號","E_COORD97":165186.24397499999,"N_COORD97":2550224.79556,"ADDRESS":"安中路四段４巷４８弄７號","OBJECTID":111620},"geometry":{"x":165186.24397500139,"y":2550224.7955560014}},{"attributes":{"ID":111621,"DIS_CODE":0,"TOWNNAME":"永康區","LI":"龍潭里","LIN":"9鄰","STREET":"龍橋街","SECT":" ","MAREA":" ","LANE":"５３巷","ALLEY":"２１弄","HOUSE_NO":"３號","E_COORD97":174757.73000000001,"N_COORD97":2548299.5499999998,"ADDRESS":"龍橋街５３巷２１弄３號","OBJECTID":111621},"geometry":{"x":174757.73000000138,"y":2548299.5500000007}},{"attributes":{"ID":111622,"DIS_CODE":0,"TOWNNAME":"永康區","LI":"新樹里","LIN":"9鄰","STREET":"富強路","SECT":"二段","MAREA":" ","LANE":"１２８巷","ALLEY":"１４弄","HOUSE_NO":"２５號","E_COORD97":175743.89999999999,"N_COORD97":2547019.3399999999,"ADDRESS":"富強路二段１２８巷１４弄２５號","OBJECTID":111622},"geometry":{"x":175743.90000000037,"y":2547019.3400000017}},{"attributes":{"ID":111623,"DIS_CODE":0,"TOWNNAME":"永康區","LI":"復興里","LIN":"9鄰","STREET":"復興路","SECT":" ","MAREA":" ","LANE":"２７７巷","ALLEY":"４弄","HOUSE_NO":"１１號","E_COORD97":172290.89999999999,"N_COORD97":2544271.2799999998,"ADDRESS":"復興路２７７巷４弄１１號","OBJECTID":111623},"geometry":{"x":172290.90000000037,"y":2544271.2799999993}},{"attributes":{"ID":111624,"DIS_CODE":0,"TOWNNAME":"永康區","LI":"復興里","LIN":"9鄰","STREET":"復興路","SECT":" ","MAREA":" ","LANE":"２７７巷","ALLEY":"４弄","HOUSE_NO":"６號","E_COORD97":172291.47,"N_COORD97":2544291.77,"ADDRESS":"復興路２７７巷４弄６號","OBJECTID":111624},"geometry":{"x":172291.46999999974,"y":2544291.7699999996}},{"attributes":{"ID":111625,"DIS_CODE":0,"TOWNNAME":"永康區","LI":"神洲里","LIN":"9鄰","STREET":"忠孝路","SECT":" ","MAREA":" ","LANE":"６巷","ALLEY":"３７弄","HOUSE_NO":"８號","E_COORD97":172299.22,"N_COORD97":2544558.75,"ADDRESS":"忠孝路６巷３７弄８號","OBJECTID":111625},"geometry":{"x":172299.22000000067,"y":2544558.7500000019}},{"attributes":{"ID":111626,"DIS_CODE":0,"TOWNNAME":"西港區","LI":"檨林里","LIN":"8鄰","STREET":" ","SECT":" ","MAREA":"檨子林","LANE":" ","ALLEY":" ","HOUSE_NO":"６４號之６","E_COORD97":171414.70000000001,"N_COORD97":2559478.0099999998,"ADDRESS":"檨子林６４號之６","OBJECTID":111626},"geometry":{"x":171414.70000000112,"y":2559478.0100000016}},{"attributes":{"ID":111627,"DIS_CODE":0,"TOWNNAME":"西港區","LI":"檨林里","LIN":"8鄰","STREET":" ","SECT":" ","MAREA":"檨子林","LANE":" ","ALLEY":" ","HOUSE_NO":"６４號之７","E_COORD97":171418.84,"N_COORD97":2559477.52,"ADDRESS":"檨子林６４號之７","OBJECTID":111627},"geometry":{"x":171418.84000000078,"y":2559477.5200000014}},{"attributes":{"ID":111628,"DIS_CODE":0,"TOWNNAME":"西港區","LI":"檨林里","LIN":"8鄰","STREET":" ","SECT":" ","MAREA":"檨子林","LANE":" ","ALLEY":" ","HOUSE_NO":"６４號","E_COORD97":171390.20999999999,"N_COORD97":2559481.0800000001,"ADDRESS":"檨子林６４號","OBJECTID":111628},"geometry":{"x":171390.20999999903,"y":2559481.0800000019}},{"attributes":{"ID":111629,"DIS_CODE":0,"TOWNNAME":"西港區","LI":"檨林里","LIN":"8鄰","STREET":" ","SECT":" ","MAREA":"檨子林","LANE":" ","ALLEY":" ","HOUSE_NO":"６５號","E_COORD97":171391.87,"N_COORD97":2559510.5299999998,"ADDRESS":"檨子林６５號","OBJECTID":111629},"geometry":{"x":171391.87000000104,"y":2559510.5300000031}},{"attributes":{"ID":111630,"DIS_CODE":0,"TOWNNAME":"西港區","LI":"檨林里","LIN":"8鄰","STREET":" ","SECT":" ","MAREA":"檨子林","LANE":" ","ALLEY":" ","HOUSE_NO":"６６號","E_COORD97":171358.73999999999,"N_COORD97":2559511.2799999998,"ADDRESS":"檨子林６６號","OBJECTID":111630},"geometry":{"x":171358.74000000115,"y":2559511.2799999993}},{"attributes":{"ID":111631,"DIS_CODE":0,"TOWNNAME":"西港區","LI":"檨林里","LIN":"8鄰","STREET":" ","SECT":" ","MAREA":"檨子林","LANE":" ","ALLEY":" ","HOUSE_NO":"６７號之１","E_COORD97":171408.23000000001,"N_COORD97":2559525.3300000001,"ADDRESS":"檨子林６７號之１","OBJECTID":111631},"geometry":{"x":171408.23000000138,"y":2559525.3300000001}},{"attributes":{"ID":111632,"DIS_CODE":0,"TOWNNAME":"西港區","LI":"檨林里","LIN":"8鄰","STREET":" ","SECT":" ","MAREA":"檨子林","LANE":" ","ALLEY":" ","HOUSE_NO":"６７號","E_COORD97":171384.19,"N_COORD97":2559544.7599999998,"ADDRESS":"檨子林６７號","OBJECTID":111632},"geometry":{"x":171384.19000000227,"y":2559544.7600000016}},{"attributes":{"ID":111633,"DIS_CODE":0,"TOWNNAME":"西港區","LI":"檨林里","LIN":"8鄰","STREET":" ","SECT":" ","MAREA":"檨子林","LANE":" ","ALLEY":" ","HOUSE_NO":"６９號之１","E_COORD97":171391.29999999999,"N_COORD97":2559566.5499999998,"ADDRESS":"檨子林６９號之１","OBJECTID":111633},"geometry":{"x":171391.30000000168,"y":2559566.5500000026}},{"attributes":{"ID":111634,"DIS_CODE":0,"TOWNNAME":"北門區","LI":"永華里","LIN":"8鄰","STREET":" ","SECT":" ","MAREA":"井子\u25A0","LANE":" ","ALLEY":" ","HOUSE_NO":"６９之１號","E_COORD97":158773.69,"N_COORD97":2573375.25,"ADDRESS":"井子\u25A0６９之１號","OBJECTID":111634},"geometry":{"x":158773.69000000227,"y":2573375.25}},{"attributes":{"ID":111635,"DIS_CODE":0,"TOWNNAME":"北門區","LI":"永華里","LIN":"8鄰","STREET":" ","SECT":" ","MAREA":"井子\u25A0","LANE":" ","ALLEY":" ","HOUSE_NO":"６９號","E_COORD97":158784.45000000001,"N_COORD97":2573371.73,"ADDRESS":"井子\u25A0６９號","OBJECTID":111635},"geometry":{"x":158784.45000000019,"y":2573371.7300000023}},{"attributes":{"ID":111636,"DIS_CODE":0,"TOWNNAME":"北門區","LI":"永華里","LIN":"8鄰","STREET":" ","SECT":" ","MAREA":"井子\u25A0","LANE":" ","ALLEY":" ","HOUSE_NO":"７２號之１","E_COORD97":158772.51000000001,"N_COORD97":2573396.8199999998,"ADDRESS":"井子\u25A0７２號之１","OBJECTID":111636},"geometry":{"x":158772.51000000164,"y":2573396.820000004}},{"attributes":{"ID":111637,"DIS_CODE":0,"TOWNNAME":"北門區","LI":"永華里","LIN":"8鄰","STREET":" ","SECT":" ","MAREA":"井子\u25A0","LANE":" ","ALLEY":" ","HOUSE_NO":"７２號","E_COORD97":158799.13,"N_COORD97":2573382.75,"ADDRESS":"井子\u25A0７２號","OBJECTID":111637},"geometry":{"x":158799.13000000082,"y":2573382.75}},{"attributes":{"ID":111638,"DIS_CODE":0,"TOWNNAME":"北門區","LI":"永華里","LIN":"8鄰","STREET":" ","SECT":" ","MAREA":"井子\u25A0","LANE":" ","ALLEY":" ","HOUSE_NO":"７３號","E_COORD97":158801.06,"N_COORD97":2573402.8999999999,"ADDRESS":"井子\u25A0７３號","OBJECTID":111638},"geometry":{"x":158801.06000000052,"y":2573402.9000000041}},{"attributes":{"ID":111639,"DIS_CODE":0,"TOWNNAME":"北門區","LI":"永華里","LIN":"8鄰","STREET":" ","SECT":" ","MAREA":"井子\u25A0","LANE":" ","ALLEY":" ","HOUSE_NO":"７４號","E_COORD97":158801.64999999999,"N_COORD97":2573422.9199999999,"ADDRESS":"井子\u25A0７４號","OBJECTID":111639},"geometry":{"x":158801.6500000013,"y":2573422.9200000037}},{"attributes":{"ID":111640,"DIS_CODE":0,"TOWNNAME":"南區","LI":"喜北里","LIN":"1鄰","STREET":"喜明街","SECT":" ","MAREA":" ","LANE":" ","ALLEY":" ","HOUSE_NO":"３０５號","E_COORD97":165764.26999999999,"N_COORD97":2538736.54,"ADDRESS":"喜明街３０５號","OBJECTID":111640},"geometry":{"x":165764.26999999955,"y":2538736.5399999991}},{"attributes":{"ID":111641,"DIS_CODE":0,"TOWNNAME":"永康區","LI":"神洲里","LIN":"9鄰","STREET":"忠孝路","SECT":" ","MAREA":" ","LANE":"６巷","ALLEY":"３７弄","HOUSE_NO":"２號","E_COORD97":172291.97,"N_COORD97":2544541.5,"ADDRESS":"忠孝路６巷３７弄２號","OBJECTID":111641},"geometry":{"x":172291.9700000016,"y":2544541.5}},{"attributes":{"ID":111642,"DIS_CODE":0,"TOWNNAME":"南區","LI":"大林里","LIN":"1鄰","STREET":"大林路","SECT":" ","MAREA":" ","LANE":" ","ALLEY":" ","HOUSE_NO":"１５號","E_COORD97":169350.23000000001,"N_COORD97":2541828.3199999998,"ADDRESS":"大林路１５號","OBJECTID":111642},"geometry":{"x":169350.23000000138,"y":2541828.3200000003}},{"attributes":{"ID":111643,"DIS_CODE":0,"TOWNNAME":"南區","LI":"大林里","LIN":"1鄰","STREET":"大林路","SECT":" ","MAREA":" ","LANE":" ","ALLEY":" ","HOUSE_NO":"１７號","E_COORD97":169345.67999999999,"N_COORD97":2541826.25,"ADDRESS":"大林路１７號","OBJECTID":111643},"geometry":{"x":169345.6799999997,"y":2541826.2500000019}},{"attributes":{"ID":111644,"DIS_CODE":0,"TOWNNAME":"歸仁區","LI":"沙崙里","LIN":"1鄰","STREET":" ","SECT":" ","MAREA":"二甲","LANE":" ","ALLEY":" ","HOUSE_NO":"６號","E_COORD97":178499.42999999999,"N_COORD97":2539359.8900000001,"ADDRESS":"二甲６號","OBJECTID":111644},"geometry":{"x":178499.4299999997,"y":2539359.8900000006}},{"attributes":{"ID":111645,"DIS_CODE":0,"TOWNNAME":"永康區","LI":"神洲里","LIN":"9鄰","STREET":"忠孝路","SECT":" ","MAREA":" ","LANE":"６巷","ALLEY":"３７弄","HOUSE_NO":"７號","E_COORD97":172291.14999999999,"N_COORD97":2544562.25,"ADDRESS":"忠孝路６巷３７弄７號","OBJECTID":111645},"geometry":{"x":172291.15000000037,"y":2544562.2500000019}},{"attributes":{"ID":111646,"DIS_CODE":0,"TOWNNAME":"歸仁區","LI":"沙崙里","LIN":"1鄰","STREET":" ","SECT":" ","MAREA":"二甲","LANE":" ","ALLEY":" ","HOUSE_NO":"１６３號","E_COORD97":178705.17000000001,"N_COORD97":2539666.25,"ADDRESS":"二甲１６３號","OBJECTID":111646},"geometry":{"x":178705.16999999899,"y":2539666.2500000019}},{"attributes":{"ID":111647,"DIS_CODE":0,"TOWNNAME":"歸仁區","LI":"沙崙里","LIN":"1鄰","STREET":" ","SECT":" ","MAREA":"二甲","LANE":" ","ALLEY":" ","HOUSE_NO":"３號","E_COORD97":178449.29000000001,"N_COORD97":2539560.7999999998,"ADDRESS":"二甲３號","OBJECTID":111647},"geometry":{"x":178449.29000000097,"y":2539560.8000000007}},{"attributes":{"ID":111648,"DIS_CODE":0,"TOWNNAME":"後壁區","LI":"後部里","LIN":"8鄰","STREET":" ","SECT":" ","MAREA":"後部","LANE":" ","ALLEY":" ","HOUSE_NO":"７６號","E_COORD97":182230.19,"N_COORD97":2586897.0899999999,"ADDRESS":"後部７６號","OBJECTID":111648},"geometry":{"x":182230.19000000134,"y":2586897.0899999999}},{"attributes":{"ID":111649,"DIS_CODE":0,"TOWNNAME":"安南區","LI":"安東里","LIN":"9鄰","STREET":"安和路","SECT":"一段","MAREA":" ","LANE":"４７８巷","ALLEY":"５０弄","HOUSE_NO":"１１號","E_COORD97":169512.70000000001,"N_COORD97":2548280.71,"ADDRESS":"安和路一段４７８巷５０弄１１號","OBJECTID":111649},"geometry":{"x":169512.70000000112,"y":2548280.7100000009}},{"attributes":{"ID":111650,"DIS_CODE":0,"TOWNNAME":"北門區","LI":"永華里","LIN":"8鄰","STREET":" ","SECT":" ","MAREA":"井子\u25A0","LANE":" ","ALLEY":" ","HOUSE_NO":"７５號","E_COORD97":158805.07000000001,"N_COORD97":2573457.6400000001,"ADDRESS":"井子\u25A0７５號","OBJECTID":111650},"geometry":{"x":158805.07000000123,"y":2573457.6400000006}},{"attributes":{"ID":111651,"DIS_CODE":0,"TOWNNAME":"北門區","LI":"玉港里","LIN":"8鄰","STREET":" ","SECT":" ","MAREA":"灰\u25A0港","LANE":" ","ALLEY":" ","HOUSE_NO":"７５號之１","E_COORD97":161723.85999999999,"N_COORD97":2573568.5499999998,"ADDRESS":"灰\u25A0港７５號之１","OBJECTID":111651},"geometry":{"x":161723.8600000022,"y":2573568.5500000045}},{"attributes":{"ID":111652,"DIS_CODE":0,"TOWNNAME":"北門區","LI":"玉港里","LIN":"8鄰","STREET":" ","SECT":" ","MAREA":"灰\u25A0港","LANE":" ","ALLEY":" ","HOUSE_NO":"７５號","E_COORD97":161742.29999999999,"N_COORD97":2573563.3500000001,"ADDRESS":"灰\u25A0港７５號","OBJECTID":111652},"geometry":{"x":161742.30000000168,"y":2573563.3500000015}},{"attributes":{"ID":111653,"DIS_CODE":0,"TOWNNAME":"安南區","LI":"安東里","LIN":"9鄰","STREET":"安和路","SECT":"一段","MAREA":" ","LANE":"４７８巷","ALLEY":"５０弄","HOUSE_NO":"１３號","E_COORD97":169505.85000000001,"N_COORD97":2548280.9900000002,"ADDRESS":"安和路一段４７８巷５０弄１３號","OBJECTID":111653},"geometry":{"x":169505.85000000056,"y":2548280.9900000021}},{"attributes":{"ID":111654,"DIS_CODE":0,"TOWNNAME":"南區","LI":"大林里","LIN":"1鄰","STREET":"大林路","SECT":" ","MAREA":" ","LANE":" ","ALLEY":" ","HOUSE_NO":"１９號","E_COORD97":169340.41,"N_COORD97":2541825.3199999998,"ADDRESS":"大林路１９號","OBJECTID":111654},"geometry":{"x":169340.41000000108,"y":2541825.320000004}},{"attributes":{"ID":111655,"DIS_CODE":0,"TOWNNAME":"南區","LI":"大林里","LIN":"1鄰","STREET":"大林路","SECT":" ","MAREA":" ","LANE":" ","ALLEY":" ","HOUSE_NO":"２１號","E_COORD97":169336.69,"N_COORD97":2541822.9500000002,"ADDRESS":"大林路２１號","OBJECTID":111655},"geometry":{"x":169336.69000000134,"y":2541822.9499999993}},{"attributes":{"ID":111656,"DIS_CODE":0,"TOWNNAME":"北門區","LI":"玉港里","LIN":"8鄰","STREET":" ","SECT":" ","MAREA":"灰\u25A0港","LANE":" ","ALLEY":" ","HOUSE_NO":"７７號","E_COORD97":161741.42000000001,"N_COORD97":2573581.2000000002,"ADDRESS":"灰\u25A0港７７號","OBJECTID":111656},"geometry":{"x":161741.41999999899,"y":2573581.1999999993}},{"attributes":{"ID":111657,"DIS_CODE":0,"TOWNNAME":"安南區","LI":"安東里","LIN":"9鄰","STREET":"安和路","SECT":"一段","MAREA":" ","LANE":"４７８巷","ALLEY":"５０弄","HOUSE_NO":"１５號","E_COORD97":169495.92999999999,"N_COORD97":2548281.5499999998,"ADDRESS":"安和路一段４７８巷５０弄１５號","OBJECTID":111657},"geometry":{"x":169495.9299999997,"y":2548281.5500000007}},{"attributes":{"ID":111658,"DIS_CODE":0,"TOWNNAME":"南區","LI":"佛壇里","LIN":"1鄰","STREET":"興南街","SECT":" ","MAREA":" ","LANE":" ","ALLEY":" ","HOUSE_NO":"３０８號","E_COORD97":165918.75,"N_COORD97":2535637.8399999999,"ADDRESS":"興南街３０８號","OBJECTID":111658},"geometry":{"x":165918.75000000093,"y":2535637.8400000017}},{"attributes":{"ID":111659,"DIS_CODE":0,"TOWNNAME":"南區","LI":"喜北里","LIN":"1鄰","STREET":"喜明街","SECT":" ","MAREA":" ","LANE":" ","ALLEY":" ","HOUSE_NO":"３０２號","E_COORD97":165739.82999999999,"N_COORD97":2538755.8999999999,"ADDRESS":"喜明街３０２號","OBJECTID":111659},"geometry":{"x":165739.83000000101,"y":2538755.9000000004}},{"attributes":{"ID":111660,"DIS_CODE":0,"TOWNNAME":"安南區","LI":"安東里","LIN":"9鄰","STREET":"安和路","SECT":"一段","MAREA":" ","LANE":"４７８巷","ALLEY":"５０弄","HOUSE_NO":"１７號","E_COORD97":169488.10999999999,"N_COORD97":2548280.1600000001,"ADDRESS":"安和路一段４７８巷５０弄１７號","OBJECTID":111660},"geometry":{"x":169488.11000000127,"y":2548280.1600000001}},{"attributes":{"ID":111661,"DIS_CODE":0,"TOWNNAME":"安南區","LI":"安東里","LIN":"9鄰","STREET":"安和路","SECT":"一段","MAREA":" ","LANE":"４７８巷","ALLEY":"５０弄","HOUSE_NO":"１９號","E_COORD97":169480,"N_COORD97":2548278.6200000001,"ADDRESS":"安和路一段４７８巷５０弄１９號","OBJECTID":111661},"geometry":{"x":169480.00000000093,"y":2548278.620000001}},{"attributes":{"ID":111662,"DIS_CODE":0,"TOWNNAME":"歸仁區","LI":"南興里","LIN":"1鄰","STREET":"文化街","SECT":"三段","MAREA":" ","LANE":" ","ALLEY":" ","HOUSE_NO":"２６０號","E_COORD97":176466.23999999999,"N_COORD97":2541227.3300000001,"ADDRESS":"文化街三段２６０號","OBJECTID":111662},"geometry":{"x":176466.24000000115,"y":2541227.3300000001}},{"attributes":{"ID":111663,"DIS_CODE":0,"TOWNNAME":"北門區","LI":"玉港里","LIN":"8鄰","STREET":" ","SECT":" ","MAREA":"灰\u25A0港","LANE":" ","ALLEY":" ","HOUSE_NO":"７９號","E_COORD97":161751.14999999999,"N_COORD97":2573604.2799999998,"ADDRESS":"灰\u25A0港７９號","OBJECTID":111663},"geometry":{"x":161751.1500000013,"y":2573604.2800000012}},{"attributes":{"ID":111664,"DIS_CODE":0,"TOWNNAME":"歸仁區","LI":"大廟里","LIN":"1鄰","STREET":"大廟二街","SECT":" ","MAREA":" ","LANE":" ","ALLEY":" ","HOUSE_NO":"６７號","E_COORD97":176037.26999999999,"N_COORD97":2543957.25,"ADDRESS":"大廟二街６７號","OBJECTID":111664},"geometry":{"x":176037.26999999955,"y":2543957.25}},{"attributes":{"ID":111665,"DIS_CODE":0,"TOWNNAME":"北門區","LI":"玉港里","LIN":"8鄰","STREET":" ","SECT":" ","MAREA":"灰\u25A0港","LANE":" ","ALLEY":" ","HOUSE_NO":"８０號之１","E_COORD97":161756.04999999999,"N_COORD97":2573635.7599999998,"ADDRESS":"灰\u25A0港８０號之１","OBJECTID":111665},"geometry":{"x":161756.05000000075,"y":2573635.7599999998}},{"attributes":{"ID":111666,"DIS_CODE":0,"TOWNNAME":"北門區","LI":"玉港里","LIN":"8鄰","STREET":" ","SECT":" ","MAREA":"灰\u25A0港","LANE":" ","ALLEY":" ","HOUSE_NO":"８１號","E_COORD97":161760.69,"N_COORD97":2573619.9300000002,"ADDRESS":"灰\u25A0港８１號","OBJECTID":111666},"geometry":{"x":161760.69000000227,"y":2573619.9300000016}},{"attributes":{"ID":111667,"DIS_CODE":0,"TOWNNAME":"後壁區","LI":"後部里","LIN":"8鄰","STREET":" ","SECT":" ","MAREA":"後部","LANE":" ","ALLEY":" ","HOUSE_NO":"７４號之１０","E_COORD97":182266,"N_COORD97":2586935.3199999998,"ADDRESS":"後部７４號之１０","OBJECTID":111667},"geometry":{"x":182266,"y":2586935.3200000022}},{"attributes":{"ID":111668,"DIS_CODE":0,"TOWNNAME":"後壁區","LI":"後部里","LIN":"8鄰","STREET":" ","SECT":" ","MAREA":"後部","LANE":" ","ALLEY":" ","HOUSE_NO":"７４號之１１","E_COORD97":182267.19,"N_COORD97":2586930.75,"ADDRESS":"後部７４號之１１","OBJECTID":111668},"geometry":{"x":182267.18999999948,"y":2586930.75}},{"attributes":{"ID":111669,"DIS_CODE":0,"TOWNNAME":"後壁區","LI":"後部里","LIN":"8鄰","STREET":" ","SECT":" ","MAREA":"後部","LANE":" ","ALLEY":" ","HOUSE_NO":"７４號之１２","E_COORD97":182268.28,"N_COORD97":2586926.27,"ADDRESS":"後部７４號之１２","OBJECTID":111669},"geometry":{"x":182268.28000000212,"y":2586926.2699999996}},{"attributes":{"ID":111670,"DIS_CODE":0,"TOWNNAME":"後壁區","LI":"後部里","LIN":"8鄰","STREET":" ","SECT":" ","MAREA":"後部","LANE":" ","ALLEY":" ","HOUSE_NO":"７４號之１３","E_COORD97":182269.03,"N_COORD97":2586921.8599999999,"ADDRESS":"後部７４號之１３","OBJECTID":111670},"geometry":{"x":182269.03000000119,"y":2586921.8599999994}},{"attributes":{"ID":111671,"DIS_CODE":0,"TOWNNAME":"後壁區","LI":"後部里","LIN":"8鄰","STREET":" ","SECT":" ","MAREA":"後部","LANE":" ","ALLEY":" ","HOUSE_NO":"７４號之１４","E_COORD97":182270.26000000001,"N_COORD97":2586918.1099999999,"ADDRESS":"後部７４號之１４","OBJECTID":111671},"geometry":{"x":182270.26000000071,"y":2586918.1100000031}},{"attributes":{"ID":111672,"DIS_CODE":0,"TOWNNAME":"後壁區","LI":"後部里","LIN":"8鄰","STREET":" ","SECT":" ","MAREA":"後部","LANE":" ","ALLEY":" ","HOUSE_NO":"７４號之２","E_COORD97":182250.69,"N_COORD97":2586979.27,"ADDRESS":"後部７４號之２","OBJECTID":111672},"geometry":{"x":182250.69000000134,"y":2586979.2700000014}},{"attributes":{"ID":111673,"DIS_CODE":0,"TOWNNAME":"後壁區","LI":"後部里","LIN":"8鄰","STREET":" ","SECT":" ","MAREA":"後部","LANE":" ","ALLEY":" ","HOUSE_NO":"７４號之５","E_COORD97":182259.54999999999,"N_COORD97":2586964.21,"ADDRESS":"後部７４號之５","OBJECTID":111673},"geometry":{"x":182259.55000000075,"y":2586964.2100000028}},{"attributes":{"ID":111674,"DIS_CODE":0,"TOWNNAME":"歸仁區","LI":"南保里","LIN":"1鄰","STREET":"大德路","SECT":" ","MAREA":" ","LANE":" ","ALLEY":" ","HOUSE_NO":"３０７號","E_COORD97":176995.26999999999,"N_COORD97":2541530.1299999999,"ADDRESS":"大德路３０７號","OBJECTID":111674},"geometry":{"x":176995.26999999955,"y":2541530.1299999971}},{"attributes":{"ID":111675,"DIS_CODE":0,"TOWNNAME":"學甲區","LI":"豐和里","LIN":"19鄰","STREET":" ","SECT":" ","MAREA":"美和","LANE":" ","ALLEY":" ","HOUSE_NO":"３１號","E_COORD97":167764.95000000001,"N_COORD97":2569178.4399999999,"ADDRESS":"美和３１號","OBJECTID":111675},"geometry":{"x":167764.95000000112,"y":2569178.4400000013}},{"attributes":{"ID":111676,"DIS_CODE":0,"TOWNNAME":"歸仁區","LI":"八甲里","LIN":"1鄰","STREET":"大德路","SECT":" ","MAREA":" ","LANE":" ","ALLEY":" ","HOUSE_NO":"３８６號","E_COORD97":177539.37,"N_COORD97":2541536.9399999999,"ADDRESS":"大德路３８６號","OBJECTID":111676},"geometry":{"x":177539.37000000011,"y":2541536.9400000013}},{"attributes":{"ID":111677,"DIS_CODE":0,"TOWNNAME":"安南區","LI":"安東里","LIN":"9鄰","STREET":"安和路","SECT":"一段","MAREA":" ","LANE":"４７８巷","ALLEY":"５０弄","HOUSE_NO":"１號","E_COORD97":169544.28,"N_COORD97":2548246.71,"ADDRESS":"安和路一段４７８巷５０弄１號","OBJECTID":111677},"geometry":{"x":169544.28000000119,"y":2548246.7100000009}},{"attributes":{"ID":111678,"DIS_CODE":0,"TOWNNAME":"安南區","LI":"安東里","LIN":"9鄰","STREET":"安和路","SECT":"一段","MAREA":" ","LANE":"４７８巷","ALLEY":"５０弄","HOUSE_NO":"３號","E_COORD97":169535.47,"N_COORD97":2548246.8500000001,"ADDRESS":"安和路一段４７８巷５０弄３號","OBJECTID":111678},"geometry":{"x":169535.4700000016,"y":2548246.8500000015}},{"attributes":{"ID":111679,"DIS_CODE":0,"TOWNNAME":"安南區","LI":"安東里","LIN":"9鄰","STREET":"安和路","SECT":"一段","MAREA":" ","LANE":"４７８巷","ALLEY":"５０弄","HOUSE_NO":"３號地下一層","E_COORD97":169535.47,"N_COORD97":2548246.8500000001,"ADDRESS":"安和路一段４７８巷５０弄３號地下一層","OBJECTID":111679},"geometry":{"x":169535.4700000016,"y":2548246.8500000015}},{"attributes":{"ID":111680,"DIS_CODE":0,"TOWNNAME":"新營區","LI":"土庫里","LIN":"17鄰","STREET":" ","SECT":" ","MAREA":"卯舍","LANE":" ","ALLEY":" ","HOUSE_NO":"２３號","E_COORD97":181447.10999999999,"N_COORD97":2580088.6899999999,"ADDRESS":"卯舍２３號","OBJECTID":111680},"geometry":{"x":181447.11000000034,"y":2580088.6899999995}},{"attributes":{"ID":111681,"DIS_CODE":0,"TOWNNAME":"後壁區","LI":"後部里","LIN":"8鄰","STREET":" ","SECT":" ","MAREA":"後部","LANE":" ","ALLEY":" ","HOUSE_NO":"７４號之８","E_COORD97":182264.25,"N_COORD97":2586944.54,"ADDRESS":"後部７４號之８","OBJECTID":111681},"geometry":{"x":182264.25,"y":2586944.5399999991}},{"attributes":{"ID":111682,"DIS_CODE":0,"TOWNNAME":"後壁區","LI":"後部里","LIN":"8鄰","STREET":" ","SECT":" ","MAREA":"後部","LANE":" ","ALLEY":" ","HOUSE_NO":"７４號之９","E_COORD97":182264.92999999999,"N_COORD97":2586939.4900000002,"ADDRESS":"後部７４號之９","OBJECTID":111682},"geometry":{"x":182264.93000000156,"y":2586939.4900000002}},{"attributes":{"ID":111683,"DIS_CODE":0,"TOWNNAME":"後壁區","LI":"後部里","LIN":"8鄰","STREET":" ","SECT":" ","MAREA":"後部","LANE":" ","ALLEY":" ","HOUSE_NO":"７５號之２","E_COORD97":182217.14999999999,"N_COORD97":2586917.2999999998,"ADDRESS":"後部７５號之２","OBJECTID":111683},"geometry":{"x":182217.1500000013,"y":2586917.3000000007}},{"attributes":{"ID":111684,"DIS_CODE":0,"TOWNNAME":"後壁區","LI":"後部里","LIN":"8鄰","STREET":" ","SECT":" ","MAREA":"後部","LANE":" ","ALLEY":" ","HOUSE_NO":"７５號","E_COORD97":182240.87,"N_COORD97":2586932.1499999999,"ADDRESS":"後部７５號","OBJECTID":111684},"geometry":{"x":182240.87000000104,"y":2586932.1500000041}},{"attributes":{"ID":111685,"DIS_CODE":0,"TOWNNAME":"後壁區","LI":"後部里","LIN":"8鄰","STREET":" ","SECT":" ","MAREA":"後部","LANE":" ","ALLEY":" ","HOUSE_NO":"７７號之１","E_COORD97":182270.56,"N_COORD97":2586885.5699999998,"ADDRESS":"後部７７號之１","OBJECTID":111685},"geometry":{"x":182270.55999999866,"y":2586885.5700000022}},{"attributes":{"ID":111686,"DIS_CODE":0,"TOWNNAME":"後壁區","LI":"後部里","LIN":"8鄰","STREET":" ","SECT":" ","MAREA":"後部","LANE":" ","ALLEY":" ","HOUSE_NO":"７７號","E_COORD97":182253.48999999999,"N_COORD97":2586910.9500000002,"ADDRESS":"後部７７號","OBJECTID":111686},"geometry":{"x":182253.49000000115,"y":2586910.9499999993}},{"attributes":{"ID":111687,"DIS_CODE":0,"TOWNNAME":"南區","LI":"喜東里","LIN":"1鄰","STREET":"明興路","SECT":" ","MAREA":" ","LANE":" ","ALLEY":" ","HOUSE_NO":"３２９號","E_COORD97":166386.07999999999,"N_COORD97":2539015.5,"ADDRESS":"明興路３２９號","OBJECTID":111687},"geometry":{"x":166386.08000000101,"y":2539015.5}},{"attributes":{"ID":111688,"DIS_CODE":0,"TOWNNAME":"安南區","LI":"安東里","LIN":"9鄰","STREET":"安和路","SECT":"一段","MAREA":" ","LANE":"４７８巷","ALLEY":"５０弄","HOUSE_NO":"５號","E_COORD97":169526.10999999999,"N_COORD97":2548258.0899999999,"ADDRESS":"安和路一段４７８巷５０弄５號","OBJECTID":111688},"geometry":{"x":169526.11000000034,"y":2548258.0900000036}},{"attributes":{"ID":111689,"DIS_CODE":0,"TOWNNAME":"安南區","LI":"安東里","LIN":"9鄰","STREET":"安和路","SECT":"一段","MAREA":" ","LANE":"４７８巷","ALLEY":"５０弄","HOUSE_NO":"７號","E_COORD97":169527.09,"N_COORD97":2548269.6800000002,"ADDRESS":"安和路一段４７８巷５０弄７號","OBJECTID":111689},"geometry":{"x":169527.09000000078,"y":2548269.6799999997}},{"attributes":{"ID":111690,"DIS_CODE":0,"TOWNNAME":"後壁區","LI":"後部里","LIN":"8鄰","STREET":" ","SECT":" ","MAREA":"後部","LANE":" ","ALLEY":" ","HOUSE_NO":"７８號","E_COORD97":182252.48999999999,"N_COORD97":2586885.0600000001,"ADDRESS":"後部７８號","OBJECTID":111690},"geometry":{"x":182252.49000000022,"y":2586885.0600000005}},{"attributes":{"ID":111691,"DIS_CODE":0,"TOWNNAME":"後壁區","LI":"後部里","LIN":"8鄰","STREET":" ","SECT":" ","MAREA":"後部","LANE":" ","ALLEY":" ","HOUSE_NO":"７９號之１","E_COORD97":182230.47,"N_COORD97":2586871.6899999999,"ADDRESS":"後部７９號之１","OBJECTID":111691},"geometry":{"x":182230.46999999974,"y":2586871.6900000013}},{"attributes":{"ID":111692,"DIS_CODE":0,"TOWNNAME":"後壁區","LI":"後部里","LIN":"8鄰","STREET":" ","SECT":" ","MAREA":"後部","LANE":" ","ALLEY":" ","HOUSE_NO":"７９號","E_COORD97":182237.94,"N_COORD97":2586881.77,"ADDRESS":"後部７９號","OBJECTID":111692},"geometry":{"x":182237.94000000041,"y":2586881.7699999996}},{"attributes":{"ID":111693,"DIS_CODE":0,"TOWNNAME":"後壁區","LI":"後部里","LIN":"8鄰","STREET":" ","SECT":" ","MAREA":"後部","LANE":" ","ALLEY":" ","HOUSE_NO":"８０號之１","E_COORD97":182276.51999999999,"N_COORD97":2586852.54,"ADDRESS":"後部８０號之１","OBJECTID":111693},"geometry":{"x":182276.52000000048,"y":2586852.5399999991}},{"attributes":{"ID":111694,"DIS_CODE":0,"TOWNNAME":"後壁區","LI":"後部里","LIN":"8鄰","STREET":" ","SECT":" ","MAREA":"後部","LANE":" ","ALLEY":" ","HOUSE_NO":"８０號","E_COORD97":182273.31,"N_COORD97":2586868.9100000001,"ADDRESS":"後部８０號","OBJECTID":111694},"geometry":{"x":182273.30999999959,"y":2586868.9100000001}},{"attributes":{"ID":111695,"DIS_CODE":0,"TOWNNAME":"後壁區","LI":"後部里","LIN":"8鄰","STREET":" ","SECT":" ","MAREA":"後部","LANE":" ","ALLEY":" ","HOUSE_NO":"８１號之１","E_COORD97":182263.67999999999,"N_COORD97":2586831.5299999998,"ADDRESS":"後部８１號之１","OBJECTID":111695},"geometry":{"x":182263.68000000063,"y":2586831.5300000012}},{"attributes":{"ID":111696,"DIS_CODE":0,"TOWNNAME":"後壁區","LI":"後部里","LIN":"8鄰","STREET":" ","SECT":" ","MAREA":"後部","LANE":" ","ALLEY":" ","HOUSE_NO":"８１號之２","E_COORD97":182281.29000000001,"N_COORD97":2586828.0499999998,"ADDRESS":"後部８１號之２","OBJECTID":111696},"geometry":{"x":182281.29000000004,"y":2586828.0499999989}},{"attributes":{"ID":111697,"DIS_CODE":0,"TOWNNAME":"安南區","LI":"安東里","LIN":"9鄰","STREET":"安和路","SECT":"一段","MAREA":" ","LANE":"４７８巷","ALLEY":"５０弄","HOUSE_NO":"９號","E_COORD97":169521.64000000001,"N_COORD97":2548280.9900000002,"ADDRESS":"安和路一段４７８巷５０弄９號","OBJECTID":111697},"geometry":{"x":169521.63999999966,"y":2548280.9900000021}},{"attributes":{"ID":111698,"DIS_CODE":0,"TOWNNAME":"後壁區","LI":"後部里","LIN":"8鄰","STREET":" ","SECT":" ","MAREA":"後部","LANE":" ","ALLEY":" ","HOUSE_NO":"８１號","E_COORD97":182258.39999999999,"N_COORD97":2586854.3399999999,"ADDRESS":"後部８１號","OBJECTID":111698},"geometry":{"x":182258.40000000037,"y":2586854.3399999999}},{"attributes":{"ID":111699,"DIS_CODE":0,"TOWNNAME":"後壁區","LI":"後部里","LIN":"8鄰","STREET":" ","SECT":" ","MAREA":"後部","LANE":" ","ALLEY":" ","HOUSE_NO":"８２號之５","E_COORD97":182235.48000000001,"N_COORD97":2586781.1299999999,"ADDRESS":"後部８２號之５","OBJECTID":111699},"geometry":{"x":182235.48000000138,"y":2586781.129999999}},{"attributes":{"ID":111700,"DIS_CODE":0,"TOWNNAME":"後壁區","LI":"後部里","LIN":"8鄰","STREET":" ","SECT":" ","MAREA":"後部","LANE":" ","ALLEY":" ","HOUSE_NO":"８２號之６","E_COORD97":182236.54000000001,"N_COORD97":2586785.8999999999,"ADDRESS":"後部８２號之６","OBJECTID":111700},"geometry":{"x":182236.54000000004,"y":2586785.9000000022}},{"attributes":{"ID":111701,"DIS_CODE":0,"TOWNNAME":"永康區","LI":"復興里","LIN":"9鄰","STREET":"復興路","SECT":" ","MAREA":" ","LANE":"２７７巷","ALLEY":"６弄","HOUSE_NO":"６號","E_COORD97":172306.82000000001,"N_COORD97":2544256.77,"ADDRESS":"復興路２７７巷６弄６號","OBJECTID":111701},"geometry":{"x":172306.8200000003,"y":2544256.7700000014}},{"attributes":{"ID":111702,"DIS_CODE":0,"TOWNNAME":"東區","LI":"新東里","LIN":"9鄰","STREET":"裕農路","SECT":" ","MAREA":" ","LANE":"４３巷","ALLEY":"２９弄","HOUSE_NO":"１０號","E_COORD97":170582.54999999999,"N_COORD97":2543008.6899999999,"ADDRESS":"裕農路４３巷２９弄１０號","OBJECTID":111702},"geometry":{"x":170582.54999999888,"y":2543008.6900000032}},{"attributes":{"ID":111703,"DIS_CODE":0,"TOWNNAME":"東區","LI":"新東里","LIN":"9鄰","STREET":"裕農路","SECT":" ","MAREA":" ","LANE":"４３巷","ALLEY":"２９弄","HOUSE_NO":"１２號","E_COORD97":170577.29999999999,"N_COORD97":2543007.6899999999,"ADDRESS":"裕農路４３巷２９弄１２號","OBJECTID":111703},"geometry":{"x":170577.29999999981,"y":2543007.6899999995}},{"attributes":{"ID":111704,"DIS_CODE":0,"TOWNNAME":"東區","LI":"新東里","LIN":"9鄰","STREET":"裕農路","SECT":" ","MAREA":" ","LANE":"４３巷","ALLEY":"２９弄","HOUSE_NO":"１４號","E_COORD97":170572.72,"N_COORD97":2543007.5800000001,"ADDRESS":"裕農路４３巷２９弄１４號","OBJECTID":111704},"geometry":{"x":170572.71999999974,"y":2543007.5800000019}},{"attributes":{"ID":111705,"DIS_CODE":0,"TOWNNAME":"南區","LI":"喜東里","LIN":"1鄰","STREET":"明興路","SECT":" ","MAREA":" ","LANE":" ","ALLEY":" ","HOUSE_NO":"３３１號","E_COORD97":166385.42000000001,"N_COORD97":2539011.73,"ADDRESS":"明興路３３１號","OBJECTID":111705},"geometry":{"x":166385.42000000086,"y":2539011.7300000004}},{"attributes":{"ID":111706,"DIS_CODE":0,"TOWNNAME":"後壁區","LI":"後部里","LIN":"8鄰","STREET":" ","SECT":" ","MAREA":"後部","LANE":" ","ALLEY":" ","HOUSE_NO":"８２號之７","E_COORD97":182237.31,"N_COORD97":2586790.1400000001,"ADDRESS":"後部８２號之７","OBJECTID":111706},"geometry":{"x":182237.31000000052,"y":2586790.1400000043}},{"attributes":{"ID":111707,"DIS_CODE":0,"TOWNNAME":"後壁區","LI":"後部里","LIN":"8鄰","STREET":" ","SECT":" ","MAREA":"後部","LANE":" ","ALLEY":" ","HOUSE_NO":"８２號之８","E_COORD97":182238,"N_COORD97":2586794.2999999998,"ADDRESS":"後部８２號之８","OBJECTID":111707},"geometry":{"x":182238.00000000093,"y":2586794.3000000026}},{"attributes":{"ID":111708,"DIS_CODE":0,"TOWNNAME":"後壁區","LI":"後部里","LIN":"8鄰","STREET":" ","SECT":" ","MAREA":"後部","LANE":" ","ALLEY":" ","HOUSE_NO":"８２號","E_COORD97":182242.60000000001,"N_COORD97":2586772.2799999998,"ADDRESS":"後部８２號","OBJECTID":111708},"geometry":{"x":182242.59999999963,"y":2586772.2800000012}},{"attributes":{"ID":111709,"DIS_CODE":0,"TOWNNAME":"東區","LI":"新東里","LIN":"9鄰","STREET":"裕農路","SECT":" ","MAREA":" ","LANE":"４３巷","ALLEY":"２９弄","HOUSE_NO":"１６號","E_COORD97":170567.59,"N_COORD97":2543007.1299999999,"ADDRESS":"裕農路４３巷２９弄１６號","OBJECTID":111709},"geometry":{"x":170567.59000000078,"y":2543007.129999999}},{"attributes":{"ID":111710,"DIS_CODE":0,"TOWNNAME":"南區","LI":"再興里","LIN":"1鄰","STREET":"三官路","SECT":" ","MAREA":" ","LANE":" ","ALLEY":" ","HOUSE_NO":"８號","E_COORD97":167325.54999999999,"N_COORD97":2542412.4700000002,"ADDRESS":"三官路８號","OBJECTID":111710},"geometry":{"x":167325.54999999981,"y":2542412.4700000025}},{"attributes":{"ID":111711,"DIS_CODE":0,"TOWNNAME":"東山區","LI":"東山里","LIN":"28鄰","STREET":" ","SECT":" ","MAREA":"東山","LANE":" ","ALLEY":" ","HOUSE_NO":"５４０號","E_COORD97":188728.56,"N_COORD97":2580385.29,"ADDRESS":"東山５４０號","OBJECTID":111711},"geometry":{"x":188728.55999999959,"y":2580385.2899999991}},{"attributes":{"ID":111712,"DIS_CODE":0,"TOWNNAME":"東區","LI":"新東里","LIN":"9鄰","STREET":"裕農路","SECT":" ","MAREA":" ","LANE":"４３巷","ALLEY":"２９弄","HOUSE_NO":"１８號","E_COORD97":170562.78,"N_COORD97":2543006.6899999999,"ADDRESS":"裕農路４３巷２９弄１８號","OBJECTID":111712},"geometry":{"x":170562.77999999933,"y":2543006.6900000013}},{"attributes":{"ID":111713,"DIS_CODE":0,"TOWNNAME":"東區","LI":"新東里","LIN":"9鄰","STREET":"裕農路","SECT":" ","MAREA":" ","LANE":"４３巷","ALLEY":"２９弄","HOUSE_NO":"２０號","E_COORD97":170557.54000000001,"N_COORD97":2543006.2400000002,"ADDRESS":"裕農路４３巷２９弄２０號","OBJECTID":111713},"geometry":{"x":170557.5400000019,"y":2543006.2400000021}},{"attributes":{"ID":111714,"DIS_CODE":0,"TOWNNAME":"東區","LI":"新東里","LIN":"9鄰","STREET":"裕農路","SECT":" ","MAREA":" ","LANE":"４３巷","ALLEY":"２９弄","HOUSE_NO":"２２號","E_COORD97":170552.34,"N_COORD97":2543005.79,"ADDRESS":"裕農路４３巷２９弄２２號","OBJECTID":111714},"geometry":{"x":170552.34000000078,"y":2543005.790000001}},{"attributes":{"ID":111715,"DIS_CODE":0,"TOWNNAME":"東區","LI":"新東里","LIN":"9鄰","STREET":"裕農路","SECT":" ","MAREA":" ","LANE":"４３巷","ALLEY":"２９弄","HOUSE_NO":"２４號","E_COORD97":170547.64999999999,"N_COORD97":2543005.46,"ADDRESS":"裕農路４３巷２９弄２４號","OBJECTID":111715},"geometry":{"x":170547.6500000013,"y":2543005.4600000028}},{"attributes":{"ID":111716,"DIS_CODE":0,"TOWNNAME":"東區","LI":"新東里","LIN":"9鄰","STREET":"裕農路","SECT":" ","MAREA":" ","LANE":"４３巷","ALLEY":"２９弄","HOUSE_NO":"２６號","E_COORD97":170542.73999999999,"N_COORD97":2543005.23,"ADDRESS":"裕農路４３巷２９弄２６號","OBJECTID":111716},"geometry":{"x":170542.74000000209,"y":2543005.2300000004}},{"attributes":{"ID":111717,"DIS_CODE":0,"TOWNNAME":"東區","LI":"新東里","LIN":"9鄰","STREET":"裕農路","SECT":" ","MAREA":" ","LANE":"４３巷","ALLEY":"２９弄","HOUSE_NO":"２８號","E_COORD97":170537.72,"N_COORD97":2543004.8999999999,"ADDRESS":"裕農路４３巷２９弄２８號","OBJECTID":111717},"geometry":{"x":170537.72000000067,"y":2543004.9000000041}},{"attributes":{"ID":111718,"DIS_CODE":0,"TOWNNAME":"東區","LI":"新東里","LIN":"9鄰","STREET":"裕農路","SECT":" ","MAREA":" ","LANE":"４３巷","ALLEY":"２９弄","HOUSE_NO":"２號","E_COORD97":170606.10999999999,"N_COORD97":2543010.3700000001,"ADDRESS":"裕農路４３巷２９弄２號","OBJECTID":111718},"geometry":{"x":170606.11000000034,"y":2543010.3700000029}},{"attributes":{"ID":111719,"DIS_CODE":0,"TOWNNAME":"歸仁區","LI":"沙崙里","LIN":"1鄰","STREET":" ","SECT":" ","MAREA":"二甲","LANE":" ","ALLEY":" ","HOUSE_NO":"１４７之１號","E_COORD97":178533.06,"N_COORD97":2539321.6200000001,"ADDRESS":"二甲１４７之１號","OBJECTID":111719},"geometry":{"x":178533.06000000052,"y":2539321.620000001}},{"attributes":{"ID":111720,"DIS_CODE":0,"TOWNNAME":"後壁區","LI":"後部里","LIN":"8鄰","STREET":" ","SECT":" ","MAREA":"後部","LANE":" ","ALLEY":" ","HOUSE_NO":"８４號","E_COORD97":182244.60999999999,"N_COORD97":2586725.3999999999,"ADDRESS":"後部８４號","OBJECTID":111720},"geometry":{"x":182244.61000000127,"y":2586725.4000000022}},{"attributes":{"ID":111721,"DIS_CODE":0,"TOWNNAME":"學甲區","LI":"中洲里","LIN":"37鄰","STREET":" ","SECT":" ","MAREA":"中洲","LANE":" ","ALLEY":" ","HOUSE_NO":"４９３號之１","E_COORD97":163888.59,"N_COORD97":2571615.2400000002,"ADDRESS":"中洲４９３號之１","OBJECTID":111721},"geometry":{"x":163888.59000000078,"y":2571615.2400000021}},{"attributes":{"ID":111722,"DIS_CODE":0,"TOWNNAME":"學甲區","LI":"中洲里","LIN":"37鄰","STREET":" ","SECT":" ","MAREA":"中洲","LANE":" ","ALLEY":" ","HOUSE_NO":"４９３號之３","E_COORD97":163881.67999999999,"N_COORD97":2571616.1000000001,"ADDRESS":"中洲４９３號之３","OBJECTID":111722},"geometry":{"x":163881.6799999997,"y":2571616.0999999996}},{"attributes":{"ID":111723,"DIS_CODE":0,"TOWNNAME":"學甲區","LI":"中洲里","LIN":"37鄰","STREET":" ","SECT":" ","MAREA":"中洲","LANE":" ","ALLEY":" ","HOUSE_NO":"４９３號之４","E_COORD97":163878.26000000001,"N_COORD97":2571616.7799999998,"ADDRESS":"中洲４９３號之４","OBJECTID":111723},"geometry":{"x":163878.25999999978,"y":2571616.7800000012}},{"attributes":{"ID":111724,"DIS_CODE":0,"TOWNNAME":"學甲區","LI":"中洲里","LIN":"37鄰","STREET":" ","SECT":" ","MAREA":"中洲","LANE":" ","ALLEY":" ","HOUSE_NO":"４９３號","E_COORD97":163897.76000000001,"N_COORD97":2571623.0800000001,"ADDRESS":"中洲４９３號","OBJECTID":111724},"geometry":{"x":163897.76000000071,"y":2571623.0800000019}},{"attributes":{"ID":111725,"DIS_CODE":0,"TOWNNAME":"學甲區","LI":"中洲里","LIN":"37鄰","STREET":" ","SECT":" ","MAREA":"中洲","LANE":" ","ALLEY":" ","HOUSE_NO":"４９５號","E_COORD97":163918.19,"N_COORD97":2571624.2200000002,"ADDRESS":"中洲４９５號","OBJECTID":111725},"geometry":{"x":163918.19000000041,"y":2571624.2200000007}},{"attributes":{"ID":111726,"DIS_CODE":0,"TOWNNAME":"學甲區","LI":"中洲里","LIN":"37鄰","STREET":" ","SECT":" ","MAREA":"中洲","LANE":" ","ALLEY":" ","HOUSE_NO":"４９７號","E_COORD97":163916.79000000001,"N_COORD97":2571606.0099999998,"ADDRESS":"中洲４９７號","OBJECTID":111726},"geometry":{"x":163916.79000000004,"y":2571606.0100000016}},{"attributes":{"ID":111727,"DIS_CODE":0,"TOWNNAME":"學甲區","LI":"中洲里","LIN":"37鄰","STREET":" ","SECT":" ","MAREA":"中洲","LANE":" ","ALLEY":" ","HOUSE_NO":"４９８號","E_COORD97":163920.23999999999,"N_COORD97":2571605.1800000002,"ADDRESS":"中洲４９８號","OBJECTID":111727},"geometry":{"x":163920.24000000115,"y":2571605.1799999997}},{"attributes":{"ID":111728,"DIS_CODE":0,"TOWNNAME":"東區","LI":"新東里","LIN":"9鄰","STREET":"裕農路","SECT":" ","MAREA":" ","LANE":"４３巷","ALLEY":"２９弄","HOUSE_NO":"２號之１","E_COORD97":170597.29000000001,"N_COORD97":2543009.3599999999,"ADDRESS":"裕農路４３巷２９弄２號之１","OBJECTID":111728},"geometry":{"x":170597.29000000097,"y":2543009.3599999994}},{"attributes":{"ID":111729,"DIS_CODE":0,"TOWNNAME":"東區","LI":"新東里","LIN":"9鄰","STREET":"裕農路","SECT":" ","MAREA":" ","LANE":"４３巷","ALLEY":"２９弄","HOUSE_NO":"３０號","E_COORD97":170532.79999999999,"N_COORD97":2543004.79,"ADDRESS":"裕農路４３巷２９弄３０號","OBJECTID":111729},"geometry":{"x":170532.79999999981,"y":2543004.790000001}},{"attributes":{"ID":111730,"DIS_CODE":0,"TOWNNAME":"學甲區","LI":"中洲里","LIN":"37鄰","STREET":" ","SECT":" ","MAREA":"中洲","LANE":" ","ALLEY":" ","HOUSE_NO":"４９９號","E_COORD97":163925.70000000001,"N_COORD97":2571604.3500000001,"ADDRESS":"中洲４９９號","OBJECTID":111730},"geometry":{"x":163925.70000000112,"y":2571604.3499999996}},{"attributes":{"ID":111731,"DIS_CODE":0,"TOWNNAME":"西港區","LI":"西港里","LIN":"28鄰","STREET":" ","SECT":" ","MAREA":"堀子頭","LANE":" ","ALLEY":" ","HOUSE_NO":"６２號之４","E_COORD97":168890.98999999999,"N_COORD97":2557667.6800000002,"ADDRESS":"堀子頭６２號之４","OBJECTID":111731},"geometry":{"x":168890.99000000022,"y":2557667.6799999997}},{"attributes":{"ID":111732,"DIS_CODE":0,"TOWNNAME":"西港區","LI":"西港里","LIN":"28鄰","STREET":" ","SECT":" ","MAREA":"堀子頭","LANE":" ","ALLEY":" ","HOUSE_NO":"６２號之７","E_COORD97":168870.70000000001,"N_COORD97":2557591.7400000002,"ADDRESS":"堀子頭６２號之７","OBJECTID":111732},"geometry":{"x":168870.70000000112,"y":2557591.7400000021}},{"attributes":{"ID":111733,"DIS_CODE":0,"TOWNNAME":"西港區","LI":"西港里","LIN":"28鄰","STREET":" ","SECT":" ","MAREA":"堀子頭","LANE":" ","ALLEY":" ","HOUSE_NO":"６２號","E_COORD97":168823.51999999999,"N_COORD97":2557626.1899999999,"ADDRESS":"堀子頭６２號","OBJECTID":111733},"geometry":{"x":168823.52000000048,"y":2557626.1900000013}},{"attributes":{"ID":111734,"DIS_CODE":0,"TOWNNAME":"善化區","LI":"溪美里","LIN":"20鄰","STREET":" ","SECT":" ","MAREA":"溪尾","LANE":" ","ALLEY":" ","HOUSE_NO":"１７８號之１７","E_COORD97":176873.41,"N_COORD97":2561269.77,"ADDRESS":"溪尾１７８號之１７","OBJECTID":111734},"geometry":{"x":176873.41000000108,"y":2561269.7700000014}},{"attributes":{"ID":111735,"DIS_CODE":0,"TOWNNAME":"善化區","LI":"溪美里","LIN":"20鄰","STREET":" ","SECT":" ","MAREA":"溪尾","LANE":" ","ALLEY":" ","HOUSE_NO":"１７８號之２１","E_COORD97":176871.32999999999,"N_COORD97":2561286.52,"ADDRESS":"溪尾１７８號之２１","OBJECTID":111735},"geometry":{"x":176871.33000000007,"y":2561286.5199999996}},{"attributes":{"ID":111736,"DIS_CODE":0,"TOWNNAME":"東區","LI":"新東里","LIN":"9鄰","STREET":"裕農路","SECT":" ","MAREA":" ","LANE":"４３巷","ALLEY":"２９弄","HOUSE_NO":"３２號","E_COORD97":170527.89000000001,"N_COORD97":2543004.0099999998,"ADDRESS":"裕農路４３巷２９弄３２號","OBJECTID":111736},"geometry":{"x":170527.8900000006,"y":2543004.0100000016}},{"attributes":{"ID":111737,"DIS_CODE":0,"TOWNNAME":"善化區","LI":"溪美里","LIN":"20鄰","STREET":" ","SECT":" ","MAREA":"溪尾","LANE":" ","ALLEY":" ","HOUSE_NO":"１７８號之４","E_COORD97":176904.82000000001,"N_COORD97":2561277.27,"ADDRESS":"溪尾１７８號之４","OBJECTID":111737},"geometry":{"x":176904.82000000123,"y":2561277.2700000014}},{"attributes":{"ID":111738,"DIS_CODE":0,"TOWNNAME":"善化區","LI":"溪美里","LIN":"20鄰","STREET":" ","SECT":" ","MAREA":"溪尾","LANE":" ","ALLEY":" ","HOUSE_NO":"１７８號之２０","E_COORD97":176871.91,"N_COORD97":2561282.52,"ADDRESS":"溪尾１７８號之２０","OBJECTID":111738},"geometry":{"x":176871.91000000108,"y":2561282.5199999996}},{"attributes":{"ID":111739,"DIS_CODE":0,"TOWNNAME":"善化區","LI":"溪美里","LIN":"20鄰","STREET":" ","SECT":" ","MAREA":"溪尾","LANE":" ","ALLEY":" ","HOUSE_NO":"１７９號","E_COORD97":176941.95999999999,"N_COORD97":2561248.52,"ADDRESS":"溪尾１７９號","OBJECTID":111739},"geometry":{"x":176941.95999999903,"y":2561248.5199999996}},{"attributes":{"ID":111740,"DIS_CODE":0,"TOWNNAME":"善化區","LI":"溪美里","LIN":"20鄰","STREET":" ","SECT":" ","MAREA":"溪尾","LANE":" ","ALLEY":" ","HOUSE_NO":"１７８號之３","E_COORD97":176887.04999999999,"N_COORD97":2561293.27,"ADDRESS":"溪尾１７８號之３","OBJECTID":111740},"geometry":{"x":176887.05000000168,"y":2561293.2700000014}},{"attributes":{"ID":111741,"DIS_CODE":0,"TOWNNAME":"善化區","LI":"溪美里","LIN":"20鄰","STREET":" ","SECT":" ","MAREA":"溪尾","LANE":" ","ALLEY":" ","HOUSE_NO":"１７８號之１６","E_COORD97":176907.87,"N_COORD97":2561271.27,"ADDRESS":"溪尾１７８號之１６","OBJECTID":111741},"geometry":{"x":176907.87000000104,"y":2561271.2699999996}},{"attributes":{"ID":111742,"DIS_CODE":0,"TOWNNAME":"新營區","LI":"太北里","LIN":" ","STREET":" ","SECT":" ","MAREA":"太子宮","LANE":" ","ALLEY":" ","HOUSE_NO":"１４２之１０號","E_COORD97":175795.73000000001,"N_COORD97":2576929.8500000001,"ADDRESS":"太子宮１４２之１０號","OBJECTID":111742},"geometry":{"x":175795.73000000045,"y":2576929.8500000015}},{"attributes":{"ID":111743,"DIS_CODE":0,"TOWNNAME":"善化區","LI":"溪美里","LIN":"20鄰","STREET":" ","SECT":" ","MAREA":"溪尾","LANE":" ","ALLEY":" ","HOUSE_NO":"１７８號之１","E_COORD97":176871.57000000001,"N_COORD97":2561318.27,"ADDRESS":"溪尾１７８號之１","OBJECTID":111743},"geometry":{"x":176871.5700000003,"y":2561318.2699999996}},{"attributes":{"ID":111744,"DIS_CODE":0,"TOWNNAME":"善化區","LI":"溪美里","LIN":"20鄰","STREET":" ","SECT":" ","MAREA":"溪尾","LANE":" ","ALLEY":" ","HOUSE_NO":"１７８號之１５","E_COORD97":176908.98999999999,"N_COORD97":2561266.02,"ADDRESS":"溪尾１７８號之１５","OBJECTID":111744},"geometry":{"x":176908.99000000115,"y":2561266.0199999996}},{"attributes":{"ID":111745,"DIS_CODE":0,"TOWNNAME":"南區","LI":"明亮里","LIN":"1鄰","STREET":"金華路","SECT":"一段","MAREA":" ","LANE":" ","ALLEY":" ","HOUSE_NO":"２５０號","E_COORD97":166975.07999999999,"N_COORD97":2540923.0899999999,"ADDRESS":"金華路一段２５０號","OBJECTID":111745},"geometry":{"x":166975.08000000007,"y":2540923.0899999999}},{"attributes":{"ID":111746,"DIS_CODE":0,"TOWNNAME":"東區","LI":"新東里","LIN":"9鄰","STREET":"裕農路","SECT":" ","MAREA":" ","LANE":"４３巷","ALLEY":"２９弄","HOUSE_NO":"３４號","E_COORD97":170522.98000000001,"N_COORD97":2543003.4500000002,"ADDRESS":"裕農路４３巷２９弄３４號","OBJECTID":111746},"geometry":{"x":170522.98000000138,"y":2543003.450000003}},{"attributes":{"ID":111747,"DIS_CODE":0,"TOWNNAME":"東區","LI":"新東里","LIN":"9鄰","STREET":"裕農路","SECT":" ","MAREA":" ","LANE":"４３巷","ALLEY":"２９弄","HOUSE_NO":"３６號","E_COORD97":170518.06,"N_COORD97":2543003,"ADDRESS":"裕農路４３巷２９弄３６號","OBJECTID":111747},"geometry":{"x":170518.06000000052,"y":2543003}},{"attributes":{"ID":111748,"DIS_CODE":0,"TOWNNAME":"東區","LI":"新東里","LIN":"9鄰","STREET":"裕農路","SECT":" ","MAREA":" ","LANE":"４３巷","ALLEY":"２９弄","HOUSE_NO":"３８號","E_COORD97":170512.70000000001,"N_COORD97":2543002.5600000001,"ADDRESS":"裕農路４３巷２９弄３８號","OBJECTID":111748},"geometry":{"x":170512.70000000112,"y":2543002.5600000005}},{"attributes":{"ID":111749,"DIS_CODE":0,"TOWNNAME":"東區","LI":"新東里","LIN":"9鄰","STREET":"裕農路","SECT":" ","MAREA":" ","LANE":"４３巷","ALLEY":"２９弄","HOUSE_NO":"４０號","E_COORD97":170508.01000000001,"N_COORD97":2543002.2200000002,"ADDRESS":"裕農路４３巷２９弄４０號","OBJECTID":111749},"geometry":{"x":170508.00999999978,"y":2543002.2200000007}},{"attributes":{"ID":111750,"DIS_CODE":0,"TOWNNAME":"東區","LI":"新東里","LIN":"9鄰","STREET":"裕農路","SECT":" ","MAREA":" ","LANE":"４３巷","ALLEY":"２９弄","HOUSE_NO":"４２之１號","E_COORD97":170503.04000000001,"N_COORD97":2543002.3300000001,"ADDRESS":"裕農路４３巷２９弄４２之１號","OBJECTID":111750},"geometry":{"x":170503.04000000004,"y":2543002.3300000019}},{"attributes":{"ID":111751,"DIS_CODE":0,"TOWNNAME":"東區","LI":"新東里","LIN":"9鄰","STREET":"裕農路","SECT":" ","MAREA":" ","LANE":"４３巷","ALLEY":"２９弄","HOUSE_NO":"４２號","E_COORD97":170497.79999999999,"N_COORD97":2543001.6699999999,"ADDRESS":"裕農路４３巷２９弄４２號","OBJECTID":111751},"geometry":{"x":170497.79999999888,"y":2543001.6699999999}},{"attributes":{"ID":111752,"DIS_CODE":0,"TOWNNAME":"東區","LI":"新東里","LIN":"9鄰","STREET":"裕農路","SECT":" ","MAREA":" ","LANE":"４３巷","ALLEY":"２９弄","HOUSE_NO":"４６號","E_COORD97":170493.10999999999,"N_COORD97":2543001.4399999999,"ADDRESS":"裕農路４３巷２９弄４６號","OBJECTID":111752},"geometry":{"x":170493.11000000127,"y":2543001.4400000013}},{"attributes":{"ID":111753,"DIS_CODE":0,"TOWNNAME":"東區","LI":"新東里","LIN":"9鄰","STREET":"裕農路","SECT":" ","MAREA":" ","LANE":"４３巷","ALLEY":"２９弄","HOUSE_NO":"４８號","E_COORD97":170487.75,"N_COORD97":2543001,"ADDRESS":"裕農路４３巷２９弄４８號","OBJECTID":111753},"geometry":{"x":170487.75,"y":2543001.0000000019}},{"attributes":{"ID":111754,"DIS_CODE":0,"TOWNNAME":"官田區","LI":"渡頭里","LIN":"28鄰","STREET":" ","SECT":" ","MAREA":"三塊厝","LANE":" ","ALLEY":" ","HOUSE_NO":"１３２號","E_COORD97":182542.79000000001,"N_COORD97":2561767.7000000002,"ADDRESS":"三塊厝１３２號","OBJECTID":111754},"geometry":{"x":182542.79000000097,"y":2561767.7000000011}},{"attributes":{"ID":111755,"DIS_CODE":0,"TOWNNAME":"南區","LI":"明亮里","LIN":"1鄰","STREET":"金華路","SECT":"一段","MAREA":" ","LANE":" ","ALLEY":" ","HOUSE_NO":"２５２號","E_COORD97":166975.85999999999,"N_COORD97":2540929.0899999999,"ADDRESS":"金華路一段２５２號","OBJECTID":111755},"geometry":{"x":166975.86000000127,"y":2540929.0900000017}},{"attributes":{"ID":111756,"DIS_CODE":0,"TOWNNAME":"學甲區","LI":"光華里","LIN":"28鄰","STREET":" ","SECT":" ","MAREA":"筏子頭","LANE":" ","ALLEY":" ","HOUSE_NO":"１１號之１","E_COORD97":164358.35999999999,"N_COORD97":2574873.5,"ADDRESS":"筏子頭１１號之１","OBJECTID":111756},"geometry":{"x":164358.36000000127,"y":2574873.5000000037}},{"attributes":{"ID":111757,"DIS_CODE":0,"TOWNNAME":"南區","LI":"明亮里","LIN":"1鄰","STREET":"金華路","SECT":"一段","MAREA":" ","LANE":" ","ALLEY":" ","HOUSE_NO":"２５４號","E_COORD97":166976.64999999999,"N_COORD97":2540934.04,"ADDRESS":"金華路一段２５４號","OBJECTID":111757},"geometry":{"x":166976.65000000037,"y":2540934.0399999991}},{"attributes":{"ID":111758,"DIS_CODE":0,"TOWNNAME":"南區","LI":"明亮里","LIN":"1鄰","STREET":"金華路","SECT":"一段","MAREA":" ","LANE":" ","ALLEY":" ","HOUSE_NO":"２５６號","E_COORD97":166976.64999999999,"N_COORD97":2540938.21,"ADDRESS":"金華路一段２５６號","OBJECTID":111758},"geometry":{"x":166976.65000000037,"y":2540938.2100000009}},{"attributes":{"ID":111759,"DIS_CODE":0,"TOWNNAME":"南區","LI":"明亮里","LIN":"1鄰","STREET":"金華路","SECT":"一段","MAREA":" ","LANE":" ","ALLEY":" ","HOUSE_NO":"２５８號","E_COORD97":166977.42999999999,"N_COORD97":2540943.4199999999,"ADDRESS":"金華路一段２５８號","OBJECTID":111759},"geometry":{"x":166977.4299999997,"y":2540943.4200000018}},{"attributes":{"ID":111760,"DIS_CODE":0,"TOWNNAME":"南區","LI":"明亮里","LIN":"1鄰","STREET":"金華路","SECT":"一段","MAREA":" ","LANE":" ","ALLEY":" ","HOUSE_NO":"２６０號","E_COORD97":166977.69,"N_COORD97":2540946.8100000001,"ADDRESS":"金華路一段２６０號","OBJECTID":111760},"geometry":{"x":166977.69000000041,"y":2540946.8100000005}},{"attributes":{"ID":111761,"DIS_CODE":0,"TOWNNAME":"南區","LI":"明亮里","LIN":"1鄰","STREET":"金華路","SECT":"一段","MAREA":" ","LANE":" ","ALLEY":" ","HOUSE_NO":"２６２號","E_COORD97":166978.47,"N_COORD97":2540951.5,"ADDRESS":"金華路一段２６２號","OBJECTID":111761},"geometry":{"x":166978.46999999974,"y":2540951.5}},{"attributes":{"ID":111762,"DIS_CODE":0,"TOWNNAME":"南區","LI":"新昌里","LIN":"1鄰","STREET":"西門路","SECT":"一段","MAREA":" ","LANE":" ","ALLEY":" ","HOUSE_NO":"６５１號","E_COORD97":167689.82999999999,"N_COORD97":2542965.7200000002,"ADDRESS":"西門路一段６５１號","OBJECTID":111762},"geometry":{"x":167689.83000000101,"y":2542965.7200000044}},{"attributes":{"ID":111763,"DIS_CODE":0,"TOWNNAME":"南區","LI":"新昌里","LIN":"1鄰","STREET":"西門路","SECT":"一段","MAREA":" ","LANE":" ","ALLEY":" ","HOUSE_NO":"６５３號","E_COORD97":167706.56,"N_COORD97":2542967.6499999999,"ADDRESS":"西門路一段６５３號","OBJECTID":111763},"geometry":{"x":167706.55999999959,"y":2542967.6500000004}},{"attributes":{"ID":111764,"DIS_CODE":0,"TOWNNAME":"學甲區","LI":"光華里","LIN":"28鄰","STREET":" ","SECT":" ","MAREA":"筏子頭","LANE":" ","ALLEY":" ","HOUSE_NO":"２號之１０","E_COORD97":164867.73999999999,"N_COORD97":2573914.75,"ADDRESS":"筏子頭２號之１０","OBJECTID":111764},"geometry":{"x":164867.74000000115,"y":2573914.75}},{"attributes":{"ID":111765,"DIS_CODE":0,"TOWNNAME":"學甲區","LI":"光華里","LIN":"28鄰","STREET":" ","SECT":" ","MAREA":"筏子頭","LANE":" ","ALLEY":" ","HOUSE_NO":"２號之１６","E_COORD97":164763.51000000001,"N_COORD97":2574307.2599999998,"ADDRESS":"筏子頭２號之１６","OBJECTID":111765},"geometry":{"x":164763.51000000071,"y":2574307.2599999998}},{"attributes":{"ID":111766,"DIS_CODE":0,"TOWNNAME":"學甲區","LI":"光華里","LIN":"28鄰","STREET":" ","SECT":" ","MAREA":"筏子頭","LANE":" ","ALLEY":" ","HOUSE_NO":"２號之２","E_COORD97":164640.39000000001,"N_COORD97":2573669.0800000001,"ADDRESS":"筏子頭２號之２","OBJECTID":111766},"geometry":{"x":164640.3900000006,"y":2573669.0799999982}},{"attributes":{"ID":111767,"DIS_CODE":0,"TOWNNAME":"學甲區","LI":"光華里","LIN":"28鄰","STREET":" ","SECT":" ","MAREA":"筏子頭","LANE":" ","ALLEY":" ","HOUSE_NO":"２號之５","E_COORD97":165026.66,"N_COORD97":2573965.7400000002,"ADDRESS":"筏子頭２號之５","OBJECTID":111767},"geometry":{"x":165026.66000000015,"y":2573965.7400000002}},{"attributes":{"ID":111768,"DIS_CODE":0,"TOWNNAME":"學甲區","LI":"光華里","LIN":"28鄰","STREET":" ","SECT":" ","MAREA":"筏子頭","LANE":" ","ALLEY":" ","HOUSE_NO":"２號之６","E_COORD97":164968.14000000001,"N_COORD97":2574063.6200000001,"ADDRESS":"筏子頭２號之６","OBJECTID":111768},"geometry":{"x":164968.1400000006,"y":2574063.6200000029}},{"attributes":{"ID":111769,"DIS_CODE":0,"TOWNNAME":"學甲區","LI":"光華里","LIN":"28鄰","STREET":" ","SECT":" ","MAREA":"筏子頭","LANE":" ","ALLEY":" ","HOUSE_NO":"２號之７","E_COORD97":164608.51999999999,"N_COORD97":2573839.77,"ADDRESS":"筏子頭２號之７","OBJECTID":111769},"geometry":{"x":164608.51999999955,"y":2573839.7699999996}},{"attributes":{"ID":111770,"DIS_CODE":0,"TOWNNAME":"學甲區","LI":"光華里","LIN":"28鄰","STREET":" ","SECT":" ","MAREA":"筏子頭","LANE":" ","ALLEY":" ","HOUSE_NO":"２號之９","E_COORD97":164698.64999999999,"N_COORD97":2574136.77,"ADDRESS":"筏子頭２號之９","OBJECTID":111770},"geometry":{"x":164698.65000000224,"y":2574136.7700000014}},{"attributes":{"ID":111771,"DIS_CODE":0,"TOWNNAME":"學甲區","LI":"光華里","LIN":"28鄰","STREET":" ","SECT":" ","MAREA":"筏子頭","LANE":" ","ALLEY":" ","HOUSE_NO":"３號之１２","E_COORD97":164450.59,"N_COORD97":2573531.6600000001,"ADDRESS":"筏子頭３號之１２","OBJECTID":111771},"geometry":{"x":164450.58999999985,"y":2573531.6600000001}},{"attributes":{"ID":111772,"DIS_CODE":0,"TOWNNAME":"學甲區","LI":"光華里","LIN":"28鄰","STREET":" ","SECT":" ","MAREA":"筏子頭","LANE":" ","ALLEY":" ","HOUSE_NO":"３號之１６","E_COORD97":164707.07999999999,"N_COORD97":2573525.98,"ADDRESS":"筏子頭３號之１６","OBJECTID":111772},"geometry":{"x":164707.07999999914,"y":2573525.9800000023}},{"attributes":{"ID":111773,"DIS_CODE":0,"TOWNNAME":"學甲區","LI":"光華里","LIN":"28鄰","STREET":" ","SECT":" ","MAREA":"筏子頭","LANE":" ","ALLEY":" ","HOUSE_NO":"３號之１８","E_COORD97":164639.84,"N_COORD97":2573370.7200000002,"ADDRESS":"筏子頭３號之１８","OBJECTID":111773},"geometry":{"x":164639.84000000078,"y":2573370.7200000044}},{"attributes":{"ID":111774,"DIS_CODE":0,"TOWNNAME":"學甲區","LI":"光華里","LIN":"28鄰","STREET":" ","SECT":" ","MAREA":"筏子頭","LANE":" ","ALLEY":" ","HOUSE_NO":"３號之２２","E_COORD97":164734.17999999999,"N_COORD97":2573146.3799999999,"ADDRESS":"筏子頭３號之２２","OBJECTID":111774},"geometry":{"x":164734.1799999997,"y":2573146.379999999}},{"attributes":{"ID":111775,"DIS_CODE":0,"TOWNNAME":"南區","LI":"日新里","LIN":"1鄰","STREET":"金華路","SECT":"一段","MAREA":" ","LANE":" ","ALLEY":" ","HOUSE_NO":"３８５號","E_COORD97":166973.17000000001,"N_COORD97":2541179.2200000002,"ADDRESS":"金華路一段３８５號","OBJECTID":111775},"geometry":{"x":166973.17000000086,"y":2541179.2200000025}},{"attributes":{"ID":111776,"DIS_CODE":0,"TOWNNAME":"南區","LI":"日新里","LIN":"1鄰","STREET":"金華路","SECT":"一段","MAREA":" ","LANE":" ","ALLEY":" ","HOUSE_NO":"３８７號","E_COORD97":166973.51999999999,"N_COORD97":2541183.96,"ADDRESS":"金華路一段３８７號","OBJECTID":111776},"geometry":{"x":166973.52000000142,"y":2541183.9600000009}},{"attributes":{"ID":111777,"DIS_CODE":0,"TOWNNAME":"東區","LI":"新東里","LIN":"9鄰","STREET":"裕農路","SECT":" ","MAREA":" ","LANE":"４３巷","ALLEY":"２９弄","HOUSE_NO":"５０號","E_COORD97":170483.17000000001,"N_COORD97":2543000.8799999999,"ADDRESS":"裕農路４３巷２９弄５０號","OBJECTID":111777},"geometry":{"x":170483.16999999993,"y":2543000.8800000008}},{"attributes":{"ID":111778,"DIS_CODE":0,"TOWNNAME":"東區","LI":"新東里","LIN":"9鄰","STREET":"裕農路","SECT":" ","MAREA":" ","LANE":"４３巷","ALLEY":"２９弄","HOUSE_NO":"６號","E_COORD97":170592.38,"N_COORD97":2543009.1400000001,"ADDRESS":"裕農路４３巷２９弄６號","OBJECTID":111778},"geometry":{"x":170592.38000000175,"y":2543009.1400000006}},{"attributes":{"ID":111779,"DIS_CODE":0,"TOWNNAME":"東區","LI":"新東里","LIN":"9鄰","STREET":"裕農路","SECT":" ","MAREA":" ","LANE":"４３巷","ALLEY":"２９弄","HOUSE_NO":"８號","E_COORD97":170587.57999999999,"N_COORD97":2543009.0299999998,"ADDRESS":"裕農路４３巷２９弄８號","OBJECTID":111779},"geometry":{"x":170587.58000000007,"y":2543009.0299999993}},{"attributes":{"ID":111780,"DIS_CODE":0,"TOWNNAME":"安平區","LI":"平通里","LIN":"29鄰","STREET":"育平九街","SECT":" ","MAREA":" ","LANE":"３７２巷","ALLEY":"３３弄","HOUSE_NO":"４７號","E_COORD97":164470.51000000001,"N_COORD97":2543848.0600000001,"ADDRESS":"育平九街３７２巷３３弄４７號","OBJECTID":111780},"geometry":{"x":164470.51000000071,"y":2543848.0600000042}},{"attributes":{"ID":111781,"DIS_CODE":0,"TOWNNAME":"安平區","LI":"平通里","LIN":"29鄰","STREET":"育平九街","SECT":" ","MAREA":" ","LANE":"３７２巷","ALLEY":"３３弄","HOUSE_NO":"４５號","E_COORD97":164477.01999999999,"N_COORD97":2543848.3700000001,"ADDRESS":"育平九街３７２巷３３弄４５號","OBJECTID":111781},"geometry":{"x":164477.02000000048,"y":2543848.370000001}},{"attributes":{"ID":111782,"DIS_CODE":0,"TOWNNAME":"永康區","LI":"埔園里","LIN":"37鄰","STREET":"永大路","SECT":"三段","MAREA":" ","LANE":"３６０巷","ALLEY":"３０弄","HOUSE_NO":"１７號","E_COORD97":174206.78,"N_COORD97":2548102.1299999999,"ADDRESS":"永大路三段３６０巷３０弄１７號","OBJECTID":111782},"geometry":{"x":174206.78000000026,"y":2548102.1300000008}},{"attributes":{"ID":111783,"DIS_CODE":0,"TOWNNAME":"永康區","LI":"埔園里","LIN":"37鄰","STREET":"龍國街","SECT":" ","MAREA":" ","LANE":"１３１巷","ALLEY":"５弄","HOUSE_NO":"５號","E_COORD97":174303.29000000001,"N_COORD97":2548109.1699999999,"ADDRESS":"龍國街１３１巷５弄５號","OBJECTID":111783},"geometry":{"x":174303.29000000004,"y":2548109.1700000018}},{"attributes":{"ID":111784,"DIS_CODE":0,"TOWNNAME":"永康區","LI":"二王里","LIN":"37鄰","STREET":"中山南路","SECT":" ","MAREA":" ","LANE":"４９０巷","ALLEY":"１２弄","HOUSE_NO":"１０５號","E_COORD97":172200.82999999999,"N_COORD97":2546240.6200000001,"ADDRESS":"中山南路４９０巷１２弄１０５號","OBJECTID":111784},"geometry":{"x":172200.83000000007,"y":2546240.620000001}},{"attributes":{"ID":111785,"DIS_CODE":0,"TOWNNAME":"永康區","LI":"埔園里","LIN":"37鄰","STREET":"龍國街","SECT":" ","MAREA":" ","LANE":"１３１巷","ALLEY":"８弄","HOUSE_NO":"３號","E_COORD97":174327.51999999999,"N_COORD97":2548125.48,"ADDRESS":"龍國街１３１巷８弄３號","OBJECTID":111785},"geometry":{"x":174327.52000000048,"y":2548125.4800000023}},{"attributes":{"ID":111786,"DIS_CODE":0,"TOWNNAME":"仁德區","LI":"太子里","LIN":"37鄰","STREET":"長興一街","SECT":" ","MAREA":" ","LANE":"４０巷","ALLEY":"２２弄","HOUSE_NO":"２號","E_COORD97":174517.78,"N_COORD97":2543920.2599999998,"ADDRESS":"長興一街４０巷２２弄２號","OBJECTID":111786},"geometry":{"x":174517.78000000212,"y":2543920.2599999998}},{"attributes":{"ID":111787,"DIS_CODE":0,"TOWNNAME":"仁德區","LI":"太子里","LIN":"37鄰","STREET":"長興一街","SECT":" ","MAREA":" ","LANE":"４０巷","ALLEY":"２２弄","HOUSE_NO":"４號","E_COORD97":174514.42000000001,"N_COORD97":2543930.5099999998,"ADDRESS":"長興一街４０巷２２弄４號","OBJECTID":111787},"geometry":{"x":174514.41999999993,"y":2543930.5100000016}},{"attributes":{"ID":111788,"DIS_CODE":0,"TOWNNAME":"南區","LI":"日新里","LIN":"1鄰","STREET":"金華路","SECT":"一段","MAREA":" ","LANE":" ","ALLEY":" ","HOUSE_NO":"３８９號","E_COORD97":166973.70000000001,"N_COORD97":2541189.1299999999,"ADDRESS":"金華路一段３８９號","OBJECTID":111788},"geometry":{"x":166973.70000000112,"y":2541189.1300000008}},{"attributes":{"ID":111789,"DIS_CODE":0,"TOWNNAME":"南區","LI":"日新里","LIN":"1鄰","STREET":"金華路","SECT":"一段","MAREA":" ","LANE":" ","ALLEY":" ","HOUSE_NO":"３９１號","E_COORD97":166974.04999999999,"N_COORD97":2541194.3900000001,"ADDRESS":"金華路一段３９１號","OBJECTID":111789},"geometry":{"x":166974.05000000075,"y":2541194.3899999987}},{"attributes":{"ID":111790,"DIS_CODE":0,"TOWNNAME":"新營區","LI":"民權里","LIN":"15鄰","STREET":"三民路","SECT":" ","MAREA":" ","LANE":" ","ALLEY":" ","HOUSE_NO":"１１４之５號","E_COORD97":179840.59,"N_COORD97":2578497.1200000001,"ADDRESS":"三民路１１４之５號","OBJECTID":111790},"geometry":{"x":179840.59000000078,"y":2578497.120000001}},{"attributes":{"ID":111791,"DIS_CODE":0,"TOWNNAME":"安平區","LI":"億載里","LIN":"1鄰","STREET":"永華十一街","SECT":" ","MAREA":" ","LANE":" ","ALLEY":" ","HOUSE_NO":"１４６號","E_COORD97":164083.31,"N_COORD97":2543783.21,"ADDRESS":"永華十一街１４６號","OBJECTID":111791},"geometry":{"x":164083.31000000052,"y":2543783.2100000046}},{"attributes":{"ID":111792,"DIS_CODE":0,"TOWNNAME":"安平區","LI":"億載里","LIN":"1鄰","STREET":"永華十一街","SECT":" ","MAREA":" ","LANE":" ","ALLEY":" ","HOUSE_NO":"１５０號","E_COORD97":164079.25,"N_COORD97":2543811.1699999999,"ADDRESS":"永華十一街１５０號","OBJECTID":111792},"geometry":{"x":164079.25000000093,"y":2543811.1699999999}},{"attributes":{"ID":111793,"DIS_CODE":0,"TOWNNAME":"學甲區","LI":"光華里","LIN":"28鄰","STREET":" ","SECT":" ","MAREA":"筏子頭","LANE":" ","ALLEY":" ","HOUSE_NO":"３號","E_COORD97":164630.28,"N_COORD97":2573624.0899999999,"ADDRESS":"筏子頭３號","OBJECTID":111793},"geometry":{"x":164630.28000000119,"y":2573624.0899999999}},{"attributes":{"ID":111794,"DIS_CODE":0,"TOWNNAME":"安平區","LI":"億載里","LIN":"1鄰","STREET":"永華十一街","SECT":" ","MAREA":" ","LANE":" ","ALLEY":" ","HOUSE_NO":"１５２號","E_COORD97":164077.94,"N_COORD97":2543821.54,"ADDRESS":"永華十一街１５２號","OBJECTID":111794},"geometry":{"x":164077.94000000227,"y":2543821.5399999991}},{"attributes":{"ID":111795,"DIS_CODE":0,"TOWNNAME":"安平區","LI":"億載里","LIN":"1鄰","STREET":"永華十一街","SECT":" ","MAREA":" ","LANE":" ","ALLEY":" ","HOUSE_NO":"１５６號","E_COORD97":164077.59,"N_COORD97":2543831.1800000002,"ADDRESS":"永華十一街１５６號","OBJECTID":111795},"geometry":{"x":164077.58999999985,"y":2543831.1799999997}},{"attributes":{"ID":111796,"DIS_CODE":0,"TOWNNAME":"安平區","LI":"億載里","LIN":"1鄰","STREET":"永華十一街","SECT":" ","MAREA":" ","LANE":" ","ALLEY":" ","HOUSE_NO":"１５８號","E_COORD97":164075.70999999999,"N_COORD97":2543840.9399999999,"ADDRESS":"永華十一街１５８號","OBJECTID":111796},"geometry":{"x":164075.71000000183,"y":2543840.9400000032}},{"attributes":{"ID":111797,"DIS_CODE":0,"TOWNNAME":"安平區","LI":"漁光里","LIN":"1鄰","STREET":"漁光路","SECT":" ","MAREA":" ","LANE":" ","ALLEY":" ","HOUSE_NO":"２０號","E_COORD97":163881.44,"N_COORD97":2541819.1099999999,"ADDRESS":"漁光路２０號","OBJECTID":111797},"geometry":{"x":163881.44000000134,"y":2541819.1100000031}},{"attributes":{"ID":111798,"DIS_CODE":0,"TOWNNAME":"學甲區","LI":"光華里","LIN":"28鄰","STREET":" ","SECT":" ","MAREA":"筏子頭","LANE":" ","ALLEY":" ","HOUSE_NO":"４號之２","E_COORD97":165005.09,"N_COORD97":2574226.4900000002,"ADDRESS":"筏子頭４號之２","OBJECTID":111798},"geometry":{"x":165005.08999999985,"y":2574226.4900000021}},{"attributes":{"ID":111799,"DIS_CODE":0,"TOWNNAME":"學甲區","LI":"光華里","LIN":"28鄰","STREET":" ","SECT":" ","MAREA":"筏子頭","LANE":" ","ALLEY":" ","HOUSE_NO":"４號之３","E_COORD97":164976.45999999999,"N_COORD97":2574211.8599999999,"ADDRESS":"筏子頭４號之３","OBJECTID":111799},"geometry":{"x":164976.46000000089,"y":2574211.8599999994}},{"attributes":{"ID":111800,"DIS_CODE":0,"TOWNNAME":"學甲區","LI":"光華里","LIN":"28鄰","STREET":" ","SECT":" ","MAREA":"筏子頭","LANE":" ","ALLEY":" ","HOUSE_NO":"４號之６","E_COORD97":164989.45999999999,"N_COORD97":2574426.0099999998,"ADDRESS":"筏子頭４號之６","OBJECTID":111800},"geometry":{"x":164989.46000000089,"y":2574426.0100000016}}]}