{"displayFieldName":"TOWNNAME","fieldAliases":{"ID":"ID","DIS_CODE":"DIS_CODE","TOWNNAME":"TOWNNAME","LI":"LI","LIN":"LIN","STREET":"STREET","SECT":"SECT","MAREA":"MAREA","LANE":"LANE","ALLEY":"ALLEY","HOUSE_NO":"HOUSE_NO","E_COORD97":"E_COORD97","N_COORD97":"N_COORD97","ADDRESS":"ADDRESS","OBJECTID":"OBJECTID"},"geometryType":"esriGeometryPoint","spatialReference":{"wkid":102443,"latestWkid":3826},"fields":[{"name":"ID","type":"esriFieldTypeDouble","alias":"ID"},{"name":"DIS_CODE","type":"esriFieldTypeInteger","alias":"DIS_CODE"},{"name":"TOWNNAME","type":"esriFieldTypeString","alias":"TOWNNAME","length":8},{"name":"LI","type":"esriFieldTypeString","alias":"LI","length":8},{"name":"LIN","type":"esriFieldTypeString","alias":"LIN","length":12},{"name":"STREET","type":"esriFieldTypeString","alias":"STREET","length":20},{"name":"SECT","type":"esriFieldTypeString","alias":"SECT","length":8},{"name":"MAREA","type":"esriFieldTypeString","alias":"MAREA","length":12},{"name":"LANE","type":"esriFieldTypeString","alias":"LANE","length":10},{"name":"ALLEY","type":"esriFieldTypeString","alias":"ALLEY","length":10},{"name":"HOUSE_NO","type":"esriFieldTypeString","alias":"HOUSE_NO","length":20},{"name":"E_COORD97","type":"esriFieldTypeDouble","alias":"E_COORD97"},{"name":"N_COORD97","type":"esriFieldTypeDouble","alias":"N_COORD97"},{"name":"ADDRESS","type":"esriFieldTypeString","alias":"ADDRESS","length":50},{"name":"OBJECTID","type":"esriFieldTypeOID","alias":"OBJECTID"}],"features":[{"attributes":{"ID":593428,"DIS_CODE":0,"TOWNNAME":"東區","LI":"龍山里","LIN":"11鄰","STREET":"光華街","SECT":" ","MAREA":" ","LANE":" ","ALLEY":" ","HOUSE_NO":"２８號八樓","E_COORD97":169901.82999999999,"N_COORD97":2542813.3500000001,"ADDRESS":"光華街２８號八樓","OBJECTID":593401},"geometry":{"x":169901.83000000101,"y":2542813.3499999996}},{"attributes":{"ID":593429,"DIS_CODE":0,"TOWNNAME":"東區","LI":"龍山里","LIN":"11鄰","STREET":"光華街","SECT":" ","MAREA":" ","LANE":" ","ALLEY":" ","HOUSE_NO":"２８號九樓","E_COORD97":169901.82999999999,"N_COORD97":2542813.3500000001,"ADDRESS":"光華街２８號九樓","OBJECTID":593402},"geometry":{"x":169901.83000000101,"y":2542813.3499999996}},{"attributes":{"ID":593430,"DIS_CODE":0,"TOWNNAME":"東區","LI":"龍山里","LIN":"11鄰","STREET":"光華街","SECT":" ","MAREA":" ","LANE":" ","ALLEY":" ","HOUSE_NO":"３０號三樓","E_COORD97":169897.79000000001,"N_COORD97":2542815.9399999999,"ADDRESS":"光華街３０號三樓","OBJECTID":593403},"geometry":{"x":169897.79000000004,"y":2542815.9399999995}},{"attributes":{"ID":593431,"DIS_CODE":0,"TOWNNAME":"東區","LI":"龍山里","LIN":"11鄰","STREET":"光華街","SECT":" ","MAREA":" ","LANE":" ","ALLEY":" ","HOUSE_NO":"３０號四樓","E_COORD97":169897.79000000001,"N_COORD97":2542815.9399999999,"ADDRESS":"光華街３０號四樓","OBJECTID":593404},"geometry":{"x":169897.79000000004,"y":2542815.9399999995}},{"attributes":{"ID":593432,"DIS_CODE":0,"TOWNNAME":"東區","LI":"龍山里","LIN":"11鄰","STREET":"光華街","SECT":" ","MAREA":" ","LANE":" ","ALLEY":" ","HOUSE_NO":"３０號五樓","E_COORD97":169897.79000000001,"N_COORD97":2542815.9399999999,"ADDRESS":"光華街３０號五樓","OBJECTID":593405},"geometry":{"x":169897.79000000004,"y":2542815.9399999995}},{"attributes":{"ID":593433,"DIS_CODE":0,"TOWNNAME":"東區","LI":"龍山里","LIN":"11鄰","STREET":"光華街","SECT":" ","MAREA":" ","LANE":" ","ALLEY":" ","HOUSE_NO":"３０號六樓","E_COORD97":169897.79000000001,"N_COORD97":2542815.9399999999,"ADDRESS":"光華街３０號六樓","OBJECTID":593406},"geometry":{"x":169897.79000000004,"y":2542815.9399999995}},{"attributes":{"ID":593434,"DIS_CODE":0,"TOWNNAME":"東區","LI":"龍山里","LIN":"11鄰","STREET":"光華街","SECT":" ","MAREA":" ","LANE":" ","ALLEY":" ","HOUSE_NO":"３０號七樓","E_COORD97":169897.79000000001,"N_COORD97":2542815.9399999999,"ADDRESS":"光華街３０號七樓","OBJECTID":593407},"geometry":{"x":169897.79000000004,"y":2542815.9399999995}},{"attributes":{"ID":593435,"DIS_CODE":0,"TOWNNAME":"東區","LI":"龍山里","LIN":"11鄰","STREET":"光華街","SECT":" ","MAREA":" ","LANE":" ","ALLEY":" ","HOUSE_NO":"３０號八樓","E_COORD97":169897.79000000001,"N_COORD97":2542815.9399999999,"ADDRESS":"光華街３０號八樓","OBJECTID":593408},"geometry":{"x":169897.79000000004,"y":2542815.9399999995}},{"attributes":{"ID":593436,"DIS_CODE":0,"TOWNNAME":"東區","LI":"龍山里","LIN":"11鄰","STREET":"光華街","SECT":" ","MAREA":" ","LANE":" ","ALLEY":" ","HOUSE_NO":"３０號九樓","E_COORD97":169897.79000000001,"N_COORD97":2542815.9399999999,"ADDRESS":"光華街３０號九樓","OBJECTID":593409},"geometry":{"x":169897.79000000004,"y":2542815.9399999995}},{"attributes":{"ID":593437,"DIS_CODE":0,"TOWNNAME":"東區","LI":"龍山里","LIN":"11鄰","STREET":"光華街","SECT":" ","MAREA":" ","LANE":" ","ALLEY":" ","HOUSE_NO":"３２號三樓","E_COORD97":169892.73999999999,"N_COORD97":2542818.5299999998,"ADDRESS":"光華街３２號三樓","OBJECTID":593410},"geometry":{"x":169892.74000000022,"y":2542818.5299999993}},{"attributes":{"ID":593438,"DIS_CODE":0,"TOWNNAME":"東區","LI":"龍山里","LIN":"11鄰","STREET":"光華街","SECT":" ","MAREA":" ","LANE":" ","ALLEY":" ","HOUSE_NO":"３２號四樓","E_COORD97":169892.73999999999,"N_COORD97":2542818.5299999998,"ADDRESS":"光華街３２號四樓","OBJECTID":593411},"geometry":{"x":169892.74000000022,"y":2542818.5299999993}},{"attributes":{"ID":593439,"DIS_CODE":0,"TOWNNAME":"東區","LI":"東聖里","LIN":"20鄰","STREET":"中華東路","SECT":"二段","MAREA":" ","LANE":" ","ALLEY":" ","HOUSE_NO":"１１１號","E_COORD97":171409.84,"N_COORD97":2542921.8599999999,"ADDRESS":"中華東路二段１１１號","OBJECTID":593412},"geometry":{"x":171409.84000000078,"y":2542921.8599999994}},{"attributes":{"ID":593440,"DIS_CODE":0,"TOWNNAME":"東區","LI":"龍山里","LIN":"11鄰","STREET":"光華街","SECT":" ","MAREA":" ","LANE":" ","ALLEY":" ","HOUSE_NO":"３２號五樓","E_COORD97":169892.73999999999,"N_COORD97":2542818.5299999998,"ADDRESS":"光華街３２號五樓","OBJECTID":593413},"geometry":{"x":169892.74000000022,"y":2542818.5299999993}},{"attributes":{"ID":593441,"DIS_CODE":0,"TOWNNAME":"東區","LI":"龍山里","LIN":"11鄰","STREET":"光華街","SECT":" ","MAREA":" ","LANE":" ","ALLEY":" ","HOUSE_NO":"３２號六樓","E_COORD97":169892.73999999999,"N_COORD97":2542818.5299999998,"ADDRESS":"光華街３２號六樓","OBJECTID":593414},"geometry":{"x":169892.74000000022,"y":2542818.5299999993}},{"attributes":{"ID":593442,"DIS_CODE":0,"TOWNNAME":"東區","LI":"龍山里","LIN":"11鄰","STREET":"光華街","SECT":" ","MAREA":" ","LANE":" ","ALLEY":" ","HOUSE_NO":"３２號七樓","E_COORD97":169892.73999999999,"N_COORD97":2542818.5299999998,"ADDRESS":"光華街３２號七樓","OBJECTID":593415},"geometry":{"x":169892.74000000022,"y":2542818.5299999993}},{"attributes":{"ID":593443,"DIS_CODE":0,"TOWNNAME":"東區","LI":"龍山里","LIN":"11鄰","STREET":"光華街","SECT":" ","MAREA":" ","LANE":" ","ALLEY":" ","HOUSE_NO":"３２號八樓","E_COORD97":169892.73999999999,"N_COORD97":2542818.5299999998,"ADDRESS":"光華街３２號八樓","OBJECTID":593416},"geometry":{"x":169892.74000000022,"y":2542818.5299999993}},{"attributes":{"ID":593444,"DIS_CODE":0,"TOWNNAME":"東區","LI":"龍山里","LIN":"11鄰","STREET":"光華街","SECT":" ","MAREA":" ","LANE":" ","ALLEY":" ","HOUSE_NO":"３２號九樓","E_COORD97":169892.73999999999,"N_COORD97":2542818.5299999998,"ADDRESS":"光華街３２號九樓","OBJECTID":593417},"geometry":{"x":169892.74000000022,"y":2542818.5299999993}},{"attributes":{"ID":593445,"DIS_CODE":0,"TOWNNAME":"東區","LI":"崇明里","LIN":"11鄰","STREET":"大同路","SECT":"二段","MAREA":" ","LANE":" ","ALLEY":" ","HOUSE_NO":"６０１號五樓","E_COORD97":169624.60999999999,"N_COORD97":2540973.5299999998,"ADDRESS":"大同路二段６０１號五樓","OBJECTID":593418},"geometry":{"x":169624.61000000034,"y":2540973.5300000012}},{"attributes":{"ID":593446,"DIS_CODE":0,"TOWNNAME":"東區","LI":"崇明里","LIN":"11鄰","STREET":"大同路","SECT":"二段","MAREA":" ","LANE":" ","ALLEY":" ","HOUSE_NO":"６０１號五樓之１","E_COORD97":169624.60999999999,"N_COORD97":2540973.5299999998,"ADDRESS":"大同路二段６０１號五樓之１","OBJECTID":593419},"geometry":{"x":169624.61000000034,"y":2540973.5300000012}},{"attributes":{"ID":593447,"DIS_CODE":0,"TOWNNAME":"東區","LI":"崇明里","LIN":"11鄰","STREET":"大同路","SECT":"二段","MAREA":" ","LANE":" ","ALLEY":" ","HOUSE_NO":"６０１號五樓之２","E_COORD97":169624.60999999999,"N_COORD97":2540973.5299999998,"ADDRESS":"大同路二段６０１號五樓之２","OBJECTID":593420},"geometry":{"x":169624.61000000034,"y":2540973.5300000012}},{"attributes":{"ID":593448,"DIS_CODE":0,"TOWNNAME":"東區","LI":"崇明里","LIN":"11鄰","STREET":"大同路","SECT":"二段","MAREA":" ","LANE":" ","ALLEY":" ","HOUSE_NO":"６０１號五樓之３","E_COORD97":169624.60999999999,"N_COORD97":2540973.5299999998,"ADDRESS":"大同路二段６０１號五樓之３","OBJECTID":593421},"geometry":{"x":169624.61000000034,"y":2540973.5300000012}},{"attributes":{"ID":593449,"DIS_CODE":0,"TOWNNAME":"東區","LI":"崇明里","LIN":"11鄰","STREET":"大同路","SECT":"二段","MAREA":" ","LANE":" ","ALLEY":" ","HOUSE_NO":"６０１號五樓之４","E_COORD97":169624.60999999999,"N_COORD97":2540973.5299999998,"ADDRESS":"大同路二段６０１號五樓之４","OBJECTID":593422},"geometry":{"x":169624.61000000034,"y":2540973.5300000012}},{"attributes":{"ID":593450,"DIS_CODE":0,"TOWNNAME":"東區","LI":"崇明里","LIN":"11鄰","STREET":"大同路","SECT":"二段","MAREA":" ","LANE":" ","ALLEY":" ","HOUSE_NO":"６０１號五樓之５","E_COORD97":169624.60999999999,"N_COORD97":2540973.5299999998,"ADDRESS":"大同路二段６０１號五樓之５","OBJECTID":593423},"geometry":{"x":169624.61000000034,"y":2540973.5300000012}},{"attributes":{"ID":593451,"DIS_CODE":0,"TOWNNAME":"東區","LI":"崇明里","LIN":"11鄰","STREET":"大同路","SECT":"二段","MAREA":" ","LANE":" ","ALLEY":" ","HOUSE_NO":"６０１號六樓","E_COORD97":169624.60999999999,"N_COORD97":2540973.5299999998,"ADDRESS":"大同路二段６０１號六樓","OBJECTID":593424},"geometry":{"x":169624.61000000034,"y":2540973.5300000012}},{"attributes":{"ID":593452,"DIS_CODE":0,"TOWNNAME":"東區","LI":"崇明里","LIN":"11鄰","STREET":"大同路","SECT":"二段","MAREA":" ","LANE":" ","ALLEY":" ","HOUSE_NO":"６０１號六樓之１","E_COORD97":169624.60999999999,"N_COORD97":2540973.5299999998,"ADDRESS":"大同路二段６０１號六樓之１","OBJECTID":593425},"geometry":{"x":169624.61000000034,"y":2540973.5300000012}},{"attributes":{"ID":593453,"DIS_CODE":0,"TOWNNAME":"東區","LI":"崇明里","LIN":"11鄰","STREET":"大同路","SECT":"二段","MAREA":" ","LANE":" ","ALLEY":" ","HOUSE_NO":"６０１號六樓之２","E_COORD97":169624.60999999999,"N_COORD97":2540973.5299999998,"ADDRESS":"大同路二段６０１號六樓之２","OBJECTID":593426},"geometry":{"x":169624.61000000034,"y":2540973.5300000012}},{"attributes":{"ID":593454,"DIS_CODE":0,"TOWNNAME":"東區","LI":"崇明里","LIN":"11鄰","STREET":"大同路","SECT":"二段","MAREA":" ","LANE":" ","ALLEY":" ","HOUSE_NO":"６０１號六樓之３","E_COORD97":169624.60999999999,"N_COORD97":2540973.5299999998,"ADDRESS":"大同路二段６０１號六樓之３","OBJECTID":593427},"geometry":{"x":169624.61000000034,"y":2540973.5300000012}},{"attributes":{"ID":593455,"DIS_CODE":0,"TOWNNAME":"東區","LI":"崇明里","LIN":"11鄰","STREET":"大同路","SECT":"二段","MAREA":" ","LANE":" ","ALLEY":" ","HOUSE_NO":"６０１號六樓之４","E_COORD97":169624.60999999999,"N_COORD97":2540973.5299999998,"ADDRESS":"大同路二段６０１號六樓之４","OBJECTID":593428},"geometry":{"x":169624.61000000034,"y":2540973.5300000012}},{"attributes":{"ID":593456,"DIS_CODE":0,"TOWNNAME":"東區","LI":"崇明里","LIN":"11鄰","STREET":"大同路","SECT":"二段","MAREA":" ","LANE":" ","ALLEY":" ","HOUSE_NO":"６０１號六樓之５","E_COORD97":169624.60999999999,"N_COORD97":2540973.5299999998,"ADDRESS":"大同路二段６０１號六樓之５","OBJECTID":593429},"geometry":{"x":169624.61000000034,"y":2540973.5300000012}},{"attributes":{"ID":593457,"DIS_CODE":0,"TOWNNAME":"東區","LI":"崇明里","LIN":"11鄰","STREET":"大同路","SECT":"二段","MAREA":" ","LANE":" ","ALLEY":" ","HOUSE_NO":"６０１號七樓","E_COORD97":169624.60999999999,"N_COORD97":2540973.5299999998,"ADDRESS":"大同路二段６０１號七樓","OBJECTID":593430},"geometry":{"x":169624.61000000034,"y":2540973.5300000012}},{"attributes":{"ID":593458,"DIS_CODE":0,"TOWNNAME":"東區","LI":"崇明里","LIN":"11鄰","STREET":"大同路","SECT":"二段","MAREA":" ","LANE":" ","ALLEY":" ","HOUSE_NO":"６０１號七樓之１","E_COORD97":169624.60999999999,"N_COORD97":2540973.5299999998,"ADDRESS":"大同路二段６０１號七樓之１","OBJECTID":593431},"geometry":{"x":169624.61000000034,"y":2540973.5300000012}},{"attributes":{"ID":593459,"DIS_CODE":0,"TOWNNAME":"東區","LI":"崇明里","LIN":"11鄰","STREET":"大同路","SECT":"二段","MAREA":" ","LANE":" ","ALLEY":" ","HOUSE_NO":"６０１號七樓之２","E_COORD97":169624.60999999999,"N_COORD97":2540973.5299999998,"ADDRESS":"大同路二段６０１號七樓之２","OBJECTID":593432},"geometry":{"x":169624.61000000034,"y":2540973.5300000012}},{"attributes":{"ID":593460,"DIS_CODE":0,"TOWNNAME":"東區","LI":"崇明里","LIN":"11鄰","STREET":"大同路","SECT":"二段","MAREA":" ","LANE":" ","ALLEY":" ","HOUSE_NO":"６０１號七樓之３","E_COORD97":169624.60999999999,"N_COORD97":2540973.5299999998,"ADDRESS":"大同路二段６０１號七樓之３","OBJECTID":593433},"geometry":{"x":169624.61000000034,"y":2540973.5300000012}},{"attributes":{"ID":593461,"DIS_CODE":0,"TOWNNAME":"東區","LI":"崇明里","LIN":"11鄰","STREET":"大同路","SECT":"二段","MAREA":" ","LANE":" ","ALLEY":" ","HOUSE_NO":"６０１號七樓之４","E_COORD97":169624.60999999999,"N_COORD97":2540973.5299999998,"ADDRESS":"大同路二段６０１號七樓之４","OBJECTID":593434},"geometry":{"x":169624.61000000034,"y":2540973.5300000012}},{"attributes":{"ID":593462,"DIS_CODE":0,"TOWNNAME":"東區","LI":"崇明里","LIN":"11鄰","STREET":"大同路","SECT":"二段","MAREA":" ","LANE":" ","ALLEY":" ","HOUSE_NO":"６０１號七樓之５","E_COORD97":169624.60999999999,"N_COORD97":2540973.5299999998,"ADDRESS":"大同路二段６０１號七樓之５","OBJECTID":593435},"geometry":{"x":169624.61000000034,"y":2540973.5300000012}},{"attributes":{"ID":593463,"DIS_CODE":0,"TOWNNAME":"東區","LI":"崇明里","LIN":"11鄰","STREET":"大同路","SECT":"二段","MAREA":" ","LANE":" ","ALLEY":" ","HOUSE_NO":"６０１號八樓","E_COORD97":169624.60999999999,"N_COORD97":2540973.5299999998,"ADDRESS":"大同路二段６０１號八樓","OBJECTID":593436},"geometry":{"x":169624.61000000034,"y":2540973.5300000012}},{"attributes":{"ID":593464,"DIS_CODE":0,"TOWNNAME":"東區","LI":"崇明里","LIN":"11鄰","STREET":"大同路","SECT":"二段","MAREA":" ","LANE":" ","ALLEY":" ","HOUSE_NO":"６０１號八樓之１","E_COORD97":169624.60999999999,"N_COORD97":2540973.5299999998,"ADDRESS":"大同路二段６０１號八樓之１","OBJECTID":593437},"geometry":{"x":169624.61000000034,"y":2540973.5300000012}},{"attributes":{"ID":593465,"DIS_CODE":0,"TOWNNAME":"東區","LI":"崇明里","LIN":"11鄰","STREET":"大同路","SECT":"二段","MAREA":" ","LANE":" ","ALLEY":" ","HOUSE_NO":"６０１號八樓之２","E_COORD97":169624.60999999999,"N_COORD97":2540973.5299999998,"ADDRESS":"大同路二段６０１號八樓之２","OBJECTID":593438},"geometry":{"x":169624.61000000034,"y":2540973.5300000012}},{"attributes":{"ID":593466,"DIS_CODE":0,"TOWNNAME":"東區","LI":"崇明里","LIN":"11鄰","STREET":"大同路","SECT":"二段","MAREA":" ","LANE":" ","ALLEY":" ","HOUSE_NO":"６０１號八樓之３","E_COORD97":169624.60999999999,"N_COORD97":2540973.5299999998,"ADDRESS":"大同路二段６０１號八樓之３","OBJECTID":593439},"geometry":{"x":169624.61000000034,"y":2540973.5300000012}},{"attributes":{"ID":593467,"DIS_CODE":0,"TOWNNAME":"東區","LI":"崇明里","LIN":"11鄰","STREET":"大同路","SECT":"二段","MAREA":" ","LANE":" ","ALLEY":" ","HOUSE_NO":"６０１號八樓之４","E_COORD97":169624.60999999999,"N_COORD97":2540973.5299999998,"ADDRESS":"大同路二段６０１號八樓之４","OBJECTID":593440},"geometry":{"x":169624.61000000034,"y":2540973.5300000012}},{"attributes":{"ID":593468,"DIS_CODE":0,"TOWNNAME":"東區","LI":"崇明里","LIN":"11鄰","STREET":"大同路","SECT":"二段","MAREA":" ","LANE":" ","ALLEY":" ","HOUSE_NO":"６０１號八樓之５","E_COORD97":169624.60999999999,"N_COORD97":2540973.5299999998,"ADDRESS":"大同路二段６０１號八樓之５","OBJECTID":593441},"geometry":{"x":169624.61000000034,"y":2540973.5300000012}},{"attributes":{"ID":593469,"DIS_CODE":0,"TOWNNAME":"東區","LI":"崇明里","LIN":"11鄰","STREET":"大同路","SECT":"二段","MAREA":" ","LANE":" ","ALLEY":" ","HOUSE_NO":"６０１號九樓","E_COORD97":169624.60999999999,"N_COORD97":2540973.5299999998,"ADDRESS":"大同路二段６０１號九樓","OBJECTID":593442},"geometry":{"x":169624.61000000034,"y":2540973.5300000012}},{"attributes":{"ID":593470,"DIS_CODE":0,"TOWNNAME":"東區","LI":"崇明里","LIN":"11鄰","STREET":"大同路","SECT":"二段","MAREA":" ","LANE":" ","ALLEY":" ","HOUSE_NO":"６０１號九樓之１","E_COORD97":169624.60999999999,"N_COORD97":2540973.5299999998,"ADDRESS":"大同路二段６０１號九樓之１","OBJECTID":593443},"geometry":{"x":169624.61000000034,"y":2540973.5300000012}},{"attributes":{"ID":593471,"DIS_CODE":0,"TOWNNAME":"東區","LI":"崇明里","LIN":"11鄰","STREET":"大同路","SECT":"二段","MAREA":" ","LANE":" ","ALLEY":" ","HOUSE_NO":"６０１號九樓之２","E_COORD97":169624.60999999999,"N_COORD97":2540973.5299999998,"ADDRESS":"大同路二段６０１號九樓之２","OBJECTID":593444},"geometry":{"x":169624.61000000034,"y":2540973.5300000012}},{"attributes":{"ID":593472,"DIS_CODE":0,"TOWNNAME":"東區","LI":"崇明里","LIN":"11鄰","STREET":"大同路","SECT":"二段","MAREA":" ","LANE":" ","ALLEY":" ","HOUSE_NO":"６０１號九樓之３","E_COORD97":169624.60999999999,"N_COORD97":2540973.5299999998,"ADDRESS":"大同路二段６０１號九樓之３","OBJECTID":593445},"geometry":{"x":169624.61000000034,"y":2540973.5300000012}},{"attributes":{"ID":593473,"DIS_CODE":0,"TOWNNAME":"東區","LI":"崇明里","LIN":"11鄰","STREET":"大同路","SECT":"二段","MAREA":" ","LANE":" ","ALLEY":" ","HOUSE_NO":"６０１號九樓之４","E_COORD97":169624.60999999999,"N_COORD97":2540973.5299999998,"ADDRESS":"大同路二段６０１號九樓之４","OBJECTID":593446},"geometry":{"x":169624.61000000034,"y":2540973.5300000012}},{"attributes":{"ID":593474,"DIS_CODE":0,"TOWNNAME":"東區","LI":"崇明里","LIN":"11鄰","STREET":"大同路","SECT":"二段","MAREA":" ","LANE":" ","ALLEY":" ","HOUSE_NO":"６０１號九樓之５","E_COORD97":169624.60999999999,"N_COORD97":2540973.5299999998,"ADDRESS":"大同路二段６０１號九樓之５","OBJECTID":593447},"geometry":{"x":169624.61000000034,"y":2540973.5300000012}},{"attributes":{"ID":593475,"DIS_CODE":0,"TOWNNAME":"東區","LI":"崇明里","LIN":"11鄰","STREET":"大同路","SECT":"二段","MAREA":" ","LANE":" ","ALLEY":" ","HOUSE_NO":"６０１號十樓","E_COORD97":169624.60999999999,"N_COORD97":2540973.5299999998,"ADDRESS":"大同路二段６０１號十樓","OBJECTID":593448},"geometry":{"x":169624.61000000034,"y":2540973.5300000012}},{"attributes":{"ID":593476,"DIS_CODE":0,"TOWNNAME":"東區","LI":"崇明里","LIN":"11鄰","STREET":"大同路","SECT":"二段","MAREA":" ","LANE":" ","ALLEY":" ","HOUSE_NO":"６０１號十樓之１","E_COORD97":169624.60999999999,"N_COORD97":2540973.5299999998,"ADDRESS":"大同路二段６０１號十樓之１","OBJECTID":593449},"geometry":{"x":169624.61000000034,"y":2540973.5300000012}},{"attributes":{"ID":593477,"DIS_CODE":0,"TOWNNAME":"東區","LI":"崇明里","LIN":"11鄰","STREET":"大同路","SECT":"二段","MAREA":" ","LANE":" ","ALLEY":" ","HOUSE_NO":"６０１號十樓之２","E_COORD97":169624.60999999999,"N_COORD97":2540973.5299999998,"ADDRESS":"大同路二段６０１號十樓之２","OBJECTID":593450},"geometry":{"x":169624.61000000034,"y":2540973.5300000012}},{"attributes":{"ID":593478,"DIS_CODE":0,"TOWNNAME":"東區","LI":"崇明里","LIN":"11鄰","STREET":"大同路","SECT":"二段","MAREA":" ","LANE":" ","ALLEY":" ","HOUSE_NO":"６０１號十樓之３","E_COORD97":169624.60999999999,"N_COORD97":2540973.5299999998,"ADDRESS":"大同路二段６０１號十樓之３","OBJECTID":593451},"geometry":{"x":169624.61000000034,"y":2540973.5300000012}},{"attributes":{"ID":593479,"DIS_CODE":0,"TOWNNAME":"東區","LI":"崇明里","LIN":"11鄰","STREET":"大同路","SECT":"二段","MAREA":" ","LANE":" ","ALLEY":" ","HOUSE_NO":"６０１號十樓之４","E_COORD97":169624.60999999999,"N_COORD97":2540973.5299999998,"ADDRESS":"大同路二段６０１號十樓之４","OBJECTID":593452},"geometry":{"x":169624.61000000034,"y":2540973.5300000012}},{"attributes":{"ID":593480,"DIS_CODE":0,"TOWNNAME":"東區","LI":"崇明里","LIN":"11鄰","STREET":"大同路","SECT":"二段","MAREA":" ","LANE":" ","ALLEY":" ","HOUSE_NO":"６０１號十樓之５","E_COORD97":169624.60999999999,"N_COORD97":2540973.5299999998,"ADDRESS":"大同路二段６０１號十樓之５","OBJECTID":593453},"geometry":{"x":169624.61000000034,"y":2540973.5300000012}},{"attributes":{"ID":593481,"DIS_CODE":0,"TOWNNAME":"東區","LI":"崇明里","LIN":"11鄰","STREET":"大同路","SECT":"二段","MAREA":" ","LANE":" ","ALLEY":" ","HOUSE_NO":"６０１號十一樓","E_COORD97":169624.60999999999,"N_COORD97":2540973.5299999998,"ADDRESS":"大同路二段６０１號十一樓","OBJECTID":593454},"geometry":{"x":169624.61000000034,"y":2540973.5300000012}},{"attributes":{"ID":593482,"DIS_CODE":0,"TOWNNAME":"東區","LI":"崇明里","LIN":"11鄰","STREET":"大同路","SECT":"二段","MAREA":" ","LANE":" ","ALLEY":" ","HOUSE_NO":"６０１號十一樓之１","E_COORD97":169624.60999999999,"N_COORD97":2540973.5299999998,"ADDRESS":"大同路二段６０１號十一樓之１","OBJECTID":593455},"geometry":{"x":169624.61000000034,"y":2540973.5300000012}},{"attributes":{"ID":593483,"DIS_CODE":0,"TOWNNAME":"東區","LI":"崇明里","LIN":"11鄰","STREET":"大同路","SECT":"二段","MAREA":" ","LANE":" ","ALLEY":" ","HOUSE_NO":"６０１號十一樓之２","E_COORD97":169624.60999999999,"N_COORD97":2540973.5299999998,"ADDRESS":"大同路二段６０１號十一樓之２","OBJECTID":593456},"geometry":{"x":169624.61000000034,"y":2540973.5300000012}},{"attributes":{"ID":593484,"DIS_CODE":0,"TOWNNAME":"東區","LI":"崇明里","LIN":"11鄰","STREET":"大同路","SECT":"二段","MAREA":" ","LANE":" ","ALLEY":" ","HOUSE_NO":"６０１號十一樓之３","E_COORD97":169624.60999999999,"N_COORD97":2540973.5299999998,"ADDRESS":"大同路二段６０１號十一樓之３","OBJECTID":593457},"geometry":{"x":169624.61000000034,"y":2540973.5300000012}},{"attributes":{"ID":593485,"DIS_CODE":0,"TOWNNAME":"東區","LI":"崇明里","LIN":"11鄰","STREET":"大同路","SECT":"二段","MAREA":" ","LANE":" ","ALLEY":" ","HOUSE_NO":"６０１號十一樓之４","E_COORD97":169624.60999999999,"N_COORD97":2540973.5299999998,"ADDRESS":"大同路二段６０１號十一樓之４","OBJECTID":593458},"geometry":{"x":169624.61000000034,"y":2540973.5300000012}},{"attributes":{"ID":593486,"DIS_CODE":0,"TOWNNAME":"東區","LI":"崇明里","LIN":"11鄰","STREET":"大同路","SECT":"二段","MAREA":" ","LANE":" ","ALLEY":" ","HOUSE_NO":"６０１號十二樓","E_COORD97":169624.60999999999,"N_COORD97":2540973.5299999998,"ADDRESS":"大同路二段６０１號十二樓","OBJECTID":593459},"geometry":{"x":169624.61000000034,"y":2540973.5300000012}},{"attributes":{"ID":593487,"DIS_CODE":0,"TOWNNAME":"東區","LI":"崇明里","LIN":"11鄰","STREET":"大同路","SECT":"二段","MAREA":" ","LANE":" ","ALLEY":" ","HOUSE_NO":"６０１號十二樓之１","E_COORD97":169624.60999999999,"N_COORD97":2540973.5299999998,"ADDRESS":"大同路二段６０１號十二樓之１","OBJECTID":593460},"geometry":{"x":169624.61000000034,"y":2540973.5300000012}},{"attributes":{"ID":593488,"DIS_CODE":0,"TOWNNAME":"東區","LI":"崇明里","LIN":"11鄰","STREET":"大同路","SECT":"二段","MAREA":" ","LANE":" ","ALLEY":" ","HOUSE_NO":"６０１號十二樓之２","E_COORD97":169624.60999999999,"N_COORD97":2540973.5299999998,"ADDRESS":"大同路二段６０１號十二樓之２","OBJECTID":593461},"geometry":{"x":169624.61000000034,"y":2540973.5300000012}},{"attributes":{"ID":593489,"DIS_CODE":0,"TOWNNAME":"東區","LI":"崇明里","LIN":"11鄰","STREET":"大同路","SECT":"二段","MAREA":" ","LANE":" ","ALLEY":" ","HOUSE_NO":"６０１號十二樓之３","E_COORD97":169624.60999999999,"N_COORD97":2540973.5299999998,"ADDRESS":"大同路二段６０１號十二樓之３","OBJECTID":593462},"geometry":{"x":169624.61000000034,"y":2540973.5300000012}},{"attributes":{"ID":593490,"DIS_CODE":0,"TOWNNAME":"東區","LI":"崇明里","LIN":"11鄰","STREET":"大同路","SECT":"二段","MAREA":" ","LANE":" ","ALLEY":" ","HOUSE_NO":"６０１號十二樓之４","E_COORD97":169624.60999999999,"N_COORD97":2540973.5299999998,"ADDRESS":"大同路二段６０１號十二樓之４","OBJECTID":593463},"geometry":{"x":169624.61000000034,"y":2540973.5300000012}},{"attributes":{"ID":593491,"DIS_CODE":0,"TOWNNAME":"東區","LI":"崇明里","LIN":"11鄰","STREET":"大同路","SECT":"二段","MAREA":" ","LANE":" ","ALLEY":" ","HOUSE_NO":"６０１號十三樓","E_COORD97":169624.60999999999,"N_COORD97":2540973.5299999998,"ADDRESS":"大同路二段６０１號十三樓","OBJECTID":593464},"geometry":{"x":169624.61000000034,"y":2540973.5300000012}},{"attributes":{"ID":593492,"DIS_CODE":0,"TOWNNAME":"東區","LI":"崇明里","LIN":"11鄰","STREET":"大同路","SECT":"二段","MAREA":" ","LANE":" ","ALLEY":" ","HOUSE_NO":"６０１號十三樓之１","E_COORD97":169624.60999999999,"N_COORD97":2540973.5299999998,"ADDRESS":"大同路二段６０１號十三樓之１","OBJECTID":593465},"geometry":{"x":169624.61000000034,"y":2540973.5300000012}},{"attributes":{"ID":593493,"DIS_CODE":0,"TOWNNAME":"東區","LI":"崇明里","LIN":"11鄰","STREET":"大同路","SECT":"二段","MAREA":" ","LANE":" ","ALLEY":" ","HOUSE_NO":"６０１號十三樓之２","E_COORD97":169624.60999999999,"N_COORD97":2540973.5299999998,"ADDRESS":"大同路二段６０１號十三樓之２","OBJECTID":593466},"geometry":{"x":169624.61000000034,"y":2540973.5300000012}},{"attributes":{"ID":593494,"DIS_CODE":0,"TOWNNAME":"東區","LI":"崇明里","LIN":"11鄰","STREET":"大同路","SECT":"二段","MAREA":" ","LANE":" ","ALLEY":" ","HOUSE_NO":"６０１號十三樓之３","E_COORD97":169624.60999999999,"N_COORD97":2540973.5299999998,"ADDRESS":"大同路二段６０１號十三樓之３","OBJECTID":593467},"geometry":{"x":169624.61000000034,"y":2540973.5300000012}},{"attributes":{"ID":593495,"DIS_CODE":0,"TOWNNAME":"東區","LI":"崇明里","LIN":"11鄰","STREET":"大同路","SECT":"二段","MAREA":" ","LANE":" ","ALLEY":" ","HOUSE_NO":"６０１號十三樓之４","E_COORD97":169624.60999999999,"N_COORD97":2540973.5299999998,"ADDRESS":"大同路二段６０１號十三樓之４","OBJECTID":593468},"geometry":{"x":169624.61000000034,"y":2540973.5300000012}},{"attributes":{"ID":593496,"DIS_CODE":0,"TOWNNAME":"東區","LI":"崇明里","LIN":"11鄰","STREET":"大同路","SECT":"二段","MAREA":" ","LANE":" ","ALLEY":" ","HOUSE_NO":"６０１號十四樓","E_COORD97":169624.60999999999,"N_COORD97":2540973.5299999998,"ADDRESS":"大同路二段６０１號十四樓","OBJECTID":593469},"geometry":{"x":169624.61000000034,"y":2540973.5300000012}},{"attributes":{"ID":593497,"DIS_CODE":0,"TOWNNAME":"東區","LI":"崇明里","LIN":"11鄰","STREET":"大同路","SECT":"二段","MAREA":" ","LANE":" ","ALLEY":" ","HOUSE_NO":"６０１號十四樓之１","E_COORD97":169624.60999999999,"N_COORD97":2540973.5299999998,"ADDRESS":"大同路二段６０１號十四樓之１","OBJECTID":593470},"geometry":{"x":169624.61000000034,"y":2540973.5300000012}},{"attributes":{"ID":593498,"DIS_CODE":0,"TOWNNAME":"東區","LI":"崇明里","LIN":"11鄰","STREET":"大同路","SECT":"二段","MAREA":" ","LANE":" ","ALLEY":" ","HOUSE_NO":"６０１號十四樓之２","E_COORD97":169624.60999999999,"N_COORD97":2540973.5299999998,"ADDRESS":"大同路二段６０１號十四樓之２","OBJECTID":593471},"geometry":{"x":169624.61000000034,"y":2540973.5300000012}},{"attributes":{"ID":593499,"DIS_CODE":0,"TOWNNAME":"東區","LI":"崇明里","LIN":"11鄰","STREET":"大同路","SECT":"二段","MAREA":" ","LANE":" ","ALLEY":" ","HOUSE_NO":"６０１號十四樓之３","E_COORD97":169624.60999999999,"N_COORD97":2540973.5299999998,"ADDRESS":"大同路二段６０１號十四樓之３","OBJECTID":593472},"geometry":{"x":169624.61000000034,"y":2540973.5300000012}},{"attributes":{"ID":593500,"DIS_CODE":0,"TOWNNAME":"東區","LI":"崇明里","LIN":"11鄰","STREET":"大同路","SECT":"二段","MAREA":" ","LANE":" ","ALLEY":" ","HOUSE_NO":"６０１號十四樓之４","E_COORD97":169624.60999999999,"N_COORD97":2540973.5299999998,"ADDRESS":"大同路二段６０１號十四樓之４","OBJECTID":593473},"geometry":{"x":169624.61000000034,"y":2540973.5300000012}},{"attributes":{"ID":593501,"DIS_CODE":0,"TOWNNAME":"東區","LI":"崇明里","LIN":"11鄰","STREET":"大同路","SECT":"二段","MAREA":" ","LANE":" ","ALLEY":" ","HOUSE_NO":"６０１號十五樓","E_COORD97":169624.60999999999,"N_COORD97":2540973.5299999998,"ADDRESS":"大同路二段６０１號十五樓","OBJECTID":593474},"geometry":{"x":169624.61000000034,"y":2540973.5300000012}},{"attributes":{"ID":593502,"DIS_CODE":0,"TOWNNAME":"東區","LI":"崇明里","LIN":"11鄰","STREET":"大同路","SECT":"二段","MAREA":" ","LANE":" ","ALLEY":" ","HOUSE_NO":"６０１號十五樓之１","E_COORD97":169624.60999999999,"N_COORD97":2540973.5299999998,"ADDRESS":"大同路二段６０１號十五樓之１","OBJECTID":593475},"geometry":{"x":169624.61000000034,"y":2540973.5300000012}},{"attributes":{"ID":593503,"DIS_CODE":0,"TOWNNAME":"東區","LI":"崇明里","LIN":"11鄰","STREET":"大同路","SECT":"二段","MAREA":" ","LANE":" ","ALLEY":" ","HOUSE_NO":"６０１號十五樓之２","E_COORD97":169624.60999999999,"N_COORD97":2540973.5299999998,"ADDRESS":"大同路二段６０１號十五樓之２","OBJECTID":593476},"geometry":{"x":169624.61000000034,"y":2540973.5300000012}},{"attributes":{"ID":593504,"DIS_CODE":0,"TOWNNAME":"東區","LI":"崇明里","LIN":"11鄰","STREET":"大同路","SECT":"二段","MAREA":" ","LANE":" ","ALLEY":" ","HOUSE_NO":"６０１號十五樓之３","E_COORD97":169624.60999999999,"N_COORD97":2540973.5299999998,"ADDRESS":"大同路二段６０１號十五樓之３","OBJECTID":593477},"geometry":{"x":169624.61000000034,"y":2540973.5300000012}},{"attributes":{"ID":593505,"DIS_CODE":0,"TOWNNAME":"東區","LI":"崇明里","LIN":"11鄰","STREET":"大同路","SECT":"二段","MAREA":" ","LANE":" ","ALLEY":" ","HOUSE_NO":"６０１號十五樓之４","E_COORD97":169624.60999999999,"N_COORD97":2540973.5299999998,"ADDRESS":"大同路二段６０１號十五樓之４","OBJECTID":593478},"geometry":{"x":169624.61000000034,"y":2540973.5300000012}},{"attributes":{"ID":593506,"DIS_CODE":0,"TOWNNAME":"東區","LI":"崇明里","LIN":"11鄰","STREET":"大同路","SECT":"二段","MAREA":" ","LANE":" ","ALLEY":" ","HOUSE_NO":"６０１號十六樓","E_COORD97":169624.60999999999,"N_COORD97":2540973.5299999998,"ADDRESS":"大同路二段６０１號十六樓","OBJECTID":593479},"geometry":{"x":169624.61000000034,"y":2540973.5300000012}},{"attributes":{"ID":593507,"DIS_CODE":0,"TOWNNAME":"東區","LI":"崇明里","LIN":"11鄰","STREET":"大同路","SECT":"二段","MAREA":" ","LANE":" ","ALLEY":" ","HOUSE_NO":"６０１號十六樓之１","E_COORD97":169624.60999999999,"N_COORD97":2540973.5299999998,"ADDRESS":"大同路二段６０１號十六樓之１","OBJECTID":593480},"geometry":{"x":169624.61000000034,"y":2540973.5300000012}},{"attributes":{"ID":593508,"DIS_CODE":0,"TOWNNAME":"東區","LI":"崇明里","LIN":"11鄰","STREET":"大同路","SECT":"二段","MAREA":" ","LANE":" ","ALLEY":" ","HOUSE_NO":"６０１號十六樓之２","E_COORD97":169624.60999999999,"N_COORD97":2540973.5299999998,"ADDRESS":"大同路二段６０１號十六樓之２","OBJECTID":593481},"geometry":{"x":169624.61000000034,"y":2540973.5300000012}},{"attributes":{"ID":593509,"DIS_CODE":0,"TOWNNAME":"東區","LI":"崇明里","LIN":"11鄰","STREET":"大同路","SECT":"二段","MAREA":" ","LANE":" ","ALLEY":" ","HOUSE_NO":"６０１號十六樓之３","E_COORD97":169624.60999999999,"N_COORD97":2540973.5299999998,"ADDRESS":"大同路二段６０１號十六樓之３","OBJECTID":593482},"geometry":{"x":169624.61000000034,"y":2540973.5300000012}},{"attributes":{"ID":593510,"DIS_CODE":0,"TOWNNAME":"東區","LI":"崇明里","LIN":"11鄰","STREET":"大同路","SECT":"二段","MAREA":" ","LANE":" ","ALLEY":" ","HOUSE_NO":"６０１號十六樓之４","E_COORD97":169624.60999999999,"N_COORD97":2540973.5299999998,"ADDRESS":"大同路二段６０１號十六樓之４","OBJECTID":593483},"geometry":{"x":169624.61000000034,"y":2540973.5300000012}},{"attributes":{"ID":593511,"DIS_CODE":0,"TOWNNAME":"東區","LI":"崇明里","LIN":"11鄰","STREET":"大同路","SECT":"二段","MAREA":" ","LANE":" ","ALLEY":" ","HOUSE_NO":"６０１號十七樓","E_COORD97":169624.60999999999,"N_COORD97":2540973.5299999998,"ADDRESS":"大同路二段６０１號十七樓","OBJECTID":593484},"geometry":{"x":169624.61000000034,"y":2540973.5300000012}},{"attributes":{"ID":593512,"DIS_CODE":0,"TOWNNAME":"東區","LI":"崇明里","LIN":"11鄰","STREET":"大同路","SECT":"二段","MAREA":" ","LANE":" ","ALLEY":" ","HOUSE_NO":"６０１號十七樓之１","E_COORD97":169624.60999999999,"N_COORD97":2540973.5299999998,"ADDRESS":"大同路二段６０１號十七樓之１","OBJECTID":593485},"geometry":{"x":169624.61000000034,"y":2540973.5300000012}},{"attributes":{"ID":593513,"DIS_CODE":0,"TOWNNAME":"東區","LI":"崇明里","LIN":"11鄰","STREET":"大同路","SECT":"二段","MAREA":" ","LANE":" ","ALLEY":" ","HOUSE_NO":"６０１號十七樓之２","E_COORD97":169624.60999999999,"N_COORD97":2540973.5299999998,"ADDRESS":"大同路二段６０１號十七樓之２","OBJECTID":593486},"geometry":{"x":169624.61000000034,"y":2540973.5300000012}},{"attributes":{"ID":593514,"DIS_CODE":0,"TOWNNAME":"東區","LI":"崇明里","LIN":"11鄰","STREET":"大同路","SECT":"二段","MAREA":" ","LANE":" ","ALLEY":" ","HOUSE_NO":"６０１號十七樓之３","E_COORD97":169624.60999999999,"N_COORD97":2540973.5299999998,"ADDRESS":"大同路二段６０１號十七樓之３","OBJECTID":593487},"geometry":{"x":169624.61000000034,"y":2540973.5300000012}},{"attributes":{"ID":593515,"DIS_CODE":0,"TOWNNAME":"東區","LI":"崇明里","LIN":"11鄰","STREET":"大同路","SECT":"二段","MAREA":" ","LANE":" ","ALLEY":" ","HOUSE_NO":"６０１號十七樓之４","E_COORD97":169624.60999999999,"N_COORD97":2540973.5299999998,"ADDRESS":"大同路二段６０１號十七樓之４","OBJECTID":593488},"geometry":{"x":169624.61000000034,"y":2540973.5300000012}},{"attributes":{"ID":593516,"DIS_CODE":0,"TOWNNAME":"東區","LI":"崇明里","LIN":"11鄰","STREET":"大同路","SECT":"二段","MAREA":" ","LANE":" ","ALLEY":" ","HOUSE_NO":"６０１號十八樓","E_COORD97":169624.60999999999,"N_COORD97":2540973.5299999998,"ADDRESS":"大同路二段６０１號十八樓","OBJECTID":593489},"geometry":{"x":169624.61000000034,"y":2540973.5300000012}},{"attributes":{"ID":593517,"DIS_CODE":0,"TOWNNAME":"東區","LI":"德高里","LIN":"11鄰","STREET":"德高街","SECT":" ","MAREA":" ","LANE":" ","ALLEY":" ","HOUSE_NO":"７６號三樓","E_COORD97":171491.97,"N_COORD97":2540806.7599999998,"ADDRESS":"德高街７６號三樓","OBJECTID":593490},"geometry":{"x":171491.97000000067,"y":2540806.7599999998}},{"attributes":{"ID":593518,"DIS_CODE":0,"TOWNNAME":"東區","LI":"崇明里","LIN":"11鄰","STREET":"大同路","SECT":"二段","MAREA":" ","LANE":" ","ALLEY":" ","HOUSE_NO":"６０１號十八樓之１","E_COORD97":169624.60999999999,"N_COORD97":2540973.5299999998,"ADDRESS":"大同路二段６０１號十八樓之１","OBJECTID":593491},"geometry":{"x":169624.61000000034,"y":2540973.5300000012}},{"attributes":{"ID":593519,"DIS_CODE":0,"TOWNNAME":"東區","LI":"崇明里","LIN":"11鄰","STREET":"大同路","SECT":"二段","MAREA":" ","LANE":" ","ALLEY":" ","HOUSE_NO":"６０１號十八樓之２","E_COORD97":169624.60999999999,"N_COORD97":2540973.5299999998,"ADDRESS":"大同路二段６０１號十八樓之２","OBJECTID":593492},"geometry":{"x":169624.61000000034,"y":2540973.5300000012}},{"attributes":{"ID":593520,"DIS_CODE":0,"TOWNNAME":"東區","LI":"崇明里","LIN":"11鄰","STREET":"大同路","SECT":"二段","MAREA":" ","LANE":" ","ALLEY":" ","HOUSE_NO":"６０１號十八樓之３","E_COORD97":169624.60999999999,"N_COORD97":2540973.5299999998,"ADDRESS":"大同路二段６０１號十八樓之３","OBJECTID":593493},"geometry":{"x":169624.61000000034,"y":2540973.5300000012}},{"attributes":{"ID":593521,"DIS_CODE":0,"TOWNNAME":"東區","LI":"崇明里","LIN":"11鄰","STREET":"大同路","SECT":"二段","MAREA":" ","LANE":" ","ALLEY":" ","HOUSE_NO":"６０１號十八樓之４","E_COORD97":169624.60999999999,"N_COORD97":2540973.5299999998,"ADDRESS":"大同路二段６０１號十八樓之４","OBJECTID":593494},"geometry":{"x":169624.61000000034,"y":2540973.5300000012}},{"attributes":{"ID":593522,"DIS_CODE":0,"TOWNNAME":"東區","LI":"崇明里","LIN":"11鄰","STREET":"大同路","SECT":"二段","MAREA":" ","LANE":" ","ALLEY":" ","HOUSE_NO":"６０１號十九樓","E_COORD97":169624.60999999999,"N_COORD97":2540973.5299999998,"ADDRESS":"大同路二段６０１號十九樓","OBJECTID":593495},"geometry":{"x":169624.61000000034,"y":2540973.5300000012}},{"attributes":{"ID":593523,"DIS_CODE":0,"TOWNNAME":"東區","LI":"崇明里","LIN":"11鄰","STREET":"大同路","SECT":"二段","MAREA":" ","LANE":" ","ALLEY":" ","HOUSE_NO":"６０１號十九樓之１","E_COORD97":169624.60999999999,"N_COORD97":2540973.5299999998,"ADDRESS":"大同路二段６０１號十九樓之１","OBJECTID":593496},"geometry":{"x":169624.61000000034,"y":2540973.5300000012}},{"attributes":{"ID":593524,"DIS_CODE":0,"TOWNNAME":"東區","LI":"崇明里","LIN":"11鄰","STREET":"大同路","SECT":"二段","MAREA":" ","LANE":" ","ALLEY":" ","HOUSE_NO":"６０１號十九樓之２","E_COORD97":169624.60999999999,"N_COORD97":2540973.5299999998,"ADDRESS":"大同路二段６０１號十九樓之２","OBJECTID":593497},"geometry":{"x":169624.61000000034,"y":2540973.5300000012}},{"attributes":{"ID":593525,"DIS_CODE":0,"TOWNNAME":"東區","LI":"崇明里","LIN":"11鄰","STREET":"大同路","SECT":"二段","MAREA":" ","LANE":" ","ALLEY":" ","HOUSE_NO":"６０１號十九樓之３","E_COORD97":169624.60999999999,"N_COORD97":2540973.5299999998,"ADDRESS":"大同路二段６０１號十九樓之３","OBJECTID":593498},"geometry":{"x":169624.61000000034,"y":2540973.5300000012}},{"attributes":{"ID":593526,"DIS_CODE":0,"TOWNNAME":"東區","LI":"崇明里","LIN":"11鄰","STREET":"大同路","SECT":"二段","MAREA":" ","LANE":" ","ALLEY":" ","HOUSE_NO":"６０１號十九樓之４","E_COORD97":169624.60999999999,"N_COORD97":2540973.5299999998,"ADDRESS":"大同路二段６０１號十九樓之４","OBJECTID":593499},"geometry":{"x":169624.61000000034,"y":2540973.5300000012}},{"attributes":{"ID":593527,"DIS_CODE":0,"TOWNNAME":"東區","LI":"崇明里","LIN":"11鄰","STREET":"大同路","SECT":"二段","MAREA":" ","LANE":" ","ALLEY":" ","HOUSE_NO":"６０１號二十樓","E_COORD97":169624.60999999999,"N_COORD97":2540973.5299999998,"ADDRESS":"大同路二段６０１號二十樓","OBJECTID":593500},"geometry":{"x":169624.61000000034,"y":2540973.5300000012}},{"attributes":{"ID":593528,"DIS_CODE":0,"TOWNNAME":"東區","LI":"崇明里","LIN":"11鄰","STREET":"大同路","SECT":"二段","MAREA":" ","LANE":" ","ALLEY":" ","HOUSE_NO":"６０１號二十樓之１","E_COORD97":169624.60999999999,"N_COORD97":2540973.5299999998,"ADDRESS":"大同路二段６０１號二十樓之１","OBJECTID":593501},"geometry":{"x":169624.61000000034,"y":2540973.5300000012}},{"attributes":{"ID":593529,"DIS_CODE":0,"TOWNNAME":"東區","LI":"崇明里","LIN":"11鄰","STREET":"大同路","SECT":"二段","MAREA":" ","LANE":" ","ALLEY":" ","HOUSE_NO":"６０１號二十樓之２","E_COORD97":169624.60999999999,"N_COORD97":2540973.5299999998,"ADDRESS":"大同路二段６０１號二十樓之２","OBJECTID":593502},"geometry":{"x":169624.61000000034,"y":2540973.5300000012}},{"attributes":{"ID":593530,"DIS_CODE":0,"TOWNNAME":"東區","LI":"崇明里","LIN":"11鄰","STREET":"大同路","SECT":"二段","MAREA":" ","LANE":" ","ALLEY":" ","HOUSE_NO":"６０１號二十樓之３","E_COORD97":169624.60999999999,"N_COORD97":2540973.5299999998,"ADDRESS":"大同路二段６０１號二十樓之３","OBJECTID":593503},"geometry":{"x":169624.61000000034,"y":2540973.5300000012}},{"attributes":{"ID":593531,"DIS_CODE":0,"TOWNNAME":"東區","LI":"崇明里","LIN":"11鄰","STREET":"大同路","SECT":"二段","MAREA":" ","LANE":" ","ALLEY":" ","HOUSE_NO":"６０１號二十樓之４","E_COORD97":169624.60999999999,"N_COORD97":2540973.5299999998,"ADDRESS":"大同路二段６０１號二十樓之４","OBJECTID":593504},"geometry":{"x":169624.61000000034,"y":2540973.5300000012}},{"attributes":{"ID":593532,"DIS_CODE":0,"TOWNNAME":"東區","LI":"崇明里","LIN":"11鄰","STREET":"大同路","SECT":"二段","MAREA":" ","LANE":" ","ALLEY":" ","HOUSE_NO":"６０１號二十一樓","E_COORD97":169624.60999999999,"N_COORD97":2540973.5299999998,"ADDRESS":"大同路二段６０１號二十一樓","OBJECTID":593505},"geometry":{"x":169624.61000000034,"y":2540973.5300000012}},{"attributes":{"ID":593533,"DIS_CODE":0,"TOWNNAME":"東區","LI":"崇明里","LIN":"11鄰","STREET":"大同路","SECT":"二段","MAREA":" ","LANE":" ","ALLEY":" ","HOUSE_NO":"６０１號二十一樓之１","E_COORD97":169624.60999999999,"N_COORD97":2540973.5299999998,"ADDRESS":"大同路二段６０１號二十一樓之１","OBJECTID":593506},"geometry":{"x":169624.61000000034,"y":2540973.5300000012}},{"attributes":{"ID":593534,"DIS_CODE":0,"TOWNNAME":"東區","LI":"崇明里","LIN":"11鄰","STREET":"大同路","SECT":"二段","MAREA":" ","LANE":" ","ALLEY":" ","HOUSE_NO":"６０１號二十一樓之２","E_COORD97":169624.60999999999,"N_COORD97":2540973.5299999998,"ADDRESS":"大同路二段６０１號二十一樓之２","OBJECTID":593507},"geometry":{"x":169624.61000000034,"y":2540973.5300000012}},{"attributes":{"ID":593535,"DIS_CODE":0,"TOWNNAME":"東區","LI":"崇明里","LIN":"11鄰","STREET":"大同路","SECT":"二段","MAREA":" ","LANE":" ","ALLEY":" ","HOUSE_NO":"６０１號二十一樓之３","E_COORD97":169624.60999999999,"N_COORD97":2540973.5299999998,"ADDRESS":"大同路二段６０１號二十一樓之３","OBJECTID":593508},"geometry":{"x":169624.61000000034,"y":2540973.5300000012}},{"attributes":{"ID":593536,"DIS_CODE":0,"TOWNNAME":"東區","LI":"崇明里","LIN":"11鄰","STREET":"大同路","SECT":"二段","MAREA":" ","LANE":" ","ALLEY":" ","HOUSE_NO":"６０１號二十一樓之４","E_COORD97":169624.60999999999,"N_COORD97":2540973.5299999998,"ADDRESS":"大同路二段６０１號二十一樓之４","OBJECTID":593509},"geometry":{"x":169624.61000000034,"y":2540973.5300000012}},{"attributes":{"ID":593537,"DIS_CODE":0,"TOWNNAME":"東區","LI":"崇明里","LIN":"11鄰","STREET":"大同路","SECT":"二段","MAREA":" ","LANE":" ","ALLEY":" ","HOUSE_NO":"６０１號二十二樓","E_COORD97":169624.60999999999,"N_COORD97":2540973.5299999998,"ADDRESS":"大同路二段６０１號二十二樓","OBJECTID":593510},"geometry":{"x":169624.61000000034,"y":2540973.5300000012}},{"attributes":{"ID":593538,"DIS_CODE":0,"TOWNNAME":"東區","LI":"崇明里","LIN":"11鄰","STREET":"大同路","SECT":"二段","MAREA":" ","LANE":" ","ALLEY":" ","HOUSE_NO":"６０１號二十二樓之１","E_COORD97":169624.60999999999,"N_COORD97":2540973.5299999998,"ADDRESS":"大同路二段６０１號二十二樓之１","OBJECTID":593511},"geometry":{"x":169624.61000000034,"y":2540973.5300000012}},{"attributes":{"ID":593539,"DIS_CODE":0,"TOWNNAME":"東區","LI":"崇明里","LIN":"11鄰","STREET":"大同路","SECT":"二段","MAREA":" ","LANE":" ","ALLEY":" ","HOUSE_NO":"６０１號二十二樓之２","E_COORD97":169624.60999999999,"N_COORD97":2540973.5299999998,"ADDRESS":"大同路二段６０１號二十二樓之２","OBJECTID":593512},"geometry":{"x":169624.61000000034,"y":2540973.5300000012}},{"attributes":{"ID":593540,"DIS_CODE":0,"TOWNNAME":"東區","LI":"崇明里","LIN":"11鄰","STREET":"大同路","SECT":"二段","MAREA":" ","LANE":" ","ALLEY":" ","HOUSE_NO":"６０１號二十二樓之３","E_COORD97":169624.60999999999,"N_COORD97":2540973.5299999998,"ADDRESS":"大同路二段６０１號二十二樓之３","OBJECTID":593513},"geometry":{"x":169624.61000000034,"y":2540973.5300000012}},{"attributes":{"ID":593541,"DIS_CODE":0,"TOWNNAME":"東區","LI":"崇明里","LIN":"11鄰","STREET":"大同路","SECT":"二段","MAREA":" ","LANE":" ","ALLEY":" ","HOUSE_NO":"６０１號二十二樓之４","E_COORD97":169624.60999999999,"N_COORD97":2540973.5299999998,"ADDRESS":"大同路二段６０１號二十二樓之４","OBJECTID":593514},"geometry":{"x":169624.61000000034,"y":2540973.5300000012}},{"attributes":{"ID":593542,"DIS_CODE":0,"TOWNNAME":"東區","LI":"崇明里","LIN":"11鄰","STREET":"大同路","SECT":"二段","MAREA":" ","LANE":" ","ALLEY":" ","HOUSE_NO":"６０１號二十三樓","E_COORD97":169624.60999999999,"N_COORD97":2540973.5299999998,"ADDRESS":"大同路二段６０１號二十三樓","OBJECTID":593515},"geometry":{"x":169624.61000000034,"y":2540973.5300000012}},{"attributes":{"ID":593543,"DIS_CODE":0,"TOWNNAME":"東區","LI":"崇明里","LIN":"11鄰","STREET":"大同路","SECT":"二段","MAREA":" ","LANE":" ","ALLEY":" ","HOUSE_NO":"６０１號二十三樓之１","E_COORD97":169624.60999999999,"N_COORD97":2540973.5299999998,"ADDRESS":"大同路二段６０１號二十三樓之１","OBJECTID":593516},"geometry":{"x":169624.61000000034,"y":2540973.5300000012}},{"attributes":{"ID":593544,"DIS_CODE":0,"TOWNNAME":"東區","LI":"崇明里","LIN":"11鄰","STREET":"大同路","SECT":"二段","MAREA":" ","LANE":" ","ALLEY":" ","HOUSE_NO":"６０１號二十三樓之２","E_COORD97":169624.60999999999,"N_COORD97":2540973.5299999998,"ADDRESS":"大同路二段６０１號二十三樓之２","OBJECTID":593517},"geometry":{"x":169624.61000000034,"y":2540973.5300000012}},{"attributes":{"ID":593545,"DIS_CODE":0,"TOWNNAME":"東區","LI":"崇明里","LIN":"11鄰","STREET":"大同路","SECT":"二段","MAREA":" ","LANE":" ","ALLEY":" ","HOUSE_NO":"６０１號二十三樓之３","E_COORD97":169624.60999999999,"N_COORD97":2540973.5299999998,"ADDRESS":"大同路二段６０１號二十三樓之３","OBJECTID":593518},"geometry":{"x":169624.61000000034,"y":2540973.5300000012}},{"attributes":{"ID":593546,"DIS_CODE":0,"TOWNNAME":"東區","LI":"崇明里","LIN":"11鄰","STREET":"大同路","SECT":"二段","MAREA":" ","LANE":" ","ALLEY":" ","HOUSE_NO":"６０１號二十三樓之４","E_COORD97":169624.60999999999,"N_COORD97":2540973.5299999998,"ADDRESS":"大同路二段６０１號二十三樓之４","OBJECTID":593519},"geometry":{"x":169624.61000000034,"y":2540973.5300000012}},{"attributes":{"ID":593547,"DIS_CODE":0,"TOWNNAME":"東區","LI":"崇明里","LIN":"11鄰","STREET":"大同路","SECT":"二段","MAREA":" ","LANE":" ","ALLEY":" ","HOUSE_NO":"６０１號二十四樓","E_COORD97":169624.60999999999,"N_COORD97":2540973.5299999998,"ADDRESS":"大同路二段６０１號二十四樓","OBJECTID":593520},"geometry":{"x":169624.61000000034,"y":2540973.5300000012}},{"attributes":{"ID":593548,"DIS_CODE":0,"TOWNNAME":"東區","LI":"崇明里","LIN":"11鄰","STREET":"大同路","SECT":"二段","MAREA":" ","LANE":" ","ALLEY":" ","HOUSE_NO":"６０１號二十四樓之１","E_COORD97":169624.60999999999,"N_COORD97":2540973.5299999998,"ADDRESS":"大同路二段６０１號二十四樓之１","OBJECTID":593521},"geometry":{"x":169624.61000000034,"y":2540973.5300000012}},{"attributes":{"ID":593549,"DIS_CODE":0,"TOWNNAME":"東區","LI":"崇明里","LIN":"11鄰","STREET":"大同路","SECT":"二段","MAREA":" ","LANE":" ","ALLEY":" ","HOUSE_NO":"６０１號二十四樓之２","E_COORD97":169624.60999999999,"N_COORD97":2540973.5299999998,"ADDRESS":"大同路二段６０１號二十四樓之２","OBJECTID":593522},"geometry":{"x":169624.61000000034,"y":2540973.5300000012}},{"attributes":{"ID":593550,"DIS_CODE":0,"TOWNNAME":"東區","LI":"崇明里","LIN":"11鄰","STREET":"大同路","SECT":"二段","MAREA":" ","LANE":" ","ALLEY":" ","HOUSE_NO":"６０１號二十四樓之３","E_COORD97":169624.60999999999,"N_COORD97":2540973.5299999998,"ADDRESS":"大同路二段６０１號二十四樓之３","OBJECTID":593523},"geometry":{"x":169624.61000000034,"y":2540973.5300000012}},{"attributes":{"ID":593551,"DIS_CODE":0,"TOWNNAME":"東區","LI":"崇明里","LIN":"11鄰","STREET":"大同路","SECT":"二段","MAREA":" ","LANE":" ","ALLEY":" ","HOUSE_NO":"６０１號二十四樓之４","E_COORD97":169624.60999999999,"N_COORD97":2540973.5299999998,"ADDRESS":"大同路二段６０１號二十四樓之４","OBJECTID":593524},"geometry":{"x":169624.61000000034,"y":2540973.5300000012}},{"attributes":{"ID":593552,"DIS_CODE":0,"TOWNNAME":"東區","LI":"莊敬里","LIN":"11鄰","STREET":"中華東路","SECT":"一段","MAREA":" ","LANE":" ","ALLEY":" ","HOUSE_NO":"２６號二樓","E_COORD97":171505.73000000001,"N_COORD97":2544152.9700000002,"ADDRESS":"中華東路一段２６號二樓","OBJECTID":593525},"geometry":{"x":171505.73000000045,"y":2544152.9700000007}},{"attributes":{"ID":593553,"DIS_CODE":0,"TOWNNAME":"仁德區","LI":"新田里","LIN":"11鄰","STREET":"北保一街","SECT":" ","MAREA":" ","LANE":" ","ALLEY":" ","HOUSE_NO":"８３號一樓","E_COORD97":173083.23000000001,"N_COORD97":2539548.75,"ADDRESS":"北保一街８３號一樓","OBJECTID":593526},"geometry":{"x":173083.23000000138,"y":2539548.7500000019}},{"attributes":{"ID":593554,"DIS_CODE":0,"TOWNNAME":"仁德區","LI":"新田里","LIN":"11鄰","STREET":"北保一街","SECT":" ","MAREA":" ","LANE":" ","ALLEY":" ","HOUSE_NO":"８１號七樓","E_COORD97":173087.39000000001,"N_COORD97":2539545.75,"ADDRESS":"北保一街８１號七樓","OBJECTID":593527},"geometry":{"x":173087.39000000153,"y":2539545.75}},{"attributes":{"ID":593555,"DIS_CODE":0,"TOWNNAME":"仁德區","LI":"新田里","LIN":"11鄰","STREET":"北保一街","SECT":" ","MAREA":" ","LANE":" ","ALLEY":" ","HOUSE_NO":"６１號五樓","E_COORD97":173123.91,"N_COORD97":2539528.25,"ADDRESS":"北保一街６１號五樓","OBJECTID":593528},"geometry":{"x":173123.91000000108,"y":2539528.2500000019}},{"attributes":{"ID":593556,"DIS_CODE":0,"TOWNNAME":"仁德區","LI":"新田里","LIN":"11鄰","STREET":"北保一街","SECT":" ","MAREA":" ","LANE":" ","ALLEY":" ","HOUSE_NO":"７３號三樓","E_COORD97":173104.19,"N_COORD97":2539534,"ADDRESS":"北保一街７３號三樓","OBJECTID":593529},"geometry":{"x":173104.19000000041,"y":2539534}},{"attributes":{"ID":593557,"DIS_CODE":0,"TOWNNAME":"仁德區","LI":"新田里","LIN":"11鄰","STREET":"北保一街","SECT":" ","MAREA":" ","LANE":" ","ALLEY":" ","HOUSE_NO":"７３號五樓","E_COORD97":173104.19,"N_COORD97":2539534,"ADDRESS":"北保一街７３號五樓","OBJECTID":593530},"geometry":{"x":173104.19000000041,"y":2539534}},{"attributes":{"ID":593558,"DIS_CODE":0,"TOWNNAME":"仁德區","LI":"新田里","LIN":"11鄰","STREET":"北保一街","SECT":" ","MAREA":" ","LANE":" ","ALLEY":" ","HOUSE_NO":"６１號三樓","E_COORD97":173123.91,"N_COORD97":2539528.25,"ADDRESS":"北保一街６１號三樓","OBJECTID":593531},"geometry":{"x":173123.91000000108,"y":2539528.2500000019}},{"attributes":{"ID":593559,"DIS_CODE":0,"TOWNNAME":"仁德區","LI":"新田里","LIN":"11鄰","STREET":"北保一街","SECT":" ","MAREA":" ","LANE":" ","ALLEY":" ","HOUSE_NO":"７１號七樓","E_COORD97":173108.06,"N_COORD97":2539530.75,"ADDRESS":"北保一街７１號七樓","OBJECTID":593532},"geometry":{"x":173108.05999999866,"y":2539530.7500000019}},{"attributes":{"ID":593560,"DIS_CODE":0,"TOWNNAME":"仁德區","LI":"新田里","LIN":"11鄰","STREET":"北保一街","SECT":" ","MAREA":" ","LANE":" ","ALLEY":" ","HOUSE_NO":"７３號七樓","E_COORD97":173104.19,"N_COORD97":2539534,"ADDRESS":"北保一街７３號七樓","OBJECTID":593533},"geometry":{"x":173104.19000000041,"y":2539534}},{"attributes":{"ID":593561,"DIS_CODE":0,"TOWNNAME":"仁德區","LI":"新田里","LIN":"11鄰","STREET":"北保一街","SECT":" ","MAREA":" ","LANE":" ","ALLEY":" ","HOUSE_NO":"６５號一樓","E_COORD97":173115.95000000001,"N_COORD97":2539518.5,"ADDRESS":"北保一街６５號一樓","OBJECTID":593534},"geometry":{"x":173115.95000000019,"y":2539518.5000000037}},{"attributes":{"ID":593562,"DIS_CODE":0,"TOWNNAME":"仁德區","LI":"新田里","LIN":"11鄰","STREET":"北保一街","SECT":" ","MAREA":" ","LANE":" ","ALLEY":" ","HOUSE_NO":"６３號七樓","E_COORD97":173120.26000000001,"N_COORD97":2539524,"ADDRESS":"北保一街６３號七樓","OBJECTID":593535},"geometry":{"x":173120.25999999978,"y":2539524}},{"attributes":{"ID":593563,"DIS_CODE":0,"TOWNNAME":"仁德區","LI":"新田里","LIN":"11鄰","STREET":"北保一街","SECT":" ","MAREA":" ","LANE":" ","ALLEY":" ","HOUSE_NO":"９９號六樓","E_COORD97":173103.76000000001,"N_COORD97":2539583.0099999998,"ADDRESS":"北保一街９９號六樓","OBJECTID":593536},"geometry":{"x":173103.76000000071,"y":2539583.0100000016}},{"attributes":{"ID":593564,"DIS_CODE":0,"TOWNNAME":"仁德區","LI":"新田里","LIN":"11鄰","STREET":"北保一街","SECT":" ","MAREA":" ","LANE":" ","ALLEY":" ","HOUSE_NO":"６７號一樓","E_COORD97":173112.42999999999,"N_COORD97":2539513.7599999998,"ADDRESS":"北保一街６７號一樓","OBJECTID":593537},"geometry":{"x":173112.42999999877,"y":2539513.7600000016}},{"attributes":{"ID":593565,"DIS_CODE":0,"TOWNNAME":"仁德區","LI":"新田里","LIN":"11鄰","STREET":"北保一街","SECT":" ","MAREA":" ","LANE":" ","ALLEY":" ","HOUSE_NO":"１０１號七樓","E_COORD97":173109.14000000001,"N_COORD97":2539579.2599999998,"ADDRESS":"北保一街１０１號七樓","OBJECTID":593538},"geometry":{"x":173109.13999999966,"y":2539579.2599999998}},{"attributes":{"ID":593566,"DIS_CODE":0,"TOWNNAME":"仁德區","LI":"新田里","LIN":"11鄰","STREET":"北保一街","SECT":" ","MAREA":" ","LANE":" ","ALLEY":" ","HOUSE_NO":"１０１號六樓","E_COORD97":173109.14000000001,"N_COORD97":2539579.2599999998,"ADDRESS":"北保一街１０１號六樓","OBJECTID":593539},"geometry":{"x":173109.13999999966,"y":2539579.2599999998}},{"attributes":{"ID":593567,"DIS_CODE":0,"TOWNNAME":"仁德區","LI":"新田里","LIN":"11鄰","STREET":"北保一街","SECT":" ","MAREA":" ","LANE":" ","ALLEY":" ","HOUSE_NO":"１０３號三樓","E_COORD97":173114.23999999999,"N_COORD97":2539577.7599999998,"ADDRESS":"北保一街１０３號三樓","OBJECTID":593540},"geometry":{"x":173114.24000000022,"y":2539577.7600000016}},{"attributes":{"ID":593568,"DIS_CODE":0,"TOWNNAME":"仁德區","LI":"新田里","LIN":"11鄰","STREET":"北保一街","SECT":" ","MAREA":" ","LANE":" ","ALLEY":" ","HOUSE_NO":"１０１號一樓","E_COORD97":173109.14000000001,"N_COORD97":2539579.2599999998,"ADDRESS":"北保一街１０１號一樓","OBJECTID":593541},"geometry":{"x":173109.13999999966,"y":2539579.2599999998}},{"attributes":{"ID":593569,"DIS_CODE":0,"TOWNNAME":"仁德區","LI":"新田里","LIN":"11鄰","STREET":"北保一街","SECT":" ","MAREA":" ","LANE":" ","ALLEY":" ","HOUSE_NO":"９５號三樓","E_COORD97":173101.14000000001,"N_COORD97":2539570.2599999998,"ADDRESS":"北保一街９５號三樓","OBJECTID":593542},"geometry":{"x":173101.1400000006,"y":2539570.2599999998}},{"attributes":{"ID":593570,"DIS_CODE":0,"TOWNNAME":"仁德區","LI":"新田里","LIN":"11鄰","STREET":"北保一街","SECT":" ","MAREA":" ","LANE":" ","ALLEY":" ","HOUSE_NO":"１２３號五樓","E_COORD97":173112.22,"N_COORD97":2539547.25,"ADDRESS":"北保一街１２３號五樓","OBJECTID":593543},"geometry":{"x":173112.21999999881,"y":2539547.2500000037}},{"attributes":{"ID":593571,"DIS_CODE":0,"TOWNNAME":"仁德區","LI":"新田里","LIN":"11鄰","STREET":"北保一街","SECT":" ","MAREA":" ","LANE":" ","ALLEY":" ","HOUSE_NO":"６３號一樓","E_COORD97":173120.26000000001,"N_COORD97":2539524,"ADDRESS":"北保一街６３號一樓","OBJECTID":593544},"geometry":{"x":173120.25999999978,"y":2539524}},{"attributes":{"ID":593572,"DIS_CODE":0,"TOWNNAME":"仁德區","LI":"新田里","LIN":"11鄰","STREET":"北保一街","SECT":" ","MAREA":" ","LANE":" ","ALLEY":" ","HOUSE_NO":"１０１號五樓","E_COORD97":173109.14000000001,"N_COORD97":2539579.2599999998,"ADDRESS":"北保一街１０１號五樓","OBJECTID":593545},"geometry":{"x":173109.13999999966,"y":2539579.2599999998}},{"attributes":{"ID":593573,"DIS_CODE":0,"TOWNNAME":"仁德區","LI":"新田里","LIN":"11鄰","STREET":"北保一街","SECT":" ","MAREA":" ","LANE":" ","ALLEY":" ","HOUSE_NO":"１０３號六樓","E_COORD97":173114.23999999999,"N_COORD97":2539577.7599999998,"ADDRESS":"北保一街１０３號六樓","OBJECTID":593546},"geometry":{"x":173114.24000000022,"y":2539577.7600000016}},{"attributes":{"ID":593574,"DIS_CODE":0,"TOWNNAME":"仁德區","LI":"新田里","LIN":"11鄰","STREET":"北保一街","SECT":" ","MAREA":" ","LANE":" ","ALLEY":" ","HOUSE_NO":"１２３號三樓","E_COORD97":173112.22,"N_COORD97":2539547.25,"ADDRESS":"北保一街１２３號三樓","OBJECTID":593547},"geometry":{"x":173112.21999999881,"y":2539547.2500000037}},{"attributes":{"ID":593575,"DIS_CODE":0,"TOWNNAME":"仁德區","LI":"新田里","LIN":"11鄰","STREET":"北保一街","SECT":" ","MAREA":" ","LANE":" ","ALLEY":" ","HOUSE_NO":"１１９號三樓","E_COORD97":173118.42999999999,"N_COORD97":2539554.75,"ADDRESS":"北保一街１１９號三樓","OBJECTID":593548},"geometry":{"x":173118.43000000063,"y":2539554.7500000019}},{"attributes":{"ID":593576,"DIS_CODE":0,"TOWNNAME":"仁德區","LI":"新田里","LIN":"11鄰","STREET":"北保一街","SECT":" ","MAREA":" ","LANE":" ","ALLEY":" ","HOUSE_NO":"１１７號五樓","E_COORD97":173121.39000000001,"N_COORD97":2539558.5,"ADDRESS":"北保一街１１７號五樓","OBJECTID":593549},"geometry":{"x":173121.39000000153,"y":2539558.5}},{"attributes":{"ID":593577,"DIS_CODE":0,"TOWNNAME":"仁德區","LI":"新田里","LIN":"11鄰","STREET":"北保一街","SECT":" ","MAREA":" ","LANE":" ","ALLEY":" ","HOUSE_NO":"１１３號三樓","E_COORD97":173127.07999999999,"N_COORD97":2539567.5,"ADDRESS":"北保一街１１３號三樓","OBJECTID":593550},"geometry":{"x":173127.07999999914,"y":2539567.5000000019}},{"attributes":{"ID":593578,"DIS_CODE":0,"TOWNNAME":"仁德區","LI":"新田里","LIN":"11鄰","STREET":"北保一街","SECT":" ","MAREA":" ","LANE":" ","ALLEY":" ","HOUSE_NO":"１０３號一樓","E_COORD97":173114.23999999999,"N_COORD97":2539577.7599999998,"ADDRESS":"北保一街１０３號一樓","OBJECTID":593551},"geometry":{"x":173114.24000000022,"y":2539577.7600000016}},{"attributes":{"ID":593579,"DIS_CODE":0,"TOWNNAME":"仁德區","LI":"新田里","LIN":"11鄰","STREET":"北保一街","SECT":" ","MAREA":" ","LANE":" ","ALLEY":" ","HOUSE_NO":"１０５號六樓","E_COORD97":173118.87,"N_COORD97":2539575.5099999998,"ADDRESS":"北保一街１０５號六樓","OBJECTID":593552},"geometry":{"x":173118.87000000104,"y":2539575.5099999979}},{"attributes":{"ID":593580,"DIS_CODE":0,"TOWNNAME":"仁德區","LI":"新田里","LIN":"11鄰","STREET":"北保一街","SECT":" ","MAREA":" ","LANE":" ","ALLEY":" ","HOUSE_NO":"１０３號七樓","E_COORD97":173114.23999999999,"N_COORD97":2539577.7599999998,"ADDRESS":"北保一街１０３號七樓","OBJECTID":593553},"geometry":{"x":173114.24000000022,"y":2539577.7600000016}},{"attributes":{"ID":593581,"DIS_CODE":0,"TOWNNAME":"仁德區","LI":"新田里","LIN":"11鄰","STREET":"北保一街","SECT":" ","MAREA":" ","LANE":" ","ALLEY":" ","HOUSE_NO":"１０７號七樓","E_COORD97":173136.32999999999,"N_COORD97":2539579.0099999998,"ADDRESS":"北保一街１０７號七樓","OBJECTID":593554},"geometry":{"x":173136.33000000101,"y":2539579.0099999979}},{"attributes":{"ID":593582,"DIS_CODE":0,"TOWNNAME":"仁德區","LI":"新田里","LIN":"11鄰","STREET":"北保一街","SECT":" ","MAREA":" ","LANE":" ","ALLEY":" ","HOUSE_NO":"１２１號五樓","E_COORD97":173115.20000000001,"N_COORD97":2539551,"ADDRESS":"北保一街１２１號五樓","OBJECTID":593555},"geometry":{"x":173115.20000000112,"y":2539551}},{"attributes":{"ID":593583,"DIS_CODE":0,"TOWNNAME":"仁德區","LI":"新田里","LIN":"11鄰","STREET":"北保一街","SECT":" ","MAREA":" ","LANE":" ","ALLEY":" ","HOUSE_NO":"１１３號七樓","E_COORD97":173127.07999999999,"N_COORD97":2539567.5,"ADDRESS":"北保一街１１３號七樓","OBJECTID":593556},"geometry":{"x":173127.07999999914,"y":2539567.5000000019}},{"attributes":{"ID":593584,"DIS_CODE":0,"TOWNNAME":"仁德區","LI":"新田里","LIN":"11鄰","STREET":"北保一街","SECT":" ","MAREA":" ","LANE":" ","ALLEY":" ","HOUSE_NO":"１１５號七樓","E_COORD97":173124.42999999999,"N_COORD97":2539562.5,"ADDRESS":"北保一街１１５號七樓","OBJECTID":593557},"geometry":{"x":173124.43000000156,"y":2539562.5000000037}},{"attributes":{"ID":593585,"DIS_CODE":0,"TOWNNAME":"仁德區","LI":"新田里","LIN":"11鄰","STREET":"北保一街","SECT":" ","MAREA":" ","LANE":" ","ALLEY":" ","HOUSE_NO":"１０５號五樓","E_COORD97":173118.87,"N_COORD97":2539575.5099999998,"ADDRESS":"北保一街１０５號五樓","OBJECTID":593558},"geometry":{"x":173118.87000000104,"y":2539575.5099999979}},{"attributes":{"ID":593586,"DIS_CODE":0,"TOWNNAME":"仁德區","LI":"新田里","LIN":"11鄰","STREET":"北保一街","SECT":" ","MAREA":" ","LANE":" ","ALLEY":" ","HOUSE_NO":"１２１號三樓","E_COORD97":173115.20000000001,"N_COORD97":2539551,"ADDRESS":"北保一街１２１號三樓","OBJECTID":593559},"geometry":{"x":173115.20000000112,"y":2539551}},{"attributes":{"ID":593587,"DIS_CODE":0,"TOWNNAME":"仁德區","LI":"新田里","LIN":"11鄰","STREET":"北保一街","SECT":" ","MAREA":" ","LANE":" ","ALLEY":" ","HOUSE_NO":"１０９號七樓","E_COORD97":173133.17000000001,"N_COORD97":2539575.0099999998,"ADDRESS":"北保一街１０９號七樓","OBJECTID":593560},"geometry":{"x":173133.17000000179,"y":2539575.0099999998}},{"attributes":{"ID":593588,"DIS_CODE":0,"TOWNNAME":"仁德區","LI":"新田里","LIN":"11鄰","STREET":"北保一街","SECT":" ","MAREA":" ","LANE":" ","ALLEY":" ","HOUSE_NO":"１１５號五樓","E_COORD97":173124.42999999999,"N_COORD97":2539562.5,"ADDRESS":"北保一街１１５號五樓","OBJECTID":593561},"geometry":{"x":173124.43000000156,"y":2539562.5000000037}},{"attributes":{"ID":593589,"DIS_CODE":0,"TOWNNAME":"仁德區","LI":"新田里","LIN":"11鄰","STREET":"北保一街","SECT":" ","MAREA":" ","LANE":" ","ALLEY":" ","HOUSE_NO":"９９號七樓","E_COORD97":173103.76000000001,"N_COORD97":2539583.0099999998,"ADDRESS":"北保一街９９號七樓","OBJECTID":593562},"geometry":{"x":173103.76000000071,"y":2539583.0100000016}},{"attributes":{"ID":593590,"DIS_CODE":0,"TOWNNAME":"東區","LI":"崇明里","LIN":"11鄰","STREET":"大同路","SECT":"二段","MAREA":" ","LANE":" ","ALLEY":" ","HOUSE_NO":"６０１號四樓之６","E_COORD97":169624.60999999999,"N_COORD97":2540973.5299999998,"ADDRESS":"大同路二段６０１號四樓之６","OBJECTID":593563},"geometry":{"x":169624.61000000034,"y":2540973.5300000012}},{"attributes":{"ID":593591,"DIS_CODE":0,"TOWNNAME":"東區","LI":"崇善里","LIN":"11鄰","STREET":"崇善八街","SECT":" ","MAREA":" ","LANE":" ","ALLEY":" ","HOUSE_NO":"６０號三樓","E_COORD97":171207.17999999999,"N_COORD97":2541427.1400000001,"ADDRESS":"崇善八街６０號三樓","OBJECTID":593564},"geometry":{"x":171207.18000000156,"y":2541427.1400000043}},{"attributes":{"ID":593592,"DIS_CODE":0,"TOWNNAME":"東區","LI":"崇善里","LIN":"11鄰","STREET":"崇善八街","SECT":" ","MAREA":" ","LANE":" ","ALLEY":" ","HOUSE_NO":"６０號三樓之１","E_COORD97":171207.17999999999,"N_COORD97":2541427.1400000001,"ADDRESS":"崇善八街６０號三樓之１","OBJECTID":593565},"geometry":{"x":171207.18000000156,"y":2541427.1400000043}},{"attributes":{"ID":593593,"DIS_CODE":0,"TOWNNAME":"東區","LI":"崇善里","LIN":"11鄰","STREET":"崇善八街","SECT":" ","MAREA":" ","LANE":" ","ALLEY":" ","HOUSE_NO":"６０號三樓之２","E_COORD97":171207.17999999999,"N_COORD97":2541427.1400000001,"ADDRESS":"崇善八街６０號三樓之２","OBJECTID":593566},"geometry":{"x":171207.18000000156,"y":2541427.1400000043}},{"attributes":{"ID":593594,"DIS_CODE":0,"TOWNNAME":"東區","LI":"崇善里","LIN":"11鄰","STREET":"崇善八街","SECT":" ","MAREA":" ","LANE":" ","ALLEY":" ","HOUSE_NO":"６０號三樓之３","E_COORD97":171207.17999999999,"N_COORD97":2541427.1400000001,"ADDRESS":"崇善八街６０號三樓之３","OBJECTID":593567},"geometry":{"x":171207.18000000156,"y":2541427.1400000043}},{"attributes":{"ID":593595,"DIS_CODE":0,"TOWNNAME":"東區","LI":"崇善里","LIN":"11鄰","STREET":"崇善八街","SECT":" ","MAREA":" ","LANE":" ","ALLEY":" ","HOUSE_NO":"６０號四樓","E_COORD97":171207.17999999999,"N_COORD97":2541427.1400000001,"ADDRESS":"崇善八街６０號四樓","OBJECTID":593568},"geometry":{"x":171207.18000000156,"y":2541427.1400000043}},{"attributes":{"ID":593596,"DIS_CODE":0,"TOWNNAME":"東區","LI":"崇善里","LIN":"11鄰","STREET":"崇善八街","SECT":" ","MAREA":" ","LANE":" ","ALLEY":" ","HOUSE_NO":"６０號四樓之１","E_COORD97":171207.17999999999,"N_COORD97":2541427.1400000001,"ADDRESS":"崇善八街６０號四樓之１","OBJECTID":593569},"geometry":{"x":171207.18000000156,"y":2541427.1400000043}},{"attributes":{"ID":593597,"DIS_CODE":0,"TOWNNAME":"東區","LI":"崇善里","LIN":"11鄰","STREET":"崇善八街","SECT":" ","MAREA":" ","LANE":" ","ALLEY":" ","HOUSE_NO":"６０號四樓之３","E_COORD97":171207.17999999999,"N_COORD97":2541427.1400000001,"ADDRESS":"崇善八街６０號四樓之３","OBJECTID":593570},"geometry":{"x":171207.18000000156,"y":2541427.1400000043}},{"attributes":{"ID":593598,"DIS_CODE":0,"TOWNNAME":"東區","LI":"崇善里","LIN":"11鄰","STREET":"崇善八街","SECT":" ","MAREA":" ","LANE":" ","ALLEY":" ","HOUSE_NO":"６０號五樓","E_COORD97":171207.17999999999,"N_COORD97":2541427.1400000001,"ADDRESS":"崇善八街６０號五樓","OBJECTID":593571},"geometry":{"x":171207.18000000156,"y":2541427.1400000043}},{"attributes":{"ID":593599,"DIS_CODE":0,"TOWNNAME":"東區","LI":"崇善里","LIN":"11鄰","STREET":"崇善八街","SECT":" ","MAREA":" ","LANE":" ","ALLEY":" ","HOUSE_NO":"６０號五樓之１","E_COORD97":171207.17999999999,"N_COORD97":2541427.1400000001,"ADDRESS":"崇善八街６０號五樓之１","OBJECTID":593572},"geometry":{"x":171207.18000000156,"y":2541427.1400000043}},{"attributes":{"ID":593600,"DIS_CODE":0,"TOWNNAME":"東區","LI":"崇善里","LIN":"11鄰","STREET":"崇善八街","SECT":" ","MAREA":" ","LANE":" ","ALLEY":" ","HOUSE_NO":"６０號五樓之２","E_COORD97":171207.17999999999,"N_COORD97":2541427.1400000001,"ADDRESS":"崇善八街６０號五樓之２","OBJECTID":593573},"geometry":{"x":171207.18000000156,"y":2541427.1400000043}},{"attributes":{"ID":593601,"DIS_CODE":0,"TOWNNAME":"東區","LI":"崇善里","LIN":"11鄰","STREET":"崇善八街","SECT":" ","MAREA":" ","LANE":" ","ALLEY":" ","HOUSE_NO":"６０號五樓之３","E_COORD97":171207.17999999999,"N_COORD97":2541427.1400000001,"ADDRESS":"崇善八街６０號五樓之３","OBJECTID":593574},"geometry":{"x":171207.18000000156,"y":2541427.1400000043}},{"attributes":{"ID":593602,"DIS_CODE":0,"TOWNNAME":"東區","LI":"崇善里","LIN":"11鄰","STREET":"崇善八街","SECT":" ","MAREA":" ","LANE":" ","ALLEY":" ","HOUSE_NO":"６０號六樓","E_COORD97":171207.17999999999,"N_COORD97":2541427.1400000001,"ADDRESS":"崇善八街６０號六樓","OBJECTID":593575},"geometry":{"x":171207.18000000156,"y":2541427.1400000043}},{"attributes":{"ID":593603,"DIS_CODE":0,"TOWNNAME":"東區","LI":"崇善里","LIN":"11鄰","STREET":"崇善八街","SECT":" ","MAREA":" ","LANE":" ","ALLEY":" ","HOUSE_NO":"６０號六樓之１","E_COORD97":171207.17999999999,"N_COORD97":2541427.1400000001,"ADDRESS":"崇善八街６０號六樓之１","OBJECTID":593576},"geometry":{"x":171207.18000000156,"y":2541427.1400000043}},{"attributes":{"ID":593604,"DIS_CODE":0,"TOWNNAME":"東區","LI":"崇善里","LIN":"11鄰","STREET":"崇善八街","SECT":" ","MAREA":" ","LANE":" ","ALLEY":" ","HOUSE_NO":"６０號六樓之３","E_COORD97":171207.17999999999,"N_COORD97":2541427.1400000001,"ADDRESS":"崇善八街６０號六樓之３","OBJECTID":593577},"geometry":{"x":171207.18000000156,"y":2541427.1400000043}},{"attributes":{"ID":593605,"DIS_CODE":0,"TOWNNAME":"東區","LI":"崇善里","LIN":"11鄰","STREET":"崇善八街","SECT":" ","MAREA":" ","LANE":" ","ALLEY":" ","HOUSE_NO":"６０號七樓","E_COORD97":171207.17999999999,"N_COORD97":2541427.1400000001,"ADDRESS":"崇善八街６０號七樓","OBJECTID":593578},"geometry":{"x":171207.18000000156,"y":2541427.1400000043}},{"attributes":{"ID":593606,"DIS_CODE":0,"TOWNNAME":"東區","LI":"崇善里","LIN":"11鄰","STREET":"崇善八街","SECT":" ","MAREA":" ","LANE":" ","ALLEY":" ","HOUSE_NO":"６０號七樓之１","E_COORD97":171207.17999999999,"N_COORD97":2541427.1400000001,"ADDRESS":"崇善八街６０號七樓之１","OBJECTID":593579},"geometry":{"x":171207.18000000156,"y":2541427.1400000043}},{"attributes":{"ID":593607,"DIS_CODE":0,"TOWNNAME":"東區","LI":"崇善里","LIN":"11鄰","STREET":"崇善八街","SECT":" ","MAREA":" ","LANE":" ","ALLEY":" ","HOUSE_NO":"６０號七樓之２","E_COORD97":171207.17999999999,"N_COORD97":2541427.1400000001,"ADDRESS":"崇善八街６０號七樓之２","OBJECTID":593580},"geometry":{"x":171207.18000000156,"y":2541427.1400000043}},{"attributes":{"ID":593608,"DIS_CODE":0,"TOWNNAME":"東區","LI":"崇善里","LIN":"11鄰","STREET":"崇善八街","SECT":" ","MAREA":" ","LANE":" ","ALLEY":" ","HOUSE_NO":"６０號七樓之３","E_COORD97":171207.17999999999,"N_COORD97":2541427.1400000001,"ADDRESS":"崇善八街６０號七樓之３","OBJECTID":593581},"geometry":{"x":171207.18000000156,"y":2541427.1400000043}},{"attributes":{"ID":593609,"DIS_CODE":0,"TOWNNAME":"東區","LI":"崇善里","LIN":"11鄰","STREET":"崇善八街","SECT":" ","MAREA":" ","LANE":" ","ALLEY":" ","HOUSE_NO":"６０號八樓","E_COORD97":171207.17999999999,"N_COORD97":2541427.1400000001,"ADDRESS":"崇善八街６０號八樓","OBJECTID":593582},"geometry":{"x":171207.18000000156,"y":2541427.1400000043}},{"attributes":{"ID":593610,"DIS_CODE":0,"TOWNNAME":"東區","LI":"崇善里","LIN":"11鄰","STREET":"崇善八街","SECT":" ","MAREA":" ","LANE":" ","ALLEY":" ","HOUSE_NO":"６０號八樓之３","E_COORD97":171207.17999999999,"N_COORD97":2541427.1400000001,"ADDRESS":"崇善八街６０號八樓之３","OBJECTID":593583},"geometry":{"x":171207.18000000156,"y":2541427.1400000043}},{"attributes":{"ID":593611,"DIS_CODE":0,"TOWNNAME":"東區","LI":"德高里","LIN":"11鄰","STREET":"德高街","SECT":" ","MAREA":" ","LANE":" ","ALLEY":" ","HOUSE_NO":"７６號六樓","E_COORD97":171491.97,"N_COORD97":2540806.7599999998,"ADDRESS":"德高街７６號六樓","OBJECTID":593584},"geometry":{"x":171491.97000000067,"y":2540806.7599999998}},{"attributes":{"ID":593612,"DIS_CODE":0,"TOWNNAME":"東區","LI":"德高里","LIN":"11鄰","STREET":"德高街","SECT":" ","MAREA":" ","LANE":" ","ALLEY":" ","HOUSE_NO":"７６號四樓","E_COORD97":171491.97,"N_COORD97":2540806.7599999998,"ADDRESS":"德高街７６號四樓","OBJECTID":593585},"geometry":{"x":171491.97000000067,"y":2540806.7599999998}},{"attributes":{"ID":593613,"DIS_CODE":0,"TOWNNAME":"東區","LI":"德高里","LIN":"11鄰","STREET":"德高街","SECT":" ","MAREA":" ","LANE":" ","ALLEY":" ","HOUSE_NO":"７８號七樓","E_COORD97":171490.37,"N_COORD97":2540804.2999999998,"ADDRESS":"德高街７８號七樓","OBJECTID":593586},"geometry":{"x":171490.37000000011,"y":2540804.3000000007}},{"attributes":{"ID":593614,"DIS_CODE":0,"TOWNNAME":"東區","LI":"德高里","LIN":"11鄰","STREET":"德高街","SECT":" ","MAREA":" ","LANE":" ","ALLEY":" ","HOUSE_NO":"７８號三樓","E_COORD97":171490.37,"N_COORD97":2540804.2999999998,"ADDRESS":"德高街７８號三樓","OBJECTID":593587},"geometry":{"x":171490.37000000011,"y":2540804.3000000007}},{"attributes":{"ID":593615,"DIS_CODE":0,"TOWNNAME":"東區","LI":"德高里","LIN":"11鄰","STREET":"德高街","SECT":" ","MAREA":" ","LANE":" ","ALLEY":" ","HOUSE_NO":"７８號五樓","E_COORD97":171490.37,"N_COORD97":2540804.2999999998,"ADDRESS":"德高街７８號五樓","OBJECTID":593588},"geometry":{"x":171490.37000000011,"y":2540804.3000000007}},{"attributes":{"ID":593616,"DIS_CODE":0,"TOWNNAME":"東區","LI":"德高里","LIN":"11鄰","STREET":"德高街","SECT":" ","MAREA":" ","LANE":" ","ALLEY":" ","HOUSE_NO":"７８號六樓","E_COORD97":171490.37,"N_COORD97":2540804.2999999998,"ADDRESS":"德高街７８號六樓","OBJECTID":593589},"geometry":{"x":171490.37000000011,"y":2540804.3000000007}},{"attributes":{"ID":593617,"DIS_CODE":0,"TOWNNAME":"東區","LI":"德高里","LIN":"11鄰","STREET":"德高街","SECT":" ","MAREA":" ","LANE":" ","ALLEY":" ","HOUSE_NO":"７８號四樓","E_COORD97":171490.37,"N_COORD97":2540804.2999999998,"ADDRESS":"德高街７８號四樓","OBJECTID":593590},"geometry":{"x":171490.37000000011,"y":2540804.3000000007}},{"attributes":{"ID":593618,"DIS_CODE":0,"TOWNNAME":"東區","LI":"德高里","LIN":"11鄰","STREET":"德高街","SECT":" ","MAREA":" ","LANE":" ","ALLEY":" ","HOUSE_NO":"８０號七樓","E_COORD97":171486.75,"N_COORD97":2540801.2599999998,"ADDRESS":"德高街８０號七樓","OBJECTID":593591},"geometry":{"x":171486.75000000186,"y":2540801.2600000035}},{"attributes":{"ID":593619,"DIS_CODE":0,"TOWNNAME":"東區","LI":"德高里","LIN":"11鄰","STREET":"德高街","SECT":" ","MAREA":" ","LANE":" ","ALLEY":" ","HOUSE_NO":"８０號三樓","E_COORD97":171486.75,"N_COORD97":2540801.2599999998,"ADDRESS":"德高街８０號三樓","OBJECTID":593592},"geometry":{"x":171486.75000000186,"y":2540801.2600000035}},{"attributes":{"ID":593620,"DIS_CODE":0,"TOWNNAME":"東區","LI":"德高里","LIN":"11鄰","STREET":"德高街","SECT":" ","MAREA":" ","LANE":" ","ALLEY":" ","HOUSE_NO":"８０號五樓","E_COORD97":171486.75,"N_COORD97":2540801.2599999998,"ADDRESS":"德高街８０號五樓","OBJECTID":593593},"geometry":{"x":171486.75000000186,"y":2540801.2600000035}},{"attributes":{"ID":593621,"DIS_CODE":0,"TOWNNAME":"東區","LI":"德高里","LIN":"11鄰","STREET":"德高街","SECT":" ","MAREA":" ","LANE":" ","ALLEY":" ","HOUSE_NO":"８０號六樓","E_COORD97":171486.75,"N_COORD97":2540801.2599999998,"ADDRESS":"德高街８０號六樓","OBJECTID":593594},"geometry":{"x":171486.75000000186,"y":2540801.2600000035}},{"attributes":{"ID":593622,"DIS_CODE":0,"TOWNNAME":"東區","LI":"德高里","LIN":"11鄰","STREET":"德高街","SECT":" ","MAREA":" ","LANE":" ","ALLEY":" ","HOUSE_NO":"８０號四樓","E_COORD97":171486.75,"N_COORD97":2540801.2599999998,"ADDRESS":"德高街８０號四樓","OBJECTID":593595},"geometry":{"x":171486.75000000186,"y":2540801.2600000035}},{"attributes":{"ID":593623,"DIS_CODE":0,"TOWNNAME":"東區","LI":"德高里","LIN":"11鄰","STREET":"德高街","SECT":" ","MAREA":" ","LANE":" ","ALLEY":" ","HOUSE_NO":"８２號七樓","E_COORD97":171485.01000000001,"N_COORD97":2540798.6499999999,"ADDRESS":"德高街８２號七樓","OBJECTID":593596},"geometry":{"x":171485.01000000071,"y":2540798.6500000004}},{"attributes":{"ID":593624,"DIS_CODE":0,"TOWNNAME":"東區","LI":"德高里","LIN":"11鄰","STREET":"德高街","SECT":" ","MAREA":" ","LANE":" ","ALLEY":" ","HOUSE_NO":"８２號三樓","E_COORD97":171485.01000000001,"N_COORD97":2540798.6499999999,"ADDRESS":"德高街８２號三樓","OBJECTID":593597},"geometry":{"x":171485.01000000071,"y":2540798.6500000004}},{"attributes":{"ID":593625,"DIS_CODE":0,"TOWNNAME":"東區","LI":"德高里","LIN":"11鄰","STREET":"德高街","SECT":" ","MAREA":" ","LANE":" ","ALLEY":" ","HOUSE_NO":"８２號五樓","E_COORD97":171485.01000000001,"N_COORD97":2540798.6499999999,"ADDRESS":"德高街８２號五樓","OBJECTID":593598},"geometry":{"x":171485.01000000071,"y":2540798.6500000004}},{"attributes":{"ID":593626,"DIS_CODE":0,"TOWNNAME":"東區","LI":"德高里","LIN":"11鄰","STREET":"德高街","SECT":" ","MAREA":" ","LANE":" ","ALLEY":" ","HOUSE_NO":"８２號六樓","E_COORD97":171485.01000000001,"N_COORD97":2540798.6499999999,"ADDRESS":"德高街８２號六樓","OBJECTID":593599},"geometry":{"x":171485.01000000071,"y":2540798.6500000004}},{"attributes":{"ID":593627,"DIS_CODE":0,"TOWNNAME":"東區","LI":"德高里","LIN":"11鄰","STREET":"德高街","SECT":" ","MAREA":" ","LANE":" ","ALLEY":" ","HOUSE_NO":"８２號四樓","E_COORD97":171485.01000000001,"N_COORD97":2540798.6499999999,"ADDRESS":"德高街８２號四樓","OBJECTID":593600},"geometry":{"x":171485.01000000071,"y":2540798.6500000004}}]}