{"displayFieldName":"TOWNNAME","fieldAliases":{"ID":"ID","DIS_CODE":"DIS_CODE","TOWNNAME":"TOWNNAME","LI":"LI","LIN":"LIN","STREET":"STREET","SECT":"SECT","MAREA":"MAREA","LANE":"LANE","ALLEY":"ALLEY","HOUSE_NO":"HOUSE_NO","E_COORD97":"E_COORD97","N_COORD97":"N_COORD97","ADDRESS":"ADDRESS","OBJECTID":"OBJECTID"},"geometryType":"esriGeometryPoint","spatialReference":{"wkid":102443,"latestWkid":3826},"fields":[{"name":"ID","type":"esriFieldTypeDouble","alias":"ID"},{"name":"DIS_CODE","type":"esriFieldTypeInteger","alias":"DIS_CODE"},{"name":"TOWNNAME","type":"esriFieldTypeString","alias":"TOWNNAME","length":8},{"name":"LI","type":"esriFieldTypeString","alias":"LI","length":8},{"name":"LIN","type":"esriFieldTypeString","alias":"LIN","length":12},{"name":"STREET","type":"esriFieldTypeString","alias":"STREET","length":20},{"name":"SECT","type":"esriFieldTypeString","alias":"SECT","length":8},{"name":"MAREA","type":"esriFieldTypeString","alias":"MAREA","length":12},{"name":"LANE","type":"esriFieldTypeString","alias":"LANE","length":10},{"name":"ALLEY","type":"esriFieldTypeString","alias":"ALLEY","length":10},{"name":"HOUSE_NO","type":"esriFieldTypeString","alias":"HOUSE_NO","length":20},{"name":"E_COORD97","type":"esriFieldTypeDouble","alias":"E_COORD97"},{"name":"N_COORD97","type":"esriFieldTypeDouble","alias":"N_COORD97"},{"name":"ADDRESS","type":"esriFieldTypeString","alias":"ADDRESS","length":50},{"name":"OBJECTID","type":"esriFieldTypeOID","alias":"OBJECTID"}],"features":[{"attributes":{"ID":118401,"DIS_CODE":0,"TOWNNAME":"將軍區","LI":"三吉里","LIN":"4鄰","STREET":" ","SECT":" ","MAREA":"三吉","LANE":" ","ALLEY":" ","HOUSE_NO":"２２之２號","E_COORD97":161221.91,"N_COORD97":2567566.7799999998,"ADDRESS":"三吉２２之２號","OBJECTID":118401},"geometry":{"x":161221.91000000108,"y":2567566.7799999993}},{"attributes":{"ID":118402,"DIS_CODE":0,"TOWNNAME":"將軍區","LI":"三吉里","LIN":"4鄰","STREET":" ","SECT":" ","MAREA":"三吉","LANE":" ","ALLEY":" ","HOUSE_NO":"２２號","E_COORD97":161227.64999999999,"N_COORD97":2567523.8100000001,"ADDRESS":"三吉２２號","OBJECTID":118402},"geometry":{"x":161227.6500000013,"y":2567523.8100000005}},{"attributes":{"ID":118403,"DIS_CODE":0,"TOWNNAME":"安南區","LI":"新順里","LIN":"23鄰","STREET":"安和路","SECT":"二段","MAREA":" ","LANE":"２８５巷","ALLEY":"１６弄","HOUSE_NO":"１７號","E_COORD97":169583.60999999999,"N_COORD97":2549248.0299999998,"ADDRESS":"安和路二段２８５巷１６弄１７號","OBJECTID":118403},"geometry":{"x":169583.61000000034,"y":2549248.0300000031}},{"attributes":{"ID":118404,"DIS_CODE":0,"TOWNNAME":"將軍區","LI":"三吉里","LIN":"4鄰","STREET":" ","SECT":" ","MAREA":"三吉","LANE":" ","ALLEY":" ","HOUSE_NO":"２３之２號","E_COORD97":161215.20000000001,"N_COORD97":2567486.6099999999,"ADDRESS":"三吉２３之２號","OBJECTID":118404},"geometry":{"x":161215.20000000112,"y":2567486.6099999994}},{"attributes":{"ID":118405,"DIS_CODE":0,"TOWNNAME":"將軍區","LI":"三吉里","LIN":"4鄰","STREET":" ","SECT":" ","MAREA":"三吉","LANE":" ","ALLEY":" ","HOUSE_NO":"２３之９號","E_COORD97":160855.03,"N_COORD97":2567344.75,"ADDRESS":"三吉２３之９號","OBJECTID":118405},"geometry":{"x":160855.03000000119,"y":2567344.7499999981}},{"attributes":{"ID":118406,"DIS_CODE":0,"TOWNNAME":"將軍區","LI":"三吉里","LIN":"4鄰","STREET":" ","SECT":" ","MAREA":"三吉","LANE":" ","ALLEY":" ","HOUSE_NO":"２３號","E_COORD97":161232.10000000001,"N_COORD97":2567494.3199999998,"ADDRESS":"三吉２３號","OBJECTID":118406},"geometry":{"x":161232.10000000056,"y":2567494.3200000022}},{"attributes":{"ID":118407,"DIS_CODE":0,"TOWNNAME":"將軍區","LI":"三吉里","LIN":"4鄰","STREET":" ","SECT":" ","MAREA":"三吉","LANE":" ","ALLEY":" ","HOUSE_NO":"２４號","E_COORD97":161255,"N_COORD97":2567471.3399999999,"ADDRESS":"三吉２４號","OBJECTID":118407},"geometry":{"x":161255.00000000093,"y":2567471.3399999999}},{"attributes":{"ID":118408,"DIS_CODE":0,"TOWNNAME":"將軍區","LI":"三吉里","LIN":"4鄰","STREET":" ","SECT":" ","MAREA":"三吉","LANE":" ","ALLEY":" ","HOUSE_NO":"２６號","E_COORD97":161294.98000000001,"N_COORD97":2567463.52,"ADDRESS":"三吉２６號","OBJECTID":118408},"geometry":{"x":161294.98000000138,"y":2567463.5199999996}},{"attributes":{"ID":118409,"DIS_CODE":0,"TOWNNAME":"將軍區","LI":"三吉里","LIN":"4鄰","STREET":" ","SECT":" ","MAREA":"三吉","LANE":" ","ALLEY":" ","HOUSE_NO":"２７號","E_COORD97":161298.91,"N_COORD97":2567439.2999999998,"ADDRESS":"三吉２７號","OBJECTID":118409},"geometry":{"x":161298.91000000015,"y":2567439.3000000007}},{"attributes":{"ID":118410,"DIS_CODE":0,"TOWNNAME":"安南區","LI":"新順里","LIN":"23鄰","STREET":"安和路","SECT":"二段","MAREA":" ","LANE":"２８５巷","ALLEY":"１６弄","HOUSE_NO":"１９號","E_COORD97":169579.73000000001,"N_COORD97":2549249.5800000001,"ADDRESS":"安和路二段２８５巷１６弄１９號","OBJECTID":118410},"geometry":{"x":169579.73000000045,"y":2549249.5800000019}},{"attributes":{"ID":118411,"DIS_CODE":0,"TOWNNAME":"將軍區","LI":"三吉里","LIN":"4鄰","STREET":" ","SECT":" ","MAREA":"三吉","LANE":" ","ALLEY":" ","HOUSE_NO":"２８號","E_COORD97":161315.32999999999,"N_COORD97":2567426.02,"ADDRESS":"三吉２８號","OBJECTID":118411},"geometry":{"x":161315.33000000101,"y":2567426.0199999996}},{"attributes":{"ID":118412,"DIS_CODE":0,"TOWNNAME":"將軍區","LI":"三吉里","LIN":"1鄰","STREET":" ","SECT":" ","MAREA":"三吉","LANE":" ","ALLEY":" ","HOUSE_NO":"１之１３號","E_COORD97":161454.32000000001,"N_COORD97":2568252.4500000002,"ADDRESS":"三吉１之１３號","OBJECTID":118412},"geometry":{"x":161454.31999999937,"y":2568252.4500000011}},{"attributes":{"ID":118413,"DIS_CODE":0,"TOWNNAME":"將軍區","LI":"三吉里","LIN":"1鄰","STREET":" ","SECT":" ","MAREA":"三吉","LANE":" ","ALLEY":" ","HOUSE_NO":"１之１５號","E_COORD97":161460.94,"N_COORD97":2568280.6000000001,"ADDRESS":"三吉１之１５號","OBJECTID":118413},"geometry":{"x":161460.94000000134,"y":2568280.5999999996}},{"attributes":{"ID":118414,"DIS_CODE":0,"TOWNNAME":"將軍區","LI":"三吉里","LIN":"1鄰","STREET":" ","SECT":" ","MAREA":"三吉","LANE":" ","ALLEY":" ","HOUSE_NO":"１之１８號","E_COORD97":161451.07000000001,"N_COORD97":2568243.0099999998,"ADDRESS":"三吉１之１８號","OBJECTID":118414},"geometry":{"x":161451.07000000216,"y":2568243.0100000016}},{"attributes":{"ID":118415,"DIS_CODE":0,"TOWNNAME":"將軍區","LI":"三吉里","LIN":"1鄰","STREET":" ","SECT":" ","MAREA":"三吉","LANE":" ","ALLEY":" ","HOUSE_NO":"１之１９號","E_COORD97":161436.38,"N_COORD97":2568155.7799999998,"ADDRESS":"三吉１之１９號","OBJECTID":118415},"geometry":{"x":161436.37999999989,"y":2568155.7800000012}},{"attributes":{"ID":118416,"DIS_CODE":0,"TOWNNAME":"將軍區","LI":"三吉里","LIN":"1鄰","STREET":" ","SECT":" ","MAREA":"三吉","LANE":" ","ALLEY":" ","HOUSE_NO":"１之２０號","E_COORD97":161438.59,"N_COORD97":2568103.48,"ADDRESS":"三吉１之２０號","OBJECTID":118416},"geometry":{"x":161438.59000000171,"y":2568103.4800000042}},{"attributes":{"ID":118417,"DIS_CODE":0,"TOWNNAME":"新市區","LI":"大社里","LIN":"35鄰","STREET":" ","SECT":" ","MAREA":"大社","LANE":" ","ALLEY":" ","HOUSE_NO":"５８９之６８號","E_COORD97":179341.95999999999,"N_COORD97":2554570.2999999998,"ADDRESS":"大社５８９之６８號","OBJECTID":118417},"geometry":{"x":179341.95999999996,"y":2554570.2999999989}},{"attributes":{"ID":118418,"DIS_CODE":0,"TOWNNAME":"新市區","LI":"大社里","LIN":"35鄰","STREET":" ","SECT":" ","MAREA":"大社","LANE":" ","ALLEY":" ","HOUSE_NO":"５８９之１５號","E_COORD97":179305.88,"N_COORD97":2554508.0499999998,"ADDRESS":"大社５８９之１５號","OBJECTID":118418},"geometry":{"x":179305.88000000082,"y":2554508.0500000026}},{"attributes":{"ID":118419,"DIS_CODE":0,"TOWNNAME":"新市區","LI":"大社里","LIN":"35鄰","STREET":" ","SECT":" ","MAREA":"大社","LANE":" ","ALLEY":" ","HOUSE_NO":"５８９之９７號","E_COORD97":179395.82000000001,"N_COORD97":2554595.0499999998,"ADDRESS":"大社５８９之９７號","OBJECTID":118419},"geometry":{"x":179395.8200000003,"y":2554595.0500000007}},{"attributes":{"ID":118420,"DIS_CODE":0,"TOWNNAME":"仁德區","LI":"仁德里","LIN":"35鄰","STREET":"文山路","SECT":" ","MAREA":" ","LANE":" ","ALLEY":" ","HOUSE_NO":"８３號","E_COORD97":172841.09,"N_COORD97":2541709.0699999998,"ADDRESS":"文山路８３號","OBJECTID":118420},"geometry":{"x":172841.09000000078,"y":2541709.0700000022}},{"attributes":{"ID":118421,"DIS_CODE":0,"TOWNNAME":"新市區","LI":"大社里","LIN":"35鄰","STREET":" ","SECT":" ","MAREA":"大社","LANE":" ","ALLEY":" ","HOUSE_NO":"５８９之３４號","E_COORD97":179331.82000000001,"N_COORD97":2554495.2999999998,"ADDRESS":"大社５８９之３４號","OBJECTID":118421},"geometry":{"x":179331.81999999937,"y":2554495.3000000007}},{"attributes":{"ID":118422,"DIS_CODE":0,"TOWNNAME":"新市區","LI":"大社里","LIN":"35鄰","STREET":" ","SECT":" ","MAREA":"大社","LANE":" ","ALLEY":" ","HOUSE_NO":"５８９之９４號","E_COORD97":179399.01999999999,"N_COORD97":2554616.7999999998,"ADDRESS":"大社５８９之９４號","OBJECTID":118422},"geometry":{"x":179399.01999999955,"y":2554616.8000000007}},{"attributes":{"ID":118423,"DIS_CODE":0,"TOWNNAME":"南化區","LI":"中坑里","LIN":"5鄰","STREET":" ","SECT":" ","MAREA":"中坑","LANE":" ","ALLEY":" ","HOUSE_NO":"３８之６號","E_COORD97":193660.23000000001,"N_COORD97":2549465.6800000002,"ADDRESS":"中坑３８之６號","OBJECTID":118423},"geometry":{"x":193660.23000000045,"y":2549465.6800000016}},{"attributes":{"ID":118424,"DIS_CODE":0,"TOWNNAME":"南化區","LI":"小崙里","LIN":"5鄰","STREET":" ","SECT":" ","MAREA":"小崙","LANE":" ","ALLEY":" ","HOUSE_NO":"５１之８號","E_COORD97":197215.23000000001,"N_COORD97":2549542.8599999999,"ADDRESS":"小崙５１之８號","OBJECTID":118424},"geometry":{"x":197215.23000000231,"y":2549542.8599999994}},{"attributes":{"ID":118425,"DIS_CODE":0,"TOWNNAME":"將軍區","LI":"三吉里","LIN":"6鄰","STREET":" ","SECT":" ","MAREA":"三吉","LANE":" ","ALLEY":" ","HOUSE_NO":"３９之３２號","E_COORD97":161234.89000000001,"N_COORD97":2567341.52,"ADDRESS":"三吉３９之３２號","OBJECTID":118425},"geometry":{"x":161234.8900000006,"y":2567341.5199999996}},{"attributes":{"ID":118426,"DIS_CODE":0,"TOWNNAME":"安南區","LI":"新順里","LIN":"23鄰","STREET":"安和路","SECT":"二段","MAREA":" ","LANE":"２８５巷","ALLEY":"１６弄","HOUSE_NO":"２１號","E_COORD97":169574.78,"N_COORD97":2549250.3500000001,"ADDRESS":"安和路二段２８５巷１６弄２１號","OBJECTID":118426},"geometry":{"x":169574.78000000119,"y":2549250.3500000015}},{"attributes":{"ID":118427,"DIS_CODE":0,"TOWNNAME":"新市區","LI":"大社里","LIN":"35鄰","STREET":" ","SECT":" ","MAREA":"大社","LANE":" ","ALLEY":" ","HOUSE_NO":"５８９之８６號","E_COORD97":179386.82000000001,"N_COORD97":2554605.5499999998,"ADDRESS":"大社５８９之８６號","OBJECTID":118427},"geometry":{"x":179386.82000000123,"y":2554605.5500000007}},{"attributes":{"ID":118428,"DIS_CODE":0,"TOWNNAME":"新市區","LI":"大社里","LIN":"35鄰","STREET":" ","SECT":" ","MAREA":"大社","LANE":" ","ALLEY":" ","HOUSE_NO":"５８９之４６號","E_COORD97":179320.31,"N_COORD97":2554573.2999999998,"ADDRESS":"大社５８９之４６號","OBJECTID":118428},"geometry":{"x":179320.30999999959,"y":2554573.3000000007}},{"attributes":{"ID":118429,"DIS_CODE":0,"TOWNNAME":"新營區","LI":"民榮里","LIN":"15鄰","STREET":"復興路","SECT":" ","MAREA":" ","LANE":" ","ALLEY":" ","HOUSE_NO":"２５１之１號","E_COORD97":178804.04000000001,"N_COORD97":2578074.5499999998,"ADDRESS":"復興路２５１之１號","OBJECTID":118429},"geometry":{"x":178804.04000000004,"y":2578074.5500000026}},{"attributes":{"ID":118430,"DIS_CODE":0,"TOWNNAME":"安南區","LI":"新順里","LIN":"23鄰","STREET":"安和路","SECT":"二段","MAREA":" ","LANE":"２８５巷","ALLEY":"１６弄","HOUSE_NO":"２３號","E_COORD97":169571.06,"N_COORD97":2549252.0499999998,"ADDRESS":"安和路二段２８５巷１６弄２３號","OBJECTID":118430},"geometry":{"x":169571.06000000052,"y":2549252.0500000007}},{"attributes":{"ID":118431,"DIS_CODE":0,"TOWNNAME":"安南區","LI":"新順里","LIN":"23鄰","STREET":"安和路","SECT":"二段","MAREA":" ","LANE":"２８５巷","ALLEY":"１６弄","HOUSE_NO":"２５號","E_COORD97":169566.57000000001,"N_COORD97":2549252.98,"ADDRESS":"安和路二段２８５巷１６弄２５號","OBJECTID":118431},"geometry":{"x":169566.57000000123,"y":2549252.9800000042}},{"attributes":{"ID":118432,"DIS_CODE":0,"TOWNNAME":"新市區","LI":"新和里","LIN":"35鄰","STREET":"仁愛街","SECT":" ","MAREA":" ","LANE":" ","ALLEY":" ","HOUSE_NO":"２１１號","E_COORD97":177599.28,"N_COORD97":2552829.2799999998,"ADDRESS":"仁愛街２１１號","OBJECTID":118432},"geometry":{"x":177599.28000000026,"y":2552829.2799999993}},{"attributes":{"ID":118433,"DIS_CODE":0,"TOWNNAME":"安南區","LI":"新順里","LIN":"23鄰","STREET":"安和路","SECT":"二段","MAREA":" ","LANE":"２８５巷","ALLEY":"１６弄","HOUSE_NO":"２７號","E_COORD97":169562.07999999999,"N_COORD97":2549254.3799999999,"ADDRESS":"安和路二段２８５巷１６弄２７號","OBJECTID":118433},"geometry":{"x":169562.07999999914,"y":2549254.379999999}},{"attributes":{"ID":118434,"DIS_CODE":0,"TOWNNAME":"安南區","LI":"新順里","LIN":"23鄰","STREET":"安和路","SECT":"二段","MAREA":" ","LANE":"２８５巷","ALLEY":"１６弄","HOUSE_NO":"２９號","E_COORD97":169557.89999999999,"N_COORD97":2549254.6899999999,"ADDRESS":"安和路二段２８５巷１６弄２９號","OBJECTID":118434},"geometry":{"x":169557.90000000037,"y":2549254.6900000013}},{"attributes":{"ID":118435,"DIS_CODE":0,"TOWNNAME":"新市區","LI":"大社里","LIN":"35鄰","STREET":" ","SECT":" ","MAREA":"大社","LANE":" ","ALLEY":" ","HOUSE_NO":"５８９之３號","E_COORD97":179275.82000000001,"N_COORD97":2554551.2999999998,"ADDRESS":"大社５８９之３號","OBJECTID":118435},"geometry":{"x":179275.81999999937,"y":2554551.3000000026}},{"attributes":{"ID":118436,"DIS_CODE":0,"TOWNNAME":"安南區","LI":"新順里","LIN":"23鄰","STREET":"安和路","SECT":"二段","MAREA":" ","LANE":"２８５巷","ALLEY":"１６弄","HOUSE_NO":"３１號","E_COORD97":169553.56,"N_COORD97":2549255.46,"ADDRESS":"安和路二段２８５巷１６弄３１號","OBJECTID":118436},"geometry":{"x":169553.56000000052,"y":2549255.4600000009}},{"attributes":{"ID":118437,"DIS_CODE":0,"TOWNNAME":"安南區","LI":"新順里","LIN":"23鄰","STREET":"安和路","SECT":"二段","MAREA":" ","LANE":"２８５巷","ALLEY":"１６弄","HOUSE_NO":"３３號","E_COORD97":169548.92000000001,"N_COORD97":2549256.7000000002,"ADDRESS":"安和路二段２８５巷１６弄３３號","OBJECTID":118437},"geometry":{"x":169548.91999999993,"y":2549256.6999999974}},{"attributes":{"ID":118438,"DIS_CODE":0,"TOWNNAME":"安南區","LI":"新順里","LIN":"23鄰","STREET":"安和路","SECT":"二段","MAREA":" ","LANE":"２８５巷","ALLEY":"１６弄","HOUSE_NO":"３５號","E_COORD97":169545.20000000001,"N_COORD97":2549257.7799999998,"ADDRESS":"安和路二段２８５巷１６弄３５號","OBJECTID":118438},"geometry":{"x":169545.20000000112,"y":2549257.7800000012}},{"attributes":{"ID":118439,"DIS_CODE":0,"TOWNNAME":"新市區","LI":"大社里","LIN":"35鄰","STREET":" ","SECT":" ","MAREA":"大社","LANE":" ","ALLEY":" ","HOUSE_NO":"５８９號","E_COORD97":179266.26999999999,"N_COORD97":2554561.75,"ADDRESS":"大社５８９號","OBJECTID":118439},"geometry":{"x":179266.26999999955,"y":2554561.75}},{"attributes":{"ID":118440,"DIS_CODE":0,"TOWNNAME":"新市區","LI":"大社里","LIN":"35鄰","STREET":" ","SECT":" ","MAREA":"大社","LANE":" ","ALLEY":" ","HOUSE_NO":"５８９之１８號","E_COORD97":179312.82000000001,"N_COORD97":2554497.2999999998,"ADDRESS":"大社５８９之１８號","OBJECTID":118440},"geometry":{"x":179312.8200000003,"y":2554497.3000000026}},{"attributes":{"ID":118441,"DIS_CODE":0,"TOWNNAME":"安南區","LI":"新順里","LIN":"23鄰","STREET":"安和路","SECT":"二段","MAREA":" ","LANE":"２８５巷","ALLEY":"１６弄","HOUSE_NO":"３７號","E_COORD97":169540.23999999999,"N_COORD97":2549259.02,"ADDRESS":"安和路二段２８５巷１６弄３７號","OBJECTID":118441},"geometry":{"x":169540.24000000022,"y":2549259.0200000014}},{"attributes":{"ID":118442,"DIS_CODE":0,"TOWNNAME":"安南區","LI":"新順里","LIN":"23鄰","STREET":"安和路","SECT":"二段","MAREA":" ","LANE":"２８５巷","ALLEY":"１６弄","HOUSE_NO":"３９號","E_COORD97":169536.37,"N_COORD97":2549260.1000000001,"ADDRESS":"安和路二段２８５巷１６弄３９號","OBJECTID":118442},"geometry":{"x":169536.37000000011,"y":2549260.0999999996}},{"attributes":{"ID":118443,"DIS_CODE":0,"TOWNNAME":"新市區","LI":"大社里","LIN":"35鄰","STREET":" ","SECT":" ","MAREA":"大社","LANE":" ","ALLEY":" ","HOUSE_NO":"５８９之９６號","E_COORD97":179401.92999999999,"N_COORD97":2554619.7999999998,"ADDRESS":"大社５８９之９６號","OBJECTID":118443},"geometry":{"x":179401.93000000063,"y":2554619.8000000007}},{"attributes":{"ID":118444,"DIS_CODE":0,"TOWNNAME":"安南區","LI":"新順里","LIN":"23鄰","STREET":"安和路","SECT":"二段","MAREA":" ","LANE":"２８５巷","ALLEY":"１６弄","HOUSE_NO":"４１號","E_COORD97":169531.41,"N_COORD97":2549261.1800000002,"ADDRESS":"安和路二段２８５巷１６弄４１號","OBJECTID":118444},"geometry":{"x":169531.41000000108,"y":2549261.1800000016}},{"attributes":{"ID":118445,"DIS_CODE":0,"TOWNNAME":"新市區","LI":"大社里","LIN":"35鄰","STREET":" ","SECT":" ","MAREA":"大社","LANE":" ","ALLEY":" ","HOUSE_NO":"５８９之１１１號","E_COORD97":179417.84,"N_COORD97":2554615.5499999998,"ADDRESS":"大社５８９之１１１號","OBJECTID":118445},"geometry":{"x":179417.84000000171,"y":2554615.5500000007}},{"attributes":{"ID":118446,"DIS_CODE":0,"TOWNNAME":"安南區","LI":"新順里","LIN":"23鄰","STREET":"安和路","SECT":"二段","MAREA":" ","LANE":"２８５巷","ALLEY":"１６弄","HOUSE_NO":"４３號","E_COORD97":169526.92000000001,"N_COORD97":2549263.6600000001,"ADDRESS":"安和路二段２８５巷１６弄４３號","OBJECTID":118446},"geometry":{"x":169526.91999999993,"y":2549263.6600000001}},{"attributes":{"ID":118447,"DIS_CODE":0,"TOWNNAME":"安南區","LI":"新順里","LIN":"23鄰","STREET":"安和路","SECT":"二段","MAREA":" ","LANE":"２８５巷","ALLEY":"１６弄","HOUSE_NO":"２號","E_COORD97":169624.64999999999,"N_COORD97":2549259.48,"ADDRESS":"安和路二段２８５巷１６弄２號","OBJECTID":118447},"geometry":{"x":169624.64999999944,"y":2549259.4800000042}},{"attributes":{"ID":118448,"DIS_CODE":0,"TOWNNAME":"安南區","LI":"新順里","LIN":"23鄰","STREET":"安和路","SECT":"二段","MAREA":" ","LANE":"２８５巷","ALLEY":"１６弄","HOUSE_NO":"６號","E_COORD97":169619.85000000001,"N_COORD97":2549260.5600000001,"ADDRESS":"安和路二段２８５巷１６弄６號","OBJECTID":118448},"geometry":{"x":169619.85000000056,"y":2549260.5600000024}},{"attributes":{"ID":118449,"DIS_CODE":0,"TOWNNAME":"安南區","LI":"新順里","LIN":"23鄰","STREET":"安和路","SECT":"二段","MAREA":" ","LANE":"２８５巷","ALLEY":"１６弄","HOUSE_NO":"８號","E_COORD97":169615.67000000001,"N_COORD97":2549261.96,"ADDRESS":"安和路二段２８５巷１６弄８號","OBJECTID":118449},"geometry":{"x":169615.67000000179,"y":2549261.9600000009}},{"attributes":{"ID":118450,"DIS_CODE":0,"TOWNNAME":"永康區","LI":"復國里","LIN":"6鄰","STREET":"復華三街","SECT":" ","MAREA":" ","LANE":"７６巷","ALLEY":" ","HOUSE_NO":"３１號","E_COORD97":172636.78,"N_COORD97":2545626.0299999998,"ADDRESS":"復華三街７６巷３１號","OBJECTID":118450},"geometry":{"x":172636.78000000119,"y":2545626.0299999993}},{"attributes":{"ID":118451,"DIS_CODE":0,"TOWNNAME":"將軍區","LI":"三吉里","LIN":"1鄰","STREET":" ","SECT":" ","MAREA":"三吉","LANE":" ","ALLEY":" ","HOUSE_NO":"１之２３號","E_COORD97":161412.19,"N_COORD97":2567813.5899999999,"ADDRESS":"三吉１之２３號","OBJECTID":118451},"geometry":{"x":161412.19000000134,"y":2567813.589999998}},{"attributes":{"ID":118452,"DIS_CODE":0,"TOWNNAME":"將軍區","LI":"三吉里","LIN":"1鄰","STREET":" ","SECT":" ","MAREA":"三吉","LANE":" ","ALLEY":" ","HOUSE_NO":"３之６號","E_COORD97":161335.01999999999,"N_COORD97":2567733.3100000001,"ADDRESS":"三吉３之６號","OBJECTID":118452},"geometry":{"x":161335.01999999955,"y":2567733.3100000005}},{"attributes":{"ID":118453,"DIS_CODE":0,"TOWNNAME":"將軍區","LI":"三吉里","LIN":"1鄰","STREET":" ","SECT":" ","MAREA":"三吉","LANE":" ","ALLEY":" ","HOUSE_NO":"３號","E_COORD97":161372.29000000001,"N_COORD97":2567737.4700000002,"ADDRESS":"三吉３號","OBJECTID":118453},"geometry":{"x":161372.29000000004,"y":2567737.4700000044}},{"attributes":{"ID":118454,"DIS_CODE":0,"TOWNNAME":"將軍區","LI":"三吉里","LIN":"6鄰","STREET":" ","SECT":" ","MAREA":"三吉","LANE":" ","ALLEY":" ","HOUSE_NO":"３９之１號","E_COORD97":161143.66,"N_COORD97":2567067.0499999998,"ADDRESS":"三吉３９之１號","OBJECTID":118454},"geometry":{"x":161143.66000000108,"y":2567067.0500000026}},{"attributes":{"ID":118455,"DIS_CODE":0,"TOWNNAME":"將軍區","LI":"三吉里","LIN":"6鄰","STREET":" ","SECT":" ","MAREA":"三吉","LANE":" ","ALLEY":" ","HOUSE_NO":"３９之３１號","E_COORD97":161265.51999999999,"N_COORD97":2567394.1699999999,"ADDRESS":"三吉３９之３１號","OBJECTID":118455},"geometry":{"x":161265.51999999955,"y":2567394.1700000018}},{"attributes":{"ID":118456,"DIS_CODE":0,"TOWNNAME":"仁德區","LI":"仁德里","LIN":"35鄰","STREET":"裕華三街","SECT":" ","MAREA":" ","LANE":" ","ALLEY":" ","HOUSE_NO":"３１８號","E_COORD97":172728.72,"N_COORD97":2541725.9900000002,"ADDRESS":"裕華三街３１８號","OBJECTID":118456},"geometry":{"x":172728.71999999974,"y":2541725.9900000039}},{"attributes":{"ID":118457,"DIS_CODE":0,"TOWNNAME":"仁德區","LI":"仁德里","LIN":"35鄰","STREET":"裕華三街","SECT":" ","MAREA":" ","LANE":" ","ALLEY":" ","HOUSE_NO":"３１２號","E_COORD97":172719.75,"N_COORD97":2541729.2400000002,"ADDRESS":"裕華三街３１２號","OBJECTID":118457},"geometry":{"x":172719.75000000093,"y":2541729.2400000021}},{"attributes":{"ID":118458,"DIS_CODE":0,"TOWNNAME":"將軍區","LI":"三吉里","LIN":"6鄰","STREET":" ","SECT":" ","MAREA":"三吉","LANE":" ","ALLEY":" ","HOUSE_NO":"４０之１號","E_COORD97":161117.92000000001,"N_COORD97":2566999.77,"ADDRESS":"三吉４０之１號","OBJECTID":118458},"geometry":{"x":161117.92000000086,"y":2566999.7700000014}},{"attributes":{"ID":118459,"DIS_CODE":0,"TOWNNAME":"將軍區","LI":"三吉里","LIN":"6鄰","STREET":" ","SECT":" ","MAREA":"三吉","LANE":" ","ALLEY":" ","HOUSE_NO":"４０號","E_COORD97":161094.95000000001,"N_COORD97":2566995.1800000002,"ADDRESS":"三吉４０號","OBJECTID":118459},"geometry":{"x":161094.95000000019,"y":2566995.1799999997}},{"attributes":{"ID":118460,"DIS_CODE":0,"TOWNNAME":"官田區","LI":"大崎里","LIN":"12鄰","STREET":" ","SECT":" ","MAREA":"大井","LANE":" ","ALLEY":" ","HOUSE_NO":"１５號","E_COORD97":188561.16,"N_COORD97":2564360.7999999998,"ADDRESS":"大井１５號","OBJECTID":118460},"geometry":{"x":188561.16000000015,"y":2564360.8000000007}},{"attributes":{"ID":118461,"DIS_CODE":0,"TOWNNAME":"官田區","LI":"大崎里","LIN":"11鄰","STREET":" ","SECT":" ","MAREA":"大井","LANE":" ","ALLEY":" ","HOUSE_NO":"１號之１","E_COORD97":188934.35999999999,"N_COORD97":2565733.21,"ADDRESS":"大井１號之１","OBJECTID":118461},"geometry":{"x":188934.36000000034,"y":2565733.2100000028}},{"attributes":{"ID":118462,"DIS_CODE":0,"TOWNNAME":"官田區","LI":"大崎里","LIN":"11鄰","STREET":" ","SECT":" ","MAREA":"大井","LANE":" ","ALLEY":" ","HOUSE_NO":"１號","E_COORD97":188426.14999999999,"N_COORD97":2564405.1600000001,"ADDRESS":"大井１號","OBJECTID":118462},"geometry":{"x":188426.15000000224,"y":2564405.1600000001}},{"attributes":{"ID":118463,"DIS_CODE":0,"TOWNNAME":"仁德區","LI":"仁德里","LIN":"35鄰","STREET":"文山路","SECT":" ","MAREA":" ","LANE":" ","ALLEY":" ","HOUSE_NO":"１４１號","E_COORD97":172806.63,"N_COORD97":2541728.0699999998,"ADDRESS":"文山路１４１號","OBJECTID":118463},"geometry":{"x":172806.63000000082,"y":2541728.0700000003}},{"attributes":{"ID":118464,"DIS_CODE":0,"TOWNNAME":"官田區","LI":"大崎里","LIN":"4鄰","STREET":" ","SECT":" ","MAREA":"大崎","LANE":" ","ALLEY":" ","HOUSE_NO":"２８號","E_COORD97":185615.79000000001,"N_COORD97":2565503.6400000001,"ADDRESS":"大崎２８號","OBJECTID":118464},"geometry":{"x":185615.78999999911,"y":2565503.6400000025}},{"attributes":{"ID":118465,"DIS_CODE":0,"TOWNNAME":"官田區","LI":"大崎里","LIN":"4鄰","STREET":" ","SECT":" ","MAREA":"大崎","LANE":" ","ALLEY":" ","HOUSE_NO":"２９號","E_COORD97":185622.73999999999,"N_COORD97":2565514.8300000001,"ADDRESS":"大崎２９號","OBJECTID":118465},"geometry":{"x":185622.74000000022,"y":2565514.8300000019}},{"attributes":{"ID":118466,"DIS_CODE":0,"TOWNNAME":"後壁區","LI":"崁頂里","LIN":"6鄰","STREET":" ","SECT":" ","MAREA":"崁頂","LANE":" ","ALLEY":" ","HOUSE_NO":"６０號","E_COORD97":183088.19,"N_COORD97":2586641.8700000001,"ADDRESS":"崁頂６０號","OBJECTID":118466},"geometry":{"x":183088.19000000134,"y":2586641.870000001}},{"attributes":{"ID":118467,"DIS_CODE":0,"TOWNNAME":"官田區","LI":"大崎里","LIN":"4鄰","STREET":" ","SECT":" ","MAREA":"大崎","LANE":" ","ALLEY":" ","HOUSE_NO":"３０號之１","E_COORD97":185593.76000000001,"N_COORD97":2565552.6800000002,"ADDRESS":"大崎３０號之１","OBJECTID":118467},"geometry":{"x":185593.76000000164,"y":2565552.6800000016}},{"attributes":{"ID":118468,"DIS_CODE":0,"TOWNNAME":"安南區","LI":"新順里","LIN":"23鄰","STREET":"安和路","SECT":"二段","MAREA":" ","LANE":"２８５巷","ALLEY":"１６弄","HOUSE_NO":"１０號","E_COORD97":169611.64000000001,"N_COORD97":2549263.3500000001,"ADDRESS":"安和路二段２８５巷１６弄１０號","OBJECTID":118468},"geometry":{"x":169611.63999999966,"y":2549263.3500000015}},{"attributes":{"ID":118469,"DIS_CODE":0,"TOWNNAME":"官田區","LI":"大崎里","LIN":"4鄰","STREET":" ","SECT":" ","MAREA":"大崎","LANE":" ","ALLEY":" ","HOUSE_NO":"３０號之６","E_COORD97":185572.17999999999,"N_COORD97":2565557.3500000001,"ADDRESS":"大崎３０號之６","OBJECTID":118469},"geometry":{"x":185572.18000000156,"y":2565557.3500000034}},{"attributes":{"ID":118470,"DIS_CODE":0,"TOWNNAME":"官田區","LI":"大崎里","LIN":"4鄰","STREET":" ","SECT":" ","MAREA":"大崎","LANE":" ","ALLEY":" ","HOUSE_NO":"３０號","E_COORD97":185619.92999999999,"N_COORD97":2565541.3100000001,"ADDRESS":"大崎３０號","OBJECTID":118470},"geometry":{"x":185619.93000000063,"y":2565541.3100000042}},{"attributes":{"ID":118471,"DIS_CODE":0,"TOWNNAME":"官田區","LI":"大崎里","LIN":"4鄰","STREET":" ","SECT":" ","MAREA":"大崎","LANE":" ","ALLEY":" ","HOUSE_NO":"３１號","E_COORD97":188660.54999999999,"N_COORD97":2566552.4700000002,"ADDRESS":"大崎３１號","OBJECTID":118471},"geometry":{"x":188660.55000000075,"y":2566552.4700000025}},{"attributes":{"ID":118472,"DIS_CODE":0,"TOWNNAME":"官田區","LI":"大崎里","LIN":"4鄰","STREET":" ","SECT":" ","MAREA":"大崎","LANE":" ","ALLEY":" ","HOUSE_NO":"３２號","E_COORD97":188710.20999999999,"N_COORD97":2566623.71,"ADDRESS":"大崎３２號","OBJECTID":118472},"geometry":{"x":188710.21000000089,"y":2566623.7100000009}},{"attributes":{"ID":118473,"DIS_CODE":0,"TOWNNAME":"安南區","LI":"新順里","LIN":"23鄰","STREET":"安和路","SECT":"二段","MAREA":" ","LANE":"２８５巷","ALLEY":"１６弄","HOUSE_NO":"１２號","E_COORD97":169606.98999999999,"N_COORD97":2549264.4300000002,"ADDRESS":"安和路二段２８５巷１６弄１２號","OBJECTID":118473},"geometry":{"x":169606.99000000209,"y":2549264.4299999997}},{"attributes":{"ID":118474,"DIS_CODE":0,"TOWNNAME":"官田區","LI":"大崎里","LIN":"4鄰","STREET":" ","SECT":" ","MAREA":"大崎","LANE":" ","ALLEY":" ","HOUSE_NO":"３３號之１","E_COORD97":185634.51000000001,"N_COORD97":2565562.8900000001,"ADDRESS":"大崎３３號之１","OBJECTID":118474},"geometry":{"x":185634.51000000164,"y":2565562.8900000025}},{"attributes":{"ID":118475,"DIS_CODE":0,"TOWNNAME":"官田區","LI":"大崎里","LIN":"4鄰","STREET":" ","SECT":" ","MAREA":"大崎","LANE":" ","ALLEY":" ","HOUSE_NO":"３３號之２","E_COORD97":185639.66,"N_COORD97":2565562.75,"ADDRESS":"大崎３３號之２","OBJECTID":118475},"geometry":{"x":185639.66000000108,"y":2565562.7500000019}},{"attributes":{"ID":118476,"DIS_CODE":0,"TOWNNAME":"官田區","LI":"大崎里","LIN":"4鄰","STREET":" ","SECT":" ","MAREA":"大崎","LANE":" ","ALLEY":" ","HOUSE_NO":"３３號之３","E_COORD97":185644.82000000001,"N_COORD97":2565562.6000000001,"ADDRESS":"大崎３３號之３","OBJECTID":118476},"geometry":{"x":185644.82000000216,"y":2565562.6000000015}},{"attributes":{"ID":118477,"DIS_CODE":0,"TOWNNAME":"官田區","LI":"大崎里","LIN":"4鄰","STREET":" ","SECT":" ","MAREA":"大崎","LANE":" ","ALLEY":" ","HOUSE_NO":"３３號","E_COORD97":185641.32000000001,"N_COORD97":2565550.2999999998,"ADDRESS":"大崎３３號","OBJECTID":118477},"geometry":{"x":185641.32000000216,"y":2565550.3000000007}},{"attributes":{"ID":118478,"DIS_CODE":0,"TOWNNAME":"官田區","LI":"大崎里","LIN":"8鄰","STREET":" ","SECT":" ","MAREA":"大崎","LANE":" ","ALLEY":" ","HOUSE_NO":"６２號之１","E_COORD97":185808.54000000001,"N_COORD97":2565106.5499999998,"ADDRESS":"大崎６２號之１","OBJECTID":118478},"geometry":{"x":185808.54000000004,"y":2565106.5500000026}},{"attributes":{"ID":118479,"DIS_CODE":0,"TOWNNAME":"官田區","LI":"大崎里","LIN":"8鄰","STREET":" ","SECT":" ","MAREA":"大崎","LANE":" ","ALLEY":" ","HOUSE_NO":"６２號","E_COORD97":185785.73000000001,"N_COORD97":2565099.7599999998,"ADDRESS":"大崎６２號","OBJECTID":118479},"geometry":{"x":185785.73000000045,"y":2565099.7599999998}},{"attributes":{"ID":118480,"DIS_CODE":0,"TOWNNAME":"安南區","LI":"新順里","LIN":"23鄰","STREET":"安和路","SECT":"二段","MAREA":" ","LANE":"２８５巷","ALLEY":"１６弄","HOUSE_NO":"１６號","E_COORD97":169602.35000000001,"N_COORD97":2549265.0499999998,"ADDRESS":"安和路二段２８５巷１６弄１６號","OBJECTID":118480},"geometry":{"x":169602.35000000149,"y":2549265.0500000007}},{"attributes":{"ID":118481,"DIS_CODE":0,"TOWNNAME":"官田區","LI":"大崎里","LIN":"8鄰","STREET":" ","SECT":" ","MAREA":"大崎","LANE":" ","ALLEY":" ","HOUSE_NO":"６４號","E_COORD97":186618.60999999999,"N_COORD97":2564073.1400000001,"ADDRESS":"大崎６４號","OBJECTID":118481},"geometry":{"x":186618.61000000034,"y":2564073.1400000006}},{"attributes":{"ID":118482,"DIS_CODE":0,"TOWNNAME":"官田區","LI":"大崎里","LIN":"8鄰","STREET":" ","SECT":" ","MAREA":"大崎","LANE":" ","ALLEY":" ","HOUSE_NO":"６６號之１１","E_COORD97":185892.79000000001,"N_COORD97":2565223.1499999999,"ADDRESS":"大崎６６號之１１","OBJECTID":118482},"geometry":{"x":185892.79000000097,"y":2565223.1500000004}},{"attributes":{"ID":118483,"DIS_CODE":0,"TOWNNAME":"官田區","LI":"大崎里","LIN":"8鄰","STREET":" ","SECT":" ","MAREA":"大崎","LANE":" ","ALLEY":" ","HOUSE_NO":"６６號之１２","E_COORD97":185894.76000000001,"N_COORD97":2565219.5099999998,"ADDRESS":"大崎６６號之１２","OBJECTID":118483},"geometry":{"x":185894.75999999978,"y":2565219.5099999998}},{"attributes":{"ID":118484,"DIS_CODE":0,"TOWNNAME":"官田區","LI":"大崎里","LIN":"8鄰","STREET":" ","SECT":" ","MAREA":"大崎","LANE":" ","ALLEY":" ","HOUSE_NO":"６６號之１３","E_COORD97":185897.01999999999,"N_COORD97":2565213.96,"ADDRESS":"大崎６６號之１３","OBJECTID":118484},"geometry":{"x":185897.02000000142,"y":2565213.9600000009}},{"attributes":{"ID":118485,"DIS_CODE":0,"TOWNNAME":"安南區","LI":"新順里","LIN":"23鄰","STREET":"安和路","SECT":"二段","MAREA":" ","LANE":"２８５巷","ALLEY":"１６弄","HOUSE_NO":"１８號","E_COORD97":169597.85000000001,"N_COORD97":2549266.6000000001,"ADDRESS":"安和路二段２８５巷１６弄１８號","OBJECTID":118485},"geometry":{"x":169597.85000000056,"y":2549266.5999999996}},{"attributes":{"ID":118486,"DIS_CODE":0,"TOWNNAME":"安南區","LI":"新順里","LIN":"23鄰","STREET":"安和路","SECT":"二段","MAREA":" ","LANE":"２８５巷","ALLEY":"１６弄","HOUSE_NO":"２０號","E_COORD97":169593.35999999999,"N_COORD97":2549267.3700000001,"ADDRESS":"安和路二段２８５巷１６弄２０號","OBJECTID":118486},"geometry":{"x":169593.36000000127,"y":2549267.370000001}},{"attributes":{"ID":118487,"DIS_CODE":0,"TOWNNAME":"官田區","LI":"大崎里","LIN":"8鄰","STREET":" ","SECT":" ","MAREA":"大崎","LANE":" ","ALLEY":" ","HOUSE_NO":"６６號之１４","E_COORD97":185899.79999999999,"N_COORD97":2565208.2599999998,"ADDRESS":"大崎６６號之１４","OBJECTID":118487},"geometry":{"x":185899.79999999981,"y":2565208.2599999998}},{"attributes":{"ID":118488,"DIS_CODE":0,"TOWNNAME":"官田區","LI":"大崎里","LIN":"8鄰","STREET":" ","SECT":" ","MAREA":"大崎","LANE":" ","ALLEY":" ","HOUSE_NO":"６６號之１５","E_COORD97":185871.62,"N_COORD97":2565236.2000000002,"ADDRESS":"大崎６６號之１５","OBJECTID":118488},"geometry":{"x":185871.62000000104,"y":2565236.2000000011}},{"attributes":{"ID":118489,"DIS_CODE":0,"TOWNNAME":"安南區","LI":"新順里","LIN":"23鄰","STREET":"安和路","SECT":"二段","MAREA":" ","LANE":"２８５巷","ALLEY":"１６弄","HOUSE_NO":"２２號","E_COORD97":169588.41,"N_COORD97":2549268.6099999999,"ADDRESS":"安和路二段２８５巷１６弄２２號","OBJECTID":118489},"geometry":{"x":169588.41000000015,"y":2549268.6100000013}},{"attributes":{"ID":118490,"DIS_CODE":0,"TOWNNAME":"仁德區","LI":"後壁里","LIN":"35鄰","STREET":"德洋二街","SECT":" ","MAREA":" ","LANE":" ","ALLEY":" ","HOUSE_NO":"４２號","E_COORD97":172389.26000000001,"N_COORD97":2539491.52,"ADDRESS":"德洋二街４２號","OBJECTID":118490},"geometry":{"x":172389.25999999978,"y":2539491.5200000014}},{"attributes":{"ID":118491,"DIS_CODE":0,"TOWNNAME":"安南區","LI":"新順里","LIN":"23鄰","STREET":"安和路","SECT":"二段","MAREA":" ","LANE":"２８５巷","ALLEY":"１６弄","HOUSE_NO":"２６號","E_COORD97":169584.54000000001,"N_COORD97":2549269.54,"ADDRESS":"安和路二段２８５巷１６弄２６號","OBJECTID":118491},"geometry":{"x":169584.5400000019,"y":2549269.540000001}},{"attributes":{"ID":118492,"DIS_CODE":0,"TOWNNAME":"仁德區","LI":"後壁里","LIN":"35鄰","STREET":"德洋二街","SECT":" ","MAREA":" ","LANE":" ","ALLEY":" ","HOUSE_NO":"３４號","E_COORD97":172372.95999999999,"N_COORD97":2539467.27,"ADDRESS":"德洋二街３４號","OBJECTID":118492},"geometry":{"x":172372.95999999996,"y":2539467.2699999996}},{"attributes":{"ID":118493,"DIS_CODE":0,"TOWNNAME":"安南區","LI":"新順里","LIN":"23鄰","STREET":"安和路","SECT":"二段","MAREA":" ","LANE":"２８５巷","ALLEY":"１６弄","HOUSE_NO":"２８號","E_COORD97":169580.51000000001,"N_COORD97":2549270.6200000001,"ADDRESS":"安和路二段２８５巷１６弄２８號","OBJECTID":118493},"geometry":{"x":169580.50999999978,"y":2549270.6200000029}},{"attributes":{"ID":118494,"DIS_CODE":0,"TOWNNAME":"安南區","LI":"新順里","LIN":"23鄰","STREET":"安和路","SECT":"二段","MAREA":" ","LANE":"２８５巷","ALLEY":"１６弄","HOUSE_NO":"３０號","E_COORD97":169575.70999999999,"N_COORD97":2549272.0099999998,"ADDRESS":"安和路二段２８５巷１６弄３０號","OBJECTID":118494},"geometry":{"x":169575.70999999996,"y":2549272.0099999979}},{"attributes":{"ID":118495,"DIS_CODE":0,"TOWNNAME":"仁德區","LI":"後壁里","LIN":"35鄰","STREET":"德洋二街","SECT":" ","MAREA":" ","LANE":" ","ALLEY":" ","HOUSE_NO":"３０號","E_COORD97":172373.17999999999,"N_COORD97":2539458.7599999998,"ADDRESS":"德洋二街３０號","OBJECTID":118495},"geometry":{"x":172373.1799999997,"y":2539458.7600000035}},{"attributes":{"ID":118496,"DIS_CODE":0,"TOWNNAME":"安南區","LI":"新順里","LIN":"23鄰","STREET":"安和路","SECT":"二段","MAREA":" ","LANE":"２８５巷","ALLEY":"１６弄","HOUSE_NO":"３２號","E_COORD97":169571.67999999999,"N_COORD97":2549272.79,"ADDRESS":"安和路二段２８５巷１６弄３２號","OBJECTID":118496},"geometry":{"x":169571.68000000063,"y":2549272.7899999972}},{"attributes":{"ID":118497,"DIS_CODE":0,"TOWNNAME":"安南區","LI":"新順里","LIN":"23鄰","STREET":"安和路","SECT":"二段","MAREA":" ","LANE":"２８５巷","ALLEY":"１６弄","HOUSE_NO":"３６號","E_COORD97":169567.19,"N_COORD97":2549274.3399999999,"ADDRESS":"安和路二段２８５巷１６弄３６號","OBJECTID":118497},"geometry":{"x":169567.19000000134,"y":2549274.3400000017}},{"attributes":{"ID":118498,"DIS_CODE":0,"TOWNNAME":"安南區","LI":"新順里","LIN":"23鄰","STREET":"安和路","SECT":"二段","MAREA":" ","LANE":"２８５巷","ALLEY":"１６弄","HOUSE_NO":"３８號","E_COORD97":169562.85000000001,"N_COORD97":2549275.2599999998,"ADDRESS":"安和路二段２８５巷１６弄３８號","OBJECTID":118498},"geometry":{"x":169562.84999999963,"y":2549275.2600000016}},{"attributes":{"ID":118499,"DIS_CODE":0,"TOWNNAME":"仁德區","LI":"後壁里","LIN":"35鄰","STREET":"德洋二街","SECT":" ","MAREA":" ","LANE":" ","ALLEY":" ","HOUSE_NO":"２２號","E_COORD97":172375.04000000001,"N_COORD97":2539435.0099999998,"ADDRESS":"德洋二街２２號","OBJECTID":118499},"geometry":{"x":172375.04000000097,"y":2539435.0100000016}},{"attributes":{"ID":118500,"DIS_CODE":0,"TOWNNAME":"安南區","LI":"新順里","LIN":"23鄰","STREET":"安和路","SECT":"二段","MAREA":" ","LANE":"２８５巷","ALLEY":"１６弄","HOUSE_NO":"４０號","E_COORD97":169558.04999999999,"N_COORD97":2549275.8799999999,"ADDRESS":"安和路二段２８５巷１６弄４０號","OBJECTID":118500},"geometry":{"x":169558.04999999981,"y":2549275.8800000027}},{"attributes":{"ID":118501,"DIS_CODE":0,"TOWNNAME":"安南區","LI":"新順里","LIN":"23鄰","STREET":"安和路","SECT":"二段","MAREA":" ","LANE":"２８５巷","ALLEY":"１６弄","HOUSE_NO":"４２號","E_COORD97":169553.72,"N_COORD97":2549276.8100000001,"ADDRESS":"安和路二段２８５巷１６弄４２號","OBJECTID":118501},"geometry":{"x":169553.71999999974,"y":2549276.8100000005}},{"attributes":{"ID":118502,"DIS_CODE":0,"TOWNNAME":"仁德區","LI":"後壁里","LIN":"35鄰","STREET":"德洋二街","SECT":" ","MAREA":" ","LANE":" ","ALLEY":" ","HOUSE_NO":"１６號","E_COORD97":172386.88,"N_COORD97":2539424.5099999998,"ADDRESS":"德洋二街１６號","OBJECTID":118502},"geometry":{"x":172386.87999999989,"y":2539424.5100000016}},{"attributes":{"ID":118503,"DIS_CODE":0,"TOWNNAME":"仁德區","LI":"後壁里","LIN":"35鄰","STREET":"德洋二街","SECT":" ","MAREA":" ","LANE":" ","ALLEY":" ","HOUSE_NO":"３２號","E_COORD97":172372.98000000001,"N_COORD97":2539463.2599999998,"ADDRESS":"德洋二街３２號","OBJECTID":118503},"geometry":{"x":172372.98000000138,"y":2539463.2600000016}},{"attributes":{"ID":118504,"DIS_CODE":0,"TOWNNAME":"仁德區","LI":"後壁里","LIN":"35鄰","STREET":"德洋二街","SECT":" ","MAREA":" ","LANE":" ","ALLEY":" ","HOUSE_NO":"６號","E_COORD97":172435.64999999999,"N_COORD97":2539400.02,"ADDRESS":"德洋二街６號","OBJECTID":118504},"geometry":{"x":172435.6500000013,"y":2539400.0200000014}},{"attributes":{"ID":118505,"DIS_CODE":0,"TOWNNAME":"安南區","LI":"新順里","LIN":"23鄰","STREET":"安和路","SECT":"二段","MAREA":" ","LANE":"２８５巷","ALLEY":"１６弄","HOUSE_NO":"４６號","E_COORD97":169549.23000000001,"N_COORD97":2549277.2799999998,"ADDRESS":"安和路二段２８５巷１６弄４６號","OBJECTID":118505},"geometry":{"x":169549.23000000045,"y":2549277.2800000012}},{"attributes":{"ID":118506,"DIS_CODE":0,"TOWNNAME":"仁德區","LI":"後壁里","LIN":"35鄰","STREET":"德洋二街","SECT":" ","MAREA":" ","LANE":" ","ALLEY":" ","HOUSE_NO":"１８號","E_COORD97":172384.32999999999,"N_COORD97":2539427.7599999998,"ADDRESS":"德洋二街１８號","OBJECTID":118506},"geometry":{"x":172384.33000000007,"y":2539427.7599999998}},{"attributes":{"ID":118507,"DIS_CODE":0,"TOWNNAME":"仁德區","LI":"後壁里","LIN":"35鄰","STREET":"德洋二街","SECT":" ","MAREA":" ","LANE":" ","ALLEY":" ","HOUSE_NO":"２４號","E_COORD97":172373.82999999999,"N_COORD97":2539445.0099999998,"ADDRESS":"德洋二街２４號","OBJECTID":118507},"geometry":{"x":172373.83000000007,"y":2539445.0100000016}},{"attributes":{"ID":118508,"DIS_CODE":0,"TOWNNAME":"東區","LI":"關聖里","LIN":"14鄰","STREET":"裕英街","SECT":" ","MAREA":" ","LANE":" ","ALLEY":" ","HOUSE_NO":"８號","E_COORD97":172069.42999999999,"N_COORD97":2543004.7000000002,"ADDRESS":"裕英街８號","OBJECTID":118508},"geometry":{"x":172069.4299999997,"y":2543004.6999999993}},{"attributes":{"ID":118509,"DIS_CODE":0,"TOWNNAME":"東區","LI":"關聖里","LIN":"13鄰","STREET":"裕農三街","SECT":" ","MAREA":" ","LANE":" ","ALLEY":" ","HOUSE_NO":"５１號","E_COORD97":172056.56,"N_COORD97":2543084.21,"ADDRESS":"裕農三街５１號","OBJECTID":118509},"geometry":{"x":172056.55999999959,"y":2543084.2100000009}},{"attributes":{"ID":118510,"DIS_CODE":0,"TOWNNAME":"東區","LI":"新東里","LIN":"4鄰","STREET":"林森路","SECT":"二段","MAREA":" ","LANE":" ","ALLEY":" ","HOUSE_NO":"１２號","E_COORD97":170314.81,"N_COORD97":2542922.4500000002,"ADDRESS":"林森路二段１２號","OBJECTID":118510},"geometry":{"x":170314.81000000052,"y":2542922.4500000011}},{"attributes":{"ID":118511,"DIS_CODE":0,"TOWNNAME":"東區","LI":"文聖里","LIN":"18鄰","STREET":"裕興街","SECT":" ","MAREA":" ","LANE":" ","ALLEY":" ","HOUSE_NO":"２２６號","E_COORD97":172461.64999999999,"N_COORD97":2542634.1299999999,"ADDRESS":"裕興街２２６號","OBJECTID":118511},"geometry":{"x":172461.6500000013,"y":2542634.129999999}},{"attributes":{"ID":118512,"DIS_CODE":0,"TOWNNAME":"東區","LI":"文聖里","LIN":"15鄰","STREET":"裕興街","SECT":" ","MAREA":" ","LANE":" ","ALLEY":" ","HOUSE_NO":"２４５號","E_COORD97":172461.91,"N_COORD97":2542657.9300000002,"ADDRESS":"裕興街２４５號","OBJECTID":118512},"geometry":{"x":172461.91000000015,"y":2542657.9299999978}},{"attributes":{"ID":118513,"DIS_CODE":0,"TOWNNAME":"東區","LI":"文聖里","LIN":"15鄰","STREET":"裕興街","SECT":" ","MAREA":" ","LANE":" ","ALLEY":" ","HOUSE_NO":"２４７號","E_COORD97":172466.69,"N_COORD97":2542661.6099999999,"ADDRESS":"裕興街２４７號","OBJECTID":118513},"geometry":{"x":172466.69000000041,"y":2542661.6100000013}},{"attributes":{"ID":118514,"DIS_CODE":0,"TOWNNAME":"官田區","LI":"大崎里","LIN":"8鄰","STREET":" ","SECT":" ","MAREA":"大崎","LANE":" ","ALLEY":" ","HOUSE_NO":"６６號之１６","E_COORD97":185865.23000000001,"N_COORD97":2565240.3799999999,"ADDRESS":"大崎６６號之１６","OBJECTID":118514},"geometry":{"x":185865.23000000045,"y":2565240.379999999}},{"attributes":{"ID":118515,"DIS_CODE":0,"TOWNNAME":"官田區","LI":"大崎里","LIN":"8鄰","STREET":" ","SECT":" ","MAREA":"大崎","LANE":" ","ALLEY":" ","HOUSE_NO":"６６號之１７","E_COORD97":185861.48000000001,"N_COORD97":2565248.3799999999,"ADDRESS":"大崎６６號之１７","OBJECTID":118515},"geometry":{"x":185861.48000000138,"y":2565248.3800000008}},{"attributes":{"ID":118516,"DIS_CODE":0,"TOWNNAME":"官田區","LI":"大崎里","LIN":"8鄰","STREET":" ","SECT":" ","MAREA":"大崎","LANE":" ","ALLEY":" ","HOUSE_NO":"６６號之１８","E_COORD97":185857.85000000001,"N_COORD97":2565252.6800000002,"ADDRESS":"大崎６６號之１８","OBJECTID":118516},"geometry":{"x":185857.85000000056,"y":2565252.6799999997}},{"attributes":{"ID":118517,"DIS_CODE":0,"TOWNNAME":"白河區","LI":"竹門里","LIN":"4鄰","STREET":" ","SECT":" ","MAREA":"竹子門","LANE":" ","ALLEY":" ","HOUSE_NO":"５８號","E_COORD97":193652.12,"N_COORD97":2586173.52,"ADDRESS":"竹子門５８號","OBJECTID":118517},"geometry":{"x":193652.12000000011,"y":2586173.5200000014}},{"attributes":{"ID":118518,"DIS_CODE":0,"TOWNNAME":"白河區","LI":"竹門里","LIN":"1鄰","STREET":" ","SECT":" ","MAREA":"竹子門","LANE":" ","ALLEY":" ","HOUSE_NO":"５之１０號","E_COORD97":193536.12,"N_COORD97":2585831.9500000002,"ADDRESS":"竹子門５之１０號","OBJECTID":118518},"geometry":{"x":193536.12000000104,"y":2585831.9500000011}},{"attributes":{"ID":118519,"DIS_CODE":0,"TOWNNAME":"白河區","LI":"竹門里","LIN":"1鄰","STREET":" ","SECT":" ","MAREA":"竹子門","LANE":" ","ALLEY":" ","HOUSE_NO":"５之１號","E_COORD97":193553.92000000001,"N_COORD97":2585863.48,"ADDRESS":"竹子門５之１號","OBJECTID":118519},"geometry":{"x":193553.92000000086,"y":2585863.4800000023}},{"attributes":{"ID":118520,"DIS_CODE":0,"TOWNNAME":"白河區","LI":"竹門里","LIN":"1鄰","STREET":" ","SECT":" ","MAREA":"竹子門","LANE":" ","ALLEY":" ","HOUSE_NO":"５之２號","E_COORD97":193543.76000000001,"N_COORD97":2585846.52,"ADDRESS":"竹子門５之２號","OBJECTID":118520},"geometry":{"x":193543.75999999978,"y":2585846.5199999996}},{"attributes":{"ID":118521,"DIS_CODE":0,"TOWNNAME":"白河區","LI":"竹門里","LIN":"1鄰","STREET":" ","SECT":" ","MAREA":"竹子門","LANE":" ","ALLEY":" ","HOUSE_NO":"５之３號","E_COORD97":193500.98000000001,"N_COORD97":2585906.3700000001,"ADDRESS":"竹子門５之３號","OBJECTID":118521},"geometry":{"x":193500.97999999952,"y":2585906.370000001}},{"attributes":{"ID":118522,"DIS_CODE":0,"TOWNNAME":"永康區","LI":"埔園里","LIN":"35鄰","STREET":"龍埔街","SECT":" ","MAREA":" ","LANE":" ","ALLEY":" ","HOUSE_NO":"３６０號","E_COORD97":174263.35999999999,"N_COORD97":2548304.1200000001,"ADDRESS":"龍埔街３６０號","OBJECTID":118522},"geometry":{"x":174263.36000000127,"y":2548304.1200000029}},{"attributes":{"ID":118523,"DIS_CODE":0,"TOWNNAME":"永康區","LI":"埔園里","LIN":"35鄰","STREET":"八德街","SECT":" ","MAREA":" ","LANE":" ","ALLEY":" ","HOUSE_NO":"１３號","E_COORD97":174322.82999999999,"N_COORD97":2548486.1099999999,"ADDRESS":"八德街１３號","OBJECTID":118523},"geometry":{"x":174322.83000000101,"y":2548486.1100000013}},{"attributes":{"ID":118524,"DIS_CODE":0,"TOWNNAME":"安南區","LI":"新順里","LIN":"23鄰","STREET":"安和路","SECT":"二段","MAREA":" ","LANE":"２８５巷","ALLEY":"１６弄","HOUSE_NO":"４８號","E_COORD97":169545.51000000001,"N_COORD97":2549278.3599999999,"ADDRESS":"安和路二段２８５巷１６弄４８號","OBJECTID":118524},"geometry":{"x":169545.51000000164,"y":2549278.3599999994}},{"attributes":{"ID":118525,"DIS_CODE":0,"TOWNNAME":"安南區","LI":"新順里","LIN":"23鄰","STREET":"安和路","SECT":"二段","MAREA":" ","LANE":"２８５巷","ALLEY":"１６弄","HOUSE_NO":"５０號","E_COORD97":169541.17000000001,"N_COORD97":2549279.4399999999,"ADDRESS":"安和路二段２８５巷１６弄５０號","OBJECTID":118525},"geometry":{"x":169541.17000000179,"y":2549279.4400000032}},{"attributes":{"ID":118526,"DIS_CODE":0,"TOWNNAME":"安南區","LI":"新順里","LIN":"23鄰","STREET":"安和路","SECT":"二段","MAREA":" ","LANE":"２８５巷","ALLEY":"１６弄","HOUSE_NO":"５２號","E_COORD97":169536.67999999999,"N_COORD97":2549280.6800000002,"ADDRESS":"安和路二段２８５巷１６弄５２號","OBJECTID":118526},"geometry":{"x":169536.6799999997,"y":2549280.6799999997}},{"attributes":{"ID":118527,"DIS_CODE":0,"TOWNNAME":"安南區","LI":"新順里","LIN":"23鄰","STREET":"安和路","SECT":"二段","MAREA":" ","LANE":"２８５巷","ALLEY":"１６弄","HOUSE_NO":"５６號","E_COORD97":169532.03,"N_COORD97":2549281.7599999998,"ADDRESS":"安和路二段２８５巷１６弄５６號","OBJECTID":118527},"geometry":{"x":169532.03000000026,"y":2549281.7600000016}},{"attributes":{"ID":118528,"DIS_CODE":0,"TOWNNAME":"安南區","LI":"新順里","LIN":"23鄰","STREET":"安和路","SECT":"二段","MAREA":" ","LANE":"２８５巷","ALLEY":"１６弄","HOUSE_NO":"５８號","E_COORD97":169528.16,"N_COORD97":2549283,"ADDRESS":"安和路二段２８５巷１６弄５８號","OBJECTID":118528},"geometry":{"x":169528.16000000108,"y":2549283.0000000019}},{"attributes":{"ID":118529,"DIS_CODE":0,"TOWNNAME":"白河區","LI":"竹門里","LIN":"1鄰","STREET":" ","SECT":" ","MAREA":"竹子門","LANE":" ","ALLEY":" ","HOUSE_NO":"５之６號","E_COORD97":193497.54000000001,"N_COORD97":2585935.3999999999,"ADDRESS":"竹子門５之６號","OBJECTID":118529},"geometry":{"x":193497.54000000097,"y":2585935.4000000022}},{"attributes":{"ID":118530,"DIS_CODE":0,"TOWNNAME":"白河區","LI":"竹門里","LIN":"1鄰","STREET":" ","SECT":" ","MAREA":"竹子門","LANE":" ","ALLEY":" ","HOUSE_NO":"６之１號","E_COORD97":193594.45000000001,"N_COORD97":2585864.6400000001,"ADDRESS":"竹子門６之１號","OBJECTID":118530},"geometry":{"x":193594.45000000112,"y":2585864.6400000043}},{"attributes":{"ID":118531,"DIS_CODE":0,"TOWNNAME":"白河區","LI":"竹門里","LIN":"1鄰","STREET":" ","SECT":" ","MAREA":"竹子門","LANE":" ","ALLEY":" ","HOUSE_NO":"６號","E_COORD97":193595.09,"N_COORD97":2585886.9399999999,"ADDRESS":"竹子門６號","OBJECTID":118531},"geometry":{"x":193595.09000000078,"y":2585886.9399999995}},{"attributes":{"ID":118532,"DIS_CODE":0,"TOWNNAME":"白河區","LI":"竹門里","LIN":"6鄰","STREET":" ","SECT":" ","MAREA":"竹子門","LANE":" ","ALLEY":" ","HOUSE_NO":"６９之３號","E_COORD97":193761.09,"N_COORD97":2586434.1899999999,"ADDRESS":"竹子門６９之３號","OBJECTID":118532},"geometry":{"x":193761.09000000078,"y":2586434.1900000013}},{"attributes":{"ID":118533,"DIS_CODE":0,"TOWNNAME":"白河區","LI":"竹門里","LIN":"6鄰","STREET":" ","SECT":" ","MAREA":"竹子門","LANE":" ","ALLEY":" ","HOUSE_NO":"６９之６號","E_COORD97":193724.47,"N_COORD97":2586534.1699999999,"ADDRESS":"竹子門６９之６號","OBJECTID":118533},"geometry":{"x":193724.47000000067,"y":2586534.1699999999}},{"attributes":{"ID":118534,"DIS_CODE":0,"TOWNNAME":"白河區","LI":"竹門里","LIN":"6鄰","STREET":" ","SECT":" ","MAREA":"竹子門","LANE":" ","ALLEY":" ","HOUSE_NO":"６９號","E_COORD97":193729.34,"N_COORD97":2586430.8599999999,"ADDRESS":"竹子門６９號","OBJECTID":118534},"geometry":{"x":193729.34000000078,"y":2586430.8599999994}},{"attributes":{"ID":118535,"DIS_CODE":0,"TOWNNAME":"安南區","LI":"新順里","LIN":"23鄰","STREET":"安和路","SECT":"二段","MAREA":" ","LANE":"２８５巷","ALLEY":"１８弄","HOUSE_NO":"２號","E_COORD97":169611.17000000001,"N_COORD97":2549220.6400000001,"ADDRESS":"安和路二段２８５巷１８弄２號","OBJECTID":118535},"geometry":{"x":169611.17000000086,"y":2549220.6400000006}},{"attributes":{"ID":118536,"DIS_CODE":0,"TOWNNAME":"安南區","LI":"新順里","LIN":"23鄰","STREET":"安和路","SECT":"二段","MAREA":" ","LANE":"２８５巷","ALLEY":"１８弄","HOUSE_NO":"６號","E_COORD97":169604.82000000001,"N_COORD97":2549222.6600000001,"ADDRESS":"安和路二段２８５巷１８弄６號","OBJECTID":118536},"geometry":{"x":169604.81999999937,"y":2549222.6600000001}},{"attributes":{"ID":118537,"DIS_CODE":0,"TOWNNAME":"安南區","LI":"新順里","LIN":"23鄰","STREET":"安和路","SECT":"二段","MAREA":" ","LANE":"２８５巷","ALLEY":"１８弄","HOUSE_NO":"８號","E_COORD97":169600.32999999999,"N_COORD97":2549224.0499999998,"ADDRESS":"安和路二段２８５巷１８弄８號","OBJECTID":118537},"geometry":{"x":169600.33000000101,"y":2549224.0500000007}},{"attributes":{"ID":118538,"DIS_CODE":0,"TOWNNAME":"安南區","LI":"新順里","LIN":"23鄰","STREET":"安和路","SECT":"二段","MAREA":" ","LANE":"２８５巷","ALLEY":"１８弄","HOUSE_NO":"１０號","E_COORD97":169595.69,"N_COORD97":2549225.6000000001,"ADDRESS":"安和路二段２８５巷１８弄１０號","OBJECTID":118538},"geometry":{"x":169595.69000000227,"y":2549225.6000000015}},{"attributes":{"ID":118539,"DIS_CODE":0,"TOWNNAME":"白河區","LI":"竹門里","LIN":"6鄰","STREET":" ","SECT":" ","MAREA":"竹子門","LANE":" ","ALLEY":" ","HOUSE_NO":"７１號","E_COORD97":193639.60999999999,"N_COORD97":2586395.4300000002,"ADDRESS":"竹子門７１號","OBJECTID":118539},"geometry":{"x":193639.61000000127,"y":2586395.4300000016}},{"attributes":{"ID":118540,"DIS_CODE":0,"TOWNNAME":"白河區","LI":"竹門里","LIN":"6鄰","STREET":" ","SECT":" ","MAREA":"竹子門","LANE":" ","ALLEY":" ","HOUSE_NO":"７２之１號","E_COORD97":193610.29000000001,"N_COORD97":2586437.1000000001,"ADDRESS":"竹子門７２之１號","OBJECTID":118540},"geometry":{"x":193610.28999999911,"y":2586437.1000000015}},{"attributes":{"ID":118541,"DIS_CODE":0,"TOWNNAME":"白河區","LI":"竹門里","LIN":"6鄰","STREET":" ","SECT":" ","MAREA":"竹子門","LANE":" ","ALLEY":" ","HOUSE_NO":"７３之１號","E_COORD97":193513.54999999999,"N_COORD97":2586497.04,"ADDRESS":"竹子門７３之１號","OBJECTID":118541},"geometry":{"x":193513.55000000168,"y":2586497.0399999991}},{"attributes":{"ID":118542,"DIS_CODE":0,"TOWNNAME":"白河區","LI":"竹門里","LIN":"6鄰","STREET":" ","SECT":" ","MAREA":"竹子門","LANE":" ","ALLEY":" ","HOUSE_NO":"７３號","E_COORD97":193531.53,"N_COORD97":2586482.9199999999,"ADDRESS":"竹子門７３號","OBJECTID":118542},"geometry":{"x":193531.53000000119,"y":2586482.9200000018}},{"attributes":{"ID":118543,"DIS_CODE":0,"TOWNNAME":"白河區","LI":"竹門里","LIN":"6鄰","STREET":" ","SECT":" ","MAREA":"竹子門","LANE":" ","ALLEY":" ","HOUSE_NO":"７４號","E_COORD97":193520.45000000001,"N_COORD97":2586466.8900000001,"ADDRESS":"竹子門７４號","OBJECTID":118543},"geometry":{"x":193520.45000000112,"y":2586466.8900000025}},{"attributes":{"ID":118544,"DIS_CODE":0,"TOWNNAME":"白河區","LI":"竹門里","LIN":"6鄰","STREET":" ","SECT":" ","MAREA":"竹子門","LANE":" ","ALLEY":" ","HOUSE_NO":"７６之２號","E_COORD97":193547.72,"N_COORD97":2586458.5600000001,"ADDRESS":"竹子門７６之２號","OBJECTID":118544},"geometry":{"x":193547.71999999881,"y":2586458.5600000042}},{"attributes":{"ID":118545,"DIS_CODE":0,"TOWNNAME":"白河區","LI":"竹門里","LIN":"7鄰","STREET":" ","SECT":" ","MAREA":"竹子門","LANE":" ","ALLEY":" ","HOUSE_NO":"８１之１號","E_COORD97":193582.29999999999,"N_COORD97":2586316.1899999999,"ADDRESS":"竹子門８１之１號","OBJECTID":118545},"geometry":{"x":193582.29999999981,"y":2586316.1899999995}},{"attributes":{"ID":118546,"DIS_CODE":0,"TOWNNAME":"麻豆區","LI":"安正里","LIN":"4鄰","STREET":" ","SECT":" ","MAREA":"方厝寮","LANE":" ","ALLEY":" ","HOUSE_NO":"３６號之３","E_COORD97":170956.67000000001,"N_COORD97":2562045.9900000002,"ADDRESS":"方厝寮３６號之３","OBJECTID":118546},"geometry":{"x":170956.67000000179,"y":2562045.9900000021}},{"attributes":{"ID":118547,"DIS_CODE":0,"TOWNNAME":"麻豆區","LI":"安正里","LIN":"4鄰","STREET":" ","SECT":" ","MAREA":"方厝寮","LANE":" ","ALLEY":" ","HOUSE_NO":"３６號之４","E_COORD97":170955.5,"N_COORD97":2562050.25,"ADDRESS":"方厝寮３６號之４","OBJECTID":118547},"geometry":{"x":170955.5,"y":2562050.2500000019}},{"attributes":{"ID":118548,"DIS_CODE":0,"TOWNNAME":"麻豆區","LI":"安正里","LIN":"4鄰","STREET":" ","SECT":" ","MAREA":"方厝寮","LANE":" ","ALLEY":" ","HOUSE_NO":"３６號之５","E_COORD97":170878.41,"N_COORD97":2562195.9900000002,"ADDRESS":"方厝寮３６號之５","OBJECTID":118548},"geometry":{"x":170878.41000000015,"y":2562195.9900000002}},{"attributes":{"ID":118549,"DIS_CODE":0,"TOWNNAME":"麻豆區","LI":"安正里","LIN":"4鄰","STREET":" ","SECT":" ","MAREA":"方厝寮","LANE":" ","ALLEY":" ","HOUSE_NO":"３６號之６","E_COORD97":170881.16,"N_COORD97":2562149.6899999999,"ADDRESS":"方厝寮３６號之６","OBJECTID":118549},"geometry":{"x":170881.16000000108,"y":2562149.6899999995}},{"attributes":{"ID":118550,"DIS_CODE":0,"TOWNNAME":"麻豆區","LI":"安正里","LIN":"4鄰","STREET":" ","SECT":" ","MAREA":"方厝寮","LANE":" ","ALLEY":" ","HOUSE_NO":"３６號之７","E_COORD97":170937.98451000001,"N_COORD97":2562101.6331500001,"ADDRESS":"方厝寮３６號之７","OBJECTID":118550},"geometry":{"x":170937.98450999986,"y":2562101.6331459992}},{"attributes":{"ID":118551,"DIS_CODE":0,"TOWNNAME":"麻豆區","LI":"安正里","LIN":"4鄰","STREET":" ","SECT":" ","MAREA":"方厝寮","LANE":" ","ALLEY":" ","HOUSE_NO":"３６號之８７","E_COORD97":169577.26999999999,"N_COORD97":2562479.25,"ADDRESS":"方厝寮３６號之８７","OBJECTID":118551},"geometry":{"x":169577.27000000142,"y":2562479.25}},{"attributes":{"ID":118552,"DIS_CODE":0,"TOWNNAME":"麻豆區","LI":"安正里","LIN":"4鄰","STREET":" ","SECT":" ","MAREA":"方厝寮","LANE":" ","ALLEY":" ","HOUSE_NO":"３６號之８８","E_COORD97":169578.51000000001,"N_COORD97":2562475.1600000001,"ADDRESS":"方厝寮３６號之８８","OBJECTID":118552},"geometry":{"x":169578.50999999978,"y":2562475.160000002}},{"attributes":{"ID":118553,"DIS_CODE":0,"TOWNNAME":"麻豆區","LI":"安正里","LIN":"4鄰","STREET":" ","SECT":" ","MAREA":"方厝寮","LANE":" ","ALLEY":" ","HOUSE_NO":"３６號之８","E_COORD97":170853.98999999999,"N_COORD97":2562241.9700000002,"ADDRESS":"方厝寮３６號之８","OBJECTID":118553},"geometry":{"x":170853.99000000022,"y":2562241.9700000025}},{"attributes":{"ID":118554,"DIS_CODE":0,"TOWNNAME":"麻豆區","LI":"安正里","LIN":"4鄰","STREET":" ","SECT":" ","MAREA":"方厝寮","LANE":" ","ALLEY":" ","HOUSE_NO":"３６號","E_COORD97":170959.17000000001,"N_COORD97":2562035.8500000001,"ADDRESS":"方厝寮３６號","OBJECTID":118554},"geometry":{"x":170959.16999999993,"y":2562035.8500000015}},{"attributes":{"ID":118555,"DIS_CODE":0,"TOWNNAME":"麻豆區","LI":"安正里","LIN":"4鄰","STREET":" ","SECT":" ","MAREA":"方厝寮","LANE":" ","ALLEY":" ","HOUSE_NO":"３７號之１１","E_COORD97":170914.79999999999,"N_COORD97":2562010.52,"ADDRESS":"方厝寮３７號之１１","OBJECTID":118555},"geometry":{"x":170914.79999999888,"y":2562010.5200000014}},{"attributes":{"ID":118556,"DIS_CODE":0,"TOWNNAME":"安南區","LI":"新順里","LIN":"23鄰","STREET":"安和路","SECT":"二段","MAREA":" ","LANE":"２８５巷","ALLEY":"１８弄","HOUSE_NO":"１２號","E_COORD97":169591.97,"N_COORD97":2549226.21,"ADDRESS":"安和路二段２８５巷１８弄１２號","OBJECTID":118556},"geometry":{"x":169591.97000000067,"y":2549226.2100000028}},{"attributes":{"ID":118557,"DIS_CODE":0,"TOWNNAME":"東區","LI":"虎尾里","LIN":"35鄰","STREET":"富農街","SECT":"一段","MAREA":" ","LANE":" ","ALLEY":" ","HOUSE_NO":"１５號之１０","E_COORD97":171445.54000000001,"N_COORD97":2542091.8999999999,"ADDRESS":"富農街一段１５號之１０","OBJECTID":118557},"geometry":{"x":171445.54000000004,"y":2542091.9000000004}},{"attributes":{"ID":118558,"DIS_CODE":0,"TOWNNAME":"安南區","LI":"新順里","LIN":"23鄰","STREET":"安和路","SECT":"二段","MAREA":" ","LANE":"２８５巷","ALLEY":"１８弄","HOUSE_NO":"１６號","E_COORD97":169587.63,"N_COORD97":2549226.9900000002,"ADDRESS":"安和路二段２８５巷１８弄１６號","OBJECTID":118558},"geometry":{"x":169587.63000000082,"y":2549226.9900000021}},{"attributes":{"ID":118559,"DIS_CODE":0,"TOWNNAME":"安南區","LI":"新順里","LIN":"23鄰","STREET":"安和路","SECT":"二段","MAREA":" ","LANE":"２８５巷","ALLEY":"１８弄","HOUSE_NO":"１８號","E_COORD97":169582.69,"N_COORD97":2549228.7200000002,"ADDRESS":"安和路二段２８５巷１８弄１８號","OBJECTID":118559},"geometry":{"x":169582.69000000134,"y":2549228.7200000025}},{"attributes":{"ID":118560,"DIS_CODE":0,"TOWNNAME":"安南區","LI":"新順里","LIN":"23鄰","STREET":"安和路","SECT":"二段","MAREA":" ","LANE":"２８５巷","ALLEY":"１８弄","HOUSE_NO":"２０號","E_COORD97":169578.26999999999,"N_COORD97":2549229.8199999998,"ADDRESS":"安和路二段２８５巷１８弄２０號","OBJECTID":118560},"geometry":{"x":169578.26999999955,"y":2549229.8199999984}},{"attributes":{"ID":118561,"DIS_CODE":0,"TOWNNAME":"安南區","LI":"新順里","LIN":"23鄰","STREET":"安和路","SECT":"二段","MAREA":" ","LANE":"２８５巷","ALLEY":"１８弄","HOUSE_NO":"２２號","E_COORD97":169574.79999999999,"N_COORD97":2549230.77,"ADDRESS":"安和路二段２８５巷１８弄２２號","OBJECTID":118561},"geometry":{"x":169574.80000000075,"y":2549230.7700000014}},{"attributes":{"ID":118562,"DIS_CODE":0,"TOWNNAME":"東區","LI":"虎尾里","LIN":"35鄰","STREET":"富農街","SECT":"一段","MAREA":" ","LANE":" ","ALLEY":" ","HOUSE_NO":"１５號之１２","E_COORD97":171454.79000000001,"N_COORD97":2542093.2799999998,"ADDRESS":"富農街一段１５號之１２","OBJECTID":118562},"geometry":{"x":171454.79000000097,"y":2542093.2800000012}},{"attributes":{"ID":118563,"DIS_CODE":0,"TOWNNAME":"安南區","LI":"新順里","LIN":"23鄰","STREET":"安和路","SECT":"二段","MAREA":" ","LANE":"２８５巷","ALLEY":"１８弄","HOUSE_NO":"２６號","E_COORD97":169569.75,"N_COORD97":2549232.1899999999,"ADDRESS":"安和路二段２８５巷１８弄２６號","OBJECTID":118563},"geometry":{"x":169569.75000000093,"y":2549232.1899999995}},{"attributes":{"ID":118564,"DIS_CODE":0,"TOWNNAME":"安南區","LI":"新順里","LIN":"23鄰","STREET":"安和路","SECT":"二段","MAREA":" ","LANE":"２８５巷","ALLEY":"１８弄","HOUSE_NO":"２８號","E_COORD97":169565.48999999999,"N_COORD97":2549233.1299999999,"ADDRESS":"安和路二段２８５巷１８弄２８號","OBJECTID":118564},"geometry":{"x":169565.49000000115,"y":2549233.1299999971}},{"attributes":{"ID":118565,"DIS_CODE":0,"TOWNNAME":"安南區","LI":"新順里","LIN":"23鄰","STREET":"安和路","SECT":"二段","MAREA":" ","LANE":"２８５巷","ALLEY":"１８弄","HOUSE_NO":"３０號","E_COORD97":169562.01999999999,"N_COORD97":2549234.3900000001,"ADDRESS":"安和路二段２８５巷１８弄３０號","OBJECTID":118565},"geometry":{"x":169562.02000000142,"y":2549234.3900000025}},{"attributes":{"ID":118566,"DIS_CODE":0,"TOWNNAME":"後壁區","LI":"崁頂里","LIN":"6鄰","STREET":" ","SECT":" ","MAREA":"崁頂","LANE":" ","ALLEY":" ","HOUSE_NO":"６１號","E_COORD97":183084.79000000001,"N_COORD97":2586661.02,"ADDRESS":"崁頂６１號","OBJECTID":118566},"geometry":{"x":183084.79000000004,"y":2586661.0200000033}},{"attributes":{"ID":118567,"DIS_CODE":0,"TOWNNAME":"安南區","LI":"新順里","LIN":"23鄰","STREET":"安和路","SECT":"二段","MAREA":" ","LANE":"２８５巷","ALLEY":"１８弄","HOUSE_NO":"３２號","E_COORD97":169557.28,"N_COORD97":2549235.9700000002,"ADDRESS":"安和路二段２８５巷１８弄３２號","OBJECTID":118567},"geometry":{"x":169557.28000000026,"y":2549235.9699999988}},{"attributes":{"ID":118568,"DIS_CODE":0,"TOWNNAME":"安南區","LI":"新順里","LIN":"23鄰","STREET":"安和路","SECT":"二段","MAREA":" ","LANE":"２８５巷","ALLEY":"１８弄","HOUSE_NO":"３６號","E_COORD97":169552.85999999999,"N_COORD97":2549237.23,"ADDRESS":"安和路二段２８５巷１８弄３６號","OBJECTID":118568},"geometry":{"x":169552.86000000127,"y":2549237.2300000004}},{"attributes":{"ID":118569,"DIS_CODE":0,"TOWNNAME":"東區","LI":"虎尾里","LIN":"35鄰","STREET":"富農街","SECT":"一段","MAREA":" ","LANE":" ","ALLEY":" ","HOUSE_NO":"１５號之１４","E_COORD97":171463.25,"N_COORD97":2542094.6499999999,"ADDRESS":"富農街一段１５號之１４","OBJECTID":118569},"geometry":{"x":171463.25000000093,"y":2542094.6500000041}},{"attributes":{"ID":118570,"DIS_CODE":0,"TOWNNAME":"東區","LI":"虎尾里","LIN":"35鄰","STREET":"富農街","SECT":"一段","MAREA":" ","LANE":" ","ALLEY":" ","HOUSE_NO":"１５號之１７","E_COORD97":171480.57000000001,"N_COORD97":2542097.0099999998,"ADDRESS":"富農街一段１５號之１７","OBJECTID":118570},"geometry":{"x":171480.57000000123,"y":2542097.0099999998}},{"attributes":{"ID":118571,"DIS_CODE":0,"TOWNNAME":"東區","LI":"虎尾里","LIN":"35鄰","STREET":"富農街","SECT":"一段","MAREA":" ","LANE":" ","ALLEY":" ","HOUSE_NO":"１５號之１８","E_COORD97":171479.78,"N_COORD97":2542101.1400000001,"ADDRESS":"富農街一段１５號之１８","OBJECTID":118571},"geometry":{"x":171479.78000000026,"y":2542101.1400000006}},{"attributes":{"ID":118572,"DIS_CODE":0,"TOWNNAME":"東區","LI":"虎尾里","LIN":"35鄰","STREET":"富農街","SECT":"一段","MAREA":" ","LANE":" ","ALLEY":" ","HOUSE_NO":"１５號之２０","E_COORD97":171478.60000000001,"N_COORD97":2542109.3999999999,"ADDRESS":"富農街一段１５號之２０","OBJECTID":118572},"geometry":{"x":171478.59999999963,"y":2542109.4000000004}},{"attributes":{"ID":118573,"DIS_CODE":0,"TOWNNAME":"永康區","LI":"龍潭里","LIN":"35鄰","STREET":"自強路","SECT":" ","MAREA":" ","LANE":" ","ALLEY":" ","HOUSE_NO":"７６４號","E_COORD97":174495.53,"N_COORD97":2548540.5499999998,"ADDRESS":"自強路７６４號","OBJECTID":118573},"geometry":{"x":174495.53000000026,"y":2548540.5500000045}},{"attributes":{"ID":118574,"DIS_CODE":0,"TOWNNAME":"永康區","LI":"復華里","LIN":"35鄰","STREET":"復國一路","SECT":" ","MAREA":" ","LANE":" ","ALLEY":" ","HOUSE_NO":"４１９號","E_COORD97":172695.88,"N_COORD97":2546023.5099999998,"ADDRESS":"復國一路４１９號","OBJECTID":118574},"geometry":{"x":172695.87999999989,"y":2546023.5099999998}},{"attributes":{"ID":118575,"DIS_CODE":0,"TOWNNAME":"永康區","LI":"龍潭里","LIN":"35鄰","STREET":"自強路","SECT":" ","MAREA":" ","LANE":" ","ALLEY":" ","HOUSE_NO":"８１８號","E_COORD97":174603.07999999999,"N_COORD97":2548629.8700000001,"ADDRESS":"自強路８１８號","OBJECTID":118575},"geometry":{"x":174603.08000000007,"y":2548629.870000001}},{"attributes":{"ID":118576,"DIS_CODE":0,"TOWNNAME":"永康區","LI":"復國里","LIN":"35鄰","STREET":"復國一路","SECT":" ","MAREA":" ","LANE":" ","ALLEY":" ","HOUSE_NO":"１２７號","E_COORD97":172701.03,"N_COORD97":2545062.8300000001,"ADDRESS":"復國一路１２７號","OBJECTID":118576},"geometry":{"x":172701.03000000119,"y":2545062.8300000038}},{"attributes":{"ID":118577,"DIS_CODE":0,"TOWNNAME":"永康區","LI":"埔園里","LIN":"35鄰","STREET":"永大路","SECT":"三段","MAREA":" ","LANE":" ","ALLEY":" ","HOUSE_NO":"４１２號","E_COORD97":174118.88,"N_COORD97":2548351.52,"ADDRESS":"永大路三段４１２號","OBJECTID":118577},"geometry":{"x":174118.88000000082,"y":2548351.5199999996}},{"attributes":{"ID":118578,"DIS_CODE":0,"TOWNNAME":"麻豆區","LI":"安正里","LIN":"4鄰","STREET":" ","SECT":" ","MAREA":"方厝寮","LANE":" ","ALLEY":" ","HOUSE_NO":"３７號之１５","E_COORD97":170792.64000000001,"N_COORD97":2562005.0800000001,"ADDRESS":"方厝寮３７號之１５","OBJECTID":118578},"geometry":{"x":170792.6400000006,"y":2562005.0800000001}},{"attributes":{"ID":118579,"DIS_CODE":0,"TOWNNAME":"麻豆區","LI":"安正里","LIN":"4鄰","STREET":" ","SECT":" ","MAREA":"方厝寮","LANE":" ","ALLEY":" ","HOUSE_NO":"３７號之５","E_COORD97":170988.32999999999,"N_COORD97":2561981.54,"ADDRESS":"方厝寮３７號之５","OBJECTID":118579},"geometry":{"x":170988.33000000101,"y":2561981.5399999991}},{"attributes":{"ID":118580,"DIS_CODE":0,"TOWNNAME":"麻豆區","LI":"安正里","LIN":"4鄰","STREET":" ","SECT":" ","MAREA":"方厝寮","LANE":" ","ALLEY":" ","HOUSE_NO":"３７號之８","E_COORD97":171081.23000000001,"N_COORD97":2561852.6600000001,"ADDRESS":"方厝寮３７號之８","OBJECTID":118580},"geometry":{"x":171081.23000000138,"y":2561852.6600000001}},{"attributes":{"ID":118581,"DIS_CODE":0,"TOWNNAME":"麻豆區","LI":"安正里","LIN":"4鄰","STREET":" ","SECT":" ","MAREA":"方厝寮","LANE":" ","ALLEY":" ","HOUSE_NO":"３８號之１０","E_COORD97":171002.85999999999,"N_COORD97":2562016.0299999998,"ADDRESS":"方厝寮３８號之１０","OBJECTID":118581},"geometry":{"x":171002.86000000034,"y":2562016.0300000031}},{"attributes":{"ID":118582,"DIS_CODE":0,"TOWNNAME":"麻豆區","LI":"安正里","LIN":"4鄰","STREET":" ","SECT":" ","MAREA":"方厝寮","LANE":" ","ALLEY":" ","HOUSE_NO":"３８號之１１","E_COORD97":170985.17000000001,"N_COORD97":2562033.7799999998,"ADDRESS":"方厝寮３８號之１１","OBJECTID":118582},"geometry":{"x":170985.16999999993,"y":2562033.7799999993}},{"attributes":{"ID":118583,"DIS_CODE":0,"TOWNNAME":"麻豆區","LI":"安正里","LIN":"4鄰","STREET":" ","SECT":" ","MAREA":"方厝寮","LANE":" ","ALLEY":" ","HOUSE_NO":"３８號之１２","E_COORD97":171007.44,"N_COORD97":2562018.6800000002,"ADDRESS":"方厝寮３８號之１２","OBJECTID":118583},"geometry":{"x":171007.44000000041,"y":2562018.6799999978}},{"attributes":{"ID":118584,"DIS_CODE":0,"TOWNNAME":"麻豆區","LI":"安正里","LIN":"4鄰","STREET":" ","SECT":" ","MAREA":"方厝寮","LANE":" ","ALLEY":" ","HOUSE_NO":"３８號之１３","E_COORD97":170989.67999999999,"N_COORD97":2562036.5800000001,"ADDRESS":"方厝寮３８號之１３","OBJECTID":118584},"geometry":{"x":170989.6799999997,"y":2562036.5800000001}},{"attributes":{"ID":118585,"DIS_CODE":0,"TOWNNAME":"麻豆區","LI":"安正里","LIN":"4鄰","STREET":" ","SECT":" ","MAREA":"方厝寮","LANE":" ","ALLEY":" ","HOUSE_NO":"３８號之１４","E_COORD97":171012.01999999999,"N_COORD97":2562021.3300000001,"ADDRESS":"方厝寮３８號之１４","OBJECTID":118585},"geometry":{"x":171012.02000000048,"y":2562021.3300000001}},{"attributes":{"ID":118586,"DIS_CODE":0,"TOWNNAME":"麻豆區","LI":"安正里","LIN":"4鄰","STREET":" ","SECT":" ","MAREA":"方厝寮","LANE":" ","ALLEY":" ","HOUSE_NO":"３８號之１５","E_COORD97":170994.19,"N_COORD97":2562039.3799999999,"ADDRESS":"方厝寮３８號之１５","OBJECTID":118586},"geometry":{"x":170994.19000000227,"y":2562039.379999999}},{"attributes":{"ID":118587,"DIS_CODE":0,"TOWNNAME":"麻豆區","LI":"安正里","LIN":"4鄰","STREET":" ","SECT":" ","MAREA":"方厝寮","LANE":" ","ALLEY":" ","HOUSE_NO":"３８號之１６","E_COORD97":171016.60000000001,"N_COORD97":2562023.98,"ADDRESS":"方厝寮３８號之１６","OBJECTID":118587},"geometry":{"x":171016.60000000056,"y":2562023.9800000004}},{"attributes":{"ID":118588,"DIS_CODE":0,"TOWNNAME":"永康區","LI":"埔園里","LIN":"35鄰","STREET":"龍中街","SECT":" ","MAREA":" ","LANE":" ","ALLEY":" ","HOUSE_NO":"４６７號","E_COORD97":174369.42999999999,"N_COORD97":2548320.04,"ADDRESS":"龍中街４６７號","OBJECTID":118588},"geometry":{"x":174369.43000000063,"y":2548320.040000001}},{"attributes":{"ID":118589,"DIS_CODE":0,"TOWNNAME":"東區","LI":"東光里","LIN":"35鄰","STREET":"莊敬路","SECT":" ","MAREA":" ","LANE":" ","ALLEY":" ","HOUSE_NO":"１１號","E_COORD97":171321.82999999999,"N_COORD97":2543741.3799999999,"ADDRESS":"莊敬路１１號","OBJECTID":118589},"geometry":{"x":171321.83000000194,"y":2543741.379999999}},{"attributes":{"ID":118590,"DIS_CODE":0,"TOWNNAME":"東區","LI":"東光里","LIN":"35鄰","STREET":"莊敬路","SECT":" ","MAREA":" ","LANE":" ","ALLEY":" ","HOUSE_NO":"１３號","E_COORD97":171322.70000000001,"N_COORD97":2543747.1800000002,"ADDRESS":"莊敬路１３號","OBJECTID":118590},"geometry":{"x":171322.69999999925,"y":2543747.1799999997}},{"attributes":{"ID":118591,"DIS_CODE":0,"TOWNNAME":"東區","LI":"東光里","LIN":"35鄰","STREET":"莊敬路","SECT":" ","MAREA":" ","LANE":" ","ALLEY":" ","HOUSE_NO":"１５號","E_COORD97":171323.32000000001,"N_COORD97":2543752.48,"ADDRESS":"莊敬路１５號","OBJECTID":118591},"geometry":{"x":171323.3200000003,"y":2543752.4800000004}},{"attributes":{"ID":118592,"DIS_CODE":0,"TOWNNAME":"安南區","LI":"新順里","LIN":"23鄰","STREET":"安和路","SECT":"二段","MAREA":" ","LANE":"２８５巷","ALLEY":"１８弄","HOUSE_NO":"３８號","E_COORD97":169548.60000000001,"N_COORD97":2549239.2799999998,"ADDRESS":"安和路二段２８５巷１８弄３８號","OBJECTID":118592},"geometry":{"x":169548.60000000056,"y":2549239.2799999975}},{"attributes":{"ID":118593,"DIS_CODE":0,"TOWNNAME":"仁德區","LI":"後壁里","LIN":"35鄰","STREET":"德洋路","SECT":" ","MAREA":" ","LANE":" ","ALLEY":" ","HOUSE_NO":"１９７號","E_COORD97":172495.48000000001,"N_COORD97":2539466.77,"ADDRESS":"德洋路１９７號","OBJECTID":118593},"geometry":{"x":172495.48000000045,"y":2539466.7700000014}},{"attributes":{"ID":118594,"DIS_CODE":0,"TOWNNAME":"仁德區","LI":"後壁里","LIN":"35鄰","STREET":"德洋路","SECT":" ","MAREA":" ","LANE":" ","ALLEY":" ","HOUSE_NO":"１９１號","E_COORD97":172490.48000000001,"N_COORD97":2539455.2599999998,"ADDRESS":"德洋路１９１號","OBJECTID":118594},"geometry":{"x":172490.48000000045,"y":2539455.2599999979}},{"attributes":{"ID":118595,"DIS_CODE":0,"TOWNNAME":"安南區","LI":"新順里","LIN":"23鄰","STREET":"安和路","SECT":"二段","MAREA":" ","LANE":"２８５巷","ALLEY":"１８弄","HOUSE_NO":"４０號","E_COORD97":169543.23000000001,"N_COORD97":2549239.2799999998,"ADDRESS":"安和路二段２８５巷１８弄４０號","OBJECTID":118595},"geometry":{"x":169543.23000000138,"y":2549239.2799999975}},{"attributes":{"ID":118596,"DIS_CODE":0,"TOWNNAME":"歸仁區","LI":"南保里","LIN":"35鄰","STREET":"民權八街","SECT":" ","MAREA":" ","LANE":" ","ALLEY":" ","HOUSE_NO":"７７號","E_COORD97":176715.20999999999,"N_COORD97":2541017.25,"ADDRESS":"民權八街７７號","OBJECTID":118596},"geometry":{"x":176715.21000000089,"y":2541017.25}},{"attributes":{"ID":118597,"DIS_CODE":0,"TOWNNAME":"安南區","LI":"新順里","LIN":"23鄰","STREET":"安和路","SECT":"二段","MAREA":" ","LANE":"２８５巷","ALLEY":"１８弄","HOUSE_NO":"４２號","E_COORD97":169539.13,"N_COORD97":2549240.7000000002,"ADDRESS":"安和路二段２８５巷１８弄４２號","OBJECTID":118597},"geometry":{"x":169539.12999999989,"y":2549240.7000000011}},{"attributes":{"ID":118598,"DIS_CODE":0,"TOWNNAME":"安南區","LI":"新順里","LIN":"23鄰","STREET":"安和路","SECT":"二段","MAREA":" ","LANE":"２８５巷","ALLEY":"１８弄","HOUSE_NO":"４６號","E_COORD97":169535.5,"N_COORD97":2549241.96,"ADDRESS":"安和路二段２８５巷１８弄４６號","OBJECTID":118598},"geometry":{"x":169535.50000000186,"y":2549241.9600000009}},{"attributes":{"ID":118599,"DIS_CODE":0,"TOWNNAME":"新市區","LI":"社內里","LIN":"4鄰","STREET":" ","SECT":" ","MAREA":"社內","LANE":" ","ALLEY":" ","HOUSE_NO":"４０之３號","E_COORD97":176691.28,"N_COORD97":2552534.2200000002,"ADDRESS":"社內４０之３號","OBJECTID":118599},"geometry":{"x":176691.28000000119,"y":2552534.2200000025}},{"attributes":{"ID":118600,"DIS_CODE":0,"TOWNNAME":"安南區","LI":"新順里","LIN":"23鄰","STREET":"安和路","SECT":"二段","MAREA":" ","LANE":"２８５巷","ALLEY":"１８弄","HOUSE_NO":"４８號","E_COORD97":169530.60999999999,"N_COORD97":2549246.2200000002,"ADDRESS":"安和路二段２８５巷１８弄４８號","OBJECTID":118600},"geometry":{"x":169530.61000000127,"y":2549246.2200000025}}]}