{"displayFieldName":"TOWNNAME","fieldAliases":{"ID":"ID","DIS_CODE":"DIS_CODE","TOWNNAME":"TOWNNAME","LI":"LI","LIN":"LIN","STREET":"STREET","SECT":"SECT","MAREA":"MAREA","LANE":"LANE","ALLEY":"ALLEY","HOUSE_NO":"HOUSE_NO","E_COORD97":"E_COORD97","N_COORD97":"N_COORD97","ADDRESS":"ADDRESS","OBJECTID":"OBJECTID"},"geometryType":"esriGeometryPoint","spatialReference":{"wkid":102443,"latestWkid":3826},"fields":[{"name":"ID","type":"esriFieldTypeDouble","alias":"ID"},{"name":"DIS_CODE","type":"esriFieldTypeInteger","alias":"DIS_CODE"},{"name":"TOWNNAME","type":"esriFieldTypeString","alias":"TOWNNAME","length":8},{"name":"LI","type":"esriFieldTypeString","alias":"LI","length":8},{"name":"LIN","type":"esriFieldTypeString","alias":"LIN","length":12},{"name":"STREET","type":"esriFieldTypeString","alias":"STREET","length":20},{"name":"SECT","type":"esriFieldTypeString","alias":"SECT","length":8},{"name":"MAREA","type":"esriFieldTypeString","alias":"MAREA","length":12},{"name":"LANE","type":"esriFieldTypeString","alias":"LANE","length":10},{"name":"ALLEY","type":"esriFieldTypeString","alias":"ALLEY","length":10},{"name":"HOUSE_NO","type":"esriFieldTypeString","alias":"HOUSE_NO","length":20},{"name":"E_COORD97","type":"esriFieldTypeDouble","alias":"E_COORD97"},{"name":"N_COORD97","type":"esriFieldTypeDouble","alias":"N_COORD97"},{"name":"ADDRESS","type":"esriFieldTypeString","alias":"ADDRESS","length":50},{"name":"OBJECTID","type":"esriFieldTypeOID","alias":"OBJECTID"}],"features":[{"attributes":{"ID":186002,"DIS_CODE":0,"TOWNNAME":"後壁區","LI":"土溝里","LIN":"11鄰","STREET":" ","SECT":" ","MAREA":"土溝","LANE":" ","ALLEY":" ","HOUSE_NO":"１０８號之１４","E_COORD97":187439.67000000001,"N_COORD97":2585654.48,"ADDRESS":"土溝１０８號之１４","OBJECTID":186001},"geometry":{"x":187439.67000000086,"y":2585654.4800000004}},{"attributes":{"ID":186003,"DIS_CODE":0,"TOWNNAME":"後壁區","LI":"土溝里","LIN":"11鄰","STREET":" ","SECT":" ","MAREA":"土溝","LANE":" ","ALLEY":" ","HOUSE_NO":"１０８號之１８","E_COORD97":187446.14999999999,"N_COORD97":2585632.71,"ADDRESS":"土溝１０８號之１８","OBJECTID":186002},"geometry":{"x":187446.15000000037,"y":2585632.7100000009}},{"attributes":{"ID":186004,"DIS_CODE":0,"TOWNNAME":"後壁區","LI":"土溝里","LIN":"11鄰","STREET":" ","SECT":" ","MAREA":"土溝","LANE":" ","ALLEY":" ","HOUSE_NO":"１０８號之３","E_COORD97":187511.41,"N_COORD97":2585740.8399999999,"ADDRESS":"土溝１０８號之３","OBJECTID":186003},"geometry":{"x":187511.41000000015,"y":2585740.8400000017}},{"attributes":{"ID":186005,"DIS_CODE":0,"TOWNNAME":"玉井區","LI":"玉田里","LIN":"24鄰","STREET":"中華路","SECT":" ","MAREA":" ","LANE":" ","ALLEY":" ","HOUSE_NO":"１３６號","E_COORD97":195050.26000000001,"N_COORD97":2557947.25,"ADDRESS":"中華路１３６號","OBJECTID":186004},"geometry":{"x":195050.26000000071,"y":2557947.2500000019}},{"attributes":{"ID":186006,"DIS_CODE":0,"TOWNNAME":"玉井區","LI":"玉田里","LIN":"24鄰","STREET":"新興街","SECT":" ","MAREA":" ","LANE":" ","ALLEY":" ","HOUSE_NO":"３３號","E_COORD97":195075.32000000001,"N_COORD97":2557870.2400000002,"ADDRESS":"新興街３３號","OBJECTID":186005},"geometry":{"x":195075.32000000123,"y":2557870.2400000021}},{"attributes":{"ID":186007,"DIS_CODE":0,"TOWNNAME":"玉井區","LI":"玉田里","LIN":"24鄰","STREET":"中華路","SECT":" ","MAREA":" ","LANE":" ","ALLEY":" ","HOUSE_NO":"１３４號","E_COORD97":195047.95999999999,"N_COORD97":2557949.25,"ADDRESS":"中華路１３４號","OBJECTID":186006},"geometry":{"x":195047.95999999996,"y":2557949.25}},{"attributes":{"ID":186008,"DIS_CODE":0,"TOWNNAME":"玉井區","LI":"玉田里","LIN":"24鄰","STREET":"新興街","SECT":" ","MAREA":" ","LANE":" ","ALLEY":" ","HOUSE_NO":"３１號","E_COORD97":195073.72,"N_COORD97":2557867.2400000002,"ADDRESS":"新興街３１號","OBJECTID":186007},"geometry":{"x":195073.72000000067,"y":2557867.2400000021}},{"attributes":{"ID":186009,"DIS_CODE":0,"TOWNNAME":"玉井區","LI":"玉田里","LIN":"24鄰","STREET":"新興街","SECT":" ","MAREA":" ","LANE":" ","ALLEY":" ","HOUSE_NO":"３５號","E_COORD97":195077.12,"N_COORD97":2557873.2400000002,"ADDRESS":"新興街３５號","OBJECTID":186008},"geometry":{"x":195077.12000000104,"y":2557873.2400000021}},{"attributes":{"ID":186010,"DIS_CODE":0,"TOWNNAME":"官田區","LI":"東庄里","LIN":"10鄰","STREET":" ","SECT":" ","MAREA":"西庄","LANE":" ","ALLEY":" ","HOUSE_NO":"１５８號之３","E_COORD97":178235.07252300001,"N_COORD97":2565005.7008099998,"ADDRESS":"西庄１５８號之３","OBJECTID":186009},"geometry":{"x":178235.07252299879,"y":2565005.7008100022}},{"attributes":{"ID":186011,"DIS_CODE":0,"TOWNNAME":"官田區","LI":"東庄里","LIN":"10鄰","STREET":" ","SECT":" ","MAREA":"西庄","LANE":" ","ALLEY":" ","HOUSE_NO":"１５８號之４","E_COORD97":178184.66,"N_COORD97":2565009.02,"ADDRESS":"西庄１５８號之４","OBJECTID":186010},"geometry":{"x":178184.66000000015,"y":2565009.0199999996}},{"attributes":{"ID":186012,"DIS_CODE":0,"TOWNNAME":"官田區","LI":"東庄里","LIN":"10鄰","STREET":" ","SECT":" ","MAREA":"西庄","LANE":" ","ALLEY":" ","HOUSE_NO":"１５８號之５","E_COORD97":178180.63,"N_COORD97":2565010.54,"ADDRESS":"西庄１５８號之５","OBJECTID":186011},"geometry":{"x":178180.63000000082,"y":2565010.540000001}},{"attributes":{"ID":186013,"DIS_CODE":0,"TOWNNAME":"官田區","LI":"東庄里","LIN":"10鄰","STREET":" ","SECT":" ","MAREA":"西庄","LANE":" ","ALLEY":" ","HOUSE_NO":"１５８號之６","E_COORD97":178175.70000000001,"N_COORD97":2565012.3399999999,"ADDRESS":"西庄１５８號之６","OBJECTID":186012},"geometry":{"x":178175.70000000019,"y":2565012.3400000017}},{"attributes":{"ID":186014,"DIS_CODE":0,"TOWNNAME":"北區","LI":"大港里","LIN":"36鄰","STREET":"大興街","SECT":" ","MAREA":" ","LANE":"６０２巷","ALLEY":"１弄","HOUSE_NO":"１６號","E_COORD97":165803.85000000001,"N_COORD97":2545407.7000000002,"ADDRESS":"大興街６０２巷１弄１６號","OBJECTID":186013},"geometry":{"x":165803.85000000056,"y":2545407.6999999993}},{"attributes":{"ID":186015,"DIS_CODE":0,"TOWNNAME":"北區","LI":"大港里","LIN":"36鄰","STREET":"大興街","SECT":" ","MAREA":" ","LANE":"６０２巷","ALLEY":"１弄","HOUSE_NO":"１８號","E_COORD97":165799.07000000001,"N_COORD97":2545406.29,"ADDRESS":"大興街６０２巷１弄１８號","OBJECTID":186014},"geometry":{"x":165799.06999999937,"y":2545406.290000001}},{"attributes":{"ID":186016,"DIS_CODE":0,"TOWNNAME":"北區","LI":"大港里","LIN":"36鄰","STREET":"大興街","SECT":" ","MAREA":" ","LANE":"６０２巷","ALLEY":"１弄","HOUSE_NO":"２０號","E_COORD97":165795.57999999999,"N_COORD97":2545403.8700000001,"ADDRESS":"大興街６０２巷１弄２０號","OBJECTID":186015},"geometry":{"x":165795.58000000194,"y":2545403.8700000029}},{"attributes":{"ID":186017,"DIS_CODE":0,"TOWNNAME":"北區","LI":"大港里","LIN":"36鄰","STREET":"大興街","SECT":" ","MAREA":" ","LANE":"６０２巷","ALLEY":"１弄","HOUSE_NO":"２２號","E_COORD97":165791.38,"N_COORD97":2545402.3100000001,"ADDRESS":"大興街６０２巷１弄２２號","OBJECTID":186016},"geometry":{"x":165791.37999999989,"y":2545402.3099999987}},{"attributes":{"ID":186018,"DIS_CODE":0,"TOWNNAME":"後壁區","LI":"嘉苳里","LIN":"11鄰","STREET":" ","SECT":" ","MAREA":"本協","LANE":" ","ALLEY":" ","HOUSE_NO":"５號之１","E_COORD97":187269.64000000001,"N_COORD97":2583613.4700000002,"ADDRESS":"本協５號之１","OBJECTID":186017},"geometry":{"x":187269.6400000006,"y":2583613.4700000007}},{"attributes":{"ID":186019,"DIS_CODE":0,"TOWNNAME":"北區","LI":"大港里","LIN":"36鄰","STREET":"大興街","SECT":" ","MAREA":" ","LANE":"６０２巷","ALLEY":"１弄","HOUSE_NO":"２４號","E_COORD97":165787.32000000001,"N_COORD97":2545399.7599999998,"ADDRESS":"大興街６０２巷１弄２４號","OBJECTID":186018},"geometry":{"x":165787.32000000216,"y":2545399.7600000016}},{"attributes":{"ID":186020,"DIS_CODE":0,"TOWNNAME":"北區","LI":"大港里","LIN":"36鄰","STREET":"大興街","SECT":" ","MAREA":" ","LANE":"６０２巷","ALLEY":"１弄","HOUSE_NO":"２６號","E_COORD97":165783.41,"N_COORD97":2545398.2000000002,"ADDRESS":"大興街６０２巷１弄２６號","OBJECTID":186019},"geometry":{"x":165783.41000000108,"y":2545398.1999999993}},{"attributes":{"ID":186021,"DIS_CODE":0,"TOWNNAME":"官田區","LI":"東庄里","LIN":"10鄰","STREET":" ","SECT":" ","MAREA":"西庄","LANE":" ","ALLEY":" ","HOUSE_NO":"１６４號之１","E_COORD97":178097.41,"N_COORD97":2564983.9300000002,"ADDRESS":"西庄１６４號之１","OBJECTID":186020},"geometry":{"x":178097.41000000108,"y":2564983.9300000034}},{"attributes":{"ID":186022,"DIS_CODE":0,"TOWNNAME":"北區","LI":"大港里","LIN":"36鄰","STREET":"大興街","SECT":" ","MAREA":" ","LANE":"６０２巷","ALLEY":"１弄","HOUSE_NO":"２８號","E_COORD97":165779.01999999999,"N_COORD97":2545396.5800000001,"ADDRESS":"大興街６０２巷１弄２８號","OBJECTID":186021},"geometry":{"x":165779.02000000048,"y":2545396.5800000001}},{"attributes":{"ID":186023,"DIS_CODE":0,"TOWNNAME":"東區","LI":"和平里","LIN":"20鄰","STREET":"文化路","SECT":" ","MAREA":" ","LANE":" ","ALLEY":" ","HOUSE_NO":"２５號","E_COORD97":171171.14999999999,"N_COORD97":2541943.4700000002,"ADDRESS":"文化路２５號","OBJECTID":186022},"geometry":{"x":171171.1500000013,"y":2541943.4700000044}},{"attributes":{"ID":186024,"DIS_CODE":0,"TOWNNAME":"官田區","LI":"東庄里","LIN":"10鄰","STREET":" ","SECT":" ","MAREA":"西庄","LANE":" ","ALLEY":" ","HOUSE_NO":"１６４號之２","E_COORD97":178090.32000000001,"N_COORD97":2564974.0499999998,"ADDRESS":"西庄１６４號之２","OBJECTID":186023},"geometry":{"x":178090.3200000003,"y":2564974.0500000045}},{"attributes":{"ID":186025,"DIS_CODE":0,"TOWNNAME":"北區","LI":"大港里","LIN":"36鄰","STREET":"大興街","SECT":" ","MAREA":" ","LANE":"６０２巷","ALLEY":"１弄","HOUSE_NO":"２號","E_COORD97":165831.38,"N_COORD97":2545420.0299999998,"ADDRESS":"大興街６０２巷１弄２號","OBJECTID":186024},"geometry":{"x":165831.38000000082,"y":2545420.0299999975}},{"attributes":{"ID":186026,"DIS_CODE":0,"TOWNNAME":"官田區","LI":"東庄里","LIN":"10鄰","STREET":" ","SECT":" ","MAREA":"西庄","LANE":" ","ALLEY":" ","HOUSE_NO":"１６４號","E_COORD97":178106.78,"N_COORD97":2564998.0899999999,"ADDRESS":"西庄１６４號","OBJECTID":186025},"geometry":{"x":178106.78000000119,"y":2564998.0899999999}},{"attributes":{"ID":186027,"DIS_CODE":0,"TOWNNAME":"官田區","LI":"東庄里","LIN":"10鄰","STREET":" ","SECT":" ","MAREA":"西庄","LANE":" ","ALLEY":" ","HOUSE_NO":"１６５號之１","E_COORD97":178085.76000000001,"N_COORD97":2564997.7400000002,"ADDRESS":"西庄１６５號之１","OBJECTID":186026},"geometry":{"x":178085.76000000164,"y":2564997.7400000002}},{"attributes":{"ID":186028,"DIS_CODE":0,"TOWNNAME":"官田區","LI":"東庄里","LIN":"10鄰","STREET":" ","SECT":" ","MAREA":"西庄","LANE":" ","ALLEY":" ","HOUSE_NO":"１６５號","E_COORD97":178090.12,"N_COORD97":2564997.0699999998,"ADDRESS":"西庄１６５號","OBJECTID":186027},"geometry":{"x":178090.12000000011,"y":2564997.070000004}},{"attributes":{"ID":186029,"DIS_CODE":0,"TOWNNAME":"官田區","LI":"西庄里","LIN":"10鄰","STREET":" ","SECT":" ","MAREA":"西庄","LANE":" ","ALLEY":" ","HOUSE_NO":"７３號之１","E_COORD97":177969.37,"N_COORD97":2565125.9900000002,"ADDRESS":"西庄７３號之１","OBJECTID":186028},"geometry":{"x":177969.37000000011,"y":2565125.9900000002}},{"attributes":{"ID":186030,"DIS_CODE":0,"TOWNNAME":"北區","LI":"大港里","LIN":"36鄰","STREET":"大興街","SECT":" ","MAREA":" ","LANE":"６０２巷","ALLEY":"１弄","HOUSE_NO":"３０號","E_COORD97":165776.12,"N_COORD97":2545395.1600000001,"ADDRESS":"大興街６０２巷１弄３０號","OBJECTID":186029},"geometry":{"x":165776.12000000011,"y":2545395.1600000001}},{"attributes":{"ID":186031,"DIS_CODE":0,"TOWNNAME":"北區","LI":"大港里","LIN":"36鄰","STREET":"大興街","SECT":" ","MAREA":" ","LANE":"６０２巷","ALLEY":"１弄","HOUSE_NO":"３２號","E_COORD97":165772.20000000001,"N_COORD97":2545393.3100000001,"ADDRESS":"大興街６０２巷１弄３２號","OBJECTID":186030},"geometry":{"x":165772.20000000019,"y":2545393.3100000024}},{"attributes":{"ID":186032,"DIS_CODE":0,"TOWNNAME":"官田區","LI":"西庄里","LIN":"10鄰","STREET":" ","SECT":" ","MAREA":"西庄","LANE":" ","ALLEY":" ","HOUSE_NO":"７３號之２","E_COORD97":177969.26999999999,"N_COORD97":2565116.75,"ADDRESS":"西庄７３號之２","OBJECTID":186031},"geometry":{"x":177969.27000000048,"y":2565116.75}},{"attributes":{"ID":186033,"DIS_CODE":0,"TOWNNAME":"官田區","LI":"西庄里","LIN":"10鄰","STREET":" ","SECT":" ","MAREA":"西庄","LANE":" ","ALLEY":" ","HOUSE_NO":"７３號","E_COORD97":177972.87,"N_COORD97":2565136.73,"ADDRESS":"西庄７３號","OBJECTID":186032},"geometry":{"x":177972.87000000011,"y":2565136.7300000023}},{"attributes":{"ID":186034,"DIS_CODE":0,"TOWNNAME":"官田區","LI":"西庄里","LIN":"10鄰","STREET":" ","SECT":" ","MAREA":"西庄","LANE":" ","ALLEY":" ","HOUSE_NO":"７４號","E_COORD97":177987.60000000001,"N_COORD97":2565116.6800000002,"ADDRESS":"西庄７４號","OBJECTID":186033},"geometry":{"x":177987.59999999963,"y":2565116.6799999997}},{"attributes":{"ID":186035,"DIS_CODE":0,"TOWNNAME":"官田區","LI":"西庄里","LIN":"10鄰","STREET":" ","SECT":" ","MAREA":"西庄","LANE":" ","ALLEY":" ","HOUSE_NO":"７５號","E_COORD97":177975.85000000001,"N_COORD97":2565101.1499999999,"ADDRESS":"西庄７５號","OBJECTID":186034},"geometry":{"x":177975.84999999963,"y":2565101.1500000004}},{"attributes":{"ID":186036,"DIS_CODE":0,"TOWNNAME":"北區","LI":"大港里","LIN":"36鄰","STREET":"大興街","SECT":" ","MAREA":" ","LANE":"６０２巷","ALLEY":"１弄","HOUSE_NO":"３４號","E_COORD97":165767.42000000001,"N_COORD97":2545391.3300000001,"ADDRESS":"大興街６０２巷１弄３４號","OBJECTID":186035},"geometry":{"x":165767.41999999993,"y":2545391.3300000001}},{"attributes":{"ID":186037,"DIS_CODE":0,"TOWNNAME":"北區","LI":"大港里","LIN":"36鄰","STREET":"大興街","SECT":" ","MAREA":" ","LANE":"６０２巷","ALLEY":"１弄","HOUSE_NO":"３６號","E_COORD97":165763.35999999999,"N_COORD97":2545389.6299999999,"ADDRESS":"大興街６０２巷１弄３６號","OBJECTID":186036},"geometry":{"x":165763.3600000022,"y":2545389.6300000008}},{"attributes":{"ID":186038,"DIS_CODE":0,"TOWNNAME":"北區","LI":"大港里","LIN":"36鄰","STREET":"大興街","SECT":" ","MAREA":" ","LANE":"６０２巷","ALLEY":"１弄","HOUSE_NO":"４號","E_COORD97":165827.62,"N_COORD97":2545418.6299999999,"ADDRESS":"大興街６０２巷１弄４號","OBJECTID":186037},"geometry":{"x":165827.62000000104,"y":2545418.629999999}},{"attributes":{"ID":186039,"DIS_CODE":0,"TOWNNAME":"北區","LI":"大港里","LIN":"36鄰","STREET":"大興街","SECT":" ","MAREA":" ","LANE":"６０２巷","ALLEY":"１弄","HOUSE_NO":"６號","E_COORD97":165823.70000000001,"N_COORD97":2545416.21,"ADDRESS":"大興街６０２巷１弄６號","OBJECTID":186038},"geometry":{"x":165823.70000000205,"y":2545416.2100000009}},{"attributes":{"ID":186040,"DIS_CODE":0,"TOWNNAME":"東區","LI":"後甲里","LIN":"1鄰","STREET":"裕農路","SECT":" ","MAREA":" ","LANE":" ","ALLEY":" ","HOUSE_NO":"９７５之８號","E_COORD97":172763.45000000001,"N_COORD97":2543436.9100000001,"ADDRESS":"裕農路９７５之８號","OBJECTID":186039},"geometry":{"x":172763.45000000019,"y":2543436.9100000001}},{"attributes":{"ID":186041,"DIS_CODE":0,"TOWNNAME":"北區","LI":"大港里","LIN":"36鄰","STREET":"大興街","SECT":" ","MAREA":" ","LANE":"６０２巷","ALLEY":"１弄","HOUSE_NO":"８號","E_COORD97":165819.64000000001,"N_COORD97":2545414.9399999999,"ADDRESS":"大興街６０２巷１弄８號","OBJECTID":186040},"geometry":{"x":165819.63999999966,"y":2545414.9400000013}},{"attributes":{"ID":186042,"DIS_CODE":0,"TOWNNAME":"北區","LI":"大港里","LIN":"36鄰","STREET":"大興街","SECT":" ","MAREA":" ","LANE":"６０２巷","ALLEY":"３弄","HOUSE_NO":"１０號","E_COORD97":165779.14000000001,"N_COORD97":2545432.52,"ADDRESS":"大興街６０２巷３弄１０號","OBJECTID":186041},"geometry":{"x":165779.13999999966,"y":2545432.5199999996}},{"attributes":{"ID":186043,"DIS_CODE":0,"TOWNNAME":"仁德區","LI":"上崙里","LIN":"10鄰","STREET":"德善路","SECT":" ","MAREA":" ","LANE":" ","ALLEY":" ","HOUSE_NO":"４３３號","E_COORD97":174045.26000000001,"N_COORD97":2538244.52,"ADDRESS":"德善路４３３號","OBJECTID":186042},"geometry":{"x":174045.26000000071,"y":2538244.5200000014}},{"attributes":{"ID":186044,"DIS_CODE":0,"TOWNNAME":"北區","LI":"大港里","LIN":"36鄰","STREET":"大興街","SECT":" ","MAREA":" ","LANE":"６０２巷","ALLEY":"３弄","HOUSE_NO":"１１號","E_COORD97":165775.22,"N_COORD97":2545430.1000000001,"ADDRESS":"大興街６０２巷３弄１１號","OBJECTID":186043},"geometry":{"x":165775.21999999974,"y":2545430.1000000034}},{"attributes":{"ID":186045,"DIS_CODE":0,"TOWNNAME":"北區","LI":"大港里","LIN":"36鄰","STREET":"大興街","SECT":" ","MAREA":" ","LANE":"６０２巷","ALLEY":"３弄","HOUSE_NO":"１２號","E_COORD97":165772.01999999999,"N_COORD97":2545427.5499999998,"ADDRESS":"大興街６０２巷３弄１２號","OBJECTID":186044},"geometry":{"x":165772.02000000048,"y":2545427.5500000007}},{"attributes":{"ID":186046,"DIS_CODE":0,"TOWNNAME":"北區","LI":"大港里","LIN":"36鄰","STREET":"大興街","SECT":" ","MAREA":" ","LANE":"６０２巷","ALLEY":"３弄","HOUSE_NO":"１３號","E_COORD97":165768.38,"N_COORD97":2545424.5699999998,"ADDRESS":"大興街６０２巷３弄１３號","OBJECTID":186045},"geometry":{"x":165768.38000000082,"y":2545424.570000004}},{"attributes":{"ID":186047,"DIS_CODE":0,"TOWNNAME":"北區","LI":"大港里","LIN":"36鄰","STREET":"大興街","SECT":" ","MAREA":" ","LANE":"６０２巷","ALLEY":"３弄","HOUSE_NO":"１４號","E_COORD97":165763.70000000001,"N_COORD97":2545421.6800000002,"ADDRESS":"大興街６０２巷３弄１４號","OBJECTID":186046},"geometry":{"x":165763.70000000019,"y":2545421.6799999997}},{"attributes":{"ID":186048,"DIS_CODE":0,"TOWNNAME":"北區","LI":"大港里","LIN":"36鄰","STREET":"大興街","SECT":" ","MAREA":" ","LANE":"６０２巷","ALLEY":"３弄","HOUSE_NO":"１５號","E_COORD97":165759.62,"N_COORD97":2545418.27,"ADDRESS":"大興街６０２巷３弄１５號","OBJECTID":186047},"geometry":{"x":165759.62000000197,"y":2545418.2699999996}},{"attributes":{"ID":186049,"DIS_CODE":0,"TOWNNAME":"北區","LI":"大港里","LIN":"36鄰","STREET":"大興街","SECT":" ","MAREA":" ","LANE":"６０２巷","ALLEY":"３弄","HOUSE_NO":"１６號","E_COORD97":165754.69,"N_COORD97":2545415.8599999999,"ADDRESS":"大興街６０２巷３弄１６號","OBJECTID":186048},"geometry":{"x":165754.69000000134,"y":2545415.8600000013}},{"attributes":{"ID":186050,"DIS_CODE":0,"TOWNNAME":"北區","LI":"大港里","LIN":"36鄰","STREET":"大興街","SECT":" ","MAREA":" ","LANE":"６０２巷","ALLEY":"３弄","HOUSE_NO":"１７號","E_COORD97":165748.29999999999,"N_COORD97":2545411.46,"ADDRESS":"大興街６０２巷３弄１７號","OBJECTID":186049},"geometry":{"x":165748.30000000075,"y":2545411.4600000009}},{"attributes":{"ID":186051,"DIS_CODE":0,"TOWNNAME":"北區","LI":"大港里","LIN":"36鄰","STREET":"大興街","SECT":" ","MAREA":" ","LANE":"６０２巷","ALLEY":"３弄","HOUSE_NO":"１號","E_COORD97":165812.84,"N_COORD97":2545454.9399999999,"ADDRESS":"大興街６０２巷３弄１號","OBJECTID":186050},"geometry":{"x":165812.84000000078,"y":2545454.9400000032}},{"attributes":{"ID":186052,"DIS_CODE":0,"TOWNNAME":"北區","LI":"大港里","LIN":"36鄰","STREET":"大興街","SECT":" ","MAREA":" ","LANE":"６０２巷","ALLEY":"３弄","HOUSE_NO":"２號","E_COORD97":165808.76999999999,"N_COORD97":2545452.3900000001,"ADDRESS":"大興街６０２巷３弄２號","OBJECTID":186051},"geometry":{"x":165808.76999999955,"y":2545452.3900000006}},{"attributes":{"ID":186053,"DIS_CODE":0,"TOWNNAME":"北區","LI":"大港里","LIN":"36鄰","STREET":"大興街","SECT":" ","MAREA":" ","LANE":"６０２巷","ALLEY":"３弄","HOUSE_NO":"３號","E_COORD97":165805.42999999999,"N_COORD97":2545449.8300000001,"ADDRESS":"大興街６０２巷３弄３號","OBJECTID":186052},"geometry":{"x":165805.43000000063,"y":2545449.8300000019}},{"attributes":{"ID":186054,"DIS_CODE":0,"TOWNNAME":"北區","LI":"大港里","LIN":"36鄰","STREET":"大興街","SECT":" ","MAREA":" ","LANE":"６０２巷","ALLEY":"３弄","HOUSE_NO":"４號","E_COORD97":165801.79999999999,"N_COORD97":2545447.9900000002,"ADDRESS":"大興街６０２巷３弄４號","OBJECTID":186053},"geometry":{"x":165801.79999999981,"y":2545447.9900000002}},{"attributes":{"ID":186055,"DIS_CODE":0,"TOWNNAME":"北區","LI":"大港里","LIN":"36鄰","STREET":"大興街","SECT":" ","MAREA":" ","LANE":"６０２巷","ALLEY":"３弄","HOUSE_NO":"５號","E_COORD97":165797.75,"N_COORD97":2545446,"ADDRESS":"大興街６０２巷３弄５號","OBJECTID":186054},"geometry":{"x":165797.75000000186,"y":2545446.0000000019}},{"attributes":{"ID":186056,"DIS_CODE":0,"TOWNNAME":"北區","LI":"大港里","LIN":"36鄰","STREET":"大興街","SECT":" ","MAREA":" ","LANE":"６０２巷","ALLEY":"３弄","HOUSE_NO":"６號","E_COORD97":165795.25,"N_COORD97":2545442.02,"ADDRESS":"大興街６０２巷３弄６號","OBJECTID":186055},"geometry":{"x":165795.25,"y":2545442.0200000014}},{"attributes":{"ID":186057,"DIS_CODE":0,"TOWNNAME":"仁德區","LI":"上崙里","LIN":"10鄰","STREET":"德善路","SECT":" ","MAREA":" ","LANE":" ","ALLEY":" ","HOUSE_NO":"４０１號","E_COORD97":174025.44,"N_COORD97":2538312.5099999998,"ADDRESS":"德善路４０１號","OBJECTID":186056},"geometry":{"x":174025.44000000134,"y":2538312.5100000016}},{"attributes":{"ID":186058,"DIS_CODE":0,"TOWNNAME":"仁德區","LI":"仁義里","LIN":"10鄰","STREET":"仁義三街","SECT":" ","MAREA":" ","LANE":" ","ALLEY":" ","HOUSE_NO":"５１號","E_COORD97":173430.17999999999,"N_COORD97":2541137.77,"ADDRESS":"仁義三街５１號","OBJECTID":186057},"geometry":{"x":173430.18000000063,"y":2541137.7700000014}},{"attributes":{"ID":186059,"DIS_CODE":0,"TOWNNAME":"北區","LI":"大港里","LIN":"36鄰","STREET":"大興街","SECT":" ","MAREA":" ","LANE":"６０２巷","ALLEY":"３弄","HOUSE_NO":"７號","E_COORD97":165790.89999999999,"N_COORD97":2545439.4700000002,"ADDRESS":"大興街６０２巷３弄７號","OBJECTID":186058},"geometry":{"x":165790.9000000013,"y":2545439.4700000025}},{"attributes":{"ID":186060,"DIS_CODE":0,"TOWNNAME":"仁德區","LI":"中洲里","LIN":"10鄰","STREET":" ","SECT":" ","MAREA":"中洲","LANE":" ","ALLEY":" ","HOUSE_NO":"３０９之１６號","E_COORD97":173465.64999999999,"N_COORD97":2534106.2999999998,"ADDRESS":"中洲３０９之１６號","OBJECTID":186059},"geometry":{"x":173465.65000000037,"y":2534106.3000000045}},{"attributes":{"ID":186061,"DIS_CODE":0,"TOWNNAME":"仁德區","LI":"中洲里","LIN":"10鄰","STREET":" ","SECT":" ","MAREA":"中洲","LANE":" ","ALLEY":" ","HOUSE_NO":"３０９之３６號","E_COORD97":173675.39999999999,"N_COORD97":2534093.2999999998,"ADDRESS":"中洲３０９之３６號","OBJECTID":186060},"geometry":{"x":173675.4000000013,"y":2534093.3000000026}},{"attributes":{"ID":186062,"DIS_CODE":0,"TOWNNAME":"仁德區","LI":"中洲里","LIN":"10鄰","STREET":" ","SECT":" ","MAREA":"中洲","LANE":" ","ALLEY":" ","HOUSE_NO":"３１６號之５","E_COORD97":173350.20000000001,"N_COORD97":2534049.79,"ADDRESS":"中洲３１６號之５","OBJECTID":186061},"geometry":{"x":173350.20000000205,"y":2534049.7899999991}},{"attributes":{"ID":186063,"DIS_CODE":0,"TOWNNAME":"北區","LI":"大港里","LIN":"36鄰","STREET":"大興街","SECT":" ","MAREA":" ","LANE":"６０２巷","ALLEY":"３弄","HOUSE_NO":"８號","E_COORD97":165786.82999999999,"N_COORD97":2545437.2000000002,"ADDRESS":"大興街６０２巷３弄８號","OBJECTID":186062},"geometry":{"x":165786.83000000007,"y":2545437.2000000011}},{"attributes":{"ID":186064,"DIS_CODE":0,"TOWNNAME":"北區","LI":"大港里","LIN":"36鄰","STREET":"大興街","SECT":" ","MAREA":" ","LANE":"６０２巷","ALLEY":"３弄","HOUSE_NO":"９號","E_COORD97":165783.64000000001,"N_COORD97":2545434.9300000002,"ADDRESS":"大興街６０２巷３弄９號","OBJECTID":186063},"geometry":{"x":165783.6400000006,"y":2545434.9300000034}},{"attributes":{"ID":186065,"DIS_CODE":0,"TOWNNAME":"仁德區","LI":"中洲里","LIN":"10鄰","STREET":" ","SECT":" ","MAREA":"中洲","LANE":" ","ALLEY":" ","HOUSE_NO":"３１６號之１１","E_COORD97":173371.35000000001,"N_COORD97":2534059.54,"ADDRESS":"中洲３１６號之１１","OBJECTID":186064},"geometry":{"x":173371.35000000056,"y":2534059.540000001}},{"attributes":{"ID":186066,"DIS_CODE":0,"TOWNNAME":"仁德區","LI":"中洲里","LIN":"10鄰","STREET":" ","SECT":" ","MAREA":"中洲","LANE":" ","ALLEY":" ","HOUSE_NO":"３１３號之１","E_COORD97":173385.29000000001,"N_COORD97":2534077.04,"ADDRESS":"中洲３１３號之１","OBJECTID":186065},"geometry":{"x":173385.29000000097,"y":2534077.040000001}},{"attributes":{"ID":186067,"DIS_CODE":0,"TOWNNAME":"仁德區","LI":"中洲里","LIN":"10鄰","STREET":" ","SECT":" ","MAREA":"中洲","LANE":" ","ALLEY":" ","HOUSE_NO":"３０９之２２號","E_COORD97":174055.51999999999,"N_COORD97":2533913.0499999998,"ADDRESS":"中洲３０９之２２號","OBJECTID":186066},"geometry":{"x":174055.51999999955,"y":2533913.0500000007}},{"attributes":{"ID":186068,"DIS_CODE":0,"TOWNNAME":"南區","LI":"大忠里","LIN":"36鄰","STREET":"國民路","SECT":" ","MAREA":" ","LANE":"２７０巷","ALLEY":"２２弄","HOUSE_NO":"１８號","E_COORD97":169081.22,"N_COORD97":2541464.1499999999,"ADDRESS":"國民路２７０巷２２弄１８號","OBJECTID":186067},"geometry":{"x":169081.2200000016,"y":2541464.1500000041}},{"attributes":{"ID":186069,"DIS_CODE":0,"TOWNNAME":"南區","LI":"大忠里","LIN":"36鄰","STREET":"國民路","SECT":" ","MAREA":" ","LANE":"２７０巷","ALLEY":"２２弄","HOUSE_NO":"２０號","E_COORD97":169085.03,"N_COORD97":2541460.3500000001,"ADDRESS":"國民路２７０巷２２弄２０號","OBJECTID":186068},"geometry":{"x":169085.03000000119,"y":2541460.3499999996}},{"attributes":{"ID":186070,"DIS_CODE":0,"TOWNNAME":"南區","LI":"大忠里","LIN":"36鄰","STREET":"國民路","SECT":" ","MAREA":" ","LANE":"２７０巷","ALLEY":"２２弄","HOUSE_NO":"２２號","E_COORD97":169088.48000000001,"N_COORD97":2541456.7200000002,"ADDRESS":"國民路２７０巷２２弄２２號","OBJECTID":186069},"geometry":{"x":169088.48000000045,"y":2541456.7199999988}},{"attributes":{"ID":186071,"DIS_CODE":0,"TOWNNAME":"仁德區","LI":"中洲里","LIN":"10鄰","STREET":" ","SECT":" ","MAREA":"中洲","LANE":" ","ALLEY":" ","HOUSE_NO":"３１６號之１２","E_COORD97":173334.76000000001,"N_COORD97":2534070.04,"ADDRESS":"中洲３１６號之１２","OBJECTID":186070},"geometry":{"x":173334.76000000071,"y":2534070.040000001}},{"attributes":{"ID":186072,"DIS_CODE":0,"TOWNNAME":"仁德區","LI":"中洲里","LIN":"10鄰","STREET":" ","SECT":" ","MAREA":"中洲","LANE":" ","ALLEY":" ","HOUSE_NO":"３１６號之７","E_COORD97":173351.67999999999,"N_COORD97":2534042.29,"ADDRESS":"中洲３１６號之７","OBJECTID":186071},"geometry":{"x":173351.68000000156,"y":2534042.2899999991}},{"attributes":{"ID":186073,"DIS_CODE":0,"TOWNNAME":"南區","LI":"大忠里","LIN":"36鄰","STREET":"國民路","SECT":" ","MAREA":" ","LANE":"２７０巷","ALLEY":"２２弄","HOUSE_NO":"２４號","E_COORD97":169091.94,"N_COORD97":2541452.5600000001,"ADDRESS":"國民路２７０巷２２弄２４號","OBJECTID":186072},"geometry":{"x":169091.94000000041,"y":2541452.5600000024}},{"attributes":{"ID":186074,"DIS_CODE":0,"TOWNNAME":"南區","LI":"大忠里","LIN":"36鄰","STREET":"國民路","SECT":" ","MAREA":" ","LANE":"２７０巷","ALLEY":"２２弄","HOUSE_NO":"１０號","E_COORD97":169069.04000000001,"N_COORD97":2541477.3700000001,"ADDRESS":"國民路２７０巷２２弄１０號","OBJECTID":186073},"geometry":{"x":169069.03999999911,"y":2541477.3700000029}},{"attributes":{"ID":186075,"DIS_CODE":0,"TOWNNAME":"仁德區","LI":"中洲里","LIN":"10鄰","STREET":" ","SECT":" ","MAREA":"中洲","LANE":" ","ALLEY":" ","HOUSE_NO":"３１６號之１０","E_COORD97":173366.95000000001,"N_COORD97":2534058.29,"ADDRESS":"中洲３１６號之１０","OBJECTID":186074},"geometry":{"x":173366.95000000019,"y":2534058.290000001}},{"attributes":{"ID":186076,"DIS_CODE":0,"TOWNNAME":"仁德區","LI":"中洲里","LIN":"10鄰","STREET":" ","SECT":" ","MAREA":"中洲","LANE":" ","ALLEY":" ","HOUSE_NO":"３０７號之２","E_COORD97":173371.04000000001,"N_COORD97":2533956.29,"ADDRESS":"中洲３０７號之２","OBJECTID":186075},"geometry":{"x":173371.04000000004,"y":2533956.290000001}},{"attributes":{"ID":186077,"DIS_CODE":0,"TOWNNAME":"南區","LI":"大忠里","LIN":"36鄰","STREET":"國民路","SECT":" ","MAREA":" ","LANE":"２７０巷","ALLEY":"２２弄","HOUSE_NO":"１２號","E_COORD97":169071.95000000001,"N_COORD97":2541473.75,"ADDRESS":"國民路２７０巷２２弄１２號","OBJECTID":186076},"geometry":{"x":169071.95000000112,"y":2541473.7500000019}},{"attributes":{"ID":186078,"DIS_CODE":0,"TOWNNAME":"南區","LI":"大忠里","LIN":"36鄰","STREET":"國民路","SECT":" ","MAREA":" ","LANE":"２７０巷","ALLEY":"２２弄","HOUSE_NO":"１４號","E_COORD97":169075.04000000001,"N_COORD97":2541470.3100000001,"ADDRESS":"國民路２７０巷２２弄１４號","OBJECTID":186077},"geometry":{"x":169075.04000000097,"y":2541470.3100000024}},{"attributes":{"ID":186079,"DIS_CODE":0,"TOWNNAME":"南區","LI":"大忠里","LIN":"36鄰","STREET":"國民路","SECT":" ","MAREA":" ","LANE":"２７０巷","ALLEY":"２２弄","HOUSE_NO":"６號","E_COORD97":169063.10000000001,"N_COORD97":2541484.6400000001,"ADDRESS":"國民路２７０巷２２弄６號","OBJECTID":186078},"geometry":{"x":169063.0999999987,"y":2541484.6400000043}},{"attributes":{"ID":186080,"DIS_CODE":0,"TOWNNAME":"仁德區","LI":"中洲里","LIN":"10鄰","STREET":" ","SECT":" ","MAREA":"中洲","LANE":" ","ALLEY":" ","HOUSE_NO":"３１７號之１１","E_COORD97":173458.57000000001,"N_COORD97":2533994.5499999998,"ADDRESS":"中洲３１７號之１１","OBJECTID":186079},"geometry":{"x":173458.57000000123,"y":2533994.5500000007}},{"attributes":{"ID":186081,"DIS_CODE":0,"TOWNNAME":"仁德區","LI":"中洲里","LIN":"10鄰","STREET":" ","SECT":" ","MAREA":"中洲","LANE":" ","ALLEY":" ","HOUSE_NO":"３１７號之１４","E_COORD97":173471.20000000001,"N_COORD97":2533995.7999999998,"ADDRESS":"中洲３１７號之１４","OBJECTID":186080},"geometry":{"x":173471.20000000112,"y":2533995.8000000026}},{"attributes":{"ID":186082,"DIS_CODE":0,"TOWNNAME":"新營區","LI":"民榮里","LIN":"36鄰","STREET":"新進路","SECT":"二段","MAREA":" ","LANE":"４４５巷","ALLEY":"２５弄","HOUSE_NO":"４２號","E_COORD97":178478.92999999999,"N_COORD97":2577936.5499999998,"ADDRESS":"新進路二段４４５巷２５弄４２號","OBJECTID":186081},"geometry":{"x":178478.9299999997,"y":2577936.5500000026}},{"attributes":{"ID":186083,"DIS_CODE":0,"TOWNNAME":"新營區","LI":"民榮里","LIN":"36鄰","STREET":"新進路","SECT":"二段","MAREA":" ","LANE":"４４５巷","ALLEY":"２５弄","HOUSE_NO":"４４號","E_COORD97":178479.92000000001,"N_COORD97":2577928.7999999998,"ADDRESS":"新進路二段４４５巷２５弄４４號","OBJECTID":186082},"geometry":{"x":178479.92000000179,"y":2577928.8000000007}},{"attributes":{"ID":186084,"DIS_CODE":0,"TOWNNAME":"新營區","LI":"民榮里","LIN":"36鄰","STREET":"新進路","SECT":"二段","MAREA":" ","LANE":"４４５巷","ALLEY":"２５弄","HOUSE_NO":"３９號","E_COORD97":178491.07000000001,"N_COORD97":2577907.7000000002,"ADDRESS":"新進路二段４４５巷２５弄３９號","OBJECTID":186083},"geometry":{"x":178491.07000000216,"y":2577907.6999999993}},{"attributes":{"ID":186085,"DIS_CODE":0,"TOWNNAME":"仁德區","LI":"中洲里","LIN":"10鄰","STREET":" ","SECT":" ","MAREA":"中洲","LANE":" ","ALLEY":" ","HOUSE_NO":"３１７號之２","E_COORD97":173414.82000000001,"N_COORD97":2533973.04,"ADDRESS":"中洲３１７號之２","OBJECTID":186084},"geometry":{"x":173414.82000000123,"y":2533973.0399999991}},{"attributes":{"ID":186086,"DIS_CODE":0,"TOWNNAME":"新營區","LI":"民榮里","LIN":"36鄰","STREET":"新進路","SECT":"二段","MAREA":" ","LANE":"４４５巷","ALLEY":"２５弄","HOUSE_NO":"５７號","E_COORD97":178453.12,"N_COORD97":2577899.0299999998,"ADDRESS":"新進路二段４４５巷２５弄５７號","OBJECTID":186085},"geometry":{"x":178453.11999999918,"y":2577899.0299999993}},{"attributes":{"ID":186087,"DIS_CODE":0,"TOWNNAME":"仁德區","LI":"中生里","LIN":"10鄰","STREET":" ","SECT":" ","MAREA":"中洲","LANE":" ","ALLEY":" ","HOUSE_NO":"１８４號之６","E_COORD97":173154.79999999999,"N_COORD97":2534144.29,"ADDRESS":"中洲１８４號之６","OBJECTID":186086},"geometry":{"x":173154.80000000075,"y":2534144.2899999991}},{"attributes":{"ID":186088,"DIS_CODE":0,"TOWNNAME":"仁德區","LI":"中洲里","LIN":"10鄰","STREET":" ","SECT":" ","MAREA":"中洲","LANE":" ","ALLEY":" ","HOUSE_NO":"３１７號之４","E_COORD97":173428.73000000001,"N_COORD97":2533990.7999999998,"ADDRESS":"中洲３１７號之４","OBJECTID":186087},"geometry":{"x":173428.73000000138,"y":2533990.8000000045}},{"attributes":{"ID":186089,"DIS_CODE":0,"TOWNNAME":"新營區","LI":"民榮里","LIN":"36鄰","STREET":"新進路","SECT":"二段","MAREA":" ","LANE":"４４５巷","ALLEY":"２５弄","HOUSE_NO":"４７號","E_COORD97":178499.17000000001,"N_COORD97":2577892.1499999999,"ADDRESS":"新進路二段４４５巷２５弄４７號","OBJECTID":186088},"geometry":{"x":178499.17000000086,"y":2577892.1500000004}},{"attributes":{"ID":186090,"DIS_CODE":0,"TOWNNAME":"新營區","LI":"民榮里","LIN":"36鄰","STREET":"新進路","SECT":"二段","MAREA":" ","LANE":"４４５巷","ALLEY":"２５弄","HOUSE_NO":"７３號","E_COORD97":178458.14000000001,"N_COORD97":2577877.9500000002,"ADDRESS":"新進路二段４４５巷２５弄７３號","OBJECTID":186089},"geometry":{"x":178458.1400000006,"y":2577877.9500000011}},{"attributes":{"ID":186091,"DIS_CODE":0,"TOWNNAME":"新營區","LI":"民榮里","LIN":"36鄰","STREET":"新進路","SECT":"二段","MAREA":" ","LANE":"４４５巷","ALLEY":"２５弄","HOUSE_NO":"４０號","E_COORD97":178476.91,"N_COORD97":2577940.9900000002,"ADDRESS":"新進路二段４４５巷２５弄４０號","OBJECTID":186090},"geometry":{"x":178476.91000000108,"y":2577940.9900000002}},{"attributes":{"ID":186092,"DIS_CODE":0,"TOWNNAME":"新營區","LI":"民榮里","LIN":"36鄰","STREET":"新進路","SECT":"二段","MAREA":" ","LANE":"４４５巷","ALLEY":"２５弄","HOUSE_NO":"２１號","E_COORD97":178533.07999999999,"N_COORD97":2577925.2200000002,"ADDRESS":"新進路二段４４５巷２５弄２１號","OBJECTID":186091},"geometry":{"x":178533.07999999914,"y":2577925.2200000025}},{"attributes":{"ID":186093,"DIS_CODE":0,"TOWNNAME":"仁德區","LI":"大甲里","LIN":"10鄰","STREET":"行大街","SECT":" ","MAREA":" ","LANE":"３４１巷","ALLEY":" ","HOUSE_NO":"９號","E_COORD97":169638.73999999999,"N_COORD97":2535162.5,"ADDRESS":"行大街３４１巷９號","OBJECTID":186092},"geometry":{"x":169638.74000000022,"y":2535162.5000000019}},{"attributes":{"ID":186094,"DIS_CODE":0,"TOWNNAME":"玉井區","LI":"玉田里","LIN":"24鄰","STREET":"中華路","SECT":" ","MAREA":" ","LANE":" ","ALLEY":" ","HOUSE_NO":"１２２號","E_COORD97":195125.85000000001,"N_COORD97":2557928.25,"ADDRESS":"中華路１２２號","OBJECTID":186093},"geometry":{"x":195125.85000000056,"y":2557928.25}},{"attributes":{"ID":186095,"DIS_CODE":0,"TOWNNAME":"新營區","LI":"民榮里","LIN":"36鄰","STREET":"新進路","SECT":"二段","MAREA":" ","LANE":"４４５巷","ALLEY":"２５弄","HOUSE_NO":"６０號","E_COORD97":178441.95000000001,"N_COORD97":2577917.9100000001,"ADDRESS":"新進路二段４４５巷２５弄６０號","OBJECTID":186094},"geometry":{"x":178441.95000000019,"y":2577917.9100000001}},{"attributes":{"ID":186096,"DIS_CODE":0,"TOWNNAME":"新營區","LI":"民榮里","LIN":"36鄰","STREET":"新進路","SECT":"二段","MAREA":" ","LANE":"４４５巷","ALLEY":"２５弄","HOUSE_NO":"４３號","E_COORD97":178495.12,"N_COORD97":2577899.9300000002,"ADDRESS":"新進路二段４４５巷２５弄４３號","OBJECTID":186095},"geometry":{"x":178495.12000000011,"y":2577899.9299999997}},{"attributes":{"ID":186097,"DIS_CODE":0,"TOWNNAME":"新營區","LI":"民榮里","LIN":"36鄰","STREET":"新進路","SECT":"二段","MAREA":" ","LANE":"４４５巷","ALLEY":"２５弄","HOUSE_NO":"４８號","E_COORD97":178467.62,"N_COORD97":2577924.4300000002,"ADDRESS":"新進路二段４４５巷２５弄４８號","OBJECTID":186096},"geometry":{"x":178467.62000000104,"y":2577924.4299999997}},{"attributes":{"ID":186098,"DIS_CODE":0,"TOWNNAME":"新營區","LI":"民榮里","LIN":"36鄰","STREET":"新進路","SECT":"二段","MAREA":" ","LANE":"４４５巷","ALLEY":"２５弄","HOUSE_NO":"４１號","E_COORD97":178494.10999999999,"N_COORD97":2577904.3700000001,"ADDRESS":"新進路二段４４５巷２５弄４１號","OBJECTID":186097},"geometry":{"x":178494.1099999994,"y":2577904.3700000029}},{"attributes":{"ID":186099,"DIS_CODE":0,"TOWNNAME":"新營區","LI":"民榮里","LIN":"36鄰","STREET":"新進路","SECT":"二段","MAREA":" ","LANE":"４４５巷","ALLEY":"２５弄","HOUSE_NO":"２０號","E_COORD97":178500.39999999999,"N_COORD97":2577935.3399999999,"ADDRESS":"新進路二段４４５巷２５弄２０號","OBJECTID":186098},"geometry":{"x":178500.40000000037,"y":2577935.3399999999}},{"attributes":{"ID":186100,"DIS_CODE":0,"TOWNNAME":"仁德區","LI":"上崙里","LIN":"10鄰","STREET":"德善路","SECT":" ","MAREA":" ","LANE":" ","ALLEY":" ","HOUSE_NO":"３８７號","E_COORD97":174015.69,"N_COORD97":2538347.27,"ADDRESS":"德善路３８７號","OBJECTID":186099},"geometry":{"x":174015.69000000134,"y":2538347.2700000014}},{"attributes":{"ID":186101,"DIS_CODE":0,"TOWNNAME":"仁德區","LI":"中洲里","LIN":"10鄰","STREET":" ","SECT":" ","MAREA":"中洲","LANE":" ","ALLEY":" ","HOUSE_NO":"３１７號之１０","E_COORD97":173454.26000000001,"N_COORD97":2533993.7999999998,"ADDRESS":"中洲３１７號之１０","OBJECTID":186100},"geometry":{"x":173454.25999999978,"y":2533993.8000000007}},{"attributes":{"ID":186102,"DIS_CODE":0,"TOWNNAME":"仁德區","LI":"中生里","LIN":"10鄰","STREET":" ","SECT":" ","MAREA":"中洲","LANE":" ","ALLEY":" ","HOUSE_NO":"１７９號","E_COORD97":173177.39999999999,"N_COORD97":2534087.75,"ADDRESS":"中洲１７９號","OBJECTID":186101},"geometry":{"x":173177.40000000037,"y":2534087.75}},{"attributes":{"ID":186103,"DIS_CODE":0,"TOWNNAME":"仁德區","LI":"上崙里","LIN":"10鄰","STREET":"德善路","SECT":" ","MAREA":" ","LANE":" ","ALLEY":" ","HOUSE_NO":"３７１號","E_COORD97":174003.98999999999,"N_COORD97":2538387.7599999998,"ADDRESS":"德善路３７１號","OBJECTID":186102},"geometry":{"x":174003.99000000022,"y":2538387.7600000016}},{"attributes":{"ID":186104,"DIS_CODE":0,"TOWNNAME":"仁德區","LI":"上崙里","LIN":"10鄰","STREET":"德善路","SECT":" ","MAREA":" ","LANE":" ","ALLEY":" ","HOUSE_NO":"３６３號","E_COORD97":173999.04000000001,"N_COORD97":2538403.7599999998,"ADDRESS":"德善路３６３號","OBJECTID":186103},"geometry":{"x":173999.04000000097,"y":2538403.7599999998}},{"attributes":{"ID":186105,"DIS_CODE":0,"TOWNNAME":"仁德區","LI":"上崙里","LIN":"10鄰","STREET":"德善路","SECT":" ","MAREA":" ","LANE":" ","ALLEY":" ","HOUSE_NO":"３７７號","E_COORD97":174007.51000000001,"N_COORD97":2538375.77,"ADDRESS":"德善路３７７號","OBJECTID":186104},"geometry":{"x":174007.51000000071,"y":2538375.7699999996}},{"attributes":{"ID":186106,"DIS_CODE":0,"TOWNNAME":"仁德區","LI":"上崙里","LIN":"10鄰","STREET":"德善路","SECT":" ","MAREA":" ","LANE":" ","ALLEY":" ","HOUSE_NO":"３５７號","E_COORD97":173995.59,"N_COORD97":2538415.7599999998,"ADDRESS":"德善路３５７號","OBJECTID":186105},"geometry":{"x":173995.59000000078,"y":2538415.7600000016}},{"attributes":{"ID":186107,"DIS_CODE":0,"TOWNNAME":"新營區","LI":"民榮里","LIN":"36鄰","STREET":"新進路","SECT":"二段","MAREA":" ","LANE":"４４５巷","ALLEY":"２５弄","HOUSE_NO":"３５號","E_COORD97":178509.45000000001,"N_COORD97":2577899.8599999999,"ADDRESS":"新進路二段４４５巷２５弄３５號","OBJECTID":186106},"geometry":{"x":178509.45000000112,"y":2577899.8599999994}},{"attributes":{"ID":186108,"DIS_CODE":0,"TOWNNAME":"新營區","LI":"民榮里","LIN":"36鄰","STREET":"新進路","SECT":"二段","MAREA":" ","LANE":"４４５巷","ALLEY":"２５弄","HOUSE_NO":"６２號","E_COORD97":178436.82000000001,"N_COORD97":2577916.8199999998,"ADDRESS":"新進路二段４４５巷２５弄６２號","OBJECTID":186107},"geometry":{"x":178436.82000000216,"y":2577916.8200000022}},{"attributes":{"ID":186109,"DIS_CODE":0,"TOWNNAME":"新營區","LI":"民榮里","LIN":"36鄰","STREET":"新進路","SECT":"二段","MAREA":" ","LANE":"４４５巷","ALLEY":"２５弄","HOUSE_NO":"４６號","E_COORD97":178482.95000000001,"N_COORD97":2577922.1400000001,"ADDRESS":"新進路二段４４５巷２５弄４６號","OBJECTID":186108},"geometry":{"x":178482.95000000019,"y":2577922.1400000025}},{"attributes":{"ID":186110,"DIS_CODE":0,"TOWNNAME":"新營區","LI":"民榮里","LIN":"36鄰","STREET":"新進路","SECT":"二段","MAREA":" ","LANE":"４４５巷","ALLEY":"２５弄","HOUSE_NO":"６１號","E_COORD97":178444.91,"N_COORD97":2577895.7400000002,"ADDRESS":"新進路二段４４５巷２５弄６１號","OBJECTID":186109},"geometry":{"x":178444.91000000108,"y":2577895.7400000002}},{"attributes":{"ID":186111,"DIS_CODE":0,"TOWNNAME":"新營區","LI":"民榮里","LIN":"36鄰","STREET":"新進路","SECT":"二段","MAREA":" ","LANE":"４４５巷","ALLEY":"２５弄","HOUSE_NO":"２２號","E_COORD97":178497.39000000001,"N_COORD97":2577947.54,"ADDRESS":"新進路二段４４５巷２５弄２２號","OBJECTID":186110},"geometry":{"x":178497.3900000006,"y":2577947.540000001}},{"attributes":{"ID":186112,"DIS_CODE":0,"TOWNNAME":"後壁區","LI":"土溝里","LIN":"11鄰","STREET":" ","SECT":" ","MAREA":"土溝","LANE":" ","ALLEY":" ","HOUSE_NO":"１０８號之４附１","E_COORD97":187524.95000000001,"N_COORD97":2585739.25,"ADDRESS":"土溝１０８號之４附１","OBJECTID":186111},"geometry":{"x":187524.95000000019,"y":2585739.2500000019}},{"attributes":{"ID":186113,"DIS_CODE":0,"TOWNNAME":"新營區","LI":"民榮里","LIN":"36鄰","STREET":"新進路","SECT":"二段","MAREA":" ","LANE":"４４５巷","ALLEY":"２５弄","HOUSE_NO":"５８號","E_COORD97":178446.04999999999,"N_COORD97":2577918.9900000002,"ADDRESS":"新進路二段４４５巷２５弄５８號","OBJECTID":186112},"geometry":{"x":178446.04999999981,"y":2577918.9900000021}},{"attributes":{"ID":186114,"DIS_CODE":0,"TOWNNAME":"後壁區","LI":"嘉苳里","LIN":"11鄰","STREET":" ","SECT":" ","MAREA":"本協","LANE":" ","ALLEY":" ","HOUSE_NO":"５號之２０","E_COORD97":187221.70000000001,"N_COORD97":2583581.8500000001,"ADDRESS":"本協５號之２０","OBJECTID":186113},"geometry":{"x":187221.70000000019,"y":2583581.8500000015}},{"attributes":{"ID":186115,"DIS_CODE":0,"TOWNNAME":"新營區","LI":"民榮里","LIN":"36鄰","STREET":"新進路","SECT":"二段","MAREA":" ","LANE":"４４５巷","ALLEY":"２５弄","HOUSE_NO":"５４號","E_COORD97":178454.25,"N_COORD97":2577922.2799999998,"ADDRESS":"新進路二段４４５巷２５弄５４號","OBJECTID":186114},"geometry":{"x":178454.25000000093,"y":2577922.2800000031}},{"attributes":{"ID":186116,"DIS_CODE":0,"TOWNNAME":"新營區","LI":"民榮里","LIN":"36鄰","STREET":"新進路","SECT":"二段","MAREA":" ","LANE":"４４５巷","ALLEY":"２５弄","HOUSE_NO":"６３號","E_COORD97":178468.38,"N_COORD97":2577885.6499999999,"ADDRESS":"新進路二段４４５巷２５弄６３號","OBJECTID":186115},"geometry":{"x":178468.38000000082,"y":2577885.6500000004}},{"attributes":{"ID":186117,"DIS_CODE":0,"TOWNNAME":"新營區","LI":"民榮里","LIN":"36鄰","STREET":"新進路","SECT":"二段","MAREA":" ","LANE":"４４５巷","ALLEY":"２５弄","HOUSE_NO":"１７號","E_COORD97":178541.20000000001,"N_COORD97":2577927.3900000001,"ADDRESS":"新進路二段４４５巷２５弄１７號","OBJECTID":186116},"geometry":{"x":178541.20000000112,"y":2577927.3900000025}},{"attributes":{"ID":186118,"DIS_CODE":0,"TOWNNAME":"新營區","LI":"民榮里","LIN":"36鄰","STREET":"新進路","SECT":"二段","MAREA":" ","LANE":"４４５巷","ALLEY":"２５弄","HOUSE_NO":"４５號","E_COORD97":178497.14000000001,"N_COORD97":2577895.4900000002,"ADDRESS":"新進路二段４４５巷２５弄４５號","OBJECTID":186117},"geometry":{"x":178497.1400000006,"y":2577895.4900000021}},{"attributes":{"ID":186119,"DIS_CODE":0,"TOWNNAME":"永康區","LI":"埔園里","LIN":"36鄰","STREET":"龍中街","SECT":" ","MAREA":" ","LANE":"４８７巷","ALLEY":"１５弄","HOUSE_NO":"６號","E_COORD97":174336.57999999999,"N_COORD97":2548329.6600000001,"ADDRESS":"龍中街４８７巷１５弄６號","OBJECTID":186118},"geometry":{"x":174336.58000000101,"y":2548329.660000002}},{"attributes":{"ID":186120,"DIS_CODE":0,"TOWNNAME":"永康區","LI":"埔園里","LIN":"36鄰","STREET":"龍中街","SECT":" ","MAREA":" ","LANE":"４８７巷","ALLEY":"１５弄","HOUSE_NO":"３號","E_COORD97":174356,"N_COORD97":2548340.73,"ADDRESS":"龍中街４８７巷１５弄３號","OBJECTID":186119},"geometry":{"x":174356,"y":2548340.7300000023}},{"attributes":{"ID":186121,"DIS_CODE":0,"TOWNNAME":"後壁區","LI":"土溝里","LIN":"11鄰","STREET":" ","SECT":" ","MAREA":"土溝","LANE":" ","ALLEY":" ","HOUSE_NO":"１０８號之５","E_COORD97":187511,"N_COORD97":2585705.2400000002,"ADDRESS":"土溝１０８號之５","OBJECTID":186120},"geometry":{"x":187511,"y":2585705.2400000021}},{"attributes":{"ID":186122,"DIS_CODE":0,"TOWNNAME":"後壁區","LI":"土溝里","LIN":"11鄰","STREET":" ","SECT":" ","MAREA":"土溝","LANE":" ","ALLEY":" ","HOUSE_NO":"１０８號之６","E_COORD97":187490.41,"N_COORD97":2585726.2599999998,"ADDRESS":"土溝１０８號之６","OBJECTID":186121},"geometry":{"x":187490.41000000108,"y":2585726.2599999998}},{"attributes":{"ID":186123,"DIS_CODE":0,"TOWNNAME":"後壁區","LI":"土溝里","LIN":"11鄰","STREET":" ","SECT":" ","MAREA":"土溝","LANE":" ","ALLEY":" ","HOUSE_NO":"１０８號之８","E_COORD97":187493.44,"N_COORD97":2585693.21,"ADDRESS":"土溝１０８號之８","OBJECTID":186122},"geometry":{"x":187493.43999999948,"y":2585693.2100000028}},{"attributes":{"ID":186124,"DIS_CODE":0,"TOWNNAME":"後壁區","LI":"土溝里","LIN":"11鄰","STREET":" ","SECT":" ","MAREA":"土溝","LANE":" ","ALLEY":" ","HOUSE_NO":"１０８號","E_COORD97":187529.29000000001,"N_COORD97":2585701.0299999998,"ADDRESS":"土溝１０８號","OBJECTID":186123},"geometry":{"x":187529.29000000004,"y":2585701.0299999975}},{"attributes":{"ID":186125,"DIS_CODE":0,"TOWNNAME":"永康區","LI":"埔園里","LIN":"36鄰","STREET":"龍中街","SECT":" ","MAREA":" ","LANE":"４８７巷","ALLEY":"１５弄","HOUSE_NO":"１號","E_COORD97":174356.57000000001,"N_COORD97":2548345.29,"ADDRESS":"龍中街４８７巷１５弄１號","OBJECTID":186124},"geometry":{"x":174356.57000000216,"y":2548345.290000001}},{"attributes":{"ID":186126,"DIS_CODE":0,"TOWNNAME":"永康區","LI":"埔園里","LIN":"36鄰","STREET":"龍中街","SECT":" ","MAREA":" ","LANE":"４８７巷","ALLEY":"１５弄","HOUSE_NO":"２號","E_COORD97":174336.20999999999,"N_COORD97":2548334.6800000002,"ADDRESS":"龍中街４８７巷１５弄２號","OBJECTID":186125},"geometry":{"x":174336.20999999996,"y":2548334.6799999997}},{"attributes":{"ID":186127,"DIS_CODE":0,"TOWNNAME":"永康區","LI":"埔園里","LIN":"36鄰","STREET":"龍中街","SECT":" ","MAREA":" ","LANE":"４８７巷","ALLEY":"１５弄","HOUSE_NO":"１１號","E_COORD97":174356.95000000001,"N_COORD97":2548321.3700000001,"ADDRESS":"龍中街４８７巷１５弄１１號","OBJECTID":186126},"geometry":{"x":174356.95000000019,"y":2548321.370000001}},{"attributes":{"ID":186128,"DIS_CODE":0,"TOWNNAME":"永康區","LI":"埔園里","LIN":"36鄰","STREET":"龍中街","SECT":" ","MAREA":" ","LANE":"４８７巷","ALLEY":"１５弄","HOUSE_NO":"９號","E_COORD97":174360.23000000001,"N_COORD97":2548326.6499999999,"ADDRESS":"龍中街４８７巷１５弄９號","OBJECTID":186127},"geometry":{"x":174360.23000000045,"y":2548326.6500000022}},{"attributes":{"ID":186129,"DIS_CODE":0,"TOWNNAME":"永康區","LI":"埔園里","LIN":"36鄰","STREET":"龍中街","SECT":" ","MAREA":" ","LANE":"４８７巷","ALLEY":"１５弄","HOUSE_NO":"５號","E_COORD97":174359.56,"N_COORD97":2548335.6499999999,"ADDRESS":"龍中街４８７巷１５弄５號","OBJECTID":186128},"geometry":{"x":174359.56000000052,"y":2548335.6500000004}},{"attributes":{"ID":186130,"DIS_CODE":0,"TOWNNAME":"佳里區","LI":"建南里","LIN":"36鄰","STREET":"成功路","SECT":" ","MAREA":" ","LANE":"２０２巷","ALLEY":"４弄","HOUSE_NO":"１２號之１","E_COORD97":165299.17000000001,"N_COORD97":2561238.7000000002,"ADDRESS":"成功路２０２巷４弄１２號之１","OBJECTID":186129},"geometry":{"x":165299.16999999993,"y":2561238.700000003}},{"attributes":{"ID":186131,"DIS_CODE":0,"TOWNNAME":"永康區","LI":"成功里","LIN":"36鄰","STREET":"中華路","SECT":" ","MAREA":" ","LANE":"１５４巷","ALLEY":"８７弄","HOUSE_NO":"４號","E_COORD97":171850.85999999999,"N_COORD97":2544934.5499999998,"ADDRESS":"中華路１５４巷８７弄４號","OBJECTID":186130},"geometry":{"x":171850.8600000022,"y":2544934.5500000026}},{"attributes":{"ID":186132,"DIS_CODE":0,"TOWNNAME":"永康區","LI":"成功里","LIN":"36鄰","STREET":"中華路","SECT":" ","MAREA":" ","LANE":"１５４巷","ALLEY":"８７弄","HOUSE_NO":"１號","E_COORD97":171839.04000000001,"N_COORD97":2544932.7999999998,"ADDRESS":"中華路１５４巷８７弄１號","OBJECTID":186131},"geometry":{"x":171839.0400000019,"y":2544932.8000000026}},{"attributes":{"ID":186133,"DIS_CODE":0,"TOWNNAME":"永康區","LI":"成功里","LIN":"36鄰","STREET":"中華路","SECT":" ","MAREA":" ","LANE":"１５４巷","ALLEY":"８７弄","HOUSE_NO":"７號","E_COORD97":171841.20000000001,"N_COORD97":2544946.2400000002,"ADDRESS":"中華路１５４巷８７弄７號","OBJECTID":186132},"geometry":{"x":171841.20000000019,"y":2544946.2400000021}},{"attributes":{"ID":186134,"DIS_CODE":0,"TOWNNAME":"永康區","LI":"成功里","LIN":"36鄰","STREET":"中華路","SECT":" ","MAREA":" ","LANE":"１５４巷","ALLEY":"８７弄","HOUSE_NO":"８號","E_COORD97":171837.10999999999,"N_COORD97":2544945.9900000002,"ADDRESS":"中華路１５４巷８７弄８號","OBJECTID":186133},"geometry":{"x":171837.1099999994,"y":2544945.9900000002}},{"attributes":{"ID":186135,"DIS_CODE":0,"TOWNNAME":"永康區","LI":"成功里","LIN":"36鄰","STREET":"中華路","SECT":" ","MAREA":" ","LANE":"１５４巷","ALLEY":"８７弄","HOUSE_NO":"１３號","E_COORD97":171819.20999999999,"N_COORD97":2544937.4900000002,"ADDRESS":"中華路１５４巷８７弄１３號","OBJECTID":186134},"geometry":{"x":171819.21000000183,"y":2544937.4900000021}},{"attributes":{"ID":186136,"DIS_CODE":0,"TOWNNAME":"仁德區","LI":"後壁里","LIN":"36鄰","STREET":"民安路","SECT":"一段","MAREA":" ","LANE":"３１０巷","ALLEY":"３２弄","HOUSE_NO":"７號","E_COORD97":172748.29000000001,"N_COORD97":2539441.9399999999,"ADDRESS":"民安路一段３１０巷３２弄７號","OBJECTID":186135},"geometry":{"x":172748.29000000097,"y":2539441.9400000013}},{"attributes":{"ID":186137,"DIS_CODE":0,"TOWNNAME":"仁德區","LI":"後壁里","LIN":"36鄰","STREET":"民安路","SECT":"一段","MAREA":" ","LANE":"３１０巷","ALLEY":"２９弄","HOUSE_NO":"８號","E_COORD97":172804.75,"N_COORD97":2539419.1899999999,"ADDRESS":"民安路一段３１０巷２９弄８號","OBJECTID":186136},"geometry":{"x":172804.75,"y":2539419.1900000013}},{"attributes":{"ID":186138,"DIS_CODE":0,"TOWNNAME":"仁德區","LI":"後壁里","LIN":"36鄰","STREET":"民安路","SECT":"一段","MAREA":" ","LANE":"３１０巷","ALLEY":"３２弄","HOUSE_NO":"１１號","E_COORD97":172740,"N_COORD97":2539451.4399999999,"ADDRESS":"民安路一段３１０巷３２弄１１號","OBJECTID":186137},"geometry":{"x":172740.00000000093,"y":2539451.4400000013}},{"attributes":{"ID":186139,"DIS_CODE":0,"TOWNNAME":"仁德區","LI":"仁義里","LIN":"36鄰","STREET":"勝利路","SECT":" ","MAREA":" ","LANE":"３１巷","ALLEY":"３弄","HOUSE_NO":"１號","E_COORD97":173494.35999999999,"N_COORD97":2540020.2599999998,"ADDRESS":"勝利路３１巷３弄１號","OBJECTID":186138},"geometry":{"x":173494.36000000034,"y":2540020.2599999998}},{"attributes":{"ID":186140,"DIS_CODE":0,"TOWNNAME":"永康區","LI":"北灣里","LIN":"36鄰","STREET":"大灣路","SECT":" ","MAREA":" ","LANE":"４０巷","ALLEY":"１５８弄","HOUSE_NO":"１７號","E_COORD97":174881.98000000001,"N_COORD97":2546368.77,"ADDRESS":"大灣路４０巷１５８弄１７號","OBJECTID":186139},"geometry":{"x":174881.98000000045,"y":2546368.7700000014}},{"attributes":{"ID":186141,"DIS_CODE":0,"TOWNNAME":"永康區","LI":"永康里","LIN":"36鄰","STREET":"永平街","SECT":" ","MAREA":" ","LANE":"５６巷","ALLEY":"１弄","HOUSE_NO":"１２號","E_COORD97":174396.47,"N_COORD97":2546831.5,"ADDRESS":"永平街５６巷１弄１２號","OBJECTID":186140},"geometry":{"x":174396.46999999974,"y":2546831.5000000037}},{"attributes":{"ID":186142,"DIS_CODE":0,"TOWNNAME":"永康區","LI":"北灣里","LIN":"36鄰","STREET":"大灣路","SECT":" ","MAREA":" ","LANE":"４０巷","ALLEY":"１８２弄","HOUSE_NO":"３６之５號","E_COORD97":174881.06,"N_COORD97":2546396.23,"ADDRESS":"大灣路４０巷１８２弄３６之５號","OBJECTID":186141},"geometry":{"x":174881.05999999959,"y":2546396.2299999986}},{"attributes":{"ID":186143,"DIS_CODE":0,"TOWNNAME":"後壁區","LI":"土溝里","LIN":"11鄰","STREET":" ","SECT":" ","MAREA":"土溝","LANE":" ","ALLEY":" ","HOUSE_NO":"１０９號之１０","E_COORD97":187486.67999999999,"N_COORD97":2585805.1400000001,"ADDRESS":"土溝１０９號之１０","OBJECTID":186142},"geometry":{"x":187486.68000000063,"y":2585805.1400000025}},{"attributes":{"ID":186144,"DIS_CODE":0,"TOWNNAME":"後壁區","LI":"土溝里","LIN":"11鄰","STREET":" ","SECT":" ","MAREA":"土溝","LANE":" ","ALLEY":" ","HOUSE_NO":"１０９號之１１","E_COORD97":187490.29999999999,"N_COORD97":2585811.6099999999,"ADDRESS":"土溝１０９號之１１","OBJECTID":186143},"geometry":{"x":187490.29999999981,"y":2585811.6099999994}},{"attributes":{"ID":186145,"DIS_CODE":0,"TOWNNAME":"後壁區","LI":"土溝里","LIN":"11鄰","STREET":" ","SECT":" ","MAREA":"土溝","LANE":" ","ALLEY":" ","HOUSE_NO":"１０９號之１２","E_COORD97":187491.89000000001,"N_COORD97":2585815.5299999998,"ADDRESS":"土溝１０９號之１２","OBJECTID":186144},"geometry":{"x":187491.8900000006,"y":2585815.5299999993}},{"attributes":{"ID":186146,"DIS_CODE":0,"TOWNNAME":"後壁區","LI":"土溝里","LIN":"11鄰","STREET":" ","SECT":" ","MAREA":"土溝","LANE":" ","ALLEY":" ","HOUSE_NO":"１０９號之１","E_COORD97":187463.53,"N_COORD97":2585779.8300000001,"ADDRESS":"土溝１０９號之１","OBJECTID":186145},"geometry":{"x":187463.53000000026,"y":2585779.8300000001}},{"attributes":{"ID":186147,"DIS_CODE":0,"TOWNNAME":"後壁區","LI":"土溝里","LIN":"11鄰","STREET":" ","SECT":" ","MAREA":"土溝","LANE":" ","ALLEY":" ","HOUSE_NO":"１０９號之２","E_COORD97":187447.94,"N_COORD97":2585787.1400000001,"ADDRESS":"土溝１０９號之２","OBJECTID":186146},"geometry":{"x":187447.94000000134,"y":2585787.1400000025}},{"attributes":{"ID":186148,"DIS_CODE":0,"TOWNNAME":"後壁區","LI":"土溝里","LIN":"11鄰","STREET":" ","SECT":" ","MAREA":"土溝","LANE":" ","ALLEY":" ","HOUSE_NO":"１０９號之３","E_COORD97":187458.31,"N_COORD97":2585813.46,"ADDRESS":"土溝１０９號之３","OBJECTID":186147},"geometry":{"x":187458.31000000052,"y":2585813.4600000028}},{"attributes":{"ID":186149,"DIS_CODE":0,"TOWNNAME":"後壁區","LI":"土溝里","LIN":"11鄰","STREET":" ","SECT":" ","MAREA":"土溝","LANE":" ","ALLEY":" ","HOUSE_NO":"１０９號之５","E_COORD97":187475.94,"N_COORD97":2585818.0499999998,"ADDRESS":"土溝１０９號之５","OBJECTID":186148},"geometry":{"x":187475.94000000041,"y":2585818.0500000045}},{"attributes":{"ID":186150,"DIS_CODE":0,"TOWNNAME":"後壁區","LI":"土溝里","LIN":"11鄰","STREET":" ","SECT":" ","MAREA":"土溝","LANE":" ","ALLEY":" ","HOUSE_NO":"１０９號","E_COORD97":187487.19,"N_COORD97":2585775.71,"ADDRESS":"土溝１０９號","OBJECTID":186149},"geometry":{"x":187487.19000000134,"y":2585775.7100000009}},{"attributes":{"ID":186151,"DIS_CODE":0,"TOWNNAME":"後壁區","LI":"土溝里","LIN":"11鄰","STREET":" ","SECT":" ","MAREA":"土溝","LANE":" ","ALLEY":" ","HOUSE_NO":"１１０號之１","E_COORD97":187516.57000000001,"N_COORD97":2585841.5499999998,"ADDRESS":"土溝１１０號之１","OBJECTID":186150},"geometry":{"x":187516.57000000123,"y":2585841.5500000045}},{"attributes":{"ID":186152,"DIS_CODE":0,"TOWNNAME":"後壁區","LI":"土溝里","LIN":"11鄰","STREET":" ","SECT":" ","MAREA":"土溝","LANE":" ","ALLEY":" ","HOUSE_NO":"１１０號之３","E_COORD97":187519.22,"N_COORD97":2585825.21,"ADDRESS":"土溝１１０號之３","OBJECTID":186151},"geometry":{"x":187519.21999999974,"y":2585825.2100000028}},{"attributes":{"ID":186153,"DIS_CODE":0,"TOWNNAME":"後壁區","LI":"土溝里","LIN":"11鄰","STREET":" ","SECT":" ","MAREA":"土溝","LANE":" ","ALLEY":" ","HOUSE_NO":"１１１號","E_COORD97":187485.60999999999,"N_COORD97":2585838.25,"ADDRESS":"土溝１１１號","OBJECTID":186152},"geometry":{"x":187485.6100000022,"y":2585838.25}},{"attributes":{"ID":186154,"DIS_CODE":0,"TOWNNAME":"永康區","LI":"埔園里","LIN":"36鄰","STREET":"永大路","SECT":"三段","MAREA":" ","LANE":"３６０巷","ALLEY":"１１弄","HOUSE_NO":"５號","E_COORD97":174179.04000000001,"N_COORD97":2548207.0299999998,"ADDRESS":"永大路三段３６０巷１１弄５號","OBJECTID":186153},"geometry":{"x":174179.04000000097,"y":2548207.0300000031}},{"attributes":{"ID":186155,"DIS_CODE":0,"TOWNNAME":"永康區","LI":"西灣里","LIN":"36鄰","STREET":"國光八街","SECT":" ","MAREA":" ","LANE":"８７巷","ALLEY":"２２弄","HOUSE_NO":"１３號","E_COORD97":174211.26999999999,"N_COORD97":2545695.7200000002,"ADDRESS":"國光八街８７巷２２弄１３號","OBJECTID":186154},"geometry":{"x":174211.26999999955,"y":2545695.7200000025}},{"attributes":{"ID":186156,"DIS_CODE":0,"TOWNNAME":"永康區","LI":"東灣里","LIN":"36鄰","STREET":"民族路","SECT":" ","MAREA":" ","LANE":"２７３巷","ALLEY":"２３弄","HOUSE_NO":"１８號","E_COORD97":175099.53,"N_COORD97":2544910.6800000002,"ADDRESS":"民族路２７３巷２３弄１８號","OBJECTID":186155},"geometry":{"x":175099.53000000119,"y":2544910.6799999997}},{"attributes":{"ID":186157,"DIS_CODE":0,"TOWNNAME":"永康區","LI":"埔園里","LIN":"36鄰","STREET":"永大路","SECT":"三段","MAREA":" ","LANE":"３６０巷","ALLEY":"２１弄","HOUSE_NO":"１１號","E_COORD97":174203.98000000001,"N_COORD97":2548212.0299999998,"ADDRESS":"永大路三段３６０巷２１弄１１號","OBJECTID":186156},"geometry":{"x":174203.98000000045,"y":2548212.0300000012}},{"attributes":{"ID":186158,"DIS_CODE":0,"TOWNNAME":"佳里區","LI":"建南里","LIN":"36鄰","STREET":"成功路","SECT":" ","MAREA":" ","LANE":"２０２巷","ALLEY":"２弄","HOUSE_NO":"１０號","E_COORD97":165341.67999999999,"N_COORD97":2561220.5499999998,"ADDRESS":"成功路２０２巷２弄１０號","OBJECTID":186157},"geometry":{"x":165341.67999999877,"y":2561220.5499999989}},{"attributes":{"ID":186159,"DIS_CODE":0,"TOWNNAME":"佳里區","LI":"建南里","LIN":"36鄰","STREET":"成功路","SECT":" ","MAREA":" ","LANE":"２０２巷","ALLEY":"２弄","HOUSE_NO":"１１號","E_COORD97":165315.34,"N_COORD97":2561232.54,"ADDRESS":"成功路２０２巷２弄１１號","OBJECTID":186158},"geometry":{"x":165315.33999999892,"y":2561232.5400000028}},{"attributes":{"ID":186160,"DIS_CODE":0,"TOWNNAME":"佳里區","LI":"建南里","LIN":"36鄰","STREET":"成功路","SECT":" ","MAREA":" ","LANE":"２０２巷","ALLEY":"２弄","HOUSE_NO":"１２號","E_COORD97":165340.69,"N_COORD97":2561228.4900000002,"ADDRESS":"成功路２０２巷２弄１２號","OBJECTID":186159},"geometry":{"x":165340.68999999948,"y":2561228.4900000021}},{"attributes":{"ID":186161,"DIS_CODE":0,"TOWNNAME":"佳里區","LI":"建南里","LIN":"36鄰","STREET":"成功路","SECT":" ","MAREA":" ","LANE":"２０２巷","ALLEY":"２弄","HOUSE_NO":"１３號","E_COORD97":165314.31,"N_COORD97":2561240.4700000002,"ADDRESS":"成功路２０２巷２弄１３號","OBJECTID":186160},"geometry":{"x":165314.31000000052,"y":2561240.4700000007}},{"attributes":{"ID":186162,"DIS_CODE":0,"TOWNNAME":"佳里區","LI":"建南里","LIN":"36鄰","STREET":"成功路","SECT":" ","MAREA":" ","LANE":"２０２巷","ALLEY":"２弄","HOUSE_NO":"１５號","E_COORD97":165313.28,"N_COORD97":2561248.3999999999,"ADDRESS":"成功路２０２巷２弄１５號","OBJECTID":186161},"geometry":{"x":165313.28000000119,"y":2561248.4000000041}},{"attributes":{"ID":186163,"DIS_CODE":0,"TOWNNAME":"佳里區","LI":"建南里","LIN":"36鄰","STREET":"成功路","SECT":" ","MAREA":" ","LANE":"２０２巷","ALLEY":"２弄","HOUSE_NO":"１６號","E_COORD97":165339.70999999999,"N_COORD97":2561236.4399999999,"ADDRESS":"成功路２０２巷２弄１６號","OBJECTID":186162},"geometry":{"x":165339.70999999996,"y":2561236.4399999995}},{"attributes":{"ID":186164,"DIS_CODE":0,"TOWNNAME":"官田區","LI":"官田里","LIN":"10鄰","STREET":" ","SECT":" ","MAREA":"官田","LANE":" ","ALLEY":" ","HOUSE_NO":"９８號","E_COORD97":182368.37,"N_COORD97":2565070.5699999998,"ADDRESS":"官田９８號","OBJECTID":186163},"geometry":{"x":182368.37000000011,"y":2565070.5700000003}},{"attributes":{"ID":186165,"DIS_CODE":0,"TOWNNAME":"麻豆區","LI":"巷口里","LIN":"10鄰","STREET":" ","SECT":" ","MAREA":"柯厝","LANE":" ","ALLEY":" ","HOUSE_NO":"２號","E_COORD97":173396.14999999999,"N_COORD97":2564198.8199999998,"ADDRESS":"柯厝２號","OBJECTID":186164},"geometry":{"x":173396.15000000037,"y":2564198.8200000022}},{"attributes":{"ID":186166,"DIS_CODE":0,"TOWNNAME":"後壁區","LI":"土溝里","LIN":"11鄰","STREET":" ","SECT":" ","MAREA":"土溝","LANE":" ","ALLEY":" ","HOUSE_NO":"１１２號","E_COORD97":187497.48999999999,"N_COORD97":2585859.3500000001,"ADDRESS":"土溝１１２號","OBJECTID":186165},"geometry":{"x":187497.49000000022,"y":2585859.3500000015}},{"attributes":{"ID":186167,"DIS_CODE":0,"TOWNNAME":"後壁區","LI":"土溝里","LIN":"11鄰","STREET":" ","SECT":" ","MAREA":"土溝","LANE":" ","ALLEY":" ","HOUSE_NO":"１１４號","E_COORD97":187514.89999999999,"N_COORD97":2585865.8799999999,"ADDRESS":"土溝１１４號","OBJECTID":186166},"geometry":{"x":187514.9000000013,"y":2585865.8800000008}},{"attributes":{"ID":186168,"DIS_CODE":0,"TOWNNAME":"後壁區","LI":"長安里","LIN":"11鄰","STREET":" ","SECT":" ","MAREA":"中寮","LANE":" ","ALLEY":" ","HOUSE_NO":"１４９號之１","E_COORD97":184178.20000000001,"N_COORD97":2581382.5299999998,"ADDRESS":"中寮１４９號之１","OBJECTID":186167},"geometry":{"x":184178.20000000112,"y":2581382.5300000012}},{"attributes":{"ID":186169,"DIS_CODE":0,"TOWNNAME":"佳里區","LI":"建南里","LIN":"36鄰","STREET":"成功路","SECT":" ","MAREA":" ","LANE":"２０２巷","ALLEY":"２弄","HOUSE_NO":"１７號","E_COORD97":165312.25,"N_COORD97":2561256.3300000001,"ADDRESS":"成功路２０２巷２弄１７號","OBJECTID":186168},"geometry":{"x":165312.25,"y":2561256.3300000019}},{"attributes":{"ID":186170,"DIS_CODE":0,"TOWNNAME":"佳里區","LI":"建南里","LIN":"36鄰","STREET":"成功路","SECT":" ","MAREA":" ","LANE":"２０２巷","ALLEY":"２弄","HOUSE_NO":"１８號","E_COORD97":165338.72,"N_COORD97":2561244.3900000001,"ADDRESS":"成功路２０２巷２弄１８號","OBJECTID":186169},"geometry":{"x":165338.72000000067,"y":2561244.3900000006}},{"attributes":{"ID":186171,"DIS_CODE":0,"TOWNNAME":"佳里區","LI":"建南里","LIN":"36鄰","STREET":"成功路","SECT":" ","MAREA":" ","LANE":"２０２巷","ALLEY":"２弄","HOUSE_NO":"１９號","E_COORD97":165311.22,"N_COORD97":2561264.2599999998,"ADDRESS":"成功路２０２巷２弄１９號","OBJECTID":186170},"geometry":{"x":165311.22000000067,"y":2561264.2599999998}},{"attributes":{"ID":186172,"DIS_CODE":0,"TOWNNAME":"佳里區","LI":"建南里","LIN":"36鄰","STREET":"成功路","SECT":" ","MAREA":" ","LANE":"２０２巷","ALLEY":"２弄","HOUSE_NO":"１號","E_COORD97":165320.48000000001,"N_COORD97":2561192.8900000001,"ADDRESS":"成功路２０２巷２弄１號","OBJECTID":186171},"geometry":{"x":165320.48000000138,"y":2561192.8900000006}},{"attributes":{"ID":186173,"DIS_CODE":0,"TOWNNAME":"佳里區","LI":"建南里","LIN":"36鄰","STREET":"成功路","SECT":" ","MAREA":" ","LANE":"２０２巷","ALLEY":"２弄","HOUSE_NO":"２０號","E_COORD97":165337.73000000001,"N_COORD97":2561252.3399999999,"ADDRESS":"成功路２０２巷２弄２０號","OBJECTID":186172},"geometry":{"x":165337.73000000138,"y":2561252.3400000017}},{"attributes":{"ID":186174,"DIS_CODE":0,"TOWNNAME":"佳里區","LI":"建南里","LIN":"36鄰","STREET":"成功路","SECT":" ","MAREA":" ","LANE":"２０２巷","ALLEY":"２弄","HOUSE_NO":"２１號","E_COORD97":165310.19,"N_COORD97":2561272.1800000002,"ADDRESS":"成功路２０２巷２弄２１號","OBJECTID":186173},"geometry":{"x":165310.18999999948,"y":2561272.1799999997}},{"attributes":{"ID":186175,"DIS_CODE":0,"TOWNNAME":"後壁區","LI":"長安里","LIN":"11鄰","STREET":" ","SECT":" ","MAREA":"中寮","LANE":" ","ALLEY":" ","HOUSE_NO":"１４９號之２","E_COORD97":184181.03,"N_COORD97":2581369.4500000002,"ADDRESS":"中寮１４９號之２","OBJECTID":186174},"geometry":{"x":184181.03000000119,"y":2581369.4500000011}},{"attributes":{"ID":186176,"DIS_CODE":0,"TOWNNAME":"佳里區","LI":"建南里","LIN":"36鄰","STREET":"成功路","SECT":" ","MAREA":" ","LANE":"２０２巷","ALLEY":"２弄","HOUSE_NO":"２２號","E_COORD97":165306.51000000001,"N_COORD97":2561295.9199999999,"ADDRESS":"成功路２０２巷２弄２２號","OBJECTID":186175},"geometry":{"x":165306.51000000071,"y":2561295.9200000018}},{"attributes":{"ID":186177,"DIS_CODE":0,"TOWNNAME":"後壁區","LI":"長安里","LIN":"11鄰","STREET":" ","SECT":" ","MAREA":"中寮","LANE":" ","ALLEY":" ","HOUSE_NO":"１４９號","E_COORD97":184183.26000000001,"N_COORD97":2581391.1299999999,"ADDRESS":"中寮１４９號","OBJECTID":186176},"geometry":{"x":184183.25999999885,"y":2581391.1300000027}},{"attributes":{"ID":186178,"DIS_CODE":0,"TOWNNAME":"後壁區","LI":"長安里","LIN":"11鄰","STREET":" ","SECT":" ","MAREA":"中寮","LANE":" ","ALLEY":" ","HOUSE_NO":"１５０號","E_COORD97":184197.5,"N_COORD97":2581400.02,"ADDRESS":"中寮１５０號","OBJECTID":186177},"geometry":{"x":184197.50000000093,"y":2581400.0200000014}},{"attributes":{"ID":186179,"DIS_CODE":0,"TOWNNAME":"後壁區","LI":"長安里","LIN":"11鄰","STREET":" ","SECT":" ","MAREA":"中寮","LANE":" ","ALLEY":" ","HOUSE_NO":"１５１號之１","E_COORD97":184206.60000000001,"N_COORD97":2581361.7999999998,"ADDRESS":"中寮１５１號之１","OBJECTID":186178},"geometry":{"x":184206.60000000056,"y":2581361.8000000026}},{"attributes":{"ID":186180,"DIS_CODE":0,"TOWNNAME":"後壁區","LI":"長安里","LIN":"11鄰","STREET":" ","SECT":" ","MAREA":"中寮","LANE":" ","ALLEY":" ","HOUSE_NO":"１５１號之２","E_COORD97":184207.76999999999,"N_COORD97":2581379.3999999999,"ADDRESS":"中寮１５１號之２","OBJECTID":186179},"geometry":{"x":184207.76999999955,"y":2581379.4000000004}},{"attributes":{"ID":186181,"DIS_CODE":0,"TOWNNAME":"後壁區","LI":"長安里","LIN":"11鄰","STREET":" ","SECT":" ","MAREA":"中寮","LANE":" ","ALLEY":" ","HOUSE_NO":"１５１號之３","E_COORD97":184222.45000000001,"N_COORD97":2581379.23,"ADDRESS":"中寮１５１號之３","OBJECTID":186180},"geometry":{"x":184222.45000000019,"y":2581379.2300000023}},{"attributes":{"ID":186182,"DIS_CODE":0,"TOWNNAME":"中西區","LI":"三民里","LIN":"10鄰","STREET":"中山路","SECT":" ","MAREA":" ","LANE":"７９巷","ALLEY":" ","HOUSE_NO":"２８號","E_COORD97":168712.60000000001,"N_COORD97":2543914.8100000001,"ADDRESS":"中山路７９巷２８號","OBJECTID":186181},"geometry":{"x":168712.60000000056,"y":2543914.8100000024}},{"attributes":{"ID":186183,"DIS_CODE":0,"TOWNNAME":"佳里區","LI":"安西里","LIN":"15鄰","STREET":"和平街","SECT":" ","MAREA":" ","LANE":" ","ALLEY":" ","HOUSE_NO":"３０１號","E_COORD97":165182.89000000001,"N_COORD97":2562460.7799999998,"ADDRESS":"和平街３０１號","OBJECTID":186182},"geometry":{"x":165182.8900000006,"y":2562460.7799999993}},{"attributes":{"ID":186184,"DIS_CODE":0,"TOWNNAME":"佳里區","LI":"安西里","LIN":"15鄰","STREET":"和平街","SECT":" ","MAREA":" ","LANE":" ","ALLEY":" ","HOUSE_NO":"３０２號","E_COORD97":165205.04999999999,"N_COORD97":2562487.73,"ADDRESS":"和平街３０２號","OBJECTID":186183},"geometry":{"x":165205.04999999981,"y":2562487.7300000023}},{"attributes":{"ID":186185,"DIS_CODE":0,"TOWNNAME":"佳里區","LI":"安西里","LIN":"15鄰","STREET":"和平街","SECT":" ","MAREA":" ","LANE":" ","ALLEY":" ","HOUSE_NO":"３０６號","E_COORD97":165196.54000000001,"N_COORD97":2562489.1200000001,"ADDRESS":"和平街３０６號","OBJECTID":186184},"geometry":{"x":165196.54000000004,"y":2562489.1200000029}},{"attributes":{"ID":186186,"DIS_CODE":0,"TOWNNAME":"佳里區","LI":"安西里","LIN":"15鄰","STREET":"和平街","SECT":" ","MAREA":" ","LANE":" ","ALLEY":" ","HOUSE_NO":"３１６號","E_COORD97":165176.94,"N_COORD97":2562486.02,"ADDRESS":"和平街３１６號","OBJECTID":186185},"geometry":{"x":165176.94000000134,"y":2562486.0199999996}},{"attributes":{"ID":186187,"DIS_CODE":0,"TOWNNAME":"佳里區","LI":"安西里","LIN":"15鄰","STREET":"和平街","SECT":" ","MAREA":" ","LANE":" ","ALLEY":" ","HOUSE_NO":"３２０號","E_COORD97":165168.57000000001,"N_COORD97":2562482.96,"ADDRESS":"和平街３２０號","OBJECTID":186186},"geometry":{"x":165168.57000000216,"y":2562482.9600000028}},{"attributes":{"ID":186188,"DIS_CODE":0,"TOWNNAME":"中西區","LI":"普濟里","LIN":"15鄰","STREET":"成功路","SECT":" ","MAREA":" ","LANE":" ","ALLEY":" ","HOUSE_NO":"３３１號","E_COORD97":168007.13,"N_COORD97":2544497.8199999998,"ADDRESS":"成功路３３１號","OBJECTID":186187},"geometry":{"x":168007.13000000175,"y":2544497.8200000022}},{"attributes":{"ID":186189,"DIS_CODE":0,"TOWNNAME":"佳里區","LI":"建南里","LIN":"36鄰","STREET":"成功路","SECT":" ","MAREA":" ","LANE":"２０２巷","ALLEY":"２弄","HOUSE_NO":"２３號","E_COORD97":165309.16,"N_COORD97":2561280.1099999999,"ADDRESS":"成功路２０２巷２弄２３號","OBJECTID":186188},"geometry":{"x":165309.16000000108,"y":2561280.1100000031}},{"attributes":{"ID":186190,"DIS_CODE":0,"TOWNNAME":"官田區","LI":"官田里","LIN":"10鄰","STREET":" ","SECT":" ","MAREA":"官田","LANE":" ","ALLEY":" ","HOUSE_NO":"９９號","E_COORD97":182389.25,"N_COORD97":2565097.77,"ADDRESS":"官田９９號","OBJECTID":186189},"geometry":{"x":182389.25000000093,"y":2565097.7700000014}},{"attributes":{"ID":186191,"DIS_CODE":0,"TOWNNAME":"後壁區","LI":"長安里","LIN":"11鄰","STREET":" ","SECT":" ","MAREA":"中寮","LANE":" ","ALLEY":" ","HOUSE_NO":"１５１號之６","E_COORD97":184185.42999999999,"N_COORD97":2581356.7999999998,"ADDRESS":"中寮１５１號之６","OBJECTID":186190},"geometry":{"x":184185.42999999877,"y":2581356.8000000007}},{"attributes":{"ID":186192,"DIS_CODE":0,"TOWNNAME":"後壁區","LI":"長安里","LIN":"11鄰","STREET":" ","SECT":" ","MAREA":"中寮","LANE":" ","ALLEY":" ","HOUSE_NO":"１５１號","E_COORD97":184181.76999999999,"N_COORD97":2581377.8399999999,"ADDRESS":"中寮１５１號","OBJECTID":186191},"geometry":{"x":184181.77000000048,"y":2581377.8400000017}},{"attributes":{"ID":186193,"DIS_CODE":0,"TOWNNAME":"後壁區","LI":"長安里","LIN":"11鄰","STREET":" ","SECT":" ","MAREA":"中寮","LANE":" ","ALLEY":" ","HOUSE_NO":"１５２號之２","E_COORD97":184241.81,"N_COORD97":2581372.6800000002,"ADDRESS":"中寮１５２號之２","OBJECTID":186192},"geometry":{"x":184241.80999999959,"y":2581372.6800000016}},{"attributes":{"ID":186194,"DIS_CODE":0,"TOWNNAME":"後壁區","LI":"長安里","LIN":"11鄰","STREET":" ","SECT":" ","MAREA":"中寮","LANE":" ","ALLEY":" ","HOUSE_NO":"１５２號","E_COORD97":184220.25,"N_COORD97":2581363.2400000002,"ADDRESS":"中寮１５２號","OBJECTID":186193},"geometry":{"x":184220.25,"y":2581363.2400000002}},{"attributes":{"ID":186195,"DIS_CODE":0,"TOWNNAME":"後壁區","LI":"長安里","LIN":"11鄰","STREET":" ","SECT":" ","MAREA":"中寮","LANE":" ","ALLEY":" ","HOUSE_NO":"１５３號","E_COORD97":184264.70000000001,"N_COORD97":2581360.9199999999,"ADDRESS":"中寮１５３號","OBJECTID":186194},"geometry":{"x":184264.70000000112,"y":2581360.9200000018}},{"attributes":{"ID":186196,"DIS_CODE":0,"TOWNNAME":"後壁區","LI":"長安里","LIN":"11鄰","STREET":" ","SECT":" ","MAREA":"中寮","LANE":" ","ALLEY":" ","HOUSE_NO":"１５４之２號","E_COORD97":184284.28,"N_COORD97":2581359.9100000001,"ADDRESS":"中寮１５４之２號","OBJECTID":186195},"geometry":{"x":184284.28000000119,"y":2581359.9100000039}},{"attributes":{"ID":186197,"DIS_CODE":0,"TOWNNAME":"後壁區","LI":"長安里","LIN":"11鄰","STREET":" ","SECT":" ","MAREA":"中寮","LANE":" ","ALLEY":" ","HOUSE_NO":"１５４號之２","E_COORD97":184284.28,"N_COORD97":2581359.9100000001,"ADDRESS":"中寮１５４號之２","OBJECTID":186196},"geometry":{"x":184284.28000000119,"y":2581359.9100000039}},{"attributes":{"ID":186198,"DIS_CODE":0,"TOWNNAME":"後壁區","LI":"長安里","LIN":"11鄰","STREET":" ","SECT":" ","MAREA":"中寮","LANE":" ","ALLEY":" ","HOUSE_NO":"１５４號","E_COORD97":184279.95000000001,"N_COORD97":2581374.27,"ADDRESS":"中寮１５４號","OBJECTID":186197},"geometry":{"x":184279.95000000112,"y":2581374.2700000014}},{"attributes":{"ID":186199,"DIS_CODE":0,"TOWNNAME":"後壁區","LI":"長安里","LIN":"11鄰","STREET":" ","SECT":" ","MAREA":"中寮","LANE":" ","ALLEY":" ","HOUSE_NO":"１５５號之１０","E_COORD97":184302.07000000001,"N_COORD97":2581402.52,"ADDRESS":"中寮１５５號之１０","OBJECTID":186198},"geometry":{"x":184302.06999999937,"y":2581402.5200000033}},{"attributes":{"ID":186200,"DIS_CODE":0,"TOWNNAME":"後壁區","LI":"長安里","LIN":"11鄰","STREET":" ","SECT":" ","MAREA":"中寮","LANE":" ","ALLEY":" ","HOUSE_NO":"１５５號之１１","E_COORD97":184301.10999999999,"N_COORD97":2581406.8199999998,"ADDRESS":"中寮１５５號之１１","OBJECTID":186199},"geometry":{"x":184301.11000000034,"y":2581406.8200000003}},{"attributes":{"ID":186201,"DIS_CODE":0,"TOWNNAME":"後壁區","LI":"長安里","LIN":"11鄰","STREET":" ","SECT":" ","MAREA":"中寮","LANE":" ","ALLEY":" ","HOUSE_NO":"１５５號之１２","E_COORD97":184298.51000000001,"N_COORD97":2581416.2999999998,"ADDRESS":"中寮１５５號之１２","OBJECTID":186200},"geometry":{"x":184298.50999999978,"y":2581416.3000000026}}]}