{"displayFieldName":"TOWNNAME","fieldAliases":{"ID":"ID","DIS_CODE":"DIS_CODE","TOWNNAME":"TOWNNAME","LI":"LI","LIN":"LIN","STREET":"STREET","SECT":"SECT","MAREA":"MAREA","LANE":"LANE","ALLEY":"ALLEY","HOUSE_NO":"HOUSE_NO","E_COORD97":"E_COORD97","N_COORD97":"N_COORD97","ADDRESS":"ADDRESS","OBJECTID":"OBJECTID"},"geometryType":"esriGeometryPoint","spatialReference":{"wkid":102443,"latestWkid":3826},"fields":[{"name":"ID","type":"esriFieldTypeDouble","alias":"ID"},{"name":"DIS_CODE","type":"esriFieldTypeInteger","alias":"DIS_CODE"},{"name":"TOWNNAME","type":"esriFieldTypeString","alias":"TOWNNAME","length":8},{"name":"LI","type":"esriFieldTypeString","alias":"LI","length":8},{"name":"LIN","type":"esriFieldTypeString","alias":"LIN","length":12},{"name":"STREET","type":"esriFieldTypeString","alias":"STREET","length":20},{"name":"SECT","type":"esriFieldTypeString","alias":"SECT","length":8},{"name":"MAREA","type":"esriFieldTypeString","alias":"MAREA","length":12},{"name":"LANE","type":"esriFieldTypeString","alias":"LANE","length":10},{"name":"ALLEY","type":"esriFieldTypeString","alias":"ALLEY","length":10},{"name":"HOUSE_NO","type":"esriFieldTypeString","alias":"HOUSE_NO","length":20},{"name":"E_COORD97","type":"esriFieldTypeDouble","alias":"E_COORD97"},{"name":"N_COORD97","type":"esriFieldTypeDouble","alias":"N_COORD97"},{"name":"ADDRESS","type":"esriFieldTypeString","alias":"ADDRESS","length":50},{"name":"OBJECTID","type":"esriFieldTypeOID","alias":"OBJECTID"}],"features":[{"attributes":{"ID":230205,"DIS_CODE":0,"TOWNNAME":"歸仁區","LI":"七甲里","LIN":"2鄰","STREET":"中正北路","SECT":"二段","MAREA":" ","LANE":"３１９巷","ALLEY":" ","HOUSE_NO":"２號","E_COORD97":177473.22,"N_COORD97":2542846.6600000001,"ADDRESS":"中正北路二段３１９巷２號","OBJECTID":230201},"geometry":{"x":177473.21999999974,"y":2542846.6599999983}},{"attributes":{"ID":230206,"DIS_CODE":0,"TOWNNAME":"歸仁區","LI":"七甲里","LIN":"2鄰","STREET":"七甲五街","SECT":" ","MAREA":" ","LANE":"１０２巷","ALLEY":" ","HOUSE_NO":"７號","E_COORD97":177198.95000000001,"N_COORD97":2542637.9300000002,"ADDRESS":"七甲五街１０２巷７號","OBJECTID":230202},"geometry":{"x":177198.95000000112,"y":2542637.9300000034}},{"attributes":{"ID":230207,"DIS_CODE":0,"TOWNNAME":"歸仁區","LI":"七甲里","LIN":"2鄰","STREET":"中正北路","SECT":"二段","MAREA":" ","LANE":"４１７巷","ALLEY":" ","HOUSE_NO":"２５１號","E_COORD97":176789.60999999999,"N_COORD97":2542984.2799999998,"ADDRESS":"中正北路二段４１７巷２５１號","OBJECTID":230203},"geometry":{"x":176789.61000000127,"y":2542984.2800000031}},{"attributes":{"ID":230208,"DIS_CODE":0,"TOWNNAME":"佳里區","LI":"安西里","LIN":"47鄰","STREET":"義民街","SECT":" ","MAREA":" ","LANE":" ","ALLEY":" ","HOUSE_NO":"３３５號五樓之１","E_COORD97":165191.14999999999,"N_COORD97":2562379.2599999998,"ADDRESS":"義民街３３５號五樓之１","OBJECTID":230204},"geometry":{"x":165191.15000000037,"y":2562379.2600000016}},{"attributes":{"ID":230209,"DIS_CODE":0,"TOWNNAME":"佳里區","LI":"安西里","LIN":"47鄰","STREET":"義民街","SECT":" ","MAREA":" ","LANE":" ","ALLEY":" ","HOUSE_NO":"３３５號五樓之２","E_COORD97":165191.14999999999,"N_COORD97":2562379.2599999998,"ADDRESS":"義民街３３５號五樓之２","OBJECTID":230205},"geometry":{"x":165191.15000000037,"y":2562379.2600000016}},{"attributes":{"ID":230210,"DIS_CODE":0,"TOWNNAME":"佳里區","LI":"安西里","LIN":"47鄰","STREET":"義民街","SECT":" ","MAREA":" ","LANE":" ","ALLEY":" ","HOUSE_NO":"３３５號六樓之１","E_COORD97":165191.14999999999,"N_COORD97":2562379.2599999998,"ADDRESS":"義民街３３５號六樓之１","OBJECTID":230206},"geometry":{"x":165191.15000000037,"y":2562379.2600000016}},{"attributes":{"ID":230211,"DIS_CODE":0,"TOWNNAME":"佳里區","LI":"安西里","LIN":"47鄰","STREET":"義民街","SECT":" ","MAREA":" ","LANE":" ","ALLEY":" ","HOUSE_NO":"３３５號六樓之２","E_COORD97":165191.14999999999,"N_COORD97":2562379.2599999998,"ADDRESS":"義民街３３５號六樓之２","OBJECTID":230207},"geometry":{"x":165191.15000000037,"y":2562379.2600000016}},{"attributes":{"ID":230212,"DIS_CODE":0,"TOWNNAME":"佳里區","LI":"安西里","LIN":"47鄰","STREET":"義民街","SECT":" ","MAREA":" ","LANE":" ","ALLEY":" ","HOUSE_NO":"３３５號四樓之１","E_COORD97":165191.14999999999,"N_COORD97":2562379.2599999998,"ADDRESS":"義民街３３５號四樓之１","OBJECTID":230208},"geometry":{"x":165191.15000000037,"y":2562379.2600000016}},{"attributes":{"ID":230213,"DIS_CODE":0,"TOWNNAME":"東區","LI":"東光里","LIN":"23鄰","STREET":"東安路","SECT":" ","MAREA":" ","LANE":"１５６巷","ALLEY":" ","HOUSE_NO":"４６號","E_COORD97":170855.95999999999,"N_COORD97":2543866.9500000002,"ADDRESS":"東安路１５６巷４６號","OBJECTID":230209},"geometry":{"x":170855.95999999996,"y":2543866.9499999993}},{"attributes":{"ID":230214,"DIS_CODE":0,"TOWNNAME":"東區","LI":"東光里","LIN":"23鄰","STREET":"東安路","SECT":" ","MAREA":" ","LANE":"１５６巷","ALLEY":" ","HOUSE_NO":"４８號","E_COORD97":170860.88,"N_COORD97":2543868.1600000001,"ADDRESS":"東安路１５６巷４８號","OBJECTID":230210},"geometry":{"x":170860.88000000082,"y":2543868.160000002}},{"attributes":{"ID":230215,"DIS_CODE":0,"TOWNNAME":"東區","LI":"東光里","LIN":"23鄰","STREET":"東安路","SECT":" ","MAREA":" ","LANE":"１５６巷","ALLEY":" ","HOUSE_NO":"５０號","E_COORD97":170866.54999999999,"N_COORD97":2543865.9399999999,"ADDRESS":"東安路１５６巷５０號","OBJECTID":230211},"geometry":{"x":170866.55000000075,"y":2543865.9400000013}},{"attributes":{"ID":230216,"DIS_CODE":0,"TOWNNAME":"東區","LI":"新東里","LIN":"23鄰","STREET":"裕豐街","SECT":" ","MAREA":" ","LANE":"９９巷","ALLEY":" ","HOUSE_NO":"１３號","E_COORD97":170708.73999999999,"N_COORD97":2542948.5899999999,"ADDRESS":"裕豐街９９巷１３號","OBJECTID":230212},"geometry":{"x":170708.74000000022,"y":2542948.589999998}},{"attributes":{"ID":230217,"DIS_CODE":0,"TOWNNAME":"歸仁區","LI":"七甲里","LIN":"2鄰","STREET":"七甲五街","SECT":" ","MAREA":" ","LANE":"１０２巷","ALLEY":" ","HOUSE_NO":"９１號","E_COORD97":177064.89999999999,"N_COORD97":2542634.9300000002,"ADDRESS":"七甲五街１０２巷９１號","OBJECTID":230213},"geometry":{"x":177064.90000000224,"y":2542634.9300000016}},{"attributes":{"ID":230218,"DIS_CODE":0,"TOWNNAME":"善化區","LI":"嘉南里","LIN":"2鄰","STREET":" ","SECT":" ","MAREA":"茄拔","LANE":" ","ALLEY":" ","HOUSE_NO":"６６號","E_COORD97":181042.09,"N_COORD97":2559369.0099999998,"ADDRESS":"茄拔６６號","OBJECTID":230214},"geometry":{"x":181042.09000000078,"y":2559369.0100000035}},{"attributes":{"ID":230219,"DIS_CODE":0,"TOWNNAME":"歸仁區","LI":"七甲里","LIN":"2鄰","STREET":"七甲五街","SECT":" ","MAREA":" ","LANE":"１０２巷","ALLEY":" ","HOUSE_NO":"１００號","E_COORD97":177037.54999999999,"N_COORD97":2542651.9300000002,"ADDRESS":"七甲五街１０２巷１００號","OBJECTID":230215},"geometry":{"x":177037.54999999981,"y":2542651.9300000016}},{"attributes":{"ID":230220,"DIS_CODE":0,"TOWNNAME":"歸仁區","LI":"武東里","LIN":"2鄰","STREET":"中正南路","SECT":"二段","MAREA":" ","LANE":"２５３巷","ALLEY":" ","HOUSE_NO":"１７號","E_COORD97":175435.56,"N_COORD97":2535240.2799999998,"ADDRESS":"中正南路二段２５３巷１７號","OBJECTID":230216},"geometry":{"x":175435.55999999866,"y":2535240.2799999993}},{"attributes":{"ID":230221,"DIS_CODE":0,"TOWNNAME":"歸仁區","LI":"七甲里","LIN":"2鄰","STREET":"七甲五街","SECT":" ","MAREA":" ","LANE":"１０２巷","ALLEY":" ","HOUSE_NO":"３７號","E_COORD97":177167.5,"N_COORD97":2542647.9300000002,"ADDRESS":"七甲五街１０２巷３７號","OBJECTID":230217},"geometry":{"x":177167.50000000093,"y":2542647.9300000034}},{"attributes":{"ID":230222,"DIS_CODE":0,"TOWNNAME":"歸仁區","LI":"七甲里","LIN":"2鄰","STREET":"七甲五街","SECT":" ","MAREA":" ","LANE":"１０２巷","ALLEY":" ","HOUSE_NO":"３號","E_COORD97":177193.75,"N_COORD97":2542629.9300000002,"ADDRESS":"七甲五街１０２巷３號","OBJECTID":230218},"geometry":{"x":177193.75,"y":2542629.9299999997}},{"attributes":{"ID":230223,"DIS_CODE":0,"TOWNNAME":"歸仁區","LI":"七甲里","LIN":"2鄰","STREET":"七甲五街","SECT":" ","MAREA":" ","LANE":"１０２巷","ALLEY":" ","HOUSE_NO":"５號","E_COORD97":177193.85000000001,"N_COORD97":2542635.9300000002,"ADDRESS":"七甲五街１０２巷５號","OBJECTID":230219},"geometry":{"x":177193.85000000056,"y":2542635.9300000016}},{"attributes":{"ID":230224,"DIS_CODE":0,"TOWNNAME":"歸仁區","LI":"七甲里","LIN":"2鄰","STREET":"七甲五街","SECT":" ","MAREA":" ","LANE":"１０２巷","ALLEY":" ","HOUSE_NO":"６１號","E_COORD97":177107,"N_COORD97":2542651.9300000002,"ADDRESS":"七甲五街１０２巷６１號","OBJECTID":230220},"geometry":{"x":177107.00000000093,"y":2542651.9300000016}},{"attributes":{"ID":230225,"DIS_CODE":0,"TOWNNAME":"歸仁區","LI":"西埔里","LIN":"2鄰","STREET":"西埔三街","SECT":" ","MAREA":" ","LANE":"７３巷","ALLEY":" ","HOUSE_NO":"１號","E_COORD97":176815.84,"N_COORD97":2543953.25,"ADDRESS":"西埔三街７３巷１號","OBJECTID":230221},"geometry":{"x":176815.84000000078,"y":2543953.25}},{"attributes":{"ID":230226,"DIS_CODE":0,"TOWNNAME":"東區","LI":"大同里","LIN":"5鄰","STREET":"府東街","SECT":" ","MAREA":" ","LANE":"２５９巷","ALLEY":" ","HOUSE_NO":"１０號","E_COORD97":169240.23000000001,"N_COORD97":2543087.9199999999,"ADDRESS":"府東街２５９巷１０號","OBJECTID":230222},"geometry":{"x":169240.23000000138,"y":2543087.9199999999}},{"attributes":{"ID":230227,"DIS_CODE":0,"TOWNNAME":"東區","LI":"大同里","LIN":"5鄰","STREET":"府東街","SECT":" ","MAREA":" ","LANE":"２５９巷","ALLEY":" ","HOUSE_NO":"１２號","E_COORD97":169242.92000000001,"N_COORD97":2543092.9399999999,"ADDRESS":"府東街２５９巷１２號","OBJECTID":230223},"geometry":{"x":169242.92000000086,"y":2543092.9400000013}},{"attributes":{"ID":230228,"DIS_CODE":0,"TOWNNAME":"東區","LI":"大同里","LIN":"5鄰","STREET":"府東街","SECT":" ","MAREA":" ","LANE":"２５９巷","ALLEY":" ","HOUSE_NO":"１４號","E_COORD97":169244.37,"N_COORD97":2543090.0499999998,"ADDRESS":"府東街２５９巷１４號","OBJECTID":230224},"geometry":{"x":169244.37000000011,"y":2543090.0500000026}},{"attributes":{"ID":230229,"DIS_CODE":0,"TOWNNAME":"東區","LI":"大同里","LIN":"5鄰","STREET":"府東街","SECT":" ","MAREA":" ","LANE":"２５９巷","ALLEY":" ","HOUSE_NO":"２號","E_COORD97":169231.38,"N_COORD97":2543090.3799999999,"ADDRESS":"府東街２５９巷２號","OBJECTID":230225},"geometry":{"x":169231.38000000082,"y":2543090.379999999}},{"attributes":{"ID":230230,"DIS_CODE":0,"TOWNNAME":"東區","LI":"大同里","LIN":"5鄰","STREET":"府東街","SECT":" ","MAREA":" ","LANE":"２５９巷","ALLEY":" ","HOUSE_NO":"４號","E_COORD97":169232.5,"N_COORD97":2543097.9900000002,"ADDRESS":"府東街２５９巷４號","OBJECTID":230226},"geometry":{"x":169232.50000000093,"y":2543097.9900000002}},{"attributes":{"ID":230231,"DIS_CODE":0,"TOWNNAME":"南區","LI":"永寧里","LIN":"2鄰","STREET":"灣裡路","SECT":" ","MAREA":" ","LANE":"１８６巷","ALLEY":" ","HOUSE_NO":"２號","E_COORD97":166024.78,"N_COORD97":2536606.6400000001,"ADDRESS":"灣裡路１８６巷２號","OBJECTID":230227},"geometry":{"x":166024.77999999933,"y":2536606.6400000025}},{"attributes":{"ID":230232,"DIS_CODE":0,"TOWNNAME":"南區","LI":"永寧里","LIN":"2鄰","STREET":"灣裡路","SECT":" ","MAREA":" ","LANE":"１８６巷","ALLEY":" ","HOUSE_NO":"４號","E_COORD97":166018.17000000001,"N_COORD97":2536604.6000000001,"ADDRESS":"灣裡路１８６巷４號","OBJECTID":230228},"geometry":{"x":166018.16999999993,"y":2536604.5999999996}},{"attributes":{"ID":230233,"DIS_CODE":0,"TOWNNAME":"南區","LI":"永寧里","LIN":"2鄰","STREET":"灣裡路","SECT":" ","MAREA":" ","LANE":"１８６巷","ALLEY":" ","HOUSE_NO":"６號","E_COORD97":166011.63,"N_COORD97":2536603.3799999999,"ADDRESS":"灣裡路１８６巷６號","OBJECTID":230229},"geometry":{"x":166011.62999999989,"y":2536603.3800000008}},{"attributes":{"ID":230234,"DIS_CODE":0,"TOWNNAME":"南區","LI":"永寧里","LIN":"2鄰","STREET":"灣裡路","SECT":" ","MAREA":" ","LANE":"１８６巷","ALLEY":" ","HOUSE_NO":"８號","E_COORD97":166015.88,"N_COORD97":2536613.29,"ADDRESS":"灣裡路１８６巷８號","OBJECTID":230230},"geometry":{"x":166015.88000000082,"y":2536613.2900000028}},{"attributes":{"ID":230235,"DIS_CODE":0,"TOWNNAME":"南區","LI":"大忠里","LIN":"2鄰","STREET":"大同路","SECT":"二段","MAREA":" ","LANE":"４８２巷","ALLEY":" ","HOUSE_NO":"１１號","E_COORD97":169428.41,"N_COORD97":2541470.1800000002,"ADDRESS":"大同路二段４８２巷１１號","OBJECTID":230231},"geometry":{"x":169428.41000000108,"y":2541470.1800000016}},{"attributes":{"ID":230236,"DIS_CODE":0,"TOWNNAME":"南區","LI":"大忠里","LIN":"2鄰","STREET":"大同路","SECT":"二段","MAREA":" ","LANE":"４８２巷","ALLEY":" ","HOUSE_NO":"１５號","E_COORD97":169433.64000000001,"N_COORD97":2541462.3500000001,"ADDRESS":"大同路二段４８２巷１５號","OBJECTID":230232},"geometry":{"x":169433.63999999966,"y":2541462.3500000015}},{"attributes":{"ID":230237,"DIS_CODE":0,"TOWNNAME":"東區","LI":"大同里","LIN":"6鄰","STREET":"樹林街","SECT":"一段","MAREA":" ","LANE":"１８３巷","ALLEY":" ","HOUSE_NO":"８號","E_COORD97":169261.38,"N_COORD97":2542977.4399999999,"ADDRESS":"樹林街一段１８３巷８號","OBJECTID":230233},"geometry":{"x":169261.37999999989,"y":2542977.4400000013}},{"attributes":{"ID":230238,"DIS_CODE":0,"TOWNNAME":"佳里區","LI":"安西里","LIN":"47鄰","STREET":"義民街","SECT":" ","MAREA":" ","LANE":" ","ALLEY":" ","HOUSE_NO":"３３５號四樓之２","E_COORD97":165191.14999999999,"N_COORD97":2562379.2599999998,"ADDRESS":"義民街３３５號四樓之２","OBJECTID":230234},"geometry":{"x":165191.15000000037,"y":2562379.2600000016}},{"attributes":{"ID":230239,"DIS_CODE":0,"TOWNNAME":"永康區","LI":"二王里","LIN":"47鄰","STREET":"南工街","SECT":" ","MAREA":" ","LANE":" ","ALLEY":" ","HOUSE_NO":"２４４號","E_COORD97":171941.01000000001,"N_COORD97":2545967.7400000002,"ADDRESS":"南工街２４４號","OBJECTID":230235},"geometry":{"x":171941.01000000071,"y":2545967.7400000002}},{"attributes":{"ID":230240,"DIS_CODE":0,"TOWNNAME":"永康區","LI":"二王里","LIN":"47鄰","STREET":"南工街","SECT":" ","MAREA":" ","LANE":" ","ALLEY":" ","HOUSE_NO":"２４２號","E_COORD97":171945.17000000001,"N_COORD97":2545967.2400000002,"ADDRESS":"南工街２４２號","OBJECTID":230236},"geometry":{"x":171945.17000000086,"y":2545967.2400000002}},{"attributes":{"ID":230241,"DIS_CODE":0,"TOWNNAME":"佳里區","LI":"安西里","LIN":"47鄰","STREET":"新生路","SECT":" ","MAREA":" ","LANE":" ","ALLEY":" ","HOUSE_NO":"４１８號","E_COORD97":165230.57000000001,"N_COORD97":2562202.0499999998,"ADDRESS":"新生路４１８號","OBJECTID":230237},"geometry":{"x":165230.5700000003,"y":2562202.0500000026}},{"attributes":{"ID":230242,"DIS_CODE":0,"TOWNNAME":"永康區","LI":"二王里","LIN":"47鄰","STREET":"南工街","SECT":" ","MAREA":" ","LANE":" ","ALLEY":" ","HOUSE_NO":"２３８號","E_COORD97":171953.07000000001,"N_COORD97":2545966.4900000002,"ADDRESS":"南工街２３８號","OBJECTID":230238},"geometry":{"x":171953.07000000123,"y":2545966.4900000002}},{"attributes":{"ID":230243,"DIS_CODE":0,"TOWNNAME":"東區","LI":"崇德里","LIN":"23鄰","STREET":"崇德路","SECT":" ","MAREA":" ","LANE":"５３０巷","ALLEY":" ","HOUSE_NO":"１２號","E_COORD97":170741.85999999999,"N_COORD97":2541522.1600000001,"ADDRESS":"崇德路５３０巷１２號","OBJECTID":230239},"geometry":{"x":170741.86000000034,"y":2541522.160000002}},{"attributes":{"ID":230244,"DIS_CODE":0,"TOWNNAME":"東區","LI":"崇德里","LIN":"23鄰","STREET":"崇德路","SECT":" ","MAREA":" ","LANE":"５３０巷","ALLEY":" ","HOUSE_NO":"１６號","E_COORD97":170733.41,"N_COORD97":2541522.52,"ADDRESS":"崇德路５３０巷１６號","OBJECTID":230240},"geometry":{"x":170733.41000000108,"y":2541522.5200000014}},{"attributes":{"ID":230245,"DIS_CODE":0,"TOWNNAME":"東區","LI":"崇德里","LIN":"23鄰","STREET":"崇德路","SECT":" ","MAREA":" ","LANE":"５３０巷","ALLEY":" ","HOUSE_NO":"１８號","E_COORD97":170729.66,"N_COORD97":2541528.0299999998,"ADDRESS":"崇德路５３０巷１８號","OBJECTID":230241},"geometry":{"x":170729.65999999922,"y":2541528.0300000031}},{"attributes":{"ID":230246,"DIS_CODE":0,"TOWNNAME":"東區","LI":"崇德里","LIN":"23鄰","STREET":"崇德路","SECT":" ","MAREA":" ","LANE":"５３０巷","ALLEY":" ","HOUSE_NO":"２０號","E_COORD97":170725.54999999999,"N_COORD97":2541522.75,"ADDRESS":"崇德路５３０巷２０號","OBJECTID":230242},"geometry":{"x":170725.55000000075,"y":2541522.75}},{"attributes":{"ID":230247,"DIS_CODE":0,"TOWNNAME":"東區","LI":"崇德里","LIN":"23鄰","STREET":"崇德路","SECT":" ","MAREA":" ","LANE":"５３０巷","ALLEY":" ","HOUSE_NO":"２２號","E_COORD97":170721.44,"N_COORD97":2541528.0299999998,"ADDRESS":"崇德路５３０巷２２號","OBJECTID":230243},"geometry":{"x":170721.44000000227,"y":2541528.0300000031}},{"attributes":{"ID":230248,"DIS_CODE":0,"TOWNNAME":"東區","LI":"崇德里","LIN":"23鄰","STREET":"崇德路","SECT":" ","MAREA":" ","LANE":"５３０巷","ALLEY":" ","HOUSE_NO":"２６號","E_COORD97":170713.10999999999,"N_COORD97":2541528.0299999998,"ADDRESS":"崇德路５３０巷２６號","OBJECTID":230244},"geometry":{"x":170713.11000000034,"y":2541528.0300000031}},{"attributes":{"ID":230249,"DIS_CODE":0,"TOWNNAME":"東區","LI":"崇德里","LIN":"23鄰","STREET":"崇德路","SECT":" ","MAREA":" ","LANE":"５３０巷","ALLEY":" ","HOUSE_NO":"２８號","E_COORD97":170709.12,"N_COORD97":2541522.52,"ADDRESS":"崇德路５３０巷２８號","OBJECTID":230245},"geometry":{"x":170709.12000000011,"y":2541522.5200000014}},{"attributes":{"ID":230250,"DIS_CODE":0,"TOWNNAME":"東區","LI":"崇德里","LIN":"23鄰","STREET":"崇德路","SECT":" ","MAREA":" ","LANE":"５３０巷","ALLEY":" ","HOUSE_NO":"３０號","E_COORD97":170704.89999999999,"N_COORD97":2541528.6099999999,"ADDRESS":"崇德路５３０巷３０號","OBJECTID":230246},"geometry":{"x":170704.9000000013,"y":2541528.6100000013}},{"attributes":{"ID":230251,"DIS_CODE":0,"TOWNNAME":"東區","LI":"崇德里","LIN":"23鄰","STREET":"崇德路","SECT":" ","MAREA":" ","LANE":"５３０巷","ALLEY":" ","HOUSE_NO":"３２號","E_COORD97":170701.14000000001,"N_COORD97":2541522.3999999999,"ADDRESS":"崇德路５３０巷３２號","OBJECTID":230247},"geometry":{"x":170701.1400000006,"y":2541522.4000000004}},{"attributes":{"ID":230252,"DIS_CODE":0,"TOWNNAME":"東區","LI":"富強里","LIN":"23鄰","STREET":"中華東路","SECT":"二段","MAREA":" ","LANE":"４８巷","ALLEY":" ","HOUSE_NO":"９號","E_COORD97":171339.28,"N_COORD97":2542999.4399999999,"ADDRESS":"中華東路二段４８巷９號","OBJECTID":230248},"geometry":{"x":171339.28000000212,"y":2542999.4399999995}},{"attributes":{"ID":230253,"DIS_CODE":0,"TOWNNAME":"東區","LI":"富強里","LIN":"23鄰","STREET":"裕農路","SECT":" ","MAREA":" ","LANE":"４４６巷","ALLEY":" ","HOUSE_NO":"３３號","E_COORD97":171256.63,"N_COORD97":2543005.23,"ADDRESS":"裕農路４４６巷３３號","OBJECTID":230249},"geometry":{"x":171256.62999999989,"y":2543005.2300000004}},{"attributes":{"ID":230254,"DIS_CODE":0,"TOWNNAME":"東區","LI":"東明里","LIN":"23鄰","STREET":"東安路","SECT":" ","MAREA":" ","LANE":"３０巷","ALLEY":" ","HOUSE_NO":"１２號","E_COORD97":170725.82999999999,"N_COORD97":2543547.9399999999,"ADDRESS":"東安路３０巷１２號","OBJECTID":230250},"geometry":{"x":170725.83000000101,"y":2543547.9399999995}},{"attributes":{"ID":230255,"DIS_CODE":0,"TOWNNAME":"東區","LI":"東明里","LIN":"23鄰","STREET":"東安路","SECT":" ","MAREA":" ","LANE":"３０巷","ALLEY":" ","HOUSE_NO":"１４號","E_COORD97":170734.64999999999,"N_COORD97":2543546.9399999999,"ADDRESS":"東安路３０巷１４號","OBJECTID":230251},"geometry":{"x":170734.65000000037,"y":2543546.9400000013}},{"attributes":{"ID":230256,"DIS_CODE":0,"TOWNNAME":"東區","LI":"東明里","LIN":"23鄰","STREET":"東安路","SECT":" ","MAREA":" ","LANE":"３０巷","ALLEY":" ","HOUSE_NO":"１６號","E_COORD97":170743.26999999999,"N_COORD97":2543545.3399999999,"ADDRESS":"東安路３０巷１６號","OBJECTID":230252},"geometry":{"x":170743.26999999955,"y":2543545.3400000017}},{"attributes":{"ID":230257,"DIS_CODE":0,"TOWNNAME":"南區","LI":"大忠里","LIN":"2鄰","STREET":"大同路","SECT":"二段","MAREA":" ","LANE":"４８２巷","ALLEY":" ","HOUSE_NO":"２１號","E_COORD97":169416.85999999999,"N_COORD97":2541466.2200000002,"ADDRESS":"大同路二段４８２巷２１號","OBJECTID":230253},"geometry":{"x":169416.86000000127,"y":2541466.2200000007}},{"attributes":{"ID":230258,"DIS_CODE":0,"TOWNNAME":"楠西區","LI":"楠西里","LIN":"2鄰","STREET":"中華路","SECT":" ","MAREA":" ","LANE":"２５２巷","ALLEY":" ","HOUSE_NO":"１３號","E_COORD97":197002.51000000001,"N_COORD97":2564370.25,"ADDRESS":"中華路２５２巷１３號","OBJECTID":230254},"geometry":{"x":197002.51000000164,"y":2564370.25}},{"attributes":{"ID":230259,"DIS_CODE":0,"TOWNNAME":"東區","LI":"仁和里","LIN":"26鄰","STREET":"仁和路","SECT":" ","MAREA":" ","LANE":"１３９巷","ALLEY":" ","HOUSE_NO":"３７號","E_COORD97":171693.67000000001,"N_COORD97":2541057.6400000001,"ADDRESS":"仁和路１３９巷３７號","OBJECTID":230255},"geometry":{"x":171693.66999999993,"y":2541057.6400000025}},{"attributes":{"ID":230260,"DIS_CODE":0,"TOWNNAME":"永康區","LI":"二王里","LIN":"47鄰","STREET":"南工街","SECT":" ","MAREA":" ","LANE":" ","ALLEY":" ","HOUSE_NO":"２４６號","E_COORD97":171937.01000000001,"N_COORD97":2545967.9900000002,"ADDRESS":"南工街２４６號","OBJECTID":230256},"geometry":{"x":171937.00999999978,"y":2545967.9900000021}},{"attributes":{"ID":230261,"DIS_CODE":0,"TOWNNAME":"永康區","LI":"二王里","LIN":"47鄰","STREET":"南工街","SECT":" ","MAREA":" ","LANE":" ","ALLEY":" ","HOUSE_NO":"３１８號","E_COORD97":171744.62,"N_COORD97":2546046.7400000002,"ADDRESS":"南工街３１８號","OBJECTID":230257},"geometry":{"x":171744.62000000011,"y":2546046.7399999984}},{"attributes":{"ID":230262,"DIS_CODE":0,"TOWNNAME":"永康區","LI":"二王里","LIN":"47鄰","STREET":"南工街","SECT":" ","MAREA":" ","LANE":" ","ALLEY":" ","HOUSE_NO":"２７２號","E_COORD97":171897.17000000001,"N_COORD97":2545997.9300000002,"ADDRESS":"南工街２７２號","OBJECTID":230258},"geometry":{"x":171897.16999999993,"y":2545997.9300000016}},{"attributes":{"ID":230263,"DIS_CODE":0,"TOWNNAME":"永康區","LI":"二王里","LIN":"47鄰","STREET":"南工街","SECT":" ","MAREA":" ","LANE":" ","ALLEY":" ","HOUSE_NO":"２７４號","E_COORD97":171897.78,"N_COORD97":2546002.1800000002,"ADDRESS":"南工街２７４號","OBJECTID":230259},"geometry":{"x":171897.78000000119,"y":2546002.1799999997}},{"attributes":{"ID":230264,"DIS_CODE":0,"TOWNNAME":"永康區","LI":"二王里","LIN":"47鄰","STREET":"南工街","SECT":" ","MAREA":" ","LANE":" ","ALLEY":" ","HOUSE_NO":"２７０號","E_COORD97":171896.62,"N_COORD97":2545993.6800000002,"ADDRESS":"南工街２７０號","OBJECTID":230260},"geometry":{"x":171896.62000000104,"y":2545993.6800000016}},{"attributes":{"ID":230265,"DIS_CODE":0,"TOWNNAME":"永康區","LI":"二王里","LIN":"47鄰","STREET":"南工街","SECT":" ","MAREA":" ","LANE":" ","ALLEY":" ","HOUSE_NO":"３００號","E_COORD97":171776.60999999999,"N_COORD97":2546055.9900000002,"ADDRESS":"南工街３００號","OBJECTID":230261},"geometry":{"x":171776.61000000127,"y":2546055.9900000021}},{"attributes":{"ID":230266,"DIS_CODE":0,"TOWNNAME":"永康區","LI":"二王里","LIN":"47鄰","STREET":"南工街","SECT":" ","MAREA":" ","LANE":" ","ALLEY":" ","HOUSE_NO":"２６８號","E_COORD97":171896.28,"N_COORD97":2545989.1699999999,"ADDRESS":"南工街２６８號","OBJECTID":230262},"geometry":{"x":171896.28000000026,"y":2545989.1699999981}},{"attributes":{"ID":230267,"DIS_CODE":0,"TOWNNAME":"永康區","LI":"二王里","LIN":"47鄰","STREET":"南工街","SECT":" ","MAREA":" ","LANE":" ","ALLEY":" ","HOUSE_NO":"２６０號","E_COORD97":171907.41,"N_COORD97":2545969.9900000002,"ADDRESS":"南工街２６０號","OBJECTID":230263},"geometry":{"x":171907.41000000015,"y":2545969.9900000002}},{"attributes":{"ID":230268,"DIS_CODE":0,"TOWNNAME":"永康區","LI":"崑山里","LIN":"47鄰","STREET":"國光六街","SECT":" ","MAREA":" ","LANE":" ","ALLEY":" ","HOUSE_NO":"１３號","E_COORD97":174279.73999999999,"N_COORD97":2545245.9399999999,"ADDRESS":"國光六街１３號","OBJECTID":230264},"geometry":{"x":174279.74000000115,"y":2545245.9400000013}},{"attributes":{"ID":230269,"DIS_CODE":0,"TOWNNAME":"仁德區","LI":"成功里","LIN":"47鄰","STREET":"文賢路","SECT":"一段","MAREA":" ","LANE":" ","ALLEY":" ","HOUSE_NO":"３４號","E_COORD97":170113.26000000001,"N_COORD97":2538241.0800000001,"ADDRESS":"文賢路一段３４號","OBJECTID":230265},"geometry":{"x":170113.26000000164,"y":2538241.0800000019}},{"attributes":{"ID":230270,"DIS_CODE":0,"TOWNNAME":"仁德區","LI":"成功里","LIN":"47鄰","STREET":"文賢路","SECT":"一段","MAREA":" ","LANE":" ","ALLEY":" ","HOUSE_NO":"３６號","E_COORD97":170130.81,"N_COORD97":2538242.8300000001,"ADDRESS":"文賢路一段３６號","OBJECTID":230266},"geometry":{"x":170130.80999999959,"y":2538242.8300000019}},{"attributes":{"ID":230271,"DIS_CODE":0,"TOWNNAME":"仁德區","LI":"成功里","LIN":"47鄰","STREET":"文賢路","SECT":"一段","MAREA":" ","LANE":" ","ALLEY":" ","HOUSE_NO":"３２號","E_COORD97":170111.01999999999,"N_COORD97":2538245.3300000001,"ADDRESS":"文賢路一段３２號","OBJECTID":230267},"geometry":{"x":170111.01999999955,"y":2538245.3300000019}},{"attributes":{"ID":230272,"DIS_CODE":0,"TOWNNAME":"永康區","LI":"崑山里","LIN":"47鄰","STREET":"國光六街","SECT":" ","MAREA":" ","LANE":" ","ALLEY":" ","HOUSE_NO":"９號","E_COORD97":174288.69,"N_COORD97":2545243.9399999999,"ADDRESS":"國光六街９號","OBJECTID":230268},"geometry":{"x":174288.69000000134,"y":2545243.9399999995}},{"attributes":{"ID":230273,"DIS_CODE":0,"TOWNNAME":"永康區","LI":"崑山里","LIN":"47鄰","STREET":"永大路","SECT":"二段","MAREA":" ","LANE":" ","ALLEY":" ","HOUSE_NO":"１４７號","E_COORD97":174264.60000000001,"N_COORD97":2545081.8999999999,"ADDRESS":"永大路二段１４７號","OBJECTID":230269},"geometry":{"x":174264.60000000056,"y":2545081.9000000004}},{"attributes":{"ID":230274,"DIS_CODE":0,"TOWNNAME":"永康區","LI":"崑山里","LIN":"47鄰","STREET":"國光五街","SECT":" ","MAREA":" ","LANE":" ","ALLEY":" ","HOUSE_NO":"６號","E_COORD97":174221.78,"N_COORD97":2545062.6600000001,"ADDRESS":"國光五街６號","OBJECTID":230270},"geometry":{"x":174221.78000000119,"y":2545062.6600000001}},{"attributes":{"ID":230275,"DIS_CODE":0,"TOWNNAME":"新營區","LI":"新東里","LIN":"22鄰","STREET":"東明街","SECT":" ","MAREA":" ","LANE":"８０巷","ALLEY":" ","HOUSE_NO":"１８號","E_COORD97":180846.98999999999,"N_COORD97":2579782.8500000001,"ADDRESS":"東明街８０巷１８號","OBJECTID":230271},"geometry":{"x":180846.99000000115,"y":2579782.8499999996}},{"attributes":{"ID":230276,"DIS_CODE":0,"TOWNNAME":"新營區","LI":"新東里","LIN":"22鄰","STREET":"東明街","SECT":" ","MAREA":" ","LANE":"８０巷","ALLEY":" ","HOUSE_NO":"２０號","E_COORD97":180851.89000000001,"N_COORD97":2579782.71,"ADDRESS":"東明街８０巷２０號","OBJECTID":230272},"geometry":{"x":180851.8900000006,"y":2579782.7100000028}},{"attributes":{"ID":230277,"DIS_CODE":0,"TOWNNAME":"新營區","LI":"新東里","LIN":"22鄰","STREET":"東明街","SECT":" ","MAREA":" ","LANE":"８０巷","ALLEY":" ","HOUSE_NO":"２２號","E_COORD97":180856.10999999999,"N_COORD97":2579782.79,"ADDRESS":"東明街８０巷２２號","OBJECTID":230273},"geometry":{"x":180856.11000000127,"y":2579782.7899999972}},{"attributes":{"ID":230278,"DIS_CODE":0,"TOWNNAME":"永康區","LI":"網寮里","LIN":"5鄰","STREET":"永勝街","SECT":" ","MAREA":" ","LANE":"１０６巷","ALLEY":" ","HOUSE_NO":"１５號","E_COORD97":173574.88,"N_COORD97":2546386.7599999998,"ADDRESS":"永勝街１０６巷１５號","OBJECTID":230274},"geometry":{"x":173574.88000000082,"y":2546386.7600000016}},{"attributes":{"ID":230279,"DIS_CODE":0,"TOWNNAME":"永康區","LI":"網寮里","LIN":"20鄰","STREET":"永二街","SECT":" ","MAREA":" ","LANE":"２４５巷","ALLEY":" ","HOUSE_NO":"２７號","E_COORD97":173311.64000000001,"N_COORD97":2546144.73,"ADDRESS":"永二街２４５巷２７號","OBJECTID":230275},"geometry":{"x":173311.6400000006,"y":2546144.7300000004}},{"attributes":{"ID":230280,"DIS_CODE":0,"TOWNNAME":"永康區","LI":"網寮里","LIN":"21鄰","STREET":"文化路","SECT":" ","MAREA":" ","LANE":"２６１巷","ALLEY":" ","HOUSE_NO":"３７號","E_COORD97":173632.09,"N_COORD97":2546080.75,"ADDRESS":"文化路２６１巷３７號","OBJECTID":230276},"geometry":{"x":173632.09000000171,"y":2546080.7500000037}},{"attributes":{"ID":230281,"DIS_CODE":0,"TOWNNAME":"東區","LI":"仁和里","LIN":"26鄰","STREET":"仁和路","SECT":" ","MAREA":" ","LANE":"１３９巷","ALLEY":" ","HOUSE_NO":"３９號","E_COORD97":171697.64999999999,"N_COORD97":2541057.8500000001,"ADDRESS":"仁和路１３９巷３９號","OBJECTID":230277},"geometry":{"x":171697.65000000037,"y":2541057.8499999996}},{"attributes":{"ID":230282,"DIS_CODE":0,"TOWNNAME":"東區","LI":"仁和里","LIN":"26鄰","STREET":"仁和路","SECT":" ","MAREA":" ","LANE":"１３９巷","ALLEY":" ","HOUSE_NO":"４１號","E_COORD97":171702.89000000001,"N_COORD97":2541057.8500000001,"ADDRESS":"仁和路１３９巷４１號","OBJECTID":230278},"geometry":{"x":171702.8900000006,"y":2541057.8499999996}},{"attributes":{"ID":230283,"DIS_CODE":0,"TOWNNAME":"東區","LI":"新東里","LIN":"2鄰","STREET":"東門路","SECT":"二段","MAREA":" ","LANE":"１６１巷","ALLEY":" ","HOUSE_NO":"１２號","E_COORD97":170376.5,"N_COORD97":2542912.96,"ADDRESS":"東門路二段１６１巷１２號","OBJECTID":230279},"geometry":{"x":170376.50000000186,"y":2542912.9600000009}},{"attributes":{"ID":230284,"DIS_CODE":0,"TOWNNAME":"南區","LI":"省躬里","LIN":"2鄰","STREET":"省躬三街","SECT":" ","MAREA":" ","LANE":"１６５巷","ALLEY":" ","HOUSE_NO":"１０號","E_COORD97":165813.82000000001,"N_COORD97":2536713.75,"ADDRESS":"省躬三街１６５巷１０號","OBJECTID":230280},"geometry":{"x":165813.8200000003,"y":2536713.7500000019}},{"attributes":{"ID":230285,"DIS_CODE":0,"TOWNNAME":"南區","LI":"省躬里","LIN":"2鄰","STREET":"省躬三街","SECT":" ","MAREA":" ","LANE":"１６５巷","ALLEY":" ","HOUSE_NO":"８號","E_COORD97":165809.19,"N_COORD97":2536712.3900000001,"ADDRESS":"省躬三街１６５巷８號","OBJECTID":230281},"geometry":{"x":165809.19000000134,"y":2536712.3899999987}},{"attributes":{"ID":230286,"DIS_CODE":0,"TOWNNAME":"南區","LI":"省躬里","LIN":"2鄰","STREET":"省躬三街","SECT":" ","MAREA":" ","LANE":"１８７巷","ALLEY":" ","HOUSE_NO":"１號","E_COORD97":165768.60999999999,"N_COORD97":2536670.5800000001,"ADDRESS":"省躬三街１８７巷１號","OBJECTID":230282},"geometry":{"x":165768.61000000127,"y":2536670.5800000019}},{"attributes":{"ID":230287,"DIS_CODE":0,"TOWNNAME":"南區","LI":"省躬里","LIN":"2鄰","STREET":"省躬三街","SECT":" ","MAREA":" ","LANE":"１８７巷","ALLEY":" ","HOUSE_NO":"２號","E_COORD97":165769.97,"N_COORD97":2536652.1000000001,"ADDRESS":"省躬三街１８７巷２號","OBJECTID":230283},"geometry":{"x":165769.96999999974,"y":2536652.0999999996}},{"attributes":{"ID":230288,"DIS_CODE":0,"TOWNNAME":"南區","LI":"省躬里","LIN":"2鄰","STREET":"省躬三街","SECT":" ","MAREA":" ","LANE":"１８７巷","ALLEY":" ","HOUSE_NO":"６號","E_COORD97":165776.78,"N_COORD97":2536652.6499999999,"ADDRESS":"省躬三街１８７巷６號","OBJECTID":230284},"geometry":{"x":165776.78000000026,"y":2536652.6500000004}},{"attributes":{"ID":230289,"DIS_CODE":0,"TOWNNAME":"南區","LI":"省躬里","LIN":"2鄰","STREET":"灣裡路","SECT":" ","MAREA":" ","LANE":"８８巷","ALLEY":" ","HOUSE_NO":"６８號","E_COORD97":165836.42000000001,"N_COORD97":2536742.8999999999,"ADDRESS":"灣裡路８８巷６８號","OBJECTID":230285},"geometry":{"x":165836.41999999993,"y":2536742.9000000041}},{"attributes":{"ID":230290,"DIS_CODE":0,"TOWNNAME":"南區","LI":"省躬里","LIN":"2鄰","STREET":"灣裡路","SECT":" ","MAREA":" ","LANE":"８８巷","ALLEY":" ","HOUSE_NO":"７０之１號","E_COORD97":165819.54000000001,"N_COORD97":2536736.9199999999,"ADDRESS":"灣裡路８８巷７０之１號","OBJECTID":230286},"geometry":{"x":165819.5400000019,"y":2536736.9200000018}},{"attributes":{"ID":230291,"DIS_CODE":0,"TOWNNAME":"南區","LI":"省躬里","LIN":"2鄰","STREET":"灣裡路","SECT":" ","MAREA":" ","LANE":"８８巷","ALLEY":" ","HOUSE_NO":"７０號","E_COORD97":165818.45000000001,"N_COORD97":2536741,"ADDRESS":"灣裡路８８巷７０號","OBJECTID":230287},"geometry":{"x":165818.44999999925,"y":2536741}},{"attributes":{"ID":230292,"DIS_CODE":0,"TOWNNAME":"南區","LI":"省躬里","LIN":"2鄰","STREET":"灣裡路","SECT":" ","MAREA":" ","LANE":"８８巷","ALLEY":" ","HOUSE_NO":"７２號","E_COORD97":165822.26000000001,"N_COORD97":2536730.6699999999,"ADDRESS":"灣裡路８８巷７２號","OBJECTID":230288},"geometry":{"x":165822.25999999978,"y":2536730.6700000018}},{"attributes":{"ID":230293,"DIS_CODE":0,"TOWNNAME":"南區","LI":"省躬里","LIN":"2鄰","STREET":"灣裡路","SECT":" ","MAREA":" ","LANE":"８８巷","ALLEY":" ","HOUSE_NO":"７６號","E_COORD97":165842.14000000001,"N_COORD97":2536725.5,"ADDRESS":"灣裡路８８巷７６號","OBJECTID":230289},"geometry":{"x":165842.14000000153,"y":2536725.5000000019}},{"attributes":{"ID":230294,"DIS_CODE":0,"TOWNNAME":"南區","LI":"省躬里","LIN":"2鄰","STREET":"灣裡路","SECT":" ","MAREA":" ","LANE":"８８巷","ALLEY":" ","HOUSE_NO":"８２號","E_COORD97":165831.25,"N_COORD97":2536702.3199999998,"ADDRESS":"灣裡路８８巷８２號","OBJECTID":230290},"geometry":{"x":165831.25,"y":2536702.3199999984}},{"attributes":{"ID":230295,"DIS_CODE":0,"TOWNNAME":"南區","LI":"省躬里","LIN":"2鄰","STREET":"灣裡路","SECT":" ","MAREA":" ","LANE":"８８巷","ALLEY":" ","HOUSE_NO":"８４號","E_COORD97":165816,"N_COORD97":2536702.0499999998,"ADDRESS":"灣裡路８８巷８４號","OBJECTID":230291},"geometry":{"x":165816,"y":2536702.0500000026}},{"attributes":{"ID":230296,"DIS_CODE":0,"TOWNNAME":"南區","LI":"鯤鯓里","LIN":"2鄰","STREET":"鯤鯓路","SECT":" ","MAREA":" ","LANE":"１０２巷","ALLEY":" ","HOUSE_NO":"２８號","E_COORD97":165103.63,"N_COORD97":2540086.46,"ADDRESS":"鯤鯓路１０２巷２８號","OBJECTID":230292},"geometry":{"x":165103.63000000082,"y":2540086.4600000028}},{"attributes":{"ID":230297,"DIS_CODE":0,"TOWNNAME":"南區","LI":"鯤鯓里","LIN":"2鄰","STREET":"鯤鯓路","SECT":" ","MAREA":" ","LANE":"１０２巷","ALLEY":" ","HOUSE_NO":"３０號","E_COORD97":165101.82000000001,"N_COORD97":2540090.3199999998,"ADDRESS":"鯤鯓路１０２巷３０號","OBJECTID":230293},"geometry":{"x":165101.8200000003,"y":2540090.3200000022}},{"attributes":{"ID":230298,"DIS_CODE":0,"TOWNNAME":"南區","LI":"鯤鯓里","LIN":"2鄰","STREET":"鯤鯓路","SECT":" ","MAREA":" ","LANE":"１０２巷","ALLEY":" ","HOUSE_NO":"３２號","E_COORD97":165100.48999999999,"N_COORD97":2540093.9399999999,"ADDRESS":"鯤鯓路１０２巷３２號","OBJECTID":230294},"geometry":{"x":165100.49000000022,"y":2540093.9399999995}},{"attributes":{"ID":230299,"DIS_CODE":0,"TOWNNAME":"南區","LI":"鯤鯓里","LIN":"2鄰","STREET":"鯤鯓路","SECT":" ","MAREA":" ","LANE":"１０２巷","ALLEY":" ","HOUSE_NO":"３４號","E_COORD97":165099.39999999999,"N_COORD97":2540097.1899999999,"ADDRESS":"鯤鯓路１０２巷３４號","OBJECTID":230295},"geometry":{"x":165099.4000000013,"y":2540097.1900000013}},{"attributes":{"ID":230300,"DIS_CODE":0,"TOWNNAME":"永康區","LI":"\u25A0行里","LIN":"47鄰","STREET":"新行街","SECT":" ","MAREA":" ","LANE":" ","ALLEY":" ","HOUSE_NO":"６６號","E_COORD97":172300.57999999999,"N_COORD97":2548865.5299999998,"ADDRESS":"新行街６６號","OBJECTID":230296},"geometry":{"x":172300.58000000101,"y":2548865.5300000012}},{"attributes":{"ID":230301,"DIS_CODE":0,"TOWNNAME":"永康區","LI":"崑山里","LIN":"47鄰","STREET":"永大路","SECT":"二段","MAREA":" ","LANE":" ","ALLEY":" ","HOUSE_NO":"１４１號","E_COORD97":174258.89000000001,"N_COORD97":2545067.1499999999,"ADDRESS":"永大路二段１４１號","OBJECTID":230297},"geometry":{"x":174258.8900000006,"y":2545067.1500000004}},{"attributes":{"ID":230302,"DIS_CODE":0,"TOWNNAME":"永康區","LI":"崑山里","LIN":"47鄰","STREET":"永大路","SECT":"二段","MAREA":" ","LANE":" ","ALLEY":" ","HOUSE_NO":"１３９號","E_COORD97":174251.34,"N_COORD97":2545056.8199999998,"ADDRESS":"永大路二段１３９號","OBJECTID":230298},"geometry":{"x":174251.34000000078,"y":2545056.8200000022}},{"attributes":{"ID":230303,"DIS_CODE":0,"TOWNNAME":"永康區","LI":"崑山里","LIN":"47鄰","STREET":"永大路","SECT":"二段","MAREA":" ","LANE":" ","ALLEY":" ","HOUSE_NO":"１４３號","E_COORD97":174261.84,"N_COORD97":2545074.1499999999,"ADDRESS":"永大路二段１４３號","OBJECTID":230299},"geometry":{"x":174261.83999999985,"y":2545074.1500000004}},{"attributes":{"ID":230304,"DIS_CODE":0,"TOWNNAME":"永康區","LI":"崑山里","LIN":"47鄰","STREET":"永大路","SECT":"二段","MAREA":" ","LANE":" ","ALLEY":" ","HOUSE_NO":"１６１號","E_COORD97":174283.64999999999,"N_COORD97":2545124.8399999999,"ADDRESS":"永大路二段１６１號","OBJECTID":230300},"geometry":{"x":174283.6500000013,"y":2545124.8400000017}},{"attributes":{"ID":230305,"DIS_CODE":0,"TOWNNAME":"永康區","LI":"崑山里","LIN":"47鄰","STREET":"永大路","SECT":"二段","MAREA":" ","LANE":" ","ALLEY":" ","HOUSE_NO":"１５５號","E_COORD97":174270.41,"N_COORD97":2545097.1499999999,"ADDRESS":"永大路二段１５５號","OBJECTID":230301},"geometry":{"x":174270.41000000015,"y":2545097.1500000004}},{"attributes":{"ID":230306,"DIS_CODE":0,"TOWNNAME":"永康區","LI":"網寮里","LIN":"24鄰","STREET":"永春街","SECT":" ","MAREA":" ","LANE":"４５巷","ALLEY":" ","HOUSE_NO":"２號","E_COORD97":173738.25,"N_COORD97":2546392.6400000001,"ADDRESS":"永春街４５巷２號","OBJECTID":230302},"geometry":{"x":173738.25000000093,"y":2546392.6400000006}},{"attributes":{"ID":230307,"DIS_CODE":0,"TOWNNAME":"永康區","LI":"復興里","LIN":"3鄰","STREET":"復興路","SECT":" ","MAREA":" ","LANE":"２７７巷","ALLEY":" ","HOUSE_NO":"８８號","E_COORD97":172355.12,"N_COORD97":2544077.02,"ADDRESS":"復興路２７７巷８８號","OBJECTID":230303},"geometry":{"x":172355.12000000011,"y":2544077.0199999996}},{"attributes":{"ID":230308,"DIS_CODE":0,"TOWNNAME":"永康區","LI":"龍潭里","LIN":"45鄰","STREET":"永平街","SECT":" ","MAREA":" ","LANE":"２３２巷","ALLEY":" ","HOUSE_NO":"１８號","E_COORD97":174658.91,"N_COORD97":2547119.9900000002,"ADDRESS":"永平街２３２巷１８號","OBJECTID":230304},"geometry":{"x":174658.91000000015,"y":2547119.9900000039}},{"attributes":{"ID":230309,"DIS_CODE":0,"TOWNNAME":"南區","LI":"鯤鯓里","LIN":"2鄰","STREET":"鯤鯓路","SECT":" ","MAREA":" ","LANE":"１０２巷","ALLEY":" ","HOUSE_NO":"４２號","E_COORD97":165086.67000000001,"N_COORD97":2540114.8799999999,"ADDRESS":"鯤鯓路１０２巷４２號","OBJECTID":230305},"geometry":{"x":165086.67000000086,"y":2540114.8800000027}},{"attributes":{"ID":230310,"DIS_CODE":0,"TOWNNAME":"南區","LI":"鯤鯓里","LIN":"2鄰","STREET":"鯤鯓路","SECT":" ","MAREA":" ","LANE":"１０２巷","ALLEY":" ","HOUSE_NO":"４４號","E_COORD97":165085.22,"N_COORD97":2540118.6200000001,"ADDRESS":"鯤鯓路１０２巷４４號","OBJECTID":230306},"geometry":{"x":165085.21999999974,"y":2540118.6199999992}},{"attributes":{"ID":230311,"DIS_CODE":0,"TOWNNAME":"南區","LI":"鯤鯓里","LIN":"2鄰","STREET":"鯤鯓路","SECT":" ","MAREA":" ","LANE":"１０２巷","ALLEY":" ","HOUSE_NO":"４６號","E_COORD97":165082.92999999999,"N_COORD97":2540121.8799999999,"ADDRESS":"鯤鯓路１０２巷４６號","OBJECTID":230307},"geometry":{"x":165082.93000000063,"y":2540121.8800000027}},{"attributes":{"ID":230312,"DIS_CODE":0,"TOWNNAME":"六甲區","LI":"龍湖里","LIN":"2鄰","STREET":"七甲街","SECT":" ","MAREA":" ","LANE":"８６巷","ALLEY":" ","HOUSE_NO":"１２號","E_COORD97":183168.04000000001,"N_COORD97":2569091.4500000002,"ADDRESS":"七甲街８６巷１２號","OBJECTID":230308},"geometry":{"x":183168.0400000019,"y":2569091.4499999993}},{"attributes":{"ID":230313,"DIS_CODE":0,"TOWNNAME":"六甲區","LI":"龍湖里","LIN":"2鄰","STREET":"七甲街","SECT":" ","MAREA":" ","LANE":"８６巷","ALLEY":" ","HOUSE_NO":"１６號","E_COORD97":183169.44,"N_COORD97":2569105.6499999999,"ADDRESS":"七甲街８６巷１６號","OBJECTID":230309},"geometry":{"x":183169.44000000134,"y":2569105.6500000041}},{"attributes":{"ID":230314,"DIS_CODE":0,"TOWNNAME":"六甲區","LI":"龍湖里","LIN":"2鄰","STREET":"七甲街","SECT":" ","MAREA":" ","LANE":"８６巷","ALLEY":" ","HOUSE_NO":"１８號","E_COORD97":183170.06,"N_COORD97":2569110.1099999999,"ADDRESS":"七甲街８６巷１８號","OBJECTID":230310},"geometry":{"x":183170.05999999959,"y":2569110.1099999994}},{"attributes":{"ID":230315,"DIS_CODE":0,"TOWNNAME":"六甲區","LI":"龍湖里","LIN":"2鄰","STREET":"七甲街","SECT":" ","MAREA":" ","LANE":"８６巷","ALLEY":" ","HOUSE_NO":"２４號","E_COORD97":183189.45999999999,"N_COORD97":2569111.77,"ADDRESS":"七甲街８６巷２４號","OBJECTID":230311},"geometry":{"x":183189.46000000089,"y":2569111.7700000014}},{"attributes":{"ID":230316,"DIS_CODE":0,"TOWNNAME":"六甲區","LI":"龍湖里","LIN":"2鄰","STREET":"七甲街","SECT":" ","MAREA":" ","LANE":"８６巷","ALLEY":" ","HOUSE_NO":"２６號","E_COORD97":183193.48000000001,"N_COORD97":2569109.4500000002,"ADDRESS":"七甲街８６巷２６號","OBJECTID":230312},"geometry":{"x":183193.48000000045,"y":2569109.450000003}},{"attributes":{"ID":230317,"DIS_CODE":0,"TOWNNAME":"六甲區","LI":"龍湖里","LIN":"2鄰","STREET":"七甲街","SECT":" ","MAREA":" ","LANE":"８６巷","ALLEY":" ","HOUSE_NO":"３０號","E_COORD97":183202.32999999999,"N_COORD97":2569141.0299999998,"ADDRESS":"七甲街８６巷３０號","OBJECTID":230313},"geometry":{"x":183202.33000000101,"y":2569141.0299999993}},{"attributes":{"ID":230318,"DIS_CODE":0,"TOWNNAME":"六甲區","LI":"龍湖里","LIN":"2鄰","STREET":"七甲街","SECT":" ","MAREA":" ","LANE":"８６巷","ALLEY":" ","HOUSE_NO":"３２號","E_COORD97":183196.70999999999,"N_COORD97":2569142.5899999999,"ADDRESS":"七甲街８６巷３２號","OBJECTID":230314},"geometry":{"x":183196.70999999996,"y":2569142.589999998}},{"attributes":{"ID":230319,"DIS_CODE":0,"TOWNNAME":"六甲區","LI":"七甲里","LIN":"2鄰","STREET":"七甲街","SECT":" ","MAREA":" ","LANE":"９３巷","ALLEY":" ","HOUSE_NO":"１５之１號","E_COORD97":182934.16,"N_COORD97":2568922.6600000001,"ADDRESS":"七甲街９３巷１５之１號","OBJECTID":230315},"geometry":{"x":182934.16000000108,"y":2568922.660000002}},{"attributes":{"ID":230320,"DIS_CODE":0,"TOWNNAME":"六甲區","LI":"七甲里","LIN":"2鄰","STREET":"七甲街","SECT":" ","MAREA":" ","LANE":"９３巷","ALLEY":" ","HOUSE_NO":"１５號","E_COORD97":182940.91,"N_COORD97":2568920.0299999998,"ADDRESS":"七甲街９３巷１５號","OBJECTID":230316},"geometry":{"x":182940.91000000108,"y":2568920.0300000012}},{"attributes":{"ID":230321,"DIS_CODE":0,"TOWNNAME":"六甲區","LI":"七甲里","LIN":"2鄰","STREET":"七甲街","SECT":" ","MAREA":" ","LANE":"９３巷","ALLEY":" ","HOUSE_NO":"１７號","E_COORD97":182961.26999999999,"N_COORD97":2568914.9199999999,"ADDRESS":"七甲街９３巷１７號","OBJECTID":230317},"geometry":{"x":182961.27000000048,"y":2568914.9200000018}},{"attributes":{"ID":230322,"DIS_CODE":0,"TOWNNAME":"六甲區","LI":"七甲里","LIN":"2鄰","STREET":"七甲街","SECT":" ","MAREA":" ","LANE":"９３巷","ALLEY":" ","HOUSE_NO":"１號","E_COORD97":182964.01999999999,"N_COORD97":2569019.6400000001,"ADDRESS":"七甲街９３巷１號","OBJECTID":230318},"geometry":{"x":182964.01999999955,"y":2569019.6400000006}},{"attributes":{"ID":230323,"DIS_CODE":0,"TOWNNAME":"六甲區","LI":"七甲里","LIN":"2鄰","STREET":"七甲街","SECT":" ","MAREA":" ","LANE":"９３巷","ALLEY":" ","HOUSE_NO":"２５號","E_COORD97":182929.89000000001,"N_COORD97":2568879.8900000001,"ADDRESS":"七甲街９３巷２５號","OBJECTID":230319},"geometry":{"x":182929.8900000006,"y":2568879.8900000006}},{"attributes":{"ID":230324,"DIS_CODE":0,"TOWNNAME":"六甲區","LI":"七甲里","LIN":"2鄰","STREET":"七甲街","SECT":" ","MAREA":" ","LANE":"９３巷","ALLEY":" ","HOUSE_NO":"２７號","E_COORD97":182929.53,"N_COORD97":2568874.21,"ADDRESS":"七甲街９３巷２７號","OBJECTID":230320},"geometry":{"x":182929.53000000119,"y":2568874.2100000009}},{"attributes":{"ID":230325,"DIS_CODE":0,"TOWNNAME":"六甲區","LI":"七甲里","LIN":"2鄰","STREET":"七甲街","SECT":" ","MAREA":" ","LANE":"９３巷","ALLEY":" ","HOUSE_NO":"２８之２號","E_COORD97":182913.04999999999,"N_COORD97":2568926.4199999999,"ADDRESS":"七甲街９３巷２８之２號","OBJECTID":230321},"geometry":{"x":182913.04999999981,"y":2568926.4199999999}},{"attributes":{"ID":230326,"DIS_CODE":0,"TOWNNAME":"六甲區","LI":"七甲里","LIN":"2鄰","STREET":"七甲街","SECT":" ","MAREA":" ","LANE":"９３巷","ALLEY":" ","HOUSE_NO":"２８號","E_COORD97":182916.01999999999,"N_COORD97":2568938.4300000002,"ADDRESS":"七甲街９３巷２８號","OBJECTID":230322},"geometry":{"x":182916.01999999955,"y":2568938.4300000016}},{"attributes":{"ID":230327,"DIS_CODE":0,"TOWNNAME":"六甲區","LI":"七甲里","LIN":"2鄰","STREET":"七甲街","SECT":" ","MAREA":" ","LANE":"９３巷","ALLEY":" ","HOUSE_NO":"２９號","E_COORD97":182928.72,"N_COORD97":2568868.25,"ADDRESS":"七甲街９３巷２９號","OBJECTID":230323},"geometry":{"x":182928.71999999974,"y":2568868.2500000019}},{"attributes":{"ID":230328,"DIS_CODE":0,"TOWNNAME":"六甲區","LI":"七甲里","LIN":"2鄰","STREET":"七甲街","SECT":" ","MAREA":" ","LANE":"９３巷","ALLEY":" ","HOUSE_NO":"４４號","E_COORD97":182892.04000000001,"N_COORD97":2568874.8799999999,"ADDRESS":"七甲街９３巷４４號","OBJECTID":230324},"geometry":{"x":182892.04000000097,"y":2568874.879999999}},{"attributes":{"ID":230329,"DIS_CODE":0,"TOWNNAME":"六甲區","LI":"七甲里","LIN":"2鄰","STREET":"七甲街","SECT":" ","MAREA":" ","LANE":"９３巷","ALLEY":" ","HOUSE_NO":"４６號之１","E_COORD97":182871.73000000001,"N_COORD97":2568800.4700000002,"ADDRESS":"七甲街９３巷４６號之１","OBJECTID":230325},"geometry":{"x":182871.73000000045,"y":2568800.4700000007}},{"attributes":{"ID":230330,"DIS_CODE":0,"TOWNNAME":"六甲區","LI":"七甲里","LIN":"2鄰","STREET":"七甲街","SECT":" ","MAREA":" ","LANE":"９３巷","ALLEY":" ","HOUSE_NO":"４６號","E_COORD97":182883.79000000001,"N_COORD97":2568795.6699999999,"ADDRESS":"七甲街９３巷４６號","OBJECTID":230326},"geometry":{"x":182883.79000000097,"y":2568795.6699999999}},{"attributes":{"ID":230331,"DIS_CODE":0,"TOWNNAME":"六甲區","LI":"七甲里","LIN":"2鄰","STREET":"七甲街","SECT":" ","MAREA":" ","LANE":"９３巷","ALLEY":" ","HOUSE_NO":"４８號","E_COORD97":182873.63,"N_COORD97":2568771.2599999998,"ADDRESS":"七甲街９３巷４８號","OBJECTID":230327},"geometry":{"x":182873.62999999989,"y":2568771.2599999998}},{"attributes":{"ID":230332,"DIS_CODE":0,"TOWNNAME":"六甲區","LI":"七甲里","LIN":"2鄰","STREET":"七甲街","SECT":" ","MAREA":" ","LANE":"９３巷","ALLEY":" ","HOUSE_NO":"５０號","E_COORD97":182879.20999999999,"N_COORD97":2568763.5699999998,"ADDRESS":"七甲街９３巷５０號","OBJECTID":230328},"geometry":{"x":182879.21000000089,"y":2568763.570000004}},{"attributes":{"ID":230333,"DIS_CODE":0,"TOWNNAME":"六甲區","LI":"七甲里","LIN":"2鄰","STREET":"七甲街","SECT":" ","MAREA":" ","LANE":"９３巷","ALLEY":" ","HOUSE_NO":"５２號","E_COORD97":182681.12,"N_COORD97":2568923.0899999999,"ADDRESS":"七甲街９３巷５２號","OBJECTID":230329},"geometry":{"x":182681.12000000197,"y":2568923.0900000017}},{"attributes":{"ID":230334,"DIS_CODE":0,"TOWNNAME":"六甲區","LI":"七甲里","LIN":"2鄰","STREET":"七甲街","SECT":" ","MAREA":" ","LANE":"９３巷","ALLEY":" ","HOUSE_NO":"５８號","E_COORD97":182796.04999999999,"N_COORD97":2568760.6299999999,"ADDRESS":"七甲街９３巷５８號","OBJECTID":230330},"geometry":{"x":182796.04999999981,"y":2568760.629999999}},{"attributes":{"ID":230335,"DIS_CODE":0,"TOWNNAME":"永康區","LI":"崑山里","LIN":"47鄰","STREET":"永大路","SECT":"二段","MAREA":" ","LANE":" ","ALLEY":" ","HOUSE_NO":"１６９號","E_COORD97":174300.32000000001,"N_COORD97":2545177.8799999999,"ADDRESS":"永大路二段１６９號","OBJECTID":230331},"geometry":{"x":174300.3200000003,"y":2545177.8800000008}},{"attributes":{"ID":230336,"DIS_CODE":0,"TOWNNAME":"永康區","LI":"崑山里","LIN":"47鄰","STREET":"永大路","SECT":"二段","MAREA":" ","LANE":" ","ALLEY":" ","HOUSE_NO":"１４５號","E_COORD97":174263.19,"N_COORD97":2545078.1499999999,"ADDRESS":"永大路二段１４５號","OBJECTID":230332},"geometry":{"x":174263.19000000134,"y":2545078.1500000041}},{"attributes":{"ID":230337,"DIS_CODE":0,"TOWNNAME":"永康區","LI":"復興里","LIN":"3鄰","STREET":"復興路","SECT":" ","MAREA":" ","LANE":"２７７巷","ALLEY":" ","HOUSE_NO":"２０６號之２","E_COORD97":172372.97,"N_COORD97":2543811.54,"ADDRESS":"復興路２７７巷２０６號之２","OBJECTID":230333},"geometry":{"x":172372.96999999974,"y":2543811.5399999991}},{"attributes":{"ID":230338,"DIS_CODE":0,"TOWNNAME":"永康區","LI":"復興里","LIN":"5鄰","STREET":"復興路","SECT":" ","MAREA":" ","LANE":"４２３巷","ALLEY":" ","HOUSE_NO":"２１號","E_COORD97":172147.70999999999,"N_COORD97":2544272.2799999998,"ADDRESS":"復興路４２３巷２１號","OBJECTID":230334},"geometry":{"x":172147.70999999996,"y":2544272.2799999975}},{"attributes":{"ID":230339,"DIS_CODE":0,"TOWNNAME":"善化區","LI":"嘉南里","LIN":"4鄰","STREET":" ","SECT":" ","MAREA":"茄拔","LANE":" ","ALLEY":" ","HOUSE_NO":"８２號","E_COORD97":181047.51000000001,"N_COORD97":2559470.5099999998,"ADDRESS":"茄拔８２號","OBJECTID":230335},"geometry":{"x":181047.51000000071,"y":2559470.5100000035}},{"attributes":{"ID":230340,"DIS_CODE":0,"TOWNNAME":"永康區","LI":"復興里","LIN":"24鄰","STREET":"復興路","SECT":" ","MAREA":" ","LANE":"３５６巷","ALLEY":" ","HOUSE_NO":"７４號","E_COORD97":172353.82000000001,"N_COORD97":2544517.27,"ADDRESS":"復興路３５６巷７４號","OBJECTID":230336},"geometry":{"x":172353.8200000003,"y":2544517.2700000014}},{"attributes":{"ID":230341,"DIS_CODE":0,"TOWNNAME":"永康區","LI":"復華里","LIN":"35鄰","STREET":"復國一路","SECT":" ","MAREA":" ","LANE":"４７５巷","ALLEY":" ","HOUSE_NO":"１３號","E_COORD97":172578.73999999999,"N_COORD97":2546098.7400000002,"ADDRESS":"復國一路４７５巷１３號","OBJECTID":230337},"geometry":{"x":172578.74000000209,"y":2546098.7400000021}},{"attributes":{"ID":230342,"DIS_CODE":0,"TOWNNAME":"永康區","LI":"新樹里","LIN":"12鄰","STREET":"富強路","SECT":"二段","MAREA":" ","LANE":"５９巷","ALLEY":" ","HOUSE_NO":"６號","E_COORD97":175654.82999999999,"N_COORD97":2546928.46,"ADDRESS":"富強路二段５９巷６號","OBJECTID":230338},"geometry":{"x":175654.83000000194,"y":2546928.4600000028}},{"attributes":{"ID":230343,"DIS_CODE":0,"TOWNNAME":"永康區","LI":"網寮里","LIN":"23鄰","STREET":"永春街","SECT":" ","MAREA":" ","LANE":"１２巷","ALLEY":" ","HOUSE_NO":"２５號","E_COORD97":173828.39000000001,"N_COORD97":2546265.3900000001,"ADDRESS":"永春街１２巷２５號","OBJECTID":230339},"geometry":{"x":173828.3900000006,"y":2546265.3900000006}},{"attributes":{"ID":230344,"DIS_CODE":0,"TOWNNAME":"永康區","LI":"網寮里","LIN":"26鄰","STREET":"永大一路","SECT":" ","MAREA":" ","LANE":"１０８巷","ALLEY":" ","HOUSE_NO":"２１號","E_COORD97":174017.98999999999,"N_COORD97":2546453.3799999999,"ADDRESS":"永大一路１０８巷２１號","OBJECTID":230340},"geometry":{"x":174017.99000000209,"y":2546453.379999999}},{"attributes":{"ID":230345,"DIS_CODE":0,"TOWNNAME":"永康區","LI":"網寮里","LIN":"13鄰","STREET":"永和街","SECT":" ","MAREA":" ","LANE":"２４９巷","ALLEY":" ","HOUSE_NO":"６號","E_COORD97":173309.10999999999,"N_COORD97":2546583.6800000002,"ADDRESS":"永和街２４９巷６號","OBJECTID":230341},"geometry":{"x":173309.11000000127,"y":2546583.6800000016}},{"attributes":{"ID":230346,"DIS_CODE":0,"TOWNNAME":"六甲區","LI":"七甲里","LIN":"2鄰","STREET":"七甲街","SECT":" ","MAREA":" ","LANE":"９３巷","ALLEY":" ","HOUSE_NO":"５之３號","E_COORD97":182941.87,"N_COORD97":2568979.3300000001,"ADDRESS":"七甲街９３巷５之３號","OBJECTID":230342},"geometry":{"x":182941.87000000011,"y":2568979.3300000019}},{"attributes":{"ID":230347,"DIS_CODE":0,"TOWNNAME":"六甲區","LI":"七甲里","LIN":"2鄰","STREET":"七甲街","SECT":" ","MAREA":" ","LANE":"９３巷","ALLEY":" ","HOUSE_NO":"５號","E_COORD97":182952.23000000001,"N_COORD97":2568990.5,"ADDRESS":"七甲街９３巷５號","OBJECTID":230343},"geometry":{"x":182952.23000000138,"y":2568990.5}},{"attributes":{"ID":230348,"DIS_CODE":0,"TOWNNAME":"六甲區","LI":"七甲里","LIN":"2鄰","STREET":"七甲街","SECT":" ","MAREA":" ","LANE":"９３巷","ALLEY":" ","HOUSE_NO":"７號","E_COORD97":182939.92000000001,"N_COORD97":2568971.0499999998,"ADDRESS":"七甲街９３巷７號","OBJECTID":230344},"geometry":{"x":182939.92000000179,"y":2568971.0500000045}},{"attributes":{"ID":230349,"DIS_CODE":0,"TOWNNAME":"六甲區","LI":"七甲里","LIN":"2鄰","STREET":"七甲街","SECT":" ","MAREA":" ","LANE":"９３巷","ALLEY":" ","HOUSE_NO":"９號","E_COORD97":182970.59,"N_COORD97":2568962.5299999998,"ADDRESS":"七甲街９３巷９號","OBJECTID":230345},"geometry":{"x":182970.58999999985,"y":2568962.5299999993}},{"attributes":{"ID":230350,"DIS_CODE":0,"TOWNNAME":"南區","LI":"明興里","LIN":"2鄰","STREET":"金華路","SECT":"一段","MAREA":" ","LANE":"２３０巷","ALLEY":" ","HOUSE_NO":"６號","E_COORD97":166986.73999999999,"N_COORD97":2540844.8100000001,"ADDRESS":"金華路一段２３０巷６號","OBJECTID":230346},"geometry":{"x":166986.74000000115,"y":2540844.8100000005}},{"attributes":{"ID":230351,"DIS_CODE":0,"TOWNNAME":"南區","LI":"大林里","LIN":"2鄰","STREET":"大林路","SECT":" ","MAREA":" ","LANE":"３５巷","ALLEY":" ","HOUSE_NO":"１３號","E_COORD97":169330.41,"N_COORD97":2541780.9700000002,"ADDRESS":"大林路３５巷１３號","OBJECTID":230347},"geometry":{"x":169330.41000000015,"y":2541780.9700000044}},{"attributes":{"ID":230352,"DIS_CODE":0,"TOWNNAME":"南區","LI":"大林里","LIN":"2鄰","STREET":"大林路","SECT":" ","MAREA":" ","LANE":"３５巷","ALLEY":" ","HOUSE_NO":"１號","E_COORD97":169322.57999999999,"N_COORD97":2541808.1299999999,"ADDRESS":"大林路３５巷１號","OBJECTID":230348},"geometry":{"x":169322.58000000007,"y":2541808.1299999971}},{"attributes":{"ID":230353,"DIS_CODE":0,"TOWNNAME":"南區","LI":"大林里","LIN":"2鄰","STREET":"大林路","SECT":" ","MAREA":" ","LANE":"３５巷","ALLEY":" ","HOUSE_NO":"３號","E_COORD97":169323.92000000001,"N_COORD97":2541802.73,"ADDRESS":"大林路３５巷３號","OBJECTID":230349},"geometry":{"x":169323.91999999993,"y":2541802.7300000042}},{"attributes":{"ID":230354,"DIS_CODE":0,"TOWNNAME":"南區","LI":"大林里","LIN":"2鄰","STREET":"大林路","SECT":" ","MAREA":" ","LANE":"３５巷","ALLEY":" ","HOUSE_NO":"５號","E_COORD97":169325,"N_COORD97":2541798.1600000001,"ADDRESS":"大林路３５巷５號","OBJECTID":230350},"geometry":{"x":169325,"y":2541798.1600000001}},{"attributes":{"ID":230355,"DIS_CODE":0,"TOWNNAME":"南區","LI":"大林里","LIN":"2鄰","STREET":"大林路","SECT":" ","MAREA":" ","LANE":"３５巷","ALLEY":" ","HOUSE_NO":"７號","E_COORD97":169326.66,"N_COORD97":2541794.0499999998,"ADDRESS":"大林路３５巷７號","OBJECTID":230351},"geometry":{"x":169326.66000000108,"y":2541794.0500000045}},{"attributes":{"ID":230356,"DIS_CODE":0,"TOWNNAME":"南區","LI":"大林里","LIN":"2鄰","STREET":"大林路","SECT":" ","MAREA":" ","LANE":"３５巷","ALLEY":" ","HOUSE_NO":"９號","E_COORD97":169327.82999999999,"N_COORD97":2541788.98,"ADDRESS":"大林路３５巷９號","OBJECTID":230352},"geometry":{"x":169327.83000000007,"y":2541788.9800000004}},{"attributes":{"ID":230357,"DIS_CODE":0,"TOWNNAME":"北區","LI":"文元里","LIN":"2鄰","STREET":"中華北路","SECT":"二段","MAREA":" ","LANE":"８０巷","ALLEY":" ","HOUSE_NO":"１３號","E_COORD97":167710.48000000001,"N_COORD97":2546619.5600000001,"ADDRESS":"中華北路二段８０巷１３號","OBJECTID":230353},"geometry":{"x":167710.48000000231,"y":2546619.5600000024}},{"attributes":{"ID":230358,"DIS_CODE":0,"TOWNNAME":"北區","LI":"文元里","LIN":"2鄰","STREET":"中華北路","SECT":"二段","MAREA":" ","LANE":"８５巷","ALLEY":" ","HOUSE_NO":"５號","E_COORD97":167750.26000000001,"N_COORD97":2546614.4199999999,"ADDRESS":"中華北路二段８５巷５號","OBJECTID":230354},"geometry":{"x":167750.26000000164,"y":2546614.4199999999}},{"attributes":{"ID":230359,"DIS_CODE":0,"TOWNNAME":"北區","LI":"文元里","LIN":"2鄰","STREET":"中華北路","SECT":"二段","MAREA":" ","LANE":"８５巷","ALLEY":" ","HOUSE_NO":"６號","E_COORD97":167726.25,"N_COORD97":2546649.1699999999,"ADDRESS":"中華北路二段８５巷６號","OBJECTID":230355},"geometry":{"x":167726.25,"y":2546649.1699999999}},{"attributes":{"ID":230360,"DIS_CODE":0,"TOWNNAME":"永康區","LI":"\u25A0行里","LIN":"47鄰","STREET":"新中街","SECT":" ","MAREA":" ","LANE":" ","ALLEY":" ","HOUSE_NO":"２５１號","E_COORD97":172420.04999999999,"N_COORD97":2548797.5600000001,"ADDRESS":"新中街２５１號","OBJECTID":230356},"geometry":{"x":172420.04999999981,"y":2548797.5600000005}},{"attributes":{"ID":230361,"DIS_CODE":0,"TOWNNAME":"永康區","LI":"\u25A0行里","LIN":"47鄰","STREET":"新中街","SECT":" ","MAREA":" ","LANE":" ","ALLEY":" ","HOUSE_NO":"２５３號","E_COORD97":172418.26999999999,"N_COORD97":2548805.2799999998,"ADDRESS":"新中街２５３號","OBJECTID":230357},"geometry":{"x":172418.26999999955,"y":2548805.2799999975}},{"attributes":{"ID":230362,"DIS_CODE":0,"TOWNNAME":"永康區","LI":"\u25A0行里","LIN":"47鄰","STREET":"新中街","SECT":" ","MAREA":" ","LANE":" ","ALLEY":" ","HOUSE_NO":"２５５號","E_COORD97":172423.98000000001,"N_COORD97":2548808.3300000001,"ADDRESS":"新中街２５５號","OBJECTID":230358},"geometry":{"x":172423.98000000045,"y":2548808.3300000001}},{"attributes":{"ID":230363,"DIS_CODE":0,"TOWNNAME":"永康區","LI":"\u25A0行里","LIN":"47鄰","STREET":"新中街","SECT":" ","MAREA":" ","LANE":" ","ALLEY":" ","HOUSE_NO":"２５７號","E_COORD97":172426.13,"N_COORD97":2548813.02,"ADDRESS":"新中街２５７號","OBJECTID":230359},"geometry":{"x":172426.12999999989,"y":2548813.0199999996}},{"attributes":{"ID":230364,"DIS_CODE":0,"TOWNNAME":"永康區","LI":"\u25A0行里","LIN":"47鄰","STREET":"新中街","SECT":" ","MAREA":" ","LANE":" ","ALLEY":" ","HOUSE_NO":"２５９號","E_COORD97":172434.73000000001,"N_COORD97":2548815.2000000002,"ADDRESS":"新中街２５９號","OBJECTID":230360},"geometry":{"x":172434.73000000045,"y":2548815.1999999993}},{"attributes":{"ID":230365,"DIS_CODE":0,"TOWNNAME":"永康區","LI":"崑山里","LIN":"47鄰","STREET":"國光六街","SECT":" ","MAREA":" ","LANE":" ","ALLEY":" ","HOUSE_NO":"１７號","E_COORD97":174250.39000000001,"N_COORD97":2545249.3900000001,"ADDRESS":"國光六街１７號","OBJECTID":230361},"geometry":{"x":174250.39000000153,"y":2545249.3899999987}},{"attributes":{"ID":230366,"DIS_CODE":0,"TOWNNAME":"歸仁區","LI":"後市里","LIN":"47鄰","STREET":"文化街","SECT":"二段","MAREA":" ","LANE":" ","ALLEY":" ","HOUSE_NO":"１０９號","E_COORD97":177214.44,"N_COORD97":2541182.7599999998,"ADDRESS":"文化街二段１０９號","OBJECTID":230362},"geometry":{"x":177214.44000000134,"y":2541182.7600000016}},{"attributes":{"ID":230367,"DIS_CODE":0,"TOWNNAME":"歸仁區","LI":"後市里","LIN":"47鄰","STREET":"文化街","SECT":"二段","MAREA":" ","LANE":" ","ALLEY":" ","HOUSE_NO":"１１９號","E_COORD97":177196.04000000001,"N_COORD97":2541187.7599999998,"ADDRESS":"文化街二段１１９號","OBJECTID":230363},"geometry":{"x":177196.04000000097,"y":2541187.7600000035}},{"attributes":{"ID":230368,"DIS_CODE":0,"TOWNNAME":"永康區","LI":"網寮里","LIN":"17鄰","STREET":"永興路","SECT":" ","MAREA":" ","LANE":"４２７巷","ALLEY":" ","HOUSE_NO":"１０號","E_COORD97":173273.48999999999,"N_COORD97":2546848.5899999999,"ADDRESS":"永興路４２７巷１０號","OBJECTID":230364},"geometry":{"x":173273.49000000022,"y":2546848.5900000017}},{"attributes":{"ID":230369,"DIS_CODE":0,"TOWNNAME":"安南區","LI":"海佃里","LIN":"23鄰","STREET":"國安街","SECT":" ","MAREA":" ","LANE":"１５６巷","ALLEY":" ","HOUSE_NO":"１００號","E_COORD97":166704.42999999999,"N_COORD97":2547246.96,"ADDRESS":"國安街１５６巷１００號","OBJECTID":230365},"geometry":{"x":166704.4299999997,"y":2547246.9600000028}},{"attributes":{"ID":230370,"DIS_CODE":0,"TOWNNAME":"永康區","LI":"網寮里","LIN":"5鄰","STREET":"永二街","SECT":" ","MAREA":" ","LANE":"１４５巷","ALLEY":" ","HOUSE_NO":"１５號","E_COORD97":173575.09,"N_COORD97":2546415.23,"ADDRESS":"永二街１４５巷１５號","OBJECTID":230366},"geometry":{"x":173575.09000000078,"y":2546415.2300000004}},{"attributes":{"ID":230371,"DIS_CODE":0,"TOWNNAME":"永康區","LI":"新樹里","LIN":"8鄰","STREET":"富強路","SECT":"二段","MAREA":" ","LANE":"５６巷","ALLEY":" ","HOUSE_NO":"２３號","E_COORD97":175780.14999999999,"N_COORD97":2546948.3500000001,"ADDRESS":"富強路二段５６巷２３號","OBJECTID":230367},"geometry":{"x":175780.1500000013,"y":2546948.3500000015}},{"attributes":{"ID":230372,"DIS_CODE":0,"TOWNNAME":"北區","LI":"文元里","LIN":"2鄰","STREET":"中華北路","SECT":"二段","MAREA":" ","LANE":"８５巷","ALLEY":" ","HOUSE_NO":"７號","E_COORD97":167745.85999999999,"N_COORD97":2546616.1699999999,"ADDRESS":"中華北路二段８５巷７號","OBJECTID":230368},"geometry":{"x":167745.86000000127,"y":2546616.1699999999}},{"attributes":{"ID":230373,"DIS_CODE":0,"TOWNNAME":"北區","LI":"文元里","LIN":"2鄰","STREET":"中華北路","SECT":"二段","MAREA":" ","LANE":"８５巷","ALLEY":" ","HOUSE_NO":"８號","E_COORD97":167726.87,"N_COORD97":2546645.7599999998,"ADDRESS":"中華北路二段８５巷８號","OBJECTID":230369},"geometry":{"x":167726.87000000104,"y":2546645.7599999998}},{"attributes":{"ID":230374,"DIS_CODE":0,"TOWNNAME":"北區","LI":"文元里","LIN":"2鄰","STREET":"中華北路","SECT":"二段","MAREA":" ","LANE":"８５巷","ALLEY":" ","HOUSE_NO":"９號","E_COORD97":167751.44,"N_COORD97":2546604.4500000002,"ADDRESS":"中華北路二段８５巷９號","OBJECTID":230370},"geometry":{"x":167751.44000000227,"y":2546604.4500000011}},{"attributes":{"ID":230375,"DIS_CODE":0,"TOWNNAME":"北區","LI":"文元里","LIN":"2鄰","STREET":"中華北路","SECT":"二段","MAREA":" ","LANE":"８５巷","ALLEY":" ","HOUSE_NO":"２０號","E_COORD97":167730.91,"N_COORD97":2546621.2400000002,"ADDRESS":"中華北路二段８５巷２０號","OBJECTID":230371},"geometry":{"x":167730.91000000201,"y":2546621.2400000021}},{"attributes":{"ID":230376,"DIS_CODE":0,"TOWNNAME":"北區","LI":"振興里","LIN":"2鄰","STREET":"勝利路","SECT":" ","MAREA":" ","LANE":"２７６巷","ALLEY":" ","HOUSE_NO":"４號","E_COORD97":169949.29000000001,"N_COORD97":2545142.1600000001,"ADDRESS":"勝利路２７６巷４號","OBJECTID":230372},"geometry":{"x":169949.29000000097,"y":2545142.1600000039}},{"attributes":{"ID":230377,"DIS_CODE":0,"TOWNNAME":"北區","LI":"振興里","LIN":"2鄰","STREET":"勝利路","SECT":" ","MAREA":" ","LANE":"２７６巷","ALLEY":" ","HOUSE_NO":"４號之１","E_COORD97":169954.48999999999,"N_COORD97":2545143.0299999998,"ADDRESS":"勝利路２７６巷４號之１","OBJECTID":230373},"geometry":{"x":169954.48999999929,"y":2545143.0300000012}},{"attributes":{"ID":230378,"DIS_CODE":0,"TOWNNAME":"北區","LI":"重興里","LIN":"2鄰","STREET":"東豐路","SECT":" ","MAREA":" ","LANE":"３０５巷","ALLEY":" ","HOUSE_NO":"３８號","E_COORD97":170442.41,"N_COORD97":2544901.77,"ADDRESS":"東豐路３０５巷３８號","OBJECTID":230374},"geometry":{"x":170442.41000000015,"y":2544901.7699999996}},{"attributes":{"ID":230379,"DIS_CODE":0,"TOWNNAME":"北區","LI":"重興里","LIN":"2鄰","STREET":"東豐路","SECT":" ","MAREA":" ","LANE":"３０５巷","ALLEY":" ","HOUSE_NO":"４０號","E_COORD97":170442.32000000001,"N_COORD97":2544906.8799999999,"ADDRESS":"東豐路３０５巷４０號","OBJECTID":230375},"geometry":{"x":170442.32000000216,"y":2544906.8800000008}},{"attributes":{"ID":230380,"DIS_CODE":0,"TOWNNAME":"北區","LI":"重興里","LIN":"2鄰","STREET":"東豐路","SECT":" ","MAREA":" ","LANE":"３０５巷","ALLEY":" ","HOUSE_NO":"７６號","E_COORD97":170454.76000000001,"N_COORD97":2544990.1800000002,"ADDRESS":"東豐路３０５巷７６號","OBJECTID":230376},"geometry":{"x":170454.76000000071,"y":2544990.1800000016}},{"attributes":{"ID":230381,"DIS_CODE":0,"TOWNNAME":"北區","LI":"安民里","LIN":"2鄰","STREET":"海安路","SECT":"三段","MAREA":" ","LANE":"３２巷","ALLEY":" ","HOUSE_NO":"１２號","E_COORD97":167996.51999999999,"N_COORD97":2544673.9199999999,"ADDRESS":"海安路三段３２巷１２號","OBJECTID":230377},"geometry":{"x":167996.52000000048,"y":2544673.9200000018}},{"attributes":{"ID":230382,"DIS_CODE":0,"TOWNNAME":"北區","LI":"安民里","LIN":"2鄰","STREET":"海安路","SECT":"三段","MAREA":" ","LANE":"３２巷","ALLEY":" ","HOUSE_NO":"１６號","E_COORD97":168004.98999999999,"N_COORD97":2544673.3399999999,"ADDRESS":"海安路三段３２巷１６號","OBJECTID":230378},"geometry":{"x":168004.98999999929,"y":2544673.3400000017}},{"attributes":{"ID":230383,"DIS_CODE":0,"TOWNNAME":"北區","LI":"安民里","LIN":"2鄰","STREET":"海安路","SECT":"三段","MAREA":" ","LANE":"３２巷","ALLEY":" ","HOUSE_NO":"１８號","E_COORD97":168009.95999999999,"N_COORD97":2544672.75,"ADDRESS":"海安路三段３２巷１８號","OBJECTID":230379},"geometry":{"x":168009.95999999996,"y":2544672.75}},{"attributes":{"ID":230384,"DIS_CODE":0,"TOWNNAME":"北區","LI":"安民里","LIN":"2鄰","STREET":"海安路","SECT":"三段","MAREA":" ","LANE":"３２巷","ALLEY":" ","HOUSE_NO":"２號","E_COORD97":167978.39999999999,"N_COORD97":2544671.8799999999,"ADDRESS":"海安路三段３２巷２號","OBJECTID":230380},"geometry":{"x":167978.40000000037,"y":2544671.8800000008}},{"attributes":{"ID":230385,"DIS_CODE":0,"TOWNNAME":"東區","LI":"自強里","LIN":"23鄰","STREET":"富農街","SECT":"一段","MAREA":" ","LANE":"１９１巷","ALLEY":" ","HOUSE_NO":"１０號","E_COORD97":171509.19,"N_COORD97":2542594.8399999999,"ADDRESS":"富農街一段１９１巷１０號","OBJECTID":230381},"geometry":{"x":171509.19000000041,"y":2542594.8400000017}},{"attributes":{"ID":230386,"DIS_CODE":0,"TOWNNAME":"東區","LI":"自強里","LIN":"23鄰","STREET":"富農街","SECT":"一段","MAREA":" ","LANE":"１９１巷","ALLEY":" ","HOUSE_NO":"１０號地下層","E_COORD97":171509.19,"N_COORD97":2542594.8399999999,"ADDRESS":"富農街一段１９１巷１０號地下層","OBJECTID":230382},"geometry":{"x":171509.19000000041,"y":2542594.8400000017}},{"attributes":{"ID":230387,"DIS_CODE":0,"TOWNNAME":"東區","LI":"關聖里","LIN":"2鄰","STREET":"裕農路","SECT":" ","MAREA":" ","LANE":"６６８巷","ALLEY":" ","HOUSE_NO":"５２號二樓","E_COORD97":171739.45999999999,"N_COORD97":2542962.5899999999,"ADDRESS":"裕農路６６８巷５２號二樓","OBJECTID":230383},"geometry":{"x":171739.45999999903,"y":2542962.5900000017}},{"attributes":{"ID":230388,"DIS_CODE":0,"TOWNNAME":"東區","LI":"關聖里","LIN":"2鄰","STREET":"裕農路","SECT":" ","MAREA":" ","LANE":"６６８巷","ALLEY":" ","HOUSE_NO":"５２號二樓之１","E_COORD97":171739.45999999999,"N_COORD97":2542962.5899999999,"ADDRESS":"裕農路６６８巷５２號二樓之１","OBJECTID":230384},"geometry":{"x":171739.45999999903,"y":2542962.5900000017}},{"attributes":{"ID":230389,"DIS_CODE":0,"TOWNNAME":"東區","LI":"自強里","LIN":"9鄰","STREET":"中華東路","SECT":"二段","MAREA":" ","LANE":"２９５巷","ALLEY":" ","HOUSE_NO":"１２號","E_COORD97":171172.19,"N_COORD97":2542515.4199999999,"ADDRESS":"中華東路二段２９５巷１２號","OBJECTID":230385},"geometry":{"x":171172.19000000227,"y":2542515.4199999999}},{"attributes":{"ID":230390,"DIS_CODE":0,"TOWNNAME":"東區","LI":"自強里","LIN":"9鄰","STREET":"中華東路","SECT":"二段","MAREA":" ","LANE":"２９５巷","ALLEY":" ","HOUSE_NO":"２號","E_COORD97":171148.97,"N_COORD97":2542535.25,"ADDRESS":"中華東路二段２９５巷２號","OBJECTID":230386},"geometry":{"x":171148.96999999974,"y":2542535.2500000019}},{"attributes":{"ID":230391,"DIS_CODE":0,"TOWNNAME":"東區","LI":"自強里","LIN":"26鄰","STREET":"中華東路","SECT":"二段","MAREA":" ","LANE":"２０３巷","ALLEY":" ","HOUSE_NO":"１３號","E_COORD97":171307.89000000001,"N_COORD97":2542673.6299999999,"ADDRESS":"中華東路二段２０３巷１３號","OBJECTID":230387},"geometry":{"x":171307.8900000006,"y":2542673.6300000008}},{"attributes":{"ID":230392,"DIS_CODE":0,"TOWNNAME":"歸仁區","LI":"後市里","LIN":"47鄰","STREET":"文化街","SECT":"二段","MAREA":" ","LANE":" ","ALLEY":" ","HOUSE_NO":"１３１號","E_COORD97":177174.54000000001,"N_COORD97":2541196.7599999998,"ADDRESS":"文化街二段１３１號","OBJECTID":230388},"geometry":{"x":177174.54000000097,"y":2541196.7599999998}},{"attributes":{"ID":230393,"DIS_CODE":0,"TOWNNAME":"歸仁區","LI":"後市里","LIN":"47鄰","STREET":"文化街","SECT":"二段","MAREA":" ","LANE":" ","ALLEY":" ","HOUSE_NO":"１３５號","E_COORD97":177165.23999999999,"N_COORD97":2541197.7599999998,"ADDRESS":"文化街二段１３５號","OBJECTID":230389},"geometry":{"x":177165.24000000022,"y":2541197.7599999998}},{"attributes":{"ID":230394,"DIS_CODE":0,"TOWNNAME":"歸仁區","LI":"南保里","LIN":"47鄰","STREET":"大順街","SECT":" ","MAREA":" ","LANE":" ","ALLEY":" ","HOUSE_NO":"２５２號","E_COORD97":176736.67000000001,"N_COORD97":2540616.25,"ADDRESS":"大順街２５２號","OBJECTID":230390},"geometry":{"x":176736.66999999993,"y":2540616.2500000019}},{"attributes":{"ID":230395,"DIS_CODE":0,"TOWNNAME":"永康區","LI":"崑山里","LIN":"47鄰","STREET":"國光五街","SECT":" ","MAREA":" ","LANE":" ","ALLEY":" ","HOUSE_NO":"２號七樓之１","E_COORD97":174237.23999999999,"N_COORD97":2545059.54,"ADDRESS":"國光五街２號七樓之１","OBJECTID":230391},"geometry":{"x":174237.24000000115,"y":2545059.5399999991}},{"attributes":{"ID":230396,"DIS_CODE":0,"TOWNNAME":"安南區","LI":"海佃里","LIN":"23鄰","STREET":"國安街","SECT":" ","MAREA":" ","LANE":"１５６巷","ALLEY":" ","HOUSE_NO":"１０４號","E_COORD97":166698.45000000001,"N_COORD97":2547256.9199999999,"ADDRESS":"國安街１５６巷１０４號","OBJECTID":230392},"geometry":{"x":166698.45000000205,"y":2547256.9200000018}},{"attributes":{"ID":230397,"DIS_CODE":0,"TOWNNAME":"安南區","LI":"海佃里","LIN":"23鄰","STREET":"國安街","SECT":" ","MAREA":" ","LANE":"１５６巷","ALLEY":" ","HOUSE_NO":"１１０號","E_COORD97":166696.85000000001,"N_COORD97":2547269.6299999999,"ADDRESS":"國安街１５６巷１１０號","OBJECTID":230393},"geometry":{"x":166696.85000000149,"y":2547269.629999999}},{"attributes":{"ID":230398,"DIS_CODE":0,"TOWNNAME":"安南區","LI":"海佃里","LIN":"23鄰","STREET":"國安街","SECT":" ","MAREA":" ","LANE":"１５６巷","ALLEY":" ","HOUSE_NO":"１１２號","E_COORD97":166696.75,"N_COORD97":2547274.0299999998,"ADDRESS":"國安街１５６巷１１２號","OBJECTID":230394},"geometry":{"x":166696.75000000093,"y":2547274.0299999993}},{"attributes":{"ID":230399,"DIS_CODE":0,"TOWNNAME":"安南區","LI":"海佃里","LIN":"23鄰","STREET":"國安街","SECT":" ","MAREA":" ","LANE":"１５６巷","ALLEY":" ","HOUSE_NO":"１１４號","E_COORD97":166696.75,"N_COORD97":2547278.1299999999,"ADDRESS":"國安街１５６巷１１４號","OBJECTID":230395},"geometry":{"x":166696.75000000093,"y":2547278.1300000008}},{"attributes":{"ID":230400,"DIS_CODE":0,"TOWNNAME":"安南區","LI":"海佃里","LIN":"23鄰","STREET":"國安街","SECT":" ","MAREA":" ","LANE":"１５６巷","ALLEY":" ","HOUSE_NO":"１１６號","E_COORD97":166696.13,"N_COORD97":2547281.6099999999,"ADDRESS":"國安街１５６巷１１６號","OBJECTID":230396},"geometry":{"x":166696.12999999989,"y":2547281.6100000013}},{"attributes":{"ID":230401,"DIS_CODE":0,"TOWNNAME":"安南區","LI":"海佃里","LIN":"23鄰","STREET":"國安街","SECT":" ","MAREA":" ","LANE":"１５６巷","ALLEY":" ","HOUSE_NO":"１１８號","E_COORD97":166695.62,"N_COORD97":2547285.3999999999,"ADDRESS":"國安街１５６巷１１８號","OBJECTID":230397},"geometry":{"x":166695.62000000104,"y":2547285.4000000004}},{"attributes":{"ID":230402,"DIS_CODE":0,"TOWNNAME":"永康區","LI":"復興里","LIN":"4鄰","STREET":"復興路","SECT":" ","MAREA":" ","LANE":"４２３巷","ALLEY":" ","HOUSE_NO":"８７號","E_COORD97":172218.20999999999,"N_COORD97":2544212.3199999998,"ADDRESS":"復興路４２３巷８７號","OBJECTID":230398},"geometry":{"x":172218.21000000089,"y":2544212.320000004}},{"attributes":{"ID":230403,"DIS_CODE":0,"TOWNNAME":"永康區","LI":"龍潭里","LIN":"42鄰","STREET":"永平街","SECT":" ","MAREA":" ","LANE":"７５９巷","ALLEY":" ","HOUSE_NO":"６號","E_COORD97":174612.59,"N_COORD97":2547060.2000000002,"ADDRESS":"永平街７５９巷６號","OBJECTID":230399},"geometry":{"x":174612.59000000078,"y":2547060.2000000011}},{"attributes":{"ID":230404,"DIS_CODE":0,"TOWNNAME":"永康區","LI":"復華里","LIN":"40鄰","STREET":"復華六街","SECT":" ","MAREA":" ","LANE":"８８巷","ALLEY":" ","HOUSE_NO":"１２號","E_COORD97":172661.34,"N_COORD97":2545889.4700000002,"ADDRESS":"復華六街８８巷１２號","OBJECTID":230400},"geometry":{"x":172661.34000000078,"y":2545889.4700000007}}]}