{"displayFieldName":"TOWNNAME","fieldAliases":{"ID":"ID","DIS_CODE":"DIS_CODE","TOWNNAME":"TOWNNAME","LI":"LI","LIN":"LIN","STREET":"STREET","SECT":"SECT","MAREA":"MAREA","LANE":"LANE","ALLEY":"ALLEY","HOUSE_NO":"HOUSE_NO","E_COORD97":"E_COORD97","N_COORD97":"N_COORD97","ADDRESS":"ADDRESS","OBJECTID":"OBJECTID"},"geometryType":"esriGeometryPoint","spatialReference":{"wkid":102443,"latestWkid":3826},"fields":[{"name":"ID","type":"esriFieldTypeDouble","alias":"ID"},{"name":"DIS_CODE","type":"esriFieldTypeInteger","alias":"DIS_CODE"},{"name":"TOWNNAME","type":"esriFieldTypeString","alias":"TOWNNAME","length":8},{"name":"LI","type":"esriFieldTypeString","alias":"LI","length":8},{"name":"LIN","type":"esriFieldTypeString","alias":"LIN","length":12},{"name":"STREET","type":"esriFieldTypeString","alias":"STREET","length":20},{"name":"SECT","type":"esriFieldTypeString","alias":"SECT","length":8},{"name":"MAREA","type":"esriFieldTypeString","alias":"MAREA","length":12},{"name":"LANE","type":"esriFieldTypeString","alias":"LANE","length":10},{"name":"ALLEY","type":"esriFieldTypeString","alias":"ALLEY","length":10},{"name":"HOUSE_NO","type":"esriFieldTypeString","alias":"HOUSE_NO","length":20},{"name":"E_COORD97","type":"esriFieldTypeDouble","alias":"E_COORD97"},{"name":"N_COORD97","type":"esriFieldTypeDouble","alias":"N_COORD97"},{"name":"ADDRESS","type":"esriFieldTypeString","alias":"ADDRESS","length":50},{"name":"OBJECTID","type":"esriFieldTypeOID","alias":"OBJECTID"}],"features":[{"attributes":{"ID":93201,"DIS_CODE":0,"TOWNNAME":"下營區","LI":"甲中里","LIN":"10鄰","STREET":" ","SECT":" ","MAREA":"十六甲","LANE":" ","ALLEY":" ","HOUSE_NO":"４號之１","E_COORD97":175627.85999999999,"N_COORD97":2572238.3700000001,"ADDRESS":"十六甲４號之１","OBJECTID":93201},"geometry":{"x":175627.86000000127,"y":2572238.3700000029}},{"attributes":{"ID":93202,"DIS_CODE":0,"TOWNNAME":"北區","LI":"玉皇里","LIN":"15鄰","STREET":"成功路","SECT":" ","MAREA":" ","LANE":" ","ALLEY":" ","HOUSE_NO":"１００號","E_COORD97":168585.59,"N_COORD97":2544325.25,"ADDRESS":"成功路１００號","OBJECTID":93202},"geometry":{"x":168585.59000000171,"y":2544325.2500000019}},{"attributes":{"ID":93203,"DIS_CODE":0,"TOWNNAME":"北區","LI":"玉皇里","LIN":"15鄰","STREET":"成功路","SECT":" ","MAREA":" ","LANE":" ","ALLEY":" ","HOUSE_NO":"１０２號","E_COORD97":168581.94,"N_COORD97":2544326.46,"ADDRESS":"成功路１０２號","OBJECTID":93203},"geometry":{"x":168581.94000000227,"y":2544326.4600000009}},{"attributes":{"ID":93204,"DIS_CODE":0,"TOWNNAME":"北區","LI":"玉皇里","LIN":"15鄰","STREET":"成功路","SECT":" ","MAREA":" ","LANE":" ","ALLEY":" ","HOUSE_NO":"１０４號","E_COORD97":168576.14999999999,"N_COORD97":2544327.7400000002,"ADDRESS":"成功路１０４號","OBJECTID":93204},"geometry":{"x":168576.1500000013,"y":2544327.7399999984}},{"attributes":{"ID":93205,"DIS_CODE":0,"TOWNNAME":"新化區","LI":"東榮里","LIN":"32鄰","STREET":"信義路","SECT":" ","MAREA":" ","LANE":" ","ALLEY":" ","HOUSE_NO":"２２６號","E_COORD97":179128.92999999999,"N_COORD97":2548336.25,"ADDRESS":"信義路２２６號","OBJECTID":93205},"geometry":{"x":179128.93000000063,"y":2548336.2500000019}},{"attributes":{"ID":93206,"DIS_CODE":0,"TOWNNAME":"新化區","LI":"東榮里","LIN":"24鄰","STREET":"中正路","SECT":" ","MAREA":" ","LANE":" ","ALLEY":" ","HOUSE_NO":"２５６號","E_COORD97":179179.01000000001,"N_COORD97":2547785.25,"ADDRESS":"中正路２５６號","OBJECTID":93206},"geometry":{"x":179179.00999999978,"y":2547785.25}},{"attributes":{"ID":93207,"DIS_CODE":0,"TOWNNAME":"新化區","LI":"太平里","LIN":"4鄰","STREET":"民生路","SECT":" ","MAREA":" ","LANE":" ","ALLEY":" ","HOUSE_NO":"２０６號","E_COORD97":179094.10999999999,"N_COORD97":2548955.25,"ADDRESS":"民生路２０６號","OBJECTID":93207},"geometry":{"x":179094.11000000034,"y":2548955.25}},{"attributes":{"ID":93208,"DIS_CODE":0,"TOWNNAME":"新化區","LI":"東榮里","LIN":"26鄰","STREET":"中正路","SECT":" ","MAREA":" ","LANE":" ","ALLEY":" ","HOUSE_NO":"３３０號","E_COORD97":179150.01000000001,"N_COORD97":2548111.25,"ADDRESS":"中正路３３０號","OBJECTID":93208},"geometry":{"x":179150.00999999978,"y":2548111.2500000037}},{"attributes":{"ID":93209,"DIS_CODE":0,"TOWNNAME":"新化區","LI":"東榮里","LIN":"32鄰","STREET":"中正路","SECT":" ","MAREA":" ","LANE":" ","ALLEY":" ","HOUSE_NO":"３６４號","E_COORD97":179109.41,"N_COORD97":2548349.25,"ADDRESS":"中正路３６４號","OBJECTID":93209},"geometry":{"x":179109.41000000108,"y":2548349.2500000019}},{"attributes":{"ID":93210,"DIS_CODE":0,"TOWNNAME":"新化區","LI":"東榮里","LIN":"32鄰","STREET":"中正路","SECT":" ","MAREA":" ","LANE":" ","ALLEY":" ","HOUSE_NO":"３６０號","E_COORD97":179111.60999999999,"N_COORD97":2548341.25,"ADDRESS":"中正路３６０號","OBJECTID":93210},"geometry":{"x":179111.61000000127,"y":2548341.25}},{"attributes":{"ID":93211,"DIS_CODE":0,"TOWNNAME":"永康區","LI":"\u25A0行里","LIN":"10鄰","STREET":"中正路","SECT":" ","MAREA":" ","LANE":"４９５巷","ALLEY":"２弄","HOUSE_NO":"１８號","E_COORD97":172194.19,"N_COORD97":2548639.48,"ADDRESS":"中正路４９５巷２弄１８號","OBJECTID":93211},"geometry":{"x":172194.19000000041,"y":2548639.4800000023}},{"attributes":{"ID":93212,"DIS_CODE":0,"TOWNNAME":"東區","LI":"富裕里","LIN":"10鄰","STREET":"東門路","SECT":"二段","MAREA":" ","LANE":"３０１巷","ALLEY":"４３弄","HOUSE_NO":"１０號","E_COORD97":170814.57999999999,"N_COORD97":2542762.54,"ADDRESS":"東門路二段３０１巷４３弄１０號","OBJECTID":93212},"geometry":{"x":170814.58000000007,"y":2542762.540000001}},{"attributes":{"ID":93213,"DIS_CODE":0,"TOWNNAME":"東區","LI":"富裕里","LIN":"10鄰","STREET":"東門路","SECT":"二段","MAREA":" ","LANE":"３０１巷","ALLEY":"４３弄","HOUSE_NO":"１１號","E_COORD97":170813.97,"N_COORD97":2542766.71,"ADDRESS":"東門路二段３０１巷４３弄１１號","OBJECTID":93213},"geometry":{"x":170813.97000000067,"y":2542766.7100000028}},{"attributes":{"ID":93214,"DIS_CODE":0,"TOWNNAME":"東區","LI":"富裕里","LIN":"10鄰","STREET":"東門路","SECT":"二段","MAREA":" ","LANE":"３０１巷","ALLEY":"４３弄","HOUSE_NO":"１３號","E_COORD97":170811.62,"N_COORD97":2542776.1699999999,"ADDRESS":"東門路二段３０１巷４３弄１３號","OBJECTID":93214},"geometry":{"x":170811.62000000104,"y":2542776.1700000018}},{"attributes":{"ID":93215,"DIS_CODE":0,"TOWNNAME":"東區","LI":"富裕里","LIN":"10鄰","STREET":"東門路","SECT":"二段","MAREA":" ","LANE":"３０１巷","ALLEY":"４３弄","HOUSE_NO":"１４號","E_COORD97":170811.04999999999,"N_COORD97":2542780.73,"ADDRESS":"東門路二段３０１巷４３弄１４號","OBJECTID":93215},"geometry":{"x":170811.04999999981,"y":2542780.7300000004}},{"attributes":{"ID":93216,"DIS_CODE":0,"TOWNNAME":"東區","LI":"富裕里","LIN":"10鄰","STREET":"東門路","SECT":"二段","MAREA":" ","LANE":"３０１巷","ALLEY":"４３弄","HOUSE_NO":"１５號","E_COORD97":170810.42999999999,"N_COORD97":2542785.5099999998,"ADDRESS":"東門路二段３０１巷４３弄１５號","OBJECTID":93216},"geometry":{"x":170810.43000000156,"y":2542785.5099999998}},{"attributes":{"ID":93217,"DIS_CODE":0,"TOWNNAME":"東區","LI":"富裕里","LIN":"10鄰","STREET":"東門路","SECT":"二段","MAREA":" ","LANE":"３０１巷","ALLEY":"４３弄","HOUSE_NO":"１６號","E_COORD97":170809.78,"N_COORD97":2542789.8799999999,"ADDRESS":"東門路二段３０１巷４３弄１６號","OBJECTID":93217},"geometry":{"x":170809.78000000026,"y":2542789.8800000027}},{"attributes":{"ID":93218,"DIS_CODE":0,"TOWNNAME":"東區","LI":"富裕里","LIN":"10鄰","STREET":"東門路","SECT":"二段","MAREA":" ","LANE":"３０１巷","ALLEY":"４３弄","HOUSE_NO":"１７號","E_COORD97":170809.85000000001,"N_COORD97":2542800.6800000002,"ADDRESS":"東門路二段３０１巷４３弄１７號","OBJECTID":93218},"geometry":{"x":170809.85000000056,"y":2542800.6799999997}},{"attributes":{"ID":93219,"DIS_CODE":0,"TOWNNAME":"東區","LI":"富裕里","LIN":"10鄰","STREET":"東門路","SECT":"二段","MAREA":" ","LANE":"３０１巷","ALLEY":"４３弄","HOUSE_NO":"１９號","E_COORD97":170808.97,"N_COORD97":2542810.6800000002,"ADDRESS":"東門路二段３０１巷４３弄１９號","OBJECTID":93219},"geometry":{"x":170808.97000000067,"y":2542810.6799999997}},{"attributes":{"ID":93220,"DIS_CODE":0,"TOWNNAME":"東區","LI":"富裕里","LIN":"10鄰","STREET":"東門路","SECT":"二段","MAREA":" ","LANE":"３０１巷","ALLEY":"４３弄","HOUSE_NO":"１號","E_COORD97":170818.81,"N_COORD97":2542716.5499999998,"ADDRESS":"東門路二段３０１巷４３弄１號","OBJECTID":93220},"geometry":{"x":170818.81000000052,"y":2542716.5500000026}},{"attributes":{"ID":93221,"DIS_CODE":0,"TOWNNAME":"新化區","LI":"唪口里","LIN":"4鄰","STREET":"大德路","SECT":" ","MAREA":" ","LANE":" ","ALLEY":" ","HOUSE_NO":"９０號之６","E_COORD97":178137.82999999999,"N_COORD97":2549500.2599999998,"ADDRESS":"大德路９０號之６","OBJECTID":93221},"geometry":{"x":178137.83000000007,"y":2549500.2599999998}},{"attributes":{"ID":93222,"DIS_CODE":0,"TOWNNAME":"新化區","LI":"東榮里","LIN":"25鄰","STREET":"中正路","SECT":" ","MAREA":" ","LANE":" ","ALLEY":" ","HOUSE_NO":"３０６號之５","E_COORD97":179225.57000000001,"N_COORD97":2547980.2599999998,"ADDRESS":"中正路３０６號之５","OBJECTID":93222},"geometry":{"x":179225.57000000123,"y":2547980.2600000016}},{"attributes":{"ID":93223,"DIS_CODE":0,"TOWNNAME":"新化區","LI":"東榮里","LIN":"25鄰","STREET":"中正路","SECT":" ","MAREA":" ","LANE":" ","ALLEY":" ","HOUSE_NO":"３１０號之４","E_COORD97":179197.44,"N_COORD97":2548003.2599999998,"ADDRESS":"中正路３１０號之４","OBJECTID":93223},"geometry":{"x":179197.44000000134,"y":2548003.2600000016}},{"attributes":{"ID":93224,"DIS_CODE":0,"TOWNNAME":"新化區","LI":"清水里","LIN":"4鄰","STREET":"中山路","SECT":" ","MAREA":" ","LANE":" ","ALLEY":" ","HOUSE_NO":"４４０號","E_COORD97":178715.60999999999,"N_COORD97":2548417.25,"ADDRESS":"中山路４４０號","OBJECTID":93224},"geometry":{"x":178715.61000000034,"y":2548417.2500000019}},{"attributes":{"ID":93225,"DIS_CODE":0,"TOWNNAME":"新化區","LI":"東榮里","LIN":"32鄰","STREET":"中正路","SECT":" ","MAREA":" ","LANE":" ","ALLEY":" ","HOUSE_NO":"３５６號","E_COORD97":179114.60999999999,"N_COORD97":2548333.25,"ADDRESS":"中正路３５６號","OBJECTID":93225},"geometry":{"x":179114.6100000022,"y":2548333.2500000019}},{"attributes":{"ID":93226,"DIS_CODE":0,"TOWNNAME":"新化區","LI":"東榮里","LIN":"32鄰","STREET":"中正路","SECT":" ","MAREA":" ","LANE":" ","ALLEY":" ","HOUSE_NO":"３７８號","E_COORD97":179101.81,"N_COORD97":2548375.25,"ADDRESS":"中正路３７８號","OBJECTID":93226},"geometry":{"x":179101.80999999959,"y":2548375.25}},{"attributes":{"ID":93227,"DIS_CODE":0,"TOWNNAME":"新化區","LI":"清水里","LIN":"4鄰","STREET":"中山路","SECT":" ","MAREA":" ","LANE":" ","ALLEY":" ","HOUSE_NO":"４２４號","E_COORD97":178750.01000000001,"N_COORD97":2548418.25,"ADDRESS":"中山路４２４號","OBJECTID":93227},"geometry":{"x":178750.00999999978,"y":2548418.25}},{"attributes":{"ID":93228,"DIS_CODE":0,"TOWNNAME":"新化區","LI":"東榮里","LIN":"20鄰","STREET":"復興路","SECT":" ","MAREA":" ","LANE":" ","ALLEY":" ","HOUSE_NO":"２７６號","E_COORD97":179351.01999999999,"N_COORD97":2548370.25,"ADDRESS":"復興路２７６號","OBJECTID":93228},"geometry":{"x":179351.01999999955,"y":2548370.2500000019}},{"attributes":{"ID":93229,"DIS_CODE":0,"TOWNNAME":"東區","LI":"富裕里","LIN":"10鄰","STREET":"東門路","SECT":"二段","MAREA":" ","LANE":"３０１巷","ALLEY":"４３弄","HOUSE_NO":"２０號","E_COORD97":170805.35999999999,"N_COORD97":2542824.0099999998,"ADDRESS":"東門路二段３０１巷４３弄２０號","OBJECTID":93229},"geometry":{"x":170805.36000000127,"y":2542824.0100000035}},{"attributes":{"ID":93230,"DIS_CODE":0,"TOWNNAME":"東區","LI":"富裕里","LIN":"10鄰","STREET":"東門路","SECT":"二段","MAREA":" ","LANE":"３０１巷","ALLEY":"４３弄","HOUSE_NO":"２號","E_COORD97":170817.97,"N_COORD97":2542723.5099999998,"ADDRESS":"東門路二段３０１巷４３弄２號","OBJECTID":93230},"geometry":{"x":170817.96999999974,"y":2542723.5100000016}},{"attributes":{"ID":93231,"DIS_CODE":0,"TOWNNAME":"東區","LI":"富裕里","LIN":"10鄰","STREET":"東門路","SECT":"二段","MAREA":" ","LANE":"３０１巷","ALLEY":"４３弄","HOUSE_NO":"３號","E_COORD97":170817.60999999999,"N_COORD97":2542730.1699999999,"ADDRESS":"東門路二段３０１巷４３弄３號","OBJECTID":93231},"geometry":{"x":170817.61000000034,"y":2542730.1699999999}},{"attributes":{"ID":93232,"DIS_CODE":0,"TOWNNAME":"東區","LI":"富裕里","LIN":"10鄰","STREET":"東門路","SECT":"二段","MAREA":" ","LANE":"３０１巷","ALLEY":"４３弄","HOUSE_NO":"５號","E_COORD97":170816.09,"N_COORD97":2542739.5699999998,"ADDRESS":"東門路二段３０１巷４３弄５號","OBJECTID":93232},"geometry":{"x":170816.08999999985,"y":2542739.5700000022}},{"attributes":{"ID":93233,"DIS_CODE":0,"TOWNNAME":"東區","LI":"富裕里","LIN":"10鄰","STREET":"東門路","SECT":"二段","MAREA":" ","LANE":"３０１巷","ALLEY":"４３弄","HOUSE_NO":"６號","E_COORD97":170815.66,"N_COORD97":2542743.6099999999,"ADDRESS":"東門路二段３０１巷４３弄６號","OBJECTID":93233},"geometry":{"x":170815.66000000015,"y":2542743.6099999994}},{"attributes":{"ID":93234,"DIS_CODE":0,"TOWNNAME":"東區","LI":"富裕里","LIN":"10鄰","STREET":"東門路","SECT":"二段","MAREA":" ","LANE":"３０１巷","ALLEY":"４３弄","HOUSE_NO":"７號","E_COORD97":170815,"N_COORD97":2542748.6699999999,"ADDRESS":"東門路二段３０１巷４３弄７號","OBJECTID":93234},"geometry":{"x":170815,"y":2542748.6700000018}},{"attributes":{"ID":93235,"DIS_CODE":0,"TOWNNAME":"新化區","LI":"東榮里","LIN":"25鄰","STREET":"中正路","SECT":" ","MAREA":" ","LANE":" ","ALLEY":" ","HOUSE_NO":"３０６號之７","E_COORD97":179254.54999999999,"N_COORD97":2547987.2599999998,"ADDRESS":"中正路３０６號之７","OBJECTID":93235},"geometry":{"x":179254.54999999981,"y":2547987.2600000016}},{"attributes":{"ID":93236,"DIS_CODE":0,"TOWNNAME":"東區","LI":"富裕里","LIN":"10鄰","STREET":"東門路","SECT":"二段","MAREA":" ","LANE":"３０１巷","ALLEY":"４３弄","HOUSE_NO":"８號","E_COORD97":170814.66,"N_COORD97":2542753.0899999999,"ADDRESS":"東門路二段３０１巷４３弄８號","OBJECTID":93236},"geometry":{"x":170814.66000000108,"y":2542753.0900000017}},{"attributes":{"ID":93237,"DIS_CODE":0,"TOWNNAME":"東區","LI":"富裕里","LIN":"10鄰","STREET":"東門路","SECT":"二段","MAREA":" ","LANE":"３０１巷","ALLEY":"５３弄","HOUSE_NO":"１１號","E_COORD97":170830.23999999999,"N_COORD97":2542748.6600000001,"ADDRESS":"東門路二段３０１巷５３弄１１號","OBJECTID":93237},"geometry":{"x":170830.24000000022,"y":2542748.6600000039}},{"attributes":{"ID":93238,"DIS_CODE":0,"TOWNNAME":"東區","LI":"富裕里","LIN":"10鄰","STREET":"東門路","SECT":"二段","MAREA":" ","LANE":"３０１巷","ALLEY":"５３弄","HOUSE_NO":"１號","E_COORD97":170850.45000000001,"N_COORD97":2542747.4300000002,"ADDRESS":"東門路二段３０１巷５３弄１號","OBJECTID":93238},"geometry":{"x":170850.45000000112,"y":2542747.4300000016}},{"attributes":{"ID":93239,"DIS_CODE":0,"TOWNNAME":"東區","LI":"富裕里","LIN":"10鄰","STREET":"東門路","SECT":"二段","MAREA":" ","LANE":"３０１巷","ALLEY":"５３弄","HOUSE_NO":"３號","E_COORD97":170849.12,"N_COORD97":2542752.54,"ADDRESS":"東門路二段３０１巷５３弄３號","OBJECTID":93239},"geometry":{"x":170849.12000000104,"y":2542752.540000001}},{"attributes":{"ID":93240,"DIS_CODE":0,"TOWNNAME":"東區","LI":"富裕里","LIN":"10鄰","STREET":"東門路","SECT":"二段","MAREA":" ","LANE":"３０１巷","ALLEY":"５３弄","HOUSE_NO":"５號","E_COORD97":170849.17000000001,"N_COORD97":2542757.54,"ADDRESS":"東門路二段３０１巷５３弄５號","OBJECTID":93240},"geometry":{"x":170849.16999999993,"y":2542757.5399999991}},{"attributes":{"ID":93241,"DIS_CODE":0,"TOWNNAME":"東區","LI":"富裕里","LIN":"10鄰","STREET":"東門路","SECT":"二段","MAREA":" ","LANE":"３０１巷","ALLEY":"５３弄","HOUSE_NO":"７號","E_COORD97":170839.51999999999,"N_COORD97":2542749.3999999999,"ADDRESS":"東門路二段３０１巷５３弄７號","OBJECTID":93241},"geometry":{"x":170839.51999999955,"y":2542749.4000000004}},{"attributes":{"ID":93242,"DIS_CODE":0,"TOWNNAME":"東區","LI":"富裕里","LIN":"10鄰","STREET":"東門路","SECT":"二段","MAREA":" ","LANE":"３０１巷","ALLEY":"５３弄","HOUSE_NO":"９號","E_COORD97":170834.63,"N_COORD97":2542748.9399999999,"ADDRESS":"東門路二段３０１巷５３弄９號","OBJECTID":93242},"geometry":{"x":170834.62999999896,"y":2542748.9399999995}},{"attributes":{"ID":93243,"DIS_CODE":0,"TOWNNAME":"東區","LI":"富強里","LIN":"10鄰","STREET":"中華東路","SECT":"二段","MAREA":" ","LANE":"２２６巷","ALLEY":"２８弄","HOUSE_NO":"１號","E_COORD97":171122.19,"N_COORD97":2542627.02,"ADDRESS":"中華東路二段２２６巷２８弄１號","OBJECTID":93243},"geometry":{"x":171122.19000000134,"y":2542627.0200000033}},{"attributes":{"ID":93244,"DIS_CODE":0,"TOWNNAME":"東區","LI":"富強里","LIN":"10鄰","STREET":"中華東路","SECT":"二段","MAREA":" ","LANE":"２２６巷","ALLEY":"２８弄","HOUSE_NO":"２號","E_COORD97":171116.79999999999,"N_COORD97":2542610.6800000002,"ADDRESS":"中華東路二段２２６巷２８弄２號","OBJECTID":93244},"geometry":{"x":171116.80000000075,"y":2542610.6799999997}},{"attributes":{"ID":93245,"DIS_CODE":0,"TOWNNAME":"東區","LI":"富強里","LIN":"10鄰","STREET":"中華東路","SECT":"二段","MAREA":" ","LANE":"２２６巷","ALLEY":"２８弄","HOUSE_NO":"３１號","E_COORD97":171120.01999999999,"N_COORD97":2542694.1800000002,"ADDRESS":"中華東路二段２２６巷２８弄３１號","OBJECTID":93245},"geometry":{"x":171120.02000000142,"y":2542694.1800000016}},{"attributes":{"ID":93246,"DIS_CODE":0,"TOWNNAME":"東區","LI":"富強里","LIN":"10鄰","STREET":"中華東路","SECT":"二段","MAREA":" ","LANE":"２２６巷","ALLEY":"２８弄","HOUSE_NO":"３３號","E_COORD97":171119.17000000001,"N_COORD97":2542698.7000000002,"ADDRESS":"中華東路二段２２６巷２８弄３３號","OBJECTID":93246},"geometry":{"x":171119.16999999993,"y":2542698.6999999993}},{"attributes":{"ID":93247,"DIS_CODE":0,"TOWNNAME":"東區","LI":"富強里","LIN":"10鄰","STREET":"中華東路","SECT":"二段","MAREA":" ","LANE":"２２６巷","ALLEY":"２８弄","HOUSE_NO":"３６號","E_COORD97":171138.75,"N_COORD97":2542685.4399999999,"ADDRESS":"中華東路二段２２６巷２８弄３６號","OBJECTID":93247},"geometry":{"x":171138.75,"y":2542685.4400000013}},{"attributes":{"ID":93248,"DIS_CODE":0,"TOWNNAME":"東區","LI":"富強里","LIN":"10鄰","STREET":"中華東路","SECT":"二段","MAREA":" ","LANE":"２２６巷","ALLEY":"２８弄","HOUSE_NO":"３８號","E_COORD97":171138.42000000001,"N_COORD97":2542690.5,"ADDRESS":"中華東路二段２２６巷２８弄３８號","OBJECTID":93248},"geometry":{"x":171138.42000000086,"y":2542690.5}},{"attributes":{"ID":93249,"DIS_CODE":0,"TOWNNAME":"東區","LI":"富強里","LIN":"10鄰","STREET":"中華東路","SECT":"二段","MAREA":" ","LANE":"２２６巷","ALLEY":"２８弄","HOUSE_NO":"３號","E_COORD97":171123.5,"N_COORD97":2542634.6800000002,"ADDRESS":"中華東路二段２２６巷２８弄３號","OBJECTID":93249},"geometry":{"x":171123.5,"y":2542634.6799999997}},{"attributes":{"ID":93250,"DIS_CODE":0,"TOWNNAME":"東區","LI":"富強里","LIN":"10鄰","STREET":"中華東路","SECT":"二段","MAREA":" ","LANE":"２２６巷","ALLEY":"２８弄","HOUSE_NO":"４２號","E_COORD97":171137.44,"N_COORD97":2542705.02,"ADDRESS":"中華東路二段２２６巷２８弄４２號","OBJECTID":93250},"geometry":{"x":171137.44000000134,"y":2542705.0200000033}},{"attributes":{"ID":93251,"DIS_CODE":0,"TOWNNAME":"下營區","LI":"大屯里","LIN":"10鄰","STREET":" ","SECT":" ","MAREA":"大屯寮","LANE":" ","ALLEY":" ","HOUSE_NO":"７７號之１","E_COORD97":172103.39999999999,"N_COORD97":2570592.48,"ADDRESS":"大屯寮７７號之１","OBJECTID":93251},"geometry":{"x":172103.4000000013,"y":2570592.4800000023}},{"attributes":{"ID":93252,"DIS_CODE":0,"TOWNNAME":"下營區","LI":"大屯里","LIN":"10鄰","STREET":" ","SECT":" ","MAREA":"大屯寮","LANE":" ","ALLEY":" ","HOUSE_NO":"７７號之２","E_COORD97":172098.5,"N_COORD97":2570591.0600000001,"ADDRESS":"大屯寮７７號之２","OBJECTID":93252},"geometry":{"x":172098.5,"y":2570591.0600000005}},{"attributes":{"ID":93253,"DIS_CODE":0,"TOWNNAME":"下營區","LI":"大屯里","LIN":"10鄰","STREET":" ","SECT":" ","MAREA":"大屯寮","LANE":" ","ALLEY":" ","HOUSE_NO":"７７號","E_COORD97":172111.85000000001,"N_COORD97":2570593.48,"ADDRESS":"大屯寮７７號","OBJECTID":93253},"geometry":{"x":172111.85000000056,"y":2570593.4800000023}},{"attributes":{"ID":93254,"DIS_CODE":0,"TOWNNAME":"下營區","LI":"大屯里","LIN":"10鄰","STREET":" ","SECT":" ","MAREA":"大屯寮","LANE":" ","ALLEY":" ","HOUSE_NO":"７８號","E_COORD97":172076.79000000001,"N_COORD97":2570609.1699999999,"ADDRESS":"大屯寮７８號","OBJECTID":93254},"geometry":{"x":172076.79000000097,"y":2570609.1699999999}},{"attributes":{"ID":93255,"DIS_CODE":0,"TOWNNAME":"下營區","LI":"大屯里","LIN":"10鄰","STREET":" ","SECT":" ","MAREA":"大屯寮","LANE":" ","ALLEY":" ","HOUSE_NO":"８０號之１","E_COORD97":172131.51000000001,"N_COORD97":2570642.27,"ADDRESS":"大屯寮８０號之１","OBJECTID":93255},"geometry":{"x":172131.50999999978,"y":2570642.2699999996}},{"attributes":{"ID":93256,"DIS_CODE":0,"TOWNNAME":"下營區","LI":"大屯里","LIN":"10鄰","STREET":" ","SECT":" ","MAREA":"大屯寮","LANE":" ","ALLEY":" ","HOUSE_NO":"８０號","E_COORD97":172112.29999999999,"N_COORD97":2570655.0699999998,"ADDRESS":"大屯寮８０號","OBJECTID":93256},"geometry":{"x":172112.30000000075,"y":2570655.0700000003}},{"attributes":{"ID":93257,"DIS_CODE":0,"TOWNNAME":"下營區","LI":"大屯里","LIN":"10鄰","STREET":" ","SECT":" ","MAREA":"大屯寮","LANE":" ","ALLEY":" ","HOUSE_NO":"８１號","E_COORD97":172114.17000000001,"N_COORD97":2570623.9300000002,"ADDRESS":"大屯寮８１號","OBJECTID":93257},"geometry":{"x":172114.16999999993,"y":2570623.9299999997}},{"attributes":{"ID":93258,"DIS_CODE":0,"TOWNNAME":"下營區","LI":"大屯里","LIN":"10鄰","STREET":" ","SECT":" ","MAREA":"大屯寮","LANE":" ","ALLEY":" ","HOUSE_NO":"８３號","E_COORD97":172170.87,"N_COORD97":2570624.23,"ADDRESS":"大屯寮８３號","OBJECTID":93258},"geometry":{"x":172170.87000000197,"y":2570624.2300000042}},{"attributes":{"ID":93259,"DIS_CODE":0,"TOWNNAME":"下營區","LI":"大屯里","LIN":"10鄰","STREET":" ","SECT":" ","MAREA":"大屯寮","LANE":" ","ALLEY":" ","HOUSE_NO":"８５號","E_COORD97":172143.03,"N_COORD97":2570656.1400000001,"ADDRESS":"大屯寮８５號","OBJECTID":93259},"geometry":{"x":172143.03000000119,"y":2570656.1400000025}},{"attributes":{"ID":93260,"DIS_CODE":0,"TOWNNAME":"新市區","LI":"港墘里","LIN":"10鄰","STREET":" ","SECT":" ","MAREA":"崙頂","LANE":" ","ALLEY":" ","HOUSE_NO":"２７之３號","E_COORD97":178918.70999999999,"N_COORD97":2552574.7999999998,"ADDRESS":"崙頂２７之３號","OBJECTID":93260},"geometry":{"x":178918.71000000183,"y":2552574.8000000026}},{"attributes":{"ID":93261,"DIS_CODE":0,"TOWNNAME":"新市區","LI":"永就里","LIN":"10鄰","STREET":" ","SECT":" ","MAREA":"永就","LANE":" ","ALLEY":" ","HOUSE_NO":"１３２號","E_COORD97":177206.20999999999,"N_COORD97":2551356,"ADDRESS":"永就１３２號","OBJECTID":93261},"geometry":{"x":177206.20999999996,"y":2551356}},{"attributes":{"ID":93262,"DIS_CODE":0,"TOWNNAME":"新市區","LI":"永就里","LIN":"10鄰","STREET":" ","SECT":" ","MAREA":"永就","LANE":" ","ALLEY":" ","HOUSE_NO":"１２８號","E_COORD97":177227.06,"N_COORD97":2551362.75,"ADDRESS":"永就１２８號","OBJECTID":93262},"geometry":{"x":177227.05999999959,"y":2551362.7500000037}},{"attributes":{"ID":93263,"DIS_CODE":0,"TOWNNAME":"新市區","LI":"大社里","LIN":"10鄰","STREET":" ","SECT":" ","MAREA":"大社","LANE":" ","ALLEY":" ","HOUSE_NO":"３７８之２號","E_COORD97":180066.59,"N_COORD97":2554638.79,"ADDRESS":"大社３７８之２號","OBJECTID":93263},"geometry":{"x":180066.58999999985,"y":2554638.7899999991}},{"attributes":{"ID":93264,"DIS_CODE":0,"TOWNNAME":"新市區","LI":"永就里","LIN":"10鄰","STREET":" ","SECT":" ","MAREA":"永就","LANE":" ","ALLEY":" ","HOUSE_NO":"１２１號","E_COORD97":177408.89000000001,"N_COORD97":2551527,"ADDRESS":"永就１２１號","OBJECTID":93264},"geometry":{"x":177408.8900000006,"y":2551526.9999999981}},{"attributes":{"ID":93265,"DIS_CODE":0,"TOWNNAME":"新市區","LI":"港墘里","LIN":"10鄰","STREET":" ","SECT":" ","MAREA":"崙頂","LANE":" ","ALLEY":" ","HOUSE_NO":"２０之３號","E_COORD97":178940.48000000001,"N_COORD97":2552566.0499999998,"ADDRESS":"崙頂２０之３號","OBJECTID":93265},"geometry":{"x":178940.48000000045,"y":2552566.0500000026}},{"attributes":{"ID":93266,"DIS_CODE":0,"TOWNNAME":"新市區","LI":"永就里","LIN":"10鄰","STREET":" ","SECT":" ","MAREA":"永就","LANE":" ","ALLEY":" ","HOUSE_NO":"１１１之４號","E_COORD97":177447.04000000001,"N_COORD97":2551568.2999999998,"ADDRESS":"永就１１１之４號","OBJECTID":93266},"geometry":{"x":177447.04000000097,"y":2551568.3000000007}},{"attributes":{"ID":93267,"DIS_CODE":0,"TOWNNAME":"新市區","LI":"社內里","LIN":"10鄰","STREET":" ","SECT":" ","MAREA":"社內","LANE":" ","ALLEY":" ","HOUSE_NO":"１０３之２７號","E_COORD97":176317.67000000001,"N_COORD97":2552868.2999999998,"ADDRESS":"社內１０３之２７號","OBJECTID":93267},"geometry":{"x":176317.66999999993,"y":2552868.2999999989}},{"attributes":{"ID":93268,"DIS_CODE":0,"TOWNNAME":"新市區","LI":"永就里","LIN":"10鄰","STREET":" ","SECT":" ","MAREA":"永就","LANE":" ","ALLEY":" ","HOUSE_NO":"１１９號","E_COORD97":177437.23000000001,"N_COORD97":2551521.25,"ADDRESS":"永就１１９號","OBJECTID":93268},"geometry":{"x":177437.23000000045,"y":2551521.25}},{"attributes":{"ID":93269,"DIS_CODE":0,"TOWNNAME":"新市區","LI":"港墘里","LIN":"10鄰","STREET":" ","SECT":" ","MAREA":"崙頂","LANE":" ","ALLEY":" ","HOUSE_NO":"５３號","E_COORD97":178820.76000000001,"N_COORD97":2552664,"ADDRESS":"崙頂５３號","OBJECTID":93269},"geometry":{"x":178820.75999999978,"y":2552664.0000000019}},{"attributes":{"ID":93270,"DIS_CODE":0,"TOWNNAME":"新市區","LI":"永就里","LIN":"10鄰","STREET":" ","SECT":" ","MAREA":"永就","LANE":" ","ALLEY":" ","HOUSE_NO":"１３８號","E_COORD97":177233.35999999999,"N_COORD97":2551397,"ADDRESS":"永就１３８號","OBJECTID":93270},"geometry":{"x":177233.36000000127,"y":2551397}},{"attributes":{"ID":93271,"DIS_CODE":0,"TOWNNAME":"新市區","LI":"港墘里","LIN":"10鄰","STREET":" ","SECT":" ","MAREA":"崙頂","LANE":" ","ALLEY":" ","HOUSE_NO":"２４號","E_COORD97":178908.70999999999,"N_COORD97":2552603.75,"ADDRESS":"崙頂２４號","OBJECTID":93271},"geometry":{"x":178908.71000000089,"y":2552603.7500000037}},{"attributes":{"ID":93272,"DIS_CODE":0,"TOWNNAME":"新市區","LI":"永就里","LIN":"10鄰","STREET":" ","SECT":" ","MAREA":"永就","LANE":" ","ALLEY":" ","HOUSE_NO":"１１４之２號","E_COORD97":177458.67000000001,"N_COORD97":2551529.0499999998,"ADDRESS":"永就１１４之２號","OBJECTID":93272},"geometry":{"x":177458.66999999993,"y":2551529.0500000026}},{"attributes":{"ID":93273,"DIS_CODE":0,"TOWNNAME":"新市區","LI":"永就里","LIN":"10鄰","STREET":" ","SECT":" ","MAREA":"永就","LANE":" ","ALLEY":" ","HOUSE_NO":"１３９號","E_COORD97":177229.06,"N_COORD97":2551395.5,"ADDRESS":"永就１３９號","OBJECTID":93273},"geometry":{"x":177229.05999999866,"y":2551395.5000000019}},{"attributes":{"ID":93274,"DIS_CODE":0,"TOWNNAME":"新市區","LI":"社內里","LIN":"10鄰","STREET":" ","SECT":" ","MAREA":"社內","LANE":" ","ALLEY":" ","HOUSE_NO":"１０３之２０號","E_COORD97":176334.42000000001,"N_COORD97":2552856.2999999998,"ADDRESS":"社內１０３之２０號","OBJECTID":93274},"geometry":{"x":176334.42000000086,"y":2552856.3000000026}},{"attributes":{"ID":93275,"DIS_CODE":0,"TOWNNAME":"新市區","LI":"社內里","LIN":"10鄰","STREET":" ","SECT":" ","MAREA":"社內","LANE":" ","ALLEY":" ","HOUSE_NO":"１０４號","E_COORD97":176334.72,"N_COORD97":2552817.75,"ADDRESS":"社內１０４號","OBJECTID":93275},"geometry":{"x":176334.71999999974,"y":2552817.7500000019}},{"attributes":{"ID":93276,"DIS_CODE":0,"TOWNNAME":"新市區","LI":"永就里","LIN":"10鄰","STREET":" ","SECT":" ","MAREA":"永就","LANE":" ","ALLEY":" ","HOUSE_NO":"１３７號","E_COORD97":177237.60999999999,"N_COORD97":2551398.5,"ADDRESS":"永就１３７號","OBJECTID":93276},"geometry":{"x":177237.61000000034,"y":2551398.5000000037}},{"attributes":{"ID":93277,"DIS_CODE":0,"TOWNNAME":"新市區","LI":"港墘里","LIN":"10鄰","STREET":" ","SECT":" ","MAREA":"崙頂","LANE":" ","ALLEY":" ","HOUSE_NO":"２７之１０號","E_COORD97":178898.51999999999,"N_COORD97":2552588.0499999998,"ADDRESS":"崙頂２７之１０號","OBJECTID":93277},"geometry":{"x":178898.51999999955,"y":2552588.0500000007}},{"attributes":{"ID":93278,"DIS_CODE":0,"TOWNNAME":"新市區","LI":"港墘里","LIN":"10鄰","STREET":" ","SECT":" ","MAREA":"崙頂","LANE":" ","ALLEY":" ","HOUSE_NO":"２７之２號","E_COORD97":178922.37,"N_COORD97":2552572.5499999998,"ADDRESS":"崙頂２７之２號","OBJECTID":93278},"geometry":{"x":178922.37000000011,"y":2552572.5500000026}},{"attributes":{"ID":93279,"DIS_CODE":0,"TOWNNAME":"新市區","LI":"永就里","LIN":"10鄰","STREET":" ","SECT":" ","MAREA":"永就","LANE":" ","ALLEY":" ","HOUSE_NO":"１２２號","E_COORD97":177251.56,"N_COORD97":2551371.75,"ADDRESS":"永就１２２號","OBJECTID":93279},"geometry":{"x":177251.56000000052,"y":2551371.75}},{"attributes":{"ID":93280,"DIS_CODE":0,"TOWNNAME":"新市區","LI":"永就里","LIN":"10鄰","STREET":" ","SECT":" ","MAREA":"永就","LANE":" ","ALLEY":" ","HOUSE_NO":"１２３號","E_COORD97":177246.51000000001,"N_COORD97":2551370,"ADDRESS":"永就１２３號","OBJECTID":93280},"geometry":{"x":177246.50999999978,"y":2551370}},{"attributes":{"ID":93281,"DIS_CODE":0,"TOWNNAME":"新市區","LI":"港墘里","LIN":"10鄰","STREET":" ","SECT":" ","MAREA":"崙頂","LANE":" ","ALLEY":" ","HOUSE_NO":"６２之３號","E_COORD97":178930.16,"N_COORD97":2552670.1200000001,"ADDRESS":"崙頂６２之３號","OBJECTID":93281},"geometry":{"x":178930.16000000108,"y":2552670.1200000048}},{"attributes":{"ID":93282,"DIS_CODE":0,"TOWNNAME":"新市區","LI":"永就里","LIN":"10鄰","STREET":" ","SECT":" ","MAREA":"永就","LANE":" ","ALLEY":" ","HOUSE_NO":"１３９之１９號","E_COORD97":177215.85999999999,"N_COORD97":2551401.2999999998,"ADDRESS":"永就１３９之１９號","OBJECTID":93282},"geometry":{"x":177215.86000000034,"y":2551401.3000000026}},{"attributes":{"ID":93283,"DIS_CODE":0,"TOWNNAME":"新市區","LI":"社內里","LIN":"10鄰","STREET":" ","SECT":" ","MAREA":"社內","LANE":" ","ALLEY":" ","HOUSE_NO":"１０３之１５號","E_COORD97":176283.10999999999,"N_COORD97":2552860.7999999998,"ADDRESS":"社內１０３之１５號","OBJECTID":93283},"geometry":{"x":176283.11000000034,"y":2552860.8000000007}},{"attributes":{"ID":93284,"DIS_CODE":0,"TOWNNAME":"新市區","LI":"社內里","LIN":"10鄰","STREET":" ","SECT":" ","MAREA":"社內","LANE":" ","ALLEY":" ","HOUSE_NO":"１０３之２１號","E_COORD97":176300.57999999999,"N_COORD97":2552863.5499999998,"ADDRESS":"社內１０３之２１號","OBJECTID":93284},"geometry":{"x":176300.58000000194,"y":2552863.5500000045}},{"attributes":{"ID":93285,"DIS_CODE":0,"TOWNNAME":"新市區","LI":"社內里","LIN":"10鄰","STREET":" ","SECT":" ","MAREA":"社內","LANE":" ","ALLEY":" ","HOUSE_NO":"１０３之１號","E_COORD97":176305.23000000001,"N_COORD97":2552848.5499999998,"ADDRESS":"社內１０３之１號","OBJECTID":93285},"geometry":{"x":176305.23000000138,"y":2552848.5500000007}},{"attributes":{"ID":93286,"DIS_CODE":0,"TOWNNAME":"新市區","LI":"社內里","LIN":"10鄰","STREET":" ","SECT":" ","MAREA":"社內","LANE":" ","ALLEY":" ","HOUSE_NO":"１０１之１號","E_COORD97":176283.37,"N_COORD97":2552916.5499999998,"ADDRESS":"社內１０１之１號","OBJECTID":93286},"geometry":{"x":176283.37000000197,"y":2552916.5500000007}},{"attributes":{"ID":93287,"DIS_CODE":0,"TOWNNAME":"東區","LI":"富強里","LIN":"10鄰","STREET":"中華東路","SECT":"二段","MAREA":" ","LANE":"２２６巷","ALLEY":"３０弄","HOUSE_NO":"１１號","E_COORD97":171152.79000000001,"N_COORD97":2542706.1600000001,"ADDRESS":"中華東路二段２２６巷３０弄１１號","OBJECTID":93287},"geometry":{"x":171152.79000000097,"y":2542706.1600000001}},{"attributes":{"ID":93288,"DIS_CODE":0,"TOWNNAME":"東區","LI":"富強里","LIN":"10鄰","STREET":"中華東路","SECT":"二段","MAREA":" ","LANE":"２２６巷","ALLEY":"３０弄","HOUSE_NO":"１９號","E_COORD97":171181.20000000001,"N_COORD97":2542735.5,"ADDRESS":"中華東路二段２２６巷３０弄１９號","OBJECTID":93288},"geometry":{"x":171181.20000000112,"y":2542735.5}},{"attributes":{"ID":93289,"DIS_CODE":0,"TOWNNAME":"東區","LI":"富強里","LIN":"10鄰","STREET":"中華東路","SECT":"二段","MAREA":" ","LANE":"２２６巷","ALLEY":"３０弄","HOUSE_NO":"１號","E_COORD97":171145.44,"N_COORD97":2542676.3100000001,"ADDRESS":"中華東路二段２２６巷３０弄１號","OBJECTID":93289},"geometry":{"x":171145.44000000134,"y":2542676.3100000005}},{"attributes":{"ID":93290,"DIS_CODE":0,"TOWNNAME":"東區","LI":"富強里","LIN":"10鄰","STREET":"中華東路","SECT":"二段","MAREA":" ","LANE":"２２６巷","ALLEY":"３０弄","HOUSE_NO":"２１號","E_COORD97":171185.44,"N_COORD97":2542736.3100000001,"ADDRESS":"中華東路二段２２６巷３０弄２１號","OBJECTID":93290},"geometry":{"x":171185.44000000041,"y":2542736.3100000005}},{"attributes":{"ID":93291,"DIS_CODE":0,"TOWNNAME":"東區","LI":"富強里","LIN":"10鄰","STREET":"中華東路","SECT":"二段","MAREA":" ","LANE":"２２６巷","ALLEY":"３０弄","HOUSE_NO":"３號","E_COORD97":171150.98999999999,"N_COORD97":2542677.4500000002,"ADDRESS":"中華東路二段２２６巷３０弄３號","OBJECTID":93291},"geometry":{"x":171150.99000000022,"y":2542677.4499999993}},{"attributes":{"ID":93292,"DIS_CODE":0,"TOWNNAME":"安南區","LI":"海西里","LIN":"10鄰","STREET":"海中街","SECT":" ","MAREA":" ","LANE":"７７巷","ALLEY":"４５弄","HOUSE_NO":"１３號","E_COORD97":166326.70999999999,"N_COORD97":2548853.8700000001,"ADDRESS":"海中街７７巷４５弄１３號","OBJECTID":93292},"geometry":{"x":166326.70999999903,"y":2548853.8699999992}},{"attributes":{"ID":93293,"DIS_CODE":0,"TOWNNAME":"安南區","LI":"海西里","LIN":"10鄰","STREET":"海中街","SECT":" ","MAREA":" ","LANE":"７７巷","ALLEY":"４５弄","HOUSE_NO":"７之１號","E_COORD97":166324.435734,"N_COORD97":2548858.4406099999,"ADDRESS":"海中街７７巷４５弄７之１號","OBJECTID":93293},"geometry":{"x":166324.43573400006,"y":2548858.4406100009}},{"attributes":{"ID":93294,"DIS_CODE":0,"TOWNNAME":"中西區","LI":"大涼里","LIN":"10鄰","STREET":"府前路","SECT":"二段","MAREA":" ","LANE":"２５８巷","ALLEY":"２９弄","HOUSE_NO":"１０號","E_COORD97":166975.70000000001,"N_COORD97":2543766.5699999998,"ADDRESS":"府前路二段２５８巷２９弄１０號","OBJECTID":93294},"geometry":{"x":166975.70000000019,"y":2543766.570000004}},{"attributes":{"ID":93295,"DIS_CODE":0,"TOWNNAME":"中西區","LI":"大涼里","LIN":"10鄰","STREET":"府前路","SECT":"二段","MAREA":" ","LANE":"２５８巷","ALLEY":"２９弄","HOUSE_NO":"１２號","E_COORD97":166971.60999999999,"N_COORD97":2543767.21,"ADDRESS":"府前路二段２５８巷２９弄１２號","OBJECTID":93295},"geometry":{"x":166971.61000000034,"y":2543767.2100000028}},{"attributes":{"ID":93296,"DIS_CODE":0,"TOWNNAME":"中西區","LI":"大涼里","LIN":"10鄰","STREET":"府前路","SECT":"二段","MAREA":" ","LANE":"２５８巷","ALLEY":"２９弄","HOUSE_NO":"１４號","E_COORD97":166966.87,"N_COORD97":2543768.3999999999,"ADDRESS":"府前路二段２５８巷２９弄１４號","OBJECTID":93296},"geometry":{"x":166966.87000000104,"y":2543768.4000000022}},{"attributes":{"ID":93297,"DIS_CODE":0,"TOWNNAME":"中西區","LI":"大涼里","LIN":"10鄰","STREET":"府前路","SECT":"二段","MAREA":" ","LANE":"２５８巷","ALLEY":"２９弄","HOUSE_NO":"１６號","E_COORD97":166962.14000000001,"N_COORD97":2543768.8300000001,"ADDRESS":"府前路二段２５８巷２９弄１６號","OBJECTID":93297},"geometry":{"x":166962.13999999966,"y":2543768.8300000019}},{"attributes":{"ID":93298,"DIS_CODE":0,"TOWNNAME":"中西區","LI":"大涼里","LIN":"10鄰","STREET":"府前路","SECT":"二段","MAREA":" ","LANE":"２５８巷","ALLEY":"２９弄","HOUSE_NO":"１８號","E_COORD97":166966.12,"N_COORD97":2543786.1400000001,"ADDRESS":"府前路二段２５８巷２９弄１８號","OBJECTID":93298},"geometry":{"x":166966.12000000011,"y":2543786.1400000006}},{"attributes":{"ID":93299,"DIS_CODE":0,"TOWNNAME":"麻豆區","LI":"寮\u25A0里","LIN":"15鄰","STREET":" ","SECT":" ","MAREA":"寮子\u25A0","LANE":" ","ALLEY":" ","HOUSE_NO":"１１８號之１","E_COORD97":176592.63,"N_COORD97":2565395.1400000001,"ADDRESS":"寮子\u25A0１１８號之１","OBJECTID":93299},"geometry":{"x":176592.62999999989,"y":2565395.1400000025}},{"attributes":{"ID":93300,"DIS_CODE":0,"TOWNNAME":"麻豆區","LI":"寮\u25A0里","LIN":"15鄰","STREET":" ","SECT":" ","MAREA":"寮子\u25A0","LANE":" ","ALLEY":" ","HOUSE_NO":"１１８號之２","E_COORD97":176568.32000000001,"N_COORD97":2565397.1800000002,"ADDRESS":"寮子\u25A0１１８號之２","OBJECTID":93300},"geometry":{"x":176568.3200000003,"y":2565397.1800000016}},{"attributes":{"ID":93301,"DIS_CODE":0,"TOWNNAME":"麻豆區","LI":"寮\u25A0里","LIN":"15鄰","STREET":" ","SECT":" ","MAREA":"寮子\u25A0","LANE":" ","ALLEY":" ","HOUSE_NO":"１１８號","E_COORD97":176576.48000000001,"N_COORD97":2565390.4700000002,"ADDRESS":"寮子\u25A0１１８號","OBJECTID":93301},"geometry":{"x":176576.48000000138,"y":2565390.4700000007}},{"attributes":{"ID":93302,"DIS_CODE":0,"TOWNNAME":"麻豆區","LI":"寮\u25A0里","LIN":"15鄰","STREET":" ","SECT":" ","MAREA":"寮子\u25A0","LANE":" ","ALLEY":" ","HOUSE_NO":"１１９號之１","E_COORD97":176553.48000000001,"N_COORD97":2565397.0699999998,"ADDRESS":"寮子\u25A0１１９號之１","OBJECTID":93302},"geometry":{"x":176553.48000000045,"y":2565397.070000004}},{"attributes":{"ID":93303,"DIS_CODE":0,"TOWNNAME":"中西區","LI":"大涼里","LIN":"10鄰","STREET":"府前路","SECT":"二段","MAREA":" ","LANE":"２５８巷","ALLEY":"２９弄","HOUSE_NO":"２０號","E_COORD97":166970.42999999999,"N_COORD97":2543784.7400000002,"ADDRESS":"府前路二段２５８巷２９弄２０號","OBJECTID":93303},"geometry":{"x":166970.4299999997,"y":2543784.7400000002}},{"attributes":{"ID":93304,"DIS_CODE":0,"TOWNNAME":"中西區","LI":"大涼里","LIN":"10鄰","STREET":"府前路","SECT":"二段","MAREA":" ","LANE":"２５８巷","ALLEY":"２９弄","HOUSE_NO":"２２號","E_COORD97":166975.38,"N_COORD97":2543783.8799999999,"ADDRESS":"府前路二段２５８巷２９弄２２號","OBJECTID":93304},"geometry":{"x":166975.38000000082,"y":2543783.8800000008}},{"attributes":{"ID":93305,"DIS_CODE":0,"TOWNNAME":"麻豆區","LI":"寮\u25A0里","LIN":"15鄰","STREET":" ","SECT":" ","MAREA":"寮子\u25A0","LANE":" ","ALLEY":" ","HOUSE_NO":"１１９號之２","E_COORD97":176549.10999999999,"N_COORD97":2565397.96,"ADDRESS":"寮子\u25A0１１９號之２","OBJECTID":93305},"geometry":{"x":176549.11000000034,"y":2565397.9600000009}},{"attributes":{"ID":93306,"DIS_CODE":0,"TOWNNAME":"麻豆區","LI":"寮\u25A0里","LIN":"15鄰","STREET":" ","SECT":" ","MAREA":"寮子\u25A0","LANE":" ","ALLEY":" ","HOUSE_NO":"１１９號之３","E_COORD97":176545.26000000001,"N_COORD97":2565398.73,"ADDRESS":"寮子\u25A0１１９號之３","OBJECTID":93306},"geometry":{"x":176545.26000000071,"y":2565398.7300000004}},{"attributes":{"ID":93307,"DIS_CODE":0,"TOWNNAME":"中西區","LI":"大涼里","LIN":"10鄰","STREET":"府前路","SECT":"二段","MAREA":" ","LANE":"２５８巷","ALLEY":"２９弄","HOUSE_NO":"２４號","E_COORD97":166980.54999999999,"N_COORD97":2543782.7000000002,"ADDRESS":"府前路二段２５８巷２９弄２４號","OBJECTID":93307},"geometry":{"x":166980.55000000075,"y":2543782.7000000011}},{"attributes":{"ID":93308,"DIS_CODE":0,"TOWNNAME":"麻豆區","LI":"油車里","LIN":"15鄰","STREET":"新生北路","SECT":" ","MAREA":" ","LANE":" ","ALLEY":" ","HOUSE_NO":"３０５號之１","E_COORD97":172438.32999999999,"N_COORD97":2565591.1000000001,"ADDRESS":"新生北路３０５號之１","OBJECTID":93308},"geometry":{"x":172438.33000000007,"y":2565591.0999999996}},{"attributes":{"ID":93309,"DIS_CODE":0,"TOWNNAME":"麻豆區","LI":"寮\u25A0里","LIN":"15鄰","STREET":" ","SECT":" ","MAREA":"寮子\u25A0","LANE":" ","ALLEY":" ","HOUSE_NO":"１１９號","E_COORD97":176562.37,"N_COORD97":2565401.0899999999,"ADDRESS":"寮子\u25A0１１９號","OBJECTID":93309},"geometry":{"x":176562.37000000011,"y":2565401.0900000017}},{"attributes":{"ID":93310,"DIS_CODE":0,"TOWNNAME":"麻豆區","LI":"寮\u25A0里","LIN":"15鄰","STREET":" ","SECT":" ","MAREA":"寮子\u25A0","LANE":" ","ALLEY":" ","HOUSE_NO":"１２０號","E_COORD97":176533.73000000001,"N_COORD97":2565408.4399999999,"ADDRESS":"寮子\u25A0１２０號","OBJECTID":93310},"geometry":{"x":176533.73000000045,"y":2565408.4400000013}},{"attributes":{"ID":93311,"DIS_CODE":0,"TOWNNAME":"麻豆區","LI":"油車里","LIN":"15鄰","STREET":"新生北路","SECT":" ","MAREA":" ","LANE":" ","ALLEY":" ","HOUSE_NO":"３２１號","E_COORD97":172471.12,"N_COORD97":2565589.0800000001,"ADDRESS":"新生北路３２１號","OBJECTID":93311},"geometry":{"x":172471.12000000104,"y":2565589.0800000001}},{"attributes":{"ID":93312,"DIS_CODE":0,"TOWNNAME":"中西區","LI":"大涼里","LIN":"10鄰","STREET":"府前路","SECT":"二段","MAREA":" ","LANE":"２５８巷","ALLEY":"２９弄","HOUSE_NO":"２６號","E_COORD97":166986.17999999999,"N_COORD97":2543781.1200000001,"ADDRESS":"府前路二段２５８巷２９弄２６號","OBJECTID":93312},"geometry":{"x":166986.18000000156,"y":2543781.1200000029}},{"attributes":{"ID":93313,"DIS_CODE":0,"TOWNNAME":"新市區","LI":"永就里","LIN":"10鄰","STREET":" ","SECT":" ","MAREA":"永就","LANE":" ","ALLEY":" ","HOUSE_NO":"１３９之１０號","E_COORD97":177194.89999999999,"N_COORD97":2551381.0499999998,"ADDRESS":"永就１３９之１０號","OBJECTID":93313},"geometry":{"x":177194.90000000037,"y":2551381.0500000007}},{"attributes":{"ID":93314,"DIS_CODE":0,"TOWNNAME":"中西區","LI":"大涼里","LIN":"10鄰","STREET":"府前路","SECT":"二段","MAREA":" ","LANE":"２５８巷","ALLEY":"２９弄","HOUSE_NO":"２８號","E_COORD97":166991.47,"N_COORD97":2543779.5600000001,"ADDRESS":"府前路二段２５８巷２９弄２８號","OBJECTID":93314},"geometry":{"x":166991.47000000067,"y":2543779.5600000005}},{"attributes":{"ID":93315,"DIS_CODE":0,"TOWNNAME":"佳里區","LI":"六安里","LIN":"10鄰","STREET":" ","SECT":" ","MAREA":"六安","LANE":" ","ALLEY":" ","HOUSE_NO":"７１號之１７","E_COORD97":165970.04999999999,"N_COORD97":2563102.4700000002,"ADDRESS":"六安７１號之１７","OBJECTID":93315},"geometry":{"x":165970.05000000168,"y":2563102.4700000007}},{"attributes":{"ID":93316,"DIS_CODE":0,"TOWNNAME":"中西區","LI":"大涼里","LIN":"10鄰","STREET":"府前路","SECT":"二段","MAREA":" ","LANE":"２５８巷","ALLEY":"２９弄","HOUSE_NO":"２號","E_COORD97":167005.12,"N_COORD97":2543759.8999999999,"ADDRESS":"府前路二段２５８巷２９弄２號","OBJECTID":93316},"geometry":{"x":167005.12000000011,"y":2543759.9000000004}},{"attributes":{"ID":93317,"DIS_CODE":0,"TOWNNAME":"中西區","LI":"大涼里","LIN":"10鄰","STREET":"府前路","SECT":"二段","MAREA":" ","LANE":"２５８巷","ALLEY":"２９弄","HOUSE_NO":"３０號","E_COORD97":166995.22,"N_COORD97":2543779.75,"ADDRESS":"府前路二段２５８巷２９弄３０號","OBJECTID":93317},"geometry":{"x":166995.22000000067,"y":2543779.7500000019}},{"attributes":{"ID":93318,"DIS_CODE":0,"TOWNNAME":"新市區","LI":"永就里","LIN":"10鄰","STREET":" ","SECT":" ","MAREA":"永就","LANE":" ","ALLEY":" ","HOUSE_NO":"１１４號","E_COORD97":177448.12,"N_COORD97":2551527.25,"ADDRESS":"永就１１４號","OBJECTID":93318},"geometry":{"x":177448.12000000197,"y":2551527.25}},{"attributes":{"ID":93319,"DIS_CODE":0,"TOWNNAME":"新市區","LI":"港墘里","LIN":"10鄰","STREET":" ","SECT":" ","MAREA":"崙頂","LANE":" ","ALLEY":" ","HOUSE_NO":"５９號","E_COORD97":178899.48000000001,"N_COORD97":2552634.75,"ADDRESS":"崙頂５９號","OBJECTID":93319},"geometry":{"x":178899.48000000138,"y":2552634.7500000019}},{"attributes":{"ID":93320,"DIS_CODE":0,"TOWNNAME":"新市區","LI":"永就里","LIN":"10鄰","STREET":" ","SECT":" ","MAREA":"永就","LANE":" ","ALLEY":" ","HOUSE_NO":"１１１之１號","E_COORD97":177442.25,"N_COORD97":2551582.7999999998,"ADDRESS":"永就１１１之１號","OBJECTID":93320},"geometry":{"x":177442.25000000093,"y":2551582.8000000007}},{"attributes":{"ID":93321,"DIS_CODE":0,"TOWNNAME":"中西區","LI":"大涼里","LIN":"10鄰","STREET":"府前路","SECT":"二段","MAREA":" ","LANE":"２５８巷","ALLEY":"２９弄","HOUSE_NO":"３２號","E_COORD97":167000.10000000001,"N_COORD97":2543778.3599999999,"ADDRESS":"府前路二段２５８巷２９弄３２號","OBJECTID":93321},"geometry":{"x":167000.0999999987,"y":2543778.3600000013}},{"attributes":{"ID":93322,"DIS_CODE":0,"TOWNNAME":"中西區","LI":"大涼里","LIN":"10鄰","STREET":"府前路","SECT":"二段","MAREA":" ","LANE":"２５８巷","ALLEY":"２９弄","HOUSE_NO":"３４號","E_COORD97":167004.28,"N_COORD97":2543777.1099999999,"ADDRESS":"府前路二段２５８巷２９弄３４號","OBJECTID":93322},"geometry":{"x":167004.28000000026,"y":2543777.1099999994}},{"attributes":{"ID":93323,"DIS_CODE":0,"TOWNNAME":"中西區","LI":"大涼里","LIN":"10鄰","STREET":"府前路","SECT":"二段","MAREA":" ","LANE":"２５８巷","ALLEY":"２９弄","HOUSE_NO":"３６號","E_COORD97":167009.03,"N_COORD97":2543776.4100000001,"ADDRESS":"府前路二段２５８巷２９弄３６號","OBJECTID":93323},"geometry":{"x":167009.03000000026,"y":2543776.4100000001}},{"attributes":{"ID":93324,"DIS_CODE":0,"TOWNNAME":"中西區","LI":"大涼里","LIN":"10鄰","STREET":"府前路","SECT":"二段","MAREA":" ","LANE":"２５８巷","ALLEY":"２９弄","HOUSE_NO":"４號","E_COORD97":167000.23999999999,"N_COORD97":2543760.7400000002,"ADDRESS":"府前路二段２５８巷２９弄４號","OBJECTID":93324},"geometry":{"x":167000.24000000115,"y":2543760.7400000002}},{"attributes":{"ID":93325,"DIS_CODE":0,"TOWNNAME":"新市區","LI":"永就里","LIN":"10鄰","STREET":" ","SECT":" ","MAREA":"永就","LANE":" ","ALLEY":" ","HOUSE_NO":"１２７號","E_COORD97":177231.45999999999,"N_COORD97":2551364.5,"ADDRESS":"永就１２７號","OBJECTID":93325},"geometry":{"x":177231.45999999996,"y":2551364.5000000037}},{"attributes":{"ID":93326,"DIS_CODE":0,"TOWNNAME":"新市區","LI":"永就里","LIN":"10鄰","STREET":" ","SECT":" ","MAREA":"永就","LANE":" ","ALLEY":" ","HOUSE_NO":"１３９之５號","E_COORD97":177215.06,"N_COORD97":2551389.0499999998,"ADDRESS":"永就１３９之５號","OBJECTID":93326},"geometry":{"x":177215.05999999959,"y":2551389.0500000026}},{"attributes":{"ID":93327,"DIS_CODE":0,"TOWNNAME":"新市區","LI":"永就里","LIN":"10鄰","STREET":" ","SECT":" ","MAREA":"永就","LANE":" ","ALLEY":" ","HOUSE_NO":"１３９之２５號","E_COORD97":177194.56,"N_COORD97":2551394.0499999998,"ADDRESS":"永就１３９之２５號","OBJECTID":93327},"geometry":{"x":177194.55999999959,"y":2551394.0500000007}},{"attributes":{"ID":93328,"DIS_CODE":0,"TOWNNAME":"新市區","LI":"社內里","LIN":"10鄰","STREET":" ","SECT":" ","MAREA":"社內","LANE":" ","ALLEY":" ","HOUSE_NO":"１０３之３１號","E_COORD97":176329.28,"N_COORD97":2552871.2999999998,"ADDRESS":"社內１０３之３１號","OBJECTID":93328},"geometry":{"x":176329.28000000026,"y":2552871.3000000007}},{"attributes":{"ID":93329,"DIS_CODE":0,"TOWNNAME":"新市區","LI":"永就里","LIN":"10鄰","STREET":" ","SECT":" ","MAREA":"永就","LANE":" ","ALLEY":" ","HOUSE_NO":"１３９之１號","E_COORD97":177227.14999999999,"N_COORD97":2551394.2999999998,"ADDRESS":"永就１３９之１號","OBJECTID":93329},"geometry":{"x":177227.15000000037,"y":2551394.3000000026}},{"attributes":{"ID":93330,"DIS_CODE":0,"TOWNNAME":"新市區","LI":"港墘里","LIN":"10鄰","STREET":" ","SECT":" ","MAREA":"崙頂","LANE":" ","ALLEY":" ","HOUSE_NO":"６２之５號","E_COORD97":178930.73999999999,"N_COORD97":2552677.8700000001,"ADDRESS":"崙頂６２之５號","OBJECTID":93330},"geometry":{"x":178930.74000000115,"y":2552677.870000001}},{"attributes":{"ID":93331,"DIS_CODE":0,"TOWNNAME":"新市區","LI":"永就里","LIN":"10鄰","STREET":" ","SECT":" ","MAREA":"永就","LANE":" ","ALLEY":" ","HOUSE_NO":"１３１號","E_COORD97":177211.26000000001,"N_COORD97":2551357.5,"ADDRESS":"永就１３１號","OBJECTID":93331},"geometry":{"x":177211.26000000071,"y":2551357.5000000037}},{"attributes":{"ID":93332,"DIS_CODE":0,"TOWNNAME":"中西區","LI":"大涼里","LIN":"10鄰","STREET":"府前路","SECT":"二段","MAREA":" ","LANE":"２５８巷","ALLEY":"２９弄","HOUSE_NO":"６號","E_COORD97":166996.19,"N_COORD97":2543761.71,"ADDRESS":"府前路二段２５８巷２９弄６號","OBJECTID":93332},"geometry":{"x":166996.19000000041,"y":2543761.7100000009}},{"attributes":{"ID":93333,"DIS_CODE":0,"TOWNNAME":"中西區","LI":"大涼里","LIN":"10鄰","STREET":"府前路","SECT":"二段","MAREA":" ","LANE":"２５８巷","ALLEY":"２９弄","HOUSE_NO":"８號","E_COORD97":166991.59,"N_COORD97":2543762.6800000002,"ADDRESS":"府前路二段２５８巷２９弄８號","OBJECTID":93333},"geometry":{"x":166991.58999999985,"y":2543762.6800000016}},{"attributes":{"ID":93334,"DIS_CODE":0,"TOWNNAME":"永康區","LI":"正強里","LIN":"10鄰","STREET":"正義街","SECT":" ","MAREA":" ","LANE":"１０１巷","ALLEY":"２０弄","HOUSE_NO":"２號","E_COORD97":173428.26999999999,"N_COORD97":2547489.8999999999,"ADDRESS":"正義街１０１巷２０弄２號","OBJECTID":93334},"geometry":{"x":173428.26999999955,"y":2547489.9000000004}},{"attributes":{"ID":93335,"DIS_CODE":0,"TOWNNAME":"永康區","LI":"\u25A0洲里","LIN":"10鄰","STREET":"\u25A0行路","SECT":" ","MAREA":" ","LANE":"１４６巷","ALLEY":"２０弄","HOUSE_NO":"４號","E_COORD97":171389.95999999999,"N_COORD97":2549304.4199999999,"ADDRESS":"\u25A0行路１４６巷２０弄４號","OBJECTID":93335},"geometry":{"x":171389.95999999996,"y":2549304.4200000018}},{"attributes":{"ID":93336,"DIS_CODE":0,"TOWNNAME":"東區","LI":"新東里","LIN":"10鄰","STREET":"衛國街","SECT":" ","MAREA":" ","LANE":"１０６巷","ALLEY":"２９弄","HOUSE_NO":"４號","E_COORD97":170415.73999999999,"N_COORD97":2542977.9500000002,"ADDRESS":"衛國街１０６巷２９弄４號","OBJECTID":93336},"geometry":{"x":170415.74000000209,"y":2542977.9499999993}},{"attributes":{"ID":93337,"DIS_CODE":0,"TOWNNAME":"歸仁區","LI":"歸南里","LIN":"15鄰","STREET":"民生南街","SECT":"二段","MAREA":" ","LANE":" ","ALLEY":" ","HOUSE_NO":"３８１號","E_COORD97":176138.76000000001,"N_COORD97":2539777.25,"ADDRESS":"民生南街二段３８１號","OBJECTID":93337},"geometry":{"x":176138.76000000071,"y":2539777.25}},{"attributes":{"ID":93338,"DIS_CODE":0,"TOWNNAME":"新市區","LI":"社內里","LIN":"10鄰","STREET":" ","SECT":" ","MAREA":"社內","LANE":" ","ALLEY":" ","HOUSE_NO":"１０２之１０號","E_COORD97":176261.26000000001,"N_COORD97":2552863.0499999998,"ADDRESS":"社內１０２之１０號","OBJECTID":93338},"geometry":{"x":176261.25999999978,"y":2552863.0500000007}},{"attributes":{"ID":93339,"DIS_CODE":0,"TOWNNAME":"新市區","LI":"永就里","LIN":"10鄰","STREET":" ","SECT":" ","MAREA":"永就","LANE":" ","ALLEY":" ","HOUSE_NO":"１３６號","E_COORD97":177242.20000000001,"N_COORD97":2551400.25,"ADDRESS":"永就１３６號","OBJECTID":93339},"geometry":{"x":177242.20000000019,"y":2551400.2500000037}},{"attributes":{"ID":93340,"DIS_CODE":0,"TOWNNAME":"新市區","LI":"永就里","LIN":"10鄰","STREET":" ","SECT":" ","MAREA":"永就","LANE":" ","ALLEY":" ","HOUSE_NO":"１３９之２７號","E_COORD97":177186.26000000001,"N_COORD97":2551391.0499999998,"ADDRESS":"永就１３９之２７號","OBJECTID":93340},"geometry":{"x":177186.26000000071,"y":2551391.0500000007}},{"attributes":{"ID":93341,"DIS_CODE":0,"TOWNNAME":"新市區","LI":"港墘里","LIN":"10鄰","STREET":" ","SECT":" ","MAREA":"崙頂","LANE":" ","ALLEY":" ","HOUSE_NO":"５４號","E_COORD97":178847.67999999999,"N_COORD97":2552637,"ADDRESS":"崙頂５４號","OBJECTID":93341},"geometry":{"x":178847.68000000063,"y":2552637.0000000019}},{"attributes":{"ID":93342,"DIS_CODE":0,"TOWNNAME":"新市區","LI":"大營里","LIN":"10鄰","STREET":" ","SECT":" ","MAREA":"大營","LANE":" ","ALLEY":" ","HOUSE_NO":"２１１之２１號","E_COORD97":179072.34,"N_COORD97":2555855.7999999998,"ADDRESS":"大營２１１之２１號","OBJECTID":93342},"geometry":{"x":179072.34000000078,"y":2555855.8000000026}},{"attributes":{"ID":93343,"DIS_CODE":0,"TOWNNAME":"新市區","LI":"永就里","LIN":"10鄰","STREET":" ","SECT":" ","MAREA":"永就","LANE":" ","ALLEY":" ","HOUSE_NO":"１０９號","E_COORD97":177451.51000000001,"N_COORD97":2551586.75,"ADDRESS":"永就１０９號","OBJECTID":93343},"geometry":{"x":177451.50999999978,"y":2551586.7500000037}},{"attributes":{"ID":93344,"DIS_CODE":0,"TOWNNAME":"新市區","LI":"港墘里","LIN":"10鄰","STREET":" ","SECT":" ","MAREA":"崙頂","LANE":" ","ALLEY":" ","HOUSE_NO":"２０號","E_COORD97":178971.98000000001,"N_COORD97":2552581.25,"ADDRESS":"崙頂２０號","OBJECTID":93344},"geometry":{"x":178971.98000000138,"y":2552581.2500000019}},{"attributes":{"ID":93345,"DIS_CODE":0,"TOWNNAME":"新市區","LI":"社內里","LIN":"10鄰","STREET":" ","SECT":" ","MAREA":"社內","LANE":" ","ALLEY":" ","HOUSE_NO":"１０２之１３號","E_COORD97":176266,"N_COORD97":2552850.5499999998,"ADDRESS":"社內１０２之１３號","OBJECTID":93345},"geometry":{"x":176266.00000000093,"y":2552850.5500000026}},{"attributes":{"ID":93346,"DIS_CODE":0,"TOWNNAME":"新市區","LI":"社內里","LIN":"10鄰","STREET":" ","SECT":" ","MAREA":"社內","LANE":" ","ALLEY":" ","HOUSE_NO":"１０２之１１號","E_COORD97":176262.97,"N_COORD97":2552859.0499999998,"ADDRESS":"社內１０２之１１號","OBJECTID":93346},"geometry":{"x":176262.96999999974,"y":2552859.0500000007}},{"attributes":{"ID":93347,"DIS_CODE":0,"TOWNNAME":"新市區","LI":"港墘里","LIN":"10鄰","STREET":" ","SECT":" ","MAREA":"崙頂","LANE":" ","ALLEY":" ","HOUSE_NO":"５０之１號","E_COORD97":178817.48999999999,"N_COORD97":2552628.5499999998,"ADDRESS":"崙頂５０之１號","OBJECTID":93347},"geometry":{"x":178817.49000000115,"y":2552628.5500000007}},{"attributes":{"ID":93348,"DIS_CODE":0,"TOWNNAME":"東區","LI":"新東里","LIN":"10鄰","STREET":"衛國街","SECT":" ","MAREA":" ","LANE":"１０６巷","ALLEY":"２９弄","HOUSE_NO":"５號","E_COORD97":170422.97,"N_COORD97":2542994.1600000001,"ADDRESS":"衛國街１０６巷２９弄５號","OBJECTID":93348},"geometry":{"x":170422.96999999974,"y":2542994.160000002}},{"attributes":{"ID":93349,"DIS_CODE":0,"TOWNNAME":"東區","LI":"新東里","LIN":"10鄰","STREET":"衛國街","SECT":" ","MAREA":" ","LANE":"１０６巷","ALLEY":"２９弄","HOUSE_NO":"６號","E_COORD97":170419.75,"N_COORD97":2542978.4199999999,"ADDRESS":"衛國街１０６巷２９弄６號","OBJECTID":93349},"geometry":{"x":170419.75,"y":2542978.4200000018}},{"attributes":{"ID":93350,"DIS_CODE":0,"TOWNNAME":"東區","LI":"新東里","LIN":"10鄰","STREET":"衛國街","SECT":" ","MAREA":" ","LANE":"１０６巷","ALLEY":"２９弄","HOUSE_NO":"７號","E_COORD97":170427.16,"N_COORD97":2542994.1600000001,"ADDRESS":"衛國街１０６巷２９弄７號","OBJECTID":93350},"geometry":{"x":170427.16000000015,"y":2542994.160000002}},{"attributes":{"ID":93351,"DIS_CODE":0,"TOWNNAME":"東區","LI":"新東里","LIN":"10鄰","STREET":"衛國街","SECT":" ","MAREA":" ","LANE":"１０６巷","ALLEY":"２９弄","HOUSE_NO":"９號","E_COORD97":170430.95999999999,"N_COORD97":2542994.1899999999,"ADDRESS":"衛國街１０６巷２９弄９號","OBJECTID":93351},"geometry":{"x":170430.96000000183,"y":2542994.1899999995}},{"attributes":{"ID":93352,"DIS_CODE":0,"TOWNNAME":"永康區","LI":"\u25A0洲里","LIN":"10鄰","STREET":"\u25A0行路","SECT":" ","MAREA":" ","LANE":"１００巷","ALLEY":"４０弄","HOUSE_NO":"３號","E_COORD97":171448.82999999999,"N_COORD97":2549380.1099999999,"ADDRESS":"\u25A0行路１００巷４０弄３號","OBJECTID":93352},"geometry":{"x":171448.82999999914,"y":2549380.1100000013}},{"attributes":{"ID":93353,"DIS_CODE":0,"TOWNNAME":"永康區","LI":"\u25A0洲里","LIN":"10鄰","STREET":"\u25A0行路","SECT":" ","MAREA":" ","LANE":"１００巷","ALLEY":"４０弄","HOUSE_NO":"６號","E_COORD97":171465.42999999999,"N_COORD97":2549379.9900000002,"ADDRESS":"\u25A0行路１００巷４０弄６號","OBJECTID":93353},"geometry":{"x":171465.43000000063,"y":2549379.9900000002}},{"attributes":{"ID":93354,"DIS_CODE":0,"TOWNNAME":"永康區","LI":"\u25A0洲里","LIN":"10鄰","STREET":"\u25A0行路","SECT":" ","MAREA":" ","LANE":"１００巷","ALLEY":"４０弄","HOUSE_NO":"１１號","E_COORD97":171464.22,"N_COORD97":2549393.4900000002,"ADDRESS":"\u25A0行路１００巷４０弄１１號","OBJECTID":93354},"geometry":{"x":171464.21999999974,"y":2549393.4900000002}},{"attributes":{"ID":93355,"DIS_CODE":0,"TOWNNAME":"北區","LI":"大豐里","LIN":"21鄰","STREET":"大興街","SECT":" ","MAREA":" ","LANE":"２８５巷","ALLEY":"３９弄","HOUSE_NO":"１號","E_COORD97":166709.92999999999,"N_COORD97":2545580.71,"ADDRESS":"大興街２８５巷３９弄１號","OBJECTID":93355},"geometry":{"x":166709.93000000156,"y":2545580.7100000028}},{"attributes":{"ID":93356,"DIS_CODE":0,"TOWNNAME":"北區","LI":"大豐里","LIN":"21鄰","STREET":"大興街","SECT":" ","MAREA":" ","LANE":"２８５巷","ALLEY":"３９弄","HOUSE_NO":"１０號","E_COORD97":166724.79000000001,"N_COORD97":2545564.46,"ADDRESS":"大興街２８５巷３９弄１０號","OBJECTID":93356},"geometry":{"x":166724.7900000019,"y":2545564.459999999}},{"attributes":{"ID":93357,"DIS_CODE":0,"TOWNNAME":"北區","LI":"大豐里","LIN":"21鄰","STREET":"大興街","SECT":" ","MAREA":" ","LANE":"２８５巷","ALLEY":"３９弄","HOUSE_NO":"１２號","E_COORD97":166728.47,"N_COORD97":2545564.3300000001,"ADDRESS":"大興街２８５巷３９弄１２號","OBJECTID":93357},"geometry":{"x":166728.47000000067,"y":2545564.3300000001}},{"attributes":{"ID":93358,"DIS_CODE":0,"TOWNNAME":"新市區","LI":"港墘里","LIN":"10鄰","STREET":" ","SECT":" ","MAREA":"崙頂","LANE":" ","ALLEY":" ","HOUSE_NO":"２５之１號","E_COORD97":178907.70999999999,"N_COORD97":2552613.7999999998,"ADDRESS":"崙頂２５之１號","OBJECTID":93358},"geometry":{"x":178907.70999999996,"y":2552613.8000000007}},{"attributes":{"ID":93359,"DIS_CODE":0,"TOWNNAME":"歸仁區","LI":"大廟里","LIN":"21鄰","STREET":"保大路","SECT":"三段","MAREA":" ","LANE":"４０１巷","ALLEY":"１０５弄","HOUSE_NO":"２７號","E_COORD97":175638.20000000001,"N_COORD97":2544152.98,"ADDRESS":"保大路三段４０１巷１０５弄２７號","OBJECTID":93359},"geometry":{"x":175638.20000000019,"y":2544152.9800000004}},{"attributes":{"ID":93360,"DIS_CODE":0,"TOWNNAME":"南區","LI":"南華里","LIN":"21鄰","STREET":"中華南路","SECT":"二段","MAREA":" ","LANE":"３０２巷","ALLEY":"２弄","HOUSE_NO":"１號","E_COORD97":166662.19,"N_COORD97":2540333.8300000001,"ADDRESS":"中華南路二段３０２巷２弄１號","OBJECTID":93360},"geometry":{"x":166662.19000000134,"y":2540333.8300000019}},{"attributes":{"ID":93361,"DIS_CODE":0,"TOWNNAME":"新市區","LI":"港墘里","LIN":"10鄰","STREET":" ","SECT":" ","MAREA":"崙頂","LANE":" ","ALLEY":" ","HOUSE_NO":"２１號","E_COORD97":178917.14999999999,"N_COORD97":2552598.75,"ADDRESS":"崙頂２１號","OBJECTID":93361},"geometry":{"x":178917.15000000037,"y":2552598.75}},{"attributes":{"ID":93362,"DIS_CODE":0,"TOWNNAME":"南區","LI":"南華里","LIN":"21鄰","STREET":"中華南路","SECT":"二段","MAREA":" ","LANE":"３０２巷","ALLEY":"２弄","HOUSE_NO":"３號","E_COORD97":166670.51000000001,"N_COORD97":2540333.8300000001,"ADDRESS":"中華南路二段３０２巷２弄３號","OBJECTID":93362},"geometry":{"x":166670.51000000164,"y":2540333.8300000019}},{"attributes":{"ID":93363,"DIS_CODE":0,"TOWNNAME":"南區","LI":"南華里","LIN":"21鄰","STREET":"中華南路","SECT":"二段","MAREA":" ","LANE":"３０２巷","ALLEY":"２弄","HOUSE_NO":"５號","E_COORD97":166678.95000000001,"N_COORD97":2540334.1800000002,"ADDRESS":"中華南路二段３０２巷２弄５號","OBJECTID":93363},"geometry":{"x":166678.95000000019,"y":2540334.1800000034}},{"attributes":{"ID":93364,"DIS_CODE":0,"TOWNNAME":"南區","LI":"南華里","LIN":"21鄰","STREET":"中華南路","SECT":"二段","MAREA":" ","LANE":"３０２巷","ALLEY":"２弄","HOUSE_NO":"７號","E_COORD97":166687.87,"N_COORD97":2540334.4199999999,"ADDRESS":"中華南路二段３０２巷２弄７號","OBJECTID":93364},"geometry":{"x":166687.87000000011,"y":2540334.4199999999}},{"attributes":{"ID":93365,"DIS_CODE":0,"TOWNNAME":"北區","LI":"大豐里","LIN":"21鄰","STREET":"大興街","SECT":" ","MAREA":" ","LANE":"２８５巷","ALLEY":"２６弄","HOUSE_NO":"２號","E_COORD97":166689.23999999999,"N_COORD97":2545604.8999999999,"ADDRESS":"大興街２８５巷２６弄２號","OBJECTID":93365},"geometry":{"x":166689.24000000022,"y":2545604.9000000004}},{"attributes":{"ID":93366,"DIS_CODE":0,"TOWNNAME":"北區","LI":"大豐里","LIN":"21鄰","STREET":"大興街","SECT":" ","MAREA":" ","LANE":"２８５巷","ALLEY":"２６弄","HOUSE_NO":"６號","E_COORD97":166678.14999999999,"N_COORD97":2545605.0600000001,"ADDRESS":"大興街２８５巷２６弄６號","OBJECTID":93366},"geometry":{"x":166678.15000000037,"y":2545605.0600000024}},{"attributes":{"ID":93367,"DIS_CODE":0,"TOWNNAME":"北區","LI":"大豐里","LIN":"21鄰","STREET":"大興街","SECT":" ","MAREA":" ","LANE":"２８５巷","ALLEY":"２６弄","HOUSE_NO":"８號","E_COORD97":166673.47,"N_COORD97":2545605.1400000001,"ADDRESS":"大興街２８５巷２６弄８號","OBJECTID":93367},"geometry":{"x":166673.46999999974,"y":2545605.1400000025}},{"attributes":{"ID":93368,"DIS_CODE":0,"TOWNNAME":"新營區","LI":"南紙里","LIN":"21鄰","STREET":"建業路","SECT":" ","MAREA":" ","LANE":"２２７巷","ALLEY":"１６弄","HOUSE_NO":"４２號","E_COORD97":178017.20000000001,"N_COORD97":2577433.79,"ADDRESS":"建業路２２７巷１６弄４２號","OBJECTID":93368},"geometry":{"x":178017.20000000205,"y":2577433.7900000028}},{"attributes":{"ID":93369,"DIS_CODE":0,"TOWNNAME":"歸仁區","LI":"媽廟里","LIN":"15鄰","STREET":"媽廟二街","SECT":" ","MAREA":" ","LANE":" ","ALLEY":" ","HOUSE_NO":"１９號","E_COORD97":177668.23000000001,"N_COORD97":2543740.7200000002,"ADDRESS":"媽廟二街１９號","OBJECTID":93369},"geometry":{"x":177668.23000000138,"y":2543740.7200000007}},{"attributes":{"ID":93370,"DIS_CODE":0,"TOWNNAME":"歸仁區","LI":"歸南里","LIN":"15鄰","STREET":"民生十一街","SECT":" ","MAREA":" ","LANE":" ","ALLEY":" ","HOUSE_NO":"４０號","E_COORD97":176210.85999999999,"N_COORD97":2539730.25,"ADDRESS":"民生十一街４０號","OBJECTID":93370},"geometry":{"x":176210.8600000022,"y":2539730.2500000037}},{"attributes":{"ID":93371,"DIS_CODE":0,"TOWNNAME":"歸仁區","LI":"歸南里","LIN":"15鄰","STREET":"民生南街","SECT":"二段","MAREA":" ","LANE":" ","ALLEY":" ","HOUSE_NO":"３７９號","E_COORD97":176137.76000000001,"N_COORD97":2539780.25,"ADDRESS":"民生南街二段３７９號","OBJECTID":93371},"geometry":{"x":176137.75999999978,"y":2539780.25}},{"attributes":{"ID":93372,"DIS_CODE":0,"TOWNNAME":"新市區","LI":"港墘里","LIN":"10鄰","STREET":" ","SECT":" ","MAREA":"崙頂","LANE":" ","ALLEY":" ","HOUSE_NO":"２７之９號","E_COORD97":178900.92999999999,"N_COORD97":2552585.2999999998,"ADDRESS":"崙頂２７之９號","OBJECTID":93372},"geometry":{"x":178900.9299999997,"y":2552585.3000000026}},{"attributes":{"ID":93373,"DIS_CODE":0,"TOWNNAME":"新市區","LI":"永就里","LIN":"10鄰","STREET":" ","SECT":" ","MAREA":"永就","LANE":" ","ALLEY":" ","HOUSE_NO":"１１１號","E_COORD97":177438.14999999999,"N_COORD97":2551587.5,"ADDRESS":"永就１１１號","OBJECTID":93373},"geometry":{"x":177438.1500000013,"y":2551587.5}},{"attributes":{"ID":93374,"DIS_CODE":0,"TOWNNAME":"歸仁區","LI":"許厝里","LIN":"15鄰","STREET":"仁愛六街","SECT":" ","MAREA":" ","LANE":" ","ALLEY":" ","HOUSE_NO":"４７號","E_COORD97":178203.44,"N_COORD97":2540777.5600000001,"ADDRESS":"仁愛六街４７號","OBJECTID":93374},"geometry":{"x":178203.44000000041,"y":2540777.5600000024}},{"attributes":{"ID":93375,"DIS_CODE":0,"TOWNNAME":"歸仁區","LI":"許厝里","LIN":"15鄰","STREET":"仁愛六街","SECT":" ","MAREA":" ","LANE":" ","ALLEY":" ","HOUSE_NO":"１號","E_COORD97":178280.09,"N_COORD97":2540767.5600000001,"ADDRESS":"仁愛六街１號","OBJECTID":93375},"geometry":{"x":178280.08999999985,"y":2540767.5600000024}},{"attributes":{"ID":93376,"DIS_CODE":0,"TOWNNAME":"新市區","LI":"永就里","LIN":"10鄰","STREET":" ","SECT":" ","MAREA":"永就","LANE":" ","ALLEY":" ","HOUSE_NO":"１３９之２６號","E_COORD97":177190.45000000001,"N_COORD97":2551392.5499999998,"ADDRESS":"永就１３９之２６號","OBJECTID":93376},"geometry":{"x":177190.45000000112,"y":2551392.5500000026}},{"attributes":{"ID":93377,"DIS_CODE":0,"TOWNNAME":"新市區","LI":"永就里","LIN":"10鄰","STREET":" ","SECT":" ","MAREA":"永就","LANE":" ","ALLEY":" ","HOUSE_NO":"１３９之９號","E_COORD97":177197.81,"N_COORD97":2551382.5499999998,"ADDRESS":"永就１３９之９號","OBJECTID":93377},"geometry":{"x":177197.81000000052,"y":2551382.5500000026}},{"attributes":{"ID":93378,"DIS_CODE":0,"TOWNNAME":"佳里區","LI":"六安里","LIN":"10鄰","STREET":" ","SECT":" ","MAREA":"六安","LANE":" ","ALLEY":" ","HOUSE_NO":"７１號之３","E_COORD97":165946.12,"N_COORD97":2563077.9500000002,"ADDRESS":"六安７１號之３","OBJECTID":93378},"geometry":{"x":165946.12000000197,"y":2563077.950000003}},{"attributes":{"ID":93379,"DIS_CODE":0,"TOWNNAME":"新營區","LI":"南紙里","LIN":"21鄰","STREET":"建業路","SECT":" ","MAREA":" ","LANE":"２２７巷","ALLEY":"２弄","HOUSE_NO":"２５號","E_COORD97":178044.95999999999,"N_COORD97":2577464.6600000001,"ADDRESS":"建業路２２７巷２弄２５號","OBJECTID":93379},"geometry":{"x":178044.95999999996,"y":2577464.6600000001}},{"attributes":{"ID":93380,"DIS_CODE":0,"TOWNNAME":"新營區","LI":"南紙里","LIN":"21鄰","STREET":"建業路","SECT":" ","MAREA":" ","LANE":"２２７巷","ALLEY":"２０弄","HOUSE_NO":"９號","E_COORD97":178088.29999999999,"N_COORD97":2577400.2200000002,"ADDRESS":"建業路２２７巷２０弄９號","OBJECTID":93380},"geometry":{"x":178088.29999999981,"y":2577400.2200000007}},{"attributes":{"ID":93381,"DIS_CODE":0,"TOWNNAME":"新營區","LI":"南紙里","LIN":"21鄰","STREET":"建業路","SECT":" ","MAREA":" ","LANE":"２２７巷","ALLEY":"２０弄","HOUSE_NO":"４１號","E_COORD97":178015.03,"N_COORD97":2577406.1099999999,"ADDRESS":"建業路２２７巷２０弄４１號","OBJECTID":93381},"geometry":{"x":178015.03000000212,"y":2577406.1100000013}},{"attributes":{"ID":93382,"DIS_CODE":0,"TOWNNAME":"七股區","LI":"十份里","LIN":"10鄰","STREET":" ","SECT":" ","MAREA":"十份","LANE":" ","ALLEY":" ","HOUSE_NO":"１０４號","E_COORD97":156458.98999999999,"N_COORD97":2555131.8999999999,"ADDRESS":"十份１０４號","OBJECTID":93382},"geometry":{"x":156458.99000000022,"y":2555131.9000000004}},{"attributes":{"ID":93383,"DIS_CODE":0,"TOWNNAME":"南區","LI":"府南里","LIN":"21鄰","STREET":"大成路","SECT":"二段","MAREA":" ","LANE":"１４３巷","ALLEY":"５弄","HOUSE_NO":"３號","E_COORD97":167323.26999999999,"N_COORD97":2541685.9100000001,"ADDRESS":"大成路二段１４３巷５弄３號","OBJECTID":93383},"geometry":{"x":167323.27000000048,"y":2541685.9100000039}},{"attributes":{"ID":93384,"DIS_CODE":0,"TOWNNAME":"七股區","LI":"十份里","LIN":"10鄰","STREET":" ","SECT":" ","MAREA":"十份","LANE":" ","ALLEY":" ","HOUSE_NO":"１１３號","E_COORD97":154861.66,"N_COORD97":2554596.6200000001,"ADDRESS":"十份１１３號","OBJECTID":93384},"geometry":{"x":154861.66000000108,"y":2554596.6200000029}},{"attributes":{"ID":93385,"DIS_CODE":0,"TOWNNAME":"南區","LI":"府南里","LIN":"21鄰","STREET":"大成路","SECT":"二段","MAREA":" ","LANE":"１４３巷","ALLEY":"５弄","HOUSE_NO":"５號","E_COORD97":167334.17000000001,"N_COORD97":2541683.7799999998,"ADDRESS":"大成路二段１４３巷５弄５號","OBJECTID":93385},"geometry":{"x":167334.17000000086,"y":2541683.7800000012}},{"attributes":{"ID":93386,"DIS_CODE":0,"TOWNNAME":"南區","LI":"府南里","LIN":"21鄰","STREET":"大成路","SECT":"二段","MAREA":" ","LANE":"１４３巷","ALLEY":"５弄","HOUSE_NO":"７號","E_COORD97":167339.94,"N_COORD97":2541681.4900000002,"ADDRESS":"大成路二段１４３巷５弄７號","OBJECTID":93386},"geometry":{"x":167339.94000000134,"y":2541681.4900000002}},{"attributes":{"ID":93387,"DIS_CODE":0,"TOWNNAME":"鹽水區","LI":"飯店里","LIN":"9鄰","STREET":" ","SECT":" ","MAREA":"竹圍","LANE":" ","ALLEY":" ","HOUSE_NO":"３號","E_COORD97":168293.51000000001,"N_COORD97":2573524.8199999998,"ADDRESS":"竹圍３號","OBJECTID":93387},"geometry":{"x":168293.51000000071,"y":2573524.8200000003}},{"attributes":{"ID":93388,"DIS_CODE":0,"TOWNNAME":"七股區","LI":"十份里","LIN":"10鄰","STREET":" ","SECT":" ","MAREA":"十份","LANE":" ","ALLEY":" ","HOUSE_NO":"１１４號之１","E_COORD97":155356.29000000001,"N_COORD97":2555040.8100000001,"ADDRESS":"十份１１４號之１","OBJECTID":93388},"geometry":{"x":155356.29000000004,"y":2555040.8100000005}},{"attributes":{"ID":93389,"DIS_CODE":0,"TOWNNAME":"七股區","LI":"十份里","LIN":"10鄰","STREET":" ","SECT":" ","MAREA":"十份","LANE":" ","ALLEY":" ","HOUSE_NO":"１１４號","E_COORD97":155057.42000000001,"N_COORD97":2555140.54,"ADDRESS":"十份１１４號","OBJECTID":93389},"geometry":{"x":155057.42000000179,"y":2555140.540000001}},{"attributes":{"ID":93390,"DIS_CODE":0,"TOWNNAME":"七股區","LI":"十份里","LIN":"10鄰","STREET":" ","SECT":" ","MAREA":"十份","LANE":" ","ALLEY":" ","HOUSE_NO":"１１７號","E_COORD97":156541.51999999999,"N_COORD97":2555937.1499999999,"ADDRESS":"十份１１７號","OBJECTID":93390},"geometry":{"x":156541.52000000048,"y":2555937.1499999985}},{"attributes":{"ID":93391,"DIS_CODE":0,"TOWNNAME":"七股區","LI":"三股里","LIN":"10鄰","STREET":" ","SECT":" ","MAREA":"三股","LANE":" ","ALLEY":" ","HOUSE_NO":"１０９號之１","E_COORD97":158450.17999999999,"N_COORD97":2555914.0499999998,"ADDRESS":"三股１０９號之１","OBJECTID":93391},"geometry":{"x":158450.1799999997,"y":2555914.0500000007}},{"attributes":{"ID":93392,"DIS_CODE":0,"TOWNNAME":"南區","LI":"田寮里","LIN":"21鄰","STREET":"西門路","SECT":"一段","MAREA":" ","LANE":"２７９巷","ALLEY":"１６弄","HOUSE_NO":"１４號","E_COORD97":167642.45000000001,"N_COORD97":2542022.2000000002,"ADDRESS":"西門路一段２７９巷１６弄１４號","OBJECTID":93392},"geometry":{"x":167642.44999999925,"y":2542022.2000000011}},{"attributes":{"ID":93393,"DIS_CODE":0,"TOWNNAME":"七股區","LI":"三股里","LIN":"10鄰","STREET":" ","SECT":" ","MAREA":"三股","LANE":" ","ALLEY":" ","HOUSE_NO":"１０９號","E_COORD97":158443.60000000001,"N_COORD97":2555994.04,"ADDRESS":"三股１０９號","OBJECTID":93393},"geometry":{"x":158443.60000000056,"y":2555994.0399999991}},{"attributes":{"ID":93394,"DIS_CODE":0,"TOWNNAME":"七股區","LI":"三股里","LIN":"10鄰","STREET":" ","SECT":" ","MAREA":"三股","LANE":" ","ALLEY":" ","HOUSE_NO":"１１０號之１","E_COORD97":158402.29999999999,"N_COORD97":2555756.1699999999,"ADDRESS":"三股１１０號之１","OBJECTID":93394},"geometry":{"x":158402.29999999981,"y":2555756.1699999999}},{"attributes":{"ID":93395,"DIS_CODE":0,"TOWNNAME":"七股區","LI":"三股里","LIN":"10鄰","STREET":" ","SECT":" ","MAREA":"三股","LANE":" ","ALLEY":" ","HOUSE_NO":"１１０號之５","E_COORD97":158455.17999999999,"N_COORD97":2555859.79,"ADDRESS":"三股１１０號之５","OBJECTID":93395},"geometry":{"x":158455.1799999997,"y":2555859.7899999991}},{"attributes":{"ID":93396,"DIS_CODE":0,"TOWNNAME":"南區","LI":"田寮里","LIN":"21鄰","STREET":"西門路","SECT":"一段","MAREA":" ","LANE":"２７９巷","ALLEY":"１６弄","HOUSE_NO":"１６號","E_COORD97":167640.95999999999,"N_COORD97":2542032.6299999999,"ADDRESS":"西門路一段２７９巷１６弄１６號","OBJECTID":93396},"geometry":{"x":167640.96000000089,"y":2542032.6300000008}},{"attributes":{"ID":93397,"DIS_CODE":0,"TOWNNAME":"南區","LI":"田寮里","LIN":"21鄰","STREET":"西門路","SECT":"一段","MAREA":" ","LANE":"２７９巷","ALLEY":"１６弄","HOUSE_NO":"１８號","E_COORD97":167637.73000000001,"N_COORD97":2542046.5299999998,"ADDRESS":"西門路一段２７９巷１６弄１８號","OBJECTID":93397},"geometry":{"x":167637.73000000138,"y":2542046.5299999975}},{"attributes":{"ID":93398,"DIS_CODE":0,"TOWNNAME":"南區","LI":"田寮里","LIN":"21鄰","STREET":"西門路","SECT":"一段","MAREA":" ","LANE":"２７９巷","ALLEY":"１６弄","HOUSE_NO":"２０號","E_COORD97":167626.04999999999,"N_COORD97":2542048.5099999998,"ADDRESS":"西門路一段２７９巷１６弄２０號","OBJECTID":93398},"geometry":{"x":167626.04999999981,"y":2542048.5100000016}},{"attributes":{"ID":93399,"DIS_CODE":0,"TOWNNAME":"南區","LI":"田寮里","LIN":"21鄰","STREET":"西門路","SECT":"一段","MAREA":" ","LANE":"２７９巷","ALLEY":"１６弄","HOUSE_NO":"２號","E_COORD97":167661.82999999999,"N_COORD97":2541944.77,"ADDRESS":"西門路一段２７９巷１６弄２號","OBJECTID":93399},"geometry":{"x":167661.82999999914,"y":2541944.7700000014}},{"attributes":{"ID":93400,"DIS_CODE":0,"TOWNNAME":"南區","LI":"田寮里","LIN":"21鄰","STREET":"西門路","SECT":"一段","MAREA":" ","LANE":"２７９巷","ALLEY":"１６弄","HOUSE_NO":"４號","E_COORD97":167659.59,"N_COORD97":2541955.6099999999,"ADDRESS":"西門路一段２７９巷１６弄４號","OBJECTID":93400},"geometry":{"x":167659.58999999985,"y":2541955.6100000013}}]}