{"displayFieldName":"TOWNNAME","fieldAliases":{"ID":"ID","DIS_CODE":"DIS_CODE","TOWNNAME":"TOWNNAME","LI":"LI","LIN":"LIN","STREET":"STREET","SECT":"SECT","MAREA":"MAREA","LANE":"LANE","ALLEY":"ALLEY","HOUSE_NO":"HOUSE_NO","E_COORD97":"E_COORD97","N_COORD97":"N_COORD97","ADDRESS":"ADDRESS","OBJECTID":"OBJECTID"},"geometryType":"esriGeometryPoint","spatialReference":{"wkid":102443,"latestWkid":3826},"fields":[{"name":"ID","type":"esriFieldTypeDouble","alias":"ID"},{"name":"DIS_CODE","type":"esriFieldTypeInteger","alias":"DIS_CODE"},{"name":"TOWNNAME","type":"esriFieldTypeString","alias":"TOWNNAME","length":8},{"name":"LI","type":"esriFieldTypeString","alias":"LI","length":8},{"name":"LIN","type":"esriFieldTypeString","alias":"LIN","length":12},{"name":"STREET","type":"esriFieldTypeString","alias":"STREET","length":20},{"name":"SECT","type":"esriFieldTypeString","alias":"SECT","length":8},{"name":"MAREA","type":"esriFieldTypeString","alias":"MAREA","length":12},{"name":"LANE","type":"esriFieldTypeString","alias":"LANE","length":10},{"name":"ALLEY","type":"esriFieldTypeString","alias":"ALLEY","length":10},{"name":"HOUSE_NO","type":"esriFieldTypeString","alias":"HOUSE_NO","length":20},{"name":"E_COORD97","type":"esriFieldTypeDouble","alias":"E_COORD97"},{"name":"N_COORD97","type":"esriFieldTypeDouble","alias":"N_COORD97"},{"name":"ADDRESS","type":"esriFieldTypeString","alias":"ADDRESS","length":50},{"name":"OBJECTID","type":"esriFieldTypeOID","alias":"OBJECTID"}],"features":[{"attributes":{"ID":441626,"DIS_CODE":0,"TOWNNAME":"永康區","LI":"東灣里","LIN":"36鄰","STREET":"民族路","SECT":" ","MAREA":" ","LANE":"２７３巷","ALLEY":" ","HOUSE_NO":"３３號六樓之３","E_COORD97":175060.62,"N_COORD97":2544926.4500000002,"ADDRESS":"民族路２７３巷３３號六樓之３","OBJECTID":441601},"geometry":{"x":175060.62000000011,"y":2544926.4500000011}},{"attributes":{"ID":441627,"DIS_CODE":0,"TOWNNAME":"永康區","LI":"東灣里","LIN":"36鄰","STREET":"民族路","SECT":" ","MAREA":" ","LANE":"２７３巷","ALLEY":" ","HOUSE_NO":"３１號六樓之１","E_COORD97":175063.87,"N_COORD97":2544931.2000000002,"ADDRESS":"民族路２７３巷３１號六樓之１","OBJECTID":441602},"geometry":{"x":175063.87000000011,"y":2544931.2000000011}},{"attributes":{"ID":441628,"DIS_CODE":0,"TOWNNAME":"永康區","LI":"東灣里","LIN":"36鄰","STREET":"民族路","SECT":" ","MAREA":" ","LANE":"２７３巷","ALLEY":" ","HOUSE_NO":"３１號九樓之２","E_COORD97":175064.01000000001,"N_COORD97":2544931.2000000002,"ADDRESS":"民族路２７３巷３１號九樓之２","OBJECTID":441603},"geometry":{"x":175064.01000000071,"y":2544931.2000000011}},{"attributes":{"ID":441629,"DIS_CODE":0,"TOWNNAME":"永康區","LI":"東灣里","LIN":"36鄰","STREET":"民族路","SECT":" ","MAREA":" ","LANE":"２７３巷","ALLEY":" ","HOUSE_NO":"３３號四樓之３","E_COORD97":175060.62,"N_COORD97":2544926.4500000002,"ADDRESS":"民族路２７３巷３３號四樓之３","OBJECTID":441604},"geometry":{"x":175060.62000000011,"y":2544926.4500000011}},{"attributes":{"ID":441630,"DIS_CODE":0,"TOWNNAME":"永康區","LI":"東灣里","LIN":"36鄰","STREET":"民族路","SECT":" ","MAREA":" ","LANE":"２７３巷","ALLEY":" ","HOUSE_NO":"３３號五樓之３","E_COORD97":175060.62,"N_COORD97":2544926.4500000002,"ADDRESS":"民族路２７３巷３３號五樓之３","OBJECTID":441605},"geometry":{"x":175060.62000000011,"y":2544926.4500000011}},{"attributes":{"ID":441631,"DIS_CODE":0,"TOWNNAME":"永康區","LI":"東灣里","LIN":"36鄰","STREET":"民族路","SECT":" ","MAREA":" ","LANE":"２７３巷","ALLEY":" ","HOUSE_NO":"３１號九樓之１","E_COORD97":175063.87,"N_COORD97":2544931.2000000002,"ADDRESS":"民族路２７３巷３１號九樓之１","OBJECTID":441606},"geometry":{"x":175063.87000000011,"y":2544931.2000000011}},{"attributes":{"ID":441632,"DIS_CODE":0,"TOWNNAME":"永康區","LI":"東灣里","LIN":"36鄰","STREET":"民族路","SECT":" ","MAREA":" ","LANE":"２７３巷","ALLEY":" ","HOUSE_NO":"３１號八樓之２","E_COORD97":175064.01000000001,"N_COORD97":2544931.2000000002,"ADDRESS":"民族路２７３巷３１號八樓之２","OBJECTID":441607},"geometry":{"x":175064.01000000071,"y":2544931.2000000011}},{"attributes":{"ID":441633,"DIS_CODE":0,"TOWNNAME":"永康區","LI":"東灣里","LIN":"36鄰","STREET":"民族路","SECT":" ","MAREA":" ","LANE":"２７３巷","ALLEY":" ","HOUSE_NO":"３３號六樓之１","E_COORD97":175060.51999999999,"N_COORD97":2544926.4500000002,"ADDRESS":"民族路２７３巷３３號六樓之１","OBJECTID":441608},"geometry":{"x":175060.51999999955,"y":2544926.4500000011}},{"attributes":{"ID":441634,"DIS_CODE":0,"TOWNNAME":"永康區","LI":"東灣里","LIN":"36鄰","STREET":"民族路","SECT":" ","MAREA":" ","LANE":"２７３巷","ALLEY":" ","HOUSE_NO":"３３號七樓之２","E_COORD97":175060.66,"N_COORD97":2544926.4500000002,"ADDRESS":"民族路２７３巷３３號七樓之２","OBJECTID":441609},"geometry":{"x":175060.66000000015,"y":2544926.4500000011}},{"attributes":{"ID":441635,"DIS_CODE":0,"TOWNNAME":"永康區","LI":"東灣里","LIN":"36鄰","STREET":"民族路","SECT":" ","MAREA":" ","LANE":"２７３巷","ALLEY":" ","HOUSE_NO":"３３號八樓之２","E_COORD97":175060.66,"N_COORD97":2544926.4500000002,"ADDRESS":"民族路２７３巷３３號八樓之２","OBJECTID":441610},"geometry":{"x":175060.66000000015,"y":2544926.4500000011}},{"attributes":{"ID":441636,"DIS_CODE":0,"TOWNNAME":"永康區","LI":"東灣里","LIN":"36鄰","STREET":"民族路","SECT":" ","MAREA":" ","LANE":"２７３巷","ALLEY":" ","HOUSE_NO":"３１號八樓之１","E_COORD97":175063.87,"N_COORD97":2544931.2000000002,"ADDRESS":"民族路２７３巷３１號八樓之１","OBJECTID":441611},"geometry":{"x":175063.87000000011,"y":2544931.2000000011}},{"attributes":{"ID":441637,"DIS_CODE":0,"TOWNNAME":"永康區","LI":"東灣里","LIN":"36鄰","STREET":"民族路","SECT":" ","MAREA":" ","LANE":"２７３巷","ALLEY":" ","HOUSE_NO":"３１號三樓","E_COORD97":175061.73999999999,"N_COORD97":2544931.1899999999,"ADDRESS":"民族路２７３巷３１號三樓","OBJECTID":441612},"geometry":{"x":175061.74000000022,"y":2544931.1900000032}},{"attributes":{"ID":441638,"DIS_CODE":0,"TOWNNAME":"永康區","LI":"東灣里","LIN":"36鄰","STREET":"民族路","SECT":" ","MAREA":" ","LANE":"２７３巷","ALLEY":" ","HOUSE_NO":"３３號五樓之１","E_COORD97":175060.51999999999,"N_COORD97":2544926.4500000002,"ADDRESS":"民族路２７３巷３３號五樓之１","OBJECTID":441613},"geometry":{"x":175060.51999999955,"y":2544926.4500000011}},{"attributes":{"ID":441639,"DIS_CODE":0,"TOWNNAME":"永康區","LI":"東灣里","LIN":"36鄰","STREET":"民族路","SECT":" ","MAREA":" ","LANE":"２７３巷","ALLEY":" ","HOUSE_NO":"３３號七樓之１","E_COORD97":175060.51999999999,"N_COORD97":2544926.4500000002,"ADDRESS":"民族路２７３巷３３號七樓之１","OBJECTID":441614},"geometry":{"x":175060.51999999955,"y":2544926.4500000011}},{"attributes":{"ID":441640,"DIS_CODE":0,"TOWNNAME":"永康區","LI":"東灣里","LIN":"36鄰","STREET":"民族路","SECT":" ","MAREA":" ","LANE":"２７３巷","ALLEY":" ","HOUSE_NO":"３１號五樓之２","E_COORD97":175064.01000000001,"N_COORD97":2544931.2000000002,"ADDRESS":"民族路２７３巷３１號五樓之２","OBJECTID":441615},"geometry":{"x":175064.01000000071,"y":2544931.2000000011}},{"attributes":{"ID":441641,"DIS_CODE":0,"TOWNNAME":"永康區","LI":"東灣里","LIN":"36鄰","STREET":"民族路","SECT":" ","MAREA":" ","LANE":"２７３巷","ALLEY":" ","HOUSE_NO":"３３號九樓之１","E_COORD97":175060.51999999999,"N_COORD97":2544926.4500000002,"ADDRESS":"民族路２７３巷３３號九樓之１","OBJECTID":441616},"geometry":{"x":175060.51999999955,"y":2544926.4500000011}},{"attributes":{"ID":441642,"DIS_CODE":0,"TOWNNAME":"永康區","LI":"東灣里","LIN":"36鄰","STREET":"民族路","SECT":" ","MAREA":" ","LANE":"２７３巷","ALLEY":" ","HOUSE_NO":"３１號六樓之２","E_COORD97":175064.01000000001,"N_COORD97":2544931.2000000002,"ADDRESS":"民族路２７３巷３１號六樓之２","OBJECTID":441617},"geometry":{"x":175064.01000000071,"y":2544931.2000000011}},{"attributes":{"ID":441643,"DIS_CODE":0,"TOWNNAME":"永康區","LI":"東灣里","LIN":"36鄰","STREET":"民族路","SECT":" ","MAREA":" ","LANE":"２７３巷","ALLEY":" ","HOUSE_NO":"３３號八樓之１","E_COORD97":175060.51999999999,"N_COORD97":2544926.4500000002,"ADDRESS":"民族路２７３巷３３號八樓之１","OBJECTID":441618},"geometry":{"x":175060.51999999955,"y":2544926.4500000011}},{"attributes":{"ID":441644,"DIS_CODE":0,"TOWNNAME":"東區","LI":"崇文里","LIN":"36鄰","STREET":"崇德二十一街","SECT":" ","MAREA":" ","LANE":"１３８巷","ALLEY":" ","HOUSE_NO":"２６號五樓","E_COORD97":171219.13,"N_COORD97":2540797,"ADDRESS":"崇德二十一街１３８巷２６號五樓","OBJECTID":441619},"geometry":{"x":171219.12999999989,"y":2540797.0000000019}},{"attributes":{"ID":441645,"DIS_CODE":0,"TOWNNAME":"永康區","LI":"永康里","LIN":"36鄰","STREET":"永平街","SECT":" ","MAREA":" ","LANE":"５６巷","ALLEY":" ","HOUSE_NO":"２號十七樓之１０","E_COORD97":174359,"N_COORD97":2546819.5499999998,"ADDRESS":"永平街５６巷２號十七樓之１０","OBJECTID":441620},"geometry":{"x":174359.00000000093,"y":2546819.5500000026}},{"attributes":{"ID":441646,"DIS_CODE":0,"TOWNNAME":"永康區","LI":"復國里","LIN":"36鄰","STREET":"復國一路","SECT":" ","MAREA":" ","LANE":"２１巷","ALLEY":" ","HOUSE_NO":"１０號","E_COORD97":172663.09,"N_COORD97":2544817.52,"ADDRESS":"復國一路２１巷１０號","OBJECTID":441621},"geometry":{"x":172663.09000000078,"y":2544817.5200000014}},{"attributes":{"ID":441647,"DIS_CODE":0,"TOWNNAME":"永康區","LI":"復國里","LIN":"36鄰","STREET":"復國一路","SECT":" ","MAREA":" ","LANE":"２１巷","ALLEY":" ","HOUSE_NO":"４號","E_COORD97":172674.09,"N_COORD97":2544817.52,"ADDRESS":"復國一路２１巷４號","OBJECTID":441622},"geometry":{"x":172674.08999999985,"y":2544817.5200000014}},{"attributes":{"ID":441648,"DIS_CODE":0,"TOWNNAME":"永康區","LI":"復國里","LIN":"36鄰","STREET":"復國一路","SECT":" ","MAREA":" ","LANE":"２１巷","ALLEY":" ","HOUSE_NO":"１３號","E_COORD97":172658.97,"N_COORD97":2544801.27,"ADDRESS":"復國一路２１巷１３號","OBJECTID":441623},"geometry":{"x":172658.96999999974,"y":2544801.2699999996}},{"attributes":{"ID":441649,"DIS_CODE":0,"TOWNNAME":"永康區","LI":"復國里","LIN":"36鄰","STREET":"復國一路","SECT":" ","MAREA":" ","LANE":"２１巷","ALLEY":" ","HOUSE_NO":"３號","E_COORD97":172677.97,"N_COORD97":2544801.27,"ADDRESS":"復國一路２１巷３號","OBJECTID":441624},"geometry":{"x":172677.96999999974,"y":2544801.2699999996}},{"attributes":{"ID":441650,"DIS_CODE":0,"TOWNNAME":"永康區","LI":"復國里","LIN":"36鄰","STREET":"復國一路","SECT":" ","MAREA":" ","LANE":"３９巷","ALLEY":" ","HOUSE_NO":"７號","E_COORD97":172669.20000000001,"N_COORD97":2544839.77,"ADDRESS":"復國一路３９巷７號","OBJECTID":441625},"geometry":{"x":172669.20000000112,"y":2544839.7700000014}},{"attributes":{"ID":441651,"DIS_CODE":0,"TOWNNAME":"永康區","LI":"復國里","LIN":"36鄰","STREET":"復國一路","SECT":" ","MAREA":" ","LANE":"３９巷","ALLEY":" ","HOUSE_NO":"５號","E_COORD97":172673.35000000001,"N_COORD97":2544839.77,"ADDRESS":"復國一路３９巷５號","OBJECTID":441626},"geometry":{"x":172673.34999999963,"y":2544839.7700000014}},{"attributes":{"ID":441652,"DIS_CODE":0,"TOWNNAME":"永康區","LI":"復國里","LIN":"36鄰","STREET":"復國一路","SECT":" ","MAREA":" ","LANE":"３９巷","ALLEY":" ","HOUSE_NO":"９號","E_COORD97":172665.06,"N_COORD97":2544839.52,"ADDRESS":"復國一路３９巷９號","OBJECTID":441627},"geometry":{"x":172665.05999999959,"y":2544839.5199999996}},{"attributes":{"ID":441653,"DIS_CODE":0,"TOWNNAME":"永康區","LI":"二王里","LIN":"36鄰","STREET":"中山南路","SECT":" ","MAREA":" ","LANE":"４９０巷","ALLEY":" ","HOUSE_NO":"５５號","E_COORD97":172263.14000000001,"N_COORD97":2546354.7200000002,"ADDRESS":"中山南路４９０巷５５號","OBJECTID":441628},"geometry":{"x":172263.13999999966,"y":2546354.7200000007}},{"attributes":{"ID":441654,"DIS_CODE":0,"TOWNNAME":"永康區","LI":"二王里","LIN":"36鄰","STREET":"中山南路","SECT":" ","MAREA":" ","LANE":"４９０巷","ALLEY":" ","HOUSE_NO":"４５號","E_COORD97":172239.98999999999,"N_COORD97":2546354.4700000002,"ADDRESS":"中山南路４９０巷４５號","OBJECTID":441629},"geometry":{"x":172239.99000000115,"y":2546354.4700000044}},{"attributes":{"ID":441655,"DIS_CODE":0,"TOWNNAME":"永康區","LI":"二王里","LIN":"36鄰","STREET":"中山南路","SECT":" ","MAREA":" ","LANE":"４９０巷","ALLEY":" ","HOUSE_NO":"４７號","E_COORD97":172244.63,"N_COORD97":2546354.4700000002,"ADDRESS":"中山南路４９０巷４７號","OBJECTID":441630},"geometry":{"x":172244.62999999989,"y":2546354.4700000044}},{"attributes":{"ID":441656,"DIS_CODE":0,"TOWNNAME":"永康區","LI":"二王里","LIN":"36鄰","STREET":"中山南路","SECT":" ","MAREA":" ","LANE":"４９０巷","ALLEY":" ","HOUSE_NO":"６１號","E_COORD97":172278.20999999999,"N_COORD97":2546356,"ADDRESS":"中山南路４９０巷６１號","OBJECTID":441631},"geometry":{"x":172278.20999999996,"y":2546356}},{"attributes":{"ID":441657,"DIS_CODE":0,"TOWNNAME":"東區","LI":"虎尾里","LIN":"36鄰","STREET":"東成街","SECT":" ","MAREA":" ","LANE":"２００巷","ALLEY":" ","HOUSE_NO":"５３號","E_COORD97":171906.72,"N_COORD97":2542145.0699999998,"ADDRESS":"東成街２００巷５３號","OBJECTID":441632},"geometry":{"x":171906.71999999974,"y":2542145.0700000003}},{"attributes":{"ID":441658,"DIS_CODE":0,"TOWNNAME":"仁德區","LI":"仁義里","LIN":"36鄰","STREET":"勝利路","SECT":" ","MAREA":" ","LANE":"３１巷","ALLEY":" ","HOUSE_NO":"６號","E_COORD97":173495.70000000001,"N_COORD97":2539995.2599999998,"ADDRESS":"勝利路３１巷６號","OBJECTID":441633},"geometry":{"x":173495.70000000019,"y":2539995.2600000016}},{"attributes":{"ID":441659,"DIS_CODE":0,"TOWNNAME":"仁德區","LI":"成功里","LIN":"36鄰","STREET":"保華路","SECT":" ","MAREA":" ","LANE":"４６巷","ALLEY":" ","HOUSE_NO":"４５號","E_COORD97":170655.31,"N_COORD97":2540098.5,"ADDRESS":"保華路４６巷４５號","OBJECTID":441634},"geometry":{"x":170655.31000000145,"y":2540098.5000000019}},{"attributes":{"ID":441660,"DIS_CODE":0,"TOWNNAME":"仁德區","LI":"成功里","LIN":"36鄰","STREET":"保華路","SECT":" ","MAREA":" ","LANE":"４６巷","ALLEY":" ","HOUSE_NO":"１號","E_COORD97":170652.45000000001,"N_COORD97":2540009.75,"ADDRESS":"保華路４６巷１號","OBJECTID":441635},"geometry":{"x":170652.45000000019,"y":2540009.7500000019}},{"attributes":{"ID":441661,"DIS_CODE":0,"TOWNNAME":"仁德區","LI":"成功里","LIN":"36鄰","STREET":"保華路","SECT":" ","MAREA":" ","LANE":"４６巷","ALLEY":" ","HOUSE_NO":"４１號","E_COORD97":170655.07000000001,"N_COORD97":2540090,"ADDRESS":"保華路４６巷４１號","OBJECTID":441636},"geometry":{"x":170655.0700000003,"y":2540090}},{"attributes":{"ID":441662,"DIS_CODE":0,"TOWNNAME":"仁德區","LI":"成功里","LIN":"36鄰","STREET":"保華路","SECT":" ","MAREA":" ","LANE":"４６巷","ALLEY":" ","HOUSE_NO":"１３號","E_COORD97":170654.35000000001,"N_COORD97":2540034.2400000002,"ADDRESS":"保華路４６巷１３號","OBJECTID":441637},"geometry":{"x":170654.34999999963,"y":2540034.2400000002}},{"attributes":{"ID":441663,"DIS_CODE":0,"TOWNNAME":"仁德區","LI":"成功里","LIN":"36鄰","STREET":"保華路","SECT":" ","MAREA":" ","LANE":"４６巷","ALLEY":" ","HOUSE_NO":"２５號","E_COORD97":170654.42999999999,"N_COORD97":2540057.9900000002,"ADDRESS":"保華路４６巷２５號","OBJECTID":441638},"geometry":{"x":170654.42999999877,"y":2540057.9900000039}},{"attributes":{"ID":441664,"DIS_CODE":0,"TOWNNAME":"仁德區","LI":"成功里","LIN":"36鄰","STREET":"保華路","SECT":" ","MAREA":" ","LANE":"６８巷","ALLEY":" ","HOUSE_NO":"６號","E_COORD97":170594.29000000001,"N_COORD97":2540002.5,"ADDRESS":"保華路６８巷６號","OBJECTID":441639},"geometry":{"x":170594.29000000004,"y":2540002.5}},{"attributes":{"ID":441665,"DIS_CODE":0,"TOWNNAME":"仁德區","LI":"成功里","LIN":"36鄰","STREET":"保華路","SECT":" ","MAREA":" ","LANE":"６８巷","ALLEY":" ","HOUSE_NO":"１０號","E_COORD97":170595.51999999999,"N_COORD97":2540014.75,"ADDRESS":"保華路６８巷１０號","OBJECTID":441640},"geometry":{"x":170595.51999999955,"y":2540014.75}},{"attributes":{"ID":441666,"DIS_CODE":0,"TOWNNAME":"仁德區","LI":"成功里","LIN":"36鄰","STREET":"保華路","SECT":" ","MAREA":" ","LANE":"６８巷","ALLEY":" ","HOUSE_NO":"４號","E_COORD97":170594.45999999999,"N_COORD97":2539995.75,"ADDRESS":"保華路６８巷４號","OBJECTID":441641},"geometry":{"x":170594.45999999996,"y":2539995.7500000019}},{"attributes":{"ID":441667,"DIS_CODE":0,"TOWNNAME":"仁德區","LI":"成功里","LIN":"36鄰","STREET":"保華路","SECT":" ","MAREA":" ","LANE":"４６巷","ALLEY":" ","HOUSE_NO":"１５號","E_COORD97":170654.07999999999,"N_COORD97":2540038.2400000002,"ADDRESS":"保華路４６巷１５號","OBJECTID":441642},"geometry":{"x":170654.08000000101,"y":2540038.2400000002}},{"attributes":{"ID":441668,"DIS_CODE":0,"TOWNNAME":"永康區","LI":"勝利里","LIN":"36鄰","STREET":"勝學路","SECT":" ","MAREA":" ","LANE":"１０８巷","ALLEY":" ","HOUSE_NO":"２５號","E_COORD97":171215.10999999999,"N_COORD97":2544793.0800000001,"ADDRESS":"勝學路１０８巷２５號","OBJECTID":441643},"geometry":{"x":171215.1100000022,"y":2544793.0800000001}},{"attributes":{"ID":441669,"DIS_CODE":0,"TOWNNAME":"永康區","LI":"復國里","LIN":"36鄰","STREET":"復國一路","SECT":" ","MAREA":" ","LANE":"３９巷","ALLEY":" ","HOUSE_NO":"１６號","E_COORD97":172653.76000000001,"N_COORD97":2544859.7799999998,"ADDRESS":"復國一路３９巷１６號","OBJECTID":441644},"geometry":{"x":172653.75999999978,"y":2544859.7800000012}},{"attributes":{"ID":441670,"DIS_CODE":0,"TOWNNAME":"永康區","LI":"勝利里","LIN":"36鄰","STREET":"勝學路","SECT":" ","MAREA":" ","LANE":"５８巷","ALLEY":" ","HOUSE_NO":"５號","E_COORD97":171170.32000000001,"N_COORD97":2544705,"ADDRESS":"勝學路５８巷５號","OBJECTID":441645},"geometry":{"x":171170.32000000123,"y":2544705}},{"attributes":{"ID":441671,"DIS_CODE":0,"TOWNNAME":"永康區","LI":"勝利里","LIN":"36鄰","STREET":"勝學路","SECT":" ","MAREA":" ","LANE":"５８巷","ALLEY":" ","HOUSE_NO":"１３號","E_COORD97":171199.57000000001,"N_COORD97":2544706.25,"ADDRESS":"勝學路５８巷１３號","OBJECTID":441646},"geometry":{"x":171199.5700000003,"y":2544706.25}},{"attributes":{"ID":441672,"DIS_CODE":0,"TOWNNAME":"永康區","LI":"勝利里","LIN":"36鄰","STREET":"勝學路","SECT":" ","MAREA":" ","LANE":"６０巷","ALLEY":" ","HOUSE_NO":"２號","E_COORD97":171160.70999999999,"N_COORD97":2544729,"ADDRESS":"勝學路６０巷２號","OBJECTID":441647},"geometry":{"x":171160.70999999996,"y":2544729}},{"attributes":{"ID":441673,"DIS_CODE":0,"TOWNNAME":"永康區","LI":"勝利里","LIN":"36鄰","STREET":"勝學路","SECT":" ","MAREA":" ","LANE":"５８巷","ALLEY":" ","HOUSE_NO":"３號","E_COORD97":171165.60000000001,"N_COORD97":2544705.25,"ADDRESS":"勝學路５８巷３號","OBJECTID":441648},"geometry":{"x":171165.60000000056,"y":2544705.2500000019}},{"attributes":{"ID":441674,"DIS_CODE":0,"TOWNNAME":"永康區","LI":"勝利里","LIN":"36鄰","STREET":"勝學路","SECT":" ","MAREA":" ","LANE":"６０巷","ALLEY":" ","HOUSE_NO":"７號","E_COORD97":171177.92000000001,"N_COORD97":2544740,"ADDRESS":"勝學路６０巷７號","OBJECTID":441649},"geometry":{"x":171177.91999999993,"y":2544740.0000000019}},{"attributes":{"ID":441675,"DIS_CODE":0,"TOWNNAME":"永康區","LI":"勝利里","LIN":"36鄰","STREET":"勝學路","SECT":" ","MAREA":" ","LANE":"１０８巷","ALLEY":" ","HOUSE_NO":"２３號","E_COORD97":171215.56,"N_COORD97":2544799.6899999999,"ADDRESS":"勝學路１０８巷２３號","OBJECTID":441650},"geometry":{"x":171215.55999999959,"y":2544799.6900000013}},{"attributes":{"ID":441676,"DIS_CODE":0,"TOWNNAME":"永康區","LI":"勝利里","LIN":"36鄰","STREET":"勝學路","SECT":" ","MAREA":" ","LANE":"１０８巷","ALLEY":" ","HOUSE_NO":"１２號","E_COORD97":171225.34,"N_COORD97":2544850.98,"ADDRESS":"勝學路１０８巷１２號","OBJECTID":441651},"geometry":{"x":171225.34000000078,"y":2544850.9800000004}},{"attributes":{"ID":441677,"DIS_CODE":0,"TOWNNAME":"永康區","LI":"勝利里","LIN":"36鄰","STREET":"勝學路","SECT":" ","MAREA":" ","LANE":"１０８巷","ALLEY":" ","HOUSE_NO":"２２號","E_COORD97":171215.95000000001,"N_COORD97":2544806.1899999999,"ADDRESS":"勝學路１０８巷２２號","OBJECTID":441652},"geometry":{"x":171215.94999999925,"y":2544806.1900000013}},{"attributes":{"ID":441678,"DIS_CODE":0,"TOWNNAME":"仁德區","LI":"成功里","LIN":"36鄰","STREET":"保華路","SECT":" ","MAREA":" ","LANE":"６８巷","ALLEY":" ","HOUSE_NO":"１４號","E_COORD97":170595.23999999999,"N_COORD97":2540027.5,"ADDRESS":"保華路６８巷１４號","OBJECTID":441653},"geometry":{"x":170595.23999999929,"y":2540027.5000000019}},{"attributes":{"ID":441679,"DIS_CODE":0,"TOWNNAME":"仁德區","LI":"仁義里","LIN":"36鄰","STREET":"勝利路","SECT":" ","MAREA":" ","LANE":"３１巷","ALLEY":" ","HOUSE_NO":"４號","E_COORD97":173495.34,"N_COORD97":2539991.0099999998,"ADDRESS":"勝利路３１巷４號","OBJECTID":441654},"geometry":{"x":173495.34000000078,"y":2539991.0100000016}},{"attributes":{"ID":441680,"DIS_CODE":0,"TOWNNAME":"仁德區","LI":"成功里","LIN":"36鄰","STREET":"保華路","SECT":" ","MAREA":" ","LANE":"６８巷","ALLEY":" ","HOUSE_NO":"２０號","E_COORD97":170594.91,"N_COORD97":2540047.4900000002,"ADDRESS":"保華路６８巷２０號","OBJECTID":441655},"geometry":{"x":170594.91000000108,"y":2540047.4899999984}},{"attributes":{"ID":441681,"DIS_CODE":0,"TOWNNAME":"仁德區","LI":"成功里","LIN":"36鄰","STREET":"保華路","SECT":" ","MAREA":" ","LANE":"４６巷","ALLEY":" ","HOUSE_NO":"１１號","E_COORD97":170653.91,"N_COORD97":2540030.25,"ADDRESS":"保華路４６巷１１號","OBJECTID":441656},"geometry":{"x":170653.91000000108,"y":2540030.2500000019}},{"attributes":{"ID":441682,"DIS_CODE":0,"TOWNNAME":"仁德區","LI":"後壁里","LIN":"36鄰","STREET":"民安路","SECT":"一段","MAREA":" ","LANE":"３１０巷","ALLEY":" ","HOUSE_NO":"１３號","E_COORD97":172843.04000000001,"N_COORD97":2539508.5499999998,"ADDRESS":"民安路一段３１０巷１３號","OBJECTID":441657},"geometry":{"x":172843.04000000097,"y":2539508.5499999989}},{"attributes":{"ID":441683,"DIS_CODE":0,"TOWNNAME":"仁德區","LI":"後壁里","LIN":"36鄰","STREET":"民安路","SECT":"一段","MAREA":" ","LANE":"３１０巷","ALLEY":" ","HOUSE_NO":"２８號","E_COORD97":172804.42999999999,"N_COORD97":2539478.5499999998,"ADDRESS":"民安路一段３１０巷２８號","OBJECTID":441658},"geometry":{"x":172804.43000000063,"y":2539478.5500000026}},{"attributes":{"ID":441684,"DIS_CODE":0,"TOWNNAME":"仁德區","LI":"後壁里","LIN":"36鄰","STREET":"民安路","SECT":"一段","MAREA":" ","LANE":"３１０巷","ALLEY":" ","HOUSE_NO":"２５號","E_COORD97":172818.85000000001,"N_COORD97":2539474.5499999998,"ADDRESS":"民安路一段３１０巷２５號","OBJECTID":441659},"geometry":{"x":172818.85000000056,"y":2539474.5499999989}},{"attributes":{"ID":441685,"DIS_CODE":0,"TOWNNAME":"仁德區","LI":"後壁里","LIN":"36鄰","STREET":"民安路","SECT":"一段","MAREA":" ","LANE":"３１０巷","ALLEY":" ","HOUSE_NO":"１５號","E_COORD97":172838.29000000001,"N_COORD97":2539503.2999999998,"ADDRESS":"民安路一段３１０巷１５號","OBJECTID":441660},"geometry":{"x":172838.29000000097,"y":2539503.3000000007}},{"attributes":{"ID":441686,"DIS_CODE":0,"TOWNNAME":"仁德區","LI":"後壁里","LIN":"36鄰","STREET":"民安路","SECT":"一段","MAREA":" ","LANE":"３１０巷","ALLEY":" ","HOUSE_NO":"２號","E_COORD97":172855.31,"N_COORD97":2539550.79,"ADDRESS":"民安路一段３１０巷２號","OBJECTID":441661},"geometry":{"x":172855.30999999959,"y":2539550.790000001}},{"attributes":{"ID":441687,"DIS_CODE":0,"TOWNNAME":"仁德區","LI":"後壁里","LIN":"36鄰","STREET":"民安路","SECT":"一段","MAREA":" ","LANE":"３１０巷","ALLEY":" ","HOUSE_NO":"７號","E_COORD97":172853.34,"N_COORD97":2539525.54,"ADDRESS":"民安路一段３１０巷７號","OBJECTID":441662},"geometry":{"x":172853.33999999985,"y":2539525.540000001}},{"attributes":{"ID":441688,"DIS_CODE":0,"TOWNNAME":"仁德區","LI":"後壁里","LIN":"36鄰","STREET":"民安路","SECT":"一段","MAREA":" ","LANE":"３１０巷","ALLEY":" ","HOUSE_NO":"４號","E_COORD97":172852.13,"N_COORD97":2539546.29,"ADDRESS":"民安路一段３１０巷４號","OBJECTID":441663},"geometry":{"x":172852.13000000175,"y":2539546.2900000028}},{"attributes":{"ID":441689,"DIS_CODE":0,"TOWNNAME":"仁德區","LI":"後壁里","LIN":"36鄰","STREET":"民安路","SECT":"一段","MAREA":" ","LANE":"３１０巷","ALLEY":" ","HOUSE_NO":"３號","E_COORD97":172861.64999999999,"N_COORD97":2539537.04,"ADDRESS":"民安路一段３１０巷３號","OBJECTID":441664},"geometry":{"x":172861.6500000013,"y":2539537.0399999991}},{"attributes":{"ID":441690,"DIS_CODE":0,"TOWNNAME":"仁德區","LI":"後壁里","LIN":"36鄰","STREET":"民安路","SECT":"一段","MAREA":" ","LANE":"３１０巷","ALLEY":" ","HOUSE_NO":"２０號","E_COORD97":172820.23999999999,"N_COORD97":2539499.2999999998,"ADDRESS":"民安路一段３１０巷２０號","OBJECTID":441665},"geometry":{"x":172820.24000000115,"y":2539499.3000000007}},{"attributes":{"ID":441691,"DIS_CODE":0,"TOWNNAME":"仁德區","LI":"後壁里","LIN":"36鄰","STREET":"民安路","SECT":"一段","MAREA":" ","LANE":"３１０巷","ALLEY":" ","HOUSE_NO":"１１號","E_COORD97":172847.07000000001,"N_COORD97":2539513.7999999998,"ADDRESS":"民安路一段３１０巷１１號","OBJECTID":441666},"geometry":{"x":172847.0700000003,"y":2539513.8000000045}},{"attributes":{"ID":441692,"DIS_CODE":0,"TOWNNAME":"仁德區","LI":"後壁里","LIN":"36鄰","STREET":"民安路","SECT":"一段","MAREA":" ","LANE":"３１０巷","ALLEY":" ","HOUSE_NO":"２３號","E_COORD97":172822.64999999999,"N_COORD97":2539480.0499999998,"ADDRESS":"民安路一段３１０巷２３號","OBJECTID":441667},"geometry":{"x":172822.6500000013,"y":2539480.0500000007}},{"attributes":{"ID":441693,"DIS_CODE":0,"TOWNNAME":"仁德區","LI":"後壁里","LIN":"36鄰","STREET":"民安路","SECT":"一段","MAREA":" ","LANE":"３１０巷","ALLEY":" ","HOUSE_NO":"９號","E_COORD97":172849.73999999999,"N_COORD97":2539519.54,"ADDRESS":"民安路一段３１０巷９號","OBJECTID":441668},"geometry":{"x":172849.74000000022,"y":2539519.5399999991}},{"attributes":{"ID":441694,"DIS_CODE":0,"TOWNNAME":"仁德區","LI":"後壁里","LIN":"36鄰","STREET":"民安路","SECT":"一段","MAREA":" ","LANE":"３１０巷","ALLEY":" ","HOUSE_NO":"５號","E_COORD97":172857.62,"N_COORD97":2539531.29,"ADDRESS":"民安路一段３１０巷５號","OBJECTID":441669},"geometry":{"x":172857.62000000104,"y":2539531.2899999991}},{"attributes":{"ID":441695,"DIS_CODE":0,"TOWNNAME":"仁德區","LI":"後壁里","LIN":"36鄰","STREET":"民安路","SECT":"一段","MAREA":" ","LANE":"３１０巷","ALLEY":" ","HOUSE_NO":"１８號","E_COORD97":172824.20999999999,"N_COORD97":2539505.0499999998,"ADDRESS":"民安路一段３１０巷１８號","OBJECTID":441670},"geometry":{"x":172824.20999999996,"y":2539505.0499999989}},{"attributes":{"ID":441696,"DIS_CODE":0,"TOWNNAME":"仁德區","LI":"後壁里","LIN":"36鄰","STREET":"民安路","SECT":"一段","MAREA":" ","LANE":"３１０巷","ALLEY":" ","HOUSE_NO":"１６號","E_COORD97":172827.73000000001,"N_COORD97":2539510.0499999998,"ADDRESS":"民安路一段３１０巷１６號","OBJECTID":441671},"geometry":{"x":172827.73000000045,"y":2539510.0500000026}},{"attributes":{"ID":441697,"DIS_CODE":0,"TOWNNAME":"仁德區","LI":"後壁里","LIN":"36鄰","STREET":"民安路","SECT":"一段","MAREA":" ","LANE":"３１０巷","ALLEY":" ","HOUSE_NO":"２７號","E_COORD97":172815.03,"N_COORD97":2539468.5499999998,"ADDRESS":"民安路一段３１０巷２７號","OBJECTID":441672},"geometry":{"x":172815.03000000026,"y":2539468.5500000026}},{"attributes":{"ID":441698,"DIS_CODE":0,"TOWNNAME":"仁德區","LI":"後壁里","LIN":"36鄰","STREET":"民安路","SECT":"一段","MAREA":" ","LANE":"３１０巷","ALLEY":" ","HOUSE_NO":"１２號","E_COORD97":172837.62,"N_COORD97":2539523.29,"ADDRESS":"民安路一段３１０巷１２號","OBJECTID":441673},"geometry":{"x":172837.62000000104,"y":2539523.290000001}},{"attributes":{"ID":441699,"DIS_CODE":0,"TOWNNAME":"仁德區","LI":"後壁里","LIN":"36鄰","STREET":"民安路","SECT":"一段","MAREA":" ","LANE":"３１０巷","ALLEY":" ","HOUSE_NO":"１０號","E_COORD97":172841.17000000001,"N_COORD97":2539529.04,"ADDRESS":"民安路一段３１０巷１０號","OBJECTID":441674},"geometry":{"x":172841.16999999993,"y":2539529.040000001}},{"attributes":{"ID":441700,"DIS_CODE":0,"TOWNNAME":"仁德區","LI":"後壁里","LIN":"36鄰","STREET":"民安路","SECT":"一段","MAREA":" ","LANE":"３１０巷","ALLEY":" ","HOUSE_NO":"２６號","E_COORD97":172808.10000000001,"N_COORD97":2539482.0499999998,"ADDRESS":"民安路一段３１０巷２６號","OBJECTID":441675},"geometry":{"x":172808.10000000056,"y":2539482.0500000026}},{"attributes":{"ID":441701,"DIS_CODE":0,"TOWNNAME":"永康區","LI":"崑山里","LIN":"36鄰","STREET":"大仁街","SECT":" ","MAREA":" ","LANE":"１９９巷","ALLEY":" ","HOUSE_NO":"２７號","E_COORD97":173852.45999999999,"N_COORD97":2545065.5499999998,"ADDRESS":"大仁街１９９巷２７號","OBJECTID":441676},"geometry":{"x":173852.46000000089,"y":2545065.5500000045}},{"attributes":{"ID":441702,"DIS_CODE":0,"TOWNNAME":"永康區","LI":"崑山里","LIN":"36鄰","STREET":"大仁街","SECT":" ","MAREA":" ","LANE":"１８１巷","ALLEY":" ","HOUSE_NO":"１４號","E_COORD97":173877.01999999999,"N_COORD97":2545016.7999999998,"ADDRESS":"大仁街１８１巷１４號","OBJECTID":441677},"geometry":{"x":173877.02000000048,"y":2545016.8000000026}},{"attributes":{"ID":441703,"DIS_CODE":0,"TOWNNAME":"永康區","LI":"崑山里","LIN":"36鄰","STREET":"大仁街","SECT":" ","MAREA":" ","LANE":"１８１巷","ALLEY":" ","HOUSE_NO":"１１號","E_COORD97":173857.72,"N_COORD97":2545004.04,"ADDRESS":"大仁街１８１巷１１號","OBJECTID":441678},"geometry":{"x":173857.71999999974,"y":2545004.040000001}},{"attributes":{"ID":441704,"DIS_CODE":0,"TOWNNAME":"永康區","LI":"埔園里","LIN":"36鄰","STREET":"龍埔街","SECT":" ","MAREA":" ","LANE":"２３３巷","ALLEY":" ","HOUSE_NO":"６號","E_COORD97":174261.82000000001,"N_COORD97":2548221.5600000001,"ADDRESS":"龍埔街２３３巷６號","OBJECTID":441679},"geometry":{"x":174261.82000000123,"y":2548221.5600000042}},{"attributes":{"ID":441705,"DIS_CODE":0,"TOWNNAME":"永康區","LI":"崑山里","LIN":"36鄰","STREET":"大仁街","SECT":" ","MAREA":" ","LANE":"１９９巷","ALLEY":" ","HOUSE_NO":"３３號","E_COORD97":173840.92999999999,"N_COORD97":2545069.7999999998,"ADDRESS":"大仁街１９９巷３３號","OBJECTID":441680},"geometry":{"x":173840.9299999997,"y":2545069.8000000007}},{"attributes":{"ID":441706,"DIS_CODE":0,"TOWNNAME":"永康區","LI":"崑山里","LIN":"36鄰","STREET":"大仁街","SECT":" ","MAREA":" ","LANE":"１９９巷","ALLEY":" ","HOUSE_NO":"７號之３","E_COORD97":173890.54999999999,"N_COORD97":2545044.04,"ADDRESS":"大仁街１９９巷７號之３","OBJECTID":441681},"geometry":{"x":173890.55000000075,"y":2545044.040000001}},{"attributes":{"ID":441707,"DIS_CODE":0,"TOWNNAME":"仁德區","LI":"太子里","LIN":"36鄰","STREET":"長興一街","SECT":" ","MAREA":" ","LANE":"８６巷","ALLEY":" ","HOUSE_NO":"６之２號","E_COORD97":174439.84,"N_COORD97":2543907.29,"ADDRESS":"長興一街８６巷６之２號","OBJECTID":441682},"geometry":{"x":174439.83999999985,"y":2543907.290000001}},{"attributes":{"ID":441708,"DIS_CODE":0,"TOWNNAME":"仁德區","LI":"後壁里","LIN":"36鄰","STREET":"民安路","SECT":"一段","MAREA":" ","LANE":"３１０巷","ALLEY":" ","HOUSE_NO":"２１號","E_COORD97":172826.57999999999,"N_COORD97":2539486.29,"ADDRESS":"民安路一段３１０巷２１號","OBJECTID":441683},"geometry":{"x":172826.58000000007,"y":2539486.290000001}},{"attributes":{"ID":441709,"DIS_CODE":0,"TOWNNAME":"永康區","LI":"南灣里","LIN":"36鄰","STREET":"大灣路","SECT":" ","MAREA":" ","LANE":"４３６巷","ALLEY":" ","HOUSE_NO":"７７號","E_COORD97":174535.14999999999,"N_COORD97":2544997.3500000001,"ADDRESS":"大灣路４３６巷７７號","OBJECTID":441684},"geometry":{"x":174535.15000000037,"y":2544997.3499999996}},{"attributes":{"ID":441710,"DIS_CODE":0,"TOWNNAME":"歸仁區","LI":"許厝里","LIN":"36鄰","STREET":"和平南街","SECT":" ","MAREA":" ","LANE":"８９巷","ALLEY":" ","HOUSE_NO":"２號","E_COORD97":177832.23000000001,"N_COORD97":2540489.8199999998,"ADDRESS":"和平南街８９巷２號","OBJECTID":441685},"geometry":{"x":177832.23000000045,"y":2540489.820000004}},{"attributes":{"ID":441711,"DIS_CODE":0,"TOWNNAME":"新營區","LI":"民榮里","LIN":"36鄰","STREET":"新進路","SECT":"二段","MAREA":" ","LANE":"４４５巷","ALLEY":" ","HOUSE_NO":"２８號","E_COORD97":178538.57000000001,"N_COORD97":2578003.8199999998,"ADDRESS":"新進路二段４４５巷２８號","OBJECTID":441686},"geometry":{"x":178538.57000000216,"y":2578003.8200000003}},{"attributes":{"ID":441712,"DIS_CODE":0,"TOWNNAME":"新營區","LI":"民榮里","LIN":"36鄰","STREET":"新進路","SECT":"二段","MAREA":" ","LANE":"４４５巷","ALLEY":" ","HOUSE_NO":"３８號","E_COORD97":178517.07000000001,"N_COORD97":2577996.1800000002,"ADDRESS":"新進路二段４４５巷３８號","OBJECTID":441687},"geometry":{"x":178517.07000000123,"y":2577996.1799999997}},{"attributes":{"ID":441713,"DIS_CODE":0,"TOWNNAME":"歸仁區","LI":"六甲里","LIN":"36鄰","STREET":"六甲路","SECT":" ","MAREA":" ","LANE":"３７０巷","ALLEY":" ","HOUSE_NO":"１６號","E_COORD97":175541.42000000001,"N_COORD97":2539330.25,"ADDRESS":"六甲路３７０巷１６號","OBJECTID":441688},"geometry":{"x":175541.41999999993,"y":2539330.2500000037}},{"attributes":{"ID":441714,"DIS_CODE":0,"TOWNNAME":"玉井區","LI":"玉田里","LIN":"36鄰","STREET":"玉安街","SECT":" ","MAREA":" ","LANE":"３０巷","ALLEY":" ","HOUSE_NO":"３８號","E_COORD97":195142.07000000001,"N_COORD97":2558328.3199999998,"ADDRESS":"玉安街３０巷３８號","OBJECTID":441689},"geometry":{"x":195142.07000000123,"y":2558328.3200000003}},{"attributes":{"ID":441715,"DIS_CODE":0,"TOWNNAME":"東區","LI":"虎尾里","LIN":"36鄰","STREET":"東成街","SECT":" ","MAREA":" ","LANE":"２００巷","ALLEY":" ","HOUSE_NO":"６１號六樓","E_COORD97":171895.95000000001,"N_COORD97":2542122.3700000001,"ADDRESS":"東成街２００巷６１號六樓","OBJECTID":441690},"geometry":{"x":171895.95000000112,"y":2542122.3700000029}},{"attributes":{"ID":441716,"DIS_CODE":0,"TOWNNAME":"東區","LI":"虎尾里","LIN":"36鄰","STREET":"東成街","SECT":" ","MAREA":" ","LANE":"２００巷","ALLEY":" ","HOUSE_NO":"５３號五樓","E_COORD97":171906.72,"N_COORD97":2542145.0699999998,"ADDRESS":"東成街２００巷５３號五樓","OBJECTID":441691},"geometry":{"x":171906.71999999974,"y":2542145.0700000003}},{"attributes":{"ID":441717,"DIS_CODE":0,"TOWNNAME":"東區","LI":"虎尾里","LIN":"36鄰","STREET":"東成街","SECT":" ","MAREA":" ","LANE":"２００巷","ALLEY":" ","HOUSE_NO":"５３號七樓","E_COORD97":171906.72,"N_COORD97":2542145.0699999998,"ADDRESS":"東成街２００巷５３號七樓","OBJECTID":441692},"geometry":{"x":171906.71999999974,"y":2542145.0700000003}},{"attributes":{"ID":441718,"DIS_CODE":0,"TOWNNAME":"東區","LI":"虎尾里","LIN":"36鄰","STREET":"東成街","SECT":" ","MAREA":" ","LANE":"２００巷","ALLEY":" ","HOUSE_NO":"５５號三樓","E_COORD97":171896.07999999999,"N_COORD97":2542144.29,"ADDRESS":"東成街２００巷５５號三樓","OBJECTID":441693},"geometry":{"x":171896.08000000007,"y":2542144.290000001}},{"attributes":{"ID":441719,"DIS_CODE":0,"TOWNNAME":"東區","LI":"虎尾里","LIN":"36鄰","STREET":"東成街","SECT":" ","MAREA":" ","LANE":"２００巷","ALLEY":" ","HOUSE_NO":"５５號六樓","E_COORD97":171896.07999999999,"N_COORD97":2542144.29,"ADDRESS":"東成街２００巷５５號六樓","OBJECTID":441694},"geometry":{"x":171896.08000000007,"y":2542144.290000001}},{"attributes":{"ID":441720,"DIS_CODE":0,"TOWNNAME":"東區","LI":"虎尾里","LIN":"36鄰","STREET":"東成街","SECT":" ","MAREA":" ","LANE":"２００巷","ALLEY":" ","HOUSE_NO":"５５號七樓","E_COORD97":171896.07999999999,"N_COORD97":2542144.29,"ADDRESS":"東成街２００巷５５號七樓","OBJECTID":441695},"geometry":{"x":171896.08000000007,"y":2542144.290000001}},{"attributes":{"ID":441721,"DIS_CODE":0,"TOWNNAME":"東區","LI":"虎尾里","LIN":"36鄰","STREET":"東成街","SECT":" ","MAREA":" ","LANE":"２００巷","ALLEY":" ","HOUSE_NO":"５７號六樓","E_COORD97":171895.69,"N_COORD97":2542136.8100000001,"ADDRESS":"東成街２００巷５７號六樓","OBJECTID":441696},"geometry":{"x":171895.69000000041,"y":2542136.8100000005}},{"attributes":{"ID":441722,"DIS_CODE":0,"TOWNNAME":"東區","LI":"虎尾里","LIN":"36鄰","STREET":"東成街","SECT":" ","MAREA":" ","LANE":"２００巷","ALLEY":" ","HOUSE_NO":"５９號七樓","E_COORD97":171895.82000000001,"N_COORD97":2542129.46,"ADDRESS":"東成街２００巷５９號七樓","OBJECTID":441697},"geometry":{"x":171895.82000000123,"y":2542129.4600000009}},{"attributes":{"ID":441723,"DIS_CODE":0,"TOWNNAME":"東區","LI":"虎尾里","LIN":"36鄰","STREET":"東成街","SECT":" ","MAREA":" ","LANE":"２００巷","ALLEY":" ","HOUSE_NO":"６１號四樓","E_COORD97":171895.95000000001,"N_COORD97":2542122.3700000001,"ADDRESS":"東成街２００巷６１號四樓","OBJECTID":441698},"geometry":{"x":171895.95000000112,"y":2542122.3700000029}},{"attributes":{"ID":441724,"DIS_CODE":0,"TOWNNAME":"永康區","LI":"崑山里","LIN":"36鄰","STREET":"大仁街","SECT":" ","MAREA":" ","LANE":"１９９巷","ALLEY":" ","HOUSE_NO":"７號二樓之４","E_COORD97":173902.12,"N_COORD97":2545051.79,"ADDRESS":"大仁街１９９巷７號二樓之４","OBJECTID":441699},"geometry":{"x":173902.12000000104,"y":2545051.7899999972}},{"attributes":{"ID":441725,"DIS_CODE":0,"TOWNNAME":"關廟區","LI":"東勢里","LIN":"14鄰","STREET":"東榮街","SECT":" ","MAREA":" ","LANE":"９２巷","ALLEY":" ","HOUSE_NO":"９號","E_COORD97":182109.42000000001,"N_COORD97":2539298.25,"ADDRESS":"東榮街９２巷９號","OBJECTID":441700},"geometry":{"x":182109.42000000086,"y":2539298.25}},{"attributes":{"ID":441726,"DIS_CODE":0,"TOWNNAME":"永康區","LI":"崑山里","LIN":"36鄰","STREET":"大仁街","SECT":" ","MAREA":" ","LANE":"１９９巷","ALLEY":" ","HOUSE_NO":"７號三樓之４","E_COORD97":173902.12,"N_COORD97":2545051.79,"ADDRESS":"大仁街１９９巷７號三樓之４","OBJECTID":441701},"geometry":{"x":173902.12000000104,"y":2545051.7899999972}},{"attributes":{"ID":441727,"DIS_CODE":0,"TOWNNAME":"永康區","LI":"崑山里","LIN":"36鄰","STREET":"大仁街","SECT":" ","MAREA":" ","LANE":"１９９巷","ALLEY":" ","HOUSE_NO":"７號二樓之１","E_COORD97":173902.09,"N_COORD97":2545051.79,"ADDRESS":"大仁街１９９巷７號二樓之１","OBJECTID":441702},"geometry":{"x":173902.09000000078,"y":2545051.7899999972}},{"attributes":{"ID":441728,"DIS_CODE":0,"TOWNNAME":"永康區","LI":"崑山里","LIN":"36鄰","STREET":"大仁街","SECT":" ","MAREA":" ","LANE":"１９９巷","ALLEY":" ","HOUSE_NO":"７號四樓之２","E_COORD97":173902.23000000001,"N_COORD97":2545051.79,"ADDRESS":"大仁街１９９巷７號四樓之２","OBJECTID":441703},"geometry":{"x":173902.23000000045,"y":2545051.7899999972}},{"attributes":{"ID":441729,"DIS_CODE":0,"TOWNNAME":"永康區","LI":"崑山里","LIN":"36鄰","STREET":"大仁街","SECT":" ","MAREA":" ","LANE":"１９９巷","ALLEY":" ","HOUSE_NO":"７號五樓之２","E_COORD97":173902.23000000001,"N_COORD97":2545051.79,"ADDRESS":"大仁街１９９巷７號五樓之２","OBJECTID":441704},"geometry":{"x":173902.23000000045,"y":2545051.7899999972}},{"attributes":{"ID":441730,"DIS_CODE":0,"TOWNNAME":"永康區","LI":"崑山里","LIN":"36鄰","STREET":"大仁街","SECT":" ","MAREA":" ","LANE":"１９９巷","ALLEY":" ","HOUSE_NO":"７號三樓之３","E_COORD97":173902.19,"N_COORD97":2545051.79,"ADDRESS":"大仁街１９９巷７號三樓之３","OBJECTID":441705},"geometry":{"x":173902.19000000134,"y":2545051.7899999972}},{"attributes":{"ID":441731,"DIS_CODE":0,"TOWNNAME":"永康區","LI":"崑山里","LIN":"36鄰","STREET":"大仁街","SECT":" ","MAREA":" ","LANE":"１９９巷","ALLEY":" ","HOUSE_NO":"７號五樓之５","E_COORD97":173902.25,"N_COORD97":2545051.79,"ADDRESS":"大仁街１９９巷７號五樓之５","OBJECTID":441706},"geometry":{"x":173902.24999999907,"y":2545051.7899999972}},{"attributes":{"ID":441732,"DIS_CODE":0,"TOWNNAME":"永康區","LI":"崑山里","LIN":"36鄰","STREET":"大仁街","SECT":" ","MAREA":" ","LANE":"１９９巷","ALLEY":" ","HOUSE_NO":"７號五樓之１","E_COORD97":173902.09,"N_COORD97":2545051.79,"ADDRESS":"大仁街１９９巷７號五樓之１","OBJECTID":441707},"geometry":{"x":173902.09000000078,"y":2545051.7899999972}},{"attributes":{"ID":441733,"DIS_CODE":0,"TOWNNAME":"永康區","LI":"崑山里","LIN":"36鄰","STREET":"大仁街","SECT":" ","MAREA":" ","LANE":"１９９巷","ALLEY":" ","HOUSE_NO":"７號六樓之１","E_COORD97":173902.09,"N_COORD97":2545051.79,"ADDRESS":"大仁街１９９巷７號六樓之１","OBJECTID":441708},"geometry":{"x":173902.09000000078,"y":2545051.7899999972}},{"attributes":{"ID":441734,"DIS_CODE":0,"TOWNNAME":"永康區","LI":"崑山里","LIN":"36鄰","STREET":"大仁街","SECT":" ","MAREA":" ","LANE":"１９９巷","ALLEY":" ","HOUSE_NO":"７號二樓之５","E_COORD97":173902.25,"N_COORD97":2545051.79,"ADDRESS":"大仁街１９９巷７號二樓之５","OBJECTID":441709},"geometry":{"x":173902.24999999907,"y":2545051.7899999972}},{"attributes":{"ID":441735,"DIS_CODE":0,"TOWNNAME":"永康區","LI":"崑山里","LIN":"36鄰","STREET":"大仁街","SECT":" ","MAREA":" ","LANE":"１９９巷","ALLEY":" ","HOUSE_NO":"７號三樓之５","E_COORD97":173902.25,"N_COORD97":2545051.79,"ADDRESS":"大仁街１９９巷７號三樓之５","OBJECTID":441710},"geometry":{"x":173902.24999999907,"y":2545051.7899999972}},{"attributes":{"ID":441736,"DIS_CODE":0,"TOWNNAME":"永康區","LI":"崑山里","LIN":"36鄰","STREET":"大仁街","SECT":" ","MAREA":" ","LANE":"１９９巷","ALLEY":" ","HOUSE_NO":"７號六樓之４","E_COORD97":173902.12,"N_COORD97":2545051.79,"ADDRESS":"大仁街１９９巷７號六樓之４","OBJECTID":441711},"geometry":{"x":173902.12000000104,"y":2545051.7899999972}},{"attributes":{"ID":441737,"DIS_CODE":0,"TOWNNAME":"永康區","LI":"崑山里","LIN":"36鄰","STREET":"大仁街","SECT":" ","MAREA":" ","LANE":"１９９巷","ALLEY":" ","HOUSE_NO":"７號三樓之１","E_COORD97":173902.09,"N_COORD97":2545051.79,"ADDRESS":"大仁街１９９巷７號三樓之１","OBJECTID":441712},"geometry":{"x":173902.09000000078,"y":2545051.7899999972}},{"attributes":{"ID":441738,"DIS_CODE":0,"TOWNNAME":"東區","LI":"忠孝里","LIN":"36鄰","STREET":"榮譽街","SECT":" ","MAREA":" ","LANE":"１０４巷","ALLEY":" ","HOUSE_NO":"１７號七樓","E_COORD97":169884.98000000001,"N_COORD97":2541720.1099999999,"ADDRESS":"榮譽街１０４巷１７號七樓","OBJECTID":441713},"geometry":{"x":169884.98000000045,"y":2541720.1099999994}},{"attributes":{"ID":441739,"DIS_CODE":0,"TOWNNAME":"東區","LI":"忠孝里","LIN":"36鄰","STREET":"榮譽街","SECT":" ","MAREA":" ","LANE":"１０４巷","ALLEY":" ","HOUSE_NO":"１７號七樓之１","E_COORD97":169884.98000000001,"N_COORD97":2541720.1099999999,"ADDRESS":"榮譽街１０４巷１７號七樓之１","OBJECTID":441714},"geometry":{"x":169884.98000000045,"y":2541720.1099999994}},{"attributes":{"ID":441740,"DIS_CODE":0,"TOWNNAME":"東區","LI":"忠孝里","LIN":"36鄰","STREET":"榮譽街","SECT":" ","MAREA":" ","LANE":"１０４巷","ALLEY":" ","HOUSE_NO":"１７號二樓","E_COORD97":169884.98000000001,"N_COORD97":2541720.1099999999,"ADDRESS":"榮譽街１０４巷１７號二樓","OBJECTID":441715},"geometry":{"x":169884.98000000045,"y":2541720.1099999994}},{"attributes":{"ID":441741,"DIS_CODE":0,"TOWNNAME":"東區","LI":"忠孝里","LIN":"36鄰","STREET":"榮譽街","SECT":" ","MAREA":" ","LANE":"１０４巷","ALLEY":" ","HOUSE_NO":"１７號二樓之１","E_COORD97":169884.98000000001,"N_COORD97":2541720.1099999999,"ADDRESS":"榮譽街１０４巷１７號二樓之１","OBJECTID":441716},"geometry":{"x":169884.98000000045,"y":2541720.1099999994}},{"attributes":{"ID":441742,"DIS_CODE":0,"TOWNNAME":"東區","LI":"忠孝里","LIN":"36鄰","STREET":"榮譽街","SECT":" ","MAREA":" ","LANE":"１０４巷","ALLEY":" ","HOUSE_NO":"１７號三樓","E_COORD97":169884.98000000001,"N_COORD97":2541720.1099999999,"ADDRESS":"榮譽街１０４巷１７號三樓","OBJECTID":441717},"geometry":{"x":169884.98000000045,"y":2541720.1099999994}},{"attributes":{"ID":441743,"DIS_CODE":0,"TOWNNAME":"東區","LI":"忠孝里","LIN":"36鄰","STREET":"榮譽街","SECT":" ","MAREA":" ","LANE":"１０４巷","ALLEY":" ","HOUSE_NO":"１７號三樓之１","E_COORD97":169884.98000000001,"N_COORD97":2541720.1099999999,"ADDRESS":"榮譽街１０４巷１７號三樓之１","OBJECTID":441718},"geometry":{"x":169884.98000000045,"y":2541720.1099999994}},{"attributes":{"ID":441744,"DIS_CODE":0,"TOWNNAME":"東區","LI":"忠孝里","LIN":"36鄰","STREET":"榮譽街","SECT":" ","MAREA":" ","LANE":"１０４巷","ALLEY":" ","HOUSE_NO":"１７號五樓之１","E_COORD97":169884.98000000001,"N_COORD97":2541720.1099999999,"ADDRESS":"榮譽街１０４巷１７號五樓之１","OBJECTID":441719},"geometry":{"x":169884.98000000045,"y":2541720.1099999994}},{"attributes":{"ID":441745,"DIS_CODE":0,"TOWNNAME":"東區","LI":"忠孝里","LIN":"36鄰","STREET":"榮譽街","SECT":" ","MAREA":" ","LANE":"１０４巷","ALLEY":" ","HOUSE_NO":"１７號六樓","E_COORD97":169884.98000000001,"N_COORD97":2541720.1099999999,"ADDRESS":"榮譽街１０４巷１７號六樓","OBJECTID":441720},"geometry":{"x":169884.98000000045,"y":2541720.1099999994}},{"attributes":{"ID":441746,"DIS_CODE":0,"TOWNNAME":"東區","LI":"忠孝里","LIN":"36鄰","STREET":"榮譽街","SECT":" ","MAREA":" ","LANE":"１０４巷","ALLEY":" ","HOUSE_NO":"１７號六樓之１","E_COORD97":169884.98000000001,"N_COORD97":2541720.1099999999,"ADDRESS":"榮譽街１０４巷１７號六樓之１","OBJECTID":441721},"geometry":{"x":169884.98000000045,"y":2541720.1099999994}},{"attributes":{"ID":441747,"DIS_CODE":0,"TOWNNAME":"東區","LI":"忠孝里","LIN":"36鄰","STREET":"榮譽街","SECT":" ","MAREA":" ","LANE":"１０４巷","ALLEY":" ","HOUSE_NO":"１７號四樓","E_COORD97":169884.98000000001,"N_COORD97":2541720.1099999999,"ADDRESS":"榮譽街１０４巷１７號四樓","OBJECTID":441722},"geometry":{"x":169884.98000000045,"y":2541720.1099999994}},{"attributes":{"ID":441748,"DIS_CODE":0,"TOWNNAME":"東區","LI":"忠孝里","LIN":"36鄰","STREET":"榮譽街","SECT":" ","MAREA":" ","LANE":"１０４巷","ALLEY":" ","HOUSE_NO":"１７號四樓之１","E_COORD97":169884.98000000001,"N_COORD97":2541720.1099999999,"ADDRESS":"榮譽街１０４巷１７號四樓之１","OBJECTID":441723},"geometry":{"x":169884.98000000045,"y":2541720.1099999994}},{"attributes":{"ID":441749,"DIS_CODE":0,"TOWNNAME":"東區","LI":"忠孝里","LIN":"36鄰","STREET":"榮譽街","SECT":" ","MAREA":" ","LANE":"１０４巷","ALLEY":" ","HOUSE_NO":"１９號七樓","E_COORD97":169891.76000000001,"N_COORD97":2541723.3700000001,"ADDRESS":"榮譽街１０４巷１９號七樓","OBJECTID":441724},"geometry":{"x":169891.76000000071,"y":2541723.370000001}},{"attributes":{"ID":441750,"DIS_CODE":0,"TOWNNAME":"東區","LI":"忠孝里","LIN":"36鄰","STREET":"榮譽街","SECT":" ","MAREA":" ","LANE":"１０４巷","ALLEY":" ","HOUSE_NO":"１９號七樓之１","E_COORD97":169891.76000000001,"N_COORD97":2541723.3700000001,"ADDRESS":"榮譽街１０４巷１９號七樓之１","OBJECTID":441725},"geometry":{"x":169891.76000000071,"y":2541723.370000001}},{"attributes":{"ID":441751,"DIS_CODE":0,"TOWNNAME":"東區","LI":"忠孝里","LIN":"36鄰","STREET":"榮譽街","SECT":" ","MAREA":" ","LANE":"１０４巷","ALLEY":" ","HOUSE_NO":"１９號二樓","E_COORD97":169891.76000000001,"N_COORD97":2541723.3700000001,"ADDRESS":"榮譽街１０４巷１９號二樓","OBJECTID":441726},"geometry":{"x":169891.76000000071,"y":2541723.370000001}},{"attributes":{"ID":441752,"DIS_CODE":0,"TOWNNAME":"東區","LI":"忠孝里","LIN":"36鄰","STREET":"榮譽街","SECT":" ","MAREA":" ","LANE":"１０４巷","ALLEY":" ","HOUSE_NO":"１９號二樓之１","E_COORD97":169891.76000000001,"N_COORD97":2541723.3700000001,"ADDRESS":"榮譽街１０４巷１９號二樓之１","OBJECTID":441727},"geometry":{"x":169891.76000000071,"y":2541723.370000001}},{"attributes":{"ID":441753,"DIS_CODE":0,"TOWNNAME":"東區","LI":"忠孝里","LIN":"36鄰","STREET":"榮譽街","SECT":" ","MAREA":" ","LANE":"１０４巷","ALLEY":" ","HOUSE_NO":"１９號三樓","E_COORD97":169891.76000000001,"N_COORD97":2541723.3700000001,"ADDRESS":"榮譽街１０４巷１９號三樓","OBJECTID":441728},"geometry":{"x":169891.76000000071,"y":2541723.370000001}},{"attributes":{"ID":441754,"DIS_CODE":0,"TOWNNAME":"安南區","LI":"布袋里","LIN":"1鄰","STREET":"工明三路","SECT":" ","MAREA":" ","LANE":" ","ALLEY":" ","HOUSE_NO":"１號","E_COORD97":168482.25,"N_COORD97":2551006.8900000001,"ADDRESS":"工明三路１號","OBJECTID":441729},"geometry":{"x":168482.25,"y":2551006.8900000025}},{"attributes":{"ID":441755,"DIS_CODE":0,"TOWNNAME":"東區","LI":"忠孝里","LIN":"36鄰","STREET":"榮譽街","SECT":" ","MAREA":" ","LANE":"１０４巷","ALLEY":" ","HOUSE_NO":"１９號三樓之１","E_COORD97":169891.76000000001,"N_COORD97":2541723.3700000001,"ADDRESS":"榮譽街１０４巷１９號三樓之１","OBJECTID":441730},"geometry":{"x":169891.76000000071,"y":2541723.370000001}},{"attributes":{"ID":441756,"DIS_CODE":0,"TOWNNAME":"東區","LI":"忠孝里","LIN":"36鄰","STREET":"榮譽街","SECT":" ","MAREA":" ","LANE":"１０４巷","ALLEY":" ","HOUSE_NO":"１９號五樓","E_COORD97":169891.76000000001,"N_COORD97":2541723.3700000001,"ADDRESS":"榮譽街１０４巷１９號五樓","OBJECTID":441731},"geometry":{"x":169891.76000000071,"y":2541723.370000001}},{"attributes":{"ID":441757,"DIS_CODE":0,"TOWNNAME":"東區","LI":"忠孝里","LIN":"36鄰","STREET":"榮譽街","SECT":" ","MAREA":" ","LANE":"１０４巷","ALLEY":" ","HOUSE_NO":"１９號五樓之１","E_COORD97":169891.76000000001,"N_COORD97":2541723.3700000001,"ADDRESS":"榮譽街１０４巷１９號五樓之１","OBJECTID":441732},"geometry":{"x":169891.76000000071,"y":2541723.370000001}},{"attributes":{"ID":441758,"DIS_CODE":0,"TOWNNAME":"東區","LI":"忠孝里","LIN":"36鄰","STREET":"榮譽街","SECT":" ","MAREA":" ","LANE":"１０４巷","ALLEY":" ","HOUSE_NO":"１９號六樓","E_COORD97":169891.76000000001,"N_COORD97":2541723.3700000001,"ADDRESS":"榮譽街１０４巷１９號六樓","OBJECTID":441733},"geometry":{"x":169891.76000000071,"y":2541723.370000001}},{"attributes":{"ID":441759,"DIS_CODE":0,"TOWNNAME":"東區","LI":"忠孝里","LIN":"36鄰","STREET":"榮譽街","SECT":" ","MAREA":" ","LANE":"１０４巷","ALLEY":" ","HOUSE_NO":"１９號六樓之１","E_COORD97":169891.76000000001,"N_COORD97":2541723.3700000001,"ADDRESS":"榮譽街１０４巷１９號六樓之１","OBJECTID":441734},"geometry":{"x":169891.76000000071,"y":2541723.370000001}},{"attributes":{"ID":441760,"DIS_CODE":0,"TOWNNAME":"東區","LI":"忠孝里","LIN":"36鄰","STREET":"榮譽街","SECT":" ","MAREA":" ","LANE":"１０４巷","ALLEY":" ","HOUSE_NO":"１９號四樓","E_COORD97":169891.76000000001,"N_COORD97":2541723.3700000001,"ADDRESS":"榮譽街１０４巷１９號四樓","OBJECTID":441735},"geometry":{"x":169891.76000000071,"y":2541723.370000001}},{"attributes":{"ID":441761,"DIS_CODE":0,"TOWNNAME":"東區","LI":"忠孝里","LIN":"36鄰","STREET":"榮譽街","SECT":" ","MAREA":" ","LANE":"１０４巷","ALLEY":" ","HOUSE_NO":"１９號四樓之１","E_COORD97":169891.76000000001,"N_COORD97":2541723.3700000001,"ADDRESS":"榮譽街１０４巷１９號四樓之１","OBJECTID":441736},"geometry":{"x":169891.76000000071,"y":2541723.370000001}},{"attributes":{"ID":441762,"DIS_CODE":0,"TOWNNAME":"永康區","LI":"永康里","LIN":"36鄰","STREET":"永平街","SECT":" ","MAREA":" ","LANE":"５６巷","ALLEY":" ","HOUSE_NO":"２號六樓之３","E_COORD97":174356.54999999999,"N_COORD97":2546819.5499999998,"ADDRESS":"永平街５６巷２號六樓之３","OBJECTID":441737},"geometry":{"x":174356.55000000075,"y":2546819.5500000026}},{"attributes":{"ID":441763,"DIS_CODE":0,"TOWNNAME":"永康區","LI":"永康里","LIN":"36鄰","STREET":"永平街","SECT":" ","MAREA":" ","LANE":"５６巷","ALLEY":" ","HOUSE_NO":"２號十樓之７","E_COORD97":174356.53,"N_COORD97":2546819.5499999998,"ADDRESS":"永平街５６巷２號十樓之７","OBJECTID":441738},"geometry":{"x":174356.53000000026,"y":2546819.5500000026}},{"attributes":{"ID":441764,"DIS_CODE":0,"TOWNNAME":"永康區","LI":"永康里","LIN":"36鄰","STREET":"永平街","SECT":" ","MAREA":" ","LANE":"５６巷","ALLEY":" ","HOUSE_NO":"２號四樓之５","E_COORD97":174356.60999999999,"N_COORD97":2546819.5499999998,"ADDRESS":"永平街５６巷２號四樓之５","OBJECTID":441739},"geometry":{"x":174356.61000000127,"y":2546819.5500000026}},{"attributes":{"ID":441765,"DIS_CODE":0,"TOWNNAME":"永康區","LI":"永康里","LIN":"36鄰","STREET":"永平街","SECT":" ","MAREA":" ","LANE":"５６巷","ALLEY":" ","HOUSE_NO":"２號五樓之１","E_COORD97":174356.45000000001,"N_COORD97":2546819.5499999998,"ADDRESS":"永平街５６巷２號五樓之１","OBJECTID":441740},"geometry":{"x":174356.45000000019,"y":2546819.5500000026}},{"attributes":{"ID":441766,"DIS_CODE":0,"TOWNNAME":"永康區","LI":"永康里","LIN":"36鄰","STREET":"永平街","SECT":" ","MAREA":" ","LANE":"５６巷","ALLEY":" ","HOUSE_NO":"２號四樓之７","E_COORD97":174356.53,"N_COORD97":2546819.5499999998,"ADDRESS":"永平街５６巷２號四樓之７","OBJECTID":441741},"geometry":{"x":174356.53000000026,"y":2546819.5500000026}},{"attributes":{"ID":441767,"DIS_CODE":0,"TOWNNAME":"永康區","LI":"永康里","LIN":"36鄰","STREET":"永平街","SECT":" ","MAREA":" ","LANE":"５６巷","ALLEY":" ","HOUSE_NO":"２號十樓之８","E_COORD97":174356.60000000001,"N_COORD97":2546819.5499999998,"ADDRESS":"永平街５６巷２號十樓之８","OBJECTID":441742},"geometry":{"x":174356.59999999963,"y":2546819.5500000026}},{"attributes":{"ID":441768,"DIS_CODE":0,"TOWNNAME":"永康區","LI":"永康里","LIN":"36鄰","STREET":"永平街","SECT":" ","MAREA":" ","LANE":"５６巷","ALLEY":" ","HOUSE_NO":"２號十樓之５","E_COORD97":174356.60999999999,"N_COORD97":2546819.5499999998,"ADDRESS":"永平街５６巷２號十樓之５","OBJECTID":441743},"geometry":{"x":174356.61000000127,"y":2546819.5500000026}},{"attributes":{"ID":441769,"DIS_CODE":0,"TOWNNAME":"永康區","LI":"永康里","LIN":"36鄰","STREET":"永平街","SECT":" ","MAREA":" ","LANE":"５６巷","ALLEY":" ","HOUSE_NO":"２號七樓之１","E_COORD97":174356.45000000001,"N_COORD97":2546819.5499999998,"ADDRESS":"永平街５６巷２號七樓之１","OBJECTID":441744},"geometry":{"x":174356.45000000019,"y":2546819.5500000026}},{"attributes":{"ID":441770,"DIS_CODE":0,"TOWNNAME":"永康區","LI":"永康里","LIN":"36鄰","STREET":"永平街","SECT":" ","MAREA":" ","LANE":"５６巷","ALLEY":" ","HOUSE_NO":"２號七樓之１２","E_COORD97":174357.82999999999,"N_COORD97":2546819.5499999998,"ADDRESS":"永平街５６巷２號七樓之１２","OBJECTID":441745},"geometry":{"x":174357.82999999914,"y":2546819.5500000026}},{"attributes":{"ID":441771,"DIS_CODE":0,"TOWNNAME":"永康區","LI":"永康里","LIN":"36鄰","STREET":"永平街","SECT":" ","MAREA":" ","LANE":"５６巷","ALLEY":" ","HOUSE_NO":"２號十樓之６","E_COORD97":174356.54999999999,"N_COORD97":2546819.5499999998,"ADDRESS":"永平街５６巷２號十樓之６","OBJECTID":441746},"geometry":{"x":174356.55000000075,"y":2546819.5500000026}},{"attributes":{"ID":441772,"DIS_CODE":0,"TOWNNAME":"永康區","LI":"永康里","LIN":"36鄰","STREET":"永平街","SECT":" ","MAREA":" ","LANE":"５６巷","ALLEY":" ","HOUSE_NO":"２號四樓之２","E_COORD97":174356.57999999999,"N_COORD97":2546819.5499999998,"ADDRESS":"永平街５６巷２號四樓之２","OBJECTID":441747},"geometry":{"x":174356.58000000101,"y":2546819.5500000026}},{"attributes":{"ID":441773,"DIS_CODE":0,"TOWNNAME":"永康區","LI":"永康里","LIN":"36鄰","STREET":"永平街","SECT":" ","MAREA":" ","LANE":"５６巷","ALLEY":" ","HOUSE_NO":"２號十樓之１０","E_COORD97":174357.75,"N_COORD97":2546819.5499999998,"ADDRESS":"永平街５６巷２號十樓之１０","OBJECTID":441748},"geometry":{"x":174357.75,"y":2546819.5500000026}},{"attributes":{"ID":441774,"DIS_CODE":0,"TOWNNAME":"永康區","LI":"永康里","LIN":"36鄰","STREET":"永平街","SECT":" ","MAREA":" ","LANE":"５６巷","ALLEY":" ","HOUSE_NO":"２號十四樓之８","E_COORD97":174357.85000000001,"N_COORD97":2546819.5499999998,"ADDRESS":"永平街５６巷２號十四樓之８","OBJECTID":441749},"geometry":{"x":174357.85000000056,"y":2546819.5500000026}},{"attributes":{"ID":441775,"DIS_CODE":0,"TOWNNAME":"永康區","LI":"永康里","LIN":"36鄰","STREET":"永平街","SECT":" ","MAREA":" ","LANE":"５６巷","ALLEY":" ","HOUSE_NO":"２號四樓之８","E_COORD97":174356.60000000001,"N_COORD97":2546819.5499999998,"ADDRESS":"永平街５６巷２號四樓之８","OBJECTID":441750},"geometry":{"x":174356.59999999963,"y":2546819.5500000026}},{"attributes":{"ID":441776,"DIS_CODE":0,"TOWNNAME":"永康區","LI":"永康里","LIN":"36鄰","STREET":"永平街","SECT":" ","MAREA":" ","LANE":"５６巷","ALLEY":" ","HOUSE_NO":"２號六樓之１２","E_COORD97":174357.82999999999,"N_COORD97":2546819.5499999998,"ADDRESS":"永平街５６巷２號六樓之１２","OBJECTID":441751},"geometry":{"x":174357.82999999914,"y":2546819.5500000026}},{"attributes":{"ID":441777,"DIS_CODE":0,"TOWNNAME":"永康區","LI":"永康里","LIN":"36鄰","STREET":"永平街","SECT":" ","MAREA":" ","LANE":"５６巷","ALLEY":" ","HOUSE_NO":"２號七樓之５","E_COORD97":174356.60999999999,"N_COORD97":2546819.5499999998,"ADDRESS":"永平街５６巷２號七樓之５","OBJECTID":441752},"geometry":{"x":174356.61000000127,"y":2546819.5500000026}},{"attributes":{"ID":441778,"DIS_CODE":0,"TOWNNAME":"永康區","LI":"永康里","LIN":"36鄰","STREET":"永平街","SECT":" ","MAREA":" ","LANE":"５６巷","ALLEY":" ","HOUSE_NO":"２號七樓之３","E_COORD97":174356.54999999999,"N_COORD97":2546819.5499999998,"ADDRESS":"永平街５６巷２號七樓之３","OBJECTID":441753},"geometry":{"x":174356.55000000075,"y":2546819.5500000026}},{"attributes":{"ID":441779,"DIS_CODE":0,"TOWNNAME":"永康區","LI":"永康里","LIN":"36鄰","STREET":"永平街","SECT":" ","MAREA":" ","LANE":"５６巷","ALLEY":" ","HOUSE_NO":"２號十樓之１","E_COORD97":174356.45000000001,"N_COORD97":2546819.5499999998,"ADDRESS":"永平街５６巷２號十樓之１","OBJECTID":441754},"geometry":{"x":174356.45000000019,"y":2546819.5500000026}},{"attributes":{"ID":441780,"DIS_CODE":0,"TOWNNAME":"永康區","LI":"永康里","LIN":"36鄰","STREET":"永平街","SECT":" ","MAREA":" ","LANE":"５６巷","ALLEY":" ","HOUSE_NO":"２號十四樓之３","E_COORD97":174357.79999999999,"N_COORD97":2546819.5499999998,"ADDRESS":"永平街５６巷２號十四樓之３","OBJECTID":441755},"geometry":{"x":174357.80000000168,"y":2546819.5500000026}},{"attributes":{"ID":441781,"DIS_CODE":0,"TOWNNAME":"永康區","LI":"永康里","LIN":"36鄰","STREET":"永平街","SECT":" ","MAREA":" ","LANE":"５６巷","ALLEY":" ","HOUSE_NO":"２號十四樓之７","E_COORD97":174357.78,"N_COORD97":2546819.5499999998,"ADDRESS":"永平街５６巷２號十四樓之７","OBJECTID":441756},"geometry":{"x":174357.78000000026,"y":2546819.5500000026}},{"attributes":{"ID":441782,"DIS_CODE":0,"TOWNNAME":"永康區","LI":"永康里","LIN":"36鄰","STREET":"永平街","SECT":" ","MAREA":" ","LANE":"５６巷","ALLEY":" ","HOUSE_NO":"２號十二樓之７","E_COORD97":174357.78,"N_COORD97":2546819.5499999998,"ADDRESS":"永平街５６巷２號十二樓之７","OBJECTID":441757},"geometry":{"x":174357.78000000026,"y":2546819.5500000026}},{"attributes":{"ID":441783,"DIS_CODE":0,"TOWNNAME":"永康區","LI":"東灣里","LIN":"36鄰","STREET":"民族路","SECT":" ","MAREA":" ","LANE":"２７３巷","ALLEY":" ","HOUSE_NO":"３３號九樓之３","E_COORD97":175060.62,"N_COORD97":2544926.4500000002,"ADDRESS":"民族路２７３巷３３號九樓之３","OBJECTID":441758},"geometry":{"x":175060.62000000011,"y":2544926.4500000011}},{"attributes":{"ID":441784,"DIS_CODE":0,"TOWNNAME":"永康區","LI":"永康里","LIN":"36鄰","STREET":"永平街","SECT":" ","MAREA":" ","LANE":"５６巷","ALLEY":" ","HOUSE_NO":"２號十五樓之５","E_COORD97":174357.85999999999,"N_COORD97":2546819.5499999998,"ADDRESS":"永平街５６巷２號十五樓之５","OBJECTID":441759},"geometry":{"x":174357.8599999994,"y":2546819.5500000026}},{"attributes":{"ID":441785,"DIS_CODE":0,"TOWNNAME":"永康區","LI":"永康里","LIN":"36鄰","STREET":"永平街","SECT":" ","MAREA":" ","LANE":"５６巷","ALLEY":" ","HOUSE_NO":"２號十二樓之１","E_COORD97":174357.70000000001,"N_COORD97":2546819.5499999998,"ADDRESS":"永平街５６巷２號十二樓之１","OBJECTID":441760},"geometry":{"x":174357.70000000112,"y":2546819.5500000026}},{"attributes":{"ID":441786,"DIS_CODE":0,"TOWNNAME":"永康區","LI":"永康里","LIN":"36鄰","STREET":"永平街","SECT":" ","MAREA":" ","LANE":"５６巷","ALLEY":" ","HOUSE_NO":"２號十三樓之１０","E_COORD97":174359,"N_COORD97":2546819.5499999998,"ADDRESS":"永平街５６巷２號十三樓之１０","OBJECTID":441761},"geometry":{"x":174359.00000000093,"y":2546819.5500000026}},{"attributes":{"ID":441787,"DIS_CODE":0,"TOWNNAME":"永康區","LI":"永康里","LIN":"36鄰","STREET":"永平街","SECT":" ","MAREA":" ","LANE":"５６巷","ALLEY":" ","HOUSE_NO":"２號十一樓之８","E_COORD97":174357.85000000001,"N_COORD97":2546819.5499999998,"ADDRESS":"永平街５６巷２號十一樓之８","OBJECTID":441762},"geometry":{"x":174357.85000000056,"y":2546819.5500000026}},{"attributes":{"ID":441788,"DIS_CODE":0,"TOWNNAME":"東區","LI":"小東里","LIN":"36鄰","STREET":"光明街","SECT":" ","MAREA":" ","LANE":"１０２巷","ALLEY":" ","HOUSE_NO":"１１號二樓","E_COORD97":170839.22,"N_COORD97":2544041.6899999999,"ADDRESS":"光明街１０２巷１１號二樓","OBJECTID":441763},"geometry":{"x":170839.22000000067,"y":2544041.6899999995}},{"attributes":{"ID":441789,"DIS_CODE":0,"TOWNNAME":"東區","LI":"小東里","LIN":"36鄰","STREET":"光明街","SECT":" ","MAREA":" ","LANE":"１０２巷","ALLEY":" ","HOUSE_NO":"１１號三樓","E_COORD97":170839.22,"N_COORD97":2544041.6899999999,"ADDRESS":"光明街１０２巷１１號三樓","OBJECTID":441764},"geometry":{"x":170839.22000000067,"y":2544041.6899999995}},{"attributes":{"ID":441790,"DIS_CODE":0,"TOWNNAME":"東區","LI":"小東里","LIN":"36鄰","STREET":"光明街","SECT":" ","MAREA":" ","LANE":"１０２巷","ALLEY":" ","HOUSE_NO":"１１號五樓","E_COORD97":170839.22,"N_COORD97":2544041.6899999999,"ADDRESS":"光明街１０２巷１１號五樓","OBJECTID":441765},"geometry":{"x":170839.22000000067,"y":2544041.6899999995}},{"attributes":{"ID":441791,"DIS_CODE":0,"TOWNNAME":"東區","LI":"小東里","LIN":"36鄰","STREET":"光明街","SECT":" ","MAREA":" ","LANE":"１０２巷","ALLEY":" ","HOUSE_NO":"１１號四樓","E_COORD97":170839.22,"N_COORD97":2544041.6899999999,"ADDRESS":"光明街１０２巷１１號四樓","OBJECTID":441766},"geometry":{"x":170839.22000000067,"y":2544041.6899999995}},{"attributes":{"ID":441792,"DIS_CODE":0,"TOWNNAME":"東區","LI":"小東里","LIN":"36鄰","STREET":"光明街","SECT":" ","MAREA":" ","LANE":"１０２巷","ALLEY":" ","HOUSE_NO":"１３號二樓","E_COORD97":170823.45000000001,"N_COORD97":2544042.2400000002,"ADDRESS":"光明街１０２巷１３號二樓","OBJECTID":441767},"geometry":{"x":170823.45000000112,"y":2544042.2400000002}},{"attributes":{"ID":441793,"DIS_CODE":0,"TOWNNAME":"東區","LI":"小東里","LIN":"36鄰","STREET":"光明街","SECT":" ","MAREA":" ","LANE":"１０２巷","ALLEY":" ","HOUSE_NO":"１３號三樓","E_COORD97":170823.45000000001,"N_COORD97":2544042.2400000002,"ADDRESS":"光明街１０２巷１３號三樓","OBJECTID":441768},"geometry":{"x":170823.45000000112,"y":2544042.2400000002}},{"attributes":{"ID":441794,"DIS_CODE":0,"TOWNNAME":"東區","LI":"小東里","LIN":"36鄰","STREET":"光明街","SECT":" ","MAREA":" ","LANE":"１０２巷","ALLEY":" ","HOUSE_NO":"１３號五樓","E_COORD97":170823.45000000001,"N_COORD97":2544042.2400000002,"ADDRESS":"光明街１０２巷１３號五樓","OBJECTID":441769},"geometry":{"x":170823.45000000112,"y":2544042.2400000002}},{"attributes":{"ID":441795,"DIS_CODE":0,"TOWNNAME":"東區","LI":"小東里","LIN":"36鄰","STREET":"光明街","SECT":" ","MAREA":" ","LANE":"１０２巷","ALLEY":" ","HOUSE_NO":"１３號四樓","E_COORD97":170823.45000000001,"N_COORD97":2544042.2400000002,"ADDRESS":"光明街１０２巷１３號四樓","OBJECTID":441770},"geometry":{"x":170823.45000000112,"y":2544042.2400000002}},{"attributes":{"ID":441796,"DIS_CODE":0,"TOWNNAME":"東區","LI":"小東里","LIN":"36鄰","STREET":"光明街","SECT":" ","MAREA":" ","LANE":"１０２巷","ALLEY":" ","HOUSE_NO":"１５號二樓","E_COORD97":170808.76000000001,"N_COORD97":2544042.2400000002,"ADDRESS":"光明街１０２巷１５號二樓","OBJECTID":441771},"geometry":{"x":170808.76000000071,"y":2544042.2400000002}},{"attributes":{"ID":441797,"DIS_CODE":0,"TOWNNAME":"東區","LI":"小東里","LIN":"36鄰","STREET":"光明街","SECT":" ","MAREA":" ","LANE":"１０２巷","ALLEY":" ","HOUSE_NO":"１５號三樓","E_COORD97":170808.76000000001,"N_COORD97":2544042.2400000002,"ADDRESS":"光明街１０２巷１５號三樓","OBJECTID":441772},"geometry":{"x":170808.76000000071,"y":2544042.2400000002}},{"attributes":{"ID":441798,"DIS_CODE":0,"TOWNNAME":"東區","LI":"小東里","LIN":"36鄰","STREET":"光明街","SECT":" ","MAREA":" ","LANE":"１０２巷","ALLEY":" ","HOUSE_NO":"１５號五樓","E_COORD97":170808.76000000001,"N_COORD97":2544042.2400000002,"ADDRESS":"光明街１０２巷１５號五樓","OBJECTID":441773},"geometry":{"x":170808.76000000071,"y":2544042.2400000002}},{"attributes":{"ID":441799,"DIS_CODE":0,"TOWNNAME":"東區","LI":"小東里","LIN":"36鄰","STREET":"光明街","SECT":" ","MAREA":" ","LANE":"１０２巷","ALLEY":" ","HOUSE_NO":"１５號四樓","E_COORD97":170808.76000000001,"N_COORD97":2544042.2400000002,"ADDRESS":"光明街１０２巷１５號四樓","OBJECTID":441774},"geometry":{"x":170808.76000000071,"y":2544042.2400000002}},{"attributes":{"ID":441800,"DIS_CODE":0,"TOWNNAME":"東區","LI":"小東里","LIN":"36鄰","STREET":"光明街","SECT":" ","MAREA":" ","LANE":"１０２巷","ALLEY":" ","HOUSE_NO":"１號二樓","E_COORD97":170907.57999999999,"N_COORD97":2544043.5800000001,"ADDRESS":"光明街１０２巷１號二樓","OBJECTID":441775},"geometry":{"x":170907.58000000007,"y":2544043.5800000001}},{"attributes":{"ID":441801,"DIS_CODE":0,"TOWNNAME":"東區","LI":"小東里","LIN":"36鄰","STREET":"光明街","SECT":" ","MAREA":" ","LANE":"１０２巷","ALLEY":" ","HOUSE_NO":"１號三樓","E_COORD97":170907.57999999999,"N_COORD97":2544043.5800000001,"ADDRESS":"光明街１０２巷１號三樓","OBJECTID":441776},"geometry":{"x":170907.58000000007,"y":2544043.5800000001}},{"attributes":{"ID":441802,"DIS_CODE":0,"TOWNNAME":"東區","LI":"小東里","LIN":"36鄰","STREET":"光明街","SECT":" ","MAREA":" ","LANE":"１０２巷","ALLEY":" ","HOUSE_NO":"１號五樓","E_COORD97":170907.57999999999,"N_COORD97":2544043.5800000001,"ADDRESS":"光明街１０２巷１號五樓","OBJECTID":441777},"geometry":{"x":170907.58000000007,"y":2544043.5800000001}},{"attributes":{"ID":441803,"DIS_CODE":0,"TOWNNAME":"東區","LI":"小東里","LIN":"36鄰","STREET":"光明街","SECT":" ","MAREA":" ","LANE":"１０２巷","ALLEY":" ","HOUSE_NO":"１號四樓","E_COORD97":170907.57999999999,"N_COORD97":2544043.5800000001,"ADDRESS":"光明街１０２巷１號四樓","OBJECTID":441778},"geometry":{"x":170907.58000000007,"y":2544043.5800000001}},{"attributes":{"ID":441804,"DIS_CODE":0,"TOWNNAME":"東區","LI":"小東里","LIN":"36鄰","STREET":"光明街","SECT":" ","MAREA":" ","LANE":"１０２巷","ALLEY":" ","HOUSE_NO":"３號二樓","E_COORD97":170897.42999999999,"N_COORD97":2544043.3199999998,"ADDRESS":"光明街１０２巷３號二樓","OBJECTID":441779},"geometry":{"x":170897.43000000063,"y":2544043.3200000022}},{"attributes":{"ID":441805,"DIS_CODE":0,"TOWNNAME":"東區","LI":"小東里","LIN":"36鄰","STREET":"光明街","SECT":" ","MAREA":" ","LANE":"１０２巷","ALLEY":" ","HOUSE_NO":"３號三樓","E_COORD97":170897.42999999999,"N_COORD97":2544043.3199999998,"ADDRESS":"光明街１０２巷３號三樓","OBJECTID":441780},"geometry":{"x":170897.43000000063,"y":2544043.3200000022}},{"attributes":{"ID":441806,"DIS_CODE":0,"TOWNNAME":"東區","LI":"小東里","LIN":"36鄰","STREET":"光明街","SECT":" ","MAREA":" ","LANE":"１０２巷","ALLEY":" ","HOUSE_NO":"３號五樓","E_COORD97":170897.42999999999,"N_COORD97":2544043.3199999998,"ADDRESS":"光明街１０２巷３號五樓","OBJECTID":441781},"geometry":{"x":170897.43000000063,"y":2544043.3200000022}},{"attributes":{"ID":441807,"DIS_CODE":0,"TOWNNAME":"東區","LI":"小東里","LIN":"36鄰","STREET":"光明街","SECT":" ","MAREA":" ","LANE":"１０２巷","ALLEY":" ","HOUSE_NO":"３號四樓","E_COORD97":170897.42999999999,"N_COORD97":2544043.3199999998,"ADDRESS":"光明街１０２巷３號四樓","OBJECTID":441782},"geometry":{"x":170897.43000000063,"y":2544043.3200000022}},{"attributes":{"ID":441808,"DIS_CODE":0,"TOWNNAME":"東區","LI":"小東里","LIN":"36鄰","STREET":"光明街","SECT":" ","MAREA":" ","LANE":"１０２巷","ALLEY":" ","HOUSE_NO":"５號二樓","E_COORD97":170885.45999999999,"N_COORD97":2544042.7799999998,"ADDRESS":"光明街１０２巷５號二樓","OBJECTID":441783},"geometry":{"x":170885.46000000089,"y":2544042.7800000012}},{"attributes":{"ID":441809,"DIS_CODE":0,"TOWNNAME":"東區","LI":"小東里","LIN":"36鄰","STREET":"光明街","SECT":" ","MAREA":" ","LANE":"１０２巷","ALLEY":" ","HOUSE_NO":"５號三樓","E_COORD97":170885.45999999999,"N_COORD97":2544042.7799999998,"ADDRESS":"光明街１０２巷５號三樓","OBJECTID":441784},"geometry":{"x":170885.46000000089,"y":2544042.7800000012}},{"attributes":{"ID":441810,"DIS_CODE":0,"TOWNNAME":"東區","LI":"小東里","LIN":"36鄰","STREET":"光明街","SECT":" ","MAREA":" ","LANE":"１０２巷","ALLEY":" ","HOUSE_NO":"５號五樓","E_COORD97":170885.45999999999,"N_COORD97":2544042.7799999998,"ADDRESS":"光明街１０２巷５號五樓","OBJECTID":441785},"geometry":{"x":170885.46000000089,"y":2544042.7800000012}},{"attributes":{"ID":441811,"DIS_CODE":0,"TOWNNAME":"東區","LI":"小東里","LIN":"36鄰","STREET":"光明街","SECT":" ","MAREA":" ","LANE":"１０２巷","ALLEY":" ","HOUSE_NO":"５號四樓","E_COORD97":170885.45999999999,"N_COORD97":2544042.7799999998,"ADDRESS":"光明街１０２巷５號四樓","OBJECTID":441786},"geometry":{"x":170885.46000000089,"y":2544042.7800000012}},{"attributes":{"ID":441812,"DIS_CODE":0,"TOWNNAME":"東區","LI":"小東里","LIN":"36鄰","STREET":"光明街","SECT":" ","MAREA":" ","LANE":"１０２巷","ALLEY":" ","HOUSE_NO":"７號二樓","E_COORD97":170871.32000000001,"N_COORD97":2544042.7799999998,"ADDRESS":"光明街１０２巷７號二樓","OBJECTID":441787},"geometry":{"x":170871.32000000216,"y":2544042.7800000012}},{"attributes":{"ID":441813,"DIS_CODE":0,"TOWNNAME":"東區","LI":"小東里","LIN":"36鄰","STREET":"光明街","SECT":" ","MAREA":" ","LANE":"１０２巷","ALLEY":" ","HOUSE_NO":"７號三樓","E_COORD97":170871.32000000001,"N_COORD97":2544042.7799999998,"ADDRESS":"光明街１０２巷７號三樓","OBJECTID":441788},"geometry":{"x":170871.32000000216,"y":2544042.7800000012}},{"attributes":{"ID":441814,"DIS_CODE":0,"TOWNNAME":"東區","LI":"小東里","LIN":"36鄰","STREET":"光明街","SECT":" ","MAREA":" ","LANE":"１０２巷","ALLEY":" ","HOUSE_NO":"７號五樓","E_COORD97":170871.32000000001,"N_COORD97":2544042.7799999998,"ADDRESS":"光明街１０２巷７號五樓","OBJECTID":441789},"geometry":{"x":170871.32000000216,"y":2544042.7800000012}},{"attributes":{"ID":441815,"DIS_CODE":0,"TOWNNAME":"東區","LI":"小東里","LIN":"36鄰","STREET":"光明街","SECT":" ","MAREA":" ","LANE":"１０２巷","ALLEY":" ","HOUSE_NO":"７號四樓","E_COORD97":170871.32000000001,"N_COORD97":2544042.7799999998,"ADDRESS":"光明街１０２巷７號四樓","OBJECTID":441790},"geometry":{"x":170871.32000000216,"y":2544042.7800000012}},{"attributes":{"ID":441816,"DIS_CODE":0,"TOWNNAME":"東區","LI":"小東里","LIN":"36鄰","STREET":"光明街","SECT":" ","MAREA":" ","LANE":"１０２巷","ALLEY":" ","HOUSE_NO":"９號二樓","E_COORD97":170853.91,"N_COORD97":2544042.2400000002,"ADDRESS":"光明街１０２巷９號二樓","OBJECTID":441791},"geometry":{"x":170853.91000000108,"y":2544042.2400000002}},{"attributes":{"ID":441817,"DIS_CODE":0,"TOWNNAME":"安南區","LI":"布袋里","LIN":"1鄰","STREET":"工明三路","SECT":" ","MAREA":" ","LANE":" ","ALLEY":" ","HOUSE_NO":"３號","E_COORD97":168487.73999999999,"N_COORD97":2551023.8900000001,"ADDRESS":"工明三路３號","OBJECTID":441792},"geometry":{"x":168487.74000000022,"y":2551023.8900000025}},{"attributes":{"ID":441818,"DIS_CODE":0,"TOWNNAME":"東區","LI":"小東里","LIN":"36鄰","STREET":"光明街","SECT":" ","MAREA":" ","LANE":"１０２巷","ALLEY":" ","HOUSE_NO":"９號三樓","E_COORD97":170853.91,"N_COORD97":2544042.2400000002,"ADDRESS":"光明街１０２巷９號三樓","OBJECTID":441793},"geometry":{"x":170853.91000000108,"y":2544042.2400000002}},{"attributes":{"ID":441819,"DIS_CODE":0,"TOWNNAME":"東區","LI":"小東里","LIN":"36鄰","STREET":"光明街","SECT":" ","MAREA":" ","LANE":"１０２巷","ALLEY":" ","HOUSE_NO":"９號五樓","E_COORD97":170853.91,"N_COORD97":2544042.2400000002,"ADDRESS":"光明街１０２巷９號五樓","OBJECTID":441794},"geometry":{"x":170853.91000000108,"y":2544042.2400000002}},{"attributes":{"ID":441820,"DIS_CODE":0,"TOWNNAME":"東區","LI":"小東里","LIN":"36鄰","STREET":"光明街","SECT":" ","MAREA":" ","LANE":"１０２巷","ALLEY":" ","HOUSE_NO":"９號四樓","E_COORD97":170853.91,"N_COORD97":2544042.2400000002,"ADDRESS":"光明街１０２巷９號四樓","OBJECTID":441795},"geometry":{"x":170853.91000000108,"y":2544042.2400000002}},{"attributes":{"ID":441821,"DIS_CODE":0,"TOWNNAME":"永康區","LI":"永康里","LIN":"36鄰","STREET":"永平街","SECT":" ","MAREA":" ","LANE":"５６巷","ALLEY":" ","HOUSE_NO":"２號四樓之１２","E_COORD97":174357.82999999999,"N_COORD97":2546819.5499999998,"ADDRESS":"永平街５６巷２號四樓之１２","OBJECTID":441796},"geometry":{"x":174357.82999999914,"y":2546819.5500000026}},{"attributes":{"ID":441822,"DIS_CODE":0,"TOWNNAME":"永康區","LI":"永康里","LIN":"36鄰","STREET":"永平街","SECT":" ","MAREA":" ","LANE":"５６巷","ALLEY":" ","HOUSE_NO":"２號十六樓之８","E_COORD97":174357.85000000001,"N_COORD97":2546819.5499999998,"ADDRESS":"永平街５６巷２號十六樓之８","OBJECTID":441797},"geometry":{"x":174357.85000000056,"y":2546819.5500000026}},{"attributes":{"ID":441823,"DIS_CODE":0,"TOWNNAME":"永康區","LI":"東灣里","LIN":"36鄰","STREET":"民族路","SECT":" ","MAREA":" ","LANE":"２７３巷","ALLEY":" ","HOUSE_NO":"３３號十樓之１","E_COORD97":175060.51999999999,"N_COORD97":2544926.4500000002,"ADDRESS":"民族路２７３巷３３號十樓之１","OBJECTID":441798},"geometry":{"x":175060.51999999955,"y":2544926.4500000011}},{"attributes":{"ID":441824,"DIS_CODE":0,"TOWNNAME":"永康區","LI":"東灣里","LIN":"36鄰","STREET":"民族路","SECT":" ","MAREA":" ","LANE":"２７３巷","ALLEY":" ","HOUSE_NO":"３３號五樓之２","E_COORD97":175060.66,"N_COORD97":2544926.4500000002,"ADDRESS":"民族路２７３巷３３號五樓之２","OBJECTID":441799},"geometry":{"x":175060.66000000015,"y":2544926.4500000011}},{"attributes":{"ID":441825,"DIS_CODE":0,"TOWNNAME":"永康區","LI":"東灣里","LIN":"36鄰","STREET":"民族路","SECT":" ","MAREA":" ","LANE":"２７３巷","ALLEY":" ","HOUSE_NO":"３１號四樓之１","E_COORD97":175063.87,"N_COORD97":2544931.2000000002,"ADDRESS":"民族路２７３巷３１號四樓之１","OBJECTID":441800},"geometry":{"x":175063.87000000011,"y":2544931.2000000011}}]}