{"displayFieldName":"TOWNNAME","fieldAliases":{"ID":"ID","DIS_CODE":"DIS_CODE","TOWNNAME":"TOWNNAME","LI":"LI","LIN":"LIN","STREET":"STREET","SECT":"SECT","MAREA":"MAREA","LANE":"LANE","ALLEY":"ALLEY","HOUSE_NO":"HOUSE_NO","E_COORD97":"E_COORD97","N_COORD97":"N_COORD97","ADDRESS":"ADDRESS","OBJECTID":"OBJECTID"},"geometryType":"esriGeometryPoint","spatialReference":{"wkid":102443,"latestWkid":3826},"fields":[{"name":"ID","type":"esriFieldTypeDouble","alias":"ID"},{"name":"DIS_CODE","type":"esriFieldTypeInteger","alias":"DIS_CODE"},{"name":"TOWNNAME","type":"esriFieldTypeString","alias":"TOWNNAME","length":8},{"name":"LI","type":"esriFieldTypeString","alias":"LI","length":8},{"name":"LIN","type":"esriFieldTypeString","alias":"LIN","length":12},{"name":"STREET","type":"esriFieldTypeString","alias":"STREET","length":20},{"name":"SECT","type":"esriFieldTypeString","alias":"SECT","length":8},{"name":"MAREA","type":"esriFieldTypeString","alias":"MAREA","length":12},{"name":"LANE","type":"esriFieldTypeString","alias":"LANE","length":10},{"name":"ALLEY","type":"esriFieldTypeString","alias":"ALLEY","length":10},{"name":"HOUSE_NO","type":"esriFieldTypeString","alias":"HOUSE_NO","length":20},{"name":"E_COORD97","type":"esriFieldTypeDouble","alias":"E_COORD97"},{"name":"N_COORD97","type":"esriFieldTypeDouble","alias":"N_COORD97"},{"name":"ADDRESS","type":"esriFieldTypeString","alias":"ADDRESS","length":50},{"name":"OBJECTID","type":"esriFieldTypeOID","alias":"OBJECTID"}],"features":[{"attributes":{"ID":801,"DIS_CODE":0,"TOWNNAME":"關廟區","LI":"埤頭里","LIN":"1鄰","STREET":"關新路","SECT":"一段","MAREA":" ","LANE":" ","ALLEY":" ","HOUSE_NO":"７００號","E_COORD97":179172.95730099999,"N_COORD97":2543568.8416200001,"ADDRESS":"關新路一段７００號","OBJECTID":801},"geometry":{"x":179172.95730100106,"y":2543568.8416180015}},{"attributes":{"ID":802,"DIS_CODE":0,"TOWNNAME":"仁德區","LI":"太子里","LIN":"31鄰","STREET":"土庫五街","SECT":" ","MAREA":" ","LANE":" ","ALLEY":" ","HOUSE_NO":"２７號","E_COORD97":174014.02360099999,"N_COORD97":2543154.1840900001,"ADDRESS":"土庫五街２７號","OBJECTID":802},"geometry":{"x":174014.02360100113,"y":2543154.1840899996}},{"attributes":{"ID":803,"DIS_CODE":0,"TOWNNAME":"仁德區","LI":"太子里","LIN":"31鄰","STREET":"土庫五街","SECT":" ","MAREA":" ","LANE":" ","ALLEY":" ","HOUSE_NO":"２５號","E_COORD97":174013.17651300001,"N_COORD97":2543148.2574300002,"ADDRESS":"土庫五街２５號","OBJECTID":803},"geometry":{"x":174013.17651300132,"y":2543148.2574269995}},{"attributes":{"ID":804,"DIS_CODE":0,"TOWNNAME":"安南區","LI":"城西里","LIN":"2鄰","STREET":"城西街","SECT":"三段","MAREA":" ","LANE":"４８４巷","ALLEY":" ","HOUSE_NO":"２１號","E_COORD97":157192.18376499999,"N_COORD97":2550918.4315399998,"ADDRESS":"城西街三段４８４巷２１號","OBJECTID":804},"geometry":{"x":157192.18376500066,"y":2550918.4315419998}},{"attributes":{"ID":805,"DIS_CODE":0,"TOWNNAME":"新營區","LI":"舊部里","LIN":"1鄰","STREET":" ","SECT":" ","MAREA":"舊部","LANE":" ","ALLEY":" ","HOUSE_NO":"８之２號","E_COORD97":177007.71589399999,"N_COORD97":2575430.2607399998,"ADDRESS":"舊部８之２號","OBJECTID":805},"geometry":{"x":177007.7158940006,"y":2575430.2607390005}},{"attributes":{"ID":806,"DIS_CODE":0,"TOWNNAME":"安南區","LI":"州南里","LIN":"1鄰","STREET":"安和路","SECT":"四段","MAREA":" ","LANE":" ","ALLEY":" ","HOUSE_NO":"２７６號","E_COORD97":169947.076833,"N_COORD97":2550764.0288900002,"ADDRESS":"安和路四段２７６號","OBJECTID":806},"geometry":{"x":169947.07683300227,"y":2550764.0288910028}},{"attributes":{"ID":807,"DIS_CODE":0,"TOWNNAME":"安南區","LI":"州南里","LIN":"1鄰","STREET":"安和路","SECT":"四段","MAREA":" ","LANE":" ","ALLEY":" ","HOUSE_NO":"２９４號之１","E_COORD97":169945.594702,"N_COORD97":2550799.16554,"ADDRESS":"安和路四段２９４號之１","OBJECTID":807},"geometry":{"x":169945.59470199887,"y":2550799.1655380037}},{"attributes":{"ID":808,"DIS_CODE":0,"TOWNNAME":"安南區","LI":"州南里","LIN":"1鄰","STREET":"安和路","SECT":"四段","MAREA":" ","LANE":" ","ALLEY":" ","HOUSE_NO":"２９４號","E_COORD97":169944.32430400001,"N_COORD97":2550804.24554,"ADDRESS":"安和路四段２９４號","OBJECTID":808},"geometry":{"x":169944.32430400141,"y":2550804.2455360014}},{"attributes":{"ID":809,"DIS_CODE":0,"TOWNNAME":"安南區","LI":"州南里","LIN":"1鄰","STREET":"安和路","SECT":"四段","MAREA":" ","LANE":" ","ALLEY":" ","HOUSE_NO":"２９６號","E_COORD97":169944.11257100001,"N_COORD97":2550811.0188699998,"ADDRESS":"安和路四段２９６號","OBJECTID":809},"geometry":{"x":169944.11257100105,"y":2550811.0188650042}},{"attributes":{"ID":810,"DIS_CODE":0,"TOWNNAME":"仁德區","LI":"上崙里","LIN":"1鄰","STREET":"德崙路","SECT":" ","MAREA":" ","LANE":"７７巷","ALLEY":" ","HOUSE_NO":"８８號一樓之２","E_COORD97":173564.48678499999,"N_COORD97":2538442.1179900002,"ADDRESS":"德崙路７７巷８８號一樓之２","OBJECTID":810},"geometry":{"x":173564.48678500112,"y":2538442.1179939993}},{"attributes":{"ID":811,"DIS_CODE":0,"TOWNNAME":"仁德區","LI":"上崙里","LIN":"1鄰","STREET":"德崙路","SECT":" ","MAREA":" ","LANE":"７７巷","ALLEY":" ","HOUSE_NO":"８８號一樓之５","E_COORD97":173564.48678499999,"N_COORD97":2538442.1179900002,"ADDRESS":"德崙路７７巷８８號一樓之５","OBJECTID":811},"geometry":{"x":173564.48678500112,"y":2538442.1179939993}},{"attributes":{"ID":812,"DIS_CODE":0,"TOWNNAME":"仁德區","LI":"上崙里","LIN":"1鄰","STREET":"德崙路","SECT":" ","MAREA":" ","LANE":"７７巷","ALLEY":" ","HOUSE_NO":"８８號二樓之１","E_COORD97":173564.48678499999,"N_COORD97":2538442.1179900002,"ADDRESS":"德崙路７７巷８８號二樓之１","OBJECTID":812},"geometry":{"x":173564.48678500112,"y":2538442.1179939993}},{"attributes":{"ID":813,"DIS_CODE":0,"TOWNNAME":"仁德區","LI":"上崙里","LIN":"1鄰","STREET":"德崙路","SECT":" ","MAREA":" ","LANE":"７７巷","ALLEY":" ","HOUSE_NO":"８８號二樓之２","E_COORD97":173564.48678499999,"N_COORD97":2538442.1179900002,"ADDRESS":"德崙路７７巷８８號二樓之２","OBJECTID":813},"geometry":{"x":173564.48678500112,"y":2538442.1179939993}},{"attributes":{"ID":814,"DIS_CODE":0,"TOWNNAME":"仁德區","LI":"上崙里","LIN":"1鄰","STREET":"德崙路","SECT":" ","MAREA":" ","LANE":"７７巷","ALLEY":" ","HOUSE_NO":"８８號二樓之３","E_COORD97":173564.48678499999,"N_COORD97":2538442.1179900002,"ADDRESS":"德崙路７７巷８８號二樓之３","OBJECTID":814},"geometry":{"x":173564.48678500112,"y":2538442.1179939993}},{"attributes":{"ID":815,"DIS_CODE":0,"TOWNNAME":"仁德區","LI":"上崙里","LIN":"1鄰","STREET":"德崙路","SECT":" ","MAREA":" ","LANE":"７７巷","ALLEY":" ","HOUSE_NO":"８８號二樓之５","E_COORD97":173564.48678499999,"N_COORD97":2538442.1179900002,"ADDRESS":"德崙路７７巷８８號二樓之５","OBJECTID":815},"geometry":{"x":173564.48678500112,"y":2538442.1179939993}},{"attributes":{"ID":816,"DIS_CODE":0,"TOWNNAME":"仁德區","LI":"上崙里","LIN":"1鄰","STREET":"德崙路","SECT":" ","MAREA":" ","LANE":"７７巷","ALLEY":" ","HOUSE_NO":"８８號二樓之６","E_COORD97":173564.48678499999,"N_COORD97":2538442.1179900002,"ADDRESS":"德崙路７７巷８８號二樓之６","OBJECTID":816},"geometry":{"x":173564.48678500112,"y":2538442.1179939993}},{"attributes":{"ID":817,"DIS_CODE":0,"TOWNNAME":"仁德區","LI":"上崙里","LIN":"1鄰","STREET":"德崙路","SECT":" ","MAREA":" ","LANE":"７７巷","ALLEY":" ","HOUSE_NO":"８８號三樓之１","E_COORD97":173564.48678499999,"N_COORD97":2538442.1179900002,"ADDRESS":"德崙路７７巷８８號三樓之１","OBJECTID":817},"geometry":{"x":173564.48678500112,"y":2538442.1179939993}},{"attributes":{"ID":818,"DIS_CODE":0,"TOWNNAME":"關廟區","LI":"埤頭里","LIN":"2鄰","STREET":"關新路","SECT":"一段","MAREA":" ","LANE":"８１３巷","ALLEY":" ","HOUSE_NO":"１號","E_COORD97":179074.57000000001,"N_COORD97":2543856.2999999998,"ADDRESS":"關新路一段８１３巷１號","OBJECTID":818},"geometry":{"x":179074.57000000123,"y":2543856.3000000007}},{"attributes":{"ID":819,"DIS_CODE":0,"TOWNNAME":"安南區","LI":"州南里","LIN":"17鄰","STREET":"安和路","SECT":"四段","MAREA":" ","LANE":" ","ALLEY":" ","HOUSE_NO":"３３５號","E_COORD97":169919.12807199999,"N_COORD97":2550925.5304700001,"ADDRESS":"安和路四段３３５號","OBJECTID":819},"geometry":{"x":169919.12807200104,"y":2550925.5304700043}},{"attributes":{"ID":820,"DIS_CODE":0,"TOWNNAME":"安南區","LI":"州南里","LIN":"17鄰","STREET":"安和路","SECT":"四段","MAREA":" ","LANE":" ","ALLEY":" ","HOUSE_NO":"３３５之１號","E_COORD97":169888.003314,"N_COORD97":2550928.7054699999,"ADDRESS":"安和路四段３３５之１號","OBJECTID":820},"geometry":{"x":169888.00331399962,"y":2550928.705467999}},{"attributes":{"ID":821,"DIS_CODE":0,"TOWNNAME":"仁德區","LI":"太子里","LIN":"32鄰","STREET":"太子三街","SECT":" ","MAREA":" ","LANE":" ","ALLEY":" ","HOUSE_NO":"２５號","E_COORD97":173987.80361100001,"N_COORD97":2543448.66518,"ADDRESS":"太子三街２５號","OBJECTID":821},"geometry":{"x":173987.80361100007,"y":2543448.6651809998}},{"attributes":{"ID":822,"DIS_CODE":0,"TOWNNAME":"仁德區","LI":"上崙里","LIN":"1鄰","STREET":"德崙路","SECT":" ","MAREA":" ","LANE":"７７巷","ALLEY":" ","HOUSE_NO":"８８號三樓之３","E_COORD97":173564.48678499999,"N_COORD97":2538442.1179900002,"ADDRESS":"德崙路７７巷８８號三樓之３","OBJECTID":822},"geometry":{"x":173564.48678500112,"y":2538442.1179939993}},{"attributes":{"ID":823,"DIS_CODE":0,"TOWNNAME":"仁德區","LI":"太子里","LIN":"33鄰","STREET":"太興路","SECT":" ","MAREA":" ","LANE":" ","ALLEY":" ","HOUSE_NO":"１號","E_COORD97":174029.310922,"N_COORD97":2543285.4966699998,"ADDRESS":"太興路１號","OBJECTID":823},"geometry":{"x":174029.31092199963,"y":2543285.4966669995}},{"attributes":{"ID":824,"DIS_CODE":0,"TOWNNAME":"仁德區","LI":"上崙里","LIN":"1鄰","STREET":"德崙路","SECT":" ","MAREA":" ","LANE":"７７巷","ALLEY":" ","HOUSE_NO":"８８號三樓之４","E_COORD97":173564.48678499999,"N_COORD97":2538442.1179900002,"ADDRESS":"德崙路７７巷８８號三樓之４","OBJECTID":824},"geometry":{"x":173564.48678500112,"y":2538442.1179939993}},{"attributes":{"ID":825,"DIS_CODE":0,"TOWNNAME":"關廟區","LI":"埤頭里","LIN":"2鄰","STREET":"關新路","SECT":"一段","MAREA":" ","LANE":"８１３巷","ALLEY":" ","HOUSE_NO":"３７號","E_COORD97":179059.97,"N_COORD97":2543776.2999999998,"ADDRESS":"關新路一段８１３巷３７號","OBJECTID":825},"geometry":{"x":179059.96999999974,"y":2543776.3000000026}},{"attributes":{"ID":826,"DIS_CODE":0,"TOWNNAME":"安南區","LI":"州南里","LIN":"1鄰","STREET":"安和路","SECT":"四段","MAREA":" ","LANE":"３４６巷","ALLEY":" ","HOUSE_NO":"４１號","E_COORD97":170015.25487400001,"N_COORD97":2550883.21704,"ADDRESS":"安和路四段３４６巷４１號","OBJECTID":826},"geometry":{"x":170015.25487400126,"y":2550883.2170360032}},{"attributes":{"ID":827,"DIS_CODE":0,"TOWNNAME":"仁德區","LI":"太子里","LIN":"32鄰","STREET":"太子南路","SECT":" ","MAREA":" ","LANE":" ","ALLEY":" ","HOUSE_NO":"１２號","E_COORD97":174017.663462,"N_COORD97":2543285.5495799999,"ADDRESS":"太子南路１２號","OBJECTID":827},"geometry":{"x":174017.6634620009,"y":2543285.5495840013}},{"attributes":{"ID":828,"DIS_CODE":0,"TOWNNAME":"仁德區","LI":"太子里","LIN":"32鄰","STREET":"太子南路","SECT":" ","MAREA":" ","LANE":" ","ALLEY":" ","HOUSE_NO":"１８號","E_COORD97":174000.08638699999,"N_COORD97":2543287.93083,"ADDRESS":"太子南路１８號","OBJECTID":828},"geometry":{"x":174000.08638700005,"y":2543287.9308330026}},{"attributes":{"ID":829,"DIS_CODE":0,"TOWNNAME":"仁德區","LI":"上崙里","LIN":"1鄰","STREET":"德崙路","SECT":" ","MAREA":" ","LANE":"７７巷","ALLEY":" ","HOUSE_NO":"８８號三樓之５","E_COORD97":173564.48678499999,"N_COORD97":2538442.1179900002,"ADDRESS":"德崙路７７巷８８號三樓之５","OBJECTID":829},"geometry":{"x":173564.48678500112,"y":2538442.1179939993}},{"attributes":{"ID":830,"DIS_CODE":0,"TOWNNAME":"安南區","LI":"州南里","LIN":"1鄰","STREET":"安和路","SECT":"四段","MAREA":" ","LANE":" ","ALLEY":" ","HOUSE_NO":"３５４號","E_COORD97":169950.90791000001,"N_COORD97":2550930.8420099998,"ADDRESS":"安和路四段３５４號","OBJECTID":830},"geometry":{"x":169950.9079099996,"y":2550930.8420099989}},{"attributes":{"ID":831,"DIS_CODE":0,"TOWNNAME":"七股區","LI":"溪南里","LIN":"7鄰","STREET":" ","SECT":" ","MAREA":"溪南","LANE":" ","ALLEY":" ","HOUSE_NO":"６７號之２","E_COORD97":160860.44900200001,"N_COORD97":2557495.22963,"ADDRESS":"溪南６７號之２","OBJECTID":831},"geometry":{"x":160860.4490020005,"y":2557495.2296290044}},{"attributes":{"ID":832,"DIS_CODE":0,"TOWNNAME":"關廟區","LI":"埤頭里","LIN":"1鄰","STREET":"關新路","SECT":"一段","MAREA":" ","LANE":"８１３巷","ALLEY":" ","HOUSE_NO":"５５號","E_COORD97":179061.12,"N_COORD97":2543751.2999999998,"ADDRESS":"關新路一段８１３巷５５號","OBJECTID":832},"geometry":{"x":179061.12000000011,"y":2543751.3000000007}},{"attributes":{"ID":833,"DIS_CODE":0,"TOWNNAME":"安南區","LI":"州南里","LIN":"1鄰","STREET":"安和路","SECT":"四段","MAREA":" ","LANE":" ","ALLEY":" ","HOUSE_NO":"３５６號","E_COORD97":169950.484444,"N_COORD97":2550935.4986700001,"ADDRESS":"安和路四段３５６號","OBJECTID":833},"geometry":{"x":169950.48444399983,"y":2550935.4986739997}},{"attributes":{"ID":834,"DIS_CODE":0,"TOWNNAME":"仁德區","LI":"太子里","LIN":"31鄰","STREET":"太子南路","SECT":" ","MAREA":" ","LANE":" ","ALLEY":" ","HOUSE_NO":"２５號","E_COORD97":173965.991095,"N_COORD97":2543270.2566800001,"ADDRESS":"太子南路２５號","OBJECTID":834},"geometry":{"x":173965.99109500088,"y":2543270.2566760015}},{"attributes":{"ID":835,"DIS_CODE":0,"TOWNNAME":"新市區","LI":"新和里","LIN":"39鄰","STREET":"中正路","SECT":" ","MAREA":" ","LANE":" ","ALLEY":" ","HOUSE_NO":"２１３號","E_COORD97":177431.61571499999,"N_COORD97":2553020.66909,"ADDRESS":"中正路２１３號","OBJECTID":835},"geometry":{"x":177431.61571500171,"y":2553020.6690950021}},{"attributes":{"ID":836,"DIS_CODE":0,"TOWNNAME":"七股區","LI":"溪南里","LIN":"7鄰","STREET":" ","SECT":" ","MAREA":"溪南","LANE":" ","ALLEY":" ","HOUSE_NO":"６７號之８","E_COORD97":160836.29269999999,"N_COORD97":2557423.2629999998,"ADDRESS":"溪南６７號之８","OBJECTID":836},"geometry":{"x":160836.29270000011,"y":2557423.2630010005}},{"attributes":{"ID":837,"DIS_CODE":0,"TOWNNAME":"安南區","LI":"州南里","LIN":"1鄰","STREET":"安和路","SECT":"四段","MAREA":" ","LANE":" ","ALLEY":" ","HOUSE_NO":"３６０號","E_COORD97":169950.272711,"N_COORD97":2550940.3670000001,"ADDRESS":"安和路四段３６０號","OBJECTID":837},"geometry":{"x":169950.27271099947,"y":2550940.3670050018}},{"attributes":{"ID":838,"DIS_CODE":0,"TOWNNAME":"安南區","LI":"城西里","LIN":"4鄰","STREET":"城西街","SECT":"三段","MAREA":" ","LANE":" ","ALLEY":" ","HOUSE_NO":"１０７０號之５","E_COORD97":155610.17168,"N_COORD97":2550817.6227600002,"ADDRESS":"城西街三段１０７０號之５","OBJECTID":838},"geometry":{"x":155610.17168000061,"y":2550817.6227599997}},{"attributes":{"ID":839,"DIS_CODE":0,"TOWNNAME":"安南區","LI":"州南里","LIN":"1鄰","STREET":"安和路","SECT":"四段","MAREA":" ","LANE":" ","ALLEY":" ","HOUSE_NO":"３６６號","E_COORD97":169954.29563899999,"N_COORD97":2550949.2570000002,"ADDRESS":"安和路四段３６６號","OBJECTID":839},"geometry":{"x":169954.2956389999,"y":2550949.2570000011}},{"attributes":{"ID":840,"DIS_CODE":0,"TOWNNAME":"仁德區","LI":"太子里","LIN":"32鄰","STREET":"太子南路","SECT":" ","MAREA":" ","LANE":" ","ALLEY":" ","HOUSE_NO":"３０號","E_COORD97":173970.65007900001,"N_COORD97":2543294.06916,"ADDRESS":"太子南路３０號","OBJECTID":840},"geometry":{"x":173970.65007899888,"y":2543294.0691630002}},{"attributes":{"ID":841,"DIS_CODE":0,"TOWNNAME":"新市區","LI":"新和里","LIN":"44鄰","STREET":"民生路","SECT":" ","MAREA":" ","LANE":" ","ALLEY":" ","HOUSE_NO":"４６之１號","E_COORD97":177279.89708200001,"N_COORD97":2553215.2688899999,"ADDRESS":"民生路４６之１號","OBJECTID":841},"geometry":{"x":177279.89708200004,"y":2553215.2688849997}},{"attributes":{"ID":842,"DIS_CODE":0,"TOWNNAME":"安南區","LI":"州南里","LIN":"1鄰","STREET":"安和路","SECT":"四段","MAREA":" ","LANE":" ","ALLEY":" ","HOUSE_NO":"３７０號之１","E_COORD97":169952.81350799999,"N_COORD97":2550962.8036600002,"ADDRESS":"安和路四段３７０號之１","OBJECTID":842},"geometry":{"x":169952.81350800022,"y":2550962.8036589995}},{"attributes":{"ID":843,"DIS_CODE":0,"TOWNNAME":"仁德區","LI":"上崙里","LIN":"1鄰","STREET":"德崙路","SECT":" ","MAREA":" ","LANE":"７７巷","ALLEY":" ","HOUSE_NO":"８８號三樓之６","E_COORD97":173564.48678499999,"N_COORD97":2538442.1179900002,"ADDRESS":"德崙路７７巷８８號三樓之６","OBJECTID":843},"geometry":{"x":173564.48678500112,"y":2538442.1179939993}},{"attributes":{"ID":844,"DIS_CODE":0,"TOWNNAME":"安南區","LI":"城西里","LIN":"6鄰","STREET":"城西街","SECT":"三段","MAREA":" ","LANE":"５０１巷","ALLEY":"２９弄","HOUSE_NO":"４號之３","E_COORD97":157227.59646599999,"N_COORD97":2550767.2461199998,"ADDRESS":"城西街三段５０１巷２９弄４號之３","OBJECTID":844},"geometry":{"x":157227.59646600112,"y":2550767.2461210024}},{"attributes":{"ID":845,"DIS_CODE":0,"TOWNNAME":"安南區","LI":"州南里","LIN":"17鄰","STREET":"安和路","SECT":"四段","MAREA":" ","LANE":" ","ALLEY":" ","HOUSE_NO":"３７９號","E_COORD97":169912.795962,"N_COORD97":2550999.95114,"ADDRESS":"安和路四段３７９號","OBJECTID":845},"geometry":{"x":169912.79596200027,"y":2550999.9511390012}},{"attributes":{"ID":846,"DIS_CODE":0,"TOWNNAME":"仁德區","LI":"上崙里","LIN":"1鄰","STREET":"德崙路","SECT":" ","MAREA":" ","LANE":"７７巷","ALLEY":" ","HOUSE_NO":"８８號五樓之１","E_COORD97":173564.48678499999,"N_COORD97":2538442.1179900002,"ADDRESS":"德崙路７７巷８８號五樓之１","OBJECTID":846},"geometry":{"x":173564.48678500112,"y":2538442.1179939993}},{"attributes":{"ID":847,"DIS_CODE":0,"TOWNNAME":"七股區","LI":"溪南里","LIN":"7鄰","STREET":" ","SECT":" ","MAREA":"溪南","LANE":" ","ALLEY":" ","HOUSE_NO":"６７號之５","E_COORD97":160828.770342,"N_COORD97":2557518.93628,"ADDRESS":"溪南６７號之５","OBJECTID":847},"geometry":{"x":160828.77034200076,"y":2557518.9362830017}},{"attributes":{"ID":848,"DIS_CODE":0,"TOWNNAME":"六甲區","LI":"中社里","LIN":"1鄰","STREET":" ","SECT":" ","MAREA":"中社","LANE":" ","ALLEY":" ","HOUSE_NO":"２號","E_COORD97":182023.85000000001,"N_COORD97":2570421.1600000001,"ADDRESS":"中社２號","OBJECTID":848},"geometry":{"x":182023.84999999963,"y":2570421.160000002}},{"attributes":{"ID":849,"DIS_CODE":0,"TOWNNAME":"六甲區","LI":"中社里","LIN":"1鄰","STREET":" ","SECT":" ","MAREA":"中社","LANE":" ","ALLEY":" ","HOUSE_NO":"１號","E_COORD97":182041.242363,"N_COORD97":2570422.8769800002,"ADDRESS":"中社１號","OBJECTID":849},"geometry":{"x":182041.24236300029,"y":2570422.8769840002}},{"attributes":{"ID":850,"DIS_CODE":0,"TOWNNAME":"安南區","LI":"城西里","LIN":"2鄰","STREET":"城西街","SECT":"三段","MAREA":" ","LANE":"４８４巷","ALLEY":" ","HOUSE_NO":"２９號之６","E_COORD97":157193.242982,"N_COORD97":2550943.8315300001,"ADDRESS":"城西街三段４８４巷２９號之６","OBJECTID":850},"geometry":{"x":157193.24298200011,"y":2550943.8315280005}},{"attributes":{"ID":851,"DIS_CODE":0,"TOWNNAME":"仁德區","LI":"上崙里","LIN":"1鄰","STREET":"德崙路","SECT":" ","MAREA":" ","LANE":"７７巷","ALLEY":" ","HOUSE_NO":"８８號三樓之２","E_COORD97":173564.48678499999,"N_COORD97":2538442.1179900002,"ADDRESS":"德崙路７７巷８８號三樓之２","OBJECTID":851},"geometry":{"x":173564.48678500112,"y":2538442.1179939993}},{"attributes":{"ID":852,"DIS_CODE":0,"TOWNNAME":"關廟區","LI":"埤頭里","LIN":"1鄰","STREET":"關新路","SECT":"一段","MAREA":" ","LANE":"８１３巷","ALLEY":" ","HOUSE_NO":"６１號","E_COORD97":179052.82000000001,"N_COORD97":2543721.25,"ADDRESS":"關新路一段８１３巷６１號","OBJECTID":852},"geometry":{"x":179052.82000000123,"y":2543721.2500000019}},{"attributes":{"ID":853,"DIS_CODE":0,"TOWNNAME":"六甲區","LI":"甲東里","LIN":"11鄰","STREET":"曾文街","SECT":" ","MAREA":" ","LANE":" ","ALLEY":" ","HOUSE_NO":"１５０之８號","E_COORD97":185488.645579,"N_COORD97":2570489.7797900001,"ADDRESS":"曾文街１５０之８號","OBJECTID":853},"geometry":{"x":185488.645579,"y":2570489.7797910012}},{"attributes":{"ID":854,"DIS_CODE":0,"TOWNNAME":"安南區","LI":"州南里","LIN":"1鄰","STREET":"安和路","SECT":"四段","MAREA":" ","LANE":"４０６巷","ALLEY":"９弄","HOUSE_NO":"１２號之１","E_COORD97":170007.76999999999,"N_COORD97":2551106.3999999999,"ADDRESS":"安和路四段４０６巷９弄１２號之１","OBJECTID":854},"geometry":{"x":170007.76999999862,"y":2551106.4000000004}},{"attributes":{"ID":855,"DIS_CODE":0,"TOWNNAME":"仁德區","LI":"太子里","LIN":"32鄰","STREET":"太子南路","SECT":" ","MAREA":" ","LANE":"２２巷","ALLEY":"２９弄","HOUSE_NO":"１之８號","E_COORD97":173963.873376,"N_COORD97":2543327.7241400001,"ADDRESS":"太子南路２２巷２９弄１之８號","OBJECTID":855},"geometry":{"x":173963.87337599974,"y":2543327.7241449989}},{"attributes":{"ID":856,"DIS_CODE":0,"TOWNNAME":"中西區","LI":"藥王里","LIN":"4鄰","STREET":"大福街","SECT":" ","MAREA":" ","LANE":"２４巷","ALLEY":" ","HOUSE_NO":"６號","E_COORD97":167358.58670099999,"N_COORD97":2544364.9989800001,"ADDRESS":"大福街２４巷６號","OBJECTID":856},"geometry":{"x":167358.58670100104,"y":2544364.9989769999}},{"attributes":{"ID":857,"DIS_CODE":0,"TOWNNAME":"仁德區","LI":"太子里","LIN":"32鄰","STREET":"太子南路","SECT":" ","MAREA":" ","LANE":"２２巷","ALLEY":"２９弄","HOUSE_NO":"１之６號","E_COORD97":173964.72046400001,"N_COORD97":2543344.4457999999,"ADDRESS":"太子南路２２巷２９弄１之６號","OBJECTID":857},"geometry":{"x":173964.72046400141,"y":2543344.4458020031}},{"attributes":{"ID":858,"DIS_CODE":0,"TOWNNAME":"仁德區","LI":"仁義里","LIN":"1鄰","STREET":"義林六街","SECT":" ","MAREA":" ","LANE":" ","ALLEY":" ","HOUSE_NO":"６號","E_COORD97":174476.48052499999,"N_COORD97":2541066.3497799998,"ADDRESS":"義林六街６號","OBJECTID":858},"geometry":{"x":174476.48052500095,"y":2541066.3497820012}},{"attributes":{"ID":859,"DIS_CODE":0,"TOWNNAME":"仁德區","LI":"太子里","LIN":"32鄰","STREET":"太子南路","SECT":" ","MAREA":" ","LANE":"２２巷","ALLEY":"２９弄","HOUSE_NO":"１之７號","E_COORD97":173964.508692,"N_COORD97":2543337.5666399999,"ADDRESS":"太子南路２２巷２９弄１之７號","OBJECTID":859},"geometry":{"x":173964.50869199913,"y":2543337.5666390005}},{"attributes":{"ID":860,"DIS_CODE":0,"TOWNNAME":"仁德區","LI":"太子里","LIN":"32鄰","STREET":"太子南路","SECT":" ","MAREA":" ","LANE":"２２巷","ALLEY":"２９弄","HOUSE_NO":"１之５號","E_COORD97":173965.144008,"N_COORD97":2543351.53663,"ADDRESS":"太子南路２２巷２９弄１之５號","OBJECTID":860},"geometry":{"x":173965.14400800131,"y":2543351.5366320014}},{"attributes":{"ID":861,"DIS_CODE":0,"TOWNNAME":"仁德區","LI":"太子里","LIN":"32鄰","STREET":"太子南路","SECT":" ","MAREA":" ","LANE":"２２巷","ALLEY":"２９弄","HOUSE_NO":"１之３號","E_COORD97":173965.779324,"N_COORD97":2543356.8283000002,"ADDRESS":"太子南路２２巷２９弄１之３號","OBJECTID":861},"geometry":{"x":173965.7793240007,"y":2543356.828296002}},{"attributes":{"ID":862,"DIS_CODE":0,"TOWNNAME":"安南區","LI":"州南里","LIN":"1鄰","STREET":"安和路","SECT":"四段","MAREA":" ","LANE":" ","ALLEY":" ","HOUSE_NO":"４５０號之５","E_COORD97":169960.76999999999,"N_COORD97":2551219.52,"ADDRESS":"安和路四段４５０號之５","OBJECTID":862},"geometry":{"x":169960.77000000048,"y":2551219.5200000014}},{"attributes":{"ID":863,"DIS_CODE":0,"TOWNNAME":"新市區","LI":"港墘里","LIN":"5鄰","STREET":"民族路","SECT":" ","MAREA":" ","LANE":"９７巷","ALLEY":" ","HOUSE_NO":"７號之１","E_COORD97":178389.82159000001,"N_COORD97":2553615.2398100002,"ADDRESS":"民族路９７巷７號之１","OBJECTID":863},"geometry":{"x":178389.82158999983,"y":2553615.2398100048}},{"attributes":{"ID":864,"DIS_CODE":0,"TOWNNAME":"仁德區","LI":"太子里","LIN":"32鄰","STREET":"太子南路","SECT":" ","MAREA":" ","LANE":"２２巷","ALLEY":"２９弄","HOUSE_NO":"１之２號","E_COORD97":173965.991095,"N_COORD97":2543361.9082900002,"ADDRESS":"太子南路２２巷２９弄１之２號","OBJECTID":864},"geometry":{"x":173965.99109500088,"y":2543361.9082930014}},{"attributes":{"ID":865,"DIS_CODE":0,"TOWNNAME":"仁德區","LI":"太子里","LIN":"32鄰","STREET":"太子南路","SECT":" ","MAREA":" ","LANE":"２２巷","ALLEY":"２９弄","HOUSE_NO":"１之１號","E_COORD97":173966.83818300001,"N_COORD97":2543366.1416199999,"ADDRESS":"太子南路２２巷２９弄１之１號","OBJECTID":865},"geometry":{"x":173966.83818300068,"y":2543366.1416239999}},{"attributes":{"ID":866,"DIS_CODE":0,"TOWNNAME":"仁德區","LI":"太子里","LIN":"32鄰","STREET":"太子南路","SECT":" ","MAREA":" ","LANE":"２２巷","ALLEY":"２９弄","HOUSE_NO":"１號","E_COORD97":173967.04995499999,"N_COORD97":2543370.5866200002,"ADDRESS":"太子南路２２巷２９弄１號","OBJECTID":866},"geometry":{"x":173967.04995500017,"y":2543370.5866209995}},{"attributes":{"ID":867,"DIS_CODE":0,"TOWNNAME":"安南區","LI":"州南里","LIN":"21鄰","STREET":"州南十街","SECT":" ","MAREA":" ","LANE":" ","ALLEY":" ","HOUSE_NO":"１７０號","E_COORD97":169690.17999999999,"N_COORD97":2551096.5499999998,"ADDRESS":"州南十街１７０號","OBJECTID":867},"geometry":{"x":169690.18000000063,"y":2551096.5500000007}},{"attributes":{"ID":868,"DIS_CODE":0,"TOWNNAME":"關廟區","LI":"埤頭里","LIN":"1鄰","STREET":"關新路","SECT":"一段","MAREA":" ","LANE":"８１３巷","ALLEY":" ","HOUSE_NO":"７３號","E_COORD97":179083.390274,"N_COORD97":2543708.27703,"ADDRESS":"關新路一段８１３巷７３號","OBJECTID":868},"geometry":{"x":179083.39027400129,"y":2543708.2770340014}},{"attributes":{"ID":869,"DIS_CODE":0,"TOWNNAME":"安南區","LI":"州南里","LIN":"21鄰","STREET":"州南十街","SECT":" ","MAREA":" ","LANE":" ","ALLEY":" ","HOUSE_NO":"１７２號","E_COORD97":169694.71092700001,"N_COORD97":2551095.51859,"ADDRESS":"州南十街１７２號","OBJECTID":869},"geometry":{"x":169694.71092700027,"y":2551095.518587999}},{"attributes":{"ID":870,"DIS_CODE":0,"TOWNNAME":"仁德區","LI":"太子里","LIN":"32鄰","STREET":"太子南路","SECT":" ","MAREA":" ","LANE":"２２巷","ALLEY":" ","HOUSE_NO":"１號","E_COORD97":173985.47411899999,"N_COORD97":2543308.6741599999,"ADDRESS":"太子南路２２巷１號","OBJECTID":870},"geometry":{"x":173985.47411900014,"y":2543308.6741550025}},{"attributes":{"ID":871,"DIS_CODE":0,"TOWNNAME":"關廟區","LI":"埤頭里","LIN":"1鄰","STREET":"關新路","SECT":"一段","MAREA":" ","LANE":"８１３巷","ALLEY":" ","HOUSE_NO":"６７號","E_COORD97":179077.88172100001,"N_COORD97":2543720.7653600001,"ADDRESS":"關新路一段８１３巷６７號","OBJECTID":871},"geometry":{"x":179077.88172100205,"y":2543720.7653610017}},{"attributes":{"ID":872,"DIS_CODE":0,"TOWNNAME":"安南區","LI":"州南里","LIN":"3鄰","STREET":"安和路","SECT":"四段","MAREA":" ","LANE":"５３３巷","ALLEY":" ","HOUSE_NO":"１２４號","E_COORD97":169684.86533999999,"N_COORD97":2551233.4193500001,"ADDRESS":"安和路四段５３３巷１２４號","OBJECTID":872},"geometry":{"x":169684.86534000002,"y":2551233.4193459991}},{"attributes":{"ID":873,"DIS_CODE":0,"TOWNNAME":"安南區","LI":"州南里","LIN":"3鄰","STREET":"安和路","SECT":"四段","MAREA":" ","LANE":"５３３巷","ALLEY":" ","HOUSE_NO":"１２８號","E_COORD97":169672.37309000001,"N_COORD97":2551232.1493500001,"ADDRESS":"安和路四段５３３巷１２８號","OBJECTID":873},"geometry":{"x":169672.37309000082,"y":2551232.1493469998}},{"attributes":{"ID":874,"DIS_CODE":0,"TOWNNAME":"仁德區","LI":"太子里","LIN":"32鄰","STREET":"太子南路","SECT":" ","MAREA":" ","LANE":"２２巷","ALLEY":" ","HOUSE_NO":"７號","E_COORD97":173987.38006699999,"N_COORD97":2543321.2683199998,"ADDRESS":"太子南路２２巷７號","OBJECTID":874},"geometry":{"x":173987.38006700017,"y":2543321.2683150042}},{"attributes":{"ID":875,"DIS_CODE":0,"TOWNNAME":"仁德區","LI":"太子里","LIN":"32鄰","STREET":"太子南路","SECT":" ","MAREA":" ","LANE":"２２巷","ALLEY":" ","HOUSE_NO":"５號","E_COORD97":173987.16829500001,"N_COORD97":2543316.9291500002,"ADDRESS":"太子南路２２巷５號","OBJECTID":875},"geometry":{"x":173987.16829500068,"y":2543316.9291500002}},{"attributes":{"ID":876,"DIS_CODE":0,"TOWNNAME":"安南區","LI":"州南里","LIN":"3鄰","STREET":"安和路","SECT":"四段","MAREA":" ","LANE":"５３３巷","ALLEY":" ","HOUSE_NO":"１５０號","E_COORD97":169614.146503,"N_COORD97":2551228.5510200001,"ADDRESS":"安和路四段５３３巷１５０號","OBJECTID":876},"geometry":{"x":169614.14650299959,"y":2551228.551016001}},{"attributes":{"ID":877,"DIS_CODE":0,"TOWNNAME":"仁德區","LI":"太子里","LIN":"32鄰","STREET":"太子南路","SECT":" ","MAREA":" ","LANE":"２２巷","ALLEY":" ","HOUSE_NO":"３號","E_COORD97":173985.89766300001,"N_COORD97":2543312.69582,"ADDRESS":"太子南路２２巷３號","OBJECTID":877},"geometry":{"x":173985.8976630019,"y":2543312.6958189979}},{"attributes":{"ID":878,"DIS_CODE":0,"TOWNNAME":"仁德區","LI":"太子里","LIN":"32鄰","STREET":"太子南路","SECT":" ","MAREA":" ","LANE":"２２巷","ALLEY":" ","HOUSE_NO":"９號","E_COORD97":173987.591839,"N_COORD97":2543325.3958100001,"ADDRESS":"太子南路２２巷９號","OBJECTID":878},"geometry":{"x":173987.59183899965,"y":2543325.3958130013}},{"attributes":{"ID":879,"DIS_CODE":0,"TOWNNAME":"安南區","LI":"州南里","LIN":"29鄰","STREET":"安和路","SECT":"四段","MAREA":" ","LANE":"５３３巷","ALLEY":" ","HOUSE_NO":"５９號之１","E_COORD97":169799.41291700001,"N_COORD97":2551254.16267,"ADDRESS":"安和路四段５３３巷５９號之１","OBJECTID":879},"geometry":{"x":169799.41291700024,"y":2551254.1626689993}},{"attributes":{"ID":880,"DIS_CODE":0,"TOWNNAME":"關廟區","LI":"埤頭里","LIN":"2鄰","STREET":"保東路","SECT":" ","MAREA":" ","LANE":"１１５巷","ALLEY":" ","HOUSE_NO":"３０１號","E_COORD97":178948.67000000001,"N_COORD97":2543788.2999999998,"ADDRESS":"保東路１１５巷３０１號","OBJECTID":880},"geometry":{"x":178948.66999999993,"y":2543788.3000000007}},{"attributes":{"ID":881,"DIS_CODE":0,"TOWNNAME":"仁德區","LI":"太子里","LIN":"32鄰","STREET":"太子南路","SECT":" ","MAREA":" ","LANE":"２２巷","ALLEY":" ","HOUSE_NO":"１３號","E_COORD97":173988.43892700001,"N_COORD97":2543333.7566399998,"ADDRESS":"太子南路２２巷１３號","OBJECTID":881},"geometry":{"x":173988.43892700132,"y":2543333.7566410005}},{"attributes":{"ID":882,"DIS_CODE":0,"TOWNNAME":"仁德區","LI":"仁義里","LIN":"12鄰","STREET":"中山路","SECT":" ","MAREA":" ","LANE":" ","ALLEY":" ","HOUSE_NO":"１２號","E_COORD97":175222.44538600001,"N_COORD97":2541110.1647600001,"ADDRESS":"中山路１２號","OBJECTID":882},"geometry":{"x":175222.44538600184,"y":2541110.1647580024}},{"attributes":{"ID":883,"DIS_CODE":0,"TOWNNAME":"仁德區","LI":"太子里","LIN":"32鄰","STREET":"太子南路","SECT":" ","MAREA":" ","LANE":"２２巷","ALLEY":" ","HOUSE_NO":"１５號","E_COORD97":173989.07424300001,"N_COORD97":2543337.98997,"ADDRESS":"太子南路２２巷１５號","OBJECTID":883},"geometry":{"x":173989.07424300071,"y":2543337.9899719991}},{"attributes":{"ID":884,"DIS_CODE":0,"TOWNNAME":"仁德區","LI":"仁義里","LIN":"12鄰","STREET":"中山路","SECT":" ","MAREA":" ","LANE":" ","ALLEY":" ","HOUSE_NO":"１２之１號","E_COORD97":175218.42058599999,"N_COORD97":2541160.2239000001,"ADDRESS":"中山路１２之１號","OBJECTID":884},"geometry":{"x":175218.42058600113,"y":2541160.223898001}},{"attributes":{"ID":885,"DIS_CODE":0,"TOWNNAME":"仁德區","LI":"太子里","LIN":"32鄰","STREET":"太子南路","SECT":" ","MAREA":" ","LANE":"２２巷","ALLEY":" ","HOUSE_NO":"１７號","E_COORD97":173989.497787,"N_COORD97":2543342.4349699998,"ADDRESS":"太子南路２２巷１７號","OBJECTID":885},"geometry":{"x":173989.49778700061,"y":2543342.4349700008}},{"attributes":{"ID":886,"DIS_CODE":0,"TOWNNAME":"仁德區","LI":"太子里","LIN":"32鄰","STREET":"太子南路","SECT":" ","MAREA":" ","LANE":"２２巷","ALLEY":" ","HOUSE_NO":"１９號","E_COORD97":173989.70955900001,"N_COORD97":2543347.40913,"ADDRESS":"太子南路２２巷１９號","OBJECTID":886},"geometry":{"x":173989.7095590001,"y":2543347.4091340005}},{"attributes":{"ID":887,"DIS_CODE":0,"TOWNNAME":"安南區","LI":"州南里","LIN":"5鄰","STREET":"安和路","SECT":"四段","MAREA":" ","LANE":"５３７巷","ALLEY":" ","HOUSE_NO":"７７號之１","E_COORD97":169798.14251899999,"N_COORD97":2551439.1592399999,"ADDRESS":"安和路四段５３７巷７７號之１","OBJECTID":887},"geometry":{"x":169798.14251899999,"y":2551439.1592350006}},{"attributes":{"ID":888,"DIS_CODE":0,"TOWNNAME":"安南區","LI":"州南里","LIN":"5鄰","STREET":"安和路","SECT":"四段","MAREA":" ","LANE":"５３７巷","ALLEY":" ","HOUSE_NO":"９６號","E_COORD97":169818.25715799999,"N_COORD97":2551459.05589,"ADDRESS":"安和路四段５３７巷９６號","OBJECTID":888},"geometry":{"x":169818.25715800002,"y":2551459.0558909979}},{"attributes":{"ID":889,"DIS_CODE":0,"TOWNNAME":"六甲區","LI":"甲東里","LIN":"11鄰","STREET":"曾文街","SECT":" ","MAREA":" ","LANE":"１５０巷","ALLEY":"３０弄","HOUSE_NO":"６６號","E_COORD97":185143.12176899999,"N_COORD97":2569712.5402099998,"ADDRESS":"曾文街１５０巷３０弄６６號","OBJECTID":889},"geometry":{"x":185143.12176900078,"y":2569712.5402110033}},{"attributes":{"ID":890,"DIS_CODE":0,"TOWNNAME":"仁德區","LI":"太子里","LIN":"32鄰","STREET":"太子南路","SECT":" ","MAREA":" ","LANE":"２２巷","ALLEY":" ","HOUSE_NO":"２１號","E_COORD97":173990.34487500001,"N_COORD97":2543352.4891300001,"ADDRESS":"太子南路２２巷２１號","OBJECTID":890},"geometry":{"x":173990.34487499949,"y":2543352.4891309999}},{"attributes":{"ID":891,"DIS_CODE":0,"TOWNNAME":"安南區","LI":"州南里","LIN":"5鄰","STREET":"安和路","SECT":"四段","MAREA":" ","LANE":"５３７巷","ALLEY":" ","HOUSE_NO":"９２號之８","E_COORD97":169811.26996800001,"N_COORD97":2551466.46422,"ADDRESS":"安和路四段５３７巷９２號之８","OBJECTID":891},"geometry":{"x":169811.26996800117,"y":2551466.4642210007}},{"attributes":{"ID":892,"DIS_CODE":0,"TOWNNAME":"仁德區","LI":"太子里","LIN":"32鄰","STREET":"太子南路","SECT":" ","MAREA":" ","LANE":"２２巷","ALLEY":" ","HOUSE_NO":"２３號","E_COORD97":173990.98019100001,"N_COORD97":2543357.8866300001,"ADDRESS":"太子南路２２巷２３號","OBJECTID":892},"geometry":{"x":173990.98019099887,"y":2543357.8866280001}},{"attributes":{"ID":893,"DIS_CODE":0,"TOWNNAME":"仁德區","LI":"太子里","LIN":"32鄰","STREET":"太子南路","SECT":" ","MAREA":" ","LANE":"２２巷","ALLEY":" ","HOUSE_NO":"２５號","E_COORD97":173990.98019100001,"N_COORD97":2543362.75496,"ADDRESS":"太子南路２２巷２５號","OBJECTID":893},"geometry":{"x":173990.98019099887,"y":2543362.7549590021}},{"attributes":{"ID":894,"DIS_CODE":0,"TOWNNAME":"關廟區","LI":"埤頭里","LIN":"1鄰","STREET":"關新路","SECT":"一段","MAREA":" ","LANE":"８１３巷","ALLEY":" ","HOUSE_NO":"７０號","E_COORD97":178980.12,"N_COORD97":2543697.2999999998,"ADDRESS":"關新路一段８１３巷７０號","OBJECTID":894},"geometry":{"x":178980.12000000011,"y":2543697.2999999989}},{"attributes":{"ID":895,"DIS_CODE":0,"TOWNNAME":"安南區","LI":"州南里","LIN":"1鄰","STREET":"安和路","SECT":"四段","MAREA":" ","LANE":" ","ALLEY":" ","HOUSE_NO":"４２２號","E_COORD97":169964.24709200001,"N_COORD97":2551103.7735799998,"ADDRESS":"安和路四段４２２號","OBJECTID":895},"geometry":{"x":169964.24709200114,"y":2551103.7735830024}},{"attributes":{"ID":896,"DIS_CODE":0,"TOWNNAME":"仁德區","LI":"太子里","LIN":"32鄰","STREET":"太子南路","SECT":" ","MAREA":" ","LANE":"２２巷","ALLEY":" ","HOUSE_NO":"１１號","E_COORD97":173988.227155,"N_COORD97":2543329.31164,"ADDRESS":"太子南路２２巷１１號","OBJECTID":896},"geometry":{"x":173988.22715499997,"y":2543329.3116440009}},{"attributes":{"ID":897,"DIS_CODE":0,"TOWNNAME":"安南區","LI":"州南里","LIN":"5鄰","STREET":"安和路","SECT":"四段","MAREA":" ","LANE":"５３７巷","ALLEY":" ","HOUSE_NO":"１０４號","E_COORD97":169805.76490800001,"N_COORD97":2551473.0258800001,"ADDRESS":"安和路四段５３７巷１０４號","OBJECTID":897},"geometry":{"x":169805.76490800083,"y":2551473.0258840006}},{"attributes":{"ID":898,"DIS_CODE":0,"TOWNNAME":"安南區","LI":"州南里","LIN":"5鄰","STREET":"安和路","SECT":"四段","MAREA":" ","LANE":"５３７巷","ALLEY":" ","HOUSE_NO":"９６之６號","E_COORD97":169813.17556500001,"N_COORD97":2551463.5008899998,"ADDRESS":"安和路四段５３７巷９６之６號","OBJECTID":898},"geometry":{"x":169813.17556499876,"y":2551463.5008890014}},{"attributes":{"ID":899,"DIS_CODE":0,"TOWNNAME":"安南區","LI":"州南里","LIN":"26鄰","STREET":"安和路","SECT":"四段","MAREA":" ","LANE":"５３８巷","ALLEY":" ","HOUSE_NO":"２５之３號","E_COORD97":170041.63552000001,"N_COORD97":2551250.56434,"ADDRESS":"安和路四段５３８巷２５之３號","OBJECTID":899},"geometry":{"x":170041.63552000001,"y":2551250.5643370021}},{"attributes":{"ID":900,"DIS_CODE":0,"TOWNNAME":"安南區","LI":"州南里","LIN":"25鄰","STREET":"安和路","SECT":"四段","MAREA":" ","LANE":"５３８巷","ALLEY":" ","HOUSE_NO":"２５號","E_COORD97":170017.92141899999,"N_COORD97":2551289.93432,"ADDRESS":"安和路四段５３８巷２５號","OBJECTID":900},"geometry":{"x":170017.92141899932,"y":2551289.9343159981}},{"attributes":{"ID":901,"DIS_CODE":0,"TOWNNAME":"安南區","LI":"州南里","LIN":"26鄰","STREET":"安和路","SECT":"四段","MAREA":" ","LANE":"５３８巷","ALLEY":"８７弄","HOUSE_NO":"２號之１","E_COORD97":170194.29504500001,"N_COORD97":2551228.1276799999,"ADDRESS":"安和路四段５３８巷８７弄２號之１","OBJECTID":901},"geometry":{"x":170194.29504499957,"y":2551228.1276830025}},{"attributes":{"ID":902,"DIS_CODE":0,"TOWNNAME":"六甲區","LI":"二甲里","LIN":"25鄰","STREET":"中山路","SECT":" ","MAREA":" ","LANE":" ","ALLEY":" ","HOUSE_NO":"３３９號","E_COORD97":182847.91041300001,"N_COORD97":2570161.74664,"ADDRESS":"中山路３３９號","OBJECTID":902},"geometry":{"x":182847.9104129998,"y":2570161.7466439996}},{"attributes":{"ID":903,"DIS_CODE":0,"TOWNNAME":"安南區","LI":"州南里","LIN":"4鄰","STREET":"安和路","SECT":"四段","MAREA":" ","LANE":" ","ALLEY":" ","HOUSE_NO":"５９３之１號","E_COORD97":169921.582884,"N_COORD97":2551431.1159100002,"ADDRESS":"安和路四段５９３之１號","OBJECTID":903},"geometry":{"x":169921.58288400061,"y":2551431.1159059983}},{"attributes":{"ID":904,"DIS_CODE":0,"TOWNNAME":"安南區","LI":"州南里","LIN":"12鄰","STREET":"長和路","SECT":"二段","MAREA":" ","LANE":"１２巷","ALLEY":" ","HOUSE_NO":"９２號","E_COORD97":170541.32550499999,"N_COORD97":2551683.2107699998,"ADDRESS":"長和路二段１２巷９２號","OBJECTID":904},"geometry":{"x":170541.32550500147,"y":2551683.2107700016}},{"attributes":{"ID":905,"DIS_CODE":0,"TOWNNAME":"安南區","LI":"州南里","LIN":"12鄰","STREET":"長和路","SECT":"二段","MAREA":" ","LANE":"１２巷","ALLEY":" ","HOUSE_NO":"９６號","E_COORD97":170538.996441,"N_COORD97":2551691.2541,"ADDRESS":"長和路二段１２巷９６號","OBJECTID":905},"geometry":{"x":170538.99644100107,"y":2551691.2540990021}},{"attributes":{"ID":906,"DIS_CODE":0,"TOWNNAME":"永康區","LI":"二王里","LIN":"4鄰","STREET":"二王路","SECT":" ","MAREA":" ","LANE":" ","ALLEY":" ","HOUSE_NO":"３０號","E_COORD97":172987.48000000001,"N_COORD97":2546774.25,"ADDRESS":"二王路３０號","OBJECTID":906},"geometry":{"x":172987.47999999952,"y":2546774.25}},{"attributes":{"ID":907,"DIS_CODE":0,"TOWNNAME":"六甲區","LI":"二甲里","LIN":"25鄰","STREET":"中山路","SECT":" ","MAREA":" ","LANE":" ","ALLEY":" ","HOUSE_NO":"３８３號","E_COORD97":182535.11232700001,"N_COORD97":2570246.6249299999,"ADDRESS":"中山路３８３號","OBJECTID":907},"geometry":{"x":182535.11232700199,"y":2570246.6249320004}},{"attributes":{"ID":908,"DIS_CODE":0,"TOWNNAME":"仁德區","LI":"太子里","LIN":"32鄰","STREET":"太子南路","SECT":" ","MAREA":" ","LANE":"２２巷","ALLEY":" ","HOUSE_NO":"２７號","E_COORD97":173990.98019100001,"N_COORD97":2543368.1921700002,"ADDRESS":"太子南路２２巷２７號","OBJECTID":908},"geometry":{"x":173990.98019099887,"y":2543368.1921740007}},{"attributes":{"ID":909,"DIS_CODE":0,"TOWNNAME":"永康區","LI":"中興里","LIN":"3鄰","STREET":"中華一路","SECT":" ","MAREA":" ","LANE":"５８巷","ALLEY":"２弄","HOUSE_NO":"２６號","E_COORD97":171907.31653899999,"N_COORD97":2544991.03553,"ADDRESS":"中華一路５８巷２弄２６號","OBJECTID":909},"geometry":{"x":171907.31653899979,"y":2544991.0355280004}},{"attributes":{"ID":910,"DIS_CODE":0,"TOWNNAME":"永康區","LI":"中興里","LIN":"3鄰","STREET":"中華一路","SECT":" ","MAREA":" ","LANE":"５８巷","ALLEY":"２弄","HOUSE_NO":"３６號","E_COORD97":171920.45437799999,"N_COORD97":2544992.51719,"ADDRESS":"中華一路５８巷２弄３６號","OBJECTID":910},"geometry":{"x":171920.45437800046,"y":2544992.517194001}},{"attributes":{"ID":911,"DIS_CODE":0,"TOWNNAME":"仁德區","LI":"仁義里","LIN":"1鄰","STREET":"義林路","SECT":" ","MAREA":" ","LANE":"１６９巷","ALLEY":" ","HOUSE_NO":"６０號","E_COORD97":174256.54012300001,"N_COORD97":2540901.4178900002,"ADDRESS":"義林路１６９巷６０號","OBJECTID":911},"geometry":{"x":174256.54012300074,"y":2540901.4178939983}},{"attributes":{"ID":912,"DIS_CODE":0,"TOWNNAME":"安南區","LI":"州南里","LIN":"28鄰","STREET":"長和路","SECT":"二段","MAREA":" ","LANE":"１４０巷","ALLEY":" ","HOUSE_NO":"４７號","E_COORD97":170188.70400200001,"N_COORD97":2551688.5556100002,"ADDRESS":"長和路二段１４０巷４７號","OBJECTID":912},"geometry":{"x":170188.70400200132,"y":2551688.5556080006}},{"attributes":{"ID":913,"DIS_CODE":0,"TOWNNAME":"安南區","LI":"州南里","LIN":"28鄰","STREET":"長和路","SECT":"二段","MAREA":" ","LANE":"１４０巷","ALLEY":" ","HOUSE_NO":"４９號","E_COORD97":170204.16050999999,"N_COORD97":2551724.9622499999,"ADDRESS":"長和路二段１４０巷４９號","OBJECTID":913},"geometry":{"x":170204.16051000077,"y":2551724.9622500036}},{"attributes":{"ID":914,"DIS_CODE":0,"TOWNNAME":"安南區","LI":"州南里","LIN":"28鄰","STREET":"長和路","SECT":"二段","MAREA":" ","LANE":"１４０巷","ALLEY":" ","HOUSE_NO":"５１號","E_COORD97":170207.548243,"N_COORD97":2551730.4655900002,"ADDRESS":"長和路二段１４０巷５１號","OBJECTID":914},"geometry":{"x":170207.5482430011,"y":2551730.4655860011}},{"attributes":{"ID":915,"DIS_CODE":0,"TOWNNAME":"安南區","LI":"州南里","LIN":"28鄰","STREET":"長和路","SECT":"二段","MAREA":" ","LANE":"１４０巷","ALLEY":" ","HOUSE_NO":"５３號","E_COORD97":170210.51250499999,"N_COORD97":2551734.6989199999,"ADDRESS":"長和路二段１４０巷５３號","OBJECTID":915},"geometry":{"x":170210.51250500139,"y":2551734.6989169996}},{"attributes":{"ID":916,"DIS_CODE":0,"TOWNNAME":"安南區","LI":"州南里","LIN":"28鄰","STREET":"長和路","SECT":"二段","MAREA":" ","LANE":"１４０巷","ALLEY":" ","HOUSE_NO":"５５號","E_COORD97":170214.111967,"N_COORD97":2551741.26058,"ADDRESS":"長和路二段１４０巷５５號","OBJECTID":916},"geometry":{"x":170214.11196700204,"y":2551741.2605799995}},{"attributes":{"ID":917,"DIS_CODE":0,"TOWNNAME":"安南區","LI":"州南里","LIN":"28鄰","STREET":"長和路","SECT":"二段","MAREA":" ","LANE":"１４６巷","ALLEY":" ","HOUSE_NO":"２號","E_COORD97":170097.109578,"N_COORD97":2551571.8741600001,"ADDRESS":"長和路二段１４６巷２號","OBJECTID":917},"geometry":{"x":170097.10957800038,"y":2551571.8741640002}},{"attributes":{"ID":918,"DIS_CODE":0,"TOWNNAME":"新營區","LI":"太北里","LIN":"18鄰","STREET":" ","SECT":" ","MAREA":"太子宮","LANE":" ","ALLEY":" ","HOUSE_NO":"８之３７號","E_COORD97":176192.574914,"N_COORD97":2577232.4584599999,"ADDRESS":"太子宮８之３７號","OBJECTID":918},"geometry":{"x":176192.57491400093,"y":2577232.4584630001}},{"attributes":{"ID":919,"DIS_CODE":0,"TOWNNAME":"安南區","LI":"州南里","LIN":"28鄰","STREET":"長和路","SECT":"二段","MAREA":" ","LANE":"１４６巷","ALLEY":" ","HOUSE_NO":"５號","E_COORD97":170083.98212900001,"N_COORD97":2551560.44417,"ADDRESS":"長和路二段１４６巷５號","OBJECTID":919},"geometry":{"x":170083.9821289992,"y":2551560.4441700019}},{"attributes":{"ID":920,"DIS_CODE":0,"TOWNNAME":"仁德區","LI":"仁義里","LIN":"3鄰","STREET":"仁義三街","SECT":" ","MAREA":" ","LANE":" ","ALLEY":" ","HOUSE_NO":"２５２號","E_COORD97":173958.493109,"N_COORD97":2541082.8161300002,"ADDRESS":"仁義三街２５２號","OBJECTID":920},"geometry":{"x":173958.49310899992,"y":2541082.816130003}},{"attributes":{"ID":921,"DIS_CODE":0,"TOWNNAME":"中西區","LI":"藥王里","LIN":"15鄰","STREET":"民權路","SECT":"三段","MAREA":" ","LANE":" ","ALLEY":" ","HOUSE_NO":"３９０號","E_COORD97":166870.286555,"N_COORD97":2544402.1109600002,"ADDRESS":"民權路三段３９０號","OBJECTID":921},"geometry":{"x":166870.28655500058,"y":2544402.1109580006}},{"attributes":{"ID":922,"DIS_CODE":0,"TOWNNAME":"六甲區","LI":"二甲里","LIN":"18鄰","STREET":"中山路","SECT":" ","MAREA":" ","LANE":" ","ALLEY":" ","HOUSE_NO":"４０９號","E_COORD97":182202.30109399999,"N_COORD97":2570315.6282299999,"ADDRESS":"中山路４０９號","OBJECTID":922},"geometry":{"x":182202.30109400116,"y":2570315.6282280013}},{"attributes":{"ID":923,"DIS_CODE":0,"TOWNNAME":"六甲區","LI":"二甲里","LIN":"18鄰","STREET":"中山路","SECT":" ","MAREA":" ","LANE":" ","ALLEY":" ","HOUSE_NO":"４０７號","E_COORD97":182201.87753500001,"N_COORD97":2570313.2999,"ADDRESS":"中山路４０７號","OBJECTID":923},"geometry":{"x":182201.87753500044,"y":2570313.2998960037}},{"attributes":{"ID":924,"DIS_CODE":0,"TOWNNAME":"六甲區","LI":"七甲里","LIN":"18鄰","STREET":"中山路","SECT":" ","MAREA":" ","LANE":" ","ALLEY":" ","HOUSE_NO":"４０５號","E_COORD97":182200.60685899999,"N_COORD97":2570310.3365600002,"ADDRESS":"中山路４０５號","OBJECTID":924},"geometry":{"x":182200.60685900133,"y":2570310.3365640007}},{"attributes":{"ID":925,"DIS_CODE":0,"TOWNNAME":"六甲區","LI":"二甲里","LIN":"18鄰","STREET":"中山路","SECT":" ","MAREA":" ","LANE":" ","ALLEY":" ","HOUSE_NO":"４０３號","E_COORD97":182198.91262399999,"N_COORD97":2570306.5265700002,"ADDRESS":"中山路４０３號","OBJECTID":925},"geometry":{"x":182198.9126240015,"y":2570306.5265660007}},{"attributes":{"ID":926,"DIS_CODE":0,"TOWNNAME":"六甲區","LI":"甲東里","LIN":"8鄰","STREET":"曾文街","SECT":" ","MAREA":" ","LANE":" ","ALLEY":" ","HOUSE_NO":"５８之６號","E_COORD97":184092.47889599999,"N_COORD97":2570223.8420099998,"ADDRESS":"曾文街５８之６號","OBJECTID":926},"geometry":{"x":184092.47889600135,"y":2570223.842013998}},{"attributes":{"ID":927,"DIS_CODE":0,"TOWNNAME":"六甲區","LI":"甲東里","LIN":"8鄰","STREET":"曾文街","SECT":" ","MAREA":" ","LANE":" ","ALLEY":" ","HOUSE_NO":"５８之５號","E_COORD97":184088.29490099999,"N_COORD97":2570223.36576,"ADDRESS":"曾文街５８之５號","OBJECTID":927},"geometry":{"x":184088.29490100127,"y":2570223.3657640032}},{"attributes":{"ID":928,"DIS_CODE":0,"TOWNNAME":"六甲區","LI":"甲東里","LIN":"8鄰","STREET":"曾文街","SECT":" ","MAREA":" ","LANE":" ","ALLEY":" ","HOUSE_NO":"５８之３號","E_COORD97":184084.58756399999,"N_COORD97":2570222.6249299999,"ADDRESS":"曾文街５８之３號","OBJECTID":928},"geometry":{"x":184084.58756399993,"y":2570222.624931002}},{"attributes":{"ID":929,"DIS_CODE":0,"TOWNNAME":"六甲區","LI":"甲東里","LIN":"8鄰","STREET":"曾文街","SECT":" ","MAREA":" ","LANE":" ","ALLEY":" ","HOUSE_NO":"５８之１號","E_COORD97":184076.48438499999,"N_COORD97":2570221.6195100001,"ADDRESS":"曾文街５８之１號","OBJECTID":929},"geometry":{"x":184076.48438500054,"y":2570221.6195150018}},{"attributes":{"ID":930,"DIS_CODE":0,"TOWNNAME":"六甲區","LI":"甲東里","LIN":"8鄰","STREET":"曾文街","SECT":" ","MAREA":" ","LANE":" ","ALLEY":" ","HOUSE_NO":"４６號","E_COORD97":183986.07832299999,"N_COORD97":2570228.07534,"ADDRESS":"曾文街４６號","OBJECTID":930},"geometry":{"x":183986.07832300104,"y":2570228.0753450003}},{"attributes":{"ID":931,"DIS_CODE":0,"TOWNNAME":"六甲區","LI":"甲東里","LIN":"9鄰","STREET":"曾文街","SECT":" ","MAREA":" ","LANE":" ","ALLEY":" ","HOUSE_NO":"６３號","E_COORD97":184120.76058100001,"N_COORD97":2570247.8661699998,"ADDRESS":"曾文街６３號","OBJECTID":931},"geometry":{"x":184120.76058100071,"y":2570247.8661669996}},{"attributes":{"ID":932,"DIS_CODE":0,"TOWNNAME":"仁德區","LI":"仁愛里","LIN":"16鄰","STREET":" ","SECT":" ","MAREA":"仁愛","LANE":" ","ALLEY":" ","HOUSE_NO":"３２９號","E_COORD97":170232.475538,"N_COORD97":2539964.77,"ADDRESS":"仁愛３２９號","OBJECTID":932},"geometry":{"x":170232.47553800046,"y":2539964.7700000014}},{"attributes":{"ID":933,"DIS_CODE":0,"TOWNNAME":"仁德區","LI":"仁愛里","LIN":"16鄰","STREET":" ","SECT":" ","MAREA":"仁愛","LANE":" ","ALLEY":" ","HOUSE_NO":"３３１號","E_COORD97":170223.47171000001,"N_COORD97":2539964.77,"ADDRESS":"仁愛３３１號","OBJECTID":933},"geometry":{"x":170223.47171000019,"y":2539964.7700000014}},{"attributes":{"ID":934,"DIS_CODE":0,"TOWNNAME":"仁德區","LI":"仁愛里","LIN":"16鄰","STREET":" ","SECT":" ","MAREA":"仁愛","LANE":" ","ALLEY":" ","HOUSE_NO":"３３２號","E_COORD97":170218.86386899999,"N_COORD97":2539964.77,"ADDRESS":"仁愛３３２號","OBJECTID":934},"geometry":{"x":170218.86386900116,"y":2539964.7700000014}},{"attributes":{"ID":935,"DIS_CODE":0,"TOWNNAME":"仁德區","LI":"仁愛里","LIN":"17鄰","STREET":" ","SECT":" ","MAREA":"仁愛","LANE":" ","ALLEY":" ","HOUSE_NO":"３３６號","E_COORD97":170195.50688,"N_COORD97":2539986.9500000002,"ADDRESS":"仁愛３３６號","OBJECTID":935},"geometry":{"x":170195.50688000116,"y":2539986.9500000011}},{"attributes":{"ID":936,"DIS_CODE":0,"TOWNNAME":"仁德區","LI":"仁愛里","LIN":"17鄰","STREET":" ","SECT":" ","MAREA":"仁愛","LANE":" ","ALLEY":" ","HOUSE_NO":"３３７號","E_COORD97":170200.90917599999,"N_COORD97":2539986.9500000002,"ADDRESS":"仁愛３３７號","OBJECTID":936},"geometry":{"x":170200.90917600133,"y":2539986.9500000011}},{"attributes":{"ID":937,"DIS_CODE":0,"TOWNNAME":"仁德區","LI":"仁愛里","LIN":"17鄰","STREET":" ","SECT":" ","MAREA":"仁愛","LANE":" ","ALLEY":" ","HOUSE_NO":"３４１號","E_COORD97":170224.53098400001,"N_COORD97":2539986.9500000002,"ADDRESS":"仁愛３４１號","OBJECTID":937},"geometry":{"x":170224.5309840003,"y":2539986.9500000011}},{"attributes":{"ID":938,"DIS_CODE":0,"TOWNNAME":"仁德區","LI":"仁愛里","LIN":"17鄰","STREET":" ","SECT":" ","MAREA":"仁愛","LANE":" ","ALLEY":" ","HOUSE_NO":"３４２號","E_COORD97":170230.568845,"N_COORD97":2539986.9500000002,"ADDRESS":"仁愛３４２號","OBJECTID":938},"geometry":{"x":170230.56884500105,"y":2539986.9500000011}},{"attributes":{"ID":939,"DIS_CODE":0,"TOWNNAME":"仁德區","LI":"仁愛里","LIN":"17鄰","STREET":" ","SECT":" ","MAREA":"仁愛","LANE":" ","ALLEY":" ","HOUSE_NO":"３４３號","E_COORD97":170238.24858099999,"N_COORD97":2539986.9500000002,"ADDRESS":"仁愛３４３號","OBJECTID":939},"geometry":{"x":170238.24858099967,"y":2539986.9500000011}},{"attributes":{"ID":940,"DIS_CODE":0,"TOWNNAME":"仁德區","LI":"仁愛里","LIN":"17鄰","STREET":" ","SECT":" ","MAREA":"仁愛","LANE":" ","ALLEY":" ","HOUSE_NO":"３４６號","E_COORD97":170223.68356500001,"N_COORD97":2539998.52,"ADDRESS":"仁愛３４６號","OBJECTID":940},"geometry":{"x":170223.68356500007,"y":2539998.5199999996}},{"attributes":{"ID":941,"DIS_CODE":0,"TOWNNAME":"仁德區","LI":"仁愛里","LIN":"17鄰","STREET":" ","SECT":" ","MAREA":"仁愛","LANE":" ","ALLEY":" ","HOUSE_NO":"３５１號","E_COORD97":170195.030206,"N_COORD97":2539998.52,"ADDRESS":"仁愛３５１號","OBJECTID":941},"geometry":{"x":170195.0302060023,"y":2539998.5199999996}},{"attributes":{"ID":942,"DIS_CODE":0,"TOWNNAME":"仁德區","LI":"仁愛里","LIN":"17鄰","STREET":"保仁路","SECT":" ","MAREA":" ","LANE":" ","ALLEY":" ","HOUSE_NO":"９７號","E_COORD97":170195.62497999999,"N_COORD97":2540032.3500000001,"ADDRESS":"保仁路９７號","OBJECTID":942},"geometry":{"x":170195.62497999985,"y":2540032.3500000015}},{"attributes":{"ID":943,"DIS_CODE":0,"TOWNNAME":"仁德區","LI":"仁愛里","LIN":"17鄰","STREET":" ","SECT":" ","MAREA":"仁愛","LANE":" ","ALLEY":" ","HOUSE_NO":"３５３號","E_COORD97":170203.25175200001,"N_COORD97":2540032.3500000001,"ADDRESS":"仁愛３５３號","OBJECTID":943},"geometry":{"x":170203.2517520003,"y":2540032.3500000015}},{"attributes":{"ID":944,"DIS_CODE":0,"TOWNNAME":"仁德區","LI":"仁愛里","LIN":"17鄰","STREET":" ","SECT":" ","MAREA":"仁愛","LANE":" ","ALLEY":" ","HOUSE_NO":"３５６號","E_COORD97":170223.64277400001,"N_COORD97":2540032.5099999998,"ADDRESS":"仁愛３５６號","OBJECTID":944},"geometry":{"x":170223.64277399983,"y":2540032.5099999998}},{"attributes":{"ID":945,"DIS_CODE":0,"TOWNNAME":"仁德區","LI":"仁愛里","LIN":"17鄰","STREET":" ","SECT":" ","MAREA":"仁愛","LANE":" ","ALLEY":" ","HOUSE_NO":"３５９號","E_COORD97":170240.22041099999,"N_COORD97":2540022.2664200002,"ADDRESS":"仁愛３５９號","OBJECTID":945},"geometry":{"x":170240.22041100077,"y":2540022.2664149981}},{"attributes":{"ID":946,"DIS_CODE":0,"TOWNNAME":"新市區","LI":"新市里","LIN":"23鄰","STREET":"復興路","SECT":" ","MAREA":" ","LANE":" ","ALLEY":" ","HOUSE_NO":"９３號","E_COORD97":177799.73851900001,"N_COORD97":2553566.20102,"ADDRESS":"復興路９３號","OBJECTID":946},"geometry":{"x":177799.73851900175,"y":2553566.2010250017}},{"attributes":{"ID":947,"DIS_CODE":0,"TOWNNAME":"安南區","LI":"安慶里","LIN":"7鄰","STREET":"長溪路","SECT":"一段","MAREA":" ","LANE":"１６８巷","ALLEY":" ","HOUSE_NO":"２４６之１號","E_COORD97":168915.359891,"N_COORD97":2548958.2365100002,"ADDRESS":"長溪路一段１６８巷２４６之１號","OBJECTID":947},"geometry":{"x":168915.35989100114,"y":2548958.2365070004}},{"attributes":{"ID":948,"DIS_CODE":0,"TOWNNAME":"安南區","LI":"安慶里","LIN":"4鄰","STREET":"長溪路","SECT":"一段","MAREA":" ","LANE":"１６８巷","ALLEY":" ","HOUSE_NO":"２４號","E_COORD97":169060.91952200001,"N_COORD97":2548616.6066899998,"ADDRESS":"長溪路一段１６８巷２４號","OBJECTID":948},"geometry":{"x":169060.91952200048,"y":2548616.606691001}},{"attributes":{"ID":949,"DIS_CODE":0,"TOWNNAME":"安南區","LI":"安慶里","LIN":"4鄰","STREET":"長溪路","SECT":"一段","MAREA":" ","LANE":"１６８巷","ALLEY":" ","HOUSE_NO":"２６號","E_COORD97":169062.52727399999,"N_COORD97":2548622.7077100002,"ADDRESS":"長溪路一段１６８巷２６號","OBJECTID":949},"geometry":{"x":169062.52727400046,"y":2548622.7077110037}},{"attributes":{"ID":950,"DIS_CODE":0,"TOWNNAME":"安南區","LI":"安慶里","LIN":"2鄰","STREET":"長溪路","SECT":"一段","MAREA":" ","LANE":"１６８巷","ALLEY":"１３１弄","HOUSE_NO":"４０號","E_COORD97":168965.91127499999,"N_COORD97":2548870.4634099999,"ADDRESS":"長溪路一段１６８巷１３１弄４０號","OBJECTID":950},"geometry":{"x":168965.91127500124,"y":2548870.4634100031}},{"attributes":{"ID":951,"DIS_CODE":0,"TOWNNAME":"安南區","LI":"安慶里","LIN":"14鄰","STREET":"安中路","SECT":"一段","MAREA":" ","LANE":"７０巷","ALLEY":" ","HOUSE_NO":"５６號","E_COORD97":169049.602766,"N_COORD97":2548378.86784,"ADDRESS":"安中路一段７０巷５６號","OBJECTID":951},"geometry":{"x":169049.60276599973,"y":2548378.867842}},{"attributes":{"ID":952,"DIS_CODE":0,"TOWNNAME":"安南區","LI":"安慶里","LIN":"14鄰","STREET":"安中路","SECT":"一段","MAREA":" ","LANE":"７０巷","ALLEY":" ","HOUSE_NO":"５４號","E_COORD97":169055.32345,"N_COORD97":2548379.2911700001,"ADDRESS":"安中路一段７０巷５４號","OBJECTID":952},"geometry":{"x":169055.32345000003,"y":2548379.2911750041}},{"attributes":{"ID":953,"DIS_CODE":0,"TOWNNAME":"安南區","LI":"國安里","LIN":"10鄰","STREET":"郡安路","SECT":"六段","MAREA":" ","LANE":"１１１巷","ALLEY":"３６弄","HOUSE_NO":"６號","E_COORD97":166454.71120300001,"N_COORD97":2547308.10831,"ADDRESS":"郡安路六段１１１巷３６弄６號","OBJECTID":953},"geometry":{"x":166454.71120299958,"y":2547308.1083080005}},{"attributes":{"ID":954,"DIS_CODE":0,"TOWNNAME":"安南區","LI":"國安里","LIN":"1鄰","STREET":"國安街","SECT":" ","MAREA":" ","LANE":"１５６巷","ALLEY":"１５弄","HOUSE_NO":"５號","E_COORD97":166694.64450600001,"N_COORD97":2547003.8838399998,"ADDRESS":"國安街１５６巷１５弄５號","OBJECTID":954},"geometry":{"x":166694.64450599998,"y":2547003.8838439994}},{"attributes":{"ID":955,"DIS_CODE":0,"TOWNNAME":"安南區","LI":"城東里","LIN":"1鄰","STREET":"安明路","SECT":"四段","MAREA":" ","LANE":" ","ALLEY":" ","HOUSE_NO":"７０５號之２","E_COORD97":161263.84,"N_COORD97":2551766.1899999999,"ADDRESS":"安明路四段７０５號之２","OBJECTID":955},"geometry":{"x":161263.83999999892,"y":2551766.1900000032}},{"attributes":{"ID":956,"DIS_CODE":0,"TOWNNAME":"安定區","LI":"六嘉里","LIN":"8鄰","STREET":" ","SECT":" ","MAREA":"六塊寮","LANE":" ","ALLEY":" ","HOUSE_NO":"６７之２８號","E_COORD97":170101.82612499999,"N_COORD97":2553185.4507300002,"ADDRESS":"六塊寮６７之２８號","OBJECTID":956},"geometry":{"x":170101.8261250006,"y":2553185.4507309999}},{"attributes":{"ID":957,"DIS_CODE":0,"TOWNNAME":"安南區","LI":"城東里","LIN":"1鄰","STREET":"城北路","SECT":" ","MAREA":" ","LANE":"１７２巷","ALLEY":" ","HOUSE_NO":"８０號","E_COORD97":161177.51656600001,"N_COORD97":2551779.08127,"ADDRESS":"城北路１７２巷８０號","OBJECTID":957},"geometry":{"x":161177.51656600088,"y":2551779.0812650006}},{"attributes":{"ID":958,"DIS_CODE":0,"TOWNNAME":"安定區","LI":"港尾里","LIN":"3鄰","STREET":" ","SECT":" ","MAREA":"港子尾","LANE":" ","ALLEY":" ","HOUSE_NO":"６之３號","E_COORD97":171541.515109,"N_COORD97":2556179.0507800002,"ADDRESS":"港子尾６之３號","OBJECTID":958},"geometry":{"x":171541.51510900073,"y":2556179.0507810023}},{"attributes":{"ID":959,"DIS_CODE":0,"TOWNNAME":"安南區","LI":"城東里","LIN":"1鄰","STREET":"城北路","SECT":" ","MAREA":" ","LANE":"１７２巷","ALLEY":" ","HOUSE_NO":"８１號","E_COORD97":161171.79977400001,"N_COORD97":2551799.8245899999,"ADDRESS":"城北路１７２巷８１號","OBJECTID":959},"geometry":{"x":161171.79977400042,"y":2551799.8245880026}},{"attributes":{"ID":960,"DIS_CODE":0,"TOWNNAME":"安南區","LI":"城東里","LIN":"4鄰","STREET":"城北路","SECT":" ","MAREA":" ","LANE":"１７２巷","ALLEY":" ","HOUSE_NO":"６７號","E_COORD97":161152.7438,"N_COORD97":2551770.8262700001,"ADDRESS":"城北路１７２巷６７號","OBJECTID":960},"geometry":{"x":161152.74380000122,"y":2551770.826270001}},{"attributes":{"ID":961,"DIS_CODE":0,"TOWNNAME":"安南區","LI":"城東里","LIN":"1鄰","STREET":"城北路","SECT":" ","MAREA":" ","LANE":"１７２巷","ALLEY":" ","HOUSE_NO":"７９號","E_COORD97":161167.14164700001,"N_COORD97":2551797.2845899998,"ADDRESS":"城北路１７２巷７９號","OBJECTID":961},"geometry":{"x":161167.14164699987,"y":2551797.284589}},{"attributes":{"ID":962,"DIS_CODE":0,"TOWNNAME":"新市區","LI":"港墘里","LIN":"1鄰","STREET":"中山路","SECT":" ","MAREA":" ","LANE":"１３巷","ALLEY":"３弄","HOUSE_NO":"１０號","E_COORD97":178957.58363400001,"N_COORD97":2553960.25342,"ADDRESS":"中山路１３巷３弄１０號","OBJECTID":962},"geometry":{"x":178957.58363400027,"y":2553960.253419999}},{"attributes":{"ID":963,"DIS_CODE":0,"TOWNNAME":"安南區","LI":"城東里","LIN":"4鄰","STREET":"城北路","SECT":" ","MAREA":" ","LANE":"１７２巷","ALLEY":" ","HOUSE_NO":"４７號","E_COORD97":161105.10386500001,"N_COORD97":2551763.4179400001,"ADDRESS":"城北路１７２巷４７號","OBJECTID":963},"geometry":{"x":161105.10386500042,"y":2551763.417941004}},{"attributes":{"ID":964,"DIS_CODE":0,"TOWNNAME":"安南區","LI":"城東里","LIN":"5鄰","STREET":"城北路","SECT":" ","MAREA":" ","LANE":"１７２巷","ALLEY":" ","HOUSE_NO":"２０號","E_COORD97":161051.95887100001,"N_COORD97":2551728.2812899998,"ADDRESS":"城北路１７２巷２０號","OBJECTID":964},"geometry":{"x":161051.95887100138,"y":2551728.2812930029}},{"attributes":{"ID":965,"DIS_CODE":0,"TOWNNAME":"安南區","LI":"城東里","LIN":"5鄰","STREET":"城北路","SECT":" ","MAREA":" ","LANE":"１７２巷","ALLEY":" ","HOUSE_NO":"２２號","E_COORD97":161056.40526500001,"N_COORD97":2551728.4929599999,"ADDRESS":"城北路１７２巷２２號","OBJECTID":965},"geometry":{"x":161056.40526499972,"y":2551728.4929590002}},{"attributes":{"ID":966,"DIS_CODE":0,"TOWNNAME":"安南區","LI":"城東里","LIN":"5鄰","STREET":"城北路","SECT":" ","MAREA":" ","LANE":"１７２巷","ALLEY":" ","HOUSE_NO":"２４號","E_COORD97":161061.27512499999,"N_COORD97":2551727.43463,"ADDRESS":"城北路１７２巷２４號","OBJECTID":966},"geometry":{"x":161061.27512500063,"y":2551727.4346270021}},{"attributes":{"ID":967,"DIS_CODE":0,"TOWNNAME":"安南區","LI":"城東里","LIN":"5鄰","STREET":"城北路","SECT":" ","MAREA":" ","LANE":"１７２巷","ALLEY":" ","HOUSE_NO":"２６號","E_COORD97":161066.14498499999,"N_COORD97":2551728.7046300001,"ADDRESS":"城北路１７２巷２６號","OBJECTID":967},"geometry":{"x":161066.1449850006,"y":2551728.7046260014}},{"attributes":{"ID":968,"DIS_CODE":0,"TOWNNAME":"安定區","LI":"安定里","LIN":"3鄰","STREET":" ","SECT":" ","MAREA":"安定","LANE":" ","ALLEY":" ","HOUSE_NO":"３之１號","E_COORD97":172625.095031,"N_COORD97":2558021.60812,"ADDRESS":"安定３之１號","OBJECTID":968},"geometry":{"x":172625.09503099974,"y":2558021.6081200019}},{"attributes":{"ID":969,"DIS_CODE":0,"TOWNNAME":"安定區","LI":"安定里","LIN":"3鄰","STREET":" ","SECT":" ","MAREA":"安定","LANE":" ","ALLEY":" ","HOUSE_NO":"３之２號","E_COORD97":172618.95156700001,"N_COORD97":2558022.4547899999,"ADDRESS":"安定３之２號","OBJECTID":969},"geometry":{"x":172618.95156699978,"y":2558022.4547859989}},{"attributes":{"ID":970,"DIS_CODE":0,"TOWNNAME":"安南區","LI":"城東里","LIN":"2鄰","STREET":"城北路","SECT":" ","MAREA":" ","LANE":" ","ALLEY":" ","HOUSE_NO":"２３６之２號","E_COORD97":160963.666191,"N_COORD97":2551932.1161799999,"ADDRESS":"城北路２３６之２號","OBJECTID":970},"geometry":{"x":160963.66619099956,"y":2551932.1161829997}},{"attributes":{"ID":971,"DIS_CODE":0,"TOWNNAME":"安南區","LI":"城東里","LIN":"2鄰","STREET":"城北路","SECT":" ","MAREA":" ","LANE":" ","ALLEY":" ","HOUSE_NO":"２５２號","E_COORD97":160993.944017,"N_COORD97":2551894.0162,"ADDRESS":"城北路２５２號","OBJECTID":971},"geometry":{"x":160993.9440170005,"y":2551894.016203003}},{"attributes":{"ID":972,"DIS_CODE":0,"TOWNNAME":"安南區","LI":"城東里","LIN":"2鄰","STREET":"城北路","SECT":" ","MAREA":" ","LANE":" ","ALLEY":" ","HOUSE_NO":"２３６號之１","E_COORD97":160964.93659,"N_COORD97":2551928.72951,"ADDRESS":"城北路２３６號之１","OBJECTID":972},"geometry":{"x":160964.93658999912,"y":2551928.72951}},{"attributes":{"ID":973,"DIS_CODE":0,"TOWNNAME":"安南區","LI":"城東里","LIN":"7鄰","STREET":"城北路","SECT":" ","MAREA":" ","LANE":"９８巷","ALLEY":"３７弄","HOUSE_NO":"１７號","E_COORD97":161134.958224,"N_COORD97":2551587.7346999999,"ADDRESS":"城北路９８巷３７弄１７號","OBJECTID":973},"geometry":{"x":161134.95822400134,"y":2551587.7347020041}},{"attributes":{"ID":974,"DIS_CODE":0,"TOWNNAME":"安定區","LI":"港尾里","LIN":"17鄰","STREET":" ","SECT":" ","MAREA":"港子尾","LANE":" ","ALLEY":" ","HOUSE_NO":"９９號之１","E_COORD97":171432.74755100001,"N_COORD97":2556111.33953,"ADDRESS":"港子尾９９號之１","OBJECTID":974},"geometry":{"x":171432.74755099975,"y":2556111.3395320028}},{"attributes":{"ID":975,"DIS_CODE":0,"TOWNNAME":"安南區","LI":"城東里","LIN":"8鄰","STREET":"城北路","SECT":" ","MAREA":" ","LANE":"９８巷","ALLEY":"３７弄","HOUSE_NO":"１１號","E_COORD97":161124.79503800001,"N_COORD97":2551587.3113699998,"ADDRESS":"城北路９８巷３７弄１１號","OBJECTID":975},"geometry":{"x":161124.79503800068,"y":2551587.311369}},{"attributes":{"ID":976,"DIS_CODE":0,"TOWNNAME":"安南區","LI":"城東里","LIN":"9鄰","STREET":"城北路","SECT":" ","MAREA":" ","LANE":"９８巷","ALLEY":" ","HOUSE_NO":"１１號","E_COORD97":161054.92313400001,"N_COORD97":2551579.26804,"ADDRESS":"城北路９８巷１１號","OBJECTID":976},"geometry":{"x":161054.92313400004,"y":2551579.2680399995}},{"attributes":{"ID":977,"DIS_CODE":0,"TOWNNAME":"安南區","LI":"城東里","LIN":"8鄰","STREET":"城北路","SECT":" ","MAREA":" ","LANE":"９８巷","ALLEY":"２３弄","HOUSE_NO":"４５號","E_COORD97":161130.300097,"N_COORD97":2551624.5646799998,"ADDRESS":"城北路９８巷２３弄４５號","OBJECTID":977},"geometry":{"x":161130.30009700079,"y":2551624.5646820012}},{"attributes":{"ID":978,"DIS_CODE":0,"TOWNNAME":"安南區","LI":"城東里","LIN":"8鄰","STREET":"城北路","SECT":" ","MAREA":" ","LANE":"９８巷","ALLEY":"３７弄","HOUSE_NO":"９號","E_COORD97":161120.13691100001,"N_COORD97":2551586.8880400001,"ADDRESS":"城北路９８巷３７弄９號","OBJECTID":978},"geometry":{"x":161120.13691100013,"y":2551586.8880360015}},{"attributes":{"ID":979,"DIS_CODE":0,"TOWNNAME":"安定區","LI":"海寮里","LIN":"21鄰","STREET":" ","SECT":" ","MAREA":"海寮","LANE":" ","ALLEY":" ","HOUSE_NO":"２０１之３２號","E_COORD97":169701.98548500001,"N_COORD97":2556154.73117,"ADDRESS":"海寮２０１之３２號","OBJECTID":979},"geometry":{"x":169701.98548500054,"y":2556154.7311750017}},{"attributes":{"ID":980,"DIS_CODE":0,"TOWNNAME":"安定區","LI":"港尾里","LIN":"17鄰","STREET":" ","SECT":" ","MAREA":"港子尾","LANE":" ","ALLEY":" ","HOUSE_NO":"９９之２號","E_COORD97":171428.510679,"N_COORD97":2556117.0545299998,"ADDRESS":"港子尾９９之２號","OBJECTID":980},"geometry":{"x":171428.51067900006,"y":2556117.0545290019}},{"attributes":{"ID":981,"DIS_CODE":0,"TOWNNAME":"安南區","LI":"城東里","LIN":"7鄰","STREET":"城北路","SECT":" ","MAREA":" ","LANE":"９８巷","ALLEY":" ","HOUSE_NO":"１１２號","E_COORD97":161185.35068900001,"N_COORD97":2551548.1530599999,"ADDRESS":"城北路９８巷１１２號","OBJECTID":981},"geometry":{"x":161185.35068900231,"y":2551548.1530569997}},{"attributes":{"ID":982,"DIS_CODE":0,"TOWNNAME":"安定區","LI":"港南里","LIN":"1鄰","STREET":" ","SECT":" ","MAREA":"港口","LANE":" ","ALLEY":" ","HOUSE_NO":"１之１１５號","E_COORD97":170519.066181,"N_COORD97":2554462.4570900002,"ADDRESS":"港口１之１１５號","OBJECTID":982},"geometry":{"x":170519.06618100032,"y":2554462.4570890013}},{"attributes":{"ID":983,"DIS_CODE":0,"TOWNNAME":"新市區","LI":"大社里","LIN":"24鄰","STREET":" ","SECT":" ","MAREA":"大社","LANE":" ","ALLEY":" ","HOUSE_NO":"８７３號","E_COORD97":179735.95539399999,"N_COORD97":2554031.9207899999,"ADDRESS":"大社８７３號","OBJECTID":983},"geometry":{"x":179735.95539400075,"y":2554031.920793999}},{"attributes":{"ID":984,"DIS_CODE":0,"TOWNNAME":"安南區","LI":"城東里","LIN":"9鄰","STREET":"城北路","SECT":" ","MAREA":" ","LANE":"１３８巷","ALLEY":" ","HOUSE_NO":"６號","E_COORD97":161040.948753,"N_COORD97":2551658.4313300001,"ADDRESS":"城北路１３８巷６號","OBJECTID":984},"geometry":{"x":161040.94875300024,"y":2551658.4313310012}},{"attributes":{"ID":985,"DIS_CODE":0,"TOWNNAME":"安南區","LI":"城東里","LIN":"1鄰","STREET":"城北路","SECT":" ","MAREA":" ","LANE":"１３８巷","ALLEY":"１０１弄","HOUSE_NO":"１９號","E_COORD97":161184.29202399999,"N_COORD97":2551792.2045900002,"ADDRESS":"城北路１３８巷１０１弄１９號","OBJECTID":985},"geometry":{"x":161184.29202399962,"y":2551792.2045920007}},{"attributes":{"ID":986,"DIS_CODE":0,"TOWNNAME":"安南區","LI":"城西里","LIN":"4鄰","STREET":"城西街","SECT":"三段","MAREA":" ","LANE":"７６５巷","ALLEY":" ","HOUSE_NO":"１０號","E_COORD97":156543.51910400001,"N_COORD97":2550708.8261500001,"ADDRESS":"城西街三段７６５巷１０號","OBJECTID":986},"geometry":{"x":156543.51910400111,"y":2550708.8261520024}},{"attributes":{"ID":987,"DIS_CODE":0,"TOWNNAME":"安南區","LI":"城西里","LIN":"5鄰","STREET":"城西街","SECT":"三段","MAREA":" ","LANE":"５８４巷","ALLEY":" ","HOUSE_NO":"５８號","E_COORD97":156940.51373899999,"N_COORD97":2550915.2010400002,"ADDRESS":"城西街三段５８４巷５８號","OBJECTID":987},"geometry":{"x":156940.51373900101,"y":2550915.201041}},{"attributes":{"ID":988,"DIS_CODE":0,"TOWNNAME":"安南區","LI":"城東里","LIN":"1鄰","STREET":"城北路","SECT":" ","MAREA":" ","LANE":"１３８巷","ALLEY":" ","HOUSE_NO":"９１號","E_COORD97":161200.59546800001,"N_COORD97":2551743.7329500001,"ADDRESS":"城北路１３８巷９１號","OBJECTID":988},"geometry":{"x":161200.59546799865,"y":2551743.7329510022}},{"attributes":{"ID":989,"DIS_CODE":0,"TOWNNAME":"安南區","LI":"城東里","LIN":"6鄰","STREET":"城北路","SECT":" ","MAREA":" ","LANE":"１１２巷","ALLEY":" ","HOUSE_NO":"６１號","E_COORD97":161151.049936,"N_COORD97":2551677.9046499999,"ADDRESS":"城北路１１２巷６１號","OBJECTID":989},"geometry":{"x":161151.04993600026,"y":2551677.9046530016}},{"attributes":{"ID":990,"DIS_CODE":0,"TOWNNAME":"安南區","LI":"城東里","LIN":"8鄰","STREET":"城北路","SECT":" ","MAREA":" ","LANE":"１１２巷","ALLEY":" ","HOUSE_NO":"１７號","E_COORD97":161063.604188,"N_COORD97":2551631.9730099998,"ADDRESS":"城北路１１２巷１７號","OBJECTID":990},"geometry":{"x":161063.60418800078,"y":2551631.973012004}},{"attributes":{"ID":991,"DIS_CODE":0,"TOWNNAME":"安南區","LI":"城西里","LIN":"7鄰","STREET":"城西街","SECT":"三段","MAREA":" ","LANE":"５０１巷","ALLEY":" ","HOUSE_NO":"３６２號之４００","E_COORD97":157444.06563299999,"N_COORD97":2548459.4457,"ADDRESS":"城西街三段５０１巷３６２號之４００","OBJECTID":991},"geometry":{"x":157444.06563300081,"y":2548459.4457000028}},{"attributes":{"ID":992,"DIS_CODE":0,"TOWNNAME":"安南區","LI":"城東里","LIN":"9鄰","STREET":"城北路","SECT":" ","MAREA":" ","LANE":"１１２巷","ALLEY":" ","HOUSE_NO":"５號","E_COORD97":161040.948753,"N_COORD97":2551627.1046799999,"ADDRESS":"城北路１１２巷５號","OBJECTID":992},"geometry":{"x":161040.94875300024,"y":2551627.104681002}},{"attributes":{"ID":993,"DIS_CODE":0,"TOWNNAME":"安南區","LI":"城東里","LIN":"10鄰","STREET":"城北路","SECT":" ","MAREA":" ","LANE":"１１３巷","ALLEY":" ","HOUSE_NO":"１２號","E_COORD97":160947.78621300001,"N_COORD97":2551619.4846899998,"ADDRESS":"城北路１１３巷１２號","OBJECTID":993},"geometry":{"x":160947.7862130003,"y":2551619.4846850019}},{"attributes":{"ID":994,"DIS_CODE":0,"TOWNNAME":"安南區","LI":"城東里","LIN":"13鄰","STREET":"城北路","SECT":" ","MAREA":" ","LANE":" ","ALLEY":" ","HOUSE_NO":"１９５號之３","E_COORD97":160947.78621300001,"N_COORD97":2551916.6645200001,"ADDRESS":"城北路１９５號之３","OBJECTID":994},"geometry":{"x":160947.7862130003,"y":2551916.664524002}},{"attributes":{"ID":995,"DIS_CODE":0,"TOWNNAME":"安南區","LI":"城東里","LIN":"13鄰","STREET":"城北路","SECT":" ","MAREA":" ","LANE":" ","ALLEY":" ","HOUSE_NO":"１９５號之１","E_COORD97":160954.561671,"N_COORD97":2551903.5411999999,"ADDRESS":"城北路１９５號之１","OBJECTID":995},"geometry":{"x":160954.56167100091,"y":2551903.5411980003}},{"attributes":{"ID":996,"DIS_CODE":0,"TOWNNAME":"安南區","LI":"城東里","LIN":"13鄰","STREET":"城北路","SECT":" ","MAREA":" ","LANE":" ","ALLEY":" ","HOUSE_NO":"１９５號之２","E_COORD97":160948.844878,"N_COORD97":2551908.1978600002,"ADDRESS":"城北路１９５號之２","OBJECTID":996},"geometry":{"x":160948.84487800021,"y":2551908.1978620011}},{"attributes":{"ID":997,"DIS_CODE":0,"TOWNNAME":"安南區","LI":"城東里","LIN":"13鄰","STREET":"城北路","SECT":" ","MAREA":" ","LANE":" ","ALLEY":" ","HOUSE_NO":"１９５號之６","E_COORD97":160933.600099,"N_COORD97":2551929.5761799999,"ADDRESS":"城北路１９５號之６","OBJECTID":997},"geometry":{"x":160933.60009900108,"y":2551929.5761840008}},{"attributes":{"ID":998,"DIS_CODE":0,"TOWNNAME":"安南區","LI":"城東里","LIN":"9鄰","STREET":"城北路","SECT":" ","MAREA":" ","LANE":" ","ALLEY":" ","HOUSE_NO":"１００號","E_COORD97":161020.41064700001,"N_COORD97":2551593.8730299999,"ADDRESS":"城北路１００號","OBJECTID":998},"geometry":{"x":161020.41064700112,"y":2551593.8730320018}},{"attributes":{"ID":999,"DIS_CODE":0,"TOWNNAME":"安南區","LI":"城東里","LIN":"9鄰","STREET":"城北路","SECT":" ","MAREA":" ","LANE":" ","ALLEY":" ","HOUSE_NO":"１０６號","E_COORD97":161019.563715,"N_COORD97":2551606.1496899999,"ADDRESS":"城北路１０６號","OBJECTID":999},"geometry":{"x":161019.56371500064,"y":2551606.1496920008}},{"attributes":{"ID":1000,"DIS_CODE":0,"TOWNNAME":"安南區","LI":"城東里","LIN":"14鄰","STREET":"城北路","SECT":" ","MAREA":" ","LANE":" ","ALLEY":" ","HOUSE_NO":"３６２號","E_COORD97":160917.93185399999,"N_COORD97":2552029.2711299998,"ADDRESS":"城北路３６２號","OBJECTID":1000},"geometry":{"x":160917.93185400125,"y":2552029.2711300012}}]}