{"displayFieldName":"TOWNNAME","fieldAliases":{"ID":"ID","DIS_CODE":"DIS_CODE","TOWNNAME":"TOWNNAME","LI":"LI","LIN":"LIN","STREET":"STREET","SECT":"SECT","MAREA":"MAREA","LANE":"LANE","ALLEY":"ALLEY","HOUSE_NO":"HOUSE_NO","E_COORD97":"E_COORD97","N_COORD97":"N_COORD97","ADDRESS":"ADDRESS","OBJECTID":"OBJECTID"},"geometryType":"esriGeometryPoint","spatialReference":{"wkid":102443,"latestWkid":3826},"fields":[{"name":"ID","type":"esriFieldTypeDouble","alias":"ID"},{"name":"DIS_CODE","type":"esriFieldTypeInteger","alias":"DIS_CODE"},{"name":"TOWNNAME","type":"esriFieldTypeString","alias":"TOWNNAME","length":8},{"name":"LI","type":"esriFieldTypeString","alias":"LI","length":8},{"name":"LIN","type":"esriFieldTypeString","alias":"LIN","length":12},{"name":"STREET","type":"esriFieldTypeString","alias":"STREET","length":20},{"name":"SECT","type":"esriFieldTypeString","alias":"SECT","length":8},{"name":"MAREA","type":"esriFieldTypeString","alias":"MAREA","length":12},{"name":"LANE","type":"esriFieldTypeString","alias":"LANE","length":10},{"name":"ALLEY","type":"esriFieldTypeString","alias":"ALLEY","length":10},{"name":"HOUSE_NO","type":"esriFieldTypeString","alias":"HOUSE_NO","length":20},{"name":"E_COORD97","type":"esriFieldTypeDouble","alias":"E_COORD97"},{"name":"N_COORD97","type":"esriFieldTypeDouble","alias":"N_COORD97"},{"name":"ADDRESS","type":"esriFieldTypeString","alias":"ADDRESS","length":50},{"name":"OBJECTID","type":"esriFieldTypeOID","alias":"OBJECTID"}],"features":[{"attributes":{"ID":94401,"DIS_CODE":0,"TOWNNAME":"七股區","LI":"義合里","LIN":"10鄰","STREET":" ","SECT":" ","MAREA":"義合","LANE":" ","ALLEY":" ","HOUSE_NO":"７６號之１","E_COORD97":161882.95000000001,"N_COORD97":2555683.3500000001,"ADDRESS":"義合７６號之１","OBJECTID":94401},"geometry":{"x":161882.95000000112,"y":2555683.3499999996}},{"attributes":{"ID":94402,"DIS_CODE":0,"TOWNNAME":"七股區","LI":"義合里","LIN":"10鄰","STREET":" ","SECT":" ","MAREA":"義合","LANE":" ","ALLEY":" ","HOUSE_NO":"７６號之２０","E_COORD97":161967.98999999999,"N_COORD97":2555765.27,"ADDRESS":"義合７６號之２０","OBJECTID":94402},"geometry":{"x":161967.99000000022,"y":2555765.2699999996}},{"attributes":{"ID":94403,"DIS_CODE":0,"TOWNNAME":"安平區","LI":"建平里","LIN":"15鄰","STREET":"建平十二街","SECT":" ","MAREA":" ","LANE":" ","ALLEY":" ","HOUSE_NO":"５６號","E_COORD97":166273.88,"N_COORD97":2543966.0499999998,"ADDRESS":"建平十二街５６號","OBJECTID":94403},"geometry":{"x":166273.87999999989,"y":2543966.0500000007}},{"attributes":{"ID":94404,"DIS_CODE":0,"TOWNNAME":"七股區","LI":"義合里","LIN":"10鄰","STREET":" ","SECT":" ","MAREA":"義合","LANE":" ","ALLEY":" ","HOUSE_NO":"７６號之２１","E_COORD97":161963.01000000001,"N_COORD97":2555764.1899999999,"ADDRESS":"義合７６號之２１","OBJECTID":94404},"geometry":{"x":161963.01000000071,"y":2555764.1900000013}},{"attributes":{"ID":94405,"DIS_CODE":0,"TOWNNAME":"七股區","LI":"義合里","LIN":"10鄰","STREET":" ","SECT":" ","MAREA":"義合","LANE":" ","ALLEY":" ","HOUSE_NO":"７６號之２２","E_COORD97":161952.19,"N_COORD97":2555762.4199999999,"ADDRESS":"義合７６號之２２","OBJECTID":94405},"geometry":{"x":161952.19000000227,"y":2555762.4200000037}},{"attributes":{"ID":94406,"DIS_CODE":0,"TOWNNAME":"七股區","LI":"義合里","LIN":"10鄰","STREET":" ","SECT":" ","MAREA":"義合","LANE":" ","ALLEY":" ","HOUSE_NO":"７６號之２３","E_COORD97":161947.07000000001,"N_COORD97":2555761.3500000001,"ADDRESS":"義合７６號之２３","OBJECTID":94406},"geometry":{"x":161947.0700000003,"y":2555761.3499999996}},{"attributes":{"ID":94407,"DIS_CODE":0,"TOWNNAME":"七股區","LI":"義合里","LIN":"10鄰","STREET":" ","SECT":" ","MAREA":"義合","LANE":" ","ALLEY":" ","HOUSE_NO":"７６號之２４","E_COORD97":161947.60000000001,"N_COORD97":2555749.3700000001,"ADDRESS":"義合７６號之２４","OBJECTID":94407},"geometry":{"x":161947.60000000056,"y":2555749.370000001}},{"attributes":{"ID":94408,"DIS_CODE":0,"TOWNNAME":"七股區","LI":"義合里","LIN":"10鄰","STREET":" ","SECT":" ","MAREA":"義合","LANE":" ","ALLEY":" ","HOUSE_NO":"７６號之２５","E_COORD97":161948.59,"N_COORD97":2555743.52,"ADDRESS":"義合７６號之２５","OBJECTID":94408},"geometry":{"x":161948.58999999985,"y":2555743.5199999996}},{"attributes":{"ID":94409,"DIS_CODE":0,"TOWNNAME":"七股區","LI":"義合里","LIN":"10鄰","STREET":" ","SECT":" ","MAREA":"義合","LANE":" ","ALLEY":" ","HOUSE_NO":"７６號之２６","E_COORD97":161949.70000000001,"N_COORD97":2555737.8999999999,"ADDRESS":"義合７６號之２６","OBJECTID":94409},"geometry":{"x":161949.70000000019,"y":2555737.9000000004}},{"attributes":{"ID":94410,"DIS_CODE":0,"TOWNNAME":"七股區","LI":"義合里","LIN":"10鄰","STREET":" ","SECT":" ","MAREA":"義合","LANE":" ","ALLEY":" ","HOUSE_NO":"７６號之２７","E_COORD97":161950.76000000001,"N_COORD97":2555732.3100000001,"ADDRESS":"義合７６號之２７","OBJECTID":94410},"geometry":{"x":161950.75999999978,"y":2555732.3100000005}},{"attributes":{"ID":94411,"DIS_CODE":0,"TOWNNAME":"七股區","LI":"義合里","LIN":"10鄰","STREET":" ","SECT":" ","MAREA":"義合","LANE":" ","ALLEY":" ","HOUSE_NO":"７６號之２８","E_COORD97":161951.79000000001,"N_COORD97":2555726.8399999999,"ADDRESS":"義合７６號之２８","OBJECTID":94411},"geometry":{"x":161951.79000000097,"y":2555726.8400000017}},{"attributes":{"ID":94412,"DIS_CODE":0,"TOWNNAME":"中西區","LI":"大涼里","LIN":"21鄰","STREET":"府前一街","SECT":" ","MAREA":" ","LANE":"９巷","ALLEY":"１２弄","HOUSE_NO":"４９號","E_COORD97":166728.20000000001,"N_COORD97":2543846.96,"ADDRESS":"府前一街９巷１２弄４９號","OBJECTID":94412},"geometry":{"x":166728.20000000019,"y":2543846.9600000028}},{"attributes":{"ID":94413,"DIS_CODE":0,"TOWNNAME":"中西區","LI":"大涼里","LIN":"21鄰","STREET":"府前一街","SECT":" ","MAREA":" ","LANE":"９巷","ALLEY":"１２弄","HOUSE_NO":"５１號","E_COORD97":166726.92999999999,"N_COORD97":2543851.4100000001,"ADDRESS":"府前一街９巷１２弄５１號","OBJECTID":94413},"geometry":{"x":166726.93000000063,"y":2543851.4100000001}},{"attributes":{"ID":94414,"DIS_CODE":0,"TOWNNAME":"中西區","LI":"光賢里","LIN":"21鄰","STREET":"武聖路","SECT":" ","MAREA":" ","LANE":"１９７巷","ALLEY":"３０弄","HOUSE_NO":"１８之１號","E_COORD97":166835.28,"N_COORD97":2545199.9399999999,"ADDRESS":"武聖路１９７巷３０弄１８之１號","OBJECTID":94414},"geometry":{"x":166835.28000000212,"y":2545199.9399999995}},{"attributes":{"ID":94415,"DIS_CODE":0,"TOWNNAME":"東區","LI":"虎尾里","LIN":"3鄰","STREET":"東門路","SECT":"三段","MAREA":" ","LANE":"１７９巷","ALLEY":"１４７弄","HOUSE_NO":"１２８號","E_COORD97":171806.54000000001,"N_COORD97":2542194.8100000001,"ADDRESS":"東門路三段１７９巷１４７弄１２８號","OBJECTID":94415},"geometry":{"x":171806.54000000004,"y":2542194.8100000005}},{"attributes":{"ID":94416,"DIS_CODE":0,"TOWNNAME":"永康區","LI":"北灣里","LIN":"21鄰","STREET":"大同街","SECT":" ","MAREA":" ","LANE":"３８０巷","ALLEY":"４１弄","HOUSE_NO":"５５號","E_COORD97":174910.20999999999,"N_COORD97":2546165.3100000001,"ADDRESS":"大同街３８０巷４１弄５５號","OBJECTID":94416},"geometry":{"x":174910.21000000089,"y":2546165.3100000042}},{"attributes":{"ID":94417,"DIS_CODE":0,"TOWNNAME":"永康區","LI":"北灣里","LIN":"21鄰","STREET":"大同街","SECT":" ","MAREA":" ","LANE":"３８０巷","ALLEY":"４１弄","HOUSE_NO":"１１號","E_COORD97":174853.17999999999,"N_COORD97":2546086.6000000001,"ADDRESS":"大同街３８０巷４１弄１１號","OBJECTID":94417},"geometry":{"x":174853.1799999997,"y":2546086.5999999996}},{"attributes":{"ID":94418,"DIS_CODE":0,"TOWNNAME":"永康區","LI":"北灣里","LIN":"21鄰","STREET":"大同街","SECT":" ","MAREA":" ","LANE":"３８０巷","ALLEY":"３１弄","HOUSE_NO":"１９號","E_COORD97":174844.28,"N_COORD97":2546108.5699999998,"ADDRESS":"大同街３８０巷３１弄１９號","OBJECTID":94418},"geometry":{"x":174844.28000000026,"y":2546108.5700000003}},{"attributes":{"ID":94419,"DIS_CODE":0,"TOWNNAME":"永康區","LI":"北灣里","LIN":"21鄰","STREET":"大同街","SECT":" ","MAREA":" ","LANE":"３８０巷","ALLEY":"４１弄","HOUSE_NO":"７０號","E_COORD97":174929.39999999999,"N_COORD97":2546099.4900000002,"ADDRESS":"大同街３８０巷４１弄７０號","OBJECTID":94419},"geometry":{"x":174929.4000000013,"y":2546099.4900000039}},{"attributes":{"ID":94420,"DIS_CODE":0,"TOWNNAME":"南區","LI":"大忠里","LIN":"15鄰","STREET":"公英六街","SECT":" ","MAREA":" ","LANE":" ","ALLEY":" ","HOUSE_NO":"４０號","E_COORD97":169329.62,"N_COORD97":2541093.2999999998,"ADDRESS":"公英六街４０號","OBJECTID":94420},"geometry":{"x":169329.61999999918,"y":2541093.3000000007}},{"attributes":{"ID":94421,"DIS_CODE":0,"TOWNNAME":"七股區","LI":"義合里","LIN":"10鄰","STREET":" ","SECT":" ","MAREA":"義合","LANE":" ","ALLEY":" ","HOUSE_NO":"７６號之２９","E_COORD97":161967.54000000001,"N_COORD97":2555730.4300000002,"ADDRESS":"義合７６號之２９","OBJECTID":94421},"geometry":{"x":161967.54000000004,"y":2555730.4299999997}},{"attributes":{"ID":94422,"DIS_CODE":0,"TOWNNAME":"七股區","LI":"義合里","LIN":"10鄰","STREET":" ","SECT":" ","MAREA":"義合","LANE":" ","ALLEY":" ","HOUSE_NO":"７６號之３０","E_COORD97":161966.35000000001,"N_COORD97":2555735.8999999999,"ADDRESS":"義合７６號之３０","OBJECTID":94422},"geometry":{"x":161966.34999999963,"y":2555735.9000000041}},{"attributes":{"ID":94423,"DIS_CODE":0,"TOWNNAME":"七股區","LI":"義合里","LIN":"10鄰","STREET":" ","SECT":" ","MAREA":"義合","LANE":" ","ALLEY":" ","HOUSE_NO":"７６號之３１","E_COORD97":161965.45999999999,"N_COORD97":2555741.1099999999,"ADDRESS":"義合７６號之３１","OBJECTID":94423},"geometry":{"x":161965.46000000089,"y":2555741.1100000013}},{"attributes":{"ID":94424,"DIS_CODE":0,"TOWNNAME":"七股區","LI":"義合里","LIN":"10鄰","STREET":" ","SECT":" ","MAREA":"義合","LANE":" ","ALLEY":" ","HOUSE_NO":"７６號之３２","E_COORD97":161964.42000000001,"N_COORD97":2555746.5800000001,"ADDRESS":"義合７６號之３２","OBJECTID":94424},"geometry":{"x":161964.42000000086,"y":2555746.5800000001}},{"attributes":{"ID":94425,"DIS_CODE":0,"TOWNNAME":"七股區","LI":"義合里","LIN":"10鄰","STREET":" ","SECT":" ","MAREA":"義合","LANE":" ","ALLEY":" ","HOUSE_NO":"７６號之３３","E_COORD97":161963.14000000001,"N_COORD97":2555752.3999999999,"ADDRESS":"義合７６號之３３","OBJECTID":94425},"geometry":{"x":161963.13999999966,"y":2555752.3999999985}},{"attributes":{"ID":94426,"DIS_CODE":0,"TOWNNAME":"七股區","LI":"義合里","LIN":"10鄰","STREET":" ","SECT":" ","MAREA":"義合","LANE":" ","ALLEY":" ","HOUSE_NO":"７６號","E_COORD97":161895.13,"N_COORD97":2555735.5099999998,"ADDRESS":"義合７６號","OBJECTID":94426},"geometry":{"x":161895.13000000082,"y":2555735.5100000016}},{"attributes":{"ID":94427,"DIS_CODE":0,"TOWNNAME":"南區","LI":"大忠里","LIN":"15鄰","STREET":"公英六街","SECT":" ","MAREA":" ","LANE":" ","ALLEY":" ","HOUSE_NO":"４１號","E_COORD97":169349.32000000001,"N_COORD97":2541081.8300000001,"ADDRESS":"公英六街４１號","OBJECTID":94427},"geometry":{"x":169349.32000000123,"y":2541081.8300000001}},{"attributes":{"ID":94428,"DIS_CODE":0,"TOWNNAME":"南區","LI":"大忠里","LIN":"15鄰","STREET":"公英六街","SECT":" ","MAREA":" ","LANE":" ","ALLEY":" ","HOUSE_NO":"４２號","E_COORD97":169324.67999999999,"N_COORD97":2541092.6299999999,"ADDRESS":"公英六街４２號","OBJECTID":94428},"geometry":{"x":169324.6799999997,"y":2541092.629999999}},{"attributes":{"ID":94429,"DIS_CODE":0,"TOWNNAME":"南區","LI":"大忠里","LIN":"15鄰","STREET":"公英六街","SECT":" ","MAREA":" ","LANE":" ","ALLEY":" ","HOUSE_NO":"４２號之１","E_COORD97":169319.95999999999,"N_COORD97":2541091.96,"ADDRESS":"公英六街４２號之１","OBJECTID":94429},"geometry":{"x":169319.95999999996,"y":2541091.9600000009}},{"attributes":{"ID":94430,"DIS_CODE":0,"TOWNNAME":"南區","LI":"大忠里","LIN":"15鄰","STREET":"公英六街","SECT":" ","MAREA":" ","LANE":" ","ALLEY":" ","HOUSE_NO":"４３號","E_COORD97":169345.69,"N_COORD97":2541081.4399999999,"ADDRESS":"公英六街４３號","OBJECTID":94430},"geometry":{"x":169345.69000000041,"y":2541081.4400000032}},{"attributes":{"ID":94431,"DIS_CODE":0,"TOWNNAME":"南區","LI":"大忠里","LIN":"15鄰","STREET":"公英六街","SECT":" ","MAREA":" ","LANE":" ","ALLEY":" ","HOUSE_NO":"４５號","E_COORD97":169341.87,"N_COORD97":2541080.8700000001,"ADDRESS":"公英六街４５號","OBJECTID":94431},"geometry":{"x":169341.87000000104,"y":2541080.8700000029}},{"attributes":{"ID":94432,"DIS_CODE":0,"TOWNNAME":"南區","LI":"大忠里","LIN":"15鄰","STREET":"公英六街","SECT":" ","MAREA":" ","LANE":" ","ALLEY":" ","HOUSE_NO":"４６號","E_COORD97":169315.01000000001,"N_COORD97":2541091.0600000001,"ADDRESS":"公英六街４６號","OBJECTID":94432},"geometry":{"x":169315.01000000071,"y":2541091.0600000005}},{"attributes":{"ID":94433,"DIS_CODE":0,"TOWNNAME":"南區","LI":"大忠里","LIN":"15鄰","STREET":"公英六街","SECT":" ","MAREA":" ","LANE":" ","ALLEY":" ","HOUSE_NO":"４７號","E_COORD97":169337.85000000001,"N_COORD97":2541080.2999999998,"ADDRESS":"公英六街４７號","OBJECTID":94433},"geometry":{"x":169337.85000000149,"y":2541080.3000000045}},{"attributes":{"ID":94434,"DIS_CODE":0,"TOWNNAME":"南區","LI":"大忠里","LIN":"15鄰","STREET":"公英六街","SECT":" ","MAREA":" ","LANE":" ","ALLEY":" ","HOUSE_NO":"４８號","E_COORD97":169309.85000000001,"N_COORD97":2541090.3900000001,"ADDRESS":"公英六街４８號","OBJECTID":94434},"geometry":{"x":169309.85000000056,"y":2541090.3900000025}},{"attributes":{"ID":94435,"DIS_CODE":0,"TOWNNAME":"南區","LI":"大忠里","LIN":"15鄰","STREET":"公英六街","SECT":" ","MAREA":" ","LANE":" ","ALLEY":" ","HOUSE_NO":"４９號","E_COORD97":169334.03,"N_COORD97":2541079.9199999999,"ADDRESS":"公英六街４９號","OBJECTID":94435},"geometry":{"x":169334.03000000212,"y":2541079.9200000018}},{"attributes":{"ID":94436,"DIS_CODE":0,"TOWNNAME":"南區","LI":"大忠里","LIN":"15鄰","STREET":"公英六街","SECT":" ","MAREA":" ","LANE":" ","ALLEY":" ","HOUSE_NO":"４號","E_COORD97":169422,"N_COORD97":2541108.9900000002,"ADDRESS":"公英六街４號","OBJECTID":94436},"geometry":{"x":169422.00000000186,"y":2541108.9900000039}},{"attributes":{"ID":94437,"DIS_CODE":0,"TOWNNAME":"南區","LI":"大忠里","LIN":"15鄰","STREET":"公英六街","SECT":" ","MAREA":" ","LANE":" ","ALLEY":" ","HOUSE_NO":"５號","E_COORD97":169421.22,"N_COORD97":2541091.1699999999,"ADDRESS":"公英六街５號","OBJECTID":94437},"geometry":{"x":169421.21999999974,"y":2541091.1700000018}},{"attributes":{"ID":94438,"DIS_CODE":0,"TOWNNAME":"永康區","LI":"北灣里","LIN":"21鄰","STREET":"大同街","SECT":" ","MAREA":" ","LANE":"３８０巷","ALLEY":"３１弄","HOUSE_NO":"３７號","E_COORD97":174872.39000000001,"N_COORD97":2546136.3199999998,"ADDRESS":"大同街３８０巷３１弄３７號","OBJECTID":94438},"geometry":{"x":174872.39000000153,"y":2546136.3200000003}},{"attributes":{"ID":94439,"DIS_CODE":0,"TOWNNAME":"永康區","LI":"北灣里","LIN":"21鄰","STREET":"大同街","SECT":" ","MAREA":" ","LANE":"３８０巷","ALLEY":"４１弄","HOUSE_NO":"７６號","E_COORD97":174929.81,"N_COORD97":2546139.2200000002,"ADDRESS":"大同街３８０巷４１弄７６號","OBJECTID":94439},"geometry":{"x":174929.80999999959,"y":2546139.2200000044}},{"attributes":{"ID":94440,"DIS_CODE":0,"TOWNNAME":"七股區","LI":"義合里","LIN":"10鄰","STREET":" ","SECT":" ","MAREA":"義合","LANE":" ","ALLEY":" ","HOUSE_NO":"７７號之１５","E_COORD97":161888.89000000001,"N_COORD97":2555640.7000000002,"ADDRESS":"義合７７號之１５","OBJECTID":94440},"geometry":{"x":161888.89000000153,"y":2555640.6999999974}},{"attributes":{"ID":94441,"DIS_CODE":0,"TOWNNAME":"七股區","LI":"義合里","LIN":"10鄰","STREET":" ","SECT":" ","MAREA":"義合","LANE":" ","ALLEY":" ","HOUSE_NO":"７７號之２","E_COORD97":161847.84,"N_COORD97":2555665.5,"ADDRESS":"義合７７號之２","OBJECTID":94441},"geometry":{"x":161847.84000000078,"y":2555665.5}},{"attributes":{"ID":94442,"DIS_CODE":0,"TOWNNAME":"七股區","LI":"義合里","LIN":"10鄰","STREET":" ","SECT":" ","MAREA":"義合","LANE":" ","ALLEY":" ","HOUSE_NO":"７７號之８","E_COORD97":161821.56,"N_COORD97":2555662.0800000001,"ADDRESS":"義合７７號之８","OBJECTID":94442},"geometry":{"x":161821.56000000145,"y":2555662.0800000001}},{"attributes":{"ID":94443,"DIS_CODE":0,"TOWNNAME":"永康區","LI":"北灣里","LIN":"21鄰","STREET":"大同街","SECT":" ","MAREA":" ","LANE":"３８０巷","ALLEY":"４１弄","HOUSE_NO":"２９號","E_COORD97":174895.07000000001,"N_COORD97":2546087.3799999999,"ADDRESS":"大同街３８０巷４１弄２９號","OBJECTID":94443},"geometry":{"x":174895.0700000003,"y":2546087.379999999}},{"attributes":{"ID":94444,"DIS_CODE":0,"TOWNNAME":"永康區","LI":"北灣里","LIN":"21鄰","STREET":"大同街","SECT":" ","MAREA":" ","LANE":"３８０巷","ALLEY":"４１弄","HOUSE_NO":"１６號","E_COORD97":174858.09,"N_COORD97":2546066.27,"ADDRESS":"大同街３８０巷４１弄１６號","OBJECTID":94444},"geometry":{"x":174858.09000000078,"y":2546066.2700000033}},{"attributes":{"ID":94445,"DIS_CODE":0,"TOWNNAME":"永康區","LI":"北灣里","LIN":"21鄰","STREET":"大同街","SECT":" ","MAREA":" ","LANE":"３８０巷","ALLEY":"４１弄","HOUSE_NO":"８２號","E_COORD97":174920.70999999999,"N_COORD97":2546158.6200000001,"ADDRESS":"大同街３８０巷４１弄８２號","OBJECTID":94445},"geometry":{"x":174920.70999999996,"y":2546158.6200000029}},{"attributes":{"ID":94446,"DIS_CODE":0,"TOWNNAME":"永康區","LI":"北灣里","LIN":"21鄰","STREET":"大同街","SECT":" ","MAREA":" ","LANE":"３８０巷","ALLEY":"３１弄","HOUSE_NO":"３２號","E_COORD97":174878.67999999999,"N_COORD97":2546122.5499999998,"ADDRESS":"大同街３８０巷３１弄３２號","OBJECTID":94446},"geometry":{"x":174878.6799999997,"y":2546122.5500000007}},{"attributes":{"ID":94447,"DIS_CODE":0,"TOWNNAME":"永康區","LI":"北灣里","LIN":"21鄰","STREET":"大同街","SECT":" ","MAREA":" ","LANE":"３８０巷","ALLEY":"３１弄","HOUSE_NO":"１８號","E_COORD97":174855.84,"N_COORD97":2546103.5499999998,"ADDRESS":"大同街３８０巷３１弄１８號","OBJECTID":94447},"geometry":{"x":174855.83999999985,"y":2546103.5500000026}},{"attributes":{"ID":94448,"DIS_CODE":0,"TOWNNAME":"永康區","LI":"北灣里","LIN":"21鄰","STREET":"大同街","SECT":" ","MAREA":" ","LANE":"３８０巷","ALLEY":"３１弄","HOUSE_NO":"９號","E_COORD97":174813.34,"N_COORD97":2546086.5,"ADDRESS":"大同街３８０巷３１弄９號","OBJECTID":94448},"geometry":{"x":174813.33999999985,"y":2546086.5000000019}},{"attributes":{"ID":94449,"DIS_CODE":0,"TOWNNAME":"永康區","LI":"北灣里","LIN":"21鄰","STREET":"大同街","SECT":" ","MAREA":" ","LANE":"３８０巷","ALLEY":"３１弄","HOUSE_NO":"１７號","E_COORD97":174831.82000000001,"N_COORD97":2546089,"ADDRESS":"大同街３８０巷３１弄１７號","OBJECTID":94449},"geometry":{"x":174831.82000000123,"y":2546089.0000000037}},{"attributes":{"ID":94450,"DIS_CODE":0,"TOWNNAME":"七股區","LI":"義合里","LIN":"10鄰","STREET":" ","SECT":" ","MAREA":"義合","LANE":" ","ALLEY":" ","HOUSE_NO":"７７號","E_COORD97":161869.82000000001,"N_COORD97":2555693.5600000001,"ADDRESS":"義合７７號","OBJECTID":94450},"geometry":{"x":161869.82000000216,"y":2555693.5600000005}},{"attributes":{"ID":94451,"DIS_CODE":0,"TOWNNAME":"七股區","LI":"義合里","LIN":"10鄰","STREET":" ","SECT":" ","MAREA":"義合","LANE":" ","ALLEY":" ","HOUSE_NO":"７８號之１０","E_COORD97":161839.76000000001,"N_COORD97":2555718.8399999999,"ADDRESS":"義合７８號之１０","OBJECTID":94451},"geometry":{"x":161839.76000000071,"y":2555718.8400000036}},{"attributes":{"ID":94452,"DIS_CODE":0,"TOWNNAME":"七股區","LI":"義合里","LIN":"10鄰","STREET":" ","SECT":" ","MAREA":"義合","LANE":" ","ALLEY":" ","HOUSE_NO":"７８號之１１","E_COORD97":161839.54999999999,"N_COORD97":2555724.7200000002,"ADDRESS":"義合７８號之１１","OBJECTID":94452},"geometry":{"x":161839.55000000075,"y":2555724.7200000025}},{"attributes":{"ID":94453,"DIS_CODE":0,"TOWNNAME":"七股區","LI":"義合里","LIN":"10鄰","STREET":" ","SECT":" ","MAREA":"義合","LANE":" ","ALLEY":" ","HOUSE_NO":"７８號之１２","E_COORD97":161839.56,"N_COORD97":2555731.6800000002,"ADDRESS":"義合７８號之１２","OBJECTID":94453},"geometry":{"x":161839.55999999959,"y":2555731.6799999997}},{"attributes":{"ID":94454,"DIS_CODE":0,"TOWNNAME":"七股區","LI":"義合里","LIN":"10鄰","STREET":" ","SECT":" ","MAREA":"義合","LANE":" ","ALLEY":" ","HOUSE_NO":"７８號之１３","E_COORD97":161826.13,"N_COORD97":2555728.6299999999,"ADDRESS":"義合７８號之１３","OBJECTID":94454},"geometry":{"x":161826.12999999989,"y":2555728.629999999}},{"attributes":{"ID":94455,"DIS_CODE":0,"TOWNNAME":"新營區","LI":"南紙里","LIN":"21鄰","STREET":"建業路","SECT":" ","MAREA":" ","LANE":"２２７巷","ALLEY":"１６弄","HOUSE_NO":"２２號四樓之２１","E_COORD97":178060.91,"N_COORD97":2577431.4399999999,"ADDRESS":"建業路２２７巷１６弄２２號四樓之２１","OBJECTID":94455},"geometry":{"x":178060.91000000015,"y":2577431.4399999995}},{"attributes":{"ID":94456,"DIS_CODE":0,"TOWNNAME":"七股區","LI":"義合里","LIN":"10鄰","STREET":" ","SECT":" ","MAREA":"義合","LANE":" ","ALLEY":" ","HOUSE_NO":"７８號之１４","E_COORD97":161826.19,"N_COORD97":2555722.8599999999,"ADDRESS":"義合７８號之１４","OBJECTID":94456},"geometry":{"x":161826.19000000041,"y":2555722.8600000013}},{"attributes":{"ID":94457,"DIS_CODE":0,"TOWNNAME":"新營區","LI":"南紙里","LIN":"21鄰","STREET":"建業路","SECT":" ","MAREA":" ","LANE":"２２７巷","ALLEY":"１６弄","HOUSE_NO":"２２號六樓之５","E_COORD97":178059.82000000001,"N_COORD97":2577431.4399999999,"ADDRESS":"建業路２２７巷１６弄２２號六樓之５","OBJECTID":94457},"geometry":{"x":178059.8200000003,"y":2577431.4399999995}},{"attributes":{"ID":94458,"DIS_CODE":0,"TOWNNAME":"七股區","LI":"義合里","LIN":"10鄰","STREET":" ","SECT":" ","MAREA":"義合","LANE":" ","ALLEY":" ","HOUSE_NO":"７８號之１５","E_COORD97":161826.29000000001,"N_COORD97":2555716.6200000001,"ADDRESS":"義合７８號之１５","OBJECTID":94458},"geometry":{"x":161826.29000000097,"y":2555716.620000001}},{"attributes":{"ID":94459,"DIS_CODE":0,"TOWNNAME":"新營區","LI":"南紙里","LIN":"21鄰","STREET":"建業路","SECT":" ","MAREA":" ","LANE":"２２７巷","ALLEY":"１６弄","HOUSE_NO":"２２號四樓之１３","E_COORD97":178061.01000000001,"N_COORD97":2577431.4399999999,"ADDRESS":"建業路２２７巷１６弄２２號四樓之１３","OBJECTID":94459},"geometry":{"x":178061.01000000071,"y":2577431.4399999995}},{"attributes":{"ID":94460,"DIS_CODE":0,"TOWNNAME":"永康區","LI":"西灣里","LIN":"42鄰","STREET":"大灣路","SECT":" ","MAREA":" ","LANE":"９４２巷","ALLEY":"３７４弄","HOUSE_NO":"２號之１","E_COORD97":173959.54999999999,"N_COORD97":2545421.6400000001,"ADDRESS":"大灣路９４２巷３７４弄２號之１","OBJECTID":94460},"geometry":{"x":173959.55000000168,"y":2545421.6400000025}},{"attributes":{"ID":94461,"DIS_CODE":0,"TOWNNAME":"歸仁區","LI":"許厝里","LIN":"15鄰","STREET":"中山路","SECT":"一段","MAREA":" ","LANE":" ","ALLEY":" ","HOUSE_NO":"３８４號","E_COORD97":178213.23999999999,"N_COORD97":2540715.6499999999,"ADDRESS":"中山路一段３８４號","OBJECTID":94461},"geometry":{"x":178213.24000000022,"y":2540715.6500000022}},{"attributes":{"ID":94462,"DIS_CODE":0,"TOWNNAME":"歸仁區","LI":"許厝里","LIN":"15鄰","STREET":"中山路","SECT":"一段","MAREA":" ","LANE":" ","ALLEY":" ","HOUSE_NO":"４０６號","E_COORD97":178163.04000000001,"N_COORD97":2540722.6499999999,"ADDRESS":"中山路一段４０６號","OBJECTID":94462},"geometry":{"x":178163.04000000004,"y":2540722.6500000022}},{"attributes":{"ID":94463,"DIS_CODE":0,"TOWNNAME":"七股區","LI":"義合里","LIN":"10鄰","STREET":" ","SECT":" ","MAREA":"義合","LANE":" ","ALLEY":" ","HOUSE_NO":"７８號之１６","E_COORD97":161826.28,"N_COORD97":2555710.04,"ADDRESS":"義合７８號之１６","OBJECTID":94463},"geometry":{"x":161826.28000000119,"y":2555710.040000001}},{"attributes":{"ID":94464,"DIS_CODE":0,"TOWNNAME":"歸仁區","LI":"許厝里","LIN":"15鄰","STREET":"中山路","SECT":"一段","MAREA":" ","LANE":" ","ALLEY":" ","HOUSE_NO":"３９８號","E_COORD97":178183.54000000001,"N_COORD97":2540717.6499999999,"ADDRESS":"中山路一段３９８號","OBJECTID":94464},"geometry":{"x":178183.54000000004,"y":2540717.6500000004}},{"attributes":{"ID":94465,"DIS_CODE":0,"TOWNNAME":"歸仁區","LI":"許厝里","LIN":"15鄰","STREET":"中山路","SECT":"一段","MAREA":" ","LANE":" ","ALLEY":" ","HOUSE_NO":"３９２號","E_COORD97":178194.73999999999,"N_COORD97":2540716.6499999999,"ADDRESS":"中山路一段３９２號","OBJECTID":94465},"geometry":{"x":178194.74000000022,"y":2540716.6500000004}},{"attributes":{"ID":94466,"DIS_CODE":0,"TOWNNAME":"歸仁區","LI":"許厝里","LIN":"15鄰","STREET":"中山路","SECT":"一段","MAREA":" ","LANE":" ","ALLEY":" ","HOUSE_NO":"３７４號","E_COORD97":178246.04000000001,"N_COORD97":2540716.6499999999,"ADDRESS":"中山路一段３７４號","OBJECTID":94466},"geometry":{"x":178246.04000000097,"y":2540716.6500000004}},{"attributes":{"ID":94467,"DIS_CODE":0,"TOWNNAME":"歸仁區","LI":"崙頂里","LIN":"15鄰","STREET":"崙頂街","SECT":" ","MAREA":" ","LANE":" ","ALLEY":" ","HOUSE_NO":"５５號","E_COORD97":177871.26000000001,"N_COORD97":2539955.1099999999,"ADDRESS":"崙頂街５５號","OBJECTID":94467},"geometry":{"x":177871.26000000071,"y":2539955.1100000013}},{"attributes":{"ID":94468,"DIS_CODE":0,"TOWNNAME":"歸仁區","LI":"看西里","LIN":"15鄰","STREET":"成功路","SECT":"一段","MAREA":" ","LANE":" ","ALLEY":" ","HOUSE_NO":"２３８號","E_COORD97":178400.81,"N_COORD97":2540089.1200000001,"ADDRESS":"成功路一段２３８號","OBJECTID":94468},"geometry":{"x":178400.81000000052,"y":2540089.1200000029}},{"attributes":{"ID":94469,"DIS_CODE":0,"TOWNNAME":"歸仁區","LI":"許厝里","LIN":"15鄰","STREET":"中山路","SECT":"一段","MAREA":" ","LANE":" ","ALLEY":" ","HOUSE_NO":"３９６號","E_COORD97":178187.64000000001,"N_COORD97":2540717.6499999999,"ADDRESS":"中山路一段３９６號","OBJECTID":94469},"geometry":{"x":178187.63999999966,"y":2540717.6500000004}},{"attributes":{"ID":94470,"DIS_CODE":0,"TOWNNAME":"新化區","LI":"太平里","LIN":"4鄰","STREET":"民生路","SECT":" ","MAREA":" ","LANE":" ","ALLEY":" ","HOUSE_NO":"２１０號","E_COORD97":179089.81,"N_COORD97":2548961.25,"ADDRESS":"民生路２１０號","OBJECTID":94470},"geometry":{"x":179089.80999999959,"y":2548961.25}},{"attributes":{"ID":94471,"DIS_CODE":0,"TOWNNAME":"永康區","LI":"西橋里","LIN":"13鄰","STREET":"大橋一街","SECT":" ","MAREA":" ","LANE":"３１巷","ALLEY":"２５弄","HOUSE_NO":"３號","E_COORD97":170562.5,"N_COORD97":2546287.4900000002,"ADDRESS":"大橋一街３１巷２５弄３號","OBJECTID":94471},"geometry":{"x":170562.5,"y":2546287.4900000021}},{"attributes":{"ID":94472,"DIS_CODE":0,"TOWNNAME":"永康區","LI":"西勢里","LIN":"7鄰","STREET":"富強路","SECT":"一段","MAREA":" ","LANE":"２２７巷","ALLEY":"４６弄","HOUSE_NO":"１號","E_COORD97":175569.57000000001,"N_COORD97":2546539.4700000002,"ADDRESS":"富強路一段２２７巷４６弄１號","OBJECTID":94472},"geometry":{"x":175569.5700000003,"y":2546539.4700000007}},{"attributes":{"ID":94473,"DIS_CODE":0,"TOWNNAME":"新化區","LI":"清水里","LIN":"4鄰","STREET":"中山路","SECT":" ","MAREA":" ","LANE":" ","ALLEY":" ","HOUSE_NO":"４３２號","E_COORD97":178734.91,"N_COORD97":2548417.25,"ADDRESS":"中山路４３２號","OBJECTID":94473},"geometry":{"x":178734.91000000108,"y":2548417.2500000019}},{"attributes":{"ID":94474,"DIS_CODE":0,"TOWNNAME":"七股區","LI":"義合里","LIN":"10鄰","STREET":" ","SECT":" ","MAREA":"義合","LANE":" ","ALLEY":" ","HOUSE_NO":"７８號之１７","E_COORD97":161826.51000000001,"N_COORD97":2555704.0699999998,"ADDRESS":"義合７８號之１７","OBJECTID":94474},"geometry":{"x":161826.50999999978,"y":2555704.070000004}},{"attributes":{"ID":94475,"DIS_CODE":0,"TOWNNAME":"永康區","LI":"西勢里","LIN":"31鄰","STREET":"富強路","SECT":"一段","MAREA":" ","LANE":"９３巷","ALLEY":"１０弄","HOUSE_NO":"３７號","E_COORD97":175467.25,"N_COORD97":2546318.7000000002,"ADDRESS":"富強路一段９３巷１０弄３７號","OBJECTID":94475},"geometry":{"x":175467.25000000093,"y":2546318.7000000011}},{"attributes":{"ID":94476,"DIS_CODE":0,"TOWNNAME":"永康區","LI":"甲頂里","LIN":"7鄰","STREET":"中正南路","SECT":" ","MAREA":" ","LANE":"１６８巷","ALLEY":"２弄","HOUSE_NO":"３３號","E_COORD97":169915.95000000001,"N_COORD97":2546892.2400000002,"ADDRESS":"中正南路１６８巷２弄３３號","OBJECTID":94476},"geometry":{"x":169915.95000000112,"y":2546892.2400000021}},{"attributes":{"ID":94477,"DIS_CODE":0,"TOWNNAME":"永康區","LI":"安康里","LIN":"10鄰","STREET":"中山南路","SECT":" ","MAREA":" ","LANE":"１２３巷","ALLEY":"２１弄","HOUSE_NO":"２５號","E_COORD97":170902.95999999999,"N_COORD97":2545947.9900000002,"ADDRESS":"中山南路１２３巷２１弄２５號","OBJECTID":94477},"geometry":{"x":170902.95999999996,"y":2545947.9900000021}},{"attributes":{"ID":94478,"DIS_CODE":0,"TOWNNAME":"新營區","LI":"南紙里","LIN":"21鄰","STREET":"建業路","SECT":" ","MAREA":" ","LANE":"２２７巷","ALLEY":"１６弄","HOUSE_NO":"２２號八樓之１２","E_COORD97":178061.04999999999,"N_COORD97":2577431.4399999999,"ADDRESS":"建業路２２７巷１６弄２２號八樓之１２","OBJECTID":94478},"geometry":{"x":178061.04999999981,"y":2577431.4399999995}},{"attributes":{"ID":94479,"DIS_CODE":0,"TOWNNAME":"新營區","LI":"南紙里","LIN":"21鄰","STREET":"建業路","SECT":" ","MAREA":" ","LANE":"２２７巷","ALLEY":"１６弄","HOUSE_NO":"２２號七樓之３","E_COORD97":178059.76000000001,"N_COORD97":2577431.4399999999,"ADDRESS":"建業路２２７巷１６弄２２號七樓之３","OBJECTID":94479},"geometry":{"x":178059.75999999978,"y":2577431.4399999995}},{"attributes":{"ID":94480,"DIS_CODE":0,"TOWNNAME":"新營區","LI":"南紙里","LIN":"21鄰","STREET":"建業路","SECT":" ","MAREA":" ","LANE":"２２７巷","ALLEY":"１６弄","HOUSE_NO":"２２號七樓之７","E_COORD97":178059.73999999999,"N_COORD97":2577431.4399999999,"ADDRESS":"建業路２２７巷１６弄２２號七樓之７","OBJECTID":94480},"geometry":{"x":178059.74000000115,"y":2577431.4399999995}},{"attributes":{"ID":94481,"DIS_CODE":0,"TOWNNAME":"新營區","LI":"南紙里","LIN":"21鄰","STREET":"建業路","SECT":" ","MAREA":" ","LANE":"２２７巷","ALLEY":"１６弄","HOUSE_NO":"２２號七樓之１０","E_COORD97":178060.67999999999,"N_COORD97":2577431.4399999999,"ADDRESS":"建業路２２７巷１６弄２２號七樓之１０","OBJECTID":94481},"geometry":{"x":178060.6799999997,"y":2577431.4399999995}},{"attributes":{"ID":94482,"DIS_CODE":0,"TOWNNAME":"新營區","LI":"南紙里","LIN":"21鄰","STREET":"建業路","SECT":" ","MAREA":" ","LANE":"２２７巷","ALLEY":"１６弄","HOUSE_NO":"２２號七樓之２１","E_COORD97":178060.91,"N_COORD97":2577431.4399999999,"ADDRESS":"建業路２２７巷１６弄２２號七樓之２１","OBJECTID":94482},"geometry":{"x":178060.91000000015,"y":2577431.4399999995}},{"attributes":{"ID":94483,"DIS_CODE":0,"TOWNNAME":"新營區","LI":"南紙里","LIN":"21鄰","STREET":"建業路","SECT":" ","MAREA":" ","LANE":"２２７巷","ALLEY":"１６弄","HOUSE_NO":"２２號七樓之６","E_COORD97":178059.76999999999,"N_COORD97":2577431.4399999999,"ADDRESS":"建業路２２７巷１６弄２２號七樓之６","OBJECTID":94483},"geometry":{"x":178059.76999999955,"y":2577431.4399999995}},{"attributes":{"ID":94484,"DIS_CODE":0,"TOWNNAME":"新營區","LI":"南紙里","LIN":"21鄰","STREET":"建業路","SECT":" ","MAREA":" ","LANE":"２２７巷","ALLEY":"１６弄","HOUSE_NO":"２２號七樓之１１","E_COORD97":178060.91,"N_COORD97":2577431.4399999999,"ADDRESS":"建業路２２７巷１６弄２２號七樓之１１","OBJECTID":94484},"geometry":{"x":178060.91000000015,"y":2577431.4399999995}},{"attributes":{"ID":94485,"DIS_CODE":0,"TOWNNAME":"南化區","LI":"西埔里","LIN":"10鄰","STREET":" ","SECT":" ","MAREA":"西埔","LANE":" ","ALLEY":" ","HOUSE_NO":"８８號","E_COORD97":193470.94,"N_COORD97":2549054.75,"ADDRESS":"西埔８８號","OBJECTID":94485},"geometry":{"x":193470.94000000134,"y":2549054.7500000019}},{"attributes":{"ID":94486,"DIS_CODE":0,"TOWNNAME":"新營區","LI":"南紙里","LIN":"21鄰","STREET":"建業路","SECT":" ","MAREA":" ","LANE":"２２７巷","ALLEY":"１６弄","HOUSE_NO":"２２號七樓之１６","E_COORD97":178061.01999999999,"N_COORD97":2577431.4399999999,"ADDRESS":"建業路２２７巷１６弄２２號七樓之１６","OBJECTID":94486},"geometry":{"x":178061.01999999955,"y":2577431.4399999995}},{"attributes":{"ID":94487,"DIS_CODE":0,"TOWNNAME":"永康區","LI":"西橋里","LIN":"20鄰","STREET":"大橋三街","SECT":" ","MAREA":" ","LANE":"５７巷","ALLEY":"７弄","HOUSE_NO":"１１號","E_COORD97":170554.07999999999,"N_COORD97":2546527.2999999998,"ADDRESS":"大橋三街５７巷７弄１１號","OBJECTID":94487},"geometry":{"x":170554.08000000101,"y":2546527.3000000007}},{"attributes":{"ID":94488,"DIS_CODE":0,"TOWNNAME":"永康區","LI":"西灣里","LIN":"28鄰","STREET":"公園路","SECT":" ","MAREA":" ","LANE":"７巷","ALLEY":"３０弄","HOUSE_NO":"７號","E_COORD97":174438.07999999999,"N_COORD97":2545907.8199999998,"ADDRESS":"公園路７巷３０弄７號","OBJECTID":94488},"geometry":{"x":174438.08000000101,"y":2545907.8200000022}},{"attributes":{"ID":94489,"DIS_CODE":0,"TOWNNAME":"永康區","LI":"西勢里","LIN":"18鄰","STREET":"富強路","SECT":"一段","MAREA":" ","LANE":"２巷","ALLEY":"８弄","HOUSE_NO":"２２號","E_COORD97":175485.98000000001,"N_COORD97":2545950.2999999998,"ADDRESS":"富強路一段２巷８弄２２號","OBJECTID":94489},"geometry":{"x":175485.98000000045,"y":2545950.3000000026}},{"attributes":{"ID":94490,"DIS_CODE":0,"TOWNNAME":"永康區","LI":"西灣里","LIN":"43鄰","STREET":"大灣路","SECT":" ","MAREA":" ","LANE":"９４２巷","ALLEY":"３７４弄","HOUSE_NO":"２３號","E_COORD97":174007.81,"N_COORD97":2545431.1600000001,"ADDRESS":"大灣路９４２巷３７４弄２３號","OBJECTID":94490},"geometry":{"x":174007.80999999959,"y":2545431.160000002}},{"attributes":{"ID":94491,"DIS_CODE":0,"TOWNNAME":"永康區","LI":"甲頂里","LIN":"17鄰","STREET":"中正南路","SECT":" ","MAREA":" ","LANE":"５２巷","ALLEY":"４６弄","HOUSE_NO":"２５號","E_COORD97":169895.10999999999,"N_COORD97":2546699.3700000001,"ADDRESS":"中正南路５２巷４６弄２５號","OBJECTID":94491},"geometry":{"x":169895.11000000127,"y":2546699.3700000029}},{"attributes":{"ID":94492,"DIS_CODE":0,"TOWNNAME":"永康區","LI":"安康里","LIN":"23鄰","STREET":"中華路","SECT":" ","MAREA":" ","LANE":"７０３巷","ALLEY":"７１弄","HOUSE_NO":"１４號","E_COORD97":170767.79000000001,"N_COORD97":2546202,"ADDRESS":"中華路７０３巷７１弄１４號","OBJECTID":94492},"geometry":{"x":170767.7900000019,"y":2546202.0000000019}},{"attributes":{"ID":94493,"DIS_CODE":0,"TOWNNAME":"永康區","LI":"西灣里","LIN":"43鄰","STREET":"大灣路","SECT":" ","MAREA":" ","LANE":"９４２巷","ALLEY":"３８８弄","HOUSE_NO":"１９號","E_COORD97":174027.12,"N_COORD97":2545468.4700000002,"ADDRESS":"大灣路９４２巷３８８弄１９號","OBJECTID":94493},"geometry":{"x":174027.12000000197,"y":2545468.4700000007}},{"attributes":{"ID":94494,"DIS_CODE":0,"TOWNNAME":"永康區","LI":"西勢里","LIN":"21鄰","STREET":"富強路","SECT":"一段","MAREA":" ","LANE":"９８巷","ALLEY":"６２弄","HOUSE_NO":"２５號","E_COORD97":175591.48000000001,"N_COORD97":2545991.3999999999,"ADDRESS":"富強路一段９８巷６２弄２５號","OBJECTID":94494},"geometry":{"x":175591.48000000231,"y":2545991.4000000004}},{"attributes":{"ID":94495,"DIS_CODE":0,"TOWNNAME":"永康區","LI":"西勢里","LIN":"18鄰","STREET":"富強路","SECT":"一段","MAREA":" ","LANE":"２巷","ALLEY":"８弄","HOUSE_NO":"１２號","E_COORD97":175470.82000000001,"N_COORD97":2545964.5499999998,"ADDRESS":"富強路一段２巷８弄１２號","OBJECTID":94495},"geometry":{"x":175470.82000000123,"y":2545964.5500000026}},{"attributes":{"ID":94496,"DIS_CODE":0,"TOWNNAME":"七股區","LI":"義合里","LIN":"10鄰","STREET":" ","SECT":" ","MAREA":"義合","LANE":" ","ALLEY":" ","HOUSE_NO":"８１號之９","E_COORD97":161800.35000000001,"N_COORD97":2555739.96,"ADDRESS":"義合８１號之９","OBJECTID":94496},"geometry":{"x":161800.34999999963,"y":2555739.9600000028}},{"attributes":{"ID":94497,"DIS_CODE":0,"TOWNNAME":"鹽水區","LI":"橋南里","LIN":"21鄰","STREET":"新中路","SECT":" ","MAREA":" ","LANE":"８２巷","ALLEY":"８０弄","HOUSE_NO":"１０號二樓","E_COORD97":175863.06,"N_COORD97":2578699,"ADDRESS":"新中路８２巷８０弄１０號二樓","OBJECTID":94497},"geometry":{"x":175863.06000000052,"y":2578699.0000000019}},{"attributes":{"ID":94498,"DIS_CODE":0,"TOWNNAME":"歸仁區","LI":"崙頂里","LIN":"15鄰","STREET":"崙頂街","SECT":" ","MAREA":" ","LANE":" ","ALLEY":" ","HOUSE_NO":"７１號","E_COORD97":177875.26000000001,"N_COORD97":2539921.1099999999,"ADDRESS":"崙頂街７１號","OBJECTID":94498},"geometry":{"x":177875.25999999978,"y":2539921.1100000013}},{"attributes":{"ID":94499,"DIS_CODE":0,"TOWNNAME":"歸仁區","LI":"崙頂里","LIN":"15鄰","STREET":"崙頂街","SECT":" ","MAREA":" ","LANE":" ","ALLEY":" ","HOUSE_NO":"５３號","E_COORD97":177870.26000000001,"N_COORD97":2539959.1099999999,"ADDRESS":"崙頂街５３號","OBJECTID":94499},"geometry":{"x":177870.25999999978,"y":2539959.1100000013}},{"attributes":{"ID":94500,"DIS_CODE":0,"TOWNNAME":"七股區","LI":"義合里","LIN":"10鄰","STREET":" ","SECT":" ","MAREA":"義合","LANE":" ","ALLEY":" ","HOUSE_NO":"７８號之１９","E_COORD97":161821.07999999999,"N_COORD97":2555700.5,"ADDRESS":"義合７８號之１９","OBJECTID":94500},"geometry":{"x":161821.08000000101,"y":2555700.4999999981}},{"attributes":{"ID":94501,"DIS_CODE":0,"TOWNNAME":"善化區","LI":"牛庄里","LIN":"15鄰","STREET":" ","SECT":" ","MAREA":"牛庄","LANE":" ","ALLEY":" ","HOUSE_NO":"３５１號","E_COORD97":179853.17999999999,"N_COORD97":2560024.9900000002,"ADDRESS":"牛庄３５１號","OBJECTID":94501},"geometry":{"x":179853.18000000063,"y":2560024.9900000021}},{"attributes":{"ID":94502,"DIS_CODE":0,"TOWNNAME":"七股區","LI":"義合里","LIN":"10鄰","STREET":" ","SECT":" ","MAREA":"義合","LANE":" ","ALLEY":" ","HOUSE_NO":"７８號之１","E_COORD97":161848.44,"N_COORD97":2555682.4700000002,"ADDRESS":"義合７８號之１","OBJECTID":94502},"geometry":{"x":161848.44000000041,"y":2555682.4700000025}},{"attributes":{"ID":94503,"DIS_CODE":0,"TOWNNAME":"七股區","LI":"義合里","LIN":"10鄰","STREET":" ","SECT":" ","MAREA":"義合","LANE":" ","ALLEY":" ","HOUSE_NO":"７８號之２０","E_COORD97":161816.75,"N_COORD97":2555700.1200000001,"ADDRESS":"義合７８號之２０","OBJECTID":94503},"geometry":{"x":161816.75,"y":2555700.120000001}},{"attributes":{"ID":94504,"DIS_CODE":0,"TOWNNAME":"七股區","LI":"義合里","LIN":"10鄰","STREET":" ","SECT":" ","MAREA":"義合","LANE":" ","ALLEY":" ","HOUSE_NO":"７８號之２１","E_COORD97":161812.56,"N_COORD97":2555699.1800000002,"ADDRESS":"義合７８號之２１","OBJECTID":94504},"geometry":{"x":161812.55999999959,"y":2555699.1800000034}},{"attributes":{"ID":94505,"DIS_CODE":0,"TOWNNAME":"七股區","LI":"義合里","LIN":"10鄰","STREET":" ","SECT":" ","MAREA":"義合","LANE":" ","ALLEY":" ","HOUSE_NO":"７８號之２２","E_COORD97":161808.51000000001,"N_COORD97":2555699.0800000001,"ADDRESS":"義合７８號之２２","OBJECTID":94505},"geometry":{"x":161808.51000000164,"y":2555699.0800000001}},{"attributes":{"ID":94506,"DIS_CODE":0,"TOWNNAME":"七股區","LI":"義合里","LIN":"10鄰","STREET":" ","SECT":" ","MAREA":"義合","LANE":" ","ALLEY":" ","HOUSE_NO":"７８號之２３","E_COORD97":161804.20999999999,"N_COORD97":2555699.0099999998,"ADDRESS":"義合７８號之２３","OBJECTID":94506},"geometry":{"x":161804.21000000089,"y":2555699.0099999998}},{"attributes":{"ID":94507,"DIS_CODE":0,"TOWNNAME":"七股區","LI":"義合里","LIN":"10鄰","STREET":" ","SECT":" ","MAREA":"義合","LANE":" ","ALLEY":" ","HOUSE_NO":"７８號之２４","E_COORD97":161801.04999999999,"N_COORD97":2555695.1899999999,"ADDRESS":"義合７８號之２４","OBJECTID":94507},"geometry":{"x":161801.04999999981,"y":2555695.1899999995}},{"attributes":{"ID":94508,"DIS_CODE":0,"TOWNNAME":"七股區","LI":"義合里","LIN":"10鄰","STREET":" ","SECT":" ","MAREA":"義合","LANE":" ","ALLEY":" ","HOUSE_NO":"７８號之２","E_COORD97":161844.04999999999,"N_COORD97":2555681.7400000002,"ADDRESS":"義合７８號之２","OBJECTID":94508},"geometry":{"x":161844.05000000168,"y":2555681.7400000002}},{"attributes":{"ID":94509,"DIS_CODE":0,"TOWNNAME":"七股區","LI":"義合里","LIN":"10鄰","STREET":" ","SECT":" ","MAREA":"義合","LANE":" ","ALLEY":" ","HOUSE_NO":"７８號之３","E_COORD97":161839.67000000001,"N_COORD97":2555681.0099999998,"ADDRESS":"義合７８號之３","OBJECTID":94509},"geometry":{"x":161839.66999999993,"y":2555681.0100000016}},{"attributes":{"ID":94510,"DIS_CODE":0,"TOWNNAME":"七股區","LI":"義合里","LIN":"10鄰","STREET":" ","SECT":" ","MAREA":"義合","LANE":" ","ALLEY":" ","HOUSE_NO":"７８號之４","E_COORD97":161835.28,"N_COORD97":2555680.2799999998,"ADDRESS":"義合７８號之４","OBJECTID":94510},"geometry":{"x":161835.28000000026,"y":2555680.2799999993}},{"attributes":{"ID":94511,"DIS_CODE":0,"TOWNNAME":"鹽水區","LI":"橋南里","LIN":"21鄰","STREET":"新中路","SECT":" ","MAREA":" ","LANE":"８２巷","ALLEY":"８０弄","HOUSE_NO":"１０號三樓","E_COORD97":175863.06,"N_COORD97":2578699,"ADDRESS":"新中路８２巷８０弄１０號三樓","OBJECTID":94511},"geometry":{"x":175863.06000000052,"y":2578699.0000000019}},{"attributes":{"ID":94512,"DIS_CODE":0,"TOWNNAME":"鹽水區","LI":"橋南里","LIN":"21鄰","STREET":"新中路","SECT":" ","MAREA":" ","LANE":"８２巷","ALLEY":"８０弄","HOUSE_NO":"１０號五樓","E_COORD97":175863.06,"N_COORD97":2578699,"ADDRESS":"新中路８２巷８０弄１０號五樓","OBJECTID":94512},"geometry":{"x":175863.06000000052,"y":2578699.0000000019}},{"attributes":{"ID":94513,"DIS_CODE":0,"TOWNNAME":"鹽水區","LI":"橋南里","LIN":"21鄰","STREET":"新中路","SECT":" ","MAREA":" ","LANE":"８２巷","ALLEY":"８０弄","HOUSE_NO":"１０號四樓","E_COORD97":175863.06,"N_COORD97":2578699,"ADDRESS":"新中路８２巷８０弄１０號四樓","OBJECTID":94513},"geometry":{"x":175863.06000000052,"y":2578699.0000000019}},{"attributes":{"ID":94514,"DIS_CODE":0,"TOWNNAME":"鹽水區","LI":"橋南里","LIN":"21鄰","STREET":"新中路","SECT":" ","MAREA":" ","LANE":"８２巷","ALLEY":"８０弄","HOUSE_NO":"１１號二樓","E_COORD97":175806.35999999999,"N_COORD97":2578701.5099999998,"ADDRESS":"新中路８２巷８０弄１１號二樓","OBJECTID":94514},"geometry":{"x":175806.36000000127,"y":2578701.5100000016}},{"attributes":{"ID":94515,"DIS_CODE":0,"TOWNNAME":"鹽水區","LI":"橋南里","LIN":"21鄰","STREET":"新中路","SECT":" ","MAREA":" ","LANE":"８２巷","ALLEY":"８０弄","HOUSE_NO":"１１號三樓","E_COORD97":175806.35999999999,"N_COORD97":2578701.5099999998,"ADDRESS":"新中路８２巷８０弄１１號三樓","OBJECTID":94515},"geometry":{"x":175806.36000000127,"y":2578701.5100000016}},{"attributes":{"ID":94516,"DIS_CODE":0,"TOWNNAME":"鹽水區","LI":"橋南里","LIN":"21鄰","STREET":"新中路","SECT":" ","MAREA":" ","LANE":"８２巷","ALLEY":"８０弄","HOUSE_NO":"１１號五樓","E_COORD97":175806.35999999999,"N_COORD97":2578701.5099999998,"ADDRESS":"新中路８２巷８０弄１１號五樓","OBJECTID":94516},"geometry":{"x":175806.36000000127,"y":2578701.5100000016}},{"attributes":{"ID":94517,"DIS_CODE":0,"TOWNNAME":"鹽水區","LI":"橋南里","LIN":"21鄰","STREET":"新中路","SECT":" ","MAREA":" ","LANE":"８２巷","ALLEY":"８０弄","HOUSE_NO":"１１號四樓","E_COORD97":175806.35999999999,"N_COORD97":2578701.5099999998,"ADDRESS":"新中路８２巷８０弄１１號四樓","OBJECTID":94517},"geometry":{"x":175806.36000000127,"y":2578701.5100000016}},{"attributes":{"ID":94518,"DIS_CODE":0,"TOWNNAME":"鹽水區","LI":"橋南里","LIN":"21鄰","STREET":"新中路","SECT":" ","MAREA":" ","LANE":"８２巷","ALLEY":"８０弄","HOUSE_NO":"１３號一樓","E_COORD97":175798.06,"N_COORD97":2578703.7000000002,"ADDRESS":"新中路８２巷８０弄１３號一樓","OBJECTID":94518},"geometry":{"x":175798.05999999959,"y":2578703.7000000011}},{"attributes":{"ID":94519,"DIS_CODE":0,"TOWNNAME":"鹽水區","LI":"橋南里","LIN":"21鄰","STREET":"新中路","SECT":" ","MAREA":" ","LANE":"８２巷","ALLEY":"８０弄","HOUSE_NO":"１３號二樓","E_COORD97":175798.06,"N_COORD97":2578703.7000000002,"ADDRESS":"新中路８２巷８０弄１３號二樓","OBJECTID":94519},"geometry":{"x":175798.05999999959,"y":2578703.7000000011}},{"attributes":{"ID":94520,"DIS_CODE":0,"TOWNNAME":"鹽水區","LI":"橋南里","LIN":"21鄰","STREET":"新中路","SECT":" ","MAREA":" ","LANE":"８２巷","ALLEY":"８０弄","HOUSE_NO":"１３號五樓","E_COORD97":175798.06,"N_COORD97":2578703.7000000002,"ADDRESS":"新中路８２巷８０弄１３號五樓","OBJECTID":94520},"geometry":{"x":175798.05999999959,"y":2578703.7000000011}},{"attributes":{"ID":94521,"DIS_CODE":0,"TOWNNAME":"鹽水區","LI":"橋南里","LIN":"21鄰","STREET":"新中路","SECT":" ","MAREA":" ","LANE":"８２巷","ALLEY":"８０弄","HOUSE_NO":"１３號四樓","E_COORD97":175798.06,"N_COORD97":2578703.7000000002,"ADDRESS":"新中路８２巷８０弄１３號四樓","OBJECTID":94521},"geometry":{"x":175798.05999999959,"y":2578703.7000000011}},{"attributes":{"ID":94522,"DIS_CODE":0,"TOWNNAME":"鹽水區","LI":"橋南里","LIN":"21鄰","STREET":"新中路","SECT":" ","MAREA":" ","LANE":"８２巷","ALLEY":"８０弄","HOUSE_NO":"１號一樓","E_COORD97":175822.94,"N_COORD97":2578697.1200000001,"ADDRESS":"新中路８２巷８０弄１號一樓","OBJECTID":94522},"geometry":{"x":175822.94000000134,"y":2578697.120000001}},{"attributes":{"ID":94523,"DIS_CODE":0,"TOWNNAME":"鹽水區","LI":"橋南里","LIN":"21鄰","STREET":"新中路","SECT":" ","MAREA":" ","LANE":"８２巷","ALLEY":"８０弄","HOUSE_NO":"１號二樓","E_COORD97":175822.94,"N_COORD97":2578697.1200000001,"ADDRESS":"新中路８２巷８０弄１號二樓","OBJECTID":94523},"geometry":{"x":175822.94000000134,"y":2578697.120000001}},{"attributes":{"ID":94524,"DIS_CODE":0,"TOWNNAME":"鹽水區","LI":"橋南里","LIN":"21鄰","STREET":"新中路","SECT":" ","MAREA":" ","LANE":"８２巷","ALLEY":"８０弄","HOUSE_NO":"１號三樓","E_COORD97":175822.94,"N_COORD97":2578697.1200000001,"ADDRESS":"新中路８２巷８０弄１號三樓","OBJECTID":94524},"geometry":{"x":175822.94000000134,"y":2578697.120000001}},{"attributes":{"ID":94525,"DIS_CODE":0,"TOWNNAME":"鹽水區","LI":"橋南里","LIN":"21鄰","STREET":"新中路","SECT":" ","MAREA":" ","LANE":"８２巷","ALLEY":"８０弄","HOUSE_NO":"１號五樓","E_COORD97":175822.94,"N_COORD97":2578697.1200000001,"ADDRESS":"新中路８２巷８０弄１號五樓","OBJECTID":94525},"geometry":{"x":175822.94000000134,"y":2578697.120000001}},{"attributes":{"ID":94526,"DIS_CODE":0,"TOWNNAME":"鹽水區","LI":"橋南里","LIN":"21鄰","STREET":"新中路","SECT":" ","MAREA":" ","LANE":"８２巷","ALLEY":"８０弄","HOUSE_NO":"１號四樓","E_COORD97":175822.94,"N_COORD97":2578697.1200000001,"ADDRESS":"新中路８２巷８０弄１號四樓","OBJECTID":94526},"geometry":{"x":175822.94000000134,"y":2578697.120000001}},{"attributes":{"ID":94527,"DIS_CODE":0,"TOWNNAME":"北區","LI":"文元里","LIN":"15鄰","STREET":"文賢路","SECT":" ","MAREA":" ","LANE":" ","ALLEY":" ","HOUSE_NO":"１０１８號","E_COORD97":167377.23999999999,"N_COORD97":2546027.1499999999,"ADDRESS":"文賢路１０１８號","OBJECTID":94527},"geometry":{"x":167377.24000000022,"y":2546027.1499999985}},{"attributes":{"ID":94528,"DIS_CODE":0,"TOWNNAME":"北區","LI":"文元里","LIN":"15鄰","STREET":"文賢路","SECT":" ","MAREA":" ","LANE":" ","ALLEY":" ","HOUSE_NO":"１００８號","E_COORD97":167378.22,"N_COORD97":2546008.1099999999,"ADDRESS":"文賢路１００８號","OBJECTID":94528},"geometry":{"x":167378.22000000067,"y":2546008.1099999994}},{"attributes":{"ID":94529,"DIS_CODE":0,"TOWNNAME":"北區","LI":"文元里","LIN":"15鄰","STREET":"文賢路","SECT":" ","MAREA":" ","LANE":" ","ALLEY":" ","HOUSE_NO":"１０１６號","E_COORD97":167377.48999999999,"N_COORD97":2546023.25,"ADDRESS":"文賢路１０１６號","OBJECTID":94529},"geometry":{"x":167377.49000000022,"y":2546023.2500000019}},{"attributes":{"ID":94530,"DIS_CODE":0,"TOWNNAME":"北區","LI":"文元里","LIN":"15鄰","STREET":"文賢路","SECT":" ","MAREA":" ","LANE":" ","ALLEY":" ","HOUSE_NO":"１０２４號","E_COORD97":167375.29000000001,"N_COORD97":2546039.8500000001,"ADDRESS":"文賢路１０２４號","OBJECTID":94530},"geometry":{"x":167375.29000000004,"y":2546039.8500000015}},{"attributes":{"ID":94531,"DIS_CODE":0,"TOWNNAME":"北區","LI":"文元里","LIN":"15鄰","STREET":"文賢路","SECT":" ","MAREA":" ","LANE":" ","ALLEY":" ","HOUSE_NO":"１０２６號","E_COORD97":167376.01999999999,"N_COORD97":2546047.1800000002,"ADDRESS":"文賢路１０２６號","OBJECTID":94531},"geometry":{"x":167376.02000000048,"y":2546047.1800000016}},{"attributes":{"ID":94532,"DIS_CODE":0,"TOWNNAME":"鹽水區","LI":"橋南里","LIN":"21鄰","STREET":"新中路","SECT":" ","MAREA":" ","LANE":"８２巷","ALLEY":"８０弄","HOUSE_NO":"２號一樓","E_COORD97":175838.10000000001,"N_COORD97":2578701.3700000001,"ADDRESS":"新中路８２巷８０弄２號一樓","OBJECTID":94532},"geometry":{"x":175838.09999999963,"y":2578701.370000001}},{"attributes":{"ID":94533,"DIS_CODE":0,"TOWNNAME":"鹽水區","LI":"橋南里","LIN":"21鄰","STREET":"新中路","SECT":" ","MAREA":" ","LANE":"８２巷","ALLEY":"８０弄","HOUSE_NO":"２號二樓","E_COORD97":175838.10000000001,"N_COORD97":2578701.3700000001,"ADDRESS":"新中路８２巷８０弄２號二樓","OBJECTID":94533},"geometry":{"x":175838.09999999963,"y":2578701.370000001}},{"attributes":{"ID":94534,"DIS_CODE":0,"TOWNNAME":"鹽水區","LI":"橋南里","LIN":"21鄰","STREET":"新中路","SECT":" ","MAREA":" ","LANE":"８２巷","ALLEY":"８０弄","HOUSE_NO":"２號五樓","E_COORD97":175838.10000000001,"N_COORD97":2578701.3700000001,"ADDRESS":"新中路８２巷８０弄２號五樓","OBJECTID":94534},"geometry":{"x":175838.09999999963,"y":2578701.370000001}},{"attributes":{"ID":94535,"DIS_CODE":0,"TOWNNAME":"鹽水區","LI":"橋南里","LIN":"21鄰","STREET":"新中路","SECT":" ","MAREA":" ","LANE":"８２巷","ALLEY":"８０弄","HOUSE_NO":"２號四樓","E_COORD97":175838.10000000001,"N_COORD97":2578701.3700000001,"ADDRESS":"新中路８２巷８０弄２號四樓","OBJECTID":94535},"geometry":{"x":175838.09999999963,"y":2578701.370000001}},{"attributes":{"ID":94536,"DIS_CODE":0,"TOWNNAME":"鹽水區","LI":"橋南里","LIN":"21鄰","STREET":"新中路","SECT":" ","MAREA":" ","LANE":"８２巷","ALLEY":"８０弄","HOUSE_NO":"３號一樓","E_COORD97":175814.64999999999,"N_COORD97":2578699.3199999998,"ADDRESS":"新中路８２巷８０弄３號一樓","OBJECTID":94536},"geometry":{"x":175814.6500000013,"y":2578699.320000004}},{"attributes":{"ID":94537,"DIS_CODE":0,"TOWNNAME":"鹽水區","LI":"橋南里","LIN":"21鄰","STREET":"新中路","SECT":" ","MAREA":" ","LANE":"８２巷","ALLEY":"８０弄","HOUSE_NO":"３號三樓","E_COORD97":175814.64999999999,"N_COORD97":2578699.3199999998,"ADDRESS":"新中路８２巷８０弄３號三樓","OBJECTID":94537},"geometry":{"x":175814.6500000013,"y":2578699.320000004}},{"attributes":{"ID":94538,"DIS_CODE":0,"TOWNNAME":"鹽水區","LI":"橋南里","LIN":"21鄰","STREET":"新中路","SECT":" ","MAREA":" ","LANE":"８２巷","ALLEY":"８０弄","HOUSE_NO":"３號五樓","E_COORD97":175814.64999999999,"N_COORD97":2578699.3199999998,"ADDRESS":"新中路８２巷８０弄３號五樓","OBJECTID":94538},"geometry":{"x":175814.6500000013,"y":2578699.320000004}},{"attributes":{"ID":94539,"DIS_CODE":0,"TOWNNAME":"鹽水區","LI":"橋南里","LIN":"21鄰","STREET":"新中路","SECT":" ","MAREA":" ","LANE":"８２巷","ALLEY":"８０弄","HOUSE_NO":"３號四樓","E_COORD97":175814.64999999999,"N_COORD97":2578699.3199999998,"ADDRESS":"新中路８２巷８０弄３號四樓","OBJECTID":94539},"geometry":{"x":175814.6500000013,"y":2578699.320000004}},{"attributes":{"ID":94540,"DIS_CODE":0,"TOWNNAME":"鹽水區","LI":"橋南里","LIN":"21鄰","STREET":"新中路","SECT":" ","MAREA":" ","LANE":"８２巷","ALLEY":"８０弄","HOUSE_NO":"５號一樓","E_COORD97":175823.23000000001,"N_COORD97":2578711.5699999998,"ADDRESS":"新中路８２巷８０弄５號一樓","OBJECTID":94540},"geometry":{"x":175823.23000000045,"y":2578711.5700000022}},{"attributes":{"ID":94541,"DIS_CODE":0,"TOWNNAME":"新營區","LI":"中營里","LIN":"15鄰","STREET":"東山三路","SECT":" ","MAREA":" ","LANE":" ","ALLEY":" ","HOUSE_NO":"１７５號","E_COORD97":181632.39999999999,"N_COORD97":2579207.4100000001,"ADDRESS":"東山三路１７５號","OBJECTID":94541},"geometry":{"x":181632.4000000013,"y":2579207.410000002}},{"attributes":{"ID":94542,"DIS_CODE":0,"TOWNNAME":"新營區","LI":"中營里","LIN":"15鄰","STREET":"東山三路","SECT":" ","MAREA":" ","LANE":" ","ALLEY":" ","HOUSE_NO":"１７７號","E_COORD97":181636.54000000001,"N_COORD97":2579218.4700000002,"ADDRESS":"東山三路１７７號","OBJECTID":94542},"geometry":{"x":181636.54000000004,"y":2579218.4700000025}},{"attributes":{"ID":94543,"DIS_CODE":0,"TOWNNAME":"新營區","LI":"土庫里","LIN":"15鄰","STREET":" ","SECT":" ","MAREA":"土庫","LANE":" ","ALLEY":" ","HOUSE_NO":"１２９之２號","E_COORD97":183257.10999999999,"N_COORD97":2579670.73,"ADDRESS":"土庫１２９之２號","OBJECTID":94543},"geometry":{"x":183257.11000000034,"y":2579670.7300000023}},{"attributes":{"ID":94544,"DIS_CODE":0,"TOWNNAME":"新營區","LI":"民權里","LIN":"15鄰","STREET":"三民路","SECT":" ","MAREA":" ","LANE":" ","ALLEY":" ","HOUSE_NO":"１１２之１號","E_COORD97":179833.26999999999,"N_COORD97":2578461.71,"ADDRESS":"三民路１１２之１號","OBJECTID":94544},"geometry":{"x":179833.27000000142,"y":2578461.7100000009}},{"attributes":{"ID":94545,"DIS_CODE":0,"TOWNNAME":"新營區","LI":"土庫里","LIN":"15鄰","STREET":" ","SECT":" ","MAREA":"土庫","LANE":" ","ALLEY":" ","HOUSE_NO":"１２９號","E_COORD97":183273,"N_COORD97":2579665.0600000001,"ADDRESS":"土庫１２９號","OBJECTID":94545},"geometry":{"x":183273,"y":2579665.0600000024}},{"attributes":{"ID":94546,"DIS_CODE":0,"TOWNNAME":"新營區","LI":"土庫里","LIN":"15鄰","STREET":" ","SECT":" ","MAREA":"土庫","LANE":" ","ALLEY":" ","HOUSE_NO":"１３３號","E_COORD97":183313.88,"N_COORD97":2579658.23,"ADDRESS":"土庫１３３號","OBJECTID":94546},"geometry":{"x":183313.88000000082,"y":2579658.2300000004}},{"attributes":{"ID":94547,"DIS_CODE":0,"TOWNNAME":"新營區","LI":"土庫里","LIN":"15鄰","STREET":" ","SECT":" ","MAREA":"土庫","LANE":" ","ALLEY":" ","HOUSE_NO":"１２７號","E_COORD97":183205.53,"N_COORD97":2579673.1200000001,"ADDRESS":"土庫１２７號","OBJECTID":94547},"geometry":{"x":183205.52999999933,"y":2579673.120000001}},{"attributes":{"ID":94548,"DIS_CODE":0,"TOWNNAME":"新營區","LI":"土庫里","LIN":"15鄰","STREET":" ","SECT":" ","MAREA":"土庫","LANE":" ","ALLEY":" ","HOUSE_NO":"１２２號","E_COORD97":183246.57999999999,"N_COORD97":2579703.9399999999,"ADDRESS":"土庫１２２號","OBJECTID":94548},"geometry":{"x":183246.58000000101,"y":2579703.9399999995}},{"attributes":{"ID":94549,"DIS_CODE":0,"TOWNNAME":"新營區","LI":"土庫里","LIN":"15鄰","STREET":" ","SECT":" ","MAREA":"土庫","LANE":" ","ALLEY":" ","HOUSE_NO":"１２６號","E_COORD97":183190.22,"N_COORD97":2579679.8300000001,"ADDRESS":"土庫１２６號","OBJECTID":94549},"geometry":{"x":183190.2200000016,"y":2579679.8300000019}},{"attributes":{"ID":94550,"DIS_CODE":0,"TOWNNAME":"新營區","LI":"太北里","LIN":"15鄰","STREET":" ","SECT":" ","MAREA":"太子宮","LANE":" ","ALLEY":" ","HOUSE_NO":"１３０號","E_COORD97":175924.13,"N_COORD97":2576967.9100000001,"ADDRESS":"太子宮１３０號","OBJECTID":94550},"geometry":{"x":175924.13000000082,"y":2576967.9100000001}},{"attributes":{"ID":94551,"DIS_CODE":0,"TOWNNAME":"七股區","LI":"義合里","LIN":"10鄰","STREET":" ","SECT":" ","MAREA":"義合","LANE":" ","ALLEY":" ","HOUSE_NO":"７８號之６","E_COORD97":161826.5,"N_COORD97":2555678.8199999998,"ADDRESS":"義合７８號之６","OBJECTID":94551},"geometry":{"x":161826.50000000093,"y":2555678.8200000022}},{"attributes":{"ID":94552,"DIS_CODE":0,"TOWNNAME":"七股區","LI":"義合里","LIN":"10鄰","STREET":" ","SECT":" ","MAREA":"義合","LANE":" ","ALLEY":" ","HOUSE_NO":"７８號之７","E_COORD97":161839.94,"N_COORD97":2555698.1800000002,"ADDRESS":"義合７８號之７","OBJECTID":94552},"geometry":{"x":161839.94000000041,"y":2555698.1799999997}},{"attributes":{"ID":94553,"DIS_CODE":0,"TOWNNAME":"新營區","LI":"民權里","LIN":"15鄰","STREET":"三民路","SECT":" ","MAREA":" ","LANE":" ","ALLEY":" ","HOUSE_NO":"１１４號","E_COORD97":179836.09,"N_COORD97":2578504.8300000001,"ADDRESS":"三民路１１４號","OBJECTID":94553},"geometry":{"x":179836.08999999985,"y":2578504.8300000001}},{"attributes":{"ID":94554,"DIS_CODE":0,"TOWNNAME":"新營區","LI":"民生里","LIN":"15鄰","STREET":"中華路","SECT":" ","MAREA":" ","LANE":" ","ALLEY":" ","HOUSE_NO":"１００號","E_COORD97":179250.37,"N_COORD97":2578157.6699999999,"ADDRESS":"中華路１００號","OBJECTID":94554},"geometry":{"x":179250.37000000104,"y":2578157.6700000018}},{"attributes":{"ID":94555,"DIS_CODE":0,"TOWNNAME":"新營區","LI":"延平里","LIN":"15鄰","STREET":"中原街","SECT":" ","MAREA":" ","LANE":" ","ALLEY":" ","HOUSE_NO":"５號","E_COORD97":179513.73354300001,"N_COORD97":2577982.3464799998,"ADDRESS":"中原街５號","OBJECTID":94555},"geometry":{"x":179513.73354300018,"y":2577982.3464800008}},{"attributes":{"ID":94556,"DIS_CODE":0,"TOWNNAME":"新營區","LI":"民榮里","LIN":"15鄰","STREET":"新進路","SECT":"二段","MAREA":" ","LANE":" ","ALLEY":" ","HOUSE_NO":"５１８號","E_COORD97":178677.25,"N_COORD97":2578089.5299999998,"ADDRESS":"新進路二段５１８號","OBJECTID":94556},"geometry":{"x":178677.25,"y":2578089.5299999993}},{"attributes":{"ID":94557,"DIS_CODE":0,"TOWNNAME":"新營區","LI":"民權里","LIN":"15鄰","STREET":"三民路","SECT":" ","MAREA":" ","LANE":" ","ALLEY":" ","HOUSE_NO":"１１４號之１０","E_COORD97":179850.82999999999,"N_COORD97":2578514.7999999998,"ADDRESS":"三民路１１４號之１０","OBJECTID":94557},"geometry":{"x":179850.83000000101,"y":2578514.8000000026}},{"attributes":{"ID":94558,"DIS_CODE":0,"TOWNNAME":"新營區","LI":"三仙里","LIN":"15鄰","STREET":"三民路","SECT":" ","MAREA":" ","LANE":" ","ALLEY":" ","HOUSE_NO":"９７號","E_COORD97":179658.78,"N_COORD97":2578419.96,"ADDRESS":"三民路９７號","OBJECTID":94558},"geometry":{"x":179658.78000000026,"y":2578419.9600000009}},{"attributes":{"ID":94559,"DIS_CODE":0,"TOWNNAME":"新營區","LI":"中營里","LIN":"15鄰","STREET":"東山三路","SECT":" ","MAREA":" ","LANE":" ","ALLEY":" ","HOUSE_NO":"１５７號","E_COORD97":181572.10000000001,"N_COORD97":2579217.6600000001,"ADDRESS":"東山三路１５７號","OBJECTID":94559},"geometry":{"x":181572.10000000149,"y":2579217.6600000001}},{"attributes":{"ID":94560,"DIS_CODE":0,"TOWNNAME":"新營區","LI":"太南里","LIN":"15鄰","STREET":" ","SECT":" ","MAREA":"太子宮","LANE":" ","ALLEY":" ","HOUSE_NO":"２９５之１號","E_COORD97":176198.12,"N_COORD97":2576624.3900000001,"ADDRESS":"太子宮２９５之１號","OBJECTID":94560},"geometry":{"x":176198.12000000011,"y":2576624.3900000025}},{"attributes":{"ID":94561,"DIS_CODE":0,"TOWNNAME":"鹽水區","LI":"橋南里","LIN":"21鄰","STREET":"新中路","SECT":" ","MAREA":" ","LANE":"８２巷","ALLEY":"８０弄","HOUSE_NO":"５號二樓","E_COORD97":175823.23000000001,"N_COORD97":2578711.5699999998,"ADDRESS":"新中路８２巷８０弄５號二樓","OBJECTID":94561},"geometry":{"x":175823.23000000045,"y":2578711.5700000022}},{"attributes":{"ID":94562,"DIS_CODE":0,"TOWNNAME":"七股區","LI":"篤加里","LIN":"10鄰","STREET":" ","SECT":" ","MAREA":"篤加","LANE":" ","ALLEY":" ","HOUSE_NO":"８９號","E_COORD97":160828.26999999999,"N_COORD97":2562588.3100000001,"ADDRESS":"篤加８９號","OBJECTID":94562},"geometry":{"x":160828.26999999955,"y":2562588.3100000042}},{"attributes":{"ID":94563,"DIS_CODE":0,"TOWNNAME":"新營區","LI":"太南里","LIN":"15鄰","STREET":" ","SECT":" ","MAREA":"太子宮","LANE":" ","ALLEY":" ","HOUSE_NO":"２９５之２號","E_COORD97":176218.60999999999,"N_COORD97":2576629.8300000001,"ADDRESS":"太子宮２９５之２號","OBJECTID":94563},"geometry":{"x":176218.61000000034,"y":2576629.8300000001}},{"attributes":{"ID":94564,"DIS_CODE":0,"TOWNNAME":"新營區","LI":"土庫里","LIN":"15鄰","STREET":" ","SECT":" ","MAREA":"土庫","LANE":" ","ALLEY":" ","HOUSE_NO":"１２３號","E_COORD97":183228.14000000001,"N_COORD97":2579698.48,"ADDRESS":"土庫１２３號","OBJECTID":94564},"geometry":{"x":183228.1400000006,"y":2579698.4800000042}},{"attributes":{"ID":94565,"DIS_CODE":0,"TOWNNAME":"新營區","LI":"土庫里","LIN":"15鄰","STREET":" ","SECT":" ","MAREA":"土庫","LANE":" ","ALLEY":" ","HOUSE_NO":"１２５號","E_COORD97":183184.75,"N_COORD97":2579700.0699999998,"ADDRESS":"土庫１２５號","OBJECTID":94565},"geometry":{"x":183184.75,"y":2579700.0700000003}},{"attributes":{"ID":94566,"DIS_CODE":0,"TOWNNAME":"楠西區","LI":"照興里","LIN":"15鄰","STREET":" ","SECT":" ","MAREA":"興南","LANE":" ","ALLEY":" ","HOUSE_NO":"６８號","E_COORD97":195268.07000000001,"N_COORD97":2565393.25,"ADDRESS":"興南６８號","OBJECTID":94566},"geometry":{"x":195268.0700000003,"y":2565393.2500000019}},{"attributes":{"ID":94567,"DIS_CODE":0,"TOWNNAME":"楠西區","LI":"灣丘里","LIN":"15鄰","STREET":" ","SECT":" ","MAREA":"鳳興","LANE":" ","ALLEY":" ","HOUSE_NO":"４６號之３","E_COORD97":199018.70000000001,"N_COORD97":2562494.2999999998,"ADDRESS":"鳳興４６號之３","OBJECTID":94567},"geometry":{"x":199018.69999999925,"y":2562494.3000000026}},{"attributes":{"ID":94568,"DIS_CODE":0,"TOWNNAME":"鹽水區","LI":"橋南里","LIN":"21鄰","STREET":"新中路","SECT":" ","MAREA":" ","LANE":"８２巷","ALLEY":"８０弄","HOUSE_NO":"５號三樓","E_COORD97":175823.23000000001,"N_COORD97":2578711.5699999998,"ADDRESS":"新中路８２巷８０弄５號三樓","OBJECTID":94568},"geometry":{"x":175823.23000000045,"y":2578711.5700000022}},{"attributes":{"ID":94569,"DIS_CODE":0,"TOWNNAME":"楠西區","LI":"照興里","LIN":"15鄰","STREET":" ","SECT":" ","MAREA":"興南","LANE":" ","ALLEY":" ","HOUSE_NO":"６８號之１","E_COORD97":195325.29999999999,"N_COORD97":2565392.2999999998,"ADDRESS":"興南６８號之１","OBJECTID":94569},"geometry":{"x":195325.29999999981,"y":2565392.2999999989}},{"attributes":{"ID":94570,"DIS_CODE":0,"TOWNNAME":"鹽水區","LI":"橋南里","LIN":"21鄰","STREET":"新中路","SECT":" ","MAREA":" ","LANE":"８２巷","ALLEY":"８０弄","HOUSE_NO":"５號五樓","E_COORD97":175823.23000000001,"N_COORD97":2578711.5699999998,"ADDRESS":"新中路８２巷８０弄５號五樓","OBJECTID":94570},"geometry":{"x":175823.23000000045,"y":2578711.5700000022}},{"attributes":{"ID":94571,"DIS_CODE":0,"TOWNNAME":"鹽水區","LI":"橋南里","LIN":"21鄰","STREET":"新中路","SECT":" ","MAREA":" ","LANE":"８２巷","ALLEY":"８０弄","HOUSE_NO":"５號四樓","E_COORD97":175823.23000000001,"N_COORD97":2578711.5699999998,"ADDRESS":"新中路８２巷８０弄５號四樓","OBJECTID":94571},"geometry":{"x":175823.23000000045,"y":2578711.5700000022}},{"attributes":{"ID":94572,"DIS_CODE":0,"TOWNNAME":"楠西區","LI":"灣丘里","LIN":"15鄰","STREET":" ","SECT":" ","MAREA":"鳳興","LANE":" ","ALLEY":" ","HOUSE_NO":"３３號","E_COORD97":198763.76999999999,"N_COORD97":2562626.25,"ADDRESS":"鳳興３３號","OBJECTID":94572},"geometry":{"x":198763.77000000048,"y":2562626.2500000019}},{"attributes":{"ID":94573,"DIS_CODE":0,"TOWNNAME":"楠西區","LI":"灣丘里","LIN":"15鄰","STREET":" ","SECT":" ","MAREA":"鳳興","LANE":" ","ALLEY":" ","HOUSE_NO":"４８號之１","E_COORD97":199050.5,"N_COORD97":2562463.2999999998,"ADDRESS":"鳳興４８號之１","OBJECTID":94573},"geometry":{"x":199050.50000000186,"y":2562463.3000000045}},{"attributes":{"ID":94574,"DIS_CODE":0,"TOWNNAME":"楠西區","LI":"灣丘里","LIN":"15鄰","STREET":" ","SECT":" ","MAREA":"鳳興","LANE":" ","ALLEY":" ","HOUSE_NO":"４６號之１","E_COORD97":198986.60000000001,"N_COORD97":2562493.2999999998,"ADDRESS":"鳳興４６號之１","OBJECTID":94574},"geometry":{"x":198986.5999999987,"y":2562493.3000000007}},{"attributes":{"ID":94575,"DIS_CODE":0,"TOWNNAME":"七股區","LI":"義合里","LIN":"10鄰","STREET":" ","SECT":" ","MAREA":"義合","LANE":" ","ALLEY":" ","HOUSE_NO":"７８號之８","E_COORD97":161839.92000000001,"N_COORD97":2555706.5600000001,"ADDRESS":"義合７８號之８","OBJECTID":94575},"geometry":{"x":161839.92000000179,"y":2555706.5600000005}},{"attributes":{"ID":94576,"DIS_CODE":0,"TOWNNAME":"鹽水區","LI":"橋南里","LIN":"21鄰","STREET":"新中路","SECT":" ","MAREA":" ","LANE":"８２巷","ALLEY":"８０弄","HOUSE_NO":"６號一樓","E_COORD97":175846.82999999999,"N_COORD97":2578700.3700000001,"ADDRESS":"新中路８２巷８０弄６號一樓","OBJECTID":94576},"geometry":{"x":175846.83000000101,"y":2578700.3700000029}},{"attributes":{"ID":94577,"DIS_CODE":0,"TOWNNAME":"七股區","LI":"義合里","LIN":"10鄰","STREET":" ","SECT":" ","MAREA":"義合","LANE":" ","ALLEY":" ","HOUSE_NO":"７８號之９","E_COORD97":161839.88,"N_COORD97":2555712.7200000002,"ADDRESS":"義合７８號之９","OBJECTID":94577},"geometry":{"x":161839.87999999989,"y":2555712.7200000007}},{"attributes":{"ID":94578,"DIS_CODE":0,"TOWNNAME":"七股區","LI":"義合里","LIN":"10鄰","STREET":" ","SECT":" ","MAREA":"義合","LANE":" ","ALLEY":" ","HOUSE_NO":"７８號","E_COORD97":161859.54999999999,"N_COORD97":2555724.96,"ADDRESS":"義合７８號","OBJECTID":94578},"geometry":{"x":161859.55000000075,"y":2555724.9600000009}},{"attributes":{"ID":94579,"DIS_CODE":0,"TOWNNAME":"七股區","LI":"義合里","LIN":"10鄰","STREET":" ","SECT":" ","MAREA":"義合","LANE":" ","ALLEY":" ","HOUSE_NO":"８０號之１","E_COORD97":161803.85000000001,"N_COORD97":2555663.5099999998,"ADDRESS":"義合８０號之１","OBJECTID":94579},"geometry":{"x":161803.84999999963,"y":2555663.5100000016}},{"attributes":{"ID":94580,"DIS_CODE":0,"TOWNNAME":"七股區","LI":"義合里","LIN":"10鄰","STREET":" ","SECT":" ","MAREA":"義合","LANE":" ","ALLEY":" ","HOUSE_NO":"８０號之２","E_COORD97":161785.91,"N_COORD97":2555648.0099999998,"ADDRESS":"義合８０號之２","OBJECTID":94580},"geometry":{"x":161785.91000000201,"y":2555648.0099999998}},{"attributes":{"ID":94581,"DIS_CODE":0,"TOWNNAME":"七股區","LI":"義合里","LIN":"10鄰","STREET":" ","SECT":" ","MAREA":"義合","LANE":" ","ALLEY":" ","HOUSE_NO":"８０號之３","E_COORD97":161779.03,"N_COORD97":2555648.4199999999,"ADDRESS":"義合８０號之３","OBJECTID":94581},"geometry":{"x":161779.03000000119,"y":2555648.4200000018}},{"attributes":{"ID":94582,"DIS_CODE":0,"TOWNNAME":"七股區","LI":"義合里","LIN":"10鄰","STREET":" ","SECT":" ","MAREA":"義合","LANE":" ","ALLEY":" ","HOUSE_NO":"８０號之５","E_COORD97":161733.26999999999,"N_COORD97":2555660.2000000002,"ADDRESS":"義合８０號之５","OBJECTID":94582},"geometry":{"x":161733.26999999955,"y":2555660.1999999993}},{"attributes":{"ID":94583,"DIS_CODE":0,"TOWNNAME":"七股區","LI":"義合里","LIN":"10鄰","STREET":" ","SECT":" ","MAREA":"義合","LANE":" ","ALLEY":" ","HOUSE_NO":"８０號之７","E_COORD97":161722.48000000001,"N_COORD97":2555665.4300000002,"ADDRESS":"義合８０號之７","OBJECTID":94583},"geometry":{"x":161722.48000000045,"y":2555665.4299999997}},{"attributes":{"ID":94584,"DIS_CODE":0,"TOWNNAME":"七股區","LI":"義合里","LIN":"10鄰","STREET":" ","SECT":" ","MAREA":"義合","LANE":" ","ALLEY":" ","HOUSE_NO":"８１號之１０","E_COORD97":161817.17999999999,"N_COORD97":2555735.5099999998,"ADDRESS":"義合８１號之１０","OBJECTID":94584},"geometry":{"x":161817.1799999997,"y":2555735.5100000016}},{"attributes":{"ID":94585,"DIS_CODE":0,"TOWNNAME":"七股區","LI":"義合里","LIN":"10鄰","STREET":" ","SECT":" ","MAREA":"義合","LANE":" ","ALLEY":" ","HOUSE_NO":"８１號之１１","E_COORD97":161817.13,"N_COORD97":2555731.6299999999,"ADDRESS":"義合８１號之１１","OBJECTID":94585},"geometry":{"x":161817.13000000082,"y":2555731.629999999}},{"attributes":{"ID":94586,"DIS_CODE":0,"TOWNNAME":"七股區","LI":"義合里","LIN":"10鄰","STREET":" ","SECT":" ","MAREA":"義合","LANE":" ","ALLEY":" ","HOUSE_NO":"８１號之１２","E_COORD97":161814.32999999999,"N_COORD97":2555727.2000000002,"ADDRESS":"義合８１號之１２","OBJECTID":94586},"geometry":{"x":161814.33000000101,"y":2555727.2000000011}},{"attributes":{"ID":94587,"DIS_CODE":0,"TOWNNAME":"七股區","LI":"義合里","LIN":"10鄰","STREET":" ","SECT":" ","MAREA":"義合","LANE":" ","ALLEY":" ","HOUSE_NO":"８１號之１３","E_COORD97":161814.54999999999,"N_COORD97":2555723.1099999999,"ADDRESS":"義合８１號之１３","OBJECTID":94587},"geometry":{"x":161814.54999999981,"y":2555723.1100000031}},{"attributes":{"ID":94588,"DIS_CODE":0,"TOWNNAME":"楠西區","LI":"照興里","LIN":"15鄰","STREET":" ","SECT":" ","MAREA":"興南","LANE":" ","ALLEY":" ","HOUSE_NO":"６５號之１","E_COORD97":195315.39999999999,"N_COORD97":2565412.2999999998,"ADDRESS":"興南６５號之１","OBJECTID":94588},"geometry":{"x":195315.40000000224,"y":2565412.3000000007}},{"attributes":{"ID":94589,"DIS_CODE":0,"TOWNNAME":"鹽水區","LI":"橋南里","LIN":"21鄰","STREET":"新中路","SECT":" ","MAREA":" ","LANE":"８２巷","ALLEY":"８０弄","HOUSE_NO":"６號二樓","E_COORD97":175846.82999999999,"N_COORD97":2578700.3700000001,"ADDRESS":"新中路８２巷８０弄６號二樓","OBJECTID":94589},"geometry":{"x":175846.83000000101,"y":2578700.3700000029}},{"attributes":{"ID":94590,"DIS_CODE":0,"TOWNNAME":"鹽水區","LI":"橋南里","LIN":"21鄰","STREET":"新中路","SECT":" ","MAREA":" ","LANE":"８２巷","ALLEY":"８０弄","HOUSE_NO":"６號三樓","E_COORD97":175846.82999999999,"N_COORD97":2578700.3700000001,"ADDRESS":"新中路８２巷８０弄６號三樓","OBJECTID":94590},"geometry":{"x":175846.83000000101,"y":2578700.3700000029}},{"attributes":{"ID":94591,"DIS_CODE":0,"TOWNNAME":"鹽水區","LI":"橋南里","LIN":"21鄰","STREET":"新中路","SECT":" ","MAREA":" ","LANE":"８２巷","ALLEY":"８０弄","HOUSE_NO":"６號五樓","E_COORD97":175846.82999999999,"N_COORD97":2578700.3700000001,"ADDRESS":"新中路８２巷８０弄６號五樓","OBJECTID":94591},"geometry":{"x":175846.83000000101,"y":2578700.3700000029}},{"attributes":{"ID":94592,"DIS_CODE":0,"TOWNNAME":"鹽水區","LI":"橋南里","LIN":"21鄰","STREET":"新中路","SECT":" ","MAREA":" ","LANE":"８２巷","ALLEY":"８０弄","HOUSE_NO":"６號四樓","E_COORD97":175846.82999999999,"N_COORD97":2578700.3700000001,"ADDRESS":"新中路８２巷８０弄６號四樓","OBJECTID":94592},"geometry":{"x":175846.83000000101,"y":2578700.3700000029}},{"attributes":{"ID":94593,"DIS_CODE":0,"TOWNNAME":"鹽水區","LI":"橋南里","LIN":"21鄰","STREET":"新中路","SECT":" ","MAREA":" ","LANE":"８２巷","ALLEY":"８０弄","HOUSE_NO":"７號一樓","E_COORD97":175815.22,"N_COORD97":2578713.3599999999,"ADDRESS":"新中路８２巷８０弄７號一樓","OBJECTID":94593},"geometry":{"x":175815.22000000067,"y":2578713.3599999994}},{"attributes":{"ID":94594,"DIS_CODE":0,"TOWNNAME":"鹽水區","LI":"橋南里","LIN":"21鄰","STREET":"新中路","SECT":" ","MAREA":" ","LANE":"８２巷","ALLEY":"８０弄","HOUSE_NO":"７號二樓","E_COORD97":175815.22,"N_COORD97":2578713.3599999999,"ADDRESS":"新中路８２巷８０弄７號二樓","OBJECTID":94594},"geometry":{"x":175815.22000000067,"y":2578713.3599999994}},{"attributes":{"ID":94595,"DIS_CODE":0,"TOWNNAME":"鹽水區","LI":"橋南里","LIN":"21鄰","STREET":"新中路","SECT":" ","MAREA":" ","LANE":"８２巷","ALLEY":"８０弄","HOUSE_NO":"７號三樓","E_COORD97":175815.22,"N_COORD97":2578713.3599999999,"ADDRESS":"新中路８２巷８０弄７號三樓","OBJECTID":94595},"geometry":{"x":175815.22000000067,"y":2578713.3599999994}},{"attributes":{"ID":94596,"DIS_CODE":0,"TOWNNAME":"鹽水區","LI":"橋南里","LIN":"21鄰","STREET":"新中路","SECT":" ","MAREA":" ","LANE":"８２巷","ALLEY":"８０弄","HOUSE_NO":"７號五樓","E_COORD97":175815.22,"N_COORD97":2578713.3599999999,"ADDRESS":"新中路８２巷８０弄７號五樓","OBJECTID":94596},"geometry":{"x":175815.22000000067,"y":2578713.3599999994}},{"attributes":{"ID":94597,"DIS_CODE":0,"TOWNNAME":"山上區","LI":"新莊里","LIN":"9鄰","STREET":" ","SECT":" ","MAREA":"大庄","LANE":" ","ALLEY":" ","HOUSE_NO":"３８號","E_COORD97":183855.26000000001,"N_COORD97":2554916.25,"ADDRESS":"大庄３８號","OBJECTID":94597},"geometry":{"x":183855.26000000071,"y":2554916.2500000019}},{"attributes":{"ID":94598,"DIS_CODE":0,"TOWNNAME":"鹽水區","LI":"橋南里","LIN":"21鄰","STREET":"新中路","SECT":" ","MAREA":" ","LANE":"８２巷","ALLEY":"８０弄","HOUSE_NO":"７號四樓","E_COORD97":175815.22,"N_COORD97":2578713.3599999999,"ADDRESS":"新中路８２巷８０弄７號四樓","OBJECTID":94598},"geometry":{"x":175815.22000000067,"y":2578713.3599999994}},{"attributes":{"ID":94599,"DIS_CODE":0,"TOWNNAME":"新化區","LI":"全興里","LIN":"15鄰","STREET":" ","SECT":" ","MAREA":"竹子\u25A0","LANE":" ","ALLEY":" ","HOUSE_NO":"２４７號之６７９","E_COORD97":178156.38,"N_COORD97":2546610.2599999998,"ADDRESS":"竹子\u25A0２４７號之６７９","OBJECTID":94599},"geometry":{"x":178156.38000000175,"y":2546610.2600000016}},{"attributes":{"ID":94600,"DIS_CODE":0,"TOWNNAME":"新化區","LI":"全興里","LIN":"15鄰","STREET":" ","SECT":" ","MAREA":"竹子\u25A0","LANE":" ","ALLEY":" ","HOUSE_NO":"２４７號之４２０","E_COORD97":178183.47,"N_COORD97":2546680.2599999998,"ADDRESS":"竹子\u25A0２４７號之４２０","OBJECTID":94600},"geometry":{"x":178183.47000000067,"y":2546680.2600000035}}]}