{"displayFieldName":"TOWNNAME","fieldAliases":{"ID":"ID","DIS_CODE":"DIS_CODE","TOWNNAME":"TOWNNAME","LI":"LI","LIN":"LIN","STREET":"STREET","SECT":"SECT","MAREA":"MAREA","LANE":"LANE","ALLEY":"ALLEY","HOUSE_NO":"HOUSE_NO","E_COORD97":"E_COORD97","N_COORD97":"N_COORD97","ADDRESS":"ADDRESS","OBJECTID":"OBJECTID"},"geometryType":"esriGeometryPoint","spatialReference":{"wkid":102443,"latestWkid":3826},"fields":[{"name":"ID","type":"esriFieldTypeDouble","alias":"ID"},{"name":"DIS_CODE","type":"esriFieldTypeInteger","alias":"DIS_CODE"},{"name":"TOWNNAME","type":"esriFieldTypeString","alias":"TOWNNAME","length":8},{"name":"LI","type":"esriFieldTypeString","alias":"LI","length":8},{"name":"LIN","type":"esriFieldTypeString","alias":"LIN","length":12},{"name":"STREET","type":"esriFieldTypeString","alias":"STREET","length":20},{"name":"SECT","type":"esriFieldTypeString","alias":"SECT","length":8},{"name":"MAREA","type":"esriFieldTypeString","alias":"MAREA","length":12},{"name":"LANE","type":"esriFieldTypeString","alias":"LANE","length":10},{"name":"ALLEY","type":"esriFieldTypeString","alias":"ALLEY","length":10},{"name":"HOUSE_NO","type":"esriFieldTypeString","alias":"HOUSE_NO","length":20},{"name":"E_COORD97","type":"esriFieldTypeDouble","alias":"E_COORD97"},{"name":"N_COORD97","type":"esriFieldTypeDouble","alias":"N_COORD97"},{"name":"ADDRESS","type":"esriFieldTypeString","alias":"ADDRESS","length":50},{"name":"OBJECTID","type":"esriFieldTypeOID","alias":"OBJECTID"}],"features":[{"attributes":{"ID":650828,"DIS_CODE":0,"TOWNNAME":"安平區","LI":"怡平里","LIN":"16鄰","STREET":"永華六街","SECT":" ","MAREA":" ","LANE":"１５４巷","ALLEY":" ","HOUSE_NO":"１１之３號","E_COORD97":165720.47189799999,"N_COORD97":2543908.0947199999,"ADDRESS":"永華六街１５４巷１１之３號","OBJECTID":650801},"geometry":{"x":165720.47189799976,"y":2543908.0947159994}},{"attributes":{"ID":650829,"DIS_CODE":0,"TOWNNAME":"安平區","LI":"怡平里","LIN":"16鄰","STREET":"永華六街","SECT":" ","MAREA":" ","LANE":"１５４巷","ALLEY":" ","HOUSE_NO":"１１之４號","E_COORD97":165720.47189799999,"N_COORD97":2543908.0947199999,"ADDRESS":"永華六街１５４巷１１之４號","OBJECTID":650802},"geometry":{"x":165720.47189799976,"y":2543908.0947159994}},{"attributes":{"ID":650830,"DIS_CODE":0,"TOWNNAME":"新營區","LI":"角帶里","LIN":"5鄰","STREET":" ","SECT":" ","MAREA":"角帶圍","LANE":" ","ALLEY":" ","HOUSE_NO":"６５之１號","E_COORD97":174685.56448599999,"N_COORD97":2575707.0233100001,"ADDRESS":"角帶圍６５之１號","OBJECTID":650803},"geometry":{"x":174685.56448600069,"y":2575707.0233110022}},{"attributes":{"ID":650831,"DIS_CODE":0,"TOWNNAME":"佳里區","LI":"佳化里","LIN":"4鄰","STREET":" ","SECT":" ","MAREA":"佳里興","LANE":" ","ALLEY":" ","HOUSE_NO":"３４號","E_COORD97":167565.78940800001,"N_COORD97":2565282.7892399998,"ADDRESS":"佳里興３４號","OBJECTID":650804},"geometry":{"x":167565.78940800112,"y":2565282.7892429996}},{"attributes":{"ID":650832,"DIS_CODE":0,"TOWNNAME":"安平區","LI":"怡平里","LIN":"16鄰","STREET":"永華六街","SECT":" ","MAREA":" ","LANE":"１５４巷","ALLEY":" ","HOUSE_NO":"１３之１號","E_COORD97":165710.30033699999,"N_COORD97":2543910.2113800002,"ADDRESS":"永華六街１５４巷１３之１號","OBJECTID":650805},"geometry":{"x":165710.30033700075,"y":2543910.2113809995}},{"attributes":{"ID":650833,"DIS_CODE":0,"TOWNNAME":"安平區","LI":"怡平里","LIN":"16鄰","STREET":"永華六街","SECT":" ","MAREA":" ","LANE":"１５４巷","ALLEY":" ","HOUSE_NO":"１３之２號","E_COORD97":165710.30033699999,"N_COORD97":2543910.2113800002,"ADDRESS":"永華六街１５４巷１３之２號","OBJECTID":650806},"geometry":{"x":165710.30033700075,"y":2543910.2113809995}},{"attributes":{"ID":650834,"DIS_CODE":0,"TOWNNAME":"新營區","LI":"好平里","LIN":"2鄰","STREET":"武侯街","SECT":" ","MAREA":" ","LANE":"９巷","ALLEY":" ","HOUSE_NO":"６號","E_COORD97":179644.38517699999,"N_COORD97":2577717.92576,"ADDRESS":"武侯街９巷６號","OBJECTID":650807},"geometry":{"x":179644.38517700136,"y":2577717.9257570002}},{"attributes":{"ID":650835,"DIS_CODE":0,"TOWNNAME":"安平區","LI":"怡平里","LIN":"16鄰","STREET":"永華六街","SECT":" ","MAREA":" ","LANE":"１５４巷","ALLEY":" ","HOUSE_NO":"１３之３號","E_COORD97":165710.30033699999,"N_COORD97":2543910.2113800002,"ADDRESS":"永華六街１５４巷１３之３號","OBJECTID":650808},"geometry":{"x":165710.30033700075,"y":2543910.2113809995}},{"attributes":{"ID":650836,"DIS_CODE":0,"TOWNNAME":"安平區","LI":"怡平里","LIN":"16鄰","STREET":"永華六街","SECT":" ","MAREA":" ","LANE":"１５４巷","ALLEY":" ","HOUSE_NO":"１３之５號","E_COORD97":165710.30033699999,"N_COORD97":2543910.2113800002,"ADDRESS":"永華六街１５４巷１３之５號","OBJECTID":650809},"geometry":{"x":165710.30033700075,"y":2543910.2113809995}},{"attributes":{"ID":650837,"DIS_CODE":0,"TOWNNAME":"佳里區","LI":"佳化里","LIN":"4鄰","STREET":" ","SECT":" ","MAREA":"佳里興","LANE":" ","ALLEY":" ","HOUSE_NO":"３４號之６","E_COORD97":167580.693581,"N_COORD97":2565272.7569400002,"ADDRESS":"佳里興３４號之６","OBJECTID":650810},"geometry":{"x":167580.69358099997,"y":2565272.7569440007}},{"attributes":{"ID":650838,"DIS_CODE":0,"TOWNNAME":"安平區","LI":"怡平里","LIN":"16鄰","STREET":"永華六街","SECT":" ","MAREA":" ","LANE":"１５４巷","ALLEY":" ","HOUSE_NO":"１３號之４","E_COORD97":165710.51224400001,"N_COORD97":2543910.4230499999,"ADDRESS":"永華六街１５４巷１３號之４","OBJECTID":650811},"geometry":{"x":165710.5122440001,"y":2543910.4230480008}},{"attributes":{"ID":650839,"DIS_CODE":0,"TOWNNAME":"關廟區","LI":"南花里","LIN":"9鄰","STREET":"花園一街","SECT":" ","MAREA":" ","LANE":"１２１巷","ALLEY":"１弄","HOUSE_NO":"３號","E_COORD97":181819.10626299999,"N_COORD97":2540155.5348399999,"ADDRESS":"花園一街１２１巷１弄３號","OBJECTID":650812},"geometry":{"x":181819.10626299866,"y":2540155.5348409992}},{"attributes":{"ID":650840,"DIS_CODE":0,"TOWNNAME":"佳里區","LI":"佳化里","LIN":"4鄰","STREET":" ","SECT":" ","MAREA":"佳里興","LANE":" ","ALLEY":" ","HOUSE_NO":"３７號","E_COORD97":167506.91264,"N_COORD97":2565319.7503399998,"ADDRESS":"佳里興３７號","OBJECTID":650813},"geometry":{"x":167506.91264000069,"y":2565319.750341}},{"attributes":{"ID":650841,"DIS_CODE":0,"TOWNNAME":"關廟區","LI":"深坑里","LIN":"3鄰","STREET":"南雄路","SECT":"一段","MAREA":" ","LANE":" ","ALLEY":" ","HOUSE_NO":"３７０號","E_COORD97":181799.01979399999,"N_COORD97":2537595.3495999998,"ADDRESS":"南雄路一段３７０號","OBJECTID":650814},"geometry":{"x":181799.01979400218,"y":2537595.3496010005}},{"attributes":{"ID":650842,"DIS_CODE":0,"TOWNNAME":"關廟區","LI":"深坑里","LIN":"3鄰","STREET":"南雄路","SECT":"一段","MAREA":" ","LANE":" ","ALLEY":" ","HOUSE_NO":"３７６號","E_COORD97":181793.08917200001,"N_COORD97":2537609.7429300002,"ADDRESS":"南雄路一段３７６號","OBJECTID":650815},"geometry":{"x":181793.089172001,"y":2537609.7429269999}},{"attributes":{"ID":650843,"DIS_CODE":0,"TOWNNAME":"安平區","LI":"怡平里","LIN":"16鄰","STREET":"永華六街","SECT":" ","MAREA":" ","LANE":"１５４巷","ALLEY":" ","HOUSE_NO":"１５之１號","E_COORD97":165707.33363099999,"N_COORD97":2543922.2763700001,"ADDRESS":"永華六街１５４巷１５之１號","OBJECTID":650816},"geometry":{"x":165707.33363099955,"y":2543922.2763750032}},{"attributes":{"ID":650844,"DIS_CODE":0,"TOWNNAME":"安平區","LI":"怡平里","LIN":"16鄰","STREET":"永華六街","SECT":" ","MAREA":" ","LANE":"１５４巷","ALLEY":" ","HOUSE_NO":"１５之２號","E_COORD97":165707.33363099999,"N_COORD97":2543922.2763700001,"ADDRESS":"永華六街１５４巷１５之２號","OBJECTID":650817},"geometry":{"x":165707.33363099955,"y":2543922.2763750032}},{"attributes":{"ID":650845,"DIS_CODE":0,"TOWNNAME":"新營區","LI":"角帶里","LIN":"5鄰","STREET":" ","SECT":" ","MAREA":"角帶圍","LANE":" ","ALLEY":" ","HOUSE_NO":"６５之９號","E_COORD97":174498.77645599999,"N_COORD97":2575757.8232800001,"ADDRESS":"角帶圍６５之９號","OBJECTID":650818},"geometry":{"x":174498.77645600028,"y":2575757.823284002}},{"attributes":{"ID":650846,"DIS_CODE":0,"TOWNNAME":"安平區","LI":"怡平里","LIN":"16鄰","STREET":"永華六街","SECT":" ","MAREA":" ","LANE":"１５４巷","ALLEY":" ","HOUSE_NO":"１５之３號","E_COORD97":165707.33363099999,"N_COORD97":2543922.2763700001,"ADDRESS":"永華六街１５４巷１５之３號","OBJECTID":650819},"geometry":{"x":165707.33363099955,"y":2543922.2763750032}},{"attributes":{"ID":650847,"DIS_CODE":0,"TOWNNAME":"安平區","LI":"怡平里","LIN":"16鄰","STREET":"永華六街","SECT":" ","MAREA":" ","LANE":"１５４巷","ALLEY":" ","HOUSE_NO":"１５之４號","E_COORD97":165707.33363099999,"N_COORD97":2543922.2763700001,"ADDRESS":"永華六街１５４巷１５之４號","OBJECTID":650820},"geometry":{"x":165707.33363099955,"y":2543922.2763750032}},{"attributes":{"ID":650848,"DIS_CODE":0,"TOWNNAME":"關廟區","LI":"深坑里","LIN":"3鄰","STREET":"南雄路","SECT":"一段","MAREA":" ","LANE":"３９８巷","ALLEY":" ","HOUSE_NO":"１８號","E_COORD97":181789.70024400001,"N_COORD97":2537627.3112499998,"ADDRESS":"南雄路一段３９８巷１８號","OBJECTID":650821},"geometry":{"x":181789.70024400111,"y":2537627.3112509996}},{"attributes":{"ID":650849,"DIS_CODE":0,"TOWNNAME":"安平區","LI":"怡平里","LIN":"17鄰","STREET":"永華六街","SECT":" ","MAREA":" ","LANE":"１５４巷","ALLEY":" ","HOUSE_NO":"１號之１","E_COORD97":165750.56276599999,"N_COORD97":2543900.0513900002,"ADDRESS":"永華六街１５４巷１號之１","OBJECTID":650822},"geometry":{"x":165750.56276600063,"y":2543900.0513870008}},{"attributes":{"ID":650850,"DIS_CODE":0,"TOWNNAME":"安平區","LI":"怡平里","LIN":"17鄰","STREET":"永華六街","SECT":" ","MAREA":" ","LANE":"１５４巷","ALLEY":" ","HOUSE_NO":"１號之２","E_COORD97":165750.56276599999,"N_COORD97":2543900.0513900002,"ADDRESS":"永華六街１５４巷１號之２","OBJECTID":650823},"geometry":{"x":165750.56276600063,"y":2543900.0513870008}},{"attributes":{"ID":650851,"DIS_CODE":0,"TOWNNAME":"佳里區","LI":"佳化里","LIN":"4鄰","STREET":" ","SECT":" ","MAREA":"佳里興","LANE":" ","ALLEY":" ","HOUSE_NO":"３５號之１","E_COORD97":167562.301198,"N_COORD97":2565297.0456699999,"ADDRESS":"佳里興３５號之１","OBJECTID":650824},"geometry":{"x":167562.30119800102,"y":2565297.0456660017}},{"attributes":{"ID":650852,"DIS_CODE":0,"TOWNNAME":"安平區","LI":"怡平里","LIN":"16鄰","STREET":"永華六街","SECT":" ","MAREA":" ","LANE":"１５４巷","ALLEY":" ","HOUSE_NO":"４２號之１三樓","E_COORD97":165709.66461000001,"N_COORD97":2543938.3630300001,"ADDRESS":"永華六街１５４巷４２號之１三樓","OBJECTID":650825},"geometry":{"x":165709.66461000033,"y":2543938.3630299978}},{"attributes":{"ID":650853,"DIS_CODE":0,"TOWNNAME":"佳里區","LI":"佳化里","LIN":"5鄰","STREET":" ","SECT":" ","MAREA":"佳里興","LANE":" ","ALLEY":" ","HOUSE_NO":"３９號","E_COORD97":167507.758267,"N_COORD97":2565402.0151900002,"ADDRESS":"佳里興３９號","OBJECTID":650826},"geometry":{"x":167507.75826700125,"y":2565402.0151870009}},{"attributes":{"ID":650854,"DIS_CODE":0,"TOWNNAME":"後壁區","LI":"侯伯里","LIN":"13鄰","STREET":" ","SECT":" ","MAREA":"後壁寮","LANE":" ","ALLEY":" ","HOUSE_NO":"１０１號之３","E_COORD97":185223.31141200001,"N_COORD97":2585293.3685400002,"ADDRESS":"後壁寮１０１號之３","OBJECTID":650827},"geometry":{"x":185223.31141200103,"y":2585293.3685440011}},{"attributes":{"ID":650855,"DIS_CODE":0,"TOWNNAME":"後壁區","LI":"竹新里","LIN":"12鄰","STREET":" ","SECT":" ","MAREA":"竹圍後","LANE":" ","ALLEY":" ","HOUSE_NO":"１２０之９號","E_COORD97":178712.478283,"N_COORD97":2582677.1286200001,"ADDRESS":"竹圍後１２０之９號","OBJECTID":650828},"geometry":{"x":178712.47828300204,"y":2582677.1286180019}},{"attributes":{"ID":650856,"DIS_CODE":0,"TOWNNAME":"佳里區","LI":"佳化里","LIN":"5鄰","STREET":" ","SECT":" ","MAREA":"佳里興","LANE":" ","ALLEY":" ","HOUSE_NO":"４２號之１","E_COORD97":167537.46090999999,"N_COORD97":2565476.04299,"ADDRESS":"佳里興４２號之１","OBJECTID":650829},"geometry":{"x":167537.46090999991,"y":2565476.0429870021}},{"attributes":{"ID":650857,"DIS_CODE":0,"TOWNNAME":"安平區","LI":"怡平里","LIN":"16鄰","STREET":"永華六街","SECT":" ","MAREA":" ","LANE":"１５４巷","ALLEY":" ","HOUSE_NO":"４４之５號","E_COORD97":165704.36692,"N_COORD97":2543940.9030300002,"ADDRESS":"永華六街１５４巷４４之５號","OBJECTID":650830},"geometry":{"x":165704.36692000087,"y":2543940.9030300025}},{"attributes":{"ID":650858,"DIS_CODE":0,"TOWNNAME":"安平區","LI":"怡平里","LIN":"16鄰","STREET":"永華六街","SECT":" ","MAREA":" ","LANE":"１５４巷","ALLEY":" ","HOUSE_NO":"４４號之３","E_COORD97":165704.36692,"N_COORD97":2543940.9030300002,"ADDRESS":"永華六街１５４巷４４號之３","OBJECTID":650831},"geometry":{"x":165704.36692000087,"y":2543940.9030300025}},{"attributes":{"ID":650859,"DIS_CODE":0,"TOWNNAME":"佳里區","LI":"佳化里","LIN":"6鄰","STREET":" ","SECT":" ","MAREA":"佳里興","LANE":" ","ALLEY":" ","HOUSE_NO":"５０號","E_COORD97":167449.19860900001,"N_COORD97":2565428.6271799998,"ADDRESS":"佳里興５０號","OBJECTID":650832},"geometry":{"x":167449.19860900193,"y":2565428.6271780021}},{"attributes":{"ID":650860,"DIS_CODE":0,"TOWNNAME":"佳里區","LI":"佳化里","LIN":"6鄰","STREET":" ","SECT":" ","MAREA":"佳里興","LANE":" ","ALLEY":" ","HOUSE_NO":"５１號","E_COORD97":167438.20546,"N_COORD97":2565428.8383800001,"ADDRESS":"佳里興５１號","OBJECTID":650833},"geometry":{"x":167438.20546000078,"y":2565428.8383840024}},{"attributes":{"ID":650861,"DIS_CODE":0,"TOWNNAME":"佳里區","LI":"鎮山里","LIN":"10鄰","STREET":" ","SECT":" ","MAREA":"鎮山","LANE":" ","ALLEY":" ","HOUSE_NO":"２４號","E_COORD97":166134.600527,"N_COORD97":2561553.3609199999,"ADDRESS":"鎮山２４號","OBJECTID":650834},"geometry":{"x":166134.60052700154,"y":2561553.3609170001}},{"attributes":{"ID":650862,"DIS_CODE":0,"TOWNNAME":"麻豆區","LI":"北勢里","LIN":"6鄰","STREET":" ","SECT":" ","MAREA":"太子宅","LANE":" ","ALLEY":" ","HOUSE_NO":"２號之２","E_COORD97":173259.453993,"N_COORD97":2565813.94172,"ADDRESS":"太子宅２號之２","OBJECTID":650835},"geometry":{"x":173259.45399299916,"y":2565813.9417199977}},{"attributes":{"ID":650863,"DIS_CODE":0,"TOWNNAME":"安平區","LI":"怡平里","LIN":"16鄰","STREET":"永華六街","SECT":" ","MAREA":" ","LANE":"１５４巷","ALLEY":" ","HOUSE_NO":"４６之１號","E_COORD97":165700.34068299999,"N_COORD97":2543941.7497,"ADDRESS":"永華六街１５４巷４６之１號","OBJECTID":650836},"geometry":{"x":165700.34068300109,"y":2543941.7496980019}},{"attributes":{"ID":650864,"DIS_CODE":0,"TOWNNAME":"佳里區","LI":"佳化里","LIN":"6鄰","STREET":" ","SECT":" ","MAREA":"佳里興","LANE":" ","ALLEY":" ","HOUSE_NO":"５９號","E_COORD97":167384.613859,"N_COORD97":2565276.66426,"ADDRESS":"佳里興５９號","OBJECTID":650837},"geometry":{"x":167384.61385900155,"y":2565276.6642610021}},{"attributes":{"ID":650865,"DIS_CODE":0,"TOWNNAME":"安平區","LI":"怡平里","LIN":"16鄰","STREET":"永華六街","SECT":" ","MAREA":" ","LANE":"１５４巷","ALLEY":" ","HOUSE_NO":"４６之２號","E_COORD97":165700.34068299999,"N_COORD97":2543941.7497,"ADDRESS":"永華六街１５４巷４６之２號","OBJECTID":650838},"geometry":{"x":165700.34068300109,"y":2543941.7496980019}},{"attributes":{"ID":650866,"DIS_CODE":0,"TOWNNAME":"佳里區","LI":"佳化里","LIN":"6鄰","STREET":" ","SECT":" ","MAREA":"佳里興","LANE":" ","ALLEY":" ","HOUSE_NO":"６１號","E_COORD97":167377.10892100001,"N_COORD97":2565272.2289300002,"ADDRESS":"佳里興６１號","OBJECTID":650839},"geometry":{"x":167377.1089209998,"y":2565272.2289290018}},{"attributes":{"ID":650867,"DIS_CODE":0,"TOWNNAME":"安平區","LI":"怡平里","LIN":"16鄰","STREET":"永華六街","SECT":" ","MAREA":" ","LANE":"１５４巷","ALLEY":" ","HOUSE_NO":"５０之２號","E_COORD97":165691.016752,"N_COORD97":2543943.0197000001,"ADDRESS":"永華六街１５４巷５０之２號","OBJECTID":650840},"geometry":{"x":165691.0167520009,"y":2543943.0196970012}},{"attributes":{"ID":650868,"DIS_CODE":0,"TOWNNAME":"麻豆區","LI":"北勢里","LIN":"6鄰","STREET":" ","SECT":" ","MAREA":"太子宅","LANE":" ","ALLEY":" ","HOUSE_NO":"９號之２","E_COORD97":173103.939755,"N_COORD97":2565946.76248,"ADDRESS":"太子宅９號之２","OBJECTID":650841},"geometry":{"x":173103.93975500111,"y":2565946.7624810003}},{"attributes":{"ID":650869,"DIS_CODE":0,"TOWNNAME":"佳里區","LI":"佳化里","LIN":"6鄰","STREET":" ","SECT":" ","MAREA":"佳里興","LANE":" ","ALLEY":" ","HOUSE_NO":"６２號","E_COORD97":167383.34541899999,"N_COORD97":2565270.3280699998,"ADDRESS":"佳里興６２號","OBJECTID":650842},"geometry":{"x":167383.34541900083,"y":2565270.328072004}},{"attributes":{"ID":650870,"DIS_CODE":0,"TOWNNAME":"安平區","LI":"怡平里","LIN":"16鄰","STREET":"永華六街","SECT":" ","MAREA":" ","LANE":"１５４巷","ALLEY":" ","HOUSE_NO":"５４之２號","E_COORD97":165682.964266,"N_COORD97":2543943.6546999998,"ADDRESS":"永華六街１５４巷５４之２號","OBJECTID":650843},"geometry":{"x":165682.96426600032,"y":2543943.654697001}},{"attributes":{"ID":650871,"DIS_CODE":0,"TOWNNAME":"白河區","LI":"內角里","LIN":"10鄰","STREET":" ","SECT":" ","MAREA":"內角","LANE":" ","ALLEY":" ","HOUSE_NO":"１２７之１號","E_COORD97":193220.041815,"N_COORD97":2589767.9679100001,"ADDRESS":"內角１２７之１號","OBJECTID":650844},"geometry":{"x":193220.04181500152,"y":2589767.9679080024}},{"attributes":{"ID":650872,"DIS_CODE":0,"TOWNNAME":"安平區","LI":"怡平里","LIN":"16鄰","STREET":"永華六街","SECT":" ","MAREA":" ","LANE":"１５４巷","ALLEY":" ","HOUSE_NO":"９之１號","E_COORD97":165728.52438399999,"N_COORD97":2543918.8897099998,"ADDRESS":"永華六街１５４巷９之１號","OBJECTID":650845},"geometry":{"x":165728.52438400034,"y":2543918.8897100016}},{"attributes":{"ID":650873,"DIS_CODE":0,"TOWNNAME":"安平區","LI":"怡平里","LIN":"16鄰","STREET":"永華六街","SECT":" ","MAREA":" ","LANE":"１５４巷","ALLEY":" ","HOUSE_NO":"９之２號","E_COORD97":165728.52438399999,"N_COORD97":2543918.8897099998,"ADDRESS":"永華六街１５４巷９之２號","OBJECTID":650846},"geometry":{"x":165728.52438400034,"y":2543918.8897100016}},{"attributes":{"ID":650874,"DIS_CODE":0,"TOWNNAME":"佳里區","LI":"佳化里","LIN":"6鄰","STREET":" ","SECT":" ","MAREA":"佳里興","LANE":" ","ALLEY":" ","HOUSE_NO":"５８號之１","E_COORD97":167369.70968599999,"N_COORD97":2565293.87757,"ADDRESS":"佳里興５８號之１","OBJECTID":650847},"geometry":{"x":167369.7096859999,"y":2565293.8775720038}},{"attributes":{"ID":650875,"DIS_CODE":0,"TOWNNAME":"安平區","LI":"怡平里","LIN":"16鄰","STREET":"永華六街","SECT":" ","MAREA":" ","LANE":"１５４巷","ALLEY":" ","HOUSE_NO":"９之３號","E_COORD97":165728.52438399999,"N_COORD97":2543918.8897099998,"ADDRESS":"永華六街１５４巷９之３號","OBJECTID":650848},"geometry":{"x":165728.52438400034,"y":2543918.8897100016}},{"attributes":{"ID":650876,"DIS_CODE":0,"TOWNNAME":"安平區","LI":"怡平里","LIN":"16鄰","STREET":"永華六街","SECT":" ","MAREA":" ","LANE":"１５４巷","ALLEY":" ","HOUSE_NO":"９之４號","E_COORD97":165728.52438399999,"N_COORD97":2543918.8897099998,"ADDRESS":"永華六街１５４巷９之４號","OBJECTID":650849},"geometry":{"x":165728.52438400034,"y":2543918.8897100016}},{"attributes":{"ID":650877,"DIS_CODE":0,"TOWNNAME":"安平區","LI":"怡平里","LIN":"16鄰","STREET":"永華六街","SECT":" ","MAREA":" ","LANE":"１５４巷","ALLEY":" ","HOUSE_NO":"９之５號","E_COORD97":165728.52438399999,"N_COORD97":2543918.8897099998,"ADDRESS":"永華六街１５４巷９之５號","OBJECTID":650850},"geometry":{"x":165728.52438400034,"y":2543918.8897100016}},{"attributes":{"ID":650878,"DIS_CODE":0,"TOWNNAME":"關廟區","LI":"深坑里","LIN":"3鄰","STREET":"南雄路","SECT":"一段","MAREA":" ","LANE":" ","ALLEY":" ","HOUSE_NO":"３９０號","E_COORD97":181753.17661200001,"N_COORD97":2537620.20719,"ADDRESS":"南雄路一段３９０號","OBJECTID":650851},"geometry":{"x":181753.17661199998,"y":2537620.2071920019}},{"attributes":{"ID":650879,"DIS_CODE":0,"TOWNNAME":"仁德區","LI":"二行里","LIN":"14鄰","STREET":"中正西路","SECT":" ","MAREA":" ","LANE":"３５３巷","ALLEY":"１８弄","HOUSE_NO":"１５號","E_COORD97":169797.68985600001,"N_COORD97":2535279.2850299999,"ADDRESS":"中正西路３５３巷１８弄１５號","OBJECTID":650852},"geometry":{"x":169797.68985600118,"y":2535279.2850300018}},{"attributes":{"ID":650880,"DIS_CODE":0,"TOWNNAME":"楠西區","LI":"龜丹里","LIN":"3鄰","STREET":" ","SECT":" ","MAREA":"龜丹","LANE":" ","ALLEY":" ","HOUSE_NO":"３５號之１","E_COORD97":198063.62086299999,"N_COORD97":2559192.78926,"ADDRESS":"龜丹３５號之１","OBJECTID":650853},"geometry":{"x":198063.62086300179,"y":2559192.7892579995}},{"attributes":{"ID":650881,"DIS_CODE":0,"TOWNNAME":"安南區","LI":"梅花里","LIN":"1鄰","STREET":"安中路","SECT":"一段","MAREA":" ","LANE":"５５７巷","ALLEY":" ","HOUSE_NO":"２５號","E_COORD97":167936.376663,"N_COORD97":2548870.4926200002,"ADDRESS":"安中路一段５５７巷２５號","OBJECTID":650854},"geometry":{"x":167936.37666300032,"y":2548870.4926180001}},{"attributes":{"ID":650882,"DIS_CODE":0,"TOWNNAME":"佳里區","LI":"佳化里","LIN":"6鄰","STREET":" ","SECT":" ","MAREA":"佳里興","LANE":" ","ALLEY":" ","HOUSE_NO":"５４號之６","E_COORD97":167432.49747900001,"N_COORD97":2565402.22639,"ADDRESS":"佳里興５４號之６","OBJECTID":650855},"geometry":{"x":167432.49747900013,"y":2565402.2263929993}},{"attributes":{"ID":650883,"DIS_CODE":0,"TOWNNAME":"安平區","LI":"怡平里","LIN":"22鄰","STREET":"永華六街","SECT":" ","MAREA":" ","LANE":" ","ALLEY":" ","HOUSE_NO":"６６號","E_COORD97":165613.03478300001,"N_COORD97":2543680.1298400001,"ADDRESS":"永華六街６６號","OBJECTID":650856},"geometry":{"x":165613.03478300013,"y":2543680.1298390012}},{"attributes":{"ID":650884,"DIS_CODE":0,"TOWNNAME":"佳里區","LI":"佳化里","LIN":"6鄰","STREET":" ","SECT":" ","MAREA":"佳里興","LANE":" ","ALLEY":" ","HOUSE_NO":"５４號之７","E_COORD97":167427.14487399999,"N_COORD97":2565405.1215400002,"ADDRESS":"佳里興５４號之７","OBJECTID":650857},"geometry":{"x":167427.14487400092,"y":2565405.1215430014}},{"attributes":{"ID":650885,"DIS_CODE":0,"TOWNNAME":"安平區","LI":"怡平里","LIN":"22鄰","STREET":"永華六街","SECT":" ","MAREA":" ","LANE":" ","ALLEY":" ","HOUSE_NO":"６６號之４","E_COORD97":165627.23258700001,"N_COORD97":2543677.8015100001,"ADDRESS":"永華六街６６號之４","OBJECTID":650858},"geometry":{"x":165627.23258700129,"y":2543677.8015069999}},{"attributes":{"ID":650886,"DIS_CODE":0,"TOWNNAME":"佳里區","LI":"佳化里","LIN":"6鄰","STREET":" ","SECT":" ","MAREA":"佳里興","LANE":" ","ALLEY":" ","HOUSE_NO":"５４號之８","E_COORD97":167216.16217,"N_COORD97":2565330.1437400002,"ADDRESS":"佳里興５４號之８","OBJECTID":650859},"geometry":{"x":167216.16217000224,"y":2565330.1437380016}},{"attributes":{"ID":650887,"DIS_CODE":0,"TOWNNAME":"佳里區","LI":"鎮山里","LIN":"10鄰","STREET":" ","SECT":" ","MAREA":"鎮山","LANE":" ","ALLEY":" ","HOUSE_NO":"７７號","E_COORD97":166211.09731000001,"N_COORD97":2561547.8575900001,"ADDRESS":"鎮山７７號","OBJECTID":650860},"geometry":{"x":166211.0973100001,"y":2561547.8575870022}},{"attributes":{"ID":650888,"DIS_CODE":0,"TOWNNAME":"新營區","LI":"好平里","LIN":"2鄰","STREET":"南昌街","SECT":" ","MAREA":" ","LANE":" ","ALLEY":" ","HOUSE_NO":"２６號","E_COORD97":179648.62352699999,"N_COORD97":2577667.7607800001,"ADDRESS":"南昌街２６號","OBJECTID":650861},"geometry":{"x":179648.62352699973,"y":2577667.7607840002}},{"attributes":{"ID":650889,"DIS_CODE":0,"TOWNNAME":"安平區","LI":"怡平里","LIN":"25鄰","STREET":"永華路","SECT":"二段","MAREA":" ","LANE":" ","ALLEY":" ","HOUSE_NO":"４９０號","E_COORD97":165481.652118,"N_COORD97":2543512.9132599998,"ADDRESS":"永華路二段４９０號","OBJECTID":650862},"geometry":{"x":165481.65211800113,"y":2543512.9132630005}},{"attributes":{"ID":650890,"DIS_CODE":0,"TOWNNAME":"楠西區","LI":"龜丹里","LIN":"3鄰","STREET":" ","SECT":" ","MAREA":"龜丹","LANE":" ","ALLEY":" ","HOUSE_NO":"３８號之１","E_COORD97":198209.1771,"N_COORD97":2559169.1884300001,"ADDRESS":"龜丹３８號之１","OBJECTID":650863},"geometry":{"x":198209.1771000009,"y":2559169.1884300038}},{"attributes":{"ID":650891,"DIS_CODE":0,"TOWNNAME":"新營區","LI":"好平里","LIN":"2鄰","STREET":"南昌街","SECT":" ","MAREA":" ","LANE":" ","ALLEY":" ","HOUSE_NO":"２６之１號","E_COORD97":179628.70328399999,"N_COORD97":2577680.6724399999,"ADDRESS":"南昌街２６之１號","OBJECTID":650864},"geometry":{"x":179628.70328400191,"y":2577680.6724430006}},{"attributes":{"ID":650892,"DIS_CODE":0,"TOWNNAME":"佳里區","LI":"佳化里","LIN":"6鄰","STREET":" ","SECT":" ","MAREA":"佳里興","LANE":" ","ALLEY":" ","HOUSE_NO":"５４號之８","E_COORD97":167424.224365,"N_COORD97":2565407.4407899999,"ADDRESS":"佳里興５４號之８","OBJECTID":650865},"geometry":{"x":167424.22436499968,"y":2565407.4407860022}},{"attributes":{"ID":650893,"DIS_CODE":0,"TOWNNAME":"新營區","LI":"新東里","LIN":"19鄰","STREET":"東學路","SECT":" ","MAREA":" ","LANE":"８０巷","ALLEY":" ","HOUSE_NO":"１３號","E_COORD97":180931.86600000001,"N_COORD97":2579330.1243799999,"ADDRESS":"東學路８０巷１３號","OBJECTID":650866},"geometry":{"x":180931.86600000039,"y":2579330.1243760008}},{"attributes":{"ID":650894,"DIS_CODE":0,"TOWNNAME":"新營區","LI":"新東里","LIN":"19鄰","STREET":"東學路","SECT":" ","MAREA":" ","LANE":"８０巷","ALLEY":" ","HOUSE_NO":"１５號","E_COORD97":180938.22246700001,"N_COORD97":2579331.1827099998,"ADDRESS":"東學路８０巷１５號","OBJECTID":650867},"geometry":{"x":180938.2224670006,"y":2579331.1827080008}},{"attributes":{"ID":650895,"DIS_CODE":0,"TOWNNAME":"安平區","LI":"怡平里","LIN":"2鄰","STREET":"建平十七街","SECT":" ","MAREA":" ","LANE":" ","ALLEY":" ","HOUSE_NO":"１６５號","E_COORD97":165753.52947199999,"N_COORD97":2544226.86454,"ADDRESS":"建平十七街１６５號","OBJECTID":650868},"geometry":{"x":165753.52947199997,"y":2544226.8645440023}},{"attributes":{"ID":650896,"DIS_CODE":0,"TOWNNAME":"關廟區","LI":"深坑里","LIN":"3鄰","STREET":"南雄路","SECT":"一段","MAREA":" ","LANE":" ","ALLEY":" ","HOUSE_NO":"３８６號","E_COORD97":181759.00133,"N_COORD97":2537612.9046999998,"ADDRESS":"南雄路一段３８６號","OBJECTID":650869},"geometry":{"x":181759.00133000035,"y":2537612.9046960007}},{"attributes":{"ID":650897,"DIS_CODE":0,"TOWNNAME":"新營區","LI":"新東里","LIN":"19鄰","STREET":"東學路","SECT":" ","MAREA":" ","LANE":"８０巷","ALLEY":" ","HOUSE_NO":"１７號","E_COORD97":180943.09575800001,"N_COORD97":2579331.8177100001,"ADDRESS":"東學路８０巷１７號","OBJECTID":650870},"geometry":{"x":180943.09575800039,"y":2579331.8177080005}},{"attributes":{"ID":650898,"DIS_CODE":0,"TOWNNAME":"新營區","LI":"新東里","LIN":"19鄰","STREET":"東學路","SECT":" ","MAREA":" ","LANE":"８０巷","ALLEY":" ","HOUSE_NO":"１９號","E_COORD97":180948.816578,"N_COORD97":2579332.4527099999,"ADDRESS":"東學路８０巷１９號","OBJECTID":650871},"geometry":{"x":180948.81657800078,"y":2579332.4527079985}},{"attributes":{"ID":650899,"DIS_CODE":0,"TOWNNAME":"七股區","LI":"大埕里","LIN":"9鄰","STREET":" ","SECT":" ","MAREA":"大埕","LANE":" ","ALLEY":" ","HOUSE_NO":"２７７號","E_COORD97":162010.309744,"N_COORD97":2560303.5713300002,"ADDRESS":"大埕２７７號","OBJECTID":650872},"geometry":{"x":162010.30974400137,"y":2560303.5713289995}},{"attributes":{"ID":650900,"DIS_CODE":0,"TOWNNAME":"七股區","LI":"大埕里","LIN":"9鄰","STREET":" ","SECT":" ","MAREA":"大埕","LANE":" ","ALLEY":" ","HOUSE_NO":"２７８號","E_COORD97":162010.097763,"N_COORD97":2560315.42466,"ADDRESS":"大埕２７８號","OBJECTID":650873},"geometry":{"x":162010.09776300099,"y":2560315.424656}},{"attributes":{"ID":650901,"DIS_CODE":0,"TOWNNAME":"新營區","LI":"新東里","LIN":"19鄰","STREET":"東學路","SECT":" ","MAREA":" ","LANE":"８０巷","ALLEY":" ","HOUSE_NO":"２５號","E_COORD97":180938.010584,"N_COORD97":2579321.4460499999,"ADDRESS":"東學路８０巷２５號","OBJECTID":650874},"geometry":{"x":180938.01058399957,"y":2579321.4460470006}},{"attributes":{"ID":650902,"DIS_CODE":0,"TOWNNAME":"新營區","LI":"新東里","LIN":"19鄰","STREET":"東學路","SECT":" ","MAREA":" ","LANE":"８０巷","ALLEY":" ","HOUSE_NO":"２７號","E_COORD97":180933.13729300001,"N_COORD97":2579321.2343799998,"ADDRESS":"東學路８０巷２７號","OBJECTID":650875},"geometry":{"x":180933.13729300164,"y":2579321.2343799993}},{"attributes":{"ID":650903,"DIS_CODE":0,"TOWNNAME":"新營區","LI":"好平里","LIN":"2鄰","STREET":"南昌街","SECT":" ","MAREA":" ","LANE":" ","ALLEY":" ","HOUSE_NO":"２２號","E_COORD97":179676.38471700001,"N_COORD97":2577669.4541199999,"ADDRESS":"南昌街２２號","OBJECTID":650876},"geometry":{"x":179676.38471699879,"y":2577669.4541159999}},{"attributes":{"ID":650904,"DIS_CODE":0,"TOWNNAME":"新營區","LI":"新東里","LIN":"19鄰","STREET":"東學路","SECT":" ","MAREA":" ","LANE":"８０巷","ALLEY":" ","HOUSE_NO":"３１號","E_COORD97":180923.17882900001,"N_COORD97":2579319.9643799998,"ADDRESS":"東學路８０巷３１號","OBJECTID":650877},"geometry":{"x":180923.17882900126,"y":2579319.9643810038}},{"attributes":{"ID":650905,"DIS_CODE":0,"TOWNNAME":"新營區","LI":"新東里","LIN":"19鄰","STREET":"東學路","SECT":" ","MAREA":" ","LANE":"８０巷","ALLEY":" ","HOUSE_NO":"３５號","E_COORD97":180912.584718,"N_COORD97":2579319.9643799998,"ADDRESS":"東學路８０巷３５號","OBJECTID":650878},"geometry":{"x":180912.58471800108,"y":2579319.9643810038}},{"attributes":{"ID":650906,"DIS_CODE":0,"TOWNNAME":"安南區","LI":"城南里","LIN":"12鄰","STREET":"城西街","SECT":"二段","MAREA":" ","LANE":"２４８巷","ALLEY":" ","HOUSE_NO":"１０號","E_COORD97":159739.13422899999,"N_COORD97":2551036.9447900001,"ADDRESS":"城西街二段２４８巷１０號","OBJECTID":650879},"geometry":{"x":159739.13422900066,"y":2551036.944786001}},{"attributes":{"ID":650907,"DIS_CODE":0,"TOWNNAME":"新營區","LI":"新東里","LIN":"19鄰","STREET":"東學路","SECT":" ","MAREA":" ","LANE":"８０巷","ALLEY":" ","HOUSE_NO":"４１號","E_COORD97":180901.77872500001,"N_COORD97":2579297.4218899999,"ADDRESS":"東學路８０巷４１號","OBJECTID":650880},"geometry":{"x":180901.77872500196,"y":2579297.4218930006}},{"attributes":{"ID":650908,"DIS_CODE":0,"TOWNNAME":"佳里區","LI":"鎮山里","LIN":"10鄰","STREET":" ","SECT":" ","MAREA":"鎮山","LANE":" ","ALLEY":" ","HOUSE_NO":"７３號","E_COORD97":166276.787067,"N_COORD97":2561574.73924,"ADDRESS":"鎮山７３號","OBJECTID":650881},"geometry":{"x":166276.78706700075,"y":2561574.7392389998}},{"attributes":{"ID":650909,"DIS_CODE":0,"TOWNNAME":"七股區","LI":"大埕里","LIN":"20鄰","STREET":" ","SECT":" ","MAREA":"大埕","LANE":" ","ALLEY":" ","HOUSE_NO":"２８號之８８","E_COORD97":162010.097763,"N_COORD97":2560315.42466,"ADDRESS":"大埕２８號之８８","OBJECTID":650882},"geometry":{"x":162010.09776300099,"y":2560315.424656}},{"attributes":{"ID":650910,"DIS_CODE":0,"TOWNNAME":"關廟區","LI":"深坑里","LIN":"3鄰","STREET":"南雄路","SECT":"一段","MAREA":" ","LANE":" ","ALLEY":" ","HOUSE_NO":"４２５號","E_COORD97":181746.82237400001,"N_COORD97":2537601.1571999998,"ADDRESS":"南雄路一段４２５號","OBJECTID":650883},"geometry":{"x":181746.82237400115,"y":2537601.1572020017}},{"attributes":{"ID":650911,"DIS_CODE":0,"TOWNNAME":"新營區","LI":"新東里","LIN":"19鄰","STREET":"東學路","SECT":" ","MAREA":" ","LANE":"８０巷","ALLEY":" ","HOUSE_NO":"５３號","E_COORD97":180951.78292900001,"N_COORD97":2579288.5318999998,"ADDRESS":"東學路８０巷５３號","OBJECTID":650884},"geometry":{"x":180951.78292900044,"y":2579288.5318980012}},{"attributes":{"ID":650912,"DIS_CODE":0,"TOWNNAME":"新營區","LI":"好平里","LIN":"2鄰","STREET":"南昌街","SECT":" ","MAREA":" ","LANE":" ","ALLEY":" ","HOUSE_NO":"２２之１號","E_COORD97":179662.186246,"N_COORD97":2577668.3957799999,"ADDRESS":"南昌街２２之１號","OBJECTID":650885},"geometry":{"x":179662.18624600023,"y":2577668.3957830016}},{"attributes":{"ID":650913,"DIS_CODE":0,"TOWNNAME":"新營區","LI":"新東里","LIN":"19鄰","STREET":"東學路","SECT":" ","MAREA":" ","LANE":"８０巷","ALLEY":" ","HOUSE_NO":"５９號","E_COORD97":180921.271889,"N_COORD97":2579288.5318999998,"ADDRESS":"東學路８０巷５９號","OBJECTID":650886},"geometry":{"x":180921.2718890002,"y":2579288.5318980012}},{"attributes":{"ID":650914,"DIS_CODE":0,"TOWNNAME":"七股區","LI":"大埕里","LIN":"20鄰","STREET":" ","SECT":" ","MAREA":"大埕","LANE":" ","ALLEY":" ","HOUSE_NO":"２８號之８８","E_COORD97":163180.235098,"N_COORD97":2561383.7057500002,"ADDRESS":"大埕２８號之８８","OBJECTID":650887},"geometry":{"x":163180.23509799968,"y":2561383.7057460044}},{"attributes":{"ID":650915,"DIS_CODE":0,"TOWNNAME":"麻豆區","LI":"北勢里","LIN":"6鄰","STREET":"新生北路","SECT":" ","MAREA":" ","LANE":" ","ALLEY":" ","HOUSE_NO":"６３１號","E_COORD97":173369.30679999999,"N_COORD97":2565521.1630899999,"ADDRESS":"新生北路６３１號","OBJECTID":650888},"geometry":{"x":173369.30680000223,"y":2565521.1630900018}},{"attributes":{"ID":650916,"DIS_CODE":0,"TOWNNAME":"新營區","LI":"新東里","LIN":"19鄰","STREET":"東學路","SECT":" ","MAREA":" ","LANE":"８０巷","ALLEY":"６弄","HOUSE_NO":"６號","E_COORD97":180878.25979800001,"N_COORD97":2579326.3143799999,"ADDRESS":"東學路８０巷６弄６號","OBJECTID":650889},"geometry":{"x":180878.25979799964,"y":2579326.3143780027}},{"attributes":{"ID":650917,"DIS_CODE":0,"TOWNNAME":"新營區","LI":"新東里","LIN":"19鄰","STREET":"東學路","SECT":" ","MAREA":" ","LANE":"８０巷","ALLEY":"６弄","HOUSE_NO":"８號","E_COORD97":180873.38650699999,"N_COORD97":2579326.5260399999,"ADDRESS":"東學路８０巷６弄８號","OBJECTID":650890},"geometry":{"x":180873.38650699984,"y":2579326.5260439999}},{"attributes":{"ID":650918,"DIS_CODE":0,"TOWNNAME":"麻豆區","LI":"北勢里","LIN":"6鄰","STREET":"新生北路","SECT":" ","MAREA":" ","LANE":" ","ALLEY":" ","HOUSE_NO":"６２７號","E_COORD97":173347.27209000001,"N_COORD97":2565524.3380900002,"ADDRESS":"新生北路６２７號","OBJECTID":650891},"geometry":{"x":173347.27208999917,"y":2565524.3380899988}},{"attributes":{"ID":650919,"DIS_CODE":0,"TOWNNAME":"新營區","LI":"新東里","LIN":"19鄰","STREET":"東學路","SECT":" ","MAREA":" ","LANE":"８０巷","ALLEY":"６弄","HOUSE_NO":"１０號","E_COORD97":180868.725098,"N_COORD97":2579326.3143799999,"ADDRESS":"東學路８０巷６弄１０號","OBJECTID":650892},"geometry":{"x":180868.72509800084,"y":2579326.3143780027}},{"attributes":{"ID":650920,"DIS_CODE":0,"TOWNNAME":"新營區","LI":"新東里","LIN":"19鄰","STREET":"東學路","SECT":" ","MAREA":" ","LANE":"８０巷","ALLEY":"６弄","HOUSE_NO":"１２號","E_COORD97":180863.639925,"N_COORD97":2579326.1027099998,"ADDRESS":"東學路８０巷６弄１２號","OBJECTID":650893},"geometry":{"x":180863.63992500119,"y":2579326.1027110014}},{"attributes":{"ID":650921,"DIS_CODE":0,"TOWNNAME":"新營區","LI":"新東里","LIN":"19鄰","STREET":"東學路","SECT":" ","MAREA":" ","LANE":"８０巷","ALLEY":"６弄","HOUSE_NO":"１６號","E_COORD97":180858.34286899999,"N_COORD97":2579325.6793800001,"ADDRESS":"東學路８０巷６弄１６號","OBJECTID":650894},"geometry":{"x":180858.34286900051,"y":2579325.6793780029}},{"attributes":{"ID":650922,"DIS_CODE":0,"TOWNNAME":"白河區","LI":"崎內里","LIN":"1鄰","STREET":" ","SECT":" ","MAREA":"外崎內","LANE":" ","ALLEY":" ","HOUSE_NO":"１號","E_COORD97":194136.64323399999,"N_COORD97":2586452.8439099998,"ADDRESS":"外崎內１號","OBJECTID":650895},"geometry":{"x":194136.64323400147,"y":2586452.8439080007}},{"attributes":{"ID":650923,"DIS_CODE":0,"TOWNNAME":"新營區","LI":"新東里","LIN":"19鄰","STREET":"東學路","SECT":" ","MAREA":" ","LANE":"８０巷","ALLEY":"６弄","HOUSE_NO":"２０號","E_COORD97":180847.11311199999,"N_COORD97":2579325.46771,"ADDRESS":"東學路８０巷６弄２０號","OBJECTID":650896},"geometry":{"x":180847.11311199982,"y":2579325.4677110016}},{"attributes":{"ID":650924,"DIS_CODE":0,"TOWNNAME":"新營區","LI":"新東里","LIN":"19鄰","STREET":"東學路","SECT":" ","MAREA":" ","LANE":"８０巷","ALLEY":"６弄","HOUSE_NO":"２２號","E_COORD97":180839.909116,"N_COORD97":2579325.6793800001,"ADDRESS":"東學路８０巷６弄２２號","OBJECTID":650897},"geometry":{"x":180839.90911599994,"y":2579325.6793780029}},{"attributes":{"ID":650925,"DIS_CODE":0,"TOWNNAME":"後壁區","LI":"嘉苳里","LIN":"10鄰","STREET":" ","SECT":" ","MAREA":"下茄苳","LANE":" ","ALLEY":" ","HOUSE_NO":"１３２號之２０","E_COORD97":184820.261425,"N_COORD97":2583881.5552599998,"ADDRESS":"下茄苳１３２號之２０","OBJECTID":650898},"geometry":{"x":184820.26142500155,"y":2583881.555261001}},{"attributes":{"ID":650926,"DIS_CODE":0,"TOWNNAME":"仁德區","LI":"二行里","LIN":"15鄰","STREET":"中正西路","SECT":" ","MAREA":" ","LANE":" ","ALLEY":" ","HOUSE_NO":"３１８號","E_COORD97":169988.87674400001,"N_COORD97":2535411.9999600002,"ADDRESS":"中正西路３１８號","OBJECTID":650899},"geometry":{"x":169988.87674400117,"y":2535411.9999580011}},{"attributes":{"ID":650927,"DIS_CODE":0,"TOWNNAME":"關廟區","LI":"深坑里","LIN":"3鄰","STREET":"南雄路","SECT":"一段","MAREA":" ","LANE":"４３３巷","ALLEY":" ","HOUSE_NO":"２１號","E_COORD97":181624.55623700001,"N_COORD97":2537549.56348,"ADDRESS":"南雄路一段４３３巷２１號","OBJECTID":650900},"geometry":{"x":181624.55623700004,"y":2537549.5634800028}},{"attributes":{"ID":650928,"DIS_CODE":0,"TOWNNAME":"新營區","LI":"新東里","LIN":"19鄰","STREET":"東學路","SECT":" ","MAREA":" ","LANE":"８０巷","ALLEY":"６弄","HOUSE_NO":"３號","E_COORD97":180879.31920900001,"N_COORD97":2579313.8260499998,"ADDRESS":"東學路８０巷６弄３號","OBJECTID":650901},"geometry":{"x":180879.31920900103,"y":2579313.8260510005}},{"attributes":{"ID":650929,"DIS_CODE":0,"TOWNNAME":"新營區","LI":"新東里","LIN":"19鄰","STREET":"東學路","SECT":" ","MAREA":" ","LANE":"８０巷","ALLEY":"６弄","HOUSE_NO":"５號","E_COORD97":180874.23403600001,"N_COORD97":2579314.0377199999,"ADDRESS":"東學路８０巷６弄５號","OBJECTID":650902},"geometry":{"x":180874.23403600138,"y":2579314.0377180018}},{"attributes":{"ID":650930,"DIS_CODE":0,"TOWNNAME":"新營區","LI":"新東里","LIN":"19鄰","STREET":"東學路","SECT":" ","MAREA":" ","LANE":"８０巷","ALLEY":"６弄","HOUSE_NO":"７號","E_COORD97":180869.78450899999,"N_COORD97":2579313.8260499998,"ADDRESS":"東學路８０巷６弄７號","OBJECTID":650903},"geometry":{"x":180869.78450900037,"y":2579313.8260510005}},{"attributes":{"ID":650931,"DIS_CODE":0,"TOWNNAME":"新營區","LI":"好平里","LIN":"2鄰","STREET":"南昌街","SECT":" ","MAREA":" ","LANE":" ","ALLEY":" ","HOUSE_NO":"２６之８號","E_COORD97":179620.438502,"N_COORD97":2577667.1257799999,"ADDRESS":"南昌街２６之８號","OBJECTID":650904},"geometry":{"x":179620.43850200064,"y":2577667.1257840004}},{"attributes":{"ID":650932,"DIS_CODE":0,"TOWNNAME":"新營區","LI":"新東里","LIN":"19鄰","STREET":"東學路","SECT":" ","MAREA":" ","LANE":"８０巷","ALLEY":"６弄","HOUSE_NO":"９號","E_COORD97":180864.69933599999,"N_COORD97":2579313.6143899998,"ADDRESS":"東學路８０巷６弄９號","OBJECTID":650905},"geometry":{"x":180864.69933600072,"y":2579313.6143849995}},{"attributes":{"ID":650933,"DIS_CODE":0,"TOWNNAME":"東山區","LI":"東原里","LIN":"15鄰","STREET":" ","SECT":" ","MAREA":"瓦厝子","LANE":" ","ALLEY":" ","HOUSE_NO":"６號之１４","E_COORD97":193678.97591099999,"N_COORD97":2574286.1203299998,"ADDRESS":"瓦厝子６號之１４","OBJECTID":650906},"geometry":{"x":193678.97591100074,"y":2574286.1203340013}},{"attributes":{"ID":650934,"DIS_CODE":0,"TOWNNAME":"安平區","LI":"怡平里","LIN":"11鄰","STREET":"建平十二街","SECT":" ","MAREA":" ","LANE":" ","ALLEY":" ","HOUSE_NO":"１３５號之１","E_COORD97":165720.048083,"N_COORD97":2544006.0963300001,"ADDRESS":"建平十二街１３５號之１","OBJECTID":650907},"geometry":{"x":165720.04808300082,"y":2544006.096330002}},{"attributes":{"ID":650935,"DIS_CODE":0,"TOWNNAME":"新營區","LI":"好平里","LIN":"2鄰","STREET":"南昌街","SECT":" ","MAREA":" ","LANE":" ","ALLEY":" ","HOUSE_NO":"２６之９號","E_COORD97":179615.14056500001,"N_COORD97":2577667.33745,"ADDRESS":"南昌街２６之９號","OBJECTID":650908},"geometry":{"x":179615.14056500047,"y":2577667.3374510016}},{"attributes":{"ID":650936,"DIS_CODE":0,"TOWNNAME":"安平區","LI":"怡平里","LIN":"11鄰","STREET":"建平十二街","SECT":" ","MAREA":" ","LANE":" ","ALLEY":" ","HOUSE_NO":"１３５號之２","E_COORD97":165720.048083,"N_COORD97":2544006.0963300001,"ADDRESS":"建平十二街１３５號之２","OBJECTID":650909},"geometry":{"x":165720.04808300082,"y":2544006.096330002}},{"attributes":{"ID":650937,"DIS_CODE":0,"TOWNNAME":"新營區","LI":"新東里","LIN":"19鄰","STREET":"東學路","SECT":" ","MAREA":" ","LANE":"８０巷","ALLEY":"６弄","HOUSE_NO":"１１號","E_COORD97":180860.461691,"N_COORD97":2579313.6143899998,"ADDRESS":"東學路８０巷６弄１１號","OBJECTID":650910},"geometry":{"x":180860.4616910005,"y":2579313.6143849995}},{"attributes":{"ID":650938,"DIS_CODE":0,"TOWNNAME":"安平區","LI":"怡平里","LIN":"11鄰","STREET":"建平十二街","SECT":" ","MAREA":" ","LANE":" ","ALLEY":" ","HOUSE_NO":"１３５號之３","E_COORD97":165720.048083,"N_COORD97":2544006.0963300001,"ADDRESS":"建平十二街１３５號之３","OBJECTID":650911},"geometry":{"x":165720.04808300082,"y":2544006.096330002}},{"attributes":{"ID":650939,"DIS_CODE":0,"TOWNNAME":"安平區","LI":"怡平里","LIN":"11鄰","STREET":"建平十二街","SECT":" ","MAREA":" ","LANE":" ","ALLEY":" ","HOUSE_NO":"１３５號之４","E_COORD97":165720.048083,"N_COORD97":2544006.0963300001,"ADDRESS":"建平十二街１３５號之４","OBJECTID":650912},"geometry":{"x":165720.04808300082,"y":2544006.096330002}},{"attributes":{"ID":650940,"DIS_CODE":0,"TOWNNAME":"新營區","LI":"新東里","LIN":"19鄰","STREET":"東學路","SECT":" ","MAREA":" ","LANE":"８０巷","ALLEY":"６弄","HOUSE_NO":"１３號","E_COORD97":180855.164636,"N_COORD97":2579313.19105,"ADDRESS":"東學路８０巷６弄１３號","OBJECTID":650913},"geometry":{"x":180855.16463600099,"y":2579313.1910510007}},{"attributes":{"ID":650941,"DIS_CODE":0,"TOWNNAME":"安平區","LI":"怡平里","LIN":"11鄰","STREET":"建平十二街","SECT":" ","MAREA":" ","LANE":" ","ALLEY":" ","HOUSE_NO":"１３５號之５","E_COORD97":165720.048083,"N_COORD97":2544006.0963300001,"ADDRESS":"建平十二街１３５號之５","OBJECTID":650914},"geometry":{"x":165720.04808300082,"y":2544006.096330002}},{"attributes":{"ID":650942,"DIS_CODE":0,"TOWNNAME":"新營區","LI":"好平里","LIN":"2鄰","STREET":"南昌街","SECT":" ","MAREA":" ","LANE":" ","ALLEY":" ","HOUSE_NO":"２６之１０號","E_COORD97":179610.26646300001,"N_COORD97":2577666.4907800001,"ADDRESS":"南昌街２６之１０號","OBJECTID":650915},"geometry":{"x":179610.26646300033,"y":2577666.4907840006}},{"attributes":{"ID":650943,"DIS_CODE":0,"TOWNNAME":"安平區","LI":"怡平里","LIN":"11鄰","STREET":"建平十二街","SECT":" ","MAREA":" ","LANE":" ","ALLEY":" ","HOUSE_NO":"１３５號之６","E_COORD97":165720.048083,"N_COORD97":2544006.0963300001,"ADDRESS":"建平十二街１３５號之６","OBJECTID":650916},"geometry":{"x":165720.04808300082,"y":2544006.096330002}},{"attributes":{"ID":650944,"DIS_CODE":0,"TOWNNAME":"仁德區","LI":"二行里","LIN":"15鄰","STREET":"中正西路","SECT":" ","MAREA":" ","LANE":" ","ALLEY":" ","HOUSE_NO":"２６９號","E_COORD97":169953.585594,"N_COORD97":2535384.0599699998,"ADDRESS":"中正西路２６９號","OBJECTID":650917},"geometry":{"x":169953.58559400029,"y":2535384.0599730015}},{"attributes":{"ID":650945,"DIS_CODE":0,"TOWNNAME":"新營區","LI":"新東里","LIN":"19鄰","STREET":"東學路","SECT":" ","MAREA":" ","LANE":"８０巷","ALLEY":"６弄","HOUSE_NO":"１５號","E_COORD97":180849.65569799999,"N_COORD97":2579312.7677199999,"ADDRESS":"東學路８０巷６弄１５號","OBJECTID":650918},"geometry":{"x":180849.65569800138,"y":2579312.7677180022}},{"attributes":{"ID":650946,"DIS_CODE":0,"TOWNNAME":"新營區","LI":"新東里","LIN":"19鄰","STREET":"東學路","SECT":" ","MAREA":" ","LANE":"８０巷","ALLEY":"６弄","HOUSE_NO":"１７號","E_COORD97":180844.99428899999,"N_COORD97":2579312.3443800001,"ADDRESS":"東學路８０巷６弄１７號","OBJECTID":650919},"geometry":{"x":180844.99428900052,"y":2579312.3443849999}},{"attributes":{"ID":650947,"DIS_CODE":0,"TOWNNAME":"安平區","LI":"怡平里","LIN":"12鄰","STREET":"建平十二街","SECT":" ","MAREA":" ","LANE":" ","ALLEY":" ","HOUSE_NO":"１４５號之１","E_COORD97":165679.997561,"N_COORD97":2544012.2346600001,"ADDRESS":"建平十二街１４５號之１","OBJECTID":650920},"geometry":{"x":165679.99756100029,"y":2544012.2346599996}},{"attributes":{"ID":650948,"DIS_CODE":0,"TOWNNAME":"新營區","LI":"好平里","LIN":"3鄰","STREET":"武侯街","SECT":" ","MAREA":" ","LANE":" ","ALLEY":" ","HOUSE_NO":"１９號","E_COORD97":179638.23957000001,"N_COORD97":2577764.1749,"ADDRESS":"武侯街１９號","OBJECTID":650921},"geometry":{"x":179638.23956999928,"y":2577764.1748980023}},{"attributes":{"ID":650949,"DIS_CODE":0,"TOWNNAME":"安平區","LI":"怡平里","LIN":"12鄰","STREET":"建平十二街","SECT":" ","MAREA":" ","LANE":" ","ALLEY":" ","HOUSE_NO":"１４５號之２","E_COORD97":165679.997561,"N_COORD97":2544012.2346600001,"ADDRESS":"建平十二街１４５號之２","OBJECTID":650922},"geometry":{"x":165679.99756100029,"y":2544012.2346599996}},{"attributes":{"ID":650950,"DIS_CODE":0,"TOWNNAME":"安平區","LI":"怡平里","LIN":"12鄰","STREET":"建平十二街","SECT":" ","MAREA":" ","LANE":" ","ALLEY":" ","HOUSE_NO":"１４５號之３","E_COORD97":165679.997561,"N_COORD97":2544012.2346600001,"ADDRESS":"建平十二街１４５號之３","OBJECTID":650923},"geometry":{"x":165679.99756100029,"y":2544012.2346599996}},{"attributes":{"ID":650951,"DIS_CODE":0,"TOWNNAME":"安平區","LI":"怡平里","LIN":"9鄰","STREET":"建平十二街","SECT":" ","MAREA":" ","LANE":"１４８巷","ALLEY":" ","HOUSE_NO":"１０號","E_COORD97":165793.579994,"N_COORD97":2544065.5746300002,"ADDRESS":"建平十二街１４８巷１０號","OBJECTID":650924},"geometry":{"x":165793.57999399956,"y":2544065.5746309981}},{"attributes":{"ID":650952,"DIS_CODE":0,"TOWNNAME":"安平區","LI":"怡平里","LIN":"9鄰","STREET":"建平十二街","SECT":" ","MAREA":" ","LANE":"１４８巷","ALLEY":" ","HOUSE_NO":"１６號之１","E_COORD97":165795.91097699999,"N_COORD97":2544081.8729599998,"ADDRESS":"建平十二街１４８巷１６號之１","OBJECTID":650925},"geometry":{"x":165795.91097700037,"y":2544081.872955}},{"attributes":{"ID":650953,"DIS_CODE":0,"TOWNNAME":"安平區","LI":"怡平里","LIN":"9鄰","STREET":"建平十二街","SECT":" ","MAREA":" ","LANE":"１４８巷","ALLEY":" ","HOUSE_NO":"１６號之２","E_COORD97":165795.91097699999,"N_COORD97":2544081.8729599998,"ADDRESS":"建平十二街１４８巷１６號之２","OBJECTID":650926},"geometry":{"x":165795.91097700037,"y":2544081.872955}},{"attributes":{"ID":650954,"DIS_CODE":0,"TOWNNAME":"仁德區","LI":"二行里","LIN":"15鄰","STREET":"中正西路","SECT":" ","MAREA":" ","LANE":"３５３巷","ALLEY":"１８弄","HOUSE_NO":"１６號","E_COORD97":169762.769635,"N_COORD97":2535286.5875300001,"ADDRESS":"中正西路３５３巷１８弄１６號","OBJECTID":650927},"geometry":{"x":169762.7696350012,"y":2535286.5875260029}},{"attributes":{"ID":650955,"DIS_CODE":0,"TOWNNAME":"仁德區","LI":"土庫里","LIN":"13鄰","STREET":"土庫路","SECT":" ","MAREA":" ","LANE":" ","ALLEY":" ","HOUSE_NO":"２２３號","E_COORD97":174216.19244399999,"N_COORD97":2542815.5703199999,"ADDRESS":"土庫路２２３號","OBJECTID":650928},"geometry":{"x":174216.19244400132,"y":2542815.5703170002}},{"attributes":{"ID":650956,"DIS_CODE":0,"TOWNNAME":"七股區","LI":"大埕里","LIN":"8鄰","STREET":" ","SECT":" ","MAREA":"大埕","LANE":" ","ALLEY":" ","HOUSE_NO":"２０３號","E_COORD97":162259.17590900001,"N_COORD97":2560695.78945,"ADDRESS":"大埕２０３號","OBJECTID":650929},"geometry":{"x":162259.17590900045,"y":2560695.7894510031}},{"attributes":{"ID":650957,"DIS_CODE":0,"TOWNNAME":"東山區","LI":"東原里","LIN":"15鄰","STREET":" ","SECT":" ","MAREA":"瓦厝子","LANE":" ","ALLEY":" ","HOUSE_NO":"６號之１１","E_COORD97":193689.35539000001,"N_COORD97":2574284.0047200001,"ADDRESS":"瓦厝子６號之１１","OBJECTID":650930},"geometry":{"x":193689.35539000016,"y":2574284.0047200006}},{"attributes":{"ID":650958,"DIS_CODE":0,"TOWNNAME":"關廟區","LI":"南花里","LIN":"10鄰","STREET":"四維街","SECT":" ","MAREA":" ","LANE":"２０９巷","ALLEY":" ","HOUSE_NO":"２號","E_COORD97":181833.28761900001,"N_COORD97":2540136.0879799998,"ADDRESS":"四維街２０９巷２號","OBJECTID":650931},"geometry":{"x":181833.2876190003,"y":2540136.0879760012}},{"attributes":{"ID":650959,"DIS_CODE":0,"TOWNNAME":"安平區","LI":"怡平里","LIN":"9鄰","STREET":"慶平路","SECT":" ","MAREA":" ","LANE":" ","ALLEY":" ","HOUSE_NO":"１９１之１號之２","E_COORD97":165813.499301,"N_COORD97":2544167.3862399999,"ADDRESS":"慶平路１９１之１號之２","OBJECTID":650932},"geometry":{"x":165813.4993010005,"y":2544167.3862430006}},{"attributes":{"ID":650960,"DIS_CODE":0,"TOWNNAME":"關廟區","LI":"南花里","LIN":"10鄰","STREET":"四維街","SECT":" ","MAREA":" ","LANE":"２０９巷","ALLEY":" ","HOUSE_NO":"１１號","E_COORD97":181810.39801,"N_COORD97":2540104.9729900002,"ADDRESS":"四維街２０９巷１１號","OBJECTID":650933},"geometry":{"x":181810.39801000059,"y":2540104.9729930032}},{"attributes":{"ID":650961,"DIS_CODE":0,"TOWNNAME":"新營區","LI":"好平里","LIN":"3鄰","STREET":"武侯街","SECT":" ","MAREA":" ","LANE":" ","ALLEY":" ","HOUSE_NO":"１９號之１","E_COORD97":179636.75614799999,"N_COORD97":2577768.1965600001,"ADDRESS":"武侯街１９號之１","OBJECTID":650934},"geometry":{"x":179636.75614800118,"y":2577768.1965630017}},{"attributes":{"ID":650962,"DIS_CODE":0,"TOWNNAME":"七股區","LI":"大埕里","LIN":"8鄰","STREET":" ","SECT":" ","MAREA":"大埕","LANE":" ","ALLEY":" ","HOUSE_NO":"２０１號","E_COORD97":162290.973119,"N_COORD97":2560671.4478000002,"ADDRESS":"大埕２０１號","OBJECTID":650935},"geometry":{"x":162290.97311899997,"y":2560671.4477970004}},{"attributes":{"ID":650963,"DIS_CODE":0,"TOWNNAME":"七股區","LI":"大埕里","LIN":"8鄰","STREET":" ","SECT":" ","MAREA":"大埕","LANE":" ","ALLEY":" ","HOUSE_NO":"２０４號","E_COORD97":162242.64136000001,"N_COORD97":2560714.8394399998,"ADDRESS":"大埕２０４號","OBJECTID":650936},"geometry":{"x":162242.64135999978,"y":2560714.8394409996}},{"attributes":{"ID":650964,"DIS_CODE":0,"TOWNNAME":"新營區","LI":"好平里","LIN":"3鄰","STREET":"武侯街","SECT":" ","MAREA":" ","LANE":" ","ALLEY":" ","HOUSE_NO":"１９號之２","E_COORD97":179635.855499,"N_COORD97":2577772.77385,"ADDRESS":"武侯街１９號之２","OBJECTID":650937},"geometry":{"x":179635.85549900122,"y":2577772.773852}},{"attributes":{"ID":650965,"DIS_CODE":0,"TOWNNAME":"七股區","LI":"大埕里","LIN":"8鄰","STREET":" ","SECT":" ","MAREA":"大埕","LANE":" ","ALLEY":" ","HOUSE_NO":"２０７號","E_COORD97":162161.92944099999,"N_COORD97":2560704.0709099998,"ADDRESS":"大埕２０７號","OBJECTID":650938},"geometry":{"x":162161.9294409994,"y":2560704.0709050018}},{"attributes":{"ID":650966,"DIS_CODE":0,"TOWNNAME":"關廟區","LI":"南花里","LIN":"10鄰","STREET":"明德街","SECT":" ","MAREA":" ","LANE":" ","ALLEY":" ","HOUSE_NO":"２８號","E_COORD97":181793.018862,"N_COORD97":2540087.6163400002,"ADDRESS":"明德街２８號","OBJECTID":650939},"geometry":{"x":181793.01886199974,"y":2540087.6163359992}},{"attributes":{"ID":650967,"DIS_CODE":0,"TOWNNAME":"後壁區","LI":"嘉苳里","LIN":"10鄰","STREET":" ","SECT":" ","MAREA":"下茄苳","LANE":" ","ALLEY":" ","HOUSE_NO":"１２９號之５","E_COORD97":183425.78230300001,"N_COORD97":2584245.8459700001,"ADDRESS":"下茄苳１２９號之５","OBJECTID":650940},"geometry":{"x":183425.78230299987,"y":2584245.845966002}},{"attributes":{"ID":650968,"DIS_CODE":0,"TOWNNAME":"七股區","LI":"大埕里","LIN":"8鄰","STREET":" ","SECT":" ","MAREA":"大埕","LANE":" ","ALLEY":" ","HOUSE_NO":"２０９號","E_COORD97":162132.67600800001,"N_COORD97":2560700.2609100002,"ADDRESS":"大埕２０９號","OBJECTID":650941},"geometry":{"x":162132.67600800004,"y":2560700.2609070037}},{"attributes":{"ID":650969,"DIS_CODE":0,"TOWNNAME":"仁德區","LI":"土庫里","LIN":"14鄰","STREET":"土庫路","SECT":" ","MAREA":" ","LANE":" ","ALLEY":" ","HOUSE_NO":"１５３之１號","E_COORD97":174363.55069,"N_COORD97":2543055.89383,"ADDRESS":"土庫路１５３之１號","OBJECTID":650942},"geometry":{"x":174363.55068999995,"y":2543055.8938300014}},{"attributes":{"ID":650970,"DIS_CODE":0,"TOWNNAME":"新營區","LI":"好平里","LIN":"3鄰","STREET":"長春街","SECT":" ","MAREA":" ","LANE":" ","ALLEY":" ","HOUSE_NO":"６１號","E_COORD97":179613.445225,"N_COORD97":2577830.00452,"ADDRESS":"長春街６１號","OBJECTID":650943},"geometry":{"x":179613.44522500131,"y":2577830.0045219995}},{"attributes":{"ID":650971,"DIS_CODE":0,"TOWNNAME":"仁德區","LI":"二行里","LIN":"15鄰","STREET":"中正西路","SECT":" ","MAREA":" ","LANE":" ","ALLEY":" ","HOUSE_NO":"３５６號","E_COORD97":169796.52408199999,"N_COORD97":2535418.1488700002,"ADDRESS":"中正西路３５６號","OBJECTID":650944},"geometry":{"x":169796.52408200037,"y":2535418.1488710009}},{"attributes":{"ID":650972,"DIS_CODE":0,"TOWNNAME":"新營區","LI":"好平里","LIN":"3鄰","STREET":"長春街","SECT":" ","MAREA":" ","LANE":" ","ALLEY":" ","HOUSE_NO":"６３號","E_COORD97":179609.206875,"N_COORD97":2577828.7345199999,"ADDRESS":"長春街６３號","OBJECTID":650945},"geometry":{"x":179609.20687500108,"y":2577828.7345230039}},{"attributes":{"ID":650973,"DIS_CODE":0,"TOWNNAME":"新營區","LI":"好平里","LIN":"3鄰","STREET":"長春街","SECT":" ","MAREA":" ","LANE":" ","ALLEY":" ","HOUSE_NO":"６５號","E_COORD97":179604.756608,"N_COORD97":2577828.0995200002,"ADDRESS":"長春街６５號","OBJECTID":650946},"geometry":{"x":179604.75660800096,"y":2577828.0995230041}},{"attributes":{"ID":650974,"DIS_CODE":0,"TOWNNAME":"新營區","LI":"好平里","LIN":"3鄰","STREET":"長春街","SECT":" ","MAREA":" ","LANE":" ","ALLEY":" ","HOUSE_NO":"６７之１號","E_COORD97":179601.36592899999,"N_COORD97":2577828.0995200002,"ADDRESS":"長春街６７之１號","OBJECTID":650947},"geometry":{"x":179601.36592900008,"y":2577828.0995230041}},{"attributes":{"ID":650975,"DIS_CODE":0,"TOWNNAME":"新營區","LI":"好平里","LIN":"3鄰","STREET":"長春街","SECT":" ","MAREA":" ","LANE":" ","ALLEY":" ","HOUSE_NO":"６７號","E_COORD97":179597.55141399999,"N_COORD97":2577827.0411899998,"ADDRESS":"長春街６７號","OBJECTID":650948},"geometry":{"x":179597.55141399987,"y":2577827.0411910005}},{"attributes":{"ID":650976,"DIS_CODE":0,"TOWNNAME":"白河區","LI":"內角里","LIN":"9鄰","STREET":"內角","SECT":" ","MAREA":" ","LANE":" ","ALLEY":" ","HOUSE_NO":"１１１之１８號","E_COORD97":192625.71392899999,"N_COORD97":2588940.2656800002,"ADDRESS":"內角１１１之１８號","OBJECTID":650949},"geometry":{"x":192625.71392900031,"y":2588940.2656820007}},{"attributes":{"ID":650977,"DIS_CODE":0,"TOWNNAME":"仁德區","LI":"二行里","LIN":"15鄰","STREET":"中正西路","SECT":" ","MAREA":" ","LANE":"３６０巷","ALLEY":" ","HOUSE_NO":"６０號","E_COORD97":169761.86881000001,"N_COORD97":2535529.0621400001,"ADDRESS":"中正西路３６０巷６０號","OBJECTID":650950},"geometry":{"x":169761.86881000083,"y":2535529.0621450022}},{"attributes":{"ID":650978,"DIS_CODE":0,"TOWNNAME":"後壁區","LI":"菁豊里","LIN":"9鄰","STREET":" ","SECT":" ","MAREA":"前菁寮","LANE":" ","ALLEY":" ","HOUSE_NO":"１０６之２０號","E_COORD97":183589.18298300001,"N_COORD97":2586512.93677,"ADDRESS":"前菁寮１０６之２０號","OBJECTID":650951},"geometry":{"x":183589.18298300076,"y":2586512.9367680009}},{"attributes":{"ID":650979,"DIS_CODE":0,"TOWNNAME":"仁德區","LI":"二行里","LIN":"15鄰","STREET":"行大二街","SECT":" ","MAREA":" ","LANE":" ","ALLEY":" ","HOUSE_NO":"２３號","E_COORD97":169707.91468300001,"N_COORD97":2535302.7800199999,"ADDRESS":"行大二街２３號","OBJECTID":650952},"geometry":{"x":169707.91468300205,"y":2535302.7800170034}},{"attributes":{"ID":650980,"DIS_CODE":0,"TOWNNAME":"新營區","LI":"好平里","LIN":"3鄰","STREET":"新進路","SECT":"二段","MAREA":" ","LANE":" ","ALLEY":" ","HOUSE_NO":"８８號","E_COORD97":179534.504636,"N_COORD97":2577748.4070700002,"ADDRESS":"新進路二段８８號","OBJECTID":650953},"geometry":{"x":179534.50463599991,"y":2577748.4070660006}},{"attributes":{"ID":650981,"DIS_CODE":0,"TOWNNAME":"仁德區","LI":"二行里","LIN":"15鄰","STREET":"行大二街","SECT":" ","MAREA":" ","LANE":" ","ALLEY":" ","HOUSE_NO":"２９號","E_COORD97":169733.77366400001,"N_COORD97":2535296.2183500002,"ADDRESS":"行大二街２９號","OBJECTID":650954},"geometry":{"x":169733.77366400138,"y":2535296.2183540016}},{"attributes":{"ID":650982,"DIS_CODE":0,"TOWNNAME":"七股區","LI":"大埕里","LIN":"7鄰","STREET":" ","SECT":" ","MAREA":"大埕","LANE":" ","ALLEY":" ","HOUSE_NO":"２２９號","E_COORD97":162197.78935199999,"N_COORD97":2560684.7469600001,"ADDRESS":"大埕２２９號","OBJECTID":650955},"geometry":{"x":162197.78935200069,"y":2560684.7469599992}},{"attributes":{"ID":650983,"DIS_CODE":0,"TOWNNAME":"關廟區","LI":"南花里","LIN":"11鄰","STREET":"明德街","SECT":" ","MAREA":" ","LANE":"１５巷","ALLEY":"９弄","HOUSE_NO":"９號","E_COORD97":181841.34137000001,"N_COORD97":2540026.4260499999,"ADDRESS":"明德街１５巷９弄９號","OBJECTID":650956},"geometry":{"x":181841.34136999957,"y":2540026.426047001}},{"attributes":{"ID":650984,"DIS_CODE":0,"TOWNNAME":"仁德區","LI":"土庫里","LIN":"21鄰","STREET":"太子二街","SECT":" ","MAREA":" ","LANE":" ","ALLEY":" ","HOUSE_NO":"１２０號","E_COORD97":174479.18763500001,"N_COORD97":2543301.5090100002,"ADDRESS":"太子二街１２０號","OBJECTID":650957},"geometry":{"x":174479.1876350008,"y":2543301.5090120006}},{"attributes":{"ID":650985,"DIS_CODE":0,"TOWNNAME":"仁德區","LI":"二行里","LIN":"15鄰","STREET":"行大二街","SECT":" ","MAREA":" ","LANE":" ","ALLEY":" ","HOUSE_NO":"３３號","E_COORD97":169703.51653699999,"N_COORD97":2535292.1966900001,"ADDRESS":"行大二街３３號","OBJECTID":650958},"geometry":{"x":169703.51653700043,"y":2535292.1966890022}},{"attributes":{"ID":650986,"DIS_CODE":0,"TOWNNAME":"安平區","LI":"怡平里","LIN":"4鄰","STREET":"華平路","SECT":" ","MAREA":" ","LANE":" ","ALLEY":" ","HOUSE_NO":"６９６號地下一層","E_COORD97":165529.45199,"N_COORD97":2544201.0118,"ADDRESS":"華平路６９６號地下一層","OBJECTID":650959},"geometry":{"x":165529.4519900009,"y":2544201.0118000004}},{"attributes":{"ID":650987,"DIS_CODE":0,"TOWNNAME":"安平區","LI":"怡平里","LIN":"4鄰","STREET":"華平路","SECT":" ","MAREA":" ","LANE":" ","ALLEY":" ","HOUSE_NO":"６９６號地下一層之１","E_COORD97":165529.45199,"N_COORD97":2544201.0118,"ADDRESS":"華平路６９６號地下一層之１","OBJECTID":650960},"geometry":{"x":165529.4519900009,"y":2544201.0118000004}},{"attributes":{"ID":650988,"DIS_CODE":0,"TOWNNAME":"佳里區","LI":"佳化里","LIN":"7鄰","STREET":" ","SECT":" ","MAREA":"佳里興","LANE":" ","ALLEY":" ","HOUSE_NO":"６５號","E_COORD97":167523.79174399999,"N_COORD97":2565116.1377599998,"ADDRESS":"佳里興６５號","OBJECTID":650961},"geometry":{"x":167523.79174400028,"y":2565116.1377580035}},{"attributes":{"ID":650989,"DIS_CODE":0,"TOWNNAME":"安平區","LI":"怡平里","LIN":"4鄰","STREET":"華平路","SECT":" ","MAREA":" ","LANE":" ","ALLEY":" ","HOUSE_NO":"６９６號地下一層之２","E_COORD97":165529.45199,"N_COORD97":2544201.0118,"ADDRESS":"華平路６９６號地下一層之２","OBJECTID":650962},"geometry":{"x":165529.4519900009,"y":2544201.0118000004}},{"attributes":{"ID":650990,"DIS_CODE":0,"TOWNNAME":"七股區","LI":"大埕里","LIN":"7鄰","STREET":" ","SECT":" ","MAREA":"大埕","LANE":" ","ALLEY":" ","HOUSE_NO":"２２６號","E_COORD97":162149.66957299999,"N_COORD97":2560673.1052999999,"ADDRESS":"大埕２２６號","OBJECTID":650963},"geometry":{"x":162149.66957300063,"y":2560673.1052990016}},{"attributes":{"ID":650991,"DIS_CODE":0,"TOWNNAME":"安平區","LI":"怡平里","LIN":"4鄰","STREET":"華平路","SECT":" ","MAREA":" ","LANE":" ","ALLEY":" ","HOUSE_NO":"６９６號地下一層之３","E_COORD97":165529.45199,"N_COORD97":2544201.0118,"ADDRESS":"華平路６９６號地下一層之３","OBJECTID":650964},"geometry":{"x":165529.4519900009,"y":2544201.0118000004}},{"attributes":{"ID":650992,"DIS_CODE":0,"TOWNNAME":"安平區","LI":"怡平里","LIN":"4鄰","STREET":"華平路","SECT":" ","MAREA":" ","LANE":" ","ALLEY":" ","HOUSE_NO":"６９６號地下一層之４","E_COORD97":165529.45199,"N_COORD97":2544201.0118,"ADDRESS":"華平路６９６號地下一層之４","OBJECTID":650965},"geometry":{"x":165529.4519900009,"y":2544201.0118000004}},{"attributes":{"ID":650993,"DIS_CODE":0,"TOWNNAME":"安平區","LI":"怡平里","LIN":"4鄰","STREET":"華平路","SECT":" ","MAREA":" ","LANE":" ","ALLEY":" ","HOUSE_NO":"６９６號地下一層之５","E_COORD97":165529.45199,"N_COORD97":2544201.0118,"ADDRESS":"華平路６９６號地下一層之５","OBJECTID":650966},"geometry":{"x":165529.4519900009,"y":2544201.0118000004}},{"attributes":{"ID":650994,"DIS_CODE":0,"TOWNNAME":"安平區","LI":"怡平里","LIN":"4鄰","STREET":"華平路","SECT":" ","MAREA":" ","LANE":" ","ALLEY":" ","HOUSE_NO":"６９６號地下一層之６","E_COORD97":165529.45199,"N_COORD97":2544201.0118,"ADDRESS":"華平路６９６號地下一層之６","OBJECTID":650967},"geometry":{"x":165529.4519900009,"y":2544201.0118000004}},{"attributes":{"ID":650995,"DIS_CODE":0,"TOWNNAME":"安平區","LI":"怡平里","LIN":"4鄰","STREET":"華平路","SECT":" ","MAREA":" ","LANE":" ","ALLEY":" ","HOUSE_NO":"６９６號地下一層之７","E_COORD97":165529.45199,"N_COORD97":2544201.0118,"ADDRESS":"華平路６９６號地下一層之７","OBJECTID":650968},"geometry":{"x":165529.4519900009,"y":2544201.0118000004}},{"attributes":{"ID":650996,"DIS_CODE":0,"TOWNNAME":"安平區","LI":"怡平里","LIN":"4鄰","STREET":"華平路","SECT":" ","MAREA":" ","LANE":" ","ALLEY":" ","HOUSE_NO":"６９６號地下一層之８","E_COORD97":165529.45199,"N_COORD97":2544201.0118,"ADDRESS":"華平路６９６號地下一層之８","OBJECTID":650969},"geometry":{"x":165529.4519900009,"y":2544201.0118000004}},{"attributes":{"ID":650997,"DIS_CODE":0,"TOWNNAME":"安平區","LI":"怡平里","LIN":"4鄰","STREET":"華平路","SECT":" ","MAREA":" ","LANE":" ","ALLEY":" ","HOUSE_NO":"６９６號地下一層之９","E_COORD97":165529.45199,"N_COORD97":2544201.0118,"ADDRESS":"華平路６９６號地下一層之９","OBJECTID":650970},"geometry":{"x":165529.4519900009,"y":2544201.0118000004}},{"attributes":{"ID":650998,"DIS_CODE":0,"TOWNNAME":"安平區","LI":"怡平里","LIN":"4鄰","STREET":"華平路","SECT":" ","MAREA":" ","LANE":" ","ALLEY":" ","HOUSE_NO":"６９６號地下一層之１","E_COORD97":165529.45199,"N_COORD97":2544201.0118,"ADDRESS":"華平路６９６號地下一層之１０","OBJECTID":650971},"geometry":{"x":165529.4519900009,"y":2544201.0118000004}},{"attributes":{"ID":650999,"DIS_CODE":0,"TOWNNAME":"安平區","LI":"怡平里","LIN":"4鄰","STREET":"華平路","SECT":" ","MAREA":" ","LANE":" ","ALLEY":" ","HOUSE_NO":"６９６號地下一層之１","E_COORD97":165529.45199,"N_COORD97":2544201.0118,"ADDRESS":"華平路６９６號地下一層之１１","OBJECTID":650972},"geometry":{"x":165529.4519900009,"y":2544201.0118000004}},{"attributes":{"ID":651000,"DIS_CODE":0,"TOWNNAME":"佳里區","LI":"佳化里","LIN":"7鄰","STREET":" ","SECT":" ","MAREA":"佳里興","LANE":" ","ALLEY":" ","HOUSE_NO":"６３號之１","E_COORD97":167511.291566,"N_COORD97":2565190.2210499998,"ADDRESS":"佳里興６３號之１","OBJECTID":650973},"geometry":{"x":167511.29156600125,"y":2565190.2210520022}},{"attributes":{"ID":651001,"DIS_CODE":0,"TOWNNAME":"安平區","LI":"怡平里","LIN":"4鄰","STREET":"華平路","SECT":" ","MAREA":" ","LANE":" ","ALLEY":" ","HOUSE_NO":"６９６號地下一層之１","E_COORD97":165529.45199,"N_COORD97":2544201.0118,"ADDRESS":"華平路６９６號地下一層之１２","OBJECTID":650974},"geometry":{"x":165529.4519900009,"y":2544201.0118000004}},{"attributes":{"ID":651002,"DIS_CODE":0,"TOWNNAME":"楠西區","LI":"龜丹里","LIN":"3鄰","STREET":" ","SECT":" ","MAREA":"龜丹","LANE":" ","ALLEY":" ","HOUSE_NO":"３９號之２","E_COORD97":198175.277543,"N_COORD97":2559320.1294800001,"ADDRESS":"龜丹３９號之２","OBJECTID":650975},"geometry":{"x":198175.27754299995,"y":2559320.1294800006}},{"attributes":{"ID":651003,"DIS_CODE":0,"TOWNNAME":"新營區","LI":"好平里","LIN":"4鄰","STREET":"長春街","SECT":" ","MAREA":" ","LANE":" ","ALLEY":" ","HOUSE_NO":"７１號","E_COORD97":179586.42441800001,"N_COORD97":2577825.5595200001,"ADDRESS":"長春街７１號","OBJECTID":650976},"geometry":{"x":179586.4244180005,"y":2577825.5595249999}},{"attributes":{"ID":651004,"DIS_CODE":0,"TOWNNAME":"仁德區","LI":"土庫里","LIN":"1鄰","STREET":"太乙十二街","SECT":" ","MAREA":" ","LANE":" ","ALLEY":" ","HOUSE_NO":"２號","E_COORD97":173169.38324600001,"N_COORD97":2542589.9918999998,"ADDRESS":"太乙十二街２號","OBJECTID":650977},"geometry":{"x":173169.38324599992,"y":2542589.9918960035}},{"attributes":{"ID":651005,"DIS_CODE":0,"TOWNNAME":"楠西區","LI":"龜丹里","LIN":"1鄰","STREET":" ","SECT":" ","MAREA":"龜丹","LANE":" ","ALLEY":" ","HOUSE_NO":"３號之１","E_COORD97":197599.196872,"N_COORD97":2559726.0000900002,"ADDRESS":"龜丹３號之１","OBJECTID":650978},"geometry":{"x":197599.19687200058,"y":2559726.0000940003}},{"attributes":{"ID":651006,"DIS_CODE":0,"TOWNNAME":"安南區","LI":"安和里","LIN":"3鄰","STREET":"府安路","SECT":"三段","MAREA":" ","LANE":"２８９巷","ALLEY":"２５弄","HOUSE_NO":"１號","E_COORD97":169847.11895400001,"N_COORD97":2547782.9757599998,"ADDRESS":"府安路三段２８９巷２５弄１號","OBJECTID":650979},"geometry":{"x":169847.11895400099,"y":2547782.9757639989}},{"attributes":{"ID":651007,"DIS_CODE":0,"TOWNNAME":"佳里區","LI":"佳化里","LIN":"8鄰","STREET":" ","SECT":" ","MAREA":"佳里興","LANE":" ","ALLEY":" ","HOUSE_NO":"８０號","E_COORD97":167629.089851,"N_COORD97":2564985.1161600002,"ADDRESS":"佳里興８０號","OBJECTID":650980},"geometry":{"x":167629.08985100035,"y":2564985.1161620021}},{"attributes":{"ID":651008,"DIS_CODE":0,"TOWNNAME":"安南區","LI":"安和里","LIN":"3鄰","STREET":"府安路","SECT":"三段","MAREA":" ","LANE":"２８９巷","ALLEY":"２５弄","HOUSE_NO":"３號","E_COORD97":169845.42509,"N_COORD97":2547778.9541000002,"ADDRESS":"府安路三段２８９巷２５弄３號","OBJECTID":650981},"geometry":{"x":169845.42509000003,"y":2547778.9541000035}},{"attributes":{"ID":651009,"DIS_CODE":0,"TOWNNAME":"安南區","LI":"安和里","LIN":"3鄰","STREET":"府安路","SECT":"三段","MAREA":" ","LANE":"２８９巷","ALLEY":"２５弄","HOUSE_NO":"５號","E_COORD97":169843.94295900001,"N_COORD97":2547775.1441000002,"ADDRESS":"府安路三段２８９巷２５弄５號","OBJECTID":650982},"geometry":{"x":169843.94295899943,"y":2547775.1441019997}},{"attributes":{"ID":651010,"DIS_CODE":0,"TOWNNAME":"楠西區","LI":"龜丹里","LIN":"1鄰","STREET":" ","SECT":" ","MAREA":"龜丹","LANE":" ","ALLEY":" ","HOUSE_NO":"４號","E_COORD97":197590.29823700001,"N_COORD97":2559718.8034299999,"ADDRESS":"龜丹４號","OBJECTID":650983},"geometry":{"x":197590.29823699966,"y":2559718.8034310043}},{"attributes":{"ID":651011,"DIS_CODE":0,"TOWNNAME":"安南區","LI":"安和里","LIN":"3鄰","STREET":"府安路","SECT":"三段","MAREA":" ","LANE":"２８９巷","ALLEY":"２５弄","HOUSE_NO":"２號","E_COORD97":169838.64963299999,"N_COORD97":2547795.0407599998,"ADDRESS":"府安路三段２８９巷２５弄２號","OBJECTID":650984},"geometry":{"x":169838.64963299874,"y":2547795.0407580007}},{"attributes":{"ID":651012,"DIS_CODE":0,"TOWNNAME":"佳里區","LI":"佳化里","LIN":"8鄰","STREET":" ","SECT":" ","MAREA":"佳里興","LANE":" ","ALLEY":" ","HOUSE_NO":"７５號","E_COORD97":167587.140102,"N_COORD97":2565091.1611000001,"ADDRESS":"佳里興７５號","OBJECTID":650985},"geometry":{"x":167587.14010200091,"y":2565091.1611050013}},{"attributes":{"ID":651013,"DIS_CODE":0,"TOWNNAME":"安南區","LI":"安和里","LIN":"3鄰","STREET":"府安路","SECT":"三段","MAREA":" ","LANE":"２８９巷","ALLEY":"２５弄","HOUSE_NO":"６號","E_COORD97":169837.8027,"N_COORD97":2547789.53743,"ADDRESS":"府安路三段２８９巷２５弄６號","OBJECTID":650986},"geometry":{"x":169837.80269999988,"y":2547789.5374269988}},{"attributes":{"ID":651014,"DIS_CODE":0,"TOWNNAME":"仁德區","LI":"土庫里","LIN":"1鄰","STREET":"太乙十二街","SECT":" ","MAREA":" ","LANE":" ","ALLEY":" ","HOUSE_NO":"３６號","E_COORD97":173171.290419,"N_COORD97":2542772.1309600002,"ADDRESS":"太乙十二街３６號","OBJECTID":650987},"geometry":{"x":173171.29041900206,"y":2542772.1309640016}},{"attributes":{"ID":651015,"DIS_CODE":0,"TOWNNAME":"安南區","LI":"安和里","LIN":"3鄰","STREET":"府安路","SECT":"三段","MAREA":" ","LANE":"２８９巷","ALLEY":"２５弄","HOUSE_NO":"８號","E_COORD97":169837.590967,"N_COORD97":2547785.0924300002,"ADDRESS":"府安路三段２８９巷２５弄８號","OBJECTID":650988},"geometry":{"x":169837.59096699953,"y":2547785.0924299993}},{"attributes":{"ID":651016,"DIS_CODE":0,"TOWNNAME":"安南區","LI":"安和里","LIN":"3鄰","STREET":"府安路","SECT":"三段","MAREA":" ","LANE":"２８９巷","ALLEY":"２５弄","HOUSE_NO":"１０號","E_COORD97":169835.47363699999,"N_COORD97":2547781.4940999998,"ADDRESS":"府安路三段２８９巷２５弄１０號","OBJECTID":650989},"geometry":{"x":169835.47363700159,"y":2547781.4940980021}},{"attributes":{"ID":651017,"DIS_CODE":0,"TOWNNAME":"楠西區","LI":"龜丹里","LIN":"3鄰","STREET":" ","SECT":" ","MAREA":"龜丹","LANE":" ","ALLEY":" ","HOUSE_NO":"７號之１","E_COORD97":197562.11922699999,"N_COORD97":2559525.4460399998,"ADDRESS":"龜丹７號之１","OBJECTID":650990},"geometry":{"x":197562.11922700051,"y":2559525.4460360017}},{"attributes":{"ID":651018,"DIS_CODE":0,"TOWNNAME":"安南區","LI":"安和里","LIN":"3鄰","STREET":"府安路","SECT":"三段","MAREA":" ","LANE":"２８９巷","ALLEY":"２５弄","HOUSE_NO":"１２號","E_COORD97":169832.50937399999,"N_COORD97":2547777.2607700001,"ADDRESS":"府安路三段２８９巷２５弄１２號","OBJECTID":650991},"geometry":{"x":169832.50937400106,"y":2547777.2607669998}},{"attributes":{"ID":651019,"DIS_CODE":0,"TOWNNAME":"仁德區","LI":"土庫里","LIN":"1鄰","STREET":"太乙路","SECT":" ","MAREA":" ","LANE":" ","ALLEY":" ","HOUSE_NO":"８０號","E_COORD97":173075.084111,"N_COORD97":2542629.5735399998,"ADDRESS":"太乙路８０號","OBJECTID":650992},"geometry":{"x":173075.08411100041,"y":2542629.5735410023}},{"attributes":{"ID":651020,"DIS_CODE":0,"TOWNNAME":"關廟區","LI":"南花里","LIN":"5鄰","STREET":"旺萊路","SECT":" ","MAREA":" ","LANE":"６３６巷","ALLEY":" ","HOUSE_NO":"１２號","E_COORD97":182204.07809200001,"N_COORD97":2540095.0589299998,"ADDRESS":"旺萊路６３６巷１２號","OBJECTID":650993},"geometry":{"x":182204.07809200138,"y":2540095.0589260031}},{"attributes":{"ID":651021,"DIS_CODE":0,"TOWNNAME":"佳里區","LI":"佳化里","LIN":"8鄰","STREET":" ","SECT":" ","MAREA":"佳里興","LANE":" ","ALLEY":" ","HOUSE_NO":"８２號","E_COORD97":167575.18615200001,"N_COORD97":2565003.75037,"ADDRESS":"佳里興８２號","OBJECTID":650994},"geometry":{"x":167575.18615200091,"y":2565003.7503680009}},{"attributes":{"ID":651022,"DIS_CODE":0,"TOWNNAME":"仁德區","LI":"土庫里","LIN":"1鄰","STREET":"太乙路","SECT":" ","MAREA":" ","LANE":" ","ALLEY":" ","HOUSE_NO":"８６號","E_COORD97":173080.805631,"N_COORD97":2542673.8118500002,"ADDRESS":"太乙路８６號","OBJECTID":650995},"geometry":{"x":173080.80563099962,"y":2542673.8118510023}},{"attributes":{"ID":651023,"DIS_CODE":0,"TOWNNAME":"仁德區","LI":"二行里","LIN":"15鄰","STREET":"行大街","SECT":" ","MAREA":" ","LANE":" ","ALLEY":" ","HOUSE_NO":"１０８號","E_COORD97":169728.73964099999,"N_COORD97":2535258.8592099999,"ADDRESS":"行大街１０８號","OBJECTID":650996},"geometry":{"x":169728.73964100145,"y":2535258.8592070006}},{"attributes":{"ID":651024,"DIS_CODE":0,"TOWNNAME":"楠西區","LI":"龜丹里","LIN":"1鄰","STREET":" ","SECT":" ","MAREA":"龜丹","LANE":" ","ALLEY":" ","HOUSE_NO":"９號之１","E_COORD97":197523.77034799999,"N_COORD97":2559512.5343800001,"ADDRESS":"龜丹９號之１","OBJECTID":650997},"geometry":{"x":197523.77034800127,"y":2559512.5343759991}},{"attributes":{"ID":651025,"DIS_CODE":0,"TOWNNAME":"佳里區","LI":"佳化里","LIN":"9鄰","STREET":" ","SECT":" ","MAREA":"佳里興","LANE":" ","ALLEY":" ","HOUSE_NO":"９２號","E_COORD97":167470.736103,"N_COORD97":2565046.9301,"ADDRESS":"佳里興９２號","OBJECTID":650998},"geometry":{"x":167470.73610300198,"y":2565046.9301010016}},{"attributes":{"ID":651026,"DIS_CODE":0,"TOWNNAME":"仁德區","LI":"土庫里","LIN":"1鄰","STREET":"大順路","SECT":" ","MAREA":" ","LANE":" ","ALLEY":" ","HOUSE_NO":"３８號","E_COORD97":173617.14520599999,"N_COORD97":2542982.52752,"ADDRESS":"大順路３８號","OBJECTID":650999},"geometry":{"x":173617.14520599972,"y":2542982.5275170002}},{"attributes":{"ID":651027,"DIS_CODE":0,"TOWNNAME":"七股區","LI":"大埕里","LIN":"10鄰","STREET":" ","SECT":" ","MAREA":"大埕","LANE":" ","ALLEY":" ","HOUSE_NO":"３２６號","E_COORD97":162050.25029600001,"N_COORD97":2560248.2905299999,"ADDRESS":"大埕３２６號","OBJECTID":651000},"geometry":{"x":162050.25029600132,"y":2560248.2905290015}}]}