{"displayFieldName":"TOWNNAME","fieldAliases":{"ID":"ID","DIS_CODE":"DIS_CODE","TOWNNAME":"TOWNNAME","LI":"LI","LIN":"LIN","STREET":"STREET","SECT":"SECT","MAREA":"MAREA","LANE":"LANE","ALLEY":"ALLEY","HOUSE_NO":"HOUSE_NO","E_COORD97":"E_COORD97","N_COORD97":"N_COORD97","ADDRESS":"ADDRESS","OBJECTID":"OBJECTID"},"geometryType":"esriGeometryPoint","spatialReference":{"wkid":102443,"latestWkid":3826},"fields":[{"name":"ID","type":"esriFieldTypeDouble","alias":"ID"},{"name":"DIS_CODE","type":"esriFieldTypeInteger","alias":"DIS_CODE"},{"name":"TOWNNAME","type":"esriFieldTypeString","alias":"TOWNNAME","length":8},{"name":"LI","type":"esriFieldTypeString","alias":"LI","length":8},{"name":"LIN","type":"esriFieldTypeString","alias":"LIN","length":12},{"name":"STREET","type":"esriFieldTypeString","alias":"STREET","length":20},{"name":"SECT","type":"esriFieldTypeString","alias":"SECT","length":8},{"name":"MAREA","type":"esriFieldTypeString","alias":"MAREA","length":12},{"name":"LANE","type":"esriFieldTypeString","alias":"LANE","length":10},{"name":"ALLEY","type":"esriFieldTypeString","alias":"ALLEY","length":10},{"name":"HOUSE_NO","type":"esriFieldTypeString","alias":"HOUSE_NO","length":20},{"name":"E_COORD97","type":"esriFieldTypeDouble","alias":"E_COORD97"},{"name":"N_COORD97","type":"esriFieldTypeDouble","alias":"N_COORD97"},{"name":"ADDRESS","type":"esriFieldTypeString","alias":"ADDRESS","length":50},{"name":"OBJECTID","type":"esriFieldTypeOID","alias":"OBJECTID"}],"features":[{"attributes":{"ID":431626,"DIS_CODE":0,"TOWNNAME":"玉井區","LI":"玉田里","LIN":"40鄰","STREET":"中山路","SECT":" ","MAREA":" ","LANE":" ","ALLEY":" ","HOUSE_NO":"２２２號","E_COORD97":195204.63,"N_COORD97":2557724.25,"ADDRESS":"中山路２２２號","OBJECTID":431601},"geometry":{"x":195204.62999999989,"y":2557724.2500000019}},{"attributes":{"ID":431627,"DIS_CODE":0,"TOWNNAME":"新營區","LI":"嘉芳里","LIN":" ","STREET":"復興路","SECT":" ","MAREA":" ","LANE":"１０７４巷","ALLEY":" ","HOUSE_NO":"１６號五樓","E_COORD97":176139.70000000001,"N_COORD97":2578918.1099999999,"ADDRESS":"復興路１０７４巷１６號五樓","OBJECTID":431602},"geometry":{"x":176139.70000000019,"y":2578918.1100000013}},{"attributes":{"ID":431628,"DIS_CODE":0,"TOWNNAME":"新營區","LI":"民生里","LIN":"26鄰","STREET":"民生路","SECT":" ","MAREA":" ","LANE":"１６３巷","ALLEY":" ","HOUSE_NO":"４７號六樓之５","E_COORD97":179111.98999999999,"N_COORD97":2578622.4199999999,"ADDRESS":"民生路１６３巷４７號六樓之５","OBJECTID":431603},"geometry":{"x":179111.99000000209,"y":2578622.4199999999}},{"attributes":{"ID":431629,"DIS_CODE":0,"TOWNNAME":"新營區","LI":"民生里","LIN":"25鄰","STREET":"民生路","SECT":" ","MAREA":" ","LANE":"１６３巷","ALLEY":" ","HOUSE_NO":"１５號五樓之５","E_COORD97":179179.47,"N_COORD97":2578630.96,"ADDRESS":"民生路１６３巷１５號五樓之５","OBJECTID":431604},"geometry":{"x":179179.4700000016,"y":2578630.9600000046}},{"attributes":{"ID":431630,"DIS_CODE":0,"TOWNNAME":"中西區","LI":"保安里","LIN":"5鄰","STREET":"友愛街","SECT":" ","MAREA":" ","LANE":"２８９巷","ALLEY":" ","HOUSE_NO":"３號","E_COORD97":167576.34,"N_COORD97":2543615.2999999998,"ADDRESS":"友愛街２８９巷３號","OBJECTID":431605},"geometry":{"x":167576.33999999985,"y":2543615.3000000007}},{"attributes":{"ID":431631,"DIS_CODE":0,"TOWNNAME":"新營區","LI":"新東里","LIN":"26鄰","STREET":"東興三街","SECT":" ","MAREA":" ","LANE":"２２巷","ALLEY":" ","HOUSE_NO":"４２號四樓之２","E_COORD97":180699.07000000001,"N_COORD97":2579418.9100000001,"ADDRESS":"東興三街２２巷４２號四樓之２","OBJECTID":431606},"geometry":{"x":180699.0700000003,"y":2579418.9100000001}},{"attributes":{"ID":431632,"DIS_CODE":0,"TOWNNAME":"新營區","LI":"民生里","LIN":"25鄰","STREET":"民生路","SECT":" ","MAREA":" ","LANE":"１６３巷","ALLEY":" ","HOUSE_NO":"１５號三樓之７","E_COORD97":179179.39000000001,"N_COORD97":2578630.96,"ADDRESS":"民生路１６３巷１５號三樓之７","OBJECTID":431607},"geometry":{"x":179179.38999999966,"y":2578630.9600000046}},{"attributes":{"ID":431633,"DIS_CODE":0,"TOWNNAME":"新營區","LI":"新東里","LIN":"26鄰","STREET":"東興三街","SECT":" ","MAREA":" ","LANE":"２２巷","ALLEY":" ","HOUSE_NO":"４６號三樓","E_COORD97":180682.47,"N_COORD97":2579416.73,"ADDRESS":"東興三街２２巷４６號三樓","OBJECTID":431608},"geometry":{"x":180682.46999999974,"y":2579416.7300000023}},{"attributes":{"ID":431634,"DIS_CODE":0,"TOWNNAME":"新營區","LI":"新東里","LIN":"25鄰","STREET":"東興三街","SECT":" ","MAREA":" ","LANE":"２２巷","ALLEY":" ","HOUSE_NO":"１１號二樓","E_COORD97":180664.79000000001,"N_COORD97":2579370.2999999998,"ADDRESS":"東興三街２２巷１１號二樓","OBJECTID":431609},"geometry":{"x":180664.79000000097,"y":2579370.3000000007}},{"attributes":{"ID":431635,"DIS_CODE":0,"TOWNNAME":"新營區","LI":"新東里","LIN":"25鄰","STREET":"東興三街","SECT":" ","MAREA":" ","LANE":"２２巷","ALLEY":" ","HOUSE_NO":"９號二樓","E_COORD97":180702.48999999999,"N_COORD97":2579395.5899999999,"ADDRESS":"東興三街２２巷９號二樓","OBJECTID":431610},"geometry":{"x":180702.49000000115,"y":2579395.5900000017}},{"attributes":{"ID":431636,"DIS_CODE":0,"TOWNNAME":"新營區","LI":"新東里","LIN":"25鄰","STREET":"東興三街","SECT":" ","MAREA":" ","LANE":"２２巷","ALLEY":" ","HOUSE_NO":"１１號三樓","E_COORD97":180664.79000000001,"N_COORD97":2579370.2999999998,"ADDRESS":"東興三街２２巷１１號三樓","OBJECTID":431611},"geometry":{"x":180664.79000000097,"y":2579370.3000000007}},{"attributes":{"ID":431637,"DIS_CODE":0,"TOWNNAME":"新營區","LI":"民權里","LIN":"24鄰","STREET":"民治路","SECT":" ","MAREA":" ","LANE":"５３巷","ALLEY":" ","HOUSE_NO":"１１號六樓","E_COORD97":179660.17000000001,"N_COORD97":2578676.23,"ADDRESS":"民治路５３巷１１號六樓","OBJECTID":431612},"geometry":{"x":179660.17000000086,"y":2578676.2300000042}},{"attributes":{"ID":431638,"DIS_CODE":0,"TOWNNAME":"南區","LI":"開南里","LIN":"24鄰","STREET":"新建路","SECT":" ","MAREA":" ","LANE":"４９巷","ALLEY":" ","HOUSE_NO":"５號四樓之３","E_COORD97":166559.78,"N_COORD97":2540848.98,"ADDRESS":"新建路４９巷５號四樓之３","OBJECTID":431613},"geometry":{"x":166559.78000000026,"y":2540848.9800000023}},{"attributes":{"ID":431639,"DIS_CODE":0,"TOWNNAME":"南區","LI":"開南里","LIN":"24鄰","STREET":"新建路","SECT":" ","MAREA":" ","LANE":"４９巷","ALLEY":" ","HOUSE_NO":"５號七樓之１","E_COORD97":166559.78,"N_COORD97":2540848.98,"ADDRESS":"新建路４９巷５號七樓之１","OBJECTID":431614},"geometry":{"x":166559.78000000026,"y":2540848.9800000023}},{"attributes":{"ID":431640,"DIS_CODE":0,"TOWNNAME":"南區","LI":"開南里","LIN":"24鄰","STREET":"新建路","SECT":" ","MAREA":" ","LANE":"４９巷","ALLEY":" ","HOUSE_NO":"５號七樓之２","E_COORD97":166559.78,"N_COORD97":2540848.98,"ADDRESS":"新建路４９巷５號七樓之２","OBJECTID":431615},"geometry":{"x":166559.78000000026,"y":2540848.9800000023}},{"attributes":{"ID":431641,"DIS_CODE":0,"TOWNNAME":"南區","LI":"開南里","LIN":"24鄰","STREET":"新建路","SECT":" ","MAREA":" ","LANE":"４９巷","ALLEY":" ","HOUSE_NO":"５號七樓之３","E_COORD97":166559.78,"N_COORD97":2540848.98,"ADDRESS":"新建路４９巷５號七樓之３","OBJECTID":431616},"geometry":{"x":166559.78000000026,"y":2540848.9800000023}},{"attributes":{"ID":431642,"DIS_CODE":0,"TOWNNAME":"南區","LI":"開南里","LIN":"24鄰","STREET":"新建路","SECT":" ","MAREA":" ","LANE":"４９巷","ALLEY":" ","HOUSE_NO":"５號九樓","E_COORD97":166559.78,"N_COORD97":2540848.98,"ADDRESS":"新建路４９巷５號九樓","OBJECTID":431617},"geometry":{"x":166559.78000000026,"y":2540848.9800000023}},{"attributes":{"ID":431643,"DIS_CODE":0,"TOWNNAME":"南區","LI":"開南里","LIN":"24鄰","STREET":"新建路","SECT":" ","MAREA":" ","LANE":"４９巷","ALLEY":" ","HOUSE_NO":"５號九樓之１","E_COORD97":166559.78,"N_COORD97":2540848.98,"ADDRESS":"新建路４９巷５號九樓之１","OBJECTID":431618},"geometry":{"x":166559.78000000026,"y":2540848.9800000023}},{"attributes":{"ID":431644,"DIS_CODE":0,"TOWNNAME":"南區","LI":"開南里","LIN":"24鄰","STREET":"新建路","SECT":" ","MAREA":" ","LANE":"４９巷","ALLEY":" ","HOUSE_NO":"５號九樓之２","E_COORD97":166559.78,"N_COORD97":2540848.98,"ADDRESS":"新建路４９巷５號九樓之２","OBJECTID":431619},"geometry":{"x":166559.78000000026,"y":2540848.9800000023}},{"attributes":{"ID":431645,"DIS_CODE":0,"TOWNNAME":"南區","LI":"開南里","LIN":"24鄰","STREET":"\u25A0埕路","SECT":" ","MAREA":" ","LANE":"１３１巷","ALLEY":" ","HOUSE_NO":"１６３號六樓","E_COORD97":166523.69,"N_COORD97":2540877.46,"ADDRESS":"\u25A0埕路１３１巷１６３號六樓","OBJECTID":431620},"geometry":{"x":166523.69000000041,"y":2540877.4600000028}},{"attributes":{"ID":431646,"DIS_CODE":0,"TOWNNAME":"南區","LI":"開南里","LIN":"24鄰","STREET":"\u25A0埕路","SECT":" ","MAREA":" ","LANE":"１３１巷","ALLEY":" ","HOUSE_NO":"１６３號六樓之１","E_COORD97":166523.69,"N_COORD97":2540877.46,"ADDRESS":"\u25A0埕路１３１巷１６３號六樓之１","OBJECTID":431621},"geometry":{"x":166523.69000000041,"y":2540877.4600000028}},{"attributes":{"ID":431647,"DIS_CODE":0,"TOWNNAME":"南區","LI":"開南里","LIN":"24鄰","STREET":"\u25A0埕路","SECT":" ","MAREA":" ","LANE":"１３１巷","ALLEY":" ","HOUSE_NO":"１６３號六樓之２","E_COORD97":166523.69,"N_COORD97":2540877.46,"ADDRESS":"\u25A0埕路１３１巷１６３號六樓之２","OBJECTID":431622},"geometry":{"x":166523.69000000041,"y":2540877.4600000028}},{"attributes":{"ID":431648,"DIS_CODE":0,"TOWNNAME":"南區","LI":"開南里","LIN":"24鄰","STREET":"\u25A0埕路","SECT":" ","MAREA":" ","LANE":"１３１巷","ALLEY":" ","HOUSE_NO":"１６３號六樓之３","E_COORD97":166523.69,"N_COORD97":2540877.46,"ADDRESS":"\u25A0埕路１３１巷１６３號六樓之３","OBJECTID":431623},"geometry":{"x":166523.69000000041,"y":2540877.4600000028}},{"attributes":{"ID":431649,"DIS_CODE":0,"TOWNNAME":"南區","LI":"新昌里","LIN":"14鄰","STREET":"大德街","SECT":" ","MAREA":" ","LANE":"１４１巷","ALLEY":" ","HOUSE_NO":"９１號七樓之１","E_COORD97":167543.92999999999,"N_COORD97":2542744.48,"ADDRESS":"大德街１４１巷９１號七樓之１","OBJECTID":431624},"geometry":{"x":167543.93000000156,"y":2542744.4800000023}},{"attributes":{"ID":431650,"DIS_CODE":0,"TOWNNAME":"南區","LI":"新昌里","LIN":"14鄰","STREET":"大德街","SECT":" ","MAREA":" ","LANE":"１４１巷","ALLEY":" ","HOUSE_NO":"９１號七樓之２","E_COORD97":167543.92999999999,"N_COORD97":2542744.48,"ADDRESS":"大德街１４１巷９１號七樓之２","OBJECTID":431625},"geometry":{"x":167543.93000000156,"y":2542744.4800000023}},{"attributes":{"ID":431651,"DIS_CODE":0,"TOWNNAME":"南區","LI":"新昌里","LIN":"14鄰","STREET":"大德街","SECT":" ","MAREA":" ","LANE":"１４１巷","ALLEY":" ","HOUSE_NO":"９１號九樓之１","E_COORD97":167543.92999999999,"N_COORD97":2542744.48,"ADDRESS":"大德街１４１巷９１號九樓之１","OBJECTID":431626},"geometry":{"x":167543.93000000156,"y":2542744.4800000023}},{"attributes":{"ID":431652,"DIS_CODE":0,"TOWNNAME":"南區","LI":"新昌里","LIN":"14鄰","STREET":"大德街","SECT":" ","MAREA":" ","LANE":"１４１巷","ALLEY":" ","HOUSE_NO":"９１號九樓之２","E_COORD97":167543.92999999999,"N_COORD97":2542744.48,"ADDRESS":"大德街１４１巷９１號九樓之２","OBJECTID":431627},"geometry":{"x":167543.93000000156,"y":2542744.4800000023}},{"attributes":{"ID":431653,"DIS_CODE":0,"TOWNNAME":"南區","LI":"新昌里","LIN":"14鄰","STREET":"大德街","SECT":" ","MAREA":" ","LANE":"１４１巷","ALLEY":" ","HOUSE_NO":"９１號二樓之１","E_COORD97":167543.92999999999,"N_COORD97":2542744.48,"ADDRESS":"大德街１４１巷９１號二樓之１","OBJECTID":431628},"geometry":{"x":167543.93000000156,"y":2542744.4800000023}},{"attributes":{"ID":431654,"DIS_CODE":0,"TOWNNAME":"南區","LI":"新昌里","LIN":"14鄰","STREET":"大德街","SECT":" ","MAREA":" ","LANE":"１４１巷","ALLEY":" ","HOUSE_NO":"９１號二樓之２","E_COORD97":167543.92999999999,"N_COORD97":2542744.48,"ADDRESS":"大德街１４１巷９１號二樓之２","OBJECTID":431629},"geometry":{"x":167543.93000000156,"y":2542744.4800000023}},{"attributes":{"ID":431655,"DIS_CODE":0,"TOWNNAME":"南區","LI":"新昌里","LIN":"14鄰","STREET":"大德街","SECT":" ","MAREA":" ","LANE":"１４１巷","ALLEY":" ","HOUSE_NO":"９１號八樓之１","E_COORD97":167543.92999999999,"N_COORD97":2542744.48,"ADDRESS":"大德街１４１巷９１號八樓之１","OBJECTID":431630},"geometry":{"x":167543.93000000156,"y":2542744.4800000023}},{"attributes":{"ID":431656,"DIS_CODE":0,"TOWNNAME":"南區","LI":"新昌里","LIN":"14鄰","STREET":"大德街","SECT":" ","MAREA":" ","LANE":"１４１巷","ALLEY":" ","HOUSE_NO":"９１號十一樓之１","E_COORD97":167543.92999999999,"N_COORD97":2542744.48,"ADDRESS":"大德街１４１巷９１號十一樓之１","OBJECTID":431631},"geometry":{"x":167543.93000000156,"y":2542744.4800000023}},{"attributes":{"ID":431657,"DIS_CODE":0,"TOWNNAME":"南區","LI":"新興里","LIN":"7鄰","STREET":"健康路","SECT":"二段","MAREA":" ","LANE":"５３巷","ALLEY":" ","HOUSE_NO":"１３號一樓之３","E_COORD97":167612.17000000001,"N_COORD97":2542410.5600000001,"ADDRESS":"健康路二段５３巷１３號一樓之３","OBJECTID":431632},"geometry":{"x":167612.17000000086,"y":2542410.5600000042}},{"attributes":{"ID":431658,"DIS_CODE":0,"TOWNNAME":"南區","LI":"新興里","LIN":"7鄰","STREET":"健康路","SECT":"二段","MAREA":" ","LANE":"５３巷","ALLEY":" ","HOUSE_NO":"１３號一樓之４","E_COORD97":167612.17000000001,"N_COORD97":2542410.5600000001,"ADDRESS":"健康路二段５３巷１３號一樓之４","OBJECTID":431633},"geometry":{"x":167612.17000000086,"y":2542410.5600000042}},{"attributes":{"ID":431659,"DIS_CODE":0,"TOWNNAME":"南區","LI":"新興里","LIN":"7鄰","STREET":"健康路","SECT":"二段","MAREA":" ","LANE":"５３巷","ALLEY":" ","HOUSE_NO":"１３號二樓之１","E_COORD97":167612.17000000001,"N_COORD97":2542410.5600000001,"ADDRESS":"健康路二段５３巷１３號二樓之１","OBJECTID":431634},"geometry":{"x":167612.17000000086,"y":2542410.5600000042}},{"attributes":{"ID":431660,"DIS_CODE":0,"TOWNNAME":"南區","LI":"新興里","LIN":"7鄰","STREET":"健康路","SECT":"二段","MAREA":" ","LANE":"５３巷","ALLEY":" ","HOUSE_NO":"１３號二樓之２","E_COORD97":167612.17000000001,"N_COORD97":2542410.5600000001,"ADDRESS":"健康路二段５３巷１３號二樓之２","OBJECTID":431635},"geometry":{"x":167612.17000000086,"y":2542410.5600000042}},{"attributes":{"ID":431661,"DIS_CODE":0,"TOWNNAME":"南區","LI":"新興里","LIN":"7鄰","STREET":"健康路","SECT":"二段","MAREA":" ","LANE":"５３巷","ALLEY":" ","HOUSE_NO":"１３號二樓之３","E_COORD97":167612.17000000001,"N_COORD97":2542410.5600000001,"ADDRESS":"健康路二段５３巷１３號二樓之３","OBJECTID":431636},"geometry":{"x":167612.17000000086,"y":2542410.5600000042}},{"attributes":{"ID":431662,"DIS_CODE":0,"TOWNNAME":"南區","LI":"新興里","LIN":"7鄰","STREET":"健康路","SECT":"二段","MAREA":" ","LANE":"５３巷","ALLEY":" ","HOUSE_NO":"１３號二樓之４","E_COORD97":167612.17000000001,"N_COORD97":2542410.5600000001,"ADDRESS":"健康路二段５３巷１３號二樓之４","OBJECTID":431637},"geometry":{"x":167612.17000000086,"y":2542410.5600000042}},{"attributes":{"ID":431663,"DIS_CODE":0,"TOWNNAME":"南區","LI":"新興里","LIN":"7鄰","STREET":"健康路","SECT":"二段","MAREA":" ","LANE":"５３巷","ALLEY":" ","HOUSE_NO":"１３號二樓之５","E_COORD97":167612.17000000001,"N_COORD97":2542410.5600000001,"ADDRESS":"健康路二段５３巷１３號二樓之５","OBJECTID":431638},"geometry":{"x":167612.17000000086,"y":2542410.5600000042}},{"attributes":{"ID":431664,"DIS_CODE":0,"TOWNNAME":"南區","LI":"新興里","LIN":"7鄰","STREET":"健康路","SECT":"二段","MAREA":" ","LANE":"５３巷","ALLEY":" ","HOUSE_NO":"１３號三樓之１","E_COORD97":167612.17000000001,"N_COORD97":2542410.5600000001,"ADDRESS":"健康路二段５３巷１３號三樓之１","OBJECTID":431639},"geometry":{"x":167612.17000000086,"y":2542410.5600000042}},{"attributes":{"ID":431665,"DIS_CODE":0,"TOWNNAME":"南區","LI":"新興里","LIN":"7鄰","STREET":"健康路","SECT":"二段","MAREA":" ","LANE":"５３巷","ALLEY":" ","HOUSE_NO":"１３號三樓之２","E_COORD97":167612.17000000001,"N_COORD97":2542410.5600000001,"ADDRESS":"健康路二段５３巷１３號三樓之２","OBJECTID":431640},"geometry":{"x":167612.17000000086,"y":2542410.5600000042}},{"attributes":{"ID":431666,"DIS_CODE":0,"TOWNNAME":"南區","LI":"新興里","LIN":"7鄰","STREET":"健康路","SECT":"二段","MAREA":" ","LANE":"５３巷","ALLEY":" ","HOUSE_NO":"１３號三樓之３","E_COORD97":167612.17000000001,"N_COORD97":2542410.5600000001,"ADDRESS":"健康路二段５３巷１３號三樓之３","OBJECTID":431641},"geometry":{"x":167612.17000000086,"y":2542410.5600000042}},{"attributes":{"ID":431667,"DIS_CODE":0,"TOWNNAME":"南區","LI":"新興里","LIN":"7鄰","STREET":"健康路","SECT":"二段","MAREA":" ","LANE":"５３巷","ALLEY":" ","HOUSE_NO":"１３號三樓之４","E_COORD97":167612.17000000001,"N_COORD97":2542410.5600000001,"ADDRESS":"健康路二段５３巷１３號三樓之４","OBJECTID":431642},"geometry":{"x":167612.17000000086,"y":2542410.5600000042}},{"attributes":{"ID":431668,"DIS_CODE":0,"TOWNNAME":"南區","LI":"新興里","LIN":"7鄰","STREET":"健康路","SECT":"二段","MAREA":" ","LANE":"５３巷","ALLEY":" ","HOUSE_NO":"１３號三樓之５","E_COORD97":167612.17000000001,"N_COORD97":2542410.5600000001,"ADDRESS":"健康路二段５３巷１３號三樓之５","OBJECTID":431643},"geometry":{"x":167612.17000000086,"y":2542410.5600000042}},{"attributes":{"ID":431669,"DIS_CODE":0,"TOWNNAME":"南區","LI":"新興里","LIN":"7鄰","STREET":"健康路","SECT":"二段","MAREA":" ","LANE":"５３巷","ALLEY":" ","HOUSE_NO":"１３號三樓之６","E_COORD97":167612.17000000001,"N_COORD97":2542410.5600000001,"ADDRESS":"健康路二段５３巷１３號三樓之６","OBJECTID":431644},"geometry":{"x":167612.17000000086,"y":2542410.5600000042}},{"attributes":{"ID":431670,"DIS_CODE":0,"TOWNNAME":"南區","LI":"新興里","LIN":"7鄰","STREET":"健康路","SECT":"二段","MAREA":" ","LANE":"５３巷","ALLEY":" ","HOUSE_NO":"１３號四樓之１","E_COORD97":167612.17000000001,"N_COORD97":2542410.5600000001,"ADDRESS":"健康路二段５３巷１３號四樓之１","OBJECTID":431645},"geometry":{"x":167612.17000000086,"y":2542410.5600000042}},{"attributes":{"ID":431671,"DIS_CODE":0,"TOWNNAME":"南區","LI":"新興里","LIN":"13鄰","STREET":"夏林路","SECT":" ","MAREA":" ","LANE":"２２２巷","ALLEY":" ","HOUSE_NO":"４號三樓","E_COORD97":167428.98000000001,"N_COORD97":2542241.1099999999,"ADDRESS":"夏林路２２２巷４號三樓","OBJECTID":431646},"geometry":{"x":167428.98000000231,"y":2542241.1100000013}},{"attributes":{"ID":431672,"DIS_CODE":0,"TOWNNAME":"南區","LI":"新興里","LIN":"13鄰","STREET":"夏林路","SECT":" ","MAREA":" ","LANE":"２２２巷","ALLEY":" ","HOUSE_NO":"４號五樓","E_COORD97":167428.98000000001,"N_COORD97":2542241.1099999999,"ADDRESS":"夏林路２２２巷４號五樓","OBJECTID":431647},"geometry":{"x":167428.98000000231,"y":2542241.1100000013}},{"attributes":{"ID":431673,"DIS_CODE":0,"TOWNNAME":"南區","LI":"新興里","LIN":"13鄰","STREET":"夏林路","SECT":" ","MAREA":" ","LANE":"２２２巷","ALLEY":" ","HOUSE_NO":"４號四樓","E_COORD97":167428.98000000001,"N_COORD97":2542241.1099999999,"ADDRESS":"夏林路２２２巷４號四樓","OBJECTID":431648},"geometry":{"x":167428.98000000231,"y":2542241.1100000013}},{"attributes":{"ID":431674,"DIS_CODE":0,"TOWNNAME":"南區","LI":"新興里","LIN":"13鄰","STREET":"夏林路","SECT":" ","MAREA":" ","LANE":"２２２巷","ALLEY":" ","HOUSE_NO":"６號二樓","E_COORD97":167423.97,"N_COORD97":2542240.3100000001,"ADDRESS":"夏林路２２２巷６號二樓","OBJECTID":431649},"geometry":{"x":167423.97000000067,"y":2542240.3100000024}},{"attributes":{"ID":431675,"DIS_CODE":0,"TOWNNAME":"南區","LI":"新興里","LIN":"13鄰","STREET":"夏林路","SECT":" ","MAREA":" ","LANE":"２２２巷","ALLEY":" ","HOUSE_NO":"６號三樓","E_COORD97":167423.97,"N_COORD97":2542240.3100000001,"ADDRESS":"夏林路２２２巷６號三樓","OBJECTID":431650},"geometry":{"x":167423.97000000067,"y":2542240.3100000024}},{"attributes":{"ID":431676,"DIS_CODE":0,"TOWNNAME":"南區","LI":"新興里","LIN":"13鄰","STREET":"夏林路","SECT":" ","MAREA":" ","LANE":"２２２巷","ALLEY":" ","HOUSE_NO":"６號五樓","E_COORD97":167423.97,"N_COORD97":2542240.3100000001,"ADDRESS":"夏林路２２２巷６號五樓","OBJECTID":431651},"geometry":{"x":167423.97000000067,"y":2542240.3100000024}},{"attributes":{"ID":431677,"DIS_CODE":0,"TOWNNAME":"南區","LI":"新興里","LIN":"13鄰","STREET":"夏林路","SECT":" ","MAREA":" ","LANE":"２２２巷","ALLEY":" ","HOUSE_NO":"６號四樓","E_COORD97":167423.97,"N_COORD97":2542240.3100000001,"ADDRESS":"夏林路２２２巷６號四樓","OBJECTID":431652},"geometry":{"x":167423.97000000067,"y":2542240.3100000024}},{"attributes":{"ID":431678,"DIS_CODE":0,"TOWNNAME":"南區","LI":"新興里","LIN":"17鄰","STREET":"三官路","SECT":" ","MAREA":" ","LANE":"８９巷","ALLEY":" ","HOUSE_NO":"３２號二樓","E_COORD97":167422.95000000001,"N_COORD97":2542172.25,"ADDRESS":"三官路８９巷３２號二樓","OBJECTID":431653},"geometry":{"x":167422.95000000112,"y":2542172.2500000019}},{"attributes":{"ID":431679,"DIS_CODE":0,"TOWNNAME":"南區","LI":"新興里","LIN":"17鄰","STREET":"三官路","SECT":" ","MAREA":" ","LANE":"８９巷","ALLEY":" ","HOUSE_NO":"３２號三樓","E_COORD97":167422.95000000001,"N_COORD97":2542172.25,"ADDRESS":"三官路８９巷３２號三樓","OBJECTID":431654},"geometry":{"x":167422.95000000112,"y":2542172.2500000019}},{"attributes":{"ID":431680,"DIS_CODE":0,"TOWNNAME":"南區","LI":"新興里","LIN":"17鄰","STREET":"三官路","SECT":" ","MAREA":" ","LANE":"８９巷","ALLEY":" ","HOUSE_NO":"３２號五樓","E_COORD97":167422.95000000001,"N_COORD97":2542172.25,"ADDRESS":"三官路８９巷３２號五樓","OBJECTID":431655},"geometry":{"x":167422.95000000112,"y":2542172.2500000019}},{"attributes":{"ID":431681,"DIS_CODE":0,"TOWNNAME":"南區","LI":"新興里","LIN":"17鄰","STREET":"三官路","SECT":" ","MAREA":" ","LANE":"８９巷","ALLEY":" ","HOUSE_NO":"３２號四樓","E_COORD97":167422.95000000001,"N_COORD97":2542172.25,"ADDRESS":"三官路８９巷３２號四樓","OBJECTID":431656},"geometry":{"x":167422.95000000112,"y":2542172.2500000019}},{"attributes":{"ID":431682,"DIS_CODE":0,"TOWNNAME":"南區","LI":"新興里","LIN":"17鄰","STREET":"三官路","SECT":" ","MAREA":" ","LANE":"８９巷","ALLEY":" ","HOUSE_NO":"３２號之１二樓","E_COORD97":167421.67000000001,"N_COORD97":2542167.0600000001,"ADDRESS":"三官路８９巷３２號之１二樓","OBJECTID":431657},"geometry":{"x":167421.66999999993,"y":2542167.0600000024}},{"attributes":{"ID":431683,"DIS_CODE":0,"TOWNNAME":"北區","LI":"安民里","LIN":"12鄰","STREET":"海安路","SECT":"三段","MAREA":" ","LANE":"７１巷","ALLEY":" ","HOUSE_NO":"９號","E_COORD97":167885.89000000001,"N_COORD97":2544789.1000000001,"ADDRESS":"海安路三段７１巷９號","OBJECTID":431658},"geometry":{"x":167885.88999999966,"y":2544789.0999999996}},{"attributes":{"ID":431684,"DIS_CODE":0,"TOWNNAME":"北區","LI":"安民里","LIN":"6鄰","STREET":"海安路","SECT":"三段","MAREA":" ","LANE":"４１巷","ALLEY":" ","HOUSE_NO":"２０號","E_COORD97":167843.85999999999,"N_COORD97":2544737.3700000001,"ADDRESS":"海安路三段４１巷２０號","OBJECTID":431659},"geometry":{"x":167843.86000000127,"y":2544737.370000001}},{"attributes":{"ID":431685,"DIS_CODE":0,"TOWNNAME":"北區","LI":"和順里","LIN":"37鄰","STREET":"公園南路","SECT":" ","MAREA":" ","LANE":"３７０巷","ALLEY":" ","HOUSE_NO":"３０號七樓之１","E_COORD97":168214.44,"N_COORD97":2544938.52,"ADDRESS":"公園南路３７０巷３０號七樓之１","OBJECTID":431660},"geometry":{"x":168214.44000000134,"y":2544938.5199999996}},{"attributes":{"ID":431686,"DIS_CODE":0,"TOWNNAME":"北區","LI":"和順里","LIN":"37鄰","STREET":"公園南路","SECT":" ","MAREA":" ","LANE":"３７０巷","ALLEY":" ","HOUSE_NO":"３０號七樓之５","E_COORD97":168214.44,"N_COORD97":2544938.52,"ADDRESS":"公園南路３７０巷３０號七樓之５","OBJECTID":431661},"geometry":{"x":168214.44000000134,"y":2544938.5199999996}},{"attributes":{"ID":431687,"DIS_CODE":0,"TOWNNAME":"北區","LI":"和順里","LIN":"37鄰","STREET":"公園南路","SECT":" ","MAREA":" ","LANE":"３７０巷","ALLEY":" ","HOUSE_NO":"３０號九樓之１","E_COORD97":168214.44,"N_COORD97":2544938.52,"ADDRESS":"公園南路３７０巷３０號九樓之１","OBJECTID":431662},"geometry":{"x":168214.44000000134,"y":2544938.5199999996}},{"attributes":{"ID":431688,"DIS_CODE":0,"TOWNNAME":"北區","LI":"和順里","LIN":"37鄰","STREET":"公園南路","SECT":" ","MAREA":" ","LANE":"３７０巷","ALLEY":" ","HOUSE_NO":"３０號九樓之５","E_COORD97":168214.44,"N_COORD97":2544938.52,"ADDRESS":"公園南路３７０巷３０號九樓之５","OBJECTID":431663},"geometry":{"x":168214.44000000134,"y":2544938.5199999996}},{"attributes":{"ID":431689,"DIS_CODE":0,"TOWNNAME":"中西區","LI":"保安里","LIN":"5鄰","STREET":"友愛街","SECT":" ","MAREA":" ","LANE":"２８９巷","ALLEY":" ","HOUSE_NO":"５號","E_COORD97":167578.75,"N_COORD97":2543610.3100000001,"ADDRESS":"友愛街２８９巷５號","OBJECTID":431664},"geometry":{"x":167578.75,"y":2543610.3100000024}},{"attributes":{"ID":431690,"DIS_CODE":0,"TOWNNAME":"北區","LI":"和順里","LIN":"37鄰","STREET":"公園南路","SECT":" ","MAREA":" ","LANE":"３７０巷","ALLEY":" ","HOUSE_NO":"３０號八樓之２","E_COORD97":168214.44,"N_COORD97":2544938.52,"ADDRESS":"公園南路３７０巷３０號八樓之２","OBJECTID":431665},"geometry":{"x":168214.44000000134,"y":2544938.5199999996}},{"attributes":{"ID":431691,"DIS_CODE":0,"TOWNNAME":"北區","LI":"和順里","LIN":"37鄰","STREET":"公園南路","SECT":" ","MAREA":" ","LANE":"３７０巷","ALLEY":" ","HOUSE_NO":"３０號八樓之３","E_COORD97":168214.44,"N_COORD97":2544938.52,"ADDRESS":"公園南路３７０巷３０號八樓之３","OBJECTID":431666},"geometry":{"x":168214.44000000134,"y":2544938.5199999996}},{"attributes":{"ID":431692,"DIS_CODE":0,"TOWNNAME":"北區","LI":"和順里","LIN":"37鄰","STREET":"公園南路","SECT":" ","MAREA":" ","LANE":"３７０巷","ALLEY":" ","HOUSE_NO":"３０號十一樓之１","E_COORD97":168214.44,"N_COORD97":2544938.52,"ADDRESS":"公園南路３７０巷３０號十一樓之１","OBJECTID":431667},"geometry":{"x":168214.44000000134,"y":2544938.5199999996}},{"attributes":{"ID":431693,"DIS_CODE":0,"TOWNNAME":"北區","LI":"和順里","LIN":"37鄰","STREET":"公園南路","SECT":" ","MAREA":" ","LANE":"３７０巷","ALLEY":" ","HOUSE_NO":"３０號十一樓之５","E_COORD97":168214.44,"N_COORD97":2544938.52,"ADDRESS":"公園南路３７０巷３０號十一樓之５","OBJECTID":431668},"geometry":{"x":168214.44000000134,"y":2544938.5199999996}},{"attributes":{"ID":431694,"DIS_CODE":0,"TOWNNAME":"北區","LI":"和順里","LIN":"37鄰","STREET":"公園南路","SECT":" ","MAREA":" ","LANE":"３７０巷","ALLEY":" ","HOUSE_NO":"３０號十七樓之１","E_COORD97":168214.44,"N_COORD97":2544938.52,"ADDRESS":"公園南路３７０巷３０號十七樓之１","OBJECTID":431669},"geometry":{"x":168214.44000000134,"y":2544938.5199999996}},{"attributes":{"ID":431695,"DIS_CODE":0,"TOWNNAME":"北區","LI":"和順里","LIN":"37鄰","STREET":"公園南路","SECT":" ","MAREA":" ","LANE":"３７０巷","ALLEY":" ","HOUSE_NO":"３０號十七樓之５","E_COORD97":168214.44,"N_COORD97":2544938.52,"ADDRESS":"公園南路３７０巷３０號十七樓之５","OBJECTID":431670},"geometry":{"x":168214.44000000134,"y":2544938.5199999996}},{"attributes":{"ID":431696,"DIS_CODE":0,"TOWNNAME":"北區","LI":"和順里","LIN":"37鄰","STREET":"公園南路","SECT":" ","MAREA":" ","LANE":"３７０巷","ALLEY":" ","HOUSE_NO":"３０號十二樓之２","E_COORD97":168214.44,"N_COORD97":2544938.52,"ADDRESS":"公園南路３７０巷３０號十二樓之２","OBJECTID":431671},"geometry":{"x":168214.44000000134,"y":2544938.5199999996}},{"attributes":{"ID":431697,"DIS_CODE":0,"TOWNNAME":"北區","LI":"和順里","LIN":"38鄰","STREET":"公園南路","SECT":" ","MAREA":" ","LANE":"３７０巷","ALLEY":" ","HOUSE_NO":"５８號七樓","E_COORD97":168272.17999999999,"N_COORD97":2544970.54,"ADDRESS":"公園南路３７０巷５８號七樓","OBJECTID":431672},"geometry":{"x":168272.1799999997,"y":2544970.540000001}},{"attributes":{"ID":431698,"DIS_CODE":0,"TOWNNAME":"北區","LI":"和順里","LIN":"37鄰","STREET":"公園南路","SECT":" ","MAREA":" ","LANE":"３７０巷","ALLEY":" ","HOUSE_NO":"４６號十四樓之１","E_COORD97":168243.04999999999,"N_COORD97":2544965.5499999998,"ADDRESS":"公園南路３７０巷４６號十四樓之１","OBJECTID":431673},"geometry":{"x":168243.04999999981,"y":2544965.5500000007}},{"attributes":{"ID":431699,"DIS_CODE":0,"TOWNNAME":"下營區","LI":"仁里里","LIN":"4鄰","STREET":"仁里街","SECT":" ","MAREA":" ","LANE":"４８巷","ALLEY":" ","HOUSE_NO":"６號","E_COORD97":174271.41,"N_COORD97":2570235.23,"ADDRESS":"仁里街４８巷６號","OBJECTID":431674},"geometry":{"x":174271.41000000108,"y":2570235.2300000023}},{"attributes":{"ID":431700,"DIS_CODE":0,"TOWNNAME":"北區","LI":"和順里","LIN":"37鄰","STREET":"公園南路","SECT":" ","MAREA":" ","LANE":"３７０巷","ALLEY":" ","HOUSE_NO":"４６號十四樓之２","E_COORD97":168243.04999999999,"N_COORD97":2544965.5499999998,"ADDRESS":"公園南路３７０巷４６號十四樓之２","OBJECTID":431675},"geometry":{"x":168243.04999999981,"y":2544965.5500000007}},{"attributes":{"ID":431701,"DIS_CODE":0,"TOWNNAME":"北區","LI":"和順里","LIN":"37鄰","STREET":"公園南路","SECT":" ","MAREA":" ","LANE":"３７０巷","ALLEY":" ","HOUSE_NO":"４６號十樓之１","E_COORD97":168243.04999999999,"N_COORD97":2544965.5499999998,"ADDRESS":"公園南路３７０巷４６號十樓之１","OBJECTID":431676},"geometry":{"x":168243.04999999981,"y":2544965.5500000007}},{"attributes":{"ID":431702,"DIS_CODE":0,"TOWNNAME":"北區","LI":"和順里","LIN":"37鄰","STREET":"公園南路","SECT":" ","MAREA":" ","LANE":"３７０巷","ALLEY":" ","HOUSE_NO":"４６號十樓之２","E_COORD97":168243.04999999999,"N_COORD97":2544965.5499999998,"ADDRESS":"公園南路３７０巷４６號十樓之２","OBJECTID":431677},"geometry":{"x":168243.04999999981,"y":2544965.5500000007}},{"attributes":{"ID":431703,"DIS_CODE":0,"TOWNNAME":"北區","LI":"和順里","LIN":"38鄰","STREET":"公園南路","SECT":" ","MAREA":" ","LANE":"３７０巷","ALLEY":" ","HOUSE_NO":"６８號六樓","E_COORD97":168281.5,"N_COORD97":2544959.3999999999,"ADDRESS":"公園南路３７０巷６８號六樓","OBJECTID":431678},"geometry":{"x":168281.50000000093,"y":2544959.4000000004}},{"attributes":{"ID":431704,"DIS_CODE":0,"TOWNNAME":"北區","LI":"和順里","LIN":"38鄰","STREET":"公園南路","SECT":" ","MAREA":" ","LANE":"３７０巷","ALLEY":" ","HOUSE_NO":"６８號四樓","E_COORD97":168281.5,"N_COORD97":2544959.3999999999,"ADDRESS":"公園南路３７０巷６８號四樓","OBJECTID":431679},"geometry":{"x":168281.50000000093,"y":2544959.4000000004}},{"attributes":{"ID":431705,"DIS_CODE":0,"TOWNNAME":"北區","LI":"和順里","LIN":"38鄰","STREET":"公園南路","SECT":" ","MAREA":" ","LANE":"３７０巷","ALLEY":" ","HOUSE_NO":"７０號七樓","E_COORD97":168283.98999999999,"N_COORD97":2544956.9100000001,"ADDRESS":"公園南路３７０巷７０號七樓","OBJECTID":431680},"geometry":{"x":168283.99000000022,"y":2544956.9100000001}},{"attributes":{"ID":431706,"DIS_CODE":0,"TOWNNAME":"北區","LI":"和順里","LIN":"38鄰","STREET":"公園南路","SECT":" ","MAREA":" ","LANE":"３７０巷","ALLEY":" ","HOUSE_NO":"７０號九樓","E_COORD97":168283.98999999999,"N_COORD97":2544956.9100000001,"ADDRESS":"公園南路３７０巷７０號九樓","OBJECTID":431681},"geometry":{"x":168283.99000000022,"y":2544956.9100000001}},{"attributes":{"ID":431707,"DIS_CODE":0,"TOWNNAME":"北區","LI":"和順里","LIN":"38鄰","STREET":"公園南路","SECT":" ","MAREA":" ","LANE":"３７０巷","ALLEY":" ","HOUSE_NO":"７０號二樓","E_COORD97":168283.98999999999,"N_COORD97":2544956.9100000001,"ADDRESS":"公園南路３７０巷７０號二樓","OBJECTID":431682},"geometry":{"x":168283.99000000022,"y":2544956.9100000001}},{"attributes":{"ID":431708,"DIS_CODE":0,"TOWNNAME":"北區","LI":"和順里","LIN":"38鄰","STREET":"公園南路","SECT":" ","MAREA":" ","LANE":"３７０巷","ALLEY":" ","HOUSE_NO":"７０號八樓","E_COORD97":168283.98999999999,"N_COORD97":2544956.9100000001,"ADDRESS":"公園南路３７０巷７０號八樓","OBJECTID":431683},"geometry":{"x":168283.99000000022,"y":2544956.9100000001}},{"attributes":{"ID":431709,"DIS_CODE":0,"TOWNNAME":"北區","LI":"和順里","LIN":"38鄰","STREET":"公園南路","SECT":" ","MAREA":" ","LANE":"３７０巷","ALLEY":" ","HOUSE_NO":"７０號十一樓","E_COORD97":168283.98999999999,"N_COORD97":2544956.9100000001,"ADDRESS":"公園南路３７０巷７０號十一樓","OBJECTID":431684},"geometry":{"x":168283.99000000022,"y":2544956.9100000001}},{"attributes":{"ID":431710,"DIS_CODE":0,"TOWNNAME":"北區","LI":"和順里","LIN":"38鄰","STREET":"公園南路","SECT":" ","MAREA":" ","LANE":"３７０巷","ALLEY":" ","HOUSE_NO":"７０號十二樓","E_COORD97":168283.98999999999,"N_COORD97":2544956.9100000001,"ADDRESS":"公園南路３７０巷７０號十二樓","OBJECTID":431685},"geometry":{"x":168283.99000000022,"y":2544956.9100000001}},{"attributes":{"ID":431711,"DIS_CODE":0,"TOWNNAME":"北區","LI":"和順里","LIN":"38鄰","STREET":"公園南路","SECT":" ","MAREA":" ","LANE":"３７０巷","ALLEY":" ","HOUSE_NO":"７０號十三樓","E_COORD97":168283.98999999999,"N_COORD97":2544956.9100000001,"ADDRESS":"公園南路３７０巷７０號十三樓","OBJECTID":431686},"geometry":{"x":168283.99000000022,"y":2544956.9100000001}},{"attributes":{"ID":431712,"DIS_CODE":0,"TOWNNAME":"北區","LI":"和順里","LIN":"38鄰","STREET":"公園南路","SECT":" ","MAREA":" ","LANE":"３７０巷","ALLEY":" ","HOUSE_NO":"７０號十五樓","E_COORD97":168283.98999999999,"N_COORD97":2544956.9100000001,"ADDRESS":"公園南路３７０巷７０號十五樓","OBJECTID":431687},"geometry":{"x":168283.99000000022,"y":2544956.9100000001}},{"attributes":{"ID":431713,"DIS_CODE":0,"TOWNNAME":"北區","LI":"和順里","LIN":"38鄰","STREET":"公園南路","SECT":" ","MAREA":" ","LANE":"３７０巷","ALLEY":" ","HOUSE_NO":"７０號十六樓","E_COORD97":168283.98999999999,"N_COORD97":2544956.9100000001,"ADDRESS":"公園南路３７０巷７０號十六樓","OBJECTID":431688},"geometry":{"x":168283.99000000022,"y":2544956.9100000001}},{"attributes":{"ID":431714,"DIS_CODE":0,"TOWNNAME":"北區","LI":"和順里","LIN":"38鄰","STREET":"公園南路","SECT":" ","MAREA":" ","LANE":"３７０巷","ALLEY":" ","HOUSE_NO":"７０號十四樓","E_COORD97":168283.98999999999,"N_COORD97":2544956.9100000001,"ADDRESS":"公園南路３７０巷７０號十四樓","OBJECTID":431689},"geometry":{"x":168283.99000000022,"y":2544956.9100000001}},{"attributes":{"ID":431715,"DIS_CODE":0,"TOWNNAME":"北區","LI":"和順里","LIN":"38鄰","STREET":"公園南路","SECT":" ","MAREA":" ","LANE":"３７０巷","ALLEY":" ","HOUSE_NO":"７０號十樓","E_COORD97":168283.98999999999,"N_COORD97":2544956.9100000001,"ADDRESS":"公園南路３７０巷７０號十樓","OBJECTID":431690},"geometry":{"x":168283.99000000022,"y":2544956.9100000001}},{"attributes":{"ID":431716,"DIS_CODE":0,"TOWNNAME":"北區","LI":"和順里","LIN":"38鄰","STREET":"公園南路","SECT":" ","MAREA":" ","LANE":"３７０巷","ALLEY":" ","HOUSE_NO":"７０號三樓","E_COORD97":168283.98999999999,"N_COORD97":2544956.9100000001,"ADDRESS":"公園南路３７０巷７０號三樓","OBJECTID":431691},"geometry":{"x":168283.99000000022,"y":2544956.9100000001}},{"attributes":{"ID":431717,"DIS_CODE":0,"TOWNNAME":"北區","LI":"和順里","LIN":"38鄰","STREET":"公園南路","SECT":" ","MAREA":" ","LANE":"３７０巷","ALLEY":" ","HOUSE_NO":"７０號五樓","E_COORD97":168283.98999999999,"N_COORD97":2544956.9100000001,"ADDRESS":"公園南路３７０巷７０號五樓","OBJECTID":431692},"geometry":{"x":168283.99000000022,"y":2544956.9100000001}},{"attributes":{"ID":431718,"DIS_CODE":0,"TOWNNAME":"北區","LI":"和順里","LIN":"39鄰","STREET":"公園南路","SECT":" ","MAREA":" ","LANE":"３７０巷","ALLEY":" ","HOUSE_NO":"８２號十一樓","E_COORD97":168263.01999999999,"N_COORD97":2544937.04,"ADDRESS":"公園南路３７０巷８２號十一樓","OBJECTID":431693},"geometry":{"x":168263.01999999955,"y":2544937.0399999991}},{"attributes":{"ID":431719,"DIS_CODE":0,"TOWNNAME":"北區","LI":"和順里","LIN":"39鄰","STREET":"公園南路","SECT":" ","MAREA":" ","LANE":"３７０巷","ALLEY":" ","HOUSE_NO":"８２號十七樓","E_COORD97":168263.01999999999,"N_COORD97":2544937.04,"ADDRESS":"公園南路３７０巷８２號十七樓","OBJECTID":431694},"geometry":{"x":168263.01999999955,"y":2544937.0399999991}},{"attributes":{"ID":431720,"DIS_CODE":0,"TOWNNAME":"北區","LI":"和順里","LIN":"39鄰","STREET":"公園南路","SECT":" ","MAREA":" ","LANE":"３７０巷","ALLEY":" ","HOUSE_NO":"８２號十三樓","E_COORD97":168263.01999999999,"N_COORD97":2544937.04,"ADDRESS":"公園南路３７０巷８２號十三樓","OBJECTID":431695},"geometry":{"x":168263.01999999955,"y":2544937.0399999991}},{"attributes":{"ID":431721,"DIS_CODE":0,"TOWNNAME":"北區","LI":"和順里","LIN":"39鄰","STREET":"公園南路","SECT":" ","MAREA":" ","LANE":"３７０巷","ALLEY":" ","HOUSE_NO":"８２號十五樓","E_COORD97":168263.01999999999,"N_COORD97":2544937.04,"ADDRESS":"公園南路３７０巷８２號十五樓","OBJECTID":431696},"geometry":{"x":168263.01999999955,"y":2544937.0399999991}},{"attributes":{"ID":431722,"DIS_CODE":0,"TOWNNAME":"北區","LI":"和順里","LIN":"39鄰","STREET":"公園南路","SECT":" ","MAREA":" ","LANE":"３７０巷","ALLEY":" ","HOUSE_NO":"８２號三樓","E_COORD97":168263.01999999999,"N_COORD97":2544937.04,"ADDRESS":"公園南路３７０巷８２號三樓","OBJECTID":431697},"geometry":{"x":168263.01999999955,"y":2544937.0399999991}},{"attributes":{"ID":431723,"DIS_CODE":0,"TOWNNAME":"北區","LI":"和順里","LIN":"39鄰","STREET":"公園南路","SECT":" ","MAREA":" ","LANE":"３７０巷","ALLEY":" ","HOUSE_NO":"８２號五樓","E_COORD97":168263.01999999999,"N_COORD97":2544937.04,"ADDRESS":"公園南路３７０巷８２號五樓","OBJECTID":431698},"geometry":{"x":168263.01999999955,"y":2544937.0399999991}},{"attributes":{"ID":431724,"DIS_CODE":0,"TOWNNAME":"北區","LI":"和順里","LIN":"39鄰","STREET":"公園南路","SECT":" ","MAREA":" ","LANE":"３７０巷","ALLEY":" ","HOUSE_NO":"８６號二樓","E_COORD97":168259.20000000001,"N_COORD97":2544933.71,"ADDRESS":"公園南路３７０巷８６號二樓","OBJECTID":431699},"geometry":{"x":168259.20000000019,"y":2544933.7100000028}},{"attributes":{"ID":431725,"DIS_CODE":0,"TOWNNAME":"北區","LI":"和順里","LIN":"39鄰","STREET":"公園南路","SECT":" ","MAREA":" ","LANE":"３７０巷","ALLEY":" ","HOUSE_NO":"８６號八樓","E_COORD97":168259.20000000001,"N_COORD97":2544933.71,"ADDRESS":"公園南路３７０巷８６號八樓","OBJECTID":431700},"geometry":{"x":168259.20000000019,"y":2544933.7100000028}},{"attributes":{"ID":431726,"DIS_CODE":0,"TOWNNAME":"北區","LI":"和順里","LIN":"39鄰","STREET":"公園南路","SECT":" ","MAREA":" ","LANE":"３７０巷","ALLEY":" ","HOUSE_NO":"８６號十二樓","E_COORD97":168259.20000000001,"N_COORD97":2544933.71,"ADDRESS":"公園南路３７０巷８６號十二樓","OBJECTID":431701},"geometry":{"x":168259.20000000019,"y":2544933.7100000028}},{"attributes":{"ID":431727,"DIS_CODE":0,"TOWNNAME":"北區","LI":"和順里","LIN":"39鄰","STREET":"公園南路","SECT":" ","MAREA":" ","LANE":"３７０巷","ALLEY":" ","HOUSE_NO":"８６號十四樓","E_COORD97":168259.20000000001,"N_COORD97":2544933.71,"ADDRESS":"公園南路３７０巷８６號十四樓","OBJECTID":431702},"geometry":{"x":168259.20000000019,"y":2544933.7100000028}},{"attributes":{"ID":431728,"DIS_CODE":0,"TOWNNAME":"北區","LI":"和順里","LIN":"39鄰","STREET":"公園南路","SECT":" ","MAREA":" ","LANE":"３７０巷","ALLEY":" ","HOUSE_NO":"８６號十樓","E_COORD97":168259.20000000001,"N_COORD97":2544933.71,"ADDRESS":"公園南路３７０巷８６號十樓","OBJECTID":431703},"geometry":{"x":168259.20000000019,"y":2544933.7100000028}},{"attributes":{"ID":431729,"DIS_CODE":0,"TOWNNAME":"安平區","LI":"文平里","LIN":"17鄰","STREET":"建平三街","SECT":" ","MAREA":" ","LANE":"６５巷","ALLEY":" ","HOUSE_NO":"２７號八樓之３","E_COORD97":165773.79000000001,"N_COORD97":2542839.4700000002,"ADDRESS":"建平三街６５巷２７號八樓之３","OBJECTID":431704},"geometry":{"x":165773.7900000019,"y":2542839.4700000025}},{"attributes":{"ID":431730,"DIS_CODE":0,"TOWNNAME":"安平區","LI":"華平里","LIN":"8鄰","STREET":"育平九街","SECT":" ","MAREA":" ","LANE":"２２巷","ALLEY":" ","HOUSE_NO":"５號四樓之２","E_COORD97":165413.85000000001,"N_COORD97":2543981.5499999998,"ADDRESS":"育平九街２２巷５號四樓之２","OBJECTID":431705},"geometry":{"x":165413.85000000056,"y":2543981.5500000026}},{"attributes":{"ID":431731,"DIS_CODE":0,"TOWNNAME":"安平區","LI":"華平里","LIN":"8鄰","STREET":"育平九街","SECT":" ","MAREA":" ","LANE":"２２巷","ALLEY":" ","HOUSE_NO":"５號四樓之３","E_COORD97":165413.85000000001,"N_COORD97":2543981.5499999998,"ADDRESS":"育平九街２２巷５號四樓之３","OBJECTID":431706},"geometry":{"x":165413.85000000056,"y":2543981.5500000026}},{"attributes":{"ID":431732,"DIS_CODE":0,"TOWNNAME":"安平區","LI":"華平里","LIN":"8鄰","STREET":"育平九街","SECT":" ","MAREA":" ","LANE":"２２巷","ALLEY":" ","HOUSE_NO":"５號四樓之４","E_COORD97":165413.85000000001,"N_COORD97":2543981.5499999998,"ADDRESS":"育平九街２２巷５號四樓之４","OBJECTID":431707},"geometry":{"x":165413.85000000056,"y":2543981.5500000026}},{"attributes":{"ID":431733,"DIS_CODE":0,"TOWNNAME":"安平區","LI":"華平里","LIN":"8鄰","STREET":"育平九街","SECT":" ","MAREA":" ","LANE":"２２巷","ALLEY":" ","HOUSE_NO":"５號四樓之５","E_COORD97":165413.85000000001,"N_COORD97":2543981.5499999998,"ADDRESS":"育平九街２２巷５號四樓之５","OBJECTID":431708},"geometry":{"x":165413.85000000056,"y":2543981.5500000026}},{"attributes":{"ID":431734,"DIS_CODE":0,"TOWNNAME":"安平區","LI":"華平里","LIN":"8鄰","STREET":"育平九街","SECT":" ","MAREA":" ","LANE":"２２巷","ALLEY":" ","HOUSE_NO":"５號四樓之６","E_COORD97":165413.85000000001,"N_COORD97":2543981.5499999998,"ADDRESS":"育平九街２２巷５號四樓之６","OBJECTID":431709},"geometry":{"x":165413.85000000056,"y":2543981.5500000026}},{"attributes":{"ID":431735,"DIS_CODE":0,"TOWNNAME":"安平區","LI":"華平里","LIN":"8鄰","STREET":"育平九街","SECT":" ","MAREA":" ","LANE":"２２巷","ALLEY":" ","HOUSE_NO":"５號四樓之７","E_COORD97":165413.85000000001,"N_COORD97":2543981.5499999998,"ADDRESS":"育平九街２２巷５號四樓之７","OBJECTID":431710},"geometry":{"x":165413.85000000056,"y":2543981.5500000026}},{"attributes":{"ID":431736,"DIS_CODE":0,"TOWNNAME":"安平區","LI":"華平里","LIN":"8鄰","STREET":"育平九街","SECT":" ","MAREA":" ","LANE":"２２巷","ALLEY":" ","HOUSE_NO":"５號四樓之８","E_COORD97":165413.85000000001,"N_COORD97":2543981.5499999998,"ADDRESS":"育平九街２２巷５號四樓之８","OBJECTID":431711},"geometry":{"x":165413.85000000056,"y":2543981.5500000026}},{"attributes":{"ID":431737,"DIS_CODE":0,"TOWNNAME":"安平區","LI":"華平里","LIN":"8鄰","STREET":"育平九街","SECT":" ","MAREA":" ","LANE":"２２巷","ALLEY":" ","HOUSE_NO":"５號四樓之９","E_COORD97":165413.85000000001,"N_COORD97":2543981.5499999998,"ADDRESS":"育平九街２２巷５號四樓之９","OBJECTID":431712},"geometry":{"x":165413.85000000056,"y":2543981.5500000026}},{"attributes":{"ID":431738,"DIS_CODE":0,"TOWNNAME":"安平區","LI":"華平里","LIN":"11鄰","STREET":"怡平路","SECT":" ","MAREA":" ","LANE":"４４２巷","ALLEY":" ","HOUSE_NO":"６３號二樓之１","E_COORD97":165296.39000000001,"N_COORD97":2544009.0899999999,"ADDRESS":"怡平路４４２巷６３號二樓之１","OBJECTID":431713},"geometry":{"x":165296.39000000153,"y":2544009.0899999999}},{"attributes":{"ID":431739,"DIS_CODE":0,"TOWNNAME":"安平區","LI":"華平里","LIN":"11鄰","STREET":"怡平路","SECT":" ","MAREA":" ","LANE":"４４２巷","ALLEY":" ","HOUSE_NO":"６３號二樓之２","E_COORD97":165296.39000000001,"N_COORD97":2544009.0899999999,"ADDRESS":"怡平路４４２巷６３號二樓之２","OBJECTID":431714},"geometry":{"x":165296.39000000153,"y":2544009.0899999999}},{"attributes":{"ID":431740,"DIS_CODE":0,"TOWNNAME":"安平區","LI":"華平里","LIN":"11鄰","STREET":"怡平路","SECT":" ","MAREA":" ","LANE":"４４２巷","ALLEY":" ","HOUSE_NO":"６３號二樓之３","E_COORD97":165296.39000000001,"N_COORD97":2544009.0899999999,"ADDRESS":"怡平路４４２巷６３號二樓之３","OBJECTID":431715},"geometry":{"x":165296.39000000153,"y":2544009.0899999999}},{"attributes":{"ID":431741,"DIS_CODE":0,"TOWNNAME":"安平區","LI":"華平里","LIN":"11鄰","STREET":"怡平路","SECT":" ","MAREA":" ","LANE":"４４２巷","ALLEY":" ","HOUSE_NO":"６３號二樓之４","E_COORD97":165296.39000000001,"N_COORD97":2544009.0899999999,"ADDRESS":"怡平路４４２巷６３號二樓之４","OBJECTID":431716},"geometry":{"x":165296.39000000153,"y":2544009.0899999999}},{"attributes":{"ID":431742,"DIS_CODE":0,"TOWNNAME":"佳里區","LI":"忠仁里","LIN":"8鄰","STREET":"建中街","SECT":" ","MAREA":" ","LANE":"４１巷","ALLEY":" ","HOUSE_NO":"５號","E_COORD97":165929.89999999999,"N_COORD97":2562059.2000000002,"ADDRESS":"建中街４１巷５號","OBJECTID":431717},"geometry":{"x":165929.9000000013,"y":2562059.2000000011}},{"attributes":{"ID":431743,"DIS_CODE":0,"TOWNNAME":"安平區","LI":"怡平里","LIN":"9鄰","STREET":"建平十二街","SECT":" ","MAREA":" ","LANE":"１４８巷","ALLEY":" ","HOUSE_NO":"１６號四樓之５","E_COORD97":165796.56,"N_COORD97":2544082.0499999998,"ADDRESS":"建平十二街１４８巷１６號四樓之５","OBJECTID":431718},"geometry":{"x":165796.55999999959,"y":2544082.0500000007}},{"attributes":{"ID":431744,"DIS_CODE":0,"TOWNNAME":"安平區","LI":"怡平里","LIN":"9鄰","STREET":"建平十二街","SECT":" ","MAREA":" ","LANE":"１４８巷","ALLEY":" ","HOUSE_NO":"１６號四樓之６","E_COORD97":165796.56,"N_COORD97":2544082.0499999998,"ADDRESS":"建平十二街１４８巷１６號四樓之６","OBJECTID":431719},"geometry":{"x":165796.55999999959,"y":2544082.0500000007}},{"attributes":{"ID":431745,"DIS_CODE":0,"TOWNNAME":"安南區","LI":"淵中里","LIN":"3鄰","STREET":"安中路","SECT":"四段","MAREA":" ","LANE":"９１巷","ALLEY":"６弄","HOUSE_NO":"６號","E_COORD97":165136.54537899999,"N_COORD97":2549934.95634,"ADDRESS":"安中路四段９１巷６弄６號","OBJECTID":431720},"geometry":{"x":165136.54537899978,"y":2549934.9563409984}},{"attributes":{"ID":431746,"DIS_CODE":0,"TOWNNAME":"安平區","LI":"怡平里","LIN":"9鄰","STREET":"建平十二街","SECT":" ","MAREA":" ","LANE":"１４８巷","ALLEY":" ","HOUSE_NO":"１６號四樓之７","E_COORD97":165796.56,"N_COORD97":2544082.0499999998,"ADDRESS":"建平十二街１４８巷１６號四樓之７","OBJECTID":431721},"geometry":{"x":165796.55999999959,"y":2544082.0500000007}},{"attributes":{"ID":431747,"DIS_CODE":0,"TOWNNAME":"安平區","LI":"怡平里","LIN":"9鄰","STREET":"建平十二街","SECT":" ","MAREA":" ","LANE":"１４８巷","ALLEY":" ","HOUSE_NO":"１６號四樓之８","E_COORD97":165796.56,"N_COORD97":2544082.0499999998,"ADDRESS":"建平十二街１４８巷１６號四樓之８","OBJECTID":431722},"geometry":{"x":165796.55999999959,"y":2544082.0500000007}},{"attributes":{"ID":431748,"DIS_CODE":0,"TOWNNAME":"安平區","LI":"怡平里","LIN":"9鄰","STREET":"建平十二街","SECT":" ","MAREA":" ","LANE":"１４８巷","ALLEY":" ","HOUSE_NO":"１６號五樓之１","E_COORD97":165796.56,"N_COORD97":2544082.0499999998,"ADDRESS":"建平十二街１４８巷１６號五樓之１","OBJECTID":431723},"geometry":{"x":165796.55999999959,"y":2544082.0500000007}},{"attributes":{"ID":431749,"DIS_CODE":0,"TOWNNAME":"北區","LI":"中樓里","LIN":"10鄰","STREET":"開元路","SECT":" ","MAREA":" ","LANE":"６６巷","ALLEY":" ","HOUSE_NO":"２４號二樓","E_COORD97":169734.59,"N_COORD97":2545068.1800000002,"ADDRESS":"開元路６６巷２４號二樓","OBJECTID":431724},"geometry":{"x":169734.58999999985,"y":2545068.1800000016}},{"attributes":{"ID":431750,"DIS_CODE":0,"TOWNNAME":"北區","LI":"中樓里","LIN":"10鄰","STREET":"開元路","SECT":" ","MAREA":" ","LANE":"６６巷","ALLEY":" ","HOUSE_NO":"２４號三樓","E_COORD97":169734.59,"N_COORD97":2545068.1800000002,"ADDRESS":"開元路６６巷２４號三樓","OBJECTID":431725},"geometry":{"x":169734.58999999985,"y":2545068.1800000016}},{"attributes":{"ID":431751,"DIS_CODE":0,"TOWNNAME":"北區","LI":"中樓里","LIN":"10鄰","STREET":"開元路","SECT":" ","MAREA":" ","LANE":"６６巷","ALLEY":" ","HOUSE_NO":"２４號五樓","E_COORD97":169734.59,"N_COORD97":2545068.1800000002,"ADDRESS":"開元路６６巷２４號五樓","OBJECTID":431726},"geometry":{"x":169734.58999999985,"y":2545068.1800000016}},{"attributes":{"ID":431752,"DIS_CODE":0,"TOWNNAME":"北區","LI":"中樓里","LIN":"10鄰","STREET":"開元路","SECT":" ","MAREA":" ","LANE":"６６巷","ALLEY":" ","HOUSE_NO":"２４號四樓","E_COORD97":169734.59,"N_COORD97":2545068.1800000002,"ADDRESS":"開元路６６巷２４號四樓","OBJECTID":431727},"geometry":{"x":169734.58999999985,"y":2545068.1800000016}},{"attributes":{"ID":431753,"DIS_CODE":0,"TOWNNAME":"北區","LI":"中樓里","LIN":"10鄰","STREET":"開元路","SECT":" ","MAREA":" ","LANE":"６６巷","ALLEY":" ","HOUSE_NO":"２６號二樓","E_COORD97":169738.28,"N_COORD97":2545056.6499999999,"ADDRESS":"開元路６６巷２６號二樓","OBJECTID":431728},"geometry":{"x":169738.28000000026,"y":2545056.6500000004}},{"attributes":{"ID":431754,"DIS_CODE":0,"TOWNNAME":"北區","LI":"中樓里","LIN":"10鄰","STREET":"開元路","SECT":" ","MAREA":" ","LANE":"６６巷","ALLEY":" ","HOUSE_NO":"２６號三樓","E_COORD97":169738.28,"N_COORD97":2545056.6499999999,"ADDRESS":"開元路６６巷２６號三樓","OBJECTID":431729},"geometry":{"x":169738.28000000026,"y":2545056.6500000004}},{"attributes":{"ID":431755,"DIS_CODE":0,"TOWNNAME":"北區","LI":"中樓里","LIN":"10鄰","STREET":"開元路","SECT":" ","MAREA":" ","LANE":"６６巷","ALLEY":" ","HOUSE_NO":"２６號五樓","E_COORD97":169738.28,"N_COORD97":2545056.6499999999,"ADDRESS":"開元路６６巷２６號五樓","OBJECTID":431730},"geometry":{"x":169738.28000000026,"y":2545056.6500000004}},{"attributes":{"ID":431756,"DIS_CODE":0,"TOWNNAME":"北區","LI":"中樓里","LIN":"10鄰","STREET":"開元路","SECT":" ","MAREA":" ","LANE":"６６巷","ALLEY":" ","HOUSE_NO":"２６號四樓","E_COORD97":169738.28,"N_COORD97":2545056.6499999999,"ADDRESS":"開元路６６巷２６號四樓","OBJECTID":431731},"geometry":{"x":169738.28000000026,"y":2545056.6500000004}},{"attributes":{"ID":431757,"DIS_CODE":0,"TOWNNAME":"北區","LI":"中樓里","LIN":"10鄰","STREET":"開元路","SECT":" ","MAREA":" ","LANE":"６６巷","ALLEY":" ","HOUSE_NO":"２８號二樓","E_COORD97":169740.76000000001,"N_COORD97":2545048.7999999998,"ADDRESS":"開元路６６巷２８號二樓","OBJECTID":431732},"geometry":{"x":169740.76000000071,"y":2545048.8000000007}},{"attributes":{"ID":431758,"DIS_CODE":0,"TOWNNAME":"北區","LI":"中樓里","LIN":"10鄰","STREET":"開元路","SECT":" ","MAREA":" ","LANE":"６６巷","ALLEY":" ","HOUSE_NO":"２８號三樓","E_COORD97":169740.76000000001,"N_COORD97":2545048.7999999998,"ADDRESS":"開元路６６巷２８號三樓","OBJECTID":431733},"geometry":{"x":169740.76000000071,"y":2545048.8000000007}},{"attributes":{"ID":431759,"DIS_CODE":0,"TOWNNAME":"北區","LI":"中樓里","LIN":"10鄰","STREET":"開元路","SECT":" ","MAREA":" ","LANE":"６６巷","ALLEY":" ","HOUSE_NO":"２８號五樓","E_COORD97":169740.76000000001,"N_COORD97":2545048.7999999998,"ADDRESS":"開元路６６巷２８號五樓","OBJECTID":431734},"geometry":{"x":169740.76000000071,"y":2545048.8000000007}},{"attributes":{"ID":431760,"DIS_CODE":0,"TOWNNAME":"北區","LI":"中樓里","LIN":"10鄰","STREET":"開元路","SECT":" ","MAREA":" ","LANE":"６６巷","ALLEY":" ","HOUSE_NO":"２８號四樓","E_COORD97":169740.76000000001,"N_COORD97":2545048.7999999998,"ADDRESS":"開元路６６巷２８號四樓","OBJECTID":431735},"geometry":{"x":169740.76000000071,"y":2545048.8000000007}},{"attributes":{"ID":431761,"DIS_CODE":0,"TOWNNAME":"北區","LI":"中樓里","LIN":"10鄰","STREET":"開元路","SECT":" ","MAREA":" ","LANE":"６６巷","ALLEY":" ","HOUSE_NO":"３０號二樓","E_COORD97":169743.89000000001,"N_COORD97":2545036.8399999999,"ADDRESS":"開元路６６巷３０號二樓","OBJECTID":431736},"geometry":{"x":169743.88999999966,"y":2545036.8400000017}},{"attributes":{"ID":431762,"DIS_CODE":0,"TOWNNAME":"北區","LI":"中樓里","LIN":"10鄰","STREET":"開元路","SECT":" ","MAREA":" ","LANE":"６６巷","ALLEY":" ","HOUSE_NO":"３０號三樓","E_COORD97":169743.89000000001,"N_COORD97":2545036.8399999999,"ADDRESS":"開元路６６巷３０號三樓","OBJECTID":431737},"geometry":{"x":169743.88999999966,"y":2545036.8400000017}},{"attributes":{"ID":431763,"DIS_CODE":0,"TOWNNAME":"北區","LI":"中樓里","LIN":"10鄰","STREET":"開元路","SECT":" ","MAREA":" ","LANE":"６６巷","ALLEY":" ","HOUSE_NO":"３０號五樓","E_COORD97":169743.89000000001,"N_COORD97":2545036.8399999999,"ADDRESS":"開元路６６巷３０號五樓","OBJECTID":431738},"geometry":{"x":169743.88999999966,"y":2545036.8400000017}},{"attributes":{"ID":431764,"DIS_CODE":0,"TOWNNAME":"北區","LI":"中樓里","LIN":"10鄰","STREET":"開元路","SECT":" ","MAREA":" ","LANE":"６６巷","ALLEY":" ","HOUSE_NO":"３０號四樓","E_COORD97":169743.89000000001,"N_COORD97":2545036.8399999999,"ADDRESS":"開元路６６巷３０號四樓","OBJECTID":431739},"geometry":{"x":169743.88999999966,"y":2545036.8400000017}},{"attributes":{"ID":431765,"DIS_CODE":0,"TOWNNAME":"北區","LI":"中樓里","LIN":"10鄰","STREET":"開元路","SECT":" ","MAREA":" ","LANE":"６６巷","ALLEY":" ","HOUSE_NO":"３２號二樓","E_COORD97":169746.76999999999,"N_COORD97":2545027.71,"ADDRESS":"開元路６６巷３２號二樓","OBJECTID":431740},"geometry":{"x":169746.76999999862,"y":2545027.7100000028}},{"attributes":{"ID":431766,"DIS_CODE":0,"TOWNNAME":"北區","LI":"中樓里","LIN":"4鄰","STREET":"前鋒路","SECT":" ","MAREA":" ","LANE":"１８５巷","ALLEY":" ","HOUSE_NO":"２號二樓之１","E_COORD97":169469.29999999999,"N_COORD97":2544819.1400000001,"ADDRESS":"前鋒路１８５巷２號二樓之１","OBJECTID":431741},"geometry":{"x":169469.30000000075,"y":2544819.1400000006}},{"attributes":{"ID":431767,"DIS_CODE":0,"TOWNNAME":"北區","LI":"中樓里","LIN":"4鄰","STREET":"前鋒路","SECT":" ","MAREA":" ","LANE":"１８５巷","ALLEY":" ","HOUSE_NO":"２號二樓之２","E_COORD97":169469.29999999999,"N_COORD97":2544819.1400000001,"ADDRESS":"前鋒路１８５巷２號二樓之２","OBJECTID":431742},"geometry":{"x":169469.30000000075,"y":2544819.1400000006}},{"attributes":{"ID":431768,"DIS_CODE":0,"TOWNNAME":"北區","LI":"中樓里","LIN":"4鄰","STREET":"前鋒路","SECT":" ","MAREA":" ","LANE":"１８５巷","ALLEY":" ","HOUSE_NO":"２號三樓之１","E_COORD97":169469.29999999999,"N_COORD97":2544819.1400000001,"ADDRESS":"前鋒路１８５巷２號三樓之１","OBJECTID":431743},"geometry":{"x":169469.30000000075,"y":2544819.1400000006}},{"attributes":{"ID":431769,"DIS_CODE":0,"TOWNNAME":"北區","LI":"中樓里","LIN":"4鄰","STREET":"前鋒路","SECT":" ","MAREA":" ","LANE":"１８５巷","ALLEY":" ","HOUSE_NO":"２號三樓之２","E_COORD97":169469.29999999999,"N_COORD97":2544819.1400000001,"ADDRESS":"前鋒路１８５巷２號三樓之２","OBJECTID":431744},"geometry":{"x":169469.30000000075,"y":2544819.1400000006}},{"attributes":{"ID":431770,"DIS_CODE":0,"TOWNNAME":"北區","LI":"中樓里","LIN":"4鄰","STREET":"前鋒路","SECT":" ","MAREA":" ","LANE":"１８５巷","ALLEY":" ","HOUSE_NO":"２號五樓之１","E_COORD97":169469.29999999999,"N_COORD97":2544819.1400000001,"ADDRESS":"前鋒路１８５巷２號五樓之１","OBJECTID":431745},"geometry":{"x":169469.30000000075,"y":2544819.1400000006}},{"attributes":{"ID":431771,"DIS_CODE":0,"TOWNNAME":"北區","LI":"中樓里","LIN":"4鄰","STREET":"前鋒路","SECT":" ","MAREA":" ","LANE":"１８５巷","ALLEY":" ","HOUSE_NO":"２號五樓之２","E_COORD97":169469.29999999999,"N_COORD97":2544819.1400000001,"ADDRESS":"前鋒路１８５巷２號五樓之２","OBJECTID":431746},"geometry":{"x":169469.30000000075,"y":2544819.1400000006}},{"attributes":{"ID":431772,"DIS_CODE":0,"TOWNNAME":"北區","LI":"中樓里","LIN":"4鄰","STREET":"前鋒路","SECT":" ","MAREA":" ","LANE":"１８５巷","ALLEY":" ","HOUSE_NO":"２號四樓之１","E_COORD97":169469.29999999999,"N_COORD97":2544819.1400000001,"ADDRESS":"前鋒路１８５巷２號四樓之１","OBJECTID":431747},"geometry":{"x":169469.30000000075,"y":2544819.1400000006}},{"attributes":{"ID":431773,"DIS_CODE":0,"TOWNNAME":"大內區","LI":"大內里","LIN":"13鄰","STREET":" ","SECT":" ","MAREA":"內庄","LANE":" ","ALLEY":" ","HOUSE_NO":"１４６號","E_COORD97":184817.23562200001,"N_COORD97":2557451.1350400001,"ADDRESS":"內庄１４６號","OBJECTID":431748},"geometry":{"x":184817.23562200088,"y":2557451.1350410003}},{"attributes":{"ID":431774,"DIS_CODE":0,"TOWNNAME":"北區","LI":"中樓里","LIN":"4鄰","STREET":"前鋒路","SECT":" ","MAREA":" ","LANE":"１８５巷","ALLEY":" ","HOUSE_NO":"２號四樓之２","E_COORD97":169469.29999999999,"N_COORD97":2544819.1400000001,"ADDRESS":"前鋒路１８５巷２號四樓之２","OBJECTID":431749},"geometry":{"x":169469.30000000075,"y":2544819.1400000006}},{"attributes":{"ID":431775,"DIS_CODE":0,"TOWNNAME":"北區","LI":"中樓里","LIN":"4鄰","STREET":"前鋒路","SECT":" ","MAREA":" ","LANE":"１８５巷","ALLEY":" ","HOUSE_NO":"４號二樓之１","E_COORD97":169471.51000000001,"N_COORD97":2544836.9700000002,"ADDRESS":"前鋒路１８５巷４號二樓之１","OBJECTID":431750},"geometry":{"x":169471.51000000071,"y":2544836.9700000025}},{"attributes":{"ID":431776,"DIS_CODE":0,"TOWNNAME":"北區","LI":"中樓里","LIN":"4鄰","STREET":"前鋒路","SECT":" ","MAREA":" ","LANE":"１８５巷","ALLEY":" ","HOUSE_NO":"４號二樓之２","E_COORD97":169471.51000000001,"N_COORD97":2544836.9700000002,"ADDRESS":"前鋒路１８５巷４號二樓之２","OBJECTID":431751},"geometry":{"x":169471.51000000071,"y":2544836.9700000025}},{"attributes":{"ID":431777,"DIS_CODE":0,"TOWNNAME":"北區","LI":"中樓里","LIN":"4鄰","STREET":"前鋒路","SECT":" ","MAREA":" ","LANE":"１８５巷","ALLEY":" ","HOUSE_NO":"４號三樓之１","E_COORD97":169471.51000000001,"N_COORD97":2544836.9700000002,"ADDRESS":"前鋒路１８５巷４號三樓之１","OBJECTID":431752},"geometry":{"x":169471.51000000071,"y":2544836.9700000025}},{"attributes":{"ID":431778,"DIS_CODE":0,"TOWNNAME":"北區","LI":"中樓里","LIN":"4鄰","STREET":"前鋒路","SECT":" ","MAREA":" ","LANE":"１８５巷","ALLEY":" ","HOUSE_NO":"４號三樓之２","E_COORD97":169471.51000000001,"N_COORD97":2544836.9700000002,"ADDRESS":"前鋒路１８５巷４號三樓之２","OBJECTID":431753},"geometry":{"x":169471.51000000071,"y":2544836.9700000025}},{"attributes":{"ID":431779,"DIS_CODE":0,"TOWNNAME":"北區","LI":"中樓里","LIN":"4鄰","STREET":"前鋒路","SECT":" ","MAREA":" ","LANE":"１８５巷","ALLEY":" ","HOUSE_NO":"４號五樓之１","E_COORD97":169471.51000000001,"N_COORD97":2544836.9700000002,"ADDRESS":"前鋒路１８５巷４號五樓之１","OBJECTID":431754},"geometry":{"x":169471.51000000071,"y":2544836.9700000025}},{"attributes":{"ID":431780,"DIS_CODE":0,"TOWNNAME":"北區","LI":"中樓里","LIN":"4鄰","STREET":"前鋒路","SECT":" ","MAREA":" ","LANE":"１８５巷","ALLEY":" ","HOUSE_NO":"４號五樓之２","E_COORD97":169471.51000000001,"N_COORD97":2544836.9700000002,"ADDRESS":"前鋒路１８５巷４號五樓之２","OBJECTID":431755},"geometry":{"x":169471.51000000071,"y":2544836.9700000025}},{"attributes":{"ID":431781,"DIS_CODE":0,"TOWNNAME":"北區","LI":"中樓里","LIN":"4鄰","STREET":"前鋒路","SECT":" ","MAREA":" ","LANE":"１８５巷","ALLEY":" ","HOUSE_NO":"４號四樓之１","E_COORD97":169471.51000000001,"N_COORD97":2544836.9700000002,"ADDRESS":"前鋒路１８５巷４號四樓之１","OBJECTID":431756},"geometry":{"x":169471.51000000071,"y":2544836.9700000025}},{"attributes":{"ID":431782,"DIS_CODE":0,"TOWNNAME":"北區","LI":"中樓里","LIN":"4鄰","STREET":"前鋒路","SECT":" ","MAREA":" ","LANE":"１８５巷","ALLEY":" ","HOUSE_NO":"４號四樓之２","E_COORD97":169471.51000000001,"N_COORD97":2544836.9700000002,"ADDRESS":"前鋒路１８５巷４號四樓之２","OBJECTID":431757},"geometry":{"x":169471.51000000071,"y":2544836.9700000025}},{"attributes":{"ID":431783,"DIS_CODE":0,"TOWNNAME":"北區","LI":"中樓里","LIN":"4鄰","STREET":"前鋒路","SECT":" ","MAREA":" ","LANE":"１８５巷","ALLEY":" ","HOUSE_NO":"６號二樓之１","E_COORD97":169457.13,"N_COORD97":2544839.79,"ADDRESS":"前鋒路１８５巷６號二樓之１","OBJECTID":431758},"geometry":{"x":169457.13000000082,"y":2544839.790000001}},{"attributes":{"ID":431784,"DIS_CODE":0,"TOWNNAME":"北區","LI":"中樓里","LIN":"4鄰","STREET":"前鋒路","SECT":" ","MAREA":" ","LANE":"１８５巷","ALLEY":" ","HOUSE_NO":"６號二樓之２","E_COORD97":169457.13,"N_COORD97":2544839.79,"ADDRESS":"前鋒路１８５巷６號二樓之２","OBJECTID":431759},"geometry":{"x":169457.13000000082,"y":2544839.790000001}},{"attributes":{"ID":431785,"DIS_CODE":0,"TOWNNAME":"北區","LI":"中樓里","LIN":"4鄰","STREET":"前鋒路","SECT":" ","MAREA":" ","LANE":"１８５巷","ALLEY":" ","HOUSE_NO":"６號三樓之１","E_COORD97":169457.13,"N_COORD97":2544839.79,"ADDRESS":"前鋒路１８５巷６號三樓之１","OBJECTID":431760},"geometry":{"x":169457.13000000082,"y":2544839.790000001}},{"attributes":{"ID":431786,"DIS_CODE":0,"TOWNNAME":"北區","LI":"中樓里","LIN":"4鄰","STREET":"前鋒路","SECT":" ","MAREA":" ","LANE":"１８５巷","ALLEY":" ","HOUSE_NO":"６號三樓之２","E_COORD97":169457.13,"N_COORD97":2544839.79,"ADDRESS":"前鋒路１８５巷６號三樓之２","OBJECTID":431761},"geometry":{"x":169457.13000000082,"y":2544839.790000001}},{"attributes":{"ID":431787,"DIS_CODE":0,"TOWNNAME":"北區","LI":"中樓里","LIN":"4鄰","STREET":"前鋒路","SECT":" ","MAREA":" ","LANE":"１８５巷","ALLEY":" ","HOUSE_NO":"６號五樓之１","E_COORD97":169457.13,"N_COORD97":2544839.79,"ADDRESS":"前鋒路１８５巷６號五樓之１","OBJECTID":431762},"geometry":{"x":169457.13000000082,"y":2544839.790000001}},{"attributes":{"ID":431788,"DIS_CODE":0,"TOWNNAME":"北區","LI":"中樓里","LIN":"4鄰","STREET":"前鋒路","SECT":" ","MAREA":" ","LANE":"１８５巷","ALLEY":" ","HOUSE_NO":"６號五樓之２","E_COORD97":169457.13,"N_COORD97":2544839.79,"ADDRESS":"前鋒路１８５巷６號五樓之２","OBJECTID":431763},"geometry":{"x":169457.13000000082,"y":2544839.790000001}},{"attributes":{"ID":431789,"DIS_CODE":0,"TOWNNAME":"北區","LI":"中樓里","LIN":"4鄰","STREET":"前鋒路","SECT":" ","MAREA":" ","LANE":"１８５巷","ALLEY":" ","HOUSE_NO":"６號四樓之１","E_COORD97":169457.13,"N_COORD97":2544839.79,"ADDRESS":"前鋒路１８５巷６號四樓之１","OBJECTID":431764},"geometry":{"x":169457.13000000082,"y":2544839.790000001}},{"attributes":{"ID":431790,"DIS_CODE":0,"TOWNNAME":"北區","LI":"中樓里","LIN":"4鄰","STREET":"前鋒路","SECT":" ","MAREA":" ","LANE":"１８５巷","ALLEY":" ","HOUSE_NO":"６號四樓之２","E_COORD97":169457.13,"N_COORD97":2544839.79,"ADDRESS":"前鋒路１８５巷６號四樓之２","OBJECTID":431765},"geometry":{"x":169457.13000000082,"y":2544839.790000001}},{"attributes":{"ID":431791,"DIS_CODE":0,"TOWNNAME":"北區","LI":"中樓里","LIN":"4鄰","STREET":"前鋒路","SECT":" ","MAREA":" ","LANE":"１８５巷","ALLEY":" ","HOUSE_NO":"８號二樓之１","E_COORD97":169455.62,"N_COORD97":2544821.0499999998,"ADDRESS":"前鋒路１８５巷８號二樓之１","OBJECTID":431766},"geometry":{"x":169455.62000000104,"y":2544821.0500000007}},{"attributes":{"ID":431792,"DIS_CODE":0,"TOWNNAME":"北區","LI":"中樓里","LIN":"4鄰","STREET":"前鋒路","SECT":" ","MAREA":" ","LANE":"１８５巷","ALLEY":" ","HOUSE_NO":"８號二樓之２","E_COORD97":169455.62,"N_COORD97":2544821.0499999998,"ADDRESS":"前鋒路１８５巷８號二樓之２","OBJECTID":431767},"geometry":{"x":169455.62000000104,"y":2544821.0500000007}},{"attributes":{"ID":431793,"DIS_CODE":0,"TOWNNAME":"北區","LI":"中樓里","LIN":"4鄰","STREET":"前鋒路","SECT":" ","MAREA":" ","LANE":"１８５巷","ALLEY":" ","HOUSE_NO":"８號三樓之１","E_COORD97":169455.62,"N_COORD97":2544821.0499999998,"ADDRESS":"前鋒路１８５巷８號三樓之１","OBJECTID":431768},"geometry":{"x":169455.62000000104,"y":2544821.0500000007}},{"attributes":{"ID":431794,"DIS_CODE":0,"TOWNNAME":"北區","LI":"中樓里","LIN":"4鄰","STREET":"前鋒路","SECT":" ","MAREA":" ","LANE":"１８５巷","ALLEY":" ","HOUSE_NO":"８號三樓之２","E_COORD97":169455.62,"N_COORD97":2544821.0499999998,"ADDRESS":"前鋒路１８５巷８號三樓之２","OBJECTID":431769},"geometry":{"x":169455.62000000104,"y":2544821.0500000007}},{"attributes":{"ID":431795,"DIS_CODE":0,"TOWNNAME":"北區","LI":"五福里","LIN":"4鄰","STREET":"北華街","SECT":" ","MAREA":" ","LANE":"３０９巷","ALLEY":" ","HOUSE_NO":"１號二樓","E_COORD97":168385.14999999999,"N_COORD97":2544617.6499999999,"ADDRESS":"北華街３０９巷１號二樓","OBJECTID":431770},"geometry":{"x":168385.15000000037,"y":2544617.6500000022}},{"attributes":{"ID":431796,"DIS_CODE":0,"TOWNNAME":"北區","LI":"五福里","LIN":"4鄰","STREET":"北華街","SECT":" ","MAREA":" ","LANE":"３０９巷","ALLEY":" ","HOUSE_NO":"１號三樓","E_COORD97":168385.14999999999,"N_COORD97":2544617.6499999999,"ADDRESS":"北華街３０９巷１號三樓","OBJECTID":431771},"geometry":{"x":168385.15000000037,"y":2544617.6500000022}},{"attributes":{"ID":431797,"DIS_CODE":0,"TOWNNAME":"北區","LI":"五福里","LIN":"4鄰","STREET":"北華街","SECT":" ","MAREA":" ","LANE":"３０９巷","ALLEY":" ","HOUSE_NO":"１號五樓","E_COORD97":168385.14999999999,"N_COORD97":2544617.6499999999,"ADDRESS":"北華街３０９巷１號五樓","OBJECTID":431772},"geometry":{"x":168385.15000000037,"y":2544617.6500000022}},{"attributes":{"ID":431798,"DIS_CODE":0,"TOWNNAME":"北區","LI":"五福里","LIN":"4鄰","STREET":"北華街","SECT":" ","MAREA":" ","LANE":"３０９巷","ALLEY":" ","HOUSE_NO":"１號四樓","E_COORD97":168385.14999999999,"N_COORD97":2544617.6499999999,"ADDRESS":"北華街３０９巷１號四樓","OBJECTID":431773},"geometry":{"x":168385.15000000037,"y":2544617.6500000022}},{"attributes":{"ID":431799,"DIS_CODE":0,"TOWNNAME":"歸仁區","LI":"辜厝里","LIN":"39鄰","STREET":"中正南路","SECT":"一段","MAREA":" ","LANE":"２１８巷","ALLEY":" ","HOUSE_NO":"２５號七樓之１２","E_COORD97":177262.20999999999,"N_COORD97":2540344.2599999998,"ADDRESS":"中正南路一段２１８巷２５號七樓之１２","OBJECTID":431774},"geometry":{"x":177262.20999999996,"y":2540344.2600000016}},{"attributes":{"ID":431800,"DIS_CODE":0,"TOWNNAME":"歸仁區","LI":"文化里","LIN":"5鄰","STREET":"民權一街","SECT":" ","MAREA":" ","LANE":"３８巷","ALLEY":" ","HOUSE_NO":"１號五樓之５","E_COORD97":177304.41,"N_COORD97":2541327.3399999999,"ADDRESS":"民權一街３８巷１號五樓之５","OBJECTID":431775},"geometry":{"x":177304.41000000108,"y":2541327.3400000017}},{"attributes":{"ID":431801,"DIS_CODE":0,"TOWNNAME":"歸仁區","LI":"辜厝里","LIN":"38鄰","STREET":"中正南路","SECT":"一段","MAREA":" ","LANE":"２１８巷","ALLEY":" ","HOUSE_NO":"２５號五樓之７","E_COORD97":177261.95000000001,"N_COORD97":2540344.2599999998,"ADDRESS":"中正南路一段２１８巷２５號五樓之７","OBJECTID":431776},"geometry":{"x":177261.95000000019,"y":2540344.2600000016}},{"attributes":{"ID":431802,"DIS_CODE":0,"TOWNNAME":"歸仁區","LI":"辜厝里","LIN":"39鄰","STREET":"中正南路","SECT":"一段","MAREA":" ","LANE":"２１８巷","ALLEY":" ","HOUSE_NO":"２５號六樓之１２","E_COORD97":177262.20999999999,"N_COORD97":2540344.2599999998,"ADDRESS":"中正南路一段２１８巷２５號六樓之１２","OBJECTID":431777},"geometry":{"x":177262.20999999996,"y":2540344.2600000016}},{"attributes":{"ID":431803,"DIS_CODE":0,"TOWNNAME":"歸仁區","LI":"辜厝里","LIN":"39鄰","STREET":"中正南路","SECT":"一段","MAREA":" ","LANE":"２１８巷","ALLEY":" ","HOUSE_NO":"２５號二樓之１２","E_COORD97":177262.20999999999,"N_COORD97":2540344.2599999998,"ADDRESS":"中正南路一段２１８巷２５號二樓之１２","OBJECTID":431778},"geometry":{"x":177262.20999999996,"y":2540344.2600000016}},{"attributes":{"ID":431804,"DIS_CODE":0,"TOWNNAME":"大內區","LI":"環湖里","LIN":"3鄰","STREET":" ","SECT":" ","MAREA":"環湖","LANE":" ","ALLEY":" ","HOUSE_NO":"２３之１５號","E_COORD97":190819.15449700001,"N_COORD97":2560556.6504099998,"ADDRESS":"環湖２３之１５號","OBJECTID":431779},"geometry":{"x":190819.15449700039,"y":2560556.6504070014}},{"attributes":{"ID":431805,"DIS_CODE":0,"TOWNNAME":"北區","LI":"大豐里","LIN":"21鄰","STREET":"大興街","SECT":" ","MAREA":" ","LANE":"３２５巷","ALLEY":" ","HOUSE_NO":"３７號二樓","E_COORD97":166625.84,"N_COORD97":2545562.4399999999,"ADDRESS":"大興街３２５巷３７號二樓","OBJECTID":431780},"geometry":{"x":166625.84000000171,"y":2545562.4399999995}},{"attributes":{"ID":431806,"DIS_CODE":0,"TOWNNAME":"北區","LI":"東興里","LIN":"10鄰","STREET":"小東路","SECT":" ","MAREA":" ","LANE":"４２３巷","ALLEY":" ","HOUSE_NO":"１號十樓之３","E_COORD97":171337.60999999999,"N_COORD97":2544404.3100000001,"ADDRESS":"小東路４２３巷１號十樓之３","OBJECTID":431781},"geometry":{"x":171337.61000000127,"y":2544404.3100000005}},{"attributes":{"ID":431807,"DIS_CODE":0,"TOWNNAME":"佳里區","LI":"鎮山里","LIN":"14鄰","STREET":"安南路","SECT":" ","MAREA":" ","LANE":"２巷","ALLEY":" ","HOUSE_NO":"２０號","E_COORD97":165943.51000000001,"N_COORD97":2561426.2200000002,"ADDRESS":"安南路２巷２０號","OBJECTID":431782},"geometry":{"x":165943.51000000071,"y":2561426.2200000044}},{"attributes":{"ID":431808,"DIS_CODE":0,"TOWNNAME":"北區","LI":"東興里","LIN":"10鄰","STREET":"小東路","SECT":" ","MAREA":" ","LANE":"４２３巷","ALLEY":" ","HOUSE_NO":"１號十樓之５","E_COORD97":171337.60999999999,"N_COORD97":2544404.3100000001,"ADDRESS":"小東路４２３巷１號十樓之５","OBJECTID":431783},"geometry":{"x":171337.61000000127,"y":2544404.3100000005}},{"attributes":{"ID":431809,"DIS_CODE":0,"TOWNNAME":"北區","LI":"東興里","LIN":"10鄰","STREET":"小東路","SECT":" ","MAREA":" ","LANE":"４２３巷","ALLEY":" ","HOUSE_NO":"１號十一樓之２","E_COORD97":171337.60999999999,"N_COORD97":2544404.3100000001,"ADDRESS":"小東路４２３巷１號十一樓之２","OBJECTID":431784},"geometry":{"x":171337.61000000127,"y":2544404.3100000005}},{"attributes":{"ID":431810,"DIS_CODE":0,"TOWNNAME":"北區","LI":"東興里","LIN":"10鄰","STREET":"小東路","SECT":" ","MAREA":" ","LANE":"４２３巷","ALLEY":" ","HOUSE_NO":"１號十一樓之１","E_COORD97":171337.60999999999,"N_COORD97":2544404.3100000001,"ADDRESS":"小東路４２３巷１號十一樓之１","OBJECTID":431785},"geometry":{"x":171337.61000000127,"y":2544404.3100000005}},{"attributes":{"ID":431811,"DIS_CODE":0,"TOWNNAME":"北區","LI":"東興里","LIN":"10鄰","STREET":"小東路","SECT":" ","MAREA":" ","LANE":"４２３巷","ALLEY":" ","HOUSE_NO":"１號十一樓之３","E_COORD97":171337.60999999999,"N_COORD97":2544404.3100000001,"ADDRESS":"小東路４２３巷１號十一樓之３","OBJECTID":431786},"geometry":{"x":171337.61000000127,"y":2544404.3100000005}},{"attributes":{"ID":431812,"DIS_CODE":0,"TOWNNAME":"佳里區","LI":"安西里","LIN":"53鄰","STREET":"佳安西路","SECT":" ","MAREA":" ","LANE":"７巷","ALLEY":" ","HOUSE_NO":"１號","E_COORD97":163557.95999999999,"N_COORD97":2562227.1099999999,"ADDRESS":"佳安西路７巷１號","OBJECTID":431787},"geometry":{"x":163557.95999999996,"y":2562227.1100000013}},{"attributes":{"ID":431813,"DIS_CODE":0,"TOWNNAME":"北區","LI":"東興里","LIN":"10鄰","STREET":"小東路","SECT":" ","MAREA":" ","LANE":"４２３巷","ALLEY":" ","HOUSE_NO":"１號十一樓之５","E_COORD97":171337.60999999999,"N_COORD97":2544404.3100000001,"ADDRESS":"小東路４２３巷１號十一樓之５","OBJECTID":431788},"geometry":{"x":171337.61000000127,"y":2544404.3100000005}},{"attributes":{"ID":431814,"DIS_CODE":0,"TOWNNAME":"北區","LI":"東興里","LIN":"10鄰","STREET":"小東路","SECT":" ","MAREA":" ","LANE":"４２３巷","ALLEY":" ","HOUSE_NO":"１號十二樓之１","E_COORD97":171337.60999999999,"N_COORD97":2544404.3100000001,"ADDRESS":"小東路４２３巷１號十二樓之１","OBJECTID":431789},"geometry":{"x":171337.61000000127,"y":2544404.3100000005}},{"attributes":{"ID":431815,"DIS_CODE":0,"TOWNNAME":"北區","LI":"東興里","LIN":"10鄰","STREET":"小東路","SECT":" ","MAREA":" ","LANE":"４２３巷","ALLEY":" ","HOUSE_NO":"１號十二樓之２","E_COORD97":171337.60999999999,"N_COORD97":2544404.3100000001,"ADDRESS":"小東路４２３巷１號十二樓之２","OBJECTID":431790},"geometry":{"x":171337.61000000127,"y":2544404.3100000005}},{"attributes":{"ID":431816,"DIS_CODE":0,"TOWNNAME":"北區","LI":"東興里","LIN":"10鄰","STREET":"小東路","SECT":" ","MAREA":" ","LANE":"４２３巷","ALLEY":" ","HOUSE_NO":"１號十二樓之３","E_COORD97":171337.60999999999,"N_COORD97":2544404.3100000001,"ADDRESS":"小東路４２３巷１號十二樓之３","OBJECTID":431791},"geometry":{"x":171337.61000000127,"y":2544404.3100000005}},{"attributes":{"ID":431817,"DIS_CODE":0,"TOWNNAME":"北區","LI":"東興里","LIN":"10鄰","STREET":"小東路","SECT":" ","MAREA":" ","LANE":"４２３巷","ALLEY":" ","HOUSE_NO":"１號十二樓之５","E_COORD97":171337.60999999999,"N_COORD97":2544404.3100000001,"ADDRESS":"小東路４２３巷１號十二樓之５","OBJECTID":431792},"geometry":{"x":171337.61000000127,"y":2544404.3100000005}},{"attributes":{"ID":431818,"DIS_CODE":0,"TOWNNAME":"北區","LI":"東興里","LIN":"10鄰","STREET":"小東路","SECT":" ","MAREA":" ","LANE":"４２３巷","ALLEY":" ","HOUSE_NO":"１號十三樓之１","E_COORD97":171337.60999999999,"N_COORD97":2544404.3100000001,"ADDRESS":"小東路４２３巷１號十三樓之１","OBJECTID":431793},"geometry":{"x":171337.61000000127,"y":2544404.3100000005}},{"attributes":{"ID":431819,"DIS_CODE":0,"TOWNNAME":"北區","LI":"東興里","LIN":"10鄰","STREET":"小東路","SECT":" ","MAREA":" ","LANE":"４２３巷","ALLEY":" ","HOUSE_NO":"１號十三樓之２","E_COORD97":171337.60999999999,"N_COORD97":2544404.3100000001,"ADDRESS":"小東路４２３巷１號十三樓之２","OBJECTID":431794},"geometry":{"x":171337.61000000127,"y":2544404.3100000005}},{"attributes":{"ID":431820,"DIS_CODE":0,"TOWNNAME":"北區","LI":"東興里","LIN":"10鄰","STREET":"小東路","SECT":" ","MAREA":" ","LANE":"４２３巷","ALLEY":" ","HOUSE_NO":"１號十三樓之３","E_COORD97":171337.60999999999,"N_COORD97":2544404.3100000001,"ADDRESS":"小東路４２３巷１號十三樓之３","OBJECTID":431795},"geometry":{"x":171337.61000000127,"y":2544404.3100000005}},{"attributes":{"ID":431821,"DIS_CODE":0,"TOWNNAME":"北區","LI":"東興里","LIN":"10鄰","STREET":"小東路","SECT":" ","MAREA":" ","LANE":"４２３巷","ALLEY":" ","HOUSE_NO":"１號十三樓之５","E_COORD97":171337.60999999999,"N_COORD97":2544404.3100000001,"ADDRESS":"小東路４２３巷１號十三樓之５","OBJECTID":431796},"geometry":{"x":171337.61000000127,"y":2544404.3100000005}},{"attributes":{"ID":431822,"DIS_CODE":0,"TOWNNAME":"北區","LI":"東興里","LIN":"10鄰","STREET":"小東路","SECT":" ","MAREA":" ","LANE":"４２３巷","ALLEY":" ","HOUSE_NO":"１號十四樓之１","E_COORD97":171337.60999999999,"N_COORD97":2544404.3100000001,"ADDRESS":"小東路４２３巷１號十四樓之１","OBJECTID":431797},"geometry":{"x":171337.61000000127,"y":2544404.3100000005}},{"attributes":{"ID":431823,"DIS_CODE":0,"TOWNNAME":"北區","LI":"東興里","LIN":"10鄰","STREET":"小東路","SECT":" ","MAREA":" ","LANE":"４２３巷","ALLEY":" ","HOUSE_NO":"１號十四樓之２","E_COORD97":171337.60999999999,"N_COORD97":2544404.3100000001,"ADDRESS":"小東路４２３巷１號十四樓之２","OBJECTID":431798},"geometry":{"x":171337.61000000127,"y":2544404.3100000005}},{"attributes":{"ID":431824,"DIS_CODE":0,"TOWNNAME":"北區","LI":"仁愛里","LIN":"16鄰","STREET":"東豐路","SECT":" ","MAREA":" ","LANE":"２２７巷","ALLEY":" ","HOUSE_NO":"１２號二樓之１","E_COORD97":170118.25,"N_COORD97":2544902.0499999998,"ADDRESS":"東豐路２２７巷１２號二樓之１","OBJECTID":431799},"geometry":{"x":170118.25,"y":2544902.0500000007}},{"attributes":{"ID":431825,"DIS_CODE":0,"TOWNNAME":"北區","LI":"仁愛里","LIN":"16鄰","STREET":"東豐路","SECT":" ","MAREA":" ","LANE":"２２７巷","ALLEY":" ","HOUSE_NO":"１２號二樓之２","E_COORD97":170118.25,"N_COORD97":2544902.0499999998,"ADDRESS":"東豐路２２７巷１２號二樓之２","OBJECTID":431800},"geometry":{"x":170118.25,"y":2544902.0500000007}}]}