{"displayFieldName":"TOWNNAME","fieldAliases":{"ID":"ID","DIS_CODE":"DIS_CODE","TOWNNAME":"TOWNNAME","LI":"LI","LIN":"LIN","STREET":"STREET","SECT":"SECT","MAREA":"MAREA","LANE":"LANE","ALLEY":"ALLEY","HOUSE_NO":"HOUSE_NO","E_COORD97":"E_COORD97","N_COORD97":"N_COORD97","ADDRESS":"ADDRESS","OBJECTID":"OBJECTID"},"geometryType":"esriGeometryPoint","spatialReference":{"wkid":102443,"latestWkid":3826},"fields":[{"name":"ID","type":"esriFieldTypeDouble","alias":"ID"},{"name":"DIS_CODE","type":"esriFieldTypeInteger","alias":"DIS_CODE"},{"name":"TOWNNAME","type":"esriFieldTypeString","alias":"TOWNNAME","length":8},{"name":"LI","type":"esriFieldTypeString","alias":"LI","length":8},{"name":"LIN","type":"esriFieldTypeString","alias":"LIN","length":12},{"name":"STREET","type":"esriFieldTypeString","alias":"STREET","length":20},{"name":"SECT","type":"esriFieldTypeString","alias":"SECT","length":8},{"name":"MAREA","type":"esriFieldTypeString","alias":"MAREA","length":12},{"name":"LANE","type":"esriFieldTypeString","alias":"LANE","length":10},{"name":"ALLEY","type":"esriFieldTypeString","alias":"ALLEY","length":10},{"name":"HOUSE_NO","type":"esriFieldTypeString","alias":"HOUSE_NO","length":20},{"name":"E_COORD97","type":"esriFieldTypeDouble","alias":"E_COORD97"},{"name":"N_COORD97","type":"esriFieldTypeDouble","alias":"N_COORD97"},{"name":"ADDRESS","type":"esriFieldTypeString","alias":"ADDRESS","length":50},{"name":"OBJECTID","type":"esriFieldTypeOID","alias":"OBJECTID"}],"features":[{"attributes":{"ID":472626,"DIS_CODE":0,"TOWNNAME":"永康區","LI":"三合里","LIN":"18鄰","STREET":"南工街","SECT":" ","MAREA":" ","LANE":" ","ALLEY":" ","HOUSE_NO":"２６１號","E_COORD97":171914.42999999999,"N_COORD97":2545958.7400000002,"ADDRESS":"南工街２６１號","OBJECTID":472601},"geometry":{"x":171914.43000000063,"y":2545958.7400000039}},{"attributes":{"ID":472627,"DIS_CODE":0,"TOWNNAME":"安南區","LI":"梅花里","LIN":"18鄰","STREET":"同安路","SECT":" ","MAREA":" ","LANE":" ","ALLEY":" ","HOUSE_NO":"３４０號","E_COORD97":167268.66,"N_COORD97":2549263.8399999999,"ADDRESS":"同安路３４０號","OBJECTID":472602},"geometry":{"x":167268.66000000108,"y":2549263.8400000017}},{"attributes":{"ID":472628,"DIS_CODE":0,"TOWNNAME":"安南區","LI":"梅花里","LIN":"18鄰","STREET":"同安路","SECT":" ","MAREA":" ","LANE":" ","ALLEY":" ","HOUSE_NO":"３３６號","E_COORD97":167265.26000000001,"N_COORD97":2549256.3999999999,"ADDRESS":"同安路３３６號","OBJECTID":472603},"geometry":{"x":167265.25999999885,"y":2549256.4000000004}},{"attributes":{"ID":472629,"DIS_CODE":0,"TOWNNAME":"安南區","LI":"梅花里","LIN":"18鄰","STREET":"同安路","SECT":" ","MAREA":" ","LANE":" ","ALLEY":" ","HOUSE_NO":"３３８號","E_COORD97":167266.95999999999,"N_COORD97":2549260.02,"ADDRESS":"同安路３３８號","OBJECTID":472604},"geometry":{"x":167266.95999999996,"y":2549260.0200000014}},{"attributes":{"ID":472630,"DIS_CODE":0,"TOWNNAME":"安南區","LI":"梅花里","LIN":"18鄰","STREET":"同安路","SECT":" ","MAREA":" ","LANE":" ","ALLEY":" ","HOUSE_NO":"３４２號","E_COORD97":167269.94,"N_COORD97":2549267.8799999999,"ADDRESS":"同安路３４２號","OBJECTID":472605},"geometry":{"x":167269.94000000227,"y":2549267.879999999}},{"attributes":{"ID":472631,"DIS_CODE":0,"TOWNNAME":"安南區","LI":"梅花里","LIN":"18鄰","STREET":"同安路","SECT":" ","MAREA":" ","LANE":" ","ALLEY":" ","HOUSE_NO":"３４６號","E_COORD97":167280.57000000001,"N_COORD97":2549282.3900000001,"ADDRESS":"同安路３４６號","OBJECTID":472606},"geometry":{"x":167280.5700000003,"y":2549282.3900000025}},{"attributes":{"ID":472632,"DIS_CODE":0,"TOWNNAME":"安南區","LI":"梅花里","LIN":"18鄰","STREET":"同安路","SECT":" ","MAREA":" ","LANE":" ","ALLEY":" ","HOUSE_NO":"３４８號","E_COORD97":167282.70000000001,"N_COORD97":2549287.7000000002,"ADDRESS":"同安路３４８號","OBJECTID":472607},"geometry":{"x":167282.70000000019,"y":2549287.7000000011}},{"attributes":{"ID":472633,"DIS_CODE":0,"TOWNNAME":"永康區","LI":"復國里","LIN":"18鄰","STREET":"國華街","SECT":" ","MAREA":" ","LANE":" ","ALLEY":" ","HOUSE_NO":"３１號","E_COORD97":172823.89999999999,"N_COORD97":2545672.4900000002,"ADDRESS":"國華街３１號","OBJECTID":472608},"geometry":{"x":172823.9000000013,"y":2545672.4900000039}},{"attributes":{"ID":472634,"DIS_CODE":0,"TOWNNAME":"北區","LI":"光武里","LIN":"17鄰","STREET":"北門路","SECT":"二段","MAREA":" ","LANE":"５７７巷","ALLEY":" ","HOUSE_NO":"８號三樓之２","E_COORD97":169621.23999999999,"N_COORD97":2545782.3399999999,"ADDRESS":"北門路二段５７７巷８號三樓之２","OBJECTID":472609},"geometry":{"x":169621.24000000115,"y":2545782.3400000017}},{"attributes":{"ID":472635,"DIS_CODE":0,"TOWNNAME":"永康區","LI":"埔園里","LIN":"18鄰","STREET":"四維街","SECT":" ","MAREA":" ","LANE":" ","ALLEY":" ","HOUSE_NO":"１２６號","E_COORD97":173341.10000000001,"N_COORD97":2548292.4300000002,"ADDRESS":"四維街１２６號","OBJECTID":472610},"geometry":{"x":173341.09999999963,"y":2548292.4299999997}},{"attributes":{"ID":472636,"DIS_CODE":0,"TOWNNAME":"永康區","LI":"西灣里","LIN":"18鄰","STREET":"民族路","SECT":" ","MAREA":" ","LANE":" ","ALLEY":" ","HOUSE_NO":"４８２號","E_COORD97":174554.01999999999,"N_COORD97":2545460,"ADDRESS":"民族路４８２號","OBJECTID":472611},"geometry":{"x":174554.01999999955,"y":2545460.0000000019}},{"attributes":{"ID":472637,"DIS_CODE":0,"TOWNNAME":"永康區","LI":"西灣里","LIN":"18鄰","STREET":"民族路","SECT":" ","MAREA":" ","LANE":" ","ALLEY":" ","HOUSE_NO":"４８６號","E_COORD97":174554.85999999999,"N_COORD97":2545465.25,"ADDRESS":"民族路４８６號","OBJECTID":472612},"geometry":{"x":174554.86000000127,"y":2545465.25}},{"attributes":{"ID":472638,"DIS_CODE":0,"TOWNNAME":"永康區","LI":"西灣里","LIN":"18鄰","STREET":"民族路","SECT":" ","MAREA":" ","LANE":" ","ALLEY":" ","HOUSE_NO":"４８８號","E_COORD97":174552.48999999999,"N_COORD97":2545471.0099999998,"ADDRESS":"民族路４８８號","OBJECTID":472613},"geometry":{"x":174552.49000000115,"y":2545471.0099999998}},{"attributes":{"ID":472639,"DIS_CODE":0,"TOWNNAME":"永康區","LI":"永康里","LIN":"18鄰","STREET":"永華路","SECT":" ","MAREA":" ","LANE":" ","ALLEY":" ","HOUSE_NO":"４８５號","E_COORD97":174097.57999999999,"N_COORD97":2547150.3199999998,"ADDRESS":"永華路４８５號","OBJECTID":472614},"geometry":{"x":174097.58000000101,"y":2547150.3200000003}},{"attributes":{"ID":472640,"DIS_CODE":0,"TOWNNAME":"永康區","LI":"永康里","LIN":"18鄰","STREET":"永華路","SECT":" ","MAREA":" ","LANE":" ","ALLEY":" ","HOUSE_NO":"４８７號","E_COORD97":174096.32999999999,"N_COORD97":2547147.4900000002,"ADDRESS":"永華路４８７號","OBJECTID":472615},"geometry":{"x":174096.33000000007,"y":2547147.4900000021}},{"attributes":{"ID":472641,"DIS_CODE":0,"TOWNNAME":"中西區","LI":"西賢里","LIN":"18鄰","STREET":"西賢一街","SECT":" ","MAREA":" ","LANE":" ","ALLEY":" ","HOUSE_NO":"７３號","E_COORD97":165683.79999999999,"N_COORD97":2544650.6899999999,"ADDRESS":"西賢一街７３號","OBJECTID":472616},"geometry":{"x":165683.80000000075,"y":2544650.6900000013}},{"attributes":{"ID":472642,"DIS_CODE":0,"TOWNNAME":"中西區","LI":"西賢里","LIN":"18鄰","STREET":"西賢一街","SECT":" ","MAREA":" ","LANE":" ","ALLEY":" ","HOUSE_NO":"７５號","E_COORD97":165682.78,"N_COORD97":2544656.3999999999,"ADDRESS":"西賢一街７５號","OBJECTID":472617},"geometry":{"x":165682.78000000119,"y":2544656.4000000022}},{"attributes":{"ID":472643,"DIS_CODE":0,"TOWNNAME":"中西區","LI":"西賢里","LIN":"18鄰","STREET":"西賢一街","SECT":" ","MAREA":" ","LANE":" ","ALLEY":" ","HOUSE_NO":"７７號","E_COORD97":165683.39000000001,"N_COORD97":2544660.6800000002,"ADDRESS":"西賢一街７７號","OBJECTID":472618},"geometry":{"x":165683.3900000006,"y":2544660.6800000016}},{"attributes":{"ID":472644,"DIS_CODE":0,"TOWNNAME":"中西區","LI":"西賢里","LIN":"18鄰","STREET":"西賢一街","SECT":" ","MAREA":" ","LANE":" ","ALLEY":" ","HOUSE_NO":"７９號","E_COORD97":165682.98000000001,"N_COORD97":2544664.7599999998,"ADDRESS":"西賢一街７９號","OBJECTID":472619},"geometry":{"x":165682.98000000231,"y":2544664.7599999998}},{"attributes":{"ID":472645,"DIS_CODE":0,"TOWNNAME":"中西區","LI":"西賢里","LIN":"18鄰","STREET":"西賢一街","SECT":" ","MAREA":" ","LANE":" ","ALLEY":" ","HOUSE_NO":"８１號","E_COORD97":165682.78,"N_COORD97":2544669.4500000002,"ADDRESS":"西賢一街８１號","OBJECTID":472620},"geometry":{"x":165682.78000000119,"y":2544669.4500000011}},{"attributes":{"ID":472646,"DIS_CODE":0,"TOWNNAME":"中西區","LI":"西賢里","LIN":"18鄰","STREET":"西賢一街","SECT":" ","MAREA":" ","LANE":" ","ALLEY":" ","HOUSE_NO":"８３號","E_COORD97":165682.37,"N_COORD97":2544675.3599999999,"ADDRESS":"西賢一街８３號","OBJECTID":472621},"geometry":{"x":165682.37000000104,"y":2544675.3599999975}},{"attributes":{"ID":472647,"DIS_CODE":0,"TOWNNAME":"中西區","LI":"西賢里","LIN":"18鄰","STREET":"西賢一街","SECT":" ","MAREA":" ","LANE":" ","ALLEY":" ","HOUSE_NO":"８７號","E_COORD97":165680.73999999999,"N_COORD97":2544690.04,"ADDRESS":"西賢一街８７號","OBJECTID":472622},"geometry":{"x":165680.74000000022,"y":2544690.0399999991}},{"attributes":{"ID":472648,"DIS_CODE":0,"TOWNNAME":"中西區","LI":"西賢里","LIN":"18鄰","STREET":"西賢一街","SECT":" ","MAREA":" ","LANE":" ","ALLEY":" ","HOUSE_NO":"８９號","E_COORD97":165680.19,"N_COORD97":2544694.5699999998,"ADDRESS":"西賢一街８９號","OBJECTID":472623},"geometry":{"x":165680.19000000134,"y":2544694.5700000003}},{"attributes":{"ID":472649,"DIS_CODE":0,"TOWNNAME":"中西區","LI":"西賢里","LIN":"18鄰","STREET":"西賢一街","SECT":" ","MAREA":" ","LANE":" ","ALLEY":" ","HOUSE_NO":"９１號","E_COORD97":165680.73999999999,"N_COORD97":2544697.8300000001,"ADDRESS":"西賢一街９１號","OBJECTID":472624},"geometry":{"x":165680.74000000022,"y":2544697.8300000019}},{"attributes":{"ID":472650,"DIS_CODE":0,"TOWNNAME":"中西區","LI":"西賢里","LIN":"18鄰","STREET":"西賢一街","SECT":" ","MAREA":" ","LANE":" ","ALLEY":" ","HOUSE_NO":"９３號","E_COORD97":165680.37,"N_COORD97":2544701.8199999998,"ADDRESS":"西賢一街９３號","OBJECTID":472625},"geometry":{"x":165680.37000000104,"y":2544701.8200000022}},{"attributes":{"ID":472651,"DIS_CODE":0,"TOWNNAME":"東區","LI":"大智里","LIN":"18鄰","STREET":"崇善十五街","SECT":" ","MAREA":" ","LANE":" ","ALLEY":" ","HOUSE_NO":"５６號","E_COORD97":171270.10000000001,"N_COORD97":2540561.8199999998,"ADDRESS":"崇善十五街５６號","OBJECTID":472626},"geometry":{"x":171270.09999999963,"y":2540561.8200000022}},{"attributes":{"ID":472652,"DIS_CODE":0,"TOWNNAME":"東區","LI":"大智里","LIN":"18鄰","STREET":"崇善十五街","SECT":" ","MAREA":" ","LANE":" ","ALLEY":" ","HOUSE_NO":"６３號","E_COORD97":171252.76000000001,"N_COORD97":2540545.0800000001,"ADDRESS":"崇善十五街６３號","OBJECTID":472627},"geometry":{"x":171252.76000000071,"y":2540545.0799999982}},{"attributes":{"ID":472653,"DIS_CODE":0,"TOWNNAME":"東區","LI":"德高里","LIN":"18鄰","STREET":"仁和路","SECT":" ","MAREA":" ","LANE":" ","ALLEY":" ","HOUSE_NO":"２２７號","E_COORD97":171702.60999999999,"N_COORD97":2540771.4300000002,"ADDRESS":"仁和路２２７號","OBJECTID":472628},"geometry":{"x":171702.61000000034,"y":2540771.4299999997}},{"attributes":{"ID":472654,"DIS_CODE":0,"TOWNNAME":"東區","LI":"德高里","LIN":"18鄰","STREET":"仁和路","SECT":" ","MAREA":" ","LANE":" ","ALLEY":" ","HOUSE_NO":"２３１號","E_COORD97":171705.84,"N_COORD97":2540763.52,"ADDRESS":"仁和路２３１號","OBJECTID":472629},"geometry":{"x":171705.83999999985,"y":2540763.5200000014}},{"attributes":{"ID":472655,"DIS_CODE":0,"TOWNNAME":"東區","LI":"德高里","LIN":"18鄰","STREET":"仁和路","SECT":" ","MAREA":" ","LANE":" ","ALLEY":" ","HOUSE_NO":"２３３號","E_COORD97":171708.62,"N_COORD97":2540758.9700000002,"ADDRESS":"仁和路２３３號","OBJECTID":472630},"geometry":{"x":171708.62000000104,"y":2540758.9700000007}},{"attributes":{"ID":472656,"DIS_CODE":0,"TOWNNAME":"東區","LI":"德高里","LIN":"18鄰","STREET":"仁和路","SECT":" ","MAREA":" ","LANE":" ","ALLEY":" ","HOUSE_NO":"２３５號","E_COORD97":171712.44,"N_COORD97":2540756.04,"ADDRESS":"仁和路２３５號","OBJECTID":472631},"geometry":{"x":171712.44000000041,"y":2540756.040000001}},{"attributes":{"ID":472657,"DIS_CODE":0,"TOWNNAME":"東區","LI":"德高里","LIN":"18鄰","STREET":"仁和路","SECT":" ","MAREA":" ","LANE":" ","ALLEY":" ","HOUSE_NO":"２３７號","E_COORD97":171714.04999999999,"N_COORD97":2540752.23,"ADDRESS":"仁和路２３７號","OBJECTID":472632},"geometry":{"x":171714.05000000075,"y":2540752.2300000023}},{"attributes":{"ID":472658,"DIS_CODE":0,"TOWNNAME":"東區","LI":"德高里","LIN":"18鄰","STREET":"仁和路","SECT":" ","MAREA":" ","LANE":" ","ALLEY":" ","HOUSE_NO":"２３９號","E_COORD97":171716.25,"N_COORD97":2540748.1299999999,"ADDRESS":"仁和路２３９號","OBJECTID":472633},"geometry":{"x":171716.25000000093,"y":2540748.1300000008}},{"attributes":{"ID":472659,"DIS_CODE":0,"TOWNNAME":"東區","LI":"德高里","LIN":"18鄰","STREET":"仁和路","SECT":" ","MAREA":" ","LANE":" ","ALLEY":" ","HOUSE_NO":"２４１號","E_COORD97":171717.28,"N_COORD97":2540741.6800000002,"ADDRESS":"仁和路２４１號","OBJECTID":472634},"geometry":{"x":171717.28000000212,"y":2540741.6800000016}},{"attributes":{"ID":472660,"DIS_CODE":0,"TOWNNAME":"東區","LI":"德高里","LIN":"18鄰","STREET":"城東街","SECT":" ","MAREA":" ","LANE":" ","ALLEY":" ","HOUSE_NO":"４６號","E_COORD97":171620.97,"N_COORD97":2540744.6699999999,"ADDRESS":"城東街４６號","OBJECTID":472635},"geometry":{"x":171620.97000000067,"y":2540744.6700000037}},{"attributes":{"ID":472661,"DIS_CODE":0,"TOWNNAME":"東區","LI":"德高里","LIN":"18鄰","STREET":"城東街","SECT":" ","MAREA":" ","LANE":" ","ALLEY":" ","HOUSE_NO":"４８號","E_COORD97":171625.03,"N_COORD97":2540747.29,"ADDRESS":"城東街４８號","OBJECTID":472636},"geometry":{"x":171625.03000000026,"y":2540747.290000001}},{"attributes":{"ID":472662,"DIS_CODE":0,"TOWNNAME":"中西區","LI":"水仙里","LIN":"18鄰","STREET":"普濟街","SECT":" ","MAREA":" ","LANE":" ","ALLEY":" ","HOUSE_NO":"２９號","E_COORD97":167819.82999999999,"N_COORD97":2544247.52,"ADDRESS":"普濟街２９號","OBJECTID":472637},"geometry":{"x":167819.83000000101,"y":2544247.5200000033}},{"attributes":{"ID":472663,"DIS_CODE":0,"TOWNNAME":"東區","LI":"德高里","LIN":"18鄰","STREET":"仁和路","SECT":" ","MAREA":" ","LANE":" ","ALLEY":" ","HOUSE_NO":"２２９號","E_COORD97":171703.78,"N_COORD97":2540767.3300000001,"ADDRESS":"仁和路２２９號","OBJECTID":472638},"geometry":{"x":171703.78000000212,"y":2540767.3300000038}},{"attributes":{"ID":472664,"DIS_CODE":0,"TOWNNAME":"東區","LI":"德高里","LIN":"18鄰","STREET":"城東街","SECT":" ","MAREA":" ","LANE":" ","ALLEY":" ","HOUSE_NO":"２８號","E_COORD97":171569.39999999999,"N_COORD97":2540709.54,"ADDRESS":"城東街２８號","OBJECTID":472639},"geometry":{"x":171569.4000000013,"y":2540709.5399999991}},{"attributes":{"ID":472665,"DIS_CODE":0,"TOWNNAME":"東區","LI":"德高里","LIN":"18鄰","STREET":"城東街","SECT":" ","MAREA":" ","LANE":" ","ALLEY":" ","HOUSE_NO":"３６號","E_COORD97":171606.54999999999,"N_COORD97":2540739.7000000002,"ADDRESS":"城東街３６號","OBJECTID":472640},"geometry":{"x":171606.55000000168,"y":2540739.6999999993}},{"attributes":{"ID":472666,"DIS_CODE":0,"TOWNNAME":"東區","LI":"德高里","LIN":"18鄰","STREET":"城東街","SECT":" ","MAREA":" ","LANE":" ","ALLEY":" ","HOUSE_NO":"５０號","E_COORD97":171629.04000000001,"N_COORD97":2540748.0800000001,"ADDRESS":"城東街５０號","OBJECTID":472641},"geometry":{"x":171629.04000000097,"y":2540748.0800000001}},{"attributes":{"ID":472667,"DIS_CODE":0,"TOWNNAME":"東區","LI":"德高里","LIN":"18鄰","STREET":"仁和路","SECT":" ","MAREA":" ","LANE":" ","ALLEY":" ","HOUSE_NO":"３００號","E_COORD97":171701.20000000001,"N_COORD97":2540704.1400000001,"ADDRESS":"仁和路３００號","OBJECTID":472642},"geometry":{"x":171701.20000000112,"y":2540704.1400000006}},{"attributes":{"ID":472668,"DIS_CODE":0,"TOWNNAME":"東區","LI":"小東里","LIN":"18鄰","STREET":"東和路","SECT":" ","MAREA":" ","LANE":" ","ALLEY":" ","HOUSE_NO":"４２號","E_COORD97":170965.81,"N_COORD97":2544346.2400000002,"ADDRESS":"東和路４２號","OBJECTID":472643},"geometry":{"x":170965.81000000052,"y":2544346.2400000021}},{"attributes":{"ID":472669,"DIS_CODE":0,"TOWNNAME":"東區","LI":"小東里","LIN":"18鄰","STREET":"東和路","SECT":" ","MAREA":" ","LANE":" ","ALLEY":" ","HOUSE_NO":"４２號之１","E_COORD97":170961.47,"N_COORD97":2544345.3999999999,"ADDRESS":"東和路４２號之１","OBJECTID":472644},"geometry":{"x":170961.47000000067,"y":2544345.4000000022}},{"attributes":{"ID":472670,"DIS_CODE":0,"TOWNNAME":"東區","LI":"小東里","LIN":"18鄰","STREET":"東和路","SECT":" ","MAREA":" ","LANE":" ","ALLEY":" ","HOUSE_NO":"４２號之２","E_COORD97":170957.29000000001,"N_COORD97":2544345.0699999998,"ADDRESS":"東和路４２號之２","OBJECTID":472645},"geometry":{"x":170957.29000000004,"y":2544345.0700000003}},{"attributes":{"ID":472671,"DIS_CODE":0,"TOWNNAME":"東區","LI":"大學里","LIN":"18鄰","STREET":"長榮路","SECT":"三段","MAREA":" ","LANE":" ","ALLEY":" ","HOUSE_NO":"６４號","E_COORD97":170226.14999999999,"N_COORD97":2543794.2599999998,"ADDRESS":"長榮路三段６４號","OBJECTID":472646},"geometry":{"x":170226.15000000037,"y":2543794.2599999998}},{"attributes":{"ID":472672,"DIS_CODE":0,"TOWNNAME":"東區","LI":"大智里","LIN":"18鄰","STREET":"崇善十四街","SECT":" ","MAREA":" ","LANE":" ","ALLEY":" ","HOUSE_NO":"６１之１號","E_COORD97":171223.56,"N_COORD97":2540578.21,"ADDRESS":"崇善十四街６１之１號","OBJECTID":472647},"geometry":{"x":171223.56000000052,"y":2540578.2100000009}},{"attributes":{"ID":472673,"DIS_CODE":0,"TOWNNAME":"中西區","LI":"水仙里","LIN":"18鄰","STREET":"普濟街","SECT":" ","MAREA":" ","LANE":" ","ALLEY":" ","HOUSE_NO":"３３號","E_COORD97":167820.25,"N_COORD97":2544261.0099999998,"ADDRESS":"普濟街３３號","OBJECTID":472648},"geometry":{"x":167820.25000000093,"y":2544261.0099999979}},{"attributes":{"ID":472674,"DIS_CODE":0,"TOWNNAME":"中西區","LI":"水仙里","LIN":"18鄰","STREET":"普濟街","SECT":" ","MAREA":" ","LANE":" ","ALLEY":" ","HOUSE_NO":"３５號","E_COORD97":167819.97,"N_COORD97":2544265.46,"ADDRESS":"普濟街３５號","OBJECTID":472649},"geometry":{"x":167819.9700000016,"y":2544265.4600000009}},{"attributes":{"ID":472675,"DIS_CODE":0,"TOWNNAME":"中西區","LI":"水仙里","LIN":"18鄰","STREET":"普濟街","SECT":" ","MAREA":" ","LANE":" ","ALLEY":" ","HOUSE_NO":"１１號","E_COORD97":167802.42999999999,"N_COORD97":2544205.48,"ADDRESS":"普濟街１１號","OBJECTID":472650},"geometry":{"x":167802.4299999997,"y":2544205.4800000023}},{"attributes":{"ID":472676,"DIS_CODE":0,"TOWNNAME":"中西區","LI":"水仙里","LIN":"18鄰","STREET":"普濟街","SECT":" ","MAREA":" ","LANE":" ","ALLEY":" ","HOUSE_NO":"１３號","E_COORD97":167804.10999999999,"N_COORD97":2544207.7000000002,"ADDRESS":"普濟街１３號","OBJECTID":472651},"geometry":{"x":167804.11000000034,"y":2544207.6999999993}},{"attributes":{"ID":472677,"DIS_CODE":0,"TOWNNAME":"中西區","LI":"水仙里","LIN":"18鄰","STREET":"普濟街","SECT":" ","MAREA":" ","LANE":" ","ALLEY":" ","HOUSE_NO":"１５號","E_COORD97":167807.72,"N_COORD97":2544211.1800000002,"ADDRESS":"普濟街１５號","OBJECTID":472652},"geometry":{"x":167807.71999999974,"y":2544211.1799999997}},{"attributes":{"ID":472678,"DIS_CODE":0,"TOWNNAME":"中西區","LI":"水仙里","LIN":"18鄰","STREET":"普濟街","SECT":" ","MAREA":" ","LANE":" ","ALLEY":" ","HOUSE_NO":"１７號","E_COORD97":167807.85999999999,"N_COORD97":2544215.6299999999,"ADDRESS":"普濟街１７號","OBJECTID":472653},"geometry":{"x":167807.8600000022,"y":2544215.6300000027}},{"attributes":{"ID":472679,"DIS_CODE":0,"TOWNNAME":"中西區","LI":"水仙里","LIN":"18鄰","STREET":"普濟街","SECT":" ","MAREA":" ","LANE":" ","ALLEY":" ","HOUSE_NO":"１９號","E_COORD97":167810.09,"N_COORD97":2544220.3599999999,"ADDRESS":"普濟街１９號","OBJECTID":472654},"geometry":{"x":167810.08999999985,"y":2544220.3599999994}},{"attributes":{"ID":472680,"DIS_CODE":0,"TOWNNAME":"中西區","LI":"水仙里","LIN":"18鄰","STREET":"普濟街","SECT":" ","MAREA":" ","LANE":" ","ALLEY":" ","HOUSE_NO":"２１號","E_COORD97":167813.29000000001,"N_COORD97":2544228.2200000002,"ADDRESS":"普濟街２１號","OBJECTID":472655},"geometry":{"x":167813.29000000097,"y":2544228.2200000025}},{"attributes":{"ID":472681,"DIS_CODE":0,"TOWNNAME":"中西區","LI":"水仙里","LIN":"18鄰","STREET":"普濟街","SECT":" ","MAREA":" ","LANE":" ","ALLEY":" ","HOUSE_NO":"２３號","E_COORD97":167815.23999999999,"N_COORD97":2544233.0499999998,"ADDRESS":"普濟街２３號","OBJECTID":472656},"geometry":{"x":167815.24000000209,"y":2544233.0500000026}},{"attributes":{"ID":472682,"DIS_CODE":0,"TOWNNAME":"中西區","LI":"水仙里","LIN":"18鄰","STREET":"普濟街","SECT":" ","MAREA":" ","LANE":" ","ALLEY":" ","HOUSE_NO":"２５號","E_COORD97":167815.23999999999,"N_COORD97":2544238.48,"ADDRESS":"普濟街２５號","OBJECTID":472657},"geometry":{"x":167815.24000000209,"y":2544238.4800000042}},{"attributes":{"ID":472683,"DIS_CODE":0,"TOWNNAME":"中西區","LI":"水仙里","LIN":"18鄰","STREET":"普濟街","SECT":" ","MAREA":" ","LANE":" ","ALLEY":" ","HOUSE_NO":"２７號","E_COORD97":167818.16,"N_COORD97":2544243.0699999998,"ADDRESS":"普濟街２７號","OBJECTID":472658},"geometry":{"x":167818.16000000108,"y":2544243.0700000003}},{"attributes":{"ID":472684,"DIS_CODE":0,"TOWNNAME":"中西區","LI":"水仙里","LIN":"18鄰","STREET":"普濟街","SECT":" ","MAREA":" ","LANE":" ","ALLEY":" ","HOUSE_NO":"３１號","E_COORD97":167820.67000000001,"N_COORD97":2544251.4199999999,"ADDRESS":"普濟街３１號","OBJECTID":472659},"geometry":{"x":167820.67000000086,"y":2544251.4199999999}},{"attributes":{"ID":472685,"DIS_CODE":0,"TOWNNAME":"中西區","LI":"水仙里","LIN":"18鄰","STREET":"普濟街","SECT":" ","MAREA":" ","LANE":" ","ALLEY":" ","HOUSE_NO":"５號","E_COORD97":167799.92999999999,"N_COORD97":2544195.8799999999,"ADDRESS":"普濟街５號","OBJECTID":472660},"geometry":{"x":167799.93000000156,"y":2544195.879999999}},{"attributes":{"ID":472686,"DIS_CODE":0,"TOWNNAME":"中西區","LI":"建國里","LIN":"18鄰","STREET":"西門路","SECT":"二段","MAREA":" ","LANE":" ","ALLEY":" ","HOUSE_NO":"１９４號","E_COORD97":167920.17999999999,"N_COORD97":2543909.1400000001,"ADDRESS":"西門路二段１９４號","OBJECTID":472661},"geometry":{"x":167920.18000000156,"y":2543909.1400000025}},{"attributes":{"ID":472687,"DIS_CODE":0,"TOWNNAME":"中西區","LI":"建國里","LIN":"18鄰","STREET":"西門路","SECT":"二段","MAREA":" ","LANE":" ","ALLEY":" ","HOUSE_NO":"１９６號","E_COORD97":167920.73000000001,"N_COORD97":2543913.1000000001,"ADDRESS":"西門路二段１９６號","OBJECTID":472662},"geometry":{"x":167920.73000000231,"y":2543913.0999999996}},{"attributes":{"ID":472688,"DIS_CODE":0,"TOWNNAME":"安南區","LI":"溪心里","LIN":"18鄰","STREET":"仁安二街","SECT":" ","MAREA":" ","LANE":" ","ALLEY":" ","HOUSE_NO":"３３號","E_COORD97":165982.45999999999,"N_COORD97":2550132.1400000001,"ADDRESS":"仁安二街３３號","OBJECTID":472663},"geometry":{"x":165982.45999999996,"y":2550132.1400000006}},{"attributes":{"ID":472689,"DIS_CODE":0,"TOWNNAME":"中西區","LI":"建國里","LIN":"18鄰","STREET":"西門路","SECT":"二段","MAREA":" ","LANE":" ","ALLEY":" ","HOUSE_NO":"１９８號","E_COORD97":167920.92999999999,"N_COORD97":2543916.29,"ADDRESS":"西門路二段１９８號","OBJECTID":472664},"geometry":{"x":167920.93000000063,"y":2543916.2900000028}},{"attributes":{"ID":472690,"DIS_CODE":0,"TOWNNAME":"中西區","LI":"建國里","LIN":"18鄰","STREET":"西門路","SECT":"二段","MAREA":" ","LANE":" ","ALLEY":" ","HOUSE_NO":"２００號","E_COORD97":167921.73000000001,"N_COORD97":2543921.0800000001,"ADDRESS":"西門路二段２００號","OBJECTID":472665},"geometry":{"x":167921.73000000045,"y":2543921.0800000001}},{"attributes":{"ID":472691,"DIS_CODE":0,"TOWNNAME":"中西區","LI":"建國里","LIN":"18鄰","STREET":"西門路","SECT":"二段","MAREA":" ","LANE":" ","ALLEY":" ","HOUSE_NO":"２０２號","E_COORD97":167922.53,"N_COORD97":2543926.27,"ADDRESS":"西門路二段２０２號","OBJECTID":472666},"geometry":{"x":167922.53000000119,"y":2543926.2699999996}},{"attributes":{"ID":472692,"DIS_CODE":0,"TOWNNAME":"中西區","LI":"建國里","LIN":"18鄰","STREET":"西門路","SECT":"二段","MAREA":" ","LANE":" ","ALLEY":" ","HOUSE_NO":"２０４號","E_COORD97":167923.13,"N_COORD97":2543930.27,"ADDRESS":"西門路二段２０４號","OBJECTID":472667},"geometry":{"x":167923.13000000082,"y":2543930.2700000033}},{"attributes":{"ID":472693,"DIS_CODE":0,"TOWNNAME":"中西區","LI":"建國里","LIN":"18鄰","STREET":"西門路","SECT":"二段","MAREA":" ","LANE":" ","ALLEY":" ","HOUSE_NO":"２０６號","E_COORD97":167923.73000000001,"N_COORD97":2543934.2599999998,"ADDRESS":"西門路二段２０６號","OBJECTID":472668},"geometry":{"x":167923.73000000045,"y":2543934.2600000035}},{"attributes":{"ID":472694,"DIS_CODE":0,"TOWNNAME":"中西區","LI":"建國里","LIN":"18鄰","STREET":"西門路","SECT":"二段","MAREA":" ","LANE":" ","ALLEY":" ","HOUSE_NO":"２０８號","E_COORD97":167930.53,"N_COORD97":2543925.3100000001,"ADDRESS":"西門路二段２０８號","OBJECTID":472669},"geometry":{"x":167930.53000000119,"y":2543925.3100000024}},{"attributes":{"ID":472695,"DIS_CODE":0,"TOWNNAME":"中西區","LI":"建國里","LIN":"18鄰","STREET":"西門路","SECT":"二段","MAREA":" ","LANE":" ","ALLEY":" ","HOUSE_NO":"２１０號","E_COORD97":167932.73000000001,"N_COORD97":2543932.2999999998,"ADDRESS":"西門路二段２１０號","OBJECTID":472670},"geometry":{"x":167932.73000000138,"y":2543932.3000000026}},{"attributes":{"ID":472696,"DIS_CODE":0,"TOWNNAME":"中西區","LI":"建國里","LIN":"18鄰","STREET":"西門路","SECT":"二段","MAREA":" ","LANE":" ","ALLEY":" ","HOUSE_NO":"２１２號","E_COORD97":167925.73000000001,"N_COORD97":2543941.6499999999,"ADDRESS":"西門路二段２１２號","OBJECTID":472671},"geometry":{"x":167925.73000000231,"y":2543941.6500000004}},{"attributes":{"ID":472697,"DIS_CODE":0,"TOWNNAME":"中西區","LI":"建國里","LIN":"18鄰","STREET":"西門路","SECT":"二段","MAREA":" ","LANE":" ","ALLEY":" ","HOUSE_NO":"２１４號","E_COORD97":167926.73000000001,"N_COORD97":2543947.4399999999,"ADDRESS":"西門路二段２１４號","OBJECTID":472672},"geometry":{"x":167926.73000000045,"y":2543947.4400000013}},{"attributes":{"ID":472698,"DIS_CODE":0,"TOWNNAME":"中西區","LI":"建國里","LIN":"18鄰","STREET":"西門路","SECT":"二段","MAREA":" ","LANE":" ","ALLEY":" ","HOUSE_NO":"２１６號","E_COORD97":167927.73000000001,"N_COORD97":2543950.8300000001,"ADDRESS":"西門路二段２１６號","OBJECTID":472673},"geometry":{"x":167927.73000000138,"y":2543950.8300000038}},{"attributes":{"ID":472699,"DIS_CODE":0,"TOWNNAME":"中西區","LI":"建國里","LIN":"18鄰","STREET":"西門路","SECT":"二段","MAREA":" ","LANE":" ","ALLEY":" ","HOUSE_NO":"２１８號","E_COORD97":167928.73000000001,"N_COORD97":2543954.0299999998,"ADDRESS":"西門路二段２１８號","OBJECTID":472674},"geometry":{"x":167928.73000000045,"y":2543954.0299999993}},{"attributes":{"ID":472700,"DIS_CODE":0,"TOWNNAME":"中西區","LI":"建國里","LIN":"18鄰","STREET":"西門路","SECT":"二段","MAREA":" ","LANE":" ","ALLEY":" ","HOUSE_NO":"２２０號","E_COORD97":167934.32000000001,"N_COORD97":2543949.8300000001,"ADDRESS":"西門路二段２２０號","OBJECTID":472675},"geometry":{"x":167934.3200000003,"y":2543949.8300000001}},{"attributes":{"ID":472701,"DIS_CODE":0,"TOWNNAME":"中西區","LI":"建國里","LIN":"18鄰","STREET":"西門路","SECT":"二段","MAREA":" ","LANE":" ","ALLEY":" ","HOUSE_NO":"２２２號","E_COORD97":167929.73000000001,"N_COORD97":2543960.0099999998,"ADDRESS":"西門路二段２２２號","OBJECTID":472676},"geometry":{"x":167929.73000000138,"y":2543960.0100000016}},{"attributes":{"ID":472702,"DIS_CODE":0,"TOWNNAME":"中西區","LI":"建國里","LIN":"18鄰","STREET":"西門路","SECT":"二段","MAREA":" ","LANE":" ","ALLEY":" ","HOUSE_NO":"２２４號","E_COORD97":167931.32999999999,"N_COORD97":2543964.21,"ADDRESS":"西門路二段２２４號","OBJECTID":472677},"geometry":{"x":167931.32999999914,"y":2543964.2100000028}},{"attributes":{"ID":472703,"DIS_CODE":0,"TOWNNAME":"中西區","LI":"建國里","LIN":"18鄰","STREET":"西門路","SECT":"二段","MAREA":" ","LANE":" ","ALLEY":" ","HOUSE_NO":"２２６號","E_COORD97":167933.72,"N_COORD97":2543968,"ADDRESS":"西門路二段２２６號","OBJECTID":472678},"geometry":{"x":167933.72000000067,"y":2543968.0000000019}},{"attributes":{"ID":472704,"DIS_CODE":0,"TOWNNAME":"中西區","LI":"建國里","LIN":"18鄰","STREET":"西門路","SECT":"二段","MAREA":" ","LANE":" ","ALLEY":" ","HOUSE_NO":"２３０號","E_COORD97":167935.51999999999,"N_COORD97":2543974.02,"ADDRESS":"西門路二段２３０號","OBJECTID":472679},"geometry":{"x":167935.52000000048,"y":2543974.0200000014}},{"attributes":{"ID":472705,"DIS_CODE":0,"TOWNNAME":"中西區","LI":"建國里","LIN":"18鄰","STREET":"西門路","SECT":"二段","MAREA":" ","LANE":" ","ALLEY":" ","HOUSE_NO":"２３０號之１","E_COORD97":167937.32000000001,"N_COORD97":2543980.0099999998,"ADDRESS":"西門路二段２３０號之１","OBJECTID":472680},"geometry":{"x":167937.32000000123,"y":2543980.0100000035}},{"attributes":{"ID":472706,"DIS_CODE":0,"TOWNNAME":"中西區","LI":"建國里","LIN":"18鄰","STREET":"西門路","SECT":"二段","MAREA":" ","LANE":" ","ALLEY":" ","HOUSE_NO":"２３２號","E_COORD97":167938.92000000001,"N_COORD97":2543986.52,"ADDRESS":"西門路二段２３２號","OBJECTID":472681},"geometry":{"x":167938.91999999993,"y":2543986.5200000033}},{"attributes":{"ID":472707,"DIS_CODE":0,"TOWNNAME":"中西區","LI":"建國里","LIN":"18鄰","STREET":"西門路","SECT":"二段","MAREA":" ","LANE":" ","ALLEY":" ","HOUSE_NO":"２３４號","E_COORD97":167940.12,"N_COORD97":2543990.9100000001,"ADDRESS":"西門路二段２３４號","OBJECTID":472682},"geometry":{"x":167940.12000000104,"y":2543990.9099999983}},{"attributes":{"ID":472708,"DIS_CODE":0,"TOWNNAME":"中西區","LI":"建國里","LIN":"18鄰","STREET":"西門路","SECT":"二段","MAREA":" ","LANE":" ","ALLEY":" ","HOUSE_NO":"２３６號","E_COORD97":167940.92000000001,"N_COORD97":2543995.1099999999,"ADDRESS":"西門路二段２３６號","OBJECTID":472683},"geometry":{"x":167940.92000000179,"y":2543995.1099999994}},{"attributes":{"ID":472709,"DIS_CODE":0,"TOWNNAME":"中西區","LI":"建國里","LIN":"18鄰","STREET":"西門路","SECT":"二段","MAREA":" ","LANE":" ","ALLEY":" ","HOUSE_NO":"２３８號","E_COORD97":167941.72,"N_COORD97":2543999.2999999998,"ADDRESS":"西門路二段２３８號","OBJECTID":472684},"geometry":{"x":167941.71999999974,"y":2543999.3000000045}},{"attributes":{"ID":472710,"DIS_CODE":0,"TOWNNAME":"中西區","LI":"建國里","LIN":"18鄰","STREET":"西門路","SECT":"二段","MAREA":" ","LANE":" ","ALLEY":" ","HOUSE_NO":"２４０號","E_COORD97":167942.92000000001,"N_COORD97":2544003.6899999999,"ADDRESS":"西門路二段２４０號","OBJECTID":472685},"geometry":{"x":167942.92000000086,"y":2544003.6900000013}},{"attributes":{"ID":472711,"DIS_CODE":0,"TOWNNAME":"中西區","LI":"建國里","LIN":"18鄰","STREET":"西門路","SECT":"二段","MAREA":" ","LANE":" ","ALLEY":" ","HOUSE_NO":"２４２之１號","E_COORD97":167943.51999999999,"N_COORD97":2544007.6800000002,"ADDRESS":"西門路二段２４２之１號","OBJECTID":472686},"geometry":{"x":167943.52000000048,"y":2544007.6799999997}},{"attributes":{"ID":472712,"DIS_CODE":0,"TOWNNAME":"中西區","LI":"建國里","LIN":"18鄰","STREET":"西門路","SECT":"二段","MAREA":" ","LANE":" ","ALLEY":" ","HOUSE_NO":"２４２號","E_COORD97":167944.12,"N_COORD97":2544012.0800000001,"ADDRESS":"西門路二段２４２號","OBJECTID":472687},"geometry":{"x":167944.12000000011,"y":2544012.0800000001}},{"attributes":{"ID":472713,"DIS_CODE":0,"TOWNNAME":"中西區","LI":"建國里","LIN":"18鄰","STREET":"西門路","SECT":"二段","MAREA":" ","LANE":" ","ALLEY":" ","HOUSE_NO":"２４６號","E_COORD97":167944.92000000001,"N_COORD97":2544014.4700000002,"ADDRESS":"西門路二段２４６號","OBJECTID":472688},"geometry":{"x":167944.92000000086,"y":2544014.4700000007}},{"attributes":{"ID":472714,"DIS_CODE":0,"TOWNNAME":"中西區","LI":"建國里","LIN":"18鄰","STREET":"西門路","SECT":"二段","MAREA":" ","LANE":" ","ALLEY":" ","HOUSE_NO":"２４８號","E_COORD97":167945.72,"N_COORD97":2544017.27,"ADDRESS":"西門路二段２４８號","OBJECTID":472689},"geometry":{"x":167945.72000000067,"y":2544017.2699999996}},{"attributes":{"ID":472715,"DIS_CODE":0,"TOWNNAME":"中西區","LI":"建國里","LIN":"18鄰","STREET":"西門路","SECT":"二段","MAREA":" ","LANE":" ","ALLEY":" ","HOUSE_NO":"２５０號","E_COORD97":167946.32000000001,"N_COORD97":2544021.6200000001,"ADDRESS":"西門路二段２５０號","OBJECTID":472690},"geometry":{"x":167946.3200000003,"y":2544021.6200000029}},{"attributes":{"ID":472716,"DIS_CODE":0,"TOWNNAME":"中西區","LI":"建國里","LIN":"18鄰","STREET":"西門路","SECT":"二段","MAREA":" ","LANE":" ","ALLEY":" ","HOUSE_NO":"２５２號","E_COORD97":167947.32000000001,"N_COORD97":2544026.21,"ADDRESS":"西門路二段２５２號","OBJECTID":472691},"geometry":{"x":167947.32000000123,"y":2544026.2100000009}},{"attributes":{"ID":472717,"DIS_CODE":0,"TOWNNAME":"中西區","LI":"建國里","LIN":"18鄰","STREET":"西門路","SECT":"二段","MAREA":" ","LANE":" ","ALLEY":" ","HOUSE_NO":"２５４號","E_COORD97":167948.12,"N_COORD97":2544030.3999999999,"ADDRESS":"西門路二段２５４號","OBJECTID":472692},"geometry":{"x":167948.12000000197,"y":2544030.4000000022}},{"attributes":{"ID":472718,"DIS_CODE":0,"TOWNNAME":"中西區","LI":"建國里","LIN":"18鄰","STREET":"西門路","SECT":"二段","MAREA":" ","LANE":" ","ALLEY":" ","HOUSE_NO":"２５６號","E_COORD97":167949.12,"N_COORD97":2544034.79,"ADDRESS":"西門路二段２５６號","OBJECTID":472693},"geometry":{"x":167949.12000000011,"y":2544034.7900000028}},{"attributes":{"ID":472719,"DIS_CODE":0,"TOWNNAME":"中西區","LI":"建國里","LIN":"18鄰","STREET":"西門路","SECT":"二段","MAREA":" ","LANE":" ","ALLEY":" ","HOUSE_NO":"２５８號","E_COORD97":167949.72,"N_COORD97":2544038.3900000001,"ADDRESS":"西門路二段２５８號","OBJECTID":472694},"geometry":{"x":167949.71999999974,"y":2544038.3900000006}},{"attributes":{"ID":472720,"DIS_CODE":0,"TOWNNAME":"中西區","LI":"建國里","LIN":"18鄰","STREET":"西門路","SECT":"二段","MAREA":" ","LANE":" ","ALLEY":" ","HOUSE_NO":"２６０號","E_COORD97":167950.92000000001,"N_COORD97":2544042.7799999998,"ADDRESS":"西門路二段２６０號","OBJECTID":472695},"geometry":{"x":167950.91999999899,"y":2544042.7800000012}},{"attributes":{"ID":472721,"DIS_CODE":0,"TOWNNAME":"中西區","LI":"建國里","LIN":"18鄰","STREET":"西門路","SECT":"二段","MAREA":" ","LANE":" ","ALLEY":" ","HOUSE_NO":"２６２號","E_COORD97":167951.72,"N_COORD97":2544046.3700000001,"ADDRESS":"西門路二段２６２號","OBJECTID":472696},"geometry":{"x":167951.71999999974,"y":2544046.3699999992}},{"attributes":{"ID":472722,"DIS_CODE":0,"TOWNNAME":"中西區","LI":"建國里","LIN":"18鄰","STREET":"西門路","SECT":"二段","MAREA":" ","LANE":" ","ALLEY":" ","HOUSE_NO":"２６４號","E_COORD97":167952.92000000001,"N_COORD97":2544050.3700000001,"ADDRESS":"西門路二段２６４號","OBJECTID":472697},"geometry":{"x":167952.92000000086,"y":2544050.3700000029}},{"attributes":{"ID":472723,"DIS_CODE":0,"TOWNNAME":"中西區","LI":"建國里","LIN":"18鄰","STREET":"西門路","SECT":"二段","MAREA":" ","LANE":" ","ALLEY":" ","HOUSE_NO":"２６６號","E_COORD97":167954.12,"N_COORD97":2544055.3399999999,"ADDRESS":"西門路二段２６６號","OBJECTID":472698},"geometry":{"x":167954.12000000011,"y":2544055.3399999999}},{"attributes":{"ID":472724,"DIS_CODE":0,"TOWNNAME":"白河區","LI":"永安里","LIN":"18鄰","STREET":"中正路","SECT":" ","MAREA":" ","LANE":" ","ALLEY":" ","HOUSE_NO":"２７３號","E_COORD97":189582.07000000001,"N_COORD97":2583053.1000000001,"ADDRESS":"中正路２７３號","OBJECTID":472699},"geometry":{"x":189582.0700000003,"y":2583053.1000000034}},{"attributes":{"ID":472725,"DIS_CODE":0,"TOWNNAME":"安南區","LI":"理想里","LIN":"18鄰","STREET":"大安街","SECT":" ","MAREA":" ","LANE":" ","ALLEY":" ","HOUSE_NO":"２８１號","E_COORD97":167498.94,"N_COORD97":2548500.3700000001,"ADDRESS":"大安街２８１號","OBJECTID":472700},"geometry":{"x":167498.94000000134,"y":2548500.370000001}},{"attributes":{"ID":472726,"DIS_CODE":0,"TOWNNAME":"安南區","LI":"溪頂里","LIN":"18鄰","STREET":"賢安街","SECT":" ","MAREA":" ","LANE":" ","ALLEY":" ","HOUSE_NO":"５１號","E_COORD97":168604.16,"N_COORD97":2547401.5600000001,"ADDRESS":"賢安街５１號","OBJECTID":472701},"geometry":{"x":168604.16000000108,"y":2547401.5600000024}},{"attributes":{"ID":472727,"DIS_CODE":0,"TOWNNAME":"永康區","LI":"埔園里","LIN":"18鄰","STREET":"埔園街","SECT":" ","MAREA":" ","LANE":" ","ALLEY":" ","HOUSE_NO":"２９２號","E_COORD97":173543.73000000001,"N_COORD97":2548217.2400000002,"ADDRESS":"埔園街２９２號","OBJECTID":472702},"geometry":{"x":173543.73000000138,"y":2548217.2400000021}},{"attributes":{"ID":472728,"DIS_CODE":0,"TOWNNAME":"永康區","LI":"埔園里","LIN":"18鄰","STREET":"埔園街","SECT":" ","MAREA":" ","LANE":" ","ALLEY":" ","HOUSE_NO":"２８８號","E_COORD97":173556.32999999999,"N_COORD97":2548226.7400000002,"ADDRESS":"埔園街２８８號","OBJECTID":472703},"geometry":{"x":173556.33000000101,"y":2548226.7399999984}},{"attributes":{"ID":472729,"DIS_CODE":0,"TOWNNAME":"永康區","LI":"埔園里","LIN":"18鄰","STREET":"四維街","SECT":" ","MAREA":" ","LANE":" ","ALLEY":" ","HOUSE_NO":"１５２號","E_COORD97":173315.13,"N_COORD97":2548361.25,"ADDRESS":"四維街１５２號","OBJECTID":472704},"geometry":{"x":173315.13000000082,"y":2548361.25}},{"attributes":{"ID":472730,"DIS_CODE":0,"TOWNNAME":"永康區","LI":"北灣里","LIN":"18鄰","STREET":"文賢街","SECT":" ","MAREA":" ","LANE":" ","ALLEY":" ","HOUSE_NO":"４４２號","E_COORD97":174658.25,"N_COORD97":2545830.9300000002,"ADDRESS":"文賢街４４２號","OBJECTID":472705},"geometry":{"x":174658.25,"y":2545830.9299999997}},{"attributes":{"ID":472731,"DIS_CODE":0,"TOWNNAME":"安南區","LI":"溪心里","LIN":"18鄰","STREET":"功安二街","SECT":" ","MAREA":" ","LANE":" ","ALLEY":" ","HOUSE_NO":"６９號","E_COORD97":166064.04999999999,"N_COORD97":2549993.7000000002,"ADDRESS":"功安二街６９號","OBJECTID":472706},"geometry":{"x":166064.05000000075,"y":2549993.7000000011}},{"attributes":{"ID":472732,"DIS_CODE":0,"TOWNNAME":"安南區","LI":"溪心里","LIN":"18鄰","STREET":"功安二街","SECT":" ","MAREA":" ","LANE":" ","ALLEY":" ","HOUSE_NO":"７１號","E_COORD97":166061.67000000001,"N_COORD97":2549997.3599999999,"ADDRESS":"功安二街７１號","OBJECTID":472707},"geometry":{"x":166061.67000000086,"y":2549997.3599999994}},{"attributes":{"ID":472733,"DIS_CODE":0,"TOWNNAME":"安南區","LI":"溪心里","LIN":"18鄰","STREET":"智安三街","SECT":" ","MAREA":" ","LANE":" ","ALLEY":" ","HOUSE_NO":"８號","E_COORD97":165909.60999999999,"N_COORD97":2550120.7200000002,"ADDRESS":"智安三街８號","OBJECTID":472708},"geometry":{"x":165909.61000000127,"y":2550120.7200000025}},{"attributes":{"ID":472734,"DIS_CODE":0,"TOWNNAME":"安南區","LI":"溪心里","LIN":"18鄰","STREET":"智安三街","SECT":" ","MAREA":" ","LANE":" ","ALLEY":" ","HOUSE_NO":"１０號","E_COORD97":165908.78,"N_COORD97":2550124.5699999998,"ADDRESS":"智安三街１０號","OBJECTID":472709},"geometry":{"x":165908.78000000026,"y":2550124.5700000022}},{"attributes":{"ID":472735,"DIS_CODE":0,"TOWNNAME":"安南區","LI":"溪心里","LIN":"18鄰","STREET":"智安三街","SECT":" ","MAREA":" ","LANE":" ","ALLEY":" ","HOUSE_NO":"１２號","E_COORD97":165907.41,"N_COORD97":2550128.0099999998,"ADDRESS":"智安三街１２號","OBJECTID":472710},"geometry":{"x":165907.41000000108,"y":2550128.0100000016}},{"attributes":{"ID":472736,"DIS_CODE":0,"TOWNNAME":"安南區","LI":"溪心里","LIN":"18鄰","STREET":"智安三街","SECT":" ","MAREA":" ","LANE":" ","ALLEY":" ","HOUSE_NO":"１６號","E_COORD97":165906.31,"N_COORD97":2550131.2999999998,"ADDRESS":"智安三街１６號","OBJECTID":472711},"geometry":{"x":165906.30999999959,"y":2550131.3000000007}},{"attributes":{"ID":472737,"DIS_CODE":0,"TOWNNAME":"安南區","LI":"溪心里","LIN":"18鄰","STREET":"功安二街","SECT":" ","MAREA":" ","LANE":" ","ALLEY":" ","HOUSE_NO":"１０７號","E_COORD97":165929.67999999999,"N_COORD97":2550157.8399999999,"ADDRESS":"功安二街１０７號","OBJECTID":472712},"geometry":{"x":165929.6799999997,"y":2550157.8399999999}},{"attributes":{"ID":472738,"DIS_CODE":0,"TOWNNAME":"安南區","LI":"溪心里","LIN":"18鄰","STREET":"功安二街","SECT":" ","MAREA":" ","LANE":" ","ALLEY":" ","HOUSE_NO":"１０９號","E_COORD97":165925.97,"N_COORD97":2550161.27,"ADDRESS":"功安二街１０９號","OBJECTID":472713},"geometry":{"x":165925.96999999974,"y":2550161.2699999996}},{"attributes":{"ID":472739,"DIS_CODE":0,"TOWNNAME":"安南區","LI":"溪心里","LIN":"18鄰","STREET":"功安二街","SECT":" ","MAREA":" ","LANE":" ","ALLEY":" ","HOUSE_NO":"１１１號","E_COORD97":165923.23999999999,"N_COORD97":2550165.79,"ADDRESS":"功安二街１１１號","OBJECTID":472714},"geometry":{"x":165923.24000000022,"y":2550165.790000001}},{"attributes":{"ID":472740,"DIS_CODE":0,"TOWNNAME":"安南區","LI":"溪心里","LIN":"18鄰","STREET":"功安二街","SECT":" ","MAREA":" ","LANE":" ","ALLEY":" ","HOUSE_NO":"１１３號","E_COORD97":165919.75,"N_COORD97":2550170.5499999998,"ADDRESS":"功安二街１１３號","OBJECTID":472715},"geometry":{"x":165919.75000000186,"y":2550170.5500000007}},{"attributes":{"ID":472741,"DIS_CODE":0,"TOWNNAME":"安南區","LI":"溪心里","LIN":"18鄰","STREET":"功安二街","SECT":" ","MAREA":" ","LANE":" ","ALLEY":" ","HOUSE_NO":"６７號","E_COORD97":166068.01999999999,"N_COORD97":2549991.0099999998,"ADDRESS":"功安二街６７號","OBJECTID":472716},"geometry":{"x":166068.01999999955,"y":2549991.0100000035}},{"attributes":{"ID":472742,"DIS_CODE":0,"TOWNNAME":"安南區","LI":"溪心里","LIN":"18鄰","STREET":"功安二街","SECT":" ","MAREA":" ","LANE":" ","ALLEY":" ","HOUSE_NO":"７３號","E_COORD97":166058.01999999999,"N_COORD97":2550000.6899999999,"ADDRESS":"功安二街７３號","OBJECTID":472717},"geometry":{"x":166058.01999999862,"y":2550000.6900000013}},{"attributes":{"ID":472743,"DIS_CODE":0,"TOWNNAME":"安南區","LI":"溪心里","LIN":"18鄰","STREET":"功安二街","SECT":" ","MAREA":" ","LANE":" ","ALLEY":" ","HOUSE_NO":"７５號","E_COORD97":166055.79999999999,"N_COORD97":2550004.6600000001,"ADDRESS":"功安二街７５號","OBJECTID":472718},"geometry":{"x":166055.79999999981,"y":2550004.660000002}},{"attributes":{"ID":472744,"DIS_CODE":0,"TOWNNAME":"安南區","LI":"溪心里","LIN":"18鄰","STREET":"功安二街","SECT":" ","MAREA":" ","LANE":" ","ALLEY":" ","HOUSE_NO":"７７號","E_COORD97":166054.37,"N_COORD97":2550007.9900000002,"ADDRESS":"功安二街７７號","OBJECTID":472719},"geometry":{"x":166054.37000000011,"y":2550007.9900000002}},{"attributes":{"ID":472745,"DIS_CODE":0,"TOWNNAME":"安南區","LI":"溪心里","LIN":"18鄰","STREET":"功安二街","SECT":" ","MAREA":" ","LANE":" ","ALLEY":" ","HOUSE_NO":"６８號","E_COORD97":166081.20000000001,"N_COORD97":2549999.7400000002,"ADDRESS":"功安二街６８號","OBJECTID":472720},"geometry":{"x":166081.19999999925,"y":2549999.7400000002}},{"attributes":{"ID":472746,"DIS_CODE":0,"TOWNNAME":"安南區","LI":"溪心里","LIN":"18鄰","STREET":"功安二街","SECT":" ","MAREA":" ","LANE":" ","ALLEY":" ","HOUSE_NO":"７０號","E_COORD97":166078.5,"N_COORD97":2550003.3900000001,"ADDRESS":"功安二街７０號","OBJECTID":472721},"geometry":{"x":166078.5,"y":2550003.3900000025}},{"attributes":{"ID":472747,"DIS_CODE":0,"TOWNNAME":"安南區","LI":"溪心里","LIN":"18鄰","STREET":"功安二街","SECT":" ","MAREA":" ","LANE":" ","ALLEY":" ","HOUSE_NO":"７２號","E_COORD97":166075.32000000001,"N_COORD97":2550006.7200000002,"ADDRESS":"功安二街７２號","OBJECTID":472722},"geometry":{"x":166075.3200000003,"y":2550006.7200000007}},{"attributes":{"ID":472748,"DIS_CODE":0,"TOWNNAME":"安南區","LI":"溪心里","LIN":"18鄰","STREET":"功安二街","SECT":" ","MAREA":" ","LANE":" ","ALLEY":" ","HOUSE_NO":"７６號","E_COORD97":166071.82999999999,"N_COORD97":2550010.6899999999,"ADDRESS":"功安二街７６號","OBJECTID":472723},"geometry":{"x":166071.83000000194,"y":2550010.6900000013}},{"attributes":{"ID":472749,"DIS_CODE":0,"TOWNNAME":"安南區","LI":"溪心里","LIN":"18鄰","STREET":"功安二街","SECT":" ","MAREA":" ","LANE":" ","ALLEY":" ","HOUSE_NO":"９８號","E_COORD97":166057.07000000001,"N_COORD97":2550025.9300000002,"ADDRESS":"功安二街９８號","OBJECTID":472724},"geometry":{"x":166057.07000000123,"y":2550025.9300000016}},{"attributes":{"ID":472750,"DIS_CODE":0,"TOWNNAME":"安南區","LI":"溪心里","LIN":"18鄰","STREET":"功安二街","SECT":" ","MAREA":" ","LANE":" ","ALLEY":" ","HOUSE_NO":"９６號","E_COORD97":166058.5,"N_COORD97":2550023.3900000001,"ADDRESS":"功安二街９６號","OBJECTID":472725},"geometry":{"x":166058.5,"y":2550023.3900000043}},{"attributes":{"ID":472751,"DIS_CODE":0,"TOWNNAME":"安南區","LI":"溪心里","LIN":"18鄰","STREET":"仁安四街","SECT":" ","MAREA":" ","LANE":" ","ALLEY":" ","HOUSE_NO":"１８號","E_COORD97":166044.69,"N_COORD97":2550045.9300000002,"ADDRESS":"仁安四街１８號","OBJECTID":472726},"geometry":{"x":166044.69000000134,"y":2550045.9300000034}},{"attributes":{"ID":472752,"DIS_CODE":0,"TOWNNAME":"安南區","LI":"溪心里","LIN":"18鄰","STREET":"仁安四街","SECT":" ","MAREA":" ","LANE":" ","ALLEY":" ","HOUSE_NO":"２０號","E_COORD97":166047.38,"N_COORD97":2550048.3100000001,"ADDRESS":"仁安四街２０號","OBJECTID":472727},"geometry":{"x":166047.37999999989,"y":2550048.3100000024}},{"attributes":{"ID":472753,"DIS_CODE":0,"TOWNNAME":"安南區","LI":"溪心里","LIN":"18鄰","STREET":"仁安四街","SECT":" ","MAREA":" ","LANE":" ","ALLEY":" ","HOUSE_NO":"２２號","E_COORD97":166050.72,"N_COORD97":2550050.3799999999,"ADDRESS":"仁安四街２２號","OBJECTID":472728},"geometry":{"x":166050.72000000067,"y":2550050.379999999}},{"attributes":{"ID":472754,"DIS_CODE":0,"TOWNNAME":"安南區","LI":"溪心里","LIN":"18鄰","STREET":"仁安四街","SECT":" ","MAREA":" ","LANE":" ","ALLEY":" ","HOUSE_NO":"２６號","E_COORD97":166054.20999999999,"N_COORD97":2550052.9199999999,"ADDRESS":"仁安四街２６號","OBJECTID":472729},"geometry":{"x":166054.21000000089,"y":2550052.9200000037}},{"attributes":{"ID":472755,"DIS_CODE":0,"TOWNNAME":"安南區","LI":"溪心里","LIN":"18鄰","STREET":"仁安四街","SECT":" ","MAREA":" ","LANE":" ","ALLEY":" ","HOUSE_NO":"２８號","E_COORD97":166057.39000000001,"N_COORD97":2550055.7799999998,"ADDRESS":"仁安四街２８號","OBJECTID":472730},"geometry":{"x":166057.39000000153,"y":2550055.7799999993}},{"attributes":{"ID":472756,"DIS_CODE":0,"TOWNNAME":"安南區","LI":"溪心里","LIN":"18鄰","STREET":"仁安四街","SECT":" ","MAREA":" ","LANE":" ","ALLEY":" ","HOUSE_NO":"３０號","E_COORD97":166061.35000000001,"N_COORD97":2550059.1099999999,"ADDRESS":"仁安四街３０號","OBJECTID":472731},"geometry":{"x":166061.35000000056,"y":2550059.1100000013}},{"attributes":{"ID":472757,"DIS_CODE":0,"TOWNNAME":"安南區","LI":"溪心里","LIN":"18鄰","STREET":"仁安二街","SECT":" ","MAREA":" ","LANE":" ","ALLEY":" ","HOUSE_NO":"３１號","E_COORD97":165979.28,"N_COORD97":2550129.1200000001,"ADDRESS":"仁安二街３１號","OBJECTID":472732},"geometry":{"x":165979.28000000119,"y":2550129.120000001}},{"attributes":{"ID":472758,"DIS_CODE":0,"TOWNNAME":"安南區","LI":"溪心里","LIN":"18鄰","STREET":"仁安二街","SECT":" ","MAREA":" ","LANE":" ","ALLEY":" ","HOUSE_NO":"３５號","E_COORD97":165986.10999999999,"N_COORD97":2550134.2000000002,"ADDRESS":"仁安二街３５號","OBJECTID":472733},"geometry":{"x":165986.11000000127,"y":2550134.1999999993}},{"attributes":{"ID":472759,"DIS_CODE":0,"TOWNNAME":"安南區","LI":"溪心里","LIN":"18鄰","STREET":"仁安二街","SECT":" ","MAREA":" ","LANE":" ","ALLEY":" ","HOUSE_NO":"３７號","E_COORD97":165989.44,"N_COORD97":2550137.6899999999,"ADDRESS":"仁安二街３７號","OBJECTID":472734},"geometry":{"x":165989.44000000041,"y":2550137.6899999995}},{"attributes":{"ID":472760,"DIS_CODE":0,"TOWNNAME":"仁德區","LI":"保安里","LIN":"18鄰","STREET":"中正路","SECT":"一段","MAREA":" ","LANE":" ","ALLEY":" ","HOUSE_NO":"４９號","E_COORD97":170811.22,"N_COORD97":2535542.5299999998,"ADDRESS":"中正路一段４９號","OBJECTID":472735},"geometry":{"x":170811.21999999974,"y":2535542.5299999993}},{"attributes":{"ID":472761,"DIS_CODE":0,"TOWNNAME":"仁德區","LI":"新田里","LIN":"18鄰","STREET":"民安路","SECT":"二段","MAREA":" ","LANE":" ","ALLEY":" ","HOUSE_NO":"１８５之２號","E_COORD97":173747.45000000001,"N_COORD97":2539040.3100000001,"ADDRESS":"民安路二段１８５之２號","OBJECTID":472736},"geometry":{"x":173747.45000000112,"y":2539040.3100000024}},{"attributes":{"ID":472762,"DIS_CODE":0,"TOWNNAME":"仁德區","LI":"成功里","LIN":"18鄰","STREET":"全福路","SECT":" ","MAREA":" ","LANE":" ","ALLEY":" ","HOUSE_NO":"７９號","E_COORD97":171048.35000000001,"N_COORD97":2539314.7400000002,"ADDRESS":"全福路７９號","OBJECTID":472737},"geometry":{"x":171048.35000000149,"y":2539314.7400000021}},{"attributes":{"ID":472763,"DIS_CODE":0,"TOWNNAME":"仁德區","LI":"新田里","LIN":"18鄰","STREET":"民安路","SECT":"二段","MAREA":" ","LANE":" ","ALLEY":" ","HOUSE_NO":"１８５之１號","E_COORD97":173750.75,"N_COORD97":2539037.0600000001,"ADDRESS":"民安路二段１８５之１號","OBJECTID":472738},"geometry":{"x":173750.75,"y":2539037.0600000042}},{"attributes":{"ID":472764,"DIS_CODE":0,"TOWNNAME":"仁德區","LI":"新田里","LIN":"18鄰","STREET":"民安路","SECT":"二段","MAREA":" ","LANE":" ","ALLEY":" ","HOUSE_NO":"１０７號","E_COORD97":173591.42999999999,"N_COORD97":2539145.0600000001,"ADDRESS":"民安路二段１０７號","OBJECTID":472739},"geometry":{"x":173591.43000000063,"y":2539145.0600000005}},{"attributes":{"ID":472765,"DIS_CODE":0,"TOWNNAME":"仁德區","LI":"後壁里","LIN":"18鄰","STREET":"德南路","SECT":" ","MAREA":" ","LANE":" ","ALLEY":" ","HOUSE_NO":"２６號","E_COORD97":173313.20000000001,"N_COORD97":2538780.77,"ADDRESS":"德南路２６號","OBJECTID":472740},"geometry":{"x":173313.20000000112,"y":2538780.7700000014}},{"attributes":{"ID":472766,"DIS_CODE":0,"TOWNNAME":"仁德區","LI":"後壁里","LIN":"18鄰","STREET":"中正路","SECT":"二段","MAREA":" ","LANE":" ","ALLEY":" ","HOUSE_NO":"２００號","E_COORD97":173231.04999999999,"N_COORD97":2538738.77,"ADDRESS":"中正路二段２００號","OBJECTID":472741},"geometry":{"x":173231.05000000075,"y":2538738.7699999996}},{"attributes":{"ID":472767,"DIS_CODE":0,"TOWNNAME":"仁德區","LI":"新田里","LIN":"18鄰","STREET":"民安路","SECT":"二段","MAREA":" ","LANE":" ","ALLEY":" ","HOUSE_NO":"１７７號","E_COORD97":173712.59,"N_COORD97":2539042.0600000001,"ADDRESS":"民安路二段１７７號","OBJECTID":472742},"geometry":{"x":173712.58999999985,"y":2539042.0600000024}},{"attributes":{"ID":472768,"DIS_CODE":0,"TOWNNAME":"仁德區","LI":"新田里","LIN":"18鄰","STREET":"民安路","SECT":"二段","MAREA":" ","LANE":" ","ALLEY":" ","HOUSE_NO":"１７５號","E_COORD97":173709.29000000001,"N_COORD97":2539045.5600000001,"ADDRESS":"民安路二段１７５號","OBJECTID":472743},"geometry":{"x":173709.29000000097,"y":2539045.5600000024}},{"attributes":{"ID":472769,"DIS_CODE":0,"TOWNNAME":"仁德區","LI":"新田里","LIN":"18鄰","STREET":"民安路","SECT":"二段","MAREA":" ","LANE":" ","ALLEY":" ","HOUSE_NO":"１２５號","E_COORD97":173623,"N_COORD97":2539122.0600000001,"ADDRESS":"民安路二段１２５號","OBJECTID":472744},"geometry":{"x":173623.00000000093,"y":2539122.0600000042}},{"attributes":{"ID":472770,"DIS_CODE":0,"TOWNNAME":"仁德區","LI":"後壁里","LIN":"18鄰","STREET":"德南路","SECT":" ","MAREA":" ","LANE":" ","ALLEY":" ","HOUSE_NO":"４８號","E_COORD97":173357.17999999999,"N_COORD97":2538756.02,"ADDRESS":"德南路４８號","OBJECTID":472745},"geometry":{"x":173357.18000000063,"y":2538756.0200000014}},{"attributes":{"ID":472771,"DIS_CODE":0,"TOWNNAME":"仁德區","LI":"新田里","LIN":"18鄰","STREET":"民安路","SECT":"二段","MAREA":" ","LANE":" ","ALLEY":" ","HOUSE_NO":"１０９號","E_COORD97":173594.79000000001,"N_COORD97":2539142.0600000001,"ADDRESS":"民安路二段１０９號","OBJECTID":472746},"geometry":{"x":173594.79000000004,"y":2539142.0599999987}},{"attributes":{"ID":472772,"DIS_CODE":0,"TOWNNAME":"永康區","LI":"勝利里","LIN":"18鄰","STREET":"勝學路","SECT":" ","MAREA":" ","LANE":" ","ALLEY":" ","HOUSE_NO":"２１８號","E_COORD97":171195.76999999999,"N_COORD97":2545170.5099999998,"ADDRESS":"勝學路２１８號","OBJECTID":472747},"geometry":{"x":171195.76999999955,"y":2545170.5100000016}},{"attributes":{"ID":472773,"DIS_CODE":0,"TOWNNAME":"永康區","LI":"勝利里","LIN":"18鄰","STREET":"勝學路","SECT":" ","MAREA":" ","LANE":" ","ALLEY":" ","HOUSE_NO":"２２０號","E_COORD97":171196.04000000001,"N_COORD97":2545174.9300000002,"ADDRESS":"勝學路２２０號","OBJECTID":472748},"geometry":{"x":171196.04000000004,"y":2545174.9300000016}},{"attributes":{"ID":472774,"DIS_CODE":0,"TOWNNAME":"中西區","LI":"郡王里","LIN":"17鄰","STREET":"南門路","SECT":" ","MAREA":" ","LANE":"９７巷","ALLEY":" ","HOUSE_NO":"２號五樓","E_COORD97":168472.54000000001,"N_COORD97":2543201.6400000001,"ADDRESS":"南門路９７巷２號五樓","OBJECTID":472749},"geometry":{"x":168472.5400000019,"y":2543201.6400000025}},{"attributes":{"ID":472775,"DIS_CODE":0,"TOWNNAME":"永康區","LI":"復國里","LIN":"18鄰","STREET":"復國一路","SECT":" ","MAREA":" ","LANE":" ","ALLEY":" ","HOUSE_NO":"３０８號","E_COORD97":172763.29999999999,"N_COORD97":2545586.0299999998,"ADDRESS":"復國一路３０８號","OBJECTID":472750},"geometry":{"x":172763.30000000075,"y":2545586.0299999975}},{"attributes":{"ID":472776,"DIS_CODE":0,"TOWNNAME":"永康區","LI":"勝利里","LIN":"18鄰","STREET":"勝學路","SECT":" ","MAREA":" ","LANE":" ","ALLEY":" ","HOUSE_NO":"２４０號","E_COORD97":171208.72,"N_COORD97":2545198.7599999998,"ADDRESS":"勝學路２４０號","OBJECTID":472751},"geometry":{"x":171208.7200000016,"y":2545198.7600000035}},{"attributes":{"ID":472777,"DIS_CODE":0,"TOWNNAME":"永康區","LI":"復國里","LIN":"18鄰","STREET":"復國一路","SECT":" ","MAREA":" ","LANE":" ","ALLEY":" ","HOUSE_NO":"３０８號","E_COORD97":172763.69,"N_COORD97":2545592.2599999998,"ADDRESS":"復國一路３０８號","OBJECTID":472752},"geometry":{"x":172763.69000000041,"y":2545592.2600000035}},{"attributes":{"ID":472778,"DIS_CODE":0,"TOWNNAME":"永康區","LI":"六合里","LIN":"18鄰","STREET":"中華路","SECT":" ","MAREA":" ","LANE":" ","ALLEY":" ","HOUSE_NO":"３８１號","E_COORD97":171401.57000000001,"N_COORD97":2545507.0699999998,"ADDRESS":"中華路３８１號","OBJECTID":472753},"geometry":{"x":171401.5700000003,"y":2545507.0700000022}},{"attributes":{"ID":472779,"DIS_CODE":0,"TOWNNAME":"永康區","LI":"六合里","LIN":"18鄰","STREET":"中華路","SECT":" ","MAREA":" ","LANE":" ","ALLEY":" ","HOUSE_NO":"３８３號","E_COORD97":171399.37,"N_COORD97":2545510.5699999998,"ADDRESS":"中華路３８３號","OBJECTID":472754},"geometry":{"x":171399.37000000011,"y":2545510.5700000022}},{"attributes":{"ID":472780,"DIS_CODE":0,"TOWNNAME":"永康區","LI":"六合里","LIN":"18鄰","STREET":"中華路","SECT":" ","MAREA":" ","LANE":" ","ALLEY":" ","HOUSE_NO":"３８５號","E_COORD97":171397.17000000001,"N_COORD97":2545514.5699999998,"ADDRESS":"中華路３８５號","OBJECTID":472755},"geometry":{"x":171397.16999999993,"y":2545514.5700000003}},{"attributes":{"ID":472781,"DIS_CODE":0,"TOWNNAME":"永康區","LI":"六合里","LIN":"18鄰","STREET":"中華路","SECT":" ","MAREA":" ","LANE":" ","ALLEY":" ","HOUSE_NO":"３８７號","E_COORD97":171390.85999999999,"N_COORD97":2545521.73,"ADDRESS":"中華路３８７號","OBJECTID":472756},"geometry":{"x":171390.86000000034,"y":2545521.7300000042}},{"attributes":{"ID":472782,"DIS_CODE":0,"TOWNNAME":"永康區","LI":"六合里","LIN":"18鄰","STREET":"中華路","SECT":" ","MAREA":" ","LANE":" ","ALLEY":" ","HOUSE_NO":"３９３號","E_COORD97":171384.79999999999,"N_COORD97":2545532.3700000001,"ADDRESS":"中華路３９３號","OBJECTID":472757},"geometry":{"x":171384.80000000075,"y":2545532.3700000029}},{"attributes":{"ID":472783,"DIS_CODE":0,"TOWNNAME":"永康區","LI":"六合里","LIN":"18鄰","STREET":"中華路","SECT":" ","MAREA":" ","LANE":" ","ALLEY":" ","HOUSE_NO":"３９５號","E_COORD97":171382.92000000001,"N_COORD97":2545536.8700000001,"ADDRESS":"中華路３９５號","OBJECTID":472758},"geometry":{"x":171382.92000000086,"y":2545536.870000001}},{"attributes":{"ID":472784,"DIS_CODE":0,"TOWNNAME":"永康區","LI":"六合里","LIN":"18鄰","STREET":"中華路","SECT":" ","MAREA":" ","LANE":" ","ALLEY":" ","HOUSE_NO":"３９７號","E_COORD97":171380.92000000001,"N_COORD97":2545540.3700000001,"ADDRESS":"中華路３９７號","OBJECTID":472759},"geometry":{"x":171380.92000000086,"y":2545540.370000001}},{"attributes":{"ID":472785,"DIS_CODE":0,"TOWNNAME":"永康區","LI":"六合里","LIN":"18鄰","STREET":"中華路","SECT":" ","MAREA":" ","LANE":" ","ALLEY":" ","HOUSE_NO":"３９９號","E_COORD97":171378.72,"N_COORD97":2545544.3700000001,"ADDRESS":"中華路３９９號","OBJECTID":472760},"geometry":{"x":171378.72000000067,"y":2545544.370000001}},{"attributes":{"ID":472786,"DIS_CODE":0,"TOWNNAME":"永康區","LI":"六合里","LIN":"18鄰","STREET":"中華路","SECT":" ","MAREA":" ","LANE":" ","ALLEY":" ","HOUSE_NO":"４０１號","E_COORD97":171376.42000000001,"N_COORD97":2545548.3700000001,"ADDRESS":"中華路４０１號","OBJECTID":472761},"geometry":{"x":171376.41999999993,"y":2545548.3699999992}},{"attributes":{"ID":472787,"DIS_CODE":0,"TOWNNAME":"永康區","LI":"六合里","LIN":"18鄰","STREET":"中華路","SECT":" ","MAREA":" ","LANE":" ","ALLEY":" ","HOUSE_NO":"４０３號","E_COORD97":171374.42000000001,"N_COORD97":2545551.8700000001,"ADDRESS":"中華路４０３號","OBJECTID":472762},"geometry":{"x":171374.42000000086,"y":2545551.8700000048}},{"attributes":{"ID":472788,"DIS_CODE":0,"TOWNNAME":"永康區","LI":"六合里","LIN":"18鄰","STREET":"中華路","SECT":" ","MAREA":" ","LANE":" ","ALLEY":" ","HOUSE_NO":"４０５號","E_COORD97":171372.37,"N_COORD97":2545555.6200000001,"ADDRESS":"中華路４０５號","OBJECTID":472763},"geometry":{"x":171372.36999999918,"y":2545555.620000001}},{"attributes":{"ID":472789,"DIS_CODE":0,"TOWNNAME":"永康區","LI":"六合里","LIN":"18鄰","STREET":"中華路","SECT":" ","MAREA":" ","LANE":" ","ALLEY":" ","HOUSE_NO":"４１１號","E_COORD97":171367.85000000001,"N_COORD97":2545563.6200000001,"ADDRESS":"中華路４１１號","OBJECTID":472764},"geometry":{"x":171367.84999999963,"y":2545563.6199999992}},{"attributes":{"ID":472790,"DIS_CODE":0,"TOWNNAME":"永康區","LI":"六合里","LIN":"18鄰","STREET":"中華路","SECT":" ","MAREA":" ","LANE":" ","ALLEY":" ","HOUSE_NO":"４２３號","E_COORD97":171361.37,"N_COORD97":2545577.1400000001,"ADDRESS":"中華路４２３號","OBJECTID":472765},"geometry":{"x":171361.37000000104,"y":2545577.1400000025}},{"attributes":{"ID":472791,"DIS_CODE":0,"TOWNNAME":"永康區","LI":"六合里","LIN":"18鄰","STREET":"中華路","SECT":" ","MAREA":" ","LANE":" ","ALLEY":" ","HOUSE_NO":"４２５號","E_COORD97":171344.19,"N_COORD97":2545601.8799999999,"ADDRESS":"中華路４２５號","OBJECTID":472766},"geometry":{"x":171344.19000000134,"y":2545601.8800000008}},{"attributes":{"ID":472792,"DIS_CODE":0,"TOWNNAME":"永康區","LI":"六合里","LIN":"18鄰","STREET":"中華路","SECT":" ","MAREA":" ","LANE":" ","ALLEY":" ","HOUSE_NO":"４２７號","E_COORD97":171338.37,"N_COORD97":2545616.7599999998,"ADDRESS":"中華路４２７號","OBJECTID":472767},"geometry":{"x":171338.37000000011,"y":2545616.7600000016}},{"attributes":{"ID":472793,"DIS_CODE":0,"TOWNNAME":"永康區","LI":"六合里","LIN":"18鄰","STREET":"中華路","SECT":" ","MAREA":" ","LANE":" ","ALLEY":" ","HOUSE_NO":"４２９號","E_COORD97":171335.69,"N_COORD97":2545620.5099999998,"ADDRESS":"中華路４２９號","OBJECTID":472768},"geometry":{"x":171335.69000000134,"y":2545620.5099999998}},{"attributes":{"ID":472794,"DIS_CODE":0,"TOWNNAME":"永康區","LI":"六合里","LIN":"18鄰","STREET":"中華路","SECT":" ","MAREA":" ","LANE":" ","ALLEY":" ","HOUSE_NO":"４３１號","E_COORD97":171333.57000000001,"N_COORD97":2545624.2599999998,"ADDRESS":"中華路４３１號","OBJECTID":472769},"geometry":{"x":171333.5700000003,"y":2545624.2599999998}},{"attributes":{"ID":472795,"DIS_CODE":0,"TOWNNAME":"永康區","LI":"六合里","LIN":"18鄰","STREET":"中華路","SECT":" ","MAREA":" ","LANE":" ","ALLEY":" ","HOUSE_NO":"４３３號","E_COORD97":171331.31,"N_COORD97":2545628,"ADDRESS":"中華路４３３號","OBJECTID":472770},"geometry":{"x":171331.30999999959,"y":2545628.0000000037}},{"attributes":{"ID":472796,"DIS_CODE":0,"TOWNNAME":"永康區","LI":"六合里","LIN":"18鄰","STREET":"中華路","SECT":" ","MAREA":" ","LANE":" ","ALLEY":" ","HOUSE_NO":"４３５號","E_COORD97":171329.07000000001,"N_COORD97":2545632,"ADDRESS":"中華路４３５號","OBJECTID":472771},"geometry":{"x":171329.07000000123,"y":2545632.0000000019}},{"attributes":{"ID":472797,"DIS_CODE":0,"TOWNNAME":"永康區","LI":"六合里","LIN":"18鄰","STREET":"中華路","SECT":" ","MAREA":" ","LANE":" ","ALLEY":" ","HOUSE_NO":"４３７號","E_COORD97":171327.37,"N_COORD97":2545635.75,"ADDRESS":"中華路４３７號","OBJECTID":472772},"geometry":{"x":171327.37000000104,"y":2545635.75}},{"attributes":{"ID":472798,"DIS_CODE":0,"TOWNNAME":"永康區","LI":"六合里","LIN":"18鄰","STREET":"中華路","SECT":" ","MAREA":" ","LANE":" ","ALLEY":" ","HOUSE_NO":"４３９號","E_COORD97":171325.03,"N_COORD97":2545639.25,"ADDRESS":"中華路４３９號","OBJECTID":472773},"geometry":{"x":171325.03000000026,"y":2545639.25}},{"attributes":{"ID":472799,"DIS_CODE":0,"TOWNNAME":"永康區","LI":"六合里","LIN":"18鄰","STREET":"中華路","SECT":" ","MAREA":" ","LANE":" ","ALLEY":" ","HOUSE_NO":"４４１號","E_COORD97":171322.67999999999,"N_COORD97":2545643.25,"ADDRESS":"中華路４４１號","OBJECTID":472774},"geometry":{"x":171322.68000000063,"y":2545643.2500000037}},{"attributes":{"ID":472800,"DIS_CODE":0,"TOWNNAME":"永康區","LI":"六合里","LIN":"18鄰","STREET":"中華路","SECT":" ","MAREA":" ","LANE":" ","ALLEY":" ","HOUSE_NO":"４４３號","E_COORD97":171320.32000000001,"N_COORD97":2545647.25,"ADDRESS":"中華路４４３號","OBJECTID":472775},"geometry":{"x":171320.31999999937,"y":2545647.2500000019}},{"attributes":{"ID":472801,"DIS_CODE":0,"TOWNNAME":"永康區","LI":"六合里","LIN":"18鄰","STREET":"中華路","SECT":" ","MAREA":" ","LANE":" ","ALLEY":" ","HOUSE_NO":"４４５號","E_COORD97":171318.14999999999,"N_COORD97":2545650.75,"ADDRESS":"中華路４４５號","OBJECTID":472776},"geometry":{"x":171318.14999999944,"y":2545650.7500000019}},{"attributes":{"ID":472802,"DIS_CODE":0,"TOWNNAME":"永康區","LI":"六合里","LIN":"18鄰","STREET":"中華路","SECT":" ","MAREA":" ","LANE":" ","ALLEY":" ","HOUSE_NO":"４４７號","E_COORD97":171316.04999999999,"N_COORD97":2545654.75,"ADDRESS":"中華路４４７號","OBJECTID":472777},"geometry":{"x":171316.04999999981,"y":2545654.7500000019}},{"attributes":{"ID":472803,"DIS_CODE":0,"TOWNNAME":"永康區","LI":"六合里","LIN":"18鄰","STREET":"中華路","SECT":" ","MAREA":" ","LANE":" ","ALLEY":" ","HOUSE_NO":"４４９號","E_COORD97":171313.67999999999,"N_COORD97":2545658.5,"ADDRESS":"中華路４４９號","OBJECTID":472778},"geometry":{"x":171313.6799999997,"y":2545658.5000000037}},{"attributes":{"ID":472804,"DIS_CODE":0,"TOWNNAME":"永康區","LI":"六合里","LIN":"18鄰","STREET":"中華路","SECT":" ","MAREA":" ","LANE":" ","ALLEY":" ","HOUSE_NO":"４５１號","E_COORD97":171311.57999999999,"N_COORD97":2545662.25,"ADDRESS":"中華路４５１號","OBJECTID":472779},"geometry":{"x":171311.58000000194,"y":2545662.25}},{"attributes":{"ID":472805,"DIS_CODE":0,"TOWNNAME":"永康區","LI":"六合里","LIN":"18鄰","STREET":"中華路","SECT":" ","MAREA":" ","LANE":" ","ALLEY":" ","HOUSE_NO":"４５３號","E_COORD97":171309.37,"N_COORD97":2545665.75,"ADDRESS":"中華路４５３號","OBJECTID":472780},"geometry":{"x":171309.37000000011,"y":2545665.75}},{"attributes":{"ID":472806,"DIS_CODE":0,"TOWNNAME":"永康區","LI":"六合里","LIN":"18鄰","STREET":"中華路","SECT":" ","MAREA":" ","LANE":" ","ALLEY":" ","HOUSE_NO":"４５５號","E_COORD97":171307.06,"N_COORD97":2545670,"ADDRESS":"中華路４５５號","OBJECTID":472781},"geometry":{"x":171307.05999999959,"y":2545670.0000000019}},{"attributes":{"ID":472807,"DIS_CODE":0,"TOWNNAME":"永康區","LI":"復國里","LIN":"17鄰","STREET":"國華街","SECT":" ","MAREA":" ","LANE":"３６巷","ALLEY":" ","HOUSE_NO":"１１號","E_COORD97":172882.54000000001,"N_COORD97":2545658.7400000002,"ADDRESS":"國華街３６巷１１號","OBJECTID":472782},"geometry":{"x":172882.54000000004,"y":2545658.7400000002}},{"attributes":{"ID":472808,"DIS_CODE":0,"TOWNNAME":"永康區","LI":"六合里","LIN":"18鄰","STREET":"中華路","SECT":" ","MAREA":" ","LANE":" ","ALLEY":" ","HOUSE_NO":"４５７號","E_COORD97":171303.95999999999,"N_COORD97":2545675.75,"ADDRESS":"中華路４５７號","OBJECTID":472783},"geometry":{"x":171303.96000000183,"y":2545675.75}},{"attributes":{"ID":472809,"DIS_CODE":0,"TOWNNAME":"仁德區","LI":"二行里","LIN":"18鄰","STREET":"行大街","SECT":" ","MAREA":" ","LANE":" ","ALLEY":" ","HOUSE_NO":"２８４號","E_COORD97":169746.32000000001,"N_COORD97":2535164,"ADDRESS":"行大街２８４號","OBJECTID":472784},"geometry":{"x":169746.32000000123,"y":2535164}},{"attributes":{"ID":472810,"DIS_CODE":0,"TOWNNAME":"下營區","LI":"新興里","LIN":"18鄰","STREET":"慈惠街","SECT":" ","MAREA":" ","LANE":" ","ALLEY":" ","HOUSE_NO":"８５號","E_COORD97":175007.35000000001,"N_COORD97":2570580.3700000001,"ADDRESS":"慈惠街８５號","OBJECTID":472785},"geometry":{"x":175007.35000000056,"y":2570580.3700000029}},{"attributes":{"ID":472811,"DIS_CODE":0,"TOWNNAME":"下營區","LI":"新興里","LIN":"18鄰","STREET":"新興街","SECT":" ","MAREA":" ","LANE":" ","ALLEY":" ","HOUSE_NO":"１００號","E_COORD97":175006.70999999999,"N_COORD97":2570550.23,"ADDRESS":"新興街１００號","OBJECTID":472786},"geometry":{"x":175006.71000000089,"y":2570550.2300000023}},{"attributes":{"ID":472812,"DIS_CODE":0,"TOWNNAME":"下營區","LI":"新興里","LIN":"18鄰","STREET":"新興街","SECT":" ","MAREA":" ","LANE":" ","ALLEY":" ","HOUSE_NO":"１０２號","E_COORD97":175001.87,"N_COORD97":2570549.5299999998,"ADDRESS":"新興街１０２號","OBJECTID":472787},"geometry":{"x":175001.87000000197,"y":2570549.5300000031}},{"attributes":{"ID":472813,"DIS_CODE":0,"TOWNNAME":"下營區","LI":"新興里","LIN":"18鄰","STREET":"新興街","SECT":" ","MAREA":" ","LANE":" ","ALLEY":" ","HOUSE_NO":"１０６號","E_COORD97":175001.26000000001,"N_COORD97":2570566.1600000001,"ADDRESS":"新興街１０６號","OBJECTID":472788},"geometry":{"x":175001.26000000071,"y":2570566.1600000001}},{"attributes":{"ID":472814,"DIS_CODE":0,"TOWNNAME":"下營區","LI":"新興里","LIN":"18鄰","STREET":"新興街","SECT":" ","MAREA":" ","LANE":" ","ALLEY":" ","HOUSE_NO":"５９號","E_COORD97":175046.26999999999,"N_COORD97":2570545.4100000001,"ADDRESS":"新興街５９號","OBJECTID":472789},"geometry":{"x":175046.27000000048,"y":2570545.410000002}},{"attributes":{"ID":472815,"DIS_CODE":0,"TOWNNAME":"下營區","LI":"新興里","LIN":"18鄰","STREET":"新興街","SECT":" ","MAREA":" ","LANE":" ","ALLEY":" ","HOUSE_NO":"６１號","E_COORD97":175039.97,"N_COORD97":2570541.0699999998,"ADDRESS":"新興街６１號","OBJECTID":472790},"geometry":{"x":175039.97000000067,"y":2570541.0700000022}},{"attributes":{"ID":472816,"DIS_CODE":0,"TOWNNAME":"下營區","LI":"新興里","LIN":"18鄰","STREET":"新興街","SECT":" ","MAREA":" ","LANE":" ","ALLEY":" ","HOUSE_NO":"６３號","E_COORD97":175033.56,"N_COORD97":2570537.3100000001,"ADDRESS":"新興街６３號","OBJECTID":472791},"geometry":{"x":175033.55999999959,"y":2570537.3100000005}},{"attributes":{"ID":472817,"DIS_CODE":0,"TOWNNAME":"下營區","LI":"新興里","LIN":"18鄰","STREET":"新興街","SECT":" ","MAREA":" ","LANE":" ","ALLEY":" ","HOUSE_NO":"６５號","E_COORD97":175027.92000000001,"N_COORD97":2570533.3900000001,"ADDRESS":"新興街６５號","OBJECTID":472792},"geometry":{"x":175027.91999999993,"y":2570533.3900000006}},{"attributes":{"ID":472818,"DIS_CODE":0,"TOWNNAME":"下營區","LI":"新興里","LIN":"18鄰","STREET":"新興街","SECT":" ","MAREA":" ","LANE":" ","ALLEY":" ","HOUSE_NO":"６７號","E_COORD97":175019.64000000001,"N_COORD97":2570531.3199999998,"ADDRESS":"新興街６７號","OBJECTID":472793},"geometry":{"x":175019.63999999966,"y":2570531.3200000003}},{"attributes":{"ID":472819,"DIS_CODE":0,"TOWNNAME":"下營區","LI":"新興里","LIN":"18鄰","STREET":"新興街","SECT":" ","MAREA":" ","LANE":" ","ALLEY":" ","HOUSE_NO":"６９號","E_COORD97":175012.98000000001,"N_COORD97":2570530.2400000002,"ADDRESS":"新興街６９號","OBJECTID":472794},"geometry":{"x":175012.98000000045,"y":2570530.2400000021}},{"attributes":{"ID":472820,"DIS_CODE":0,"TOWNNAME":"下營區","LI":"新興里","LIN":"18鄰","STREET":"新興街","SECT":" ","MAREA":" ","LANE":" ","ALLEY":" ","HOUSE_NO":"８２號","E_COORD97":175035.67000000001,"N_COORD97":2570572.8799999999,"ADDRESS":"新興街８２號","OBJECTID":472795},"geometry":{"x":175035.67000000086,"y":2570572.879999999}},{"attributes":{"ID":472821,"DIS_CODE":0,"TOWNNAME":"下營區","LI":"新興里","LIN":"18鄰","STREET":"新興街","SECT":" ","MAREA":" ","LANE":" ","ALLEY":" ","HOUSE_NO":"８６號","E_COORD97":175035.48999999999,"N_COORD97":2570557.3199999998,"ADDRESS":"新興街８６號","OBJECTID":472796},"geometry":{"x":175035.49000000115,"y":2570557.3200000003}},{"attributes":{"ID":472822,"DIS_CODE":0,"TOWNNAME":"下營區","LI":"新興里","LIN":"18鄰","STREET":"新興街","SECT":" ","MAREA":" ","LANE":" ","ALLEY":" ","HOUSE_NO":"８８號","E_COORD97":175030.10999999999,"N_COORD97":2570553.8500000001,"ADDRESS":"新興街８８號","OBJECTID":472797},"geometry":{"x":175030.11000000127,"y":2570553.8499999996}},{"attributes":{"ID":472823,"DIS_CODE":0,"TOWNNAME":"下營區","LI":"新興里","LIN":"18鄰","STREET":"新興街","SECT":" ","MAREA":" ","LANE":" ","ALLEY":" ","HOUSE_NO":"９０號","E_COORD97":175025.01999999999,"N_COORD97":2570552.7999999998,"ADDRESS":"新興街９０號","OBJECTID":472798},"geometry":{"x":175025.01999999955,"y":2570552.8000000045}},{"attributes":{"ID":472824,"DIS_CODE":0,"TOWNNAME":"下營區","LI":"新興里","LIN":"18鄰","STREET":"新興街","SECT":" ","MAREA":" ","LANE":" ","ALLEY":" ","HOUSE_NO":"９２號","E_COORD97":175020.23999999999,"N_COORD97":2570552.02,"ADDRESS":"新興街９２號","OBJECTID":472799},"geometry":{"x":175020.24000000115,"y":2570552.0199999996}},{"attributes":{"ID":472825,"DIS_CODE":0,"TOWNNAME":"下營區","LI":"新興里","LIN":"18鄰","STREET":"新興街","SECT":" ","MAREA":" ","LANE":" ","ALLEY":" ","HOUSE_NO":"９６號","E_COORD97":175015.51000000001,"N_COORD97":2570551.4399999999,"ADDRESS":"新興街９６號","OBJECTID":472800},"geometry":{"x":175015.50999999978,"y":2570551.4400000013}}]}