{"displayFieldName":"TOWNNAME","fieldAliases":{"ID":"ID","DIS_CODE":"DIS_CODE","TOWNNAME":"TOWNNAME","LI":"LI","LIN":"LIN","STREET":"STREET","SECT":"SECT","MAREA":"MAREA","LANE":"LANE","ALLEY":"ALLEY","HOUSE_NO":"HOUSE_NO","E_COORD97":"E_COORD97","N_COORD97":"N_COORD97","ADDRESS":"ADDRESS","OBJECTID":"OBJECTID"},"geometryType":"esriGeometryPoint","spatialReference":{"wkid":102443,"latestWkid":3826},"fields":[{"name":"ID","type":"esriFieldTypeDouble","alias":"ID"},{"name":"DIS_CODE","type":"esriFieldTypeInteger","alias":"DIS_CODE"},{"name":"TOWNNAME","type":"esriFieldTypeString","alias":"TOWNNAME","length":8},{"name":"LI","type":"esriFieldTypeString","alias":"LI","length":8},{"name":"LIN","type":"esriFieldTypeString","alias":"LIN","length":12},{"name":"STREET","type":"esriFieldTypeString","alias":"STREET","length":20},{"name":"SECT","type":"esriFieldTypeString","alias":"SECT","length":8},{"name":"MAREA","type":"esriFieldTypeString","alias":"MAREA","length":12},{"name":"LANE","type":"esriFieldTypeString","alias":"LANE","length":10},{"name":"ALLEY","type":"esriFieldTypeString","alias":"ALLEY","length":10},{"name":"HOUSE_NO","type":"esriFieldTypeString","alias":"HOUSE_NO","length":20},{"name":"E_COORD97","type":"esriFieldTypeDouble","alias":"E_COORD97"},{"name":"N_COORD97","type":"esriFieldTypeDouble","alias":"N_COORD97"},{"name":"ADDRESS","type":"esriFieldTypeString","alias":"ADDRESS","length":50},{"name":"OBJECTID","type":"esriFieldTypeOID","alias":"OBJECTID"}],"features":[{"attributes":{"ID":188202,"DIS_CODE":0,"TOWNNAME":"仁德區","LI":"上崙里","LIN":"8鄰","STREET":"德南路","SECT":" ","MAREA":" ","LANE":" ","ALLEY":" ","HOUSE_NO":"３６１號","E_COORD97":173868.53,"N_COORD97":2538358.02,"ADDRESS":"德南路３６１號","OBJECTID":188201},"geometry":{"x":173868.53000000212,"y":2538358.0199999996}},{"attributes":{"ID":188203,"DIS_CODE":0,"TOWNNAME":"仁德區","LI":"二行里","LIN":"8鄰","STREET":"行大一街","SECT":" ","MAREA":" ","LANE":" ","ALLEY":" ","HOUSE_NO":"１０１號","E_COORD97":170133.35999999999,"N_COORD97":2535059.5,"ADDRESS":"行大一街１０１號","OBJECTID":188202},"geometry":{"x":170133.36000000034,"y":2535059.5}},{"attributes":{"ID":188204,"DIS_CODE":0,"TOWNNAME":"仁德區","LI":"上崙里","LIN":"20鄰","STREET":"上崙一街","SECT":" ","MAREA":" ","LANE":" ","ALLEY":" ","HOUSE_NO":"９６號","E_COORD97":173834.26999999999,"N_COORD97":2537911.25,"ADDRESS":"上崙一街９６號","OBJECTID":188203},"geometry":{"x":173834.27000000048,"y":2537911.2500000019}},{"attributes":{"ID":188205,"DIS_CODE":0,"TOWNNAME":"白河區","LI":"汴頭里","LIN":"11鄰","STREET":" ","SECT":" ","MAREA":"洪溪州","LANE":" ","ALLEY":" ","HOUSE_NO":"３４號","E_COORD97":192805.60999999999,"N_COORD97":2584018.8399999999,"ADDRESS":"洪溪州３４號","OBJECTID":188204},"geometry":{"x":192805.61000000127,"y":2584018.8400000017}},{"attributes":{"ID":188206,"DIS_CODE":0,"TOWNNAME":"白河區","LI":"汴頭里","LIN":"11鄰","STREET":" ","SECT":" ","MAREA":"洪溪州","LANE":" ","ALLEY":" ","HOUSE_NO":"３５號","E_COORD97":192856.39000000001,"N_COORD97":2584054.3599999999,"ADDRESS":"洪溪州３５號","OBJECTID":188205},"geometry":{"x":192856.38999999966,"y":2584054.3599999994}},{"attributes":{"ID":188207,"DIS_CODE":0,"TOWNNAME":"東區","LI":"大智里","LIN":"5鄰","STREET":"長東街","SECT":" ","MAREA":" ","LANE":"４１巷","ALLEY":"２弄","HOUSE_NO":"７號","E_COORD97":171069.35000000001,"N_COORD97":2540460.5899999999,"ADDRESS":"長東街４１巷２弄７號","OBJECTID":188206},"geometry":{"x":171069.35000000056,"y":2540460.5900000017}},{"attributes":{"ID":188208,"DIS_CODE":0,"TOWNNAME":"東區","LI":"大智里","LIN":"5鄰","STREET":"長東街","SECT":" ","MAREA":" ","LANE":"４１巷","ALLEY":"２弄","HOUSE_NO":"８號","E_COORD97":171040.66,"N_COORD97":2540487.9900000002,"ADDRESS":"長東街４１巷２弄８號","OBJECTID":188207},"geometry":{"x":171040.66000000108,"y":2540487.9900000002}},{"attributes":{"ID":188209,"DIS_CODE":0,"TOWNNAME":"東區","LI":"大智里","LIN":"5鄰","STREET":"長東街","SECT":" ","MAREA":" ","LANE":"４１巷","ALLEY":"２弄","HOUSE_NO":"９號","E_COORD97":171073.70999999999,"N_COORD97":2540458.54,"ADDRESS":"長東街４１巷２弄９號","OBJECTID":188208},"geometry":{"x":171073.71000000089,"y":2540458.5399999991}},{"attributes":{"ID":188210,"DIS_CODE":0,"TOWNNAME":"東區","LI":"南聖里","LIN":"5鄰","STREET":"裕農路","SECT":" ","MAREA":" ","LANE":"７２６巷","ALLEY":"８弄","HOUSE_NO":"１０號","E_COORD97":171800.92999999999,"N_COORD97":2543150.6699999999,"ADDRESS":"裕農路７２６巷８弄１０號","OBJECTID":188209},"geometry":{"x":171800.93000000063,"y":2543150.6699999999}},{"attributes":{"ID":188211,"DIS_CODE":0,"TOWNNAME":"東區","LI":"南聖里","LIN":"5鄰","STREET":"裕農路","SECT":" ","MAREA":" ","LANE":"７２６巷","ALLEY":"８弄","HOUSE_NO":"１１號","E_COORD97":171824.76000000001,"N_COORD97":2543133.4900000002,"ADDRESS":"裕農路７２６巷８弄１１號","OBJECTID":188210},"geometry":{"x":171824.75999999978,"y":2543133.4900000021}},{"attributes":{"ID":188212,"DIS_CODE":0,"TOWNNAME":"東區","LI":"南聖里","LIN":"5鄰","STREET":"裕農路","SECT":" ","MAREA":" ","LANE":"７２６巷","ALLEY":"８弄","HOUSE_NO":"１２號","E_COORD97":171797.17999999999,"N_COORD97":2543147.54,"ADDRESS":"裕農路７２６巷８弄１２號","OBJECTID":188211},"geometry":{"x":171797.18000000156,"y":2543147.5399999991}},{"attributes":{"ID":188213,"DIS_CODE":0,"TOWNNAME":"東區","LI":"南聖里","LIN":"5鄰","STREET":"裕農路","SECT":" ","MAREA":" ","LANE":"７２６巷","ALLEY":"８弄","HOUSE_NO":"１３號","E_COORD97":171817.41,"N_COORD97":2543133.98,"ADDRESS":"裕農路７２６巷８弄１３號","OBJECTID":188212},"geometry":{"x":171817.41000000015,"y":2543133.9800000023}},{"attributes":{"ID":188214,"DIS_CODE":0,"TOWNNAME":"東區","LI":"南聖里","LIN":"5鄰","STREET":"裕農路","SECT":" ","MAREA":" ","LANE":"７２６巷","ALLEY":"８弄","HOUSE_NO":"１４號","E_COORD97":171792.42000000001,"N_COORD97":2543150.1699999999,"ADDRESS":"裕農路７２６巷８弄１４號","OBJECTID":188213},"geometry":{"x":171792.42000000179,"y":2543150.1699999999}},{"attributes":{"ID":188215,"DIS_CODE":0,"TOWNNAME":"東區","LI":"南聖里","LIN":"5鄰","STREET":"裕農路","SECT":" ","MAREA":" ","LANE":"７２６巷","ALLEY":"８弄","HOUSE_NO":"１５號","E_COORD97":171809.07999999999,"N_COORD97":2543131.7200000002,"ADDRESS":"裕農路７２６巷８弄１５號","OBJECTID":188214},"geometry":{"x":171809.08000000101,"y":2543131.7200000044}},{"attributes":{"ID":188216,"DIS_CODE":0,"TOWNNAME":"東區","LI":"南聖里","LIN":"5鄰","STREET":"裕農路","SECT":" ","MAREA":" ","LANE":"７２６巷","ALLEY":"８弄","HOUSE_NO":"１６號","E_COORD97":171788.42000000001,"N_COORD97":2543146.6699999999,"ADDRESS":"裕農路７２６巷８弄１６號","OBJECTID":188215},"geometry":{"x":171788.41999999993,"y":2543146.6699999999}},{"attributes":{"ID":188217,"DIS_CODE":0,"TOWNNAME":"東區","LI":"南聖里","LIN":"5鄰","STREET":"裕農路","SECT":" ","MAREA":" ","LANE":"７２６巷","ALLEY":"８弄","HOUSE_NO":"１８號","E_COORD97":171784.42000000001,"N_COORD97":2543148.79,"ADDRESS":"裕農路７２６巷８弄１８號","OBJECTID":188216},"geometry":{"x":171784.42000000086,"y":2543148.7899999991}},{"attributes":{"ID":188218,"DIS_CODE":0,"TOWNNAME":"東區","LI":"南聖里","LIN":"5鄰","STREET":"裕農路","SECT":" ","MAREA":" ","LANE":"７２６巷","ALLEY":"８弄","HOUSE_NO":"１９號","E_COORD97":171797.79999999999,"N_COORD97":2543131.9300000002,"ADDRESS":"裕農路７２６巷８弄１９號","OBJECTID":188217},"geometry":{"x":171797.79999999981,"y":2543131.9299999997}},{"attributes":{"ID":188219,"DIS_CODE":0,"TOWNNAME":"善化區","LI":"坐駕里","LIN":"21鄰","STREET":" ","SECT":" ","MAREA":"坐駕","LANE":" ","ALLEY":" ","HOUSE_NO":"８號","E_COORD97":178201.75,"N_COORD97":2558417.5,"ADDRESS":"坐駕８號","OBJECTID":188218},"geometry":{"x":178201.75000000093,"y":2558417.5000000019}},{"attributes":{"ID":188220,"DIS_CODE":0,"TOWNNAME":"東區","LI":"南聖里","LIN":"5鄰","STREET":"裕農路","SECT":" ","MAREA":" ","LANE":"７２６巷","ALLEY":"８弄","HOUSE_NO":"１號","E_COORD97":171858.09,"N_COORD97":2543139.3599999999,"ADDRESS":"裕農路７２６巷８弄１號","OBJECTID":188219},"geometry":{"x":171858.08999999985,"y":2543139.3599999994}},{"attributes":{"ID":188221,"DIS_CODE":0,"TOWNNAME":"東區","LI":"南聖里","LIN":"5鄰","STREET":"裕農路","SECT":" ","MAREA":" ","LANE":"７２６巷","ALLEY":"８弄","HOUSE_NO":"２０號","E_COORD97":171780.67000000001,"N_COORD97":2543146.54,"ADDRESS":"裕農路７２６巷８弄２０號","OBJECTID":188220},"geometry":{"x":171780.67000000086,"y":2543146.540000001}},{"attributes":{"ID":188222,"DIS_CODE":0,"TOWNNAME":"東區","LI":"南聖里","LIN":"5鄰","STREET":"裕農路","SECT":" ","MAREA":" ","LANE":"７２６巷","ALLEY":"８弄","HOUSE_NO":"２１號","E_COORD97":171793.17000000001,"N_COORD97":2543129.5499999998,"ADDRESS":"裕農路７２６巷８弄２１號","OBJECTID":188221},"geometry":{"x":171793.16999999993,"y":2543129.5500000045}},{"attributes":{"ID":188223,"DIS_CODE":0,"TOWNNAME":"東區","LI":"南聖里","LIN":"5鄰","STREET":"裕農路","SECT":" ","MAREA":" ","LANE":"７２６巷","ALLEY":"８弄","HOUSE_NO":"２３號","E_COORD97":171787.79999999999,"N_COORD97":2543131.0499999998,"ADDRESS":"裕農路７２６巷８弄２３號","OBJECTID":188222},"geometry":{"x":171787.79999999888,"y":2543131.0500000026}},{"attributes":{"ID":188224,"DIS_CODE":0,"TOWNNAME":"東區","LI":"南聖里","LIN":"5鄰","STREET":"裕農路","SECT":" ","MAREA":" ","LANE":"７２６巷","ALLEY":"８弄","HOUSE_NO":"２５號","E_COORD97":171783.42000000001,"N_COORD97":2543128.7999999998,"ADDRESS":"裕農路７２６巷８弄２５號","OBJECTID":188223},"geometry":{"x":171783.41999999993,"y":2543128.8000000026}},{"attributes":{"ID":188225,"DIS_CODE":0,"TOWNNAME":"永康區","LI":"東灣里","LIN":"36鄰","STREET":"民族路","SECT":" ","MAREA":" ","LANE":"２７３巷","ALLEY":"２３弄","HOUSE_NO":"２２號","E_COORD97":175105.92000000001,"N_COORD97":2544903.6800000002,"ADDRESS":"民族路２７３巷２３弄２２號","OBJECTID":188224},"geometry":{"x":175105.91999999993,"y":2544903.6799999997}},{"attributes":{"ID":188226,"DIS_CODE":0,"TOWNNAME":"永康區","LI":"龍潭里","LIN":"26鄰","STREET":"中山北路","SECT":" ","MAREA":" ","LANE":"４６１巷","ALLEY":"８弄","HOUSE_NO":"５８號","E_COORD97":175168.23999999999,"N_COORD97":2547806.9500000002,"ADDRESS":"中山北路４６１巷８弄５８號","OBJECTID":188225},"geometry":{"x":175168.24000000022,"y":2547806.9499999993}},{"attributes":{"ID":188227,"DIS_CODE":0,"TOWNNAME":"永康區","LI":"五王里","LIN":"5鄰","STREET":"中華二路","SECT":" ","MAREA":" ","LANE":"２０６巷","ALLEY":"５２弄","HOUSE_NO":"３號","E_COORD97":171628.48000000001,"N_COORD97":2545626.5,"ADDRESS":"中華二路２０６巷５２弄３號","OBJECTID":188226},"geometry":{"x":171628.48000000138,"y":2545626.5}},{"attributes":{"ID":188228,"DIS_CODE":0,"TOWNNAME":"永康區","LI":"王行里","LIN":"5鄰","STREET":"育樂街","SECT":" ","MAREA":" ","LANE":"１８３巷","ALLEY":"５弄","HOUSE_NO":"９號","E_COORD97":174963.53,"N_COORD97":2548298.2400000002,"ADDRESS":"育樂街１８３巷５弄９號","OBJECTID":188227},"geometry":{"x":174963.52999999933,"y":2548298.2400000039}},{"attributes":{"ID":188229,"DIS_CODE":0,"TOWNNAME":"永康區","LI":"中興里","LIN":"5鄰","STREET":"中華路","SECT":" ","MAREA":" ","LANE":"２１６巷","ALLEY":"４０弄","HOUSE_NO":"１２號","E_COORD97":171841.07999999999,"N_COORD97":2545092.25,"ADDRESS":"中華路２１６巷４０弄１２號","OBJECTID":188228},"geometry":{"x":171841.08000000101,"y":2545092.25}},{"attributes":{"ID":188230,"DIS_CODE":0,"TOWNNAME":"永康區","LI":"崑山里","LIN":"5鄰","STREET":"崑大路","SECT":" ","MAREA":" ","LANE":"１５５巷","ALLEY":"７９弄","HOUSE_NO":"１６號","E_COORD97":173663.39999999999,"N_COORD97":2544062.7999999998,"ADDRESS":"崑大路１５５巷７９弄１６號","OBJECTID":188229},"geometry":{"x":173663.4000000013,"y":2544062.8000000007}},{"attributes":{"ID":188231,"DIS_CODE":0,"TOWNNAME":"永康區","LI":"甲頂里","LIN":" ","STREET":"中央路","SECT":" ","MAREA":" ","LANE":"２３巷","ALLEY":"２弄","HOUSE_NO":"２號","E_COORD97":169564.67999999999,"N_COORD97":2547053.3199999998,"ADDRESS":"中央路２３巷２弄２號","OBJECTID":188230},"geometry":{"x":169564.68000000063,"y":2547053.320000004}},{"attributes":{"ID":188232,"DIS_CODE":0,"TOWNNAME":"永康區","LI":"復興里","LIN":" ","STREET":"復興路","SECT":" ","MAREA":" ","LANE":"２７７巷","ALLEY":"９４弄","HOUSE_NO":"６之２號","E_COORD97":172346.06,"N_COORD97":2544037.79,"ADDRESS":"復興路２７７巷９４弄６之２號","OBJECTID":188231},"geometry":{"x":172346.06000000052,"y":2544037.7899999991}},{"attributes":{"ID":188233,"DIS_CODE":0,"TOWNNAME":"仁德區","LI":"二行里","LIN":"17鄰","STREET":"行大街","SECT":" ","MAREA":" ","LANE":" ","ALLEY":" ","HOUSE_NO":"３０２號","E_COORD97":169707.04999999999,"N_COORD97":2535183.9900000002,"ADDRESS":"行大街３０２號","OBJECTID":188232},"geometry":{"x":169707.05000000075,"y":2535183.9900000021}},{"attributes":{"ID":188234,"DIS_CODE":0,"TOWNNAME":"仁德區","LI":"一甲里","LIN":"17鄰","STREET":"正義三街","SECT":" ","MAREA":" ","LANE":" ","ALLEY":" ","HOUSE_NO":"３１１號","E_COORD97":174192.35000000001,"N_COORD97":2541459.02,"ADDRESS":"正義三街３１１號","OBJECTID":188233},"geometry":{"x":174192.34999999963,"y":2541459.0199999996}},{"attributes":{"ID":188235,"DIS_CODE":0,"TOWNNAME":"仁德區","LI":"上崙里","LIN":"4鄰","STREET":"德崙路","SECT":" ","MAREA":" ","LANE":" ","ALLEY":" ","HOUSE_NO":"２６５號","E_COORD97":173787.38,"N_COORD97":2538172.7599999998,"ADDRESS":"德崙路２６５號","OBJECTID":188234},"geometry":{"x":173787.37999999989,"y":2538172.7599999998}},{"attributes":{"ID":188236,"DIS_CODE":0,"TOWNNAME":"仁德區","LI":"一甲里","LIN":"20鄰","STREET":"太乙七街","SECT":" ","MAREA":" ","LANE":" ","ALLEY":" ","HOUSE_NO":"７６號","E_COORD97":173051.67999999999,"N_COORD97":2541988.5099999998,"ADDRESS":"太乙七街７６號","OBJECTID":188235},"geometry":{"x":173051.68000000063,"y":2541988.5099999998}},{"attributes":{"ID":188237,"DIS_CODE":0,"TOWNNAME":"仁德區","LI":"一甲里","LIN":"20鄰","STREET":"太乙七街","SECT":" ","MAREA":" ","LANE":" ","ALLEY":" ","HOUSE_NO":"５０號","E_COORD97":173064.89000000001,"N_COORD97":2542113,"ADDRESS":"太乙七街５０號","OBJECTID":188236},"geometry":{"x":173064.88999999966,"y":2542113.0000000019}},{"attributes":{"ID":188238,"DIS_CODE":0,"TOWNNAME":"仁德區","LI":"一甲里","LIN":"20鄰","STREET":"太乙七街","SECT":" ","MAREA":" ","LANE":" ","ALLEY":" ","HOUSE_NO":"７號","E_COORD97":173098.85000000001,"N_COORD97":2542474.2599999998,"ADDRESS":"太乙七街７號","OBJECTID":188237},"geometry":{"x":173098.84999999963,"y":2542474.2600000016}},{"attributes":{"ID":188239,"DIS_CODE":0,"TOWNNAME":"仁德區","LI":"二行里","LIN":"8鄰","STREET":"行大一街","SECT":" ","MAREA":" ","LANE":" ","ALLEY":" ","HOUSE_NO":"１０３號","E_COORD97":170129.64999999999,"N_COORD97":2535057.75,"ADDRESS":"行大一街１０３號","OBJECTID":188238},"geometry":{"x":170129.65000000037,"y":2535057.75}},{"attributes":{"ID":188240,"DIS_CODE":0,"TOWNNAME":"永康區","LI":"甲頂里","LIN":" ","STREET":"大武街","SECT":" ","MAREA":" ","LANE":"５９７巷","ALLEY":"３４弄","HOUSE_NO":"１號","E_COORD97":170259.35000000001,"N_COORD97":2546545,"ADDRESS":"大武街５９７巷３４弄１號","OBJECTID":188239},"geometry":{"x":170259.34999999963,"y":2546545}},{"attributes":{"ID":188241,"DIS_CODE":0,"TOWNNAME":"永康區","LI":"網寮里","LIN":" ","STREET":"大灣路","SECT":" ","MAREA":" ","LANE":"９４２巷","ALLEY":"６４１弄","HOUSE_NO":"８１之７號","E_COORD97":173441.45999999999,"N_COORD97":2545940.2999999998,"ADDRESS":"大灣路９４２巷６４１弄８１之７號","OBJECTID":188240},"geometry":{"x":173441.46000000183,"y":2545940.3000000007}},{"attributes":{"ID":188242,"DIS_CODE":0,"TOWNNAME":"永康區","LI":"\u25A0行里","LIN":"24鄰","STREET":"中正南路","SECT":" ","MAREA":" ","LANE":"５９２巷","ALLEY":"２２弄","HOUSE_NO":"６號","E_COORD97":171564.95999999999,"N_COORD97":2548637.6800000002,"ADDRESS":"中正南路５９２巷２２弄６號","OBJECTID":188241},"geometry":{"x":171564.96000000183,"y":2548637.6800000016}},{"attributes":{"ID":188243,"DIS_CODE":0,"TOWNNAME":"永康區","LI":"\u25A0行里","LIN":"24鄰","STREET":"中正南路","SECT":" ","MAREA":" ","LANE":"５９２巷","ALLEY":"１１弄","HOUSE_NO":"１８號","E_COORD97":171552.42000000001,"N_COORD97":2548660.4300000002,"ADDRESS":"中正南路５９２巷１１弄１８號","OBJECTID":188242},"geometry":{"x":171552.42000000086,"y":2548660.4300000016}},{"attributes":{"ID":188244,"DIS_CODE":0,"TOWNNAME":"安南區","LI":"安富里","LIN":"5鄰","STREET":"郡安路","SECT":"五段","MAREA":" ","LANE":"１８４巷","ALLEY":"５２弄","HOUSE_NO":"１４號","E_COORD97":167432.56,"N_COORD97":2547616.79,"ADDRESS":"郡安路五段１８４巷５２弄１４號","OBJECTID":188243},"geometry":{"x":167432.55999999866,"y":2547616.790000001}},{"attributes":{"ID":188245,"DIS_CODE":0,"TOWNNAME":"安南區","LI":"安富里","LIN":"5鄰","STREET":"郡安路","SECT":"五段","MAREA":" ","LANE":"１８４巷","ALLEY":"５２弄","HOUSE_NO":"１６號","E_COORD97":167422.59,"N_COORD97":2547615.5,"ADDRESS":"郡安路五段１８４巷５２弄１６號","OBJECTID":188244},"geometry":{"x":167422.59000000171,"y":2547615.5000000019}},{"attributes":{"ID":188246,"DIS_CODE":0,"TOWNNAME":"安南區","LI":"安富里","LIN":"5鄰","STREET":"郡安路","SECT":"五段","MAREA":" ","LANE":"１８４巷","ALLEY":"５２弄","HOUSE_NO":"１８號","E_COORD97":167415.44,"N_COORD97":2547613.98,"ADDRESS":"郡安路五段１８４巷５２弄１８號","OBJECTID":188245},"geometry":{"x":167415.44000000041,"y":2547613.9800000004}},{"attributes":{"ID":188247,"DIS_CODE":0,"TOWNNAME":"安南區","LI":"安富里","LIN":"5鄰","STREET":"郡安路","SECT":"五段","MAREA":" ","LANE":"１８４巷","ALLEY":"５２弄","HOUSE_NO":"２０號","E_COORD97":167407.20999999999,"N_COORD97":2547611.8199999998,"ADDRESS":"郡安路五段１８４巷５２弄２０號","OBJECTID":188246},"geometry":{"x":167407.21000000089,"y":2547611.8200000003}},{"attributes":{"ID":188248,"DIS_CODE":0,"TOWNNAME":"安南區","LI":"安富里","LIN":"5鄰","STREET":"郡安路","SECT":"五段","MAREA":" ","LANE":"１８４巷","ALLEY":"５２弄","HOUSE_NO":"２４號","E_COORD97":167390.31,"N_COORD97":2547608.3599999999,"ADDRESS":"郡安路五段１８４巷５２弄２４號","OBJECTID":188247},"geometry":{"x":167390.31000000145,"y":2547608.3600000031}},{"attributes":{"ID":188249,"DIS_CODE":0,"TOWNNAME":"安南區","LI":"安富里","LIN":"5鄰","STREET":"郡安路","SECT":"五段","MAREA":" ","LANE":"１８４巷","ALLEY":"５２弄","HOUSE_NO":"２５號","E_COORD97":167377.39000000001,"N_COORD97":2547587.5099999998,"ADDRESS":"郡安路五段１８４巷５２弄２５號","OBJECTID":188248},"geometry":{"x":167377.38999999966,"y":2547587.5100000016}},{"attributes":{"ID":188250,"DIS_CODE":0,"TOWNNAME":"安南區","LI":"安富里","LIN":"5鄰","STREET":"郡安路","SECT":"五段","MAREA":" ","LANE":"１８４巷","ALLEY":"５２弄","HOUSE_NO":"２７號","E_COORD97":167371.54000000001,"N_COORD97":2547586.21,"ADDRESS":"郡安路五段１８４巷５２弄２７號","OBJECTID":188249},"geometry":{"x":167371.54000000004,"y":2547586.2100000009}},{"attributes":{"ID":188251,"DIS_CODE":0,"TOWNNAME":"安南區","LI":"安富里","LIN":"5鄰","STREET":"郡安路","SECT":"五段","MAREA":" ","LANE":"１８４巷","ALLEY":"５２弄","HOUSE_NO":"２８號","E_COORD97":167373.26999999999,"N_COORD97":2547602.7599999998,"ADDRESS":"郡安路五段１８４巷５２弄２８號","OBJECTID":188250},"geometry":{"x":167373.26999999955,"y":2547602.7600000035}},{"attributes":{"ID":188252,"DIS_CODE":0,"TOWNNAME":"安南區","LI":"安富里","LIN":"5鄰","STREET":"郡安路","SECT":"五段","MAREA":" ","LANE":"１８４巷","ALLEY":"５２弄","HOUSE_NO":"２９號","E_COORD97":167364.60000000001,"N_COORD97":2547584.27,"ADDRESS":"郡安路五段１８４巷５２弄２９號","OBJECTID":188251},"geometry":{"x":167364.60000000149,"y":2547584.2699999996}},{"attributes":{"ID":188253,"DIS_CODE":0,"TOWNNAME":"白河區","LI":"玉豐里","LIN":"11鄰","STREET":" ","SECT":" ","MAREA":"海豐厝","LANE":" ","ALLEY":" ","HOUSE_NO":"１００號","E_COORD97":190223.79999999999,"N_COORD97":2586167.48,"ADDRESS":"海豐厝１００號","OBJECTID":188252},"geometry":{"x":190223.80000000075,"y":2586167.4800000042}},{"attributes":{"ID":188254,"DIS_CODE":0,"TOWNNAME":"白河區","LI":"玉豐里","LIN":"11鄰","STREET":" ","SECT":" ","MAREA":"海豐厝","LANE":" ","ALLEY":" ","HOUSE_NO":"１０１號","E_COORD97":190212.19,"N_COORD97":2586176.6800000002,"ADDRESS":"海豐厝１０１號","OBJECTID":188253},"geometry":{"x":190212.19000000041,"y":2586176.6800000016}},{"attributes":{"ID":188255,"DIS_CODE":0,"TOWNNAME":"白河區","LI":"玉豐里","LIN":"11鄰","STREET":" ","SECT":" ","MAREA":"海豐厝","LANE":" ","ALLEY":" ","HOUSE_NO":"１０２號","E_COORD97":190199.56,"N_COORD97":2586204.0600000001,"ADDRESS":"海豐厝１０２號","OBJECTID":188254},"geometry":{"x":190199.56000000052,"y":2586204.0600000042}},{"attributes":{"ID":188256,"DIS_CODE":0,"TOWNNAME":"白河區","LI":"玉豐里","LIN":"11鄰","STREET":" ","SECT":" ","MAREA":"海豐厝","LANE":" ","ALLEY":" ","HOUSE_NO":"１０４號","E_COORD97":190178.70000000001,"N_COORD97":2586190.3700000001,"ADDRESS":"海豐厝１０４號","OBJECTID":188255},"geometry":{"x":190178.70000000112,"y":2586190.3700000029}},{"attributes":{"ID":188257,"DIS_CODE":0,"TOWNNAME":"白河區","LI":"玉豐里","LIN":"11鄰","STREET":" ","SECT":" ","MAREA":"海豐厝","LANE":" ","ALLEY":" ","HOUSE_NO":"１０５之１號","E_COORD97":190180.57999999999,"N_COORD97":2586207.8199999998,"ADDRESS":"海豐厝１０５之１號","OBJECTID":188256},"geometry":{"x":190180.58000000007,"y":2586207.8200000003}},{"attributes":{"ID":188258,"DIS_CODE":0,"TOWNNAME":"白河區","LI":"玉豐里","LIN":"11鄰","STREET":" ","SECT":" ","MAREA":"海豐厝","LANE":" ","ALLEY":" ","HOUSE_NO":"１０５之２號","E_COORD97":190177.14000000001,"N_COORD97":2586226.71,"ADDRESS":"海豐厝１０５之２號","OBJECTID":188257},"geometry":{"x":190177.1400000006,"y":2586226.7100000009}},{"attributes":{"ID":188259,"DIS_CODE":0,"TOWNNAME":"白河區","LI":"玉豐里","LIN":"11鄰","STREET":" ","SECT":" ","MAREA":"海豐厝","LANE":" ","ALLEY":" ","HOUSE_NO":"１０５之８號","E_COORD97":190144.20000000001,"N_COORD97":2586223.29,"ADDRESS":"海豐厝１０５之８號","OBJECTID":188258},"geometry":{"x":190144.20000000019,"y":2586223.2899999991}},{"attributes":{"ID":188260,"DIS_CODE":0,"TOWNNAME":"安南區","LI":"安富里","LIN":"5鄰","STREET":"郡安路","SECT":"五段","MAREA":" ","LANE":"１８４巷","ALLEY":"５２弄","HOUSE_NO":"２號","E_COORD97":167467.67999999999,"N_COORD97":2547622.8500000001,"ADDRESS":"郡安路五段１８４巷５２弄２號","OBJECTID":188259},"geometry":{"x":167467.68000000156,"y":2547622.8500000015}},{"attributes":{"ID":188261,"DIS_CODE":0,"TOWNNAME":"安南區","LI":"安富里","LIN":"5鄰","STREET":"郡安路","SECT":"五段","MAREA":" ","LANE":"１８４巷","ALLEY":"５２弄","HOUSE_NO":"３０號","E_COORD97":167367.20000000001,"N_COORD97":2547602.3300000001,"ADDRESS":"郡安路五段１８４巷５２弄３０號","OBJECTID":188260},"geometry":{"x":167367.20000000019,"y":2547602.3300000038}},{"attributes":{"ID":188262,"DIS_CODE":0,"TOWNNAME":"安南區","LI":"安富里","LIN":"5鄰","STREET":"郡安路","SECT":"五段","MAREA":" ","LANE":"１８４巷","ALLEY":"５２弄","HOUSE_NO":"３１號","E_COORD97":167358.97,"N_COORD97":2547582.3199999998,"ADDRESS":"郡安路五段１８４巷５２弄３１號","OBJECTID":188261},"geometry":{"x":167358.9700000016,"y":2547582.320000004}},{"attributes":{"ID":188263,"DIS_CODE":0,"TOWNNAME":"白河區","LI":"玉豐里","LIN":"11鄰","STREET":" ","SECT":" ","MAREA":"海豐厝","LANE":" ","ALLEY":" ","HOUSE_NO":"１０５號","E_COORD97":190174.85999999999,"N_COORD97":2586158.3500000001,"ADDRESS":"海豐厝１０５號","OBJECTID":188262},"geometry":{"x":190174.86000000127,"y":2586158.3500000015}},{"attributes":{"ID":188264,"DIS_CODE":0,"TOWNNAME":"白河區","LI":"玉豐里","LIN":"11鄰","STREET":" ","SECT":" ","MAREA":"海豐厝","LANE":" ","ALLEY":" ","HOUSE_NO":"１０６之１號","E_COORD97":190104.39000000001,"N_COORD97":2586175.8599999999,"ADDRESS":"海豐厝１０６之１號","OBJECTID":188263},"geometry":{"x":190104.3900000006,"y":2586175.8599999994}},{"attributes":{"ID":188265,"DIS_CODE":0,"TOWNNAME":"新營區","LI":"新東里","LIN":"24鄰","STREET":"民治路","SECT":" ","MAREA":" ","LANE":" ","ALLEY":" ","HOUSE_NO":"６之１號","E_COORD97":180690.04000000001,"N_COORD97":2578910.6200000001,"ADDRESS":"民治路６之１號","OBJECTID":188264},"geometry":{"x":180690.04000000097,"y":2578910.620000001}},{"attributes":{"ID":188266,"DIS_CODE":0,"TOWNNAME":"白河區","LI":"玉豐里","LIN":"11鄰","STREET":" ","SECT":" ","MAREA":"海豐厝","LANE":" ","ALLEY":" ","HOUSE_NO":"１０８之１０號","E_COORD97":190104.19,"N_COORD97":2586219.3399999999,"ADDRESS":"海豐厝１０８之１０號","OBJECTID":188265},"geometry":{"x":190104.19000000227,"y":2586219.3400000017}},{"attributes":{"ID":188267,"DIS_CODE":0,"TOWNNAME":"白河區","LI":"玉豐里","LIN":"11鄰","STREET":" ","SECT":" ","MAREA":"海豐厝","LANE":" ","ALLEY":" ","HOUSE_NO":"１０８之１１號","E_COORD97":190108.57000000001,"N_COORD97":2586219.3599999999,"ADDRESS":"海豐厝１０８之１１號","OBJECTID":188266},"geometry":{"x":190108.57000000123,"y":2586219.3600000013}},{"attributes":{"ID":188268,"DIS_CODE":0,"TOWNNAME":"白河區","LI":"玉豐里","LIN":"11鄰","STREET":" ","SECT":" ","MAREA":"海豐厝","LANE":" ","ALLEY":" ","HOUSE_NO":"１０８之１號","E_COORD97":190062.04000000001,"N_COORD97":2586220.1699999999,"ADDRESS":"海豐厝１０８之１號","OBJECTID":188267},"geometry":{"x":190062.04000000004,"y":2586220.1700000018}},{"attributes":{"ID":188269,"DIS_CODE":0,"TOWNNAME":"白河區","LI":"玉豐里","LIN":"11鄰","STREET":" ","SECT":" ","MAREA":"海豐厝","LANE":" ","ALLEY":" ","HOUSE_NO":"１０８之２號","E_COORD97":189987.67999999999,"N_COORD97":2586204.71,"ADDRESS":"海豐厝１０８之２號","OBJECTID":188268},"geometry":{"x":189987.6799999997,"y":2586204.7100000028}},{"attributes":{"ID":188270,"DIS_CODE":0,"TOWNNAME":"安南區","LI":"安富里","LIN":"5鄰","STREET":"郡安路","SECT":"五段","MAREA":" ","LANE":"１８４巷","ALLEY":"５２弄","HOUSE_NO":"３２號","E_COORD97":167360.70000000001,"N_COORD97":2547601.6800000002,"ADDRESS":"郡安路五段１８４巷５２弄３２號","OBJECTID":188269},"geometry":{"x":167360.70000000019,"y":2547601.6799999997}},{"attributes":{"ID":188271,"DIS_CODE":0,"TOWNNAME":"安南區","LI":"安富里","LIN":"5鄰","STREET":"郡安路","SECT":"五段","MAREA":" ","LANE":"１８４巷","ALLEY":"５２弄","HOUSE_NO":"３４號","E_COORD97":167355.29000000001,"N_COORD97":2547600.3799999999,"ADDRESS":"郡安路五段１８４巷５２弄３４號","OBJECTID":188270},"geometry":{"x":167355.2900000019,"y":2547600.379999999}},{"attributes":{"ID":188272,"DIS_CODE":0,"TOWNNAME":"安南區","LI":"安富里","LIN":"5鄰","STREET":"郡安路","SECT":"五段","MAREA":" ","LANE":"１８４巷","ALLEY":"５２弄","HOUSE_NO":"３７號","E_COORD97":167340.54999999999,"N_COORD97":2547577.7799999998,"ADDRESS":"郡安路五段１８４巷５２弄３７號","OBJECTID":188271},"geometry":{"x":167340.55000000075,"y":2547577.7799999993}},{"attributes":{"ID":188273,"DIS_CODE":0,"TOWNNAME":"安南區","LI":"安富里","LIN":"5鄰","STREET":"郡安路","SECT":"五段","MAREA":" ","LANE":"１８４巷","ALLEY":"５２弄","HOUSE_NO":"３９號","E_COORD97":167330.79999999999,"N_COORD97":2547576.2599999998,"ADDRESS":"郡安路五段１８４巷５２弄３９號","OBJECTID":188272},"geometry":{"x":167330.79999999981,"y":2547576.2600000016}},{"attributes":{"ID":188274,"DIS_CODE":0,"TOWNNAME":"安南區","LI":"安富里","LIN":"5鄰","STREET":"郡安路","SECT":"五段","MAREA":" ","LANE":"１８４巷","ALLEY":"５２弄","HOUSE_NO":"４０號","E_COORD97":167337.07999999999,"N_COORD97":2547597.5699999998,"ADDRESS":"郡安路五段１８４巷５２弄４０號","OBJECTID":188273},"geometry":{"x":167337.08000000101,"y":2547597.570000004}},{"attributes":{"ID":188275,"DIS_CODE":0,"TOWNNAME":"白河區","LI":"玉豐里","LIN":"11鄰","STREET":" ","SECT":" ","MAREA":"海豐厝","LANE":" ","ALLEY":" ","HOUSE_NO":"１０８之３號","E_COORD97":190009.14000000001,"N_COORD97":2586215.5099999998,"ADDRESS":"海豐厝１０８之３號","OBJECTID":188274},"geometry":{"x":190009.1400000006,"y":2586215.5100000016}},{"attributes":{"ID":188276,"DIS_CODE":0,"TOWNNAME":"白河區","LI":"玉豐里","LIN":"11鄰","STREET":" ","SECT":" ","MAREA":"海豐厝","LANE":" ","ALLEY":" ","HOUSE_NO":"１０８之５號","E_COORD97":190073.57999999999,"N_COORD97":2586219.2400000002,"ADDRESS":"海豐厝１０８之５號","OBJECTID":188275},"geometry":{"x":190073.58000000007,"y":2586219.2399999984}},{"attributes":{"ID":188277,"DIS_CODE":0,"TOWNNAME":"安南區","LI":"安富里","LIN":"5鄰","STREET":"郡安路","SECT":"五段","MAREA":" ","LANE":"１８４巷","ALLEY":"５２弄","HOUSE_NO":"４１號","E_COORD97":167324.73000000001,"N_COORD97":2547575.1800000002,"ADDRESS":"郡安路五段１８４巷５２弄４１號","OBJECTID":188276},"geometry":{"x":167324.73000000138,"y":2547575.1799999997}},{"attributes":{"ID":188278,"DIS_CODE":0,"TOWNNAME":"安南區","LI":"安富里","LIN":"5鄰","STREET":"郡安路","SECT":"五段","MAREA":" ","LANE":"１８４巷","ALLEY":"５２弄","HOUSE_NO":"４２號","E_COORD97":167327.54999999999,"N_COORD97":2547594.96,"ADDRESS":"郡安路五段１８４巷５２弄４２號","OBJECTID":188277},"geometry":{"x":167327.54999999981,"y":2547594.9600000009}},{"attributes":{"ID":188279,"DIS_CODE":0,"TOWNNAME":"永康區","LI":"復華里","LIN":"36鄰","STREET":"復華七街","SECT":" ","MAREA":" ","LANE":"３９巷","ALLEY":"９弄","HOUSE_NO":"１１號","E_COORD97":172592.76000000001,"N_COORD97":2546010.2799999998,"ADDRESS":"復華七街３９巷９弄１１號","OBJECTID":188278},"geometry":{"x":172592.75999999978,"y":2546010.2799999993}},{"attributes":{"ID":188280,"DIS_CODE":0,"TOWNNAME":"安南區","LI":"安富里","LIN":"5鄰","STREET":"郡安路","SECT":"五段","MAREA":" ","LANE":"１８４巷","ALLEY":"５２弄","HOUSE_NO":"４３號","E_COORD97":167318.88,"N_COORD97":2547574.5299999998,"ADDRESS":"郡安路五段１８４巷５２弄４３號","OBJECTID":188279},"geometry":{"x":167318.88000000175,"y":2547574.5300000012}},{"attributes":{"ID":188281,"DIS_CODE":0,"TOWNNAME":"安南區","LI":"安富里","LIN":"5鄰","STREET":"郡安路","SECT":"五段","MAREA":" ","LANE":"１８４巷","ALLEY":"５２弄","HOUSE_NO":"４４號","E_COORD97":167321.70000000001,"N_COORD97":2547596.27,"ADDRESS":"郡安路五段１８４巷５２弄４４號","OBJECTID":188280},"geometry":{"x":167321.70000000019,"y":2547596.2700000014}},{"attributes":{"ID":188282,"DIS_CODE":0,"TOWNNAME":"安南區","LI":"安富里","LIN":"5鄰","STREET":"郡安路","SECT":"五段","MAREA":" ","LANE":"１８４巷","ALLEY":"５２弄","HOUSE_NO":"４５號","E_COORD97":167315.20000000001,"N_COORD97":2547571.7200000002,"ADDRESS":"郡安路五段１８４巷５２弄４５號","OBJECTID":188281},"geometry":{"x":167315.20000000019,"y":2547571.7200000007}},{"attributes":{"ID":188283,"DIS_CODE":0,"TOWNNAME":"安南區","LI":"安富里","LIN":"5鄰","STREET":"郡安路","SECT":"五段","MAREA":" ","LANE":"１８４巷","ALLEY":"５２弄","HOUSE_NO":"４８號","E_COORD97":167311.07999999999,"N_COORD97":2547593.02,"ADDRESS":"郡安路五段１８４巷５２弄４８號","OBJECTID":188282},"geometry":{"x":167311.08000000194,"y":2547593.0199999996}},{"attributes":{"ID":188284,"DIS_CODE":0,"TOWNNAME":"安南區","LI":"安富里","LIN":"5鄰","STREET":"郡安路","SECT":"五段","MAREA":" ","LANE":"１８４巷","ALLEY":"５２弄","HOUSE_NO":"４號","E_COORD97":167463.13,"N_COORD97":2547621.5499999998,"ADDRESS":"郡安路五段１８４巷５２弄４號","OBJECTID":188283},"geometry":{"x":167463.13000000175,"y":2547621.5500000007}},{"attributes":{"ID":188285,"DIS_CODE":0,"TOWNNAME":"白河區","LI":"玉豐里","LIN":"11鄰","STREET":" ","SECT":" ","MAREA":"海豐厝","LANE":" ","ALLEY":" ","HOUSE_NO":"１０８之７７號","E_COORD97":189475.20999999999,"N_COORD97":2586144.3999999999,"ADDRESS":"海豐厝１０８之７７號","OBJECTID":188284},"geometry":{"x":189475.21000000089,"y":2586144.4000000022}},{"attributes":{"ID":188286,"DIS_CODE":0,"TOWNNAME":"白河區","LI":"玉豐里","LIN":"11鄰","STREET":" ","SECT":" ","MAREA":"海豐厝","LANE":" ","ALLEY":" ","HOUSE_NO":"１０８號","E_COORD97":190114.10999999999,"N_COORD97":2586210.6000000001,"ADDRESS":"海豐厝１０８號","OBJECTID":188285},"geometry":{"x":190114.11000000034,"y":2586210.6000000015}},{"attributes":{"ID":188287,"DIS_CODE":0,"TOWNNAME":"安南區","LI":"安富里","LIN":"5鄰","STREET":"郡安路","SECT":"五段","MAREA":" ","LANE":"１８４巷","ALLEY":"５２弄","HOUSE_NO":"５１號","E_COORD97":167300.23999999999,"N_COORD97":2547569.3399999999,"ADDRESS":"郡安路五段１８４巷５２弄５１號","OBJECTID":188286},"geometry":{"x":167300.24000000115,"y":2547569.3400000017}},{"attributes":{"ID":188288,"DIS_CODE":0,"TOWNNAME":"白河區","LI":"玉豐里","LIN":"11鄰","STREET":" ","SECT":" ","MAREA":"海豐厝","LANE":" ","ALLEY":" ","HOUSE_NO":"９３號","E_COORD97":190272.63,"N_COORD97":2586198.7999999998,"ADDRESS":"海豐厝９３號","OBJECTID":188287},"geometry":{"x":190272.63000000082,"y":2586198.8000000007}},{"attributes":{"ID":188289,"DIS_CODE":0,"TOWNNAME":"安南區","LI":"安富里","LIN":"5鄰","STREET":"郡安路","SECT":"五段","MAREA":" ","LANE":"１８４巷","ALLEY":"５２弄","HOUSE_NO":"５２號","E_COORD97":167300.89000000001,"N_COORD97":2547589.7799999998,"ADDRESS":"郡安路五段１８４巷５２弄５２號","OBJECTID":188288},"geometry":{"x":167300.88999999966,"y":2547589.7800000012}},{"attributes":{"ID":188290,"DIS_CODE":0,"TOWNNAME":"安南區","LI":"安富里","LIN":"5鄰","STREET":"郡安路","SECT":"五段","MAREA":" ","LANE":"１８４巷","ALLEY":"５２弄","HOUSE_NO":"５３號","E_COORD97":167295.69,"N_COORD97":2547567.8199999998,"ADDRESS":"郡安路五段１８４巷５２弄５３號","OBJECTID":188289},"geometry":{"x":167295.69000000134,"y":2547567.8200000003}},{"attributes":{"ID":188291,"DIS_CODE":0,"TOWNNAME":"安南區","LI":"安富里","LIN":"5鄰","STREET":"郡安路","SECT":"五段","MAREA":" ","LANE":"１８４巷","ALLEY":"５２弄","HOUSE_NO":"５６號","E_COORD97":167291.35999999999,"N_COORD97":2547589.5600000001,"ADDRESS":"郡安路五段１８４巷５２弄５６號","OBJECTID":188290},"geometry":{"x":167291.36000000127,"y":2547589.5600000005}},{"attributes":{"ID":188292,"DIS_CODE":0,"TOWNNAME":"永康區","LI":"網寮里","LIN":"21鄰","STREET":"文化路","SECT":" ","MAREA":" ","LANE":"２５２巷","ALLEY":" ","HOUSE_NO":"６號","E_COORD97":173545.79999999999,"N_COORD97":2546139,"ADDRESS":"文化路２５２巷６號","OBJECTID":188291},"geometry":{"x":173545.80000000168,"y":2546139}},{"attributes":{"ID":188293,"DIS_CODE":0,"TOWNNAME":"新營區","LI":"大宏里","LIN":"24鄰","STREET":"民治路","SECT":" ","MAREA":" ","LANE":" ","ALLEY":" ","HOUSE_NO":"３號之１","E_COORD97":180580.17000000001,"N_COORD97":2578880.1299999999,"ADDRESS":"民治路３號之１","OBJECTID":188292},"geometry":{"x":180580.17000000179,"y":2578880.1300000008}},{"attributes":{"ID":188294,"DIS_CODE":0,"TOWNNAME":"新營區","LI":"大宏里","LIN":"24鄰","STREET":"民治路","SECT":" ","MAREA":" ","LANE":" ","ALLEY":" ","HOUSE_NO":"３之２號","E_COORD97":180576.44,"N_COORD97":2578880.1400000001,"ADDRESS":"民治路３之２號","OBJECTID":188293},"geometry":{"x":180576.44000000041,"y":2578880.1399999987}},{"attributes":{"ID":188295,"DIS_CODE":0,"TOWNNAME":"新營區","LI":"民榮里","LIN":"24鄰","STREET":"復興路","SECT":" ","MAREA":" ","LANE":" ","ALLEY":" ","HOUSE_NO":"１５７之４號","E_COORD97":179122.17999999999,"N_COORD97":2577993.3300000001,"ADDRESS":"復興路１５７之４號","OBJECTID":188294},"geometry":{"x":179122.18000000063,"y":2577993.3300000001}},{"attributes":{"ID":188296,"DIS_CODE":0,"TOWNNAME":"永康區","LI":"網寮里","LIN":"21鄰","STREET":"永勝街","SECT":" ","MAREA":" ","LANE":" ","ALLEY":" ","HOUSE_NO":"１３號","E_COORD97":173616.70000000001,"N_COORD97":2546210.54,"ADDRESS":"永勝街１３號","OBJECTID":188295},"geometry":{"x":173616.70000000112,"y":2546210.540000001}},{"attributes":{"ID":188297,"DIS_CODE":0,"TOWNNAME":"善化區","LI":"胡厝里","LIN":"21鄰","STREET":"南科北路","SECT":" ","MAREA":" ","LANE":" ","ALLEY":" ","HOUSE_NO":"４３號","E_COORD97":175519.09,"N_COORD97":2558666,"ADDRESS":"南科北路４３號","OBJECTID":188296},"geometry":{"x":175519.09000000078,"y":2558666}},{"attributes":{"ID":188298,"DIS_CODE":0,"TOWNNAME":"善化區","LI":"胡厝里","LIN":"21鄰","STREET":"興農路","SECT":" ","MAREA":" ","LANE":" ","ALLEY":" ","HOUSE_NO":"４５０號","E_COORD97":175302.57000000001,"N_COORD97":2558975.2599999998,"ADDRESS":"興農路４５０號","OBJECTID":188297},"geometry":{"x":175302.57000000123,"y":2558975.2600000016}},{"attributes":{"ID":188299,"DIS_CODE":0,"TOWNNAME":"善化區","LI":"胡厝里","LIN":"21鄰","STREET":"興農路","SECT":" ","MAREA":" ","LANE":" ","ALLEY":" ","HOUSE_NO":"４０２號","E_COORD97":175380.48999999999,"N_COORD97":2558995.0099999998,"ADDRESS":"興農路４０２號","OBJECTID":188298},"geometry":{"x":175380.49000000022,"y":2558995.0099999998}},{"attributes":{"ID":188300,"DIS_CODE":0,"TOWNNAME":"善化區","LI":"胡厝里","LIN":"21鄰","STREET":"興農路","SECT":" ","MAREA":" ","LANE":" ","ALLEY":" ","HOUSE_NO":"３８６號","E_COORD97":175399.81,"N_COORD97":2559001.0099999998,"ADDRESS":"興農路３８６號","OBJECTID":188299},"geometry":{"x":175399.80999999959,"y":2559001.0099999998}},{"attributes":{"ID":188301,"DIS_CODE":0,"TOWNNAME":"善化區","LI":"胡厝里","LIN":"21鄰","STREET":"興農路","SECT":" ","MAREA":" ","LANE":" ","ALLEY":" ","HOUSE_NO":"３８０號","E_COORD97":175408.10000000001,"N_COORD97":2558997.7599999998,"ADDRESS":"興農路３８０號","OBJECTID":188300},"geometry":{"x":175408.09999999963,"y":2558997.7600000035}},{"attributes":{"ID":188302,"DIS_CODE":0,"TOWNNAME":"安南區","LI":"安富里","LIN":"5鄰","STREET":"郡安路","SECT":"五段","MAREA":" ","LANE":"１８４巷","ALLEY":"５２弄","HOUSE_NO":"５號","E_COORD97":167457.06,"N_COORD97":2547601.8700000001,"ADDRESS":"郡安路五段１８４巷５２弄５號","OBJECTID":188301},"geometry":{"x":167457.06000000052,"y":2547601.870000001}},{"attributes":{"ID":188303,"DIS_CODE":0,"TOWNNAME":"善化區","LI":"胡厝里","LIN":"21鄰","STREET":"興農路","SECT":" ","MAREA":" ","LANE":" ","ALLEY":" ","HOUSE_NO":"３９６號","E_COORD97":175387.70999999999,"N_COORD97":2558997.2599999998,"ADDRESS":"興農路３９６號","OBJECTID":188302},"geometry":{"x":175387.71000000183,"y":2558997.2599999998}},{"attributes":{"ID":188304,"DIS_CODE":0,"TOWNNAME":"安南區","LI":"安富里","LIN":"5鄰","STREET":"郡安路","SECT":"五段","MAREA":" ","LANE":"１８４巷","ALLEY":"５２弄","HOUSE_NO":"６號","E_COORD97":167458.79000000001,"N_COORD97":2547623.2799999998,"ADDRESS":"郡安路五段１８４巷５２弄６號","OBJECTID":188303},"geometry":{"x":167458.7900000019,"y":2547623.2800000012}},{"attributes":{"ID":188305,"DIS_CODE":0,"TOWNNAME":"善化區","LI":"胡厝里","LIN":"21鄰","STREET":" ","SECT":" ","MAREA":"百二甲","LANE":" ","ALLEY":" ","HOUSE_NO":"４２號之１","E_COORD97":175308.70000000001,"N_COORD97":2559028.52,"ADDRESS":"百二甲４２號之１","OBJECTID":188304},"geometry":{"x":175308.70000000112,"y":2559028.5199999996}},{"attributes":{"ID":188306,"DIS_CODE":0,"TOWNNAME":"善化區","LI":"溪美里","LIN":"19鄰","STREET":" ","SECT":" ","MAREA":"溪尾","LANE":" ","ALLEY":" ","HOUSE_NO":"２２７號之７","E_COORD97":177284.92999999999,"N_COORD97":2561510.27,"ADDRESS":"溪尾２２７號之７","OBJECTID":188305},"geometry":{"x":177284.93000000063,"y":2561510.2700000014}},{"attributes":{"ID":188307,"DIS_CODE":0,"TOWNNAME":"安南區","LI":"安富里","LIN":"5鄰","STREET":"郡安路","SECT":"五段","MAREA":" ","LANE":"１８４巷","ALLEY":"５２弄","HOUSE_NO":"７號","E_COORD97":167451.64000000001,"N_COORD97":2547601,"ADDRESS":"郡安路五段１８４巷５２弄７號","OBJECTID":188306},"geometry":{"x":167451.6400000006,"y":2547601.0000000037}},{"attributes":{"ID":188308,"DIS_CODE":0,"TOWNNAME":"安南區","LI":"安富里","LIN":"5鄰","STREET":"郡安路","SECT":"五段","MAREA":" ","LANE":"１８４巷","ALLEY":"５２弄","HOUSE_NO":"８號","E_COORD97":167453.16,"N_COORD97":2547620.4700000002,"ADDRESS":"郡安路五段１８４巷５２弄８號","OBJECTID":188307},"geometry":{"x":167453.16000000108,"y":2547620.4700000025}},{"attributes":{"ID":188309,"DIS_CODE":0,"TOWNNAME":"永康區","LI":"新樹里","LIN":" ","STREET":"中山北路","SECT":" ","MAREA":" ","LANE":"６３４巷","ALLEY":"１８弄","HOUSE_NO":"３６之１號","E_COORD97":176179.45999999999,"N_COORD97":2547825.6800000002,"ADDRESS":"中山北路６３４巷１８弄３６之１號","OBJECTID":188308},"geometry":{"x":176179.46000000089,"y":2547825.6799999997}},{"attributes":{"ID":188310,"DIS_CODE":0,"TOWNNAME":"白河區","LI":"玉豐里","LIN":"11鄰","STREET":" ","SECT":" ","MAREA":"海豐厝","LANE":" ","ALLEY":" ","HOUSE_NO":"９４號","E_COORD97":190263.98999999999,"N_COORD97":2586207.4399999999,"ADDRESS":"海豐厝９４號","OBJECTID":188309},"geometry":{"x":190263.99000000022,"y":2586207.4400000032}},{"attributes":{"ID":188311,"DIS_CODE":0,"TOWNNAME":"白河區","LI":"玉豐里","LIN":"11鄰","STREET":" ","SECT":" ","MAREA":"海豐厝","LANE":" ","ALLEY":" ","HOUSE_NO":"９５號","E_COORD97":190255.84,"N_COORD97":2586207.1000000001,"ADDRESS":"海豐厝９５號","OBJECTID":188310},"geometry":{"x":190255.84000000078,"y":2586207.1000000015}},{"attributes":{"ID":188312,"DIS_CODE":0,"TOWNNAME":"永康區","LI":"五王里","LIN":" ","STREET":"中山東路","SECT":" ","MAREA":" ","LANE":"２１８巷","ALLEY":"９弄","HOUSE_NO":"４３號","E_COORD97":171786,"N_COORD97":2545618.25,"ADDRESS":"中山東路２１８巷９弄４３號","OBJECTID":188311},"geometry":{"x":171786,"y":2545618.25}},{"attributes":{"ID":188313,"DIS_CODE":0,"TOWNNAME":"仁德區","LI":"太子里","LIN":"5鄰","STREET":"太子路","SECT":" ","MAREA":" ","LANE":"１９０巷","ALLEY":"３３弄","HOUSE_NO":"６號","E_COORD97":174291.19,"N_COORD97":2543646.54,"ADDRESS":"太子路１９０巷３３弄６號","OBJECTID":188312},"geometry":{"x":174291.19000000041,"y":2543646.5399999972}},{"attributes":{"ID":188314,"DIS_CODE":0,"TOWNNAME":"永康區","LI":"中華里","LIN":"18鄰","STREET":"小東路","SECT":" ","MAREA":" ","LANE":"４７７巷","ALLEY":"４６弄","HOUSE_NO":"２６號","E_COORD97":171684.22,"N_COORD97":2544512.23,"ADDRESS":"小東路４７７巷４６弄２６號","OBJECTID":188313},"geometry":{"x":171684.21999999974,"y":2544512.2300000023}},{"attributes":{"ID":188315,"DIS_CODE":0,"TOWNNAME":"東區","LI":"南聖里","LIN":"5鄰","STREET":"裕農路","SECT":" ","MAREA":" ","LANE":"７２６巷","ALLEY":"８弄","HOUSE_NO":"１７號","E_COORD97":171803.17999999999,"N_COORD97":2543131.0499999998,"ADDRESS":"裕農路７２６巷８弄１７號","OBJECTID":188314},"geometry":{"x":171803.1799999997,"y":2543131.0500000026}},{"attributes":{"ID":188316,"DIS_CODE":0,"TOWNNAME":"仁德區","LI":"仁德里","LIN":"5鄰","STREET":"仁德四街","SECT":" ","MAREA":" ","LANE":"１２巷","ALLEY":"１５弄","HOUSE_NO":"２之１號","E_COORD97":173243.23000000001,"N_COORD97":2540894.5600000001,"ADDRESS":"仁德四街１２巷１５弄２之１號","OBJECTID":188315},"geometry":{"x":173243.23000000045,"y":2540894.5600000005}},{"attributes":{"ID":188317,"DIS_CODE":0,"TOWNNAME":"安南區","LI":"理想里","LIN":"5鄰","STREET":"海佃路","SECT":"二段","MAREA":" ","LANE":"３４２巷","ALLEY":"３９弄","HOUSE_NO":"１１號","E_COORD97":166980.29999999999,"N_COORD97":2548581.3900000001,"ADDRESS":"海佃路二段３４２巷３９弄１１號","OBJECTID":188316},"geometry":{"x":166980.30000000168,"y":2548581.3900000006}},{"attributes":{"ID":188318,"DIS_CODE":0,"TOWNNAME":"善化區","LI":"胡厝里","LIN":"21鄰","STREET":"興農路","SECT":" ","MAREA":" ","LANE":" ","ALLEY":" ","HOUSE_NO":"４１８號","E_COORD97":175364.03,"N_COORD97":2558990.2599999998,"ADDRESS":"興農路４１８號","OBJECTID":188317},"geometry":{"x":175364.03000000119,"y":2558990.2599999998}},{"attributes":{"ID":188319,"DIS_CODE":0,"TOWNNAME":"白河區","LI":"玉豐里","LIN":"11鄰","STREET":" ","SECT":" ","MAREA":"海豐厝","LANE":" ","ALLEY":" ","HOUSE_NO":"９６號","E_COORD97":190250.45000000001,"N_COORD97":2586185.71,"ADDRESS":"海豐厝９６號","OBJECTID":188318},"geometry":{"x":190250.45000000112,"y":2586185.7100000009}},{"attributes":{"ID":188320,"DIS_CODE":0,"TOWNNAME":"白河區","LI":"玉豐里","LIN":"11鄰","STREET":" ","SECT":" ","MAREA":"海豐厝","LANE":" ","ALLEY":" ","HOUSE_NO":"９７號","E_COORD97":190234.48999999999,"N_COORD97":2586191.1200000001,"ADDRESS":"海豐厝９７號","OBJECTID":188319},"geometry":{"x":190234.49000000115,"y":2586191.1200000029}},{"attributes":{"ID":188321,"DIS_CODE":0,"TOWNNAME":"白河區","LI":"玉豐里","LIN":"11鄰","STREET":" ","SECT":" ","MAREA":"海豐厝","LANE":" ","ALLEY":" ","HOUSE_NO":"９９號","E_COORD97":190214.95000000001,"N_COORD97":2586216.73,"ADDRESS":"海豐厝９９號","OBJECTID":188320},"geometry":{"x":190214.95000000019,"y":2586216.7300000023}},{"attributes":{"ID":188322,"DIS_CODE":0,"TOWNNAME":"白河區","LI":"草店里","LIN":"11鄰","STREET":" ","SECT":" ","MAREA":"草店","LANE":" ","ALLEY":" ","HOUSE_NO":"１之１１號","E_COORD97":193113.29000000001,"N_COORD97":2587965.25,"ADDRESS":"草店１之１１號","OBJECTID":188321},"geometry":{"x":193113.29000000004,"y":2587965.2500000037}},{"attributes":{"ID":188323,"DIS_CODE":0,"TOWNNAME":"白河區","LI":"草店里","LIN":"11鄰","STREET":" ","SECT":" ","MAREA":"草店","LANE":" ","ALLEY":" ","HOUSE_NO":"１之１２號","E_COORD97":193212.29999999999,"N_COORD97":2587860.8100000001,"ADDRESS":"草店１之１２號","OBJECTID":188322},"geometry":{"x":193212.30000000075,"y":2587860.8100000024}},{"attributes":{"ID":188324,"DIS_CODE":0,"TOWNNAME":"白河區","LI":"草店里","LIN":"11鄰","STREET":" ","SECT":" ","MAREA":"草店","LANE":" ","ALLEY":" ","HOUSE_NO":"１之１５號","E_COORD97":192839.17999999999,"N_COORD97":2587952.27,"ADDRESS":"草店１之１５號","OBJECTID":188323},"geometry":{"x":192839.1799999997,"y":2587952.2700000014}},{"attributes":{"ID":188325,"DIS_CODE":0,"TOWNNAME":"白河區","LI":"草店里","LIN":"11鄰","STREET":" ","SECT":" ","MAREA":"草店","LANE":" ","ALLEY":" ","HOUSE_NO":"１之１號","E_COORD97":192964.76000000001,"N_COORD97":2587934.0499999998,"ADDRESS":"草店１之１號","OBJECTID":188324},"geometry":{"x":192964.76000000071,"y":2587934.0500000026}},{"attributes":{"ID":188326,"DIS_CODE":0,"TOWNNAME":"白河區","LI":"草店里","LIN":"11鄰","STREET":" ","SECT":" ","MAREA":"草店","LANE":" ","ALLEY":" ","HOUSE_NO":"１之２號","E_COORD97":192985.01999999999,"N_COORD97":2587950.27,"ADDRESS":"草店１之２號","OBJECTID":188325},"geometry":{"x":192985.02000000048,"y":2587950.2699999996}},{"attributes":{"ID":188327,"DIS_CODE":0,"TOWNNAME":"白河區","LI":"草店里","LIN":"11鄰","STREET":" ","SECT":" ","MAREA":"草店","LANE":" ","ALLEY":" ","HOUSE_NO":"１之３號","E_COORD97":192841.97,"N_COORD97":2588001.3999999999,"ADDRESS":"草店１之３號","OBJECTID":188326},"geometry":{"x":192841.96999999974,"y":2588001.4000000004}},{"attributes":{"ID":188328,"DIS_CODE":0,"TOWNNAME":"安南區","LI":"理想里","LIN":"5鄰","STREET":"海佃路","SECT":"二段","MAREA":" ","LANE":"３４２巷","ALLEY":"３９弄","HOUSE_NO":"１２號","E_COORD97":166998.75,"N_COORD97":2548564.6400000001,"ADDRESS":"海佃路二段３４２巷３９弄１２號","OBJECTID":188327},"geometry":{"x":166998.75,"y":2548564.6400000025}},{"attributes":{"ID":188329,"DIS_CODE":0,"TOWNNAME":"安南區","LI":"理想里","LIN":"5鄰","STREET":"海佃路","SECT":"二段","MAREA":" ","LANE":"３４２巷","ALLEY":"３９弄","HOUSE_NO":"１３號","E_COORD97":166983.26000000001,"N_COORD97":2548584.4900000002,"ADDRESS":"海佃路二段３４２巷３９弄１３號","OBJECTID":188328},"geometry":{"x":166983.25999999978,"y":2548584.4900000039}},{"attributes":{"ID":188330,"DIS_CODE":0,"TOWNNAME":"安南區","LI":"理想里","LIN":"5鄰","STREET":"海佃路","SECT":"二段","MAREA":" ","LANE":"３４２巷","ALLEY":"３９弄","HOUSE_NO":"１４號","E_COORD97":167004.04999999999,"N_COORD97":2548566.8300000001,"ADDRESS":"海佃路二段３４２巷３９弄１４號","OBJECTID":188329},"geometry":{"x":167004.05000000168,"y":2548566.8300000019}},{"attributes":{"ID":188331,"DIS_CODE":0,"TOWNNAME":"永康區","LI":"二王里","LIN":"21鄰","STREET":"忠孝路","SECT":" ","MAREA":" ","LANE":" ","ALLEY":" ","HOUSE_NO":"４４５號","E_COORD97":172454.47,"N_COORD97":2546575.73,"ADDRESS":"忠孝路４４５號","OBJECTID":188330},"geometry":{"x":172454.46999999881,"y":2546575.7300000004}},{"attributes":{"ID":188332,"DIS_CODE":0,"TOWNNAME":"仁德區","LI":"仁德里","LIN":"5鄰","STREET":"仁德四街","SECT":" ","MAREA":" ","LANE":"１２巷","ALLEY":"１４弄","HOUSE_NO":"３號","E_COORD97":173260.79999999999,"N_COORD97":2540898.04,"ADDRESS":"仁德四街１２巷１４弄３號","OBJECTID":188331},"geometry":{"x":173260.79999999981,"y":2540898.040000001}},{"attributes":{"ID":188333,"DIS_CODE":0,"TOWNNAME":"安南區","LI":"理想里","LIN":"5鄰","STREET":"海佃路","SECT":"二段","MAREA":" ","LANE":"３４２巷","ALLEY":"３９弄","HOUSE_NO":"１５號","E_COORD97":166987.03,"N_COORD97":2548587.3799999999,"ADDRESS":"海佃路二段３４２巷３９弄１５號","OBJECTID":188332},"geometry":{"x":166987.03000000026,"y":2548587.3800000027}},{"attributes":{"ID":188334,"DIS_CODE":0,"TOWNNAME":"新市區","LI":"大社里","LIN":"21鄰","STREET":" ","SECT":" ","MAREA":"大社","LANE":" ","ALLEY":" ","HOUSE_NO":"８１５號","E_COORD97":179817.63,"N_COORD97":2554116.75,"ADDRESS":"大社８１５號","OBJECTID":188333},"geometry":{"x":179817.63000000175,"y":2554116.7500000019}},{"attributes":{"ID":188335,"DIS_CODE":0,"TOWNNAME":"安南區","LI":"理想里","LIN":"5鄰","STREET":"海佃路","SECT":"二段","MAREA":" ","LANE":"３４２巷","ALLEY":"３９弄","HOUSE_NO":"１６號","E_COORD97":167006.70000000001,"N_COORD97":2548569.6699999999,"ADDRESS":"海佃路二段３４２巷３９弄１６號","OBJECTID":188334},"geometry":{"x":167006.70000000019,"y":2548569.6700000037}},{"attributes":{"ID":188336,"DIS_CODE":0,"TOWNNAME":"安南區","LI":"理想里","LIN":"5鄰","STREET":"海佃路","SECT":"二段","MAREA":" ","LANE":"３４２巷","ALLEY":"３９弄","HOUSE_NO":"１７號","E_COORD97":166990.87,"N_COORD97":2548589.5299999998,"ADDRESS":"海佃路二段３４２巷３９弄１７號","OBJECTID":188335},"geometry":{"x":166990.87000000104,"y":2548589.5299999993}},{"attributes":{"ID":188337,"DIS_CODE":0,"TOWNNAME":"安南區","LI":"理想里","LIN":"5鄰","STREET":"海佃路","SECT":"二段","MAREA":" ","LANE":"３４２巷","ALLEY":"３９弄","HOUSE_NO":"１９號","E_COORD97":166994.84,"N_COORD97":2548591.48,"ADDRESS":"海佃路二段３４２巷３９弄１９號","OBJECTID":188336},"geometry":{"x":166994.83999999985,"y":2548591.4799999986}},{"attributes":{"ID":188338,"DIS_CODE":0,"TOWNNAME":"永康區","LI":"五王里","LIN":"21鄰","STREET":"振興路","SECT":" ","MAREA":" ","LANE":" ","ALLEY":" ","HOUSE_NO":"２５號","E_COORD97":171433.44,"N_COORD97":2545790.25,"ADDRESS":"振興路２５號","OBJECTID":188337},"geometry":{"x":171433.44000000227,"y":2545790.2500000019}},{"attributes":{"ID":188339,"DIS_CODE":0,"TOWNNAME":"安南區","LI":"理想里","LIN":"5鄰","STREET":"海佃路","SECT":"二段","MAREA":" ","LANE":"３４２巷","ALLEY":"３９弄","HOUSE_NO":"１號","E_COORD97":166962.92000000001,"N_COORD97":2548567.2999999998,"ADDRESS":"海佃路二段３４２巷３９弄１號","OBJECTID":188338},"geometry":{"x":166962.92000000086,"y":2548567.3000000026}},{"attributes":{"ID":188340,"DIS_CODE":0,"TOWNNAME":"安南區","LI":"理想里","LIN":"5鄰","STREET":"海佃路","SECT":"二段","MAREA":" ","LANE":"３４２巷","ALLEY":"３９弄","HOUSE_NO":"２０號","E_COORD97":167013.66,"N_COORD97":2548575.4199999999,"ADDRESS":"海佃路二段３４２巷３９弄２０號","OBJECTID":188339},"geometry":{"x":167013.66000000015,"y":2548575.4200000018}},{"attributes":{"ID":188341,"DIS_CODE":0,"TOWNNAME":"安南區","LI":"理想里","LIN":"5鄰","STREET":"海佃路","SECT":"二段","MAREA":" ","LANE":"３４２巷","ALLEY":"３９弄","HOUSE_NO":"２號","E_COORD97":166980.54000000001,"N_COORD97":2548550.9199999999,"ADDRESS":"海佃路二段３４２巷３９弄２號","OBJECTID":188340},"geometry":{"x":166980.53999999911,"y":2548550.9200000037}},{"attributes":{"ID":188342,"DIS_CODE":0,"TOWNNAME":"安南區","LI":"理想里","LIN":"5鄰","STREET":"海佃路","SECT":"二段","MAREA":" ","LANE":"３４２巷","ALLEY":"３９弄","HOUSE_NO":"３號","E_COORD97":166964.73999999999,"N_COORD97":2548571.0699999998,"ADDRESS":"海佃路二段３４２巷３９弄３號","OBJECTID":188341},"geometry":{"x":166964.74000000115,"y":2548571.0700000022}},{"attributes":{"ID":188343,"DIS_CODE":0,"TOWNNAME":"安南區","LI":"理想里","LIN":"5鄰","STREET":"海佃路","SECT":"二段","MAREA":" ","LANE":"３４２巷","ALLEY":"３９弄","HOUSE_NO":"４號","E_COORD97":166984.23000000001,"N_COORD97":2548553.96,"ADDRESS":"海佃路二段３４２巷３９弄４號","OBJECTID":188342},"geometry":{"x":166984.23000000045,"y":2548553.9600000009}},{"attributes":{"ID":188344,"DIS_CODE":0,"TOWNNAME":"白河區","LI":"草店里","LIN":"11鄰","STREET":" ","SECT":" ","MAREA":"草店","LANE":" ","ALLEY":" ","HOUSE_NO":"１之４號","E_COORD97":192829.35000000001,"N_COORD97":2587999.5800000001,"ADDRESS":"草店１之４號","OBJECTID":188343},"geometry":{"x":192829.34999999963,"y":2587999.5800000001}},{"attributes":{"ID":188345,"DIS_CODE":0,"TOWNNAME":"白河區","LI":"草店里","LIN":"11鄰","STREET":" ","SECT":" ","MAREA":"草店","LANE":" ","ALLEY":" ","HOUSE_NO":"１之６號","E_COORD97":193109.26999999999,"N_COORD97":2587741.54,"ADDRESS":"草店１之６號","OBJECTID":188344},"geometry":{"x":193109.26999999955,"y":2587741.5399999991}},{"attributes":{"ID":188346,"DIS_CODE":0,"TOWNNAME":"白河區","LI":"草店里","LIN":"11鄰","STREET":" ","SECT":" ","MAREA":"草店","LANE":" ","ALLEY":" ","HOUSE_NO":"１之８號","E_COORD97":193179.70999999999,"N_COORD97":2587833.4100000001,"ADDRESS":"草店１之８號","OBJECTID":188345},"geometry":{"x":193179.70999999996,"y":2587833.410000002}},{"attributes":{"ID":188347,"DIS_CODE":0,"TOWNNAME":"安南區","LI":"理想里","LIN":"5鄰","STREET":"海佃路","SECT":"二段","MAREA":" ","LANE":"３４２巷","ALLEY":"３９弄","HOUSE_NO":"５號","E_COORD97":166968.51000000001,"N_COORD97":2548573.73,"ADDRESS":"海佃路二段３４２巷３９弄５號","OBJECTID":188346},"geometry":{"x":166968.50999999978,"y":2548573.7300000023}},{"attributes":{"ID":188348,"DIS_CODE":0,"TOWNNAME":"安南區","LI":"理想里","LIN":"5鄰","STREET":"海佃路","SECT":"二段","MAREA":" ","LANE":"３４２巷","ALLEY":"３９弄","HOUSE_NO":"６號","E_COORD97":166988.28,"N_COORD97":2548556.3500000001,"ADDRESS":"海佃路二段３４２巷３９弄６號","OBJECTID":188347},"geometry":{"x":166988.28000000119,"y":2548556.3499999996}},{"attributes":{"ID":188349,"DIS_CODE":0,"TOWNNAME":"安南區","LI":"理想里","LIN":"5鄰","STREET":"海佃路","SECT":"二段","MAREA":" ","LANE":"３４２巷","ALLEY":"３９弄","HOUSE_NO":"７號","E_COORD97":166972.42000000001,"N_COORD97":2548576.75,"ADDRESS":"海佃路二段３４２巷３９弄７號","OBJECTID":188348},"geometry":{"x":166972.41999999993,"y":2548576.7500000019}},{"attributes":{"ID":188350,"DIS_CODE":0,"TOWNNAME":"安南區","LI":"理想里","LIN":"5鄰","STREET":"海佃路","SECT":"二段","MAREA":" ","LANE":"３４２巷","ALLEY":"３９弄","HOUSE_NO":"８號","E_COORD97":166991.73000000001,"N_COORD97":2548559.0499999998,"ADDRESS":"海佃路二段３４２巷３９弄８號","OBJECTID":188349},"geometry":{"x":166991.73000000231,"y":2548559.0500000026}},{"attributes":{"ID":188351,"DIS_CODE":0,"TOWNNAME":"安南區","LI":"理想里","LIN":"5鄰","STREET":"海佃路","SECT":"二段","MAREA":" ","LANE":"３４２巷","ALLEY":"３９弄","HOUSE_NO":"９號","E_COORD97":166976.26000000001,"N_COORD97":2548578.8399999999,"ADDRESS":"海佃路二段３４２巷３９弄９號","OBJECTID":188350},"geometry":{"x":166976.26000000071,"y":2548578.8400000017}},{"attributes":{"ID":188352,"DIS_CODE":0,"TOWNNAME":"安南區","LI":"理想里","LIN":"5鄰","STREET":"海佃路","SECT":"二段","MAREA":" ","LANE":"３４２巷","ALLEY":"５７弄","HOUSE_NO":"１１號","E_COORD97":167023.59,"N_COORD97":2548560.2599999998,"ADDRESS":"海佃路二段３４２巷５７弄１１號","OBJECTID":188351},"geometry":{"x":167023.58999999985,"y":2548560.2600000016}},{"attributes":{"ID":188353,"DIS_CODE":0,"TOWNNAME":"安南區","LI":"理想里","LIN":"5鄰","STREET":"海佃路","SECT":"二段","MAREA":" ","LANE":"３４２巷","ALLEY":"５７弄","HOUSE_NO":"１２號","E_COORD97":167031.84,"N_COORD97":2548547.9300000002,"ADDRESS":"海佃路二段３４２巷５７弄１２號","OBJECTID":188352},"geometry":{"x":167031.83999999985,"y":2548547.9300000016}},{"attributes":{"ID":188354,"DIS_CODE":0,"TOWNNAME":"安南區","LI":"理想里","LIN":"5鄰","STREET":"海佃路","SECT":"二段","MAREA":" ","LANE":"３４２巷","ALLEY":"５７弄","HOUSE_NO":"１號","E_COORD97":167004.69,"N_COORD97":2548543.1099999999,"ADDRESS":"海佃路二段３４２巷５７弄１號","OBJECTID":188353},"geometry":{"x":167004.69000000041,"y":2548543.1100000013}},{"attributes":{"ID":188355,"DIS_CODE":0,"TOWNNAME":"安南區","LI":"理想里","LIN":"5鄰","STREET":"海佃路","SECT":"二段","MAREA":" ","LANE":"３４２巷","ALLEY":"５７弄","HOUSE_NO":"２號","E_COORD97":167021.5,"N_COORD97":2548531.3799999999,"ADDRESS":"海佃路二段３４２巷５７弄２號","OBJECTID":188354},"geometry":{"x":167021.49999999907,"y":2548531.3800000008}},{"attributes":{"ID":188356,"DIS_CODE":0,"TOWNNAME":"安南區","LI":"理想里","LIN":"5鄰","STREET":"海佃路","SECT":"二段","MAREA":" ","LANE":"３４２巷","ALLEY":"５７弄","HOUSE_NO":"３號","E_COORD97":167008.54999999999,"N_COORD97":2548547.98,"ADDRESS":"海佃路二段３４２巷５７弄３號","OBJECTID":188355},"geometry":{"x":167008.54999999981,"y":2548547.9800000023}},{"attributes":{"ID":188357,"DIS_CODE":0,"TOWNNAME":"安南區","LI":"理想里","LIN":"5鄰","STREET":"海佃路","SECT":"二段","MAREA":" ","LANE":"３４２巷","ALLEY":"５７弄","HOUSE_NO":"４號","E_COORD97":167023.79000000001,"N_COORD97":2548534.1499999999,"ADDRESS":"海佃路二段３４２巷５７弄４號","OBJECTID":188356},"geometry":{"x":167023.79000000097,"y":2548534.1500000022}},{"attributes":{"ID":188358,"DIS_CODE":0,"TOWNNAME":"白河區","LI":"草店里","LIN":"11鄰","STREET":" ","SECT":" ","MAREA":"草店","LANE":" ","ALLEY":" ","HOUSE_NO":"１之９號","E_COORD97":192868.54999999999,"N_COORD97":2587996.96,"ADDRESS":"草店１之９號","OBJECTID":188357},"geometry":{"x":192868.54999999981,"y":2587996.9600000028}},{"attributes":{"ID":188359,"DIS_CODE":0,"TOWNNAME":"安南區","LI":"理想里","LIN":"5鄰","STREET":"海佃路","SECT":"二段","MAREA":" ","LANE":"３４２巷","ALLEY":"５７弄","HOUSE_NO":"６號","E_COORD97":167025.25,"N_COORD97":2548537.2799999998,"ADDRESS":"海佃路二段３４２巷５７弄６號","OBJECTID":188358},"geometry":{"x":167025.25000000093,"y":2548537.2799999993}},{"attributes":{"ID":188360,"DIS_CODE":0,"TOWNNAME":"安南區","LI":"理想里","LIN":"5鄰","STREET":"海佃路","SECT":"二段","MAREA":" ","LANE":"３４２巷","ALLEY":"５７弄","HOUSE_NO":"７號","E_COORD97":167012.92000000001,"N_COORD97":2548554.5800000001,"ADDRESS":"海佃路二段３４２巷５７弄７號","OBJECTID":188359},"geometry":{"x":167012.91999999993,"y":2548554.5800000019}},{"attributes":{"ID":188361,"DIS_CODE":0,"TOWNNAME":"安南區","LI":"理想里","LIN":"5鄰","STREET":"海佃路","SECT":"二段","MAREA":" ","LANE":"３４２巷","ALLEY":"５７弄","HOUSE_NO":"８號","E_COORD97":167028.38,"N_COORD97":2548541.2400000002,"ADDRESS":"海佃路二段３４２巷５７弄８號","OBJECTID":188360},"geometry":{"x":167028.37999999989,"y":2548541.2400000002}},{"attributes":{"ID":188362,"DIS_CODE":0,"TOWNNAME":"永康區","LI":"中興里","LIN":"5鄰","STREET":"中華路","SECT":" ","MAREA":" ","LANE":"２１６巷","ALLEY":"４０弄","HOUSE_NO":"１８號","E_COORD97":171841.39000000001,"N_COORD97":2545083.25,"ADDRESS":"中華路２１６巷４０弄１８號","OBJECTID":188361},"geometry":{"x":171841.39000000153,"y":2545083.25}},{"attributes":{"ID":188363,"DIS_CODE":0,"TOWNNAME":"永康區","LI":"五王里","LIN":"5鄰","STREET":"中華二路","SECT":" ","MAREA":" ","LANE":"２０６巷","ALLEY":"５２弄","HOUSE_NO":"７號","E_COORD97":171643.87,"N_COORD97":2545625.5,"ADDRESS":"中華二路２０６巷５２弄７號","OBJECTID":188362},"geometry":{"x":171643.87000000104,"y":2545625.5000000019}},{"attributes":{"ID":188364,"DIS_CODE":0,"TOWNNAME":"東區","LI":"崇德里","LIN":"21鄰","STREET":"崇德路","SECT":" ","MAREA":" ","LANE":" ","ALLEY":" ","HOUSE_NO":"４８２號","E_COORD97":170763.92999999999,"N_COORD97":2541587.48,"ADDRESS":"崇德路４８２號","OBJECTID":188363},"geometry":{"x":170763.9299999997,"y":2541587.4800000023}},{"attributes":{"ID":188365,"DIS_CODE":0,"TOWNNAME":"新市區","LI":"大營里","LIN":"21鄰","STREET":" ","SECT":" ","MAREA":"豐榮","LANE":" ","ALLEY":" ","HOUSE_NO":"１４６號","E_COORD97":178903.60000000001,"N_COORD97":2554250,"ADDRESS":"豐榮１４６號","OBJECTID":188364},"geometry":{"x":178903.59999999963,"y":2554250.0000000019}},{"attributes":{"ID":188366,"DIS_CODE":0,"TOWNNAME":"新市區","LI":"大營里","LIN":"21鄰","STREET":" ","SECT":" ","MAREA":"豐榮","LANE":" ","ALLEY":" ","HOUSE_NO":"１３０號","E_COORD97":178918.39999999999,"N_COORD97":2554316.5,"ADDRESS":"豐榮１３０號","OBJECTID":188365},"geometry":{"x":178918.4000000013,"y":2554316.5}},{"attributes":{"ID":188367,"DIS_CODE":0,"TOWNNAME":"新市區","LI":"大營里","LIN":"21鄰","STREET":" ","SECT":" ","MAREA":"豐榮","LANE":" ","ALLEY":" ","HOUSE_NO":"１３６之１號","E_COORD97":178881.64999999999,"N_COORD97":2554179.0499999998,"ADDRESS":"豐榮１３６之１號","OBJECTID":188366},"geometry":{"x":178881.65000000037,"y":2554179.0500000045}},{"attributes":{"ID":188368,"DIS_CODE":0,"TOWNNAME":"新市區","LI":"大營里","LIN":"21鄰","STREET":" ","SECT":" ","MAREA":"豐榮","LANE":" ","ALLEY":" ","HOUSE_NO":"１５１號","E_COORD97":178917.01000000001,"N_COORD97":2554279.75,"ADDRESS":"豐榮１５１號","OBJECTID":188367},"geometry":{"x":178917.01000000071,"y":2554279.7500000019}},{"attributes":{"ID":188369,"DIS_CODE":0,"TOWNNAME":"安定區","LI":"海寮里","LIN":"21鄰","STREET":" ","SECT":" ","MAREA":"海寮","LANE":" ","ALLEY":" ","HOUSE_NO":"２０１之１０號","E_COORD97":169564.69,"N_COORD97":2555547.2999999998,"ADDRESS":"海寮２０１之１０號","OBJECTID":188368},"geometry":{"x":169564.69000000041,"y":2555547.3000000026}},{"attributes":{"ID":188370,"DIS_CODE":0,"TOWNNAME":"安定區","LI":"海寮里","LIN":"21鄰","STREET":" ","SECT":" ","MAREA":"海寮","LANE":" ","ALLEY":" ","HOUSE_NO":"２０１號之１５","E_COORD97":169581.98000000001,"N_COORD97":2555532.2999999998,"ADDRESS":"海寮２０１號之１５","OBJECTID":188369},"geometry":{"x":169581.98000000231,"y":2555532.3000000007}},{"attributes":{"ID":188371,"DIS_CODE":0,"TOWNNAME":"安定區","LI":"海寮里","LIN":"21鄰","STREET":" ","SECT":" ","MAREA":"海寮","LANE":" ","ALLEY":" ","HOUSE_NO":"１９９之１０號","E_COORD97":169538.69,"N_COORD97":2555552.2999999998,"ADDRESS":"海寮１９９之１０號","OBJECTID":188370},"geometry":{"x":169538.69000000134,"y":2555552.3000000007}},{"attributes":{"ID":188372,"DIS_CODE":0,"TOWNNAME":"安定區","LI":"海寮里","LIN":"21鄰","STREET":" ","SECT":" ","MAREA":"海寮","LANE":" ","ALLEY":" ","HOUSE_NO":"１９９之１６號","E_COORD97":169534.69,"N_COORD97":2555575.2999999998,"ADDRESS":"海寮１９９之１６號","OBJECTID":188371},"geometry":{"x":169534.69000000227,"y":2555575.3000000026}},{"attributes":{"ID":188373,"DIS_CODE":0,"TOWNNAME":"白河區","LI":"昇安里","LIN":"11鄰","STREET":" ","SECT":" ","MAREA":"埤子頭","LANE":" ","ALLEY":" ","HOUSE_NO":"２４號","E_COORD97":192659.97,"N_COORD97":2585251.3100000001,"ADDRESS":"埤子頭２４號","OBJECTID":188372},"geometry":{"x":192659.97000000067,"y":2585251.3100000024}},{"attributes":{"ID":188374,"DIS_CODE":0,"TOWNNAME":"白河區","LI":"昇安里","LIN":"11鄰","STREET":" ","SECT":" ","MAREA":"埤子頭","LANE":" ","ALLEY":" ","HOUSE_NO":"２３之１０號","E_COORD97":192563.20999999999,"N_COORD97":2585139.3900000001,"ADDRESS":"埤子頭２３之１０號","OBJECTID":188373},"geometry":{"x":192563.21000000183,"y":2585139.3900000006}},{"attributes":{"ID":188375,"DIS_CODE":0,"TOWNNAME":"白河區","LI":"昇安里","LIN":"11鄰","STREET":" ","SECT":" ","MAREA":"埤子頭","LANE":" ","ALLEY":" ","HOUSE_NO":"２３之１１號","E_COORD97":192563.12,"N_COORD97":2585143.54,"ADDRESS":"埤子頭２３之１１號","OBJECTID":188374},"geometry":{"x":192563.12000000104,"y":2585143.5399999991}},{"attributes":{"ID":188376,"DIS_CODE":0,"TOWNNAME":"安南區","LI":"海東里","LIN":"21鄰","STREET":"海東二街","SECT":" ","MAREA":" ","LANE":" ","ALLEY":" ","HOUSE_NO":"４２號","E_COORD97":166922.12597200001,"N_COORD97":2547921.98428,"ADDRESS":"海東二街４２號","OBJECTID":188375},"geometry":{"x":166922.12597199995,"y":2547921.9842749983}},{"attributes":{"ID":188377,"DIS_CODE":0,"TOWNNAME":"白河區","LI":"昇安里","LIN":"11鄰","STREET":" ","SECT":" ","MAREA":"埤子頭","LANE":" ","ALLEY":" ","HOUSE_NO":"２３之２０號","E_COORD97":192603.01000000001,"N_COORD97":2585214.6899999999,"ADDRESS":"埤子頭２３之２０號","OBJECTID":188376},"geometry":{"x":192603.00999999978,"y":2585214.6899999995}},{"attributes":{"ID":188378,"DIS_CODE":0,"TOWNNAME":"東區","LI":"虎尾里","LIN":"21鄰","STREET":"東門路","SECT":"三段","MAREA":" ","LANE":" ","ALLEY":" ","HOUSE_NO":"２８５號","E_COORD97":171762.17000000001,"N_COORD97":2541850.96,"ADDRESS":"東門路三段２８５號","OBJECTID":188377},"geometry":{"x":171762.17000000086,"y":2541850.9600000009}},{"attributes":{"ID":188379,"DIS_CODE":0,"TOWNNAME":"白河區","LI":"昇安里","LIN":"11鄰","STREET":" ","SECT":" ","MAREA":"埤子頭","LANE":" ","ALLEY":" ","HOUSE_NO":"２３之２號","E_COORD97":192744.22,"N_COORD97":2585230.1499999999,"ADDRESS":"埤子頭２３之２號","OBJECTID":188378},"geometry":{"x":192744.21999999881,"y":2585230.1500000041}},{"attributes":{"ID":188380,"DIS_CODE":0,"TOWNNAME":"白河區","LI":"昇安里","LIN":"11鄰","STREET":" ","SECT":" ","MAREA":"埤子頭","LANE":" ","ALLEY":" ","HOUSE_NO":"２３之３號","E_COORD97":192733.79000000001,"N_COORD97":2585217.3599999999,"ADDRESS":"埤子頭２３之３號","OBJECTID":188379},"geometry":{"x":192733.79000000004,"y":2585217.3599999994}},{"attributes":{"ID":188381,"DIS_CODE":0,"TOWNNAME":"白河區","LI":"昇安里","LIN":"11鄰","STREET":" ","SECT":" ","MAREA":"埤子頭","LANE":" ","ALLEY":" ","HOUSE_NO":"２３之４號","E_COORD97":192739.62,"N_COORD97":2585224.6099999999,"ADDRESS":"埤子頭２３之４號","OBJECTID":188380},"geometry":{"x":192739.62000000011,"y":2585224.6099999994}},{"attributes":{"ID":188382,"DIS_CODE":0,"TOWNNAME":"永康區","LI":"五王里","LIN":"5鄰","STREET":"中華二路","SECT":" ","MAREA":" ","LANE":"２０６巷","ALLEY":"５２弄","HOUSE_NO":"９號","E_COORD97":171647.92999999999,"N_COORD97":2545630.7400000002,"ADDRESS":"中華二路２０６巷５２弄９號","OBJECTID":188381},"geometry":{"x":171647.93000000156,"y":2545630.7400000021}},{"attributes":{"ID":188383,"DIS_CODE":0,"TOWNNAME":"安定區","LI":"港南里","LIN":"21鄰","STREET":" ","SECT":" ","MAREA":"港口","LANE":" ","ALLEY":" ","HOUSE_NO":"１６３之２號","E_COORD97":171404.89000000001,"N_COORD97":2554514.2999999998,"ADDRESS":"港口１６３之２號","OBJECTID":188382},"geometry":{"x":171404.88999999966,"y":2554514.3000000026}},{"attributes":{"ID":188384,"DIS_CODE":0,"TOWNNAME":"永康區","LI":"五王里","LIN":"5鄰","STREET":"中華二路","SECT":" ","MAREA":" ","LANE":"２０６巷","ALLEY":"５２弄","HOUSE_NO":"１１號","E_COORD97":171656.37,"N_COORD97":2545632.9900000002,"ADDRESS":"中華二路２０６巷５２弄１１號","OBJECTID":188383},"geometry":{"x":171656.37000000104,"y":2545632.9900000021}},{"attributes":{"ID":188385,"DIS_CODE":0,"TOWNNAME":"永康區","LI":"五王里","LIN":"5鄰","STREET":"中華二路","SECT":" ","MAREA":" ","LANE":"２０６巷","ALLEY":"５２弄","HOUSE_NO":"５號","E_COORD97":171635.48000000001,"N_COORD97":2545626.9900000002,"ADDRESS":"中華二路２０６巷５２弄５號","OBJECTID":188384},"geometry":{"x":171635.48000000138,"y":2545626.9900000002}},{"attributes":{"ID":188386,"DIS_CODE":0,"TOWNNAME":"永康區","LI":"二王里","LIN":"5鄰","STREET":"二王路","SECT":" ","MAREA":" ","LANE":"４０巷","ALLEY":"３弄","HOUSE_NO":"２６號","E_COORD97":172953.97,"N_COORD97":2546671.48,"ADDRESS":"二王路４０巷３弄２６號","OBJECTID":188385},"geometry":{"x":172953.96999999974,"y":2546671.4800000004}},{"attributes":{"ID":188387,"DIS_CODE":0,"TOWNNAME":"永康區","LI":"崑山里","LIN":"5鄰","STREET":"崑大路","SECT":" ","MAREA":" ","LANE":"１巷","ALLEY":" ","HOUSE_NO":"６６號","E_COORD97":173784.84,"N_COORD97":2544191.9399999999,"ADDRESS":"崑大路１巷６６號","OBJECTID":188386},"geometry":{"x":173784.84000000078,"y":2544191.9399999995}},{"attributes":{"ID":188388,"DIS_CODE":0,"TOWNNAME":"新市區","LI":"新和里","LIN":"21鄰","STREET":"中正路","SECT":" ","MAREA":" ","LANE":" ","ALLEY":" ","HOUSE_NO":"７２號","E_COORD97":177453.48999999999,"N_COORD97":2552412.5,"ADDRESS":"中正路７２號","OBJECTID":188387},"geometry":{"x":177453.49000000022,"y":2552412.5000000019}},{"attributes":{"ID":188389,"DIS_CODE":0,"TOWNNAME":"安定區","LI":"港南里","LIN":"21鄰","STREET":" ","SECT":" ","MAREA":"港口","LANE":" ","ALLEY":" ","HOUSE_NO":"１７１號","E_COORD97":171390.19437400001,"N_COORD97":2554530.12689,"ADDRESS":"港口１７１號","OBJECTID":188388},"geometry":{"x":171390.19437400158,"y":2554530.1268860027}},{"attributes":{"ID":188390,"DIS_CODE":0,"TOWNNAME":"安定區","LI":"蘇林里","LIN":"21鄰","STREET":" ","SECT":" ","MAREA":"蘇厝","LANE":" ","ALLEY":" ","HOUSE_NO":"２４５號之８","E_COORD97":173273,"N_COORD97":2558770.2999999998,"ADDRESS":"蘇厝２４５號之８","OBJECTID":188389},"geometry":{"x":173273,"y":2558770.3000000007}},{"attributes":{"ID":188391,"DIS_CODE":0,"TOWNNAME":"安定區","LI":"港南里","LIN":"21鄰","STREET":" ","SECT":" ","MAREA":"港口","LANE":" ","ALLEY":" ","HOUSE_NO":"１７７號","E_COORD97":171379.259666,"N_COORD97":2554524.2266799998,"ADDRESS":"港口１７７號","OBJECTID":188390},"geometry":{"x":171379.25966600142,"y":2554524.2266810033}},{"attributes":{"ID":188392,"DIS_CODE":0,"TOWNNAME":"仁德區","LI":"後壁里","LIN":"21鄰","STREET":"中正路","SECT":"二段","MAREA":" ","LANE":" ","ALLEY":" ","HOUSE_NO":"２７號","E_COORD97":173087.73999999999,"N_COORD97":2538294.27,"ADDRESS":"中正路二段２７號","OBJECTID":188391},"geometry":{"x":173087.74000000115,"y":2538294.2699999996}},{"attributes":{"ID":188393,"DIS_CODE":0,"TOWNNAME":"永康區","LI":"崑山里","LIN":"5鄰","STREET":"崑大路","SECT":" ","MAREA":" ","LANE":"１５５巷","ALLEY":"７９弄","HOUSE_NO":"１５號","E_COORD97":173666.42999999999,"N_COORD97":2544071.0899999999,"ADDRESS":"崑大路１５５巷７９弄１５號","OBJECTID":188392},"geometry":{"x":173666.4299999997,"y":2544071.0900000036}},{"attributes":{"ID":188394,"DIS_CODE":0,"TOWNNAME":"永康區","LI":"崑山里","LIN":"5鄰","STREET":"崑大路","SECT":" ","MAREA":" ","LANE":"１５５巷","ALLEY":"７９弄","HOUSE_NO":"８號","E_COORD97":173642.84,"N_COORD97":2544056.0499999998,"ADDRESS":"崑大路１５５巷７９弄８號","OBJECTID":188393},"geometry":{"x":173642.84000000078,"y":2544056.0500000026}},{"attributes":{"ID":188395,"DIS_CODE":0,"TOWNNAME":"仁德區","LI":"後壁里","LIN":"21鄰","STREET":"中正路","SECT":"二段","MAREA":" ","LANE":" ","ALLEY":" ","HOUSE_NO":"６３號","E_COORD97":173103.82000000001,"N_COORD97":2538402.02,"ADDRESS":"中正路二段６３號","OBJECTID":188394},"geometry":{"x":173103.82000000216,"y":2538402.0199999996}},{"attributes":{"ID":188396,"DIS_CODE":0,"TOWNNAME":"仁德區","LI":"後壁里","LIN":"21鄰","STREET":"中正路","SECT":"二段","MAREA":" ","LANE":" ","ALLEY":" ","HOUSE_NO":"３１號","E_COORD97":173087.35000000001,"N_COORD97":2538312.27,"ADDRESS":"中正路二段３１號","OBJECTID":188395},"geometry":{"x":173087.34999999963,"y":2538312.2699999996}},{"attributes":{"ID":188397,"DIS_CODE":0,"TOWNNAME":"仁德區","LI":"後壁里","LIN":"21鄰","STREET":"中正路","SECT":"二段","MAREA":" ","LANE":" ","ALLEY":" ","HOUSE_NO":"５９號","E_COORD97":173094.98999999999,"N_COORD97":2538394.77,"ADDRESS":"中正路二段５９號","OBJECTID":188396},"geometry":{"x":173094.99000000022,"y":2538394.7700000014}},{"attributes":{"ID":188398,"DIS_CODE":0,"TOWNNAME":"永康區","LI":"崑山里","LIN":"5鄰","STREET":"崑大路","SECT":" ","MAREA":" ","LANE":"１５５巷","ALLEY":"７９弄","HOUSE_NO":"７號","E_COORD97":173638.60000000001,"N_COORD97":2544062.5899999999,"ADDRESS":"崑大路１５５巷７９弄７號","OBJECTID":188397},"geometry":{"x":173638.60000000149,"y":2544062.5899999999}},{"attributes":{"ID":188399,"DIS_CODE":0,"TOWNNAME":"永康區","LI":"崑山里","LIN":"5鄰","STREET":"崑大路","SECT":" ","MAREA":" ","LANE":"１５５巷","ALLEY":"７３弄","HOUSE_NO":"８號","E_COORD97":173626.48999999999,"N_COORD97":2544076.23,"ADDRESS":"崑大路１５５巷７３弄８號","OBJECTID":188398},"geometry":{"x":173626.49000000115,"y":2544076.2300000004}},{"attributes":{"ID":188400,"DIS_CODE":0,"TOWNNAME":"永康區","LI":"正強里","LIN":"21鄰","STREET":"中正路","SECT":" ","MAREA":" ","LANE":" ","ALLEY":" ","HOUSE_NO":"８７號","E_COORD97":173503.06,"N_COORD97":2547853.9399999999,"ADDRESS":"中正路８７號","OBJECTID":188399},"geometry":{"x":173503.05999999866,"y":2547853.9399999995}},{"attributes":{"ID":188401,"DIS_CODE":0,"TOWNNAME":"東區","LI":"小東里","LIN":"15鄰","STREET":"光明街","SECT":" ","MAREA":" ","LANE":" ","ALLEY":" ","HOUSE_NO":"７４號","E_COORD97":170894.84,"N_COORD97":2544197.5,"ADDRESS":"光明街７４號","OBJECTID":188400},"geometry":{"x":170894.84000000078,"y":2544197.5000000019}}]}