{"displayFieldName":"TOWNNAME","fieldAliases":{"ID":"ID","DIS_CODE":"DIS_CODE","TOWNNAME":"TOWNNAME","LI":"LI","LIN":"LIN","STREET":"STREET","SECT":"SECT","MAREA":"MAREA","LANE":"LANE","ALLEY":"ALLEY","HOUSE_NO":"HOUSE_NO","E_COORD97":"E_COORD97","N_COORD97":"N_COORD97","ADDRESS":"ADDRESS","OBJECTID":"OBJECTID"},"geometryType":"esriGeometryPoint","spatialReference":{"wkid":102443,"latestWkid":3826},"fields":[{"name":"ID","type":"esriFieldTypeDouble","alias":"ID"},{"name":"DIS_CODE","type":"esriFieldTypeInteger","alias":"DIS_CODE"},{"name":"TOWNNAME","type":"esriFieldTypeString","alias":"TOWNNAME","length":8},{"name":"LI","type":"esriFieldTypeString","alias":"LI","length":8},{"name":"LIN","type":"esriFieldTypeString","alias":"LIN","length":12},{"name":"STREET","type":"esriFieldTypeString","alias":"STREET","length":20},{"name":"SECT","type":"esriFieldTypeString","alias":"SECT","length":8},{"name":"MAREA","type":"esriFieldTypeString","alias":"MAREA","length":12},{"name":"LANE","type":"esriFieldTypeString","alias":"LANE","length":10},{"name":"ALLEY","type":"esriFieldTypeString","alias":"ALLEY","length":10},{"name":"HOUSE_NO","type":"esriFieldTypeString","alias":"HOUSE_NO","length":20},{"name":"E_COORD97","type":"esriFieldTypeDouble","alias":"E_COORD97"},{"name":"N_COORD97","type":"esriFieldTypeDouble","alias":"N_COORD97"},{"name":"ADDRESS","type":"esriFieldTypeString","alias":"ADDRESS","length":50},{"name":"OBJECTID","type":"esriFieldTypeOID","alias":"OBJECTID"}],"features":[{"attributes":{"ID":518828,"DIS_CODE":0,"TOWNNAME":"安南區","LI":"城南里","LIN":"1鄰","STREET":"城西街","SECT":"一段","MAREA":" ","LANE":" ","ALLEY":" ","HOUSE_NO":"６７號","E_COORD97":160702.10000000001,"N_COORD97":2551398.9700000002,"ADDRESS":"城西街一段６７號","OBJECTID":518801},"geometry":{"x":160702.09999999963,"y":2551398.9699999988}},{"attributes":{"ID":518829,"DIS_CODE":0,"TOWNNAME":"安南區","LI":"城南里","LIN":"1鄰","STREET":"城西街","SECT":"一段","MAREA":" ","LANE":" ","ALLEY":" ","HOUSE_NO":"６８號","E_COORD97":160699.5,"N_COORD97":2551426.6600000001,"ADDRESS":"城西街一段６８號","OBJECTID":518802},"geometry":{"x":160699.5,"y":2551426.6600000001}},{"attributes":{"ID":518830,"DIS_CODE":0,"TOWNNAME":"安南區","LI":"城南里","LIN":"1鄰","STREET":"城西街","SECT":"一段","MAREA":" ","LANE":" ","ALLEY":" ","HOUSE_NO":"６９號","E_COORD97":160699.60999999999,"N_COORD97":2551395,"ADDRESS":"城西街一段６９號","OBJECTID":518803},"geometry":{"x":160699.61000000034,"y":2551395.0000000037}},{"attributes":{"ID":518831,"DIS_CODE":0,"TOWNNAME":"安南區","LI":"城南里","LIN":"1鄰","STREET":"城西街","SECT":"一段","MAREA":" ","LANE":" ","ALLEY":" ","HOUSE_NO":"７０號","E_COORD97":160696.98999999999,"N_COORD97":2551424.1499999999,"ADDRESS":"城西街一段７０號","OBJECTID":518804},"geometry":{"x":160696.99000000022,"y":2551424.1500000004}},{"attributes":{"ID":518832,"DIS_CODE":0,"TOWNNAME":"安南區","LI":"城南里","LIN":"1鄰","STREET":"城西街","SECT":"一段","MAREA":" ","LANE":" ","ALLEY":" ","HOUSE_NO":"７１號","E_COORD97":160694.89000000001,"N_COORD97":2551396.4900000002,"ADDRESS":"城西街一段７１號","OBJECTID":518805},"geometry":{"x":160694.88999999966,"y":2551396.4900000021}},{"attributes":{"ID":518833,"DIS_CODE":0,"TOWNNAME":"安南區","LI":"城南里","LIN":"1鄰","STREET":"城西街","SECT":"一段","MAREA":" ","LANE":" ","ALLEY":" ","HOUSE_NO":"７２號","E_COORD97":160694.76000000001,"N_COORD97":2551422.48,"ADDRESS":"城西街一段７２號","OBJECTID":518806},"geometry":{"x":160694.75999999885,"y":2551422.4799999986}},{"attributes":{"ID":518834,"DIS_CODE":0,"TOWNNAME":"安南區","LI":"城南里","LIN":"1鄰","STREET":"城西街","SECT":"一段","MAREA":" ","LANE":" ","ALLEY":" ","HOUSE_NO":"７３號","E_COORD97":160691.91,"N_COORD97":2551394.25,"ADDRESS":"城西街一段７３號","OBJECTID":518807},"geometry":{"x":160691.91000000015,"y":2551394.2500000019}},{"attributes":{"ID":518835,"DIS_CODE":0,"TOWNNAME":"安南區","LI":"城南里","LIN":"1鄰","STREET":"城西街","SECT":"一段","MAREA":" ","LANE":" ","ALLEY":" ","HOUSE_NO":"７４號","E_COORD97":160691.70000000001,"N_COORD97":2551420.54,"ADDRESS":"城西街一段７４號","OBJECTID":518808},"geometry":{"x":160691.70000000019,"y":2551420.5399999991}},{"attributes":{"ID":518836,"DIS_CODE":0,"TOWNNAME":"安南區","LI":"城南里","LIN":"1鄰","STREET":"城西街","SECT":"一段","MAREA":" ","LANE":" ","ALLEY":" ","HOUSE_NO":"７５號","E_COORD97":160689.42000000001,"N_COORD97":2551391.27,"ADDRESS":"城西街一段７５號","OBJECTID":518809},"geometry":{"x":160689.42000000086,"y":2551391.2699999996}},{"attributes":{"ID":518837,"DIS_CODE":0,"TOWNNAME":"安南區","LI":"城南里","LIN":"1鄰","STREET":"城西街","SECT":"一段","MAREA":" ","LANE":" ","ALLEY":" ","HOUSE_NO":"７６號","E_COORD97":160686.41,"N_COORD97":2551421.3700000001,"ADDRESS":"城西街一段７６號","OBJECTID":518810},"geometry":{"x":160686.41000000108,"y":2551421.3700000029}},{"attributes":{"ID":518838,"DIS_CODE":0,"TOWNNAME":"安南區","LI":"城南里","LIN":"1鄰","STREET":"城西街","SECT":"一段","MAREA":" ","LANE":" ","ALLEY":" ","HOUSE_NO":"７７號","E_COORD97":160684.70000000001,"N_COORD97":2551392.5099999998,"ADDRESS":"城西街一段７７號","OBJECTID":518811},"geometry":{"x":160684.70000000019,"y":2551392.5100000016}},{"attributes":{"ID":518839,"DIS_CODE":0,"TOWNNAME":"安南區","LI":"城南里","LIN":"1鄰","STREET":"城西街","SECT":"一段","MAREA":" ","LANE":" ","ALLEY":" ","HOUSE_NO":"７９號","E_COORD97":160682.45999999999,"N_COORD97":2551389.04,"ADDRESS":"城西街一段７９號","OBJECTID":518812},"geometry":{"x":160682.46000000089,"y":2551389.0399999991}},{"attributes":{"ID":518840,"DIS_CODE":0,"TOWNNAME":"安南區","LI":"城南里","LIN":"1鄰","STREET":"城西街","SECT":"一段","MAREA":" ","LANE":" ","ALLEY":" ","HOUSE_NO":"８１號","E_COORD97":160677.48999999999,"N_COORD97":2551390.7799999998,"ADDRESS":"城西街一段８１號","OBJECTID":518813},"geometry":{"x":160677.49000000115,"y":2551390.7799999993}},{"attributes":{"ID":518841,"DIS_CODE":0,"TOWNNAME":"安南區","LI":"城南里","LIN":"1鄰","STREET":"城西街","SECT":"一段","MAREA":" ","LANE":" ","ALLEY":" ","HOUSE_NO":"８２號","E_COORD97":160676.66,"N_COORD97":2551418.8700000001,"ADDRESS":"城西街一段８２號","OBJECTID":518814},"geometry":{"x":160676.66000000015,"y":2551418.8700000029}},{"attributes":{"ID":518842,"DIS_CODE":0,"TOWNNAME":"安南區","LI":"城南里","LIN":"1鄰","STREET":"城西街","SECT":"一段","MAREA":" ","LANE":" ","ALLEY":" ","HOUSE_NO":"８７號","E_COORD97":160665.98000000001,"N_COORD97":2551386.0600000001,"ADDRESS":"城西街一段８７號","OBJECTID":518815},"geometry":{"x":160665.98000000138,"y":2551386.0600000024}},{"attributes":{"ID":518843,"DIS_CODE":0,"TOWNNAME":"安南區","LI":"城南里","LIN":"1鄰","STREET":"城西街","SECT":"一段","MAREA":" ","LANE":" ","ALLEY":" ","HOUSE_NO":"８９號","E_COORD97":160662,"N_COORD97":2551384.3199999998,"ADDRESS":"城西街一段８９號","OBJECTID":518816},"geometry":{"x":160662.00000000093,"y":2551384.3200000022}},{"attributes":{"ID":518844,"DIS_CODE":0,"TOWNNAME":"新化區","LI":"武安里","LIN":"9鄰","STREET":"大同街","SECT":" ","MAREA":" ","LANE":" ","ALLEY":" ","HOUSE_NO":"１０５號","E_COORD97":178985.42999999999,"N_COORD97":2548295.25,"ADDRESS":"大同街１０５號","OBJECTID":518817},"geometry":{"x":178985.43000000063,"y":2548295.2500000019}},{"attributes":{"ID":518845,"DIS_CODE":0,"TOWNNAME":"新化區","LI":"豐榮里","LIN":"13鄰","STREET":"民治路","SECT":" ","MAREA":" ","LANE":" ","ALLEY":" ","HOUSE_NO":"１號","E_COORD97":178730.20999999999,"N_COORD97":2547968.25,"ADDRESS":"民治路１號","OBJECTID":518818},"geometry":{"x":178730.20999999996,"y":2547968.25}},{"attributes":{"ID":518846,"DIS_CODE":0,"TOWNNAME":"安南區","LI":"青草里","LIN":"1鄰","STREET":"青砂街","SECT":"二段","MAREA":" ","LANE":" ","ALLEY":" ","HOUSE_NO":"３０８號","E_COORD97":159177.62,"N_COORD97":2553124.1299999999,"ADDRESS":"青砂街二段３０８號","OBJECTID":518819},"geometry":{"x":159177.62000000104,"y":2553124.129999999}},{"attributes":{"ID":518847,"DIS_CODE":0,"TOWNNAME":"安南區","LI":"青草里","LIN":"1鄰","STREET":"青砂街","SECT":"二段","MAREA":" ","LANE":" ","ALLEY":" ","HOUSE_NO":"３１２號","E_COORD97":159155.10000000001,"N_COORD97":2553111.3100000001,"ADDRESS":"青砂街二段３１２號","OBJECTID":518820},"geometry":{"x":159155.10000000056,"y":2553111.3100000005}},{"attributes":{"ID":518848,"DIS_CODE":0,"TOWNNAME":"安南區","LI":"青草里","LIN":"1鄰","STREET":"青砂街","SECT":"二段","MAREA":" ","LANE":" ","ALLEY":" ","HOUSE_NO":"３２２號","E_COORD97":159139.12,"N_COORD97":2553110.79,"ADDRESS":"青砂街二段３２２號","OBJECTID":518821},"geometry":{"x":159139.12000000011,"y":2553110.7899999972}},{"attributes":{"ID":518849,"DIS_CODE":0,"TOWNNAME":"安南區","LI":"公\u25A0里","LIN":"1鄰","STREET":"安興街","SECT":" ","MAREA":" ","LANE":" ","ALLEY":" ","HOUSE_NO":"３４號","E_COORD97":164385.73000000001,"N_COORD97":2552286.1800000002,"ADDRESS":"安興街３４號","OBJECTID":518822},"geometry":{"x":164385.73000000045,"y":2552286.1800000016}},{"attributes":{"ID":518850,"DIS_CODE":0,"TOWNNAME":"安南區","LI":"砂崙里","LIN":"1鄰","STREET":"城北路","SECT":" ","MAREA":" ","LANE":" ","ALLEY":" ","HOUSE_NO":"７３３號","E_COORD97":160881.60000000001,"N_COORD97":2552980.23,"ADDRESS":"城北路７３３號","OBJECTID":518823},"geometry":{"x":160881.59999999963,"y":2552980.2300000004}},{"attributes":{"ID":518851,"DIS_CODE":0,"TOWNNAME":"安南區","LI":"南興里","LIN":"1鄰","STREET":"安中路","SECT":"五段","MAREA":" ","LANE":" ","ALLEY":" ","HOUSE_NO":"４７８號","E_COORD97":162308.04999999999,"N_COORD97":2551237.3500000001,"ADDRESS":"安中路五段４７８號","OBJECTID":518824},"geometry":{"x":162308.04999999981,"y":2551237.3500000015}},{"attributes":{"ID":518852,"DIS_CODE":0,"TOWNNAME":"安南區","LI":"南興里","LIN":"1鄰","STREET":"安中路","SECT":"五段","MAREA":" ","LANE":" ","ALLEY":" ","HOUSE_NO":"４８０號","E_COORD97":162297.92999999999,"N_COORD97":2551240.2400000002,"ADDRESS":"安中路五段４８０號","OBJECTID":518825},"geometry":{"x":162297.93000000063,"y":2551240.2400000002}},{"attributes":{"ID":518853,"DIS_CODE":0,"TOWNNAME":"安南區","LI":"城中里","LIN":"1鄰","STREET":"安中路","SECT":"六段","MAREA":" ","LANE":" ","ALLEY":" ","HOUSE_NO":"５３１號","E_COORD97":160902.23000000001,"N_COORD97":2551354.6000000001,"ADDRESS":"安中路六段５３１號","OBJECTID":518826},"geometry":{"x":160902.23000000045,"y":2551354.6000000015}},{"attributes":{"ID":518854,"DIS_CODE":0,"TOWNNAME":"安南區","LI":"溪心里","LIN":"1鄰","STREET":"安中路","SECT":"三段","MAREA":" ","LANE":" ","ALLEY":" ","HOUSE_NO":"２５號","E_COORD97":166307.73999999999,"N_COORD97":2549733.9199999999,"ADDRESS":"安中路三段２５號","OBJECTID":518827},"geometry":{"x":166307.74000000022,"y":2549733.9199999981}},{"attributes":{"ID":518855,"DIS_CODE":0,"TOWNNAME":"安南區","LI":"青草里","LIN":"1鄰","STREET":"青砂街","SECT":"二段","MAREA":" ","LANE":" ","ALLEY":" ","HOUSE_NO":"２９２號","E_COORD97":159577.07000000001,"N_COORD97":2553173.23,"ADDRESS":"青砂街二段２９２號","OBJECTID":518828},"geometry":{"x":159577.0700000003,"y":2553173.2300000004}},{"attributes":{"ID":518856,"DIS_CODE":0,"TOWNNAME":"安南區","LI":"溪心里","LIN":"1鄰","STREET":"安中路","SECT":"三段","MAREA":" ","LANE":" ","ALLEY":" ","HOUSE_NO":"１１號","E_COORD97":166328.87,"N_COORD97":2549729.2400000002,"ADDRESS":"安中路三段１１號","OBJECTID":518829},"geometry":{"x":166328.87000000011,"y":2549729.2400000021}},{"attributes":{"ID":518857,"DIS_CODE":0,"TOWNNAME":"安南區","LI":"溪心里","LIN":"1鄰","STREET":"安中路","SECT":"三段","MAREA":" ","LANE":" ","ALLEY":" ","HOUSE_NO":"９號","E_COORD97":166333.10000000001,"N_COORD97":2549727.2799999998,"ADDRESS":"安中路三段９號","OBJECTID":518830},"geometry":{"x":166333.10000000056,"y":2549727.2799999993}},{"attributes":{"ID":518858,"DIS_CODE":0,"TOWNNAME":"安南區","LI":"安順里","LIN":"1鄰","STREET":"安和路","SECT":"三段","MAREA":" ","LANE":" ","ALLEY":" ","HOUSE_NO":"２４３號","E_COORD97":169925.10999999999,"N_COORD97":2550020.0499999998,"ADDRESS":"安和路三段２４３號","OBJECTID":518831},"geometry":{"x":169925.1100000022,"y":2550020.0500000026}},{"attributes":{"ID":518859,"DIS_CODE":0,"TOWNNAME":"安南區","LI":"溪心里","LIN":"1鄰","STREET":"海佃路","SECT":"二段","MAREA":" ","LANE":" ","ALLEY":" ","HOUSE_NO":"７１１號","E_COORD97":166404.48000000001,"N_COORD97":2549663.4399999999,"ADDRESS":"海佃路二段７１１號","OBJECTID":518832},"geometry":{"x":166404.48000000045,"y":2549663.4400000013}},{"attributes":{"ID":518860,"DIS_CODE":0,"TOWNNAME":"安南區","LI":"溪心里","LIN":"1鄰","STREET":"海佃路","SECT":"二段","MAREA":" ","LANE":" ","ALLEY":" ","HOUSE_NO":"７０９號","E_COORD97":166407.51999999999,"N_COORD97":2549660.5800000001,"ADDRESS":"海佃路二段７０９號","OBJECTID":518833},"geometry":{"x":166407.52000000048,"y":2549660.5800000001}},{"attributes":{"ID":518861,"DIS_CODE":0,"TOWNNAME":"善化區","LI":"文正里","LIN":"1鄰","STREET":"進學路","SECT":" ","MAREA":" ","LANE":" ","ALLEY":" ","HOUSE_NO":"７３號","E_COORD97":177155.75,"N_COORD97":2559568.5,"ADDRESS":"進學路７３號","OBJECTID":518834},"geometry":{"x":177155.75000000093,"y":2559568.5}},{"attributes":{"ID":518862,"DIS_CODE":0,"TOWNNAME":"善化區","LI":"西關里","LIN":"1鄰","STREET":"三民路","SECT":" ","MAREA":" ","LANE":" ","ALLEY":" ","HOUSE_NO":"６４號","E_COORD97":177111.254182,"N_COORD97":2559051.92044,"ADDRESS":"三民路６４號","OBJECTID":518835},"geometry":{"x":177111.25418200158,"y":2559051.9204450008}},{"attributes":{"ID":518863,"DIS_CODE":0,"TOWNNAME":"善化區","LI":"北關里","LIN":"1鄰","STREET":"文正路","SECT":" ","MAREA":" ","LANE":" ","ALLEY":" ","HOUSE_NO":"４號之１","E_COORD97":176976.5,"N_COORD97":2559223.0299999998,"ADDRESS":"文正路４號之１","OBJECTID":518836},"geometry":{"x":176976.50000000093,"y":2559223.0300000012}},{"attributes":{"ID":518864,"DIS_CODE":0,"TOWNNAME":"善化區","LI":"北關里","LIN":"1鄰","STREET":"文正路","SECT":" ","MAREA":" ","LANE":" ","ALLEY":" ","HOUSE_NO":"６之５號","E_COORD97":177038.81,"N_COORD97":2559240.0299999998,"ADDRESS":"文正路６之５號","OBJECTID":518837},"geometry":{"x":177038.80999999959,"y":2559240.0300000012}},{"attributes":{"ID":518865,"DIS_CODE":0,"TOWNNAME":"善化區","LI":"北關里","LIN":"1鄰","STREET":"文正路","SECT":" ","MAREA":" ","LANE":" ","ALLEY":" ","HOUSE_NO":"６之２號","E_COORD97":177025.26000000001,"N_COORD97":2559240.5299999998,"ADDRESS":"文正路６之２號","OBJECTID":518838},"geometry":{"x":177025.26000000071,"y":2559240.5300000012}},{"attributes":{"ID":518866,"DIS_CODE":0,"TOWNNAME":"善化區","LI":"北關里","LIN":"1鄰","STREET":"文正路","SECT":" ","MAREA":" ","LANE":" ","ALLEY":" ","HOUSE_NO":"６之４號","E_COORD97":177034.10000000001,"N_COORD97":2559240.5299999998,"ADDRESS":"文正路６之４號","OBJECTID":518839},"geometry":{"x":177034.10000000149,"y":2559240.5300000012}},{"attributes":{"ID":518867,"DIS_CODE":0,"TOWNNAME":"善化區","LI":"文正里","LIN":"1鄰","STREET":"進學路","SECT":" ","MAREA":" ","LANE":" ","ALLEY":" ","HOUSE_NO":"８８號","E_COORD97":177224.88,"N_COORD97":2559360.75,"ADDRESS":"進學路８８號","OBJECTID":518840},"geometry":{"x":177224.87999999989,"y":2559360.7500000037}},{"attributes":{"ID":518868,"DIS_CODE":0,"TOWNNAME":"善化區","LI":"小新里","LIN":"1鄰","STREET":"成功路","SECT":" ","MAREA":" ","LANE":" ","ALLEY":" ","HOUSE_NO":"２７號","E_COORD97":180083.41,"N_COORD97":2558556.5,"ADDRESS":"成功路２７號","OBJECTID":518841},"geometry":{"x":180083.41000000015,"y":2558556.5000000019}},{"attributes":{"ID":518869,"DIS_CODE":0,"TOWNNAME":"善化區","LI":"文昌里","LIN":"1鄰","STREET":"大同路","SECT":" ","MAREA":" ","LANE":" ","ALLEY":" ","HOUSE_NO":"３７１號","E_COORD97":177319.95999999999,"N_COORD97":2558996.25,"ADDRESS":"大同路３７１號","OBJECTID":518842},"geometry":{"x":177319.95999999903,"y":2558996.25}},{"attributes":{"ID":518870,"DIS_CODE":0,"TOWNNAME":"善化區","LI":"坐駕里","LIN":"1鄰","STREET":"光明路","SECT":" ","MAREA":" ","LANE":" ","ALLEY":" ","HOUSE_NO":"５號","E_COORD97":177919.81,"N_COORD97":2559032,"ADDRESS":"光明路５號","OBJECTID":518843},"geometry":{"x":177919.81000000052,"y":2559032}},{"attributes":{"ID":518871,"DIS_CODE":0,"TOWNNAME":"善化區","LI":"文正里","LIN":"1鄰","STREET":"進學路","SECT":" ","MAREA":" ","LANE":" ","ALLEY":" ","HOUSE_NO":"１０１號","E_COORD97":177135.13,"N_COORD97":2559650,"ADDRESS":"進學路１０１號","OBJECTID":518844},"geometry":{"x":177135.12999999989,"y":2559650}},{"attributes":{"ID":518872,"DIS_CODE":0,"TOWNNAME":"善化區","LI":"文正里","LIN":"1鄰","STREET":"進學路","SECT":" ","MAREA":" ","LANE":" ","ALLEY":" ","HOUSE_NO":"７５號","E_COORD97":177155.10000000001,"N_COORD97":2559572.75,"ADDRESS":"進學路７５號","OBJECTID":518845},"geometry":{"x":177155.10000000056,"y":2559572.75}},{"attributes":{"ID":518873,"DIS_CODE":0,"TOWNNAME":"善化區","LI":"文正里","LIN":"1鄰","STREET":"進學路","SECT":" ","MAREA":" ","LANE":" ","ALLEY":" ","HOUSE_NO":"１６０號","E_COORD97":177182.44,"N_COORD97":2559660,"ADDRESS":"進學路１６０號","OBJECTID":518846},"geometry":{"x":177182.44000000134,"y":2559660}},{"attributes":{"ID":518874,"DIS_CODE":0,"TOWNNAME":"善化區","LI":"文昌里","LIN":"1鄰","STREET":"中興路","SECT":" ","MAREA":" ","LANE":" ","ALLEY":" ","HOUSE_NO":"１６５號","E_COORD97":177279.09,"N_COORD97":2559036.75,"ADDRESS":"中興路１６５號","OBJECTID":518847},"geometry":{"x":177279.09000000078,"y":2559036.7500000019}},{"attributes":{"ID":518875,"DIS_CODE":0,"TOWNNAME":"善化區","LI":"坐駕里","LIN":"1鄰","STREET":"光明路","SECT":" ","MAREA":" ","LANE":" ","ALLEY":" ","HOUSE_NO":"４１號","E_COORD97":177852.78,"N_COORD97":2558980.75,"ADDRESS":"光明路４１號","OBJECTID":518848},"geometry":{"x":177852.78000000119,"y":2558980.7499999981}},{"attributes":{"ID":518876,"DIS_CODE":0,"TOWNNAME":"善化區","LI":"文正里","LIN":"1鄰","STREET":"進學路","SECT":" ","MAREA":" ","LANE":" ","ALLEY":" ","HOUSE_NO":"６１號","E_COORD97":177198.92000000001,"N_COORD97":2559404.5,"ADDRESS":"進學路６１號","OBJECTID":518849},"geometry":{"x":177198.92000000086,"y":2559404.5000000019}},{"attributes":{"ID":518877,"DIS_CODE":0,"TOWNNAME":"善化區","LI":"文正里","LIN":"1鄰","STREET":"進學路","SECT":" ","MAREA":" ","LANE":" ","ALLEY":" ","HOUSE_NO":"６５號","E_COORD97":177161.42999999999,"N_COORD97":2559549.75,"ADDRESS":"進學路６５號","OBJECTID":518850},"geometry":{"x":177161.43000000063,"y":2559549.75}},{"attributes":{"ID":518878,"DIS_CODE":0,"TOWNNAME":"善化區","LI":"小新里","LIN":"1鄰","STREET":"成功路","SECT":" ","MAREA":" ","LANE":" ","ALLEY":" ","HOUSE_NO":"４１號","E_COORD97":180049.57000000001,"N_COORD97":2558565,"ADDRESS":"成功路４１號","OBJECTID":518851},"geometry":{"x":180049.57000000123,"y":2558565}},{"attributes":{"ID":518879,"DIS_CODE":0,"TOWNNAME":"善化區","LI":"文正里","LIN":"1鄰","STREET":"進學路","SECT":" ","MAREA":" ","LANE":" ","ALLEY":" ","HOUSE_NO":"６３號之２","E_COORD97":177138.35000000001,"N_COORD97":2559546.02,"ADDRESS":"進學路６３號之２","OBJECTID":518852},"geometry":{"x":177138.34999999963,"y":2559546.0200000014}},{"attributes":{"ID":518880,"DIS_CODE":0,"TOWNNAME":"善化區","LI":"文正里","LIN":"1鄰","STREET":"進學路","SECT":" ","MAREA":" ","LANE":" ","ALLEY":" ","HOUSE_NO":"５５號","E_COORD97":177198.88,"N_COORD97":2559390.75,"ADDRESS":"進學路５５號","OBJECTID":518853},"geometry":{"x":177198.88000000082,"y":2559390.75}},{"attributes":{"ID":518881,"DIS_CODE":0,"TOWNNAME":"善化區","LI":"坐駕里","LIN":"1鄰","STREET":"光明路","SECT":" ","MAREA":" ","LANE":" ","ALLEY":" ","HOUSE_NO":"２０號","E_COORD97":177850.06,"N_COORD97":2559026.5,"ADDRESS":"光明路２０號","OBJECTID":518854},"geometry":{"x":177850.06000000052,"y":2559026.4999999981}},{"attributes":{"ID":518882,"DIS_CODE":0,"TOWNNAME":"善化區","LI":"坐駕里","LIN":"1鄰","STREET":"光明路","SECT":" ","MAREA":" ","LANE":" ","ALLEY":" ","HOUSE_NO":"３９號","E_COORD97":177856.39999999999,"N_COORD97":2558983.25,"ADDRESS":"光明路３９號","OBJECTID":518855},"geometry":{"x":177856.40000000037,"y":2558983.25}},{"attributes":{"ID":518883,"DIS_CODE":0,"TOWNNAME":"善化區","LI":"文正里","LIN":"1鄰","STREET":"進學路","SECT":" ","MAREA":" ","LANE":" ","ALLEY":" ","HOUSE_NO":"１７０之１號","E_COORD97":177159.22,"N_COORD97":2559712.77,"ADDRESS":"進學路１７０之１號","OBJECTID":518856},"geometry":{"x":177159.22000000067,"y":2559712.7700000033}},{"attributes":{"ID":518884,"DIS_CODE":0,"TOWNNAME":"善化區","LI":"小新里","LIN":"1鄰","STREET":"成功路","SECT":" ","MAREA":" ","LANE":" ","ALLEY":" ","HOUSE_NO":"５１號","E_COORD97":180030.37,"N_COORD97":2558572.5,"ADDRESS":"成功路５１號","OBJECTID":518857},"geometry":{"x":180030.37000000104,"y":2558572.5000000037}},{"attributes":{"ID":518885,"DIS_CODE":0,"TOWNNAME":"善化區","LI":"小新里","LIN":"1鄰","STREET":"成功路","SECT":" ","MAREA":" ","LANE":" ","ALLEY":" ","HOUSE_NO":"２１號","E_COORD97":180135.26000000001,"N_COORD97":2558541.25,"ADDRESS":"成功路２１號","OBJECTID":518858},"geometry":{"x":180135.26000000164,"y":2558541.2500000019}},{"attributes":{"ID":518886,"DIS_CODE":0,"TOWNNAME":"善化區","LI":"文昌里","LIN":"1鄰","STREET":"大同路","SECT":" ","MAREA":" ","LANE":" ","ALLEY":" ","HOUSE_NO":"３７７號","E_COORD97":177327.01000000001,"N_COORD97":2559016,"ADDRESS":"大同路３７７號","OBJECTID":518859},"geometry":{"x":177327.01000000071,"y":2559016}},{"attributes":{"ID":518887,"DIS_CODE":0,"TOWNNAME":"善化區","LI":"坐駕里","LIN":"1鄰","STREET":"光明路","SECT":" ","MAREA":" ","LANE":" ","ALLEY":" ","HOUSE_NO":"３３號","E_COORD97":177867.28,"N_COORD97":2558991.5,"ADDRESS":"光明路３３號","OBJECTID":518860},"geometry":{"x":177867.28000000026,"y":2558991.5}},{"attributes":{"ID":518888,"DIS_CODE":0,"TOWNNAME":"善化區","LI":"小新里","LIN":"1鄰","STREET":"成功路","SECT":" ","MAREA":" ","LANE":" ","ALLEY":" ","HOUSE_NO":"２１之２號","E_COORD97":180125.87,"N_COORD97":2558544.52,"ADDRESS":"成功路２１之２號","OBJECTID":518861},"geometry":{"x":180125.87000000011,"y":2558544.5200000033}},{"attributes":{"ID":518889,"DIS_CODE":0,"TOWNNAME":"善化區","LI":"文昌里","LIN":"1鄰","STREET":"平等路","SECT":" ","MAREA":" ","LANE":" ","ALLEY":" ","HOUSE_NO":"２號","E_COORD97":177325.35999999999,"N_COORD97":2558986.5,"ADDRESS":"平等路２號","OBJECTID":518862},"geometry":{"x":177325.36000000127,"y":2558986.5000000019}},{"attributes":{"ID":518890,"DIS_CODE":0,"TOWNNAME":"善化區","LI":"小新里","LIN":"1鄰","STREET":"成功路","SECT":" ","MAREA":" ","LANE":" ","ALLEY":" ","HOUSE_NO":"２１號之３","E_COORD97":180120.45999999999,"N_COORD97":2558545.52,"ADDRESS":"成功路２１號之３","OBJECTID":518863},"geometry":{"x":180120.45999999903,"y":2558545.5200000014}},{"attributes":{"ID":518891,"DIS_CODE":0,"TOWNNAME":"善化區","LI":"小新里","LIN":"1鄰","STREET":"成功路","SECT":" ","MAREA":" ","LANE":" ","ALLEY":" ","HOUSE_NO":"２３號","E_COORD97":180091.01999999999,"N_COORD97":2558554.5,"ADDRESS":"成功路２３號","OBJECTID":518864},"geometry":{"x":180091.02000000142,"y":2558554.5}},{"attributes":{"ID":518892,"DIS_CODE":0,"TOWNNAME":"善化區","LI":"文正里","LIN":"1鄰","STREET":"進學路","SECT":" ","MAREA":" ","LANE":" ","ALLEY":" ","HOUSE_NO":"６７號","E_COORD97":177160.31,"N_COORD97":2559554,"ADDRESS":"進學路６７號","OBJECTID":518865},"geometry":{"x":177160.31000000052,"y":2559554}},{"attributes":{"ID":518893,"DIS_CODE":0,"TOWNNAME":"善化區","LI":"坐駕里","LIN":"1鄰","STREET":"光明路","SECT":" ","MAREA":" ","LANE":" ","ALLEY":" ","HOUSE_NO":"３５號","E_COORD97":177863.73000000001,"N_COORD97":2558989.25,"ADDRESS":"光明路３５號","OBJECTID":518866},"geometry":{"x":177863.73000000138,"y":2558989.2500000019}},{"attributes":{"ID":518894,"DIS_CODE":0,"TOWNNAME":"善化區","LI":"坐駕里","LIN":"1鄰","STREET":"光明路","SECT":" ","MAREA":" ","LANE":" ","ALLEY":" ","HOUSE_NO":"１８號","E_COORD97":177860.60000000001,"N_COORD97":2559033.75,"ADDRESS":"光明路１８號","OBJECTID":518867},"geometry":{"x":177860.59999999963,"y":2559033.75}},{"attributes":{"ID":518895,"DIS_CODE":0,"TOWNNAME":"善化區","LI":"西關里","LIN":"1鄰","STREET":"中興路","SECT":" ","MAREA":" ","LANE":" ","ALLEY":" ","HOUSE_NO":"２１１號","E_COORD97":177167.41,"N_COORD97":2559043.25,"ADDRESS":"中興路２１１號","OBJECTID":518868},"geometry":{"x":177167.41000000015,"y":2559043.2500000019}},{"attributes":{"ID":518896,"DIS_CODE":0,"TOWNNAME":"善化區","LI":"坐駕里","LIN":"1鄰","STREET":"中山路","SECT":" ","MAREA":" ","LANE":" ","ALLEY":" ","HOUSE_NO":"２８５之１號","E_COORD97":177871.34,"N_COORD97":2559065.52,"ADDRESS":"中山路２８５之１號","OBJECTID":518869},"geometry":{"x":177871.33999999985,"y":2559065.5199999996}},{"attributes":{"ID":518897,"DIS_CODE":0,"TOWNNAME":"善化區","LI":"西關里","LIN":"1鄰","STREET":"三民路","SECT":" ","MAREA":" ","LANE":" ","ALLEY":" ","HOUSE_NO":"５２號","E_COORD97":177106.53,"N_COORD97":2558998.0099999998,"ADDRESS":"三民路５２號","OBJECTID":518870},"geometry":{"x":177106.53000000119,"y":2558998.0099999998}},{"attributes":{"ID":518898,"DIS_CODE":0,"TOWNNAME":"善化區","LI":"北關里","LIN":"1鄰","STREET":"中山路","SECT":" ","MAREA":" ","LANE":" ","ALLEY":" ","HOUSE_NO":"５３４號","E_COORD97":177032,"N_COORD97":2559215,"ADDRESS":"中山路５３４號","OBJECTID":518871},"geometry":{"x":177032.00000000093,"y":2559215}},{"attributes":{"ID":518899,"DIS_CODE":0,"TOWNNAME":"善化區","LI":"坐駕里","LIN":"1鄰","STREET":"中山路","SECT":" ","MAREA":" ","LANE":" ","ALLEY":" ","HOUSE_NO":"３０５號","E_COORD97":177824.67999999999,"N_COORD97":2559069.5,"ADDRESS":"中山路３０５號","OBJECTID":518872},"geometry":{"x":177824.6799999997,"y":2559069.5}},{"attributes":{"ID":518900,"DIS_CODE":0,"TOWNNAME":"善化區","LI":"坐駕里","LIN":"1鄰","STREET":"中山路","SECT":" ","MAREA":" ","LANE":" ","ALLEY":" ","HOUSE_NO":"２８１號","E_COORD97":177905.14999999999,"N_COORD97":2559065.25,"ADDRESS":"中山路２８１號","OBJECTID":518873},"geometry":{"x":177905.15000000037,"y":2559065.25}},{"attributes":{"ID":518901,"DIS_CODE":0,"TOWNNAME":"善化區","LI":"坐駕里","LIN":"1鄰","STREET":"中山路","SECT":" ","MAREA":" ","LANE":" ","ALLEY":" ","HOUSE_NO":"２８５之３號","E_COORD97":177864.32999999999,"N_COORD97":2559068.27,"ADDRESS":"中山路２８５之３號","OBJECTID":518874},"geometry":{"x":177864.33000000101,"y":2559068.2699999977}},{"attributes":{"ID":518902,"DIS_CODE":0,"TOWNNAME":"善化區","LI":"東關里","LIN":"1鄰","STREET":"中正路","SECT":" ","MAREA":" ","LANE":" ","ALLEY":" ","HOUSE_NO":"６８１號","E_COORD97":177599.06,"N_COORD97":2559773.75,"ADDRESS":"中正路６８１號","OBJECTID":518875},"geometry":{"x":177599.06000000052,"y":2559773.75}},{"attributes":{"ID":518903,"DIS_CODE":0,"TOWNNAME":"善化區","LI":"東關里","LIN":"1鄰","STREET":"中正路","SECT":" ","MAREA":" ","LANE":" ","ALLEY":" ","HOUSE_NO":"６５９號","E_COORD97":177635.17000000001,"N_COORD97":2559547.25,"ADDRESS":"中正路６５９號","OBJECTID":518876},"geometry":{"x":177635.16999999993,"y":2559547.2500000037}},{"attributes":{"ID":518904,"DIS_CODE":0,"TOWNNAME":"善化區","LI":"西關里","LIN":"1鄰","STREET":"三民路","SECT":" ","MAREA":" ","LANE":" ","ALLEY":" ","HOUSE_NO":"５４號之１","E_COORD97":177106.37,"N_COORD97":2559011.02,"ADDRESS":"三民路５４號之１","OBJECTID":518877},"geometry":{"x":177106.37000000104,"y":2559011.0199999996}},{"attributes":{"ID":518905,"DIS_CODE":0,"TOWNNAME":"善化區","LI":"坐駕里","LIN":"1鄰","STREET":"中山路","SECT":" ","MAREA":" ","LANE":" ","ALLEY":" ","HOUSE_NO":"３０１之１號","E_COORD97":177834.20000000001,"N_COORD97":2559068.02,"ADDRESS":"中山路３０１之１號","OBJECTID":518878},"geometry":{"x":177834.20000000112,"y":2559068.0200000014}},{"attributes":{"ID":518906,"DIS_CODE":0,"TOWNNAME":"善化區","LI":"坐駕里","LIN":"1鄰","STREET":"中山路","SECT":" ","MAREA":" ","LANE":" ","ALLEY":" ","HOUSE_NO":"２８９號之１","E_COORD97":177848.70000000001,"N_COORD97":2559066.77,"ADDRESS":"中山路２８９號之１","OBJECTID":518879},"geometry":{"x":177848.70000000019,"y":2559066.7699999996}},{"attributes":{"ID":518907,"DIS_CODE":0,"TOWNNAME":"善化區","LI":"東關里","LIN":"1鄰","STREET":"中正路","SECT":" ","MAREA":" ","LANE":" ","ALLEY":" ","HOUSE_NO":"５４５號","E_COORD97":177663.48000000001,"N_COORD97":2559226.5,"ADDRESS":"中正路５４５號","OBJECTID":518880},"geometry":{"x":177663.48000000138,"y":2559226.4999999981}},{"attributes":{"ID":518908,"DIS_CODE":0,"TOWNNAME":"善化區","LI":"東關里","LIN":"1鄰","STREET":"中正路","SECT":" ","MAREA":" ","LANE":" ","ALLEY":" ","HOUSE_NO":"６５５號","E_COORD97":177635.92000000001,"N_COORD97":2559539,"ADDRESS":"中正路６５５號","OBJECTID":518881},"geometry":{"x":177635.92000000086,"y":2559539.0000000019}},{"attributes":{"ID":518909,"DIS_CODE":0,"TOWNNAME":"善化區","LI":"西關里","LIN":"1鄰","STREET":"三民路","SECT":" ","MAREA":" ","LANE":" ","ALLEY":" ","HOUSE_NO":"５４號之３","E_COORD97":177107.64999999999,"N_COORD97":2559020.27,"ADDRESS":"三民路５４號之３","OBJECTID":518882},"geometry":{"x":177107.6500000013,"y":2559020.2699999996}},{"attributes":{"ID":518910,"DIS_CODE":0,"TOWNNAME":"善化區","LI":"北關里","LIN":"1鄰","STREET":"中山路","SECT":" ","MAREA":" ","LANE":" ","ALLEY":" ","HOUSE_NO":"５３０號","E_COORD97":177041.60999999999,"N_COORD97":2559182,"ADDRESS":"中山路５３０號","OBJECTID":518883},"geometry":{"x":177041.61000000127,"y":2559182}},{"attributes":{"ID":518911,"DIS_CODE":0,"TOWNNAME":"善化區","LI":"南關里","LIN":"1鄰","STREET":"三民路","SECT":" ","MAREA":" ","LANE":" ","ALLEY":" ","HOUSE_NO":"３４號之２","E_COORD97":177094.67000000001,"N_COORD97":2558949.77,"ADDRESS":"三民路３４號之２","OBJECTID":518884},"geometry":{"x":177094.66999999993,"y":2558949.7700000033}},{"attributes":{"ID":518912,"DIS_CODE":0,"TOWNNAME":"善化區","LI":"東關里","LIN":"1鄰","STREET":"中正路","SECT":" ","MAREA":" ","LANE":" ","ALLEY":" ","HOUSE_NO":"５２５號之１","E_COORD97":177672.82000000001,"N_COORD97":2559120.52,"ADDRESS":"中正路５２５號之１","OBJECTID":518885},"geometry":{"x":177672.82000000123,"y":2559120.5199999996}},{"attributes":{"ID":518913,"DIS_CODE":0,"TOWNNAME":"善化區","LI":"東關里","LIN":"1鄰","STREET":"中正路","SECT":" ","MAREA":" ","LANE":" ","ALLEY":" ","HOUSE_NO":"６４５號","E_COORD97":177637.44,"N_COORD97":2559516.25,"ADDRESS":"中正路６４５號","OBJECTID":518886},"geometry":{"x":177637.44000000041,"y":2559516.25}},{"attributes":{"ID":518914,"DIS_CODE":0,"TOWNNAME":"東區","LI":"莊敬里","LIN":"1鄰","STREET":"小東路","SECT":" ","MAREA":" ","LANE":" ","ALLEY":" ","HOUSE_NO":"２５０號之２","E_COORD97":171078.89999999999,"N_COORD97":2544377.25,"ADDRESS":"小東路２５０號之２","OBJECTID":518887},"geometry":{"x":171078.90000000037,"y":2544377.25}},{"attributes":{"ID":518915,"DIS_CODE":0,"TOWNNAME":"東區","LI":"莊敬里","LIN":"1鄰","STREET":"小東路","SECT":" ","MAREA":" ","LANE":" ","ALLEY":" ","HOUSE_NO":"２５０號之３","E_COORD97":171086.98999999999,"N_COORD97":2544374.8399999999,"ADDRESS":"小東路２５０號之３","OBJECTID":518888},"geometry":{"x":171086.99000000209,"y":2544374.8400000017}},{"attributes":{"ID":518916,"DIS_CODE":0,"TOWNNAME":"東區","LI":"莊敬里","LIN":"1鄰","STREET":"小東路","SECT":" ","MAREA":" ","LANE":" ","ALLEY":" ","HOUSE_NO":"２５０號之４","E_COORD97":171094.76999999999,"N_COORD97":2544372.25,"ADDRESS":"小東路２５０號之４","OBJECTID":518889},"geometry":{"x":171094.77000000048,"y":2544372.2500000019}},{"attributes":{"ID":518917,"DIS_CODE":0,"TOWNNAME":"東區","LI":"莊敬里","LIN":"1鄰","STREET":"小東路","SECT":" ","MAREA":" ","LANE":" ","ALLEY":" ","HOUSE_NO":"２５６號","E_COORD97":171140.38,"N_COORD97":2544351.4700000002,"ADDRESS":"小東路２５６號","OBJECTID":518890},"geometry":{"x":171140.38000000082,"y":2544351.4700000025}},{"attributes":{"ID":518918,"DIS_CODE":0,"TOWNNAME":"東區","LI":"東光里","LIN":"1鄰","STREET":"東光路","SECT":"一段","MAREA":" ","LANE":" ","ALLEY":" ","HOUSE_NO":"３號","E_COORD97":171126.09,"N_COORD97":2543343.8799999999,"ADDRESS":"東光路一段３號","OBJECTID":518891},"geometry":{"x":171126.08999999985,"y":2543343.8800000008}},{"attributes":{"ID":518919,"DIS_CODE":0,"TOWNNAME":"東區","LI":"中西里","LIN":"1鄰","STREET":"長榮路","SECT":"二段","MAREA":" ","LANE":" ","ALLEY":" ","HOUSE_NO":"５號","E_COORD97":169909.14999999999,"N_COORD97":2543058.6800000002,"ADDRESS":"長榮路二段５號","OBJECTID":518892},"geometry":{"x":169909.15000000037,"y":2543058.6799999997}},{"attributes":{"ID":518920,"DIS_CODE":0,"TOWNNAME":"東區","LI":"中西里","LIN":"1鄰","STREET":"長榮路","SECT":"二段","MAREA":" ","LANE":" ","ALLEY":" ","HOUSE_NO":"７號","E_COORD97":169912.26999999999,"N_COORD97":2543063.9700000002,"ADDRESS":"長榮路二段７號","OBJECTID":518893},"geometry":{"x":169912.26999999955,"y":2543063.9700000025}},{"attributes":{"ID":518921,"DIS_CODE":0,"TOWNNAME":"東區","LI":"中西里","LIN":"1鄰","STREET":"長榮路","SECT":"二段","MAREA":" ","LANE":" ","ALLEY":" ","HOUSE_NO":"７號之１","E_COORD97":169914.22,"N_COORD97":2543070.4300000002,"ADDRESS":"長榮路二段７號之１","OBJECTID":518894},"geometry":{"x":169914.22000000067,"y":2543070.4299999997}},{"attributes":{"ID":518922,"DIS_CODE":0,"TOWNNAME":"東區","LI":"莊敬里","LIN":"1鄰","STREET":"小東路","SECT":" ","MAREA":" ","LANE":" ","ALLEY":" ","HOUSE_NO":"２４８號之１２","E_COORD97":171059.51999999999,"N_COORD97":2544383.27,"ADDRESS":"小東路２４８號之１２","OBJECTID":518895},"geometry":{"x":171059.52000000048,"y":2544383.2699999996}},{"attributes":{"ID":518923,"DIS_CODE":0,"TOWNNAME":"東區","LI":"東光里","LIN":"1鄰","STREET":"東光路","SECT":"一段","MAREA":" ","LANE":" ","ALLEY":" ","HOUSE_NO":"１號","E_COORD97":171125.63,"N_COORD97":2543338.5699999998,"ADDRESS":"東光路一段１號","OBJECTID":518896},"geometry":{"x":171125.62999999989,"y":2543338.5700000003}},{"attributes":{"ID":518924,"DIS_CODE":0,"TOWNNAME":"東區","LI":"和平里","LIN":"1鄰","STREET":"仁和路","SECT":" ","MAREA":" ","LANE":" ","ALLEY":" ","HOUSE_NO":"２３號","E_COORD97":171054.84,"N_COORD97":2542183.9500000002,"ADDRESS":"仁和路２３號","OBJECTID":518897},"geometry":{"x":171054.83999999985,"y":2542183.9500000011}},{"attributes":{"ID":518925,"DIS_CODE":0,"TOWNNAME":"東區","LI":"裕農里","LIN":"1鄰","STREET":"裕農路","SECT":" ","MAREA":" ","LANE":" ","ALLEY":" ","HOUSE_NO":"９５號","E_COORD97":170777.42999999999,"N_COORD97":2542957.0899999999,"ADDRESS":"裕農路９５號","OBJECTID":518898},"geometry":{"x":170777.43000000063,"y":2542957.0900000017}},{"attributes":{"ID":518926,"DIS_CODE":0,"TOWNNAME":"東區","LI":"後甲里","LIN":"1鄰","STREET":"裕農路","SECT":" ","MAREA":" ","LANE":" ","ALLEY":" ","HOUSE_NO":"７７３號","E_COORD97":171906.14000000001,"N_COORD97":2543273,"ADDRESS":"裕農路７７３號","OBJECTID":518899},"geometry":{"x":171906.1400000006,"y":2543273.0000000019}},{"attributes":{"ID":518927,"DIS_CODE":0,"TOWNNAME":"東區","LI":"後甲里","LIN":"1鄰","STREET":"裕農路","SECT":" ","MAREA":" ","LANE":" ","ALLEY":" ","HOUSE_NO":"７７５號","E_COORD97":171910.25,"N_COORD97":2543273.9500000002,"ADDRESS":"裕農路７７５號","OBJECTID":518900},"geometry":{"x":171910.25,"y":2543273.9499999993}},{"attributes":{"ID":518928,"DIS_CODE":0,"TOWNNAME":"東區","LI":"後甲里","LIN":"1鄰","STREET":"裕農路","SECT":" ","MAREA":" ","LANE":" ","ALLEY":" ","HOUSE_NO":"７７７號","E_COORD97":171914.98000000001,"N_COORD97":2543272.3700000001,"ADDRESS":"裕農路７７７號","OBJECTID":518901},"geometry":{"x":171914.98000000138,"y":2543272.370000001}},{"attributes":{"ID":518929,"DIS_CODE":0,"TOWNNAME":"東區","LI":"富強里","LIN":"1鄰","STREET":"裕農路","SECT":" ","MAREA":" ","LANE":" ","ALLEY":" ","HOUSE_NO":"２９６號之９","E_COORD97":170852.31,"N_COORD97":2542958.7200000002,"ADDRESS":"裕農路２９６號之９","OBJECTID":518902},"geometry":{"x":170852.31000000052,"y":2542958.7199999988}},{"attributes":{"ID":518930,"DIS_CODE":0,"TOWNNAME":"東區","LI":"自強里","LIN":"1鄰","STREET":"富農街","SECT":"一段","MAREA":" ","LANE":" ","ALLEY":" ","HOUSE_NO":"６１號","E_COORD97":171490.70999999999,"N_COORD97":2542305.2000000002,"ADDRESS":"富農街一段６１號","OBJECTID":518903},"geometry":{"x":171490.71000000089,"y":2542305.1999999993}},{"attributes":{"ID":518931,"DIS_CODE":0,"TOWNNAME":"東區","LI":"自強里","LIN":"1鄰","STREET":"富農街","SECT":"一段","MAREA":" ","LANE":" ","ALLEY":" ","HOUSE_NO":"６３號","E_COORD97":171490.01999999999,"N_COORD97":2542309.8900000001,"ADDRESS":"富農街一段６３號","OBJECTID":518904},"geometry":{"x":171490.02000000048,"y":2542309.8899999987}},{"attributes":{"ID":518932,"DIS_CODE":0,"TOWNNAME":"東區","LI":"自強里","LIN":"1鄰","STREET":"富農街","SECT":"一段","MAREA":" ","LANE":" ","ALLEY":" ","HOUSE_NO":"６９號","E_COORD97":171489.14999999999,"N_COORD97":2542322.0299999998,"ADDRESS":"富農街一段６９號","OBJECTID":518905},"geometry":{"x":171489.15000000037,"y":2542322.0300000012}},{"attributes":{"ID":518933,"DIS_CODE":0,"TOWNNAME":"東區","LI":"自強里","LIN":"1鄰","STREET":"富農街","SECT":"一段","MAREA":" ","LANE":" ","ALLEY":" ","HOUSE_NO":"７１號","E_COORD97":171489.14999999999,"N_COORD97":2542326.1899999999,"ADDRESS":"富農街一段７１號","OBJECTID":518906},"geometry":{"x":171489.15000000037,"y":2542326.1899999995}},{"attributes":{"ID":518934,"DIS_CODE":0,"TOWNNAME":"東區","LI":"自強里","LIN":"1鄰","STREET":"富農街","SECT":"一段","MAREA":" ","LANE":" ","ALLEY":" ","HOUSE_NO":"７３號","E_COORD97":171489.14999999999,"N_COORD97":2542331.5600000001,"ADDRESS":"富農街一段７３號","OBJECTID":518907},"geometry":{"x":171489.15000000037,"y":2542331.5600000005}},{"attributes":{"ID":518935,"DIS_CODE":0,"TOWNNAME":"東區","LI":"自強里","LIN":"1鄰","STREET":"富農街","SECT":"一段","MAREA":" ","LANE":" ","ALLEY":" ","HOUSE_NO":"７５號","E_COORD97":171489.67000000001,"N_COORD97":2542335.3799999999,"ADDRESS":"富農街一段７５號","OBJECTID":518908},"geometry":{"x":171489.67000000086,"y":2542335.3799999971}},{"attributes":{"ID":518936,"DIS_CODE":0,"TOWNNAME":"東區","LI":"自強里","LIN":"1鄰","STREET":"富農街","SECT":"一段","MAREA":" ","LANE":" ","ALLEY":" ","HOUSE_NO":"７７號","E_COORD97":171490.54000000001,"N_COORD97":2542339.54,"ADDRESS":"富農街一段７７號","OBJECTID":518909},"geometry":{"x":171490.54000000097,"y":2542339.540000001}},{"attributes":{"ID":518937,"DIS_CODE":0,"TOWNNAME":"東區","LI":"自強里","LIN":"1鄰","STREET":"富農街","SECT":"一段","MAREA":" ","LANE":" ","ALLEY":" ","HOUSE_NO":"７９號","E_COORD97":171490.89000000001,"N_COORD97":2542344.7400000002,"ADDRESS":"富農街一段７９號","OBJECTID":518910},"geometry":{"x":171490.8900000006,"y":2542344.7400000039}},{"attributes":{"ID":518938,"DIS_CODE":0,"TOWNNAME":"東區","LI":"自強里","LIN":"1鄰","STREET":"富農街","SECT":"一段","MAREA":" ","LANE":" ","ALLEY":" ","HOUSE_NO":"８１號","E_COORD97":171492.28,"N_COORD97":2542349.6899999999,"ADDRESS":"富農街一段８１號","OBJECTID":518911},"geometry":{"x":171492.28000000119,"y":2542349.6899999995}},{"attributes":{"ID":518939,"DIS_CODE":0,"TOWNNAME":"東區","LI":"自強里","LIN":"1鄰","STREET":"富農街","SECT":"一段","MAREA":" ","LANE":" ","ALLEY":" ","HOUSE_NO":"８３號","E_COORD97":171493.14999999999,"N_COORD97":2542355.0600000001,"ADDRESS":"富農街一段８３號","OBJECTID":518912},"geometry":{"x":171493.1500000013,"y":2542355.0600000005}},{"attributes":{"ID":518940,"DIS_CODE":0,"TOWNNAME":"東區","LI":"自強里","LIN":"1鄰","STREET":"富農街","SECT":"一段","MAREA":" ","LANE":" ","ALLEY":" ","HOUSE_NO":"８５號","E_COORD97":171494.19,"N_COORD97":2542359.2200000002,"ADDRESS":"富農街一段８５號","OBJECTID":518913},"geometry":{"x":171494.19000000041,"y":2542359.2200000025}},{"attributes":{"ID":518941,"DIS_CODE":0,"TOWNNAME":"東區","LI":"自強里","LIN":"1鄰","STREET":"富農街","SECT":"一段","MAREA":" ","LANE":" ","ALLEY":" ","HOUSE_NO":"８７號","E_COORD97":171494.01000000001,"N_COORD97":2542372.75,"ADDRESS":"富農街一段８７號","OBJECTID":518914},"geometry":{"x":171494.01000000071,"y":2542372.7500000019}},{"attributes":{"ID":518942,"DIS_CODE":0,"TOWNNAME":"東區","LI":"後甲里","LIN":"1鄰","STREET":"裕農路","SECT":" ","MAREA":" ","LANE":" ","ALLEY":" ","HOUSE_NO":"７８１號","E_COORD97":171922.56,"N_COORD97":2543276.1499999999,"ADDRESS":"裕農路７８１號","OBJECTID":518915},"geometry":{"x":171922.55999999959,"y":2543276.1500000004}},{"attributes":{"ID":518943,"DIS_CODE":0,"TOWNNAME":"東區","LI":"關聖里","LIN":"1鄰","STREET":"富農街","SECT":"二段","MAREA":" ","LANE":" ","ALLEY":" ","HOUSE_NO":"８６號","E_COORD97":171644.85999999999,"N_COORD97":2543022.27,"ADDRESS":"富農街二段８６號","OBJECTID":518916},"geometry":{"x":171644.86000000034,"y":2543022.2700000014}},{"attributes":{"ID":518944,"DIS_CODE":0,"TOWNNAME":"東區","LI":"關聖里","LIN":"1鄰","STREET":"富農街","SECT":"二段","MAREA":" ","LANE":" ","ALLEY":" ","HOUSE_NO":"８８號","E_COORD97":171644.85999999999,"N_COORD97":2543026.8599999999,"ADDRESS":"富農街二段８８號","OBJECTID":518917},"geometry":{"x":171644.86000000034,"y":2543026.8599999994}},{"attributes":{"ID":518945,"DIS_CODE":0,"TOWNNAME":"東區","LI":"關聖里","LIN":"1鄰","STREET":"富農街","SECT":"二段","MAREA":" ","LANE":" ","ALLEY":" ","HOUSE_NO":"９０號","E_COORD97":171644.23000000001,"N_COORD97":2543031.6699999999,"ADDRESS":"富農街二段９０號","OBJECTID":518918},"geometry":{"x":171644.23000000045,"y":2543031.6699999999}},{"attributes":{"ID":518946,"DIS_CODE":0,"TOWNNAME":"東區","LI":"關聖里","LIN":"1鄰","STREET":"富農街","SECT":"二段","MAREA":" ","LANE":" ","ALLEY":" ","HOUSE_NO":"８２號","E_COORD97":171644.44,"N_COORD97":2543012.8700000001,"ADDRESS":"富農街二段８２號","OBJECTID":518919},"geometry":{"x":171644.44000000041,"y":2543012.8700000029}},{"attributes":{"ID":518947,"DIS_CODE":0,"TOWNNAME":"東區","LI":"關聖里","LIN":"1鄰","STREET":"富農街","SECT":"二段","MAREA":" ","LANE":" ","ALLEY":" ","HOUSE_NO":"７６號","E_COORD97":171644.44,"N_COORD97":2542999.71,"ADDRESS":"富農街二段７６號","OBJECTID":518920},"geometry":{"x":171644.44000000041,"y":2542999.709999999}},{"attributes":{"ID":518948,"DIS_CODE":0,"TOWNNAME":"東區","LI":"自強里","LIN":"1鄰","STREET":"富農街","SECT":"一段","MAREA":" ","LANE":" ","ALLEY":" ","HOUSE_NO":"６５號","E_COORD97":171489.67000000001,"N_COORD97":2542313.7000000002,"ADDRESS":"富農街一段６５號","OBJECTID":518921},"geometry":{"x":171489.67000000086,"y":2542313.7000000011}},{"attributes":{"ID":518949,"DIS_CODE":0,"TOWNNAME":"東區","LI":"自強里","LIN":"1鄰","STREET":"富農街","SECT":"一段","MAREA":" ","LANE":" ","ALLEY":" ","HOUSE_NO":"６７號","E_COORD97":171489.5,"N_COORD97":2542318.21,"ADDRESS":"富農街一段６７號","OBJECTID":518922},"geometry":{"x":171489.5,"y":2542318.209999999}},{"attributes":{"ID":518950,"DIS_CODE":0,"TOWNNAME":"東區","LI":"仁和里","LIN":"1鄰","STREET":"仁和路","SECT":" ","MAREA":" ","LANE":" ","ALLEY":" ","HOUSE_NO":"１０５號之６","E_COORD97":171357.14000000001,"N_COORD97":2541336.1099999999,"ADDRESS":"仁和路１０５號之６","OBJECTID":518923},"geometry":{"x":171357.1400000006,"y":2541336.1099999994}},{"attributes":{"ID":518951,"DIS_CODE":0,"TOWNNAME":"東區","LI":"仁和里","LIN":"1鄰","STREET":"仁和路","SECT":" ","MAREA":" ","LANE":" ","ALLEY":" ","HOUSE_NO":"１０５號之５","E_COORD97":171354.54000000001,"N_COORD97":2541341.3100000001,"ADDRESS":"仁和路１０５號之５","OBJECTID":518924},"geometry":{"x":171354.54000000097,"y":2541341.3100000024}},{"attributes":{"ID":518952,"DIS_CODE":0,"TOWNNAME":"東區","LI":"仁和里","LIN":"1鄰","STREET":"仁和路","SECT":" ","MAREA":" ","LANE":" ","ALLEY":" ","HOUSE_NO":"１０５號之７","E_COORD97":171359.92000000001,"N_COORD97":2541332.2200000002,"ADDRESS":"仁和路１０５號之７","OBJECTID":518925},"geometry":{"x":171359.91999999899,"y":2541332.2200000025}},{"attributes":{"ID":518953,"DIS_CODE":0,"TOWNNAME":"東區","LI":"仁和里","LIN":"1鄰","STREET":"仁和路","SECT":" ","MAREA":" ","LANE":" ","ALLEY":" ","HOUSE_NO":"１０５號之９","E_COORD97":171363.64000000001,"N_COORD97":2541324.7999999998,"ADDRESS":"仁和路１０５號之９","OBJECTID":518926},"geometry":{"x":171363.6400000006,"y":2541324.8000000026}},{"attributes":{"ID":518954,"DIS_CODE":0,"TOWNNAME":"東區","LI":"仁和里","LIN":"1鄰","STREET":"仁和路","SECT":" ","MAREA":" ","LANE":" ","ALLEY":" ","HOUSE_NO":"１０５號之１１","E_COORD97":171368.28,"N_COORD97":2541317.5699999998,"ADDRESS":"仁和路１０５號之１１","OBJECTID":518927},"geometry":{"x":171368.28000000119,"y":2541317.5700000003}},{"attributes":{"ID":518955,"DIS_CODE":0,"TOWNNAME":"東區","LI":"仁和里","LIN":"1鄰","STREET":"仁和路","SECT":" ","MAREA":" ","LANE":" ","ALLEY":" ","HOUSE_NO":"１０５號之８","E_COORD97":171361.78,"N_COORD97":2541328.3199999998,"ADDRESS":"仁和路１０５號之８","OBJECTID":518928},"geometry":{"x":171361.78000000119,"y":2541328.3200000022}},{"attributes":{"ID":518956,"DIS_CODE":0,"TOWNNAME":"東區","LI":"仁和里","LIN":"1鄰","STREET":"仁和路","SECT":" ","MAREA":" ","LANE":" ","ALLEY":" ","HOUSE_NO":"１０５號之１０","E_COORD97":171366.23999999999,"N_COORD97":2541321.2799999998,"ADDRESS":"仁和路１０５號之１０","OBJECTID":518929},"geometry":{"x":171366.24000000022,"y":2541321.2799999993}},{"attributes":{"ID":518957,"DIS_CODE":0,"TOWNNAME":"東區","LI":"仁和里","LIN":"1鄰","STREET":"仁和路","SECT":" ","MAREA":" ","LANE":" ","ALLEY":" ","HOUSE_NO":"１０５號之１２","E_COORD97":171371.06,"N_COORD97":2541315.3399999999,"ADDRESS":"仁和路１０５號之１２","OBJECTID":518930},"geometry":{"x":171371.06000000052,"y":2541315.3399999999}},{"attributes":{"ID":518958,"DIS_CODE":0,"TOWNNAME":"東區","LI":"南聖里","LIN":"1鄰","STREET":"裕農路","SECT":" ","MAREA":" ","LANE":" ","ALLEY":" ","HOUSE_NO":"７１６號","E_COORD97":171828.64000000001,"N_COORD97":2543228.79,"ADDRESS":"裕農路７１６號","OBJECTID":518931},"geometry":{"x":171828.6400000006,"y":2543228.790000001}},{"attributes":{"ID":518959,"DIS_CODE":0,"TOWNNAME":"東區","LI":"龍山里","LIN":"1鄰","STREET":"崇學路","SECT":" ","MAREA":" ","LANE":" ","ALLEY":" ","HOUSE_NO":"２９３號","E_COORD97":170659.04000000001,"N_COORD97":2542621.52,"ADDRESS":"崇學路２９３號","OBJECTID":518932},"geometry":{"x":170659.04000000004,"y":2542621.5200000014}},{"attributes":{"ID":518960,"DIS_CODE":0,"TOWNNAME":"東區","LI":"小東里","LIN":"1鄰","STREET":"小東路","SECT":" ","MAREA":" ","LANE":" ","ALLEY":" ","HOUSE_NO":"１５４號","E_COORD97":170752.39000000001,"N_COORD97":2544487.1800000002,"ADDRESS":"小東路１５４號","OBJECTID":518933},"geometry":{"x":170752.38999999966,"y":2544487.1800000034}},{"attributes":{"ID":518961,"DIS_CODE":0,"TOWNNAME":"東區","LI":"後甲里","LIN":"1鄰","STREET":"裕農路","SECT":" ","MAREA":" ","LANE":" ","ALLEY":" ","HOUSE_NO":"７８３號","E_COORD97":171926.66,"N_COORD97":2543274.8900000001,"ADDRESS":"裕農路７８３號","OBJECTID":518934},"geometry":{"x":171926.66000000201,"y":2543274.8900000006}},{"attributes":{"ID":518962,"DIS_CODE":0,"TOWNNAME":"東區","LI":"後甲里","LIN":"1鄰","STREET":"裕農路","SECT":" ","MAREA":" ","LANE":" ","ALLEY":" ","HOUSE_NO":"７８５號","E_COORD97":171930.45000000001,"N_COORD97":2543275.21,"ADDRESS":"裕農路７８５號","OBJECTID":518935},"geometry":{"x":171930.45000000112,"y":2543275.2100000028}},{"attributes":{"ID":518963,"DIS_CODE":0,"TOWNNAME":"東區","LI":"小東里","LIN":"1鄰","STREET":"小東路","SECT":" ","MAREA":" ","LANE":" ","ALLEY":" ","HOUSE_NO":"１５６號","E_COORD97":170756.48000000001,"N_COORD97":2544484.9700000002,"ADDRESS":"小東路１５６號","OBJECTID":518936},"geometry":{"x":170756.48000000045,"y":2544484.9700000007}},{"attributes":{"ID":518964,"DIS_CODE":0,"TOWNNAME":"東區","LI":"富強里","LIN":"1鄰","STREET":"裕農路","SECT":" ","MAREA":" ","LANE":" ","ALLEY":" ","HOUSE_NO":"２９６號之４","E_COORD97":170830.62,"N_COORD97":2542952.0499999998,"ADDRESS":"裕農路２９６號之４","OBJECTID":518937},"geometry":{"x":170830.62000000104,"y":2542952.0500000007}},{"attributes":{"ID":518965,"DIS_CODE":0,"TOWNNAME":"麻豆區","LI":"大埕里","LIN":"1鄰","STREET":"忠孝路","SECT":" ","MAREA":" ","LANE":" ","ALLEY":" ","HOUSE_NO":"４號之４","E_COORD97":173090.20000000001,"N_COORD97":2565020.5699999998,"ADDRESS":"忠孝路４號之４","OBJECTID":518938},"geometry":{"x":173090.20000000019,"y":2565020.570000004}},{"attributes":{"ID":518966,"DIS_CODE":0,"TOWNNAME":"永康區","LI":"龍潭里","LIN":"1鄰","STREET":"龍國街","SECT":" ","MAREA":" ","LANE":" ","ALLEY":" ","HOUSE_NO":"３５６號","E_COORD97":174693.17000000001,"N_COORD97":2548003.4199999999,"ADDRESS":"龍國街３５６號","OBJECTID":518939},"geometry":{"x":174693.17000000086,"y":2548003.4199999999}},{"attributes":{"ID":518967,"DIS_CODE":0,"TOWNNAME":"永康區","LI":"網寮里","LIN":"1鄰","STREET":"永二街","SECT":" ","MAREA":" ","LANE":" ","ALLEY":" ","HOUSE_NO":"７７號","E_COORD97":173609.70999999999,"N_COORD97":2546621.4900000002,"ADDRESS":"永二街７７號","OBJECTID":518940},"geometry":{"x":173609.71000000089,"y":2546621.4900000039}},{"attributes":{"ID":518968,"DIS_CODE":0,"TOWNNAME":"永康區","LI":"龍潭里","LIN":"1鄰","STREET":"龍國街","SECT":" ","MAREA":" ","LANE":" ","ALLEY":" ","HOUSE_NO":"３４３號","E_COORD97":174748.06,"N_COORD97":2548021.7599999998,"ADDRESS":"龍國街３４３號","OBJECTID":518941},"geometry":{"x":174748.06000000052,"y":2548021.7599999998}},{"attributes":{"ID":518969,"DIS_CODE":0,"TOWNNAME":"永康區","LI":"龍潭里","LIN":"1鄰","STREET":"龍國街","SECT":" ","MAREA":" ","LANE":" ","ALLEY":" ","HOUSE_NO":"３４７號","E_COORD97":174755.54000000001,"N_COORD97":2548020.79,"ADDRESS":"龍國街３４７號","OBJECTID":518942},"geometry":{"x":174755.54000000097,"y":2548020.7899999991}},{"attributes":{"ID":518970,"DIS_CODE":0,"TOWNNAME":"永康區","LI":"\u25A0行里","LIN":"1鄰","STREET":"中正北路","SECT":" ","MAREA":" ","LANE":" ","ALLEY":" ","HOUSE_NO":"５４號","E_COORD97":172003.20999999999,"N_COORD97":2549058.5299999998,"ADDRESS":"中正北路５４號","OBJECTID":518943},"geometry":{"x":172003.20999999996,"y":2549058.5300000012}},{"attributes":{"ID":518971,"DIS_CODE":0,"TOWNNAME":"永康區","LI":"龍潭里","LIN":"1鄰","STREET":"龍國街","SECT":" ","MAREA":" ","LANE":" ","ALLEY":" ","HOUSE_NO":"３３１號","E_COORD97":174722.03,"N_COORD97":2548028.8500000001,"ADDRESS":"龍國街３３１號","OBJECTID":518944},"geometry":{"x":174722.03000000119,"y":2548028.8500000034}},{"attributes":{"ID":518972,"DIS_CODE":0,"TOWNNAME":"永康區","LI":"蔦松里","LIN":"1鄰","STREET":"蔦松二街","SECT":" ","MAREA":" ","LANE":" ","ALLEY":" ","HOUSE_NO":"１００號","E_COORD97":173751.89999999999,"N_COORD97":2549345.2799999998,"ADDRESS":"蔦松二街１００號","OBJECTID":518945},"geometry":{"x":173751.90000000037,"y":2549345.2800000012}},{"attributes":{"ID":518973,"DIS_CODE":0,"TOWNNAME":"永康區","LI":"蔦松里","LIN":"1鄰","STREET":"蔦松二街","SECT":" ","MAREA":" ","LANE":" ","ALLEY":" ","HOUSE_NO":"５７號之３","E_COORD97":173693.42000000001,"N_COORD97":2549268.04,"ADDRESS":"蔦松二街５７號之３","OBJECTID":518946},"geometry":{"x":173693.42000000086,"y":2549268.0400000028}},{"attributes":{"ID":518974,"DIS_CODE":0,"TOWNNAME":"永康區","LI":"蔦松里","LIN":"1鄰","STREET":"蔦松二街","SECT":" ","MAREA":" ","LANE":" ","ALLEY":" ","HOUSE_NO":"７０號之３","E_COORD97":173710.82000000001,"N_COORD97":2549254.6699999999,"ADDRESS":"蔦松二街７０號之３","OBJECTID":518947},"geometry":{"x":173710.82000000123,"y":2549254.6700000018}},{"attributes":{"ID":518975,"DIS_CODE":0,"TOWNNAME":"永康區","LI":"龍潭里","LIN":"1鄰","STREET":"龍潭街","SECT":" ","MAREA":" ","LANE":" ","ALLEY":" ","HOUSE_NO":"４９號","E_COORD97":174778.39999999999,"N_COORD97":2547939.77,"ADDRESS":"龍潭街４９號","OBJECTID":518948},"geometry":{"x":174778.4000000013,"y":2547939.7699999996}},{"attributes":{"ID":518976,"DIS_CODE":0,"TOWNNAME":"永康區","LI":"\u25A0行里","LIN":"1鄰","STREET":"中正北路","SECT":" ","MAREA":" ","LANE":" ","ALLEY":" ","HOUSE_NO":"９２號","E_COORD97":172244.01999999999,"N_COORD97":2549069.7400000002,"ADDRESS":"中正北路９２號","OBJECTID":518949},"geometry":{"x":172244.02000000048,"y":2549069.7400000002}},{"attributes":{"ID":518977,"DIS_CODE":0,"TOWNNAME":"永康區","LI":"蔦松里","LIN":"1鄰","STREET":"蔦松二街","SECT":" ","MAREA":" ","LANE":" ","ALLEY":" ","HOUSE_NO":"１０６號","E_COORD97":173764.17000000001,"N_COORD97":2549356.1299999999,"ADDRESS":"蔦松二街１０６號","OBJECTID":518950},"geometry":{"x":173764.17000000086,"y":2549356.1300000008}},{"attributes":{"ID":518978,"DIS_CODE":0,"TOWNNAME":"永康區","LI":"蔦松里","LIN":"1鄰","STREET":"蔦松二街","SECT":" ","MAREA":" ","LANE":" ","ALLEY":" ","HOUSE_NO":"５１號","E_COORD97":173679.29000000001,"N_COORD97":2549246.75,"ADDRESS":"蔦松二街５１號","OBJECTID":518951},"geometry":{"x":173679.29000000004,"y":2549246.75}},{"attributes":{"ID":518979,"DIS_CODE":0,"TOWNNAME":"永康區","LI":"蔦松里","LIN":"1鄰","STREET":"蔦松二街","SECT":" ","MAREA":" ","LANE":" ","ALLEY":" ","HOUSE_NO":"４７號","E_COORD97":173675.29000000001,"N_COORD97":2549239.5,"ADDRESS":"蔦松二街４７號","OBJECTID":518952},"geometry":{"x":173675.29000000097,"y":2549239.5000000019}},{"attributes":{"ID":518980,"DIS_CODE":0,"TOWNNAME":"永康區","LI":"新樹里","LIN":"1鄰","STREET":"富強路","SECT":"二段","MAREA":" ","LANE":" ","ALLEY":" ","HOUSE_NO":"２０５號之１","E_COORD97":175593.29999999999,"N_COORD97":2547294.6400000001,"ADDRESS":"富強路二段２０５號之１","OBJECTID":518953},"geometry":{"x":175593.29999999981,"y":2547294.6400000006}},{"attributes":{"ID":518981,"DIS_CODE":0,"TOWNNAME":"永康區","LI":"蔦松里","LIN":"1鄰","STREET":"蔦松二街","SECT":" ","MAREA":" ","LANE":" ","ALLEY":" ","HOUSE_NO":"６６號之１","E_COORD97":173707.97,"N_COORD97":2549249.1800000002,"ADDRESS":"蔦松二街６６號之１","OBJECTID":518954},"geometry":{"x":173707.97000000067,"y":2549249.1799999997}},{"attributes":{"ID":518982,"DIS_CODE":0,"TOWNNAME":"永康區","LI":"蔦松里","LIN":"1鄰","STREET":"蔦松二街","SECT":" ","MAREA":" ","LANE":" ","ALLEY":" ","HOUSE_NO":"１２２號","E_COORD97":173794.66,"N_COORD97":2549377.1699999999,"ADDRESS":"蔦松二街１２２號","OBJECTID":518955},"geometry":{"x":173794.66000000201,"y":2549377.1700000018}},{"attributes":{"ID":518983,"DIS_CODE":0,"TOWNNAME":"永康區","LI":"蔦松里","LIN":"1鄰","STREET":"蔦松二街","SECT":" ","MAREA":" ","LANE":" ","ALLEY":" ","HOUSE_NO":"５７號之２","E_COORD97":173691.45000000001,"N_COORD97":2549264.29,"ADDRESS":"蔦松二街５７號之２","OBJECTID":518956},"geometry":{"x":173691.45000000112,"y":2549264.290000001}},{"attributes":{"ID":518984,"DIS_CODE":0,"TOWNNAME":"永康區","LI":"新樹里","LIN":"1鄰","STREET":"富強路","SECT":"二段","MAREA":" ","LANE":" ","ALLEY":" ","HOUSE_NO":"２６９號","E_COORD97":175614.10000000001,"N_COORD97":2547438.5499999998,"ADDRESS":"富強路二段２６９號","OBJECTID":518957},"geometry":{"x":175614.10000000056,"y":2547438.5499999989}},{"attributes":{"ID":518985,"DIS_CODE":0,"TOWNNAME":"永康區","LI":"新樹里","LIN":"1鄰","STREET":"富強路","SECT":"二段","MAREA":" ","LANE":" ","ALLEY":" ","HOUSE_NO":"２７９號","E_COORD97":175607.38,"N_COORD97":2547459.23,"ADDRESS":"富強路二段２７９號","OBJECTID":518958},"geometry":{"x":175607.38000000082,"y":2547459.2300000023}},{"attributes":{"ID":518986,"DIS_CODE":0,"TOWNNAME":"永康區","LI":"網寮里","LIN":"1鄰","STREET":"永二街","SECT":" ","MAREA":" ","LANE":" ","ALLEY":" ","HOUSE_NO":"５７號之１２","E_COORD97":173623.89999999999,"N_COORD97":2546655.2599999998,"ADDRESS":"永二街５７號之１２","OBJECTID":518959},"geometry":{"x":173623.9000000013,"y":2546655.2599999998}},{"attributes":{"ID":518987,"DIS_CODE":0,"TOWNNAME":"永康區","LI":"新樹里","LIN":"1鄰","STREET":"富強路","SECT":"二段","MAREA":" ","LANE":" ","ALLEY":" ","HOUSE_NO":"２０１號","E_COORD97":175606.14000000001,"N_COORD97":2547254.1299999999,"ADDRESS":"富強路二段２０１號","OBJECTID":518960},"geometry":{"x":175606.13999999966,"y":2547254.1300000008}},{"attributes":{"ID":518988,"DIS_CODE":0,"TOWNNAME":"永康區","LI":"新樹里","LIN":"1鄰","STREET":"富強路","SECT":"二段","MAREA":" ","LANE":" ","ALLEY":" ","HOUSE_NO":"２８２號","E_COORD97":175639.60000000001,"N_COORD97":2547440.46,"ADDRESS":"富強路二段２８２號","OBJECTID":518961},"geometry":{"x":175639.60000000056,"y":2547440.4600000028}},{"attributes":{"ID":518989,"DIS_CODE":0,"TOWNNAME":"永康區","LI":"新樹里","LIN":"1鄰","STREET":"富強路","SECT":"二段","MAREA":" ","LANE":" ","ALLEY":" ","HOUSE_NO":"２９６號","E_COORD97":175646.59,"N_COORD97":2547466.9399999999,"ADDRESS":"富強路二段２９６號","OBJECTID":518962},"geometry":{"x":175646.59000000078,"y":2547466.9400000013}},{"attributes":{"ID":518990,"DIS_CODE":0,"TOWNNAME":"永康區","LI":"蔦松里","LIN":"1鄰","STREET":"蔦松二街","SECT":" ","MAREA":" ","LANE":" ","ALLEY":" ","HOUSE_NO":"１２０號","E_COORD97":173791.47,"N_COORD97":2549371.52,"ADDRESS":"蔦松二街１２０號","OBJECTID":518963},"geometry":{"x":173791.46999999974,"y":2549371.5200000014}},{"attributes":{"ID":518991,"DIS_CODE":0,"TOWNNAME":"永康區","LI":"蔦松里","LIN":"1鄰","STREET":"蔦松二街","SECT":" ","MAREA":" ","LANE":" ","ALLEY":" ","HOUSE_NO":"１１４號","E_COORD97":173789.14999999999,"N_COORD97":2549352.2799999998,"ADDRESS":"蔦松二街１１４號","OBJECTID":518964},"geometry":{"x":173789.15000000037,"y":2549352.2800000012}},{"attributes":{"ID":518992,"DIS_CODE":0,"TOWNNAME":"永康區","LI":"新樹里","LIN":"1鄰","STREET":"富強路","SECT":"二段","MAREA":" ","LANE":" ","ALLEY":" ","HOUSE_NO":"２７１號","E_COORD97":175613.14999999999,"N_COORD97":2547442.5600000001,"ADDRESS":"富強路二段２７１號","OBJECTID":518965},"geometry":{"x":175613.15000000037,"y":2547442.5600000024}},{"attributes":{"ID":518993,"DIS_CODE":0,"TOWNNAME":"永康區","LI":"\u25A0行里","LIN":"1鄰","STREET":"中正北路","SECT":" ","MAREA":" ","LANE":" ","ALLEY":" ","HOUSE_NO":"１０８號","E_COORD97":172292.87,"N_COORD97":2549069.9199999999,"ADDRESS":"中正北路１０８號","OBJECTID":518966},"geometry":{"x":172292.87000000197,"y":2549069.9200000018}},{"attributes":{"ID":518994,"DIS_CODE":0,"TOWNNAME":"永康區","LI":"蔦松里","LIN":"1鄰","STREET":"蔦松二街","SECT":" ","MAREA":" ","LANE":" ","ALLEY":" ","HOUSE_NO":"１１４號之１","E_COORD97":173796.64000000001,"N_COORD97":2549356.5699999998,"ADDRESS":"蔦松二街１１４號之１","OBJECTID":518967},"geometry":{"x":173796.6400000006,"y":2549356.5700000003}},{"attributes":{"ID":518995,"DIS_CODE":0,"TOWNNAME":"永康區","LI":"網寮里","LIN":"1鄰","STREET":"永二街","SECT":" ","MAREA":" ","LANE":" ","ALLEY":" ","HOUSE_NO":"５７號之１０","E_COORD97":173623.82000000001,"N_COORD97":2546655.2599999998,"ADDRESS":"永二街５７號之１０","OBJECTID":518968},"geometry":{"x":173623.8200000003,"y":2546655.2599999998}},{"attributes":{"ID":518996,"DIS_CODE":0,"TOWNNAME":"永康區","LI":"新樹里","LIN":"1鄰","STREET":"富強路","SECT":"二段","MAREA":" ","LANE":" ","ALLEY":" ","HOUSE_NO":"２００號","E_COORD97":175650.38,"N_COORD97":2547267.8399999999,"ADDRESS":"富強路二段２００號","OBJECTID":518969},"geometry":{"x":175650.37999999989,"y":2547267.8400000017}},{"attributes":{"ID":518997,"DIS_CODE":0,"TOWNNAME":"永康區","LI":"蔦松里","LIN":"1鄰","STREET":"蔦松二街","SECT":" ","MAREA":" ","LANE":" ","ALLEY":" ","HOUSE_NO":"１１２號之２","E_COORD97":173783.82000000001,"N_COORD97":2549347.8300000001,"ADDRESS":"蔦松二街１１２號之２","OBJECTID":518970},"geometry":{"x":173783.82000000123,"y":2549347.8300000001}},{"attributes":{"ID":518998,"DIS_CODE":0,"TOWNNAME":"永康區","LI":"新樹里","LIN":"1鄰","STREET":"富強路","SECT":"二段","MAREA":" ","LANE":" ","ALLEY":" ","HOUSE_NO":"１９１號","E_COORD97":175610.10999999999,"N_COORD97":2547237.3300000001,"ADDRESS":"富強路二段１９１號","OBJECTID":518971},"geometry":{"x":175610.11000000034,"y":2547237.3300000019}},{"attributes":{"ID":518999,"DIS_CODE":0,"TOWNNAME":"永康區","LI":"新樹里","LIN":"1鄰","STREET":"富強路","SECT":"二段","MAREA":" ","LANE":" ","ALLEY":" ","HOUSE_NO":"１９４號","E_COORD97":175650.76000000001,"N_COORD97":2547248.6400000001,"ADDRESS":"富強路二段１９４號","OBJECTID":518972},"geometry":{"x":175650.75999999978,"y":2547248.6400000025}},{"attributes":{"ID":519000,"DIS_CODE":0,"TOWNNAME":"永康區","LI":"新樹里","LIN":"1鄰","STREET":"富強路","SECT":"二段","MAREA":" ","LANE":" ","ALLEY":" ","HOUSE_NO":"１９６號","E_COORD97":175651.19,"N_COORD97":2547251.5299999998,"ADDRESS":"富強路二段１９６號","OBJECTID":518973},"geometry":{"x":175651.19000000134,"y":2547251.5300000012}},{"attributes":{"ID":519001,"DIS_CODE":0,"TOWNNAME":"永康區","LI":"新樹里","LIN":"1鄰","STREET":"富強路","SECT":"二段","MAREA":" ","LANE":" ","ALLEY":" ","HOUSE_NO":"２７７號","E_COORD97":175605.26999999999,"N_COORD97":2547455.23,"ADDRESS":"富強路二段２７７號","OBJECTID":518974},"geometry":{"x":175605.26999999955,"y":2547455.2300000023}},{"attributes":{"ID":519002,"DIS_CODE":0,"TOWNNAME":"永康區","LI":"新樹里","LIN":"1鄰","STREET":"富強路","SECT":"二段","MAREA":" ","LANE":" ","ALLEY":" ","HOUSE_NO":"２８０號","E_COORD97":175641.14999999999,"N_COORD97":2547434.9500000002,"ADDRESS":"富強路二段２８０號","OBJECTID":518975},"geometry":{"x":175641.1500000013,"y":2547434.9500000011}},{"attributes":{"ID":519003,"DIS_CODE":0,"TOWNNAME":"永康區","LI":"新樹里","LIN":"1鄰","STREET":"富強路","SECT":"二段","MAREA":" ","LANE":" ","ALLEY":" ","HOUSE_NO":"２８１號","E_COORD97":175606.76999999999,"N_COORD97":2547463.23,"ADDRESS":"富強路二段２８１號","OBJECTID":518976},"geometry":{"x":175606.76999999955,"y":2547463.2300000004}},{"attributes":{"ID":519004,"DIS_CODE":0,"TOWNNAME":"永康區","LI":"新樹里","LIN":"1鄰","STREET":"富強路","SECT":"二段","MAREA":" ","LANE":" ","ALLEY":" ","HOUSE_NO":"２８３號","E_COORD97":175604.67999999999,"N_COORD97":2547467.23,"ADDRESS":"富強路二段２８３號","OBJECTID":518977},"geometry":{"x":175604.68000000063,"y":2547467.2300000004}},{"attributes":{"ID":519005,"DIS_CODE":0,"TOWNNAME":"永康區","LI":"新樹里","LIN":"1鄰","STREET":"富強路","SECT":"二段","MAREA":" ","LANE":" ","ALLEY":" ","HOUSE_NO":"２６５號","E_COORD97":175613.32000000001,"N_COORD97":2547423.6299999999,"ADDRESS":"富強路二段２６５號","OBJECTID":518978},"geometry":{"x":175613.32000000123,"y":2547423.6300000008}},{"attributes":{"ID":519006,"DIS_CODE":0,"TOWNNAME":"仁德區","LI":"二行里","LIN":"1鄰","STREET":"二仁路","SECT":"一段","MAREA":" ","LANE":" ","ALLEY":" ","HOUSE_NO":"４３３號","E_COORD97":170145.35999999999,"N_COORD97":2536307.02,"ADDRESS":"二仁路一段４３３號","OBJECTID":518979},"geometry":{"x":170145.3600000022,"y":2536307.0200000033}},{"attributes":{"ID":519007,"DIS_CODE":0,"TOWNNAME":"仁德區","LI":"一甲里","LIN":"1鄰","STREET":"中正路","SECT":"三段","MAREA":" ","LANE":" ","ALLEY":" ","HOUSE_NO":"１２９號","E_COORD97":173427.89999999999,"N_COORD97":2541729.77,"ADDRESS":"中正路三段１２９號","OBJECTID":518980},"geometry":{"x":173427.9000000013,"y":2541729.7699999996}},{"attributes":{"ID":519008,"DIS_CODE":0,"TOWNNAME":"仁德區","LI":"仁愛里","LIN":"1鄰","STREET":"二空路","SECT":" ","MAREA":" ","LANE":" ","ALLEY":" ","HOUSE_NO":"２３７號","E_COORD97":170347.73999999999,"N_COORD97":2540261.29,"ADDRESS":"二空路２３７號","OBJECTID":518981},"geometry":{"x":170347.73999999929,"y":2540261.2900000028}},{"attributes":{"ID":519009,"DIS_CODE":0,"TOWNNAME":"仁德區","LI":"大甲里","LIN":"1鄰","STREET":"行大街","SECT":" ","MAREA":" ","LANE":" ","ALLEY":" ","HOUSE_NO":"２３７號","E_COORD97":169865.12,"N_COORD97":2535090.9900000002,"ADDRESS":"行大街２３７號","OBJECTID":518982},"geometry":{"x":169865.12000000011,"y":2535090.9900000039}},{"attributes":{"ID":519010,"DIS_CODE":0,"TOWNNAME":"仁德區","LI":"一甲里","LIN":"1鄰","STREET":"中正路","SECT":"三段","MAREA":" ","LANE":" ","ALLEY":" ","HOUSE_NO":"１３９號","E_COORD97":173437.67999999999,"N_COORD97":2541752.0299999998,"ADDRESS":"中正路三段１３９號","OBJECTID":518983},"geometry":{"x":173437.6799999997,"y":2541752.0300000031}},{"attributes":{"ID":519011,"DIS_CODE":0,"TOWNNAME":"仁德區","LI":"土庫里","LIN":"1鄰","STREET":"大發路","SECT":" ","MAREA":" ","LANE":" ","ALLEY":" ","HOUSE_NO":"１１號","E_COORD97":173209.42999999999,"N_COORD97":2542583.27,"ADDRESS":"大發路１１號","OBJECTID":518984},"geometry":{"x":173209.43000000063,"y":2542583.2699999996}},{"attributes":{"ID":519012,"DIS_CODE":0,"TOWNNAME":"仁德區","LI":"土庫里","LIN":"1鄰","STREET":"大發路","SECT":" ","MAREA":" ","LANE":" ","ALLEY":" ","HOUSE_NO":"２８號","E_COORD97":173233.70000000001,"N_COORD97":2542632.0099999998,"ADDRESS":"大發路２８號","OBJECTID":518985},"geometry":{"x":173233.70000000112,"y":2542632.0100000016}},{"attributes":{"ID":519013,"DIS_CODE":0,"TOWNNAME":"仁德區","LI":"大甲里","LIN":"1鄰","STREET":"行大街","SECT":" ","MAREA":" ","LANE":" ","ALLEY":" ","HOUSE_NO":"２１５之１號","E_COORD97":169897.79999999999,"N_COORD97":2535089.2799999998,"ADDRESS":"行大街２１５之１號","OBJECTID":518986},"geometry":{"x":169897.80000000168,"y":2535089.2800000012}},{"attributes":{"ID":519014,"DIS_CODE":0,"TOWNNAME":"仁德區","LI":"大甲里","LIN":"1鄰","STREET":"行大一街","SECT":" ","MAREA":" ","LANE":" ","ALLEY":" ","HOUSE_NO":"８０號","E_COORD97":170009.25,"N_COORD97":2535007.9900000002,"ADDRESS":"行大一街８０號","OBJECTID":518987},"geometry":{"x":170009.25000000093,"y":2535007.9900000002}},{"attributes":{"ID":519015,"DIS_CODE":0,"TOWNNAME":"仁德區","LI":"土庫里","LIN":"1鄰","STREET":"大發路","SECT":" ","MAREA":" ","LANE":" ","ALLEY":" ","HOUSE_NO":"６６號","E_COORD97":173242.76000000001,"N_COORD97":2542759.5099999998,"ADDRESS":"大發路６６號","OBJECTID":518988},"geometry":{"x":173242.76000000164,"y":2542759.5100000035}},{"attributes":{"ID":519016,"DIS_CODE":0,"TOWNNAME":"仁德區","LI":"土庫里","LIN":"1鄰","STREET":"大發路","SECT":" ","MAREA":" ","LANE":" ","ALLEY":" ","HOUSE_NO":"２９號","E_COORD97":173213,"N_COORD97":2542637.5099999998,"ADDRESS":"大發路２９號","OBJECTID":518989},"geometry":{"x":173213.00000000093,"y":2542637.5100000035}},{"attributes":{"ID":519017,"DIS_CODE":0,"TOWNNAME":"仁德區","LI":"土庫里","LIN":"1鄰","STREET":"大發路","SECT":" ","MAREA":" ","LANE":" ","ALLEY":" ","HOUSE_NO":"４２號","E_COORD97":173236.39999999999,"N_COORD97":2542683.52,"ADDRESS":"大發路４２號","OBJECTID":518990},"geometry":{"x":173236.40000000037,"y":2542683.5199999996}},{"attributes":{"ID":519018,"DIS_CODE":0,"TOWNNAME":"白河區","LI":"白河里","LIN":"1鄰","STREET":"八德街","SECT":" ","MAREA":" ","LANE":" ","ALLEY":" ","HOUSE_NO":"４號","E_COORD97":190033.23999999999,"N_COORD97":2582694.7200000002,"ADDRESS":"八德街４號","OBJECTID":518991},"geometry":{"x":190033.24000000022,"y":2582694.7200000025}},{"attributes":{"ID":519019,"DIS_CODE":0,"TOWNNAME":"仁德區","LI":"大甲里","LIN":"1鄰","STREET":"行大一街","SECT":" ","MAREA":" ","LANE":" ","ALLEY":" ","HOUSE_NO":"６８號","E_COORD97":170036.10000000001,"N_COORD97":2535029.25,"ADDRESS":"行大一街６８號","OBJECTID":518992},"geometry":{"x":170036.09999999963,"y":2535029.2500000019}},{"attributes":{"ID":519020,"DIS_CODE":0,"TOWNNAME":"仁德區","LI":"仁義里","LIN":"1鄰","STREET":"義林五街","SECT":" ","MAREA":" ","LANE":" ","ALLEY":" ","HOUSE_NO":"１８之６號","E_COORD97":174401.29000000001,"N_COORD97":2541022.7999999998,"ADDRESS":"義林五街１８之６號","OBJECTID":518993},"geometry":{"x":174401.29000000097,"y":2541022.8000000026}},{"attributes":{"ID":519021,"DIS_CODE":0,"TOWNNAME":"仁德區","LI":"仁義里","LIN":"1鄰","STREET":"中山路","SECT":" ","MAREA":" ","LANE":" ","ALLEY":" ","HOUSE_NO":"２１號","E_COORD97":175250.48000000001,"N_COORD97":2541052.75,"ADDRESS":"中山路２１號","OBJECTID":518994},"geometry":{"x":175250.48000000045,"y":2541052.7500000037}},{"attributes":{"ID":519022,"DIS_CODE":0,"TOWNNAME":"仁德區","LI":"仁義里","LIN":"1鄰","STREET":"中山路","SECT":" ","MAREA":" ","LANE":" ","ALLEY":" ","HOUSE_NO":"１２５號","E_COORD97":174686.06,"N_COORD97":2541126,"ADDRESS":"中山路１２５號","OBJECTID":518995},"geometry":{"x":174686.05999999959,"y":2541126.0000000019}},{"attributes":{"ID":519023,"DIS_CODE":0,"TOWNNAME":"仁德區","LI":"仁義里","LIN":"1鄰","STREET":"義林五街","SECT":" ","MAREA":" ","LANE":" ","ALLEY":" ","HOUSE_NO":"１８之３號","E_COORD97":174409.23000000001,"N_COORD97":2541022.2999999998,"ADDRESS":"義林五街１８之３號","OBJECTID":518996},"geometry":{"x":174409.23000000045,"y":2541022.2999999989}},{"attributes":{"ID":519024,"DIS_CODE":0,"TOWNNAME":"仁德區","LI":"仁義里","LIN":"1鄰","STREET":"義林五街","SECT":" ","MAREA":" ","LANE":" ","ALLEY":" ","HOUSE_NO":"８２號","E_COORD97":174215.39999999999,"N_COORD97":2541046.27,"ADDRESS":"義林五街８２號","OBJECTID":518997},"geometry":{"x":174215.40000000224,"y":2541046.2700000014}},{"attributes":{"ID":519025,"DIS_CODE":0,"TOWNNAME":"仁德區","LI":"仁義里","LIN":"1鄰","STREET":"中山路","SECT":" ","MAREA":" ","LANE":" ","ALLEY":" ","HOUSE_NO":"２０９號","E_COORD97":174381.69,"N_COORD97":2541179.4900000002,"ADDRESS":"中山路２０９號","OBJECTID":518998},"geometry":{"x":174381.69000000134,"y":2541179.4900000002}},{"attributes":{"ID":519026,"DIS_CODE":0,"TOWNNAME":"仁德區","LI":"仁義里","LIN":"1鄰","STREET":"義林二街","SECT":" ","MAREA":" ","LANE":" ","ALLEY":" ","HOUSE_NO":"５０號","E_COORD97":174130.31,"N_COORD97":2541116.0099999998,"ADDRESS":"義林二街５０號","OBJECTID":518999},"geometry":{"x":174130.31000000145,"y":2541116.0100000016}},{"attributes":{"ID":519027,"DIS_CODE":0,"TOWNNAME":"仁德區","LI":"仁義里","LIN":"1鄰","STREET":"義林六街","SECT":" ","MAREA":" ","LANE":" ","ALLEY":" ","HOUSE_NO":"６８號","E_COORD97":174343.34,"N_COORD97":2541085.5099999998,"ADDRESS":"義林六街６８號","OBJECTID":519000},"geometry":{"x":174343.33999999985,"y":2541085.5100000016}}]}