{"displayFieldName":"TOWNNAME","fieldAliases":{"ID":"ID","DIS_CODE":"DIS_CODE","TOWNNAME":"TOWNNAME","LI":"LI","LIN":"LIN","STREET":"STREET","SECT":"SECT","MAREA":"MAREA","LANE":"LANE","ALLEY":"ALLEY","HOUSE_NO":"HOUSE_NO","E_COORD97":"E_COORD97","N_COORD97":"N_COORD97","ADDRESS":"ADDRESS","OBJECTID":"OBJECTID"},"geometryType":"esriGeometryPoint","spatialReference":{"wkid":102443,"latestWkid":3826},"fields":[{"name":"ID","type":"esriFieldTypeDouble","alias":"ID"},{"name":"DIS_CODE","type":"esriFieldTypeInteger","alias":"DIS_CODE"},{"name":"TOWNNAME","type":"esriFieldTypeString","alias":"TOWNNAME","length":8},{"name":"LI","type":"esriFieldTypeString","alias":"LI","length":8},{"name":"LIN","type":"esriFieldTypeString","alias":"LIN","length":12},{"name":"STREET","type":"esriFieldTypeString","alias":"STREET","length":20},{"name":"SECT","type":"esriFieldTypeString","alias":"SECT","length":8},{"name":"MAREA","type":"esriFieldTypeString","alias":"MAREA","length":12},{"name":"LANE","type":"esriFieldTypeString","alias":"LANE","length":10},{"name":"ALLEY","type":"esriFieldTypeString","alias":"ALLEY","length":10},{"name":"HOUSE_NO","type":"esriFieldTypeString","alias":"HOUSE_NO","length":20},{"name":"E_COORD97","type":"esriFieldTypeDouble","alias":"E_COORD97"},{"name":"N_COORD97","type":"esriFieldTypeDouble","alias":"N_COORD97"},{"name":"ADDRESS","type":"esriFieldTypeString","alias":"ADDRESS","length":50},{"name":"OBJECTID","type":"esriFieldTypeOID","alias":"OBJECTID"}],"features":[{"attributes":{"ID":470626,"DIS_CODE":0,"TOWNNAME":"仁德區","LI":"土庫里","LIN":"5鄰","STREET":"土庫三街","SECT":" ","MAREA":" ","LANE":" ","ALLEY":" ","HOUSE_NO":"４５號","E_COORD97":174234.23999999999,"N_COORD97":2543084.9900000002,"ADDRESS":"土庫三街４５號","OBJECTID":470601},"geometry":{"x":174234.24000000022,"y":2543084.9900000002}},{"attributes":{"ID":470627,"DIS_CODE":0,"TOWNNAME":"仁德區","LI":"土庫里","LIN":"5鄰","STREET":"土庫三街","SECT":" ","MAREA":" ","LANE":" ","ALLEY":" ","HOUSE_NO":"２７之３號","E_COORD97":174155.95999999999,"N_COORD97":2543087.79,"ADDRESS":"土庫三街２７之３號","OBJECTID":470602},"geometry":{"x":174155.96000000089,"y":2543087.7899999991}},{"attributes":{"ID":470628,"DIS_CODE":0,"TOWNNAME":"仁德區","LI":"大甲里","LIN":"5鄰","STREET":"行大街","SECT":" ","MAREA":" ","LANE":" ","ALLEY":" ","HOUSE_NO":"２９１號","E_COORD97":169744.81,"N_COORD97":2535147.5,"ADDRESS":"行大街２９１號","OBJECTID":470603},"geometry":{"x":169744.80999999866,"y":2535147.5}},{"attributes":{"ID":470629,"DIS_CODE":0,"TOWNNAME":"仁德區","LI":"上崙里","LIN":"5鄰","STREET":"德崙路","SECT":" ","MAREA":" ","LANE":" ","ALLEY":" ","HOUSE_NO":"３０９號","E_COORD97":173902.26999999999,"N_COORD97":2538143.27,"ADDRESS":"德崙路３０９號","OBJECTID":470604},"geometry":{"x":173902.27000000048,"y":2538143.2700000033}},{"attributes":{"ID":470630,"DIS_CODE":0,"TOWNNAME":"仁德區","LI":"二行里","LIN":"5鄰","STREET":"二行一路","SECT":" ","MAREA":" ","LANE":" ","ALLEY":" ","HOUSE_NO":"１０號","E_COORD97":170410.84,"N_COORD97":2535241.25,"ADDRESS":"二行一路１０號","OBJECTID":470605},"geometry":{"x":170410.83999999985,"y":2535241.2499999981}},{"attributes":{"ID":470631,"DIS_CODE":0,"TOWNNAME":"仁德區","LI":"上崙里","LIN":"5鄰","STREET":"德崙路","SECT":" ","MAREA":" ","LANE":" ","ALLEY":" ","HOUSE_NO":"２９９號","E_COORD97":173876.29000000001,"N_COORD97":2538134.27,"ADDRESS":"德崙路２９９號","OBJECTID":470606},"geometry":{"x":173876.29000000004,"y":2538134.2700000014}},{"attributes":{"ID":470632,"DIS_CODE":0,"TOWNNAME":"仁德區","LI":"土庫里","LIN":"5鄰","STREET":"土庫三街","SECT":" ","MAREA":" ","LANE":" ","ALLEY":" ","HOUSE_NO":"２９號","E_COORD97":174159.35999999999,"N_COORD97":2543085.4900000002,"ADDRESS":"土庫三街２９號","OBJECTID":470607},"geometry":{"x":174159.36000000034,"y":2543085.4900000039}},{"attributes":{"ID":470633,"DIS_CODE":0,"TOWNNAME":"仁德區","LI":"大甲里","LIN":"5鄰","STREET":"行大街","SECT":" ","MAREA":" ","LANE":" ","ALLEY":" ","HOUSE_NO":"２９１之３號","E_COORD97":169751.20000000001,"N_COORD97":2535145.5499999998,"ADDRESS":"行大街２９１之３號","OBJECTID":470608},"geometry":{"x":169751.20000000019,"y":2535145.5500000045}},{"attributes":{"ID":470634,"DIS_CODE":0,"TOWNNAME":"東區","LI":"大智里","LIN":"5鄰","STREET":"長東街","SECT":" ","MAREA":" ","LANE":" ","ALLEY":" ","HOUSE_NO":"５５號","E_COORD97":171012.92999999999,"N_COORD97":2540485.0600000001,"ADDRESS":"長東街５５號","OBJECTID":470609},"geometry":{"x":171012.93000000063,"y":2540485.0600000042}},{"attributes":{"ID":470635,"DIS_CODE":0,"TOWNNAME":"東區","LI":"大智里","LIN":"5鄰","STREET":"長東街","SECT":" ","MAREA":" ","LANE":" ","ALLEY":" ","HOUSE_NO":"５７號","E_COORD97":171014.35000000001,"N_COORD97":2540480.2599999998,"ADDRESS":"長東街５７號","OBJECTID":470610},"geometry":{"x":171014.35000000149,"y":2540480.2600000016}},{"attributes":{"ID":470636,"DIS_CODE":0,"TOWNNAME":"安南區","LI":"溪心里","LIN":"5鄰","STREET":"本原街","SECT":"二段","MAREA":" ","LANE":" ","ALLEY":" ","HOUSE_NO":"７０號","E_COORD97":166934.26000000001,"N_COORD97":2550726.6099999999,"ADDRESS":"本原街二段７０號","OBJECTID":470611},"geometry":{"x":166934.25999999978,"y":2550726.6100000013}},{"attributes":{"ID":470637,"DIS_CODE":0,"TOWNNAME":"安南區","LI":"溪心里","LIN":"5鄰","STREET":"本原街","SECT":"二段","MAREA":" ","LANE":" ","ALLEY":" ","HOUSE_NO":"７２號","E_COORD97":166926.44,"N_COORD97":2550729.46,"ADDRESS":"本原街二段７２號","OBJECTID":470612},"geometry":{"x":166926.44000000134,"y":2550729.4600000028}},{"attributes":{"ID":470638,"DIS_CODE":0,"TOWNNAME":"安南區","LI":"溪心里","LIN":"5鄰","STREET":"本原街","SECT":"二段","MAREA":" ","LANE":" ","ALLEY":" ","HOUSE_NO":"５２號","E_COORD97":166962.23999999999,"N_COORD97":2550709.1600000001,"ADDRESS":"本原街二段５２號","OBJECTID":470613},"geometry":{"x":166962.24000000022,"y":2550709.1600000039}},{"attributes":{"ID":470639,"DIS_CODE":0,"TOWNNAME":"安南區","LI":"溪心里","LIN":"5鄰","STREET":"本原街","SECT":"二段","MAREA":" ","LANE":" ","ALLEY":" ","HOUSE_NO":"５６號","E_COORD97":166958.57999999999,"N_COORD97":2550716.6899999999,"ADDRESS":"本原街二段５６號","OBJECTID":470614},"geometry":{"x":166958.58000000101,"y":2550716.6900000013}},{"attributes":{"ID":470640,"DIS_CODE":0,"TOWNNAME":"安南區","LI":"溪心里","LIN":"5鄰","STREET":"本原街","SECT":"二段","MAREA":" ","LANE":" ","ALLEY":" ","HOUSE_NO":"５８號","E_COORD97":166955.19,"N_COORD97":2550719.5699999998,"ADDRESS":"本原街二段５８號","OBJECTID":470615},"geometry":{"x":166955.19000000134,"y":2550719.5700000003}},{"attributes":{"ID":470641,"DIS_CODE":0,"TOWNNAME":"安南區","LI":"溪心里","LIN":"5鄰","STREET":"本原街","SECT":"二段","MAREA":" ","LANE":" ","ALLEY":" ","HOUSE_NO":"６０號","E_COORD97":166951.01000000001,"N_COORD97":2550716.6299999999,"ADDRESS":"本原街二段６０號","OBJECTID":470616},"geometry":{"x":166951.00999999978,"y":2550716.629999999}},{"attributes":{"ID":470642,"DIS_CODE":0,"TOWNNAME":"安南區","LI":"溪心里","LIN":"5鄰","STREET":"本原街","SECT":"二段","MAREA":" ","LANE":" ","ALLEY":" ","HOUSE_NO":"６２號","E_COORD97":166947.10000000001,"N_COORD97":2550722.29,"ADDRESS":"本原街二段６２號","OBJECTID":470617},"geometry":{"x":166947.09999999963,"y":2550722.290000001}},{"attributes":{"ID":470643,"DIS_CODE":0,"TOWNNAME":"安南區","LI":"溪心里","LIN":"5鄰","STREET":"本原街","SECT":"二段","MAREA":" ","LANE":" ","ALLEY":" ","HOUSE_NO":"６６號","E_COORD97":166942.91,"N_COORD97":2550719.3599999999,"ADDRESS":"本原街二段６６號","OBJECTID":470618},"geometry":{"x":166942.91000000108,"y":2550719.3599999994}},{"attributes":{"ID":470644,"DIS_CODE":0,"TOWNNAME":"安南區","LI":"溪心里","LIN":"5鄰","STREET":"本原街","SECT":"二段","MAREA":" ","LANE":" ","ALLEY":" ","HOUSE_NO":"６８號","E_COORD97":166938.82999999999,"N_COORD97":2550722.5899999999,"ADDRESS":"本原街二段６８號","OBJECTID":470619},"geometry":{"x":166938.83000000101,"y":2550722.5899999999}},{"attributes":{"ID":470645,"DIS_CODE":0,"TOWNNAME":"東區","LI":"大智里","LIN":"5鄰","STREET":"長東街","SECT":" ","MAREA":" ","LANE":" ","ALLEY":" ","HOUSE_NO":"１３號","E_COORD97":171004.64999999999,"N_COORD97":2540570.4700000002,"ADDRESS":"長東街１３號","OBJECTID":470620},"geometry":{"x":171004.65000000224,"y":2540570.4700000044}},{"attributes":{"ID":470646,"DIS_CODE":0,"TOWNNAME":"東區","LI":"大智里","LIN":"5鄰","STREET":"長東街","SECT":" ","MAREA":" ","LANE":" ","ALLEY":" ","HOUSE_NO":"１５號","E_COORD97":171004.09,"N_COORD97":2540566.71,"ADDRESS":"長東街１５號","OBJECTID":470621},"geometry":{"x":171004.08999999985,"y":2540566.7100000028}},{"attributes":{"ID":470647,"DIS_CODE":0,"TOWNNAME":"東區","LI":"大智里","LIN":"5鄰","STREET":"長東街","SECT":" ","MAREA":" ","LANE":" ","ALLEY":" ","HOUSE_NO":"１７號","E_COORD97":171004.64999999999,"N_COORD97":2540563.23,"ADDRESS":"長東街１７號","OBJECTID":470622},"geometry":{"x":171004.65000000224,"y":2540563.2300000023}},{"attributes":{"ID":470648,"DIS_CODE":0,"TOWNNAME":"東區","LI":"大智里","LIN":"5鄰","STREET":"長東街","SECT":" ","MAREA":" ","LANE":" ","ALLEY":" ","HOUSE_NO":"１９號","E_COORD97":171004.92999999999,"N_COORD97":2540558.4900000002,"ADDRESS":"長東街１９號","OBJECTID":470623},"geometry":{"x":171004.9299999997,"y":2540558.4900000002}},{"attributes":{"ID":470649,"DIS_CODE":0,"TOWNNAME":"東區","LI":"大智里","LIN":"5鄰","STREET":"長東街","SECT":" ","MAREA":" ","LANE":" ","ALLEY":" ","HOUSE_NO":"２１號","E_COORD97":171005.20000000001,"N_COORD97":2540555.4199999999,"ADDRESS":"長東街２１號","OBJECTID":470624},"geometry":{"x":171005.20000000019,"y":2540555.4199999999}},{"attributes":{"ID":470650,"DIS_CODE":0,"TOWNNAME":"東區","LI":"大智里","LIN":"5鄰","STREET":"長東街","SECT":" ","MAREA":" ","LANE":" ","ALLEY":" ","HOUSE_NO":"２５號","E_COORD97":171005.89999999999,"N_COORD97":2540549.6499999999,"ADDRESS":"長東街２５號","OBJECTID":470625},"geometry":{"x":171005.90000000037,"y":2540549.6500000022}},{"attributes":{"ID":470651,"DIS_CODE":0,"TOWNNAME":"東區","LI":"大智里","LIN":"5鄰","STREET":"長東街","SECT":" ","MAREA":" ","LANE":" ","ALLEY":" ","HOUSE_NO":"２９號","E_COORD97":171008.98999999999,"N_COORD97":2540535.8900000001,"ADDRESS":"長東街２９號","OBJECTID":470626},"geometry":{"x":171008.99000000209,"y":2540535.8900000006}},{"attributes":{"ID":470652,"DIS_CODE":0,"TOWNNAME":"東區","LI":"大智里","LIN":"5鄰","STREET":"長東街","SECT":" ","MAREA":" ","LANE":" ","ALLEY":" ","HOUSE_NO":"３１號","E_COORD97":171008.26999999999,"N_COORD97":2540531.6200000001,"ADDRESS":"長東街３１號","OBJECTID":470627},"geometry":{"x":171008.27000000048,"y":2540531.620000001}},{"attributes":{"ID":470653,"DIS_CODE":0,"TOWNNAME":"東區","LI":"大智里","LIN":"5鄰","STREET":"長東街","SECT":" ","MAREA":" ","LANE":" ","ALLEY":" ","HOUSE_NO":"３３號","E_COORD97":171009.94,"N_COORD97":2540527.5899999999,"ADDRESS":"長東街３３號","OBJECTID":470628},"geometry":{"x":171009.94000000134,"y":2540527.5899999999}},{"attributes":{"ID":470654,"DIS_CODE":0,"TOWNNAME":"東區","LI":"大智里","LIN":"5鄰","STREET":"長東街","SECT":" ","MAREA":" ","LANE":" ","ALLEY":" ","HOUSE_NO":"３５號","E_COORD97":171009.70000000001,"N_COORD97":2540523.0800000001,"ADDRESS":"長東街３５號","OBJECTID":470629},"geometry":{"x":171009.70000000112,"y":2540523.0800000019}},{"attributes":{"ID":470655,"DIS_CODE":0,"TOWNNAME":"東區","LI":"大智里","LIN":"5鄰","STREET":"長東街","SECT":" ","MAREA":" ","LANE":" ","ALLEY":" ","HOUSE_NO":"３７號","E_COORD97":171011.35999999999,"N_COORD97":2540519.29,"ADDRESS":"長東街３７號","OBJECTID":470630},"geometry":{"x":171011.36000000034,"y":2540519.2900000028}},{"attributes":{"ID":470656,"DIS_CODE":0,"TOWNNAME":"東區","LI":"大智里","LIN":"5鄰","STREET":"長東街","SECT":" ","MAREA":" ","LANE":" ","ALLEY":" ","HOUSE_NO":"３９號","E_COORD97":171012.54999999999,"N_COORD97":2540514.54,"ADDRESS":"長東街３９號","OBJECTID":470631},"geometry":{"x":171012.54999999981,"y":2540514.540000001}},{"attributes":{"ID":470657,"DIS_CODE":0,"TOWNNAME":"東區","LI":"大智里","LIN":"5鄰","STREET":"長東街","SECT":" ","MAREA":" ","LANE":" ","ALLEY":" ","HOUSE_NO":"６１號","E_COORD97":171014.95999999999,"N_COORD97":2540470.4399999999,"ADDRESS":"長東街６１號","OBJECTID":470632},"geometry":{"x":171014.95999999996,"y":2540470.4399999995}},{"attributes":{"ID":470658,"DIS_CODE":0,"TOWNNAME":"東區","LI":"大智里","LIN":"5鄰","STREET":"長東街","SECT":" ","MAREA":" ","LANE":" ","ALLEY":" ","HOUSE_NO":"６３號","E_COORD97":171015.94,"N_COORD97":2540465.5600000001,"ADDRESS":"長東街６３號","OBJECTID":470633},"geometry":{"x":171015.94000000041,"y":2540465.5600000024}},{"attributes":{"ID":470659,"DIS_CODE":0,"TOWNNAME":"東區","LI":"大智里","LIN":"5鄰","STREET":"長東街","SECT":" ","MAREA":" ","LANE":" ","ALLEY":" ","HOUSE_NO":"６７號","E_COORD97":171017.09,"N_COORD97":2540454.8999999999,"ADDRESS":"長東街６７號","OBJECTID":470634},"geometry":{"x":171017.09000000078,"y":2540454.9000000004}},{"attributes":{"ID":470660,"DIS_CODE":0,"TOWNNAME":"東區","LI":"大智里","LIN":"5鄰","STREET":"長東街","SECT":" ","MAREA":" ","LANE":" ","ALLEY":" ","HOUSE_NO":"７３號","E_COORD97":171020.59088199999,"N_COORD97":2540434.5287000001,"ADDRESS":"長東街７３號","OBJECTID":470635},"geometry":{"x":171020.59088200051,"y":2540434.5286989994}},{"attributes":{"ID":470661,"DIS_CODE":0,"TOWNNAME":"東區","LI":"大智里","LIN":"5鄰","STREET":"長東街","SECT":" ","MAREA":" ","LANE":" ","ALLEY":" ","HOUSE_NO":"７５號","E_COORD97":171020.69683299999,"N_COORD97":2540429.1312000002,"ADDRESS":"長東街７５號","OBJECTID":470636},"geometry":{"x":171020.69683300052,"y":2540429.131202003}},{"attributes":{"ID":470662,"DIS_CODE":0,"TOWNNAME":"東區","LI":"大智里","LIN":"5鄰","STREET":"長東街","SECT":" ","MAREA":" ","LANE":" ","ALLEY":" ","HOUSE_NO":"７７號","E_COORD97":171021.014688,"N_COORD97":2540424.3687,"ADDRESS":"長東街７７號","OBJECTID":470637},"geometry":{"x":171021.01468800008,"y":2540424.3687040024}},{"attributes":{"ID":470663,"DIS_CODE":0,"TOWNNAME":"安南區","LI":"新順里","LIN":"5鄰","STREET":"頂安街","SECT":" ","MAREA":" ","LANE":" ","ALLEY":" ","HOUSE_NO":"１６６號","E_COORD97":169342.12,"N_COORD97":2549404.7000000002,"ADDRESS":"頂安街１６６號","OBJECTID":470638},"geometry":{"x":169342.12000000104,"y":2549404.6999999993}},{"attributes":{"ID":470664,"DIS_CODE":0,"TOWNNAME":"安南區","LI":"安西里","LIN":"5鄰","STREET":"安通三街","SECT":" ","MAREA":" ","LANE":" ","ALLEY":" ","HOUSE_NO":"８８號","E_COORD97":168567.655891,"N_COORD97":2548023.2527999999,"ADDRESS":"安通三街８８號","OBJECTID":470639},"geometry":{"x":168567.65589100122,"y":2548023.2528010048}},{"attributes":{"ID":470665,"DIS_CODE":0,"TOWNNAME":"安南區","LI":"安西里","LIN":"5鄰","STREET":"安西二街","SECT":" ","MAREA":" ","LANE":" ","ALLEY":" ","HOUSE_NO":"１０６號","E_COORD97":168601.580002,"N_COORD97":2548024.9461300001,"ADDRESS":"安西二街１０６號","OBJECTID":470640},"geometry":{"x":168601.58000199962,"y":2548024.9461329989}},{"attributes":{"ID":470666,"DIS_CODE":0,"TOWNNAME":"安南區","LI":"安西里","LIN":"5鄰","STREET":"安西二街","SECT":" ","MAREA":" ","LANE":" ","ALLEY":" ","HOUSE_NO":"１０８號","E_COORD97":168594.79517900001,"N_COORD97":2548025.1578000002,"ADDRESS":"安西二街１０８號","OBJECTID":470641},"geometry":{"x":168594.79517899919,"y":2548025.1578000002}},{"attributes":{"ID":470667,"DIS_CODE":0,"TOWNNAME":"安南區","LI":"安西里","LIN":"5鄰","STREET":"安西二街","SECT":" ","MAREA":" ","LANE":" ","ALLEY":" ","HOUSE_NO":"１１０號","E_COORD97":168586.10212600001,"N_COORD97":2548024.9461300001,"ADDRESS":"安西二街１１０號","OBJECTID":470642},"geometry":{"x":168586.10212600045,"y":2548024.9461329989}},{"attributes":{"ID":470668,"DIS_CODE":0,"TOWNNAME":"安南區","LI":"安西里","LIN":"5鄰","STREET":"安西二街","SECT":" ","MAREA":" ","LANE":" ","ALLEY":" ","HOUSE_NO":"１１２號","E_COORD97":168577.62109900001,"N_COORD97":2548025.3694699998,"ADDRESS":"安西二街１１２號","OBJECTID":470643},"geometry":{"x":168577.6210990008,"y":2548025.3694660012}},{"attributes":{"ID":470669,"DIS_CODE":0,"TOWNNAME":"安南區","LI":"砂崙里","LIN":"5鄰","STREET":"青砂街","SECT":"一段","MAREA":" ","LANE":" ","ALLEY":" ","HOUSE_NO":"６６３號","E_COORD97":159955.38,"N_COORD97":2552765.5899999999,"ADDRESS":"青砂街一段６６３號","OBJECTID":470644},"geometry":{"x":159955.38000000082,"y":2552765.5899999999}},{"attributes":{"ID":470670,"DIS_CODE":0,"TOWNNAME":"安南區","LI":"布袋里","LIN":"5鄰","STREET":"長和路","SECT":"四段","MAREA":" ","LANE":" ","ALLEY":" ","HOUSE_NO":"２８３號","E_COORD97":168574.91,"N_COORD97":2551705.6299999999,"ADDRESS":"長和路四段２８３號","OBJECTID":470645},"geometry":{"x":168574.91000000015,"y":2551705.6300000008}},{"attributes":{"ID":470671,"DIS_CODE":0,"TOWNNAME":"安南區","LI":"布袋里","LIN":"5鄰","STREET":"長和路","SECT":"四段","MAREA":" ","LANE":" ","ALLEY":" ","HOUSE_NO":"２８５號","E_COORD97":168552.82999999999,"N_COORD97":2551724.7000000002,"ADDRESS":"長和路四段２８５號","OBJECTID":470646},"geometry":{"x":168552.83000000007,"y":2551724.6999999993}},{"attributes":{"ID":470672,"DIS_CODE":0,"TOWNNAME":"白河區","LI":"永安里","LIN":"5鄰","STREET":"七賢街","SECT":" ","MAREA":" ","LANE":" ","ALLEY":" ","HOUSE_NO":"１０１號","E_COORD97":190075.44,"N_COORD97":2582996.4900000002,"ADDRESS":"七賢街１０１號","OBJECTID":470647},"geometry":{"x":190075.44000000227,"y":2582996.4900000002}},{"attributes":{"ID":470673,"DIS_CODE":0,"TOWNNAME":"白河區","LI":"永安里","LIN":"5鄰","STREET":"七賢街","SECT":" ","MAREA":" ","LANE":" ","ALLEY":" ","HOUSE_NO":"１０３號","E_COORD97":190078.67000000001,"N_COORD97":2583000.98,"ADDRESS":"七賢街１０３號","OBJECTID":470648},"geometry":{"x":190078.67000000086,"y":2583000.9800000023}},{"attributes":{"ID":470674,"DIS_CODE":0,"TOWNNAME":"白河區","LI":"永安里","LIN":"5鄰","STREET":"七賢街","SECT":" ","MAREA":" ","LANE":" ","ALLEY":" ","HOUSE_NO":"１０５號","E_COORD97":190083.48999999999,"N_COORD97":2583006.8399999999,"ADDRESS":"七賢街１０５號","OBJECTID":470649},"geometry":{"x":190083.49000000115,"y":2583006.8399999999}},{"attributes":{"ID":470675,"DIS_CODE":0,"TOWNNAME":"白河區","LI":"永安里","LIN":"5鄰","STREET":"七賢街","SECT":" ","MAREA":" ","LANE":" ","ALLEY":" ","HOUSE_NO":"１０７號","E_COORD97":190085.67000000001,"N_COORD97":2583009.6099999999,"ADDRESS":"七賢街１０７號","OBJECTID":470650},"geometry":{"x":190085.67000000086,"y":2583009.6100000013}},{"attributes":{"ID":470676,"DIS_CODE":0,"TOWNNAME":"白河區","LI":"永安里","LIN":"5鄰","STREET":"七賢街","SECT":" ","MAREA":" ","LANE":" ","ALLEY":" ","HOUSE_NO":"１０９號","E_COORD97":190087.26000000001,"N_COORD97":2583012.6899999999,"ADDRESS":"七賢街１０９號","OBJECTID":470651},"geometry":{"x":190087.25999999978,"y":2583012.6900000013}},{"attributes":{"ID":470677,"DIS_CODE":0,"TOWNNAME":"白河區","LI":"永安里","LIN":"5鄰","STREET":"七賢街","SECT":" ","MAREA":" ","LANE":" ","ALLEY":" ","HOUSE_NO":"１１１號","E_COORD97":190089.10000000001,"N_COORD97":2583015.0699999998,"ADDRESS":"七賢街１１１號","OBJECTID":470652},"geometry":{"x":190089.10000000056,"y":2583015.0700000022}},{"attributes":{"ID":470678,"DIS_CODE":0,"TOWNNAME":"白河區","LI":"永安里","LIN":"5鄰","STREET":"七賢街","SECT":" ","MAREA":" ","LANE":" ","ALLEY":" ","HOUSE_NO":"１１５號","E_COORD97":190093.48999999999,"N_COORD97":2583024.6200000001,"ADDRESS":"七賢街１１５號","OBJECTID":470653},"geometry":{"x":190093.49000000209,"y":2583024.6200000029}},{"attributes":{"ID":470679,"DIS_CODE":0,"TOWNNAME":"白河區","LI":"永安里","LIN":"5鄰","STREET":"七賢街","SECT":" ","MAREA":" ","LANE":" ","ALLEY":" ","HOUSE_NO":"１１７號","E_COORD97":190095.60999999999,"N_COORD97":2583029.96,"ADDRESS":"七賢街１１７號","OBJECTID":470654},"geometry":{"x":190095.61000000034,"y":2583029.9600000028}},{"attributes":{"ID":470680,"DIS_CODE":0,"TOWNNAME":"白河區","LI":"永安里","LIN":"5鄰","STREET":"七賢街","SECT":" ","MAREA":" ","LANE":" ","ALLEY":" ","HOUSE_NO":"１１９號","E_COORD97":190095.39999999999,"N_COORD97":2583037.9199999999,"ADDRESS":"七賢街１１９號","OBJECTID":470655},"geometry":{"x":190095.40000000037,"y":2583037.9200000037}},{"attributes":{"ID":470681,"DIS_CODE":0,"TOWNNAME":"白河區","LI":"永安里","LIN":"5鄰","STREET":"七賢街","SECT":" ","MAREA":" ","LANE":" ","ALLEY":" ","HOUSE_NO":"９７號","E_COORD97":190067.70999999999,"N_COORD97":2582985.3100000001,"ADDRESS":"七賢街９７號","OBJECTID":470656},"geometry":{"x":190067.70999999996,"y":2582985.3100000024}},{"attributes":{"ID":470682,"DIS_CODE":0,"TOWNNAME":"白河區","LI":"永安里","LIN":"5鄰","STREET":"七賢街","SECT":" ","MAREA":" ","LANE":" ","ALLEY":" ","HOUSE_NO":"９９號","E_COORD97":190072.35999999999,"N_COORD97":2582991.9399999999,"ADDRESS":"七賢街９９號","OBJECTID":470657},"geometry":{"x":190072.3600000022,"y":2582991.9399999995}},{"attributes":{"ID":470683,"DIS_CODE":0,"TOWNNAME":"白河區","LI":"永安里","LIN":"5鄰","STREET":"九龍街","SECT":" ","MAREA":" ","LANE":" ","ALLEY":" ","HOUSE_NO":"５８號","E_COORD97":190060.01000000001,"N_COORD97":2582989.1200000001,"ADDRESS":"九龍街５８號","OBJECTID":470658},"geometry":{"x":190060.00999999978,"y":2582989.120000001}},{"attributes":{"ID":470684,"DIS_CODE":0,"TOWNNAME":"白河區","LI":"永安里","LIN":"5鄰","STREET":"九龍街","SECT":" ","MAREA":" ","LANE":" ","ALLEY":" ","HOUSE_NO":"５９號","E_COORD97":190048.64999999999,"N_COORD97":2582976.0499999998,"ADDRESS":"九龍街５９號","OBJECTID":470659},"geometry":{"x":190048.6500000013,"y":2582976.0500000007}},{"attributes":{"ID":470685,"DIS_CODE":0,"TOWNNAME":"白河區","LI":"永安里","LIN":"5鄰","STREET":"九龍街","SECT":" ","MAREA":" ","LANE":" ","ALLEY":" ","HOUSE_NO":"６０號","E_COORD97":190056.70999999999,"N_COORD97":2582991.5600000001,"ADDRESS":"九龍街６０號","OBJECTID":470660},"geometry":{"x":190056.71000000089,"y":2582991.5600000024}},{"attributes":{"ID":470686,"DIS_CODE":0,"TOWNNAME":"白河區","LI":"永安里","LIN":"5鄰","STREET":"九龍街","SECT":" ","MAREA":" ","LANE":" ","ALLEY":" ","HOUSE_NO":"６１號","E_COORD97":190044.75,"N_COORD97":2582978.6000000001,"ADDRESS":"九龍街６１號","OBJECTID":470661},"geometry":{"x":190044.75000000093,"y":2582978.6000000034}},{"attributes":{"ID":470687,"DIS_CODE":0,"TOWNNAME":"白河區","LI":"永安里","LIN":"5鄰","STREET":"九龍街","SECT":" ","MAREA":" ","LANE":" ","ALLEY":" ","HOUSE_NO":"６２號","E_COORD97":190053.01999999999,"N_COORD97":2582994.3799999999,"ADDRESS":"九龍街６２號","OBJECTID":470662},"geometry":{"x":190053.01999999955,"y":2582994.3800000008}},{"attributes":{"ID":470688,"DIS_CODE":0,"TOWNNAME":"白河區","LI":"永安里","LIN":"5鄰","STREET":"九龍街","SECT":" ","MAREA":" ","LANE":" ","ALLEY":" ","HOUSE_NO":"６３號","E_COORD97":190041.34,"N_COORD97":2582981.0099999998,"ADDRESS":"九龍街６３號","OBJECTID":470663},"geometry":{"x":190041.33999999985,"y":2582981.0100000016}},{"attributes":{"ID":470689,"DIS_CODE":0,"TOWNNAME":"白河區","LI":"永安里","LIN":"5鄰","STREET":"九龍街","SECT":" ","MAREA":" ","LANE":" ","ALLEY":" ","HOUSE_NO":"６４號","E_COORD97":190049.51000000001,"N_COORD97":2582996.4900000002,"ADDRESS":"九龍街６４號","OBJECTID":470664},"geometry":{"x":190049.51000000071,"y":2582996.4900000002}},{"attributes":{"ID":470690,"DIS_CODE":0,"TOWNNAME":"白河區","LI":"永安里","LIN":"5鄰","STREET":"九龍街","SECT":" ","MAREA":" ","LANE":" ","ALLEY":" ","HOUSE_NO":"６５號","E_COORD97":190038.01999999999,"N_COORD97":2582983.1899999999,"ADDRESS":"九龍街６５號","OBJECTID":470665},"geometry":{"x":190038.01999999955,"y":2582983.1899999995}},{"attributes":{"ID":470691,"DIS_CODE":0,"TOWNNAME":"麻豆區","LI":"穀興里","LIN":"5鄰","STREET":"振興街","SECT":" ","MAREA":" ","LANE":" ","ALLEY":" ","HOUSE_NO":"２６號","E_COORD97":172864.75,"N_COORD97":2564983.98,"ADDRESS":"振興街２６號","OBJECTID":470666},"geometry":{"x":172864.75,"y":2564983.9799999986}},{"attributes":{"ID":470692,"DIS_CODE":0,"TOWNNAME":"麻豆區","LI":"穀興里","LIN":"5鄰","STREET":"振興街","SECT":" ","MAREA":" ","LANE":" ","ALLEY":" ","HOUSE_NO":"２８號之１","E_COORD97":172849,"N_COORD97":2564986.0899999999,"ADDRESS":"振興街２８號之１","OBJECTID":470667},"geometry":{"x":172849,"y":2564986.0900000036}},{"attributes":{"ID":470693,"DIS_CODE":0,"TOWNNAME":"麻豆區","LI":"穀興里","LIN":"5鄰","STREET":"振興街","SECT":" ","MAREA":" ","LANE":" ","ALLEY":" ","HOUSE_NO":"２８號之２","E_COORD97":172841.47,"N_COORD97":2564987,"ADDRESS":"振興街２８號之２","OBJECTID":470668},"geometry":{"x":172841.47000000067,"y":2564987.0000000037}},{"attributes":{"ID":470694,"DIS_CODE":0,"TOWNNAME":"麻豆區","LI":"穀興里","LIN":"5鄰","STREET":"振興街","SECT":" ","MAREA":" ","LANE":" ","ALLEY":" ","HOUSE_NO":"２８號之３","E_COORD97":172830.01999999999,"N_COORD97":2565029.6200000001,"ADDRESS":"振興街２８號之３","OBJECTID":470669},"geometry":{"x":172830.01999999955,"y":2565029.6200000029}},{"attributes":{"ID":470695,"DIS_CODE":0,"TOWNNAME":"麻豆區","LI":"穀興里","LIN":"5鄰","STREET":"振興街","SECT":" ","MAREA":" ","LANE":" ","ALLEY":" ","HOUSE_NO":"２８號之４","E_COORD97":172825.76999999999,"N_COORD97":2565029.23,"ADDRESS":"振興街２８號之４","OBJECTID":470670},"geometry":{"x":172825.77000000048,"y":2565029.2300000004}},{"attributes":{"ID":470696,"DIS_CODE":0,"TOWNNAME":"麻豆區","LI":"穀興里","LIN":"5鄰","STREET":"振興街","SECT":" ","MAREA":" ","LANE":" ","ALLEY":" ","HOUSE_NO":"２８號","E_COORD97":172857.70999999999,"N_COORD97":2564984.1600000001,"ADDRESS":"振興街２８號","OBJECTID":470671},"geometry":{"x":172857.70999999996,"y":2564984.160000002}},{"attributes":{"ID":470697,"DIS_CODE":0,"TOWNNAME":"麻豆區","LI":"穀興里","LIN":"5鄰","STREET":"振興街","SECT":" ","MAREA":" ","LANE":" ","ALLEY":" ","HOUSE_NO":"３４號","E_COORD97":172838.84,"N_COORD97":2565002.4700000002,"ADDRESS":"振興街３４號","OBJECTID":470672},"geometry":{"x":172838.84000000171,"y":2565002.4700000025}},{"attributes":{"ID":470698,"DIS_CODE":0,"TOWNNAME":"麻豆區","LI":"穀興里","LIN":"5鄰","STREET":"振興街","SECT":" ","MAREA":" ","LANE":" ","ALLEY":" ","HOUSE_NO":"４０號","E_COORD97":172818,"N_COORD97":2564973.9399999999,"ADDRESS":"振興街４０號","OBJECTID":470673},"geometry":{"x":172818.00000000093,"y":2564973.9400000013}},{"attributes":{"ID":470699,"DIS_CODE":0,"TOWNNAME":"麻豆區","LI":"穀興里","LIN":"5鄰","STREET":"振興街","SECT":" ","MAREA":" ","LANE":" ","ALLEY":" ","HOUSE_NO":"４２號之１０","E_COORD97":172822.89999999999,"N_COORD97":2565000.1499999999,"ADDRESS":"振興街４２號之１０","OBJECTID":470674},"geometry":{"x":172822.90000000037,"y":2565000.1500000041}},{"attributes":{"ID":470700,"DIS_CODE":0,"TOWNNAME":"麻豆區","LI":"穀興里","LIN":"5鄰","STREET":"振興街","SECT":" ","MAREA":" ","LANE":" ","ALLEY":" ","HOUSE_NO":"４２號之１１","E_COORD97":172823.10000000001,"N_COORD97":2565004.21,"ADDRESS":"振興街４２號之１１","OBJECTID":470675},"geometry":{"x":172823.10000000149,"y":2565004.2100000028}},{"attributes":{"ID":470701,"DIS_CODE":0,"TOWNNAME":"麻豆區","LI":"穀興里","LIN":"5鄰","STREET":"振興街","SECT":" ","MAREA":" ","LANE":" ","ALLEY":" ","HOUSE_NO":"４２號之６","E_COORD97":172824.03,"N_COORD97":2564983.23,"ADDRESS":"振興街４２號之６","OBJECTID":470676},"geometry":{"x":172824.03000000026,"y":2564983.2300000023}},{"attributes":{"ID":470702,"DIS_CODE":0,"TOWNNAME":"麻豆區","LI":"穀興里","LIN":"5鄰","STREET":"振興街","SECT":" ","MAREA":" ","LANE":" ","ALLEY":" ","HOUSE_NO":"４２號之７","E_COORD97":172823.84,"N_COORD97":2564987.4399999999,"ADDRESS":"振興街４２號之７","OBJECTID":470677},"geometry":{"x":172823.84000000078,"y":2564987.4400000013}},{"attributes":{"ID":470703,"DIS_CODE":0,"TOWNNAME":"麻豆區","LI":"穀興里","LIN":"5鄰","STREET":"振興街","SECT":" ","MAREA":" ","LANE":" ","ALLEY":" ","HOUSE_NO":"４２號之８","E_COORD97":172823.75,"N_COORD97":2564991.5099999998,"ADDRESS":"振興街４２號之８","OBJECTID":470678},"geometry":{"x":172823.75,"y":2564991.5100000016}},{"attributes":{"ID":470704,"DIS_CODE":0,"TOWNNAME":"麻豆區","LI":"穀興里","LIN":"5鄰","STREET":"振興街","SECT":" ","MAREA":" ","LANE":" ","ALLEY":" ","HOUSE_NO":"４２號之９","E_COORD97":172822.85999999999,"N_COORD97":2564995.9500000002,"ADDRESS":"振興街４２號之９","OBJECTID":470679},"geometry":{"x":172822.86000000127,"y":2564995.9499999993}},{"attributes":{"ID":470705,"DIS_CODE":0,"TOWNNAME":"麻豆區","LI":"穀興里","LIN":"5鄰","STREET":"振興街","SECT":" ","MAREA":" ","LANE":" ","ALLEY":" ","HOUSE_NO":"４２號","E_COORD97":172823.92000000001,"N_COORD97":2564973.8900000001,"ADDRESS":"振興街４２號","OBJECTID":470680},"geometry":{"x":172823.91999999993,"y":2564973.8900000006}},{"attributes":{"ID":470706,"DIS_CODE":0,"TOWNNAME":"麻豆區","LI":"穀興里","LIN":"5鄰","STREET":"振興街","SECT":" ","MAREA":" ","LANE":" ","ALLEY":" ","HOUSE_NO":"４６號","E_COORD97":172823.78,"N_COORD97":2564964.6699999999,"ADDRESS":"振興街４６號","OBJECTID":470681},"geometry":{"x":172823.78000000026,"y":2564964.6699999999}},{"attributes":{"ID":470707,"DIS_CODE":0,"TOWNNAME":"永康區","LI":"\u25A0洲里","LIN":"5鄰","STREET":"仁愛街","SECT":" ","MAREA":" ","LANE":" ","ALLEY":" ","HOUSE_NO":"１１７號","E_COORD97":172093.20000000001,"N_COORD97":2549648.7799999998,"ADDRESS":"仁愛街１１７號","OBJECTID":470682},"geometry":{"x":172093.20000000112,"y":2549648.7799999993}},{"attributes":{"ID":470708,"DIS_CODE":0,"TOWNNAME":"永康區","LI":"新樹里","LIN":"5鄰","STREET":"富強路","SECT":"二段","MAREA":" ","LANE":" ","ALLEY":" ","HOUSE_NO":"８號","E_COORD97":175716.01999999999,"N_COORD97":2546818.79,"ADDRESS":"富強路二段８號","OBJECTID":470683},"geometry":{"x":175716.02000000048,"y":2546818.790000001}},{"attributes":{"ID":470709,"DIS_CODE":0,"TOWNNAME":"永康區","LI":"\u25A0洲里","LIN":"5鄰","STREET":"仁愛街","SECT":" ","MAREA":" ","LANE":" ","ALLEY":" ","HOUSE_NO":"８１號","E_COORD97":172021.25,"N_COORD97":2549419.2799999998,"ADDRESS":"仁愛街８１號","OBJECTID":470684},"geometry":{"x":172021.25000000093,"y":2549419.2800000031}},{"attributes":{"ID":470710,"DIS_CODE":0,"TOWNNAME":"永康區","LI":"\u25A0洲里","LIN":"5鄰","STREET":"仁愛街","SECT":" ","MAREA":" ","LANE":" ","ALLEY":" ","HOUSE_NO":"１０１號","E_COORD97":172039.89000000001,"N_COORD97":2549459.52,"ADDRESS":"仁愛街１０１號","OBJECTID":470685},"geometry":{"x":172039.8900000006,"y":2549459.5200000014}},{"attributes":{"ID":470711,"DIS_CODE":0,"TOWNNAME":"永康區","LI":"\u25A0洲里","LIN":"5鄰","STREET":"仁愛街","SECT":" ","MAREA":" ","LANE":" ","ALLEY":" ","HOUSE_NO":"１０７號","E_COORD97":172048.60000000001,"N_COORD97":2549477.7799999998,"ADDRESS":"仁愛街１０７號","OBJECTID":470686},"geometry":{"x":172048.60000000056,"y":2549477.7800000012}},{"attributes":{"ID":470712,"DIS_CODE":0,"TOWNNAME":"永康區","LI":"\u25A0洲里","LIN":"5鄰","STREET":"仁愛街","SECT":" ","MAREA":" ","LANE":" ","ALLEY":" ","HOUSE_NO":"１０５號","E_COORD97":172045.69,"N_COORD97":2549473.7799999998,"ADDRESS":"仁愛街１０５號","OBJECTID":470687},"geometry":{"x":172045.69000000134,"y":2549473.7800000012}},{"attributes":{"ID":470713,"DIS_CODE":0,"TOWNNAME":"永康區","LI":"\u25A0洲里","LIN":"5鄰","STREET":"仁愛街","SECT":" ","MAREA":" ","LANE":" ","ALLEY":" ","HOUSE_NO":"７５號","E_COORD97":172016.07999999999,"N_COORD97":2549407.1400000001,"ADDRESS":"仁愛街７５號","OBJECTID":470688},"geometry":{"x":172016.08000000007,"y":2549407.1400000006}},{"attributes":{"ID":470714,"DIS_CODE":0,"TOWNNAME":"安南區","LI":"大安里","LIN":"5鄰","STREET":"理安街","SECT":" ","MAREA":" ","LANE":" ","ALLEY":" ","HOUSE_NO":"５３號","E_COORD97":167321,"N_COORD97":2547989.9700000002,"ADDRESS":"理安街５３號","OBJECTID":470689},"geometry":{"x":167321,"y":2547989.9700000025}},{"attributes":{"ID":470715,"DIS_CODE":0,"TOWNNAME":"安南區","LI":"大安里","LIN":"5鄰","STREET":"理安街","SECT":" ","MAREA":" ","LANE":" ","ALLEY":" ","HOUSE_NO":"６９號","E_COORD97":167343.14000000001,"N_COORD97":2548021.9100000001,"ADDRESS":"理安街６９號","OBJECTID":470690},"geometry":{"x":167343.1400000006,"y":2548021.9100000001}},{"attributes":{"ID":470716,"DIS_CODE":0,"TOWNNAME":"下營區","LI":"仁里里","LIN":"12鄰","STREET":"蚵寮街","SECT":" ","MAREA":" ","LANE":" ","ALLEY":" ","HOUSE_NO":"６號","E_COORD97":174184.73999999999,"N_COORD97":2570322.3700000001,"ADDRESS":"蚵寮街６號","OBJECTID":470691},"geometry":{"x":174184.74000000115,"y":2570322.3700000029}},{"attributes":{"ID":470717,"DIS_CODE":0,"TOWNNAME":"安南區","LI":"大安里","LIN":"5鄰","STREET":"大安街","SECT":" ","MAREA":" ","LANE":" ","ALLEY":" ","HOUSE_NO":"８８號","E_COORD97":167235.09,"N_COORD97":2548044.73,"ADDRESS":"大安街８８號","OBJECTID":470692},"geometry":{"x":167235.09000000078,"y":2548044.7300000023}},{"attributes":{"ID":470718,"DIS_CODE":0,"TOWNNAME":"安南區","LI":"大安里","LIN":"5鄰","STREET":"大安街","SECT":" ","MAREA":" ","LANE":" ","ALLEY":" ","HOUSE_NO":"９２號","E_COORD97":167240.47,"N_COORD97":2548052.5899999999,"ADDRESS":"大安街９２號","OBJECTID":470693},"geometry":{"x":167240.47000000067,"y":2548052.5900000017}},{"attributes":{"ID":470719,"DIS_CODE":0,"TOWNNAME":"安南區","LI":"溪北里","LIN":"5鄰","STREET":"安和路","SECT":"一段","MAREA":" ","LANE":" ","ALLEY":" ","HOUSE_NO":"５７號","E_COORD97":169609.25,"N_COORD97":2547742.5800000001,"ADDRESS":"安和路一段５７號","OBJECTID":470694},"geometry":{"x":169609.25000000093,"y":2547742.5800000001}},{"attributes":{"ID":470720,"DIS_CODE":0,"TOWNNAME":"善化區","LI":"南關里","LIN":"5鄰","STREET":"永安路","SECT":" ","MAREA":" ","LANE":" ","ALLEY":" ","HOUSE_NO":"５８號","E_COORD97":177090.63,"N_COORD97":2558703.02,"ADDRESS":"永安路５８號","OBJECTID":470695},"geometry":{"x":177090.63000000082,"y":2558703.0199999996}},{"attributes":{"ID":470721,"DIS_CODE":0,"TOWNNAME":"善化區","LI":"坐駕里","LIN":"5鄰","STREET":"民生路","SECT":" ","MAREA":" ","LANE":" ","ALLEY":" ","HOUSE_NO":"３９９號","E_COORD97":177908.01999999999,"N_COORD97":2558865.5099999998,"ADDRESS":"民生路３９９號","OBJECTID":470696},"geometry":{"x":177908.02000000048,"y":2558865.5099999998}},{"attributes":{"ID":470722,"DIS_CODE":0,"TOWNNAME":"善化區","LI":"坐駕里","LIN":"5鄰","STREET":"中正路","SECT":" ","MAREA":" ","LANE":" ","ALLEY":" ","HOUSE_NO":"４２０之２號","E_COORD97":177734.14000000001,"N_COORD97":2558883.02,"ADDRESS":"中正路４２０之２號","OBJECTID":470697},"geometry":{"x":177734.1400000006,"y":2558883.0199999996}},{"attributes":{"ID":470723,"DIS_CODE":0,"TOWNNAME":"善化區","LI":"坐駕里","LIN":"5鄰","STREET":"中正路","SECT":" ","MAREA":" ","LANE":" ","ALLEY":" ","HOUSE_NO":"３８６號","E_COORD97":177707.32000000001,"N_COORD97":2558775.75,"ADDRESS":"中正路３８６號","OBJECTID":470698},"geometry":{"x":177707.3200000003,"y":2558775.7500000019}},{"attributes":{"ID":470724,"DIS_CODE":0,"TOWNNAME":"善化區","LI":"北關里","LIN":"5鄰","STREET":"中山路","SECT":" ","MAREA":" ","LANE":" ","ALLEY":" ","HOUSE_NO":"５１６號","E_COORD97":177154.53,"N_COORD97":2559157,"ADDRESS":"中山路５１６號","OBJECTID":470699},"geometry":{"x":177154.53000000119,"y":2559157.0000000019}},{"attributes":{"ID":470725,"DIS_CODE":0,"TOWNNAME":"善化區","LI":"坐駕里","LIN":"5鄰","STREET":"中正路","SECT":" ","MAREA":" ","LANE":" ","ALLEY":" ","HOUSE_NO":"４０８號","E_COORD97":177705.12,"N_COORD97":2558840.5,"ADDRESS":"中正路４０８號","OBJECTID":470700},"geometry":{"x":177705.12000000011,"y":2558840.5000000019}},{"attributes":{"ID":470726,"DIS_CODE":0,"TOWNNAME":"善化區","LI":"南關里","LIN":"5鄰","STREET":"永安路","SECT":" ","MAREA":" ","LANE":" ","ALLEY":" ","HOUSE_NO":"１０１號","E_COORD97":177073.57000000001,"N_COORD97":2558798.52,"ADDRESS":"永安路１０１號","OBJECTID":470701},"geometry":{"x":177073.5700000003,"y":2558798.5199999996}},{"attributes":{"ID":470727,"DIS_CODE":0,"TOWNNAME":"善化區","LI":"南關里","LIN":"5鄰","STREET":"永安路","SECT":" ","MAREA":" ","LANE":" ","ALLEY":" ","HOUSE_NO":"５２號","E_COORD97":177095.88,"N_COORD97":2558690.27,"ADDRESS":"永安路５２號","OBJECTID":470702},"geometry":{"x":177095.88000000082,"y":2558690.2700000014}},{"attributes":{"ID":470728,"DIS_CODE":0,"TOWNNAME":"善化區","LI":"坐駕里","LIN":"5鄰","STREET":"民生路","SECT":" ","MAREA":" ","LANE":" ","ALLEY":" ","HOUSE_NO":"３９５號","E_COORD97":177916.07000000001,"N_COORD97":2558867.0099999998,"ADDRESS":"民生路３９５號","OBJECTID":470703},"geometry":{"x":177916.0700000003,"y":2558867.0100000035}},{"attributes":{"ID":470729,"DIS_CODE":0,"TOWNNAME":"善化區","LI":"東關里","LIN":"5鄰","STREET":"進學路","SECT":" ","MAREA":" ","LANE":" ","ALLEY":" ","HOUSE_NO":"１１號","E_COORD97":177379.22,"N_COORD97":2559147.5,"ADDRESS":"進學路１１號","OBJECTID":470704},"geometry":{"x":177379.2200000016,"y":2559147.5}},{"attributes":{"ID":470730,"DIS_CODE":0,"TOWNNAME":"善化區","LI":"南關里","LIN":"5鄰","STREET":"永安路","SECT":" ","MAREA":" ","LANE":" ","ALLEY":" ","HOUSE_NO":"５４號","E_COORD97":177094.23000000001,"N_COORD97":2558694.77,"ADDRESS":"永安路５４號","OBJECTID":470705},"geometry":{"x":177094.23000000045,"y":2558694.7699999996}},{"attributes":{"ID":470731,"DIS_CODE":0,"TOWNNAME":"善化區","LI":"南關里","LIN":"5鄰","STREET":"三民路","SECT":" ","MAREA":" ","LANE":" ","ALLEY":" ","HOUSE_NO":"４之５號","E_COORD97":177038.14999999999,"N_COORD97":2558714.02,"ADDRESS":"三民路４之５號","OBJECTID":470706},"geometry":{"x":177038.1500000013,"y":2558714.0200000033}},{"attributes":{"ID":470732,"DIS_CODE":0,"TOWNNAME":"善化區","LI":"坐駕里","LIN":"5鄰","STREET":"青年路","SECT":" ","MAREA":" ","LANE":" ","ALLEY":" ","HOUSE_NO":"１２９號","E_COORD97":177826.79000000001,"N_COORD97":2558900.5,"ADDRESS":"青年路１２９號","OBJECTID":470707},"geometry":{"x":177826.79000000097,"y":2558900.5}},{"attributes":{"ID":470733,"DIS_CODE":0,"TOWNNAME":"善化區","LI":"南關里","LIN":"5鄰","STREET":"永安路","SECT":" ","MAREA":" ","LANE":" ","ALLEY":" ","HOUSE_NO":"６１號","E_COORD97":177110.29999999999,"N_COORD97":2558704.27,"ADDRESS":"永安路６１號","OBJECTID":470708},"geometry":{"x":177110.29999999981,"y":2558704.2699999996}},{"attributes":{"ID":470734,"DIS_CODE":0,"TOWNNAME":"善化區","LI":"南關里","LIN":"5鄰","STREET":"永安路","SECT":" ","MAREA":" ","LANE":" ","ALLEY":" ","HOUSE_NO":"６９號","E_COORD97":177104.78,"N_COORD97":2558720.77,"ADDRESS":"永安路６９號","OBJECTID":470709},"geometry":{"x":177104.78000000119,"y":2558720.7700000014}},{"attributes":{"ID":470735,"DIS_CODE":0,"TOWNNAME":"善化區","LI":"南關里","LIN":"5鄰","STREET":"永福路","SECT":" ","MAREA":" ","LANE":" ","ALLEY":" ","HOUSE_NO":"１９１號","E_COORD97":177117.81,"N_COORD97":2558724.75,"ADDRESS":"永福路１９１號","OBJECTID":470710},"geometry":{"x":177117.81000000052,"y":2558724.7500000019}},{"attributes":{"ID":470736,"DIS_CODE":0,"TOWNNAME":"善化區","LI":"南關里","LIN":"5鄰","STREET":"永安路","SECT":" ","MAREA":" ","LANE":" ","ALLEY":" ","HOUSE_NO":"９３號","E_COORD97":177080.07999999999,"N_COORD97":2558784.52,"ADDRESS":"永安路９３號","OBJECTID":470711},"geometry":{"x":177080.08000000007,"y":2558784.5199999996}},{"attributes":{"ID":470737,"DIS_CODE":0,"TOWNNAME":"歸仁區","LI":"後市里","LIN":"14鄰","STREET":"大吉一街","SECT":" ","MAREA":" ","LANE":"１２巷","ALLEY":" ","HOUSE_NO":"２號","E_COORD97":177160.75,"N_COORD97":2540793.1200000001,"ADDRESS":"大吉一街１２巷２號","OBJECTID":470712},"geometry":{"x":177160.75000000093,"y":2540793.120000001}},{"attributes":{"ID":470738,"DIS_CODE":0,"TOWNNAME":"善化區","LI":"南關里","LIN":"5鄰","STREET":"文昌路","SECT":" ","MAREA":" ","LANE":" ","ALLEY":" ","HOUSE_NO":"８０號","E_COORD97":177055.54000000001,"N_COORD97":2558646.7799999998,"ADDRESS":"文昌路８０號","OBJECTID":470713},"geometry":{"x":177055.54000000097,"y":2558646.7799999993}},{"attributes":{"ID":470739,"DIS_CODE":0,"TOWNNAME":"善化區","LI":"南關里","LIN":"5鄰","STREET":"文昌路","SECT":" ","MAREA":" ","LANE":" ","ALLEY":" ","HOUSE_NO":"６２號","E_COORD97":177095.76000000001,"N_COORD97":2558666.2799999998,"ADDRESS":"文昌路６２號","OBJECTID":470714},"geometry":{"x":177095.76000000164,"y":2558666.2800000012}},{"attributes":{"ID":470740,"DIS_CODE":0,"TOWNNAME":"善化區","LI":"南關里","LIN":"5鄰","STREET":"永安路","SECT":" ","MAREA":" ","LANE":" ","ALLEY":" ","HOUSE_NO":"９５號","E_COORD97":177079.5,"N_COORD97":2558788.27,"ADDRESS":"永安路９５號","OBJECTID":470715},"geometry":{"x":177079.50000000093,"y":2558788.2700000014}},{"attributes":{"ID":470741,"DIS_CODE":0,"TOWNNAME":"善化區","LI":"南關里","LIN":"5鄰","STREET":"永安路","SECT":" ","MAREA":" ","LANE":" ","ALLEY":" ","HOUSE_NO":"１０５號","E_COORD97":177070.35999999999,"N_COORD97":2558806.02,"ADDRESS":"永安路１０５號","OBJECTID":470716},"geometry":{"x":177070.3600000022,"y":2558806.0200000014}},{"attributes":{"ID":470742,"DIS_CODE":0,"TOWNNAME":"善化區","LI":"南關里","LIN":"5鄰","STREET":"永安路","SECT":" ","MAREA":" ","LANE":" ","ALLEY":" ","HOUSE_NO":"１０３號","E_COORD97":177072.07000000001,"N_COORD97":2558802.27,"ADDRESS":"永安路１０３號","OBJECTID":470717},"geometry":{"x":177072.06999999937,"y":2558802.2700000014}},{"attributes":{"ID":470743,"DIS_CODE":0,"TOWNNAME":"善化區","LI":"南關里","LIN":"5鄰","STREET":"三民路","SECT":" ","MAREA":" ","LANE":" ","ALLEY":" ","HOUSE_NO":"１４號之１","E_COORD97":177077.85999999999,"N_COORD97":2558845.27,"ADDRESS":"三民路１４號之１","OBJECTID":470718},"geometry":{"x":177077.86000000127,"y":2558845.2700000014}},{"attributes":{"ID":470744,"DIS_CODE":0,"TOWNNAME":"善化區","LI":"南關里","LIN":"5鄰","STREET":"文昌路","SECT":" ","MAREA":" ","LANE":" ","ALLEY":" ","HOUSE_NO":"７４號","E_COORD97":177075.67000000001,"N_COORD97":2558649.0299999998,"ADDRESS":"文昌路７４號","OBJECTID":470719},"geometry":{"x":177075.66999999993,"y":2558649.0299999993}},{"attributes":{"ID":470745,"DIS_CODE":0,"TOWNNAME":"善化區","LI":"東關里","LIN":"5鄰","STREET":"進學路","SECT":" ","MAREA":" ","LANE":" ","ALLEY":" ","HOUSE_NO":"７號之１","E_COORD97":177374.67999999999,"N_COORD97":2559152.77,"ADDRESS":"進學路７號之１","OBJECTID":470720},"geometry":{"x":177374.68000000063,"y":2559152.7699999996}},{"attributes":{"ID":470746,"DIS_CODE":0,"TOWNNAME":"善化區","LI":"坐駕里","LIN":"5鄰","STREET":"青年路","SECT":" ","MAREA":" ","LANE":" ","ALLEY":" ","HOUSE_NO":"１０９號","E_COORD97":177842.87,"N_COORD97":2558823.5,"ADDRESS":"青年路１０９號","OBJECTID":470721},"geometry":{"x":177842.86999999918,"y":2558823.5000000037}},{"attributes":{"ID":470747,"DIS_CODE":0,"TOWNNAME":"善化區","LI":"南關里","LIN":"5鄰","STREET":"文昌路","SECT":" ","MAREA":" ","LANE":" ","ALLEY":" ","HOUSE_NO":"７２號","E_COORD97":177078.97,"N_COORD97":2558651.5299999998,"ADDRESS":"文昌路７２號","OBJECTID":470722},"geometry":{"x":177078.96999999881,"y":2558651.5299999993}},{"attributes":{"ID":470748,"DIS_CODE":0,"TOWNNAME":"善化區","LI":"南關里","LIN":"5鄰","STREET":"三民路","SECT":" ","MAREA":" ","LANE":" ","ALLEY":" ","HOUSE_NO":"４號之１０","E_COORD97":177021.14999999999,"N_COORD97":2558663.52,"ADDRESS":"三民路４號之１０","OBJECTID":470723},"geometry":{"x":177021.1500000013,"y":2558663.5200000033}},{"attributes":{"ID":470749,"DIS_CODE":0,"TOWNNAME":"善化區","LI":"南關里","LIN":"5鄰","STREET":"文昌路","SECT":" ","MAREA":" ","LANE":" ","ALLEY":" ","HOUSE_NO":"７６號","E_COORD97":177072.12,"N_COORD97":2558645.7799999998,"ADDRESS":"文昌路７６號","OBJECTID":470724},"geometry":{"x":177072.12000000104,"y":2558645.7800000012}},{"attributes":{"ID":470750,"DIS_CODE":0,"TOWNNAME":"善化區","LI":"南關里","LIN":"5鄰","STREET":"永安路","SECT":" ","MAREA":" ","LANE":" ","ALLEY":" ","HOUSE_NO":"５９號","E_COORD97":177111.35000000001,"N_COORD97":2558700.02,"ADDRESS":"永安路５９號","OBJECTID":470725},"geometry":{"x":177111.34999999963,"y":2558700.0199999996}},{"attributes":{"ID":470751,"DIS_CODE":0,"TOWNNAME":"善化區","LI":"南關里","LIN":"5鄰","STREET":"文昌路","SECT":" ","MAREA":" ","LANE":" ","ALLEY":" ","HOUSE_NO":"１３１號之１","E_COORD97":177093.84,"N_COORD97":2558602.7799999998,"ADDRESS":"文昌路１３１號之１","OBJECTID":470726},"geometry":{"x":177093.84000000078,"y":2558602.7799999993}},{"attributes":{"ID":470752,"DIS_CODE":0,"TOWNNAME":"善化區","LI":"南關里","LIN":"5鄰","STREET":"永安路","SECT":" ","MAREA":" ","LANE":" ","ALLEY":" ","HOUSE_NO":"６３號","E_COORD97":177108.87,"N_COORD97":2558708.27,"ADDRESS":"永安路６３號","OBJECTID":470727},"geometry":{"x":177108.86999999918,"y":2558708.2699999996}},{"attributes":{"ID":470753,"DIS_CODE":0,"TOWNNAME":"善化區","LI":"南關里","LIN":"5鄰","STREET":"文昌路","SECT":" ","MAREA":" ","LANE":" ","ALLEY":" ","HOUSE_NO":"６６號","E_COORD97":177088.76000000001,"N_COORD97":2558660.0299999998,"ADDRESS":"文昌路６６號","OBJECTID":470728},"geometry":{"x":177088.75999999978,"y":2558660.0300000012}},{"attributes":{"ID":470754,"DIS_CODE":0,"TOWNNAME":"善化區","LI":"南關里","LIN":"5鄰","STREET":"永安路","SECT":" ","MAREA":" ","LANE":" ","ALLEY":" ","HOUSE_NO":"１０７號","E_COORD97":177068.79999999999,"N_COORD97":2558810.52,"ADDRESS":"永安路１０７號","OBJECTID":470729},"geometry":{"x":177068.80000000075,"y":2558810.5200000014}},{"attributes":{"ID":470755,"DIS_CODE":0,"TOWNNAME":"善化區","LI":"西關里","LIN":"5鄰","STREET":"三民路","SECT":" ","MAREA":" ","LANE":" ","ALLEY":" ","HOUSE_NO":"７６號","E_COORD97":177127.47,"N_COORD97":2559137.5099999998,"ADDRESS":"三民路７６號","OBJECTID":470730},"geometry":{"x":177127.46999999974,"y":2559137.5099999998}},{"attributes":{"ID":470756,"DIS_CODE":0,"TOWNNAME":"善化區","LI":"坐駕里","LIN":"5鄰","STREET":"民生路","SECT":" ","MAREA":" ","LANE":" ","ALLEY":" ","HOUSE_NO":"４１３號","E_COORD97":177876.12,"N_COORD97":2558860.2599999998,"ADDRESS":"民生路４１３號","OBJECTID":470731},"geometry":{"x":177876.12000000011,"y":2558860.2599999998}},{"attributes":{"ID":470757,"DIS_CODE":0,"TOWNNAME":"善化區","LI":"北關里","LIN":"5鄰","STREET":"中山路","SECT":" ","MAREA":" ","LANE":" ","ALLEY":" ","HOUSE_NO":"５０６號","E_COORD97":177184.92000000001,"N_COORD97":2559158.25,"ADDRESS":"中山路５０６號","OBJECTID":470732},"geometry":{"x":177184.92000000086,"y":2559158.2500000019}},{"attributes":{"ID":470758,"DIS_CODE":0,"TOWNNAME":"善化區","LI":"坐駕里","LIN":"5鄰","STREET":"民生路","SECT":" ","MAREA":" ","LANE":" ","ALLEY":" ","HOUSE_NO":"４２０號","E_COORD97":177822.19,"N_COORD97":2558871.0099999998,"ADDRESS":"民生路４２０號","OBJECTID":470733},"geometry":{"x":177822.19000000041,"y":2558871.0100000016}},{"attributes":{"ID":470759,"DIS_CODE":0,"TOWNNAME":"善化區","LI":"坐駕里","LIN":"5鄰","STREET":"中正路","SECT":" ","MAREA":" ","LANE":" ","ALLEY":" ","HOUSE_NO":"３８８號","E_COORD97":177703.20000000001,"N_COORD97":2558795.75,"ADDRESS":"中正路３８８號","OBJECTID":470734},"geometry":{"x":177703.20000000019,"y":2558795.7500000019}},{"attributes":{"ID":470760,"DIS_CODE":0,"TOWNNAME":"善化區","LI":"坐駕里","LIN":"5鄰","STREET":"中正路","SECT":" ","MAREA":" ","LANE":" ","ALLEY":" ","HOUSE_NO":"３８６號之１","E_COORD97":177706.94,"N_COORD97":2558786.77,"ADDRESS":"中正路３８６號之１","OBJECTID":470735},"geometry":{"x":177706.94000000041,"y":2558786.7699999977}},{"attributes":{"ID":470761,"DIS_CODE":0,"TOWNNAME":"善化區","LI":"坐駕里","LIN":"5鄰","STREET":"民生路","SECT":" ","MAREA":" ","LANE":" ","ALLEY":" ","HOUSE_NO":"４０１號","E_COORD97":177903.26999999999,"N_COORD97":2558864.5099999998,"ADDRESS":"民生路４０１號","OBJECTID":470736},"geometry":{"x":177903.26999999955,"y":2558864.5100000016}},{"attributes":{"ID":470762,"DIS_CODE":0,"TOWNNAME":"善化區","LI":"坐駕里","LIN":"5鄰","STREET":"中正路","SECT":" ","MAREA":" ","LANE":" ","ALLEY":" ","HOUSE_NO":"３９２號","E_COORD97":177702.89999999999,"N_COORD97":2558803.25,"ADDRESS":"中正路３９２號","OBJECTID":470737},"geometry":{"x":177702.9000000013,"y":2558803.25}},{"attributes":{"ID":470763,"DIS_CODE":0,"TOWNNAME":"善化區","LI":"北關里","LIN":"5鄰","STREET":"中山路","SECT":" ","MAREA":" ","LANE":" ","ALLEY":" ","HOUSE_NO":"５１０號","E_COORD97":177162.75,"N_COORD97":2559166.9900000002,"ADDRESS":"中山路５１０號","OBJECTID":470738},"geometry":{"x":177162.75000000093,"y":2559166.9900000021}},{"attributes":{"ID":470764,"DIS_CODE":0,"TOWNNAME":"善化區","LI":"坐駕里","LIN":"5鄰","STREET":"大智路","SECT":" ","MAREA":" ","LANE":" ","ALLEY":" ","HOUSE_NO":"７號","E_COORD97":177768.42000000001,"N_COORD97":2558820.75,"ADDRESS":"大智路７號","OBJECTID":470739},"geometry":{"x":177768.42000000086,"y":2558820.75}},{"attributes":{"ID":470765,"DIS_CODE":0,"TOWNNAME":"永康區","LI":"新樹里","LIN":"5鄰","STREET":"西勢路","SECT":" ","MAREA":" ","LANE":" ","ALLEY":" ","HOUSE_NO":"１９８號","E_COORD97":175811.14000000001,"N_COORD97":2546772.1600000001,"ADDRESS":"西勢路１９８號","OBJECTID":470740},"geometry":{"x":175811.13999999966,"y":2546772.1600000001}},{"attributes":{"ID":470766,"DIS_CODE":0,"TOWNNAME":"永康區","LI":"蔦松里","LIN":"5鄰","STREET":"蔦松一街","SECT":" ","MAREA":" ","LANE":" ","ALLEY":" ","HOUSE_NO":"６３號","E_COORD97":173847.64000000001,"N_COORD97":2549467.7400000002,"ADDRESS":"蔦松一街６３號","OBJECTID":470741},"geometry":{"x":173847.6400000006,"y":2549467.7400000039}},{"attributes":{"ID":470767,"DIS_CODE":0,"TOWNNAME":"永康區","LI":"龍潭里","LIN":"5鄰","STREET":"龍埔街","SECT":" ","MAREA":" ","LANE":" ","ALLEY":" ","HOUSE_NO":"３９號","E_COORD97":174774.89999999999,"N_COORD97":2548197.8300000001,"ADDRESS":"龍埔街３９號","OBJECTID":470742},"geometry":{"x":174774.9000000013,"y":2548197.8300000001}},{"attributes":{"ID":470768,"DIS_CODE":0,"TOWNNAME":"永康區","LI":"龍潭里","LIN":"5鄰","STREET":"龍埔街","SECT":" ","MAREA":" ","LANE":" ","ALLEY":" ","HOUSE_NO":"３７號","E_COORD97":174778.38,"N_COORD97":2548196.4199999999,"ADDRESS":"龍埔街３７號","OBJECTID":470743},"geometry":{"x":174778.38000000082,"y":2548196.4200000018}},{"attributes":{"ID":470769,"DIS_CODE":0,"TOWNNAME":"永康區","LI":"龍潭里","LIN":"5鄰","STREET":"龍埔街","SECT":" ","MAREA":" ","LANE":" ","ALLEY":" ","HOUSE_NO":"１７號","E_COORD97":174828.42999999999,"N_COORD97":2548185.1800000002,"ADDRESS":"龍埔街１７號","OBJECTID":470744},"geometry":{"x":174828.43000000063,"y":2548185.1799999997}},{"attributes":{"ID":470770,"DIS_CODE":0,"TOWNNAME":"永康區","LI":"龍潭里","LIN":"5鄰","STREET":"龍潭街","SECT":" ","MAREA":" ","LANE":" ","ALLEY":" ","HOUSE_NO":"１７４號","E_COORD97":174888.69,"N_COORD97":2548160.6600000001,"ADDRESS":"龍潭街１７４號","OBJECTID":470745},"geometry":{"x":174888.69000000134,"y":2548160.660000002}},{"attributes":{"ID":470771,"DIS_CODE":0,"TOWNNAME":"東區","LI":"泉南里","LIN":"5鄰","STREET":"東門路","SECT":"一段","MAREA":" ","LANE":" ","ALLEY":" ","HOUSE_NO":"１３８號","E_COORD97":169485.88,"N_COORD97":2543150.79,"ADDRESS":"東門路一段１３８號","OBJECTID":470746},"geometry":{"x":169485.88000000082,"y":2543150.790000001}},{"attributes":{"ID":470772,"DIS_CODE":0,"TOWNNAME":"東區","LI":"泉南里","LIN":"5鄰","STREET":"東門路","SECT":"一段","MAREA":" ","LANE":" ","ALLEY":" ","HOUSE_NO":"１４０號","E_COORD97":169490.85999999999,"N_COORD97":2543147.6099999999,"ADDRESS":"東門路一段１４０號","OBJECTID":470747},"geometry":{"x":169490.86000000034,"y":2543147.6099999994}},{"attributes":{"ID":470773,"DIS_CODE":0,"TOWNNAME":"東區","LI":"泉南里","LIN":"5鄰","STREET":"東門路","SECT":"一段","MAREA":" ","LANE":" ","ALLEY":" ","HOUSE_NO":"１４６號","E_COORD97":169503.48000000001,"N_COORD97":2543143.75,"ADDRESS":"東門路一段１４６號","OBJECTID":470748},"geometry":{"x":169503.48000000045,"y":2543143.75}},{"attributes":{"ID":470774,"DIS_CODE":0,"TOWNNAME":"東區","LI":"泉南里","LIN":"5鄰","STREET":"東門路","SECT":"一段","MAREA":" ","LANE":" ","ALLEY":" ","HOUSE_NO":"１４８號","E_COORD97":169507.60000000001,"N_COORD97":2543142.6400000001,"ADDRESS":"東門路一段１４８號","OBJECTID":470749},"geometry":{"x":169507.60000000056,"y":2543142.6400000043}},{"attributes":{"ID":470775,"DIS_CODE":0,"TOWNNAME":"東區","LI":"泉南里","LIN":"5鄰","STREET":"東門路","SECT":"一段","MAREA":" ","LANE":" ","ALLEY":" ","HOUSE_NO":"１５０號","E_COORD97":169511.20999999999,"N_COORD97":2543141.6099999999,"ADDRESS":"東門路一段１５０號","OBJECTID":470750},"geometry":{"x":169511.20999999996,"y":2543141.6100000031}},{"attributes":{"ID":470776,"DIS_CODE":0,"TOWNNAME":"東區","LI":"泉南里","LIN":"5鄰","STREET":"東門路","SECT":"一段","MAREA":" ","LANE":" ","ALLEY":" ","HOUSE_NO":"１５２號","E_COORD97":169514.39000000001,"N_COORD97":2543139.8900000001,"ADDRESS":"東門路一段１５２號","OBJECTID":470751},"geometry":{"x":169514.3900000006,"y":2543139.8900000006}},{"attributes":{"ID":470777,"DIS_CODE":0,"TOWNNAME":"東區","LI":"德高里","LIN":"5鄰","STREET":"自由路","SECT":"一段","MAREA":" ","LANE":" ","ALLEY":" ","HOUSE_NO":"９８號","E_COORD97":171570.26000000001,"N_COORD97":2540903.9500000002,"ADDRESS":"自由路一段９８號","OBJECTID":470752},"geometry":{"x":171570.26000000071,"y":2540903.9499999993}},{"attributes":{"ID":470778,"DIS_CODE":0,"TOWNNAME":"東區","LI":"崇文里","LIN":"5鄰","STREET":"崇德十六街","SECT":" ","MAREA":" ","LANE":" ","ALLEY":" ","HOUSE_NO":"６２號","E_COORD97":170972.17999999999,"N_COORD97":2541124.6299999999,"ADDRESS":"崇德十六街６２號","OBJECTID":470753},"geometry":{"x":170972.18000000063,"y":2541124.6300000008}},{"attributes":{"ID":470779,"DIS_CODE":0,"TOWNNAME":"東區","LI":"崇文里","LIN":"5鄰","STREET":"崇德十六街","SECT":" ","MAREA":" ","LANE":" ","ALLEY":" ","HOUSE_NO":"６４號","E_COORD97":170979.04999999999,"N_COORD97":2541124.8199999998,"ADDRESS":"崇德十六街６４號","OBJECTID":470754},"geometry":{"x":170979.04999999981,"y":2541124.8200000022}},{"attributes":{"ID":470780,"DIS_CODE":0,"TOWNNAME":"東區","LI":"崇文里","LIN":"5鄰","STREET":"崇德十六街","SECT":" ","MAREA":" ","LANE":" ","ALLEY":" ","HOUSE_NO":"６６號","E_COORD97":170978.95000000001,"N_COORD97":2541120.3500000001,"ADDRESS":"崇德十六街６６號","OBJECTID":470755},"geometry":{"x":170978.95000000112,"y":2541120.3500000015}},{"attributes":{"ID":470781,"DIS_CODE":0,"TOWNNAME":"東區","LI":"崇文里","LIN":"5鄰","STREET":"崇德十六街","SECT":" ","MAREA":" ","LANE":" ","ALLEY":" ","HOUSE_NO":"６８號","E_COORD97":170978.75,"N_COORD97":2541115.8700000001,"ADDRESS":"崇德十六街６８號","OBJECTID":470756},"geometry":{"x":170978.75000000093,"y":2541115.870000001}},{"attributes":{"ID":470782,"DIS_CODE":0,"TOWNNAME":"東區","LI":"崇文里","LIN":"5鄰","STREET":"崇德十六街","SECT":" ","MAREA":" ","LANE":" ","ALLEY":" ","HOUSE_NO":"６８號之１","E_COORD97":170978.64999999999,"N_COORD97":2541111,"ADDRESS":"崇德十六街６８號之１","OBJECTID":470757},"geometry":{"x":170978.65000000037,"y":2541111}},{"attributes":{"ID":470783,"DIS_CODE":0,"TOWNNAME":"東區","LI":"崇文里","LIN":"5鄰","STREET":"崇德十六街","SECT":" ","MAREA":" ","LANE":" ","ALLEY":" ","HOUSE_NO":"６８號之２","E_COORD97":170971.07999999999,"N_COORD97":2541111.1000000001,"ADDRESS":"崇德十六街６８號之２","OBJECTID":470758},"geometry":{"x":170971.08000000101,"y":2541111.1000000034}},{"attributes":{"ID":470784,"DIS_CODE":0,"TOWNNAME":"東區","LI":"崇文里","LIN":"5鄰","STREET":"崇德十七街","SECT":" ","MAREA":" ","LANE":" ","ALLEY":" ","HOUSE_NO":"７３號","E_COORD97":170970.29000000001,"N_COORD97":2541087.23,"ADDRESS":"崇德十七街７３號","OBJECTID":470759},"geometry":{"x":170970.29000000097,"y":2541087.2300000042}},{"attributes":{"ID":470785,"DIS_CODE":0,"TOWNNAME":"東區","LI":"崇文里","LIN":"5鄰","STREET":"崇德十七街","SECT":" ","MAREA":" ","LANE":" ","ALLEY":" ","HOUSE_NO":"７３號之１","E_COORD97":170977.54999999999,"N_COORD97":2541087.3300000001,"ADDRESS":"崇德十七街７３號之１","OBJECTID":470760},"geometry":{"x":170977.54999999888,"y":2541087.3300000019}},{"attributes":{"ID":470786,"DIS_CODE":0,"TOWNNAME":"東區","LI":"崇文里","LIN":"5鄰","STREET":"崇德十七街","SECT":" ","MAREA":" ","LANE":" ","ALLEY":" ","HOUSE_NO":"７３號之２","E_COORD97":170978.04999999999,"N_COORD97":2541092.2000000002,"ADDRESS":"崇德十七街７３號之２","OBJECTID":470761},"geometry":{"x":170978.05000000075,"y":2541092.1999999993}},{"attributes":{"ID":470787,"DIS_CODE":0,"TOWNNAME":"東區","LI":"崇文里","LIN":"5鄰","STREET":"崇德十七街","SECT":" ","MAREA":" ","LANE":" ","ALLEY":" ","HOUSE_NO":"７３號之３","E_COORD97":170978.14999999999,"N_COORD97":2541096.1800000002,"ADDRESS":"崇德十七街７３號之３","OBJECTID":470762},"geometry":{"x":170978.1500000013,"y":2541096.1799999997}},{"attributes":{"ID":470788,"DIS_CODE":0,"TOWNNAME":"東區","LI":"崇文里","LIN":"5鄰","STREET":"崇德十七街","SECT":" ","MAREA":" ","LANE":" ","ALLEY":" ","HOUSE_NO":"７３號之４","E_COORD97":170978.14999999999,"N_COORD97":2541100.3599999999,"ADDRESS":"崇德十七街７３號之４","OBJECTID":470763},"geometry":{"x":170978.1500000013,"y":2541100.3600000013}},{"attributes":{"ID":470789,"DIS_CODE":0,"TOWNNAME":"中西區","LI":"普濟里","LIN":"5鄰","STREET":"普濟街","SECT":" ","MAREA":" ","LANE":" ","ALLEY":" ","HOUSE_NO":"３９號","E_COORD97":167834.42000000001,"N_COORD97":2544304.8900000001,"ADDRESS":"普濟街３９號","OBJECTID":470764},"geometry":{"x":167834.42000000086,"y":2544304.8900000025}},{"attributes":{"ID":470790,"DIS_CODE":0,"TOWNNAME":"中西區","LI":"普濟里","LIN":"5鄰","STREET":"普濟街","SECT":" ","MAREA":" ","LANE":" ","ALLEY":" ","HOUSE_NO":"４１號","E_COORD97":167836.95999999999,"N_COORD97":2544308.3100000001,"ADDRESS":"普濟街４１號","OBJECTID":470765},"geometry":{"x":167836.95999999996,"y":2544308.3100000024}},{"attributes":{"ID":470791,"DIS_CODE":0,"TOWNNAME":"中西區","LI":"普濟里","LIN":"5鄰","STREET":"普濟街","SECT":" ","MAREA":" ","LANE":" ","ALLEY":" ","HOUSE_NO":"４３號","E_COORD97":167838.23000000001,"N_COORD97":2544313.1200000001,"ADDRESS":"普濟街４３號","OBJECTID":470766},"geometry":{"x":167838.23000000138,"y":2544313.1200000029}},{"attributes":{"ID":470792,"DIS_CODE":0,"TOWNNAME":"中西區","LI":"普濟里","LIN":"5鄰","STREET":"普濟街","SECT":" ","MAREA":" ","LANE":" ","ALLEY":" ","HOUSE_NO":"４５號","E_COORD97":167839.48999999999,"N_COORD97":2544316.6600000001,"ADDRESS":"普濟街４５號","OBJECTID":470767},"geometry":{"x":167839.49000000115,"y":2544316.6600000001}},{"attributes":{"ID":470793,"DIS_CODE":0,"TOWNNAME":"中西區","LI":"普濟里","LIN":"5鄰","STREET":"普濟街","SECT":" ","MAREA":" ","LANE":" ","ALLEY":" ","HOUSE_NO":"４７號","E_COORD97":167841.14000000001,"N_COORD97":2544321.3500000001,"ADDRESS":"普濟街４７號","OBJECTID":470768},"geometry":{"x":167841.1400000006,"y":2544321.3500000015}},{"attributes":{"ID":470794,"DIS_CODE":0,"TOWNNAME":"中西區","LI":"普濟里","LIN":"5鄰","STREET":"民族路","SECT":"三段","MAREA":" ","LANE":" ","ALLEY":" ","HOUSE_NO":"７０號","E_COORD97":167794.23999999999,"N_COORD97":2544310.2000000002,"ADDRESS":"民族路三段７０號","OBJECTID":470769},"geometry":{"x":167794.24000000022,"y":2544310.200000003}},{"attributes":{"ID":470795,"DIS_CODE":0,"TOWNNAME":"中西區","LI":"普濟里","LIN":"5鄰","STREET":"民族路","SECT":"三段","MAREA":" ","LANE":" ","ALLEY":" ","HOUSE_NO":"７２號","E_COORD97":167788.54000000001,"N_COORD97":2544312.23,"ADDRESS":"民族路三段７２號","OBJECTID":470770},"geometry":{"x":167788.54000000004,"y":2544312.2300000023}},{"attributes":{"ID":470796,"DIS_CODE":0,"TOWNNAME":"永康區","LI":"埔園里","LIN":"5鄰","STREET":"聖龍街","SECT":" ","MAREA":" ","LANE":" ","ALLEY":" ","HOUSE_NO":"２７號","E_COORD97":173851.87,"N_COORD97":2547799.5,"ADDRESS":"聖龍街２７號","OBJECTID":470771},"geometry":{"x":173851.87000000011,"y":2547799.5}},{"attributes":{"ID":470797,"DIS_CODE":0,"TOWNNAME":"永康區","LI":"蔦松里","LIN":"5鄰","STREET":"蔦松二街","SECT":" ","MAREA":" ","LANE":" ","ALLEY":" ","HOUSE_NO":"１４７號","E_COORD97":173848.14000000001,"N_COORD97":2549432.5,"ADDRESS":"蔦松二街１４７號","OBJECTID":470772},"geometry":{"x":173848.13999999966,"y":2549432.5000000019}},{"attributes":{"ID":470798,"DIS_CODE":0,"TOWNNAME":"永康區","LI":"勝利里","LIN":"5鄰","STREET":"勝學路","SECT":" ","MAREA":" ","LANE":" ","ALLEY":" ","HOUSE_NO":"５７號","E_COORD97":171139.01000000001,"N_COORD97":2544728.25,"ADDRESS":"勝學路５７號","OBJECTID":470773},"geometry":{"x":171139.01000000164,"y":2544728.2500000019}},{"attributes":{"ID":470799,"DIS_CODE":0,"TOWNNAME":"永康區","LI":"網寮里","LIN":"5鄰","STREET":"永二街","SECT":" ","MAREA":" ","LANE":" ","ALLEY":" ","HOUSE_NO":"１４７號","E_COORD97":173508.64999999999,"N_COORD97":2546427.77,"ADDRESS":"永二街１４７號","OBJECTID":470774},"geometry":{"x":173508.6500000013,"y":2546427.7699999996}},{"attributes":{"ID":470800,"DIS_CODE":0,"TOWNNAME":"佳里區","LI":"忠仁里","LIN":"5鄰","STREET":"延平路","SECT":" ","MAREA":" ","LANE":" ","ALLEY":" ","HOUSE_NO":"１６９號","E_COORD97":165889.87,"N_COORD97":2562021.25,"ADDRESS":"延平路１６９號","OBJECTID":470775},"geometry":{"x":165889.87000000011,"y":2562021.25}},{"attributes":{"ID":470801,"DIS_CODE":0,"TOWNNAME":"佳里區","LI":"忠仁里","LIN":"5鄰","STREET":"延平路","SECT":" ","MAREA":" ","LANE":" ","ALLEY":" ","HOUSE_NO":"１７１號","E_COORD97":165889.14999999999,"N_COORD97":2562025.9700000002,"ADDRESS":"延平路１７１號","OBJECTID":470776},"geometry":{"x":165889.1500000013,"y":2562025.9700000025}},{"attributes":{"ID":470802,"DIS_CODE":0,"TOWNNAME":"佳里區","LI":"忠仁里","LIN":"5鄰","STREET":"延平路","SECT":" ","MAREA":" ","LANE":" ","ALLEY":" ","HOUSE_NO":"１７３號","E_COORD97":165888.39000000001,"N_COORD97":2562030.8199999998,"ADDRESS":"延平路１７３號","OBJECTID":470777},"geometry":{"x":165888.3900000006,"y":2562030.8200000003}},{"attributes":{"ID":470803,"DIS_CODE":0,"TOWNNAME":"永康區","LI":"新樹里","LIN":"5鄰","STREET":"富強路","SECT":"二段","MAREA":" ","LANE":" ","ALLEY":" ","HOUSE_NO":"１２號","E_COORD97":175716.48999999999,"N_COORD97":2546826.04,"ADDRESS":"富強路二段１２號","OBJECTID":470778},"geometry":{"x":175716.49000000209,"y":2546826.0399999991}},{"attributes":{"ID":470804,"DIS_CODE":0,"TOWNNAME":"安平區","LI":"文平里","LIN":"21鄰","STREET":"健康路","SECT":"三段","MAREA":" ","LANE":" ","ALLEY":" ","HOUSE_NO":"５６號","E_COORD97":165863.47448100001,"N_COORD97":2542641.4270000001,"ADDRESS":"健康路三段５６號","OBJECTID":470779},"geometry":{"x":165863.47448099963,"y":2542641.4269980025}},{"attributes":{"ID":470805,"DIS_CODE":0,"TOWNNAME":"安平區","LI":"文平里","LIN":"21鄰","STREET":"建平路","SECT":" ","MAREA":" ","LANE":" ","ALLEY":" ","HOUSE_NO":"１３９－２號","E_COORD97":166106.23999999999,"N_COORD97":2542948.3900000001,"ADDRESS":"建平路１３９－２號","OBJECTID":470780},"geometry":{"x":166106.24000000022,"y":2542948.3900000025}},{"attributes":{"ID":470806,"DIS_CODE":0,"TOWNNAME":"安平區","LI":"建平里","LIN":"21鄰","STREET":"平通路","SECT":" ","MAREA":" ","LANE":" ","ALLEY":" ","HOUSE_NO":"１０２號","E_COORD97":165984.57000000001,"N_COORD97":2543698.0099999998,"ADDRESS":"平通路１０２號","OBJECTID":470781},"geometry":{"x":165984.57000000123,"y":2543698.0099999998}},{"attributes":{"ID":470807,"DIS_CODE":0,"TOWNNAME":"安平區","LI":"文平里","LIN":"21鄰","STREET":"建平一街","SECT":" ","MAREA":" ","LANE":" ","ALLEY":" ","HOUSE_NO":"４９號","E_COORD97":165953.22,"N_COORD97":2542735.5499999998,"ADDRESS":"建平一街４９號","OBJECTID":470782},"geometry":{"x":165953.21999999974,"y":2542735.5500000007}},{"attributes":{"ID":470808,"DIS_CODE":0,"TOWNNAME":"安平區","LI":"文平里","LIN":"21鄰","STREET":"建平一街","SECT":" ","MAREA":" ","LANE":" ","ALLEY":" ","HOUSE_NO":"４７號","E_COORD97":165957.59,"N_COORD97":2542735.1600000001,"ADDRESS":"建平一街４７號","OBJECTID":470783},"geometry":{"x":165957.58999999985,"y":2542735.1600000039}},{"attributes":{"ID":470809,"DIS_CODE":0,"TOWNNAME":"安平區","LI":"文平里","LIN":"21鄰","STREET":"建平一街","SECT":" ","MAREA":" ","LANE":" ","ALLEY":" ","HOUSE_NO":"５１號","E_COORD97":165948.06,"N_COORD97":2542735.5499999998,"ADDRESS":"建平一街５１號","OBJECTID":470784},"geometry":{"x":165948.06000000052,"y":2542735.5500000007}},{"attributes":{"ID":470810,"DIS_CODE":0,"TOWNNAME":"安平區","LI":"文平里","LIN":"21鄰","STREET":"建平一街","SECT":" ","MAREA":" ","LANE":" ","ALLEY":" ","HOUSE_NO":"４５號","E_COORD97":165962.62,"N_COORD97":2542734.23,"ADDRESS":"建平一街４５號","OBJECTID":470785},"geometry":{"x":165962.62000000011,"y":2542734.2300000004}},{"attributes":{"ID":470811,"DIS_CODE":0,"TOWNNAME":"安平區","LI":"文平里","LIN":"21鄰","STREET":"建平一街","SECT":" ","MAREA":" ","LANE":" ","ALLEY":" ","HOUSE_NO":"４１號","E_COORD97":165974.64999999999,"N_COORD97":2542732.7799999998,"ADDRESS":"建平一街４１號","OBJECTID":470786},"geometry":{"x":165974.65000000037,"y":2542732.7799999993}},{"attributes":{"ID":470812,"DIS_CODE":0,"TOWNNAME":"安平區","LI":"文平里","LIN":"21鄰","STREET":"建平一街","SECT":" ","MAREA":" ","LANE":" ","ALLEY":" ","HOUSE_NO":"４３號","E_COORD97":165968.97,"N_COORD97":2542733.9700000002,"ADDRESS":"建平一街４３號","OBJECTID":470787},"geometry":{"x":165968.97000000067,"y":2542733.9700000025}},{"attributes":{"ID":470813,"DIS_CODE":0,"TOWNNAME":"安平區","LI":"平安里","LIN":"21鄰","STREET":"民權路","SECT":"四段","MAREA":" ","LANE":" ","ALLEY":" ","HOUSE_NO":"１３７號","E_COORD97":166208.03,"N_COORD97":2544409.7200000002,"ADDRESS":"民權路四段１３７號","OBJECTID":470788},"geometry":{"x":166208.03000000212,"y":2544409.7199999988}},{"attributes":{"ID":470814,"DIS_CODE":0,"TOWNNAME":"安平區","LI":"平安里","LIN":"21鄰","STREET":"民權路","SECT":"四段","MAREA":" ","LANE":" ","ALLEY":" ","HOUSE_NO":"１３５號","E_COORD97":166214.54000000001,"N_COORD97":2544409.96,"ADDRESS":"民權路四段１３５號","OBJECTID":470789},"geometry":{"x":166214.5400000019,"y":2544409.9600000028}},{"attributes":{"ID":470815,"DIS_CODE":0,"TOWNNAME":"安平區","LI":"平安里","LIN":"21鄰","STREET":"民權路","SECT":"四段","MAREA":" ","LANE":" ","ALLEY":" ","HOUSE_NO":"１３３號","E_COORD97":166220.25,"N_COORD97":2544409.5600000001,"ADDRESS":"民權路四段１３３號","OBJECTID":470790},"geometry":{"x":166220.25000000093,"y":2544409.5600000005}},{"attributes":{"ID":470816,"DIS_CODE":0,"TOWNNAME":"東區","LI":"莊敬里","LIN":"28鄰","STREET":"中華東路","SECT":"一段","MAREA":" ","LANE":" ","ALLEY":" ","HOUSE_NO":"８６號","E_COORD97":171487.04999999999,"N_COORD97":2544003.27,"ADDRESS":"中華東路一段８６號","OBJECTID":470791},"geometry":{"x":171487.04999999981,"y":2544003.2700000014}},{"attributes":{"ID":470817,"DIS_CODE":0,"TOWNNAME":"東區","LI":"莊敬里","LIN":"27鄰","STREET":"莊敬路","SECT":" ","MAREA":" ","LANE":" ","ALLEY":" ","HOUSE_NO":"１２３號","E_COORD97":171334.78,"N_COORD97":2543991.7799999998,"ADDRESS":"莊敬路１２３號","OBJECTID":470792},"geometry":{"x":171334.78000000119,"y":2543991.7800000012}},{"attributes":{"ID":470818,"DIS_CODE":0,"TOWNNAME":"東區","LI":"東門里","LIN":"14鄰","STREET":"慶東街","SECT":" ","MAREA":" ","LANE":" ","ALLEY":" ","HOUSE_NO":"１０３號","E_COORD97":169640.75,"N_COORD97":2543299.4100000001,"ADDRESS":"慶東街１０３號","OBJECTID":470793},"geometry":{"x":169640.75000000186,"y":2543299.4100000039}},{"attributes":{"ID":470819,"DIS_CODE":0,"TOWNNAME":"歸仁區","LI":"南保里","LIN":"50鄰","STREET":"大順街","SECT":" ","MAREA":" ","LANE":" ","ALLEY":" ","HOUSE_NO":"２７９號","E_COORD97":176685.26999999999,"N_COORD97":2540597.25,"ADDRESS":"大順街２７９號","OBJECTID":470794},"geometry":{"x":176685.27000000142,"y":2540597.25}},{"attributes":{"ID":470820,"DIS_CODE":0,"TOWNNAME":"歸仁區","LI":"南保里","LIN":"50鄰","STREET":"大順街","SECT":" ","MAREA":" ","LANE":" ","ALLEY":" ","HOUSE_NO":"２８１號","E_COORD97":176681.17000000001,"N_COORD97":2540597.25,"ADDRESS":"大順街２８１號","OBJECTID":470795},"geometry":{"x":176681.17000000179,"y":2540597.25}},{"attributes":{"ID":470821,"DIS_CODE":0,"TOWNNAME":"歸仁區","LI":"辜厝里","LIN":"50鄰","STREET":"中正南路","SECT":"一段","MAREA":" ","LANE":" ","ALLEY":" ","HOUSE_NO":"３８０號","E_COORD97":177068.92999999999,"N_COORD97":2540171.5499999998,"ADDRESS":"中正南路一段３８０號","OBJECTID":470796},"geometry":{"x":177068.9299999997,"y":2540171.5500000007}},{"attributes":{"ID":470822,"DIS_CODE":0,"TOWNNAME":"歸仁區","LI":"南保里","LIN":"50鄰","STREET":"大順五街","SECT":" ","MAREA":" ","LANE":" ","ALLEY":" ","HOUSE_NO":"６２號","E_COORD97":176715.87,"N_COORD97":2540564.25,"ADDRESS":"大順五街６２號","OBJECTID":470797},"geometry":{"x":176715.87000000104,"y":2540564.2500000037}},{"attributes":{"ID":470823,"DIS_CODE":0,"TOWNNAME":"歸仁區","LI":"辜厝里","LIN":"50鄰","STREET":"中正南路","SECT":"一段","MAREA":" ","LANE":" ","ALLEY":" ","HOUSE_NO":"３９０號","E_COORD97":177050.89999999999,"N_COORD97":2540161.6600000001,"ADDRESS":"中正南路一段３９０號","OBJECTID":470798},"geometry":{"x":177050.90000000037,"y":2540161.6600000039}},{"attributes":{"ID":470824,"DIS_CODE":0,"TOWNNAME":"佳里區","LI":"安西里","LIN":"57鄰","STREET":"佳安中街","SECT":" ","MAREA":" ","LANE":" ","ALLEY":" ","HOUSE_NO":"１００號","E_COORD97":163765.66,"N_COORD97":2562298.6800000002,"ADDRESS":"佳安中街１００號","OBJECTID":470799},"geometry":{"x":163765.66000000015,"y":2562298.6799999997}},{"attributes":{"ID":470825,"DIS_CODE":0,"TOWNNAME":"佳里區","LI":"安西里","LIN":"57鄰","STREET":"佳安中街","SECT":" ","MAREA":" ","LANE":" ","ALLEY":" ","HOUSE_NO":"１０２號","E_COORD97":163761.29000000001,"N_COORD97":2562298.27,"ADDRESS":"佳安中街１０２號","OBJECTID":470800},"geometry":{"x":163761.29000000004,"y":2562298.2699999996}}]}