{"displayFieldName":"TOWNNAME","fieldAliases":{"ID":"ID","DIS_CODE":"DIS_CODE","TOWNNAME":"TOWNNAME","LI":"LI","LIN":"LIN","STREET":"STREET","SECT":"SECT","MAREA":"MAREA","LANE":"LANE","ALLEY":"ALLEY","HOUSE_NO":"HOUSE_NO","E_COORD97":"E_COORD97","N_COORD97":"N_COORD97","ADDRESS":"ADDRESS","OBJECTID":"OBJECTID"},"geometryType":"esriGeometryPoint","spatialReference":{"wkid":102443,"latestWkid":3826},"fields":[{"name":"ID","type":"esriFieldTypeDouble","alias":"ID"},{"name":"DIS_CODE","type":"esriFieldTypeInteger","alias":"DIS_CODE"},{"name":"TOWNNAME","type":"esriFieldTypeString","alias":"TOWNNAME","length":8},{"name":"LI","type":"esriFieldTypeString","alias":"LI","length":8},{"name":"LIN","type":"esriFieldTypeString","alias":"LIN","length":12},{"name":"STREET","type":"esriFieldTypeString","alias":"STREET","length":20},{"name":"SECT","type":"esriFieldTypeString","alias":"SECT","length":8},{"name":"MAREA","type":"esriFieldTypeString","alias":"MAREA","length":12},{"name":"LANE","type":"esriFieldTypeString","alias":"LANE","length":10},{"name":"ALLEY","type":"esriFieldTypeString","alias":"ALLEY","length":10},{"name":"HOUSE_NO","type":"esriFieldTypeString","alias":"HOUSE_NO","length":20},{"name":"E_COORD97","type":"esriFieldTypeDouble","alias":"E_COORD97"},{"name":"N_COORD97","type":"esriFieldTypeDouble","alias":"N_COORD97"},{"name":"ADDRESS","type":"esriFieldTypeString","alias":"ADDRESS","length":50},{"name":"OBJECTID","type":"esriFieldTypeOID","alias":"OBJECTID"}],"features":[{"attributes":{"ID":294209,"DIS_CODE":0,"TOWNNAME":"下營區","LI":"宅內里","LIN":"17鄰","STREET":"人和三街","SECT":" ","MAREA":" ","LANE":"４１巷","ALLEY":" ","HOUSE_NO":"７號","E_COORD97":174326.07999999999,"N_COORD97":2570693.5499999998,"ADDRESS":"人和三街４１巷７號","OBJECTID":294201},"geometry":{"x":174326.08000000101,"y":2570693.5500000045}},{"attributes":{"ID":294210,"DIS_CODE":0,"TOWNNAME":"安平區","LI":"怡平里","LIN":"17鄰","STREET":"永華六街","SECT":" ","MAREA":" ","LANE":"１５４巷","ALLEY":" ","HOUSE_NO":"１號三樓之７","E_COORD97":165751,"N_COORD97":2543900.1899999999,"ADDRESS":"永華六街１５４巷１號三樓之７","OBJECTID":294202},"geometry":{"x":165751.00000000093,"y":2543900.1899999976}},{"attributes":{"ID":294211,"DIS_CODE":0,"TOWNNAME":"安平區","LI":"億載里","LIN":"14鄰","STREET":"健康四街","SECT":" ","MAREA":" ","LANE":" ","ALLEY":" ","HOUSE_NO":"９６號","E_COORD97":164191.01000000001,"N_COORD97":2543196.2799999998,"ADDRESS":"健康四街９６號","OBJECTID":294203},"geometry":{"x":164191.01000000071,"y":2543196.2799999993}},{"attributes":{"ID":294212,"DIS_CODE":0,"TOWNNAME":"安平區","LI":"億載里","LIN":"14鄰","STREET":"健康四街","SECT":" ","MAREA":" ","LANE":" ","ALLEY":" ","HOUSE_NO":"９８號","E_COORD97":164187.98999999999,"N_COORD97":2543212.8599999999,"ADDRESS":"健康四街９８號","OBJECTID":294204},"geometry":{"x":164187.99000000115,"y":2543212.8599999994}},{"attributes":{"ID":294213,"DIS_CODE":0,"TOWNNAME":"安平區","LI":"怡平里","LIN":"14鄰","STREET":"建平十一街","SECT":" ","MAREA":" ","LANE":" ","ALLEY":" ","HOUSE_NO":"３２８號","E_COORD97":165547.64000000001,"N_COORD97":2544012.9199999999,"ADDRESS":"建平十一街３２８號","OBJECTID":294205},"geometry":{"x":165547.6400000006,"y":2544012.9199999999}},{"attributes":{"ID":294214,"DIS_CODE":0,"TOWNNAME":"下營區","LI":"大屯里","LIN":"4鄰","STREET":" ","SECT":" ","MAREA":"大屯寮","LANE":" ","ALLEY":" ","HOUSE_NO":"２９號之１","E_COORD97":172047.57000000001,"N_COORD97":2570408.7999999998,"ADDRESS":"大屯寮２９號之１","OBJECTID":294206},"geometry":{"x":172047.56999999937,"y":2570408.8000000007}},{"attributes":{"ID":294215,"DIS_CODE":0,"TOWNNAME":"下營區","LI":"宅內里","LIN":"8鄰","STREET":"人和三街","SECT":" ","MAREA":" ","LANE":"５９巷","ALLEY":" ","HOUSE_NO":"１號","E_COORD97":174270.82999999999,"N_COORD97":2570694.9100000001,"ADDRESS":"人和三街５９巷１號","OBJECTID":294207},"geometry":{"x":174270.83000000007,"y":2570694.910000002}},{"attributes":{"ID":294216,"DIS_CODE":0,"TOWNNAME":"下營區","LI":"宅內里","LIN":"9鄰","STREET":"人和三街","SECT":" ","MAREA":" ","LANE":"７１巷","ALLEY":" ","HOUSE_NO":"１２號","E_COORD97":174229.39000000001,"N_COORD97":2570641.9700000002,"ADDRESS":"人和三街７１巷１２號","OBJECTID":294208},"geometry":{"x":174229.38999999966,"y":2570641.9700000007}},{"attributes":{"ID":294217,"DIS_CODE":0,"TOWNNAME":"下營區","LI":"宅內里","LIN":"9鄰","STREET":"人和三街","SECT":" ","MAREA":" ","LANE":"７１巷","ALLEY":" ","HOUSE_NO":"１５號","E_COORD97":174261.25,"N_COORD97":2570657.3799999999,"ADDRESS":"人和三街７１巷１５號","OBJECTID":294209},"geometry":{"x":174261.25,"y":2570657.379999999}},{"attributes":{"ID":294218,"DIS_CODE":0,"TOWNNAME":"安平區","LI":"怡平里","LIN":"17鄰","STREET":"永華六街","SECT":" ","MAREA":" ","LANE":"１５４巷","ALLEY":" ","HOUSE_NO":"１號三樓之８","E_COORD97":165751,"N_COORD97":2543900.1899999999,"ADDRESS":"永華六街１５４巷１號三樓之８","OBJECTID":294210},"geometry":{"x":165751.00000000093,"y":2543900.1899999976}},{"attributes":{"ID":294219,"DIS_CODE":0,"TOWNNAME":"安平區","LI":"怡平里","LIN":"14鄰","STREET":"建平十一街","SECT":" ","MAREA":" ","LANE":" ","ALLEY":" ","HOUSE_NO":"３３０號","E_COORD97":165542.35999999999,"N_COORD97":2544013.5800000001,"ADDRESS":"建平十一街３３０號","OBJECTID":294211},"geometry":{"x":165542.36000000034,"y":2544013.5800000038}},{"attributes":{"ID":294220,"DIS_CODE":0,"TOWNNAME":"下營區","LI":"大屯里","LIN":"4鄰","STREET":" ","SECT":" ","MAREA":"大屯寮","LANE":" ","ALLEY":" ","HOUSE_NO":"２９號之３","E_COORD97":172037.70000000001,"N_COORD97":2570409.9700000002,"ADDRESS":"大屯寮２９號之３","OBJECTID":294212},"geometry":{"x":172037.70000000019,"y":2570409.9700000025}},{"attributes":{"ID":294221,"DIS_CODE":0,"TOWNNAME":"下營區","LI":"大屯里","LIN":"4鄰","STREET":" ","SECT":" ","MAREA":"大屯寮","LANE":" ","ALLEY":" ","HOUSE_NO":"２９號之９","E_COORD97":172001.70999999999,"N_COORD97":2570404.6699999999,"ADDRESS":"大屯寮２９號之９","OBJECTID":294213},"geometry":{"x":172001.70999999996,"y":2570404.6700000018}},{"attributes":{"ID":294222,"DIS_CODE":0,"TOWNNAME":"下營區","LI":"大屯里","LIN":"4鄰","STREET":" ","SECT":" ","MAREA":"大屯寮","LANE":" ","ALLEY":" ","HOUSE_NO":"２９號","E_COORD97":172041.95000000001,"N_COORD97":2570425.7200000002,"ADDRESS":"大屯寮２９號","OBJECTID":294214},"geometry":{"x":172041.95000000112,"y":2570425.7200000025}},{"attributes":{"ID":294223,"DIS_CODE":0,"TOWNNAME":"新市區","LI":"港墘里","LIN":"8鄰","STREET":" ","SECT":" ","MAREA":"崙頂","LANE":" ","ALLEY":" ","HOUSE_NO":"１７號","E_COORD97":179014.06,"N_COORD97":2552596.75,"ADDRESS":"崙頂１７號","OBJECTID":294215},"geometry":{"x":179014.05999999959,"y":2552596.7500000037}},{"attributes":{"ID":294224,"DIS_CODE":0,"TOWNNAME":"下營區","LI":"大屯里","LIN":"4鄰","STREET":" ","SECT":" ","MAREA":"大屯寮","LANE":" ","ALLEY":" ","HOUSE_NO":"３１號","E_COORD97":172027.42000000001,"N_COORD97":2570471.1299999999,"ADDRESS":"大屯寮３１號","OBJECTID":294216},"geometry":{"x":172027.41999999993,"y":2570471.1300000008}},{"attributes":{"ID":294225,"DIS_CODE":0,"TOWNNAME":"下營區","LI":"大屯里","LIN":"4鄰","STREET":" ","SECT":" ","MAREA":"大屯寮","LANE":" ","ALLEY":" ","HOUSE_NO":"３２號","E_COORD97":172009.78,"N_COORD97":2570464.9900000002,"ADDRESS":"大屯寮３２號","OBJECTID":294217},"geometry":{"x":172009.78000000026,"y":2570464.9900000002}},{"attributes":{"ID":294226,"DIS_CODE":0,"TOWNNAME":"下營區","LI":"大屯里","LIN":"4鄰","STREET":" ","SECT":" ","MAREA":"大屯寮","LANE":" ","ALLEY":" ","HOUSE_NO":"３３號","E_COORD97":171981.07000000001,"N_COORD97":2570428.4700000002,"ADDRESS":"大屯寮３３號","OBJECTID":294218},"geometry":{"x":171981.0700000003,"y":2570428.4700000007}},{"attributes":{"ID":294227,"DIS_CODE":0,"TOWNNAME":"安平區","LI":"石門里","LIN":"14鄰","STREET":"延平街","SECT":" ","MAREA":" ","LANE":" ","ALLEY":" ","HOUSE_NO":"５８號","E_COORD97":164249.44,"N_COORD97":2544584.5800000001,"ADDRESS":"延平街５８號","OBJECTID":294219},"geometry":{"x":164249.44000000134,"y":2544584.5800000019}},{"attributes":{"ID":294228,"DIS_CODE":0,"TOWNNAME":"安平區","LI":"石門里","LIN":"14鄰","STREET":"延平街","SECT":" ","MAREA":" ","LANE":" ","ALLEY":" ","HOUSE_NO":"６６號","E_COORD97":164234.44,"N_COORD97":2544590.4399999999,"ADDRESS":"延平街６６號","OBJECTID":294220},"geometry":{"x":164234.44000000134,"y":2544590.4400000032}},{"attributes":{"ID":294229,"DIS_CODE":0,"TOWNNAME":"中西區","LI":"青年里","LIN":"13鄰","STREET":"青年路","SECT":" ","MAREA":" ","LANE":"４７巷","ALLEY":" ","HOUSE_NO":"２２號","E_COORD97":168664.09,"N_COORD97":2543726.0499999998,"ADDRESS":"青年路４７巷２２號","OBJECTID":294221},"geometry":{"x":168664.09000000078,"y":2543726.0500000007}},{"attributes":{"ID":294230,"DIS_CODE":0,"TOWNNAME":"中西區","LI":"青年里","LIN":"13鄰","STREET":"青年路","SECT":" ","MAREA":" ","LANE":"４７巷","ALLEY":" ","HOUSE_NO":"２４號","E_COORD97":168663.73000000001,"N_COORD97":2543732.2799999998,"ADDRESS":"青年路４７巷２４號","OBJECTID":294222},"geometry":{"x":168663.73000000138,"y":2543732.2799999993}},{"attributes":{"ID":294231,"DIS_CODE":0,"TOWNNAME":"中西區","LI":"永華里","LIN":" ","STREET":"中正路","SECT":" ","MAREA":" ","LANE":"２１巷","ALLEY":" ","HOUSE_NO":"９號","E_COORD97":168313.16,"N_COORD97":2543574.2400000002,"ADDRESS":"中正路２１巷９號","OBJECTID":294223},"geometry":{"x":168313.16000000108,"y":2543574.2400000002}},{"attributes":{"ID":294232,"DIS_CODE":0,"TOWNNAME":"下營區","LI":"大屯里","LIN":"3鄰","STREET":" ","SECT":" ","MAREA":"大屯寮","LANE":" ","ALLEY":" ","HOUSE_NO":"２６號之７","E_COORD97":172030.95000000001,"N_COORD97":2570283.3300000001,"ADDRESS":"大屯寮２６號之７","OBJECTID":294224},"geometry":{"x":172030.95000000019,"y":2570283.3300000001}},{"attributes":{"ID":294233,"DIS_CODE":0,"TOWNNAME":"下營區","LI":"大屯里","LIN":"5鄰","STREET":" ","SECT":" ","MAREA":"大屯寮","LANE":" ","ALLEY":" ","HOUSE_NO":"４０號之１","E_COORD97":171856.44,"N_COORD97":2570388.8599999999,"ADDRESS":"大屯寮４０號之１","OBJECTID":294225},"geometry":{"x":171856.44000000041,"y":2570388.8600000013}},{"attributes":{"ID":294234,"DIS_CODE":0,"TOWNNAME":"安平區","LI":"怡平里","LIN":"17鄰","STREET":"永華六街","SECT":" ","MAREA":" ","LANE":"１５４巷","ALLEY":" ","HOUSE_NO":"１號三樓之９","E_COORD97":165751,"N_COORD97":2543900.1899999999,"ADDRESS":"永華六街１５４巷１號三樓之９","OBJECTID":294226},"geometry":{"x":165751.00000000093,"y":2543900.1899999976}},{"attributes":{"ID":294235,"DIS_CODE":0,"TOWNNAME":"安平區","LI":"怡平里","LIN":"17鄰","STREET":"永華六街","SECT":" ","MAREA":" ","LANE":"１５４巷","ALLEY":" ","HOUSE_NO":"１號四樓之１","E_COORD97":165751,"N_COORD97":2543900.1899999999,"ADDRESS":"永華六街１５４巷１號四樓之１","OBJECTID":294227},"geometry":{"x":165751.00000000093,"y":2543900.1899999976}},{"attributes":{"ID":294236,"DIS_CODE":0,"TOWNNAME":"下營區","LI":"大屯里","LIN":"1鄰","STREET":" ","SECT":" ","MAREA":"大屯寮","LANE":" ","ALLEY":" ","HOUSE_NO":"３號之１３","E_COORD97":172273.70000000001,"N_COORD97":2570548.8300000001,"ADDRESS":"大屯寮３號之１３","OBJECTID":294228},"geometry":{"x":172273.69999999925,"y":2570548.8300000019}},{"attributes":{"ID":294237,"DIS_CODE":0,"TOWNNAME":"安平區","LI":"怡平里","LIN":"17鄰","STREET":"永華六街","SECT":" ","MAREA":" ","LANE":"１５４巷","ALLEY":" ","HOUSE_NO":"１號四樓之２","E_COORD97":165751,"N_COORD97":2543900.1899999999,"ADDRESS":"永華六街１５４巷１號四樓之２","OBJECTID":294229},"geometry":{"x":165751.00000000093,"y":2543900.1899999976}},{"attributes":{"ID":294238,"DIS_CODE":0,"TOWNNAME":"下營區","LI":"大屯里","LIN":"1鄰","STREET":" ","SECT":" ","MAREA":"大屯寮","LANE":" ","ALLEY":" ","HOUSE_NO":"３號之１","E_COORD97":172237.85000000001,"N_COORD97":2570505.23,"ADDRESS":"大屯寮３號之１","OBJECTID":294230},"geometry":{"x":172237.84999999963,"y":2570505.2299999986}},{"attributes":{"ID":294239,"DIS_CODE":0,"TOWNNAME":"安平區","LI":"怡平里","LIN":"17鄰","STREET":"永華六街","SECT":" ","MAREA":" ","LANE":"１５４巷","ALLEY":" ","HOUSE_NO":"１號四樓之３","E_COORD97":165751,"N_COORD97":2543900.1899999999,"ADDRESS":"永華六街１５４巷１號四樓之３","OBJECTID":294231},"geometry":{"x":165751.00000000093,"y":2543900.1899999976}},{"attributes":{"ID":294240,"DIS_CODE":0,"TOWNNAME":"安平區","LI":"怡平里","LIN":"17鄰","STREET":"永華六街","SECT":" ","MAREA":" ","LANE":"１５４巷","ALLEY":" ","HOUSE_NO":"１號四樓之３之１","E_COORD97":165751,"N_COORD97":2543900.1899999999,"ADDRESS":"永華六街１５４巷１號四樓之３之１","OBJECTID":294232},"geometry":{"x":165751.00000000093,"y":2543900.1899999976}},{"attributes":{"ID":294241,"DIS_CODE":0,"TOWNNAME":"下營區","LI":"大屯里","LIN":"1鄰","STREET":" ","SECT":" ","MAREA":"大屯寮","LANE":" ","ALLEY":" ","HOUSE_NO":"３號之３","E_COORD97":172228.59,"N_COORD97":2570487.5299999998,"ADDRESS":"大屯寮３號之３","OBJECTID":294233},"geometry":{"x":172228.59000000078,"y":2570487.5299999993}},{"attributes":{"ID":294242,"DIS_CODE":0,"TOWNNAME":"七股區","LI":"十份里","LIN":"1鄰","STREET":" ","SECT":" ","MAREA":"十份","LANE":" ","ALLEY":" ","HOUSE_NO":"４號","E_COORD97":158382.85000000001,"N_COORD97":2555306.7200000002,"ADDRESS":"十份４號","OBJECTID":294234},"geometry":{"x":158382.84999999963,"y":2555306.7200000044}},{"attributes":{"ID":294243,"DIS_CODE":0,"TOWNNAME":"下營區","LI":"大屯里","LIN":"5鄰","STREET":" ","SECT":" ","MAREA":"大屯寮","LANE":" ","ALLEY":" ","HOUSE_NO":"４８號之３","E_COORD97":171487.63,"N_COORD97":2570356.04,"ADDRESS":"大屯寮４８號之３","OBJECTID":294235},"geometry":{"x":171487.63000000082,"y":2570356.0400000028}},{"attributes":{"ID":294244,"DIS_CODE":0,"TOWNNAME":"安平區","LI":"怡平里","LIN":"17鄰","STREET":"永華六街","SECT":" ","MAREA":" ","LANE":"１５４巷","ALLEY":" ","HOUSE_NO":"１號四樓之５","E_COORD97":165751,"N_COORD97":2543900.1899999999,"ADDRESS":"永華六街１５４巷１號四樓之５","OBJECTID":294236},"geometry":{"x":165751.00000000093,"y":2543900.1899999976}},{"attributes":{"ID":294245,"DIS_CODE":0,"TOWNNAME":"安平區","LI":"怡平里","LIN":"17鄰","STREET":"永華六街","SECT":" ","MAREA":" ","LANE":"１５４巷","ALLEY":" ","HOUSE_NO":"１號四樓之６","E_COORD97":165751,"N_COORD97":2543900.1899999999,"ADDRESS":"永華六街１５４巷１號四樓之６","OBJECTID":294237},"geometry":{"x":165751.00000000093,"y":2543900.1899999976}},{"attributes":{"ID":294246,"DIS_CODE":0,"TOWNNAME":"安平區","LI":"怡平里","LIN":"17鄰","STREET":"永華六街","SECT":" ","MAREA":" ","LANE":"１５４巷","ALLEY":" ","HOUSE_NO":"１號四樓之７","E_COORD97":165751,"N_COORD97":2543900.1899999999,"ADDRESS":"永華六街１５４巷１號四樓之７","OBJECTID":294238},"geometry":{"x":165751.00000000093,"y":2543900.1899999976}},{"attributes":{"ID":294247,"DIS_CODE":0,"TOWNNAME":"安平區","LI":"怡平里","LIN":"17鄰","STREET":"永華六街","SECT":" ","MAREA":" ","LANE":"１５４巷","ALLEY":" ","HOUSE_NO":"１號四樓之８","E_COORD97":165751,"N_COORD97":2543900.1899999999,"ADDRESS":"永華六街１５４巷１號四樓之８","OBJECTID":294239},"geometry":{"x":165751.00000000093,"y":2543900.1899999976}},{"attributes":{"ID":294248,"DIS_CODE":0,"TOWNNAME":"下營區","LI":"大屯里","LIN":"1鄰","STREET":" ","SECT":" ","MAREA":"大屯寮","LANE":" ","ALLEY":" ","HOUSE_NO":"４號之１０","E_COORD97":172399.60999999999,"N_COORD97":2570236.7799999998,"ADDRESS":"大屯寮４號之１０","OBJECTID":294240},"geometry":{"x":172399.61000000034,"y":2570236.7800000012}},{"attributes":{"ID":294249,"DIS_CODE":0,"TOWNNAME":"下營區","LI":"大屯里","LIN":"1鄰","STREET":" ","SECT":" ","MAREA":"大屯寮","LANE":" ","ALLEY":" ","HOUSE_NO":"４號之１２","E_COORD97":172213.57000000001,"N_COORD97":2570322.0699999998,"ADDRESS":"大屯寮４號之１２","OBJECTID":294241},"geometry":{"x":172213.5700000003,"y":2570322.0700000003}},{"attributes":{"ID":294250,"DIS_CODE":0,"TOWNNAME":"下營區","LI":"大埤里","LIN":"10鄰","STREET":" ","SECT":" ","MAREA":"大埤寮","LANE":" ","ALLEY":" ","HOUSE_NO":"１０１號","E_COORD97":171910.51000000001,"N_COORD97":2568388.1400000001,"ADDRESS":"大埤寮１０１號","OBJECTID":294242},"geometry":{"x":171910.51000000071,"y":2568388.1400000025}},{"attributes":{"ID":294251,"DIS_CODE":0,"TOWNNAME":"安平區","LI":"建平里","LIN":"14鄰","STREET":"建平十三街","SECT":" ","MAREA":" ","LANE":" ","ALLEY":" ","HOUSE_NO":"３５號","E_COORD97":166239.87,"N_COORD97":2544000.52,"ADDRESS":"建平十三街３５號","OBJECTID":294243},"geometry":{"x":166239.87000000104,"y":2544000.5200000014}},{"attributes":{"ID":294252,"DIS_CODE":0,"TOWNNAME":"安平區","LI":"建平里","LIN":"14鄰","STREET":"建平十三街","SECT":" ","MAREA":" ","LANE":" ","ALLEY":" ","HOUSE_NO":"４５號","E_COORD97":166220.07999999999,"N_COORD97":2544002.52,"ADDRESS":"建平十三街４５號","OBJECTID":294244},"geometry":{"x":166220.08000000101,"y":2544002.5199999996}},{"attributes":{"ID":294253,"DIS_CODE":0,"TOWNNAME":"安平區","LI":"建平里","LIN":"14鄰","STREET":"建平十三街","SECT":" ","MAREA":" ","LANE":" ","ALLEY":" ","HOUSE_NO":"４７號","E_COORD97":166217.10999999999,"N_COORD97":2544003.3399999999,"ADDRESS":"建平十三街４７號","OBJECTID":294245},"geometry":{"x":166217.11000000034,"y":2544003.3399999999}},{"attributes":{"ID":294254,"DIS_CODE":0,"TOWNNAME":"安平區","LI":"怡平里","LIN":"17鄰","STREET":"永華六街","SECT":" ","MAREA":" ","LANE":"１５４巷","ALLEY":" ","HOUSE_NO":"１號四樓之９","E_COORD97":165751,"N_COORD97":2543900.1899999999,"ADDRESS":"永華六街１５４巷１號四樓之９","OBJECTID":294246},"geometry":{"x":165751.00000000093,"y":2543900.1899999976}},{"attributes":{"ID":294255,"DIS_CODE":0,"TOWNNAME":"安平區","LI":"怡平里","LIN":"17鄰","STREET":"永華六街","SECT":" ","MAREA":" ","LANE":"１５４巷","ALLEY":" ","HOUSE_NO":"１號五樓之１","E_COORD97":165751,"N_COORD97":2543900.1899999999,"ADDRESS":"永華六街１５４巷１號五樓之１","OBJECTID":294247},"geometry":{"x":165751.00000000093,"y":2543900.1899999976}},{"attributes":{"ID":294256,"DIS_CODE":0,"TOWNNAME":"安平區","LI":"怡平里","LIN":"17鄰","STREET":"永華六街","SECT":" ","MAREA":" ","LANE":"１５４巷","ALLEY":" ","HOUSE_NO":"１號五樓之２","E_COORD97":165751,"N_COORD97":2543900.1899999999,"ADDRESS":"永華六街１５４巷１號五樓之２","OBJECTID":294248},"geometry":{"x":165751.00000000093,"y":2543900.1899999976}},{"attributes":{"ID":294257,"DIS_CODE":0,"TOWNNAME":"安平區","LI":"怡平里","LIN":"17鄰","STREET":"永華六街","SECT":" ","MAREA":" ","LANE":"１５４巷","ALLEY":" ","HOUSE_NO":"１號五樓之３","E_COORD97":165751,"N_COORD97":2543900.1899999999,"ADDRESS":"永華六街１５４巷１號五樓之３","OBJECTID":294249},"geometry":{"x":165751.00000000093,"y":2543900.1899999976}},{"attributes":{"ID":294258,"DIS_CODE":0,"TOWNNAME":"安平區","LI":"怡平里","LIN":"17鄰","STREET":"永華六街","SECT":" ","MAREA":" ","LANE":"１５４巷","ALLEY":" ","HOUSE_NO":"１號五樓之６之１","E_COORD97":165751,"N_COORD97":2543900.1899999999,"ADDRESS":"永華六街１５４巷１號五樓之６之１","OBJECTID":294250},"geometry":{"x":165751.00000000093,"y":2543900.1899999976}},{"attributes":{"ID":294259,"DIS_CODE":0,"TOWNNAME":"安平區","LI":"怡平里","LIN":"17鄰","STREET":"永華六街","SECT":" ","MAREA":" ","LANE":"１５４巷","ALLEY":" ","HOUSE_NO":"１號五樓之５","E_COORD97":165751,"N_COORD97":2543900.1899999999,"ADDRESS":"永華六街１５４巷１號五樓之５","OBJECTID":294251},"geometry":{"x":165751.00000000093,"y":2543900.1899999976}},{"attributes":{"ID":294260,"DIS_CODE":0,"TOWNNAME":"安平區","LI":"怡平里","LIN":"17鄰","STREET":"永華六街","SECT":" ","MAREA":" ","LANE":"１５４巷","ALLEY":" ","HOUSE_NO":"１號五樓之６","E_COORD97":165751,"N_COORD97":2543900.1899999999,"ADDRESS":"永華六街１５４巷１號五樓之６","OBJECTID":294252},"geometry":{"x":165751.00000000093,"y":2543900.1899999976}},{"attributes":{"ID":294261,"DIS_CODE":0,"TOWNNAME":"安平區","LI":"怡平里","LIN":"17鄰","STREET":"永華六街","SECT":" ","MAREA":" ","LANE":"１５４巷","ALLEY":" ","HOUSE_NO":"１號五樓之７","E_COORD97":165751,"N_COORD97":2543900.1899999999,"ADDRESS":"永華六街１５４巷１號五樓之７","OBJECTID":294253},"geometry":{"x":165751.00000000093,"y":2543900.1899999976}},{"attributes":{"ID":294262,"DIS_CODE":0,"TOWNNAME":"安平區","LI":"怡平里","LIN":"17鄰","STREET":"永華六街","SECT":" ","MAREA":" ","LANE":"１５４巷","ALLEY":" ","HOUSE_NO":"１號五樓之８","E_COORD97":165751,"N_COORD97":2543900.1899999999,"ADDRESS":"永華六街１５４巷１號五樓之８","OBJECTID":294254},"geometry":{"x":165751.00000000093,"y":2543900.1899999976}},{"attributes":{"ID":294263,"DIS_CODE":0,"TOWNNAME":"安平區","LI":"建平里","LIN":"14鄰","STREET":"建平十三街","SECT":" ","MAREA":" ","LANE":" ","ALLEY":" ","HOUSE_NO":"３３號","E_COORD97":166243.44,"N_COORD97":2544000.3700000001,"ADDRESS":"建平十三街３３號","OBJECTID":294255},"geometry":{"x":166243.44000000134,"y":2544000.3700000029}},{"attributes":{"ID":294264,"DIS_CODE":0,"TOWNNAME":"安平區","LI":"怡平里","LIN":"17鄰","STREET":"永華六街","SECT":" ","MAREA":" ","LANE":"１５４巷","ALLEY":" ","HOUSE_NO":"１號六樓之１","E_COORD97":165751,"N_COORD97":2543900.1899999999,"ADDRESS":"永華六街１５４巷１號六樓之１","OBJECTID":294256},"geometry":{"x":165751.00000000093,"y":2543900.1899999976}},{"attributes":{"ID":294265,"DIS_CODE":0,"TOWNNAME":"安平區","LI":"怡平里","LIN":"17鄰","STREET":"永華六街","SECT":" ","MAREA":" ","LANE":"１５４巷","ALLEY":" ","HOUSE_NO":"１號六樓之３","E_COORD97":165751,"N_COORD97":2543900.1899999999,"ADDRESS":"永華六街１５４巷１號六樓之３","OBJECTID":294257},"geometry":{"x":165751.00000000093,"y":2543900.1899999976}},{"attributes":{"ID":294266,"DIS_CODE":0,"TOWNNAME":"安平區","LI":"怡平里","LIN":"17鄰","STREET":"永華六街","SECT":" ","MAREA":" ","LANE":"１５４巷","ALLEY":" ","HOUSE_NO":"１號六樓之４","E_COORD97":165751,"N_COORD97":2543900.1899999999,"ADDRESS":"永華六街１５４巷１號六樓之４","OBJECTID":294258},"geometry":{"x":165751.00000000093,"y":2543900.1899999976}},{"attributes":{"ID":294267,"DIS_CODE":0,"TOWNNAME":"安平區","LI":"怡平里","LIN":"17鄰","STREET":"永華六街","SECT":" ","MAREA":" ","LANE":"１５４巷","ALLEY":" ","HOUSE_NO":"１號六樓之５","E_COORD97":165751,"N_COORD97":2543900.1899999999,"ADDRESS":"永華六街１５４巷１號六樓之５","OBJECTID":294259},"geometry":{"x":165751.00000000093,"y":2543900.1899999976}},{"attributes":{"ID":294268,"DIS_CODE":0,"TOWNNAME":"安平區","LI":"怡平里","LIN":"17鄰","STREET":"永華六街","SECT":" ","MAREA":" ","LANE":"１５４巷","ALLEY":" ","HOUSE_NO":"１號六樓之６","E_COORD97":165751,"N_COORD97":2543900.1899999999,"ADDRESS":"永華六街１５４巷１號六樓之６","OBJECTID":294260},"geometry":{"x":165751.00000000093,"y":2543900.1899999976}},{"attributes":{"ID":294269,"DIS_CODE":0,"TOWNNAME":"安平區","LI":"怡平里","LIN":"17鄰","STREET":"永華六街","SECT":" ","MAREA":" ","LANE":"１５４巷","ALLEY":" ","HOUSE_NO":"１號六樓之７","E_COORD97":165751,"N_COORD97":2543900.1899999999,"ADDRESS":"永華六街１５４巷１號六樓之７","OBJECTID":294261},"geometry":{"x":165751.00000000093,"y":2543900.1899999976}},{"attributes":{"ID":294270,"DIS_CODE":0,"TOWNNAME":"安平區","LI":"怡平里","LIN":"17鄰","STREET":"永華六街","SECT":" ","MAREA":" ","LANE":"１５４巷","ALLEY":" ","HOUSE_NO":"１號六樓之８","E_COORD97":165751,"N_COORD97":2543900.1899999999,"ADDRESS":"永華六街１５４巷１號六樓之８","OBJECTID":294262},"geometry":{"x":165751.00000000093,"y":2543900.1899999976}},{"attributes":{"ID":294271,"DIS_CODE":0,"TOWNNAME":"安平區","LI":"怡平里","LIN":"17鄰","STREET":"永華六街","SECT":" ","MAREA":" ","LANE":"１５４巷","ALLEY":" ","HOUSE_NO":"１號六樓之９","E_COORD97":165751,"N_COORD97":2543900.1899999999,"ADDRESS":"永華六街１５４巷１號六樓之９","OBJECTID":294263},"geometry":{"x":165751.00000000093,"y":2543900.1899999976}},{"attributes":{"ID":294272,"DIS_CODE":0,"TOWNNAME":"安平區","LI":"怡平里","LIN":"17鄰","STREET":"永華六街","SECT":" ","MAREA":" ","LANE":"１５４巷","ALLEY":" ","HOUSE_NO":"１號七樓之１","E_COORD97":165751,"N_COORD97":2543900.1899999999,"ADDRESS":"永華六街１５４巷１號七樓之１","OBJECTID":294264},"geometry":{"x":165751.00000000093,"y":2543900.1899999976}},{"attributes":{"ID":294273,"DIS_CODE":0,"TOWNNAME":"安平區","LI":"怡平里","LIN":"17鄰","STREET":"永華六街","SECT":" ","MAREA":" ","LANE":"１５４巷","ALLEY":" ","HOUSE_NO":"１號七樓之２","E_COORD97":165751,"N_COORD97":2543900.1899999999,"ADDRESS":"永華六街１５４巷１號七樓之２","OBJECTID":294265},"geometry":{"x":165751.00000000093,"y":2543900.1899999976}},{"attributes":{"ID":294274,"DIS_CODE":0,"TOWNNAME":"安平區","LI":"怡平里","LIN":"17鄰","STREET":"永華六街","SECT":" ","MAREA":" ","LANE":"１５４巷","ALLEY":" ","HOUSE_NO":"１號七樓之３","E_COORD97":165751,"N_COORD97":2543900.1899999999,"ADDRESS":"永華六街１５４巷１號七樓之３","OBJECTID":294266},"geometry":{"x":165751.00000000093,"y":2543900.1899999976}},{"attributes":{"ID":294275,"DIS_CODE":0,"TOWNNAME":"安平區","LI":"怡平里","LIN":"17鄰","STREET":"永華六街","SECT":" ","MAREA":" ","LANE":"１５４巷","ALLEY":" ","HOUSE_NO":"１號七樓之４","E_COORD97":165751,"N_COORD97":2543900.1899999999,"ADDRESS":"永華六街１５４巷１號七樓之４","OBJECTID":294267},"geometry":{"x":165751.00000000093,"y":2543900.1899999976}},{"attributes":{"ID":294276,"DIS_CODE":0,"TOWNNAME":"中西區","LI":"郡王里","LIN":" ","STREET":"建業街","SECT":" ","MAREA":" ","LANE":" ","ALLEY":" ","HOUSE_NO":"５號","E_COORD97":168709.25,"N_COORD97":2543130.02,"ADDRESS":"建業街５號","OBJECTID":294268},"geometry":{"x":168709.25,"y":2543130.0200000014}},{"attributes":{"ID":294277,"DIS_CODE":0,"TOWNNAME":"安平區","LI":"怡平里","LIN":"17鄰","STREET":"永華六街","SECT":" ","MAREA":" ","LANE":"１５４巷","ALLEY":" ","HOUSE_NO":"１號七樓之５","E_COORD97":165751,"N_COORD97":2543900.1899999999,"ADDRESS":"永華六街１５４巷１號七樓之５","OBJECTID":294269},"geometry":{"x":165751.00000000093,"y":2543900.1899999976}},{"attributes":{"ID":294278,"DIS_CODE":0,"TOWNNAME":"安平區","LI":"怡平里","LIN":"17鄰","STREET":"永華六街","SECT":" ","MAREA":" ","LANE":"１５４巷","ALLEY":" ","HOUSE_NO":"１號七樓之６","E_COORD97":165751,"N_COORD97":2543900.1899999999,"ADDRESS":"永華六街１５４巷１號七樓之６","OBJECTID":294270},"geometry":{"x":165751.00000000093,"y":2543900.1899999976}},{"attributes":{"ID":294279,"DIS_CODE":0,"TOWNNAME":"安平區","LI":"怡平里","LIN":"17鄰","STREET":"永華六街","SECT":" ","MAREA":" ","LANE":"１５４巷","ALLEY":" ","HOUSE_NO":"１號七樓之７","E_COORD97":165751,"N_COORD97":2543900.1899999999,"ADDRESS":"永華六街１５４巷１號七樓之７","OBJECTID":294271},"geometry":{"x":165751.00000000093,"y":2543900.1899999976}},{"attributes":{"ID":294280,"DIS_CODE":0,"TOWNNAME":"安平區","LI":"怡平里","LIN":"17鄰","STREET":"永華六街","SECT":" ","MAREA":" ","LANE":"１５４巷","ALLEY":" ","HOUSE_NO":"１號七樓之８","E_COORD97":165751,"N_COORD97":2543900.1899999999,"ADDRESS":"永華六街１５４巷１號七樓之８","OBJECTID":294272},"geometry":{"x":165751.00000000093,"y":2543900.1899999976}},{"attributes":{"ID":294281,"DIS_CODE":0,"TOWNNAME":"安平區","LI":"怡平里","LIN":"17鄰","STREET":"永華六街","SECT":" ","MAREA":" ","LANE":"１５４巷","ALLEY":" ","HOUSE_NO":"１號八樓","E_COORD97":165751,"N_COORD97":2543900.1899999999,"ADDRESS":"永華六街１５４巷１號八樓","OBJECTID":294273},"geometry":{"x":165751.00000000093,"y":2543900.1899999976}},{"attributes":{"ID":294282,"DIS_CODE":0,"TOWNNAME":"安平區","LI":"文平里","LIN":"17鄰","STREET":"建平三街","SECT":" ","MAREA":" ","LANE":"６５巷","ALLEY":" ","HOUSE_NO":"１８號五樓之２","E_COORD97":165743.35000000001,"N_COORD97":2542877.1400000001,"ADDRESS":"建平三街６５巷１８號五樓之２","OBJECTID":294274},"geometry":{"x":165743.34999999963,"y":2542877.1400000006}},{"attributes":{"ID":294283,"DIS_CODE":0,"TOWNNAME":"北區","LI":"仁愛里","LIN":"17鄰","STREET":"東豐路","SECT":" ","MAREA":" ","LANE":"２７３巷","ALLEY":" ","HOUSE_NO":"１５號七樓","E_COORD97":170330.39999999999,"N_COORD97":2544891.4900000002,"ADDRESS":"東豐路２７３巷１５號七樓","OBJECTID":294275},"geometry":{"x":170330.4000000013,"y":2544891.4900000002}},{"attributes":{"ID":294284,"DIS_CODE":0,"TOWNNAME":"北區","LI":"仁愛里","LIN":"17鄰","STREET":"東豐路","SECT":" ","MAREA":" ","LANE":"２７３巷","ALLEY":" ","HOUSE_NO":"１５號二樓","E_COORD97":170330.39999999999,"N_COORD97":2544891.4900000002,"ADDRESS":"東豐路２７３巷１５號二樓","OBJECTID":294276},"geometry":{"x":170330.4000000013,"y":2544891.4900000002}},{"attributes":{"ID":294285,"DIS_CODE":0,"TOWNNAME":"北區","LI":"仁愛里","LIN":"17鄰","STREET":"東豐路","SECT":" ","MAREA":" ","LANE":"２７３巷","ALLEY":" ","HOUSE_NO":"１５號三樓","E_COORD97":170330.39999999999,"N_COORD97":2544891.4900000002,"ADDRESS":"東豐路２７３巷１５號三樓","OBJECTID":294277},"geometry":{"x":170330.4000000013,"y":2544891.4900000002}},{"attributes":{"ID":294286,"DIS_CODE":0,"TOWNNAME":"北區","LI":"仁愛里","LIN":"17鄰","STREET":"東豐路","SECT":" ","MAREA":" ","LANE":"２７３巷","ALLEY":" ","HOUSE_NO":"１５號五樓","E_COORD97":170330.39999999999,"N_COORD97":2544891.4900000002,"ADDRESS":"東豐路２７３巷１５號五樓","OBJECTID":294278},"geometry":{"x":170330.4000000013,"y":2544891.4900000002}},{"attributes":{"ID":294287,"DIS_CODE":0,"TOWNNAME":"北區","LI":"仁愛里","LIN":"17鄰","STREET":"東豐路","SECT":" ","MAREA":" ","LANE":"２７３巷","ALLEY":" ","HOUSE_NO":"１５號六樓","E_COORD97":170330.39999999999,"N_COORD97":2544891.4900000002,"ADDRESS":"東豐路２７３巷１５號六樓","OBJECTID":294279},"geometry":{"x":170330.4000000013,"y":2544891.4900000002}},{"attributes":{"ID":294288,"DIS_CODE":0,"TOWNNAME":"北區","LI":"賢北里","LIN":"8鄰","STREET":"賢北街","SECT":" ","MAREA":" ","LANE":"１７巷","ALLEY":" ","HOUSE_NO":"１號","E_COORD97":166327.59,"N_COORD97":2545245.5499999998,"ADDRESS":"賢北街１７巷１號","OBJECTID":294280},"geometry":{"x":166327.59000000171,"y":2545245.5500000026}},{"attributes":{"ID":294289,"DIS_CODE":0,"TOWNNAME":"北區","LI":"仁愛里","LIN":"17鄰","STREET":"東豐路","SECT":" ","MAREA":" ","LANE":"２７３巷","ALLEY":" ","HOUSE_NO":"１５號四樓","E_COORD97":170330.39999999999,"N_COORD97":2544891.4900000002,"ADDRESS":"東豐路２７３巷１５號四樓","OBJECTID":294281},"geometry":{"x":170330.4000000013,"y":2544891.4900000002}},{"attributes":{"ID":294290,"DIS_CODE":0,"TOWNNAME":"北區","LI":"仁愛里","LIN":"17鄰","STREET":"東豐路","SECT":" ","MAREA":" ","LANE":"２７３巷","ALLEY":" ","HOUSE_NO":"１７號七樓","E_COORD97":170336.19,"N_COORD97":2544903.54,"ADDRESS":"東豐路２７３巷１７號七樓","OBJECTID":294282},"geometry":{"x":170336.19000000041,"y":2544903.5399999991}},{"attributes":{"ID":294291,"DIS_CODE":0,"TOWNNAME":"北區","LI":"仁愛里","LIN":"17鄰","STREET":"東豐路","SECT":" ","MAREA":" ","LANE":"２７３巷","ALLEY":" ","HOUSE_NO":"１７號二樓","E_COORD97":170336.19,"N_COORD97":2544903.54,"ADDRESS":"東豐路２７３巷１７號二樓","OBJECTID":294283},"geometry":{"x":170336.19000000041,"y":2544903.5399999991}},{"attributes":{"ID":294292,"DIS_CODE":0,"TOWNNAME":"北區","LI":"仁愛里","LIN":"17鄰","STREET":"東豐路","SECT":" ","MAREA":" ","LANE":"２７３巷","ALLEY":" ","HOUSE_NO":"１７號三樓","E_COORD97":170336.19,"N_COORD97":2544903.54,"ADDRESS":"東豐路２７３巷１７號三樓","OBJECTID":294284},"geometry":{"x":170336.19000000041,"y":2544903.5399999991}},{"attributes":{"ID":294293,"DIS_CODE":0,"TOWNNAME":"中西區","LI":"西湖里","LIN":"34鄰","STREET":"西湖街","SECT":" ","MAREA":" ","LANE":" ","ALLEY":" ","HOUSE_NO":"７７號","E_COORD97":166389.98000000001,"N_COORD97":2544893.4399999999,"ADDRESS":"西湖街７７號","OBJECTID":294285},"geometry":{"x":166389.98000000231,"y":2544893.4400000013}},{"attributes":{"ID":294294,"DIS_CODE":0,"TOWNNAME":"中西區","LI":"西湖里","LIN":"32鄰","STREET":"湖美二街","SECT":" ","MAREA":" ","LANE":"１４２巷","ALLEY":" ","HOUSE_NO":"２０之３號","E_COORD97":166273.23000000001,"N_COORD97":2545012.8100000001,"ADDRESS":"湖美二街１４２巷２０之３號","OBJECTID":294286},"geometry":{"x":166273.23000000138,"y":2545012.8100000042}},{"attributes":{"ID":294295,"DIS_CODE":0,"TOWNNAME":"安南區","LI":"長安里","LIN":"14鄰","STREET":"長溪路","SECT":"三段","MAREA":" ","LANE":"３８０巷","ALLEY":" ","HOUSE_NO":"１２６號","E_COORD97":168018.48999999999,"N_COORD97":2552235.6899999999,"ADDRESS":"長溪路三段３８０巷１２６號","OBJECTID":294287},"geometry":{"x":168018.49000000022,"y":2552235.6899999995}},{"attributes":{"ID":294296,"DIS_CODE":0,"TOWNNAME":"安南區","LI":"安慶里","LIN":"4鄰","STREET":"長溪路","SECT":"一段","MAREA":" ","LANE":"１６８巷","ALLEY":" ","HOUSE_NO":"３６號","E_COORD97":169069.84,"N_COORD97":2548648.4399999999,"ADDRESS":"長溪路一段１６８巷３６號","OBJECTID":294288},"geometry":{"x":169069.83999999985,"y":2548648.4399999976}},{"attributes":{"ID":294297,"DIS_CODE":0,"TOWNNAME":"新市區","LI":"大營里","LIN":"21鄰","STREET":" ","SECT":" ","MAREA":"豐榮","LANE":" ","ALLEY":" ","HOUSE_NO":"１５５號","E_COORD97":179003.04000000001,"N_COORD97":2554312,"ADDRESS":"豐榮１５５號","OBJECTID":294289},"geometry":{"x":179003.0400000019,"y":2554312.0000000019}},{"attributes":{"ID":294298,"DIS_CODE":0,"TOWNNAME":"安南區","LI":"州北里","LIN":"25鄰","STREET":"安和路","SECT":"五段","MAREA":" ","LANE":"１７１巷","ALLEY":" ","HOUSE_NO":"３２號","E_COORD97":169774.38,"N_COORD97":2551831.1899999999,"ADDRESS":"安和路五段１７１巷３２號","OBJECTID":294290},"geometry":{"x":169774.38000000082,"y":2551831.1900000013}},{"attributes":{"ID":294299,"DIS_CODE":0,"TOWNNAME":"安南區","LI":"州北里","LIN":"25鄰","STREET":"安和路","SECT":"五段","MAREA":" ","LANE":"１７１巷","ALLEY":" ","HOUSE_NO":"３４號","E_COORD97":169770.17999999999,"N_COORD97":2551829.6699999999,"ADDRESS":"安和路五段１７１巷３４號","OBJECTID":294291},"geometry":{"x":169770.18000000063,"y":2551829.6699999999}},{"attributes":{"ID":294300,"DIS_CODE":0,"TOWNNAME":"安南區","LI":"州北里","LIN":"25鄰","STREET":"安和路","SECT":"五段","MAREA":" ","LANE":"１７１巷","ALLEY":" ","HOUSE_NO":"３６號","E_COORD97":169765.79999999999,"N_COORD97":2551827.1899999999,"ADDRESS":"安和路五段１７１巷３６號","OBJECTID":294292},"geometry":{"x":169765.80000000075,"y":2551827.1900000032}},{"attributes":{"ID":294301,"DIS_CODE":0,"TOWNNAME":"安南區","LI":"海東里","LIN":"5鄰","STREET":"海佃路","SECT":"二段","MAREA":" ","LANE":"５０９巷","ALLEY":" ","HOUSE_NO":"１６號","E_COORD97":166618.78,"N_COORD97":2549201.77,"ADDRESS":"海佃路二段５０９巷１６號","OBJECTID":294293},"geometry":{"x":166618.78000000119,"y":2549201.7699999996}},{"attributes":{"ID":294302,"DIS_CODE":0,"TOWNNAME":"安南區","LI":"\u25A0南里","LIN":"20鄰","STREET":"環福街","SECT":" ","MAREA":" ","LANE":"１５２巷","ALLEY":" ","HOUSE_NO":"２３號","E_COORD97":170430.37,"N_COORD97":2552578.7599999998,"ADDRESS":"環福街１５２巷２３號","OBJECTID":294294},"geometry":{"x":170430.37000000104,"y":2552578.7599999998}},{"attributes":{"ID":294303,"DIS_CODE":0,"TOWNNAME":"安南區","LI":"頂安里","LIN":"3鄰","STREET":"長溪路","SECT":"一段","MAREA":" ","LANE":"４０６巷","ALLEY":" ","HOUSE_NO":"４９號","E_COORD97":168649.41,"N_COORD97":2549082.8599999999,"ADDRESS":"長溪路一段４０６巷４９號","OBJECTID":294295},"geometry":{"x":168649.41000000015,"y":2549082.8599999975}},{"attributes":{"ID":294304,"DIS_CODE":0,"TOWNNAME":"北區","LI":"仁愛里","LIN":"17鄰","STREET":"東豐路","SECT":" ","MAREA":" ","LANE":"２７３巷","ALLEY":" ","HOUSE_NO":"１７號五樓","E_COORD97":170336.19,"N_COORD97":2544903.54,"ADDRESS":"東豐路２７３巷１７號五樓","OBJECTID":294296},"geometry":{"x":170336.19000000041,"y":2544903.5399999991}},{"attributes":{"ID":294305,"DIS_CODE":0,"TOWNNAME":"安平區","LI":"建平里","LIN":"14鄰","STREET":"建平十三街","SECT":" ","MAREA":" ","LANE":" ","ALLEY":" ","HOUSE_NO":"３１號","E_COORD97":166247.89999999999,"N_COORD97":2543999.7000000002,"ADDRESS":"建平十三街３１號","OBJECTID":294297},"geometry":{"x":166247.90000000224,"y":2543999.7000000011}},{"attributes":{"ID":294306,"DIS_CODE":0,"TOWNNAME":"安平區","LI":"建平里","LIN":"14鄰","STREET":"建平十三街","SECT":" ","MAREA":" ","LANE":" ","ALLEY":" ","HOUSE_NO":"２９號","E_COORD97":166251.62,"N_COORD97":2543998.4300000002,"ADDRESS":"建平十三街２９號","OBJECTID":294298},"geometry":{"x":166251.62000000104,"y":2543998.4300000016}},{"attributes":{"ID":294307,"DIS_CODE":0,"TOWNNAME":"安平區","LI":"石門里","LIN":"14鄰","STREET":"延平街","SECT":" ","MAREA":" ","LANE":" ","ALLEY":" ","HOUSE_NO":"６０號","E_COORD97":164245.34,"N_COORD97":2544587.4300000002,"ADDRESS":"延平街６０號","OBJECTID":294299},"geometry":{"x":164245.33999999985,"y":2544587.4300000034}},{"attributes":{"ID":294308,"DIS_CODE":0,"TOWNNAME":"鹽水區","LI":"橋南里","LIN":"14鄰","STREET":"南門路","SECT":" ","MAREA":" ","LANE":" ","ALLEY":" ","HOUSE_NO":"５號","E_COORD97":175038.85999999999,"N_COORD97":2579497.2599999998,"ADDRESS":"南門路５號","OBJECTID":294300},"geometry":{"x":175038.86000000034,"y":2579497.2600000016}},{"attributes":{"ID":294309,"DIS_CODE":0,"TOWNNAME":"鹽水區","LI":"橋南里","LIN":"14鄰","STREET":"南門路","SECT":" ","MAREA":" ","LANE":" ","ALLEY":" ","HOUSE_NO":"７號","E_COORD97":175040.91,"N_COORD97":2579493.1800000002,"ADDRESS":"南門路７號","OBJECTID":294301},"geometry":{"x":175040.91000000108,"y":2579493.1800000016}},{"attributes":{"ID":294310,"DIS_CODE":0,"TOWNNAME":"鹽水區","LI":"橋南里","LIN":"14鄰","STREET":"南門路","SECT":" ","MAREA":" ","LANE":" ","ALLEY":" ","HOUSE_NO":"１３號","E_COORD97":175046.39999999999,"N_COORD97":2579481.7599999998,"ADDRESS":"南門路１３號","OBJECTID":294302},"geometry":{"x":175046.4000000013,"y":2579481.7599999998}},{"attributes":{"ID":294311,"DIS_CODE":0,"TOWNNAME":"鹽水區","LI":"橋南里","LIN":"14鄰","STREET":"南門路","SECT":" ","MAREA":" ","LANE":" ","ALLEY":" ","HOUSE_NO":"１５號","E_COORD97":175049.10000000001,"N_COORD97":2579476.8700000001,"ADDRESS":"南門路１５號","OBJECTID":294303},"geometry":{"x":175049.10000000056,"y":2579476.8700000029}},{"attributes":{"ID":294312,"DIS_CODE":0,"TOWNNAME":"鹽水區","LI":"橋南里","LIN":"14鄰","STREET":"南門路","SECT":" ","MAREA":" ","LANE":" ","ALLEY":" ","HOUSE_NO":"１號","E_COORD97":175025.44,"N_COORD97":2579530.3900000001,"ADDRESS":"南門路１號","OBJECTID":294304},"geometry":{"x":175025.44000000227,"y":2579530.3900000025}},{"attributes":{"ID":294313,"DIS_CODE":0,"TOWNNAME":"鹽水區","LI":"水正里","LIN":"14鄰","STREET":"康樂路","SECT":" ","MAREA":" ","LANE":" ","ALLEY":" ","HOUSE_NO":"６號","E_COORD97":175085.95999999999,"N_COORD97":2579634.8199999998,"ADDRESS":"康樂路６號","OBJECTID":294305},"geometry":{"x":175085.96000000183,"y":2579634.820000004}},{"attributes":{"ID":294314,"DIS_CODE":0,"TOWNNAME":"鹽水區","LI":"水正里","LIN":"14鄰","STREET":"康樂路","SECT":" ","MAREA":" ","LANE":" ","ALLEY":" ","HOUSE_NO":"９號","E_COORD97":175083.37865500001,"N_COORD97":2579648.5485,"ADDRESS":"康樂路９號","OBJECTID":294306},"geometry":{"x":175083.37865499966,"y":2579648.5484980028}},{"attributes":{"ID":294315,"DIS_CODE":0,"TOWNNAME":"北區","LI":"成德里","LIN":"14鄰","STREET":"海安路","SECT":"三段","MAREA":" ","LANE":" ","ALLEY":" ","HOUSE_NO":"５３６號","E_COORD97":168094.54999999999,"N_COORD97":2545762.0899999999,"ADDRESS":"海安路三段５３６號","OBJECTID":294307},"geometry":{"x":168094.55000000075,"y":2545762.0899999999}},{"attributes":{"ID":294316,"DIS_CODE":0,"TOWNNAME":"北區","LI":"成德里","LIN":"14鄰","STREET":"海安路","SECT":"三段","MAREA":" ","LANE":" ","ALLEY":" ","HOUSE_NO":"５０８號","E_COORD97":168095.82000000001,"N_COORD97":2545707.7999999998,"ADDRESS":"海安路三段５０８號","OBJECTID":294308},"geometry":{"x":168095.8200000003,"y":2545707.7999999989}},{"attributes":{"ID":294317,"DIS_CODE":0,"TOWNNAME":"新營區","LI":"大宏里","LIN":"19鄰","STREET":"三民路","SECT":" ","MAREA":" ","LANE":" ","ALLEY":" ","HOUSE_NO":"３６號之４４","E_COORD97":180439.58322999999,"N_COORD97":2578537.3181699999,"ADDRESS":"三民路３６號之４４","OBJECTID":294309},"geometry":{"x":180439.58323000092,"y":2578537.3181700017}},{"attributes":{"ID":294318,"DIS_CODE":0,"TOWNNAME":"安南區","LI":"安慶里","LIN":"4鄰","STREET":"長溪路","SECT":"一段","MAREA":" ","LANE":"１６８巷","ALLEY":" ","HOUSE_NO":"６號","E_COORD97":169048.22,"N_COORD97":2548577.79,"ADDRESS":"長溪路一段１６８巷６號","OBJECTID":294310},"geometry":{"x":169048.21999999974,"y":2548577.7899999972}},{"attributes":{"ID":294319,"DIS_CODE":0,"TOWNNAME":"安南區","LI":"安慶里","LIN":"8鄰","STREET":"長溪路","SECT":"一段","MAREA":" ","LANE":"３４２巷","ALLEY":" ","HOUSE_NO":"２６號","E_COORD97":168730.29999999999,"N_COORD97":2548916.7200000002,"ADDRESS":"長溪路一段３４２巷２６號","OBJECTID":294311},"geometry":{"x":168730.30000000075,"y":2548916.7200000025}},{"attributes":{"ID":294320,"DIS_CODE":0,"TOWNNAME":"安南區","LI":"安慶里","LIN":"8鄰","STREET":"長溪路","SECT":"一段","MAREA":" ","LANE":"３４２巷","ALLEY":" ","HOUSE_NO":"２８號","E_COORD97":168730.29999999999,"N_COORD97":2548921.48,"ADDRESS":"長溪路一段３４２巷２８號","OBJECTID":294312},"geometry":{"x":168730.30000000075,"y":2548921.4800000023}},{"attributes":{"ID":294321,"DIS_CODE":0,"TOWNNAME":"安南區","LI":"安慶里","LIN":"8鄰","STREET":"長溪路","SECT":"一段","MAREA":" ","LANE":"３４２巷","ALLEY":" ","HOUSE_NO":"３０號","E_COORD97":168730.39999999999,"N_COORD97":2548924.9900000002,"ADDRESS":"長溪路一段３４２巷３０號","OBJECTID":294313},"geometry":{"x":168730.4000000013,"y":2548924.9900000021}},{"attributes":{"ID":294322,"DIS_CODE":0,"TOWNNAME":"安南區","LI":"安慶里","LIN":"8鄰","STREET":"長溪路","SECT":"一段","MAREA":" ","LANE":"３４２巷","ALLEY":" ","HOUSE_NO":"３２號","E_COORD97":168729.45000000001,"N_COORD97":2548929.1699999999,"ADDRESS":"長溪路一段３４２巷３２號","OBJECTID":294314},"geometry":{"x":168729.45000000112,"y":2548929.1700000018}},{"attributes":{"ID":294323,"DIS_CODE":0,"TOWNNAME":"安南區","LI":"安慶里","LIN":"8鄰","STREET":"長溪路","SECT":"一段","MAREA":" ","LANE":"３４２巷","ALLEY":" ","HOUSE_NO":"３４號","E_COORD97":168729.54000000001,"N_COORD97":2548933.0699999998,"ADDRESS":"長溪路一段３４２巷３４號","OBJECTID":294315},"geometry":{"x":168729.54000000004,"y":2548933.0700000003}},{"attributes":{"ID":294324,"DIS_CODE":0,"TOWNNAME":"安南區","LI":"安慶里","LIN":"8鄰","STREET":"長溪路","SECT":"一段","MAREA":" ","LANE":"３４２巷","ALLEY":" ","HOUSE_NO":"３６號","E_COORD97":168728.60999999999,"N_COORD97":2548937.8599999999,"ADDRESS":"長溪路一段３４２巷３６號","OBJECTID":294316},"geometry":{"x":168728.61000000127,"y":2548937.8600000013}},{"attributes":{"ID":294325,"DIS_CODE":0,"TOWNNAME":"新市區","LI":"新和里","LIN":"42鄰","STREET":"信義街","SECT":" ","MAREA":" ","LANE":"１０６巷","ALLEY":" ","HOUSE_NO":"１４號","E_COORD97":177320.48999999999,"N_COORD97":2553006.27,"ADDRESS":"信義街１０６巷１４號","OBJECTID":294317},"geometry":{"x":177320.49000000115,"y":2553006.2699999977}},{"attributes":{"ID":294326,"DIS_CODE":0,"TOWNNAME":"新市區","LI":"新和里","LIN":"46鄰","STREET":"和平街","SECT":" ","MAREA":" ","LANE":"２０８巷","ALLEY":" ","HOUSE_NO":"８號","E_COORD97":177373.37,"N_COORD97":2553283.25,"ADDRESS":"和平街２０８巷８號","OBJECTID":294318},"geometry":{"x":177373.37000000197,"y":2553283.2500000019}},{"attributes":{"ID":294327,"DIS_CODE":0,"TOWNNAME":"新市區","LI":"新市里","LIN":"5鄰","STREET":"華興街","SECT":" ","MAREA":" ","LANE":"７２巷","ALLEY":" ","HOUSE_NO":"４號","E_COORD97":177601.42999999999,"N_COORD97":2553007.75,"ADDRESS":"華興街７２巷４號","OBJECTID":294319},"geometry":{"x":177601.43000000156,"y":2553007.7500000019}},{"attributes":{"ID":294328,"DIS_CODE":0,"TOWNNAME":"新市區","LI":"港墘里","LIN":"17鄰","STREET":"南港街","SECT":" ","MAREA":" ","LANE":" ","ALLEY":" ","HOUSE_NO":"３號","E_COORD97":178262.73999999999,"N_COORD97":2552760.75,"ADDRESS":"南港街３號","OBJECTID":294320},"geometry":{"x":178262.74000000209,"y":2552760.7500000019}},{"attributes":{"ID":294329,"DIS_CODE":0,"TOWNNAME":"新市區","LI":"永就里","LIN":"18鄰","STREET":"永華三街","SECT":" ","MAREA":" ","LANE":" ","ALLEY":" ","HOUSE_NO":"２號","E_COORD97":177605.34,"N_COORD97":2550972.5,"ADDRESS":"永華三街２號","OBJECTID":294321},"geometry":{"x":177605.33999999985,"y":2550972.5000000019}},{"attributes":{"ID":294330,"DIS_CODE":0,"TOWNNAME":"新市區","LI":"新市里","LIN":"4鄰","STREET":"華興街","SECT":" ","MAREA":" ","LANE":" ","ALLEY":" ","HOUSE_NO":"４８號","E_COORD97":177711.17999999999,"N_COORD97":2553003.25,"ADDRESS":"華興街４８號","OBJECTID":294322},"geometry":{"x":177711.1799999997,"y":2553003.25}},{"attributes":{"ID":294331,"DIS_CODE":0,"TOWNNAME":"永康區","LI":"新樹里","LIN":"5鄰","STREET":"富強路","SECT":"二段","MAREA":" ","LANE":" ","ALLEY":" ","HOUSE_NO":"１８號之１","E_COORD97":175717.32000000001,"N_COORD97":2546839.4100000001,"ADDRESS":"富強路二段１８號之１","OBJECTID":294323},"geometry":{"x":175717.3200000003,"y":2546839.410000002}},{"attributes":{"ID":294332,"DIS_CODE":0,"TOWNNAME":"永康區","LI":"蔦松里","LIN":"5鄰","STREET":"蔦松一街","SECT":" ","MAREA":" ","LANE":" ","ALLEY":" ","HOUSE_NO":"６９號","E_COORD97":173831.42999999999,"N_COORD97":2549472.9900000002,"ADDRESS":"蔦松一街６９號","OBJECTID":294324},"geometry":{"x":173831.43000000156,"y":2549472.9900000039}},{"attributes":{"ID":294333,"DIS_CODE":0,"TOWNNAME":"永康區","LI":"網寮里","LIN":"20鄰","STREET":"文化路","SECT":" ","MAREA":" ","LANE":" ","ALLEY":" ","HOUSE_NO":"３０７號","E_COORD97":173460.22,"N_COORD97":2546123.7599999998,"ADDRESS":"文化路３０７號","OBJECTID":294325},"geometry":{"x":173460.22000000067,"y":2546123.7599999998}},{"attributes":{"ID":294334,"DIS_CODE":0,"TOWNNAME":"永康區","LI":"龍潭里","LIN":"32鄰","STREET":"龍中街","SECT":" ","MAREA":" ","LANE":" ","ALLEY":" ","HOUSE_NO":"５４號之１","E_COORD97":174453.82000000001,"N_COORD97":2547974.3500000001,"ADDRESS":"龍中街５４號之１","OBJECTID":294326},"geometry":{"x":174453.82000000123,"y":2547974.3499999996}},{"attributes":{"ID":294335,"DIS_CODE":0,"TOWNNAME":"永康區","LI":"龍潭里","LIN":"32鄰","STREET":"龍中街","SECT":" ","MAREA":" ","LANE":" ","ALLEY":" ","HOUSE_NO":"６４號之１","E_COORD97":174450.79999999999,"N_COORD97":2548004.8500000001,"ADDRESS":"龍中街６４號之１","OBJECTID":294327},"geometry":{"x":174450.79999999981,"y":2548004.8499999996}},{"attributes":{"ID":294336,"DIS_CODE":0,"TOWNNAME":"永康區","LI":"網寮里","LIN":"13鄰","STREET":"永勝街","SECT":" ","MAREA":" ","LANE":" ","ALLEY":" ","HOUSE_NO":"１８３號","E_COORD97":173330.06,"N_COORD97":2546556.5099999998,"ADDRESS":"永勝街１８３號","OBJECTID":294328},"geometry":{"x":173330.05999999959,"y":2546556.5100000035}},{"attributes":{"ID":294337,"DIS_CODE":0,"TOWNNAME":"永康區","LI":"網寮里","LIN":"24鄰","STREET":"永華路","SECT":" ","MAREA":" ","LANE":" ","ALLEY":" ","HOUSE_NO":"４２５號","E_COORD97":173871.85000000001,"N_COORD97":2546485.2999999998,"ADDRESS":"永華路４２５號","OBJECTID":294329},"geometry":{"x":173871.84999999963,"y":2546485.3000000026}},{"attributes":{"ID":294338,"DIS_CODE":0,"TOWNNAME":"永康區","LI":"網寮里","LIN":"4鄰","STREET":"永二街","SECT":" ","MAREA":" ","LANE":" ","ALLEY":" ","HOUSE_NO":"１３８號","E_COORD97":173447.47,"N_COORD97":2546413.1600000001,"ADDRESS":"永二街１３８號","OBJECTID":294330},"geometry":{"x":173447.46999999974,"y":2546413.1600000001}},{"attributes":{"ID":294339,"DIS_CODE":0,"TOWNNAME":"永康區","LI":"龍潭里","LIN":"32鄰","STREET":"龍中街","SECT":" ","MAREA":" ","LANE":" ","ALLEY":" ","HOUSE_NO":"６６號之２","E_COORD97":174450.54000000001,"N_COORD97":2548008.8399999999,"ADDRESS":"龍中街６６號之２","OBJECTID":294331},"geometry":{"x":174450.54000000004,"y":2548008.8400000036}},{"attributes":{"ID":294340,"DIS_CODE":0,"TOWNNAME":"永康區","LI":"龍潭里","LIN":"24鄰","STREET":"中山北路","SECT":" ","MAREA":" ","LANE":" ","ALLEY":" ","HOUSE_NO":"２８０號","E_COORD97":174762.31,"N_COORD97":2547653.4500000002,"ADDRESS":"中山北路２８０號","OBJECTID":294332},"geometry":{"x":174762.30999999959,"y":2547653.4499999993}},{"attributes":{"ID":294341,"DIS_CODE":0,"TOWNNAME":"仁德區","LI":"土庫里","LIN":"4鄰","STREET":"中正路","SECT":"三段","MAREA":" ","LANE":" ","ALLEY":" ","HOUSE_NO":"４１１號","E_COORD97":173896.66,"N_COORD97":2542712.0299999998,"ADDRESS":"中正路三段４１１號","OBJECTID":294333},"geometry":{"x":173896.66000000108,"y":2542712.0300000012}},{"attributes":{"ID":294342,"DIS_CODE":0,"TOWNNAME":"仁德區","LI":"大甲里","LIN":"20鄰","STREET":"行大街","SECT":" ","MAREA":" ","LANE":" ","ALLEY":" ","HOUSE_NO":"４２８號","E_COORD97":169419.16,"N_COORD97":2535301.7400000002,"ADDRESS":"行大街４２８號","OBJECTID":294334},"geometry":{"x":169419.16000000015,"y":2535301.7400000002}},{"attributes":{"ID":294343,"DIS_CODE":0,"TOWNNAME":"仁德區","LI":"土庫里","LIN":"4鄰","STREET":"土庫三街","SECT":" ","MAREA":" ","LANE":" ","ALLEY":" ","HOUSE_NO":"３８號","E_COORD97":174171.54000000001,"N_COORD97":2543066.2400000002,"ADDRESS":"土庫三街３８號","OBJECTID":294335},"geometry":{"x":174171.53999999911,"y":2543066.2400000002}},{"attributes":{"ID":294344,"DIS_CODE":0,"TOWNNAME":"新市區","LI":"永就里","LIN":"4鄰","STREET":" ","SECT":" ","MAREA":"永就","LANE":" ","ALLEY":" ","HOUSE_NO":"４２之１７號","E_COORD97":178421.53,"N_COORD97":2551536.5499999998,"ADDRESS":"永就４２之１７號","OBJECTID":294336},"geometry":{"x":178421.53000000026,"y":2551536.5500000007}},{"attributes":{"ID":294345,"DIS_CODE":0,"TOWNNAME":"新市區","LI":"永就里","LIN":"4鄰","STREET":" ","SECT":" ","MAREA":"永就","LANE":" ","ALLEY":" ","HOUSE_NO":"４２之７號","E_COORD97":178447.03,"N_COORD97":2551531.5499999998,"ADDRESS":"永就４２之７號","OBJECTID":294337},"geometry":{"x":178447.03000000026,"y":2551531.5500000026}},{"attributes":{"ID":294346,"DIS_CODE":0,"TOWNNAME":"新市區","LI":"新市里","LIN":"25鄰","STREET":"復興路","SECT":" ","MAREA":" ","LANE":"６巷","ALLEY":" ","HOUSE_NO":"３４號","E_COORD97":177912.81,"N_COORD97":2553352.5299999998,"ADDRESS":"復興路６巷３４號","OBJECTID":294338},"geometry":{"x":177912.81000000052,"y":2553352.5299999993}},{"attributes":{"ID":294347,"DIS_CODE":0,"TOWNNAME":"新市區","LI":"新和里","LIN":"46鄰","STREET":"和平街","SECT":" ","MAREA":" ","LANE":"２０８巷","ALLEY":" ","HOUSE_NO":"６號","E_COORD97":177361.67000000001,"N_COORD97":2553270,"ADDRESS":"和平街２０８巷６號","OBJECTID":294339},"geometry":{"x":177361.67000000086,"y":2553270.0000000037}},{"attributes":{"ID":294348,"DIS_CODE":0,"TOWNNAME":"新市區","LI":"豐華里","LIN":"5鄰","STREET":" ","SECT":" ","MAREA":"豐華","LANE":" ","ALLEY":" ","HOUSE_NO":"４２之２號","E_COORD97":173837.26999999999,"N_COORD97":2554421.5499999998,"ADDRESS":"豐華４２之２號","OBJECTID":294340},"geometry":{"x":173837.27000000142,"y":2554421.5500000007}},{"attributes":{"ID":294349,"DIS_CODE":0,"TOWNNAME":"新市區","LI":"豐華里","LIN":"5鄰","STREET":" ","SECT":" ","MAREA":"豐華","LANE":" ","ALLEY":" ","HOUSE_NO":"４２之７號","E_COORD97":173853.67000000001,"N_COORD97":2554380.0499999998,"ADDRESS":"豐華４２之７號","OBJECTID":294341},"geometry":{"x":173853.67000000179,"y":2554380.0500000026}},{"attributes":{"ID":294350,"DIS_CODE":0,"TOWNNAME":"新市區","LI":"豐華里","LIN":"5鄰","STREET":" ","SECT":" ","MAREA":"豐華","LANE":" ","ALLEY":" ","HOUSE_NO":"４３之１０號","E_COORD97":173888.26000000001,"N_COORD97":2554351.2999999998,"ADDRESS":"豐華４３之１０號","OBJECTID":294342},"geometry":{"x":173888.25999999978,"y":2554351.3000000026}},{"attributes":{"ID":294351,"DIS_CODE":0,"TOWNNAME":"新市區","LI":"永就里","LIN":"4鄰","STREET":" ","SECT":" ","MAREA":"永就","LANE":" ","ALLEY":" ","HOUSE_NO":"３９之１５號","E_COORD97":178503,"N_COORD97":2551514.5499999998,"ADDRESS":"永就３９之１５號","OBJECTID":294343},"geometry":{"x":178502.99999999907,"y":2551514.5500000026}},{"attributes":{"ID":294352,"DIS_CODE":0,"TOWNNAME":"新市區","LI":"新和里","LIN":"43鄰","STREET":"民權路","SECT":" ","MAREA":" ","LANE":"３１巷","ALLEY":" ","HOUSE_NO":"１１號","E_COORD97":177387.17999999999,"N_COORD97":2553014.29,"ADDRESS":"民權路３１巷１１號","OBJECTID":294344},"geometry":{"x":177387.1799999997,"y":2553014.290000001}},{"attributes":{"ID":294353,"DIS_CODE":0,"TOWNNAME":"新市區","LI":"永就里","LIN":"4鄰","STREET":" ","SECT":" ","MAREA":"永就","LANE":" ","ALLEY":" ","HOUSE_NO":"４２之９號","E_COORD97":178441.51000000001,"N_COORD97":2551532.7999999998,"ADDRESS":"永就４２之９號","OBJECTID":294345},"geometry":{"x":178441.50999999978,"y":2551532.8000000045}},{"attributes":{"ID":294354,"DIS_CODE":0,"TOWNNAME":"新市區","LI":"港墘里","LIN":"20鄰","STREET":"光華街","SECT":" ","MAREA":" ","LANE":"１５２巷","ALLEY":" ","HOUSE_NO":"１４號","E_COORD97":177968.45000000001,"N_COORD97":2552817.25,"ADDRESS":"光華街１５２巷１４號","OBJECTID":294346},"geometry":{"x":177968.45000000112,"y":2552817.2500000037}},{"attributes":{"ID":294355,"DIS_CODE":0,"TOWNNAME":"新市區","LI":"新市里","LIN":"26鄰","STREET":"復興路","SECT":" ","MAREA":" ","LANE":"６巷","ALLEY":" ","HOUSE_NO":"２９號","E_COORD97":177911.37,"N_COORD97":2553366.0299999998,"ADDRESS":"復興路６巷２９號","OBJECTID":294347},"geometry":{"x":177911.37000000104,"y":2553366.0299999993}},{"attributes":{"ID":294356,"DIS_CODE":0,"TOWNNAME":"新市區","LI":"新市里","LIN":"25鄰","STREET":"復興路","SECT":" ","MAREA":" ","LANE":"６巷","ALLEY":" ","HOUSE_NO":"３８號","E_COORD97":177920.48999999999,"N_COORD97":2553355.2799999998,"ADDRESS":"復興路６巷３８號","OBJECTID":294348},"geometry":{"x":177920.49000000115,"y":2553355.2800000031}},{"attributes":{"ID":294357,"DIS_CODE":0,"TOWNNAME":"新市區","LI":"永就里","LIN":"4鄰","STREET":" ","SECT":" ","MAREA":"永就","LANE":" ","ALLEY":" ","HOUSE_NO":"４２之２號","E_COORD97":178450.95000000001,"N_COORD97":2551519.7999999998,"ADDRESS":"永就４２之２號","OBJECTID":294349},"geometry":{"x":178450.95000000019,"y":2551519.8000000026}},{"attributes":{"ID":294358,"DIS_CODE":0,"TOWNNAME":"新市區","LI":"大營里","LIN":"20鄰","STREET":" ","SECT":" ","MAREA":"豐榮","LANE":" ","ALLEY":" ","HOUSE_NO":"５９號","E_COORD97":178755.04000000001,"N_COORD97":2554151.25,"ADDRESS":"豐榮５９號","OBJECTID":294350},"geometry":{"x":178755.04000000004,"y":2554151.2500000019}},{"attributes":{"ID":294359,"DIS_CODE":0,"TOWNNAME":"新市區","LI":"潭頂里","LIN":" ","STREET":" ","SECT":" ","MAREA":"潭頂","LANE":" ","ALLEY":" ","HOUSE_NO":"１７２號","E_COORD97":180905.39000000001,"N_COORD97":2552857.75,"ADDRESS":"潭頂１７２號","OBJECTID":294351},"geometry":{"x":180905.38999999966,"y":2552857.7500000037}},{"attributes":{"ID":294360,"DIS_CODE":0,"TOWNNAME":"新市區","LI":"豐華里","LIN":"5鄰","STREET":" ","SECT":" ","MAREA":"豐華","LANE":" ","ALLEY":" ","HOUSE_NO":"３７之２２號","E_COORD97":173513.76000000001,"N_COORD97":2554335.2999999998,"ADDRESS":"豐華３７之２２號","OBJECTID":294352},"geometry":{"x":173513.75999999885,"y":2554335.3000000007}},{"attributes":{"ID":294361,"DIS_CODE":0,"TOWNNAME":"北區","LI":"仁愛里","LIN":"17鄰","STREET":"東豐路","SECT":" ","MAREA":" ","LANE":"２７３巷","ALLEY":" ","HOUSE_NO":"１７號六樓","E_COORD97":170336.19,"N_COORD97":2544903.54,"ADDRESS":"東豐路２７３巷１７號六樓","OBJECTID":294353},"geometry":{"x":170336.19000000041,"y":2544903.5399999991}},{"attributes":{"ID":294362,"DIS_CODE":0,"TOWNNAME":"新市區","LI":"永就里","LIN":"4鄰","STREET":" ","SECT":" ","MAREA":"永就","LANE":" ","ALLEY":" ","HOUSE_NO":"４２之１４號","E_COORD97":178417.75,"N_COORD97":2551526.0499999998,"ADDRESS":"永就４２之１４號","OBJECTID":294354},"geometry":{"x":178417.75,"y":2551526.0500000007}},{"attributes":{"ID":294363,"DIS_CODE":0,"TOWNNAME":"北區","LI":"仁愛里","LIN":"17鄰","STREET":"東豐路","SECT":" ","MAREA":" ","LANE":"２７３巷","ALLEY":" ","HOUSE_NO":"１７號四樓","E_COORD97":170336.19,"N_COORD97":2544903.54,"ADDRESS":"東豐路２７３巷１７號四樓","OBJECTID":294355},"geometry":{"x":170336.19000000041,"y":2544903.5399999991}},{"attributes":{"ID":294364,"DIS_CODE":0,"TOWNNAME":"北區","LI":"光武里","LIN":"17鄰","STREET":"北門路","SECT":"二段","MAREA":" ","LANE":"５７７巷","ALLEY":" ","HOUSE_NO":"８號八樓之２","E_COORD97":169621.23999999999,"N_COORD97":2545782.3399999999,"ADDRESS":"北門路二段５７７巷８號八樓之２","OBJECTID":294356},"geometry":{"x":169621.24000000115,"y":2545782.3400000017}},{"attributes":{"ID":294365,"DIS_CODE":0,"TOWNNAME":"北區","LI":"成德里","LIN":"14鄰","STREET":"海安路","SECT":"三段","MAREA":" ","LANE":" ","ALLEY":" ","HOUSE_NO":"５０６號","E_COORD97":168095.5,"N_COORD97":2545701.7599999998,"ADDRESS":"海安路三段５０６號","OBJECTID":294357},"geometry":{"x":168095.5,"y":2545701.7600000016}},{"attributes":{"ID":294366,"DIS_CODE":0,"TOWNNAME":"新化區","LI":"知義里","LIN":"14鄰","STREET":"中正路","SECT":" ","MAREA":" ","LANE":" ","ALLEY":" ","HOUSE_NO":"２９號","E_COORD97":179125.16,"N_COORD97":2547118.25,"ADDRESS":"中正路２９號","OBJECTID":294358},"geometry":{"x":179125.16000000015,"y":2547118.2500000019}},{"attributes":{"ID":294367,"DIS_CODE":0,"TOWNNAME":"新化區","LI":"知義里","LIN":"14鄰","STREET":"復興路","SECT":" ","MAREA":" ","LANE":" ","ALLEY":" ","HOUSE_NO":"１３５號","E_COORD97":179467.62,"N_COORD97":2547787.25,"ADDRESS":"復興路１３５號","OBJECTID":294359},"geometry":{"x":179467.62000000104,"y":2547787.2500000019}},{"attributes":{"ID":294368,"DIS_CODE":0,"TOWNNAME":"關廟區","LI":"松腳里","LIN":"14鄰","STREET":"四維街","SECT":" ","MAREA":" ","LANE":" ","ALLEY":" ","HOUSE_NO":"１０６號","E_COORD97":181894.66,"N_COORD97":2539653.25,"ADDRESS":"四維街１０６號","OBJECTID":294360},"geometry":{"x":181894.66000000108,"y":2539653.2500000019}},{"attributes":{"ID":294369,"DIS_CODE":0,"TOWNNAME":"北區","LI":"大和里","LIN":"14鄰","STREET":"文賢路","SECT":" ","MAREA":" ","LANE":" ","ALLEY":" ","HOUSE_NO":"８１７號","E_COORD97":167308.69,"N_COORD97":2546336.0800000001,"ADDRESS":"文賢路８１７號","OBJECTID":294361},"geometry":{"x":167308.69000000041,"y":2546336.0800000038}},{"attributes":{"ID":294370,"DIS_CODE":0,"TOWNNAME":"北區","LI":"大和里","LIN":"14鄰","STREET":"文賢路","SECT":" ","MAREA":" ","LANE":" ","ALLEY":" ","HOUSE_NO":"８２１號","E_COORD97":167306.57999999999,"N_COORD97":2546345.2000000002,"ADDRESS":"文賢路８２１號","OBJECTID":294362},"geometry":{"x":167306.58000000101,"y":2546345.2000000011}},{"attributes":{"ID":294371,"DIS_CODE":0,"TOWNNAME":"關廟區","LI":"南花里","LIN":"14鄰","STREET":"明德街","SECT":" ","MAREA":" ","LANE":" ","ALLEY":" ","HOUSE_NO":"６０號","E_COORD97":181697.23999999999,"N_COORD97":2540041.27,"ADDRESS":"明德街６０號","OBJECTID":294363},"geometry":{"x":181697.24000000209,"y":2540041.2699999996}},{"attributes":{"ID":294372,"DIS_CODE":0,"TOWNNAME":"新市區","LI":"豐華里","LIN":"5鄰","STREET":" ","SECT":" ","MAREA":"豐華","LANE":" ","ALLEY":" ","HOUSE_NO":"３８之５號","E_COORD97":173516.76999999999,"N_COORD97":2554525.7999999998,"ADDRESS":"豐華３８之５號","OBJECTID":294364},"geometry":{"x":173516.76999999955,"y":2554525.8000000007}},{"attributes":{"ID":294373,"DIS_CODE":0,"TOWNNAME":"新市區","LI":"永就里","LIN":"4鄰","STREET":" ","SECT":" ","MAREA":"永就","LANE":" ","ALLEY":" ","HOUSE_NO":"４２之６號","E_COORD97":178438.5,"N_COORD97":2551522.2999999998,"ADDRESS":"永就４２之６號","OBJECTID":294365},"geometry":{"x":178438.5,"y":2551522.2999999989}},{"attributes":{"ID":294374,"DIS_CODE":0,"TOWNNAME":"新市區","LI":"永就里","LIN":"4鄰","STREET":" ","SECT":" ","MAREA":"永就","LANE":" ","ALLEY":" ","HOUSE_NO":"４７之２號","E_COORD97":178467.12,"N_COORD97":2551583.7999999998,"ADDRESS":"永就４７之２號","OBJECTID":294366},"geometry":{"x":178467.12000000104,"y":2551583.8000000045}},{"attributes":{"ID":294375,"DIS_CODE":0,"TOWNNAME":"新市區","LI":"三舍里","LIN":"4鄰","STREET":" ","SECT":" ","MAREA":"三舍","LANE":" ","ALLEY":" ","HOUSE_NO":"１０３之６號","E_COORD97":178099.37,"N_COORD97":2554658.7999999998,"ADDRESS":"三舍１０３之６號","OBJECTID":294367},"geometry":{"x":178099.37000000104,"y":2554658.8000000045}},{"attributes":{"ID":294376,"DIS_CODE":0,"TOWNNAME":"新市區","LI":"新市里","LIN":"5鄰","STREET":"華興街","SECT":" ","MAREA":" ","LANE":"７２巷","ALLEY":" ","HOUSE_NO":"１０號","E_COORD97":177600.42999999999,"N_COORD97":2553020.25,"ADDRESS":"華興街７２巷１０號","OBJECTID":294368},"geometry":{"x":177600.43000000063,"y":2553020.25}},{"attributes":{"ID":294377,"DIS_CODE":0,"TOWNNAME":"新市區","LI":"大社里","LIN":"4鄰","STREET":" ","SECT":" ","MAREA":"大社","LANE":" ","ALLEY":" ","HOUSE_NO":"２０５號","E_COORD97":180077.26000000001,"N_COORD97":2554408.5,"ADDRESS":"大社２０５號","OBJECTID":294369},"geometry":{"x":180077.25999999978,"y":2554408.5}},{"attributes":{"ID":294378,"DIS_CODE":0,"TOWNNAME":"新市區","LI":"新和里","LIN":"38鄰","STREET":"成功街","SECT":" ","MAREA":" ","LANE":"７７巷","ALLEY":" ","HOUSE_NO":"２號","E_COORD97":177474.37,"N_COORD97":2552829.02,"ADDRESS":"成功街７７巷２號","OBJECTID":294370},"geometry":{"x":177474.37000000011,"y":2552829.0200000014}},{"attributes":{"ID":294379,"DIS_CODE":0,"TOWNNAME":"新市區","LI":"大社里","LIN":"26鄰","STREET":" ","SECT":" ","MAREA":"大社","LANE":" ","ALLEY":" ","HOUSE_NO":"６６１之４號","E_COORD97":179959.01999999999,"N_COORD97":2554344.7999999998,"ADDRESS":"大社６６１之４號","OBJECTID":294371},"geometry":{"x":179959.02000000048,"y":2554344.8000000026}},{"attributes":{"ID":294380,"DIS_CODE":0,"TOWNNAME":"新市區","LI":"大社里","LIN":"32鄰","STREET":" ","SECT":" ","MAREA":"大社","LANE":" ","ALLEY":" ","HOUSE_NO":"２８４號之５","E_COORD97":180658.79999999999,"N_COORD97":2554605.7999999998,"ADDRESS":"大社２８４號之５","OBJECTID":294372},"geometry":{"x":180658.80000000168,"y":2554605.8000000026}},{"attributes":{"ID":294381,"DIS_CODE":0,"TOWNNAME":"新市區","LI":"大社里","LIN":"32鄰","STREET":" ","SECT":" ","MAREA":"大社","LANE":" ","ALLEY":" ","HOUSE_NO":"２８５之１００號","E_COORD97":181111.12,"N_COORD97":2554675.7999999998,"ADDRESS":"大社２８５之１００號","OBJECTID":294373},"geometry":{"x":181111.12000000011,"y":2554675.8000000045}},{"attributes":{"ID":294382,"DIS_CODE":0,"TOWNNAME":"新市區","LI":"新和里","LIN":"38鄰","STREET":"成功街","SECT":" ","MAREA":" ","LANE":"７７巷","ALLEY":" ","HOUSE_NO":"４號","E_COORD97":177470.01999999999,"N_COORD97":2552829.77,"ADDRESS":"成功街７７巷４號","OBJECTID":294374},"geometry":{"x":177470.01999999862,"y":2552829.7699999996}},{"attributes":{"ID":294383,"DIS_CODE":0,"TOWNNAME":"新市區","LI":"港墘里","LIN":"17鄰","STREET":"南港街","SECT":" ","MAREA":" ","LANE":"３９巷","ALLEY":" ","HOUSE_NO":"１號","E_COORD97":178190.45999999999,"N_COORD97":2552731,"ADDRESS":"南港街３９巷１號","OBJECTID":294375},"geometry":{"x":178190.46000000089,"y":2552731.0000000037}},{"attributes":{"ID":294384,"DIS_CODE":0,"TOWNNAME":"北區","LI":"光武里","LIN":"17鄰","STREET":"北門路","SECT":"二段","MAREA":" ","LANE":"５７７巷","ALLEY":" ","HOUSE_NO":"８號九樓之２","E_COORD97":169621.23999999999,"N_COORD97":2545782.3399999999,"ADDRESS":"北門路二段５７７巷８號九樓之２","OBJECTID":294376},"geometry":{"x":169621.24000000115,"y":2545782.3400000017}},{"attributes":{"ID":294385,"DIS_CODE":0,"TOWNNAME":"關廟區","LI":"南花里","LIN":"14鄰","STREET":"和平路","SECT":" ","MAREA":" ","LANE":" ","ALLEY":" ","HOUSE_NO":"３４０號","E_COORD97":181651.34,"N_COORD97":2540117.25,"ADDRESS":"和平路３４０號","OBJECTID":294377},"geometry":{"x":181651.33999999985,"y":2540117.2500000019}},{"attributes":{"ID":294386,"DIS_CODE":0,"TOWNNAME":"關廟區","LI":"香洋里","LIN":"14鄰","STREET":"仁愛路","SECT":" ","MAREA":" ","LANE":" ","ALLEY":" ","HOUSE_NO":"６６號","E_COORD97":181315.84,"N_COORD97":2540187.2799999998,"ADDRESS":"仁愛路６６號","OBJECTID":294378},"geometry":{"x":181315.83999999985,"y":2540187.2800000031}},{"attributes":{"ID":294387,"DIS_CODE":0,"TOWNNAME":"關廟區","LI":"香洋里","LIN":"14鄰","STREET":"仁愛路","SECT":" ","MAREA":" ","LANE":" ","ALLEY":" ","HOUSE_NO":"３０號","E_COORD97":181296.64000000001,"N_COORD97":2540129.2799999998,"ADDRESS":"仁愛路３０號","OBJECTID":294379},"geometry":{"x":181296.63999999966,"y":2540129.2799999975}},{"attributes":{"ID":294388,"DIS_CODE":0,"TOWNNAME":"關廟區","LI":"東勢里","LIN":"14鄰","STREET":"東榮街","SECT":" ","MAREA":" ","LANE":" ","ALLEY":" ","HOUSE_NO":"１９６號","E_COORD97":182250.98000000001,"N_COORD97":2539311.4700000002,"ADDRESS":"東榮街１９６號","OBJECTID":294380},"geometry":{"x":182250.98000000045,"y":2539311.4700000007}},{"attributes":{"ID":294389,"DIS_CODE":0,"TOWNNAME":"新營區","LI":"大宏里","LIN":"19鄰","STREET":"三民路","SECT":" ","MAREA":" ","LANE":" ","ALLEY":" ","HOUSE_NO":"３６號之４６","E_COORD97":180440.00727999999,"N_COORD97":2578533.5081799999,"ADDRESS":"三民路３６號之４６","OBJECTID":294381},"geometry":{"x":180440.00728000049,"y":2578533.5081800018}},{"attributes":{"ID":294390,"DIS_CODE":0,"TOWNNAME":"新市區","LI":"港墘里","LIN":"4鄰","STREET":"三民街","SECT":" ","MAREA":" ","LANE":"７０巷","ALLEY":" ","HOUSE_NO":"９之１號","E_COORD97":178503.20000000001,"N_COORD97":2553498.0499999998,"ADDRESS":"三民街７０巷９之１號","OBJECTID":294382},"geometry":{"x":178503.20000000019,"y":2553498.0500000026}},{"attributes":{"ID":294391,"DIS_CODE":0,"TOWNNAME":"新市區","LI":"社內里","LIN":"13鄰","STREET":" ","SECT":" ","MAREA":"社內","LANE":" ","ALLEY":" ","HOUSE_NO":"１３５之５號","E_COORD97":176327.28,"N_COORD97":2552743.0499999998,"ADDRESS":"社內１３５之５號","OBJECTID":294383},"geometry":{"x":176327.28000000119,"y":2552743.0500000026}},{"attributes":{"ID":294392,"DIS_CODE":0,"TOWNNAME":"新市區","LI":"港墘里","LIN":"26鄰","STREET":"華美街","SECT":" ","MAREA":" ","LANE":"３０巷","ALLEY":" ","HOUSE_NO":"２號","E_COORD97":178165.28,"N_COORD97":2552909.2999999998,"ADDRESS":"華美街３０巷２號","OBJECTID":294384},"geometry":{"x":178165.28000000026,"y":2552909.3000000045}},{"attributes":{"ID":294393,"DIS_CODE":0,"TOWNNAME":"北區","LI":"光武里","LIN":"17鄰","STREET":"北門路","SECT":"二段","MAREA":" ","LANE":"５７７巷","ALLEY":" ","HOUSE_NO":"８號十樓之２","E_COORD97":169621.23999999999,"N_COORD97":2545782.3399999999,"ADDRESS":"北門路二段５７７巷８號十樓之２","OBJECTID":294385},"geometry":{"x":169621.24000000115,"y":2545782.3400000017}},{"attributes":{"ID":294394,"DIS_CODE":0,"TOWNNAME":"新市區","LI":"社內里","LIN":"14鄰","STREET":" ","SECT":" ","MAREA":"社內","LANE":" ","ALLEY":" ","HOUSE_NO":"１５１號","E_COORD97":176276.67000000001,"N_COORD97":2553006.25,"ADDRESS":"社內１５１號","OBJECTID":294386},"geometry":{"x":176276.67000000086,"y":2553006.25}},{"attributes":{"ID":294395,"DIS_CODE":0,"TOWNNAME":"新市區","LI":"社內里","LIN":"4鄰","STREET":" ","SECT":" ","MAREA":"社內","LANE":" ","ALLEY":" ","HOUSE_NO":"４３之５號","E_COORD97":176566.17000000001,"N_COORD97":2552381.5499999998,"ADDRESS":"社內４３之５號","OBJECTID":294387},"geometry":{"x":176566.17000000086,"y":2552381.5500000007}},{"attributes":{"ID":294396,"DIS_CODE":0,"TOWNNAME":"新市區","LI":"社內里","LIN":"4鄰","STREET":" ","SECT":" ","MAREA":"社內","LANE":" ","ALLEY":" ","HOUSE_NO":"５０之１０８號","E_COORD97":176363.37,"N_COORD97":2551751.0499999998,"ADDRESS":"社內５０之１０８號","OBJECTID":294388},"geometry":{"x":176363.37000000104,"y":2551751.0500000007}},{"attributes":{"ID":294397,"DIS_CODE":0,"TOWNNAME":"新市區","LI":"大營里","LIN":"20鄰","STREET":" ","SECT":" ","MAREA":"豐榮","LANE":" ","ALLEY":" ","HOUSE_NO":"５９之３號","E_COORD97":178764.07000000001,"N_COORD97":2554141.0499999998,"ADDRESS":"豐榮５９之３號","OBJECTID":294389},"geometry":{"x":178764.07000000216,"y":2554141.0500000007}},{"attributes":{"ID":294398,"DIS_CODE":0,"TOWNNAME":"北區","LI":"光武里","LIN":"17鄰","STREET":"北門路","SECT":"二段","MAREA":" ","LANE":"５７７巷","ALLEY":" ","HOUSE_NO":"８號三樓之３","E_COORD97":169621.23999999999,"N_COORD97":2545782.3399999999,"ADDRESS":"北門路二段５７７巷８號三樓之３","OBJECTID":294390},"geometry":{"x":169621.24000000115,"y":2545782.3400000017}},{"attributes":{"ID":294399,"DIS_CODE":0,"TOWNNAME":"關廟區","LI":"新光里","LIN":"14鄰","STREET":"新光街","SECT":" ","MAREA":" ","LANE":" ","ALLEY":" ","HOUSE_NO":"１６５號","E_COORD97":184145.92000000001,"N_COORD97":2541567.1899999999,"ADDRESS":"新光街１６５號","OBJECTID":294391},"geometry":{"x":184145.92000000086,"y":2541567.1899999995}},{"attributes":{"ID":294400,"DIS_CODE":0,"TOWNNAME":"北區","LI":"公園里","LIN":"14鄰","STREET":"西華街","SECT":" ","MAREA":" ","LANE":" ","ALLEY":" ","HOUSE_NO":"１０１號","E_COORD97":169052.85000000001,"N_COORD97":2544540.0299999998,"ADDRESS":"西華街１０１號","OBJECTID":294392},"geometry":{"x":169052.84999999963,"y":2544540.0300000012}},{"attributes":{"ID":294401,"DIS_CODE":0,"TOWNNAME":"北區","LI":"光武里","LIN":"17鄰","STREET":"北門路","SECT":"二段","MAREA":" ","LANE":"５７７巷","ALLEY":" ","HOUSE_NO":"８號四樓之３","E_COORD97":169621.23999999999,"N_COORD97":2545782.3399999999,"ADDRESS":"北門路二段５７７巷８號四樓之３","OBJECTID":294393},"geometry":{"x":169621.24000000115,"y":2545782.3400000017}},{"attributes":{"ID":294402,"DIS_CODE":0,"TOWNNAME":"新市區","LI":"大社里","LIN":"32鄰","STREET":" ","SECT":" ","MAREA":"大社","LANE":" ","ALLEY":" ","HOUSE_NO":"２８４之２８號","E_COORD97":180626.70999999999,"N_COORD97":2554682.2999999998,"ADDRESS":"大社２８４之２８號","OBJECTID":294394},"geometry":{"x":180626.70999999996,"y":2554682.3000000045}},{"attributes":{"ID":294403,"DIS_CODE":0,"TOWNNAME":"新市區","LI":"永就里","LIN":"4鄰","STREET":" ","SECT":" ","MAREA":"永就","LANE":" ","ALLEY":" ","HOUSE_NO":"４８號","E_COORD97":178439.57000000001,"N_COORD97":2551575.25,"ADDRESS":"永就４８號","OBJECTID":294395},"geometry":{"x":178439.5700000003,"y":2551575.25}},{"attributes":{"ID":294404,"DIS_CODE":0,"TOWNNAME":"北區","LI":"光武里","LIN":"17鄰","STREET":"北門路","SECT":"二段","MAREA":" ","LANE":"５７７巷","ALLEY":" ","HOUSE_NO":"８號五樓之３","E_COORD97":169621.23999999999,"N_COORD97":2545782.3399999999,"ADDRESS":"北門路二段５７７巷８號五樓之３","OBJECTID":294396},"geometry":{"x":169621.24000000115,"y":2545782.3400000017}},{"attributes":{"ID":294405,"DIS_CODE":0,"TOWNNAME":"新市區","LI":"社內里","LIN":"4鄰","STREET":" ","SECT":" ","MAREA":"社內","LANE":" ","ALLEY":" ","HOUSE_NO":"４５之８號","E_COORD97":176603.67000000001,"N_COORD97":2552340.7999999998,"ADDRESS":"社內４５之８號","OBJECTID":294397},"geometry":{"x":176603.67000000086,"y":2552340.8000000026}},{"attributes":{"ID":294406,"DIS_CODE":0,"TOWNNAME":"北區","LI":"光武里","LIN":"17鄰","STREET":"北門路","SECT":"二段","MAREA":" ","LANE":"５７７巷","ALLEY":" ","HOUSE_NO":"８號六樓之３","E_COORD97":169621.23999999999,"N_COORD97":2545782.3399999999,"ADDRESS":"北門路二段５７７巷８號六樓之３","OBJECTID":294398},"geometry":{"x":169621.24000000115,"y":2545782.3400000017}},{"attributes":{"ID":294407,"DIS_CODE":0,"TOWNNAME":"北區","LI":"光武里","LIN":"17鄰","STREET":"北門路","SECT":"二段","MAREA":" ","LANE":"５７７巷","ALLEY":" ","HOUSE_NO":"８號七樓之３","E_COORD97":169621.23999999999,"N_COORD97":2545782.3399999999,"ADDRESS":"北門路二段５７７巷８號七樓之３","OBJECTID":294399},"geometry":{"x":169621.24000000115,"y":2545782.3400000017}},{"attributes":{"ID":294408,"DIS_CODE":0,"TOWNNAME":"北區","LI":"光武里","LIN":"17鄰","STREET":"北門路","SECT":"二段","MAREA":" ","LANE":"５７７巷","ALLEY":" ","HOUSE_NO":"８號八樓之３","E_COORD97":169621.23999999999,"N_COORD97":2545782.3399999999,"ADDRESS":"北門路二段５７７巷８號八樓之３","OBJECTID":294400},"geometry":{"x":169621.24000000115,"y":2545782.3400000017}}]}