{"displayFieldName":"TOWNNAME","fieldAliases":{"ID":"ID","DIS_CODE":"DIS_CODE","TOWNNAME":"TOWNNAME","LI":"LI","LIN":"LIN","STREET":"STREET","SECT":"SECT","MAREA":"MAREA","LANE":"LANE","ALLEY":"ALLEY","HOUSE_NO":"HOUSE_NO","E_COORD97":"E_COORD97","N_COORD97":"N_COORD97","ADDRESS":"ADDRESS","OBJECTID":"OBJECTID"},"geometryType":"esriGeometryPoint","spatialReference":{"wkid":102443,"latestWkid":3826},"fields":[{"name":"ID","type":"esriFieldTypeDouble","alias":"ID"},{"name":"DIS_CODE","type":"esriFieldTypeInteger","alias":"DIS_CODE"},{"name":"TOWNNAME","type":"esriFieldTypeString","alias":"TOWNNAME","length":8},{"name":"LI","type":"esriFieldTypeString","alias":"LI","length":8},{"name":"LIN","type":"esriFieldTypeString","alias":"LIN","length":12},{"name":"STREET","type":"esriFieldTypeString","alias":"STREET","length":20},{"name":"SECT","type":"esriFieldTypeString","alias":"SECT","length":8},{"name":"MAREA","type":"esriFieldTypeString","alias":"MAREA","length":12},{"name":"LANE","type":"esriFieldTypeString","alias":"LANE","length":10},{"name":"ALLEY","type":"esriFieldTypeString","alias":"ALLEY","length":10},{"name":"HOUSE_NO","type":"esriFieldTypeString","alias":"HOUSE_NO","length":20},{"name":"E_COORD97","type":"esriFieldTypeDouble","alias":"E_COORD97"},{"name":"N_COORD97","type":"esriFieldTypeDouble","alias":"N_COORD97"},{"name":"ADDRESS","type":"esriFieldTypeString","alias":"ADDRESS","length":50},{"name":"OBJECTID","type":"esriFieldTypeOID","alias":"OBJECTID"}],"features":[{"attributes":{"ID":342610,"DIS_CODE":0,"TOWNNAME":"玉井區","LI":"玉田里","LIN":"5鄰","STREET":"中正路","SECT":" ","MAREA":" ","LANE":"１９０巷","ALLEY":" ","HOUSE_NO":"３號","E_COORD97":195026.95999999999,"N_COORD97":2558187.2400000002,"ADDRESS":"中正路１９０巷３號","OBJECTID":342601},"geometry":{"x":195026.96000000089,"y":2558187.2400000002}},{"attributes":{"ID":342611,"DIS_CODE":0,"TOWNNAME":"玉井區","LI":"玉井里","LIN":"5鄰","STREET":"憲政街","SECT":" ","MAREA":" ","LANE":"９２巷","ALLEY":" ","HOUSE_NO":"１０之５號","E_COORD97":194436.87,"N_COORD97":2558131.2999999998,"ADDRESS":"憲政街９２巷１０之５號","OBJECTID":342602},"geometry":{"x":194436.87000000011,"y":2558131.3000000026}},{"attributes":{"ID":342612,"DIS_CODE":0,"TOWNNAME":"玉井區","LI":"竹圍里","LIN":"5鄰","STREET":"大成路","SECT":" ","MAREA":" ","LANE":"３３０巷","ALLEY":" ","HOUSE_NO":"１１號","E_COORD97":195617.17999999999,"N_COORD97":2558472.4900000002,"ADDRESS":"大成路３３０巷１１號","OBJECTID":342603},"geometry":{"x":195617.1799999997,"y":2558472.4900000021}},{"attributes":{"ID":342613,"DIS_CODE":0,"TOWNNAME":"安南區","LI":"淵東里","LIN":"1鄰","STREET":"海佃路","SECT":"四段","MAREA":" ","LANE":"３巷","ALLEY":" ","HOUSE_NO":"２０號","E_COORD97":165734.51999999999,"N_COORD97":2550439.3500000001,"ADDRESS":"海佃路四段３巷２０號","OBJECTID":342604},"geometry":{"x":165734.52000000048,"y":2550439.3500000034}},{"attributes":{"ID":342614,"DIS_CODE":0,"TOWNNAME":"白河區","LI":"白河里","LIN":"1鄰","STREET":"八德街","SECT":" ","MAREA":" ","LANE":"１１巷","ALLEY":" ","HOUSE_NO":"２號","E_COORD97":190005.63,"N_COORD97":2582713.5099999998,"ADDRESS":"八德街１１巷２號","OBJECTID":342605},"geometry":{"x":190005.63000000175,"y":2582713.5099999998}},{"attributes":{"ID":342615,"DIS_CODE":0,"TOWNNAME":"白河區","LI":"白河里","LIN":"1鄰","STREET":"八德街","SECT":" ","MAREA":" ","LANE":"１１巷","ALLEY":" ","HOUSE_NO":"３號","E_COORD97":189997.04000000001,"N_COORD97":2582704.4399999999,"ADDRESS":"八德街１１巷３號","OBJECTID":342606},"geometry":{"x":189997.04000000097,"y":2582704.4399999995}},{"attributes":{"ID":342616,"DIS_CODE":0,"TOWNNAME":"白河區","LI":"白河里","LIN":"1鄰","STREET":"八德街","SECT":" ","MAREA":" ","LANE":"１１巷","ALLEY":" ","HOUSE_NO":"５號","E_COORD97":189989.97,"N_COORD97":2582702.5699999998,"ADDRESS":"八德街１１巷５號","OBJECTID":342607},"geometry":{"x":189989.97000000067,"y":2582702.5700000022}},{"attributes":{"ID":342617,"DIS_CODE":0,"TOWNNAME":"白河區","LI":"白河里","LIN":"1鄰","STREET":"八德街","SECT":" ","MAREA":" ","LANE":"１１巷","ALLEY":" ","HOUSE_NO":"６號","E_COORD97":190001.75,"N_COORD97":2582715.1800000002,"ADDRESS":"八德街１１巷６號","OBJECTID":342608},"geometry":{"x":190001.75000000093,"y":2582715.1800000016}},{"attributes":{"ID":342618,"DIS_CODE":0,"TOWNNAME":"新化區","LI":"北勢里","LIN":"8鄰","STREET":"永新路","SECT":" ","MAREA":" ","LANE":" ","ALLEY":" ","HOUSE_NO":"３５號四樓之３","E_COORD97":177802.39999999999,"N_COORD97":2550963.2999999998,"ADDRESS":"永新路３５號四樓之３","OBJECTID":342609},"geometry":{"x":177802.40000000224,"y":2550963.3000000045}},{"attributes":{"ID":342619,"DIS_CODE":0,"TOWNNAME":"新化區","LI":"北勢里","LIN":"8鄰","STREET":"永新路","SECT":" ","MAREA":" ","LANE":" ","ALLEY":" ","HOUSE_NO":"３７號二樓之１","E_COORD97":177802.29999999999,"N_COORD97":2550963.2999999998,"ADDRESS":"永新路３７號二樓之１","OBJECTID":342610},"geometry":{"x":177802.29999999981,"y":2550963.3000000045}},{"attributes":{"ID":342620,"DIS_CODE":0,"TOWNNAME":"新化區","LI":"北勢里","LIN":"8鄰","STREET":"永新路","SECT":" ","MAREA":" ","LANE":" ","ALLEY":" ","HOUSE_NO":"３５號三樓之２","E_COORD97":177802.42999999999,"N_COORD97":2550963.2999999998,"ADDRESS":"永新路３５號三樓之２","OBJECTID":342611},"geometry":{"x":177802.4299999997,"y":2550963.3000000045}},{"attributes":{"ID":342621,"DIS_CODE":0,"TOWNNAME":"新化區","LI":"北勢里","LIN":"8鄰","STREET":"永新路","SECT":" ","MAREA":" ","LANE":" ","ALLEY":" ","HOUSE_NO":"３７號三樓之２","E_COORD97":177802.42999999999,"N_COORD97":2550963.2999999998,"ADDRESS":"永新路３７號三樓之２","OBJECTID":342612},"geometry":{"x":177802.4299999997,"y":2550963.3000000045}},{"attributes":{"ID":342622,"DIS_CODE":0,"TOWNNAME":"新化區","LI":"北勢里","LIN":"8鄰","STREET":"永新路","SECT":" ","MAREA":" ","LANE":" ","ALLEY":" ","HOUSE_NO":"１３號二樓之１","E_COORD97":177802.29999999999,"N_COORD97":2550963.2999999998,"ADDRESS":"永新路１３號二樓之１","OBJECTID":342613},"geometry":{"x":177802.29999999981,"y":2550963.3000000045}},{"attributes":{"ID":342623,"DIS_CODE":0,"TOWNNAME":"新化區","LI":"北勢里","LIN":"8鄰","STREET":"永新路","SECT":" ","MAREA":" ","LANE":" ","ALLEY":" ","HOUSE_NO":"４７號三樓之３","E_COORD97":177802.39999999999,"N_COORD97":2550963.2999999998,"ADDRESS":"永新路４７號三樓之３","OBJECTID":342614},"geometry":{"x":177802.40000000224,"y":2550963.3000000045}},{"attributes":{"ID":342624,"DIS_CODE":0,"TOWNNAME":"新化區","LI":"北勢里","LIN":"8鄰","STREET":"永新路","SECT":" ","MAREA":" ","LANE":" ","ALLEY":" ","HOUSE_NO":"３７號三樓之１","E_COORD97":177802.29999999999,"N_COORD97":2550963.2999999998,"ADDRESS":"永新路３７號三樓之１","OBJECTID":342615},"geometry":{"x":177802.29999999981,"y":2550963.3000000045}},{"attributes":{"ID":342625,"DIS_CODE":0,"TOWNNAME":"新化區","LI":"北勢里","LIN":"8鄰","STREET":"永新路","SECT":" ","MAREA":" ","LANE":" ","ALLEY":" ","HOUSE_NO":"３７號六樓之２","E_COORD97":177802.42999999999,"N_COORD97":2550963.2999999998,"ADDRESS":"永新路３７號六樓之２","OBJECTID":342616},"geometry":{"x":177802.4299999997,"y":2550963.3000000045}},{"attributes":{"ID":342626,"DIS_CODE":0,"TOWNNAME":"新化區","LI":"北勢里","LIN":"8鄰","STREET":"永新路","SECT":" ","MAREA":" ","LANE":" ","ALLEY":" ","HOUSE_NO":"４７號六樓之３","E_COORD97":177802.39999999999,"N_COORD97":2550963.2999999998,"ADDRESS":"永新路４７號六樓之３","OBJECTID":342617},"geometry":{"x":177802.40000000224,"y":2550963.3000000045}},{"attributes":{"ID":342627,"DIS_CODE":0,"TOWNNAME":"新化區","LI":"北勢里","LIN":"8鄰","STREET":"永新路","SECT":" ","MAREA":" ","LANE":" ","ALLEY":" ","HOUSE_NO":"４７號七樓之２","E_COORD97":177802.42999999999,"N_COORD97":2550963.2999999998,"ADDRESS":"永新路４７號七樓之２","OBJECTID":342618},"geometry":{"x":177802.4299999997,"y":2550963.3000000045}},{"attributes":{"ID":342628,"DIS_CODE":0,"TOWNNAME":"南區","LI":"文南里","LIN":"5鄰","STREET":"金華路","SECT":"二段","MAREA":" ","LANE":"２８９巷","ALLEY":" ","HOUSE_NO":"２７號","E_COORD97":167021.95999999999,"N_COORD97":2542778.5899999999,"ADDRESS":"金華路二段２８９巷２７號","OBJECTID":342619},"geometry":{"x":167021.96000000089,"y":2542778.5899999999}},{"attributes":{"ID":342629,"DIS_CODE":0,"TOWNNAME":"南區","LI":"文南里","LIN":"5鄰","STREET":"金華路","SECT":"二段","MAREA":" ","LANE":"２８９巷","ALLEY":" ","HOUSE_NO":"２９號","E_COORD97":167015.39999999999,"N_COORD97":2542779.4300000002,"ADDRESS":"金華路二段２８９巷２９號","OBJECTID":342620},"geometry":{"x":167015.40000000037,"y":2542779.4299999997}},{"attributes":{"ID":342630,"DIS_CODE":0,"TOWNNAME":"南區","LI":"文南里","LIN":"5鄰","STREET":"長南街","SECT":" ","MAREA":" ","LANE":"３６巷","ALLEY":" ","HOUSE_NO":"１４號","E_COORD97":166990.01000000001,"N_COORD97":2542676.1200000001,"ADDRESS":"長南街３６巷１４號","OBJECTID":342621},"geometry":{"x":166990.00999999978,"y":2542676.1200000029}},{"attributes":{"ID":342631,"DIS_CODE":0,"TOWNNAME":"南區","LI":"文南里","LIN":"5鄰","STREET":"長南街","SECT":" ","MAREA":" ","LANE":"３６巷","ALLEY":" ","HOUSE_NO":"１６號","E_COORD97":166990.42000000001,"N_COORD97":2542680.2999999998,"ADDRESS":"長南街３６巷１６號","OBJECTID":342622},"geometry":{"x":166990.42000000086,"y":2542680.3000000045}},{"attributes":{"ID":342632,"DIS_CODE":0,"TOWNNAME":"南區","LI":"文南里","LIN":"5鄰","STREET":"長南街","SECT":" ","MAREA":" ","LANE":"３６巷","ALLEY":" ","HOUSE_NO":"１８號","E_COORD97":166990.98000000001,"N_COORD97":2542684.6400000001,"ADDRESS":"長南街３６巷１８號","OBJECTID":342623},"geometry":{"x":166990.98000000045,"y":2542684.6400000043}},{"attributes":{"ID":342633,"DIS_CODE":0,"TOWNNAME":"麻豆區","LI":"中民里","LIN":"5鄰","STREET":" ","SECT":" ","MAREA":"謝厝寮","LANE":" ","ALLEY":" ","HOUSE_NO":"１２５號","E_COORD97":171639.25,"N_COORD97":2560861.6800000002,"ADDRESS":"謝厝寮１２５號","OBJECTID":342624},"geometry":{"x":171639.25000000186,"y":2560861.6799999997}},{"attributes":{"ID":342634,"DIS_CODE":0,"TOWNNAME":"東山區","LI":"南溪里","LIN":"5鄰","STREET":" ","SECT":" ","MAREA":"二重溪","LANE":" ","ALLEY":" ","HOUSE_NO":"４３號之２","E_COORD97":188313.88,"N_COORD97":2574835.1299999999,"ADDRESS":"二重溪４３號之２","OBJECTID":342625},"geometry":{"x":188313.88000000175,"y":2574835.1300000008}},{"attributes":{"ID":342635,"DIS_CODE":0,"TOWNNAME":"東山區","LI":"南溪里","LIN":"5鄰","STREET":" ","SECT":" ","MAREA":"二重溪","LANE":" ","ALLEY":" ","HOUSE_NO":"４３號","E_COORD97":188291.16,"N_COORD97":2574835.0499999998,"ADDRESS":"二重溪４３號","OBJECTID":342626},"geometry":{"x":188291.16000000015,"y":2574835.0500000007}},{"attributes":{"ID":342636,"DIS_CODE":0,"TOWNNAME":"東山區","LI":"南溪里","LIN":"5鄰","STREET":" ","SECT":" ","MAREA":"二重溪","LANE":" ","ALLEY":" ","HOUSE_NO":"４５號之２","E_COORD97":188272.13,"N_COORD97":2574873.4199999999,"ADDRESS":"二重溪４５號之２","OBJECTID":342627},"geometry":{"x":188272.13000000082,"y":2574873.4199999999}},{"attributes":{"ID":342637,"DIS_CODE":0,"TOWNNAME":"東山區","LI":"南溪里","LIN":"5鄰","STREET":" ","SECT":" ","MAREA":"二重溪","LANE":" ","ALLEY":" ","HOUSE_NO":"４５號之３","E_COORD97":188301.51000000001,"N_COORD97":2574918.52,"ADDRESS":"二重溪４５號之３","OBJECTID":342628},"geometry":{"x":188301.51000000071,"y":2574918.5199999996}},{"attributes":{"ID":342638,"DIS_CODE":0,"TOWNNAME":"白河區","LI":"白河里","LIN":"1鄰","STREET":"八德街","SECT":" ","MAREA":" ","LANE":"１１巷","ALLEY":" ","HOUSE_NO":"７號","E_COORD97":189984.42000000001,"N_COORD97":2582705.4300000002,"ADDRESS":"八德街１１巷７號","OBJECTID":342629},"geometry":{"x":189984.41999999993,"y":2582705.4300000034}},{"attributes":{"ID":342639,"DIS_CODE":0,"TOWNNAME":"白河區","LI":"白河里","LIN":"1鄰","STREET":"八德街","SECT":" ","MAREA":" ","LANE":"１１巷","ALLEY":" ","HOUSE_NO":"８號","E_COORD97":189998.42999999999,"N_COORD97":2582717.0699999998,"ADDRESS":"八德街１１巷８號","OBJECTID":342630},"geometry":{"x":189998.43000000156,"y":2582717.0700000003}},{"attributes":{"ID":342640,"DIS_CODE":0,"TOWNNAME":"新化區","LI":"太平里","LIN":"4鄰","STREET":"中正路","SECT":" ","MAREA":" ","LANE":"５８０巷","ALLEY":" ","HOUSE_NO":"２號之１１３","E_COORD97":178987.45999999999,"N_COORD97":2549026.2599999998,"ADDRESS":"中正路５８０巷２號之１１３","OBJECTID":342631},"geometry":{"x":178987.45999999996,"y":2549026.2599999979}},{"attributes":{"ID":342641,"DIS_CODE":0,"TOWNNAME":"新化區","LI":"北勢里","LIN":"8鄰","STREET":"永新路","SECT":" ","MAREA":" ","LANE":" ","ALLEY":" ","HOUSE_NO":"３５號七樓之３","E_COORD97":177802.39999999999,"N_COORD97":2550963.2999999998,"ADDRESS":"永新路３５號七樓之３","OBJECTID":342632},"geometry":{"x":177802.40000000224,"y":2550963.3000000045}},{"attributes":{"ID":342642,"DIS_CODE":0,"TOWNNAME":"新化區","LI":"北勢里","LIN":"8鄰","STREET":"永新路","SECT":" ","MAREA":" ","LANE":" ","ALLEY":" ","HOUSE_NO":"３５號三樓之１","E_COORD97":177802.29999999999,"N_COORD97":2550963.2999999998,"ADDRESS":"永新路３５號三樓之１","OBJECTID":342633},"geometry":{"x":177802.29999999981,"y":2550963.3000000045}},{"attributes":{"ID":342643,"DIS_CODE":0,"TOWNNAME":"東山區","LI":"南溪里","LIN":"5鄰","STREET":" ","SECT":" ","MAREA":"二重溪","LANE":" ","ALLEY":" ","HOUSE_NO":"４５號之６","E_COORD97":188281.41,"N_COORD97":2574849.8199999998,"ADDRESS":"二重溪４５號之６","OBJECTID":342634},"geometry":{"x":188281.41000000015,"y":2574849.8200000003}},{"attributes":{"ID":342644,"DIS_CODE":0,"TOWNNAME":"東山區","LI":"南溪里","LIN":"5鄰","STREET":" ","SECT":" ","MAREA":"二重溪","LANE":" ","ALLEY":" ","HOUSE_NO":"４５號之７","E_COORD97":188313.57999999999,"N_COORD97":2574856.71,"ADDRESS":"二重溪４５號之７","OBJECTID":342635},"geometry":{"x":188313.58000000007,"y":2574856.7100000028}},{"attributes":{"ID":342645,"DIS_CODE":0,"TOWNNAME":"東山區","LI":"南溪里","LIN":"5鄰","STREET":" ","SECT":" ","MAREA":"二重溪","LANE":" ","ALLEY":" ","HOUSE_NO":"４５號","E_COORD97":188299.92999999999,"N_COORD97":2574866.1299999999,"ADDRESS":"二重溪４５號","OBJECTID":342636},"geometry":{"x":188299.93000000063,"y":2574866.1300000008}},{"attributes":{"ID":342646,"DIS_CODE":0,"TOWNNAME":"新化區","LI":"北勢里","LIN":"8鄰","STREET":"永新路","SECT":" ","MAREA":" ","LANE":" ","ALLEY":" ","HOUSE_NO":"３５號四樓之１","E_COORD97":177802.29999999999,"N_COORD97":2550963.2999999998,"ADDRESS":"永新路３５號四樓之１","OBJECTID":342637},"geometry":{"x":177802.29999999981,"y":2550963.3000000045}},{"attributes":{"ID":342647,"DIS_CODE":0,"TOWNNAME":"新化區","LI":"北勢里","LIN":"8鄰","STREET":"永新路","SECT":" ","MAREA":" ","LANE":" ","ALLEY":" ","HOUSE_NO":"２３號三樓之１","E_COORD97":177802.29999999999,"N_COORD97":2550963.2999999998,"ADDRESS":"永新路２３號三樓之１","OBJECTID":342638},"geometry":{"x":177802.29999999981,"y":2550963.3000000045}},{"attributes":{"ID":342648,"DIS_CODE":0,"TOWNNAME":"新化區","LI":"北勢里","LIN":"8鄰","STREET":"永新路","SECT":" ","MAREA":" ","LANE":" ","ALLEY":" ","HOUSE_NO":"１３號三樓之３","E_COORD97":177802.39999999999,"N_COORD97":2550963.2999999998,"ADDRESS":"永新路１３號三樓之３","OBJECTID":342639},"geometry":{"x":177802.40000000224,"y":2550963.3000000045}},{"attributes":{"ID":342649,"DIS_CODE":0,"TOWNNAME":"南區","LI":"文南里","LIN":"5鄰","STREET":"長南街","SECT":" ","MAREA":" ","LANE":" ","ALLEY":" ","HOUSE_NO":"２２號","E_COORD97":167014.32999999999,"N_COORD97":2542626.3599999999,"ADDRESS":"長南街２２號","OBJECTID":342640},"geometry":{"x":167014.33000000194,"y":2542626.3599999994}},{"attributes":{"ID":342650,"DIS_CODE":0,"TOWNNAME":"新化區","LI":"豐榮里","LIN":"10鄰","STREET":"信義路","SECT":" ","MAREA":" ","LANE":"４８４巷","ALLEY":" ","HOUSE_NO":"７號","E_COORD97":178427.23000000001,"N_COORD97":2548301.25,"ADDRESS":"信義路４８４巷７號","OBJECTID":342641},"geometry":{"x":178427.23000000045,"y":2548301.2500000037}},{"attributes":{"ID":342651,"DIS_CODE":0,"TOWNNAME":"永康區","LI":"\u25A0行里","LIN":"1鄰","STREET":"中正路","SECT":" ","MAREA":" ","LANE":"９７０巷","ALLEY":" ","HOUSE_NO":"４２號","E_COORD97":172061.98000000001,"N_COORD97":2549000.8100000001,"ADDRESS":"中正路９７０巷４２號","OBJECTID":342642},"geometry":{"x":172061.98000000231,"y":2549000.8100000024}},{"attributes":{"ID":342652,"DIS_CODE":0,"TOWNNAME":"新化區","LI":"觀音里","LIN":"5鄰","STREET":"仁愛街","SECT":" ","MAREA":" ","LANE":"６５巷","ALLEY":" ","HOUSE_NO":"２２號","E_COORD97":178960.42999999999,"N_COORD97":2548528.25,"ADDRESS":"仁愛街６５巷２２號","OBJECTID":342643},"geometry":{"x":178960.4299999997,"y":2548528.2500000037}},{"attributes":{"ID":342653,"DIS_CODE":0,"TOWNNAME":"新化區","LI":"協興里","LIN":"1鄰","STREET":"忠孝路","SECT":" ","MAREA":" ","LANE":"１６６巷","ALLEY":" ","HOUSE_NO":"２０號","E_COORD97":178502.37,"N_COORD97":2548684.25,"ADDRESS":"忠孝路１６６巷２０號","OBJECTID":342644},"geometry":{"x":178502.37000000197,"y":2548684.2500000037}},{"attributes":{"ID":342654,"DIS_CODE":0,"TOWNNAME":"新化區","LI":"清水里","LIN":"7鄰","STREET":"忠孝路","SECT":" ","MAREA":" ","LANE":"１６１巷","ALLEY":" ","HOUSE_NO":"１號","E_COORD97":178619.42000000001,"N_COORD97":2548603.25,"ADDRESS":"忠孝路１６１巷１號","OBJECTID":342645},"geometry":{"x":178619.42000000086,"y":2548603.2500000019}},{"attributes":{"ID":342655,"DIS_CODE":0,"TOWNNAME":"永康區","LI":"\u25A0行里","LIN":"1鄰","STREET":"中正路","SECT":" ","MAREA":" ","LANE":"９７０巷","ALLEY":" ","HOUSE_NO":"２８號","E_COORD97":172032.26000000001,"N_COORD97":2549017.75,"ADDRESS":"中正路９７０巷２８號","OBJECTID":342646},"geometry":{"x":172032.26000000164,"y":2549017.7500000019}},{"attributes":{"ID":342656,"DIS_CODE":0,"TOWNNAME":"永康區","LI":"\u25A0行里","LIN":"1鄰","STREET":"中正路","SECT":" ","MAREA":" ","LANE":"９７０巷","ALLEY":" ","HOUSE_NO":"４０號","E_COORD97":172057.32999999999,"N_COORD97":2549002.5600000001,"ADDRESS":"中正路９７０巷４０號","OBJECTID":342647},"geometry":{"x":172057.33000000007,"y":2549002.5600000024}},{"attributes":{"ID":342657,"DIS_CODE":0,"TOWNNAME":"永康區","LI":"\u25A0行里","LIN":"1鄰","STREET":"中正路","SECT":" ","MAREA":" ","LANE":"９７０巷","ALLEY":" ","HOUSE_NO":"２２號","E_COORD97":172013.03,"N_COORD97":2549026.5,"ADDRESS":"中正路９７０巷２２號","OBJECTID":342648},"geometry":{"x":172013.03000000119,"y":2549026.5000000019}},{"attributes":{"ID":342658,"DIS_CODE":0,"TOWNNAME":"永康區","LI":"\u25A0洲里","LIN":"1鄰","STREET":"仁愛街","SECT":" ","MAREA":" ","LANE":"５巷","ALLEY":" ","HOUSE_NO":"１６號","E_COORD97":171905.54999999999,"N_COORD97":2549242.7799999998,"ADDRESS":"仁愛街５巷１６號","OBJECTID":342649},"geometry":{"x":171905.55000000075,"y":2549242.7800000031}},{"attributes":{"ID":342659,"DIS_CODE":0,"TOWNNAME":"永康區","LI":"\u25A0洲里","LIN":"1鄰","STREET":"仁愛街","SECT":" ","MAREA":" ","LANE":"５巷","ALLEY":" ","HOUSE_NO":"１３號","E_COORD97":171897.26999999999,"N_COORD97":2549245.98,"ADDRESS":"仁愛街５巷１３號","OBJECTID":342650},"geometry":{"x":171897.26999999955,"y":2549245.9800000042}},{"attributes":{"ID":342660,"DIS_CODE":0,"TOWNNAME":"永康區","LI":"\u25A0行里","LIN":"1鄰","STREET":"中正路","SECT":" ","MAREA":" ","LANE":"９７０巷","ALLEY":" ","HOUSE_NO":"２０號","E_COORD97":172002.82000000001,"N_COORD97":2549021,"ADDRESS":"中正路９７０巷２０號","OBJECTID":342651},"geometry":{"x":172002.8200000003,"y":2549021}},{"attributes":{"ID":342661,"DIS_CODE":0,"TOWNNAME":"永康區","LI":"\u25A0洲里","LIN":"1鄰","STREET":"仁愛街","SECT":" ","MAREA":" ","LANE":"５巷","ALLEY":" ","HOUSE_NO":"１１號","E_COORD97":171889.53,"N_COORD97":2549248.73,"ADDRESS":"仁愛街５巷１１號","OBJECTID":342652},"geometry":{"x":171889.53000000026,"y":2549248.7300000023}},{"attributes":{"ID":342662,"DIS_CODE":0,"TOWNNAME":"永康區","LI":"中華里","LIN":"1鄰","STREET":"小東路","SECT":" ","MAREA":" ","LANE":"６８５巷","ALLEY":" ","HOUSE_NO":"６號之３５","E_COORD97":172052.35000000001,"N_COORD97":2544383.3599999999,"ADDRESS":"小東路６８５巷６號之３５","OBJECTID":342653},"geometry":{"x":172052.35000000056,"y":2544383.3599999994}},{"attributes":{"ID":342663,"DIS_CODE":0,"TOWNNAME":"永康區","LI":"中華里","LIN":"1鄰","STREET":"小東路","SECT":" ","MAREA":" ","LANE":"６８５巷","ALLEY":" ","HOUSE_NO":"６號之３０","E_COORD97":172052.23999999999,"N_COORD97":2544383.3599999999,"ADDRESS":"小東路６８５巷６號之３０","OBJECTID":342654},"geometry":{"x":172052.24000000115,"y":2544383.3599999994}},{"attributes":{"ID":342664,"DIS_CODE":0,"TOWNNAME":"永康區","LI":"中華里","LIN":"1鄰","STREET":"小東路","SECT":" ","MAREA":" ","LANE":"６８５巷","ALLEY":" ","HOUSE_NO":"６號之３２","E_COORD97":172052.32999999999,"N_COORD97":2544383.3599999999,"ADDRESS":"小東路６８５巷６號之３２","OBJECTID":342655},"geometry":{"x":172052.32999999914,"y":2544383.3599999994}},{"attributes":{"ID":342665,"DIS_CODE":0,"TOWNNAME":"永康區","LI":"\u25A0洲里","LIN":"1鄰","STREET":"仁愛街","SECT":" ","MAREA":" ","LANE":"５巷","ALLEY":" ","HOUSE_NO":"５號","E_COORD97":171900.01999999999,"N_COORD97":2549228.1000000001,"ADDRESS":"仁愛街５巷５號","OBJECTID":342656},"geometry":{"x":171900.02000000048,"y":2549228.1000000015}},{"attributes":{"ID":342666,"DIS_CODE":0,"TOWNNAME":"永康區","LI":"\u25A0洲里","LIN":"1鄰","STREET":"仁愛街","SECT":" ","MAREA":" ","LANE":"５巷","ALLEY":" ","HOUSE_NO":"２０號","E_COORD97":171918.89000000001,"N_COORD97":2549234.5299999998,"ADDRESS":"仁愛街５巷２０號","OBJECTID":342657},"geometry":{"x":171918.88999999966,"y":2549234.5300000031}},{"attributes":{"ID":342667,"DIS_CODE":0,"TOWNNAME":"永康區","LI":"\u25A0洲里","LIN":"1鄰","STREET":"仁愛街","SECT":" ","MAREA":" ","LANE":"５巷","ALLEY":" ","HOUSE_NO":"１號","E_COORD97":171914.13,"N_COORD97":2549220.3500000001,"ADDRESS":"仁愛街５巷１號","OBJECTID":342658},"geometry":{"x":171914.12999999989,"y":2549220.3500000015}},{"attributes":{"ID":342668,"DIS_CODE":0,"TOWNNAME":"永康區","LI":"王行里","LIN":"1鄰","STREET":"王行路","SECT":" ","MAREA":" ","LANE":"２４６巷","ALLEY":" ","HOUSE_NO":"２６號","E_COORD97":175693.29999999999,"N_COORD97":2548256.73,"ADDRESS":"王行路２４６巷２６號","OBJECTID":342659},"geometry":{"x":175693.29999999981,"y":2548256.7300000004}},{"attributes":{"ID":342669,"DIS_CODE":0,"TOWNNAME":"永康區","LI":"中華里","LIN":"1鄰","STREET":"小東路","SECT":" ","MAREA":" ","LANE":"６８５巷","ALLEY":" ","HOUSE_NO":"６號之３１","E_COORD97":172052.19,"N_COORD97":2544383.3599999999,"ADDRESS":"小東路６８５巷６號之３１","OBJECTID":342660},"geometry":{"x":172052.19000000134,"y":2544383.3599999994}},{"attributes":{"ID":342670,"DIS_CODE":0,"TOWNNAME":"永康區","LI":"\u25A0洲里","LIN":"1鄰","STREET":"仁愛街","SECT":" ","MAREA":" ","LANE":"５巷","ALLEY":" ","HOUSE_NO":"１５號","E_COORD97":171902,"N_COORD97":2549245.2799999998,"ADDRESS":"仁愛街５巷１５號","OBJECTID":342661},"geometry":{"x":171902.00000000186,"y":2549245.2799999993}},{"attributes":{"ID":342671,"DIS_CODE":0,"TOWNNAME":"永康區","LI":"中華里","LIN":"1鄰","STREET":"小東路","SECT":" ","MAREA":" ","LANE":"６８５巷","ALLEY":" ","HOUSE_NO":"６號之２０","E_COORD97":172052.23999999999,"N_COORD97":2544383.3599999999,"ADDRESS":"小東路６８５巷６號之２０","OBJECTID":342662},"geometry":{"x":172052.24000000115,"y":2544383.3599999994}},{"attributes":{"ID":342672,"DIS_CODE":0,"TOWNNAME":"永康區","LI":"中華里","LIN":"1鄰","STREET":"小東路","SECT":" ","MAREA":" ","LANE":"６８５巷","ALLEY":" ","HOUSE_NO":"６號之１４","E_COORD97":172052.22,"N_COORD97":2544383.3599999999,"ADDRESS":"小東路６８５巷６號之１４","OBJECTID":342663},"geometry":{"x":172052.21999999974,"y":2544383.3599999994}},{"attributes":{"ID":342673,"DIS_CODE":0,"TOWNNAME":"永康區","LI":"中華里","LIN":"1鄰","STREET":"小東路","SECT":" ","MAREA":" ","LANE":"６８５巷","ALLEY":" ","HOUSE_NO":"６號之２５","E_COORD97":172052.35000000001,"N_COORD97":2544383.3599999999,"ADDRESS":"小東路６８５巷６號之２５","OBJECTID":342664},"geometry":{"x":172052.35000000056,"y":2544383.3599999994}},{"attributes":{"ID":342674,"DIS_CODE":0,"TOWNNAME":"永康區","LI":"中華里","LIN":"1鄰","STREET":"小東路","SECT":" ","MAREA":" ","LANE":"６８５巷","ALLEY":" ","HOUSE_NO":"６號之２３","E_COORD97":172052.29000000001,"N_COORD97":2544383.3599999999,"ADDRESS":"小東路６８５巷６號之２３","OBJECTID":342665},"geometry":{"x":172052.29000000004,"y":2544383.3599999994}},{"attributes":{"ID":342675,"DIS_CODE":0,"TOWNNAME":"北區","LI":"公園里","LIN":"5鄰","STREET":"北門路","SECT":"二段","MAREA":" ","LANE":" ","ALLEY":" ","HOUSE_NO":"６０號","E_COORD97":169392.34,"N_COORD97":2544709.9900000002,"ADDRESS":"北門路二段６０號","OBJECTID":342666},"geometry":{"x":169392.34000000171,"y":2544709.9900000021}},{"attributes":{"ID":342676,"DIS_CODE":0,"TOWNNAME":"永康區","LI":"中華里","LIN":"1鄰","STREET":"小東路","SECT":" ","MAREA":" ","LANE":"６８５巷","ALLEY":" ","HOUSE_NO":"６號之１","E_COORD97":172050.94,"N_COORD97":2544383.3599999999,"ADDRESS":"小東路６８５巷６號之１","OBJECTID":342667},"geometry":{"x":172050.94000000134,"y":2544383.3599999994}},{"attributes":{"ID":342677,"DIS_CODE":0,"TOWNNAME":"新化區","LI":"豐榮里","LIN":"13鄰","STREET":"信義路","SECT":" ","MAREA":" ","LANE":"３９９巷","ALLEY":" ","HOUSE_NO":"３號","E_COORD97":178634.32999999999,"N_COORD97":2548236.25,"ADDRESS":"信義路３９９巷３號","OBJECTID":342668},"geometry":{"x":178634.33000000007,"y":2548236.25}},{"attributes":{"ID":342678,"DIS_CODE":0,"TOWNNAME":"新化區","LI":"協興里","LIN":"1鄰","STREET":"忠孝路","SECT":" ","MAREA":" ","LANE":"１６６巷","ALLEY":" ","HOUSE_NO":"１６號","E_COORD97":178503.57000000001,"N_COORD97":2548675.25,"ADDRESS":"忠孝路１６６巷１６號","OBJECTID":342669},"geometry":{"x":178503.57000000123,"y":2548675.2500000019}},{"attributes":{"ID":342679,"DIS_CODE":0,"TOWNNAME":"善化區","LI":"東關里","LIN":"1鄰","STREET":"中正路","SECT":" ","MAREA":" ","LANE":"５３７巷","ALLEY":" ","HOUSE_NO":"２０號","E_COORD97":177613.70999999999,"N_COORD97":2559172,"ADDRESS":"中正路５３７巷２０號","OBJECTID":342670},"geometry":{"x":177613.71000000089,"y":2559172}},{"attributes":{"ID":342680,"DIS_CODE":0,"TOWNNAME":"善化區","LI":"東關里","LIN":"1鄰","STREET":"中正路","SECT":" ","MAREA":" ","LANE":"６４９巷","ALLEY":" ","HOUSE_NO":"１１號","E_COORD97":177610.60000000001,"N_COORD97":2559555.5,"ADDRESS":"中正路６４９巷１１號","OBJECTID":342671},"geometry":{"x":177610.60000000056,"y":2559555.5000000037}},{"attributes":{"ID":342681,"DIS_CODE":0,"TOWNNAME":"善化區","LI":"東關里","LIN":"1鄰","STREET":"中正路","SECT":" ","MAREA":" ","LANE":"５３７巷","ALLEY":" ","HOUSE_NO":"１９號","E_COORD97":177609.42000000001,"N_COORD97":2559170.5,"ADDRESS":"中正路５３７巷１９號","OBJECTID":342672},"geometry":{"x":177609.41999999993,"y":2559170.5000000019}},{"attributes":{"ID":342682,"DIS_CODE":0,"TOWNNAME":"善化區","LI":"東關里","LIN":"1鄰","STREET":"中正路","SECT":" ","MAREA":" ","LANE":"６４９巷","ALLEY":" ","HOUSE_NO":"６號","E_COORD97":177607.26999999999,"N_COORD97":2559515.75,"ADDRESS":"中正路６４９巷６號","OBJECTID":342673},"geometry":{"x":177607.26999999955,"y":2559515.75}},{"attributes":{"ID":342683,"DIS_CODE":0,"TOWNNAME":"善化區","LI":"東關里","LIN":"1鄰","STREET":"中正路","SECT":" ","MAREA":" ","LANE":"５３７巷","ALLEY":" ","HOUSE_NO":"２１號","E_COORD97":177619,"N_COORD97":2559171.25,"ADDRESS":"中正路５３７巷２１號","OBJECTID":342674},"geometry":{"x":177619.00000000093,"y":2559171.2500000019}},{"attributes":{"ID":342684,"DIS_CODE":0,"TOWNNAME":"善化區","LI":"東關里","LIN":"1鄰","STREET":"中正路","SECT":" ","MAREA":" ","LANE":"６４９巷","ALLEY":" ","HOUSE_NO":"１２號","E_COORD97":177609.26999999999,"N_COORD97":2559561,"ADDRESS":"中正路６４９巷１２號","OBJECTID":342675},"geometry":{"x":177609.27000000048,"y":2559561}},{"attributes":{"ID":342685,"DIS_CODE":0,"TOWNNAME":"善化區","LI":"東關里","LIN":"1鄰","STREET":"中正路","SECT":" ","MAREA":" ","LANE":"６４９巷","ALLEY":" ","HOUSE_NO":"３號","E_COORD97":177609.01000000001,"N_COORD97":2559498.75,"ADDRESS":"中正路６４９巷３號","OBJECTID":342676},"geometry":{"x":177609.00999999978,"y":2559498.75}},{"attributes":{"ID":342686,"DIS_CODE":0,"TOWNNAME":"善化區","LI":"東關里","LIN":"1鄰","STREET":"中正路","SECT":" ","MAREA":" ","LANE":"５３７巷","ALLEY":" ","HOUSE_NO":"２５號","E_COORD97":177636.87,"N_COORD97":2559185.25,"ADDRESS":"中正路５３７巷２５號","OBJECTID":342677},"geometry":{"x":177636.87000000104,"y":2559185.2500000019}},{"attributes":{"ID":342687,"DIS_CODE":0,"TOWNNAME":"善化區","LI":"東關里","LIN":"1鄰","STREET":"中正路","SECT":" ","MAREA":" ","LANE":"６４９巷","ALLEY":" ","HOUSE_NO":"８號","E_COORD97":177612.01999999999,"N_COORD97":2559534.25,"ADDRESS":"中正路６４９巷８號","OBJECTID":342678},"geometry":{"x":177612.01999999955,"y":2559534.2500000019}},{"attributes":{"ID":342688,"DIS_CODE":0,"TOWNNAME":"善化區","LI":"東關里","LIN":"1鄰","STREET":"中正路","SECT":" ","MAREA":" ","LANE":"６４９巷","ALLEY":" ","HOUSE_NO":"５號","E_COORD97":177607.67000000001,"N_COORD97":2559511.5,"ADDRESS":"中正路６４９巷５號","OBJECTID":342679},"geometry":{"x":177607.66999999993,"y":2559511.5000000037}},{"attributes":{"ID":342689,"DIS_CODE":0,"TOWNNAME":"善化區","LI":"東關里","LIN":"1鄰","STREET":"中正路","SECT":" ","MAREA":" ","LANE":"６４９巷","ALLEY":" ","HOUSE_NO":"９號","E_COORD97":177609.70000000001,"N_COORD97":2559541,"ADDRESS":"中正路６４９巷９號","OBJECTID":342680},"geometry":{"x":177609.70000000019,"y":2559541}},{"attributes":{"ID":342690,"DIS_CODE":0,"TOWNNAME":"善化區","LI":"東關里","LIN":"1鄰","STREET":"中正路","SECT":" ","MAREA":" ","LANE":"５３７巷","ALLEY":" ","HOUSE_NO":"２８號","E_COORD97":177628.32999999999,"N_COORD97":2559204.5,"ADDRESS":"中正路５３７巷２８號","OBJECTID":342681},"geometry":{"x":177628.33000000101,"y":2559204.5000000019}},{"attributes":{"ID":342691,"DIS_CODE":0,"TOWNNAME":"善化區","LI":"東關里","LIN":"1鄰","STREET":"中正路","SECT":" ","MAREA":" ","LANE":"６４９巷","ALLEY":" ","HOUSE_NO":"１號","E_COORD97":177609.59,"N_COORD97":2559489,"ADDRESS":"中正路６４９巷１號","OBJECTID":342682},"geometry":{"x":177609.59000000078,"y":2559489.0000000019}},{"attributes":{"ID":342692,"DIS_CODE":0,"TOWNNAME":"善化區","LI":"東關里","LIN":"1鄰","STREET":"中正路","SECT":" ","MAREA":" ","LANE":"６４９巷","ALLEY":" ","HOUSE_NO":"２號","E_COORD97":177609.01000000001,"N_COORD97":2559492.75,"ADDRESS":"中正路６４９巷２號","OBJECTID":342683},"geometry":{"x":177609.00999999978,"y":2559492.7500000037}},{"attributes":{"ID":342693,"DIS_CODE":0,"TOWNNAME":"善化區","LI":"東關里","LIN":"1鄰","STREET":"中正路","SECT":" ","MAREA":" ","LANE":"５３７巷","ALLEY":" ","HOUSE_NO":"３０號","E_COORD97":177617.07999999999,"N_COORD97":2559204.75,"ADDRESS":"中正路５３７巷３０號","OBJECTID":342684},"geometry":{"x":177617.08000000007,"y":2559204.7500000037}},{"attributes":{"ID":342694,"DIS_CODE":0,"TOWNNAME":"善化區","LI":"東關里","LIN":"1鄰","STREET":"中正路","SECT":" ","MAREA":" ","LANE":"５３７巷","ALLEY":" ","HOUSE_NO":"２６號","E_COORD97":177650.48000000001,"N_COORD97":2559186.5,"ADDRESS":"中正路５３７巷２６號","OBJECTID":342685},"geometry":{"x":177650.48000000045,"y":2559186.5000000019}},{"attributes":{"ID":342695,"DIS_CODE":0,"TOWNNAME":"善化區","LI":"東關里","LIN":"1鄰","STREET":"中正路","SECT":" ","MAREA":" ","LANE":"６４９巷","ALLEY":" ","HOUSE_NO":"１０號","E_COORD97":177611.35000000001,"N_COORD97":2559547,"ADDRESS":"中正路６４９巷１０號","OBJECTID":342686},"geometry":{"x":177611.34999999963,"y":2559547.0000000019}},{"attributes":{"ID":342696,"DIS_CODE":0,"TOWNNAME":"善化區","LI":"東關里","LIN":"1鄰","STREET":"中正路","SECT":" ","MAREA":" ","LANE":"５３７巷","ALLEY":" ","HOUSE_NO":"３２號","E_COORD97":177605.67000000001,"N_COORD97":2559201.25,"ADDRESS":"中正路５３７巷３２號","OBJECTID":342687},"geometry":{"x":177605.67000000086,"y":2559201.2500000037}},{"attributes":{"ID":342697,"DIS_CODE":0,"TOWNNAME":"新化區","LI":"清水里","LIN":"7鄰","STREET":"忠孝路","SECT":" ","MAREA":" ","LANE":"１６１巷","ALLEY":" ","HOUSE_NO":"３３號之１","E_COORD97":178615.29999999999,"N_COORD97":2548522.2599999998,"ADDRESS":"忠孝路１６１巷３３號之１","OBJECTID":342688},"geometry":{"x":178615.29999999981,"y":2548522.2600000016}},{"attributes":{"ID":342698,"DIS_CODE":0,"TOWNNAME":"善化區","LI":"坐駕里","LIN":"1鄰","STREET":"中山路","SECT":" ","MAREA":" ","LANE":"３１３巷","ALLEY":" ","HOUSE_NO":"３號之１","E_COORD97":177844.57000000001,"N_COORD97":2559037.52,"ADDRESS":"中山路３１３巷３號之１","OBJECTID":342689},"geometry":{"x":177844.5700000003,"y":2559037.5200000014}},{"attributes":{"ID":342699,"DIS_CODE":0,"TOWNNAME":"善化區","LI":"西關里","LIN":"1鄰","STREET":"三民路","SECT":" ","MAREA":" ","LANE":"５０巷","ALLEY":" ","HOUSE_NO":"１號之１","E_COORD97":177124,"N_COORD97":2559004.27,"ADDRESS":"三民路５０巷１號之１","OBJECTID":342690},"geometry":{"x":177124.00000000093,"y":2559004.2700000033}},{"attributes":{"ID":342700,"DIS_CODE":0,"TOWNNAME":"六甲區","LI":"二甲里","LIN":"5鄰","STREET":"民權街","SECT":" ","MAREA":" ","LANE":"２２９巷","ALLEY":" ","HOUSE_NO":"７之１號","E_COORD97":183031.76000000001,"N_COORD97":2569692.71,"ADDRESS":"民權街２２９巷７之１號","OBJECTID":342691},"geometry":{"x":183031.75999999978,"y":2569692.7100000028}},{"attributes":{"ID":342701,"DIS_CODE":0,"TOWNNAME":"六甲區","LI":"二甲里","LIN":"5鄰","STREET":"民權街","SECT":" ","MAREA":" ","LANE":"２２９巷","ALLEY":" ","HOUSE_NO":"７號","E_COORD97":183033.19,"N_COORD97":2569697.3999999999,"ADDRESS":"民權街２２９巷７號","OBJECTID":342692},"geometry":{"x":183033.19000000041,"y":2569697.4000000041}},{"attributes":{"ID":342702,"DIS_CODE":0,"TOWNNAME":"六甲區","LI":"二甲里","LIN":"5鄰","STREET":"自由街","SECT":" ","MAREA":" ","LANE":"７１巷","ALLEY":" ","HOUSE_NO":"１３號","E_COORD97":183077.67999999999,"N_COORD97":2569608.98,"ADDRESS":"自由街７１巷１３號","OBJECTID":342693},"geometry":{"x":183077.68000000063,"y":2569608.9800000023}},{"attributes":{"ID":342703,"DIS_CODE":0,"TOWNNAME":"六甲區","LI":"二甲里","LIN":"5鄰","STREET":"自由街","SECT":" ","MAREA":" ","LANE":"７１巷","ALLEY":" ","HOUSE_NO":"２１號","E_COORD97":183086.91,"N_COORD97":2569583.0699999998,"ADDRESS":"自由街７１巷２１號","OBJECTID":342694},"geometry":{"x":183086.91000000015,"y":2569583.0700000003}},{"attributes":{"ID":342704,"DIS_CODE":0,"TOWNNAME":"六甲區","LI":"二甲里","LIN":"5鄰","STREET":"自由街","SECT":" ","MAREA":" ","LANE":"７１巷","ALLEY":" ","HOUSE_NO":"２３號","E_COORD97":183076.76000000001,"N_COORD97":2569573.1299999999,"ADDRESS":"自由街７１巷２３號","OBJECTID":342695},"geometry":{"x":183076.76000000071,"y":2569573.1300000008}},{"attributes":{"ID":342705,"DIS_CODE":0,"TOWNNAME":"六甲區","LI":"二甲里","LIN":"5鄰","STREET":"自由街","SECT":" ","MAREA":" ","LANE":"７１巷","ALLEY":" ","HOUSE_NO":"５號","E_COORD97":183086.87,"N_COORD97":2569626.2400000002,"ADDRESS":"自由街７１巷５號","OBJECTID":342696},"geometry":{"x":183086.87000000104,"y":2569626.2400000002}},{"attributes":{"ID":342706,"DIS_CODE":0,"TOWNNAME":"六甲區","LI":"二甲里","LIN":"5鄰","STREET":"自由街","SECT":" ","MAREA":" ","LANE":"７１巷","ALLEY":" ","HOUSE_NO":"９號","E_COORD97":183091.06,"N_COORD97":2569614.4900000002,"ADDRESS":"自由街７１巷９號","OBJECTID":342697},"geometry":{"x":183091.05999999866,"y":2569614.4900000002}},{"attributes":{"ID":342707,"DIS_CODE":0,"TOWNNAME":"六甲區","LI":"二甲里","LIN":"5鄰","STREET":"建工街","SECT":" ","MAREA":" ","LANE":"１８１巷","ALLEY":" ","HOUSE_NO":"１０號","E_COORD97":182971.72,"N_COORD97":2569461.8799999999,"ADDRESS":"建工街１８１巷１０號","OBJECTID":342698},"geometry":{"x":182971.72000000067,"y":2569461.8800000027}},{"attributes":{"ID":342708,"DIS_CODE":0,"TOWNNAME":"善化區","LI":"小新里","LIN":"1鄰","STREET":"成功路","SECT":" ","MAREA":" ","LANE":"５３巷","ALLEY":" ","HOUSE_NO":"９３號","E_COORD97":179933.38,"N_COORD97":2558472.75,"ADDRESS":"成功路５３巷９３號","OBJECTID":342699},"geometry":{"x":179933.38000000082,"y":2558472.7500000019}},{"attributes":{"ID":342709,"DIS_CODE":0,"TOWNNAME":"永康區","LI":"新樹里","LIN":"1鄰","STREET":"富強路","SECT":"二段","MAREA":" ","LANE":"２７５巷","ALLEY":" ","HOUSE_NO":"９號","E_COORD97":175539.13,"N_COORD97":2547422.7799999998,"ADDRESS":"富強路二段２７５巷９號","OBJECTID":342700},"geometry":{"x":175539.13000000082,"y":2547422.7800000012}},{"attributes":{"ID":342710,"DIS_CODE":0,"TOWNNAME":"永康區","LI":"網寮里","LIN":"1鄰","STREET":"永二街","SECT":" ","MAREA":" ","LANE":"８９巷","ALLEY":" ","HOUSE_NO":"１號","E_COORD97":173601.10999999999,"N_COORD97":2546561.8199999998,"ADDRESS":"永二街８９巷１號","OBJECTID":342701},"geometry":{"x":173601.11000000034,"y":2546561.820000004}},{"attributes":{"ID":342711,"DIS_CODE":0,"TOWNNAME":"永康區","LI":"新樹里","LIN":"1鄰","STREET":"富強路","SECT":"二段","MAREA":" ","LANE":"２７５巷","ALLEY":" ","HOUSE_NO":"７號","E_COORD97":175591.12,"N_COORD97":2547423.04,"ADDRESS":"富強路二段２７５巷７號","OBJECTID":342702},"geometry":{"x":175591.12000000011,"y":2547423.0399999991}},{"attributes":{"ID":342712,"DIS_CODE":0,"TOWNNAME":"永康區","LI":"蔦松里","LIN":"1鄰","STREET":"蔦松二街","SECT":" ","MAREA":" ","LANE":"８７巷","ALLEY":" ","HOUSE_NO":"３３號","E_COORD97":173647.94,"N_COORD97":2549251,"ADDRESS":"蔦松二街８７巷３３號","OBJECTID":342703},"geometry":{"x":173647.94000000134,"y":2549251}},{"attributes":{"ID":342713,"DIS_CODE":0,"TOWNNAME":"新化區","LI":"協興里","LIN":"3鄰","STREET":"正新路","SECT":" ","MAREA":" ","LANE":"２５１巷","ALLEY":" ","HOUSE_NO":"２２號","E_COORD97":178515.07000000001,"N_COORD97":2548521.25,"ADDRESS":"正新路２５１巷２２號","OBJECTID":342704},"geometry":{"x":178515.07000000123,"y":2548521.25}},{"attributes":{"ID":342714,"DIS_CODE":0,"TOWNNAME":"永康區","LI":"蔦松里","LIN":"1鄰","STREET":"蔦松二街","SECT":" ","MAREA":" ","LANE":"８７巷","ALLEY":" ","HOUSE_NO":"５８號","E_COORD97":173626.59,"N_COORD97":2549253.7400000002,"ADDRESS":"蔦松二街８７巷５８號","OBJECTID":342705},"geometry":{"x":173626.58999999985,"y":2549253.7400000002}},{"attributes":{"ID":342715,"DIS_CODE":0,"TOWNNAME":"新化區","LI":"北勢里","LIN":"8鄰","STREET":"永新路","SECT":" ","MAREA":" ","LANE":" ","ALLEY":" ","HOUSE_NO":"１３號四樓之１","E_COORD97":177802.29999999999,"N_COORD97":2550963.2999999998,"ADDRESS":"永新路１３號四樓之１","OBJECTID":342706},"geometry":{"x":177802.29999999981,"y":2550963.3000000045}},{"attributes":{"ID":342716,"DIS_CODE":0,"TOWNNAME":"新化區","LI":"北勢里","LIN":"8鄰","STREET":"永新路","SECT":" ","MAREA":" ","LANE":" ","ALLEY":" ","HOUSE_NO":"２５號六樓之３","E_COORD97":177802.39999999999,"N_COORD97":2550963.2999999998,"ADDRESS":"永新路２５號六樓之３","OBJECTID":342707},"geometry":{"x":177802.40000000224,"y":2550963.3000000045}},{"attributes":{"ID":342717,"DIS_CODE":0,"TOWNNAME":"新化區","LI":"北勢里","LIN":"8鄰","STREET":"永新路","SECT":" ","MAREA":" ","LANE":" ","ALLEY":" ","HOUSE_NO":"３７號二樓之３","E_COORD97":177802.39999999999,"N_COORD97":2550963.2999999998,"ADDRESS":"永新路３７號二樓之３","OBJECTID":342708},"geometry":{"x":177802.40000000224,"y":2550963.3000000045}},{"attributes":{"ID":342718,"DIS_CODE":0,"TOWNNAME":"新化區","LI":"北勢里","LIN":"8鄰","STREET":"永新路","SECT":" ","MAREA":" ","LANE":" ","ALLEY":" ","HOUSE_NO":"２３號六樓之１","E_COORD97":177802.29999999999,"N_COORD97":2550963.2999999998,"ADDRESS":"永新路２３號六樓之１","OBJECTID":342709},"geometry":{"x":177802.29999999981,"y":2550963.3000000045}},{"attributes":{"ID":342719,"DIS_CODE":0,"TOWNNAME":"新化區","LI":"北勢里","LIN":"8鄰","STREET":"永新路","SECT":" ","MAREA":" ","LANE":" ","ALLEY":" ","HOUSE_NO":"２５號七樓之２","E_COORD97":177802.42999999999,"N_COORD97":2550963.2999999998,"ADDRESS":"永新路２５號七樓之２","OBJECTID":342710},"geometry":{"x":177802.4299999997,"y":2550963.3000000045}},{"attributes":{"ID":342720,"DIS_CODE":0,"TOWNNAME":"新化區","LI":"北勢里","LIN":"8鄰","STREET":"永新路","SECT":" ","MAREA":" ","LANE":" ","ALLEY":" ","HOUSE_NO":"２５號三樓之２","E_COORD97":177802.42999999999,"N_COORD97":2550963.2999999998,"ADDRESS":"永新路２５號三樓之２","OBJECTID":342711},"geometry":{"x":177802.4299999997,"y":2550963.3000000045}},{"attributes":{"ID":342721,"DIS_CODE":0,"TOWNNAME":"新化區","LI":"北勢里","LIN":"8鄰","STREET":"永新路","SECT":" ","MAREA":" ","LANE":" ","ALLEY":" ","HOUSE_NO":"１３號八樓之１","E_COORD97":177802.29999999999,"N_COORD97":2550963.2999999998,"ADDRESS":"永新路１３號八樓之１","OBJECTID":342712},"geometry":{"x":177802.29999999981,"y":2550963.3000000045}},{"attributes":{"ID":342722,"DIS_CODE":0,"TOWNNAME":"新化區","LI":"北勢里","LIN":"8鄰","STREET":"永新路","SECT":" ","MAREA":" ","LANE":" ","ALLEY":" ","HOUSE_NO":"２５號二樓之３","E_COORD97":177802.39999999999,"N_COORD97":2550963.2999999998,"ADDRESS":"永新路２５號二樓之３","OBJECTID":342713},"geometry":{"x":177802.40000000224,"y":2550963.3000000045}},{"attributes":{"ID":342723,"DIS_CODE":0,"TOWNNAME":"六甲區","LI":"二甲里","LIN":"5鄰","STREET":"建工街","SECT":" ","MAREA":" ","LANE":"１８１巷","ALLEY":" ","HOUSE_NO":"２號","E_COORD97":182986.56,"N_COORD97":2569458.1000000001,"ADDRESS":"建工街１８１巷２號","OBJECTID":342714},"geometry":{"x":182986.56000000052,"y":2569458.1000000015}},{"attributes":{"ID":342724,"DIS_CODE":0,"TOWNNAME":"六甲區","LI":"二甲里","LIN":"5鄰","STREET":"建工街","SECT":" ","MAREA":" ","LANE":"１８１巷","ALLEY":" ","HOUSE_NO":"６號","E_COORD97":182981.82999999999,"N_COORD97":2569459.0899999999,"ADDRESS":"建工街１８１巷６號","OBJECTID":342715},"geometry":{"x":182981.83000000101,"y":2569459.0900000017}},{"attributes":{"ID":342725,"DIS_CODE":0,"TOWNNAME":"六甲區","LI":"二甲里","LIN":"5鄰","STREET":"建工街","SECT":" ","MAREA":" ","LANE":"１８１巷","ALLEY":" ","HOUSE_NO":"８號","E_COORD97":182977.04000000001,"N_COORD97":2569460.6400000001,"ADDRESS":"建工街１８１巷８號","OBJECTID":342716},"geometry":{"x":182977.04000000097,"y":2569460.6400000006}},{"attributes":{"ID":342726,"DIS_CODE":0,"TOWNNAME":"永康區","LI":"蔦松里","LIN":"1鄰","STREET":"蔦松二街","SECT":" ","MAREA":" ","LANE":"１２４巷","ALLEY":" ","HOUSE_NO":"２４號","E_COORD97":173844.63,"N_COORD97":2549319.75,"ADDRESS":"蔦松二街１２４巷２４號","OBJECTID":342717},"geometry":{"x":173844.62999999989,"y":2549319.7500000019}},{"attributes":{"ID":342727,"DIS_CODE":0,"TOWNNAME":"永康區","LI":"蔦松里","LIN":"1鄰","STREET":"蔦松二街","SECT":" ","MAREA":" ","LANE":"８７巷","ALLEY":" ","HOUSE_NO":"１１號","E_COORD97":173668.45000000001,"N_COORD97":2549294.9900000002,"ADDRESS":"蔦松二街８７巷１１號","OBJECTID":342718},"geometry":{"x":173668.45000000019,"y":2549294.9900000002}},{"attributes":{"ID":342728,"DIS_CODE":0,"TOWNNAME":"永康區","LI":"蔦松里","LIN":"1鄰","STREET":"蔦松二街","SECT":" ","MAREA":" ","LANE":"８７巷","ALLEY":" ","HOUSE_NO":"６２號","E_COORD97":173615.95000000001,"N_COORD97":2549243.75,"ADDRESS":"蔦松二街８７巷６２號","OBJECTID":342719},"geometry":{"x":173615.95000000019,"y":2549243.7500000037}},{"attributes":{"ID":342729,"DIS_CODE":0,"TOWNNAME":"新化區","LI":"北勢里","LIN":"8鄰","STREET":"永新路","SECT":" ","MAREA":" ","LANE":" ","ALLEY":" ","HOUSE_NO":"１３號七樓之２","E_COORD97":177802.42999999999,"N_COORD97":2550963.2999999998,"ADDRESS":"永新路１３號七樓之２","OBJECTID":342720},"geometry":{"x":177802.4299999997,"y":2550963.3000000045}},{"attributes":{"ID":342730,"DIS_CODE":0,"TOWNNAME":"新化區","LI":"北勢里","LIN":"8鄰","STREET":"永新路","SECT":" ","MAREA":" ","LANE":" ","ALLEY":" ","HOUSE_NO":"１３號三樓之２","E_COORD97":177802.42999999999,"N_COORD97":2550963.2999999998,"ADDRESS":"永新路１３號三樓之２","OBJECTID":342721},"geometry":{"x":177802.4299999997,"y":2550963.3000000045}},{"attributes":{"ID":342731,"DIS_CODE":0,"TOWNNAME":"新化區","LI":"北勢里","LIN":"8鄰","STREET":"永新路","SECT":" ","MAREA":" ","LANE":" ","ALLEY":" ","HOUSE_NO":"１３號六樓之２","E_COORD97":177802.42999999999,"N_COORD97":2550963.2999999998,"ADDRESS":"永新路１３號六樓之２","OBJECTID":342722},"geometry":{"x":177802.4299999997,"y":2550963.3000000045}},{"attributes":{"ID":342732,"DIS_CODE":0,"TOWNNAME":"永康區","LI":"蔦松里","LIN":"1鄰","STREET":"蔦松二街","SECT":" ","MAREA":" ","LANE":"８７巷","ALLEY":" ","HOUSE_NO":"１號","E_COORD97":173677.26999999999,"N_COORD97":2549312.5,"ADDRESS":"蔦松二街８７巷１號","OBJECTID":342723},"geometry":{"x":173677.26999999955,"y":2549312.5}},{"attributes":{"ID":342733,"DIS_CODE":0,"TOWNNAME":"永康區","LI":"新樹里","LIN":"1鄰","STREET":"富強路","SECT":"二段","MAREA":" ","LANE":"２７８巷","ALLEY":" ","HOUSE_NO":"２１號","E_COORD97":175703.84,"N_COORD97":2547438.1099999999,"ADDRESS":"富強路二段２７８巷２１號","OBJECTID":342724},"geometry":{"x":175703.84000000078,"y":2547438.1100000013}},{"attributes":{"ID":342734,"DIS_CODE":0,"TOWNNAME":"永康區","LI":"新樹里","LIN":"1鄰","STREET":"富強路","SECT":"二段","MAREA":" ","LANE":"２９８巷","ALLEY":" ","HOUSE_NO":"１５號","E_COORD97":175688.45999999999,"N_COORD97":2547495.9300000002,"ADDRESS":"富強路二段２９８巷１５號","OBJECTID":342725},"geometry":{"x":175688.46000000089,"y":2547495.9299999978}},{"attributes":{"ID":342735,"DIS_CODE":0,"TOWNNAME":"永康區","LI":"新樹里","LIN":"1鄰","STREET":"富強路","SECT":"二段","MAREA":" ","LANE":"２９８巷","ALLEY":" ","HOUSE_NO":"４０號","E_COORD97":175728.20000000001,"N_COORD97":2547514.1800000002,"ADDRESS":"富強路二段２９８巷４０號","OBJECTID":342726},"geometry":{"x":175728.20000000019,"y":2547514.1799999997}},{"attributes":{"ID":342736,"DIS_CODE":0,"TOWNNAME":"永康區","LI":"新樹里","LIN":"1鄰","STREET":"富強路","SECT":"二段","MAREA":" ","LANE":"２９８巷","ALLEY":" ","HOUSE_NO":"２２號","E_COORD97":175690.87,"N_COORD97":2547467.6099999999,"ADDRESS":"富強路二段２９８巷２２號","OBJECTID":342727},"geometry":{"x":175690.87000000104,"y":2547467.6100000031}},{"attributes":{"ID":342737,"DIS_CODE":0,"TOWNNAME":"永康區","LI":"蔦松里","LIN":"1鄰","STREET":"蔦松二街","SECT":" ","MAREA":" ","LANE":"８７巷","ALLEY":" ","HOUSE_NO":"７號","E_COORD97":173671.35999999999,"N_COORD97":2549301.7400000002,"ADDRESS":"蔦松二街８７巷７號","OBJECTID":342728},"geometry":{"x":173671.3600000022,"y":2549301.7400000039}},{"attributes":{"ID":342738,"DIS_CODE":0,"TOWNNAME":"永康區","LI":"新樹里","LIN":"1鄰","STREET":"富強路","SECT":"二段","MAREA":" ","LANE":"２９８巷","ALLEY":" ","HOUSE_NO":"２８號","E_COORD97":175703.28,"N_COORD97":2547474.6099999999,"ADDRESS":"富強路二段２９８巷２８號","OBJECTID":342729},"geometry":{"x":175703.28000000119,"y":2547474.6100000013}},{"attributes":{"ID":342739,"DIS_CODE":0,"TOWNNAME":"永康區","LI":"蔦松里","LIN":"1鄰","STREET":"蔦松二街","SECT":" ","MAREA":" ","LANE":"８７巷","ALLEY":" ","HOUSE_NO":"６２號底二層之１","E_COORD97":173621.84,"N_COORD97":2549243.7999999998,"ADDRESS":"蔦松二街８７巷６２號底二層之１","OBJECTID":342730},"geometry":{"x":173621.84000000171,"y":2549243.8000000007}},{"attributes":{"ID":342740,"DIS_CODE":0,"TOWNNAME":"永康區","LI":"蔦松里","LIN":"1鄰","STREET":"蔦松二街","SECT":" ","MAREA":" ","LANE":"８７巷","ALLEY":" ","HOUSE_NO":"２９號","E_COORD97":173652.57000000001,"N_COORD97":2549259.9900000002,"ADDRESS":"蔦松二街８７巷２９號","OBJECTID":342731},"geometry":{"x":173652.5700000003,"y":2549259.9900000021}},{"attributes":{"ID":342741,"DIS_CODE":0,"TOWNNAME":"新化區","LI":"知義里","LIN":"14鄰","STREET":"復興路","SECT":" ","MAREA":" ","LANE":"８８巷","ALLEY":" ","HOUSE_NO":"１８號","E_COORD97":179579.12,"N_COORD97":2547615.25,"ADDRESS":"復興路８８巷１８號","OBJECTID":342732},"geometry":{"x":179579.12000000104,"y":2547615.25}},{"attributes":{"ID":342742,"DIS_CODE":0,"TOWNNAME":"永康區","LI":"新樹里","LIN":"1鄰","STREET":"富強路","SECT":"二段","MAREA":" ","LANE":"２７８巷","ALLEY":" ","HOUSE_NO":"１５號","E_COORD97":175690.91,"N_COORD97":2547438.1099999999,"ADDRESS":"富強路二段２７８巷１５號","OBJECTID":342733},"geometry":{"x":175690.91000000015,"y":2547438.1100000013}},{"attributes":{"ID":342743,"DIS_CODE":0,"TOWNNAME":"永康區","LI":"蔦松里","LIN":"1鄰","STREET":"蔦松二街","SECT":" ","MAREA":" ","LANE":"８７巷","ALLEY":" ","HOUSE_NO":"８號","E_COORD97":173716.12,"N_COORD97":2549351.75,"ADDRESS":"蔦松二街８７巷８號","OBJECTID":342734},"geometry":{"x":173716.12000000011,"y":2549351.75}},{"attributes":{"ID":342744,"DIS_CODE":0,"TOWNNAME":"永康區","LI":"新樹里","LIN":"1鄰","STREET":"富強路","SECT":"二段","MAREA":" ","LANE":"２９８巷","ALLEY":" ","HOUSE_NO":"７號","E_COORD97":175666.57999999999,"N_COORD97":2547484.1600000001,"ADDRESS":"富強路二段２９８巷７號","OBJECTID":342735},"geometry":{"x":175666.58000000194,"y":2547484.1600000001}},{"attributes":{"ID":342745,"DIS_CODE":0,"TOWNNAME":"永康區","LI":"新樹里","LIN":"1鄰","STREET":"富強路","SECT":"二段","MAREA":" ","LANE":"２７８巷","ALLEY":" ","HOUSE_NO":"２７號","E_COORD97":175716.98999999999,"N_COORD97":2547446.9700000002,"ADDRESS":"富強路二段２７８巷２７號","OBJECTID":342736},"geometry":{"x":175716.99000000115,"y":2547446.9700000025}},{"attributes":{"ID":342746,"DIS_CODE":0,"TOWNNAME":"永康區","LI":"新樹里","LIN":"1鄰","STREET":"富強路","SECT":"二段","MAREA":" ","LANE":"２９８巷","ALLEY":" ","HOUSE_NO":"３號","E_COORD97":175652.03,"N_COORD97":2547487.9900000002,"ADDRESS":"富強路二段２９８巷３號","OBJECTID":342737},"geometry":{"x":175652.03000000119,"y":2547487.9900000002}},{"attributes":{"ID":342747,"DIS_CODE":0,"TOWNNAME":"永康區","LI":"蔦松里","LIN":"1鄰","STREET":"蔦松二街","SECT":" ","MAREA":" ","LANE":"１２４巷","ALLEY":" ","HOUSE_NO":"１６號","E_COORD97":173821.82000000001,"N_COORD97":2549346.5,"ADDRESS":"蔦松二街１２４巷１６號","OBJECTID":342738},"geometry":{"x":173821.8200000003,"y":2549346.5}},{"attributes":{"ID":342748,"DIS_CODE":0,"TOWNNAME":"永康區","LI":"新樹里","LIN":"1鄰","STREET":"富強路","SECT":"二段","MAREA":" ","LANE":"２９８巷","ALLEY":" ","HOUSE_NO":"４２號","E_COORD97":175726.51999999999,"N_COORD97":2547524.25,"ADDRESS":"富強路二段２９８巷４２號","OBJECTID":342739},"geometry":{"x":175726.52000000048,"y":2547524.25}},{"attributes":{"ID":342749,"DIS_CODE":0,"TOWNNAME":"永康區","LI":"新樹里","LIN":"1鄰","STREET":"富強路","SECT":"二段","MAREA":" ","LANE":"２７８巷","ALLEY":" ","HOUSE_NO":"２９號","E_COORD97":175726.42000000001,"N_COORD97":2547438.9500000002,"ADDRESS":"富強路二段２７８巷２９號","OBJECTID":342740},"geometry":{"x":175726.41999999993,"y":2547438.9500000011}},{"attributes":{"ID":342750,"DIS_CODE":0,"TOWNNAME":"六甲區","LI":"甲南里","LIN":"5鄰","STREET":"珊瑚路","SECT":" ","MAREA":" ","LANE":"１７巷","ALLEY":" ","HOUSE_NO":"１號","E_COORD97":183714.42999999999,"N_COORD97":2569598.7599999998,"ADDRESS":"珊瑚路１７巷１號","OBJECTID":342741},"geometry":{"x":183714.43000000063,"y":2569598.7599999998}},{"attributes":{"ID":342751,"DIS_CODE":0,"TOWNNAME":"六甲區","LI":"甲南里","LIN":"5鄰","STREET":"珊瑚路","SECT":" ","MAREA":" ","LANE":"１７巷","ALLEY":" ","HOUSE_NO":"３號","E_COORD97":183711.60000000001,"N_COORD97":2569593.9199999999,"ADDRESS":"珊瑚路１７巷３號","OBJECTID":342742},"geometry":{"x":183711.60000000056,"y":2569593.9199999999}},{"attributes":{"ID":342752,"DIS_CODE":0,"TOWNNAME":"六甲區","LI":"甲南里","LIN":"5鄰","STREET":"珊瑚路","SECT":" ","MAREA":" ","LANE":"４１巷","ALLEY":" ","HOUSE_NO":"１號","E_COORD97":183752.92999999999,"N_COORD97":2569469.7999999998,"ADDRESS":"珊瑚路４１巷１號","OBJECTID":342743},"geometry":{"x":183752.9299999997,"y":2569469.8000000007}},{"attributes":{"ID":342753,"DIS_CODE":0,"TOWNNAME":"新化區","LI":"豐榮里","LIN":"13鄰","STREET":"民治路","SECT":" ","MAREA":" ","LANE":"１３巷","ALLEY":" ","HOUSE_NO":"２號","E_COORD97":178707.85999999999,"N_COORD97":2547999.25,"ADDRESS":"民治路１３巷２號","OBJECTID":342744},"geometry":{"x":178707.8600000022,"y":2547999.2499999981}},{"attributes":{"ID":342754,"DIS_CODE":0,"TOWNNAME":"新化區","LI":"武安里","LIN":"8鄰","STREET":"信義路","SECT":" ","MAREA":" ","LANE":"３０５巷","ALLEY":" ","HOUSE_NO":"２號","E_COORD97":178926.13,"N_COORD97":2548263.25,"ADDRESS":"信義路３０５巷２號","OBJECTID":342745},"geometry":{"x":178926.13000000082,"y":2548263.25}},{"attributes":{"ID":342755,"DIS_CODE":0,"TOWNNAME":"東區","LI":"富裕里","LIN":"1鄰","STREET":"東門路","SECT":"二段","MAREA":" ","LANE":"２６９巷","ALLEY":" ","HOUSE_NO":"１４號","E_COORD97":170669.5,"N_COORD97":2542723.0499999998,"ADDRESS":"東門路二段２６９巷１４號","OBJECTID":342746},"geometry":{"x":170669.49999999907,"y":2542723.0500000045}},{"attributes":{"ID":342756,"DIS_CODE":0,"TOWNNAME":"東區","LI":"富裕里","LIN":"1鄰","STREET":"東門路","SECT":"二段","MAREA":" ","LANE":"２６９巷","ALLEY":" ","HOUSE_NO":"１５號","E_COORD97":170641.48000000001,"N_COORD97":2542766.8999999999,"ADDRESS":"東門路二段２６９巷１５號","OBJECTID":342747},"geometry":{"x":170641.48000000231,"y":2542766.9000000004}},{"attributes":{"ID":342757,"DIS_CODE":0,"TOWNNAME":"新化區","LI":"北勢里","LIN":"8鄰","STREET":"永新路","SECT":" ","MAREA":" ","LANE":" ","ALLEY":" ","HOUSE_NO":"３５號二樓之１","E_COORD97":177802.29999999999,"N_COORD97":2550963.2999999998,"ADDRESS":"永新路３５號二樓之１","OBJECTID":342748},"geometry":{"x":177802.29999999981,"y":2550963.3000000045}},{"attributes":{"ID":342758,"DIS_CODE":0,"TOWNNAME":"新化區","LI":"北勢里","LIN":"8鄰","STREET":"永新路","SECT":" ","MAREA":" ","LANE":" ","ALLEY":" ","HOUSE_NO":"３５號五樓之２","E_COORD97":177802.42999999999,"N_COORD97":2550963.2999999998,"ADDRESS":"永新路３５號五樓之２","OBJECTID":342749},"geometry":{"x":177802.4299999997,"y":2550963.3000000045}},{"attributes":{"ID":342759,"DIS_CODE":0,"TOWNNAME":"新化區","LI":"北勢里","LIN":"8鄰","STREET":"永新路","SECT":" ","MAREA":" ","LANE":" ","ALLEY":" ","HOUSE_NO":"２５號二樓之２","E_COORD97":177802.42999999999,"N_COORD97":2550963.2999999998,"ADDRESS":"永新路２５號二樓之２","OBJECTID":342750},"geometry":{"x":177802.4299999997,"y":2550963.3000000045}},{"attributes":{"ID":342760,"DIS_CODE":0,"TOWNNAME":"六甲區","LI":"菁埔里","LIN":"5鄰","STREET":" ","SECT":" ","MAREA":"菁埔","LANE":" ","ALLEY":" ","HOUSE_NO":"１９０號","E_COORD97":178648,"N_COORD97":2570410.8300000001,"ADDRESS":"菁埔１９０號","OBJECTID":342751},"geometry":{"x":178648.00000000093,"y":2570410.8300000019}},{"attributes":{"ID":342761,"DIS_CODE":0,"TOWNNAME":"六甲區","LI":"菁埔里","LIN":"5鄰","STREET":" ","SECT":" ","MAREA":"菁埔","LANE":" ","ALLEY":" ","HOUSE_NO":"１００號","E_COORD97":178132.89999999999,"N_COORD97":2570480.3300000001,"ADDRESS":"菁埔１００號","OBJECTID":342752},"geometry":{"x":178132.90000000224,"y":2570480.3300000001}},{"attributes":{"ID":342762,"DIS_CODE":0,"TOWNNAME":"六甲區","LI":"菁埔里","LIN":"5鄰","STREET":" ","SECT":" ","MAREA":"菁埔","LANE":" ","ALLEY":" ","HOUSE_NO":"１０５號","E_COORD97":177978.25,"N_COORD97":2570607.8599999999,"ADDRESS":"菁埔１０５號","OBJECTID":342753},"geometry":{"x":177978.25000000093,"y":2570607.8599999994}},{"attributes":{"ID":342763,"DIS_CODE":0,"TOWNNAME":"六甲區","LI":"菁埔里","LIN":"5鄰","STREET":" ","SECT":" ","MAREA":"菁埔","LANE":" ","ALLEY":" ","HOUSE_NO":"１０９號","E_COORD97":178148.70999999999,"N_COORD97":2570676.4900000002,"ADDRESS":"菁埔１０９號","OBJECTID":342754},"geometry":{"x":178148.70999999996,"y":2570676.4900000039}},{"attributes":{"ID":342764,"DIS_CODE":0,"TOWNNAME":"麻豆區","LI":"安業里","LIN":"5鄰","STREET":" ","SECT":" ","MAREA":"安業","LANE":" ","ALLEY":" ","HOUSE_NO":"１１２號","E_COORD97":172822.69,"N_COORD97":2562128.48,"ADDRESS":"安業１１２號","OBJECTID":342755},"geometry":{"x":172822.69000000041,"y":2562128.4800000004}},{"attributes":{"ID":342765,"DIS_CODE":0,"TOWNNAME":"麻豆區","LI":"安業里","LIN":"5鄰","STREET":" ","SECT":" ","MAREA":"安業","LANE":" ","ALLEY":" ","HOUSE_NO":"１２６號","E_COORD97":172707.03,"N_COORD97":2562117.8999999999,"ADDRESS":"安業１２６號","OBJECTID":342756},"geometry":{"x":172707.03000000026,"y":2562117.9000000022}},{"attributes":{"ID":342766,"DIS_CODE":0,"TOWNNAME":"麻豆區","LI":"安業里","LIN":"5鄰","STREET":" ","SECT":" ","MAREA":"安業","LANE":" ","ALLEY":" ","HOUSE_NO":"１２７號之１","E_COORD97":172742.75,"N_COORD97":2562126.3900000001,"ADDRESS":"安業１２７號之１","OBJECTID":342757},"geometry":{"x":172742.74999999907,"y":2562126.3900000006}},{"attributes":{"ID":342767,"DIS_CODE":0,"TOWNNAME":"麻豆區","LI":"安業里","LIN":"5鄰","STREET":" ","SECT":" ","MAREA":"安業","LANE":" ","ALLEY":" ","HOUSE_NO":"１２７號之２","E_COORD97":172734.42999999999,"N_COORD97":2562103.3399999999,"ADDRESS":"安業１２７號之２","OBJECTID":342758},"geometry":{"x":172734.42999999877,"y":2562103.3400000017}},{"attributes":{"ID":342768,"DIS_CODE":0,"TOWNNAME":"麻豆區","LI":"安業里","LIN":"5鄰","STREET":" ","SECT":" ","MAREA":"安業","LANE":" ","ALLEY":" ","HOUSE_NO":"１２７號之３","E_COORD97":172730.39999999999,"N_COORD97":2562102.4100000001,"ADDRESS":"安業１２７號之３","OBJECTID":342759},"geometry":{"x":172730.40000000224,"y":2562102.4100000039}},{"attributes":{"ID":342769,"DIS_CODE":0,"TOWNNAME":"麻豆區","LI":"安業里","LIN":"5鄰","STREET":" ","SECT":" ","MAREA":"安業","LANE":" ","ALLEY":" ","HOUSE_NO":"１２７號","E_COORD97":172717.70999999999,"N_COORD97":2562100.2799999998,"ADDRESS":"安業１２７號","OBJECTID":342760},"geometry":{"x":172717.71000000183,"y":2562100.2800000012}},{"attributes":{"ID":342770,"DIS_CODE":0,"TOWNNAME":"麻豆區","LI":"安業里","LIN":"5鄰","STREET":" ","SECT":" ","MAREA":"安業","LANE":" ","ALLEY":" ","HOUSE_NO":"１２８號","E_COORD97":172681.25,"N_COORD97":2562089.21,"ADDRESS":"安業１２８號","OBJECTID":342761},"geometry":{"x":172681.25,"y":2562089.2100000028}},{"attributes":{"ID":342771,"DIS_CODE":0,"TOWNNAME":"麻豆區","LI":"安業里","LIN":"5鄰","STREET":" ","SECT":" ","MAREA":"安業","LANE":" ","ALLEY":" ","HOUSE_NO":"１２９號之１","E_COORD97":172675.57000000001,"N_COORD97":2562105.9500000002,"ADDRESS":"安業１２９號之１","OBJECTID":342762},"geometry":{"x":172675.57000000123,"y":2562105.9500000011}},{"attributes":{"ID":342772,"DIS_CODE":0,"TOWNNAME":"麻豆區","LI":"安業里","LIN":"5鄰","STREET":" ","SECT":" ","MAREA":"安業","LANE":" ","ALLEY":" ","HOUSE_NO":"１２９號之２","E_COORD97":172674.28,"N_COORD97":2562110.29,"ADDRESS":"安業１２９號之２","OBJECTID":342763},"geometry":{"x":172674.28000000026,"y":2562110.290000001}},{"attributes":{"ID":342773,"DIS_CODE":0,"TOWNNAME":"麻豆區","LI":"安業里","LIN":"5鄰","STREET":" ","SECT":" ","MAREA":"安業","LANE":" ","ALLEY":" ","HOUSE_NO":"１２９號","E_COORD97":172678.37,"N_COORD97":2562101.29,"ADDRESS":"安業１２９號","OBJECTID":342764},"geometry":{"x":172678.37000000104,"y":2562101.2899999991}},{"attributes":{"ID":342774,"DIS_CODE":0,"TOWNNAME":"麻豆區","LI":"安業里","LIN":"5鄰","STREET":" ","SECT":" ","MAREA":"安業","LANE":" ","ALLEY":" ","HOUSE_NO":"１３１號","E_COORD97":172663.01000000001,"N_COORD97":2562082.0600000001,"ADDRESS":"安業１３１號","OBJECTID":342765},"geometry":{"x":172663.01000000071,"y":2562082.0600000024}},{"attributes":{"ID":342775,"DIS_CODE":0,"TOWNNAME":"麻豆區","LI":"安業里","LIN":"5鄰","STREET":" ","SECT":" ","MAREA":"安業","LANE":" ","ALLEY":" ","HOUSE_NO":"１３２號之１","E_COORD97":172614.04000000001,"N_COORD97":2562068.6600000001,"ADDRESS":"安業１３２號之１","OBJECTID":342766},"geometry":{"x":172614.04000000097,"y":2562068.6600000001}},{"attributes":{"ID":342776,"DIS_CODE":0,"TOWNNAME":"麻豆區","LI":"安業里","LIN":"5鄰","STREET":" ","SECT":" ","MAREA":"安業","LANE":" ","ALLEY":" ","HOUSE_NO":"１３２號","E_COORD97":172633.07000000001,"N_COORD97":2562071.7599999998,"ADDRESS":"安業１３２號","OBJECTID":342767},"geometry":{"x":172633.07000000123,"y":2562071.7599999998}},{"attributes":{"ID":342777,"DIS_CODE":0,"TOWNNAME":"麻豆區","LI":"安業里","LIN":"5鄰","STREET":" ","SECT":" ","MAREA":"安業","LANE":" ","ALLEY":" ","HOUSE_NO":"１３３號","E_COORD97":172625.45000000001,"N_COORD97":2562093.1499999999,"ADDRESS":"安業１３３號","OBJECTID":342768},"geometry":{"x":172625.45000000112,"y":2562093.1500000004}},{"attributes":{"ID":342778,"DIS_CODE":0,"TOWNNAME":"東區","LI":"富裕里","LIN":"1鄰","STREET":"東門路","SECT":"二段","MAREA":" ","LANE":"２６９巷","ALLEY":" ","HOUSE_NO":"１６號","E_COORD97":170668.25,"N_COORD97":2542736.2000000002,"ADDRESS":"東門路二段２６９巷１６號","OBJECTID":342769},"geometry":{"x":170668.25000000093,"y":2542736.1999999993}},{"attributes":{"ID":342779,"DIS_CODE":0,"TOWNNAME":"麻豆區","LI":"安西里","LIN":"5鄰","STREET":" ","SECT":" ","MAREA":"安業","LANE":" ","ALLEY":" ","HOUSE_NO":"２２７號之１","E_COORD97":172429.35999999999,"N_COORD97":2562155.8999999999,"ADDRESS":"安業２２７號之１","OBJECTID":342770},"geometry":{"x":172429.36000000127,"y":2562155.9000000004}},{"attributes":{"ID":342780,"DIS_CODE":0,"TOWNNAME":"麻豆區","LI":"安西里","LIN":"5鄰","STREET":" ","SECT":" ","MAREA":"安業","LANE":" ","ALLEY":" ","HOUSE_NO":"２２７號之３","E_COORD97":172436.06,"N_COORD97":2562128.6800000002,"ADDRESS":"安業２２７號之３","OBJECTID":342771},"geometry":{"x":172436.05999999959,"y":2562128.6800000016}},{"attributes":{"ID":342781,"DIS_CODE":0,"TOWNNAME":"麻豆區","LI":"安西里","LIN":"5鄰","STREET":" ","SECT":" ","MAREA":"安業","LANE":" ","ALLEY":" ","HOUSE_NO":"２４１號之３","E_COORD97":172450.97,"N_COORD97":2561825.0699999998,"ADDRESS":"安業２４１號之３","OBJECTID":342772},"geometry":{"x":172450.96999999974,"y":2561825.0700000022}},{"attributes":{"ID":342782,"DIS_CODE":0,"TOWNNAME":"麻豆區","LI":"安西里","LIN":"5鄰","STREET":" ","SECT":" ","MAREA":"安業","LANE":" ","ALLEY":" ","HOUSE_NO":"２４１號之５","E_COORD97":172533.57000000001,"N_COORD97":2561752.2799999998,"ADDRESS":"安業２４１號之５","OBJECTID":342773},"geometry":{"x":172533.5700000003,"y":2561752.2799999993}},{"attributes":{"ID":342783,"DIS_CODE":0,"TOWNNAME":"麻豆區","LI":"安西里","LIN":"5鄰","STREET":" ","SECT":" ","MAREA":"安業","LANE":" ","ALLEY":" ","HOUSE_NO":"２４１號之６","E_COORD97":172528.95000000001,"N_COORD97":2561749.79,"ADDRESS":"安業２４１號之６","OBJECTID":342774},"geometry":{"x":172528.95000000019,"y":2561749.7900000028}},{"attributes":{"ID":342784,"DIS_CODE":0,"TOWNNAME":"麻豆區","LI":"安西里","LIN":"5鄰","STREET":" ","SECT":" ","MAREA":"安業","LANE":" ","ALLEY":" ","HOUSE_NO":"２４１號","E_COORD97":172465.53,"N_COORD97":2561921.8599999999,"ADDRESS":"安業２４１號","OBJECTID":342775},"geometry":{"x":172465.53000000119,"y":2561921.8599999994}},{"attributes":{"ID":342785,"DIS_CODE":0,"TOWNNAME":"麻豆區","LI":"安西里","LIN":"5鄰","STREET":" ","SECT":" ","MAREA":"安業","LANE":" ","ALLEY":" ","HOUSE_NO":"２４２號之１２","E_COORD97":172352.78,"N_COORD97":2561591.5899999999,"ADDRESS":"安業２４２號之１２","OBJECTID":342776},"geometry":{"x":172352.78000000026,"y":2561591.5899999999}},{"attributes":{"ID":342786,"DIS_CODE":0,"TOWNNAME":"麻豆區","LI":"安東里","LIN":"5鄰","STREET":" ","SECT":" ","MAREA":"安業","LANE":" ","ALLEY":" ","HOUSE_NO":"４６號之１","E_COORD97":172934.94,"N_COORD97":2562487.4100000001,"ADDRESS":"安業４６號之１","OBJECTID":342777},"geometry":{"x":172934.94000000041,"y":2562487.4100000001}},{"attributes":{"ID":342787,"DIS_CODE":0,"TOWNNAME":"麻豆區","LI":"安東里","LIN":"5鄰","STREET":" ","SECT":" ","MAREA":"安業","LANE":" ","ALLEY":" ","HOUSE_NO":"４６號","E_COORD97":172937.20999999999,"N_COORD97":2562482.5,"ADDRESS":"安業４６號","OBJECTID":342778},"geometry":{"x":172937.20999999996,"y":2562482.5000000019}},{"attributes":{"ID":342788,"DIS_CODE":0,"TOWNNAME":"麻豆區","LI":"安東里","LIN":"5鄰","STREET":" ","SECT":" ","MAREA":"安業","LANE":" ","ALLEY":" ","HOUSE_NO":"４７號之１","E_COORD97":172885.94,"N_COORD97":2562625.5899999999,"ADDRESS":"安業４７號之１","OBJECTID":342779},"geometry":{"x":172885.94000000041,"y":2562625.5899999999}},{"attributes":{"ID":342789,"DIS_CODE":0,"TOWNNAME":"麻豆區","LI":"安東里","LIN":"5鄰","STREET":" ","SECT":" ","MAREA":"安業","LANE":" ","ALLEY":" ","HOUSE_NO":"４７號之２０","E_COORD97":172979.16,"N_COORD97":2562868.0099999998,"ADDRESS":"安業４７號之２０","OBJECTID":342780},"geometry":{"x":172979.15999999922,"y":2562868.0100000016}},{"attributes":{"ID":342790,"DIS_CODE":0,"TOWNNAME":"麻豆區","LI":"安東里","LIN":"5鄰","STREET":" ","SECT":" ","MAREA":"安業","LANE":" ","ALLEY":" ","HOUSE_NO":"４７號之３","E_COORD97":172886.09,"N_COORD97":2562610.9500000002,"ADDRESS":"安業４７號之３","OBJECTID":342781},"geometry":{"x":172886.08999999892,"y":2562610.9500000011}},{"attributes":{"ID":342791,"DIS_CODE":0,"TOWNNAME":"東區","LI":"富裕里","LIN":"1鄰","STREET":"東門路","SECT":"二段","MAREA":" ","LANE":"２６９巷","ALLEY":" ","HOUSE_NO":"１７號","E_COORD97":170640.39000000001,"N_COORD97":2542771.5499999998,"ADDRESS":"東門路二段２６９巷１７號","OBJECTID":342782},"geometry":{"x":170640.38999999966,"y":2542771.5500000026}},{"attributes":{"ID":342792,"DIS_CODE":0,"TOWNNAME":"東區","LI":"富裕里","LIN":"1鄰","STREET":"東門路","SECT":"二段","MAREA":" ","LANE":"２６９巷","ALLEY":" ","HOUSE_NO":"１８號","E_COORD97":170657.23000000001,"N_COORD97":2542735.1800000002,"ADDRESS":"東門路二段２６９巷１８號","OBJECTID":342783},"geometry":{"x":170657.23000000138,"y":2542735.1800000016}},{"attributes":{"ID":342793,"DIS_CODE":0,"TOWNNAME":"新營區","LI":"嘉芳里","LIN":"5鄰","STREET":" ","SECT":" ","MAREA":"茄苳腳","LANE":" ","ALLEY":" ","HOUSE_NO":"５７之１６號","E_COORD97":176888.23000000001,"N_COORD97":2578415.0600000001,"ADDRESS":"茄苳腳５７之１６號","OBJECTID":342784},"geometry":{"x":176888.23000000231,"y":2578415.0600000005}},{"attributes":{"ID":342794,"DIS_CODE":0,"TOWNNAME":"東區","LI":"富裕里","LIN":"1鄰","STREET":"東門路","SECT":"二段","MAREA":" ","LANE":"２６９巷","ALLEY":" ","HOUSE_NO":"１９號","E_COORD97":170639.75,"N_COORD97":2542777.98,"ADDRESS":"東門路二段２６９巷１９號","OBJECTID":342785},"geometry":{"x":170639.75000000093,"y":2542777.9800000023}},{"attributes":{"ID":342795,"DIS_CODE":0,"TOWNNAME":"新營區","LI":"土庫里","LIN":"5鄰","STREET":" ","SECT":" ","MAREA":"土庫","LANE":" ","ALLEY":" ","HOUSE_NO":"４５號","E_COORD97":183269.64000000001,"N_COORD97":2579862.2000000002,"ADDRESS":"土庫４５號","OBJECTID":342786},"geometry":{"x":183269.63999999966,"y":2579862.2000000011}},{"attributes":{"ID":342796,"DIS_CODE":0,"TOWNNAME":"新營區","LI":"土庫里","LIN":"5鄰","STREET":" ","SECT":" ","MAREA":"土庫","LANE":" ","ALLEY":" ","HOUSE_NO":"４３之４號","E_COORD97":183426.14000000001,"N_COORD97":2579990.02,"ADDRESS":"土庫４３之４號","OBJECTID":342787},"geometry":{"x":183426.13999999966,"y":2579990.0200000014}},{"attributes":{"ID":342797,"DIS_CODE":0,"TOWNNAME":"東區","LI":"富裕里","LIN":"1鄰","STREET":"東門路","SECT":"二段","MAREA":" ","LANE":"２６９巷","ALLEY":" ","HOUSE_NO":"１號","E_COORD97":170641.41,"N_COORD97":2542724.8300000001,"ADDRESS":"東門路二段２６９巷１號","OBJECTID":342788},"geometry":{"x":170641.41000000015,"y":2542724.8300000019}},{"attributes":{"ID":342798,"DIS_CODE":0,"TOWNNAME":"東區","LI":"富裕里","LIN":"1鄰","STREET":"東門路","SECT":"二段","MAREA":" ","LANE":"２６９巷","ALLEY":" ","HOUSE_NO":"２１號","E_COORD97":170639.17999999999,"N_COORD97":2542783.9500000002,"ADDRESS":"東門路二段２６９巷２１號","OBJECTID":342789},"geometry":{"x":170639.17999999877,"y":2542783.9500000011}},{"attributes":{"ID":342799,"DIS_CODE":0,"TOWNNAME":"東區","LI":"富裕里","LIN":"1鄰","STREET":"東門路","SECT":"二段","MAREA":" ","LANE":"２６９巷","ALLEY":" ","HOUSE_NO":"２２號","E_COORD97":170658.17999999999,"N_COORD97":2542744.1899999999,"ADDRESS":"東門路二段２６９巷２２號","OBJECTID":342790},"geometry":{"x":170658.18000000063,"y":2542744.1900000032}},{"attributes":{"ID":342800,"DIS_CODE":0,"TOWNNAME":"東區","LI":"富裕里","LIN":"1鄰","STREET":"東門路","SECT":"二段","MAREA":" ","LANE":"２６９巷","ALLEY":" ","HOUSE_NO":"２３號","E_COORD97":170638.48000000001,"N_COORD97":2542790.1299999999,"ADDRESS":"東門路二段２６９巷２３號","OBJECTID":342791},"geometry":{"x":170638.48000000138,"y":2542790.129999999}},{"attributes":{"ID":342801,"DIS_CODE":0,"TOWNNAME":"東區","LI":"富裕里","LIN":"1鄰","STREET":"東門路","SECT":"二段","MAREA":" ","LANE":"２６９巷","ALLEY":" ","HOUSE_NO":"２４號","E_COORD97":170656.20999999999,"N_COORD97":2542747.75,"ADDRESS":"東門路二段２６９巷２４號","OBJECTID":342792},"geometry":{"x":170656.20999999903,"y":2542747.7500000037}},{"attributes":{"ID":342802,"DIS_CODE":0,"TOWNNAME":"東區","LI":"富裕里","LIN":"1鄰","STREET":"東門路","SECT":"二段","MAREA":" ","LANE":"２６９巷","ALLEY":" ","HOUSE_NO":"２５號","E_COORD97":170638.41,"N_COORD97":2542795.8599999999,"ADDRESS":"東門路二段２６９巷２５號","OBJECTID":342793},"geometry":{"x":170638.41000000108,"y":2542795.8599999994}},{"attributes":{"ID":342803,"DIS_CODE":0,"TOWNNAME":"新營區","LI":"興業里","LIN":"5鄰","STREET":"公誠街","SECT":" ","MAREA":" ","LANE":"１１巷","ALLEY":" ","HOUSE_NO":"６之４號","E_COORD97":180319.39000000001,"N_COORD97":2577959.9500000002,"ADDRESS":"公誠街１１巷６之４號","OBJECTID":342794},"geometry":{"x":180319.3900000006,"y":2577959.9499999993}},{"attributes":{"ID":342804,"DIS_CODE":0,"TOWNNAME":"歸仁區","LI":"七甲里","LIN":"5鄰","STREET":"中正北路","SECT":"二段","MAREA":" ","LANE":"４５２巷","ALLEY":" ","HOUSE_NO":"８號","E_COORD97":177516.51999999999,"N_COORD97":2543104.2599999998,"ADDRESS":"中正北路二段４５２巷８號","OBJECTID":342795},"geometry":{"x":177516.52000000048,"y":2543104.2600000016}},{"attributes":{"ID":342805,"DIS_CODE":0,"TOWNNAME":"歸仁區","LI":"大廟里","LIN":"5鄰","STREET":"和順路","SECT":"二段","MAREA":" ","LANE":"１５１巷","ALLEY":" ","HOUSE_NO":"２６號","E_COORD97":176158.85000000001,"N_COORD97":2543527.98,"ADDRESS":"和順路二段１５１巷２６號","OBJECTID":342796},"geometry":{"x":176158.84999999963,"y":2543527.9800000023}},{"attributes":{"ID":342806,"DIS_CODE":0,"TOWNNAME":"歸仁區","LI":"文化里","LIN":"5鄰","STREET":"民權一街","SECT":" ","MAREA":" ","LANE":"３８巷","ALLEY":" ","HOUSE_NO":"９號","E_COORD97":177318.75,"N_COORD97":2541315.3300000001,"ADDRESS":"民權一街３８巷９號","OBJECTID":342797},"geometry":{"x":177318.75000000093,"y":2541315.3300000001}},{"attributes":{"ID":342807,"DIS_CODE":0,"TOWNNAME":"東區","LI":"富裕里","LIN":"1鄰","STREET":"東門路","SECT":"二段","MAREA":" ","LANE":"２６９巷","ALLEY":" ","HOUSE_NO":"２６號","E_COORD97":170656.26999999999,"N_COORD97":2542751.5099999998,"ADDRESS":"東門路二段２６９巷２６號","OBJECTID":342798},"geometry":{"x":170656.27000000048,"y":2542751.5099999998}},{"attributes":{"ID":342808,"DIS_CODE":0,"TOWNNAME":"東區","LI":"富裕里","LIN":"1鄰","STREET":"東門路","SECT":"二段","MAREA":" ","LANE":"２６９巷","ALLEY":" ","HOUSE_NO":"２７號","E_COORD97":170638.16,"N_COORD97":2542801.5899999999,"ADDRESS":"東門路二段２６９巷２７號","OBJECTID":342799},"geometry":{"x":170638.16000000201,"y":2542801.5899999999}},{"attributes":{"ID":342809,"DIS_CODE":0,"TOWNNAME":"東區","LI":"富裕里","LIN":"1鄰","STREET":"東門路","SECT":"二段","MAREA":" ","LANE":"２６９巷","ALLEY":" ","HOUSE_NO":"２８號","E_COORD97":170655.70000000001,"N_COORD97":2542757.7200000002,"ADDRESS":"東門路二段２６９巷２８號","OBJECTID":342800},"geometry":{"x":170655.70000000112,"y":2542757.7200000007}}]}