{"displayFieldName":"TOWNNAME","fieldAliases":{"ID":"ID","DIS_CODE":"DIS_CODE","TOWNNAME":"TOWNNAME","LI":"LI","LIN":"LIN","STREET":"STREET","SECT":"SECT","MAREA":"MAREA","LANE":"LANE","ALLEY":"ALLEY","HOUSE_NO":"HOUSE_NO","E_COORD97":"E_COORD97","N_COORD97":"N_COORD97","ADDRESS":"ADDRESS","OBJECTID":"OBJECTID"},"geometryType":"esriGeometryPoint","spatialReference":{"wkid":102443,"latestWkid":3826},"fields":[{"name":"ID","type":"esriFieldTypeDouble","alias":"ID"},{"name":"DIS_CODE","type":"esriFieldTypeInteger","alias":"DIS_CODE"},{"name":"TOWNNAME","type":"esriFieldTypeString","alias":"TOWNNAME","length":8},{"name":"LI","type":"esriFieldTypeString","alias":"LI","length":8},{"name":"LIN","type":"esriFieldTypeString","alias":"LIN","length":12},{"name":"STREET","type":"esriFieldTypeString","alias":"STREET","length":20},{"name":"SECT","type":"esriFieldTypeString","alias":"SECT","length":8},{"name":"MAREA","type":"esriFieldTypeString","alias":"MAREA","length":12},{"name":"LANE","type":"esriFieldTypeString","alias":"LANE","length":10},{"name":"ALLEY","type":"esriFieldTypeString","alias":"ALLEY","length":10},{"name":"HOUSE_NO","type":"esriFieldTypeString","alias":"HOUSE_NO","length":20},{"name":"E_COORD97","type":"esriFieldTypeDouble","alias":"E_COORD97"},{"name":"N_COORD97","type":"esriFieldTypeDouble","alias":"N_COORD97"},{"name":"ADDRESS","type":"esriFieldTypeString","alias":"ADDRESS","length":50},{"name":"OBJECTID","type":"esriFieldTypeOID","alias":"OBJECTID"}],"features":[{"attributes":{"ID":279207,"DIS_CODE":0,"TOWNNAME":"南區","LI":"金華里","LIN":"31鄰","STREET":"新孝路","SECT":" ","MAREA":" ","LANE":"１７２巷","ALLEY":" ","HOUSE_NO":"５６號之５","E_COORD97":166511.51999999999,"N_COORD97":2542200.4900000002,"ADDRESS":"新孝路１７２巷５６號之５","OBJECTID":279201},"geometry":{"x":166511.52000000048,"y":2542200.4900000039}},{"attributes":{"ID":279208,"DIS_CODE":0,"TOWNNAME":"歸仁區","LI":"後市里","LIN":"31鄰","STREET":"民族北街","SECT":" ","MAREA":" ","LANE":"３１巷","ALLEY":" ","HOUSE_NO":"６號","E_COORD97":177396.73000000001,"N_COORD97":2540925.75,"ADDRESS":"民族北街３１巷６號","OBJECTID":279202},"geometry":{"x":177396.73000000231,"y":2540925.75}},{"attributes":{"ID":279209,"DIS_CODE":0,"TOWNNAME":"歸仁區","LI":"南保里","LIN":"31鄰","STREET":"民權八街","SECT":" ","MAREA":" ","LANE":"２３巷","ALLEY":" ","HOUSE_NO":"８號","E_COORD97":176908.79000000001,"N_COORD97":2540943.29,"ADDRESS":"民權八街２３巷８號","OBJECTID":279203},"geometry":{"x":176908.79000000004,"y":2540943.290000001}},{"attributes":{"ID":279210,"DIS_CODE":0,"TOWNNAME":"歸仁區","LI":"南興里","LIN":"31鄰","STREET":"保興街","SECT":" ","MAREA":" ","LANE":"１７巷","ALLEY":" ","HOUSE_NO":"２號","E_COORD97":176470.01999999999,"N_COORD97":2540985.25,"ADDRESS":"保興街１７巷２號","OBJECTID":279204},"geometry":{"x":176470.02000000142,"y":2540985.2500000019}},{"attributes":{"ID":279211,"DIS_CODE":0,"TOWNNAME":"歸仁區","LI":"南保里","LIN":"31鄰","STREET":"民權八街","SECT":" ","MAREA":" ","LANE":"２３巷","ALLEY":" ","HOUSE_NO":"１２號","E_COORD97":176900.84,"N_COORD97":2540943.29,"ADDRESS":"民權八街２３巷１２號","OBJECTID":279205},"geometry":{"x":176900.84000000078,"y":2540943.290000001}},{"attributes":{"ID":279212,"DIS_CODE":0,"TOWNNAME":"新營區","LI":"忠政里","LIN":"31鄰","STREET":"府西路","SECT":" ","MAREA":" ","LANE":"６３巷","ALLEY":" ","HOUSE_NO":"２４號","E_COORD97":179740.51999999999,"N_COORD97":2579092.23,"ADDRESS":"府西路６３巷２４號","OBJECTID":279206},"geometry":{"x":179740.52000000048,"y":2579092.2300000004}},{"attributes":{"ID":279213,"DIS_CODE":0,"TOWNNAME":"新營區","LI":"忠政里","LIN":"31鄰","STREET":"府西路","SECT":" ","MAREA":" ","LANE":"６３巷","ALLEY":" ","HOUSE_NO":"２６號","E_COORD97":179735.41,"N_COORD97":2579092.2599999998,"ADDRESS":"府西路６３巷２６號","OBJECTID":279207},"geometry":{"x":179735.41000000108,"y":2579092.2600000035}},{"attributes":{"ID":279214,"DIS_CODE":0,"TOWNNAME":"安南區","LI":"安順里","LIN":"2鄰","STREET":"總安街","SECT":"一段","MAREA":" ","LANE":"５７巷","ALLEY":" ","HOUSE_NO":"１號","E_COORD97":169843.20000000001,"N_COORD97":2550082.46,"ADDRESS":"總安街一段５７巷１號","OBJECTID":279208},"geometry":{"x":169843.20000000112,"y":2550082.4600000009}},{"attributes":{"ID":279215,"DIS_CODE":0,"TOWNNAME":"東區","LI":"崇文里","LIN":"2鄰","STREET":"崇善路","SECT":" ","MAREA":" ","LANE":" ","ALLEY":" ","HOUSE_NO":"５７８號","E_COORD97":171090.17999999999,"N_COORD97":2541182.04,"ADDRESS":"崇善路５７８號","OBJECTID":279209},"geometry":{"x":171090.18000000156,"y":2541182.0400000028}},{"attributes":{"ID":279216,"DIS_CODE":0,"TOWNNAME":"東區","LI":"崇文里","LIN":"2鄰","STREET":"崇善路","SECT":" ","MAREA":" ","LANE":" ","ALLEY":" ","HOUSE_NO":"５８０號","E_COORD97":171091.48000000001,"N_COORD97":2541178.2599999998,"ADDRESS":"崇善路５８０號","OBJECTID":279210},"geometry":{"x":171091.48000000138,"y":2541178.2600000016}},{"attributes":{"ID":279217,"DIS_CODE":0,"TOWNNAME":"新營區","LI":"民榮里","LIN":"31鄰","STREET":"太子路","SECT":" ","MAREA":" ","LANE":"５３巷","ALLEY":" ","HOUSE_NO":"１９號","E_COORD97":178359.35000000001,"N_COORD97":2577973.6699999999,"ADDRESS":"太子路５３巷１９號","OBJECTID":279211},"geometry":{"x":178359.34999999963,"y":2577973.6699999999}},{"attributes":{"ID":279218,"DIS_CODE":0,"TOWNNAME":"北區","LI":"大港里","LIN":"31鄰","STREET":"賢北街","SECT":" ","MAREA":" ","LANE":"２２５巷","ALLEY":" ","HOUSE_NO":"１１０號","E_COORD97":166064.87,"N_COORD97":2545608.79,"ADDRESS":"賢北街２２５巷１１０號","OBJECTID":279212},"geometry":{"x":166064.87000000197,"y":2545608.790000001}},{"attributes":{"ID":279219,"DIS_CODE":0,"TOWNNAME":"北區","LI":"大港里","LIN":"31鄰","STREET":"賢北街","SECT":" ","MAREA":" ","LANE":"２２５巷","ALLEY":" ","HOUSE_NO":"８０號","E_COORD97":166091.16,"N_COORD97":2545621.6699999999,"ADDRESS":"賢北街２２５巷８０號","OBJECTID":279213},"geometry":{"x":166091.16000000015,"y":2545621.6699999999}},{"attributes":{"ID":279220,"DIS_CODE":0,"TOWNNAME":"北區","LI":"大港里","LIN":"31鄰","STREET":"賢北街","SECT":" ","MAREA":" ","LANE":"２２５巷","ALLEY":" ","HOUSE_NO":"８２號","E_COORD97":166095.73999999999,"N_COORD97":2545615.5099999998,"ADDRESS":"賢北街２２５巷８２號","OBJECTID":279214},"geometry":{"x":166095.74000000022,"y":2545615.5100000016}},{"attributes":{"ID":279221,"DIS_CODE":0,"TOWNNAME":"北區","LI":"大港里","LIN":"31鄰","STREET":"賢北街","SECT":" ","MAREA":" ","LANE":"２２５巷","ALLEY":" ","HOUSE_NO":"８４號","E_COORD97":166082.76999999999,"N_COORD97":2545605.1299999999,"ADDRESS":"賢北街２２５巷８４號","OBJECTID":279215},"geometry":{"x":166082.76999999955,"y":2545605.129999999}},{"attributes":{"ID":279222,"DIS_CODE":0,"TOWNNAME":"北區","LI":"大港里","LIN":"31鄰","STREET":"賢北街","SECT":" ","MAREA":" ","LANE":"２２５巷","ALLEY":" ","HOUSE_NO":"８６號","E_COORD97":166078.01000000001,"N_COORD97":2545611.6499999999,"ADDRESS":"賢北街２２５巷８６號","OBJECTID":279216},"geometry":{"x":166078.00999999978,"y":2545611.6500000022}},{"attributes":{"ID":279223,"DIS_CODE":0,"TOWNNAME":"中西區","LI":"銀同里","LIN":"10鄰","STREET":"友愛東街","SECT":" ","MAREA":" ","LANE":" ","ALLEY":" ","HOUSE_NO":"１５號","E_COORD97":168725.51999999999,"N_COORD97":2543574.5,"ADDRESS":"友愛東街１５號","OBJECTID":279217},"geometry":{"x":168725.51999999955,"y":2543574.5000000019}},{"attributes":{"ID":279224,"DIS_CODE":0,"TOWNNAME":"新營區","LI":"大宏里","LIN":"4鄰","STREET":"民族路","SECT":" ","MAREA":" ","LANE":" ","ALLEY":" ","HOUSE_NO":"２１號之８","E_COORD97":180234.59789,"N_COORD97":2578579.9954400002,"ADDRESS":"民族路２１號之８","OBJECTID":279218},"geometry":{"x":180234.59789000079,"y":2578579.9954400007}},{"attributes":{"ID":279225,"DIS_CODE":0,"TOWNNAME":"中西區","LI":"保安里","LIN":"2鄰","STREET":"西門路","SECT":"二段","MAREA":" ","LANE":" ","ALLEY":" ","HOUSE_NO":"２７號","E_COORD97":167744.57999999999,"N_COORD97":2543508.25,"ADDRESS":"西門路二段２７號","OBJECTID":279219},"geometry":{"x":167744.58000000007,"y":2543508.2500000019}},{"attributes":{"ID":279226,"DIS_CODE":0,"TOWNNAME":"中西區","LI":"保安里","LIN":"2鄰","STREET":"西門路","SECT":"二段","MAREA":" ","LANE":" ","ALLEY":" ","HOUSE_NO":"３１號","E_COORD97":167752.89000000001,"N_COORD97":2543508.2599999998,"ADDRESS":"西門路二段３１號","OBJECTID":279220},"geometry":{"x":167752.8900000006,"y":2543508.2600000016}},{"attributes":{"ID":279227,"DIS_CODE":0,"TOWNNAME":"北區","LI":"大港里","LIN":"31鄰","STREET":"賢北街","SECT":" ","MAREA":" ","LANE":"２２５巷","ALLEY":" ","HOUSE_NO":"８８號","E_COORD97":166074.31,"N_COORD97":2545616.3999999999,"ADDRESS":"賢北街２２５巷８８號","OBJECTID":279221},"geometry":{"x":166074.30999999959,"y":2545616.4000000022}},{"attributes":{"ID":279228,"DIS_CODE":0,"TOWNNAME":"北區","LI":"大港里","LIN":"31鄰","STREET":"賢北街","SECT":" ","MAREA":" ","LANE":"２２５巷","ALLEY":" ","HOUSE_NO":"８號","E_COORD97":166157.66,"N_COORD97":2545659.0499999998,"ADDRESS":"賢北街２２５巷８號","OBJECTID":279222},"geometry":{"x":166157.66000000015,"y":2545659.0500000045}},{"attributes":{"ID":279229,"DIS_CODE":0,"TOWNNAME":"中西區","LI":"保安里","LIN":"2鄰","STREET":"西門路","SECT":"二段","MAREA":" ","LANE":" ","ALLEY":" ","HOUSE_NO":"３３號","E_COORD97":167758.69,"N_COORD97":2543506.7000000002,"ADDRESS":"西門路二段３３號","OBJECTID":279223},"geometry":{"x":167758.69000000134,"y":2543506.700000003}},{"attributes":{"ID":279230,"DIS_CODE":0,"TOWNNAME":"中西區","LI":"保安里","LIN":"2鄰","STREET":"西門路","SECT":"二段","MAREA":" ","LANE":" ","ALLEY":" ","HOUSE_NO":"３５號","E_COORD97":167758.17000000001,"N_COORD97":2543509.79,"ADDRESS":"西門路二段３５號","OBJECTID":279224},"geometry":{"x":167758.17000000086,"y":2543509.790000001}},{"attributes":{"ID":279231,"DIS_CODE":0,"TOWNNAME":"中西區","LI":"保安里","LIN":"2鄰","STREET":"西門路","SECT":"二段","MAREA":" ","LANE":" ","ALLEY":" ","HOUSE_NO":"３７號","E_COORD97":167758.69,"N_COORD97":2543512.2000000002,"ADDRESS":"西門路二段３７號","OBJECTID":279225},"geometry":{"x":167758.69000000134,"y":2543512.1999999993}},{"attributes":{"ID":279232,"DIS_CODE":0,"TOWNNAME":"中西區","LI":"保安里","LIN":"2鄰","STREET":"西門路","SECT":"二段","MAREA":" ","LANE":" ","ALLEY":" ","HOUSE_NO":"３９號","E_COORD97":167758.17000000001,"N_COORD97":2543518.9100000001,"ADDRESS":"西門路二段３９號","OBJECTID":279226},"geometry":{"x":167758.17000000086,"y":2543518.9100000001}},{"attributes":{"ID":279233,"DIS_CODE":0,"TOWNNAME":"新營區","LI":"民榮里","LIN":"31鄰","STREET":"太子路","SECT":" ","MAREA":" ","LANE":"５３巷","ALLEY":" ","HOUSE_NO":"２１號","E_COORD97":178361.44,"N_COORD97":2577969.23,"ADDRESS":"太子路５３巷２１號","OBJECTID":279227},"geometry":{"x":178361.43999999948,"y":2577969.2300000023}},{"attributes":{"ID":279234,"DIS_CODE":0,"TOWNNAME":"南區","LI":"大忠里","LIN":"31鄰","STREET":"中華南路","SECT":"一段","MAREA":" ","LANE":"１８６巷","ALLEY":" ","HOUSE_NO":"３８號","E_COORD97":169047.48999999999,"N_COORD97":2541329.7400000002,"ADDRESS":"中華南路一段１８６巷３８號","OBJECTID":279228},"geometry":{"x":169047.49000000022,"y":2541329.7400000002}},{"attributes":{"ID":279235,"DIS_CODE":0,"TOWNNAME":"南區","LI":"大忠里","LIN":"31鄰","STREET":"中華南路","SECT":"一段","MAREA":" ","LANE":"１８６巷","ALLEY":" ","HOUSE_NO":"４０號","E_COORD97":169045.07000000001,"N_COORD97":2541333.48,"ADDRESS":"中華南路一段１８６巷４０號","OBJECTID":279229},"geometry":{"x":169045.0700000003,"y":2541333.4800000023}},{"attributes":{"ID":279236,"DIS_CODE":0,"TOWNNAME":"南區","LI":"大忠里","LIN":"31鄰","STREET":"中華南路","SECT":"一段","MAREA":" ","LANE":"１８６巷","ALLEY":" ","HOUSE_NO":"４２號","E_COORD97":169042.12,"N_COORD97":2541336.4300000002,"ADDRESS":"中華南路一段１８６巷４２號","OBJECTID":279230},"geometry":{"x":169042.12000000104,"y":2541336.4300000016}},{"attributes":{"ID":279237,"DIS_CODE":0,"TOWNNAME":"南區","LI":"大忠里","LIN":"31鄰","STREET":"中華南路","SECT":"一段","MAREA":" ","LANE":"１８６巷","ALLEY":" ","HOUSE_NO":"４６號","E_COORD97":169039.44,"N_COORD97":2541340.1699999999,"ADDRESS":"中華南路一段１８６巷４６號","OBJECTID":279231},"geometry":{"x":169039.44000000041,"y":2541340.1699999999}},{"attributes":{"ID":279238,"DIS_CODE":0,"TOWNNAME":"南區","LI":"大忠里","LIN":"31鄰","STREET":"中華南路","SECT":"一段","MAREA":" ","LANE":"１８６巷","ALLEY":" ","HOUSE_NO":"４８號","E_COORD97":169037.01999999999,"N_COORD97":2541343.6499999999,"ADDRESS":"中華南路一段１８６巷４８號","OBJECTID":279232},"geometry":{"x":169037.02000000048,"y":2541343.6500000004}},{"attributes":{"ID":279239,"DIS_CODE":0,"TOWNNAME":"南區","LI":"大忠里","LIN":"31鄰","STREET":"中華南路","SECT":"一段","MAREA":" ","LANE":"１８６巷","ALLEY":" ","HOUSE_NO":"５０號","E_COORD97":169034.07000000001,"N_COORD97":2541346.8599999999,"ADDRESS":"中華南路一段１８６巷５０號","OBJECTID":279233},"geometry":{"x":169034.07000000123,"y":2541346.8600000013}},{"attributes":{"ID":279240,"DIS_CODE":0,"TOWNNAME":"新營區","LI":"忠政里","LIN":"31鄰","STREET":"府西路","SECT":" ","MAREA":" ","LANE":"６３巷","ALLEY":" ","HOUSE_NO":"１６號","E_COORD97":179757.85000000001,"N_COORD97":2579094.3599999999,"ADDRESS":"府西路６３巷１６號","OBJECTID":279234},"geometry":{"x":179757.84999999963,"y":2579094.3599999994}},{"attributes":{"ID":279241,"DIS_CODE":0,"TOWNNAME":"新營區","LI":"忠政里","LIN":"31鄰","STREET":"府西路","SECT":" ","MAREA":" ","LANE":"７７巷","ALLEY":" ","HOUSE_NO":"１４號","E_COORD97":179754.04000000001,"N_COORD97":2579153.0800000001,"ADDRESS":"府西路７７巷１４號","OBJECTID":279235},"geometry":{"x":179754.0400000019,"y":2579153.0800000019}},{"attributes":{"ID":279242,"DIS_CODE":0,"TOWNNAME":"新營區","LI":"忠政里","LIN":"31鄰","STREET":"府西路","SECT":" ","MAREA":" ","LANE":"７７巷","ALLEY":" ","HOUSE_NO":"１７號","E_COORD97":179744.75,"N_COORD97":2579135.4100000001,"ADDRESS":"府西路７７巷１７號","OBJECTID":279236},"geometry":{"x":179744.75000000093,"y":2579135.4100000001}},{"attributes":{"ID":279243,"DIS_CODE":0,"TOWNNAME":"永康區","LI":"埔園里","LIN":"31鄰","STREET":"八德街","SECT":" ","MAREA":" ","LANE":"２３０巷","ALLEY":" ","HOUSE_NO":"１６號","E_COORD97":173811.92000000001,"N_COORD97":2548598.4300000002,"ADDRESS":"八德街２３０巷１６號","OBJECTID":279237},"geometry":{"x":173811.92000000086,"y":2548598.4300000016}},{"attributes":{"ID":279244,"DIS_CODE":0,"TOWNNAME":"佳里區","LI":"佳化里","LIN":"2鄰","STREET":" ","SECT":" ","MAREA":"佳里興","LANE":" ","ALLEY":" ","HOUSE_NO":"１０號","E_COORD97":167791.32999999999,"N_COORD97":2565314.3799999999,"ADDRESS":"佳里興１０號","OBJECTID":279238},"geometry":{"x":167791.33000000101,"y":2565314.379999999}},{"attributes":{"ID":279245,"DIS_CODE":0,"TOWNNAME":"佳里區","LI":"佳化里","LIN":"2鄰","STREET":" ","SECT":" ","MAREA":"佳里興","LANE":" ","ALLEY":" ","HOUSE_NO":"１２號","E_COORD97":167818.32999999999,"N_COORD97":2565271.5,"ADDRESS":"佳里興１２號","OBJECTID":279239},"geometry":{"x":167818.33000000101,"y":2565271.4999999981}},{"attributes":{"ID":279246,"DIS_CODE":0,"TOWNNAME":"佳里區","LI":"佳化里","LIN":"2鄰","STREET":" ","SECT":" ","MAREA":"佳里興","LANE":" ","ALLEY":" ","HOUSE_NO":"１４號之１","E_COORD97":167816.39000000001,"N_COORD97":2565185.0600000001,"ADDRESS":"佳里興１４號之１","OBJECTID":279240},"geometry":{"x":167816.38999999966,"y":2565185.0600000024}},{"attributes":{"ID":279247,"DIS_CODE":0,"TOWNNAME":"佳里區","LI":"佳化里","LIN":"2鄰","STREET":" ","SECT":" ","MAREA":"佳里興","LANE":" ","ALLEY":" ","HOUSE_NO":"１４號之２","E_COORD97":167833,"N_COORD97":2565172.5699999998,"ADDRESS":"佳里興１４號之２","OBJECTID":279241},"geometry":{"x":167833,"y":2565172.5700000003}},{"attributes":{"ID":279248,"DIS_CODE":0,"TOWNNAME":"永康區","LI":"正強里","LIN":"31鄰","STREET":"自強路","SECT":" ","MAREA":" ","LANE":"１９７巷","ALLEY":" ","HOUSE_NO":"３號","E_COORD97":173112.95000000001,"N_COORD97":2547508.6299999999,"ADDRESS":"自強路１９７巷３號","OBJECTID":279242},"geometry":{"x":173112.95000000205,"y":2547508.6300000008}},{"attributes":{"ID":279249,"DIS_CODE":0,"TOWNNAME":"永康區","LI":"埔園里","LIN":"31鄰","STREET":"八德街","SECT":" ","MAREA":" ","LANE":"２３０巷","ALLEY":" ","HOUSE_NO":"２０號","E_COORD97":173812.98999999999,"N_COORD97":2548606.5099999998,"ADDRESS":"八德街２３０巷２０號","OBJECTID":279243},"geometry":{"x":173812.99000000115,"y":2548606.5099999998}},{"attributes":{"ID":279250,"DIS_CODE":0,"TOWNNAME":"中西區","LI":"郡西里","LIN":"2鄰","STREET":"郡西路","SECT":" ","MAREA":" ","LANE":" ","ALLEY":" ","HOUSE_NO":"２８號","E_COORD97":167378.5,"N_COORD97":2543223.1600000001,"ADDRESS":"郡西路２８號","OBJECTID":279244},"geometry":{"x":167378.5,"y":2543223.1600000039}},{"attributes":{"ID":279251,"DIS_CODE":0,"TOWNNAME":"佳里區","LI":"興化里","LIN":"2鄰","STREET":" ","SECT":" ","MAREA":"佳里興","LANE":" ","ALLEY":" ","HOUSE_NO":"４０３號之１","E_COORD97":165695.84,"N_COORD97":2565705.23,"ADDRESS":"佳里興４０３號之１","OBJECTID":279245},"geometry":{"x":165695.84000000078,"y":2565705.2300000023}},{"attributes":{"ID":279252,"DIS_CODE":0,"TOWNNAME":"佳里區","LI":"興化里","LIN":"2鄰","STREET":" ","SECT":" ","MAREA":"佳里興","LANE":" ","ALLEY":" ","HOUSE_NO":"４０３號","E_COORD97":165693.12,"N_COORD97":2565730.8300000001,"ADDRESS":"佳里興４０３號","OBJECTID":279246},"geometry":{"x":165693.12000000011,"y":2565730.8300000038}},{"attributes":{"ID":279253,"DIS_CODE":0,"TOWNNAME":"佳里區","LI":"佳化里","LIN":"2鄰","STREET":" ","SECT":" ","MAREA":"佳里興","LANE":" ","ALLEY":" ","HOUSE_NO":"９號","E_COORD97":167778.57999999999,"N_COORD97":2565323.3199999998,"ADDRESS":"佳里興９號","OBJECTID":279247},"geometry":{"x":167778.58000000007,"y":2565323.3200000003}},{"attributes":{"ID":279254,"DIS_CODE":0,"TOWNNAME":"永康區","LI":"埔園里","LIN":"31鄰","STREET":"永大路","SECT":"三段","MAREA":" ","LANE":"５２５巷","ALLEY":" ","HOUSE_NO":"１號","E_COORD97":173934.07000000001,"N_COORD97":2548948.6200000001,"ADDRESS":"永大路三段５２５巷１號","OBJECTID":279248},"geometry":{"x":173934.0700000003,"y":2548948.6200000029}},{"attributes":{"ID":279255,"DIS_CODE":0,"TOWNNAME":"永康區","LI":"埔園里","LIN":"31鄰","STREET":"永大路","SECT":"三段","MAREA":" ","LANE":"５２５巷","ALLEY":" ","HOUSE_NO":"７號","E_COORD97":173922.53,"N_COORD97":2548942.0800000001,"ADDRESS":"永大路三段５２５巷７號","OBJECTID":279249},"geometry":{"x":173922.53000000026,"y":2548942.0800000001}},{"attributes":{"ID":279256,"DIS_CODE":0,"TOWNNAME":"永康區","LI":"正強里","LIN":"31鄰","STREET":"自強路","SECT":" ","MAREA":" ","LANE":"１９７巷","ALLEY":" ","HOUSE_NO":"１２號","E_COORD97":173130.39999999999,"N_COORD97":2547537.2000000002,"ADDRESS":"自強路１９７巷１２號","OBJECTID":279250},"geometry":{"x":173130.40000000224,"y":2547537.1999999993}},{"attributes":{"ID":279257,"DIS_CODE":0,"TOWNNAME":"永康區","LI":"埔園里","LIN":"31鄰","STREET":"永大路","SECT":"三段","MAREA":" ","LANE":"５２５巷","ALLEY":" ","HOUSE_NO":"２號","E_COORD97":173927,"N_COORD97":2548966.3100000001,"ADDRESS":"永大路三段５２５巷２號","OBJECTID":279251},"geometry":{"x":173927,"y":2548966.3100000024}},{"attributes":{"ID":279258,"DIS_CODE":0,"TOWNNAME":"永康區","LI":"埔園里","LIN":"31鄰","STREET":"八德街","SECT":" ","MAREA":" ","LANE":"１７０巷","ALLEY":" ","HOUSE_NO":"２０號","E_COORD97":173947.98000000001,"N_COORD97":2548599.4500000002,"ADDRESS":"八德街１７０巷２０號","OBJECTID":279252},"geometry":{"x":173947.98000000045,"y":2548599.4499999993}},{"attributes":{"ID":279259,"DIS_CODE":0,"TOWNNAME":"永康區","LI":"埔園里","LIN":"31鄰","STREET":"八德街","SECT":" ","MAREA":" ","LANE":"３２６巷","ALLEY":" ","HOUSE_NO":"６０號","E_COORD97":173655.42000000001,"N_COORD97":2548735.1400000001,"ADDRESS":"八德街３２６巷６０號","OBJECTID":279253},"geometry":{"x":173655.42000000179,"y":2548735.1400000006}},{"attributes":{"ID":279260,"DIS_CODE":0,"TOWNNAME":"永康區","LI":"埔園里","LIN":"31鄰","STREET":"八德街","SECT":" ","MAREA":" ","LANE":"２３０巷","ALLEY":" ","HOUSE_NO":"２號","E_COORD97":173806.56,"N_COORD97":2548576.4199999999,"ADDRESS":"八德街２３０巷２號","OBJECTID":279254},"geometry":{"x":173806.56000000145,"y":2548576.4199999999}},{"attributes":{"ID":279261,"DIS_CODE":0,"TOWNNAME":"永康區","LI":"埔園里","LIN":"31鄰","STREET":"永大路","SECT":"三段","MAREA":" ","LANE":"５１１巷","ALLEY":" ","HOUSE_NO":"２８號","E_COORD97":173902.29999999999,"N_COORD97":2548883.4700000002,"ADDRESS":"永大路三段５１１巷２８號","OBJECTID":279255},"geometry":{"x":173902.30000000075,"y":2548883.4700000044}},{"attributes":{"ID":279262,"DIS_CODE":0,"TOWNNAME":"永康區","LI":"埔園里","LIN":"31鄰","STREET":"永大路","SECT":"三段","MAREA":" ","LANE":"５２５巷","ALLEY":" ","HOUSE_NO":"８號","E_COORD97":173915.85999999999,"N_COORD97":2548969.6299999999,"ADDRESS":"永大路三段５２５巷８號","OBJECTID":279256},"geometry":{"x":173915.86000000127,"y":2548969.6300000008}},{"attributes":{"ID":279263,"DIS_CODE":0,"TOWNNAME":"永康區","LI":"埔園里","LIN":"31鄰","STREET":"永大路","SECT":"三段","MAREA":" ","LANE":"５２５巷","ALLEY":" ","HOUSE_NO":"９號","E_COORD97":173919.16,"N_COORD97":2548938.8100000001,"ADDRESS":"永大路三段５２５巷９號","OBJECTID":279257},"geometry":{"x":173919.16000000108,"y":2548938.8100000042}},{"attributes":{"ID":279264,"DIS_CODE":0,"TOWNNAME":"永康區","LI":"埔園里","LIN":"31鄰","STREET":"永大路","SECT":"三段","MAREA":" ","LANE":"５１１巷","ALLEY":" ","HOUSE_NO":"６號","E_COORD97":173946.16,"N_COORD97":2548905.2000000002,"ADDRESS":"永大路三段５１１巷６號","OBJECTID":279258},"geometry":{"x":173946.16000000108,"y":2548905.2000000011}},{"attributes":{"ID":279265,"DIS_CODE":0,"TOWNNAME":"永康區","LI":"埔園里","LIN":"31鄰","STREET":"永大路","SECT":"三段","MAREA":" ","LANE":"５１１巷","ALLEY":" ","HOUSE_NO":"３０號","E_COORD97":173895.42999999999,"N_COORD97":2548882.7799999998,"ADDRESS":"永大路三段５１１巷３０號","OBJECTID":279259},"geometry":{"x":173895.4299999997,"y":2548882.7799999993}},{"attributes":{"ID":279266,"DIS_CODE":0,"TOWNNAME":"永康區","LI":"埔園里","LIN":"31鄰","STREET":"八德街","SECT":" ","MAREA":" ","LANE":"２３０巷","ALLEY":" ","HOUSE_NO":"２６號","E_COORD97":173812.56,"N_COORD97":2548615.0499999998,"ADDRESS":"八德街２３０巷２６號","OBJECTID":279260},"geometry":{"x":173812.55999999959,"y":2548615.0499999989}},{"attributes":{"ID":279267,"DIS_CODE":0,"TOWNNAME":"永康區","LI":"埔園里","LIN":"31鄰","STREET":"八德街","SECT":" ","MAREA":" ","LANE":"２３０巷","ALLEY":" ","HOUSE_NO":"５０號","E_COORD97":173823.84,"N_COORD97":2548655.4300000002,"ADDRESS":"八德街２３０巷５０號","OBJECTID":279261},"geometry":{"x":173823.84000000078,"y":2548655.4299999978}},{"attributes":{"ID":279268,"DIS_CODE":0,"TOWNNAME":"永康區","LI":"埔園里","LIN":"31鄰","STREET":"八德街","SECT":" ","MAREA":" ","LANE":"２３０巷","ALLEY":" ","HOUSE_NO":"８號","E_COORD97":173810.32000000001,"N_COORD97":2548586.2999999998,"ADDRESS":"八德街２３０巷８號","OBJECTID":279262},"geometry":{"x":173810.3200000003,"y":2548586.2999999989}},{"attributes":{"ID":279269,"DIS_CODE":0,"TOWNNAME":"永康區","LI":"埔園里","LIN":"31鄰","STREET":"永大路","SECT":"三段","MAREA":" ","LANE":"５２５巷","ALLEY":" ","HOUSE_NO":"１８號","E_COORD97":173900.5,"N_COORD97":2548954.5299999998,"ADDRESS":"永大路三段５２５巷１８號","OBJECTID":279263},"geometry":{"x":173900.5,"y":2548954.5300000012}},{"attributes":{"ID":279270,"DIS_CODE":0,"TOWNNAME":"永康區","LI":"埔園里","LIN":"31鄰","STREET":"永大路","SECT":"三段","MAREA":" ","LANE":"５１１巷","ALLEY":" ","HOUSE_NO":"３號","E_COORD97":173958.48000000001,"N_COORD97":2548873.3500000001,"ADDRESS":"永大路三段５１１巷３號","OBJECTID":279264},"geometry":{"x":173958.48000000045,"y":2548873.3500000034}},{"attributes":{"ID":279271,"DIS_CODE":0,"TOWNNAME":"永康區","LI":"正強里","LIN":"31鄰","STREET":"自強路","SECT":" ","MAREA":" ","LANE":"１９７巷","ALLEY":" ","HOUSE_NO":"１６號","E_COORD97":173130.29000000001,"N_COORD97":2547544.6499999999,"ADDRESS":"自強路１９７巷１６號","OBJECTID":279265},"geometry":{"x":173130.29000000004,"y":2547544.6500000004}},{"attributes":{"ID":279272,"DIS_CODE":0,"TOWNNAME":"永康區","LI":"埔園里","LIN":"31鄰","STREET":"八德街","SECT":" ","MAREA":" ","LANE":"２３０巷","ALLEY":" ","HOUSE_NO":"１８號","E_COORD97":173812.45000000001,"N_COORD97":2548602.4700000002,"ADDRESS":"八德街２３０巷１８號","OBJECTID":279266},"geometry":{"x":173812.45000000019,"y":2548602.4700000025}},{"attributes":{"ID":279273,"DIS_CODE":0,"TOWNNAME":"永康區","LI":"埔園里","LIN":"31鄰","STREET":"八德街","SECT":" ","MAREA":" ","LANE":"２３０巷","ALLEY":" ","HOUSE_NO":"３０號","E_COORD97":173814.17000000001,"N_COORD97":2548627.1699999999,"ADDRESS":"八德街２３０巷３０號","OBJECTID":279267},"geometry":{"x":173814.16999999993,"y":2548627.1700000037}},{"attributes":{"ID":279274,"DIS_CODE":0,"TOWNNAME":"永康區","LI":"埔園里","LIN":"31鄰","STREET":"永大路","SECT":"三段","MAREA":" ","LANE":"５２５巷","ALLEY":" ","HOUSE_NO":"１２號","E_COORD97":173905.89999999999,"N_COORD97":2548969.5,"ADDRESS":"永大路三段５２５巷１２號","OBJECTID":279268},"geometry":{"x":173905.9000000013,"y":2548969.5}},{"attributes":{"ID":279275,"DIS_CODE":0,"TOWNNAME":"永康區","LI":"埔園里","LIN":"31鄰","STREET":"八德街","SECT":" ","MAREA":" ","LANE":"２３０巷","ALLEY":" ","HOUSE_NO":"３２號","E_COORD97":173815.01000000001,"N_COORD97":2548631.2999999998,"ADDRESS":"八德街２３０巷３２號","OBJECTID":279269},"geometry":{"x":173815.00999999978,"y":2548631.3000000026}},{"attributes":{"ID":279276,"DIS_CODE":0,"TOWNNAME":"永康區","LI":"埔園里","LIN":"31鄰","STREET":"八德街","SECT":" ","MAREA":" ","LANE":"２３０巷","ALLEY":" ","HOUSE_NO":"１２號","E_COORD97":173811.39000000001,"N_COORD97":2548594.3799999999,"ADDRESS":"八德街２３０巷１２號","OBJECTID":279270},"geometry":{"x":173811.3900000006,"y":2548594.3800000027}},{"attributes":{"ID":279277,"DIS_CODE":0,"TOWNNAME":"永康區","LI":"埔園里","LIN":"31鄰","STREET":"八德街","SECT":" ","MAREA":" ","LANE":"２３０巷","ALLEY":" ","HOUSE_NO":"４６號","E_COORD97":173823.28,"N_COORD97":2548651.2999999998,"ADDRESS":"八德街２３０巷４６號","OBJECTID":279271},"geometry":{"x":173823.28000000119,"y":2548651.3000000026}},{"attributes":{"ID":279278,"DIS_CODE":0,"TOWNNAME":"永康區","LI":"埔園里","LIN":"31鄰","STREET":"永大路","SECT":"三段","MAREA":" ","LANE":"５２５巷","ALLEY":" ","HOUSE_NO":"１３號","E_COORD97":173908.23999999999,"N_COORD97":2548938.2799999998,"ADDRESS":"永大路三段５２５巷１３號","OBJECTID":279272},"geometry":{"x":173908.24000000115,"y":2548938.2800000012}},{"attributes":{"ID":279279,"DIS_CODE":0,"TOWNNAME":"永康區","LI":"埔園里","LIN":"31鄰","STREET":"永大路","SECT":"三段","MAREA":" ","LANE":"５２５巷","ALLEY":" ","HOUSE_NO":"６號","E_COORD97":173921.76999999999,"N_COORD97":2548965.29,"ADDRESS":"永大路三段５２５巷６號","OBJECTID":279273},"geometry":{"x":173921.76999999955,"y":2548965.290000001}},{"attributes":{"ID":279280,"DIS_CODE":0,"TOWNNAME":"永康區","LI":"正強里","LIN":"31鄰","STREET":"自強路","SECT":" ","MAREA":" ","LANE":"１９７巷","ALLEY":" ","HOUSE_NO":"５號","E_COORD97":173112.82999999999,"N_COORD97":2547516.0800000001,"ADDRESS":"自強路１９７巷５號","OBJECTID":279274},"geometry":{"x":173112.83000000007,"y":2547516.0800000038}},{"attributes":{"ID":279281,"DIS_CODE":0,"TOWNNAME":"永康區","LI":"埔園里","LIN":"31鄰","STREET":"八德街","SECT":" ","MAREA":" ","LANE":"２３０巷","ALLEY":" ","HOUSE_NO":"４０號","E_COORD97":173822.17000000001,"N_COORD97":2548643.04,"ADDRESS":"八德街２３０巷４０號","OBJECTID":279275},"geometry":{"x":173822.17000000086,"y":2548643.0399999991}},{"attributes":{"ID":279282,"DIS_CODE":0,"TOWNNAME":"永康區","LI":"崑山里","LIN":"31鄰","STREET":"崑山街","SECT":" ","MAREA":" ","LANE":"９６巷","ALLEY":" ","HOUSE_NO":"１６號","E_COORD97":174026.95000000001,"N_COORD97":2544714.8599999999,"ADDRESS":"崑山街９６巷１６號","OBJECTID":279276},"geometry":{"x":174026.95000000112,"y":2544714.8599999994}},{"attributes":{"ID":279283,"DIS_CODE":0,"TOWNNAME":"永康區","LI":"正強里","LIN":"31鄰","STREET":"自強路","SECT":" ","MAREA":" ","LANE":"１９７巷","ALLEY":" ","HOUSE_NO":"１８號","E_COORD97":173130.79999999999,"N_COORD97":2547555.1800000002,"ADDRESS":"自強路１９７巷１８號","OBJECTID":279277},"geometry":{"x":173130.80000000075,"y":2547555.1799999997}},{"attributes":{"ID":279284,"DIS_CODE":0,"TOWNNAME":"永康區","LI":"埔園里","LIN":"31鄰","STREET":"八德街","SECT":" ","MAREA":" ","LANE":"３２６巷","ALLEY":" ","HOUSE_NO":"３３號","E_COORD97":173621.97,"N_COORD97":2548659.4199999999,"ADDRESS":"八德街３２６巷３３號","OBJECTID":279278},"geometry":{"x":173621.96999999974,"y":2548659.4200000037}},{"attributes":{"ID":279285,"DIS_CODE":0,"TOWNNAME":"永康區","LI":"正強里","LIN":"31鄰","STREET":"自強路","SECT":" ","MAREA":" ","LANE":"１９７巷","ALLEY":" ","HOUSE_NO":"９號","E_COORD97":173112.60000000001,"N_COORD97":2547530.98,"ADDRESS":"自強路１９７巷９號","OBJECTID":279279},"geometry":{"x":173112.59999999963,"y":2547530.9800000023}},{"attributes":{"ID":279286,"DIS_CODE":0,"TOWNNAME":"永康區","LI":"埔園里","LIN":"31鄰","STREET":"八德街","SECT":" ","MAREA":" ","LANE":"２３０巷","ALLEY":" ","HOUSE_NO":"４２號","E_COORD97":173822.72,"N_COORD97":2548647.1699999999,"ADDRESS":"八德街２３０巷４２號","OBJECTID":279280},"geometry":{"x":173822.7200000016,"y":2548647.1699999999}},{"attributes":{"ID":279287,"DIS_CODE":0,"TOWNNAME":"永康區","LI":"崑山里","LIN":"31鄰","STREET":"崑山街","SECT":" ","MAREA":" ","LANE":"９６巷","ALLEY":" ","HOUSE_NO":"１８號","E_COORD97":174031.29000000001,"N_COORD97":2544713.3500000001,"ADDRESS":"崑山街９６巷１８號","OBJECTID":279281},"geometry":{"x":174031.29000000097,"y":2544713.3500000034}},{"attributes":{"ID":279288,"DIS_CODE":0,"TOWNNAME":"永康區","LI":"埔園里","LIN":"31鄰","STREET":"八德街","SECT":" ","MAREA":" ","LANE":"３２６巷","ALLEY":" ","HOUSE_NO":"２８號","E_COORD97":173650.79000000001,"N_COORD97":2548654.5800000001,"ADDRESS":"八德街３２６巷２８號","OBJECTID":279282},"geometry":{"x":173650.79000000004,"y":2548654.5800000001}},{"attributes":{"ID":279289,"DIS_CODE":0,"TOWNNAME":"永康區","LI":"埔園里","LIN":"31鄰","STREET":"永大路","SECT":"三段","MAREA":" ","LANE":"５１１巷","ALLEY":" ","HOUSE_NO":"２６號","E_COORD97":173906.41,"N_COORD97":2548888.0499999998,"ADDRESS":"永大路三段５１１巷２６號","OBJECTID":279283},"geometry":{"x":173906.40999999922,"y":2548888.0500000026}},{"attributes":{"ID":279290,"DIS_CODE":0,"TOWNNAME":"永康區","LI":"埔園里","LIN":"31鄰","STREET":"永大路","SECT":"三段","MAREA":" ","LANE":"５２５巷","ALLEY":" ","HOUSE_NO":"１０號","E_COORD97":173913.84,"N_COORD97":2548964.2200000002,"ADDRESS":"永大路三段５２５巷１０號","OBJECTID":279284},"geometry":{"x":173913.84000000078,"y":2548964.2200000025}},{"attributes":{"ID":279291,"DIS_CODE":0,"TOWNNAME":"永康區","LI":"正強里","LIN":"31鄰","STREET":"自強路","SECT":" ","MAREA":" ","LANE":"１９７巷","ALLEY":" ","HOUSE_NO":"２號","E_COORD97":173130.82999999999,"N_COORD97":2547507.3999999999,"ADDRESS":"自強路１９７巷２號","OBJECTID":279285},"geometry":{"x":173130.83000000101,"y":2547507.4000000041}},{"attributes":{"ID":279292,"DIS_CODE":0,"TOWNNAME":"永康區","LI":"埔園里","LIN":"31鄰","STREET":"永大路","SECT":"三段","MAREA":" ","LANE":"５１１巷","ALLEY":" ","HOUSE_NO":"１６號","E_COORD97":173929.20000000001,"N_COORD97":2548893.4199999999,"ADDRESS":"永大路三段５１１巷１６號","OBJECTID":279286},"geometry":{"x":173929.20000000019,"y":2548893.4200000037}},{"attributes":{"ID":279293,"DIS_CODE":0,"TOWNNAME":"永康區","LI":"埔園里","LIN":"31鄰","STREET":"永大路","SECT":"三段","MAREA":" ","LANE":"５１１巷","ALLEY":" ","HOUSE_NO":"１２號","E_COORD97":173932.95000000001,"N_COORD97":2548900.0099999998,"ADDRESS":"永大路三段５１１巷１２號","OBJECTID":279287},"geometry":{"x":173932.95000000019,"y":2548900.0100000016}},{"attributes":{"ID":279294,"DIS_CODE":0,"TOWNNAME":"永康區","LI":"埔園里","LIN":"31鄰","STREET":"永大路","SECT":"三段","MAREA":" ","LANE":"５１１巷","ALLEY":" ","HOUSE_NO":"８號","E_COORD97":173941.75,"N_COORD97":2548903.48,"ADDRESS":"永大路三段５１１巷８號","OBJECTID":279288},"geometry":{"x":173941.75000000093,"y":2548903.4800000042}},{"attributes":{"ID":279295,"DIS_CODE":0,"TOWNNAME":"永康區","LI":"正強里","LIN":"31鄰","STREET":"自強路","SECT":" ","MAREA":" ","LANE":"１９７巷","ALLEY":" ","HOUSE_NO":"８號","E_COORD97":173130.62,"N_COORD97":2547522.2999999998,"ADDRESS":"自強路１９７巷８號","OBJECTID":279289},"geometry":{"x":173130.62000000104,"y":2547522.3000000026}},{"attributes":{"ID":279296,"DIS_CODE":0,"TOWNNAME":"永康區","LI":"正強里","LIN":"31鄰","STREET":"自強路","SECT":" ","MAREA":" ","LANE":"１９７巷","ALLEY":" ","HOUSE_NO":"７號","E_COORD97":173112.70999999999,"N_COORD97":2547523.5299999998,"ADDRESS":"自強路１９７巷７號","OBJECTID":279290},"geometry":{"x":173112.71000000183,"y":2547523.5300000012}},{"attributes":{"ID":279297,"DIS_CODE":0,"TOWNNAME":"永康區","LI":"埔園里","LIN":"31鄰","STREET":"八德街","SECT":" ","MAREA":" ","LANE":"３２６巷","ALLEY":" ","HOUSE_NO":"５２號","E_COORD97":173654.70999999999,"N_COORD97":2548719.02,"ADDRESS":"八德街３２６巷５２號","OBJECTID":279291},"geometry":{"x":173654.70999999996,"y":2548719.0199999996}},{"attributes":{"ID":279298,"DIS_CODE":0,"TOWNNAME":"永康區","LI":"埔園里","LIN":"31鄰","STREET":"永大路","SECT":"三段","MAREA":" ","LANE":"５２５巷","ALLEY":" ","HOUSE_NO":"３號","E_COORD97":173929.97,"N_COORD97":2548946.98,"ADDRESS":"永大路三段５２５巷３號","OBJECTID":279292},"geometry":{"x":173929.97000000067,"y":2548946.9800000004}},{"attributes":{"ID":279299,"DIS_CODE":0,"TOWNNAME":"永康區","LI":"正強里","LIN":"31鄰","STREET":"自強路","SECT":" ","MAREA":" ","LANE":"１９７巷","ALLEY":" ","HOUSE_NO":"１１號","E_COORD97":173112.48000000001,"N_COORD97":2547538.4300000002,"ADDRESS":"自強路１９７巷１１號","OBJECTID":279293},"geometry":{"x":173112.48000000045,"y":2547538.4300000016}},{"attributes":{"ID":279300,"DIS_CODE":0,"TOWNNAME":"永康區","LI":"正強里","LIN":"31鄰","STREET":"自強路","SECT":" ","MAREA":" ","LANE":"１９７巷","ALLEY":" ","HOUSE_NO":"１０號","E_COORD97":173130.51000000001,"N_COORD97":2547529.75,"ADDRESS":"自強路１９７巷１０號","OBJECTID":279294},"geometry":{"x":173130.50999999978,"y":2547529.7500000019}},{"attributes":{"ID":279301,"DIS_CODE":0,"TOWNNAME":"永康區","LI":"正強里","LIN":"31鄰","STREET":"自強路","SECT":" ","MAREA":" ","LANE":"１９７巷","ALLEY":" ","HOUSE_NO":"１３號","E_COORD97":173113.07000000001,"N_COORD97":2547548.6499999999,"ADDRESS":"自強路１９７巷１３號","OBJECTID":279295},"geometry":{"x":173113.07000000123,"y":2547548.6500000004}},{"attributes":{"ID":279302,"DIS_CODE":0,"TOWNNAME":"永康區","LI":"埔園里","LIN":"31鄰","STREET":"永大路","SECT":"三段","MAREA":" ","LANE":"５２５巷","ALLEY":" ","HOUSE_NO":"５號","E_COORD97":173925.12,"N_COORD97":2548945.0299999998,"ADDRESS":"永大路三段５２５巷５號","OBJECTID":279296},"geometry":{"x":173925.12000000011,"y":2548945.0299999993}},{"attributes":{"ID":279303,"DIS_CODE":0,"TOWNNAME":"永康區","LI":"埔園里","LIN":"31鄰","STREET":"永大路","SECT":"三段","MAREA":" ","LANE":"５１１巷","ALLEY":" ","HOUSE_NO":"２２號","E_COORD97":173912.91,"N_COORD97":2548887.3199999998,"ADDRESS":"永大路三段５１１巷２２號","OBJECTID":279297},"geometry":{"x":173912.91000000015,"y":2548887.3199999984}},{"attributes":{"ID":279304,"DIS_CODE":0,"TOWNNAME":"永康區","LI":"埔園里","LIN":"31鄰","STREET":"永大路","SECT":"三段","MAREA":" ","LANE":"５２５巷","ALLEY":" ","HOUSE_NO":"１１號","E_COORD97":173913.78,"N_COORD97":2548940.5,"ADDRESS":"永大路三段５２５巷１１號","OBJECTID":279298},"geometry":{"x":173913.78000000026,"y":2548940.5000000037}},{"attributes":{"ID":279305,"DIS_CODE":0,"TOWNNAME":"永康區","LI":"埔園里","LIN":"31鄰","STREET":"八德街","SECT":" ","MAREA":" ","LANE":"２３０巷","ALLEY":" ","HOUSE_NO":"１０號","E_COORD97":173810.85000000001,"N_COORD97":2548590.3399999999,"ADDRESS":"八德街２３０巷１０號","OBJECTID":279299},"geometry":{"x":173810.84999999963,"y":2548590.3399999999}},{"attributes":{"ID":279306,"DIS_CODE":0,"TOWNNAME":"永康區","LI":"埔園里","LIN":"31鄰","STREET":"永大路","SECT":"三段","MAREA":" ","LANE":"５１１巷","ALLEY":" ","HOUSE_NO":"５號","E_COORD97":173951.51999999999,"N_COORD97":2548876.5,"ADDRESS":"永大路三段５１１巷５號","OBJECTID":279300},"geometry":{"x":173951.52000000048,"y":2548876.5000000019}},{"attributes":{"ID":279307,"DIS_CODE":0,"TOWNNAME":"永康區","LI":"埔園里","LIN":"31鄰","STREET":"八德街","SECT":" ","MAREA":" ","LANE":"２３０巷","ALLEY":" ","HOUSE_NO":"５６號","E_COORD97":173818.19,"N_COORD97":2548664.96,"ADDRESS":"八德街２３０巷５６號","OBJECTID":279301},"geometry":{"x":173818.19000000041,"y":2548664.9600000028}},{"attributes":{"ID":279308,"DIS_CODE":0,"TOWNNAME":"永康區","LI":"埔園里","LIN":"31鄰","STREET":"永大路","SECT":"三段","MAREA":" ","LANE":"５１１巷","ALLEY":" ","HOUSE_NO":"１８號","E_COORD97":173924.78,"N_COORD97":2548891.2400000002,"ADDRESS":"永大路三段５１１巷１８號","OBJECTID":279302},"geometry":{"x":173924.78000000119,"y":2548891.2399999984}},{"attributes":{"ID":279309,"DIS_CODE":0,"TOWNNAME":"永康區","LI":"永康里","LIN":"31鄰","STREET":"永大路","SECT":"三段","MAREA":" ","LANE":"７８巷","ALLEY":" ","HOUSE_NO":"３２號","E_COORD97":174298.69,"N_COORD97":2547736.7000000002,"ADDRESS":"永大路三段７８巷３２號","OBJECTID":279303},"geometry":{"x":174298.69000000134,"y":2547736.6999999993}},{"attributes":{"ID":279310,"DIS_CODE":0,"TOWNNAME":"永康區","LI":"成功里","LIN":"31鄰","STREET":"中華一路","SECT":" ","MAREA":" ","LANE":"３９巷","ALLEY":" ","HOUSE_NO":"９２號","E_COORD97":171883.32000000001,"N_COORD97":2544797.25,"ADDRESS":"中華一路３９巷９２號","OBJECTID":279304},"geometry":{"x":171883.32000000216,"y":2544797.2500000019}},{"attributes":{"ID":279311,"DIS_CODE":0,"TOWNNAME":"下營區","LI":"新興里","LIN":"2鄰","STREET":"東興一街","SECT":" ","MAREA":" ","LANE":" ","ALLEY":" ","HOUSE_NO":"９１號","E_COORD97":174907.73999999999,"N_COORD97":2570867.27,"ADDRESS":"東興一街９１號","OBJECTID":279305},"geometry":{"x":174907.74000000022,"y":2570867.2700000014}},{"attributes":{"ID":279312,"DIS_CODE":0,"TOWNNAME":"下營區","LI":"紅厝里","LIN":"2鄰","STREET":" ","SECT":" ","MAREA":"紅毛厝","LANE":" ","ALLEY":" ","HOUSE_NO":"１０號之１","E_COORD97":174800.16,"N_COORD97":2571670.1899999999,"ADDRESS":"紅毛厝１０號之１","OBJECTID":279306},"geometry":{"x":174800.16000000108,"y":2571670.1899999995}},{"attributes":{"ID":279313,"DIS_CODE":0,"TOWNNAME":"下營區","LI":"紅厝里","LIN":"2鄰","STREET":" ","SECT":" ","MAREA":"紅毛厝","LANE":" ","ALLEY":" ","HOUSE_NO":"１０號之２","E_COORD97":174785.94,"N_COORD97":2571685.6400000001,"ADDRESS":"紅毛厝１０號之２","OBJECTID":279307},"geometry":{"x":174785.94000000041,"y":2571685.6400000006}},{"attributes":{"ID":279314,"DIS_CODE":0,"TOWNNAME":"下營區","LI":"紅厝里","LIN":"2鄰","STREET":" ","SECT":" ","MAREA":"紅毛厝","LANE":" ","ALLEY":" ","HOUSE_NO":"１０號之３","E_COORD97":174791.70999999999,"N_COORD97":2571694.1699999999,"ADDRESS":"紅毛厝１０號之３","OBJECTID":279308},"geometry":{"x":174791.71000000089,"y":2571694.1699999999}},{"attributes":{"ID":279315,"DIS_CODE":0,"TOWNNAME":"下營區","LI":"紅厝里","LIN":"2鄰","STREET":" ","SECT":" ","MAREA":"紅毛厝","LANE":" ","ALLEY":" ","HOUSE_NO":"１０號之５","E_COORD97":174794.34,"N_COORD97":2571708.71,"ADDRESS":"紅毛厝１０號之５","OBJECTID":279309},"geometry":{"x":174794.33999999985,"y":2571708.7100000009}},{"attributes":{"ID":279316,"DIS_CODE":0,"TOWNNAME":"將軍區","LI":"北埔里","LIN":"2鄰","STREET":" ","SECT":" ","MAREA":"北埔","LANE":" ","ALLEY":" ","HOUSE_NO":"１３之１號","E_COORD97":163167.14999999999,"N_COORD97":2569154.77,"ADDRESS":"北埔１３之１號","OBJECTID":279310},"geometry":{"x":163167.15000000037,"y":2569154.7700000033}},{"attributes":{"ID":279317,"DIS_CODE":0,"TOWNNAME":"將軍區","LI":"北埔里","LIN":"2鄰","STREET":" ","SECT":" ","MAREA":"北埔","LANE":" ","ALLEY":" ","HOUSE_NO":"１３之３號","E_COORD97":163202.20000000001,"N_COORD97":2569146.4199999999,"ADDRESS":"北埔１３之３號","OBJECTID":279311},"geometry":{"x":163202.20000000019,"y":2569146.4199999999}},{"attributes":{"ID":279318,"DIS_CODE":0,"TOWNNAME":"永康區","LI":"成功里","LIN":"31鄰","STREET":"中華一路","SECT":" ","MAREA":" ","LANE":"３９巷","ALLEY":" ","HOUSE_NO":"６６號","E_COORD97":171879.42999999999,"N_COORD97":2544844.1699999999,"ADDRESS":"中華一路３９巷６６號","OBJECTID":279312},"geometry":{"x":171879.4299999997,"y":2544844.1700000018}},{"attributes":{"ID":279319,"DIS_CODE":0,"TOWNNAME":"永康區","LI":"成功里","LIN":"31鄰","STREET":"中華一路","SECT":" ","MAREA":" ","LANE":"３９巷","ALLEY":" ","HOUSE_NO":"８８號","E_COORD97":171884.70999999999,"N_COORD97":2544809.2400000002,"ADDRESS":"中華一路３９巷８８號","OBJECTID":279313},"geometry":{"x":171884.70999999996,"y":2544809.2399999984}},{"attributes":{"ID":279320,"DIS_CODE":0,"TOWNNAME":"永康區","LI":"成功里","LIN":"31鄰","STREET":"中華一路","SECT":" ","MAREA":" ","LANE":"３９巷","ALLEY":" ","HOUSE_NO":"９６號","E_COORD97":171886.25,"N_COORD97":2544788.25,"ADDRESS":"中華一路３９巷９６號","OBJECTID":279314},"geometry":{"x":171886.25,"y":2544788.25}},{"attributes":{"ID":279321,"DIS_CODE":0,"TOWNNAME":"將軍區","LI":"西和里","LIN":"2鄰","STREET":" ","SECT":" ","MAREA":"西和","LANE":" ","ALLEY":" ","HOUSE_NO":"１５號","E_COORD97":163284.09,"N_COORD97":2566388.8100000001,"ADDRESS":"西和１５號","OBJECTID":279315},"geometry":{"x":163284.08999999985,"y":2566388.8099999987}},{"attributes":{"ID":279322,"DIS_CODE":0,"TOWNNAME":"永康區","LI":"成功里","LIN":"31鄰","STREET":"中華一路","SECT":" ","MAREA":" ","LANE":"３９巷","ALLEY":" ","HOUSE_NO":"７０號","E_COORD97":171879.98999999999,"N_COORD97":2544836.9199999999,"ADDRESS":"中華一路３９巷７０號","OBJECTID":279316},"geometry":{"x":171879.99000000022,"y":2544836.9199999999}},{"attributes":{"ID":279323,"DIS_CODE":0,"TOWNNAME":"永康區","LI":"永康里","LIN":"31鄰","STREET":"聖龍街","SECT":" ","MAREA":" ","LANE":"１８６巷","ALLEY":" ","HOUSE_NO":"３０號","E_COORD97":174226.53,"N_COORD97":2547783.9500000002,"ADDRESS":"聖龍街１８６巷３０號","OBJECTID":279317},"geometry":{"x":174226.53000000119,"y":2547783.950000003}},{"attributes":{"ID":279324,"DIS_CODE":0,"TOWNNAME":"永康區","LI":"永康里","LIN":"31鄰","STREET":"聖龍街","SECT":" ","MAREA":" ","LANE":"１８６巷","ALLEY":" ","HOUSE_NO":"１０號","E_COORD97":174220.85000000001,"N_COORD97":2547816.9399999999,"ADDRESS":"聖龍街１８６巷１０號","OBJECTID":279318},"geometry":{"x":174220.84999999963,"y":2547816.9399999995}},{"attributes":{"ID":279325,"DIS_CODE":0,"TOWNNAME":"永康區","LI":"永康里","LIN":"31鄰","STREET":"聖龍街","SECT":" ","MAREA":" ","LANE":"１８６巷","ALLEY":" ","HOUSE_NO":"１２號","E_COORD97":174221.56,"N_COORD97":2547812.9399999999,"ADDRESS":"聖龍街１８６巷１２號","OBJECTID":279319},"geometry":{"x":174221.55999999959,"y":2547812.9399999995}},{"attributes":{"ID":279326,"DIS_CODE":0,"TOWNNAME":"永康區","LI":"永康里","LIN":"31鄰","STREET":"聖龍街","SECT":" ","MAREA":" ","LANE":"１８６巷","ALLEY":" ","HOUSE_NO":"４０號","E_COORD97":174229.01000000001,"N_COORD97":2547767.4500000002,"ADDRESS":"聖龍街１８６巷４０號","OBJECTID":279320},"geometry":{"x":174229.00999999978,"y":2547767.4500000011}},{"attributes":{"ID":279327,"DIS_CODE":0,"TOWNNAME":"將軍區","LI":"北埔里","LIN":"2鄰","STREET":" ","SECT":" ","MAREA":"北埔","LANE":" ","ALLEY":" ","HOUSE_NO":"１３之４號","E_COORD97":163201.53,"N_COORD97":2569141.6899999999,"ADDRESS":"北埔１３之４號","OBJECTID":279321},"geometry":{"x":163201.53000000119,"y":2569141.6900000032}},{"attributes":{"ID":279328,"DIS_CODE":0,"TOWNNAME":"將軍區","LI":"北埔里","LIN":"2鄰","STREET":" ","SECT":" ","MAREA":"北埔","LANE":" ","ALLEY":" ","HOUSE_NO":"１３號","E_COORD97":163155.88,"N_COORD97":2569151.1000000001,"ADDRESS":"北埔１３號","OBJECTID":279322},"geometry":{"x":163155.88000000082,"y":2569151.0999999996}},{"attributes":{"ID":279329,"DIS_CODE":0,"TOWNNAME":"將軍區","LI":"北埔里","LIN":"2鄰","STREET":" ","SECT":" ","MAREA":"北埔","LANE":" ","ALLEY":" ","HOUSE_NO":"１５號","E_COORD97":163123.28,"N_COORD97":2569165.1200000001,"ADDRESS":"北埔１５號","OBJECTID":279323},"geometry":{"x":163123.28000000119,"y":2569165.1200000029}},{"attributes":{"ID":279330,"DIS_CODE":0,"TOWNNAME":"將軍區","LI":"北埔里","LIN":"2鄰","STREET":" ","SECT":" ","MAREA":"北埔","LANE":" ","ALLEY":" ","HOUSE_NO":"１６號","E_COORD97":163144.45999999999,"N_COORD97":2569146.6200000001,"ADDRESS":"北埔１６號","OBJECTID":279324},"geometry":{"x":163144.45999999996,"y":2569146.620000001}},{"attributes":{"ID":279331,"DIS_CODE":0,"TOWNNAME":"將軍區","LI":"北埔里","LIN":"2鄰","STREET":" ","SECT":" ","MAREA":"北埔","LANE":" ","ALLEY":" ","HOUSE_NO":"１７號","E_COORD97":163146.19,"N_COORD97":2569125.54,"ADDRESS":"北埔１７號","OBJECTID":279325},"geometry":{"x":163146.19000000134,"y":2569125.5400000028}},{"attributes":{"ID":279332,"DIS_CODE":0,"TOWNNAME":"將軍區","LI":"北埔里","LIN":"2鄰","STREET":" ","SECT":" ","MAREA":"北埔","LANE":" ","ALLEY":" ","HOUSE_NO":"１８號","E_COORD97":163125.45999999999,"N_COORD97":2569118.54,"ADDRESS":"北埔１８號","OBJECTID":279326},"geometry":{"x":163125.45999999996,"y":2569118.5400000028}},{"attributes":{"ID":279333,"DIS_CODE":0,"TOWNNAME":"將軍區","LI":"北埔里","LIN":"2鄰","STREET":" ","SECT":" ","MAREA":"北埔","LANE":" ","ALLEY":" ","HOUSE_NO":"２０之１號","E_COORD97":163091.64999999999,"N_COORD97":2569160.3100000001,"ADDRESS":"北埔２０之１號","OBJECTID":279327},"geometry":{"x":163091.6500000013,"y":2569160.3100000024}},{"attributes":{"ID":279334,"DIS_CODE":0,"TOWNNAME":"將軍區","LI":"北埔里","LIN":"2鄰","STREET":" ","SECT":" ","MAREA":"北埔","LANE":" ","ALLEY":" ","HOUSE_NO":"２０之２號","E_COORD97":163102.67000000001,"N_COORD97":2569163.54,"ADDRESS":"北埔２０之２號","OBJECTID":279328},"geometry":{"x":163102.66999999899,"y":2569163.540000001}},{"attributes":{"ID":279335,"DIS_CODE":0,"TOWNNAME":"將軍區","LI":"北埔里","LIN":"2鄰","STREET":" ","SECT":" ","MAREA":"北埔","LANE":" ","ALLEY":" ","HOUSE_NO":"２０之３號","E_COORD97":163111.54000000001,"N_COORD97":2569165.1899999999,"ADDRESS":"北埔２０之３號","OBJECTID":279329},"geometry":{"x":163111.54000000004,"y":2569165.1899999976}},{"attributes":{"ID":279336,"DIS_CODE":0,"TOWNNAME":"將軍區","LI":"北埔里","LIN":"2鄰","STREET":" ","SECT":" ","MAREA":"北埔","LANE":" ","ALLEY":" ","HOUSE_NO":"２１號","E_COORD97":163113.82999999999,"N_COORD97":2569118.6499999999,"ADDRESS":"北埔２１號","OBJECTID":279330},"geometry":{"x":163113.83000000194,"y":2569118.6500000004}},{"attributes":{"ID":279337,"DIS_CODE":0,"TOWNNAME":"將軍區","LI":"嘉昌里","LIN":"2鄰","STREET":" ","SECT":" ","MAREA":"北嘉","LANE":" ","ALLEY":" ","HOUSE_NO":"１３號","E_COORD97":163823.92999999999,"N_COORD97":2567506.3500000001,"ADDRESS":"北嘉１３號","OBJECTID":279331},"geometry":{"x":163823.9299999997,"y":2567506.3499999996}},{"attributes":{"ID":279338,"DIS_CODE":0,"TOWNNAME":"將軍區","LI":"平沙里","LIN":"2鄰","STREET":" ","SECT":" ","MAREA":"平沙","LANE":" ","ALLEY":" ","HOUSE_NO":"１１號","E_COORD97":157371.28,"N_COORD97":2568582.8700000001,"ADDRESS":"平沙１１號","OBJECTID":279332},"geometry":{"x":157371.28000000119,"y":2568582.8700000048}},{"attributes":{"ID":279339,"DIS_CODE":0,"TOWNNAME":"將軍區","LI":"平沙里","LIN":"2鄰","STREET":" ","SECT":" ","MAREA":"平沙","LANE":" ","ALLEY":" ","HOUSE_NO":"１２號","E_COORD97":157393.23000000001,"N_COORD97":2568584.8599999999,"ADDRESS":"平沙１２號","OBJECTID":279333},"geometry":{"x":157393.23000000045,"y":2568584.8600000013}},{"attributes":{"ID":279340,"DIS_CODE":0,"TOWNNAME":"將軍區","LI":"平沙里","LIN":"2鄰","STREET":" ","SECT":" ","MAREA":"平沙","LANE":" ","ALLEY":" ","HOUSE_NO":"１３之１號","E_COORD97":157428.35000000001,"N_COORD97":2568605.6299999999,"ADDRESS":"平沙１３之１號","OBJECTID":279334},"geometry":{"x":157428.34999999963,"y":2568605.6299999971}},{"attributes":{"ID":279341,"DIS_CODE":0,"TOWNNAME":"將軍區","LI":"平沙里","LIN":"2鄰","STREET":" ","SECT":" ","MAREA":"平沙","LANE":" ","ALLEY":" ","HOUSE_NO":"１３之２號","E_COORD97":157453.16,"N_COORD97":2568602.1699999999,"ADDRESS":"平沙１３之２號","OBJECTID":279335},"geometry":{"x":157453.16000000108,"y":2568602.1699999999}},{"attributes":{"ID":279342,"DIS_CODE":0,"TOWNNAME":"將軍區","LI":"平沙里","LIN":"2鄰","STREET":" ","SECT":" ","MAREA":"平沙","LANE":" ","ALLEY":" ","HOUSE_NO":"１３之３號","E_COORD97":157457.42999999999,"N_COORD97":2568602.4500000002,"ADDRESS":"平沙１３之３號","OBJECTID":279336},"geometry":{"x":157457.43000000156,"y":2568602.4499999993}},{"attributes":{"ID":279343,"DIS_CODE":0,"TOWNNAME":"將軍區","LI":"平沙里","LIN":"2鄰","STREET":" ","SECT":" ","MAREA":"平沙","LANE":" ","ALLEY":" ","HOUSE_NO":"１３之４號","E_COORD97":157444.67000000001,"N_COORD97":2568601.4100000001,"ADDRESS":"平沙１３之４號","OBJECTID":279337},"geometry":{"x":157444.67000000086,"y":2568601.4100000001}},{"attributes":{"ID":279344,"DIS_CODE":0,"TOWNNAME":"將軍區","LI":"平沙里","LIN":"2鄰","STREET":" ","SECT":" ","MAREA":"平沙","LANE":" ","ALLEY":" ","HOUSE_NO":"１３之５號","E_COORD97":157409.04999999999,"N_COORD97":2568596.8300000001,"ADDRESS":"平沙１３之５號","OBJECTID":279338},"geometry":{"x":157409.04999999981,"y":2568596.8300000019}},{"attributes":{"ID":279345,"DIS_CODE":0,"TOWNNAME":"將軍區","LI":"平沙里","LIN":"2鄰","STREET":" ","SECT":" ","MAREA":"平沙","LANE":" ","ALLEY":" ","HOUSE_NO":"１５之１號","E_COORD97":157395.79000000001,"N_COORD97":2568574.77,"ADDRESS":"平沙１５之１號","OBJECTID":279339},"geometry":{"x":157395.79000000004,"y":2568574.7699999996}},{"attributes":{"ID":279346,"DIS_CODE":0,"TOWNNAME":"將軍區","LI":"平沙里","LIN":"2鄰","STREET":" ","SECT":" ","MAREA":"平沙","LANE":" ","ALLEY":" ","HOUSE_NO":"１５號","E_COORD97":157402.51000000001,"N_COORD97":2568576.3500000001,"ADDRESS":"平沙１５號","OBJECTID":279340},"geometry":{"x":157402.50999999978,"y":2568576.3499999996}},{"attributes":{"ID":279347,"DIS_CODE":0,"TOWNNAME":"將軍區","LI":"平沙里","LIN":"2鄰","STREET":" ","SECT":" ","MAREA":"平沙","LANE":" ","ALLEY":" ","HOUSE_NO":"１６號","E_COORD97":157379.16,"N_COORD97":2568566.79,"ADDRESS":"平沙１６號","OBJECTID":279341},"geometry":{"x":157379.16000000108,"y":2568566.7899999991}},{"attributes":{"ID":279348,"DIS_CODE":0,"TOWNNAME":"將軍區","LI":"玉山里","LIN":"2鄰","STREET":" ","SECT":" ","MAREA":"玉山","LANE":" ","ALLEY":" ","HOUSE_NO":"１７之４１號","E_COORD97":161442.01999999999,"N_COORD97":2568289.7400000002,"ADDRESS":"玉山１７之４１號","OBJECTID":279342},"geometry":{"x":161442.01999999862,"y":2568289.7400000002}},{"attributes":{"ID":279349,"DIS_CODE":0,"TOWNNAME":"將軍區","LI":"玉山里","LIN":"2鄰","STREET":" ","SECT":" ","MAREA":"玉山","LANE":" ","ALLEY":" ","HOUSE_NO":"１８之１０號","E_COORD97":161406.38,"N_COORD97":2568242.5299999998,"ADDRESS":"玉山１８之１０號","OBJECTID":279343},"geometry":{"x":161406.38000000082,"y":2568242.5299999993}},{"attributes":{"ID":279350,"DIS_CODE":0,"TOWNNAME":"將軍區","LI":"玉山里","LIN":"2鄰","STREET":" ","SECT":" ","MAREA":"玉山","LANE":" ","ALLEY":" ","HOUSE_NO":"１８之１１號","E_COORD97":161405.75,"N_COORD97":2568238.2400000002,"ADDRESS":"玉山１８之１１號","OBJECTID":279344},"geometry":{"x":161405.75000000093,"y":2568238.2400000021}},{"attributes":{"ID":279351,"DIS_CODE":0,"TOWNNAME":"將軍區","LI":"玉山里","LIN":"2鄰","STREET":" ","SECT":" ","MAREA":"玉山","LANE":" ","ALLEY":" ","HOUSE_NO":"１８之１２號","E_COORD97":161404.42999999999,"N_COORD97":2568234.5,"ADDRESS":"玉山１８之１２號","OBJECTID":279345},"geometry":{"x":161404.43000000063,"y":2568234.5}},{"attributes":{"ID":279352,"DIS_CODE":0,"TOWNNAME":"將軍區","LI":"玉山里","LIN":"2鄰","STREET":" ","SECT":" ","MAREA":"玉山","LANE":" ","ALLEY":" ","HOUSE_NO":"１８之１３號","E_COORD97":161402.88,"N_COORD97":2568229.8500000001,"ADDRESS":"玉山１８之１３號","OBJECTID":279346},"geometry":{"x":161402.88000000082,"y":2568229.8500000015}},{"attributes":{"ID":279353,"DIS_CODE":0,"TOWNNAME":"將軍區","LI":"玉山里","LIN":"2鄰","STREET":" ","SECT":" ","MAREA":"玉山","LANE":" ","ALLEY":" ","HOUSE_NO":"１８之１４號","E_COORD97":161401.16,"N_COORD97":2568225.75,"ADDRESS":"玉山１８之１４號","OBJECTID":279347},"geometry":{"x":161401.16000000201,"y":2568225.75}},{"attributes":{"ID":279354,"DIS_CODE":0,"TOWNNAME":"將軍區","LI":"玉山里","LIN":"2鄰","STREET":" ","SECT":" ","MAREA":"玉山","LANE":" ","ALLEY":" ","HOUSE_NO":"１８之１５號","E_COORD97":161399.82000000001,"N_COORD97":2568221.27,"ADDRESS":"玉山１８之１５號","OBJECTID":279348},"geometry":{"x":161399.8200000003,"y":2568221.2699999996}},{"attributes":{"ID":279355,"DIS_CODE":0,"TOWNNAME":"將軍區","LI":"玉山里","LIN":"2鄰","STREET":" ","SECT":" ","MAREA":"玉山","LANE":" ","ALLEY":" ","HOUSE_NO":"１８之１６號","E_COORD97":161398.16,"N_COORD97":2568217.2400000002,"ADDRESS":"玉山１８之１６號","OBJECTID":279349},"geometry":{"x":161398.16000000108,"y":2568217.2400000021}},{"attributes":{"ID":279356,"DIS_CODE":0,"TOWNNAME":"將軍區","LI":"玉山里","LIN":"2鄰","STREET":" ","SECT":" ","MAREA":"玉山","LANE":" ","ALLEY":" ","HOUSE_NO":"１８之１７號","E_COORD97":161396.89999999999,"N_COORD97":2568212.8999999999,"ADDRESS":"玉山１８之１７號","OBJECTID":279350},"geometry":{"x":161396.9000000013,"y":2568212.9000000022}},{"attributes":{"ID":279357,"DIS_CODE":0,"TOWNNAME":"將軍區","LI":"玉山里","LIN":"2鄰","STREET":" ","SECT":" ","MAREA":"玉山","LANE":" ","ALLEY":" ","HOUSE_NO":"１８之１８號","E_COORD97":161394.91,"N_COORD97":2568208.8199999998,"ADDRESS":"玉山１８之１８號","OBJECTID":279351},"geometry":{"x":161394.91000000108,"y":2568208.8200000003}},{"attributes":{"ID":279358,"DIS_CODE":0,"TOWNNAME":"永康區","LI":"永康里","LIN":"31鄰","STREET":"聖龍街","SECT":" ","MAREA":" ","LANE":"１８６巷","ALLEY":" ","HOUSE_NO":"６６號","E_COORD97":174230.01999999999,"N_COORD97":2547701.2999999998,"ADDRESS":"聖龍街１８６巷６６號","OBJECTID":279352},"geometry":{"x":174230.01999999955,"y":2547701.2999999989}},{"attributes":{"ID":279359,"DIS_CODE":0,"TOWNNAME":"永康區","LI":"永康里","LIN":"31鄰","STREET":"聖龍街","SECT":" ","MAREA":" ","LANE":"１８６巷","ALLEY":" ","HOUSE_NO":"７０號","E_COORD97":174228.51999999999,"N_COORD97":2547690.8100000001,"ADDRESS":"聖龍街１８６巷７０號","OBJECTID":279353},"geometry":{"x":174228.51999999955,"y":2547690.8100000005}},{"attributes":{"ID":279360,"DIS_CODE":0,"TOWNNAME":"將軍區","LI":"西和里","LIN":"2鄰","STREET":" ","SECT":" ","MAREA":"西和","LANE":" ","ALLEY":" ","HOUSE_NO":"１６之１號","E_COORD97":163319.38,"N_COORD97":2566343.27,"ADDRESS":"西和１６之１號","OBJECTID":279354},"geometry":{"x":163319.37999999989,"y":2566343.2699999996}},{"attributes":{"ID":279361,"DIS_CODE":0,"TOWNNAME":"將軍區","LI":"西和里","LIN":"2鄰","STREET":" ","SECT":" ","MAREA":"西和","LANE":" ","ALLEY":" ","HOUSE_NO":"１６之２號","E_COORD97":163315.62,"N_COORD97":2566342.2999999998,"ADDRESS":"西和１６之２號","OBJECTID":279355},"geometry":{"x":163315.62000000104,"y":2566342.3000000026}},{"attributes":{"ID":279362,"DIS_CODE":0,"TOWNNAME":"永康區","LI":"正強里","LIN":"31鄰","STREET":"自強路","SECT":" ","MAREA":" ","LANE":"２５５巷","ALLEY":" ","HOUSE_NO":"３２號","E_COORD97":173165.20999999999,"N_COORD97":2547617.2400000002,"ADDRESS":"自強路２５５巷３２號","OBJECTID":279356},"geometry":{"x":173165.21000000183,"y":2547617.2400000021}},{"attributes":{"ID":279363,"DIS_CODE":0,"TOWNNAME":"永康區","LI":"成功里","LIN":"31鄰","STREET":"中華路","SECT":" ","MAREA":" ","LANE":"１３４巷","ALLEY":" ","HOUSE_NO":"９１號","E_COORD97":171822.97,"N_COORD97":2544844.4900000002,"ADDRESS":"中華路１３４巷９１號","OBJECTID":279357},"geometry":{"x":171822.97000000067,"y":2544844.4900000002}},{"attributes":{"ID":279364,"DIS_CODE":0,"TOWNNAME":"將軍區","LI":"西和里","LIN":"2鄰","STREET":" ","SECT":" ","MAREA":"西和","LANE":" ","ALLEY":" ","HOUSE_NO":"１６之５號","E_COORD97":163310.41,"N_COORD97":2566351.96,"ADDRESS":"西和１６之５號","OBJECTID":279358},"geometry":{"x":163310.41000000108,"y":2566351.9600000028}},{"attributes":{"ID":279365,"DIS_CODE":0,"TOWNNAME":"將軍區","LI":"西和里","LIN":"2鄰","STREET":" ","SECT":" ","MAREA":"西和","LANE":" ","ALLEY":" ","HOUSE_NO":"１７之１號","E_COORD97":163313,"N_COORD97":2566348.6099999999,"ADDRESS":"西和１７之１號","OBJECTID":279359},"geometry":{"x":163313.00000000093,"y":2566348.6100000031}},{"attributes":{"ID":279366,"DIS_CODE":0,"TOWNNAME":"將軍區","LI":"西和里","LIN":"2鄰","STREET":" ","SECT":" ","MAREA":"西和","LANE":" ","ALLEY":" ","HOUSE_NO":"１７號","E_COORD97":163298.48000000001,"N_COORD97":2566355.29,"ADDRESS":"西和１７號","OBJECTID":279360},"geometry":{"x":163298.48000000138,"y":2566355.290000001}},{"attributes":{"ID":279367,"DIS_CODE":0,"TOWNNAME":"將軍區","LI":"西和里","LIN":"2鄰","STREET":" ","SECT":" ","MAREA":"西和","LANE":" ","ALLEY":" ","HOUSE_NO":"１８號","E_COORD97":163288.88,"N_COORD97":2566368.0800000001,"ADDRESS":"西和１８號","OBJECTID":279361},"geometry":{"x":163288.87999999989,"y":2566368.0800000001}},{"attributes":{"ID":279368,"DIS_CODE":0,"TOWNNAME":"將軍區","LI":"西和里","LIN":"2鄰","STREET":" ","SECT":" ","MAREA":"西和","LANE":" ","ALLEY":" ","HOUSE_NO":"１９號","E_COORD97":163277.04000000001,"N_COORD97":2566383.29,"ADDRESS":"西和１９號","OBJECTID":279362},"geometry":{"x":163277.04000000097,"y":2566383.2899999991}},{"attributes":{"ID":279369,"DIS_CODE":0,"TOWNNAME":"將軍區","LI":"西和里","LIN":"2鄰","STREET":" ","SECT":" ","MAREA":"西和","LANE":" ","ALLEY":" ","HOUSE_NO":"２０之１號","E_COORD97":163260.88,"N_COORD97":2566416.9199999999,"ADDRESS":"西和２０之１號","OBJECTID":279363},"geometry":{"x":163260.88000000082,"y":2566416.9199999999}},{"attributes":{"ID":279370,"DIS_CODE":0,"TOWNNAME":"將軍區","LI":"西和里","LIN":"2鄰","STREET":" ","SECT":" ","MAREA":"西和","LANE":" ","ALLEY":" ","HOUSE_NO":"２０號","E_COORD97":163264.54999999999,"N_COORD97":2566401.0099999998,"ADDRESS":"西和２０號","OBJECTID":279364},"geometry":{"x":163264.55000000168,"y":2566401.0100000016}},{"attributes":{"ID":279371,"DIS_CODE":0,"TOWNNAME":"永康區","LI":"正強里","LIN":"2鄰","STREET":"中正路","SECT":" ","MAREA":" ","LANE":"１巷","ALLEY":" ","HOUSE_NO":"１９號","E_COORD97":173689.04000000001,"N_COORD97":2547644.0699999998,"ADDRESS":"中正路１巷１９號","OBJECTID":279365},"geometry":{"x":173689.04000000097,"y":2547644.0700000003}},{"attributes":{"ID":279372,"DIS_CODE":0,"TOWNNAME":"新營區","LI":"民榮里","LIN":"32鄰","STREET":"太子路","SECT":" ","MAREA":" ","LANE":" ","ALLEY":" ","HOUSE_NO":"５９號","E_COORD97":178291.26999999999,"N_COORD97":2578062.6000000001,"ADDRESS":"太子路５９號","OBJECTID":279366},"geometry":{"x":178291.27000000048,"y":2578062.6000000034}},{"attributes":{"ID":279373,"DIS_CODE":0,"TOWNNAME":"新營區","LI":"忠政里","LIN":"24鄰","STREET":"健康路","SECT":" ","MAREA":" ","LANE":" ","ALLEY":" ","HOUSE_NO":"３１２號","E_COORD97":179668.82000000001,"N_COORD97":2579664.0299999998,"ADDRESS":"健康路３１２號","OBJECTID":279367},"geometry":{"x":179668.8200000003,"y":2579664.0300000012}},{"attributes":{"ID":279374,"DIS_CODE":0,"TOWNNAME":"東區","LI":"崇文里","LIN":"15鄰","STREET":"崇德十九街","SECT":" ","MAREA":" ","LANE":" ","ALLEY":" ","HOUSE_NO":"４２號之１","E_COORD97":170924.01999999999,"N_COORD97":2540955.5600000001,"ADDRESS":"崇德十九街４２號之１","OBJECTID":279368},"geometry":{"x":170924.02000000048,"y":2540955.5600000005}},{"attributes":{"ID":279375,"DIS_CODE":0,"TOWNNAME":"永康區","LI":"蔦松里","LIN":"2鄰","STREET":"中正北路","SECT":" ","MAREA":" ","LANE":" ","ALLEY":" ","HOUSE_NO":"５０７號","E_COORD97":173801.26000000001,"N_COORD97":2549160.4900000002,"ADDRESS":"中正北路５０７號","OBJECTID":279369},"geometry":{"x":173801.25999999978,"y":2549160.4900000002}},{"attributes":{"ID":279376,"DIS_CODE":0,"TOWNNAME":"永康區","LI":"埔園里","LIN":"2鄰","STREET":"永埔街","SECT":" ","MAREA":" ","LANE":" ","ALLEY":" ","HOUSE_NO":"９１號","E_COORD97":173938.17000000001,"N_COORD97":2547738.4900000002,"ADDRESS":"永埔街９１號","OBJECTID":279370},"geometry":{"x":173938.16999999993,"y":2547738.4900000021}},{"attributes":{"ID":279377,"DIS_CODE":0,"TOWNNAME":"永康區","LI":"崑山里","LIN":"2鄰","STREET":"大灣路","SECT":" ","MAREA":" ","LANE":" ","ALLEY":" ","HOUSE_NO":"８６３號","E_COORD97":173673.04000000001,"N_COORD97":2544408.6699999999,"ADDRESS":"大灣路８６３號","OBJECTID":279371},"geometry":{"x":173673.04000000004,"y":2544408.6699999999}},{"attributes":{"ID":279378,"DIS_CODE":0,"TOWNNAME":"永康區","LI":"蔦松里","LIN":"2鄰","STREET":"中正北路","SECT":" ","MAREA":" ","LANE":" ","ALLEY":" ","HOUSE_NO":"５２３之３號","E_COORD97":173853.38,"N_COORD97":2549177.04,"ADDRESS":"中正北路５２３之３號","OBJECTID":279372},"geometry":{"x":173853.37999999989,"y":2549177.040000001}},{"attributes":{"ID":279379,"DIS_CODE":0,"TOWNNAME":"永康區","LI":"埔園里","LIN":"2鄰","STREET":"中山路","SECT":" ","MAREA":" ","LANE":" ","ALLEY":" ","HOUSE_NO":"９６號","E_COORD97":173815.98999999999,"N_COORD97":2547650.75,"ADDRESS":"中山路９６號","OBJECTID":279373},"geometry":{"x":173815.99000000022,"y":2547650.7500000019}},{"attributes":{"ID":279380,"DIS_CODE":0,"TOWNNAME":"永康區","LI":"永康里","LIN":"31鄰","STREET":"永大路","SECT":"三段","MAREA":" ","LANE":"７８巷","ALLEY":" ","HOUSE_NO":"２８號","E_COORD97":174290.32999999999,"N_COORD97":2547737.4500000002,"ADDRESS":"永大路三段７８巷２８號","OBJECTID":279374},"geometry":{"x":174290.33000000101,"y":2547737.4500000011}},{"attributes":{"ID":279381,"DIS_CODE":0,"TOWNNAME":"新化區","LI":"東榮里","LIN":"31鄰","STREET":"信義路","SECT":" ","MAREA":" ","LANE":"１８５巷","ALLEY":" ","HOUSE_NO":"６號","E_COORD97":179198.23000000001,"N_COORD97":2548299.25,"ADDRESS":"信義路１８５巷６號","OBJECTID":279375},"geometry":{"x":179198.23000000045,"y":2548299.2500000019}},{"attributes":{"ID":279382,"DIS_CODE":0,"TOWNNAME":"永康區","LI":"永康里","LIN":"31鄰","STREET":"永大路","SECT":"三段","MAREA":" ","LANE":"７８巷","ALLEY":" ","HOUSE_NO":"１３號","E_COORD97":174260.01999999999,"N_COORD97":2547765.5800000001,"ADDRESS":"永大路三段７８巷１３號","OBJECTID":279376},"geometry":{"x":174260.02000000048,"y":2547765.5800000001}},{"attributes":{"ID":279383,"DIS_CODE":0,"TOWNNAME":"永康區","LI":"永康里","LIN":"31鄰","STREET":"永大路","SECT":"三段","MAREA":" ","LANE":"７８巷","ALLEY":" ","HOUSE_NO":"２７號","E_COORD97":174284.48999999999,"N_COORD97":2547762.5800000001,"ADDRESS":"永大路三段７８巷２７號","OBJECTID":279377},"geometry":{"x":174284.49000000115,"y":2547762.5800000001}},{"attributes":{"ID":279384,"DIS_CODE":0,"TOWNNAME":"永康區","LI":"成功里","LIN":"31鄰","STREET":"中華一路","SECT":" ","MAREA":" ","LANE":"３９巷","ALLEY":" ","HOUSE_NO":"７２號","E_COORD97":171879.91,"N_COORD97":2544833.6699999999,"ADDRESS":"中華一路３９巷７２號","OBJECTID":279378},"geometry":{"x":171879.91000000108,"y":2544833.6700000018}},{"attributes":{"ID":279385,"DIS_CODE":0,"TOWNNAME":"永康區","LI":"永康里","LIN":"31鄰","STREET":"永大路","SECT":"三段","MAREA":" ","LANE":"７８巷","ALLEY":" ","HOUSE_NO":"２９號","E_COORD97":174288.89000000001,"N_COORD97":2547761.5800000001,"ADDRESS":"永大路三段７８巷２９號","OBJECTID":279379},"geometry":{"x":174288.88999999966,"y":2547761.5800000019}},{"attributes":{"ID":279386,"DIS_CODE":0,"TOWNNAME":"永康區","LI":"埔園里","LIN":"31鄰","STREET":"永大路","SECT":"三段","MAREA":" ","LANE":"４６９巷","ALLEY":" ","HOUSE_NO":"１７２號","E_COORD97":173691.39999999999,"N_COORD97":2548805.98,"ADDRESS":"永大路三段４６９巷１７２號","OBJECTID":279380},"geometry":{"x":173691.39999999944,"y":2548805.9800000023}},{"attributes":{"ID":279387,"DIS_CODE":0,"TOWNNAME":"永康區","LI":"西勢里","LIN":"31鄰","STREET":"富強路","SECT":"一段","MAREA":" ","LANE":"９３巷","ALLEY":" ","HOUSE_NO":"１１１號","E_COORD97":175213.87,"N_COORD97":2546418.0299999998,"ADDRESS":"富強路一段９３巷１１１號","OBJECTID":279381},"geometry":{"x":175213.87000000197,"y":2546418.0300000012}},{"attributes":{"ID":279388,"DIS_CODE":0,"TOWNNAME":"永康區","LI":"東灣里","LIN":"31鄰","STREET":"大灣二街","SECT":" ","MAREA":" ","LANE":"２１巷","ALLEY":" ","HOUSE_NO":"１０號","E_COORD97":174897.14999999999,"N_COORD97":2544696.7400000002,"ADDRESS":"大灣二街２１巷１０號","OBJECTID":279382},"geometry":{"x":174897.1500000013,"y":2544696.7400000002}},{"attributes":{"ID":279389,"DIS_CODE":0,"TOWNNAME":"永康區","LI":"永康里","LIN":"31鄰","STREET":"聖龍街","SECT":" ","MAREA":" ","LANE":"１８６巷","ALLEY":" ","HOUSE_NO":"５６號","E_COORD97":174233.82999999999,"N_COORD97":2547721.5499999998,"ADDRESS":"聖龍街１８６巷５６號","OBJECTID":279383},"geometry":{"x":174233.83000000007,"y":2547721.5500000026}},{"attributes":{"ID":279390,"DIS_CODE":0,"TOWNNAME":"永康區","LI":"崑山里","LIN":"31鄰","STREET":"崑山街","SECT":" ","MAREA":" ","LANE":"１１６巷","ALLEY":" ","HOUSE_NO":"６號","E_COORD97":174026.13,"N_COORD97":2544779.25,"ADDRESS":"崑山街１１６巷６號","OBJECTID":279384},"geometry":{"x":174026.12999999989,"y":2544779.2500000019}},{"attributes":{"ID":279391,"DIS_CODE":0,"TOWNNAME":"永康區","LI":"永康里","LIN":"31鄰","STREET":"永大路","SECT":"三段","MAREA":" ","LANE":"７８巷","ALLEY":" ","HOUSE_NO":"３８號","E_COORD97":174307.17000000001,"N_COORD97":2547735.6099999999,"ADDRESS":"永大路三段７８巷３８號","OBJECTID":279385},"geometry":{"x":174307.16999999993,"y":2547735.6100000013}},{"attributes":{"ID":279392,"DIS_CODE":0,"TOWNNAME":"永康區","LI":"永康里","LIN":"31鄰","STREET":"聖龍街","SECT":" ","MAREA":" ","LANE":"１８６巷","ALLEY":" ","HOUSE_NO":"８號","E_COORD97":174219.01000000001,"N_COORD97":2547821.1899999999,"ADDRESS":"聖龍街１８６巷８號","OBJECTID":279386},"geometry":{"x":174219.01000000164,"y":2547821.1900000013}},{"attributes":{"ID":279393,"DIS_CODE":0,"TOWNNAME":"永康區","LI":"復國里","LIN":"31鄰","STREET":"復國一路","SECT":" ","MAREA":" ","LANE":"１７３巷","ALLEY":" ","HOUSE_NO":"３１號","E_COORD97":172591.91,"N_COORD97":2545210.1899999999,"ADDRESS":"復國一路１７３巷３１號","OBJECTID":279387},"geometry":{"x":172591.91000000015,"y":2545210.1900000013}},{"attributes":{"ID":279394,"DIS_CODE":0,"TOWNNAME":"將軍區","LI":"忠興里","LIN":"2鄰","STREET":" ","SECT":" ","MAREA":"忠興","LANE":" ","ALLEY":" ","HOUSE_NO":"２８之３號","E_COORD97":163790.54000000001,"N_COORD97":2566699.8399999999,"ADDRESS":"忠興２８之３號","OBJECTID":279388},"geometry":{"x":163790.54000000097,"y":2566699.839999998}},{"attributes":{"ID":279395,"DIS_CODE":0,"TOWNNAME":"新營區","LI":"大宏里","LIN":"7鄰","STREET":"文昌街","SECT":" ","MAREA":" ","LANE":" ","ALLEY":" ","HOUSE_NO":"６號之２","E_COORD97":180513.61885,"N_COORD97":2578416.6153199999,"ADDRESS":"文昌街６號之２","OBJECTID":279389},"geometry":{"x":180513.61885000113,"y":2578416.6153200008}},{"attributes":{"ID":279396,"DIS_CODE":0,"TOWNNAME":"永康區","LI":"東灣里","LIN":"31鄰","STREET":"大灣二街","SECT":" ","MAREA":" ","LANE":"２１巷","ALLEY":" ","HOUSE_NO":"２６號","E_COORD97":174910.29999999999,"N_COORD97":2544651.48,"ADDRESS":"大灣二街２１巷２６號","OBJECTID":279390},"geometry":{"x":174910.29999999981,"y":2544651.4800000004}},{"attributes":{"ID":279397,"DIS_CODE":0,"TOWNNAME":"將軍區","LI":"忠興里","LIN":"2鄰","STREET":" ","SECT":" ","MAREA":"忠興","LANE":" ","ALLEY":" ","HOUSE_NO":"２８之５號","E_COORD97":163790.04999999999,"N_COORD97":2566706.5499999998,"ADDRESS":"忠興２８之５號","OBJECTID":279391},"geometry":{"x":163790.05000000168,"y":2566706.5500000045}},{"attributes":{"ID":279398,"DIS_CODE":0,"TOWNNAME":"將軍區","LI":"忠興里","LIN":"2鄰","STREET":" ","SECT":" ","MAREA":"忠興","LANE":" ","ALLEY":" ","HOUSE_NO":"２９之１號","E_COORD97":163829.64999999999,"N_COORD97":2566679.5899999999,"ADDRESS":"忠興２９之１號","OBJECTID":279392},"geometry":{"x":163829.6500000013,"y":2566679.5900000017}},{"attributes":{"ID":279399,"DIS_CODE":0,"TOWNNAME":"將軍區","LI":"忠興里","LIN":"2鄰","STREET":" ","SECT":" ","MAREA":"忠興","LANE":" ","ALLEY":" ","HOUSE_NO":"２９之２號","E_COORD97":163829.17000000001,"N_COORD97":2566683.6299999999,"ADDRESS":"忠興２９之２號","OBJECTID":279393},"geometry":{"x":163829.16999999993,"y":2566683.6300000027}},{"attributes":{"ID":279400,"DIS_CODE":0,"TOWNNAME":"將軍區","LI":"忠興里","LIN":"2鄰","STREET":" ","SECT":" ","MAREA":"忠興","LANE":" ","ALLEY":" ","HOUSE_NO":"２９之３號","E_COORD97":163828.76999999999,"N_COORD97":2566687.6200000001,"ADDRESS":"忠興２９之３號","OBJECTID":279394},"geometry":{"x":163828.76999999955,"y":2566687.620000001}},{"attributes":{"ID":279401,"DIS_CODE":0,"TOWNNAME":"將軍區","LI":"忠興里","LIN":"2鄰","STREET":" ","SECT":" ","MAREA":"忠興","LANE":" ","ALLEY":" ","HOUSE_NO":"２９號","E_COORD97":163825.20000000001,"N_COORD97":2566684.3500000001,"ADDRESS":"忠興２９號","OBJECTID":279395},"geometry":{"x":163825.20000000112,"y":2566684.3500000015}},{"attributes":{"ID":279402,"DIS_CODE":0,"TOWNNAME":"將軍區","LI":"忠興里","LIN":"2鄰","STREET":" ","SECT":" ","MAREA":"忠興","LANE":" ","ALLEY":" ","HOUSE_NO":"３０之１２號","E_COORD97":163822.20999999999,"N_COORD97":2566745.3999999999,"ADDRESS":"忠興３０之１２號","OBJECTID":279396},"geometry":{"x":163822.20999999996,"y":2566745.4000000022}},{"attributes":{"ID":279403,"DIS_CODE":0,"TOWNNAME":"將軍區","LI":"忠興里","LIN":"2鄰","STREET":" ","SECT":" ","MAREA":"忠興","LANE":" ","ALLEY":" ","HOUSE_NO":"３０之１３號","E_COORD97":163821.92000000001,"N_COORD97":2566749.7999999998,"ADDRESS":"忠興３０之１３號","OBJECTID":279397},"geometry":{"x":163821.92000000086,"y":2566749.8000000026}},{"attributes":{"ID":279404,"DIS_CODE":0,"TOWNNAME":"永康區","LI":"埔園里","LIN":"31鄰","STREET":"中山路","SECT":" ","MAREA":" ","LANE":"５３６巷","ALLEY":" ","HOUSE_NO":"９號","E_COORD97":173555.75,"N_COORD97":2548779.9900000002,"ADDRESS":"中山路５３６巷９號","OBJECTID":279398},"geometry":{"x":173555.75,"y":2548779.9900000002}},{"attributes":{"ID":279405,"DIS_CODE":0,"TOWNNAME":"永康區","LI":"南灣里","LIN":"31鄰","STREET":"大灣一街","SECT":" ","MAREA":" ","LANE":"４５巷","ALLEY":" ","HOUSE_NO":"３８號","E_COORD97":174369.64999999999,"N_COORD97":2544827.9900000002,"ADDRESS":"大灣一街４５巷３８號","OBJECTID":279399},"geometry":{"x":174369.65000000224,"y":2544827.9900000039}},{"attributes":{"ID":279406,"DIS_CODE":0,"TOWNNAME":"永康區","LI":"東灣里","LIN":"31鄰","STREET":"大灣二街","SECT":" ","MAREA":" ","LANE":"２１巷","ALLEY":" ","HOUSE_NO":"２０號","E_COORD97":174910.04000000001,"N_COORD97":2544672.25,"ADDRESS":"大灣二街２１巷２０號","OBJECTID":279400},"geometry":{"x":174910.04000000004,"y":2544672.25}}]}