{"displayFieldName":"TOWNNAME","fieldAliases":{"ID":"ID","DIS_CODE":"DIS_CODE","TOWNNAME":"TOWNNAME","LI":"LI","LIN":"LIN","STREET":"STREET","SECT":"SECT","MAREA":"MAREA","LANE":"LANE","ALLEY":"ALLEY","HOUSE_NO":"HOUSE_NO","E_COORD97":"E_COORD97","N_COORD97":"N_COORD97","ADDRESS":"ADDRESS","OBJECTID":"OBJECTID"},"geometryType":"esriGeometryPoint","spatialReference":{"wkid":102443,"latestWkid":3826},"fields":[{"name":"ID","type":"esriFieldTypeDouble","alias":"ID"},{"name":"DIS_CODE","type":"esriFieldTypeInteger","alias":"DIS_CODE"},{"name":"TOWNNAME","type":"esriFieldTypeString","alias":"TOWNNAME","length":8},{"name":"LI","type":"esriFieldTypeString","alias":"LI","length":8},{"name":"LIN","type":"esriFieldTypeString","alias":"LIN","length":12},{"name":"STREET","type":"esriFieldTypeString","alias":"STREET","length":20},{"name":"SECT","type":"esriFieldTypeString","alias":"SECT","length":8},{"name":"MAREA","type":"esriFieldTypeString","alias":"MAREA","length":12},{"name":"LANE","type":"esriFieldTypeString","alias":"LANE","length":10},{"name":"ALLEY","type":"esriFieldTypeString","alias":"ALLEY","length":10},{"name":"HOUSE_NO","type":"esriFieldTypeString","alias":"HOUSE_NO","length":20},{"name":"E_COORD97","type":"esriFieldTypeDouble","alias":"E_COORD97"},{"name":"N_COORD97","type":"esriFieldTypeDouble","alias":"N_COORD97"},{"name":"ADDRESS","type":"esriFieldTypeString","alias":"ADDRESS","length":50},{"name":"OBJECTID","type":"esriFieldTypeOID","alias":"OBJECTID"}],"features":[{"attributes":{"ID":264205,"DIS_CODE":0,"TOWNNAME":"永康區","LI":"崑山里","LIN":"24鄰","STREET":"國光一街","SECT":" ","MAREA":" ","LANE":"７０巷","ALLEY":" ","HOUSE_NO":"９號","E_COORD97":173843.01999999999,"N_COORD97":2544663.0299999998,"ADDRESS":"國光一街７０巷９號","OBJECTID":264201},"geometry":{"x":173843.02000000048,"y":2544663.0299999993}},{"attributes":{"ID":264206,"DIS_CODE":0,"TOWNNAME":"南區","LI":"永寧里","LIN":"18鄰","STREET":"灣裡路","SECT":" ","MAREA":" ","LANE":" ","ALLEY":" ","HOUSE_NO":"２４１之１號","E_COORD97":166108.22,"N_COORD97":2536465.9900000002,"ADDRESS":"灣裡路２４１之１號","OBJECTID":264202},"geometry":{"x":166108.22000000067,"y":2536465.9900000002}},{"attributes":{"ID":264207,"DIS_CODE":0,"TOWNNAME":"南區","LI":"佛壇里","LIN":"13鄰","STREET":"灣裡路","SECT":" ","MAREA":" ","LANE":" ","ALLEY":" ","HOUSE_NO":"５６８之１號","E_COORD97":166286.03,"N_COORD97":2535704.2799999998,"ADDRESS":"灣裡路５６８之１號","OBJECTID":264203},"geometry":{"x":166286.03000000212,"y":2535704.2799999993}},{"attributes":{"ID":264208,"DIS_CODE":0,"TOWNNAME":"永康區","LI":"崑山里","LIN":"24鄰","STREET":"國光一街","SECT":" ","MAREA":" ","LANE":"７０巷","ALLEY":" ","HOUSE_NO":"２９號","E_COORD97":173856.98999999999,"N_COORD97":2544701.02,"ADDRESS":"國光一街７０巷２９號","OBJECTID":264204},"geometry":{"x":173856.99000000209,"y":2544701.0199999996}},{"attributes":{"ID":264209,"DIS_CODE":0,"TOWNNAME":"永康區","LI":"勝利里","LIN":"24鄰","STREET":"勝利街","SECT":" ","MAREA":" ","LANE":"１１６巷","ALLEY":" ","HOUSE_NO":"４號","E_COORD97":171373,"N_COORD97":2544864.5099999998,"ADDRESS":"勝利街１１６巷４號","OBJECTID":264205},"geometry":{"x":171372.99999999907,"y":2544864.5099999979}},{"attributes":{"ID":264210,"DIS_CODE":0,"TOWNNAME":"永康區","LI":"勝利里","LIN":"24鄰","STREET":"勝利街","SECT":" ","MAREA":" ","LANE":"１１６巷","ALLEY":" ","HOUSE_NO":"２５號","E_COORD97":171413.01999999999,"N_COORD97":2544867.0099999998,"ADDRESS":"勝利街１１６巷２５號","OBJECTID":264206},"geometry":{"x":171413.01999999955,"y":2544867.0099999998}},{"attributes":{"ID":264211,"DIS_CODE":0,"TOWNNAME":"安南區","LI":"海東里","LIN":"24鄰","STREET":"同安路","SECT":" ","MAREA":" ","LANE":"２２５巷","ALLEY":" ","HOUSE_NO":"９８號","E_COORD97":167080.29999999999,"N_COORD97":2549264.7000000002,"ADDRESS":"同安路２２５巷９８號","OBJECTID":264207},"geometry":{"x":167080.29999999888,"y":2549264.7000000011}},{"attributes":{"ID":264212,"DIS_CODE":0,"TOWNNAME":"安南區","LI":"海東里","LIN":"24鄰","STREET":"同安路","SECT":" ","MAREA":" ","LANE":"２２５巷","ALLEY":" ","HOUSE_NO":"１００號","E_COORD97":167076.97,"N_COORD97":2549267.2400000002,"ADDRESS":"同安路２２５巷１００號","OBJECTID":264208},"geometry":{"x":167076.96999999974,"y":2549267.2400000002}},{"attributes":{"ID":264213,"DIS_CODE":0,"TOWNNAME":"安南區","LI":"海東里","LIN":"24鄰","STREET":"同安路","SECT":" ","MAREA":" ","LANE":"２３７巷","ALLEY":" ","HOUSE_NO":"６７號","E_COORD97":167093.16,"N_COORD97":2549313.9199999999,"ADDRESS":"同安路２３７巷６７號","OBJECTID":264209},"geometry":{"x":167093.16000000015,"y":2549313.9200000037}},{"attributes":{"ID":264214,"DIS_CODE":0,"TOWNNAME":"安南區","LI":"海東里","LIN":"24鄰","STREET":"同安路","SECT":" ","MAREA":" ","LANE":"２３７巷","ALLEY":" ","HOUSE_NO":"６９號","E_COORD97":167089.98000000001,"N_COORD97":2549316.9300000002,"ADDRESS":"同安路２３７巷６９號","OBJECTID":264210},"geometry":{"x":167089.98000000231,"y":2549316.9300000034}},{"attributes":{"ID":264215,"DIS_CODE":0,"TOWNNAME":"安南區","LI":"海東里","LIN":"24鄰","STREET":"同安路","SECT":" ","MAREA":" ","LANE":"２３７巷","ALLEY":" ","HOUSE_NO":"７１號","E_COORD97":167086.97,"N_COORD97":2549318.8399999999,"ADDRESS":"同安路２３７巷７１號","OBJECTID":264211},"geometry":{"x":167086.96999999974,"y":2549318.8400000017}},{"attributes":{"ID":264216,"DIS_CODE":0,"TOWNNAME":"新市區","LI":"大社里","LIN":"22鄰","STREET":" ","SECT":" ","MAREA":"大社","LANE":" ","ALLEY":" ","HOUSE_NO":"８２６號","E_COORD97":179779.23000000001,"N_COORD97":2554208.5,"ADDRESS":"大社８２６號","OBJECTID":264212},"geometry":{"x":179779.23000000138,"y":2554208.5}},{"attributes":{"ID":264217,"DIS_CODE":0,"TOWNNAME":"仁德區","LI":"太子里","LIN":"24鄰","STREET":"長興五街","SECT":" ","MAREA":" ","LANE":"３６巷","ALLEY":" ","HOUSE_NO":"１４號","E_COORD97":173627.54000000001,"N_COORD97":2543657.2599999998,"ADDRESS":"長興五街３６巷１４號","OBJECTID":264213},"geometry":{"x":173627.5400000019,"y":2543657.2600000016}},{"attributes":{"ID":264218,"DIS_CODE":0,"TOWNNAME":"仁德區","LI":"成功里","LIN":"24鄰","STREET":"成功一街","SECT":" ","MAREA":" ","LANE":"１３１巷","ALLEY":" ","HOUSE_NO":"１５號","E_COORD97":170613.10000000001,"N_COORD97":2539895.02,"ADDRESS":"成功一街１３１巷１５號","OBJECTID":264214},"geometry":{"x":170613.10000000056,"y":2539895.0200000014}},{"attributes":{"ID":264219,"DIS_CODE":0,"TOWNNAME":"南區","LI":"佛壇里","LIN":"13鄰","STREET":"灣裡路","SECT":" ","MAREA":" ","LANE":" ","ALLEY":" ","HOUSE_NO":"５７４號","E_COORD97":166293.56,"N_COORD97":2535672.1800000002,"ADDRESS":"灣裡路５７４號","OBJECTID":264215},"geometry":{"x":166293.56000000145,"y":2535672.1800000034}},{"attributes":{"ID":264220,"DIS_CODE":0,"TOWNNAME":"後壁區","LI":"菁豊里","LIN":"1鄰","STREET":" ","SECT":" ","MAREA":"前菁寮","LANE":" ","ALLEY":" ","HOUSE_NO":"３號","E_COORD97":183091.89000000001,"N_COORD97":2586183.2000000002,"ADDRESS":"前菁寮３號","OBJECTID":264216},"geometry":{"x":183091.88999999966,"y":2586183.1999999993}},{"attributes":{"ID":264221,"DIS_CODE":0,"TOWNNAME":"歸仁區","LI":"後市里","LIN":"24鄰","STREET":"民族北街","SECT":" ","MAREA":" ","LANE":"５８巷","ALLEY":" ","HOUSE_NO":"２０號","E_COORD97":177520.13,"N_COORD97":2540990.25,"ADDRESS":"民族北街５８巷２０號","OBJECTID":264217},"geometry":{"x":177520.12999999989,"y":2540990.25}},{"attributes":{"ID":264222,"DIS_CODE":0,"TOWNNAME":"永康區","LI":"中興里","LIN":"22鄰","STREET":"中華路","SECT":" ","MAREA":" ","LANE":" ","ALLEY":" ","HOUSE_NO":"１９６號之１５","E_COORD97":171634.66,"N_COORD97":2544991.2999999998,"ADDRESS":"中華路１９６號之１５","OBJECTID":264218},"geometry":{"x":171634.66000000015,"y":2544991.3000000007}},{"attributes":{"ID":264223,"DIS_CODE":0,"TOWNNAME":"歸仁區","LI":"後市里","LIN":"24鄰","STREET":"文化街","SECT":"二段","MAREA":" ","LANE":"３５巷","ALLEY":" ","HOUSE_NO":"１３號","E_COORD97":177528.69,"N_COORD97":2541028.2599999998,"ADDRESS":"文化街二段３５巷１３號","OBJECTID":264219},"geometry":{"x":177528.69000000041,"y":2541028.2599999998}},{"attributes":{"ID":264224,"DIS_CODE":0,"TOWNNAME":"新營區","LI":"民權里","LIN":"24鄰","STREET":"民治路","SECT":" ","MAREA":" ","LANE":"５３巷","ALLEY":" ","HOUSE_NO":"３號","E_COORD97":179679.5,"N_COORD97":2578778,"ADDRESS":"民治路５３巷３號","OBJECTID":264220},"geometry":{"x":179679.50000000186,"y":2578778}},{"attributes":{"ID":264225,"DIS_CODE":0,"TOWNNAME":"南區","LI":"明興里","LIN":"4鄰","STREET":"德興路","SECT":" ","MAREA":" ","LANE":"２０巷","ALLEY":" ","HOUSE_NO":"６０號","E_COORD97":167110.94,"N_COORD97":2540766.6699999999,"ADDRESS":"德興路２０巷６０號","OBJECTID":264221},"geometry":{"x":167110.94000000134,"y":2540766.6699999999}},{"attributes":{"ID":264226,"DIS_CODE":0,"TOWNNAME":"南區","LI":"佛壇里","LIN":"13鄰","STREET":"灣裡路","SECT":" ","MAREA":" ","LANE":" ","ALLEY":" ","HOUSE_NO":"５７８號","E_COORD97":166295.47,"N_COORD97":2535666.6200000001,"ADDRESS":"灣裡路５７８號","OBJECTID":264222},"geometry":{"x":166295.46999999974,"y":2535666.620000001}},{"attributes":{"ID":264227,"DIS_CODE":0,"TOWNNAME":"南區","LI":"佛壇里","LIN":"13鄰","STREET":"灣裡路","SECT":" ","MAREA":" ","LANE":" ","ALLEY":" ","HOUSE_NO":"５８２之１號","E_COORD97":166272.56,"N_COORD97":2535619.2400000002,"ADDRESS":"灣裡路５８２之１號","OBJECTID":264223},"geometry":{"x":166272.55999999959,"y":2535619.2400000021}},{"attributes":{"ID":264228,"DIS_CODE":0,"TOWNNAME":"南區","LI":"明興里","LIN":"4鄰","STREET":"德興路","SECT":" ","MAREA":" ","LANE":"２０巷","ALLEY":" ","HOUSE_NO":"６２號","E_COORD97":167124.38,"N_COORD97":2540762.3599999999,"ADDRESS":"德興路２０巷６２號","OBJECTID":264224},"geometry":{"x":167124.38000000082,"y":2540762.3599999994}},{"attributes":{"ID":264229,"DIS_CODE":0,"TOWNNAME":"南區","LI":"永寧里","LIN":"8鄰","STREET":"灣裡路","SECT":" ","MAREA":" ","LANE":" ","ALLEY":" ","HOUSE_NO":"１９８之１號","E_COORD97":166048.04999999999,"N_COORD97":2536566.0099999998,"ADDRESS":"灣裡路１９８之１號","OBJECTID":264225},"geometry":{"x":166048.05000000168,"y":2536566.0100000016}},{"attributes":{"ID":264230,"DIS_CODE":0,"TOWNNAME":"南區","LI":"明興里","LIN":"4鄰","STREET":"德興路","SECT":" ","MAREA":" ","LANE":"２０巷","ALLEY":" ","HOUSE_NO":"６６號","E_COORD97":167134.06,"N_COORD97":2540760.75,"ADDRESS":"德興路２０巷６６號","OBJECTID":264226},"geometry":{"x":167134.05999999959,"y":2540760.7499999981}},{"attributes":{"ID":264231,"DIS_CODE":0,"TOWNNAME":"南區","LI":"明興里","LIN":"4鄰","STREET":"德興路","SECT":" ","MAREA":" ","LANE":"２０巷","ALLEY":" ","HOUSE_NO":"６８號","E_COORD97":167138.82000000001,"N_COORD97":2540761,"ADDRESS":"德興路２０巷６８號","OBJECTID":264227},"geometry":{"x":167138.82000000123,"y":2540761.0000000019}},{"attributes":{"ID":264232,"DIS_CODE":0,"TOWNNAME":"安平區","LI":"建平里","LIN":"24鄰","STREET":"建平九街","SECT":" ","MAREA":" ","LANE":"６０巷","ALLEY":" ","HOUSE_NO":"３３號","E_COORD97":166008.56,"N_COORD97":2543654,"ADDRESS":"建平九街６０巷３３號","OBJECTID":264228},"geometry":{"x":166008.55999999959,"y":2543654}},{"attributes":{"ID":264233,"DIS_CODE":0,"TOWNNAME":"歸仁區","LI":"南興里","LIN":"24鄰","STREET":"文化二十街","SECT":" ","MAREA":" ","LANE":"１１２巷","ALLEY":" ","HOUSE_NO":"１４號","E_COORD97":175515.89000000001,"N_COORD97":2541340.3300000001,"ADDRESS":"文化二十街１１２巷１４號","OBJECTID":264229},"geometry":{"x":175515.88999999966,"y":2541340.3300000038}},{"attributes":{"ID":264234,"DIS_CODE":0,"TOWNNAME":"玉井區","LI":"玉田里","LIN":"24鄰","STREET":"中華路","SECT":" ","MAREA":" ","LANE":"１９２巷","ALLEY":" ","HOUSE_NO":"２０號","E_COORD97":195139.29999999999,"N_COORD97":2557781.2400000002,"ADDRESS":"中華路１９２巷２０號","OBJECTID":264230},"geometry":{"x":195139.30000000075,"y":2557781.2400000039}},{"attributes":{"ID":264235,"DIS_CODE":0,"TOWNNAME":"北區","LI":"和順里","LIN":"24鄰","STREET":"西門路","SECT":"三段","MAREA":" ","LANE":"４５巷","ALLEY":" ","HOUSE_NO":"３８號","E_COORD97":168150.04999999999,"N_COORD97":2544737.23,"ADDRESS":"西門路三段４５巷３８號","OBJECTID":264231},"geometry":{"x":168150.05000000168,"y":2544737.2300000004}},{"attributes":{"ID":264236,"DIS_CODE":0,"TOWNNAME":"南區","LI":"竹溪里","LIN":"10鄰","STREET":"體育路","SECT":" ","MAREA":" ","LANE":" ","ALLEY":" ","HOUSE_NO":"５５號","E_COORD97":168737.13,"N_COORD97":2542153.98,"ADDRESS":"體育路５５號","OBJECTID":264232},"geometry":{"x":168737.12999999989,"y":2542153.9800000023}},{"attributes":{"ID":264237,"DIS_CODE":0,"TOWNNAME":"南區","LI":"大林里","LIN":"4鄰","STREET":"大同路","SECT":"二段","MAREA":" ","LANE":" ","ALLEY":" ","HOUSE_NO":"４１２號","E_COORD97":169428.04000000001,"N_COORD97":2541654.7999999998,"ADDRESS":"大同路二段４１２號","OBJECTID":264233},"geometry":{"x":169428.04000000004,"y":2541654.8000000026}},{"attributes":{"ID":264238,"DIS_CODE":0,"TOWNNAME":"南區","LI":"大林里","LIN":"4鄰","STREET":"大同路","SECT":"二段","MAREA":" ","LANE":" ","ALLEY":" ","HOUSE_NO":"４１６號","E_COORD97":169428.82999999999,"N_COORD97":2541652.4199999999,"ADDRESS":"大同路二段４１６號","OBJECTID":264234},"geometry":{"x":169428.83000000101,"y":2541652.4200000018}},{"attributes":{"ID":264239,"DIS_CODE":0,"TOWNNAME":"北區","LI":"和順里","LIN":"24鄰","STREET":"西門路","SECT":"三段","MAREA":" ","LANE":"４５巷","ALLEY":" ","HOUSE_NO":"４０號","E_COORD97":168142.34,"N_COORD97":2544737.23,"ADDRESS":"西門路三段４５巷４０號","OBJECTID":264235},"geometry":{"x":168142.33999999985,"y":2544737.2300000004}},{"attributes":{"ID":264240,"DIS_CODE":0,"TOWNNAME":"北區","LI":"和順里","LIN":"24鄰","STREET":"西門路","SECT":"三段","MAREA":" ","LANE":"４５巷","ALLEY":" ","HOUSE_NO":"３６號","E_COORD97":168155.03,"N_COORD97":2544740.4199999999,"ADDRESS":"西門路三段４５巷３６號","OBJECTID":264236},"geometry":{"x":168155.03000000026,"y":2544740.4200000018}},{"attributes":{"ID":264241,"DIS_CODE":0,"TOWNNAME":"南區","LI":"大林里","LIN":"4鄰","STREET":"大同路","SECT":"二段","MAREA":" ","LANE":" ","ALLEY":" ","HOUSE_NO":"４１８號","E_COORD97":169429.45999999999,"N_COORD97":2541649.8799999999,"ADDRESS":"大同路二段４１８號","OBJECTID":264237},"geometry":{"x":169429.46000000089,"y":2541649.879999999}},{"attributes":{"ID":264242,"DIS_CODE":0,"TOWNNAME":"歸仁區","LI":"許厝里","LIN":"24鄰","STREET":"大仁街","SECT":" ","MAREA":" ","LANE":"１２６巷","ALLEY":" ","HOUSE_NO":"４１號","E_COORD97":178229.12,"N_COORD97":2540900.1099999999,"ADDRESS":"大仁街１２６巷４１號","OBJECTID":264238},"geometry":{"x":178229.12000000011,"y":2540900.1099999975}},{"attributes":{"ID":264243,"DIS_CODE":0,"TOWNNAME":"南區","LI":"大林里","LIN":"4鄰","STREET":"大同路","SECT":"二段","MAREA":" ","LANE":" ","ALLEY":" ","HOUSE_NO":"４２０號","E_COORD97":169430.42000000001,"N_COORD97":2541647.5,"ADDRESS":"大同路二段４２０號","OBJECTID":264239},"geometry":{"x":169430.41999999993,"y":2541647.5000000037}},{"attributes":{"ID":264244,"DIS_CODE":0,"TOWNNAME":"歸仁區","LI":"許厝里","LIN":"24鄰","STREET":"大仁街","SECT":" ","MAREA":" ","LANE":"１２６巷","ALLEY":" ","HOUSE_NO":"１５號","E_COORD97":178214.01999999999,"N_COORD97":2540960.1099999999,"ADDRESS":"大仁街１２６巷１５號","OBJECTID":264240},"geometry":{"x":178214.01999999955,"y":2540960.1099999994}},{"attributes":{"ID":264245,"DIS_CODE":0,"TOWNNAME":"歸仁區","LI":"大廟里","LIN":"24鄰","STREET":"大廟一街","SECT":" ","MAREA":" ","LANE":"１５６巷","ALLEY":" ","HOUSE_NO":"３７號","E_COORD97":175534.87,"N_COORD97":2543772.25,"ADDRESS":"大廟一街１５６巷３７號","OBJECTID":264241},"geometry":{"x":175534.87000000104,"y":2543772.2500000019}},{"attributes":{"ID":264246,"DIS_CODE":0,"TOWNNAME":"南區","LI":"大林里","LIN":"4鄰","STREET":"大同路","SECT":"二段","MAREA":" ","LANE":" ","ALLEY":" ","HOUSE_NO":"４２２號","E_COORD97":169430.89000000001,"N_COORD97":2541645.2799999998,"ADDRESS":"大同路二段４２２號","OBJECTID":264242},"geometry":{"x":169430.89000000153,"y":2541645.2800000012}},{"attributes":{"ID":264247,"DIS_CODE":0,"TOWNNAME":"南區","LI":"大林里","LIN":"4鄰","STREET":"大同路","SECT":"二段","MAREA":" ","LANE":" ","ALLEY":" ","HOUSE_NO":"４２８號","E_COORD97":169423.23999999999,"N_COORD97":2541626.0699999998,"ADDRESS":"大同路二段４２８號","OBJECTID":264243},"geometry":{"x":169423.24000000022,"y":2541626.0700000003}},{"attributes":{"ID":264248,"DIS_CODE":0,"TOWNNAME":"麻豆區","LI":"大埕里","LIN":"6鄰","STREET":"文昌路","SECT":" ","MAREA":" ","LANE":" ","ALLEY":" ","HOUSE_NO":"３１號之９","E_COORD97":173538.29000000001,"N_COORD97":2565167.8700000001,"ADDRESS":"文昌路３１號之９","OBJECTID":264244},"geometry":{"x":173538.29000000097,"y":2565167.870000001}},{"attributes":{"ID":264249,"DIS_CODE":0,"TOWNNAME":"南區","LI":"郡南里","LIN":"20鄰","STREET":"中華南路","SECT":"二段","MAREA":" ","LANE":" ","ALLEY":" ","HOUSE_NO":"６６號","E_COORD97":167344.22,"N_COORD97":2540328.02,"ADDRESS":"中華南路二段６６號","OBJECTID":264245},"geometry":{"x":167344.22000000067,"y":2540328.0200000033}},{"attributes":{"ID":264250,"DIS_CODE":0,"TOWNNAME":"東區","LI":"富強里","LIN":"22鄰","STREET":"富強二街","SECT":" ","MAREA":" ","LANE":" ","ALLEY":" ","HOUSE_NO":"７號三樓","E_COORD97":170999.60000000001,"N_COORD97":2542521.6499999999,"ADDRESS":"富強二街７號三樓","OBJECTID":264246},"geometry":{"x":170999.60000000056,"y":2542521.6500000041}},{"attributes":{"ID":264251,"DIS_CODE":0,"TOWNNAME":"南區","LI":"文南里","LIN":"26鄰","STREET":"中華西路","SECT":"一段","MAREA":" ","LANE":" ","ALLEY":" ","HOUSE_NO":"２７１號","E_COORD97":166558.62,"N_COORD97":2542837.5899999999,"ADDRESS":"中華西路一段２７１號","OBJECTID":264247},"geometry":{"x":166558.62000000104,"y":2542837.5900000017}},{"attributes":{"ID":264252,"DIS_CODE":0,"TOWNNAME":"永康區","LI":"網寮里","LIN":"4鄰","STREET":"永二街","SECT":" ","MAREA":" ","LANE":" ","ALLEY":" ","HOUSE_NO":"１３４號","E_COORD97":173476.78,"N_COORD97":2546411.02,"ADDRESS":"永二街１３４號","OBJECTID":264248},"geometry":{"x":173476.78000000026,"y":2546411.0200000014}},{"attributes":{"ID":264253,"DIS_CODE":0,"TOWNNAME":"新市區","LI":"新和里","LIN":"22鄰","STREET":" ","SECT":" ","MAREA":"社皮","LANE":" ","ALLEY":" ","HOUSE_NO":"１３號","E_COORD97":177051.09,"N_COORD97":2552509.5499999998,"ADDRESS":"社皮１３號","OBJECTID":264249},"geometry":{"x":177051.08999999985,"y":2552509.5500000007}},{"attributes":{"ID":264254,"DIS_CODE":0,"TOWNNAME":"歸仁區","LI":"八甲里","LIN":"24鄰","STREET":"大德路","SECT":" ","MAREA":" ","LANE":"１２０巷","ALLEY":" ","HOUSE_NO":"３０號","E_COORD97":178120.64000000001,"N_COORD97":2541395.25,"ADDRESS":"大德路１２０巷３０號","OBJECTID":264250},"geometry":{"x":178120.6400000006,"y":2541395.2500000037}},{"attributes":{"ID":264255,"DIS_CODE":0,"TOWNNAME":"歸仁區","LI":"八甲里","LIN":"24鄰","STREET":"大德路","SECT":" ","MAREA":" ","LANE":"１２０巷","ALLEY":" ","HOUSE_NO":"３５號","E_COORD97":178110.64000000001,"N_COORD97":2541434.25,"ADDRESS":"大德路１２０巷３５號","OBJECTID":264251},"geometry":{"x":178110.6400000006,"y":2541434.25}},{"attributes":{"ID":264256,"DIS_CODE":0,"TOWNNAME":"歸仁區","LI":"八甲里","LIN":"24鄰","STREET":"大德路","SECT":" ","MAREA":" ","LANE":"１２０巷","ALLEY":" ","HOUSE_NO":"２６號","E_COORD97":178121.64000000001,"N_COORD97":2541380.2400000002,"ADDRESS":"大德路１２０巷２６號","OBJECTID":264252},"geometry":{"x":178121.63999999966,"y":2541380.2400000002}},{"attributes":{"ID":264257,"DIS_CODE":0,"TOWNNAME":"歸仁區","LI":"大廟里","LIN":"24鄰","STREET":"大廟一街","SECT":" ","MAREA":" ","LANE":"１５６巷","ALLEY":" ","HOUSE_NO":"２５之１號","E_COORD97":175587.57000000001,"N_COORD97":2543765.2999999998,"ADDRESS":"大廟一街１５６巷２５之１號","OBJECTID":264253},"geometry":{"x":175587.57000000123,"y":2543765.3000000045}},{"attributes":{"ID":264258,"DIS_CODE":0,"TOWNNAME":"學甲區","LI":"慈福里","LIN":"24鄰","STREET":"華宗路","SECT":" ","MAREA":" ","LANE":"３９３巷","ALLEY":" ","HOUSE_NO":"４號","E_COORD97":166286.87,"N_COORD97":2570338.2200000002,"ADDRESS":"華宗路３９３巷４號","OBJECTID":264254},"geometry":{"x":166286.87000000197,"y":2570338.2200000007}},{"attributes":{"ID":264259,"DIS_CODE":0,"TOWNNAME":"北區","LI":"文元里","LIN":"24鄰","STREET":"文成三路","SECT":" ","MAREA":" ","LANE":"６８２巷","ALLEY":" ","HOUSE_NO":"３３號","E_COORD97":167924.39999999999,"N_COORD97":2546400.5899999999,"ADDRESS":"文成三路６８２巷３３號","OBJECTID":264255},"geometry":{"x":167924.39999999944,"y":2546400.5900000017}},{"attributes":{"ID":264260,"DIS_CODE":0,"TOWNNAME":"北區","LI":"文元里","LIN":"24鄰","STREET":"文成三路","SECT":" ","MAREA":" ","LANE":"６８２巷","ALLEY":" ","HOUSE_NO":"３５號","E_COORD97":167924.01999999999,"N_COORD97":2546404.52,"ADDRESS":"文成三路６８２巷３５號","OBJECTID":264256},"geometry":{"x":167924.01999999955,"y":2546404.5200000014}},{"attributes":{"ID":264261,"DIS_CODE":0,"TOWNNAME":"北區","LI":"文元里","LIN":"24鄰","STREET":"文成三路","SECT":" ","MAREA":" ","LANE":"６８２巷","ALLEY":" ","HOUSE_NO":"３７號","E_COORD97":167923.76999999999,"N_COORD97":2546408.46,"ADDRESS":"文成三路６８２巷３７號","OBJECTID":264257},"geometry":{"x":167923.76999999955,"y":2546408.4600000009}},{"attributes":{"ID":264262,"DIS_CODE":0,"TOWNNAME":"北區","LI":"文元里","LIN":"24鄰","STREET":"文成三路","SECT":" ","MAREA":" ","LANE":"６８２巷","ALLEY":" ","HOUSE_NO":"３９號","E_COORD97":167923.51000000001,"N_COORD97":2546414.1699999999,"ADDRESS":"文成三路６８２巷３９號","OBJECTID":264258},"geometry":{"x":167923.51000000071,"y":2546414.1700000018}},{"attributes":{"ID":264263,"DIS_CODE":0,"TOWNNAME":"北區","LI":"文元里","LIN":"24鄰","STREET":"文成三路","SECT":" ","MAREA":" ","LANE":"６８２巷","ALLEY":" ","HOUSE_NO":"４３號","E_COORD97":167924.34,"N_COORD97":2546427.3300000001,"ADDRESS":"文成三路６８２巷４３號","OBJECTID":264259},"geometry":{"x":167924.34000000171,"y":2546427.3300000019}},{"attributes":{"ID":264264,"DIS_CODE":0,"TOWNNAME":"北區","LI":"文元里","LIN":"24鄰","STREET":"文成三路","SECT":" ","MAREA":" ","LANE":"６８２巷","ALLEY":" ","HOUSE_NO":"４５號","E_COORD97":167924.09,"N_COORD97":2546431.8999999999,"ADDRESS":"文成三路６８２巷４５號","OBJECTID":264260},"geometry":{"x":167924.08999999985,"y":2546431.9000000004}},{"attributes":{"ID":264265,"DIS_CODE":0,"TOWNNAME":"北區","LI":"文元里","LIN":"24鄰","STREET":"文成三路","SECT":" ","MAREA":" ","LANE":"６８２巷","ALLEY":" ","HOUSE_NO":"４７號","E_COORD97":167923.82999999999,"N_COORD97":2546436.7200000002,"ADDRESS":"文成三路６８２巷４７號","OBJECTID":264261},"geometry":{"x":167923.83000000007,"y":2546436.7200000007}},{"attributes":{"ID":264266,"DIS_CODE":0,"TOWNNAME":"北區","LI":"文元里","LIN":"24鄰","STREET":"文成三路","SECT":" ","MAREA":" ","LANE":"６８２巷","ALLEY":" ","HOUSE_NO":"４９號","E_COORD97":167923.57999999999,"N_COORD97":2546441.7999999998,"ADDRESS":"文成三路６８２巷４９號","OBJECTID":264262},"geometry":{"x":167923.58000000101,"y":2546441.8000000026}},{"attributes":{"ID":264267,"DIS_CODE":0,"TOWNNAME":"北區","LI":"文元里","LIN":"24鄰","STREET":"文賢路","SECT":" ","MAREA":" ","LANE":"１１２２巷","ALLEY":" ","HOUSE_NO":"２５６號","E_COORD97":167870.10999999999,"N_COORD97":2546451.96,"ADDRESS":"文賢路１１２２巷２５６號","OBJECTID":264263},"geometry":{"x":167870.11000000034,"y":2546451.9600000009}},{"attributes":{"ID":264268,"DIS_CODE":0,"TOWNNAME":"北區","LI":"文元里","LIN":"24鄰","STREET":"文賢路","SECT":" ","MAREA":" ","LANE":"１１２２巷","ALLEY":" ","HOUSE_NO":"２５８號","E_COORD97":167873.29000000001,"N_COORD97":2546455.27,"ADDRESS":"文賢路１１２２巷２５８號","OBJECTID":264264},"geometry":{"x":167873.29000000004,"y":2546455.2699999996}},{"attributes":{"ID":264269,"DIS_CODE":0,"TOWNNAME":"北區","LI":"文元里","LIN":"24鄰","STREET":"文賢路","SECT":" ","MAREA":" ","LANE":"１１２２巷","ALLEY":" ","HOUSE_NO":"２６０號","E_COORD97":167876.72,"N_COORD97":2546452.2200000002,"ADDRESS":"文賢路１１２２巷２６０號","OBJECTID":264265},"geometry":{"x":167876.72000000067,"y":2546452.2200000025}},{"attributes":{"ID":264270,"DIS_CODE":0,"TOWNNAME":"北區","LI":"文元里","LIN":"24鄰","STREET":"文賢路","SECT":" ","MAREA":" ","LANE":"１１２２巷","ALLEY":" ","HOUSE_NO":"２６２號","E_COORD97":167880.26999999999,"N_COORD97":2546456.02,"ADDRESS":"文賢路１１２２巷２６２號","OBJECTID":264266},"geometry":{"x":167880.26999999955,"y":2546456.0200000014}},{"attributes":{"ID":264271,"DIS_CODE":0,"TOWNNAME":"北區","LI":"文元里","LIN":"24鄰","STREET":"文賢路","SECT":" ","MAREA":" ","LANE":"１１２２巷","ALLEY":" ","HOUSE_NO":"２６６號","E_COORD97":167885.35000000001,"N_COORD97":2546452.73,"ADDRESS":"文賢路１１２２巷２６６號","OBJECTID":264267},"geometry":{"x":167885.35000000056,"y":2546452.7300000004}},{"attributes":{"ID":264272,"DIS_CODE":0,"TOWNNAME":"永康區","LI":"三合里","LIN":"24鄰","STREET":"南工街","SECT":" ","MAREA":" ","LANE":"２６７巷","ALLEY":" ","HOUSE_NO":"５８號十一樓之１","E_COORD97":171831.75,"N_COORD97":2545838.54,"ADDRESS":"南工街２６７巷５８號十一樓之１","OBJECTID":264268},"geometry":{"x":171831.75,"y":2545838.540000001}},{"attributes":{"ID":264273,"DIS_CODE":0,"TOWNNAME":"永康區","LI":"三合里","LIN":"24鄰","STREET":"南工街","SECT":" ","MAREA":" ","LANE":"２６７巷","ALLEY":" ","HOUSE_NO":"４６號八樓之５","E_COORD97":171855.39999999999,"N_COORD97":2545843.79,"ADDRESS":"南工街２６７巷４６號八樓之５","OBJECTID":264269},"geometry":{"x":171855.40000000037,"y":2545843.7899999991}},{"attributes":{"ID":264274,"DIS_CODE":0,"TOWNNAME":"永康區","LI":"三合里","LIN":"24鄰","STREET":"南工街","SECT":" ","MAREA":" ","LANE":"２６７巷","ALLEY":" ","HOUSE_NO":"５８號七樓之５","E_COORD97":171830.66,"N_COORD97":2545838.54,"ADDRESS":"南工街２６７巷５８號七樓之５","OBJECTID":264270},"geometry":{"x":171830.66000000108,"y":2545838.540000001}},{"attributes":{"ID":264275,"DIS_CODE":0,"TOWNNAME":"中西區","LI":"西賢里","LIN":"22鄰","STREET":"西賢一街","SECT":" ","MAREA":" ","LANE":" ","ALLEY":" ","HOUSE_NO":"２４７號","E_COORD97":165671.51999999999,"N_COORD97":2545054.0800000001,"ADDRESS":"西賢一街２４７號","OBJECTID":264271},"geometry":{"x":165671.51999999862,"y":2545054.0800000001}},{"attributes":{"ID":264276,"DIS_CODE":0,"TOWNNAME":"中西區","LI":"西賢里","LIN":"22鄰","STREET":"和緯路","SECT":"五段","MAREA":" ","LANE":" ","ALLEY":" ","HOUSE_NO":"３６５號","E_COORD97":165660.35999999999,"N_COORD97":2545077,"ADDRESS":"和緯路五段３６５號","OBJECTID":264272},"geometry":{"x":165660.36000000127,"y":2545077}},{"attributes":{"ID":264277,"DIS_CODE":0,"TOWNNAME":"中西區","LI":"西賢里","LIN":"22鄰","STREET":"和緯路","SECT":"五段","MAREA":" ","LANE":" ","ALLEY":" ","HOUSE_NO":"３６７號","E_COORD97":165637.10999999999,"N_COORD97":2545080.8599999999,"ADDRESS":"和緯路五段３６７號","OBJECTID":264273},"geometry":{"x":165637.11000000034,"y":2545080.8599999994}},{"attributes":{"ID":264278,"DIS_CODE":0,"TOWNNAME":"永康區","LI":"龍潭里","LIN":"22鄰","STREET":"龍安街","SECT":" ","MAREA":" ","LANE":" ","ALLEY":" ","HOUSE_NO":"２７３號","E_COORD97":174806.48000000001,"N_COORD97":2548667.2200000002,"ADDRESS":"龍安街２７３號","OBJECTID":264274},"geometry":{"x":174806.48000000231,"y":2548667.2200000007}},{"attributes":{"ID":264279,"DIS_CODE":0,"TOWNNAME":"永康區","LI":"龍潭里","LIN":"22鄰","STREET":"龍安街","SECT":" ","MAREA":" ","LANE":" ","ALLEY":" ","HOUSE_NO":"２７５號","E_COORD97":174812.13,"N_COORD97":2548675.1400000001,"ADDRESS":"龍安街２７５號","OBJECTID":264275},"geometry":{"x":174812.13000000082,"y":2548675.1400000006}},{"attributes":{"ID":264280,"DIS_CODE":0,"TOWNNAME":"永康區","LI":"三合里","LIN":"24鄰","STREET":"南工街","SECT":" ","MAREA":" ","LANE":"２６７巷","ALLEY":" ","HOUSE_NO":"５８號六樓之２","E_COORD97":171830.64000000001,"N_COORD97":2545838.54,"ADDRESS":"南工街２６７巷５８號六樓之２","OBJECTID":264276},"geometry":{"x":171830.63999999966,"y":2545838.540000001}},{"attributes":{"ID":264281,"DIS_CODE":0,"TOWNNAME":"新化區","LI":"東榮里","LIN":"22鄰","STREET":"和平街","SECT":" ","MAREA":" ","LANE":" ","ALLEY":" ","HOUSE_NO":"１１號","E_COORD97":179356.76999999999,"N_COORD97":2548168.25,"ADDRESS":"和平街１１號","OBJECTID":264277},"geometry":{"x":179356.76999999862,"y":2548168.25}},{"attributes":{"ID":264282,"DIS_CODE":0,"TOWNNAME":"永康區","LI":"三合里","LIN":"24鄰","STREET":"南工街","SECT":" ","MAREA":" ","LANE":"２６７巷","ALLEY":" ","HOUSE_NO":"５８號九樓之１","E_COORD97":171830.5,"N_COORD97":2545838.54,"ADDRESS":"南工街２６７巷５８號九樓之１","OBJECTID":264278},"geometry":{"x":171830.5,"y":2545838.540000001}},{"attributes":{"ID":264283,"DIS_CODE":0,"TOWNNAME":"永康區","LI":"三合里","LIN":"24鄰","STREET":"南工街","SECT":" ","MAREA":" ","LANE":"２６７巷","ALLEY":" ","HOUSE_NO":"５８號九樓之５","E_COORD97":171830.66,"N_COORD97":2545838.54,"ADDRESS":"南工街２６７巷５８號九樓之５","OBJECTID":264279},"geometry":{"x":171830.66000000108,"y":2545838.540000001}},{"attributes":{"ID":264284,"DIS_CODE":0,"TOWNNAME":"永康區","LI":"三合里","LIN":"24鄰","STREET":"南工街","SECT":" ","MAREA":" ","LANE":"２６７巷","ALLEY":" ","HOUSE_NO":"５８號十一樓之２","E_COORD97":171831.89000000001,"N_COORD97":2545838.54,"ADDRESS":"南工街２６７巷５８號十一樓之２","OBJECTID":264280},"geometry":{"x":171831.8900000006,"y":2545838.540000001}},{"attributes":{"ID":264285,"DIS_CODE":0,"TOWNNAME":"中西區","LI":"西湖里","LIN":"24鄰","STREET":"湖美街","SECT":" ","MAREA":" ","LANE":"７０巷","ALLEY":" ","HOUSE_NO":"６號九樓之２","E_COORD97":165954.35999999999,"N_COORD97":2544744.1899999999,"ADDRESS":"湖美街７０巷６號九樓之２","OBJECTID":264281},"geometry":{"x":165954.36000000034,"y":2544744.1899999995}},{"attributes":{"ID":264286,"DIS_CODE":0,"TOWNNAME":"中西區","LI":"西湖里","LIN":"24鄰","STREET":"湖美街","SECT":" ","MAREA":" ","LANE":"７０巷","ALLEY":" ","HOUSE_NO":"６號九樓之３","E_COORD97":165947.67999999999,"N_COORD97":2544736.4399999999,"ADDRESS":"湖美街７０巷６號九樓之３","OBJECTID":264282},"geometry":{"x":165947.68000000063,"y":2544736.4400000013}},{"attributes":{"ID":264287,"DIS_CODE":0,"TOWNNAME":"中西區","LI":"西湖里","LIN":"24鄰","STREET":"湖美街","SECT":" ","MAREA":" ","LANE":"７０巷","ALLEY":" ","HOUSE_NO":"６號九樓之５","E_COORD97":165947.94,"N_COORD97":2544728.96,"ADDRESS":"湖美街７０巷６號九樓之５","OBJECTID":264283},"geometry":{"x":165947.94000000134,"y":2544728.9600000028}},{"attributes":{"ID":264288,"DIS_CODE":0,"TOWNNAME":"中西區","LI":"西湖里","LIN":"24鄰","STREET":"湖美街","SECT":" ","MAREA":" ","LANE":"７０巷","ALLEY":" ","HOUSE_NO":"６號十樓之１","E_COORD97":165965.32999999999,"N_COORD97":2544744.7200000002,"ADDRESS":"湖美街７０巷６號十樓之１","OBJECTID":264284},"geometry":{"x":165965.33000000101,"y":2544744.7200000007}},{"attributes":{"ID":264289,"DIS_CODE":0,"TOWNNAME":"中西區","LI":"西湖里","LIN":"24鄰","STREET":"湖美街","SECT":" ","MAREA":" ","LANE":"７０巷","ALLEY":" ","HOUSE_NO":"６號十樓之２","E_COORD97":165954.35999999999,"N_COORD97":2544744.1899999999,"ADDRESS":"湖美街７０巷６號十樓之２","OBJECTID":264285},"geometry":{"x":165954.36000000034,"y":2544744.1899999995}},{"attributes":{"ID":264290,"DIS_CODE":0,"TOWNNAME":"中西區","LI":"西湖里","LIN":"24鄰","STREET":"湖美街","SECT":" ","MAREA":" ","LANE":"７０巷","ALLEY":" ","HOUSE_NO":"６號十樓之３","E_COORD97":165947.67999999999,"N_COORD97":2544736.4399999999,"ADDRESS":"湖美街７０巷６號十樓之３","OBJECTID":264286},"geometry":{"x":165947.68000000063,"y":2544736.4400000013}},{"attributes":{"ID":264291,"DIS_CODE":0,"TOWNNAME":"中西區","LI":"西湖里","LIN":"24鄰","STREET":"湖美街","SECT":" ","MAREA":" ","LANE":"７０巷","ALLEY":" ","HOUSE_NO":"６號十樓之５","E_COORD97":165947.94,"N_COORD97":2544728.96,"ADDRESS":"湖美街７０巷６號十樓之５","OBJECTID":264287},"geometry":{"x":165947.94000000134,"y":2544728.9600000028}},{"attributes":{"ID":264292,"DIS_CODE":0,"TOWNNAME":"北區","LI":"五福里","LIN":"11鄰","STREET":"成功路","SECT":" ","MAREA":" ","LANE":"２３８巷","ALLEY":" ","HOUSE_NO":"２號","E_COORD97":168293.48999999999,"N_COORD97":2544426.8900000001,"ADDRESS":"成功路２３８巷２號","OBJECTID":264288},"geometry":{"x":168293.49000000115,"y":2544426.8900000025}},{"attributes":{"ID":264293,"DIS_CODE":0,"TOWNNAME":"新化區","LI":"東榮里","LIN":"22鄰","STREET":"復興路","SECT":" ","MAREA":" ","LANE":" ","ALLEY":" ","HOUSE_NO":"２２９號之１","E_COORD97":179372.75,"N_COORD97":2548134.2599999998,"ADDRESS":"復興路２２９號之１","OBJECTID":264289},"geometry":{"x":179372.75000000186,"y":2548134.2599999998}},{"attributes":{"ID":264294,"DIS_CODE":0,"TOWNNAME":"新化區","LI":"東榮里","LIN":"22鄰","STREET":"復興路","SECT":" ","MAREA":" ","LANE":" ","ALLEY":" ","HOUSE_NO":"２３１號之４","E_COORD97":179372.76000000001,"N_COORD97":2548134.2599999998,"ADDRESS":"復興路２３１號之４","OBJECTID":264290},"geometry":{"x":179372.76000000071,"y":2548134.2599999998}},{"attributes":{"ID":264295,"DIS_CODE":0,"TOWNNAME":"新化區","LI":"東榮里","LIN":"22鄰","STREET":"復興路","SECT":" ","MAREA":" ","LANE":" ","ALLEY":" ","HOUSE_NO":"２１５號","E_COORD97":179363.72,"N_COORD97":2548087.25,"ADDRESS":"復興路２１５號","OBJECTID":264291},"geometry":{"x":179363.71999999974,"y":2548087.25}},{"attributes":{"ID":264296,"DIS_CODE":0,"TOWNNAME":"永康區","LI":"尚頂里","LIN":"22鄰","STREET":"中華路","SECT":" ","MAREA":" ","LANE":" ","ALLEY":" ","HOUSE_NO":"９７６號","E_COORD97":170343.16,"N_COORD97":2546804.4900000002,"ADDRESS":"中華路９７６號","OBJECTID":264292},"geometry":{"x":170343.15999999922,"y":2546804.4899999984}},{"attributes":{"ID":264297,"DIS_CODE":0,"TOWNNAME":"南區","LI":"府南里","LIN":"11鄰","STREET":"永成路","SECT":"三段","MAREA":" ","LANE":" ","ALLEY":" ","HOUSE_NO":"４５８號","E_COORD97":167509.69,"N_COORD97":2541144.9500000002,"ADDRESS":"永成路三段４５８號","OBJECTID":264293},"geometry":{"x":167509.69000000134,"y":2541144.9499999993}},{"attributes":{"ID":264298,"DIS_CODE":0,"TOWNNAME":"後壁區","LI":"後壁里","LIN":"1鄰","STREET":" ","SECT":" ","MAREA":"後壁","LANE":" ","ALLEY":" ","HOUSE_NO":"１３號","E_COORD97":184712.98000000001,"N_COORD97":2584935.0800000001,"ADDRESS":"後壁１３號","OBJECTID":264294},"geometry":{"x":184712.98000000045,"y":2584935.0800000001}},{"attributes":{"ID":264299,"DIS_CODE":0,"TOWNNAME":"永康區","LI":"尚頂里","LIN":"22鄰","STREET":"大武街","SECT":" ","MAREA":" ","LANE":" ","ALLEY":" ","HOUSE_NO":"７３號","E_COORD97":170391.23999999999,"N_COORD97":2546842.75,"ADDRESS":"大武街７３號","OBJECTID":264295},"geometry":{"x":170391.24000000022,"y":2546842.75}},{"attributes":{"ID":264300,"DIS_CODE":0,"TOWNNAME":"永康區","LI":"正強里","LIN":"22鄰","STREET":"自強路","SECT":" ","MAREA":" ","LANE":" ","ALLEY":" ","HOUSE_NO":"３２５號","E_COORD97":173452.22,"N_COORD97":2547740.4900000002,"ADDRESS":"自強路３２５號","OBJECTID":264296},"geometry":{"x":173452.21999999974,"y":2547740.4900000039}},{"attributes":{"ID":264301,"DIS_CODE":0,"TOWNNAME":"永康區","LI":"崑山里","LIN":"22鄰","STREET":"國光一街","SECT":" ","MAREA":" ","LANE":" ","ALLEY":" ","HOUSE_NO":"２８號","E_COORD97":173974.31,"N_COORD97":2544598.8100000001,"ADDRESS":"國光一街２８號","OBJECTID":264297},"geometry":{"x":173974.30999999866,"y":2544598.8099999987}},{"attributes":{"ID":264302,"DIS_CODE":0,"TOWNNAME":"永康區","LI":"崑山里","LIN":"22鄰","STREET":"國光二街","SECT":" ","MAREA":" ","LANE":" ","ALLEY":" ","HOUSE_NO":"７號","E_COORD97":174075.39000000001,"N_COORD97":2544652.8399999999,"ADDRESS":"國光二街７號","OBJECTID":264298},"geometry":{"x":174075.38999999966,"y":2544652.8400000017}},{"attributes":{"ID":264303,"DIS_CODE":0,"TOWNNAME":"永康區","LI":"三合里","LIN":"24鄰","STREET":"南工街","SECT":" ","MAREA":" ","LANE":"２６７巷","ALLEY":" ","HOUSE_NO":"４６號三樓之１","E_COORD97":171855.23999999999,"N_COORD97":2545843.79,"ADDRESS":"南工街２６７巷４６號三樓之１","OBJECTID":264299},"geometry":{"x":171855.24000000115,"y":2545843.7899999991}},{"attributes":{"ID":264304,"DIS_CODE":0,"TOWNNAME":"永康區","LI":"網寮里","LIN":"22鄰","STREET":"永勝街","SECT":" ","MAREA":" ","LANE":" ","ALLEY":" ","HOUSE_NO":"５０號","E_COORD97":173631.42000000001,"N_COORD97":2546252.6800000002,"ADDRESS":"永勝街５０號","OBJECTID":264300},"geometry":{"x":173631.41999999993,"y":2546252.6799999997}},{"attributes":{"ID":264305,"DIS_CODE":0,"TOWNNAME":"東區","LI":"自強里","LIN":"22鄰","STREET":"富農街","SECT":"一段","MAREA":" ","LANE":" ","ALLEY":" ","HOUSE_NO":"１４３號","E_COORD97":171537.37,"N_COORD97":2542506.5299999998,"ADDRESS":"富農街一段１４３號","OBJECTID":264301},"geometry":{"x":171537.37000000104,"y":2542506.5299999993}},{"attributes":{"ID":264306,"DIS_CODE":0,"TOWNNAME":"永康區","LI":"三合里","LIN":"24鄰","STREET":"南工街","SECT":" ","MAREA":" ","LANE":"２６７巷","ALLEY":" ","HOUSE_NO":"５８號二樓之１","E_COORD97":171830.5,"N_COORD97":2545838.54,"ADDRESS":"南工街２６７巷５８號二樓之１","OBJECTID":264302},"geometry":{"x":171830.5,"y":2545838.540000001}},{"attributes":{"ID":264307,"DIS_CODE":0,"TOWNNAME":"永康區","LI":"三合里","LIN":"24鄰","STREET":"南工街","SECT":" ","MAREA":" ","LANE":"２６７巷","ALLEY":" ","HOUSE_NO":"６６號五樓之２","E_COORD97":171848.04000000001,"N_COORD97":2545837.79,"ADDRESS":"南工街２６７巷６６號五樓之２","OBJECTID":264303},"geometry":{"x":171848.04000000097,"y":2545837.7899999991}},{"attributes":{"ID":264308,"DIS_CODE":0,"TOWNNAME":"永康區","LI":"三合里","LIN":"24鄰","STREET":"南工街","SECT":" ","MAREA":" ","LANE":"２６７巷","ALLEY":" ","HOUSE_NO":"５８號七樓之２","E_COORD97":171830.64000000001,"N_COORD97":2545838.54,"ADDRESS":"南工街２６７巷５８號七樓之２","OBJECTID":264304},"geometry":{"x":171830.63999999966,"y":2545838.540000001}},{"attributes":{"ID":264309,"DIS_CODE":0,"TOWNNAME":"永康區","LI":"三合里","LIN":"24鄰","STREET":"南工街","SECT":" ","MAREA":" ","LANE":"３１１巷","ALLEY":" ","HOUSE_NO":"７９號十樓之２","E_COORD97":171800.26000000001,"N_COORD97":2545806.7999999998,"ADDRESS":"南工街３１１巷７９號十樓之２","OBJECTID":264305},"geometry":{"x":171800.26000000071,"y":2545806.8000000026}},{"attributes":{"ID":264310,"DIS_CODE":0,"TOWNNAME":"永康區","LI":"三合里","LIN":"24鄰","STREET":"南工街","SECT":" ","MAREA":" ","LANE":"２６７巷","ALLEY":" ","HOUSE_NO":"５８號七樓之３","E_COORD97":171830.60000000001,"N_COORD97":2545838.54,"ADDRESS":"南工街２６７巷５８號七樓之３","OBJECTID":264306},"geometry":{"x":171830.60000000056,"y":2545838.540000001}},{"attributes":{"ID":264311,"DIS_CODE":0,"TOWNNAME":"永康區","LI":"三合里","LIN":"24鄰","STREET":"南工街","SECT":" ","MAREA":" ","LANE":"２６７巷","ALLEY":" ","HOUSE_NO":"４６號七樓之３","E_COORD97":171855.34,"N_COORD97":2545843.79,"ADDRESS":"南工街２６７巷４６號七樓之３","OBJECTID":264307},"geometry":{"x":171855.33999999985,"y":2545843.7899999991}},{"attributes":{"ID":264312,"DIS_CODE":0,"TOWNNAME":"北區","LI":"重興里","LIN":"27鄰","STREET":"東豐路","SECT":" ","MAREA":" ","LANE":"４５１巷","ALLEY":" ","HOUSE_NO":"１０３號","E_COORD97":170823.98999999999,"N_COORD97":2544879.8599999999,"ADDRESS":"東豐路４５１巷１０３號","OBJECTID":264308},"geometry":{"x":170823.99000000022,"y":2544879.8600000013}},{"attributes":{"ID":264313,"DIS_CODE":0,"TOWNNAME":"北區","LI":"重興里","LIN":"27鄰","STREET":"東豐路","SECT":" ","MAREA":" ","LANE":"４５１巷","ALLEY":" ","HOUSE_NO":"１０５號","E_COORD97":170830.04999999999,"N_COORD97":2544889.0899999999,"ADDRESS":"東豐路４５１巷１０５號","OBJECTID":264309},"geometry":{"x":170830.04999999888,"y":2544889.0900000017}},{"attributes":{"ID":264314,"DIS_CODE":0,"TOWNNAME":"北區","LI":"重興里","LIN":"26鄰","STREET":"東豐路","SECT":" ","MAREA":" ","LANE":"４５１巷","ALLEY":" ","HOUSE_NO":"１１７號","E_COORD97":170769.92999999999,"N_COORD97":2544831.73,"ADDRESS":"東豐路４５１巷１１７號","OBJECTID":264310},"geometry":{"x":170769.93000000156,"y":2544831.7300000023}},{"attributes":{"ID":264315,"DIS_CODE":0,"TOWNNAME":"北區","LI":"重興里","LIN":"26鄰","STREET":"東豐路","SECT":" ","MAREA":" ","LANE":"４５１巷","ALLEY":" ","HOUSE_NO":"１１９號","E_COORD97":170774.94,"N_COORD97":2544840.8500000001,"ADDRESS":"東豐路４５１巷１１９號","OBJECTID":264311},"geometry":{"x":170774.94000000041,"y":2544840.8499999996}},{"attributes":{"ID":264316,"DIS_CODE":0,"TOWNNAME":"北區","LI":"重興里","LIN":"26鄰","STREET":"東豐路","SECT":" ","MAREA":" ","LANE":"４５１巷","ALLEY":" ","HOUSE_NO":"１２１號","E_COORD97":170779.5,"N_COORD97":2544847.1699999999,"ADDRESS":"東豐路４５１巷１２１號","OBJECTID":264312},"geometry":{"x":170779.5,"y":2544847.1700000018}},{"attributes":{"ID":264317,"DIS_CODE":0,"TOWNNAME":"北區","LI":"重興里","LIN":"27鄰","STREET":"東豐路","SECT":" ","MAREA":" ","LANE":"４５１巷","ALLEY":" ","HOUSE_NO":"１０７號","E_COORD97":170834.26000000001,"N_COORD97":2544896.8399999999,"ADDRESS":"東豐路４５１巷１０７號","OBJECTID":264313},"geometry":{"x":170834.26000000071,"y":2544896.8400000017}},{"attributes":{"ID":264318,"DIS_CODE":0,"TOWNNAME":"北區","LI":"重興里","LIN":"27鄰","STREET":"東豐路","SECT":" ","MAREA":" ","LANE":"４５１巷","ALLEY":" ","HOUSE_NO":"１０９號","E_COORD97":170839.42999999999,"N_COORD97":2544904.9900000002,"ADDRESS":"東豐路４５１巷１０９號","OBJECTID":264314},"geometry":{"x":170839.43000000156,"y":2544904.9900000002}},{"attributes":{"ID":264319,"DIS_CODE":0,"TOWNNAME":"北區","LI":"重興里","LIN":"27鄰","STREET":"東豐路","SECT":" ","MAREA":" ","LANE":"４５１巷","ALLEY":" ","HOUSE_NO":"１１１號","E_COORD97":170844.70999999999,"N_COORD97":2544913.8599999999,"ADDRESS":"東豐路４５１巷１１１號","OBJECTID":264315},"geometry":{"x":170844.71000000089,"y":2544913.8600000013}},{"attributes":{"ID":264320,"DIS_CODE":0,"TOWNNAME":"北區","LI":"重興里","LIN":"26鄰","STREET":"東豐路","SECT":" ","MAREA":" ","LANE":"４５１巷","ALLEY":" ","HOUSE_NO":"１２３號","E_COORD97":170784.51000000001,"N_COORD97":2544855.2599999998,"ADDRESS":"東豐路４５１巷１２３號","OBJECTID":264316},"geometry":{"x":170784.50999999885,"y":2544855.2599999998}},{"attributes":{"ID":264321,"DIS_CODE":0,"TOWNNAME":"北區","LI":"重興里","LIN":"26鄰","STREET":"東豐路","SECT":" ","MAREA":" ","LANE":"４５１巷","ALLEY":" ","HOUSE_NO":"１２５號","E_COORD97":170788.34,"N_COORD97":2544862.4300000002,"ADDRESS":"東豐路４５１巷１２５號","OBJECTID":264317},"geometry":{"x":170788.34000000078,"y":2544862.4300000016}},{"attributes":{"ID":264322,"DIS_CODE":0,"TOWNNAME":"北區","LI":"重興里","LIN":"26鄰","STREET":"東豐路","SECT":" ","MAREA":" ","LANE":"４５１巷","ALLEY":" ","HOUSE_NO":"１２７號","E_COORD97":170793.20000000001,"N_COORD97":2544870.8100000001,"ADDRESS":"東豐路４５１巷１２７號","OBJECTID":264318},"geometry":{"x":170793.20000000019,"y":2544870.8100000024}},{"attributes":{"ID":264323,"DIS_CODE":0,"TOWNNAME":"東區","LI":"自強里","LIN":"22鄰","STREET":"富農街","SECT":"一段","MAREA":" ","LANE":" ","ALLEY":" ","HOUSE_NO":"１４５號","E_COORD97":171538.23000000001,"N_COORD97":2542511.5499999998,"ADDRESS":"富農街一段１４５號","OBJECTID":264319},"geometry":{"x":171538.23000000231,"y":2542511.5500000007}},{"attributes":{"ID":264324,"DIS_CODE":0,"TOWNNAME":"永康區","LI":"網寮里","LIN":"22鄰","STREET":"永勝街","SECT":" ","MAREA":" ","LANE":" ","ALLEY":" ","HOUSE_NO":"４２號","E_COORD97":173634.03,"N_COORD97":2546240.4300000002,"ADDRESS":"永勝街４２號","OBJECTID":264320},"geometry":{"x":173634.03000000026,"y":2546240.4299999997}},{"attributes":{"ID":264325,"DIS_CODE":0,"TOWNNAME":"永康區","LI":"網寮里","LIN":"22鄰","STREET":"永勝街","SECT":" ","MAREA":" ","LANE":" ","ALLEY":" ","HOUSE_NO":"３８號","E_COORD97":173636.03,"N_COORD97":2546232.4300000002,"ADDRESS":"永勝街３８號","OBJECTID":264321},"geometry":{"x":173636.03000000026,"y":2546232.4300000016}},{"attributes":{"ID":264326,"DIS_CODE":0,"TOWNNAME":"永康區","LI":"尚頂里","LIN":"22鄰","STREET":"大武街","SECT":" ","MAREA":" ","LANE":" ","ALLEY":" ","HOUSE_NO":"６２號","E_COORD97":170390.92999999999,"N_COORD97":2546799.98,"ADDRESS":"大武街６２號","OBJECTID":264322},"geometry":{"x":170390.93000000063,"y":2546799.9800000004}},{"attributes":{"ID":264327,"DIS_CODE":0,"TOWNNAME":"永康區","LI":"三合里","LIN":"22鄰","STREET":"南工街","SECT":" ","MAREA":" ","LANE":" ","ALLEY":" ","HOUSE_NO":"３１３號","E_COORD97":171815.88,"N_COORD97":2546053.8799999999,"ADDRESS":"南工街３１３號","OBJECTID":264323},"geometry":{"x":171815.87999999989,"y":2546053.879999999}},{"attributes":{"ID":264328,"DIS_CODE":0,"TOWNNAME":"永康區","LI":"甲頂里","LIN":"22鄰","STREET":"中正南路","SECT":" ","MAREA":" ","LANE":" ","ALLEY":" ","HOUSE_NO":"４２之１號","E_COORD97":169669.98999999999,"N_COORD97":2546718.98,"ADDRESS":"中正南路４２之１號","OBJECTID":264324},"geometry":{"x":169669.99000000115,"y":2546718.9800000004}},{"attributes":{"ID":264329,"DIS_CODE":0,"TOWNNAME":"北區","LI":"重興里","LIN":"28鄰","STREET":"東豐路","SECT":" ","MAREA":" ","LANE":"４５１巷","ALLEY":" ","HOUSE_NO":"１４５號","E_COORD97":170758,"N_COORD97":2544838.79,"ADDRESS":"東豐路４５１巷１４５號","OBJECTID":264325},"geometry":{"x":170758.00000000093,"y":2544838.790000001}},{"attributes":{"ID":264330,"DIS_CODE":0,"TOWNNAME":"北區","LI":"重興里","LIN":"28鄰","STREET":"東豐路","SECT":" ","MAREA":" ","LANE":"４５１巷","ALLEY":" ","HOUSE_NO":"１４７號","E_COORD97":170762.57000000001,"N_COORD97":2544847.4700000002,"ADDRESS":"東豐路４５１巷１４７號","OBJECTID":264326},"geometry":{"x":170762.5700000003,"y":2544847.4700000007}},{"attributes":{"ID":264331,"DIS_CODE":0,"TOWNNAME":"北區","LI":"重興里","LIN":"28鄰","STREET":"東豐路","SECT":" ","MAREA":" ","LANE":"４５１巷","ALLEY":" ","HOUSE_NO":"１４９號","E_COORD97":170766.98000000001,"N_COORD97":2544854.8199999998,"ADDRESS":"東豐路４５１巷１４９號","OBJECTID":264327},"geometry":{"x":170766.98000000231,"y":2544854.8200000003}},{"attributes":{"ID":264332,"DIS_CODE":0,"TOWNNAME":"永康區","LI":"三合里","LIN":"24鄰","STREET":"南工街","SECT":" ","MAREA":" ","LANE":"２６７巷","ALLEY":" ","HOUSE_NO":"５０號五樓之１","E_COORD97":171844.20000000001,"N_COORD97":2545845.04,"ADDRESS":"南工街２６７巷５０號五樓之１","OBJECTID":264328},"geometry":{"x":171844.20000000019,"y":2545845.040000001}},{"attributes":{"ID":264333,"DIS_CODE":0,"TOWNNAME":"永康區","LI":"三合里","LIN":"24鄰","STREET":"南工街","SECT":" ","MAREA":" ","LANE":"２６７巷","ALLEY":" ","HOUSE_NO":"５０號五樓之３","E_COORD97":171844.29999999999,"N_COORD97":2545845.04,"ADDRESS":"南工街２６７巷５０號五樓之３","OBJECTID":264329},"geometry":{"x":171844.30000000075,"y":2545845.040000001}},{"attributes":{"ID":264334,"DIS_CODE":0,"TOWNNAME":"永康區","LI":"三合里","LIN":"24鄰","STREET":"南工街","SECT":" ","MAREA":" ","LANE":"２６７巷","ALLEY":" ","HOUSE_NO":"５０號二樓之６","E_COORD97":171844.31,"N_COORD97":2545845.04,"ADDRESS":"南工街２６７巷５０號二樓之６","OBJECTID":264330},"geometry":{"x":171844.31000000052,"y":2545845.040000001}},{"attributes":{"ID":264335,"DIS_CODE":0,"TOWNNAME":"北區","LI":"重興里","LIN":"17鄰","STREET":"林森路","SECT":"三段","MAREA":" ","LANE":"１４０巷","ALLEY":" ","HOUSE_NO":"１５號","E_COORD97":170614.54000000001,"N_COORD97":2545008.0800000001,"ADDRESS":"林森路三段１４０巷１５號","OBJECTID":264331},"geometry":{"x":170614.54000000004,"y":2545008.0800000019}},{"attributes":{"ID":264336,"DIS_CODE":0,"TOWNNAME":"六甲區","LI":"二甲里","LIN":"24鄰","STREET":"信義街","SECT":" ","MAREA":" ","LANE":"３１８巷","ALLEY":" ","HOUSE_NO":"４號","E_COORD97":183407.45000000001,"N_COORD97":2569953.6800000002,"ADDRESS":"信義街３１８巷４號","OBJECTID":264332},"geometry":{"x":183407.45000000019,"y":2569953.6800000016}},{"attributes":{"ID":264337,"DIS_CODE":0,"TOWNNAME":"安南區","LI":"鳳凰里","LIN":"24鄰","STREET":"怡安路","SECT":"二段","MAREA":" ","LANE":"５４５巷","ALLEY":" ","HOUSE_NO":"８號七樓","E_COORD97":167508.26000000001,"N_COORD97":2549383.3399999999,"ADDRESS":"怡安路二段５４５巷８號七樓","OBJECTID":264333},"geometry":{"x":167508.26000000071,"y":2549383.3400000017}},{"attributes":{"ID":264338,"DIS_CODE":0,"TOWNNAME":"永康區","LI":"西灣里","LIN":"24鄰","STREET":"國光八街","SECT":" ","MAREA":" ","LANE":"１１巷","ALLEY":" ","HOUSE_NO":"９號四樓","E_COORD97":174414.13,"N_COORD97":2545708.0099999998,"ADDRESS":"國光八街１１巷９號四樓","OBJECTID":264334},"geometry":{"x":174414.13000000082,"y":2545708.0099999998}},{"attributes":{"ID":264339,"DIS_CODE":0,"TOWNNAME":"永康區","LI":"復國里","LIN":"24鄰","STREET":"復華三街","SECT":" ","MAREA":" ","LANE":"９０巷","ALLEY":" ","HOUSE_NO":"１４號五樓之４","E_COORD97":172647.78,"N_COORD97":2545581.7999999998,"ADDRESS":"復華三街９０巷１４號五樓之４","OBJECTID":264335},"geometry":{"x":172647.78000000026,"y":2545581.8000000007}},{"attributes":{"ID":264340,"DIS_CODE":0,"TOWNNAME":"永康區","LI":"復國里","LIN":"24鄰","STREET":"復華三街","SECT":" ","MAREA":" ","LANE":"９０巷","ALLEY":" ","HOUSE_NO":"１４號十一樓之３","E_COORD97":172649.10000000001,"N_COORD97":2545581.7999999998,"ADDRESS":"復華三街９０巷１４號十一樓之３","OBJECTID":264336},"geometry":{"x":172649.10000000056,"y":2545581.8000000007}},{"attributes":{"ID":264341,"DIS_CODE":0,"TOWNNAME":"永康區","LI":"三合里","LIN":"24鄰","STREET":"南工街","SECT":" ","MAREA":" ","LANE":"２６７巷","ALLEY":" ","HOUSE_NO":"５０號八樓之１","E_COORD97":171844.20000000001,"N_COORD97":2545845.04,"ADDRESS":"南工街２６７巷５０號八樓之１","OBJECTID":264337},"geometry":{"x":171844.20000000019,"y":2545845.040000001}},{"attributes":{"ID":264342,"DIS_CODE":0,"TOWNNAME":"永康區","LI":"三合里","LIN":"24鄰","STREET":"南工街","SECT":" ","MAREA":" ","LANE":"２６７巷","ALLEY":" ","HOUSE_NO":"５８號十樓之５","E_COORD97":171830.66,"N_COORD97":2545838.54,"ADDRESS":"南工街２６７巷５８號十樓之５","OBJECTID":264338},"geometry":{"x":171830.66000000108,"y":2545838.540000001}},{"attributes":{"ID":264343,"DIS_CODE":0,"TOWNNAME":"永康區","LI":"三合里","LIN":"24鄰","STREET":"南工街","SECT":" ","MAREA":" ","LANE":"２６７巷","ALLEY":" ","HOUSE_NO":"６６號八樓之３","E_COORD97":171848,"N_COORD97":2545837.79,"ADDRESS":"南工街２６７巷６６號八樓之３","OBJECTID":264339},"geometry":{"x":171848.00000000093,"y":2545837.7899999991}},{"attributes":{"ID":264344,"DIS_CODE":0,"TOWNNAME":"永康區","LI":"三合里","LIN":"24鄰","STREET":"南工街","SECT":" ","MAREA":" ","LANE":"２６７巷","ALLEY":" ","HOUSE_NO":"６６號十一樓之５","E_COORD97":171849.31,"N_COORD97":2545837.79,"ADDRESS":"南工街２６７巷６６號十一樓之５","OBJECTID":264340},"geometry":{"x":171849.31000000052,"y":2545837.7899999991}},{"attributes":{"ID":264345,"DIS_CODE":0,"TOWNNAME":"永康區","LI":"三合里","LIN":"24鄰","STREET":"南工街","SECT":" ","MAREA":" ","LANE":"２６７巷","ALLEY":" ","HOUSE_NO":"６６號二樓之５","E_COORD97":171848.06,"N_COORD97":2545837.79,"ADDRESS":"南工街２６７巷６６號二樓之５","OBJECTID":264341},"geometry":{"x":171848.05999999959,"y":2545837.7899999991}},{"attributes":{"ID":264346,"DIS_CODE":0,"TOWNNAME":"永康區","LI":"網寮里","LIN":"22鄰","STREET":"永勝街","SECT":" ","MAREA":" ","LANE":" ","ALLEY":" ","HOUSE_NO":"６８號","E_COORD97":173619.60000000001,"N_COORD97":2546278.6699999999,"ADDRESS":"永勝街６８號","OBJECTID":264342},"geometry":{"x":173619.59999999963,"y":2546278.6700000018}},{"attributes":{"ID":264347,"DIS_CODE":0,"TOWNNAME":"永康區","LI":"三合里","LIN":"24鄰","STREET":"南工街","SECT":" ","MAREA":" ","LANE":"２６７巷","ALLEY":" ","HOUSE_NO":"５８號三樓之５","E_COORD97":171830.66,"N_COORD97":2545838.54,"ADDRESS":"南工街２６７巷５８號三樓之５","OBJECTID":264343},"geometry":{"x":171830.66000000108,"y":2545838.540000001}},{"attributes":{"ID":264348,"DIS_CODE":0,"TOWNNAME":"永康區","LI":"安康里","LIN":"24鄰","STREET":"中華路","SECT":" ","MAREA":" ","LANE":"７０３巷","ALLEY":" ","HOUSE_NO":"５２號五樓","E_COORD97":170770.67999999999,"N_COORD97":2546278.9900000002,"ADDRESS":"中華路７０３巷５２號五樓","OBJECTID":264344},"geometry":{"x":170770.6799999997,"y":2546278.9899999984}},{"attributes":{"ID":264349,"DIS_CODE":0,"TOWNNAME":"永康區","LI":"三合里","LIN":"24鄰","STREET":"南工街","SECT":" ","MAREA":" ","LANE":"２６７巷","ALLEY":" ","HOUSE_NO":"５０號九樓之１","E_COORD97":171844.20000000001,"N_COORD97":2545845.04,"ADDRESS":"南工街２６７巷５０號九樓之１","OBJECTID":264345},"geometry":{"x":171844.20000000019,"y":2545845.040000001}},{"attributes":{"ID":264350,"DIS_CODE":0,"TOWNNAME":"安平區","LI":"建平里","LIN":"24鄰","STREET":"建平九街","SECT":" ","MAREA":" ","LANE":"６０巷","ALLEY":" ","HOUSE_NO":"３３號四樓之８","E_COORD97":166008.56,"N_COORD97":2543654,"ADDRESS":"建平九街６０巷３３號四樓之８","OBJECTID":264346},"geometry":{"x":166008.55999999959,"y":2543654}},{"attributes":{"ID":264351,"DIS_CODE":0,"TOWNNAME":"安平區","LI":"建平里","LIN":"24鄰","STREET":"建平九街","SECT":" ","MAREA":" ","LANE":"６０巷","ALLEY":" ","HOUSE_NO":"３３號四樓之９","E_COORD97":166008.56,"N_COORD97":2543654,"ADDRESS":"建平九街６０巷３３號四樓之９","OBJECTID":264347},"geometry":{"x":166008.55999999959,"y":2543654}},{"attributes":{"ID":264352,"DIS_CODE":0,"TOWNNAME":"新營區","LI":"民權里","LIN":"24鄰","STREET":"民治路","SECT":" ","MAREA":" ","LANE":"５３巷","ALLEY":" ","HOUSE_NO":"９之２號六樓","E_COORD97":179696.32000000001,"N_COORD97":2578709.3300000001,"ADDRESS":"民治路５３巷９之２號六樓","OBJECTID":264348},"geometry":{"x":179696.32000000216,"y":2578709.3300000019}},{"attributes":{"ID":264353,"DIS_CODE":0,"TOWNNAME":"新營區","LI":"新北里","LIN":"24鄰","STREET":"民生路","SECT":" ","MAREA":" ","LANE":"４２０巷","ALLEY":" ","HOUSE_NO":"４１號三樓之１","E_COORD97":178928.45000000001,"N_COORD97":2579414.02,"ADDRESS":"民生路４２０巷４１號三樓之１","OBJECTID":264349},"geometry":{"x":178928.45000000019,"y":2579414.0200000014}},{"attributes":{"ID":264354,"DIS_CODE":0,"TOWNNAME":"新營區","LI":"民權里","LIN":"24鄰","STREET":"民治路","SECT":" ","MAREA":" ","LANE":"５３巷","ALLEY":" ","HOUSE_NO":"１１之２號三樓","E_COORD97":179683.14999999999,"N_COORD97":2578681.71,"ADDRESS":"民治路５３巷１１之２號三樓","OBJECTID":264350},"geometry":{"x":179683.1500000013,"y":2578681.7100000028}},{"attributes":{"ID":264355,"DIS_CODE":0,"TOWNNAME":"新營區","LI":"民權里","LIN":"24鄰","STREET":"民治路","SECT":" ","MAREA":" ","LANE":"５３巷","ALLEY":" ","HOUSE_NO":"１１之１號三樓","E_COORD97":179683.14999999999,"N_COORD97":2578681.71,"ADDRESS":"民治路５３巷１１之１號三樓","OBJECTID":264351},"geometry":{"x":179683.1500000013,"y":2578681.7100000028}},{"attributes":{"ID":264356,"DIS_CODE":0,"TOWNNAME":"新營區","LI":"民權里","LIN":"24鄰","STREET":"民治路","SECT":" ","MAREA":" ","LANE":"５３巷","ALLEY":" ","HOUSE_NO":"５號四樓","E_COORD97":179688.97,"N_COORD97":2578753.6099999999,"ADDRESS":"民治路５３巷５號四樓","OBJECTID":264352},"geometry":{"x":179688.96999999974,"y":2578753.6099999994}},{"attributes":{"ID":264357,"DIS_CODE":0,"TOWNNAME":"新營區","LI":"民權里","LIN":"24鄰","STREET":"民治路","SECT":" ","MAREA":" ","LANE":"５３巷","ALLEY":" ","HOUSE_NO":"９之３號四樓","E_COORD97":179707.59,"N_COORD97":2578711.4900000002,"ADDRESS":"民治路５３巷９之３號四樓","OBJECTID":264353},"geometry":{"x":179707.59000000171,"y":2578711.4900000039}},{"attributes":{"ID":264358,"DIS_CODE":0,"TOWNNAME":"新營區","LI":"民權里","LIN":"24鄰","STREET":"民治路","SECT":" ","MAREA":" ","LANE":"５３巷","ALLEY":" ","HOUSE_NO":"３之１號二樓","E_COORD97":179697.79999999999,"N_COORD97":2578780.2000000002,"ADDRESS":"民治路５３巷３之１號二樓","OBJECTID":264354},"geometry":{"x":179697.80000000168,"y":2578780.200000003}},{"attributes":{"ID":264359,"DIS_CODE":0,"TOWNNAME":"北區","LI":"大豐里","LIN":"24鄰","STREET":"和緯路","SECT":"四段","MAREA":" ","LANE":"９５巷","ALLEY":" ","HOUSE_NO":"４１號二樓","E_COORD97":167119.45999999999,"N_COORD97":2545353.6600000001,"ADDRESS":"和緯路四段９５巷４１號二樓","OBJECTID":264355},"geometry":{"x":167119.45999999996,"y":2545353.660000002}},{"attributes":{"ID":264360,"DIS_CODE":0,"TOWNNAME":"北區","LI":"大豐里","LIN":"24鄰","STREET":"和緯路","SECT":"四段","MAREA":" ","LANE":"９５巷","ALLEY":" ","HOUSE_NO":"４１號三樓","E_COORD97":167119.45999999999,"N_COORD97":2545353.6600000001,"ADDRESS":"和緯路四段９５巷４１號三樓","OBJECTID":264356},"geometry":{"x":167119.45999999996,"y":2545353.660000002}},{"attributes":{"ID":264361,"DIS_CODE":0,"TOWNNAME":"北區","LI":"大豐里","LIN":"24鄰","STREET":"和緯路","SECT":"四段","MAREA":" ","LANE":"９５巷","ALLEY":" ","HOUSE_NO":"４１號五樓","E_COORD97":167119.45999999999,"N_COORD97":2545353.6600000001,"ADDRESS":"和緯路四段９５巷４１號五樓","OBJECTID":264357},"geometry":{"x":167119.45999999996,"y":2545353.660000002}},{"attributes":{"ID":264362,"DIS_CODE":0,"TOWNNAME":"北區","LI":"大豐里","LIN":"24鄰","STREET":"和緯路","SECT":"四段","MAREA":" ","LANE":"９５巷","ALLEY":" ","HOUSE_NO":"４１號四樓","E_COORD97":167119.45999999999,"N_COORD97":2545353.6600000001,"ADDRESS":"和緯路四段９５巷４１號四樓","OBJECTID":264358},"geometry":{"x":167119.45999999996,"y":2545353.660000002}},{"attributes":{"ID":264363,"DIS_CODE":0,"TOWNNAME":"北區","LI":"大豐里","LIN":"24鄰","STREET":"和緯路","SECT":"四段","MAREA":" ","LANE":"９５巷","ALLEY":" ","HOUSE_NO":"４３號二樓","E_COORD97":167118.75,"N_COORD97":2545349.3300000001,"ADDRESS":"和緯路四段９５巷４３號二樓","OBJECTID":264359},"geometry":{"x":167118.75000000093,"y":2545349.3300000019}},{"attributes":{"ID":264364,"DIS_CODE":0,"TOWNNAME":"北區","LI":"大豐里","LIN":"24鄰","STREET":"和緯路","SECT":"四段","MAREA":" ","LANE":"９５巷","ALLEY":" ","HOUSE_NO":"４３號三樓","E_COORD97":167118.75,"N_COORD97":2545349.3300000001,"ADDRESS":"和緯路四段９５巷４３號三樓","OBJECTID":264360},"geometry":{"x":167118.75000000093,"y":2545349.3300000019}},{"attributes":{"ID":264365,"DIS_CODE":0,"TOWNNAME":"北區","LI":"大豐里","LIN":"24鄰","STREET":"和緯路","SECT":"四段","MAREA":" ","LANE":"９５巷","ALLEY":" ","HOUSE_NO":"４３號五樓","E_COORD97":167118.75,"N_COORD97":2545349.3300000001,"ADDRESS":"和緯路四段９５巷４３號五樓","OBJECTID":264361},"geometry":{"x":167118.75000000093,"y":2545349.3300000019}},{"attributes":{"ID":264366,"DIS_CODE":0,"TOWNNAME":"北區","LI":"大豐里","LIN":"24鄰","STREET":"和緯路","SECT":"四段","MAREA":" ","LANE":"９５巷","ALLEY":" ","HOUSE_NO":"４３號四樓","E_COORD97":167118.75,"N_COORD97":2545349.3300000001,"ADDRESS":"和緯路四段９５巷４３號四樓","OBJECTID":264362},"geometry":{"x":167118.75000000093,"y":2545349.3300000019}},{"attributes":{"ID":264367,"DIS_CODE":0,"TOWNNAME":"北區","LI":"大豐里","LIN":"24鄰","STREET":"和緯路","SECT":"四段","MAREA":" ","LANE":"９５巷","ALLEY":" ","HOUSE_NO":"４５號二樓","E_COORD97":167116.73000000001,"N_COORD97":2545340.8199999998,"ADDRESS":"和緯路四段９５巷４５號二樓","OBJECTID":264363},"geometry":{"x":167116.73000000045,"y":2545340.8200000003}},{"attributes":{"ID":264368,"DIS_CODE":0,"TOWNNAME":"北區","LI":"大豐里","LIN":"24鄰","STREET":"和緯路","SECT":"四段","MAREA":" ","LANE":"９５巷","ALLEY":" ","HOUSE_NO":"４５號三樓","E_COORD97":167116.73000000001,"N_COORD97":2545340.8199999998,"ADDRESS":"和緯路四段９５巷４５號三樓","OBJECTID":264364},"geometry":{"x":167116.73000000045,"y":2545340.8200000003}},{"attributes":{"ID":264369,"DIS_CODE":0,"TOWNNAME":"北區","LI":"大豐里","LIN":"24鄰","STREET":"和緯路","SECT":"四段","MAREA":" ","LANE":"９５巷","ALLEY":" ","HOUSE_NO":"４５號五樓","E_COORD97":167116.73000000001,"N_COORD97":2545340.8199999998,"ADDRESS":"和緯路四段９５巷４５號五樓","OBJECTID":264365},"geometry":{"x":167116.73000000045,"y":2545340.8200000003}},{"attributes":{"ID":264370,"DIS_CODE":0,"TOWNNAME":"北區","LI":"六甲里","LIN":"20鄰","STREET":"西門路","SECT":"四段","MAREA":" ","LANE":"３１６巷","ALLEY":" ","HOUSE_NO":"１５號","E_COORD97":169036.25,"N_COORD97":2545948.8399999999,"ADDRESS":"西門路四段３１６巷１５號","OBJECTID":264366},"geometry":{"x":169036.25000000093,"y":2545948.8400000017}},{"attributes":{"ID":264371,"DIS_CODE":0,"TOWNNAME":"北區","LI":"六甲里","LIN":"20鄰","STREET":"西門路","SECT":"四段","MAREA":" ","LANE":"３１６巷","ALLEY":" ","HOUSE_NO":"１７號","E_COORD97":169035.12,"N_COORD97":2545934.8799999999,"ADDRESS":"西門路四段３１６巷１７號","OBJECTID":264367},"geometry":{"x":169035.12000000104,"y":2545934.879999999}},{"attributes":{"ID":264372,"DIS_CODE":0,"TOWNNAME":"北區","LI":"六甲里","LIN":"20鄰","STREET":"西門路","SECT":"四段","MAREA":" ","LANE":"３１６巷","ALLEY":" ","HOUSE_NO":"１９號","E_COORD97":169030.42999999999,"N_COORD97":2545921.5499999998,"ADDRESS":"西門路四段３１６巷１９號","OBJECTID":264368},"geometry":{"x":169030.42999999877,"y":2545921.5500000026}},{"attributes":{"ID":264373,"DIS_CODE":0,"TOWNNAME":"北區","LI":"六甲里","LIN":"20鄰","STREET":"西門路","SECT":"四段","MAREA":" ","LANE":"３１６巷","ALLEY":" ","HOUSE_NO":"１號","E_COORD97":168992.45000000001,"N_COORD97":2545965.5,"ADDRESS":"西門路四段３１６巷１號","OBJECTID":264369},"geometry":{"x":168992.45000000112,"y":2545965.5}},{"attributes":{"ID":264374,"DIS_CODE":0,"TOWNNAME":"新營區","LI":"新北里","LIN":"24鄰","STREET":"民生路","SECT":" ","MAREA":" ","LANE":"４２０巷","ALLEY":" ","HOUSE_NO":"４１號四樓之３","E_COORD97":178928.54999999999,"N_COORD97":2579414.02,"ADDRESS":"民生路４２０巷４１號四樓之３","OBJECTID":264370},"geometry":{"x":178928.55000000075,"y":2579414.0200000014}},{"attributes":{"ID":264375,"DIS_CODE":0,"TOWNNAME":"北區","LI":"六甲里","LIN":"20鄰","STREET":"西門路","SECT":"四段","MAREA":" ","LANE":"３１６巷","ALLEY":" ","HOUSE_NO":"３號","E_COORD97":168998.56,"N_COORD97":2545965.5,"ADDRESS":"西門路四段３１６巷３號","OBJECTID":264371},"geometry":{"x":168998.55999999959,"y":2545965.5}},{"attributes":{"ID":264376,"DIS_CODE":0,"TOWNNAME":"北區","LI":"六甲里","LIN":"20鄰","STREET":"西門路","SECT":"四段","MAREA":" ","LANE":"３１６巷","ALLEY":" ","HOUSE_NO":"５號","E_COORD97":169004.51999999999,"N_COORD97":2545964.79,"ADDRESS":"西門路四段３１６巷５號","OBJECTID":264372},"geometry":{"x":169004.52000000048,"y":2545964.790000001}},{"attributes":{"ID":264377,"DIS_CODE":0,"TOWNNAME":"北區","LI":"裕民里","LIN":"4鄰","STREET":"康樂街","SECT":" ","MAREA":" ","LANE":"４３５巷","ALLEY":" ","HOUSE_NO":"１６號","E_COORD97":167772.48000000001,"N_COORD97":2544765.7799999998,"ADDRESS":"康樂街４３５巷１６號","OBJECTID":264373},"geometry":{"x":167772.48000000045,"y":2544765.7800000012}},{"attributes":{"ID":264378,"DIS_CODE":0,"TOWNNAME":"北區","LI":"大豐里","LIN":"24鄰","STREET":"和緯路","SECT":"四段","MAREA":" ","LANE":"９５巷","ALLEY":" ","HOUSE_NO":"２３號","E_COORD97":167129.56,"N_COORD97":2545415.7599999998,"ADDRESS":"和緯路四段９５巷２３號","OBJECTID":264374},"geometry":{"x":167129.56000000052,"y":2545415.7600000035}},{"attributes":{"ID":264379,"DIS_CODE":0,"TOWNNAME":"北區","LI":"大豐里","LIN":"24鄰","STREET":"和緯路","SECT":"四段","MAREA":" ","LANE":"９５巷","ALLEY":" ","HOUSE_NO":"２５號","E_COORD97":167127.54000000001,"N_COORD97":2545405.8500000001,"ADDRESS":"和緯路四段９５巷２５號","OBJECTID":264375},"geometry":{"x":167127.54000000004,"y":2545405.8500000015}},{"attributes":{"ID":264380,"DIS_CODE":0,"TOWNNAME":"北區","LI":"文元里","LIN":"12鄰","STREET":"文賢路","SECT":" ","MAREA":" ","LANE":"１１２２巷","ALLEY":" ","HOUSE_NO":"１５號","E_COORD97":167400.42000000001,"N_COORD97":2546352.6000000001,"ADDRESS":"文賢路１１２２巷１５號","OBJECTID":264376},"geometry":{"x":167400.42000000086,"y":2546352.6000000034}},{"attributes":{"ID":264381,"DIS_CODE":0,"TOWNNAME":"北區","LI":"大豐里","LIN":"25鄰","STREET":"和緯路","SECT":"四段","MAREA":" ","LANE":"９５巷","ALLEY":" ","HOUSE_NO":"１１號","E_COORD97":167134.75,"N_COORD97":2545453.7999999998,"ADDRESS":"和緯路四段９５巷１１號","OBJECTID":264377},"geometry":{"x":167134.75,"y":2545453.8000000045}},{"attributes":{"ID":264382,"DIS_CODE":0,"TOWNNAME":"北區","LI":"大豐里","LIN":"25鄰","STREET":"和緯路","SECT":"四段","MAREA":" ","LANE":"９５巷","ALLEY":" ","HOUSE_NO":"１３號","E_COORD97":167133.69,"N_COORD97":2545445.0299999998,"ADDRESS":"和緯路四段９５巷１３號","OBJECTID":264378},"geometry":{"x":167133.69000000041,"y":2545445.0300000012}},{"attributes":{"ID":264383,"DIS_CODE":0,"TOWNNAME":"北區","LI":"大豐里","LIN":"25鄰","STREET":"和緯路","SECT":"四段","MAREA":" ","LANE":"９５巷","ALLEY":" ","HOUSE_NO":"１５號","E_COORD97":167133.25,"N_COORD97":2545439.8300000001,"ADDRESS":"和緯路四段９５巷１５號","OBJECTID":264379},"geometry":{"x":167133.25,"y":2545439.8300000019}},{"attributes":{"ID":264384,"DIS_CODE":0,"TOWNNAME":"北區","LI":"大豐里","LIN":"25鄰","STREET":"和緯路","SECT":"四段","MAREA":" ","LANE":"９５巷","ALLEY":" ","HOUSE_NO":"１７號","E_COORD97":167132.01999999999,"N_COORD97":2545431.5899999999,"ADDRESS":"和緯路四段９５巷１７號","OBJECTID":264380},"geometry":{"x":167132.01999999955,"y":2545431.5900000017}},{"attributes":{"ID":264385,"DIS_CODE":0,"TOWNNAME":"北區","LI":"大豐里","LIN":"25鄰","STREET":"和緯路","SECT":"四段","MAREA":" ","LANE":"９５巷","ALLEY":" ","HOUSE_NO":"１９號","E_COORD97":167131.57999999999,"N_COORD97":2545429.3100000001,"ADDRESS":"和緯路四段９５巷１９號","OBJECTID":264381},"geometry":{"x":167131.58000000101,"y":2545429.3100000005}},{"attributes":{"ID":264386,"DIS_CODE":0,"TOWNNAME":"永康區","LI":"北灣里","LIN":"24鄰","STREET":"大灣路","SECT":" ","MAREA":" ","LANE":"３７巷","ALLEY":" ","HOUSE_NO":"１４號","E_COORD97":175376.17000000001,"N_COORD97":2545866.2400000002,"ADDRESS":"大灣路３７巷１４號","OBJECTID":264382},"geometry":{"x":175376.17000000086,"y":2545866.2400000002}},{"attributes":{"ID":264387,"DIS_CODE":0,"TOWNNAME":"安南區","LI":"海東里","LIN":"24鄰","STREET":"同安路","SECT":" ","MAREA":" ","LANE":"１９５巷","ALLEY":" ","HOUSE_NO":"３號","E_COORD97":167114.28,"N_COORD97":2549145.1200000001,"ADDRESS":"同安路１９５巷３號","OBJECTID":264383},"geometry":{"x":167114.28000000026,"y":2549145.1200000029}},{"attributes":{"ID":264388,"DIS_CODE":0,"TOWNNAME":"安南區","LI":"海東里","LIN":"24鄰","STREET":"同安路","SECT":" ","MAREA":" ","LANE":"１９５巷","ALLEY":" ","HOUSE_NO":"６號","E_COORD97":167125.29999999999,"N_COORD97":2549162.77,"ADDRESS":"同安路１９５巷６號","OBJECTID":264384},"geometry":{"x":167125.30000000075,"y":2549162.7700000014}},{"attributes":{"ID":264389,"DIS_CODE":0,"TOWNNAME":"安南區","LI":"海東里","LIN":"24鄰","STREET":"同安路","SECT":" ","MAREA":" ","LANE":"１９５巷","ALLEY":" ","HOUSE_NO":"８號","E_COORD97":167122.07000000001,"N_COORD97":2549165.4300000002,"ADDRESS":"同安路１９５巷８號","OBJECTID":264385},"geometry":{"x":167122.07000000123,"y":2549165.4300000016}},{"attributes":{"ID":264390,"DIS_CODE":0,"TOWNNAME":"北區","LI":"大豐里","LIN":"25鄰","STREET":"和緯路","SECT":"四段","MAREA":" ","LANE":"９５巷","ALLEY":" ","HOUSE_NO":"１號","E_COORD97":167128.97,"N_COORD97":2545484.52,"ADDRESS":"和緯路四段９５巷１號","OBJECTID":264386},"geometry":{"x":167128.97000000067,"y":2545484.5199999996}},{"attributes":{"ID":264391,"DIS_CODE":0,"TOWNNAME":"北區","LI":"大豐里","LIN":"25鄰","STREET":"和緯路","SECT":"四段","MAREA":" ","LANE":"９５巷","ALLEY":" ","HOUSE_NO":"２１號","E_COORD97":167129.92000000001,"N_COORD97":2545418.96,"ADDRESS":"和緯路四段９５巷２１號","OBJECTID":264387},"geometry":{"x":167129.91999999993,"y":2545418.9600000046}},{"attributes":{"ID":264392,"DIS_CODE":0,"TOWNNAME":"佳里區","LI":"建南里","LIN":"24鄰","STREET":"佳南路","SECT":" ","MAREA":" ","LANE":"５９０巷","ALLEY":" ","HOUSE_NO":"２７號","E_COORD97":165422.92999999999,"N_COORD97":2561020.5299999998,"ADDRESS":"佳南路５９０巷２７號","OBJECTID":264388},"geometry":{"x":165422.9299999997,"y":2561020.5300000012}},{"attributes":{"ID":264393,"DIS_CODE":0,"TOWNNAME":"佳里區","LI":"建南里","LIN":"24鄰","STREET":"佳南路","SECT":" ","MAREA":" ","LANE":"５９０巷","ALLEY":" ","HOUSE_NO":"２８號","E_COORD97":165406.10999999999,"N_COORD97":2561005.2400000002,"ADDRESS":"佳南路５９０巷２８號","OBJECTID":264389},"geometry":{"x":165406.11000000127,"y":2561005.2400000039}},{"attributes":{"ID":264394,"DIS_CODE":0,"TOWNNAME":"佳里區","LI":"建南里","LIN":"24鄰","STREET":"佳南路","SECT":" ","MAREA":" ","LANE":"５９０巷","ALLEY":" ","HOUSE_NO":"２號","E_COORD97":165362.88,"N_COORD97":2561011.6699999999,"ADDRESS":"佳南路５９０巷２號","OBJECTID":264390},"geometry":{"x":165362.88000000082,"y":2561011.6699999999}},{"attributes":{"ID":264395,"DIS_CODE":0,"TOWNNAME":"永康區","LI":"復華里","LIN":"24鄰","STREET":"復華八街","SECT":" ","MAREA":" ","LANE":"５６巷","ALLEY":" ","HOUSE_NO":"１５號","E_COORD97":172791.78,"N_COORD97":2546278.27,"ADDRESS":"復華八街５６巷１５號","OBJECTID":264391},"geometry":{"x":172791.78000000026,"y":2546278.2699999996}},{"attributes":{"ID":264396,"DIS_CODE":0,"TOWNNAME":"永康區","LI":"復興里","LIN":"24鄰","STREET":"復興路","SECT":" ","MAREA":" ","LANE":"３５６巷","ALLEY":" ","HOUSE_NO":"６２號","E_COORD97":172339.81,"N_COORD97":2544505.27,"ADDRESS":"復興路３５６巷６２號","OBJECTID":264392},"geometry":{"x":172339.80999999959,"y":2544505.2699999996}},{"attributes":{"ID":264397,"DIS_CODE":0,"TOWNNAME":"永康區","LI":"復華里","LIN":"24鄰","STREET":"復華八街","SECT":" ","MAREA":" ","LANE":"５６巷","ALLEY":" ","HOUSE_NO":"１９號","E_COORD97":172802.32999999999,"N_COORD97":2546278.52,"ADDRESS":"復華八街５６巷１９號","OBJECTID":264393},"geometry":{"x":172802.33000000101,"y":2546278.5200000014}},{"attributes":{"ID":264398,"DIS_CODE":0,"TOWNNAME":"永康區","LI":"勝利里","LIN":"24鄰","STREET":"勝利街","SECT":" ","MAREA":" ","LANE":"１１６巷","ALLEY":" ","HOUSE_NO":"１７號","E_COORD97":171396.89000000001,"N_COORD97":2544870.2599999998,"ADDRESS":"勝利街１１６巷１７號","OBJECTID":264394},"geometry":{"x":171396.88999999966,"y":2544870.2600000016}},{"attributes":{"ID":264399,"DIS_CODE":0,"TOWNNAME":"永康區","LI":"網寮里","LIN":"24鄰","STREET":"永春街","SECT":" ","MAREA":" ","LANE":"４５巷","ALLEY":" ","HOUSE_NO":"６號","E_COORD97":173729.62,"N_COORD97":2546390.1400000001,"ADDRESS":"永春街４５巷６號","OBJECTID":264395},"geometry":{"x":173729.62000000011,"y":2546390.1399999987}},{"attributes":{"ID":264400,"DIS_CODE":0,"TOWNNAME":"永康區","LI":"網寮里","LIN":"24鄰","STREET":"永春街","SECT":" ","MAREA":" ","LANE":"４５巷","ALLEY":" ","HOUSE_NO":"１１號","E_COORD97":173722.04999999999,"N_COORD97":2546370.4399999999,"ADDRESS":"永春街４５巷１１號","OBJECTID":264396},"geometry":{"x":173722.04999999888,"y":2546370.4400000032}},{"attributes":{"ID":264401,"DIS_CODE":0,"TOWNNAME":"永康區","LI":"網寮里","LIN":"24鄰","STREET":"永春街","SECT":" ","MAREA":" ","LANE":"３６巷","ALLEY":" ","HOUSE_NO":"１號","E_COORD97":173750.23000000001,"N_COORD97":2546397.0899999999,"ADDRESS":"永春街３６巷１號","OBJECTID":264397},"geometry":{"x":173750.23000000045,"y":2546397.0900000017}},{"attributes":{"ID":264402,"DIS_CODE":0,"TOWNNAME":"永康區","LI":"勝利里","LIN":"24鄰","STREET":"勝利街","SECT":" ","MAREA":" ","LANE":"９０巷","ALLEY":" ","HOUSE_NO":"１７號","E_COORD97":171399.13,"N_COORD97":2544754.0099999998,"ADDRESS":"勝利街９０巷１７號","OBJECTID":264398},"geometry":{"x":171399.12999999896,"y":2544754.0100000016}},{"attributes":{"ID":264403,"DIS_CODE":0,"TOWNNAME":"安南區","LI":"海東里","LIN":"24鄰","STREET":"同安路","SECT":" ","MAREA":" ","LANE":"１９５巷","ALLEY":" ","HOUSE_NO":"３６號","E_COORD97":167076.10999999999,"N_COORD97":2549209.4300000002,"ADDRESS":"同安路１９５巷３６號","OBJECTID":264399},"geometry":{"x":167076.11000000127,"y":2549209.4300000016}},{"attributes":{"ID":264404,"DIS_CODE":0,"TOWNNAME":"安南區","LI":"海東里","LIN":"24鄰","STREET":"同安路","SECT":" ","MAREA":" ","LANE":"１９５巷","ALLEY":" ","HOUSE_NO":"１１號","E_COORD97":167077.35999999999,"N_COORD97":2549169.79,"ADDRESS":"同安路１９５巷１１號","OBJECTID":264400},"geometry":{"x":167077.36000000127,"y":2549169.7899999991}}]}