{"displayFieldName":"TOWNNAME","fieldAliases":{"ID":"ID","DIS_CODE":"DIS_CODE","TOWNNAME":"TOWNNAME","LI":"LI","LIN":"LIN","STREET":"STREET","SECT":"SECT","MAREA":"MAREA","LANE":"LANE","ALLEY":"ALLEY","HOUSE_NO":"HOUSE_NO","E_COORD97":"E_COORD97","N_COORD97":"N_COORD97","ADDRESS":"ADDRESS","OBJECTID":"OBJECTID"},"geometryType":"esriGeometryPoint","spatialReference":{"wkid":102443,"latestWkid":3826},"fields":[{"name":"ID","type":"esriFieldTypeDouble","alias":"ID"},{"name":"DIS_CODE","type":"esriFieldTypeInteger","alias":"DIS_CODE"},{"name":"TOWNNAME","type":"esriFieldTypeString","alias":"TOWNNAME","length":8},{"name":"LI","type":"esriFieldTypeString","alias":"LI","length":8},{"name":"LIN","type":"esriFieldTypeString","alias":"LIN","length":12},{"name":"STREET","type":"esriFieldTypeString","alias":"STREET","length":20},{"name":"SECT","type":"esriFieldTypeString","alias":"SECT","length":8},{"name":"MAREA","type":"esriFieldTypeString","alias":"MAREA","length":12},{"name":"LANE","type":"esriFieldTypeString","alias":"LANE","length":10},{"name":"ALLEY","type":"esriFieldTypeString","alias":"ALLEY","length":10},{"name":"HOUSE_NO","type":"esriFieldTypeString","alias":"HOUSE_NO","length":20},{"name":"E_COORD97","type":"esriFieldTypeDouble","alias":"E_COORD97"},{"name":"N_COORD97","type":"esriFieldTypeDouble","alias":"N_COORD97"},{"name":"ADDRESS","type":"esriFieldTypeString","alias":"ADDRESS","length":50},{"name":"OBJECTID","type":"esriFieldTypeOID","alias":"OBJECTID"}],"features":[{"attributes":{"ID":567628,"DIS_CODE":0,"TOWNNAME":"東區","LI":"後甲里","LIN":"28鄰","STREET":"裕永一街","SECT":" ","MAREA":" ","LANE":" ","ALLEY":" ","HOUSE_NO":"９８號","E_COORD97":172481.13,"N_COORD97":2543416.3399999999,"ADDRESS":"裕永一街９８號","OBJECTID":567601},"geometry":{"x":172481.13000000082,"y":2543416.3400000017}},{"attributes":{"ID":567629,"DIS_CODE":0,"TOWNNAME":"東區","LI":"後甲里","LIN":"28鄰","STREET":"裕永一街","SECT":" ","MAREA":" ","LANE":" ","ALLEY":" ","HOUSE_NO":"１１８號","E_COORD97":172511.75,"N_COORD97":2543425.3500000001,"ADDRESS":"裕永一街１１８號","OBJECTID":567602},"geometry":{"x":172511.75,"y":2543425.3500000015}},{"attributes":{"ID":567630,"DIS_CODE":0,"TOWNNAME":"東區","LI":"後甲里","LIN":"28鄰","STREET":"裕永一街","SECT":" ","MAREA":" ","LANE":" ","ALLEY":" ","HOUSE_NO":"１２０號","E_COORD97":172516.66,"N_COORD97":2543423.3799999999,"ADDRESS":"裕永一街１２０號","OBJECTID":567603},"geometry":{"x":172516.66000000108,"y":2543423.379999999}},{"attributes":{"ID":567631,"DIS_CODE":0,"TOWNNAME":"東區","LI":"後甲里","LIN":"28鄰","STREET":"裕永一街","SECT":" ","MAREA":" ","LANE":" ","ALLEY":" ","HOUSE_NO":"１００號","E_COORD97":172485.06,"N_COORD97":2543417.1600000001,"ADDRESS":"裕永一街１００號","OBJECTID":567604},"geometry":{"x":172485.06000000052,"y":2543417.160000002}},{"attributes":{"ID":567632,"DIS_CODE":0,"TOWNNAME":"東區","LI":"後甲里","LIN":"28鄰","STREET":"裕永一街","SECT":" ","MAREA":" ","LANE":" ","ALLEY":" ","HOUSE_NO":"１０２號","E_COORD97":172489.14999999999,"N_COORD97":2543418.4700000002,"ADDRESS":"裕永一街１０２號","OBJECTID":567605},"geometry":{"x":172489.15000000037,"y":2543418.4700000044}},{"attributes":{"ID":567633,"DIS_CODE":0,"TOWNNAME":"東區","LI":"後甲里","LIN":"28鄰","STREET":"裕永一街","SECT":" ","MAREA":" ","LANE":" ","ALLEY":" ","HOUSE_NO":"１３２號","E_COORD97":172537.60999999999,"N_COORD97":2543427.6400000001,"ADDRESS":"裕永一街１３２號","OBJECTID":567606},"geometry":{"x":172537.61000000127,"y":2543427.6400000025}},{"attributes":{"ID":567634,"DIS_CODE":0,"TOWNNAME":"東區","LI":"後甲里","LIN":"28鄰","STREET":"裕永一街","SECT":" ","MAREA":" ","LANE":" ","ALLEY":" ","HOUSE_NO":"１３６號","E_COORD97":172541.38,"N_COORD97":2543428.7799999998,"ADDRESS":"裕永一街１３６號","OBJECTID":567607},"geometry":{"x":172541.37999999989,"y":2543428.7800000012}},{"attributes":{"ID":567635,"DIS_CODE":0,"TOWNNAME":"東區","LI":"後甲里","LIN":"28鄰","STREET":"裕永一街","SECT":" ","MAREA":" ","LANE":" ","ALLEY":" ","HOUSE_NO":"１３８號","E_COORD97":172545.79999999999,"N_COORD97":2543429.4399999999,"ADDRESS":"裕永一街１３８號","OBJECTID":567608},"geometry":{"x":172545.80000000168,"y":2543429.4399999995}},{"attributes":{"ID":567636,"DIS_CODE":0,"TOWNNAME":"東區","LI":"後甲里","LIN":"28鄰","STREET":"裕永一街","SECT":" ","MAREA":" ","LANE":" ","ALLEY":" ","HOUSE_NO":"１４０號","E_COORD97":172550.06,"N_COORD97":2543430.0899999999,"ADDRESS":"裕永一街１４０號","OBJECTID":567609},"geometry":{"x":172550.05999999959,"y":2543430.0900000036}},{"attributes":{"ID":567637,"DIS_CODE":0,"TOWNNAME":"東區","LI":"後甲里","LIN":"28鄰","STREET":"裕永一街","SECT":" ","MAREA":" ","LANE":" ","ALLEY":" ","HOUSE_NO":"７２號","E_COORD97":172427.19,"N_COORD97":2543406.71,"ADDRESS":"裕永一街７２號","OBJECTID":567610},"geometry":{"x":172427.19000000134,"y":2543406.7100000046}},{"attributes":{"ID":567638,"DIS_CODE":0,"TOWNNAME":"永康區","LI":"復興里","LIN":"28鄰","STREET":"興國街","SECT":" ","MAREA":" ","LANE":" ","ALLEY":" ","HOUSE_NO":"２２６號","E_COORD97":172366.66,"N_COORD97":2545070.5,"ADDRESS":"興國街２２６號","OBJECTID":567611},"geometry":{"x":172366.66000000015,"y":2545070.5}},{"attributes":{"ID":567639,"DIS_CODE":0,"TOWNNAME":"西港區","LI":"慶安里","LIN":"28鄰","STREET":"慶安路","SECT":" ","MAREA":" ","LANE":" ","ALLEY":" ","HOUSE_NO":"９５號之１０","E_COORD97":168137.76000000001,"N_COORD97":2557889.9399999999,"ADDRESS":"慶安路９５號之１０","OBJECTID":567612},"geometry":{"x":168137.75999999978,"y":2557889.9399999995}},{"attributes":{"ID":567640,"DIS_CODE":0,"TOWNNAME":"西港區","LI":"慶安里","LIN":"28鄰","STREET":"慶安路","SECT":" ","MAREA":" ","LANE":" ","ALLEY":" ","HOUSE_NO":"９５號之１１","E_COORD97":168132.84,"N_COORD97":2557889.6400000001,"ADDRESS":"慶安路９５號之１１","OBJECTID":567613},"geometry":{"x":168132.84000000171,"y":2557889.6400000006}},{"attributes":{"ID":567641,"DIS_CODE":0,"TOWNNAME":"西港區","LI":"慶安里","LIN":"28鄰","STREET":"慶安路","SECT":" ","MAREA":" ","LANE":" ","ALLEY":" ","HOUSE_NO":"９５號之１","E_COORD97":168177.23999999999,"N_COORD97":2557894.4300000002,"ADDRESS":"慶安路９５號之１","OBJECTID":567614},"geometry":{"x":168177.24000000022,"y":2557894.4300000034}},{"attributes":{"ID":567642,"DIS_CODE":0,"TOWNNAME":"西港區","LI":"慶安里","LIN":"28鄰","STREET":"慶安路","SECT":" ","MAREA":" ","LANE":" ","ALLEY":" ","HOUSE_NO":"９５號之２","E_COORD97":168172.87,"N_COORD97":2557894.0499999998,"ADDRESS":"慶安路９５號之２","OBJECTID":567615},"geometry":{"x":168172.87000000011,"y":2557894.0500000007}},{"attributes":{"ID":567643,"DIS_CODE":0,"TOWNNAME":"西港區","LI":"慶安里","LIN":"28鄰","STREET":"慶安路","SECT":" ","MAREA":" ","LANE":" ","ALLEY":" ","HOUSE_NO":"９５號之３","E_COORD97":168168.73000000001,"N_COORD97":2557893.4500000002,"ADDRESS":"慶安路９５號之３","OBJECTID":567616},"geometry":{"x":168168.73000000138,"y":2557893.4499999993}},{"attributes":{"ID":567644,"DIS_CODE":0,"TOWNNAME":"西港區","LI":"慶安里","LIN":"28鄰","STREET":"慶安路","SECT":" ","MAREA":" ","LANE":" ","ALLEY":" ","HOUSE_NO":"９５號之４","E_COORD97":168164.34,"N_COORD97":2557893.2400000002,"ADDRESS":"慶安路９５號之４","OBJECTID":567617},"geometry":{"x":168164.33999999985,"y":2557893.2400000021}},{"attributes":{"ID":567645,"DIS_CODE":0,"TOWNNAME":"西港區","LI":"慶安里","LIN":"28鄰","STREET":"慶安路","SECT":" ","MAREA":" ","LANE":" ","ALLEY":" ","HOUSE_NO":"９５號之５","E_COORD97":168159.73000000001,"N_COORD97":2557892.54,"ADDRESS":"慶安路９５號之５","OBJECTID":567618},"geometry":{"x":168159.73000000231,"y":2557892.5399999991}},{"attributes":{"ID":567646,"DIS_CODE":0,"TOWNNAME":"西港區","LI":"慶安里","LIN":"28鄰","STREET":"慶安路","SECT":" ","MAREA":" ","LANE":" ","ALLEY":" ","HOUSE_NO":"９５號之６","E_COORD97":168155.32000000001,"N_COORD97":2557891.9900000002,"ADDRESS":"慶安路９５號之６","OBJECTID":567619},"geometry":{"x":168155.3200000003,"y":2557891.9900000021}},{"attributes":{"ID":567647,"DIS_CODE":0,"TOWNNAME":"西港區","LI":"慶安里","LIN":"28鄰","STREET":"慶安路","SECT":" ","MAREA":" ","LANE":" ","ALLEY":" ","HOUSE_NO":"９５號之７","E_COORD97":168150.64000000001,"N_COORD97":2557891.3900000001,"ADDRESS":"慶安路９５號之７","OBJECTID":567620},"geometry":{"x":168150.63999999966,"y":2557891.3900000006}},{"attributes":{"ID":567648,"DIS_CODE":0,"TOWNNAME":"西港區","LI":"慶安里","LIN":"28鄰","STREET":"慶安路","SECT":" ","MAREA":" ","LANE":" ","ALLEY":" ","HOUSE_NO":"９５號之８","E_COORD97":168146.32999999999,"N_COORD97":2557890.8700000001,"ADDRESS":"慶安路９５號之８","OBJECTID":567621},"geometry":{"x":168146.33000000007,"y":2557890.8700000029}},{"attributes":{"ID":567649,"DIS_CODE":0,"TOWNNAME":"西港區","LI":"慶安里","LIN":"28鄰","STREET":"慶安路","SECT":" ","MAREA":" ","LANE":" ","ALLEY":" ","HOUSE_NO":"９５號之９","E_COORD97":168141.64999999999,"N_COORD97":2557890.4700000002,"ADDRESS":"慶安路９５號之９","OBJECTID":567622},"geometry":{"x":168141.6500000013,"y":2557890.4700000007}},{"attributes":{"ID":567650,"DIS_CODE":0,"TOWNNAME":"仁德區","LI":"仁愛里","LIN":"28鄰","STREET":"機場路","SECT":" ","MAREA":" ","LANE":" ","ALLEY":" ","HOUSE_NO":"１２２８號","E_COORD97":169719.64000000001,"N_COORD97":2539140.79,"ADDRESS":"機場路１２２８號","OBJECTID":567623},"geometry":{"x":169719.6400000006,"y":2539140.790000001}},{"attributes":{"ID":567651,"DIS_CODE":0,"TOWNNAME":"仁德區","LI":"仁愛里","LIN":"28鄰","STREET":"機場路","SECT":" ","MAREA":" ","LANE":" ","ALLEY":" ","HOUSE_NO":"１００８號","E_COORD97":169693.73000000001,"N_COORD97":2538812.79,"ADDRESS":"機場路１００８號","OBJECTID":567624},"geometry":{"x":169693.72999999952,"y":2538812.7899999991}},{"attributes":{"ID":567652,"DIS_CODE":0,"TOWNNAME":"東區","LI":"崇文里","LIN":"28鄰","STREET":"崇德二十三街","SECT":" ","MAREA":" ","LANE":" ","ALLEY":" ","HOUSE_NO":"３８號","E_COORD97":170905.91,"N_COORD97":2540742.23,"ADDRESS":"崇德二十三街３８號","OBJECTID":567625},"geometry":{"x":170905.90999999922,"y":2540742.2300000023}},{"attributes":{"ID":567653,"DIS_CODE":0,"TOWNNAME":"東區","LI":"崇文里","LIN":"28鄰","STREET":"崇德二十四街","SECT":" ","MAREA":" ","LANE":" ","ALLEY":" ","HOUSE_NO":"３５號","E_COORD97":170894.34,"N_COORD97":2540722.2400000002,"ADDRESS":"崇德二十四街３５號","OBJECTID":567626},"geometry":{"x":170894.34000000171,"y":2540722.2400000021}},{"attributes":{"ID":567654,"DIS_CODE":0,"TOWNNAME":"東區","LI":"崇文里","LIN":"28鄰","STREET":"崇德二十四街","SECT":" ","MAREA":" ","LANE":" ","ALLEY":" ","HOUSE_NO":"３７號","E_COORD97":170906.41,"N_COORD97":2540722.3700000001,"ADDRESS":"崇德二十四街３７號","OBJECTID":567627},"geometry":{"x":170906.41000000108,"y":2540722.370000001}},{"attributes":{"ID":567655,"DIS_CODE":0,"TOWNNAME":"東區","LI":"後甲里","LIN":"28鄰","STREET":"裕永一街","SECT":" ","MAREA":" ","LANE":" ","ALLEY":" ","HOUSE_NO":"２２８號","E_COORD97":172701.09,"N_COORD97":2543463.5499999998,"ADDRESS":"裕永一街２２８號","OBJECTID":567628},"geometry":{"x":172701.08999999985,"y":2543463.5500000026}},{"attributes":{"ID":567656,"DIS_CODE":0,"TOWNNAME":"東區","LI":"後甲里","LIN":"28鄰","STREET":"裕永一街","SECT":" ","MAREA":" ","LANE":" ","ALLEY":" ","HOUSE_NO":"２２２號","E_COORD97":172693.22,"N_COORD97":2543461.2799999998,"ADDRESS":"裕永一街２２２號","OBJECTID":567629},"geometry":{"x":172693.21999999974,"y":2543461.2799999993}},{"attributes":{"ID":567657,"DIS_CODE":0,"TOWNNAME":"東區","LI":"後甲里","LIN":"28鄰","STREET":"裕永一街","SECT":" ","MAREA":" ","LANE":" ","ALLEY":" ","HOUSE_NO":"２２０號","E_COORD97":172687.28,"N_COORD97":2543463.73,"ADDRESS":"裕永一街２２０號","OBJECTID":567630},"geometry":{"x":172687.28000000119,"y":2543463.7300000042}},{"attributes":{"ID":567658,"DIS_CODE":0,"TOWNNAME":"東區","LI":"後甲里","LIN":"28鄰","STREET":"裕永一街","SECT":" ","MAREA":" ","LANE":" ","ALLEY":" ","HOUSE_NO":"２１８號","E_COORD97":172682.64000000001,"N_COORD97":2543460.1200000001,"ADDRESS":"裕永一街２１８號","OBJECTID":567631},"geometry":{"x":172682.6400000006,"y":2543460.120000001}},{"attributes":{"ID":567659,"DIS_CODE":0,"TOWNNAME":"東區","LI":"後甲里","LIN":"28鄰","STREET":"裕永一街","SECT":" ","MAREA":" ","LANE":" ","ALLEY":" ","HOUSE_NO":"１９８號","E_COORD97":172622.14999999999,"N_COORD97":2543450.1699999999,"ADDRESS":"裕永一街１９８號","OBJECTID":567632},"geometry":{"x":172622.1500000013,"y":2543450.1700000037}},{"attributes":{"ID":567660,"DIS_CODE":0,"TOWNNAME":"安平區","LI":"建平里","LIN":"28鄰","STREET":"建平九街","SECT":" ","MAREA":" ","LANE":" ","ALLEY":" ","HOUSE_NO":"９８號","E_COORD97":165915.51000000001,"N_COORD97":2543557.1499999999,"ADDRESS":"建平九街９８號","OBJECTID":567633},"geometry":{"x":165915.50999999978,"y":2543557.1500000022}},{"attributes":{"ID":567661,"DIS_CODE":0,"TOWNNAME":"善化區","LI":"光文里","LIN":"28鄰","STREET":"和平路","SECT":" ","MAREA":" ","LANE":" ","ALLEY":" ","HOUSE_NO":"２３７號之１","E_COORD97":178066.17999999999,"N_COORD97":2559355.27,"ADDRESS":"和平路２３７號之１","OBJECTID":567634},"geometry":{"x":178066.18000000063,"y":2559355.2699999996}},{"attributes":{"ID":567662,"DIS_CODE":0,"TOWNNAME":"善化區","LI":"光文里","LIN":"28鄰","STREET":"和平路","SECT":" ","MAREA":" ","LANE":" ","ALLEY":" ","HOUSE_NO":"２３３號","E_COORD97":178071.14000000001,"N_COORD97":2559327.25,"ADDRESS":"和平路２３３號","OBJECTID":567635},"geometry":{"x":178071.13999999873,"y":2559327.2500000019}},{"attributes":{"ID":567663,"DIS_CODE":0,"TOWNNAME":"善化區","LI":"光文里","LIN":"28鄰","STREET":"和平路","SECT":" ","MAREA":" ","LANE":" ","ALLEY":" ","HOUSE_NO":"２３９號之２","E_COORD97":178061.42999999999,"N_COORD97":2559368.27,"ADDRESS":"和平路２３９號之２","OBJECTID":567636},"geometry":{"x":178061.43000000063,"y":2559368.2700000014}},{"attributes":{"ID":567664,"DIS_CODE":0,"TOWNNAME":"善化區","LI":"光文里","LIN":"28鄰","STREET":"和平路","SECT":" ","MAREA":" ","LANE":" ","ALLEY":" ","HOUSE_NO":"２３７號之８","E_COORD97":178032.88,"N_COORD97":2559353.52,"ADDRESS":"和平路２３７號之８","OBJECTID":567637},"geometry":{"x":178032.88000000082,"y":2559353.5199999996}},{"attributes":{"ID":567665,"DIS_CODE":0,"TOWNNAME":"善化區","LI":"光文里","LIN":"28鄰","STREET":"和平路","SECT":" ","MAREA":" ","LANE":" ","ALLEY":" ","HOUSE_NO":"２３７號之６","E_COORD97":178044.85000000001,"N_COORD97":2559354.02,"ADDRESS":"和平路２３７號之６","OBJECTID":567638},"geometry":{"x":178044.85000000056,"y":2559354.0199999996}},{"attributes":{"ID":567666,"DIS_CODE":0,"TOWNNAME":"善化區","LI":"光文里","LIN":"28鄰","STREET":"和平路","SECT":" ","MAREA":" ","LANE":" ","ALLEY":" ","HOUSE_NO":"２３５號之５","E_COORD97":178042.23000000001,"N_COORD97":2559337.27,"ADDRESS":"和平路２３５號之５","OBJECTID":567639},"geometry":{"x":178042.23000000045,"y":2559337.2700000014}},{"attributes":{"ID":567667,"DIS_CODE":0,"TOWNNAME":"永康區","LI":"\u25A0行里","LIN":"28鄰","STREET":"中正三街","SECT":" ","MAREA":" ","LANE":" ","ALLEY":" ","HOUSE_NO":"４５９號","E_COORD97":173029.63,"N_COORD97":2548531.4900000002,"ADDRESS":"中正三街４５９號","OBJECTID":567640},"geometry":{"x":173029.62999999989,"y":2548531.4900000021}},{"attributes":{"ID":567668,"DIS_CODE":0,"TOWNNAME":"永康區","LI":"\u25A0行里","LIN":"28鄰","STREET":"竹林街","SECT":" ","MAREA":" ","LANE":" ","ALLEY":" ","HOUSE_NO":"４５號","E_COORD97":172739.23999999999,"N_COORD97":2548830.73,"ADDRESS":"竹林街４５號","OBJECTID":567641},"geometry":{"x":172739.24000000022,"y":2548830.7300000042}},{"attributes":{"ID":567669,"DIS_CODE":0,"TOWNNAME":"永康區","LI":"\u25A0行里","LIN":"28鄰","STREET":"竹林街","SECT":" ","MAREA":" ","LANE":" ","ALLEY":" ","HOUSE_NO":"４４號","E_COORD97":172698.54999999999,"N_COORD97":2548813.5,"ADDRESS":"竹林街４４號","OBJECTID":567642},"geometry":{"x":172698.55000000075,"y":2548813.5}},{"attributes":{"ID":567670,"DIS_CODE":0,"TOWNNAME":"永康區","LI":"\u25A0行里","LIN":"28鄰","STREET":"中正五街","SECT":" ","MAREA":" ","LANE":" ","ALLEY":" ","HOUSE_NO":"１５３號","E_COORD97":173050.16,"N_COORD97":2548481.5,"ADDRESS":"中正五街１５３號","OBJECTID":567643},"geometry":{"x":173050.16000000015,"y":2548481.5}},{"attributes":{"ID":567671,"DIS_CODE":0,"TOWNNAME":"永康區","LI":"\u25A0行里","LIN":"28鄰","STREET":"中正三街","SECT":" ","MAREA":" ","LANE":" ","ALLEY":" ","HOUSE_NO":"５１６號","E_COORD97":173003.92999999999,"N_COORD97":2548520,"ADDRESS":"中正三街５１６號","OBJECTID":567644},"geometry":{"x":173003.9299999997,"y":2548520.0000000037}},{"attributes":{"ID":567672,"DIS_CODE":0,"TOWNNAME":"永康區","LI":"\u25A0行里","LIN":"28鄰","STREET":"竹林街","SECT":" ","MAREA":" ","LANE":" ","ALLEY":" ","HOUSE_NO":"３２號","E_COORD97":172721.17999999999,"N_COORD97":2548861.4900000002,"ADDRESS":"竹林街３２號","OBJECTID":567645},"geometry":{"x":172721.18000000063,"y":2548861.4900000002}},{"attributes":{"ID":567673,"DIS_CODE":0,"TOWNNAME":"永康區","LI":"\u25A0行里","LIN":"28鄰","STREET":"竹林街","SECT":" ","MAREA":" ","LANE":" ","ALLEY":" ","HOUSE_NO":"３６號","E_COORD97":172717,"N_COORD97":2548837.5,"ADDRESS":"竹林街３６號","OBJECTID":567646},"geometry":{"x":172717,"y":2548837.5}},{"attributes":{"ID":567674,"DIS_CODE":0,"TOWNNAME":"永康區","LI":"\u25A0行里","LIN":"28鄰","STREET":"竹林街","SECT":" ","MAREA":" ","LANE":" ","ALLEY":" ","HOUSE_NO":"４２號","E_COORD97":172692.19,"N_COORD97":2548814.5,"ADDRESS":"竹林街４２號","OBJECTID":567647},"geometry":{"x":172692.19000000041,"y":2548814.5}},{"attributes":{"ID":567675,"DIS_CODE":0,"TOWNNAME":"永康區","LI":"\u25A0行里","LIN":"28鄰","STREET":"竹林街","SECT":" ","MAREA":" ","LANE":" ","ALLEY":" ","HOUSE_NO":"３８號","E_COORD97":172717.29999999999,"N_COORD97":2548826.25,"ADDRESS":"竹林街３８號","OBJECTID":567648},"geometry":{"x":172717.30000000075,"y":2548826.25}},{"attributes":{"ID":567676,"DIS_CODE":0,"TOWNNAME":"永康區","LI":"\u25A0行里","LIN":"28鄰","STREET":"中正三街","SECT":" ","MAREA":" ","LANE":" ","ALLEY":" ","HOUSE_NO":"１８５號","E_COORD97":172650.64000000001,"N_COORD97":2548777.2999999998,"ADDRESS":"中正三街１８５號","OBJECTID":567649},"geometry":{"x":172650.6400000006,"y":2548777.3000000026}},{"attributes":{"ID":567677,"DIS_CODE":0,"TOWNNAME":"東區","LI":"東光里","LIN":"28鄰","STREET":"凱旋路","SECT":" ","MAREA":" ","LANE":" ","ALLEY":" ","HOUSE_NO":"３２８號","E_COORD97":170686.60000000001,"N_COORD97":2543801.6099999999,"ADDRESS":"凱旋路３２８號","OBJECTID":567650},"geometry":{"x":170686.59999999963,"y":2543801.6099999994}},{"attributes":{"ID":567678,"DIS_CODE":0,"TOWNNAME":"東區","LI":"東光里","LIN":"28鄰","STREET":"凱旋路","SECT":" ","MAREA":" ","LANE":" ","ALLEY":" ","HOUSE_NO":"３３０號","E_COORD97":170681.07000000001,"N_COORD97":2543799.6299999999,"ADDRESS":"凱旋路３３０號","OBJECTID":567651},"geometry":{"x":170681.0700000003,"y":2543799.6300000008}},{"attributes":{"ID":567679,"DIS_CODE":0,"TOWNNAME":"東區","LI":"東光里","LIN":"28鄰","STREET":"凱旋路","SECT":" ","MAREA":" ","LANE":" ","ALLEY":" ","HOUSE_NO":"３３２號","E_COORD97":170676.39999999999,"N_COORD97":2543802.04,"ADDRESS":"凱旋路３３２號","OBJECTID":567652},"geometry":{"x":170676.4000000013,"y":2543802.0399999991}},{"attributes":{"ID":567680,"DIS_CODE":0,"TOWNNAME":"永康區","LI":"\u25A0行里","LIN":"28鄰","STREET":"中正三街","SECT":" ","MAREA":" ","LANE":" ","ALLEY":" ","HOUSE_NO":"４９０號","E_COORD97":173009.04000000001,"N_COORD97":2548624.5,"ADDRESS":"中正三街４９０號","OBJECTID":567653},"geometry":{"x":173009.04000000097,"y":2548624.5}},{"attributes":{"ID":567681,"DIS_CODE":0,"TOWNNAME":"永康區","LI":"\u25A0行里","LIN":"28鄰","STREET":"中正三街","SECT":" ","MAREA":" ","LANE":" ","ALLEY":" ","HOUSE_NO":"２０９號","E_COORD97":172699.64000000001,"N_COORD97":2548779.2999999998,"ADDRESS":"中正三街２０９號","OBJECTID":567654},"geometry":{"x":172699.6400000006,"y":2548779.3000000007}},{"attributes":{"ID":567682,"DIS_CODE":0,"TOWNNAME":"永康區","LI":"\u25A0行里","LIN":"28鄰","STREET":"中正三街","SECT":" ","MAREA":" ","LANE":" ","ALLEY":" ","HOUSE_NO":"５１８號","E_COORD97":173003.32000000001,"N_COORD97":2548512.5,"ADDRESS":"中正三街５１８號","OBJECTID":567655},"geometry":{"x":173003.3200000003,"y":2548512.5}},{"attributes":{"ID":567683,"DIS_CODE":0,"TOWNNAME":"善化區","LI":"光文里","LIN":"28鄰","STREET":"和平路","SECT":" ","MAREA":" ","LANE":" ","ALLEY":" ","HOUSE_NO":"２３５號","E_COORD97":178070.81,"N_COORD97":2559338.75,"ADDRESS":"和平路２３５號","OBJECTID":567656},"geometry":{"x":178070.81000000052,"y":2559338.75}},{"attributes":{"ID":567684,"DIS_CODE":0,"TOWNNAME":"安平區","LI":"建平里","LIN":"28鄰","STREET":"建平八街","SECT":" ","MAREA":" ","LANE":" ","ALLEY":" ","HOUSE_NO":"７２號","E_COORD97":165940.76000000001,"N_COORD97":2543496.8300000001,"ADDRESS":"建平八街７２號","OBJECTID":567657},"geometry":{"x":165940.75999999978,"y":2543496.8300000038}},{"attributes":{"ID":567685,"DIS_CODE":0,"TOWNNAME":"善化區","LI":"光文里","LIN":"28鄰","STREET":"和平路","SECT":" ","MAREA":" ","LANE":" ","ALLEY":" ","HOUSE_NO":"２３９之８號","E_COORD97":178032.62,"N_COORD97":2559366.7599999998,"ADDRESS":"和平路２３９之８號","OBJECTID":567658},"geometry":{"x":178032.62000000011,"y":2559366.7599999998}},{"attributes":{"ID":567686,"DIS_CODE":0,"TOWNNAME":"善化區","LI":"光文里","LIN":"28鄰","STREET":"和平路","SECT":" ","MAREA":" ","LANE":" ","ALLEY":" ","HOUSE_NO":"２３７號","E_COORD97":178071.25,"N_COORD97":2559355.25,"ADDRESS":"和平路２３７號","OBJECTID":567659},"geometry":{"x":178071.25000000093,"y":2559355.2500000019}},{"attributes":{"ID":567687,"DIS_CODE":0,"TOWNNAME":"善化區","LI":"光文里","LIN":"28鄰","STREET":"和平路","SECT":" ","MAREA":" ","LANE":" ","ALLEY":" ","HOUSE_NO":"２３３號之６","E_COORD97":178034.82000000001,"N_COORD97":2559325.77,"ADDRESS":"和平路２３３號之６","OBJECTID":567660},"geometry":{"x":178034.8200000003,"y":2559325.7699999996}},{"attributes":{"ID":567688,"DIS_CODE":0,"TOWNNAME":"善化區","LI":"光文里","LIN":"28鄰","STREET":"和平路","SECT":" ","MAREA":" ","LANE":" ","ALLEY":" ","HOUSE_NO":"２３７號之３","E_COORD97":178055.54000000001,"N_COORD97":2559354.27,"ADDRESS":"和平路２３７號之３","OBJECTID":567661},"geometry":{"x":178055.54000000097,"y":2559354.2700000014}},{"attributes":{"ID":567689,"DIS_CODE":0,"TOWNNAME":"善化區","LI":"光文里","LIN":"28鄰","STREET":"和平路","SECT":" ","MAREA":" ","LANE":" ","ALLEY":" ","HOUSE_NO":"２３９號之３","E_COORD97":178056.35999999999,"N_COORD97":2559367.77,"ADDRESS":"和平路２３９號之３","OBJECTID":567662},"geometry":{"x":178056.36000000034,"y":2559367.7700000014}},{"attributes":{"ID":567690,"DIS_CODE":0,"TOWNNAME":"善化區","LI":"光文里","LIN":"28鄰","STREET":"和平路","SECT":" ","MAREA":" ","LANE":" ","ALLEY":" ","HOUSE_NO":"２３３號之３","E_COORD97":178049.87,"N_COORD97":2559326.27,"ADDRESS":"和平路２３３號之３","OBJECTID":567663},"geometry":{"x":178049.87000000197,"y":2559326.2700000033}},{"attributes":{"ID":567691,"DIS_CODE":0,"TOWNNAME":"永康區","LI":"\u25A0行里","LIN":"28鄰","STREET":"中正五街","SECT":" ","MAREA":" ","LANE":" ","ALLEY":" ","HOUSE_NO":"１７０號","E_COORD97":173080.32999999999,"N_COORD97":2548461.2400000002,"ADDRESS":"中正五街１７０號","OBJECTID":567664},"geometry":{"x":173080.33000000101,"y":2548461.2400000021}},{"attributes":{"ID":567692,"DIS_CODE":0,"TOWNNAME":"永康區","LI":"\u25A0行里","LIN":"28鄰","STREET":"中正三街","SECT":" ","MAREA":" ","LANE":" ","ALLEY":" ","HOUSE_NO":"１９９號","E_COORD97":172679.04999999999,"N_COORD97":2548778.5499999998,"ADDRESS":"中正三街１９９號","OBJECTID":567665},"geometry":{"x":172679.04999999981,"y":2548778.5500000026}},{"attributes":{"ID":567693,"DIS_CODE":0,"TOWNNAME":"永康區","LI":"\u25A0行里","LIN":"28鄰","STREET":"中正五街","SECT":" ","MAREA":" ","LANE":" ","ALLEY":" ","HOUSE_NO":"１５８號","E_COORD97":173041.23999999999,"N_COORD97":2548462.9900000002,"ADDRESS":"中正五街１５８號","OBJECTID":567666},"geometry":{"x":173041.24000000022,"y":2548462.9900000021}},{"attributes":{"ID":567694,"DIS_CODE":0,"TOWNNAME":"永康區","LI":"\u25A0行里","LIN":"28鄰","STREET":"中正三街","SECT":" ","MAREA":" ","LANE":" ","ALLEY":" ","HOUSE_NO":"１９３號","E_COORD97":172667.03,"N_COORD97":2548778.0499999998,"ADDRESS":"中正三街１９３號","OBJECTID":567667},"geometry":{"x":172667.03000000119,"y":2548778.0500000045}},{"attributes":{"ID":567695,"DIS_CODE":0,"TOWNNAME":"東區","LI":"崇文里","LIN":"28鄰","STREET":"崇德二十三街","SECT":" ","MAREA":" ","LANE":" ","ALLEY":" ","HOUSE_NO":"１０號","E_COORD97":170829.92000000001,"N_COORD97":2540743.3399999999,"ADDRESS":"崇德二十三街１０號","OBJECTID":567668},"geometry":{"x":170829.92000000086,"y":2540743.3400000036}},{"attributes":{"ID":567696,"DIS_CODE":0,"TOWNNAME":"東區","LI":"崇文里","LIN":"28鄰","STREET":"崇德二十三街","SECT":" ","MAREA":" ","LANE":" ","ALLEY":" ","HOUSE_NO":"１２號","E_COORD97":170833.79999999999,"N_COORD97":2540743.4399999999,"ADDRESS":"崇德二十三街１２號","OBJECTID":567669},"geometry":{"x":170833.80000000075,"y":2540743.4400000013}},{"attributes":{"ID":567697,"DIS_CODE":0,"TOWNNAME":"東區","LI":"崇文里","LIN":"28鄰","STREET":"崇德二十三街","SECT":" ","MAREA":" ","LANE":" ","ALLEY":" ","HOUSE_NO":"１６之１號","E_COORD97":170842.56,"N_COORD97":2540743.4399999999,"ADDRESS":"崇德二十三街１６之１號","OBJECTID":567670},"geometry":{"x":170842.55999999959,"y":2540743.4400000013}},{"attributes":{"ID":567698,"DIS_CODE":0,"TOWNNAME":"東區","LI":"崇文里","LIN":"28鄰","STREET":"崇德二十三街","SECT":" ","MAREA":" ","LANE":" ","ALLEY":" ","HOUSE_NO":"１６號","E_COORD97":170838.17999999999,"N_COORD97":2540743.54,"ADDRESS":"崇德二十三街１６號","OBJECTID":567671},"geometry":{"x":170838.18000000063,"y":2540743.5399999991}},{"attributes":{"ID":567699,"DIS_CODE":0,"TOWNNAME":"東區","LI":"崇文里","LIN":"28鄰","STREET":"崇德二十三街","SECT":" ","MAREA":" ","LANE":" ","ALLEY":" ","HOUSE_NO":"１８之１號","E_COORD97":170850.92000000001,"N_COORD97":2540743.4399999999,"ADDRESS":"崇德二十三街１８之１號","OBJECTID":567672},"geometry":{"x":170850.91999999993,"y":2540743.4400000013}},{"attributes":{"ID":567700,"DIS_CODE":0,"TOWNNAME":"東區","LI":"崇文里","LIN":"28鄰","STREET":"崇德二十三街","SECT":" ","MAREA":" ","LANE":" ","ALLEY":" ","HOUSE_NO":"１８號","E_COORD97":170846.94,"N_COORD97":2540743.3399999999,"ADDRESS":"崇德二十三街１８號","OBJECTID":567673},"geometry":{"x":170846.94000000134,"y":2540743.3400000036}},{"attributes":{"ID":567701,"DIS_CODE":0,"TOWNNAME":"東區","LI":"崇文里","LIN":"28鄰","STREET":"崇德二十三街","SECT":" ","MAREA":" ","LANE":" ","ALLEY":" ","HOUSE_NO":"２０號","E_COORD97":170855.10999999999,"N_COORD97":2540743.54,"ADDRESS":"崇德二十三街２０號","OBJECTID":567674},"geometry":{"x":170855.11000000034,"y":2540743.5399999991}},{"attributes":{"ID":567702,"DIS_CODE":0,"TOWNNAME":"東區","LI":"崇文里","LIN":"28鄰","STREET":"崇德二十三街","SECT":" ","MAREA":" ","LANE":" ","ALLEY":" ","HOUSE_NO":"２２號","E_COORD97":170859.48999999999,"N_COORD97":2540743.54,"ADDRESS":"崇德二十三街２２號","OBJECTID":567675},"geometry":{"x":170859.49000000022,"y":2540743.5399999991}},{"attributes":{"ID":567703,"DIS_CODE":0,"TOWNNAME":"東區","LI":"崇文里","LIN":"28鄰","STREET":"崇德二十三街","SECT":" ","MAREA":" ","LANE":" ","ALLEY":" ","HOUSE_NO":"２６之１號","E_COORD97":170868.25,"N_COORD97":2540743.54,"ADDRESS":"崇德二十三街２６之１號","OBJECTID":567676},"geometry":{"x":170868.25000000093,"y":2540743.5399999991}},{"attributes":{"ID":567704,"DIS_CODE":0,"TOWNNAME":"東區","LI":"崇文里","LIN":"28鄰","STREET":"崇德二十三街","SECT":" ","MAREA":" ","LANE":" ","ALLEY":" ","HOUSE_NO":"２８之１號","E_COORD97":170876.70999999999,"N_COORD97":2540743.6400000001,"ADDRESS":"崇德二十三街２８之１號","OBJECTID":567677},"geometry":{"x":170876.71000000183,"y":2540743.6400000025}},{"attributes":{"ID":567705,"DIS_CODE":0,"TOWNNAME":"東區","LI":"崇文里","LIN":"28鄰","STREET":"崇德二十三街","SECT":" ","MAREA":" ","LANE":" ","ALLEY":" ","HOUSE_NO":"２８號","E_COORD97":170872.23000000001,"N_COORD97":2540743.6400000001,"ADDRESS":"崇德二十三街２８號","OBJECTID":567678},"geometry":{"x":170872.23000000138,"y":2540743.6400000025}},{"attributes":{"ID":567706,"DIS_CODE":0,"TOWNNAME":"東區","LI":"崇文里","LIN":"28鄰","STREET":"崇德二十三街","SECT":" ","MAREA":" ","LANE":" ","ALLEY":" ","HOUSE_NO":"６０號","E_COORD97":170954.14999999999,"N_COORD97":2540741.75,"ADDRESS":"崇德二十三街６０號","OBJECTID":567679},"geometry":{"x":170954.1500000013,"y":2540741.7500000019}},{"attributes":{"ID":567707,"DIS_CODE":0,"TOWNNAME":"東區","LI":"崇文里","LIN":"28鄰","STREET":"崇德二十三街","SECT":" ","MAREA":" ","LANE":" ","ALLEY":" ","HOUSE_NO":"６２號","E_COORD97":170958.23000000001,"N_COORD97":2540741.8500000001,"ADDRESS":"崇德二十三街６２號","OBJECTID":567680},"geometry":{"x":170958.23000000045,"y":2540741.8499999996}},{"attributes":{"ID":567708,"DIS_CODE":0,"TOWNNAME":"東區","LI":"崇文里","LIN":"28鄰","STREET":"崇德二十三街","SECT":" ","MAREA":" ","LANE":" ","ALLEY":" ","HOUSE_NO":"６４號","E_COORD97":170962.31,"N_COORD97":2540742.0499999998,"ADDRESS":"崇德二十三街６４號","OBJECTID":567681},"geometry":{"x":170962.31000000052,"y":2540742.0500000007}},{"attributes":{"ID":567709,"DIS_CODE":0,"TOWNNAME":"東區","LI":"崇文里","LIN":"28鄰","STREET":"崇德二十三街","SECT":" ","MAREA":" ","LANE":" ","ALLEY":" ","HOUSE_NO":"６號","E_COORD97":170816.12,"N_COORD97":2540749.8100000001,"ADDRESS":"崇德二十三街６號","OBJECTID":567682},"geometry":{"x":170816.12000000011,"y":2540749.8100000005}},{"attributes":{"ID":567710,"DIS_CODE":0,"TOWNNAME":"東區","LI":"崇文里","LIN":"28鄰","STREET":"崇德二十三街","SECT":" ","MAREA":" ","LANE":" ","ALLEY":" ","HOUSE_NO":"８之１號","E_COORD97":170825.94,"N_COORD97":2540743.3399999999,"ADDRESS":"崇德二十三街８之１號","OBJECTID":567683},"geometry":{"x":170825.94000000041,"y":2540743.3400000036}},{"attributes":{"ID":567711,"DIS_CODE":0,"TOWNNAME":"東區","LI":"崇文里","LIN":"28鄰","STREET":"崇德二十三街","SECT":" ","MAREA":" ","LANE":" ","ALLEY":" ","HOUSE_NO":"８號","E_COORD97":170821.45999999999,"N_COORD97":2540743.4399999999,"ADDRESS":"崇德二十三街８號","OBJECTID":567684},"geometry":{"x":170821.46000000089,"y":2540743.4400000013}},{"attributes":{"ID":567712,"DIS_CODE":0,"TOWNNAME":"東區","LI":"崇文里","LIN":"28鄰","STREET":"崇德二十四街","SECT":" ","MAREA":" ","LANE":" ","ALLEY":" ","HOUSE_NO":"１１號","E_COORD97":170841.87,"N_COORD97":2540722.1600000001,"ADDRESS":"崇德二十四街１１號","OBJECTID":567685},"geometry":{"x":170841.87000000197,"y":2540722.160000002}},{"attributes":{"ID":567713,"DIS_CODE":0,"TOWNNAME":"東區","LI":"崇文里","LIN":"28鄰","STREET":"崇德二十四街","SECT":" ","MAREA":" ","LANE":" ","ALLEY":" ","HOUSE_NO":"１５號","E_COORD97":170850.73000000001,"N_COORD97":2540722.25,"ADDRESS":"崇德二十四街１５號","OBJECTID":567686},"geometry":{"x":170850.73000000138,"y":2540722.25}},{"attributes":{"ID":567714,"DIS_CODE":0,"TOWNNAME":"東區","LI":"崇文里","LIN":"28鄰","STREET":"崇德二十四街","SECT":" ","MAREA":" ","LANE":" ","ALLEY":" ","HOUSE_NO":"１７號","E_COORD97":170855.89999999999,"N_COORD97":2540722.5499999998,"ADDRESS":"崇德二十四街１７號","OBJECTID":567687},"geometry":{"x":170855.9000000013,"y":2540722.5500000045}},{"attributes":{"ID":567715,"DIS_CODE":0,"TOWNNAME":"東區","LI":"崇文里","LIN":"28鄰","STREET":"崇德二十四街","SECT":" ","MAREA":" ","LANE":" ","ALLEY":" ","HOUSE_NO":"１９號","E_COORD97":170860.57999999999,"N_COORD97":2540722.5499999998,"ADDRESS":"崇德二十四街１９號","OBJECTID":567688},"geometry":{"x":170860.58000000007,"y":2540722.5500000045}},{"attributes":{"ID":567716,"DIS_CODE":0,"TOWNNAME":"東區","LI":"崇文里","LIN":"28鄰","STREET":"崇德二十四街","SECT":" ","MAREA":" ","LANE":" ","ALLEY":" ","HOUSE_NO":"１號","E_COORD97":170821.56,"N_COORD97":2540722.4500000002,"ADDRESS":"崇德二十四街１號","OBJECTID":567689},"geometry":{"x":170821.56000000052,"y":2540722.4500000011}},{"attributes":{"ID":567717,"DIS_CODE":0,"TOWNNAME":"東區","LI":"崇文里","LIN":"28鄰","STREET":"崇德二十四街","SECT":" ","MAREA":" ","LANE":" ","ALLEY":" ","HOUSE_NO":"２１號","E_COORD97":170867.95000000001,"N_COORD97":2540722.6499999999,"ADDRESS":"崇德二十四街２１號","OBJECTID":567690},"geometry":{"x":170867.95000000019,"y":2540722.6500000022}},{"attributes":{"ID":567718,"DIS_CODE":0,"TOWNNAME":"東區","LI":"崇文里","LIN":"28鄰","STREET":"崇德二十四街","SECT":" ","MAREA":" ","LANE":" ","ALLEY":" ","HOUSE_NO":"２３號","E_COORD97":170872.72,"N_COORD97":2540722.6499999999,"ADDRESS":"崇德二十四街２３號","OBJECTID":567691},"geometry":{"x":170872.71999999974,"y":2540722.6500000022}},{"attributes":{"ID":567719,"DIS_CODE":0,"TOWNNAME":"東區","LI":"崇文里","LIN":"28鄰","STREET":"崇德二十四街","SECT":" ","MAREA":" ","LANE":" ","ALLEY":" ","HOUSE_NO":"５１號","E_COORD97":170937.03,"N_COORD97":2540723.25,"ADDRESS":"崇德二十四街５１號","OBJECTID":567692},"geometry":{"x":170937.03000000026,"y":2540723.25}},{"attributes":{"ID":567720,"DIS_CODE":0,"TOWNNAME":"東區","LI":"崇文里","LIN":"28鄰","STREET":"崇德二十四街","SECT":" ","MAREA":" ","LANE":" ","ALLEY":" ","HOUSE_NO":"５３號","E_COORD97":170941.60999999999,"N_COORD97":2540723.4500000002,"ADDRESS":"崇德二十四街５３號","OBJECTID":567693},"geometry":{"x":170941.61000000034,"y":2540723.4499999993}},{"attributes":{"ID":567721,"DIS_CODE":0,"TOWNNAME":"東區","LI":"崇文里","LIN":"28鄰","STREET":"崇德二十四街","SECT":" ","MAREA":" ","LANE":" ","ALLEY":" ","HOUSE_NO":"５５號","E_COORD97":170945.48999999999,"N_COORD97":2540723.0499999998,"ADDRESS":"崇德二十四街５５號","OBJECTID":567694},"geometry":{"x":170945.49000000022,"y":2540723.0500000026}},{"attributes":{"ID":567722,"DIS_CODE":0,"TOWNNAME":"東區","LI":"崇文里","LIN":"28鄰","STREET":"崇德二十四街","SECT":" ","MAREA":" ","LANE":" ","ALLEY":" ","HOUSE_NO":"５７號","E_COORD97":170949.67000000001,"N_COORD97":2540723.0499999998,"ADDRESS":"崇德二十四街５７號","OBJECTID":567695},"geometry":{"x":170949.66999999899,"y":2540723.0500000026}},{"attributes":{"ID":567723,"DIS_CODE":0,"TOWNNAME":"東區","LI":"崇文里","LIN":"28鄰","STREET":"崇德二十四街","SECT":" ","MAREA":" ","LANE":" ","ALLEY":" ","HOUSE_NO":"５９號","E_COORD97":170954.14999999999,"N_COORD97":2540723.25,"ADDRESS":"崇德二十四街５９號","OBJECTID":567696},"geometry":{"x":170954.1500000013,"y":2540723.25}},{"attributes":{"ID":567724,"DIS_CODE":0,"TOWNNAME":"東區","LI":"崇文里","LIN":"28鄰","STREET":"崇德二十四街","SECT":" ","MAREA":" ","LANE":" ","ALLEY":" ","HOUSE_NO":"５號","E_COORD97":170829.82000000001,"N_COORD97":2540722.5499999998,"ADDRESS":"崇德二十四街５號","OBJECTID":567697},"geometry":{"x":170829.8200000003,"y":2540722.5500000045}},{"attributes":{"ID":567725,"DIS_CODE":0,"TOWNNAME":"東區","LI":"崇文里","LIN":"28鄰","STREET":"崇德二十四街","SECT":" ","MAREA":" ","LANE":" ","ALLEY":" ","HOUSE_NO":"６１號","E_COORD97":170957.92999999999,"N_COORD97":2540723.3500000001,"ADDRESS":"崇德二十四街６１號","OBJECTID":567698},"geometry":{"x":170957.93000000156,"y":2540723.3500000015}},{"attributes":{"ID":567726,"DIS_CODE":0,"TOWNNAME":"東區","LI":"崇文里","LIN":"28鄰","STREET":"崇德二十四街","SECT":" ","MAREA":" ","LANE":" ","ALLEY":" ","HOUSE_NO":"６３號","E_COORD97":170962.31,"N_COORD97":2540723.6499999999,"ADDRESS":"崇德二十四街６３號","OBJECTID":567699},"geometry":{"x":170962.31000000052,"y":2540723.6500000004}},{"attributes":{"ID":567727,"DIS_CODE":0,"TOWNNAME":"東區","LI":"崇文里","LIN":"28鄰","STREET":"崇德二十四街","SECT":" ","MAREA":" ","LANE":" ","ALLEY":" ","HOUSE_NO":"７號","E_COORD97":170833.70000000001,"N_COORD97":2540722.25,"ADDRESS":"崇德二十四街７號","OBJECTID":567700},"geometry":{"x":170833.70000000112,"y":2540722.25}},{"attributes":{"ID":567728,"DIS_CODE":0,"TOWNNAME":"東區","LI":"崇文里","LIN":"28鄰","STREET":"崇德二十四街","SECT":" ","MAREA":" ","LANE":" ","ALLEY":" ","HOUSE_NO":"９號","E_COORD97":170837.78,"N_COORD97":2540722.4500000002,"ADDRESS":"崇德二十四街９號","OBJECTID":567701},"geometry":{"x":170837.78000000119,"y":2540722.4500000011}},{"attributes":{"ID":567729,"DIS_CODE":0,"TOWNNAME":"東區","LI":"崇文里","LIN":"28鄰","STREET":"崇德路","SECT":" ","MAREA":" ","LANE":" ","ALLEY":" ","HOUSE_NO":"７８７號","E_COORD97":170801.79000000001,"N_COORD97":2540747.02,"ADDRESS":"崇德路７８７號","OBJECTID":567702},"geometry":{"x":170801.79000000097,"y":2540747.0199999996}},{"attributes":{"ID":567730,"DIS_CODE":0,"TOWNNAME":"東區","LI":"莊敬里","LIN":"28鄰","STREET":"中華東路","SECT":"一段","MAREA":" ","LANE":" ","ALLEY":" ","HOUSE_NO":"９２號","E_COORD97":171479.54000000001,"N_COORD97":2543934.2799999998,"ADDRESS":"中華東路一段９２號","OBJECTID":567703},"geometry":{"x":171479.54000000004,"y":2543934.2800000012}},{"attributes":{"ID":567731,"DIS_CODE":0,"TOWNNAME":"東區","LI":"莊敬里","LIN":"28鄰","STREET":"中華東路","SECT":"一段","MAREA":" ","LANE":" ","ALLEY":" ","HOUSE_NO":"９６號","E_COORD97":171478.67000000001,"N_COORD97":2543918.7799999998,"ADDRESS":"中華東路一段９６號","OBJECTID":567704},"geometry":{"x":171478.67000000179,"y":2543918.7799999993}},{"attributes":{"ID":567732,"DIS_CODE":0,"TOWNNAME":"東區","LI":"裕農里","LIN":"28鄰","STREET":"東寧路","SECT":" ","MAREA":" ","LANE":" ","ALLEY":" ","HOUSE_NO":"５４６號","E_COORD97":171233.32999999999,"N_COORD97":2543212.8700000001,"ADDRESS":"東寧路５４６號","OBJECTID":567705},"geometry":{"x":171233.33000000007,"y":2543212.8700000029}},{"attributes":{"ID":567733,"DIS_CODE":0,"TOWNNAME":"東區","LI":"裕農里","LIN":"28鄰","STREET":"東寧路","SECT":" ","MAREA":" ","LANE":" ","ALLEY":" ","HOUSE_NO":"５４８號","E_COORD97":171227.67999999999,"N_COORD97":2543244.8599999999,"ADDRESS":"東寧路５４８號","OBJECTID":567706},"geometry":{"x":171227.68000000063,"y":2543244.8600000031}},{"attributes":{"ID":567734,"DIS_CODE":0,"TOWNNAME":"東區","LI":"裕農里","LIN":"28鄰","STREET":"東寧路","SECT":" ","MAREA":" ","LANE":" ","ALLEY":" ","HOUSE_NO":"５５０號","E_COORD97":171231.01999999999,"N_COORD97":2543237.2799999998,"ADDRESS":"東寧路５５０號","OBJECTID":567707},"geometry":{"x":171231.01999999955,"y":2543237.2799999993}},{"attributes":{"ID":567735,"DIS_CODE":0,"TOWNNAME":"東區","LI":"裕農里","LIN":"28鄰","STREET":"東寧路","SECT":" ","MAREA":" ","LANE":" ","ALLEY":" ","HOUSE_NO":"５５２號","E_COORD97":171236.29999999999,"N_COORD97":2543237.6099999999,"ADDRESS":"東寧路５５２號","OBJECTID":567708},"geometry":{"x":171236.29999999981,"y":2543237.6100000013}},{"attributes":{"ID":567736,"DIS_CODE":0,"TOWNNAME":"東區","LI":"裕農里","LIN":"28鄰","STREET":"東寧路","SECT":" ","MAREA":" ","LANE":" ","ALLEY":" ","HOUSE_NO":"５５４號","E_COORD97":171242.57999999999,"N_COORD97":2543237.6099999999,"ADDRESS":"東寧路５５４號","OBJECTID":567709},"geometry":{"x":171242.58000000101,"y":2543237.6100000013}},{"attributes":{"ID":567737,"DIS_CODE":0,"TOWNNAME":"東區","LI":"裕農里","LIN":"28鄰","STREET":"東寧路","SECT":" ","MAREA":" ","LANE":" ","ALLEY":" ","HOUSE_NO":"５５６號","E_COORD97":171250.17999999999,"N_COORD97":2543215.5099999998,"ADDRESS":"東寧路５５６號","OBJECTID":567710},"geometry":{"x":171250.18000000063,"y":2543215.5099999998}},{"attributes":{"ID":567738,"DIS_CODE":0,"TOWNNAME":"永康區","LI":"\u25A0行里","LIN":"28鄰","STREET":"中正三街","SECT":" ","MAREA":" ","LANE":" ","ALLEY":" ","HOUSE_NO":"２１１號","E_COORD97":172703.64000000001,"N_COORD97":2548779.5499999998,"ADDRESS":"中正三街２１１號","OBJECTID":567711},"geometry":{"x":172703.63999999966,"y":2548779.5500000026}},{"attributes":{"ID":567739,"DIS_CODE":0,"TOWNNAME":"永康區","LI":"\u25A0行里","LIN":"28鄰","STREET":"中正三街","SECT":" ","MAREA":" ","LANE":" ","ALLEY":" ","HOUSE_NO":"４８８號","E_COORD97":173005.79000000001,"N_COORD97":2548642.4900000002,"ADDRESS":"中正三街４８８號","OBJECTID":567712},"geometry":{"x":173005.79000000097,"y":2548642.4900000039}},{"attributes":{"ID":567740,"DIS_CODE":0,"TOWNNAME":"永康區","LI":"\u25A0行里","LIN":"28鄰","STREET":"中正五街","SECT":" ","MAREA":" ","LANE":" ","ALLEY":" ","HOUSE_NO":"６１號","E_COORD97":172736.84,"N_COORD97":2548487,"ADDRESS":"中正五街６１號","OBJECTID":567713},"geometry":{"x":172736.83999999985,"y":2548487.0000000019}},{"attributes":{"ID":567741,"DIS_CODE":0,"TOWNNAME":"永康區","LI":"\u25A0行里","LIN":"28鄰","STREET":"中正五街","SECT":" ","MAREA":" ","LANE":" ","ALLEY":" ","HOUSE_NO":"１４７號","E_COORD97":173022.26000000001,"N_COORD97":2548483.5,"ADDRESS":"中正五街１４７號","OBJECTID":567714},"geometry":{"x":173022.26000000164,"y":2548483.5000000019}},{"attributes":{"ID":567742,"DIS_CODE":0,"TOWNNAME":"永康區","LI":"\u25A0行里","LIN":"28鄰","STREET":"中正三街","SECT":" ","MAREA":" ","LANE":" ","ALLEY":" ","HOUSE_NO":"２０１號","E_COORD97":172683.14000000001,"N_COORD97":2548778.5499999998,"ADDRESS":"中正三街２０１號","OBJECTID":567715},"geometry":{"x":172683.13999999966,"y":2548778.5500000026}},{"attributes":{"ID":567743,"DIS_CODE":0,"TOWNNAME":"歸仁區","LI":"崙頂里","LIN":"28鄰","STREET":"成功十街","SECT":" ","MAREA":" ","LANE":" ","ALLEY":" ","HOUSE_NO":"８２號","E_COORD97":177798.94,"N_COORD97":2539746.5499999998,"ADDRESS":"成功十街８２號","OBJECTID":567716},"geometry":{"x":177798.94000000134,"y":2539746.5500000026}},{"attributes":{"ID":567744,"DIS_CODE":0,"TOWNNAME":"歸仁區","LI":"崙頂里","LIN":"28鄰","STREET":"成功十街","SECT":" ","MAREA":" ","LANE":" ","ALLEY":" ","HOUSE_NO":"１０４號","E_COORD97":177796.39000000001,"N_COORD97":2539801.5499999998,"ADDRESS":"成功十街１０４號","OBJECTID":567717},"geometry":{"x":177796.38999999966,"y":2539801.5500000026}},{"attributes":{"ID":567745,"DIS_CODE":0,"TOWNNAME":"新營區","LI":"大宏里","LIN":"28鄰","STREET":"新東街","SECT":" ","MAREA":" ","LANE":" ","ALLEY":" ","HOUSE_NO":"３８號","E_COORD97":180803.39000000001,"N_COORD97":2578684.1099999999,"ADDRESS":"新東街３８號","OBJECTID":567718},"geometry":{"x":180803.38999999966,"y":2578684.1100000013}},{"attributes":{"ID":567746,"DIS_CODE":0,"TOWNNAME":"新營區","LI":"三仙里","LIN":"28鄰","STREET":"育德街","SECT":" ","MAREA":" ","LANE":" ","ALLEY":" ","HOUSE_NO":"５８號","E_COORD97":179599.39999999999,"N_COORD97":2579109.5099999998,"ADDRESS":"育德街５８號","OBJECTID":567719},"geometry":{"x":179599.40000000224,"y":2579109.5099999998}},{"attributes":{"ID":567747,"DIS_CODE":0,"TOWNNAME":"安平區","LI":"華平里","LIN":"28鄰","STREET":"平通路","SECT":" ","MAREA":" ","LANE":" ","ALLEY":" ","HOUSE_NO":"４５５號","E_COORD97":165259.51000000001,"N_COORD97":2543766.1699999999,"ADDRESS":"平通路４５５號","OBJECTID":567720},"geometry":{"x":165259.50999999978,"y":2543766.1700000018}},{"attributes":{"ID":567748,"DIS_CODE":0,"TOWNNAME":"安平區","LI":"建平里","LIN":"28鄰","STREET":"永華路","SECT":"二段","MAREA":" ","LANE":" ","ALLEY":" ","HOUSE_NO":"２１６號","E_COORD97":166019.54000000001,"N_COORD97":2543415.27,"ADDRESS":"永華路二段２１６號","OBJECTID":567721},"geometry":{"x":166019.5400000019,"y":2543415.2700000033}},{"attributes":{"ID":567749,"DIS_CODE":0,"TOWNNAME":"安平區","LI":"建平里","LIN":"28鄰","STREET":"永華路","SECT":"二段","MAREA":" ","LANE":" ","ALLEY":" ","HOUSE_NO":"２３６號","E_COORD97":165988.20000000001,"N_COORD97":2543425.3199999998,"ADDRESS":"永華路二段２３６號","OBJECTID":567722},"geometry":{"x":165988.20000000112,"y":2543425.3200000003}},{"attributes":{"ID":567750,"DIS_CODE":0,"TOWNNAME":"安平區","LI":"建平里","LIN":"28鄰","STREET":"永華路","SECT":"二段","MAREA":" ","LANE":" ","ALLEY":" ","HOUSE_NO":"２４６號","E_COORD97":165951.04999999999,"N_COORD97":2543429.96,"ADDRESS":"永華路二段２４６號","OBJECTID":567723},"geometry":{"x":165951.04999999981,"y":2543429.9600000028}},{"attributes":{"ID":567751,"DIS_CODE":0,"TOWNNAME":"安平區","LI":"建平里","LIN":"28鄰","STREET":"建平九街","SECT":" ","MAREA":" ","LANE":" ","ALLEY":" ","HOUSE_NO":"９２號","E_COORD97":165930.48000000001,"N_COORD97":2543555.0800000001,"ADDRESS":"建平九街９２號","OBJECTID":567724},"geometry":{"x":165930.48000000231,"y":2543555.0800000001}},{"attributes":{"ID":567752,"DIS_CODE":0,"TOWNNAME":"安平區","LI":"華平里","LIN":"28鄰","STREET":"平通路","SECT":" ","MAREA":" ","LANE":" ","ALLEY":" ","HOUSE_NO":"５０１號","E_COORD97":165151.69,"N_COORD97":2543783.75,"ADDRESS":"平通路５０１號","OBJECTID":567725},"geometry":{"x":165151.69000000134,"y":2543783.75}},{"attributes":{"ID":567753,"DIS_CODE":0,"TOWNNAME":"新營區","LI":"新北里","LIN":"28鄰","STREET":"新北二街","SECT":" ","MAREA":" ","LANE":" ","ALLEY":" ","HOUSE_NO":"６之５號","E_COORD97":178888.01999999999,"N_COORD97":2578741.98,"ADDRESS":"新北二街６之５號","OBJECTID":567726},"geometry":{"x":178888.02000000048,"y":2578741.9800000004}},{"attributes":{"ID":567754,"DIS_CODE":0,"TOWNNAME":"新營區","LI":"新北里","LIN":"28鄰","STREET":"新北街","SECT":" ","MAREA":" ","LANE":" ","ALLEY":" ","HOUSE_NO":"６８號","E_COORD97":178820.26000000001,"N_COORD97":2578737.8199999998,"ADDRESS":"新北街６８號","OBJECTID":567727},"geometry":{"x":178820.26000000071,"y":2578737.8200000022}},{"attributes":{"ID":567755,"DIS_CODE":0,"TOWNNAME":"安平區","LI":"建平里","LIN":"28鄰","STREET":"永華五街","SECT":" ","MAREA":" ","LANE":" ","ALLEY":" ","HOUSE_NO":"５７號","E_COORD97":165880.06,"N_COORD97":2543551.04,"ADDRESS":"永華五街５７號","OBJECTID":567728},"geometry":{"x":165880.06000000052,"y":2543551.0399999991}},{"attributes":{"ID":567756,"DIS_CODE":0,"TOWNNAME":"安平區","LI":"華平里","LIN":"28鄰","STREET":"平通路","SECT":" ","MAREA":" ","LANE":" ","ALLEY":" ","HOUSE_NO":"４２９號","E_COORD97":165314.98999999999,"N_COORD97":2543760.3599999999,"ADDRESS":"平通路４２９號","OBJECTID":567729},"geometry":{"x":165314.99000000115,"y":2543760.3600000031}},{"attributes":{"ID":567757,"DIS_CODE":0,"TOWNNAME":"新營區","LI":"民榮里","LIN":"28鄰","STREET":"金華路","SECT":"三段","MAREA":" ","LANE":" ","ALLEY":" ","HOUSE_NO":"６２號","E_COORD97":178012.92999999999,"N_COORD97":2578212.7999999998,"ADDRESS":"金華路三段６２號","OBJECTID":567730},"geometry":{"x":178012.9299999997,"y":2578212.8000000026}},{"attributes":{"ID":567758,"DIS_CODE":0,"TOWNNAME":"新營區","LI":"新南里","LIN":"28鄰","STREET":"明清街","SECT":" ","MAREA":" ","LANE":" ","ALLEY":" ","HOUSE_NO":"１００號","E_COORD97":178358.78,"N_COORD97":2578803.8300000001,"ADDRESS":"明清街１００號","OBJECTID":567731},"geometry":{"x":178358.78000000026,"y":2578803.8299999982}},{"attributes":{"ID":567759,"DIS_CODE":0,"TOWNNAME":"新營區","LI":"新南里","LIN":"28鄰","STREET":"明清街","SECT":" ","MAREA":" ","LANE":" ","ALLEY":" ","HOUSE_NO":"５６號","E_COORD97":178263.79000000001,"N_COORD97":2578726.1000000001,"ADDRESS":"明清街５６號","OBJECTID":567732},"geometry":{"x":178263.7900000019,"y":2578726.0999999996}},{"attributes":{"ID":567760,"DIS_CODE":0,"TOWNNAME":"新營區","LI":"三仙里","LIN":"28鄰","STREET":"育德街","SECT":" ","MAREA":" ","LANE":" ","ALLEY":" ","HOUSE_NO":"８２號","E_COORD97":179597.95000000001,"N_COORD97":2579222.48,"ADDRESS":"育德街８２號","OBJECTID":567733},"geometry":{"x":179597.95000000019,"y":2579222.4800000004}},{"attributes":{"ID":567761,"DIS_CODE":0,"TOWNNAME":"新營區","LI":"民榮里","LIN":"28鄰","STREET":"復興路","SECT":" ","MAREA":" ","LANE":" ","ALLEY":" ","HOUSE_NO":"４９９號","E_COORD97":178256.64000000001,"N_COORD97":2578245.5099999998,"ADDRESS":"復興路４９９號","OBJECTID":567734},"geometry":{"x":178256.6400000006,"y":2578245.5099999998}},{"attributes":{"ID":567762,"DIS_CODE":0,"TOWNNAME":"新營區","LI":"新南里","LIN":"28鄰","STREET":"明清二街","SECT":" ","MAREA":" ","LANE":" ","ALLEY":" ","HOUSE_NO":"２１號","E_COORD97":178277.85000000001,"N_COORD97":2578660.6899999999,"ADDRESS":"明清二街２１號","OBJECTID":567735},"geometry":{"x":178277.84999999963,"y":2578660.6899999995}},{"attributes":{"ID":567763,"DIS_CODE":0,"TOWNNAME":"新營區","LI":"大宏里","LIN":"28鄰","STREET":"新東街","SECT":" ","MAREA":" ","LANE":" ","ALLEY":" ","HOUSE_NO":"３６號","E_COORD97":180801.32999999999,"N_COORD97":2578679.6899999999,"ADDRESS":"新東街３６號","OBJECTID":567736},"geometry":{"x":180801.33000000194,"y":2578679.6900000013}},{"attributes":{"ID":567764,"DIS_CODE":0,"TOWNNAME":"新營區","LI":"民生里","LIN":"28鄰","STREET":"進修街","SECT":" ","MAREA":" ","LANE":" ","ALLEY":" ","HOUSE_NO":"２５之６２號","E_COORD97":178976.84,"N_COORD97":2578599.7999999998,"ADDRESS":"進修街２５之６２號","OBJECTID":567737},"geometry":{"x":178976.83999999985,"y":2578599.8000000007}},{"attributes":{"ID":567765,"DIS_CODE":0,"TOWNNAME":"新營區","LI":"新北里","LIN":"28鄰","STREET":"新北二街","SECT":" ","MAREA":" ","LANE":" ","ALLEY":" ","HOUSE_NO":"１２號","E_COORD97":178871.57000000001,"N_COORD97":2578774.1099999999,"ADDRESS":"新北二街１２號","OBJECTID":567738},"geometry":{"x":178871.57000000123,"y":2578774.1099999975}},{"attributes":{"ID":567766,"DIS_CODE":0,"TOWNNAME":"新營區","LI":"新北里","LIN":"28鄰","STREET":"新北二街","SECT":" ","MAREA":" ","LANE":" ","ALLEY":" ","HOUSE_NO":"１８號","E_COORD97":178886.92000000001,"N_COORD97":2578774.04,"ADDRESS":"新北二街１８號","OBJECTID":567739},"geometry":{"x":178886.92000000086,"y":2578774.0399999991}},{"attributes":{"ID":567767,"DIS_CODE":0,"TOWNNAME":"新營區","LI":"新東里","LIN":"28鄰","STREET":"東光街","SECT":" ","MAREA":" ","LANE":" ","ALLEY":" ","HOUSE_NO":"１１５號","E_COORD97":180592,"N_COORD97":2579816.9199999999,"ADDRESS":"東光街１１５號","OBJECTID":567740},"geometry":{"x":180592.00000000093,"y":2579816.9200000037}},{"attributes":{"ID":567768,"DIS_CODE":0,"TOWNNAME":"新營區","LI":"新東里","LIN":"28鄰","STREET":"東興九街","SECT":" ","MAREA":" ","LANE":" ","ALLEY":" ","HOUSE_NO":"１０號","E_COORD97":180712.34,"N_COORD97":2579791.9900000002,"ADDRESS":"東興九街１０號","OBJECTID":567741},"geometry":{"x":180712.33999999985,"y":2579791.9900000002}},{"attributes":{"ID":567769,"DIS_CODE":0,"TOWNNAME":"新營區","LI":"民生里","LIN":"28鄰","STREET":"民治路","SECT":" ","MAREA":" ","LANE":" ","ALLEY":" ","HOUSE_NO":"１３５號","E_COORD97":178906.67999999999,"N_COORD97":2578582.3599999999,"ADDRESS":"民治路１３５號","OBJECTID":567742},"geometry":{"x":178906.68000000156,"y":2578582.3599999994}},{"attributes":{"ID":567770,"DIS_CODE":0,"TOWNNAME":"新營區","LI":"新南里","LIN":"28鄰","STREET":"明清街","SECT":" ","MAREA":" ","LANE":" ","ALLEY":" ","HOUSE_NO":"９０號","E_COORD97":178330.5,"N_COORD97":2578783.3599999999,"ADDRESS":"明清街９０號","OBJECTID":567743},"geometry":{"x":178330.50000000093,"y":2578783.3600000013}},{"attributes":{"ID":567771,"DIS_CODE":0,"TOWNNAME":"歸仁區","LI":"崙頂里","LIN":"28鄰","STREET":"成功路","SECT":"二段","MAREA":" ","LANE":" ","ALLEY":" ","HOUSE_NO":"２３８號","E_COORD97":177812.91,"N_COORD97":2539644.8199999998,"ADDRESS":"成功路二段２３８號","OBJECTID":567744},"geometry":{"x":177812.91000000108,"y":2539644.8200000003}},{"attributes":{"ID":567772,"DIS_CODE":0,"TOWNNAME":"歸仁區","LI":"後市里","LIN":"28鄰","STREET":"民族北街","SECT":" ","MAREA":" ","LANE":" ","ALLEY":" ","HOUSE_NO":"２９號","E_COORD97":177425.92999999999,"N_COORD97":2540909.75,"ADDRESS":"民族北街２９號","OBJECTID":567745},"geometry":{"x":177425.93000000063,"y":2540909.75}},{"attributes":{"ID":567773,"DIS_CODE":0,"TOWNNAME":"歸仁區","LI":"歸仁里","LIN":"28鄰","STREET":"中山路","SECT":"一段","MAREA":" ","LANE":" ","ALLEY":" ","HOUSE_NO":"２３６之７號","E_COORD97":178806.20999999999,"N_COORD97":2540624.2599999998,"ADDRESS":"中山路一段２３６之７號","OBJECTID":567746},"geometry":{"x":178806.20999999996,"y":2540624.2599999998}},{"attributes":{"ID":567774,"DIS_CODE":0,"TOWNNAME":"新營區","LI":"民生里","LIN":"28鄰","STREET":"民治路","SECT":" ","MAREA":" ","LANE":" ","ALLEY":" ","HOUSE_NO":"１２３號","E_COORD97":178925.17000000001,"N_COORD97":2578598.8799999999,"ADDRESS":"民治路１２３號","OBJECTID":567747},"geometry":{"x":178925.16999999993,"y":2578598.8799999971}},{"attributes":{"ID":567775,"DIS_CODE":0,"TOWNNAME":"新營區","LI":"新東里","LIN":"28鄰","STREET":"東興七街","SECT":" ","MAREA":" ","LANE":" ","ALLEY":" ","HOUSE_NO":"２４號","E_COORD97":180680.5,"N_COORD97":2579748.9500000002,"ADDRESS":"東興七街２４號","OBJECTID":567748},"geometry":{"x":180680.50000000093,"y":2579748.9500000011}},{"attributes":{"ID":567776,"DIS_CODE":0,"TOWNNAME":"新營區","LI":"新東里","LIN":"28鄰","STREET":"東興七街","SECT":" ","MAREA":" ","LANE":" ","ALLEY":" ","HOUSE_NO":"２６號","E_COORD97":180675.39000000001,"N_COORD97":2579748.9700000002,"ADDRESS":"東興七街２６號","OBJECTID":567749},"geometry":{"x":180675.3900000006,"y":2579748.9700000007}},{"attributes":{"ID":567777,"DIS_CODE":0,"TOWNNAME":"新營區","LI":"南興里","LIN":"28鄰","STREET":"建業路","SECT":" ","MAREA":" ","LANE":" ","ALLEY":" ","HOUSE_NO":"１１７號","E_COORD97":178486.07999999999,"N_COORD97":2577480.2599999998,"ADDRESS":"建業路１１７號","OBJECTID":567750},"geometry":{"x":178486.08000000101,"y":2577480.2599999998}},{"attributes":{"ID":567778,"DIS_CODE":0,"TOWNNAME":"新營區","LI":"民生里","LIN":"28鄰","STREET":"民治路","SECT":" ","MAREA":" ","LANE":" ","ALLEY":" ","HOUSE_NO":"１２５號","E_COORD97":178922.09,"N_COORD97":2578596.6800000002,"ADDRESS":"民治路１２５號","OBJECTID":567751},"geometry":{"x":178922.08999999985,"y":2578596.6799999997}},{"attributes":{"ID":567779,"DIS_CODE":0,"TOWNNAME":"歸仁區","LI":"歸仁里","LIN":"28鄰","STREET":"中山路","SECT":"一段","MAREA":" ","LANE":" ","ALLEY":" ","HOUSE_NO":"１８號","E_COORD97":179604.03,"N_COORD97":2540328.5699999998,"ADDRESS":"中山路一段１８號","OBJECTID":567752},"geometry":{"x":179604.03000000119,"y":2540328.570000004}},{"attributes":{"ID":567780,"DIS_CODE":0,"TOWNNAME":"安平區","LI":"育平里","LIN":"28鄰","STREET":"郡平路","SECT":" ","MAREA":" ","LANE":" ","ALLEY":" ","HOUSE_NO":"１５９號","E_COORD97":164718.35999999999,"N_COORD97":2543310.54,"ADDRESS":"郡平路１５９號","OBJECTID":567753},"geometry":{"x":164718.36000000034,"y":2543310.5399999991}},{"attributes":{"ID":567781,"DIS_CODE":0,"TOWNNAME":"安平區","LI":"育平里","LIN":"28鄰","STREET":"郡平路","SECT":" ","MAREA":" ","LANE":" ","ALLEY":" ","HOUSE_NO":"１６１號","E_COORD97":164711.76000000001,"N_COORD97":2543311.5699999998,"ADDRESS":"郡平路１６１號","OBJECTID":567754},"geometry":{"x":164711.75999999978,"y":2543311.5700000003}},{"attributes":{"ID":567782,"DIS_CODE":0,"TOWNNAME":"安平區","LI":"育平里","LIN":"28鄰","STREET":"郡平路","SECT":" ","MAREA":" ","LANE":" ","ALLEY":" ","HOUSE_NO":"１６３號","E_COORD97":164702.66,"N_COORD97":2543312.7000000002,"ADDRESS":"郡平路１６３號","OBJECTID":567755},"geometry":{"x":164702.66000000015,"y":2543312.6999999993}},{"attributes":{"ID":567783,"DIS_CODE":0,"TOWNNAME":"安平區","LI":"育平里","LIN":"28鄰","STREET":"郡平路","SECT":" ","MAREA":" ","LANE":" ","ALLEY":" ","HOUSE_NO":"１６５號","E_COORD97":164698.34,"N_COORD97":2543313.7200000002,"ADDRESS":"郡平路１６５號","OBJECTID":567756},"geometry":{"x":164698.34000000171,"y":2543313.7200000007}},{"attributes":{"ID":567784,"DIS_CODE":0,"TOWNNAME":"安平區","LI":"育平里","LIN":"28鄰","STREET":"郡平路","SECT":" ","MAREA":" ","LANE":" ","ALLEY":" ","HOUSE_NO":"１６７號","E_COORD97":164693.79000000001,"N_COORD97":2543314.29,"ADDRESS":"郡平路１６７號","OBJECTID":567757},"geometry":{"x":164693.7900000019,"y":2543314.290000001}},{"attributes":{"ID":567785,"DIS_CODE":0,"TOWNNAME":"安平區","LI":"育平里","LIN":"28鄰","STREET":"郡平路","SECT":" ","MAREA":" ","LANE":" ","ALLEY":" ","HOUSE_NO":"１６９號","E_COORD97":164685.82999999999,"N_COORD97":2543315.4300000002,"ADDRESS":"郡平路１６９號","OBJECTID":567758},"geometry":{"x":164685.83000000101,"y":2543315.4299999997}},{"attributes":{"ID":567786,"DIS_CODE":0,"TOWNNAME":"安平區","LI":"育平里","LIN":"28鄰","STREET":"郡平路","SECT":" ","MAREA":" ","LANE":" ","ALLEY":" ","HOUSE_NO":"１７１號","E_COORD97":164680.70999999999,"N_COORD97":2543316.1099999999,"ADDRESS":"郡平路１７１號","OBJECTID":567759},"geometry":{"x":164680.71000000183,"y":2543316.1099999994}},{"attributes":{"ID":567787,"DIS_CODE":0,"TOWNNAME":"安平區","LI":"育平里","LIN":"28鄰","STREET":"郡平路","SECT":" ","MAREA":" ","LANE":" ","ALLEY":" ","HOUSE_NO":"１７３號","E_COORD97":164675.48000000001,"N_COORD97":2543316.6800000002,"ADDRESS":"郡平路１７３號","OBJECTID":567760},"geometry":{"x":164675.48000000045,"y":2543316.6799999997}},{"attributes":{"ID":567788,"DIS_CODE":0,"TOWNNAME":"安平區","LI":"育平里","LIN":"28鄰","STREET":"郡平路","SECT":" ","MAREA":" ","LANE":" ","ALLEY":" ","HOUSE_NO":"１７５號","E_COORD97":164669.91,"N_COORD97":2543317.4700000002,"ADDRESS":"郡平路１７５號","OBJECTID":567761},"geometry":{"x":164669.91000000108,"y":2543317.4700000025}},{"attributes":{"ID":567789,"DIS_CODE":0,"TOWNNAME":"安平區","LI":"育平里","LIN":"28鄰","STREET":"郡平路","SECT":" ","MAREA":" ","LANE":" ","ALLEY":" ","HOUSE_NO":"１７７號","E_COORD97":164662.88,"N_COORD97":2543318.5899999999,"ADDRESS":"郡平路１７７號","OBJECTID":567762},"geometry":{"x":164662.88000000082,"y":2543318.5900000017}},{"attributes":{"ID":567790,"DIS_CODE":0,"TOWNNAME":"安平區","LI":"育平里","LIN":"28鄰","STREET":"郡平路","SECT":" ","MAREA":" ","LANE":" ","ALLEY":" ","HOUSE_NO":"１７９號","E_COORD97":164652.87,"N_COORD97":2543319.8399999999,"ADDRESS":"郡平路１７９號","OBJECTID":567763},"geometry":{"x":164652.87000000104,"y":2543319.8400000036}},{"attributes":{"ID":567791,"DIS_CODE":0,"TOWNNAME":"南區","LI":"金華里","LIN":"28鄰","STREET":"中華西路","SECT":"一段","MAREA":" ","LANE":" ","ALLEY":" ","HOUSE_NO":"２５６號","E_COORD97":166532.19,"N_COORD97":2542425.9199999999,"ADDRESS":"中華西路一段２５６號","OBJECTID":567764},"geometry":{"x":166532.19000000041,"y":2542425.9200000018}},{"attributes":{"ID":567792,"DIS_CODE":0,"TOWNNAME":"南區","LI":"金華里","LIN":"28鄰","STREET":"中華西路","SECT":"一段","MAREA":" ","LANE":" ","ALLEY":" ","HOUSE_NO":"２５６號之１","E_COORD97":166530.5,"N_COORD97":2542419.6099999999,"ADDRESS":"中華西路一段２５６號之１","OBJECTID":567765},"geometry":{"x":166530.50000000093,"y":2542419.6100000013}},{"attributes":{"ID":567793,"DIS_CODE":0,"TOWNNAME":"南區","LI":"金華里","LIN":"28鄰","STREET":"中華西路","SECT":"一段","MAREA":" ","LANE":" ","ALLEY":" ","HOUSE_NO":"２５８號","E_COORD97":166533.09,"N_COORD97":2542430.54,"ADDRESS":"中華西路一段２５８號","OBJECTID":567766},"geometry":{"x":166533.09000000078,"y":2542430.540000001}},{"attributes":{"ID":567794,"DIS_CODE":0,"TOWNNAME":"南區","LI":"金華里","LIN":"28鄰","STREET":"中華西路","SECT":"一段","MAREA":" ","LANE":" ","ALLEY":" ","HOUSE_NO":"２６０號","E_COORD97":166536.25,"N_COORD97":2542433.9199999999,"ADDRESS":"中華西路一段２６０號","OBJECTID":567767},"geometry":{"x":166536.25,"y":2542433.9199999999}},{"attributes":{"ID":567795,"DIS_CODE":0,"TOWNNAME":"南區","LI":"金華里","LIN":"28鄰","STREET":"健康路","SECT":"二段","MAREA":" ","LANE":" ","ALLEY":" ","HOUSE_NO":"４０３號","E_COORD97":166593.22,"N_COORD97":2542506.9500000002,"ADDRESS":"健康路二段４０３號","OBJECTID":567768},"geometry":{"x":166593.22000000067,"y":2542506.9499999993}},{"attributes":{"ID":567796,"DIS_CODE":0,"TOWNNAME":"南區","LI":"金華里","LIN":"28鄰","STREET":"健康路","SECT":"二段","MAREA":" ","LANE":" ","ALLEY":" ","HOUSE_NO":"４０５號","E_COORD97":166587.95999999999,"N_COORD97":2542508.1499999999,"ADDRESS":"健康路二段４０５號","OBJECTID":567769},"geometry":{"x":166587.96000000183,"y":2542508.1500000041}},{"attributes":{"ID":567797,"DIS_CODE":0,"TOWNNAME":"南區","LI":"金華里","LIN":"28鄰","STREET":"健康路","SECT":"二段","MAREA":" ","LANE":" ","ALLEY":" ","HOUSE_NO":"４０７號","E_COORD97":166583.66,"N_COORD97":2542508.1499999999,"ADDRESS":"健康路二段４０７號","OBJECTID":567770},"geometry":{"x":166583.66000000108,"y":2542508.1500000041}},{"attributes":{"ID":567798,"DIS_CODE":0,"TOWNNAME":"南區","LI":"金華里","LIN":"28鄰","STREET":"健康路","SECT":"二段","MAREA":" ","LANE":" ","ALLEY":" ","HOUSE_NO":"４０９號","E_COORD97":166579.35000000001,"N_COORD97":2542508.1499999999,"ADDRESS":"健康路二段４０９號","OBJECTID":567771},"geometry":{"x":166579.34999999963,"y":2542508.1500000041}},{"attributes":{"ID":567799,"DIS_CODE":0,"TOWNNAME":"南區","LI":"金華里","LIN":"28鄰","STREET":"健康路","SECT":"二段","MAREA":" ","LANE":" ","ALLEY":" ","HOUSE_NO":"４１１號","E_COORD97":166574.81,"N_COORD97":2542509.3399999999,"ADDRESS":"健康路二段４１１號","OBJECTID":567772},"geometry":{"x":166574.80999999866,"y":2542509.3399999999}},{"attributes":{"ID":567800,"DIS_CODE":0,"TOWNNAME":"南區","LI":"金華里","LIN":"28鄰","STREET":"健康路","SECT":"二段","MAREA":" ","LANE":" ","ALLEY":" ","HOUSE_NO":"４１３號","E_COORD97":166568.35000000001,"N_COORD97":2542510.54,"ADDRESS":"健康路二段４１３號","OBJECTID":567773},"geometry":{"x":166568.35000000056,"y":2542510.5399999991}},{"attributes":{"ID":567801,"DIS_CODE":0,"TOWNNAME":"南區","LI":"金華里","LIN":"28鄰","STREET":"健康路","SECT":"二段","MAREA":" ","LANE":" ","ALLEY":" ","HOUSE_NO":"４１５號","E_COORD97":166559.01999999999,"N_COORD97":2542512.4500000002,"ADDRESS":"健康路二段４１５號","OBJECTID":567774},"geometry":{"x":166559.02000000048,"y":2542512.4500000011}},{"attributes":{"ID":567802,"DIS_CODE":0,"TOWNNAME":"新營區","LI":"民生里","LIN":"28鄰","STREET":"進修街","SECT":" ","MAREA":" ","LANE":" ","ALLEY":" ","HOUSE_NO":"２５之４６號","E_COORD97":178932.70000000001,"N_COORD97":2578567.8999999999,"ADDRESS":"進修街２５之４６號","OBJECTID":567775},"geometry":{"x":178932.70000000112,"y":2578567.9000000022}},{"attributes":{"ID":567803,"DIS_CODE":0,"TOWNNAME":"新營區","LI":"新北里","LIN":"28鄰","STREET":"新北街","SECT":" ","MAREA":" ","LANE":" ","ALLEY":" ","HOUSE_NO":"７６號","E_COORD97":178796.89000000001,"N_COORD97":2578764.5,"ADDRESS":"新北街７６號","OBJECTID":567776},"geometry":{"x":178796.89000000153,"y":2578764.5}},{"attributes":{"ID":567804,"DIS_CODE":0,"TOWNNAME":"新營區","LI":"民生里","LIN":"28鄰","STREET":"進修街","SECT":" ","MAREA":" ","LANE":" ","ALLEY":" ","HOUSE_NO":"２５之４４號","E_COORD97":178922.45999999999,"N_COORD97":2578564.6299999999,"ADDRESS":"進修街２５之４４號","OBJECTID":567777},"geometry":{"x":178922.46000000089,"y":2578564.6300000008}},{"attributes":{"ID":567805,"DIS_CODE":0,"TOWNNAME":"永康區","LI":"中華里","LIN":"18鄰","STREET":"忠義街","SECT":" ","MAREA":" ","LANE":" ","ALLEY":" ","HOUSE_NO":"４３號","E_COORD97":171708.20999999999,"N_COORD97":2544507.0699999998,"ADDRESS":"忠義街４３號","OBJECTID":567778},"geometry":{"x":171708.20999999996,"y":2544507.0700000022}},{"attributes":{"ID":567806,"DIS_CODE":0,"TOWNNAME":"新營區","LI":"民榮里","LIN":"28鄰","STREET":"復興路","SECT":" ","MAREA":" ","LANE":" ","ALLEY":" ","HOUSE_NO":"５０３號","E_COORD97":178240.20999999999,"N_COORD97":2578245.5899999999,"ADDRESS":"復興路５０３號","OBJECTID":567779},"geometry":{"x":178240.20999999996,"y":2578245.5899999999}},{"attributes":{"ID":567807,"DIS_CODE":0,"TOWNNAME":"新營區","LI":"新東里","LIN":"28鄰","STREET":"東興九街","SECT":" ","MAREA":" ","LANE":" ","ALLEY":" ","HOUSE_NO":"８號","E_COORD97":180720.35000000001,"N_COORD97":2579790.8399999999,"ADDRESS":"東興九街８號","OBJECTID":567780},"geometry":{"x":180720.34999999963,"y":2579790.8400000017}},{"attributes":{"ID":567808,"DIS_CODE":0,"TOWNNAME":"新營區","LI":"大宏里","LIN":"28鄰","STREET":"開元路","SECT":" ","MAREA":" ","LANE":" ","ALLEY":" ","HOUSE_NO":"３３號之３","E_COORD97":180844.28,"N_COORD97":2578638.5800000001,"ADDRESS":"開元路３３號之３","OBJECTID":567781},"geometry":{"x":180844.28000000212,"y":2578638.5800000001}},{"attributes":{"ID":567809,"DIS_CODE":0,"TOWNNAME":"安平區","LI":"育平里","LIN":"28鄰","STREET":"郡平路","SECT":" ","MAREA":" ","LANE":" ","ALLEY":" ","HOUSE_NO":"１９７號","E_COORD97":164603.42000000001,"N_COORD97":2543327.96,"ADDRESS":"郡平路１９７號","OBJECTID":567782},"geometry":{"x":164603.42000000086,"y":2543327.9600000028}},{"attributes":{"ID":567810,"DIS_CODE":0,"TOWNNAME":"安平區","LI":"育平里","LIN":"28鄰","STREET":"郡平路","SECT":" ","MAREA":" ","LANE":" ","ALLEY":" ","HOUSE_NO":"１８３號","E_COORD97":164638.98999999999,"N_COORD97":2543322.5699999998,"ADDRESS":"郡平路１８３號","OBJECTID":567783},"geometry":{"x":164638.99000000115,"y":2543322.5700000022}},{"attributes":{"ID":567811,"DIS_CODE":0,"TOWNNAME":"安平區","LI":"育平里","LIN":"28鄰","STREET":"郡平路","SECT":" ","MAREA":" ","LANE":" ","ALLEY":" ","HOUSE_NO":"１８５號","E_COORD97":164635.04000000001,"N_COORD97":2543323.1800000002,"ADDRESS":"郡平路１８５號","OBJECTID":567784},"geometry":{"x":164635.04000000097,"y":2543323.1799999997}},{"attributes":{"ID":567812,"DIS_CODE":0,"TOWNNAME":"安平區","LI":"育平里","LIN":"28鄰","STREET":"郡平路","SECT":" ","MAREA":" ","LANE":" ","ALLEY":" ","HOUSE_NO":"１８７號","E_COORD97":164629.35000000001,"N_COORD97":2543324.4300000002,"ADDRESS":"郡平路１８７號","OBJECTID":567785},"geometry":{"x":164629.35000000056,"y":2543324.4299999997}},{"attributes":{"ID":567813,"DIS_CODE":0,"TOWNNAME":"安平區","LI":"育平里","LIN":"28鄰","STREET":"郡平路","SECT":" ","MAREA":" ","LANE":" ","ALLEY":" ","HOUSE_NO":"１８９號","E_COORD97":164624.69,"N_COORD97":2543324.4300000002,"ADDRESS":"郡平路１８９號","OBJECTID":567786},"geometry":{"x":164624.69000000041,"y":2543324.4299999997}},{"attributes":{"ID":567814,"DIS_CODE":0,"TOWNNAME":"安平區","LI":"育平里","LIN":"28鄰","STREET":"郡平路","SECT":" ","MAREA":" ","LANE":" ","ALLEY":" ","HOUSE_NO":"１９１號","E_COORD97":164619.23000000001,"N_COORD97":2543325.23,"ADDRESS":"郡平路１９１號","OBJECTID":567787},"geometry":{"x":164619.23000000138,"y":2543325.2300000023}},{"attributes":{"ID":567815,"DIS_CODE":0,"TOWNNAME":"安平區","LI":"育平里","LIN":"28鄰","STREET":"郡平路","SECT":" ","MAREA":" ","LANE":" ","ALLEY":" ","HOUSE_NO":"１９３號","E_COORD97":164614.45000000001,"N_COORD97":2543326.02,"ADDRESS":"郡平路１９３號","OBJECTID":567788},"geometry":{"x":164614.45000000019,"y":2543326.0200000014}},{"attributes":{"ID":567816,"DIS_CODE":0,"TOWNNAME":"安平區","LI":"育平里","LIN":"28鄰","STREET":"郡平路","SECT":" ","MAREA":" ","LANE":" ","ALLEY":" ","HOUSE_NO":"１９５號","E_COORD97":164610.01000000001,"N_COORD97":2543326.8199999998,"ADDRESS":"郡平路１９５號","OBJECTID":567789},"geometry":{"x":164610.00999999978,"y":2543326.8200000003}},{"attributes":{"ID":567817,"DIS_CODE":0,"TOWNNAME":"安平區","LI":"育平里","LIN":"28鄰","STREET":"健康三街","SECT":" ","MAREA":" ","LANE":" ","ALLEY":" ","HOUSE_NO":"１７９號","E_COORD97":164741.19,"N_COORD97":2543239.8999999999,"ADDRESS":"健康三街１７９號","OBJECTID":567790},"geometry":{"x":164741.19000000134,"y":2543239.9000000022}},{"attributes":{"ID":567818,"DIS_CODE":0,"TOWNNAME":"安平區","LI":"育平里","LIN":"28鄰","STREET":"健康三街","SECT":" ","MAREA":" ","LANE":" ","ALLEY":" ","HOUSE_NO":"１８９號","E_COORD97":164747.92999999999,"N_COORD97":2543272.6699999999,"ADDRESS":"健康三街１８９號","OBJECTID":567791},"geometry":{"x":164747.9299999997,"y":2543272.6699999999}},{"attributes":{"ID":567819,"DIS_CODE":0,"TOWNNAME":"歸仁區","LI":"歸南里","LIN":"28鄰","STREET":"民生南街","SECT":"二段","MAREA":" ","LANE":" ","ALLEY":" ","HOUSE_NO":"２４８號","E_COORD97":176067.35999999999,"N_COORD97":2540068.25,"ADDRESS":"民生南街二段２４８號","OBJECTID":567792},"geometry":{"x":176067.36000000127,"y":2540068.25}},{"attributes":{"ID":567820,"DIS_CODE":0,"TOWNNAME":"歸仁區","LI":"媽廟里","LIN":"28鄰","STREET":"保大路","SECT":"一段","MAREA":" ","LANE":" ","ALLEY":" ","HOUSE_NO":"８２號","E_COORD97":177927.17999999999,"N_COORD97":2544038.7200000002,"ADDRESS":"保大路一段８２號","OBJECTID":567793},"geometry":{"x":177927.18000000063,"y":2544038.7200000025}},{"attributes":{"ID":567821,"DIS_CODE":0,"TOWNNAME":"歸仁區","LI":"歸南里","LIN":"28鄰","STREET":"民生南街","SECT":"二段","MAREA":" ","LANE":" ","ALLEY":" ","HOUSE_NO":"２６８號","E_COORD97":176067.16,"N_COORD97":2540032.25,"ADDRESS":"民生南街二段２６８號","OBJECTID":567794},"geometry":{"x":176067.16000000015,"y":2540032.2500000037}},{"attributes":{"ID":567822,"DIS_CODE":0,"TOWNNAME":"安平區","LI":"育平里","LIN":"28鄰","STREET":"健康三街","SECT":" ","MAREA":" ","LANE":" ","ALLEY":" ","HOUSE_NO":"１８１號","E_COORD97":164740.63,"N_COORD97":2543244.6600000001,"ADDRESS":"健康三街１８１號","OBJECTID":567795},"geometry":{"x":164740.63000000175,"y":2543244.660000002}},{"attributes":{"ID":567823,"DIS_CODE":0,"TOWNNAME":"安平區","LI":"建平里","LIN":"28鄰","STREET":"府前路","SECT":"二段","MAREA":" ","LANE":" ","ALLEY":" ","HOUSE_NO":"３１１號","E_COORD97":166582.72,"N_COORD97":2543674.0899999999,"ADDRESS":"府前路二段３１１號","OBJECTID":567796},"geometry":{"x":166582.72000000067,"y":2543674.089999998}},{"attributes":{"ID":567824,"DIS_CODE":0,"TOWNNAME":"新營區","LI":"三仙里","LIN":"28鄰","STREET":"育德街","SECT":" ","MAREA":" ","LANE":" ","ALLEY":" ","HOUSE_NO":"７０之４號","E_COORD97":179601.20999999999,"N_COORD97":2579177.1200000001,"ADDRESS":"育德街７０之４號","OBJECTID":567797},"geometry":{"x":179601.20999999996,"y":2579177.1200000029}},{"attributes":{"ID":567825,"DIS_CODE":0,"TOWNNAME":"新營區","LI":"三仙里","LIN":"28鄰","STREET":"育德街","SECT":" ","MAREA":" ","LANE":" ","ALLEY":" ","HOUSE_NO":"６４號","E_COORD97":179599.45000000001,"N_COORD97":2579121.6899999999,"ADDRESS":"育德街６４號","OBJECTID":567798},"geometry":{"x":179599.45000000112,"y":2579121.6899999995}},{"attributes":{"ID":567826,"DIS_CODE":0,"TOWNNAME":"新營區","LI":"三仙里","LIN":"28鄰","STREET":"育德街","SECT":" ","MAREA":" ","LANE":" ","ALLEY":" ","HOUSE_NO":"７０之１號","E_COORD97":179601.17000000001,"N_COORD97":2579167.1600000001,"ADDRESS":"育德街７０之１號","OBJECTID":567799},"geometry":{"x":179601.17000000086,"y":2579167.1600000001}},{"attributes":{"ID":567827,"DIS_CODE":0,"TOWNNAME":"新營區","LI":"新南里","LIN":"28鄰","STREET":"明清二街","SECT":" ","MAREA":" ","LANE":" ","ALLEY":" ","HOUSE_NO":"１５號","E_COORD97":178266.57000000001,"N_COORD97":2578669.6099999999,"ADDRESS":"明清二街１５號","OBJECTID":567800},"geometry":{"x":178266.5700000003,"y":2578669.6100000013}}]}