{"displayFieldName":"TOWNNAME","fieldAliases":{"ID":"ID","DIS_CODE":"DIS_CODE","TOWNNAME":"TOWNNAME","LI":"LI","LIN":"LIN","STREET":"STREET","SECT":"SECT","MAREA":"MAREA","LANE":"LANE","ALLEY":"ALLEY","HOUSE_NO":"HOUSE_NO","E_COORD97":"E_COORD97","N_COORD97":"N_COORD97","ADDRESS":"ADDRESS","OBJECTID":"OBJECTID"},"geometryType":"esriGeometryPoint","spatialReference":{"wkid":102443,"latestWkid":3826},"fields":[{"name":"ID","type":"esriFieldTypeDouble","alias":"ID"},{"name":"DIS_CODE","type":"esriFieldTypeInteger","alias":"DIS_CODE"},{"name":"TOWNNAME","type":"esriFieldTypeString","alias":"TOWNNAME","length":8},{"name":"LI","type":"esriFieldTypeString","alias":"LI","length":8},{"name":"LIN","type":"esriFieldTypeString","alias":"LIN","length":12},{"name":"STREET","type":"esriFieldTypeString","alias":"STREET","length":20},{"name":"SECT","type":"esriFieldTypeString","alias":"SECT","length":8},{"name":"MAREA","type":"esriFieldTypeString","alias":"MAREA","length":12},{"name":"LANE","type":"esriFieldTypeString","alias":"LANE","length":10},{"name":"ALLEY","type":"esriFieldTypeString","alias":"ALLEY","length":10},{"name":"HOUSE_NO","type":"esriFieldTypeString","alias":"HOUSE_NO","length":20},{"name":"E_COORD97","type":"esriFieldTypeDouble","alias":"E_COORD97"},{"name":"N_COORD97","type":"esriFieldTypeDouble","alias":"N_COORD97"},{"name":"ADDRESS","type":"esriFieldTypeString","alias":"ADDRESS","length":50},{"name":"OBJECTID","type":"esriFieldTypeOID","alias":"OBJECTID"}],"features":[{"attributes":{"ID":423026,"DIS_CODE":0,"TOWNNAME":"永康區","LI":"二王里","LIN":"26鄰","STREET":"中山南路","SECT":" ","MAREA":" ","LANE":"５４４巷","ALLEY":" ","HOUSE_NO":"１０６號","E_COORD97":172313.76999999999,"N_COORD97":2546198.8799999999,"ADDRESS":"中山南路５４４巷１０６號","OBJECTID":423001},"geometry":{"x":172313.77000000048,"y":2546198.8800000008}},{"attributes":{"ID":423027,"DIS_CODE":0,"TOWNNAME":"永康區","LI":"神洲里","LIN":"4鄰","STREET":"忠孝路","SECT":" ","MAREA":" ","LANE":"３６巷","ALLEY":" ","HOUSE_NO":"１３號","E_COORD97":172145.07000000001,"N_COORD97":2544680.0600000001,"ADDRESS":"忠孝路３６巷１３號","OBJECTID":423002},"geometry":{"x":172145.07000000123,"y":2544680.0600000024}},{"attributes":{"ID":423028,"DIS_CODE":0,"TOWNNAME":"永康區","LI":"\u25A0行里","LIN":"38鄰","STREET":"仁愛街","SECT":" ","MAREA":" ","LANE":"１３６巷","ALLEY":" ","HOUSE_NO":"３９號","E_COORD97":172260.47,"N_COORD97":2549610.27,"ADDRESS":"仁愛街１３６巷３９號","OBJECTID":423003},"geometry":{"x":172260.47000000067,"y":2549610.2700000014}},{"attributes":{"ID":423029,"DIS_CODE":0,"TOWNNAME":"永康區","LI":"五王里","LIN":"26鄰","STREET":"五福街","SECT":" ","MAREA":" ","LANE":"８２巷","ALLEY":" ","HOUSE_NO":"１６號","E_COORD97":171489.64999999999,"N_COORD97":2545914.75,"ADDRESS":"五福街８２巷１６號","OBJECTID":423004},"geometry":{"x":171489.6500000013,"y":2545914.7500000019}},{"attributes":{"ID":423030,"DIS_CODE":0,"TOWNNAME":"永康區","LI":"北灣里","LIN":"25鄰","STREET":"大灣路","SECT":" ","MAREA":" ","LANE":"２１５巷","ALLEY":" ","HOUSE_NO":"１１號","E_COORD97":175021.78,"N_COORD97":2545316.5499999998,"ADDRESS":"大灣路２１５巷１１號","OBJECTID":423005},"geometry":{"x":175021.78000000119,"y":2545316.5500000045}},{"attributes":{"ID":423031,"DIS_CODE":0,"TOWNNAME":"永康區","LI":"復華里","LIN":"32鄰","STREET":"復華十街","SECT":" ","MAREA":" ","LANE":"４５巷","ALLEY":" ","HOUSE_NO":"１９號","E_COORD97":172579.72,"N_COORD97":2546372.5800000001,"ADDRESS":"復華十街４５巷１９號","OBJECTID":423006},"geometry":{"x":172579.71999999974,"y":2546372.5800000001}},{"attributes":{"ID":423032,"DIS_CODE":0,"TOWNNAME":"永康區","LI":"中興里","LIN":"4鄰","STREET":"中華路","SECT":" ","MAREA":" ","LANE":"２１２巷","ALLEY":" ","HOUSE_NO":"４５號","E_COORD97":171815.37,"N_COORD97":2545027.7400000002,"ADDRESS":"中華路２１２巷４５號","OBJECTID":423007},"geometry":{"x":171815.37000000104,"y":2545027.7400000021}},{"attributes":{"ID":423033,"DIS_CODE":0,"TOWNNAME":"永康區","LI":"復國里","LIN":" ","STREET":"復國二路","SECT":" ","MAREA":" ","LANE":"１１８巷","ALLEY":" ","HOUSE_NO":"１０之１號","E_COORD97":172914.29999999999,"N_COORD97":2545463.0699999998,"ADDRESS":"復國二路１１８巷１０之１號","OBJECTID":423008},"geometry":{"x":172914.30000000075,"y":2545463.0700000022}},{"attributes":{"ID":423034,"DIS_CODE":0,"TOWNNAME":"永康區","LI":"東橋里","LIN":" ","STREET":"中山南路","SECT":" ","MAREA":" ","LANE":"３６５巷","ALLEY":" ","HOUSE_NO":"４之４４號","E_COORD97":172801.92999999999,"N_COORD97":2547067.8900000001,"ADDRESS":"中山南路３６５巷４之４４號","OBJECTID":423009},"geometry":{"x":172801.9299999997,"y":2547067.8900000025}},{"attributes":{"ID":423035,"DIS_CODE":0,"TOWNNAME":"永康區","LI":"神洲里","LIN":"5鄰","STREET":"忠孝路","SECT":" ","MAREA":" ","LANE":"３８巷","ALLEY":" ","HOUSE_NO":"１１號","E_COORD97":172127.85999999999,"N_COORD97":2544707.96,"ADDRESS":"忠孝路３８巷１１號","OBJECTID":423010},"geometry":{"x":172127.86000000127,"y":2544707.9600000028}},{"attributes":{"ID":423036,"DIS_CODE":0,"TOWNNAME":"永康區","LI":"永康里","LIN":"38鄰","STREET":"大同街","SECT":" ","MAREA":" ","LANE":"７１５巷","ALLEY":" ","HOUSE_NO":"８號","E_COORD97":174466.87,"N_COORD97":2546680.7999999998,"ADDRESS":"大同街７１５巷８號","OBJECTID":423011},"geometry":{"x":174466.87000000104,"y":2546680.7999999989}},{"attributes":{"ID":423037,"DIS_CODE":0,"TOWNNAME":"永康區","LI":"二王里","LIN":"26鄰","STREET":"中山南路","SECT":" ","MAREA":" ","LANE":"５４４巷","ALLEY":" ","HOUSE_NO":"１００號","E_COORD97":172314.85999999999,"N_COORD97":2546212.3799999999,"ADDRESS":"中山南路５４４巷１００號","OBJECTID":423012},"geometry":{"x":172314.86000000034,"y":2546212.3800000008}},{"attributes":{"ID":423038,"DIS_CODE":0,"TOWNNAME":"永康區","LI":"二王里","LIN":"26鄰","STREET":"中山南路","SECT":" ","MAREA":" ","LANE":"５４４巷","ALLEY":" ","HOUSE_NO":"１１１號","E_COORD97":172331.62,"N_COORD97":2546220,"ADDRESS":"中山南路５４４巷１１１號","OBJECTID":423013},"geometry":{"x":172331.62000000011,"y":2546220}},{"attributes":{"ID":423039,"DIS_CODE":0,"TOWNNAME":"永康區","LI":"二王里","LIN":"32鄰","STREET":"中山南路","SECT":" ","MAREA":" ","LANE":"５１０巷","ALLEY":" ","HOUSE_NO":"３８號","E_COORD97":172182.82000000001,"N_COORD97":2546415.73,"ADDRESS":"中山南路５１０巷３８號","OBJECTID":423014},"geometry":{"x":172182.8200000003,"y":2546415.7300000004}},{"attributes":{"ID":423040,"DIS_CODE":0,"TOWNNAME":"永康區","LI":"二王里","LIN":"26鄰","STREET":"中山南路","SECT":" ","MAREA":" ","LANE":"５４４巷","ALLEY":" ","HOUSE_NO":"１１０號","E_COORD97":172313.67000000001,"N_COORD97":2546188.8700000001,"ADDRESS":"中山南路５４４巷１１０號","OBJECTID":423015},"geometry":{"x":172313.66999999993,"y":2546188.870000001}},{"attributes":{"ID":423041,"DIS_CODE":0,"TOWNNAME":"永康區","LI":"南灣里","LIN":"20鄰","STREET":"立興街","SECT":" ","MAREA":" ","LANE":"１７８巷","ALLEY":" ","HOUSE_NO":"２號","E_COORD97":174288.09,"N_COORD97":2544594.9500000002,"ADDRESS":"立興街１７８巷２號","OBJECTID":423016},"geometry":{"x":174288.09000000171,"y":2544594.9500000011}},{"attributes":{"ID":423042,"DIS_CODE":0,"TOWNNAME":"永康區","LI":"龍潭里","LIN":"38鄰","STREET":"中山北路","SECT":" ","MAREA":" ","LANE":"１６４巷","ALLEY":" ","HOUSE_NO":"８０號之１５","E_COORD97":174455.25,"N_COORD97":2547365.7999999998,"ADDRESS":"中山北路１６４巷８０號之１５","OBJECTID":423017},"geometry":{"x":174455.25000000093,"y":2547365.8000000045}},{"attributes":{"ID":423043,"DIS_CODE":0,"TOWNNAME":"永康區","LI":"三民里","LIN":"4鄰","STREET":"三民街","SECT":" ","MAREA":" ","LANE":"９０巷","ALLEY":" ","HOUSE_NO":"１５號","E_COORD97":172977.37,"N_COORD97":2550343.29,"ADDRESS":"三民街９０巷１５號","OBJECTID":423018},"geometry":{"x":172977.37000000011,"y":2550343.2899999991}},{"attributes":{"ID":423044,"DIS_CODE":0,"TOWNNAME":"永康區","LI":"崑山里","LIN":"4鄰","STREET":"永大路","SECT":"一段","MAREA":" ","LANE":"２８７巷","ALLEY":" ","HOUSE_NO":"９號","E_COORD97":173946.54999999999,"N_COORD97":2544402.5699999998,"ADDRESS":"永大路一段２８７巷９號","OBJECTID":423019},"geometry":{"x":173946.55000000075,"y":2544402.5700000003}},{"attributes":{"ID":423045,"DIS_CODE":0,"TOWNNAME":"永康區","LI":"西灣里","LIN":"32鄰","STREET":"國光八街","SECT":" ","MAREA":" ","LANE":"９０巷","ALLEY":" ","HOUSE_NO":"２６號","E_COORD97":174195.03,"N_COORD97":2545849.4900000002,"ADDRESS":"國光八街９０巷２６號","OBJECTID":423020},"geometry":{"x":174195.03000000026,"y":2545849.4900000021}},{"attributes":{"ID":423046,"DIS_CODE":0,"TOWNNAME":"永康區","LI":"北灣里","LIN":"4鄰","STREET":"信義街","SECT":" ","MAREA":" ","LANE":"６２巷","ALLEY":" ","HOUSE_NO":"１４號","E_COORD97":175436.12,"N_COORD97":2545705.52,"ADDRESS":"信義街６２巷１４號","OBJECTID":423021},"geometry":{"x":175436.12000000104,"y":2545705.5200000033}},{"attributes":{"ID":423047,"DIS_CODE":0,"TOWNNAME":"永康區","LI":"北灣里","LIN":"4鄰","STREET":"信義街","SECT":" ","MAREA":" ","LANE":"９４巷","ALLEY":" ","HOUSE_NO":"５號之１","E_COORD97":175274.73999999999,"N_COORD97":2545691.6299999999,"ADDRESS":"信義街９４巷５號之１","OBJECTID":423022},"geometry":{"x":175274.74000000115,"y":2545691.6300000008}},{"attributes":{"ID":423048,"DIS_CODE":0,"TOWNNAME":"永康區","LI":"二王里","LIN":"4鄰","STREET":"二王路","SECT":" ","MAREA":" ","LANE":"４０巷","ALLEY":" ","HOUSE_NO":"７號","E_COORD97":172959.04000000001,"N_COORD97":2546755.3399999999,"ADDRESS":"二王路４０巷７號","OBJECTID":423023},"geometry":{"x":172959.04000000004,"y":2546755.3400000017}},{"attributes":{"ID":423049,"DIS_CODE":0,"TOWNNAME":"永康區","LI":"二王里","LIN":"25鄰","STREET":"中山南路","SECT":" ","MAREA":" ","LANE":"５４４巷","ALLEY":" ","HOUSE_NO":"７１號","E_COORD97":172338.39000000001,"N_COORD97":2546323.25,"ADDRESS":"中山南路５４４巷７１號","OBJECTID":423024},"geometry":{"x":172338.3900000006,"y":2546323.25}},{"attributes":{"ID":423050,"DIS_CODE":0,"TOWNNAME":"安南區","LI":"幸福里","LIN":"19鄰","STREET":"府安路","SECT":"六段","MAREA":" ","LANE":"７巷","ALLEY":" ","HOUSE_NO":"１０號","E_COORD97":167171.54000000001,"N_COORD97":2546778.2599999998,"ADDRESS":"府安路六段７巷１０號","OBJECTID":423025},"geometry":{"x":167171.54000000004,"y":2546778.2599999998}},{"attributes":{"ID":423051,"DIS_CODE":0,"TOWNNAME":"安南區","LI":"幸福里","LIN":"19鄰","STREET":"府安路","SECT":"六段","MAREA":" ","LANE":"７巷","ALLEY":" ","HOUSE_NO":"１１號","E_COORD97":167125.56,"N_COORD97":2546769.23,"ADDRESS":"府安路六段７巷１１號","OBJECTID":423026},"geometry":{"x":167125.55999999959,"y":2546769.2299999986}},{"attributes":{"ID":423052,"DIS_CODE":0,"TOWNNAME":"安南區","LI":"幸福里","LIN":"19鄰","STREET":"府安路","SECT":"六段","MAREA":" ","LANE":"７巷","ALLEY":" ","HOUSE_NO":"１２號","E_COORD97":167165.54999999999,"N_COORD97":2546775.48,"ADDRESS":"府安路六段７巷１２號","OBJECTID":423027},"geometry":{"x":167165.55000000075,"y":2546775.4800000023}},{"attributes":{"ID":423053,"DIS_CODE":0,"TOWNNAME":"安南區","LI":"幸福里","LIN":"19鄰","STREET":"府安路","SECT":"六段","MAREA":" ","LANE":"７巷","ALLEY":" ","HOUSE_NO":"１３號","E_COORD97":167132.51000000001,"N_COORD97":2546767.7999999998,"ADDRESS":"府安路六段７巷１３號","OBJECTID":423028},"geometry":{"x":167132.50999999978,"y":2546767.8000000007}},{"attributes":{"ID":423054,"DIS_CODE":0,"TOWNNAME":"安南區","LI":"幸福里","LIN":"19鄰","STREET":"府安路","SECT":"六段","MAREA":" ","LANE":"７巷","ALLEY":" ","HOUSE_NO":"１４號","E_COORD97":167158.67000000001,"N_COORD97":2546776.9500000002,"ADDRESS":"府安路六段７巷１４號","OBJECTID":423029},"geometry":{"x":167158.66999999993,"y":2546776.950000003}},{"attributes":{"ID":423055,"DIS_CODE":0,"TOWNNAME":"安南區","LI":"幸福里","LIN":"19鄰","STREET":"府安路","SECT":"六段","MAREA":" ","LANE":"７巷","ALLEY":" ","HOUSE_NO":"１５號","E_COORD97":167139.07999999999,"N_COORD97":2546769.6899999999,"ADDRESS":"府安路六段７巷１５號","OBJECTID":423030},"geometry":{"x":167139.08000000007,"y":2546769.6900000013}},{"attributes":{"ID":423056,"DIS_CODE":0,"TOWNNAME":"安南區","LI":"幸福里","LIN":"19鄰","STREET":"府安路","SECT":"六段","MAREA":" ","LANE":"７巷","ALLEY":" ","HOUSE_NO":"１６號","E_COORD97":167152.60000000001,"N_COORD97":2546771.96,"ADDRESS":"府安路六段７巷１６號","OBJECTID":423031},"geometry":{"x":167152.59999999963,"y":2546771.9600000028}},{"attributes":{"ID":423057,"DIS_CODE":0,"TOWNNAME":"安南區","LI":"幸福里","LIN":"19鄰","STREET":"府安路","SECT":"六段","MAREA":" ","LANE":"７巷","ALLEY":" ","HOUSE_NO":"１７號","E_COORD97":167136.20000000001,"N_COORD97":2546782.3500000001,"ADDRESS":"府安路六段７巷１７號","OBJECTID":423032},"geometry":{"x":167136.20000000112,"y":2546782.3500000015}},{"attributes":{"ID":423058,"DIS_CODE":0,"TOWNNAME":"安南區","LI":"幸福里","LIN":"19鄰","STREET":"府安路","SECT":"六段","MAREA":" ","LANE":"７巷","ALLEY":" ","HOUSE_NO":"１８號","E_COORD97":167149.07999999999,"N_COORD97":2546788.7000000002,"ADDRESS":"府安路六段７巷１８號","OBJECTID":423033},"geometry":{"x":167149.08000000101,"y":2546788.700000003}},{"attributes":{"ID":423059,"DIS_CODE":0,"TOWNNAME":"安南區","LI":"海南里","LIN":"13鄰","STREET":"府安路","SECT":"七段","MAREA":" ","LANE":"５７巷","ALLEY":" ","HOUSE_NO":"２９號","E_COORD97":165870.95999999999,"N_COORD97":2546009.8799999999,"ADDRESS":"府安路七段５７巷２９號","OBJECTID":423034},"geometry":{"x":165870.96000000089,"y":2546009.879999999}},{"attributes":{"ID":423060,"DIS_CODE":0,"TOWNNAME":"安南區","LI":"海南里","LIN":"13鄰","STREET":"府安路","SECT":"七段","MAREA":" ","LANE":"５７巷","ALLEY":" ","HOUSE_NO":"２４號","E_COORD97":165905.17999999999,"N_COORD97":2546005.0800000001,"ADDRESS":"府安路七段５７巷２４號","OBJECTID":423035},"geometry":{"x":165905.18000000063,"y":2546005.0800000019}},{"attributes":{"ID":423061,"DIS_CODE":0,"TOWNNAME":"安南區","LI":"幸福里","LIN":"14鄰","STREET":"府安路","SECT":"六段","MAREA":" ","LANE":"４５巷","ALLEY":" ","HOUSE_NO":"３３號","E_COORD97":166932.91,"N_COORD97":2546742.8799999999,"ADDRESS":"府安路六段４５巷３３號","OBJECTID":423036},"geometry":{"x":166932.91000000108,"y":2546742.8799999971}},{"attributes":{"ID":423062,"DIS_CODE":0,"TOWNNAME":"安南區","LI":"幸福里","LIN":"4鄰","STREET":"國安街","SECT":" ","MAREA":" ","LANE":"１０９巷","ALLEY":" ","HOUSE_NO":"７號","E_COORD97":166882.29000000001,"N_COORD97":2546946.3900000001,"ADDRESS":"國安街１０９巷７號","OBJECTID":423037},"geometry":{"x":166882.2900000019,"y":2546946.3900000025}},{"attributes":{"ID":423063,"DIS_CODE":0,"TOWNNAME":"安南區","LI":"溪頂里","LIN":"4鄰","STREET":"府安路","SECT":"四段","MAREA":" ","LANE":"１２１巷","ALLEY":" ","HOUSE_NO":"８號","E_COORD97":168989.32999999999,"N_COORD97":2547302,"ADDRESS":"府安路四段１２１巷８號","OBJECTID":423038},"geometry":{"x":168989.33000000194,"y":2547302}},{"attributes":{"ID":423064,"DIS_CODE":0,"TOWNNAME":"安南區","LI":"海佃里","LIN":"25鄰","STREET":"國安街","SECT":" ","MAREA":" ","LANE":"１５６巷","ALLEY":" ","HOUSE_NO":"９４號","E_COORD97":166705.76000000001,"N_COORD97":2547235,"ADDRESS":"國安街１５６巷９４號","OBJECTID":423039},"geometry":{"x":166705.75999999978,"y":2547235.0000000037}},{"attributes":{"ID":423065,"DIS_CODE":0,"TOWNNAME":"安南區","LI":"幸福里","LIN":"13鄰","STREET":"府安路","SECT":"六段","MAREA":" ","LANE":"７１巷","ALLEY":" ","HOUSE_NO":"８號","E_COORD97":166862.28,"N_COORD97":2546616.0699999998,"ADDRESS":"府安路六段７１巷８號","OBJECTID":423040},"geometry":{"x":166862.28000000212,"y":2546616.0700000003}},{"attributes":{"ID":423066,"DIS_CODE":0,"TOWNNAME":"安南區","LI":"安慶里","LIN":"15鄰","STREET":"安中路","SECT":"一段","MAREA":" ","LANE":"１５８巷","ALLEY":" ","HOUSE_NO":"１４號","E_COORD97":168886.60000000001,"N_COORD97":2548521.29,"ADDRESS":"安中路一段１５８巷１４號","OBJECTID":423041},"geometry":{"x":168886.59999999963,"y":2548521.290000001}},{"attributes":{"ID":423067,"DIS_CODE":0,"TOWNNAME":"安南區","LI":"砂崙里","LIN":"1鄰","STREET":"城北路","SECT":" ","MAREA":" ","LANE":"８７１巷","ALLEY":" ","HOUSE_NO":"６９號","E_COORD97":160711.07000000001,"N_COORD97":2553240.8900000001,"ADDRESS":"城北路８７１巷６９號","OBJECTID":423042},"geometry":{"x":160711.07000000123,"y":2553240.8900000043}},{"attributes":{"ID":423068,"DIS_CODE":0,"TOWNNAME":"安南區","LI":"砂崙里","LIN":"1鄰","STREET":"城北路","SECT":" ","MAREA":" ","LANE":"８７１巷","ALLEY":" ","HOUSE_NO":"７１號","E_COORD97":160707.32000000001,"N_COORD97":2553246.5,"ADDRESS":"城北路８７１巷７１號","OBJECTID":423043},"geometry":{"x":160707.32000000123,"y":2553246.5000000019}},{"attributes":{"ID":423069,"DIS_CODE":0,"TOWNNAME":"安南區","LI":"砂崙里","LIN":"1鄰","STREET":"城北路","SECT":" ","MAREA":" ","LANE":"８７１巷","ALLEY":" ","HOUSE_NO":"７３號","E_COORD97":160701.79000000001,"N_COORD97":2553243.4100000001,"ADDRESS":"城北路８７１巷７３號","OBJECTID":423044},"geometry":{"x":160701.7900000019,"y":2553243.4100000039}},{"attributes":{"ID":423070,"DIS_CODE":0,"TOWNNAME":"安南區","LI":"顯宮里","LIN":"10鄰","STREET":"媽祖宮路","SECT":" ","MAREA":" ","LANE":" ","ALLEY":" ","HOUSE_NO":"２１１號","E_COORD97":160422.42000000001,"N_COORD97":2548680.5099999998,"ADDRESS":"媽祖宮路２１１號","OBJECTID":423045},"geometry":{"x":160422.41999999993,"y":2548680.5100000016}},{"attributes":{"ID":423071,"DIS_CODE":0,"TOWNNAME":"安南區","LI":"安東里","LIN":"6鄰","STREET":"安和路","SECT":"一段","MAREA":" ","LANE":"２８８巷","ALLEY":" ","HOUSE_NO":"５２號","E_COORD97":169419.92000000001,"N_COORD97":2548101.96,"ADDRESS":"安和路一段２８８巷５２號","OBJECTID":423046},"geometry":{"x":169419.91999999993,"y":2548101.9600000028}},{"attributes":{"ID":423072,"DIS_CODE":0,"TOWNNAME":"安南區","LI":"安東里","LIN":"6鄰","STREET":"安和路","SECT":"一段","MAREA":" ","LANE":"２８８巷","ALLEY":" ","HOUSE_NO":"５４號","E_COORD97":169423.82999999999,"N_COORD97":2548103.2200000002,"ADDRESS":"安和路一段２８８巷５４號","OBJECTID":423047},"geometry":{"x":169423.83000000101,"y":2548103.2200000025}},{"attributes":{"ID":423073,"DIS_CODE":0,"TOWNNAME":"安南區","LI":"安西里","LIN":"13鄰","STREET":"安和路","SECT":"一段","MAREA":" ","LANE":"１５９巷","ALLEY":" ","HOUSE_NO":"２４號","E_COORD97":169300.04000000001,"N_COORD97":2547808.3700000001,"ADDRESS":"安和路一段１５９巷２４號","OBJECTID":423048},"geometry":{"x":169300.04000000097,"y":2547808.370000001}},{"attributes":{"ID":423074,"DIS_CODE":0,"TOWNNAME":"安南區","LI":"安慶里","LIN":"7鄰","STREET":"怡安路","SECT":"一段","MAREA":" ","LANE":"３０３巷","ALLEY":" ","HOUSE_NO":"３４號","E_COORD97":168900.09,"N_COORD97":2549017.8799999999,"ADDRESS":"怡安路一段３０３巷３４號","OBJECTID":423049},"geometry":{"x":168900.08999999985,"y":2549017.8800000027}},{"attributes":{"ID":423075,"DIS_CODE":0,"TOWNNAME":"安南區","LI":"安西里","LIN":"4鄰","STREET":"安和路","SECT":"一段","MAREA":" ","LANE":"２６３巷","ALLEY":" ","HOUSE_NO":"１０號","E_COORD97":169252.35000000001,"N_COORD97":2548028.71,"ADDRESS":"安和路一段２６３巷１０號","OBJECTID":423050},"geometry":{"x":169252.34999999963,"y":2548028.7100000028}},{"attributes":{"ID":423076,"DIS_CODE":0,"TOWNNAME":"安南區","LI":"\u25A0南里","LIN":"4鄰","STREET":"環福街","SECT":" ","MAREA":" ","LANE":"３５巷","ALLEY":" ","HOUSE_NO":"６號","E_COORD97":170213.81,"N_COORD97":2552477.6699999999,"ADDRESS":"環福街３５巷６號","OBJECTID":423051},"geometry":{"x":170213.80999999959,"y":2552477.6699999999}},{"attributes":{"ID":423077,"DIS_CODE":0,"TOWNNAME":"歸仁區","LI":"沙崙里","LIN":"4鄰","STREET":" ","SECT":" ","MAREA":"沙崙","LANE":" ","ALLEY":" ","HOUSE_NO":"３５６號","E_COORD97":179178.99567400001,"N_COORD97":2538183.67117,"ADDRESS":"沙崙３５６號","OBJECTID":423052},"geometry":{"x":179178.99567400012,"y":2538183.6711710021}},{"attributes":{"ID":423078,"DIS_CODE":0,"TOWNNAME":"安南區","LI":"\u25A0南里","LIN":"4鄰","STREET":"環福街","SECT":" ","MAREA":" ","LANE":"３５巷","ALLEY":" ","HOUSE_NO":"１８號之１","E_COORD97":170219.79000000001,"N_COORD97":2552515.0600000001,"ADDRESS":"環福街３５巷１８號之１","OBJECTID":423053},"geometry":{"x":170219.79000000004,"y":2552515.0600000024}},{"attributes":{"ID":423079,"DIS_CODE":0,"TOWNNAME":"安南區","LI":"海東里","LIN":"4鄰","STREET":"海中街","SECT":" ","MAREA":" ","LANE":"１３０巷","ALLEY":" ","HOUSE_NO":"５號之２","E_COORD97":166374.82999999999,"N_COORD97":2549142.2000000002,"ADDRESS":"海中街１３０巷５號之２","OBJECTID":423054},"geometry":{"x":166374.83000000007,"y":2549142.2000000011}},{"attributes":{"ID":423080,"DIS_CODE":0,"TOWNNAME":"安南區","LI":"州北里","LIN":"20鄰","STREET":"安和路","SECT":"五段","MAREA":" ","LANE":"２５８巷","ALLEY":" ","HOUSE_NO":"２號","E_COORD97":169802.39000000001,"N_COORD97":2552005.2999999998,"ADDRESS":"安和路五段２５８巷２號","OBJECTID":423055},"geometry":{"x":169802.3900000006,"y":2552005.3000000026}},{"attributes":{"ID":423081,"DIS_CODE":0,"TOWNNAME":"安南區","LI":"海東里","LIN":"4鄰","STREET":"海中街","SECT":" ","MAREA":" ","LANE":"１３０巷","ALLEY":" ","HOUSE_NO":"１７號之１","E_COORD97":166424.69,"N_COORD97":2549146.0299999998,"ADDRESS":"海中街１３０巷１７號之１","OBJECTID":423056},"geometry":{"x":166424.69000000134,"y":2549146.0299999975}},{"attributes":{"ID":423082,"DIS_CODE":0,"TOWNNAME":"安南區","LI":"州南里","LIN":"5鄰","STREET":"安和路","SECT":"四段","MAREA":" ","LANE":"５３７巷","ALLEY":" ","HOUSE_NO":"６６號","E_COORD97":169840.75,"N_COORD97":2551431.1299999999,"ADDRESS":"安和路四段５３７巷６６號","OBJECTID":423057},"geometry":{"x":169840.75000000186,"y":2551431.1300000008}},{"attributes":{"ID":423083,"DIS_CODE":0,"TOWNNAME":"安南區","LI":"淵中里","LIN":"5鄰","STREET":"安中路","SECT":"四段","MAREA":" ","LANE":"４巷","ALLEY":" ","HOUSE_NO":"２３號之１","E_COORD97":165222.54999999999,"N_COORD97":2550147.0800000001,"ADDRESS":"安中路四段４巷２３號之１","OBJECTID":423058},"geometry":{"x":165222.55000000168,"y":2550147.0800000038}},{"attributes":{"ID":423084,"DIS_CODE":0,"TOWNNAME":"安南區","LI":"淵中里","LIN":"5鄰","STREET":"安中路","SECT":"四段","MAREA":" ","LANE":"４巷","ALLEY":" ","HOUSE_NO":"３１號","E_COORD97":165219.03,"N_COORD97":2550144.4700000002,"ADDRESS":"安中路四段４巷３１號","OBJECTID":423059},"geometry":{"x":165219.03000000026,"y":2550144.4700000007}},{"attributes":{"ID":423085,"DIS_CODE":0,"TOWNNAME":"東區","LI":"崇德里","LIN":"17鄰","STREET":"崇明十三街","SECT":" ","MAREA":" ","LANE":"１０巷","ALLEY":" ","HOUSE_NO":"４８號之５","E_COORD97":170579.29999999999,"N_COORD97":2541620.4300000002,"ADDRESS":"崇明十三街１０巷４８號之５","OBJECTID":423060},"geometry":{"x":170579.30000000168,"y":2541620.4299999978}},{"attributes":{"ID":423086,"DIS_CODE":0,"TOWNNAME":"東區","LI":"崇德里","LIN":"17鄰","STREET":"崇明十三街","SECT":" ","MAREA":" ","LANE":"１０巷","ALLEY":" ","HOUSE_NO":"４８號之６","E_COORD97":170581.64999999999,"N_COORD97":2541623.6299999999,"ADDRESS":"崇明十三街１０巷４８號之６","OBJECTID":423061},"geometry":{"x":170581.6500000013,"y":2541623.629999999}},{"attributes":{"ID":423087,"DIS_CODE":0,"TOWNNAME":"北區","LI":"五福里","LIN":"13鄰","STREET":"成功路","SECT":" ","MAREA":" ","LANE":" ","ALLEY":" ","HOUSE_NO":"２９４號","E_COORD97":168145.82999999999,"N_COORD97":2544477.6400000001,"ADDRESS":"成功路２９４號","OBJECTID":423062},"geometry":{"x":168145.83000000101,"y":2544477.6400000006}},{"attributes":{"ID":423088,"DIS_CODE":0,"TOWNNAME":"東區","LI":"崇德里","LIN":"17鄰","STREET":"崇明十三街","SECT":" ","MAREA":" ","LANE":"１０巷","ALLEY":" ","HOUSE_NO":"４８號之８","E_COORD97":170586.78,"N_COORD97":2541630.0299999998,"ADDRESS":"崇明十三街１０巷４８號之８","OBJECTID":423063},"geometry":{"x":170586.78000000119,"y":2541630.0300000012}},{"attributes":{"ID":423089,"DIS_CODE":0,"TOWNNAME":"東區","LI":"崇德里","LIN":"17鄰","STREET":"崇明十三街","SECT":" ","MAREA":" ","LANE":"１０巷","ALLEY":" ","HOUSE_NO":"４８號之９","E_COORD97":170588.48999999999,"N_COORD97":2541632.5899999999,"ADDRESS":"崇明十三街１０巷４８號之９","OBJECTID":423064},"geometry":{"x":170588.48999999929,"y":2541632.5899999999}},{"attributes":{"ID":423090,"DIS_CODE":0,"TOWNNAME":"安南區","LI":"州南里","LIN":"25鄰","STREET":"大聖一街","SECT":" ","MAREA":" ","LANE":" ","ALLEY":" ","HOUSE_NO":"６８號","E_COORD97":170170.70669299999,"N_COORD97":2550990.72377,"ADDRESS":"大聖一街６８號","OBJECTID":423065},"geometry":{"x":170170.70669300202,"y":2550990.7237679996}},{"attributes":{"ID":423091,"DIS_CODE":0,"TOWNNAME":"安南區","LI":"州南里","LIN":"3鄰","STREET":"長和一街","SECT":" ","MAREA":" ","LANE":"１５巷","ALLEY":" ","HOUSE_NO":"５９號","E_COORD97":169589.23999999999,"N_COORD97":2551371.75,"ADDRESS":"長和一街１５巷５９號","OBJECTID":423066},"geometry":{"x":169589.24000000115,"y":2551371.75}},{"attributes":{"ID":423092,"DIS_CODE":0,"TOWNNAME":"東區","LI":"崇德里","LIN":"17鄰","STREET":"崇明十三街","SECT":" ","MAREA":" ","LANE":"１０巷","ALLEY":" ","HOUSE_NO":"５０號","E_COORD97":170592.32999999999,"N_COORD97":2541636,"ADDRESS":"崇明十三街１０巷５０號","OBJECTID":423067},"geometry":{"x":170592.33000000007,"y":2541636}},{"attributes":{"ID":423093,"DIS_CODE":0,"TOWNNAME":"東區","LI":"崇德里","LIN":"17鄰","STREET":"崇明十三街","SECT":" ","MAREA":" ","LANE":"１０巷","ALLEY":" ","HOUSE_NO":"５４號","E_COORD97":170597.67000000001,"N_COORD97":2541641.3399999999,"ADDRESS":"崇明十三街１０巷５４號","OBJECTID":423068},"geometry":{"x":170597.67000000086,"y":2541641.3399999999}},{"attributes":{"ID":423094,"DIS_CODE":0,"TOWNNAME":"東區","LI":"崇德里","LIN":"17鄰","STREET":"崇明十三街","SECT":" ","MAREA":" ","LANE":"１０巷","ALLEY":" ","HOUSE_NO":"５６號","E_COORD97":170599.59,"N_COORD97":2541644.54,"ADDRESS":"崇明十三街１０巷５６號","OBJECTID":423069},"geometry":{"x":170599.59000000078,"y":2541644.540000001}},{"attributes":{"ID":423095,"DIS_CODE":0,"TOWNNAME":"東區","LI":"崇德里","LIN":"17鄰","STREET":"崇明十三街","SECT":" ","MAREA":" ","LANE":"１０巷","ALLEY":" ","HOUSE_NO":"５８號","E_COORD97":170601.94,"N_COORD97":2541647.7400000002,"ADDRESS":"崇明十三街１０巷５８號","OBJECTID":423070},"geometry":{"x":170601.94000000041,"y":2541647.7400000021}},{"attributes":{"ID":423096,"DIS_CODE":0,"TOWNNAME":"東區","LI":"崇德里","LIN":"17鄰","STREET":"崇明十三街","SECT":" ","MAREA":" ","LANE":"１０巷","ALLEY":" ","HOUSE_NO":"６０號","E_COORD97":170604.5,"N_COORD97":2541651.3700000001,"ADDRESS":"崇明十三街１０巷６０號","OBJECTID":423071},"geometry":{"x":170604.5,"y":2541651.370000001}},{"attributes":{"ID":423097,"DIS_CODE":0,"TOWNNAME":"東區","LI":"崇德里","LIN":"17鄰","STREET":"崇明十三街","SECT":" ","MAREA":" ","LANE":"１０巷","ALLEY":" ","HOUSE_NO":"６２號","E_COORD97":170606.64000000001,"N_COORD97":2541654.1400000001,"ADDRESS":"崇明十三街１０巷６２號","OBJECTID":423072},"geometry":{"x":170606.63999999966,"y":2541654.1400000043}},{"attributes":{"ID":423098,"DIS_CODE":0,"TOWNNAME":"東區","LI":"崇德里","LIN":"17鄰","STREET":"崇明十三街","SECT":" ","MAREA":" ","LANE":"１０巷","ALLEY":" ","HOUSE_NO":"６４號","E_COORD97":170609.41,"N_COORD97":2541657.77,"ADDRESS":"崇明十三街１０巷６４號","OBJECTID":423073},"geometry":{"x":170609.41000000201,"y":2541657.7699999996}},{"attributes":{"ID":423099,"DIS_CODE":0,"TOWNNAME":"東區","LI":"崇德里","LIN":"19鄰","STREET":"崇明十三街","SECT":" ","MAREA":" ","LANE":"１１巷","ALLEY":" ","HOUSE_NO":"８１號","E_COORD97":170530.73999999999,"N_COORD97":2541766.8900000001,"ADDRESS":"崇明十三街１１巷８１號","OBJECTID":423074},"geometry":{"x":170530.74000000022,"y":2541766.8900000006}},{"attributes":{"ID":423100,"DIS_CODE":0,"TOWNNAME":"東區","LI":"崇德里","LIN":"19鄰","STREET":"崇明十三街","SECT":" ","MAREA":" ","LANE":"１１巷","ALLEY":" ","HOUSE_NO":"８３號","E_COORD97":170535.17000000001,"N_COORD97":2541763,"ADDRESS":"崇明十三街１１巷８３號","OBJECTID":423075},"geometry":{"x":170535.17000000086,"y":2541763.0000000037}},{"attributes":{"ID":423101,"DIS_CODE":0,"TOWNNAME":"東區","LI":"崇德里","LIN":"19鄰","STREET":"崇明十三街","SECT":" ","MAREA":" ","LANE":"１１巷","ALLEY":" ","HOUSE_NO":"８５號","E_COORD97":170537.29000000001,"N_COORD97":2541759.46,"ADDRESS":"崇明十三街１１巷８５號","OBJECTID":423076},"geometry":{"x":170537.2900000019,"y":2541759.4600000009}},{"attributes":{"ID":423102,"DIS_CODE":0,"TOWNNAME":"東區","LI":"崇德里","LIN":"22鄰","STREET":"崇德路","SECT":" ","MAREA":" ","LANE":"５０８巷","ALLEY":" ","HOUSE_NO":"４１號","E_COORD97":170683.47,"N_COORD97":2541550.5499999998,"ADDRESS":"崇德路５０８巷４１號","OBJECTID":423077},"geometry":{"x":170683.47000000067,"y":2541550.5500000026}},{"attributes":{"ID":423103,"DIS_CODE":0,"TOWNNAME":"東區","LI":"崇德里","LIN":"25鄰","STREET":"崇道路","SECT":" ","MAREA":" ","LANE":"１９巷","ALLEY":" ","HOUSE_NO":"２２號","E_COORD97":170604.73999999999,"N_COORD97":2541480.5699999998,"ADDRESS":"崇道路１９巷２２號","OBJECTID":423078},"geometry":{"x":170604.74000000022,"y":2541480.5700000003}},{"attributes":{"ID":423104,"DIS_CODE":0,"TOWNNAME":"東區","LI":"虎尾里","LIN":"25鄰","STREET":"富農街","SECT":"一段","MAREA":" ","LANE":"１８８巷","ALLEY":" ","HOUSE_NO":"６號","E_COORD97":171566.5,"N_COORD97":2542471.5800000001,"ADDRESS":"富農街一段１８８巷６號","OBJECTID":423079},"geometry":{"x":171566.50000000186,"y":2542471.5800000019}},{"attributes":{"ID":423105,"DIS_CODE":0,"TOWNNAME":"東區","LI":"東光里","LIN":"17鄰","STREET":"東興路","SECT":" ","MAREA":" ","LANE":"１６９巷","ALLEY":" ","HOUSE_NO":"１９號之１","E_COORD97":170922.98999999999,"N_COORD97":2543797.25,"ADDRESS":"東興路１６９巷１９號之１","OBJECTID":423080},"geometry":{"x":170922.99000000115,"y":2543797.25}},{"attributes":{"ID":423106,"DIS_CODE":0,"TOWNNAME":"麻豆區","LI":"中興里","LIN":"3鄰","STREET":"中華街","SECT":" ","MAREA":" ","LANE":"３４巷","ALLEY":" ","HOUSE_NO":"１２號","E_COORD97":172884,"N_COORD97":2564654.7999999998,"ADDRESS":"中華街３４巷１２號","OBJECTID":423081},"geometry":{"x":172884.00000000093,"y":2564654.8000000026}},{"attributes":{"ID":423107,"DIS_CODE":0,"TOWNNAME":"麻豆區","LI":"中興里","LIN":"3鄰","STREET":"中華街","SECT":" ","MAREA":" ","LANE":"３４巷","ALLEY":" ","HOUSE_NO":"１４號","E_COORD97":172878.35000000001,"N_COORD97":2564653.5299999998,"ADDRESS":"中華街３４巷１４號","OBJECTID":423082},"geometry":{"x":172878.34999999963,"y":2564653.5299999975}},{"attributes":{"ID":423108,"DIS_CODE":0,"TOWNNAME":"麻豆區","LI":"中興里","LIN":"3鄰","STREET":"中華街","SECT":" ","MAREA":" ","LANE":"３４巷","ALLEY":" ","HOUSE_NO":"１６號之１","E_COORD97":172864.66,"N_COORD97":2564644.9700000002,"ADDRESS":"中華街３４巷１６號之１","OBJECTID":423083},"geometry":{"x":172864.66000000108,"y":2564644.9700000007}},{"attributes":{"ID":423109,"DIS_CODE":0,"TOWNNAME":"麻豆區","LI":"中興里","LIN":"3鄰","STREET":"中華街","SECT":" ","MAREA":" ","LANE":"３４巷","ALLEY":" ","HOUSE_NO":"１６號之２","E_COORD97":172857.51000000001,"N_COORD97":2564644.79,"ADDRESS":"中華街３４巷１６號之２","OBJECTID":423084},"geometry":{"x":172857.50999999978,"y":2564644.7899999972}},{"attributes":{"ID":423110,"DIS_CODE":0,"TOWNNAME":"麻豆區","LI":"中興里","LIN":"3鄰","STREET":"中華街","SECT":" ","MAREA":" ","LANE":"３４巷","ALLEY":" ","HOUSE_NO":"１６號","E_COORD97":172872.54000000001,"N_COORD97":2564651.98,"ADDRESS":"中華街３４巷１６號","OBJECTID":423085},"geometry":{"x":172872.54000000004,"y":2564651.9800000042}},{"attributes":{"ID":423111,"DIS_CODE":0,"TOWNNAME":"麻豆區","LI":"中興里","LIN":"4鄰","STREET":"中興街","SECT":" ","MAREA":" ","LANE":"３巷","ALLEY":" ","HOUSE_NO":"１０號","E_COORD97":172926.39999999999,"N_COORD97":2564588.0499999998,"ADDRESS":"中興街３巷１０號","OBJECTID":423086},"geometry":{"x":172926.40000000037,"y":2564588.0500000026}},{"attributes":{"ID":423112,"DIS_CODE":0,"TOWNNAME":"麻豆區","LI":"中興里","LIN":"4鄰","STREET":"中興街","SECT":" ","MAREA":" ","LANE":"３巷","ALLEY":" ","HOUSE_NO":"１２號","E_COORD97":172926.54999999999,"N_COORD97":2564584.1600000001,"ADDRESS":"中興街３巷１２號","OBJECTID":423087},"geometry":{"x":172926.54999999981,"y":2564584.160000002}},{"attributes":{"ID":423113,"DIS_CODE":0,"TOWNNAME":"麻豆區","LI":"中興里","LIN":"4鄰","STREET":"中興街","SECT":" ","MAREA":" ","LANE":"３巷","ALLEY":" ","HOUSE_NO":"１４號","E_COORD97":172927.10000000001,"N_COORD97":2564579.8199999998,"ADDRESS":"中興街３巷１４號","OBJECTID":423088},"geometry":{"x":172927.10000000056,"y":2564579.8200000022}},{"attributes":{"ID":423114,"DIS_CODE":0,"TOWNNAME":"麻豆區","LI":"中興里","LIN":"1鄰","STREET":"中興街","SECT":" ","MAREA":" ","LANE":"２巷","ALLEY":" ","HOUSE_NO":"１號","E_COORD97":172964.34,"N_COORD97":2564650.98,"ADDRESS":"中興街２巷１號","OBJECTID":423089},"geometry":{"x":172964.34000000078,"y":2564650.9800000004}},{"attributes":{"ID":423115,"DIS_CODE":0,"TOWNNAME":"麻豆區","LI":"中興里","LIN":"1鄰","STREET":"中興街","SECT":" ","MAREA":" ","LANE":"２巷","ALLEY":" ","HOUSE_NO":"２號","E_COORD97":172964.32999999999,"N_COORD97":2564655.1299999999,"ADDRESS":"中興街２巷２號","OBJECTID":423090},"geometry":{"x":172964.32999999914,"y":2564655.129999999}},{"attributes":{"ID":423116,"DIS_CODE":0,"TOWNNAME":"麻豆區","LI":"中興里","LIN":"1鄰","STREET":"中興街","SECT":" ","MAREA":" ","LANE":"２巷","ALLEY":" ","HOUSE_NO":"３號","E_COORD97":172963.95999999999,"N_COORD97":2564659.8700000001,"ADDRESS":"中興街２巷３號","OBJECTID":423091},"geometry":{"x":172963.96000000089,"y":2564659.8699999992}},{"attributes":{"ID":423117,"DIS_CODE":0,"TOWNNAME":"麻豆區","LI":"中興里","LIN":"1鄰","STREET":"中興街","SECT":" ","MAREA":" ","LANE":"２巷","ALLEY":" ","HOUSE_NO":"５號","E_COORD97":172963.89999999999,"N_COORD97":2564664.5899999999,"ADDRESS":"中興街２巷５號","OBJECTID":423092},"geometry":{"x":172963.90000000037,"y":2564664.5900000017}},{"attributes":{"ID":423118,"DIS_CODE":0,"TOWNNAME":"新市區","LI":"港墘里","LIN":"4鄰","STREET":"三民街","SECT":" ","MAREA":" ","LANE":"１１２巷","ALLEY":" ","HOUSE_NO":"２之２號","E_COORD97":178346.04000000001,"N_COORD97":2553511.7999999998,"ADDRESS":"三民街１１２巷２之２號","OBJECTID":423093},"geometry":{"x":178346.04000000097,"y":2553511.8000000007}},{"attributes":{"ID":423119,"DIS_CODE":0,"TOWNNAME":"麻豆區","LI":"中興里","LIN":"18鄰","STREET":"仁愛路","SECT":" ","MAREA":" ","LANE":"２９巷","ALLEY":" ","HOUSE_NO":"１號之１","E_COORD97":172601.53,"N_COORD97":2564640.0299999998,"ADDRESS":"仁愛路２９巷１號之１","OBJECTID":423094},"geometry":{"x":172601.53000000026,"y":2564640.0299999975}},{"attributes":{"ID":423120,"DIS_CODE":0,"TOWNNAME":"麻豆區","LI":"中興里","LIN":"18鄰","STREET":"仁愛路","SECT":" ","MAREA":" ","LANE":"２９巷","ALLEY":" ","HOUSE_NO":"１號","E_COORD97":172579.73000000001,"N_COORD97":2564600.6299999999,"ADDRESS":"仁愛路２９巷１號","OBJECTID":423095},"geometry":{"x":172579.73000000138,"y":2564600.629999999}},{"attributes":{"ID":423121,"DIS_CODE":0,"TOWNNAME":"麻豆區","LI":"中興里","LIN":"18鄰","STREET":"仁愛路","SECT":" ","MAREA":" ","LANE":"２９巷","ALLEY":" ","HOUSE_NO":"３號之６","E_COORD97":172574.19,"N_COORD97":2564507.98,"ADDRESS":"仁愛路２９巷３號之６","OBJECTID":423096},"geometry":{"x":172574.19000000227,"y":2564507.9800000004}},{"attributes":{"ID":423122,"DIS_CODE":0,"TOWNNAME":"麻豆區","LI":"興農里","LIN":"3鄰","STREET":"仁愛路","SECT":" ","MAREA":" ","LANE":"２９巷","ALLEY":" ","HOUSE_NO":"４０號之１","E_COORD97":172548.23999999999,"N_COORD97":2564384.6499999999,"ADDRESS":"仁愛路２９巷４０號之１","OBJECTID":423097},"geometry":{"x":172548.24000000209,"y":2564384.6500000004}},{"attributes":{"ID":423123,"DIS_CODE":0,"TOWNNAME":"麻豆區","LI":"興農里","LIN":"3鄰","STREET":"仁愛路","SECT":" ","MAREA":" ","LANE":"２９巷","ALLEY":" ","HOUSE_NO":"４０號","E_COORD97":172530,"N_COORD97":2564379.6800000002,"ADDRESS":"仁愛路２９巷４０號","OBJECTID":423098},"geometry":{"x":172530.00000000093,"y":2564379.6800000016}},{"attributes":{"ID":423124,"DIS_CODE":0,"TOWNNAME":"麻豆區","LI":"興農里","LIN":"3鄰","STREET":"仁愛路","SECT":" ","MAREA":" ","LANE":"２９巷","ALLEY":" ","HOUSE_NO":"４２號之１","E_COORD97":172553.59,"N_COORD97":2564366.0099999998,"ADDRESS":"仁愛路２９巷４２號之１","OBJECTID":423099},"geometry":{"x":172553.58999999985,"y":2564366.0099999979}},{"attributes":{"ID":423125,"DIS_CODE":0,"TOWNNAME":"麻豆區","LI":"興農里","LIN":"3鄰","STREET":"仁愛路","SECT":" ","MAREA":" ","LANE":"２９巷","ALLEY":" ","HOUSE_NO":"４２號","E_COORD97":172533.67000000001,"N_COORD97":2564363.2599999998,"ADDRESS":"仁愛路２９巷４２號","OBJECTID":423100},"geometry":{"x":172533.67000000086,"y":2564363.2599999998}},{"attributes":{"ID":423126,"DIS_CODE":0,"TOWNNAME":"新市區","LI":"港墘里","LIN":"20鄰","STREET":"光華街","SECT":" ","MAREA":" ","LANE":"１５２巷","ALLEY":" ","HOUSE_NO":"４號","E_COORD97":177937.98999999999,"N_COORD97":2552811.25,"ADDRESS":"光華街１５２巷４號","OBJECTID":423101},"geometry":{"x":177937.99000000115,"y":2552811.2500000019}},{"attributes":{"ID":423127,"DIS_CODE":0,"TOWNNAME":"新市區","LI":"新和里","LIN":"46鄰","STREET":"和平街","SECT":" ","MAREA":" ","LANE":"２１２巷","ALLEY":" ","HOUSE_NO":"２號","E_COORD97":177352.56,"N_COORD97":2553236.25,"ADDRESS":"和平街２１２巷２號","OBJECTID":423102},"geometry":{"x":177352.55999999959,"y":2553236.25}},{"attributes":{"ID":423128,"DIS_CODE":0,"TOWNNAME":"新市區","LI":"新市里","LIN":"18鄰","STREET":"和平街","SECT":" ","MAREA":" ","LANE":"１５巷","ALLEY":" ","HOUSE_NO":"１３號","E_COORD97":177762.59,"N_COORD97":2553411,"ADDRESS":"和平街１５巷１３號","OBJECTID":423103},"geometry":{"x":177762.58999999985,"y":2553411}},{"attributes":{"ID":423129,"DIS_CODE":0,"TOWNNAME":"新市區","LI":"港墘里","LIN":"26鄰","STREET":"中山路","SECT":" ","MAREA":" ","LANE":"７８巷","ALLEY":" ","HOUSE_NO":"２６號","E_COORD97":178157.82000000001,"N_COORD97":2552876,"ADDRESS":"中山路７８巷２６號","OBJECTID":423104},"geometry":{"x":178157.82000000123,"y":2552876}},{"attributes":{"ID":423130,"DIS_CODE":0,"TOWNNAME":"新市區","LI":"新和里","LIN":"20鄰","STREET":"成功街","SECT":" ","MAREA":" ","LANE":"１６巷","ALLEY":" ","HOUSE_NO":"４號","E_COORD97":177482.98000000001,"N_COORD97":2552608.52,"ADDRESS":"成功街１６巷４號","OBJECTID":423105},"geometry":{"x":177482.98000000045,"y":2552608.5200000014}},{"attributes":{"ID":423131,"DIS_CODE":0,"TOWNNAME":"中西區","LI":"建國里","LIN":"4鄰","STREET":"中正路","SECT":" ","MAREA":" ","LANE":"１３８巷","ALLEY":" ","HOUSE_NO":"１２號","E_COORD97":167946.42999999999,"N_COORD97":2543741.2400000002,"ADDRESS":"中正路１３８巷１２號","OBJECTID":423106},"geometry":{"x":167946.43000000063,"y":2543741.2399999984}},{"attributes":{"ID":423132,"DIS_CODE":0,"TOWNNAME":"中西區","LI":"建國里","LIN":"4鄰","STREET":"中正路","SECT":" ","MAREA":" ","LANE":"１３８巷","ALLEY":" ","HOUSE_NO":"１２號之１","E_COORD97":167947.89999999999,"N_COORD97":2543743.9100000001,"ADDRESS":"中正路１３８巷１２號之１","OBJECTID":423107},"geometry":{"x":167947.90000000037,"y":2543743.910000002}},{"attributes":{"ID":423133,"DIS_CODE":0,"TOWNNAME":"中西區","LI":"建國里","LIN":"4鄰","STREET":"中正路","SECT":" ","MAREA":" ","LANE":"１３８巷","ALLEY":" ","HOUSE_NO":"１４號","E_COORD97":167949.10999999999,"N_COORD97":2543747.1200000001,"ADDRESS":"中正路１３８巷１４號","OBJECTID":423108},"geometry":{"x":167949.11000000127,"y":2543747.1200000029}},{"attributes":{"ID":423134,"DIS_CODE":0,"TOWNNAME":"中西區","LI":"建國里","LIN":"4鄰","STREET":"中正路","SECT":" ","MAREA":" ","LANE":"１３８巷","ALLEY":" ","HOUSE_NO":"１６號","E_COORD97":167954.45999999999,"N_COORD97":2543752.6099999999,"ADDRESS":"中正路１３８巷１６號","OBJECTID":423109},"geometry":{"x":167954.46000000089,"y":2543752.6100000013}},{"attributes":{"ID":423135,"DIS_CODE":0,"TOWNNAME":"中西區","LI":"建國里","LIN":"4鄰","STREET":"中正路","SECT":" ","MAREA":" ","LANE":"１３８巷","ALLEY":" ","HOUSE_NO":"１８號","E_COORD97":167949.01999999999,"N_COORD97":2543763.27,"ADDRESS":"中正路１３８巷１８號","OBJECTID":423110},"geometry":{"x":167949.02000000048,"y":2543763.2699999996}},{"attributes":{"ID":423136,"DIS_CODE":0,"TOWNNAME":"中西區","LI":"建國里","LIN":"4鄰","STREET":"中正路","SECT":" ","MAREA":" ","LANE":"１３８巷","ALLEY":" ","HOUSE_NO":"２０號","E_COORD97":167952.76999999999,"N_COORD97":2543766.6099999999,"ADDRESS":"中正路１３８巷２０號","OBJECTID":423111},"geometry":{"x":167952.76999999955,"y":2543766.6100000013}},{"attributes":{"ID":423137,"DIS_CODE":0,"TOWNNAME":"中西區","LI":"建國里","LIN":"4鄰","STREET":"中正路","SECT":" ","MAREA":" ","LANE":"１３８巷","ALLEY":" ","HOUSE_NO":"２２號","E_COORD97":167954.51000000001,"N_COORD97":2543770.4900000002,"ADDRESS":"中正路１３８巷２２號","OBJECTID":423112},"geometry":{"x":167954.50999999978,"y":2543770.4900000039}},{"attributes":{"ID":423138,"DIS_CODE":0,"TOWNNAME":"中西區","LI":"建國里","LIN":"4鄰","STREET":"中正路","SECT":" ","MAREA":" ","LANE":"１３８巷","ALLEY":" ","HOUSE_NO":"２４號","E_COORD97":167955.70999999999,"N_COORD97":2543773.96,"ADDRESS":"中正路１３８巷２４號","OBJECTID":423113},"geometry":{"x":167955.70999999996,"y":2543773.9600000009}},{"attributes":{"ID":423139,"DIS_CODE":0,"TOWNNAME":"中西區","LI":"建國里","LIN":"4鄰","STREET":"中正路","SECT":" ","MAREA":" ","LANE":"１３８巷","ALLEY":" ","HOUSE_NO":"２６號","E_COORD97":167956.78,"N_COORD97":2543777.3100000001,"ADDRESS":"中正路１３８巷２６號","OBJECTID":423114},"geometry":{"x":167956.78000000026,"y":2543777.3100000005}},{"attributes":{"ID":423140,"DIS_CODE":0,"TOWNNAME":"東區","LI":"東門里","LIN":"6鄰","STREET":"青年路","SECT":" ","MAREA":" ","LANE":"２６４巷","ALLEY":" ","HOUSE_NO":"８號","E_COORD97":169266.69,"N_COORD97":2543509.04,"ADDRESS":"青年路２６４巷８號","OBJECTID":423115},"geometry":{"x":169266.69000000041,"y":2543509.040000001}},{"attributes":{"ID":423141,"DIS_CODE":0,"TOWNNAME":"中西區","LI":"建國里","LIN":"4鄰","STREET":"中正路","SECT":" ","MAREA":" ","LANE":"１３８巷","ALLEY":" ","HOUSE_NO":"２８號","E_COORD97":167961.07000000001,"N_COORD97":2543781.5899999999,"ADDRESS":"中正路１３８巷２８號","OBJECTID":423116},"geometry":{"x":167961.07000000123,"y":2543781.5899999999}},{"attributes":{"ID":423142,"DIS_CODE":0,"TOWNNAME":"中西區","LI":"建國里","LIN":"4鄰","STREET":"民生路","SECT":"一段","MAREA":" ","LANE":"１５７巷","ALLEY":" ","HOUSE_NO":"２２號","E_COORD97":167982.62,"N_COORD97":2543770.3500000001,"ADDRESS":"民生路一段１５７巷２２號","OBJECTID":423117},"geometry":{"x":167982.62000000104,"y":2543770.3499999978}},{"attributes":{"ID":423143,"DIS_CODE":0,"TOWNNAME":"中西區","LI":"建國里","LIN":"4鄰","STREET":"民生路","SECT":"一段","MAREA":" ","LANE":"１５７巷","ALLEY":" ","HOUSE_NO":"２２號之１","E_COORD97":167983.42999999999,"N_COORD97":2543763.3999999999,"ADDRESS":"民生路一段１５７巷２２號之１","OBJECTID":423118},"geometry":{"x":167983.43000000063,"y":2543763.4000000004}},{"attributes":{"ID":423144,"DIS_CODE":0,"TOWNNAME":"中西區","LI":"建國里","LIN":"4鄰","STREET":"民生路","SECT":"一段","MAREA":" ","LANE":"１５７巷","ALLEY":" ","HOUSE_NO":"２４號","E_COORD97":167977.13,"N_COORD97":2543766.0699999998,"ADDRESS":"民生路一段１５７巷２４號","OBJECTID":423119},"geometry":{"x":167977.13000000082,"y":2543766.0700000003}},{"attributes":{"ID":423145,"DIS_CODE":0,"TOWNNAME":"中西區","LI":"建國里","LIN":"4鄰","STREET":"民生路","SECT":"一段","MAREA":" ","LANE":"１５７巷","ALLEY":" ","HOUSE_NO":"２８號","E_COORD97":167964.10999999999,"N_COORD97":2543738.5600000001,"ADDRESS":"民生路一段１５７巷２８號","OBJECTID":423120},"geometry":{"x":167964.11000000127,"y":2543738.5600000005}},{"attributes":{"ID":423146,"DIS_CODE":0,"TOWNNAME":"中西區","LI":"建國里","LIN":"4鄰","STREET":"民生路","SECT":"一段","MAREA":" ","LANE":"１５７巷","ALLEY":" ","HOUSE_NO":"３０號","E_COORD97":167959.69,"N_COORD97":2543731.0800000001,"ADDRESS":"民生路一段１５７巷３０號","OBJECTID":423121},"geometry":{"x":167959.69000000041,"y":2543731.0800000001}},{"attributes":{"ID":423147,"DIS_CODE":0,"TOWNNAME":"中西區","LI":"建國里","LIN":"4鄰","STREET":"西門路","SECT":"二段","MAREA":" ","LANE":"１３６巷","ALLEY":" ","HOUSE_NO":"２６號","E_COORD97":167969.10000000001,"N_COORD97":2543773.8300000001,"ADDRESS":"西門路二段１３６巷２６號","OBJECTID":423122},"geometry":{"x":167969.09999999963,"y":2543773.8300000001}},{"attributes":{"ID":423148,"DIS_CODE":0,"TOWNNAME":"中西區","LI":"郡王里","LIN":"13鄰","STREET":"建業街","SECT":" ","MAREA":" ","LANE":"３７巷","ALLEY":" ","HOUSE_NO":"２１號","E_COORD97":168535.34,"N_COORD97":2543114.2000000002,"ADDRESS":"建業街３７巷２１號","OBJECTID":423123},"geometry":{"x":168535.34000000078,"y":2543114.2000000011}},{"attributes":{"ID":423149,"DIS_CODE":0,"TOWNNAME":"中西區","LI":"郡王里","LIN":"13鄰","STREET":"建業街","SECT":" ","MAREA":" ","LANE":"３７巷","ALLEY":" ","HOUSE_NO":"２３號","E_COORD97":168529.45999999999,"N_COORD97":2543113.2599999998,"ADDRESS":"建業街３７巷２３號","OBJECTID":423124},"geometry":{"x":168529.46000000089,"y":2543113.2599999998}},{"attributes":{"ID":423150,"DIS_CODE":0,"TOWNNAME":"中西區","LI":"郡王里","LIN":"13鄰","STREET":"建業街","SECT":" ","MAREA":" ","LANE":"３７巷","ALLEY":" ","HOUSE_NO":"２７號","E_COORD97":168534.92000000001,"N_COORD97":2543083.6200000001,"ADDRESS":"建業街３７巷２７號","OBJECTID":423125},"geometry":{"x":168534.92000000086,"y":2543083.6200000029}},{"attributes":{"ID":423151,"DIS_CODE":0,"TOWNNAME":"中西區","LI":"郡王里","LIN":"13鄰","STREET":"建業街","SECT":" ","MAREA":" ","LANE":"３７巷","ALLEY":" ","HOUSE_NO":"２９號","E_COORD97":168545.20000000001,"N_COORD97":2543084.8199999998,"ADDRESS":"建業街３７巷２９號","OBJECTID":423126},"geometry":{"x":168545.20000000112,"y":2543084.8200000022}},{"attributes":{"ID":423152,"DIS_CODE":0,"TOWNNAME":"中西區","LI":"郡王里","LIN":"13鄰","STREET":"建業街","SECT":" ","MAREA":" ","LANE":"３７巷","ALLEY":" ","HOUSE_NO":"３１號","E_COORD97":168559.35999999999,"N_COORD97":2543074.8100000001,"ADDRESS":"建業街３７巷３１號","OBJECTID":423127},"geometry":{"x":168559.36000000127,"y":2543074.8100000024}},{"attributes":{"ID":423153,"DIS_CODE":0,"TOWNNAME":"中西區","LI":"郡王里","LIN":"17鄰","STREET":"南門路","SECT":" ","MAREA":" ","LANE":"９７巷","ALLEY":" ","HOUSE_NO":"１號之１","E_COORD97":168500.85000000001,"N_COORD97":2543242.7799999998,"ADDRESS":"南門路９７巷１號之１","OBJECTID":423128},"geometry":{"x":168500.85000000056,"y":2543242.7800000012}},{"attributes":{"ID":423154,"DIS_CODE":0,"TOWNNAME":"中西區","LI":"郡王里","LIN":"17鄰","STREET":"南門路","SECT":" ","MAREA":" ","LANE":"９７巷","ALLEY":" ","HOUSE_NO":"２號","E_COORD97":168472.54000000001,"N_COORD97":2543201.6400000001,"ADDRESS":"南門路９７巷２號","OBJECTID":423129},"geometry":{"x":168472.5400000019,"y":2543201.6400000025}},{"attributes":{"ID":423155,"DIS_CODE":0,"TOWNNAME":"中西區","LI":"郡王里","LIN":"17鄰","STREET":"南門路","SECT":" ","MAREA":" ","LANE":"９７巷","ALLEY":" ","HOUSE_NO":"２號之１","E_COORD97":168483.48000000001,"N_COORD97":2543201.8100000001,"ADDRESS":"南門路９７巷２號之１","OBJECTID":423130},"geometry":{"x":168483.48000000231,"y":2543201.8100000005}},{"attributes":{"ID":423156,"DIS_CODE":0,"TOWNNAME":"中西區","LI":"郡王里","LIN":"17鄰","STREET":"南門路","SECT":" ","MAREA":" ","LANE":"９７巷","ALLEY":" ","HOUSE_NO":"２號之２","E_COORD97":168480.10999999999,"N_COORD97":2543227.8700000001,"ADDRESS":"南門路９７巷２號之２","OBJECTID":423131},"geometry":{"x":168480.11000000034,"y":2543227.870000001}},{"attributes":{"ID":423157,"DIS_CODE":0,"TOWNNAME":"安南區","LI":"新順里","LIN":"24鄰","STREET":"修安街","SECT":" ","MAREA":" ","LANE":"６６巷","ALLEY":" ","HOUSE_NO":"２號","E_COORD97":169375.75,"N_COORD97":2549209.1600000001,"ADDRESS":"修安街６６巷２號","OBJECTID":423132},"geometry":{"x":169375.75,"y":2549209.1600000001}},{"attributes":{"ID":423158,"DIS_CODE":0,"TOWNNAME":"中西區","LI":"青年里","LIN":"4鄰","STREET":"武德街","SECT":" ","MAREA":" ","LANE":"２６巷","ALLEY":" ","HOUSE_NO":"１４號","E_COORD97":169042.62,"N_COORD97":2543673.8700000001,"ADDRESS":"武德街２６巷１４號","OBJECTID":423133},"geometry":{"x":169042.62000000011,"y":2543673.8700000048}},{"attributes":{"ID":423159,"DIS_CODE":0,"TOWNNAME":"中西區","LI":"青年里","LIN":"4鄰","STREET":"武德街","SECT":" ","MAREA":" ","LANE":"２６巷","ALLEY":" ","HOUSE_NO":"１４號之１","E_COORD97":169046.57000000001,"N_COORD97":2543669.9199999999,"ADDRESS":"武德街２６巷１４號之１","OBJECTID":423134},"geometry":{"x":169046.5700000003,"y":2543669.9200000018}},{"attributes":{"ID":423160,"DIS_CODE":0,"TOWNNAME":"仁德區","LI":"成功里","LIN":"25鄰","STREET":"成功一街","SECT":" ","MAREA":" ","LANE":"７０巷","ALLEY":" ","HOUSE_NO":"１１號","E_COORD97":170503.01000000001,"N_COORD97":2539918.52,"ADDRESS":"成功一街７０巷１１號","OBJECTID":423135},"geometry":{"x":170503.00999999978,"y":2539918.5200000014}},{"attributes":{"ID":423161,"DIS_CODE":0,"TOWNNAME":"仁德區","LI":"仁德里","LIN":"4鄰","STREET":"中正路","SECT":"二段","MAREA":" ","LANE":"８６７巷","ALLEY":" ","HOUSE_NO":"１４號","E_COORD97":173376.82999999999,"N_COORD97":2540576.77,"ADDRESS":"中正路二段８６７巷１４號","OBJECTID":423136},"geometry":{"x":173376.83000000101,"y":2540576.7699999996}},{"attributes":{"ID":423162,"DIS_CODE":0,"TOWNNAME":"仁德區","LI":"保安里","LIN":"20鄰","STREET":"保安路","SECT":"一段","MAREA":" ","LANE":"１９巷","ALLEY":" ","HOUSE_NO":"３號","E_COORD97":170472.79000000001,"N_COORD97":2536201.8100000001,"ADDRESS":"保安路一段１９巷３號","OBJECTID":423137},"geometry":{"x":170472.7900000019,"y":2536201.8100000024}},{"attributes":{"ID":423163,"DIS_CODE":0,"TOWNNAME":"仁德區","LI":"成功里","LIN":"25鄰","STREET":"成功一街","SECT":" ","MAREA":" ","LANE":"７０巷","ALLEY":" ","HOUSE_NO":"７號","E_COORD97":170500.26000000001,"N_COORD97":2539898.52,"ADDRESS":"成功一街７０巷７號","OBJECTID":423138},"geometry":{"x":170500.26000000071,"y":2539898.5200000014}},{"attributes":{"ID":423164,"DIS_CODE":0,"TOWNNAME":"仁德區","LI":"太子里","LIN":"43鄰","STREET":"太子路","SECT":" ","MAREA":" ","LANE":"１０１巷","ALLEY":" ","HOUSE_NO":"３９號","E_COORD97":174948.73000000001,"N_COORD97":2543462.5,"ADDRESS":"太子路１０１巷３９號","OBJECTID":423139},"geometry":{"x":174948.73000000045,"y":2543462.5000000019}},{"attributes":{"ID":423165,"DIS_CODE":0,"TOWNNAME":"仁德區","LI":"成功里","LIN":"4鄰","STREET":"成功三街","SECT":" ","MAREA":" ","LANE":"９３巷","ALLEY":" ","HOUSE_NO":"１１號","E_COORD97":171225.28,"N_COORD97":2539817.27,"ADDRESS":"成功三街９３巷１１號","OBJECTID":423140},"geometry":{"x":171225.28000000026,"y":2539817.2699999996}},{"attributes":{"ID":423166,"DIS_CODE":0,"TOWNNAME":"仁德區","LI":"成功里","LIN":"4鄰","STREET":"成功三街","SECT":" ","MAREA":" ","LANE":"９３巷","ALLEY":" ","HOUSE_NO":"２號","E_COORD97":171200.07000000001,"N_COORD97":2539791.77,"ADDRESS":"成功三街９３巷２號","OBJECTID":423141},"geometry":{"x":171200.07000000216,"y":2539791.7700000014}},{"attributes":{"ID":423167,"DIS_CODE":0,"TOWNNAME":"仁德區","LI":"成功里","LIN":"26鄰","STREET":"成功一街","SECT":" ","MAREA":" ","LANE":"３０巷","ALLEY":" ","HOUSE_NO":"９號","E_COORD97":170499.12,"N_COORD97":2540074.7599999998,"ADDRESS":"成功一街３０巷９號","OBJECTID":423142},"geometry":{"x":170499.12000000011,"y":2540074.7599999998}},{"attributes":{"ID":423168,"DIS_CODE":0,"TOWNNAME":"仁德區","LI":"成功里","LIN":"25鄰","STREET":"成功一街","SECT":" ","MAREA":" ","LANE":"７０巷","ALLEY":" ","HOUSE_NO":"１２號","E_COORD97":170504.70000000001,"N_COORD97":2539880.52,"ADDRESS":"成功一街７０巷１２號","OBJECTID":423143},"geometry":{"x":170504.70000000112,"y":2539880.5200000033}},{"attributes":{"ID":423169,"DIS_CODE":0,"TOWNNAME":"仁德區","LI":"太子里","LIN":"25鄰","STREET":"長興五街","SECT":" ","MAREA":" ","LANE":"１４巷","ALLEY":" ","HOUSE_NO":"１３號","E_COORD97":173628.47,"N_COORD97":2543607.7599999998,"ADDRESS":"長興五街１４巷１３號","OBJECTID":423144},"geometry":{"x":173628.47000000067,"y":2543607.7599999998}},{"attributes":{"ID":423170,"DIS_CODE":0,"TOWNNAME":"仁德區","LI":"仁德里","LIN":"4鄰","STREET":"中正路","SECT":"二段","MAREA":" ","LANE":"８６７巷","ALLEY":" ","HOUSE_NO":"１８號","E_COORD97":173376.13,"N_COORD97":2540584.77,"ADDRESS":"中正路二段８６７巷１８號","OBJECTID":423145},"geometry":{"x":173376.13000000082,"y":2540584.7700000014}},{"attributes":{"ID":423171,"DIS_CODE":0,"TOWNNAME":"仁德區","LI":"太子里","LIN":"25鄰","STREET":"長興五街","SECT":" ","MAREA":" ","LANE":"１４巷","ALLEY":" ","HOUSE_NO":"１１號","E_COORD97":173623.98000000001,"N_COORD97":2543607.25,"ADDRESS":"長興五街１４巷１１號","OBJECTID":423146},"geometry":{"x":173623.98000000138,"y":2543607.25}},{"attributes":{"ID":423172,"DIS_CODE":0,"TOWNNAME":"仁德區","LI":"太子里","LIN":"43鄰","STREET":"太子路","SECT":" ","MAREA":" ","LANE":"１０１巷","ALLEY":" ","HOUSE_NO":"５５之３號","E_COORD97":174940.10999999999,"N_COORD97":2543424.0899999999,"ADDRESS":"太子路１０１巷５５之３號","OBJECTID":423147},"geometry":{"x":174940.11000000127,"y":2543424.0900000017}},{"attributes":{"ID":423173,"DIS_CODE":0,"TOWNNAME":"仁德區","LI":"成功里","LIN":"4鄰","STREET":"成功三街","SECT":" ","MAREA":" ","LANE":"９３巷","ALLEY":" ","HOUSE_NO":"５號","E_COORD97":171210.35000000001,"N_COORD97":2539806.27,"ADDRESS":"成功三街９３巷５號","OBJECTID":423148},"geometry":{"x":171210.34999999963,"y":2539806.2699999996}},{"attributes":{"ID":423174,"DIS_CODE":0,"TOWNNAME":"仁德區","LI":"成功里","LIN":"26鄰","STREET":"成功一街","SECT":" ","MAREA":" ","LANE":"３０巷","ALLEY":" ","HOUSE_NO":"３號","E_COORD97":170516.67999999999,"N_COORD97":2540074.5099999998,"ADDRESS":"成功一街３０巷３號","OBJECTID":423149},"geometry":{"x":170516.6799999997,"y":2540074.5100000016}},{"attributes":{"ID":423175,"DIS_CODE":0,"TOWNNAME":"仁德區","LI":"太子里","LIN":"25鄰","STREET":"長興五街","SECT":" ","MAREA":" ","LANE":"１４巷","ALLEY":" ","HOUSE_NO":"２３號","E_COORD97":173651.26999999999,"N_COORD97":2543608.0099999998,"ADDRESS":"長興五街１４巷２３號","OBJECTID":423150},"geometry":{"x":173651.27000000048,"y":2543608.0100000016}},{"attributes":{"ID":423176,"DIS_CODE":0,"TOWNNAME":"仁德區","LI":"成功里","LIN":"4鄰","STREET":"成功三街","SECT":" ","MAREA":" ","LANE":"９３巷","ALLEY":" ","HOUSE_NO":"１８號","E_COORD97":171235.26000000001,"N_COORD97":2539793.02,"ADDRESS":"成功三街９３巷１８號","OBJECTID":423151},"geometry":{"x":171235.25999999978,"y":2539793.0200000014}},{"attributes":{"ID":423177,"DIS_CODE":0,"TOWNNAME":"仁德區","LI":"保安里","LIN":"20鄰","STREET":"保安路","SECT":"一段","MAREA":" ","LANE":"１０５巷","ALLEY":" ","HOUSE_NO":"１３號","E_COORD97":171062.78,"N_COORD97":2536866.8100000001,"ADDRESS":"保安路一段１０５巷１３號","OBJECTID":423152},"geometry":{"x":171062.78000000026,"y":2536866.8100000024}},{"attributes":{"ID":423178,"DIS_CODE":0,"TOWNNAME":"仁德區","LI":"田厝里","LIN":"5鄰","STREET":"田厝三街","SECT":" ","MAREA":" ","LANE":"４１巷","ALLEY":" ","HOUSE_NO":"５７號","E_COORD97":172505.94,"N_COORD97":2537456.2400000002,"ADDRESS":"田厝三街４１巷５７號","OBJECTID":423153},"geometry":{"x":172505.94000000041,"y":2537456.2400000021}},{"attributes":{"ID":423179,"DIS_CODE":0,"TOWNNAME":"仁德區","LI":"太子里","LIN":"25鄰","STREET":"長興五街","SECT":" ","MAREA":" ","LANE":"１４巷","ALLEY":" ","HOUSE_NO":"１５號","E_COORD97":173633.17000000001,"N_COORD97":2543607.5,"ADDRESS":"長興五街１４巷１５號","OBJECTID":423154},"geometry":{"x":173633.16999999899,"y":2543607.5000000037}},{"attributes":{"ID":423180,"DIS_CODE":0,"TOWNNAME":"仁德區","LI":"太子里","LIN":"38鄰","STREET":"長興一街","SECT":" ","MAREA":" ","LANE":"７１巷","ALLEY":" ","HOUSE_NO":"１號","E_COORD97":174424.51000000001,"N_COORD97":2543831.7599999998,"ADDRESS":"長興一街７１巷１號","OBJECTID":423155},"geometry":{"x":174424.51000000071,"y":2543831.7599999998}},{"attributes":{"ID":423181,"DIS_CODE":0,"TOWNNAME":"仁德區","LI":"保安里","LIN":"20鄰","STREET":"保安路","SECT":"一段","MAREA":" ","LANE":"１０５巷","ALLEY":" ","HOUSE_NO":"１６號","E_COORD97":171069.29000000001,"N_COORD97":2536880.0699999998,"ADDRESS":"保安路一段１０５巷１６號","OBJECTID":423156},"geometry":{"x":171069.29000000004,"y":2536880.0700000003}},{"attributes":{"ID":423182,"DIS_CODE":0,"TOWNNAME":"仁德區","LI":"田厝里","LIN":"4鄰","STREET":"田厝三街","SECT":" ","MAREA":" ","LANE":"９３巷","ALLEY":" ","HOUSE_NO":"１１號","E_COORD97":172549.82000000001,"N_COORD97":2537473.7400000002,"ADDRESS":"田厝三街９３巷１１號","OBJECTID":423157},"geometry":{"x":172549.82000000123,"y":2537473.7400000021}},{"attributes":{"ID":423183,"DIS_CODE":0,"TOWNNAME":"仁德區","LI":"成功里","LIN":"4鄰","STREET":"成功三街","SECT":" ","MAREA":" ","LANE":"９３巷","ALLEY":" ","HOUSE_NO":"１２號","E_COORD97":171222.98000000001,"N_COORD97":2539790.02,"ADDRESS":"成功三街９３巷１２號","OBJECTID":423158},"geometry":{"x":171222.98000000231,"y":2539790.0200000014}},{"attributes":{"ID":423184,"DIS_CODE":0,"TOWNNAME":"仁德區","LI":"成功里","LIN":"25鄰","STREET":"成功一街","SECT":" ","MAREA":" ","LANE":"７０巷","ALLEY":" ","HOUSE_NO":"８號","E_COORD97":170515.69,"N_COORD97":2539890.27,"ADDRESS":"成功一街７０巷８號","OBJECTID":423159},"geometry":{"x":170515.69000000041,"y":2539890.2700000014}},{"attributes":{"ID":423185,"DIS_CODE":0,"TOWNNAME":"仁德區","LI":"新田里","LIN":"4鄰","STREET":"勝利路","SECT":" ","MAREA":" ","LANE":"１３２巷","ALLEY":" ","HOUSE_NO":"８號","E_COORD97":174273.16,"N_COORD97":2539524.6600000001,"ADDRESS":"勝利路１３２巷８號","OBJECTID":423160},"geometry":{"x":174273.16000000108,"y":2539524.660000002}},{"attributes":{"ID":423186,"DIS_CODE":0,"TOWNNAME":"仁德區","LI":"太子里","LIN":"25鄰","STREET":"長興五街","SECT":" ","MAREA":" ","LANE":"１４巷","ALLEY":" ","HOUSE_NO":"２５號","E_COORD97":173656.26000000001,"N_COORD97":2543608.0099999998,"ADDRESS":"長興五街１４巷２５號","OBJECTID":423161},"geometry":{"x":173656.26000000164,"y":2543608.0100000016}},{"attributes":{"ID":423187,"DIS_CODE":0,"TOWNNAME":"仁德區","LI":"成功里","LIN":"4鄰","STREET":"成功三街","SECT":" ","MAREA":" ","LANE":"９３巷","ALLEY":" ","HOUSE_NO":"１４號","E_COORD97":171227.38,"N_COORD97":2539789.52,"ADDRESS":"成功三街９３巷１４號","OBJECTID":423162},"geometry":{"x":171227.37999999989,"y":2539789.5200000014}},{"attributes":{"ID":423188,"DIS_CODE":0,"TOWNNAME":"仁德區","LI":"田厝里","LIN":"4鄰","STREET":"田厝三街","SECT":" ","MAREA":" ","LANE":"９３巷","ALLEY":" ","HOUSE_NO":"３１號","E_COORD97":172503.47,"N_COORD97":2537480.7400000002,"ADDRESS":"田厝三街９３巷３１號","OBJECTID":423163},"geometry":{"x":172503.46999999974,"y":2537480.7400000021}},{"attributes":{"ID":423189,"DIS_CODE":0,"TOWNNAME":"北區","LI":"五福里","LIN":"13鄰","STREET":"自強街","SECT":" ","MAREA":" ","LANE":" ","ALLEY":" ","HOUSE_NO":"１１號","E_COORD97":168209.01999999999,"N_COORD97":2544470.27,"ADDRESS":"自強街１１號","OBJECTID":423164},"geometry":{"x":168209.01999999955,"y":2544470.2700000014}},{"attributes":{"ID":423190,"DIS_CODE":0,"TOWNNAME":"仁德區","LI":"田厝里","LIN":"5鄰","STREET":"田厝三街","SECT":" ","MAREA":" ","LANE":"４１巷","ALLEY":" ","HOUSE_NO":"５號","E_COORD97":172459.01999999999,"N_COORD97":2537407,"ADDRESS":"田厝三街４１巷５號","OBJECTID":423165},"geometry":{"x":172459.01999999862,"y":2537407.0000000019}},{"attributes":{"ID":423191,"DIS_CODE":0,"TOWNNAME":"仁德區","LI":"田厝里","LIN":"4鄰","STREET":"田厝三街","SECT":" ","MAREA":" ","LANE":"８１巷","ALLEY":" ","HOUSE_NO":"５號","E_COORD97":172532.85999999999,"N_COORD97":2537462.7400000002,"ADDRESS":"田厝三街８１巷５號","OBJECTID":423166},"geometry":{"x":172532.86000000127,"y":2537462.7400000039}},{"attributes":{"ID":423192,"DIS_CODE":0,"TOWNNAME":"仁德區","LI":"保安里","LIN":"20鄰","STREET":"文賢路","SECT":"一段","MAREA":" ","LANE":"５５４巷","ALLEY":" ","HOUSE_NO":"７號","E_COORD97":171087.53,"N_COORD97":2536884.8300000001,"ADDRESS":"文賢路一段５５４巷７號","OBJECTID":423167},"geometry":{"x":171087.53000000119,"y":2536884.8300000001}},{"attributes":{"ID":423193,"DIS_CODE":0,"TOWNNAME":"仁德區","LI":"仁德里","LIN":"25鄰","STREET":"淨修街","SECT":" ","MAREA":" ","LANE":"１５７巷","ALLEY":" ","HOUSE_NO":"２４號","E_COORD97":171951.67999999999,"N_COORD97":2541308.75,"ADDRESS":"淨修街１５７巷２４號","OBJECTID":423168},"geometry":{"x":171951.68000000063,"y":2541308.75}},{"attributes":{"ID":423194,"DIS_CODE":0,"TOWNNAME":"仁德區","LI":"田厝里","LIN":"4鄰","STREET":"田厝三街","SECT":" ","MAREA":" ","LANE":"９３巷","ALLEY":" ","HOUSE_NO":"５號","E_COORD97":172563.16,"N_COORD97":2537465.2400000002,"ADDRESS":"田厝三街９３巷５號","OBJECTID":423169},"geometry":{"x":172563.16000000015,"y":2537465.2400000002}},{"attributes":{"ID":423195,"DIS_CODE":0,"TOWNNAME":"仁德區","LI":"成功里","LIN":"25鄰","STREET":"成功一街","SECT":" ","MAREA":" ","LANE":"７０巷","ALLEY":" ","HOUSE_NO":"２號","E_COORD97":170526.07000000001,"N_COORD97":2539880.02,"ADDRESS":"成功一街７０巷２號","OBJECTID":423170},"geometry":{"x":170526.07000000123,"y":2539880.0199999996}},{"attributes":{"ID":423196,"DIS_CODE":0,"TOWNNAME":"仁德區","LI":"太子里","LIN":"43鄰","STREET":"太子路","SECT":" ","MAREA":" ","LANE":"１０１巷","ALLEY":" ","HOUSE_NO":"５９號","E_COORD97":174928.54000000001,"N_COORD97":2543407.7599999998,"ADDRESS":"太子路１０１巷５９號","OBJECTID":423171},"geometry":{"x":174928.54000000097,"y":2543407.7599999998}},{"attributes":{"ID":423197,"DIS_CODE":0,"TOWNNAME":"仁德區","LI":"保安里","LIN":"20鄰","STREET":"保安路","SECT":"一段","MAREA":" ","LANE":"１０５巷","ALLEY":" ","HOUSE_NO":"１０號","E_COORD97":171074.29000000001,"N_COORD97":2536866.5600000001,"ADDRESS":"保安路一段１０５巷１０號","OBJECTID":423172},"geometry":{"x":171074.29000000004,"y":2536866.5600000005}},{"attributes":{"ID":423198,"DIS_CODE":0,"TOWNNAME":"仁德區","LI":"太子里","LIN":"38鄰","STREET":"長興一街","SECT":" ","MAREA":" ","LANE":"７１巷","ALLEY":" ","HOUSE_NO":"３號","E_COORD97":174434.81,"N_COORD97":2543819.5099999998,"ADDRESS":"長興一街７１巷３號","OBJECTID":423173},"geometry":{"x":174434.80999999959,"y":2543819.5099999998}},{"attributes":{"ID":423199,"DIS_CODE":0,"TOWNNAME":"仁德區","LI":"成功里","LIN":"26鄰","STREET":"成功一街","SECT":" ","MAREA":" ","LANE":"３０巷","ALLEY":" ","HOUSE_NO":"１２號","E_COORD97":170498.48999999999,"N_COORD97":2540083.0099999998,"ADDRESS":"成功一街３０巷１２號","OBJECTID":423174},"geometry":{"x":170498.49000000022,"y":2540083.0099999998}},{"attributes":{"ID":423200,"DIS_CODE":0,"TOWNNAME":"仁德區","LI":"後壁里","LIN":"32鄰","STREET":"德洋路","SECT":" ","MAREA":" ","LANE":"２２７巷","ALLEY":" ","HOUSE_NO":"５號","E_COORD97":172471.95999999999,"N_COORD97":2539534.7599999998,"ADDRESS":"德洋路２２７巷５號","OBJECTID":423175},"geometry":{"x":172471.96000000183,"y":2539534.7600000016}},{"attributes":{"ID":423201,"DIS_CODE":0,"TOWNNAME":"仁德區","LI":"太子里","LIN":"25鄰","STREET":"長興五街","SECT":" ","MAREA":" ","LANE":"１４巷","ALLEY":" ","HOUSE_NO":"１號","E_COORD97":173598.54000000001,"N_COORD97":2543602.75,"ADDRESS":"長興五街１４巷１號","OBJECTID":423176},"geometry":{"x":173598.54000000004,"y":2543602.7500000019}},{"attributes":{"ID":423202,"DIS_CODE":0,"TOWNNAME":"仁德區","LI":"田厝里","LIN":"4鄰","STREET":"田厝三街","SECT":" ","MAREA":" ","LANE":"９３巷","ALLEY":" ","HOUSE_NO":"９號","E_COORD97":172562.04999999999,"N_COORD97":2537475.7400000002,"ADDRESS":"田厝三街９３巷９號","OBJECTID":423177},"geometry":{"x":172562.04999999981,"y":2537475.7400000002}},{"attributes":{"ID":423203,"DIS_CODE":0,"TOWNNAME":"仁德區","LI":"成功里","LIN":"20鄰","STREET":"保華路","SECT":" ","MAREA":" ","LANE":"２６５巷","ALLEY":" ","HOUSE_NO":"４６號","E_COORD97":170658.57000000001,"N_COORD97":2539837.9900000002,"ADDRESS":"保華路２６５巷４６號","OBJECTID":423178},"geometry":{"x":170658.5700000003,"y":2539837.9900000021}},{"attributes":{"ID":423204,"DIS_CODE":0,"TOWNNAME":"仁德區","LI":"保安里","LIN":"20鄰","STREET":"保安路","SECT":"一段","MAREA":" ","LANE":"１０５巷","ALLEY":" ","HOUSE_NO":"５號","E_COORD97":171063.45000000001,"N_COORD97":2536848.8100000001,"ADDRESS":"保安路一段１０５巷５號","OBJECTID":423179},"geometry":{"x":171063.45000000205,"y":2536848.8100000042}},{"attributes":{"ID":423205,"DIS_CODE":0,"TOWNNAME":"仁德區","LI":"太子里","LIN":"25鄰","STREET":"長興五街","SECT":" ","MAREA":" ","LANE":"１４巷","ALLEY":" ","HOUSE_NO":"３號","E_COORD97":173603.14999999999,"N_COORD97":2543602.75,"ADDRESS":"長興五街１４巷３號","OBJECTID":423180},"geometry":{"x":173603.15000000037,"y":2543602.7500000019}},{"attributes":{"ID":423206,"DIS_CODE":0,"TOWNNAME":"仁德區","LI":"太子里","LIN":"43鄰","STREET":"太子路","SECT":" ","MAREA":" ","LANE":"１０１巷","ALLEY":" ","HOUSE_NO":"５３之２號","E_COORD97":174937.75,"N_COORD97":2543439.8399999999,"ADDRESS":"太子路１０１巷５３之２號","OBJECTID":423181},"geometry":{"x":174937.75,"y":2543439.8400000017}},{"attributes":{"ID":423207,"DIS_CODE":0,"TOWNNAME":"仁德區","LI":"田厝里","LIN":"4鄰","STREET":"田厝三街","SECT":" ","MAREA":" ","LANE":"９３巷","ALLEY":" ","HOUSE_NO":"４１號","E_COORD97":172492.39000000001,"N_COORD97":2537501.5,"ADDRESS":"田厝三街９３巷４１號","OBJECTID":423182},"geometry":{"x":172492.39000000153,"y":2537501.5000000019}},{"attributes":{"ID":423208,"DIS_CODE":0,"TOWNNAME":"仁德區","LI":"仁德里","LIN":"5鄰","STREET":"仁德四街","SECT":" ","MAREA":" ","LANE":"１２巷","ALLEY":" ","HOUSE_NO":"２之１號","E_COORD97":173265.22,"N_COORD97":2540870.4100000001,"ADDRESS":"仁德四街１２巷２之１號","OBJECTID":423183},"geometry":{"x":173265.22000000067,"y":2540870.4100000001}},{"attributes":{"ID":423209,"DIS_CODE":0,"TOWNNAME":"仁德區","LI":"仁德里","LIN":"26鄰","STREET":"淨修街","SECT":" ","MAREA":" ","LANE":"１７５巷","ALLEY":" ","HOUSE_NO":"２８號","E_COORD97":171971.85999999999,"N_COORD97":2541259.9399999999,"ADDRESS":"淨修街１７５巷２８號","OBJECTID":423184},"geometry":{"x":171971.86000000127,"y":2541259.9399999995}},{"attributes":{"ID":423210,"DIS_CODE":0,"TOWNNAME":"仁德區","LI":"後壁里","LIN":"41鄰","STREET":"德善路","SECT":" ","MAREA":" ","LANE":"２５１巷","ALLEY":" ","HOUSE_NO":"１之１號","E_COORD97":173862.04999999999,"N_COORD97":2538702.2599999998,"ADDRESS":"德善路２５１巷１之１號","OBJECTID":423185},"geometry":{"x":173862.04999999981,"y":2538702.2599999998}},{"attributes":{"ID":423211,"DIS_CODE":0,"TOWNNAME":"仁德區","LI":"成功里","LIN":"13鄰","STREET":"全福路","SECT":" ","MAREA":" ","LANE":"２巷","ALLEY":" ","HOUSE_NO":"１號","E_COORD97":170819.20999999999,"N_COORD97":2539294.5,"ADDRESS":"全福路２巷１號","OBJECTID":423186},"geometry":{"x":170819.21000000089,"y":2539294.4999999981}},{"attributes":{"ID":423212,"DIS_CODE":0,"TOWNNAME":"仁德區","LI":"後壁里","LIN":"4鄰","STREET":"德善一街","SECT":" ","MAREA":" ","LANE":"２７巷","ALLEY":" ","HOUSE_NO":"１６號","E_COORD97":173402.45000000001,"N_COORD97":2538998.5099999998,"ADDRESS":"德善一街２７巷１６號","OBJECTID":423187},"geometry":{"x":173402.45000000019,"y":2538998.5099999998}},{"attributes":{"ID":423213,"DIS_CODE":0,"TOWNNAME":"仁德區","LI":"保安里","LIN":"5鄰","STREET":"中正路","SECT":"一段","MAREA":" ","LANE":"１８２巷","ALLEY":" ","HOUSE_NO":"５號","E_COORD97":171581.32000000001,"N_COORD97":2535732.02,"ADDRESS":"中正路一段１８２巷５號","OBJECTID":423188},"geometry":{"x":171581.3200000003,"y":2535732.0200000014}},{"attributes":{"ID":423214,"DIS_CODE":0,"TOWNNAME":"仁德區","LI":"後壁里","LIN":"38鄰","STREET":"德安路","SECT":" ","MAREA":" ","LANE":"４８巷","ALLEY":" ","HOUSE_NO":"２２號","E_COORD97":173363.85999999999,"N_COORD97":2539127.3100000001,"ADDRESS":"德安路４８巷２２號","OBJECTID":423189},"geometry":{"x":173363.86000000034,"y":2539127.3100000024}},{"attributes":{"ID":423215,"DIS_CODE":0,"TOWNNAME":"仁德區","LI":"後壁里","LIN":"20鄰","STREET":"中正路","SECT":"二段","MAREA":" ","LANE":"１０６巷","ALLEY":" ","HOUSE_NO":"２３號","E_COORD97":173255.57000000001,"N_COORD97":2538497.4500000002,"ADDRESS":"中正路二段１０６巷２３號","OBJECTID":423190},"geometry":{"x":173255.5700000003,"y":2538497.450000003}},{"attributes":{"ID":423216,"DIS_CODE":0,"TOWNNAME":"仁德區","LI":"後壁里","LIN":"42鄰","STREET":"中正路","SECT":"二段","MAREA":" ","LANE":"１０６巷","ALLEY":" ","HOUSE_NO":"２９號","E_COORD97":173294.04000000001,"N_COORD97":2538499.02,"ADDRESS":"中正路二段１０６巷２９號","OBJECTID":423191},"geometry":{"x":173294.04000000097,"y":2538499.0199999996}},{"attributes":{"ID":423217,"DIS_CODE":0,"TOWNNAME":"仁德區","LI":"成功里","LIN":"46鄰","STREET":"文賢路","SECT":"一段","MAREA":" ","LANE":"８１巷","ALLEY":" ","HOUSE_NO":"６５號","E_COORD97":170266.91,"N_COORD97":2538323.0699999998,"ADDRESS":"文賢路一段８１巷６５號","OBJECTID":423192},"geometry":{"x":170266.91000000201,"y":2538323.0700000022}},{"attributes":{"ID":423218,"DIS_CODE":0,"TOWNNAME":"仁德區","LI":"後壁里","LIN":"38鄰","STREET":"德糖路","SECT":" ","MAREA":" ","LANE":" ","ALLEY":" ","HOUSE_NO":"４３６號","E_COORD97":173356.09,"N_COORD97":2539115.3100000001,"ADDRESS":"德糖路４３６號","OBJECTID":423193},"geometry":{"x":173356.09000000078,"y":2539115.3100000005}},{"attributes":{"ID":423219,"DIS_CODE":0,"TOWNNAME":"仁德區","LI":"後壁里","LIN":"41鄰","STREET":"德善路","SECT":" ","MAREA":" ","LANE":"２５１巷","ALLEY":" ","HOUSE_NO":"１之１４號","E_COORD97":173865.23000000001,"N_COORD97":2538763.27,"ADDRESS":"德善路２５１巷１之１４號","OBJECTID":423194},"geometry":{"x":173865.23000000045,"y":2538763.2699999977}},{"attributes":{"ID":423220,"DIS_CODE":0,"TOWNNAME":"仁德區","LI":"新田里","LIN":"4鄰","STREET":"勝利一街","SECT":" ","MAREA":" ","LANE":"５８巷","ALLEY":" ","HOUSE_NO":"５號","E_COORD97":174031.09,"N_COORD97":2539364.7599999998,"ADDRESS":"勝利一街５８巷５號","OBJECTID":423195},"geometry":{"x":174031.09000000078,"y":2539364.7600000016}},{"attributes":{"ID":423221,"DIS_CODE":0,"TOWNNAME":"仁德區","LI":"保安里","LIN":"5鄰","STREET":"中正路","SECT":"一段","MAREA":" ","LANE":"１８２巷","ALLEY":" ","HOUSE_NO":"１９號","E_COORD97":171604.73000000001,"N_COORD97":2535713.27,"ADDRESS":"中正路一段１８２巷１９號","OBJECTID":423196},"geometry":{"x":171604.73000000138,"y":2535713.2700000014}},{"attributes":{"ID":423222,"DIS_CODE":0,"TOWNNAME":"仁德區","LI":"後壁里","LIN":"40鄰","STREET":"德善二街","SECT":" ","MAREA":" ","LANE":"１７巷","ALLEY":" ","HOUSE_NO":"２９號","E_COORD97":173491.76000000001,"N_COORD97":2538960.27,"ADDRESS":"德善二街１７巷２９號","OBJECTID":423197},"geometry":{"x":173491.76000000164,"y":2538960.2700000033}},{"attributes":{"ID":423223,"DIS_CODE":0,"TOWNNAME":"安南區","LI":"新順里","LIN":"24鄰","STREET":"修安街","SECT":" ","MAREA":" ","LANE":"６６巷","ALLEY":" ","HOUSE_NO":"３號","E_COORD97":169382.48999999999,"N_COORD97":2549218.98,"ADDRESS":"修安街６６巷３號","OBJECTID":423198},"geometry":{"x":169382.49000000022,"y":2549218.9800000042}},{"attributes":{"ID":423224,"DIS_CODE":0,"TOWNNAME":"仁德區","LI":"新田里","LIN":"17鄰","STREET":"北保東路","SECT":" ","MAREA":" ","LANE":"４６巷","ALLEY":" ","HOUSE_NO":"２４號","E_COORD97":173548.20999999999,"N_COORD97":2539283.25,"ADDRESS":"北保東路４６巷２４號","OBJECTID":423199},"geometry":{"x":173548.20999999903,"y":2539283.2500000019}},{"attributes":{"ID":423225,"DIS_CODE":0,"TOWNNAME":"仁德區","LI":"新田里","LIN":"7鄰","STREET":"新田路","SECT":" ","MAREA":" ","LANE":"３４巷","ALLEY":" ","HOUSE_NO":"６號","E_COORD97":174517.84,"N_COORD97":2538936.2400000002,"ADDRESS":"新田路３４巷６號","OBJECTID":423200},"geometry":{"x":174517.83999999985,"y":2538936.2400000002}}]}