{"displayFieldName":"TOWNNAME","fieldAliases":{"ID":"ID","DIS_CODE":"DIS_CODE","TOWNNAME":"TOWNNAME","LI":"LI","LIN":"LIN","STREET":"STREET","SECT":"SECT","MAREA":"MAREA","LANE":"LANE","ALLEY":"ALLEY","HOUSE_NO":"HOUSE_NO","E_COORD97":"E_COORD97","N_COORD97":"N_COORD97","ADDRESS":"ADDRESS","OBJECTID":"OBJECTID"},"geometryType":"esriGeometryPoint","spatialReference":{"wkid":102443,"latestWkid":3826},"fields":[{"name":"ID","type":"esriFieldTypeDouble","alias":"ID"},{"name":"DIS_CODE","type":"esriFieldTypeInteger","alias":"DIS_CODE"},{"name":"TOWNNAME","type":"esriFieldTypeString","alias":"TOWNNAME","length":8},{"name":"LI","type":"esriFieldTypeString","alias":"LI","length":8},{"name":"LIN","type":"esriFieldTypeString","alias":"LIN","length":12},{"name":"STREET","type":"esriFieldTypeString","alias":"STREET","length":20},{"name":"SECT","type":"esriFieldTypeString","alias":"SECT","length":8},{"name":"MAREA","type":"esriFieldTypeString","alias":"MAREA","length":12},{"name":"LANE","type":"esriFieldTypeString","alias":"LANE","length":10},{"name":"ALLEY","type":"esriFieldTypeString","alias":"ALLEY","length":10},{"name":"HOUSE_NO","type":"esriFieldTypeString","alias":"HOUSE_NO","length":20},{"name":"E_COORD97","type":"esriFieldTypeDouble","alias":"E_COORD97"},{"name":"N_COORD97","type":"esriFieldTypeDouble","alias":"N_COORD97"},{"name":"ADDRESS","type":"esriFieldTypeString","alias":"ADDRESS","length":50},{"name":"OBJECTID","type":"esriFieldTypeOID","alias":"OBJECTID"}],"features":[{"attributes":{"ID":439026,"DIS_CODE":0,"TOWNNAME":"南區","LI":"國宅里","LIN":"4鄰","STREET":"金華路","SECT":"二段","MAREA":" ","LANE":"１５巷","ALLEY":" ","HOUSE_NO":"１４號","E_COORD97":166977.07000000001,"N_COORD97":2541885.6299999999,"ADDRESS":"金華路二段１５巷１４號","OBJECTID":439001},"geometry":{"x":166977.0700000003,"y":2541885.629999999}},{"attributes":{"ID":439027,"DIS_CODE":0,"TOWNNAME":"南區","LI":"國宅里","LIN":"4鄰","STREET":"金華路","SECT":"二段","MAREA":" ","LANE":"１５巷","ALLEY":" ","HOUSE_NO":"１６號","E_COORD97":166971.97,"N_COORD97":2541886.0899999999,"ADDRESS":"金華路二段１５巷１６號","OBJECTID":439002},"geometry":{"x":166971.96999999974,"y":2541886.0899999999}},{"attributes":{"ID":439028,"DIS_CODE":0,"TOWNNAME":"南區","LI":"國宅里","LIN":"4鄰","STREET":"金華路","SECT":"二段","MAREA":" ","LANE":"２１巷","ALLEY":" ","HOUSE_NO":"１號","E_COORD97":167039.92000000001,"N_COORD97":2541895.1200000001,"ADDRESS":"金華路二段２１巷１號","OBJECTID":439003},"geometry":{"x":167039.91999999993,"y":2541895.1199999992}},{"attributes":{"ID":439029,"DIS_CODE":0,"TOWNNAME":"南區","LI":"國宅里","LIN":"4鄰","STREET":"金華路","SECT":"二段","MAREA":" ","LANE":"２１巷","ALLEY":" ","HOUSE_NO":"３號","E_COORD97":167029.48000000001,"N_COORD97":2541896.5099999998,"ADDRESS":"金華路二段２１巷３號","OBJECTID":439004},"geometry":{"x":167029.48000000138,"y":2541896.5099999998}},{"attributes":{"ID":439030,"DIS_CODE":0,"TOWNNAME":"南區","LI":"國宅里","LIN":"4鄰","STREET":"金華路","SECT":"二段","MAREA":" ","LANE":"２１巷","ALLEY":" ","HOUSE_NO":"５號","E_COORD97":167017.42000000001,"N_COORD97":2541898.1200000001,"ADDRESS":"金華路二段２１巷５號","OBJECTID":439005},"geometry":{"x":167017.42000000086,"y":2541898.120000001}},{"attributes":{"ID":439031,"DIS_CODE":0,"TOWNNAME":"南區","LI":"國宅里","LIN":"4鄰","STREET":"金華路","SECT":"二段","MAREA":" ","LANE":"２１巷","ALLEY":" ","HOUSE_NO":"７號","E_COORD97":167005.60000000001,"N_COORD97":2541899.0600000001,"ADDRESS":"金華路二段２１巷７號","OBJECTID":439006},"geometry":{"x":167005.60000000056,"y":2541899.0600000024}},{"attributes":{"ID":439032,"DIS_CODE":0,"TOWNNAME":"南區","LI":"國宅里","LIN":"4鄰","STREET":"金華路","SECT":"二段","MAREA":" ","LANE":"２１巷","ALLEY":" ","HOUSE_NO":"９號","E_COORD97":166989.13,"N_COORD97":2541903,"ADDRESS":"金華路二段２１巷９號","OBJECTID":439007},"geometry":{"x":166989.13000000082,"y":2541903.0000000019}},{"attributes":{"ID":439033,"DIS_CODE":0,"TOWNNAME":"南區","LI":"國宅里","LIN":"4鄰","STREET":"金華路","SECT":"二段","MAREA":" ","LANE":"２１巷","ALLEY":" ","HOUSE_NO":"１１號","E_COORD97":166983.56,"N_COORD97":2541903.23,"ADDRESS":"金華路二段２１巷１１號","OBJECTID":439008},"geometry":{"x":166983.56000000145,"y":2541903.2300000004}},{"attributes":{"ID":439034,"DIS_CODE":0,"TOWNNAME":"南區","LI":"國宅里","LIN":"4鄰","STREET":"金華路","SECT":"二段","MAREA":" ","LANE":"２１巷","ALLEY":" ","HOUSE_NO":"１３號","E_COORD97":166978.92999999999,"N_COORD97":2541903.23,"ADDRESS":"金華路二段２１巷１３號","OBJECTID":439009},"geometry":{"x":166978.9299999997,"y":2541903.2300000004}},{"attributes":{"ID":439035,"DIS_CODE":0,"TOWNNAME":"南區","LI":"國宅里","LIN":"4鄰","STREET":"金華路","SECT":"二段","MAREA":" ","LANE":"２１巷","ALLEY":" ","HOUSE_NO":"１５號","E_COORD97":166973.35999999999,"N_COORD97":2541903.6899999999,"ADDRESS":"金華路二段２１巷１５號","OBJECTID":439010},"geometry":{"x":166973.36000000034,"y":2541903.6900000032}},{"attributes":{"ID":439036,"DIS_CODE":0,"TOWNNAME":"南區","LI":"國宅里","LIN":"4鄰","STREET":"金華路","SECT":"二段","MAREA":" ","LANE":"２１巷","ALLEY":" ","HOUSE_NO":"１７號","E_COORD97":166968.26000000001,"N_COORD97":2541903.9199999999,"ADDRESS":"金華路二段２１巷１７號","OBJECTID":439011},"geometry":{"x":166968.25999999978,"y":2541903.9200000018}},{"attributes":{"ID":439037,"DIS_CODE":0,"TOWNNAME":"南區","LI":"國宅里","LIN":"4鄰","STREET":"金華路","SECT":"二段","MAREA":" ","LANE":"２１巷","ALLEY":" ","HOUSE_NO":"１９號","E_COORD97":166963.39000000001,"N_COORD97":2541904.6200000001,"ADDRESS":"金華路二段２１巷１９號","OBJECTID":439012},"geometry":{"x":166963.3900000006,"y":2541904.620000001}},{"attributes":{"ID":439038,"DIS_CODE":0,"TOWNNAME":"南區","LI":"國宅里","LIN":"4鄰","STREET":"金華路","SECT":"二段","MAREA":" ","LANE":"２１巷","ALLEY":" ","HOUSE_NO":"２１號","E_COORD97":166958.04999999999,"N_COORD97":2541905.0800000001,"ADDRESS":"金華路二段２１巷２１號","OBJECTID":439013},"geometry":{"x":166958.04999999981,"y":2541905.0800000019}},{"attributes":{"ID":439039,"DIS_CODE":0,"TOWNNAME":"南區","LI":"國宅里","LIN":"4鄰","STREET":"金華路","SECT":"二段","MAREA":" ","LANE":"２１巷","ALLEY":" ","HOUSE_NO":"２３號","E_COORD97":166952.95000000001,"N_COORD97":2541905.54,"ADDRESS":"金華路二段２１巷２３號","OBJECTID":439014},"geometry":{"x":166952.95000000112,"y":2541905.540000001}},{"attributes":{"ID":439040,"DIS_CODE":0,"TOWNNAME":"南區","LI":"國宅里","LIN":"4鄰","STREET":"金華路","SECT":"二段","MAREA":" ","LANE":"２１巷","ALLEY":" ","HOUSE_NO":"２５號","E_COORD97":166946.92000000001,"N_COORD97":2541906.0099999998,"ADDRESS":"金華路二段２１巷２５號","OBJECTID":439015},"geometry":{"x":166946.91999999993,"y":2541906.0100000016}},{"attributes":{"ID":439041,"DIS_CODE":0,"TOWNNAME":"麻豆區","LI":"中興里","LIN":"4鄰","STREET":"中興街","SECT":" ","MAREA":" ","LANE":"３巷","ALLEY":" ","HOUSE_NO":"２號","E_COORD97":172924.82999999999,"N_COORD97":2564601.0800000001,"ADDRESS":"中興街３巷２號","OBJECTID":439016},"geometry":{"x":172924.83000000007,"y":2564601.0800000019}},{"attributes":{"ID":439042,"DIS_CODE":0,"TOWNNAME":"麻豆區","LI":"中興里","LIN":"4鄰","STREET":"中興街","SECT":" ","MAREA":" ","LANE":"３巷","ALLEY":" ","HOUSE_NO":"３號","E_COORD97":172938.54000000001,"N_COORD97":2564593.5,"ADDRESS":"中興街３巷３號","OBJECTID":439017},"geometry":{"x":172938.54000000004,"y":2564593.4999999981}},{"attributes":{"ID":439043,"DIS_CODE":0,"TOWNNAME":"南區","LI":"國宅里","LIN":"16鄰","STREET":"金華路","SECT":"二段","MAREA":" ","LANE":"３９巷","ALLEY":" ","HOUSE_NO":"８５號","E_COORD97":166798.07999999999,"N_COORD97":2542015.4900000002,"ADDRESS":"金華路二段３９巷８５號","OBJECTID":439018},"geometry":{"x":166798.08000000101,"y":2542015.4900000021}},{"attributes":{"ID":439044,"DIS_CODE":0,"TOWNNAME":"南區","LI":"國宅里","LIN":"16鄰","STREET":"金華路","SECT":"二段","MAREA":" ","LANE":"３９巷","ALLEY":" ","HOUSE_NO":"８６號","E_COORD97":166798.70999999999,"N_COORD97":2542031.7200000002,"ADDRESS":"金華路二段３９巷８６號","OBJECTID":439019},"geometry":{"x":166798.71000000089,"y":2542031.7200000007}},{"attributes":{"ID":439045,"DIS_CODE":0,"TOWNNAME":"南區","LI":"國宅里","LIN":"16鄰","STREET":"金華路","SECT":"二段","MAREA":" ","LANE":"３９巷","ALLEY":" ","HOUSE_NO":"８７號","E_COORD97":166791.75,"N_COORD97":2542016.3399999999,"ADDRESS":"金華路二段３９巷８７號","OBJECTID":439020},"geometry":{"x":166791.75000000093,"y":2542016.3400000017}},{"attributes":{"ID":439046,"DIS_CODE":0,"TOWNNAME":"南區","LI":"國宅里","LIN":"16鄰","STREET":"金華路","SECT":"二段","MAREA":" ","LANE":"３９巷","ALLEY":" ","HOUSE_NO":"８８號","E_COORD97":166793.23000000001,"N_COORD97":2542032.77,"ADDRESS":"金華路二段３９巷８８號","OBJECTID":439021},"geometry":{"x":166793.22999999952,"y":2542032.7700000014}},{"attributes":{"ID":439047,"DIS_CODE":0,"TOWNNAME":"南區","LI":"國宅里","LIN":"16鄰","STREET":"金華路","SECT":"二段","MAREA":" ","LANE":"３９巷","ALLEY":" ","HOUSE_NO":"８９號","E_COORD97":166785.63,"N_COORD97":2542016.5499999998,"ADDRESS":"金華路二段３９巷８９號","OBJECTID":439022},"geometry":{"x":166785.63000000082,"y":2542016.5500000007}},{"attributes":{"ID":439048,"DIS_CODE":0,"TOWNNAME":"南區","LI":"國宅里","LIN":"16鄰","STREET":"金華路","SECT":"二段","MAREA":" ","LANE":"３９巷","ALLEY":" ","HOUSE_NO":"９０號","E_COORD97":166787.32000000001,"N_COORD97":2542033.2000000002,"ADDRESS":"金華路二段３９巷９０號","OBJECTID":439023},"geometry":{"x":166787.3200000003,"y":2542033.2000000011}},{"attributes":{"ID":439049,"DIS_CODE":0,"TOWNNAME":"南區","LI":"國宅里","LIN":"19鄰","STREET":"新興路","SECT":" ","MAREA":" ","LANE":"４１８巷","ALLEY":" ","HOUSE_NO":"１３號","E_COORD97":166694.57999999999,"N_COORD97":2541853.1800000002,"ADDRESS":"新興路４１８巷１３號","OBJECTID":439024},"geometry":{"x":166694.58000000101,"y":2541853.1800000016}},{"attributes":{"ID":439050,"DIS_CODE":0,"TOWNNAME":"南區","LI":"國宅里","LIN":"19鄰","STREET":"新興路","SECT":" ","MAREA":" ","LANE":"４１８巷","ALLEY":" ","HOUSE_NO":"２５號","E_COORD97":166694.37,"N_COORD97":2541882.2000000002,"ADDRESS":"新興路４１８巷２５號","OBJECTID":439025},"geometry":{"x":166694.37000000104,"y":2541882.1999999993}},{"attributes":{"ID":439051,"DIS_CODE":0,"TOWNNAME":"永康區","LI":"崑山里","LIN":"40鄰","STREET":"崑山街","SECT":" ","MAREA":" ","LANE":"２２２巷","ALLEY":" ","HOUSE_NO":"１號","E_COORD97":174111.73999999999,"N_COORD97":2545051.6699999999,"ADDRESS":"崑山街２２２巷１號","OBJECTID":439026},"geometry":{"x":174111.74000000115,"y":2545051.6700000018}},{"attributes":{"ID":439052,"DIS_CODE":0,"TOWNNAME":"南區","LI":"國宅里","LIN":" ","STREET":"金華路","SECT":"二段","MAREA":" ","LANE":"９巷","ALLEY":" ","HOUSE_NO":"５２號","E_COORD97":166858.51000000001,"N_COORD97":2541858.9300000002,"ADDRESS":"金華路二段９巷５２號","OBJECTID":439027},"geometry":{"x":166858.51000000164,"y":2541858.9300000016}},{"attributes":{"ID":439053,"DIS_CODE":0,"TOWNNAME":"南區","LI":"國宅里","LIN":" ","STREET":"金華路","SECT":"二段","MAREA":" ","LANE":"３３巷","ALLEY":" ","HOUSE_NO":"７９號","E_COORD97":166748.10999999999,"N_COORD97":2541985.6299999999,"ADDRESS":"金華路二段３３巷７９號","OBJECTID":439028},"geometry":{"x":166748.11000000034,"y":2541985.6300000008}},{"attributes":{"ID":439054,"DIS_CODE":0,"TOWNNAME":"南區","LI":"國宅里","LIN":" ","STREET":"金華路","SECT":"二段","MAREA":" ","LANE":"２７巷","ALLEY":" ","HOUSE_NO":"６７號","E_COORD97":166808.16,"N_COORD97":2541940.0800000001,"ADDRESS":"金華路二段２７巷６７號","OBJECTID":439029},"geometry":{"x":166808.16000000015,"y":2541940.0800000019}},{"attributes":{"ID":439055,"DIS_CODE":0,"TOWNNAME":"南區","LI":"國宅里","LIN":"15鄰","STREET":"金華路","SECT":"二段","MAREA":" ","LANE":"２７巷","ALLEY":" ","HOUSE_NO":"７７號","E_COORD97":166720.57000000001,"N_COORD97":2541952.5899999999,"ADDRESS":"金華路二段２７巷７７號","OBJECTID":439030},"geometry":{"x":166720.5700000003,"y":2541952.5900000017}},{"attributes":{"ID":439056,"DIS_CODE":0,"TOWNNAME":"南區","LI":"國宅里","LIN":"19鄰","STREET":"新興路","SECT":" ","MAREA":" ","LANE":"４１８巷","ALLEY":" ","HOUSE_NO":"２７號","E_COORD97":166693.70999999999,"N_COORD97":2541887.2200000002,"ADDRESS":"新興路４１８巷２７號","OBJECTID":439031},"geometry":{"x":166693.71000000089,"y":2541887.2200000007}},{"attributes":{"ID":439057,"DIS_CODE":0,"TOWNNAME":"南區","LI":"喜北里","LIN":"1鄰","STREET":"喜樹路","SECT":" ","MAREA":" ","LANE":"２４巷","ALLEY":" ","HOUSE_NO":"１號","E_COORD97":165852.29999999999,"N_COORD97":2538617.9900000002,"ADDRESS":"喜樹路２４巷１號","OBJECTID":439032},"geometry":{"x":165852.29999999981,"y":2538617.9900000021}},{"attributes":{"ID":439058,"DIS_CODE":0,"TOWNNAME":"南區","LI":"喜北里","LIN":"4鄰","STREET":"喜樹路","SECT":" ","MAREA":" ","LANE":"７４巷","ALLEY":" ","HOUSE_NO":"３８號","E_COORD97":165743.73000000001,"N_COORD97":2538494,"ADDRESS":"喜樹路７４巷３８號","OBJECTID":439033},"geometry":{"x":165743.73000000045,"y":2538494}},{"attributes":{"ID":439059,"DIS_CODE":0,"TOWNNAME":"南區","LI":"喜北里","LIN":"4鄰","STREET":"喜樹路","SECT":" ","MAREA":" ","LANE":"７４巷","ALLEY":" ","HOUSE_NO":"４０號","E_COORD97":165738.10999999999,"N_COORD97":2538494.1400000001,"ADDRESS":"喜樹路７４巷４０號","OBJECTID":439034},"geometry":{"x":165738.11000000127,"y":2538494.1400000043}},{"attributes":{"ID":439060,"DIS_CODE":0,"TOWNNAME":"南區","LI":"喜北里","LIN":"4鄰","STREET":"喜樹路","SECT":" ","MAREA":" ","LANE":"７４巷","ALLEY":" ","HOUSE_NO":"４２號","E_COORD97":165732.48999999999,"N_COORD97":2538493.9399999999,"ADDRESS":"喜樹路７４巷４２號","OBJECTID":439035},"geometry":{"x":165732.49000000115,"y":2538493.9399999995}},{"attributes":{"ID":439061,"DIS_CODE":0,"TOWNNAME":"南區","LI":"喜北里","LIN":"4鄰","STREET":"喜樹路","SECT":" ","MAREA":" ","LANE":"７４巷","ALLEY":" ","HOUSE_NO":"４４號","E_COORD97":165727.13,"N_COORD97":2538493.6099999999,"ADDRESS":"喜樹路７４巷４４號","OBJECTID":439036},"geometry":{"x":165727.13000000175,"y":2538493.6100000013}},{"attributes":{"ID":439062,"DIS_CODE":0,"TOWNNAME":"南區","LI":"喜北里","LIN":"6鄰","STREET":"喜樹路","SECT":" ","MAREA":" ","LANE":"８４巷","ALLEY":" ","HOUSE_NO":"１號","E_COORD97":165849.89999999999,"N_COORD97":2538432.3599999999,"ADDRESS":"喜樹路８４巷１號","OBJECTID":439037},"geometry":{"x":165849.9000000013,"y":2538432.3599999994}},{"attributes":{"ID":439063,"DIS_CODE":0,"TOWNNAME":"南區","LI":"喜北里","LIN":"6鄰","STREET":"喜樹路","SECT":" ","MAREA":" ","LANE":"８４巷","ALLEY":" ","HOUSE_NO":"３號","E_COORD97":165843.89999999999,"N_COORD97":2538432.23,"ADDRESS":"喜樹路８４巷３號","OBJECTID":439038},"geometry":{"x":165843.90000000037,"y":2538432.2299999986}},{"attributes":{"ID":439064,"DIS_CODE":0,"TOWNNAME":"南區","LI":"喜北里","LIN":"6鄰","STREET":"喜樹路","SECT":" ","MAREA":" ","LANE":"８４巷","ALLEY":" ","HOUSE_NO":"５號","E_COORD97":165838.31,"N_COORD97":2538432.73,"ADDRESS":"喜樹路８４巷５號","OBJECTID":439039},"geometry":{"x":165838.31000000052,"y":2538432.7300000023}},{"attributes":{"ID":439065,"DIS_CODE":0,"TOWNNAME":"南區","LI":"喜北里","LIN":"6鄰","STREET":"喜樹路","SECT":" ","MAREA":" ","LANE":"８４巷","ALLEY":" ","HOUSE_NO":"７號","E_COORD97":165832.87,"N_COORD97":2538432.54,"ADDRESS":"喜樹路８４巷７號","OBJECTID":439040},"geometry":{"x":165832.87000000104,"y":2538432.5400000028}},{"attributes":{"ID":439066,"DIS_CODE":0,"TOWNNAME":"南區","LI":"喜北里","LIN":"6鄰","STREET":"喜樹路","SECT":" ","MAREA":" ","LANE":"８４巷","ALLEY":" ","HOUSE_NO":"９號","E_COORD97":165827.57000000001,"N_COORD97":2538432.73,"ADDRESS":"喜樹路８４巷９號","OBJECTID":439041},"geometry":{"x":165827.5700000003,"y":2538432.7300000023}},{"attributes":{"ID":439067,"DIS_CODE":0,"TOWNNAME":"南區","LI":"喜北里","LIN":"6鄰","STREET":"喜樹路","SECT":" ","MAREA":" ","LANE":"８４巷","ALLEY":" ","HOUSE_NO":"１１號","E_COORD97":165822.20000000001,"N_COORD97":2538432.8599999999,"ADDRESS":"喜樹路８４巷１１號","OBJECTID":439042},"geometry":{"x":165822.20000000112,"y":2538432.8599999994}},{"attributes":{"ID":439068,"DIS_CODE":0,"TOWNNAME":"南區","LI":"喜北里","LIN":"6鄰","STREET":"喜樹路","SECT":" ","MAREA":" ","LANE":"８４巷","ALLEY":" ","HOUSE_NO":"１３號","E_COORD97":165816.76000000001,"N_COORD97":2538432.9900000002,"ADDRESS":"喜樹路８４巷１３號","OBJECTID":439043},"geometry":{"x":165816.76000000071,"y":2538432.9900000002}},{"attributes":{"ID":439069,"DIS_CODE":0,"TOWNNAME":"南區","LI":"喜北里","LIN":"6鄰","STREET":"喜樹路","SECT":" ","MAREA":" ","LANE":"８４巷","ALLEY":" ","HOUSE_NO":"１５號","E_COORD97":165811.14000000001,"N_COORD97":2538433.1699999999,"ADDRESS":"喜樹路８４巷１５號","OBJECTID":439044},"geometry":{"x":165811.13999999966,"y":2538433.1700000018}},{"attributes":{"ID":439070,"DIS_CODE":0,"TOWNNAME":"南區","LI":"喜北里","LIN":"6鄰","STREET":"喜樹路","SECT":" ","MAREA":" ","LANE":"８４巷","ALLEY":" ","HOUSE_NO":"１７號","E_COORD97":165805.57999999999,"N_COORD97":2538433.1699999999,"ADDRESS":"喜樹路８４巷１７號","OBJECTID":439045},"geometry":{"x":165805.57999999914,"y":2538433.1700000018}},{"attributes":{"ID":439071,"DIS_CODE":0,"TOWNNAME":"麻豆區","LI":"中興里","LIN":"4鄰","STREET":"中興街","SECT":" ","MAREA":" ","LANE":"３巷","ALLEY":" ","HOUSE_NO":"５號","E_COORD97":172938.82999999999,"N_COORD97":2564589.3100000001,"ADDRESS":"中興街３巷５號","OBJECTID":439046},"geometry":{"x":172938.83000000007,"y":2564589.3100000024}},{"attributes":{"ID":439072,"DIS_CODE":0,"TOWNNAME":"南區","LI":"喜北里","LIN":" ","STREET":"喜樹路","SECT":" ","MAREA":" ","LANE":"２０６巷","ALLEY":" ","HOUSE_NO":"１０２號","E_COORD97":165716.76999999999,"N_COORD97":2538326.73,"ADDRESS":"喜樹路２０６巷１０２號","OBJECTID":439047},"geometry":{"x":165716.76999999955,"y":2538326.7300000004}},{"attributes":{"ID":439073,"DIS_CODE":0,"TOWNNAME":"南區","LI":"喜北里","LIN":" ","STREET":"喜樹路","SECT":" ","MAREA":" ","LANE":"２２２巷","ALLEY":" ","HOUSE_NO":"７４號","E_COORD97":165524.45000000001,"N_COORD97":2538062.9100000001,"ADDRESS":"喜樹路２２２巷７４號","OBJECTID":439048},"geometry":{"x":165524.45000000019,"y":2538062.910000002}},{"attributes":{"ID":439074,"DIS_CODE":0,"TOWNNAME":"將軍區","LI":"廣山里","LIN":"8鄰","STREET":" ","SECT":" ","MAREA":"廣山","LANE":" ","ALLEY":" ","HOUSE_NO":"７３之１號","E_COORD97":159557.58147199999,"N_COORD97":2568858.7880500001,"ADDRESS":"廣山７３之１號","OBJECTID":439049},"geometry":{"x":159557.58147200104,"y":2568858.7880479991}},{"attributes":{"ID":439075,"DIS_CODE":0,"TOWNNAME":"南區","LI":"喜東里","LIN":"4鄰","STREET":"明興路","SECT":" ","MAREA":" ","LANE":"３８２巷","ALLEY":" ","HOUSE_NO":"１０號","E_COORD97":166281.17000000001,"N_COORD97":2538910.4100000001,"ADDRESS":"明興路３８２巷１０號","OBJECTID":439050},"geometry":{"x":166281.16999999899,"y":2538910.410000002}},{"attributes":{"ID":439076,"DIS_CODE":0,"TOWNNAME":"南區","LI":"喜東里","LIN":"4鄰","STREET":"明興路","SECT":" ","MAREA":" ","LANE":"３８２巷","ALLEY":" ","HOUSE_NO":"１１號","E_COORD97":166272.07000000001,"N_COORD97":2538893.8900000001,"ADDRESS":"明興路３８２巷１１號","OBJECTID":439051},"geometry":{"x":166272.06999999937,"y":2538893.8900000025}},{"attributes":{"ID":439077,"DIS_CODE":0,"TOWNNAME":"南區","LI":"喜東里","LIN":"4鄰","STREET":"明興路","SECT":" ","MAREA":" ","LANE":"３８２巷","ALLEY":" ","HOUSE_NO":"１號","E_COORD97":166292.78,"N_COORD97":2538889.3999999999,"ADDRESS":"明興路３８２巷１號","OBJECTID":439052},"geometry":{"x":166292.78000000212,"y":2538889.4000000022}},{"attributes":{"ID":439078,"DIS_CODE":0,"TOWNNAME":"南區","LI":"喜東里","LIN":"4鄰","STREET":"明興路","SECT":" ","MAREA":" ","LANE":"３８２巷","ALLEY":" ","HOUSE_NO":"２號","E_COORD97":166297.48999999999,"N_COORD97":2538906.1400000001,"ADDRESS":"明興路３８２巷２號","OBJECTID":439053},"geometry":{"x":166297.49000000022,"y":2538906.1400000025}},{"attributes":{"ID":439079,"DIS_CODE":0,"TOWNNAME":"南區","LI":"喜東里","LIN":"4鄰","STREET":"明興路","SECT":" ","MAREA":" ","LANE":"３８２巷","ALLEY":" ","HOUSE_NO":"３號","E_COORD97":166288.51000000001,"N_COORD97":2538890.5,"ADDRESS":"明興路３８２巷３號","OBJECTID":439054},"geometry":{"x":166288.50999999978,"y":2538890.5}},{"attributes":{"ID":439080,"DIS_CODE":0,"TOWNNAME":"南區","LI":"喜東里","LIN":"4鄰","STREET":"明興路","SECT":" ","MAREA":" ","LANE":"３８２巷","ALLEY":" ","HOUSE_NO":"４號","E_COORD97":166293.44,"N_COORD97":2538907.46,"ADDRESS":"明興路３８２巷４號","OBJECTID":439055},"geometry":{"x":166293.44000000227,"y":2538907.4600000028}},{"attributes":{"ID":439081,"DIS_CODE":0,"TOWNNAME":"南區","LI":"喜東里","LIN":"4鄰","STREET":"明興路","SECT":" ","MAREA":" ","LANE":"３８２巷","ALLEY":" ","HOUSE_NO":"５號","E_COORD97":166284.45000000001,"N_COORD97":2538891.1499999999,"ADDRESS":"明興路３８２巷５號","OBJECTID":439056},"geometry":{"x":166284.45000000019,"y":2538891.1500000022}},{"attributes":{"ID":439082,"DIS_CODE":0,"TOWNNAME":"南區","LI":"喜東里","LIN":"4鄰","STREET":"明興路","SECT":" ","MAREA":" ","LANE":"３８２巷","ALLEY":" ","HOUSE_NO":"６號","E_COORD97":166289.38,"N_COORD97":2538908,"ADDRESS":"明興路３８２巷６號","OBJECTID":439057},"geometry":{"x":166289.37999999989,"y":2538907.9999999981}},{"attributes":{"ID":439083,"DIS_CODE":0,"TOWNNAME":"南區","LI":"喜東里","LIN":"4鄰","STREET":"明興路","SECT":" ","MAREA":" ","LANE":"３８２巷","ALLEY":" ","HOUSE_NO":"７號","E_COORD97":166280.29000000001,"N_COORD97":2538891.8100000001,"ADDRESS":"明興路３８２巷７號","OBJECTID":439058},"geometry":{"x":166280.29000000004,"y":2538891.8100000005}},{"attributes":{"ID":439084,"DIS_CODE":0,"TOWNNAME":"南區","LI":"喜東里","LIN":"4鄰","STREET":"明興路","SECT":" ","MAREA":" ","LANE":"３８２巷","ALLEY":" ","HOUSE_NO":"８號","E_COORD97":166285.44,"N_COORD97":2538909.1000000001,"ADDRESS":"明興路３８２巷８號","OBJECTID":439059},"geometry":{"x":166285.44000000134,"y":2538909.0999999996}},{"attributes":{"ID":439085,"DIS_CODE":0,"TOWNNAME":"南區","LI":"喜東里","LIN":"4鄰","STREET":"明興路","SECT":" ","MAREA":" ","LANE":"３８２巷","ALLEY":" ","HOUSE_NO":"９號","E_COORD97":166276.23000000001,"N_COORD97":2538893.1200000001,"ADDRESS":"明興路３８２巷９號","OBJECTID":439060},"geometry":{"x":166276.22999999952,"y":2538893.1200000029}},{"attributes":{"ID":439086,"DIS_CODE":0,"TOWNNAME":"南區","LI":"喜東里","LIN":"4鄰","STREET":"明興路","SECT":" ","MAREA":" ","LANE":"４０４巷","ALLEY":" ","HOUSE_NO":"９號","E_COORD97":166264.26000000001,"N_COORD97":2538844.5600000001,"ADDRESS":"明興路４０４巷９號","OBJECTID":439061},"geometry":{"x":166264.26000000071,"y":2538844.5600000024}},{"attributes":{"ID":439087,"DIS_CODE":0,"TOWNNAME":"南區","LI":"喜東里","LIN":"4鄰","STREET":"明興路","SECT":" ","MAREA":" ","LANE":"４２６巷","ALLEY":" ","HOUSE_NO":"１０號","E_COORD97":166254.17999999999,"N_COORD97":2538816.0499999998,"ADDRESS":"明興路４２６巷１０號","OBJECTID":439062},"geometry":{"x":166254.18000000063,"y":2538816.0500000007}},{"attributes":{"ID":439088,"DIS_CODE":0,"TOWNNAME":"南區","LI":"喜東里","LIN":"4鄰","STREET":"明興路","SECT":" ","MAREA":" ","LANE":"４２６巷","ALLEY":" ","HOUSE_NO":"８號","E_COORD97":166258.12,"N_COORD97":2538815.0800000001,"ADDRESS":"明興路４２６巷８號","OBJECTID":439063},"geometry":{"x":166258.12000000197,"y":2538815.0800000001}},{"attributes":{"ID":439089,"DIS_CODE":0,"TOWNNAME":"南區","LI":"喜東里","LIN":"7鄰","STREET":"喜樹路","SECT":" ","MAREA":" ","LANE":"１５１巷","ALLEY":" ","HOUSE_NO":"７號","E_COORD97":165840.89999999999,"N_COORD97":2537996.3700000001,"ADDRESS":"喜樹路１５１巷７號","OBJECTID":439064},"geometry":{"x":165840.90000000037,"y":2537996.3700000029}},{"attributes":{"ID":439090,"DIS_CODE":0,"TOWNNAME":"南區","LI":"喜東里","LIN":" ","STREET":"喜樹路","SECT":" ","MAREA":" ","LANE":"１５１巷","ALLEY":" ","HOUSE_NO":"１號","E_COORD97":165812.82000000001,"N_COORD97":2537990.4700000002,"ADDRESS":"喜樹路１５１巷１號","OBJECTID":439065},"geometry":{"x":165812.82000000216,"y":2537990.4700000044}},{"attributes":{"ID":439091,"DIS_CODE":0,"TOWNNAME":"南區","LI":"喜東里","LIN":" ","STREET":"明興路","SECT":" ","MAREA":" ","LANE":"６１９巷","ALLEY":" ","HOUSE_NO":"２５６號之１","E_COORD97":166686.76999999999,"N_COORD97":2537912.6800000002,"ADDRESS":"明興路６１９巷２５６號之１","OBJECTID":439066},"geometry":{"x":166686.76999999955,"y":2537912.6799999997}},{"attributes":{"ID":439092,"DIS_CODE":0,"TOWNNAME":"永康區","LI":"東橋里","LIN":"26鄰","STREET":"中正路","SECT":" ","MAREA":" ","LANE":"２７９巷","ALLEY":" ","HOUSE_NO":"８號","E_COORD97":172648.73000000001,"N_COORD97":2548043.2400000002,"ADDRESS":"中正路２７９巷８號","OBJECTID":439067},"geometry":{"x":172648.73000000138,"y":2548043.2400000002}},{"attributes":{"ID":439093,"DIS_CODE":0,"TOWNNAME":"永康區","LI":"埔園里","LIN":"26鄰","STREET":"自強路","SECT":" ","MAREA":" ","LANE":"４１７巷","ALLEY":" ","HOUSE_NO":"４１號","E_COORD97":173733.29999999999,"N_COORD97":2548072.9700000002,"ADDRESS":"自強路４１７巷４１號","OBJECTID":439068},"geometry":{"x":173733.29999999981,"y":2548072.9700000007}},{"attributes":{"ID":439094,"DIS_CODE":0,"TOWNNAME":"永康區","LI":"東橋里","LIN":"26鄰","STREET":"中正路","SECT":" ","MAREA":" ","LANE":"２７９巷","ALLEY":" ","HOUSE_NO":"１之２號","E_COORD97":172719.63,"N_COORD97":2548088.0499999998,"ADDRESS":"中正路２７９巷１之２號","OBJECTID":439069},"geometry":{"x":172719.62999999989,"y":2548088.0500000026}},{"attributes":{"ID":439095,"DIS_CODE":0,"TOWNNAME":"永康區","LI":"東橋里","LIN":"26鄰","STREET":"中正路","SECT":" ","MAREA":" ","LANE":"２７９巷","ALLEY":" ","HOUSE_NO":"４號","E_COORD97":172686.42999999999,"N_COORD97":2548066.75,"ADDRESS":"中正路２７９巷４號","OBJECTID":439070},"geometry":{"x":172686.4299999997,"y":2548066.75}},{"attributes":{"ID":439096,"DIS_CODE":0,"TOWNNAME":"永康區","LI":"埔園里","LIN":"25鄰","STREET":"自強路","SECT":" ","MAREA":" ","LANE":"４１７巷","ALLEY":" ","HOUSE_NO":"４２號","E_COORD97":173741.32999999999,"N_COORD97":2548091.04,"ADDRESS":"自強路４１７巷４２號","OBJECTID":439071},"geometry":{"x":173741.33000000101,"y":2548091.0399999991}},{"attributes":{"ID":439097,"DIS_CODE":0,"TOWNNAME":"永康區","LI":"神洲里","LIN":"4鄰","STREET":"忠孝路","SECT":" ","MAREA":" ","LANE":"３６巷","ALLEY":" ","HOUSE_NO":"７號","E_COORD97":172115.38,"N_COORD97":2544678.2599999998,"ADDRESS":"忠孝路３６巷７號","OBJECTID":439072},"geometry":{"x":172115.38000000082,"y":2544678.2600000016}},{"attributes":{"ID":439098,"DIS_CODE":0,"TOWNNAME":"永康區","LI":"神洲里","LIN":"4鄰","STREET":"忠孝路","SECT":" ","MAREA":" ","LANE":"３８巷","ALLEY":" ","HOUSE_NO":"６號","E_COORD97":172109.45000000001,"N_COORD97":2544696.5,"ADDRESS":"忠孝路３８巷６號","OBJECTID":439073},"geometry":{"x":172109.45000000205,"y":2544696.5000000019}},{"attributes":{"ID":439099,"DIS_CODE":0,"TOWNNAME":"永康區","LI":"埔園里","LIN":"25鄰","STREET":"自強路","SECT":" ","MAREA":" ","LANE":"４１７巷","ALLEY":" ","HOUSE_NO":"３８號","E_COORD97":173744.48000000001,"N_COORD97":2548082.6600000001,"ADDRESS":"自強路４１７巷３８號","OBJECTID":439074},"geometry":{"x":173744.48000000045,"y":2548082.660000002}},{"attributes":{"ID":439100,"DIS_CODE":0,"TOWNNAME":"永康區","LI":"埔園里","LIN":"39鄰","STREET":"聖龍街","SECT":" ","MAREA":" ","LANE":"１７９巷","ALLEY":" ","HOUSE_NO":"３３號","E_COORD97":174301.51000000001,"N_COORD97":2547942.3700000001,"ADDRESS":"聖龍街１７９巷３３號","OBJECTID":439075},"geometry":{"x":174301.50999999978,"y":2547942.3700000048}},{"attributes":{"ID":439101,"DIS_CODE":0,"TOWNNAME":"永康區","LI":"東橋里","LIN":"26鄰","STREET":"中正路","SECT":" ","MAREA":" ","LANE":"２７９巷","ALLEY":" ","HOUSE_NO":"１５號","E_COORD97":172579.97,"N_COORD97":2547999.75,"ADDRESS":"中正路２７９巷１５號","OBJECTID":439076},"geometry":{"x":172579.96999999881,"y":2547999.7500000019}},{"attributes":{"ID":439102,"DIS_CODE":0,"TOWNNAME":"永康區","LI":"埔園里","LIN":"25鄰","STREET":"自強路","SECT":" ","MAREA":" ","LANE":"４１７巷","ALLEY":" ","HOUSE_NO":"３２號","E_COORD97":173752.14000000001,"N_COORD97":2548066.54,"ADDRESS":"自強路４１７巷３２號","OBJECTID":439077},"geometry":{"x":173752.1400000006,"y":2548066.5399999991}},{"attributes":{"ID":439103,"DIS_CODE":0,"TOWNNAME":"永康區","LI":"烏竹里","LIN":"13鄰","STREET":"龍橋街","SECT":" ","MAREA":" ","LANE":"３５０巷","ALLEY":" ","HOUSE_NO":"２７號","E_COORD97":174562.91,"N_COORD97":2549142.6899999999,"ADDRESS":"龍橋街３５０巷２７號","OBJECTID":439078},"geometry":{"x":174562.91000000108,"y":2549142.6900000013}},{"attributes":{"ID":439104,"DIS_CODE":0,"TOWNNAME":"永康區","LI":"神洲里","LIN":"4鄰","STREET":"忠孝路","SECT":" ","MAREA":" ","LANE":"３６巷","ALLEY":" ","HOUSE_NO":"５號","E_COORD97":172110.04999999999,"N_COORD97":2544678.5099999998,"ADDRESS":"忠孝路３６巷５號","OBJECTID":439079},"geometry":{"x":172110.05000000168,"y":2544678.5100000035}},{"attributes":{"ID":439105,"DIS_CODE":0,"TOWNNAME":"永康區","LI":"神洲里","LIN":"4鄰","STREET":"忠孝路","SECT":" ","MAREA":" ","LANE":"３６巷","ALLEY":" ","HOUSE_NO":"２３號","E_COORD97":172174.26000000001,"N_COORD97":2544681.5600000001,"ADDRESS":"忠孝路３６巷２３號","OBJECTID":439080},"geometry":{"x":172174.25999999978,"y":2544681.5600000005}},{"attributes":{"ID":439106,"DIS_CODE":0,"TOWNNAME":"永康區","LI":"埔園里","LIN":"4鄰","STREET":"中山路","SECT":" ","MAREA":" ","LANE":"１５８巷","ALLEY":" ","HOUSE_NO":"５０號之３","E_COORD97":173932.5,"N_COORD97":2547849.04,"ADDRESS":"中山路１５８巷５０號之３","OBJECTID":439081},"geometry":{"x":173932.5,"y":2547849.040000001}},{"attributes":{"ID":439107,"DIS_CODE":0,"TOWNNAME":"永康區","LI":"神洲里","LIN":"5鄰","STREET":"忠孝路","SECT":" ","MAREA":" ","LANE":"３８巷","ALLEY":" ","HOUSE_NO":"７號","E_COORD97":172113.92000000001,"N_COORD97":2544707.46,"ADDRESS":"忠孝路３８巷７號","OBJECTID":439082},"geometry":{"x":172113.91999999993,"y":2544707.4600000028}},{"attributes":{"ID":439108,"DIS_CODE":0,"TOWNNAME":"永康區","LI":"埔園里","LIN":"26鄰","STREET":"自強路","SECT":" ","MAREA":" ","LANE":"４１７巷","ALLEY":" ","HOUSE_NO":"１５號","E_COORD97":173751.70000000001,"N_COORD97":2548020.9199999999,"ADDRESS":"自強路４１７巷１５號","OBJECTID":439083},"geometry":{"x":173751.70000000019,"y":2548020.9199999999}},{"attributes":{"ID":439109,"DIS_CODE":0,"TOWNNAME":"將軍區","LI":"廣山里","LIN":"8鄰","STREET":" ","SECT":" ","MAREA":"廣山","LANE":" ","ALLEY":" ","HOUSE_NO":"７５號","E_COORD97":159552.49635199999,"N_COORD97":2568873.6047100001,"ADDRESS":"廣山７５號","OBJECTID":439084},"geometry":{"x":159552.49635200016,"y":2568873.6047070008}},{"attributes":{"ID":439110,"DIS_CODE":0,"TOWNNAME":"永康區","LI":"東橋里","LIN":"26鄰","STREET":"中正路","SECT":" ","MAREA":" ","LANE":"２７９巷","ALLEY":" ","HOUSE_NO":"１４號","E_COORD97":172589.01999999999,"N_COORD97":2548005.25,"ADDRESS":"中正路２７９巷１４號","OBJECTID":439085},"geometry":{"x":172589.01999999955,"y":2548005.25}},{"attributes":{"ID":439111,"DIS_CODE":0,"TOWNNAME":"永康區","LI":"埔園里","LIN":"25鄰","STREET":"自強路","SECT":" ","MAREA":" ","LANE":"４１７巷","ALLEY":" ","HOUSE_NO":"３６號","E_COORD97":173749.10000000001,"N_COORD97":2548074.79,"ADDRESS":"自強路４１７巷３６號","OBJECTID":439086},"geometry":{"x":173749.10000000056,"y":2548074.7899999991}},{"attributes":{"ID":439112,"DIS_CODE":0,"TOWNNAME":"永康區","LI":"烏竹里","LIN":"17鄰","STREET":"龍橋街","SECT":" ","MAREA":" ","LANE":"２５３巷","ALLEY":" ","HOUSE_NO":"３５號","E_COORD97":174527.20000000001,"N_COORD97":2548885.6299999999,"ADDRESS":"龍橋街２５３巷３５號","OBJECTID":439087},"geometry":{"x":174527.20000000112,"y":2548885.6300000008}},{"attributes":{"ID":439113,"DIS_CODE":0,"TOWNNAME":"永康區","LI":"神洲里","LIN":"4鄰","STREET":"忠孝路","SECT":" ","MAREA":" ","LANE":"３６巷","ALLEY":" ","HOUSE_NO":"１１號","E_COORD97":172129.31,"N_COORD97":2544679.2599999998,"ADDRESS":"忠孝路３６巷１１號","OBJECTID":439088},"geometry":{"x":172129.30999999959,"y":2544679.2599999998}},{"attributes":{"ID":439114,"DIS_CODE":0,"TOWNNAME":"永康區","LI":"埔園里","LIN":"4鄰","STREET":"中山路","SECT":" ","MAREA":" ","LANE":"１５８巷","ALLEY":" ","HOUSE_NO":"５０號之５","E_COORD97":173932.54999999999,"N_COORD97":2547849.04,"ADDRESS":"中山路１５８巷５０號之５","OBJECTID":439089},"geometry":{"x":173932.55000000075,"y":2547849.040000001}},{"attributes":{"ID":439115,"DIS_CODE":0,"TOWNNAME":"永康區","LI":"神洲里","LIN":"4鄰","STREET":"忠孝路","SECT":" ","MAREA":" ","LANE":"３８巷","ALLEY":" ","HOUSE_NO":"１０號","E_COORD97":172121.98000000001,"N_COORD97":2544697,"ADDRESS":"忠孝路３８巷１０號","OBJECTID":439090},"geometry":{"x":172121.98000000138,"y":2544697.0000000019}},{"attributes":{"ID":439116,"DIS_CODE":0,"TOWNNAME":"永康區","LI":"神洲里","LIN":"4鄰","STREET":"忠孝路","SECT":" ","MAREA":" ","LANE":"３６巷","ALLEY":" ","HOUSE_NO":"３號","E_COORD97":172102.94,"N_COORD97":2544678.2599999998,"ADDRESS":"忠孝路３６巷３號","OBJECTID":439091},"geometry":{"x":172102.94000000227,"y":2544678.2600000016}},{"attributes":{"ID":439117,"DIS_CODE":0,"TOWNNAME":"永康區","LI":"埔園里","LIN":"4鄰","STREET":"自強路","SECT":" ","MAREA":" ","LANE":"４６８巷","ALLEY":" ","HOUSE_NO":"２７號","E_COORD97":173947.35000000001,"N_COORD97":2547837.4900000002,"ADDRESS":"自強路４６８巷２７號","OBJECTID":439092},"geometry":{"x":173947.35000000056,"y":2547837.4900000002}},{"attributes":{"ID":439118,"DIS_CODE":0,"TOWNNAME":"永康區","LI":"埔園里","LIN":"18鄰","STREET":"龍埔街","SECT":" ","MAREA":" ","LANE":"４６７巷","ALLEY":" ","HOUSE_NO":"１２號","E_COORD97":173540.57000000001,"N_COORD97":2548299.5,"ADDRESS":"龍埔街４６７巷１２號","OBJECTID":439093},"geometry":{"x":173540.5700000003,"y":2548299.5000000037}},{"attributes":{"ID":439119,"DIS_CODE":0,"TOWNNAME":"永康區","LI":"東橋里","LIN":"20鄰","STREET":"自強路","SECT":" ","MAREA":" ","LANE":"２２巷","ALLEY":" ","HOUSE_NO":"５號","E_COORD97":172759.23000000001,"N_COORD97":2547134.5,"ADDRESS":"自強路２２巷５號","OBJECTID":439094},"geometry":{"x":172759.23000000138,"y":2547134.5000000019}},{"attributes":{"ID":439120,"DIS_CODE":0,"TOWNNAME":"永康區","LI":"埔園里","LIN":"25鄰","STREET":"自強路","SECT":" ","MAREA":" ","LANE":"４１７巷","ALLEY":" ","HOUSE_NO":"２８號","E_COORD97":173752.60000000001,"N_COORD97":2548057.0299999998,"ADDRESS":"自強路４１７巷２８號","OBJECTID":439095},"geometry":{"x":173752.60000000056,"y":2548057.0299999993}},{"attributes":{"ID":439121,"DIS_CODE":0,"TOWNNAME":"永康區","LI":"烏竹里","LIN":"18鄰","STREET":"自強路","SECT":" ","MAREA":" ","LANE":"７７３巷","ALLEY":" ","HOUSE_NO":"２２之６號","E_COORD97":174463.14999999999,"N_COORD97":2548663.2200000002,"ADDRESS":"自強路７７３巷２２之６號","OBJECTID":439096},"geometry":{"x":174463.1500000013,"y":2548663.2200000007}},{"attributes":{"ID":439122,"DIS_CODE":0,"TOWNNAME":"永康區","LI":"東橋里","LIN":"26鄰","STREET":"中正路","SECT":" ","MAREA":" ","LANE":"２７９巷","ALLEY":" ","HOUSE_NO":"１號","E_COORD97":172738.67999999999,"N_COORD97":2548101.75,"ADDRESS":"中正路２７９巷１號","OBJECTID":439097},"geometry":{"x":172738.68000000063,"y":2548101.7500000019}},{"attributes":{"ID":439123,"DIS_CODE":0,"TOWNNAME":"永康區","LI":"埔園里","LIN":"26鄰","STREET":"自強路","SECT":" ","MAREA":" ","LANE":"４１７巷","ALLEY":" ","HOUSE_NO":"４７號","E_COORD97":173721.92000000001,"N_COORD97":2548094.25,"ADDRESS":"自強路４１７巷４７號","OBJECTID":439098},"geometry":{"x":173721.92000000086,"y":2548094.2499999981}},{"attributes":{"ID":439124,"DIS_CODE":0,"TOWNNAME":"永康區","LI":"埔園里","LIN":"32鄰","STREET":"龍埔街","SECT":" ","MAREA":" ","LANE":"２８３巷","ALLEY":" ","HOUSE_NO":"１號","E_COORD97":174046.19,"N_COORD97":2548290.25,"ADDRESS":"龍埔街２８３巷１號","OBJECTID":439099},"geometry":{"x":174046.19000000134,"y":2548290.25}},{"attributes":{"ID":439125,"DIS_CODE":0,"TOWNNAME":"永康區","LI":"南灣里","LIN":"8鄰","STREET":"南興路","SECT":" ","MAREA":" ","LANE":"４８巷","ALLEY":" ","HOUSE_NO":"１０號之１","E_COORD97":174320.35000000001,"N_COORD97":2544112.8599999999,"ADDRESS":"南興路４８巷１０號之１","OBJECTID":439100},"geometry":{"x":174320.35000000056,"y":2544112.8600000031}},{"attributes":{"ID":439126,"DIS_CODE":0,"TOWNNAME":"永康區","LI":"神洲里","LIN":"4鄰","STREET":"忠孝路","SECT":" ","MAREA":" ","LANE":"３６巷","ALLEY":" ","HOUSE_NO":"１７號","E_COORD97":172157.64000000001,"N_COORD97":2544680.8100000001,"ADDRESS":"忠孝路３６巷１７號","OBJECTID":439101},"geometry":{"x":172157.63999999966,"y":2544680.8100000024}},{"attributes":{"ID":439127,"DIS_CODE":0,"TOWNNAME":"永康區","LI":"崑山里","LIN":"20鄰","STREET":"崑山街","SECT":" ","MAREA":" ","LANE":"２１巷","ALLEY":" ","HOUSE_NO":"３１號","E_COORD97":173835.23000000001,"N_COORD97":2544573.6699999999,"ADDRESS":"崑山街２１巷３１號","OBJECTID":439102},"geometry":{"x":173835.23000000231,"y":2544573.6700000018}},{"attributes":{"ID":439128,"DIS_CODE":0,"TOWNNAME":"永康區","LI":"東橋里","LIN":"26鄰","STREET":"中正路","SECT":" ","MAREA":" ","LANE":"２７９巷","ALLEY":" ","HOUSE_NO":"７號","E_COORD97":172655.14000000001,"N_COORD97":2548047.4900000002,"ADDRESS":"中正路２７９巷７號","OBJECTID":439103},"geometry":{"x":172655.14000000153,"y":2548047.4900000002}},{"attributes":{"ID":439129,"DIS_CODE":0,"TOWNNAME":"永康區","LI":"東橋里","LIN":"26鄰","STREET":"中正路","SECT":" ","MAREA":" ","LANE":"２７９巷","ALLEY":" ","HOUSE_NO":"３號","E_COORD97":172693.42999999999,"N_COORD97":2548070.5,"ADDRESS":"中正路２７９巷３號","OBJECTID":439104},"geometry":{"x":172693.4299999997,"y":2548070.5000000019}},{"attributes":{"ID":439130,"DIS_CODE":0,"TOWNNAME":"永康區","LI":"崑山里","LIN":"20鄰","STREET":"崑山街","SECT":" ","MAREA":" ","LANE":"２１巷","ALLEY":" ","HOUSE_NO":"２８號","E_COORD97":173851.04999999999,"N_COORD97":2544588.1299999999,"ADDRESS":"崑山街２１巷２８號","OBJECTID":439105},"geometry":{"x":173851.05000000168,"y":2544588.129999999}},{"attributes":{"ID":439131,"DIS_CODE":0,"TOWNNAME":"永康區","LI":"崑山里","LIN":"20鄰","STREET":"崑山街","SECT":" ","MAREA":" ","LANE":"２１巷","ALLEY":" ","HOUSE_NO":"２４號","E_COORD97":173858.79000000001,"N_COORD97":2544585.6299999999,"ADDRESS":"崑山街２１巷２４號","OBJECTID":439106},"geometry":{"x":173858.79000000097,"y":2544585.6300000008}},{"attributes":{"ID":439132,"DIS_CODE":0,"TOWNNAME":"永康區","LI":"神洲里","LIN":"4鄰","STREET":"忠孝路","SECT":" ","MAREA":" ","LANE":"３８巷","ALLEY":" ","HOUSE_NO":"１２號","E_COORD97":172128.72,"N_COORD97":2544696.5,"ADDRESS":"忠孝路３８巷１２號","OBJECTID":439107},"geometry":{"x":172128.71999999974,"y":2544696.5000000019}},{"attributes":{"ID":439133,"DIS_CODE":0,"TOWNNAME":"永康區","LI":"神洲里","LIN":"5鄰","STREET":"忠孝路","SECT":" ","MAREA":" ","LANE":"３８巷","ALLEY":" ","HOUSE_NO":"１５號","E_COORD97":172151.20000000001,"N_COORD97":2544709.3700000001,"ADDRESS":"忠孝路３８巷１５號","OBJECTID":439108},"geometry":{"x":172151.20000000019,"y":2544709.3700000029}},{"attributes":{"ID":439134,"DIS_CODE":0,"TOWNNAME":"永康區","LI":"崑山里","LIN":"20鄰","STREET":"崑山街","SECT":" ","MAREA":" ","LANE":"２１巷","ALLEY":" ","HOUSE_NO":"３４號","E_COORD97":173839.89999999999,"N_COORD97":2544591.9100000001,"ADDRESS":"崑山街２１巷３４號","OBJECTID":439109},"geometry":{"x":173839.90000000037,"y":2544591.910000002}},{"attributes":{"ID":439135,"DIS_CODE":0,"TOWNNAME":"永康區","LI":"埔園里","LIN":"32鄰","STREET":"龍埔街","SECT":" ","MAREA":" ","LANE":"２８３巷","ALLEY":" ","HOUSE_NO":"６號","E_COORD97":174029.56,"N_COORD97":2548288,"ADDRESS":"龍埔街２８３巷６號","OBJECTID":439110},"geometry":{"x":174029.55999999959,"y":2548288}},{"attributes":{"ID":439136,"DIS_CODE":0,"TOWNNAME":"永康區","LI":"埔園里","LIN":"26鄰","STREET":"自強路","SECT":" ","MAREA":" ","LANE":"４１７巷","ALLEY":" ","HOUSE_NO":"３９號","E_COORD97":173734.19,"N_COORD97":2548068.9700000002,"ADDRESS":"自強路４１７巷３９號","OBJECTID":439111},"geometry":{"x":173734.19000000134,"y":2548068.9700000007}},{"attributes":{"ID":439137,"DIS_CODE":0,"TOWNNAME":"永康區","LI":"埔園里","LIN":"39鄰","STREET":"聖龍街","SECT":" ","MAREA":" ","LANE":"１７９巷","ALLEY":" ","HOUSE_NO":"１０號","E_COORD97":174329.72,"N_COORD97":2547874.6899999999,"ADDRESS":"聖龍街１７９巷１０號","OBJECTID":439112},"geometry":{"x":174329.72000000067,"y":2547874.6900000013}},{"attributes":{"ID":439138,"DIS_CODE":0,"TOWNNAME":"永康區","LI":"神洲里","LIN":"4鄰","STREET":"忠孝路","SECT":" ","MAREA":" ","LANE":"３６巷","ALLEY":" ","HOUSE_NO":"９號","E_COORD97":172121.84,"N_COORD97":2544678.5099999998,"ADDRESS":"忠孝路３６巷９號","OBJECTID":439113},"geometry":{"x":172121.84000000078,"y":2544678.5100000035}},{"attributes":{"ID":439139,"DIS_CODE":0,"TOWNNAME":"永康區","LI":"埔園里","LIN":"4鄰","STREET":"中山路","SECT":" ","MAREA":" ","LANE":"１５８巷","ALLEY":" ","HOUSE_NO":"５０號之６","E_COORD97":173932.5,"N_COORD97":2547849.04,"ADDRESS":"中山路１５８巷５０號之６","OBJECTID":439114},"geometry":{"x":173932.5,"y":2547849.040000001}},{"attributes":{"ID":439140,"DIS_CODE":0,"TOWNNAME":"永康區","LI":"神洲里","LIN":"4鄰","STREET":"忠孝路","SECT":" ","MAREA":" ","LANE":"３８巷","ALLEY":" ","HOUSE_NO":"２號","E_COORD97":172097.26000000001,"N_COORD97":2544696.5,"ADDRESS":"忠孝路３８巷２號","OBJECTID":439115},"geometry":{"x":172097.26000000071,"y":2544696.5000000019}},{"attributes":{"ID":439141,"DIS_CODE":0,"TOWNNAME":"永康區","LI":"崑山里","LIN":"20鄰","STREET":"崑山街","SECT":" ","MAREA":" ","LANE":"２１巷","ALLEY":" ","HOUSE_NO":"２２號","E_COORD97":173863.76999999999,"N_COORD97":2544583.8799999999,"ADDRESS":"崑山街２１巷２２號","OBJECTID":439116},"geometry":{"x":173863.76999999955,"y":2544583.8800000008}},{"attributes":{"ID":439142,"DIS_CODE":0,"TOWNNAME":"永康區","LI":"勝利里","LIN":"25鄰","STREET":"中華路","SECT":" ","MAREA":" ","LANE":"１５５巷","ALLEY":" ","HOUSE_NO":"４２之１號","E_COORD97":171479.20000000001,"N_COORD97":2544807.6000000001,"ADDRESS":"中華路１５５巷４２之１號","OBJECTID":439117},"geometry":{"x":171479.20000000112,"y":2544807.6000000015}},{"attributes":{"ID":439143,"DIS_CODE":0,"TOWNNAME":"永康區","LI":"勝利里","LIN":"25鄰","STREET":"中華路","SECT":" ","MAREA":" ","LANE":"１５５巷","ALLEY":" ","HOUSE_NO":"７７號","E_COORD97":171440.51000000001,"N_COORD97":2544734.4900000002,"ADDRESS":"中華路１５５巷７７號","OBJECTID":439118},"geometry":{"x":171440.50999999885,"y":2544734.4900000021}},{"attributes":{"ID":439144,"DIS_CODE":0,"TOWNNAME":"永康區","LI":"埔園里","LIN":"1鄰","STREET":"埔聖街","SECT":" ","MAREA":" ","LANE":"１３巷","ALLEY":" ","HOUSE_NO":"１號","E_COORD97":173870.32999999999,"N_COORD97":2547590,"ADDRESS":"埔聖街１３巷１號","OBJECTID":439119},"geometry":{"x":173870.33000000101,"y":2547590}},{"attributes":{"ID":439145,"DIS_CODE":0,"TOWNNAME":"永康區","LI":"東灣里","LIN":"26鄰","STREET":"大灣一街","SECT":" ","MAREA":" ","LANE":"２４２巷","ALLEY":" ","HOUSE_NO":"６號","E_COORD97":174944.20000000001,"N_COORD97":2544594.9900000002,"ADDRESS":"大灣一街２４２巷６號","OBJECTID":439120},"geometry":{"x":174944.20000000112,"y":2544594.9900000021}},{"attributes":{"ID":439146,"DIS_CODE":0,"TOWNNAME":"永康區","LI":"埔園里","LIN":"4鄰","STREET":"中山路","SECT":" ","MAREA":" ","LANE":"１５８巷","ALLEY":" ","HOUSE_NO":"５０號之１７","E_COORD97":173933.73000000001,"N_COORD97":2547849.04,"ADDRESS":"中山路１５８巷５０號之１７","OBJECTID":439121},"geometry":{"x":173933.73000000138,"y":2547849.040000001}},{"attributes":{"ID":439147,"DIS_CODE":0,"TOWNNAME":"永康區","LI":"烏竹里","LIN":"4鄰","STREET":"烏竹街","SECT":" ","MAREA":" ","LANE":"６２巷","ALLEY":" ","HOUSE_NO":"３６號","E_COORD97":174562.45999999999,"N_COORD97":2549315.4399999999,"ADDRESS":"烏竹街６２巷３６號","OBJECTID":439122},"geometry":{"x":174562.46000000089,"y":2549315.4399999995}},{"attributes":{"ID":439148,"DIS_CODE":0,"TOWNNAME":"永康區","LI":"埔園里","LIN":"4鄰","STREET":"聖龍街","SECT":" ","MAREA":" ","LANE":"７０巷","ALLEY":" ","HOUSE_NO":"１０號","E_COORD97":173972.14999999999,"N_COORD97":2547773.5,"ADDRESS":"聖龍街７０巷１０號","OBJECTID":439123},"geometry":{"x":173972.15000000037,"y":2547773.5}},{"attributes":{"ID":439149,"DIS_CODE":0,"TOWNNAME":"永康區","LI":"埔園里","LIN":"39鄰","STREET":"聖龍街","SECT":" ","MAREA":" ","LANE":"１７９巷","ALLEY":" ","HOUSE_NO":"２８號","E_COORD97":174323.29000000001,"N_COORD97":2547886.5,"ADDRESS":"聖龍街１７９巷２８號","OBJECTID":439124},"geometry":{"x":174323.29000000097,"y":2547886.5000000019}},{"attributes":{"ID":439150,"DIS_CODE":0,"TOWNNAME":"永康區","LI":"埔園里","LIN":"4鄰","STREET":"埔聖街","SECT":" ","MAREA":" ","LANE":"８１巷","ALLEY":" ","HOUSE_NO":"７３之２號","E_COORD97":173993.51000000001,"N_COORD97":2547785.1400000001,"ADDRESS":"埔聖街８１巷７３之２號","OBJECTID":439125},"geometry":{"x":173993.50999999885,"y":2547785.1400000025}},{"attributes":{"ID":439151,"DIS_CODE":0,"TOWNNAME":"永康區","LI":"東橋里","LIN":"20鄰","STREET":"中山南路","SECT":" ","MAREA":" ","LANE":"３６５巷","ALLEY":" ","HOUSE_NO":"３號之１","E_COORD97":172770.79999999999,"N_COORD97":2546935.7200000002,"ADDRESS":"中山南路３６５巷３號之１","OBJECTID":439126},"geometry":{"x":172770.79999999981,"y":2546935.7200000044}},{"attributes":{"ID":439152,"DIS_CODE":0,"TOWNNAME":"永康區","LI":"埔園里","LIN":"39鄰","STREET":"聖龍街","SECT":" ","MAREA":" ","LANE":"１７９巷","ALLEY":" ","HOUSE_NO":"４９號","E_COORD97":174338.92000000001,"N_COORD97":2547937.6200000001,"ADDRESS":"聖龍街１７９巷４９號","OBJECTID":439127},"geometry":{"x":174338.92000000086,"y":2547937.6200000029}},{"attributes":{"ID":439153,"DIS_CODE":0,"TOWNNAME":"永康區","LI":"埔園里","LIN":"32鄰","STREET":"龍埔街","SECT":" ","MAREA":" ","LANE":"２８３巷","ALLEY":" ","HOUSE_NO":"１６號","E_COORD97":174028.85000000001,"N_COORD97":2548271.75,"ADDRESS":"龍埔街２８３巷１６號","OBJECTID":439128},"geometry":{"x":174028.85000000056,"y":2548271.7500000019}},{"attributes":{"ID":439154,"DIS_CODE":0,"TOWNNAME":"永康區","LI":"埔園里","LIN":"13鄰","STREET":"中山路","SECT":" ","MAREA":" ","LANE":"２０７巷","ALLEY":" ","HOUSE_NO":"６號","E_COORD97":173629.72,"N_COORD97":2548114.9900000002,"ADDRESS":"中山路２０７巷６號","OBJECTID":439129},"geometry":{"x":173629.72000000067,"y":2548114.9900000021}},{"attributes":{"ID":439155,"DIS_CODE":0,"TOWNNAME":"永康區","LI":"埔園里","LIN":"34鄰","STREET":"八德街","SECT":" ","MAREA":" ","LANE":"８８巷","ALLEY":" ","HOUSE_NO":"２號","E_COORD97":174189.92999999999,"N_COORD97":2548534.5099999998,"ADDRESS":"八德街８８巷２號","OBJECTID":439130},"geometry":{"x":174189.9299999997,"y":2548534.5100000016}},{"attributes":{"ID":439156,"DIS_CODE":0,"TOWNNAME":"永康區","LI":"埔園里","LIN":"26鄰","STREET":"自強路","SECT":" ","MAREA":" ","LANE":"４１７巷","ALLEY":" ","HOUSE_NO":"３１號","E_COORD97":173740.14999999999,"N_COORD97":2548052.96,"ADDRESS":"自強路４１７巷３１號","OBJECTID":439131},"geometry":{"x":173740.15000000037,"y":2548052.959999999}},{"attributes":{"ID":439157,"DIS_CODE":0,"TOWNNAME":"永康區","LI":"埔園里","LIN":"39鄰","STREET":"聖龍街","SECT":" ","MAREA":" ","LANE":"１７９巷","ALLEY":" ","HOUSE_NO":"１８號","E_COORD97":174340.94,"N_COORD97":2547884,"ADDRESS":"聖龍街１７９巷１８號","OBJECTID":439132},"geometry":{"x":174340.94000000134,"y":2547884.0000000019}},{"attributes":{"ID":439158,"DIS_CODE":0,"TOWNNAME":"永康區","LI":"埔園里","LIN":"4鄰","STREET":"中山路","SECT":" ","MAREA":" ","LANE":"１５８巷","ALLEY":" ","HOUSE_NO":"５０號之１９","E_COORD97":173933.73000000001,"N_COORD97":2547849.04,"ADDRESS":"中山路１５８巷５０號之１９","OBJECTID":439133},"geometry":{"x":173933.73000000138,"y":2547849.040000001}},{"attributes":{"ID":439159,"DIS_CODE":0,"TOWNNAME":"永康區","LI":"東橋里","LIN":"5鄰","STREET":"中山南路","SECT":" ","MAREA":" ","LANE":"１９５巷","ALLEY":" ","HOUSE_NO":"３１號之２","E_COORD97":171464.19,"N_COORD97":2546363.7999999998,"ADDRESS":"中山南路１９５巷３１號之２","OBJECTID":439134},"geometry":{"x":171464.19000000134,"y":2546363.8000000026}},{"attributes":{"ID":439160,"DIS_CODE":0,"TOWNNAME":"永康區","LI":"南灣里","LIN":"20鄰","STREET":"大灣路","SECT":" ","MAREA":" ","LANE":"７６４巷","ALLEY":" ","HOUSE_NO":"９４號","E_COORD97":174261.01999999999,"N_COORD97":2544700.3700000001,"ADDRESS":"大灣路７６４巷９４號","OBJECTID":439135},"geometry":{"x":174261.01999999862,"y":2544700.370000001}},{"attributes":{"ID":439161,"DIS_CODE":0,"TOWNNAME":"永康區","LI":"埔園里","LIN":"39鄰","STREET":"聖龍街","SECT":" ","MAREA":" ","LANE":"１７９巷","ALLEY":" ","HOUSE_NO":"３０號","E_COORD97":174318.98999999999,"N_COORD97":2547887.75,"ADDRESS":"聖龍街１７９巷３０號","OBJECTID":439136},"geometry":{"x":174318.99000000022,"y":2547887.7500000037}},{"attributes":{"ID":439162,"DIS_CODE":0,"TOWNNAME":"永康區","LI":"埔園里","LIN":"39鄰","STREET":"聖龍街","SECT":" ","MAREA":" ","LANE":"１７９巷","ALLEY":" ","HOUSE_NO":"３１號","E_COORD97":174301.06,"N_COORD97":2547932.3700000001,"ADDRESS":"聖龍街１７９巷３１號","OBJECTID":439137},"geometry":{"x":174301.05999999959,"y":2547932.3700000029}},{"attributes":{"ID":439163,"DIS_CODE":0,"TOWNNAME":"永康區","LI":"南灣里","LIN":"13鄰","STREET":"大灣路","SECT":" ","MAREA":" ","LANE":"５５４巷","ALLEY":" ","HOUSE_NO":"３號","E_COORD97":174628.94,"N_COORD97":2544770.8100000001,"ADDRESS":"大灣路５５４巷３號","OBJECTID":439138},"geometry":{"x":174628.94000000134,"y":2544770.8100000005}},{"attributes":{"ID":439164,"DIS_CODE":0,"TOWNNAME":"永康區","LI":"南灣里","LIN":"4鄰","STREET":"大灣路","SECT":" ","MAREA":" ","LANE":"５３７巷","ALLEY":" ","HOUSE_NO":"１１號","E_COORD97":174477.44,"N_COORD97":2544542.0699999998,"ADDRESS":"大灣路５３７巷１１號","OBJECTID":439139},"geometry":{"x":174477.44000000041,"y":2544542.0700000003}},{"attributes":{"ID":439165,"DIS_CODE":0,"TOWNNAME":"永康區","LI":"埔園里","LIN":"5鄰","STREET":"中山路","SECT":" ","MAREA":" ","LANE":"１５８巷","ALLEY":" ","HOUSE_NO":"３０號","E_COORD97":173873.01000000001,"N_COORD97":2547837.4900000002,"ADDRESS":"中山路１５８巷３０號","OBJECTID":439140},"geometry":{"x":173873.00999999978,"y":2547837.4900000002}},{"attributes":{"ID":439166,"DIS_CODE":0,"TOWNNAME":"永康區","LI":"埔園里","LIN":"39鄰","STREET":"聖龍街","SECT":" ","MAREA":" ","LANE":"１７９巷","ALLEY":" ","HOUSE_NO":"２５號","E_COORD97":174314.16,"N_COORD97":2547930.3700000001,"ADDRESS":"聖龍街１７９巷２５號","OBJECTID":439141},"geometry":{"x":174314.16000000108,"y":2547930.370000001}},{"attributes":{"ID":439167,"DIS_CODE":0,"TOWNNAME":"永康區","LI":"埔園里","LIN":"25鄰","STREET":"自強路","SECT":" ","MAREA":" ","LANE":"４１７巷","ALLEY":" ","HOUSE_NO":"２２號","E_COORD97":173757.39999999999,"N_COORD97":2548045.0299999998,"ADDRESS":"自強路４１７巷２２號","OBJECTID":439142},"geometry":{"x":173757.40000000037,"y":2548045.0300000012}},{"attributes":{"ID":439168,"DIS_CODE":0,"TOWNNAME":"永康區","LI":"南灣里","LIN":"20鄰","STREET":"立興街","SECT":" ","MAREA":" ","LANE":"１７８巷","ALLEY":" ","HOUSE_NO":"７號","E_COORD97":174255.95999999999,"N_COORD97":2544594.3500000001,"ADDRESS":"立興街１７８巷７號","OBJECTID":439143},"geometry":{"x":174255.96000000089,"y":2544594.3500000034}},{"attributes":{"ID":439169,"DIS_CODE":0,"TOWNNAME":"永康區","LI":"埔園里","LIN":"39鄰","STREET":"聖龍街","SECT":" ","MAREA":" ","LANE":"１７９巷","ALLEY":" ","HOUSE_NO":"５１號","E_COORD97":174343.41,"N_COORD97":2547937.3700000001,"ADDRESS":"聖龍街１７９巷５１號","OBJECTID":439144},"geometry":{"x":174343.41000000015,"y":2547937.370000001}},{"attributes":{"ID":439170,"DIS_CODE":0,"TOWNNAME":"永康區","LI":"東灣里","LIN":"20鄰","STREET":"大灣三街","SECT":" ","MAREA":" ","LANE":"７３巷","ALLEY":" ","HOUSE_NO":"４９號","E_COORD97":174873.01000000001,"N_COORD97":2544863.75,"ADDRESS":"大灣三街７３巷４９號","OBJECTID":439145},"geometry":{"x":174873.00999999978,"y":2544863.7500000019}},{"attributes":{"ID":439171,"DIS_CODE":0,"TOWNNAME":"永康區","LI":"南灣里","LIN":"4鄰","STREET":"大灣路","SECT":" ","MAREA":" ","LANE":"５３７巷","ALLEY":" ","HOUSE_NO":"３號","E_COORD97":174470.82999999999,"N_COORD97":2544559.8199999998,"ADDRESS":"大灣路５３７巷３號","OBJECTID":439146},"geometry":{"x":174470.83000000007,"y":2544559.8200000003}},{"attributes":{"ID":439172,"DIS_CODE":0,"TOWNNAME":"永康區","LI":"東灣里","LIN":"4鄰","STREET":"大灣路","SECT":" ","MAREA":" ","LANE":"４３６巷","ALLEY":" ","HOUSE_NO":"５２號","E_COORD97":174650.51000000001,"N_COORD97":2544968.4700000002,"ADDRESS":"大灣路４３６巷５２號","OBJECTID":439147},"geometry":{"x":174650.50999999978,"y":2544968.4700000025}},{"attributes":{"ID":439173,"DIS_CODE":0,"TOWNNAME":"永康區","LI":"埔園里","LIN":"5鄰","STREET":"中山路","SECT":" ","MAREA":" ","LANE":"１５８巷","ALLEY":" ","HOUSE_NO":"２０號","E_COORD97":173828.13,"N_COORD97":2547819.2400000002,"ADDRESS":"中山路１５８巷２０號","OBJECTID":439148},"geometry":{"x":173828.12999999989,"y":2547819.2400000002}},{"attributes":{"ID":439174,"DIS_CODE":0,"TOWNNAME":"永康區","LI":"東灣里","LIN":"26鄰","STREET":"大灣一街","SECT":" ","MAREA":" ","LANE":"２２０巷","ALLEY":" ","HOUSE_NO":"１１號","E_COORD97":174914.26000000001,"N_COORD97":2544566,"ADDRESS":"大灣一街２２０巷１１號","OBJECTID":439149},"geometry":{"x":174914.26000000071,"y":2544566}},{"attributes":{"ID":439175,"DIS_CODE":0,"TOWNNAME":"將軍區","LI":"廣山里","LIN":"8鄰","STREET":" ","SECT":" ","MAREA":"廣山","LANE":" ","ALLEY":" ","HOUSE_NO":"７７號","E_COORD97":159485.330396,"N_COORD97":2568853.49639,"ADDRESS":"廣山７７號","OBJECTID":439150},"geometry":{"x":159485.3303960003,"y":2568853.4963850025}},{"attributes":{"ID":439176,"DIS_CODE":0,"TOWNNAME":"永康區","LI":"東灣里","LIN":"4鄰","STREET":"大灣路","SECT":" ","MAREA":" ","LANE":"４３６巷","ALLEY":" ","HOUSE_NO":"８８號","E_COORD97":174585.03,"N_COORD97":2545033.2400000002,"ADDRESS":"大灣路４３６巷８８號","OBJECTID":439151},"geometry":{"x":174585.03000000026,"y":2545033.2400000039}},{"attributes":{"ID":439177,"DIS_CODE":0,"TOWNNAME":"永康區","LI":"埔園里","LIN":"39鄰","STREET":"聖龍街","SECT":" ","MAREA":" ","LANE":"１７９巷","ALLEY":" ","HOUSE_NO":"１７號","E_COORD97":174312.19,"N_COORD97":2547912.4399999999,"ADDRESS":"聖龍街１７９巷１７號","OBJECTID":439152},"geometry":{"x":174312.19000000134,"y":2547912.4399999995}},{"attributes":{"ID":439178,"DIS_CODE":0,"TOWNNAME":"永康區","LI":"埔園里","LIN":"26鄰","STREET":"自強路","SECT":" ","MAREA":" ","LANE":"４１７巷","ALLEY":" ","HOUSE_NO":"９號","E_COORD97":173755.89999999999,"N_COORD97":2548009.4199999999,"ADDRESS":"自強路４１７巷９號","OBJECTID":439153},"geometry":{"x":173755.90000000224,"y":2548009.4200000018}},{"attributes":{"ID":439179,"DIS_CODE":0,"TOWNNAME":"永康區","LI":"埔園里","LIN":"39鄰","STREET":"聖龍街","SECT":" ","MAREA":" ","LANE":"１７９巷","ALLEY":" ","HOUSE_NO":"２９號","E_COORD97":174305.35999999999,"N_COORD97":2547931.3700000001,"ADDRESS":"聖龍街１７９巷２９號","OBJECTID":439154},"geometry":{"x":174305.3600000022,"y":2547931.370000001}},{"attributes":{"ID":439180,"DIS_CODE":0,"TOWNNAME":"永康區","LI":"埔園里","LIN":"39鄰","STREET":"聖龍街","SECT":" ","MAREA":" ","LANE":"１７９巷","ALLEY":" ","HOUSE_NO":"１９號","E_COORD97":174308,"N_COORD97":2547912.9399999999,"ADDRESS":"聖龍街１７９巷１９號","OBJECTID":439155},"geometry":{"x":174308.00000000093,"y":2547912.9400000032}},{"attributes":{"ID":439181,"DIS_CODE":0,"TOWNNAME":"永康區","LI":"埔園里","LIN":"4鄰","STREET":"埔聖街","SECT":" ","MAREA":" ","LANE":"８１巷","ALLEY":" ","HOUSE_NO":"６９號","E_COORD97":174000.20999999999,"N_COORD97":2547792.73,"ADDRESS":"埔聖街８１巷６９號","OBJECTID":439156},"geometry":{"x":174000.20999999996,"y":2547792.7300000004}},{"attributes":{"ID":439182,"DIS_CODE":0,"TOWNNAME":"永康區","LI":"埔園里","LIN":"25鄰","STREET":"自強路","SECT":" ","MAREA":" ","LANE":"４１７巷","ALLEY":" ","HOUSE_NO":"２６號","E_COORD97":173754.60000000001,"N_COORD97":2548053.2799999998,"ADDRESS":"自強路４１７巷２６號","OBJECTID":439157},"geometry":{"x":173754.60000000056,"y":2548053.2800000012}},{"attributes":{"ID":439183,"DIS_CODE":0,"TOWNNAME":"永康區","LI":"埔園里","LIN":"25鄰","STREET":"自強路","SECT":" ","MAREA":" ","LANE":"４１７巷","ALLEY":" ","HOUSE_NO":"２０號","E_COORD97":173759.20999999999,"N_COORD97":2548040.0299999998,"ADDRESS":"自強路４１７巷２０號","OBJECTID":439158},"geometry":{"x":173759.21000000089,"y":2548040.0299999993}},{"attributes":{"ID":439184,"DIS_CODE":0,"TOWNNAME":"安南區","LI":"淵東里","LIN":"3鄰","STREET":"本原街","SECT":"三段","MAREA":" ","LANE":"２３４巷","ALLEY":" ","HOUSE_NO":"３８號","E_COORD97":165331.35999999999,"N_COORD97":2550382.6600000001,"ADDRESS":"本原街三段２３４巷３８號","OBJECTID":439159},"geometry":{"x":165331.36000000127,"y":2550382.6600000001}},{"attributes":{"ID":439185,"DIS_CODE":0,"TOWNNAME":"安南區","LI":"淵東里","LIN":"3鄰","STREET":"本原街","SECT":"三段","MAREA":" ","LANE":"２３４巷","ALLEY":" ","HOUSE_NO":"４０號","E_COORD97":165326.34,"N_COORD97":2550389.7200000002,"ADDRESS":"本原街三段２３４巷４０號","OBJECTID":439160},"geometry":{"x":165326.34000000078,"y":2550389.7200000007}},{"attributes":{"ID":439186,"DIS_CODE":0,"TOWNNAME":"安南區","LI":"淵東里","LIN":"3鄰","STREET":"本原街","SECT":"三段","MAREA":" ","LANE":"２３４巷","ALLEY":" ","HOUSE_NO":"７６號","E_COORD97":165303.60000000001,"N_COORD97":2550451.8900000001,"ADDRESS":"本原街三段２３４巷７６號","OBJECTID":439161},"geometry":{"x":165303.60000000056,"y":2550451.8900000025}},{"attributes":{"ID":439187,"DIS_CODE":0,"TOWNNAME":"安南區","LI":"淵東里","LIN":"3鄰","STREET":"本原街","SECT":"三段","MAREA":" ","LANE":"２３４巷","ALLEY":" ","HOUSE_NO":"８０號","E_COORD97":165299.94,"N_COORD97":2550465.21,"ADDRESS":"本原街三段２３４巷８０號","OBJECTID":439162},"geometry":{"x":165299.94000000041,"y":2550465.2100000009}},{"attributes":{"ID":439188,"DIS_CODE":0,"TOWNNAME":"安南區","LI":"淵東里","LIN":"8鄰","STREET":"本原街","SECT":"三段","MAREA":" ","LANE":"３２１巷","ALLEY":" ","HOUSE_NO":"４５號","E_COORD97":165395.03,"N_COORD97":2550222.8500000001,"ADDRESS":"本原街三段３２１巷４５號","OBJECTID":439163},"geometry":{"x":165395.03000000119,"y":2550222.8500000015}},{"attributes":{"ID":439189,"DIS_CODE":0,"TOWNNAME":"安南區","LI":"淵東里","LIN":"8鄰","STREET":"本原街","SECT":"三段","MAREA":" ","LANE":"３２１巷","ALLEY":" ","HOUSE_NO":"４９號","E_COORD97":165401,"N_COORD97":2550208.5800000001,"ADDRESS":"本原街三段３２１巷４９號","OBJECTID":439164},"geometry":{"x":165401.00000000186,"y":2550208.5800000019}},{"attributes":{"ID":439190,"DIS_CODE":0,"TOWNNAME":"安南區","LI":"淵東里","LIN":"8鄰","STREET":"本原街","SECT":"三段","MAREA":" ","LANE":"３２１巷","ALLEY":" ","HOUSE_NO":"５１號","E_COORD97":165415.17000000001,"N_COORD97":2550223.46,"ADDRESS":"本原街三段３２１巷５１號","OBJECTID":439165},"geometry":{"x":165415.17000000086,"y":2550223.4600000028}},{"attributes":{"ID":439191,"DIS_CODE":0,"TOWNNAME":"安南區","LI":"淵東里","LIN":"8鄰","STREET":"本原街","SECT":"三段","MAREA":" ","LANE":"３２１巷","ALLEY":" ","HOUSE_NO":"５１號之１","E_COORD97":165411.01000000001,"N_COORD97":2550222.9399999999,"ADDRESS":"本原街三段３２１巷５１號之１","OBJECTID":439166},"geometry":{"x":165411.01000000071,"y":2550222.9400000013}},{"attributes":{"ID":439192,"DIS_CODE":0,"TOWNNAME":"安南區","LI":"公\u25A0里","LIN":"4鄰","STREET":"安興街","SECT":" ","MAREA":" ","LANE":"１０５巷","ALLEY":" ","HOUSE_NO":"１１號","E_COORD97":164235,"N_COORD97":2552148.8799999999,"ADDRESS":"安興街１０５巷１１號","OBJECTID":439167},"geometry":{"x":164235.00000000093,"y":2552148.8800000008}},{"attributes":{"ID":439193,"DIS_CODE":0,"TOWNNAME":"安南區","LI":"公\u25A0里","LIN":"4鄰","STREET":"安興街","SECT":" ","MAREA":" ","LANE":"１０５巷","ALLEY":" ","HOUSE_NO":"１３號","E_COORD97":164238.66,"N_COORD97":2552143,"ADDRESS":"安興街１０５巷１３號","OBJECTID":439168},"geometry":{"x":164238.66000000015,"y":2552143}},{"attributes":{"ID":439194,"DIS_CODE":0,"TOWNNAME":"安南區","LI":"公\u25A0里","LIN":"4鄰","STREET":"安興街","SECT":" ","MAREA":" ","LANE":"９１巷","ALLEY":" ","HOUSE_NO":"３號","E_COORD97":164255.39000000001,"N_COORD97":2552195.6299999999,"ADDRESS":"安興街９１巷３號","OBJECTID":439169},"geometry":{"x":164255.39000000153,"y":2552195.629999999}},{"attributes":{"ID":439195,"DIS_CODE":0,"TOWNNAME":"安南區","LI":"布袋里","LIN":"1鄰","STREET":"工明南一路","SECT":" ","MAREA":" ","LANE":" ","ALLEY":" ","HOUSE_NO":"６３號","E_COORD97":168834.22,"N_COORD97":2551087.4399999999,"ADDRESS":"工明南一路６３號","OBJECTID":439170},"geometry":{"x":168834.22000000067,"y":2551087.4400000013}},{"attributes":{"ID":439196,"DIS_CODE":0,"TOWNNAME":"安南區","LI":"公\u25A0里","LIN":"5鄰","STREET":"安興街","SECT":" ","MAREA":" ","LANE":"１０５巷","ALLEY":" ","HOUSE_NO":"１０號","E_COORD97":164209.29000000001,"N_COORD97":2552152.98,"ADDRESS":"安興街１０５巷１０號","OBJECTID":439171},"geometry":{"x":164209.29000000097,"y":2552152.9800000023}},{"attributes":{"ID":439197,"DIS_CODE":0,"TOWNNAME":"安南區","LI":"公\u25A0里","LIN":"8鄰","STREET":"安興街","SECT":" ","MAREA":" ","LANE":"１８１巷","ALLEY":" ","HOUSE_NO":"１０２號","E_COORD97":163865.26000000001,"N_COORD97":2551902.9500000002,"ADDRESS":"安興街１８１巷１０２號","OBJECTID":439172},"geometry":{"x":163865.26000000071,"y":2551902.950000003}},{"attributes":{"ID":439198,"DIS_CODE":0,"TOWNNAME":"安南區","LI":"公\u25A0里","LIN":"8鄰","STREET":"安興街","SECT":" ","MAREA":" ","LANE":"１８１巷","ALLEY":" ","HOUSE_NO":"４５號","E_COORD97":164022.51000000001,"N_COORD97":2551976.0600000001,"ADDRESS":"安興街１８１巷４５號","OBJECTID":439173},"geometry":{"x":164022.51000000164,"y":2551976.0600000024}},{"attributes":{"ID":439199,"DIS_CODE":0,"TOWNNAME":"安南區","LI":"公\u25A0里","LIN":"8鄰","STREET":"安興街","SECT":" ","MAREA":" ","LANE":"１８１巷","ALLEY":" ","HOUSE_NO":"４７號","E_COORD97":164023.17000000001,"N_COORD97":2551985.5699999998,"ADDRESS":"安興街１８１巷４７號","OBJECTID":439174},"geometry":{"x":164023.16999999899,"y":2551985.5700000022}},{"attributes":{"ID":439200,"DIS_CODE":0,"TOWNNAME":"安南區","LI":"城東里","LIN":"4鄰","STREET":"城北路","SECT":" ","MAREA":" ","LANE":"２３４巷","ALLEY":" ","HOUSE_NO":"５６號","E_COORD97":161114.98999999999,"N_COORD97":2551849.4500000002,"ADDRESS":"城北路２３４巷５６號","OBJECTID":439175},"geometry":{"x":161114.99000000115,"y":2551849.4500000011}},{"attributes":{"ID":439201,"DIS_CODE":0,"TOWNNAME":"安南區","LI":"城東里","LIN":"6鄰","STREET":"城北路","SECT":" ","MAREA":" ","LANE":"１１２巷","ALLEY":" ","HOUSE_NO":"４５號","E_COORD97":161116.62,"N_COORD97":2551667.0499999998,"ADDRESS":"城北路１１２巷４５號","OBJECTID":439176},"geometry":{"x":161116.62000000197,"y":2551667.0500000026}},{"attributes":{"ID":439202,"DIS_CODE":0,"TOWNNAME":"安南區","LI":"城東里","LIN":"6鄰","STREET":"城北路","SECT":" ","MAREA":" ","LANE":"１１２巷","ALLEY":" ","HOUSE_NO":"４９號","E_COORD97":161127.78,"N_COORD97":2551665.3799999999,"ADDRESS":"城北路１１２巷４９號","OBJECTID":439177},"geometry":{"x":161127.78000000119,"y":2551665.379999999}},{"attributes":{"ID":439203,"DIS_CODE":0,"TOWNNAME":"安南區","LI":"城東里","LIN":"6鄰","STREET":"城北路","SECT":" ","MAREA":" ","LANE":"１１２巷","ALLEY":" ","HOUSE_NO":"５１號","E_COORD97":161130.73999999999,"N_COORD97":2551669.1200000001,"ADDRESS":"城北路１１２巷５１號","OBJECTID":439178},"geometry":{"x":161130.74000000022,"y":2551669.120000001}},{"attributes":{"ID":439204,"DIS_CODE":0,"TOWNNAME":"安南區","LI":"城東里","LIN":"6鄰","STREET":"城北路","SECT":" ","MAREA":" ","LANE":"１１２巷","ALLEY":" ","HOUSE_NO":"５３號","E_COORD97":161134.57999999999,"N_COORD97":2551670.98,"ADDRESS":"城北路１１２巷５３號","OBJECTID":439179},"geometry":{"x":161134.58000000007,"y":2551670.9800000023}},{"attributes":{"ID":439205,"DIS_CODE":0,"TOWNNAME":"安南區","LI":"城東里","LIN":"6鄰","STREET":"城北路","SECT":" ","MAREA":" ","LANE":"１１２巷","ALLEY":" ","HOUSE_NO":"５５號","E_COORD97":161139.10999999999,"N_COORD97":2551672.6600000001,"ADDRESS":"城北路１１２巷５５號","OBJECTID":439180},"geometry":{"x":161139.11000000127,"y":2551672.660000002}},{"attributes":{"ID":439206,"DIS_CODE":0,"TOWNNAME":"安南區","LI":"城東里","LIN":"6鄰","STREET":"城北路","SECT":" ","MAREA":" ","LANE":"１１２巷","ALLEY":" ","HOUSE_NO":"５７號","E_COORD97":161142.35999999999,"N_COORD97":2551674.23,"ADDRESS":"城北路１１２巷５７號","OBJECTID":439181},"geometry":{"x":161142.3600000022,"y":2551674.2300000004}},{"attributes":{"ID":439207,"DIS_CODE":0,"TOWNNAME":"安南區","LI":"城東里","LIN":"6鄰","STREET":"城北路","SECT":" ","MAREA":" ","LANE":"１１２巷","ALLEY":" ","HOUSE_NO":"５９號","E_COORD97":161146.39999999999,"N_COORD97":2551676.2999999998,"ADDRESS":"城北路１１２巷５９號","OBJECTID":439182},"geometry":{"x":161146.40000000037,"y":2551676.3000000026}},{"attributes":{"ID":439208,"DIS_CODE":0,"TOWNNAME":"將軍區","LI":"廣山里","LIN":"9鄰","STREET":" ","SECT":" ","MAREA":"廣山","LANE":" ","ALLEY":" ","HOUSE_NO":"８０號","E_COORD97":159429.81783799999,"N_COORD97":2568848.83972,"ADDRESS":"廣山８０號","OBJECTID":439183},"geometry":{"x":159429.81783800106,"y":2568848.8397200014}},{"attributes":{"ID":439209,"DIS_CODE":0,"TOWNNAME":"安南區","LI":"城東里","LIN":"6鄰","STREET":"城北路","SECT":" ","MAREA":" ","LANE":"１１２巷","ALLEY":" ","HOUSE_NO":"６５號","E_COORD97":161146.19,"N_COORD97":2551697.4500000002,"ADDRESS":"城北路１１２巷６５號","OBJECTID":439184},"geometry":{"x":161146.19000000041,"y":2551697.4500000011}},{"attributes":{"ID":439210,"DIS_CODE":0,"TOWNNAME":"安南區","LI":"城東里","LIN":"3鄰","STREET":"城北路","SECT":" ","MAREA":" ","LANE":"１７２巷","ALLEY":" ","HOUSE_NO":"１３號","E_COORD97":161031.16,"N_COORD97":2551748.5099999998,"ADDRESS":"城北路１７２巷１３號","OBJECTID":439185},"geometry":{"x":161031.16000000015,"y":2551748.5100000016}},{"attributes":{"ID":439211,"DIS_CODE":0,"TOWNNAME":"安南區","LI":"城北里","LIN":"4鄰","STREET":"安中路","SECT":"六段","MAREA":" ","LANE":"５７８巷","ALLEY":" ","HOUSE_NO":"６９號","E_COORD97":160994.81,"N_COORD97":2551501.6299999999,"ADDRESS":"安中路六段５７８巷６９號","OBJECTID":439186},"geometry":{"x":160994.81000000052,"y":2551501.6300000027}},{"attributes":{"ID":439212,"DIS_CODE":0,"TOWNNAME":"安南區","LI":"城北里","LIN":"4鄰","STREET":"安中路","SECT":"六段","MAREA":" ","LANE":"５７８巷","ALLEY":" ","HOUSE_NO":"２９號","E_COORD97":160912.51000000001,"N_COORD97":2551473.3599999999,"ADDRESS":"安中路六段５７８巷２９號","OBJECTID":439187},"geometry":{"x":160912.51000000071,"y":2551473.3600000031}},{"attributes":{"ID":439213,"DIS_CODE":0,"TOWNNAME":"安南區","LI":"城北里","LIN":"4鄰","STREET":"安中路","SECT":"六段","MAREA":" ","LANE":"５７８巷","ALLEY":" ","HOUSE_NO":"３３號","E_COORD97":160928.64000000001,"N_COORD97":2551478.3100000001,"ADDRESS":"安中路六段５７８巷３３號","OBJECTID":439188},"geometry":{"x":160928.63999999966,"y":2551478.3100000042}},{"attributes":{"ID":439214,"DIS_CODE":0,"TOWNNAME":"安南區","LI":"城北里","LIN":"4鄰","STREET":"安中路","SECT":"六段","MAREA":" ","LANE":"５７８巷","ALLEY":" ","HOUSE_NO":"４１號","E_COORD97":160953.26000000001,"N_COORD97":2551479.9100000001,"ADDRESS":"安中路六段５７８巷４１號","OBJECTID":439189},"geometry":{"x":160953.26000000071,"y":2551479.9100000001}},{"attributes":{"ID":439215,"DIS_CODE":0,"TOWNNAME":"安南區","LI":"城北里","LIN":"4鄰","STREET":"安中路","SECT":"六段","MAREA":" ","LANE":"５７８巷","ALLEY":" ","HOUSE_NO":"４７號","E_COORD97":160970.45000000001,"N_COORD97":2551485.5800000001,"ADDRESS":"安中路六段５７８巷４７號","OBJECTID":439190},"geometry":{"x":160970.45000000112,"y":2551485.5800000001}},{"attributes":{"ID":439216,"DIS_CODE":0,"TOWNNAME":"安南區","LI":"城北里","LIN":"4鄰","STREET":"安中路","SECT":"六段","MAREA":" ","LANE":"５７８巷","ALLEY":" ","HOUSE_NO":"５３號","E_COORD97":160980.54999999999,"N_COORD97":2551495.6699999999,"ADDRESS":"安中路六段５７８巷５３號","OBJECTID":439191},"geometry":{"x":160980.54999999981,"y":2551495.6700000037}},{"attributes":{"ID":439217,"DIS_CODE":0,"TOWNNAME":"安南區","LI":"城北里","LIN":"4鄰","STREET":"安中路","SECT":"六段","MAREA":" ","LANE":"５７８巷","ALLEY":" ","HOUSE_NO":"５６號","E_COORD97":160997.67000000001,"N_COORD97":2551479.0299999998,"ADDRESS":"安中路六段５７８巷５６號","OBJECTID":439192},"geometry":{"x":160997.67000000086,"y":2551479.0300000031}},{"attributes":{"ID":439218,"DIS_CODE":0,"TOWNNAME":"安南區","LI":"城北里","LIN":"4鄰","STREET":"安中路","SECT":"六段","MAREA":" ","LANE":"５７８巷","ALLEY":" ","HOUSE_NO":"６８號","E_COORD97":161018.73000000001,"N_COORD97":2551486.1499999999,"ADDRESS":"安中路六段５７８巷６８號","OBJECTID":439193},"geometry":{"x":161018.73000000045,"y":2551486.1500000022}},{"attributes":{"ID":439219,"DIS_CODE":0,"TOWNNAME":"安南區","LI":"城北里","LIN":"4鄰","STREET":"安中路","SECT":"六段","MAREA":" ","LANE":"５７８巷","ALLEY":" ","HOUSE_NO":"７１號","E_COORD97":160999.60999999999,"N_COORD97":2551503.3199999998,"ADDRESS":"安中路六段５７８巷７１號","OBJECTID":439194},"geometry":{"x":160999.61000000034,"y":2551503.3200000003}},{"attributes":{"ID":439220,"DIS_CODE":0,"TOWNNAME":"安南區","LI":"城北里","LIN":"4鄰","STREET":"安中路","SECT":"六段","MAREA":" ","LANE":"５７８巷","ALLEY":" ","HOUSE_NO":"７９號","E_COORD97":161009.20999999999,"N_COORD97":2551504.1600000001,"ADDRESS":"安中路六段５７８巷７９號","OBJECTID":439195},"geometry":{"x":161009.21000000089,"y":2551504.160000002}},{"attributes":{"ID":439221,"DIS_CODE":0,"TOWNNAME":"新市區","LI":"港墘里","LIN":"13鄰","STREET":"中山路","SECT":" ","MAREA":" ","LANE":"７８巷","ALLEY":" ","HOUSE_NO":"４７號","E_COORD97":178230.87,"N_COORD97":2552847.5,"ADDRESS":"中山路７８巷４７號","OBJECTID":439196},"geometry":{"x":178230.87000000011,"y":2552847.5000000019}},{"attributes":{"ID":439222,"DIS_CODE":0,"TOWNNAME":"新市區","LI":"新和里","LIN":"38鄰","STREET":"成功街","SECT":" ","MAREA":" ","LANE":"７７巷","ALLEY":" ","HOUSE_NO":"１１號","E_COORD97":177452.62,"N_COORD97":2552824.77,"ADDRESS":"成功街７７巷１１號","OBJECTID":439197},"geometry":{"x":177452.62000000011,"y":2552824.7700000014}},{"attributes":{"ID":439223,"DIS_CODE":0,"TOWNNAME":"新市區","LI":"港墘里","LIN":"26鄰","STREET":"中山路","SECT":" ","MAREA":" ","LANE":"７８巷","ALLEY":" ","HOUSE_NO":"２２號","E_COORD97":178165.76999999999,"N_COORD97":2552873.75,"ADDRESS":"中山路７８巷２２號","OBJECTID":439198},"geometry":{"x":178165.77000000048,"y":2552873.75}},{"attributes":{"ID":439224,"DIS_CODE":0,"TOWNNAME":"新市區","LI":"新和里","LIN":"42鄰","STREET":"信義街","SECT":" ","MAREA":" ","LANE":"１０６巷","ALLEY":" ","HOUSE_NO":"１８號","E_COORD97":177330.45000000001,"N_COORD97":2553006.77,"ADDRESS":"信義街１０６巷１８號","OBJECTID":439199},"geometry":{"x":177330.44999999925,"y":2553006.7700000014}},{"attributes":{"ID":439225,"DIS_CODE":0,"TOWNNAME":"新市區","LI":"新市里","LIN":"18鄰","STREET":"和平街","SECT":" ","MAREA":" ","LANE":"１５巷","ALLEY":" ","HOUSE_NO":"１５號","E_COORD97":177763.10000000001,"N_COORD97":2553407,"ADDRESS":"和平街１５巷１５號","OBJECTID":439200},"geometry":{"x":177763.10000000056,"y":2553407.0000000019}}]}