{"displayFieldName":"TOWNNAME","fieldAliases":{"ID":"ID","DIS_CODE":"DIS_CODE","TOWNNAME":"TOWNNAME","LI":"LI","LIN":"LIN","STREET":"STREET","SECT":"SECT","MAREA":"MAREA","LANE":"LANE","ALLEY":"ALLEY","HOUSE_NO":"HOUSE_NO","E_COORD97":"E_COORD97","N_COORD97":"N_COORD97","ADDRESS":"ADDRESS","OBJECTID":"OBJECTID"},"geometryType":"esriGeometryPoint","spatialReference":{"wkid":102443,"latestWkid":3826},"fields":[{"name":"ID","type":"esriFieldTypeDouble","alias":"ID"},{"name":"DIS_CODE","type":"esriFieldTypeInteger","alias":"DIS_CODE"},{"name":"TOWNNAME","type":"esriFieldTypeString","alias":"TOWNNAME","length":8},{"name":"LI","type":"esriFieldTypeString","alias":"LI","length":8},{"name":"LIN","type":"esriFieldTypeString","alias":"LIN","length":12},{"name":"STREET","type":"esriFieldTypeString","alias":"STREET","length":20},{"name":"SECT","type":"esriFieldTypeString","alias":"SECT","length":8},{"name":"MAREA","type":"esriFieldTypeString","alias":"MAREA","length":12},{"name":"LANE","type":"esriFieldTypeString","alias":"LANE","length":10},{"name":"ALLEY","type":"esriFieldTypeString","alias":"ALLEY","length":10},{"name":"HOUSE_NO","type":"esriFieldTypeString","alias":"HOUSE_NO","length":20},{"name":"E_COORD97","type":"esriFieldTypeDouble","alias":"E_COORD97"},{"name":"N_COORD97","type":"esriFieldTypeDouble","alias":"N_COORD97"},{"name":"ADDRESS","type":"esriFieldTypeString","alias":"ADDRESS","length":50},{"name":"OBJECTID","type":"esriFieldTypeOID","alias":"OBJECTID"}],"features":[{"attributes":{"ID":344010,"DIS_CODE":0,"TOWNNAME":"東區","LI":"德光里","LIN":"8鄰","STREET":"崇明路","SECT":" ","MAREA":" ","LANE":" ","ALLEY":" ","HOUSE_NO":"１９３號十三樓之１","E_COORD97":169985.69,"N_COORD97":2542095.5600000001,"ADDRESS":"崇明路１９３號十三樓之１","OBJECTID":344001},"geometry":{"x":169985.69000000227,"y":2542095.5600000024}},{"attributes":{"ID":344011,"DIS_CODE":0,"TOWNNAME":"東區","LI":"德光里","LIN":"8鄰","STREET":"崇明路","SECT":" ","MAREA":" ","LANE":" ","ALLEY":" ","HOUSE_NO":"１９３號十樓","E_COORD97":169985.69,"N_COORD97":2542095.5600000001,"ADDRESS":"崇明路１９３號十樓","OBJECTID":344002},"geometry":{"x":169985.69000000227,"y":2542095.5600000024}},{"attributes":{"ID":344012,"DIS_CODE":0,"TOWNNAME":"東區","LI":"德光里","LIN":"8鄰","STREET":"崇明路","SECT":" ","MAREA":" ","LANE":" ","ALLEY":" ","HOUSE_NO":"１９３號十樓之１","E_COORD97":169985.69,"N_COORD97":2542095.5600000001,"ADDRESS":"崇明路１９３號十樓之１","OBJECTID":344003},"geometry":{"x":169985.69000000227,"y":2542095.5600000024}},{"attributes":{"ID":344013,"DIS_CODE":0,"TOWNNAME":"東區","LI":"德光里","LIN":"8鄰","STREET":"崇明路","SECT":" ","MAREA":" ","LANE":" ","ALLEY":" ","HOUSE_NO":"１９３號三樓","E_COORD97":169985.69,"N_COORD97":2542095.5600000001,"ADDRESS":"崇明路１９３號三樓","OBJECTID":344004},"geometry":{"x":169985.69000000227,"y":2542095.5600000024}},{"attributes":{"ID":344014,"DIS_CODE":0,"TOWNNAME":"佳里區","LI":"安西里","LIN":"1鄰","STREET":"文化路","SECT":" ","MAREA":" ","LANE":" ","ALLEY":" ","HOUSE_NO":"２１８號","E_COORD97":165684.47,"N_COORD97":2562603.3900000001,"ADDRESS":"文化路２１８號","OBJECTID":344005},"geometry":{"x":165684.47000000067,"y":2562603.3900000006}},{"attributes":{"ID":344015,"DIS_CODE":0,"TOWNNAME":"北區","LI":"成德里","LIN":"35鄰","STREET":"育德一街","SECT":" ","MAREA":" ","LANE":"２１２巷","ALLEY":" ","HOUSE_NO":"１６號","E_COORD97":168595.87,"N_COORD97":2546227.27,"ADDRESS":"育德一街２１２巷１６號","OBJECTID":344006},"geometry":{"x":168595.87000000104,"y":2546227.2700000014}},{"attributes":{"ID":344016,"DIS_CODE":0,"TOWNNAME":"北區","LI":"成德里","LIN":"35鄰","STREET":"育德一街","SECT":" ","MAREA":" ","LANE":"２１２巷","ALLEY":" ","HOUSE_NO":"１７號","E_COORD97":168618.42000000001,"N_COORD97":2546233.1400000001,"ADDRESS":"育德一街２１２巷１７號","OBJECTID":344007},"geometry":{"x":168618.41999999993,"y":2546233.1400000006}},{"attributes":{"ID":344017,"DIS_CODE":0,"TOWNNAME":"永康區","LI":"東橋里","LIN":"14鄰","STREET":"東橋一路","SECT":" ","MAREA":" ","LANE":"２５８巷","ALLEY":" ","HOUSE_NO":"１０號","E_COORD97":171447.70999999999,"N_COORD97":2546641.48,"ADDRESS":"東橋一路２５８巷１０號","OBJECTID":344008},"geometry":{"x":171447.70999999996,"y":2546641.4800000004}},{"attributes":{"ID":344018,"DIS_CODE":0,"TOWNNAME":"南區","LI":"松安里","LIN":"5鄰","STREET":"灣裡路","SECT":" ","MAREA":" ","LANE":"３７２巷","ALLEY":" ","HOUSE_NO":"１２號","E_COORD97":166123.98000000001,"N_COORD97":2536223.29,"ADDRESS":"灣裡路３７２巷１２號","OBJECTID":344009},"geometry":{"x":166123.98000000138,"y":2536223.2899999972}},{"attributes":{"ID":344019,"DIS_CODE":0,"TOWNNAME":"南區","LI":"松安里","LIN":"5鄰","STREET":"灣裡路","SECT":" ","MAREA":" ","LANE":"３７２巷","ALLEY":" ","HOUSE_NO":"１４號","E_COORD97":166108.75,"N_COORD97":2536221.77,"ADDRESS":"灣裡路３７２巷１４號","OBJECTID":344010},"geometry":{"x":166108.75,"y":2536221.7700000014}},{"attributes":{"ID":344020,"DIS_CODE":0,"TOWNNAME":"南區","LI":"松安里","LIN":"5鄰","STREET":"灣裡路","SECT":" ","MAREA":" ","LANE":"３７２巷","ALLEY":" ","HOUSE_NO":"２０號","E_COORD97":166075.60000000001,"N_COORD97":2536221.98,"ADDRESS":"灣裡路３７２巷２０號","OBJECTID":344011},"geometry":{"x":166075.59999999963,"y":2536221.9800000004}},{"attributes":{"ID":344021,"DIS_CODE":0,"TOWNNAME":"北區","LI":"成德里","LIN":"35鄰","STREET":"育德一街","SECT":" ","MAREA":" ","LANE":"２１２巷","ALLEY":" ","HOUSE_NO":"１８號","E_COORD97":168603.01999999999,"N_COORD97":2546227.1099999999,"ADDRESS":"育德一街２１２巷１８號","OBJECTID":344012},"geometry":{"x":168603.02000000048,"y":2546227.1100000013}},{"attributes":{"ID":344022,"DIS_CODE":0,"TOWNNAME":"北區","LI":"成德里","LIN":"35鄰","STREET":"育德一街","SECT":" ","MAREA":" ","LANE":"２１２巷","ALLEY":" ","HOUSE_NO":"２０號","E_COORD97":168610.32000000001,"N_COORD97":2546226.9500000002,"ADDRESS":"育德一街２１２巷２０號","OBJECTID":344013},"geometry":{"x":168610.32000000123,"y":2546226.9499999993}},{"attributes":{"ID":344023,"DIS_CODE":0,"TOWNNAME":"北區","LI":"成德里","LIN":"35鄰","STREET":"育德一街","SECT":" ","MAREA":" ","LANE":"２１２巷","ALLEY":" ","HOUSE_NO":"２２號","E_COORD97":168616.98999999999,"N_COORD97":2546226.9500000002,"ADDRESS":"育德一街２１２巷２２號","OBJECTID":344014},"geometry":{"x":168616.98999999929,"y":2546226.9499999993}},{"attributes":{"ID":344024,"DIS_CODE":0,"TOWNNAME":"北區","LI":"成德里","LIN":"35鄰","STREET":"育德路","SECT":" ","MAREA":" ","LANE":"５９９巷","ALLEY":" ","HOUSE_NO":"５１號","E_COORD97":168580.01000000001,"N_COORD97":2546310.9300000002,"ADDRESS":"育德路５９９巷５１號","OBJECTID":344015},"geometry":{"x":168580.00999999978,"y":2546310.9300000016}},{"attributes":{"ID":344025,"DIS_CODE":0,"TOWNNAME":"北區","LI":"成德里","LIN":"35鄰","STREET":"育德路","SECT":" ","MAREA":" ","LANE":"５９９巷","ALLEY":" ","HOUSE_NO":"４１號","E_COORD97":168614.45999999999,"N_COORD97":2546307.52,"ADDRESS":"育德路５９９巷４１號","OBJECTID":344016},"geometry":{"x":168614.45999999996,"y":2546307.5199999996}},{"attributes":{"ID":344026,"DIS_CODE":0,"TOWNNAME":"歸仁區","LI":"南興里","LIN":"35鄰","STREET":"民生北街","SECT":" ","MAREA":" ","LANE":"５０巷","ALLEY":" ","HOUSE_NO":"２號","E_COORD97":176299.29000000001,"N_COORD97":2541069.29,"ADDRESS":"民生北街５０巷２號","OBJECTID":344017},"geometry":{"x":176299.29000000097,"y":2541069.290000001}},{"attributes":{"ID":344027,"DIS_CODE":0,"TOWNNAME":"歸仁區","LI":"南保里","LIN":"35鄰","STREET":"中山路","SECT":"三段","MAREA":" ","LANE":"１００巷","ALLEY":" ","HOUSE_NO":"１５號","E_COORD97":176747.95000000001,"N_COORD97":2540960.6400000001,"ADDRESS":"中山路三段１００巷１５號","OBJECTID":344018},"geometry":{"x":176747.95000000112,"y":2540960.6400000025}},{"attributes":{"ID":344028,"DIS_CODE":0,"TOWNNAME":"歸仁區","LI":"南興里","LIN":"35鄰","STREET":"民生北街","SECT":" ","MAREA":" ","LANE":"５０巷","ALLEY":" ","HOUSE_NO":"５６號","E_COORD97":176403.04000000001,"N_COORD97":2541063.29,"ADDRESS":"民生北街５０巷５６號","OBJECTID":344019},"geometry":{"x":176403.04000000097,"y":2541063.2899999991}},{"attributes":{"ID":344029,"DIS_CODE":0,"TOWNNAME":"歸仁區","LI":"南興里","LIN":"35鄰","STREET":"民生北街","SECT":" ","MAREA":" ","LANE":"５０巷","ALLEY":" ","HOUSE_NO":"１８號","E_COORD97":176314.94,"N_COORD97":2541070.29,"ADDRESS":"民生北街５０巷１８號","OBJECTID":344020},"geometry":{"x":176314.94000000041,"y":2541070.2899999991}},{"attributes":{"ID":344030,"DIS_CODE":0,"TOWNNAME":"歸仁區","LI":"南保里","LIN":"35鄰","STREET":"中山路","SECT":"三段","MAREA":" ","LANE":"１００巷","ALLEY":" ","HOUSE_NO":"３５號","E_COORD97":176698.75,"N_COORD97":2540966.6400000001,"ADDRESS":"中山路三段１００巷３５號","OBJECTID":344021},"geometry":{"x":176698.75,"y":2540966.6400000025}},{"attributes":{"ID":344031,"DIS_CODE":0,"TOWNNAME":"歸仁區","LI":"南興里","LIN":"35鄰","STREET":"民生北街","SECT":" ","MAREA":" ","LANE":"５０巷","ALLEY":" ","HOUSE_NO":"６２號","E_COORD97":176416.34,"N_COORD97":2541061.29,"ADDRESS":"民生北街５０巷６２號","OBJECTID":344022},"geometry":{"x":176416.34000000078,"y":2541061.2899999972}},{"attributes":{"ID":344032,"DIS_CODE":0,"TOWNNAME":"歸仁區","LI":"南保里","LIN":"35鄰","STREET":"中山路","SECT":"三段","MAREA":" ","LANE":"１００巷","ALLEY":" ","HOUSE_NO":"３７號","E_COORD97":176692.54999999999,"N_COORD97":2540966.6400000001,"ADDRESS":"中山路三段１００巷３７號","OBJECTID":344023},"geometry":{"x":176692.55000000075,"y":2540966.6400000025}},{"attributes":{"ID":344033,"DIS_CODE":0,"TOWNNAME":"歸仁區","LI":"辜厝里","LIN":"35鄰","STREET":"中正南路","SECT":"一段","MAREA":" ","LANE":"２１８巷","ALLEY":" ","HOUSE_NO":"４６號","E_COORD97":177231.22,"N_COORD97":2540373.6800000002,"ADDRESS":"中正南路一段２１８巷４６號","OBJECTID":344024},"geometry":{"x":177231.21999999974,"y":2540373.6799999997}},{"attributes":{"ID":344034,"DIS_CODE":0,"TOWNNAME":"歸仁區","LI":"南保里","LIN":"35鄰","STREET":"中山路","SECT":"三段","MAREA":" ","LANE":"１００巷","ALLEY":" ","HOUSE_NO":"２１號","E_COORD97":176733.54999999999,"N_COORD97":2540962.6400000001,"ADDRESS":"中山路三段１００巷２１號","OBJECTID":344025},"geometry":{"x":176733.55000000075,"y":2540962.6400000043}},{"attributes":{"ID":344035,"DIS_CODE":0,"TOWNNAME":"東區","LI":"德光里","LIN":"8鄰","STREET":"崇明路","SECT":" ","MAREA":" ","LANE":" ","ALLEY":" ","HOUSE_NO":"１９３號三樓之１","E_COORD97":169985.69,"N_COORD97":2542095.5600000001,"ADDRESS":"崇明路１９３號三樓之１","OBJECTID":344026},"geometry":{"x":169985.69000000227,"y":2542095.5600000024}},{"attributes":{"ID":344036,"DIS_CODE":0,"TOWNNAME":"東區","LI":"德光里","LIN":"8鄰","STREET":"崇明路","SECT":" ","MAREA":" ","LANE":" ","ALLEY":" ","HOUSE_NO":"１９３號五樓","E_COORD97":169985.69,"N_COORD97":2542095.5600000001,"ADDRESS":"崇明路１９３號五樓","OBJECTID":344027},"geometry":{"x":169985.69000000227,"y":2542095.5600000024}},{"attributes":{"ID":344037,"DIS_CODE":0,"TOWNNAME":"東區","LI":"德光里","LIN":"8鄰","STREET":"崇明路","SECT":" ","MAREA":" ","LANE":" ","ALLEY":" ","HOUSE_NO":"１９３號五樓之１","E_COORD97":169985.69,"N_COORD97":2542095.5600000001,"ADDRESS":"崇明路１９３號五樓之１","OBJECTID":344028},"geometry":{"x":169985.69000000227,"y":2542095.5600000024}},{"attributes":{"ID":344038,"DIS_CODE":0,"TOWNNAME":"鹽水區","LI":"飯店里","LIN":"5鄰","STREET":" ","SECT":" ","MAREA":"飯店","LANE":" ","ALLEY":" ","HOUSE_NO":"１４號","E_COORD97":170065.42999999999,"N_COORD97":2574149.21,"ADDRESS":"飯店１４號","OBJECTID":344029},"geometry":{"x":170065.43000000063,"y":2574149.2100000009}},{"attributes":{"ID":344039,"DIS_CODE":0,"TOWNNAME":"鹽水區","LI":"飯店里","LIN":"5鄰","STREET":" ","SECT":" ","MAREA":"飯店","LANE":" ","ALLEY":" ","HOUSE_NO":"１５號","E_COORD97":170060.35000000001,"N_COORD97":2574119.0899999999,"ADDRESS":"飯店１５號","OBJECTID":344030},"geometry":{"x":170060.35000000056,"y":2574119.0899999999}},{"attributes":{"ID":344040,"DIS_CODE":0,"TOWNNAME":"鹽水區","LI":"飯店里","LIN":"5鄰","STREET":" ","SECT":" ","MAREA":"飯店","LANE":" ","ALLEY":" ","HOUSE_NO":"１６號","E_COORD97":170045.07000000001,"N_COORD97":2574136.2200000002,"ADDRESS":"飯店１６號","OBJECTID":344031},"geometry":{"x":170045.0700000003,"y":2574136.2200000007}},{"attributes":{"ID":344041,"DIS_CODE":0,"TOWNNAME":"鹽水區","LI":"飯店里","LIN":"5鄰","STREET":" ","SECT":" ","MAREA":"飯店","LANE":" ","ALLEY":" ","HOUSE_NO":"１１號","E_COORD97":170091,"N_COORD97":2574176.75,"ADDRESS":"飯店１１號","OBJECTID":344032},"geometry":{"x":170091,"y":2574176.7500000037}},{"attributes":{"ID":344042,"DIS_CODE":0,"TOWNNAME":"鹽水區","LI":"飯店里","LIN":"5鄰","STREET":" ","SECT":" ","MAREA":"飯店","LANE":" ","ALLEY":" ","HOUSE_NO":"１３號","E_COORD97":170106.26999999999,"N_COORD97":2574136.8599999999,"ADDRESS":"飯店１３號","OBJECTID":344033},"geometry":{"x":170106.27000000142,"y":2574136.8599999994}},{"attributes":{"ID":344043,"DIS_CODE":0,"TOWNNAME":"鹽水區","LI":"飯店里","LIN":"5鄰","STREET":" ","SECT":" ","MAREA":"飯店","LANE":" ","ALLEY":" ","HOUSE_NO":"１４號之１","E_COORD97":170076.14999999999,"N_COORD97":2574109.0800000001,"ADDRESS":"飯店１４號之１","OBJECTID":344034},"geometry":{"x":170076.1500000013,"y":2574109.0800000001}},{"attributes":{"ID":344044,"DIS_CODE":0,"TOWNNAME":"鹽水區","LI":"飯店里","LIN":"5鄰","STREET":" ","SECT":" ","MAREA":"飯店","LANE":" ","ALLEY":" ","HOUSE_NO":"１４之２號","E_COORD97":170091.37,"N_COORD97":2574116.04,"ADDRESS":"飯店１４之２號","OBJECTID":344035},"geometry":{"x":170091.37000000104,"y":2574116.0400000028}},{"attributes":{"ID":344045,"DIS_CODE":0,"TOWNNAME":"鹽水區","LI":"義稠里","LIN":"5鄰","STREET":" ","SECT":" ","MAREA":"義稠","LANE":" ","ALLEY":" ","HOUSE_NO":"６４之３號","E_COORD97":174108.22,"N_COORD97":2580573.1400000001,"ADDRESS":"義稠６４之３號","OBJECTID":344036},"geometry":{"x":174108.22000000067,"y":2580573.1400000025}},{"attributes":{"ID":344046,"DIS_CODE":0,"TOWNNAME":"鹽水區","LI":"義稠里","LIN":"5鄰","STREET":" ","SECT":" ","MAREA":"義稠","LANE":" ","ALLEY":" ","HOUSE_NO":"６５號之１","E_COORD97":174072.51999999999,"N_COORD97":2580624.0600000001,"ADDRESS":"義稠６５號之１","OBJECTID":344037},"geometry":{"x":174072.51999999955,"y":2580624.0600000024}},{"attributes":{"ID":344047,"DIS_CODE":0,"TOWNNAME":"鹽水區","LI":"義稠里","LIN":"5鄰","STREET":" ","SECT":" ","MAREA":"義稠","LANE":" ","ALLEY":" ","HOUSE_NO":"６５號","E_COORD97":174069.67000000001,"N_COORD97":2580630.98,"ADDRESS":"義稠６５號","OBJECTID":344038},"geometry":{"x":174069.67000000086,"y":2580630.9800000042}},{"attributes":{"ID":344048,"DIS_CODE":0,"TOWNNAME":"鹽水區","LI":"義稠里","LIN":"5鄰","STREET":" ","SECT":" ","MAREA":"義稠","LANE":" ","ALLEY":" ","HOUSE_NO":"６６號","E_COORD97":174060.70000000001,"N_COORD97":2580647.8799999999,"ADDRESS":"義稠６６號","OBJECTID":344039},"geometry":{"x":174060.70000000112,"y":2580647.8800000008}},{"attributes":{"ID":344049,"DIS_CODE":0,"TOWNNAME":"鹽水區","LI":"義稠里","LIN":"5鄰","STREET":" ","SECT":" ","MAREA":"義稠","LANE":" ","ALLEY":" ","HOUSE_NO":"７５之２８號","E_COORD97":173983.88,"N_COORD97":2580577.3700000001,"ADDRESS":"義稠７５之２８號","OBJECTID":344040},"geometry":{"x":173983.87999999989,"y":2580577.370000001}},{"attributes":{"ID":344050,"DIS_CODE":0,"TOWNNAME":"鹽水區","LI":"義稠里","LIN":"5鄰","STREET":" ","SECT":" ","MAREA":"義稠","LANE":" ","ALLEY":" ","HOUSE_NO":"７５之２９號","E_COORD97":174015.59,"N_COORD97":2580583.2999999998,"ADDRESS":"義稠７５之２９號","OBJECTID":344041},"geometry":{"x":174015.59000000078,"y":2580583.3000000007}},{"attributes":{"ID":344051,"DIS_CODE":0,"TOWNNAME":"鹽水區","LI":"義稠里","LIN":"5鄰","STREET":" ","SECT":" ","MAREA":"義稠","LANE":" ","ALLEY":" ","HOUSE_NO":"７５之３０號","E_COORD97":173989.42000000001,"N_COORD97":2580576.6099999999,"ADDRESS":"義稠７５之３０號","OBJECTID":344042},"geometry":{"x":173989.42000000086,"y":2580576.6099999994}},{"attributes":{"ID":344052,"DIS_CODE":0,"TOWNNAME":"鹽水區","LI":"義稠里","LIN":"5鄰","STREET":" ","SECT":" ","MAREA":"義稠","LANE":" ","ALLEY":" ","HOUSE_NO":"７５號之３０","E_COORD97":173989.42000000001,"N_COORD97":2580576.6099999999,"ADDRESS":"義稠７５號之３０","OBJECTID":344043},"geometry":{"x":173989.42000000086,"y":2580576.6099999994}},{"attributes":{"ID":344053,"DIS_CODE":0,"TOWNNAME":"鹽水區","LI":"義稠里","LIN":"5鄰","STREET":" ","SECT":" ","MAREA":"義稠","LANE":" ","ALLEY":" ","HOUSE_NO":"７５號之３１","E_COORD97":174019.81,"N_COORD97":2580585.98,"ADDRESS":"義稠７５號之３１","OBJECTID":344044},"geometry":{"x":174019.80999999959,"y":2580585.9800000004}},{"attributes":{"ID":344054,"DIS_CODE":0,"TOWNNAME":"鹽水區","LI":"義稠里","LIN":"5鄰","STREET":" ","SECT":" ","MAREA":"義稠","LANE":" ","ALLEY":" ","HOUSE_NO":"７５號之３２","E_COORD97":173993.29999999999,"N_COORD97":2580578.9700000002,"ADDRESS":"義稠７５號之３２","OBJECTID":344045},"geometry":{"x":173993.30000000168,"y":2580578.9700000007}},{"attributes":{"ID":344055,"DIS_CODE":0,"TOWNNAME":"鹽水區","LI":"義稠里","LIN":"5鄰","STREET":" ","SECT":" ","MAREA":"義稠","LANE":" ","ALLEY":" ","HOUSE_NO":"７５號之３３","E_COORD97":174023.53,"N_COORD97":2580587.6600000001,"ADDRESS":"義稠７５號之３３","OBJECTID":344046},"geometry":{"x":174023.53000000119,"y":2580587.6600000001}},{"attributes":{"ID":344056,"DIS_CODE":0,"TOWNNAME":"鹽水區","LI":"義稠里","LIN":"5鄰","STREET":" ","SECT":" ","MAREA":"義稠","LANE":" ","ALLEY":" ","HOUSE_NO":"７５之３５號","E_COORD97":174027.54000000001,"N_COORD97":2580589.4900000002,"ADDRESS":"義稠７５之３５號","OBJECTID":344047},"geometry":{"x":174027.5400000019,"y":2580589.4900000002}},{"attributes":{"ID":344057,"DIS_CODE":0,"TOWNNAME":"新化區","LI":"北勢里","LIN":"5鄰","STREET":" ","SECT":" ","MAREA":"北勢","LANE":" ","ALLEY":" ","HOUSE_NO":"９１號","E_COORD97":177224.53,"N_COORD97":2549615.2599999998,"ADDRESS":"北勢９１號","OBJECTID":344048},"geometry":{"x":177224.53000000026,"y":2549615.2599999998}},{"attributes":{"ID":344058,"DIS_CODE":0,"TOWNNAME":"鹽水區","LI":"義稠里","LIN":"5鄰","STREET":" ","SECT":" ","MAREA":"義稠","LANE":" ","ALLEY":" ","HOUSE_NO":"７５之３６號","E_COORD97":174003.09,"N_COORD97":2580581.1699999999,"ADDRESS":"義稠７５之３６號","OBJECTID":344049},"geometry":{"x":174003.08999999985,"y":2580581.1699999999}},{"attributes":{"ID":344059,"DIS_CODE":0,"TOWNNAME":"鹽水區","LI":"義稠里","LIN":"5鄰","STREET":" ","SECT":" ","MAREA":"義稠","LANE":" ","ALLEY":" ","HOUSE_NO":"７５號之３７","E_COORD97":174032.29000000001,"N_COORD97":2580591.6499999999,"ADDRESS":"義稠７５號之３７","OBJECTID":344050},"geometry":{"x":174032.29000000004,"y":2580591.6500000004}},{"attributes":{"ID":344060,"DIS_CODE":0,"TOWNNAME":"鹽水區","LI":"義稠里","LIN":"5鄰","STREET":" ","SECT":" ","MAREA":"義稠","LANE":" ","ALLEY":" ","HOUSE_NO":"７５號之３９","E_COORD97":174035.76999999999,"N_COORD97":2580593.79,"ADDRESS":"義稠７５號之３９","OBJECTID":344051},"geometry":{"x":174035.77000000142,"y":2580593.790000001}},{"attributes":{"ID":344061,"DIS_CODE":0,"TOWNNAME":"歸仁區","LI":"南保里","LIN":"35鄰","STREET":"中山路","SECT":"三段","MAREA":" ","LANE":"１００巷","ALLEY":" ","HOUSE_NO":"１７號","E_COORD97":176742.85000000001,"N_COORD97":2540961.6400000001,"ADDRESS":"中山路三段１００巷１７號","OBJECTID":344052},"geometry":{"x":176742.85000000056,"y":2540961.6400000006}},{"attributes":{"ID":344062,"DIS_CODE":0,"TOWNNAME":"左鎮區","LI":"岡林里","LIN":"5鄰","STREET":" ","SECT":" ","MAREA":"岡林","LANE":" ","ALLEY":" ","HOUSE_NO":"５９號","E_COORD97":190670.45999999999,"N_COORD97":2545849.25,"ADDRESS":"岡林５９號","OBJECTID":344053},"geometry":{"x":190670.46000000089,"y":2545849.25}},{"attributes":{"ID":344063,"DIS_CODE":0,"TOWNNAME":"歸仁區","LI":"許厝里","LIN":"35鄰","STREET":"公園路","SECT":" ","MAREA":" ","LANE":"１５６巷","ALLEY":" ","HOUSE_NO":"８號","E_COORD97":177848.63,"N_COORD97":2540495.8199999998,"ADDRESS":"公園路１５６巷８號","OBJECTID":344054},"geometry":{"x":177848.62999999989,"y":2540495.8200000003}},{"attributes":{"ID":344064,"DIS_CODE":0,"TOWNNAME":"歸仁區","LI":"南保里","LIN":"35鄰","STREET":"中山路","SECT":"三段","MAREA":" ","LANE":"１００巷","ALLEY":" ","HOUSE_NO":"５９號","E_COORD97":176739.41,"N_COORD97":2540977.2799999998,"ADDRESS":"中山路三段１００巷５９號","OBJECTID":344055},"geometry":{"x":176739.41000000108,"y":2540977.2800000031}},{"attributes":{"ID":344065,"DIS_CODE":0,"TOWNNAME":"歸仁區","LI":"南興里","LIN":"35鄰","STREET":"民生北街","SECT":" ","MAREA":" ","LANE":"５０巷","ALLEY":" ","HOUSE_NO":"６８號","E_COORD97":176425.64000000001,"N_COORD97":2541060.29,"ADDRESS":"民生北街５０巷６８號","OBJECTID":344056},"geometry":{"x":176425.6400000006,"y":2541060.2899999991}},{"attributes":{"ID":344066,"DIS_CODE":0,"TOWNNAME":"歸仁區","LI":"六甲里","LIN":"35鄰","STREET":"六甲路","SECT":" ","MAREA":" ","LANE":"３７０巷","ALLEY":" ","HOUSE_NO":"２０號","E_COORD97":175540.51999999999,"N_COORD97":2539353.25,"ADDRESS":"六甲路３７０巷２０號","OBJECTID":344057},"geometry":{"x":175540.51999999955,"y":2539353.25}},{"attributes":{"ID":344067,"DIS_CODE":0,"TOWNNAME":"歸仁區","LI":"許厝里","LIN":"35鄰","STREET":"公園路","SECT":" ","MAREA":" ","LANE":"１５６巷","ALLEY":" ","HOUSE_NO":"２０號","E_COORD97":177852.07999999999,"N_COORD97":2540516.8199999998,"ADDRESS":"公園路１５６巷２０號","OBJECTID":344058},"geometry":{"x":177852.08000000101,"y":2540516.820000004}},{"attributes":{"ID":344068,"DIS_CODE":0,"TOWNNAME":"歸仁區","LI":"南保里","LIN":"35鄰","STREET":"中山路","SECT":"三段","MAREA":" ","LANE":"１００巷","ALLEY":" ","HOUSE_NO":"４７號","E_COORD97":176710.70999999999,"N_COORD97":2540979.2799999998,"ADDRESS":"中山路三段１００巷４７號","OBJECTID":344059},"geometry":{"x":176710.70999999996,"y":2540979.2799999993}},{"attributes":{"ID":344069,"DIS_CODE":0,"TOWNNAME":"歸仁區","LI":"六甲里","LIN":"35鄰","STREET":"六甲六街","SECT":" ","MAREA":" ","LANE":"３５巷","ALLEY":" ","HOUSE_NO":"３號","E_COORD97":175550.58036600001,"N_COORD97":2539370.0702399998,"ADDRESS":"六甲六街３５巷３號","OBJECTID":344060},"geometry":{"x":175550.58036600146,"y":2539370.0702400003}},{"attributes":{"ID":344070,"DIS_CODE":0,"TOWNNAME":"歸仁區","LI":"南保里","LIN":"35鄰","STREET":"中山路","SECT":"三段","MAREA":" ","LANE":"１００巷","ALLEY":" ","HOUSE_NO":"６７號","E_COORD97":176759.91,"N_COORD97":2540973.2799999998,"ADDRESS":"中山路三段１００巷６７號","OBJECTID":344061},"geometry":{"x":176759.91000000108,"y":2540973.2799999993}},{"attributes":{"ID":344071,"DIS_CODE":0,"TOWNNAME":"歸仁區","LI":"許厝里","LIN":"35鄰","STREET":"和平南街","SECT":" ","MAREA":" ","LANE":"７１巷","ALLEY":" ","HOUSE_NO":"５號","E_COORD97":177844.73000000001,"N_COORD97":2540539.8199999998,"ADDRESS":"和平南街７１巷５號","OBJECTID":344062},"geometry":{"x":177844.73000000138,"y":2540539.8200000003}},{"attributes":{"ID":344072,"DIS_CODE":0,"TOWNNAME":"永康區","LI":"永康里","LIN":"35鄰","STREET":"大同街","SECT":" ","MAREA":" ","LANE":"８０１巷","ALLEY":" ","HOUSE_NO":"１７號","E_COORD97":174390.14000000001,"N_COORD97":2546973.25,"ADDRESS":"大同街８０１巷１７號","OBJECTID":344063},"geometry":{"x":174390.13999999966,"y":2546973.2500000019}},{"attributes":{"ID":344073,"DIS_CODE":0,"TOWNNAME":"安平區","LI":"育平里","LIN":"35鄰","STREET":"平豐路","SECT":" ","MAREA":" ","LANE":"２３６巷","ALLEY":" ","HOUSE_NO":"２０號","E_COORD97":164396.63,"N_COORD97":2543423.6499999999,"ADDRESS":"平豐路２３６巷２０號","OBJECTID":344064},"geometry":{"x":164396.63000000082,"y":2543423.6500000041}},{"attributes":{"ID":344074,"DIS_CODE":0,"TOWNNAME":"北區","LI":"成德里","LIN":"35鄰","STREET":"育德路","SECT":" ","MAREA":" ","LANE":"５９９巷","ALLEY":" ","HOUSE_NO":"４５號","E_COORD97":168603.82000000001,"N_COORD97":2546308.9500000002,"ADDRESS":"育德路５９９巷４５號","OBJECTID":344065},"geometry":{"x":168603.82000000123,"y":2546308.950000003}},{"attributes":{"ID":344075,"DIS_CODE":0,"TOWNNAME":"北區","LI":"成德里","LIN":"35鄰","STREET":"育德路","SECT":" ","MAREA":" ","LANE":"５９９巷","ALLEY":" ","HOUSE_NO":"４７號","E_COORD97":168595.57000000001,"N_COORD97":2546309.8999999999,"ADDRESS":"育德路５９９巷４７號","OBJECTID":344066},"geometry":{"x":168595.5700000003,"y":2546309.9000000004}},{"attributes":{"ID":344076,"DIS_CODE":0,"TOWNNAME":"北區","LI":"成德里","LIN":"35鄰","STREET":"育德路","SECT":" ","MAREA":" ","LANE":"５９９巷","ALLEY":" ","HOUSE_NO":"４９號","E_COORD97":168588.26999999999,"N_COORD97":2546310.54,"ADDRESS":"育德路５９９巷４９號","OBJECTID":344067},"geometry":{"x":168588.26999999955,"y":2546310.5399999991}},{"attributes":{"ID":344077,"DIS_CODE":0,"TOWNNAME":"南區","LI":"大忠里","LIN":"35鄰","STREET":"中華南路","SECT":"一段","MAREA":" ","LANE":"１４２巷","ALLEY":" ","HOUSE_NO":"１１號","E_COORD97":169147.73000000001,"N_COORD97":2541327.3700000001,"ADDRESS":"中華南路一段１４２巷１１號","OBJECTID":344068},"geometry":{"x":169147.73000000045,"y":2541327.3700000048}},{"attributes":{"ID":344078,"DIS_CODE":0,"TOWNNAME":"南區","LI":"大忠里","LIN":"35鄰","STREET":"中華南路","SECT":"一段","MAREA":" ","LANE":"１４２巷","ALLEY":" ","HOUSE_NO":"１３號","E_COORD97":169143.26000000001,"N_COORD97":2541332.3500000001,"ADDRESS":"中華南路一段１４２巷１３號","OBJECTID":344069},"geometry":{"x":169143.25999999978,"y":2541332.3499999996}},{"attributes":{"ID":344079,"DIS_CODE":0,"TOWNNAME":"南區","LI":"大忠里","LIN":"35鄰","STREET":"中華南路","SECT":"一段","MAREA":" ","LANE":"１４２巷","ALLEY":" ","HOUSE_NO":"１５號","E_COORD97":169138.78,"N_COORD97":2541337.3399999999,"ADDRESS":"中華南路一段１４２巷１５號","OBJECTID":344070},"geometry":{"x":169138.78000000026,"y":2541337.3400000017}},{"attributes":{"ID":344080,"DIS_CODE":0,"TOWNNAME":"南區","LI":"大忠里","LIN":"35鄰","STREET":"中華南路","SECT":"一段","MAREA":" ","LANE":"１４２巷","ALLEY":" ","HOUSE_NO":"１７號","E_COORD97":169134.31,"N_COORD97":2541342.8500000001,"ADDRESS":"中華南路一段１４２巷１７號","OBJECTID":344071},"geometry":{"x":169134.30999999959,"y":2541342.8499999978}},{"attributes":{"ID":344081,"DIS_CODE":0,"TOWNNAME":"南區","LI":"大忠里","LIN":"35鄰","STREET":"中華南路","SECT":"一段","MAREA":" ","LANE":"１４２巷","ALLEY":" ","HOUSE_NO":"１９號","E_COORD97":169129.70999999999,"N_COORD97":2541348.1800000002,"ADDRESS":"中華南路一段１４２巷１９號","OBJECTID":344072},"geometry":{"x":169129.71000000089,"y":2541348.1800000016}},{"attributes":{"ID":344082,"DIS_CODE":0,"TOWNNAME":"南區","LI":"大忠里","LIN":"35鄰","STREET":"中華南路","SECT":"一段","MAREA":" ","LANE":"１４２巷","ALLEY":" ","HOUSE_NO":"２１號","E_COORD97":169125.26000000001,"N_COORD97":2541353.7999999998,"ADDRESS":"中華南路一段１４２巷２１號","OBJECTID":344073},"geometry":{"x":169125.26000000071,"y":2541353.8000000007}},{"attributes":{"ID":344083,"DIS_CODE":0,"TOWNNAME":"南區","LI":"大忠里","LIN":"35鄰","STREET":"中華南路","SECT":"一段","MAREA":" ","LANE":"１４２巷","ALLEY":" ","HOUSE_NO":"２３號","E_COORD97":169119.92000000001,"N_COORD97":2541359.1200000001,"ADDRESS":"中華南路一段１４２巷２３號","OBJECTID":344074},"geometry":{"x":169119.91999999993,"y":2541359.120000001}},{"attributes":{"ID":344084,"DIS_CODE":0,"TOWNNAME":"南區","LI":"大忠里","LIN":"35鄰","STREET":"中華南路","SECT":"一段","MAREA":" ","LANE":"１４２巷","ALLEY":" ","HOUSE_NO":"２５號","E_COORD97":169114.29000000001,"N_COORD97":2541365.3199999998,"ADDRESS":"中華南路一段１４２巷２５號","OBJECTID":344075},"geometry":{"x":169114.29000000004,"y":2541365.3200000022}},{"attributes":{"ID":344085,"DIS_CODE":0,"TOWNNAME":"南區","LI":"大忠里","LIN":"35鄰","STREET":"中華南路","SECT":"一段","MAREA":" ","LANE":"１４２巷","ALLEY":" ","HOUSE_NO":"２７號","E_COORD97":169108.35999999999,"N_COORD97":2541372.1200000001,"ADDRESS":"中華南路一段１４２巷２７號","OBJECTID":344076},"geometry":{"x":169108.36000000127,"y":2541372.120000001}},{"attributes":{"ID":344086,"DIS_CODE":0,"TOWNNAME":"南區","LI":"大忠里","LIN":"5鄰","STREET":"公英一街","SECT":" ","MAREA":" ","LANE":"５１巷","ALLEY":" ","HOUSE_NO":"７號","E_COORD97":169376.37,"N_COORD97":2541213.6899999999,"ADDRESS":"公英一街５１巷７號","OBJECTID":344077},"geometry":{"x":169376.37000000011,"y":2541213.6899999995}},{"attributes":{"ID":344087,"DIS_CODE":0,"TOWNNAME":"歸仁區","LI":"許厝里","LIN":"5鄰","STREET":"仁愛一街","SECT":" ","MAREA":" ","LANE":"３８巷","ALLEY":" ","HOUSE_NO":"１３號","E_COORD97":178409.57999999999,"N_COORD97":2540581.7799999998,"ADDRESS":"仁愛一街３８巷１３號","OBJECTID":344078},"geometry":{"x":178409.58000000101,"y":2540581.7800000012}},{"attributes":{"ID":344088,"DIS_CODE":0,"TOWNNAME":"歸仁區","LI":"崙頂里","LIN":"5鄰","STREET":"信義南路","SECT":" ","MAREA":" ","LANE":"２０２巷","ALLEY":" ","HOUSE_NO":"２８號","E_COORD97":178059.64999999999,"N_COORD97":2540070.6800000002,"ADDRESS":"信義南路２０２巷２８號","OBJECTID":344079},"geometry":{"x":178059.65000000037,"y":2540070.6800000016}},{"attributes":{"ID":344089,"DIS_CODE":0,"TOWNNAME":"歸仁區","LI":"許厝里","LIN":"5鄰","STREET":"仁愛一街","SECT":" ","MAREA":" ","LANE":"３８巷","ALLEY":" ","HOUSE_NO":"１１號","E_COORD97":178411.67999999999,"N_COORD97":2540587.7799999998,"ADDRESS":"仁愛一街３８巷１１號","OBJECTID":344080},"geometry":{"x":178411.68000000156,"y":2540587.7800000012}},{"attributes":{"ID":344090,"DIS_CODE":0,"TOWNNAME":"歸仁區","LI":"許厝里","LIN":"5鄰","STREET":"仁愛一街","SECT":" ","MAREA":" ","LANE":"３８巷","ALLEY":" ","HOUSE_NO":"７號","E_COORD97":178415.53,"N_COORD97":2540599.7799999998,"ADDRESS":"仁愛一街３８巷７號","OBJECTID":344081},"geometry":{"x":178415.53000000119,"y":2540599.7799999993}},{"attributes":{"ID":344091,"DIS_CODE":0,"TOWNNAME":"歸仁區","LI":"崙頂里","LIN":"5鄰","STREET":"信義南路","SECT":" ","MAREA":" ","LANE":"２０２巷","ALLEY":" ","HOUSE_NO":"２０號","E_COORD97":178078.14999999999,"N_COORD97":2540073.6800000002,"ADDRESS":"信義南路２０２巷２０號","OBJECTID":344082},"geometry":{"x":178078.15000000037,"y":2540073.6800000016}},{"attributes":{"ID":344092,"DIS_CODE":0,"TOWNNAME":"北區","LI":"大豐里","LIN":"5鄰","STREET":"武聖路","SECT":" ","MAREA":" ","LANE":"１１４巷","ALLEY":" ","HOUSE_NO":"３號","E_COORD97":167059.60000000001,"N_COORD97":2545239.1699999999,"ADDRESS":"武聖路１１４巷３號","OBJECTID":344083},"geometry":{"x":167059.60000000149,"y":2545239.1699999999}},{"attributes":{"ID":344093,"DIS_CODE":0,"TOWNNAME":"北區","LI":"大豐里","LIN":"5鄰","STREET":"武聖路","SECT":" ","MAREA":" ","LANE":"１１４巷","ALLEY":" ","HOUSE_NO":"５號","E_COORD97":167061.01999999999,"N_COORD97":2545242.6499999999,"ADDRESS":"武聖路１１４巷５號","OBJECTID":344084},"geometry":{"x":167061.01999999955,"y":2545242.6500000004}},{"attributes":{"ID":344094,"DIS_CODE":0,"TOWNNAME":"北區","LI":"大豐里","LIN":"5鄰","STREET":"武聖路","SECT":" ","MAREA":" ","LANE":"１６０巷","ALLEY":" ","HOUSE_NO":"２號","E_COORD97":166965.69,"N_COORD97":2545283.77,"ADDRESS":"武聖路１６０巷２號","OBJECTID":344085},"geometry":{"x":166965.69000000041,"y":2545283.7700000014}},{"attributes":{"ID":344095,"DIS_CODE":0,"TOWNNAME":"北區","LI":"大豐里","LIN":"5鄰","STREET":"武聖路","SECT":" ","MAREA":" ","LANE":"１６０巷","ALLEY":" ","HOUSE_NO":"４號","E_COORD97":166967.57000000001,"N_COORD97":2545288.1499999999,"ADDRESS":"武聖路１６０巷４號","OBJECTID":344086},"geometry":{"x":166967.57000000123,"y":2545288.1500000041}},{"attributes":{"ID":344096,"DIS_CODE":0,"TOWNNAME":"北區","LI":"大豐里","LIN":"5鄰","STREET":"武聖路","SECT":" ","MAREA":" ","LANE":"１６０巷","ALLEY":" ","HOUSE_NO":"６號","E_COORD97":166969.69,"N_COORD97":2545292.02,"ADDRESS":"武聖路１６０巷６號","OBJECTID":344087},"geometry":{"x":166969.69000000041,"y":2545292.0200000014}},{"attributes":{"ID":344097,"DIS_CODE":0,"TOWNNAME":"南區","LI":"大忠里","LIN":"35鄰","STREET":"中華南路","SECT":"一段","MAREA":" ","LANE":"１４２巷","ALLEY":" ","HOUSE_NO":"２９號","E_COORD97":169102.73000000001,"N_COORD97":2541378.3300000001,"ADDRESS":"中華南路一段１４２巷２９號","OBJECTID":344088},"geometry":{"x":169102.73000000138,"y":2541378.3300000019}},{"attributes":{"ID":344098,"DIS_CODE":0,"TOWNNAME":"東區","LI":"德光里","LIN":"8鄰","STREET":"崇明路","SECT":" ","MAREA":" ","LANE":" ","ALLEY":" ","HOUSE_NO":"１９３號六樓","E_COORD97":169985.69,"N_COORD97":2542095.5600000001,"ADDRESS":"崇明路１９３號六樓","OBJECTID":344089},"geometry":{"x":169985.69000000227,"y":2542095.5600000024}},{"attributes":{"ID":344099,"DIS_CODE":0,"TOWNNAME":"東區","LI":"德光里","LIN":"8鄰","STREET":"崇明路","SECT":" ","MAREA":" ","LANE":" ","ALLEY":" ","HOUSE_NO":"１９３號六樓之１","E_COORD97":169985.69,"N_COORD97":2542095.5600000001,"ADDRESS":"崇明路１９３號六樓之１","OBJECTID":344090},"geometry":{"x":169985.69000000227,"y":2542095.5600000024}},{"attributes":{"ID":344100,"DIS_CODE":0,"TOWNNAME":"東區","LI":"德光里","LIN":"8鄰","STREET":"崇明路","SECT":" ","MAREA":" ","LANE":" ","ALLEY":" ","HOUSE_NO":"１９３號四樓","E_COORD97":169985.69,"N_COORD97":2542095.5600000001,"ADDRESS":"崇明路１９３號四樓","OBJECTID":344091},"geometry":{"x":169985.69000000227,"y":2542095.5600000024}},{"attributes":{"ID":344101,"DIS_CODE":0,"TOWNNAME":"東區","LI":"德光里","LIN":"8鄰","STREET":"崇明路","SECT":" ","MAREA":" ","LANE":" ","ALLEY":" ","HOUSE_NO":"１９３號四樓之１","E_COORD97":169985.69,"N_COORD97":2542095.5600000001,"ADDRESS":"崇明路１９３號四樓之１","OBJECTID":344092},"geometry":{"x":169985.69000000227,"y":2542095.5600000024}},{"attributes":{"ID":344102,"DIS_CODE":0,"TOWNNAME":"七股區","LI":"大潭里","LIN":"18鄰","STREET":" ","SECT":" ","MAREA":"頂潭","LANE":" ","ALLEY":" ","HOUSE_NO":"２７號","E_COORD97":160956.51000000001,"N_COORD97":2565913.79,"ADDRESS":"頂潭２７號","OBJECTID":344093},"geometry":{"x":160956.51000000071,"y":2565913.790000001}},{"attributes":{"ID":344103,"DIS_CODE":0,"TOWNNAME":"東區","LI":"德光里","LIN":"8鄰","STREET":"崇明路","SECT":" ","MAREA":" ","LANE":" ","ALLEY":" ","HOUSE_NO":"２０１號七樓","E_COORD97":170007.70000000001,"N_COORD97":2542069.52,"ADDRESS":"崇明路２０１號七樓","OBJECTID":344094},"geometry":{"x":170007.70000000112,"y":2542069.5199999996}},{"attributes":{"ID":344104,"DIS_CODE":0,"TOWNNAME":"東區","LI":"德光里","LIN":"8鄰","STREET":"崇明路","SECT":" ","MAREA":" ","LANE":" ","ALLEY":" ","HOUSE_NO":"２０１號七樓之１","E_COORD97":170007.70000000001,"N_COORD97":2542069.52,"ADDRESS":"崇明路２０１號七樓之１","OBJECTID":344095},"geometry":{"x":170007.70000000112,"y":2542069.5199999996}},{"attributes":{"ID":344105,"DIS_CODE":0,"TOWNNAME":"東區","LI":"德光里","LIN":"8鄰","STREET":"崇明路","SECT":" ","MAREA":" ","LANE":" ","ALLEY":" ","HOUSE_NO":"２０１號七樓之２","E_COORD97":170007.70000000001,"N_COORD97":2542069.52,"ADDRESS":"崇明路２０１號七樓之２","OBJECTID":344096},"geometry":{"x":170007.70000000112,"y":2542069.5199999996}},{"attributes":{"ID":344106,"DIS_CODE":0,"TOWNNAME":"東區","LI":"德光里","LIN":"8鄰","STREET":"崇明路","SECT":" ","MAREA":" ","LANE":" ","ALLEY":" ","HOUSE_NO":"２０１號七樓之３","E_COORD97":170007.70000000001,"N_COORD97":2542069.52,"ADDRESS":"崇明路２０１號七樓之３","OBJECTID":344097},"geometry":{"x":170007.70000000112,"y":2542069.5199999996}},{"attributes":{"ID":344107,"DIS_CODE":0,"TOWNNAME":"東區","LI":"德光里","LIN":"8鄰","STREET":"崇明路","SECT":" ","MAREA":" ","LANE":" ","ALLEY":" ","HOUSE_NO":"２０１號九樓","E_COORD97":170007.70000000001,"N_COORD97":2542069.52,"ADDRESS":"崇明路２０１號九樓","OBJECTID":344098},"geometry":{"x":170007.70000000112,"y":2542069.5199999996}},{"attributes":{"ID":344108,"DIS_CODE":0,"TOWNNAME":"東區","LI":"德光里","LIN":"8鄰","STREET":"崇明路","SECT":" ","MAREA":" ","LANE":" ","ALLEY":" ","HOUSE_NO":"２０１號九樓之１","E_COORD97":170007.70000000001,"N_COORD97":2542069.52,"ADDRESS":"崇明路２０１號九樓之１","OBJECTID":344099},"geometry":{"x":170007.70000000112,"y":2542069.5199999996}},{"attributes":{"ID":344109,"DIS_CODE":0,"TOWNNAME":"北區","LI":"六甲里","LIN":"5鄰","STREET":"公園路","SECT":" ","MAREA":" ","LANE":"５６７巷","ALLEY":" ","HOUSE_NO":"３號","E_COORD97":169066.72,"N_COORD97":2545661.1299999999,"ADDRESS":"公園路５６７巷３號","OBJECTID":344100},"geometry":{"x":169066.72000000067,"y":2545661.1300000008}},{"attributes":{"ID":344110,"DIS_CODE":0,"TOWNNAME":"南區","LI":"大忠里","LIN":"35鄰","STREET":"中華南路","SECT":"一段","MAREA":" ","LANE":"１４２巷","ALLEY":" ","HOUSE_NO":"３１號","E_COORD97":169098.28,"N_COORD97":2541383.6499999999,"ADDRESS":"中華南路一段１４２巷３１號","OBJECTID":344101},"geometry":{"x":169098.28000000212,"y":2541383.6500000022}},{"attributes":{"ID":344111,"DIS_CODE":0,"TOWNNAME":"南區","LI":"大忠里","LIN":"35鄰","STREET":"中華南路","SECT":"一段","MAREA":" ","LANE":"１４２巷","ALLEY":" ","HOUSE_NO":"３３號","E_COORD97":169092.94,"N_COORD97":2541388.6699999999,"ADDRESS":"中華南路一段１４２巷３３號","OBJECTID":344102},"geometry":{"x":169092.94000000134,"y":2541388.6700000037}},{"attributes":{"ID":344112,"DIS_CODE":0,"TOWNNAME":"南區","LI":"大忠里","LIN":"35鄰","STREET":"中華南路","SECT":"一段","MAREA":" ","LANE":"１４２巷","ALLEY":" ","HOUSE_NO":"３５號","E_COORD97":169087.14000000001,"N_COORD97":2541393,"ADDRESS":"中華南路一段１４２巷３５號","OBJECTID":344103},"geometry":{"x":169087.1400000006,"y":2541393}},{"attributes":{"ID":344113,"DIS_CODE":0,"TOWNNAME":"南區","LI":"大忠里","LIN":"35鄰","STREET":"中華南路","SECT":"一段","MAREA":" ","LANE":"１４２巷","ALLEY":" ","HOUSE_NO":"３７號","E_COORD97":169083.22,"N_COORD97":2541398.27,"ADDRESS":"中華南路一段１４２巷３７號","OBJECTID":344104},"geometry":{"x":169083.22000000067,"y":2541398.2700000014}},{"attributes":{"ID":344114,"DIS_CODE":0,"TOWNNAME":"南區","LI":"大忠里","LIN":"35鄰","STREET":"中華南路","SECT":"一段","MAREA":" ","LANE":"１４２巷","ALLEY":" ","HOUSE_NO":"３９號","E_COORD97":169078.91,"N_COORD97":2541403.75,"ADDRESS":"中華南路一段１４２巷３９號","OBJECTID":344105},"geometry":{"x":169078.91000000108,"y":2541403.75}},{"attributes":{"ID":344115,"DIS_CODE":0,"TOWNNAME":"南區","LI":"大忠里","LIN":"35鄰","STREET":"中華南路","SECT":"一段","MAREA":" ","LANE":"１４２巷","ALLEY":" ","HOUSE_NO":"４１號","E_COORD97":169074.59,"N_COORD97":2541408.6400000001,"ADDRESS":"中華南路一段１４２巷４１號","OBJECTID":344106},"geometry":{"x":169074.58999999985,"y":2541408.6400000006}},{"attributes":{"ID":344116,"DIS_CODE":0,"TOWNNAME":"南區","LI":"大忠里","LIN":"35鄰","STREET":"中華南路","SECT":"一段","MAREA":" ","LANE":"１４２巷","ALLEY":" ","HOUSE_NO":"４３號","E_COORD97":169068.51000000001,"N_COORD97":2541415.8700000001,"ADDRESS":"中華南路一段１４２巷４３號","OBJECTID":344107},"geometry":{"x":169068.50999999978,"y":2541415.8700000048}},{"attributes":{"ID":344117,"DIS_CODE":0,"TOWNNAME":"南區","LI":"大忠里","LIN":"35鄰","STREET":"中華南路","SECT":"一段","MAREA":" ","LANE":"１４２巷","ALLEY":" ","HOUSE_NO":"４５號","E_COORD97":169061.84,"N_COORD97":2541423.5,"ADDRESS":"中華南路一段１４２巷４５號","OBJECTID":344108},"geometry":{"x":169061.84000000171,"y":2541423.5}},{"attributes":{"ID":344118,"DIS_CODE":0,"TOWNNAME":"南區","LI":"大忠里","LIN":"35鄰","STREET":"中華南路","SECT":"一段","MAREA":" ","LANE":"１４２巷","ALLEY":" ","HOUSE_NO":"４７號","E_COORD97":169051.72,"N_COORD97":2541427.1200000001,"ADDRESS":"中華南路一段１４２巷４７號","OBJECTID":344109},"geometry":{"x":169051.71999999974,"y":2541427.120000001}},{"attributes":{"ID":344119,"DIS_CODE":0,"TOWNNAME":"南區","LI":"大忠里","LIN":"35鄰","STREET":"中華南路","SECT":"一段","MAREA":" ","LANE":"１４２巷","ALLEY":" ","HOUSE_NO":"４９號","E_COORD97":169047.87,"N_COORD97":2541432.3300000001,"ADDRESS":"中華南路一段１４２巷４９號","OBJECTID":344110},"geometry":{"x":169047.87000000011,"y":2541432.3300000019}},{"attributes":{"ID":344120,"DIS_CODE":0,"TOWNNAME":"南區","LI":"大忠里","LIN":"35鄰","STREET":"中華南路","SECT":"一段","MAREA":" ","LANE":"１４２巷","ALLEY":" ","HOUSE_NO":"５０號","E_COORD97":169123.03,"N_COORD97":2541389.7999999998,"ADDRESS":"中華南路一段１４２巷５０號","OBJECTID":344111},"geometry":{"x":169123.03000000026,"y":2541389.8000000026}},{"attributes":{"ID":344121,"DIS_CODE":0,"TOWNNAME":"南區","LI":"大忠里","LIN":"35鄰","STREET":"中華南路","SECT":"一段","MAREA":" ","LANE":"１４２巷","ALLEY":" ","HOUSE_NO":"５１號","E_COORD97":169043.75,"N_COORD97":2541436.71,"ADDRESS":"中華南路一段１４２巷５１號","OBJECTID":344112},"geometry":{"x":169043.75,"y":2541436.709999999}},{"attributes":{"ID":344122,"DIS_CODE":0,"TOWNNAME":"南區","LI":"大忠里","LIN":"35鄰","STREET":"中華南路","SECT":"一段","MAREA":" ","LANE":"１４２巷","ALLEY":" ","HOUSE_NO":"５２號","E_COORD97":169118.85000000001,"N_COORD97":2541394.21,"ADDRESS":"中華南路一段１４２巷５２號","OBJECTID":344113},"geometry":{"x":169118.84999999963,"y":2541394.2100000028}},{"attributes":{"ID":344123,"DIS_CODE":0,"TOWNNAME":"南區","LI":"大忠里","LIN":"35鄰","STREET":"中華南路","SECT":"一段","MAREA":" ","LANE":"１４２巷","ALLEY":" ","HOUSE_NO":"５３號","E_COORD97":169040.72,"N_COORD97":2541439.4500000002,"ADDRESS":"中華南路一段１４２巷５３號","OBJECTID":344114},"geometry":{"x":169040.72000000067,"y":2541439.4499999993}},{"attributes":{"ID":344124,"DIS_CODE":0,"TOWNNAME":"南區","LI":"大忠里","LIN":"35鄰","STREET":"中華南路","SECT":"一段","MAREA":" ","LANE":"１４２巷","ALLEY":" ","HOUSE_NO":"５６號","E_COORD97":169109.89000000001,"N_COORD97":2541403.1600000001,"ADDRESS":"中華南路一段１４２巷５６號","OBJECTID":344115},"geometry":{"x":169109.88999999966,"y":2541403.160000002}},{"attributes":{"ID":344125,"DIS_CODE":0,"TOWNNAME":"南區","LI":"大忠里","LIN":"35鄰","STREET":"中華南路","SECT":"一段","MAREA":" ","LANE":"１４２巷","ALLEY":" ","HOUSE_NO":"５７號","E_COORD97":169035.23000000001,"N_COORD97":2541445.75,"ADDRESS":"中華南路一段１４２巷５７號","OBJECTID":344116},"geometry":{"x":169035.23000000138,"y":2541445.7500000037}},{"attributes":{"ID":344126,"DIS_CODE":0,"TOWNNAME":"南區","LI":"大忠里","LIN":"35鄰","STREET":"中華南路","SECT":"一段","MAREA":" ","LANE":"１４２巷","ALLEY":" ","HOUSE_NO":"５８號","E_COORD97":169105.20999999999,"N_COORD97":2541407.8399999999,"ADDRESS":"中華南路一段１４２巷５８號","OBJECTID":344117},"geometry":{"x":169105.21000000183,"y":2541407.8400000036}},{"attributes":{"ID":344127,"DIS_CODE":0,"TOWNNAME":"南區","LI":"大忠里","LIN":"35鄰","STREET":"中華南路","SECT":"一段","MAREA":" ","LANE":"１４２巷","ALLEY":" ","HOUSE_NO":"６０號","E_COORD97":169102,"N_COORD97":2541412.2599999998,"ADDRESS":"中華南路一段１４２巷６０號","OBJECTID":344118},"geometry":{"x":169102.00000000093,"y":2541412.2600000016}},{"attributes":{"ID":344128,"DIS_CODE":0,"TOWNNAME":"南區","LI":"大忠里","LIN":"35鄰","STREET":"中華南路","SECT":"一段","MAREA":" ","LANE":"１４２巷","ALLEY":" ","HOUSE_NO":"６２號","E_COORD97":169097.54000000001,"N_COORD97":2541417.3700000001,"ADDRESS":"中華南路一段１４２巷６２號","OBJECTID":344119},"geometry":{"x":169097.54000000004,"y":2541417.370000001}},{"attributes":{"ID":344129,"DIS_CODE":0,"TOWNNAME":"佳里區","LI":"安西里","LIN":"1鄰","STREET":"文化路","SECT":" ","MAREA":" ","LANE":" ","ALLEY":" ","HOUSE_NO":"２３０號","E_COORD97":165662.72,"N_COORD97":2562607.71,"ADDRESS":"文化路２３０號","OBJECTID":344120},"geometry":{"x":165662.72000000067,"y":2562607.7100000028}},{"attributes":{"ID":344130,"DIS_CODE":0,"TOWNNAME":"北區","LI":"文元里","LIN":"5鄰","STREET":"文賢路","SECT":" ","MAREA":" ","LANE":"１１２２巷","ALLEY":" ","HOUSE_NO":"５１號","E_COORD97":167487.59,"N_COORD97":2546375.8399999999,"ADDRESS":"文賢路１１２２巷５１號","OBJECTID":344121},"geometry":{"x":167487.59000000078,"y":2546375.8400000017}},{"attributes":{"ID":344131,"DIS_CODE":0,"TOWNNAME":"北區","LI":"文元里","LIN":"5鄰","STREET":"文賢路","SECT":" ","MAREA":" ","LANE":"１１２２巷","ALLEY":" ","HOUSE_NO":"５３號","E_COORD97":167492.10000000001,"N_COORD97":2546377.9199999999,"ADDRESS":"文賢路１１２２巷５３號","OBJECTID":344122},"geometry":{"x":167492.10000000056,"y":2546377.9200000018}},{"attributes":{"ID":344132,"DIS_CODE":0,"TOWNNAME":"北區","LI":"文元里","LIN":"5鄰","STREET":"文賢路","SECT":" ","MAREA":" ","LANE":"１１２２巷","ALLEY":" ","HOUSE_NO":"５５號","E_COORD97":167495.92000000001,"N_COORD97":2546379.6499999999,"ADDRESS":"文賢路１１２２巷５５號","OBJECTID":344123},"geometry":{"x":167495.91999999993,"y":2546379.6500000004}},{"attributes":{"ID":344133,"DIS_CODE":0,"TOWNNAME":"北區","LI":"文元里","LIN":"5鄰","STREET":"文賢路","SECT":" ","MAREA":" ","LANE":"１１２２巷","ALLEY":" ","HOUSE_NO":"５７號","E_COORD97":167500.78,"N_COORD97":2546381.3799999999,"ADDRESS":"文賢路１１２２巷５７號","OBJECTID":344124},"geometry":{"x":167500.78000000026,"y":2546381.3800000008}},{"attributes":{"ID":344134,"DIS_CODE":0,"TOWNNAME":"北區","LI":"正風里","LIN":"5鄰","STREET":"公園路","SECT":" ","MAREA":" ","LANE":"９３４巷","ALLEY":" ","HOUSE_NO":"５號","E_COORD97":169435.07999999999,"N_COORD97":2546206.23,"ADDRESS":"公園路９３４巷５號","OBJECTID":344125},"geometry":{"x":169435.08000000194,"y":2546206.2300000004}},{"attributes":{"ID":344135,"DIS_CODE":0,"TOWNNAME":"北區","LI":"正風里","LIN":"5鄰","STREET":"公園路","SECT":" ","MAREA":" ","LANE":"９３４巷","ALLEY":" ","HOUSE_NO":"７號","E_COORD97":169438.39999999999,"N_COORD97":2546204.6899999999,"ADDRESS":"公園路９３４巷７號","OBJECTID":344126},"geometry":{"x":169438.40000000224,"y":2546204.6899999995}},{"attributes":{"ID":344136,"DIS_CODE":0,"TOWNNAME":"北區","LI":"正風里","LIN":"5鄰","STREET":"公園路","SECT":" ","MAREA":" ","LANE":"９３４巷","ALLEY":" ","HOUSE_NO":"９號","E_COORD97":169441.73000000001,"N_COORD97":2546203.3100000001,"ADDRESS":"公園路９３４巷９號","OBJECTID":344127},"geometry":{"x":169441.73000000138,"y":2546203.3100000024}},{"attributes":{"ID":344137,"DIS_CODE":0,"TOWNNAME":"北區","LI":"正風里","LIN":"5鄰","STREET":"公園路","SECT":" ","MAREA":" ","LANE":"９３４巷","ALLEY":" ","HOUSE_NO":"１１號","E_COORD97":169445.20999999999,"N_COORD97":2546202.5800000001,"ADDRESS":"公園路９３４巷１１號","OBJECTID":344128},"geometry":{"x":169445.20999999996,"y":2546202.5800000001}},{"attributes":{"ID":344138,"DIS_CODE":0,"TOWNNAME":"北區","LI":"正風里","LIN":"5鄰","STREET":"公園路","SECT":" ","MAREA":" ","LANE":"９３４巷","ALLEY":" ","HOUSE_NO":"１３號","E_COORD97":169448.85999999999,"N_COORD97":2546200.8799999999,"ADDRESS":"公園路９３４巷１３號","OBJECTID":344129},"geometry":{"x":169448.86000000127,"y":2546200.8800000008}},{"attributes":{"ID":344139,"DIS_CODE":0,"TOWNNAME":"北區","LI":"正風里","LIN":"5鄰","STREET":"公園路","SECT":" ","MAREA":" ","LANE":"９３４巷","ALLEY":" ","HOUSE_NO":"１５號","E_COORD97":169451.04999999999,"N_COORD97":2546199.8300000001,"ADDRESS":"公園路９３４巷１５號","OBJECTID":344130},"geometry":{"x":169451.05000000075,"y":2546199.8300000019}},{"attributes":{"ID":344140,"DIS_CODE":0,"TOWNNAME":"北區","LI":"正風里","LIN":"5鄰","STREET":"公園路","SECT":" ","MAREA":" ","LANE":"９３４巷","ALLEY":" ","HOUSE_NO":"１７號","E_COORD97":169453.57000000001,"N_COORD97":2546198.77,"ADDRESS":"公園路９３４巷１７號","OBJECTID":344131},"geometry":{"x":169453.5700000003,"y":2546198.7700000033}},{"attributes":{"ID":344141,"DIS_CODE":0,"TOWNNAME":"南區","LI":"大忠里","LIN":"35鄰","STREET":"中華南路","SECT":"一段","MAREA":" ","LANE":"１４２巷","ALLEY":" ","HOUSE_NO":"６４號","E_COORD97":169093.57999999999,"N_COORD97":2541421.98,"ADDRESS":"中華南路一段１４２巷６４號","OBJECTID":344132},"geometry":{"x":169093.58000000007,"y":2541421.9800000023}},{"attributes":{"ID":344142,"DIS_CODE":0,"TOWNNAME":"南區","LI":"大忠里","LIN":"35鄰","STREET":"中華南路","SECT":"一段","MAREA":" ","LANE":"１４２巷","ALLEY":" ","HOUSE_NO":"６６號","E_COORD97":169089.12,"N_COORD97":2541426.2599999998,"ADDRESS":"中華南路一段１４２巷６６號","OBJECTID":344133},"geometry":{"x":169089.12000000197,"y":2541426.2600000016}},{"attributes":{"ID":344143,"DIS_CODE":0,"TOWNNAME":"南區","LI":"大忠里","LIN":"35鄰","STREET":"中華南路","SECT":"一段","MAREA":" ","LANE":"１４２巷","ALLEY":" ","HOUSE_NO":"６８號","E_COORD97":169085.64999999999,"N_COORD97":2541431.3599999999,"ADDRESS":"中華南路一段１４２巷６８號","OBJECTID":344134},"geometry":{"x":169085.65000000224,"y":2541431.3600000013}},{"attributes":{"ID":344144,"DIS_CODE":0,"TOWNNAME":"南區","LI":"大忠里","LIN":"35鄰","STREET":"中華南路","SECT":"一段","MAREA":" ","LANE":"１４２巷","ALLEY":" ","HOUSE_NO":"７２號","E_COORD97":169077.14999999999,"N_COORD97":2541440.5800000001,"ADDRESS":"中華南路一段１４２巷７２號","OBJECTID":344135},"geometry":{"x":169077.14999999944,"y":2541440.5800000038}},{"attributes":{"ID":344145,"DIS_CODE":0,"TOWNNAME":"南區","LI":"大忠里","LIN":"35鄰","STREET":"中華南路","SECT":"一段","MAREA":" ","LANE":"１４２巷","ALLEY":" ","HOUSE_NO":"７４號","E_COORD97":169073.98000000001,"N_COORD97":2541444.48,"ADDRESS":"中華南路一段１４２巷７４號","OBJECTID":344136},"geometry":{"x":169073.98000000138,"y":2541444.4800000004}},{"attributes":{"ID":344146,"DIS_CODE":0,"TOWNNAME":"南區","LI":"大忠里","LIN":"35鄰","STREET":"中華南路","SECT":"一段","MAREA":" ","LANE":"１４２巷","ALLEY":" ","HOUSE_NO":"７６號","E_COORD97":169069.85999999999,"N_COORD97":2541448.3599999999,"ADDRESS":"中華南路一段１４２巷７６號","OBJECTID":344137},"geometry":{"x":169069.86000000034,"y":2541448.3600000013}},{"attributes":{"ID":344147,"DIS_CODE":0,"TOWNNAME":"南區","LI":"大忠里","LIN":"35鄰","STREET":"中華南路","SECT":"一段","MAREA":" ","LANE":"１４２巷","ALLEY":" ","HOUSE_NO":"７８號","E_COORD97":169066.66,"N_COORD97":2541452.0099999998,"ADDRESS":"中華南路一段１４２巷７８號","OBJECTID":344138},"geometry":{"x":169066.65999999922,"y":2541452.0100000016}},{"attributes":{"ID":344148,"DIS_CODE":0,"TOWNNAME":"南區","LI":"大忠里","LIN":"35鄰","STREET":"中華南路","SECT":"一段","MAREA":" ","LANE":"１４２巷","ALLEY":" ","HOUSE_NO":"８０號","E_COORD97":169064.14000000001,"N_COORD97":2541455.6600000001,"ADDRESS":"中華南路一段１４２巷８０號","OBJECTID":344139},"geometry":{"x":169064.13999999966,"y":2541455.6600000001}},{"attributes":{"ID":344149,"DIS_CODE":0,"TOWNNAME":"南區","LI":"大忠里","LIN":"35鄰","STREET":"中華南路","SECT":"一段","MAREA":" ","LANE":"１４２巷","ALLEY":" ","HOUSE_NO":"８２號","E_COORD97":169061.62,"N_COORD97":2541458.8599999999,"ADDRESS":"中華南路一段１４２巷８２號","OBJECTID":344140},"geometry":{"x":169061.62000000011,"y":2541458.8600000013}},{"attributes":{"ID":344150,"DIS_CODE":0,"TOWNNAME":"南區","LI":"大忠里","LIN":"35鄰","STREET":"中華南路","SECT":"一段","MAREA":" ","LANE":"１４２巷","ALLEY":" ","HOUSE_NO":"８４號","E_COORD97":169058.42000000001,"N_COORD97":2541462.7400000002,"ADDRESS":"中華南路一段１４２巷８４號","OBJECTID":344141},"geometry":{"x":169058.42000000086,"y":2541462.7400000002}},{"attributes":{"ID":344151,"DIS_CODE":0,"TOWNNAME":"東區","LI":"德光里","LIN":"8鄰","STREET":"崇明路","SECT":" ","MAREA":" ","LANE":" ","ALLEY":" ","HOUSE_NO":"２０１號九樓之２","E_COORD97":170007.70000000001,"N_COORD97":2542069.52,"ADDRESS":"崇明路２０１號九樓之２","OBJECTID":344142},"geometry":{"x":170007.70000000112,"y":2542069.5199999996}},{"attributes":{"ID":344152,"DIS_CODE":0,"TOWNNAME":"東區","LI":"德光里","LIN":"8鄰","STREET":"崇明路","SECT":" ","MAREA":" ","LANE":" ","ALLEY":" ","HOUSE_NO":"２０１號九樓之３","E_COORD97":170007.70000000001,"N_COORD97":2542069.52,"ADDRESS":"崇明路２０１號九樓之３","OBJECTID":344143},"geometry":{"x":170007.70000000112,"y":2542069.5199999996}},{"attributes":{"ID":344153,"DIS_CODE":0,"TOWNNAME":"東區","LI":"德光里","LIN":"8鄰","STREET":"崇明路","SECT":" ","MAREA":" ","LANE":" ","ALLEY":" ","HOUSE_NO":"２０１號二樓之２","E_COORD97":170007.70000000001,"N_COORD97":2542069.52,"ADDRESS":"崇明路２０１號二樓之２","OBJECTID":344144},"geometry":{"x":170007.70000000112,"y":2542069.5199999996}},{"attributes":{"ID":344154,"DIS_CODE":0,"TOWNNAME":"東區","LI":"德光里","LIN":"8鄰","STREET":"崇明路","SECT":" ","MAREA":" ","LANE":" ","ALLEY":" ","HOUSE_NO":"２０１號二樓之３","E_COORD97":170007.70000000001,"N_COORD97":2542069.52,"ADDRESS":"崇明路２０１號二樓之３","OBJECTID":344145},"geometry":{"x":170007.70000000112,"y":2542069.5199999996}},{"attributes":{"ID":344155,"DIS_CODE":0,"TOWNNAME":"東區","LI":"德光里","LIN":"8鄰","STREET":"崇明路","SECT":" ","MAREA":" ","LANE":" ","ALLEY":" ","HOUSE_NO":"２０１號八樓","E_COORD97":170007.70000000001,"N_COORD97":2542069.52,"ADDRESS":"崇明路２０１號八樓","OBJECTID":344146},"geometry":{"x":170007.70000000112,"y":2542069.5199999996}},{"attributes":{"ID":344156,"DIS_CODE":0,"TOWNNAME":"東區","LI":"德光里","LIN":"8鄰","STREET":"崇明路","SECT":" ","MAREA":" ","LANE":" ","ALLEY":" ","HOUSE_NO":"２０１號八樓之１","E_COORD97":170007.70000000001,"N_COORD97":2542069.52,"ADDRESS":"崇明路２０１號八樓之１","OBJECTID":344147},"geometry":{"x":170007.70000000112,"y":2542069.5199999996}},{"attributes":{"ID":344157,"DIS_CODE":0,"TOWNNAME":"東區","LI":"德光里","LIN":"8鄰","STREET":"崇明路","SECT":" ","MAREA":" ","LANE":" ","ALLEY":" ","HOUSE_NO":"２０１號八樓之２","E_COORD97":170007.70000000001,"N_COORD97":2542069.52,"ADDRESS":"崇明路２０１號八樓之２","OBJECTID":344148},"geometry":{"x":170007.70000000112,"y":2542069.5199999996}},{"attributes":{"ID":344158,"DIS_CODE":0,"TOWNNAME":"東區","LI":"德光里","LIN":"8鄰","STREET":"崇明路","SECT":" ","MAREA":" ","LANE":" ","ALLEY":" ","HOUSE_NO":"２０１號八樓之３","E_COORD97":170007.70000000001,"N_COORD97":2542069.52,"ADDRESS":"崇明路２０１號八樓之３","OBJECTID":344149},"geometry":{"x":170007.70000000112,"y":2542069.5199999996}},{"attributes":{"ID":344159,"DIS_CODE":0,"TOWNNAME":"東區","LI":"德光里","LIN":"8鄰","STREET":"崇明路","SECT":" ","MAREA":" ","LANE":" ","ALLEY":" ","HOUSE_NO":"２０１號十一樓","E_COORD97":170007.70000000001,"N_COORD97":2542069.52,"ADDRESS":"崇明路２０１號十一樓","OBJECTID":344150},"geometry":{"x":170007.70000000112,"y":2542069.5199999996}},{"attributes":{"ID":344160,"DIS_CODE":0,"TOWNNAME":"東區","LI":"德光里","LIN":"8鄰","STREET":"崇明路","SECT":" ","MAREA":" ","LANE":" ","ALLEY":" ","HOUSE_NO":"２０１號十一樓之１","E_COORD97":170007.70000000001,"N_COORD97":2542069.52,"ADDRESS":"崇明路２０１號十一樓之１","OBJECTID":344151},"geometry":{"x":170007.70000000112,"y":2542069.5199999996}},{"attributes":{"ID":344161,"DIS_CODE":0,"TOWNNAME":"安平區","LI":"漁光里","LIN":"5鄰","STREET":"漁光路","SECT":" ","MAREA":" ","LANE":" ","ALLEY":" ","HOUSE_NO":"４６之１號","E_COORD97":163982.88621999999,"N_COORD97":2542030.4860999999,"ADDRESS":"漁光路４６之１號","OBJECTID":344152},"geometry":{"x":163982.88621999975,"y":2542030.4861029983}},{"attributes":{"ID":344162,"DIS_CODE":0,"TOWNNAME":"安平區","LI":"漁光里","LIN":"5鄰","STREET":"漁光路","SECT":" ","MAREA":" ","LANE":" ","ALLEY":" ","HOUSE_NO":"４６號之２","E_COORD97":163981.19096000001,"N_COORD97":2542035.3544299998,"ADDRESS":"漁光路４６號之２","OBJECTID":344153},"geometry":{"x":163981.19096000027,"y":2542035.3544299994}},{"attributes":{"ID":344163,"DIS_CODE":0,"TOWNNAME":"南區","LI":"大忠里","LIN":"35鄰","STREET":"中華南路","SECT":"一段","MAREA":" ","LANE":"１４２巷","ALLEY":" ","HOUSE_NO":"８６號","E_COORD97":169055.22,"N_COORD97":2541466.1600000001,"ADDRESS":"中華南路一段１４２巷８６號","OBJECTID":344154},"geometry":{"x":169055.21999999974,"y":2541466.1600000001}},{"attributes":{"ID":344164,"DIS_CODE":0,"TOWNNAME":"南區","LI":"大忠里","LIN":"35鄰","STREET":"中華南路","SECT":"一段","MAREA":" ","LANE":"１４２巷","ALLEY":" ","HOUSE_NO":"８８號","E_COORD97":169052.47,"N_COORD97":2541470.04,"ADDRESS":"中華南路一段１４２巷８８號","OBJECTID":344155},"geometry":{"x":169052.4700000016,"y":2541470.0400000028}},{"attributes":{"ID":344165,"DIS_CODE":0,"TOWNNAME":"歸仁區","LI":"許厝里","LIN":"35鄰","STREET":"和平南街","SECT":" ","MAREA":" ","LANE":"７１巷","ALLEY":" ","HOUSE_NO":"７號","E_COORD97":177848.82999999999,"N_COORD97":2540537.8199999998,"ADDRESS":"和平南街７１巷７號","OBJECTID":344156},"geometry":{"x":177848.83000000101,"y":2540537.8200000022}},{"attributes":{"ID":344166,"DIS_CODE":0,"TOWNNAME":"歸仁區","LI":"許厝里","LIN":"35鄰","STREET":"和平南街","SECT":" ","MAREA":" ","LANE":"７１巷","ALLEY":" ","HOUSE_NO":"１７號","E_COORD97":177868.57999999999,"N_COORD97":2540535.8199999998,"ADDRESS":"和平南街７１巷１７號","OBJECTID":344157},"geometry":{"x":177868.58000000194,"y":2540535.8200000003}},{"attributes":{"ID":344167,"DIS_CODE":0,"TOWNNAME":"歸仁區","LI":"許厝里","LIN":"35鄰","STREET":"公園路","SECT":" ","MAREA":" ","LANE":"１５６巷","ALLEY":" ","HOUSE_NO":"１６號","E_COORD97":177850.98000000001,"N_COORD97":2540510.8199999998,"ADDRESS":"公園路１５６巷１６號","OBJECTID":344158},"geometry":{"x":177850.97999999952,"y":2540510.8200000022}},{"attributes":{"ID":344168,"DIS_CODE":0,"TOWNNAME":"歸仁區","LI":"許厝里","LIN":"35鄰","STREET":"和平南街","SECT":" ","MAREA":" ","LANE":"７１巷","ALLEY":" ","HOUSE_NO":"２１號","E_COORD97":177877.78,"N_COORD97":2540534.8199999998,"ADDRESS":"和平南街７１巷２１號","OBJECTID":344159},"geometry":{"x":177877.78000000212,"y":2540534.8200000022}},{"attributes":{"ID":344169,"DIS_CODE":0,"TOWNNAME":"新營區","LI":"埤寮里","LIN":"5鄰","STREET":" ","SECT":" ","MAREA":"埤寮","LANE":" ","ALLEY":" ","HOUSE_NO":"８之１３號","E_COORD97":180184.92999999999,"N_COORD97":2581053.71,"ADDRESS":"埤寮８之１３號","OBJECTID":344160},"geometry":{"x":180184.93000000156,"y":2581053.7100000046}},{"attributes":{"ID":344170,"DIS_CODE":0,"TOWNNAME":"新營區","LI":"五興里","LIN":"5鄰","STREET":" ","SECT":" ","MAREA":"五間厝","LANE":" ","ALLEY":" ","HOUSE_NO":"６０號","E_COORD97":175729.88,"N_COORD97":2574787.1800000002,"ADDRESS":"五間厝６０號","OBJECTID":344161},"geometry":{"x":175729.87999999989,"y":2574787.1800000034}},{"attributes":{"ID":344171,"DIS_CODE":0,"TOWNNAME":"新營區","LI":"太南里","LIN":"5鄰","STREET":" ","SECT":" ","MAREA":"太子宮","LANE":" ","ALLEY":" ","HOUSE_NO":"３２６之１７號","E_COORD97":176379.92999999999,"N_COORD97":2576929.1499999999,"ADDRESS":"太子宮３２６之１７號","OBJECTID":344162},"geometry":{"x":176379.93000000063,"y":2576929.1500000004}},{"attributes":{"ID":344172,"DIS_CODE":0,"TOWNNAME":"歸仁區","LI":"許厝里","LIN":"35鄰","STREET":"公園路","SECT":" ","MAREA":" ","LANE":"１５６巷","ALLEY":" ","HOUSE_NO":"１２號","E_COORD97":177848.88,"N_COORD97":2540502.8199999998,"ADDRESS":"公園路１５６巷１２號","OBJECTID":344163},"geometry":{"x":177848.87999999989,"y":2540502.8200000003}},{"attributes":{"ID":344173,"DIS_CODE":0,"TOWNNAME":"永康區","LI":"東橋里","LIN":"14鄰","STREET":"東橋一路","SECT":" ","MAREA":" ","LANE":"２５８巷","ALLEY":" ","HOUSE_NO":"６號","E_COORD97":171438.75,"N_COORD97":2546635.54,"ADDRESS":"東橋一路２５８巷６號","OBJECTID":344164},"geometry":{"x":171438.75,"y":2546635.5399999991}},{"attributes":{"ID":344174,"DIS_CODE":0,"TOWNNAME":"歸仁區","LI":"許厝里","LIN":"35鄰","STREET":"和平南街","SECT":" ","MAREA":" ","LANE":"７１巷","ALLEY":" ","HOUSE_NO":"１５號","E_COORD97":177865.48000000001,"N_COORD97":2540536.8199999998,"ADDRESS":"和平南街７１巷１５號","OBJECTID":344165},"geometry":{"x":177865.48000000045,"y":2540536.8199999984}},{"attributes":{"ID":344175,"DIS_CODE":0,"TOWNNAME":"歸仁區","LI":"後市里","LIN":"35鄰","STREET":"國光街","SECT":" ","MAREA":" ","LANE":"８９巷","ALLEY":" ","HOUSE_NO":"６號","E_COORD97":177265.48999999999,"N_COORD97":2540983.7400000002,"ADDRESS":"國光街８９巷６號","OBJECTID":344166},"geometry":{"x":177265.49000000022,"y":2540983.7400000002}},{"attributes":{"ID":344176,"DIS_CODE":0,"TOWNNAME":"歸仁區","LI":"許厝里","LIN":"35鄰","STREET":"公園路","SECT":" ","MAREA":" ","LANE":"１５６巷","ALLEY":" ","HOUSE_NO":"１０號","E_COORD97":177848.88,"N_COORD97":2540499.8199999998,"ADDRESS":"公園路１５６巷１０號","OBJECTID":344167},"geometry":{"x":177848.87999999989,"y":2540499.820000004}},{"attributes":{"ID":344177,"DIS_CODE":0,"TOWNNAME":"歸仁區","LI":"許厝里","LIN":"35鄰","STREET":"和平南街","SECT":" ","MAREA":" ","LANE":"７１巷","ALLEY":" ","HOUSE_NO":"１９號","E_COORD97":177873.67999999999,"N_COORD97":2540535.8199999998,"ADDRESS":"和平南街７１巷１９號","OBJECTID":344168},"geometry":{"x":177873.6799999997,"y":2540535.8200000003}},{"attributes":{"ID":344178,"DIS_CODE":0,"TOWNNAME":"歸仁區","LI":"許厝里","LIN":"35鄰","STREET":"公園路","SECT":" ","MAREA":" ","LANE":"１５６巷","ALLEY":" ","HOUSE_NO":"２６號","E_COORD97":177854.17999999999,"N_COORD97":2540527.8199999998,"ADDRESS":"公園路１５６巷２６號","OBJECTID":344169},"geometry":{"x":177854.18000000063,"y":2540527.8200000022}},{"attributes":{"ID":344179,"DIS_CODE":0,"TOWNNAME":"歸仁區","LI":"許厝里","LIN":"35鄰","STREET":"和平南街","SECT":" ","MAREA":" ","LANE":"７１巷","ALLEY":" ","HOUSE_NO":"９號","E_COORD97":177852.92999999999,"N_COORD97":2540537.8199999998,"ADDRESS":"和平南街７１巷９號","OBJECTID":344170},"geometry":{"x":177852.93000000063,"y":2540537.8200000022}},{"attributes":{"ID":344180,"DIS_CODE":0,"TOWNNAME":"新營區","LI":"太南里","LIN":"5鄰","STREET":" ","SECT":" ","MAREA":"太子宮","LANE":" ","ALLEY":" ","HOUSE_NO":"３２２號","E_COORD97":176361.20000000001,"N_COORD97":2576797.3900000001,"ADDRESS":"太子宮３２２號","OBJECTID":344171},"geometry":{"x":176361.20000000112,"y":2576797.3900000025}},{"attributes":{"ID":344181,"DIS_CODE":0,"TOWNNAME":"歸仁區","LI":"後市里","LIN":"35鄰","STREET":"國光街","SECT":" ","MAREA":" ","LANE":"８９巷","ALLEY":" ","HOUSE_NO":"８號","E_COORD97":177266.59,"N_COORD97":2540987.7400000002,"ADDRESS":"國光街８９巷８號","OBJECTID":344172},"geometry":{"x":177266.59000000171,"y":2540987.7400000002}},{"attributes":{"ID":344182,"DIS_CODE":0,"TOWNNAME":"東區","LI":"德光里","LIN":"8鄰","STREET":"崇明路","SECT":" ","MAREA":" ","LANE":" ","ALLEY":" ","HOUSE_NO":"２０１號十一樓之２","E_COORD97":170007.70000000001,"N_COORD97":2542069.52,"ADDRESS":"崇明路２０１號十一樓之２","OBJECTID":344173},"geometry":{"x":170007.70000000112,"y":2542069.5199999996}},{"attributes":{"ID":344183,"DIS_CODE":0,"TOWNNAME":"安南區","LI":"長安里","LIN":"8鄰","STREET":"長溪路","SECT":"三段","MAREA":" ","LANE":" ","ALLEY":" ","HOUSE_NO":"４１７號","E_COORD97":167617.20000000001,"N_COORD97":2552063.9300000002,"ADDRESS":"長溪路三段４１７號","OBJECTID":344174},"geometry":{"x":167617.20000000205,"y":2552063.9300000016}},{"attributes":{"ID":344184,"DIS_CODE":0,"TOWNNAME":"新營區","LI":"太北里","LIN":"5鄰","STREET":" ","SECT":" ","MAREA":"太子宮","LANE":" ","ALLEY":" ","HOUSE_NO":"４２之４號","E_COORD97":175784.66,"N_COORD97":2577247.73,"ADDRESS":"太子宮４２之４號","OBJECTID":344175},"geometry":{"x":175784.65999999922,"y":2577247.7300000004}},{"attributes":{"ID":344185,"DIS_CODE":0,"TOWNNAME":"新營區","LI":"埤寮里","LIN":"5鄰","STREET":" ","SECT":" ","MAREA":"埤寮","LANE":" ","ALLEY":" ","HOUSE_NO":"８之９號","E_COORD97":180200.89999999999,"N_COORD97":2581019.2999999998,"ADDRESS":"埤寮８之９號","OBJECTID":344176},"geometry":{"x":180200.90000000037,"y":2581019.3000000026}},{"attributes":{"ID":344186,"DIS_CODE":0,"TOWNNAME":"歸仁區","LI":"後市里","LIN":"35鄰","STREET":"國光街","SECT":" ","MAREA":" ","LANE":"８９巷","ALLEY":" ","HOUSE_NO":"１號","E_COORD97":177255.19,"N_COORD97":2540976.7400000002,"ADDRESS":"國光街８９巷１號","OBJECTID":344177},"geometry":{"x":177255.19000000134,"y":2540976.7400000002}},{"attributes":{"ID":344187,"DIS_CODE":0,"TOWNNAME":"歸仁區","LI":"許厝里","LIN":"35鄰","STREET":"公園路","SECT":" ","MAREA":" ","LANE":"１５６巷","ALLEY":" ","HOUSE_NO":"２號","E_COORD97":177846.53,"N_COORD97":2540489.8199999998,"ADDRESS":"公園路１５６巷２號","OBJECTID":344178},"geometry":{"x":177846.53000000026,"y":2540489.820000004}},{"attributes":{"ID":344188,"DIS_CODE":0,"TOWNNAME":"永康區","LI":"埔園里","LIN":"31鄰","STREET":"永大路","SECT":"三段","MAREA":" ","LANE":"５１１巷","ALLEY":" ","HOUSE_NO":"２號","E_COORD97":173955.28,"N_COORD97":2548902.98,"ADDRESS":"永大路三段５１１巷２號","OBJECTID":344179},"geometry":{"x":173955.28000000119,"y":2548902.9800000004}},{"attributes":{"ID":344189,"DIS_CODE":0,"TOWNNAME":"歸仁區","LI":"南保里","LIN":"35鄰","STREET":"中山路","SECT":"三段","MAREA":" ","LANE":"１００巷","ALLEY":" ","HOUSE_NO":"６９號","E_COORD97":176753.16,"N_COORD97":2540971.25,"ADDRESS":"中山路三段１００巷６９號","OBJECTID":344180},"geometry":{"x":176753.16000000108,"y":2540971.2500000037}},{"attributes":{"ID":344190,"DIS_CODE":0,"TOWNNAME":"永康區","LI":"烏竹里","LIN":"17鄰","STREET":"竹南街","SECT":" ","MAREA":" ","LANE":"５６巷","ALLEY":" ","HOUSE_NO":"１９號","E_COORD97":174426.85000000001,"N_COORD97":2548881.71,"ADDRESS":"竹南街５６巷１９號","OBJECTID":344181},"geometry":{"x":174426.85000000149,"y":2548881.7100000009}},{"attributes":{"ID":344191,"DIS_CODE":0,"TOWNNAME":"新營區","LI":"護鎮里","LIN":"5鄰","STREET":" ","SECT":" ","MAREA":"後鎮","LANE":" ","ALLEY":" ","HOUSE_NO":"５８號之１","E_COORD97":179106.13,"N_COORD97":2581167.3700000001,"ADDRESS":"後鎮５８號之１","OBJECTID":344182},"geometry":{"x":179106.13000000082,"y":2581167.370000001}},{"attributes":{"ID":344192,"DIS_CODE":0,"TOWNNAME":"新營區","LI":"埤寮里","LIN":"5鄰","STREET":" ","SECT":" ","MAREA":"埤寮","LANE":" ","ALLEY":" ","HOUSE_NO":"１３之１號","E_COORD97":180235.17999999999,"N_COORD97":2580880.7000000002,"ADDRESS":"埤寮１３之１號","OBJECTID":344183},"geometry":{"x":180235.1799999997,"y":2580880.6999999993}},{"attributes":{"ID":344193,"DIS_CODE":0,"TOWNNAME":"新營區","LI":"五興里","LIN":"5鄰","STREET":" ","SECT":" ","MAREA":"五間厝","LANE":" ","ALLEY":" ","HOUSE_NO":"５９號","E_COORD97":175740.04000000001,"N_COORD97":2574771.6200000001,"ADDRESS":"五間厝５９號","OBJECTID":344184},"geometry":{"x":175740.04000000097,"y":2574771.6199999992}},{"attributes":{"ID":344194,"DIS_CODE":0,"TOWNNAME":"新營區","LI":"埤寮里","LIN":"5鄰","STREET":" ","SECT":" ","MAREA":"埤寮","LANE":" ","ALLEY":" ","HOUSE_NO":"８之１０號","E_COORD97":180207.26000000001,"N_COORD97":2581018.1699999999,"ADDRESS":"埤寮８之１０號","OBJECTID":344185},"geometry":{"x":180207.26000000071,"y":2581018.1699999999}},{"attributes":{"ID":344195,"DIS_CODE":0,"TOWNNAME":"永康區","LI":"復國里","LIN":"35鄰","STREET":"復國一路","SECT":" ","MAREA":" ","LANE":"６７巷","ALLEY":" ","HOUSE_NO":"２之１號","E_COORD97":172677.04000000001,"N_COORD97":2544928.1800000002,"ADDRESS":"復國一路６７巷２之１號","OBJECTID":344186},"geometry":{"x":172677.04000000097,"y":2544928.1800000034}},{"attributes":{"ID":344196,"DIS_CODE":0,"TOWNNAME":"永康區","LI":"成功里","LIN":"35鄰","STREET":"中華一路","SECT":" ","MAREA":" ","LANE":"３９巷","ALLEY":" ","HOUSE_NO":"４０號","E_COORD97":171865.20999999999,"N_COORD97":2544873.5,"ADDRESS":"中華一路３９巷４０號","OBJECTID":344187},"geometry":{"x":171865.21000000089,"y":2544873.5000000019}},{"attributes":{"ID":344197,"DIS_CODE":0,"TOWNNAME":"永康區","LI":"成功里","LIN":"35鄰","STREET":"中華路","SECT":" ","MAREA":" ","LANE":"１５４巷","ALLEY":" ","HOUSE_NO":"９１號","E_COORD97":171838.16,"N_COORD97":2544904.4900000002,"ADDRESS":"中華路１５４巷９１號","OBJECTID":344188},"geometry":{"x":171838.16000000015,"y":2544904.4900000002}},{"attributes":{"ID":344198,"DIS_CODE":0,"TOWNNAME":"新營區","LI":"五興里","LIN":"5鄰","STREET":" ","SECT":" ","MAREA":"五間厝","LANE":" ","ALLEY":" ","HOUSE_NO":"５２號","E_COORD97":175720.60000000001,"N_COORD97":2574770.6099999999,"ADDRESS":"五間厝５２號","OBJECTID":344189},"geometry":{"x":175720.60000000056,"y":2574770.6100000013}},{"attributes":{"ID":344199,"DIS_CODE":0,"TOWNNAME":"新營區","LI":"太南里","LIN":"5鄰","STREET":" ","SECT":" ","MAREA":"太子宮","LANE":" ","ALLEY":" ","HOUSE_NO":"３２５號","E_COORD97":176313.44,"N_COORD97":2576861.8700000001,"ADDRESS":"太子宮３２５號","OBJECTID":344190},"geometry":{"x":176313.44000000041,"y":2576861.8699999992}},{"attributes":{"ID":344200,"DIS_CODE":0,"TOWNNAME":"新營區","LI":"太南里","LIN":"5鄰","STREET":" ","SECT":" ","MAREA":"太子宮","LANE":" ","ALLEY":" ","HOUSE_NO":"３２１之１１號","E_COORD97":176345.89000000001,"N_COORD97":2576747.6099999999,"ADDRESS":"太子宮３２１之１１號","OBJECTID":344191},"geometry":{"x":176345.8900000006,"y":2576747.6100000013}},{"attributes":{"ID":344201,"DIS_CODE":0,"TOWNNAME":"楠西區","LI":"灣丘里","LIN":"5鄰","STREET":" ","SECT":" ","MAREA":"灣丘","LANE":" ","ALLEY":" ","HOUSE_NO":"６０號之１","E_COORD97":200637,"N_COORD97":2564307.2999999998,"ADDRESS":"灣丘６０號之１","OBJECTID":344192},"geometry":{"x":200637,"y":2564307.3000000007}},{"attributes":{"ID":344202,"DIS_CODE":0,"TOWNNAME":"楠西區","LI":"龜丹里","LIN":"5鄰","STREET":" ","SECT":" ","MAREA":"龜丹","LANE":" ","ALLEY":" ","HOUSE_NO":"５８號之７","E_COORD97":199093.04999999999,"N_COORD97":2559335.2999999998,"ADDRESS":"龜丹５８號之７","OBJECTID":344193},"geometry":{"x":199093.05000000075,"y":2559335.3000000026}},{"attributes":{"ID":344203,"DIS_CODE":0,"TOWNNAME":"永康區","LI":"成功里","LIN":"35鄰","STREET":"中華一路","SECT":" ","MAREA":" ","LANE":"３９巷","ALLEY":" ","HOUSE_NO":"３８號","E_COORD97":171873.51000000001,"N_COORD97":2544877.5,"ADDRESS":"中華一路３９巷３８號","OBJECTID":344194},"geometry":{"x":171873.51000000071,"y":2544877.5}},{"attributes":{"ID":344204,"DIS_CODE":0,"TOWNNAME":"永康區","LI":"成功里","LIN":"35鄰","STREET":"中華路","SECT":" ","MAREA":" ","LANE":"１５４巷","ALLEY":" ","HOUSE_NO":"９３號","E_COORD97":171842.39999999999,"N_COORD97":2544903.4900000002,"ADDRESS":"中華路１５４巷９３號","OBJECTID":344195},"geometry":{"x":171842.4000000013,"y":2544903.4900000021}},{"attributes":{"ID":344205,"DIS_CODE":0,"TOWNNAME":"永康區","LI":"成功里","LIN":"35鄰","STREET":"中華路","SECT":" ","MAREA":" ","LANE":"１５４巷","ALLEY":" ","HOUSE_NO":"１０３號","E_COORD97":171863.07000000001,"N_COORD97":2544907.0299999998,"ADDRESS":"中華路１５４巷１０３號","OBJECTID":344196},"geometry":{"x":171863.07000000123,"y":2544907.0299999993}},{"attributes":{"ID":344206,"DIS_CODE":0,"TOWNNAME":"楠西區","LI":"灣丘里","LIN":"5鄰","STREET":" ","SECT":" ","MAREA":"灣丘","LANE":" ","ALLEY":" ","HOUSE_NO":"５１號之１６","E_COORD97":200475.66,"N_COORD97":2564226.2999999998,"ADDRESS":"灣丘５１號之１６","OBJECTID":344197},"geometry":{"x":200475.66000000108,"y":2564226.3000000045}},{"attributes":{"ID":344207,"DIS_CODE":0,"TOWNNAME":"永康區","LI":"成功里","LIN":"35鄰","STREET":"中華路","SECT":" ","MAREA":" ","LANE":"１５４巷","ALLEY":" ","HOUSE_NO":"１０１號","E_COORD97":171858.85000000001,"N_COORD97":2544906.5299999998,"ADDRESS":"中華路１５４巷１０１號","OBJECTID":344198},"geometry":{"x":171858.85000000056,"y":2544906.5299999993}},{"attributes":{"ID":344208,"DIS_CODE":0,"TOWNNAME":"楠西區","LI":"照興里","LIN":"5鄰","STREET":" ","SECT":" ","MAREA":"興北","LANE":" ","ALLEY":" ","HOUSE_NO":"７３號之２","E_COORD97":197470.64000000001,"N_COORD97":2566379.2999999998,"ADDRESS":"興北７３號之２","OBJECTID":344199},"geometry":{"x":197470.63999999966,"y":2566379.3000000045}},{"attributes":{"ID":344209,"DIS_CODE":0,"TOWNNAME":"永康區","LI":"成功里","LIN":"35鄰","STREET":"中華路","SECT":" ","MAREA":" ","LANE":"１５４巷","ALLEY":" ","HOUSE_NO":"９２號","E_COORD97":171829.14999999999,"N_COORD97":2544892.5600000001,"ADDRESS":"中華路１５４巷９２號","OBJECTID":344200},"geometry":{"x":171829.1500000013,"y":2544892.5600000042}}]}