{"displayFieldName":"TOWNNAME","fieldAliases":{"ID":"ID","DIS_CODE":"DIS_CODE","TOWNNAME":"TOWNNAME","LI":"LI","LIN":"LIN","STREET":"STREET","SECT":"SECT","MAREA":"MAREA","LANE":"LANE","ALLEY":"ALLEY","HOUSE_NO":"HOUSE_NO","E_COORD97":"E_COORD97","N_COORD97":"N_COORD97","ADDRESS":"ADDRESS","OBJECTID":"OBJECTID"},"geometryType":"esriGeometryPoint","spatialReference":{"wkid":102443,"latestWkid":3826},"fields":[{"name":"ID","type":"esriFieldTypeDouble","alias":"ID"},{"name":"DIS_CODE","type":"esriFieldTypeInteger","alias":"DIS_CODE"},{"name":"TOWNNAME","type":"esriFieldTypeString","alias":"TOWNNAME","length":8},{"name":"LI","type":"esriFieldTypeString","alias":"LI","length":8},{"name":"LIN","type":"esriFieldTypeString","alias":"LIN","length":12},{"name":"STREET","type":"esriFieldTypeString","alias":"STREET","length":20},{"name":"SECT","type":"esriFieldTypeString","alias":"SECT","length":8},{"name":"MAREA","type":"esriFieldTypeString","alias":"MAREA","length":12},{"name":"LANE","type":"esriFieldTypeString","alias":"LANE","length":10},{"name":"ALLEY","type":"esriFieldTypeString","alias":"ALLEY","length":10},{"name":"HOUSE_NO","type":"esriFieldTypeString","alias":"HOUSE_NO","length":20},{"name":"E_COORD97","type":"esriFieldTypeDouble","alias":"E_COORD97"},{"name":"N_COORD97","type":"esriFieldTypeDouble","alias":"N_COORD97"},{"name":"ADDRESS","type":"esriFieldTypeString","alias":"ADDRESS","length":50},{"name":"OBJECTID","type":"esriFieldTypeOID","alias":"OBJECTID"}],"features":[{"attributes":{"ID":383411,"DIS_CODE":0,"TOWNNAME":"安平區","LI":"平安里","LIN":"9鄰","STREET":"安平路","SECT":" ","MAREA":" ","LANE":"４２６巷","ALLEY":" ","HOUSE_NO":"３號三樓","E_COORD97":165324.12,"N_COORD97":2544346.8100000001,"ADDRESS":"安平路４２６巷３號三樓","OBJECTID":383401},"geometry":{"x":165324.12000000197,"y":2544346.8100000005}},{"attributes":{"ID":383412,"DIS_CODE":0,"TOWNNAME":"安平區","LI":"平安里","LIN":"9鄰","STREET":"安平路","SECT":" ","MAREA":" ","LANE":"４２６巷","ALLEY":" ","HOUSE_NO":"３號五樓","E_COORD97":165324.12,"N_COORD97":2544346.8100000001,"ADDRESS":"安平路４２６巷３號五樓","OBJECTID":383402},"geometry":{"x":165324.12000000197,"y":2544346.8100000005}},{"attributes":{"ID":383413,"DIS_CODE":0,"TOWNNAME":"安平區","LI":"平安里","LIN":"9鄰","STREET":"安平路","SECT":" ","MAREA":" ","LANE":"４２６巷","ALLEY":" ","HOUSE_NO":"３號四樓","E_COORD97":165324.12,"N_COORD97":2544346.8100000001,"ADDRESS":"安平路４２６巷３號四樓","OBJECTID":383403},"geometry":{"x":165324.12000000197,"y":2544346.8100000005}},{"attributes":{"ID":383414,"DIS_CODE":0,"TOWNNAME":"安平區","LI":"平安里","LIN":"9鄰","STREET":"安平路","SECT":" ","MAREA":" ","LANE":"４２６巷","ALLEY":" ","HOUSE_NO":"５號二樓","E_COORD97":165324.67999999999,"N_COORD97":2544351.23,"ADDRESS":"安平路４２６巷５號二樓","OBJECTID":383404},"geometry":{"x":165324.6799999997,"y":2544351.2300000004}},{"attributes":{"ID":383415,"DIS_CODE":0,"TOWNNAME":"安平區","LI":"平安里","LIN":"9鄰","STREET":"安平路","SECT":" ","MAREA":" ","LANE":"４２６巷","ALLEY":" ","HOUSE_NO":"５號三樓","E_COORD97":165324.67999999999,"N_COORD97":2544351.23,"ADDRESS":"安平路４２６巷５號三樓","OBJECTID":383405},"geometry":{"x":165324.6799999997,"y":2544351.2300000004}},{"attributes":{"ID":383416,"DIS_CODE":0,"TOWNNAME":"安平區","LI":"平安里","LIN":"9鄰","STREET":"安平路","SECT":" ","MAREA":" ","LANE":"４２６巷","ALLEY":" ","HOUSE_NO":"５號五樓","E_COORD97":165324.67999999999,"N_COORD97":2544351.23,"ADDRESS":"安平路４２６巷５號五樓","OBJECTID":383406},"geometry":{"x":165324.6799999997,"y":2544351.2300000004}},{"attributes":{"ID":383417,"DIS_CODE":0,"TOWNNAME":"東區","LI":"新東里","LIN":"17鄰","STREET":"裕豐街","SECT":" ","MAREA":" ","LANE":"１６３巷","ALLEY":" ","HOUSE_NO":"８號","E_COORD97":170712.54999999999,"N_COORD97":2543164.2599999998,"ADDRESS":"裕豐街１６３巷８號","OBJECTID":383407},"geometry":{"x":170712.54999999981,"y":2543164.2599999979}},{"attributes":{"ID":383418,"DIS_CODE":0,"TOWNNAME":"東區","LI":"新東里","LIN":"17鄰","STREET":"裕豐街","SECT":" ","MAREA":" ","LANE":"１６３巷","ALLEY":" ","HOUSE_NO":"１０號","E_COORD97":170701.32000000001,"N_COORD97":2543162.3700000001,"ADDRESS":"裕豐街１６３巷１０號","OBJECTID":383408},"geometry":{"x":170701.3200000003,"y":2543162.3700000029}},{"attributes":{"ID":383419,"DIS_CODE":0,"TOWNNAME":"安平區","LI":"平安里","LIN":"9鄰","STREET":"安平路","SECT":" ","MAREA":" ","LANE":"４２６巷","ALLEY":" ","HOUSE_NO":"５號四樓","E_COORD97":165324.67999999999,"N_COORD97":2544351.23,"ADDRESS":"安平路４２６巷５號四樓","OBJECTID":383409},"geometry":{"x":165324.6799999997,"y":2544351.2300000004}},{"attributes":{"ID":383420,"DIS_CODE":0,"TOWNNAME":"歸仁區","LI":"武東里","LIN":"9鄰","STREET":"中正南路","SECT":"三段","MAREA":" ","LANE":"９６巷","ALLEY":" ","HOUSE_NO":"５８號二樓","E_COORD97":175100.31,"N_COORD97":2535019.2799999998,"ADDRESS":"中正南路三段９６巷５８號二樓","OBJECTID":383410},"geometry":{"x":175100.31000000052,"y":2535019.2799999993}},{"attributes":{"ID":383421,"DIS_CODE":0,"TOWNNAME":"安南區","LI":"長安里","LIN":"9鄰","STREET":"長溪路","SECT":"三段","MAREA":" ","LANE":"４１８巷","ALLEY":" ","HOUSE_NO":"１１號","E_COORD97":167679.35999999999,"N_COORD97":2552121.7599999998,"ADDRESS":"長溪路三段４１８巷１１號","OBJECTID":383411},"geometry":{"x":167679.36000000127,"y":2552121.7600000035}},{"attributes":{"ID":383422,"DIS_CODE":0,"TOWNNAME":"東區","LI":"南聖里","LIN":"4鄰","STREET":"裕農路","SECT":" ","MAREA":" ","LANE":"６６８巷","ALLEY":" ","HOUSE_NO":"２５號","E_COORD97":171749.28,"N_COORD97":2543126.9399999999,"ADDRESS":"裕農路６６８巷２５號","OBJECTID":383412},"geometry":{"x":171749.28000000026,"y":2543126.9400000013}},{"attributes":{"ID":383423,"DIS_CODE":0,"TOWNNAME":"東區","LI":"南聖里","LIN":"4鄰","STREET":"裕農路","SECT":" ","MAREA":" ","LANE":"６６８巷","ALLEY":" ","HOUSE_NO":"２５號之１","E_COORD97":171750.53,"N_COORD97":2543121.8399999999,"ADDRESS":"裕農路６６８巷２５號之１","OBJECTID":383413},"geometry":{"x":171750.53000000026,"y":2543121.8399999999}},{"attributes":{"ID":383424,"DIS_CODE":0,"TOWNNAME":"東區","LI":"新東里","LIN":"16鄰","STREET":"裕豐街","SECT":" ","MAREA":" ","LANE":"１４７巷","ALLEY":" ","HOUSE_NO":"５４號","E_COORD97":170670.57999999999,"N_COORD97":2543101.3300000001,"ADDRESS":"裕豐街１４７巷５４號","OBJECTID":383414},"geometry":{"x":170670.58000000007,"y":2543101.3300000019}},{"attributes":{"ID":383425,"DIS_CODE":0,"TOWNNAME":"東區","LI":"大學里","LIN":"6鄰","STREET":"大學路","SECT":" ","MAREA":" ","LANE":"１２巷","ALLEY":" ","HOUSE_NO":"１４號","E_COORD97":170070.32000000001,"N_COORD97":2543921.9700000002,"ADDRESS":"大學路１２巷１４號","OBJECTID":383415},"geometry":{"x":170070.3200000003,"y":2543921.9700000007}},{"attributes":{"ID":383426,"DIS_CODE":0,"TOWNNAME":"東區","LI":"大學里","LIN":"6鄰","STREET":"大學路","SECT":" ","MAREA":" ","LANE":"１２巷","ALLEY":" ","HOUSE_NO":"１６號","E_COORD97":170074.53,"N_COORD97":2543921.21,"ADDRESS":"大學路１２巷１６號","OBJECTID":383416},"geometry":{"x":170074.53000000026,"y":2543921.2100000009}},{"attributes":{"ID":383427,"DIS_CODE":0,"TOWNNAME":"東區","LI":"大學里","LIN":"6鄰","STREET":"大學路","SECT":" ","MAREA":" ","LANE":"１２巷","ALLEY":" ","HOUSE_NO":"１８號","E_COORD97":170079.51000000001,"N_COORD97":2543920.73,"ADDRESS":"大學路１２巷１８號","OBJECTID":383417},"geometry":{"x":170079.51000000164,"y":2543920.7300000004}},{"attributes":{"ID":383428,"DIS_CODE":0,"TOWNNAME":"東區","LI":"大學里","LIN":"6鄰","STREET":"大學路","SECT":" ","MAREA":" ","LANE":"１２巷","ALLEY":" ","HOUSE_NO":"２０號","E_COORD97":170083.78,"N_COORD97":2543920.3500000001,"ADDRESS":"大學路１２巷２０號","OBJECTID":383418},"geometry":{"x":170083.78000000119,"y":2543920.3500000015}},{"attributes":{"ID":383429,"DIS_CODE":0,"TOWNNAME":"東區","LI":"大學里","LIN":"6鄰","STREET":"大學路","SECT":" ","MAREA":" ","LANE":"１２巷","ALLEY":" ","HOUSE_NO":"２２號","E_COORD97":170088.37,"N_COORD97":2543920.1899999999,"ADDRESS":"大學路１２巷２２號","OBJECTID":383419},"geometry":{"x":170088.37000000011,"y":2543920.1899999995}},{"attributes":{"ID":383430,"DIS_CODE":0,"TOWNNAME":"東區","LI":"大學里","LIN":"6鄰","STREET":"大學路","SECT":" ","MAREA":" ","LANE":"１２巷","ALLEY":" ","HOUSE_NO":"２４號","E_COORD97":170092.37,"N_COORD97":2543919.9199999999,"ADDRESS":"大學路１２巷２４號","OBJECTID":383420},"geometry":{"x":170092.37000000011,"y":2543919.9200000018}},{"attributes":{"ID":383431,"DIS_CODE":0,"TOWNNAME":"東區","LI":"大學里","LIN":"6鄰","STREET":"大學路","SECT":" ","MAREA":" ","LANE":"１２巷","ALLEY":" ","HOUSE_NO":"６號","E_COORD97":170055.59,"N_COORD97":2543999.1299999999,"ADDRESS":"大學路１２巷６號","OBJECTID":383421},"geometry":{"x":170055.59000000078,"y":2543999.1300000008}},{"attributes":{"ID":383432,"DIS_CODE":0,"TOWNNAME":"東區","LI":"大學里","LIN":"6鄰","STREET":"大學路","SECT":" ","MAREA":" ","LANE":"１２巷","ALLEY":" ","HOUSE_NO":"６號之１","E_COORD97":170055.64000000001,"N_COORD97":2543995.3399999999,"ADDRESS":"大學路１２巷６號之１","OBJECTID":383422},"geometry":{"x":170055.63999999966,"y":2543995.3400000017}},{"attributes":{"ID":383433,"DIS_CODE":0,"TOWNNAME":"東區","LI":"大學里","LIN":"6鄰","STREET":"大學路","SECT":" ","MAREA":" ","LANE":"１２巷","ALLEY":" ","HOUSE_NO":"６號之２","E_COORD97":170055.42000000001,"N_COORD97":2543990.7000000002,"ADDRESS":"大學路１２巷６號之２","OBJECTID":383423},"geometry":{"x":170055.42000000086,"y":2543990.6999999993}},{"attributes":{"ID":383434,"DIS_CODE":0,"TOWNNAME":"東區","LI":"大學里","LIN":"6鄰","STREET":"大學路","SECT":" ","MAREA":" ","LANE":"１２巷","ALLEY":" ","HOUSE_NO":"６號之３","E_COORD97":170055.79999999999,"N_COORD97":2543987.3500000001,"ADDRESS":"大學路１２巷６號之３","OBJECTID":383424},"geometry":{"x":170055.80000000075,"y":2543987.3499999978}},{"attributes":{"ID":383435,"DIS_CODE":0,"TOWNNAME":"東區","LI":"大學里","LIN":"6鄰","STREET":"大學路","SECT":" ","MAREA":" ","LANE":"１２巷","ALLEY":" ","HOUSE_NO":"６號之４","E_COORD97":170055.95999999999,"N_COORD97":2543983.7200000002,"ADDRESS":"大學路１２巷６號之４","OBJECTID":383425},"geometry":{"x":170055.95999999996,"y":2543983.7200000025}},{"attributes":{"ID":383436,"DIS_CODE":0,"TOWNNAME":"東區","LI":"大學里","LIN":"6鄰","STREET":"大學路","SECT":" ","MAREA":" ","LANE":"１２巷","ALLEY":" ","HOUSE_NO":"９號","E_COORD97":170085.98999999999,"N_COORD97":2543939.98,"ADDRESS":"大學路１２巷９號","OBJECTID":383426},"geometry":{"x":170085.99000000022,"y":2543939.9800000042}},{"attributes":{"ID":383437,"DIS_CODE":0,"TOWNNAME":"安南區","LI":"長安里","LIN":"9鄰","STREET":"長溪路","SECT":"三段","MAREA":" ","LANE":"４１８巷","ALLEY":" ","HOUSE_NO":"１３號","E_COORD97":167684.82999999999,"N_COORD97":2552127.2200000002,"ADDRESS":"長溪路三段４１８巷１３號","OBJECTID":383427},"geometry":{"x":167684.83000000007,"y":2552127.2200000025}},{"attributes":{"ID":383438,"DIS_CODE":0,"TOWNNAME":"安南區","LI":"長安里","LIN":"9鄰","STREET":"長溪路","SECT":"三段","MAREA":" ","LANE":"４１８巷","ALLEY":" ","HOUSE_NO":"７號","E_COORD97":167664.32000000001,"N_COORD97":2552101.98,"ADDRESS":"長溪路三段４１８巷７號","OBJECTID":383428},"geometry":{"x":167664.32000000123,"y":2552101.9800000023}},{"attributes":{"ID":383439,"DIS_CODE":0,"TOWNNAME":"安南區","LI":"長安里","LIN":"9鄰","STREET":"長溪路","SECT":"三段","MAREA":" ","LANE":"４３６巷","ALLEY":" ","HOUSE_NO":"１１號","E_COORD97":167644.17000000001,"N_COORD97":2552160.79,"ADDRESS":"長溪路三段４３６巷１１號","OBJECTID":383429},"geometry":{"x":167644.17000000179,"y":2552160.7899999991}},{"attributes":{"ID":383440,"DIS_CODE":0,"TOWNNAME":"安南區","LI":"長安里","LIN":"9鄰","STREET":"長溪路","SECT":"三段","MAREA":" ","LANE":"４３６巷","ALLEY":" ","HOUSE_NO":"１３號","E_COORD97":167640.35999999999,"N_COORD97":2552157.7400000002,"ADDRESS":"長溪路三段４３６巷１３號","OBJECTID":383430},"geometry":{"x":167640.36000000127,"y":2552157.7400000021}},{"attributes":{"ID":383441,"DIS_CODE":0,"TOWNNAME":"安南區","LI":"長安里","LIN":"9鄰","STREET":"長溪路","SECT":"三段","MAREA":" ","LANE":"４３６巷","ALLEY":" ","HOUSE_NO":"６號","E_COORD97":167661.41,"N_COORD97":2552120.2000000002,"ADDRESS":"長溪路三段４３６巷６號","OBJECTID":383431},"geometry":{"x":167661.41000000201,"y":2552120.1999999993}},{"attributes":{"ID":383442,"DIS_CODE":0,"TOWNNAME":"安南區","LI":"長安里","LIN":"9鄰","STREET":"長溪路","SECT":"三段","MAREA":" ","LANE":"４３６巷","ALLEY":" ","HOUSE_NO":"７號","E_COORD97":167658.39999999999,"N_COORD97":2552139.96,"ADDRESS":"長溪路三段４３６巷７號","OBJECTID":383432},"geometry":{"x":167658.40000000224,"y":2552139.9600000028}},{"attributes":{"ID":383443,"DIS_CODE":0,"TOWNNAME":"安南區","LI":"長安里","LIN":"9鄰","STREET":"長溪路","SECT":"三段","MAREA":" ","LANE":"４３６巷","ALLEY":" ","HOUSE_NO":"９號","E_COORD97":167648.57999999999,"N_COORD97":2552169.1800000002,"ADDRESS":"長溪路三段４３６巷９號","OBJECTID":383433},"geometry":{"x":167648.58000000101,"y":2552169.1799999997}},{"attributes":{"ID":383444,"DIS_CODE":0,"TOWNNAME":"安南區","LI":"總頭里","LIN":"9鄰","STREET":"長溪路","SECT":"二段","MAREA":" ","LANE":"５８１巷","ALLEY":" ","HOUSE_NO":"１０號","E_COORD97":168188.62,"N_COORD97":2550683.1299999999,"ADDRESS":"長溪路二段５８１巷１０號","OBJECTID":383434},"geometry":{"x":168188.62000000011,"y":2550683.129999999}},{"attributes":{"ID":383445,"DIS_CODE":0,"TOWNNAME":"安南區","LI":"總頭里","LIN":"9鄰","STREET":"長溪路","SECT":"二段","MAREA":" ","LANE":"５８１巷","ALLEY":" ","HOUSE_NO":"１２號","E_COORD97":168179.13,"N_COORD97":2550680.4199999999,"ADDRESS":"長溪路二段５８１巷１２號","OBJECTID":383435},"geometry":{"x":168179.13000000082,"y":2550680.4200000018}},{"attributes":{"ID":383446,"DIS_CODE":0,"TOWNNAME":"安南區","LI":"總頭里","LIN":"9鄰","STREET":"長溪路","SECT":"二段","MAREA":" ","LANE":"５８１巷","ALLEY":" ","HOUSE_NO":"１７號","E_COORD97":168190.88,"N_COORD97":2550653.79,"ADDRESS":"長溪路二段５８１巷１７號","OBJECTID":383436},"geometry":{"x":168190.88000000082,"y":2550653.790000001}},{"attributes":{"ID":383447,"DIS_CODE":0,"TOWNNAME":"安南區","LI":"總頭里","LIN":"9鄰","STREET":"長溪路","SECT":"二段","MAREA":" ","LANE":"５８１巷","ALLEY":" ","HOUSE_NO":"１９號","E_COORD97":168186.81,"N_COORD97":2550642.5099999998,"ADDRESS":"長溪路二段５８１巷１９號","OBJECTID":383437},"geometry":{"x":168186.80999999959,"y":2550642.5100000016}},{"attributes":{"ID":383448,"DIS_CODE":0,"TOWNNAME":"安南區","LI":"總頭里","LIN":"9鄰","STREET":"長溪路","SECT":"二段","MAREA":" ","LANE":"５８１巷","ALLEY":" ","HOUSE_NO":"２４號","E_COORD97":168160.14000000001,"N_COORD97":2550644.6200000001,"ADDRESS":"長溪路二段５８１巷２４號","OBJECTID":383438},"geometry":{"x":168160.1400000006,"y":2550644.620000001}},{"attributes":{"ID":383449,"DIS_CODE":0,"TOWNNAME":"東區","LI":"大學里","LIN":"18鄰","STREET":"長榮路","SECT":"三段","MAREA":" ","LANE":"５０巷","ALLEY":" ","HOUSE_NO":"４號","E_COORD97":170260.42000000001,"N_COORD97":2543761.8900000001,"ADDRESS":"長榮路三段５０巷４號","OBJECTID":383439},"geometry":{"x":170260.42000000086,"y":2543761.8900000025}},{"attributes":{"ID":383450,"DIS_CODE":0,"TOWNNAME":"安南區","LI":"總頭里","LIN":"9鄰","STREET":"長溪路","SECT":"二段","MAREA":" ","LANE":"５８１巷","ALLEY":" ","HOUSE_NO":"２８號","E_COORD97":168154.26000000001,"N_COORD97":2550635.1400000001,"ADDRESS":"長溪路二段５８１巷２８號","OBJECTID":383440},"geometry":{"x":168154.26000000071,"y":2550635.1400000043}},{"attributes":{"ID":383451,"DIS_CODE":0,"TOWNNAME":"安南區","LI":"總頭里","LIN":"9鄰","STREET":"長溪路","SECT":"二段","MAREA":" ","LANE":"５８１巷","ALLEY":" ","HOUSE_NO":"３０號","E_COORD97":168142.23304299999,"N_COORD97":2550644.1173999999,"ADDRESS":"長溪路二段５８１巷３０號","OBJECTID":383441},"geometry":{"x":168142.23304300103,"y":2550644.1173970029}},{"attributes":{"ID":383452,"DIS_CODE":0,"TOWNNAME":"安南區","LI":"總頭里","LIN":"9鄰","STREET":"長溪路","SECT":"二段","MAREA":" ","LANE":"６２７巷","ALLEY":" ","HOUSE_NO":"１９號","E_COORD97":168158.82000000001,"N_COORD97":2550753.2999999998,"ADDRESS":"長溪路二段６２７巷１９號","OBJECTID":383442},"geometry":{"x":168158.81999999937,"y":2550753.3000000026}},{"attributes":{"ID":383453,"DIS_CODE":0,"TOWNNAME":"安南區","LI":"鳳凰里","LIN":"9鄰","STREET":"安中路","SECT":"一段","MAREA":" ","LANE":"７００巷","ALLEY":" ","HOUSE_NO":"１號","E_COORD97":167616.5,"N_COORD97":2549315.5,"ADDRESS":"安中路一段７００巷１號","OBJECTID":383443},"geometry":{"x":167616.49999999907,"y":2549315.5}},{"attributes":{"ID":383454,"DIS_CODE":0,"TOWNNAME":"安南區","LI":"安和里","LIN":"9鄰","STREET":"安和路","SECT":"一段","MAREA":" ","LANE":"１８巷","ALLEY":" ","HOUSE_NO":"２７號之２","E_COORD97":169667.78,"N_COORD97":2547473.8999999999,"ADDRESS":"安和路一段１８巷２７號之２","OBJECTID":383444},"geometry":{"x":169667.78000000212,"y":2547473.9000000022}},{"attributes":{"ID":383455,"DIS_CODE":0,"TOWNNAME":"安南區","LI":"海東里","LIN":"9鄰","STREET":"海佃路","SECT":"二段","MAREA":" ","LANE":"４６１巷","ALLEY":" ","HOUSE_NO":"２８號","E_COORD97":166633.92999999999,"N_COORD97":2549066.8100000001,"ADDRESS":"海佃路二段４６１巷２８號","OBJECTID":383445},"geometry":{"x":166633.93000000063,"y":2549066.8100000005}},{"attributes":{"ID":383456,"DIS_CODE":0,"TOWNNAME":"安南區","LI":"海東里","LIN":"9鄰","STREET":"海佃路","SECT":"二段","MAREA":" ","LANE":"４６１巷","ALLEY":" ","HOUSE_NO":"３０號","E_COORD97":166631.19,"N_COORD97":2549062.73,"ADDRESS":"海佃路二段４６１巷３０號","OBJECTID":383446},"geometry":{"x":166631.19000000134,"y":2549062.7300000023}},{"attributes":{"ID":383457,"DIS_CODE":0,"TOWNNAME":"安南區","LI":"淵西里","LIN":"9鄰","STREET":"安中路","SECT":"四段","MAREA":" ","LANE":"２９０巷","ALLEY":" ","HOUSE_NO":"７１號","E_COORD97":164687.79000000001,"N_COORD97":2550260.8999999999,"ADDRESS":"安中路四段２９０巷７１號","OBJECTID":383447},"geometry":{"x":164687.79000000097,"y":2550260.9000000022}},{"attributes":{"ID":383458,"DIS_CODE":0,"TOWNNAME":"安南區","LI":"淵西里","LIN":"9鄰","STREET":"安中路","SECT":"四段","MAREA":" ","LANE":"２９０巷","ALLEY":" ","HOUSE_NO":"７３號","E_COORD97":164692.10999999999,"N_COORD97":2550260.6699999999,"ADDRESS":"安中路四段２９０巷７３號","OBJECTID":383448},"geometry":{"x":164692.1100000022,"y":2550260.6699999999}},{"attributes":{"ID":383459,"DIS_CODE":0,"TOWNNAME":"安南區","LI":"砂崙里","LIN":"9鄰","STREET":"青砂街","SECT":"一段","MAREA":" ","LANE":"７６３巷","ALLEY":" ","HOUSE_NO":"１０號","E_COORD97":159827.17000000001,"N_COORD97":2552916.73,"ADDRESS":"青砂街一段７６３巷１０號","OBJECTID":383449},"geometry":{"x":159827.16999999993,"y":2552916.7300000023}},{"attributes":{"ID":383460,"DIS_CODE":0,"TOWNNAME":"安南區","LI":"砂崙里","LIN":"9鄰","STREET":"青砂街","SECT":"一段","MAREA":" ","LANE":"７６３巷","ALLEY":" ","HOUSE_NO":"１１號","E_COORD97":159845.73000000001,"N_COORD97":2552887.3500000001,"ADDRESS":"青砂街一段７６３巷１１號","OBJECTID":383450},"geometry":{"x":159845.73000000045,"y":2552887.3500000034}},{"attributes":{"ID":383461,"DIS_CODE":0,"TOWNNAME":"安南區","LI":"砂崙里","LIN":"9鄰","STREET":"青砂街","SECT":"一段","MAREA":" ","LANE":"７６３巷","ALLEY":" ","HOUSE_NO":"１２號","E_COORD97":159822.81,"N_COORD97":2552915.21,"ADDRESS":"青砂街一段７６３巷１２號","OBJECTID":383451},"geometry":{"x":159822.80999999959,"y":2552915.2100000009}},{"attributes":{"ID":383462,"DIS_CODE":0,"TOWNNAME":"安南區","LI":"砂崙里","LIN":"9鄰","STREET":"青砂街","SECT":"一段","MAREA":" ","LANE":"７６３巷","ALLEY":" ","HOUSE_NO":"１３號","E_COORD97":159841.98999999999,"N_COORD97":2552885.9500000002,"ADDRESS":"青砂街一段７６３巷１３號","OBJECTID":383452},"geometry":{"x":159841.99000000022,"y":2552885.9499999993}},{"attributes":{"ID":383463,"DIS_CODE":0,"TOWNNAME":"安南區","LI":"砂崙里","LIN":"9鄰","STREET":"青砂街","SECT":"一段","MAREA":" ","LANE":"７６３巷","ALLEY":" ","HOUSE_NO":"１５號","E_COORD97":159837.5,"N_COORD97":2552888.29,"ADDRESS":"青砂街一段７６３巷１５號","OBJECTID":383453},"geometry":{"x":159837.50000000186,"y":2552888.290000001}},{"attributes":{"ID":383464,"DIS_CODE":0,"TOWNNAME":"安南區","LI":"砂崙里","LIN":"9鄰","STREET":"青砂街","SECT":"一段","MAREA":" ","LANE":"７６３巷","ALLEY":" ","HOUSE_NO":"１７號","E_COORD97":159833.67000000001,"N_COORD97":2552885.9500000002,"ADDRESS":"青砂街一段７６３巷１７號","OBJECTID":383454},"geometry":{"x":159833.66999999993,"y":2552885.9499999993}},{"attributes":{"ID":383465,"DIS_CODE":0,"TOWNNAME":"安南區","LI":"砂崙里","LIN":"9鄰","STREET":"青砂街","SECT":"一段","MAREA":" ","LANE":"７６３巷","ALLEY":" ","HOUSE_NO":"１９號","E_COORD97":159827.39999999999,"N_COORD97":2552888.5699999998,"ADDRESS":"青砂街一段７６３巷１９號","OBJECTID":383455},"geometry":{"x":159827.4000000013,"y":2552888.5700000003}},{"attributes":{"ID":383466,"DIS_CODE":0,"TOWNNAME":"安南區","LI":"砂崙里","LIN":"9鄰","STREET":"青砂街","SECT":"一段","MAREA":" ","LANE":"７６３巷","ALLEY":" ","HOUSE_NO":"２號","E_COORD97":159843.45000000001,"N_COORD97":2552919.48,"ADDRESS":"青砂街一段７６３巷２號","OBJECTID":383456},"geometry":{"x":159843.45000000112,"y":2552919.4800000023}},{"attributes":{"ID":383467,"DIS_CODE":0,"TOWNNAME":"安南區","LI":"砂崙里","LIN":"9鄰","STREET":"青砂街","SECT":"一段","MAREA":" ","LANE":"７６３巷","ALLEY":" ","HOUSE_NO":"３號","E_COORD97":159863.64000000001,"N_COORD97":2552889.04,"ADDRESS":"青砂街一段７６３巷３號","OBJECTID":383457},"geometry":{"x":159863.6400000006,"y":2552889.0400000028}},{"attributes":{"ID":383468,"DIS_CODE":0,"TOWNNAME":"安南區","LI":"砂崙里","LIN":"9鄰","STREET":"青砂街","SECT":"一段","MAREA":" ","LANE":"７６３巷","ALLEY":" ","HOUSE_NO":"４號","E_COORD97":159839.39999999999,"N_COORD97":2552917.73,"ADDRESS":"青砂街一段７６３巷４號","OBJECTID":383458},"geometry":{"x":159839.40000000037,"y":2552917.7300000023}},{"attributes":{"ID":383469,"DIS_CODE":0,"TOWNNAME":"安南區","LI":"砂崙里","LIN":"9鄰","STREET":"青砂街","SECT":"一段","MAREA":" ","LANE":"７６３巷","ALLEY":" ","HOUSE_NO":"５號","E_COORD97":159858.37,"N_COORD97":2552889.04,"ADDRESS":"青砂街一段７６３巷５號","OBJECTID":383459},"geometry":{"x":159858.37000000011,"y":2552889.0400000028}},{"attributes":{"ID":383470,"DIS_CODE":0,"TOWNNAME":"安南區","LI":"砂崙里","LIN":"9鄰","STREET":"青砂街","SECT":"一段","MAREA":" ","LANE":"７６３巷","ALLEY":" ","HOUSE_NO":"７號","E_COORD97":159854.72,"N_COORD97":2552887.4500000002,"ADDRESS":"青砂街一段７６３巷７號","OBJECTID":383460},"geometry":{"x":159854.72000000067,"y":2552887.4500000011}},{"attributes":{"ID":383471,"DIS_CODE":0,"TOWNNAME":"安南區","LI":"砂崙里","LIN":"9鄰","STREET":"青砂街","SECT":"一段","MAREA":" ","LANE":"７６３巷","ALLEY":" ","HOUSE_NO":"８號","E_COORD97":159830.92000000001,"N_COORD97":2552918.4100000001,"ADDRESS":"青砂街一段７６３巷８號","OBJECTID":383461},"geometry":{"x":159830.91999999899,"y":2552918.410000002}},{"attributes":{"ID":383472,"DIS_CODE":0,"TOWNNAME":"安南區","LI":"砂崙里","LIN":"9鄰","STREET":"青砂街","SECT":"一段","MAREA":" ","LANE":"７６３巷","ALLEY":" ","HOUSE_NO":"９號","E_COORD97":159850.41,"N_COORD97":2552883.7999999998,"ADDRESS":"青砂街一段７６３巷９號","OBJECTID":383462},"geometry":{"x":159850.41000000108,"y":2552883.8000000007}},{"attributes":{"ID":383473,"DIS_CODE":0,"TOWNNAME":"安南區","LI":"砂崙里","LIN":"9鄰","STREET":"青砂街","SECT":"一段","MAREA":" ","LANE":"７６３巷","ALLEY":" ","HOUSE_NO":"６號","E_COORD97":159835.42999999999,"N_COORD97":2552916.5800000001,"ADDRESS":"青砂街一段７６３巷６號","OBJECTID":383463},"geometry":{"x":159835.4299999997,"y":2552916.5799999982}},{"attributes":{"ID":383474,"DIS_CODE":0,"TOWNNAME":"安南區","LI":"南興里","LIN":"9鄰","STREET":"安興街","SECT":" ","MAREA":" ","LANE":"６３２巷","ALLEY":" ","HOUSE_NO":"５５號之４","E_COORD97":163663.72,"N_COORD97":2552468.96,"ADDRESS":"安興街６３２巷５５號之４","OBJECTID":383464},"geometry":{"x":163663.72000000067,"y":2552468.9600000028}},{"attributes":{"ID":383475,"DIS_CODE":0,"TOWNNAME":"安南區","LI":"南興里","LIN":"9鄰","STREET":"安興街","SECT":" ","MAREA":" ","LANE":"６３２巷","ALLEY":" ","HOUSE_NO":"５５號","E_COORD97":163644.25,"N_COORD97":2552467.3900000001,"ADDRESS":"安興街６３２巷５５號","OBJECTID":383465},"geometry":{"x":163644.25,"y":2552467.3900000006}},{"attributes":{"ID":383476,"DIS_CODE":0,"TOWNNAME":"安南區","LI":"南興里","LIN":"9鄰","STREET":"安興街","SECT":" ","MAREA":" ","LANE":"６３２巷","ALLEY":" ","HOUSE_NO":"５５號之２","E_COORD97":163654.25,"N_COORD97":2552467.3900000001,"ADDRESS":"安興街６３２巷５５號之２","OBJECTID":383466},"geometry":{"x":163654.25,"y":2552467.3900000006}},{"attributes":{"ID":383477,"DIS_CODE":0,"TOWNNAME":"東區","LI":"崇誨里","LIN":"30鄰","STREET":"林森路","SECT":"二段","MAREA":" ","LANE":"１９２巷","ALLEY":" ","HOUSE_NO":"１２１號","E_COORD97":170771.22,"N_COORD97":2543365.4500000002,"ADDRESS":"林森路二段１９２巷１２１號","OBJECTID":383467},"geometry":{"x":170771.2200000016,"y":2543365.4499999993}},{"attributes":{"ID":383478,"DIS_CODE":0,"TOWNNAME":"東區","LI":"崇誨里","LIN":"30鄰","STREET":"林森路","SECT":"二段","MAREA":" ","LANE":"１９２巷","ALLEY":" ","HOUSE_NO":"１２３號","E_COORD97":170775.07000000001,"N_COORD97":2543366.4300000002,"ADDRESS":"林森路二段１９２巷１２３號","OBJECTID":383468},"geometry":{"x":170775.07000000123,"y":2543366.4299999978}},{"attributes":{"ID":383479,"DIS_CODE":0,"TOWNNAME":"安南區","LI":"青草里","LIN":"9鄰","STREET":"青砂街","SECT":"二段","MAREA":" ","LANE":"２９９巷","ALLEY":" ","HOUSE_NO":"２４號","E_COORD97":159156.63,"N_COORD97":2553037.0600000001,"ADDRESS":"青砂街二段２９９巷２４號","OBJECTID":383469},"geometry":{"x":159156.63000000175,"y":2553037.0600000024}},{"attributes":{"ID":383480,"DIS_CODE":0,"TOWNNAME":"安南區","LI":"淵西里","LIN":"9鄰","STREET":"安中路","SECT":"四段","MAREA":" ","LANE":"３０６巷","ALLEY":" ","HOUSE_NO":"７３號","E_COORD97":164639.38,"N_COORD97":2550316.2799999998,"ADDRESS":"安中路四段３０６巷７３號","OBJECTID":383470},"geometry":{"x":164639.38000000082,"y":2550316.2799999993}},{"attributes":{"ID":383481,"DIS_CODE":0,"TOWNNAME":"安南區","LI":"安順里","LIN":"9鄰","STREET":"安和路","SECT":"四段","MAREA":" ","LANE":"１６３巷","ALLEY":" ","HOUSE_NO":"２０號之１","E_COORD97":169821.42999999999,"N_COORD97":2550512.9199999999,"ADDRESS":"安和路四段１６３巷２０號之１","OBJECTID":383471},"geometry":{"x":169821.4299999997,"y":2550512.9199999999}},{"attributes":{"ID":383482,"DIS_CODE":0,"TOWNNAME":"安南區","LI":"淵西里","LIN":"9鄰","STREET":"安中路","SECT":"四段","MAREA":" ","LANE":"３０６巷","ALLEY":" ","HOUSE_NO":"３６號","E_COORD97":164583.45999999999,"N_COORD97":2550275.4199999999,"ADDRESS":"安中路四段３０６巷３６號","OBJECTID":383472},"geometry":{"x":164583.45999999996,"y":2550275.4199999999}},{"attributes":{"ID":383483,"DIS_CODE":0,"TOWNNAME":"安南區","LI":"淵西里","LIN":"9鄰","STREET":"安中路","SECT":"四段","MAREA":" ","LANE":"３０６巷","ALLEY":" ","HOUSE_NO":"３２號","E_COORD97":164575.51000000001,"N_COORD97":2550271.5699999998,"ADDRESS":"安中路四段３０６巷３２號","OBJECTID":383473},"geometry":{"x":164575.51000000071,"y":2550271.5700000003}},{"attributes":{"ID":383484,"DIS_CODE":0,"TOWNNAME":"安南區","LI":"淵西里","LIN":"9鄰","STREET":"安中路","SECT":"四段","MAREA":" ","LANE":"３０６巷","ALLEY":" ","HOUSE_NO":"３４號","E_COORD97":164579.14000000001,"N_COORD97":2550274.52,"ADDRESS":"安中路四段３０６巷３４號","OBJECTID":383474},"geometry":{"x":164579.13999999873,"y":2550274.5199999996}},{"attributes":{"ID":383485,"DIS_CODE":0,"TOWNNAME":"安南區","LI":"淵西里","LIN":"9鄰","STREET":"安中路","SECT":"四段","MAREA":" ","LANE":"３０６巷","ALLEY":" ","HOUSE_NO":"３８號","E_COORD97":164586.42000000001,"N_COORD97":2550278.1499999999,"ADDRESS":"安中路四段３０６巷３８號","OBJECTID":383475},"geometry":{"x":164586.42000000086,"y":2550278.1500000004}},{"attributes":{"ID":383486,"DIS_CODE":0,"TOWNNAME":"安南區","LI":"淵西里","LIN":"9鄰","STREET":"安中路","SECT":"四段","MAREA":" ","LANE":"３０６巷","ALLEY":" ","HOUSE_NO":"４０號","E_COORD97":164591.19,"N_COORD97":2550279.7400000002,"ADDRESS":"安中路四段３０６巷４０號","OBJECTID":383476},"geometry":{"x":164591.19000000041,"y":2550279.7400000021}},{"attributes":{"ID":383487,"DIS_CODE":0,"TOWNNAME":"安南區","LI":"淵東里","LIN":"9鄰","STREET":"本原街","SECT":"三段","MAREA":" ","LANE":"３２１巷","ALLEY":" ","HOUSE_NO":"２號","E_COORD97":165334.04999999999,"N_COORD97":2550134.5600000001,"ADDRESS":"本原街三段３２１巷２號","OBJECTID":383477},"geometry":{"x":165334.04999999981,"y":2550134.5600000024}},{"attributes":{"ID":383488,"DIS_CODE":0,"TOWNNAME":"東區","LI":"新東里","LIN":"18鄰","STREET":"裕豐街","SECT":" ","MAREA":" ","LANE":"１８５巷","ALLEY":" ","HOUSE_NO":"１５號","E_COORD97":170734.57999999999,"N_COORD97":2543186.5299999998,"ADDRESS":"裕豐街１８５巷１５號","OBJECTID":383478},"geometry":{"x":170734.58000000007,"y":2543186.5300000012}},{"attributes":{"ID":383489,"DIS_CODE":0,"TOWNNAME":"安南區","LI":"城南里","LIN":"9鄰","STREET":"城西街","SECT":"一段","MAREA":" ","LANE":"６１巷","ALLEY":" ","HOUSE_NO":"２４０號","E_COORD97":160449.51000000001,"N_COORD97":2551084.3900000001,"ADDRESS":"城西街一段６１巷２４０號","OBJECTID":383479},"geometry":{"x":160449.51000000071,"y":2551084.3900000043}},{"attributes":{"ID":383490,"DIS_CODE":0,"TOWNNAME":"安南區","LI":"城南里","LIN":"9鄰","STREET":"城西街","SECT":"一段","MAREA":" ","LANE":"６１巷","ALLEY":" ","HOUSE_NO":"２４２號","E_COORD97":160445.78,"N_COORD97":2551080.6600000001,"ADDRESS":"城西街一段６１巷２４２號","OBJECTID":383480},"geometry":{"x":160445.78000000026,"y":2551080.6600000001}},{"attributes":{"ID":383491,"DIS_CODE":0,"TOWNNAME":"安南區","LI":"城南里","LIN":"9鄰","STREET":"城西街","SECT":"一段","MAREA":" ","LANE":"６１巷","ALLEY":" ","HOUSE_NO":"２４４號","E_COORD97":160439.32000000001,"N_COORD97":2551080.6600000001,"ADDRESS":"城西街一段６１巷２４４號","OBJECTID":383481},"geometry":{"x":160439.32000000123,"y":2551080.6600000001}},{"attributes":{"ID":383492,"DIS_CODE":0,"TOWNNAME":"安南區","LI":"城南里","LIN":"9鄰","STREET":"城西街","SECT":"一段","MAREA":" ","LANE":"６１巷","ALLEY":" ","HOUSE_NO":"２４６號","E_COORD97":160434.35000000001,"N_COORD97":2551077.9300000002,"ADDRESS":"城西街一段６１巷２４６號","OBJECTID":383482},"geometry":{"x":160434.34999999963,"y":2551077.9300000016}},{"attributes":{"ID":383493,"DIS_CODE":0,"TOWNNAME":"安南區","LI":"城南里","LIN":"9鄰","STREET":"城西街","SECT":"一段","MAREA":" ","LANE":"６１巷","ALLEY":" ","HOUSE_NO":"２４８號","E_COORD97":160429.37,"N_COORD97":2551075.7000000002,"ADDRESS":"城西街一段６１巷２４８號","OBJECTID":383483},"geometry":{"x":160429.37000000011,"y":2551075.7000000011}},{"attributes":{"ID":383494,"DIS_CODE":0,"TOWNNAME":"安南區","LI":"淵東里","LIN":"9鄰","STREET":"本原街","SECT":"三段","MAREA":" ","LANE":"３２１巷","ALLEY":" ","HOUSE_NO":"４號","E_COORD97":165338.39999999999,"N_COORD97":2550135.8799999999,"ADDRESS":"本原街三段３２１巷４號","OBJECTID":383484},"geometry":{"x":165338.4000000013,"y":2550135.879999999}},{"attributes":{"ID":383495,"DIS_CODE":0,"TOWNNAME":"東區","LI":"中西里","LIN":"18鄰","STREET":"長榮路","SECT":"二段","MAREA":" ","LANE":"３２巷","ALLEY":" ","HOUSE_NO":"１１３號","E_COORD97":170064.79999999999,"N_COORD97":2543247.5699999998,"ADDRESS":"長榮路二段３２巷１１３號","OBJECTID":383485},"geometry":{"x":170064.79999999981,"y":2543247.570000004}},{"attributes":{"ID":383496,"DIS_CODE":0,"TOWNNAME":"東區","LI":"中西里","LIN":"18鄰","STREET":"長榮路","SECT":"二段","MAREA":" ","LANE":"３２巷","ALLEY":" ","HOUSE_NO":"１１５號","E_COORD97":170067.95999999999,"N_COORD97":2543247.0899999999,"ADDRESS":"長榮路二段３２巷１１５號","OBJECTID":383486},"geometry":{"x":170067.95999999903,"y":2543247.0900000036}},{"attributes":{"ID":383497,"DIS_CODE":0,"TOWNNAME":"東區","LI":"中西里","LIN":"18鄰","STREET":"長榮路","SECT":"二段","MAREA":" ","LANE":"３２巷","ALLEY":" ","HOUSE_NO":"１２１號","E_COORD97":170076.76999999999,"N_COORD97":2543240.0600000001,"ADDRESS":"長榮路二段３２巷１２１號","OBJECTID":383487},"geometry":{"x":170076.76999999955,"y":2543240.0600000005}},{"attributes":{"ID":383498,"DIS_CODE":0,"TOWNNAME":"東區","LI":"中西里","LIN":"18鄰","STREET":"長榮路","SECT":"二段","MAREA":" ","LANE":"３２巷","ALLEY":" ","HOUSE_NO":"１２３號","E_COORD97":170081.17999999999,"N_COORD97":2543239.1699999999,"ADDRESS":"長榮路二段３２巷１２３號","OBJECTID":383488},"geometry":{"x":170081.1799999997,"y":2543239.1699999999}},{"attributes":{"ID":383499,"DIS_CODE":0,"TOWNNAME":"東區","LI":"中西里","LIN":"18鄰","STREET":"長榮路","SECT":"二段","MAREA":" ","LANE":"３２巷","ALLEY":" ","HOUSE_NO":"１２５號之１","E_COORD97":170084.48999999999,"N_COORD97":2543223.7400000002,"ADDRESS":"長榮路二段３２巷１２５號之１","OBJECTID":383489},"geometry":{"x":170084.49000000022,"y":2543223.7400000021}},{"attributes":{"ID":383500,"DIS_CODE":0,"TOWNNAME":"東區","LI":"中西里","LIN":"6鄰","STREET":"勝利路","SECT":" ","MAREA":" ","LANE":"１２巷","ALLEY":" ","HOUSE_NO":"６３號","E_COORD97":169931.13,"N_COORD97":2543376.9100000001,"ADDRESS":"勝利路１２巷６３號","OBJECTID":383490},"geometry":{"x":169931.12999999896,"y":2543376.9100000001}},{"attributes":{"ID":383501,"DIS_CODE":0,"TOWNNAME":"白河區","LI":"外角里","LIN":"13鄰","STREET":"三民路","SECT":" ","MAREA":" ","LANE":" ","ALLEY":" ","HOUSE_NO":"２２６號","E_COORD97":190834.37,"N_COORD97":2583306.6600000001,"ADDRESS":"三民路２２６號","OBJECTID":383491},"geometry":{"x":190834.37000000011,"y":2583306.6600000001}},{"attributes":{"ID":383502,"DIS_CODE":0,"TOWNNAME":"東區","LI":"中西里","LIN":"6鄰","STREET":"勝利路","SECT":" ","MAREA":" ","LANE":"１２巷","ALLEY":" ","HOUSE_NO":"８７號","E_COORD97":169951.13,"N_COORD97":2543391.5800000001,"ADDRESS":"勝利路１２巷８７號","OBJECTID":383492},"geometry":{"x":169951.12999999989,"y":2543391.5800000001}},{"attributes":{"ID":383503,"DIS_CODE":0,"TOWNNAME":"東區","LI":"中西里","LIN":"6鄰","STREET":"勝利路","SECT":" ","MAREA":" ","LANE":"１２巷","ALLEY":" ","HOUSE_NO":"９１號","E_COORD97":169950.39999999999,"N_COORD97":2543402.5800000001,"ADDRESS":"勝利路１２巷９１號","OBJECTID":383493},"geometry":{"x":169950.4000000013,"y":2543402.5800000001}},{"attributes":{"ID":383504,"DIS_CODE":0,"TOWNNAME":"東區","LI":"中西里","LIN":"6鄰","STREET":"勝利路","SECT":" ","MAREA":" ","LANE":"１２巷","ALLEY":" ","HOUSE_NO":"１０７號","E_COORD97":169959.92000000001,"N_COORD97":2543371.79,"ADDRESS":"勝利路１２巷１０７號","OBJECTID":383494},"geometry":{"x":169959.92000000179,"y":2543371.790000001}},{"attributes":{"ID":383505,"DIS_CODE":0,"TOWNNAME":"東區","LI":"中西里","LIN":"18鄰","STREET":"長榮路","SECT":"二段","MAREA":" ","LANE":"３２巷","ALLEY":" ","HOUSE_NO":"１４５號","E_COORD97":170070.70000000001,"N_COORD97":2543258.3100000001,"ADDRESS":"長榮路二段３２巷１４５號","OBJECTID":383495},"geometry":{"x":170070.70000000112,"y":2543258.3100000005}},{"attributes":{"ID":383506,"DIS_CODE":0,"TOWNNAME":"東區","LI":"中西里","LIN":"18鄰","STREET":"長榮路","SECT":"二段","MAREA":" ","LANE":"３２巷","ALLEY":" ","HOUSE_NO":"１４７號","E_COORD97":170074.01999999999,"N_COORD97":2543256.0600000001,"ADDRESS":"長榮路二段３２巷１４７號","OBJECTID":383496},"geometry":{"x":170074.02000000142,"y":2543256.0600000024}},{"attributes":{"ID":383507,"DIS_CODE":0,"TOWNNAME":"東區","LI":"中西里","LIN":"18鄰","STREET":"長榮路","SECT":"二段","MAREA":" ","LANE":"３２巷","ALLEY":" ","HOUSE_NO":"１５７號","E_COORD97":170094.34,"N_COORD97":2543246.52,"ADDRESS":"長榮路二段３２巷１５７號","OBJECTID":383497},"geometry":{"x":170094.34000000078,"y":2543246.5199999996}},{"attributes":{"ID":383508,"DIS_CODE":0,"TOWNNAME":"東區","LI":"中西里","LIN":"24鄰","STREET":"東寧路","SECT":" ","MAREA":" ","LANE":"１２０巷","ALLEY":" ","HOUSE_NO":"８號","E_COORD97":170223.28,"N_COORD97":2543535.48,"ADDRESS":"東寧路１２０巷８號","OBJECTID":383498},"geometry":{"x":170223.28000000026,"y":2543535.4800000004}},{"attributes":{"ID":383509,"DIS_CODE":0,"TOWNNAME":"東區","LI":"中西里","LIN":"29鄰","STREET":"東寧路","SECT":" ","MAREA":" ","LANE":"１３４巷","ALLEY":" ","HOUSE_NO":"１０號","E_COORD97":170327.98999999999,"N_COORD97":2543448.9500000002,"ADDRESS":"東寧路１３４巷１０號","OBJECTID":383499},"geometry":{"x":170327.99000000115,"y":2543448.9500000011}},{"attributes":{"ID":383510,"DIS_CODE":0,"TOWNNAME":"佳里區","LI":"東寧里","LIN":"9鄰","STREET":"和平街","SECT":" ","MAREA":" ","LANE":"１１６巷","ALLEY":" ","HOUSE_NO":"３號","E_COORD97":165797.23999999999,"N_COORD97":2562541.7799999998,"ADDRESS":"和平街１１６巷３號","OBJECTID":383500},"geometry":{"x":165797.24000000022,"y":2562541.7799999993}},{"attributes":{"ID":383511,"DIS_CODE":0,"TOWNNAME":"佳里區","LI":"安西里","LIN":"9鄰","STREET":"和平街","SECT":" ","MAREA":" ","LANE":"１４３巷","ALLEY":" ","HOUSE_NO":"１號","E_COORD97":165620.59,"N_COORD97":2562466.1299999999,"ADDRESS":"和平街１４３巷１號","OBJECTID":383501},"geometry":{"x":165620.59000000171,"y":2562466.1300000027}},{"attributes":{"ID":383512,"DIS_CODE":0,"TOWNNAME":"佳里區","LI":"安西里","LIN":"9鄰","STREET":"和平街","SECT":" ","MAREA":" ","LANE":"１４３巷","ALLEY":" ","HOUSE_NO":"３號","E_COORD97":165615.85999999999,"N_COORD97":2562465.5699999998,"ADDRESS":"和平街１４３巷３號","OBJECTID":383502},"geometry":{"x":165615.8600000022,"y":2562465.5700000022}},{"attributes":{"ID":383513,"DIS_CODE":0,"TOWNNAME":"佳里區","LI":"安西里","LIN":"9鄰","STREET":"和平街","SECT":" ","MAREA":" ","LANE":"１６５巷","ALLEY":" ","HOUSE_NO":"１號","E_COORD97":165565.54999999999,"N_COORD97":2562455.1499999999,"ADDRESS":"和平街１６５巷１號","OBJECTID":383503},"geometry":{"x":165565.55000000075,"y":2562455.1500000022}},{"attributes":{"ID":383514,"DIS_CODE":0,"TOWNNAME":"佳里區","LI":"安西里","LIN":"9鄰","STREET":"和平街","SECT":" ","MAREA":" ","LANE":"１６５巷","ALLEY":" ","HOUSE_NO":"３號","E_COORD97":165566.95000000001,"N_COORD97":2562449.48,"ADDRESS":"和平街１６５巷３號","OBJECTID":383504},"geometry":{"x":165566.95000000019,"y":2562449.4800000023}},{"attributes":{"ID":383515,"DIS_CODE":0,"TOWNNAME":"佳里區","LI":"安西里","LIN":"9鄰","STREET":"和平街","SECT":" ","MAREA":" ","LANE":"１６５巷","ALLEY":" ","HOUSE_NO":"５號","E_COORD97":165568.72,"N_COORD97":2562443.2000000002,"ADDRESS":"和平街１６５巷５號","OBJECTID":383505},"geometry":{"x":165568.7200000016,"y":2562443.2000000011}},{"attributes":{"ID":383516,"DIS_CODE":0,"TOWNNAME":"佳里區","LI":"安西里","LIN":"9鄰","STREET":"和平街","SECT":" ","MAREA":" ","LANE":"１６５巷","ALLEY":" ","HOUSE_NO":"７號","E_COORD97":165570.39999999999,"N_COORD97":2562438.3199999998,"ADDRESS":"和平街１６５巷７號","OBJECTID":383506},"geometry":{"x":165570.4000000013,"y":2562438.3200000003}},{"attributes":{"ID":383517,"DIS_CODE":0,"TOWNNAME":"佳里區","LI":"安西里","LIN":"9鄰","STREET":"和平街","SECT":" ","MAREA":" ","LANE":"１６５巷","ALLEY":" ","HOUSE_NO":"９號","E_COORD97":165571.57000000001,"N_COORD97":2562434.02,"ADDRESS":"和平街１６５巷９號","OBJECTID":383507},"geometry":{"x":165571.5700000003,"y":2562434.0200000014}},{"attributes":{"ID":383518,"DIS_CODE":0,"TOWNNAME":"下營區","LI":"仁里里","LIN":"9鄰","STREET":"公園路","SECT":" ","MAREA":" ","LANE":"２８２巷","ALLEY":" ","HOUSE_NO":"１號","E_COORD97":173837.59,"N_COORD97":2570284.1299999999,"ADDRESS":"公園路２８２巷１號","OBJECTID":383508},"geometry":{"x":173837.59000000078,"y":2570284.1300000027}},{"attributes":{"ID":383519,"DIS_CODE":0,"TOWNNAME":"下營區","LI":"仁里里","LIN":"9鄰","STREET":"公園路","SECT":" ","MAREA":" ","LANE":"３２２巷","ALLEY":" ","HOUSE_NO":"１０號","E_COORD97":173787.70000000001,"N_COORD97":2570317.0299999998,"ADDRESS":"公園路３２２巷１０號","OBJECTID":383509},"geometry":{"x":173787.70000000205,"y":2570317.0300000012}},{"attributes":{"ID":383520,"DIS_CODE":0,"TOWNNAME":"下營區","LI":"仁里里","LIN":"9鄰","STREET":"公園路","SECT":" ","MAREA":" ","LANE":"３２２巷","ALLEY":" ","HOUSE_NO":"１５號","E_COORD97":173749.47,"N_COORD97":2570341.3199999998,"ADDRESS":"公園路３２２巷１５號","OBJECTID":383510},"geometry":{"x":173749.46999999974,"y":2570341.3200000003}},{"attributes":{"ID":383521,"DIS_CODE":0,"TOWNNAME":"下營區","LI":"仁里里","LIN":"9鄰","STREET":"公園路","SECT":" ","MAREA":" ","LANE":"３２２巷","ALLEY":" ","HOUSE_NO":"１號","E_COORD97":173738.85999999999,"N_COORD97":2570320.9500000002,"ADDRESS":"公園路３２２巷１號","OBJECTID":383511},"geometry":{"x":173738.86000000034,"y":2570320.9500000011}},{"attributes":{"ID":383522,"DIS_CODE":0,"TOWNNAME":"下營區","LI":"仁里里","LIN":"9鄰","STREET":"公園路","SECT":" ","MAREA":" ","LANE":"３２２巷","ALLEY":" ","HOUSE_NO":"２１號","E_COORD97":173763.09,"N_COORD97":2570342.7799999998,"ADDRESS":"公園路３２２巷２１號","OBJECTID":383512},"geometry":{"x":173763.09000000078,"y":2570342.7800000012}},{"attributes":{"ID":383523,"DIS_CODE":0,"TOWNNAME":"下營區","LI":"仁里里","LIN":"9鄰","STREET":"公園路","SECT":" ","MAREA":" ","LANE":"３２２巷","ALLEY":" ","HOUSE_NO":"２５號","E_COORD97":173790.82999999999,"N_COORD97":2570341.4199999999,"ADDRESS":"公園路３２２巷２５號","OBJECTID":383513},"geometry":{"x":173790.83000000101,"y":2570341.4200000018}},{"attributes":{"ID":383524,"DIS_CODE":0,"TOWNNAME":"下營區","LI":"後街里","LIN":"9鄰","STREET":"民權一街","SECT":" ","MAREA":" ","LANE":"１３８巷","ALLEY":" ","HOUSE_NO":"１２號","E_COORD97":174396.26000000001,"N_COORD97":2570734.25,"ADDRESS":"民權一街１３８巷１２號","OBJECTID":383514},"geometry":{"x":174396.25999999978,"y":2570734.25}},{"attributes":{"ID":383525,"DIS_CODE":0,"TOWNNAME":"下營區","LI":"新興里","LIN":"9鄰","STREET":"自由街","SECT":" ","MAREA":" ","LANE":"２１巷","ALLEY":" ","HOUSE_NO":"１８號","E_COORD97":174733.62,"N_COORD97":2570688.9900000002,"ADDRESS":"自由街２１巷１８號","OBJECTID":383515},"geometry":{"x":174733.62000000011,"y":2570688.9900000002}},{"attributes":{"ID":383526,"DIS_CODE":0,"TOWNNAME":"下營區","LI":"新興里","LIN":"9鄰","STREET":"自由街","SECT":" ","MAREA":" ","LANE":"２１巷","ALLEY":" ","HOUSE_NO":"２２號","E_COORD97":174723.19,"N_COORD97":2570689,"ADDRESS":"自由街２１巷２２號","OBJECTID":383516},"geometry":{"x":174723.19000000041,"y":2570689}},{"attributes":{"ID":383527,"DIS_CODE":0,"TOWNNAME":"下營區","LI":"新興里","LIN":"9鄰","STREET":"自由街","SECT":" ","MAREA":" ","LANE":"２１巷","ALLEY":" ","HOUSE_NO":"２６號","E_COORD97":174719.35000000001,"N_COORD97":2570689.1099999999,"ADDRESS":"自由街２１巷２６號","OBJECTID":383517},"geometry":{"x":174719.34999999963,"y":2570689.1100000013}},{"attributes":{"ID":383528,"DIS_CODE":0,"TOWNNAME":"下營區","LI":"新興里","LIN":"9鄰","STREET":"自由街","SECT":" ","MAREA":" ","LANE":"２１巷","ALLEY":" ","HOUSE_NO":"２號","E_COORD97":174767.23999999999,"N_COORD97":2570691.2400000002,"ADDRESS":"自由街２１巷２號","OBJECTID":383518},"geometry":{"x":174767.24000000209,"y":2570691.2400000002}},{"attributes":{"ID":383529,"DIS_CODE":0,"TOWNNAME":"下營區","LI":"新興里","LIN":"9鄰","STREET":"自由街","SECT":" ","MAREA":" ","LANE":"２１巷","ALLEY":" ","HOUSE_NO":"６號","E_COORD97":174761.82000000001,"N_COORD97":2570691.0899999999,"ADDRESS":"自由街２１巷６號","OBJECTID":383519},"geometry":{"x":174761.82000000123,"y":2570691.0899999999}},{"attributes":{"ID":383530,"DIS_CODE":0,"TOWNNAME":"下營區","LI":"新興里","LIN":"9鄰","STREET":"自由街","SECT":" ","MAREA":" ","LANE":"２１巷","ALLEY":" ","HOUSE_NO":"８號","E_COORD97":174756.57000000001,"N_COORD97":2570690.8500000001,"ADDRESS":"自由街２１巷８號","OBJECTID":383520},"geometry":{"x":174756.57000000216,"y":2570690.8500000015}},{"attributes":{"ID":383531,"DIS_CODE":0,"TOWNNAME":"東區","LI":"大智里","LIN":"6鄰","STREET":"長東街","SECT":" ","MAREA":" ","LANE":"７９巷","ALLEY":" ","HOUSE_NO":"１７號","E_COORD97":171072.67999999999,"N_COORD97":2540423.8799999999,"ADDRESS":"長東街７９巷１７號","OBJECTID":383521},"geometry":{"x":171072.6799999997,"y":2540423.8800000008}},{"attributes":{"ID":383532,"DIS_CODE":0,"TOWNNAME":"東區","LI":"大智里","LIN":"6鄰","STREET":"長東街","SECT":" ","MAREA":" ","LANE":"７９巷","ALLEY":" ","HOUSE_NO":"１８號","E_COORD97":171075.01000000001,"N_COORD97":2540405.7799999998,"ADDRESS":"長東街７９巷１８號","OBJECTID":383522},"geometry":{"x":171075.01000000071,"y":2540405.7800000012}},{"attributes":{"ID":383533,"DIS_CODE":0,"TOWNNAME":"東區","LI":"大智里","LIN":"6鄰","STREET":"長東街","SECT":" ","MAREA":" ","LANE":"７９巷","ALLEY":" ","HOUSE_NO":"１９號","E_COORD97":171077.22,"N_COORD97":2540426.4500000002,"ADDRESS":"長東街７９巷１９號","OBJECTID":383523},"geometry":{"x":171077.22000000067,"y":2540426.4499999974}},{"attributes":{"ID":383534,"DIS_CODE":0,"TOWNNAME":"東區","LI":"大智里","LIN":"6鄰","STREET":"長東街","SECT":" ","MAREA":" ","LANE":"７９巷","ALLEY":" ","HOUSE_NO":"２０號","E_COORD97":171078.81,"N_COORD97":2540407.2400000002,"ADDRESS":"長東街７９巷２０號","OBJECTID":383524},"geometry":{"x":171078.80999999959,"y":2540407.2400000002}},{"attributes":{"ID":383535,"DIS_CODE":0,"TOWNNAME":"東區","LI":"大智里","LIN":"6鄰","STREET":"長東街","SECT":" ","MAREA":" ","LANE":"７９巷","ALLEY":" ","HOUSE_NO":"２１號","E_COORD97":171081.84,"N_COORD97":2540424.0600000001,"ADDRESS":"長東街７９巷２１號","OBJECTID":383525},"geometry":{"x":171081.83999999985,"y":2540424.0600000042}},{"attributes":{"ID":383536,"DIS_CODE":0,"TOWNNAME":"東區","LI":"大智里","LIN":"6鄰","STREET":"長東街","SECT":" ","MAREA":" ","LANE":"７９巷","ALLEY":" ","HOUSE_NO":"２２號","E_COORD97":171083.04000000001,"N_COORD97":2540405.9199999999,"ADDRESS":"長東街７９巷２２號","OBJECTID":383526},"geometry":{"x":171083.0400000019,"y":2540405.9199999999}},{"attributes":{"ID":383537,"DIS_CODE":0,"TOWNNAME":"東區","LI":"大智里","LIN":"6鄰","STREET":"長東街","SECT":" ","MAREA":" ","LANE":"７９巷","ALLEY":" ","HOUSE_NO":"２４號","E_COORD97":171087.14000000001,"N_COORD97":2540407.3799999999,"ADDRESS":"長東街７９巷２４號","OBJECTID":383527},"geometry":{"x":171087.14000000153,"y":2540407.3800000008}},{"attributes":{"ID":383538,"DIS_CODE":0,"TOWNNAME":"東區","LI":"大智里","LIN":"6鄰","STREET":"長東街","SECT":" ","MAREA":" ","LANE":"７９巷","ALLEY":" ","HOUSE_NO":"２５號","E_COORD97":171089.48000000001,"N_COORD97":2540424.6800000002,"ADDRESS":"長東街７９巷２５號","OBJECTID":383528},"geometry":{"x":171089.48000000138,"y":2540424.6799999997}},{"attributes":{"ID":383539,"DIS_CODE":0,"TOWNNAME":"東區","LI":"大智里","LIN":"6鄰","STREET":"長東街","SECT":" ","MAREA":" ","LANE":"７９巷","ALLEY":" ","HOUSE_NO":"２６號","E_COORD97":171091.95999999999,"N_COORD97":2540406.21,"ADDRESS":"長東街７９巷２６號","OBJECTID":383529},"geometry":{"x":171091.96000000183,"y":2540406.2100000046}},{"attributes":{"ID":383540,"DIS_CODE":0,"TOWNNAME":"東區","LI":"大智里","LIN":"6鄰","STREET":"長東街","SECT":" ","MAREA":" ","LANE":"７９巷","ALLEY":" ","HOUSE_NO":"２９號","E_COORD97":171098.01999999999,"N_COORD97":2540424.9399999999,"ADDRESS":"長東街７９巷２９號","OBJECTID":383530},"geometry":{"x":171098.02000000142,"y":2540424.9400000013}},{"attributes":{"ID":383541,"DIS_CODE":0,"TOWNNAME":"東區","LI":"大智里","LIN":"6鄰","STREET":"長東街","SECT":" ","MAREA":" ","LANE":"７９巷","ALLEY":" ","HOUSE_NO":"３０號","E_COORD97":171100.44,"N_COORD97":2540406.9399999999,"ADDRESS":"長東街７９巷３０號","OBJECTID":383531},"geometry":{"x":171100.44000000041,"y":2540406.9400000013}},{"attributes":{"ID":383542,"DIS_CODE":0,"TOWNNAME":"東區","LI":"大智里","LIN":"6鄰","STREET":"長東街","SECT":" ","MAREA":" ","LANE":"７９巷","ALLEY":" ","HOUSE_NO":"３１號","E_COORD97":171102.10999999999,"N_COORD97":2540427.7000000002,"ADDRESS":"長東街７９巷３１號","OBJECTID":383532},"geometry":{"x":171102.11000000127,"y":2540427.6999999993}},{"attributes":{"ID":383543,"DIS_CODE":0,"TOWNNAME":"東區","LI":"大智里","LIN":"6鄰","STREET":"長東街","SECT":" ","MAREA":" ","LANE":"７９巷","ALLEY":" ","HOUSE_NO":"３２號","E_COORD97":171104.23999999999,"N_COORD97":2540408.5499999998,"ADDRESS":"長東街７９巷３２號","OBJECTID":383533},"geometry":{"x":171104.24000000115,"y":2540408.5500000026}},{"attributes":{"ID":383544,"DIS_CODE":0,"TOWNNAME":"東區","LI":"大智里","LIN":"6鄰","STREET":"長東街","SECT":" ","MAREA":" ","LANE":"７９巷","ALLEY":" ","HOUSE_NO":"３３號","E_COORD97":171106.73000000001,"N_COORD97":2540426.0099999998,"ADDRESS":"長東街７９巷３３號","OBJECTID":383534},"geometry":{"x":171106.73000000138,"y":2540426.0099999998}},{"attributes":{"ID":383545,"DIS_CODE":0,"TOWNNAME":"下營區","LI":"新興里","LIN":"9鄰","STREET":"自由街","SECT":" ","MAREA":" ","LANE":"３７巷","ALLEY":" ","HOUSE_NO":"７號","E_COORD97":174754.28,"N_COORD97":2570714.4500000002,"ADDRESS":"自由街３７巷７號","OBJECTID":383535},"geometry":{"x":174754.28000000026,"y":2570714.4500000011}},{"attributes":{"ID":383546,"DIS_CODE":0,"TOWNNAME":"東區","LI":"大智里","LIN":"7鄰","STREET":"長東街","SECT":" ","MAREA":" ","LANE":"１０３巷","ALLEY":" ","HOUSE_NO":"２號之１０","E_COORD97":171089.66,"N_COORD97":2540323.1600000001,"ADDRESS":"長東街１０３巷２號之１０","OBJECTID":383536},"geometry":{"x":171089.66000000108,"y":2540323.1600000001}},{"attributes":{"ID":383547,"DIS_CODE":0,"TOWNNAME":"東區","LI":"大智里","LIN":"7鄰","STREET":"長東街","SECT":" ","MAREA":" ","LANE":"１０３巷","ALLEY":" ","HOUSE_NO":"２號之１１","E_COORD97":171089.81,"N_COORD97":2540317.8799999999,"ADDRESS":"長東街１０３巷２號之１１","OBJECTID":383537},"geometry":{"x":171089.81000000052,"y":2540317.879999999}},{"attributes":{"ID":383548,"DIS_CODE":0,"TOWNNAME":"東區","LI":"大智里","LIN":"7鄰","STREET":"長東街","SECT":" ","MAREA":" ","LANE":"１０３巷","ALLEY":" ","HOUSE_NO":"２號之１２","E_COORD97":171089.66,"N_COORD97":2540312.8900000001,"ADDRESS":"長東街１０３巷２號之１２","OBJECTID":383538},"geometry":{"x":171089.66000000108,"y":2540312.8899999987}},{"attributes":{"ID":383549,"DIS_CODE":0,"TOWNNAME":"東區","LI":"大智里","LIN":"7鄰","STREET":"長東街","SECT":" ","MAREA":" ","LANE":"１０３巷","ALLEY":" ","HOUSE_NO":"２號之１３","E_COORD97":171089.66,"N_COORD97":2540309.04,"ADDRESS":"長東街１０３巷２號之１３","OBJECTID":383539},"geometry":{"x":171089.66000000108,"y":2540309.0399999991}},{"attributes":{"ID":383550,"DIS_CODE":0,"TOWNNAME":"東區","LI":"大智里","LIN":"7鄰","STREET":"長東街","SECT":" ","MAREA":" ","LANE":"１０３巷","ALLEY":" ","HOUSE_NO":"２號之１４","E_COORD97":171090.09,"N_COORD97":2540304.7599999998,"ADDRESS":"長東街１０３巷２號之１４","OBJECTID":383540},"geometry":{"x":171090.09000000078,"y":2540304.7599999998}},{"attributes":{"ID":383551,"DIS_CODE":0,"TOWNNAME":"東區","LI":"大智里","LIN":"7鄰","STREET":"長東街","SECT":" ","MAREA":" ","LANE":"１０３巷","ALLEY":" ","HOUSE_NO":"２號之１５","E_COORD97":171090.38,"N_COORD97":2540300.3300000001,"ADDRESS":"長東街１０３巷２號之１５","OBJECTID":383541},"geometry":{"x":171090.37999999989,"y":2540300.3300000019}},{"attributes":{"ID":383552,"DIS_CODE":0,"TOWNNAME":"東區","LI":"大智里","LIN":"7鄰","STREET":"長東街","SECT":" ","MAREA":" ","LANE":"１０３巷","ALLEY":" ","HOUSE_NO":"２號之１６","E_COORD97":171089.81,"N_COORD97":2540296.48,"ADDRESS":"長東街１０３巷２號之１６","OBJECTID":383542},"geometry":{"x":171089.81000000052,"y":2540296.4800000023}},{"attributes":{"ID":383553,"DIS_CODE":0,"TOWNNAME":"東區","LI":"大智里","LIN":"7鄰","STREET":"長東街","SECT":" ","MAREA":" ","LANE":"１０３巷","ALLEY":" ","HOUSE_NO":"２號之１７","E_COORD97":171090.51999999999,"N_COORD97":2540288.2000000002,"ADDRESS":"長東街１０３巷２號之１７","OBJECTID":383543},"geometry":{"x":171090.51999999955,"y":2540288.1999999993}},{"attributes":{"ID":383554,"DIS_CODE":0,"TOWNNAME":"東區","LI":"大智里","LIN":"7鄰","STREET":"長東街","SECT":" ","MAREA":" ","LANE":"１０３巷","ALLEY":" ","HOUSE_NO":"２號之３","E_COORD97":171052.67999999999,"N_COORD97":2540334.5800000001,"ADDRESS":"長東街１０３巷２號之３","OBJECTID":383544},"geometry":{"x":171052.6799999997,"y":2540334.5800000001}},{"attributes":{"ID":383555,"DIS_CODE":0,"TOWNNAME":"東區","LI":"大智里","LIN":"7鄰","STREET":"長東街","SECT":" ","MAREA":" ","LANE":"１０３巷","ALLEY":" ","HOUSE_NO":"２號之４","E_COORD97":171062.95999999999,"N_COORD97":2540334.7200000002,"ADDRESS":"長東街１０３巷２號之４","OBJECTID":383545},"geometry":{"x":171062.95999999996,"y":2540334.7200000044}},{"attributes":{"ID":383556,"DIS_CODE":0,"TOWNNAME":"東區","LI":"大智里","LIN":"7鄰","STREET":"長東街","SECT":" ","MAREA":" ","LANE":"１０３巷","ALLEY":" ","HOUSE_NO":"２號之５","E_COORD97":171066.82000000001,"N_COORD97":2540334.7200000002,"ADDRESS":"長東街１０３巷２號之５","OBJECTID":383546},"geometry":{"x":171066.82000000123,"y":2540334.7200000044}},{"attributes":{"ID":383557,"DIS_CODE":0,"TOWNNAME":"東區","LI":"大智里","LIN":"7鄰","STREET":"長東街","SECT":" ","MAREA":" ","LANE":"１０３巷","ALLEY":" ","HOUSE_NO":"２號之６","E_COORD97":171070.10000000001,"N_COORD97":2540335,"ADDRESS":"長東街１０３巷２號之６","OBJECTID":383547},"geometry":{"x":171070.09999999963,"y":2540335}},{"attributes":{"ID":383558,"DIS_CODE":0,"TOWNNAME":"東區","LI":"大智里","LIN":"7鄰","STREET":"長東街","SECT":" ","MAREA":" ","LANE":"１０３巷","ALLEY":" ","HOUSE_NO":"２號之８","E_COORD97":171083.38,"N_COORD97":2540334.5800000001,"ADDRESS":"長東街１０３巷２號之８","OBJECTID":383548},"geometry":{"x":171083.37999999989,"y":2540334.5800000001}},{"attributes":{"ID":383559,"DIS_CODE":0,"TOWNNAME":"東區","LI":"大智里","LIN":"7鄰","STREET":"長東街","SECT":" ","MAREA":" ","LANE":"１０３巷","ALLEY":" ","HOUSE_NO":"２號之９","E_COORD97":171086.95000000001,"N_COORD97":2540334.5800000001,"ADDRESS":"長東街１０３巷２號之９","OBJECTID":383549},"geometry":{"x":171086.95000000019,"y":2540334.5800000001}},{"attributes":{"ID":383560,"DIS_CODE":0,"TOWNNAME":"東區","LI":"大智里","LIN":"8鄰","STREET":"長東街","SECT":" ","MAREA":" ","LANE":"１０３巷","ALLEY":" ","HOUSE_NO":"１０號","E_COORD97":171114,"N_COORD97":2540325.6099999999,"ADDRESS":"長東街１０３巷１０號","OBJECTID":383550},"geometry":{"x":171114.00000000093,"y":2540325.6100000013}},{"attributes":{"ID":383561,"DIS_CODE":0,"TOWNNAME":"東區","LI":"崇信里","LIN":"9鄰","STREET":"崇信街","SECT":" ","MAREA":" ","LANE":"５１巷","ALLEY":" ","HOUSE_NO":"２０號","E_COORD97":170782.57999999999,"N_COORD97":2542466.9900000002,"ADDRESS":"崇信街５１巷２０號","OBJECTID":383551},"geometry":{"x":170782.58000000007,"y":2542466.9900000002}},{"attributes":{"ID":383562,"DIS_CODE":0,"TOWNNAME":"東區","LI":"崇信里","LIN":"9鄰","STREET":"崇信街","SECT":" ","MAREA":" ","LANE":"５１巷","ALLEY":" ","HOUSE_NO":"２２號","E_COORD97":170790.20000000001,"N_COORD97":2542473.29,"ADDRESS":"崇信街５１巷２２號","OBJECTID":383552},"geometry":{"x":170790.20000000019,"y":2542473.290000001}},{"attributes":{"ID":383563,"DIS_CODE":0,"TOWNNAME":"東區","LI":"崇信里","LIN":"9鄰","STREET":"崇信街","SECT":" ","MAREA":" ","LANE":"５１巷","ALLEY":" ","HOUSE_NO":"２號","E_COORD97":170757.88,"N_COORD97":2542435.7599999998,"ADDRESS":"崇信街５１巷２號","OBJECTID":383553},"geometry":{"x":170757.87999999989,"y":2542435.7600000035}},{"attributes":{"ID":383564,"DIS_CODE":0,"TOWNNAME":"東區","LI":"崇信里","LIN":"9鄰","STREET":"崇信街","SECT":" ","MAREA":" ","LANE":"５１巷","ALLEY":" ","HOUSE_NO":"４號","E_COORD97":170761.56,"N_COORD97":2542439.4399999999,"ADDRESS":"崇信街５１巷４號","OBJECTID":383554},"geometry":{"x":170761.55999999959,"y":2542439.4399999995}},{"attributes":{"ID":383565,"DIS_CODE":0,"TOWNNAME":"東區","LI":"崇信里","LIN":"9鄰","STREET":"崇信街","SECT":" ","MAREA":" ","LANE":"５１巷","ALLEY":" ","HOUSE_NO":"６號","E_COORD97":170764.70999999999,"N_COORD97":2542443.3700000001,"ADDRESS":"崇信街５１巷６號","OBJECTID":383555},"geometry":{"x":170764.70999999903,"y":2542443.3700000029}},{"attributes":{"ID":383566,"DIS_CODE":0,"TOWNNAME":"東區","LI":"崇信里","LIN":"9鄰","STREET":"崇信街","SECT":" ","MAREA":" ","LANE":"６１巷","ALLEY":" ","HOUSE_NO":"１０號","E_COORD97":170761.98000000001,"N_COORD97":2542387.52,"ADDRESS":"崇信街６１巷１０號","OBJECTID":383556},"geometry":{"x":170761.98000000138,"y":2542387.5200000014}},{"attributes":{"ID":383567,"DIS_CODE":0,"TOWNNAME":"東區","LI":"崇信里","LIN":"9鄰","STREET":"崇信街","SECT":" ","MAREA":" ","LANE":"６１巷","ALLEY":" ","HOUSE_NO":"１２號","E_COORD97":170762.73999999999,"N_COORD97":2542384.04,"ADDRESS":"崇信街６１巷１２號","OBJECTID":383557},"geometry":{"x":170762.74000000022,"y":2542384.0399999991}},{"attributes":{"ID":383568,"DIS_CODE":0,"TOWNNAME":"東區","LI":"崇信里","LIN":"9鄰","STREET":"崇信街","SECT":" ","MAREA":" ","LANE":"６１巷","ALLEY":" ","HOUSE_NO":"１４號","E_COORD97":170763.79999999999,"N_COORD97":2542379.8100000001,"ADDRESS":"崇信街６１巷１４號","OBJECTID":383558},"geometry":{"x":170763.79999999981,"y":2542379.8100000024}},{"attributes":{"ID":383569,"DIS_CODE":0,"TOWNNAME":"東區","LI":"崇信里","LIN":"9鄰","STREET":"崇信街","SECT":" ","MAREA":" ","LANE":"６１巷","ALLEY":" ","HOUSE_NO":"１６號","E_COORD97":170765.01000000001,"N_COORD97":2542376.1800000002,"ADDRESS":"崇信街６１巷１６號","OBJECTID":383559},"geometry":{"x":170765.01000000071,"y":2542376.1800000016}},{"attributes":{"ID":383570,"DIS_CODE":0,"TOWNNAME":"東區","LI":"崇信里","LIN":"9鄰","STREET":"崇信街","SECT":" ","MAREA":" ","LANE":"６１巷","ALLEY":" ","HOUSE_NO":"１８號","E_COORD97":170765.60999999999,"N_COORD97":2542372.5499999998,"ADDRESS":"崇信街６１巷１８號","OBJECTID":383560},"geometry":{"x":170765.61000000034,"y":2542372.5500000007}},{"attributes":{"ID":383571,"DIS_CODE":0,"TOWNNAME":"東區","LI":"崇信里","LIN":"9鄰","STREET":"崇信街","SECT":" ","MAREA":" ","LANE":"６１巷","ALLEY":" ","HOUSE_NO":"２０號","E_COORD97":170767.28,"N_COORD97":2542369.0699999998,"ADDRESS":"崇信街６１巷２０號","OBJECTID":383561},"geometry":{"x":170767.28000000026,"y":2542369.0700000003}},{"attributes":{"ID":383572,"DIS_CODE":0,"TOWNNAME":"東區","LI":"崇信里","LIN":"9鄰","STREET":"崇信街","SECT":" ","MAREA":" ","LANE":"６１巷","ALLEY":" ","HOUSE_NO":"２２號","E_COORD97":170767.89000000001,"N_COORD97":2542364.8399999999,"ADDRESS":"崇信街６１巷２２號","OBJECTID":383562},"geometry":{"x":170767.88999999966,"y":2542364.8400000017}},{"attributes":{"ID":383573,"DIS_CODE":0,"TOWNNAME":"東區","LI":"崇信里","LIN":"9鄰","STREET":"崇信街","SECT":" ","MAREA":" ","LANE":"６１巷","ALLEY":" ","HOUSE_NO":"２號","E_COORD97":170755.92000000001,"N_COORD97":2542403.1000000001,"ADDRESS":"崇信街６１巷２號","OBJECTID":383563},"geometry":{"x":170755.91999999993,"y":2542403.1000000015}},{"attributes":{"ID":383574,"DIS_CODE":0,"TOWNNAME":"東區","LI":"崇信里","LIN":"9鄰","STREET":"崇信街","SECT":" ","MAREA":" ","LANE":"６１巷","ALLEY":" ","HOUSE_NO":"４號","E_COORD97":170758.04000000001,"N_COORD97":2542398.71,"ADDRESS":"崇信街６１巷４號","OBJECTID":383564},"geometry":{"x":170758.04000000097,"y":2542398.7100000009}},{"attributes":{"ID":383575,"DIS_CODE":0,"TOWNNAME":"東區","LI":"崇信里","LIN":"9鄰","STREET":"崇信街","SECT":" ","MAREA":" ","LANE":"６１巷","ALLEY":" ","HOUSE_NO":"６號","E_COORD97":170759.41,"N_COORD97":2542394.7799999998,"ADDRESS":"崇信街６１巷６號","OBJECTID":383565},"geometry":{"x":170759.41000000015,"y":2542394.7800000012}},{"attributes":{"ID":383576,"DIS_CODE":0,"TOWNNAME":"東區","LI":"崇信里","LIN":"9鄰","STREET":"崇信街","SECT":" ","MAREA":" ","LANE":"６１巷","ALLEY":" ","HOUSE_NO":"８號","E_COORD97":170760.62,"N_COORD97":2542391.4500000002,"ADDRESS":"崇信街６１巷８號","OBJECTID":383566},"geometry":{"x":170760.62000000104,"y":2542391.4499999993}},{"attributes":{"ID":383577,"DIS_CODE":0,"TOWNNAME":"麻豆區","LI":"中興里","LIN":"9鄰","STREET":"興國路","SECT":" ","MAREA":" ","LANE":"３８巷","ALLEY":" ","HOUSE_NO":"１２號","E_COORD97":172950.45000000001,"N_COORD97":2564509.9399999999,"ADDRESS":"興國路３８巷１２號","OBJECTID":383567},"geometry":{"x":172950.45000000112,"y":2564509.9400000013}},{"attributes":{"ID":383578,"DIS_CODE":0,"TOWNNAME":"麻豆區","LI":"中興里","LIN":"9鄰","STREET":"興國路","SECT":" ","MAREA":" ","LANE":"３８巷","ALLEY":" ","HOUSE_NO":"１４號","E_COORD97":172928.60000000001,"N_COORD97":2564443.54,"ADDRESS":"興國路３８巷１４號","OBJECTID":383568},"geometry":{"x":172928.60000000056,"y":2564443.5400000028}},{"attributes":{"ID":383579,"DIS_CODE":0,"TOWNNAME":"麻豆區","LI":"中興里","LIN":"9鄰","STREET":"興國路","SECT":" ","MAREA":" ","LANE":"３８巷","ALLEY":" ","HOUSE_NO":"１５號","E_COORD97":172921.47,"N_COORD97":2564454.4300000002,"ADDRESS":"興國路３８巷１５號","OBJECTID":383569},"geometry":{"x":172921.47000000067,"y":2564454.4299999997}},{"attributes":{"ID":383580,"DIS_CODE":0,"TOWNNAME":"麻豆區","LI":"中興里","LIN":"9鄰","STREET":"興國路","SECT":" ","MAREA":" ","LANE":"３８巷","ALLEY":" ","HOUSE_NO":"１６號","E_COORD97":172920.70999999999,"N_COORD97":2564458.8999999999,"ADDRESS":"興國路３８巷１６號","OBJECTID":383570},"geometry":{"x":172920.70999999996,"y":2564458.8999999985}},{"attributes":{"ID":383581,"DIS_CODE":0,"TOWNNAME":"麻豆區","LI":"中興里","LIN":"9鄰","STREET":"興國路","SECT":" ","MAREA":" ","LANE":"３８巷","ALLEY":" ","HOUSE_NO":"１７號","E_COORD97":172919.73999999999,"N_COORD97":2564463.9100000001,"ADDRESS":"興國路３８巷１７號","OBJECTID":383571},"geometry":{"x":172919.74000000115,"y":2564463.910000002}},{"attributes":{"ID":383582,"DIS_CODE":0,"TOWNNAME":"麻豆區","LI":"中興里","LIN":"9鄰","STREET":"興國路","SECT":" ","MAREA":" ","LANE":"３８巷","ALLEY":" ","HOUSE_NO":"１８號","E_COORD97":172922.75,"N_COORD97":2564473.2200000002,"ADDRESS":"興國路３８巷１８號","OBJECTID":383572},"geometry":{"x":172922.75000000093,"y":2564473.2200000007}},{"attributes":{"ID":383583,"DIS_CODE":0,"TOWNNAME":"麻豆區","LI":"中興里","LIN":"9鄰","STREET":"興國路","SECT":" ","MAREA":" ","LANE":"３８巷","ALLEY":" ","HOUSE_NO":"１９號","E_COORD97":172921.66,"N_COORD97":2564477.4500000002,"ADDRESS":"興國路３８巷１９號","OBJECTID":383573},"geometry":{"x":172921.66000000201,"y":2564477.4499999993}},{"attributes":{"ID":383584,"DIS_CODE":0,"TOWNNAME":"麻豆區","LI":"中興里","LIN":"9鄰","STREET":"興國路","SECT":" ","MAREA":" ","LANE":"３８巷","ALLEY":" ","HOUSE_NO":"２０號","E_COORD97":172921,"N_COORD97":2564481.27,"ADDRESS":"興國路３８巷２０號","OBJECTID":383574},"geometry":{"x":172921.00000000093,"y":2564481.2699999996}},{"attributes":{"ID":383585,"DIS_CODE":0,"TOWNNAME":"麻豆區","LI":"中興里","LIN":"9鄰","STREET":"興國路","SECT":" ","MAREA":" ","LANE":"３８巷","ALLEY":" ","HOUSE_NO":"２１號","E_COORD97":172934.35999999999,"N_COORD97":2564481.4700000002,"ADDRESS":"興國路３８巷２１號","OBJECTID":383575},"geometry":{"x":172934.36000000127,"y":2564481.4700000007}},{"attributes":{"ID":383586,"DIS_CODE":0,"TOWNNAME":"麻豆區","LI":"中興里","LIN":"9鄰","STREET":"興國路","SECT":" ","MAREA":" ","LANE":"３８巷","ALLEY":" ","HOUSE_NO":"２２號","E_COORD97":172940.35000000001,"N_COORD97":2564482.5800000001,"ADDRESS":"興國路３８巷２２號","OBJECTID":383576},"geometry":{"x":172940.35000000056,"y":2564482.5800000019}},{"attributes":{"ID":383587,"DIS_CODE":0,"TOWNNAME":"麻豆區","LI":"中興里","LIN":"9鄰","STREET":"興國路","SECT":" ","MAREA":" ","LANE":"３８巷","ALLEY":" ","HOUSE_NO":"２３號","E_COORD97":172953.10000000001,"N_COORD97":2564481.4500000002,"ADDRESS":"興國路３８巷２３號","OBJECTID":383577},"geometry":{"x":172953.09999999963,"y":2564481.450000003}},{"attributes":{"ID":383588,"DIS_CODE":0,"TOWNNAME":"麻豆區","LI":"中興里","LIN":"9鄰","STREET":"興國路","SECT":" ","MAREA":" ","LANE":"３８巷","ALLEY":" ","HOUSE_NO":"２４號","E_COORD97":172953.92999999999,"N_COORD97":2564475.7799999998,"ADDRESS":"興國路３８巷２４號","OBJECTID":383578},"geometry":{"x":172953.93000000063,"y":2564475.7800000031}},{"attributes":{"ID":383589,"DIS_CODE":0,"TOWNNAME":"麻豆區","LI":"中興里","LIN":"9鄰","STREET":"興國路","SECT":" ","MAREA":" ","LANE":"３８巷","ALLEY":" ","HOUSE_NO":"２５號","E_COORD97":172947.92999999999,"N_COORD97":2564463.77,"ADDRESS":"興國路３８巷２５號","OBJECTID":383579},"geometry":{"x":172947.9299999997,"y":2564463.7700000014}},{"attributes":{"ID":383590,"DIS_CODE":0,"TOWNNAME":"麻豆區","LI":"中興里","LIN":"9鄰","STREET":"興國路","SECT":" ","MAREA":" ","LANE":"３８巷","ALLEY":" ","HOUSE_NO":"２７號","E_COORD97":172938.57000000001,"N_COORD97":2564461.5299999998,"ADDRESS":"興國路３８巷２７號","OBJECTID":383580},"geometry":{"x":172938.5700000003,"y":2564461.5300000012}},{"attributes":{"ID":383591,"DIS_CODE":0,"TOWNNAME":"麻豆區","LI":"中興里","LIN":"9鄰","STREET":"興國路","SECT":" ","MAREA":" ","LANE":"３８巷","ALLEY":" ","HOUSE_NO":"２８號","E_COORD97":172933.97,"N_COORD97":2564460.3399999999,"ADDRESS":"興國路３８巷２８號","OBJECTID":383581},"geometry":{"x":172933.96999999974,"y":2564460.3400000017}},{"attributes":{"ID":383592,"DIS_CODE":0,"TOWNNAME":"麻豆區","LI":"中興里","LIN":"9鄰","STREET":"興國路","SECT":" ","MAREA":" ","LANE":"３８巷","ALLEY":" ","HOUSE_NO":"２９號","E_COORD97":172938.06,"N_COORD97":2564444.4700000002,"ADDRESS":"興國路３８巷２９號","OBJECTID":383582},"geometry":{"x":172938.05999999959,"y":2564444.4700000007}},{"attributes":{"ID":383593,"DIS_CODE":0,"TOWNNAME":"麻豆區","LI":"中興里","LIN":"9鄰","STREET":"興國路","SECT":" ","MAREA":" ","LANE":"３８巷","ALLEY":" ","HOUSE_NO":"３０號","E_COORD97":172942.51999999999,"N_COORD97":2564445.6000000001,"ADDRESS":"興國路３８巷３０號","OBJECTID":383583},"geometry":{"x":172942.52000000048,"y":2564445.5999999996}},{"attributes":{"ID":383594,"DIS_CODE":0,"TOWNNAME":"麻豆區","LI":"中興里","LIN":"9鄰","STREET":"興國路","SECT":" ","MAREA":" ","LANE":"３８巷","ALLEY":" ","HOUSE_NO":"３１號","E_COORD97":172946.98999999999,"N_COORD97":2564446.5099999998,"ADDRESS":"興國路３８巷３１號","OBJECTID":383584},"geometry":{"x":172946.99000000115,"y":2564446.5099999998}},{"attributes":{"ID":383595,"DIS_CODE":0,"TOWNNAME":"麻豆區","LI":"中興里","LIN":"9鄰","STREET":"興國路","SECT":" ","MAREA":" ","LANE":"３８巷","ALLEY":" ","HOUSE_NO":"３２號","E_COORD97":172951.51000000001,"N_COORD97":2564447.54,"ADDRESS":"興國路３８巷３２號","OBJECTID":383585},"geometry":{"x":172951.51000000071,"y":2564447.540000001}},{"attributes":{"ID":383596,"DIS_CODE":0,"TOWNNAME":"麻豆區","LI":"中興里","LIN":"9鄰","STREET":"興國路","SECT":" ","MAREA":" ","LANE":"３８巷","ALLEY":" ","HOUSE_NO":"３３號","E_COORD97":172956.01000000001,"N_COORD97":2564426.7400000002,"ADDRESS":"興國路３８巷３３號","OBJECTID":383586},"geometry":{"x":172956.00999999885,"y":2564426.7400000021}},{"attributes":{"ID":383597,"DIS_CODE":0,"TOWNNAME":"麻豆區","LI":"中興里","LIN":"9鄰","STREET":"興國路","SECT":" ","MAREA":" ","LANE":"３８巷","ALLEY":" ","HOUSE_NO":"３４號","E_COORD97":172951.41,"N_COORD97":2564426.0899999999,"ADDRESS":"興國路３８巷３４號","OBJECTID":383587},"geometry":{"x":172951.41000000015,"y":2564426.0899999999}},{"attributes":{"ID":383598,"DIS_CODE":0,"TOWNNAME":"麻豆區","LI":"中興里","LIN":"9鄰","STREET":"興國路","SECT":" ","MAREA":" ","LANE":"３８巷","ALLEY":" ","HOUSE_NO":"３５號","E_COORD97":172946.98000000001,"N_COORD97":2564425.21,"ADDRESS":"興國路３８巷３５號","OBJECTID":383588},"geometry":{"x":172946.98000000231,"y":2564425.2100000028}},{"attributes":{"ID":383599,"DIS_CODE":0,"TOWNNAME":"麻豆區","LI":"中興里","LIN":"9鄰","STREET":"興國路","SECT":" ","MAREA":" ","LANE":"３８巷","ALLEY":" ","HOUSE_NO":"３６號","E_COORD97":172942.67000000001,"N_COORD97":2564423.8999999999,"ADDRESS":"興國路３８巷３６號","OBJECTID":383589},"geometry":{"x":172942.66999999993,"y":2564423.9000000004}},{"attributes":{"ID":383600,"DIS_CODE":0,"TOWNNAME":"麻豆區","LI":"中興里","LIN":"9鄰","STREET":"興國路","SECT":" ","MAREA":" ","LANE":"３８巷","ALLEY":" ","HOUSE_NO":"３７號","E_COORD97":172927.35000000001,"N_COORD97":2564423.2000000002,"ADDRESS":"興國路３８巷３７號","OBJECTID":383590},"geometry":{"x":172927.35000000056,"y":2564423.2000000011}},{"attributes":{"ID":383601,"DIS_CODE":0,"TOWNNAME":"麻豆區","LI":"中興里","LIN":"9鄰","STREET":"興國路","SECT":" ","MAREA":" ","LANE":"３８巷","ALLEY":" ","HOUSE_NO":"３８號","E_COORD97":172928.89999999999,"N_COORD97":2564417.0099999998,"ADDRESS":"興國路３８巷３８號","OBJECTID":383591},"geometry":{"x":172928.9000000013,"y":2564417.0100000035}},{"attributes":{"ID":383602,"DIS_CODE":0,"TOWNNAME":"東區","LI":"崇明里","LIN":"5鄰","STREET":"大同路","SECT":"二段","MAREA":" ","LANE":"４０３巷","ALLEY":" ","HOUSE_NO":"９１號","E_COORD97":169667.92000000001,"N_COORD97":2541443.4399999999,"ADDRESS":"大同路二段４０３巷９１號","OBJECTID":383592},"geometry":{"x":169667.91999999993,"y":2541443.4399999995}},{"attributes":{"ID":383603,"DIS_CODE":0,"TOWNNAME":"東區","LI":"崇明里","LIN":"5鄰","STREET":"大同路","SECT":"二段","MAREA":" ","LANE":"４０３巷","ALLEY":" ","HOUSE_NO":"９３號","E_COORD97":169668.95999999999,"N_COORD97":2541439.46,"ADDRESS":"大同路二段４０３巷９３號","OBJECTID":383593},"geometry":{"x":169668.95999999996,"y":2541439.4600000028}},{"attributes":{"ID":383604,"DIS_CODE":0,"TOWNNAME":"東區","LI":"崇明里","LIN":"5鄰","STREET":"大同路","SECT":"二段","MAREA":" ","LANE":"４０３巷","ALLEY":" ","HOUSE_NO":"９５號","E_COORD97":169670.82000000001,"N_COORD97":2541436.79,"ADDRESS":"大同路二段４０３巷９５號","OBJECTID":383594},"geometry":{"x":169670.8200000003,"y":2541436.7899999991}},{"attributes":{"ID":383605,"DIS_CODE":0,"TOWNNAME":"東區","LI":"崇明里","LIN":"5鄰","STREET":"大同路","SECT":"二段","MAREA":" ","LANE":"４０３巷","ALLEY":" ","HOUSE_NO":"９７號","E_COORD97":169672.07999999999,"N_COORD97":2541433.0499999998,"ADDRESS":"大同路二段４０３巷９７號","OBJECTID":383595},"geometry":{"x":169672.08000000007,"y":2541433.0500000007}},{"attributes":{"ID":383606,"DIS_CODE":0,"TOWNNAME":"東區","LI":"崇明里","LIN":"5鄰","STREET":"大同路","SECT":"二段","MAREA":" ","LANE":"４０３巷","ALLEY":" ","HOUSE_NO":"９９號","E_COORD97":169675.01999999999,"N_COORD97":2541426.6400000001,"ADDRESS":"大同路二段４０３巷９９號","OBJECTID":383596},"geometry":{"x":169675.01999999955,"y":2541426.6399999987}},{"attributes":{"ID":383607,"DIS_CODE":0,"TOWNNAME":"東區","LI":"崇明里","LIN":"7鄰","STREET":"大同路","SECT":"二段","MAREA":" ","LANE":"４４９巷","ALLEY":" ","HOUSE_NO":"２０號","E_COORD97":169683.87,"N_COORD97":2541330.3199999998,"ADDRESS":"大同路二段４４９巷２０號","OBJECTID":383597},"geometry":{"x":169683.87000000011,"y":2541330.320000004}},{"attributes":{"ID":383608,"DIS_CODE":0,"TOWNNAME":"東區","LI":"崇明里","LIN":"7鄰","STREET":"大同路","SECT":"二段","MAREA":" ","LANE":"４４９巷","ALLEY":" ","HOUSE_NO":"２２號","E_COORD97":169703.63,"N_COORD97":2541341.8599999999,"ADDRESS":"大同路二段４４９巷２２號","OBJECTID":383598},"geometry":{"x":169703.62999999989,"y":2541341.8599999994}},{"attributes":{"ID":383609,"DIS_CODE":0,"TOWNNAME":"安南區","LI":"城南里","LIN":"9鄰","STREET":"城西街","SECT":"一段","MAREA":" ","LANE":"２４９巷","ALLEY":" ","HOUSE_NO":"１０１號","E_COORD97":160349.81,"N_COORD97":2551110.1099999999,"ADDRESS":"城西街一段２４９巷１０１號","OBJECTID":383599},"geometry":{"x":160349.80999999959,"y":2551110.1100000013}},{"attributes":{"ID":383610,"DIS_CODE":0,"TOWNNAME":"安南區","LI":"城南里","LIN":"9鄰","STREET":"城西街","SECT":"一段","MAREA":" ","LANE":"２４９巷","ALLEY":" ","HOUSE_NO":"１０３號","E_COORD97":160345.59,"N_COORD97":2551118.2999999998,"ADDRESS":"城西街一段２４９巷１０３號","OBJECTID":383600},"geometry":{"x":160345.59000000078,"y":2551118.3000000007}}]}