{"displayFieldName":"TOWNNAME","fieldAliases":{"ID":"ID","DIS_CODE":"DIS_CODE","TOWNNAME":"TOWNNAME","LI":"LI","LIN":"LIN","STREET":"STREET","SECT":"SECT","MAREA":"MAREA","LANE":"LANE","ALLEY":"ALLEY","HOUSE_NO":"HOUSE_NO","E_COORD97":"E_COORD97","N_COORD97":"N_COORD97","ADDRESS":"ADDRESS","OBJECTID":"OBJECTID"},"geometryType":"esriGeometryPoint","spatialReference":{"wkid":102443,"latestWkid":3826},"fields":[{"name":"ID","type":"esriFieldTypeDouble","alias":"ID"},{"name":"DIS_CODE","type":"esriFieldTypeInteger","alias":"DIS_CODE"},{"name":"TOWNNAME","type":"esriFieldTypeString","alias":"TOWNNAME","length":8},{"name":"LI","type":"esriFieldTypeString","alias":"LI","length":8},{"name":"LIN","type":"esriFieldTypeString","alias":"LIN","length":12},{"name":"STREET","type":"esriFieldTypeString","alias":"STREET","length":20},{"name":"SECT","type":"esriFieldTypeString","alias":"SECT","length":8},{"name":"MAREA","type":"esriFieldTypeString","alias":"MAREA","length":12},{"name":"LANE","type":"esriFieldTypeString","alias":"LANE","length":10},{"name":"ALLEY","type":"esriFieldTypeString","alias":"ALLEY","length":10},{"name":"HOUSE_NO","type":"esriFieldTypeString","alias":"HOUSE_NO","length":20},{"name":"E_COORD97","type":"esriFieldTypeDouble","alias":"E_COORD97"},{"name":"N_COORD97","type":"esriFieldTypeDouble","alias":"N_COORD97"},{"name":"ADDRESS","type":"esriFieldTypeString","alias":"ADDRESS","length":50},{"name":"OBJECTID","type":"esriFieldTypeOID","alias":"OBJECTID"}],"features":[{"attributes":{"ID":591028,"DIS_CODE":0,"TOWNNAME":"永康區","LI":"復國里","LIN":"19鄰","STREET":"國華街","SECT":" ","MAREA":" ","LANE":" ","ALLEY":" ","HOUSE_NO":"６９號","E_COORD97":172840.29999999999,"N_COORD97":2545759.3700000001,"ADDRESS":"國華街６９號","OBJECTID":591001},"geometry":{"x":172840.29999999981,"y":2545759.3700000029}},{"attributes":{"ID":591029,"DIS_CODE":0,"TOWNNAME":"永康區","LI":"復興里","LIN":"11鄰","STREET":"復興路","SECT":" ","MAREA":" ","LANE":" ","ALLEY":" ","HOUSE_NO":"３６８號","E_COORD97":172191.10000000001,"N_COORD97":2544346.2999999998,"ADDRESS":"復興路３６８號","OBJECTID":591002},"geometry":{"x":172191.10000000056,"y":2544346.3000000026}},{"attributes":{"ID":591030,"DIS_CODE":0,"TOWNNAME":"佳里區","LI":"安西里","LIN":"11鄰","STREET":"光復路","SECT":" ","MAREA":" ","LANE":" ","ALLEY":" ","HOUSE_NO":"２３７號","E_COORD97":165483.79999999999,"N_COORD97":2562354.8199999998,"ADDRESS":"光復路２３７號","OBJECTID":591003},"geometry":{"x":165483.80000000075,"y":2562354.8200000022}},{"attributes":{"ID":591031,"DIS_CODE":0,"TOWNNAME":"佳里區","LI":"安西里","LIN":"11鄰","STREET":"光復路","SECT":" ","MAREA":" ","LANE":" ","ALLEY":" ","HOUSE_NO":"２３９號","E_COORD97":165484.23999999999,"N_COORD97":2562359.7599999998,"ADDRESS":"光復路２３９號","OBJECTID":591004},"geometry":{"x":165484.23999999929,"y":2562359.7599999998}},{"attributes":{"ID":591032,"DIS_CODE":0,"TOWNNAME":"佳里區","LI":"安西里","LIN":"11鄰","STREET":"光復路","SECT":" ","MAREA":" ","LANE":" ","ALLEY":" ","HOUSE_NO":"２４１號","E_COORD97":165484.60999999999,"N_COORD97":2562364.7400000002,"ADDRESS":"光復路２４１號","OBJECTID":591005},"geometry":{"x":165484.61000000034,"y":2562364.7400000039}},{"attributes":{"ID":591033,"DIS_CODE":0,"TOWNNAME":"佳里區","LI":"安西里","LIN":"11鄰","STREET":"光復路","SECT":" ","MAREA":" ","LANE":" ","ALLEY":" ","HOUSE_NO":"２４３號","E_COORD97":165482.70999999999,"N_COORD97":2562374.5,"ADDRESS":"光復路２４３號","OBJECTID":591006},"geometry":{"x":165482.71000000183,"y":2562374.5000000019}},{"attributes":{"ID":591034,"DIS_CODE":0,"TOWNNAME":"永康區","LI":"復國里","LIN":"18鄰","STREET":"復華六街","SECT":" ","MAREA":" ","LANE":" ","ALLEY":" ","HOUSE_NO":"４１號","E_COORD97":172782.26000000001,"N_COORD97":2545833.2799999998,"ADDRESS":"復華六街４１號","OBJECTID":591007},"geometry":{"x":172782.26000000071,"y":2545833.2800000012}},{"attributes":{"ID":591035,"DIS_CODE":0,"TOWNNAME":"永康區","LI":"勝利里","LIN":"20鄰","STREET":"勝華街","SECT":" ","MAREA":" ","LANE":" ","ALLEY":" ","HOUSE_NO":"１４６號","E_COORD97":171211.95000000001,"N_COORD97":2545220,"ADDRESS":"勝華街１４６號","OBJECTID":591008},"geometry":{"x":171211.95000000019,"y":2545220}},{"attributes":{"ID":591036,"DIS_CODE":0,"TOWNNAME":"永康區","LI":"復華里","LIN":"34鄰","STREET":"復國一路","SECT":" ","MAREA":" ","LANE":" ","ALLEY":" ","HOUSE_NO":"４９７號","E_COORD97":172559.70000000001,"N_COORD97":2546196.02,"ADDRESS":"復國一路４９７號","OBJECTID":591009},"geometry":{"x":172559.70000000019,"y":2546196.0199999996}},{"attributes":{"ID":591037,"DIS_CODE":0,"TOWNNAME":"永康區","LI":"復國里","LIN":"15鄰","STREET":"復國二路","SECT":" ","MAREA":" ","LANE":" ","ALLEY":" ","HOUSE_NO":"１４９號","E_COORD97":172898.78,"N_COORD97":2545668.02,"ADDRESS":"復國二路１４９號","OBJECTID":591010},"geometry":{"x":172898.77999999933,"y":2545668.0200000033}},{"attributes":{"ID":591038,"DIS_CODE":0,"TOWNNAME":"佳里區","LI":"建南里","LIN":"11鄰","STREET":"光復路","SECT":" ","MAREA":" ","LANE":" ","ALLEY":" ","HOUSE_NO":"１２９號","E_COORD97":165501.07000000001,"N_COORD97":2562053.3500000001,"ADDRESS":"光復路１２９號","OBJECTID":591011},"geometry":{"x":165501.07000000123,"y":2562053.3499999996}},{"attributes":{"ID":591039,"DIS_CODE":0,"TOWNNAME":"永康區","LI":"復國里","LIN":"18鄰","STREET":"復華六街","SECT":" ","MAREA":" ","LANE":" ","ALLEY":" ","HOUSE_NO":"２１號","E_COORD97":172832.29000000001,"N_COORD97":2545832.2799999998,"ADDRESS":"復華六街２１號","OBJECTID":591012},"geometry":{"x":172832.29000000004,"y":2545832.2800000031}},{"attributes":{"ID":591040,"DIS_CODE":0,"TOWNNAME":"永康區","LI":"復國里","LIN":"13鄰","STREET":"復華三街","SECT":" ","MAREA":" ","LANE":" ","ALLEY":" ","HOUSE_NO":"２８號","E_COORD97":172862.64999999999,"N_COORD97":2545550.77,"ADDRESS":"復華三街２８號","OBJECTID":591013},"geometry":{"x":172862.65000000224,"y":2545550.7699999977}},{"attributes":{"ID":591041,"DIS_CODE":0,"TOWNNAME":"永康區","LI":"復國里","LIN":"34鄰","STREET":"復華一街","SECT":" ","MAREA":" ","LANE":" ","ALLEY":" ","HOUSE_NO":"９９號","E_COORD97":172450.20999999999,"N_COORD97":2545065.5299999998,"ADDRESS":"復華一街９９號","OBJECTID":591014},"geometry":{"x":172450.21000000089,"y":2545065.5300000012}},{"attributes":{"ID":591042,"DIS_CODE":0,"TOWNNAME":"永康區","LI":"復興里","LIN":"7鄰","STREET":"復興路","SECT":" ","MAREA":" ","LANE":" ","ALLEY":" ","HOUSE_NO":"３３７號","E_COORD97":172220.67000000001,"N_COORD97":2544315.23,"ADDRESS":"復興路３３７號","OBJECTID":591015},"geometry":{"x":172220.66999999993,"y":2544315.2300000023}},{"attributes":{"ID":591043,"DIS_CODE":0,"TOWNNAME":"永康區","LI":"復國里","LIN":"21鄰","STREET":"復華五街","SECT":" ","MAREA":" ","LANE":" ","ALLEY":" ","HOUSE_NO":"４７號","E_COORD97":172702.64999999999,"N_COORD97":2545700.48,"ADDRESS":"復華五街４７號","OBJECTID":591016},"geometry":{"x":172702.65000000037,"y":2545700.4800000023}},{"attributes":{"ID":591044,"DIS_CODE":0,"TOWNNAME":"永康區","LI":"復國里","LIN":"16鄰","STREET":"復國二路","SECT":" ","MAREA":" ","LANE":" ","ALLEY":" ","HOUSE_NO":"１８８號","E_COORD97":172939.51000000001,"N_COORD97":2545750.77,"ADDRESS":"復國二路１８８號","OBJECTID":591017},"geometry":{"x":172939.51000000071,"y":2545750.7699999977}},{"attributes":{"ID":591045,"DIS_CODE":0,"TOWNNAME":"佳里區","LI":"建南里","LIN":"11鄰","STREET":"光復路","SECT":" ","MAREA":" ","LANE":" ","ALLEY":" ","HOUSE_NO":"１３１號","E_COORD97":165500.23999999999,"N_COORD97":2562059.79,"ADDRESS":"光復路１３１號","OBJECTID":591018},"geometry":{"x":165500.24000000115,"y":2562059.790000001}},{"attributes":{"ID":591046,"DIS_CODE":0,"TOWNNAME":"佳里區","LI":"建南里","LIN":"11鄰","STREET":"光復路","SECT":" ","MAREA":" ","LANE":" ","ALLEY":" ","HOUSE_NO":"１３３號","E_COORD97":165499.76000000001,"N_COORD97":2562064.29,"ADDRESS":"光復路１３３號","OBJECTID":591019},"geometry":{"x":165499.76000000071,"y":2562064.2899999991}},{"attributes":{"ID":591047,"DIS_CODE":0,"TOWNNAME":"佳里區","LI":"建南里","LIN":"11鄰","STREET":"光復路","SECT":" ","MAREA":" ","LANE":" ","ALLEY":" ","HOUSE_NO":"１３５號","E_COORD97":165499.25,"N_COORD97":2562068.9100000001,"ADDRESS":"光復路１３５號","OBJECTID":591020},"geometry":{"x":165499.25000000186,"y":2562068.910000002}},{"attributes":{"ID":591048,"DIS_CODE":0,"TOWNNAME":"佳里區","LI":"建南里","LIN":"11鄰","STREET":"光復路","SECT":" ","MAREA":" ","LANE":" ","ALLEY":" ","HOUSE_NO":"１３７號之１","E_COORD97":165495.25,"N_COORD97":2562083.3999999999,"ADDRESS":"光復路１３７號之１","OBJECTID":591021},"geometry":{"x":165495.25,"y":2562083.4000000022}},{"attributes":{"ID":591049,"DIS_CODE":0,"TOWNNAME":"佳里區","LI":"建南里","LIN":"11鄰","STREET":"光復路","SECT":" ","MAREA":" ","LANE":" ","ALLEY":" ","HOUSE_NO":"１３７號","E_COORD97":165459.06,"N_COORD97":2562068.4900000002,"ADDRESS":"光復路１３７號","OBJECTID":591022},"geometry":{"x":165459.05999999959,"y":2562068.4900000021}},{"attributes":{"ID":591050,"DIS_CODE":0,"TOWNNAME":"佳里區","LI":"建南里","LIN":"11鄰","STREET":"光復路","SECT":" ","MAREA":" ","LANE":" ","ALLEY":" ","HOUSE_NO":"１３９號","E_COORD97":165494.79999999999,"N_COORD97":2562088.1000000001,"ADDRESS":"光復路１３９號","OBJECTID":591023},"geometry":{"x":165494.79999999981,"y":2562088.1000000015}},{"attributes":{"ID":591051,"DIS_CODE":0,"TOWNNAME":"佳里區","LI":"建南里","LIN":"11鄰","STREET":"光復路","SECT":" ","MAREA":" ","LANE":" ","ALLEY":" ","HOUSE_NO":"１４１號之１","E_COORD97":165493.92999999999,"N_COORD97":2562097.1600000001,"ADDRESS":"光復路１４１號之１","OBJECTID":591024},"geometry":{"x":165493.9299999997,"y":2562097.1599999983}},{"attributes":{"ID":591052,"DIS_CODE":0,"TOWNNAME":"永康區","LI":"復國里","LIN":"13鄰","STREET":"復華三街","SECT":" ","MAREA":" ","LANE":" ","ALLEY":" ","HOUSE_NO":"２４號","E_COORD97":172892.87,"N_COORD97":2545549.77,"ADDRESS":"復華三街２４號","OBJECTID":591025},"geometry":{"x":172892.87000000011,"y":2545549.7699999996}},{"attributes":{"ID":591053,"DIS_CODE":0,"TOWNNAME":"永康區","LI":"復國里","LIN":"13鄰","STREET":"復華三街","SECT":" ","MAREA":" ","LANE":" ","ALLEY":" ","HOUSE_NO":"４７號","E_COORD97":172814.17000000001,"N_COORD97":2545537.3199999998,"ADDRESS":"復華三街４７號","OBJECTID":591026},"geometry":{"x":172814.16999999993,"y":2545537.3200000003}},{"attributes":{"ID":591054,"DIS_CODE":0,"TOWNNAME":"永康區","LI":"復華里","LIN":"40鄰","STREET":"復華六街","SECT":" ","MAREA":" ","LANE":" ","ALLEY":" ","HOUSE_NO":"８４號","E_COORD97":172661.01000000001,"N_COORD97":2545857.3900000001,"ADDRESS":"復華六街８４號","OBJECTID":591027},"geometry":{"x":172661.00999999978,"y":2545857.3900000025}},{"attributes":{"ID":591055,"DIS_CODE":0,"TOWNNAME":"永康區","LI":"復國里","LIN":"28鄰","STREET":"復國一路","SECT":" ","MAREA":" ","LANE":" ","ALLEY":" ","HOUSE_NO":"２１７號","E_COORD97":172725.5,"N_COORD97":2545369.0299999998,"ADDRESS":"復國一路２１７號","OBJECTID":591028},"geometry":{"x":172725.5,"y":2545369.0299999993}},{"attributes":{"ID":591056,"DIS_CODE":0,"TOWNNAME":"佳里區","LI":"建南里","LIN":"11鄰","STREET":"光復路","SECT":" ","MAREA":" ","LANE":" ","ALLEY":" ","HOUSE_NO":"１４１號","E_COORD97":165494.32000000001,"N_COORD97":2562092.7200000002,"ADDRESS":"光復路１４１號","OBJECTID":591029},"geometry":{"x":165494.32000000123,"y":2562092.7200000007}},{"attributes":{"ID":591057,"DIS_CODE":0,"TOWNNAME":"佳里區","LI":"建南里","LIN":"11鄰","STREET":"光復路","SECT":" ","MAREA":" ","LANE":" ","ALLEY":" ","HOUSE_NO":"１４３號","E_COORD97":165496.76999999999,"N_COORD97":2562102.3599999999,"ADDRESS":"光復路１４３號","OBJECTID":591030},"geometry":{"x":165496.76999999955,"y":2562102.3600000013}},{"attributes":{"ID":591058,"DIS_CODE":0,"TOWNNAME":"佳里區","LI":"建南里","LIN":"11鄰","STREET":"光復路","SECT":" ","MAREA":" ","LANE":" ","ALLEY":" ","HOUSE_NO":"１４５號","E_COORD97":165496.22,"N_COORD97":2562106.9900000002,"ADDRESS":"光復路１４５號","OBJECTID":591031},"geometry":{"x":165496.22000000067,"y":2562106.9900000021}},{"attributes":{"ID":591059,"DIS_CODE":0,"TOWNNAME":"佳里區","LI":"建南里","LIN":"11鄰","STREET":"光復路","SECT":" ","MAREA":" ","LANE":" ","ALLEY":" ","HOUSE_NO":"１４７號","E_COORD97":165495.66,"N_COORD97":2562111.6800000002,"ADDRESS":"光復路１４７號","OBJECTID":591032},"geometry":{"x":165495.66000000108,"y":2562111.6800000016}},{"attributes":{"ID":591060,"DIS_CODE":0,"TOWNNAME":"佳里區","LI":"建南里","LIN":"11鄰","STREET":"光復路","SECT":" ","MAREA":" ","LANE":" ","ALLEY":" ","HOUSE_NO":"１５１號","E_COORD97":165491.67000000001,"N_COORD97":2562120.1499999999,"ADDRESS":"光復路１５１號","OBJECTID":591033},"geometry":{"x":165491.67000000086,"y":2562120.1500000004}},{"attributes":{"ID":591061,"DIS_CODE":0,"TOWNNAME":"佳里區","LI":"建南里","LIN":"11鄰","STREET":"光復路","SECT":" ","MAREA":" ","LANE":" ","ALLEY":" ","HOUSE_NO":"１５３號","E_COORD97":165491.48000000001,"N_COORD97":2562124.6099999999,"ADDRESS":"光復路１５３號","OBJECTID":591034},"geometry":{"x":165491.48000000231,"y":2562124.6100000013}},{"attributes":{"ID":591062,"DIS_CODE":0,"TOWNNAME":"佳里區","LI":"建南里","LIN":"11鄰","STREET":"光復路","SECT":" ","MAREA":" ","LANE":" ","ALLEY":" ","HOUSE_NO":"１５５號","E_COORD97":165491.12,"N_COORD97":2562129.0699999998,"ADDRESS":"光復路１５５號","OBJECTID":591035},"geometry":{"x":165491.12000000011,"y":2562129.0700000022}},{"attributes":{"ID":591063,"DIS_CODE":0,"TOWNNAME":"佳里區","LI":"建南里","LIN":"11鄰","STREET":"光復路","SECT":" ","MAREA":" ","LANE":" ","ALLEY":" ","HOUSE_NO":"１５７號","E_COORD97":165491,"N_COORD97":2562133.1499999999,"ADDRESS":"光復路１５７號","OBJECTID":591036},"geometry":{"x":165491.00000000093,"y":2562133.1500000022}},{"attributes":{"ID":591064,"DIS_CODE":0,"TOWNNAME":"佳里區","LI":"建南里","LIN":"11鄰","STREET":"光復路","SECT":" ","MAREA":" ","LANE":" ","ALLEY":" ","HOUSE_NO":"１５９號","E_COORD97":165490.87,"N_COORD97":2562138.21,"ADDRESS":"光復路１５９號","OBJECTID":591037},"geometry":{"x":165490.87000000104,"y":2562138.2100000009}},{"attributes":{"ID":591065,"DIS_CODE":0,"TOWNNAME":"佳里區","LI":"建南里","LIN":"11鄰","STREET":"光復路","SECT":" ","MAREA":" ","LANE":" ","ALLEY":" ","HOUSE_NO":"１６１號","E_COORD97":165490.25,"N_COORD97":2562144.1400000001,"ADDRESS":"光復路１６１號","OBJECTID":591038},"geometry":{"x":165490.25,"y":2562144.1400000006}},{"attributes":{"ID":591066,"DIS_CODE":0,"TOWNNAME":"佳里區","LI":"建南里","LIN":"11鄰","STREET":"光復路","SECT":" ","MAREA":" ","LANE":" ","ALLEY":" ","HOUSE_NO":"１６３號","E_COORD97":165489.67000000001,"N_COORD97":2562149.6600000001,"ADDRESS":"光復路１６３號","OBJECTID":591039},"geometry":{"x":165489.67000000179,"y":2562149.660000002}},{"attributes":{"ID":591067,"DIS_CODE":0,"TOWNNAME":"永康區","LI":"蔦松里","LIN":"8鄰","STREET":"中正北路","SECT":" ","MAREA":" ","LANE":" ","ALLEY":" ","HOUSE_NO":"４３１號","E_COORD97":173599.45999999999,"N_COORD97":2549150.6299999999,"ADDRESS":"中正北路４３１號","OBJECTID":591040},"geometry":{"x":173599.46000000089,"y":2549150.629999999}},{"attributes":{"ID":591068,"DIS_CODE":0,"TOWNNAME":"永康區","LI":"復興里","LIN":"10鄰","STREET":"復興路","SECT":" ","MAREA":" ","LANE":" ","ALLEY":" ","HOUSE_NO":"３９６號","E_COORD97":172136.54999999999,"N_COORD97":2544341.2999999998,"ADDRESS":"復興路３９６號","OBJECTID":591041},"geometry":{"x":172136.54999999981,"y":2544341.3000000007}},{"attributes":{"ID":591069,"DIS_CODE":0,"TOWNNAME":"永康區","LI":"復國里","LIN":"13鄰","STREET":"復華三街","SECT":" ","MAREA":" ","LANE":" ","ALLEY":" ","HOUSE_NO":"１２號","E_COORD97":172918.32000000001,"N_COORD97":2545543.27,"ADDRESS":"復華三街１２號","OBJECTID":591042},"geometry":{"x":172918.3200000003,"y":2545543.2699999996}},{"attributes":{"ID":591070,"DIS_CODE":0,"TOWNNAME":"永康區","LI":"復華里","LIN":"40鄰","STREET":"復華六街","SECT":" ","MAREA":" ","LANE":" ","ALLEY":" ","HOUSE_NO":"８２號","E_COORD97":172665.56,"N_COORD97":2545856.8900000001,"ADDRESS":"復華六街８２號","OBJECTID":591043},"geometry":{"x":172665.55999999959,"y":2545856.8900000025}},{"attributes":{"ID":591071,"DIS_CODE":0,"TOWNNAME":"永康區","LI":"復興里","LIN":"7鄰","STREET":"復興路","SECT":" ","MAREA":" ","LANE":" ","ALLEY":" ","HOUSE_NO":"３６３號","E_COORD97":172175.41,"N_COORD97":2544313.4900000002,"ADDRESS":"復興路３６３號","OBJECTID":591044},"geometry":{"x":172175.41000000015,"y":2544313.4900000021}},{"attributes":{"ID":591072,"DIS_CODE":0,"TOWNNAME":"永康區","LI":"復國里","LIN":"21鄰","STREET":"復華五街","SECT":" ","MAREA":" ","LANE":" ","ALLEY":" ","HOUSE_NO":"３９號","E_COORD97":172722.73999999999,"N_COORD97":2545699.73,"ADDRESS":"復華五街３９號","OBJECTID":591045},"geometry":{"x":172722.73999999929,"y":2545699.7300000004}},{"attributes":{"ID":591073,"DIS_CODE":0,"TOWNNAME":"永康區","LI":"復國里","LIN":"17鄰","STREET":"復華六街","SECT":" ","MAREA":" ","LANE":" ","ALLEY":" ","HOUSE_NO":"１號","E_COORD97":172915.64999999999,"N_COORD97":2545829.7799999998,"ADDRESS":"復華六街１號","OBJECTID":591046},"geometry":{"x":172915.6500000013,"y":2545829.7800000012}},{"attributes":{"ID":591074,"DIS_CODE":0,"TOWNNAME":"永康區","LI":"復華里","LIN":"32鄰","STREET":"復國一路","SECT":" ","MAREA":" ","LANE":" ","ALLEY":" ","HOUSE_NO":"５５８號","E_COORD97":172506.89999999999,"N_COORD97":2546291.77,"ADDRESS":"復國一路５５８號","OBJECTID":591047},"geometry":{"x":172506.9000000013,"y":2546291.7700000014}},{"attributes":{"ID":591075,"DIS_CODE":0,"TOWNNAME":"永康區","LI":"復華里","LIN":"32鄰","STREET":"復國一路","SECT":" ","MAREA":" ","LANE":" ","ALLEY":" ","HOUSE_NO":"５５６號","E_COORD97":172509.89999999999,"N_COORD97":2546287.77,"ADDRESS":"復國一路５５６號","OBJECTID":591048},"geometry":{"x":172509.89999999944,"y":2546287.7700000014}},{"attributes":{"ID":591076,"DIS_CODE":0,"TOWNNAME":"永康區","LI":"復華里","LIN":"13鄰","STREET":"復國二路","SECT":" ","MAREA":" ","LANE":" ","ALLEY":" ","HOUSE_NO":"１９７號","E_COORD97":172978.17000000001,"N_COORD97":2545968.27,"ADDRESS":"復國二路１９７號","OBJECTID":591049},"geometry":{"x":172978.16999999993,"y":2545968.2700000033}},{"attributes":{"ID":591077,"DIS_CODE":0,"TOWNNAME":"永康區","LI":"復華里","LIN":"29鄰","STREET":"復國一路","SECT":" ","MAREA":" ","LANE":" ","ALLEY":" ","HOUSE_NO":"４９８號","E_COORD97":172610.63,"N_COORD97":2546162.4399999999,"ADDRESS":"復國一路４９８號","OBJECTID":591050},"geometry":{"x":172610.62999999989,"y":2546162.4399999995}},{"attributes":{"ID":591078,"DIS_CODE":0,"TOWNNAME":"永康區","LI":"復興里","LIN":"8鄰","STREET":"復興路","SECT":" ","MAREA":" ","LANE":" ","ALLEY":" ","HOUSE_NO":"３３３號","E_COORD97":172228.17000000001,"N_COORD97":2544315.77,"ADDRESS":"復興路３３３號","OBJECTID":591051},"geometry":{"x":172228.17000000086,"y":2544315.7699999996}},{"attributes":{"ID":591079,"DIS_CODE":0,"TOWNNAME":"永康區","LI":"復興里","LIN":"12鄰","STREET":"復興路","SECT":" ","MAREA":" ","LANE":" ","ALLEY":" ","HOUSE_NO":"２９８號","E_COORD97":172333.76000000001,"N_COORD97":2544347.4500000002,"ADDRESS":"復興路２９８號","OBJECTID":591052},"geometry":{"x":172333.75999999978,"y":2544347.4500000011}},{"attributes":{"ID":591080,"DIS_CODE":0,"TOWNNAME":"永康區","LI":"復華里","LIN":"29鄰","STREET":"復國一路","SECT":" ","MAREA":" ","LANE":" ","ALLEY":" ","HOUSE_NO":"５１４號","E_COORD97":172586.07000000001,"N_COORD97":2546192.6899999999,"ADDRESS":"復國一路５１４號","OBJECTID":591053},"geometry":{"x":172586.0700000003,"y":2546192.6900000013}},{"attributes":{"ID":591081,"DIS_CODE":0,"TOWNNAME":"永康區","LI":"復華里","LIN":"29鄰","STREET":"復國一路","SECT":" ","MAREA":" ","LANE":" ","ALLEY":" ","HOUSE_NO":"５１０號","E_COORD97":172591.82000000001,"N_COORD97":2546185.1899999999,"ADDRESS":"復國一路５１０號","OBJECTID":591054},"geometry":{"x":172591.82000000216,"y":2546185.1899999995}},{"attributes":{"ID":591082,"DIS_CODE":0,"TOWNNAME":"永康區","LI":"復國里","LIN":"17鄰","STREET":"國華街","SECT":" ","MAREA":" ","LANE":" ","ALLEY":" ","HOUSE_NO":"９０號","E_COORD97":172867.56,"N_COORD97":2545827.0499999998,"ADDRESS":"國華街９０號","OBJECTID":591055},"geometry":{"x":172867.56000000145,"y":2545827.0500000007}},{"attributes":{"ID":591083,"DIS_CODE":0,"TOWNNAME":"永康區","LI":"蔦松里","LIN":"8鄰","STREET":"中正北路","SECT":" ","MAREA":" ","LANE":" ","ALLEY":" ","HOUSE_NO":"４２３號","E_COORD97":173580.72,"N_COORD97":2549149.23,"ADDRESS":"中正北路４２３號","OBJECTID":591056},"geometry":{"x":173580.72000000067,"y":2549149.2299999986}},{"attributes":{"ID":591084,"DIS_CODE":0,"TOWNNAME":"永康區","LI":"復華里","LIN":"33鄰","STREET":"復國一路","SECT":" ","MAREA":" ","LANE":" ","ALLEY":" ","HOUSE_NO":"５２７號","E_COORD97":172503.64999999999,"N_COORD97":2546264.77,"ADDRESS":"復國一路５２７號","OBJECTID":591057},"geometry":{"x":172503.6500000013,"y":2546264.7699999996}},{"attributes":{"ID":591085,"DIS_CODE":0,"TOWNNAME":"永康區","LI":"復興里","LIN":"10鄰","STREET":"復興路","SECT":" ","MAREA":" ","LANE":" ","ALLEY":" ","HOUSE_NO":"３９８號","E_COORD97":172132.76000000001,"N_COORD97":2544341.2999999998,"ADDRESS":"復興路３９８號","OBJECTID":591058},"geometry":{"x":172132.76000000071,"y":2544341.3000000007}},{"attributes":{"ID":591086,"DIS_CODE":0,"TOWNNAME":"永康區","LI":"復華里","LIN":"4鄰","STREET":"復國二路","SECT":" ","MAREA":" ","LANE":" ","ALLEY":" ","HOUSE_NO":"２６５號","E_COORD97":173029.64999999999,"N_COORD97":2546174.77,"ADDRESS":"復國二路２６５號","OBJECTID":591059},"geometry":{"x":173029.65000000037,"y":2546174.7700000033}},{"attributes":{"ID":591087,"DIS_CODE":0,"TOWNNAME":"永康區","LI":"復國里","LIN":"19鄰","STREET":"復華五街","SECT":" ","MAREA":" ","LANE":" ","ALLEY":" ","HOUSE_NO":"３２號","E_COORD97":172806.79999999999,"N_COORD97":2545712.9100000001,"ADDRESS":"復華五街３２號","OBJECTID":591060},"geometry":{"x":172806.80000000168,"y":2545712.9100000001}},{"attributes":{"ID":591088,"DIS_CODE":0,"TOWNNAME":"安南區","LI":"溪心里","LIN":"11鄰","STREET":"安吉路","SECT":"一段","MAREA":" ","LANE":" ","ALLEY":" ","HOUSE_NO":"７５９號","E_COORD97":166982.42999999999,"N_COORD97":2550500.7200000002,"ADDRESS":"安吉路一段７５９號","OBJECTID":591061},"geometry":{"x":166982.4299999997,"y":2550500.7200000025}},{"attributes":{"ID":591089,"DIS_CODE":0,"TOWNNAME":"新市區","LI":"新市里","LIN":"11鄰","STREET":"中正路","SECT":" ","MAREA":" ","LANE":" ","ALLEY":" ","HOUSE_NO":"３４６號","E_COORD97":177575.62,"N_COORD97":2553211.5,"ADDRESS":"中正路３４６號","OBJECTID":591062},"geometry":{"x":177575.62000000104,"y":2553211.5}},{"attributes":{"ID":591090,"DIS_CODE":0,"TOWNNAME":"新市區","LI":"新市里","LIN":"11鄰","STREET":"中正路","SECT":" ","MAREA":" ","LANE":" ","ALLEY":" ","HOUSE_NO":"３７０號","E_COORD97":177629.51000000001,"N_COORD97":2553232.75,"ADDRESS":"中正路３７０號","OBJECTID":591063},"geometry":{"x":177629.50999999978,"y":2553232.75}},{"attributes":{"ID":591091,"DIS_CODE":0,"TOWNNAME":"新市區","LI":"新市里","LIN":"11鄰","STREET":"仁愛街","SECT":" ","MAREA":" ","LANE":" ","ALLEY":" ","HOUSE_NO":"３６２號","E_COORD97":177670.34,"N_COORD97":2553205.2799999998,"ADDRESS":"仁愛街３６２號","OBJECTID":591064},"geometry":{"x":177670.34000000078,"y":2553205.2799999993}},{"attributes":{"ID":591092,"DIS_CODE":0,"TOWNNAME":"新市區","LI":"新市里","LIN":"11鄰","STREET":"中正路","SECT":" ","MAREA":" ","LANE":" ","ALLEY":" ","HOUSE_NO":"３３４號","E_COORD97":177552.07000000001,"N_COORD97":2553201.75,"ADDRESS":"中正路３３４號","OBJECTID":591065},"geometry":{"x":177552.07000000216,"y":2553201.7500000019}},{"attributes":{"ID":591093,"DIS_CODE":0,"TOWNNAME":"新市區","LI":"新和里","LIN":"11鄰","STREET":"仁愛街","SECT":" ","MAREA":" ","LANE":" ","ALLEY":" ","HOUSE_NO":"１７３號","E_COORD97":177581.59,"N_COORD97":2552731.2799999998,"ADDRESS":"仁愛街１７３號","OBJECTID":591066},"geometry":{"x":177581.58999999985,"y":2552731.2799999975}},{"attributes":{"ID":591094,"DIS_CODE":0,"TOWNNAME":"新市區","LI":"新和里","LIN":"11鄰","STREET":"仁愛街","SECT":" ","MAREA":" ","LANE":" ","ALLEY":" ","HOUSE_NO":"１７５號","E_COORD97":177582.39000000001,"N_COORD97":2552735.5299999998,"ADDRESS":"仁愛街１７５號","OBJECTID":591067},"geometry":{"x":177582.38999999966,"y":2552735.5299999993}},{"attributes":{"ID":591095,"DIS_CODE":0,"TOWNNAME":"新市區","LI":"新和里","LIN":"11鄰","STREET":"仁愛街","SECT":" ","MAREA":" ","LANE":" ","ALLEY":" ","HOUSE_NO":"１６９號","E_COORD97":177576.95000000001,"N_COORD97":2552709.0299999998,"ADDRESS":"仁愛街１６９號","OBJECTID":591068},"geometry":{"x":177576.95000000112,"y":2552709.0299999993}},{"attributes":{"ID":591096,"DIS_CODE":0,"TOWNNAME":"永康區","LI":"崑山里","LIN":"25鄰","STREET":"大仁街","SECT":" ","MAREA":" ","LANE":" ","ALLEY":" ","HOUSE_NO":"８７號","E_COORD97":173810.69,"N_COORD97":2544742.3700000001,"ADDRESS":"大仁街８７號","OBJECTID":591069},"geometry":{"x":173810.69000000134,"y":2544742.3700000029}},{"attributes":{"ID":591097,"DIS_CODE":0,"TOWNNAME":"永康區","LI":"復華里","LIN":"14鄰","STREET":"復華六街","SECT":" ","MAREA":" ","LANE":" ","ALLEY":" ","HOUSE_NO":"１０號","E_COORD97":172921.34,"N_COORD97":2545849.6099999999,"ADDRESS":"復華六街１０號","OBJECTID":591070},"geometry":{"x":172921.33999999985,"y":2545849.6099999994}},{"attributes":{"ID":591098,"DIS_CODE":0,"TOWNNAME":"中西區","LI":"中正里","LIN":"11鄰","STREET":"民生路","SECT":"二段","MAREA":" ","LANE":" ","ALLEY":" ","HOUSE_NO":"１１９號","E_COORD97":167593.32000000001,"N_COORD97":2543990.9900000002,"ADDRESS":"民生路二段１１９號","OBJECTID":591071},"geometry":{"x":167593.32000000123,"y":2543990.9900000021}},{"attributes":{"ID":591099,"DIS_CODE":0,"TOWNNAME":"中西區","LI":"中正里","LIN":"11鄰","STREET":"民生路","SECT":"二段","MAREA":" ","LANE":" ","ALLEY":" ","HOUSE_NO":"１２１號","E_COORD97":167590.82000000001,"N_COORD97":2543992.0800000001,"ADDRESS":"民生路二段１２１號","OBJECTID":591072},"geometry":{"x":167590.8200000003,"y":2543992.0800000001}},{"attributes":{"ID":591100,"DIS_CODE":0,"TOWNNAME":"中西區","LI":"中正里","LIN":"11鄰","STREET":"民生路","SECT":"二段","MAREA":" ","LANE":" ","ALLEY":" ","HOUSE_NO":"１２３號","E_COORD97":167586.13,"N_COORD97":2543991.8500000001,"ADDRESS":"民生路二段１２３號","OBJECTID":591073},"geometry":{"x":167586.12999999989,"y":2543991.8500000015}},{"attributes":{"ID":591101,"DIS_CODE":0,"TOWNNAME":"中西區","LI":"中正里","LIN":"11鄰","STREET":"民生路","SECT":"二段","MAREA":" ","LANE":" ","ALLEY":" ","HOUSE_NO":"１２５號","E_COORD97":167581.04000000001,"N_COORD97":2543992.7799999998,"ADDRESS":"民生路二段１２５號","OBJECTID":591074},"geometry":{"x":167581.04000000097,"y":2543992.7800000012}},{"attributes":{"ID":591102,"DIS_CODE":0,"TOWNNAME":"中西區","LI":"中正里","LIN":"11鄰","STREET":"民生路","SECT":"二段","MAREA":" ","LANE":" ","ALLEY":" ","HOUSE_NO":"１２７號","E_COORD97":167576.70999999999,"N_COORD97":2543994.5099999998,"ADDRESS":"民生路二段１２７號","OBJECTID":591075},"geometry":{"x":167576.71000000089,"y":2543994.5100000016}},{"attributes":{"ID":591103,"DIS_CODE":0,"TOWNNAME":"中西區","LI":"中正里","LIN":"11鄰","STREET":"民生路","SECT":"二段","MAREA":" ","LANE":" ","ALLEY":" ","HOUSE_NO":"１２９號","E_COORD97":167572.07999999999,"N_COORD97":2543996.54,"ADDRESS":"民生路二段１２９號","OBJECTID":591076},"geometry":{"x":167572.08000000194,"y":2543996.540000001}},{"attributes":{"ID":591104,"DIS_CODE":0,"TOWNNAME":"中西區","LI":"中正里","LIN":"11鄰","STREET":"民生路","SECT":"二段","MAREA":" ","LANE":" ","ALLEY":" ","HOUSE_NO":"１３１號","E_COORD97":167566.09,"N_COORD97":2543998.5299999998,"ADDRESS":"民生路二段１３１號","OBJECTID":591077},"geometry":{"x":167566.08999999985,"y":2543998.5299999993}},{"attributes":{"ID":591105,"DIS_CODE":0,"TOWNNAME":"中西區","LI":"中正里","LIN":"11鄰","STREET":"民生路","SECT":"二段","MAREA":" ","LANE":" ","ALLEY":" ","HOUSE_NO":"１３３號","E_COORD97":167559.20000000001,"N_COORD97":2543994.3199999998,"ADDRESS":"民生路二段１３３號","OBJECTID":591078},"geometry":{"x":167559.20000000019,"y":2543994.3200000003}},{"attributes":{"ID":591106,"DIS_CODE":0,"TOWNNAME":"永康區","LI":"勝利里","LIN":"20鄰","STREET":"勝學路","SECT":" ","MAREA":" ","LANE":" ","ALLEY":" ","HOUSE_NO":"２７２號","E_COORD97":171209.85999999999,"N_COORD97":2545315.8999999999,"ADDRESS":"勝學路２７２號","OBJECTID":591079},"geometry":{"x":171209.86000000034,"y":2545315.9000000004}},{"attributes":{"ID":591107,"DIS_CODE":0,"TOWNNAME":"永康區","LI":"勝利里","LIN":"20鄰","STREET":"勝華街","SECT":" ","MAREA":" ","LANE":" ","ALLEY":" ","HOUSE_NO":"１２２號","E_COORD97":171268.92000000001,"N_COORD97":2545221,"ADDRESS":"勝華街１２２號","OBJECTID":591080},"geometry":{"x":171268.92000000086,"y":2545221.0000000037}},{"attributes":{"ID":591108,"DIS_CODE":0,"TOWNNAME":"永康區","LI":"崑山里","LIN":"19鄰","STREET":"大灣路","SECT":" ","MAREA":" ","LANE":" ","ALLEY":" ","HOUSE_NO":"８３４號","E_COORD97":173906.98999999999,"N_COORD97":2544486.4399999999,"ADDRESS":"大灣路８３４號","OBJECTID":591081},"geometry":{"x":173906.99000000022,"y":2544486.4400000013}},{"attributes":{"ID":591109,"DIS_CODE":0,"TOWNNAME":"中西區","LI":"三合里","LIN":"11鄰","STREET":"文賢路","SECT":" ","MAREA":" ","LANE":" ","ALLEY":" ","HOUSE_NO":"３０號","E_COORD97":167446.48000000001,"N_COORD97":2544482.02,"ADDRESS":"文賢路３０號","OBJECTID":591082},"geometry":{"x":167446.48000000138,"y":2544482.0200000014}},{"attributes":{"ID":591110,"DIS_CODE":0,"TOWNNAME":"中西區","LI":"民生里","LIN":"11鄰","STREET":"大勇街","SECT":" ","MAREA":" ","LANE":" ","ALLEY":" ","HOUSE_NO":"１７５號","E_COORD97":167068.23000000001,"N_COORD97":2543384.5899999999,"ADDRESS":"大勇街１７５號","OBJECTID":591083},"geometry":{"x":167068.23000000138,"y":2543384.5899999999}},{"attributes":{"ID":591111,"DIS_CODE":0,"TOWNNAME":"中西區","LI":"民生里","LIN":"11鄰","STREET":"武英街","SECT":" ","MAREA":" ","LANE":" ","ALLEY":" ","HOUSE_NO":"５６號","E_COORD97":167074.84,"N_COORD97":2543344.8300000001,"ADDRESS":"武英街５６號","OBJECTID":591084},"geometry":{"x":167074.83999999985,"y":2543344.8300000019}},{"attributes":{"ID":591112,"DIS_CODE":0,"TOWNNAME":"中西區","LI":"民生里","LIN":"11鄰","STREET":"武英街","SECT":" ","MAREA":" ","LANE":" ","ALLEY":" ","HOUSE_NO":"５６號之１","E_COORD97":167070.29000000001,"N_COORD97":2543345.7400000002,"ADDRESS":"武英街５６號之１","OBJECTID":591085},"geometry":{"x":167070.29000000004,"y":2543345.7400000021}},{"attributes":{"ID":591113,"DIS_CODE":0,"TOWNNAME":"中西區","LI":"民生里","LIN":"11鄰","STREET":"武英街","SECT":" ","MAREA":" ","LANE":" ","ALLEY":" ","HOUSE_NO":"５６號之２","E_COORD97":167066.41,"N_COORD97":2543346.4199999999,"ADDRESS":"武英街５６號之２","OBJECTID":591086},"geometry":{"x":167066.41000000201,"y":2543346.4199999981}},{"attributes":{"ID":591114,"DIS_CODE":0,"TOWNNAME":"中西區","LI":"民生里","LIN":"11鄰","STREET":"武英街","SECT":" ","MAREA":" ","LANE":" ","ALLEY":" ","HOUSE_NO":"５６號之３","E_COORD97":167062.31,"N_COORD97":2543347.1000000001,"ADDRESS":"武英街５６號之３","OBJECTID":591087},"geometry":{"x":167062.30999999959,"y":2543347.0999999996}},{"attributes":{"ID":591115,"DIS_CODE":0,"TOWNNAME":"中西區","LI":"民生里","LIN":"11鄰","STREET":"武英街","SECT":" ","MAREA":" ","LANE":" ","ALLEY":" ","HOUSE_NO":"５８號","E_COORD97":167058.42999999999,"N_COORD97":2543348.0099999998,"ADDRESS":"武英街５８號","OBJECTID":591088},"geometry":{"x":167058.4299999997,"y":2543348.0099999998}},{"attributes":{"ID":591116,"DIS_CODE":0,"TOWNNAME":"中西區","LI":"民生里","LIN":"11鄰","STREET":"南華街","SECT":" ","MAREA":" ","LANE":" ","ALLEY":" ","HOUSE_NO":"２５號","E_COORD97":167073.70000000001,"N_COORD97":2543358.4100000001,"ADDRESS":"南華街２５號","OBJECTID":591089},"geometry":{"x":167073.70000000112,"y":2543358.410000002}},{"attributes":{"ID":591117,"DIS_CODE":0,"TOWNNAME":"中西區","LI":"民生里","LIN":"11鄰","STREET":"南華街","SECT":" ","MAREA":" ","LANE":" ","ALLEY":" ","HOUSE_NO":"２７號","E_COORD97":167074.62,"N_COORD97":2543361.6000000001,"ADDRESS":"南華街２７號","OBJECTID":591090},"geometry":{"x":167074.62000000011,"y":2543361.5999999996}},{"attributes":{"ID":591118,"DIS_CODE":0,"TOWNNAME":"中西區","LI":"民生里","LIN":"11鄰","STREET":"南華街","SECT":" ","MAREA":" ","LANE":" ","ALLEY":" ","HOUSE_NO":"２９號","E_COORD97":167075.76000000001,"N_COORD97":2543365.2400000002,"ADDRESS":"南華街２９號","OBJECTID":591091},"geometry":{"x":167075.76000000071,"y":2543365.2400000039}},{"attributes":{"ID":591119,"DIS_CODE":0,"TOWNNAME":"中西區","LI":"民生里","LIN":"11鄰","STREET":"南華街","SECT":" ","MAREA":" ","LANE":" ","ALLEY":" ","HOUSE_NO":"３１號","E_COORD97":167076.67000000001,"N_COORD97":2543368.4300000002,"ADDRESS":"南華街３１號","OBJECTID":591092},"geometry":{"x":167076.67000000086,"y":2543368.4299999997}},{"attributes":{"ID":591120,"DIS_CODE":0,"TOWNNAME":"中西區","LI":"民生里","LIN":"11鄰","STREET":"南華街","SECT":" ","MAREA":" ","LANE":" ","ALLEY":" ","HOUSE_NO":"３３號","E_COORD97":167077.12,"N_COORD97":2543372.5299999998,"ADDRESS":"南華街３３號","OBJECTID":591093},"geometry":{"x":167077.12000000104,"y":2543372.5300000031}},{"attributes":{"ID":591121,"DIS_CODE":0,"TOWNNAME":"中西區","LI":"民生里","LIN":"11鄰","STREET":"南華街","SECT":" ","MAREA":" ","LANE":" ","ALLEY":" ","HOUSE_NO":"３５號","E_COORD97":167078.04000000001,"N_COORD97":2543377.0800000001,"ADDRESS":"南華街３５號","OBJECTID":591094},"geometry":{"x":167078.04000000097,"y":2543377.0800000019}},{"attributes":{"ID":591122,"DIS_CODE":0,"TOWNNAME":"永康區","LI":"勝利里","LIN":"20鄰","STREET":"勝華街","SECT":" ","MAREA":" ","LANE":" ","ALLEY":" ","HOUSE_NO":"１１２號","E_COORD97":171288.42000000001,"N_COORD97":2545221.5,"ADDRESS":"勝華街１１２號","OBJECTID":591095},"geometry":{"x":171288.41999999993,"y":2545221.5000000019}},{"attributes":{"ID":591123,"DIS_CODE":0,"TOWNNAME":"永康區","LI":"復國里","LIN":"7鄰","STREET":"復國一路","SECT":" ","MAREA":" ","LANE":" ","ALLEY":" ","HOUSE_NO":"１４０號","E_COORD97":172728.54999999999,"N_COORD97":2545051.52,"ADDRESS":"復國一路１４０號","OBJECTID":591096},"geometry":{"x":172728.54999999981,"y":2545051.5200000014}},{"attributes":{"ID":591124,"DIS_CODE":0,"TOWNNAME":"永康區","LI":"勝利里","LIN":"33鄰","STREET":"中華路","SECT":" ","MAREA":" ","LANE":" ","ALLEY":" ","HOUSE_NO":"１號之４３","E_COORD97":171501.95999999999,"N_COORD97":2544353.0499999998,"ADDRESS":"中華路１號之４３","OBJECTID":591097},"geometry":{"x":171501.95999999996,"y":2544353.0500000007}},{"attributes":{"ID":591125,"DIS_CODE":0,"TOWNNAME":"永康區","LI":"復國里","LIN":"9鄰","STREET":"復國二路","SECT":" ","MAREA":" ","LANE":" ","ALLEY":" ","HOUSE_NO":"９６號","E_COORD97":172855.67000000001,"N_COORD97":2545259.52,"ADDRESS":"復國二路９６號","OBJECTID":591098},"geometry":{"x":172855.67000000086,"y":2545259.5199999996}},{"attributes":{"ID":591126,"DIS_CODE":0,"TOWNNAME":"中西區","LI":"民生里","LIN":"11鄰","STREET":"南華街","SECT":" ","MAREA":" ","LANE":" ","ALLEY":" ","HOUSE_NO":"３７號","E_COORD97":167079.39999999999,"N_COORD97":2543382.0899999999,"ADDRESS":"南華街３７號","OBJECTID":591099},"geometry":{"x":167079.4000000013,"y":2543382.0899999999}},{"attributes":{"ID":591127,"DIS_CODE":0,"TOWNNAME":"中西區","LI":"民生里","LIN":"11鄰","STREET":"大勇街","SECT":" ","MAREA":" ","LANE":" ","ALLEY":" ","HOUSE_NO":"１７９號","E_COORD97":167051.14000000001,"N_COORD97":2543384.8199999998,"ADDRESS":"大勇街１７９號","OBJECTID":591100},"geometry":{"x":167051.1400000006,"y":2543384.8199999984}},{"attributes":{"ID":591128,"DIS_CODE":0,"TOWNNAME":"中西區","LI":"民生里","LIN":"11鄰","STREET":"大勇街","SECT":" ","MAREA":" ","LANE":" ","ALLEY":" ","HOUSE_NO":"１８１號","E_COORD97":167040.42999999999,"N_COORD97":2543387.5499999998,"ADDRESS":"大勇街１８１號","OBJECTID":591101},"geometry":{"x":167040.43000000156,"y":2543387.5500000045}},{"attributes":{"ID":591129,"DIS_CODE":0,"TOWNNAME":"中西區","LI":"民生里","LIN":"11鄰","STREET":"大勇街","SECT":" ","MAREA":" ","LANE":" ","ALLEY":" ","HOUSE_NO":"１８５號","E_COORD97":167018.76999999999,"N_COORD97":2543384.04,"ADDRESS":"大勇街１８５號","OBJECTID":591102},"geometry":{"x":167018.76999999955,"y":2543384.0399999991}},{"attributes":{"ID":591130,"DIS_CODE":0,"TOWNNAME":"中西區","LI":"民生里","LIN":"11鄰","STREET":"大勇街","SECT":" ","MAREA":" ","LANE":" ","ALLEY":" ","HOUSE_NO":"１８７號","E_COORD97":167014.89999999999,"N_COORD97":2543380.27,"ADDRESS":"大勇街１８７號","OBJECTID":591103},"geometry":{"x":167014.9000000013,"y":2543380.2699999996}},{"attributes":{"ID":591131,"DIS_CODE":0,"TOWNNAME":"中西區","LI":"民生里","LIN":"11鄰","STREET":"大勇街","SECT":" ","MAREA":" ","LANE":" ","ALLEY":" ","HOUSE_NO":"１８９號","E_COORD97":167010.79999999999,"N_COORD97":2543372.5299999998,"ADDRESS":"大勇街１８９號","OBJECTID":591104},"geometry":{"x":167010.79999999888,"y":2543372.5300000031}},{"attributes":{"ID":591132,"DIS_CODE":0,"TOWNNAME":"中西區","LI":"民生里","LIN":"11鄰","STREET":"武英街","SECT":" ","MAREA":" ","LANE":" ","ALLEY":" ","HOUSE_NO":"６０號","E_COORD97":167051.14000000001,"N_COORD97":2543350.0600000001,"ADDRESS":"武英街６０號","OBJECTID":591105},"geometry":{"x":167051.1400000006,"y":2543350.0600000024}},{"attributes":{"ID":591133,"DIS_CODE":0,"TOWNNAME":"中西區","LI":"民生里","LIN":"11鄰","STREET":"武英街","SECT":" ","MAREA":" ","LANE":" ","ALLEY":" ","HOUSE_NO":"６２號","E_COORD97":167047.26999999999,"N_COORD97":2543350.29,"ADDRESS":"武英街６２號","OBJECTID":591106},"geometry":{"x":167047.26999999955,"y":2543350.2900000028}},{"attributes":{"ID":591134,"DIS_CODE":0,"TOWNNAME":"中西區","LI":"民生里","LIN":"11鄰","STREET":"武英街","SECT":" ","MAREA":" ","LANE":" ","ALLEY":" ","HOUSE_NO":"６４號","E_COORD97":167039.29000000001,"N_COORD97":2543351.8799999999,"ADDRESS":"武英街６４號","OBJECTID":591107},"geometry":{"x":167039.29000000004,"y":2543351.879999999}},{"attributes":{"ID":591135,"DIS_CODE":0,"TOWNNAME":"中西區","LI":"三合里","LIN":"11鄰","STREET":"文賢路","SECT":" ","MAREA":" ","LANE":" ","ALLEY":" ","HOUSE_NO":"８號","E_COORD97":167475.91,"N_COORD97":2544447.6699999999,"ADDRESS":"文賢路８號","OBJECTID":591108},"geometry":{"x":167475.91000000015,"y":2544447.6700000018}},{"attributes":{"ID":591136,"DIS_CODE":0,"TOWNNAME":"中西區","LI":"安海里","LIN":"11鄰","STREET":"環河街","SECT":" ","MAREA":" ","LANE":" ","ALLEY":" ","HOUSE_NO":"７８號","E_COORD97":167214.98999999999,"N_COORD97":2543896.98,"ADDRESS":"環河街７８號","OBJECTID":591109},"geometry":{"x":167214.99000000022,"y":2543896.9800000023}},{"attributes":{"ID":591137,"DIS_CODE":0,"TOWNNAME":"中西區","LI":"安海里","LIN":"11鄰","STREET":"環河街","SECT":" ","MAREA":" ","LANE":" ","ALLEY":" ","HOUSE_NO":"８２號","E_COORD97":167216.44,"N_COORD97":2543905.73,"ADDRESS":"環河街８２號","OBJECTID":591110},"geometry":{"x":167216.44000000134,"y":2543905.7300000023}},{"attributes":{"ID":591138,"DIS_CODE":0,"TOWNNAME":"中西區","LI":"安海里","LIN":"11鄰","STREET":"環河街","SECT":" ","MAREA":" ","LANE":" ","ALLEY":" ","HOUSE_NO":"８４號","E_COORD97":167216.44,"N_COORD97":2543909.1299999999,"ADDRESS":"環河街８４號","OBJECTID":591111},"geometry":{"x":167216.44000000134,"y":2543909.129999999}},{"attributes":{"ID":591139,"DIS_CODE":0,"TOWNNAME":"中西區","LI":"安海里","LIN":"11鄰","STREET":"環河街","SECT":" ","MAREA":" ","LANE":" ","ALLEY":" ","HOUSE_NO":"８６號","E_COORD97":167220.34,"N_COORD97":2543917.3799999999,"ADDRESS":"環河街８６號","OBJECTID":591112},"geometry":{"x":167220.33999999985,"y":2543917.379999999}},{"attributes":{"ID":591140,"DIS_CODE":0,"TOWNNAME":"永康區","LI":"勝利里","LIN":"20鄰","STREET":"勝華街","SECT":" ","MAREA":" ","LANE":" ","ALLEY":" ","HOUSE_NO":"９９號","E_COORD97":171249.03,"N_COORD97":2545204.7599999998,"ADDRESS":"勝華街９９號","OBJECTID":591113},"geometry":{"x":171249.03000000026,"y":2545204.7599999998}},{"attributes":{"ID":591141,"DIS_CODE":0,"TOWNNAME":"永康區","LI":"勝利里","LIN":"23鄰","STREET":"勝利街","SECT":" ","MAREA":" ","LANE":" ","ALLEY":" ","HOUSE_NO":"１１８號之８","E_COORD97":171358.95999999999,"N_COORD97":2544923.04,"ADDRESS":"勝利街１１８號之８","OBJECTID":591114},"geometry":{"x":171358.95999999996,"y":2544923.040000001}},{"attributes":{"ID":591142,"DIS_CODE":0,"TOWNNAME":"麻豆區","LI":"保安里","LIN":"11鄰","STREET":"興中路","SECT":" ","MAREA":" ","LANE":" ","ALLEY":" ","HOUSE_NO":"２６號","E_COORD97":173143.51999999999,"N_COORD97":2564806.0299999998,"ADDRESS":"興中路２６號","OBJECTID":591115},"geometry":{"x":173143.51999999955,"y":2564806.0299999993}},{"attributes":{"ID":591143,"DIS_CODE":0,"TOWNNAME":"麻豆區","LI":"保安里","LIN":"11鄰","STREET":"興中路","SECT":" ","MAREA":" ","LANE":" ","ALLEY":" ","HOUSE_NO":"２８號","E_COORD97":173146.76999999999,"N_COORD97":2564805.9399999999,"ADDRESS":"興中路２８號","OBJECTID":591116},"geometry":{"x":173146.76999999955,"y":2564805.9399999995}},{"attributes":{"ID":591144,"DIS_CODE":0,"TOWNNAME":"麻豆區","LI":"保安里","LIN":"11鄰","STREET":"興中路","SECT":" ","MAREA":" ","LANE":" ","ALLEY":" ","HOUSE_NO":"３０號","E_COORD97":173150.31,"N_COORD97":2564806.1499999999,"ADDRESS":"興中路３０號","OBJECTID":591117},"geometry":{"x":173150.30999999959,"y":2564806.1500000004}},{"attributes":{"ID":591145,"DIS_CODE":0,"TOWNNAME":"永康區","LI":"崑山里","LIN":"40鄰","STREET":"國光五街","SECT":" ","MAREA":" ","LANE":" ","ALLEY":" ","HOUSE_NO":"７號","E_COORD97":174183.45000000001,"N_COORD97":2545052.6200000001,"ADDRESS":"國光五街７號","OBJECTID":591118},"geometry":{"x":174183.45000000019,"y":2545052.6200000029}},{"attributes":{"ID":591146,"DIS_CODE":0,"TOWNNAME":"永康區","LI":"勝利里","LIN":"22鄰","STREET":"勝華街","SECT":" ","MAREA":" ","LANE":" ","ALLEY":" ","HOUSE_NO":"３５號","E_COORD97":171472.91,"N_COORD97":2545201.4199999999,"ADDRESS":"勝華街３５號","OBJECTID":591119},"geometry":{"x":171472.91000000108,"y":2545201.4200000037}},{"attributes":{"ID":591147,"DIS_CODE":0,"TOWNNAME":"永康區","LI":"勝利里","LIN":"21鄰","STREET":"勝利街","SECT":" ","MAREA":" ","LANE":" ","ALLEY":" ","HOUSE_NO":"１８６號","E_COORD97":171388.25,"N_COORD97":2545162.0099999998,"ADDRESS":"勝利街１８６號","OBJECTID":591120},"geometry":{"x":171388.25,"y":2545162.0099999998}},{"attributes":{"ID":591148,"DIS_CODE":0,"TOWNNAME":"永康區","LI":"埔園里","LIN":"39鄰","STREET":"永大路","SECT":"三段","MAREA":" ","LANE":" ","ALLEY":" ","HOUSE_NO":"２４９號","E_COORD97":174111.31,"N_COORD97":2548156.6899999999,"ADDRESS":"永大路三段２４９號","OBJECTID":591121},"geometry":{"x":174111.30999999959,"y":2548156.6900000013}},{"attributes":{"ID":591149,"DIS_CODE":0,"TOWNNAME":"永康區","LI":"復國里","LIN":"7鄰","STREET":"復國一路","SECT":" ","MAREA":" ","LANE":" ","ALLEY":" ","HOUSE_NO":"２６８號","E_COORD97":172747.45000000001,"N_COORD97":2545389.6299999999,"ADDRESS":"復國一路２６８號","OBJECTID":591122},"geometry":{"x":172747.45000000112,"y":2545389.6300000008}},{"attributes":{"ID":591150,"DIS_CODE":0,"TOWNNAME":"永康區","LI":"復國里","LIN":"7鄰","STREET":"復國一路","SECT":" ","MAREA":" ","LANE":" ","ALLEY":" ","HOUSE_NO":"２１４號","E_COORD97":172736.73999999999,"N_COORD97":2545223.77,"ADDRESS":"復國一路２１４號","OBJECTID":591123},"geometry":{"x":172736.74000000115,"y":2545223.7700000014}},{"attributes":{"ID":591151,"DIS_CODE":0,"TOWNNAME":"永康區","LI":"崑山里","LIN":"7鄰","STREET":"大灣路","SECT":" ","MAREA":" ","LANE":" ","ALLEY":" ","HOUSE_NO":"９１１號","E_COORD97":173573.64000000001,"N_COORD97":2544389.96,"ADDRESS":"大灣路９１１號","OBJECTID":591124},"geometry":{"x":173573.63999999966,"y":2544389.9600000009}},{"attributes":{"ID":591152,"DIS_CODE":0,"TOWNNAME":"永康區","LI":"勝利里","LIN":"21鄰","STREET":"勝利街","SECT":" ","MAREA":" ","LANE":" ","ALLEY":" ","HOUSE_NO":"１５３號","E_COORD97":171360.23000000001,"N_COORD97":2545015.5,"ADDRESS":"勝利街１５３號","OBJECTID":591125},"geometry":{"x":171360.23000000231,"y":2545015.5000000019}},{"attributes":{"ID":591153,"DIS_CODE":0,"TOWNNAME":"永康區","LI":"崑山里","LIN":"23鄰","STREET":"國光二街","SECT":" ","MAREA":" ","LANE":" ","ALLEY":" ","HOUSE_NO":"６３號","E_COORD97":173901.10999999999,"N_COORD97":2544713.8900000001,"ADDRESS":"國光二街６３號","OBJECTID":591126},"geometry":{"x":173901.11000000127,"y":2544713.8900000043}},{"attributes":{"ID":591154,"DIS_CODE":0,"TOWNNAME":"永康區","LI":"勝利里","LIN":"23鄰","STREET":"勝利街","SECT":" ","MAREA":" ","LANE":" ","ALLEY":" ","HOUSE_NO":"１１８號之４","E_COORD97":171359.85000000001,"N_COORD97":2544907.54,"ADDRESS":"勝利街１１８號之４","OBJECTID":591127},"geometry":{"x":171359.84999999963,"y":2544907.5399999991}},{"attributes":{"ID":591155,"DIS_CODE":0,"TOWNNAME":"永康區","LI":"崑山里","LIN":"13鄰","STREET":"大灣路","SECT":" ","MAREA":" ","LANE":" ","ALLEY":" ","HOUSE_NO":"１０００號","E_COORD97":173486.01000000001,"N_COORD97":2544397.52,"ADDRESS":"大灣路１０００號","OBJECTID":591128},"geometry":{"x":173486.00999999978,"y":2544397.5200000014}},{"attributes":{"ID":591156,"DIS_CODE":0,"TOWNNAME":"下營區","LI":"下營里","LIN":"11鄰","STREET":"中山路","SECT":"一段","MAREA":" ","LANE":" ","ALLEY":" ","HOUSE_NO":"５９號","E_COORD97":174519.23999999999,"N_COORD97":2570527.27,"ADDRESS":"中山路一段５９號","OBJECTID":591129},"geometry":{"x":174519.24000000022,"y":2570527.2699999996}},{"attributes":{"ID":591157,"DIS_CODE":0,"TOWNNAME":"下營區","LI":"下營里","LIN":"11鄰","STREET":"中山路","SECT":"一段","MAREA":" ","LANE":" ","ALLEY":" ","HOUSE_NO":"６１號","E_COORD97":174523.07999999999,"N_COORD97":2570528.2400000002,"ADDRESS":"中山路一段６１號","OBJECTID":591130},"geometry":{"x":174523.08000000101,"y":2570528.2400000002}},{"attributes":{"ID":591158,"DIS_CODE":0,"TOWNNAME":"下營區","LI":"下營里","LIN":"11鄰","STREET":"中山路","SECT":"一段","MAREA":" ","LANE":" ","ALLEY":" ","HOUSE_NO":"６５號","E_COORD97":174556.79999999999,"N_COORD97":2570534.6000000001,"ADDRESS":"中山路一段６５號","OBJECTID":591131},"geometry":{"x":174556.80000000075,"y":2570534.5999999996}},{"attributes":{"ID":591159,"DIS_CODE":0,"TOWNNAME":"下營區","LI":"下營里","LIN":"11鄰","STREET":"中山路","SECT":"一段","MAREA":" ","LANE":" ","ALLEY":" ","HOUSE_NO":"６７號","E_COORD97":174561.94,"N_COORD97":2570536.4300000002,"ADDRESS":"中山路一段６７號","OBJECTID":591132},"geometry":{"x":174561.94000000041,"y":2570536.4299999997}},{"attributes":{"ID":591160,"DIS_CODE":0,"TOWNNAME":"下營區","LI":"下營里","LIN":"11鄰","STREET":"中山路","SECT":"一段","MAREA":" ","LANE":" ","ALLEY":" ","HOUSE_NO":"６９號","E_COORD97":174565.42999999999,"N_COORD97":2570537.4500000002,"ADDRESS":"中山路一段６９號","OBJECTID":591133},"geometry":{"x":174565.43000000156,"y":2570537.4500000011}},{"attributes":{"ID":591161,"DIS_CODE":0,"TOWNNAME":"下營區","LI":"下營里","LIN":"11鄰","STREET":"中山路","SECT":"一段","MAREA":" ","LANE":" ","ALLEY":" ","HOUSE_NO":"７１號","E_COORD97":174569.45000000001,"N_COORD97":2570538.8199999998,"ADDRESS":"中山路一段７１號","OBJECTID":591134},"geometry":{"x":174569.45000000112,"y":2570538.8200000022}},{"attributes":{"ID":591162,"DIS_CODE":0,"TOWNNAME":"下營區","LI":"下營里","LIN":"11鄰","STREET":"中山路","SECT":"一段","MAREA":" ","LANE":" ","ALLEY":" ","HOUSE_NO":"７３號","E_COORD97":174574.29999999999,"N_COORD97":2570541.2599999998,"ADDRESS":"中山路一段７３號","OBJECTID":591135},"geometry":{"x":174574.29999999981,"y":2570541.2599999998}},{"attributes":{"ID":591163,"DIS_CODE":0,"TOWNNAME":"下營區","LI":"下營里","LIN":"11鄰","STREET":"中山路","SECT":"一段","MAREA":" ","LANE":" ","ALLEY":" ","HOUSE_NO":"７５號","E_COORD97":174578.89000000001,"N_COORD97":2570542.9500000002,"ADDRESS":"中山路一段７５號","OBJECTID":591136},"geometry":{"x":174578.88999999966,"y":2570542.9499999993}},{"attributes":{"ID":591164,"DIS_CODE":0,"TOWNNAME":"下營區","LI":"下營里","LIN":"11鄰","STREET":"中山路","SECT":"一段","MAREA":" ","LANE":" ","ALLEY":" ","HOUSE_NO":"７７號","E_COORD97":174584.20000000001,"N_COORD97":2570544.3999999999,"ADDRESS":"中山路一段７７號","OBJECTID":591137},"geometry":{"x":174584.20000000019,"y":2570544.4000000004}},{"attributes":{"ID":591165,"DIS_CODE":0,"TOWNNAME":"下營區","LI":"下營里","LIN":"11鄰","STREET":"中山路","SECT":"一段","MAREA":" ","LANE":" ","ALLEY":" ","HOUSE_NO":"７９號","E_COORD97":174588.34,"N_COORD97":2570545.77,"ADDRESS":"中山路一段７９號","OBJECTID":591138},"geometry":{"x":174588.34000000078,"y":2570545.7700000014}},{"attributes":{"ID":591166,"DIS_CODE":0,"TOWNNAME":"下營區","LI":"下營里","LIN":"11鄰","STREET":"中山路","SECT":"一段","MAREA":" ","LANE":" ","ALLEY":" ","HOUSE_NO":"８１號","E_COORD97":174589.48000000001,"N_COORD97":2570554.0600000001,"ADDRESS":"中山路一段８１號","OBJECTID":591139},"geometry":{"x":174589.48000000231,"y":2570554.0600000042}},{"attributes":{"ID":591167,"DIS_CODE":0,"TOWNNAME":"下營區","LI":"下營里","LIN":"11鄰","STREET":"中山路","SECT":"一段","MAREA":" ","LANE":" ","ALLEY":" ","HOUSE_NO":"８３號","E_COORD97":174592.39000000001,"N_COORD97":2570547.1099999999,"ADDRESS":"中山路一段８３號","OBJECTID":591140},"geometry":{"x":174592.38999999966,"y":2570547.1100000013}},{"attributes":{"ID":591168,"DIS_CODE":0,"TOWNNAME":"下營區","LI":"下營里","LIN":"11鄰","STREET":"中山路","SECT":"一段","MAREA":" ","LANE":" ","ALLEY":" ","HOUSE_NO":"８５號","E_COORD97":174595.88,"N_COORD97":2570548.6699999999,"ADDRESS":"中山路一段８５號","OBJECTID":591141},"geometry":{"x":174595.87999999989,"y":2570548.6699999999}},{"attributes":{"ID":591169,"DIS_CODE":0,"TOWNNAME":"下營區","LI":"後街里","LIN":"11鄰","STREET":"中正北路","SECT":" ","MAREA":" ","LANE":" ","ALLEY":" ","HOUSE_NO":"５１號","E_COORD97":174461,"N_COORD97":2570658.73,"ADDRESS":"中正北路５１號","OBJECTID":591142},"geometry":{"x":174461,"y":2570658.7300000023}},{"attributes":{"ID":591170,"DIS_CODE":0,"TOWNNAME":"下營區","LI":"後街里","LIN":"11鄰","STREET":"中正北路","SECT":" ","MAREA":" ","LANE":" ","ALLEY":" ","HOUSE_NO":"５５號","E_COORD97":174465.35000000001,"N_COORD97":2570668.9399999999,"ADDRESS":"中正北路５５號","OBJECTID":591143},"geometry":{"x":174465.34999999963,"y":2570668.9399999976}},{"attributes":{"ID":591171,"DIS_CODE":0,"TOWNNAME":"永康區","LI":"埔園里","LIN":"18鄰","STREET":"龍埔街","SECT":" ","MAREA":" ","LANE":" ","ALLEY":" ","HOUSE_NO":"５０７號","E_COORD97":173370.12,"N_COORD97":2548380.75,"ADDRESS":"龍埔街５０７號","OBJECTID":591144},"geometry":{"x":173370.12000000104,"y":2548380.7500000019}},{"attributes":{"ID":591172,"DIS_CODE":0,"TOWNNAME":"永康區","LI":"復國里","LIN":"7鄰","STREET":"復國一路","SECT":" ","MAREA":" ","LANE":" ","ALLEY":" ","HOUSE_NO":"２３６號","E_COORD97":172771.07999999999,"N_COORD97":2545270.0299999998,"ADDRESS":"復國一路２３６號","OBJECTID":591145},"geometry":{"x":172771.07999999914,"y":2545270.0299999993}},{"attributes":{"ID":591173,"DIS_CODE":0,"TOWNNAME":"永康區","LI":"勝利里","LIN":"33鄰","STREET":"中華路","SECT":" ","MAREA":" ","LANE":" ","ALLEY":" ","HOUSE_NO":"１號之１４０","E_COORD97":171503.16,"N_COORD97":2544353.0499999998,"ADDRESS":"中華路１號之１４０","OBJECTID":591146},"geometry":{"x":171503.16000000108,"y":2544353.0500000007}},{"attributes":{"ID":591174,"DIS_CODE":0,"TOWNNAME":"永康區","LI":"埔園里","LIN":"28鄰","STREET":"中山路","SECT":" ","MAREA":" ","LANE":" ","ALLEY":" ","HOUSE_NO":"３２４號","E_COORD97":173676.14999999999,"N_COORD97":2548187.1899999999,"ADDRESS":"中山路３２４號","OBJECTID":591147},"geometry":{"x":173676.14999999944,"y":2548187.1900000013}},{"attributes":{"ID":591175,"DIS_CODE":0,"TOWNNAME":"永康區","LI":"崑山里","LIN":"23鄰","STREET":"國光二街","SECT":" ","MAREA":" ","LANE":" ","ALLEY":" ","HOUSE_NO":"６１號","E_COORD97":173905.57000000001,"N_COORD97":2544712.3900000001,"ADDRESS":"國光二街６１號","OBJECTID":591148},"geometry":{"x":173905.57000000216,"y":2544712.3900000006}},{"attributes":{"ID":591176,"DIS_CODE":0,"TOWNNAME":"下營區","LI":"下營里","LIN":"11鄰","STREET":"中正北路","SECT":" ","MAREA":" ","LANE":" ","ALLEY":" ","HOUSE_NO":"７號","E_COORD97":174524.5,"N_COORD97":2570544.3700000001,"ADDRESS":"中正北路７號","OBJECTID":591149},"geometry":{"x":174524.50000000186,"y":2570544.370000001}},{"attributes":{"ID":591177,"DIS_CODE":0,"TOWNNAME":"下營區","LI":"下營里","LIN":"11鄰","STREET":"中正北路","SECT":" ","MAREA":" ","LANE":" ","ALLEY":" ","HOUSE_NO":"９號","E_COORD97":174523.20000000001,"N_COORD97":2570547.46,"ADDRESS":"中正北路９號","OBJECTID":591150},"geometry":{"x":174523.19999999925,"y":2570547.4600000009}},{"attributes":{"ID":591178,"DIS_CODE":0,"TOWNNAME":"下營區","LI":"營前里","LIN":"11鄰","STREET":"中正南路","SECT":" ","MAREA":" ","LANE":" ","ALLEY":" ","HOUSE_NO":"１１１號","E_COORD97":174644.44,"N_COORD97":2570243.8100000001,"ADDRESS":"中正南路１１１號","OBJECTID":591151},"geometry":{"x":174644.44000000134,"y":2570243.8100000042}},{"attributes":{"ID":591179,"DIS_CODE":0,"TOWNNAME":"下營區","LI":"營前里","LIN":"11鄰","STREET":"中正南路","SECT":" ","MAREA":" ","LANE":" ","ALLEY":" ","HOUSE_NO":"１１３號","E_COORD97":174645.29000000001,"N_COORD97":2570239.6899999999,"ADDRESS":"中正南路１１３號","OBJECTID":591152},"geometry":{"x":174645.29000000097,"y":2570239.6899999995}},{"attributes":{"ID":591180,"DIS_CODE":0,"TOWNNAME":"下營區","LI":"營前里","LIN":"11鄰","STREET":"中正南路","SECT":" ","MAREA":" ","LANE":" ","ALLEY":" ","HOUSE_NO":"１１５號","E_COORD97":174646.03,"N_COORD97":2570236.3599999999,"ADDRESS":"中正南路１１５號","OBJECTID":591153},"geometry":{"x":174646.03000000026,"y":2570236.3600000013}},{"attributes":{"ID":591181,"DIS_CODE":0,"TOWNNAME":"下營區","LI":"營前里","LIN":"11鄰","STREET":"中正南路","SECT":" ","MAREA":" ","LANE":" ","ALLEY":" ","HOUSE_NO":"１２１號","E_COORD97":174650.84,"N_COORD97":2570220.9100000001,"ADDRESS":"中正南路１２１號","OBJECTID":591154},"geometry":{"x":174650.84000000171,"y":2570220.9100000001}},{"attributes":{"ID":591182,"DIS_CODE":0,"TOWNNAME":"下營區","LI":"營前里","LIN":"11鄰","STREET":"中正南路","SECT":" ","MAREA":" ","LANE":" ","ALLEY":" ","HOUSE_NO":"１２５號","E_COORD97":174653.56,"N_COORD97":2570211.1299999999,"ADDRESS":"中正南路１２５號","OBJECTID":591155},"geometry":{"x":174653.55999999959,"y":2570211.1300000008}},{"attributes":{"ID":591183,"DIS_CODE":0,"TOWNNAME":"下營區","LI":"營前里","LIN":"11鄰","STREET":"中正南路","SECT":" ","MAREA":" ","LANE":" ","ALLEY":" ","HOUSE_NO":"１２７號","E_COORD97":174654.48000000001,"N_COORD97":2570205.2999999998,"ADDRESS":"中正南路１２７號","OBJECTID":591156},"geometry":{"x":174654.48000000138,"y":2570205.3000000007}},{"attributes":{"ID":591184,"DIS_CODE":0,"TOWNNAME":"下營區","LI":"營前里","LIN":"11鄰","STREET":"中正南路","SECT":" ","MAREA":" ","LANE":" ","ALLEY":" ","HOUSE_NO":"１２９號","E_COORD97":174655.95000000001,"N_COORD97":2570200.52,"ADDRESS":"中正南路１２９號","OBJECTID":591157},"geometry":{"x":174655.95000000112,"y":2570200.5199999977}},{"attributes":{"ID":591185,"DIS_CODE":0,"TOWNNAME":"下營區","LI":"營前里","LIN":"11鄰","STREET":"中正南路","SECT":" ","MAREA":" ","LANE":" ","ALLEY":" ","HOUSE_NO":"１３１號","E_COORD97":174657.07999999999,"N_COORD97":2570196.1499999999,"ADDRESS":"中正南路１３１號","OBJECTID":591158},"geometry":{"x":174657.08000000101,"y":2570196.1500000004}},{"attributes":{"ID":591186,"DIS_CODE":0,"TOWNNAME":"下營區","LI":"營前里","LIN":"11鄰","STREET":"中正南路","SECT":" ","MAREA":" ","LANE":" ","ALLEY":" ","HOUSE_NO":"１３３號","E_COORD97":174658.37,"N_COORD97":2570191.6099999999,"ADDRESS":"中正南路１３３號","OBJECTID":591159},"geometry":{"x":174658.37000000104,"y":2570191.6099999994}},{"attributes":{"ID":591187,"DIS_CODE":0,"TOWNNAME":"下營區","LI":"營前里","LIN":"11鄰","STREET":"中正南路","SECT":" ","MAREA":" ","LANE":" ","ALLEY":" ","HOUSE_NO":"１３５號","E_COORD97":174659.32999999999,"N_COORD97":2570187.73,"ADDRESS":"中正南路１３５號","OBJECTID":591160},"geometry":{"x":174659.33000000007,"y":2570187.7300000023}},{"attributes":{"ID":591188,"DIS_CODE":0,"TOWNNAME":"下營區","LI":"營前里","LIN":"11鄰","STREET":"中正南路","SECT":" ","MAREA":" ","LANE":" ","ALLEY":" ","HOUSE_NO":"１３７號","E_COORD97":174660.17999999999,"N_COORD97":2570184.0099999998,"ADDRESS":"中正南路１３７號","OBJECTID":591161},"geometry":{"x":174660.17999999877,"y":2570184.0100000035}},{"attributes":{"ID":591189,"DIS_CODE":0,"TOWNNAME":"下營區","LI":"下營里","LIN":"11鄰","STREET":"中正北路","SECT":" ","MAREA":" ","LANE":" ","ALLEY":" ","HOUSE_NO":"１１號","E_COORD97":174521.85999999999,"N_COORD97":2570550.5,"ADDRESS":"中正北路１１號","OBJECTID":591162},"geometry":{"x":174521.86000000034,"y":2570550.5000000037}},{"attributes":{"ID":591190,"DIS_CODE":0,"TOWNNAME":"下營區","LI":"下營里","LIN":"11鄰","STREET":"中正北路","SECT":" ","MAREA":" ","LANE":" ","ALLEY":" ","HOUSE_NO":"１３號","E_COORD97":174519.70999999999,"N_COORD97":2570554.2200000002,"ADDRESS":"中正北路１３號","OBJECTID":591163},"geometry":{"x":174519.71000000183,"y":2570554.2200000025}},{"attributes":{"ID":591191,"DIS_CODE":0,"TOWNNAME":"下營區","LI":"下營里","LIN":"11鄰","STREET":"中正北路","SECT":" ","MAREA":" ","LANE":" ","ALLEY":" ","HOUSE_NO":"１５號","E_COORD97":174517.89000000001,"N_COORD97":2570560.2999999998,"ADDRESS":"中正北路１５號","OBJECTID":591164},"geometry":{"x":174517.88999999966,"y":2570560.3000000026}},{"attributes":{"ID":591192,"DIS_CODE":0,"TOWNNAME":"下營區","LI":"下營里","LIN":"11鄰","STREET":"中正北路","SECT":" ","MAREA":" ","LANE":" ","ALLEY":" ","HOUSE_NO":"１號","E_COORD97":174531.60999999999,"N_COORD97":2570528.79,"ADDRESS":"中正北路１號","OBJECTID":591165},"geometry":{"x":174531.61000000127,"y":2570528.790000001}},{"attributes":{"ID":591193,"DIS_CODE":0,"TOWNNAME":"下營區","LI":"下營里","LIN":"11鄰","STREET":"中正北路","SECT":" ","MAREA":" ","LANE":" ","ALLEY":" ","HOUSE_NO":"３號","E_COORD97":174530.25,"N_COORD97":2570532.6800000002,"ADDRESS":"中正北路３號","OBJECTID":591166},"geometry":{"x":174530.25000000093,"y":2570532.6800000016}},{"attributes":{"ID":591194,"DIS_CODE":0,"TOWNNAME":"永康區","LI":"崑山里","LIN":"18鄰","STREET":"大灣路","SECT":" ","MAREA":" ","LANE":" ","ALLEY":" ","HOUSE_NO":"９１０號","E_COORD97":173698.45999999999,"N_COORD97":2544442.9100000001,"ADDRESS":"大灣路９１０號","OBJECTID":591167},"geometry":{"x":173698.45999999996,"y":2544442.910000002}},{"attributes":{"ID":591195,"DIS_CODE":0,"TOWNNAME":"永康區","LI":"埔園里","LIN":"32鄰","STREET":"龍埔街","SECT":" ","MAREA":" ","LANE":" ","ALLEY":" ","HOUSE_NO":"２７７號","E_COORD97":174051.34,"N_COORD97":2548305,"ADDRESS":"龍埔街２７７號","OBJECTID":591168},"geometry":{"x":174051.34000000078,"y":2548305}},{"attributes":{"ID":591196,"DIS_CODE":0,"TOWNNAME":"永康區","LI":"崑山里","LIN":"40鄰","STREET":"國光五街","SECT":" ","MAREA":" ","LANE":" ","ALLEY":" ","HOUSE_NO":"５號","E_COORD97":174201.73999999999,"N_COORD97":2545047.23,"ADDRESS":"國光五街５號","OBJECTID":591169},"geometry":{"x":174201.74000000115,"y":2545047.2300000042}},{"attributes":{"ID":591197,"DIS_CODE":0,"TOWNNAME":"永康區","LI":"勝利里","LIN":"33鄰","STREET":"中華路","SECT":" ","MAREA":" ","LANE":" ","ALLEY":" ","HOUSE_NO":"１號之１２４","E_COORD97":171503.13,"N_COORD97":2544353.0499999998,"ADDRESS":"中華路１號之１２４","OBJECTID":591170},"geometry":{"x":171503.13000000082,"y":2544353.0500000007}},{"attributes":{"ID":591198,"DIS_CODE":0,"TOWNNAME":"永康區","LI":"烏竹里","LIN":"19鄰","STREET":"自強路","SECT":" ","MAREA":" ","LANE":" ","ALLEY":" ","HOUSE_NO":"７４７號","E_COORD97":174432.28,"N_COORD97":2548531.7999999998,"ADDRESS":"自強路７４７號","OBJECTID":591171},"geometry":{"x":174432.28000000026,"y":2548531.8000000007}},{"attributes":{"ID":591199,"DIS_CODE":0,"TOWNNAME":"永康區","LI":"崑山里","LIN":"20鄰","STREET":"崑山街","SECT":" ","MAREA":" ","LANE":" ","ALLEY":" ","HOUSE_NO":"１３號之１","E_COORD97":173912.03,"N_COORD97":2544548.6299999999,"ADDRESS":"崑山街１３號之１","OBJECTID":591172},"geometry":{"x":173912.03000000026,"y":2544548.6300000008}},{"attributes":{"ID":591200,"DIS_CODE":0,"TOWNNAME":"永康區","LI":"勝利里","LIN":"33鄰","STREET":"中華路","SECT":" ","MAREA":" ","LANE":" ","ALLEY":" ","HOUSE_NO":"１號之１１３","E_COORD97":171503.20999999999,"N_COORD97":2544353.0499999998,"ADDRESS":"中華路１號之１１３","OBJECTID":591173},"geometry":{"x":171503.20999999996,"y":2544353.0500000007}},{"attributes":{"ID":591201,"DIS_CODE":0,"TOWNNAME":"永康區","LI":"勝利里","LIN":"33鄰","STREET":"中華路","SECT":" ","MAREA":" ","LANE":" ","ALLEY":" ","HOUSE_NO":"１號之１３６","E_COORD97":171503.20999999999,"N_COORD97":2544353.0499999998,"ADDRESS":"中華路１號之１３６","OBJECTID":591174},"geometry":{"x":171503.20999999996,"y":2544353.0500000007}},{"attributes":{"ID":591202,"DIS_CODE":0,"TOWNNAME":"永康區","LI":"勝利里","LIN":"22鄰","STREET":"勝華街","SECT":" ","MAREA":" ","LANE":" ","ALLEY":" ","HOUSE_NO":"２５號","E_COORD97":171497.59,"N_COORD97":2545199.3799999999,"ADDRESS":"勝華街２５號","OBJECTID":591175},"geometry":{"x":171497.58999999985,"y":2545199.379999999}},{"attributes":{"ID":591203,"DIS_CODE":0,"TOWNNAME":"永康區","LI":"勝利里","LIN":"22鄰","STREET":"勝華街","SECT":" ","MAREA":" ","LANE":" ","ALLEY":" ","HOUSE_NO":"３１號","E_COORD97":171481.44,"N_COORD97":2545200.7200000002,"ADDRESS":"勝華街３１號","OBJECTID":591176},"geometry":{"x":171481.44000000134,"y":2545200.7200000025}},{"attributes":{"ID":591204,"DIS_CODE":0,"TOWNNAME":"永康區","LI":"勝利里","LIN":"17鄰","STREET":"中華一路","SECT":" ","MAREA":" ","LANE":" ","ALLEY":" ","HOUSE_NO":"２９２號","E_COORD97":171280.45999999999,"N_COORD97":2544994,"ADDRESS":"中華一路２９２號","OBJECTID":591177},"geometry":{"x":171280.46000000089,"y":2544994.0000000037}},{"attributes":{"ID":591205,"DIS_CODE":0,"TOWNNAME":"永康區","LI":"埔園里","LIN":"35鄰","STREET":"龍埔街","SECT":" ","MAREA":" ","LANE":" ","ALLEY":" ","HOUSE_NO":"３６２號","E_COORD97":174254.04000000001,"N_COORD97":2548302.5,"ADDRESS":"龍埔街３６２號","OBJECTID":591178},"geometry":{"x":174254.04000000004,"y":2548302.5}},{"attributes":{"ID":591206,"DIS_CODE":0,"TOWNNAME":"永康區","LI":"埔園里","LIN":"30鄰","STREET":"龍埔街","SECT":" ","MAREA":" ","LANE":" ","ALLEY":" ","HOUSE_NO":"４４２號","E_COORD97":173911.57000000001,"N_COORD97":2548345.6299999999,"ADDRESS":"龍埔街４４２號","OBJECTID":591179},"geometry":{"x":173911.5700000003,"y":2548345.6300000008}},{"attributes":{"ID":591207,"DIS_CODE":0,"TOWNNAME":"永康區","LI":"崑山里","LIN":"45鄰","STREET":"永華路","SECT":" ","MAREA":" ","LANE":" ","ALLEY":" ","HOUSE_NO":"２號","E_COORD97":174054.14999999999,"N_COORD97":2545141.0899999999,"ADDRESS":"永華路２號","OBJECTID":591180},"geometry":{"x":174054.15000000037,"y":2545141.0899999999}},{"attributes":{"ID":591208,"DIS_CODE":0,"TOWNNAME":"永康區","LI":"勝利里","LIN":"23鄰","STREET":"中華路","SECT":" ","MAREA":" ","LANE":" ","ALLEY":" ","HOUSE_NO":"１５７號","E_COORD97":171579.98000000001,"N_COORD97":2544902.4900000002,"ADDRESS":"中華路１５７號","OBJECTID":591181},"geometry":{"x":171579.98000000045,"y":2544902.4899999984}},{"attributes":{"ID":591209,"DIS_CODE":0,"TOWNNAME":"永康區","LI":"南灣里","LIN":"11鄰","STREET":"大灣路","SECT":" ","MAREA":" ","LANE":" ","ALLEY":" ","HOUSE_NO":"５４８號之２","E_COORD97":174657.23000000001,"N_COORD97":2544753.6800000002,"ADDRESS":"大灣路５４８號之２","OBJECTID":591182},"geometry":{"x":174657.22999999952,"y":2544753.6799999997}},{"attributes":{"ID":591210,"DIS_CODE":0,"TOWNNAME":"永康區","LI":"東灣里","LIN":"11鄰","STREET":"立興街","SECT":" ","MAREA":" ","LANE":" ","ALLEY":" ","HOUSE_NO":"４號","E_COORD97":174685.92999999999,"N_COORD97":2544840.98,"ADDRESS":"立興街４號","OBJECTID":591183},"geometry":{"x":174685.93000000063,"y":2544840.9800000004}},{"attributes":{"ID":591211,"DIS_CODE":0,"TOWNNAME":"永康區","LI":"尚頂里","LIN":"11鄰","STREET":"正南一街","SECT":" ","MAREA":" ","LANE":" ","ALLEY":" ","HOUSE_NO":"４５號","E_COORD97":171168.20000000001,"N_COORD97":2547317.5499999998,"ADDRESS":"正南一街４５號","OBJECTID":591184},"geometry":{"x":171168.20000000019,"y":2547317.5500000026}},{"attributes":{"ID":591212,"DIS_CODE":0,"TOWNNAME":"永康區","LI":"\u25A0行里","LIN":"18鄰","STREET":"中正南路","SECT":" ","MAREA":" ","LANE":" ","ALLEY":" ","HOUSE_NO":"６８６號","E_COORD97":171615.79000000001,"N_COORD97":2548849.7400000002,"ADDRESS":"中正南路６８６號","OBJECTID":591185},"geometry":{"x":171615.79000000097,"y":2548849.7400000002}},{"attributes":{"ID":591213,"DIS_CODE":0,"TOWNNAME":"永康區","LI":"崑山里","LIN":"20鄰","STREET":"崑山街","SECT":" ","MAREA":" ","LANE":" ","ALLEY":" ","HOUSE_NO":"２３號","E_COORD97":173908.97,"N_COORD97":2544579.6499999999,"ADDRESS":"崑山街２３號","OBJECTID":591186},"geometry":{"x":173908.96999999881,"y":2544579.6500000041}},{"attributes":{"ID":591214,"DIS_CODE":0,"TOWNNAME":"永康區","LI":"\u25A0行里","LIN":"26鄰","STREET":"中正南路","SECT":" ","MAREA":" ","LANE":" ","ALLEY":" ","HOUSE_NO":"４９２號","E_COORD97":171270.42000000001,"N_COORD97":2548515.7799999998,"ADDRESS":"中正南路４９２號","OBJECTID":591187},"geometry":{"x":171270.42000000086,"y":2548515.7799999993}},{"attributes":{"ID":591215,"DIS_CODE":0,"TOWNNAME":"永康區","LI":"埔園里","LIN":"32鄰","STREET":"龍埔街","SECT":" ","MAREA":" ","LANE":" ","ALLEY":" ","HOUSE_NO":"４１０號","E_COORD97":174006.95000000001,"N_COORD97":2548329.0800000001,"ADDRESS":"龍埔街４１０號","OBJECTID":591188},"geometry":{"x":174006.95000000112,"y":2548329.0800000001}},{"attributes":{"ID":591216,"DIS_CODE":0,"TOWNNAME":"永康區","LI":"崑山里","LIN":"40鄰","STREET":"國光五街","SECT":" ","MAREA":" ","LANE":" ","ALLEY":" ","HOUSE_NO":"１號","E_COORD97":174230.62,"N_COORD97":2545035.7400000002,"ADDRESS":"國光五街１號","OBJECTID":591189},"geometry":{"x":174230.62000000197,"y":2545035.7400000002}},{"attributes":{"ID":591217,"DIS_CODE":0,"TOWNNAME":"永康區","LI":"埔園里","LIN":"15鄰","STREET":"龍埔街","SECT":" ","MAREA":" ","LANE":" ","ALLEY":" ","HOUSE_NO":"５１７號","E_COORD97":173347.82000000001,"N_COORD97":2548383,"ADDRESS":"龍埔街５１７號","OBJECTID":591190},"geometry":{"x":173347.82000000216,"y":2548383}},{"attributes":{"ID":591218,"DIS_CODE":0,"TOWNNAME":"安南區","LI":"溪心里","LIN":"11鄰","STREET":"功安三街","SECT":" ","MAREA":" ","LANE":" ","ALLEY":" ","HOUSE_NO":"２３號","E_COORD97":166240.10999999999,"N_COORD97":2549994.0800000001,"ADDRESS":"功安三街２３號","OBJECTID":591191},"geometry":{"x":166240.11000000127,"y":2549994.0799999982}},{"attributes":{"ID":591219,"DIS_CODE":0,"TOWNNAME":"永康區","LI":"尚頂里","LIN":"11鄰","STREET":"正南一街","SECT":" ","MAREA":" ","LANE":" ","ALLEY":" ","HOUSE_NO":"４３號","E_COORD97":171174.19,"N_COORD97":2547322.52,"ADDRESS":"正南一街４３號","OBJECTID":591192},"geometry":{"x":171174.19000000134,"y":2547322.5200000033}},{"attributes":{"ID":591220,"DIS_CODE":0,"TOWNNAME":"永康區","LI":"尚頂里","LIN":"11鄰","STREET":"正南一街","SECT":" ","MAREA":" ","LANE":" ","ALLEY":" ","HOUSE_NO":"３３號","E_COORD97":171210.59,"N_COORD97":2547341.1600000001,"ADDRESS":"正南一街３３號","OBJECTID":591193},"geometry":{"x":171210.58999999985,"y":2547341.1600000001}},{"attributes":{"ID":591221,"DIS_CODE":0,"TOWNNAME":"永康區","LI":"尚頂里","LIN":"11鄰","STREET":"正南一街","SECT":" ","MAREA":" ","LANE":" ","ALLEY":" ","HOUSE_NO":"３９號","E_COORD97":171187.73999999999,"N_COORD97":2547327.8700000001,"ADDRESS":"正南一街３９號","OBJECTID":591194},"geometry":{"x":171187.74000000115,"y":2547327.870000001}},{"attributes":{"ID":591222,"DIS_CODE":0,"TOWNNAME":"永康區","LI":"勝利里","LIN":"18鄰","STREET":"勝學路","SECT":" ","MAREA":" ","LANE":" ","ALLEY":" ","HOUSE_NO":"１５９號","E_COORD97":171165.57999999999,"N_COORD97":2545054.5,"ADDRESS":"勝學路１５９號","OBJECTID":591195},"geometry":{"x":171165.58000000007,"y":2545054.5}},{"attributes":{"ID":591223,"DIS_CODE":0,"TOWNNAME":"永康區","LI":"勝利里","LIN":"6鄰","STREET":"勝學路","SECT":" ","MAREA":" ","LANE":" ","ALLEY":" ","HOUSE_NO":"３１號","E_COORD97":171138.10000000001,"N_COORD97":2544644.7599999998,"ADDRESS":"勝學路３１號","OBJECTID":591196},"geometry":{"x":171138.10000000149,"y":2544644.7599999998}},{"attributes":{"ID":591224,"DIS_CODE":0,"TOWNNAME":"永康區","LI":"崑山里","LIN":"19鄰","STREET":"大灣路","SECT":" ","MAREA":" ","LANE":" ","ALLEY":" ","HOUSE_NO":"８２６號之３","E_COORD97":173944.92000000001,"N_COORD97":2544520.1699999999,"ADDRESS":"大灣路８２６號之３","OBJECTID":591197},"geometry":{"x":173944.91999999993,"y":2544520.1699999999}},{"attributes":{"ID":591225,"DIS_CODE":0,"TOWNNAME":"安南區","LI":"新順里","LIN":"11鄰","STREET":"育安四街","SECT":" ","MAREA":" ","LANE":" ","ALLEY":" ","HOUSE_NO":"８０號","E_COORD97":169734.73000000001,"N_COORD97":2549658.4300000002,"ADDRESS":"育安四街８０號","OBJECTID":591198},"geometry":{"x":169734.73000000138,"y":2549658.4299999997}},{"attributes":{"ID":591226,"DIS_CODE":0,"TOWNNAME":"永康區","LI":"北灣里","LIN":"11鄰","STREET":"信義二街","SECT":" ","MAREA":" ","LANE":" ","ALLEY":" ","HOUSE_NO":"８１號","E_COORD97":174961.64999999999,"N_COORD97":2545705.4199999999,"ADDRESS":"信義二街８１號","OBJECTID":591199},"geometry":{"x":174961.6500000013,"y":2545705.4199999999}},{"attributes":{"ID":591227,"DIS_CODE":0,"TOWNNAME":"永康區","LI":"正強里","LIN":"11鄰","STREET":"正強街","SECT":" ","MAREA":" ","LANE":" ","ALLEY":" ","HOUSE_NO":"１３２號","E_COORD97":173345.07000000001,"N_COORD97":2547438.4100000001,"ADDRESS":"正強街１３２號","OBJECTID":591200},"geometry":{"x":173345.07000000123,"y":2547438.4100000001}}]}