{"displayFieldName":"TOWNNAME","fieldAliases":{"ID":"ID","DIS_CODE":"DIS_CODE","TOWNNAME":"TOWNNAME","LI":"LI","LIN":"LIN","STREET":"STREET","SECT":"SECT","MAREA":"MAREA","LANE":"LANE","ALLEY":"ALLEY","HOUSE_NO":"HOUSE_NO","E_COORD97":"E_COORD97","N_COORD97":"N_COORD97","ADDRESS":"ADDRESS","OBJECTID":"OBJECTID"},"geometryType":"esriGeometryPoint","spatialReference":{"wkid":102443,"latestWkid":3826},"fields":[{"name":"ID","type":"esriFieldTypeDouble","alias":"ID"},{"name":"DIS_CODE","type":"esriFieldTypeInteger","alias":"DIS_CODE"},{"name":"TOWNNAME","type":"esriFieldTypeString","alias":"TOWNNAME","length":8},{"name":"LI","type":"esriFieldTypeString","alias":"LI","length":8},{"name":"LIN","type":"esriFieldTypeString","alias":"LIN","length":12},{"name":"STREET","type":"esriFieldTypeString","alias":"STREET","length":20},{"name":"SECT","type":"esriFieldTypeString","alias":"SECT","length":8},{"name":"MAREA","type":"esriFieldTypeString","alias":"MAREA","length":12},{"name":"LANE","type":"esriFieldTypeString","alias":"LANE","length":10},{"name":"ALLEY","type":"esriFieldTypeString","alias":"ALLEY","length":10},{"name":"HOUSE_NO","type":"esriFieldTypeString","alias":"HOUSE_NO","length":20},{"name":"E_COORD97","type":"esriFieldTypeDouble","alias":"E_COORD97"},{"name":"N_COORD97","type":"esriFieldTypeDouble","alias":"N_COORD97"},{"name":"ADDRESS","type":"esriFieldTypeString","alias":"ADDRESS","length":50},{"name":"OBJECTID","type":"esriFieldTypeOID","alias":"OBJECTID"}],"features":[{"attributes":{"ID":534828,"DIS_CODE":0,"TOWNNAME":"安南區","LI":"溪北里","LIN":"19鄰","STREET":"郡安路","SECT":"四段","MAREA":" ","LANE":" ","ALLEY":" ","HOUSE_NO":"７６號之３四樓","E_COORD97":169069.57000000001,"N_COORD97":2547566.5600000001,"ADDRESS":"郡安路四段７６號之３四樓","OBJECTID":534801},"geometry":{"x":169069.57000000123,"y":2547566.5600000005}},{"attributes":{"ID":534829,"DIS_CODE":0,"TOWNNAME":"安南區","LI":"溪北里","LIN":"19鄰","STREET":"郡安路","SECT":"四段","MAREA":" ","LANE":" ","ALLEY":" ","HOUSE_NO":"７６號之４七樓","E_COORD97":169069.14999999999,"N_COORD97":2547575.2200000002,"ADDRESS":"郡安路四段７６號之４七樓","OBJECTID":534802},"geometry":{"x":169069.1500000013,"y":2547575.2200000007}},{"attributes":{"ID":534830,"DIS_CODE":0,"TOWNNAME":"安南區","LI":"溪北里","LIN":"19鄰","STREET":"郡安路","SECT":"四段","MAREA":" ","LANE":" ","ALLEY":" ","HOUSE_NO":"７６號之６十樓","E_COORD97":169072.76999999999,"N_COORD97":2547587.3399999999,"ADDRESS":"郡安路四段７６號之６十樓","OBJECTID":534803},"geometry":{"x":169072.77000000048,"y":2547587.3399999999}},{"attributes":{"ID":534831,"DIS_CODE":0,"TOWNNAME":"安南區","LI":"溪北里","LIN":"19鄰","STREET":"郡安路","SECT":"四段","MAREA":" ","LANE":" ","ALLEY":" ","HOUSE_NO":"７６號之６三樓","E_COORD97":169072.76999999999,"N_COORD97":2547587.3399999999,"ADDRESS":"郡安路四段７６號之６三樓","OBJECTID":534804},"geometry":{"x":169072.77000000048,"y":2547587.3399999999}},{"attributes":{"ID":534832,"DIS_CODE":0,"TOWNNAME":"安南區","LI":"溪北里","LIN":"19鄰","STREET":"郡安路","SECT":"四段","MAREA":" ","LANE":" ","ALLEY":" ","HOUSE_NO":"７６號之６六樓","E_COORD97":169072.76999999999,"N_COORD97":2547587.3399999999,"ADDRESS":"郡安路四段７６號之６六樓","OBJECTID":534805},"geometry":{"x":169072.77000000048,"y":2547587.3399999999}},{"attributes":{"ID":534833,"DIS_CODE":0,"TOWNNAME":"安南區","LI":"溪北里","LIN":"19鄰","STREET":"郡安路","SECT":"四段","MAREA":" ","LANE":" ","ALLEY":" ","HOUSE_NO":"７６號之６四樓","E_COORD97":169072.76999999999,"N_COORD97":2547587.3399999999,"ADDRESS":"郡安路四段７６號之６四樓","OBJECTID":534806},"geometry":{"x":169072.77000000048,"y":2547587.3399999999}},{"attributes":{"ID":534834,"DIS_CODE":0,"TOWNNAME":"東區","LI":"東聖里","LIN":"19鄰","STREET":"中華東路","SECT":"二段","MAREA":" ","LANE":" ","ALLEY":" ","HOUSE_NO":"１２３號三樓之１","E_COORD97":171398.28,"N_COORD97":2542886.0299999998,"ADDRESS":"中華東路二段１２３號三樓之１","OBJECTID":534807},"geometry":{"x":171398.28000000026,"y":2542886.0299999993}},{"attributes":{"ID":534835,"DIS_CODE":0,"TOWNNAME":"東區","LI":"東聖里","LIN":"19鄰","STREET":"中華東路","SECT":"二段","MAREA":" ","LANE":" ","ALLEY":" ","HOUSE_NO":"１２３號三樓之２","E_COORD97":171398.28,"N_COORD97":2542886.0299999998,"ADDRESS":"中華東路二段１２３號三樓之２","OBJECTID":534808},"geometry":{"x":171398.28000000026,"y":2542886.0299999993}},{"attributes":{"ID":534836,"DIS_CODE":0,"TOWNNAME":"東區","LI":"東聖里","LIN":"19鄰","STREET":"中華東路","SECT":"二段","MAREA":" ","LANE":" ","ALLEY":" ","HOUSE_NO":"１２３號三樓之４","E_COORD97":171398.28,"N_COORD97":2542886.0299999998,"ADDRESS":"中華東路二段１２３號三樓之４","OBJECTID":534809},"geometry":{"x":171398.28000000026,"y":2542886.0299999993}},{"attributes":{"ID":534837,"DIS_CODE":0,"TOWNNAME":"東區","LI":"東聖里","LIN":"19鄰","STREET":"中華東路","SECT":"二段","MAREA":" ","LANE":" ","ALLEY":" ","HOUSE_NO":"１２３號五樓之２","E_COORD97":171398.28,"N_COORD97":2542886.0299999998,"ADDRESS":"中華東路二段１２３號五樓之２","OBJECTID":534810},"geometry":{"x":171398.28000000026,"y":2542886.0299999993}},{"attributes":{"ID":534838,"DIS_CODE":0,"TOWNNAME":"東區","LI":"東聖里","LIN":"19鄰","STREET":"中華東路","SECT":"二段","MAREA":" ","LANE":" ","ALLEY":" ","HOUSE_NO":"１２３號五樓之３","E_COORD97":171398.28,"N_COORD97":2542886.0299999998,"ADDRESS":"中華東路二段１２３號五樓之３","OBJECTID":534811},"geometry":{"x":171398.28000000026,"y":2542886.0299999993}},{"attributes":{"ID":534839,"DIS_CODE":0,"TOWNNAME":"下營區","LI":"後街里","LIN":"19鄰","STREET":"水池街","SECT":" ","MAREA":" ","LANE":" ","ALLEY":" ","HOUSE_NO":"１３８號","E_COORD97":174482.48000000001,"N_COORD97":2571123.3100000001,"ADDRESS":"水池街１３８號","OBJECTID":534812},"geometry":{"x":174482.48000000045,"y":2571123.3100000024}},{"attributes":{"ID":534840,"DIS_CODE":0,"TOWNNAME":"東區","LI":"東聖里","LIN":"19鄰","STREET":"中華東路","SECT":"二段","MAREA":" ","LANE":" ","ALLEY":" ","HOUSE_NO":"１２３號五樓之４","E_COORD97":171398.28,"N_COORD97":2542886.0299999998,"ADDRESS":"中華東路二段１２３號五樓之４","OBJECTID":534813},"geometry":{"x":171398.28000000026,"y":2542886.0299999993}},{"attributes":{"ID":534841,"DIS_CODE":0,"TOWNNAME":"東區","LI":"東聖里","LIN":"19鄰","STREET":"中華東路","SECT":"二段","MAREA":" ","LANE":" ","ALLEY":" ","HOUSE_NO":"１２３號六樓之１","E_COORD97":171398.28,"N_COORD97":2542886.0299999998,"ADDRESS":"中華東路二段１２３號六樓之１","OBJECTID":534814},"geometry":{"x":171398.28000000026,"y":2542886.0299999993}},{"attributes":{"ID":534842,"DIS_CODE":0,"TOWNNAME":"東區","LI":"東聖里","LIN":"19鄰","STREET":"中華東路","SECT":"二段","MAREA":" ","LANE":" ","ALLEY":" ","HOUSE_NO":"１２３號六樓之３","E_COORD97":171398.28,"N_COORD97":2542886.0299999998,"ADDRESS":"中華東路二段１２３號六樓之３","OBJECTID":534815},"geometry":{"x":171398.28000000026,"y":2542886.0299999993}},{"attributes":{"ID":534843,"DIS_CODE":0,"TOWNNAME":"東區","LI":"東聖里","LIN":"19鄰","STREET":"中華東路","SECT":"二段","MAREA":" ","LANE":" ","ALLEY":" ","HOUSE_NO":"１２３號六樓之４","E_COORD97":171398.28,"N_COORD97":2542886.0299999998,"ADDRESS":"中華東路二段１２３號六樓之４","OBJECTID":534816},"geometry":{"x":171398.28000000026,"y":2542886.0299999993}},{"attributes":{"ID":534844,"DIS_CODE":0,"TOWNNAME":"東區","LI":"東聖里","LIN":"19鄰","STREET":"中華東路","SECT":"二段","MAREA":" ","LANE":" ","ALLEY":" ","HOUSE_NO":"１２３號六樓之６","E_COORD97":171398.28,"N_COORD97":2542886.0299999998,"ADDRESS":"中華東路二段１２３號六樓之６","OBJECTID":534817},"geometry":{"x":171398.28000000026,"y":2542886.0299999993}},{"attributes":{"ID":534845,"DIS_CODE":0,"TOWNNAME":"東區","LI":"東聖里","LIN":"19鄰","STREET":"中華東路","SECT":"二段","MAREA":" ","LANE":" ","ALLEY":" ","HOUSE_NO":"１２３號六樓之７","E_COORD97":171398.28,"N_COORD97":2542886.0299999998,"ADDRESS":"中華東路二段１２３號六樓之７","OBJECTID":534818},"geometry":{"x":171398.28000000026,"y":2542886.0299999993}},{"attributes":{"ID":534846,"DIS_CODE":0,"TOWNNAME":"東區","LI":"東聖里","LIN":"19鄰","STREET":"中華東路","SECT":"二段","MAREA":" ","LANE":" ","ALLEY":" ","HOUSE_NO":"１２３號四樓之１","E_COORD97":171398.28,"N_COORD97":2542886.0299999998,"ADDRESS":"中華東路二段１２３號四樓之１","OBJECTID":534819},"geometry":{"x":171398.28000000026,"y":2542886.0299999993}},{"attributes":{"ID":534847,"DIS_CODE":0,"TOWNNAME":"東區","LI":"東聖里","LIN":"19鄰","STREET":"中華東路","SECT":"二段","MAREA":" ","LANE":" ","ALLEY":" ","HOUSE_NO":"１２３號四樓之４","E_COORD97":171398.28,"N_COORD97":2542886.0299999998,"ADDRESS":"中華東路二段１２３號四樓之４","OBJECTID":534820},"geometry":{"x":171398.28000000026,"y":2542886.0299999993}},{"attributes":{"ID":534848,"DIS_CODE":0,"TOWNNAME":"東區","LI":"東聖里","LIN":"19鄰","STREET":"中華東路","SECT":"二段","MAREA":" ","LANE":" ","ALLEY":" ","HOUSE_NO":"１２３號四樓之５","E_COORD97":171398.28,"N_COORD97":2542886.0299999998,"ADDRESS":"中華東路二段１２３號四樓之５","OBJECTID":534821},"geometry":{"x":171398.28000000026,"y":2542886.0299999993}},{"attributes":{"ID":534849,"DIS_CODE":0,"TOWNNAME":"東區","LI":"東聖里","LIN":"19鄰","STREET":"中華東路","SECT":"二段","MAREA":" ","LANE":" ","ALLEY":" ","HOUSE_NO":"１２３號四樓之６","E_COORD97":171398.28,"N_COORD97":2542886.0299999998,"ADDRESS":"中華東路二段１２３號四樓之６","OBJECTID":534822},"geometry":{"x":171398.28000000026,"y":2542886.0299999993}},{"attributes":{"ID":534850,"DIS_CODE":0,"TOWNNAME":"東區","LI":"東聖里","LIN":"19鄰","STREET":"中華東路","SECT":"二段","MAREA":" ","LANE":" ","ALLEY":" ","HOUSE_NO":"１２３號六樓之２","E_COORD97":171398.28,"N_COORD97":2542886.0299999998,"ADDRESS":"中華東路二段１２３號六樓之２","OBJECTID":534823},"geometry":{"x":171398.28000000026,"y":2542886.0299999993}},{"attributes":{"ID":534851,"DIS_CODE":0,"TOWNNAME":"東區","LI":"東聖里","LIN":"19鄰","STREET":"中華東路","SECT":"二段","MAREA":" ","LANE":" ","ALLEY":" ","HOUSE_NO":"１２３號二樓之１","E_COORD97":171398.28,"N_COORD97":2542886.0299999998,"ADDRESS":"中華東路二段１２３號二樓之１","OBJECTID":534824},"geometry":{"x":171398.28000000026,"y":2542886.0299999993}},{"attributes":{"ID":534852,"DIS_CODE":0,"TOWNNAME":"東區","LI":"東聖里","LIN":"19鄰","STREET":"中華東路","SECT":"二段","MAREA":" ","LANE":" ","ALLEY":" ","HOUSE_NO":"１２３號三樓之３","E_COORD97":171398.28,"N_COORD97":2542886.0299999998,"ADDRESS":"中華東路二段１２３號三樓之３","OBJECTID":534825},"geometry":{"x":171398.28000000026,"y":2542886.0299999993}},{"attributes":{"ID":534853,"DIS_CODE":0,"TOWNNAME":"東區","LI":"東聖里","LIN":"19鄰","STREET":"中華東路","SECT":"二段","MAREA":" ","LANE":" ","ALLEY":" ","HOUSE_NO":"１２３號四樓之２","E_COORD97":171398.28,"N_COORD97":2542886.0299999998,"ADDRESS":"中華東路二段１２３號四樓之２","OBJECTID":534826},"geometry":{"x":171398.28000000026,"y":2542886.0299999993}},{"attributes":{"ID":534854,"DIS_CODE":0,"TOWNNAME":"東區","LI":"東聖里","LIN":"19鄰","STREET":"中華東路","SECT":"二段","MAREA":" ","LANE":" ","ALLEY":" ","HOUSE_NO":"１２３號四樓之３","E_COORD97":171398.28,"N_COORD97":2542886.0299999998,"ADDRESS":"中華東路二段１２３號四樓之３","OBJECTID":534827},"geometry":{"x":171398.28000000026,"y":2542886.0299999993}},{"attributes":{"ID":534855,"DIS_CODE":0,"TOWNNAME":"東區","LI":"東聖里","LIN":"19鄰","STREET":"中華東路","SECT":"二段","MAREA":" ","LANE":" ","ALLEY":" ","HOUSE_NO":"１２３號五樓之１","E_COORD97":171398.28,"N_COORD97":2542886.0299999998,"ADDRESS":"中華東路二段１２３號五樓之１","OBJECTID":534828},"geometry":{"x":171398.28000000026,"y":2542886.0299999993}},{"attributes":{"ID":534856,"DIS_CODE":0,"TOWNNAME":"東區","LI":"東聖里","LIN":"19鄰","STREET":"中華東路","SECT":"二段","MAREA":" ","LANE":" ","ALLEY":" ","HOUSE_NO":"１２３號五樓之５","E_COORD97":171398.28,"N_COORD97":2542886.0299999998,"ADDRESS":"中華東路二段１２３號五樓之５","OBJECTID":534829},"geometry":{"x":171398.28000000026,"y":2542886.0299999993}},{"attributes":{"ID":534857,"DIS_CODE":0,"TOWNNAME":"東區","LI":"東聖里","LIN":"19鄰","STREET":"中華東路","SECT":"二段","MAREA":" ","LANE":" ","ALLEY":" ","HOUSE_NO":"１２３號五樓之６","E_COORD97":171398.28,"N_COORD97":2542886.0299999998,"ADDRESS":"中華東路二段１２３號五樓之６","OBJECTID":534830},"geometry":{"x":171398.28000000026,"y":2542886.0299999993}},{"attributes":{"ID":534858,"DIS_CODE":0,"TOWNNAME":"東區","LI":"東聖里","LIN":"19鄰","STREET":"中華東路","SECT":"二段","MAREA":" ","LANE":" ","ALLEY":" ","HOUSE_NO":"１２３號五樓之７","E_COORD97":171398.28,"N_COORD97":2542886.0299999998,"ADDRESS":"中華東路二段１２３號五樓之７","OBJECTID":534831},"geometry":{"x":171398.28000000026,"y":2542886.0299999993}},{"attributes":{"ID":534859,"DIS_CODE":0,"TOWNNAME":"東區","LI":"東聖里","LIN":"19鄰","STREET":"中華東路","SECT":"二段","MAREA":" ","LANE":" ","ALLEY":" ","HOUSE_NO":"１２３號六樓之５","E_COORD97":171398.28,"N_COORD97":2542886.0299999998,"ADDRESS":"中華東路二段１２３號六樓之５","OBJECTID":534832},"geometry":{"x":171398.28000000026,"y":2542886.0299999993}},{"attributes":{"ID":534860,"DIS_CODE":0,"TOWNNAME":"東區","LI":"東聖里","LIN":"19鄰","STREET":"中華東路","SECT":"二段","MAREA":" ","LANE":" ","ALLEY":" ","HOUSE_NO":"１２３號七樓之１","E_COORD97":171398.28,"N_COORD97":2542886.0299999998,"ADDRESS":"中華東路二段１２３號七樓之１","OBJECTID":534833},"geometry":{"x":171398.28000000026,"y":2542886.0299999993}},{"attributes":{"ID":534861,"DIS_CODE":0,"TOWNNAME":"東區","LI":"東聖里","LIN":"19鄰","STREET":"中華東路","SECT":"二段","MAREA":" ","LANE":" ","ALLEY":" ","HOUSE_NO":"１２３號七樓之３","E_COORD97":171398.28,"N_COORD97":2542886.0299999998,"ADDRESS":"中華東路二段１２３號七樓之３","OBJECTID":534834},"geometry":{"x":171398.28000000026,"y":2542886.0299999993}},{"attributes":{"ID":534862,"DIS_CODE":0,"TOWNNAME":"東區","LI":"東聖里","LIN":"19鄰","STREET":"中華東路","SECT":"二段","MAREA":" ","LANE":" ","ALLEY":" ","HOUSE_NO":"１２３號七樓之４","E_COORD97":171398.28,"N_COORD97":2542886.0299999998,"ADDRESS":"中華東路二段１２３號七樓之４","OBJECTID":534835},"geometry":{"x":171398.28000000026,"y":2542886.0299999993}},{"attributes":{"ID":534863,"DIS_CODE":0,"TOWNNAME":"永康區","LI":"五王里","LIN":"19鄰","STREET":"成功路","SECT":" ","MAREA":" ","LANE":" ","ALLEY":" ","HOUSE_NO":"１７６號五樓之１１","E_COORD97":171438.17999999999,"N_COORD97":2545636.9100000001,"ADDRESS":"成功路１７６號五樓之１１","OBJECTID":534836},"geometry":{"x":171438.18000000063,"y":2545636.910000002}},{"attributes":{"ID":534864,"DIS_CODE":0,"TOWNNAME":"永康區","LI":"五王里","LIN":"19鄰","STREET":"成功路","SECT":" ","MAREA":" ","LANE":" ","ALLEY":" ","HOUSE_NO":"１７６號五樓之３","E_COORD97":171437.01999999999,"N_COORD97":2545636.9100000001,"ADDRESS":"成功路１７６號五樓之３","OBJECTID":534837},"geometry":{"x":171437.02000000142,"y":2545636.910000002}},{"attributes":{"ID":534865,"DIS_CODE":0,"TOWNNAME":"永康區","LI":"五王里","LIN":"19鄰","STREET":"成功路","SECT":" ","MAREA":" ","LANE":" ","ALLEY":" ","HOUSE_NO":"１７６號三樓之３","E_COORD97":171437.01999999999,"N_COORD97":2545636.9100000001,"ADDRESS":"成功路１７６號三樓之３","OBJECTID":534838},"geometry":{"x":171437.02000000142,"y":2545636.910000002}},{"attributes":{"ID":534866,"DIS_CODE":0,"TOWNNAME":"永康區","LI":"五王里","LIN":"19鄰","STREET":"成功路","SECT":" ","MAREA":" ","LANE":" ","ALLEY":" ","HOUSE_NO":"１７６號六樓之１２","E_COORD97":171438.31,"N_COORD97":2545636.9100000001,"ADDRESS":"成功路１７６號六樓之１２","OBJECTID":534839},"geometry":{"x":171438.30999999866,"y":2545636.910000002}},{"attributes":{"ID":534867,"DIS_CODE":0,"TOWNNAME":"永康區","LI":"五王里","LIN":"19鄰","STREET":"成功路","SECT":" ","MAREA":" ","LANE":" ","ALLEY":" ","HOUSE_NO":"１７６號六樓之１１","E_COORD97":171438.17999999999,"N_COORD97":2545636.9100000001,"ADDRESS":"成功路１７６號六樓之１１","OBJECTID":534840},"geometry":{"x":171438.18000000063,"y":2545636.910000002}},{"attributes":{"ID":534868,"DIS_CODE":0,"TOWNNAME":"永康區","LI":"五王里","LIN":"19鄰","STREET":"成功路","SECT":" ","MAREA":" ","LANE":" ","ALLEY":" ","HOUSE_NO":"１７６號四樓之７","E_COORD97":171437,"N_COORD97":2545636.9100000001,"ADDRESS":"成功路１７６號四樓之７","OBJECTID":534841},"geometry":{"x":171437,"y":2545636.910000002}},{"attributes":{"ID":534869,"DIS_CODE":0,"TOWNNAME":"永康區","LI":"五王里","LIN":"19鄰","STREET":"成功路","SECT":" ","MAREA":" ","LANE":" ","ALLEY":" ","HOUSE_NO":"１７６號六樓之３","E_COORD97":171437.01999999999,"N_COORD97":2545636.9100000001,"ADDRESS":"成功路１７６號六樓之３","OBJECTID":534842},"geometry":{"x":171437.02000000142,"y":2545636.910000002}},{"attributes":{"ID":534870,"DIS_CODE":0,"TOWNNAME":"永康區","LI":"五王里","LIN":"19鄰","STREET":"成功路","SECT":" ","MAREA":" ","LANE":" ","ALLEY":" ","HOUSE_NO":"１７６號五樓之４","E_COORD97":171436.95000000001,"N_COORD97":2545636.9100000001,"ADDRESS":"成功路１７６號五樓之４","OBJECTID":534843},"geometry":{"x":171436.95000000112,"y":2545636.910000002}},{"attributes":{"ID":534871,"DIS_CODE":0,"TOWNNAME":"永康區","LI":"五王里","LIN":"19鄰","STREET":"成功路","SECT":" ","MAREA":" ","LANE":" ","ALLEY":" ","HOUSE_NO":"１７６號五樓之６","E_COORD97":171437.03,"N_COORD97":2545636.9100000001,"ADDRESS":"成功路１７６號五樓之６","OBJECTID":534844},"geometry":{"x":171437.03000000026,"y":2545636.910000002}},{"attributes":{"ID":534872,"DIS_CODE":0,"TOWNNAME":"永康區","LI":"五王里","LIN":"19鄰","STREET":"成功路","SECT":" ","MAREA":" ","LANE":" ","ALLEY":" ","HOUSE_NO":"１７６號五樓之１","E_COORD97":171436.92999999999,"N_COORD97":2545636.9100000001,"ADDRESS":"成功路１７６號五樓之１","OBJECTID":534845},"geometry":{"x":171436.9299999997,"y":2545636.910000002}},{"attributes":{"ID":534873,"DIS_CODE":0,"TOWNNAME":"永康區","LI":"五王里","LIN":"19鄰","STREET":"成功路","SECT":" ","MAREA":" ","LANE":" ","ALLEY":" ","HOUSE_NO":"１７６號四樓之１４","E_COORD97":171438.20000000001,"N_COORD97":2545636.9100000001,"ADDRESS":"成功路１７６號四樓之１４","OBJECTID":534846},"geometry":{"x":171438.20000000205,"y":2545636.910000002}},{"attributes":{"ID":534874,"DIS_CODE":0,"TOWNNAME":"永康區","LI":"五王里","LIN":"19鄰","STREET":"成功路","SECT":" ","MAREA":" ","LANE":" ","ALLEY":" ","HOUSE_NO":"１７６號六樓之８","E_COORD97":171437.07000000001,"N_COORD97":2545636.9100000001,"ADDRESS":"成功路１７６號六樓之８","OBJECTID":534847},"geometry":{"x":171437.0700000003,"y":2545636.910000002}},{"attributes":{"ID":534875,"DIS_CODE":0,"TOWNNAME":"永康區","LI":"五王里","LIN":"19鄰","STREET":"成功路","SECT":" ","MAREA":" ","LANE":" ","ALLEY":" ","HOUSE_NO":"１７６號四樓之１７","E_COORD97":171438.25,"N_COORD97":2545636.9100000001,"ADDRESS":"成功路１７６號四樓之１７","OBJECTID":534848},"geometry":{"x":171438.25000000093,"y":2545636.910000002}},{"attributes":{"ID":534876,"DIS_CODE":0,"TOWNNAME":"永康區","LI":"五王里","LIN":"19鄰","STREET":"成功路","SECT":" ","MAREA":" ","LANE":" ","ALLEY":" ","HOUSE_NO":"１７６號六樓之７","E_COORD97":171437,"N_COORD97":2545636.9100000001,"ADDRESS":"成功路１７６號六樓之７","OBJECTID":534849},"geometry":{"x":171437,"y":2545636.910000002}},{"attributes":{"ID":534877,"DIS_CODE":0,"TOWNNAME":"永康區","LI":"五王里","LIN":"19鄰","STREET":"成功路","SECT":" ","MAREA":" ","LANE":" ","ALLEY":" ","HOUSE_NO":"１７６號六樓之１３","E_COORD97":171438.26999999999,"N_COORD97":2545636.9100000001,"ADDRESS":"成功路１７６號六樓之１３","OBJECTID":534850},"geometry":{"x":171438.26999999955,"y":2545636.910000002}},{"attributes":{"ID":534878,"DIS_CODE":0,"TOWNNAME":"永康區","LI":"五王里","LIN":"19鄰","STREET":"成功路","SECT":" ","MAREA":" ","LANE":" ","ALLEY":" ","HOUSE_NO":"１７６號七樓之１","E_COORD97":171436.92999999999,"N_COORD97":2545636.9100000001,"ADDRESS":"成功路１７６號七樓之１","OBJECTID":534851},"geometry":{"x":171436.9299999997,"y":2545636.910000002}},{"attributes":{"ID":534879,"DIS_CODE":0,"TOWNNAME":"永康區","LI":"五王里","LIN":"19鄰","STREET":"成功路","SECT":" ","MAREA":" ","LANE":" ","ALLEY":" ","HOUSE_NO":"１７６號五樓之８","E_COORD97":171437.07000000001,"N_COORD97":2545636.9100000001,"ADDRESS":"成功路１７６號五樓之８","OBJECTID":534852},"geometry":{"x":171437.0700000003,"y":2545636.910000002}},{"attributes":{"ID":534880,"DIS_CODE":0,"TOWNNAME":"永康區","LI":"五王里","LIN":"19鄰","STREET":"成功路","SECT":" ","MAREA":" ","LANE":" ","ALLEY":" ","HOUSE_NO":"１７６號五樓之１６","E_COORD97":171438.28,"N_COORD97":2545636.9100000001,"ADDRESS":"成功路１７６號五樓之１６","OBJECTID":534853},"geometry":{"x":171438.28000000119,"y":2545636.910000002}},{"attributes":{"ID":534881,"DIS_CODE":0,"TOWNNAME":"永康區","LI":"五王里","LIN":"19鄰","STREET":"成功路","SECT":" ","MAREA":" ","LANE":" ","ALLEY":" ","HOUSE_NO":"１７６號六樓之１","E_COORD97":171436.92999999999,"N_COORD97":2545636.9100000001,"ADDRESS":"成功路１７６號六樓之１","OBJECTID":534854},"geometry":{"x":171436.9299999997,"y":2545636.910000002}},{"attributes":{"ID":534882,"DIS_CODE":0,"TOWNNAME":"永康區","LI":"五王里","LIN":"19鄰","STREET":"成功路","SECT":" ","MAREA":" ","LANE":" ","ALLEY":" ","HOUSE_NO":"１７６號七樓之１０","E_COORD97":171438.23000000001,"N_COORD97":2545636.9100000001,"ADDRESS":"成功路１７６號七樓之１０","OBJECTID":534855},"geometry":{"x":171438.23000000231,"y":2545636.910000002}},{"attributes":{"ID":534883,"DIS_CODE":0,"TOWNNAME":"永康區","LI":"五王里","LIN":"19鄰","STREET":"成功路","SECT":" ","MAREA":" ","LANE":" ","ALLEY":" ","HOUSE_NO":"１７６號六樓之１０","E_COORD97":171438.23000000001,"N_COORD97":2545636.9100000001,"ADDRESS":"成功路１７６號六樓之１０","OBJECTID":534856},"geometry":{"x":171438.23000000231,"y":2545636.910000002}},{"attributes":{"ID":534884,"DIS_CODE":0,"TOWNNAME":"永康區","LI":"五王里","LIN":"19鄰","STREET":"成功路","SECT":" ","MAREA":" ","LANE":" ","ALLEY":" ","HOUSE_NO":"１７６號二樓之３","E_COORD97":171437.01999999999,"N_COORD97":2545636.9100000001,"ADDRESS":"成功路１７６號二樓之３","OBJECTID":534857},"geometry":{"x":171437.02000000142,"y":2545636.910000002}},{"attributes":{"ID":534885,"DIS_CODE":0,"TOWNNAME":"永康區","LI":"五王里","LIN":"19鄰","STREET":"成功路","SECT":" ","MAREA":" ","LANE":" ","ALLEY":" ","HOUSE_NO":"１７６號七樓之８","E_COORD97":171437.07000000001,"N_COORD97":2545636.9100000001,"ADDRESS":"成功路１７６號七樓之８","OBJECTID":534858},"geometry":{"x":171437.0700000003,"y":2545636.910000002}},{"attributes":{"ID":534886,"DIS_CODE":0,"TOWNNAME":"永康區","LI":"五王里","LIN":"19鄰","STREET":"成功路","SECT":" ","MAREA":" ","LANE":" ","ALLEY":" ","HOUSE_NO":"１７６號七樓之１４","E_COORD97":171438.20000000001,"N_COORD97":2545636.9100000001,"ADDRESS":"成功路１７６號七樓之１４","OBJECTID":534859},"geometry":{"x":171438.20000000205,"y":2545636.910000002}},{"attributes":{"ID":534887,"DIS_CODE":0,"TOWNNAME":"永康區","LI":"五王里","LIN":"19鄰","STREET":"成功路","SECT":" ","MAREA":" ","LANE":" ","ALLEY":" ","HOUSE_NO":"１７６號四樓之１０","E_COORD97":171438.23000000001,"N_COORD97":2545636.9100000001,"ADDRESS":"成功路１７６號四樓之１０","OBJECTID":534860},"geometry":{"x":171438.23000000231,"y":2545636.910000002}},{"attributes":{"ID":534888,"DIS_CODE":0,"TOWNNAME":"永康區","LI":"五王里","LIN":"19鄰","STREET":"成功路","SECT":" ","MAREA":" ","LANE":" ","ALLEY":" ","HOUSE_NO":"１７６號六樓之５","E_COORD97":171437.07999999999,"N_COORD97":2545636.9100000001,"ADDRESS":"成功路１７６號六樓之５","OBJECTID":534861},"geometry":{"x":171437.08000000194,"y":2545636.910000002}},{"attributes":{"ID":534889,"DIS_CODE":0,"TOWNNAME":"永康區","LI":"五王里","LIN":"19鄰","STREET":"成功路","SECT":" ","MAREA":" ","LANE":" ","ALLEY":" ","HOUSE_NO":"１７６號七樓之１５","E_COORD97":171438.32999999999,"N_COORD97":2545636.9100000001,"ADDRESS":"成功路１７６號七樓之１５","OBJECTID":534862},"geometry":{"x":171438.33000000007,"y":2545636.910000002}},{"attributes":{"ID":534890,"DIS_CODE":0,"TOWNNAME":"永康區","LI":"五王里","LIN":"19鄰","STREET":"成功路","SECT":" ","MAREA":" ","LANE":" ","ALLEY":" ","HOUSE_NO":"１７６號四樓之５","E_COORD97":171437.07999999999,"N_COORD97":2545636.9100000001,"ADDRESS":"成功路１７６號四樓之５","OBJECTID":534863},"geometry":{"x":171437.08000000194,"y":2545636.910000002}},{"attributes":{"ID":534891,"DIS_CODE":0,"TOWNNAME":"永康區","LI":"五王里","LIN":"19鄰","STREET":"成功路","SECT":" ","MAREA":" ","LANE":" ","ALLEY":" ","HOUSE_NO":"１７６號五樓之１３","E_COORD97":171438.26999999999,"N_COORD97":2545636.9100000001,"ADDRESS":"成功路１７６號五樓之１３","OBJECTID":534864},"geometry":{"x":171438.26999999955,"y":2545636.910000002}},{"attributes":{"ID":534892,"DIS_CODE":0,"TOWNNAME":"永康區","LI":"五王里","LIN":"19鄰","STREET":"成功路","SECT":" ","MAREA":" ","LANE":" ","ALLEY":" ","HOUSE_NO":"１７６號四樓之１３","E_COORD97":171438.26999999999,"N_COORD97":2545636.9100000001,"ADDRESS":"成功路１７６號四樓之１３","OBJECTID":534865},"geometry":{"x":171438.26999999955,"y":2545636.910000002}},{"attributes":{"ID":534893,"DIS_CODE":0,"TOWNNAME":"永康區","LI":"五王里","LIN":"19鄰","STREET":"成功路","SECT":" ","MAREA":" ","LANE":" ","ALLEY":" ","HOUSE_NO":"１７６號五樓之７","E_COORD97":171437,"N_COORD97":2545636.9100000001,"ADDRESS":"成功路１７６號五樓之７","OBJECTID":534866},"geometry":{"x":171437,"y":2545636.910000002}},{"attributes":{"ID":534894,"DIS_CODE":0,"TOWNNAME":"永康區","LI":"五王里","LIN":"19鄰","STREET":"成功路","SECT":" ","MAREA":" ","LANE":" ","ALLEY":" ","HOUSE_NO":"１７６號四樓之２","E_COORD97":171437.06,"N_COORD97":2545636.9100000001,"ADDRESS":"成功路１７６號四樓之２","OBJECTID":534867},"geometry":{"x":171437.06000000052,"y":2545636.910000002}},{"attributes":{"ID":534895,"DIS_CODE":0,"TOWNNAME":"永康區","LI":"五王里","LIN":"19鄰","STREET":"成功路","SECT":" ","MAREA":" ","LANE":" ","ALLEY":" ","HOUSE_NO":"１７６號六樓之４","E_COORD97":171436.95000000001,"N_COORD97":2545636.9100000001,"ADDRESS":"成功路１７６號六樓之４","OBJECTID":534868},"geometry":{"x":171436.95000000112,"y":2545636.910000002}},{"attributes":{"ID":534896,"DIS_CODE":0,"TOWNNAME":"永康區","LI":"五王里","LIN":"19鄰","STREET":"成功路","SECT":" ","MAREA":" ","LANE":" ","ALLEY":" ","HOUSE_NO":"１７６號四樓之１５","E_COORD97":171438.32999999999,"N_COORD97":2545636.9100000001,"ADDRESS":"成功路１７６號四樓之１５","OBJECTID":534869},"geometry":{"x":171438.33000000007,"y":2545636.910000002}},{"attributes":{"ID":534897,"DIS_CODE":0,"TOWNNAME":"永康區","LI":"五王里","LIN":"19鄰","STREET":"成功路","SECT":" ","MAREA":" ","LANE":" ","ALLEY":" ","HOUSE_NO":"１７６號六樓之１７","E_COORD97":171438.25,"N_COORD97":2545636.9100000001,"ADDRESS":"成功路１７６號六樓之１７","OBJECTID":534870},"geometry":{"x":171438.25000000093,"y":2545636.910000002}},{"attributes":{"ID":534898,"DIS_CODE":0,"TOWNNAME":"永康區","LI":"五王里","LIN":"19鄰","STREET":"成功路","SECT":" ","MAREA":" ","LANE":" ","ALLEY":" ","HOUSE_NO":"１７６號五樓之２","E_COORD97":171437.06,"N_COORD97":2545636.9100000001,"ADDRESS":"成功路１７６號五樓之２","OBJECTID":534871},"geometry":{"x":171437.06000000052,"y":2545636.910000002}},{"attributes":{"ID":534899,"DIS_CODE":0,"TOWNNAME":"永康區","LI":"五王里","LIN":"19鄰","STREET":"成功路","SECT":" ","MAREA":" ","LANE":" ","ALLEY":" ","HOUSE_NO":"１７６號六樓之１４","E_COORD97":171438.20000000001,"N_COORD97":2545636.9100000001,"ADDRESS":"成功路１７６號六樓之１４","OBJECTID":534872},"geometry":{"x":171438.20000000205,"y":2545636.910000002}},{"attributes":{"ID":534900,"DIS_CODE":0,"TOWNNAME":"永康區","LI":"五王里","LIN":"19鄰","STREET":"成功路","SECT":" ","MAREA":" ","LANE":" ","ALLEY":" ","HOUSE_NO":"１７６號五樓之１０","E_COORD97":171438.23000000001,"N_COORD97":2545636.9100000001,"ADDRESS":"成功路１７６號五樓之１０","OBJECTID":534873},"geometry":{"x":171438.23000000231,"y":2545636.910000002}},{"attributes":{"ID":534901,"DIS_CODE":0,"TOWNNAME":"永康區","LI":"五王里","LIN":"19鄰","STREET":"成功路","SECT":" ","MAREA":" ","LANE":" ","ALLEY":" ","HOUSE_NO":"１７６號四樓之６","E_COORD97":171437.03,"N_COORD97":2545636.9100000001,"ADDRESS":"成功路１７６號四樓之６","OBJECTID":534874},"geometry":{"x":171437.03000000026,"y":2545636.910000002}},{"attributes":{"ID":534902,"DIS_CODE":0,"TOWNNAME":"永康區","LI":"五王里","LIN":"19鄰","STREET":"成功路","SECT":" ","MAREA":" ","LANE":" ","ALLEY":" ","HOUSE_NO":"１７６號四樓之１１","E_COORD97":171438.17999999999,"N_COORD97":2545636.9100000001,"ADDRESS":"成功路１７６號四樓之１１","OBJECTID":534875},"geometry":{"x":171438.18000000063,"y":2545636.910000002}},{"attributes":{"ID":534903,"DIS_CODE":0,"TOWNNAME":"永康區","LI":"五王里","LIN":"19鄰","STREET":"成功路","SECT":" ","MAREA":" ","LANE":" ","ALLEY":" ","HOUSE_NO":"１７６號五樓之１５","E_COORD97":171438.32999999999,"N_COORD97":2545636.9100000001,"ADDRESS":"成功路１７６號五樓之１５","OBJECTID":534876},"geometry":{"x":171438.33000000007,"y":2545636.910000002}},{"attributes":{"ID":534904,"DIS_CODE":0,"TOWNNAME":"永康區","LI":"五王里","LIN":"19鄰","STREET":"成功路","SECT":" ","MAREA":" ","LANE":" ","ALLEY":" ","HOUSE_NO":"１７６號五樓之１２","E_COORD97":171438.31,"N_COORD97":2545636.9100000001,"ADDRESS":"成功路１７６號五樓之１２","OBJECTID":534877},"geometry":{"x":171438.30999999866,"y":2545636.910000002}},{"attributes":{"ID":534905,"DIS_CODE":0,"TOWNNAME":"永康區","LI":"五王里","LIN":"19鄰","STREET":"成功路","SECT":" ","MAREA":" ","LANE":" ","ALLEY":" ","HOUSE_NO":"１７６號六樓之６","E_COORD97":171437.03,"N_COORD97":2545636.9100000001,"ADDRESS":"成功路１７６號六樓之６","OBJECTID":534878},"geometry":{"x":171437.03000000026,"y":2545636.910000002}},{"attributes":{"ID":534906,"DIS_CODE":0,"TOWNNAME":"永康區","LI":"五王里","LIN":"19鄰","STREET":"成功路","SECT":" ","MAREA":" ","LANE":" ","ALLEY":" ","HOUSE_NO":"１７６號二樓之２","E_COORD97":171437.06,"N_COORD97":2545636.9100000001,"ADDRESS":"成功路１７６號二樓之２","OBJECTID":534879},"geometry":{"x":171437.06000000052,"y":2545636.910000002}},{"attributes":{"ID":534907,"DIS_CODE":0,"TOWNNAME":"永康區","LI":"復國里","LIN":"19鄰","STREET":"國華街","SECT":" ","MAREA":" ","LANE":" ","ALLEY":" ","HOUSE_NO":"４７號七樓之１","E_COORD97":172829.92000000001,"N_COORD97":2545727.6800000002,"ADDRESS":"國華街４７號七樓之１","OBJECTID":534880},"geometry":{"x":172829.92000000086,"y":2545727.6799999997}},{"attributes":{"ID":534908,"DIS_CODE":0,"TOWNNAME":"永康區","LI":"復國里","LIN":"19鄰","STREET":"國華街","SECT":" ","MAREA":" ","LANE":" ","ALLEY":" ","HOUSE_NO":"４７號三樓之３","E_COORD97":172830.01999999999,"N_COORD97":2545727.6800000002,"ADDRESS":"國華街４７號三樓之３","OBJECTID":534881},"geometry":{"x":172830.01999999955,"y":2545727.6799999997}},{"attributes":{"ID":534909,"DIS_CODE":0,"TOWNNAME":"永康區","LI":"復國里","LIN":"19鄰","STREET":"國華街","SECT":" ","MAREA":" ","LANE":" ","ALLEY":" ","HOUSE_NO":"４９號十三樓之２","E_COORD97":172824.76999999999,"N_COORD97":2545722.4300000002,"ADDRESS":"國華街４９號十三樓之２","OBJECTID":534882},"geometry":{"x":172824.76999999955,"y":2545722.4299999997}},{"attributes":{"ID":534910,"DIS_CODE":0,"TOWNNAME":"永康區","LI":"復國里","LIN":"19鄰","STREET":"國華街","SECT":" ","MAREA":" ","LANE":" ","ALLEY":" ","HOUSE_NO":"４９號四樓之１","E_COORD97":172823.39000000001,"N_COORD97":2545722.4300000002,"ADDRESS":"國華街４９號四樓之１","OBJECTID":534883},"geometry":{"x":172823.3900000006,"y":2545722.4299999997}},{"attributes":{"ID":534911,"DIS_CODE":0,"TOWNNAME":"永康區","LI":"復國里","LIN":"19鄰","STREET":"國華街","SECT":" ","MAREA":" ","LANE":" ","ALLEY":" ","HOUSE_NO":"４７號十二樓之２","E_COORD97":172831.29999999999,"N_COORD97":2545727.6800000002,"ADDRESS":"國華街４７號十二樓之２","OBJECTID":534884},"geometry":{"x":172831.30000000075,"y":2545727.6799999997}},{"attributes":{"ID":534912,"DIS_CODE":0,"TOWNNAME":"永康區","LI":"復國里","LIN":"19鄰","STREET":"國華街","SECT":" ","MAREA":" ","LANE":" ","ALLEY":" ","HOUSE_NO":"４７號十一樓之３","E_COORD97":172831.26999999999,"N_COORD97":2545727.6800000002,"ADDRESS":"國華街４７號十一樓之３","OBJECTID":534885},"geometry":{"x":172831.26999999955,"y":2545727.6799999997}},{"attributes":{"ID":534913,"DIS_CODE":0,"TOWNNAME":"永康區","LI":"復國里","LIN":"19鄰","STREET":"國華街","SECT":" ","MAREA":" ","LANE":" ","ALLEY":" ","HOUSE_NO":"４７號十一樓之１","E_COORD97":172831.17000000001,"N_COORD97":2545727.6800000002,"ADDRESS":"國華街４７號十一樓之１","OBJECTID":534886},"geometry":{"x":172831.16999999993,"y":2545727.6799999997}},{"attributes":{"ID":534914,"DIS_CODE":0,"TOWNNAME":"永康區","LI":"復國里","LIN":"19鄰","STREET":"國華街","SECT":" ","MAREA":" ","LANE":" ","ALLEY":" ","HOUSE_NO":"４７號八樓之３","E_COORD97":172830.01999999999,"N_COORD97":2545727.6800000002,"ADDRESS":"國華街４７號八樓之３","OBJECTID":534887},"geometry":{"x":172830.01999999955,"y":2545727.6799999997}},{"attributes":{"ID":534915,"DIS_CODE":0,"TOWNNAME":"永康區","LI":"復國里","LIN":"19鄰","STREET":"國華街","SECT":" ","MAREA":" ","LANE":" ","ALLEY":" ","HOUSE_NO":"４７號五樓之１","E_COORD97":172829.92000000001,"N_COORD97":2545727.6800000002,"ADDRESS":"國華街４７號五樓之１","OBJECTID":534888},"geometry":{"x":172829.92000000086,"y":2545727.6799999997}},{"attributes":{"ID":534916,"DIS_CODE":0,"TOWNNAME":"永康區","LI":"復國里","LIN":"19鄰","STREET":"國華街","SECT":" ","MAREA":" ","LANE":" ","ALLEY":" ","HOUSE_NO":"４７號九樓之２","E_COORD97":172830.04999999999,"N_COORD97":2545727.6800000002,"ADDRESS":"國華街４７號九樓之２","OBJECTID":534889},"geometry":{"x":172830.04999999981,"y":2545727.6799999997}},{"attributes":{"ID":534917,"DIS_CODE":0,"TOWNNAME":"永康區","LI":"復國里","LIN":"19鄰","STREET":"國華街","SECT":" ","MAREA":" ","LANE":" ","ALLEY":" ","HOUSE_NO":"４９號三樓之１","E_COORD97":172823.39000000001,"N_COORD97":2545722.4300000002,"ADDRESS":"國華街４９號三樓之１","OBJECTID":534890},"geometry":{"x":172823.3900000006,"y":2545722.4299999997}},{"attributes":{"ID":534918,"DIS_CODE":0,"TOWNNAME":"永康區","LI":"復國里","LIN":"19鄰","STREET":"國華街","SECT":" ","MAREA":" ","LANE":" ","ALLEY":" ","HOUSE_NO":"４７號九樓之３","E_COORD97":172830.01999999999,"N_COORD97":2545727.6800000002,"ADDRESS":"國華街４７號九樓之３","OBJECTID":534891},"geometry":{"x":172830.01999999955,"y":2545727.6799999997}},{"attributes":{"ID":534919,"DIS_CODE":0,"TOWNNAME":"永康區","LI":"復國里","LIN":"19鄰","STREET":"國華街","SECT":" ","MAREA":" ","LANE":" ","ALLEY":" ","HOUSE_NO":"４９號三樓之２","E_COORD97":172823.51999999999,"N_COORD97":2545722.4300000002,"ADDRESS":"國華街４９號三樓之２","OBJECTID":534892},"geometry":{"x":172823.51999999862,"y":2545722.4299999997}},{"attributes":{"ID":534920,"DIS_CODE":0,"TOWNNAME":"永康區","LI":"復國里","LIN":"19鄰","STREET":"國華街","SECT":" ","MAREA":" ","LANE":" ","ALLEY":" ","HOUSE_NO":"４７號十三樓之１","E_COORD97":172831.17000000001,"N_COORD97":2545727.6800000002,"ADDRESS":"國華街４７號十三樓之１","OBJECTID":534893},"geometry":{"x":172831.16999999993,"y":2545727.6799999997}},{"attributes":{"ID":534921,"DIS_CODE":0,"TOWNNAME":"永康區","LI":"復國里","LIN":"19鄰","STREET":"國華街","SECT":" ","MAREA":" ","LANE":" ","ALLEY":" ","HOUSE_NO":"４７號八樓之１","E_COORD97":172829.92000000001,"N_COORD97":2545727.6800000002,"ADDRESS":"國華街４７號八樓之１","OBJECTID":534894},"geometry":{"x":172829.92000000086,"y":2545727.6799999997}},{"attributes":{"ID":534922,"DIS_CODE":0,"TOWNNAME":"永康區","LI":"復國里","LIN":"19鄰","STREET":"國華街","SECT":" ","MAREA":" ","LANE":" ","ALLEY":" ","HOUSE_NO":"４９號五樓之１","E_COORD97":172823.39000000001,"N_COORD97":2545722.4300000002,"ADDRESS":"國華街４９號五樓之１","OBJECTID":534895},"geometry":{"x":172823.3900000006,"y":2545722.4299999997}},{"attributes":{"ID":534923,"DIS_CODE":0,"TOWNNAME":"永康區","LI":"復國里","LIN":"19鄰","STREET":"國華街","SECT":" ","MAREA":" ","LANE":" ","ALLEY":" ","HOUSE_NO":"４９號十樓之２","E_COORD97":172823.51999999999,"N_COORD97":2545722.4300000002,"ADDRESS":"國華街４９號十樓之２","OBJECTID":534896},"geometry":{"x":172823.51999999862,"y":2545722.4299999997}},{"attributes":{"ID":534924,"DIS_CODE":0,"TOWNNAME":"永康區","LI":"復國里","LIN":"19鄰","STREET":"國華街","SECT":" ","MAREA":" ","LANE":" ","ALLEY":" ","HOUSE_NO":"４９號九樓之１","E_COORD97":172823.39000000001,"N_COORD97":2545722.4300000002,"ADDRESS":"國華街４９號九樓之１","OBJECTID":534897},"geometry":{"x":172823.3900000006,"y":2545722.4299999997}},{"attributes":{"ID":534925,"DIS_CODE":0,"TOWNNAME":"永康區","LI":"復國里","LIN":"19鄰","STREET":"國華街","SECT":" ","MAREA":" ","LANE":" ","ALLEY":" ","HOUSE_NO":"４７號八樓之２","E_COORD97":172830.04999999999,"N_COORD97":2545727.6800000002,"ADDRESS":"國華街４７號八樓之２","OBJECTID":534898},"geometry":{"x":172830.04999999981,"y":2545727.6799999997}},{"attributes":{"ID":534926,"DIS_CODE":0,"TOWNNAME":"永康區","LI":"崑山里","LIN":"19鄰","STREET":"大灣路","SECT":" ","MAREA":" ","LANE":" ","ALLEY":" ","HOUSE_NO":"７９６號二樓","E_COORD97":174025.97,"N_COORD97":2544508.9500000002,"ADDRESS":"大灣路７９６號二樓","OBJECTID":534899},"geometry":{"x":174025.9700000016,"y":2544508.9500000011}},{"attributes":{"ID":534927,"DIS_CODE":0,"TOWNNAME":"永康區","LI":"復國里","LIN":"19鄰","STREET":"國華街","SECT":" ","MAREA":" ","LANE":" ","ALLEY":" ","HOUSE_NO":"４７號六樓之１","E_COORD97":172829.92000000001,"N_COORD97":2545727.6800000002,"ADDRESS":"國華街４７號六樓之１","OBJECTID":534900},"geometry":{"x":172829.92000000086,"y":2545727.6799999997}},{"attributes":{"ID":534928,"DIS_CODE":0,"TOWNNAME":"永康區","LI":"復國里","LIN":"19鄰","STREET":"國華街","SECT":" ","MAREA":" ","LANE":" ","ALLEY":" ","HOUSE_NO":"４７號四樓之２","E_COORD97":172830.04999999999,"N_COORD97":2545727.6800000002,"ADDRESS":"國華街４７號四樓之２","OBJECTID":534901},"geometry":{"x":172830.04999999981,"y":2545727.6799999997}},{"attributes":{"ID":534929,"DIS_CODE":0,"TOWNNAME":"永康區","LI":"復國里","LIN":"19鄰","STREET":"國華街","SECT":" ","MAREA":" ","LANE":" ","ALLEY":" ","HOUSE_NO":"４９號十樓之１","E_COORD97":172823.39000000001,"N_COORD97":2545722.4300000002,"ADDRESS":"國華街４９號十樓之１","OBJECTID":534902},"geometry":{"x":172823.3900000006,"y":2545722.4299999997}},{"attributes":{"ID":534930,"DIS_CODE":0,"TOWNNAME":"永康區","LI":"復國里","LIN":"19鄰","STREET":"國華街","SECT":" ","MAREA":" ","LANE":" ","ALLEY":" ","HOUSE_NO":"４７號十二樓之１","E_COORD97":172831.17000000001,"N_COORD97":2545727.6800000002,"ADDRESS":"國華街４７號十二樓之１","OBJECTID":534903},"geometry":{"x":172831.16999999993,"y":2545727.6799999997}},{"attributes":{"ID":534931,"DIS_CODE":0,"TOWNNAME":"永康區","LI":"復國里","LIN":"19鄰","STREET":"國華街","SECT":" ","MAREA":" ","LANE":" ","ALLEY":" ","HOUSE_NO":"４７號十二樓之３","E_COORD97":172831.26999999999,"N_COORD97":2545727.6800000002,"ADDRESS":"國華街４７號十二樓之３","OBJECTID":534904},"geometry":{"x":172831.26999999955,"y":2545727.6799999997}},{"attributes":{"ID":534932,"DIS_CODE":0,"TOWNNAME":"永康區","LI":"復國里","LIN":"19鄰","STREET":"國華街","SECT":" ","MAREA":" ","LANE":" ","ALLEY":" ","HOUSE_NO":"４７號三樓之１","E_COORD97":172829.92000000001,"N_COORD97":2545727.6800000002,"ADDRESS":"國華街４７號三樓之１","OBJECTID":534905},"geometry":{"x":172829.92000000086,"y":2545727.6799999997}},{"attributes":{"ID":534933,"DIS_CODE":0,"TOWNNAME":"永康區","LI":"復國里","LIN":"19鄰","STREET":"國華街","SECT":" ","MAREA":" ","LANE":" ","ALLEY":" ","HOUSE_NO":"４７號五樓之３","E_COORD97":172830.01999999999,"N_COORD97":2545727.6800000002,"ADDRESS":"國華街４７號五樓之３","OBJECTID":534906},"geometry":{"x":172830.01999999955,"y":2545727.6799999997}},{"attributes":{"ID":534934,"DIS_CODE":0,"TOWNNAME":"永康區","LI":"復國里","LIN":"19鄰","STREET":"國華街","SECT":" ","MAREA":" ","LANE":" ","ALLEY":" ","HOUSE_NO":"４９號十二樓之２","E_COORD97":172824.76999999999,"N_COORD97":2545722.4300000002,"ADDRESS":"國華街４９號十二樓之２","OBJECTID":534907},"geometry":{"x":172824.76999999955,"y":2545722.4299999997}},{"attributes":{"ID":534935,"DIS_CODE":0,"TOWNNAME":"中西區","LI":"藥王里","LIN":"19鄰","STREET":"和真街","SECT":" ","MAREA":" ","LANE":" ","ALLEY":" ","HOUSE_NO":"４６號一樓之１","E_COORD97":166943,"N_COORD97":2544557.2999999998,"ADDRESS":"和真街４６號一樓之１","OBJECTID":534908},"geometry":{"x":166943,"y":2544557.3000000007}},{"attributes":{"ID":534936,"DIS_CODE":0,"TOWNNAME":"中西區","LI":"藥王里","LIN":"19鄰","STREET":"和真街","SECT":" ","MAREA":" ","LANE":" ","ALLEY":" ","HOUSE_NO":"４６號一樓之２","E_COORD97":166951.42000000001,"N_COORD97":2544564.1400000001,"ADDRESS":"和真街４６號一樓之２","OBJECTID":534909},"geometry":{"x":166951.42000000086,"y":2544564.1400000025}},{"attributes":{"ID":534937,"DIS_CODE":0,"TOWNNAME":"中西區","LI":"藥王里","LIN":"19鄰","STREET":"和真街","SECT":" ","MAREA":" ","LANE":" ","ALLEY":" ","HOUSE_NO":"４６號三樓之２","E_COORD97":166951.42000000001,"N_COORD97":2544564.1400000001,"ADDRESS":"和真街４６號三樓之２","OBJECTID":534910},"geometry":{"x":166951.42000000086,"y":2544564.1400000025}},{"attributes":{"ID":534938,"DIS_CODE":0,"TOWNNAME":"中西區","LI":"藥王里","LIN":"19鄰","STREET":"和真街","SECT":" ","MAREA":" ","LANE":" ","ALLEY":" ","HOUSE_NO":"４６號三樓之３","E_COORD97":166961.95000000001,"N_COORD97":2544572.5600000001,"ADDRESS":"和真街４６號三樓之３","OBJECTID":534911},"geometry":{"x":166961.95000000019,"y":2544572.5600000005}},{"attributes":{"ID":534939,"DIS_CODE":0,"TOWNNAME":"中西區","LI":"藥王里","LIN":"19鄰","STREET":"和真街","SECT":" ","MAREA":" ","LANE":" ","ALLEY":" ","HOUSE_NO":"４６號三樓之４","E_COORD97":166969.85000000001,"N_COORD97":2544579.3999999999,"ADDRESS":"和真街４６號三樓之４","OBJECTID":534912},"geometry":{"x":166969.85000000056,"y":2544579.4000000022}},{"attributes":{"ID":534940,"DIS_CODE":0,"TOWNNAME":"中西區","LI":"藥王里","LIN":"19鄰","STREET":"和真街","SECT":" ","MAREA":" ","LANE":" ","ALLEY":" ","HOUSE_NO":"４６號五樓之１","E_COORD97":166943,"N_COORD97":2544557.2999999998,"ADDRESS":"和真街４６號五樓之１","OBJECTID":534913},"geometry":{"x":166943,"y":2544557.3000000007}},{"attributes":{"ID":534941,"DIS_CODE":0,"TOWNNAME":"中西區","LI":"藥王里","LIN":"19鄰","STREET":"和真街","SECT":" ","MAREA":" ","LANE":" ","ALLEY":" ","HOUSE_NO":"４６號五樓之２","E_COORD97":166951.42000000001,"N_COORD97":2544564.1400000001,"ADDRESS":"和真街４６號五樓之２","OBJECTID":534914},"geometry":{"x":166951.42000000086,"y":2544564.1400000025}},{"attributes":{"ID":534942,"DIS_CODE":0,"TOWNNAME":"中西區","LI":"藥王里","LIN":"19鄰","STREET":"和真街","SECT":" ","MAREA":" ","LANE":" ","ALLEY":" ","HOUSE_NO":"４６號五樓之３","E_COORD97":166961.95000000001,"N_COORD97":2544572.5600000001,"ADDRESS":"和真街４６號五樓之３","OBJECTID":534915},"geometry":{"x":166961.95000000019,"y":2544572.5600000005}},{"attributes":{"ID":534943,"DIS_CODE":0,"TOWNNAME":"中西區","LI":"藥王里","LIN":"19鄰","STREET":"和真街","SECT":" ","MAREA":" ","LANE":" ","ALLEY":" ","HOUSE_NO":"４６號五樓之４","E_COORD97":166969.85000000001,"N_COORD97":2544579.3999999999,"ADDRESS":"和真街４６號五樓之４","OBJECTID":534916},"geometry":{"x":166969.85000000056,"y":2544579.4000000022}},{"attributes":{"ID":534944,"DIS_CODE":0,"TOWNNAME":"中西區","LI":"藥王里","LIN":"19鄰","STREET":"和真街","SECT":" ","MAREA":" ","LANE":" ","ALLEY":" ","HOUSE_NO":"４６號六樓之１","E_COORD97":166943,"N_COORD97":2544557.2999999998,"ADDRESS":"和真街４６號六樓之１","OBJECTID":534917},"geometry":{"x":166943,"y":2544557.3000000007}},{"attributes":{"ID":534945,"DIS_CODE":0,"TOWNNAME":"中西區","LI":"藥王里","LIN":"19鄰","STREET":"和真街","SECT":" ","MAREA":" ","LANE":" ","ALLEY":" ","HOUSE_NO":"４６號六樓之２","E_COORD97":166951.42000000001,"N_COORD97":2544564.1400000001,"ADDRESS":"和真街４６號六樓之２","OBJECTID":534918},"geometry":{"x":166951.42000000086,"y":2544564.1400000025}},{"attributes":{"ID":534946,"DIS_CODE":0,"TOWNNAME":"中西區","LI":"藥王里","LIN":"19鄰","STREET":"和真街","SECT":" ","MAREA":" ","LANE":" ","ALLEY":" ","HOUSE_NO":"４６號六樓之３","E_COORD97":166961.95000000001,"N_COORD97":2544572.5600000001,"ADDRESS":"和真街４６號六樓之３","OBJECTID":534919},"geometry":{"x":166961.95000000019,"y":2544572.5600000005}},{"attributes":{"ID":534947,"DIS_CODE":0,"TOWNNAME":"中西區","LI":"藥王里","LIN":"19鄰","STREET":"和真街","SECT":" ","MAREA":" ","LANE":" ","ALLEY":" ","HOUSE_NO":"４６號六樓之４","E_COORD97":166969.85000000001,"N_COORD97":2544579.3999999999,"ADDRESS":"和真街４６號六樓之４","OBJECTID":534920},"geometry":{"x":166969.85000000056,"y":2544579.4000000022}},{"attributes":{"ID":534948,"DIS_CODE":0,"TOWNNAME":"中西區","LI":"藥王里","LIN":"19鄰","STREET":"和真街","SECT":" ","MAREA":" ","LANE":" ","ALLEY":" ","HOUSE_NO":"４６號四樓之１","E_COORD97":166943,"N_COORD97":2544557.2999999998,"ADDRESS":"和真街４６號四樓之１","OBJECTID":534921},"geometry":{"x":166943,"y":2544557.3000000007}},{"attributes":{"ID":534949,"DIS_CODE":0,"TOWNNAME":"中西區","LI":"藥王里","LIN":"19鄰","STREET":"和真街","SECT":" ","MAREA":" ","LANE":" ","ALLEY":" ","HOUSE_NO":"４６號四樓之２","E_COORD97":166951.42000000001,"N_COORD97":2544564.1400000001,"ADDRESS":"和真街４６號四樓之２","OBJECTID":534922},"geometry":{"x":166951.42000000086,"y":2544564.1400000025}},{"attributes":{"ID":534950,"DIS_CODE":0,"TOWNNAME":"中西區","LI":"藥王里","LIN":"19鄰","STREET":"和真街","SECT":" ","MAREA":" ","LANE":" ","ALLEY":" ","HOUSE_NO":"４６號四樓之３","E_COORD97":166961.95000000001,"N_COORD97":2544572.5600000001,"ADDRESS":"和真街４６號四樓之３","OBJECTID":534923},"geometry":{"x":166961.95000000019,"y":2544572.5600000005}},{"attributes":{"ID":534951,"DIS_CODE":0,"TOWNNAME":"中西區","LI":"藥王里","LIN":"19鄰","STREET":"和真街","SECT":" ","MAREA":" ","LANE":" ","ALLEY":" ","HOUSE_NO":"４６號四樓之４","E_COORD97":166969.85000000001,"N_COORD97":2544579.3999999999,"ADDRESS":"和真街４６號四樓之４","OBJECTID":534924},"geometry":{"x":166969.85000000056,"y":2544579.4000000022}},{"attributes":{"ID":534952,"DIS_CODE":0,"TOWNNAME":"下營區","LI":"下營里","LIN":"19鄰","STREET":"民族一街","SECT":" ","MAREA":" ","LANE":" ","ALLEY":" ","HOUSE_NO":"４１號","E_COORD97":174386.60999999999,"N_COORD97":2570534.0499999998,"ADDRESS":"民族一街４１號","OBJECTID":534925},"geometry":{"x":174386.61000000034,"y":2570534.0500000045}},{"attributes":{"ID":534953,"DIS_CODE":0,"TOWNNAME":"永康區","LI":"復國里","LIN":"19鄰","STREET":"國華街","SECT":" ","MAREA":" ","LANE":" ","ALLEY":" ","HOUSE_NO":"４９號六樓之１","E_COORD97":172823.39000000001,"N_COORD97":2545722.4300000002,"ADDRESS":"國華街４９號六樓之１","OBJECTID":534926},"geometry":{"x":172823.3900000006,"y":2545722.4299999997}},{"attributes":{"ID":534954,"DIS_CODE":0,"TOWNNAME":"永康區","LI":"復國里","LIN":"19鄰","STREET":"國華街","SECT":" ","MAREA":" ","LANE":" ","ALLEY":" ","HOUSE_NO":"５３號七樓之２","E_COORD97":172794.72,"N_COORD97":2545723.1800000002,"ADDRESS":"國華街５３號七樓之２","OBJECTID":534927},"geometry":{"x":172794.71999999974,"y":2545723.1799999997}},{"attributes":{"ID":534955,"DIS_CODE":0,"TOWNNAME":"永康區","LI":"復國里","LIN":"19鄰","STREET":"國華街","SECT":" ","MAREA":" ","LANE":" ","ALLEY":" ","HOUSE_NO":"５３號九樓之４","E_COORD97":172794.62,"N_COORD97":2545723.1800000002,"ADDRESS":"國華街５３號九樓之４","OBJECTID":534928},"geometry":{"x":172794.61999999918,"y":2545723.1799999997}},{"attributes":{"ID":534956,"DIS_CODE":0,"TOWNNAME":"永康區","LI":"復國里","LIN":"19鄰","STREET":"國華街","SECT":" ","MAREA":" ","LANE":" ","ALLEY":" ","HOUSE_NO":"５１號十樓之２","E_COORD97":172809.07999999999,"N_COORD97":2545722.6800000002,"ADDRESS":"國華街５１號十樓之２","OBJECTID":534929},"geometry":{"x":172809.08000000101,"y":2545722.6800000016}},{"attributes":{"ID":534957,"DIS_CODE":0,"TOWNNAME":"永康區","LI":"復國里","LIN":"19鄰","STREET":"國華街","SECT":" ","MAREA":" ","LANE":" ","ALLEY":" ","HOUSE_NO":"４９號十一樓之１","E_COORD97":172824.64000000001,"N_COORD97":2545722.4300000002,"ADDRESS":"國華街４９號十一樓之１","OBJECTID":534930},"geometry":{"x":172824.64000000153,"y":2545722.4299999997}},{"attributes":{"ID":534958,"DIS_CODE":0,"TOWNNAME":"中西區","LI":"大涼里","LIN":"19鄰","STREET":"府前一街","SECT":" ","MAREA":" ","LANE":" ","ALLEY":" ","HOUSE_NO":"１５３號二樓","E_COORD97":166650.37,"N_COORD97":2544113.1099999999,"ADDRESS":"府前一街１５３號二樓","OBJECTID":534931},"geometry":{"x":166650.37000000104,"y":2544113.1099999994}},{"attributes":{"ID":534959,"DIS_CODE":0,"TOWNNAME":"中西區","LI":"大涼里","LIN":"19鄰","STREET":"府前一街","SECT":" ","MAREA":" ","LANE":" ","ALLEY":" ","HOUSE_NO":"１６１號五樓之１","E_COORD97":166647.39999999999,"N_COORD97":2544127.2799999998,"ADDRESS":"府前一街１６１號五樓之１","OBJECTID":534932},"geometry":{"x":166647.40000000037,"y":2544127.2800000012}},{"attributes":{"ID":534960,"DIS_CODE":0,"TOWNNAME":"佳里區","LI":"安西里","LIN":"19鄰","STREET":"公園路","SECT":" ","MAREA":" ","LANE":" ","ALLEY":" ","HOUSE_NO":"６６６號二樓","E_COORD97":165429.12,"N_COORD97":2562919.9100000001,"ADDRESS":"公園路６６６號二樓","OBJECTID":534933},"geometry":{"x":165429.12000000197,"y":2562919.910000002}},{"attributes":{"ID":534961,"DIS_CODE":0,"TOWNNAME":"佳里區","LI":"安西里","LIN":"19鄰","STREET":"公園路","SECT":" ","MAREA":" ","LANE":" ","ALLEY":" ","HOUSE_NO":"６６６號三樓","E_COORD97":165429.12,"N_COORD97":2562919.9100000001,"ADDRESS":"公園路６６６號三樓","OBJECTID":534934},"geometry":{"x":165429.12000000197,"y":2562919.910000002}},{"attributes":{"ID":534962,"DIS_CODE":0,"TOWNNAME":"佳里區","LI":"安西里","LIN":"19鄰","STREET":"公園路","SECT":" ","MAREA":" ","LANE":" ","ALLEY":" ","HOUSE_NO":"６６６號五樓","E_COORD97":165429.12,"N_COORD97":2562919.9100000001,"ADDRESS":"公園路６６６號五樓","OBJECTID":534935},"geometry":{"x":165429.12000000197,"y":2562919.910000002}},{"attributes":{"ID":534963,"DIS_CODE":0,"TOWNNAME":"佳里區","LI":"安西里","LIN":"19鄰","STREET":"公園路","SECT":" ","MAREA":" ","LANE":" ","ALLEY":" ","HOUSE_NO":"６６６號六樓","E_COORD97":165429.12,"N_COORD97":2562919.9100000001,"ADDRESS":"公園路６６６號六樓","OBJECTID":534936},"geometry":{"x":165429.12000000197,"y":2562919.910000002}},{"attributes":{"ID":534964,"DIS_CODE":0,"TOWNNAME":"佳里區","LI":"安西里","LIN":"19鄰","STREET":"公園路","SECT":" ","MAREA":" ","LANE":" ","ALLEY":" ","HOUSE_NO":"６６６號四樓","E_COORD97":165429.12,"N_COORD97":2562919.9100000001,"ADDRESS":"公園路６６６號四樓","OBJECTID":534937},"geometry":{"x":165429.12000000197,"y":2562919.910000002}},{"attributes":{"ID":534965,"DIS_CODE":0,"TOWNNAME":"永康區","LI":"復國里","LIN":"19鄰","STREET":"國華街","SECT":" ","MAREA":" ","LANE":" ","ALLEY":" ","HOUSE_NO":"５１號十一樓之１","E_COORD97":172810.20000000001,"N_COORD97":2545722.6800000002,"ADDRESS":"國華街５１號十一樓之１","OBJECTID":534938},"geometry":{"x":172810.20000000112,"y":2545722.6800000016}},{"attributes":{"ID":534966,"DIS_CODE":0,"TOWNNAME":"永康區","LI":"復國里","LIN":"19鄰","STREET":"國華街","SECT":" ","MAREA":" ","LANE":" ","ALLEY":" ","HOUSE_NO":"５１號十樓之１","E_COORD97":172808.95000000001,"N_COORD97":2545722.6800000002,"ADDRESS":"國華街５１號十樓之１","OBJECTID":534939},"geometry":{"x":172808.95000000019,"y":2545722.6800000016}},{"attributes":{"ID":534967,"DIS_CODE":0,"TOWNNAME":"東區","LI":"成大里","LIN":"19鄰","STREET":"勝利路","SECT":" ","MAREA":" ","LANE":" ","ALLEY":" ","HOUSE_NO":"１０３號之２二樓","E_COORD97":169792.47,"N_COORD97":2543866.5099999998,"ADDRESS":"勝利路１０３號之２二樓","OBJECTID":534940},"geometry":{"x":169792.46999999974,"y":2543866.5099999998}},{"attributes":{"ID":534968,"DIS_CODE":0,"TOWNNAME":"東區","LI":"成大里","LIN":"19鄰","STREET":"勝利路","SECT":" ","MAREA":" ","LANE":" ","ALLEY":" ","HOUSE_NO":"１０３號之２三樓","E_COORD97":169792.47,"N_COORD97":2543866.5099999998,"ADDRESS":"勝利路１０３號之２三樓","OBJECTID":534941},"geometry":{"x":169792.46999999974,"y":2543866.5099999998}},{"attributes":{"ID":534969,"DIS_CODE":0,"TOWNNAME":"東區","LI":"成大里","LIN":"19鄰","STREET":"勝利路","SECT":" ","MAREA":" ","LANE":" ","ALLEY":" ","HOUSE_NO":"１１５號七樓之１","E_COORD97":169820.38,"N_COORD97":2543885.6099999999,"ADDRESS":"勝利路１１５號七樓之１","OBJECTID":534942},"geometry":{"x":169820.37999999989,"y":2543885.6099999994}},{"attributes":{"ID":534970,"DIS_CODE":0,"TOWNNAME":"東區","LI":"成大里","LIN":"19鄰","STREET":"勝利路","SECT":" ","MAREA":" ","LANE":" ","ALLEY":" ","HOUSE_NO":"１１５號七樓之１０","E_COORD97":169820.38,"N_COORD97":2543885.6099999999,"ADDRESS":"勝利路１１５號七樓之１０","OBJECTID":534943},"geometry":{"x":169820.37999999989,"y":2543885.6099999994}},{"attributes":{"ID":534971,"DIS_CODE":0,"TOWNNAME":"東區","LI":"成大里","LIN":"19鄰","STREET":"勝利路","SECT":" ","MAREA":" ","LANE":" ","ALLEY":" ","HOUSE_NO":"１１５號七樓之１１","E_COORD97":169820.38,"N_COORD97":2543885.6099999999,"ADDRESS":"勝利路１１５號七樓之１１","OBJECTID":534944},"geometry":{"x":169820.37999999989,"y":2543885.6099999994}},{"attributes":{"ID":534972,"DIS_CODE":0,"TOWNNAME":"東區","LI":"成大里","LIN":"19鄰","STREET":"勝利路","SECT":" ","MAREA":" ","LANE":" ","ALLEY":" ","HOUSE_NO":"１１５號七樓之１２","E_COORD97":169820.38,"N_COORD97":2543885.6099999999,"ADDRESS":"勝利路１１５號七樓之１２","OBJECTID":534945},"geometry":{"x":169820.37999999989,"y":2543885.6099999994}},{"attributes":{"ID":534973,"DIS_CODE":0,"TOWNNAME":"東區","LI":"成大里","LIN":"19鄰","STREET":"勝利路","SECT":" ","MAREA":" ","LANE":" ","ALLEY":" ","HOUSE_NO":"１１５號七樓之１３","E_COORD97":169820.38,"N_COORD97":2543885.6099999999,"ADDRESS":"勝利路１１５號七樓之１３","OBJECTID":534946},"geometry":{"x":169820.37999999989,"y":2543885.6099999994}},{"attributes":{"ID":534974,"DIS_CODE":0,"TOWNNAME":"東區","LI":"成大里","LIN":"19鄰","STREET":"勝利路","SECT":" ","MAREA":" ","LANE":" ","ALLEY":" ","HOUSE_NO":"１１５號七樓之１４","E_COORD97":169820.38,"N_COORD97":2543885.6099999999,"ADDRESS":"勝利路１１５號七樓之１４","OBJECTID":534947},"geometry":{"x":169820.37999999989,"y":2543885.6099999994}},{"attributes":{"ID":534975,"DIS_CODE":0,"TOWNNAME":"東區","LI":"成大里","LIN":"19鄰","STREET":"勝利路","SECT":" ","MAREA":" ","LANE":" ","ALLEY":" ","HOUSE_NO":"１１５號七樓之１５","E_COORD97":169820.38,"N_COORD97":2543885.6099999999,"ADDRESS":"勝利路１１５號七樓之１５","OBJECTID":534948},"geometry":{"x":169820.37999999989,"y":2543885.6099999994}},{"attributes":{"ID":534976,"DIS_CODE":0,"TOWNNAME":"東區","LI":"成大里","LIN":"19鄰","STREET":"勝利路","SECT":" ","MAREA":" ","LANE":" ","ALLEY":" ","HOUSE_NO":"１１５號七樓之２","E_COORD97":169820.38,"N_COORD97":2543885.6099999999,"ADDRESS":"勝利路１１５號七樓之２","OBJECTID":534949},"geometry":{"x":169820.37999999989,"y":2543885.6099999994}},{"attributes":{"ID":534977,"DIS_CODE":0,"TOWNNAME":"東區","LI":"成大里","LIN":"19鄰","STREET":"勝利路","SECT":" ","MAREA":" ","LANE":" ","ALLEY":" ","HOUSE_NO":"１１５號七樓之３","E_COORD97":169820.38,"N_COORD97":2543885.6099999999,"ADDRESS":"勝利路１１５號七樓之３","OBJECTID":534950},"geometry":{"x":169820.37999999989,"y":2543885.6099999994}},{"attributes":{"ID":534978,"DIS_CODE":0,"TOWNNAME":"東區","LI":"成大里","LIN":"19鄰","STREET":"勝利路","SECT":" ","MAREA":" ","LANE":" ","ALLEY":" ","HOUSE_NO":"１１５號七樓之４","E_COORD97":169820.38,"N_COORD97":2543885.6099999999,"ADDRESS":"勝利路１１５號七樓之４","OBJECTID":534951},"geometry":{"x":169820.37999999989,"y":2543885.6099999994}},{"attributes":{"ID":534979,"DIS_CODE":0,"TOWNNAME":"東區","LI":"成大里","LIN":"19鄰","STREET":"勝利路","SECT":" ","MAREA":" ","LANE":" ","ALLEY":" ","HOUSE_NO":"１１５號七樓之５","E_COORD97":169820.38,"N_COORD97":2543885.6099999999,"ADDRESS":"勝利路１１５號七樓之５","OBJECTID":534952},"geometry":{"x":169820.37999999989,"y":2543885.6099999994}},{"attributes":{"ID":534980,"DIS_CODE":0,"TOWNNAME":"東區","LI":"成大里","LIN":"19鄰","STREET":"勝利路","SECT":" ","MAREA":" ","LANE":" ","ALLEY":" ","HOUSE_NO":"１１５號七樓之６","E_COORD97":169820.38,"N_COORD97":2543885.6099999999,"ADDRESS":"勝利路１１５號七樓之６","OBJECTID":534953},"geometry":{"x":169820.37999999989,"y":2543885.6099999994}},{"attributes":{"ID":534981,"DIS_CODE":0,"TOWNNAME":"東區","LI":"成大里","LIN":"19鄰","STREET":"勝利路","SECT":" ","MAREA":" ","LANE":" ","ALLEY":" ","HOUSE_NO":"１１５號七樓之７","E_COORD97":169820.38,"N_COORD97":2543885.6099999999,"ADDRESS":"勝利路１１５號七樓之７","OBJECTID":534954},"geometry":{"x":169820.37999999989,"y":2543885.6099999994}},{"attributes":{"ID":534982,"DIS_CODE":0,"TOWNNAME":"東區","LI":"成大里","LIN":"19鄰","STREET":"勝利路","SECT":" ","MAREA":" ","LANE":" ","ALLEY":" ","HOUSE_NO":"１１５號七樓之８","E_COORD97":169820.38,"N_COORD97":2543885.6099999999,"ADDRESS":"勝利路１１５號七樓之８","OBJECTID":534955},"geometry":{"x":169820.37999999989,"y":2543885.6099999994}},{"attributes":{"ID":534983,"DIS_CODE":0,"TOWNNAME":"東區","LI":"成大里","LIN":"19鄰","STREET":"勝利路","SECT":" ","MAREA":" ","LANE":" ","ALLEY":" ","HOUSE_NO":"１１５號七樓之９","E_COORD97":169820.38,"N_COORD97":2543885.6099999999,"ADDRESS":"勝利路１１５號七樓之９","OBJECTID":534956},"geometry":{"x":169820.37999999989,"y":2543885.6099999994}},{"attributes":{"ID":534984,"DIS_CODE":0,"TOWNNAME":"東區","LI":"成大里","LIN":"19鄰","STREET":"勝利路","SECT":" ","MAREA":" ","LANE":" ","ALLEY":" ","HOUSE_NO":"１１５號二樓之１","E_COORD97":169820.38,"N_COORD97":2543885.6099999999,"ADDRESS":"勝利路１１５號二樓之１","OBJECTID":534957},"geometry":{"x":169820.37999999989,"y":2543885.6099999994}},{"attributes":{"ID":534985,"DIS_CODE":0,"TOWNNAME":"東區","LI":"成大里","LIN":"19鄰","STREET":"勝利路","SECT":" ","MAREA":" ","LANE":" ","ALLEY":" ","HOUSE_NO":"１１５號二樓之１０","E_COORD97":169820.38,"N_COORD97":2543885.6099999999,"ADDRESS":"勝利路１１５號二樓之１０","OBJECTID":534958},"geometry":{"x":169820.37999999989,"y":2543885.6099999994}},{"attributes":{"ID":534986,"DIS_CODE":0,"TOWNNAME":"東區","LI":"成大里","LIN":"19鄰","STREET":"勝利路","SECT":" ","MAREA":" ","LANE":" ","ALLEY":" ","HOUSE_NO":"１１５號二樓之１１","E_COORD97":169820.38,"N_COORD97":2543885.6099999999,"ADDRESS":"勝利路１１５號二樓之１１","OBJECTID":534959},"geometry":{"x":169820.37999999989,"y":2543885.6099999994}},{"attributes":{"ID":534987,"DIS_CODE":0,"TOWNNAME":"東區","LI":"成大里","LIN":"19鄰","STREET":"勝利路","SECT":" ","MAREA":" ","LANE":" ","ALLEY":" ","HOUSE_NO":"１１５號二樓之１２","E_COORD97":169820.38,"N_COORD97":2543885.6099999999,"ADDRESS":"勝利路１１５號二樓之１２","OBJECTID":534960},"geometry":{"x":169820.37999999989,"y":2543885.6099999994}},{"attributes":{"ID":534988,"DIS_CODE":0,"TOWNNAME":"東區","LI":"成大里","LIN":"19鄰","STREET":"勝利路","SECT":" ","MAREA":" ","LANE":" ","ALLEY":" ","HOUSE_NO":"１１５號二樓之１３","E_COORD97":169820.38,"N_COORD97":2543885.6099999999,"ADDRESS":"勝利路１１５號二樓之１３","OBJECTID":534961},"geometry":{"x":169820.37999999989,"y":2543885.6099999994}},{"attributes":{"ID":534989,"DIS_CODE":0,"TOWNNAME":"東區","LI":"成大里","LIN":"19鄰","STREET":"勝利路","SECT":" ","MAREA":" ","LANE":" ","ALLEY":" ","HOUSE_NO":"１１５號二樓之１４","E_COORD97":169820.38,"N_COORD97":2543885.6099999999,"ADDRESS":"勝利路１１５號二樓之１４","OBJECTID":534962},"geometry":{"x":169820.37999999989,"y":2543885.6099999994}},{"attributes":{"ID":534990,"DIS_CODE":0,"TOWNNAME":"東區","LI":"成大里","LIN":"19鄰","STREET":"勝利路","SECT":" ","MAREA":" ","LANE":" ","ALLEY":" ","HOUSE_NO":"１１５號二樓之１５","E_COORD97":169820.38,"N_COORD97":2543885.6099999999,"ADDRESS":"勝利路１１５號二樓之１５","OBJECTID":534963},"geometry":{"x":169820.37999999989,"y":2543885.6099999994}},{"attributes":{"ID":534991,"DIS_CODE":0,"TOWNNAME":"東區","LI":"成大里","LIN":"19鄰","STREET":"勝利路","SECT":" ","MAREA":" ","LANE":" ","ALLEY":" ","HOUSE_NO":"１１５號二樓之２","E_COORD97":169820.38,"N_COORD97":2543885.6099999999,"ADDRESS":"勝利路１１５號二樓之２","OBJECTID":534964},"geometry":{"x":169820.37999999989,"y":2543885.6099999994}},{"attributes":{"ID":534992,"DIS_CODE":0,"TOWNNAME":"東區","LI":"成大里","LIN":"19鄰","STREET":"勝利路","SECT":" ","MAREA":" ","LANE":" ","ALLEY":" ","HOUSE_NO":"１１５號二樓之３","E_COORD97":169820.38,"N_COORD97":2543885.6099999999,"ADDRESS":"勝利路１１５號二樓之３","OBJECTID":534965},"geometry":{"x":169820.37999999989,"y":2543885.6099999994}},{"attributes":{"ID":534993,"DIS_CODE":0,"TOWNNAME":"東區","LI":"成大里","LIN":"19鄰","STREET":"勝利路","SECT":" ","MAREA":" ","LANE":" ","ALLEY":" ","HOUSE_NO":"１１５號二樓之４","E_COORD97":169820.38,"N_COORD97":2543885.6099999999,"ADDRESS":"勝利路１１５號二樓之４","OBJECTID":534966},"geometry":{"x":169820.37999999989,"y":2543885.6099999994}},{"attributes":{"ID":534994,"DIS_CODE":0,"TOWNNAME":"東區","LI":"成大里","LIN":"19鄰","STREET":"勝利路","SECT":" ","MAREA":" ","LANE":" ","ALLEY":" ","HOUSE_NO":"１１５號二樓之５","E_COORD97":169820.38,"N_COORD97":2543885.6099999999,"ADDRESS":"勝利路１１５號二樓之５","OBJECTID":534967},"geometry":{"x":169820.37999999989,"y":2543885.6099999994}},{"attributes":{"ID":534995,"DIS_CODE":0,"TOWNNAME":"東區","LI":"成大里","LIN":"19鄰","STREET":"勝利路","SECT":" ","MAREA":" ","LANE":" ","ALLEY":" ","HOUSE_NO":"１１５號二樓之６","E_COORD97":169820.38,"N_COORD97":2543885.6099999999,"ADDRESS":"勝利路１１５號二樓之６","OBJECTID":534968},"geometry":{"x":169820.37999999989,"y":2543885.6099999994}},{"attributes":{"ID":534996,"DIS_CODE":0,"TOWNNAME":"東區","LI":"成大里","LIN":"19鄰","STREET":"勝利路","SECT":" ","MAREA":" ","LANE":" ","ALLEY":" ","HOUSE_NO":"１１５號二樓之７","E_COORD97":169820.38,"N_COORD97":2543885.6099999999,"ADDRESS":"勝利路１１５號二樓之７","OBJECTID":534969},"geometry":{"x":169820.37999999989,"y":2543885.6099999994}},{"attributes":{"ID":534997,"DIS_CODE":0,"TOWNNAME":"東區","LI":"成大里","LIN":"19鄰","STREET":"勝利路","SECT":" ","MAREA":" ","LANE":" ","ALLEY":" ","HOUSE_NO":"１１５號二樓之８","E_COORD97":169820.38,"N_COORD97":2543885.6099999999,"ADDRESS":"勝利路１１５號二樓之８","OBJECTID":534970},"geometry":{"x":169820.37999999989,"y":2543885.6099999994}},{"attributes":{"ID":534998,"DIS_CODE":0,"TOWNNAME":"東區","LI":"成大里","LIN":"19鄰","STREET":"勝利路","SECT":" ","MAREA":" ","LANE":" ","ALLEY":" ","HOUSE_NO":"１１５號二樓之９","E_COORD97":169820.38,"N_COORD97":2543885.6099999999,"ADDRESS":"勝利路１１５號二樓之９","OBJECTID":534971},"geometry":{"x":169820.37999999989,"y":2543885.6099999994}},{"attributes":{"ID":534999,"DIS_CODE":0,"TOWNNAME":"東區","LI":"成大里","LIN":"19鄰","STREET":"勝利路","SECT":" ","MAREA":" ","LANE":" ","ALLEY":" ","HOUSE_NO":"１１５號三樓之１","E_COORD97":169820.38,"N_COORD97":2543885.6099999999,"ADDRESS":"勝利路１１５號三樓之１","OBJECTID":534972},"geometry":{"x":169820.37999999989,"y":2543885.6099999994}},{"attributes":{"ID":535000,"DIS_CODE":0,"TOWNNAME":"東區","LI":"成大里","LIN":"19鄰","STREET":"勝利路","SECT":" ","MAREA":" ","LANE":" ","ALLEY":" ","HOUSE_NO":"１１５號三樓之１０","E_COORD97":169820.38,"N_COORD97":2543885.6099999999,"ADDRESS":"勝利路１１５號三樓之１０","OBJECTID":534973},"geometry":{"x":169820.37999999989,"y":2543885.6099999994}},{"attributes":{"ID":535001,"DIS_CODE":0,"TOWNNAME":"東區","LI":"成大里","LIN":"19鄰","STREET":"勝利路","SECT":" ","MAREA":" ","LANE":" ","ALLEY":" ","HOUSE_NO":"１１５號三樓之１１","E_COORD97":169820.38,"N_COORD97":2543885.6099999999,"ADDRESS":"勝利路１１５號三樓之１１","OBJECTID":534974},"geometry":{"x":169820.37999999989,"y":2543885.6099999994}},{"attributes":{"ID":535002,"DIS_CODE":0,"TOWNNAME":"東區","LI":"成大里","LIN":"19鄰","STREET":"勝利路","SECT":" ","MAREA":" ","LANE":" ","ALLEY":" ","HOUSE_NO":"１１５號三樓之１２","E_COORD97":169820.38,"N_COORD97":2543885.6099999999,"ADDRESS":"勝利路１１５號三樓之１２","OBJECTID":534975},"geometry":{"x":169820.37999999989,"y":2543885.6099999994}},{"attributes":{"ID":535003,"DIS_CODE":0,"TOWNNAME":"東區","LI":"成大里","LIN":"19鄰","STREET":"勝利路","SECT":" ","MAREA":" ","LANE":" ","ALLEY":" ","HOUSE_NO":"１１５號三樓之１３","E_COORD97":169820.38,"N_COORD97":2543885.6099999999,"ADDRESS":"勝利路１１５號三樓之１３","OBJECTID":534976},"geometry":{"x":169820.37999999989,"y":2543885.6099999994}},{"attributes":{"ID":535004,"DIS_CODE":0,"TOWNNAME":"東區","LI":"成大里","LIN":"19鄰","STREET":"勝利路","SECT":" ","MAREA":" ","LANE":" ","ALLEY":" ","HOUSE_NO":"１１５號三樓之１４","E_COORD97":169820.38,"N_COORD97":2543885.6099999999,"ADDRESS":"勝利路１１５號三樓之１４","OBJECTID":534977},"geometry":{"x":169820.37999999989,"y":2543885.6099999994}},{"attributes":{"ID":535005,"DIS_CODE":0,"TOWNNAME":"東區","LI":"成大里","LIN":"19鄰","STREET":"勝利路","SECT":" ","MAREA":" ","LANE":" ","ALLEY":" ","HOUSE_NO":"１１５號三樓之１５","E_COORD97":169820.38,"N_COORD97":2543885.6099999999,"ADDRESS":"勝利路１１５號三樓之１５","OBJECTID":534978},"geometry":{"x":169820.37999999989,"y":2543885.6099999994}},{"attributes":{"ID":535006,"DIS_CODE":0,"TOWNNAME":"東區","LI":"成大里","LIN":"19鄰","STREET":"勝利路","SECT":" ","MAREA":" ","LANE":" ","ALLEY":" ","HOUSE_NO":"１１５號三樓之２","E_COORD97":169820.38,"N_COORD97":2543885.6099999999,"ADDRESS":"勝利路１１５號三樓之２","OBJECTID":534979},"geometry":{"x":169820.37999999989,"y":2543885.6099999994}},{"attributes":{"ID":535007,"DIS_CODE":0,"TOWNNAME":"東區","LI":"成大里","LIN":"19鄰","STREET":"勝利路","SECT":" ","MAREA":" ","LANE":" ","ALLEY":" ","HOUSE_NO":"１１５號三樓之３","E_COORD97":169820.38,"N_COORD97":2543885.6099999999,"ADDRESS":"勝利路１１５號三樓之３","OBJECTID":534980},"geometry":{"x":169820.37999999989,"y":2543885.6099999994}},{"attributes":{"ID":535008,"DIS_CODE":0,"TOWNNAME":"東區","LI":"成大里","LIN":"19鄰","STREET":"勝利路","SECT":" ","MAREA":" ","LANE":" ","ALLEY":" ","HOUSE_NO":"１１５號三樓之４","E_COORD97":169820.38,"N_COORD97":2543885.6099999999,"ADDRESS":"勝利路１１５號三樓之４","OBJECTID":534981},"geometry":{"x":169820.37999999989,"y":2543885.6099999994}},{"attributes":{"ID":535009,"DIS_CODE":0,"TOWNNAME":"東區","LI":"成大里","LIN":"19鄰","STREET":"勝利路","SECT":" ","MAREA":" ","LANE":" ","ALLEY":" ","HOUSE_NO":"１１５號三樓之５","E_COORD97":169820.38,"N_COORD97":2543885.6099999999,"ADDRESS":"勝利路１１５號三樓之５","OBJECTID":534982},"geometry":{"x":169820.37999999989,"y":2543885.6099999994}},{"attributes":{"ID":535010,"DIS_CODE":0,"TOWNNAME":"東區","LI":"成大里","LIN":"19鄰","STREET":"勝利路","SECT":" ","MAREA":" ","LANE":" ","ALLEY":" ","HOUSE_NO":"１１５號三樓之６","E_COORD97":169820.38,"N_COORD97":2543885.6099999999,"ADDRESS":"勝利路１１５號三樓之６","OBJECTID":534983},"geometry":{"x":169820.37999999989,"y":2543885.6099999994}},{"attributes":{"ID":535011,"DIS_CODE":0,"TOWNNAME":"東區","LI":"成大里","LIN":"19鄰","STREET":"勝利路","SECT":" ","MAREA":" ","LANE":" ","ALLEY":" ","HOUSE_NO":"１１５號三樓之７","E_COORD97":169820.38,"N_COORD97":2543885.6099999999,"ADDRESS":"勝利路１１５號三樓之７","OBJECTID":534984},"geometry":{"x":169820.37999999989,"y":2543885.6099999994}},{"attributes":{"ID":535012,"DIS_CODE":0,"TOWNNAME":"東區","LI":"成大里","LIN":"19鄰","STREET":"勝利路","SECT":" ","MAREA":" ","LANE":" ","ALLEY":" ","HOUSE_NO":"１１５號三樓之８","E_COORD97":169820.38,"N_COORD97":2543885.6099999999,"ADDRESS":"勝利路１１５號三樓之８","OBJECTID":534985},"geometry":{"x":169820.37999999989,"y":2543885.6099999994}},{"attributes":{"ID":535013,"DIS_CODE":0,"TOWNNAME":"東區","LI":"成大里","LIN":"19鄰","STREET":"勝利路","SECT":" ","MAREA":" ","LANE":" ","ALLEY":" ","HOUSE_NO":"１１５號三樓之９","E_COORD97":169820.38,"N_COORD97":2543885.6099999999,"ADDRESS":"勝利路１１５號三樓之９","OBJECTID":534986},"geometry":{"x":169820.37999999989,"y":2543885.6099999994}},{"attributes":{"ID":535014,"DIS_CODE":0,"TOWNNAME":"東區","LI":"成大里","LIN":"19鄰","STREET":"勝利路","SECT":" ","MAREA":" ","LANE":" ","ALLEY":" ","HOUSE_NO":"１１５號五樓之１","E_COORD97":169820.38,"N_COORD97":2543885.6099999999,"ADDRESS":"勝利路１１５號五樓之１","OBJECTID":534987},"geometry":{"x":169820.37999999989,"y":2543885.6099999994}},{"attributes":{"ID":535015,"DIS_CODE":0,"TOWNNAME":"東區","LI":"成大里","LIN":"19鄰","STREET":"勝利路","SECT":" ","MAREA":" ","LANE":" ","ALLEY":" ","HOUSE_NO":"１１５號五樓之１０","E_COORD97":169820.38,"N_COORD97":2543885.6099999999,"ADDRESS":"勝利路１１５號五樓之１０","OBJECTID":534988},"geometry":{"x":169820.37999999989,"y":2543885.6099999994}},{"attributes":{"ID":535016,"DIS_CODE":0,"TOWNNAME":"東區","LI":"成大里","LIN":"19鄰","STREET":"勝利路","SECT":" ","MAREA":" ","LANE":" ","ALLEY":" ","HOUSE_NO":"１１５號五樓之１１","E_COORD97":169820.38,"N_COORD97":2543885.6099999999,"ADDRESS":"勝利路１１５號五樓之１１","OBJECTID":534989},"geometry":{"x":169820.37999999989,"y":2543885.6099999994}},{"attributes":{"ID":535017,"DIS_CODE":0,"TOWNNAME":"東區","LI":"成大里","LIN":"19鄰","STREET":"勝利路","SECT":" ","MAREA":" ","LANE":" ","ALLEY":" ","HOUSE_NO":"１１５號五樓之１２","E_COORD97":169820.38,"N_COORD97":2543885.6099999999,"ADDRESS":"勝利路１１５號五樓之１２","OBJECTID":534990},"geometry":{"x":169820.37999999989,"y":2543885.6099999994}},{"attributes":{"ID":535018,"DIS_CODE":0,"TOWNNAME":"東區","LI":"成大里","LIN":"19鄰","STREET":"勝利路","SECT":" ","MAREA":" ","LANE":" ","ALLEY":" ","HOUSE_NO":"１１５號五樓之１３","E_COORD97":169820.38,"N_COORD97":2543885.6099999999,"ADDRESS":"勝利路１１５號五樓之１３","OBJECTID":534991},"geometry":{"x":169820.37999999989,"y":2543885.6099999994}},{"attributes":{"ID":535019,"DIS_CODE":0,"TOWNNAME":"東區","LI":"成大里","LIN":"19鄰","STREET":"勝利路","SECT":" ","MAREA":" ","LANE":" ","ALLEY":" ","HOUSE_NO":"１１５號五樓之１４","E_COORD97":169820.38,"N_COORD97":2543885.6099999999,"ADDRESS":"勝利路１１５號五樓之１４","OBJECTID":534992},"geometry":{"x":169820.37999999989,"y":2543885.6099999994}},{"attributes":{"ID":535020,"DIS_CODE":0,"TOWNNAME":"東區","LI":"成大里","LIN":"19鄰","STREET":"勝利路","SECT":" ","MAREA":" ","LANE":" ","ALLEY":" ","HOUSE_NO":"１１５號五樓之１５","E_COORD97":169820.38,"N_COORD97":2543885.6099999999,"ADDRESS":"勝利路１１５號五樓之１５","OBJECTID":534993},"geometry":{"x":169820.37999999989,"y":2543885.6099999994}},{"attributes":{"ID":535021,"DIS_CODE":0,"TOWNNAME":"東區","LI":"成大里","LIN":"19鄰","STREET":"勝利路","SECT":" ","MAREA":" ","LANE":" ","ALLEY":" ","HOUSE_NO":"１１５號五樓之２","E_COORD97":169820.38,"N_COORD97":2543885.6099999999,"ADDRESS":"勝利路１１５號五樓之２","OBJECTID":534994},"geometry":{"x":169820.37999999989,"y":2543885.6099999994}},{"attributes":{"ID":535022,"DIS_CODE":0,"TOWNNAME":"東區","LI":"成大里","LIN":"19鄰","STREET":"勝利路","SECT":" ","MAREA":" ","LANE":" ","ALLEY":" ","HOUSE_NO":"１１５號五樓之３","E_COORD97":169820.38,"N_COORD97":2543885.6099999999,"ADDRESS":"勝利路１１５號五樓之３","OBJECTID":534995},"geometry":{"x":169820.37999999989,"y":2543885.6099999994}},{"attributes":{"ID":535023,"DIS_CODE":0,"TOWNNAME":"東區","LI":"成大里","LIN":"19鄰","STREET":"勝利路","SECT":" ","MAREA":" ","LANE":" ","ALLEY":" ","HOUSE_NO":"１１５號五樓之４","E_COORD97":169820.38,"N_COORD97":2543885.6099999999,"ADDRESS":"勝利路１１５號五樓之４","OBJECTID":534996},"geometry":{"x":169820.37999999989,"y":2543885.6099999994}},{"attributes":{"ID":535024,"DIS_CODE":0,"TOWNNAME":"東區","LI":"成大里","LIN":"19鄰","STREET":"勝利路","SECT":" ","MAREA":" ","LANE":" ","ALLEY":" ","HOUSE_NO":"１１５號五樓之５","E_COORD97":169820.38,"N_COORD97":2543885.6099999999,"ADDRESS":"勝利路１１５號五樓之５","OBJECTID":534997},"geometry":{"x":169820.37999999989,"y":2543885.6099999994}},{"attributes":{"ID":535025,"DIS_CODE":0,"TOWNNAME":"東區","LI":"成大里","LIN":"19鄰","STREET":"勝利路","SECT":" ","MAREA":" ","LANE":" ","ALLEY":" ","HOUSE_NO":"１１５號五樓之６","E_COORD97":169820.38,"N_COORD97":2543885.6099999999,"ADDRESS":"勝利路１１５號五樓之６","OBJECTID":534998},"geometry":{"x":169820.37999999989,"y":2543885.6099999994}},{"attributes":{"ID":535026,"DIS_CODE":0,"TOWNNAME":"東區","LI":"成大里","LIN":"19鄰","STREET":"勝利路","SECT":" ","MAREA":" ","LANE":" ","ALLEY":" ","HOUSE_NO":"１１５號五樓之７","E_COORD97":169820.38,"N_COORD97":2543885.6099999999,"ADDRESS":"勝利路１１５號五樓之７","OBJECTID":534999},"geometry":{"x":169820.37999999989,"y":2543885.6099999994}},{"attributes":{"ID":535027,"DIS_CODE":0,"TOWNNAME":"東區","LI":"成大里","LIN":"19鄰","STREET":"勝利路","SECT":" ","MAREA":" ","LANE":" ","ALLEY":" ","HOUSE_NO":"１１５號五樓之８","E_COORD97":169820.38,"N_COORD97":2543885.6099999999,"ADDRESS":"勝利路１１５號五樓之８","OBJECTID":535000},"geometry":{"x":169820.37999999989,"y":2543885.6099999994}}]}