{"displayFieldName":"TOWNNAME","fieldAliases":{"ID":"ID","DIS_CODE":"DIS_CODE","TOWNNAME":"TOWNNAME","LI":"LI","LIN":"LIN","STREET":"STREET","SECT":"SECT","MAREA":"MAREA","LANE":"LANE","ALLEY":"ALLEY","HOUSE_NO":"HOUSE_NO","E_COORD97":"E_COORD97","N_COORD97":"N_COORD97","ADDRESS":"ADDRESS","OBJECTID":"OBJECTID"},"geometryType":"esriGeometryPoint","spatialReference":{"wkid":102443,"latestWkid":3826},"fields":[{"name":"ID","type":"esriFieldTypeDouble","alias":"ID"},{"name":"DIS_CODE","type":"esriFieldTypeInteger","alias":"DIS_CODE"},{"name":"TOWNNAME","type":"esriFieldTypeString","alias":"TOWNNAME","length":8},{"name":"LI","type":"esriFieldTypeString","alias":"LI","length":8},{"name":"LIN","type":"esriFieldTypeString","alias":"LIN","length":12},{"name":"STREET","type":"esriFieldTypeString","alias":"STREET","length":20},{"name":"SECT","type":"esriFieldTypeString","alias":"SECT","length":8},{"name":"MAREA","type":"esriFieldTypeString","alias":"MAREA","length":12},{"name":"LANE","type":"esriFieldTypeString","alias":"LANE","length":10},{"name":"ALLEY","type":"esriFieldTypeString","alias":"ALLEY","length":10},{"name":"HOUSE_NO","type":"esriFieldTypeString","alias":"HOUSE_NO","length":20},{"name":"E_COORD97","type":"esriFieldTypeDouble","alias":"E_COORD97"},{"name":"N_COORD97","type":"esriFieldTypeDouble","alias":"N_COORD97"},{"name":"ADDRESS","type":"esriFieldTypeString","alias":"ADDRESS","length":50},{"name":"OBJECTID","type":"esriFieldTypeOID","alias":"OBJECTID"}],"features":[{"attributes":{"ID":334010,"DIS_CODE":0,"TOWNNAME":"安南區","LI":"州北里","LIN":"2鄰","STREET":"安和路","SECT":"五段","MAREA":" ","LANE":"８１巷","ALLEY":" ","HOUSE_NO":"８０之１號","E_COORD97":169721.71245200001,"N_COORD97":2551623.6982700001,"ADDRESS":"安和路五段８１巷８０之１號","OBJECTID":334001},"geometry":{"x":169721.71245200001,"y":2551623.6982730031}},{"attributes":{"ID":334011,"DIS_CODE":0,"TOWNNAME":"安南區","LI":"州北里","LIN":"17鄰","STREET":"安和路","SECT":"六段","MAREA":" ","LANE":" ","ALLEY":" ","HOUSE_NO":"２６號之４","E_COORD97":169628.82999999999,"N_COORD97":2552396.3799999999,"ADDRESS":"安和路六段２６號之４","OBJECTID":334002},"geometry":{"x":169628.83000000101,"y":2552396.3800000008}},{"attributes":{"ID":334012,"DIS_CODE":0,"TOWNNAME":"安平區","LI":"平安里","LIN":"20鄰","STREET":"安北路","SECT":" ","MAREA":" ","LANE":"１６巷","ALLEY":" ","HOUSE_NO":"３２號","E_COORD97":164767.87,"N_COORD97":2544587.79,"ADDRESS":"安北路１６巷３２號","OBJECTID":334003},"geometry":{"x":164767.86999999918,"y":2544587.7900000028}},{"attributes":{"ID":334013,"DIS_CODE":0,"TOWNNAME":"安平區","LI":"平安里","LIN":"20鄰","STREET":"安北路","SECT":" ","MAREA":" ","LANE":"１６巷","ALLEY":" ","HOUSE_NO":"３４號","E_COORD97":164768.09,"N_COORD97":2544591.5899999999,"ADDRESS":"安北路１６巷３４號","OBJECTID":334004},"geometry":{"x":164768.09000000078,"y":2544591.5899999999}},{"attributes":{"ID":334014,"DIS_CODE":0,"TOWNNAME":"安平區","LI":"平安里","LIN":"20鄰","STREET":"安北路","SECT":" ","MAREA":" ","LANE":"１６巷","ALLEY":" ","HOUSE_NO":"３６號","E_COORD97":164769.57000000001,"N_COORD97":2544595.1899999999,"ADDRESS":"安北路１６巷３６號","OBJECTID":334005},"geometry":{"x":164769.5700000003,"y":2544595.1899999976}},{"attributes":{"ID":334015,"DIS_CODE":0,"TOWNNAME":"安平區","LI":"平安里","LIN":"20鄰","STREET":"安北路","SECT":" ","MAREA":" ","LANE":"１６巷","ALLEY":" ","HOUSE_NO":"３８號","E_COORD97":164771.04999999999,"N_COORD97":2544599.6400000001,"ADDRESS":"安北路１６巷３８號","OBJECTID":334006},"geometry":{"x":164771.04999999981,"y":2544599.6400000006}},{"attributes":{"ID":334016,"DIS_CODE":0,"TOWNNAME":"善化區","LI":"光文里","LIN":"15鄰","STREET":"樹人路","SECT":" ","MAREA":" ","LANE":"７巷","ALLEY":" ","HOUSE_NO":"１３號","E_COORD97":178335.91,"N_COORD97":2558895.5,"ADDRESS":"樹人路７巷１３號","OBJECTID":334007},"geometry":{"x":178335.90999999922,"y":2558895.5000000019}},{"attributes":{"ID":334017,"DIS_CODE":0,"TOWNNAME":"善化區","LI":"光文里","LIN":"15鄰","STREET":"樹人路","SECT":" ","MAREA":" ","LANE":"３７巷","ALLEY":" ","HOUSE_NO":"９號","E_COORD97":178328.14000000001,"N_COORD97":2558984.75,"ADDRESS":"樹人路３７巷９號","OBJECTID":334008},"geometry":{"x":178328.13999999966,"y":2558984.7500000019}},{"attributes":{"ID":334018,"DIS_CODE":0,"TOWNNAME":"善化區","LI":"光文里","LIN":"15鄰","STREET":"樹人路","SECT":" ","MAREA":" ","LANE":"３７巷","ALLEY":" ","HOUSE_NO":"１５號","E_COORD97":178316.89000000001,"N_COORD97":2558983,"ADDRESS":"樹人路３７巷１５號","OBJECTID":334009},"geometry":{"x":178316.88999999873,"y":2558983.0000000019}},{"attributes":{"ID":334019,"DIS_CODE":0,"TOWNNAME":"善化區","LI":"光文里","LIN":"15鄰","STREET":"樹人路","SECT":" ","MAREA":" ","LANE":"７巷","ALLEY":" ","HOUSE_NO":"２２號","E_COORD97":178322.04000000001,"N_COORD97":2558909.25,"ADDRESS":"樹人路７巷２２號","OBJECTID":334010},"geometry":{"x":178322.04000000097,"y":2558909.25}},{"attributes":{"ID":334020,"DIS_CODE":0,"TOWNNAME":"善化區","LI":"光文里","LIN":"15鄰","STREET":"樹人路","SECT":" ","MAREA":" ","LANE":"７巷","ALLEY":" ","HOUSE_NO":"２１號","E_COORD97":178314.04000000001,"N_COORD97":2558893,"ADDRESS":"樹人路７巷２１號","OBJECTID":334011},"geometry":{"x":178314.04000000004,"y":2558893}},{"attributes":{"ID":334021,"DIS_CODE":0,"TOWNNAME":"善化區","LI":"光文里","LIN":"15鄰","STREET":"樹人路","SECT":" ","MAREA":" ","LANE":"７巷","ALLEY":" ","HOUSE_NO":"８號","E_COORD97":178353.64000000001,"N_COORD97":2558914,"ADDRESS":"樹人路７巷８號","OBJECTID":334012},"geometry":{"x":178353.63999999966,"y":2558914}},{"attributes":{"ID":334022,"DIS_CODE":0,"TOWNNAME":"善化區","LI":"光文里","LIN":"15鄰","STREET":"樹人路","SECT":" ","MAREA":" ","LANE":"３７巷","ALLEY":" ","HOUSE_NO":"１０號","E_COORD97":178332.29000000001,"N_COORD97":2558975.75,"ADDRESS":"樹人路３７巷１０號","OBJECTID":334013},"geometry":{"x":178332.29000000097,"y":2558975.7500000019}},{"attributes":{"ID":334023,"DIS_CODE":0,"TOWNNAME":"善化區","LI":"光文里","LIN":"15鄰","STREET":"樹人路","SECT":" ","MAREA":" ","LANE":"３７巷","ALLEY":" ","HOUSE_NO":"１３號","E_COORD97":178320.79999999999,"N_COORD97":2558983.5,"ADDRESS":"樹人路３７巷１３號","OBJECTID":334014},"geometry":{"x":178320.79999999981,"y":2558983.5000000019}},{"attributes":{"ID":334024,"DIS_CODE":0,"TOWNNAME":"中西區","LI":"三民里","LIN":"15鄰","STREET":"公園路","SECT":" ","MAREA":" ","LANE":"４５巷","ALLEY":" ","HOUSE_NO":"１號","E_COORD97":168523.29999999999,"N_COORD97":2543919.75,"ADDRESS":"公園路４５巷１號","OBJECTID":334015},"geometry":{"x":168523.30000000075,"y":2543919.75}},{"attributes":{"ID":334025,"DIS_CODE":0,"TOWNNAME":"中西區","LI":"三民里","LIN":"15鄰","STREET":"公園路","SECT":" ","MAREA":" ","LANE":"４５巷","ALLEY":" ","HOUSE_NO":"２號","E_COORD97":168518.32999999999,"N_COORD97":2543923.77,"ADDRESS":"公園路４５巷２號","OBJECTID":334016},"geometry":{"x":168518.33000000101,"y":2543923.7700000033}},{"attributes":{"ID":334026,"DIS_CODE":0,"TOWNNAME":"中西區","LI":"三民里","LIN":"15鄰","STREET":"公園路","SECT":" ","MAREA":" ","LANE":"４５巷","ALLEY":" ","HOUSE_NO":"３號","E_COORD97":168510.75,"N_COORD97":2543923.0600000001,"ADDRESS":"公園路４５巷３號","OBJECTID":334017},"geometry":{"x":168510.75000000093,"y":2543923.0600000024}},{"attributes":{"ID":334027,"DIS_CODE":0,"TOWNNAME":"中西區","LI":"三民里","LIN":"15鄰","STREET":"民權路","SECT":"二段","MAREA":" ","LANE":"６４巷","ALLEY":" ","HOUSE_NO":"２號","E_COORD97":168493.94,"N_COORD97":2543919.75,"ADDRESS":"民權路二段６４巷２號","OBJECTID":334018},"geometry":{"x":168493.94000000227,"y":2543919.75}},{"attributes":{"ID":334028,"DIS_CODE":0,"TOWNNAME":"新營區","LI":"興業里","LIN":" ","STREET":"中興路","SECT":" ","MAREA":" ","LANE":"１５巷","ALLEY":" ","HOUSE_NO":"２７之１號","E_COORD97":180281.70000000001,"N_COORD97":2577933.5600000001,"ADDRESS":"中興路１５巷２７之１號","OBJECTID":334019},"geometry":{"x":180281.70000000019,"y":2577933.5600000005}},{"attributes":{"ID":334029,"DIS_CODE":0,"TOWNNAME":"新營區","LI":"新東里","LIN":"5鄰","STREET":"東大街","SECT":" ","MAREA":" ","LANE":"５２巷","ALLEY":" ","HOUSE_NO":"３７號","E_COORD97":181110.41,"N_COORD97":2579158.8900000001,"ADDRESS":"東大街５２巷３７號","OBJECTID":334020},"geometry":{"x":181110.41000000015,"y":2579158.8900000006}},{"attributes":{"ID":334030,"DIS_CODE":0,"TOWNNAME":"左鎮區","LI":"睦光里","LIN":"4鄰","STREET":" ","SECT":" ","MAREA":"睦光","LANE":" ","ALLEY":" ","HOUSE_NO":"４２號","E_COORD97":190957.53636999999,"N_COORD97":2550344.0321599999,"ADDRESS":"睦４２號","OBJECTID":334021},"geometry":{"x":190957.5363700008,"y":2550344.0321600009}},{"attributes":{"ID":334031,"DIS_CODE":0,"TOWNNAME":"安南區","LI":"溪心里","LIN":"17鄰","STREET":"功安四街","SECT":" ","MAREA":" ","LANE":" ","ALLEY":" ","HOUSE_NO":"７７號","E_COORD97":166190.66,"N_COORD97":2550143.3300000001,"ADDRESS":"功安四街７７號","OBJECTID":334022},"geometry":{"x":166190.66000000108,"y":2550143.3300000019}},{"attributes":{"ID":334032,"DIS_CODE":0,"TOWNNAME":"安南區","LI":"溪心里","LIN":"17鄰","STREET":"仁安四街","SECT":" ","MAREA":" ","LANE":" ","ALLEY":" ","HOUSE_NO":"７６號","E_COORD97":166188.51999999999,"N_COORD97":2550154.3300000001,"ADDRESS":"仁安四街７６號","OBJECTID":334023},"geometry":{"x":166188.51999999862,"y":2550154.3300000001}},{"attributes":{"ID":334033,"DIS_CODE":0,"TOWNNAME":"安南區","LI":"溪心里","LIN":"17鄰","STREET":"仁安四街","SECT":" ","MAREA":" ","LANE":" ","ALLEY":" ","HOUSE_NO":"６８號","E_COORD97":166179.85000000001,"N_COORD97":2550134.3799999999,"ADDRESS":"仁安四街６８號","OBJECTID":334024},"geometry":{"x":166179.85000000056,"y":2550134.3800000008}},{"attributes":{"ID":334034,"DIS_CODE":0,"TOWNNAME":"白河區","LI":"永安里","LIN":"17鄰","STREET":"七賢街","SECT":" ","MAREA":" ","LANE":" ","ALLEY":" ","HOUSE_NO":"４９號","E_COORD97":189997.44,"N_COORD97":2582890.7400000002,"ADDRESS":"七賢街４９號","OBJECTID":334025},"geometry":{"x":189997.44000000227,"y":2582890.7400000021}},{"attributes":{"ID":334035,"DIS_CODE":0,"TOWNNAME":"白河區","LI":"永安里","LIN":"17鄰","STREET":"七賢街","SECT":" ","MAREA":" ","LANE":" ","ALLEY":" ","HOUSE_NO":"５１號","E_COORD97":190000.14999999999,"N_COORD97":2582894.7999999998,"ADDRESS":"七賢街５１號","OBJECTID":334026},"geometry":{"x":190000.15000000037,"y":2582894.8000000026}},{"attributes":{"ID":334036,"DIS_CODE":0,"TOWNNAME":"白河區","LI":"永安里","LIN":"17鄰","STREET":"十全街","SECT":" ","MAREA":" ","LANE":" ","ALLEY":" ","HOUSE_NO":"１８０號","E_COORD97":189945.70999999999,"N_COORD97":2582823.3399999999,"ADDRESS":"十全街１８０號","OBJECTID":334027},"geometry":{"x":189945.70999999996,"y":2582823.3399999999}},{"attributes":{"ID":334037,"DIS_CODE":0,"TOWNNAME":"安南區","LI":"學東里","LIN":"17鄰","STREET":"城北路","SECT":" ","MAREA":" ","LANE":" ","ALLEY":" ","HOUSE_NO":"７４４號","E_COORD97":160930.20000000001,"N_COORD97":2553023.3900000001,"ADDRESS":"城北路７４４號","OBJECTID":334028},"geometry":{"x":160930.20000000112,"y":2553023.3900000006}},{"attributes":{"ID":334038,"DIS_CODE":0,"TOWNNAME":"安南區","LI":"學東里","LIN":"17鄰","STREET":"城北路","SECT":" ","MAREA":" ","LANE":" ","ALLEY":" ","HOUSE_NO":"７４６號","E_COORD97":160928.95000000001,"N_COORD97":2553028.3799999999,"ADDRESS":"城北路７４６號","OBJECTID":334029},"geometry":{"x":160928.95000000019,"y":2553028.379999999}},{"attributes":{"ID":334039,"DIS_CODE":0,"TOWNNAME":"七股區","LI":"義合里","LIN":"7鄰","STREET":" ","SECT":" ","MAREA":"義合","LANE":" ","ALLEY":" ","HOUSE_NO":"５３號之１１","E_COORD97":162881.57845199999,"N_COORD97":2555956.0802600002,"ADDRESS":"義合５３號之１１","OBJECTID":334030},"geometry":{"x":162881.57845200039,"y":2555956.080256002}},{"attributes":{"ID":334040,"DIS_CODE":0,"TOWNNAME":"安南區","LI":"州北里","LIN":"8鄰","STREET":"長和路","SECT":"三段","MAREA":" ","LANE":"１３６巷","ALLEY":" ","HOUSE_NO":"８號","E_COORD97":169535.09135999999,"N_COORD97":2551593.9591199998,"ADDRESS":"長和路三段１３６巷８號","OBJECTID":334031},"geometry":{"x":169535.09136000089,"y":2551593.9591230024}},{"attributes":{"ID":334041,"DIS_CODE":0,"TOWNNAME":"安南區","LI":"州北里","LIN":"8鄰","STREET":"長和路","SECT":"三段","MAREA":" ","LANE":"１３６巷","ALLEY":" ","HOUSE_NO":"１２號","E_COORD97":169531.913929,"N_COORD97":2551602.00245,"ADDRESS":"長和路三段１３６巷１２號","OBJECTID":334032},"geometry":{"x":169531.91392899957,"y":2551602.0024510007}},{"attributes":{"ID":334042,"DIS_CODE":0,"TOWNNAME":"安南區","LI":"州北里","LIN":"8鄰","STREET":"長和路","SECT":"三段","MAREA":" ","LANE":"１３６巷","ALLEY":" ","HOUSE_NO":"１６號","E_COORD97":169530.21929899999,"N_COORD97":2551606.87078,"ADDRESS":"長和路三段１３６巷１６號","OBJECTID":334033},"geometry":{"x":169530.21929900069,"y":2551606.8707819991}},{"attributes":{"ID":334043,"DIS_CODE":0,"TOWNNAME":"關廟區","LI":"龜洞里","LIN":"4鄰","STREET":"南雄南路","SECT":" ","MAREA":" ","LANE":" ","ALLEY":" ","HOUSE_NO":"７７２號","E_COORD97":183270.44594100001,"N_COORD97":2533418.9794000001,"ADDRESS":"南雄南路７７２號","OBJECTID":334034},"geometry":{"x":183270.44594100211,"y":2533418.9794009998}},{"attributes":{"ID":334044,"DIS_CODE":0,"TOWNNAME":"關廟區","LI":"龜洞里","LIN":"4鄰","STREET":"南雄南路","SECT":" ","MAREA":" ","LANE":" ","ALLEY":" ","HOUSE_NO":"７８０號","E_COORD97":183258.15734999999,"N_COORD97":2533411.1477399999,"ADDRESS":"南雄南路７８０號","OBJECTID":334035},"geometry":{"x":183258.15734999999,"y":2533411.1477389988}},{"attributes":{"ID":334045,"DIS_CODE":0,"TOWNNAME":"永康區","LI":"建國里","LIN":"26鄰","STREET":"慈光九村","SECT":" ","MAREA":" ","LANE":" ","ALLEY":" ","HOUSE_NO":"１７號之３","E_COORD97":172654.41805199999,"N_COORD97":2544159.1734199999,"ADDRESS":"慈光九村１７號之３","OBJECTID":334036},"geometry":{"x":172654.41805199999,"y":2544159.1734190043}},{"attributes":{"ID":334046,"DIS_CODE":0,"TOWNNAME":"永康區","LI":"建國里","LIN":"25鄰","STREET":"慈光九村","SECT":" ","MAREA":" ","LANE":" ","ALLEY":" ","HOUSE_NO":"２號之３","E_COORD97":172672.006727,"N_COORD97":2544207.0100599998,"ADDRESS":"慈光九村２號之３","OBJECTID":334037},"geometry":{"x":172672.0067270007,"y":2544207.0100600012}},{"attributes":{"ID":334047,"DIS_CODE":0,"TOWNNAME":"新營區","LI":"新北里","LIN":"18鄰","STREET":"民生路","SECT":" ","MAREA":" ","LANE":"１８２巷","ALLEY":" ","HOUSE_NO":"１１號","E_COORD97":179137.64000000001,"N_COORD97":2579014.2599999998,"ADDRESS":"民生路１８２巷１１號","OBJECTID":334038},"geometry":{"x":179137.6400000006,"y":2579014.2600000035}},{"attributes":{"ID":334048,"DIS_CODE":0,"TOWNNAME":"中西區","LI":"三民里","LIN":"15鄰","STREET":"公園路","SECT":" ","MAREA":" ","LANE":"４５巷","ALLEY":" ","HOUSE_NO":"６號","E_COORD97":168506.25,"N_COORD97":2543927.3100000001,"ADDRESS":"公園路４５巷６號","OBJECTID":334039},"geometry":{"x":168506.25,"y":2543927.3100000005}},{"attributes":{"ID":334049,"DIS_CODE":0,"TOWNNAME":"中西區","LI":"三民里","LIN":"15鄰","STREET":"公園路","SECT":" ","MAREA":" ","LANE":"４５巷","ALLEY":" ","HOUSE_NO":"７號","E_COORD97":168500.79999999999,"N_COORD97":2543925.1899999999,"ADDRESS":"公園路４５巷７號","OBJECTID":334040},"geometry":{"x":168500.79999999981,"y":2543925.1900000013}},{"attributes":{"ID":334050,"DIS_CODE":0,"TOWNNAME":"中西區","LI":"三民里","LIN":"15鄰","STREET":"公園路","SECT":" ","MAREA":" ","LANE":"４５巷","ALLEY":" ","HOUSE_NO":"８號","E_COORD97":168492.98000000001,"N_COORD97":2543929.4399999999,"ADDRESS":"公園路４５巷８號","OBJECTID":334041},"geometry":{"x":168492.98000000045,"y":2543929.4400000032}},{"attributes":{"ID":334051,"DIS_CODE":0,"TOWNNAME":"中西區","LI":"三民里","LIN":"15鄰","STREET":"民權路","SECT":"二段","MAREA":" ","LANE":"６４巷","ALLEY":" ","HOUSE_NO":"１０號","E_COORD97":168504.35000000001,"N_COORD97":2543937.0099999998,"ADDRESS":"民權路二段６４巷１０號","OBJECTID":334042},"geometry":{"x":168504.35000000056,"y":2543937.0100000016}},{"attributes":{"ID":334052,"DIS_CODE":0,"TOWNNAME":"中西區","LI":"三民里","LIN":"15鄰","STREET":"民權路","SECT":"二段","MAREA":" ","LANE":"６４巷","ALLEY":" ","HOUSE_NO":"１２號","E_COORD97":168527.32000000001,"N_COORD97":2543937.48,"ADDRESS":"民權路二段６４巷１２號","OBJECTID":334043},"geometry":{"x":168527.32000000123,"y":2543937.4800000023}},{"attributes":{"ID":334053,"DIS_CODE":0,"TOWNNAME":"中西區","LI":"三民里","LIN":"15鄰","STREET":"民權路","SECT":"二段","MAREA":" ","LANE":"６４巷","ALLEY":" ","HOUSE_NO":"１４號","E_COORD97":168522.82000000001,"N_COORD97":2543939.1400000001,"ADDRESS":"民權路二段６４巷１４號","OBJECTID":334044},"geometry":{"x":168522.8200000003,"y":2543939.1400000043}},{"attributes":{"ID":334054,"DIS_CODE":0,"TOWNNAME":"中西區","LI":"三民里","LIN":"15鄰","STREET":"民權路","SECT":"二段","MAREA":" ","LANE":"６４巷","ALLEY":" ","HOUSE_NO":"１６號","E_COORD97":168513.59,"N_COORD97":2543941.5099999998,"ADDRESS":"民權路二段６４巷１６號","OBJECTID":334045},"geometry":{"x":168513.58999999985,"y":2543941.5099999998}},{"attributes":{"ID":334055,"DIS_CODE":0,"TOWNNAME":"中西區","LI":"三民里","LIN":"15鄰","STREET":"民權路","SECT":"二段","MAREA":" ","LANE":"６４巷","ALLEY":" ","HOUSE_NO":"１８號","E_COORD97":168506.25,"N_COORD97":2543942.6899999999,"ADDRESS":"民權路二段６４巷１８號","OBJECTID":334046},"geometry":{"x":168506.25,"y":2543942.6900000013}},{"attributes":{"ID":334056,"DIS_CODE":0,"TOWNNAME":"中西區","LI":"三民里","LIN":"15鄰","STREET":"民權路","SECT":"二段","MAREA":" ","LANE":"６４巷","ALLEY":" ","HOUSE_NO":"２０號","E_COORD97":168497.95999999999,"N_COORD97":2543946,"ADDRESS":"民權路二段６４巷２０號","OBJECTID":334047},"geometry":{"x":168497.95999999996,"y":2543945.9999999981}},{"attributes":{"ID":334057,"DIS_CODE":0,"TOWNNAME":"中西區","LI":"三民里","LIN":"15鄰","STREET":"民權路","SECT":"二段","MAREA":" ","LANE":"６４巷","ALLEY":" ","HOUSE_NO":"２２號","E_COORD97":168498.67000000001,"N_COORD97":2543950.2599999998,"ADDRESS":"民權路二段６４巷２２號","OBJECTID":334048},"geometry":{"x":168498.67000000179,"y":2543950.2599999998}},{"attributes":{"ID":334058,"DIS_CODE":0,"TOWNNAME":"中西區","LI":"三民里","LIN":"15鄰","STREET":"民權路","SECT":"二段","MAREA":" ","LANE":"６４巷","ALLEY":" ","HOUSE_NO":"２４號","E_COORD97":168499.38,"N_COORD97":2543954.75,"ADDRESS":"民權路二段６４巷２４號","OBJECTID":334049},"geometry":{"x":168499.38000000082,"y":2543954.7500000037}},{"attributes":{"ID":334059,"DIS_CODE":0,"TOWNNAME":"中西區","LI":"三民里","LIN":"15鄰","STREET":"民權路","SECT":"二段","MAREA":" ","LANE":"６４巷","ALLEY":" ","HOUSE_NO":"２６號","E_COORD97":168499.62,"N_COORD97":2543959.9500000002,"ADDRESS":"民權路二段６４巷２６號","OBJECTID":334050},"geometry":{"x":168499.62000000104,"y":2543959.9500000011}},{"attributes":{"ID":334060,"DIS_CODE":0,"TOWNNAME":"中西區","LI":"三民里","LIN":"15鄰","STREET":"民權路","SECT":"二段","MAREA":" ","LANE":"６４巷","ALLEY":" ","HOUSE_NO":"３０號","E_COORD97":168500.56,"N_COORD97":2543963.7400000002,"ADDRESS":"民權路二段６４巷３０號","OBJECTID":334051},"geometry":{"x":168500.55999999866,"y":2543963.7400000002}},{"attributes":{"ID":334061,"DIS_CODE":0,"TOWNNAME":"中西區","LI":"三民里","LIN":"15鄰","STREET":"民權路","SECT":"二段","MAREA":" ","LANE":"６４巷","ALLEY":" ","HOUSE_NO":"６號","E_COORD97":168495.59,"N_COORD97":2543938.1899999999,"ADDRESS":"民權路二段６４巷６號","OBJECTID":334052},"geometry":{"x":168495.59000000171,"y":2543938.1900000013}},{"attributes":{"ID":334062,"DIS_CODE":0,"TOWNNAME":"永康區","LI":"網寮里","LIN":"15鄰","STREET":"永勝街","SECT":" ","MAREA":" ","LANE":"２４８巷","ALLEY":" ","HOUSE_NO":"３號","E_COORD97":173398.01000000001,"N_COORD97":2546645.5099999998,"ADDRESS":"永勝街２４８巷３號","OBJECTID":334053},"geometry":{"x":173398.00999999978,"y":2546645.5100000016}},{"attributes":{"ID":334063,"DIS_CODE":0,"TOWNNAME":"永康區","LI":"復興里","LIN":"15鄰","STREET":"復興路","SECT":" ","MAREA":" ","LANE":"３５６巷","ALLEY":" ","HOUSE_NO":"１７號","E_COORD97":172247,"N_COORD97":2544386.77,"ADDRESS":"復興路３５６巷１７號","OBJECTID":334054},"geometry":{"x":172247.00000000093,"y":2544386.7699999996}},{"attributes":{"ID":334064,"DIS_CODE":0,"TOWNNAME":"永康區","LI":"網寮里","LIN":"15鄰","STREET":"永勝街","SECT":" ","MAREA":" ","LANE":"２４８巷","ALLEY":" ","HOUSE_NO":"６號","E_COORD97":173393.28,"N_COORD97":2546635.8399999999,"ADDRESS":"永勝街２４８巷６號","OBJECTID":334055},"geometry":{"x":173393.28000000026,"y":2546635.8400000036}},{"attributes":{"ID":334065,"DIS_CODE":0,"TOWNNAME":"東區","LI":"富強里","LIN":"15鄰","STREET":"裕農路","SECT":" ","MAREA":" ","LANE":"３５０巷","ALLEY":" ","HOUSE_NO":"８號","E_COORD97":171015.23000000001,"N_COORD97":2543018.9100000001,"ADDRESS":"裕農路３５０巷８號","OBJECTID":334056},"geometry":{"x":171015.23000000045,"y":2543018.910000002}},{"attributes":{"ID":334066,"DIS_CODE":0,"TOWNNAME":"安南區","LI":"大安里","LIN":"17鄰","STREET":"義安街","SECT":" ","MAREA":" ","LANE":" ","ALLEY":" ","HOUSE_NO":"１５４號","E_COORD97":167549.92999999999,"N_COORD97":2548215.0600000001,"ADDRESS":"義安街１５４號","OBJECTID":334057},"geometry":{"x":167549.9299999997,"y":2548215.0600000042}},{"attributes":{"ID":334067,"DIS_CODE":0,"TOWNNAME":"安南區","LI":"大安里","LIN":"19鄰","STREET":"安通路","SECT":"五段","MAREA":" ","LANE":"２３０巷","ALLEY":" ","HOUSE_NO":"１１２號之１","E_COORD97":167783.38279199999,"N_COORD97":2548030.26193,"ADDRESS":"安通路五段２３０巷１１２號之１","OBJECTID":334058},"geometry":{"x":167783.38279199973,"y":2548030.2619250026}},{"attributes":{"ID":334068,"DIS_CODE":0,"TOWNNAME":"仁德區","LI":"仁愛里","LIN":"27鄰","STREET":"大同路","SECT":"三段","MAREA":" ","LANE":" ","ALLEY":" ","HOUSE_NO":"２８１號","E_COORD97":169795.424493,"N_COORD97":2539502.7248900002,"ADDRESS":"大同路三段２８１號","OBJECTID":334059},"geometry":{"x":169795.42449299991,"y":2539502.7248870041}},{"attributes":{"ID":334069,"DIS_CODE":0,"TOWNNAME":"麻豆區","LI":"麻口里","LIN":"8鄰","STREET":" ","SECT":" ","MAREA":"麻豆口","LANE":" ","ALLEY":" ","HOUSE_NO":"８１號之５","E_COORD97":169875.86459000001,"N_COORD97":2564312.9583200002,"ADDRESS":"麻豆口８１號之５","OBJECTID":334060},"geometry":{"x":169875.86459000036,"y":2564312.9583199993}},{"attributes":{"ID":334070,"DIS_CODE":0,"TOWNNAME":"下營區","LI":"西連里","LIN":"3鄰","STREET":" ","SECT":" ","MAREA":"連表","LANE":" ","ALLEY":" ","HOUSE_NO":"３１號","E_COORD97":174853.28548699999,"N_COORD97":2567798.1527800001,"ADDRESS":"連表３１號","OBJECTID":334061},"geometry":{"x":174853.28548700176,"y":2567798.1527770013}},{"attributes":{"ID":334071,"DIS_CODE":0,"TOWNNAME":"七股區","LI":"義合里","LIN":"11鄰","STREET":" ","SECT":" ","MAREA":"義合","LANE":" ","ALLEY":" ","HOUSE_NO":"８３號之３","E_COORD97":161721.375237,"N_COORD97":2555691.8145699999,"ADDRESS":"義合８３號之３","OBJECTID":334062},"geometry":{"x":161721.37523700017,"y":2555691.8145650011}},{"attributes":{"ID":334072,"DIS_CODE":0,"TOWNNAME":"仁德區","LI":"仁愛里","LIN":"27鄰","STREET":"大同路","SECT":"三段","MAREA":" ","LANE":" ","ALLEY":" ","HOUSE_NO":"２８７號","E_COORD97":169797.33187200001,"N_COORD97":2539487.2732299999,"ADDRESS":"大同路三段２８７號","OBJECTID":334063},"geometry":{"x":169797.33187199943,"y":2539487.2732280008}},{"attributes":{"ID":334073,"DIS_CODE":0,"TOWNNAME":"仁德區","LI":"仁愛里","LIN":"27鄰","STREET":"大同路","SECT":"三段","MAREA":" ","LANE":" ","ALLEY":" ","HOUSE_NO":"２８９號","E_COORD97":169800.38083000001,"N_COORD97":2539482.85989,"ADDRESS":"大同路三段２８９號","OBJECTID":334064},"geometry":{"x":169800.38083000015,"y":2539482.8598900009}},{"attributes":{"ID":334074,"DIS_CODE":0,"TOWNNAME":"仁德區","LI":"仁愛里","LIN":"27鄰","STREET":"大同路","SECT":"三段","MAREA":" ","LANE":" ","ALLEY":" ","HOUSE_NO":"３１５號","E_COORD97":169802.05433000001,"N_COORD97":2539432.7475000001,"ADDRESS":"大同路三段３１５號","OBJECTID":334065},"geometry":{"x":169802.05432999972,"y":2539432.7474990021}},{"attributes":{"ID":334075,"DIS_CODE":0,"TOWNNAME":"仁德區","LI":"仁愛里","LIN":"27鄰","STREET":"大同路","SECT":"三段","MAREA":" ","LANE":" ","ALLEY":" ","HOUSE_NO":"３１７號","E_COORD97":169803.11360400001,"N_COORD97":2539427.45584,"ADDRESS":"大同路三段３１７號","OBJECTID":334066},"geometry":{"x":169803.11360399984,"y":2539427.4558350034}},{"attributes":{"ID":334076,"DIS_CODE":0,"TOWNNAME":"關廟區","LI":"香洋里","LIN":"20鄰","STREET":"中山路","SECT":"一段","MAREA":" ","LANE":" ","ALLEY":" ","HOUSE_NO":"３８２號","E_COORD97":181552.89126100001,"N_COORD97":2539924.37806,"ADDRESS":"中山路一段３８２號","OBJECTID":334067},"geometry":{"x":181552.89126100019,"y":2539924.3780599982}},{"attributes":{"ID":334077,"DIS_CODE":0,"TOWNNAME":"仁德區","LI":"仁愛里","LIN":"27鄰","STREET":"大同路","SECT":"三段","MAREA":" ","LANE":" ","ALLEY":" ","HOUSE_NO":"３２５號","E_COORD97":169805.44400600001,"N_COORD97":2539406.2891799998,"ADDRESS":"大同路三段３２５號","OBJECTID":334068},"geometry":{"x":169805.44400600158,"y":2539406.2891799994}},{"attributes":{"ID":334078,"DIS_CODE":0,"TOWNNAME":"仁德區","LI":"仁愛里","LIN":"27鄰","STREET":"大同路","SECT":"三段","MAREA":" ","LANE":" ","ALLEY":" ","HOUSE_NO":"３２７號","E_COORD97":169806.07957100001,"N_COORD97":2539401.63252,"ADDRESS":"大同路三段３２７號","OBJECTID":334069},"geometry":{"x":169806.0795710003,"y":2539401.6325160041}},{"attributes":{"ID":334079,"DIS_CODE":0,"TOWNNAME":"白河區","LI":"永安里","LIN":"7鄰","STREET":"十全街","SECT":" ","MAREA":" ","LANE":" ","ALLEY":" ","HOUSE_NO":"３１８號","E_COORD97":189710.51999999999,"N_COORD97":2583147.3199999998,"ADDRESS":"十全街３１８號","OBJECTID":334070},"geometry":{"x":189710.51999999955,"y":2583147.320000004}},{"attributes":{"ID":334080,"DIS_CODE":0,"TOWNNAME":"仁德區","LI":"仁愛里","LIN":"27鄰","STREET":"大同路","SECT":"三段","MAREA":" ","LANE":" ","ALLEY":" ","HOUSE_NO":"３４５號","E_COORD97":169809.892957,"N_COORD97":2539363.53254,"ADDRESS":"大同路三段３４５號","OBJECTID":334071},"geometry":{"x":169809.89295700006,"y":2539363.5325360019}},{"attributes":{"ID":334081,"DIS_CODE":0,"TOWNNAME":"仁德區","LI":"仁德里","LIN":"19鄰","STREET":"文華一街","SECT":" ","MAREA":" ","LANE":" ","ALLEY":" ","HOUSE_NO":"１０６之１號","E_COORD97":172366.404109,"N_COORD97":2540200.5492400001,"ADDRESS":"文華一街１０６之１號","OBJECTID":334072},"geometry":{"x":172366.40410900023,"y":2540200.5492380001}},{"attributes":{"ID":334082,"DIS_CODE":0,"TOWNNAME":"白河區","LI":"永安里","LIN":"7鄰","STREET":"十全街","SECT":" ","MAREA":" ","LANE":" ","ALLEY":" ","HOUSE_NO":"３２０號","E_COORD97":189709.85999999999,"N_COORD97":2583152.3700000001,"ADDRESS":"十全街３２０號","OBJECTID":334073},"geometry":{"x":189709.86000000127,"y":2583152.3700000029}},{"attributes":{"ID":334083,"DIS_CODE":0,"TOWNNAME":"白河區","LI":"永安里","LIN":"7鄰","STREET":"十全街","SECT":" ","MAREA":" ","LANE":" ","ALLEY":" ","HOUSE_NO":"３２２號","E_COORD97":189709.20999999999,"N_COORD97":2583157.4100000001,"ADDRESS":"十全街３２２號","OBJECTID":334074},"geometry":{"x":189709.21000000089,"y":2583157.410000002}},{"attributes":{"ID":334084,"DIS_CODE":0,"TOWNNAME":"白河區","LI":"外角里","LIN":"9鄰","STREET":"三民路","SECT":" ","MAREA":" ","LANE":" ","ALLEY":" ","HOUSE_NO":"１５６號","E_COORD97":191004.35999999999,"N_COORD97":2583351.0499999998,"ADDRESS":"三民路１５６號","OBJECTID":334075},"geometry":{"x":191004.36000000034,"y":2583351.0500000026}},{"attributes":{"ID":334085,"DIS_CODE":0,"TOWNNAME":"白河區","LI":"外角里","LIN":"9鄰","STREET":"三民路","SECT":" ","MAREA":" ","LANE":" ","ALLEY":" ","HOUSE_NO":"１６０之１號","E_COORD97":190979.14000000001,"N_COORD97":2583334.7799999998,"ADDRESS":"三民路１６０之１號","OBJECTID":334076},"geometry":{"x":190979.1400000006,"y":2583334.7799999993}},{"attributes":{"ID":334086,"DIS_CODE":0,"TOWNNAME":"白河區","LI":"外角里","LIN":"10鄰","STREET":"三民路","SECT":" ","MAREA":" ","LANE":" ","ALLEY":" ","HOUSE_NO":"４０號","E_COORD97":191225.73999999999,"N_COORD97":2583279.1899999999,"ADDRESS":"三民路４０號","OBJECTID":334077},"geometry":{"x":191225.74000000209,"y":2583279.1899999995}},{"attributes":{"ID":334087,"DIS_CODE":0,"TOWNNAME":"永康區","LI":"五王里","LIN":" ","STREET":"成功路","SECT":" ","MAREA":" ","LANE":" ","ALLEY":" ","HOUSE_NO":"７３號","E_COORD97":171463.25,"N_COORD97":2545538.46,"ADDRESS":"成功路７３號","OBJECTID":334078},"geometry":{"x":171463.25000000093,"y":2545538.4600000028}},{"attributes":{"ID":334088,"DIS_CODE":0,"TOWNNAME":"東區","LI":"大福里","LIN":"2鄰","STREET":"立德二路","SECT":" ","MAREA":" ","LANE":"２２巷","ALLEY":" ","HOUSE_NO":"３８號","E_COORD97":169532.959267,"N_COORD97":2541651.3324600002,"ADDRESS":"立德二路２２巷３８號","OBJECTID":334079},"geometry":{"x":169532.95926699974,"y":2541651.3324619997}},{"attributes":{"ID":334089,"DIS_CODE":0,"TOWNNAME":"歸仁區","LI":"媽廟里","LIN":"20鄰","STREET":"中正北路","SECT":"三段","MAREA":" ","LANE":"１６０巷","ALLEY":" ","HOUSE_NO":"１號","E_COORD97":177648.66,"N_COORD97":2543892.7200000002,"ADDRESS":"中正北路三段１６０巷１號","OBJECTID":334080},"geometry":{"x":177648.66000000015,"y":2543892.7200000025}},{"attributes":{"ID":334090,"DIS_CODE":0,"TOWNNAME":"仁德區","LI":"仁愛里","LIN":"27鄰","STREET":"大同路","SECT":"三段","MAREA":" ","LANE":" ","ALLEY":" ","HOUSE_NO":"３５５號","E_COORD97":169812.223359,"N_COORD97":2539342.7892100001,"ADDRESS":"大同路三段３５５號","OBJECTID":334081},"geometry":{"x":169812.2233590018,"y":2539342.789214002}},{"attributes":{"ID":334091,"DIS_CODE":0,"TOWNNAME":"歸仁區","LI":"新厝里","LIN":"20鄰","STREET":"大成六街","SECT":" ","MAREA":" ","LANE":"１１巷","ALLEY":" ","HOUSE_NO":"５號","E_COORD97":177648.23999999999,"N_COORD97":2540286.1800000002,"ADDRESS":"大成六街１１巷５號","OBJECTID":334082},"geometry":{"x":177648.24000000022,"y":2540286.1799999997}},{"attributes":{"ID":334092,"DIS_CODE":0,"TOWNNAME":"歸仁區","LI":"媽廟里","LIN":"20鄰","STREET":"中正北路","SECT":"三段","MAREA":" ","LANE":"１６０巷","ALLEY":" ","HOUSE_NO":"１３號","E_COORD97":177705.20999999999,"N_COORD97":2543888.7200000002,"ADDRESS":"中正北路三段１６０巷１３號","OBJECTID":334083},"geometry":{"x":177705.21000000089,"y":2543888.7200000025}},{"attributes":{"ID":334093,"DIS_CODE":0,"TOWNNAME":"歸仁區","LI":"歸仁里","LIN":"20鄰","STREET":"文化街","SECT":"一段","MAREA":" ","LANE":"１０１巷","ALLEY":" ","HOUSE_NO":"９號","E_COORD97":178054.64000000001,"N_COORD97":2541123.1299999999,"ADDRESS":"文化街一段１０１巷９號","OBJECTID":334084},"geometry":{"x":178054.6400000006,"y":2541123.129999999}},{"attributes":{"ID":334094,"DIS_CODE":0,"TOWNNAME":"歸仁區","LI":"南保里","LIN":"20鄰","STREET":"文化街","SECT":"三段","MAREA":" ","LANE":"１０５巷","ALLEY":" ","HOUSE_NO":"１５號","E_COORD97":176784.87,"N_COORD97":2541167.2599999998,"ADDRESS":"文化街三段１０５巷１５號","OBJECTID":334085},"geometry":{"x":176784.87000000011,"y":2541167.2599999998}},{"attributes":{"ID":334095,"DIS_CODE":0,"TOWNNAME":"歸仁區","LI":"南保里","LIN":"20鄰","STREET":"文化街","SECT":"三段","MAREA":" ","LANE":"１０５巷","ALLEY":" ","HOUSE_NO":"１１號","E_COORD97":176793.79000000001,"N_COORD97":2541187.3300000001,"ADDRESS":"文化街三段１０５巷１１號","OBJECTID":334086},"geometry":{"x":176793.79000000004,"y":2541187.3300000001}},{"attributes":{"ID":334096,"DIS_CODE":0,"TOWNNAME":"東區","LI":"富裕里","LIN":"15鄰","STREET":"東門路","SECT":"二段","MAREA":" ","LANE":"３０１巷","ALLEY":" ","HOUSE_NO":"８１號","E_COORD97":170930.07999999999,"N_COORD97":2542734.5299999998,"ADDRESS":"東門路二段３０１巷８１號","OBJECTID":334087},"geometry":{"x":170930.08000000007,"y":2542734.5299999993}},{"attributes":{"ID":334097,"DIS_CODE":0,"TOWNNAME":"永康區","LI":"正強里","LIN":"15鄰","STREET":"正強街","SECT":" ","MAREA":" ","LANE":"７１巷","ALLEY":" ","HOUSE_NO":"１６號","E_COORD97":173301.48000000001,"N_COORD97":2547323.1699999999,"ADDRESS":"正強街７１巷１６號","OBJECTID":334088},"geometry":{"x":173301.48000000138,"y":2547323.1700000018}},{"attributes":{"ID":334098,"DIS_CODE":0,"TOWNNAME":"新營區","LI":"太南里","LIN":"20鄰","STREET":" ","SECT":" ","MAREA":"太子宮","LANE":" ","ALLEY":" ","HOUSE_NO":"３３８號","E_COORD97":176424.64999999999,"N_COORD97":2577007.4900000002,"ADDRESS":"太子宮３３８號","OBJECTID":334089},"geometry":{"x":176424.6500000013,"y":2577007.4900000021}},{"attributes":{"ID":334099,"DIS_CODE":0,"TOWNNAME":"新營區","LI":"太北里","LIN":"20鄰","STREET":" ","SECT":" ","MAREA":"太子宮","LANE":" ","ALLEY":" ","HOUSE_NO":"１４０之６２號","E_COORD97":175188.39999999999,"N_COORD97":2576385.8199999998,"ADDRESS":"太子宮１４０之６２號","OBJECTID":334090},"geometry":{"x":175188.40000000224,"y":2576385.8200000003}},{"attributes":{"ID":334100,"DIS_CODE":0,"TOWNNAME":"新營區","LI":"南紙里","LIN":"20鄰","STREET":"南紙街","SECT":" ","MAREA":" ","LANE":"１１７巷","ALLEY":" ","HOUSE_NO":"４７號","E_COORD97":177970.42999999999,"N_COORD97":2577491.6099999999,"ADDRESS":"南紙街１１７巷４７號","OBJECTID":334091},"geometry":{"x":177970.4299999997,"y":2577491.6099999994}},{"attributes":{"ID":334101,"DIS_CODE":0,"TOWNNAME":"新營區","LI":"民生里","LIN":"20鄰","STREET":"進修街","SECT":" ","MAREA":" ","LANE":"２９巷","ALLEY":" ","HOUSE_NO":"１８號","E_COORD97":178934.54000000001,"N_COORD97":2578468.1499999999,"ADDRESS":"進修街２９巷１８號","OBJECTID":334092},"geometry":{"x":178934.54000000004,"y":2578468.1500000022}},{"attributes":{"ID":334102,"DIS_CODE":0,"TOWNNAME":"中西區","LI":"三合里","LIN":"15鄰","STREET":"信義街","SECT":" ","MAREA":" ","LANE":"１０８巷","ALLEY":" ","HOUSE_NO":"４５號","E_COORD97":167481.64000000001,"N_COORD97":2544622.3700000001,"ADDRESS":"信義街１０８巷４５號","OBJECTID":334093},"geometry":{"x":167481.6400000006,"y":2544622.370000001}},{"attributes":{"ID":334103,"DIS_CODE":0,"TOWNNAME":"新營區","LI":"太南里","LIN":"20鄰","STREET":" ","SECT":" ","MAREA":"太子宮","LANE":" ","ALLEY":" ","HOUSE_NO":"３４２之１５號","E_COORD97":176317.87,"N_COORD97":2576997.02,"ADDRESS":"太子宮３４２之１５號","OBJECTID":334094},"geometry":{"x":176317.87000000104,"y":2576997.0199999996}},{"attributes":{"ID":334104,"DIS_CODE":0,"TOWNNAME":"中西區","LI":"三合里","LIN":"15鄰","STREET":"信義街","SECT":" ","MAREA":" ","LANE":"１０８巷","ALLEY":" ","HOUSE_NO":"４９號","E_COORD97":167482.04999999999,"N_COORD97":2544624.6400000001,"ADDRESS":"信義街１０８巷４９號","OBJECTID":334095},"geometry":{"x":167482.04999999888,"y":2544624.6400000025}},{"attributes":{"ID":334105,"DIS_CODE":0,"TOWNNAME":"中西區","LI":"三合里","LIN":"15鄰","STREET":"信義街","SECT":" ","MAREA":" ","LANE":"１０８巷","ALLEY":" ","HOUSE_NO":"５１號","E_COORD97":167482.60999999999,"N_COORD97":2544626.0899999999,"ADDRESS":"信義街１０８巷５１號","OBJECTID":334096},"geometry":{"x":167482.61000000127,"y":2544626.0899999999}},{"attributes":{"ID":334106,"DIS_CODE":0,"TOWNNAME":"麻豆區","LI":"寮\u25A0里","LIN":"20鄰","STREET":" ","SECT":" ","MAREA":"寮子\u25A0","LANE":" ","ALLEY":" ","HOUSE_NO":"１６４號之２","E_COORD97":176335.70000000001,"N_COORD97":2565411.6699999999,"ADDRESS":"寮子\u25A0１６４號之２","OBJECTID":334097},"geometry":{"x":176335.70000000112,"y":2565411.6699999999}},{"attributes":{"ID":334107,"DIS_CODE":0,"TOWNNAME":"麻豆區","LI":"寮\u25A0里","LIN":"20鄰","STREET":" ","SECT":" ","MAREA":"寮子\u25A0","LANE":" ","ALLEY":" ","HOUSE_NO":"１６５號之７","E_COORD97":176253.35999999999,"N_COORD97":2565327.21,"ADDRESS":"寮子\u25A0１６５號之７","OBJECTID":334098},"geometry":{"x":176253.36000000127,"y":2565327.2100000028}},{"attributes":{"ID":334108,"DIS_CODE":0,"TOWNNAME":"安南區","LI":"安西里","LIN":"17鄰","STREET":"安通路","SECT":"四段","MAREA":" ","LANE":" ","ALLEY":" ","HOUSE_NO":"１２０號","E_COORD97":168719.73999999999,"N_COORD97":2547759.6299999999,"ADDRESS":"安通路四段１２０號","OBJECTID":334099},"geometry":{"x":168719.74000000022,"y":2547759.6300000008}},{"attributes":{"ID":334109,"DIS_CODE":0,"TOWNNAME":"安南區","LI":"安西里","LIN":"17鄰","STREET":"安通路","SECT":"四段","MAREA":" ","LANE":" ","ALLEY":" ","HOUSE_NO":"１２６號","E_COORD97":168692.22,"N_COORD97":2547761.7000000002,"ADDRESS":"安通路四段１２６號","OBJECTID":334100},"geometry":{"x":168692.21999999974,"y":2547761.700000003}},{"attributes":{"ID":334110,"DIS_CODE":0,"TOWNNAME":"永康區","LI":"復華里","LIN":"28鄰","STREET":"復華八街","SECT":" ","MAREA":" ","LANE":"３９巷","ALLEY":" ","HOUSE_NO":"２２之１號","E_COORD97":172674.87414,"N_COORD97":2546253.56868,"ADDRESS":"復華八街３９巷２２之１號","OBJECTID":334101},"geometry":{"x":172674.8741400009,"y":2546253.5686799996}},{"attributes":{"ID":334111,"DIS_CODE":0,"TOWNNAME":"安南區","LI":"頂安里","LIN":"6鄰","STREET":"怡安路","SECT":"一段","MAREA":" ","LANE":"３８４巷","ALLEY":" ","HOUSE_NO":"１５號","E_COORD97":168718.403681,"N_COORD97":2549199.4501399999,"ADDRESS":"怡安路一段３８４巷１５號","OBJECTID":334102},"geometry":{"x":168718.40368099976,"y":2549199.4501419999}},{"attributes":{"ID":334112,"DIS_CODE":0,"TOWNNAME":"仁德區","LI":"仁德里","LIN":"3鄰","STREET":"仁中五街","SECT":" ","MAREA":" ","LANE":"１６９巷","ALLEY":" ","HOUSE_NO":"３９號","E_COORD97":173131.788997,"N_COORD97":2540231.16151,"ADDRESS":"仁中五街１６９巷３９號","OBJECTID":334103},"geometry":{"x":173131.78899700101,"y":2540231.1615130026}},{"attributes":{"ID":334113,"DIS_CODE":0,"TOWNNAME":"六甲區","LI":"甲東里","LIN":"3鄰","STREET":"仁愛街","SECT":" ","MAREA":" ","LANE":"６０巷","ALLEY":" ","HOUSE_NO":"３之１號","E_COORD97":183913.14970800001,"N_COORD97":2570026.8546199999,"ADDRESS":"仁愛街６０巷３之１號","OBJECTID":334104},"geometry":{"x":183913.14970800187,"y":2570026.8546149991}},{"attributes":{"ID":334114,"DIS_CODE":0,"TOWNNAME":"仁德區","LI":"仁愛里","LIN":"27鄰","STREET":"亞航街","SECT":" ","MAREA":" ","LANE":"２５巷","ALLEY":" ","HOUSE_NO":"１６號","E_COORD97":169879.07118699999,"N_COORD97":2539309.11895,"ADDRESS":"亞航街２５巷１６號","OBJECTID":334105},"geometry":{"x":169879.07118700165,"y":2539309.1189549994}},{"attributes":{"ID":334115,"DIS_CODE":0,"TOWNNAME":"仁德區","LI":"仁愛里","LIN":"27鄰","STREET":"亞航街","SECT":" ","MAREA":" ","LANE":"２５巷","ALLEY":" ","HOUSE_NO":"９８號","E_COORD97":169857.250145,"N_COORD97":2539470.8322000001,"ADDRESS":"亞航街２５巷９８號","OBJECTID":334106},"geometry":{"x":169857.25014500227,"y":2539470.8322010022}},{"attributes":{"ID":334116,"DIS_CODE":0,"TOWNNAME":"仁德區","LI":"仁愛里","LIN":"27鄰","STREET":"亞航街","SECT":" ","MAREA":" ","LANE":"２５巷","ALLEY":" ","HOUSE_NO":"１２６號","E_COORD97":169852.16563,"N_COORD97":2539507.0271800002,"ADDRESS":"亞航街２５巷１２６號","OBJECTID":334107},"geometry":{"x":169852.16562999971,"y":2539507.0271819998}},{"attributes":{"ID":334117,"DIS_CODE":0,"TOWNNAME":"六甲區","LI":"甲東里","LIN":"2鄰","STREET":"仁愛街","SECT":" ","MAREA":" ","LANE":"６０巷","ALLEY":" ","HOUSE_NO":"２之１號","E_COORD97":183941.64324,"N_COORD97":2570006.2171200002,"ADDRESS":"仁愛街６０巷２之１號","OBJECTID":334108},"geometry":{"x":183941.64324000198,"y":2570006.2171200011}},{"attributes":{"ID":334118,"DIS_CODE":0,"TOWNNAME":"仁德區","LI":"仁愛里","LIN":"27鄰","STREET":"大同路","SECT":"三段","MAREA":" ","LANE":" ","ALLEY":" ","HOUSE_NO":"３７３號","E_COORD97":169817.30787399999,"N_COORD97":2539306.3825699999,"ADDRESS":"大同路三段３７３號","OBJECTID":334109},"geometry":{"x":169817.3078739997,"y":2539306.3825670015}},{"attributes":{"ID":334119,"DIS_CODE":0,"TOWNNAME":"仁德區","LI":"仁德里","LIN":"19鄰","STREET":"文華一街","SECT":" ","MAREA":" ","LANE":" ","ALLEY":" ","HOUSE_NO":"１０８之１號","E_COORD97":172365.55663800001,"N_COORD97":2540189.6484099999,"ADDRESS":"文華一街１０８之１號","OBJECTID":334110},"geometry":{"x":172365.55663800053,"y":2540189.648411002}},{"attributes":{"ID":334120,"DIS_CODE":0,"TOWNNAME":"仁德區","LI":"仁德里","LIN":"19鄰","STREET":"文華一街","SECT":" ","MAREA":" ","LANE":" ","ALLEY":" ","HOUSE_NO":"１０８之２號","E_COORD97":172356.23445700001,"N_COORD97":2540191.13008,"ADDRESS":"文華一街１０８之２號","OBJECTID":334111},"geometry":{"x":172356.23445700202,"y":2540191.1300770026}},{"attributes":{"ID":334121,"DIS_CODE":0,"TOWNNAME":"麻豆區","LI":"寮\u25A0里","LIN":"20鄰","STREET":" ","SECT":" ","MAREA":"寮子\u25A0","LANE":" ","ALLEY":" ","HOUSE_NO":"１６６號","E_COORD97":176361.39000000001,"N_COORD97":2565437.54,"ADDRESS":"寮子\u25A0１６６號","OBJECTID":334112},"geometry":{"x":176361.3900000006,"y":2565437.540000001}},{"attributes":{"ID":334122,"DIS_CODE":0,"TOWNNAME":"麻豆區","LI":"寮\u25A0里","LIN":"20鄰","STREET":" ","SECT":" ","MAREA":"寮子\u25A0","LANE":" ","ALLEY":" ","HOUSE_NO":"１６７號","E_COORD97":176387.01999999999,"N_COORD97":2565428.8799999999,"ADDRESS":"寮子\u25A0１６７號","OBJECTID":334113},"geometry":{"x":176387.02000000142,"y":2565428.8800000008}},{"attributes":{"ID":334123,"DIS_CODE":0,"TOWNNAME":"麻豆區","LI":"寮\u25A0里","LIN":"20鄰","STREET":" ","SECT":" ","MAREA":"寮子\u25A0","LANE":" ","ALLEY":" ","HOUSE_NO":"１６９號之１","E_COORD97":176395.53,"N_COORD97":2565409.8999999999,"ADDRESS":"寮子\u25A0１６９號之１","OBJECTID":334114},"geometry":{"x":176395.53000000026,"y":2565409.9000000022}},{"attributes":{"ID":334124,"DIS_CODE":0,"TOWNNAME":"關廟區","LI":"香洋里","LIN":"24鄰","STREET":"中山路","SECT":"一段","MAREA":" ","LANE":" ","ALLEY":" ","HOUSE_NO":"３８３號","E_COORD97":181142.87885400001,"N_COORD97":2539945.21997,"ADDRESS":"中山路一段３８３號","OBJECTID":334115},"geometry":{"x":181142.87885400094,"y":2539945.2199690025}},{"attributes":{"ID":334125,"DIS_CODE":0,"TOWNNAME":"永康區","LI":"復華里","LIN":"23鄰","STREET":"復華八街","SECT":" ","MAREA":" ","LANE":" ","ALLEY":" ","HOUSE_NO":"４０號","E_COORD97":172714.917082,"N_COORD97":2546209.43621,"ADDRESS":"復華八街４０號","OBJECTID":334116},"geometry":{"x":172714.91708200052,"y":2546209.4362059999}},{"attributes":{"ID":334126,"DIS_CODE":0,"TOWNNAME":"新營區","LI":"新南里","LIN":"25鄰","STREET":"復興路","SECT":" ","MAREA":" ","LANE":"６２０巷","ALLEY":" ","HOUSE_NO":"５２號","E_COORD97":178060.26999999999,"N_COORD97":2578520,"ADDRESS":"復興路６２０巷５２號","OBJECTID":334117},"geometry":{"x":178060.27000000048,"y":2578520}},{"attributes":{"ID":334127,"DIS_CODE":0,"TOWNNAME":"中西區","LI":"三合里","LIN":"15鄰","STREET":"信義街","SECT":" ","MAREA":" ","LANE":"１０８巷","ALLEY":" ","HOUSE_NO":"５３號","E_COORD97":167483.73000000001,"N_COORD97":2544635.8799999999,"ADDRESS":"信義街１０８巷５３號","OBJECTID":334118},"geometry":{"x":167483.73000000138,"y":2544635.8800000008}},{"attributes":{"ID":334128,"DIS_CODE":0,"TOWNNAME":"中西區","LI":"三合里","LIN":"15鄰","STREET":"信義街","SECT":" ","MAREA":" ","LANE":"１２２巷","ALLEY":" ","HOUSE_NO":"１０號","E_COORD97":167455.56,"N_COORD97":2544638.9300000002,"ADDRESS":"信義街１２２巷１０號","OBJECTID":334119},"geometry":{"x":167455.56000000052,"y":2544638.9300000016}},{"attributes":{"ID":334129,"DIS_CODE":0,"TOWNNAME":"安南區","LI":"安西里","LIN":"17鄰","STREET":"安通路","SECT":"四段","MAREA":" ","LANE":" ","ALLEY":" ","HOUSE_NO":"１２７號","E_COORD97":168687.48000000001,"N_COORD97":2547762.29,"ADDRESS":"安通路四段１２７號","OBJECTID":334120},"geometry":{"x":168687.48000000138,"y":2547762.290000001}},{"attributes":{"ID":334130,"DIS_CODE":0,"TOWNNAME":"安南區","LI":"安和里","LIN":"17鄰","STREET":"安和路","SECT":"一段","MAREA":" ","LANE":" ","ALLEY":" ","HOUSE_NO":"１５６號","E_COORD97":169464.20999999999,"N_COORD97":2547709.4100000001,"ADDRESS":"安和路一段１５６號","OBJECTID":334121},"geometry":{"x":169464.20999999996,"y":2547709.4100000001}},{"attributes":{"ID":334131,"DIS_CODE":0,"TOWNNAME":"安南區","LI":"安和里","LIN":"17鄰","STREET":"安和路","SECT":"一段","MAREA":" ","LANE":" ","ALLEY":" ","HOUSE_NO":"１５８號","E_COORD97":169460.47,"N_COORD97":2547714.6499999999,"ADDRESS":"安和路一段１５８號","OBJECTID":334122},"geometry":{"x":169460.46999999974,"y":2547714.6500000004}},{"attributes":{"ID":334132,"DIS_CODE":0,"TOWNNAME":"永康區","LI":"正強里","LIN":"8鄰","STREET":"正義街","SECT":" ","MAREA":" ","LANE":" ","ALLEY":" ","HOUSE_NO":"７１號","E_COORD97":173494.91,"N_COORD97":2547589.9700000002,"ADDRESS":"正義街７１號","OBJECTID":334123},"geometry":{"x":173494.91000000108,"y":2547589.9700000025}},{"attributes":{"ID":334133,"DIS_CODE":0,"TOWNNAME":"新營區","LI":"王公里","LIN":"33鄰","STREET":"民族路","SECT":" ","MAREA":" ","LANE":"３３０巷","ALLEY":" ","HOUSE_NO":"７號","E_COORD97":180426.45516799999,"N_COORD97":2579816.9435299998,"ADDRESS":"民族路３３０巷７號","OBJECTID":334124},"geometry":{"x":180426.45516800042,"y":2579816.9435339998}},{"attributes":{"ID":334134,"DIS_CODE":0,"TOWNNAME":"七股區","LI":"義合里","LIN":"2鄰","STREET":" ","SECT":" ","MAREA":"義合","LANE":" ","ALLEY":" ","HOUSE_NO":"８號之１","E_COORD97":163040.28731700001,"N_COORD97":2556507.6275800001,"ADDRESS":"義合８號之１","OBJECTID":334125},"geometry":{"x":163040.28731700033,"y":2556507.6275849994}},{"attributes":{"ID":334135,"DIS_CODE":0,"TOWNNAME":"新營區","LI":"王公里","LIN":"33鄰","STREET":"民族路","SECT":" ","MAREA":" ","LANE":"３３０巷","ALLEY":" ","HOUSE_NO":"９號","E_COORD97":180430.26904799999,"N_COORD97":2579816.6260299999,"ADDRESS":"民族路３３０巷９號","OBJECTID":334126},"geometry":{"x":180430.26904799975,"y":2579816.6260340028}},{"attributes":{"ID":334136,"DIS_CODE":0,"TOWNNAME":"安南區","LI":"淵東里","LIN":"3鄰","STREET":"本原街","SECT":"三段","MAREA":" ","LANE":"２３４巷","ALLEY":" ","HOUSE_NO":"１１６號之３８","E_COORD97":165175.85652500001,"N_COORD97":2550732.3713199999,"ADDRESS":"本原街三段２３４巷１１６號之３８","OBJECTID":334127},"geometry":{"x":165175.85652500018,"y":2550732.3713190015}},{"attributes":{"ID":334137,"DIS_CODE":0,"TOWNNAME":"安南區","LI":"淵東里","LIN":"13鄰","STREET":"本原街","SECT":"三段","MAREA":" ","LANE":"５６巷","ALLEY":" ","HOUSE_NO":"６２號","E_COORD97":165672.15878100001,"N_COORD97":2550461.8614699999,"ADDRESS":"本原街三段５６巷６２號","OBJECTID":334128},"geometry":{"x":165672.15878100134,"y":2550461.8614650015}},{"attributes":{"ID":334138,"DIS_CODE":0,"TOWNNAME":"新營區","LI":"王公里","LIN":"33鄰","STREET":"民族路","SECT":" ","MAREA":" ","LANE":"３３０巷","ALLEY":" ","HOUSE_NO":"２５號","E_COORD97":180457.32542000001,"N_COORD97":2579817.1022800002,"ADDRESS":"民族路３３０巷２５號","OBJECTID":334129},"geometry":{"x":180457.32542000059,"y":2579817.1022800002}},{"attributes":{"ID":334139,"DIS_CODE":0,"TOWNNAME":"安南區","LI":"淵東里","LIN":"16鄰","STREET":"安中路","SECT":"三段","MAREA":" ","LANE":"２５６巷","ALLEY":" ","HOUSE_NO":"１９號","E_COORD97":165693.54381900001,"N_COORD97":2549954.70841,"ADDRESS":"安中路三段２５６巷１９號","OBJECTID":334130},"geometry":{"x":165693.54381900094,"y":2549954.7084050011}},{"attributes":{"ID":334140,"DIS_CODE":0,"TOWNNAME":"安南區","LI":"淵東里","LIN":"17鄰","STREET":"智安三街","SECT":" ","MAREA":" ","LANE":"５３巷","ALLEY":" ","HOUSE_NO":"４號","E_COORD97":165852.87293499999,"N_COORD97":2550172.1957899998,"ADDRESS":"智安三街５３巷４號","OBJECTID":334131},"geometry":{"x":165852.87293500174,"y":2550172.1957880016}},{"attributes":{"ID":334141,"DIS_CODE":0,"TOWNNAME":"仁德區","LI":"大甲里","LIN":"5鄰","STREET":"行大街","SECT":" ","MAREA":" ","LANE":"２８５巷","ALLEY":" ","HOUSE_NO":"１６號","E_COORD97":169728.74440900001,"N_COORD97":2535109.9412099998,"ADDRESS":"行大街２８５巷１６號","OBJECTID":334132},"geometry":{"x":169728.7444090005,"y":2535109.9412050042}},{"attributes":{"ID":334142,"DIS_CODE":0,"TOWNNAME":"六甲區","LI":"甲東里","LIN":"6鄰","STREET":"四維街","SECT":" ","MAREA":" ","LANE":"３４巷","ALLEY":" ","HOUSE_NO":"１號","E_COORD97":184027.13969000001,"N_COORD97":2570146.0122600002,"ADDRESS":"四維街３４巷１號","OBJECTID":334133},"geometry":{"x":184027.13969000056,"y":2570146.0122609995}},{"attributes":{"ID":334143,"DIS_CODE":0,"TOWNNAME":"仁德區","LI":"仁愛里","LIN":"26鄰","STREET":"大同路","SECT":"三段","MAREA":" ","LANE":" ","ALLEY":" ","HOUSE_NO":"３８８號","E_COORD97":169761.967,"N_COORD97":2539419.61931,"ADDRESS":"大同路三段３８８號","OBJECTID":334134},"geometry":{"x":169761.96700000018,"y":2539419.6193059999}},{"attributes":{"ID":334144,"DIS_CODE":0,"TOWNNAME":"關廟區","LI":"五甲里","LIN":"20鄰","STREET":"五智街","SECT":" ","MAREA":" ","LANE":"５０巷","ALLEY":" ","HOUSE_NO":"１號","E_COORD97":181141.32000000001,"N_COORD97":2539180.25,"ADDRESS":"五智街５０巷１號","OBJECTID":334135},"geometry":{"x":181141.32000000123,"y":2539180.25}},{"attributes":{"ID":334145,"DIS_CODE":0,"TOWNNAME":"關廟區","LI":"五甲里","LIN":"20鄰","STREET":"五智街","SECT":" ","MAREA":" ","LANE":"５０巷","ALLEY":" ","HOUSE_NO":"１２號","E_COORD97":181180.97,"N_COORD97":2539183.25,"ADDRESS":"五智街５０巷１２號","OBJECTID":334136},"geometry":{"x":181180.96999999974,"y":2539183.25}},{"attributes":{"ID":334146,"DIS_CODE":0,"TOWNNAME":"麻豆區","LI":"寮\u25A0里","LIN":"20鄰","STREET":" ","SECT":" ","MAREA":"寮子\u25A0","LANE":" ","ALLEY":" ","HOUSE_NO":"１７０號","E_COORD97":176018.64999999999,"N_COORD97":2565415.77,"ADDRESS":"寮子\u25A0１７０號","OBJECTID":334137},"geometry":{"x":176018.65000000037,"y":2565415.7700000014}},{"attributes":{"ID":334147,"DIS_CODE":0,"TOWNNAME":"中西區","LI":"三合里","LIN":"15鄰","STREET":"信義街","SECT":" ","MAREA":" ","LANE":"１０８巷","ALLEY":" ","HOUSE_NO":"１１號","E_COORD97":167465.12,"N_COORD97":2544595.6499999999,"ADDRESS":"信義街１０８巷１１號","OBJECTID":334138},"geometry":{"x":167465.12000000197,"y":2544595.6500000004}},{"attributes":{"ID":334148,"DIS_CODE":0,"TOWNNAME":"中西區","LI":"三合里","LIN":"15鄰","STREET":"信義街","SECT":" ","MAREA":" ","LANE":"１０８巷","ALLEY":" ","HOUSE_NO":"１３號","E_COORD97":167464.47,"N_COORD97":2544596.46,"ADDRESS":"信義街１０８巷１３號","OBJECTID":334139},"geometry":{"x":167464.47000000067,"y":2544596.4600000028}},{"attributes":{"ID":334149,"DIS_CODE":0,"TOWNNAME":"中西區","LI":"三合里","LIN":"15鄰","STREET":"信義街","SECT":" ","MAREA":" ","LANE":"１０８巷","ALLEY":" ","HOUSE_NO":"１５號","E_COORD97":167463.42000000001,"N_COORD97":2544596.8599999999,"ADDRESS":"信義街１０８巷１５號","OBJECTID":334140},"geometry":{"x":167463.42000000086,"y":2544596.8599999994}},{"attributes":{"ID":334150,"DIS_CODE":0,"TOWNNAME":"中西區","LI":"三合里","LIN":"15鄰","STREET":"信義街","SECT":" ","MAREA":" ","LANE":"１０８巷","ALLEY":" ","HOUSE_NO":"１７號","E_COORD97":167459.60999999999,"N_COORD97":2544598.6400000001,"ADDRESS":"信義街１０８巷１７號","OBJECTID":334141},"geometry":{"x":167459.61000000034,"y":2544598.6400000006}},{"attributes":{"ID":334151,"DIS_CODE":0,"TOWNNAME":"中西區","LI":"安海里","LIN":"15鄰","STREET":"河中街","SECT":" ","MAREA":" ","LANE":"５３巷","ALLEY":" ","HOUSE_NO":"３號","E_COORD97":167285.94,"N_COORD97":2544084.0099999998,"ADDRESS":"河中街５３巷３號","OBJECTID":334142},"geometry":{"x":167285.94000000134,"y":2544084.0099999998}},{"attributes":{"ID":334152,"DIS_CODE":0,"TOWNNAME":"善化區","LI":"坐駕里","LIN":"17鄰","STREET":"興華路","SECT":" ","MAREA":" ","LANE":" ","ALLEY":" ","HOUSE_NO":"２６０號之３","E_COORD97":177921.91,"N_COORD97":2558543.27,"ADDRESS":"興華路２６０號之３","OBJECTID":334143},"geometry":{"x":177921.91000000015,"y":2558543.2700000014}},{"attributes":{"ID":334153,"DIS_CODE":0,"TOWNNAME":"善化區","LI":"坐駕里","LIN":"17鄰","STREET":"興華路","SECT":" ","MAREA":" ","LANE":" ","ALLEY":" ","HOUSE_NO":"２７１之５號","E_COORD97":177860.95999999999,"N_COORD97":2558478.27,"ADDRESS":"興華路２７１之５號","OBJECTID":334144},"geometry":{"x":177860.96000000183,"y":2558478.2699999977}},{"attributes":{"ID":334154,"DIS_CODE":0,"TOWNNAME":"仁德區","LI":"仁愛里","LIN":"26鄰","STREET":"大同路","SECT":"三段","MAREA":" ","LANE":"３５８巷","ALLEY":" ","HOUSE_NO":"２１號","E_COORD97":169733.82500000001,"N_COORD97":2539405.0407699998,"ADDRESS":"大同路三段３５８巷２１號","OBJECTID":334145},"geometry":{"x":169733.82500000112,"y":2539405.0407699998}},{"attributes":{"ID":334155,"DIS_CODE":0,"TOWNNAME":"關廟區","LI":"北花里","LIN":"20鄰","STREET":"中正路","SECT":" ","MAREA":" ","LANE":"１１３巷","ALLEY":" ","HOUSE_NO":"３０號","E_COORD97":183590.76000000001,"N_COORD97":2540840.6200000001,"ADDRESS":"中正路１１３巷３０號","OBJECTID":334146},"geometry":{"x":183590.76000000071,"y":2540840.620000001}},{"attributes":{"ID":334156,"DIS_CODE":0,"TOWNNAME":"下營區","LI":"大埤里","LIN":"9鄰","STREET":" ","SECT":" ","MAREA":"大埤寮","LANE":" ","ALLEY":" ","HOUSE_NO":"７９之４３號","E_COORD97":173537.737032,"N_COORD97":2569637.3468999998,"ADDRESS":"大埤寮７９之４３號","OBJECTID":334147},"geometry":{"x":173537.73703200091,"y":2569637.3468990028}},{"attributes":{"ID":334157,"DIS_CODE":0,"TOWNNAME":"關廟區","LI":"北花里","LIN":"20鄰","STREET":"中正路","SECT":" ","MAREA":" ","LANE":"１２７巷","ALLEY":" ","HOUSE_NO":"１１號","E_COORD97":183566.95999999999,"N_COORD97":2540872.6200000001,"ADDRESS":"中正路１２７巷１１號","OBJECTID":334148},"geometry":{"x":183566.96000000183,"y":2540872.6200000029}},{"attributes":{"ID":334158,"DIS_CODE":0,"TOWNNAME":"新化區","LI":"全興里","LIN":"20鄰","STREET":" ","SECT":" ","MAREA":"竹子\u25A0","LANE":" ","ALLEY":" ","HOUSE_NO":"２４７號之３５２","E_COORD97":178416.29000000001,"N_COORD97":2546675.2599999998,"ADDRESS":"竹子\u25A0２４７號之３５２","OBJECTID":334149},"geometry":{"x":178416.28999999911,"y":2546675.2599999998}},{"attributes":{"ID":334159,"DIS_CODE":0,"TOWNNAME":"新化區","LI":"全興里","LIN":"20鄰","STREET":" ","SECT":" ","MAREA":"竹子\u25A0","LANE":" ","ALLEY":" ","HOUSE_NO":"２４７號之３５８","E_COORD97":178402.09,"N_COORD97":2546675.2599999998,"ADDRESS":"竹子\u25A0２４７號之３５８","OBJECTID":334150},"geometry":{"x":178402.08999999985,"y":2546675.2599999998}},{"attributes":{"ID":334160,"DIS_CODE":0,"TOWNNAME":"關廟區","LI":"北勢里","LIN":"20鄰","STREET":"成功路","SECT":" ","MAREA":" ","LANE":"３２９巷","ALLEY":" ","HOUSE_NO":"１８號","E_COORD97":181303.92000000001,"N_COORD97":2540451.27,"ADDRESS":"成功路３２９巷１８號","OBJECTID":334151},"geometry":{"x":181303.91999999899,"y":2540451.2699999996}},{"attributes":{"ID":334161,"DIS_CODE":0,"TOWNNAME":"中西區","LI":"安海里","LIN":"15鄰","STREET":"河中街","SECT":" ","MAREA":" ","LANE":"５３巷","ALLEY":" ","HOUSE_NO":"４號","E_COORD97":167282.39000000001,"N_COORD97":2544084.9900000002,"ADDRESS":"河中街５３巷４號","OBJECTID":334152},"geometry":{"x":167282.38999999966,"y":2544084.9900000002}},{"attributes":{"ID":334162,"DIS_CODE":0,"TOWNNAME":"仁德區","LI":"太子里","LIN":"20鄰","STREET":"長興四街","SECT":" ","MAREA":" ","LANE":" ","ALLEY":" ","HOUSE_NO":"３０號","E_COORD97":174007.35278300001,"N_COORD97":2543630.20897,"ADDRESS":"長興四街３０號","OBJECTID":334153},"geometry":{"x":174007.3527830001,"y":2543630.2089670021}},{"attributes":{"ID":334163,"DIS_CODE":0,"TOWNNAME":"中西區","LI":"安海里","LIN":"15鄰","STREET":"河中街","SECT":" ","MAREA":" ","LANE":"５３巷","ALLEY":" ","HOUSE_NO":"５號","E_COORD97":167278.84,"N_COORD97":2544085.98,"ADDRESS":"河中街５３巷５號","OBJECTID":334154},"geometry":{"x":167278.84000000078,"y":2544085.9800000042}},{"attributes":{"ID":334164,"DIS_CODE":0,"TOWNNAME":"中西區","LI":"安海里","LIN":"15鄰","STREET":"河中街","SECT":" ","MAREA":" ","LANE":"５３巷","ALLEY":" ","HOUSE_NO":"６號","E_COORD97":167275.09,"N_COORD97":2544087.3599999999,"ADDRESS":"河中街５３巷６號","OBJECTID":334155},"geometry":{"x":167275.09000000171,"y":2544087.3599999994}},{"attributes":{"ID":334165,"DIS_CODE":0,"TOWNNAME":"中西區","LI":"安海里","LIN":"15鄰","STREET":"河中街","SECT":" ","MAREA":" ","LANE":"５３巷","ALLEY":" ","HOUSE_NO":"７號","E_COORD97":167271.92999999999,"N_COORD97":2544088.1400000001,"ADDRESS":"河中街５３巷７號","OBJECTID":334156},"geometry":{"x":167271.9299999997,"y":2544088.1399999987}},{"attributes":{"ID":334166,"DIS_CODE":0,"TOWNNAME":"中西區","LI":"安海里","LIN":"15鄰","STREET":"河中街","SECT":" ","MAREA":" ","LANE":"５３巷","ALLEY":" ","HOUSE_NO":"８號","E_COORD97":167267.39000000001,"N_COORD97":2544088.9300000002,"ADDRESS":"河中街５３巷８號","OBJECTID":334157},"geometry":{"x":167267.38999999966,"y":2544088.9300000034}},{"attributes":{"ID":334167,"DIS_CODE":0,"TOWNNAME":"中西區","LI":"大涼里","LIN":"15鄰","STREET":"府前一街","SECT":" ","MAREA":" ","LANE":"９巷","ALLEY":" ","HOUSE_NO":"１０號之６","E_COORD97":166806.57999999999,"N_COORD97":2543753.1699999999,"ADDRESS":"府前一街９巷１０號之６","OBJECTID":334158},"geometry":{"x":166806.58000000101,"y":2543753.1700000018}},{"attributes":{"ID":334168,"DIS_CODE":0,"TOWNNAME":"中西區","LI":"大涼里","LIN":"15鄰","STREET":"府前一街","SECT":" ","MAREA":" ","LANE":"９巷","ALLEY":" ","HOUSE_NO":"１０號之７","E_COORD97":166805.42000000001,"N_COORD97":2543757.3700000001,"ADDRESS":"府前一街９巷１０號之７","OBJECTID":334159},"geometry":{"x":166805.42000000086,"y":2543757.370000001}},{"attributes":{"ID":334169,"DIS_CODE":0,"TOWNNAME":"中西區","LI":"大涼里","LIN":"15鄰","STREET":"府前一街","SECT":" ","MAREA":" ","LANE":"９巷","ALLEY":" ","HOUSE_NO":"１０號之８","E_COORD97":166804.89000000001,"N_COORD97":2543762.4199999999,"ADDRESS":"府前一街９巷１０號之８","OBJECTID":334160},"geometry":{"x":166804.88999999873,"y":2543762.4199999999}},{"attributes":{"ID":334170,"DIS_CODE":0,"TOWNNAME":"中西區","LI":"大涼里","LIN":"15鄰","STREET":"府前一街","SECT":" ","MAREA":" ","LANE":"９巷","ALLEY":" ","HOUSE_NO":"１０號之９","E_COORD97":166803.20999999999,"N_COORD97":2543767.8900000001,"ADDRESS":"府前一街９巷１０號之９","OBJECTID":334161},"geometry":{"x":166803.21000000183,"y":2543767.8900000043}},{"attributes":{"ID":334171,"DIS_CODE":0,"TOWNNAME":"永康區","LI":"中華里","LIN":"15鄰","STREET":"忠義街","SECT":" ","MAREA":" ","LANE":"４４巷","ALLEY":" ","HOUSE_NO":"１７號","E_COORD97":171778.06,"N_COORD97":2544482.1400000001,"ADDRESS":"忠義街４４巷１７號","OBJECTID":334162},"geometry":{"x":171778.06000000052,"y":2544482.1400000025}},{"attributes":{"ID":334172,"DIS_CODE":0,"TOWNNAME":"善化區","LI":"坐駕里","LIN":"17鄰","STREET":"興華路","SECT":" ","MAREA":" ","LANE":" ","ALLEY":" ","HOUSE_NO":"２７１之３號","E_COORD97":177870.95000000001,"N_COORD97":2558481.02,"ADDRESS":"興華路２７１之３號","OBJECTID":334163},"geometry":{"x":177870.95000000019,"y":2558481.0200000014}},{"attributes":{"ID":334173,"DIS_CODE":0,"TOWNNAME":"善化區","LI":"坐駕里","LIN":"17鄰","STREET":"興華路","SECT":" ","MAREA":" ","LANE":" ","ALLEY":" ","HOUSE_NO":"２８７號","E_COORD97":177819.89999999999,"N_COORD97":2558500.75,"ADDRESS":"興華路２８７號","OBJECTID":334164},"geometry":{"x":177819.9000000013,"y":2558500.7500000019}},{"attributes":{"ID":334174,"DIS_CODE":0,"TOWNNAME":"善化區","LI":"坐駕里","LIN":"17鄰","STREET":"興華路","SECT":" ","MAREA":" ","LANE":" ","ALLEY":" ","HOUSE_NO":"２６５之１號","E_COORD97":177895.76000000001,"N_COORD97":2558489.27,"ADDRESS":"興華路２６５之１號","OBJECTID":334165},"geometry":{"x":177895.75999999978,"y":2558489.2700000014}},{"attributes":{"ID":334175,"DIS_CODE":0,"TOWNNAME":"善化區","LI":"坐駕里","LIN":"17鄰","STREET":"興華路","SECT":" ","MAREA":" ","LANE":" ","ALLEY":" ","HOUSE_NO":"２３７號之５","E_COORD97":177998.89999999999,"N_COORD97":2558481.02,"ADDRESS":"興華路２３７號之５","OBJECTID":334166},"geometry":{"x":177998.89999999944,"y":2558481.0200000014}},{"attributes":{"ID":334176,"DIS_CODE":0,"TOWNNAME":"大內區","LI":"曲溪里","LIN":"9鄰","STREET":" ","SECT":" ","MAREA":"二重溪","LANE":" ","ALLEY":" ","HOUSE_NO":"９０號之２","E_COORD97":187407.544356,"N_COORD97":2557681.6516800001,"ADDRESS":"二重溪９０號之２","OBJECTID":334167},"geometry":{"x":187407.54435600154,"y":2557681.6516840048}},{"attributes":{"ID":334177,"DIS_CODE":0,"TOWNNAME":"歸仁區","LI":"西埔里","LIN":"15鄰","STREET":"大埔路","SECT":"二段","MAREA":" ","LANE":" ","ALLEY":" ","HOUSE_NO":"２６號","E_COORD97":176206.09270800001,"N_COORD97":2545214.74095,"ADDRESS":"大埔路二段２６號","OBJECTID":334168},"geometry":{"x":176206.09270800091,"y":2545214.7409550007}},{"attributes":{"ID":334178,"DIS_CODE":0,"TOWNNAME":"仁德區","LI":"大甲里","LIN":"6鄰","STREET":"行大一街","SECT":" ","MAREA":" ","LANE":" ","ALLEY":" ","HOUSE_NO":"２５６號","E_COORD97":169701.40182299999,"N_COORD97":2535070.7828899999,"ADDRESS":"行大一街２５６號","OBJECTID":334169},"geometry":{"x":169701.40182300191,"y":2535070.7828919981}},{"attributes":{"ID":334179,"DIS_CODE":0,"TOWNNAME":"關廟區","LI":"下湖里","LIN":"1鄰","STREET":"下湖一街","SECT":" ","MAREA":" ","LANE":" ","ALLEY":" ","HOUSE_NO":"９號","E_COORD97":179268.35088899999,"N_COORD97":2542745.0696200002,"ADDRESS":"下湖一街９號","OBJECTID":334170},"geometry":{"x":179268.35088900104,"y":2542745.0696240012}},{"attributes":{"ID":334180,"DIS_CODE":0,"TOWNNAME":"六甲區","LI":"甲東里","LIN":"8鄰","STREET":"四維街","SECT":" ","MAREA":" ","LANE":" ","ALLEY":" ","HOUSE_NO":"４３號","E_COORD97":184017.000168,"N_COORD97":2570206.5524800001,"ADDRESS":"四維街４３號","OBJECTID":334171},"geometry":{"x":184017.00016800221,"y":2570206.5524829999}},{"attributes":{"ID":334181,"DIS_CODE":0,"TOWNNAME":"關廟區","LI":"新光里","LIN":"3鄰","STREET":"新湖街","SECT":" ","MAREA":" ","LANE":" ","ALLEY":" ","HOUSE_NO":"１５１號","E_COORD97":183576.19072000001,"N_COORD97":2541912.1508999998,"ADDRESS":"新湖街１５１號","OBJECTID":334172},"geometry":{"x":183576.1907200003,"y":2541912.1508999988}},{"attributes":{"ID":334182,"DIS_CODE":0,"TOWNNAME":"關廟區","LI":"香洋里","LIN":"9鄰","STREET":"巡府路","SECT":" ","MAREA":" ","LANE":" ","ALLEY":" ","HOUSE_NO":"８５號","E_COORD97":180994.089607,"N_COORD97":2540070.0858399998,"ADDRESS":"巡府路８５號","OBJECTID":334173},"geometry":{"x":180994.08960700128,"y":2540070.0858379994}},{"attributes":{"ID":334183,"DIS_CODE":0,"TOWNNAME":"關廟區","LI":"新光里","LIN":"3鄰","STREET":"新湖街","SECT":" ","MAREA":" ","LANE":" ","ALLEY":" ","HOUSE_NO":"１６５號","E_COORD97":183553.371036,"N_COORD97":2541922.6701500001,"ADDRESS":"新湖街１６５號","OBJECTID":334174},"geometry":{"x":183553.37103600148,"y":2541922.670150999}},{"attributes":{"ID":334184,"DIS_CODE":0,"TOWNNAME":"關廟區","LI":"新光里","LIN":"3鄰","STREET":"新湖街","SECT":" ","MAREA":" ","LANE":" ","ALLEY":" ","HOUSE_NO":"１７５號","E_COORD97":183524.527352,"N_COORD97":2541925.8245899999,"ADDRESS":"新湖街１７５號","OBJECTID":334175},"geometry":{"x":183524.52735199966,"y":2541925.8245870005}},{"attributes":{"ID":334185,"DIS_CODE":0,"TOWNNAME":"關廟區","LI":"新光里","LIN":"3鄰","STREET":"新湖街","SECT":" ","MAREA":" ","LANE":" ","ALLEY":" ","HOUSE_NO":"１６０號","E_COORD97":183586.605923,"N_COORD97":2541942.0699999998,"ADDRESS":"新湖街１６０號","OBJECTID":334176},"geometry":{"x":183586.60592300072,"y":2541942.0699950028}},{"attributes":{"ID":334186,"DIS_CODE":0,"TOWNNAME":"關廟區","LI":"新光里","LIN":"3鄰","STREET":"新湖街","SECT":" ","MAREA":" ","LANE":" ","ALLEY":" ","HOUSE_NO":"１３８號","E_COORD97":183593.80863300001,"N_COORD97":2541892.9885300002,"ADDRESS":"新湖街１３８號","OBJECTID":334177},"geometry":{"x":183593.80863300059,"y":2541892.9885280002}},{"attributes":{"ID":334187,"DIS_CODE":0,"TOWNNAME":"關廟區","LI":"香洋里","LIN":"8鄰","STREET":"巡府路","SECT":" ","MAREA":" ","LANE":" ","ALLEY":" ","HOUSE_NO":"６２號","E_COORD97":181062.84218599999,"N_COORD97":2540079.44355,"ADDRESS":"巡府路６２號","OBJECTID":334178},"geometry":{"x":181062.84218600113,"y":2540079.4435510002}},{"attributes":{"ID":334188,"DIS_CODE":0,"TOWNNAME":"關廟區","LI":"新光里","LIN":"4鄰","STREET":"新湖街","SECT":" ","MAREA":" ","LANE":" ","ALLEY":" ","HOUSE_NO":"５２號","E_COORD97":183646.07000000001,"N_COORD97":2541580.25,"ADDRESS":"新湖街５２號","OBJECTID":334179},"geometry":{"x":183646.06999999937,"y":2541580.25}},{"attributes":{"ID":334189,"DIS_CODE":0,"TOWNNAME":"仁德區","LI":"大甲里","LIN":"8鄰","STREET":"行大一街","SECT":" ","MAREA":" ","LANE":" ","ALLEY":" ","HOUSE_NO":"３０３之１號","E_COORD97":169625.94476300001,"N_COORD97":2535012.1512600002,"ADDRESS":"行大一街３０３之１號","OBJECTID":334180},"geometry":{"x":169625.94476300105,"y":2535012.1512570027}},{"attributes":{"ID":334190,"DIS_CODE":0,"TOWNNAME":"關廟區","LI":"新光里","LIN":"4鄰","STREET":"新湖街","SECT":" ","MAREA":" ","LANE":" ","ALLEY":" ","HOUSE_NO":"８８號","E_COORD97":183543.99583900001,"N_COORD97":2541602.2718500001,"ADDRESS":"新湖街８８號","OBJECTID":334181},"geometry":{"x":183543.99583899975,"y":2541602.271854002}},{"attributes":{"ID":334191,"DIS_CODE":0,"TOWNNAME":"鹽水區","LI":"橋南里","LIN":"20鄰","STREET":"南太路","SECT":" ","MAREA":" ","LANE":"６９巷","ALLEY":" ","HOUSE_NO":"１０號","E_COORD97":175549.70000000001,"N_COORD97":2578756.3599999999,"ADDRESS":"南太路６９巷１０號","OBJECTID":334182},"geometry":{"x":175549.70000000112,"y":2578756.3600000013}},{"attributes":{"ID":334192,"DIS_CODE":0,"TOWNNAME":"鹽水區","LI":"橋南里","LIN":"20鄰","STREET":"南太路","SECT":" ","MAREA":" ","LANE":"６９巷","ALLEY":" ","HOUSE_NO":"１１號","E_COORD97":175537.17999999999,"N_COORD97":2578770.1899999999,"ADDRESS":"南太路６９巷１１號","OBJECTID":334183},"geometry":{"x":175537.18000000063,"y":2578770.1899999976}},{"attributes":{"ID":334193,"DIS_CODE":0,"TOWNNAME":"永康區","LI":"埔園里","LIN":"15鄰","STREET":"龍埔街","SECT":" ","MAREA":" ","LANE":"５３６巷","ALLEY":" ","HOUSE_NO":"２１號","E_COORD97":173535.60000000001,"N_COORD97":2548445.4900000002,"ADDRESS":"龍埔街５３６巷２１號","OBJECTID":334184},"geometry":{"x":173535.60000000056,"y":2548445.4900000039}},{"attributes":{"ID":334194,"DIS_CODE":0,"TOWNNAME":"東區","LI":"崇信里","LIN":"15鄰","STREET":"崇學路","SECT":" ","MAREA":" ","LANE":"２３０巷","ALLEY":" ","HOUSE_NO":"７６號","E_COORD97":170588.70000000001,"N_COORD97":2542359.1099999999,"ADDRESS":"崇學路２３０巷７６號","OBJECTID":334185},"geometry":{"x":170588.69999999925,"y":2542359.1100000013}},{"attributes":{"ID":334195,"DIS_CODE":0,"TOWNNAME":"東區","LI":"崇信里","LIN":"15鄰","STREET":"崇學路","SECT":" ","MAREA":" ","LANE":"２３０巷","ALLEY":" ","HOUSE_NO":"７８號","E_COORD97":170595.82999999999,"N_COORD97":2542356.3700000001,"ADDRESS":"崇學路２３０巷７８號","OBJECTID":334186},"geometry":{"x":170595.83000000007,"y":2542356.3700000029}},{"attributes":{"ID":334196,"DIS_CODE":0,"TOWNNAME":"東區","LI":"崇信里","LIN":"15鄰","STREET":"崇學路","SECT":" ","MAREA":" ","LANE":"２３０巷","ALLEY":" ","HOUSE_NO":"８０號","E_COORD97":170603.70000000001,"N_COORD97":2542354.1699999999,"ADDRESS":"崇學路２３０巷８０號","OBJECTID":334187},"geometry":{"x":170603.70000000019,"y":2542354.1699999999}},{"attributes":{"ID":334197,"DIS_CODE":0,"TOWNNAME":"東區","LI":"崇信里","LIN":"15鄰","STREET":"崇學路","SECT":" ","MAREA":" ","LANE":"２３０巷","ALLEY":" ","HOUSE_NO":"８２號","E_COORD97":170611.20000000001,"N_COORD97":2542351.7999999998,"ADDRESS":"崇學路２３０巷８２號","OBJECTID":334188},"geometry":{"x":170611.20000000112,"y":2542351.8000000045}},{"attributes":{"ID":334198,"DIS_CODE":0,"TOWNNAME":"東區","LI":"崇信里","LIN":"15鄰","STREET":"崇學路","SECT":" ","MAREA":" ","LANE":"２３０巷","ALLEY":" ","HOUSE_NO":"８４號","E_COORD97":170618.88,"N_COORD97":2542349.79,"ADDRESS":"崇學路２３０巷８４號","OBJECTID":334189},"geometry":{"x":170618.87999999989,"y":2542349.7900000028}},{"attributes":{"ID":334199,"DIS_CODE":0,"TOWNNAME":"善化區","LI":"光文里","LIN":"17鄰","STREET":"和平路","SECT":" ","MAREA":" ","LANE":" ","ALLEY":" ","HOUSE_NO":"１４２號","E_COORD97":178125.92000000001,"N_COORD97":2558960.25,"ADDRESS":"和平路１４２號","OBJECTID":334190},"geometry":{"x":178125.92000000086,"y":2558960.25}},{"attributes":{"ID":334200,"DIS_CODE":0,"TOWNNAME":"善化區","LI":"坐駕里","LIN":"17鄰","STREET":"興華路","SECT":" ","MAREA":" ","LANE":" ","ALLEY":" ","HOUSE_NO":"２６７之１號","E_COORD97":177891.20999999999,"N_COORD97":2558488.52,"ADDRESS":"興華路２６７之１號","OBJECTID":334191},"geometry":{"x":177891.20999999996,"y":2558488.5200000014}},{"attributes":{"ID":334201,"DIS_CODE":0,"TOWNNAME":"善化區","LI":"坐駕里","LIN":"17鄰","STREET":"興華路","SECT":" ","MAREA":" ","LANE":" ","ALLEY":" ","HOUSE_NO":"２８３號","E_COORD97":177829.70999999999,"N_COORD97":2558502.5,"ADDRESS":"興華路２８３號","OBJECTID":334192},"geometry":{"x":177829.70999999996,"y":2558502.5000000019}},{"attributes":{"ID":334202,"DIS_CODE":0,"TOWNNAME":"善化區","LI":"坐駕里","LIN":"17鄰","STREET":"興華路","SECT":" ","MAREA":" ","LANE":" ","ALLEY":" ","HOUSE_NO":"２４７號","E_COORD97":177936.39999999999,"N_COORD97":2558519,"ADDRESS":"興華路２４７號","OBJECTID":334193},"geometry":{"x":177936.40000000224,"y":2558519.0000000019}},{"attributes":{"ID":334203,"DIS_CODE":0,"TOWNNAME":"善化區","LI":"坐駕里","LIN":"17鄰","STREET":"興華路","SECT":" ","MAREA":" ","LANE":" ","ALLEY":" ","HOUSE_NO":"２８６號","E_COORD97":177815.20999999999,"N_COORD97":2558526.75,"ADDRESS":"興華路２８６號","OBJECTID":334194},"geometry":{"x":177815.21000000183,"y":2558526.7500000037}},{"attributes":{"ID":334204,"DIS_CODE":0,"TOWNNAME":"善化區","LI":"坐駕里","LIN":"17鄰","STREET":"興華路","SECT":" ","MAREA":" ","LANE":" ","ALLEY":" ","HOUSE_NO":"２９１號","E_COORD97":177809.89999999999,"N_COORD97":2558499.25,"ADDRESS":"興華路２９１號","OBJECTID":334195},"geometry":{"x":177809.9000000013,"y":2558499.2499999981}},{"attributes":{"ID":334205,"DIS_CODE":0,"TOWNNAME":"善化區","LI":"坐駕里","LIN":"17鄰","STREET":"興華路","SECT":" ","MAREA":" ","LANE":" ","ALLEY":" ","HOUSE_NO":"２４１號","E_COORD97":177950.25,"N_COORD97":2558521.25,"ADDRESS":"興華路２４１號","OBJECTID":334196},"geometry":{"x":177950.25,"y":2558521.2500000019}},{"attributes":{"ID":334206,"DIS_CODE":0,"TOWNNAME":"善化區","LI":"坐駕里","LIN":"17鄰","STREET":"興華路","SECT":" ","MAREA":" ","LANE":" ","ALLEY":" ","HOUSE_NO":"２５５號","E_COORD97":177916.67999999999,"N_COORD97":2558515.75,"ADDRESS":"興華路２５５號","OBJECTID":334197},"geometry":{"x":177916.68000000156,"y":2558515.75}},{"attributes":{"ID":334207,"DIS_CODE":0,"TOWNNAME":"善化區","LI":"坐駕里","LIN":"17鄰","STREET":"興華路","SECT":" ","MAREA":" ","LANE":" ","ALLEY":" ","HOUSE_NO":"２９８號","E_COORD97":177792.87,"N_COORD97":2558523.5,"ADDRESS":"興華路２９８號","OBJECTID":334198},"geometry":{"x":177792.87000000104,"y":2558523.5}},{"attributes":{"ID":334208,"DIS_CODE":0,"TOWNNAME":"善化區","LI":"坐駕里","LIN":"17鄰","STREET":"興華路","SECT":" ","MAREA":" ","LANE":" ","ALLEY":" ","HOUSE_NO":"２７２號","E_COORD97":177857.45999999999,"N_COORD97":2558533.75,"ADDRESS":"興華路２７２號","OBJECTID":334199},"geometry":{"x":177857.46000000183,"y":2558533.7500000019}},{"attributes":{"ID":334209,"DIS_CODE":0,"TOWNNAME":"鹽水區","LI":"橋南里","LIN":"20鄰","STREET":"南太路","SECT":" ","MAREA":" ","LANE":" ","ALLEY":" ","HOUSE_NO":"２７號","E_COORD97":175452.42999999999,"N_COORD97":2578869.1600000001,"ADDRESS":"南太路２７號","OBJECTID":334200},"geometry":{"x":175452.43000000063,"y":2578869.1600000001}}]}