{"displayFieldName":"TOWNNAME","fieldAliases":{"ID":"ID","DIS_CODE":"DIS_CODE","TOWNNAME":"TOWNNAME","LI":"LI","LIN":"LIN","STREET":"STREET","SECT":"SECT","MAREA":"MAREA","LANE":"LANE","ALLEY":"ALLEY","HOUSE_NO":"HOUSE_NO","E_COORD97":"E_COORD97","N_COORD97":"N_COORD97","ADDRESS":"ADDRESS","OBJECTID":"OBJECTID"},"geometryType":"esriGeometryPoint","spatialReference":{"wkid":102443,"latestWkid":3826},"fields":[{"name":"ID","type":"esriFieldTypeDouble","alias":"ID"},{"name":"DIS_CODE","type":"esriFieldTypeInteger","alias":"DIS_CODE"},{"name":"TOWNNAME","type":"esriFieldTypeString","alias":"TOWNNAME","length":8},{"name":"LI","type":"esriFieldTypeString","alias":"LI","length":8},{"name":"LIN","type":"esriFieldTypeString","alias":"LIN","length":12},{"name":"STREET","type":"esriFieldTypeString","alias":"STREET","length":20},{"name":"SECT","type":"esriFieldTypeString","alias":"SECT","length":8},{"name":"MAREA","type":"esriFieldTypeString","alias":"MAREA","length":12},{"name":"LANE","type":"esriFieldTypeString","alias":"LANE","length":10},{"name":"ALLEY","type":"esriFieldTypeString","alias":"ALLEY","length":10},{"name":"HOUSE_NO","type":"esriFieldTypeString","alias":"HOUSE_NO","length":20},{"name":"E_COORD97","type":"esriFieldTypeDouble","alias":"E_COORD97"},{"name":"N_COORD97","type":"esriFieldTypeDouble","alias":"N_COORD97"},{"name":"ADDRESS","type":"esriFieldTypeString","alias":"ADDRESS","length":50},{"name":"OBJECTID","type":"esriFieldTypeOID","alias":"OBJECTID"}],"features":[{"attributes":{"ID":487426,"DIS_CODE":0,"TOWNNAME":"仁德區","LI":"仁義里","LIN":"46鄰","STREET":"仁義路","SECT":" ","MAREA":" ","LANE":" ","ALLEY":" ","HOUSE_NO":"１１６號","E_COORD97":173663.28,"N_COORD97":2540956.02,"ADDRESS":"仁義路１１６號","OBJECTID":487401},"geometry":{"x":173663.27999999933,"y":2540956.0200000014}},{"attributes":{"ID":487427,"DIS_CODE":0,"TOWNNAME":"仁德區","LI":"仁義里","LIN":"46鄰","STREET":"仁義路","SECT":" ","MAREA":" ","LANE":" ","ALLEY":" ","HOUSE_NO":"４３２號","E_COORD97":173894.32000000001,"N_COORD97":2540971.2599999998,"ADDRESS":"仁義路４３２號","OBJECTID":487402},"geometry":{"x":173894.32000000123,"y":2540971.2600000016}},{"attributes":{"ID":487428,"DIS_CODE":0,"TOWNNAME":"仁德區","LI":"太子里","LIN":"46鄰","STREET":"太子一街","SECT":" ","MAREA":" ","LANE":" ","ALLEY":" ","HOUSE_NO":"３５號","E_COORD97":174796.91,"N_COORD97":2543355.25,"ADDRESS":"太子一街３５號","OBJECTID":487403},"geometry":{"x":174796.91000000108,"y":2543355.2500000019}},{"attributes":{"ID":487429,"DIS_CODE":0,"TOWNNAME":"仁德區","LI":"太子里","LIN":"46鄰","STREET":"太子一街","SECT":" ","MAREA":" ","LANE":" ","ALLEY":" ","HOUSE_NO":"３７號","E_COORD97":174793.51999999999,"N_COORD97":2543353.25,"ADDRESS":"太子一街３７號","OBJECTID":487404},"geometry":{"x":174793.52000000142,"y":2543353.25}},{"attributes":{"ID":487430,"DIS_CODE":0,"TOWNNAME":"仁德區","LI":"太子里","LIN":"46鄰","STREET":"太子一街","SECT":" ","MAREA":" ","LANE":" ","ALLEY":" ","HOUSE_NO":"４１號","E_COORD97":174784.82000000001,"N_COORD97":2543348.75,"ADDRESS":"太子一街４１號","OBJECTID":487405},"geometry":{"x":174784.8200000003,"y":2543348.7500000019}},{"attributes":{"ID":487431,"DIS_CODE":0,"TOWNNAME":"永康區","LI":"\u25A0行里","LIN":"46鄰","STREET":"新行街","SECT":" ","MAREA":" ","LANE":" ","ALLEY":" ","HOUSE_NO":"１２３號","E_COORD97":172317.17999999999,"N_COORD97":2549030.75,"ADDRESS":"新行街１２３號","OBJECTID":487406},"geometry":{"x":172317.1799999997,"y":2549030.7500000019}},{"attributes":{"ID":487432,"DIS_CODE":0,"TOWNNAME":"永康區","LI":"\u25A0行里","LIN":"46鄰","STREET":"新行街","SECT":" ","MAREA":" ","LANE":" ","ALLEY":" ","HOUSE_NO":"１１７號","E_COORD97":172313.63,"N_COORD97":2549016.75,"ADDRESS":"新行街１１７號","OBJECTID":487407},"geometry":{"x":172313.63000000082,"y":2549016.7500000037}},{"attributes":{"ID":487433,"DIS_CODE":0,"TOWNNAME":"永康區","LI":"\u25A0行里","LIN":"46鄰","STREET":"新行街","SECT":" ","MAREA":" ","LANE":" ","ALLEY":" ","HOUSE_NO":"１１５號","E_COORD97":172312.53,"N_COORD97":2549012,"ADDRESS":"新行街１１５號","OBJECTID":487408},"geometry":{"x":172312.53000000119,"y":2549012.0000000019}},{"attributes":{"ID":487434,"DIS_CODE":0,"TOWNNAME":"永康區","LI":"\u25A0行里","LIN":"46鄰","STREET":"中正北路","SECT":" ","MAREA":" ","LANE":" ","ALLEY":" ","HOUSE_NO":"１１２號","E_COORD97":172318.07000000001,"N_COORD97":2549071.2400000002,"ADDRESS":"中正北路１１２號","OBJECTID":487409},"geometry":{"x":172318.0700000003,"y":2549071.2400000039}},{"attributes":{"ID":487435,"DIS_CODE":0,"TOWNNAME":"永康區","LI":"\u25A0行里","LIN":"46鄰","STREET":"中正北路","SECT":" ","MAREA":" ","LANE":" ","ALLEY":" ","HOUSE_NO":"１１４號","E_COORD97":172326.62,"N_COORD97":2549048.9900000002,"ADDRESS":"中正北路１１４號","OBJECTID":487410},"geometry":{"x":172326.62000000011,"y":2549048.9900000039}},{"attributes":{"ID":487436,"DIS_CODE":0,"TOWNNAME":"歸仁區","LI":"辜厝里","LIN":"46鄰","STREET":"中正南路","SECT":"一段","MAREA":" ","LANE":" ","ALLEY":" ","HOUSE_NO":"３３４號","E_COORD97":177134.54000000001,"N_COORD97":2540213.9500000002,"ADDRESS":"中正南路一段３３４號","OBJECTID":487411},"geometry":{"x":177134.54000000004,"y":2540213.9500000011}},{"attributes":{"ID":487437,"DIS_CODE":0,"TOWNNAME":"仁德區","LI":"仁義里","LIN":"46鄰","STREET":"仁義路","SECT":" ","MAREA":" ","LANE":" ","ALLEY":" ","HOUSE_NO":"１１４號","E_COORD97":173658.42000000001,"N_COORD97":2540955.77,"ADDRESS":"仁義路１１４號","OBJECTID":487412},"geometry":{"x":173658.41999999993,"y":2540955.7699999996}},{"attributes":{"ID":487438,"DIS_CODE":0,"TOWNNAME":"仁德區","LI":"仁義里","LIN":"46鄰","STREET":"仁義路","SECT":" ","MAREA":" ","LANE":" ","ALLEY":" ","HOUSE_NO":"１０８號","E_COORD97":173645.45000000001,"N_COORD97":2540959.02,"ADDRESS":"仁義路１０８號","OBJECTID":487413},"geometry":{"x":173645.45000000112,"y":2540959.0200000014}},{"attributes":{"ID":487439,"DIS_CODE":0,"TOWNNAME":"仁德區","LI":"仁義里","LIN":"46鄰","STREET":"仁義路","SECT":" ","MAREA":" ","LANE":" ","ALLEY":" ","HOUSE_NO":"１２０號","E_COORD97":173673.56,"N_COORD97":2540961.77,"ADDRESS":"仁義路１２０號","OBJECTID":487414},"geometry":{"x":173673.55999999959,"y":2540961.7700000014}},{"attributes":{"ID":487440,"DIS_CODE":0,"TOWNNAME":"仁德區","LI":"仁義里","LIN":"46鄰","STREET":"仁義路","SECT":" ","MAREA":" ","LANE":" ","ALLEY":" ","HOUSE_NO":"１３０號","E_COORD97":173953.72,"N_COORD97":2540909.2599999998,"ADDRESS":"仁義路１３０號","OBJECTID":487415},"geometry":{"x":173953.72000000067,"y":2540909.2599999998}},{"attributes":{"ID":487441,"DIS_CODE":0,"TOWNNAME":"仁德區","LI":"仁義里","LIN":"46鄰","STREET":"仁義路","SECT":" ","MAREA":" ","LANE":" ","ALLEY":" ","HOUSE_NO":"１２２號","E_COORD97":173677.70999999999,"N_COORD97":2540962.27,"ADDRESS":"仁義路１２２號","OBJECTID":487416},"geometry":{"x":173677.71000000089,"y":2540962.2699999996}},{"attributes":{"ID":487442,"DIS_CODE":0,"TOWNNAME":"仁德區","LI":"仁義里","LIN":"46鄰","STREET":"仁義路","SECT":" ","MAREA":" ","LANE":" ","ALLEY":" ","HOUSE_NO":"１１８號","E_COORD97":173669.12,"N_COORD97":2540960.77,"ADDRESS":"仁義路１１８號","OBJECTID":487417},"geometry":{"x":173669.12000000011,"y":2540960.7700000014}},{"attributes":{"ID":487443,"DIS_CODE":0,"TOWNNAME":"仁德區","LI":"仁義里","LIN":"46鄰","STREET":"仁義路","SECT":" ","MAREA":" ","LANE":" ","ALLEY":" ","HOUSE_NO":"１０２號","E_COORD97":173633.10999999999,"N_COORD97":2540957.77,"ADDRESS":"仁義路１０２號","OBJECTID":487418},"geometry":{"x":173633.11000000127,"y":2540957.7700000014}},{"attributes":{"ID":487444,"DIS_CODE":0,"TOWNNAME":"仁德區","LI":"仁義里","LIN":"46鄰","STREET":"仁義路","SECT":" ","MAREA":" ","LANE":" ","ALLEY":" ","HOUSE_NO":"１０４號","E_COORD97":173637.56,"N_COORD97":2540958.27,"ADDRESS":"仁義路１０４號","OBJECTID":487419},"geometry":{"x":173637.56000000052,"y":2540958.2700000014}},{"attributes":{"ID":487445,"DIS_CODE":0,"TOWNNAME":"仁德區","LI":"仁義里","LIN":"46鄰","STREET":"仁義路","SECT":" ","MAREA":" ","LANE":" ","ALLEY":" ","HOUSE_NO":"１００號","E_COORD97":173626.06,"N_COORD97":2540955.02,"ADDRESS":"仁義路１００號","OBJECTID":487420},"geometry":{"x":173626.05999999959,"y":2540955.0199999996}},{"attributes":{"ID":487446,"DIS_CODE":0,"TOWNNAME":"佳里區","LI":"安西里","LIN":"46鄰","STREET":"文化路","SECT":" ","MAREA":" ","LANE":" ","ALLEY":" ","HOUSE_NO":"５９３號","E_COORD97":164659.73999999999,"N_COORD97":2562557.4100000001,"ADDRESS":"文化路５９３號","OBJECTID":487421},"geometry":{"x":164659.74000000022,"y":2562557.410000002}},{"attributes":{"ID":487447,"DIS_CODE":0,"TOWNNAME":"佳里區","LI":"安西里","LIN":"46鄰","STREET":"文化路","SECT":" ","MAREA":" ","LANE":" ","ALLEY":" ","HOUSE_NO":"５９５號","E_COORD97":164655.57000000001,"N_COORD97":2562557.52,"ADDRESS":"文化路５９５號","OBJECTID":487422},"geometry":{"x":164655.57000000123,"y":2562557.5199999996}},{"attributes":{"ID":487448,"DIS_CODE":0,"TOWNNAME":"佳里區","LI":"安西里","LIN":"46鄰","STREET":"文化路","SECT":" ","MAREA":" ","LANE":" ","ALLEY":" ","HOUSE_NO":"５９７號","E_COORD97":164651.14999999999,"N_COORD97":2562557.4100000001,"ADDRESS":"文化路５９７號","OBJECTID":487423},"geometry":{"x":164651.15000000224,"y":2562557.410000002}},{"attributes":{"ID":487449,"DIS_CODE":0,"TOWNNAME":"佳里區","LI":"安西里","LIN":"46鄰","STREET":"文化路","SECT":" ","MAREA":" ","LANE":" ","ALLEY":" ","HOUSE_NO":"５９９號","E_COORD97":164647.16,"N_COORD97":2562557.4700000002,"ADDRESS":"文化路５９９號","OBJECTID":487424},"geometry":{"x":164647.16000000015,"y":2562557.4700000025}},{"attributes":{"ID":487450,"DIS_CODE":0,"TOWNNAME":"佳里區","LI":"安西里","LIN":"46鄰","STREET":"文化路","SECT":" ","MAREA":" ","LANE":" ","ALLEY":" ","HOUSE_NO":"６１３號","E_COORD97":164598.59,"N_COORD97":2562524.9399999999,"ADDRESS":"文化路６１３號","OBJECTID":487425},"geometry":{"x":164598.59000000078,"y":2562524.9399999995}},{"attributes":{"ID":487451,"DIS_CODE":0,"TOWNNAME":"佳里區","LI":"安西里","LIN":"46鄰","STREET":"文化路","SECT":" ","MAREA":" ","LANE":" ","ALLEY":" ","HOUSE_NO":"６２９號","E_COORD97":164577.51999999999,"N_COORD97":2562555.6200000001,"ADDRESS":"文化路６２９號","OBJECTID":487426},"geometry":{"x":164577.51999999955,"y":2562555.620000001}},{"attributes":{"ID":487452,"DIS_CODE":0,"TOWNNAME":"佳里區","LI":"安西里","LIN":"46鄰","STREET":"文化路","SECT":" ","MAREA":" ","LANE":" ","ALLEY":" ","HOUSE_NO":"６３３號","E_COORD97":164568.67999999999,"N_COORD97":2562555.2599999998,"ADDRESS":"文化路６３３號","OBJECTID":487427},"geometry":{"x":164568.67999999877,"y":2562555.2600000016}},{"attributes":{"ID":487453,"DIS_CODE":0,"TOWNNAME":"佳里區","LI":"安西里","LIN":"46鄰","STREET":"文化路","SECT":" ","MAREA":" ","LANE":" ","ALLEY":" ","HOUSE_NO":"６３５號","E_COORD97":164563.64000000001,"N_COORD97":2562555.4700000002,"ADDRESS":"文化路６３５號","OBJECTID":487428},"geometry":{"x":164563.63999999966,"y":2562555.4700000007}},{"attributes":{"ID":487454,"DIS_CODE":0,"TOWNNAME":"佳里區","LI":"安西里","LIN":"46鄰","STREET":"文化路","SECT":" ","MAREA":" ","LANE":" ","ALLEY":" ","HOUSE_NO":"６３７號","E_COORD97":164559.75,"N_COORD97":2562554.8500000001,"ADDRESS":"文化路６３７號","OBJECTID":487429},"geometry":{"x":164559.75,"y":2562554.8500000015}},{"attributes":{"ID":487455,"DIS_CODE":0,"TOWNNAME":"佳里區","LI":"安西里","LIN":"46鄰","STREET":"文化路","SECT":" ","MAREA":" ","LANE":" ","ALLEY":" ","HOUSE_NO":"６３９號","E_COORD97":164554.87,"N_COORD97":2562554.5499999998,"ADDRESS":"文化路６３９號","OBJECTID":487430},"geometry":{"x":164554.87000000104,"y":2562554.5500000026}},{"attributes":{"ID":487456,"DIS_CODE":0,"TOWNNAME":"佳里區","LI":"安西里","LIN":"46鄰","STREET":"文化路","SECT":" ","MAREA":" ","LANE":" ","ALLEY":" ","HOUSE_NO":"６４５號","E_COORD97":164532.39000000001,"N_COORD97":2562555.3999999999,"ADDRESS":"文化路６４５號","OBJECTID":487431},"geometry":{"x":164532.3900000006,"y":2562555.4000000022}},{"attributes":{"ID":487457,"DIS_CODE":0,"TOWNNAME":"佳里區","LI":"安西里","LIN":"46鄰","STREET":"文化路","SECT":" ","MAREA":" ","LANE":" ","ALLEY":" ","HOUSE_NO":"６４７號","E_COORD97":164528.20000000001,"N_COORD97":2562555.0899999999,"ADDRESS":"文化路６４７號","OBJECTID":487432},"geometry":{"x":164528.20000000019,"y":2562555.089999998}},{"attributes":{"ID":487458,"DIS_CODE":0,"TOWNNAME":"佳里區","LI":"安西里","LIN":"46鄰","STREET":"文化路","SECT":" ","MAREA":" ","LANE":" ","ALLEY":" ","HOUSE_NO":"６５１號","E_COORD97":164512.76000000001,"N_COORD97":2562550.5699999998,"ADDRESS":"文化路６５１號","OBJECTID":487433},"geometry":{"x":164512.76000000071,"y":2562550.5700000022}},{"attributes":{"ID":487459,"DIS_CODE":0,"TOWNNAME":"佳里區","LI":"安西里","LIN":"46鄰","STREET":"文化路","SECT":" ","MAREA":" ","LANE":" ","ALLEY":" ","HOUSE_NO":"６６３號之１","E_COORD97":164485.78,"N_COORD97":2562543.27,"ADDRESS":"文化路６６３號之１","OBJECTID":487434},"geometry":{"x":164485.78000000212,"y":2562543.2699999996}},{"attributes":{"ID":487460,"DIS_CODE":0,"TOWNNAME":"佳里區","LI":"安西里","LIN":"46鄰","STREET":"文化路","SECT":" ","MAREA":" ","LANE":" ","ALLEY":" ","HOUSE_NO":"６６３號","E_COORD97":164481.29999999999,"N_COORD97":2562545.3199999998,"ADDRESS":"文化路６６３號","OBJECTID":487435},"geometry":{"x":164481.29999999981,"y":2562545.3200000022}},{"attributes":{"ID":487461,"DIS_CODE":0,"TOWNNAME":"佳里區","LI":"安西里","LIN":"46鄰","STREET":"文化路","SECT":" ","MAREA":" ","LANE":" ","ALLEY":" ","HOUSE_NO":"６６５號","E_COORD97":164476.14000000001,"N_COORD97":2562544.6000000001,"ADDRESS":"文化路６６５號","OBJECTID":487436},"geometry":{"x":164476.1400000006,"y":2562544.5999999978}},{"attributes":{"ID":487462,"DIS_CODE":0,"TOWNNAME":"佳里區","LI":"安西里","LIN":"46鄰","STREET":"文化路","SECT":" ","MAREA":" ","LANE":" ","ALLEY":" ","HOUSE_NO":"６６７號","E_COORD97":164471.82000000001,"N_COORD97":2562542.7400000002,"ADDRESS":"文化路６６７號","OBJECTID":487437},"geometry":{"x":164471.82000000216,"y":2562542.7400000021}},{"attributes":{"ID":487463,"DIS_CODE":0,"TOWNNAME":"佳里區","LI":"安西里","LIN":"46鄰","STREET":"文化路","SECT":" ","MAREA":" ","LANE":" ","ALLEY":" ","HOUSE_NO":"６６９號","E_COORD97":164467.57000000001,"N_COORD97":2562546.5699999998,"ADDRESS":"文化路６６９號","OBJECTID":487438},"geometry":{"x":164467.57000000123,"y":2562546.5700000022}},{"attributes":{"ID":487464,"DIS_CODE":0,"TOWNNAME":"佳里區","LI":"安西里","LIN":"46鄰","STREET":"文化路","SECT":" ","MAREA":" ","LANE":" ","ALLEY":" ","HOUSE_NO":"６７１號","E_COORD97":164463.91,"N_COORD97":2562546.27,"ADDRESS":"文化路６７１號","OBJECTID":487439},"geometry":{"x":164463.91000000015,"y":2562546.2699999996}},{"attributes":{"ID":487465,"DIS_CODE":0,"TOWNNAME":"佳里區","LI":"安西里","LIN":"46鄰","STREET":"文化路","SECT":" ","MAREA":" ","LANE":" ","ALLEY":" ","HOUSE_NO":"６７３號","E_COORD97":164460.01000000001,"N_COORD97":2562545.8300000001,"ADDRESS":"文化路６７３號","OBJECTID":487440},"geometry":{"x":164460.01000000071,"y":2562545.8300000001}},{"attributes":{"ID":487466,"DIS_CODE":0,"TOWNNAME":"佳里區","LI":"安西里","LIN":"46鄰","STREET":"文化路","SECT":" ","MAREA":" ","LANE":" ","ALLEY":" ","HOUSE_NO":"６７５號","E_COORD97":164456.31,"N_COORD97":2562545.2400000002,"ADDRESS":"文化路６７５號","OBJECTID":487441},"geometry":{"x":164456.31000000052,"y":2562545.2400000021}},{"attributes":{"ID":487467,"DIS_CODE":0,"TOWNNAME":"佳里區","LI":"安西里","LIN":"46鄰","STREET":"文化路","SECT":" ","MAREA":" ","LANE":" ","ALLEY":" ","HOUSE_NO":"６７７號","E_COORD97":164451.72,"N_COORD97":2562545.1400000001,"ADDRESS":"文化路６７７號","OBJECTID":487442},"geometry":{"x":164451.7200000016,"y":2562545.1400000006}},{"attributes":{"ID":487468,"DIS_CODE":0,"TOWNNAME":"佳里區","LI":"安西里","LIN":"46鄰","STREET":"文化路","SECT":" ","MAREA":" ","LANE":" ","ALLEY":" ","HOUSE_NO":"６７９號","E_COORD97":164447.92000000001,"N_COORD97":2562544.5899999999,"ADDRESS":"文化路６７９號","OBJECTID":487443},"geometry":{"x":164447.91999999993,"y":2562544.5899999999}},{"attributes":{"ID":487469,"DIS_CODE":0,"TOWNNAME":"佳里區","LI":"安西里","LIN":"46鄰","STREET":"文化路","SECT":" ","MAREA":" ","LANE":" ","ALLEY":" ","HOUSE_NO":"６８１號","E_COORD97":164443.53,"N_COORD97":2562543.8500000001,"ADDRESS":"文化路６８１號","OBJECTID":487444},"geometry":{"x":164443.53000000119,"y":2562543.8500000015}},{"attributes":{"ID":487470,"DIS_CODE":0,"TOWNNAME":"佳里區","LI":"安西里","LIN":"46鄰","STREET":"文化路","SECT":" ","MAREA":" ","LANE":" ","ALLEY":" ","HOUSE_NO":"６８３號","E_COORD97":164439.66,"N_COORD97":2562543.48,"ADDRESS":"文化路６８３號","OBJECTID":487445},"geometry":{"x":164439.66000000108,"y":2562543.4800000023}},{"attributes":{"ID":487471,"DIS_CODE":0,"TOWNNAME":"佳里區","LI":"安西里","LIN":"46鄰","STREET":"文化路","SECT":" ","MAREA":" ","LANE":" ","ALLEY":" ","HOUSE_NO":"６８５號","E_COORD97":164435.48999999999,"N_COORD97":2562543.02,"ADDRESS":"文化路６８５號","OBJECTID":487446},"geometry":{"x":164435.49000000115,"y":2562543.0200000014}},{"attributes":{"ID":487472,"DIS_CODE":0,"TOWNNAME":"佳里區","LI":"安西里","LIN":"46鄰","STREET":"文化路","SECT":" ","MAREA":" ","LANE":" ","ALLEY":" ","HOUSE_NO":"６８７號","E_COORD97":164431.66,"N_COORD97":2562542.8399999999,"ADDRESS":"文化路６８７號","OBJECTID":487447},"geometry":{"x":164431.66000000015,"y":2562542.8399999999}},{"attributes":{"ID":487473,"DIS_CODE":0,"TOWNNAME":"佳里區","LI":"安西里","LIN":"46鄰","STREET":"文化路","SECT":" ","MAREA":" ","LANE":" ","ALLEY":" ","HOUSE_NO":"６８９號","E_COORD97":164427.92000000001,"N_COORD97":2562542.29,"ADDRESS":"文化路６８９號","OBJECTID":487448},"geometry":{"x":164427.91999999993,"y":2562542.2899999991}},{"attributes":{"ID":487474,"DIS_CODE":0,"TOWNNAME":"佳里區","LI":"安西里","LIN":"46鄰","STREET":"文化路","SECT":" ","MAREA":" ","LANE":" ","ALLEY":" ","HOUSE_NO":"６９１號","E_COORD97":164424.09,"N_COORD97":2562542.0699999998,"ADDRESS":"文化路６９１號","OBJECTID":487449},"geometry":{"x":164424.09000000078,"y":2562542.0699999984}},{"attributes":{"ID":487475,"DIS_CODE":0,"TOWNNAME":"佳里區","LI":"安西里","LIN":"46鄰","STREET":"文化路","SECT":" ","MAREA":" ","LANE":" ","ALLEY":" ","HOUSE_NO":"６９３號","E_COORD97":164419.70999999999,"N_COORD97":2562541.5699999998,"ADDRESS":"文化路６９３號","OBJECTID":487450},"geometry":{"x":164419.71000000183,"y":2562541.5700000003}},{"attributes":{"ID":487476,"DIS_CODE":0,"TOWNNAME":"佳里區","LI":"安西里","LIN":"46鄰","STREET":"文化路","SECT":" ","MAREA":" ","LANE":" ","ALLEY":" ","HOUSE_NO":"６９５號","E_COORD97":164415.23999999999,"N_COORD97":2562541.6299999999,"ADDRESS":"文化路６９５號","OBJECTID":487451},"geometry":{"x":164415.24000000115,"y":2562541.6300000008}},{"attributes":{"ID":487477,"DIS_CODE":0,"TOWNNAME":"佳里區","LI":"安西里","LIN":"46鄰","STREET":"文化路","SECT":" ","MAREA":" ","LANE":" ","ALLEY":" ","HOUSE_NO":"６９７號","E_COORD97":164411.25,"N_COORD97":2562540.7999999998,"ADDRESS":"文化路６９７號","OBJECTID":487452},"geometry":{"x":164411.25000000093,"y":2562540.8000000007}},{"attributes":{"ID":487478,"DIS_CODE":0,"TOWNNAME":"佳里區","LI":"安西里","LIN":"46鄰","STREET":"文化路","SECT":" ","MAREA":" ","LANE":" ","ALLEY":" ","HOUSE_NO":"６９９號","E_COORD97":164407.23000000001,"N_COORD97":2562541.0299999998,"ADDRESS":"文化路６９９號","OBJECTID":487453},"geometry":{"x":164407.23000000138,"y":2562541.0299999993}},{"attributes":{"ID":487479,"DIS_CODE":0,"TOWNNAME":"佳里區","LI":"安西里","LIN":"46鄰","STREET":"文化路","SECT":" ","MAREA":" ","LANE":" ","ALLEY":" ","HOUSE_NO":"７０１號","E_COORD97":164403.06,"N_COORD97":2562541.3900000001,"ADDRESS":"文化路７０１號","OBJECTID":487454},"geometry":{"x":164403.05999999959,"y":2562541.3900000025}},{"attributes":{"ID":487480,"DIS_CODE":0,"TOWNNAME":"佳里區","LI":"安西里","LIN":"46鄰","STREET":"文化路","SECT":" ","MAREA":" ","LANE":" ","ALLEY":" ","HOUSE_NO":"７０３號","E_COORD97":164398.87,"N_COORD97":2562541.6400000001,"ADDRESS":"文化路７０３號","OBJECTID":487455},"geometry":{"x":164398.87000000104,"y":2562541.6400000006}},{"attributes":{"ID":487481,"DIS_CODE":0,"TOWNNAME":"佳里區","LI":"安西里","LIN":"46鄰","STREET":"文化路","SECT":" ","MAREA":" ","LANE":" ","ALLEY":" ","HOUSE_NO":"７０５號","E_COORD97":164394.17000000001,"N_COORD97":2562541.5299999998,"ADDRESS":"文化路７０５號","OBJECTID":487456},"geometry":{"x":164394.16999999993,"y":2562541.5300000031}},{"attributes":{"ID":487482,"DIS_CODE":0,"TOWNNAME":"永康區","LI":"\u25A0行里","LIN":"46鄰","STREET":"新行街","SECT":" ","MAREA":" ","LANE":" ","ALLEY":" ","HOUSE_NO":"１２５號十樓之５","E_COORD97":172323.42000000001,"N_COORD97":2549035.2999999998,"ADDRESS":"新行街１２５號十樓之５","OBJECTID":487457},"geometry":{"x":172323.42000000086,"y":2549035.3000000026}},{"attributes":{"ID":487483,"DIS_CODE":0,"TOWNNAME":"永康區","LI":"\u25A0行里","LIN":"46鄰","STREET":"新行街","SECT":" ","MAREA":" ","LANE":" ","ALLEY":" ","HOUSE_NO":"１２９號二樓","E_COORD97":172297.76999999999,"N_COORD97":2549016.5099999998,"ADDRESS":"新行街１２９號二樓","OBJECTID":487458},"geometry":{"x":172297.76999999955,"y":2549016.5099999998}},{"attributes":{"ID":487484,"DIS_CODE":0,"TOWNNAME":"永康區","LI":"\u25A0行里","LIN":"46鄰","STREET":"新行街","SECT":" ","MAREA":" ","LANE":" ","ALLEY":" ","HOUSE_NO":"１２５號八樓之４","E_COORD97":172323.29000000001,"N_COORD97":2549035.2999999998,"ADDRESS":"新行街１２５號八樓之４","OBJECTID":487459},"geometry":{"x":172323.29000000004,"y":2549035.3000000026}},{"attributes":{"ID":487485,"DIS_CODE":0,"TOWNNAME":"永康區","LI":"\u25A0行里","LIN":"46鄰","STREET":"新行街","SECT":" ","MAREA":" ","LANE":" ","ALLEY":" ","HOUSE_NO":"１２５號三樓之４","E_COORD97":172323.29000000001,"N_COORD97":2549035.2999999998,"ADDRESS":"新行街１２５號三樓之４","OBJECTID":487460},"geometry":{"x":172323.29000000004,"y":2549035.3000000026}},{"attributes":{"ID":487486,"DIS_CODE":0,"TOWNNAME":"永康區","LI":"\u25A0行里","LIN":"46鄰","STREET":"新行街","SECT":" ","MAREA":" ","LANE":" ","ALLEY":" ","HOUSE_NO":"１２５號九樓之４","E_COORD97":172323.29000000001,"N_COORD97":2549035.2999999998,"ADDRESS":"新行街１２５號九樓之４","OBJECTID":487461},"geometry":{"x":172323.29000000004,"y":2549035.3000000026}},{"attributes":{"ID":487487,"DIS_CODE":0,"TOWNNAME":"永康區","LI":"\u25A0行里","LIN":"46鄰","STREET":"新行街","SECT":" ","MAREA":" ","LANE":" ","ALLEY":" ","HOUSE_NO":"１２５號八樓之５","E_COORD97":172323.42000000001,"N_COORD97":2549035.2999999998,"ADDRESS":"新行街１２５號八樓之５","OBJECTID":487462},"geometry":{"x":172323.42000000086,"y":2549035.3000000026}},{"attributes":{"ID":487488,"DIS_CODE":0,"TOWNNAME":"永康區","LI":"\u25A0行里","LIN":"46鄰","STREET":"新行街","SECT":" ","MAREA":" ","LANE":" ","ALLEY":" ","HOUSE_NO":"１２５號三樓之３","E_COORD97":172323.35999999999,"N_COORD97":2549035.2999999998,"ADDRESS":"新行街１２５號三樓之３","OBJECTID":487463},"geometry":{"x":172323.36000000034,"y":2549035.3000000026}},{"attributes":{"ID":487489,"DIS_CODE":0,"TOWNNAME":"永康區","LI":"\u25A0行里","LIN":"46鄰","STREET":"新行街","SECT":" ","MAREA":" ","LANE":" ","ALLEY":" ","HOUSE_NO":"１２５號四樓之６","E_COORD97":172323.37,"N_COORD97":2549035.2999999998,"ADDRESS":"新行街１２５號四樓之６","OBJECTID":487464},"geometry":{"x":172323.36999999918,"y":2549035.3000000026}},{"attributes":{"ID":487490,"DIS_CODE":0,"TOWNNAME":"永康區","LI":"\u25A0行里","LIN":"46鄰","STREET":"新行街","SECT":" ","MAREA":" ","LANE":" ","ALLEY":" ","HOUSE_NO":"１２５號十一樓之６","E_COORD97":172324.62,"N_COORD97":2549035.2999999998,"ADDRESS":"新行街１２５號十一樓之６","OBJECTID":487465},"geometry":{"x":172324.62000000011,"y":2549035.3000000026}},{"attributes":{"ID":487491,"DIS_CODE":0,"TOWNNAME":"永康區","LI":"\u25A0行里","LIN":"46鄰","STREET":"新行街","SECT":" ","MAREA":" ","LANE":" ","ALLEY":" ","HOUSE_NO":"１２５號十一樓之３","E_COORD97":172324.60999999999,"N_COORD97":2549035.2999999998,"ADDRESS":"新行街１２５號十一樓之３","OBJECTID":487466},"geometry":{"x":172324.61000000034,"y":2549035.3000000026}},{"attributes":{"ID":487492,"DIS_CODE":0,"TOWNNAME":"永康區","LI":"\u25A0行里","LIN":"46鄰","STREET":"新行街","SECT":" ","MAREA":" ","LANE":" ","ALLEY":" ","HOUSE_NO":"１２５號十樓之６","E_COORD97":172323.37,"N_COORD97":2549035.2999999998,"ADDRESS":"新行街１２５號十樓之６","OBJECTID":487467},"geometry":{"x":172323.36999999918,"y":2549035.3000000026}},{"attributes":{"ID":487493,"DIS_CODE":0,"TOWNNAME":"永康區","LI":"\u25A0行里","LIN":"46鄰","STREET":"新行街","SECT":" ","MAREA":" ","LANE":" ","ALLEY":" ","HOUSE_NO":"１２５號十三樓之６","E_COORD97":172324.62,"N_COORD97":2549035.2999999998,"ADDRESS":"新行街１２５號十三樓之６","OBJECTID":487468},"geometry":{"x":172324.62000000011,"y":2549035.3000000026}},{"attributes":{"ID":487494,"DIS_CODE":0,"TOWNNAME":"永康區","LI":"\u25A0行里","LIN":"46鄰","STREET":"新行街","SECT":" ","MAREA":" ","LANE":" ","ALLEY":" ","HOUSE_NO":"１２５號十五樓之２","E_COORD97":172324.64999999999,"N_COORD97":2549035.2999999998,"ADDRESS":"新行街１２５號十五樓之２","OBJECTID":487469},"geometry":{"x":172324.65000000037,"y":2549035.3000000026}},{"attributes":{"ID":487495,"DIS_CODE":0,"TOWNNAME":"永康區","LI":"\u25A0行里","LIN":"46鄰","STREET":"新行街","SECT":" ","MAREA":" ","LANE":" ","ALLEY":" ","HOUSE_NO":"１２５號七樓之３","E_COORD97":172323.35999999999,"N_COORD97":2549035.2999999998,"ADDRESS":"新行街１２５號七樓之３","OBJECTID":487470},"geometry":{"x":172323.36000000034,"y":2549035.3000000026}},{"attributes":{"ID":487496,"DIS_CODE":0,"TOWNNAME":"永康區","LI":"\u25A0行里","LIN":"46鄰","STREET":"新行街","SECT":" ","MAREA":" ","LANE":" ","ALLEY":" ","HOUSE_NO":"１２５號六樓之３","E_COORD97":172323.35999999999,"N_COORD97":2549035.2999999998,"ADDRESS":"新行街１２５號六樓之３","OBJECTID":487471},"geometry":{"x":172323.36000000034,"y":2549035.3000000026}},{"attributes":{"ID":487497,"DIS_CODE":0,"TOWNNAME":"永康區","LI":"\u25A0行里","LIN":"46鄰","STREET":"新行街","SECT":" ","MAREA":" ","LANE":" ","ALLEY":" ","HOUSE_NO":"１２７號二樓","E_COORD97":172302.28,"N_COORD97":2549008.3700000001,"ADDRESS":"新行街１２７號二樓","OBJECTID":487472},"geometry":{"x":172302.28000000212,"y":2549008.3700000029}},{"attributes":{"ID":487498,"DIS_CODE":0,"TOWNNAME":"永康區","LI":"\u25A0行里","LIN":"46鄰","STREET":"新行街","SECT":" ","MAREA":" ","LANE":" ","ALLEY":" ","HOUSE_NO":"１２５號十四樓之４","E_COORD97":172324.54000000001,"N_COORD97":2549035.2999999998,"ADDRESS":"新行街１２５號十四樓之４","OBJECTID":487473},"geometry":{"x":172324.54000000097,"y":2549035.3000000026}},{"attributes":{"ID":487499,"DIS_CODE":0,"TOWNNAME":"永康區","LI":"\u25A0行里","LIN":"46鄰","STREET":"新行街","SECT":" ","MAREA":" ","LANE":" ","ALLEY":" ","HOUSE_NO":"１２５號八樓之６","E_COORD97":172323.37,"N_COORD97":2549035.2999999998,"ADDRESS":"新行街１２５號八樓之６","OBJECTID":487474},"geometry":{"x":172323.36999999918,"y":2549035.3000000026}},{"attributes":{"ID":487500,"DIS_CODE":0,"TOWNNAME":"永康區","LI":"\u25A0行里","LIN":"46鄰","STREET":"新行街","SECT":" ","MAREA":" ","LANE":" ","ALLEY":" ","HOUSE_NO":"１２５號十三樓之２","E_COORD97":172324.64999999999,"N_COORD97":2549035.2999999998,"ADDRESS":"新行街１２５號十三樓之２","OBJECTID":487475},"geometry":{"x":172324.65000000037,"y":2549035.3000000026}},{"attributes":{"ID":487501,"DIS_CODE":0,"TOWNNAME":"永康區","LI":"\u25A0行里","LIN":"46鄰","STREET":"新行街","SECT":" ","MAREA":" ","LANE":" ","ALLEY":" ","HOUSE_NO":"１２５號十二樓之３","E_COORD97":172324.60999999999,"N_COORD97":2549035.2999999998,"ADDRESS":"新行街１２５號十二樓之３","OBJECTID":487476},"geometry":{"x":172324.61000000034,"y":2549035.3000000026}},{"attributes":{"ID":487502,"DIS_CODE":0,"TOWNNAME":"永康區","LI":"\u25A0行里","LIN":"46鄰","STREET":"新行街","SECT":" ","MAREA":" ","LANE":" ","ALLEY":" ","HOUSE_NO":"１２５號十五樓之３","E_COORD97":172324.60999999999,"N_COORD97":2549035.2999999998,"ADDRESS":"新行街１２５號十五樓之３","OBJECTID":487477},"geometry":{"x":172324.61000000034,"y":2549035.3000000026}},{"attributes":{"ID":487503,"DIS_CODE":0,"TOWNNAME":"永康區","LI":"\u25A0行里","LIN":"46鄰","STREET":"新行街","SECT":" ","MAREA":" ","LANE":" ","ALLEY":" ","HOUSE_NO":"１２５號八樓之１","E_COORD97":172323.26000000001,"N_COORD97":2549035.2999999998,"ADDRESS":"新行街１２５號八樓之１","OBJECTID":487478},"geometry":{"x":172323.25999999978,"y":2549035.3000000026}},{"attributes":{"ID":487504,"DIS_CODE":0,"TOWNNAME":"永康區","LI":"\u25A0行里","LIN":"46鄰","STREET":"新行街","SECT":" ","MAREA":" ","LANE":" ","ALLEY":" ","HOUSE_NO":"１２５號十二樓之２","E_COORD97":172324.64999999999,"N_COORD97":2549035.2999999998,"ADDRESS":"新行街１２５號十二樓之２","OBJECTID":487479},"geometry":{"x":172324.65000000037,"y":2549035.3000000026}},{"attributes":{"ID":487505,"DIS_CODE":0,"TOWNNAME":"永康區","LI":"\u25A0行里","LIN":"46鄰","STREET":"新行街","SECT":" ","MAREA":" ","LANE":" ","ALLEY":" ","HOUSE_NO":"１２５號十四樓之２","E_COORD97":172324.64999999999,"N_COORD97":2549035.2999999998,"ADDRESS":"新行街１２５號十四樓之２","OBJECTID":487480},"geometry":{"x":172324.65000000037,"y":2549035.3000000026}},{"attributes":{"ID":487506,"DIS_CODE":0,"TOWNNAME":"永康區","LI":"\u25A0行里","LIN":"46鄰","STREET":"新行街","SECT":" ","MAREA":" ","LANE":" ","ALLEY":" ","HOUSE_NO":"１２５號十二樓之６","E_COORD97":172324.62,"N_COORD97":2549035.2999999998,"ADDRESS":"新行街１２５號十二樓之６","OBJECTID":487481},"geometry":{"x":172324.62000000011,"y":2549035.3000000026}},{"attributes":{"ID":487507,"DIS_CODE":0,"TOWNNAME":"永康區","LI":"\u25A0行里","LIN":"46鄰","STREET":"新行街","SECT":" ","MAREA":" ","LANE":" ","ALLEY":" ","HOUSE_NO":"１２５號五樓之１","E_COORD97":172323.26000000001,"N_COORD97":2549035.2999999998,"ADDRESS":"新行街１２５號五樓之１","OBJECTID":487482},"geometry":{"x":172323.25999999978,"y":2549035.3000000026}},{"attributes":{"ID":487508,"DIS_CODE":0,"TOWNNAME":"大內區","LI":"石城里","LIN":"7鄰","STREET":" ","SECT":" ","MAREA":"石子瀨","LANE":" ","ALLEY":" ","HOUSE_NO":"６５號","E_COORD97":184193.442515,"N_COORD97":2557957.2898499998,"ADDRESS":"石子瀨６５號","OBJECTID":487483},"geometry":{"x":184193.44251499977,"y":2557957.2898469996}},{"attributes":{"ID":487509,"DIS_CODE":0,"TOWNNAME":"永康區","LI":"\u25A0行里","LIN":"46鄰","STREET":"新行街","SECT":" ","MAREA":" ","LANE":" ","ALLEY":" ","HOUSE_NO":"１２５號十樓之３","E_COORD97":172323.35999999999,"N_COORD97":2549035.2999999998,"ADDRESS":"新行街１２５號十樓之３","OBJECTID":487484},"geometry":{"x":172323.36000000034,"y":2549035.3000000026}},{"attributes":{"ID":487510,"DIS_CODE":0,"TOWNNAME":"永康區","LI":"\u25A0行里","LIN":"46鄰","STREET":"新行街","SECT":" ","MAREA":" ","LANE":" ","ALLEY":" ","HOUSE_NO":"１２５號十六樓之２","E_COORD97":172324.64999999999,"N_COORD97":2549035.2999999998,"ADDRESS":"新行街１２５號十六樓之２","OBJECTID":487485},"geometry":{"x":172324.65000000037,"y":2549035.3000000026}},{"attributes":{"ID":487511,"DIS_CODE":0,"TOWNNAME":"永康區","LI":"\u25A0行里","LIN":"46鄰","STREET":"新行街","SECT":" ","MAREA":" ","LANE":" ","ALLEY":" ","HOUSE_NO":"１２５號十六樓之４","E_COORD97":172324.54000000001,"N_COORD97":2549035.2999999998,"ADDRESS":"新行街１２５號十六樓之４","OBJECTID":487486},"geometry":{"x":172324.54000000097,"y":2549035.3000000026}},{"attributes":{"ID":487512,"DIS_CODE":0,"TOWNNAME":"永康區","LI":"\u25A0行里","LIN":"46鄰","STREET":"新行街","SECT":" ","MAREA":" ","LANE":" ","ALLEY":" ","HOUSE_NO":"１２５號十六樓之３","E_COORD97":172324.60999999999,"N_COORD97":2549035.2999999998,"ADDRESS":"新行街１２５號十六樓之３","OBJECTID":487487},"geometry":{"x":172324.61000000034,"y":2549035.3000000026}},{"attributes":{"ID":487513,"DIS_CODE":0,"TOWNNAME":"仁德區","LI":"太子里","LIN":"46鄰","STREET":"太子一街","SECT":" ","MAREA":" ","LANE":" ","ALLEY":" ","HOUSE_NO":"３９號","E_COORD97":174789.81,"N_COORD97":2543351.25,"ADDRESS":"太子一街３９號","OBJECTID":487488},"geometry":{"x":174789.81000000145,"y":2543351.2500000037}},{"attributes":{"ID":487514,"DIS_CODE":0,"TOWNNAME":"永康區","LI":"崑山里","LIN":"46鄰","STREET":"國光五街","SECT":" ","MAREA":" ","LANE":" ","ALLEY":" ","HOUSE_NO":"４２號","E_COORD97":174143.01999999999,"N_COORD97":2545093,"ADDRESS":"國光五街４２號","OBJECTID":487489},"geometry":{"x":174143.02000000048,"y":2545093.0000000019}},{"attributes":{"ID":487515,"DIS_CODE":0,"TOWNNAME":"永康區","LI":"崑山里","LIN":"46鄰","STREET":"國光五街","SECT":" ","MAREA":" ","LANE":" ","ALLEY":" ","HOUSE_NO":"３０號","E_COORD97":174181.29999999999,"N_COORD97":2545082.02,"ADDRESS":"國光五街３０號","OBJECTID":487490},"geometry":{"x":174181.29999999981,"y":2545082.0200000014}},{"attributes":{"ID":487516,"DIS_CODE":0,"TOWNNAME":"永康區","LI":"崑山里","LIN":"46鄰","STREET":"崑山街","SECT":" ","MAREA":" ","LANE":" ","ALLEY":" ","HOUSE_NO":"２５６號","E_COORD97":174133.92000000001,"N_COORD97":2545134.6200000001,"ADDRESS":"崑山街２５６號","OBJECTID":487491},"geometry":{"x":174133.92000000086,"y":2545134.6200000029}},{"attributes":{"ID":487517,"DIS_CODE":0,"TOWNNAME":"永康區","LI":"崑山里","LIN":"46鄰","STREET":"國光五街","SECT":" ","MAREA":" ","LANE":" ","ALLEY":" ","HOUSE_NO":"５０號","E_COORD97":174126.67999999999,"N_COORD97":2545099.25,"ADDRESS":"國光五街５０號","OBJECTID":487492},"geometry":{"x":174126.68000000063,"y":2545099.25}},{"attributes":{"ID":487518,"DIS_CODE":0,"TOWNNAME":"永康區","LI":"崑山里","LIN":"46鄰","STREET":"國光五街","SECT":" ","MAREA":" ","LANE":" ","ALLEY":" ","HOUSE_NO":"２８號","E_COORD97":174186,"N_COORD97":2545080.52,"ADDRESS":"國光五街２８號","OBJECTID":487493},"geometry":{"x":174186.00000000093,"y":2545080.5199999996}},{"attributes":{"ID":487519,"DIS_CODE":0,"TOWNNAME":"歸仁區","LI":"辜厝里","LIN":"46鄰","STREET":"中正南路","SECT":"一段","MAREA":" ","LANE":" ","ALLEY":" ","HOUSE_NO":"３２６號","E_COORD97":177150.04000000001,"N_COORD97":2540223.9500000002,"ADDRESS":"中正南路一段３２６號","OBJECTID":487494},"geometry":{"x":177150.03999999911,"y":2540223.9500000011}},{"attributes":{"ID":487520,"DIS_CODE":0,"TOWNNAME":"歸仁區","LI":"後市里","LIN":"46鄰","STREET":"民權三街","SECT":" ","MAREA":" ","LANE":" ","ALLEY":" ","HOUSE_NO":"１５號","E_COORD97":177130.53,"N_COORD97":2541103.75,"ADDRESS":"民權三街１５號","OBJECTID":487495},"geometry":{"x":177130.53000000119,"y":2541103.7500000019}},{"attributes":{"ID":487521,"DIS_CODE":0,"TOWNNAME":"永康區","LI":"\u25A0行里","LIN":"46鄰","STREET":"新行街","SECT":" ","MAREA":" ","LANE":" ","ALLEY":" ","HOUSE_NO":"１２５號十二樓之１","E_COORD97":172324.51000000001,"N_COORD97":2549035.2999999998,"ADDRESS":"新行街１２５號十二樓之１","OBJECTID":487496},"geometry":{"x":172324.51000000071,"y":2549035.3000000026}},{"attributes":{"ID":487522,"DIS_CODE":0,"TOWNNAME":"永康區","LI":"\u25A0行里","LIN":"46鄰","STREET":"新行街","SECT":" ","MAREA":" ","LANE":" ","ALLEY":" ","HOUSE_NO":"１２５號七樓之４","E_COORD97":172323.29000000001,"N_COORD97":2549035.2999999998,"ADDRESS":"新行街１２５號七樓之４","OBJECTID":487497},"geometry":{"x":172323.29000000004,"y":2549035.3000000026}},{"attributes":{"ID":487523,"DIS_CODE":0,"TOWNNAME":"永康區","LI":"\u25A0行里","LIN":"46鄰","STREET":"新行街","SECT":" ","MAREA":" ","LANE":" ","ALLEY":" ","HOUSE_NO":"１２５號十三樓之３","E_COORD97":172324.60999999999,"N_COORD97":2549035.2999999998,"ADDRESS":"新行街１２５號十三樓之３","OBJECTID":487498},"geometry":{"x":172324.61000000034,"y":2549035.3000000026}},{"attributes":{"ID":487524,"DIS_CODE":0,"TOWNNAME":"永康區","LI":"\u25A0行里","LIN":"46鄰","STREET":"新行街","SECT":" ","MAREA":" ","LANE":" ","ALLEY":" ","HOUSE_NO":"１２５號十一樓之５","E_COORD97":172324.67000000001,"N_COORD97":2549035.2999999998,"ADDRESS":"新行街１２５號十一樓之５","OBJECTID":487499},"geometry":{"x":172324.67000000179,"y":2549035.3000000026}},{"attributes":{"ID":487525,"DIS_CODE":0,"TOWNNAME":"永康區","LI":"\u25A0行里","LIN":"46鄰","STREET":"新行街","SECT":" ","MAREA":" ","LANE":" ","ALLEY":" ","HOUSE_NO":"１２５號十二樓之４","E_COORD97":172324.54000000001,"N_COORD97":2549035.2999999998,"ADDRESS":"新行街１２５號十二樓之４","OBJECTID":487500},"geometry":{"x":172324.54000000097,"y":2549035.3000000026}},{"attributes":{"ID":487526,"DIS_CODE":0,"TOWNNAME":"歸仁區","LI":"南保里","LIN":"46鄰","STREET":"大順街","SECT":" ","MAREA":" ","LANE":" ","ALLEY":" ","HOUSE_NO":"２２６號","E_COORD97":176789.97,"N_COORD97":2540615.25,"ADDRESS":"大順街２２６號","OBJECTID":487501},"geometry":{"x":176789.97000000067,"y":2540615.2500000037}},{"attributes":{"ID":487527,"DIS_CODE":0,"TOWNNAME":"歸仁區","LI":"南保里","LIN":"46鄰","STREET":"大順街","SECT":" ","MAREA":" ","LANE":" ","ALLEY":" ","HOUSE_NO":"２１２號","E_COORD97":176821.76999999999,"N_COORD97":2540615.25,"ADDRESS":"大順街２１２號","OBJECTID":487502},"geometry":{"x":176821.76999999955,"y":2540615.2500000037}},{"attributes":{"ID":487528,"DIS_CODE":0,"TOWNNAME":"歸仁區","LI":"六甲里","LIN":"43鄰","STREET":"民生十二街","SECT":" ","MAREA":" ","LANE":" ","ALLEY":" ","HOUSE_NO":"８３號","E_COORD97":175834.84,"N_COORD97":2539453.29,"ADDRESS":"民生十二街８３號","OBJECTID":487503},"geometry":{"x":175834.84000000078,"y":2539453.2899999991}},{"attributes":{"ID":487529,"DIS_CODE":0,"TOWNNAME":"歸仁區","LI":"六甲里","LIN":"43鄰","STREET":"民生十二街","SECT":" ","MAREA":" ","LANE":" ","ALLEY":" ","HOUSE_NO":"８１號","E_COORD97":175841.94,"N_COORD97":2539454.29,"ADDRESS":"民生十二街８１號","OBJECTID":487504},"geometry":{"x":175841.94000000041,"y":2539454.2899999972}},{"attributes":{"ID":487530,"DIS_CODE":0,"TOWNNAME":"歸仁區","LI":"南保里","LIN":"43鄰","STREET":"民權南路","SECT":" ","MAREA":" ","LANE":" ","ALLEY":" ","HOUSE_NO":"１６號","E_COORD97":176968.19,"N_COORD97":2540795.29,"ADDRESS":"民權南路１６號","OBJECTID":487505},"geometry":{"x":176968.19000000227,"y":2540795.290000001}},{"attributes":{"ID":487531,"DIS_CODE":0,"TOWNNAME":"歸仁區","LI":"南保里","LIN":"43鄰","STREET":"民權南路","SECT":" ","MAREA":" ","LANE":" ","ALLEY":" ","HOUSE_NO":"９２號","E_COORD97":176960.09,"N_COORD97":2540622.29,"ADDRESS":"民權南路９２號","OBJECTID":487506},"geometry":{"x":176960.09000000078,"y":2540622.290000001}},{"attributes":{"ID":487532,"DIS_CODE":0,"TOWNNAME":"歸仁區","LI":"南保里","LIN":"43鄰","STREET":"民權南路","SECT":" ","MAREA":" ","LANE":" ","ALLEY":" ","HOUSE_NO":"２號","E_COORD97":176968.04000000001,"N_COORD97":2540819.29,"ADDRESS":"民權南路２號","OBJECTID":487507},"geometry":{"x":176968.04000000004,"y":2540819.2899999991}},{"attributes":{"ID":487533,"DIS_CODE":0,"TOWNNAME":"歸仁區","LI":"辜厝里","LIN":"43鄰","STREET":"民權九街","SECT":" ","MAREA":" ","LANE":" ","ALLEY":" ","HOUSE_NO":"９號","E_COORD97":176989.04999999999,"N_COORD97":2540358.4900000002,"ADDRESS":"民權九街９號","OBJECTID":487508},"geometry":{"x":176989.05000000075,"y":2540358.4900000002}},{"attributes":{"ID":487534,"DIS_CODE":0,"TOWNNAME":"歸仁區","LI":"辜厝里","LIN":"43鄰","STREET":"民權九街","SECT":" ","MAREA":" ","LANE":" ","ALLEY":" ","HOUSE_NO":"６３號","E_COORD97":177107.44,"N_COORD97":2540356.3900000001,"ADDRESS":"民權九街６３號","OBJECTID":487509},"geometry":{"x":177107.44000000134,"y":2540356.3900000006}},{"attributes":{"ID":487535,"DIS_CODE":0,"TOWNNAME":"歸仁區","LI":"辜厝里","LIN":"43鄰","STREET":"民權九街","SECT":" ","MAREA":" ","LANE":" ","ALLEY":" ","HOUSE_NO":"８５號","E_COORD97":177170.16,"N_COORD97":2540355.2999999998,"ADDRESS":"民權九街８５號","OBJECTID":487510},"geometry":{"x":177170.16000000108,"y":2540355.3000000026}},{"attributes":{"ID":487536,"DIS_CODE":0,"TOWNNAME":"歸仁區","LI":"後市里","LIN":"43鄰","STREET":"國光街","SECT":" ","MAREA":" ","LANE":" ","ALLEY":" ","HOUSE_NO":"７５號","E_COORD97":177215.69,"N_COORD97":2540953.7400000002,"ADDRESS":"國光街７５號","OBJECTID":487511},"geometry":{"x":177215.69000000227,"y":2540953.7400000002}},{"attributes":{"ID":487537,"DIS_CODE":0,"TOWNNAME":"歸仁區","LI":"辜厝里","LIN":"43鄰","STREET":"民權九街","SECT":" ","MAREA":" ","LANE":" ","ALLEY":" ","HOUSE_NO":"１７號","E_COORD97":177006.82999999999,"N_COORD97":2540358.3500000001,"ADDRESS":"民權九街１７號","OBJECTID":487512},"geometry":{"x":177006.83000000007,"y":2540358.3499999996}},{"attributes":{"ID":487538,"DIS_CODE":0,"TOWNNAME":"歸仁區","LI":"南保里","LIN":"43鄰","STREET":"民權南路","SECT":" ","MAREA":" ","LANE":" ","ALLEY":" ","HOUSE_NO":"３４號","E_COORD97":176967.89000000001,"N_COORD97":2540748.29,"ADDRESS":"民權南路３４號","OBJECTID":487513},"geometry":{"x":176967.8900000006,"y":2540748.2899999991}},{"attributes":{"ID":487539,"DIS_CODE":0,"TOWNNAME":"歸仁區","LI":"南保里","LIN":"43鄰","STREET":"民權南路","SECT":" ","MAREA":" ","LANE":" ","ALLEY":" ","HOUSE_NO":"４６號","E_COORD97":176963.69,"N_COORD97":2540718.29,"ADDRESS":"民權南路４６號","OBJECTID":487514},"geometry":{"x":176963.69000000134,"y":2540718.2899999991}},{"attributes":{"ID":487540,"DIS_CODE":0,"TOWNNAME":"歸仁區","LI":"南保里","LIN":"43鄰","STREET":"民權南路","SECT":" ","MAREA":" ","LANE":" ","ALLEY":" ","HOUSE_NO":"６４號","E_COORD97":176963.48999999999,"N_COORD97":2540683.29,"ADDRESS":"民權南路６４號","OBJECTID":487515},"geometry":{"x":176963.49000000022,"y":2540683.290000001}},{"attributes":{"ID":487541,"DIS_CODE":0,"TOWNNAME":"歸仁區","LI":"南保里","LIN":"43鄰","STREET":"民權南路","SECT":" ","MAREA":" ","LANE":" ","ALLEY":" ","HOUSE_NO":"１８號","E_COORD97":176968.09,"N_COORD97":2540791.29,"ADDRESS":"民權南路１８號","OBJECTID":487516},"geometry":{"x":176968.08999999892,"y":2540791.290000001}},{"attributes":{"ID":487542,"DIS_CODE":0,"TOWNNAME":"歸仁區","LI":"六甲里","LIN":"43鄰","STREET":"民生十二街","SECT":" ","MAREA":" ","LANE":" ","ALLEY":" ","HOUSE_NO":"７５號","E_COORD97":175856.34,"N_COORD97":2539453.29,"ADDRESS":"民生十二街７５號","OBJECTID":487517},"geometry":{"x":175856.34000000078,"y":2539453.2899999991}},{"attributes":{"ID":487543,"DIS_CODE":0,"TOWNNAME":"歸仁區","LI":"南保里","LIN":"43鄰","STREET":"民權南路","SECT":" ","MAREA":" ","LANE":" ","ALLEY":" ","HOUSE_NO":"２６號","E_COORD97":176968.09,"N_COORD97":2540774.29,"ADDRESS":"民權南路２６號","OBJECTID":487518},"geometry":{"x":176968.08999999892,"y":2540774.290000001}},{"attributes":{"ID":487544,"DIS_CODE":0,"TOWNNAME":"新市區","LI":"社內里","LIN":"7鄰","STREET":" ","SECT":" ","MAREA":"社內","LANE":" ","ALLEY":" ","HOUSE_NO":"７１之６號","E_COORD97":176567.97988599999,"N_COORD97":2552743.48924,"ADDRESS":"社內７１之６號","OBJECTID":487519},"geometry":{"x":176567.97988600004,"y":2552743.48924}},{"attributes":{"ID":487545,"DIS_CODE":0,"TOWNNAME":"歸仁區","LI":"後市里","LIN":"43鄰","STREET":"國光街","SECT":" ","MAREA":" ","LANE":" ","ALLEY":" ","HOUSE_NO":"７１號","E_COORD97":177206.48999999999,"N_COORD97":2540955.7400000002,"ADDRESS":"國光街７１號","OBJECTID":487520},"geometry":{"x":177206.48999999929,"y":2540955.7400000021}},{"attributes":{"ID":487546,"DIS_CODE":0,"TOWNNAME":"歸仁區","LI":"南保里","LIN":"43鄰","STREET":"民權南路","SECT":" ","MAREA":" ","LANE":" ","ALLEY":" ","HOUSE_NO":"９０號","E_COORD97":176953.31,"N_COORD97":2540625.25,"ADDRESS":"民權南路９０號","OBJECTID":487521},"geometry":{"x":176953.31000000052,"y":2540625.2499999981}},{"attributes":{"ID":487547,"DIS_CODE":0,"TOWNNAME":"歸仁區","LI":"南保里","LIN":"43鄰","STREET":"民權南路","SECT":" ","MAREA":" ","LANE":" ","ALLEY":" ","HOUSE_NO":"７０號","E_COORD97":176955.51000000001,"N_COORD97":2540669.25,"ADDRESS":"民權南路７０號","OBJECTID":487522},"geometry":{"x":176955.51000000071,"y":2540669.2499999981}},{"attributes":{"ID":487548,"DIS_CODE":0,"TOWNNAME":"歸仁區","LI":"南保里","LIN":"43鄰","STREET":"民權南路","SECT":" ","MAREA":" ","LANE":" ","ALLEY":" ","HOUSE_NO":"７６號","E_COORD97":176954.51000000001,"N_COORD97":2540656.25,"ADDRESS":"民權南路７６號","OBJECTID":487523},"geometry":{"x":176954.50999999978,"y":2540656.2500000019}},{"attributes":{"ID":487549,"DIS_CODE":0,"TOWNNAME":"歸仁區","LI":"南保里","LIN":"43鄰","STREET":"民權南路","SECT":" ","MAREA":" ","LANE":" ","ALLEY":" ","HOUSE_NO":"８８號","E_COORD97":176953.31,"N_COORD97":2540629.25,"ADDRESS":"民權南路８８號","OBJECTID":487524},"geometry":{"x":176953.31000000052,"y":2540629.2500000019}},{"attributes":{"ID":487550,"DIS_CODE":0,"TOWNNAME":"歸仁區","LI":"南保里","LIN":"43鄰","STREET":"民權南路","SECT":" ","MAREA":" ","LANE":" ","ALLEY":" ","HOUSE_NO":"９４號","E_COORD97":176950.10999999999,"N_COORD97":2540614.25,"ADDRESS":"民權南路９４號","OBJECTID":487525},"geometry":{"x":176950.11000000127,"y":2540614.25}},{"attributes":{"ID":487551,"DIS_CODE":0,"TOWNNAME":"歸仁區","LI":"南保里","LIN":"43鄰","STREET":"民權南路","SECT":" ","MAREA":" ","LANE":" ","ALLEY":" ","HOUSE_NO":"８６號","E_COORD97":176953.31,"N_COORD97":2540634.25,"ADDRESS":"民權南路８６號","OBJECTID":487526},"geometry":{"x":176953.31000000052,"y":2540634.25}},{"attributes":{"ID":487552,"DIS_CODE":0,"TOWNNAME":"歸仁區","LI":"南保里","LIN":"43鄰","STREET":"民權南路","SECT":" ","MAREA":" ","LANE":" ","ALLEY":" ","HOUSE_NO":"７２號","E_COORD97":176955.51000000001,"N_COORD97":2540665.25,"ADDRESS":"民權南路７２號","OBJECTID":487527},"geometry":{"x":176955.51000000071,"y":2540665.25}},{"attributes":{"ID":487553,"DIS_CODE":0,"TOWNNAME":"歸仁區","LI":"南保里","LIN":"43鄰","STREET":"民權南路","SECT":" ","MAREA":" ","LANE":" ","ALLEY":" ","HOUSE_NO":"８２號","E_COORD97":176954.41,"N_COORD97":2540642.25,"ADDRESS":"民權南路８２號","OBJECTID":487528},"geometry":{"x":176954.41000000201,"y":2540642.2500000037}},{"attributes":{"ID":487554,"DIS_CODE":0,"TOWNNAME":"仁德區","LI":"後壁里","LIN":"43鄰","STREET":"德崙路","SECT":" ","MAREA":" ","LANE":" ","ALLEY":" ","HOUSE_NO":"４１號","E_COORD97":173307.89000000001,"N_COORD97":2538577.27,"ADDRESS":"德崙路４１號","OBJECTID":487529},"geometry":{"x":173307.8900000006,"y":2538577.2700000014}},{"attributes":{"ID":487555,"DIS_CODE":0,"TOWNNAME":"新市區","LI":"新和里","LIN":"43鄰","STREET":"民權路","SECT":" ","MAREA":" ","LANE":" ","ALLEY":" ","HOUSE_NO":"１９號","E_COORD97":177399.41,"N_COORD97":2553076.79,"ADDRESS":"民權路１９號","OBJECTID":487530},"geometry":{"x":177399.41000000108,"y":2553076.7899999972}},{"attributes":{"ID":487556,"DIS_CODE":0,"TOWNNAME":"新市區","LI":"新和里","LIN":"43鄰","STREET":"民權路","SECT":" ","MAREA":" ","LANE":" ","ALLEY":" ","HOUSE_NO":"４５號","E_COORD97":177337.45999999999,"N_COORD97":2553067.29,"ADDRESS":"民權路４５號","OBJECTID":487531},"geometry":{"x":177337.46000000089,"y":2553067.290000001}},{"attributes":{"ID":487557,"DIS_CODE":0,"TOWNNAME":"永康區","LI":"南灣里","LIN":"43鄰","STREET":"大灣路","SECT":" ","MAREA":" ","LANE":" ","ALLEY":" ","HOUSE_NO":"５５７號","E_COORD97":174682.14000000001,"N_COORD97":2544809.1600000001,"ADDRESS":"大灣路５５７號","OBJECTID":487532},"geometry":{"x":174682.13999999966,"y":2544809.1600000001}},{"attributes":{"ID":487558,"DIS_CODE":0,"TOWNNAME":"永康區","LI":"南灣里","LIN":"43鄰","STREET":"大灣路","SECT":" ","MAREA":" ","LANE":" ","ALLEY":" ","HOUSE_NO":"５５５號","E_COORD97":174418.84,"N_COORD97":2544562.5,"ADDRESS":"大灣路５５５號","OBJECTID":487533},"geometry":{"x":174418.84000000078,"y":2544562.5}},{"attributes":{"ID":487559,"DIS_CODE":0,"TOWNNAME":"新市區","LI":"新和里","LIN":"43鄰","STREET":"民權路","SECT":" ","MAREA":" ","LANE":" ","ALLEY":" ","HOUSE_NO":"５７號","E_COORD97":177310.76999999999,"N_COORD97":2553063.54,"ADDRESS":"民權路５７號","OBJECTID":487534},"geometry":{"x":177310.77000000142,"y":2553063.5399999991}},{"attributes":{"ID":487560,"DIS_CODE":0,"TOWNNAME":"永康區","LI":"\u25A0行里","LIN":"43鄰","STREET":"\u25A0平街","SECT":" ","MAREA":" ","LANE":" ","ALLEY":" ","HOUSE_NO":"３１號","E_COORD97":171587.32999999999,"N_COORD97":2548040.5099999998,"ADDRESS":"\u25A0平街３１號","OBJECTID":487535},"geometry":{"x":171587.33000000007,"y":2548040.5099999998}},{"attributes":{"ID":487561,"DIS_CODE":0,"TOWNNAME":"永康區","LI":"龍潭里","LIN":"43鄰","STREET":"永平街","SECT":" ","MAREA":" ","LANE":" ","ALLEY":" ","HOUSE_NO":"７５７之２０號","E_COORD97":174632.97,"N_COORD97":2547023.8300000001,"ADDRESS":"永平街７５７之２０號","OBJECTID":487536},"geometry":{"x":174632.9700000016,"y":2547023.8300000019}},{"attributes":{"ID":487562,"DIS_CODE":0,"TOWNNAME":"永康區","LI":"\u25A0行里","LIN":"43鄰","STREET":"\u25A0信街","SECT":" ","MAREA":" ","LANE":" ","ALLEY":" ","HOUSE_NO":"６０７號","E_COORD97":171505.85999999999,"N_COORD97":2548247.4900000002,"ADDRESS":"\u25A0信街６０７號","OBJECTID":487537},"geometry":{"x":171505.86000000034,"y":2548247.4900000002}},{"attributes":{"ID":487563,"DIS_CODE":0,"TOWNNAME":"永康區","LI":"西灣里","LIN":"43鄰","STREET":"永華路","SECT":" ","MAREA":" ","LANE":" ","ALLEY":" ","HOUSE_NO":"１５１號","E_COORD97":174089.53,"N_COORD97":2545500.5899999999,"ADDRESS":"永華路１５１號","OBJECTID":487538},"geometry":{"x":174089.53000000119,"y":2545500.5899999999}},{"attributes":{"ID":487564,"DIS_CODE":0,"TOWNNAME":"永康區","LI":"\u25A0行里","LIN":"43鄰","STREET":"\u25A0信街","SECT":" ","MAREA":" ","LANE":" ","ALLEY":" ","HOUSE_NO":"６１７號","E_COORD97":171584.32999999999,"N_COORD97":2548307.75,"ADDRESS":"\u25A0信街６１７號","OBJECTID":487539},"geometry":{"x":171584.33000000007,"y":2548307.7499999981}},{"attributes":{"ID":487565,"DIS_CODE":0,"TOWNNAME":"永康區","LI":"\u25A0行里","LIN":"43鄰","STREET":"\u25A0信街","SECT":" ","MAREA":" ","LANE":" ","ALLEY":" ","HOUSE_NO":"６０９號","E_COORD97":171522.14999999999,"N_COORD97":2548275.5,"ADDRESS":"\u25A0信街６０９號","OBJECTID":487540},"geometry":{"x":171522.1500000013,"y":2548275.5}},{"attributes":{"ID":487566,"DIS_CODE":0,"TOWNNAME":"永康區","LI":"\u25A0行里","LIN":"43鄰","STREET":"\u25A0信街","SECT":" ","MAREA":" ","LANE":" ","ALLEY":" ","HOUSE_NO":"６１１號","E_COORD97":171548.66,"N_COORD97":2548282.5,"ADDRESS":"\u25A0信街６１１號","OBJECTID":487541},"geometry":{"x":171548.66000000108,"y":2548282.5000000037}},{"attributes":{"ID":487567,"DIS_CODE":0,"TOWNNAME":"永康區","LI":"龍潭里","LIN":"43鄰","STREET":"永平街","SECT":" ","MAREA":" ","LANE":" ","ALLEY":" ","HOUSE_NO":"７５７之１５號","E_COORD97":174658.51000000001,"N_COORD97":2547103.79,"ADDRESS":"永平街７５７之１５號","OBJECTID":487542},"geometry":{"x":174658.51000000071,"y":2547103.790000001}},{"attributes":{"ID":487568,"DIS_CODE":0,"TOWNNAME":"永康區","LI":"\u25A0行里","LIN":"43鄰","STREET":"中正二街","SECT":" ","MAREA":" ","LANE":" ","ALLEY":" ","HOUSE_NO":"２２３號","E_COORD97":171548.48000000001,"N_COORD97":2547838.2400000002,"ADDRESS":"中正二街２２３號","OBJECTID":487543},"geometry":{"x":171548.48000000231,"y":2547838.2400000021}},{"attributes":{"ID":487569,"DIS_CODE":0,"TOWNNAME":"永康區","LI":"龍潭里","LIN":"43鄰","STREET":"永平街","SECT":" ","MAREA":" ","LANE":" ","ALLEY":" ","HOUSE_NO":"７５７之１７號","E_COORD97":174632.97,"N_COORD97":2547023.8300000001,"ADDRESS":"永平街７５７之１７號","OBJECTID":487544},"geometry":{"x":174632.9700000016,"y":2547023.8300000019}},{"attributes":{"ID":487570,"DIS_CODE":0,"TOWNNAME":"永康區","LI":"龍潭里","LIN":"43鄰","STREET":"永平街","SECT":" ","MAREA":" ","LANE":" ","ALLEY":" ","HOUSE_NO":"７５７之２１號","E_COORD97":174632.97,"N_COORD97":2547023.8300000001,"ADDRESS":"永平街７５７之２１號","OBJECTID":487545},"geometry":{"x":174632.9700000016,"y":2547023.8300000019}},{"attributes":{"ID":487571,"DIS_CODE":0,"TOWNNAME":"永康區","LI":"\u25A0行里","LIN":"43鄰","STREET":"中正二街","SECT":" ","MAREA":" ","LANE":" ","ALLEY":" ","HOUSE_NO":"２０３號","E_COORD97":171476.95999999999,"N_COORD97":2547797.25,"ADDRESS":"中正二街２０３號","OBJECTID":487546},"geometry":{"x":171476.96000000089,"y":2547797.2500000019}},{"attributes":{"ID":487572,"DIS_CODE":0,"TOWNNAME":"永康區","LI":"\u25A0行里","LIN":"43鄰","STREET":"中正二街","SECT":" ","MAREA":" ","LANE":" ","ALLEY":" ","HOUSE_NO":"２３３號","E_COORD97":171586.35000000001,"N_COORD97":2547858.75,"ADDRESS":"中正二街２３３號","OBJECTID":487547},"geometry":{"x":171586.35000000056,"y":2547858.7500000019}},{"attributes":{"ID":487573,"DIS_CODE":0,"TOWNNAME":"佳里區","LI":"安西里","LIN":"43鄰","STREET":"文化路","SECT":" ","MAREA":" ","LANE":" ","ALLEY":" ","HOUSE_NO":"４１５號","E_COORD97":165096.92000000001,"N_COORD97":2562568.02,"ADDRESS":"文化路４１５號","OBJECTID":487548},"geometry":{"x":165096.92000000086,"y":2562568.0199999996}},{"attributes":{"ID":487574,"DIS_CODE":0,"TOWNNAME":"仁德區","LI":"仁義里","LIN":"43鄰","STREET":"中正路","SECT":"二段","MAREA":" ","LANE":" ","ALLEY":" ","HOUSE_NO":"１０１４號","E_COORD97":173418.98999999999,"N_COORD97":2540821.7799999998,"ADDRESS":"中正路二段１０１４號","OBJECTID":487549},"geometry":{"x":173418.99000000022,"y":2540821.7800000012}},{"attributes":{"ID":487575,"DIS_CODE":0,"TOWNNAME":"仁德區","LI":"仁義里","LIN":"43鄰","STREET":"中正路","SECT":"二段","MAREA":" ","LANE":" ","ALLEY":" ","HOUSE_NO":"１０１６號","E_COORD97":173417.60000000001,"N_COORD97":2540826.5299999998,"ADDRESS":"中正路二段１０１６號","OBJECTID":487550},"geometry":{"x":173417.59999999963,"y":2540826.5300000012}},{"attributes":{"ID":487576,"DIS_CODE":0,"TOWNNAME":"仁德區","LI":"仁德里","LIN":"43鄰","STREET":"中山路","SECT":" ","MAREA":" ","LANE":" ","ALLEY":" ","HOUSE_NO":"９１２號","E_COORD97":171976.20000000001,"N_COORD97":2541728.4900000002,"ADDRESS":"中山路９１２號","OBJECTID":487551},"geometry":{"x":171976.20000000112,"y":2541728.4900000002}},{"attributes":{"ID":487577,"DIS_CODE":0,"TOWNNAME":"仁德區","LI":"仁義里","LIN":"43鄰","STREET":"中正路","SECT":"二段","MAREA":" ","LANE":" ","ALLEY":" ","HOUSE_NO":"１０２４號","E_COORD97":173412.78,"N_COORD97":2540844.7799999998,"ADDRESS":"中正路二段１０２４號","OBJECTID":487552},"geometry":{"x":173412.78000000119,"y":2540844.7800000031}},{"attributes":{"ID":487578,"DIS_CODE":0,"TOWNNAME":"永康區","LI":"龍潭里","LIN":"43鄰","STREET":"永平街","SECT":" ","MAREA":" ","LANE":" ","ALLEY":" ","HOUSE_NO":"７５７之１０號","E_COORD97":174632.97,"N_COORD97":2547023.8300000001,"ADDRESS":"永平街７５７之１０號","OBJECTID":487553},"geometry":{"x":174632.9700000016,"y":2547023.8300000019}},{"attributes":{"ID":487579,"DIS_CODE":0,"TOWNNAME":"永康區","LI":"\u25A0行里","LIN":"43鄰","STREET":"正南三路","SECT":" ","MAREA":" ","LANE":" ","ALLEY":" ","HOUSE_NO":"１５１號","E_COORD97":171630.60999999999,"N_COORD97":2547807.2400000002,"ADDRESS":"正南三路１５１號","OBJECTID":487554},"geometry":{"x":171630.61000000127,"y":2547807.2400000021}},{"attributes":{"ID":487580,"DIS_CODE":0,"TOWNNAME":"永康區","LI":"\u25A0行里","LIN":"43鄰","STREET":"中正二街","SECT":" ","MAREA":" ","LANE":" ","ALLEY":" ","HOUSE_NO":"２２５號","E_COORD97":171556.07000000001,"N_COORD97":2547842.2400000002,"ADDRESS":"中正二街２２５號","OBJECTID":487555},"geometry":{"x":171556.07000000216,"y":2547842.2400000002}},{"attributes":{"ID":487581,"DIS_CODE":0,"TOWNNAME":"永康區","LI":"\u25A0行里","LIN":"43鄰","STREET":"中正二街","SECT":" ","MAREA":" ","LANE":" ","ALLEY":" ","HOUSE_NO":"２２９號","E_COORD97":171571.54000000001,"N_COORD97":2547849.9900000002,"ADDRESS":"中正二街２２９號","OBJECTID":487556},"geometry":{"x":171571.54000000097,"y":2547849.9900000021}},{"attributes":{"ID":487582,"DIS_CODE":0,"TOWNNAME":"永康區","LI":"\u25A0行里","LIN":"43鄰","STREET":"正南三路","SECT":" ","MAREA":" ","LANE":" ","ALLEY":" ","HOUSE_NO":"１８８號","E_COORD97":171621.63,"N_COORD97":2547909.2400000002,"ADDRESS":"正南三路１８８號","OBJECTID":487557},"geometry":{"x":171621.63000000082,"y":2547909.2400000021}},{"attributes":{"ID":487583,"DIS_CODE":0,"TOWNNAME":"永康區","LI":"\u25A0行里","LIN":"43鄰","STREET":"中正二街","SECT":" ","MAREA":" ","LANE":" ","ALLEY":" ","HOUSE_NO":"２０９號","E_COORD97":171500.42999999999,"N_COORD97":2547810.4900000002,"ADDRESS":"中正二街２０９號","OBJECTID":487558},"geometry":{"x":171500.43000000156,"y":2547810.4900000002}},{"attributes":{"ID":487584,"DIS_CODE":0,"TOWNNAME":"永康區","LI":"\u25A0行里","LIN":"43鄰","STREET":"正南三路","SECT":" ","MAREA":" ","LANE":" ","ALLEY":" ","HOUSE_NO":"１６２號","E_COORD97":171656.92999999999,"N_COORD97":2547853.4900000002,"ADDRESS":"正南三路１６２號","OBJECTID":487559},"geometry":{"x":171656.93000000063,"y":2547853.4900000021}},{"attributes":{"ID":487585,"DIS_CODE":0,"TOWNNAME":"永康區","LI":"龍潭里","LIN":"43鄰","STREET":"永平街","SECT":" ","MAREA":" ","LANE":" ","ALLEY":" ","HOUSE_NO":"７５７之１２號","E_COORD97":174632.97,"N_COORD97":2547023.8300000001,"ADDRESS":"永平街７５７之１２號","OBJECTID":487560},"geometry":{"x":174632.9700000016,"y":2547023.8300000019}},{"attributes":{"ID":487586,"DIS_CODE":0,"TOWNNAME":"永康區","LI":"\u25A0行里","LIN":"43鄰","STREET":"正南三路","SECT":" ","MAREA":" ","LANE":" ","ALLEY":" ","HOUSE_NO":"１７５號","E_COORD97":171588.98000000001,"N_COORD97":2547894.75,"ADDRESS":"正南三路１７５號","OBJECTID":487561},"geometry":{"x":171588.98000000231,"y":2547894.7500000019}},{"attributes":{"ID":487587,"DIS_CODE":0,"TOWNNAME":"永康區","LI":"\u25A0行里","LIN":"43鄰","STREET":"正南三路","SECT":" ","MAREA":" ","LANE":" ","ALLEY":" ","HOUSE_NO":"１２１號","E_COORD97":171698.51000000001,"N_COORD97":2547706.2400000002,"ADDRESS":"正南三路１２１號","OBJECTID":487562},"geometry":{"x":171698.51000000071,"y":2547706.2400000021}},{"attributes":{"ID":487588,"DIS_CODE":0,"TOWNNAME":"永康區","LI":"龍潭里","LIN":"43鄰","STREET":"永平街","SECT":" ","MAREA":" ","LANE":" ","ALLEY":" ","HOUSE_NO":"７５７之８號","E_COORD97":174631.72,"N_COORD97":2547023.8300000001,"ADDRESS":"永平街７５７之８號","OBJECTID":487563},"geometry":{"x":174631.72000000067,"y":2547023.8300000019}},{"attributes":{"ID":487589,"DIS_CODE":0,"TOWNNAME":"永康區","LI":"\u25A0行里","LIN":"43鄰","STREET":"正南三路","SECT":" ","MAREA":" ","LANE":" ","ALLEY":" ","HOUSE_NO":"１９２號","E_COORD97":171602.38,"N_COORD97":2547945.4900000002,"ADDRESS":"正南三路１９２號","OBJECTID":487564},"geometry":{"x":171602.37999999989,"y":2547945.4900000021}},{"attributes":{"ID":487590,"DIS_CODE":0,"TOWNNAME":"永康區","LI":"龍潭里","LIN":"43鄰","STREET":"永平街","SECT":" ","MAREA":" ","LANE":" ","ALLEY":" ","HOUSE_NO":"７５７之７號","E_COORD97":174657.26000000001,"N_COORD97":2547103.79,"ADDRESS":"永平街７５７之７號","OBJECTID":487565},"geometry":{"x":174657.26000000071,"y":2547103.790000001}},{"attributes":{"ID":487591,"DIS_CODE":0,"TOWNNAME":"永康區","LI":"\u25A0行里","LIN":"43鄰","STREET":"正南三路","SECT":" ","MAREA":" ","LANE":" ","ALLEY":" ","HOUSE_NO":"１５６號","E_COORD97":171667.07000000001,"N_COORD97":2547825.7400000002,"ADDRESS":"正南三路１５６號","OBJECTID":487566},"geometry":{"x":171667.07000000123,"y":2547825.7400000002}},{"attributes":{"ID":487592,"DIS_CODE":0,"TOWNNAME":"永康區","LI":"\u25A0行里","LIN":"43鄰","STREET":"\u25A0信街","SECT":" ","MAREA":" ","LANE":" ","ALLEY":" ","HOUSE_NO":"６１５號","E_COORD97":171563.01999999999,"N_COORD97":2548291.75,"ADDRESS":"\u25A0信街６１５號","OBJECTID":487567},"geometry":{"x":171563.02000000048,"y":2548291.7500000019}},{"attributes":{"ID":487593,"DIS_CODE":0,"TOWNNAME":"歸仁區","LI":"後市里","LIN":"43鄰","STREET":"國光街","SECT":" ","MAREA":" ","LANE":" ","ALLEY":" ","HOUSE_NO":"５５號","E_COORD97":177157.29000000001,"N_COORD97":2540969.7400000002,"ADDRESS":"國光街５５號","OBJECTID":487568},"geometry":{"x":177157.29000000097,"y":2540969.7400000021}},{"attributes":{"ID":487594,"DIS_CODE":0,"TOWNNAME":"永康區","LI":"龍潭里","LIN":"43鄰","STREET":"永平街","SECT":" ","MAREA":" ","LANE":" ","ALLEY":" ","HOUSE_NO":"７５７之１９號","E_COORD97":174632.97,"N_COORD97":2547023.8300000001,"ADDRESS":"永平街７５７之１９號","OBJECTID":487569},"geometry":{"x":174632.9700000016,"y":2547023.8300000019}},{"attributes":{"ID":487595,"DIS_CODE":0,"TOWNNAME":"永康區","LI":"\u25A0行里","LIN":"43鄰","STREET":"正南三路","SECT":" ","MAREA":" ","LANE":" ","ALLEY":" ","HOUSE_NO":"１５３號","E_COORD97":171636.64000000001,"N_COORD97":2547801,"ADDRESS":"正南三路１５３號","OBJECTID":487570},"geometry":{"x":171636.6400000006,"y":2547801.0000000037}},{"attributes":{"ID":487596,"DIS_CODE":0,"TOWNNAME":"永康區","LI":"\u25A0行里","LIN":"43鄰","STREET":"中正二街","SECT":" ","MAREA":" ","LANE":" ","ALLEY":" ","HOUSE_NO":"２３５號","E_COORD97":171600.34,"N_COORD97":2547866.25,"ADDRESS":"中正二街２３５號","OBJECTID":487571},"geometry":{"x":171600.34000000078,"y":2547866.25}},{"attributes":{"ID":487597,"DIS_CODE":0,"TOWNNAME":"仁德區","LI":"仁義里","LIN":"43鄰","STREET":"中正路","SECT":"二段","MAREA":" ","LANE":" ","ALLEY":" ","HOUSE_NO":"１０２２號","E_COORD97":173414.35000000001,"N_COORD97":2540840.5299999998,"ADDRESS":"中正路二段１０２２號","OBJECTID":487572},"geometry":{"x":173414.34999999963,"y":2540840.5300000012}},{"attributes":{"ID":487598,"DIS_CODE":0,"TOWNNAME":"仁德區","LI":"仁義里","LIN":"43鄰","STREET":"中正路","SECT":"二段","MAREA":" ","LANE":" ","ALLEY":" ","HOUSE_NO":"１０２６號","E_COORD97":173411.45999999999,"N_COORD97":2540851.7799999998,"ADDRESS":"中正路二段１０２６號","OBJECTID":487573},"geometry":{"x":173411.46000000089,"y":2540851.7800000031}},{"attributes":{"ID":487599,"DIS_CODE":0,"TOWNNAME":"仁德區","LI":"仁義里","LIN":"43鄰","STREET":"中正路","SECT":"二段","MAREA":" ","LANE":" ","ALLEY":" ","HOUSE_NO":"１０１２號","E_COORD97":173419.82000000001,"N_COORD97":2540817.2799999998,"ADDRESS":"中正路二段１０１２號","OBJECTID":487574},"geometry":{"x":173419.82000000123,"y":2540817.2799999993}},{"attributes":{"ID":487600,"DIS_CODE":0,"TOWNNAME":"仁德區","LI":"仁義里","LIN":"43鄰","STREET":"中正路","SECT":"二段","MAREA":" ","LANE":" ","ALLEY":" ","HOUSE_NO":"１０２０號","E_COORD97":173415.35000000001,"N_COORD97":2540835.7799999998,"ADDRESS":"中正路二段１０２０號","OBJECTID":487575},"geometry":{"x":173415.35000000056,"y":2540835.7800000012}},{"attributes":{"ID":487601,"DIS_CODE":0,"TOWNNAME":"仁德區","LI":"仁德里","LIN":"43鄰","STREET":"中山路","SECT":" ","MAREA":" ","LANE":" ","ALLEY":" ","HOUSE_NO":"９２２號","E_COORD97":171955.92999999999,"N_COORD97":2541739.2400000002,"ADDRESS":"中山路９２２號","OBJECTID":487576},"geometry":{"x":171955.9299999997,"y":2541739.2400000021}},{"attributes":{"ID":487602,"DIS_CODE":0,"TOWNNAME":"仁德區","LI":"仁義里","LIN":"43鄰","STREET":"中正路","SECT":"二段","MAREA":" ","LANE":" ","ALLEY":" ","HOUSE_NO":"９９６號","E_COORD97":173425.29000000001,"N_COORD97":2540790.77,"ADDRESS":"中正路二段９９６號","OBJECTID":487577},"geometry":{"x":173425.29000000004,"y":2540790.7699999977}},{"attributes":{"ID":487603,"DIS_CODE":0,"TOWNNAME":"仁德區","LI":"仁義里","LIN":"43鄰","STREET":"中正路","SECT":"二段","MAREA":" ","LANE":" ","ALLEY":" ","HOUSE_NO":"１０１８號","E_COORD97":173416.45000000001,"N_COORD97":2540831.5299999998,"ADDRESS":"中正路二段１０１８號","OBJECTID":487578},"geometry":{"x":173416.45000000205,"y":2540831.5299999993}},{"attributes":{"ID":487604,"DIS_CODE":0,"TOWNNAME":"仁德區","LI":"仁義里","LIN":"43鄰","STREET":"中正路","SECT":"二段","MAREA":" ","LANE":" ","ALLEY":" ","HOUSE_NO":"１０２８號","E_COORD97":173410.06,"N_COORD97":2540856.7799999998,"ADDRESS":"中正路二段１０２８號","OBJECTID":487579},"geometry":{"x":173410.06000000052,"y":2540856.7799999993}},{"attributes":{"ID":487605,"DIS_CODE":0,"TOWNNAME":"新市區","LI":"新和里","LIN":"43鄰","STREET":"民權路","SECT":" ","MAREA":" ","LANE":" ","ALLEY":" ","HOUSE_NO":"５５號","E_COORD97":177315.01999999999,"N_COORD97":2553064.29,"ADDRESS":"民權路５５號","OBJECTID":487580},"geometry":{"x":177315.01999999955,"y":2553064.290000001}},{"attributes":{"ID":487606,"DIS_CODE":0,"TOWNNAME":"仁德區","LI":"成功里","LIN":"43鄰","STREET":"虎山一街","SECT":" ","MAREA":" ","LANE":" ","ALLEY":" ","HOUSE_NO":"１００號","E_COORD97":171064.28,"N_COORD97":2538432.27,"ADDRESS":"虎山一街１００號","OBJECTID":487581},"geometry":{"x":171064.28000000026,"y":2538432.2700000014}},{"attributes":{"ID":487607,"DIS_CODE":0,"TOWNNAME":"仁德區","LI":"太子里","LIN":"43鄰","STREET":"太子路","SECT":" ","MAREA":" ","LANE":" ","ALLEY":" ","HOUSE_NO":"５５號","E_COORD97":175254.89000000001,"N_COORD97":2543546.0099999998,"ADDRESS":"太子路５５號","OBJECTID":487582},"geometry":{"x":175254.88999999966,"y":2543546.0100000035}},{"attributes":{"ID":487608,"DIS_CODE":0,"TOWNNAME":"新市區","LI":"新和里","LIN":"43鄰","STREET":"民權路","SECT":" ","MAREA":" ","LANE":" ","ALLEY":" ","HOUSE_NO":"１３號","E_COORD97":177412.16,"N_COORD97":2553078.29,"ADDRESS":"民權路１３號","OBJECTID":487583},"geometry":{"x":177412.16000000201,"y":2553078.290000001}},{"attributes":{"ID":487609,"DIS_CODE":0,"TOWNNAME":"新市區","LI":"新和里","LIN":"43鄰","STREET":"民權路","SECT":" ","MAREA":" ","LANE":" ","ALLEY":" ","HOUSE_NO":"５３號","E_COORD97":177320.26999999999,"N_COORD97":2553062.54,"ADDRESS":"民權路５３號","OBJECTID":487584},"geometry":{"x":177320.26999999955,"y":2553062.540000001}},{"attributes":{"ID":487610,"DIS_CODE":0,"TOWNNAME":"新市區","LI":"新和里","LIN":"43鄰","STREET":"民權路","SECT":" ","MAREA":" ","LANE":" ","ALLEY":" ","HOUSE_NO":"３３之１號","E_COORD97":177371.78,"N_COORD97":2553073.8199999998,"ADDRESS":"民權路３３之１號","OBJECTID":487585},"geometry":{"x":177371.78000000026,"y":2553073.8200000003}},{"attributes":{"ID":487611,"DIS_CODE":0,"TOWNNAME":"永康區","LI":"\u25A0行里","LIN":"43鄰","STREET":"正南三路","SECT":" ","MAREA":" ","LANE":" ","ALLEY":" ","HOUSE_NO":"２４１號","E_COORD97":171428.23000000001,"N_COORD97":2548014.7000000002,"ADDRESS":"正南三路２４１號","OBJECTID":487586},"geometry":{"x":171428.23000000138,"y":2548014.6999999993}},{"attributes":{"ID":487612,"DIS_CODE":0,"TOWNNAME":"永康區","LI":"\u25A0行里","LIN":"43鄰","STREET":"正南三路","SECT":" ","MAREA":" ","LANE":" ","ALLEY":" ","HOUSE_NO":"２４３號","E_COORD97":171437.10000000001,"N_COORD97":2548048.4700000002,"ADDRESS":"正南三路２４３號","OBJECTID":487587},"geometry":{"x":171437.10000000056,"y":2548048.4700000007}},{"attributes":{"ID":487613,"DIS_CODE":0,"TOWNNAME":"永康區","LI":"龍潭里","LIN":"43鄰","STREET":"永平街","SECT":" ","MAREA":" ","LANE":" ","ALLEY":" ","HOUSE_NO":"７５７之６號","E_COORD97":174631.72,"N_COORD97":2547023.8300000001,"ADDRESS":"永平街７５７之６號","OBJECTID":487588},"geometry":{"x":174631.72000000067,"y":2547023.8300000019}},{"attributes":{"ID":487614,"DIS_CODE":0,"TOWNNAME":"新市區","LI":"新和里","LIN":"43鄰","STREET":"民權路","SECT":" ","MAREA":" ","LANE":" ","ALLEY":" ","HOUSE_NO":"１號","E_COORD97":177439.45999999999,"N_COORD97":2553082.29,"ADDRESS":"民權路１號","OBJECTID":487589},"geometry":{"x":177439.46000000089,"y":2553082.2899999991}},{"attributes":{"ID":487615,"DIS_CODE":0,"TOWNNAME":"新市區","LI":"新和里","LIN":"43鄰","STREET":"民權路","SECT":" ","MAREA":" ","LANE":" ","ALLEY":" ","HOUSE_NO":"２１號","E_COORD97":177394.91,"N_COORD97":2553076.04,"ADDRESS":"民權路２１號","OBJECTID":487590},"geometry":{"x":177394.91000000015,"y":2553076.040000001}},{"attributes":{"ID":487616,"DIS_CODE":0,"TOWNNAME":"新市區","LI":"新和里","LIN":"43鄰","STREET":"民權路","SECT":" ","MAREA":" ","LANE":" ","ALLEY":" ","HOUSE_NO":"３７號","E_COORD97":177357.70999999999,"N_COORD97":2553068.04,"ADDRESS":"民權路３７號","OBJECTID":487591},"geometry":{"x":177357.71000000089,"y":2553068.0399999991}},{"attributes":{"ID":487617,"DIS_CODE":0,"TOWNNAME":"新市區","LI":"新和里","LIN":"43鄰","STREET":"民權路","SECT":" ","MAREA":" ","LANE":" ","ALLEY":" ","HOUSE_NO":"２７號","E_COORD97":177382.16,"N_COORD97":2553074.04,"ADDRESS":"民權路２７號","OBJECTID":487592},"geometry":{"x":177382.16000000108,"y":2553074.0399999991}},{"attributes":{"ID":487618,"DIS_CODE":0,"TOWNNAME":"新市區","LI":"新和里","LIN":"43鄰","STREET":"民權路","SECT":" ","MAREA":" ","LANE":" ","ALLEY":" ","HOUSE_NO":"２５號","E_COORD97":177386.51999999999,"N_COORD97":2553074.79,"ADDRESS":"民權路２５號","OBJECTID":487593},"geometry":{"x":177386.51999999955,"y":2553074.790000001}},{"attributes":{"ID":487619,"DIS_CODE":0,"TOWNNAME":"新市區","LI":"新和里","LIN":"43鄰","STREET":"民權路","SECT":" ","MAREA":" ","LANE":" ","ALLEY":" ","HOUSE_NO":"３３號","E_COORD97":177365.82000000001,"N_COORD97":2553071.54,"ADDRESS":"民權路３３號","OBJECTID":487594},"geometry":{"x":177365.82000000123,"y":2553071.5399999991}},{"attributes":{"ID":487620,"DIS_CODE":0,"TOWNNAME":"新市區","LI":"新和里","LIN":"43鄰","STREET":"民權路","SECT":" ","MAREA":" ","LANE":" ","ALLEY":" ","HOUSE_NO":"３號","E_COORD97":177436.37,"N_COORD97":2553082.04,"ADDRESS":"民權路３號","OBJECTID":487595},"geometry":{"x":177436.37000000104,"y":2553082.0400000028}},{"attributes":{"ID":487621,"DIS_CODE":0,"TOWNNAME":"新市區","LI":"新和里","LIN":"43鄰","STREET":"民權路","SECT":" ","MAREA":" ","LANE":" ","ALLEY":" ","HOUSE_NO":"７號","E_COORD97":177427.91,"N_COORD97":2553081.04,"ADDRESS":"民權路７號","OBJECTID":487596},"geometry":{"x":177427.91000000108,"y":2553081.0399999991}},{"attributes":{"ID":487622,"DIS_CODE":0,"TOWNNAME":"新市區","LI":"新和里","LIN":"43鄰","STREET":"民權路","SECT":" ","MAREA":" ","LANE":" ","ALLEY":" ","HOUSE_NO":"５號","E_COORD97":177432.51999999999,"N_COORD97":2553081.79,"ADDRESS":"民權路５號","OBJECTID":487597},"geometry":{"x":177432.51999999955,"y":2553081.790000001}},{"attributes":{"ID":487623,"DIS_CODE":0,"TOWNNAME":"新市區","LI":"新和里","LIN":"43鄰","STREET":"民權路","SECT":" ","MAREA":" ","LANE":" ","ALLEY":" ","HOUSE_NO":"２９號","E_COORD97":177378.41,"N_COORD97":2553073.54,"ADDRESS":"民權路２９號","OBJECTID":487598},"geometry":{"x":177378.41000000108,"y":2553073.540000001}},{"attributes":{"ID":487624,"DIS_CODE":0,"TOWNNAME":"新市區","LI":"新和里","LIN":"43鄰","STREET":"民權路","SECT":" ","MAREA":" ","LANE":" ","ALLEY":" ","HOUSE_NO":"３９號","E_COORD97":177355.87,"N_COORD97":2553044.79,"ADDRESS":"民權路３９號","OBJECTID":487599},"geometry":{"x":177355.87000000011,"y":2553044.790000001}},{"attributes":{"ID":487625,"DIS_CODE":0,"TOWNNAME":"新市區","LI":"新和里","LIN":"43鄰","STREET":"民權路","SECT":" ","MAREA":" ","LANE":" ","ALLEY":" ","HOUSE_NO":"１５號","E_COORD97":177408.37,"N_COORD97":2553077.79,"ADDRESS":"民權路１５號","OBJECTID":487600},"geometry":{"x":177408.37000000011,"y":2553077.790000001}}]}