{"displayFieldName":"TOWNNAME","fieldAliases":{"ID":"ID","DIS_CODE":"DIS_CODE","TOWNNAME":"TOWNNAME","LI":"LI","LIN":"LIN","STREET":"STREET","SECT":"SECT","MAREA":"MAREA","LANE":"LANE","ALLEY":"ALLEY","HOUSE_NO":"HOUSE_NO","E_COORD97":"E_COORD97","N_COORD97":"N_COORD97","ADDRESS":"ADDRESS","OBJECTID":"OBJECTID"},"geometryType":"esriGeometryPoint","spatialReference":{"wkid":102443,"latestWkid":3826},"fields":[{"name":"ID","type":"esriFieldTypeDouble","alias":"ID"},{"name":"DIS_CODE","type":"esriFieldTypeInteger","alias":"DIS_CODE"},{"name":"TOWNNAME","type":"esriFieldTypeString","alias":"TOWNNAME","length":8},{"name":"LI","type":"esriFieldTypeString","alias":"LI","length":8},{"name":"LIN","type":"esriFieldTypeString","alias":"LIN","length":12},{"name":"STREET","type":"esriFieldTypeString","alias":"STREET","length":20},{"name":"SECT","type":"esriFieldTypeString","alias":"SECT","length":8},{"name":"MAREA","type":"esriFieldTypeString","alias":"MAREA","length":12},{"name":"LANE","type":"esriFieldTypeString","alias":"LANE","length":10},{"name":"ALLEY","type":"esriFieldTypeString","alias":"ALLEY","length":10},{"name":"HOUSE_NO","type":"esriFieldTypeString","alias":"HOUSE_NO","length":20},{"name":"E_COORD97","type":"esriFieldTypeDouble","alias":"E_COORD97"},{"name":"N_COORD97","type":"esriFieldTypeDouble","alias":"N_COORD97"},{"name":"ADDRESS","type":"esriFieldTypeString","alias":"ADDRESS","length":50},{"name":"OBJECTID","type":"esriFieldTypeOID","alias":"OBJECTID"}],"features":[{"attributes":{"ID":227605,"DIS_CODE":0,"TOWNNAME":"安南區","LI":"州南里","LIN":"3鄰","STREET":"北安路","SECT":"四段","MAREA":" ","LANE":"１０５巷","ALLEY":" ","HOUSE_NO":"４３號","E_COORD97":169328.78,"N_COORD97":2551047.5299999998,"ADDRESS":"北安路四段１０５巷４３號","OBJECTID":227601},"geometry":{"x":169328.78000000212,"y":2551047.5299999993}},{"attributes":{"ID":227606,"DIS_CODE":0,"TOWNNAME":"新營區","LI":"民榮里","LIN":"34鄰","STREET":"復興路","SECT":" ","MAREA":" ","LANE":" ","ALLEY":" ","HOUSE_NO":"３０１號九樓之３","E_COORD97":178608.63,"N_COORD97":2578135.3500000001,"ADDRESS":"復興路３０１號九樓之３","OBJECTID":227602},"geometry":{"x":178608.62999999989,"y":2578135.3500000034}},{"attributes":{"ID":227607,"DIS_CODE":0,"TOWNNAME":"新市區","LI":"大社里","LIN":"29鄰","STREET":" ","SECT":" ","MAREA":"大社","LANE":" ","ALLEY":" ","HOUSE_NO":"９６１之３號","E_COORD97":180138.29000000001,"N_COORD97":2554103.5499999998,"ADDRESS":"大社９６１之３號","OBJECTID":227603},"geometry":{"x":180138.29000000004,"y":2554103.5500000007}},{"attributes":{"ID":227608,"DIS_CODE":0,"TOWNNAME":"新市區","LI":"大社里","LIN":"29鄰","STREET":" ","SECT":" ","MAREA":"大社","LANE":" ","ALLEY":" ","HOUSE_NO":"９５２號","E_COORD97":180135.76000000001,"N_COORD97":2554163.5,"ADDRESS":"大社９５２號","OBJECTID":227604},"geometry":{"x":180135.76000000071,"y":2554163.5}},{"attributes":{"ID":227609,"DIS_CODE":0,"TOWNNAME":"新市區","LI":"大社里","LIN":"29鄰","STREET":" ","SECT":" ","MAREA":"大社","LANE":" ","ALLEY":" ","HOUSE_NO":"９４８號","E_COORD97":180115.56,"N_COORD97":2554156.75,"ADDRESS":"大社９４８號","OBJECTID":227605},"geometry":{"x":180115.55999999959,"y":2554156.7500000019}},{"attributes":{"ID":227610,"DIS_CODE":0,"TOWNNAME":"新市區","LI":"大社里","LIN":"29鄰","STREET":" ","SECT":" ","MAREA":"大社","LANE":" ","ALLEY":" ","HOUSE_NO":"９６０號之４","E_COORD97":180167.51000000001,"N_COORD97":2554131.7999999998,"ADDRESS":"大社９６０號之４","OBJECTID":227606},"geometry":{"x":180167.51000000164,"y":2554131.8000000007}},{"attributes":{"ID":227611,"DIS_CODE":0,"TOWNNAME":"新市區","LI":"大社里","LIN":"29鄰","STREET":" ","SECT":" ","MAREA":"大社","LANE":" ","ALLEY":" ","HOUSE_NO":"９５７號","E_COORD97":180159.73999999999,"N_COORD97":2554160.5,"ADDRESS":"大社９５７號","OBJECTID":227607},"geometry":{"x":180159.74000000209,"y":2554160.5}},{"attributes":{"ID":227612,"DIS_CODE":0,"TOWNNAME":"永康區","LI":"成功里","LIN":"29鄰","STREET":"中華路","SECT":" ","MAREA":" ","LANE":"１３４巷","ALLEY":" ","HOUSE_NO":"５７號","E_COORD97":171738.67000000001,"N_COORD97":2544822.4100000001,"ADDRESS":"中華路１３４巷５７號","OBJECTID":227608},"geometry":{"x":171738.67000000086,"y":2544822.410000002}},{"attributes":{"ID":227613,"DIS_CODE":0,"TOWNNAME":"永康區","LI":"成功里","LIN":"29鄰","STREET":"中華路","SECT":" ","MAREA":" ","LANE":"１３４巷","ALLEY":" ","HOUSE_NO":"６３號","E_COORD97":171751.56,"N_COORD97":2544821.9100000001,"ADDRESS":"中華路１３４巷６３號","OBJECTID":227609},"geometry":{"x":171751.55999999959,"y":2544821.9100000039}},{"attributes":{"ID":227614,"DIS_CODE":0,"TOWNNAME":"新營區","LI":"民榮里","LIN":"29鄰","STREET":"太子路","SECT":" ","MAREA":" ","LANE":"４４巷","ALLEY":" ","HOUSE_NO":"１５號","E_COORD97":178207.45999999999,"N_COORD97":2578081.8300000001,"ADDRESS":"太子路４４巷１５號","OBJECTID":227610},"geometry":{"x":178207.46000000089,"y":2578081.8300000038}},{"attributes":{"ID":227615,"DIS_CODE":0,"TOWNNAME":"新營區","LI":"民生里","LIN":"29鄰","STREET":"民治路","SECT":" ","MAREA":" ","LANE":"２２５巷","ALLEY":" ","HOUSE_NO":"５號","E_COORD97":178828.39000000001,"N_COORD97":2578344.6200000001,"ADDRESS":"民治路２２５巷５號","OBJECTID":227611},"geometry":{"x":178828.38999999966,"y":2578344.620000001}},{"attributes":{"ID":227616,"DIS_CODE":0,"TOWNNAME":"安南區","LI":"淵東里","LIN":"3鄰","STREET":"本原街","SECT":"三段","MAREA":" ","LANE":"２３４巷","ALLEY":" ","HOUSE_NO":"９２號","E_COORD97":165302.29999999999,"N_COORD97":2550526.6899999999,"ADDRESS":"本原街三段２３４巷９２號","OBJECTID":227612},"geometry":{"x":165302.30000000075,"y":2550526.6900000013}},{"attributes":{"ID":227617,"DIS_CODE":0,"TOWNNAME":"安南區","LI":"公親里","LIN":"3鄰","STREET":"公學路","SECT":"一段","MAREA":" ","LANE":"１２４巷","ALLEY":" ","HOUSE_NO":"１１３號","E_COORD97":167935.66,"N_COORD97":2553212.6699999999,"ADDRESS":"公學路一段１２４巷１１３號","OBJECTID":227613},"geometry":{"x":167935.66000000015,"y":2553212.6699999999}},{"attributes":{"ID":227618,"DIS_CODE":0,"TOWNNAME":"永康區","LI":"北灣里","LIN":"39鄰","STREET":"大同街","SECT":" ","MAREA":" ","LANE":"７４０巷","ALLEY":" ","HOUSE_NO":"２０號","E_COORD97":174601.29000000001,"N_COORD97":2546636.7200000002,"ADDRESS":"大同街７４０巷２０號","OBJECTID":227614},"geometry":{"x":174601.29000000097,"y":2546636.7200000007}},{"attributes":{"ID":227619,"DIS_CODE":0,"TOWNNAME":"永康區","LI":"北灣里","LIN":"27鄰","STREET":"文賢街","SECT":" ","MAREA":" ","LANE":"１０８巷","ALLEY":" ","HOUSE_NO":"６號","E_COORD97":175393.89999999999,"N_COORD97":2545449.8199999998,"ADDRESS":"文賢街１０８巷６號","OBJECTID":227615},"geometry":{"x":175393.9000000013,"y":2545449.820000004}},{"attributes":{"ID":227620,"DIS_CODE":0,"TOWNNAME":"安南區","LI":"南興里","LIN":"3鄰","STREET":"安興街","SECT":" ","MAREA":" ","LANE":"４６９巷","ALLEY":" ","HOUSE_NO":"５１號","E_COORD97":163380.48000000001,"N_COORD97":2552339.1200000001,"ADDRESS":"安興街４６９巷５１號","OBJECTID":227616},"geometry":{"x":163380.48000000045,"y":2552339.1200000029}},{"attributes":{"ID":227621,"DIS_CODE":0,"TOWNNAME":"安南區","LI":"淵中里","LIN":"3鄰","STREET":"安中路","SECT":"四段","MAREA":" ","LANE":"１１９巷","ALLEY":" ","HOUSE_NO":"３１號之１００","E_COORD97":165001.06,"N_COORD97":2549441.1899999999,"ADDRESS":"安中路四段１１９巷３１號之１００","OBJECTID":227617},"geometry":{"x":165001.05999999959,"y":2549441.1900000013}},{"attributes":{"ID":227622,"DIS_CODE":0,"TOWNNAME":"安南區","LI":"城西里","LIN":"3鄰","STREET":"城西街","SECT":"三段","MAREA":" ","LANE":"５１０巷","ALLEY":" ","HOUSE_NO":"２８１號","E_COORD97":157340.82999999999,"N_COORD97":2551418.75,"ADDRESS":"城西街三段５１０巷２８１號","OBJECTID":227618},"geometry":{"x":157340.83000000007,"y":2551418.75}},{"attributes":{"ID":227623,"DIS_CODE":0,"TOWNNAME":"永康區","LI":"正強里","LIN":"5鄰","STREET":"中正路","SECT":" ","MAREA":" ","LANE":"５５巷","ALLEY":" ","HOUSE_NO":"２４號","E_COORD97":173536.91,"N_COORD97":2547757.75,"ADDRESS":"中正路５５巷２４號","OBJECTID":227619},"geometry":{"x":173536.91000000201,"y":2547757.75}},{"attributes":{"ID":227624,"DIS_CODE":0,"TOWNNAME":"永康區","LI":"王行里","LIN":"15鄰","STREET":"龍昌街","SECT":" ","MAREA":" ","LANE":"８５巷","ALLEY":" ","HOUSE_NO":"６號","E_COORD97":174952.63,"N_COORD97":2548124.2200000002,"ADDRESS":"龍昌街８５巷６號","OBJECTID":227620},"geometry":{"x":174952.63000000082,"y":2548124.2200000007}},{"attributes":{"ID":227625,"DIS_CODE":0,"TOWNNAME":"新營區","LI":"民榮里","LIN":"34鄰","STREET":"復興路","SECT":" ","MAREA":" ","LANE":" ","ALLEY":" ","HOUSE_NO":"３０１號九樓之２","E_COORD97":178608.67000000001,"N_COORD97":2578135.3500000001,"ADDRESS":"復興路３０１號九樓之２","OBJECTID":227621},"geometry":{"x":178608.67000000179,"y":2578135.3500000034}},{"attributes":{"ID":227626,"DIS_CODE":0,"TOWNNAME":"新營區","LI":"民榮里","LIN":"34鄰","STREET":"復興路","SECT":" ","MAREA":" ","LANE":" ","ALLEY":" ","HOUSE_NO":"３０１號十七樓之１","E_COORD97":178609.79000000001,"N_COORD97":2578135.3500000001,"ADDRESS":"復興路３０１號十七樓之１","OBJECTID":227622},"geometry":{"x":178609.7900000019,"y":2578135.3500000034}},{"attributes":{"ID":227627,"DIS_CODE":0,"TOWNNAME":"新營區","LI":"民榮里","LIN":"34鄰","STREET":"復興路","SECT":" ","MAREA":" ","LANE":" ","ALLEY":" ","HOUSE_NO":"３０１號八樓之５","E_COORD97":178608.69,"N_COORD97":2578135.3500000001,"ADDRESS":"復興路３０１號八樓之５","OBJECTID":227623},"geometry":{"x":178608.69000000041,"y":2578135.3500000034}},{"attributes":{"ID":227628,"DIS_CODE":0,"TOWNNAME":"新營區","LI":"民榮里","LIN":"34鄰","STREET":"復興路","SECT":" ","MAREA":" ","LANE":" ","ALLEY":" ","HOUSE_NO":"３０１號十九樓之１","E_COORD97":178609.79000000001,"N_COORD97":2578135.3500000001,"ADDRESS":"復興路３０１號十九樓之１","OBJECTID":227624},"geometry":{"x":178609.7900000019,"y":2578135.3500000034}},{"attributes":{"ID":227629,"DIS_CODE":0,"TOWNNAME":"永康區","LI":"王行里","LIN":"9鄰","STREET":"王行路","SECT":" ","MAREA":" ","LANE":"５３９巷","ALLEY":" ","HOUSE_NO":"８號","E_COORD97":175506.51999999999,"N_COORD97":2549245.6000000001,"ADDRESS":"王行路５３９巷８號","OBJECTID":227625},"geometry":{"x":175506.51999999955,"y":2549245.6000000015}},{"attributes":{"ID":227630,"DIS_CODE":0,"TOWNNAME":"永康區","LI":"五王里","LIN":"37鄰","STREET":"中華路","SECT":" ","MAREA":" ","LANE":"５７８巷","ALLEY":" ","HOUSE_NO":"１５號之９","E_COORD97":171274.78,"N_COORD97":2545965.79,"ADDRESS":"中華路５７８巷１５號之９","OBJECTID":227626},"geometry":{"x":171274.77999999933,"y":2545965.7899999991}},{"attributes":{"ID":227631,"DIS_CODE":0,"TOWNNAME":"永康區","LI":"五王里","LIN":"37鄰","STREET":"中華路","SECT":" ","MAREA":" ","LANE":"５７８巷","ALLEY":" ","HOUSE_NO":"１５號之１９","E_COORD97":171276.03,"N_COORD97":2545965.79,"ADDRESS":"中華路５７８巷１５號之１９","OBJECTID":227627},"geometry":{"x":171276.03000000026,"y":2545965.7899999991}},{"attributes":{"ID":227632,"DIS_CODE":0,"TOWNNAME":"新化區","LI":"竹林里","LIN":"3鄰","STREET":"中山路","SECT":" ","MAREA":" ","LANE":"３７６巷","ALLEY":" ","HOUSE_NO":"３號之２","E_COORD97":178830.06,"N_COORD97":2548454.2599999998,"ADDRESS":"中山路３７６巷３號之２","OBJECTID":227628},"geometry":{"x":178830.06000000052,"y":2548454.2600000016}},{"attributes":{"ID":227633,"DIS_CODE":0,"TOWNNAME":"南區","LI":"同安里","LIN":"3鄰","STREET":"灣裡路","SECT":" ","MAREA":" ","LANE":"３５１巷","ALLEY":" ","HOUSE_NO":"４號","E_COORD97":166223.57000000001,"N_COORD97":2536180.7000000002,"ADDRESS":"灣裡路３５１巷４號","OBJECTID":227629},"geometry":{"x":166223.57000000123,"y":2536180.7000000011}},{"attributes":{"ID":227634,"DIS_CODE":0,"TOWNNAME":"南區","LI":"同安里","LIN":"3鄰","STREET":"灣裡路","SECT":" ","MAREA":" ","LANE":"３５１巷","ALLEY":" ","HOUSE_NO":"８號","E_COORD97":166238.60000000001,"N_COORD97":2536201.8199999998,"ADDRESS":"灣裡路３５１巷８號","OBJECTID":227630},"geometry":{"x":166238.59999999963,"y":2536201.8200000022}},{"attributes":{"ID":227635,"DIS_CODE":0,"TOWNNAME":"南區","LI":"同安里","LIN":"3鄰","STREET":"灣裡路","SECT":" ","MAREA":" ","LANE":"３６９巷","ALLEY":" ","HOUSE_NO":"１號","E_COORD97":166222.09,"N_COORD97":2536154.52,"ADDRESS":"灣裡路３６９巷１號","OBJECTID":227631},"geometry":{"x":166222.08999999985,"y":2536154.5200000033}},{"attributes":{"ID":227636,"DIS_CODE":0,"TOWNNAME":"南區","LI":"同安里","LIN":"3鄰","STREET":"灣裡路","SECT":" ","MAREA":" ","LANE":"３６９巷","ALLEY":" ","HOUSE_NO":"３號","E_COORD97":166230.97,"N_COORD97":2536149.4500000002,"ADDRESS":"灣裡路３６９巷３號","OBJECTID":227632},"geometry":{"x":166230.96999999974,"y":2536149.4500000011}},{"attributes":{"ID":227637,"DIS_CODE":0,"TOWNNAME":"南區","LI":"同安里","LIN":"3鄰","STREET":"灣裡路","SECT":" ","MAREA":" ","LANE":"３５１巷","ALLEY":" ","HOUSE_NO":"６之２號","E_COORD97":166223.78,"N_COORD97":2536173.3100000001,"ADDRESS":"灣裡路３５１巷６之２號","OBJECTID":227633},"geometry":{"x":166223.78000000119,"y":2536173.3100000005}},{"attributes":{"ID":227638,"DIS_CODE":0,"TOWNNAME":"南區","LI":"同安里","LIN":"3鄰","STREET":"灣裡路","SECT":" ","MAREA":" ","LANE":"３６９巷","ALLEY":" ","HOUSE_NO":"５號","E_COORD97":166236.67999999999,"N_COORD97":2536152.6200000001,"ADDRESS":"灣裡路３６９巷５號","OBJECTID":227634},"geometry":{"x":166236.6799999997,"y":2536152.6200000029}},{"attributes":{"ID":227639,"DIS_CODE":0,"TOWNNAME":"南區","LI":"佛壇里","LIN":"3鄰","STREET":"興南街","SECT":" ","MAREA":" ","LANE":"１８４巷","ALLEY":" ","HOUSE_NO":"１０號","E_COORD97":166050.44,"N_COORD97":2535870.8999999999,"ADDRESS":"興南街１８４巷１０號","OBJECTID":227635},"geometry":{"x":166050.44000000041,"y":2535870.9000000004}},{"attributes":{"ID":227640,"DIS_CODE":0,"TOWNNAME":"南區","LI":"佛壇里","LIN":"3鄰","STREET":"興南街","SECT":" ","MAREA":" ","LANE":"１８４巷","ALLEY":" ","HOUSE_NO":"１２號","E_COORD97":166055.37,"N_COORD97":2535876.6000000001,"ADDRESS":"興南街１８４巷１２號","OBJECTID":227636},"geometry":{"x":166055.37000000104,"y":2535876.6000000015}},{"attributes":{"ID":227641,"DIS_CODE":0,"TOWNNAME":"南區","LI":"佛壇里","LIN":"3鄰","STREET":"興南街","SECT":" ","MAREA":" ","LANE":"１６６巷","ALLEY":" ","HOUSE_NO":"３號","E_COORD97":166081.63,"N_COORD97":2535866.7799999998,"ADDRESS":"興南街１６６巷３號","OBJECTID":227637},"geometry":{"x":166081.63000000082,"y":2535866.7799999993}},{"attributes":{"ID":227642,"DIS_CODE":0,"TOWNNAME":"永康區","LI":"王行里","LIN":"2鄰","STREET":"王行路","SECT":" ","MAREA":" ","LANE":"２０８巷","ALLEY":" ","HOUSE_NO":"１７號","E_COORD97":175726.26999999999,"N_COORD97":2548157.6899999999,"ADDRESS":"王行路２０８巷１７號","OBJECTID":227638},"geometry":{"x":175726.27000000048,"y":2548157.6899999995}},{"attributes":{"ID":227643,"DIS_CODE":0,"TOWNNAME":"永康區","LI":"五王里","LIN":"39鄰","STREET":"中華路","SECT":" ","MAREA":" ","LANE":"５７８巷","ALLEY":" ","HOUSE_NO":"１７號之１０６","E_COORD97":171334.92000000001,"N_COORD97":2545989.54,"ADDRESS":"中華路５７８巷１７號之１０６","OBJECTID":227639},"geometry":{"x":171334.92000000086,"y":2545989.5400000028}},{"attributes":{"ID":227644,"DIS_CODE":0,"TOWNNAME":"永康區","LI":"北灣里","LIN":"31鄰","STREET":"大灣六街","SECT":" ","MAREA":" ","LANE":"８０巷","ALLEY":" ","HOUSE_NO":"６１號","E_COORD97":175233.67999999999,"N_COORD97":2545318.77,"ADDRESS":"大灣六街８０巷６１號","OBJECTID":227640},"geometry":{"x":175233.68000000063,"y":2545318.7699999996}},{"attributes":{"ID":227645,"DIS_CODE":0,"TOWNNAME":"歸仁區","LI":"辜厝里","LIN":"51鄰","STREET":"中正十街","SECT":" ","MAREA":" ","LANE":"６１巷","ALLEY":" ","HOUSE_NO":"２號","E_COORD97":176987.10999999999,"N_COORD97":2540311.25,"ADDRESS":"中正十街６１巷２號","OBJECTID":227641},"geometry":{"x":176987.1099999994,"y":2540311.2500000019}},{"attributes":{"ID":227646,"DIS_CODE":0,"TOWNNAME":"安南區","LI":"溪心里","LIN":"3鄰","STREET":"安中路","SECT":"二段","MAREA":" ","LANE":"１３８巷","ALLEY":" ","HOUSE_NO":"５３號","E_COORD97":166786.22,"N_COORD97":2549782.4700000002,"ADDRESS":"安中路二段１３８巷５３號","OBJECTID":227642},"geometry":{"x":166786.22000000067,"y":2549782.4700000025}},{"attributes":{"ID":227647,"DIS_CODE":0,"TOWNNAME":"新營區","LI":"大宏里","LIN":"11鄰","STREET":"三民路","SECT":" ","MAREA":" ","LANE":"８巷","ALLEY":" ","HOUSE_NO":"１５號","E_COORD97":180535.139085,"N_COORD97":2578569.0547500001,"ADDRESS":"三民路８巷１５號","OBJECTID":227643},"geometry":{"x":180535.13908500038,"y":2578569.0547520015}},{"attributes":{"ID":227648,"DIS_CODE":0,"TOWNNAME":"安南區","LI":"溪心里","LIN":"3鄰","STREET":"安中路","SECT":"二段","MAREA":" ","LANE":"１３８巷","ALLEY":" ","HOUSE_NO":"５７號","E_COORD97":166787.01999999999,"N_COORD97":2549791.46,"ADDRESS":"安中路二段１３８巷５７號","OBJECTID":227644},"geometry":{"x":166787.02000000142,"y":2549791.4600000009}},{"attributes":{"ID":227649,"DIS_CODE":0,"TOWNNAME":"新營區","LI":"民榮里","LIN":"34鄰","STREET":"復興路","SECT":" ","MAREA":" ","LANE":" ","ALLEY":" ","HOUSE_NO":"３０１號十一樓之４","E_COORD97":178609.81,"N_COORD97":2578135.3500000001,"ADDRESS":"復興路３０１號十一樓之４","OBJECTID":227645},"geometry":{"x":178609.81000000052,"y":2578135.3500000034}},{"attributes":{"ID":227650,"DIS_CODE":0,"TOWNNAME":"安南區","LI":"溪心里","LIN":"3鄰","STREET":"安中路","SECT":"二段","MAREA":" ","LANE":"１３８巷","ALLEY":" ","HOUSE_NO":"５９號","E_COORD97":166788.34,"N_COORD97":2549795.96,"ADDRESS":"安中路二段１３８巷５９號","OBJECTID":227646},"geometry":{"x":166788.33999999985,"y":2549795.9600000046}},{"attributes":{"ID":227651,"DIS_CODE":0,"TOWNNAME":"安南區","LI":"溪心里","LIN":"3鄰","STREET":"安中路","SECT":"二段","MAREA":" ","LANE":"１３８巷","ALLEY":" ","HOUSE_NO":"５５號","E_COORD97":166786.48999999999,"N_COORD97":2549786.7000000002,"ADDRESS":"安中路二段１３８巷５５號","OBJECTID":227647},"geometry":{"x":166786.49000000115,"y":2549786.7000000011}},{"attributes":{"ID":227652,"DIS_CODE":0,"TOWNNAME":"永康區","LI":"正強里","LIN":"25鄰","STREET":"中正路","SECT":" ","MAREA":" ","LANE":"１２７巷","ALLEY":" ","HOUSE_NO":"２２號","E_COORD97":173376.37,"N_COORD97":2547812.2400000002,"ADDRESS":"中正路１２７巷２２號","OBJECTID":227648},"geometry":{"x":173376.37000000104,"y":2547812.2400000002}},{"attributes":{"ID":227653,"DIS_CODE":0,"TOWNNAME":"永康區","LI":"北灣里","LIN":"39鄰","STREET":"大同街","SECT":" ","MAREA":" ","LANE":"７４０巷","ALLEY":" ","HOUSE_NO":"１８號","E_COORD97":174596.57000000001,"N_COORD97":2546635.4700000002,"ADDRESS":"大同街７４０巷１８號","OBJECTID":227649},"geometry":{"x":174596.5700000003,"y":2546635.4700000007}},{"attributes":{"ID":227654,"DIS_CODE":0,"TOWNNAME":"永康區","LI":"北灣里","LIN":"19鄰","STREET":"大安街","SECT":" ","MAREA":" ","LANE":"４５０巷","ALLEY":" ","HOUSE_NO":"２０號","E_COORD97":174676.29999999999,"N_COORD97":2545935.21,"ADDRESS":"大安街４５０巷２０號","OBJECTID":227650},"geometry":{"x":174676.29999999981,"y":2545935.2100000009}},{"attributes":{"ID":227655,"DIS_CODE":0,"TOWNNAME":"永康區","LI":"王行里","LIN":"9鄰","STREET":"王行路","SECT":" ","MAREA":" ","LANE":"２５４巷","ALLEY":" ","HOUSE_NO":"３９號","E_COORD97":175632.29999999999,"N_COORD97":2548490.5699999998,"ADDRESS":"王行路２５４巷３９號","OBJECTID":227651},"geometry":{"x":175632.29999999981,"y":2548490.5700000022}},{"attributes":{"ID":227656,"DIS_CODE":0,"TOWNNAME":"安南區","LI":"溪心里","LIN":"3鄰","STREET":"安吉路","SECT":"一段","MAREA":" ","LANE":"４５７巷","ALLEY":" ","HOUSE_NO":"３１號","E_COORD97":166738.85999999999,"N_COORD97":2549806.0099999998,"ADDRESS":"安吉路一段４５７巷３１號","OBJECTID":227652},"geometry":{"x":166738.86000000127,"y":2549806.0100000016}},{"attributes":{"ID":227657,"DIS_CODE":0,"TOWNNAME":"仁德區","LI":"後壁里","LIN":"3鄰","STREET":"中正路","SECT":"二段","MAREA":" ","LANE":"３１８巷","ALLEY":" ","HOUSE_NO":"１號","E_COORD97":173298.51000000001,"N_COORD97":2539049.77,"ADDRESS":"中正路二段３１８巷１號","OBJECTID":227653},"geometry":{"x":173298.51000000164,"y":2539049.7700000014}},{"attributes":{"ID":227658,"DIS_CODE":0,"TOWNNAME":"安南區","LI":"溪心里","LIN":"3鄰","STREET":"安吉路","SECT":"一段","MAREA":" ","LANE":"４５７巷","ALLEY":" ","HOUSE_NO":"４７號","E_COORD97":166709.92000000001,"N_COORD97":2549812.73,"ADDRESS":"安吉路一段４５７巷４７號","OBJECTID":227654},"geometry":{"x":166709.91999999993,"y":2549812.7300000004}},{"attributes":{"ID":227659,"DIS_CODE":0,"TOWNNAME":"安南區","LI":"溪心里","LIN":"3鄰","STREET":"安中路","SECT":"二段","MAREA":" ","LANE":"２００巷","ALLEY":" ","HOUSE_NO":"５２號","E_COORD97":166693.57000000001,"N_COORD97":2549779.5600000001,"ADDRESS":"安中路二段２００巷５２號","OBJECTID":227655},"geometry":{"x":166693.5700000003,"y":2549779.5600000005}},{"attributes":{"ID":227660,"DIS_CODE":0,"TOWNNAME":"安南區","LI":"溪心里","LIN":"3鄰","STREET":"安中路","SECT":"二段","MAREA":" ","LANE":"２００巷","ALLEY":" ","HOUSE_NO":"５６號","E_COORD97":166694.20000000001,"N_COORD97":2549783.8399999999,"ADDRESS":"安中路二段２００巷５６號","OBJECTID":227656},"geometry":{"x":166694.20000000019,"y":2549783.8399999999}},{"attributes":{"ID":227661,"DIS_CODE":0,"TOWNNAME":"安南區","LI":"溪心里","LIN":"3鄰","STREET":"安中路","SECT":"二段","MAREA":" ","LANE":"２００巷","ALLEY":" ","HOUSE_NO":"５８號","E_COORD97":166695.31,"N_COORD97":2549787.8100000001,"ADDRESS":"安中路二段２００巷５８號","OBJECTID":227657},"geometry":{"x":166695.31000000145,"y":2549787.8100000024}},{"attributes":{"ID":227662,"DIS_CODE":0,"TOWNNAME":"安南區","LI":"溪心里","LIN":"3鄰","STREET":"安中路","SECT":"二段","MAREA":" ","LANE":"２００巷","ALLEY":" ","HOUSE_NO":"６０號","E_COORD97":166696.10999999999,"N_COORD97":2549791.7799999998,"ADDRESS":"安中路二段２００巷６０號","OBJECTID":227658},"geometry":{"x":166696.11000000127,"y":2549791.7799999993}},{"attributes":{"ID":227663,"DIS_CODE":0,"TOWNNAME":"安南區","LI":"溪心里","LIN":"3鄰","STREET":"安中路","SECT":"二段","MAREA":" ","LANE":"２００巷","ALLEY":" ","HOUSE_NO":"４７號","E_COORD97":166684.20000000001,"N_COORD97":2549816.7000000002,"ADDRESS":"安中路二段２００巷４７號","OBJECTID":227659},"geometry":{"x":166684.20000000019,"y":2549816.7000000011}},{"attributes":{"ID":227664,"DIS_CODE":0,"TOWNNAME":"安南區","LI":"溪心里","LIN":"3鄰","STREET":"安中路","SECT":"二段","MAREA":" ","LANE":"２００巷","ALLEY":" ","HOUSE_NO":"３３號","E_COORD97":166676.57999999999,"N_COORD97":2549783.21,"ADDRESS":"安中路二段２００巷３３號","OBJECTID":227660},"geometry":{"x":166676.58000000007,"y":2549783.2100000009}},{"attributes":{"ID":227665,"DIS_CODE":0,"TOWNNAME":"安南區","LI":"溪心里","LIN":"3鄰","STREET":"安中路","SECT":"二段","MAREA":" ","LANE":"２００巷","ALLEY":" ","HOUSE_NO":"３５號","E_COORD97":166677.85000000001,"N_COORD97":2549788.29,"ADDRESS":"安中路二段２００巷３５號","OBJECTID":227661},"geometry":{"x":166677.84999999963,"y":2549788.2900000028}},{"attributes":{"ID":227666,"DIS_CODE":0,"TOWNNAME":"安南區","LI":"溪心里","LIN":"3鄰","STREET":"安中路","SECT":"二段","MAREA":" ","LANE":"２００巷","ALLEY":" ","HOUSE_NO":"２７號","E_COORD97":166671.01999999999,"N_COORD97":2549759.0800000001,"ADDRESS":"安中路二段２００巷２７號","OBJECTID":227662},"geometry":{"x":166671.01999999955,"y":2549759.0800000001}},{"attributes":{"ID":227667,"DIS_CODE":0,"TOWNNAME":"安南區","LI":"溪心里","LIN":"3鄰","STREET":"安中路","SECT":"二段","MAREA":" ","LANE":"２００巷","ALLEY":" ","HOUSE_NO":"２５號","E_COORD97":166669.91,"N_COORD97":2549755.5800000001,"ADDRESS":"安中路二段２００巷２５號","OBJECTID":227663},"geometry":{"x":166669.91000000108,"y":2549755.5800000001}},{"attributes":{"ID":227668,"DIS_CODE":0,"TOWNNAME":"永康區","LI":"西灣里","LIN":"51鄰","STREET":"永華路","SECT":" ","MAREA":" ","LANE":"３１７巷","ALLEY":" ","HOUSE_NO":"１５號","E_COORD97":173964.73999999999,"N_COORD97":2545906,"ADDRESS":"永華路３１７巷１５號","OBJECTID":227664},"geometry":{"x":173964.74000000022,"y":2545906.0000000037}},{"attributes":{"ID":227669,"DIS_CODE":0,"TOWNNAME":"永康區","LI":"西灣里","LIN":"51鄰","STREET":"永華路","SECT":" ","MAREA":" ","LANE":"３１７巷","ALLEY":" ","HOUSE_NO":"２８號","E_COORD97":173932.10999999999,"N_COORD97":2545897.25,"ADDRESS":"永華路３１７巷２８號","OBJECTID":227665},"geometry":{"x":173932.11000000034,"y":2545897.2499999981}},{"attributes":{"ID":227670,"DIS_CODE":0,"TOWNNAME":"永康區","LI":"西灣里","LIN":"51鄰","STREET":"永華路","SECT":" ","MAREA":" ","LANE":"３１７巷","ALLEY":" ","HOUSE_NO":"１８號之１","E_COORD97":173954.48000000001,"N_COORD97":2545902.5499999998,"ADDRESS":"永華路３１７巷１８號之１","OBJECTID":227666},"geometry":{"x":173954.48000000138,"y":2545902.5500000007}},{"attributes":{"ID":227671,"DIS_CODE":0,"TOWNNAME":"仁德區","LI":"仁義里","LIN":"51鄰","STREET":"中正路","SECT":"二段","MAREA":" ","LANE":"１０９６巷","ALLEY":" ","HOUSE_NO":"５號","E_COORD97":173387.48999999999,"N_COORD97":2541092.02,"ADDRESS":"中正路二段１０９６巷５號","OBJECTID":227667},"geometry":{"x":173387.49000000115,"y":2541092.0200000014}},{"attributes":{"ID":227672,"DIS_CODE":0,"TOWNNAME":"仁德區","LI":"仁義里","LIN":"51鄰","STREET":"中正路","SECT":"二段","MAREA":" ","LANE":"１０９６巷","ALLEY":" ","HOUSE_NO":"４號","E_COORD97":173382.98000000001,"N_COORD97":2541091.52,"ADDRESS":"中正路二段１０９６巷４號","OBJECTID":227668},"geometry":{"x":173382.98000000138,"y":2541091.5200000014}},{"attributes":{"ID":227673,"DIS_CODE":0,"TOWNNAME":"永康區","LI":"西灣里","LIN":"51鄰","STREET":"永華路","SECT":" ","MAREA":" ","LANE":"３１７巷","ALLEY":" ","HOUSE_NO":"１８號","E_COORD97":173956.22,"N_COORD97":2545903.75,"ADDRESS":"永華路３１７巷１８號","OBJECTID":227669},"geometry":{"x":173956.21999999974,"y":2545903.75}},{"attributes":{"ID":227674,"DIS_CODE":0,"TOWNNAME":"新市區","LI":"新和里","LIN":"51鄰","STREET":"中正路","SECT":" ","MAREA":" ","LANE":"９２巷","ALLEY":" ","HOUSE_NO":"１號","E_COORD97":177446.82000000001,"N_COORD97":2552513.5,"ADDRESS":"中正路９２巷１號","OBJECTID":227670},"geometry":{"x":177446.82000000216,"y":2552513.4999999981}},{"attributes":{"ID":227675,"DIS_CODE":0,"TOWNNAME":"安南區","LI":"溪心里","LIN":"3鄰","STREET":"安中路","SECT":"二段","MAREA":" ","LANE":"２００巷","ALLEY":" ","HOUSE_NO":"２９號","E_COORD97":166672.45000000001,"N_COORD97":2549763.6800000002,"ADDRESS":"安中路二段２００巷２９號","OBJECTID":227671},"geometry":{"x":166672.45000000019,"y":2549763.6800000016}},{"attributes":{"ID":227676,"DIS_CODE":0,"TOWNNAME":"安南區","LI":"溪心里","LIN":"3鄰","STREET":"安中路","SECT":"二段","MAREA":" ","LANE":"２００巷","ALLEY":" ","HOUSE_NO":"１０號","E_COORD97":166677.26999999999,"N_COORD97":2549701.5,"ADDRESS":"安中路二段２００巷１０號","OBJECTID":227672},"geometry":{"x":166677.27000000048,"y":2549701.5}},{"attributes":{"ID":227677,"DIS_CODE":0,"TOWNNAME":"永康區","LI":"王行里","LIN":"5鄰","STREET":"育樂街","SECT":" ","MAREA":" ","LANE":"１４３巷","ALLEY":" ","HOUSE_NO":"１２號之１","E_COORD97":175077.34,"N_COORD97":2548298.6400000001,"ADDRESS":"育樂街１４３巷１２號之１","OBJECTID":227673},"geometry":{"x":175077.33999999985,"y":2548298.6400000006}},{"attributes":{"ID":227678,"DIS_CODE":0,"TOWNNAME":"永康區","LI":"五王里","LIN":"39鄰","STREET":"中華路","SECT":" ","MAREA":" ","LANE":"５７８巷","ALLEY":" ","HOUSE_NO":"１７號之９４","E_COORD97":171333.59,"N_COORD97":2545989.54,"ADDRESS":"中華路５７８巷１７號之９４","OBJECTID":227674},"geometry":{"x":171333.59000000078,"y":2545989.5400000028}},{"attributes":{"ID":227679,"DIS_CODE":0,"TOWNNAME":"仁德區","LI":"一甲里","LIN":"3鄰","STREET":"中正路","SECT":"三段","MAREA":" ","LANE":"１１４巷","ALLEY":" ","HOUSE_NO":"１０號","E_COORD97":173440.63,"N_COORD97":2541642.23,"ADDRESS":"中正路三段１１４巷１０號","OBJECTID":227675},"geometry":{"x":173440.63000000082,"y":2541642.2300000004}},{"attributes":{"ID":227680,"DIS_CODE":0,"TOWNNAME":"新營區","LI":"民榮里","LIN":"34鄰","STREET":"復興路","SECT":" ","MAREA":" ","LANE":" ","ALLEY":" ","HOUSE_NO":"３０１號八樓之３","E_COORD97":178608.63,"N_COORD97":2578135.3500000001,"ADDRESS":"復興路３０１號八樓之３","OBJECTID":227676},"geometry":{"x":178608.62999999989,"y":2578135.3500000034}},{"attributes":{"ID":227681,"DIS_CODE":0,"TOWNNAME":"新營區","LI":"民榮里","LIN":"34鄰","STREET":"復興路","SECT":" ","MAREA":" ","LANE":" ","ALLEY":" ","HOUSE_NO":"３０１號四樓之６","E_COORD97":178606.54000000001,"N_COORD97":2578125.3900000001,"ADDRESS":"復興路３０１號四樓之６","OBJECTID":227677},"geometry":{"x":178606.54000000097,"y":2578125.3900000006}},{"attributes":{"ID":227682,"DIS_CODE":0,"TOWNNAME":"新營區","LI":"民榮里","LIN":"34鄰","STREET":"復興路","SECT":" ","MAREA":" ","LANE":" ","ALLEY":" ","HOUSE_NO":"３０１號七樓之６","E_COORD97":178608.64000000001,"N_COORD97":2578135.3500000001,"ADDRESS":"復興路３０１號七樓之６","OBJECTID":227678},"geometry":{"x":178608.64000000153,"y":2578135.3500000034}},{"attributes":{"ID":227683,"DIS_CODE":0,"TOWNNAME":"新營區","LI":"民榮里","LIN":"34鄰","STREET":"復興路","SECT":" ","MAREA":" ","LANE":" ","ALLEY":" ","HOUSE_NO":"３０１號十八樓之１","E_COORD97":178609.79000000001,"N_COORD97":2578135.3500000001,"ADDRESS":"復興路３０１號十八樓之１","OBJECTID":227679},"geometry":{"x":178609.7900000019,"y":2578135.3500000034}},{"attributes":{"ID":227684,"DIS_CODE":0,"TOWNNAME":"新營區","LI":"民榮里","LIN":"34鄰","STREET":"復興路","SECT":" ","MAREA":" ","LANE":" ","ALLEY":" ","HOUSE_NO":"３０１號十二樓之６","E_COORD97":178609.89000000001,"N_COORD97":2578135.3500000001,"ADDRESS":"復興路３０１號十二樓之６","OBJECTID":227680},"geometry":{"x":178609.88999999966,"y":2578135.3500000034}},{"attributes":{"ID":227685,"DIS_CODE":0,"TOWNNAME":"新營區","LI":"民榮里","LIN":"34鄰","STREET":"復興路","SECT":" ","MAREA":" ","LANE":" ","ALLEY":" ","HOUSE_NO":"３０１號十八樓之４","E_COORD97":178609.81,"N_COORD97":2578135.3500000001,"ADDRESS":"復興路３０１號十八樓之４","OBJECTID":227681},"geometry":{"x":178609.81000000052,"y":2578135.3500000034}},{"attributes":{"ID":227686,"DIS_CODE":0,"TOWNNAME":"安南區","LI":"國安里","LIN":"1鄰","STREET":"國安街","SECT":" ","MAREA":" ","LANE":" ","ALLEY":" ","HOUSE_NO":"１８８號","E_COORD97":166666.20999999999,"N_COORD97":2546958.8300000001,"ADDRESS":"國安街１８８號","OBJECTID":227682},"geometry":{"x":166666.21000000089,"y":2546958.8300000019}},{"attributes":{"ID":227687,"DIS_CODE":0,"TOWNNAME":"新市區","LI":"新和里","LIN":"51鄰","STREET":"中正路","SECT":" ","MAREA":" ","LANE":"９２巷","ALLEY":" ","HOUSE_NO":"２號","E_COORD97":177482.16,"N_COORD97":2552496.75,"ADDRESS":"中正路９２巷２號","OBJECTID":227683},"geometry":{"x":177482.16000000108,"y":2552496.7500000019}},{"attributes":{"ID":227688,"DIS_CODE":0,"TOWNNAME":"永康區","LI":"西灣里","LIN":"51鄰","STREET":"永華路","SECT":" ","MAREA":" ","LANE":"３１７巷","ALLEY":" ","HOUSE_NO":"５０號","E_COORD97":173885.39999999999,"N_COORD97":2545884.7400000002,"ADDRESS":"永華路３１７巷５０號","OBJECTID":227684},"geometry":{"x":173885.4000000013,"y":2545884.7400000021}},{"attributes":{"ID":227689,"DIS_CODE":0,"TOWNNAME":"仁德區","LI":"新田里","LIN":"3鄰","STREET":"新田二街","SECT":" ","MAREA":" ","LANE":"１２０巷","ALLEY":" ","HOUSE_NO":"１０號","E_COORD97":174929.51000000001,"N_COORD97":2539895,"ADDRESS":"新田二街１２０巷１０號","OBJECTID":227685},"geometry":{"x":174929.51000000071,"y":2539895.0000000037}},{"attributes":{"ID":227690,"DIS_CODE":0,"TOWNNAME":"仁德區","LI":"仁德里","LIN":"3鄰","STREET":"仁中六街","SECT":" ","MAREA":" ","LANE":"３０巷","ALLEY":" ","HOUSE_NO":"２號","E_COORD97":173413.48000000001,"N_COORD97":2540346.4900000002,"ADDRESS":"仁中六街３０巷２號","OBJECTID":227686},"geometry":{"x":173413.48000000138,"y":2540346.4900000021}},{"attributes":{"ID":227691,"DIS_CODE":0,"TOWNNAME":"仁德區","LI":"上崙里","LIN":"3鄰","STREET":"德崙路","SECT":" ","MAREA":" ","LANE":"２３１巷","ALLEY":" ","HOUSE_NO":"４２號","E_COORD97":173765.64999999999,"N_COORD97":2538263.27,"ADDRESS":"德崙路２３１巷４２號","OBJECTID":227687},"geometry":{"x":173765.65000000037,"y":2538263.2700000014}},{"attributes":{"ID":227692,"DIS_CODE":0,"TOWNNAME":"永康區","LI":"北灣里","LIN":"2鄰","STREET":"大同街","SECT":" ","MAREA":" ","LANE":"５０巷","ALLEY":" ","HOUSE_NO":"２號","E_COORD97":175299.32000000001,"N_COORD97":2545439.5899999999,"ADDRESS":"大同街５０巷２號","OBJECTID":227688},"geometry":{"x":175299.32000000123,"y":2545439.5899999999}},{"attributes":{"ID":227693,"DIS_CODE":0,"TOWNNAME":"永康區","LI":"王行里","LIN":"13鄰","STREET":"王行路","SECT":" ","MAREA":" ","LANE":"１０３２巷","ALLEY":" ","HOUSE_NO":"３號","E_COORD97":175807.63,"N_COORD97":2550163.4100000001,"ADDRESS":"王行路１０３２巷３號","OBJECTID":227689},"geometry":{"x":175807.62999999989,"y":2550163.4100000001}},{"attributes":{"ID":227694,"DIS_CODE":0,"TOWNNAME":"永康區","LI":"正強里","LIN":"34鄰","STREET":"四維街","SECT":" ","MAREA":" ","LANE":"１４９巷","ALLEY":" ","HOUSE_NO":"２６號","E_COORD97":173218.79999999999,"N_COORD97":2548402.7599999998,"ADDRESS":"四維街１４９巷２６號","OBJECTID":227690},"geometry":{"x":173218.80000000075,"y":2548402.7600000035}},{"attributes":{"ID":227695,"DIS_CODE":0,"TOWNNAME":"永康區","LI":"正強里","LIN":"47鄰","STREET":"中正路","SECT":" ","MAREA":" ","LANE":"２５６巷","ALLEY":" ","HOUSE_NO":"１１號之５８","E_COORD97":173231.35999999999,"N_COORD97":2547996.2000000002,"ADDRESS":"中正路２５６巷１１號之５８","OBJECTID":227691},"geometry":{"x":173231.36000000127,"y":2547996.2000000011}},{"attributes":{"ID":227696,"DIS_CODE":0,"TOWNNAME":"永康區","LI":"王行里","LIN":"15鄰","STREET":"龍昌街","SECT":" ","MAREA":" ","LANE":"８５巷","ALLEY":" ","HOUSE_NO":"１４號","E_COORD97":174932.79000000001,"N_COORD97":2548133.2200000002,"ADDRESS":"龍昌街８５巷１４號","OBJECTID":227692},"geometry":{"x":174932.7900000019,"y":2548133.2200000025}},{"attributes":{"ID":227697,"DIS_CODE":0,"TOWNNAME":"永康區","LI":"復華里","LIN":"3鄰","STREET":"復國二路","SECT":" ","MAREA":" ","LANE":"３４０巷","ALLEY":" ","HOUSE_NO":"１３號","E_COORD97":173072.28,"N_COORD97":2546158.8900000001,"ADDRESS":"復國二路３４０巷１３號","OBJECTID":227693},"geometry":{"x":173072.28000000119,"y":2546158.8900000025}},{"attributes":{"ID":227698,"DIS_CODE":0,"TOWNNAME":"永康區","LI":"大灣里","LIN":"3鄰","STREET":"大同街","SECT":" ","MAREA":" ","LANE":"２１８巷","ALLEY":" ","HOUSE_NO":"２號","E_COORD97":174846.01999999999,"N_COORD97":2545656.7400000002,"ADDRESS":"大同街２１８巷２號","OBJECTID":227694},"geometry":{"x":174846.02000000142,"y":2545656.7400000002}},{"attributes":{"ID":227699,"DIS_CODE":0,"TOWNNAME":"永康區","LI":"尚頂里","LIN":"3鄰","STREET":"中正二街","SECT":" ","MAREA":" ","LANE":"１６２巷","ALLEY":" ","HOUSE_NO":"２９號","E_COORD97":171388.98999999999,"N_COORD97":2547547.46,"ADDRESS":"中正二街１６２巷２９號","OBJECTID":227695},"geometry":{"x":171388.99000000115,"y":2547547.4600000009}},{"attributes":{"ID":227700,"DIS_CODE":0,"TOWNNAME":"永康區","LI":"蔦松里","LIN":"3鄰","STREET":"蔦松一街","SECT":" ","MAREA":" ","LANE":"３５巷","ALLEY":" ","HOUSE_NO":"８號","E_COORD97":173945.82000000001,"N_COORD97":2549350.5,"ADDRESS":"蔦松一街３５巷８號","OBJECTID":227696},"geometry":{"x":173945.8200000003,"y":2549350.5000000037}},{"attributes":{"ID":227701,"DIS_CODE":0,"TOWNNAME":"永康區","LI":"新樹里","LIN":"3鄰","STREET":"中山北路","SECT":" ","MAREA":" ","LANE":"６３４巷","ALLEY":" ","HOUSE_NO":"３２號","E_COORD97":176155.92999999999,"N_COORD97":2547833.8799999999,"ADDRESS":"中山北路６３４巷３２號","OBJECTID":227697},"geometry":{"x":176155.93000000063,"y":2547833.879999999}},{"attributes":{"ID":227702,"DIS_CODE":0,"TOWNNAME":"永康區","LI":"西勢里","LIN":"3鄰","STREET":"富強路","SECT":"一段","MAREA":" ","LANE":"３２１巷","ALLEY":" ","HOUSE_NO":"８２號","E_COORD97":175538.34,"N_COORD97":2546737.4900000002,"ADDRESS":"富強路一段３２１巷８２號","OBJECTID":227698},"geometry":{"x":175538.33999999985,"y":2546737.4900000021}},{"attributes":{"ID":227703,"DIS_CODE":0,"TOWNNAME":"永康區","LI":"正強里","LIN":"3鄰","STREET":"中正路","SECT":" ","MAREA":" ","LANE":"１巷","ALLEY":" ","HOUSE_NO":"３４號","E_COORD97":173653.72,"N_COORD97":2547596.7400000002,"ADDRESS":"中正路１巷３４號","OBJECTID":227699},"geometry":{"x":173653.72000000067,"y":2547596.7400000021}},{"attributes":{"ID":227704,"DIS_CODE":0,"TOWNNAME":"永康區","LI":"新樹里","LIN":"3鄰","STREET":"富強路","SECT":"二段","MAREA":" ","LANE":"３９８巷","ALLEY":" ","HOUSE_NO":"４２號","E_COORD97":175659.14000000001,"N_COORD97":2547632.8900000001,"ADDRESS":"富強路二段３９８巷４２號","OBJECTID":227700},"geometry":{"x":175659.1400000006,"y":2547632.8900000043}},{"attributes":{"ID":227705,"DIS_CODE":0,"TOWNNAME":"新營區","LI":"民榮里","LIN":"34鄰","STREET":"復興路","SECT":" ","MAREA":" ","LANE":" ","ALLEY":" ","HOUSE_NO":"３０１號六樓之２","E_COORD97":178608.67000000001,"N_COORD97":2578135.3500000001,"ADDRESS":"復興路３０１號六樓之２","OBJECTID":227701},"geometry":{"x":178608.67000000179,"y":2578135.3500000034}},{"attributes":{"ID":227706,"DIS_CODE":0,"TOWNNAME":"新營區","LI":"民榮里","LIN":"34鄰","STREET":"復興路","SECT":" ","MAREA":" ","LANE":" ","ALLEY":" ","HOUSE_NO":"３０１號六樓之４","E_COORD97":178608.56,"N_COORD97":2578135.3500000001,"ADDRESS":"復興路３０１號六樓之４","OBJECTID":227702},"geometry":{"x":178608.55999999959,"y":2578135.3500000034}},{"attributes":{"ID":227707,"DIS_CODE":0,"TOWNNAME":"永康區","LI":"東橋里","LIN":"3鄰","STREET":"大橋一街","SECT":" ","MAREA":" ","LANE":"３２４巷","ALLEY":" ","HOUSE_NO":"３３號","E_COORD97":171365.39999999999,"N_COORD97":2546603.2799999998,"ADDRESS":"大橋一街３２４巷３３號","OBJECTID":227703},"geometry":{"x":171365.40000000037,"y":2546603.2800000012}},{"attributes":{"ID":227708,"DIS_CODE":0,"TOWNNAME":"永康區","LI":"尚頂里","LIN":"3鄰","STREET":"中正二街","SECT":" ","MAREA":" ","LANE":"１８２巷","ALLEY":" ","HOUSE_NO":"１６號","E_COORD97":171437.57999999999,"N_COORD97":2547647.6600000001,"ADDRESS":"中正二街１８２巷１６號","OBJECTID":227704},"geometry":{"x":171437.58000000101,"y":2547647.6600000039}},{"attributes":{"ID":227709,"DIS_CODE":0,"TOWNNAME":"永康區","LI":"北灣里","LIN":"3鄰","STREET":"文賢街","SECT":" ","MAREA":" ","LANE":"２２７巷","ALLEY":" ","HOUSE_NO":"２７號","E_COORD97":175267.04000000001,"N_COORD97":2545587.3300000001,"ADDRESS":"文賢街２２７巷２７號","OBJECTID":227705},"geometry":{"x":175267.04000000097,"y":2545587.3300000001}},{"attributes":{"ID":227710,"DIS_CODE":0,"TOWNNAME":"永康區","LI":"大橋里","LIN":"3鄰","STREET":"大橋三街","SECT":" ","MAREA":" ","LANE":"１２４巷","ALLEY":" ","HOUSE_NO":"９號之２","E_COORD97":170800.23000000001,"N_COORD97":2546674.04,"ADDRESS":"大橋三街１２４巷９號之２","OBJECTID":227706},"geometry":{"x":170800.23000000045,"y":2546674.0399999972}},{"attributes":{"ID":227711,"DIS_CODE":0,"TOWNNAME":"永康區","LI":"復國里","LIN":"3鄰","STREET":"復國一路","SECT":" ","MAREA":" ","LANE":"４４巷","ALLEY":" ","HOUSE_NO":"４１號","E_COORD97":172802.32000000001,"N_COORD97":2544818.52,"ADDRESS":"復國一路４４巷４１號","OBJECTID":227707},"geometry":{"x":172802.32000000123,"y":2544818.5200000014}},{"attributes":{"ID":227712,"DIS_CODE":0,"TOWNNAME":"永康區","LI":"崑山里","LIN":"3鄰","STREET":"大灣路","SECT":" ","MAREA":" ","LANE":"８７９巷","ALLEY":" ","HOUSE_NO":"４７號","E_COORD97":173657.92000000001,"N_COORD97":2544367.71,"ADDRESS":"大灣路８７９巷４７號","OBJECTID":227708},"geometry":{"x":173657.91999999993,"y":2544367.7100000028}},{"attributes":{"ID":227713,"DIS_CODE":0,"TOWNNAME":"永康區","LI":"尚頂里","LIN":"3鄰","STREET":"中正二街","SECT":" ","MAREA":" ","LANE":"１８２巷","ALLEY":" ","HOUSE_NO":"５５號","E_COORD97":171469.23999999999,"N_COORD97":2547581,"ADDRESS":"中正二街１８２巷５５號","OBJECTID":227709},"geometry":{"x":171469.24000000022,"y":2547581.0000000037}},{"attributes":{"ID":227714,"DIS_CODE":0,"TOWNNAME":"永康區","LI":"復國里","LIN":"3鄰","STREET":"復國一路","SECT":" ","MAREA":" ","LANE":"４４巷","ALLEY":" ","HOUSE_NO":"６號","E_COORD97":172749.12,"N_COORD97":2544800.02,"ADDRESS":"復國一路４４巷６號","OBJECTID":227710},"geometry":{"x":172749.12000000104,"y":2544800.0200000033}},{"attributes":{"ID":227715,"DIS_CODE":0,"TOWNNAME":"永康區","LI":"北灣里","LIN":"14鄰","STREET":"大灣七街","SECT":" ","MAREA":" ","LANE":"９３巷","ALLEY":" ","HOUSE_NO":"７號","E_COORD97":175030.39999999999,"N_COORD97":2545808.54,"ADDRESS":"大灣七街９３巷７號","OBJECTID":227711},"geometry":{"x":175030.40000000037,"y":2545808.5399999991}},{"attributes":{"ID":227716,"DIS_CODE":0,"TOWNNAME":"佳里區","LI":"建南里","LIN":"3鄰","STREET":"新生路","SECT":" ","MAREA":" ","LANE":"２７４巷","ALLEY":" ","HOUSE_NO":"４號","E_COORD97":165658.19,"N_COORD97":2562341.0899999999,"ADDRESS":"新生路２７４巷４號","OBJECTID":227712},"geometry":{"x":165658.19000000134,"y":2562341.0899999999}},{"attributes":{"ID":227717,"DIS_CODE":0,"TOWNNAME":"永康區","LI":"北灣里","LIN":"39鄰","STREET":"大同街","SECT":" ","MAREA":" ","LANE":"６３６巷","ALLEY":" ","HOUSE_NO":"３號","E_COORD97":174651.07999999999,"N_COORD97":2546351.2999999998,"ADDRESS":"大同街６３６巷３號","OBJECTID":227713},"geometry":{"x":174651.07999999914,"y":2546351.3000000007}},{"attributes":{"ID":227718,"DIS_CODE":0,"TOWNNAME":"安南區","LI":"溪心里","LIN":"3鄰","STREET":"安中路","SECT":"二段","MAREA":" ","LANE":"１３８巷","ALLEY":" ","HOUSE_NO":"２號","E_COORD97":166782.47,"N_COORD97":2549670.1000000001,"ADDRESS":"安中路二段１３８巷２號","OBJECTID":227714},"geometry":{"x":166782.4700000016,"y":2549670.0999999996}},{"attributes":{"ID":227719,"DIS_CODE":0,"TOWNNAME":"佳里區","LI":"安西里","LIN":"51鄰","STREET":" ","SECT":" ","MAREA":"安西","LANE":" ","ALLEY":" ","HOUSE_NO":"１３０號之８０","E_COORD97":164170.17000000001,"N_COORD97":2562054.5800000001,"ADDRESS":"安西１３０號之８０","OBJECTID":227715},"geometry":{"x":164170.16999999993,"y":2562054.5800000019}},{"attributes":{"ID":227720,"DIS_CODE":0,"TOWNNAME":"佳里區","LI":"安西里","LIN":"51鄰","STREET":" ","SECT":" ","MAREA":"安西","LANE":" ","ALLEY":" ","HOUSE_NO":"１３０號之８１","E_COORD97":164170.32999999999,"N_COORD97":2562060.3900000001,"ADDRESS":"安西１３０號之８１","OBJECTID":227716},"geometry":{"x":164170.33000000101,"y":2562060.3900000025}},{"attributes":{"ID":227721,"DIS_CODE":0,"TOWNNAME":"佳里區","LI":"安西里","LIN":"51鄰","STREET":" ","SECT":" ","MAREA":"安西","LANE":" ","ALLEY":" ","HOUSE_NO":"１２７號二樓之１","E_COORD97":164161.25,"N_COORD97":2562159.1000000001,"ADDRESS":"安西１２７號二樓之１","OBJECTID":227717},"geometry":{"x":164161.25,"y":2562159.1000000015}},{"attributes":{"ID":227722,"DIS_CODE":0,"TOWNNAME":"佳里區","LI":"安西里","LIN":"51鄰","STREET":" ","SECT":" ","MAREA":"安西","LANE":" ","ALLEY":" ","HOUSE_NO":"１２７號二樓之１０","E_COORD97":164161.25,"N_COORD97":2562159.1000000001,"ADDRESS":"安西１２７號二樓之１０","OBJECTID":227718},"geometry":{"x":164161.25,"y":2562159.1000000015}},{"attributes":{"ID":227723,"DIS_CODE":0,"TOWNNAME":"佳里區","LI":"安西里","LIN":"51鄰","STREET":" ","SECT":" ","MAREA":"安西","LANE":" ","ALLEY":" ","HOUSE_NO":"１２７號二樓之１１","E_COORD97":164161.25,"N_COORD97":2562159.1000000001,"ADDRESS":"安西１２７號二樓之１１","OBJECTID":227719},"geometry":{"x":164161.25,"y":2562159.1000000015}},{"attributes":{"ID":227724,"DIS_CODE":0,"TOWNNAME":"歸仁區","LI":"南保里","LIN":"65鄰","STREET":"中山路","SECT":"三段","MAREA":" ","LANE":" ","ALLEY":" ","HOUSE_NO":"２４３號","E_COORD97":176328.10616699999,"N_COORD97":2540921.7383599998,"ADDRESS":"中山路三段２４３號","OBJECTID":227720},"geometry":{"x":176328.10616700165,"y":2540921.7383580022}},{"attributes":{"ID":227725,"DIS_CODE":0,"TOWNNAME":"佳里區","LI":"安西里","LIN":"51鄰","STREET":" ","SECT":" ","MAREA":"安西","LANE":" ","ALLEY":" ","HOUSE_NO":"１２７號四樓之４","E_COORD97":164161.25,"N_COORD97":2562159.1000000001,"ADDRESS":"安西１２７號四樓之４","OBJECTID":227721},"geometry":{"x":164161.25,"y":2562159.1000000015}},{"attributes":{"ID":227726,"DIS_CODE":0,"TOWNNAME":"佳里區","LI":"安西里","LIN":"51鄰","STREET":" ","SECT":" ","MAREA":"安西","LANE":" ","ALLEY":" ","HOUSE_NO":"１２７號四樓之５","E_COORD97":164161.25,"N_COORD97":2562159.1000000001,"ADDRESS":"安西１２７號四樓之５","OBJECTID":227722},"geometry":{"x":164161.25,"y":2562159.1000000015}},{"attributes":{"ID":227727,"DIS_CODE":0,"TOWNNAME":"佳里區","LI":"安西里","LIN":"51鄰","STREET":" ","SECT":" ","MAREA":"安西","LANE":" ","ALLEY":" ","HOUSE_NO":"１２７號四樓之６","E_COORD97":164161.25,"N_COORD97":2562159.1000000001,"ADDRESS":"安西１２７號四樓之６","OBJECTID":227723},"geometry":{"x":164161.25,"y":2562159.1000000015}},{"attributes":{"ID":227728,"DIS_CODE":0,"TOWNNAME":"佳里區","LI":"安西里","LIN":"51鄰","STREET":" ","SECT":" ","MAREA":"安西","LANE":" ","ALLEY":" ","HOUSE_NO":"１２７號四樓之７","E_COORD97":164161.25,"N_COORD97":2562159.1000000001,"ADDRESS":"安西１２７號四樓之７","OBJECTID":227724},"geometry":{"x":164161.25,"y":2562159.1000000015}},{"attributes":{"ID":227729,"DIS_CODE":0,"TOWNNAME":"佳里區","LI":"安西里","LIN":"51鄰","STREET":" ","SECT":" ","MAREA":"安西","LANE":" ","ALLEY":" ","HOUSE_NO":"１２７號四樓之８","E_COORD97":164161.25,"N_COORD97":2562159.1000000001,"ADDRESS":"安西１２７號四樓之８","OBJECTID":227725},"geometry":{"x":164161.25,"y":2562159.1000000015}},{"attributes":{"ID":227730,"DIS_CODE":0,"TOWNNAME":"佳里區","LI":"安西里","LIN":"51鄰","STREET":" ","SECT":" ","MAREA":"安西","LANE":" ","ALLEY":" ","HOUSE_NO":"１２７號四樓之９","E_COORD97":164161.25,"N_COORD97":2562159.1000000001,"ADDRESS":"安西１２７號四樓之９","OBJECTID":227726},"geometry":{"x":164161.25,"y":2562159.1000000015}},{"attributes":{"ID":227731,"DIS_CODE":0,"TOWNNAME":"柳營區","LI":"重溪里","LIN":"21鄰","STREET":" ","SECT":" ","MAREA":"小腳腿","LANE":" ","ALLEY":" ","HOUSE_NO":"４號之１７","E_COORD97":185137.04000000001,"N_COORD97":2576108.6800000002,"ADDRESS":"小腳腿４號之１７","OBJECTID":227727},"geometry":{"x":185137.04000000004,"y":2576108.6799999997}},{"attributes":{"ID":227732,"DIS_CODE":0,"TOWNNAME":"柳營區","LI":"重溪里","LIN":"21鄰","STREET":" ","SECT":" ","MAREA":"小腳腿","LANE":" ","ALLEY":" ","HOUSE_NO":"５號之１０","E_COORD97":185124.89000000001,"N_COORD97":2576074.3100000001,"ADDRESS":"小腳腿５號之１０","OBJECTID":227728},"geometry":{"x":185124.89000000153,"y":2576074.3100000005}},{"attributes":{"ID":227733,"DIS_CODE":0,"TOWNNAME":"柳營區","LI":"重溪里","LIN":"21鄰","STREET":" ","SECT":" ","MAREA":"小腳腿","LANE":" ","ALLEY":" ","HOUSE_NO":"５號之１７","E_COORD97":185118.53,"N_COORD97":2576052.7799999998,"ADDRESS":"小腳腿５號之１７","OBJECTID":227729},"geometry":{"x":185118.53000000119,"y":2576052.7799999993}},{"attributes":{"ID":227734,"DIS_CODE":0,"TOWNNAME":"柳營區","LI":"重溪里","LIN":"21鄰","STREET":" ","SECT":" ","MAREA":"小腳腿","LANE":" ","ALLEY":" ","HOUSE_NO":"５號之３２","E_COORD97":185141.23999999999,"N_COORD97":2576083.27,"ADDRESS":"小腳腿５號之３２","OBJECTID":227730},"geometry":{"x":185141.24000000022,"y":2576083.2699999996}},{"attributes":{"ID":227735,"DIS_CODE":0,"TOWNNAME":"柳營區","LI":"重溪里","LIN":"21鄰","STREET":" ","SECT":" ","MAREA":"小腳腿","LANE":" ","ALLEY":" ","HOUSE_NO":"５號之３４","E_COORD97":185134.16,"N_COORD97":2576100.9199999999,"ADDRESS":"小腳腿５號之３４","OBJECTID":227731},"geometry":{"x":185134.16000000108,"y":2576100.9199999981}},{"attributes":{"ID":227736,"DIS_CODE":0,"TOWNNAME":"柳營區","LI":"重溪里","LIN":"21鄰","STREET":" ","SECT":" ","MAREA":"小腳腿","LANE":" ","ALLEY":" ","HOUSE_NO":"５號之３５","E_COORD97":185135.39000000001,"N_COORD97":2576105,"ADDRESS":"小腳腿５號之３５","OBJECTID":227732},"geometry":{"x":185135.3900000006,"y":2576105.0000000019}},{"attributes":{"ID":227737,"DIS_CODE":0,"TOWNNAME":"柳營區","LI":"重溪里","LIN":"21鄰","STREET":" ","SECT":" ","MAREA":"小腳腿","LANE":" ","ALLEY":" ","HOUSE_NO":"５號之６","E_COORD97":185119.73000000001,"N_COORD97":2576057.1299999999,"ADDRESS":"小腳腿５號之６","OBJECTID":227733},"geometry":{"x":185119.73000000045,"y":2576057.129999999}},{"attributes":{"ID":227738,"DIS_CODE":0,"TOWNNAME":"柳營區","LI":"重溪里","LIN":"21鄰","STREET":" ","SECT":" ","MAREA":"小腳腿","LANE":" ","ALLEY":" ","HOUSE_NO":"５號之７","E_COORD97":185120.82000000001,"N_COORD97":2576061.52,"ADDRESS":"小腳腿５號之７","OBJECTID":227734},"geometry":{"x":185120.8200000003,"y":2576061.5199999996}},{"attributes":{"ID":227739,"DIS_CODE":0,"TOWNNAME":"柳營區","LI":"重溪里","LIN":"21鄰","STREET":" ","SECT":" ","MAREA":"小腳腿","LANE":" ","ALLEY":" ","HOUSE_NO":"５號之８","E_COORD97":185121.95999999999,"N_COORD97":2576065.7000000002,"ADDRESS":"小腳腿５號之８","OBJECTID":227735},"geometry":{"x":185121.96000000089,"y":2576065.7000000011}},{"attributes":{"ID":227740,"DIS_CODE":0,"TOWNNAME":"東山區","LI":"大客里","LIN":"21鄰","STREET":" ","SECT":" ","MAREA":"凹子\u25A0","LANE":" ","ALLEY":" ","HOUSE_NO":"５６號之３","E_COORD97":190884.92000000001,"N_COORD97":2579805.3999999999,"ADDRESS":"凹子\u25A0５６號之３","OBJECTID":227736},"geometry":{"x":190884.91999999993,"y":2579805.4000000022}},{"attributes":{"ID":227741,"DIS_CODE":0,"TOWNNAME":"東山區","LI":"大客里","LIN":"21鄰","STREET":" ","SECT":" ","MAREA":"凹子\u25A0","LANE":" ","ALLEY":" ","HOUSE_NO":"５６號之５","E_COORD97":190960.54999999999,"N_COORD97":2579770.8399999999,"ADDRESS":"凹子\u25A0５６號之５","OBJECTID":227737},"geometry":{"x":190960.55000000168,"y":2579770.8400000017}},{"attributes":{"ID":227742,"DIS_CODE":0,"TOWNNAME":"東山區","LI":"大客里","LIN":"21鄰","STREET":" ","SECT":" ","MAREA":"凹子\u25A0","LANE":" ","ALLEY":" ","HOUSE_NO":"５６號之６","E_COORD97":190874.23999999999,"N_COORD97":2579889.79,"ADDRESS":"凹子\u25A0５６號之６","OBJECTID":227738},"geometry":{"x":190874.24000000022,"y":2579889.790000001}},{"attributes":{"ID":227743,"DIS_CODE":0,"TOWNNAME":"安南區","LI":"溪心里","LIN":"3鄰","STREET":"安中路","SECT":"二段","MAREA":" ","LANE":"２００巷","ALLEY":" ","HOUSE_NO":"７號","E_COORD97":166659.70000000001,"N_COORD97":2549711.1099999999,"ADDRESS":"安中路二段２００巷７號","OBJECTID":227739},"geometry":{"x":166659.70000000112,"y":2549711.1099999994}},{"attributes":{"ID":227744,"DIS_CODE":0,"TOWNNAME":"安南區","LI":"溪心里","LIN":"3鄰","STREET":"安中路","SECT":"二段","MAREA":" ","LANE":"２００巷","ALLEY":" ","HOUSE_NO":"９號","E_COORD97":166660.23000000001,"N_COORD97":2549715.8700000001,"ADDRESS":"安中路二段２００巷９號","OBJECTID":227740},"geometry":{"x":166660.23000000138,"y":2549715.8700000029}},{"attributes":{"ID":227745,"DIS_CODE":0,"TOWNNAME":"安南區","LI":"溪心里","LIN":"3鄰","STREET":"安中路","SECT":"二段","MAREA":" ","LANE":"２００巷","ALLEY":" ","HOUSE_NO":"１１號","E_COORD97":166660.76000000001,"N_COORD97":2549719.5699999998,"ADDRESS":"安中路二段２００巷１１號","OBJECTID":227741},"geometry":{"x":166660.76000000071,"y":2549719.5700000003}},{"attributes":{"ID":227746,"DIS_CODE":0,"TOWNNAME":"安南區","LI":"溪心里","LIN":"3鄰","STREET":"安中路","SECT":"二段","MAREA":" ","LANE":"２００巷","ALLEY":" ","HOUSE_NO":"１３號","E_COORD97":166661.81,"N_COORD97":2549724.0699999998,"ADDRESS":"安中路二段２００巷１３號","OBJECTID":227742},"geometry":{"x":166661.81000000052,"y":2549724.0700000022}},{"attributes":{"ID":227747,"DIS_CODE":0,"TOWNNAME":"東山區","LI":"大客里","LIN":"21鄰","STREET":" ","SECT":" ","MAREA":"凹子\u25A0","LANE":" ","ALLEY":" ","HOUSE_NO":"５６號","E_COORD97":190987.59,"N_COORD97":2579751.27,"ADDRESS":"凹子\u25A0５６號","OBJECTID":227743},"geometry":{"x":190987.59000000078,"y":2579751.2700000014}},{"attributes":{"ID":227748,"DIS_CODE":0,"TOWNNAME":"安南區","LI":"溪心里","LIN":"3鄰","STREET":"安中路","SECT":"二段","MAREA":" ","LANE":"１３８巷","ALLEY":" ","HOUSE_NO":"６８號","E_COORD97":166801.20000000001,"N_COORD97":2549769,"ADDRESS":"安中路二段１３８巷６８號","OBJECTID":227744},"geometry":{"x":166801.20000000019,"y":2549769.0000000019}},{"attributes":{"ID":227749,"DIS_CODE":0,"TOWNNAME":"永康區","LI":"北灣里","LIN":"36鄰","STREET":"大灣路","SECT":" ","MAREA":" ","LANE":"４０巷","ALLEY":" ","HOUSE_NO":"１３２號","E_COORD97":174897.94,"N_COORD97":2546276.71,"ADDRESS":"大灣路４０巷１３２號","OBJECTID":227745},"geometry":{"x":174897.94000000041,"y":2546276.7100000009}},{"attributes":{"ID":227750,"DIS_CODE":0,"TOWNNAME":"永康區","LI":"北灣里","LIN":"39鄰","STREET":"大同街","SECT":" ","MAREA":" ","LANE":"７４０巷","ALLEY":" ","HOUSE_NO":"７０號","E_COORD97":174688.01999999999,"N_COORD97":2546660.4700000002,"ADDRESS":"大同街７４０巷７０號","OBJECTID":227746},"geometry":{"x":174688.01999999955,"y":2546660.4700000025}},{"attributes":{"ID":227751,"DIS_CODE":0,"TOWNNAME":"永康區","LI":"王行里","LIN":"8鄰","STREET":"王行路","SECT":" ","MAREA":" ","LANE":"３５１巷","ALLEY":" ","HOUSE_NO":"２５號","E_COORD97":175386.14000000001,"N_COORD97":2548500.2599999998,"ADDRESS":"王行路３５１巷２５號","OBJECTID":227747},"geometry":{"x":175386.14000000153,"y":2548500.2599999998}},{"attributes":{"ID":227752,"DIS_CODE":0,"TOWNNAME":"永康區","LI":"正強里","LIN":"48鄰","STREET":"中正路","SECT":" ","MAREA":" ","LANE":"２５６巷","ALLEY":" ","HOUSE_NO":"１３號之５７","E_COORD97":173256.01000000001,"N_COORD97":2548001.6699999999,"ADDRESS":"中正路２５６巷１３號之５７","OBJECTID":227748},"geometry":{"x":173256.00999999978,"y":2548001.6699999999}},{"attributes":{"ID":227753,"DIS_CODE":0,"TOWNNAME":"永康區","LI":"王行里","LIN":"6鄰","STREET":"育樂街","SECT":" ","MAREA":" ","LANE":"１４３巷","ALLEY":" ","HOUSE_NO":"２２號","E_COORD97":175070.60999999999,"N_COORD97":2548252.8700000001,"ADDRESS":"育樂街１４３巷２２號","OBJECTID":227749},"geometry":{"x":175070.61000000127,"y":2548252.870000001}},{"attributes":{"ID":227754,"DIS_CODE":0,"TOWNNAME":"永康區","LI":"北灣里","LIN":"3鄰","STREET":"文賢街","SECT":" ","MAREA":" ","LANE":"１３６巷","ALLEY":" ","HOUSE_NO":"１０號二樓之１","E_COORD97":175429.51999999999,"N_COORD97":2545543.8799999999,"ADDRESS":"文賢街１３６巷１０號二樓之１","OBJECTID":227750},"geometry":{"x":175429.52000000048,"y":2545543.8800000008}},{"attributes":{"ID":227755,"DIS_CODE":0,"TOWNNAME":"南區","LI":"明興里","LIN":"3鄰","STREET":"金華路","SECT":"一段","MAREA":" ","LANE":"２１６巷","ALLEY":" ","HOUSE_NO":"２號","E_COORD97":166979.42999999999,"N_COORD97":2540811.23,"ADDRESS":"金華路一段２１６巷２號","OBJECTID":227751},"geometry":{"x":166979.43000000156,"y":2540811.2300000004}},{"attributes":{"ID":227756,"DIS_CODE":0,"TOWNNAME":"南區","LI":"明興里","LIN":"3鄰","STREET":"金華路","SECT":"一段","MAREA":" ","LANE":"２１６巷","ALLEY":" ","HOUSE_NO":"３２號","E_COORD97":167056.82999999999,"N_COORD97":2540785.7799999998,"ADDRESS":"金華路一段２１６巷３２號","OBJECTID":227752},"geometry":{"x":167056.83000000194,"y":2540785.7799999993}},{"attributes":{"ID":227757,"DIS_CODE":0,"TOWNNAME":"南區","LI":"明興里","LIN":"3鄰","STREET":"金華路","SECT":"一段","MAREA":" ","LANE":"２１６巷","ALLEY":" ","HOUSE_NO":"３３號","E_COORD97":167069.97,"N_COORD97":2540806.1299999999,"ADDRESS":"金華路一段２１６巷３３號","OBJECTID":227753},"geometry":{"x":167069.96999999974,"y":2540806.1300000008}},{"attributes":{"ID":227758,"DIS_CODE":0,"TOWNNAME":"新化區","LI":"東榮里","LIN":"3鄰","STREET":"中興路","SECT":" ","MAREA":" ","LANE":"１０４巷","ALLEY":" ","HOUSE_NO":"７０號","E_COORD97":181926.85999999999,"N_COORD97":2547462.25,"ADDRESS":"中興路１０４巷７０號","OBJECTID":227754},"geometry":{"x":181926.8599999994,"y":2547462.25}},{"attributes":{"ID":227759,"DIS_CODE":0,"TOWNNAME":"新化區","LI":"東榮里","LIN":"3鄰","STREET":"中興路","SECT":" ","MAREA":" ","LANE":"１０４巷","ALLEY":" ","HOUSE_NO":"５０號","E_COORD97":181925.16,"N_COORD97":2547410.25,"ADDRESS":"中興路１０４巷５０號","OBJECTID":227755},"geometry":{"x":181925.16000000108,"y":2547410.2500000019}},{"attributes":{"ID":227760,"DIS_CODE":0,"TOWNNAME":"新化區","LI":"東榮里","LIN":"3鄰","STREET":"中興路","SECT":" ","MAREA":" ","LANE":"１０４巷","ALLEY":" ","HOUSE_NO":"５４號","E_COORD97":181933.26000000001,"N_COORD97":2547410.25,"ADDRESS":"中興路１０４巷５４號","OBJECTID":227756},"geometry":{"x":181933.25999999978,"y":2547410.2500000019}},{"attributes":{"ID":227761,"DIS_CODE":0,"TOWNNAME":"新化區","LI":"清水里","LIN":"3鄰","STREET":"民治路","SECT":" ","MAREA":" ","LANE":"１１１巷","ALLEY":" ","HOUSE_NO":"７號","E_COORD97":178649.51000000001,"N_COORD97":2548303.25,"ADDRESS":"民治路１１１巷７號","OBJECTID":227757},"geometry":{"x":178649.50999999978,"y":2548303.25}},{"attributes":{"ID":227762,"DIS_CODE":0,"TOWNNAME":"西港區","LI":"西港里","LIN":"3鄰","STREET":"中山路","SECT":" ","MAREA":" ","LANE":"３９０巷","ALLEY":" ","HOUSE_NO":"４號","E_COORD97":168425.03,"N_COORD97":2558278.6699999999,"ADDRESS":"中山路３９０巷４號","OBJECTID":227758},"geometry":{"x":168425.03000000026,"y":2558278.6699999999}},{"attributes":{"ID":227763,"DIS_CODE":0,"TOWNNAME":"西港區","LI":"西港里","LIN":"3鄰","STREET":"中山路","SECT":" ","MAREA":" ","LANE":"３９０巷","ALLEY":" ","HOUSE_NO":"６號","E_COORD97":168430.03,"N_COORD97":2558279.4500000002,"ADDRESS":"中山路３９０巷６號","OBJECTID":227759},"geometry":{"x":168430.03000000026,"y":2558279.4499999993}},{"attributes":{"ID":227764,"DIS_CODE":0,"TOWNNAME":"東區","LI":"仁和里","LIN":"3鄰","STREET":"仁和路","SECT":" ","MAREA":" ","LANE":"１０９巷","ALLEY":" ","HOUSE_NO":"３１號","E_COORD97":171440.67999999999,"N_COORD97":2541336.48,"ADDRESS":"仁和路１０９巷３１號","OBJECTID":227760},"geometry":{"x":171440.6799999997,"y":2541336.4800000042}},{"attributes":{"ID":227765,"DIS_CODE":0,"TOWNNAME":"東區","LI":"仁和里","LIN":"3鄰","STREET":"仁和路","SECT":" ","MAREA":" ","LANE":"１０９巷","ALLEY":" ","HOUSE_NO":"３３號","E_COORD97":171444.20999999999,"N_COORD97":2541339.8199999998,"ADDRESS":"仁和路１０９巷３３號","OBJECTID":227761},"geometry":{"x":171444.20999999996,"y":2541339.8200000003}},{"attributes":{"ID":227766,"DIS_CODE":0,"TOWNNAME":"東區","LI":"仁和里","LIN":"3鄰","STREET":"仁和路","SECT":" ","MAREA":" ","LANE":"１０９巷","ALLEY":" ","HOUSE_NO":"３５號","E_COORD97":171447.73000000001,"N_COORD97":2541338.1499999999,"ADDRESS":"仁和路１０９巷３５號","OBJECTID":227762},"geometry":{"x":171447.73000000045,"y":2541338.1500000004}},{"attributes":{"ID":227767,"DIS_CODE":0,"TOWNNAME":"東區","LI":"仁和里","LIN":"3鄰","STREET":"仁和路","SECT":" ","MAREA":" ","LANE":"１０９巷","ALLEY":" ","HOUSE_NO":"３７號","E_COORD97":171451.45000000001,"N_COORD97":2541340.0099999998,"ADDRESS":"仁和路１０９巷３７號","OBJECTID":227763},"geometry":{"x":171451.45000000019,"y":2541340.0100000016}},{"attributes":{"ID":227768,"DIS_CODE":0,"TOWNNAME":"東區","LI":"仁和里","LIN":"3鄰","STREET":"仁和路","SECT":" ","MAREA":" ","LANE":"１０９巷","ALLEY":" ","HOUSE_NO":"３９號","E_COORD97":171455.16,"N_COORD97":2541337.04,"ADDRESS":"仁和路１０９巷３９號","OBJECTID":227764},"geometry":{"x":171455.15999999922,"y":2541337.0399999991}},{"attributes":{"ID":227769,"DIS_CODE":0,"TOWNNAME":"東區","LI":"仁和里","LIN":"3鄰","STREET":"仁和路","SECT":" ","MAREA":" ","LANE":"１０９巷","ALLEY":" ","HOUSE_NO":"４１號","E_COORD97":171458.5,"N_COORD97":2541339.4500000002,"ADDRESS":"仁和路１０９巷４１號","OBJECTID":227765},"geometry":{"x":171458.50000000093,"y":2541339.4500000011}},{"attributes":{"ID":227770,"DIS_CODE":0,"TOWNNAME":"東區","LI":"仁和里","LIN":"3鄰","STREET":"仁和路","SECT":" ","MAREA":" ","LANE":"１０９巷","ALLEY":" ","HOUSE_NO":"４３號","E_COORD97":171461.66,"N_COORD97":2541337.2200000002,"ADDRESS":"仁和路１０９巷４３號","OBJECTID":227766},"geometry":{"x":171461.66000000015,"y":2541337.2200000007}},{"attributes":{"ID":227771,"DIS_CODE":0,"TOWNNAME":"東區","LI":"仁和里","LIN":"3鄰","STREET":"仁和路","SECT":" ","MAREA":" ","LANE":"１０９巷","ALLEY":" ","HOUSE_NO":"４５號","E_COORD97":171466.10999999999,"N_COORD97":2541338.3399999999,"ADDRESS":"仁和路１０９巷４５號","OBJECTID":227767},"geometry":{"x":171466.1100000022,"y":2541338.3399999999}},{"attributes":{"ID":227772,"DIS_CODE":0,"TOWNNAME":"東區","LI":"莊敬里","LIN":"3鄰","STREET":"小東路","SECT":" ","MAREA":" ","LANE":"２５４巷","ALLEY":" ","HOUSE_NO":"４號","E_COORD97":171122.64000000001,"N_COORD97":2544312.6299999999,"ADDRESS":"小東路２５４巷４號","OBJECTID":227768},"geometry":{"x":171122.64000000153,"y":2544312.629999999}},{"attributes":{"ID":227773,"DIS_CODE":0,"TOWNNAME":"東區","LI":"莊敬里","LIN":"3鄰","STREET":"小東路","SECT":" ","MAREA":" ","LANE":"２５４巷","ALLEY":" ","HOUSE_NO":"６號","E_COORD97":171126.13,"N_COORD97":2544309.7999999998,"ADDRESS":"小東路２５４巷６號","OBJECTID":227769},"geometry":{"x":171126.12999999989,"y":2544309.8000000007}},{"attributes":{"ID":227774,"DIS_CODE":0,"TOWNNAME":"東區","LI":"莊敬里","LIN":"3鄰","STREET":"小東路","SECT":" ","MAREA":" ","LANE":"２５４巷","ALLEY":" ","HOUSE_NO":"８號","E_COORD97":171129.04000000001,"N_COORD97":2544306.5299999998,"ADDRESS":"小東路２５４巷８號","OBJECTID":227770},"geometry":{"x":171129.04000000097,"y":2544306.5299999993}},{"attributes":{"ID":227775,"DIS_CODE":0,"TOWNNAME":"東區","LI":"莊敬里","LIN":"3鄰","STREET":"小東路","SECT":" ","MAREA":" ","LANE":"２５４巷","ALLEY":" ","HOUSE_NO":"１０號","E_COORD97":171133.5,"N_COORD97":2544298.8999999999,"ADDRESS":"小東路２５４巷１０號","OBJECTID":227771},"geometry":{"x":171133.5,"y":2544298.9000000004}},{"attributes":{"ID":227776,"DIS_CODE":0,"TOWNNAME":"東區","LI":"莊敬里","LIN":"3鄰","STREET":"小東路","SECT":" ","MAREA":" ","LANE":"２５４巷","ALLEY":" ","HOUSE_NO":"１２號","E_COORD97":171135.28,"N_COORD97":2544295.8700000001,"ADDRESS":"小東路２５４巷１２號","OBJECTID":227772},"geometry":{"x":171135.28000000026,"y":2544295.870000001}},{"attributes":{"ID":227777,"DIS_CODE":0,"TOWNNAME":"東區","LI":"莊敬里","LIN":"3鄰","STREET":"小東路","SECT":" ","MAREA":" ","LANE":"２５４巷","ALLEY":" ","HOUSE_NO":"１４號","E_COORD97":171137.79000000001,"N_COORD97":2544292.21,"ADDRESS":"小東路２５４巷１４號","OBJECTID":227773},"geometry":{"x":171137.79000000097,"y":2544292.2100000028}},{"attributes":{"ID":227778,"DIS_CODE":0,"TOWNNAME":"東區","LI":"莊敬里","LIN":"3鄰","STREET":"小東路","SECT":" ","MAREA":" ","LANE":"２５４巷","ALLEY":" ","HOUSE_NO":"３４號","E_COORD97":171157.35000000001,"N_COORD97":2544273.6899999999,"ADDRESS":"小東路２５４巷３４號","OBJECTID":227774},"geometry":{"x":171157.35000000056,"y":2544273.6900000013}},{"attributes":{"ID":227779,"DIS_CODE":0,"TOWNNAME":"東區","LI":"莊敬里","LIN":"3鄰","STREET":"東光路","SECT":"二段","MAREA":" ","LANE":"１２１巷","ALLEY":" ","HOUSE_NO":"１２號","E_COORD97":171170.63,"N_COORD97":2544257.1299999999,"ADDRESS":"東光路二段１２１巷１２號","OBJECTID":227775},"geometry":{"x":171170.63000000082,"y":2544257.1300000008}},{"attributes":{"ID":227780,"DIS_CODE":0,"TOWNNAME":"東區","LI":"莊敬里","LIN":"3鄰","STREET":"東光路","SECT":"二段","MAREA":" ","LANE":"１２１巷","ALLEY":" ","HOUSE_NO":"１６號","E_COORD97":171155.23999999999,"N_COORD97":2544240.3599999999,"ADDRESS":"東光路二段１２１巷１６號","OBJECTID":227776},"geometry":{"x":171155.24000000115,"y":2544240.3599999994}},{"attributes":{"ID":227781,"DIS_CODE":0,"TOWNNAME":"東區","LI":"莊敬里","LIN":"3鄰","STREET":"東光路","SECT":"二段","MAREA":" ","LANE":"１２１巷","ALLEY":" ","HOUSE_NO":"１８號","E_COORD97":171152.10999999999,"N_COORD97":2544237.4199999999,"ADDRESS":"東光路二段１２１巷１８號","OBJECTID":227777},"geometry":{"x":171152.11000000034,"y":2544237.4199999999}},{"attributes":{"ID":227782,"DIS_CODE":0,"TOWNNAME":"新市區","LI":"港墘里","LIN":"3鄰","STREET":"三民街","SECT":" ","MAREA":" ","LANE":"５０巷","ALLEY":" ","HOUSE_NO":"３２號","E_COORD97":178553.59,"N_COORD97":2553467.54,"ADDRESS":"三民街５０巷３２號","OBJECTID":227778},"geometry":{"x":178553.59000000078,"y":2553467.5399999991}},{"attributes":{"ID":227783,"DIS_CODE":0,"TOWNNAME":"新市區","LI":"港墘里","LIN":"3鄰","STREET":"三民街","SECT":" ","MAREA":" ","LANE":"５０巷","ALLEY":" ","HOUSE_NO":"２號","E_COORD97":178502.73000000001,"N_COORD97":2553420.29,"ADDRESS":"三民街５０巷２號","OBJECTID":227779},"geometry":{"x":178502.73000000138,"y":2553420.290000001}},{"attributes":{"ID":227784,"DIS_CODE":0,"TOWNNAME":"新市區","LI":"港墘里","LIN":"3鄰","STREET":"三民街","SECT":" ","MAREA":" ","LANE":"５０巷","ALLEY":" ","HOUSE_NO":"８號","E_COORD97":178512.42999999999,"N_COORD97":2553429.54,"ADDRESS":"三民街５０巷８號","OBJECTID":227780},"geometry":{"x":178512.43000000063,"y":2553429.540000001}},{"attributes":{"ID":227785,"DIS_CODE":0,"TOWNNAME":"新市區","LI":"港墘里","LIN":"3鄰","STREET":"三民街","SECT":" ","MAREA":" ","LANE":"５０巷","ALLEY":" ","HOUSE_NO":"３５號","E_COORD97":178538.45000000001,"N_COORD97":2553478.54,"ADDRESS":"三民街５０巷３５號","OBJECTID":227781},"geometry":{"x":178538.45000000019,"y":2553478.5399999972}},{"attributes":{"ID":227786,"DIS_CODE":0,"TOWNNAME":"新市區","LI":"港墘里","LIN":"3鄰","STREET":"三民街","SECT":" ","MAREA":" ","LANE":"５０巷","ALLEY":" ","HOUSE_NO":"３７號","E_COORD97":178542.73999999999,"N_COORD97":2553481.29,"ADDRESS":"三民街５０巷３７號","OBJECTID":227782},"geometry":{"x":178542.74000000115,"y":2553481.290000001}},{"attributes":{"ID":227787,"DIS_CODE":0,"TOWNNAME":"安南區","LI":"溪北里","LIN":"3鄰","STREET":"安和路","SECT":"一段","MAREA":" ","LANE":"９１巷","ALLEY":" ","HOUSE_NO":"８３號","E_COORD97":169223.56,"N_COORD97":2547482.8999999999,"ADDRESS":"安和路一段９１巷８３號","OBJECTID":227783},"geometry":{"x":169223.56000000052,"y":2547482.9000000004}},{"attributes":{"ID":227788,"DIS_CODE":0,"TOWNNAME":"安南區","LI":"州南里","LIN":"3鄰","STREET":"安和路","SECT":"四段","MAREA":" ","LANE":"５３３巷","ALLEY":" ","HOUSE_NO":"１３８號","E_COORD97":169651.48999999999,"N_COORD97":2551233.8199999998,"ADDRESS":"安和路四段５３３巷１３８號","OBJECTID":227784},"geometry":{"x":169651.49000000115,"y":2551233.820000004}},{"attributes":{"ID":227789,"DIS_CODE":0,"TOWNNAME":"安南區","LI":"佃西里","LIN":"3鄰","STREET":"公學路","SECT":"四段","MAREA":" ","LANE":"１２６巷","ALLEY":" ","HOUSE_NO":"８０號","E_COORD97":165382.88,"N_COORD97":2551949.75,"ADDRESS":"公學路四段１２６巷８０號","OBJECTID":227785},"geometry":{"x":165382.87999999989,"y":2551949.7500000019}},{"attributes":{"ID":227790,"DIS_CODE":0,"TOWNNAME":"安南區","LI":"原佃里","LIN":"3鄰","STREET":"本原街","SECT":"一段","MAREA":" ","LANE":"９７巷","ALLEY":" ","HOUSE_NO":"１６號","E_COORD97":167965.39999999999,"N_COORD97":2550105.6299999999,"ADDRESS":"本原街一段９７巷１６號","OBJECTID":227786},"geometry":{"x":167965.4000000013,"y":2550105.6300000008}},{"attributes":{"ID":227791,"DIS_CODE":0,"TOWNNAME":"安南區","LI":"原佃里","LIN":"3鄰","STREET":"本原街","SECT":"一段","MAREA":" ","LANE":"９７巷","ALLEY":" ","HOUSE_NO":"３２號","E_COORD97":167965.85000000001,"N_COORD97":2550058.75,"ADDRESS":"本原街一段９７巷３２號","OBJECTID":227787},"geometry":{"x":167965.84999999963,"y":2550058.7500000019}},{"attributes":{"ID":227792,"DIS_CODE":0,"TOWNNAME":"安南區","LI":"原佃里","LIN":"3鄰","STREET":"本原街","SECT":"一段","MAREA":" ","LANE":"９７巷","ALLEY":" ","HOUSE_NO":"４６號","E_COORD97":167978.79000000001,"N_COORD97":2550043.5600000001,"ADDRESS":"本原街一段９７巷４６號","OBJECTID":227788},"geometry":{"x":167978.79000000004,"y":2550043.5600000024}},{"attributes":{"ID":227793,"DIS_CODE":0,"TOWNNAME":"安南區","LI":"原佃里","LIN":"3鄰","STREET":"本原街","SECT":"一段","MAREA":" ","LANE":"９７巷","ALLEY":" ","HOUSE_NO":"４８號","E_COORD97":167972.91,"N_COORD97":2550042.4500000002,"ADDRESS":"本原街一段９７巷４８號","OBJECTID":227789},"geometry":{"x":167972.91000000015,"y":2550042.4500000011}},{"attributes":{"ID":227794,"DIS_CODE":0,"TOWNNAME":"安南區","LI":"原佃里","LIN":"3鄰","STREET":"本原街","SECT":"一段","MAREA":" ","LANE":"９７巷","ALLEY":" ","HOUSE_NO":"５０號","E_COORD97":167966.26000000001,"N_COORD97":2550040.8999999999,"ADDRESS":"本原街一段９７巷５０號","OBJECTID":227790},"geometry":{"x":167966.26000000071,"y":2550040.9000000022}},{"attributes":{"ID":227795,"DIS_CODE":0,"TOWNNAME":"歸仁區","LI":"新厝里","LIN":"23鄰","STREET":"大成八街","SECT":" ","MAREA":" ","LANE":" ","ALLEY":" ","HOUSE_NO":"１７號","E_COORD97":177648.54000000001,"N_COORD97":2540248.1800000002,"ADDRESS":"大成八街１７號","OBJECTID":227791},"geometry":{"x":177648.5400000019,"y":2540248.1799999997}},{"attributes":{"ID":227796,"DIS_CODE":0,"TOWNNAME":"安南區","LI":"海東里","LIN":"3鄰","STREET":"海中街","SECT":" ","MAREA":" ","LANE":"１３８巷","ALLEY":" ","HOUSE_NO":"１５號","E_COORD97":166391.92999999999,"N_COORD97":2549169.1699999999,"ADDRESS":"海中街１３８巷１５號","OBJECTID":227792},"geometry":{"x":166391.93000000063,"y":2549169.1699999999}},{"attributes":{"ID":227797,"DIS_CODE":0,"TOWNNAME":"安南區","LI":"海東里","LIN":"3鄰","STREET":"海中街","SECT":" ","MAREA":" ","LANE":"１３８巷","ALLEY":" ","HOUSE_NO":"１７號","E_COORD97":166395.41,"N_COORD97":2549171.1600000001,"ADDRESS":"海中街１３８巷１７號","OBJECTID":227793},"geometry":{"x":166395.41000000108,"y":2549171.160000002}},{"attributes":{"ID":227798,"DIS_CODE":0,"TOWNNAME":"安南區","LI":"海東里","LIN":"3鄰","STREET":"海中街","SECT":" ","MAREA":" ","LANE":"１３８巷","ALLEY":" ","HOUSE_NO":"２３號","E_COORD97":166394.89999999999,"N_COORD97":2549134.8500000001,"ADDRESS":"海中街１３８巷２３號","OBJECTID":227794},"geometry":{"x":166394.90000000037,"y":2549134.8500000015}},{"attributes":{"ID":227799,"DIS_CODE":0,"TOWNNAME":"安南區","LI":"海西里","LIN":"3鄰","STREET":"海中街","SECT":" ","MAREA":" ","LANE":"１６９巷","ALLEY":" ","HOUSE_NO":"１５號","E_COORD97":166329.95000000001,"N_COORD97":2549106.8500000001,"ADDRESS":"海中街１６９巷１５號","OBJECTID":227795},"geometry":{"x":166329.95000000019,"y":2549106.8499999978}},{"attributes":{"ID":227800,"DIS_CODE":0,"TOWNNAME":"新營區","LI":"南紙里","LIN":"23鄰","STREET":"南紙街","SECT":" ","MAREA":" ","LANE":"１１９巷","ALLEY":" ","HOUSE_NO":"１１號","E_COORD97":177875.92000000001,"N_COORD97":2577426.7200000002,"ADDRESS":"南紙街１１９巷１１號","OBJECTID":227796},"geometry":{"x":177875.91999999993,"y":2577426.7200000025}},{"attributes":{"ID":227801,"DIS_CODE":0,"TOWNNAME":"新營區","LI":"新北里","LIN":"23鄰","STREET":"民生路","SECT":" ","MAREA":" ","LANE":"３８６巷","ALLEY":" ","HOUSE_NO":"２６號","E_COORD97":178906.98000000001,"N_COORD97":2579317.7000000002,"ADDRESS":"民生路３８６巷２６號","OBJECTID":227797},"geometry":{"x":178906.98000000045,"y":2579317.6999999993}},{"attributes":{"ID":227802,"DIS_CODE":0,"TOWNNAME":"新營區","LI":"新北里","LIN":"23鄰","STREET":"民生路","SECT":" ","MAREA":" ","LANE":"３８６巷","ALLEY":" ","HOUSE_NO":"１０號","E_COORD97":178859.85000000001,"N_COORD97":2579315.71,"ADDRESS":"民生路３８６巷１０號","OBJECTID":227798},"geometry":{"x":178859.85000000149,"y":2579315.7100000028}},{"attributes":{"ID":227803,"DIS_CODE":0,"TOWNNAME":"新營區","LI":"新北里","LIN":"23鄰","STREET":"民生路","SECT":" ","MAREA":" ","LANE":"３８６巷","ALLEY":" ","HOUSE_NO":"１６號","E_COORD97":178881.32999999999,"N_COORD97":2579315.6099999999,"ADDRESS":"民生路３８６巷１６號","OBJECTID":227799},"geometry":{"x":178881.33000000101,"y":2579315.6099999994}},{"attributes":{"ID":227804,"DIS_CODE":0,"TOWNNAME":"歸仁區","LI":"大廟里","LIN":"23鄰","STREET":"大廟一街","SECT":" ","MAREA":" ","LANE":"９０巷","ALLEY":" ","HOUSE_NO":"３９號","E_COORD97":175636.12,"N_COORD97":2543967.25,"ADDRESS":"大廟一街９０巷３９號","OBJECTID":227800},"geometry":{"x":175636.12000000104,"y":2543967.25}}]}