{"displayFieldName":"TOWNNAME","fieldAliases":{"ID":"ID","DIS_CODE":"DIS_CODE","TOWNNAME":"TOWNNAME","LI":"LI","LIN":"LIN","STREET":"STREET","SECT":"SECT","MAREA":"MAREA","LANE":"LANE","ALLEY":"ALLEY","HOUSE_NO":"HOUSE_NO","E_COORD97":"E_COORD97","N_COORD97":"N_COORD97","ADDRESS":"ADDRESS","OBJECTID":"OBJECTID"},"geometryType":"esriGeometryPoint","spatialReference":{"wkid":102443,"latestWkid":3826},"fields":[{"name":"ID","type":"esriFieldTypeDouble","alias":"ID"},{"name":"DIS_CODE","type":"esriFieldTypeInteger","alias":"DIS_CODE"},{"name":"TOWNNAME","type":"esriFieldTypeString","alias":"TOWNNAME","length":8},{"name":"LI","type":"esriFieldTypeString","alias":"LI","length":8},{"name":"LIN","type":"esriFieldTypeString","alias":"LIN","length":12},{"name":"STREET","type":"esriFieldTypeString","alias":"STREET","length":20},{"name":"SECT","type":"esriFieldTypeString","alias":"SECT","length":8},{"name":"MAREA","type":"esriFieldTypeString","alias":"MAREA","length":12},{"name":"LANE","type":"esriFieldTypeString","alias":"LANE","length":10},{"name":"ALLEY","type":"esriFieldTypeString","alias":"ALLEY","length":10},{"name":"HOUSE_NO","type":"esriFieldTypeString","alias":"HOUSE_NO","length":20},{"name":"E_COORD97","type":"esriFieldTypeDouble","alias":"E_COORD97"},{"name":"N_COORD97","type":"esriFieldTypeDouble","alias":"N_COORD97"},{"name":"ADDRESS","type":"esriFieldTypeString","alias":"ADDRESS","length":50},{"name":"OBJECTID","type":"esriFieldTypeOID","alias":"OBJECTID"}],"features":[{"attributes":{"ID":546828,"DIS_CODE":0,"TOWNNAME":"東區","LI":"成大里","LIN":"10鄰","STREET":"民族路","SECT":"一段","MAREA":" ","LANE":" ","ALLEY":" ","HOUSE_NO":"７２號","E_COORD97":169426.64000000001,"N_COORD97":2543881.8999999999,"ADDRESS":"民族路一段７２號","OBJECTID":546801},"geometry":{"x":169426.63999999966,"y":2543881.9000000004}},{"attributes":{"ID":546829,"DIS_CODE":0,"TOWNNAME":"東區","LI":"成大里","LIN":"10鄰","STREET":"民族路","SECT":"一段","MAREA":" ","LANE":" ","ALLEY":" ","HOUSE_NO":"７４號","E_COORD97":169419.16,"N_COORD97":2543884.7000000002,"ADDRESS":"民族路一段７４號","OBJECTID":546802},"geometry":{"x":169419.16000000015,"y":2543884.7000000011}},{"attributes":{"ID":546830,"DIS_CODE":0,"TOWNNAME":"東區","LI":"成大里","LIN":"10鄰","STREET":"民族路","SECT":"一段","MAREA":" ","LANE":" ","ALLEY":" ","HOUSE_NO":"７６號","E_COORD97":169412.92999999999,"N_COORD97":2543885.0099999998,"ADDRESS":"民族路一段７６號","OBJECTID":546803},"geometry":{"x":169412.9299999997,"y":2543885.0100000035}},{"attributes":{"ID":546831,"DIS_CODE":0,"TOWNNAME":"東區","LI":"成大里","LIN":"10鄰","STREET":"民族路","SECT":"一段","MAREA":" ","LANE":" ","ALLEY":" ","HOUSE_NO":"７８號","E_COORD97":169407.32999999999,"N_COORD97":2543885.48,"ADDRESS":"民族路一段７８號","OBJECTID":546804},"geometry":{"x":169407.33000000007,"y":2543885.4800000004}},{"attributes":{"ID":546832,"DIS_CODE":0,"TOWNNAME":"東區","LI":"成大里","LIN":"10鄰","STREET":"育樂街","SECT":" ","MAREA":" ","LANE":" ","ALLEY":" ","HOUSE_NO":"１７０號","E_COORD97":169487.94,"N_COORD97":2543911.6000000001,"ADDRESS":"育樂街１７０號","OBJECTID":546805},"geometry":{"x":169487.94000000134,"y":2543911.6000000015}},{"attributes":{"ID":546833,"DIS_CODE":0,"TOWNNAME":"東區","LI":"成大里","LIN":"10鄰","STREET":"育樂街","SECT":" ","MAREA":" ","LANE":" ","ALLEY":" ","HOUSE_NO":"１７２號","E_COORD97":169487.47,"N_COORD97":2543905.0699999998,"ADDRESS":"育樂街１７２號","OBJECTID":546806},"geometry":{"x":169487.46999999974,"y":2543905.0700000003}},{"attributes":{"ID":546834,"DIS_CODE":0,"TOWNNAME":"東區","LI":"成大里","LIN":"10鄰","STREET":"育樂街","SECT":" ","MAREA":" ","LANE":" ","ALLEY":" ","HOUSE_NO":"１７２號之１","E_COORD97":169486.22,"N_COORD97":2543899.4700000002,"ADDRESS":"育樂街１７２號之１","OBJECTID":546807},"geometry":{"x":169486.21999999881,"y":2543899.4699999988}},{"attributes":{"ID":546835,"DIS_CODE":0,"TOWNNAME":"東區","LI":"成大里","LIN":"10鄰","STREET":"育樂街","SECT":" ","MAREA":" ","LANE":" ","ALLEY":" ","HOUSE_NO":"１７４號","E_COORD97":169484.82000000001,"N_COORD97":2543895.4300000002,"ADDRESS":"育樂街１７４號","OBJECTID":546808},"geometry":{"x":169484.82000000123,"y":2543895.4299999978}},{"attributes":{"ID":546836,"DIS_CODE":0,"TOWNNAME":"東區","LI":"成大里","LIN":"10鄰","STREET":"育樂街","SECT":" ","MAREA":" ","LANE":" ","ALLEY":" ","HOUSE_NO":"１７４號之１","E_COORD97":169484.20000000001,"N_COORD97":2543891.6899999999,"ADDRESS":"育樂街１７４號之１","OBJECTID":546809},"geometry":{"x":169484.20000000112,"y":2543891.6900000013}},{"attributes":{"ID":546837,"DIS_CODE":0,"TOWNNAME":"東區","LI":"成大里","LIN":"10鄰","STREET":"育樂街","SECT":" ","MAREA":" ","LANE":" ","ALLEY":" ","HOUSE_NO":"１７６號","E_COORD97":169484.04000000001,"N_COORD97":2543887.96,"ADDRESS":"育樂街１７６號","OBJECTID":546810},"geometry":{"x":169484.04000000004,"y":2543887.9600000028}},{"attributes":{"ID":546838,"DIS_CODE":0,"TOWNNAME":"東區","LI":"成大里","LIN":"10鄰","STREET":"育樂街","SECT":" ","MAREA":" ","LANE":" ","ALLEY":" ","HOUSE_NO":"１７８號","E_COORD97":169483.57999999999,"N_COORD97":2543884.54,"ADDRESS":"育樂街１７８號","OBJECTID":546811},"geometry":{"x":169483.58000000007,"y":2543884.540000001}},{"attributes":{"ID":546839,"DIS_CODE":0,"TOWNNAME":"東區","LI":"後甲里","LIN":"1鄰","STREET":"裕農路","SECT":" ","MAREA":" ","LANE":" ","ALLEY":" ","HOUSE_NO":"８１５號","E_COORD97":172224.94,"N_COORD97":2543326.1200000001,"ADDRESS":"裕農路８１５號","OBJECTID":546812},"geometry":{"x":172224.94000000227,"y":2543326.1200000048}},{"attributes":{"ID":546840,"DIS_CODE":0,"TOWNNAME":"官田區","LI":"隆田里","LIN":"10鄰","STREET":"中山路","SECT":"一段","MAREA":" ","LANE":" ","ALLEY":" ","HOUSE_NO":"７２號","E_COORD97":180145.64000000001,"N_COORD97":2565809.02,"ADDRESS":"中山路一段７２號","OBJECTID":546813},"geometry":{"x":180145.63999999966,"y":2565809.0199999996}},{"attributes":{"ID":546841,"DIS_CODE":0,"TOWNNAME":"官田區","LI":"隆田里","LIN":"10鄰","STREET":"中山路","SECT":"一段","MAREA":" ","LANE":" ","ALLEY":" ","HOUSE_NO":"７４號","E_COORD97":180140.67999999999,"N_COORD97":2565808.8300000001,"ADDRESS":"中山路一段７４號","OBJECTID":546814},"geometry":{"x":180140.67999999877,"y":2565808.8300000038}},{"attributes":{"ID":546842,"DIS_CODE":0,"TOWNNAME":"官田區","LI":"隆田里","LIN":"10鄰","STREET":"中山路","SECT":"一段","MAREA":" ","LANE":" ","ALLEY":" ","HOUSE_NO":"７６號","E_COORD97":180127.89000000001,"N_COORD97":2565808.7799999998,"ADDRESS":"中山路一段７６號","OBJECTID":546815},"geometry":{"x":180127.8900000006,"y":2565808.7800000012}},{"attributes":{"ID":546843,"DIS_CODE":0,"TOWNNAME":"官田區","LI":"隆田里","LIN":"10鄰","STREET":"中山路","SECT":"一段","MAREA":" ","LANE":" ","ALLEY":" ","HOUSE_NO":"７８號","E_COORD97":180123.85999999999,"N_COORD97":2565808.6299999999,"ADDRESS":"中山路一段７８號","OBJECTID":546816},"geometry":{"x":180123.86000000127,"y":2565808.6299999971}},{"attributes":{"ID":546844,"DIS_CODE":0,"TOWNNAME":"官田區","LI":"隆田里","LIN":"10鄰","STREET":"中山路","SECT":"一段","MAREA":" ","LANE":" ","ALLEY":" ","HOUSE_NO":"８０號","E_COORD97":180119.51000000001,"N_COORD97":2565808.9399999999,"ADDRESS":"中山路一段８０號","OBJECTID":546817},"geometry":{"x":180119.50999999978,"y":2565808.9400000013}},{"attributes":{"ID":546845,"DIS_CODE":0,"TOWNNAME":"官田區","LI":"隆田里","LIN":"10鄰","STREET":"中山路","SECT":"一段","MAREA":" ","LANE":" ","ALLEY":" ","HOUSE_NO":"８２號","E_COORD97":180115.14000000001,"N_COORD97":2565809.0899999999,"ADDRESS":"中山路一段８２號","OBJECTID":546818},"geometry":{"x":180115.13999999966,"y":2565809.0899999999}},{"attributes":{"ID":546846,"DIS_CODE":0,"TOWNNAME":"官田區","LI":"隆田里","LIN":"10鄰","STREET":"中山路","SECT":"一段","MAREA":" ","LANE":" ","ALLEY":" ","HOUSE_NO":"８４號","E_COORD97":180110.87,"N_COORD97":2565809.0899999999,"ADDRESS":"中山路一段８４號","OBJECTID":546819},"geometry":{"x":180110.87000000011,"y":2565809.0899999999}},{"attributes":{"ID":546847,"DIS_CODE":0,"TOWNNAME":"官田區","LI":"隆田里","LIN":"10鄰","STREET":"中山路","SECT":"一段","MAREA":" ","LANE":" ","ALLEY":" ","HOUSE_NO":"９２號","E_COORD97":180099.51999999999,"N_COORD97":2565811.1499999999,"ADDRESS":"中山路一段９２號","OBJECTID":546820},"geometry":{"x":180099.52000000048,"y":2565811.1500000022}},{"attributes":{"ID":546848,"DIS_CODE":0,"TOWNNAME":"官田區","LI":"隆田里","LIN":"10鄰","STREET":"中山路","SECT":"一段","MAREA":" ","LANE":" ","ALLEY":" ","HOUSE_NO":"９４號","E_COORD97":180095.17999999999,"N_COORD97":2565811.23,"ADDRESS":"中山路一段９４號","OBJECTID":546821},"geometry":{"x":180095.18000000156,"y":2565811.2300000023}},{"attributes":{"ID":546849,"DIS_CODE":0,"TOWNNAME":"官田區","LI":"隆田里","LIN":"10鄰","STREET":"中山路","SECT":"一段","MAREA":" ","LANE":" ","ALLEY":" ","HOUSE_NO":"９６號","E_COORD97":180091.19,"N_COORD97":2565811.4900000002,"ADDRESS":"中山路一段９６號","OBJECTID":546822},"geometry":{"x":180091.19000000134,"y":2565811.4900000021}},{"attributes":{"ID":546850,"DIS_CODE":0,"TOWNNAME":"官田區","LI":"隆田里","LIN":"10鄰","STREET":"中山路","SECT":"一段","MAREA":" ","LANE":" ","ALLEY":" ","HOUSE_NO":"９８號","E_COORD97":180086.59,"N_COORD97":2565813.8900000001,"ADDRESS":"中山路一段９８號","OBJECTID":546823},"geometry":{"x":180086.58999999985,"y":2565813.8900000025}},{"attributes":{"ID":546851,"DIS_CODE":0,"TOWNNAME":"中西區","LI":"安海里","LIN":"10鄰","STREET":"金華路","SECT":"三段","MAREA":" ","LANE":" ","ALLEY":" ","HOUSE_NO":"２２７號","E_COORD97":167310.07000000001,"N_COORD97":2543940.5899999999,"ADDRESS":"金華路三段２２７號","OBJECTID":546824},"geometry":{"x":167310.07000000123,"y":2543940.5899999999}},{"attributes":{"ID":546852,"DIS_CODE":0,"TOWNNAME":"中西區","LI":"赤嵌里","LIN":"10鄰","STREET":"公園路","SECT":" ","MAREA":" ","LANE":" ","ALLEY":" ","HOUSE_NO":"１１７號","E_COORD97":168616,"N_COORD97":2544141.8599999999,"ADDRESS":"公園路１１７號","OBJECTID":546825},"geometry":{"x":168616,"y":2544141.8599999994}},{"attributes":{"ID":546853,"DIS_CODE":0,"TOWNNAME":"中西區","LI":"赤嵌里","LIN":"10鄰","STREET":"公園路","SECT":" ","MAREA":" ","LANE":" ","ALLEY":" ","HOUSE_NO":"１１９號","E_COORD97":168618.54000000001,"N_COORD97":2544148.21,"ADDRESS":"公園路１１９號","OBJECTID":546826},"geometry":{"x":168618.54000000097,"y":2544148.2100000009}},{"attributes":{"ID":546854,"DIS_CODE":0,"TOWNNAME":"中西區","LI":"赤嵌里","LIN":"10鄰","STREET":"公園路","SECT":" ","MAREA":" ","LANE":" ","ALLEY":" ","HOUSE_NO":"１２１號","E_COORD97":168620.76000000001,"N_COORD97":2544152.3300000001,"ADDRESS":"公園路１２１號","OBJECTID":546827},"geometry":{"x":168620.75999999978,"y":2544152.3300000019}},{"attributes":{"ID":546855,"DIS_CODE":0,"TOWNNAME":"中西區","LI":"赤嵌里","LIN":"10鄰","STREET":"慈音街","SECT":" ","MAREA":" ","LANE":" ","ALLEY":" ","HOUSE_NO":"２０號","E_COORD97":168594.09,"N_COORD97":2544149.7200000002,"ADDRESS":"慈音街２０號","OBJECTID":546828},"geometry":{"x":168594.09000000078,"y":2544149.7200000025}},{"attributes":{"ID":546856,"DIS_CODE":0,"TOWNNAME":"中西區","LI":"赤嵌里","LIN":"10鄰","STREET":"慈音街","SECT":" ","MAREA":" ","LANE":" ","ALLEY":" ","HOUSE_NO":"１８號","E_COORD97":168599.17000000001,"N_COORD97":2544148.7599999998,"ADDRESS":"慈音街１８號","OBJECTID":546829},"geometry":{"x":168599.17000000086,"y":2544148.7600000016}},{"attributes":{"ID":546857,"DIS_CODE":0,"TOWNNAME":"中西區","LI":"協和里","LIN":"10鄰","STREET":"中和街","SECT":" ","MAREA":" ","LANE":" ","ALLEY":" ","HOUSE_NO":"１０６號","E_COORD97":167131.22,"N_COORD97":2544630.0499999998,"ADDRESS":"中和街１０６號","OBJECTID":546830},"geometry":{"x":167131.21999999974,"y":2544630.0500000007}},{"attributes":{"ID":546858,"DIS_CODE":0,"TOWNNAME":"安南區","LI":"安順里","LIN":"10鄰","STREET":"開安五街","SECT":" ","MAREA":" ","LANE":" ","ALLEY":" ","HOUSE_NO":"２之１號","E_COORD97":170597.94,"N_COORD97":2549982.0600000001,"ADDRESS":"開安五街２之１號","OBJECTID":546831},"geometry":{"x":170597.94000000134,"y":2549982.0600000024}},{"attributes":{"ID":546859,"DIS_CODE":0,"TOWNNAME":"麻豆區","LI":"穀興里","LIN":"10鄰","STREET":"興民街","SECT":" ","MAREA":" ","LANE":" ","ALLEY":" ","HOUSE_NO":"１３號","E_COORD97":172771.79999999999,"N_COORD97":2564937.1499999999,"ADDRESS":"興民街１３號","OBJECTID":546832},"geometry":{"x":172771.80000000075,"y":2564937.1500000022}},{"attributes":{"ID":546860,"DIS_CODE":0,"TOWNNAME":"安南區","LI":"溪心里","LIN":"10鄰","STREET":"安中路","SECT":"三段","MAREA":" ","LANE":" ","ALLEY":" ","HOUSE_NO":"６之１號","E_COORD97":166351.14999999999,"N_COORD97":2549752.48,"ADDRESS":"安中路三段６之１號","OBJECTID":546833},"geometry":{"x":166351.15000000037,"y":2549752.4800000023}},{"attributes":{"ID":546861,"DIS_CODE":0,"TOWNNAME":"安南區","LI":"溪心里","LIN":"10鄰","STREET":"安中路","SECT":"三段","MAREA":" ","LANE":" ","ALLEY":" ","HOUSE_NO":"１００號","E_COORD97":166120.95999999999,"N_COORD97":2549811.54,"ADDRESS":"安中路三段１００號","OBJECTID":546834},"geometry":{"x":166120.95999999996,"y":2549811.540000001}},{"attributes":{"ID":546862,"DIS_CODE":0,"TOWNNAME":"安南區","LI":"原佃里","LIN":"10鄰","STREET":"本原街","SECT":"一段","MAREA":" ","LANE":" ","ALLEY":" ","HOUSE_NO":"４６０號","E_COORD97":167405.64999999999,"N_COORD97":2550487.0699999998,"ADDRESS":"本原街一段４６０號","OBJECTID":546835},"geometry":{"x":167405.64999999944,"y":2550487.0700000022}},{"attributes":{"ID":546863,"DIS_CODE":0,"TOWNNAME":"安南區","LI":"安西里","LIN":"10鄰","STREET":"安和路","SECT":"一段","MAREA":" ","LANE":" ","ALLEY":" ","HOUSE_NO":"３９３之１號","E_COORD97":169330.01000000001,"N_COORD97":2548355.27,"ADDRESS":"安和路一段３９３之１號","OBJECTID":546836},"geometry":{"x":169330.00999999885,"y":2548355.2700000014}},{"attributes":{"ID":546864,"DIS_CODE":0,"TOWNNAME":"麻豆區","LI":"穀興里","LIN":"10鄰","STREET":"興民街","SECT":" ","MAREA":" ","LANE":" ","ALLEY":" ","HOUSE_NO":"１５號","E_COORD97":172768.34,"N_COORD97":2564940.48,"ADDRESS":"興民街１５號","OBJECTID":546837},"geometry":{"x":172768.34000000078,"y":2564940.4800000023}},{"attributes":{"ID":546865,"DIS_CODE":0,"TOWNNAME":"麻豆區","LI":"穀興里","LIN":"10鄰","STREET":"興民街","SECT":" ","MAREA":" ","LANE":" ","ALLEY":" ","HOUSE_NO":"１７號","E_COORD97":172765.17000000001,"N_COORD97":2564945.4300000002,"ADDRESS":"興民街１７號","OBJECTID":546838},"geometry":{"x":172765.16999999993,"y":2564945.4299999997}},{"attributes":{"ID":546866,"DIS_CODE":0,"TOWNNAME":"中西區","LI":"仙草里","LIN":"10鄰","STREET":"府緯街","SECT":" ","MAREA":" ","LANE":" ","ALLEY":" ","HOUSE_NO":"６號六樓","E_COORD97":167946.42999999999,"N_COORD97":2542727.3900000001,"ADDRESS":"府緯街６號六樓","OBJECTID":546839},"geometry":{"x":167946.43000000063,"y":2542727.3900000025}},{"attributes":{"ID":546867,"DIS_CODE":0,"TOWNNAME":"永康區","LI":"北灣里","LIN":"10鄰","STREET":"大灣路","SECT":" ","MAREA":" ","LANE":" ","ALLEY":" ","HOUSE_NO":"９６號","E_COORD97":175203.76000000001,"N_COORD97":2545720.2200000002,"ADDRESS":"大灣路９６號","OBJECTID":546840},"geometry":{"x":175203.75999999978,"y":2545720.2200000025}},{"attributes":{"ID":546868,"DIS_CODE":0,"TOWNNAME":"永康區","LI":"北灣里","LIN":"10鄰","STREET":"大灣路","SECT":" ","MAREA":" ","LANE":" ","ALLEY":" ","HOUSE_NO":"９８號","E_COORD97":175201.95999999999,"N_COORD97":2545716.7200000002,"ADDRESS":"大灣路９８號","OBJECTID":546841},"geometry":{"x":175201.95999999996,"y":2545716.7200000025}},{"attributes":{"ID":546869,"DIS_CODE":0,"TOWNNAME":"永康區","LI":"永康里","LIN":"10鄰","STREET":"永康街","SECT":" ","MAREA":" ","LANE":" ","ALLEY":" ","HOUSE_NO":"３６號","E_COORD97":173773.06,"N_COORD97":2547254.25,"ADDRESS":"永康街３６號","OBJECTID":546842},"geometry":{"x":173773.06000000052,"y":2547254.2500000019}},{"attributes":{"ID":546870,"DIS_CODE":0,"TOWNNAME":"永康區","LI":"永康里","LIN":"10鄰","STREET":"中山南路","SECT":" ","MAREA":" ","LANE":" ","ALLEY":" ","HOUSE_NO":"１０５６號","E_COORD97":173727.04000000001,"N_COORD97":2547301.4300000002,"ADDRESS":"中山南路１０５６號","OBJECTID":546843},"geometry":{"x":173727.04000000004,"y":2547301.4299999997}},{"attributes":{"ID":546871,"DIS_CODE":0,"TOWNNAME":"永康區","LI":"永康里","LIN":"10鄰","STREET":"中山南路","SECT":" ","MAREA":" ","LANE":" ","ALLEY":" ","HOUSE_NO":"１０６８號","E_COORD97":173748.85999999999,"N_COORD97":2547311.7400000002,"ADDRESS":"中山南路１０６８號","OBJECTID":546844},"geometry":{"x":173748.86000000034,"y":2547311.7400000039}},{"attributes":{"ID":546872,"DIS_CODE":0,"TOWNNAME":"永康區","LI":"永康里","LIN":"10鄰","STREET":"永康街","SECT":" ","MAREA":" ","LANE":" ","ALLEY":" ","HOUSE_NO":"２２號","E_COORD97":173768.85999999999,"N_COORD97":2547276.7799999998,"ADDRESS":"永康街２２號","OBJECTID":546845},"geometry":{"x":173768.86000000127,"y":2547276.7800000012}},{"attributes":{"ID":546873,"DIS_CODE":0,"TOWNNAME":"永康區","LI":"正強里","LIN":"10鄰","STREET":"正義街","SECT":" ","MAREA":" ","LANE":" ","ALLEY":" ","HOUSE_NO":"９９號","E_COORD97":173414.88,"N_COORD97":2547550.02,"ADDRESS":"正義街９９號","OBJECTID":546846},"geometry":{"x":173414.88000000175,"y":2547550.0200000014}},{"attributes":{"ID":546874,"DIS_CODE":0,"TOWNNAME":"永康區","LI":"永康里","LIN":"10鄰","STREET":"永康街","SECT":" ","MAREA":" ","LANE":" ","ALLEY":" ","HOUSE_NO":"１８號","E_COORD97":173767.38,"N_COORD97":2547284.5099999998,"ADDRESS":"永康街１８號","OBJECTID":546847},"geometry":{"x":173767.38000000175,"y":2547284.5099999998}},{"attributes":{"ID":546875,"DIS_CODE":0,"TOWNNAME":"永康區","LI":"王行里","LIN":"10鄰","STREET":"王行路","SECT":" ","MAREA":" ","LANE":" ","ALLEY":" ","HOUSE_NO":"１０１２號","E_COORD97":175852.54999999999,"N_COORD97":2550117.0600000001,"ADDRESS":"王行路１０１２號","OBJECTID":546848},"geometry":{"x":175852.54999999981,"y":2550117.0600000042}},{"attributes":{"ID":546876,"DIS_CODE":0,"TOWNNAME":"新營區","LI":"忠政里","LIN":"10鄰","STREET":"中正路","SECT":" ","MAREA":" ","LANE":" ","ALLEY":" ","HOUSE_NO":"５３之８號九樓","E_COORD97":180021.48999999999,"N_COORD97":2579496.2999999998,"ADDRESS":"中正路５３之８號九樓","OBJECTID":546849},"geometry":{"x":180021.49000000022,"y":2579496.2999999989}},{"attributes":{"ID":546877,"DIS_CODE":0,"TOWNNAME":"新營區","LI":"忠政里","LIN":"10鄰","STREET":"中正路","SECT":" ","MAREA":" ","LANE":" ","ALLEY":" ","HOUSE_NO":"５３之６號五樓之１","E_COORD97":180034.84,"N_COORD97":2579485.1800000002,"ADDRESS":"中正路５３之６號五樓之１","OBJECTID":546850},"geometry":{"x":180034.84000000171,"y":2579485.1799999997}},{"attributes":{"ID":546878,"DIS_CODE":0,"TOWNNAME":"新營區","LI":"忠政里","LIN":"10鄰","STREET":"中正路","SECT":" ","MAREA":" ","LANE":" ","ALLEY":" ","HOUSE_NO":"５３之６號六樓之２","E_COORD97":180034.97,"N_COORD97":2579485.1800000002,"ADDRESS":"中正路５３之６號六樓之２","OBJECTID":546851},"geometry":{"x":180034.96999999974,"y":2579485.1799999997}},{"attributes":{"ID":546879,"DIS_CODE":0,"TOWNNAME":"新營區","LI":"忠政里","LIN":"10鄰","STREET":"中正路","SECT":" ","MAREA":" ","LANE":" ","ALLEY":" ","HOUSE_NO":"５３之６號十樓之１","E_COORD97":180034.84,"N_COORD97":2579485.1800000002,"ADDRESS":"中正路５３之６號十樓之１","OBJECTID":546852},"geometry":{"x":180034.84000000171,"y":2579485.1799999997}},{"attributes":{"ID":546880,"DIS_CODE":0,"TOWNNAME":"新營區","LI":"忠政里","LIN":"10鄰","STREET":"中正路","SECT":" ","MAREA":" ","LANE":" ","ALLEY":" ","HOUSE_NO":"５３之６號七樓之１","E_COORD97":180034.84,"N_COORD97":2579485.1800000002,"ADDRESS":"中正路５３之６號七樓之１","OBJECTID":546853},"geometry":{"x":180034.84000000171,"y":2579485.1799999997}},{"attributes":{"ID":546881,"DIS_CODE":0,"TOWNNAME":"新營區","LI":"忠政里","LIN":"10鄰","STREET":"中正路","SECT":" ","MAREA":" ","LANE":" ","ALLEY":" ","HOUSE_NO":"５３之１０號三樓之１","E_COORD97":180038.23999999999,"N_COORD97":2579507.3100000001,"ADDRESS":"中正路５３之１０號三樓之１","OBJECTID":546854},"geometry":{"x":180038.24000000115,"y":2579507.3100000024}},{"attributes":{"ID":546882,"DIS_CODE":0,"TOWNNAME":"新營區","LI":"忠政里","LIN":"10鄰","STREET":"中正路","SECT":" ","MAREA":" ","LANE":" ","ALLEY":" ","HOUSE_NO":"５３之５號七樓之２","E_COORD97":180050.32000000001,"N_COORD97":2579486.21,"ADDRESS":"中正路５３之５號七樓之２","OBJECTID":546855},"geometry":{"x":180050.3200000003,"y":2579486.2100000009}},{"attributes":{"ID":546883,"DIS_CODE":0,"TOWNNAME":"新營區","LI":"忠政里","LIN":"10鄰","STREET":"中正路","SECT":" ","MAREA":" ","LANE":" ","ALLEY":" ","HOUSE_NO":"５３之８號十樓","E_COORD97":180021.48999999999,"N_COORD97":2579496.2999999998,"ADDRESS":"中正路５３之８號十樓","OBJECTID":546856},"geometry":{"x":180021.49000000022,"y":2579496.2999999989}},{"attributes":{"ID":546884,"DIS_CODE":0,"TOWNNAME":"新營區","LI":"忠政里","LIN":"10鄰","STREET":"中正路","SECT":" ","MAREA":" ","LANE":" ","ALLEY":" ","HOUSE_NO":"５３之６號二樓","E_COORD97":180032.70000000001,"N_COORD97":2579485.1800000002,"ADDRESS":"中正路５３之６號二樓","OBJECTID":546857},"geometry":{"x":180032.70000000205,"y":2579485.1799999997}},{"attributes":{"ID":546885,"DIS_CODE":0,"TOWNNAME":"新營區","LI":"永生里","LIN":"10鄰","STREET":"康樂街","SECT":" ","MAREA":" ","LANE":" ","ALLEY":" ","HOUSE_NO":"１６之２號六樓之８","E_COORD97":179970.22,"N_COORD97":2577908.4700000002,"ADDRESS":"康樂街１６之２號六樓之８","OBJECTID":546858},"geometry":{"x":179970.21999999974,"y":2577908.4700000044}},{"attributes":{"ID":546886,"DIS_CODE":0,"TOWNNAME":"新營區","LI":"永生里","LIN":"10鄰","STREET":"康樂街","SECT":" ","MAREA":" ","LANE":" ","ALLEY":" ","HOUSE_NO":"１６號之２四樓之７","E_COORD97":179970.14999999999,"N_COORD97":2577908.4700000002,"ADDRESS":"康樂街１６號之２四樓之７","OBJECTID":546859},"geometry":{"x":179970.15000000037,"y":2577908.4700000044}},{"attributes":{"ID":546887,"DIS_CODE":0,"TOWNNAME":"新營區","LI":"忠政里","LIN":"10鄰","STREET":"中正路","SECT":" ","MAREA":" ","LANE":" ","ALLEY":" ","HOUSE_NO":"５５號四樓之３","E_COORD97":180069.34,"N_COORD97":2579506.04,"ADDRESS":"中正路５５號四樓之３","OBJECTID":546860},"geometry":{"x":180069.34000000078,"y":2579506.0399999991}},{"attributes":{"ID":546888,"DIS_CODE":0,"TOWNNAME":"新營區","LI":"忠政里","LIN":"10鄰","STREET":"中正路","SECT":" ","MAREA":" ","LANE":" ","ALLEY":" ","HOUSE_NO":"５５號四樓之２","E_COORD97":180069.38,"N_COORD97":2579506.04,"ADDRESS":"中正路５５號四樓之２","OBJECTID":546861},"geometry":{"x":180069.37999999989,"y":2579506.0399999991}},{"attributes":{"ID":546889,"DIS_CODE":0,"TOWNNAME":"新營區","LI":"忠政里","LIN":"10鄰","STREET":"中正路","SECT":" ","MAREA":" ","LANE":" ","ALLEY":" ","HOUSE_NO":"５５號十一樓之１","E_COORD97":180070.5,"N_COORD97":2579506.04,"ADDRESS":"中正路５５號十一樓之１","OBJECTID":546862},"geometry":{"x":180070.5,"y":2579506.0399999991}},{"attributes":{"ID":546890,"DIS_CODE":0,"TOWNNAME":"新營區","LI":"忠政里","LIN":"10鄰","STREET":"中正路","SECT":" ","MAREA":" ","LANE":" ","ALLEY":" ","HOUSE_NO":"５５號十二樓之３","E_COORD97":180070.59,"N_COORD97":2579506.04,"ADDRESS":"中正路５５號十二樓之３","OBJECTID":546863},"geometry":{"x":180070.59000000078,"y":2579506.0399999991}},{"attributes":{"ID":546891,"DIS_CODE":0,"TOWNNAME":"新營區","LI":"忠政里","LIN":"10鄰","STREET":"中正路","SECT":" ","MAREA":" ","LANE":" ","ALLEY":" ","HOUSE_NO":"５５號八樓之１","E_COORD97":180069.25,"N_COORD97":2579506.04,"ADDRESS":"中正路５５號八樓之１","OBJECTID":546864},"geometry":{"x":180069.25,"y":2579506.0399999991}},{"attributes":{"ID":546892,"DIS_CODE":0,"TOWNNAME":"新營區","LI":"忠政里","LIN":"10鄰","STREET":"中正路","SECT":" ","MAREA":" ","LANE":" ","ALLEY":" ","HOUSE_NO":"５５號九樓之１","E_COORD97":180069.25,"N_COORD97":2579506.04,"ADDRESS":"中正路５５號九樓之１","OBJECTID":546865},"geometry":{"x":180069.25,"y":2579506.0399999991}},{"attributes":{"ID":546893,"DIS_CODE":0,"TOWNNAME":"新營區","LI":"忠政里","LIN":"10鄰","STREET":"中正路","SECT":" ","MAREA":" ","LANE":" ","ALLEY":" ","HOUSE_NO":"５５號十二樓之２","E_COORD97":180070.63,"N_COORD97":2579506.04,"ADDRESS":"中正路５５號十二樓之２","OBJECTID":546866},"geometry":{"x":180070.63000000082,"y":2579506.0399999991}},{"attributes":{"ID":546894,"DIS_CODE":0,"TOWNNAME":"新營區","LI":"忠政里","LIN":"10鄰","STREET":"中正路","SECT":" ","MAREA":" ","LANE":" ","ALLEY":" ","HOUSE_NO":"５５號七樓之３","E_COORD97":180069.34,"N_COORD97":2579506.04,"ADDRESS":"中正路５５號七樓之３","OBJECTID":546867},"geometry":{"x":180069.34000000078,"y":2579506.0399999991}},{"attributes":{"ID":546895,"DIS_CODE":0,"TOWNNAME":"新營區","LI":"忠政里","LIN":"10鄰","STREET":"中正路","SECT":" ","MAREA":" ","LANE":" ","ALLEY":" ","HOUSE_NO":"５５號十二樓之１","E_COORD97":180070.5,"N_COORD97":2579506.04,"ADDRESS":"中正路５５號十二樓之１","OBJECTID":546868},"geometry":{"x":180070.5,"y":2579506.0399999991}},{"attributes":{"ID":546896,"DIS_CODE":0,"TOWNNAME":"東區","LI":"文聖里","LIN":"14鄰","STREET":"裕興街","SECT":" ","MAREA":" ","LANE":" ","ALLEY":" ","HOUSE_NO":"２１１號","E_COORD97":172359.10000000001,"N_COORD97":2542656.8500000001,"ADDRESS":"裕興街２１１號","OBJECTID":546869},"geometry":{"x":172359.10000000056,"y":2542656.8500000015}},{"attributes":{"ID":546897,"DIS_CODE":0,"TOWNNAME":"東區","LI":"文聖里","LIN":"12鄰","STREET":"裕興街","SECT":" ","MAREA":" ","LANE":" ","ALLEY":" ","HOUSE_NO":"１３３號","E_COORD97":172157.82999999999,"N_COORD97":2542689.2999999998,"ADDRESS":"裕興街１３３號","OBJECTID":546870},"geometry":{"x":172157.83000000101,"y":2542689.3000000007}},{"attributes":{"ID":546898,"DIS_CODE":0,"TOWNNAME":"東區","LI":"文聖里","LIN":"12鄰","STREET":"裕興街","SECT":" ","MAREA":" ","LANE":" ","ALLEY":" ","HOUSE_NO":"１３５號","E_COORD97":172157.64999999999,"N_COORD97":2542698.7400000002,"ADDRESS":"裕興街１３５號","OBJECTID":546871},"geometry":{"x":172157.6500000013,"y":2542698.7400000021}},{"attributes":{"ID":546899,"DIS_CODE":0,"TOWNNAME":"新營區","LI":"忠政里","LIN":"10鄰","STREET":"中正路","SECT":" ","MAREA":" ","LANE":" ","ALLEY":" ","HOUSE_NO":"５５號八樓之３","E_COORD97":180069.34,"N_COORD97":2579506.04,"ADDRESS":"中正路５５號八樓之３","OBJECTID":546872},"geometry":{"x":180069.34000000078,"y":2579506.0399999991}},{"attributes":{"ID":546900,"DIS_CODE":0,"TOWNNAME":"新營區","LI":"忠政里","LIN":"10鄰","STREET":"中正路","SECT":" ","MAREA":" ","LANE":" ","ALLEY":" ","HOUSE_NO":"５５號九樓之３","E_COORD97":180069.34,"N_COORD97":2579506.04,"ADDRESS":"中正路５５號九樓之３","OBJECTID":546873},"geometry":{"x":180069.34000000078,"y":2579506.0399999991}},{"attributes":{"ID":546901,"DIS_CODE":0,"TOWNNAME":"新營區","LI":"忠政里","LIN":"10鄰","STREET":"中正路","SECT":" ","MAREA":" ","LANE":" ","ALLEY":" ","HOUSE_NO":"５５號七樓之２","E_COORD97":180069.38,"N_COORD97":2579506.04,"ADDRESS":"中正路５５號七樓之２","OBJECTID":546874},"geometry":{"x":180069.37999999989,"y":2579506.0399999991}},{"attributes":{"ID":546902,"DIS_CODE":0,"TOWNNAME":"歸仁區","LI":"八甲里","LIN":"10鄰","STREET":"中正北路","SECT":"一段","MAREA":" ","LANE":" ","ALLEY":" ","HOUSE_NO":"３９０號七樓之２","E_COORD97":177728.41,"N_COORD97":2541923.6200000001,"ADDRESS":"中正北路一段３９０號七樓之２","OBJECTID":546875},"geometry":{"x":177728.41000000015,"y":2541923.6200000029}},{"attributes":{"ID":546903,"DIS_CODE":0,"TOWNNAME":"歸仁區","LI":"八甲里","LIN":"10鄰","STREET":"大明街","SECT":" ","MAREA":" ","LANE":" ","ALLEY":" ","HOUSE_NO":"３號十三樓之３","E_COORD97":177727.42000000001,"N_COORD97":2541923.6200000001,"ADDRESS":"大明街３號十三樓之３","OBJECTID":546876},"geometry":{"x":177727.42000000086,"y":2541923.6200000029}},{"attributes":{"ID":546904,"DIS_CODE":0,"TOWNNAME":"歸仁區","LI":"八甲里","LIN":"10鄰","STREET":"中正北路","SECT":"一段","MAREA":" ","LANE":" ","ALLEY":" ","HOUSE_NO":"３９０號四樓之１","E_COORD97":177728.38,"N_COORD97":2541923.6200000001,"ADDRESS":"中正北路一段３９０號四樓之１","OBJECTID":546877},"geometry":{"x":177728.37999999989,"y":2541923.6200000029}},{"attributes":{"ID":546905,"DIS_CODE":0,"TOWNNAME":"歸仁區","LI":"八甲里","LIN":"10鄰","STREET":"中正北路","SECT":"一段","MAREA":" ","LANE":" ","ALLEY":" ","HOUSE_NO":"３９２號三樓之５","E_COORD97":177728.41,"N_COORD97":2541923.6200000001,"ADDRESS":"中正北路一段３９２號三樓之５","OBJECTID":546878},"geometry":{"x":177728.41000000015,"y":2541923.6200000029}},{"attributes":{"ID":546906,"DIS_CODE":0,"TOWNNAME":"歸仁區","LI":"八甲里","LIN":"10鄰","STREET":"中正北路","SECT":"一段","MAREA":" ","LANE":" ","ALLEY":" ","HOUSE_NO":"３９０號十一樓之２","E_COORD97":177728.66,"N_COORD97":2541923.6200000001,"ADDRESS":"中正北路一段３９０號十一樓之２","OBJECTID":546879},"geometry":{"x":177728.66000000015,"y":2541923.6200000029}},{"attributes":{"ID":546907,"DIS_CODE":0,"TOWNNAME":"歸仁區","LI":"八甲里","LIN":"10鄰","STREET":"中正北路","SECT":"一段","MAREA":" ","LANE":" ","ALLEY":" ","HOUSE_NO":"３９０號十二樓之２","E_COORD97":177728.66,"N_COORD97":2541923.6200000001,"ADDRESS":"中正北路一段３９０號十二樓之２","OBJECTID":546880},"geometry":{"x":177728.66000000015,"y":2541923.6200000029}},{"attributes":{"ID":546908,"DIS_CODE":0,"TOWNNAME":"北區","LI":"元寶里","LIN":"10鄰","STREET":"北園街","SECT":" ","MAREA":" ","LANE":" ","ALLEY":" ","HOUSE_NO":"６之３號七樓之１","E_COORD97":170387.41,"N_COORD97":2545626.1899999999,"ADDRESS":"北園街６之３號七樓之１","OBJECTID":546881},"geometry":{"x":170387.41000000201,"y":2545626.1900000032}},{"attributes":{"ID":546909,"DIS_CODE":0,"TOWNNAME":"北區","LI":"元寶里","LIN":"10鄰","STREET":"北園街","SECT":" ","MAREA":" ","LANE":" ","ALLEY":" ","HOUSE_NO":"６之３號七樓之２","E_COORD97":170387.41,"N_COORD97":2545626.1899999999,"ADDRESS":"北園街６之３號七樓之２","OBJECTID":546882},"geometry":{"x":170387.41000000201,"y":2545626.1900000032}},{"attributes":{"ID":546910,"DIS_CODE":0,"TOWNNAME":"北區","LI":"元寶里","LIN":"10鄰","STREET":"北園街","SECT":" ","MAREA":" ","LANE":" ","ALLEY":" ","HOUSE_NO":"６之３號七樓之３","E_COORD97":170387.41,"N_COORD97":2545626.1899999999,"ADDRESS":"北園街６之３號七樓之３","OBJECTID":546883},"geometry":{"x":170387.41000000201,"y":2545626.1900000032}},{"attributes":{"ID":546911,"DIS_CODE":0,"TOWNNAME":"北區","LI":"元寶里","LIN":"10鄰","STREET":"北園街","SECT":" ","MAREA":" ","LANE":" ","ALLEY":" ","HOUSE_NO":"６之３號九樓之１","E_COORD97":170387.41,"N_COORD97":2545626.1899999999,"ADDRESS":"北園街６之３號九樓之１","OBJECTID":546884},"geometry":{"x":170387.41000000201,"y":2545626.1900000032}},{"attributes":{"ID":546912,"DIS_CODE":0,"TOWNNAME":"北區","LI":"元寶里","LIN":"10鄰","STREET":"北園街","SECT":" ","MAREA":" ","LANE":" ","ALLEY":" ","HOUSE_NO":"６之３號九樓之２","E_COORD97":170387.41,"N_COORD97":2545626.1899999999,"ADDRESS":"北園街６之３號九樓之２","OBJECTID":546885},"geometry":{"x":170387.41000000201,"y":2545626.1900000032}},{"attributes":{"ID":546913,"DIS_CODE":0,"TOWNNAME":"北區","LI":"元寶里","LIN":"10鄰","STREET":"北園街","SECT":" ","MAREA":" ","LANE":" ","ALLEY":" ","HOUSE_NO":"６之３號九樓之３","E_COORD97":170387.41,"N_COORD97":2545626.1899999999,"ADDRESS":"北園街６之３號九樓之３","OBJECTID":546886},"geometry":{"x":170387.41000000201,"y":2545626.1900000032}},{"attributes":{"ID":546914,"DIS_CODE":0,"TOWNNAME":"北區","LI":"元寶里","LIN":"10鄰","STREET":"北園街","SECT":" ","MAREA":" ","LANE":" ","ALLEY":" ","HOUSE_NO":"６之３號八樓之１","E_COORD97":170387.41,"N_COORD97":2545626.1899999999,"ADDRESS":"北園街６之３號八樓之１","OBJECTID":546887},"geometry":{"x":170387.41000000201,"y":2545626.1900000032}},{"attributes":{"ID":546915,"DIS_CODE":0,"TOWNNAME":"北區","LI":"元寶里","LIN":"10鄰","STREET":"北園街","SECT":" ","MAREA":" ","LANE":" ","ALLEY":" ","HOUSE_NO":"６之３號八樓之２","E_COORD97":170387.41,"N_COORD97":2545626.1899999999,"ADDRESS":"北園街６之３號八樓之２","OBJECTID":546888},"geometry":{"x":170387.41000000201,"y":2545626.1900000032}},{"attributes":{"ID":546916,"DIS_CODE":0,"TOWNNAME":"北區","LI":"元寶里","LIN":"10鄰","STREET":"北園街","SECT":" ","MAREA":" ","LANE":" ","ALLEY":" ","HOUSE_NO":"６之３號八樓之３","E_COORD97":170387.41,"N_COORD97":2545626.1899999999,"ADDRESS":"北園街６之３號八樓之３","OBJECTID":546889},"geometry":{"x":170387.41000000201,"y":2545626.1900000032}},{"attributes":{"ID":546917,"DIS_CODE":0,"TOWNNAME":"北區","LI":"元寶里","LIN":"10鄰","STREET":"北園街","SECT":" ","MAREA":" ","LANE":" ","ALLEY":" ","HOUSE_NO":"６之３號十一樓之１","E_COORD97":170387.41,"N_COORD97":2545626.1899999999,"ADDRESS":"北園街６之３號十一樓之１","OBJECTID":546890},"geometry":{"x":170387.41000000201,"y":2545626.1900000032}},{"attributes":{"ID":546918,"DIS_CODE":0,"TOWNNAME":"北區","LI":"元寶里","LIN":"10鄰","STREET":"北園街","SECT":" ","MAREA":" ","LANE":" ","ALLEY":" ","HOUSE_NO":"６之３號十一樓之２","E_COORD97":170387.41,"N_COORD97":2545626.1899999999,"ADDRESS":"北園街６之３號十一樓之２","OBJECTID":546891},"geometry":{"x":170387.41000000201,"y":2545626.1900000032}},{"attributes":{"ID":546919,"DIS_CODE":0,"TOWNNAME":"北區","LI":"元寶里","LIN":"10鄰","STREET":"北園街","SECT":" ","MAREA":" ","LANE":" ","ALLEY":" ","HOUSE_NO":"６之３號十一樓之３","E_COORD97":170387.41,"N_COORD97":2545626.1899999999,"ADDRESS":"北園街６之３號十一樓之３","OBJECTID":546892},"geometry":{"x":170387.41000000201,"y":2545626.1900000032}},{"attributes":{"ID":546920,"DIS_CODE":0,"TOWNNAME":"北區","LI":"元寶里","LIN":"10鄰","STREET":"北園街","SECT":" ","MAREA":" ","LANE":" ","ALLEY":" ","HOUSE_NO":"６之３號十七樓之１","E_COORD97":170387.41,"N_COORD97":2545626.1899999999,"ADDRESS":"北園街６之３號十七樓之１","OBJECTID":546893},"geometry":{"x":170387.41000000201,"y":2545626.1900000032}},{"attributes":{"ID":546921,"DIS_CODE":0,"TOWNNAME":"北區","LI":"元寶里","LIN":"10鄰","STREET":"北園街","SECT":" ","MAREA":" ","LANE":" ","ALLEY":" ","HOUSE_NO":"６之３號十七樓之２","E_COORD97":170387.41,"N_COORD97":2545626.1899999999,"ADDRESS":"北園街６之３號十七樓之２","OBJECTID":546894},"geometry":{"x":170387.41000000201,"y":2545626.1900000032}},{"attributes":{"ID":546922,"DIS_CODE":0,"TOWNNAME":"北區","LI":"元寶里","LIN":"10鄰","STREET":"北園街","SECT":" ","MAREA":" ","LANE":" ","ALLEY":" ","HOUSE_NO":"６之３號十七樓之３","E_COORD97":170387.41,"N_COORD97":2545626.1899999999,"ADDRESS":"北園街６之３號十七樓之３","OBJECTID":546895},"geometry":{"x":170387.41000000201,"y":2545626.1900000032}},{"attributes":{"ID":546923,"DIS_CODE":0,"TOWNNAME":"北區","LI":"元寶里","LIN":"10鄰","STREET":"北園街","SECT":" ","MAREA":" ","LANE":" ","ALLEY":" ","HOUSE_NO":"６之３號十九樓之１","E_COORD97":170387.41,"N_COORD97":2545626.1899999999,"ADDRESS":"北園街６之３號十九樓之１","OBJECTID":546896},"geometry":{"x":170387.41000000201,"y":2545626.1900000032}},{"attributes":{"ID":546924,"DIS_CODE":0,"TOWNNAME":"北區","LI":"元寶里","LIN":"10鄰","STREET":"北園街","SECT":" ","MAREA":" ","LANE":" ","ALLEY":" ","HOUSE_NO":"６之３號十九樓之２","E_COORD97":170387.41,"N_COORD97":2545626.1899999999,"ADDRESS":"北園街６之３號十九樓之２","OBJECTID":546897},"geometry":{"x":170387.41000000201,"y":2545626.1900000032}},{"attributes":{"ID":546925,"DIS_CODE":0,"TOWNNAME":"北區","LI":"元寶里","LIN":"10鄰","STREET":"北園街","SECT":" ","MAREA":" ","LANE":" ","ALLEY":" ","HOUSE_NO":"６之３號十九樓之３","E_COORD97":170387.41,"N_COORD97":2545626.1899999999,"ADDRESS":"北園街６之３號十九樓之３","OBJECTID":546898},"geometry":{"x":170387.41000000201,"y":2545626.1900000032}},{"attributes":{"ID":546926,"DIS_CODE":0,"TOWNNAME":"北區","LI":"元寶里","LIN":"10鄰","STREET":"北園街","SECT":" ","MAREA":" ","LANE":" ","ALLEY":" ","HOUSE_NO":"６之３號十二樓之１","E_COORD97":170387.41,"N_COORD97":2545626.1899999999,"ADDRESS":"北園街６之３號十二樓之１","OBJECTID":546899},"geometry":{"x":170387.41000000201,"y":2545626.1900000032}},{"attributes":{"ID":546927,"DIS_CODE":0,"TOWNNAME":"北區","LI":"元寶里","LIN":"10鄰","STREET":"北園街","SECT":" ","MAREA":" ","LANE":" ","ALLEY":" ","HOUSE_NO":"６之３號十二樓之２","E_COORD97":170387.41,"N_COORD97":2545626.1899999999,"ADDRESS":"北園街６之３號十二樓之２","OBJECTID":546900},"geometry":{"x":170387.41000000201,"y":2545626.1900000032}},{"attributes":{"ID":546928,"DIS_CODE":0,"TOWNNAME":"北區","LI":"元寶里","LIN":"10鄰","STREET":"北園街","SECT":" ","MAREA":" ","LANE":" ","ALLEY":" ","HOUSE_NO":"６之３號十二樓之３","E_COORD97":170387.41,"N_COORD97":2545626.1899999999,"ADDRESS":"北園街６之３號十二樓之３","OBJECTID":546901},"geometry":{"x":170387.41000000201,"y":2545626.1900000032}},{"attributes":{"ID":546929,"DIS_CODE":0,"TOWNNAME":"北區","LI":"元寶里","LIN":"10鄰","STREET":"北園街","SECT":" ","MAREA":" ","LANE":" ","ALLEY":" ","HOUSE_NO":"６之３號十八樓之１","E_COORD97":170387.41,"N_COORD97":2545626.1899999999,"ADDRESS":"北園街６之３號十八樓之１","OBJECTID":546902},"geometry":{"x":170387.41000000201,"y":2545626.1900000032}},{"attributes":{"ID":546930,"DIS_CODE":0,"TOWNNAME":"北區","LI":"元寶里","LIN":"10鄰","STREET":"北園街","SECT":" ","MAREA":" ","LANE":" ","ALLEY":" ","HOUSE_NO":"６之３號十八樓之２","E_COORD97":170387.41,"N_COORD97":2545626.1899999999,"ADDRESS":"北園街６之３號十八樓之２","OBJECTID":546903},"geometry":{"x":170387.41000000201,"y":2545626.1900000032}},{"attributes":{"ID":546931,"DIS_CODE":0,"TOWNNAME":"北區","LI":"元寶里","LIN":"10鄰","STREET":"北園街","SECT":" ","MAREA":" ","LANE":" ","ALLEY":" ","HOUSE_NO":"６之３號十八樓之３","E_COORD97":170387.41,"N_COORD97":2545626.1899999999,"ADDRESS":"北園街６之３號十八樓之３","OBJECTID":546904},"geometry":{"x":170387.41000000201,"y":2545626.1900000032}},{"attributes":{"ID":546932,"DIS_CODE":0,"TOWNNAME":"北區","LI":"元寶里","LIN":"10鄰","STREET":"北園街","SECT":" ","MAREA":" ","LANE":" ","ALLEY":" ","HOUSE_NO":"６之３號十三樓之１","E_COORD97":170387.41,"N_COORD97":2545626.1899999999,"ADDRESS":"北園街６之３號十三樓之１","OBJECTID":546905},"geometry":{"x":170387.41000000201,"y":2545626.1900000032}},{"attributes":{"ID":546933,"DIS_CODE":0,"TOWNNAME":"北區","LI":"元寶里","LIN":"10鄰","STREET":"北園街","SECT":" ","MAREA":" ","LANE":" ","ALLEY":" ","HOUSE_NO":"６之３號十三樓之２","E_COORD97":170387.41,"N_COORD97":2545626.1899999999,"ADDRESS":"北園街６之３號十三樓之２","OBJECTID":546906},"geometry":{"x":170387.41000000201,"y":2545626.1900000032}},{"attributes":{"ID":546934,"DIS_CODE":0,"TOWNNAME":"北區","LI":"元寶里","LIN":"10鄰","STREET":"北園街","SECT":" ","MAREA":" ","LANE":" ","ALLEY":" ","HOUSE_NO":"６之３號十三樓之３","E_COORD97":170387.41,"N_COORD97":2545626.1899999999,"ADDRESS":"北園街６之３號十三樓之３","OBJECTID":546907},"geometry":{"x":170387.41000000201,"y":2545626.1900000032}},{"attributes":{"ID":546935,"DIS_CODE":0,"TOWNNAME":"北區","LI":"元寶里","LIN":"10鄰","STREET":"北園街","SECT":" ","MAREA":" ","LANE":" ","ALLEY":" ","HOUSE_NO":"６之３號十五樓之１","E_COORD97":170387.41,"N_COORD97":2545626.1899999999,"ADDRESS":"北園街６之３號十五樓之１","OBJECTID":546908},"geometry":{"x":170387.41000000201,"y":2545626.1900000032}},{"attributes":{"ID":546936,"DIS_CODE":0,"TOWNNAME":"北區","LI":"元寶里","LIN":"10鄰","STREET":"北園街","SECT":" ","MAREA":" ","LANE":" ","ALLEY":" ","HOUSE_NO":"６之３號十五樓之２","E_COORD97":170387.41,"N_COORD97":2545626.1899999999,"ADDRESS":"北園街６之３號十五樓之２","OBJECTID":546909},"geometry":{"x":170387.41000000201,"y":2545626.1900000032}},{"attributes":{"ID":546937,"DIS_CODE":0,"TOWNNAME":"北區","LI":"元寶里","LIN":"10鄰","STREET":"北園街","SECT":" ","MAREA":" ","LANE":" ","ALLEY":" ","HOUSE_NO":"６之３號十五樓之３","E_COORD97":170387.41,"N_COORD97":2545626.1899999999,"ADDRESS":"北園街６之３號十五樓之３","OBJECTID":546910},"geometry":{"x":170387.41000000201,"y":2545626.1900000032}},{"attributes":{"ID":546938,"DIS_CODE":0,"TOWNNAME":"北區","LI":"元寶里","LIN":"10鄰","STREET":"北園街","SECT":" ","MAREA":" ","LANE":" ","ALLEY":" ","HOUSE_NO":"６之３號十六樓之１","E_COORD97":170387.41,"N_COORD97":2545626.1899999999,"ADDRESS":"北園街６之３號十六樓之１","OBJECTID":546911},"geometry":{"x":170387.41000000201,"y":2545626.1900000032}},{"attributes":{"ID":546939,"DIS_CODE":0,"TOWNNAME":"北區","LI":"元寶里","LIN":"10鄰","STREET":"北園街","SECT":" ","MAREA":" ","LANE":" ","ALLEY":" ","HOUSE_NO":"６之３號十六樓之２","E_COORD97":170387.41,"N_COORD97":2545626.1899999999,"ADDRESS":"北園街６之３號十六樓之２","OBJECTID":546912},"geometry":{"x":170387.41000000201,"y":2545626.1900000032}},{"attributes":{"ID":546940,"DIS_CODE":0,"TOWNNAME":"北區","LI":"元寶里","LIN":"10鄰","STREET":"北園街","SECT":" ","MAREA":" ","LANE":" ","ALLEY":" ","HOUSE_NO":"６之３號十六樓之３","E_COORD97":170387.41,"N_COORD97":2545626.1899999999,"ADDRESS":"北園街６之３號十六樓之３","OBJECTID":546913},"geometry":{"x":170387.41000000201,"y":2545626.1900000032}},{"attributes":{"ID":546941,"DIS_CODE":0,"TOWNNAME":"北區","LI":"元寶里","LIN":"10鄰","STREET":"北園街","SECT":" ","MAREA":" ","LANE":" ","ALLEY":" ","HOUSE_NO":"６之３號十四樓之１","E_COORD97":170387.41,"N_COORD97":2545626.1899999999,"ADDRESS":"北園街６之３號十四樓之１","OBJECTID":546914},"geometry":{"x":170387.41000000201,"y":2545626.1900000032}},{"attributes":{"ID":546942,"DIS_CODE":0,"TOWNNAME":"北區","LI":"元寶里","LIN":"10鄰","STREET":"北園街","SECT":" ","MAREA":" ","LANE":" ","ALLEY":" ","HOUSE_NO":"６之３號十四樓之２","E_COORD97":170387.41,"N_COORD97":2545626.1899999999,"ADDRESS":"北園街６之３號十四樓之２","OBJECTID":546915},"geometry":{"x":170387.41000000201,"y":2545626.1900000032}},{"attributes":{"ID":546943,"DIS_CODE":0,"TOWNNAME":"北區","LI":"元寶里","LIN":"10鄰","STREET":"北園街","SECT":" ","MAREA":" ","LANE":" ","ALLEY":" ","HOUSE_NO":"６之３號十樓之１","E_COORD97":170387.41,"N_COORD97":2545626.1899999999,"ADDRESS":"北園街６之３號十樓之１","OBJECTID":546916},"geometry":{"x":170387.41000000201,"y":2545626.1900000032}},{"attributes":{"ID":546944,"DIS_CODE":0,"TOWNNAME":"北區","LI":"元寶里","LIN":"10鄰","STREET":"北園街","SECT":" ","MAREA":" ","LANE":" ","ALLEY":" ","HOUSE_NO":"６之３號十樓之２","E_COORD97":170387.41,"N_COORD97":2545626.1899999999,"ADDRESS":"北園街６之３號十樓之２","OBJECTID":546917},"geometry":{"x":170387.41000000201,"y":2545626.1900000032}},{"attributes":{"ID":546945,"DIS_CODE":0,"TOWNNAME":"北區","LI":"元寶里","LIN":"10鄰","STREET":"北園街","SECT":" ","MAREA":" ","LANE":" ","ALLEY":" ","HOUSE_NO":"６之３號十樓之３","E_COORD97":170387.41,"N_COORD97":2545626.1899999999,"ADDRESS":"北園街６之３號十樓之３","OBJECTID":546918},"geometry":{"x":170387.41000000201,"y":2545626.1900000032}},{"attributes":{"ID":546946,"DIS_CODE":0,"TOWNNAME":"北區","LI":"元寶里","LIN":"10鄰","STREET":"北園街","SECT":" ","MAREA":" ","LANE":" ","ALLEY":" ","HOUSE_NO":"６之３號五樓之１","E_COORD97":170387.41,"N_COORD97":2545626.1899999999,"ADDRESS":"北園街６之３號五樓之１","OBJECTID":546919},"geometry":{"x":170387.41000000201,"y":2545626.1900000032}},{"attributes":{"ID":546947,"DIS_CODE":0,"TOWNNAME":"北區","LI":"元寶里","LIN":"10鄰","STREET":"北園街","SECT":" ","MAREA":" ","LANE":" ","ALLEY":" ","HOUSE_NO":"６之３號五樓之２","E_COORD97":170387.41,"N_COORD97":2545626.1899999999,"ADDRESS":"北園街６之３號五樓之２","OBJECTID":546920},"geometry":{"x":170387.41000000201,"y":2545626.1900000032}},{"attributes":{"ID":546948,"DIS_CODE":0,"TOWNNAME":"北區","LI":"元寶里","LIN":"10鄰","STREET":"北園街","SECT":" ","MAREA":" ","LANE":" ","ALLEY":" ","HOUSE_NO":"６之３號五樓之３","E_COORD97":170387.41,"N_COORD97":2545626.1899999999,"ADDRESS":"北園街６之３號五樓之３","OBJECTID":546921},"geometry":{"x":170387.41000000201,"y":2545626.1900000032}},{"attributes":{"ID":546949,"DIS_CODE":0,"TOWNNAME":"北區","LI":"元寶里","LIN":"10鄰","STREET":"北園街","SECT":" ","MAREA":" ","LANE":" ","ALLEY":" ","HOUSE_NO":"６之３號六樓之１","E_COORD97":170387.41,"N_COORD97":2545626.1899999999,"ADDRESS":"北園街６之３號六樓之１","OBJECTID":546922},"geometry":{"x":170387.41000000201,"y":2545626.1900000032}},{"attributes":{"ID":546950,"DIS_CODE":0,"TOWNNAME":"北區","LI":"元寶里","LIN":"10鄰","STREET":"北園街","SECT":" ","MAREA":" ","LANE":" ","ALLEY":" ","HOUSE_NO":"６之３號六樓之２","E_COORD97":170387.41,"N_COORD97":2545626.1899999999,"ADDRESS":"北園街６之３號六樓之２","OBJECTID":546923},"geometry":{"x":170387.41000000201,"y":2545626.1900000032}},{"attributes":{"ID":546951,"DIS_CODE":0,"TOWNNAME":"北區","LI":"元寶里","LIN":"10鄰","STREET":"北園街","SECT":" ","MAREA":" ","LANE":" ","ALLEY":" ","HOUSE_NO":"６之３號六樓之３","E_COORD97":170387.41,"N_COORD97":2545626.1899999999,"ADDRESS":"北園街６之３號六樓之３","OBJECTID":546924},"geometry":{"x":170387.41000000201,"y":2545626.1900000032}},{"attributes":{"ID":546952,"DIS_CODE":0,"TOWNNAME":"北區","LI":"元寶里","LIN":"10鄰","STREET":"北園街","SECT":" ","MAREA":" ","LANE":" ","ALLEY":" ","HOUSE_NO":"６之３號四樓之１","E_COORD97":170387.41,"N_COORD97":2545626.1899999999,"ADDRESS":"北園街６之３號四樓之１","OBJECTID":546925},"geometry":{"x":170387.41000000201,"y":2545626.1900000032}},{"attributes":{"ID":546953,"DIS_CODE":0,"TOWNNAME":"北區","LI":"元寶里","LIN":"10鄰","STREET":"北園街","SECT":" ","MAREA":" ","LANE":" ","ALLEY":" ","HOUSE_NO":"６之３號四樓之２","E_COORD97":170387.41,"N_COORD97":2545626.1899999999,"ADDRESS":"北園街６之３號四樓之２","OBJECTID":546926},"geometry":{"x":170387.41000000201,"y":2545626.1900000032}},{"attributes":{"ID":546954,"DIS_CODE":0,"TOWNNAME":"北區","LI":"元寶里","LIN":"10鄰","STREET":"北園街","SECT":" ","MAREA":" ","LANE":" ","ALLEY":" ","HOUSE_NO":"６之３號四樓之３","E_COORD97":170387.41,"N_COORD97":2545626.1899999999,"ADDRESS":"北園街６之３號四樓之３","OBJECTID":546927},"geometry":{"x":170387.41000000201,"y":2545626.1900000032}},{"attributes":{"ID":546955,"DIS_CODE":0,"TOWNNAME":"北區","LI":"新勝里","LIN":"10鄰","STREET":"長榮路","SECT":"五段","MAREA":" ","LANE":" ","ALLEY":" ","HOUSE_NO":"５３號三樓","E_COORD97":170086.92999999999,"N_COORD97":2545546.0600000001,"ADDRESS":"長榮路五段５３號三樓","OBJECTID":546928},"geometry":{"x":170086.93000000063,"y":2545546.0600000005}},{"attributes":{"ID":546956,"DIS_CODE":0,"TOWNNAME":"北區","LI":"新勝里","LIN":"10鄰","STREET":"長榮路","SECT":"五段","MAREA":" ","LANE":" ","ALLEY":" ","HOUSE_NO":"５３號四樓","E_COORD97":170086.92999999999,"N_COORD97":2545546.0600000001,"ADDRESS":"長榮路五段５３號四樓","OBJECTID":546929},"geometry":{"x":170086.93000000063,"y":2545546.0600000005}},{"attributes":{"ID":546957,"DIS_CODE":0,"TOWNNAME":"北區","LI":"新勝里","LIN":"10鄰","STREET":"長榮路","SECT":"五段","MAREA":" ","LANE":" ","ALLEY":" ","HOUSE_NO":"５７號三樓","E_COORD97":170086.85000000001,"N_COORD97":2545554.4300000002,"ADDRESS":"長榮路五段５７號三樓","OBJECTID":546930},"geometry":{"x":170086.84999999963,"y":2545554.4300000016}},{"attributes":{"ID":546958,"DIS_CODE":0,"TOWNNAME":"北區","LI":"新勝里","LIN":"10鄰","STREET":"長榮路","SECT":"五段","MAREA":" ","LANE":" ","ALLEY":" ","HOUSE_NO":"５７號四樓","E_COORD97":170086.85000000001,"N_COORD97":2545554.4300000002,"ADDRESS":"長榮路五段５７號四樓","OBJECTID":546931},"geometry":{"x":170086.84999999963,"y":2545554.4300000016}},{"attributes":{"ID":546959,"DIS_CODE":0,"TOWNNAME":"北區","LI":"新勝里","LIN":"10鄰","STREET":"長榮路","SECT":"五段","MAREA":" ","LANE":" ","ALLEY":" ","HOUSE_NO":"６１號二樓","E_COORD97":170072.14999999999,"N_COORD97":2545554.5899999999,"ADDRESS":"長榮路五段６１號二樓","OBJECTID":546932},"geometry":{"x":170072.15000000037,"y":2545554.5899999999}},{"attributes":{"ID":546960,"DIS_CODE":0,"TOWNNAME":"北區","LI":"新勝里","LIN":"10鄰","STREET":"長榮路","SECT":"五段","MAREA":" ","LANE":" ","ALLEY":" ","HOUSE_NO":"６１號三樓","E_COORD97":170072.14999999999,"N_COORD97":2545554.5899999999,"ADDRESS":"長榮路五段６１號三樓","OBJECTID":546933},"geometry":{"x":170072.15000000037,"y":2545554.5899999999}},{"attributes":{"ID":546961,"DIS_CODE":0,"TOWNNAME":"北區","LI":"新勝里","LIN":"10鄰","STREET":"長榮路","SECT":"五段","MAREA":" ","LANE":" ","ALLEY":" ","HOUSE_NO":"６１號四樓","E_COORD97":170072.14999999999,"N_COORD97":2545554.5899999999,"ADDRESS":"長榮路五段６１號四樓","OBJECTID":546934},"geometry":{"x":170072.15000000037,"y":2545554.5899999999}},{"attributes":{"ID":546962,"DIS_CODE":0,"TOWNNAME":"北區","LI":"新勝里","LIN":"10鄰","STREET":"長榮路","SECT":"五段","MAREA":" ","LANE":" ","ALLEY":" ","HOUSE_NO":"７９號三樓","E_COORD97":170077.69,"N_COORD97":2545596.9500000002,"ADDRESS":"長榮路五段７９號三樓","OBJECTID":546935},"geometry":{"x":170077.69000000134,"y":2545596.950000003}},{"attributes":{"ID":546963,"DIS_CODE":0,"TOWNNAME":"北區","LI":"新勝里","LIN":"10鄰","STREET":"長榮路","SECT":"五段","MAREA":" ","LANE":" ","ALLEY":" ","HOUSE_NO":"７９號四樓","E_COORD97":170077.69,"N_COORD97":2545596.9500000002,"ADDRESS":"長榮路五段７９號四樓","OBJECTID":546936},"geometry":{"x":170077.69000000134,"y":2545596.950000003}},{"attributes":{"ID":546964,"DIS_CODE":0,"TOWNNAME":"北區","LI":"新勝里","LIN":"10鄰","STREET":"長榮路","SECT":"五段","MAREA":" ","LANE":" ","ALLEY":" ","HOUSE_NO":"１０１號三樓","E_COORD97":170075.35000000001,"N_COORD97":2545614.98,"ADDRESS":"長榮路五段１０１號三樓","OBJECTID":546937},"geometry":{"x":170075.35000000149,"y":2545614.9800000042}},{"attributes":{"ID":546965,"DIS_CODE":0,"TOWNNAME":"北區","LI":"新勝里","LIN":"10鄰","STREET":"長榮路","SECT":"五段","MAREA":" ","LANE":" ","ALLEY":" ","HOUSE_NO":"１０１號四樓","E_COORD97":170075.35000000001,"N_COORD97":2545614.98,"ADDRESS":"長榮路五段１０１號四樓","OBJECTID":546938},"geometry":{"x":170075.35000000149,"y":2545614.9800000042}},{"attributes":{"ID":546966,"DIS_CODE":0,"TOWNNAME":"北區","LI":"新勝里","LIN":"10鄰","STREET":"長榮路","SECT":"五段","MAREA":" ","LANE":" ","ALLEY":" ","HOUSE_NO":"１０５號三樓","E_COORD97":170073.98000000001,"N_COORD97":2545621.8900000001,"ADDRESS":"長榮路五段１０５號三樓","OBJECTID":546939},"geometry":{"x":170073.98000000138,"y":2545621.8900000006}},{"attributes":{"ID":546967,"DIS_CODE":0,"TOWNNAME":"北區","LI":"新勝里","LIN":"10鄰","STREET":"長榮路","SECT":"五段","MAREA":" ","LANE":" ","ALLEY":" ","HOUSE_NO":"１０５號四樓","E_COORD97":170073.98000000001,"N_COORD97":2545621.8900000001,"ADDRESS":"長榮路五段１０５號四樓","OBJECTID":546940},"geometry":{"x":170073.98000000138,"y":2545621.8900000006}},{"attributes":{"ID":546968,"DIS_CODE":0,"TOWNNAME":"北區","LI":"新勝里","LIN":"10鄰","STREET":"長榮路","SECT":"五段","MAREA":" ","LANE":" ","ALLEY":" ","HOUSE_NO":"１０９號三樓","E_COORD97":170072.16,"N_COORD97":2545630.8599999999,"ADDRESS":"長榮路五段１０９號三樓","OBJECTID":546941},"geometry":{"x":170072.16000000108,"y":2545630.8599999994}},{"attributes":{"ID":546969,"DIS_CODE":0,"TOWNNAME":"北區","LI":"新勝里","LIN":"10鄰","STREET":"長榮路","SECT":"五段","MAREA":" ","LANE":" ","ALLEY":" ","HOUSE_NO":"１０９號四樓","E_COORD97":170072.16,"N_COORD97":2545630.8599999999,"ADDRESS":"長榮路五段１０９號四樓","OBJECTID":546942},"geometry":{"x":170072.16000000108,"y":2545630.8599999994}},{"attributes":{"ID":546970,"DIS_CODE":0,"TOWNNAME":"北區","LI":"新勝里","LIN":"10鄰","STREET":"長榮路","SECT":"五段","MAREA":" ","LANE":" ","ALLEY":" ","HOUSE_NO":"１１３號三樓","E_COORD97":170071.31,"N_COORD97":2545636.6600000001,"ADDRESS":"長榮路五段１１３號三樓","OBJECTID":546943},"geometry":{"x":170071.30999999959,"y":2545636.6600000001}},{"attributes":{"ID":546971,"DIS_CODE":0,"TOWNNAME":"北區","LI":"新勝里","LIN":"10鄰","STREET":"長榮路","SECT":"五段","MAREA":" ","LANE":" ","ALLEY":" ","HOUSE_NO":"１１３號四樓","E_COORD97":170071.31,"N_COORD97":2545636.6600000001,"ADDRESS":"長榮路五段１１３號四樓","OBJECTID":546944},"geometry":{"x":170071.30999999959,"y":2545636.6600000001}},{"attributes":{"ID":546972,"DIS_CODE":0,"TOWNNAME":"北區","LI":"新勝里","LIN":"10鄰","STREET":"長榮路","SECT":"五段","MAREA":" ","LANE":" ","ALLEY":" ","HOUSE_NO":"８３號二樓","E_COORD97":170069.94,"N_COORD97":2545599.0299999998,"ADDRESS":"長榮路五段８３號二樓","OBJECTID":546945},"geometry":{"x":170069.94000000041,"y":2545599.0299999993}},{"attributes":{"ID":546973,"DIS_CODE":0,"TOWNNAME":"北區","LI":"新勝里","LIN":"10鄰","STREET":"長榮路","SECT":"五段","MAREA":" ","LANE":" ","ALLEY":" ","HOUSE_NO":"８３號三樓","E_COORD97":170069.94,"N_COORD97":2545599.0299999998,"ADDRESS":"長榮路五段８３號三樓","OBJECTID":546946},"geometry":{"x":170069.94000000041,"y":2545599.0299999993}},{"attributes":{"ID":546974,"DIS_CODE":0,"TOWNNAME":"北區","LI":"新勝里","LIN":"10鄰","STREET":"長榮路","SECT":"五段","MAREA":" ","LANE":" ","ALLEY":" ","HOUSE_NO":"８３號四樓","E_COORD97":170069.94,"N_COORD97":2545599.0299999998,"ADDRESS":"長榮路五段８３號四樓","OBJECTID":546947},"geometry":{"x":170069.94000000041,"y":2545599.0299999993}},{"attributes":{"ID":546975,"DIS_CODE":0,"TOWNNAME":"北區","LI":"新勝里","LIN":"10鄰","STREET":"長榮路","SECT":"五段","MAREA":" ","LANE":" ","ALLEY":" ","HOUSE_NO":"８５號二樓","E_COORD97":170061.92999999999,"N_COORD97":2545597.9900000002,"ADDRESS":"長榮路五段８５號二樓","OBJECTID":546948},"geometry":{"x":170061.93000000063,"y":2545597.9900000021}},{"attributes":{"ID":546976,"DIS_CODE":0,"TOWNNAME":"北區","LI":"新勝里","LIN":"10鄰","STREET":"長榮路","SECT":"五段","MAREA":" ","LANE":" ","ALLEY":" ","HOUSE_NO":"８５號三樓","E_COORD97":170061.92999999999,"N_COORD97":2545597.9900000002,"ADDRESS":"長榮路五段８５號三樓","OBJECTID":546949},"geometry":{"x":170061.93000000063,"y":2545597.9900000021}},{"attributes":{"ID":546977,"DIS_CODE":0,"TOWNNAME":"北區","LI":"新勝里","LIN":"10鄰","STREET":"長榮路","SECT":"五段","MAREA":" ","LANE":" ","ALLEY":" ","HOUSE_NO":"８５號四樓","E_COORD97":170061.92999999999,"N_COORD97":2545597.9900000002,"ADDRESS":"長榮路五段８５號四樓","OBJECTID":546950},"geometry":{"x":170061.93000000063,"y":2545597.9900000021}},{"attributes":{"ID":546978,"DIS_CODE":0,"TOWNNAME":"北區","LI":"新勝里","LIN":"10鄰","STREET":"長榮路","SECT":"五段","MAREA":" ","LANE":" ","ALLEY":" ","HOUSE_NO":"８７號二樓","E_COORD97":170053.85999999999,"N_COORD97":2545596.4300000002,"ADDRESS":"長榮路五段８７號二樓","OBJECTID":546951},"geometry":{"x":170053.8600000022,"y":2545596.4299999997}},{"attributes":{"ID":546979,"DIS_CODE":0,"TOWNNAME":"北區","LI":"新勝里","LIN":"10鄰","STREET":"長榮路","SECT":"五段","MAREA":" ","LANE":" ","ALLEY":" ","HOUSE_NO":"８７號三樓","E_COORD97":170053.85999999999,"N_COORD97":2545596.4300000002,"ADDRESS":"長榮路五段８７號三樓","OBJECTID":546952},"geometry":{"x":170053.8600000022,"y":2545596.4299999997}},{"attributes":{"ID":546980,"DIS_CODE":0,"TOWNNAME":"北區","LI":"新勝里","LIN":"10鄰","STREET":"長榮路","SECT":"五段","MAREA":" ","LANE":" ","ALLEY":" ","HOUSE_NO":"８７號四樓","E_COORD97":170053.85999999999,"N_COORD97":2545596.4300000002,"ADDRESS":"長榮路五段８７號四樓","OBJECTID":546953},"geometry":{"x":170053.8600000022,"y":2545596.4299999997}},{"attributes":{"ID":546981,"DIS_CODE":0,"TOWNNAME":"北區","LI":"新勝里","LIN":"10鄰","STREET":"長榮路","SECT":"五段","MAREA":" ","LANE":" ","ALLEY":" ","HOUSE_NO":"８９號二樓","E_COORD97":170047.67999999999,"N_COORD97":2545607.4500000002,"ADDRESS":"長榮路五段８９號二樓","OBJECTID":546954},"geometry":{"x":170047.68000000156,"y":2545607.4500000011}},{"attributes":{"ID":546982,"DIS_CODE":0,"TOWNNAME":"北區","LI":"新勝里","LIN":"10鄰","STREET":"長榮路","SECT":"五段","MAREA":" ","LANE":" ","ALLEY":" ","HOUSE_NO":"８９號三樓","E_COORD97":170047.67999999999,"N_COORD97":2545607.4500000002,"ADDRESS":"長榮路五段８９號三樓","OBJECTID":546955},"geometry":{"x":170047.68000000156,"y":2545607.4500000011}},{"attributes":{"ID":546983,"DIS_CODE":0,"TOWNNAME":"北區","LI":"新勝里","LIN":"10鄰","STREET":"長榮路","SECT":"五段","MAREA":" ","LANE":" ","ALLEY":" ","HOUSE_NO":"８９號四樓","E_COORD97":170047.67999999999,"N_COORD97":2545607.4500000002,"ADDRESS":"長榮路五段８９號四樓","OBJECTID":546956},"geometry":{"x":170047.68000000156,"y":2545607.4500000011}},{"attributes":{"ID":546984,"DIS_CODE":0,"TOWNNAME":"北區","LI":"新勝里","LIN":"10鄰","STREET":"長榮路","SECT":"五段","MAREA":" ","LANE":" ","ALLEY":" ","HOUSE_NO":"９１號二樓","E_COORD97":170042.98999999999,"N_COORD97":2545613.6299999999,"ADDRESS":"長榮路五段９１號二樓","OBJECTID":546957},"geometry":{"x":170042.99000000115,"y":2545613.6300000008}},{"attributes":{"ID":546985,"DIS_CODE":0,"TOWNNAME":"北區","LI":"新勝里","LIN":"10鄰","STREET":"長榮路","SECT":"五段","MAREA":" ","LANE":" ","ALLEY":" ","HOUSE_NO":"９１號三樓","E_COORD97":170042.98999999999,"N_COORD97":2545613.6299999999,"ADDRESS":"長榮路五段９１號三樓","OBJECTID":546958},"geometry":{"x":170042.99000000115,"y":2545613.6300000008}},{"attributes":{"ID":546986,"DIS_CODE":0,"TOWNNAME":"北區","LI":"新勝里","LIN":"10鄰","STREET":"長榮路","SECT":"五段","MAREA":" ","LANE":" ","ALLEY":" ","HOUSE_NO":"９１號四樓","E_COORD97":170042.98999999999,"N_COORD97":2545613.6299999999,"ADDRESS":"長榮路五段９１號四樓","OBJECTID":546959},"geometry":{"x":170042.99000000115,"y":2545613.6300000008}},{"attributes":{"ID":546987,"DIS_CODE":0,"TOWNNAME":"北區","LI":"新勝里","LIN":"10鄰","STREET":"長榮路","SECT":"五段","MAREA":" ","LANE":" ","ALLEY":" ","HOUSE_NO":"９３號二樓","E_COORD97":170031.79999999999,"N_COORD97":2545626.3799999999,"ADDRESS":"長榮路五段９３號二樓","OBJECTID":546960},"geometry":{"x":170031.80000000168,"y":2545626.379999999}},{"attributes":{"ID":546988,"DIS_CODE":0,"TOWNNAME":"北區","LI":"新勝里","LIN":"10鄰","STREET":"長榮路","SECT":"五段","MAREA":" ","LANE":" ","ALLEY":" ","HOUSE_NO":"９３號三樓","E_COORD97":170031.79999999999,"N_COORD97":2545626.3799999999,"ADDRESS":"長榮路五段９３號三樓","OBJECTID":546961},"geometry":{"x":170031.80000000168,"y":2545626.379999999}},{"attributes":{"ID":546989,"DIS_CODE":0,"TOWNNAME":"北區","LI":"新勝里","LIN":"10鄰","STREET":"長榮路","SECT":"五段","MAREA":" ","LANE":" ","ALLEY":" ","HOUSE_NO":"９３號四樓","E_COORD97":170031.79999999999,"N_COORD97":2545626.3799999999,"ADDRESS":"長榮路五段９３號四樓","OBJECTID":546962},"geometry":{"x":170031.80000000168,"y":2545626.379999999}},{"attributes":{"ID":546990,"DIS_CODE":0,"TOWNNAME":"北區","LI":"新勝里","LIN":"10鄰","STREET":"長榮路","SECT":"五段","MAREA":" ","LANE":" ","ALLEY":" ","HOUSE_NO":"９５號二樓","E_COORD97":170039.48000000001,"N_COORD97":2545627.4900000002,"ADDRESS":"長榮路五段９５號二樓","OBJECTID":546963},"geometry":{"x":170039.48000000045,"y":2545627.4900000002}},{"attributes":{"ID":546991,"DIS_CODE":0,"TOWNNAME":"北區","LI":"新勝里","LIN":"10鄰","STREET":"長榮路","SECT":"五段","MAREA":" ","LANE":" ","ALLEY":" ","HOUSE_NO":"９５號三樓","E_COORD97":170039.48000000001,"N_COORD97":2545627.4900000002,"ADDRESS":"長榮路五段９５號三樓","OBJECTID":546964},"geometry":{"x":170039.48000000045,"y":2545627.4900000002}},{"attributes":{"ID":546992,"DIS_CODE":0,"TOWNNAME":"北區","LI":"新勝里","LIN":"10鄰","STREET":"長榮路","SECT":"五段","MAREA":" ","LANE":" ","ALLEY":" ","HOUSE_NO":"９５號四樓","E_COORD97":170039.48000000001,"N_COORD97":2545627.4900000002,"ADDRESS":"長榮路五段９５號四樓","OBJECTID":546965},"geometry":{"x":170039.48000000045,"y":2545627.4900000002}},{"attributes":{"ID":546993,"DIS_CODE":0,"TOWNNAME":"北區","LI":"新勝里","LIN":"10鄰","STREET":"長榮路","SECT":"五段","MAREA":" ","LANE":" ","ALLEY":" ","HOUSE_NO":"９７號二樓","E_COORD97":170046.89999999999,"N_COORD97":2545630.2200000002,"ADDRESS":"長榮路五段９７號二樓","OBJECTID":546966},"geometry":{"x":170046.90000000224,"y":2545630.2200000007}},{"attributes":{"ID":546994,"DIS_CODE":0,"TOWNNAME":"北區","LI":"新勝里","LIN":"10鄰","STREET":"長榮路","SECT":"五段","MAREA":" ","LANE":" ","ALLEY":" ","HOUSE_NO":"９７號三樓","E_COORD97":170046.89999999999,"N_COORD97":2545630.2200000002,"ADDRESS":"長榮路五段９７號三樓","OBJECTID":546967},"geometry":{"x":170046.90000000224,"y":2545630.2200000007}},{"attributes":{"ID":546995,"DIS_CODE":0,"TOWNNAME":"北區","LI":"新勝里","LIN":"10鄰","STREET":"長榮路","SECT":"五段","MAREA":" ","LANE":" ","ALLEY":" ","HOUSE_NO":"９７號四樓","E_COORD97":170046.89999999999,"N_COORD97":2545630.2200000002,"ADDRESS":"長榮路五段９７號四樓","OBJECTID":546968},"geometry":{"x":170046.90000000224,"y":2545630.2200000007}},{"attributes":{"ID":546996,"DIS_CODE":0,"TOWNNAME":"北區","LI":"新勝里","LIN":"10鄰","STREET":"長榮路","SECT":"五段","MAREA":" ","LANE":" ","ALLEY":" ","HOUSE_NO":"９９號二樓","E_COORD97":170053.85999999999,"N_COORD97":2545631.3300000001,"ADDRESS":"長榮路五段９９號二樓","OBJECTID":546969},"geometry":{"x":170053.8600000022,"y":2545631.3300000001}},{"attributes":{"ID":546997,"DIS_CODE":0,"TOWNNAME":"北區","LI":"新勝里","LIN":"10鄰","STREET":"長榮路","SECT":"五段","MAREA":" ","LANE":" ","ALLEY":" ","HOUSE_NO":"９９號三樓","E_COORD97":170053.85999999999,"N_COORD97":2545631.3300000001,"ADDRESS":"長榮路五段９９號三樓","OBJECTID":546970},"geometry":{"x":170053.8600000022,"y":2545631.3300000001}},{"attributes":{"ID":546998,"DIS_CODE":0,"TOWNNAME":"北區","LI":"新勝里","LIN":"10鄰","STREET":"長榮路","SECT":"五段","MAREA":" ","LANE":" ","ALLEY":" ","HOUSE_NO":"９９號四樓","E_COORD97":170053.85999999999,"N_COORD97":2545631.3300000001,"ADDRESS":"長榮路五段９９號四樓","OBJECTID":546971},"geometry":{"x":170053.8600000022,"y":2545631.3300000001}},{"attributes":{"ID":546999,"DIS_CODE":0,"TOWNNAME":"東區","LI":"富強里","LIN":"22鄰","STREET":"富強三街","SECT":" ","MAREA":" ","LANE":" ","ALLEY":" ","HOUSE_NO":"９號","E_COORD97":170973.22,"N_COORD97":2542536.9700000002,"ADDRESS":"富強三街９號","OBJECTID":546972},"geometry":{"x":170973.22000000067,"y":2542536.9700000044}},{"attributes":{"ID":547000,"DIS_CODE":0,"TOWNNAME":"安平區","LI":"億載里","LIN":"10鄰","STREET":"郡平路","SECT":" ","MAREA":" ","LANE":" ","ALLEY":" ","HOUSE_NO":"４５４號七樓之１","E_COORD97":163974.89999999999,"N_COORD97":2543373.0499999998,"ADDRESS":"郡平路４５４號七樓之１","OBJECTID":546973},"geometry":{"x":163974.9000000013,"y":2543373.0500000007}},{"attributes":{"ID":547001,"DIS_CODE":0,"TOWNNAME":"安平區","LI":"億載里","LIN":"10鄰","STREET":"郡平路","SECT":" ","MAREA":" ","LANE":" ","ALLEY":" ","HOUSE_NO":"４５４號七樓之２","E_COORD97":163974.89999999999,"N_COORD97":2543373.0499999998,"ADDRESS":"郡平路４５４號七樓之２","OBJECTID":546974},"geometry":{"x":163974.9000000013,"y":2543373.0500000007}},{"attributes":{"ID":547002,"DIS_CODE":0,"TOWNNAME":"安平區","LI":"億載里","LIN":"10鄰","STREET":"郡平路","SECT":" ","MAREA":" ","LANE":" ","ALLEY":" ","HOUSE_NO":"４５４號七樓之４","E_COORD97":163974.89999999999,"N_COORD97":2543373.0499999998,"ADDRESS":"郡平路４５４號七樓之４","OBJECTID":546975},"geometry":{"x":163974.9000000013,"y":2543373.0500000007}},{"attributes":{"ID":547003,"DIS_CODE":0,"TOWNNAME":"安平區","LI":"億載里","LIN":"10鄰","STREET":"郡平路","SECT":" ","MAREA":" ","LANE":" ","ALLEY":" ","HOUSE_NO":"４５４號七樓之５","E_COORD97":163974.89999999999,"N_COORD97":2543373.0499999998,"ADDRESS":"郡平路４５４號七樓之５","OBJECTID":546976},"geometry":{"x":163974.9000000013,"y":2543373.0500000007}},{"attributes":{"ID":547004,"DIS_CODE":0,"TOWNNAME":"安平區","LI":"億載里","LIN":"10鄰","STREET":"郡平路","SECT":" ","MAREA":" ","LANE":" ","ALLEY":" ","HOUSE_NO":"４５４號七樓之６","E_COORD97":163974.89999999999,"N_COORD97":2543373.0499999998,"ADDRESS":"郡平路４５４號七樓之６","OBJECTID":546977},"geometry":{"x":163974.9000000013,"y":2543373.0500000007}},{"attributes":{"ID":547005,"DIS_CODE":0,"TOWNNAME":"安平區","LI":"億載里","LIN":"10鄰","STREET":"郡平路","SECT":" ","MAREA":" ","LANE":" ","ALLEY":" ","HOUSE_NO":"４５４號七樓之７","E_COORD97":163974.89999999999,"N_COORD97":2543373.0499999998,"ADDRESS":"郡平路４５４號七樓之７","OBJECTID":546978},"geometry":{"x":163974.9000000013,"y":2543373.0500000007}},{"attributes":{"ID":547006,"DIS_CODE":0,"TOWNNAME":"安平區","LI":"億載里","LIN":"10鄰","STREET":"郡平路","SECT":" ","MAREA":" ","LANE":" ","ALLEY":" ","HOUSE_NO":"４５４號九樓之１","E_COORD97":163974.89999999999,"N_COORD97":2543373.0499999998,"ADDRESS":"郡平路４５４號九樓之１","OBJECTID":546979},"geometry":{"x":163974.9000000013,"y":2543373.0500000007}},{"attributes":{"ID":547007,"DIS_CODE":0,"TOWNNAME":"安平區","LI":"億載里","LIN":"10鄰","STREET":"郡平路","SECT":" ","MAREA":" ","LANE":" ","ALLEY":" ","HOUSE_NO":"４５４號九樓之２","E_COORD97":163974.89999999999,"N_COORD97":2543373.0499999998,"ADDRESS":"郡平路４５４號九樓之２","OBJECTID":546980},"geometry":{"x":163974.9000000013,"y":2543373.0500000007}},{"attributes":{"ID":547008,"DIS_CODE":0,"TOWNNAME":"安平區","LI":"億載里","LIN":"10鄰","STREET":"郡平路","SECT":" ","MAREA":" ","LANE":" ","ALLEY":" ","HOUSE_NO":"４５４號九樓之３","E_COORD97":163974.89999999999,"N_COORD97":2543373.0499999998,"ADDRESS":"郡平路４５４號九樓之３","OBJECTID":546981},"geometry":{"x":163974.9000000013,"y":2543373.0500000007}},{"attributes":{"ID":547009,"DIS_CODE":0,"TOWNNAME":"安平區","LI":"億載里","LIN":"10鄰","STREET":"郡平路","SECT":" ","MAREA":" ","LANE":" ","ALLEY":" ","HOUSE_NO":"４５４號九樓之４","E_COORD97":163974.89999999999,"N_COORD97":2543373.0499999998,"ADDRESS":"郡平路４５４號九樓之４","OBJECTID":546982},"geometry":{"x":163974.9000000013,"y":2543373.0500000007}},{"attributes":{"ID":547010,"DIS_CODE":0,"TOWNNAME":"安平區","LI":"億載里","LIN":"10鄰","STREET":"郡平路","SECT":" ","MAREA":" ","LANE":" ","ALLEY":" ","HOUSE_NO":"４５４號九樓之５","E_COORD97":163974.89999999999,"N_COORD97":2543373.0499999998,"ADDRESS":"郡平路４５４號九樓之５","OBJECTID":546983},"geometry":{"x":163974.9000000013,"y":2543373.0500000007}},{"attributes":{"ID":547011,"DIS_CODE":0,"TOWNNAME":"安平區","LI":"億載里","LIN":"10鄰","STREET":"郡平路","SECT":" ","MAREA":" ","LANE":" ","ALLEY":" ","HOUSE_NO":"４５４號九樓之７","E_COORD97":163974.89999999999,"N_COORD97":2543373.0499999998,"ADDRESS":"郡平路４５４號九樓之７","OBJECTID":546984},"geometry":{"x":163974.9000000013,"y":2543373.0500000007}},{"attributes":{"ID":547012,"DIS_CODE":0,"TOWNNAME":"安平區","LI":"億載里","LIN":"10鄰","STREET":"郡平路","SECT":" ","MAREA":" ","LANE":" ","ALLEY":" ","HOUSE_NO":"４５４號九樓之８","E_COORD97":163974.89999999999,"N_COORD97":2543373.0499999998,"ADDRESS":"郡平路４５４號九樓之８","OBJECTID":546985},"geometry":{"x":163974.9000000013,"y":2543373.0500000007}},{"attributes":{"ID":547013,"DIS_CODE":0,"TOWNNAME":"東區","LI":"龍山里","LIN":"5鄰","STREET":"龍山街","SECT":" ","MAREA":" ","LANE":" ","ALLEY":" ","HOUSE_NO":"１０７號","E_COORD97":170353.94,"N_COORD97":2542699.77,"ADDRESS":"龍山街１０７號","OBJECTID":546986},"geometry":{"x":170353.94000000134,"y":2542699.7700000033}},{"attributes":{"ID":547014,"DIS_CODE":0,"TOWNNAME":"安平區","LI":"億載里","LIN":"10鄰","STREET":"郡平路","SECT":" ","MAREA":" ","LANE":" ","ALLEY":" ","HOUSE_NO":"４５４號二樓之２","E_COORD97":163974.89999999999,"N_COORD97":2543373.0499999998,"ADDRESS":"郡平路４５４號二樓之２","OBJECTID":546987},"geometry":{"x":163974.9000000013,"y":2543373.0500000007}},{"attributes":{"ID":547015,"DIS_CODE":0,"TOWNNAME":"安平區","LI":"億載里","LIN":"10鄰","STREET":"郡平路","SECT":" ","MAREA":" ","LANE":" ","ALLEY":" ","HOUSE_NO":"４５４號二樓之３","E_COORD97":163974.89999999999,"N_COORD97":2543373.0499999998,"ADDRESS":"郡平路４５４號二樓之３","OBJECTID":546988},"geometry":{"x":163974.9000000013,"y":2543373.0500000007}},{"attributes":{"ID":547016,"DIS_CODE":0,"TOWNNAME":"安平區","LI":"億載里","LIN":"10鄰","STREET":"郡平路","SECT":" ","MAREA":" ","LANE":" ","ALLEY":" ","HOUSE_NO":"４５４號二樓之４","E_COORD97":163974.89999999999,"N_COORD97":2543373.0499999998,"ADDRESS":"郡平路４５４號二樓之４","OBJECTID":546989},"geometry":{"x":163974.9000000013,"y":2543373.0500000007}},{"attributes":{"ID":547017,"DIS_CODE":0,"TOWNNAME":"安平區","LI":"億載里","LIN":"10鄰","STREET":"郡平路","SECT":" ","MAREA":" ","LANE":" ","ALLEY":" ","HOUSE_NO":"４５４號八樓之１","E_COORD97":163974.89999999999,"N_COORD97":2543373.0499999998,"ADDRESS":"郡平路４５４號八樓之１","OBJECTID":546990},"geometry":{"x":163974.9000000013,"y":2543373.0500000007}},{"attributes":{"ID":547018,"DIS_CODE":0,"TOWNNAME":"安平區","LI":"億載里","LIN":"10鄰","STREET":"郡平路","SECT":" ","MAREA":" ","LANE":" ","ALLEY":" ","HOUSE_NO":"４５４號八樓之２","E_COORD97":163974.89999999999,"N_COORD97":2543373.0499999998,"ADDRESS":"郡平路４５４號八樓之２","OBJECTID":546991},"geometry":{"x":163974.9000000013,"y":2543373.0500000007}},{"attributes":{"ID":547019,"DIS_CODE":0,"TOWNNAME":"安平區","LI":"億載里","LIN":"10鄰","STREET":"郡平路","SECT":" ","MAREA":" ","LANE":" ","ALLEY":" ","HOUSE_NO":"４５４號八樓之３","E_COORD97":163974.89999999999,"N_COORD97":2543373.0499999998,"ADDRESS":"郡平路４５４號八樓之３","OBJECTID":546992},"geometry":{"x":163974.9000000013,"y":2543373.0500000007}},{"attributes":{"ID":547020,"DIS_CODE":0,"TOWNNAME":"安平區","LI":"億載里","LIN":"10鄰","STREET":"郡平路","SECT":" ","MAREA":" ","LANE":" ","ALLEY":" ","HOUSE_NO":"４５４號八樓之４","E_COORD97":163974.89999999999,"N_COORD97":2543373.0499999998,"ADDRESS":"郡平路４５４號八樓之４","OBJECTID":546993},"geometry":{"x":163974.9000000013,"y":2543373.0500000007}},{"attributes":{"ID":547021,"DIS_CODE":0,"TOWNNAME":"安平區","LI":"億載里","LIN":"10鄰","STREET":"郡平路","SECT":" ","MAREA":" ","LANE":" ","ALLEY":" ","HOUSE_NO":"４５４號八樓之５","E_COORD97":163974.89999999999,"N_COORD97":2543373.0499999998,"ADDRESS":"郡平路４５４號八樓之５","OBJECTID":546994},"geometry":{"x":163974.9000000013,"y":2543373.0500000007}},{"attributes":{"ID":547022,"DIS_CODE":0,"TOWNNAME":"安平區","LI":"億載里","LIN":"10鄰","STREET":"郡平路","SECT":" ","MAREA":" ","LANE":" ","ALLEY":" ","HOUSE_NO":"４５４號八樓之６","E_COORD97":163974.89999999999,"N_COORD97":2543373.0499999998,"ADDRESS":"郡平路４５４號八樓之６","OBJECTID":546995},"geometry":{"x":163974.9000000013,"y":2543373.0500000007}},{"attributes":{"ID":547023,"DIS_CODE":0,"TOWNNAME":"安平區","LI":"億載里","LIN":"10鄰","STREET":"郡平路","SECT":" ","MAREA":" ","LANE":" ","ALLEY":" ","HOUSE_NO":"４５４號八樓之７","E_COORD97":163974.89999999999,"N_COORD97":2543373.0499999998,"ADDRESS":"郡平路４５４號八樓之７","OBJECTID":546996},"geometry":{"x":163974.9000000013,"y":2543373.0500000007}},{"attributes":{"ID":547024,"DIS_CODE":0,"TOWNNAME":"安平區","LI":"億載里","LIN":"10鄰","STREET":"郡平路","SECT":" ","MAREA":" ","LANE":" ","ALLEY":" ","HOUSE_NO":"４５４號十一樓之１","E_COORD97":163974.89999999999,"N_COORD97":2543373.0499999998,"ADDRESS":"郡平路４５４號十一樓之１","OBJECTID":546997},"geometry":{"x":163974.9000000013,"y":2543373.0500000007}},{"attributes":{"ID":547025,"DIS_CODE":0,"TOWNNAME":"安平區","LI":"億載里","LIN":"10鄰","STREET":"郡平路","SECT":" ","MAREA":" ","LANE":" ","ALLEY":" ","HOUSE_NO":"４５４號十一樓之２","E_COORD97":163974.89999999999,"N_COORD97":2543373.0499999998,"ADDRESS":"郡平路４５４號十一樓之２","OBJECTID":546998},"geometry":{"x":163974.9000000013,"y":2543373.0500000007}},{"attributes":{"ID":547026,"DIS_CODE":0,"TOWNNAME":"安平區","LI":"億載里","LIN":"10鄰","STREET":"郡平路","SECT":" ","MAREA":" ","LANE":" ","ALLEY":" ","HOUSE_NO":"４５４號十一樓之４","E_COORD97":163974.89999999999,"N_COORD97":2543373.0499999998,"ADDRESS":"郡平路４５４號十一樓之４","OBJECTID":546999},"geometry":{"x":163974.9000000013,"y":2543373.0500000007}},{"attributes":{"ID":547027,"DIS_CODE":0,"TOWNNAME":"安平區","LI":"億載里","LIN":"10鄰","STREET":"郡平路","SECT":" ","MAREA":" ","LANE":" ","ALLEY":" ","HOUSE_NO":"４５４號十一樓之５","E_COORD97":163974.89999999999,"N_COORD97":2543373.0499999998,"ADDRESS":"郡平路４５４號十一樓之５","OBJECTID":547000},"geometry":{"x":163974.9000000013,"y":2543373.0500000007}}]}