{"displayFieldName":"TOWNNAME","fieldAliases":{"ID":"ID","DIS_CODE":"DIS_CODE","TOWNNAME":"TOWNNAME","LI":"LI","LIN":"LIN","STREET":"STREET","SECT":"SECT","MAREA":"MAREA","LANE":"LANE","ALLEY":"ALLEY","HOUSE_NO":"HOUSE_NO","E_COORD97":"E_COORD97","N_COORD97":"N_COORD97","ADDRESS":"ADDRESS","OBJECTID":"OBJECTID"},"geometryType":"esriGeometryPoint","spatialReference":{"wkid":102443,"latestWkid":3826},"fields":[{"name":"ID","type":"esriFieldTypeDouble","alias":"ID"},{"name":"DIS_CODE","type":"esriFieldTypeInteger","alias":"DIS_CODE"},{"name":"TOWNNAME","type":"esriFieldTypeString","alias":"TOWNNAME","length":8},{"name":"LI","type":"esriFieldTypeString","alias":"LI","length":8},{"name":"LIN","type":"esriFieldTypeString","alias":"LIN","length":12},{"name":"STREET","type":"esriFieldTypeString","alias":"STREET","length":20},{"name":"SECT","type":"esriFieldTypeString","alias":"SECT","length":8},{"name":"MAREA","type":"esriFieldTypeString","alias":"MAREA","length":12},{"name":"LANE","type":"esriFieldTypeString","alias":"LANE","length":10},{"name":"ALLEY","type":"esriFieldTypeString","alias":"ALLEY","length":10},{"name":"HOUSE_NO","type":"esriFieldTypeString","alias":"HOUSE_NO","length":20},{"name":"E_COORD97","type":"esriFieldTypeDouble","alias":"E_COORD97"},{"name":"N_COORD97","type":"esriFieldTypeDouble","alias":"N_COORD97"},{"name":"ADDRESS","type":"esriFieldTypeString","alias":"ADDRESS","length":50},{"name":"OBJECTID","type":"esriFieldTypeOID","alias":"OBJECTID"}],"features":[{"attributes":{"ID":572228,"DIS_CODE":0,"TOWNNAME":"永康區","LI":"六合里","LIN":"29鄰","STREET":"中華二路","SECT":" ","MAREA":" ","LANE":" ","ALLEY":" ","HOUSE_NO":"２８２號","E_COORD97":171346.97,"N_COORD97":2545439.9900000002,"ADDRESS":"中華二路２８２號","OBJECTID":572201},"geometry":{"x":171346.96999999974,"y":2545439.9900000021}},{"attributes":{"ID":572229,"DIS_CODE":0,"TOWNNAME":"永康區","LI":"六合里","LIN":"29鄰","STREET":"中華二路","SECT":" ","MAREA":" ","LANE":" ","ALLEY":" ","HOUSE_NO":"２８６號","E_COORD97":171341.95999999999,"N_COORD97":2545439.4900000002,"ADDRESS":"中華二路２８６號","OBJECTID":572202},"geometry":{"x":171341.96000000089,"y":2545439.4900000021}},{"attributes":{"ID":572230,"DIS_CODE":0,"TOWNNAME":"永康區","LI":"六合里","LIN":"29鄰","STREET":"中華二路","SECT":" ","MAREA":" ","LANE":" ","ALLEY":" ","HOUSE_NO":"２８８號","E_COORD97":171336.95999999999,"N_COORD97":2545439.4900000002,"ADDRESS":"中華二路２８８號","OBJECTID":572203},"geometry":{"x":171336.95999999996,"y":2545439.4900000021}},{"attributes":{"ID":572231,"DIS_CODE":0,"TOWNNAME":"永康區","LI":"六合里","LIN":"29鄰","STREET":"中華二路","SECT":" ","MAREA":" ","LANE":" ","ALLEY":" ","HOUSE_NO":"２９０號","E_COORD97":171331.91,"N_COORD97":2545439.2400000002,"ADDRESS":"中華二路２９０號","OBJECTID":572204},"geometry":{"x":171331.91000000108,"y":2545439.2400000002}},{"attributes":{"ID":572232,"DIS_CODE":0,"TOWNNAME":"永康區","LI":"六合里","LIN":"29鄰","STREET":"中華二路","SECT":" ","MAREA":" ","LANE":" ","ALLEY":" ","HOUSE_NO":"２９２號","E_COORD97":171326.91,"N_COORD97":2545438.9900000002,"ADDRESS":"中華二路２９２號","OBJECTID":572205},"geometry":{"x":171326.91000000108,"y":2545438.9900000021}},{"attributes":{"ID":572233,"DIS_CODE":0,"TOWNNAME":"永康區","LI":"六合里","LIN":"29鄰","STREET":"中華二路","SECT":" ","MAREA":" ","LANE":" ","ALLEY":" ","HOUSE_NO":"２９６號","E_COORD97":171322.01999999999,"N_COORD97":2545438.9900000002,"ADDRESS":"中華二路２９６號","OBJECTID":572206},"geometry":{"x":171322.02000000048,"y":2545438.9900000021}},{"attributes":{"ID":572234,"DIS_CODE":0,"TOWNNAME":"永康區","LI":"六合里","LIN":"29鄰","STREET":"中華二路","SECT":" ","MAREA":" ","LANE":" ","ALLEY":" ","HOUSE_NO":"２９８號","E_COORD97":171317.76999999999,"N_COORD97":2545438.7400000002,"ADDRESS":"中華二路２９８號","OBJECTID":572207},"geometry":{"x":171317.76999999955,"y":2545438.7400000002}},{"attributes":{"ID":572235,"DIS_CODE":0,"TOWNNAME":"永康區","LI":"六合里","LIN":"29鄰","STREET":"中華二路","SECT":" ","MAREA":" ","LANE":" ","ALLEY":" ","HOUSE_NO":"３００號","E_COORD97":171313.48000000001,"N_COORD97":2545438.7400000002,"ADDRESS":"中華二路３００號","OBJECTID":572208},"geometry":{"x":171313.48000000138,"y":2545438.7400000002}},{"attributes":{"ID":572236,"DIS_CODE":0,"TOWNNAME":"永康區","LI":"六合里","LIN":"29鄰","STREET":"中華二路","SECT":" ","MAREA":" ","LANE":" ","ALLEY":" ","HOUSE_NO":"３０２號","E_COORD97":171309.26999999999,"N_COORD97":2545438.4900000002,"ADDRESS":"中華二路３０２號","OBJECTID":572209},"geometry":{"x":171309.26999999955,"y":2545438.4900000039}},{"attributes":{"ID":572237,"DIS_CODE":0,"TOWNNAME":"永康區","LI":"六合里","LIN":"29鄰","STREET":"中華二路","SECT":" ","MAREA":" ","LANE":" ","ALLEY":" ","HOUSE_NO":"３０６號","E_COORD97":171305.01999999999,"N_COORD97":2545438.4900000002,"ADDRESS":"中華二路３０６號","OBJECTID":572210},"geometry":{"x":171305.02000000048,"y":2545438.4900000039}},{"attributes":{"ID":572238,"DIS_CODE":0,"TOWNNAME":"永康區","LI":"六合里","LIN":"29鄰","STREET":"中華二路","SECT":" ","MAREA":" ","LANE":" ","ALLEY":" ","HOUSE_NO":"３０８號","E_COORD97":171300.76999999999,"N_COORD97":2545438.2400000002,"ADDRESS":"中華二路３０８號","OBJECTID":572211},"geometry":{"x":171300.76999999955,"y":2545438.2400000021}},{"attributes":{"ID":572239,"DIS_CODE":0,"TOWNNAME":"永康區","LI":"六合里","LIN":"29鄰","STREET":"中華二路","SECT":" ","MAREA":" ","LANE":" ","ALLEY":" ","HOUSE_NO":"３１０號","E_COORD97":171296.57000000001,"N_COORD97":2545438.2400000002,"ADDRESS":"中華二路３１０號","OBJECTID":572212},"geometry":{"x":171296.56999999937,"y":2545438.2400000021}},{"attributes":{"ID":572240,"DIS_CODE":0,"TOWNNAME":"永康區","LI":"六合里","LIN":"29鄰","STREET":"中華二路","SECT":" ","MAREA":" ","LANE":" ","ALLEY":" ","HOUSE_NO":"３１２號","E_COORD97":171292.23000000001,"N_COORD97":2545437.7400000002,"ADDRESS":"中華二路３１２號","OBJECTID":572213},"geometry":{"x":171292.23000000045,"y":2545437.7400000021}},{"attributes":{"ID":572241,"DIS_CODE":0,"TOWNNAME":"永康區","LI":"六合里","LIN":"29鄰","STREET":"中華二路","SECT":" ","MAREA":" ","LANE":" ","ALLEY":" ","HOUSE_NO":"３１６號","E_COORD97":171287.53,"N_COORD97":2545437.7400000002,"ADDRESS":"中華二路３１６號","OBJECTID":572214},"geometry":{"x":171287.53000000119,"y":2545437.7400000021}},{"attributes":{"ID":572242,"DIS_CODE":0,"TOWNNAME":"新化區","LI":"東榮里","LIN":"29鄰","STREET":"中興路","SECT":" ","MAREA":" ","LANE":" ","ALLEY":" ","HOUSE_NO":"７７０號","E_COORD97":179325.51000000001,"N_COORD97":2548241.25,"ADDRESS":"中興路７７０號","OBJECTID":572215},"geometry":{"x":179325.51000000071,"y":2548241.2500000019}},{"attributes":{"ID":572243,"DIS_CODE":0,"TOWNNAME":"佳里區","LI":"建南里","LIN":"29鄰","STREET":"祥和一街","SECT":" ","MAREA":" ","LANE":" ","ALLEY":" ","HOUSE_NO":"２４０號","E_COORD97":165918.70999999999,"N_COORD97":2561073.3100000001,"ADDRESS":"祥和一街２４０號","OBJECTID":572216},"geometry":{"x":165918.71000000089,"y":2561073.3100000024}},{"attributes":{"ID":572244,"DIS_CODE":0,"TOWNNAME":"佳里區","LI":"建南里","LIN":"29鄰","STREET":"祥和一街","SECT":" ","MAREA":" ","LANE":" ","ALLEY":" ","HOUSE_NO":"２４２號","E_COORD97":165893.79999999999,"N_COORD97":2561064.6899999999,"ADDRESS":"祥和一街２４２號","OBJECTID":572217},"geometry":{"x":165893.80000000168,"y":2561064.6899999995}},{"attributes":{"ID":572245,"DIS_CODE":0,"TOWNNAME":"佳里區","LI":"建南里","LIN":"29鄰","STREET":"祥和一街","SECT":" ","MAREA":" ","LANE":" ","ALLEY":" ","HOUSE_NO":"２５０號","E_COORD97":165879.45000000001,"N_COORD97":2561069.6600000001,"ADDRESS":"祥和一街２５０號","OBJECTID":572218},"geometry":{"x":165879.44999999925,"y":2561069.6600000001}},{"attributes":{"ID":572246,"DIS_CODE":0,"TOWNNAME":"佳里區","LI":"建南里","LIN":"29鄰","STREET":"祥和一街","SECT":" ","MAREA":" ","LANE":" ","ALLEY":" ","HOUSE_NO":"２５２號","E_COORD97":165874.63,"N_COORD97":2561068.54,"ADDRESS":"祥和一街２５２號","OBJECTID":572219},"geometry":{"x":165874.63000000175,"y":2561068.5399999991}},{"attributes":{"ID":572247,"DIS_CODE":0,"TOWNNAME":"佳里區","LI":"建南里","LIN":"29鄰","STREET":"祥和一街","SECT":" ","MAREA":" ","LANE":" ","ALLEY":" ","HOUSE_NO":"２５４號","E_COORD97":165869.59,"N_COORD97":2561067.3700000001,"ADDRESS":"祥和一街２５４號","OBJECTID":572220},"geometry":{"x":165869.58999999985,"y":2561067.3700000029}},{"attributes":{"ID":572248,"DIS_CODE":0,"TOWNNAME":"佳里區","LI":"建南里","LIN":"29鄰","STREET":"祥和一街","SECT":" ","MAREA":" ","LANE":" ","ALLEY":" ","HOUSE_NO":"２５５號","E_COORD97":165864.67999999999,"N_COORD97":2561047.1800000002,"ADDRESS":"祥和一街２５５號","OBJECTID":572221},"geometry":{"x":165864.68000000063,"y":2561047.1800000016}},{"attributes":{"ID":572249,"DIS_CODE":0,"TOWNNAME":"佳里區","LI":"建南里","LIN":"29鄰","STREET":"祥和一街","SECT":" ","MAREA":" ","LANE":" ","ALLEY":" ","HOUSE_NO":"２５６號","E_COORD97":165864.23000000001,"N_COORD97":2561066.7999999998,"ADDRESS":"祥和一街２５６號","OBJECTID":572222},"geometry":{"x":165864.23000000045,"y":2561066.8000000026}},{"attributes":{"ID":572250,"DIS_CODE":0,"TOWNNAME":"佳里區","LI":"建南里","LIN":"29鄰","STREET":"祥和一街","SECT":" ","MAREA":" ","LANE":" ","ALLEY":" ","HOUSE_NO":"２５７號","E_COORD97":165859.92000000001,"N_COORD97":2561046.6400000001,"ADDRESS":"祥和一街２５７號","OBJECTID":572223},"geometry":{"x":165859.92000000086,"y":2561046.6400000006}},{"attributes":{"ID":572251,"DIS_CODE":0,"TOWNNAME":"佳里區","LI":"建南里","LIN":"29鄰","STREET":"祥和一街","SECT":" ","MAREA":" ","LANE":" ","ALLEY":" ","HOUSE_NO":"２５９號","E_COORD97":165855.97,"N_COORD97":2561045.8300000001,"ADDRESS":"祥和一街２５９號","OBJECTID":572224},"geometry":{"x":165855.97000000067,"y":2561045.8300000019}},{"attributes":{"ID":572252,"DIS_CODE":0,"TOWNNAME":"佳里區","LI":"建南里","LIN":"29鄰","STREET":"祥和一街","SECT":" ","MAREA":" ","LANE":" ","ALLEY":" ","HOUSE_NO":"２６１號","E_COORD97":165851.89999999999,"N_COORD97":2561045.1699999999,"ADDRESS":"祥和一街２６１號","OBJECTID":572225},"geometry":{"x":165851.9000000013,"y":2561045.1699999999}},{"attributes":{"ID":572253,"DIS_CODE":0,"TOWNNAME":"佳里區","LI":"建南里","LIN":"29鄰","STREET":"祥和一街","SECT":" ","MAREA":" ","LANE":" ","ALLEY":" ","HOUSE_NO":"２６２號","E_COORD97":165800.69,"N_COORD97":2561055.27,"ADDRESS":"祥和一街２６２號","OBJECTID":572226},"geometry":{"x":165800.69000000134,"y":2561055.2700000033}},{"attributes":{"ID":572254,"DIS_CODE":0,"TOWNNAME":"佳里區","LI":"建南里","LIN":"29鄰","STREET":"祥和一街","SECT":" ","MAREA":" ","LANE":" ","ALLEY":" ","HOUSE_NO":"２６３號","E_COORD97":165847.92000000001,"N_COORD97":2561044.5699999998,"ADDRESS":"祥和一街２６３號","OBJECTID":572227},"geometry":{"x":165847.92000000086,"y":2561044.5700000022}},{"attributes":{"ID":572255,"DIS_CODE":0,"TOWNNAME":"佳里區","LI":"建南里","LIN":"29鄰","STREET":"祥和二街","SECT":" ","MAREA":" ","LANE":" ","ALLEY":" ","HOUSE_NO":"５７號","E_COORD97":165928.39000000001,"N_COORD97":2561151.5800000001,"ADDRESS":"祥和二街５７號","OBJECTID":572228},"geometry":{"x":165928.38999999966,"y":2561151.5800000001}},{"attributes":{"ID":572256,"DIS_CODE":0,"TOWNNAME":"佳里區","LI":"建南里","LIN":"29鄰","STREET":"祥和二街","SECT":" ","MAREA":" ","LANE":" ","ALLEY":" ","HOUSE_NO":"５９號","E_COORD97":165928.66,"N_COORD97":2561146.1299999999,"ADDRESS":"祥和二街５９號","OBJECTID":572229},"geometry":{"x":165928.66000000015,"y":2561146.129999999}},{"attributes":{"ID":572257,"DIS_CODE":0,"TOWNNAME":"佳里區","LI":"建南里","LIN":"29鄰","STREET":"祥和二街","SECT":" ","MAREA":" ","LANE":" ","ALLEY":" ","HOUSE_NO":"６１號","E_COORD97":165928.72,"N_COORD97":2561141,"ADDRESS":"祥和二街６１號","OBJECTID":572230},"geometry":{"x":165928.72000000067,"y":2561141}},{"attributes":{"ID":572258,"DIS_CODE":0,"TOWNNAME":"佳里區","LI":"建南里","LIN":"29鄰","STREET":"祥和二街","SECT":" ","MAREA":" ","LANE":" ","ALLEY":" ","HOUSE_NO":"６３號","E_COORD97":165928.97,"N_COORD97":2561134.8999999999,"ADDRESS":"祥和二街６３號","OBJECTID":572231},"geometry":{"x":165928.96999999974,"y":2561134.9000000004}},{"attributes":{"ID":572259,"DIS_CODE":0,"TOWNNAME":"佳里區","LI":"建南里","LIN":"29鄰","STREET":"祥和二街","SECT":" ","MAREA":" ","LANE":" ","ALLEY":" ","HOUSE_NO":"６５號","E_COORD97":165928.89999999999,"N_COORD97":2561129.9399999999,"ADDRESS":"祥和二街６５號","OBJECTID":572232},"geometry":{"x":165928.90000000037,"y":2561129.9400000013}},{"attributes":{"ID":572260,"DIS_CODE":0,"TOWNNAME":"佳里區","LI":"建南里","LIN":"29鄰","STREET":"祥和二街","SECT":" ","MAREA":" ","LANE":" ","ALLEY":" ","HOUSE_NO":"６７號","E_COORD97":165929.69,"N_COORD97":2561125.27,"ADDRESS":"祥和二街６７號","OBJECTID":572233},"geometry":{"x":165929.69000000134,"y":2561125.2699999996}},{"attributes":{"ID":572261,"DIS_CODE":0,"TOWNNAME":"佳里區","LI":"建南里","LIN":"29鄰","STREET":"祥和二街","SECT":" ","MAREA":" ","LANE":" ","ALLEY":" ","HOUSE_NO":"６９號","E_COORD97":165929.67000000001,"N_COORD97":2561120.3100000001,"ADDRESS":"祥和二街６９號","OBJECTID":572234},"geometry":{"x":165929.66999999993,"y":2561120.3100000042}},{"attributes":{"ID":572262,"DIS_CODE":0,"TOWNNAME":"佳里區","LI":"建南里","LIN":"29鄰","STREET":"祥和二街","SECT":" ","MAREA":" ","LANE":" ","ALLEY":" ","HOUSE_NO":"７１號","E_COORD97":165929.95000000001,"N_COORD97":2561114.9300000002,"ADDRESS":"祥和二街７１號","OBJECTID":572235},"geometry":{"x":165929.95000000019,"y":2561114.9299999997}},{"attributes":{"ID":572263,"DIS_CODE":0,"TOWNNAME":"佳里區","LI":"建南里","LIN":"29鄰","STREET":"勝利路","SECT":" ","MAREA":" ","LANE":" ","ALLEY":" ","HOUSE_NO":"１４２號","E_COORD97":165949.62,"N_COORD97":2561156.3500000001,"ADDRESS":"勝利路１４２號","OBJECTID":572236},"geometry":{"x":165949.62000000197,"y":2561156.3500000034}},{"attributes":{"ID":572264,"DIS_CODE":0,"TOWNNAME":"佳里區","LI":"建南里","LIN":"29鄰","STREET":"勝利路","SECT":" ","MAREA":" ","LANE":" ","ALLEY":" ","HOUSE_NO":"１５０號","E_COORD97":165958.37,"N_COORD97":2561135.6800000002,"ADDRESS":"勝利路１５０號","OBJECTID":572237},"geometry":{"x":165958.37000000104,"y":2561135.6799999997}},{"attributes":{"ID":572265,"DIS_CODE":0,"TOWNNAME":"佳里區","LI":"建南里","LIN":"29鄰","STREET":"勝利路","SECT":" ","MAREA":" ","LANE":" ","ALLEY":" ","HOUSE_NO":"１５２號","E_COORD97":165960.51000000001,"N_COORD97":2561130.3599999999,"ADDRESS":"勝利路１５２號","OBJECTID":572238},"geometry":{"x":165960.51000000071,"y":2561130.3600000013}},{"attributes":{"ID":572266,"DIS_CODE":0,"TOWNNAME":"歸仁區","LI":"南興里","LIN":"29鄰","STREET":"保興一街","SECT":" ","MAREA":" ","LANE":" ","ALLEY":" ","HOUSE_NO":"１２號","E_COORD97":176457.42999999999,"N_COORD97":2541133.25,"ADDRESS":"保興一街１２號","OBJECTID":572239},"geometry":{"x":176457.43000000063,"y":2541133.25}},{"attributes":{"ID":572267,"DIS_CODE":0,"TOWNNAME":"歸仁區","LI":"南興里","LIN":"29鄰","STREET":"保興一街","SECT":" ","MAREA":" ","LANE":" ","ALLEY":" ","HOUSE_NO":"１０號","E_COORD97":176461.53,"N_COORD97":2541133.25,"ADDRESS":"保興一街１０號","OBJECTID":572240},"geometry":{"x":176461.53000000026,"y":2541133.25}},{"attributes":{"ID":572268,"DIS_CODE":0,"TOWNNAME":"歸仁區","LI":"許厝里","LIN":"29鄰","STREET":"中山路","SECT":"一段","MAREA":" ","LANE":" ","ALLEY":" ","HOUSE_NO":"５２１號","E_COORD97":177941.16,"N_COORD97":2540722.8199999998,"ADDRESS":"中山路一段５２１號","OBJECTID":572241},"geometry":{"x":177941.16000000201,"y":2540722.8200000003}},{"attributes":{"ID":572269,"DIS_CODE":0,"TOWNNAME":"東區","LI":"忠孝里","LIN":"35鄰","STREET":"崇明路","SECT":" ","MAREA":" ","LANE":" ","ALLEY":" ","HOUSE_NO":"３０號","E_COORD97":169637.01000000001,"N_COORD97":2542433.6499999999,"ADDRESS":"崇明路３０號","OBJECTID":572242},"geometry":{"x":169637.01000000164,"y":2542433.6500000041}},{"attributes":{"ID":572270,"DIS_CODE":0,"TOWNNAME":"歸仁區","LI":"崙頂里","LIN":"29鄰","STREET":"成功十街","SECT":" ","MAREA":" ","LANE":" ","ALLEY":" ","HOUSE_NO":"２１號","E_COORD97":177767.03,"N_COORD97":2539675.25,"ADDRESS":"成功十街２１號","OBJECTID":572243},"geometry":{"x":177767.03000000026,"y":2539675.25}},{"attributes":{"ID":572271,"DIS_CODE":0,"TOWNNAME":"歸仁區","LI":"許厝里","LIN":"29鄰","STREET":"大智街","SECT":" ","MAREA":" ","LANE":" ","ALLEY":" ","HOUSE_NO":"４５號","E_COORD97":177926.76999999999,"N_COORD97":2540626.5299999998,"ADDRESS":"大智街４５號","OBJECTID":572244},"geometry":{"x":177926.77000000048,"y":2540626.5300000012}},{"attributes":{"ID":572272,"DIS_CODE":0,"TOWNNAME":"歸仁區","LI":"辜厝里","LIN":"29鄰","STREET":"大順三街","SECT":" ","MAREA":" ","LANE":" ","ALLEY":" ","HOUSE_NO":"３８號","E_COORD97":177376.03,"N_COORD97":2540521.9500000002,"ADDRESS":"大順三街３８號","OBJECTID":572245},"geometry":{"x":177376.03000000119,"y":2540521.9500000011}},{"attributes":{"ID":572273,"DIS_CODE":0,"TOWNNAME":"歸仁區","LI":"許厝里","LIN":"29鄰","STREET":"中山路","SECT":"一段","MAREA":" ","LANE":" ","ALLEY":" ","HOUSE_NO":"５０７號","E_COORD97":177978.06,"N_COORD97":2540715.8199999998,"ADDRESS":"中山路一段５０７號","OBJECTID":572246},"geometry":{"x":177978.05999999959,"y":2540715.8200000003}},{"attributes":{"ID":572274,"DIS_CODE":0,"TOWNNAME":"歸仁區","LI":"辜厝里","LIN":"29鄰","STREET":"大順三街","SECT":" ","MAREA":" ","LANE":" ","ALLEY":" ","HOUSE_NO":"２８號","E_COORD97":177335.04000000001,"N_COORD97":2540521.6800000002,"ADDRESS":"大順三街２８號","OBJECTID":572247},"geometry":{"x":177335.04000000097,"y":2540521.6800000016}},{"attributes":{"ID":572275,"DIS_CODE":0,"TOWNNAME":"歸仁區","LI":"新厝里","LIN":"29鄰","STREET":"中正南路","SECT":"一段","MAREA":" ","LANE":" ","ALLEY":" ","HOUSE_NO":"４５７號","E_COORD97":176915.22,"N_COORD97":2540034.79,"ADDRESS":"中正南路一段４５７號","OBJECTID":572248},"geometry":{"x":176915.22000000067,"y":2540034.790000001}},{"attributes":{"ID":572276,"DIS_CODE":0,"TOWNNAME":"歸仁區","LI":"崙頂里","LIN":"29鄰","STREET":"凱旋路","SECT":"二段","MAREA":" ","LANE":" ","ALLEY":" ","HOUSE_NO":"８０號","E_COORD97":177294.73000000001,"N_COORD97":2539446.25,"ADDRESS":"凱旋路二段８０號","OBJECTID":572249},"geometry":{"x":177294.73000000045,"y":2539446.2500000019}},{"attributes":{"ID":572277,"DIS_CODE":0,"TOWNNAME":"歸仁區","LI":"崙頂里","LIN":"29鄰","STREET":"成功路","SECT":"二段","MAREA":" ","LANE":" ","ALLEY":" ","HOUSE_NO":"２６６號","E_COORD97":177745.73000000001,"N_COORD97":2539615.25,"ADDRESS":"成功路二段２６６號","OBJECTID":572250},"geometry":{"x":177745.73000000045,"y":2539615.2500000037}},{"attributes":{"ID":572278,"DIS_CODE":0,"TOWNNAME":"安平區","LI":"育平里","LIN":"29鄰","STREET":"平豐路","SECT":" ","MAREA":" ","LANE":" ","ALLEY":" ","HOUSE_NO":"１５０號","E_COORD97":164336.67999999999,"N_COORD97":2543179.98,"ADDRESS":"平豐路１５０號","OBJECTID":572251},"geometry":{"x":164336.68000000156,"y":2543179.9800000004}},{"attributes":{"ID":572279,"DIS_CODE":0,"TOWNNAME":"新營區","LI":"新南里","LIN":"29鄰","STREET":"明清一街","SECT":" ","MAREA":" ","LANE":" ","ALLEY":" ","HOUSE_NO":"７８號","E_COORD97":178015.10000000001,"N_COORD97":2578695.1899999999,"ADDRESS":"明清一街７８號","OBJECTID":572252},"geometry":{"x":178015.09999999963,"y":2578695.1899999995}},{"attributes":{"ID":572280,"DIS_CODE":0,"TOWNNAME":"新營區","LI":"新南里","LIN":"29鄰","STREET":"明清一街","SECT":" ","MAREA":" ","LANE":" ","ALLEY":" ","HOUSE_NO":"１３６之４號","E_COORD97":178089.41,"N_COORD97":2578697.1099999999,"ADDRESS":"明清一街１３６之４號","OBJECTID":572253},"geometry":{"x":178089.41000000015,"y":2578697.1100000013}},{"attributes":{"ID":572281,"DIS_CODE":0,"TOWNNAME":"新營區","LI":"新南里","LIN":"29鄰","STREET":"明清一街","SECT":" ","MAREA":" ","LANE":" ","ALLEY":" ","HOUSE_NO":"６６號","E_COORD97":178018.06,"N_COORD97":2578677.46,"ADDRESS":"明清一街６６號","OBJECTID":572254},"geometry":{"x":178018.06000000052,"y":2578677.4600000009}},{"attributes":{"ID":572282,"DIS_CODE":0,"TOWNNAME":"新營區","LI":"民榮里","LIN":"29鄰","STREET":"太子路","SECT":" ","MAREA":" ","LANE":" ","ALLEY":" ","HOUSE_NO":"６２號","E_COORD97":178238.06,"N_COORD97":2578060.6400000001,"ADDRESS":"太子路６２號","OBJECTID":572255},"geometry":{"x":178238.06000000052,"y":2578060.6400000025}},{"attributes":{"ID":572283,"DIS_CODE":0,"TOWNNAME":"新營區","LI":"新南里","LIN":"29鄰","STREET":"明清一街","SECT":" ","MAREA":" ","LANE":" ","ALLEY":" ","HOUSE_NO":"３號","E_COORD97":178156.88,"N_COORD97":2578646.8799999999,"ADDRESS":"明清一街３號","OBJECTID":572256},"geometry":{"x":178156.88000000082,"y":2578646.8800000008}},{"attributes":{"ID":572284,"DIS_CODE":0,"TOWNNAME":"新營區","LI":"大宏里","LIN":"29鄰","STREET":"大同路","SECT":" ","MAREA":" ","LANE":" ","ALLEY":" ","HOUSE_NO":"１８之８號","E_COORD97":180771.14999999999,"N_COORD97":2578712.0099999998,"ADDRESS":"大同路１８之８號","OBJECTID":572257},"geometry":{"x":180771.1500000013,"y":2578712.0100000016}},{"attributes":{"ID":572285,"DIS_CODE":0,"TOWNNAME":"新營區","LI":"新南里","LIN":"29鄰","STREET":"明清一街","SECT":" ","MAREA":" ","LANE":" ","ALLEY":" ","HOUSE_NO":"６０號","E_COORD97":178036.47,"N_COORD97":2578676.2599999998,"ADDRESS":"明清一街６０號","OBJECTID":572258},"geometry":{"x":178036.46999999974,"y":2578676.2600000016}},{"attributes":{"ID":572286,"DIS_CODE":0,"TOWNNAME":"新營區","LI":"民生里","LIN":"29鄰","STREET":"民治路","SECT":" ","MAREA":" ","LANE":" ","ALLEY":" ","HOUSE_NO":"２２１號","E_COORD97":178777.88,"N_COORD97":2578372.5600000001,"ADDRESS":"民治路２２１號","OBJECTID":572259},"geometry":{"x":178777.87999999989,"y":2578372.5600000042}},{"attributes":{"ID":572287,"DIS_CODE":0,"TOWNNAME":"安平區","LI":"華平里","LIN":"29鄰","STREET":"永華八街","SECT":" ","MAREA":" ","LANE":" ","ALLEY":" ","HOUSE_NO":"２００號","E_COORD97":165167.87,"N_COORD97":2543753.5,"ADDRESS":"永華八街２００號","OBJECTID":572260},"geometry":{"x":165167.87000000011,"y":2543753.5000000019}},{"attributes":{"ID":572288,"DIS_CODE":0,"TOWNNAME":"安平區","LI":"華平里","LIN":"29鄰","STREET":"永華八街","SECT":" ","MAREA":" ","LANE":" ","ALLEY":" ","HOUSE_NO":"１８４號","E_COORD97":165162.54000000001,"N_COORD97":2543706.46,"ADDRESS":"永華八街１８４號","OBJECTID":572261},"geometry":{"x":165162.54000000097,"y":2543706.4600000009}},{"attributes":{"ID":572289,"DIS_CODE":0,"TOWNNAME":"安平區","LI":"華平里","LIN":"29鄰","STREET":"永華八街","SECT":" ","MAREA":" ","LANE":" ","ALLEY":" ","HOUSE_NO":"１３８號","E_COORD97":165149.23000000001,"N_COORD97":2543604.27,"ADDRESS":"永華八街１３８號","OBJECTID":572262},"geometry":{"x":165149.23000000138,"y":2543604.2699999996}},{"attributes":{"ID":572290,"DIS_CODE":0,"TOWNNAME":"安平區","LI":"華平里","LIN":"29鄰","STREET":"永華八街","SECT":" ","MAREA":" ","LANE":" ","ALLEY":" ","HOUSE_NO":"１４０號","E_COORD97":165148.88,"N_COORD97":2543610.48,"ADDRESS":"永華八街１４０號","OBJECTID":572263},"geometry":{"x":165148.87999999989,"y":2543610.4800000004}},{"attributes":{"ID":572291,"DIS_CODE":0,"TOWNNAME":"安平區","LI":"華平里","LIN":"29鄰","STREET":"永華八街","SECT":" ","MAREA":" ","LANE":" ","ALLEY":" ","HOUSE_NO":"１４２號","E_COORD97":165149.23000000001,"N_COORD97":2543612.8999999999,"ADDRESS":"永華八街１４２號","OBJECTID":572264},"geometry":{"x":165149.23000000138,"y":2543612.9000000022}},{"attributes":{"ID":572292,"DIS_CODE":0,"TOWNNAME":"安平區","LI":"華平里","LIN":"29鄰","STREET":"永華八街","SECT":" ","MAREA":" ","LANE":" ","ALLEY":" ","HOUSE_NO":"１４６號","E_COORD97":165150.78,"N_COORD97":2543621.7000000002,"ADDRESS":"永華八街１４６號","OBJECTID":572265},"geometry":{"x":165150.78000000119,"y":2543621.6999999993}},{"attributes":{"ID":572293,"DIS_CODE":0,"TOWNNAME":"安平區","LI":"華平里","LIN":"29鄰","STREET":"永華八街","SECT":" ","MAREA":" ","LANE":" ","ALLEY":" ","HOUSE_NO":"１４８號","E_COORD97":165151.29999999999,"N_COORD97":2543627.2200000002,"ADDRESS":"永華八街１４８號","OBJECTID":572266},"geometry":{"x":165151.30000000168,"y":2543627.2200000025}},{"attributes":{"ID":572294,"DIS_CODE":0,"TOWNNAME":"安平區","LI":"華平里","LIN":"29鄰","STREET":"永華八街","SECT":" ","MAREA":" ","LANE":" ","ALLEY":" ","HOUSE_NO":"１５０號","E_COORD97":165151.64999999999,"N_COORD97":2543631.1800000002,"ADDRESS":"永華八街１５０號","OBJECTID":572267},"geometry":{"x":165151.6500000013,"y":2543631.1799999997}},{"attributes":{"ID":572295,"DIS_CODE":0,"TOWNNAME":"安平區","LI":"華平里","LIN":"29鄰","STREET":"永華八街","SECT":" ","MAREA":" ","LANE":" ","ALLEY":" ","HOUSE_NO":"１５２號","E_COORD97":165152.51000000001,"N_COORD97":2543635.5,"ADDRESS":"永華八街１５２號","OBJECTID":572268},"geometry":{"x":165152.50999999978,"y":2543635.5000000019}},{"attributes":{"ID":572296,"DIS_CODE":0,"TOWNNAME":"安平區","LI":"華平里","LIN":"29鄰","STREET":"永華八街","SECT":" ","MAREA":" ","LANE":" ","ALLEY":" ","HOUSE_NO":"１５４號","E_COORD97":165153.20000000001,"N_COORD97":2543640.3300000001,"ADDRESS":"永華八街１５４號","OBJECTID":572269},"geometry":{"x":165153.20000000019,"y":2543640.3300000019}},{"attributes":{"ID":572297,"DIS_CODE":0,"TOWNNAME":"安平區","LI":"華平里","LIN":"29鄰","STREET":"永華八街","SECT":" ","MAREA":" ","LANE":" ","ALLEY":" ","HOUSE_NO":"１５６號","E_COORD97":165153.38,"N_COORD97":2543643.7200000002,"ADDRESS":"永華八街１５６號","OBJECTID":572270},"geometry":{"x":165153.37999999989,"y":2543643.7200000044}},{"attributes":{"ID":572298,"DIS_CODE":0,"TOWNNAME":"安平區","LI":"華平里","LIN":"29鄰","STREET":"永華八街","SECT":" ","MAREA":" ","LANE":" ","ALLEY":" ","HOUSE_NO":"１５８號","E_COORD97":165154.76000000001,"N_COORD97":2543648.5499999998,"ADDRESS":"永華八街１５８號","OBJECTID":572271},"geometry":{"x":165154.75999999885,"y":2543648.5500000045}},{"attributes":{"ID":572299,"DIS_CODE":0,"TOWNNAME":"安平區","LI":"華平里","LIN":"29鄰","STREET":"永華八街","SECT":" ","MAREA":" ","LANE":" ","ALLEY":" ","HOUSE_NO":"１６０號","E_COORD97":165155.45000000001,"N_COORD97":2543653.3799999999,"ADDRESS":"永華八街１６０號","OBJECTID":572272},"geometry":{"x":165155.45000000019,"y":2543653.379999999}},{"attributes":{"ID":572300,"DIS_CODE":0,"TOWNNAME":"安平區","LI":"華平里","LIN":"29鄰","STREET":"永華八街","SECT":" ","MAREA":" ","LANE":" ","ALLEY":" ","HOUSE_NO":"１６２號","E_COORD97":165155.45000000001,"N_COORD97":2543657.8700000001,"ADDRESS":"永華八街１６２號","OBJECTID":572273},"geometry":{"x":165155.45000000019,"y":2543657.8700000029}},{"attributes":{"ID":572301,"DIS_CODE":0,"TOWNNAME":"安平區","LI":"華平里","LIN":"29鄰","STREET":"永華八街","SECT":" ","MAREA":" ","LANE":" ","ALLEY":" ","HOUSE_NO":"１６４號","E_COORD97":165155.79999999999,"N_COORD97":2543662.3500000001,"ADDRESS":"永華八街１６４號","OBJECTID":572274},"geometry":{"x":165155.79999999981,"y":2543662.3500000034}},{"attributes":{"ID":572302,"DIS_CODE":0,"TOWNNAME":"安平區","LI":"華平里","LIN":"29鄰","STREET":"永華八街","SECT":" ","MAREA":" ","LANE":" ","ALLEY":" ","HOUSE_NO":"１６６號","E_COORD97":165156.48999999999,"N_COORD97":2543667.0099999998,"ADDRESS":"永華八街１６６號","OBJECTID":572275},"geometry":{"x":165156.49000000022,"y":2543667.0099999998}},{"attributes":{"ID":572303,"DIS_CODE":0,"TOWNNAME":"安平區","LI":"華平里","LIN":"29鄰","STREET":"永華八街","SECT":" ","MAREA":" ","LANE":" ","ALLEY":" ","HOUSE_NO":"１６８號","E_COORD97":165157.01000000001,"N_COORD97":2543671.4900000002,"ADDRESS":"永華八街１６８號","OBJECTID":572276},"geometry":{"x":165157.01000000071,"y":2543671.4900000002}},{"attributes":{"ID":572304,"DIS_CODE":0,"TOWNNAME":"安平區","LI":"華平里","LIN":"29鄰","STREET":"永華八街","SECT":" ","MAREA":" ","LANE":" ","ALLEY":" ","HOUSE_NO":"１７０號","E_COORD97":165158.04000000001,"N_COORD97":2543675.6299999999,"ADDRESS":"永華八街１７０號","OBJECTID":572277},"geometry":{"x":165158.04000000004,"y":2543675.629999999}},{"attributes":{"ID":572305,"DIS_CODE":0,"TOWNNAME":"安平區","LI":"華平里","LIN":"29鄰","STREET":"永華八街","SECT":" ","MAREA":" ","LANE":" ","ALLEY":" ","HOUSE_NO":"１７２號","E_COORD97":165158.56,"N_COORD97":2543679.9399999999,"ADDRESS":"永華八街１７２號","OBJECTID":572278},"geometry":{"x":165158.56000000052,"y":2543679.9400000013}},{"attributes":{"ID":572306,"DIS_CODE":0,"TOWNNAME":"安平區","LI":"華平里","LIN":"29鄰","STREET":"永華八街","SECT":" ","MAREA":" ","LANE":" ","ALLEY":" ","HOUSE_NO":"１７４號","E_COORD97":165158.91,"N_COORD97":2543684.4300000002,"ADDRESS":"永華八街１７４號","OBJECTID":572279},"geometry":{"x":165158.91000000015,"y":2543684.4299999997}},{"attributes":{"ID":572307,"DIS_CODE":0,"TOWNNAME":"安平區","LI":"華平里","LIN":"29鄰","STREET":"永華八街","SECT":" ","MAREA":" ","LANE":" ","ALLEY":" ","HOUSE_NO":"１７６號","E_COORD97":165159.25,"N_COORD97":2543689.2599999998,"ADDRESS":"永華八街１７６號","OBJECTID":572280},"geometry":{"x":165159.25000000093,"y":2543689.2599999998}},{"attributes":{"ID":572308,"DIS_CODE":0,"TOWNNAME":"安平區","LI":"華平里","LIN":"29鄰","STREET":"永華八街","SECT":" ","MAREA":" ","LANE":" ","ALLEY":" ","HOUSE_NO":"１７８號","E_COORD97":165159.94,"N_COORD97":2543693.0499999998,"ADDRESS":"永華八街１７８號","OBJECTID":572281},"geometry":{"x":165159.94000000134,"y":2543693.0500000026}},{"attributes":{"ID":572309,"DIS_CODE":0,"TOWNNAME":"安平區","LI":"華平里","LIN":"29鄰","STREET":"永華八街","SECT":" ","MAREA":" ","LANE":" ","ALLEY":" ","HOUSE_NO":"１８０號","E_COORD97":165160.98000000001,"N_COORD97":2543697.54,"ADDRESS":"永華八街１８０號","OBJECTID":572282},"geometry":{"x":165160.98000000231,"y":2543697.5400000028}},{"attributes":{"ID":572310,"DIS_CODE":0,"TOWNNAME":"安平區","LI":"華平里","LIN":"29鄰","STREET":"永華八街","SECT":" ","MAREA":" ","LANE":" ","ALLEY":" ","HOUSE_NO":"１８２號","E_COORD97":165161.85000000001,"N_COORD97":2543701.46,"ADDRESS":"永華八街１８２號","OBJECTID":572283},"geometry":{"x":165161.84999999963,"y":2543701.4600000028}},{"attributes":{"ID":572311,"DIS_CODE":0,"TOWNNAME":"安平區","LI":"華平里","LIN":"29鄰","STREET":"永華八街","SECT":" ","MAREA":" ","LANE":" ","ALLEY":" ","HOUSE_NO":"１８６號","E_COORD97":165163.39999999999,"N_COORD97":2543710.9500000002,"ADDRESS":"永華八街１８６號","OBJECTID":572284},"geometry":{"x":165163.4000000013,"y":2543710.9499999993}},{"attributes":{"ID":572312,"DIS_CODE":0,"TOWNNAME":"安平區","LI":"華平里","LIN":"29鄰","STREET":"永華八街","SECT":" ","MAREA":" ","LANE":" ","ALLEY":" ","HOUSE_NO":"１８８號","E_COORD97":165163.92000000001,"N_COORD97":2543715.2599999998,"ADDRESS":"永華八街１８８號","OBJECTID":572285},"geometry":{"x":165163.91999999993,"y":2543715.2600000016}},{"attributes":{"ID":572313,"DIS_CODE":0,"TOWNNAME":"安平區","LI":"華平里","LIN":"29鄰","STREET":"永華八街","SECT":" ","MAREA":" ","LANE":" ","ALLEY":" ","HOUSE_NO":"１９０號","E_COORD97":165164.60999999999,"N_COORD97":2543719.3999999999,"ADDRESS":"永華八街１９０號","OBJECTID":572286},"geometry":{"x":165164.61000000034,"y":2543719.4000000004}},{"attributes":{"ID":572314,"DIS_CODE":0,"TOWNNAME":"安平區","LI":"華平里","LIN":"29鄰","STREET":"永華八街","SECT":" ","MAREA":" ","LANE":" ","ALLEY":" ","HOUSE_NO":"１９２號","E_COORD97":165166.17000000001,"N_COORD97":2543723.71,"ADDRESS":"永華八街１９２號","OBJECTID":572287},"geometry":{"x":165166.17000000086,"y":2543723.7100000028}},{"attributes":{"ID":572315,"DIS_CODE":0,"TOWNNAME":"安平區","LI":"華平里","LIN":"29鄰","STREET":"永華八街","SECT":" ","MAREA":" ","LANE":" ","ALLEY":" ","HOUSE_NO":"１９４號","E_COORD97":165165.97,"N_COORD97":2543738.8300000001,"ADDRESS":"永華八街１９４號","OBJECTID":572288},"geometry":{"x":165165.97000000067,"y":2543738.8300000019}},{"attributes":{"ID":572316,"DIS_CODE":0,"TOWNNAME":"安平區","LI":"華平里","LIN":"29鄰","STREET":"永華八街","SECT":" ","MAREA":" ","LANE":" ","ALLEY":" ","HOUSE_NO":"１９６號","E_COORD97":165166.48999999999,"N_COORD97":2543745.2200000002,"ADDRESS":"永華八街１９６號","OBJECTID":572289},"geometry":{"x":165166.49000000115,"y":2543745.2199999988}},{"attributes":{"ID":572317,"DIS_CODE":0,"TOWNNAME":"安平區","LI":"華平里","LIN":"29鄰","STREET":"永華八街","SECT":" ","MAREA":" ","LANE":" ","ALLEY":" ","HOUSE_NO":"１９８號","E_COORD97":165167.17999999999,"N_COORD97":2543749.5299999998,"ADDRESS":"永華八街１９８號","OBJECTID":572290},"geometry":{"x":165167.18000000156,"y":2543749.5300000012}},{"attributes":{"ID":572318,"DIS_CODE":0,"TOWNNAME":"安平區","LI":"華平里","LIN":"29鄰","STREET":"永華八街","SECT":" ","MAREA":" ","LANE":" ","ALLEY":" ","HOUSE_NO":"２０２號","E_COORD97":165168.39000000001,"N_COORD97":2543757.98,"ADDRESS":"永華八街２０２號","OBJECTID":572291},"geometry":{"x":165168.38999999966,"y":2543757.9800000023}},{"attributes":{"ID":572319,"DIS_CODE":0,"TOWNNAME":"安平區","LI":"華平里","LIN":"29鄰","STREET":"永華八街","SECT":" ","MAREA":" ","LANE":" ","ALLEY":" ","HOUSE_NO":"２０４號","E_COORD97":165168.73999999999,"N_COORD97":2543762.29,"ADDRESS":"永華八街２０４號","OBJECTID":572292},"geometry":{"x":165168.74000000022,"y":2543762.2899999991}},{"attributes":{"ID":572320,"DIS_CODE":0,"TOWNNAME":"歸仁區","LI":"南興里","LIN":"29鄰","STREET":"保興街","SECT":" ","MAREA":" ","LANE":" ","ALLEY":" ","HOUSE_NO":"９１號","E_COORD97":176499.01999999999,"N_COORD97":2541136.25,"ADDRESS":"保興街９１號","OBJECTID":572293},"geometry":{"x":176499.02000000048,"y":2541136.25}},{"attributes":{"ID":572321,"DIS_CODE":0,"TOWNNAME":"歸仁區","LI":"南興里","LIN":"29鄰","STREET":"保興一街","SECT":" ","MAREA":" ","LANE":" ","ALLEY":" ","HOUSE_NO":"２０號","E_COORD97":176445.87,"N_COORD97":2541135.25,"ADDRESS":"保興一街２０號","OBJECTID":572294},"geometry":{"x":176445.87000000011,"y":2541135.2500000019}},{"attributes":{"ID":572322,"DIS_CODE":0,"TOWNNAME":"歸仁區","LI":"許厝里","LIN":"29鄰","STREET":"大智街","SECT":" ","MAREA":" ","LANE":" ","ALLEY":" ","HOUSE_NO":"３１號","E_COORD97":177930.97,"N_COORD97":2540655.52,"ADDRESS":"大智街３１號","OBJECTID":572295},"geometry":{"x":177930.96999999974,"y":2540655.5199999996}},{"attributes":{"ID":572323,"DIS_CODE":0,"TOWNNAME":"歸仁區","LI":"許厝里","LIN":"29鄰","STREET":"信義南路","SECT":" ","MAREA":" ","LANE":" ","ALLEY":" ","HOUSE_NO":"２２號","E_COORD97":178010.92999999999,"N_COORD97":2540656.3900000001,"ADDRESS":"信義南路２２號","OBJECTID":572296},"geometry":{"x":178010.9299999997,"y":2540656.3900000025}},{"attributes":{"ID":572324,"DIS_CODE":0,"TOWNNAME":"歸仁區","LI":"南興里","LIN":"29鄰","STREET":"保興街","SECT":" ","MAREA":" ","LANE":" ","ALLEY":" ","HOUSE_NO":"１０１號","E_COORD97":176501.37,"N_COORD97":2541155.25,"ADDRESS":"保興街１０１號","OBJECTID":572297},"geometry":{"x":176501.37000000011,"y":2541155.2500000019}},{"attributes":{"ID":572325,"DIS_CODE":0,"TOWNNAME":"歸仁區","LI":"許厝里","LIN":"29鄰","STREET":"大智街","SECT":" ","MAREA":" ","LANE":" ","ALLEY":" ","HOUSE_NO":"９號","E_COORD97":177932.92000000001,"N_COORD97":2540696.5299999998,"ADDRESS":"大智街９號","OBJECTID":572298},"geometry":{"x":177932.92000000086,"y":2540696.5299999993}},{"attributes":{"ID":572326,"DIS_CODE":0,"TOWNNAME":"歸仁區","LI":"六甲里","LIN":"29鄰","STREET":"六甲路","SECT":" ","MAREA":" ","LANE":" ","ALLEY":" ","HOUSE_NO":"２６８號","E_COORD97":175831.47,"N_COORD97":2539223.25,"ADDRESS":"六甲路２６８號","OBJECTID":572299},"geometry":{"x":175831.4700000016,"y":2539223.2500000019}},{"attributes":{"ID":572327,"DIS_CODE":0,"TOWNNAME":"歸仁區","LI":"南興里","LIN":"29鄰","STREET":"保興一街","SECT":" ","MAREA":" ","LANE":" ","ALLEY":" ","HOUSE_NO":"６號","E_COORD97":176475.42000000001,"N_COORD97":2541133.25,"ADDRESS":"保興一街６號","OBJECTID":572300},"geometry":{"x":176475.41999999993,"y":2541133.25}},{"attributes":{"ID":572328,"DIS_CODE":0,"TOWNNAME":"歸仁區","LI":"南興里","LIN":"29鄰","STREET":"保興街","SECT":" ","MAREA":" ","LANE":" ","ALLEY":" ","HOUSE_NO":"９３號","E_COORD97":176500.01999999999,"N_COORD97":2541140.25,"ADDRESS":"保興街９３號","OBJECTID":572301},"geometry":{"x":176500.01999999955,"y":2541140.25}},{"attributes":{"ID":572329,"DIS_CODE":0,"TOWNNAME":"玉井區","LI":"玉田里","LIN":"29鄰","STREET":"中山路","SECT":" ","MAREA":" ","LANE":" ","ALLEY":" ","HOUSE_NO":"２４０之３號","E_COORD97":195304.35000000001,"N_COORD97":2557748.29,"ADDRESS":"中山路２４０之３號","OBJECTID":572302},"geometry":{"x":195304.34999999963,"y":2557748.2899999991}},{"attributes":{"ID":572330,"DIS_CODE":0,"TOWNNAME":"玉井區","LI":"玉田里","LIN":"29鄰","STREET":"仁愛街","SECT":" ","MAREA":" ","LANE":" ","ALLEY":" ","HOUSE_NO":"１４０號","E_COORD97":195390.89000000001,"N_COORD97":2557784.27,"ADDRESS":"仁愛街１４０號","OBJECTID":572303},"geometry":{"x":195390.88999999873,"y":2557784.2700000014}},{"attributes":{"ID":572331,"DIS_CODE":0,"TOWNNAME":"東區","LI":"新東里","LIN":"13鄰","STREET":"裕農路","SECT":" ","MAREA":" ","LANE":" ","ALLEY":" ","HOUSE_NO":"５３號","E_COORD97":170694.85999999999,"N_COORD97":2542925.4500000002,"ADDRESS":"裕農路５３號","OBJECTID":572304},"geometry":{"x":170694.86000000127,"y":2542925.450000003}},{"attributes":{"ID":572332,"DIS_CODE":0,"TOWNNAME":"東區","LI":"新東里","LIN":"13鄰","STREET":"裕農路","SECT":" ","MAREA":" ","LANE":" ","ALLEY":" ","HOUSE_NO":"５５號","E_COORD97":170699.32000000001,"N_COORD97":2542926.48,"ADDRESS":"裕農路５５號","OBJECTID":572305},"geometry":{"x":170699.3200000003,"y":2542926.4800000042}},{"attributes":{"ID":572333,"DIS_CODE":0,"TOWNNAME":"東區","LI":"新東里","LIN":"13鄰","STREET":"裕農路","SECT":" ","MAREA":" ","LANE":" ","ALLEY":" ","HOUSE_NO":"５７號","E_COORD97":170703.89000000001,"N_COORD97":2542928.0800000001,"ADDRESS":"裕農路５７號","OBJECTID":572306},"geometry":{"x":170703.89000000153,"y":2542928.0800000001}},{"attributes":{"ID":572334,"DIS_CODE":0,"TOWNNAME":"善化區","LI":"光文里","LIN":"8鄰","STREET":"光文路","SECT":" ","MAREA":" ","LANE":" ","ALLEY":" ","HOUSE_NO":"２０號","E_COORD97":178921.64999999999,"N_COORD97":2559260.7799999998,"ADDRESS":"光文路２０號","OBJECTID":572307},"geometry":{"x":178921.6500000013,"y":2559260.7799999993}},{"attributes":{"ID":572335,"DIS_CODE":0,"TOWNNAME":"東區","LI":"大德里","LIN":"8鄰","STREET":"立德十一路","SECT":" ","MAREA":" ","LANE":" ","ALLEY":" ","HOUSE_NO":"３２號","E_COORD97":169515.67000000001,"N_COORD97":2542087.9900000002,"ADDRESS":"立德十一路３２號","OBJECTID":572308},"geometry":{"x":169515.67000000179,"y":2542087.9900000002}},{"attributes":{"ID":572336,"DIS_CODE":0,"TOWNNAME":"東區","LI":"裕農里","LIN":"6鄰","STREET":"裕農路","SECT":" ","MAREA":" ","LANE":" ","ALLEY":" ","HOUSE_NO":"３５１號之１３","E_COORD97":171001.94,"N_COORD97":2543165.6400000001,"ADDRESS":"裕農路３５１號之１３","OBJECTID":572309},"geometry":{"x":171001.94000000041,"y":2543165.6400000006}},{"attributes":{"ID":572337,"DIS_CODE":0,"TOWNNAME":"東區","LI":"裕農里","LIN":"10鄰","STREET":"東寧路","SECT":" ","MAREA":" ","LANE":" ","ALLEY":" ","HOUSE_NO":"５４０號地下層","E_COORD97":171211.16,"N_COORD97":2543245.5299999998,"ADDRESS":"東寧路５４０號地下層","OBJECTID":572310},"geometry":{"x":171211.16000000201,"y":2543245.5299999993}},{"attributes":{"ID":572338,"DIS_CODE":0,"TOWNNAME":"玉井區","LI":"玉田里","LIN":"29鄰","STREET":"仁愛街","SECT":" ","MAREA":" ","LANE":" ","ALLEY":" ","HOUSE_NO":"１３８號","E_COORD97":195391.48000000001,"N_COORD97":2557777.27,"ADDRESS":"仁愛街１３８號","OBJECTID":572311},"geometry":{"x":195391.48000000138,"y":2557777.2700000014}},{"attributes":{"ID":572339,"DIS_CODE":0,"TOWNNAME":"玉井區","LI":"玉田里","LIN":"29鄰","STREET":"中山路","SECT":" ","MAREA":" ","LANE":" ","ALLEY":" ","HOUSE_NO":"２５６號","E_COORD97":195314.95999999999,"N_COORD97":2557797.2400000002,"ADDRESS":"中山路２５６號","OBJECTID":572312},"geometry":{"x":195314.96000000089,"y":2557797.2400000002}},{"attributes":{"ID":572340,"DIS_CODE":0,"TOWNNAME":"玉井區","LI":"玉田里","LIN":"29鄰","STREET":"中山路","SECT":" ","MAREA":" ","LANE":" ","ALLEY":" ","HOUSE_NO":"２６６號","E_COORD97":195324.56,"N_COORD97":2557825.25,"ADDRESS":"中山路２６６號","OBJECTID":572313},"geometry":{"x":195324.55999999959,"y":2557825.2500000019}},{"attributes":{"ID":572341,"DIS_CODE":0,"TOWNNAME":"玉井區","LI":"玉田里","LIN":"29鄰","STREET":"中山路","SECT":" ","MAREA":" ","LANE":" ","ALLEY":" ","HOUSE_NO":"２７０號","E_COORD97":195326.06,"N_COORD97":2557833.25,"ADDRESS":"中山路２７０號","OBJECTID":572314},"geometry":{"x":195326.06000000052,"y":2557833.2500000019}},{"attributes":{"ID":572342,"DIS_CODE":0,"TOWNNAME":"玉井區","LI":"玉田里","LIN":"29鄰","STREET":"中華路","SECT":" ","MAREA":" ","LANE":" ","ALLEY":" ","HOUSE_NO":"２９７號","E_COORD97":195402.06,"N_COORD97":2557653.2400000002,"ADDRESS":"中華路２９７號","OBJECTID":572315},"geometry":{"x":195402.06000000052,"y":2557653.2400000021}},{"attributes":{"ID":572343,"DIS_CODE":0,"TOWNNAME":"東區","LI":"中西里","LIN":"15鄰","STREET":"長榮路","SECT":"二段","MAREA":" ","LANE":" ","ALLEY":" ","HOUSE_NO":"３７號","E_COORD97":170012.98999999999,"N_COORD97":2543341.73,"ADDRESS":"長榮路二段３７號","OBJECTID":572316},"geometry":{"x":170012.99000000115,"y":2543341.7300000042}},{"attributes":{"ID":572344,"DIS_CODE":0,"TOWNNAME":"東區","LI":"龍山里","LIN":"6鄰","STREET":"林森路","SECT":"一段","MAREA":" ","LANE":" ","ALLEY":" ","HOUSE_NO":"３３９號","E_COORD97":170097.79999999999,"N_COORD97":2542751.7200000002,"ADDRESS":"林森路一段３３９號","OBJECTID":572317},"geometry":{"x":170097.80000000168,"y":2542751.7200000007}},{"attributes":{"ID":572345,"DIS_CODE":0,"TOWNNAME":"東區","LI":"泉南里","LIN":"30鄰","STREET":"府連路","SECT":" ","MAREA":" ","LANE":" ","ALLEY":" ","HOUSE_NO":"２７５號","E_COORD97":169483.70999999999,"N_COORD97":2542884.5099999998,"ADDRESS":"府連路２７５號","OBJECTID":572318},"geometry":{"x":169483.71000000089,"y":2542884.5099999979}},{"attributes":{"ID":572346,"DIS_CODE":0,"TOWNNAME":"東區","LI":"泉南里","LIN":"30鄰","STREET":"府連路","SECT":" ","MAREA":" ","LANE":" ","ALLEY":" ","HOUSE_NO":"２７７號","E_COORD97":169488.22,"N_COORD97":2542883.4900000002,"ADDRESS":"府連路２７７號","OBJECTID":572319},"geometry":{"x":169488.22000000067,"y":2542883.4900000021}},{"attributes":{"ID":572347,"DIS_CODE":0,"TOWNNAME":"玉井區","LI":"玉田里","LIN":"29鄰","STREET":"仁愛街","SECT":" ","MAREA":" ","LANE":" ","ALLEY":" ","HOUSE_NO":"１６０號","E_COORD97":195388.39000000001,"N_COORD97":2557826.2799999998,"ADDRESS":"仁愛街１６０號","OBJECTID":572320},"geometry":{"x":195388.3900000006,"y":2557826.2799999993}},{"attributes":{"ID":572348,"DIS_CODE":0,"TOWNNAME":"玉井區","LI":"玉田里","LIN":"29鄰","STREET":"仁愛街","SECT":" ","MAREA":" ","LANE":" ","ALLEY":" ","HOUSE_NO":"１５６號","E_COORD97":195387.98000000001,"N_COORD97":2557817.2799999998,"ADDRESS":"仁愛街１５６號","OBJECTID":572321},"geometry":{"x":195387.98000000138,"y":2557817.2800000031}},{"attributes":{"ID":572349,"DIS_CODE":0,"TOWNNAME":"東區","LI":"德高里","LIN":"13鄰","STREET":"崇善路","SECT":" ","MAREA":" ","LANE":" ","ALLEY":" ","HOUSE_NO":"１１１７號","E_COORD97":171579.67999999999,"N_COORD97":2540453.25,"ADDRESS":"崇善路１１１７號","OBJECTID":572322},"geometry":{"x":171579.6799999997,"y":2540453.2500000019}},{"attributes":{"ID":572350,"DIS_CODE":0,"TOWNNAME":"新營區","LI":"新南里","LIN":"29鄰","STREET":"隋唐街","SECT":" ","MAREA":" ","LANE":" ","ALLEY":" ","HOUSE_NO":"３４０號","E_COORD97":178082.54000000001,"N_COORD97":2578622.8900000001,"ADDRESS":"隋唐街３４０號","OBJECTID":572323},"geometry":{"x":178082.5400000019,"y":2578622.8900000006}},{"attributes":{"ID":572351,"DIS_CODE":0,"TOWNNAME":"新營區","LI":"大宏里","LIN":"29鄰","STREET":"新東街","SECT":" ","MAREA":" ","LANE":" ","ALLEY":" ","HOUSE_NO":"２７號","E_COORD97":180787,"N_COORD97":2578684.1899999999,"ADDRESS":"新東街２７號","OBJECTID":572324},"geometry":{"x":180787.00000000093,"y":2578684.1899999995}},{"attributes":{"ID":572352,"DIS_CODE":0,"TOWNNAME":"新營區","LI":"新南里","LIN":"29鄰","STREET":"明清一街","SECT":" ","MAREA":" ","LANE":" ","ALLEY":" ","HOUSE_NO":"１５７號","E_COORD97":178165.59,"N_COORD97":2578723.1499999999,"ADDRESS":"明清一街１５７號","OBJECTID":572325},"geometry":{"x":178165.59000000078,"y":2578723.1500000004}},{"attributes":{"ID":572353,"DIS_CODE":0,"TOWNNAME":"新營區","LI":"新南里","LIN":"29鄰","STREET":"隋唐街","SECT":" ","MAREA":" ","LANE":" ","ALLEY":" ","HOUSE_NO":"３７６號","E_COORD97":177986.20999999999,"N_COORD97":2578628.23,"ADDRESS":"隋唐街３７６號","OBJECTID":572326},"geometry":{"x":177986.20999999903,"y":2578628.2300000004}},{"attributes":{"ID":572354,"DIS_CODE":0,"TOWNNAME":"新營區","LI":"大宏里","LIN":"29鄰","STREET":"綠川路","SECT":" ","MAREA":" ","LANE":" ","ALLEY":" ","HOUSE_NO":"３３號","E_COORD97":180801.70000000001,"N_COORD97":2578759.4300000002,"ADDRESS":"綠川路３３號","OBJECTID":572327},"geometry":{"x":180801.70000000019,"y":2578759.4300000016}},{"attributes":{"ID":572355,"DIS_CODE":0,"TOWNNAME":"新營區","LI":"三仙里","LIN":"29鄰","STREET":"育德五街","SECT":" ","MAREA":" ","LANE":" ","ALLEY":" ","HOUSE_NO":"６０號","E_COORD97":179469.34,"N_COORD97":2579076.9100000001,"ADDRESS":"育德五街６０號","OBJECTID":572328},"geometry":{"x":179469.34000000078,"y":2579076.9100000001}},{"attributes":{"ID":572356,"DIS_CODE":0,"TOWNNAME":"新營區","LI":"新南里","LIN":"29鄰","STREET":"隋唐街","SECT":" ","MAREA":" ","LANE":" ","ALLEY":" ","HOUSE_NO":"３５８號","E_COORD97":178027.29999999999,"N_COORD97":2578620.9399999999,"ADDRESS":"隋唐街３５８號","OBJECTID":572329},"geometry":{"x":178027.29999999981,"y":2578620.9400000013}},{"attributes":{"ID":572357,"DIS_CODE":0,"TOWNNAME":"新營區","LI":"大宏里","LIN":"29鄰","STREET":"新東街","SECT":" ","MAREA":" ","LANE":" ","ALLEY":" ","HOUSE_NO":"５３號","E_COORD97":180827.06,"N_COORD97":2578729.4100000001,"ADDRESS":"新東街５３號","OBJECTID":572330},"geometry":{"x":180827.06000000052,"y":2578729.410000002}},{"attributes":{"ID":572358,"DIS_CODE":0,"TOWNNAME":"新營區","LI":"新南里","LIN":"29鄰","STREET":"明清一街","SECT":" ","MAREA":" ","LANE":" ","ALLEY":" ","HOUSE_NO":"１００號","E_COORD97":178001.03,"N_COORD97":2578707.4399999999,"ADDRESS":"明清一街１００號","OBJECTID":572331},"geometry":{"x":178001.03000000026,"y":2578707.4399999976}},{"attributes":{"ID":572359,"DIS_CODE":0,"TOWNNAME":"新營區","LI":"大宏里","LIN":"29鄰","STREET":"綠川路","SECT":" ","MAREA":" ","LANE":" ","ALLEY":" ","HOUSE_NO":"３９號","E_COORD97":180791.39999999999,"N_COORD97":2578746.1899999999,"ADDRESS":"綠川路３９號","OBJECTID":572332},"geometry":{"x":180791.4000000013,"y":2578746.1899999995}},{"attributes":{"ID":572360,"DIS_CODE":0,"TOWNNAME":"新營區","LI":"民生里","LIN":"29鄰","STREET":"民治路","SECT":" ","MAREA":" ","LANE":" ","ALLEY":" ","HOUSE_NO":"２０３號","E_COORD97":178794.42999999999,"N_COORD97":2578409.02,"ADDRESS":"民治路２０３號","OBJECTID":572333},"geometry":{"x":178794.4299999997,"y":2578409.0200000033}},{"attributes":{"ID":572361,"DIS_CODE":0,"TOWNNAME":"新營區","LI":"三仙里","LIN":"29鄰","STREET":"育德七街","SECT":" ","MAREA":" ","LANE":" ","ALLEY":" ","HOUSE_NO":"９４號","E_COORD97":179460.23999999999,"N_COORD97":2579105.7400000002,"ADDRESS":"育德七街９４號","OBJECTID":572334},"geometry":{"x":179460.24000000115,"y":2579105.7400000002}},{"attributes":{"ID":572362,"DIS_CODE":0,"TOWNNAME":"新營區","LI":"大宏里","LIN":"29鄰","STREET":"新東街","SECT":" ","MAREA":" ","LANE":" ","ALLEY":" ","HOUSE_NO":"３７號","E_COORD97":180800.39000000001,"N_COORD97":2578700.7400000002,"ADDRESS":"新東街３７號","OBJECTID":572335},"geometry":{"x":180800.38999999873,"y":2578700.7400000021}},{"attributes":{"ID":572363,"DIS_CODE":0,"TOWNNAME":"新營區","LI":"大宏里","LIN":"29鄰","STREET":"新東街","SECT":" ","MAREA":" ","LANE":" ","ALLEY":" ","HOUSE_NO":"１７號","E_COORD97":180773.56,"N_COORD97":2578668.75,"ADDRESS":"新東街１７號","OBJECTID":572336},"geometry":{"x":180773.55999999959,"y":2578668.7500000037}},{"attributes":{"ID":572364,"DIS_CODE":0,"TOWNNAME":"新營區","LI":"大宏里","LIN":"29鄰","STREET":"新東街","SECT":" ","MAREA":" ","LANE":" ","ALLEY":" ","HOUSE_NO":"３５號","E_COORD97":180797.31,"N_COORD97":2578696.3199999998,"ADDRESS":"新東街３５號","OBJECTID":572337},"geometry":{"x":180797.30999999959,"y":2578696.3200000022}},{"attributes":{"ID":572365,"DIS_CODE":0,"TOWNNAME":"新營區","LI":"新南里","LIN":"29鄰","STREET":"明清一街","SECT":" ","MAREA":" ","LANE":" ","ALLEY":" ","HOUSE_NO":"７３號","E_COORD97":177983.23000000001,"N_COORD97":2578661.02,"ADDRESS":"明清一街７３號","OBJECTID":572338},"geometry":{"x":177983.23000000231,"y":2578661.0200000014}},{"attributes":{"ID":572366,"DIS_CODE":0,"TOWNNAME":"新營區","LI":"南興里","LIN":"29鄰","STREET":"建業路","SECT":" ","MAREA":" ","LANE":" ","ALLEY":" ","HOUSE_NO":"１４５號","E_COORD97":178424.72,"N_COORD97":2577483.8700000001,"ADDRESS":"建業路１４５號","OBJECTID":572339},"geometry":{"x":178424.71999999974,"y":2577483.8700000029}},{"attributes":{"ID":572367,"DIS_CODE":0,"TOWNNAME":"新營區","LI":"大宏里","LIN":"29鄰","STREET":"綠川路","SECT":" ","MAREA":" ","LANE":" ","ALLEY":" ","HOUSE_NO":"３７號","E_COORD97":180810.84,"N_COORD97":2578744.9900000002,"ADDRESS":"綠川路３７號","OBJECTID":572340},"geometry":{"x":180810.83999999985,"y":2578744.9900000002}},{"attributes":{"ID":572368,"DIS_CODE":0,"TOWNNAME":"新營區","LI":"新南里","LIN":"29鄰","STREET":"長榮路","SECT":"二段","MAREA":" ","LANE":" ","ALLEY":" ","HOUSE_NO":"１０５９號","E_COORD97":178009.79999999999,"N_COORD97":2578779.3900000001,"ADDRESS":"長榮路二段１０５９號","OBJECTID":572341},"geometry":{"x":178009.80000000075,"y":2578779.3900000006}},{"attributes":{"ID":572369,"DIS_CODE":0,"TOWNNAME":"新營區","LI":"民生里","LIN":"29鄰","STREET":"民治路","SECT":" ","MAREA":" ","LANE":" ","ALLEY":" ","HOUSE_NO":"２１７號","E_COORD97":178782.01000000001,"N_COORD97":2578381.3999999999,"ADDRESS":"民治路２１７號","OBJECTID":572342},"geometry":{"x":178782.00999999978,"y":2578381.4000000022}},{"attributes":{"ID":572370,"DIS_CODE":0,"TOWNNAME":"新營區","LI":"三仙里","LIN":"29鄰","STREET":"育德街","SECT":" ","MAREA":" ","LANE":" ","ALLEY":" ","HOUSE_NO":"７１號","E_COORD97":179588.16,"N_COORD97":2579109.5699999998,"ADDRESS":"育德街７１號","OBJECTID":572343},"geometry":{"x":179588.16000000015,"y":2579109.5700000003}},{"attributes":{"ID":572371,"DIS_CODE":0,"TOWNNAME":"學甲區","LI":"慈福里","LIN":"29鄰","STREET":"綿和路","SECT":" ","MAREA":" ","LANE":" ","ALLEY":" ","HOUSE_NO":"２７號之２","E_COORD97":166410.45000000001,"N_COORD97":2570331.48,"ADDRESS":"綿和路２７號之２","OBJECTID":572344},"geometry":{"x":166410.45000000112,"y":2570331.4800000023}},{"attributes":{"ID":572372,"DIS_CODE":0,"TOWNNAME":"東區","LI":"小東里","LIN":"30鄰","STREET":"東平路","SECT":" ","MAREA":" ","LANE":" ","ALLEY":" ","HOUSE_NO":"２６０號","E_COORD97":170654.26999999999,"N_COORD97":2544021.8199999998,"ADDRESS":"東平路２６０號","OBJECTID":572345},"geometry":{"x":170654.27000000048,"y":2544021.8200000003}},{"attributes":{"ID":572373,"DIS_CODE":0,"TOWNNAME":"學甲區","LI":"慈福里","LIN":"29鄰","STREET":"濟生路","SECT":" ","MAREA":" ","LANE":" ","ALLEY":" ","HOUSE_NO":"７８號之１","E_COORD97":166370.82999999999,"N_COORD97":2570273.6200000001,"ADDRESS":"濟生路７８號之１","OBJECTID":572346},"geometry":{"x":166370.83000000101,"y":2570273.6200000029}},{"attributes":{"ID":572374,"DIS_CODE":0,"TOWNNAME":"學甲區","LI":"慈福里","LIN":"29鄰","STREET":"濟生路","SECT":" ","MAREA":" ","LANE":" ","ALLEY":" ","HOUSE_NO":"７８號之３","E_COORD97":166360.89000000001,"N_COORD97":2570275.7400000002,"ADDRESS":"濟生路７８號之３","OBJECTID":572347},"geometry":{"x":166360.89000000153,"y":2570275.7400000021}},{"attributes":{"ID":572375,"DIS_CODE":0,"TOWNNAME":"學甲區","LI":"慈福里","LIN":"29鄰","STREET":"濟生路","SECT":" ","MAREA":" ","LANE":" ","ALLEY":" ","HOUSE_NO":"７８號","E_COORD97":166365.95999999999,"N_COORD97":2570274.9199999999,"ADDRESS":"濟生路７８號","OBJECTID":572348},"geometry":{"x":166365.96000000089,"y":2570274.9199999999}},{"attributes":{"ID":572376,"DIS_CODE":0,"TOWNNAME":"學甲區","LI":"慈福里","LIN":"29鄰","STREET":"濟生路","SECT":" ","MAREA":" ","LANE":" ","ALLEY":" ","HOUSE_NO":"８０號之１","E_COORD97":166351.10000000001,"N_COORD97":2570277.8999999999,"ADDRESS":"濟生路８０號之１","OBJECTID":572349},"geometry":{"x":166351.10000000056,"y":2570277.9000000022}},{"attributes":{"ID":572377,"DIS_CODE":0,"TOWNNAME":"學甲區","LI":"慈福里","LIN":"29鄰","STREET":"濟生路","SECT":" ","MAREA":" ","LANE":" ","ALLEY":" ","HOUSE_NO":"８０號之２","E_COORD97":166346.32000000001,"N_COORD97":2570279.3799999999,"ADDRESS":"濟生路８０號之２","OBJECTID":572350},"geometry":{"x":166346.3200000003,"y":2570279.3800000008}},{"attributes":{"ID":572378,"DIS_CODE":0,"TOWNNAME":"學甲區","LI":"慈福里","LIN":"29鄰","STREET":"濟生路","SECT":" ","MAREA":" ","LANE":" ","ALLEY":" ","HOUSE_NO":"８０號","E_COORD97":166356.35000000001,"N_COORD97":2570276.8399999999,"ADDRESS":"濟生路８０號","OBJECTID":572351},"geometry":{"x":166356.35000000056,"y":2570276.8400000036}},{"attributes":{"ID":572379,"DIS_CODE":0,"TOWNNAME":"學甲區","LI":"慈福里","LIN":"29鄰","STREET":"濟生路","SECT":" ","MAREA":" ","LANE":" ","ALLEY":" ","HOUSE_NO":"８２號","E_COORD97":166341.82000000001,"N_COORD97":2570280.4100000001,"ADDRESS":"濟生路８２號","OBJECTID":572352},"geometry":{"x":166341.82000000123,"y":2570280.410000002}},{"attributes":{"ID":572380,"DIS_CODE":0,"TOWNNAME":"北區","LI":"文元里","LIN":"29鄰","STREET":"文成路","SECT":" ","MAREA":" ","LANE":" ","ALLEY":" ","HOUSE_NO":"５６６號","E_COORD97":167896.54999999999,"N_COORD97":2545899.4100000001,"ADDRESS":"文成路５６６號","OBJECTID":572353},"geometry":{"x":167896.55000000075,"y":2545899.4100000001}},{"attributes":{"ID":572381,"DIS_CODE":0,"TOWNNAME":"北區","LI":"文元里","LIN":"29鄰","STREET":"文成路","SECT":" ","MAREA":" ","LANE":" ","ALLEY":" ","HOUSE_NO":"５６８號","E_COORD97":167893.51000000001,"N_COORD97":2545901.5699999998,"ADDRESS":"文成路５６８號","OBJECTID":572354},"geometry":{"x":167893.50999999978,"y":2545901.5700000003}},{"attributes":{"ID":572382,"DIS_CODE":0,"TOWNNAME":"北區","LI":"文元里","LIN":"29鄰","STREET":"文成路","SECT":" ","MAREA":" ","LANE":" ","ALLEY":" ","HOUSE_NO":"５７０號","E_COORD97":167889.19,"N_COORD97":2545898.3999999999,"ADDRESS":"文成路５７０號","OBJECTID":572355},"geometry":{"x":167889.19000000134,"y":2545898.4000000022}},{"attributes":{"ID":572383,"DIS_CODE":0,"TOWNNAME":"北區","LI":"文元里","LIN":"29鄰","STREET":"文成路","SECT":" ","MAREA":" ","LANE":" ","ALLEY":" ","HOUSE_NO":"５７２號","E_COORD97":167885.38,"N_COORD97":2545900.8100000001,"ADDRESS":"文成路５７２號","OBJECTID":572356},"geometry":{"x":167885.38000000082,"y":2545900.8099999987}},{"attributes":{"ID":572384,"DIS_CODE":0,"TOWNNAME":"北區","LI":"文元里","LIN":"29鄰","STREET":"文成路","SECT":" ","MAREA":" ","LANE":" ","ALLEY":" ","HOUSE_NO":"５７６號","E_COORD97":167881.82000000001,"N_COORD97":2545897.6400000001,"ADDRESS":"文成路５７６號","OBJECTID":572357},"geometry":{"x":167881.8200000003,"y":2545897.6400000006}},{"attributes":{"ID":572385,"DIS_CODE":0,"TOWNNAME":"北區","LI":"文元里","LIN":"29鄰","STREET":"文成路","SECT":" ","MAREA":" ","LANE":" ","ALLEY":" ","HOUSE_NO":"５７８號","E_COORD97":167878.79000000001,"N_COORD97":2545900.04,"ADDRESS":"文成路５７８號","OBJECTID":572358},"geometry":{"x":167878.79000000004,"y":2545900.0399999991}},{"attributes":{"ID":572386,"DIS_CODE":0,"TOWNNAME":"東區","LI":"東光里","LIN":"20鄰","STREET":"凱旋路","SECT":" ","MAREA":" ","LANE":" ","ALLEY":" ","HOUSE_NO":"２９４號","E_COORD97":170796.16,"N_COORD97":2543781.5699999998,"ADDRESS":"凱旋路２９４號","OBJECTID":572359},"geometry":{"x":170796.16000000108,"y":2543781.5700000022}},{"attributes":{"ID":572387,"DIS_CODE":0,"TOWNNAME":"東區","LI":"東光里","LIN":"20鄰","STREET":"凱旋路","SECT":" ","MAREA":" ","LANE":" ","ALLEY":" ","HOUSE_NO":"２９６號","E_COORD97":170792.54000000001,"N_COORD97":2543783.4399999999,"ADDRESS":"凱旋路２９６號","OBJECTID":572360},"geometry":{"x":170792.54000000004,"y":2543783.4400000032}},{"attributes":{"ID":572388,"DIS_CODE":0,"TOWNNAME":"東區","LI":"崇德里","LIN":"13鄰","STREET":"中華東路","SECT":"三段","MAREA":" ","LANE":" ","ALLEY":" ","HOUSE_NO":"２７７號","E_COORD97":170424.25,"N_COORD97":2541680.1299999999,"ADDRESS":"中華東路三段２７７號","OBJECTID":572361},"geometry":{"x":170424.25000000093,"y":2541680.1300000008}},{"attributes":{"ID":572389,"DIS_CODE":0,"TOWNNAME":"東區","LI":"東光里","LIN":"6鄰","STREET":"東光路","SECT":"一段","MAREA":" ","LANE":" ","ALLEY":" ","HOUSE_NO":"５５號","E_COORD97":171149.20000000001,"N_COORD97":2543670.8999999999,"ADDRESS":"東光路一段５５號","OBJECTID":572362},"geometry":{"x":171149.20000000019,"y":2543670.9000000022}},{"attributes":{"ID":572390,"DIS_CODE":0,"TOWNNAME":"東區","LI":"東光里","LIN":"6鄰","STREET":"凱旋路","SECT":" ","MAREA":" ","LANE":" ","ALLEY":" ","HOUSE_NO":"２５號","E_COORD97":171144.76000000001,"N_COORD97":2543707.1800000002,"ADDRESS":"凱旋路２５號","OBJECTID":572363},"geometry":{"x":171144.76000000071,"y":2543707.1799999978}},{"attributes":{"ID":572391,"DIS_CODE":0,"TOWNNAME":"東區","LI":"泉南里","LIN":"33鄰","STREET":"府連路","SECT":" ","MAREA":" ","LANE":" ","ALLEY":" ","HOUSE_NO":"３４２號","E_COORD97":169616.98999999999,"N_COORD97":2542814.6499999999,"ADDRESS":"府連路３４２號","OBJECTID":572364},"geometry":{"x":169616.99000000022,"y":2542814.6500000022}},{"attributes":{"ID":572392,"DIS_CODE":0,"TOWNNAME":"東區","LI":"東安里","LIN":"20鄰","STREET":"林森路","SECT":"二段","MAREA":" ","LANE":" ","ALLEY":" ","HOUSE_NO":"７５號","E_COORD97":170312.42999999999,"N_COORD97":2543061.5099999998,"ADDRESS":"林森路二段７５號","OBJECTID":572365},"geometry":{"x":170312.43000000063,"y":2543061.5100000016}},{"attributes":{"ID":572393,"DIS_CODE":0,"TOWNNAME":"北區","LI":"文元里","LIN":"29鄰","STREET":"文成路","SECT":" ","MAREA":" ","LANE":" ","ALLEY":" ","HOUSE_NO":"５８２號","E_COORD97":167867.81,"N_COORD97":2545894.4500000002,"ADDRESS":"文成路５８２號","OBJECTID":572366},"geometry":{"x":167867.80999999959,"y":2545894.4499999993}},{"attributes":{"ID":572394,"DIS_CODE":0,"TOWNNAME":"北區","LI":"文元里","LIN":"29鄰","STREET":"文成路","SECT":" ","MAREA":" ","LANE":" ","ALLEY":" ","HOUSE_NO":"５８６號","E_COORD97":167862,"N_COORD97":2545892.0899999999,"ADDRESS":"文成路５８６號","OBJECTID":572367},"geometry":{"x":167862,"y":2545892.0900000017}},{"attributes":{"ID":572395,"DIS_CODE":0,"TOWNNAME":"北區","LI":"文元里","LIN":"29鄰","STREET":"文成路","SECT":" ","MAREA":" ","LANE":" ","ALLEY":" ","HOUSE_NO":"５８８號","E_COORD97":167855.54000000001,"N_COORD97":2545894.4500000002,"ADDRESS":"文成路５８８號","OBJECTID":572368},"geometry":{"x":167855.54000000097,"y":2545894.4499999993}},{"attributes":{"ID":572396,"DIS_CODE":0,"TOWNNAME":"北區","LI":"文元里","LIN":"29鄰","STREET":"文成路","SECT":" ","MAREA":" ","LANE":" ","ALLEY":" ","HOUSE_NO":"５９０號","E_COORD97":167849.94,"N_COORD97":2545892.2999999998,"ADDRESS":"文成路５９０號","OBJECTID":572369},"geometry":{"x":167849.94000000134,"y":2545892.3000000026}},{"attributes":{"ID":572397,"DIS_CODE":0,"TOWNNAME":"北區","LI":"文元里","LIN":"29鄰","STREET":"文成路","SECT":" ","MAREA":" ","LANE":" ","ALLEY":" ","HOUSE_NO":"６６２號","E_COORD97":167737.32000000001,"N_COORD97":2545891.9399999999,"ADDRESS":"文成路６６２號","OBJECTID":572370},"geometry":{"x":167737.32000000123,"y":2545891.9399999976}},{"attributes":{"ID":572398,"DIS_CODE":0,"TOWNNAME":"北區","LI":"文元里","LIN":"29鄰","STREET":"文成路","SECT":" ","MAREA":" ","LANE":" ","ALLEY":" ","HOUSE_NO":"６６６號","E_COORD97":167729.07000000001,"N_COORD97":2545892.5699999998,"ADDRESS":"文成路６６６號","OBJECTID":572371},"geometry":{"x":167729.07000000123,"y":2545892.5700000022}},{"attributes":{"ID":572399,"DIS_CODE":0,"TOWNNAME":"北區","LI":"文元里","LIN":"29鄰","STREET":"文成路","SECT":" ","MAREA":" ","LANE":" ","ALLEY":" ","HOUSE_NO":"６６８號","E_COORD97":167721.14000000001,"N_COORD97":2545891.9399999999,"ADDRESS":"文成路６６８號","OBJECTID":572372},"geometry":{"x":167721.1400000006,"y":2545891.9399999976}},{"attributes":{"ID":572400,"DIS_CODE":0,"TOWNNAME":"北區","LI":"文元里","LIN":"29鄰","STREET":"文成路","SECT":" ","MAREA":" ","LANE":" ","ALLEY":" ","HOUSE_NO":"６７２號","E_COORD97":167704.97,"N_COORD97":2545891.9399999999,"ADDRESS":"文成路６７２號","OBJECTID":572373},"geometry":{"x":167704.97000000067,"y":2545891.9399999976}},{"attributes":{"ID":572401,"DIS_CODE":0,"TOWNNAME":"北區","LI":"文元里","LIN":"29鄰","STREET":"文成路","SECT":" ","MAREA":" ","LANE":" ","ALLEY":" ","HOUSE_NO":"６８２號","E_COORD97":167680.23000000001,"N_COORD97":2545891.6299999999,"ADDRESS":"文成路６８２號","OBJECTID":572374},"geometry":{"x":167680.23000000138,"y":2545891.6300000008}},{"attributes":{"ID":572402,"DIS_CODE":0,"TOWNNAME":"北區","LI":"文元里","LIN":"29鄰","STREET":"文賢二街","SECT":" ","MAREA":" ","LANE":" ","ALLEY":" ","HOUSE_NO":"２９０號","E_COORD97":167700.14000000001,"N_COORD97":2545931.3799999999,"ADDRESS":"文賢二街２９０號","OBJECTID":572375},"geometry":{"x":167700.14000000153,"y":2545931.379999999}},{"attributes":{"ID":572403,"DIS_CODE":0,"TOWNNAME":"北區","LI":"文元里","LIN":"29鄰","STREET":"文賢三街","SECT":" ","MAREA":" ","LANE":" ","ALLEY":" ","HOUSE_NO":"１５０號","E_COORD97":167832.12,"N_COORD97":2545939.3300000001,"ADDRESS":"文賢三街１５０號","OBJECTID":572376},"geometry":{"x":167832.12000000011,"y":2545939.3300000019}},{"attributes":{"ID":572404,"DIS_CODE":0,"TOWNNAME":"北區","LI":"文元里","LIN":"29鄰","STREET":"文賢二街","SECT":" ","MAREA":" ","LANE":" ","ALLEY":" ","HOUSE_NO":"２８６號","E_COORD97":167700.53,"N_COORD97":2545917.2799999998,"ADDRESS":"文賢二街２８６號","OBJECTID":572377},"geometry":{"x":167700.53000000119,"y":2545917.2800000012}},{"attributes":{"ID":572405,"DIS_CODE":0,"TOWNNAME":"北區","LI":"文元里","LIN":"29鄰","STREET":"文賢二街","SECT":" ","MAREA":" ","LANE":" ","ALLEY":" ","HOUSE_NO":"２９６號","E_COORD97":167700.73000000001,"N_COORD97":2545941.3300000001,"ADDRESS":"文賢二街２９６號","OBJECTID":572378},"geometry":{"x":167700.73000000138,"y":2545941.3300000019}},{"attributes":{"ID":572406,"DIS_CODE":0,"TOWNNAME":"北區","LI":"文元里","LIN":"29鄰","STREET":"文賢二街","SECT":" ","MAREA":" ","LANE":" ","ALLEY":" ","HOUSE_NO":"３００號","E_COORD97":167700.44,"N_COORD97":2545954.79,"ADDRESS":"文賢二街３００號","OBJECTID":572379},"geometry":{"x":167700.44000000227,"y":2545954.790000001}},{"attributes":{"ID":572407,"DIS_CODE":0,"TOWNNAME":"北區","LI":"文元里","LIN":"29鄰","STREET":"文賢三街","SECT":" ","MAREA":" ","LANE":" ","ALLEY":" ","HOUSE_NO":"１２８號","E_COORD97":167833.82999999999,"N_COORD97":2545889.8399999999,"ADDRESS":"文賢三街１２８號","OBJECTID":572380},"geometry":{"x":167833.83000000101,"y":2545889.8400000036}},{"attributes":{"ID":572408,"DIS_CODE":0,"TOWNNAME":"北區","LI":"文元里","LIN":"29鄰","STREET":"文賢三街","SECT":" ","MAREA":" ","LANE":" ","ALLEY":" ","HOUSE_NO":"１３０號","E_COORD97":167834.17999999999,"N_COORD97":2545895.5299999998,"ADDRESS":"文賢三街１３０號","OBJECTID":572381},"geometry":{"x":167834.18000000063,"y":2545895.5300000012}},{"attributes":{"ID":572409,"DIS_CODE":0,"TOWNNAME":"北區","LI":"文元里","LIN":"29鄰","STREET":"文賢三街","SECT":" ","MAREA":" ","LANE":" ","ALLEY":" ","HOUSE_NO":"１３２號","E_COORD97":167833.82999999999,"N_COORD97":2545901.23,"ADDRESS":"文賢三街１３２號","OBJECTID":572382},"geometry":{"x":167833.83000000101,"y":2545901.2299999986}},{"attributes":{"ID":572410,"DIS_CODE":0,"TOWNNAME":"北區","LI":"文元里","LIN":"29鄰","STREET":"文賢三街","SECT":" ","MAREA":" ","LANE":" ","ALLEY":" ","HOUSE_NO":"１３６號","E_COORD97":167834.39999999999,"N_COORD97":2545904.8999999999,"ADDRESS":"文賢三街１３６號","OBJECTID":572383},"geometry":{"x":167834.40000000037,"y":2545904.9000000022}},{"attributes":{"ID":572411,"DIS_CODE":0,"TOWNNAME":"北區","LI":"文元里","LIN":"29鄰","STREET":"文賢三街","SECT":" ","MAREA":" ","LANE":" ","ALLEY":" ","HOUSE_NO":"１３８號","E_COORD97":167835.04999999999,"N_COORD97":2545911.0699999998,"ADDRESS":"文賢三街１３８號","OBJECTID":572384},"geometry":{"x":167835.05000000075,"y":2545911.0700000003}},{"attributes":{"ID":572412,"DIS_CODE":0,"TOWNNAME":"北區","LI":"文元里","LIN":"29鄰","STREET":"文賢三街","SECT":" ","MAREA":" ","LANE":" ","ALLEY":" ","HOUSE_NO":"１４０號","E_COORD97":167835.38,"N_COORD97":2545916.5899999999,"ADDRESS":"文賢三街１４０號","OBJECTID":572385},"geometry":{"x":167835.37999999989,"y":2545916.5900000017}},{"attributes":{"ID":572413,"DIS_CODE":0,"TOWNNAME":"北區","LI":"文元里","LIN":"29鄰","STREET":"文賢三街","SECT":" ","MAREA":" ","LANE":" ","ALLEY":" ","HOUSE_NO":"１５６號","E_COORD97":167832.78,"N_COORD97":2545949.73,"ADDRESS":"文賢三街１５６號","OBJECTID":572386},"geometry":{"x":167832.78000000119,"y":2545949.7300000023}},{"attributes":{"ID":572414,"DIS_CODE":0,"TOWNNAME":"北區","LI":"文元里","LIN":"29鄰","STREET":"文賢三街","SECT":" ","MAREA":" ","LANE":" ","ALLEY":" ","HOUSE_NO":"１５８號","E_COORD97":167833.10000000001,"N_COORD97":2545953.2999999998,"ADDRESS":"文賢三街１５８號","OBJECTID":572387},"geometry":{"x":167833.10000000056,"y":2545953.3000000026}},{"attributes":{"ID":572415,"DIS_CODE":0,"TOWNNAME":"北區","LI":"文元里","LIN":"29鄰","STREET":"文賢三街","SECT":" ","MAREA":" ","LANE":" ","ALLEY":" ","HOUSE_NO":"１６０號","E_COORD97":167832.78,"N_COORD97":2545958.8300000001,"ADDRESS":"文賢三街１６０號","OBJECTID":572388},"geometry":{"x":167832.78000000119,"y":2545958.8300000019}},{"attributes":{"ID":572416,"DIS_CODE":0,"TOWNNAME":"北區","LI":"文元里","LIN":"29鄰","STREET":"文賢三街","SECT":" ","MAREA":" ","LANE":" ","ALLEY":" ","HOUSE_NO":"１６２號","E_COORD97":167832.45000000001,"N_COORD97":2545963.7000000002,"ADDRESS":"文賢三街１６２號","OBJECTID":572389},"geometry":{"x":167832.45000000205,"y":2545963.6999999993}},{"attributes":{"ID":572417,"DIS_CODE":0,"TOWNNAME":"北區","LI":"文元里","LIN":"29鄰","STREET":"文賢三街","SECT":" ","MAREA":" ","LANE":" ","ALLEY":" ","HOUSE_NO":"１６６號","E_COORD97":167831.79999999999,"N_COORD97":2545969.5499999998,"ADDRESS":"文賢三街１６６號","OBJECTID":572390},"geometry":{"x":167831.80000000075,"y":2545969.5500000007}},{"attributes":{"ID":572418,"DIS_CODE":0,"TOWNNAME":"北區","LI":"文元里","LIN":"29鄰","STREET":"文賢三街","SECT":" ","MAREA":" ","LANE":" ","ALLEY":" ","HOUSE_NO":"１６８號","E_COORD97":167831.79999999999,"N_COORD97":2545974.0899999999,"ADDRESS":"文賢三街１６８號","OBJECTID":572391},"geometry":{"x":167831.80000000075,"y":2545974.0900000017}},{"attributes":{"ID":572419,"DIS_CODE":0,"TOWNNAME":"北區","LI":"成德里","LIN":"29鄰","STREET":"立賢路","SECT":"一段","MAREA":" ","LANE":" ","ALLEY":" ","HOUSE_NO":"５９０號","E_COORD97":168444.32000000001,"N_COORD97":2545589.77,"ADDRESS":"立賢路一段５９０號","OBJECTID":572392},"geometry":{"x":168444.32000000123,"y":2545589.7700000014}},{"attributes":{"ID":572420,"DIS_CODE":0,"TOWNNAME":"北區","LI":"成德里","LIN":"29鄰","STREET":"立賢路","SECT":"一段","MAREA":" ","LANE":" ","ALLEY":" ","HOUSE_NO":"５９２號","E_COORD97":168435.10999999999,"N_COORD97":2545589.4500000002,"ADDRESS":"立賢路一段５９２號","OBJECTID":572393},"geometry":{"x":168435.1100000022,"y":2545589.4499999993}},{"attributes":{"ID":572421,"DIS_CODE":0,"TOWNNAME":"東區","LI":"東明里","LIN":"7鄰","STREET":"東興路","SECT":" ","MAREA":" ","LANE":" ","ALLEY":" ","HOUSE_NO":"１１７號","E_COORD97":170952.97,"N_COORD97":2543654.9100000001,"ADDRESS":"東興路１１７號","OBJECTID":572394},"geometry":{"x":170952.97000000067,"y":2543654.9100000001}},{"attributes":{"ID":572422,"DIS_CODE":0,"TOWNNAME":"北區","LI":"成德里","LIN":"29鄰","STREET":"立賢路","SECT":"一段","MAREA":" ","LANE":" ","ALLEY":" ","HOUSE_NO":"５８０號","E_COORD97":168483.37,"N_COORD97":2545589.77,"ADDRESS":"立賢路一段５８０號","OBJECTID":572395},"geometry":{"x":168483.37000000011,"y":2545589.7700000014}},{"attributes":{"ID":572423,"DIS_CODE":0,"TOWNNAME":"北區","LI":"成德里","LIN":"29鄰","STREET":"立賢路","SECT":"一段","MAREA":" ","LANE":" ","ALLEY":" ","HOUSE_NO":"５８８號","E_COORD97":168453.85000000001,"N_COORD97":2545589.77,"ADDRESS":"立賢路一段５８８號","OBJECTID":572396},"geometry":{"x":168453.84999999963,"y":2545589.7700000014}},{"attributes":{"ID":572424,"DIS_CODE":0,"TOWNNAME":"北區","LI":"成德里","LIN":"29鄰","STREET":"立賢路","SECT":"一段","MAREA":" ","LANE":" ","ALLEY":" ","HOUSE_NO":"５９６號","E_COORD97":168424.63,"N_COORD97":2545589.4500000002,"ADDRESS":"立賢路一段５９６號","OBJECTID":572397},"geometry":{"x":168424.63000000082,"y":2545589.4499999993}},{"attributes":{"ID":572425,"DIS_CODE":0,"TOWNNAME":"北區","LI":"成德里","LIN":"29鄰","STREET":"立賢路","SECT":"一段","MAREA":" ","LANE":" ","ALLEY":" ","HOUSE_NO":"５９８號","E_COORD97":168415.10999999999,"N_COORD97":2545589.4500000002,"ADDRESS":"立賢路一段５９８號","OBJECTID":572398},"geometry":{"x":168415.11000000127,"y":2545589.4499999993}},{"attributes":{"ID":572426,"DIS_CODE":0,"TOWNNAME":"北區","LI":"成德里","LIN":"29鄰","STREET":"立賢路","SECT":"一段","MAREA":" ","LANE":" ","ALLEY":" ","HOUSE_NO":"６００號","E_COORD97":168404.31,"N_COORD97":2545589.4500000002,"ADDRESS":"立賢路一段６００號","OBJECTID":572399},"geometry":{"x":168404.31000000052,"y":2545589.4499999993}},{"attributes":{"ID":572427,"DIS_CODE":0,"TOWNNAME":"北區","LI":"成德里","LIN":"29鄰","STREET":"立賢路","SECT":"一段","MAREA":" ","LANE":" ","ALLEY":" ","HOUSE_NO":"６０２號","E_COORD97":168395.42000000001,"N_COORD97":2545589.1299999999,"ADDRESS":"立賢路一段６０２號","OBJECTID":572400},"geometry":{"x":168395.42000000086,"y":2545589.1300000008}}]}