{"displayFieldName":"TOWNNAME","fieldAliases":{"ID":"ID","DIS_CODE":"DIS_CODE","TOWNNAME":"TOWNNAME","LI":"LI","LIN":"LIN","STREET":"STREET","SECT":"SECT","MAREA":"MAREA","LANE":"LANE","ALLEY":"ALLEY","HOUSE_NO":"HOUSE_NO","E_COORD97":"E_COORD97","N_COORD97":"N_COORD97","ADDRESS":"ADDRESS","OBJECTID":"OBJECTID"},"geometryType":"esriGeometryPoint","spatialReference":{"wkid":102443,"latestWkid":3826},"fields":[{"name":"ID","type":"esriFieldTypeDouble","alias":"ID"},{"name":"DIS_CODE","type":"esriFieldTypeInteger","alias":"DIS_CODE"},{"name":"TOWNNAME","type":"esriFieldTypeString","alias":"TOWNNAME","length":8},{"name":"LI","type":"esriFieldTypeString","alias":"LI","length":8},{"name":"LIN","type":"esriFieldTypeString","alias":"LIN","length":12},{"name":"STREET","type":"esriFieldTypeString","alias":"STREET","length":20},{"name":"SECT","type":"esriFieldTypeString","alias":"SECT","length":8},{"name":"MAREA","type":"esriFieldTypeString","alias":"MAREA","length":12},{"name":"LANE","type":"esriFieldTypeString","alias":"LANE","length":10},{"name":"ALLEY","type":"esriFieldTypeString","alias":"ALLEY","length":10},{"name":"HOUSE_NO","type":"esriFieldTypeString","alias":"HOUSE_NO","length":20},{"name":"E_COORD97","type":"esriFieldTypeDouble","alias":"E_COORD97"},{"name":"N_COORD97","type":"esriFieldTypeDouble","alias":"N_COORD97"},{"name":"ADDRESS","type":"esriFieldTypeString","alias":"ADDRESS","length":50},{"name":"OBJECTID","type":"esriFieldTypeOID","alias":"OBJECTID"}],"features":[{"attributes":{"ID":134401,"DIS_CODE":0,"TOWNNAME":"仁德區","LI":"後壁里","LIN":"27鄰","STREET":"中正路","SECT":"二段","MAREA":" ","LANE":"３０１巷","ALLEY":"１９弄","HOUSE_NO":"１０號","E_COORD97":173163.53,"N_COORD97":2539094.46,"ADDRESS":"中正路二段３０１巷１９弄１０號","OBJECTID":134401},"geometry":{"x":173163.53000000119,"y":2539094.4600000009}},{"attributes":{"ID":134402,"DIS_CODE":0,"TOWNNAME":"仁德區","LI":"後壁里","LIN":"18鄰","STREET":"德南路","SECT":" ","MAREA":" ","LANE":"２２巷","ALLEY":"９弄","HOUSE_NO":"２１號","E_COORD97":173338.01999999999,"N_COORD97":2538718.0099999998,"ADDRESS":"德南路２２巷９弄２１號","OBJECTID":134402},"geometry":{"x":173338.02000000048,"y":2538718.0100000035}},{"attributes":{"ID":134403,"DIS_CODE":0,"TOWNNAME":"佳里區","LI":"東寧里","LIN":" ","STREET":"延平路","SECT":" ","MAREA":" ","LANE":" ","ALLEY":" ","HOUSE_NO":"３１６號","E_COORD97":165877.57999999999,"N_COORD97":2562378.5600000001,"ADDRESS":"延平路３１６號","OBJECTID":134403},"geometry":{"x":165877.58000000101,"y":2562378.5600000005}},{"attributes":{"ID":134404,"DIS_CODE":0,"TOWNNAME":"仁德區","LI":"後壁里","LIN":"37鄰","STREET":"德洋一街","SECT":" ","MAREA":" ","LANE":"５１巷","ALLEY":"６弄","HOUSE_NO":"２號","E_COORD97":173152.09,"N_COORD97":2539249.5600000001,"ADDRESS":"德洋一街５１巷６弄２號","OBJECTID":134404},"geometry":{"x":173152.08999999985,"y":2539249.5600000005}},{"attributes":{"ID":134405,"DIS_CODE":0,"TOWNNAME":"佳里區","LI":"建南里","LIN":"27鄰","STREET":"勝利路","SECT":" ","MAREA":" ","LANE":"７０巷","ALLEY":"２弄","HOUSE_NO":"１號","E_COORD97":165831.54999999999,"N_COORD97":2561416.3900000001,"ADDRESS":"勝利路７０巷２弄１號","OBJECTID":134405},"geometry":{"x":165831.55000000075,"y":2561416.3900000025}},{"attributes":{"ID":134406,"DIS_CODE":0,"TOWNNAME":"佳里區","LI":"建南里","LIN":"27鄰","STREET":"勝利路","SECT":" ","MAREA":" ","LANE":"７０巷","ALLEY":"２弄","HOUSE_NO":"２號","E_COORD97":165831.59,"N_COORD97":2561421.1499999999,"ADDRESS":"勝利路７０巷２弄２號","OBJECTID":134406},"geometry":{"x":165831.59000000078,"y":2561421.1500000022}},{"attributes":{"ID":134407,"DIS_CODE":0,"TOWNNAME":"佳里區","LI":"建南里","LIN":"27鄰","STREET":"勝利路","SECT":" ","MAREA":" ","LANE":"７０巷","ALLEY":"２弄","HOUSE_NO":"３號","E_COORD97":165831.64000000001,"N_COORD97":2561425.9900000002,"ADDRESS":"勝利路７０巷２弄３號","OBJECTID":134407},"geometry":{"x":165831.63999999966,"y":2561425.9900000002}},{"attributes":{"ID":134408,"DIS_CODE":0,"TOWNNAME":"佳里區","LI":"建南里","LIN":"27鄰","STREET":"勝利路","SECT":" ","MAREA":" ","LANE":"７０巷","ALLEY":"２弄","HOUSE_NO":"４號","E_COORD97":165831.84,"N_COORD97":2561430.5499999998,"ADDRESS":"勝利路７０巷２弄４號","OBJECTID":134408},"geometry":{"x":165831.83999999985,"y":2561430.5500000007}},{"attributes":{"ID":134409,"DIS_CODE":0,"TOWNNAME":"仁德區","LI":"保安里","LIN":"21鄰","STREET":"文賢一街","SECT":" ","MAREA":" ","LANE":"１０巷","ALLEY":"１弄","HOUSE_NO":"６號","E_COORD97":171063.20000000001,"N_COORD97":2536741.5699999998,"ADDRESS":"文賢一街１０巷１弄６號","OBJECTID":134409},"geometry":{"x":171063.20000000019,"y":2536741.570000004}},{"attributes":{"ID":134410,"DIS_CODE":0,"TOWNNAME":"仁德區","LI":"後壁里","LIN":"35鄰","STREET":"德洋路","SECT":" ","MAREA":" ","LANE":"１８３巷","ALLEY":"２弄","HOUSE_NO":"２號","E_COORD97":172470.64000000001,"N_COORD97":2539421.0099999998,"ADDRESS":"德洋路１８３巷２弄２號","OBJECTID":134410},"geometry":{"x":172470.6400000006,"y":2539421.0100000016}},{"attributes":{"ID":134411,"DIS_CODE":0,"TOWNNAME":"歸仁區","LI":"南保里","LIN":"27鄰","STREET":"民權六街","SECT":" ","MAREA":" ","LANE":"１９巷","ALLEY":"１２弄","HOUSE_NO":"１６號","E_COORD97":176884.10999999999,"N_COORD97":2541072.25,"ADDRESS":"民權六街１９巷１２弄１６號","OBJECTID":134411},"geometry":{"x":176884.11000000127,"y":2541072.25}},{"attributes":{"ID":134412,"DIS_CODE":0,"TOWNNAME":"仁德區","LI":"後壁里","LIN":"18鄰","STREET":"德南路","SECT":" ","MAREA":" ","LANE":"２２巷","ALLEY":"９弄","HOUSE_NO":"５號","E_COORD97":173307.48999999999,"N_COORD97":2538741.02,"ADDRESS":"德南路２２巷９弄５號","OBJECTID":134412},"geometry":{"x":173307.49000000022,"y":2538741.0199999996}},{"attributes":{"ID":134413,"DIS_CODE":0,"TOWNNAME":"仁德區","LI":"後壁里","LIN":"41鄰","STREET":"德善路","SECT":" ","MAREA":" ","LANE":"２７３巷","ALLEY":"６弄","HOUSE_NO":"１８號","E_COORD97":173940.78,"N_COORD97":2538650.8100000001,"ADDRESS":"德善路２７３巷６弄１８號","OBJECTID":134413},"geometry":{"x":173940.78000000026,"y":2538650.8100000005}},{"attributes":{"ID":134414,"DIS_CODE":0,"TOWNNAME":"仁德區","LI":"成功里","LIN":"9鄰","STREET":"成功二街","SECT":" ","MAREA":" ","LANE":"７巷","ALLEY":"１６弄","HOUSE_NO":"２號","E_COORD97":170967.5,"N_COORD97":2539975.2400000002,"ADDRESS":"成功二街７巷１６弄２號","OBJECTID":134414},"geometry":{"x":170967.5,"y":2539975.2400000021}},{"attributes":{"ID":134415,"DIS_CODE":0,"TOWNNAME":"仁德區","LI":"後壁里","LIN":"27鄰","STREET":"德洋一街","SECT":" ","MAREA":" ","LANE":"３０巷","ALLEY":"１９弄","HOUSE_NO":"１７號","E_COORD97":173192.54999999999,"N_COORD97":2539142.0899999999,"ADDRESS":"德洋一街３０巷１９弄１７號","OBJECTID":134415},"geometry":{"x":173192.54999999981,"y":2539142.0900000017}},{"attributes":{"ID":134416,"DIS_CODE":0,"TOWNNAME":"仁德區","LI":"保安里","LIN":"21鄰","STREET":"文賢一街","SECT":" ","MAREA":" ","LANE":"１０巷","ALLEY":"１弄","HOUSE_NO":"８號","E_COORD97":171057.51999999999,"N_COORD97":2536738.8199999998,"ADDRESS":"文賢一街１０巷１弄８號","OBJECTID":134416},"geometry":{"x":171057.52000000048,"y":2536738.8200000003}},{"attributes":{"ID":134417,"DIS_CODE":0,"TOWNNAME":"仁德區","LI":"後壁里","LIN":"12鄰","STREET":"德善路","SECT":" ","MAREA":" ","LANE":"２４０巷","ALLEY":"３１弄","HOUSE_NO":"３１號","E_COORD97":173877.06,"N_COORD97":2538552.27,"ADDRESS":"德善路２４０巷３１弄３１號","OBJECTID":134417},"geometry":{"x":173877.05999999959,"y":2538552.2699999996}},{"attributes":{"ID":134418,"DIS_CODE":0,"TOWNNAME":"仁德區","LI":"成功里","LIN":"12鄰","STREET":"成功二街","SECT":" ","MAREA":" ","LANE":"３２巷","ALLEY":"９弄","HOUSE_NO":"１１號","E_COORD97":170877.70999999999,"N_COORD97":2539872.7599999998,"ADDRESS":"成功二街３２巷９弄１１號","OBJECTID":134418},"geometry":{"x":170877.70999999996,"y":2539872.7600000016}},{"attributes":{"ID":134419,"DIS_CODE":0,"TOWNNAME":"仁德區","LI":"後壁里","LIN":"23鄰","STREET":"中正路","SECT":"二段","MAREA":" ","LANE":"１８７巷","ALLEY":"６弄","HOUSE_NO":"２８號","E_COORD97":173052.76000000001,"N_COORD97":2538659.7799999998,"ADDRESS":"中正路二段１８７巷６弄２８號","OBJECTID":134419},"geometry":{"x":173052.76000000164,"y":2538659.7799999993}},{"attributes":{"ID":134420,"DIS_CODE":0,"TOWNNAME":"新營區","LI":"南興里","LIN":"27鄰","STREET":"建業路","SECT":" ","MAREA":" ","LANE":"８１巷","ALLEY":"２弄","HOUSE_NO":"１０號","E_COORD97":178536.82000000001,"N_COORD97":2577444.5600000001,"ADDRESS":"建業路８１巷２弄１０號","OBJECTID":134420},"geometry":{"x":178536.82000000216,"y":2577444.5600000024}},{"attributes":{"ID":134421,"DIS_CODE":0,"TOWNNAME":"新營區","LI":"新北里","LIN":"27鄰","STREET":"民生路","SECT":" ","MAREA":" ","LANE":"３８５巷","ALLEY":"１３弄","HOUSE_NO":"３之２號","E_COORD97":178868.47,"N_COORD97":2579126.3500000001,"ADDRESS":"民生路３８５巷１３弄３之２號","OBJECTID":134421},"geometry":{"x":178868.46999999974,"y":2579126.3500000015}},{"attributes":{"ID":134422,"DIS_CODE":0,"TOWNNAME":"新營區","LI":"南紙里","LIN":"27鄰","STREET":"太子路","SECT":" ","MAREA":" ","LANE":"２００巷","ALLEY":"１０１弄","HOUSE_NO":"１６號","E_COORD97":177786,"N_COORD97":2578075.02,"ADDRESS":"太子路２００巷１０１弄１６號","OBJECTID":134422},"geometry":{"x":177786.00000000186,"y":2578075.0199999996}},{"attributes":{"ID":134423,"DIS_CODE":0,"TOWNNAME":"歸仁區","LI":"媽廟里","LIN":"27鄰","STREET":"保大路","SECT":"一段","MAREA":" ","LANE":"１５２巷","ALLEY":"１００弄","HOUSE_NO":"２１號","E_COORD97":177669.47,"N_COORD97":2544803.98,"ADDRESS":"保大路一段１５２巷１００弄２１號","OBJECTID":134423},"geometry":{"x":177669.47000000067,"y":2544803.9800000004}},{"attributes":{"ID":134424,"DIS_CODE":0,"TOWNNAME":"歸仁區","LI":"媽廟里","LIN":"27鄰","STREET":"保大路","SECT":"一段","MAREA":" ","LANE":"１５２巷","ALLEY":"１００弄","HOUSE_NO":"２０號","E_COORD97":177671.07000000001,"N_COORD97":2544698.98,"ADDRESS":"保大路一段１５２巷１００弄２０號","OBJECTID":134424},"geometry":{"x":177671.07000000123,"y":2544698.9800000004}},{"attributes":{"ID":134425,"DIS_CODE":0,"TOWNNAME":"歸仁區","LI":"南保里","LIN":"27鄰","STREET":"民權六街","SECT":" ","MAREA":" ","LANE":"１９巷","ALLEY":"１２弄","HOUSE_NO":"６號","E_COORD97":176917.34,"N_COORD97":2541072.29,"ADDRESS":"民權六街１９巷１２弄６號","OBJECTID":134425},"geometry":{"x":176917.34000000171,"y":2541072.290000001}},{"attributes":{"ID":134426,"DIS_CODE":0,"TOWNNAME":"玉井區","LI":"玉田里","LIN":"27鄰","STREET":"中山路","SECT":" ","MAREA":" ","LANE":"３巷","ALLEY":"２２弄","HOUSE_NO":"１２號","E_COORD97":194962.64999999999,"N_COORD97":2557763.2400000002,"ADDRESS":"中山路３巷２２弄１２號","OBJECTID":134426},"geometry":{"x":194962.64999999944,"y":2557763.2400000002}},{"attributes":{"ID":134427,"DIS_CODE":0,"TOWNNAME":"安定區","LI":"中沙里","LIN":"6鄰","STREET":" ","SECT":" ","MAREA":"沙崙","LANE":" ","ALLEY":" ","HOUSE_NO":"２４之１２號","E_COORD97":168068.30867900001,"N_COORD97":2552359.8744800002,"ADDRESS":"沙崙２４之１２號","OBJECTID":134427},"geometry":{"x":168068.30867899954,"y":2552359.8744770009}},{"attributes":{"ID":134428,"DIS_CODE":0,"TOWNNAME":"新市區","LI":"大營里","LIN":"6鄰","STREET":" ","SECT":" ","MAREA":"大營","LANE":" ","ALLEY":" ","HOUSE_NO":"８７之１０號","E_COORD97":179680.60000000001,"N_COORD97":2555259.2999999998,"ADDRESS":"大營８７之１０號","OBJECTID":134428},"geometry":{"x":179680.60000000056,"y":2555259.3000000026}},{"attributes":{"ID":134429,"DIS_CODE":0,"TOWNNAME":"新市區","LI":"三舍里","LIN":"6鄰","STREET":" ","SECT":" ","MAREA":"三舍","LANE":" ","ALLEY":" ","HOUSE_NO":"１３４號","E_COORD97":177835.89999999999,"N_COORD97":2554507.25,"ADDRESS":"三舍１３４號","OBJECTID":134429},"geometry":{"x":177835.90000000037,"y":2554507.2500000019}},{"attributes":{"ID":134430,"DIS_CODE":0,"TOWNNAME":"新市區","LI":"豐華里","LIN":"6鄰","STREET":" ","SECT":" ","MAREA":"豐華","LANE":" ","ALLEY":" ","HOUSE_NO":"５３之１０號","E_COORD97":175213.32000000001,"N_COORD97":2554410.2999999998,"ADDRESS":"豐華５３之１０號","OBJECTID":134430},"geometry":{"x":175213.32000000123,"y":2554410.3000000007}},{"attributes":{"ID":134431,"DIS_CODE":0,"TOWNNAME":"新市區","LI":"新市里","LIN":"6鄰","STREET":"中興街","SECT":" ","MAREA":" ","LANE":" ","ALLEY":" ","HOUSE_NO":"１１５號","E_COORD97":177532.51999999999,"N_COORD97":2553097,"ADDRESS":"中興街１１５號","OBJECTID":134431},"geometry":{"x":177532.51999999955,"y":2553097.0000000037}},{"attributes":{"ID":134432,"DIS_CODE":0,"TOWNNAME":"新市區","LI":"大洲里","LIN":"6鄰","STREET":" ","SECT":" ","MAREA":"大洲","LANE":" ","ALLEY":" ","HOUSE_NO":"５６號","E_COORD97":174080.26000000001,"N_COORD97":2552306.25,"ADDRESS":"大洲５６號","OBJECTID":134432},"geometry":{"x":174080.26000000071,"y":2552306.2500000019}},{"attributes":{"ID":134433,"DIS_CODE":0,"TOWNNAME":"新市區","LI":"大洲里","LIN":"6鄰","STREET":" ","SECT":" ","MAREA":"大洲","LANE":" ","ALLEY":" ","HOUSE_NO":"５９號","E_COORD97":174062.29000000001,"N_COORD97":2552261.75,"ADDRESS":"大洲５９號","OBJECTID":134433},"geometry":{"x":174062.29000000097,"y":2552261.7500000019}},{"attributes":{"ID":134434,"DIS_CODE":0,"TOWNNAME":"東山區","LI":"聖賢里","LIN":"19鄰","STREET":" ","SECT":" ","MAREA":"頂窩","LANE":" ","ALLEY":" ","HOUSE_NO":"４５號之１","E_COORD97":183114.87,"N_COORD97":2578669.0699999998,"ADDRESS":"頂窩４５號之１","OBJECTID":134434},"geometry":{"x":183114.87000000011,"y":2578669.0700000003}},{"attributes":{"ID":134435,"DIS_CODE":0,"TOWNNAME":"東山區","LI":"聖賢里","LIN":"19鄰","STREET":" ","SECT":" ","MAREA":"頂窩","LANE":" ","ALLEY":" ","HOUSE_NO":"４５號","E_COORD97":183110.44,"N_COORD97":2578655.5800000001,"ADDRESS":"頂窩４５號","OBJECTID":134435},"geometry":{"x":183110.44000000134,"y":2578655.5800000001}},{"attributes":{"ID":134436,"DIS_CODE":0,"TOWNNAME":"東山區","LI":"聖賢里","LIN":"19鄰","STREET":" ","SECT":" ","MAREA":"頂窩","LANE":" ","ALLEY":" ","HOUSE_NO":"４６號之２","E_COORD97":183104.63,"N_COORD97":2578617.77,"ADDRESS":"頂窩４６號之２","OBJECTID":134436},"geometry":{"x":183104.63000000175,"y":2578617.7700000014}},{"attributes":{"ID":134437,"DIS_CODE":0,"TOWNNAME":"東山區","LI":"聖賢里","LIN":"19鄰","STREET":" ","SECT":" ","MAREA":"頂窩","LANE":" ","ALLEY":" ","HOUSE_NO":"４６號之４","E_COORD97":183078.67000000001,"N_COORD97":2578615.1499999999,"ADDRESS":"頂窩４６號之４","OBJECTID":134437},"geometry":{"x":183078.66999999993,"y":2578615.1500000004}},{"attributes":{"ID":134438,"DIS_CODE":0,"TOWNNAME":"東山區","LI":"聖賢里","LIN":"19鄰","STREET":" ","SECT":" ","MAREA":"頂窩","LANE":" ","ALLEY":" ","HOUSE_NO":"４６號之５","E_COORD97":183087.56,"N_COORD97":2578626.8799999999,"ADDRESS":"頂窩４６號之５","OBJECTID":134438},"geometry":{"x":183087.55999999959,"y":2578626.8800000008}},{"attributes":{"ID":134439,"DIS_CODE":0,"TOWNNAME":"東山區","LI":"聖賢里","LIN":"19鄰","STREET":" ","SECT":" ","MAREA":"頂窩","LANE":" ","ALLEY":" ","HOUSE_NO":"４６號之７","E_COORD97":183085.82999999999,"N_COORD97":2578616.21,"ADDRESS":"頂窩４６號之７","OBJECTID":134439},"geometry":{"x":183085.83000000007,"y":2578616.2100000028}},{"attributes":{"ID":134440,"DIS_CODE":0,"TOWNNAME":"東山區","LI":"聖賢里","LIN":"19鄰","STREET":" ","SECT":" ","MAREA":"頂窩","LANE":" ","ALLEY":" ","HOUSE_NO":"４７號之１","E_COORD97":183145.29000000001,"N_COORD97":2578687.25,"ADDRESS":"頂窩４７號之１","OBJECTID":134440},"geometry":{"x":183145.29000000004,"y":2578687.2500000019}},{"attributes":{"ID":134441,"DIS_CODE":0,"TOWNNAME":"東山區","LI":"聖賢里","LIN":"19鄰","STREET":" ","SECT":" ","MAREA":"頂窩","LANE":" ","ALLEY":" ","HOUSE_NO":"４７號","E_COORD97":183130.03,"N_COORD97":2578663.4300000002,"ADDRESS":"頂窩４７號","OBJECTID":134441},"geometry":{"x":183130.03000000119,"y":2578663.4299999997}},{"attributes":{"ID":134442,"DIS_CODE":0,"TOWNNAME":"東山區","LI":"聖賢里","LIN":"19鄰","STREET":" ","SECT":" ","MAREA":"頂窩","LANE":" ","ALLEY":" ","HOUSE_NO":"４８號之１０","E_COORD97":183146.59,"N_COORD97":2578641.5899999999,"ADDRESS":"頂窩４８號之１０","OBJECTID":134442},"geometry":{"x":183146.58999999985,"y":2578641.5899999999}},{"attributes":{"ID":134443,"DIS_CODE":0,"TOWNNAME":"東山區","LI":"聖賢里","LIN":"19鄰","STREET":" ","SECT":" ","MAREA":"頂窩","LANE":" ","ALLEY":" ","HOUSE_NO":"４８號之１１","E_COORD97":183125.54999999999,"N_COORD97":2578618.8500000001,"ADDRESS":"頂窩４８號之１１","OBJECTID":134443},"geometry":{"x":183125.55000000075,"y":2578618.8499999996}},{"attributes":{"ID":134444,"DIS_CODE":0,"TOWNNAME":"東山區","LI":"聖賢里","LIN":"19鄰","STREET":" ","SECT":" ","MAREA":"頂窩","LANE":" ","ALLEY":" ","HOUSE_NO":"４８號之４","E_COORD97":183135.07000000001,"N_COORD97":2578620.1400000001,"ADDRESS":"頂窩４８號之４","OBJECTID":134444},"geometry":{"x":183135.0700000003,"y":2578620.1400000025}},{"attributes":{"ID":134445,"DIS_CODE":0,"TOWNNAME":"東山區","LI":"聖賢里","LIN":"19鄰","STREET":" ","SECT":" ","MAREA":"頂窩","LANE":" ","ALLEY":" ","HOUSE_NO":"４８號之５","E_COORD97":183140.85999999999,"N_COORD97":2578621.2999999998,"ADDRESS":"頂窩４８號之５","OBJECTID":134445},"geometry":{"x":183140.8600000022,"y":2578621.3000000007}},{"attributes":{"ID":134446,"DIS_CODE":0,"TOWNNAME":"東山區","LI":"聖賢里","LIN":"19鄰","STREET":" ","SECT":" ","MAREA":"頂窩","LANE":" ","ALLEY":" ","HOUSE_NO":"４８號之６","E_COORD97":183153.37,"N_COORD97":2578622.7999999998,"ADDRESS":"頂窩４８號之６","OBJECTID":134446},"geometry":{"x":183153.37000000011,"y":2578622.8000000026}},{"attributes":{"ID":134447,"DIS_CODE":0,"TOWNNAME":"東山區","LI":"聖賢里","LIN":"15鄰","STREET":" ","SECT":" ","MAREA":"頂窩","LANE":" ","ALLEY":" ","HOUSE_NO":"４號","E_COORD97":183383.14000000001,"N_COORD97":2578496.48,"ADDRESS":"頂窩４號","OBJECTID":134447},"geometry":{"x":183383.13999999966,"y":2578496.4800000023}},{"attributes":{"ID":134448,"DIS_CODE":0,"TOWNNAME":"東山區","LI":"聖賢里","LIN":"19鄰","STREET":" ","SECT":" ","MAREA":"頂窩","LANE":" ","ALLEY":" ","HOUSE_NO":"４８號之７","E_COORD97":183129.89000000001,"N_COORD97":2578638.4500000002,"ADDRESS":"頂窩４８號之７","OBJECTID":134448},"geometry":{"x":183129.8900000006,"y":2578638.4499999993}},{"attributes":{"ID":134449,"DIS_CODE":0,"TOWNNAME":"東山區","LI":"聖賢里","LIN":"19鄰","STREET":" ","SECT":" ","MAREA":"頂窩","LANE":" ","ALLEY":" ","HOUSE_NO":"４８號之８","E_COORD97":183135.31,"N_COORD97":2578639.5099999998,"ADDRESS":"頂窩４８號之８","OBJECTID":134449},"geometry":{"x":183135.31000000145,"y":2578639.5099999979}},{"attributes":{"ID":134450,"DIS_CODE":0,"TOWNNAME":"東山區","LI":"聖賢里","LIN":"19鄰","STREET":" ","SECT":" ","MAREA":"頂窩","LANE":" ","ALLEY":" ","HOUSE_NO":"４８號之９","E_COORD97":183141.19,"N_COORD97":2578640.6899999999,"ADDRESS":"頂窩４８號之９","OBJECTID":134450},"geometry":{"x":183141.19000000041,"y":2578640.6899999995}},{"attributes":{"ID":134451,"DIS_CODE":0,"TOWNNAME":"東山區","LI":"聖賢里","LIN":"19鄰","STREET":" ","SECT":" ","MAREA":"頂窩","LANE":" ","ALLEY":" ","HOUSE_NO":"４８號","E_COORD97":183159.16,"N_COORD97":2578623.9399999999,"ADDRESS":"頂窩４８號","OBJECTID":134451},"geometry":{"x":183159.16000000108,"y":2578623.9400000013}},{"attributes":{"ID":134452,"DIS_CODE":0,"TOWNNAME":"東山區","LI":"聖賢里","LIN":"19鄰","STREET":" ","SECT":" ","MAREA":"頂窩","LANE":" ","ALLEY":" ","HOUSE_NO":"５０號之１","E_COORD97":183243.04999999999,"N_COORD97":2578629.6800000002,"ADDRESS":"頂窩５０號之１","OBJECTID":134452},"geometry":{"x":183243.05000000075,"y":2578629.6800000016}},{"attributes":{"ID":134453,"DIS_CODE":0,"TOWNNAME":"東山區","LI":"聖賢里","LIN":"19鄰","STREET":" ","SECT":" ","MAREA":"頂窩","LANE":" ","ALLEY":" ","HOUSE_NO":"５０號之２","E_COORD97":183227.82999999999,"N_COORD97":2578638.6600000001,"ADDRESS":"頂窩５０號之２","OBJECTID":134453},"geometry":{"x":183227.83000000101,"y":2578638.6600000001}},{"attributes":{"ID":134454,"DIS_CODE":0,"TOWNNAME":"東山區","LI":"聖賢里","LIN":"19鄰","STREET":" ","SECT":" ","MAREA":"頂窩","LANE":" ","ALLEY":" ","HOUSE_NO":"５０號之３","E_COORD97":183205.82000000001,"N_COORD97":2578635.48,"ADDRESS":"頂窩５０號之３","OBJECTID":134454},"geometry":{"x":183205.82000000123,"y":2578635.4800000023}},{"attributes":{"ID":134455,"DIS_CODE":0,"TOWNNAME":"東山區","LI":"聖賢里","LIN":"19鄰","STREET":" ","SECT":" ","MAREA":"頂窩","LANE":" ","ALLEY":" ","HOUSE_NO":"５０號之６","E_COORD97":183246.56,"N_COORD97":2578645.27,"ADDRESS":"頂窩５０號之６","OBJECTID":134455},"geometry":{"x":183246.55999999959,"y":2578645.2700000014}},{"attributes":{"ID":134456,"DIS_CODE":0,"TOWNNAME":"東山區","LI":"聖賢里","LIN":"19鄰","STREET":" ","SECT":" ","MAREA":"頂窩","LANE":" ","ALLEY":" ","HOUSE_NO":"５０號","E_COORD97":183195.45999999999,"N_COORD97":2578645.7999999998,"ADDRESS":"頂窩５０號","OBJECTID":134456},"geometry":{"x":183195.45999999996,"y":2578645.8000000045}},{"attributes":{"ID":134457,"DIS_CODE":0,"TOWNNAME":"仁德區","LI":"成功里","LIN":"20鄰","STREET":"保生路","SECT":" ","MAREA":" ","LANE":"１２３巷","ALLEY":"６弄","HOUSE_NO":"５號","E_COORD97":170597.67999999999,"N_COORD97":2539791,"ADDRESS":"保生路１２３巷６弄５號","OBJECTID":134457},"geometry":{"x":170597.68000000063,"y":2539791.0000000019}},{"attributes":{"ID":134458,"DIS_CODE":0,"TOWNNAME":"仁德區","LI":"後壁里","LIN":"35鄰","STREET":"德洋路","SECT":" ","MAREA":" ","LANE":"１８３巷","ALLEY":"２弄","HOUSE_NO":"１７號","E_COORD97":172442.82000000001,"N_COORD97":2539445.2599999998,"ADDRESS":"德洋路１８３巷２弄１７號","OBJECTID":134458},"geometry":{"x":172442.82000000123,"y":2539445.2600000035}},{"attributes":{"ID":134459,"DIS_CODE":0,"TOWNNAME":"仁德區","LI":"後壁里","LIN":"12鄰","STREET":"德善路","SECT":" ","MAREA":" ","LANE":"２４０巷","ALLEY":"３１弄","HOUSE_NO":"１０號","E_COORD97":173850.79999999999,"N_COORD97":2538552.02,"ADDRESS":"德善路２４０巷３１弄１０號","OBJECTID":134459},"geometry":{"x":173850.79999999981,"y":2538552.0200000014}},{"attributes":{"ID":134460,"DIS_CODE":0,"TOWNNAME":"永康區","LI":"永康里","LIN":"6鄰","STREET":"中山南路","SECT":" ","MAREA":" ","LANE":" ","ALLEY":" ","HOUSE_NO":"６４１號","E_COORD97":173795.67000000001,"N_COORD97":2547350.8700000001,"ADDRESS":"中山南路６４１號","OBJECTID":134460},"geometry":{"x":173795.66999999993,"y":2547350.870000001}},{"attributes":{"ID":134461,"DIS_CODE":0,"TOWNNAME":"南區","LI":"大忠里","LIN":"27鄰","STREET":"大同路","SECT":"二段","MAREA":" ","LANE":"４８２巷","ALLEY":"１５５弄","HOUSE_NO":"１６號","E_COORD97":168972.01999999999,"N_COORD97":2541508.29,"ADDRESS":"大同路二段４８２巷１５５弄１６號","OBJECTID":134461},"geometry":{"x":168972.01999999862,"y":2541508.2899999991}},{"attributes":{"ID":134462,"DIS_CODE":0,"TOWNNAME":"南區","LI":"大忠里","LIN":"27鄰","STREET":"大同路","SECT":"二段","MAREA":" ","LANE":"４８２巷","ALLEY":"１５５弄","HOUSE_NO":"１８號","E_COORD97":168969.62,"N_COORD97":2541505.1800000002,"ADDRESS":"大同路二段４８２巷１５５弄１８號","OBJECTID":134462},"geometry":{"x":168969.62000000011,"y":2541505.1800000016}},{"attributes":{"ID":134463,"DIS_CODE":0,"TOWNNAME":"永康區","LI":"永康里","LIN":"6鄰","STREET":"中山南路","SECT":" ","MAREA":" ","LANE":" ","ALLEY":" ","HOUSE_NO":"６４５號","E_COORD97":173804.37,"N_COORD97":2547353.1200000001,"ADDRESS":"中山南路６４５號","OBJECTID":134463},"geometry":{"x":173804.37000000011,"y":2547353.120000001}},{"attributes":{"ID":134464,"DIS_CODE":0,"TOWNNAME":"南區","LI":"大忠里","LIN":"27鄰","STREET":"大同路","SECT":"二段","MAREA":" ","LANE":"４８２巷","ALLEY":"１５５弄","HOUSE_NO":"２０號","E_COORD97":168966.03,"N_COORD97":2541502.3100000001,"ADDRESS":"大同路二段４８２巷１５５弄２０號","OBJECTID":134464},"geometry":{"x":168966.03000000212,"y":2541502.3100000005}},{"attributes":{"ID":134465,"DIS_CODE":0,"TOWNNAME":"南區","LI":"大忠里","LIN":"27鄰","STREET":"大同路","SECT":"二段","MAREA":" ","LANE":"４８２巷","ALLEY":"１５５弄","HOUSE_NO":"２２號","E_COORD97":168962.19,"N_COORD97":2541499.9199999999,"ADDRESS":"大同路二段４８２巷１５５弄２２號","OBJECTID":134465},"geometry":{"x":168962.19000000134,"y":2541499.9200000018}},{"attributes":{"ID":134466,"DIS_CODE":0,"TOWNNAME":"永康區","LI":"安康里","LIN":"6鄰","STREET":"中華路","SECT":" ","MAREA":" ","LANE":" ","ALLEY":" ","HOUSE_NO":"７２５之１號底一層之","E_COORD97":170838.81,"N_COORD97":2546407.2999999998,"ADDRESS":"中華路７２５之１號底一層之１","OBJECTID":134466},"geometry":{"x":170838.81000000052,"y":2546407.3000000026}},{"attributes":{"ID":134467,"DIS_CODE":0,"TOWNNAME":"永康區","LI":"安康里","LIN":"6鄰","STREET":"大橋一街","SECT":" ","MAREA":" ","LANE":" ","ALLEY":" ","HOUSE_NO":"４９之３號","E_COORD97":170713.67000000001,"N_COORD97":2546311.1099999999,"ADDRESS":"大橋一街４９之３號","OBJECTID":134467},"geometry":{"x":170713.66999999993,"y":2546311.1099999975}},{"attributes":{"ID":134468,"DIS_CODE":0,"TOWNNAME":"仁德區","LI":"後壁里","LIN":"41鄰","STREET":"德善路","SECT":" ","MAREA":" ","LANE":"２５１巷","ALLEY":"７弄","HOUSE_NO":"１７號","E_COORD97":173844.29999999999,"N_COORD97":2538728.2400000002,"ADDRESS":"德善路２５１巷７弄１７號","OBJECTID":134468},"geometry":{"x":173844.30000000168,"y":2538728.2400000021}},{"attributes":{"ID":134469,"DIS_CODE":0,"TOWNNAME":"南區","LI":"大忠里","LIN":"27鄰","STREET":"大同路","SECT":"二段","MAREA":" ","LANE":"４８２巷","ALLEY":"１５５弄","HOUSE_NO":"２４號","E_COORD97":168957.35000000001,"N_COORD97":2541498.7000000002,"ADDRESS":"大同路二段４８２巷１５５弄２４號","OBJECTID":134469},"geometry":{"x":168957.34999999963,"y":2541498.6999999993}},{"attributes":{"ID":134470,"DIS_CODE":0,"TOWNNAME":"南區","LI":"大忠里","LIN":"27鄰","STREET":"大同路","SECT":"二段","MAREA":" ","LANE":"４８２巷","ALLEY":"１５５弄","HOUSE_NO":"２５號","E_COORD97":169022.56,"N_COORD97":2541516.3999999999,"ADDRESS":"大同路二段４８２巷１５５弄２５號","OBJECTID":134470},"geometry":{"x":169022.55999999959,"y":2541516.4000000041}},{"attributes":{"ID":134471,"DIS_CODE":0,"TOWNNAME":"南區","LI":"大忠里","LIN":"27鄰","STREET":"大同路","SECT":"二段","MAREA":" ","LANE":"４８２巷","ALLEY":"１５５弄","HOUSE_NO":"２６號","E_COORD97":168953.14999999999,"N_COORD97":2541496.1499999999,"ADDRESS":"大同路二段４８２巷１５５弄２６號","OBJECTID":134471},"geometry":{"x":168953.15000000037,"y":2541496.1500000004}},{"attributes":{"ID":134472,"DIS_CODE":0,"TOWNNAME":"南區","LI":"大忠里","LIN":"27鄰","STREET":"大同路","SECT":"二段","MAREA":" ","LANE":"４８２巷","ALLEY":"１５５弄","HOUSE_NO":"２７號","E_COORD97":169018.26999999999,"N_COORD97":2541512.5499999998,"ADDRESS":"大同路二段４８２巷１５５弄２７號","OBJECTID":134472},"geometry":{"x":169018.27000000048,"y":2541512.5500000045}},{"attributes":{"ID":134473,"DIS_CODE":0,"TOWNNAME":"南區","LI":"大忠里","LIN":"27鄰","STREET":"大同路","SECT":"二段","MAREA":" ","LANE":"４８２巷","ALLEY":"１５５弄","HOUSE_NO":"２８號","E_COORD97":168950.35999999999,"N_COORD97":2541492.8999999999,"ADDRESS":"大同路二段４８２巷１５５弄２８號","OBJECTID":134473},"geometry":{"x":168950.3600000022,"y":2541492.9000000041}},{"attributes":{"ID":134474,"DIS_CODE":0,"TOWNNAME":"南區","LI":"大忠里","LIN":"27鄰","STREET":"大同路","SECT":"二段","MAREA":" ","LANE":"４８２巷","ALLEY":"１５５弄","HOUSE_NO":"２９號","E_COORD97":169015.06,"N_COORD97":2541509.3399999999,"ADDRESS":"大同路二段４８２巷１５５弄２９號","OBJECTID":134474},"geometry":{"x":169015.06000000052,"y":2541509.339999998}},{"attributes":{"ID":134475,"DIS_CODE":0,"TOWNNAME":"南區","LI":"大忠里","LIN":"27鄰","STREET":"大同路","SECT":"二段","MAREA":" ","LANE":"４８２巷","ALLEY":"１５５弄","HOUSE_NO":"３０號","E_COORD97":168947.32999999999,"N_COORD97":2541489.8799999999,"ADDRESS":"大同路二段４８２巷１５５弄３０號","OBJECTID":134475},"geometry":{"x":168947.33000000101,"y":2541489.879999999}},{"attributes":{"ID":134476,"DIS_CODE":0,"TOWNNAME":"南區","LI":"大忠里","LIN":"27鄰","STREET":"大同路","SECT":"二段","MAREA":" ","LANE":"４８２巷","ALLEY":"１５５弄","HOUSE_NO":"３１號","E_COORD97":169011.41,"N_COORD97":2541505.2799999998,"ADDRESS":"大同路二段４８２巷１５５弄３１號","OBJECTID":134476},"geometry":{"x":169011.41000000108,"y":2541505.2799999993}},{"attributes":{"ID":134477,"DIS_CODE":0,"TOWNNAME":"南區","LI":"大忠里","LIN":"27鄰","STREET":"大同路","SECT":"二段","MAREA":" ","LANE":"４８２巷","ALLEY":"１５５弄","HOUSE_NO":"３２號","E_COORD97":168942.42999999999,"N_COORD97":2541504.8599999999,"ADDRESS":"大同路二段４８２巷１５５弄３２號","OBJECTID":134477},"geometry":{"x":168942.43000000156,"y":2541504.8599999994}},{"attributes":{"ID":134478,"DIS_CODE":0,"TOWNNAME":"南區","LI":"大忠里","LIN":"27鄰","STREET":"大同路","SECT":"二段","MAREA":" ","LANE":"４８２巷","ALLEY":"１５５弄","HOUSE_NO":"３４號","E_COORD97":168937.32000000001,"N_COORD97":2541509.9500000002,"ADDRESS":"大同路二段４８２巷１５５弄３４號","OBJECTID":134478},"geometry":{"x":168937.32000000123,"y":2541509.9499999993}},{"attributes":{"ID":134479,"DIS_CODE":0,"TOWNNAME":"南區","LI":"大忠里","LIN":"27鄰","STREET":"大同路","SECT":"二段","MAREA":" ","LANE":"４８２巷","ALLEY":"１５５弄","HOUSE_NO":"３６號","E_COORD97":168916.85999999999,"N_COORD97":2541494.0600000001,"ADDRESS":"大同路二段４８２巷１５５弄３６號","OBJECTID":134479},"geometry":{"x":168916.86000000127,"y":2541494.0600000005}},{"attributes":{"ID":134480,"DIS_CODE":0,"TOWNNAME":"南區","LI":"大忠里","LIN":"27鄰","STREET":"大同路","SECT":"二段","MAREA":" ","LANE":"４８２巷","ALLEY":"１５５弄","HOUSE_NO":"３７號","E_COORD97":168999.60999999999,"N_COORD97":2541495.4399999999,"ADDRESS":"大同路二段４８２巷１５５弄３７號","OBJECTID":134480},"geometry":{"x":168999.6100000022,"y":2541495.4400000013}},{"attributes":{"ID":134481,"DIS_CODE":0,"TOWNNAME":"南區","LI":"大忠里","LIN":"27鄰","STREET":"大同路","SECT":"二段","MAREA":" ","LANE":"４８２巷","ALLEY":"１５５弄","HOUSE_NO":"３８號","E_COORD97":168919.57999999999,"N_COORD97":2541490.6400000001,"ADDRESS":"大同路二段４８２巷１５５弄３８號","OBJECTID":134481},"geometry":{"x":168919.58000000007,"y":2541490.6400000006}},{"attributes":{"ID":134482,"DIS_CODE":0,"TOWNNAME":"南區","LI":"大忠里","LIN":"27鄰","STREET":"大同路","SECT":"二段","MAREA":" ","LANE":"４８２巷","ALLEY":"１５５弄","HOUSE_NO":"３９號","E_COORD97":168996.39000000001,"N_COORD97":2541492.6600000001,"ADDRESS":"大同路二段４８２巷１５５弄３９號","OBJECTID":134482},"geometry":{"x":168996.38999999966,"y":2541492.6600000001}},{"attributes":{"ID":134483,"DIS_CODE":0,"TOWNNAME":"仁德區","LI":"仁愛里","LIN":"28鄰","STREET":"大同路","SECT":"三段","MAREA":" ","LANE":"４９０巷","ALLEY":" ","HOUSE_NO":"４５號","E_COORD97":169715.20000000001,"N_COORD97":2539196.1499999999,"ADDRESS":"大同路三段４９０巷４５號","OBJECTID":134483},"geometry":{"x":169715.20000000019,"y":2539196.1500000022}},{"attributes":{"ID":134484,"DIS_CODE":0,"TOWNNAME":"東山區","LI":"聖賢里","LIN":"19鄰","STREET":" ","SECT":" ","MAREA":"頂窩","LANE":" ","ALLEY":" ","HOUSE_NO":"５１號之１","E_COORD97":183258.04000000001,"N_COORD97":2578643.46,"ADDRESS":"頂窩５１號之１","OBJECTID":134484},"geometry":{"x":183258.04000000097,"y":2578643.4600000009}},{"attributes":{"ID":134485,"DIS_CODE":0,"TOWNNAME":"東山區","LI":"聖賢里","LIN":"19鄰","STREET":" ","SECT":" ","MAREA":"頂窩","LANE":" ","ALLEY":" ","HOUSE_NO":"５１號","E_COORD97":183257.04000000001,"N_COORD97":2578631.21,"ADDRESS":"頂窩５１號","OBJECTID":134485},"geometry":{"x":183257.04000000004,"y":2578631.2100000009}},{"attributes":{"ID":134486,"DIS_CODE":0,"TOWNNAME":"東山區","LI":"聖賢里","LIN":"19鄰","STREET":" ","SECT":" ","MAREA":"頂窩","LANE":" ","ALLEY":" ","HOUSE_NO":"５２號之１","E_COORD97":183274.35999999999,"N_COORD97":2578629.3500000001,"ADDRESS":"頂窩５２號之１","OBJECTID":134486},"geometry":{"x":183274.36000000034,"y":2578629.3499999996}},{"attributes":{"ID":134487,"DIS_CODE":0,"TOWNNAME":"東山區","LI":"聖賢里","LIN":"19鄰","STREET":" ","SECT":" ","MAREA":"頂窩","LANE":" ","ALLEY":" ","HOUSE_NO":"５２號之２","E_COORD97":183279.64000000001,"N_COORD97":2578628.4700000002,"ADDRESS":"頂窩５２號之２","OBJECTID":134487},"geometry":{"x":183279.6400000006,"y":2578628.4700000025}},{"attributes":{"ID":134488,"DIS_CODE":0,"TOWNNAME":"佳里區","LI":"建南里","LIN":"38鄰","STREET":"佳南路","SECT":" ","MAREA":" ","LANE":" ","ALLEY":" ","HOUSE_NO":"３７０號","E_COORD97":165778.85999999999,"N_COORD97":2560952.0699999998,"ADDRESS":"佳南路３７０號","OBJECTID":134488},"geometry":{"x":165778.86000000127,"y":2560952.0699999984}},{"attributes":{"ID":134489,"DIS_CODE":0,"TOWNNAME":"佳里區","LI":"建南里","LIN":"38鄰","STREET":"佳南路","SECT":" ","MAREA":" ","LANE":" ","ALLEY":" ","HOUSE_NO":"３７２號","E_COORD97":165771.59,"N_COORD97":2560952.71,"ADDRESS":"佳南路３７２號","OBJECTID":134489},"geometry":{"x":165771.59000000171,"y":2560952.7100000028}},{"attributes":{"ID":134490,"DIS_CODE":0,"TOWNNAME":"佳里區","LI":"東寧里","LIN":" ","STREET":"延平路","SECT":" ","MAREA":" ","LANE":" ","ALLEY":" ","HOUSE_NO":"３２２號","E_COORD97":165876.34,"N_COORD97":2562393.3700000001,"ADDRESS":"延平路３２２號","OBJECTID":134490},"geometry":{"x":165876.33999999985,"y":2562393.3700000029}},{"attributes":{"ID":134491,"DIS_CODE":0,"TOWNNAME":"南區","LI":"大忠里","LIN":"27鄰","STREET":"大同路","SECT":"二段","MAREA":" ","LANE":"４８２巷","ALLEY":"１５５弄","HOUSE_NO":"４０號","E_COORD97":168922.14999999999,"N_COORD97":2541486.79,"ADDRESS":"大同路二段４８２巷１５５弄４０號","OBJECTID":134491},"geometry":{"x":168922.15000000037,"y":2541486.790000001}},{"attributes":{"ID":134492,"DIS_CODE":0,"TOWNNAME":"佳里區","LI":"東寧里","LIN":" ","STREET":"延平路","SECT":" ","MAREA":" ","LANE":" ","ALLEY":" ","HOUSE_NO":"３２４號","E_COORD97":165874.92000000001,"N_COORD97":2562402.5899999999,"ADDRESS":"延平路３２４號","OBJECTID":134492},"geometry":{"x":165874.92000000086,"y":2562402.5900000036}},{"attributes":{"ID":134493,"DIS_CODE":0,"TOWNNAME":"南區","LI":"大忠里","LIN":"27鄰","STREET":"大同路","SECT":"二段","MAREA":" ","LANE":"４８２巷","ALLEY":"１５５弄","HOUSE_NO":"４１號","E_COORD97":168992.32000000001,"N_COORD97":2541489.4500000002,"ADDRESS":"大同路二段４８２巷１５５弄４１號","OBJECTID":134493},"geometry":{"x":168992.3200000003,"y":2541489.4500000011}},{"attributes":{"ID":134494,"DIS_CODE":0,"TOWNNAME":"佳里區","LI":"東寧里","LIN":" ","STREET":"延平路","SECT":" ","MAREA":" ","LANE":" ","ALLEY":" ","HOUSE_NO":"３２６號","E_COORD97":165874.37,"N_COORD97":2562411.5899999999,"ADDRESS":"延平路３２６號","OBJECTID":134494},"geometry":{"x":165874.37000000011,"y":2562411.5899999999}},{"attributes":{"ID":134495,"DIS_CODE":0,"TOWNNAME":"佳里區","LI":"東寧里","LIN":" ","STREET":"延平路","SECT":" ","MAREA":" ","LANE":" ","ALLEY":" ","HOUSE_NO":"３３０號","E_COORD97":165873.60000000001,"N_COORD97":2562417.1000000001,"ADDRESS":"延平路３３０號","OBJECTID":134495},"geometry":{"x":165873.60000000056,"y":2562417.1000000015}},{"attributes":{"ID":134496,"DIS_CODE":0,"TOWNNAME":"佳里區","LI":"東寧里","LIN":" ","STREET":"延平路","SECT":" ","MAREA":" ","LANE":" ","ALLEY":" ","HOUSE_NO":"３７５號","E_COORD97":165838.32000000001,"N_COORD97":2562639.3799999999,"ADDRESS":"延平路３７５號","OBJECTID":134496},"geometry":{"x":165838.32000000123,"y":2562639.379999999}},{"attributes":{"ID":134497,"DIS_CODE":0,"TOWNNAME":"佳里區","LI":"六安里","LIN":" ","STREET":"延平路","SECT":" ","MAREA":" ","LANE":" ","ALLEY":" ","HOUSE_NO":"６３２號","E_COORD97":165954.07999999999,"N_COORD97":2563268.8500000001,"ADDRESS":"延平路６３２號","OBJECTID":134497},"geometry":{"x":165954.08000000007,"y":2563268.8500000034}},{"attributes":{"ID":134498,"DIS_CODE":0,"TOWNNAME":"佳里區","LI":"六安里","LIN":" ","STREET":"延平路","SECT":" ","MAREA":" ","LANE":" ","ALLEY":" ","HOUSE_NO":"７２６號","E_COORD97":166008.09,"N_COORD97":2563552.6899999999,"ADDRESS":"延平路７２６號","OBJECTID":134498},"geometry":{"x":166008.08999999985,"y":2563552.6899999995}},{"attributes":{"ID":134499,"DIS_CODE":0,"TOWNNAME":"佳里區","LI":"六安里","LIN":" ","STREET":"延平路","SECT":" ","MAREA":" ","LANE":" ","ALLEY":" ","HOUSE_NO":"７２８號","E_COORD97":166011.07000000001,"N_COORD97":2563566.8799999999,"ADDRESS":"延平路７２８號","OBJECTID":134499},"geometry":{"x":166011.07000000216,"y":2563566.8800000008}},{"attributes":{"ID":134500,"DIS_CODE":0,"TOWNNAME":"佳里區","LI":"鎮山里","LIN":" ","STREET":"延平路","SECT":" ","MAREA":" ","LANE":" ","ALLEY":" ","HOUSE_NO":"９１號","E_COORD97":165911.10000000001,"N_COORD97":2561757.6499999999,"ADDRESS":"延平路９１號","OBJECTID":134500},"geometry":{"x":165911.09999999963,"y":2561757.6500000004}},{"attributes":{"ID":134501,"DIS_CODE":0,"TOWNNAME":"佳里區","LI":"安西里","LIN":" ","STREET":"忠孝路","SECT":" ","MAREA":" ","LANE":" ","ALLEY":" ","HOUSE_NO":"３２９號","E_COORD97":165045.66,"N_COORD97":2563285.9399999999,"ADDRESS":"忠孝路３２９號","OBJECTID":134501},"geometry":{"x":165045.65999999922,"y":2563285.9400000013}},{"attributes":{"ID":134502,"DIS_CODE":0,"TOWNNAME":"佳里區","LI":"安西里","LIN":" ","STREET":"忠孝路","SECT":" ","MAREA":" ","LANE":" ","ALLEY":" ","HOUSE_NO":"３６７號","E_COORD97":164972.94,"N_COORD97":2563343.0699999998,"ADDRESS":"忠孝路３６７號","OBJECTID":134502},"geometry":{"x":164972.94000000227,"y":2563343.0700000022}},{"attributes":{"ID":134503,"DIS_CODE":0,"TOWNNAME":"佳里區","LI":"六安里","LIN":" ","STREET":"林園街","SECT":" ","MAREA":" ","LANE":" ","ALLEY":" ","HOUSE_NO":"１１２號","E_COORD97":165782.41,"N_COORD97":2562881.7200000002,"ADDRESS":"林園街１１２號","OBJECTID":134503},"geometry":{"x":165782.41000000015,"y":2562881.7200000025}},{"attributes":{"ID":134504,"DIS_CODE":0,"TOWNNAME":"南區","LI":"大忠里","LIN":"27鄰","STREET":"大同路","SECT":"二段","MAREA":" ","LANE":"４８２巷","ALLEY":"１５５弄","HOUSE_NO":"４２號","E_COORD97":168925.01000000001,"N_COORD97":2541483.2200000002,"ADDRESS":"大同路二段４８２巷１５５弄４２號","OBJECTID":134504},"geometry":{"x":168925.01000000164,"y":2541483.2200000007}},{"attributes":{"ID":134505,"DIS_CODE":0,"TOWNNAME":"佳里區","LI":"建南里","LIN":" ","STREET":"南勢街","SECT":" ","MAREA":" ","LANE":" ","ALLEY":" ","HOUSE_NO":"９５號","E_COORD97":165893.10000000001,"N_COORD97":2560763.1499999999,"ADDRESS":"南勢街９５號","OBJECTID":134505},"geometry":{"x":165893.0999999987,"y":2560763.1500000022}},{"attributes":{"ID":134506,"DIS_CODE":0,"TOWNNAME":"佳里區","LI":"建南里","LIN":" ","STREET":"建中街","SECT":" ","MAREA":" ","LANE":" ","ALLEY":" ","HOUSE_NO":"１４２號","E_COORD97":165543.60000000001,"N_COORD97":2562061.7200000002,"ADDRESS":"建中街１４２號","OBJECTID":134506},"geometry":{"x":165543.59999999963,"y":2562061.7200000025}},{"attributes":{"ID":134507,"DIS_CODE":0,"TOWNNAME":"南區","LI":"大忠里","LIN":"27鄰","STREET":"大同路","SECT":"二段","MAREA":" ","LANE":"４８２巷","ALLEY":"１５５弄","HOUSE_NO":"４８號","E_COORD97":168931.53,"N_COORD97":2541475.2000000002,"ADDRESS":"大同路二段４８２巷１５５弄４８號","OBJECTID":134507},"geometry":{"x":168931.53000000026,"y":2541475.1999999993}},{"attributes":{"ID":134508,"DIS_CODE":0,"TOWNNAME":"南區","LI":"大忠里","LIN":"27鄰","STREET":"大同路","SECT":"二段","MAREA":" ","LANE":"４８２巷","ALLEY":"１５５弄","HOUSE_NO":"５０號","E_COORD97":168927.28,"N_COORD97":2541472.2000000002,"ADDRESS":"大同路二段４８２巷１５５弄５０號","OBJECTID":134508},"geometry":{"x":168927.28000000119,"y":2541472.1999999993}},{"attributes":{"ID":134509,"DIS_CODE":0,"TOWNNAME":"南區","LI":"大忠里","LIN":"27鄰","STREET":"大同路","SECT":"二段","MAREA":" ","LANE":"４８２巷","ALLEY":"１５５弄","HOUSE_NO":"５３號","E_COORD97":168968.82999999999,"N_COORD97":2541470.7200000002,"ADDRESS":"大同路二段４８２巷１５５弄５３號","OBJECTID":134509},"geometry":{"x":168968.83000000194,"y":2541470.7200000044}},{"attributes":{"ID":134510,"DIS_CODE":0,"TOWNNAME":"南區","LI":"大忠里","LIN":"27鄰","STREET":"大同路","SECT":"二段","MAREA":" ","LANE":"４８２巷","ALLEY":"１５５弄","HOUSE_NO":"５５號","E_COORD97":168965.62,"N_COORD97":2541467.52,"ADDRESS":"大同路二段４８２巷１５５弄５５號","OBJECTID":134510},"geometry":{"x":168965.62000000104,"y":2541467.5200000033}},{"attributes":{"ID":134511,"DIS_CODE":0,"TOWNNAME":"南區","LI":"大忠里","LIN":"27鄰","STREET":"大同路","SECT":"二段","MAREA":" ","LANE":"４８２巷","ALLEY":"１５５弄","HOUSE_NO":"５７號","E_COORD97":168962.42000000001,"N_COORD97":2541464.3300000001,"ADDRESS":"大同路二段４８２巷１５５弄５７號","OBJECTID":134511},"geometry":{"x":168962.41999999993,"y":2541464.3300000001}},{"attributes":{"ID":134512,"DIS_CODE":0,"TOWNNAME":"南區","LI":"大忠里","LIN":"27鄰","STREET":"大同路","SECT":"二段","MAREA":" ","LANE":"４８２巷","ALLEY":"１５５弄","HOUSE_NO":"５９號","E_COORD97":168959.20999999999,"N_COORD97":2541461.1299999999,"ADDRESS":"大同路二段４８２巷１５５弄５９號","OBJECTID":134512},"geometry":{"x":168959.20999999996,"y":2541461.129999999}},{"attributes":{"ID":134513,"DIS_CODE":0,"TOWNNAME":"將軍區","LI":"保源里","LIN":"5鄰","STREET":" ","SECT":" ","MAREA":"苓保","LANE":" ","ALLEY":" ","HOUSE_NO":"４４號","E_COORD97":164607.54000000001,"N_COORD97":2568720.5899999999,"ADDRESS":"苓保４４號","OBJECTID":134513},"geometry":{"x":164607.5400000019,"y":2568720.5900000017}},{"attributes":{"ID":134514,"DIS_CODE":0,"TOWNNAME":"南區","LI":"大忠里","LIN":"27鄰","STREET":"大同路","SECT":"二段","MAREA":" ","LANE":"４８２巷","ALLEY":"１５５弄","HOUSE_NO":"６１號","E_COORD97":168955.78,"N_COORD97":2541458.3900000001,"ADDRESS":"大同路二段４８２巷１５５弄６１號","OBJECTID":134514},"geometry":{"x":168955.77999999933,"y":2541458.3900000006}},{"attributes":{"ID":134515,"DIS_CODE":0,"TOWNNAME":"南區","LI":"大忠里","LIN":"27鄰","STREET":"大同路","SECT":"二段","MAREA":" ","LANE":"４８２巷","ALLEY":"１５５弄","HOUSE_NO":"６３號","E_COORD97":168952.57000000001,"N_COORD97":2541455.2000000002,"ADDRESS":"大同路二段４８２巷１５５弄６３號","OBJECTID":134515},"geometry":{"x":168952.57000000123,"y":2541455.1999999993}},{"attributes":{"ID":134516,"DIS_CODE":0,"TOWNNAME":"仁德區","LI":"成功里","LIN":"9鄰","STREET":"成功二街","SECT":" ","MAREA":" ","LANE":"７巷","ALLEY":"１６弄","HOUSE_NO":"４３號","E_COORD97":170995.06,"N_COORD97":2539892.02,"ADDRESS":"成功二街７巷１６弄４３號","OBJECTID":134516},"geometry":{"x":170995.06000000052,"y":2539892.0200000014}},{"attributes":{"ID":134517,"DIS_CODE":0,"TOWNNAME":"柳營區","LI":"光福里","LIN":"27鄰","STREET":"十美街","SECT":" ","MAREA":" ","LANE":"４１０巷","ALLEY":"２弄","HOUSE_NO":"１１號","E_COORD97":180108.78,"N_COORD97":2575575.1400000001,"ADDRESS":"十美街４１０巷２弄１１號","OBJECTID":134517},"geometry":{"x":180108.78000000119,"y":2575575.1400000025}},{"attributes":{"ID":134518,"DIS_CODE":0,"TOWNNAME":"佳里區","LI":"建南里","LIN":" ","STREET":"建南街","SECT":" ","MAREA":" ","LANE":" ","ALLEY":" ","HOUSE_NO":"１３４號","E_COORD97":165706.5,"N_COORD97":2562112.71,"ADDRESS":"建南街１３４號","OBJECTID":134518},"geometry":{"x":165706.50000000093,"y":2562112.7100000028}},{"attributes":{"ID":134519,"DIS_CODE":0,"TOWNNAME":"佳里區","LI":"六安里","LIN":"24鄰","STREET":"延平路","SECT":" ","MAREA":" ","LANE":" ","ALLEY":" ","HOUSE_NO":"４７１號","E_COORD97":165867.95999999999,"N_COORD97":2562993.6499999999,"ADDRESS":"延平路４７１號","OBJECTID":134519},"geometry":{"x":165867.96000000089,"y":2562993.6500000022}},{"attributes":{"ID":134520,"DIS_CODE":0,"TOWNNAME":"佳里區","LI":"建南里","LIN":" ","STREET":"建南街","SECT":" ","MAREA":" ","LANE":" ","ALLEY":" ","HOUSE_NO":"２１號","E_COORD97":165580.07000000001,"N_COORD97":2561803.77,"ADDRESS":"建南街２１號","OBJECTID":134520},"geometry":{"x":165580.0700000003,"y":2561803.7699999996}},{"attributes":{"ID":134521,"DIS_CODE":0,"TOWNNAME":"柳營區","LI":"光福里","LIN":"27鄰","STREET":"十美街","SECT":" ","MAREA":" ","LANE":"４１０巷","ALLEY":"２弄","HOUSE_NO":"１號","E_COORD97":180087.62,"N_COORD97":2575575.6699999999,"ADDRESS":"十美街４１０巷２弄１號","OBJECTID":134521},"geometry":{"x":180087.62000000104,"y":2575575.6699999999}},{"attributes":{"ID":134522,"DIS_CODE":0,"TOWNNAME":"柳營區","LI":"光福里","LIN":"27鄰","STREET":"十美街","SECT":" ","MAREA":" ","LANE":"４１０巷","ALLEY":"２弄","HOUSE_NO":"３號","E_COORD97":180091.85000000001,"N_COORD97":2575575.5699999998,"ADDRESS":"十美街４１０巷２弄３號","OBJECTID":134522},"geometry":{"x":180091.84999999963,"y":2575575.5700000022}},{"attributes":{"ID":134523,"DIS_CODE":0,"TOWNNAME":"柳營區","LI":"光福里","LIN":"27鄰","STREET":"十美街","SECT":" ","MAREA":" ","LANE":"４１０巷","ALLEY":"２弄","HOUSE_NO":"５號","E_COORD97":180096.07999999999,"N_COORD97":2575575.46,"ADDRESS":"十美街４１０巷２弄５號","OBJECTID":134523},"geometry":{"x":180096.08000000194,"y":2575575.4600000009}},{"attributes":{"ID":134524,"DIS_CODE":0,"TOWNNAME":"柳營區","LI":"光福里","LIN":"27鄰","STREET":"十美街","SECT":" ","MAREA":" ","LANE":"４１０巷","ALLEY":"２弄","HOUSE_NO":"７號","E_COORD97":180100.32000000001,"N_COORD97":2575575.3599999999,"ADDRESS":"十美街４１０巷２弄７號","OBJECTID":134524},"geometry":{"x":180100.32000000123,"y":2575575.3600000031}},{"attributes":{"ID":134525,"DIS_CODE":0,"TOWNNAME":"柳營區","LI":"光福里","LIN":"27鄰","STREET":"十美街","SECT":" ","MAREA":" ","LANE":"４１０巷","ALLEY":"２弄","HOUSE_NO":"９號","E_COORD97":180104.54999999999,"N_COORD97":2575575.25,"ADDRESS":"十美街４１０巷２弄９號","OBJECTID":134525},"geometry":{"x":180104.55000000168,"y":2575575.25}},{"attributes":{"ID":134526,"DIS_CODE":0,"TOWNNAME":"新營區","LI":"南興里","LIN":"27鄰","STREET":"建業路","SECT":" ","MAREA":" ","LANE":"８１巷","ALLEY":"２弄","HOUSE_NO":"５號","E_COORD97":178538.60000000001,"N_COORD97":2577431.2599999998,"ADDRESS":"建業路８１巷２弄５號","OBJECTID":134526},"geometry":{"x":178538.59999999963,"y":2577431.2600000035}},{"attributes":{"ID":134527,"DIS_CODE":0,"TOWNNAME":"新營區","LI":"南興里","LIN":"27鄰","STREET":"建業路","SECT":" ","MAREA":" ","LANE":"８１巷","ALLEY":"２弄","HOUSE_NO":"１５號","E_COORD97":178518.35999999999,"N_COORD97":2577432.4700000002,"ADDRESS":"建業路８１巷２弄１５號","OBJECTID":134527},"geometry":{"x":178518.36000000127,"y":2577432.4700000007}},{"attributes":{"ID":134528,"DIS_CODE":0,"TOWNNAME":"仁德區","LI":"後壁里","LIN":"41鄰","STREET":"德善路","SECT":" ","MAREA":" ","LANE":"２７３巷","ALLEY":"７弄","HOUSE_NO":"２號","E_COORD97":173939.60999999999,"N_COORD97":2538700.02,"ADDRESS":"德善路２７３巷７弄２號","OBJECTID":134528},"geometry":{"x":173939.61000000127,"y":2538700.0199999996}},{"attributes":{"ID":134529,"DIS_CODE":0,"TOWNNAME":"仁德區","LI":"後壁里","LIN":"35鄰","STREET":"德洋路","SECT":" ","MAREA":" ","LANE":"１８３巷","ALLEY":"２弄","HOUSE_NO":"３號","E_COORD97":172459.14000000001,"N_COORD97":2539419.0099999998,"ADDRESS":"德洋路１８３巷２弄３號","OBJECTID":134529},"geometry":{"x":172459.1400000006,"y":2539419.0099999998}},{"attributes":{"ID":134530,"DIS_CODE":0,"TOWNNAME":"安南區","LI":"溪墘里","LIN":"6鄰","STREET":"海佃路","SECT":"一段","MAREA":" ","LANE":" ","ALLEY":" ","HOUSE_NO":"２４８號","E_COORD97":167140.35000000001,"N_COORD97":2547328.4199999999,"ADDRESS":"海佃路一段２４８號","OBJECTID":134530},"geometry":{"x":167140.34999999963,"y":2547328.4200000018}},{"attributes":{"ID":134531,"DIS_CODE":0,"TOWNNAME":"下營區","LI":"下營里","LIN":"6鄰","STREET":"復興街","SECT":" ","MAREA":" ","LANE":" ","ALLEY":" ","HOUSE_NO":"１００號","E_COORD97":174500.39000000001,"N_COORD97":2570382.1600000001,"ADDRESS":"復興街１００號","OBJECTID":134531},"geometry":{"x":174500.38999999966,"y":2570382.1600000001}},{"attributes":{"ID":134532,"DIS_CODE":0,"TOWNNAME":"下營區","LI":"下營里","LIN":"6鄰","STREET":"復興街","SECT":" ","MAREA":" ","LANE":" ","ALLEY":" ","HOUSE_NO":"１０２號","E_COORD97":174496.62,"N_COORD97":2570381.8399999999,"ADDRESS":"復興街１０２號","OBJECTID":134532},"geometry":{"x":174496.62000000197,"y":2570381.839999998}},{"attributes":{"ID":134533,"DIS_CODE":0,"TOWNNAME":"下營區","LI":"下營里","LIN":"6鄰","STREET":"復興街","SECT":" ","MAREA":" ","LANE":" ","ALLEY":" ","HOUSE_NO":"１０６號","E_COORD97":174490.04999999999,"N_COORD97":2570381.2400000002,"ADDRESS":"復興街１０６號","OBJECTID":134533},"geometry":{"x":174490.05000000168,"y":2570381.2400000021}},{"attributes":{"ID":134534,"DIS_CODE":0,"TOWNNAME":"下營區","LI":"下營里","LIN":"6鄰","STREET":"復興街","SECT":" ","MAREA":" ","LANE":" ","ALLEY":" ","HOUSE_NO":"１０８號","E_COORD97":174487.41,"N_COORD97":2570380.7599999998,"ADDRESS":"復興街１０８號","OBJECTID":134534},"geometry":{"x":174487.41000000015,"y":2570380.7599999998}},{"attributes":{"ID":134535,"DIS_CODE":0,"TOWNNAME":"下營區","LI":"下營里","LIN":"6鄰","STREET":"復興街","SECT":" ","MAREA":" ","LANE":" ","ALLEY":" ","HOUSE_NO":"１１０號","E_COORD97":174484.01000000001,"N_COORD97":2570380.71,"ADDRESS":"復興街１１０號","OBJECTID":134535},"geometry":{"x":174484.01000000071,"y":2570380.7100000046}},{"attributes":{"ID":134536,"DIS_CODE":0,"TOWNNAME":"下營區","LI":"下營里","LIN":"6鄰","STREET":"復興街","SECT":" ","MAREA":" ","LANE":" ","ALLEY":" ","HOUSE_NO":"１１２號","E_COORD97":174479.12,"N_COORD97":2570381.0600000001,"ADDRESS":"復興街１１２號","OBJECTID":134536},"geometry":{"x":174479.12000000011,"y":2570381.0600000042}},{"attributes":{"ID":134537,"DIS_CODE":0,"TOWNNAME":"新營區","LI":"南紙里","LIN":"27鄰","STREET":"太子路","SECT":" ","MAREA":" ","LANE":"２００巷","ALLEY":"１０１弄","HOUSE_NO":"２０號","E_COORD97":177776.85000000001,"N_COORD97":2578072.8500000001,"ADDRESS":"太子路２００巷１０１弄２０號","OBJECTID":134537},"geometry":{"x":177776.85000000056,"y":2578072.8499999996}},{"attributes":{"ID":134538,"DIS_CODE":0,"TOWNNAME":"新營區","LI":"新南里","LIN":"27鄰","STREET":"復興路","SECT":" ","MAREA":" ","LANE":"６２０巷","ALLEY":"６１弄","HOUSE_NO":"３６之８號","E_COORD97":177947.03,"N_COORD97":2578557.71,"ADDRESS":"復興路６２０巷６１弄３６之８號","OBJECTID":134538},"geometry":{"x":177947.02999999933,"y":2578557.7100000009}},{"attributes":{"ID":134539,"DIS_CODE":0,"TOWNNAME":"新營區","LI":"新北里","LIN":"27鄰","STREET":"民生路","SECT":" ","MAREA":" ","LANE":"３８５巷","ALLEY":"６弄","HOUSE_NO":"３號","E_COORD97":178810.82000000001,"N_COORD97":2579165.4399999999,"ADDRESS":"民生路３８５巷６弄３號","OBJECTID":134539},"geometry":{"x":178810.8200000003,"y":2579165.4400000032}},{"attributes":{"ID":134540,"DIS_CODE":0,"TOWNNAME":"新營區","LI":"南興里","LIN":"27鄰","STREET":"建業路","SECT":" ","MAREA":" ","LANE":"８１巷","ALLEY":"２弄","HOUSE_NO":"９號","E_COORD97":178530.35999999999,"N_COORD97":2577431.2999999998,"ADDRESS":"建業路８１巷２弄９號","OBJECTID":134540},"geometry":{"x":178530.36000000127,"y":2577431.3000000007}},{"attributes":{"ID":134541,"DIS_CODE":0,"TOWNNAME":"新營區","LI":"南紙里","LIN":"27鄰","STREET":"太子路","SECT":" ","MAREA":" ","LANE":"２００巷","ALLEY":"１１１弄","HOUSE_NO":"１１號","E_COORD97":177792.23000000001,"N_COORD97":2578094.9199999999,"ADDRESS":"太子路２００巷１１１弄１１號","OBJECTID":134541},"geometry":{"x":177792.23000000138,"y":2578094.9200000018}},{"attributes":{"ID":134542,"DIS_CODE":0,"TOWNNAME":"新營區","LI":"新北里","LIN":"27鄰","STREET":"民生路","SECT":" ","MAREA":" ","LANE":"３８５巷","ALLEY":"１３弄","HOUSE_NO":"３４號","E_COORD97":178842.57000000001,"N_COORD97":2579105.3799999999,"ADDRESS":"民生路３８５巷１３弄３４號","OBJECTID":134542},"geometry":{"x":178842.57000000123,"y":2579105.3800000008}},{"attributes":{"ID":134543,"DIS_CODE":0,"TOWNNAME":"新營區","LI":"南紙里","LIN":"27鄰","STREET":"太子路","SECT":" ","MAREA":" ","LANE":"２００巷","ALLEY":"１０１弄","HOUSE_NO":"１９號","E_COORD97":177781.76999999999,"N_COORD97":2578048.46,"ADDRESS":"太子路２００巷１０１弄１９號","OBJECTID":134543},"geometry":{"x":177781.76999999955,"y":2578048.4600000028}},{"attributes":{"ID":134544,"DIS_CODE":0,"TOWNNAME":"新營區","LI":"新北里","LIN":"27鄰","STREET":"民生路","SECT":" ","MAREA":" ","LANE":"３８５巷","ALLEY":"１３弄","HOUSE_NO":"２１之３號","E_COORD97":178862.48999999999,"N_COORD97":2579116.4199999999,"ADDRESS":"民生路３８５巷１３弄２１之３號","OBJECTID":134544},"geometry":{"x":178862.49000000022,"y":2579116.4200000018}},{"attributes":{"ID":134545,"DIS_CODE":0,"TOWNNAME":"下營區","LI":"下營里","LIN":"6鄰","STREET":"復興街","SECT":" ","MAREA":" ","LANE":" ","ALLEY":" ","HOUSE_NO":"１１６號","E_COORD97":174475.56,"N_COORD97":2570380.6899999999,"ADDRESS":"復興街１１６號","OBJECTID":134545},"geometry":{"x":174475.55999999959,"y":2570380.6900000013}},{"attributes":{"ID":134546,"DIS_CODE":0,"TOWNNAME":"東山區","LI":"聖賢里","LIN":"19鄰","STREET":" ","SECT":" ","MAREA":"頂窩","LANE":" ","ALLEY":" ","HOUSE_NO":"５２號之３","E_COORD97":183284.14999999999,"N_COORD97":2578627.6099999999,"ADDRESS":"頂窩５２號之３","OBJECTID":134546},"geometry":{"x":183284.15000000037,"y":2578627.6099999994}},{"attributes":{"ID":134547,"DIS_CODE":0,"TOWNNAME":"東山區","LI":"聖賢里","LIN":"19鄰","STREET":" ","SECT":" ","MAREA":"頂窩","LANE":" ","ALLEY":" ","HOUSE_NO":"５２號","E_COORD97":183267.14999999999,"N_COORD97":2578634.3100000001,"ADDRESS":"頂窩５２號","OBJECTID":134547},"geometry":{"x":183267.15000000037,"y":2578634.3100000005}},{"attributes":{"ID":134548,"DIS_CODE":0,"TOWNNAME":"東山區","LI":"聖賢里","LIN":"19鄰","STREET":" ","SECT":" ","MAREA":"頂窩","LANE":" ","ALLEY":" ","HOUSE_NO":"５３號之１","E_COORD97":183306.73000000001,"N_COORD97":2578619.2799999998,"ADDRESS":"頂窩５３號之１","OBJECTID":134548},"geometry":{"x":183306.73000000138,"y":2578619.2799999993}},{"attributes":{"ID":134549,"DIS_CODE":0,"TOWNNAME":"東山區","LI":"聖賢里","LIN":"19鄰","STREET":" ","SECT":" ","MAREA":"頂窩","LANE":" ","ALLEY":" ","HOUSE_NO":"５３號之２","E_COORD97":183297.78,"N_COORD97":2578621.7999999998,"ADDRESS":"頂窩５３號之２","OBJECTID":134549},"geometry":{"x":183297.78000000119,"y":2578621.8000000045}},{"attributes":{"ID":134550,"DIS_CODE":0,"TOWNNAME":"新化區","LI":"知義里","LIN":" ","STREET":" ","SECT":" ","MAREA":"新和庄","LANE":" ","ALLEY":" ","HOUSE_NO":"１８號之５","E_COORD97":181395.89999999999,"N_COORD97":2546848.2599999998,"ADDRESS":"新和庄１８號之５","OBJECTID":134550},"geometry":{"x":181395.90000000037,"y":2546848.2599999998}},{"attributes":{"ID":134551,"DIS_CODE":0,"TOWNNAME":"新化區","LI":"\u25A0拔里","LIN":"4鄰","STREET":" ","SECT":" ","MAREA":"\u25A0拔林","LANE":" ","ALLEY":" ","HOUSE_NO":"２１９號之１４","E_COORD97":183748.10999999999,"N_COORD97":2551987.2599999998,"ADDRESS":"\u25A0拔林２１９號之１４","OBJECTID":134551},"geometry":{"x":183748.11000000127,"y":2551987.2600000016}},{"attributes":{"ID":134552,"DIS_CODE":0,"TOWNNAME":"新化區","LI":"知義里","LIN":" ","STREET":" ","SECT":" ","MAREA":"新和庄","LANE":" ","ALLEY":" ","HOUSE_NO":"１３３號","E_COORD97":182330.98999999999,"N_COORD97":2546474.25,"ADDRESS":"新和庄１３３號","OBJECTID":134552},"geometry":{"x":182330.99000000022,"y":2546474.2500000019}},{"attributes":{"ID":134553,"DIS_CODE":0,"TOWNNAME":"新化區","LI":"全興里","LIN":"18鄰","STREET":" ","SECT":" ","MAREA":"竹子\u25A0","LANE":" ","ALLEY":" ","HOUSE_NO":"２４７號之１７９","E_COORD97":178499.98000000001,"N_COORD97":2546741.2599999998,"ADDRESS":"竹子\u25A0２４７號之１７９","OBJECTID":134553},"geometry":{"x":178499.98000000045,"y":2546741.2600000035}},{"attributes":{"ID":134554,"DIS_CODE":0,"TOWNNAME":"下營區","LI":"賀建里","LIN":"6鄰","STREET":" ","SECT":" ","MAREA":"麻豆寮","LANE":" ","ALLEY":" ","HOUSE_NO":"６１號","E_COORD97":177912.38,"N_COORD97":2572552.6099999999,"ADDRESS":"麻豆寮６１號","OBJECTID":134554},"geometry":{"x":177912.38000000082,"y":2572552.6099999994}},{"attributes":{"ID":134555,"DIS_CODE":0,"TOWNNAME":"下營區","LI":"賀建里","LIN":"6鄰","STREET":" ","SECT":" ","MAREA":"麻豆寮","LANE":" ","ALLEY":" ","HOUSE_NO":"６２號","E_COORD97":177899.35999999999,"N_COORD97":2572544.0699999998,"ADDRESS":"麻豆寮６２號","OBJECTID":134555},"geometry":{"x":177899.36000000127,"y":2572544.070000004}},{"attributes":{"ID":134556,"DIS_CODE":0,"TOWNNAME":"下營區","LI":"賀建里","LIN":"6鄰","STREET":" ","SECT":" ","MAREA":"麻豆寮","LANE":" ","ALLEY":" ","HOUSE_NO":"６５號","E_COORD97":177999.37,"N_COORD97":2572535.52,"ADDRESS":"麻豆寮６５號","OBJECTID":134556},"geometry":{"x":177999.37000000104,"y":2572535.5199999996}},{"attributes":{"ID":134557,"DIS_CODE":0,"TOWNNAME":"新營區","LI":"南紙里","LIN":"27鄰","STREET":"太子路","SECT":" ","MAREA":" ","LANE":"２００巷","ALLEY":"１０１弄","HOUSE_NO":"１０號","E_COORD97":177800.32000000001,"N_COORD97":2578077.1600000001,"ADDRESS":"太子路２００巷１０１弄１０號","OBJECTID":134557},"geometry":{"x":177800.3200000003,"y":2578077.160000002}},{"attributes":{"ID":134558,"DIS_CODE":0,"TOWNNAME":"仁德區","LI":"後壁里","LIN":"35鄰","STREET":"德洋二街","SECT":" ","MAREA":" ","LANE":"８巷","ALLEY":"２４弄","HOUSE_NO":"３號","E_COORD97":172405.91,"N_COORD97":2539448.7599999998,"ADDRESS":"德洋二街８巷２４弄３號","OBJECTID":134558},"geometry":{"x":172405.91000000015,"y":2539448.7600000035}},{"attributes":{"ID":134559,"DIS_CODE":0,"TOWNNAME":"新營區","LI":"南紙里","LIN":"27鄰","STREET":"太子路","SECT":" ","MAREA":" ","LANE":"２００巷","ALLEY":"１０１弄","HOUSE_NO":"２３號","E_COORD97":177773.64999999999,"N_COORD97":2578046.29,"ADDRESS":"太子路２００巷１０１弄２３號","OBJECTID":134559},"geometry":{"x":177773.65000000224,"y":2578046.2899999991}},{"attributes":{"ID":134560,"DIS_CODE":0,"TOWNNAME":"新營區","LI":"南紙里","LIN":"27鄰","STREET":"太子路","SECT":" ","MAREA":" ","LANE":"２００巷","ALLEY":"７９弄","HOUSE_NO":"６號","E_COORD97":177825.42999999999,"N_COORD97":2578024.9900000002,"ADDRESS":"太子路２００巷７９弄６號","OBJECTID":134560},"geometry":{"x":177825.43000000063,"y":2578024.9900000002}},{"attributes":{"ID":134561,"DIS_CODE":0,"TOWNNAME":"新營區","LI":"新北里","LIN":"27鄰","STREET":"民生路","SECT":" ","MAREA":" ","LANE":"３８５巷","ALLEY":"１３弄","HOUSE_NO":"５之３號","E_COORD97":178874.54000000001,"N_COORD97":2579127.4300000002,"ADDRESS":"民生路３８５巷１３弄５之３號","OBJECTID":134561},"geometry":{"x":178874.54000000097,"y":2579127.4299999997}},{"attributes":{"ID":134562,"DIS_CODE":0,"TOWNNAME":"新營區","LI":"新東里","LIN":"27鄰","STREET":"東光街","SECT":" ","MAREA":" ","LANE":"４０巷","ALLEY":"２８弄","HOUSE_NO":"２號","E_COORD97":180690.81,"N_COORD97":2579574.0299999998,"ADDRESS":"東光街４０巷２８弄２號","OBJECTID":134562},"geometry":{"x":180690.81000000145,"y":2579574.0299999993}},{"attributes":{"ID":134563,"DIS_CODE":0,"TOWNNAME":"新營區","LI":"南紙里","LIN":"27鄰","STREET":"太子路","SECT":" ","MAREA":" ","LANE":"２００巷","ALLEY":"７９弄","HOUSE_NO":"１８號","E_COORD97":177799.03,"N_COORD97":2578021.7999999998,"ADDRESS":"太子路２００巷７９弄１８號","OBJECTID":134563},"geometry":{"x":177799.03000000026,"y":2578021.8000000045}},{"attributes":{"ID":134564,"DIS_CODE":0,"TOWNNAME":"新營區","LI":"新北里","LIN":"27鄰","STREET":"民生路","SECT":" ","MAREA":" ","LANE":"３８５巷","ALLEY":"１３弄","HOUSE_NO":"１５之１號","E_COORD97":178882.88,"N_COORD97":2579116.3199999998,"ADDRESS":"民生路３８５巷１３弄１５之１號","OBJECTID":134564},"geometry":{"x":178882.87999999989,"y":2579116.320000004}},{"attributes":{"ID":134565,"DIS_CODE":0,"TOWNNAME":"新營區","LI":"新北里","LIN":"27鄰","STREET":"民生路","SECT":" ","MAREA":" ","LANE":"３８５巷","ALLEY":"１３弄","HOUSE_NO":"１３號","E_COORD97":178886.51000000001,"N_COORD97":2579116.2400000002,"ADDRESS":"民生路３８５巷１３弄１３號","OBJECTID":134565},"geometry":{"x":178886.51000000071,"y":2579116.2400000002}},{"attributes":{"ID":134566,"DIS_CODE":0,"TOWNNAME":"仁德區","LI":"成功里","LIN":"20鄰","STREET":"保生路","SECT":" ","MAREA":" ","LANE":"１２３巷","ALLEY":"６弄","HOUSE_NO":"１４號","E_COORD97":170586.09,"N_COORD97":2539801.75,"ADDRESS":"保生路１２３巷６弄１４號","OBJECTID":134566},"geometry":{"x":170586.09000000078,"y":2539801.7500000037}},{"attributes":{"ID":134567,"DIS_CODE":0,"TOWNNAME":"仁德區","LI":"太子里","LIN":"14鄰","STREET":"長興路","SECT":" ","MAREA":" ","LANE":"８７巷","ALLEY":"２１弄","HOUSE_NO":"２號","E_COORD97":174035.87,"N_COORD97":2543780.5,"ADDRESS":"長興路８７巷２１弄２號","OBJECTID":134567},"geometry":{"x":174035.87000000104,"y":2543780.5000000019}},{"attributes":{"ID":134568,"DIS_CODE":0,"TOWNNAME":"仁德區","LI":"保安里","LIN":"21鄰","STREET":"文賢一街","SECT":" ","MAREA":" ","LANE":"１０巷","ALLEY":"２弄","HOUSE_NO":"３號","E_COORD97":171094.78,"N_COORD97":2536752.5699999998,"ADDRESS":"文賢一街１０巷２弄３號","OBJECTID":134568},"geometry":{"x":171094.78000000026,"y":2536752.5700000022}},{"attributes":{"ID":134569,"DIS_CODE":0,"TOWNNAME":"仁德區","LI":"後壁里","LIN":"37鄰","STREET":"德洋一街","SECT":" ","MAREA":" ","LANE":"５１巷","ALLEY":"６弄","HOUSE_NO":"９號","E_COORD97":173127.87,"N_COORD97":2539243.96,"ADDRESS":"德洋一街５１巷６弄９號","OBJECTID":134569},"geometry":{"x":173127.87000000011,"y":2539243.9600000009}},{"attributes":{"ID":134570,"DIS_CODE":0,"TOWNNAME":"仁德區","LI":"後壁里","LIN":"23鄰","STREET":"中正路","SECT":"二段","MAREA":" ","LANE":"１８７巷","ALLEY":"６弄","HOUSE_NO":"２４號","E_COORD97":173041.32999999999,"N_COORD97":2538697.02,"ADDRESS":"中正路二段１８７巷６弄２４號","OBJECTID":134570},"geometry":{"x":173041.33000000101,"y":2538697.0199999996}},{"attributes":{"ID":134571,"DIS_CODE":0,"TOWNNAME":"仁德區","LI":"後壁里","LIN":"41鄰","STREET":"德善路","SECT":" ","MAREA":" ","LANE":"２５１巷","ALLEY":"７弄","HOUSE_NO":"１９號","E_COORD97":173847.64000000001,"N_COORD97":2538733.2400000002,"ADDRESS":"德善路２５１巷７弄１９號","OBJECTID":134571},"geometry":{"x":173847.6400000006,"y":2538733.2400000002}},{"attributes":{"ID":134572,"DIS_CODE":0,"TOWNNAME":"仁德區","LI":"田厝里","LIN":"8鄰","STREET":"田厝二街","SECT":" ","MAREA":" ","LANE":"２８巷","ALLEY":"３２弄","HOUSE_NO":"３號","E_COORD97":172445.16,"N_COORD97":2537657.2400000002,"ADDRESS":"田厝二街２８巷３２弄３號","OBJECTID":134572},"geometry":{"x":172445.15999999922,"y":2537657.2400000021}},{"attributes":{"ID":134573,"DIS_CODE":0,"TOWNNAME":"南區","LI":"府南里","LIN":"27鄰","STREET":"大成路","SECT":"二段","MAREA":" ","LANE":"８１巷","ALLEY":"５弄","HOUSE_NO":"７號之１","E_COORD97":167453.06,"N_COORD97":2541682.4199999999,"ADDRESS":"大成路二段８１巷５弄７號之１","OBJECTID":134573},"geometry":{"x":167453.06000000145,"y":2541682.4200000018}},{"attributes":{"ID":134574,"DIS_CODE":0,"TOWNNAME":"南區","LI":"大忠里","LIN":"27鄰","STREET":"大同路","SECT":"二段","MAREA":" ","LANE":"４８２巷","ALLEY":"１５５弄","HOUSE_NO":"２號之１","E_COORD97":168996.48000000001,"N_COORD97":2541524.2999999998,"ADDRESS":"大同路二段４８２巷１５５弄２號之１","OBJECTID":134574},"geometry":{"x":168996.48000000045,"y":2541524.3000000045}},{"attributes":{"ID":134575,"DIS_CODE":0,"TOWNNAME":"北區","LI":"和順里","LIN":"27鄰","STREET":"民德路","SECT":" ","MAREA":" ","LANE":"５８巷","ALLEY":"１１弄","HOUSE_NO":"１６號","E_COORD97":168205.73000000001,"N_COORD97":2545306.98,"ADDRESS":"民德路５８巷１１弄１６號","OBJECTID":134575},"geometry":{"x":168205.73000000138,"y":2545306.9800000023}},{"attributes":{"ID":134576,"DIS_CODE":0,"TOWNNAME":"北區","LI":"和順里","LIN":"27鄰","STREET":"民德路","SECT":" ","MAREA":" ","LANE":"５８巷","ALLEY":"１１弄","HOUSE_NO":"２號","E_COORD97":168241.16,"N_COORD97":2545282,"ADDRESS":"民德路５８巷１１弄２號","OBJECTID":134576},"geometry":{"x":168241.16000000201,"y":2545282.0000000037}},{"attributes":{"ID":134577,"DIS_CODE":0,"TOWNNAME":"下營區","LI":"賀建里","LIN":"6鄰","STREET":" ","SECT":" ","MAREA":"麻豆寮","LANE":" ","ALLEY":" ","HOUSE_NO":"６６號","E_COORD97":178004.38,"N_COORD97":2572511.8900000001,"ADDRESS":"麻豆寮６６號","OBJECTID":134577},"geometry":{"x":178004.38000000082,"y":2572511.8900000025}},{"attributes":{"ID":134578,"DIS_CODE":0,"TOWNNAME":"下營區","LI":"賀建里","LIN":"6鄰","STREET":" ","SECT":" ","MAREA":"麻豆寮","LANE":" ","ALLEY":" ","HOUSE_NO":"６８號","E_COORD97":177995.03,"N_COORD97":2572554.0600000001,"ADDRESS":"麻豆寮６８號","OBJECTID":134578},"geometry":{"x":177995.03000000119,"y":2572554.0600000005}},{"attributes":{"ID":134579,"DIS_CODE":0,"TOWNNAME":"新化區","LI":"唪口里","LIN":"8鄰","STREET":" ","SECT":" ","MAREA":"唪口","LANE":" ","ALLEY":" ","HOUSE_NO":"９６號之４","E_COORD97":177965.73000000001,"N_COORD97":2549059.2599999998,"ADDRESS":"唪口９６號之４","OBJECTID":134579},"geometry":{"x":177965.73000000045,"y":2549059.2599999998}},{"attributes":{"ID":134580,"DIS_CODE":0,"TOWNNAME":"新化區","LI":"\u25A0拔里","LIN":"4鄰","STREET":" ","SECT":" ","MAREA":"\u25A0拔林","LANE":" ","ALLEY":" ","HOUSE_NO":"２１９號之４","E_COORD97":183766.66,"N_COORD97":2552012.2599999998,"ADDRESS":"\u25A0拔林２１９號之４","OBJECTID":134580},"geometry":{"x":183766.66000000015,"y":2552012.2599999998}},{"attributes":{"ID":134581,"DIS_CODE":0,"TOWNNAME":"新化區","LI":"\u25A0拔里","LIN":"4鄰","STREET":" ","SECT":" ","MAREA":"\u25A0拔林","LANE":" ","ALLEY":" ","HOUSE_NO":"２１９號之１","E_COORD97":183780.75,"N_COORD97":2552012.2599999998,"ADDRESS":"\u25A0拔林２１９號之１","OBJECTID":134581},"geometry":{"x":183780.75000000093,"y":2552012.2599999998}},{"attributes":{"ID":134582,"DIS_CODE":0,"TOWNNAME":"下營區","LI":"新興里","LIN":"6鄰","STREET":"慈惠街","SECT":" ","MAREA":" ","LANE":" ","ALLEY":" ","HOUSE_NO":"４２號","E_COORD97":175119.14999999999,"N_COORD97":2570602.0600000001,"ADDRESS":"慈惠街４２號","OBJECTID":134582},"geometry":{"x":175119.1500000013,"y":2570602.0600000024}},{"attributes":{"ID":134583,"DIS_CODE":0,"TOWNNAME":"北區","LI":"和順里","LIN":"27鄰","STREET":"民德路","SECT":" ","MAREA":" ","LANE":"５８巷","ALLEY":"１１弄","HOUSE_NO":"３號","E_COORD97":168221.23000000001,"N_COORD97":2545265.9199999999,"ADDRESS":"民德路５８巷１１弄３號","OBJECTID":134583},"geometry":{"x":168221.23000000138,"y":2545265.9200000018}},{"attributes":{"ID":134584,"DIS_CODE":0,"TOWNNAME":"北區","LI":"和順里","LIN":"27鄰","STREET":"民德路","SECT":" ","MAREA":" ","LANE":"５８巷","ALLEY":"１１弄","HOUSE_NO":"４號","E_COORD97":168235.42999999999,"N_COORD97":2545286.4199999999,"ADDRESS":"民德路５８巷１１弄４號","OBJECTID":134584},"geometry":{"x":168235.42999999877,"y":2545286.4200000018}},{"attributes":{"ID":134585,"DIS_CODE":0,"TOWNNAME":"北區","LI":"和順里","LIN":"27鄰","STREET":"民德路","SECT":" ","MAREA":" ","LANE":"５８巷","ALLEY":"１１弄","HOUSE_NO":"５號","E_COORD97":168216.14000000001,"N_COORD97":2545269.8900000001,"ADDRESS":"民德路５８巷１１弄５號","OBJECTID":134585},"geometry":{"x":168216.1400000006,"y":2545269.8900000043}},{"attributes":{"ID":134586,"DIS_CODE":0,"TOWNNAME":"北區","LI":"和順里","LIN":"27鄰","STREET":"民德路","SECT":" ","MAREA":" ","LANE":"５８巷","ALLEY":"１１弄","HOUSE_NO":"６號","E_COORD97":168229.95999999999,"N_COORD97":2545289.2799999998,"ADDRESS":"民德路５８巷１１弄６號","OBJECTID":134586},"geometry":{"x":168229.95999999996,"y":2545289.2799999993}},{"attributes":{"ID":134587,"DIS_CODE":0,"TOWNNAME":"北區","LI":"和順里","LIN":"27鄰","STREET":"民德路","SECT":" ","MAREA":" ","LANE":"５８巷","ALLEY":"１１弄","HOUSE_NO":"７號","E_COORD97":168211.04999999999,"N_COORD97":2545272.54,"ADDRESS":"民德路５８巷１１弄７號","OBJECTID":134587},"geometry":{"x":168211.05000000168,"y":2545272.5399999991}},{"attributes":{"ID":134588,"DIS_CODE":0,"TOWNNAME":"佳里區","LI":"建南里","LIN":" ","STREET":"祥和一街","SECT":" ","MAREA":" ","LANE":" ","ALLEY":" ","HOUSE_NO":"２６４號","E_COORD97":165796.29000000001,"N_COORD97":2561055.1099999999,"ADDRESS":"祥和一街２６４號","OBJECTID":134588},"geometry":{"x":165796.29000000097,"y":2561055.1099999994}},{"attributes":{"ID":134589,"DIS_CODE":0,"TOWNNAME":"佳里區","LI":"建南里","LIN":"17鄰","STREET":"建南街","SECT":" ","MAREA":" ","LANE":" ","ALLEY":" ","HOUSE_NO":"５７號","E_COORD97":165614.98999999999,"N_COORD97":2561903.3700000001,"ADDRESS":"建南街５７號","OBJECTID":134589},"geometry":{"x":165614.99000000209,"y":2561903.370000001}},{"attributes":{"ID":134590,"DIS_CODE":0,"TOWNNAME":"佳里區","LI":"建南里","LIN":"37鄰","STREET":"祥和三街","SECT":" ","MAREA":" ","LANE":" ","ALLEY":" ","HOUSE_NO":"２５０號","E_COORD97":165564.25,"N_COORD97":2561246.2799999998,"ADDRESS":"祥和三街２５０號","OBJECTID":134590},"geometry":{"x":165564.25000000093,"y":2561246.2800000012}},{"attributes":{"ID":134591,"DIS_CODE":0,"TOWNNAME":"北區","LI":"和順里","LIN":"27鄰","STREET":"民德路","SECT":" ","MAREA":" ","LANE":"５８巷","ALLEY":"１１弄","HOUSE_NO":"８號","E_COORD97":168225.01000000001,"N_COORD97":2545292.9300000002,"ADDRESS":"民德路５８巷１１弄８號","OBJECTID":134591},"geometry":{"x":168225.01000000071,"y":2545292.9300000016}},{"attributes":{"ID":134592,"DIS_CODE":0,"TOWNNAME":"北區","LI":"和順里","LIN":"27鄰","STREET":"民德路","SECT":" ","MAREA":" ","LANE":"５８巷","ALLEY":"１１弄","HOUSE_NO":"９號","E_COORD97":168206.41,"N_COORD97":2545276.52,"ADDRESS":"民德路５８巷１１弄９號","OBJECTID":134592},"geometry":{"x":168206.41000000108,"y":2545276.5199999996}},{"attributes":{"ID":134593,"DIS_CODE":0,"TOWNNAME":"北區","LI":"和順里","LIN":"27鄰","STREET":"民德路","SECT":" ","MAREA":" ","LANE":"５８巷","ALLEY":"１７弄","HOUSE_NO":"１０號","E_COORD97":168242.20000000001,"N_COORD97":2545326.8799999999,"ADDRESS":"民德路５８巷１７弄１０號","OBJECTID":134593},"geometry":{"x":168242.20000000019,"y":2545326.8800000008}},{"attributes":{"ID":134594,"DIS_CODE":0,"TOWNNAME":"北區","LI":"和順里","LIN":"27鄰","STREET":"民德路","SECT":" ","MAREA":" ","LANE":"５８巷","ALLEY":"１７弄","HOUSE_NO":"１１號","E_COORD97":168223.97,"N_COORD97":2545313.0899999999,"ADDRESS":"民德路５８巷１７弄１１號","OBJECTID":134594},"geometry":{"x":168223.97000000067,"y":2545313.0900000017}},{"attributes":{"ID":134595,"DIS_CODE":0,"TOWNNAME":"北區","LI":"和順里","LIN":"27鄰","STREET":"民德路","SECT":" ","MAREA":" ","LANE":"５８巷","ALLEY":"１７弄","HOUSE_NO":"１２號","E_COORD97":168236.73000000001,"N_COORD97":2545331.0499999998,"ADDRESS":"民德路５８巷１７弄１２號","OBJECTID":134595},"geometry":{"x":168236.73000000138,"y":2545331.0500000026}},{"attributes":{"ID":134596,"DIS_CODE":0,"TOWNNAME":"北區","LI":"和順里","LIN":"27鄰","STREET":"民德路","SECT":" ","MAREA":" ","LANE":"５８巷","ALLEY":"１７弄","HOUSE_NO":"１３號","E_COORD97":168219.54000000001,"N_COORD97":2545316.2000000002,"ADDRESS":"民德路５８巷１７弄１３號","OBJECTID":134596},"geometry":{"x":168219.54000000004,"y":2545316.1999999993}},{"attributes":{"ID":134597,"DIS_CODE":0,"TOWNNAME":"北區","LI":"和順里","LIN":"27鄰","STREET":"民德路","SECT":" ","MAREA":" ","LANE":"５８巷","ALLEY":"１７弄","HOUSE_NO":"１４號","E_COORD97":168232.29999999999,"N_COORD97":2545334.6899999999,"ADDRESS":"民德路５８巷１７弄１４號","OBJECTID":134597},"geometry":{"x":168232.29999999981,"y":2545334.6900000032}},{"attributes":{"ID":134598,"DIS_CODE":0,"TOWNNAME":"北區","LI":"和順里","LIN":"27鄰","STREET":"民德路","SECT":" ","MAREA":" ","LANE":"５８巷","ALLEY":"１７弄","HOUSE_NO":"１５號","E_COORD97":168214.32999999999,"N_COORD97":2545319.6000000001,"ADDRESS":"民德路５８巷１７弄１５號","OBJECTID":134598},"geometry":{"x":168214.33000000007,"y":2545319.6000000015}},{"attributes":{"ID":134599,"DIS_CODE":0,"TOWNNAME":"北區","LI":"和順里","LIN":"27鄰","STREET":"民德路","SECT":" ","MAREA":" ","LANE":"５８巷","ALLEY":"１７弄","HOUSE_NO":"１６號","E_COORD97":168227.09,"N_COORD97":2545337.8100000001,"ADDRESS":"民德路５８巷１７弄１６號","OBJECTID":134599},"geometry":{"x":168227.08999999985,"y":2545337.8100000005}},{"attributes":{"ID":134600,"DIS_CODE":0,"TOWNNAME":"佳里區","LI":"鎮山里","LIN":" ","STREET":"勝利路","SECT":" ","MAREA":" ","LANE":" ","ALLEY":" ","HOUSE_NO":"１４５號","E_COORD97":166018.95999999999,"N_COORD97":2561108.7000000002,"ADDRESS":"勝利路１４５號","OBJECTID":134600},"geometry":{"x":166018.96000000089,"y":2561108.6999999993}}]}