{"displayFieldName":"TOWNNAME","fieldAliases":{"ID":"ID","DIS_CODE":"DIS_CODE","TOWNNAME":"TOWNNAME","LI":"LI","LIN":"LIN","STREET":"STREET","SECT":"SECT","MAREA":"MAREA","LANE":"LANE","ALLEY":"ALLEY","HOUSE_NO":"HOUSE_NO","E_COORD97":"E_COORD97","N_COORD97":"N_COORD97","ADDRESS":"ADDRESS","OBJECTID":"OBJECTID"},"geometryType":"esriGeometryPoint","spatialReference":{"wkid":102443,"latestWkid":3826},"fields":[{"name":"ID","type":"esriFieldTypeDouble","alias":"ID"},{"name":"DIS_CODE","type":"esriFieldTypeInteger","alias":"DIS_CODE"},{"name":"TOWNNAME","type":"esriFieldTypeString","alias":"TOWNNAME","length":8},{"name":"LI","type":"esriFieldTypeString","alias":"LI","length":8},{"name":"LIN","type":"esriFieldTypeString","alias":"LIN","length":12},{"name":"STREET","type":"esriFieldTypeString","alias":"STREET","length":20},{"name":"SECT","type":"esriFieldTypeString","alias":"SECT","length":8},{"name":"MAREA","type":"esriFieldTypeString","alias":"MAREA","length":12},{"name":"LANE","type":"esriFieldTypeString","alias":"LANE","length":10},{"name":"ALLEY","type":"esriFieldTypeString","alias":"ALLEY","length":10},{"name":"HOUSE_NO","type":"esriFieldTypeString","alias":"HOUSE_NO","length":20},{"name":"E_COORD97","type":"esriFieldTypeDouble","alias":"E_COORD97"},{"name":"N_COORD97","type":"esriFieldTypeDouble","alias":"N_COORD97"},{"name":"ADDRESS","type":"esriFieldTypeString","alias":"ADDRESS","length":50},{"name":"OBJECTID","type":"esriFieldTypeOID","alias":"OBJECTID"}],"features":[{"attributes":{"ID":369811,"DIS_CODE":0,"TOWNNAME":"六甲區","LI":"七甲里","LIN":"12鄰","STREET":"中正路","SECT":" ","MAREA":" ","LANE":"１１７巷","ALLEY":" ","HOUSE_NO":"１１號","E_COORD97":183354.47,"N_COORD97":2568894.6499999999,"ADDRESS":"中正路１１７巷１１號","OBJECTID":369801},"geometry":{"x":183354.46999999974,"y":2568894.6500000004}},{"attributes":{"ID":369812,"DIS_CODE":0,"TOWNNAME":"六甲區","LI":"七甲里","LIN":"12鄰","STREET":"中正路","SECT":" ","MAREA":" ","LANE":"１１７巷","ALLEY":" ","HOUSE_NO":"１號","E_COORD97":183393.23000000001,"N_COORD97":2568892.23,"ADDRESS":"中正路１１７巷１號","OBJECTID":369802},"geometry":{"x":183393.23000000138,"y":2568892.2300000023}},{"attributes":{"ID":369813,"DIS_CODE":0,"TOWNNAME":"六甲區","LI":"七甲里","LIN":"12鄰","STREET":"中正路","SECT":" ","MAREA":" ","LANE":"１１７巷","ALLEY":" ","HOUSE_NO":"２號","E_COORD97":183389.07999999999,"N_COORD97":2568892.5699999998,"ADDRESS":"中正路１１７巷２號","OBJECTID":369803},"geometry":{"x":183389.08000000007,"y":2568892.570000004}},{"attributes":{"ID":369814,"DIS_CODE":0,"TOWNNAME":"六甲區","LI":"七甲里","LIN":"12鄰","STREET":"中正路","SECT":" ","MAREA":" ","LANE":"１１７巷","ALLEY":" ","HOUSE_NO":"３號","E_COORD97":183384.57999999999,"N_COORD97":2568892.25,"ADDRESS":"中正路１１７巷３號","OBJECTID":369804},"geometry":{"x":183384.58000000007,"y":2568892.2500000019}},{"attributes":{"ID":369815,"DIS_CODE":0,"TOWNNAME":"六甲區","LI":"七甲里","LIN":"12鄰","STREET":"中正路","SECT":" ","MAREA":" ","LANE":"１１７巷","ALLEY":" ","HOUSE_NO":"５號","E_COORD97":183376.37,"N_COORD97":2568891.6899999999,"ADDRESS":"中正路１１７巷５號","OBJECTID":369805},"geometry":{"x":183376.37000000104,"y":2568891.6900000013}},{"attributes":{"ID":369816,"DIS_CODE":0,"TOWNNAME":"六甲區","LI":"七甲里","LIN":"12鄰","STREET":"中正路","SECT":" ","MAREA":" ","LANE":"１１７巷","ALLEY":" ","HOUSE_NO":"６號","E_COORD97":183371.70999999999,"N_COORD97":2568891.9300000002,"ADDRESS":"中正路１１７巷６號","OBJECTID":369806},"geometry":{"x":183371.70999999996,"y":2568891.9299999997}},{"attributes":{"ID":369817,"DIS_CODE":0,"TOWNNAME":"六甲區","LI":"七甲里","LIN":"12鄰","STREET":"中正路","SECT":" ","MAREA":" ","LANE":"１５巷","ALLEY":" ","HOUSE_NO":"２０號","E_COORD97":183362.04999999999,"N_COORD97":2568589.0800000001,"ADDRESS":"中正路１５巷２０號","OBJECTID":369807},"geometry":{"x":183362.04999999981,"y":2568589.0800000001}},{"attributes":{"ID":369818,"DIS_CODE":0,"TOWNNAME":"六甲區","LI":"七甲里","LIN":"12鄰","STREET":"中正路","SECT":" ","MAREA":" ","LANE":"１５巷","ALLEY":" ","HOUSE_NO":"２１號","E_COORD97":183330.67000000001,"N_COORD97":2568566.3799999999,"ADDRESS":"中正路１５巷２１號","OBJECTID":369808},"geometry":{"x":183330.66999999993,"y":2568566.379999999}},{"attributes":{"ID":369819,"DIS_CODE":0,"TOWNNAME":"六甲區","LI":"七甲里","LIN":"12鄰","STREET":"中正路","SECT":" ","MAREA":" ","LANE":"１５巷","ALLEY":" ","HOUSE_NO":"２３號","E_COORD97":183325.73999999999,"N_COORD97":2568566.6499999999,"ADDRESS":"中正路１５巷２３號","OBJECTID":369809},"geometry":{"x":183325.74000000022,"y":2568566.6500000041}},{"attributes":{"ID":369820,"DIS_CODE":0,"TOWNNAME":"六甲區","LI":"六甲里","LIN":"12鄰","STREET":"中正路","SECT":" ","MAREA":" ","LANE":"３９４巷","ALLEY":" ","HOUSE_NO":"３０號","E_COORD97":183692.66,"N_COORD97":2569809.46,"ADDRESS":"中正路３９４巷３０號","OBJECTID":369810},"geometry":{"x":183692.66000000015,"y":2569809.4600000046}},{"attributes":{"ID":369821,"DIS_CODE":0,"TOWNNAME":"六甲區","LI":"六甲里","LIN":"12鄰","STREET":"中正路","SECT":" ","MAREA":" ","LANE":"３９４巷","ALLEY":" ","HOUSE_NO":"３６號","E_COORD97":183681.12,"N_COORD97":2569846.5099999998,"ADDRESS":"中正路３９４巷３６號","OBJECTID":369811},"geometry":{"x":183681.11999999918,"y":2569846.5100000016}},{"attributes":{"ID":369822,"DIS_CODE":0,"TOWNNAME":"六甲區","LI":"六甲里","LIN":"12鄰","STREET":"中正路","SECT":" ","MAREA":" ","LANE":"３９４巷","ALLEY":" ","HOUSE_NO":"３８號","E_COORD97":183684.38,"N_COORD97":2569852.8599999999,"ADDRESS":"中正路３９４巷３８號","OBJECTID":369812},"geometry":{"x":183684.38000000175,"y":2569852.8600000013}},{"attributes":{"ID":369823,"DIS_CODE":0,"TOWNNAME":"六甲區","LI":"七甲里","LIN":"12鄰","STREET":"中正路","SECT":" ","MAREA":" ","LANE":"５巷","ALLEY":" ","HOUSE_NO":"１之２號","E_COORD97":183297.14000000001,"N_COORD97":2568332.6499999999,"ADDRESS":"中正路５巷１之２號","OBJECTID":369813},"geometry":{"x":183297.13999999966,"y":2568332.6500000041}},{"attributes":{"ID":369824,"DIS_CODE":0,"TOWNNAME":"六甲區","LI":"七甲里","LIN":"12鄰","STREET":"中正路","SECT":" ","MAREA":" ","LANE":"５巷","ALLEY":" ","HOUSE_NO":"１號","E_COORD97":183317.01000000001,"N_COORD97":2568313.7999999998,"ADDRESS":"中正路５巷１號","OBJECTID":369814},"geometry":{"x":183317.00999999885,"y":2568313.8000000007}},{"attributes":{"ID":369825,"DIS_CODE":0,"TOWNNAME":"六甲區","LI":"七甲里","LIN":"12鄰","STREET":"中正路","SECT":" ","MAREA":" ","LANE":"５巷","ALLEY":" ","HOUSE_NO":"２號之２","E_COORD97":183235.89999999999,"N_COORD97":2568399.1699999999,"ADDRESS":"中正路５巷２號之２","OBJECTID":369815},"geometry":{"x":183235.9000000013,"y":2568399.1699999999}},{"attributes":{"ID":369826,"DIS_CODE":0,"TOWNNAME":"六甲區","LI":"七甲里","LIN":"12鄰","STREET":"中正路","SECT":" ","MAREA":" ","LANE":"５巷","ALLEY":" ","HOUSE_NO":"２號","E_COORD97":183276.92000000001,"N_COORD97":2568386.4100000001,"ADDRESS":"中正路５巷２號","OBJECTID":369816},"geometry":{"x":183276.91999999993,"y":2568386.410000002}},{"attributes":{"ID":369827,"DIS_CODE":0,"TOWNNAME":"六甲區","LI":"七甲里","LIN":"12鄰","STREET":"中正路","SECT":" ","MAREA":" ","LANE":"５巷","ALLEY":" ","HOUSE_NO":"３號","E_COORD97":183079.31,"N_COORD97":2568344.2799999998,"ADDRESS":"中正路５巷３號","OBJECTID":369817},"geometry":{"x":183079.31000000145,"y":2568344.2800000031}},{"attributes":{"ID":369828,"DIS_CODE":0,"TOWNNAME":"六甲區","LI":"七甲里","LIN":"12鄰","STREET":"中正路","SECT":" ","MAREA":" ","LANE":"５巷","ALLEY":" ","HOUSE_NO":"４號","E_COORD97":183129.03,"N_COORD97":2568438.1400000001,"ADDRESS":"中正路５巷４號","OBJECTID":369818},"geometry":{"x":183129.03000000026,"y":2568438.1400000043}},{"attributes":{"ID":369829,"DIS_CODE":0,"TOWNNAME":"六甲區","LI":"七甲里","LIN":"12鄰","STREET":"中正路","SECT":" ","MAREA":" ","LANE":"９７巷","ALLEY":" ","HOUSE_NO":"１１號","E_COORD97":183299.66,"N_COORD97":2568750.5800000001,"ADDRESS":"中正路９７巷１１號","OBJECTID":369819},"geometry":{"x":183299.66000000201,"y":2568750.5800000019}},{"attributes":{"ID":369830,"DIS_CODE":0,"TOWNNAME":"東山區","LI":"東中里","LIN":"12鄰","STREET":"青葉路","SECT":"一段","MAREA":" ","LANE":"２巷","ALLEY":" ","HOUSE_NO":"５號","E_COORD97":188825.67999999999,"N_COORD97":2578945.3300000001,"ADDRESS":"青葉路一段２巷５號","OBJECTID":369820},"geometry":{"x":188825.68000000063,"y":2578945.3300000001}},{"attributes":{"ID":369831,"DIS_CODE":0,"TOWNNAME":"六甲區","LI":"七甲里","LIN":"12鄰","STREET":"中正路","SECT":" ","MAREA":" ","LANE":"９７巷","ALLEY":" ","HOUSE_NO":"１８號","E_COORD97":183258.41,"N_COORD97":2568860.4300000002,"ADDRESS":"中正路９７巷１８號","OBJECTID":369821},"geometry":{"x":183258.41000000015,"y":2568860.4300000016}},{"attributes":{"ID":369832,"DIS_CODE":0,"TOWNNAME":"六甲區","LI":"七甲里","LIN":"12鄰","STREET":"中正路","SECT":" ","MAREA":" ","LANE":"９７巷","ALLEY":" ","HOUSE_NO":"１號","E_COORD97":183365.98999999999,"N_COORD97":2568785.5699999998,"ADDRESS":"中正路９７巷１號","OBJECTID":369822},"geometry":{"x":183365.99000000115,"y":2568785.5700000022}},{"attributes":{"ID":369833,"DIS_CODE":0,"TOWNNAME":"六甲區","LI":"七甲里","LIN":"12鄰","STREET":"中正路","SECT":" ","MAREA":" ","LANE":"９７巷","ALLEY":" ","HOUSE_NO":"２０號","E_COORD97":183245.45999999999,"N_COORD97":2568861.5,"ADDRESS":"中正路９７巷２０號","OBJECTID":369823},"geometry":{"x":183245.46000000089,"y":2568861.5}},{"attributes":{"ID":369834,"DIS_CODE":0,"TOWNNAME":"六甲區","LI":"七甲里","LIN":"12鄰","STREET":"中正路","SECT":" ","MAREA":" ","LANE":"９７巷","ALLEY":" ","HOUSE_NO":"２１號","E_COORD97":183255.94,"N_COORD97":2568780.9300000002,"ADDRESS":"中正路９７巷２１號","OBJECTID":369824},"geometry":{"x":183255.94000000134,"y":2568780.9300000034}},{"attributes":{"ID":369835,"DIS_CODE":0,"TOWNNAME":"六甲區","LI":"七甲里","LIN":"12鄰","STREET":"中正路","SECT":" ","MAREA":" ","LANE":"９７巷","ALLEY":" ","HOUSE_NO":"２２號","E_COORD97":183225.79999999999,"N_COORD97":2568850.1800000002,"ADDRESS":"中正路９７巷２２號","OBJECTID":369825},"geometry":{"x":183225.80000000075,"y":2568850.1799999997}},{"attributes":{"ID":369836,"DIS_CODE":0,"TOWNNAME":"六甲區","LI":"七甲里","LIN":"12鄰","STREET":"中正路","SECT":" ","MAREA":" ","LANE":"９７巷","ALLEY":" ","HOUSE_NO":"３１號","E_COORD97":183226.54999999999,"N_COORD97":2568776.1200000001,"ADDRESS":"中正路９７巷３１號","OBJECTID":369826},"geometry":{"x":183226.54999999981,"y":2568776.120000001}},{"attributes":{"ID":369837,"DIS_CODE":0,"TOWNNAME":"六甲區","LI":"水林里","LIN":"12鄰","STREET":"民族街","SECT":" ","MAREA":" ","LANE":"２７５巷","ALLEY":" ","HOUSE_NO":"２１７號","E_COORD97":182844.60000000001,"N_COORD97":2570282.8300000001,"ADDRESS":"民族街２７５巷２１７號","OBJECTID":369827},"geometry":{"x":182844.59999999963,"y":2570282.8300000001}},{"attributes":{"ID":369838,"DIS_CODE":0,"TOWNNAME":"六甲區","LI":"水林里","LIN":"12鄰","STREET":"民族街","SECT":" ","MAREA":" ","LANE":"２７５巷","ALLEY":" ","HOUSE_NO":"２１９號","E_COORD97":182844.97,"N_COORD97":2570287.4199999999,"ADDRESS":"民族街２７５巷２１９號","OBJECTID":369828},"geometry":{"x":182844.97000000067,"y":2570287.4200000018}},{"attributes":{"ID":369839,"DIS_CODE":0,"TOWNNAME":"六甲區","LI":"水林里","LIN":"12鄰","STREET":"民族街","SECT":" ","MAREA":" ","LANE":"２７５巷","ALLEY":" ","HOUSE_NO":"２３７號","E_COORD97":182846.89999999999,"N_COORD97":2570331.5299999998,"ADDRESS":"民族街２７５巷２３７號","OBJECTID":369829},"geometry":{"x":182846.90000000037,"y":2570331.5299999993}},{"attributes":{"ID":369840,"DIS_CODE":0,"TOWNNAME":"六甲區","LI":"水林里","LIN":"12鄰","STREET":"民族街","SECT":" ","MAREA":" ","LANE":"２７５巷","ALLEY":" ","HOUSE_NO":"２３９號","E_COORD97":182845.89999999999,"N_COORD97":2570337.23,"ADDRESS":"民族街２７５巷２３９號","OBJECTID":369830},"geometry":{"x":182845.9000000013,"y":2570337.2300000023}},{"attributes":{"ID":369841,"DIS_CODE":0,"TOWNNAME":"新營區","LI":"新北里","LIN":"12鄰","STREET":"南新街","SECT":" ","MAREA":" ","LANE":"５０巷","ALLEY":" ","HOUSE_NO":"２４號","E_COORD97":179343.97,"N_COORD97":2578940.1899999999,"ADDRESS":"南新街５０巷２４號","OBJECTID":369831},"geometry":{"x":179343.9700000016,"y":2578940.1900000032}},{"attributes":{"ID":369842,"DIS_CODE":0,"TOWNNAME":"六甲區","LI":"水林里","LIN":"12鄰","STREET":"民族街","SECT":" ","MAREA":" ","LANE":"２７５巷","ALLEY":" ","HOUSE_NO":"１２號","E_COORD97":183089.25,"N_COORD97":2570312.9900000002,"ADDRESS":"民族街２７５巷１２號","OBJECTID":369832},"geometry":{"x":183089.25000000093,"y":2570312.9900000002}},{"attributes":{"ID":369843,"DIS_CODE":0,"TOWNNAME":"新營區","LI":"南興里","LIN":"12鄰","STREET":"和平路","SECT":" ","MAREA":" ","LANE":"１０４巷","ALLEY":" ","HOUSE_NO":"４３號","E_COORD97":179286.20000000001,"N_COORD97":2577550.6000000001,"ADDRESS":"和平路１０４巷４３號","OBJECTID":369833},"geometry":{"x":179286.20000000019,"y":2577550.6000000034}},{"attributes":{"ID":369844,"DIS_CODE":0,"TOWNNAME":"新營區","LI":"興業里","LIN":"12鄰","STREET":"中興路","SECT":" ","MAREA":" ","LANE":"１３巷","ALLEY":" ","HOUSE_NO":"１０之４號","E_COORD97":180185.63,"N_COORD97":2577963.9100000001,"ADDRESS":"中興路１３巷１０之４號","OBJECTID":369834},"geometry":{"x":180185.63000000082,"y":2577963.910000002}},{"attributes":{"ID":369845,"DIS_CODE":0,"TOWNNAME":"新營區","LI":"新北里","LIN":"12鄰","STREET":"南新街","SECT":" ","MAREA":" ","LANE":"５０巷","ALLEY":" ","HOUSE_NO":"１２號","E_COORD97":179348.89999999999,"N_COORD97":2578916.8999999999,"ADDRESS":"南新街５０巷１２號","OBJECTID":369835},"geometry":{"x":179348.9000000013,"y":2578916.9000000022}},{"attributes":{"ID":369846,"DIS_CODE":0,"TOWNNAME":"柳營區","LI":"八翁里","LIN":"12鄰","STREET":"中山西路","SECT":"三段","MAREA":" ","LANE":"４９０巷","ALLEY":" ","HOUSE_NO":"１０號","E_COORD97":178777.95999999999,"N_COORD97":2575048.48,"ADDRESS":"中山西路三段４９０巷１０號","OBJECTID":369836},"geometry":{"x":178777.96000000183,"y":2575048.4800000023}},{"attributes":{"ID":369847,"DIS_CODE":0,"TOWNNAME":"柳營區","LI":"八翁里","LIN":"12鄰","STREET":"中山西路","SECT":"三段","MAREA":" ","LANE":"４９０巷","ALLEY":" ","HOUSE_NO":"１２號","E_COORD97":178782.39999999999,"N_COORD97":2575048.48,"ADDRESS":"中山西路三段４９０巷１２號","OBJECTID":369837},"geometry":{"x":178782.4000000013,"y":2575048.4800000023}},{"attributes":{"ID":369848,"DIS_CODE":0,"TOWNNAME":"柳營區","LI":"八翁里","LIN":"12鄰","STREET":"中山西路","SECT":"三段","MAREA":" ","LANE":"４９０巷","ALLEY":" ","HOUSE_NO":"１６號","E_COORD97":178786.85000000001,"N_COORD97":2575048.48,"ADDRESS":"中山西路三段４９０巷１６號","OBJECTID":369838},"geometry":{"x":178786.85000000149,"y":2575048.4800000023}},{"attributes":{"ID":369849,"DIS_CODE":0,"TOWNNAME":"柳營區","LI":"八翁里","LIN":"12鄰","STREET":"中山西路","SECT":"三段","MAREA":" ","LANE":"４９０巷","ALLEY":" ","HOUSE_NO":"１８號","E_COORD97":178768.13,"N_COORD97":2575067.1699999999,"ADDRESS":"中山西路三段４９０巷１８號","OBJECTID":369839},"geometry":{"x":178768.12999999896,"y":2575067.1699999999}},{"attributes":{"ID":369850,"DIS_CODE":0,"TOWNNAME":"柳營區","LI":"八翁里","LIN":"12鄰","STREET":"中山西路","SECT":"三段","MAREA":" ","LANE":"４９０巷","ALLEY":" ","HOUSE_NO":"２０號","E_COORD97":178783.32999999999,"N_COORD97":2575070.2200000002,"ADDRESS":"中山西路三段４９０巷２０號","OBJECTID":369840},"geometry":{"x":178783.33000000007,"y":2575070.2200000025}},{"attributes":{"ID":369851,"DIS_CODE":0,"TOWNNAME":"柳營區","LI":"八翁里","LIN":"12鄰","STREET":"中山西路","SECT":"三段","MAREA":" ","LANE":"４９０巷","ALLEY":" ","HOUSE_NO":"２２號","E_COORD97":178767.53,"N_COORD97":2575092.4100000001,"ADDRESS":"中山西路三段４９０巷２２號","OBJECTID":369841},"geometry":{"x":178767.52999999933,"y":2575092.410000002}},{"attributes":{"ID":369852,"DIS_CODE":0,"TOWNNAME":"柳營區","LI":"八翁里","LIN":"12鄰","STREET":"中山西路","SECT":"三段","MAREA":" ","LANE":"４９０巷","ALLEY":" ","HOUSE_NO":"２６號","E_COORD97":178779.85999999999,"N_COORD97":2575088.5299999998,"ADDRESS":"中山西路三段４９０巷２６號","OBJECTID":369842},"geometry":{"x":178779.86000000127,"y":2575088.5299999993}},{"attributes":{"ID":369853,"DIS_CODE":0,"TOWNNAME":"柳營區","LI":"八翁里","LIN":"12鄰","STREET":"中山西路","SECT":"三段","MAREA":" ","LANE":"４９０巷","ALLEY":" ","HOUSE_NO":"２８號","E_COORD97":178767.26000000001,"N_COORD97":2575112.9399999999,"ADDRESS":"中山西路三段４９０巷２８號","OBJECTID":369843},"geometry":{"x":178767.26000000164,"y":2575112.9399999995}},{"attributes":{"ID":369854,"DIS_CODE":0,"TOWNNAME":"柳營區","LI":"八翁里","LIN":"12鄰","STREET":"中山西路","SECT":"三段","MAREA":" ","LANE":"４９０巷","ALLEY":" ","HOUSE_NO":"２號","E_COORD97":178764.62,"N_COORD97":2575048.48,"ADDRESS":"中山西路三段４９０巷２號","OBJECTID":369844},"geometry":{"x":178764.62000000011,"y":2575048.4800000023}},{"attributes":{"ID":369855,"DIS_CODE":0,"TOWNNAME":"柳營區","LI":"八翁里","LIN":"12鄰","STREET":"中山西路","SECT":"三段","MAREA":" ","LANE":"４９０巷","ALLEY":" ","HOUSE_NO":"３０號","E_COORD97":178776.60000000001,"N_COORD97":2575105.8700000001,"ADDRESS":"中山西路三段４９０巷３０號","OBJECTID":369845},"geometry":{"x":178776.60000000149,"y":2575105.8700000048}},{"attributes":{"ID":369856,"DIS_CODE":0,"TOWNNAME":"柳營區","LI":"八翁里","LIN":"12鄰","STREET":"中山西路","SECT":"三段","MAREA":" ","LANE":"４９０巷","ALLEY":" ","HOUSE_NO":"６號","E_COORD97":178769.06,"N_COORD97":2575048.48,"ADDRESS":"中山西路三段４９０巷６號","OBJECTID":369846},"geometry":{"x":178769.06000000052,"y":2575048.4800000023}},{"attributes":{"ID":369857,"DIS_CODE":0,"TOWNNAME":"柳營區","LI":"八翁里","LIN":"12鄰","STREET":"中山西路","SECT":"三段","MAREA":" ","LANE":"４９０巷","ALLEY":" ","HOUSE_NO":"８號","E_COORD97":178773.51000000001,"N_COORD97":2575048.48,"ADDRESS":"中山西路三段４９０巷８號","OBJECTID":369847},"geometry":{"x":178773.50999999978,"y":2575048.4800000023}},{"attributes":{"ID":369858,"DIS_CODE":0,"TOWNNAME":"柳營區","LI":"中埕里","LIN":"12鄰","STREET":"中興街","SECT":" ","MAREA":" ","LANE":"６６巷","ALLEY":" ","HOUSE_NO":"１號","E_COORD97":179963.26999999999,"N_COORD97":2575295.73,"ADDRESS":"中興街６６巷１號","OBJECTID":369848},"geometry":{"x":179963.26999999955,"y":2575295.7300000004}},{"attributes":{"ID":369859,"DIS_CODE":0,"TOWNNAME":"柳營區","LI":"中埕里","LIN":"12鄰","STREET":"中興街","SECT":" ","MAREA":" ","LANE":"６６巷","ALLEY":" ","HOUSE_NO":"３號","E_COORD97":179968.32999999999,"N_COORD97":2575301.9199999999,"ADDRESS":"中興街６６巷３號","OBJECTID":369849},"geometry":{"x":179968.33000000007,"y":2575301.9200000018}},{"attributes":{"ID":369860,"DIS_CODE":0,"TOWNNAME":"柳營區","LI":"中埕里","LIN":"12鄰","STREET":"中興街","SECT":" ","MAREA":" ","LANE":"６６巷","ALLEY":" ","HOUSE_NO":"７號","E_COORD97":179975.92999999999,"N_COORD97":2575304.8199999998,"ADDRESS":"中興街６６巷７號","OBJECTID":369850},"geometry":{"x":179975.9299999997,"y":2575304.8200000003}},{"attributes":{"ID":369861,"DIS_CODE":0,"TOWNNAME":"柳營區","LI":"中埕里","LIN":"12鄰","STREET":"中興街","SECT":" ","MAREA":" ","LANE":"６６巷","ALLEY":" ","HOUSE_NO":"９號","E_COORD97":179980.09,"N_COORD97":2575306.6299999999,"ADDRESS":"中興街６６巷９號","OBJECTID":369851},"geometry":{"x":179980.08999999985,"y":2575306.6300000008}},{"attributes":{"ID":369862,"DIS_CODE":0,"TOWNNAME":"柳營區","LI":"中埕里","LIN":"12鄰","STREET":"成功街","SECT":" ","MAREA":" ","LANE":"５７巷","ALLEY":" ","HOUSE_NO":"６號","E_COORD97":179969.67999999999,"N_COORD97":2575317.7400000002,"ADDRESS":"成功街５７巷６號","OBJECTID":369852},"geometry":{"x":179969.68000000156,"y":2575317.7400000021}},{"attributes":{"ID":369863,"DIS_CODE":0,"TOWNNAME":"鹽水區","LI":"武廟里","LIN":"12鄰","STREET":"民生街","SECT":" ","MAREA":" ","LANE":"１４巷","ALLEY":" ","HOUSE_NO":"８號","E_COORD97":175039.28,"N_COORD97":2580147.8999999999,"ADDRESS":"民生街１４巷８號","OBJECTID":369853},"geometry":{"x":175039.28000000026,"y":2580147.9000000022}},{"attributes":{"ID":369864,"DIS_CODE":0,"TOWNNAME":"北區","LI":"國姓里","LIN":"12鄰","STREET":"公園路","SECT":" ","MAREA":" ","LANE":"３７７巷","ALLEY":" ","HOUSE_NO":"１０１號","E_COORD97":168719.76000000001,"N_COORD97":2545177.8199999998,"ADDRESS":"公園路３７７巷１０１號","OBJECTID":369854},"geometry":{"x":168719.75999999885,"y":2545177.8200000003}},{"attributes":{"ID":369865,"DIS_CODE":0,"TOWNNAME":"北區","LI":"國姓里","LIN":"12鄰","STREET":"公園路","SECT":" ","MAREA":" ","LANE":"３７７巷","ALLEY":" ","HOUSE_NO":"３５號","E_COORD97":168910.32000000001,"N_COORD97":2545209.2400000002,"ADDRESS":"公園路３７７巷３５號","OBJECTID":369855},"geometry":{"x":168910.32000000123,"y":2545209.2399999984}},{"attributes":{"ID":369866,"DIS_CODE":0,"TOWNNAME":"北區","LI":"國姓里","LIN":"12鄰","STREET":"公園路","SECT":" ","MAREA":" ","LANE":"３７７巷","ALLEY":" ","HOUSE_NO":"５５號","E_COORD97":168834.53,"N_COORD97":2545206.52,"ADDRESS":"公園路３７７巷５５號","OBJECTID":369856},"geometry":{"x":168834.53000000119,"y":2545206.5199999996}},{"attributes":{"ID":369867,"DIS_CODE":0,"TOWNNAME":"北區","LI":"國姓里","LIN":"12鄰","STREET":"公園路","SECT":" ","MAREA":" ","LANE":"３７７巷","ALLEY":" ","HOUSE_NO":"５７號","E_COORD97":168830.57000000001,"N_COORD97":2545199.7400000002,"ADDRESS":"公園路３７７巷５７號","OBJECTID":369857},"geometry":{"x":168830.57000000123,"y":2545199.7400000021}},{"attributes":{"ID":369868,"DIS_CODE":0,"TOWNNAME":"北區","LI":"國姓里","LIN":"12鄰","STREET":"公園路","SECT":" ","MAREA":" ","LANE":"３７７巷","ALLEY":" ","HOUSE_NO":"５９號","E_COORD97":168825.10999999999,"N_COORD97":2545206.3399999999,"ADDRESS":"公園路３７７巷５９號","OBJECTID":369858},"geometry":{"x":168825.11000000127,"y":2545206.3400000017}},{"attributes":{"ID":369869,"DIS_CODE":0,"TOWNNAME":"北區","LI":"國姓里","LIN":"12鄰","STREET":"公園路","SECT":" ","MAREA":" ","LANE":"３７７巷","ALLEY":" ","HOUSE_NO":"６１號","E_COORD97":168822,"N_COORD97":2545202.6699999999,"ADDRESS":"公園路３７７巷６１號","OBJECTID":369859},"geometry":{"x":168822.00000000186,"y":2545202.6699999981}},{"attributes":{"ID":369870,"DIS_CODE":0,"TOWNNAME":"北區","LI":"國姓里","LIN":"12鄰","STREET":"公園路","SECT":" ","MAREA":" ","LANE":"３７７巷","ALLEY":" ","HOUSE_NO":"６３號","E_COORD97":168816.91,"N_COORD97":2545200.98,"ADDRESS":"公園路３７７巷６３號","OBJECTID":369860},"geometry":{"x":168816.91000000015,"y":2545200.9800000004}},{"attributes":{"ID":369871,"DIS_CODE":0,"TOWNNAME":"北區","LI":"國姓里","LIN":"12鄰","STREET":"公園路","SECT":" ","MAREA":" ","LANE":"３７７巷","ALLEY":" ","HOUSE_NO":"６５號","E_COORD97":168812.95000000001,"N_COORD97":2545202.1099999999,"ADDRESS":"公園路３７７巷６５號","OBJECTID":369861},"geometry":{"x":168812.95000000112,"y":2545202.1099999994}},{"attributes":{"ID":369872,"DIS_CODE":0,"TOWNNAME":"北區","LI":"國姓里","LIN":"12鄰","STREET":"公園路","SECT":" ","MAREA":" ","LANE":"３７７巷","ALLEY":" ","HOUSE_NO":"６７號","E_COORD97":168806.01000000001,"N_COORD97":2545199.5699999998,"ADDRESS":"公園路３７７巷６７號","OBJECTID":369862},"geometry":{"x":168806.00999999978,"y":2545199.5700000003}},{"attributes":{"ID":369873,"DIS_CODE":0,"TOWNNAME":"北區","LI":"國姓里","LIN":"12鄰","STREET":"公園路","SECT":" ","MAREA":" ","LANE":"３７７巷","ALLEY":" ","HOUSE_NO":"６９號","E_COORD97":168802.89999999999,"N_COORD97":2545197.8700000001,"ADDRESS":"公園路３７７巷６９號","OBJECTID":369863},"geometry":{"x":168802.9000000013,"y":2545197.870000001}},{"attributes":{"ID":369874,"DIS_CODE":0,"TOWNNAME":"北區","LI":"國姓里","LIN":"12鄰","STREET":"公園路","SECT":" ","MAREA":" ","LANE":"３７７巷","ALLEY":" ","HOUSE_NO":"７１號","E_COORD97":168798.66,"N_COORD97":2545197.8700000001,"ADDRESS":"公園路３７７巷７１號","OBJECTID":369864},"geometry":{"x":168798.66000000015,"y":2545197.870000001}},{"attributes":{"ID":369875,"DIS_CODE":0,"TOWNNAME":"北區","LI":"國姓里","LIN":"12鄰","STREET":"公園路","SECT":" ","MAREA":" ","LANE":"３７７巷","ALLEY":" ","HOUSE_NO":"７３號","E_COORD97":168793.85000000001,"N_COORD97":2545197.3100000001,"ADDRESS":"公園路３７７巷７３號","OBJECTID":369865},"geometry":{"x":168793.85000000056,"y":2545197.3100000024}},{"attributes":{"ID":369876,"DIS_CODE":0,"TOWNNAME":"北區","LI":"國姓里","LIN":"12鄰","STREET":"公園路","SECT":" ","MAREA":" ","LANE":"３７７巷","ALLEY":" ","HOUSE_NO":"７５號","E_COORD97":168789.32999999999,"N_COORD97":2545196.46,"ADDRESS":"公園路３７７巷７５號","OBJECTID":369866},"geometry":{"x":168789.33000000194,"y":2545196.4600000028}},{"attributes":{"ID":369877,"DIS_CODE":0,"TOWNNAME":"北區","LI":"國姓里","LIN":"12鄰","STREET":"公園路","SECT":" ","MAREA":" ","LANE":"３７７巷","ALLEY":" ","HOUSE_NO":"７７號","E_COORD97":168779.70999999999,"N_COORD97":2545193.9199999999,"ADDRESS":"公園路３７７巷７７號","OBJECTID":369867},"geometry":{"x":168779.71000000183,"y":2545193.9199999999}},{"attributes":{"ID":369878,"DIS_CODE":0,"TOWNNAME":"北區","LI":"國姓里","LIN":"12鄰","STREET":"公園路","SECT":" ","MAREA":" ","LANE":"３７７巷","ALLEY":" ","HOUSE_NO":"７９號","E_COORD97":168775.47,"N_COORD97":2545193.3500000001,"ADDRESS":"公園路３７７巷７９號","OBJECTID":369868},"geometry":{"x":168775.46999999974,"y":2545193.3499999996}},{"attributes":{"ID":369879,"DIS_CODE":0,"TOWNNAME":"北區","LI":"國姓里","LIN":"12鄰","STREET":"公園路","SECT":" ","MAREA":" ","LANE":"３７７巷","ALLEY":" ","HOUSE_NO":"８１號","E_COORD97":168773.20999999999,"N_COORD97":2545193.0699999998,"ADDRESS":"公園路３７７巷８１號","OBJECTID":369869},"geometry":{"x":168773.21000000089,"y":2545193.0700000003}},{"attributes":{"ID":369880,"DIS_CODE":0,"TOWNNAME":"北區","LI":"國姓里","LIN":"12鄰","STREET":"公園路","SECT":" ","MAREA":" ","LANE":"３７７巷","ALLEY":" ","HOUSE_NO":"８３號","E_COORD97":168768.95999999999,"N_COORD97":2545191.9399999999,"ADDRESS":"公園路３７７巷８３號","OBJECTID":369870},"geometry":{"x":168768.95999999996,"y":2545191.9400000013}},{"attributes":{"ID":369881,"DIS_CODE":0,"TOWNNAME":"北區","LI":"國姓里","LIN":"12鄰","STREET":"公園路","SECT":" ","MAREA":" ","LANE":"３７７巷","ALLEY":" ","HOUSE_NO":"８５號","E_COORD97":168765.85000000001,"N_COORD97":2545191.6600000001,"ADDRESS":"公園路３７７巷８５號","OBJECTID":369871},"geometry":{"x":168765.84999999963,"y":2545191.6600000001}},{"attributes":{"ID":369882,"DIS_CODE":0,"TOWNNAME":"北區","LI":"國姓里","LIN":"12鄰","STREET":"公園路","SECT":" ","MAREA":" ","LANE":"３７７巷","ALLEY":" ","HOUSE_NO":"８９號","E_COORD97":168754.82000000001,"N_COORD97":2545188.8300000001,"ADDRESS":"公園路３７７巷８９號","OBJECTID":369872},"geometry":{"x":168754.8200000003,"y":2545188.8300000019}},{"attributes":{"ID":369883,"DIS_CODE":0,"TOWNNAME":"北區","LI":"國姓里","LIN":"12鄰","STREET":"公園路","SECT":" ","MAREA":" ","LANE":"３７７巷","ALLEY":" ","HOUSE_NO":"９１號","E_COORD97":168748.60000000001,"N_COORD97":2545186.0099999998,"ADDRESS":"公園路３７７巷９１號","OBJECTID":369873},"geometry":{"x":168748.60000000056,"y":2545186.0099999998}},{"attributes":{"ID":369884,"DIS_CODE":0,"TOWNNAME":"北區","LI":"國姓里","LIN":"12鄰","STREET":"公園路","SECT":" ","MAREA":" ","LANE":"３７７巷","ALLEY":" ","HOUSE_NO":"９５號","E_COORD97":168737.57000000001,"N_COORD97":2545179.5099999998,"ADDRESS":"公園路３７７巷９５號","OBJECTID":369874},"geometry":{"x":168737.57000000123,"y":2545179.5099999998}},{"attributes":{"ID":369885,"DIS_CODE":0,"TOWNNAME":"北區","LI":"國姓里","LIN":"12鄰","STREET":"公園路","SECT":" ","MAREA":" ","LANE":"３７７巷","ALLEY":" ","HOUSE_NO":"９９號","E_COORD97":168726.82999999999,"N_COORD97":2545178.3799999999,"ADDRESS":"公園路３７７巷９９號","OBJECTID":369875},"geometry":{"x":168726.83000000101,"y":2545178.3800000008}},{"attributes":{"ID":369886,"DIS_CODE":0,"TOWNNAME":"北區","LI":"國姓里","LIN":"12鄰","STREET":"公園路","SECT":" ","MAREA":" ","LANE":"３７７巷","ALLEY":" ","HOUSE_NO":"１０５號","E_COORD97":168708.16,"N_COORD97":2545180.3599999999,"ADDRESS":"公園路３７７巷１０５號","OBJECTID":369876},"geometry":{"x":168708.16000000108,"y":2545180.3599999994}},{"attributes":{"ID":369887,"DIS_CODE":0,"TOWNNAME":"北區","LI":"國姓里","LIN":"12鄰","STREET":"公園路","SECT":" ","MAREA":" ","LANE":"３７７巷","ALLEY":" ","HOUSE_NO":"１０７號","E_COORD97":168703.07000000001,"N_COORD97":2545180.0800000001,"ADDRESS":"公園路３７７巷１０７號","OBJECTID":369877},"geometry":{"x":168703.07000000216,"y":2545180.0800000038}},{"attributes":{"ID":369888,"DIS_CODE":0,"TOWNNAME":"南區","LI":"興農里","LIN":"12鄰","STREET":"明興路","SECT":" ","MAREA":" ","LANE":"１０８７巷","ALLEY":" ","HOUSE_NO":"５號","E_COORD97":166525.22,"N_COORD97":2536666.5600000001,"ADDRESS":"明興路１０８７巷５號","OBJECTID":369878},"geometry":{"x":166525.22000000067,"y":2536666.5600000005}},{"attributes":{"ID":369889,"DIS_CODE":0,"TOWNNAME":"仁德區","LI":"上崙里","LIN":"8鄰","STREET":"德南路","SECT":" ","MAREA":" ","LANE":"３６７巷","ALLEY":" ","HOUSE_NO":"１２號","E_COORD97":173889.35000000001,"N_COORD97":2538361.02,"ADDRESS":"德南路３６７巷１２號","OBJECTID":369879},"geometry":{"x":173889.3499999987,"y":2538361.0199999996}},{"attributes":{"ID":369890,"DIS_CODE":0,"TOWNNAME":"南區","LI":"明亮里","LIN":"12鄰","STREET":"新都路","SECT":" ","MAREA":" ","LANE":"４６２巷","ALLEY":" ","HOUSE_NO":"１０號","E_COORD97":167287.78,"N_COORD97":2540908.96,"ADDRESS":"新都路４６２巷１０號","OBJECTID":369880},"geometry":{"x":167287.78000000212,"y":2540908.9600000009}},{"attributes":{"ID":369891,"DIS_CODE":0,"TOWNNAME":"南區","LI":"明亮里","LIN":"12鄰","STREET":"新都路","SECT":" ","MAREA":" ","LANE":"４６２巷","ALLEY":" ","HOUSE_NO":"１２號","E_COORD97":167288.10000000001,"N_COORD97":2540912.7200000002,"ADDRESS":"新都路４６２巷１２號","OBJECTID":369881},"geometry":{"x":167288.09999999963,"y":2540912.7200000025}},{"attributes":{"ID":369892,"DIS_CODE":0,"TOWNNAME":"南區","LI":"明亮里","LIN":"12鄰","STREET":"新都路","SECT":" ","MAREA":" ","LANE":"４６２巷","ALLEY":" ","HOUSE_NO":"１４號","E_COORD97":167289.67000000001,"N_COORD97":2540917.1099999999,"ADDRESS":"新都路４６２巷１４號","OBJECTID":369882},"geometry":{"x":167289.66999999993,"y":2540917.1099999975}},{"attributes":{"ID":369893,"DIS_CODE":0,"TOWNNAME":"南區","LI":"明亮里","LIN":"12鄰","STREET":"新都路","SECT":" ","MAREA":" ","LANE":"４６２巷","ALLEY":" ","HOUSE_NO":"１６號","E_COORD97":167290.92000000001,"N_COORD97":2540920.8700000001,"ADDRESS":"新都路４６２巷１６號","OBJECTID":369883},"geometry":{"x":167290.91999999993,"y":2540920.8700000048}},{"attributes":{"ID":369894,"DIS_CODE":0,"TOWNNAME":"南區","LI":"明亮里","LIN":"12鄰","STREET":"新都路","SECT":" ","MAREA":" ","LANE":"４６２巷","ALLEY":" ","HOUSE_NO":"１８號","E_COORD97":167291.54999999999,"N_COORD97":2540925.8799999999,"ADDRESS":"新都路４６２巷１８號","OBJECTID":369884},"geometry":{"x":167291.54999999981,"y":2540925.8800000008}},{"attributes":{"ID":369895,"DIS_CODE":0,"TOWNNAME":"南區","LI":"明亮里","LIN":"12鄰","STREET":"新都路","SECT":" ","MAREA":" ","LANE":"４６２巷","ALLEY":" ","HOUSE_NO":"２０號","E_COORD97":167292.48999999999,"N_COORD97":2540930.2599999998,"ADDRESS":"新都路４６２巷２０號","OBJECTID":369885},"geometry":{"x":167292.49000000022,"y":2540930.2600000035}},{"attributes":{"ID":369896,"DIS_CODE":0,"TOWNNAME":"南區","LI":"明亮里","LIN":"12鄰","STREET":"新都路","SECT":" ","MAREA":" ","LANE":"４６２巷","ALLEY":" ","HOUSE_NO":"２２號","E_COORD97":167294.37,"N_COORD97":2540934.02,"ADDRESS":"新都路４６２巷２２號","OBJECTID":369886},"geometry":{"x":167294.37000000104,"y":2540934.0199999996}},{"attributes":{"ID":369897,"DIS_CODE":0,"TOWNNAME":"南區","LI":"明亮里","LIN":"12鄰","STREET":"新都路","SECT":" ","MAREA":" ","LANE":"４６２巷","ALLEY":" ","HOUSE_NO":"２４號","E_COORD97":167295.63,"N_COORD97":2540938.4100000001,"ADDRESS":"新都路４６２巷２４號","OBJECTID":369887},"geometry":{"x":167295.63000000082,"y":2540938.4100000001}},{"attributes":{"ID":369898,"DIS_CODE":0,"TOWNNAME":"南區","LI":"明亮里","LIN":"12鄰","STREET":"新都路","SECT":" ","MAREA":" ","LANE":"４６２巷","ALLEY":" ","HOUSE_NO":"２６號","E_COORD97":167297.20000000001,"N_COORD97":2540943.4199999999,"ADDRESS":"新都路４６２巷２６號","OBJECTID":369888},"geometry":{"x":167297.20000000112,"y":2540943.4200000018}},{"attributes":{"ID":369899,"DIS_CODE":0,"TOWNNAME":"南區","LI":"明亮里","LIN":"12鄰","STREET":"新都路","SECT":" ","MAREA":" ","LANE":"４６２巷","ALLEY":" ","HOUSE_NO":"６號","E_COORD97":167284.95999999999,"N_COORD97":2540900.1899999999,"ADDRESS":"新都路４６２巷６號","OBJECTID":369889},"geometry":{"x":167284.96000000089,"y":2540900.1900000013}},{"attributes":{"ID":369900,"DIS_CODE":0,"TOWNNAME":"南區","LI":"明亮里","LIN":"12鄰","STREET":"新都路","SECT":" ","MAREA":" ","LANE":"４６２巷","ALLEY":" ","HOUSE_NO":"８號","E_COORD97":167286.53,"N_COORD97":2540905.2000000002,"ADDRESS":"新都路４６２巷８號","OBJECTID":369890},"geometry":{"x":167286.53000000119,"y":2540905.1999999993}},{"attributes":{"ID":369901,"DIS_CODE":0,"TOWNNAME":"南區","LI":"建南里","LIN":"12鄰","STREET":"中華南路","SECT":"二段","MAREA":" ","LANE":"１７７巷","ALLEY":" ","HOUSE_NO":"７７號","E_COORD97":167095.89999999999,"N_COORD97":2539992.0899999999,"ADDRESS":"中華南路二段１７７巷７７號","OBJECTID":369891},"geometry":{"x":167095.9000000013,"y":2539992.089999998}},{"attributes":{"ID":369902,"DIS_CODE":0,"TOWNNAME":"歸仁區","LI":"許厝里","LIN":"12鄰","STREET":"信義南路","SECT":" ","MAREA":" ","LANE":"５３巷","ALLEY":" ","HOUSE_NO":"１４號","E_COORD97":178085.28,"N_COORD97":2540616.96,"ADDRESS":"信義南路５３巷１４號","OBJECTID":369892},"geometry":{"x":178085.28000000119,"y":2540616.9600000009}},{"attributes":{"ID":369903,"DIS_CODE":0,"TOWNNAME":"歸仁區","LI":"許厝里","LIN":"12鄰","STREET":"中山路","SECT":"一段","MAREA":" ","LANE":"４３７巷","ALLEY":" ","HOUSE_NO":"１１號","E_COORD97":178107.35999999999,"N_COORD97":2540676.25,"ADDRESS":"中山路一段４３７巷１１號","OBJECTID":369893},"geometry":{"x":178107.36000000034,"y":2540676.2500000037}},{"attributes":{"ID":369904,"DIS_CODE":0,"TOWNNAME":"歸仁區","LI":"看東里","LIN":"12鄰","STREET":"忠孝南路","SECT":" ","MAREA":" ","LANE":"２５巷","ALLEY":" ","HOUSE_NO":"２６號","E_COORD97":178566.79999999999,"N_COORD97":2540521.48,"ADDRESS":"忠孝南路２５巷２６號","OBJECTID":369894},"geometry":{"x":178566.79999999981,"y":2540521.4800000004}},{"attributes":{"ID":369905,"DIS_CODE":0,"TOWNNAME":"歸仁區","LI":"文化里","LIN":"12鄰","STREET":"文化北一街","SECT":" ","MAREA":" ","LANE":"４３巷","ALLEY":" ","HOUSE_NO":"２號","E_COORD97":177318.60999999999,"N_COORD97":2541432.3399999999,"ADDRESS":"文化北一街４３巷２號","OBJECTID":369895},"geometry":{"x":177318.61000000127,"y":2541432.3400000017}},{"attributes":{"ID":369906,"DIS_CODE":0,"TOWNNAME":"歸仁區","LI":"西埔里","LIN":"12鄰","STREET":"西埔一街","SECT":" ","MAREA":" ","LANE":"１８５巷","ALLEY":" ","HOUSE_NO":"４２號","E_COORD97":176957.34,"N_COORD97":2544702.25,"ADDRESS":"西埔一街１８５巷４２號","OBJECTID":369896},"geometry":{"x":176957.33999999985,"y":2544702.2500000019}},{"attributes":{"ID":369907,"DIS_CODE":0,"TOWNNAME":"歸仁區","LI":"文化里","LIN":"12鄰","STREET":"文化北一街","SECT":" ","MAREA":" ","LANE":"２１巷","ALLEY":" ","HOUSE_NO":"６號","E_COORD97":177364.70999999999,"N_COORD97":2541426.3399999999,"ADDRESS":"文化北一街２１巷６號","OBJECTID":369897},"geometry":{"x":177364.71000000089,"y":2541426.3400000017}},{"attributes":{"ID":369908,"DIS_CODE":0,"TOWNNAME":"歸仁區","LI":"文化里","LIN":"12鄰","STREET":"文化北一街","SECT":" ","MAREA":" ","LANE":"２１巷","ALLEY":" ","HOUSE_NO":"３號","E_COORD97":177381.10999999999,"N_COORD97":2541424.3399999999,"ADDRESS":"文化北一街２１巷３號","OBJECTID":369898},"geometry":{"x":177381.11000000127,"y":2541424.3399999999}},{"attributes":{"ID":369909,"DIS_CODE":0,"TOWNNAME":"歸仁區","LI":"六甲里","LIN":"12鄰","STREET":"中正南路","SECT":"一段","MAREA":" ","LANE":"１０３６巷","ALLEY":" ","HOUSE_NO":"５號","E_COORD97":175939.95000000001,"N_COORD97":2539150.2799999998,"ADDRESS":"中正南路一段１０３６巷５號","OBJECTID":369899},"geometry":{"x":175939.95000000019,"y":2539150.2800000012}},{"attributes":{"ID":369910,"DIS_CODE":0,"TOWNNAME":"歸仁區","LI":"西埔里","LIN":"12鄰","STREET":"西埔一街","SECT":" ","MAREA":" ","LANE":"１８５巷","ALLEY":" ","HOUSE_NO":"１２號","E_COORD97":176968.44,"N_COORD97":2544681.25,"ADDRESS":"西埔一街１８５巷１２號","OBJECTID":369900},"geometry":{"x":176968.44000000134,"y":2544681.2500000019}},{"attributes":{"ID":369911,"DIS_CODE":0,"TOWNNAME":"歸仁區","LI":"文化里","LIN":"12鄰","STREET":"文化北一街","SECT":" ","MAREA":" ","LANE":"２１巷","ALLEY":" ","HOUSE_NO":"１號","E_COORD97":177381.10999999999,"N_COORD97":2541429.3399999999,"ADDRESS":"文化北一街２１巷１號","OBJECTID":369901},"geometry":{"x":177381.11000000127,"y":2541429.3400000017}},{"attributes":{"ID":369912,"DIS_CODE":0,"TOWNNAME":"歸仁區","LI":"六甲里","LIN":"12鄰","STREET":"中正南路","SECT":"一段","MAREA":" ","LANE":"１０３６巷","ALLEY":" ","HOUSE_NO":"３號","E_COORD97":175953.35000000001,"N_COORD97":2539153.2799999998,"ADDRESS":"中正南路一段１０３６巷３號","OBJECTID":369902},"geometry":{"x":175953.34999999963,"y":2539153.2800000031}},{"attributes":{"ID":369913,"DIS_CODE":0,"TOWNNAME":"歸仁區","LI":"文化里","LIN":"12鄰","STREET":"文化北一街","SECT":" ","MAREA":" ","LANE":"４３巷","ALLEY":" ","HOUSE_NO":"６號","E_COORD97":177319.60999999999,"N_COORD97":2541428.3399999999,"ADDRESS":"文化北一街４３巷６號","OBJECTID":369903},"geometry":{"x":177319.61000000127,"y":2541428.3400000036}},{"attributes":{"ID":369914,"DIS_CODE":0,"TOWNNAME":"歸仁區","LI":"文化里","LIN":"12鄰","STREET":"文化北一街","SECT":" ","MAREA":" ","LANE":"２１巷","ALLEY":" ","HOUSE_NO":"２號","E_COORD97":177364.70999999999,"N_COORD97":2541430.3399999999,"ADDRESS":"文化北一街２１巷２號","OBJECTID":369904},"geometry":{"x":177364.71000000089,"y":2541430.3399999999}},{"attributes":{"ID":369915,"DIS_CODE":0,"TOWNNAME":"歸仁區","LI":"西埔里","LIN":"12鄰","STREET":"西埔一街","SECT":" ","MAREA":" ","LANE":"１８５巷","ALLEY":" ","HOUSE_NO":"２６號","E_COORD97":176941.64000000001,"N_COORD97":2544651.25,"ADDRESS":"西埔一街１８５巷２６號","OBJECTID":369905},"geometry":{"x":176941.63999999966,"y":2544651.2500000019}},{"attributes":{"ID":369916,"DIS_CODE":0,"TOWNNAME":"歸仁區","LI":"西埔里","LIN":"12鄰","STREET":"西埔一街","SECT":" ","MAREA":" ","LANE":"１８５巷","ALLEY":" ","HOUSE_NO":"４１號","E_COORD97":176945.84,"N_COORD97":2544669.25,"ADDRESS":"西埔一街１８５巷４１號","OBJECTID":369906},"geometry":{"x":176945.83999999985,"y":2544669.25}},{"attributes":{"ID":369917,"DIS_CODE":0,"TOWNNAME":"歸仁區","LI":"六甲里","LIN":"12鄰","STREET":"中正南路","SECT":"一段","MAREA":" ","LANE":"１０３６巷","ALLEY":" ","HOUSE_NO":"２號","E_COORD97":175952.45000000001,"N_COORD97":2539169.2799999998,"ADDRESS":"中正南路一段１０３６巷２號","OBJECTID":369907},"geometry":{"x":175952.45000000205,"y":2539169.2799999993}},{"attributes":{"ID":369918,"DIS_CODE":0,"TOWNNAME":"歸仁區","LI":"六甲里","LIN":"12鄰","STREET":"中正南路","SECT":"一段","MAREA":" ","LANE":"２１５０巷","ALLEY":" ","HOUSE_NO":"３０號","E_COORD97":175869.54000000001,"N_COORD97":2538656.8300000001,"ADDRESS":"中正南路一段２１５０巷３０號","OBJECTID":369908},"geometry":{"x":175869.54000000004,"y":2538656.8300000001}},{"attributes":{"ID":369919,"DIS_CODE":0,"TOWNNAME":"歸仁區","LI":"六甲里","LIN":"12鄰","STREET":"中正南路","SECT":"一段","MAREA":" ","LANE":"１０３６巷","ALLEY":" ","HOUSE_NO":"１號","E_COORD97":175958.45000000001,"N_COORD97":2539151.2799999998,"ADDRESS":"中正南路一段１０３６巷１號","OBJECTID":369909},"geometry":{"x":175958.45000000019,"y":2539151.2800000012}},{"attributes":{"ID":369920,"DIS_CODE":0,"TOWNNAME":"玉井區","LI":"玉井里","LIN":"12鄰","STREET":"富強街","SECT":" ","MAREA":" ","LANE":"３５巷","ALLEY":" ","HOUSE_NO":"８號","E_COORD97":194845.01000000001,"N_COORD97":2558219.25,"ADDRESS":"富強街３５巷８號","OBJECTID":369910},"geometry":{"x":194845.01000000071,"y":2558219.2500000019}},{"attributes":{"ID":369921,"DIS_CODE":0,"TOWNNAME":"玉井區","LI":"玉井里","LIN":"12鄰","STREET":"富強街","SECT":" ","MAREA":" ","LANE":"３５巷","ALLEY":" ","HOUSE_NO":"２號","E_COORD97":194845.91,"N_COORD97":2558229.25,"ADDRESS":"富強街３５巷２號","OBJECTID":369911},"geometry":{"x":194845.91000000108,"y":2558229.2500000019}},{"attributes":{"ID":369922,"DIS_CODE":0,"TOWNNAME":"玉井區","LI":"玉井里","LIN":"12鄰","STREET":"富強街","SECT":" ","MAREA":" ","LANE":"３５巷","ALLEY":" ","HOUSE_NO":"１０號","E_COORD97":194845.66,"N_COORD97":2558213.25,"ADDRESS":"富強街３５巷１０號","OBJECTID":369912},"geometry":{"x":194845.66000000108,"y":2558213.25}},{"attributes":{"ID":369923,"DIS_CODE":0,"TOWNNAME":"歸仁區","LI":"歸南里","LIN":"12鄰","STREET":"民生南街","SECT":"二段","MAREA":" ","LANE":"２６９巷","ALLEY":" ","HOUSE_NO":"７號","E_COORD97":176113.76000000001,"N_COORD97":2540013.25,"ADDRESS":"民生南街二段２６９巷７號","OBJECTID":369913},"geometry":{"x":176113.75999999978,"y":2540013.2500000019}},{"attributes":{"ID":369924,"DIS_CODE":0,"TOWNNAME":"歸仁區","LI":"媽廟里","LIN":"12鄰","STREET":"保大路","SECT":"一段","MAREA":" ","LANE":"１８７巷","ALLEY":" ","HOUSE_NO":"１２號","E_COORD97":177548.67999999999,"N_COORD97":2543999.7200000002,"ADDRESS":"保大路一段１８７巷１２號","OBJECTID":369914},"geometry":{"x":177548.6799999997,"y":2543999.7200000044}},{"attributes":{"ID":369925,"DIS_CODE":0,"TOWNNAME":"歸仁區","LI":"媽廟里","LIN":"12鄰","STREET":"保大路","SECT":"一段","MAREA":" ","LANE":"１８７巷","ALLEY":" ","HOUSE_NO":"８號","E_COORD97":177551.53,"N_COORD97":2544009.7200000002,"ADDRESS":"保大路一段１８７巷８號","OBJECTID":369915},"geometry":{"x":177551.53000000026,"y":2544009.7199999988}},{"attributes":{"ID":369926,"DIS_CODE":0,"TOWNNAME":"歸仁區","LI":"媽廟里","LIN":"12鄰","STREET":"保大路","SECT":"一段","MAREA":" ","LANE":"１８７巷","ALLEY":" ","HOUSE_NO":"１６號","E_COORD97":177544.57999999999,"N_COORD97":2543990.7200000002,"ADDRESS":"保大路一段１８７巷１６號","OBJECTID":369916},"geometry":{"x":177544.58000000007,"y":2543990.7200000025}},{"attributes":{"ID":369927,"DIS_CODE":0,"TOWNNAME":"歸仁區","LI":"媽廟里","LIN":"12鄰","STREET":"保大路","SECT":"一段","MAREA":" ","LANE":"１８７巷","ALLEY":" ","HOUSE_NO":"１０號","E_COORD97":177550.78,"N_COORD97":2544005.7200000002,"ADDRESS":"保大路一段１８７巷１０號","OBJECTID":369917},"geometry":{"x":177550.78000000119,"y":2544005.7200000007}},{"attributes":{"ID":369928,"DIS_CODE":0,"TOWNNAME":"歸仁區","LI":"媽廟里","LIN":"12鄰","STREET":"保大路","SECT":"一段","MAREA":" ","LANE":"１８７巷","ALLEY":" ","HOUSE_NO":"１４號","E_COORD97":177546.57999999999,"N_COORD97":2543995.7200000002,"ADDRESS":"保大路一段１８７巷１４號","OBJECTID":369918},"geometry":{"x":177546.58000000194,"y":2543995.7200000007}},{"attributes":{"ID":369929,"DIS_CODE":0,"TOWNNAME":"歸仁區","LI":"新厝里","LIN":"12鄰","STREET":"中正南路","SECT":"一段","MAREA":" ","LANE":"７３巷","ALLEY":" ","HOUSE_NO":"９號","E_COORD97":177634.10000000001,"N_COORD97":2540535.5899999999,"ADDRESS":"中正南路一段７３巷９號","OBJECTID":369919},"geometry":{"x":177634.10000000149,"y":2540535.5900000017}},{"attributes":{"ID":369930,"DIS_CODE":0,"TOWNNAME":"歸仁區","LI":"新厝里","LIN":"12鄰","STREET":"中正南路","SECT":"一段","MAREA":" ","LANE":"７３巷","ALLEY":" ","HOUSE_NO":"１５號","E_COORD97":177647.64999999999,"N_COORD97":2540539.5899999999,"ADDRESS":"中正南路一段７３巷１５號","OBJECTID":369920},"geometry":{"x":177647.65000000037,"y":2540539.5900000017}},{"attributes":{"ID":369931,"DIS_CODE":0,"TOWNNAME":"歸仁區","LI":"歸南里","LIN":"12鄰","STREET":"民生南街","SECT":"二段","MAREA":" ","LANE":"２６９巷","ALLEY":" ","HOUSE_NO":"３號","E_COORD97":176106.56,"N_COORD97":2540012.25,"ADDRESS":"民生南街二段２６９巷３號","OBJECTID":369921},"geometry":{"x":176106.55999999959,"y":2540012.2500000019}},{"attributes":{"ID":369932,"DIS_CODE":0,"TOWNNAME":"歸仁區","LI":"歸南里","LIN":"12鄰","STREET":"民生南街","SECT":"二段","MAREA":" ","LANE":"２６９巷","ALLEY":" ","HOUSE_NO":"１５號","E_COORD97":176130.41,"N_COORD97":2540014.25,"ADDRESS":"民生南街二段２６９巷１５號","OBJECTID":369922},"geometry":{"x":176130.41000000015,"y":2540014.25}},{"attributes":{"ID":369933,"DIS_CODE":0,"TOWNNAME":"歸仁區","LI":"歸南里","LIN":"12鄰","STREET":"民生南街","SECT":"二段","MAREA":" ","LANE":"２６９巷","ALLEY":" ","HOUSE_NO":"１號","E_COORD97":176101.45999999999,"N_COORD97":2540011.25,"ADDRESS":"民生南街二段２６９巷１號","OBJECTID":369923},"geometry":{"x":176101.46000000089,"y":2540011.25}},{"attributes":{"ID":369934,"DIS_CODE":0,"TOWNNAME":"歸仁區","LI":"歸南里","LIN":"12鄰","STREET":"民生南街","SECT":"二段","MAREA":" ","LANE":"２６９巷","ALLEY":" ","HOUSE_NO":"３１號","E_COORD97":176168.41,"N_COORD97":2540021.25,"ADDRESS":"民生南街二段２６９巷３１號","OBJECTID":369924},"geometry":{"x":176168.41000000108,"y":2540021.25}},{"attributes":{"ID":369935,"DIS_CODE":0,"TOWNNAME":"六甲區","LI":"龍湖里","LIN":"12鄰","STREET":"珊瑚路","SECT":" ","MAREA":" ","LANE":"１９８巷","ALLEY":" ","HOUSE_NO":"２３號","E_COORD97":184692.26000000001,"N_COORD97":2568212.7999999998,"ADDRESS":"珊瑚路１９８巷２３號","OBJECTID":369925},"geometry":{"x":184692.26000000071,"y":2568212.8000000007}},{"attributes":{"ID":369936,"DIS_CODE":0,"TOWNNAME":"六甲區","LI":"龍湖里","LIN":"12鄰","STREET":"珊瑚路","SECT":" ","MAREA":" ","LANE":"１９８巷","ALLEY":" ","HOUSE_NO":"２４號","E_COORD97":184702.64000000001,"N_COORD97":2568213.8199999998,"ADDRESS":"珊瑚路１９８巷２４號","OBJECTID":369926},"geometry":{"x":184702.63999999966,"y":2568213.8200000022}},{"attributes":{"ID":369937,"DIS_CODE":0,"TOWNNAME":"六甲區","LI":"龍湖里","LIN":"12鄰","STREET":"珊瑚路","SECT":" ","MAREA":" ","LANE":"１９８巷","ALLEY":" ","HOUSE_NO":"２５號","E_COORD97":184709.10999999999,"N_COORD97":2568274.96,"ADDRESS":"珊瑚路１９８巷２５號","OBJECTID":369927},"geometry":{"x":184709.11000000127,"y":2568274.9600000028}},{"attributes":{"ID":369938,"DIS_CODE":0,"TOWNNAME":"六甲區","LI":"龍湖里","LIN":"12鄰","STREET":"珊瑚路","SECT":" ","MAREA":" ","LANE":"１９８巷","ALLEY":" ","HOUSE_NO":"２６號","E_COORD97":184723.98999999999,"N_COORD97":2568216.6299999999,"ADDRESS":"珊瑚路１９８巷２６號","OBJECTID":369928},"geometry":{"x":184723.99000000022,"y":2568216.6300000008}},{"attributes":{"ID":369939,"DIS_CODE":0,"TOWNNAME":"六甲區","LI":"龍湖里","LIN":"12鄰","STREET":"珊瑚路","SECT":" ","MAREA":" ","LANE":"１９８巷","ALLEY":" ","HOUSE_NO":"５號","E_COORD97":184686.20999999999,"N_COORD97":2568250.9500000002,"ADDRESS":"珊瑚路１９８巷５號","OBJECTID":369929},"geometry":{"x":184686.21000000089,"y":2568250.9499999993}},{"attributes":{"ID":369940,"DIS_CODE":0,"TOWNNAME":"六甲區","LI":"龍湖里","LIN":"12鄰","STREET":"珊瑚路","SECT":" ","MAREA":" ","LANE":"１９８巷","ALLEY":" ","HOUSE_NO":"７號","E_COORD97":184680.67000000001,"N_COORD97":2568219.21,"ADDRESS":"珊瑚路１９８巷７號","OBJECTID":369930},"geometry":{"x":184680.66999999993,"y":2568219.2100000009}},{"attributes":{"ID":369941,"DIS_CODE":0,"TOWNNAME":"六甲區","LI":"龍湖里","LIN":"12鄰","STREET":"珊瑚路","SECT":" ","MAREA":" ","LANE":"１９８巷","ALLEY":" ","HOUSE_NO":"８號","E_COORD97":184682.20999999999,"N_COORD97":2568222.1299999999,"ADDRESS":"珊瑚路１９８巷８號","OBJECTID":369931},"geometry":{"x":184682.20999999903,"y":2568222.129999999}},{"attributes":{"ID":369942,"DIS_CODE":0,"TOWNNAME":"六甲區","LI":"龍湖里","LIN":"12鄰","STREET":"珊瑚路","SECT":" ","MAREA":" ","LANE":"１９８巷","ALLEY":" ","HOUSE_NO":"９號","E_COORD97":184683.87,"N_COORD97":2568225.1099999999,"ADDRESS":"珊瑚路１９８巷９號","OBJECTID":369932},"geometry":{"x":184683.87000000104,"y":2568225.1099999994}},{"attributes":{"ID":369943,"DIS_CODE":0,"TOWNNAME":"六甲區","LI":"龍湖里","LIN":"12鄰","STREET":"珊瑚路","SECT":" ","MAREA":" ","LANE":"２１８巷","ALLEY":" ","HOUSE_NO":"４號","E_COORD97":184851.98999999999,"N_COORD97":2568323.8100000001,"ADDRESS":"珊瑚路２１８巷４號","OBJECTID":369933},"geometry":{"x":184851.99000000209,"y":2568323.8100000005}},{"attributes":{"ID":369944,"DIS_CODE":0,"TOWNNAME":"六甲區","LI":"龍湖里","LIN":"12鄰","STREET":"珊瑚路","SECT":" ","MAREA":" ","LANE":"１９８巷","ALLEY":" ","HOUSE_NO":"１０號","E_COORD97":184685.20000000001,"N_COORD97":2568228.1200000001,"ADDRESS":"珊瑚路１９８巷１０號","OBJECTID":369934},"geometry":{"x":184685.20000000019,"y":2568228.120000001}},{"attributes":{"ID":369945,"DIS_CODE":0,"TOWNNAME":"六甲區","LI":"龍湖里","LIN":"12鄰","STREET":"珊瑚路","SECT":" ","MAREA":" ","LANE":"１９８巷","ALLEY":" ","HOUSE_NO":"１１號","E_COORD97":184686.92000000001,"N_COORD97":2568231.1699999999,"ADDRESS":"珊瑚路１９８巷１１號","OBJECTID":369935},"geometry":{"x":184686.91999999993,"y":2568231.1700000018}},{"attributes":{"ID":369946,"DIS_CODE":0,"TOWNNAME":"六甲區","LI":"龍湖里","LIN":"12鄰","STREET":"珊瑚路","SECT":" ","MAREA":" ","LANE":"１９８巷","ALLEY":" ","HOUSE_NO":"１２號","E_COORD97":184689.34,"N_COORD97":2568236.1600000001,"ADDRESS":"珊瑚路１９８巷１２號","OBJECTID":369936},"geometry":{"x":184689.33999999985,"y":2568236.1600000001}},{"attributes":{"ID":369947,"DIS_CODE":0,"TOWNNAME":"六甲區","LI":"龍湖里","LIN":"12鄰","STREET":"珊瑚路","SECT":" ","MAREA":" ","LANE":"１９８巷","ALLEY":" ","HOUSE_NO":"１３號","E_COORD97":184693.42000000001,"N_COORD97":2568243.3799999999,"ADDRESS":"珊瑚路１９８巷１３號","OBJECTID":369937},"geometry":{"x":184693.42000000086,"y":2568243.379999999}},{"attributes":{"ID":369948,"DIS_CODE":0,"TOWNNAME":"六甲區","LI":"龍湖里","LIN":"12鄰","STREET":"珊瑚路","SECT":" ","MAREA":" ","LANE":"１９８巷","ALLEY":" ","HOUSE_NO":"１４號","E_COORD97":184698.01000000001,"N_COORD97":2568233.6000000001,"ADDRESS":"珊瑚路１９８巷１４號","OBJECTID":369938},"geometry":{"x":184698.00999999978,"y":2568233.5999999978}},{"attributes":{"ID":369949,"DIS_CODE":0,"TOWNNAME":"六甲區","LI":"龍湖里","LIN":"12鄰","STREET":"珊瑚路","SECT":" ","MAREA":" ","LANE":"１９８巷","ALLEY":" ","HOUSE_NO":"１５號","E_COORD97":184701.64999999999,"N_COORD97":2568242.0299999998,"ADDRESS":"珊瑚路１９８巷１５號","OBJECTID":369939},"geometry":{"x":184701.64999999944,"y":2568242.0300000012}},{"attributes":{"ID":369950,"DIS_CODE":0,"TOWNNAME":"六甲區","LI":"龍湖里","LIN":"12鄰","STREET":"珊瑚路","SECT":" ","MAREA":" ","LANE":"１９８巷","ALLEY":" ","HOUSE_NO":"１６號","E_COORD97":184695.07999999999,"N_COORD97":2568235.48,"ADDRESS":"珊瑚路１９８巷１６號","OBJECTID":369940},"geometry":{"x":184695.07999999914,"y":2568235.4800000042}},{"attributes":{"ID":369951,"DIS_CODE":0,"TOWNNAME":"六甲區","LI":"龍湖里","LIN":"12鄰","STREET":"珊瑚路","SECT":" ","MAREA":" ","LANE":"１９８巷","ALLEY":" ","HOUSE_NO":"１７號","E_COORD97":184702.23999999999,"N_COORD97":2568248.5899999999,"ADDRESS":"珊瑚路１９８巷１７號","OBJECTID":369941},"geometry":{"x":184702.24000000022,"y":2568248.5900000017}},{"attributes":{"ID":369952,"DIS_CODE":0,"TOWNNAME":"六甲區","LI":"龍湖里","LIN":"12鄰","STREET":"珊瑚路","SECT":" ","MAREA":" ","LANE":"１９８巷","ALLEY":" ","HOUSE_NO":"１８號","E_COORD97":184700.98999999999,"N_COORD97":2568231.8100000001,"ADDRESS":"珊瑚路１９８巷１８號","OBJECTID":369942},"geometry":{"x":184700.99000000209,"y":2568231.8100000005}},{"attributes":{"ID":369953,"DIS_CODE":0,"TOWNNAME":"六甲區","LI":"龍湖里","LIN":"12鄰","STREET":"珊瑚路","SECT":" ","MAREA":" ","LANE":"１９８巷","ALLEY":" ","HOUSE_NO":"１９號","E_COORD97":184698.47,"N_COORD97":2568225.3700000001,"ADDRESS":"珊瑚路１９８巷１９號","OBJECTID":369943},"geometry":{"x":184698.46999999974,"y":2568225.370000001}},{"attributes":{"ID":369954,"DIS_CODE":0,"TOWNNAME":"六甲區","LI":"龍湖里","LIN":"12鄰","STREET":"珊瑚路","SECT":" ","MAREA":" ","LANE":"１９８巷","ALLEY":" ","HOUSE_NO":"１號之１","E_COORD97":184657.56,"N_COORD97":2568368.7200000002,"ADDRESS":"珊瑚路１９８巷１號之１","OBJECTID":369944},"geometry":{"x":184657.56000000145,"y":2568368.7200000007}},{"attributes":{"ID":369955,"DIS_CODE":0,"TOWNNAME":"六甲區","LI":"龍湖里","LIN":"12鄰","STREET":"珊瑚路","SECT":" ","MAREA":" ","LANE":"１９８巷","ALLEY":" ","HOUSE_NO":"２０號","E_COORD97":184696.98000000001,"N_COORD97":2568222.29,"ADDRESS":"珊瑚路１９８巷２０號","OBJECTID":369945},"geometry":{"x":184696.98000000138,"y":2568222.290000001}},{"attributes":{"ID":369956,"DIS_CODE":0,"TOWNNAME":"六甲區","LI":"龍湖里","LIN":"12鄰","STREET":"珊瑚路","SECT":" ","MAREA":" ","LANE":"１９８巷","ALLEY":" ","HOUSE_NO":"２１號","E_COORD97":184695.38,"N_COORD97":2568218.9100000001,"ADDRESS":"珊瑚路１９８巷２１號","OBJECTID":369946},"geometry":{"x":184695.38000000082,"y":2568218.9100000039}},{"attributes":{"ID":369957,"DIS_CODE":0,"TOWNNAME":"六甲區","LI":"龍湖里","LIN":"12鄰","STREET":"珊瑚路","SECT":" ","MAREA":" ","LANE":"１９８巷","ALLEY":" ","HOUSE_NO":"２２號","E_COORD97":184693.84,"N_COORD97":2568216.0099999998,"ADDRESS":"珊瑚路１９８巷２２號","OBJECTID":369947},"geometry":{"x":184693.84000000078,"y":2568216.0099999998}},{"attributes":{"ID":369958,"DIS_CODE":0,"TOWNNAME":"六甲區","LI":"甲東里","LIN":"12鄰","STREET":"裕農街","SECT":" ","MAREA":" ","LANE":"２０２巷","ALLEY":" ","HOUSE_NO":"７號","E_COORD97":184350.41,"N_COORD97":2570087.7799999998,"ADDRESS":"裕農街２０２巷７號","OBJECTID":369948},"geometry":{"x":184350.41000000015,"y":2570087.7800000012}},{"attributes":{"ID":369959,"DIS_CODE":0,"TOWNNAME":"六甲區","LI":"甲東里","LIN":"12鄰","STREET":"裕農街","SECT":" ","MAREA":" ","LANE":"２６１巷","ALLEY":" ","HOUSE_NO":"１１號","E_COORD97":184222.78,"N_COORD97":2569974.1400000001,"ADDRESS":"裕農街２６１巷１１號","OBJECTID":369949},"geometry":{"x":184222.78000000212,"y":2569974.1400000043}},{"attributes":{"ID":369960,"DIS_CODE":0,"TOWNNAME":"六甲區","LI":"甲東里","LIN":"12鄰","STREET":"裕農街","SECT":" ","MAREA":" ","LANE":"２６１巷","ALLEY":" ","HOUSE_NO":"１３號","E_COORD97":184226.12,"N_COORD97":2569967.6899999999,"ADDRESS":"裕農街２６１巷１３號","OBJECTID":369950},"geometry":{"x":184226.12000000104,"y":2569967.6899999995}},{"attributes":{"ID":369961,"DIS_CODE":0,"TOWNNAME":"六甲區","LI":"甲東里","LIN":"12鄰","STREET":"裕農街","SECT":" ","MAREA":" ","LANE":"２６１巷","ALLEY":" ","HOUSE_NO":"１５號","E_COORD97":184224.85999999999,"N_COORD97":2569962.1800000002,"ADDRESS":"裕農街２６１巷１５號","OBJECTID":369951},"geometry":{"x":184224.86000000034,"y":2569962.1799999997}},{"attributes":{"ID":369962,"DIS_CODE":0,"TOWNNAME":"六甲區","LI":"甲東里","LIN":"12鄰","STREET":"裕農街","SECT":" ","MAREA":" ","LANE":"２６１巷","ALLEY":" ","HOUSE_NO":"１７號","E_COORD97":184227.69,"N_COORD97":2569956.8100000001,"ADDRESS":"裕農街２６１巷１７號","OBJECTID":369952},"geometry":{"x":184227.69000000134,"y":2569956.8100000024}},{"attributes":{"ID":369963,"DIS_CODE":0,"TOWNNAME":"六甲區","LI":"甲東里","LIN":"12鄰","STREET":"裕農街","SECT":" ","MAREA":" ","LANE":"２６１巷","ALLEY":" ","HOUSE_NO":"１９號","E_COORD97":184227.94,"N_COORD97":2569950.8399999999,"ADDRESS":"裕農街２６１巷１９號","OBJECTID":369953},"geometry":{"x":184227.94000000041,"y":2569950.8399999999}},{"attributes":{"ID":369964,"DIS_CODE":0,"TOWNNAME":"六甲區","LI":"甲東里","LIN":"12鄰","STREET":"裕農街","SECT":" ","MAREA":" ","LANE":"２６１巷","ALLEY":" ","HOUSE_NO":"１號","E_COORD97":184218.98000000001,"N_COORD97":2570001.8700000001,"ADDRESS":"裕農街２６１巷１號","OBJECTID":369954},"geometry":{"x":184218.98000000138,"y":2570001.870000001}},{"attributes":{"ID":369965,"DIS_CODE":0,"TOWNNAME":"六甲區","LI":"甲東里","LIN":"12鄰","STREET":"裕農街","SECT":" ","MAREA":" ","LANE":"２６１巷","ALLEY":" ","HOUSE_NO":"３號","E_COORD97":184219.66,"N_COORD97":2569995.79,"ADDRESS":"裕農街２６１巷３號","OBJECTID":369955},"geometry":{"x":184219.66000000015,"y":2569995.790000001}},{"attributes":{"ID":369966,"DIS_CODE":0,"TOWNNAME":"六甲區","LI":"甲東里","LIN":"12鄰","STREET":"裕農街","SECT":" ","MAREA":" ","LANE":"２６１巷","ALLEY":" ","HOUSE_NO":"５號","E_COORD97":184219.97,"N_COORD97":2569991.0699999998,"ADDRESS":"裕農街２６１巷５號","OBJECTID":369956},"geometry":{"x":184219.97000000067,"y":2569991.070000004}},{"attributes":{"ID":369967,"DIS_CODE":0,"TOWNNAME":"六甲區","LI":"甲東里","LIN":"12鄰","STREET":"裕農街","SECT":" ","MAREA":" ","LANE":"２６１巷","ALLEY":" ","HOUSE_NO":"７號","E_COORD97":184221.19,"N_COORD97":2569985.23,"ADDRESS":"裕農街２６１巷７號","OBJECTID":369957},"geometry":{"x":184221.19000000041,"y":2569985.2300000004}},{"attributes":{"ID":369968,"DIS_CODE":0,"TOWNNAME":"六甲區","LI":"甲東里","LIN":"12鄰","STREET":"裕農街","SECT":" ","MAREA":" ","LANE":"２６１巷","ALLEY":" ","HOUSE_NO":"９號","E_COORD97":184221.64000000001,"N_COORD97":2569979.9500000002,"ADDRESS":"裕農街２６１巷９號","OBJECTID":369958},"geometry":{"x":184221.6400000006,"y":2569979.9499999993}},{"attributes":{"ID":369969,"DIS_CODE":0,"TOWNNAME":"六甲區","LI":"甲東里","LIN":"12鄰","STREET":"裕農街","SECT":" ","MAREA":" ","LANE":"２６３巷","ALLEY":" ","HOUSE_NO":"１１號","E_COORD97":184199.53,"N_COORD97":2569975.7400000002,"ADDRESS":"裕農街２６３巷１１號","OBJECTID":369959},"geometry":{"x":184199.53000000119,"y":2569975.7400000002}},{"attributes":{"ID":369970,"DIS_CODE":0,"TOWNNAME":"六甲區","LI":"甲東里","LIN":"12鄰","STREET":"裕農街","SECT":" ","MAREA":" ","LANE":"２６３巷","ALLEY":" ","HOUSE_NO":"１３號","E_COORD97":184200.17999999999,"N_COORD97":2569971.6600000001,"ADDRESS":"裕農街２６３巷１３號","OBJECTID":369960},"geometry":{"x":184200.1799999997,"y":2569971.6600000001}},{"attributes":{"ID":369971,"DIS_CODE":0,"TOWNNAME":"六甲區","LI":"甲東里","LIN":"12鄰","STREET":"裕農街","SECT":" ","MAREA":" ","LANE":"２６３巷","ALLEY":" ","HOUSE_NO":"１５號","E_COORD97":184200.64999999999,"N_COORD97":2569968,"ADDRESS":"裕農街２６３巷１５號","OBJECTID":369961},"geometry":{"x":184200.6500000013,"y":2569968.0000000019}},{"attributes":{"ID":369972,"DIS_CODE":0,"TOWNNAME":"六甲區","LI":"甲東里","LIN":"12鄰","STREET":"裕農街","SECT":" ","MAREA":" ","LANE":"２６３巷","ALLEY":" ","HOUSE_NO":"１７號","E_COORD97":184201.37,"N_COORD97":2569963.7000000002,"ADDRESS":"裕農街２６３巷１７號","OBJECTID":369962},"geometry":{"x":184201.37000000011,"y":2569963.6999999993}},{"attributes":{"ID":369973,"DIS_CODE":0,"TOWNNAME":"六甲區","LI":"甲東里","LIN":"12鄰","STREET":"裕農街","SECT":" ","MAREA":" ","LANE":"２６３巷","ALLEY":" ","HOUSE_NO":"１９號","E_COORD97":184201.98999999999,"N_COORD97":2569959.3100000001,"ADDRESS":"裕農街２６３巷１９號","OBJECTID":369963},"geometry":{"x":184201.99000000022,"y":2569959.3100000042}},{"attributes":{"ID":369974,"DIS_CODE":0,"TOWNNAME":"六甲區","LI":"甲東里","LIN":"12鄰","STREET":"裕農街","SECT":" ","MAREA":" ","LANE":"２６３巷","ALLEY":" ","HOUSE_NO":"１號","E_COORD97":184196.64999999999,"N_COORD97":2569996.1299999999,"ADDRESS":"裕農街２６３巷１號","OBJECTID":369964},"geometry":{"x":184196.65000000224,"y":2569996.1300000027}},{"attributes":{"ID":369975,"DIS_CODE":0,"TOWNNAME":"六甲區","LI":"甲東里","LIN":"12鄰","STREET":"裕農街","SECT":" ","MAREA":" ","LANE":"２６３巷","ALLEY":" ","HOUSE_NO":"２１號","E_COORD97":184202.57000000001,"N_COORD97":2569954.6800000002,"ADDRESS":"裕農街２６３巷２１號","OBJECTID":369965},"geometry":{"x":184202.57000000123,"y":2569954.6799999997}},{"attributes":{"ID":369976,"DIS_CODE":0,"TOWNNAME":"六甲區","LI":"甲東里","LIN":"12鄰","STREET":"裕農街","SECT":" ","MAREA":" ","LANE":"２６３巷","ALLEY":" ","HOUSE_NO":"２３號","E_COORD97":184203.09,"N_COORD97":2569950.8500000001,"ADDRESS":"裕農街２６３巷２３號","OBJECTID":369966},"geometry":{"x":184203.08999999985,"y":2569950.8499999978}},{"attributes":{"ID":369977,"DIS_CODE":0,"TOWNNAME":"六甲區","LI":"甲東里","LIN":"12鄰","STREET":"裕農街","SECT":" ","MAREA":" ","LANE":"２６３巷","ALLEY":" ","HOUSE_NO":"２５號","E_COORD97":184204,"N_COORD97":2569946.5499999998,"ADDRESS":"裕農街２６３巷２５號","OBJECTID":369967},"geometry":{"x":184204.00000000186,"y":2569946.5500000007}},{"attributes":{"ID":369978,"DIS_CODE":0,"TOWNNAME":"六甲區","LI":"甲東里","LIN":"12鄰","STREET":"裕農街","SECT":" ","MAREA":" ","LANE":"２６３巷","ALLEY":" ","HOUSE_NO":"３號","E_COORD97":184197.25,"N_COORD97":2569991.27,"ADDRESS":"裕農街２６３巷３號","OBJECTID":369968},"geometry":{"x":184197.25000000186,"y":2569991.2699999996}},{"attributes":{"ID":369979,"DIS_CODE":0,"TOWNNAME":"六甲區","LI":"甲東里","LIN":"12鄰","STREET":"裕農街","SECT":" ","MAREA":" ","LANE":"２６３巷","ALLEY":" ","HOUSE_NO":"５號","E_COORD97":184197.89999999999,"N_COORD97":2569987.4100000001,"ADDRESS":"裕農街２６３巷５號","OBJECTID":369969},"geometry":{"x":184197.90000000037,"y":2569987.4100000001}},{"attributes":{"ID":369980,"DIS_CODE":0,"TOWNNAME":"六甲區","LI":"甲東里","LIN":"12鄰","STREET":"裕農街","SECT":" ","MAREA":" ","LANE":"２６３巷","ALLEY":" ","HOUSE_NO":"７號","E_COORD97":184198.54999999999,"N_COORD97":2569983.4300000002,"ADDRESS":"裕農街２６３巷７號","OBJECTID":369970},"geometry":{"x":184198.55000000075,"y":2569983.4299999997}},{"attributes":{"ID":369981,"DIS_CODE":0,"TOWNNAME":"六甲區","LI":"甲東里","LIN":"12鄰","STREET":"裕農街","SECT":" ","MAREA":" ","LANE":"２６３巷","ALLEY":" ","HOUSE_NO":"９號","E_COORD97":184198.73000000001,"N_COORD97":2569979.52,"ADDRESS":"裕農街２６３巷９號","OBJECTID":369971},"geometry":{"x":184198.73000000045,"y":2569979.5199999996}},{"attributes":{"ID":369982,"DIS_CODE":0,"TOWNNAME":"六甲區","LI":"甲東里","LIN":"12鄰","STREET":"裕農街","SECT":" ","MAREA":" ","LANE":"２６４巷","ALLEY":" ","HOUSE_NO":"１９號","E_COORD97":184160.79999999999,"N_COORD97":2570068.1299999999,"ADDRESS":"裕農街２６４巷１９號","OBJECTID":369972},"geometry":{"x":184160.79999999981,"y":2570068.1300000008}},{"attributes":{"ID":369983,"DIS_CODE":0,"TOWNNAME":"六甲區","LI":"甲東里","LIN":"12鄰","STREET":"裕農街","SECT":" ","MAREA":" ","LANE":"２６４巷","ALLEY":" ","HOUSE_NO":"１號","E_COORD97":184168.5,"N_COORD97":2570030.4100000001,"ADDRESS":"裕農街２６４巷１號","OBJECTID":369973},"geometry":{"x":184168.50000000186,"y":2570030.410000002}},{"attributes":{"ID":369984,"DIS_CODE":0,"TOWNNAME":"六甲區","LI":"甲東里","LIN":"12鄰","STREET":"裕農街","SECT":" ","MAREA":" ","LANE":"２６４巷","ALLEY":" ","HOUSE_NO":"２１號","E_COORD97":184159.98999999999,"N_COORD97":2570073.5600000001,"ADDRESS":"裕農街２６４巷２１號","OBJECTID":369974},"geometry":{"x":184159.99000000022,"y":2570073.5600000024}},{"attributes":{"ID":369985,"DIS_CODE":0,"TOWNNAME":"六甲區","LI":"甲東里","LIN":"12鄰","STREET":"裕農街","SECT":" ","MAREA":" ","LANE":"２６４巷","ALLEY":" ","HOUSE_NO":"２２號","E_COORD97":184186.10000000001,"N_COORD97":2570068.21,"ADDRESS":"裕農街２６４巷２２號","OBJECTID":369975},"geometry":{"x":184186.10000000149,"y":2570068.2100000009}},{"attributes":{"ID":369986,"DIS_CODE":0,"TOWNNAME":"六甲區","LI":"甲東里","LIN":"12鄰","STREET":"裕農街","SECT":" ","MAREA":" ","LANE":"２６４巷","ALLEY":" ","HOUSE_NO":"２３號","E_COORD97":184159.47,"N_COORD97":2570077.7799999998,"ADDRESS":"裕農街２６４巷２３號","OBJECTID":369976},"geometry":{"x":184159.46999999974,"y":2570077.7800000012}},{"attributes":{"ID":369987,"DIS_CODE":0,"TOWNNAME":"六甲區","LI":"甲東里","LIN":"12鄰","STREET":"裕農街","SECT":" ","MAREA":" ","LANE":"２６４巷","ALLEY":" ","HOUSE_NO":"２４號","E_COORD97":184185.32999999999,"N_COORD97":2570072.6299999999,"ADDRESS":"裕農街２６４巷２４號","OBJECTID":369977},"geometry":{"x":184185.33000000101,"y":2570072.629999999}},{"attributes":{"ID":369988,"DIS_CODE":0,"TOWNNAME":"六甲區","LI":"甲東里","LIN":"12鄰","STREET":"裕農街","SECT":" ","MAREA":" ","LANE":"２６４巷","ALLEY":" ","HOUSE_NO":"２５號","E_COORD97":184158.88,"N_COORD97":2570082.4700000002,"ADDRESS":"裕農街２６４巷２５號","OBJECTID":369978},"geometry":{"x":184158.87999999896,"y":2570082.4700000007}},{"attributes":{"ID":369989,"DIS_CODE":0,"TOWNNAME":"六甲區","LI":"甲東里","LIN":"12鄰","STREET":"裕農街","SECT":" ","MAREA":" ","LANE":"２６４巷","ALLEY":" ","HOUSE_NO":"２６號","E_COORD97":184184.81,"N_COORD97":2570077.3199999998,"ADDRESS":"裕農街２６４巷２６號","OBJECTID":369979},"geometry":{"x":184184.81000000052,"y":2570077.320000004}},{"attributes":{"ID":369990,"DIS_CODE":0,"TOWNNAME":"六甲區","LI":"甲東里","LIN":"12鄰","STREET":"裕農街","SECT":" ","MAREA":" ","LANE":"２６４巷","ALLEY":" ","HOUSE_NO":"２７號","E_COORD97":184158.44,"N_COORD97":2570086.8599999999,"ADDRESS":"裕農街２６４巷２７號","OBJECTID":369980},"geometry":{"x":184158.44000000041,"y":2570086.8600000013}},{"attributes":{"ID":369991,"DIS_CODE":0,"TOWNNAME":"六甲區","LI":"甲東里","LIN":"12鄰","STREET":"裕農街","SECT":" ","MAREA":" ","LANE":"２６４巷","ALLEY":" ","HOUSE_NO":"２８號","E_COORD97":184183.92000000001,"N_COORD97":2570081.9500000002,"ADDRESS":"裕農街２６４巷２８號","OBJECTID":369981},"geometry":{"x":184183.91999999993,"y":2570081.9499999993}},{"attributes":{"ID":369992,"DIS_CODE":0,"TOWNNAME":"六甲區","LI":"甲東里","LIN":"12鄰","STREET":"裕農街","SECT":" ","MAREA":" ","LANE":"２６４巷","ALLEY":" ","HOUSE_NO":"３號","E_COORD97":184167.29000000001,"N_COORD97":2570034.71,"ADDRESS":"裕農街２６４巷３號","OBJECTID":369982},"geometry":{"x":184167.29000000097,"y":2570034.7100000046}},{"attributes":{"ID":369993,"DIS_CODE":0,"TOWNNAME":"六甲區","LI":"甲東里","LIN":"12鄰","STREET":"裕農街","SECT":" ","MAREA":" ","LANE":"２６４巷","ALLEY":" ","HOUSE_NO":"５號","E_COORD97":184166.82999999999,"N_COORD97":2570038.98,"ADDRESS":"裕農街２６４巷５號","OBJECTID":369983},"geometry":{"x":184166.83000000101,"y":2570038.9799999986}},{"attributes":{"ID":369994,"DIS_CODE":0,"TOWNNAME":"六甲區","LI":"甲東里","LIN":"12鄰","STREET":"裕農街","SECT":" ","MAREA":" ","LANE":"２６４巷","ALLEY":" ","HOUSE_NO":"６號","E_COORD97":184188.78,"N_COORD97":2570034.79,"ADDRESS":"裕農街２６４巷６號","OBJECTID":369984},"geometry":{"x":184188.78000000212,"y":2570034.7899999991}},{"attributes":{"ID":369995,"DIS_CODE":0,"TOWNNAME":"六甲區","LI":"甲東里","LIN":"12鄰","STREET":"裕農街","SECT":" ","MAREA":" ","LANE":"２８９巷","ALLEY":" ","HOUSE_NO":"５號","E_COORD97":184117.95999999999,"N_COORD97":2569954.1699999999,"ADDRESS":"裕農街２８９巷５號","OBJECTID":369985},"geometry":{"x":184117.96000000089,"y":2569954.1700000018}},{"attributes":{"ID":369996,"DIS_CODE":0,"TOWNNAME":"新營區","LI":"嘉芳里","LIN":"12鄰","STREET":"復興路","SECT":" ","MAREA":" ","LANE":"８０３巷","ALLEY":" ","HOUSE_NO":"３２號","E_COORD97":177118.03,"N_COORD97":2578469.23,"ADDRESS":"復興路８０３巷３２號","OBJECTID":369986},"geometry":{"x":177118.03000000026,"y":2578469.2299999986}},{"attributes":{"ID":369997,"DIS_CODE":0,"TOWNNAME":"新營區","LI":"興業里","LIN":"12鄰","STREET":"中興路","SECT":" ","MAREA":" ","LANE":"１３巷","ALLEY":" ","HOUSE_NO":"１４之４號","E_COORD97":180203.01000000001,"N_COORD97":2577962.7200000002,"ADDRESS":"中興路１３巷１４之４號","OBJECTID":369987},"geometry":{"x":180203.01000000164,"y":2577962.7200000025}},{"attributes":{"ID":369998,"DIS_CODE":0,"TOWNNAME":"歸仁區","LI":"七甲里","LIN":"12鄰","STREET":"丁厝街","SECT":" ","MAREA":" ","LANE":"４３巷","ALLEY":" ","HOUSE_NO":"２號","E_COORD97":175981.48999999999,"N_COORD97":2541959.25,"ADDRESS":"丁厝街４３巷２號","OBJECTID":369988},"geometry":{"x":175981.49000000115,"y":2541959.2500000019}},{"attributes":{"ID":369999,"DIS_CODE":0,"TOWNNAME":"歸仁區","LI":"七甲里","LIN":"12鄰","STREET":"南丁路","SECT":" ","MAREA":" ","LANE":"３５９巷","ALLEY":" ","HOUSE_NO":"１１號","E_COORD97":176042.95999999999,"N_COORD97":2542547.25,"ADDRESS":"南丁路３５９巷１１號","OBJECTID":369989},"geometry":{"x":176042.95999999996,"y":2542547.25}},{"attributes":{"ID":370000,"DIS_CODE":0,"TOWNNAME":"歸仁區","LI":"七甲里","LIN":"12鄰","STREET":"南丁路","SECT":" ","MAREA":" ","LANE":"２７１巷","ALLEY":" ","HOUSE_NO":"１３號","E_COORD97":176042.16,"N_COORD97":2542368.25,"ADDRESS":"南丁路２７１巷１３號","OBJECTID":369990},"geometry":{"x":176042.16000000015,"y":2542368.2500000037}},{"attributes":{"ID":370001,"DIS_CODE":0,"TOWNNAME":"歸仁區","LI":"七甲里","LIN":"12鄰","STREET":"南丁路","SECT":" ","MAREA":" ","LANE":"３５９巷","ALLEY":" ","HOUSE_NO":"２４３號","E_COORD97":175436.39000000001,"N_COORD97":2542534.25,"ADDRESS":"南丁路３５９巷２４３號","OBJECTID":369991},"geometry":{"x":175436.38999999966,"y":2542534.2500000037}},{"attributes":{"ID":370002,"DIS_CODE":0,"TOWNNAME":"歸仁區","LI":"七甲里","LIN":"12鄰","STREET":"南丁路","SECT":" ","MAREA":" ","LANE":"２７１巷","ALLEY":" ","HOUSE_NO":"６１號","E_COORD97":175941.66,"N_COORD97":2542377.25,"ADDRESS":"南丁路２７１巷６１號","OBJECTID":369992},"geometry":{"x":175941.66000000015,"y":2542377.25}},{"attributes":{"ID":370003,"DIS_CODE":0,"TOWNNAME":"仁德區","LI":"一甲里","LIN":"14鄰","STREET":"忠義路","SECT":" ","MAREA":" ","LANE":"２４１巷","ALLEY":" ","HOUSE_NO":"１１號","E_COORD97":173901.29000000001,"N_COORD97":2541797.5099999998,"ADDRESS":"忠義路２４１巷１１號","OBJECTID":369993},"geometry":{"x":173901.29000000004,"y":2541797.5100000016}},{"attributes":{"ID":370004,"DIS_CODE":0,"TOWNNAME":"北區","LI":"六甲里","LIN":"12鄰","STREET":"和緯路","SECT":"二段","MAREA":" ","LANE":"３０巷","ALLEY":" ","HOUSE_NO":"１６號","E_COORD97":169045.32000000001,"N_COORD97":2545745.1600000001,"ADDRESS":"和緯路二段３０巷１６號","OBJECTID":369994},"geometry":{"x":169045.3200000003,"y":2545745.1600000001}},{"attributes":{"ID":370005,"DIS_CODE":0,"TOWNNAME":"北區","LI":"六甲里","LIN":"12鄰","STREET":"和緯路","SECT":"二段","MAREA":" ","LANE":"３０巷","ALLEY":" ","HOUSE_NO":"１８號","E_COORD97":169046.20999999999,"N_COORD97":2545750.0499999998,"ADDRESS":"和緯路二段３０巷１８號","OBJECTID":369995},"geometry":{"x":169046.21000000089,"y":2545750.0500000007}},{"attributes":{"ID":370006,"DIS_CODE":0,"TOWNNAME":"北區","LI":"六甲里","LIN":"12鄰","STREET":"和緯路","SECT":"二段","MAREA":" ","LANE":"３０巷","ALLEY":" ","HOUSE_NO":"２０號","E_COORD97":169047.10000000001,"N_COORD97":2545753.8999999999,"ADDRESS":"和緯路二段３０巷２０號","OBJECTID":369996},"geometry":{"x":169047.10000000056,"y":2545753.9000000004}},{"attributes":{"ID":370007,"DIS_CODE":0,"TOWNNAME":"北區","LI":"六甲里","LIN":"12鄰","STREET":"和緯路","SECT":"二段","MAREA":" ","LANE":"３０巷","ALLEY":" ","HOUSE_NO":"２２號","E_COORD97":169047.54000000001,"N_COORD97":2545759.0800000001,"ADDRESS":"和緯路二段３０巷２２號","OBJECTID":369997},"geometry":{"x":169047.54000000097,"y":2545759.0800000001}},{"attributes":{"ID":370008,"DIS_CODE":0,"TOWNNAME":"北區","LI":"六甲里","LIN":"12鄰","STREET":"和緯路","SECT":"二段","MAREA":" ","LANE":"３０巷","ALLEY":" ","HOUSE_NO":"２６號","E_COORD97":169047.98000000001,"N_COORD97":2545762.9300000002,"ADDRESS":"和緯路二段３０巷２６號","OBJECTID":369998},"geometry":{"x":169047.98000000231,"y":2545762.9299999997}},{"attributes":{"ID":370009,"DIS_CODE":0,"TOWNNAME":"北區","LI":"六甲里","LIN":"12鄰","STREET":"和緯路","SECT":"二段","MAREA":" ","LANE":"３０巷","ALLEY":" ","HOUSE_NO":"３２號","E_COORD97":169051.84,"N_COORD97":2545780.3300000001,"ADDRESS":"和緯路二段３０巷３２號","OBJECTID":369999},"geometry":{"x":169051.84000000078,"y":2545780.3300000001}},{"attributes":{"ID":370010,"DIS_CODE":0,"TOWNNAME":"北區","LI":"六甲里","LIN":"12鄰","STREET":"和緯路","SECT":"二段","MAREA":" ","LANE":"３０巷","ALLEY":" ","HOUSE_NO":"３６號","E_COORD97":169052.29000000001,"N_COORD97":2545785.52,"ADDRESS":"和緯路二段３０巷３６號","OBJECTID":370000},"geometry":{"x":169052.2900000019,"y":2545785.5199999996}}]}