{"displayFieldName":"TOWNNAME","fieldAliases":{"ID":"ID","DIS_CODE":"DIS_CODE","TOWNNAME":"TOWNNAME","LI":"LI","LIN":"LIN","STREET":"STREET","SECT":"SECT","MAREA":"MAREA","LANE":"LANE","ALLEY":"ALLEY","HOUSE_NO":"HOUSE_NO","E_COORD97":"E_COORD97","N_COORD97":"N_COORD97","ADDRESS":"ADDRESS","OBJECTID":"OBJECTID"},"geometryType":"esriGeometryPoint","spatialReference":{"wkid":102443,"latestWkid":3826},"fields":[{"name":"ID","type":"esriFieldTypeDouble","alias":"ID"},{"name":"DIS_CODE","type":"esriFieldTypeInteger","alias":"DIS_CODE"},{"name":"TOWNNAME","type":"esriFieldTypeString","alias":"TOWNNAME","length":8},{"name":"LI","type":"esriFieldTypeString","alias":"LI","length":8},{"name":"LIN","type":"esriFieldTypeString","alias":"LIN","length":12},{"name":"STREET","type":"esriFieldTypeString","alias":"STREET","length":20},{"name":"SECT","type":"esriFieldTypeString","alias":"SECT","length":8},{"name":"MAREA","type":"esriFieldTypeString","alias":"MAREA","length":12},{"name":"LANE","type":"esriFieldTypeString","alias":"LANE","length":10},{"name":"ALLEY","type":"esriFieldTypeString","alias":"ALLEY","length":10},{"name":"HOUSE_NO","type":"esriFieldTypeString","alias":"HOUSE_NO","length":20},{"name":"E_COORD97","type":"esriFieldTypeDouble","alias":"E_COORD97"},{"name":"N_COORD97","type":"esriFieldTypeDouble","alias":"N_COORD97"},{"name":"ADDRESS","type":"esriFieldTypeString","alias":"ADDRESS","length":50},{"name":"OBJECTID","type":"esriFieldTypeOID","alias":"OBJECTID"}],"features":[{"attributes":{"ID":288007,"DIS_CODE":0,"TOWNNAME":"仁德區","LI":"仁德里","LIN":"10鄰","STREET":"中正路","SECT":"二段","MAREA":" ","LANE":"１２１５巷","ALLEY":" ","HOUSE_NO":"１號","E_COORD97":173257.78,"N_COORD97":2541198.27,"ADDRESS":"中正路二段１２１５巷１號","OBJECTID":288001},"geometry":{"x":173257.78000000026,"y":2541198.2700000014}},{"attributes":{"ID":288008,"DIS_CODE":0,"TOWNNAME":"仁德區","LI":"成功里","LIN":"10鄰","STREET":"成功二街","SECT":" ","MAREA":" ","LANE":"７巷","ALLEY":" ","HOUSE_NO":"２號","E_COORD97":170921.12,"N_COORD97":2539981.7599999998,"ADDRESS":"成功二街７巷２號","OBJECTID":288002},"geometry":{"x":170921.12000000011,"y":2539981.7600000016}},{"attributes":{"ID":288009,"DIS_CODE":0,"TOWNNAME":"仁德區","LI":"太子里","LIN":"10鄰","STREET":"長興路","SECT":" ","MAREA":" ","LANE":"１２巷","ALLEY":" ","HOUSE_NO":"５號","E_COORD97":174154.01000000001,"N_COORD97":2543571.75,"ADDRESS":"長興路１２巷５號","OBJECTID":288003},"geometry":{"x":174154.00999999978,"y":2543571.7500000037}},{"attributes":{"ID":288010,"DIS_CODE":0,"TOWNNAME":"仁德區","LI":"太子里","LIN":"10鄰","STREET":"長興路","SECT":" ","MAREA":" ","LANE":"２０巷","ALLEY":" ","HOUSE_NO":"１號","E_COORD97":174155.17999999999,"N_COORD97":2543586.75,"ADDRESS":"長興路２０巷１號","OBJECTID":288004},"geometry":{"x":174155.18000000156,"y":2543586.7500000019}},{"attributes":{"ID":288011,"DIS_CODE":0,"TOWNNAME":"仁德區","LI":"後壁里","LIN":"10鄰","STREET":"民安路","SECT":"二段","MAREA":" ","LANE":"１８２巷","ALLEY":" ","HOUSE_NO":"３１號","E_COORD97":173753.29000000001,"N_COORD97":2538863.0699999998,"ADDRESS":"民安路二段１８２巷３１號","OBJECTID":288005},"geometry":{"x":173753.29000000097,"y":2538863.0700000003}},{"attributes":{"ID":288012,"DIS_CODE":0,"TOWNNAME":"仁德區","LI":"後壁里","LIN":"10鄰","STREET":"民安路","SECT":"二段","MAREA":" ","LANE":"１８２巷","ALLEY":" ","HOUSE_NO":"４６號","E_COORD97":173710.57999999999,"N_COORD97":2538828.0600000001,"ADDRESS":"民安路二段１８２巷４６號","OBJECTID":288006},"geometry":{"x":173710.58000000101,"y":2538828.0600000024}},{"attributes":{"ID":288013,"DIS_CODE":0,"TOWNNAME":"仁德區","LI":"後壁里","LIN":"10鄰","STREET":"民安路","SECT":"二段","MAREA":" ","LANE":"１８２巷","ALLEY":" ","HOUSE_NO":"２７號","E_COORD97":173758.10000000001,"N_COORD97":2538870.8199999998,"ADDRESS":"民安路二段１８２巷２７號","OBJECTID":288007},"geometry":{"x":173758.09999999963,"y":2538870.8200000003}},{"attributes":{"ID":288014,"DIS_CODE":0,"TOWNNAME":"仁德區","LI":"後壁里","LIN":"10鄰","STREET":"民安路","SECT":"二段","MAREA":" ","LANE":"１８２巷","ALLEY":" ","HOUSE_NO":"２６號","E_COORD97":173742.62,"N_COORD97":2538877.3199999998,"ADDRESS":"民安路二段１８２巷２６號","OBJECTID":288008},"geometry":{"x":173742.62000000104,"y":2538877.3200000022}},{"attributes":{"ID":288015,"DIS_CODE":0,"TOWNNAME":"仁德區","LI":"後壁里","LIN":"10鄰","STREET":"民安路","SECT":"二段","MAREA":" ","LANE":"１８２巷","ALLEY":" ","HOUSE_NO":"２０之１號","E_COORD97":173753.37,"N_COORD97":2538885.5699999998,"ADDRESS":"民安路二段１８２巷２０之１號","OBJECTID":288009},"geometry":{"x":173753.37000000011,"y":2538885.5700000022}},{"attributes":{"ID":288016,"DIS_CODE":0,"TOWNNAME":"仁德區","LI":"後壁里","LIN":"10鄰","STREET":"民安路","SECT":"二段","MAREA":" ","LANE":"１８２巷","ALLEY":" ","HOUSE_NO":"４７號","E_COORD97":173739.01999999999,"N_COORD97":2538831.8100000001,"ADDRESS":"民安路二段１８２巷４７號","OBJECTID":288010},"geometry":{"x":173739.02000000142,"y":2538831.8099999987}},{"attributes":{"ID":288017,"DIS_CODE":0,"TOWNNAME":"安南區","LI":"理想里","LIN":"10鄰","STREET":"海佃路","SECT":"二段","MAREA":" ","LANE":"１５０巷","ALLEY":" ","HOUSE_NO":"１２號","E_COORD97":167040.26000000001,"N_COORD97":2548135.98,"ADDRESS":"海佃路二段１５０巷１２號","OBJECTID":288011},"geometry":{"x":167040.26000000071,"y":2548135.9800000004}},{"attributes":{"ID":288018,"DIS_CODE":0,"TOWNNAME":"安南區","LI":"理想里","LIN":"10鄰","STREET":"海佃路","SECT":"二段","MAREA":" ","LANE":"１５０巷","ALLEY":" ","HOUSE_NO":"１４號","E_COORD97":167042.19,"N_COORD97":2548139.21,"ADDRESS":"海佃路二段１５０巷１４號","OBJECTID":288012},"geometry":{"x":167042.19000000041,"y":2548139.2100000009}},{"attributes":{"ID":288019,"DIS_CODE":0,"TOWNNAME":"安南區","LI":"理想里","LIN":"10鄰","STREET":"海佃路","SECT":"二段","MAREA":" ","LANE":"１５０巷","ALLEY":" ","HOUSE_NO":"１６號","E_COORD97":167044.78,"N_COORD97":2548144.1499999999,"ADDRESS":"海佃路二段１５０巷１６號","OBJECTID":288013},"geometry":{"x":167044.78000000026,"y":2548144.1500000022}},{"attributes":{"ID":288020,"DIS_CODE":0,"TOWNNAME":"東區","LI":"東聖里","LIN":"2鄰","STREET":"中華東路","SECT":"二段","MAREA":" ","LANE":"７巷","ALLEY":" ","HOUSE_NO":"７號","E_COORD97":171477.60999999999,"N_COORD97":2543161.48,"ADDRESS":"中華東路二段７巷７號","OBJECTID":288014},"geometry":{"x":171477.61000000034,"y":2543161.4800000023}},{"attributes":{"ID":288021,"DIS_CODE":0,"TOWNNAME":"東區","LI":"路東里","LIN":"1鄰","STREET":"大同路","SECT":"二段","MAREA":" ","LANE":" ","ALLEY":" ","HOUSE_NO":"６７號","E_COORD97":169326.48999999999,"N_COORD97":2542214.1899999999,"ADDRESS":"大同路二段６７號","OBJECTID":288015},"geometry":{"x":169326.49000000115,"y":2542214.1899999995}},{"attributes":{"ID":288022,"DIS_CODE":0,"TOWNNAME":"東區","LI":"路東里","LIN":"1鄰","STREET":"大同路","SECT":"二段","MAREA":" ","LANE":" ","ALLEY":" ","HOUSE_NO":"６９號","E_COORD97":169331.22,"N_COORD97":2542205.9199999999,"ADDRESS":"大同路二段６９號","OBJECTID":288016},"geometry":{"x":169331.21999999974,"y":2542205.9199999999}},{"attributes":{"ID":288023,"DIS_CODE":0,"TOWNNAME":"歸仁區","LI":"看西里","LIN":"1鄰","STREET":"仁愛三街","SECT":" ","MAREA":" ","LANE":" ","ALLEY":" ","HOUSE_NO":"２３號","E_COORD97":178353.64000000001,"N_COORD97":2540469.2200000002,"ADDRESS":"仁愛三街２３號","OBJECTID":288017},"geometry":{"x":178353.63999999966,"y":2540469.2200000007}},{"attributes":{"ID":288024,"DIS_CODE":0,"TOWNNAME":"學甲區","LI":"仁得里","LIN":"1鄰","STREET":"公園街","SECT":" ","MAREA":" ","LANE":" ","ALLEY":" ","HOUSE_NO":"２１號","E_COORD97":166289.64000000001,"N_COORD97":2569719.8100000001,"ADDRESS":"公園街２１號","OBJECTID":288018},"geometry":{"x":166289.64000000153,"y":2569719.8100000024}},{"attributes":{"ID":288025,"DIS_CODE":0,"TOWNNAME":"學甲區","LI":"仁得里","LIN":"1鄰","STREET":"公園街","SECT":" ","MAREA":" ","LANE":" ","ALLEY":" ","HOUSE_NO":"２３號","E_COORD97":166289.69,"N_COORD97":2569723.9900000002,"ADDRESS":"公園街２３號","OBJECTID":288019},"geometry":{"x":166289.69000000041,"y":2569723.9900000021}},{"attributes":{"ID":288026,"DIS_CODE":0,"TOWNNAME":"學甲區","LI":"仁得里","LIN":"1鄰","STREET":"公園街","SECT":" ","MAREA":" ","LANE":" ","ALLEY":" ","HOUSE_NO":"２８號","E_COORD97":166312.14999999999,"N_COORD97":2569729.9399999999,"ADDRESS":"公園街２８號","OBJECTID":288020},"geometry":{"x":166312.15000000037,"y":2569729.9400000032}},{"attributes":{"ID":288027,"DIS_CODE":0,"TOWNNAME":"學甲區","LI":"仁得里","LIN":"1鄰","STREET":"公園街","SECT":" ","MAREA":" ","LANE":" ","ALLEY":" ","HOUSE_NO":"２號","E_COORD97":166323.17999999999,"N_COORD97":2569642.3799999999,"ADDRESS":"公園街２號","OBJECTID":288021},"geometry":{"x":166323.1799999997,"y":2569642.3800000008}},{"attributes":{"ID":288028,"DIS_CODE":0,"TOWNNAME":"學甲區","LI":"仁得里","LIN":"1鄰","STREET":"公園街","SECT":" ","MAREA":" ","LANE":" ","ALLEY":" ","HOUSE_NO":"３０號","E_COORD97":166311.69,"N_COORD97":2569734.3799999999,"ADDRESS":"公園街３０號","OBJECTID":288022},"geometry":{"x":166311.69000000041,"y":2569734.3800000008}},{"attributes":{"ID":288029,"DIS_CODE":0,"TOWNNAME":"學甲區","LI":"仁得里","LIN":"1鄰","STREET":"公園街","SECT":" ","MAREA":" ","LANE":" ","ALLEY":" ","HOUSE_NO":"３２號","E_COORD97":166311.23000000001,"N_COORD97":2569738.1200000001,"ADDRESS":"公園街３２號","OBJECTID":288023},"geometry":{"x":166311.23000000045,"y":2569738.1200000029}},{"attributes":{"ID":288030,"DIS_CODE":0,"TOWNNAME":"學甲區","LI":"仁得里","LIN":"1鄰","STREET":"公園街","SECT":" ","MAREA":" ","LANE":" ","ALLEY":" ","HOUSE_NO":"３３號","E_COORD97":166287.70999999999,"N_COORD97":2569771.6200000001,"ADDRESS":"公園街３３號","OBJECTID":288024},"geometry":{"x":166287.70999999903,"y":2569771.6200000029}},{"attributes":{"ID":288031,"DIS_CODE":0,"TOWNNAME":"學甲區","LI":"仁得里","LIN":"1鄰","STREET":"公園街","SECT":" ","MAREA":" ","LANE":" ","ALLEY":" ","HOUSE_NO":"３４號","E_COORD97":166310.78,"N_COORD97":2569742.5899999999,"ADDRESS":"公園街３４號","OBJECTID":288025},"geometry":{"x":166310.78000000026,"y":2569742.5899999999}},{"attributes":{"ID":288032,"DIS_CODE":0,"TOWNNAME":"學甲區","LI":"仁得里","LIN":"1鄰","STREET":"公園街","SECT":" ","MAREA":" ","LANE":" ","ALLEY":" ","HOUSE_NO":"３５號","E_COORD97":166285.47,"N_COORD97":2569787.3500000001,"ADDRESS":"公園街３５號","OBJECTID":288026},"geometry":{"x":166285.46999999974,"y":2569787.3499999996}},{"attributes":{"ID":288033,"DIS_CODE":0,"TOWNNAME":"學甲區","LI":"仁得里","LIN":"1鄰","STREET":"公園街","SECT":" ","MAREA":" ","LANE":" ","ALLEY":" ","HOUSE_NO":"３７號","E_COORD97":166279.62,"N_COORD97":2569797.29,"ADDRESS":"公園街３７號","OBJECTID":288027},"geometry":{"x":166279.62000000011,"y":2569797.2899999991}},{"attributes":{"ID":288034,"DIS_CODE":0,"TOWNNAME":"安南區","LI":"理想里","LIN":"10鄰","STREET":"海佃路","SECT":"二段","MAREA":" ","LANE":"１５０巷","ALLEY":" ","HOUSE_NO":"１８號","E_COORD97":167046.07000000001,"N_COORD97":2548149.3100000001,"ADDRESS":"海佃路二段１５０巷１８號","OBJECTID":288028},"geometry":{"x":167046.0700000003,"y":2548149.3100000024}},{"attributes":{"ID":288035,"DIS_CODE":0,"TOWNNAME":"安南區","LI":"淵西里","LIN":"10鄰","STREET":"安中路","SECT":"四段","MAREA":" ","LANE":"３２０巷","ALLEY":" ","HOUSE_NO":"５５號之１","E_COORD97":164519.59,"N_COORD97":2550358.0499999998,"ADDRESS":"安中路四段３２０巷５５號之１","OBJECTID":288029},"geometry":{"x":164519.58999999985,"y":2550358.0500000045}},{"attributes":{"ID":288036,"DIS_CODE":0,"TOWNNAME":"永康區","LI":"大灣里","LIN":"10鄰","STREET":"大灣六街","SECT":" ","MAREA":" ","LANE":"１５０巷","ALLEY":" ","HOUSE_NO":"８號","E_COORD97":174951.64000000001,"N_COORD97":2545440.2999999998,"ADDRESS":"大灣六街１５０巷８號","OBJECTID":288030},"geometry":{"x":174951.63999999966,"y":2545440.3000000045}},{"attributes":{"ID":288037,"DIS_CODE":0,"TOWNNAME":"永康區","LI":"王行里","LIN":"10鄰","STREET":"王行路","SECT":" ","MAREA":" ","LANE":"１０１６巷","ALLEY":" ","HOUSE_NO":"７號","E_COORD97":175881.29000000001,"N_COORD97":2550118.0699999998,"ADDRESS":"王行路１０１６巷７號","OBJECTID":288031},"geometry":{"x":175881.29000000004,"y":2550118.0700000022}},{"attributes":{"ID":288038,"DIS_CODE":0,"TOWNNAME":"永康區","LI":"大灣里","LIN":"10鄰","STREET":"大灣六街","SECT":" ","MAREA":" ","LANE":"１５０巷","ALLEY":" ","HOUSE_NO":"５號","E_COORD97":174929.76999999999,"N_COORD97":2545435.9199999999,"ADDRESS":"大灣六街１５０巷５號","OBJECTID":288032},"geometry":{"x":174929.77000000048,"y":2545435.9200000018}},{"attributes":{"ID":288039,"DIS_CODE":0,"TOWNNAME":"永康區","LI":"大橋里","LIN":"10鄰","STREET":"大橋三街","SECT":" ","MAREA":" ","LANE":"２６６巷","ALLEY":" ","HOUSE_NO":"１１０號","E_COORD97":170917.20000000001,"N_COORD97":2546746,"ADDRESS":"大橋三街２６６巷１１０號","OBJECTID":288033},"geometry":{"x":170917.20000000019,"y":2546746}},{"attributes":{"ID":288040,"DIS_CODE":0,"TOWNNAME":"永康區","LI":"大橋里","LIN":"10鄰","STREET":"大橋一街","SECT":" ","MAREA":" ","LANE":"１０３巷","ALLEY":" ","HOUSE_NO":"１８２號","E_COORD97":170842.54999999999,"N_COORD97":2546732,"ADDRESS":"大橋一街１０３巷１８２號","OBJECTID":288034},"geometry":{"x":170842.55000000075,"y":2546732}},{"attributes":{"ID":288041,"DIS_CODE":0,"TOWNNAME":"永康區","LI":"大橋里","LIN":"10鄰","STREET":"大橋三街","SECT":" ","MAREA":" ","LANE":"２６６巷","ALLEY":" ","HOUSE_NO":"１０６號","E_COORD97":170922.35000000001,"N_COORD97":2546753.5,"ADDRESS":"大橋三街２６６巷１０６號","OBJECTID":288035},"geometry":{"x":170922.34999999963,"y":2546753.5000000037}},{"attributes":{"ID":288042,"DIS_CODE":0,"TOWNNAME":"永康區","LI":"大橋里","LIN":"10鄰","STREET":"大橋一街","SECT":" ","MAREA":" ","LANE":"１０３巷","ALLEY":" ","HOUSE_NO":"１７６號","E_COORD97":170849.20999999999,"N_COORD97":2546720.75,"ADDRESS":"大橋一街１０３巷１７６號","OBJECTID":288036},"geometry":{"x":170849.20999999996,"y":2546720.75}},{"attributes":{"ID":288043,"DIS_CODE":0,"TOWNNAME":"永康區","LI":"王行里","LIN":"10鄰","STREET":"王行路","SECT":" ","MAREA":" ","LANE":"１０１８巷","ALLEY":" ","HOUSE_NO":"４２號","E_COORD97":175811.07000000001,"N_COORD97":2550214.7400000002,"ADDRESS":"王行路１０１８巷４２號","OBJECTID":288037},"geometry":{"x":175811.07000000216,"y":2550214.7400000021}},{"attributes":{"ID":288044,"DIS_CODE":0,"TOWNNAME":"永康區","LI":"大灣里","LIN":"10鄰","STREET":"大灣六街","SECT":" ","MAREA":" ","LANE":"１５０巷","ALLEY":" ","HOUSE_NO":"１７號","E_COORD97":174932.57000000001,"N_COORD97":2545468.0899999999,"ADDRESS":"大灣六街１５０巷１７號","OBJECTID":288038},"geometry":{"x":174932.5700000003,"y":2545468.0900000017}},{"attributes":{"ID":288045,"DIS_CODE":0,"TOWNNAME":"永康區","LI":"大灣里","LIN":"10鄰","STREET":"大灣六街","SECT":" ","MAREA":" ","LANE":"１５０巷","ALLEY":" ","HOUSE_NO":"１號","E_COORD97":174927.62,"N_COORD97":2545428.1699999999,"ADDRESS":"大灣六街１５０巷１號","OBJECTID":288039},"geometry":{"x":174927.62000000104,"y":2545428.1700000018}},{"attributes":{"ID":288046,"DIS_CODE":0,"TOWNNAME":"永康區","LI":"大橋里","LIN":"10鄰","STREET":"大橋三街","SECT":" ","MAREA":" ","LANE":"２６６巷","ALLEY":" ","HOUSE_NO":"１２０號","E_COORD97":170899.23999999999,"N_COORD97":2546734.75,"ADDRESS":"大橋三街２６６巷１２０號","OBJECTID":288040},"geometry":{"x":170899.24000000115,"y":2546734.7500000037}},{"attributes":{"ID":288047,"DIS_CODE":0,"TOWNNAME":"新市區","LI":"新和里","LIN":"29鄰","STREET":"光華街","SECT":" ","MAREA":" ","LANE":" ","ALLEY":" ","HOUSE_NO":"８７號","E_COORD97":177866.17999999999,"N_COORD97":2552831,"ADDRESS":"光華街８７號","OBJECTID":288041},"geometry":{"x":177866.18000000063,"y":2552831}},{"attributes":{"ID":288048,"DIS_CODE":0,"TOWNNAME":"新市區","LI":"大社里","LIN":"2鄰","STREET":" ","SECT":" ","MAREA":"大社","LANE":" ","ALLEY":" ","HOUSE_NO":"８６之１號","E_COORD97":180419.13,"N_COORD97":2554336.0499999998,"ADDRESS":"大社８６之１號","OBJECTID":288042},"geometry":{"x":180419.12999999989,"y":2554336.0500000026}},{"attributes":{"ID":288049,"DIS_CODE":0,"TOWNNAME":"新市區","LI":"大營里","LIN":"2鄰","STREET":" ","SECT":" ","MAREA":"大營","LANE":" ","ALLEY":" ","HOUSE_NO":"２５之２號","E_COORD97":179653.89999999999,"N_COORD97":2555619.5499999998,"ADDRESS":"大營２５之２號","OBJECTID":288043},"geometry":{"x":179653.9000000013,"y":2555619.5499999989}},{"attributes":{"ID":288050,"DIS_CODE":0,"TOWNNAME":"新市區","LI":"潭頂里","LIN":"2鄰","STREET":" ","SECT":" ","MAREA":"潭頂","LANE":" ","ALLEY":" ","HOUSE_NO":"９０之７６號","E_COORD97":181674.14999999999,"N_COORD97":2553507.2999999998,"ADDRESS":"潭頂９０之７６號","OBJECTID":288044},"geometry":{"x":181674.15000000224,"y":2553507.3000000026}},{"attributes":{"ID":288051,"DIS_CODE":0,"TOWNNAME":"新市區","LI":"潭頂里","LIN":"2鄰","STREET":" ","SECT":" ","MAREA":"潭頂","LANE":" ","ALLEY":" ","HOUSE_NO":"１５６號","E_COORD97":180946.53,"N_COORD97":2553045.75,"ADDRESS":"潭頂１５６號","OBJECTID":288045},"geometry":{"x":180946.53000000119,"y":2553045.7500000019}},{"attributes":{"ID":288052,"DIS_CODE":0,"TOWNNAME":"新市區","LI":"潭頂里","LIN":"2鄰","STREET":" ","SECT":" ","MAREA":"潭頂","LANE":" ","ALLEY":" ","HOUSE_NO":"１４９之２號","E_COORD97":181111.78,"N_COORD97":2552981.29,"ADDRESS":"潭頂１４９之２號","OBJECTID":288046},"geometry":{"x":181111.78000000026,"y":2552981.2899999991}},{"attributes":{"ID":288053,"DIS_CODE":0,"TOWNNAME":"新市區","LI":"潭頂里","LIN":"2鄰","STREET":" ","SECT":" ","MAREA":"潭頂","LANE":" ","ALLEY":" ","HOUSE_NO":"１５５之５號","E_COORD97":180979.09,"N_COORD97":2553050.7999999998,"ADDRESS":"潭頂１５５之５號","OBJECTID":288047},"geometry":{"x":180979.09000000171,"y":2553050.8000000007}},{"attributes":{"ID":288054,"DIS_CODE":0,"TOWNNAME":"新市區","LI":"潭頂里","LIN":"2鄰","STREET":" ","SECT":" ","MAREA":"潭頂","LANE":" ","ALLEY":" ","HOUSE_NO":"１５２之６號","E_COORD97":180957.59,"N_COORD97":2553008.2999999998,"ADDRESS":"潭頂１５２之６號","OBJECTID":288048},"geometry":{"x":180957.59000000078,"y":2553008.3000000026}},{"attributes":{"ID":288055,"DIS_CODE":0,"TOWNNAME":"新市區","LI":"潭頂里","LIN":"2鄰","STREET":" ","SECT":" ","MAREA":"潭頂","LANE":" ","ALLEY":" ","HOUSE_NO":"１４８之９之１號","E_COORD97":181076.70000000001,"N_COORD97":2552921.7999999998,"ADDRESS":"潭頂１４８之９之１號","OBJECTID":288049},"geometry":{"x":181076.70000000019,"y":2552921.8000000007}},{"attributes":{"ID":288056,"DIS_CODE":0,"TOWNNAME":"新市區","LI":"大營里","LIN":"2鄰","STREET":" ","SECT":" ","MAREA":"大營","LANE":" ","ALLEY":" ","HOUSE_NO":"３３號","E_COORD97":179579.84,"N_COORD97":2555645.5,"ADDRESS":"大營３３號","OBJECTID":288050},"geometry":{"x":179579.83999999985,"y":2555645.5}},{"attributes":{"ID":288057,"DIS_CODE":0,"TOWNNAME":"新市區","LI":"潭頂里","LIN":"2鄰","STREET":" ","SECT":" ","MAREA":"潭頂","LANE":" ","ALLEY":" ","HOUSE_NO":"１４８之１０號","E_COORD97":181068.26000000001,"N_COORD97":2552916.5499999998,"ADDRESS":"潭頂１４８之１０號","OBJECTID":288051},"geometry":{"x":181068.26000000071,"y":2552916.5500000007}},{"attributes":{"ID":288058,"DIS_CODE":0,"TOWNNAME":"新市區","LI":"潭頂里","LIN":"2鄰","STREET":" ","SECT":" ","MAREA":"潭頂","LANE":" ","ALLEY":" ","HOUSE_NO":"１３０號","E_COORD97":181305.56,"N_COORD97":2553125.5,"ADDRESS":"潭頂１３０號","OBJECTID":288052},"geometry":{"x":181305.55999999959,"y":2553125.5000000019}},{"attributes":{"ID":288059,"DIS_CODE":0,"TOWNNAME":"新市區","LI":"潭頂里","LIN":"2鄰","STREET":" ","SECT":" ","MAREA":"潭頂","LANE":" ","ALLEY":" ","HOUSE_NO":"１６０號","E_COORD97":180934.01000000001,"N_COORD97":2552963.75,"ADDRESS":"潭頂１６０號","OBJECTID":288053},"geometry":{"x":180934.01000000071,"y":2552963.7500000019}},{"attributes":{"ID":288060,"DIS_CODE":0,"TOWNNAME":"新市區","LI":"豐華里","LIN":"2鄰","STREET":" ","SECT":" ","MAREA":"豐華","LANE":" ","ALLEY":" ","HOUSE_NO":"１０之１號","E_COORD97":173798.17000000001,"N_COORD97":2554050.0499999998,"ADDRESS":"豐華１０之１號","OBJECTID":288054},"geometry":{"x":173798.17000000086,"y":2554050.0500000045}},{"attributes":{"ID":288061,"DIS_CODE":0,"TOWNNAME":"北區","LI":"和順里","LIN":"10鄰","STREET":"民德路","SECT":" ","MAREA":" ","LANE":"１１５巷","ALLEY":" ","HOUSE_NO":"８號","E_COORD97":168098.53,"N_COORD97":2545194.1000000001,"ADDRESS":"民德路１１５巷８號","OBJECTID":288055},"geometry":{"x":168098.53000000119,"y":2545194.1000000015}},{"attributes":{"ID":288062,"DIS_CODE":0,"TOWNNAME":"新市區","LI":"潭頂里","LIN":"2鄰","STREET":" ","SECT":" ","MAREA":"潭頂","LANE":" ","ALLEY":" ","HOUSE_NO":"９０之６８號","E_COORD97":181717.48000000001,"N_COORD97":2553507.5499999998,"ADDRESS":"潭頂９０之６８號","OBJECTID":288056},"geometry":{"x":181717.48000000045,"y":2553507.5500000045}},{"attributes":{"ID":288063,"DIS_CODE":0,"TOWNNAME":"新市區","LI":"潭頂里","LIN":"2鄰","STREET":" ","SECT":" ","MAREA":"潭頂","LANE":" ","ALLEY":" ","HOUSE_NO":"１０２號","E_COORD97":182355.79000000001,"N_COORD97":2553919.75,"ADDRESS":"潭頂１０２號","OBJECTID":288057},"geometry":{"x":182355.79000000004,"y":2553919.7500000019}},{"attributes":{"ID":288064,"DIS_CODE":0,"TOWNNAME":"新市區","LI":"潭頂里","LIN":"2鄰","STREET":" ","SECT":" ","MAREA":"潭頂","LANE":" ","ALLEY":" ","HOUSE_NO":"９０之３６號","E_COORD97":181688.67000000001,"N_COORD97":2553477.7999999998,"ADDRESS":"潭頂９０之３６號","OBJECTID":288058},"geometry":{"x":181688.66999999993,"y":2553477.8000000007}},{"attributes":{"ID":288065,"DIS_CODE":0,"TOWNNAME":"官田區","LI":"社子里","LIN":"2鄰","STREET":" ","SECT":" ","MAREA":"社子","LANE":" ","ALLEY":" ","HOUSE_NO":"４號","E_COORD97":184268.72,"N_COORD97":2564604.2799999998,"ADDRESS":"社子４號","OBJECTID":288059},"geometry":{"x":184268.72000000067,"y":2564604.2799999993}},{"attributes":{"ID":288066,"DIS_CODE":0,"TOWNNAME":"永康區","LI":"大灣里","LIN":"10鄰","STREET":"大灣六街","SECT":" ","MAREA":" ","LANE":"１５０巷","ALLEY":" ","HOUSE_NO":"１５號","E_COORD97":174937.51999999999,"N_COORD97":2545458.8599999999,"ADDRESS":"大灣六街１５０巷１５號","OBJECTID":288060},"geometry":{"x":174937.52000000142,"y":2545458.8600000031}},{"attributes":{"ID":288067,"DIS_CODE":0,"TOWNNAME":"永康區","LI":"王行里","LIN":"10鄰","STREET":"王行路","SECT":" ","MAREA":" ","LANE":"１０１６巷","ALLEY":" ","HOUSE_NO":"９號","E_COORD97":175885.64000000001,"N_COORD97":2550119.3199999998,"ADDRESS":"王行路１０１６巷９號","OBJECTID":288061},"geometry":{"x":175885.63999999966,"y":2550119.3200000022}},{"attributes":{"ID":288068,"DIS_CODE":0,"TOWNNAME":"永康區","LI":"王行里","LIN":"10鄰","STREET":"王行路","SECT":" ","MAREA":" ","LANE":"１０１８巷","ALLEY":" ","HOUSE_NO":"３２號","E_COORD97":175832.67999999999,"N_COORD97":2550215.2400000002,"ADDRESS":"王行路１０１８巷３２號","OBJECTID":288062},"geometry":{"x":175832.6799999997,"y":2550215.2400000021}},{"attributes":{"ID":288069,"DIS_CODE":0,"TOWNNAME":"永康區","LI":"崑山里","LIN":"10鄰","STREET":"崑大路","SECT":" ","MAREA":" ","LANE":" ","ALLEY":" ","HOUSE_NO":"２０５號","E_COORD97":173289.78,"N_COORD97":2544298.9900000002,"ADDRESS":"崑大路２０５號","OBJECTID":288063},"geometry":{"x":173289.78000000026,"y":2544298.9899999984}},{"attributes":{"ID":288070,"DIS_CODE":0,"TOWNNAME":"安南區","LI":"州南里","LIN":"10鄰","STREET":"安和路","SECT":"四段","MAREA":" ","LANE":"５８９巷","ALLEY":" ","HOUSE_NO":"１０號","E_COORD97":169851.64999999999,"N_COORD97":2551468.4100000001,"ADDRESS":"安和路四段５８９巷１０號","OBJECTID":288064},"geometry":{"x":169851.65000000037,"y":2551468.410000002}},{"attributes":{"ID":288071,"DIS_CODE":0,"TOWNNAME":"安南區","LI":"海東里","LIN":"10鄰","STREET":"海佃路","SECT":"二段","MAREA":" ","LANE":"４１７巷","ALLEY":" ","HOUSE_NO":"２４號","E_COORD97":166644.10999999999,"N_COORD97":2548963.8500000001,"ADDRESS":"海佃路二段４１７巷２４號","OBJECTID":288065},"geometry":{"x":166644.11000000034,"y":2548963.8499999996}},{"attributes":{"ID":288072,"DIS_CODE":0,"TOWNNAME":"安南區","LI":"海東里","LIN":"10鄰","STREET":"海佃路","SECT":"二段","MAREA":" ","LANE":"４１７巷","ALLEY":" ","HOUSE_NO":"２６號","E_COORD97":166638.76000000001,"N_COORD97":2548961.4500000002,"ADDRESS":"海佃路二段４１７巷２６號","OBJECTID":288066},"geometry":{"x":166638.76000000071,"y":2548961.4500000011}},{"attributes":{"ID":288073,"DIS_CODE":0,"TOWNNAME":"官田區","LI":"社子里","LIN":"2鄰","STREET":" ","SECT":" ","MAREA":"社子","LANE":" ","ALLEY":" ","HOUSE_NO":"６號","E_COORD97":184354.60000000001,"N_COORD97":2564614.9399999999,"ADDRESS":"社子６號","OBJECTID":288067},"geometry":{"x":184354.60000000056,"y":2564614.9400000013}},{"attributes":{"ID":288074,"DIS_CODE":0,"TOWNNAME":"永康區","LI":"大橋里","LIN":"2鄰","STREET":"大橋二街","SECT":" ","MAREA":" ","LANE":" ","ALLEY":" ","HOUSE_NO":"７７號","E_COORD97":170769.94,"N_COORD97":2546557.71,"ADDRESS":"大橋二街７７號","OBJECTID":288068},"geometry":{"x":170769.94000000041,"y":2546557.7100000028}},{"attributes":{"ID":288075,"DIS_CODE":0,"TOWNNAME":"永康區","LI":"三合里","LIN":"2鄰","STREET":"中華二路","SECT":" ","MAREA":" ","LANE":" ","ALLEY":" ","HOUSE_NO":"７６號","E_COORD97":172100.92999999999,"N_COORD97":2545444.4900000002,"ADDRESS":"中華二路７６號","OBJECTID":288069},"geometry":{"x":172100.93000000063,"y":2545444.4900000002}},{"attributes":{"ID":288076,"DIS_CODE":0,"TOWNNAME":"永康區","LI":"五王里","LIN":"2鄰","STREET":"成功路","SECT":" ","MAREA":" ","LANE":" ","ALLEY":" ","HOUSE_NO":"１０７號","E_COORD97":171430.89999999999,"N_COORD97":2545601.52,"ADDRESS":"成功路１０７號","OBJECTID":288070},"geometry":{"x":171430.9000000013,"y":2545601.5200000014}},{"attributes":{"ID":288077,"DIS_CODE":0,"TOWNNAME":"安南區","LI":"淵西里","LIN":"10鄰","STREET":"安中路","SECT":"四段","MAREA":" ","LANE":"３２０巷","ALLEY":" ","HOUSE_NO":"４１號","E_COORD97":164471.85999999999,"N_COORD97":2550341.9399999999,"ADDRESS":"安中路四段３２０巷４１號","OBJECTID":288071},"geometry":{"x":164471.86000000127,"y":2550341.9400000013}},{"attributes":{"ID":288078,"DIS_CODE":0,"TOWNNAME":"中西區","LI":"西賢里","LIN":"10鄰","STREET":"西賢一街","SECT":" ","MAREA":" ","LANE":"１４８巷","ALLEY":" ","HOUSE_NO":"２號","E_COORD97":165729.89000000001,"N_COORD97":2544734.27,"ADDRESS":"西賢一街１４８巷２號","OBJECTID":288072},"geometry":{"x":165729.88999999966,"y":2544734.2700000014}},{"attributes":{"ID":288079,"DIS_CODE":0,"TOWNNAME":"中西區","LI":"西賢里","LIN":"10鄰","STREET":"西賢一街","SECT":" ","MAREA":" ","LANE":"１４８巷","ALLEY":" ","HOUSE_NO":"３１號","E_COORD97":165814.59,"N_COORD97":2544758.1200000001,"ADDRESS":"西賢一街１４８巷３１號","OBJECTID":288073},"geometry":{"x":165814.59000000078,"y":2544758.1200000029}},{"attributes":{"ID":288080,"DIS_CODE":0,"TOWNNAME":"永康區","LI":"五王里","LIN":"2鄰","STREET":"成功路","SECT":" ","MAREA":" ","LANE":" ","ALLEY":" ","HOUSE_NO":"９６號","E_COORD97":171461.63,"N_COORD97":2545586.6000000001,"ADDRESS":"成功路９６號","OBJECTID":288074},"geometry":{"x":171461.62999999989,"y":2545586.6000000015}},{"attributes":{"ID":288081,"DIS_CODE":0,"TOWNNAME":"中西區","LI":"藥王里","LIN":"10鄰","STREET":"大新街","SECT":" ","MAREA":" ","LANE":"２１巷","ALLEY":" ","HOUSE_NO":"１０號","E_COORD97":167100.75,"N_COORD97":2544385.9399999999,"ADDRESS":"大新街２１巷１０號","OBJECTID":288075},"geometry":{"x":167100.75,"y":2544385.9399999995}},{"attributes":{"ID":288082,"DIS_CODE":0,"TOWNNAME":"中西區","LI":"藥王里","LIN":"10鄰","STREET":"大新街","SECT":" ","MAREA":" ","LANE":"２１巷","ALLEY":" ","HOUSE_NO":"１２號","E_COORD97":167095.54000000001,"N_COORD97":2544386.4900000002,"ADDRESS":"大新街２１巷１２號","OBJECTID":288076},"geometry":{"x":167095.54000000004,"y":2544386.4900000002}},{"attributes":{"ID":288083,"DIS_CODE":0,"TOWNNAME":"永康區","LI":"崑山里","LIN":"2鄰","STREET":"大灣路","SECT":" ","MAREA":" ","LANE":" ","ALLEY":" ","HOUSE_NO":"８４９號","E_COORD97":173707.78,"N_COORD97":2544417.3999999999,"ADDRESS":"大灣路８４９號","OBJECTID":288077},"geometry":{"x":173707.78000000119,"y":2544417.4000000004}},{"attributes":{"ID":288084,"DIS_CODE":0,"TOWNNAME":"官田區","LI":"南\u25A0里","LIN":"2鄰","STREET":" ","SECT":" ","MAREA":"南\u25A0","LANE":" ","ALLEY":" ","HOUSE_NO":"３２號之１","E_COORD97":179094.42999999999,"N_COORD97":2568135.2999999998,"ADDRESS":"南\u25A0３２號之１","OBJECTID":288078},"geometry":{"x":179094.4299999997,"y":2568135.3000000045}},{"attributes":{"ID":288085,"DIS_CODE":0,"TOWNNAME":"官田區","LI":"南\u25A0里","LIN":"2鄰","STREET":" ","SECT":" ","MAREA":"南\u25A0","LANE":" ","ALLEY":" ","HOUSE_NO":"３２號之２","E_COORD97":179101.04999999999,"N_COORD97":2568122.25,"ADDRESS":"南\u25A0３２號之２","OBJECTID":288079},"geometry":{"x":179101.05000000168,"y":2568122.2500000019}},{"attributes":{"ID":288086,"DIS_CODE":0,"TOWNNAME":"官田區","LI":"南\u25A0里","LIN":"2鄰","STREET":" ","SECT":" ","MAREA":"南\u25A0","LANE":" ","ALLEY":" ","HOUSE_NO":"３２號","E_COORD97":179086.25,"N_COORD97":2568152.7000000002,"ADDRESS":"南\u25A0３２號","OBJECTID":288080},"geometry":{"x":179086.25000000186,"y":2568152.7000000011}},{"attributes":{"ID":288087,"DIS_CODE":0,"TOWNNAME":"官田區","LI":"南\u25A0里","LIN":"2鄰","STREET":" ","SECT":" ","MAREA":"南\u25A0","LANE":" ","ALLEY":" ","HOUSE_NO":"３３號之１０","E_COORD97":179037.84,"N_COORD97":2568127.1899999999,"ADDRESS":"南\u25A0３３號之１０","OBJECTID":288081},"geometry":{"x":179037.83999999985,"y":2568127.1899999995}},{"attributes":{"ID":288088,"DIS_CODE":0,"TOWNNAME":"官田區","LI":"南\u25A0里","LIN":"2鄰","STREET":" ","SECT":" ","MAREA":"南\u25A0","LANE":" ","ALLEY":" ","HOUSE_NO":"３３號之１１","E_COORD97":179034.32999999999,"N_COORD97":2568125.27,"ADDRESS":"南\u25A0３３號之１１","OBJECTID":288082},"geometry":{"x":179034.33000000007,"y":2568125.2700000014}},{"attributes":{"ID":288089,"DIS_CODE":0,"TOWNNAME":"官田區","LI":"南\u25A0里","LIN":"2鄰","STREET":" ","SECT":" ","MAREA":"南\u25A0","LANE":" ","ALLEY":" ","HOUSE_NO":"３８號之１２","E_COORD97":179080.14999999999,"N_COORD97":2568026.3599999999,"ADDRESS":"南\u25A0３８號之１２","OBJECTID":288083},"geometry":{"x":179080.15000000037,"y":2568026.3600000013}},{"attributes":{"ID":288090,"DIS_CODE":0,"TOWNNAME":"中西區","LI":"藥王里","LIN":"10鄰","STREET":"大新街","SECT":" ","MAREA":" ","LANE":"２１巷","ALLEY":" ","HOUSE_NO":"１４號","E_COORD97":167091.14999999999,"N_COORD97":2544387.8599999999,"ADDRESS":"大新街２１巷１４號","OBJECTID":288084},"geometry":{"x":167091.1500000013,"y":2544387.8600000013}},{"attributes":{"ID":288091,"DIS_CODE":0,"TOWNNAME":"中西區","LI":"藥王里","LIN":"10鄰","STREET":"大新街","SECT":" ","MAREA":" ","LANE":"２１巷","ALLEY":" ","HOUSE_NO":"１６號","E_COORD97":167086.20999999999,"N_COORD97":2544388.6800000002,"ADDRESS":"大新街２１巷１６號","OBJECTID":288085},"geometry":{"x":167086.21000000183,"y":2544388.6799999978}},{"attributes":{"ID":288092,"DIS_CODE":0,"TOWNNAME":"中西區","LI":"藥王里","LIN":"10鄰","STREET":"大新街","SECT":" ","MAREA":" ","LANE":"２１巷","ALLEY":" ","HOUSE_NO":"１８號","E_COORD97":167081.54000000001,"N_COORD97":2544389.5099999998,"ADDRESS":"大新街２１巷１８號","OBJECTID":288086},"geometry":{"x":167081.54000000004,"y":2544389.5099999998}},{"attributes":{"ID":288093,"DIS_CODE":0,"TOWNNAME":"中西區","LI":"藥王里","LIN":"10鄰","STREET":"大新街","SECT":" ","MAREA":" ","LANE":"２１巷","ALLEY":" ","HOUSE_NO":"２０號","E_COORD97":167077.14999999999,"N_COORD97":2544390.8799999999,"ADDRESS":"大新街２１巷２０號","OBJECTID":288087},"geometry":{"x":167077.1500000013,"y":2544390.8800000008}},{"attributes":{"ID":288094,"DIS_CODE":0,"TOWNNAME":"官田區","LI":"南\u25A0里","LIN":"2鄰","STREET":" ","SECT":" ","MAREA":"南\u25A0","LANE":" ","ALLEY":" ","HOUSE_NO":"３８號之１３","E_COORD97":179074.31,"N_COORD97":2568029.27,"ADDRESS":"南\u25A0３８號之１３","OBJECTID":288088},"geometry":{"x":179074.31000000052,"y":2568029.2700000033}},{"attributes":{"ID":288095,"DIS_CODE":0,"TOWNNAME":"中西區","LI":"藥王里","LIN":"10鄰","STREET":"大新街","SECT":" ","MAREA":" ","LANE":"２１巷","ALLEY":" ","HOUSE_NO":"２２號","E_COORD97":167076.70999999999,"N_COORD97":2544397.3399999999,"ADDRESS":"大新街２１巷２２號","OBJECTID":288089},"geometry":{"x":167076.71000000089,"y":2544397.3399999999}},{"attributes":{"ID":288096,"DIS_CODE":0,"TOWNNAME":"關廟區","LI":"布袋里","LIN":"11鄰","STREET":"南雄南路","SECT":" ","MAREA":" ","LANE":"８５２巷","ALLEY":" ","HOUSE_NO":"２２３號","E_COORD97":182068.392139,"N_COORD97":2533777.71569,"ADDRESS":"南雄南路８５２巷２２３號","OBJECTID":288090},"geometry":{"x":182068.39213900175,"y":2533777.7156910039}},{"attributes":{"ID":288097,"DIS_CODE":0,"TOWNNAME":"永康區","LI":"復國里","LIN":"10鄰","STREET":"復國二路","SECT":" ","MAREA":" ","LANE":"８７巷","ALLEY":" ","HOUSE_NO":"２４號","E_COORD97":172789.97,"N_COORD97":2545385.1800000002,"ADDRESS":"復國二路８７巷２４號","OBJECTID":288091},"geometry":{"x":172789.96999999974,"y":2545385.1799999997}},{"attributes":{"ID":288098,"DIS_CODE":0,"TOWNNAME":"永康區","LI":"勝利里","LIN":"10鄰","STREET":"勝利街","SECT":" ","MAREA":" ","LANE":"２２巷","ALLEY":" ","HOUSE_NO":"６０號","E_COORD97":171283.25,"N_COORD97":2544712.5,"ADDRESS":"勝利街２２巷６０號","OBJECTID":288092},"geometry":{"x":171283.25000000186,"y":2544712.5000000037}},{"attributes":{"ID":288099,"DIS_CODE":0,"TOWNNAME":"永康區","LI":"復國里","LIN":"10鄰","STREET":"復國二路","SECT":" ","MAREA":" ","LANE":"８７巷","ALLEY":" ","HOUSE_NO":"１６號","E_COORD97":172813.28,"N_COORD97":2545387.9300000002,"ADDRESS":"復國二路８７巷１６號","OBJECTID":288093},"geometry":{"x":172813.28000000026,"y":2545387.9300000016}},{"attributes":{"ID":288100,"DIS_CODE":0,"TOWNNAME":"永康區","LI":"復國里","LIN":"10鄰","STREET":"復國二路","SECT":" ","MAREA":" ","LANE":"８７巷","ALLEY":" ","HOUSE_NO":"２７號","E_COORD97":172772.41,"N_COORD97":2545367.02,"ADDRESS":"復國二路８７巷２７號","OBJECTID":288094},"geometry":{"x":172772.41000000201,"y":2545367.0200000014}},{"attributes":{"ID":288101,"DIS_CODE":0,"TOWNNAME":"永康區","LI":"勝利里","LIN":"10鄰","STREET":"勝利街","SECT":" ","MAREA":" ","LANE":"２２巷","ALLEY":" ","HOUSE_NO":"６４號","E_COORD97":171284.75,"N_COORD97":2544720.25,"ADDRESS":"勝利街２２巷６４號","OBJECTID":288095},"geometry":{"x":171284.75,"y":2544720.25}},{"attributes":{"ID":288102,"DIS_CODE":0,"TOWNNAME":"東區","LI":"德高里","LIN":"10鄰","STREET":"崇善路","SECT":" ","MAREA":" ","LANE":"９１３巷","ALLEY":" ","HOUSE_NO":"５４號","E_COORD97":171408.19,"N_COORD97":2540803.7799999998,"ADDRESS":"崇善路９１３巷５４號","OBJECTID":288096},"geometry":{"x":171408.19000000134,"y":2540803.7799999993}},{"attributes":{"ID":288103,"DIS_CODE":0,"TOWNNAME":"永康區","LI":"崑山里","LIN":"2鄰","STREET":"大灣路","SECT":" ","MAREA":" ","LANE":" ","ALLEY":" ","HOUSE_NO":"８５５號","E_COORD97":173688.63,"N_COORD97":2544411.6699999999,"ADDRESS":"大灣路８５５號","OBJECTID":288097},"geometry":{"x":173688.62999999989,"y":2544411.6699999999}},{"attributes":{"ID":288104,"DIS_CODE":0,"TOWNNAME":"歸仁區","LI":"六甲里","LIN":"16鄰","STREET":"六甲路","SECT":" ","MAREA":" ","LANE":" ","ALLEY":" ","HOUSE_NO":"２９９號","E_COORD97":175794.146775,"N_COORD97":2539176.7584000002,"ADDRESS":"六甲路２９９號","OBJECTID":288098},"geometry":{"x":175794.14677499887,"y":2539176.7583959997}},{"attributes":{"ID":288105,"DIS_CODE":0,"TOWNNAME":"安南區","LI":"海東里","LIN":"10鄰","STREET":"海佃路","SECT":"二段","MAREA":" ","LANE":"４１７巷","ALLEY":" ","HOUSE_NO":"６號","E_COORD97":166681.76999999999,"N_COORD97":2548989.8700000001,"ADDRESS":"海佃路二段４１７巷６號","OBJECTID":288099},"geometry":{"x":166681.76999999955,"y":2548989.8700000048}},{"attributes":{"ID":288106,"DIS_CODE":0,"TOWNNAME":"安南區","LI":"海東里","LIN":"10鄰","STREET":"海環街","SECT":" ","MAREA":" ","LANE":"３２巷","ALLEY":" ","HOUSE_NO":"４０號","E_COORD97":166602.39999999999,"N_COORD97":2548959.8700000001,"ADDRESS":"海環街３２巷４０號","OBJECTID":288100},"geometry":{"x":166602.4000000013,"y":2548959.8700000029}},{"attributes":{"ID":288107,"DIS_CODE":0,"TOWNNAME":"安南區","LI":"溪北里","LIN":"10鄰","STREET":"府安路","SECT":"四段","MAREA":" ","LANE":"３４巷","ALLEY":" ","HOUSE_NO":"１０號","E_COORD97":169383.70000000001,"N_COORD97":2547343.3999999999,"ADDRESS":"府安路四段３４巷１０號","OBJECTID":288101},"geometry":{"x":169383.70000000112,"y":2547343.4000000004}},{"attributes":{"ID":288108,"DIS_CODE":0,"TOWNNAME":"安南區","LI":"溪北里","LIN":"10鄰","STREET":"府安路","SECT":"四段","MAREA":" ","LANE":"３４巷","ALLEY":" ","HOUSE_NO":"２２號","E_COORD97":169373.17000000001,"N_COORD97":2547367.71,"ADDRESS":"府安路四段３４巷２２號","OBJECTID":288102},"geometry":{"x":169373.16999999899,"y":2547367.7100000028}},{"attributes":{"ID":288109,"DIS_CODE":0,"TOWNNAME":"永康區","LI":"埔園里","LIN":"10鄰","STREET":"自強路","SECT":" ","MAREA":" ","LANE":"４２０巷","ALLEY":" ","HOUSE_NO":"１號","E_COORD97":173668.69,"N_COORD97":2547848.7400000002,"ADDRESS":"自強路４２０巷１號","OBJECTID":288103},"geometry":{"x":173668.69000000041,"y":2547848.7400000021}},{"attributes":{"ID":288110,"DIS_CODE":0,"TOWNNAME":"安南區","LI":"學東里","LIN":"10鄰","STREET":"公學路","SECT":"六段","MAREA":" ","LANE":"６６０巷","ALLEY":" ","HOUSE_NO":"５１號","E_COORD97":162251.04999999999,"N_COORD97":2553427.5899999999,"ADDRESS":"公學路六段６６０巷５１號","OBJECTID":288104},"geometry":{"x":162251.05000000075,"y":2553427.5899999999}},{"attributes":{"ID":288111,"DIS_CODE":0,"TOWNNAME":"安南區","LI":"學東里","LIN":"10鄰","STREET":"公學路","SECT":"六段","MAREA":" ","LANE":"６６０巷","ALLEY":" ","HOUSE_NO":"４５號","E_COORD97":162247.94,"N_COORD97":2553414.8300000001,"ADDRESS":"公學路六段６６０巷４５號","OBJECTID":288105},"geometry":{"x":162247.94000000041,"y":2553414.8300000019}},{"attributes":{"ID":288112,"DIS_CODE":0,"TOWNNAME":"永康區","LI":"中華里","LIN":"10鄰","STREET":"忠義街","SECT":" ","MAREA":" ","LANE":"１０巷","ALLEY":" ","HOUSE_NO":"３８號","E_COORD97":171842.92999999999,"N_COORD97":2544371.4700000002,"ADDRESS":"忠義街１０巷３８號","OBJECTID":288106},"geometry":{"x":171842.93000000156,"y":2544371.4700000025}},{"attributes":{"ID":288113,"DIS_CODE":0,"TOWNNAME":"永康區","LI":"尚頂里","LIN":"10鄰","STREET":"正南一街","SECT":" ","MAREA":" ","LANE":"１０７巷","ALLEY":" ","HOUSE_NO":"２２號","E_COORD97":170891.67999999999,"N_COORD97":2547143.0099999998,"ADDRESS":"正南一街１０７巷２２號","OBJECTID":288107},"geometry":{"x":170891.6799999997,"y":2547143.0100000035}},{"attributes":{"ID":288114,"DIS_CODE":0,"TOWNNAME":"官田區","LI":"湖山里","LIN":"2鄰","STREET":" ","SECT":" ","MAREA":"烏山頭","LANE":" ","ALLEY":" ","HOUSE_NO":"１０號之１","E_COORD97":183297.26000000001,"N_COORD97":2567534.4199999999,"ADDRESS":"烏山頭１０號之１","OBJECTID":288108},"geometry":{"x":183297.26000000071,"y":2567534.4200000018}},{"attributes":{"ID":288115,"DIS_CODE":0,"TOWNNAME":"白河區","LI":"大竹里","LIN":"2鄰","STREET":" ","SECT":" ","MAREA":"大排竹","LANE":" ","ALLEY":" ","HOUSE_NO":"１８之１號","E_COORD97":189931,"N_COORD97":2585318.48,"ADDRESS":"大排竹１８之１號","OBJECTID":288109},"geometry":{"x":189931.00000000093,"y":2585318.4800000004}},{"attributes":{"ID":288116,"DIS_CODE":0,"TOWNNAME":"白河區","LI":"大竹里","LIN":"2鄰","STREET":" ","SECT":" ","MAREA":"大排竹","LANE":" ","ALLEY":" ","HOUSE_NO":"１８號","E_COORD97":189934.67999999999,"N_COORD97":2585335.8399999999,"ADDRESS":"大排竹１８號","OBJECTID":288110},"geometry":{"x":189934.68000000063,"y":2585335.8399999999}},{"attributes":{"ID":288117,"DIS_CODE":0,"TOWNNAME":"白河區","LI":"大竹里","LIN":"2鄰","STREET":" ","SECT":" ","MAREA":"大排竹","LANE":" ","ALLEY":" ","HOUSE_NO":"１９號","E_COORD97":189912.35000000001,"N_COORD97":2585325.1600000001,"ADDRESS":"大排竹１９號","OBJECTID":288111},"geometry":{"x":189912.35000000149,"y":2585325.1600000039}},{"attributes":{"ID":288118,"DIS_CODE":0,"TOWNNAME":"白河區","LI":"大竹里","LIN":"2鄰","STREET":" ","SECT":" ","MAREA":"大排竹","LANE":" ","ALLEY":" ","HOUSE_NO":"２０之１號","E_COORD97":189912.32000000001,"N_COORD97":2585363.6899999999,"ADDRESS":"大排竹２０之１號","OBJECTID":288112},"geometry":{"x":189912.32000000123,"y":2585363.6899999995}},{"attributes":{"ID":288119,"DIS_CODE":0,"TOWNNAME":"白河區","LI":"大竹里","LIN":"2鄰","STREET":" ","SECT":" ","MAREA":"大排竹","LANE":" ","ALLEY":" ","HOUSE_NO":"２０號","E_COORD97":189905.34,"N_COORD97":2585347.27,"ADDRESS":"大排竹２０號","OBJECTID":288113},"geometry":{"x":189905.33999999985,"y":2585347.2700000033}},{"attributes":{"ID":288120,"DIS_CODE":0,"TOWNNAME":"白河區","LI":"大竹里","LIN":"2鄰","STREET":" ","SECT":" ","MAREA":"大排竹","LANE":" ","ALLEY":" ","HOUSE_NO":"２２號","E_COORD97":189926.84,"N_COORD97":2585340.1600000001,"ADDRESS":"大排竹２２號","OBJECTID":288114},"geometry":{"x":189926.84000000078,"y":2585340.160000002}},{"attributes":{"ID":288121,"DIS_CODE":0,"TOWNNAME":"白河區","LI":"大竹里","LIN":"2鄰","STREET":" ","SECT":" ","MAREA":"大排竹","LANE":" ","ALLEY":" ","HOUSE_NO":"２４號","E_COORD97":189946.19,"N_COORD97":2585341.71,"ADDRESS":"大排竹２４號","OBJECTID":288115},"geometry":{"x":189946.19000000041,"y":2585341.7100000009}},{"attributes":{"ID":288122,"DIS_CODE":0,"TOWNNAME":"白河區","LI":"大竹里","LIN":"2鄰","STREET":" ","SECT":" ","MAREA":"大排竹","LANE":" ","ALLEY":" ","HOUSE_NO":"２５之１號","E_COORD97":189955.75,"N_COORD97":2585351.77,"ADDRESS":"大排竹２５之１號","OBJECTID":288116},"geometry":{"x":189955.75000000186,"y":2585351.7700000014}},{"attributes":{"ID":288123,"DIS_CODE":0,"TOWNNAME":"白河區","LI":"大竹里","LIN":"2鄰","STREET":" ","SECT":" ","MAREA":"大排竹","LANE":" ","ALLEY":" ","HOUSE_NO":"２５號","E_COORD97":189956.92999999999,"N_COORD97":2585353.6800000002,"ADDRESS":"大排竹２５號","OBJECTID":288117},"geometry":{"x":189956.9299999997,"y":2585353.6799999997}},{"attributes":{"ID":288124,"DIS_CODE":0,"TOWNNAME":"白河區","LI":"大竹里","LIN":"2鄰","STREET":" ","SECT":" ","MAREA":"大排竹","LANE":" ","ALLEY":" ","HOUSE_NO":"２７之１號","E_COORD97":189927.76000000001,"N_COORD97":2585368.9100000001,"ADDRESS":"大排竹２７之１號","OBJECTID":288118},"geometry":{"x":189927.75999999978,"y":2585368.910000002}},{"attributes":{"ID":288125,"DIS_CODE":0,"TOWNNAME":"白河區","LI":"大竹里","LIN":"2鄰","STREET":" ","SECT":" ","MAREA":"大排竹","LANE":" ","ALLEY":" ","HOUSE_NO":"２７號","E_COORD97":189932.57999999999,"N_COORD97":2585353.8799999999,"ADDRESS":"大排竹２７號","OBJECTID":288119},"geometry":{"x":189932.58000000007,"y":2585353.8800000008}},{"attributes":{"ID":288126,"DIS_CODE":0,"TOWNNAME":"白河區","LI":"大竹里","LIN":"2鄰","STREET":" ","SECT":" ","MAREA":"大排竹","LANE":" ","ALLEY":" ","HOUSE_NO":"２８號","E_COORD97":189952.20999999999,"N_COORD97":2585392.5499999998,"ADDRESS":"大排竹２８號","OBJECTID":288120},"geometry":{"x":189952.20999999996,"y":2585392.5500000007}},{"attributes":{"ID":288127,"DIS_CODE":0,"TOWNNAME":"白河區","LI":"大竹里","LIN":"2鄰","STREET":" ","SECT":" ","MAREA":"大排竹","LANE":" ","ALLEY":" ","HOUSE_NO":"２９號","E_COORD97":189956.82999999999,"N_COORD97":2585413.1800000002,"ADDRESS":"大排竹２９號","OBJECTID":288121},"geometry":{"x":189956.83000000007,"y":2585413.1800000016}},{"attributes":{"ID":288128,"DIS_CODE":0,"TOWNNAME":"白河區","LI":"大竹里","LIN":"2鄰","STREET":" ","SECT":" ","MAREA":"大排竹","LANE":" ","ALLEY":" ","HOUSE_NO":"３０之２０號","E_COORD97":189847.91,"N_COORD97":2585562.2200000002,"ADDRESS":"大排竹３０之２０號","OBJECTID":288122},"geometry":{"x":189847.91000000015,"y":2585562.2199999988}},{"attributes":{"ID":288129,"DIS_CODE":0,"TOWNNAME":"白河區","LI":"大竹里","LIN":"2鄰","STREET":" ","SECT":" ","MAREA":"大排竹","LANE":" ","ALLEY":" ","HOUSE_NO":"３０之２８號","E_COORD97":189744.39000000001,"N_COORD97":2585576.4300000002,"ADDRESS":"大排竹３０之２８號","OBJECTID":288123},"geometry":{"x":189744.39000000153,"y":2585576.4299999997}},{"attributes":{"ID":288130,"DIS_CODE":0,"TOWNNAME":"白河區","LI":"大竹里","LIN":"2鄰","STREET":" ","SECT":" ","MAREA":"大排竹","LANE":" ","ALLEY":" ","HOUSE_NO":"３０之２號","E_COORD97":190085.32000000001,"N_COORD97":2585628.5,"ADDRESS":"大排竹３０之２號","OBJECTID":288124},"geometry":{"x":190085.32000000123,"y":2585628.5000000019}},{"attributes":{"ID":288131,"DIS_CODE":0,"TOWNNAME":"白河區","LI":"大竹里","LIN":"2鄰","STREET":" ","SECT":" ","MAREA":"大排竹","LANE":" ","ALLEY":" ","HOUSE_NO":"３０之８號","E_COORD97":190053.85999999999,"N_COORD97":2585679.9300000002,"ADDRESS":"大排竹３０之８號","OBJECTID":288125},"geometry":{"x":190053.8600000022,"y":2585679.9300000016}},{"attributes":{"ID":288132,"DIS_CODE":0,"TOWNNAME":"永康區","LI":"崑山里","LIN":"10鄰","STREET":"崑大路","SECT":" ","MAREA":" ","LANE":"２６９巷","ALLEY":" ","HOUSE_NO":"５號","E_COORD97":173197.92999999999,"N_COORD97":2544288.4900000002,"ADDRESS":"崑大路２６９巷５號","OBJECTID":288126},"geometry":{"x":173197.93000000063,"y":2544288.4900000002}},{"attributes":{"ID":288133,"DIS_CODE":0,"TOWNNAME":"永康區","LI":"崑山里","LIN":"10鄰","STREET":"崑大路","SECT":" ","MAREA":" ","LANE":"２６９巷","ALLEY":" ","HOUSE_NO":"８號","E_COORD97":173198.17000000001,"N_COORD97":2544279,"ADDRESS":"崑大路２６９巷８號","OBJECTID":288127},"geometry":{"x":173198.17000000086,"y":2544279.0000000019}},{"attributes":{"ID":288134,"DIS_CODE":0,"TOWNNAME":"永康區","LI":"崑山里","LIN":"10鄰","STREET":"崑大路","SECT":" ","MAREA":" ","LANE":"２６９巷","ALLEY":" ","HOUSE_NO":"１０號","E_COORD97":173211.51999999999,"N_COORD97":2544278.5,"ADDRESS":"崑大路２６９巷１０號","OBJECTID":288128},"geometry":{"x":173211.51999999955,"y":2544278.5000000037}},{"attributes":{"ID":288135,"DIS_CODE":0,"TOWNNAME":"永康區","LI":"崑山里","LIN":"10鄰","STREET":"崑大路","SECT":" ","MAREA":" ","LANE":"２０１巷","ALLEY":" ","HOUSE_NO":"２６號","E_COORD97":173306.42999999999,"N_COORD97":2544241.5,"ADDRESS":"崑大路２０１巷２６號","OBJECTID":288129},"geometry":{"x":173306.43000000063,"y":2544241.5000000037}},{"attributes":{"ID":288136,"DIS_CODE":0,"TOWNNAME":"永康區","LI":"崑山里","LIN":"10鄰","STREET":"崑大路","SECT":" ","MAREA":" ","LANE":"２６９巷","ALLEY":" ","HOUSE_NO":"１２號","E_COORD97":173212.07000000001,"N_COORD97":2544272,"ADDRESS":"崑大路２６９巷１２號","OBJECTID":288130},"geometry":{"x":173212.0700000003,"y":2544272.0000000037}},{"attributes":{"ID":288137,"DIS_CODE":0,"TOWNNAME":"永康區","LI":"烏竹里","LIN":"10鄰","STREET":"竹園二街","SECT":" ","MAREA":" ","LANE":"１６３巷","ALLEY":" ","HOUSE_NO":"７號","E_COORD97":174522.54000000001,"N_COORD97":2549288.7799999998,"ADDRESS":"竹園二街１６３巷７號","OBJECTID":288131},"geometry":{"x":174522.5400000019,"y":2549288.7799999993}},{"attributes":{"ID":288138,"DIS_CODE":0,"TOWNNAME":"永康區","LI":"崑山里","LIN":"10鄰","STREET":"崑大路","SECT":" ","MAREA":" ","LANE":"２０１巷","ALLEY":" ","HOUSE_NO":"２０號","E_COORD97":173305.64999999999,"N_COORD97":2544251.75,"ADDRESS":"崑大路２０１巷２０號","OBJECTID":288132},"geometry":{"x":173305.6500000013,"y":2544251.75}},{"attributes":{"ID":288139,"DIS_CODE":0,"TOWNNAME":"永康區","LI":"崑山里","LIN":"10鄰","STREET":"崑大路","SECT":" ","MAREA":" ","LANE":"２０１巷","ALLEY":"１８弄","HOUSE_NO":"２號","E_COORD97":173300.76000000001,"N_COORD97":2544262.75,"ADDRESS":"崑大路２０１巷１８弄２號","OBJECTID":288133},"geometry":{"x":173300.76000000071,"y":2544262.75}},{"attributes":{"ID":288140,"DIS_CODE":0,"TOWNNAME":"永康區","LI":"崑山里","LIN":"10鄰","STREET":"崑大路","SECT":" ","MAREA":" ","LANE":"２６９巷","ALLEY":" ","HOUSE_NO":"２號","E_COORD97":173185.60999999999,"N_COORD97":2544278.75,"ADDRESS":"崑大路２６９巷２號","OBJECTID":288134},"geometry":{"x":173185.61000000127,"y":2544278.75}},{"attributes":{"ID":288141,"DIS_CODE":0,"TOWNNAME":"永康區","LI":"崑山里","LIN":"10鄰","STREET":"崑大路","SECT":" ","MAREA":" ","LANE":"２６９巷","ALLEY":" ","HOUSE_NO":"９號","E_COORD97":173210.82000000001,"N_COORD97":2544296.2400000002,"ADDRESS":"崑大路２６９巷９號","OBJECTID":288135},"geometry":{"x":173210.82000000123,"y":2544296.2400000002}},{"attributes":{"ID":288142,"DIS_CODE":0,"TOWNNAME":"永康區","LI":"崑山里","LIN":"10鄰","STREET":"崑大路","SECT":" ","MAREA":" ","LANE":"２６９巷","ALLEY":" ","HOUSE_NO":"１號","E_COORD97":173185.79999999999,"N_COORD97":2544287.9900000002,"ADDRESS":"崑大路２６９巷１號","OBJECTID":288136},"geometry":{"x":173185.79999999981,"y":2544287.9900000002}},{"attributes":{"ID":288143,"DIS_CODE":0,"TOWNNAME":"南區","LI":"建南里","LIN":"23鄰","STREET":"永成路","SECT":"二段","MAREA":" ","LANE":"９８０巷","ALLEY":" ","HOUSE_NO":"２３６號","E_COORD97":167837.20999999999,"N_COORD97":2539775.6299999999,"ADDRESS":"永成路二段９８０巷２３６號","OBJECTID":288137},"geometry":{"x":167837.21000000183,"y":2539775.6300000008}},{"attributes":{"ID":288144,"DIS_CODE":0,"TOWNNAME":"東區","LI":"大學里","LIN":"10鄰","STREET":"大學路","SECT":" ","MAREA":" ","LANE":"２２巷","ALLEY":" ","HOUSE_NO":"１２號","E_COORD97":170153.73999999999,"N_COORD97":2543977.1699999999,"ADDRESS":"大學路２２巷１２號","OBJECTID":288138},"geometry":{"x":170153.74000000115,"y":2543977.1700000018}},{"attributes":{"ID":288145,"DIS_CODE":0,"TOWNNAME":"東區","LI":"富強里","LIN":"10鄰","STREET":"中華東路","SECT":"二段","MAREA":" ","LANE":"２２６巷","ALLEY":" ","HOUSE_NO":"４０號","E_COORD97":171111.41,"N_COORD97":2542652.46,"ADDRESS":"中華東路二段２２６巷４０號","OBJECTID":288139},"geometry":{"x":171111.41000000108,"y":2542652.4600000046}},{"attributes":{"ID":288146,"DIS_CODE":0,"TOWNNAME":"仁德區","LI":"後壁里","LIN":"10鄰","STREET":"民安路","SECT":"二段","MAREA":" ","LANE":"１８２巷","ALLEY":" ","HOUSE_NO":"５０號","E_COORD97":173704.54999999999,"N_COORD97":2538819.3100000001,"ADDRESS":"民安路二段１８２巷５０號","OBJECTID":288140},"geometry":{"x":173704.54999999981,"y":2538819.3100000024}},{"attributes":{"ID":288147,"DIS_CODE":0,"TOWNNAME":"仁德區","LI":"成功里","LIN":"10鄰","STREET":"成功二街","SECT":" ","MAREA":" ","LANE":"２９巷","ALLEY":" ","HOUSE_NO":"１６號","E_COORD97":170960.01000000001,"N_COORD97":2539885.0099999998,"ADDRESS":"成功二街２９巷１６號","OBJECTID":288141},"geometry":{"x":170960.01000000071,"y":2539885.0100000016}},{"attributes":{"ID":288148,"DIS_CODE":0,"TOWNNAME":"仁德區","LI":"後壁里","LIN":"10鄰","STREET":"民安路","SECT":"二段","MAREA":" ","LANE":"１８２巷","ALLEY":" ","HOUSE_NO":"５７號","E_COORD97":173719.31,"N_COORD97":2538811.8100000001,"ADDRESS":"民安路二段１８２巷５７號","OBJECTID":288142},"geometry":{"x":173719.30999999959,"y":2538811.8100000042}},{"attributes":{"ID":288149,"DIS_CODE":0,"TOWNNAME":"仁德區","LI":"太子里","LIN":"10鄰","STREET":"長興路","SECT":" ","MAREA":" ","LANE":"１２巷","ALLEY":" ","HOUSE_NO":"３號","E_COORD97":174144.17999999999,"N_COORD97":2543563.25,"ADDRESS":"長興路１２巷３號","OBJECTID":288143},"geometry":{"x":174144.1799999997,"y":2543563.25}},{"attributes":{"ID":288150,"DIS_CODE":0,"TOWNNAME":"仁德區","LI":"保安里","LIN":"10鄰","STREET":"文賢二街","SECT":" ","MAREA":" ","LANE":"２３巷","ALLEY":" ","HOUSE_NO":"２號","E_COORD97":171661.45000000001,"N_COORD97":2536128.0699999998,"ADDRESS":"文賢二街２３巷２號","OBJECTID":288144},"geometry":{"x":171661.45000000019,"y":2536128.070000004}},{"attributes":{"ID":288151,"DIS_CODE":0,"TOWNNAME":"中西區","LI":"中正里","LIN":"10鄰","STREET":"正德街","SECT":" ","MAREA":" ","LANE":" ","ALLEY":" ","HOUSE_NO":"３４號","E_COORD97":167525.32999999999,"N_COORD97":2543860.8799999999,"ADDRESS":"正德街３４號","OBJECTID":288145},"geometry":{"x":167525.33000000101,"y":2543860.879999999}},{"attributes":{"ID":288152,"DIS_CODE":0,"TOWNNAME":"中西區","LI":"中正里","LIN":"10鄰","STREET":"正德街","SECT":" ","MAREA":" ","LANE":" ","ALLEY":" ","HOUSE_NO":"３６號","E_COORD97":167525.95000000001,"N_COORD97":2543864.77,"ADDRESS":"正德街３６號","OBJECTID":288146},"geometry":{"x":167525.95000000112,"y":2543864.7699999996}},{"attributes":{"ID":288153,"DIS_CODE":0,"TOWNNAME":"中西區","LI":"中正里","LIN":"10鄰","STREET":"正德街","SECT":" ","MAREA":" ","LANE":" ","ALLEY":" ","HOUSE_NO":"３８號","E_COORD97":167532.78,"N_COORD97":2543867.52,"ADDRESS":"正德街３８號","OBJECTID":288147},"geometry":{"x":167532.78000000026,"y":2543867.5199999977}},{"attributes":{"ID":288154,"DIS_CODE":0,"TOWNNAME":"善化區","LI":"光文里","LIN":" ","STREET":"中山路","SECT":" ","MAREA":" ","LANE":" ","ALLEY":" ","HOUSE_NO":"２３３之１號","E_COORD97":178157.64999999999,"N_COORD97":2559105.27,"ADDRESS":"中山路２３３之１號","OBJECTID":288148},"geometry":{"x":178157.65000000037,"y":2559105.2699999996}},{"attributes":{"ID":288155,"DIS_CODE":0,"TOWNNAME":"善化區","LI":"文昌里","LIN":"18鄰","STREET":"中正路","SECT":" ","MAREA":" ","LANE":" ","ALLEY":" ","HOUSE_NO":"２８０號","E_COORD97":177711.76000000001,"N_COORD97":2558448.5,"ADDRESS":"中正路２８０號","OBJECTID":288149},"geometry":{"x":177711.76000000071,"y":2558448.5000000019}},{"attributes":{"ID":288156,"DIS_CODE":0,"TOWNNAME":"善化區","LI":"光文里","LIN":" ","STREET":"建業路","SECT":" ","MAREA":" ","LANE":" ","ALLEY":" ","HOUSE_NO":"１８７之１號","E_COORD97":178603.04999999999,"N_COORD97":2559748.0299999998,"ADDRESS":"建業路１８７之１號","OBJECTID":288150},"geometry":{"x":178603.05000000075,"y":2559748.0300000031}},{"attributes":{"ID":288157,"DIS_CODE":0,"TOWNNAME":"善化區","LI":"坐駕里","LIN":"13鄰","STREET":"自強路","SECT":" ","MAREA":" ","LANE":" ","ALLEY":" ","HOUSE_NO":"５７號","E_COORD97":178190.94,"N_COORD97":2558732.75,"ADDRESS":"自強路５７號","OBJECTID":288151},"geometry":{"x":178190.94000000134,"y":2558732.75}},{"attributes":{"ID":288158,"DIS_CODE":0,"TOWNNAME":"善化區","LI":"西關里","LIN":"4鄰","STREET":"中山路","SECT":" ","MAREA":" ","LANE":" ","ALLEY":" ","HOUSE_NO":"４９１號之１","E_COORD97":177202.98000000001,"N_COORD97":2559126.75,"ADDRESS":"中山路４９１號之１","OBJECTID":288152},"geometry":{"x":177202.98000000045,"y":2559126.7500000037}},{"attributes":{"ID":288159,"DIS_CODE":0,"TOWNNAME":"善化區","LI":"文昌里","LIN":"18鄰","STREET":"興華路","SECT":" ","MAREA":" ","LANE":" ","ALLEY":" ","HOUSE_NO":"３１９號","E_COORD97":177744.09,"N_COORD97":2558489.25,"ADDRESS":"興華路３１９號","OBJECTID":288153},"geometry":{"x":177744.08999999985,"y":2558489.2500000037}},{"attributes":{"ID":288160,"DIS_CODE":0,"TOWNNAME":"善化區","LI":"光文里","LIN":"25鄰","STREET":"中山路","SECT":" ","MAREA":" ","LANE":" ","ALLEY":" ","HOUSE_NO":"２３２號之２","E_COORD97":178112.81,"N_COORD97":2559150.77,"ADDRESS":"中山路２３２號之２","OBJECTID":288154},"geometry":{"x":178112.81000000052,"y":2559150.7700000014}},{"attributes":{"ID":288161,"DIS_CODE":0,"TOWNNAME":"中西區","LI":"中正里","LIN":"10鄰","STREET":"正德街","SECT":" ","MAREA":" ","LANE":" ","ALLEY":" ","HOUSE_NO":"５０號","E_COORD97":167539,"N_COORD97":2543906.4700000002,"ADDRESS":"正德街５０號","OBJECTID":288155},"geometry":{"x":167539.00000000093,"y":2543906.4700000044}},{"attributes":{"ID":288162,"DIS_CODE":0,"TOWNNAME":"仁德區","LI":"保安里","LIN":"10鄰","STREET":"文賢路","SECT":"一段","MAREA":" ","LANE":"２９巷","ALLEY":" ","HOUSE_NO":"１號","E_COORD97":170156.06,"N_COORD97":2538280.3199999998,"ADDRESS":"文賢路一段２９巷１號","OBJECTID":288156},"geometry":{"x":170156.05999999959,"y":2538280.3200000022}},{"attributes":{"ID":288163,"DIS_CODE":0,"TOWNNAME":"永康區","LI":"復國里","LIN":"10鄰","STREET":"復國一路","SECT":" ","MAREA":" ","LANE":"２５０巷","ALLEY":" ","HOUSE_NO":"１１號","E_COORD97":172787.84,"N_COORD97":2545348.96,"ADDRESS":"復國一路２５０巷１１號","OBJECTID":288157},"geometry":{"x":172787.84000000171,"y":2545348.9600000028}},{"attributes":{"ID":288164,"DIS_CODE":0,"TOWNNAME":"南區","LI":"白雪里","LIN":"11鄰","STREET":"鹽埕路","SECT":" ","MAREA":" ","LANE":"１０３巷","ALLEY":" ","HOUSE_NO":"１２號","E_COORD97":166782.29000000001,"N_COORD97":2540840.3100000001,"ADDRESS":"鹽埕路１０３巷１２號","OBJECTID":288158},"geometry":{"x":166782.2900000019,"y":2540840.3100000024}},{"attributes":{"ID":288165,"DIS_CODE":0,"TOWNNAME":"南區","LI":"白雪里","LIN":"10鄰","STREET":"鹽埕路","SECT":" ","MAREA":" ","LANE":"１０３巷","ALLEY":" ","HOUSE_NO":"４５之１號","E_COORD97":166747.69,"N_COORD97":2540710.29,"ADDRESS":"鹽埕路１０３巷４５之１號","OBJECTID":288159},"geometry":{"x":166747.68999999948,"y":2540710.290000001}},{"attributes":{"ID":288166,"DIS_CODE":0,"TOWNNAME":"仁德區","LI":"田厝里","LIN":"10鄰","STREET":"田厝二街","SECT":" ","MAREA":" ","LANE":"８６巷","ALLEY":" ","HOUSE_NO":"１２號","E_COORD97":172366.95000000001,"N_COORD97":2537734,"ADDRESS":"田厝二街８６巷１２號","OBJECTID":288160},"geometry":{"x":172366.94999999925,"y":2537734}},{"attributes":{"ID":288167,"DIS_CODE":0,"TOWNNAME":"仁德區","LI":"仁義里","LIN":"10鄰","STREET":"中山路","SECT":" ","MAREA":" ","LANE":"５５５巷","ALLEY":" ","HOUSE_NO":"７號","E_COORD97":173432.31,"N_COORD97":2541273.25,"ADDRESS":"中山路５５５巷７號","OBJECTID":288161},"geometry":{"x":173432.31000000052,"y":2541273.2500000019}},{"attributes":{"ID":288168,"DIS_CODE":0,"TOWNNAME":"歸仁區","LI":"許厝里","LIN":"10鄰","STREET":"公園路","SECT":" ","MAREA":" ","LANE":"３９巷","ALLEY":" ","HOUSE_NO":"３２號","E_COORD97":178171.92000000001,"N_COORD97":2540472.1000000001,"ADDRESS":"公園路３９巷３２號","OBJECTID":288162},"geometry":{"x":178171.92000000086,"y":2540472.0999999996}},{"attributes":{"ID":288169,"DIS_CODE":0,"TOWNNAME":"歸仁區","LI":"看東里","LIN":"10鄰","STREET":"忠孝南路","SECT":" ","MAREA":" ","LANE":"１３９巷","ALLEY":" ","HOUSE_NO":"２１號","E_COORD97":178616.97,"N_COORD97":2540296.6800000002,"ADDRESS":"忠孝南路１３９巷２１號","OBJECTID":288163},"geometry":{"x":178616.97000000067,"y":2540296.6800000034}},{"attributes":{"ID":288170,"DIS_CODE":0,"TOWNNAME":"歸仁區","LI":"崙頂里","LIN":"10鄰","STREET":"成功路","SECT":"二段","MAREA":" ","LANE":"８８巷","ALLEY":" ","HOUSE_NO":"１９號","E_COORD97":178025.84,"N_COORD97":2539806.25,"ADDRESS":"成功路二段８８巷１９號","OBJECTID":288164},"geometry":{"x":178025.83999999985,"y":2539806.2500000019}},{"attributes":{"ID":288171,"DIS_CODE":0,"TOWNNAME":"北區","LI":"永祥里","LIN":"10鄰","STREET":"實踐街","SECT":" ","MAREA":" ","LANE":"７１巷","ALLEY":" ","HOUSE_NO":"５４號","E_COORD97":169967.73999999999,"N_COORD97":2546179.5800000001,"ADDRESS":"實踐街７１巷５４號","OBJECTID":288165},"geometry":{"x":169967.74000000022,"y":2546179.5800000001}},{"attributes":{"ID":288172,"DIS_CODE":0,"TOWNNAME":"中西區","LI":"中正里","LIN":"10鄰","STREET":"正德街","SECT":" ","MAREA":" ","LANE":" ","ALLEY":" ","HOUSE_NO":"５２號","E_COORD97":167540.25,"N_COORD97":2543911.5499999998,"ADDRESS":"正德街５２號","OBJECTID":288166},"geometry":{"x":167540.25000000186,"y":2543911.5500000007}},{"attributes":{"ID":288173,"DIS_CODE":0,"TOWNNAME":"中西區","LI":"民生里","LIN":"9鄰","STREET":"南華街","SECT":" ","MAREA":" ","LANE":" ","ALLEY":" ","HOUSE_NO":"３２號","E_COORD97":167099.85000000001,"N_COORD97":2543365.6099999999,"ADDRESS":"南華街３２號","OBJECTID":288167},"geometry":{"x":167099.84999999963,"y":2543365.6100000013}},{"attributes":{"ID":288174,"DIS_CODE":0,"TOWNNAME":"中西區","LI":"三合里","LIN":"11鄰","STREET":"文賢路","SECT":" ","MAREA":" ","LANE":" ","ALLEY":" ","HOUSE_NO":"１４號","E_COORD97":167466.72,"N_COORD97":2544457.6800000002,"ADDRESS":"文賢路１４號","OBJECTID":288168},"geometry":{"x":167466.71999999974,"y":2544457.6800000016}},{"attributes":{"ID":288175,"DIS_CODE":0,"TOWNNAME":"中西區","LI":"三合里","LIN":"11鄰","STREET":"文賢路","SECT":" ","MAREA":" ","LANE":" ","ALLEY":" ","HOUSE_NO":"１６號","E_COORD97":167463.64999999999,"N_COORD97":2544461.1600000001,"ADDRESS":"文賢路１６號","OBJECTID":288169},"geometry":{"x":167463.6500000013,"y":2544461.160000002}},{"attributes":{"ID":288176,"DIS_CODE":0,"TOWNNAME":"中西區","LI":"三合里","LIN":"11鄰","STREET":"文賢路","SECT":" ","MAREA":" ","LANE":" ","ALLEY":" ","HOUSE_NO":"１８號","E_COORD97":167463.45000000001,"N_COORD97":2544466.0899999999,"ADDRESS":"文賢路１８號","OBJECTID":288170},"geometry":{"x":167463.45000000112,"y":2544466.0899999999}},{"attributes":{"ID":288177,"DIS_CODE":0,"TOWNNAME":"北區","LI":"永祥里","LIN":"10鄰","STREET":"實踐街","SECT":" ","MAREA":" ","LANE":"７１巷","ALLEY":" ","HOUSE_NO":"５８號","E_COORD97":169972.70999999999,"N_COORD97":2546187.6800000002,"ADDRESS":"實踐街７１巷５８號","OBJECTID":288171},"geometry":{"x":169972.70999999996,"y":2546187.6799999997}},{"attributes":{"ID":288178,"DIS_CODE":0,"TOWNNAME":"北區","LI":"永祥里","LIN":"10鄰","STREET":"實踐街","SECT":" ","MAREA":" ","LANE":"７１巷","ALLEY":" ","HOUSE_NO":"６０號","E_COORD97":169972.5,"N_COORD97":2546191.96,"ADDRESS":"實踐街７１巷６０號","OBJECTID":288172},"geometry":{"x":169972.5,"y":2546191.9600000046}},{"attributes":{"ID":288179,"DIS_CODE":0,"TOWNNAME":"北區","LI":"永祥里","LIN":"10鄰","STREET":"實踐街","SECT":" ","MAREA":" ","LANE":"７１巷","ALLEY":" ","HOUSE_NO":"６２號","E_COORD97":169973.60000000001,"N_COORD97":2546197.5899999999,"ADDRESS":"實踐街７１巷６２號","OBJECTID":288173},"geometry":{"x":169973.60000000149,"y":2546197.5900000017}},{"attributes":{"ID":288180,"DIS_CODE":0,"TOWNNAME":"北區","LI":"永祥里","LIN":"10鄰","STREET":"實踐街","SECT":" ","MAREA":" ","LANE":"７１巷","ALLEY":" ","HOUSE_NO":"６４號","E_COORD97":169974.76999999999,"N_COORD97":2546202.2200000002,"ADDRESS":"實踐街７１巷６４號","OBJECTID":288174},"geometry":{"x":169974.77000000048,"y":2546202.2200000007}},{"attributes":{"ID":288181,"DIS_CODE":0,"TOWNNAME":"北區","LI":"永祥里","LIN":"10鄰","STREET":"實踐街","SECT":" ","MAREA":" ","LANE":"７１巷","ALLEY":" ","HOUSE_NO":"６６號","E_COORD97":169976.34,"N_COORD97":2546205.8199999998,"ADDRESS":"實踐街７１巷６６號","OBJECTID":288175},"geometry":{"x":169976.34000000078,"y":2546205.820000004}},{"attributes":{"ID":288182,"DIS_CODE":0,"TOWNNAME":"北區","LI":"永祥里","LIN":"10鄰","STREET":"實踐街","SECT":" ","MAREA":" ","LANE":"７１巷","ALLEY":" ","HOUSE_NO":"６８號","E_COORD97":169973.04999999999,"N_COORD97":2546209.8100000001,"ADDRESS":"實踐街７１巷６８號","OBJECTID":288176},"geometry":{"x":169973.05000000075,"y":2546209.8100000024}},{"attributes":{"ID":288183,"DIS_CODE":0,"TOWNNAME":"北區","LI":"永祥里","LIN":"10鄰","STREET":"實踐街","SECT":" ","MAREA":" ","LANE":"７１巷","ALLEY":" ","HOUSE_NO":"７０號","E_COORD97":169976.03,"N_COORD97":2546213.2200000002,"ADDRESS":"實踐街７１巷７０號","OBJECTID":288177},"geometry":{"x":169976.03000000026,"y":2546213.2200000007}},{"attributes":{"ID":288184,"DIS_CODE":0,"TOWNNAME":"北區","LI":"永祥里","LIN":"10鄰","STREET":"實踐街","SECT":" ","MAREA":" ","LANE":"７１巷","ALLEY":" ","HOUSE_NO":"７２號地下層","E_COORD97":169981.67000000001,"N_COORD97":2546217.3300000001,"ADDRESS":"實踐街７１巷７２號地下層","OBJECTID":288178},"geometry":{"x":169981.66999999993,"y":2546217.3300000019}},{"attributes":{"ID":288185,"DIS_CODE":0,"TOWNNAME":"北區","LI":"永祥里","LIN":"10鄰","STREET":"實踐街","SECT":" ","MAREA":" ","LANE":"７１巷","ALLEY":" ","HOUSE_NO":"７４號","E_COORD97":169980.29999999999,"N_COORD97":2546227.9700000002,"ADDRESS":"實踐街７１巷７４號","OBJECTID":288179},"geometry":{"x":169980.29999999981,"y":2546227.9700000007}},{"attributes":{"ID":288186,"DIS_CODE":0,"TOWNNAME":"仁德區","LI":"太子里","LIN":"28鄰","STREET":"太子五街","SECT":" ","MAREA":" ","LANE":" ","ALLEY":" ","HOUSE_NO":"２４號","E_COORD97":173047.70774000001,"N_COORD97":2543171.8714399999,"ADDRESS":"太子五街２４號","OBJECTID":288180},"geometry":{"x":173047.70774000138,"y":2543171.8714400027}},{"attributes":{"ID":288187,"DIS_CODE":0,"TOWNNAME":"北區","LI":"永祥里","LIN":"10鄰","STREET":"實踐街","SECT":" ","MAREA":" ","LANE":"７１巷","ALLEY":" ","HOUSE_NO":"７６號","E_COORD97":169981.60000000001,"N_COORD97":2546231.25,"ADDRESS":"實踐街７１巷７６號","OBJECTID":288181},"geometry":{"x":169981.59999999963,"y":2546231.2500000019}},{"attributes":{"ID":288188,"DIS_CODE":0,"TOWNNAME":"北區","LI":"永祥里","LIN":"10鄰","STREET":"實踐街","SECT":" ","MAREA":" ","LANE":"７１巷","ALLEY":" ","HOUSE_NO":"７８號","E_COORD97":169982.63,"N_COORD97":2546234.4300000002,"ADDRESS":"實踐街７１巷７８號","OBJECTID":288182},"geometry":{"x":169982.63000000082,"y":2546234.4299999997}},{"attributes":{"ID":288189,"DIS_CODE":0,"TOWNNAME":"北區","LI":"永祥里","LIN":"10鄰","STREET":"實踐街","SECT":" ","MAREA":" ","LANE":"７１巷","ALLEY":" ","HOUSE_NO":"８０號","E_COORD97":169983.67000000001,"N_COORD97":2546237.71,"ADDRESS":"實踐街７１巷８０號","OBJECTID":288183},"geometry":{"x":169983.67000000179,"y":2546237.7100000046}},{"attributes":{"ID":288190,"DIS_CODE":0,"TOWNNAME":"中西區","LI":"三合里","LIN":"11鄰","STREET":"文賢路","SECT":" ","MAREA":" ","LANE":" ","ALLEY":" ","HOUSE_NO":"２０號","E_COORD97":167460.38,"N_COORD97":2544468.7400000002,"ADDRESS":"文賢路２０號","OBJECTID":288184},"geometry":{"x":167460.38000000082,"y":2544468.7400000002}},{"attributes":{"ID":288191,"DIS_CODE":0,"TOWNNAME":"中西區","LI":"三合里","LIN":"11鄰","STREET":"文賢路","SECT":" ","MAREA":" ","LANE":" ","ALLEY":" ","HOUSE_NO":"２２號","E_COORD97":167458.13,"N_COORD97":2544471.8100000001,"ADDRESS":"文賢路２２號","OBJECTID":288185},"geometry":{"x":167458.13000000082,"y":2544471.8100000024}},{"attributes":{"ID":288192,"DIS_CODE":0,"TOWNNAME":"中西區","LI":"三合里","LIN":"11鄰","STREET":"文賢路","SECT":" ","MAREA":" ","LANE":" ","ALLEY":" ","HOUSE_NO":"２４號","E_COORD97":167455.06,"N_COORD97":2544474.0499999998,"ADDRESS":"文賢路２４號","OBJECTID":288186},"geometry":{"x":167455.06000000052,"y":2544474.0500000007}},{"attributes":{"ID":288193,"DIS_CODE":0,"TOWNNAME":"北區","LI":"永祥里","LIN":"10鄰","STREET":"實踐街","SECT":" ","MAREA":" ","LANE":"７１巷","ALLEY":" ","HOUSE_NO":"８２號","E_COORD97":169984.70000000001,"N_COORD97":2546241.1499999999,"ADDRESS":"實踐街７１巷８２號","OBJECTID":288187},"geometry":{"x":169984.70000000019,"y":2546241.1500000041}},{"attributes":{"ID":288194,"DIS_CODE":0,"TOWNNAME":"北區","LI":"永祥里","LIN":"10鄰","STREET":"實踐街","SECT":" ","MAREA":" ","LANE":"７１巷","ALLEY":" ","HOUSE_NO":"８４號","E_COORD97":169985.56,"N_COORD97":2546244.25,"ADDRESS":"實踐街７１巷８４號","OBJECTID":288188},"geometry":{"x":169985.55999999866,"y":2546244.2500000019}},{"attributes":{"ID":288195,"DIS_CODE":0,"TOWNNAME":"北區","LI":"永祥里","LIN":"10鄰","STREET":"實踐街","SECT":" ","MAREA":" ","LANE":"７１巷","ALLEY":" ","HOUSE_NO":"８６號","E_COORD97":169986.67999999999,"N_COORD97":2546247.1000000001,"ADDRESS":"實踐街７１巷８６號","OBJECTID":288189},"geometry":{"x":169986.68000000156,"y":2546247.0999999978}},{"attributes":{"ID":288196,"DIS_CODE":0,"TOWNNAME":"北區","LI":"永祥里","LIN":"10鄰","STREET":"實踐街","SECT":" ","MAREA":" ","LANE":"７１巷","ALLEY":" ","HOUSE_NO":"９０號","E_COORD97":169987.82999999999,"N_COORD97":2546258.8500000001,"ADDRESS":"實踐街７１巷９０號","OBJECTID":288190},"geometry":{"x":169987.83000000194,"y":2546258.8499999996}},{"attributes":{"ID":288197,"DIS_CODE":0,"TOWNNAME":"北區","LI":"永祥里","LIN":"10鄰","STREET":"實踐街","SECT":" ","MAREA":" ","LANE":"７１巷","ALLEY":" ","HOUSE_NO":"９２號","E_COORD97":169989.20000000001,"N_COORD97":2546272.3399999999,"ADDRESS":"實踐街７１巷９２號","OBJECTID":288191},"geometry":{"x":169989.20000000112,"y":2546272.3399999999}},{"attributes":{"ID":288198,"DIS_CODE":0,"TOWNNAME":"北區","LI":"永祥里","LIN":"10鄰","STREET":"實踐街","SECT":" ","MAREA":" ","LANE":"７１巷","ALLEY":" ","HOUSE_NO":"９４號","E_COORD97":169990.23000000001,"N_COORD97":2546275.9500000002,"ADDRESS":"實踐街７１巷９４號","OBJECTID":288192},"geometry":{"x":169990.23000000045,"y":2546275.9500000011}},{"attributes":{"ID":288199,"DIS_CODE":0,"TOWNNAME":"北區","LI":"永祥里","LIN":"10鄰","STREET":"實踐街","SECT":" ","MAREA":" ","LANE":"７１巷","ALLEY":" ","HOUSE_NO":"９６號","E_COORD97":169991.26999999999,"N_COORD97":2546279.8300000001,"ADDRESS":"實踐街７１巷９６號","OBJECTID":288193},"geometry":{"x":169991.27000000048,"y":2546279.8299999982}},{"attributes":{"ID":288200,"DIS_CODE":0,"TOWNNAME":"北區","LI":"永祥里","LIN":"10鄰","STREET":"實踐街","SECT":" ","MAREA":" ","LANE":"７１巷","ALLEY":" ","HOUSE_NO":"９８號","E_COORD97":169992.29999999999,"N_COORD97":2546283.5299999998,"ADDRESS":"實踐街７１巷９８號","OBJECTID":288194},"geometry":{"x":169992.29999999981,"y":2546283.5299999993}},{"attributes":{"ID":288201,"DIS_CODE":0,"TOWNNAME":"安平區","LI":"怡平里","LIN":"10鄰","STREET":"永華六街","SECT":" ","MAREA":" ","LANE":"２０６巷","ALLEY":" ","HOUSE_NO":"１５號","E_COORD97":165712.39000000001,"N_COORD97":2544131.46,"ADDRESS":"永華六街２０６巷１５號","OBJECTID":288195},"geometry":{"x":165712.3900000006,"y":2544131.4600000028}},{"attributes":{"ID":288202,"DIS_CODE":0,"TOWNNAME":"安平區","LI":"怡平里","LIN":"10鄰","STREET":"永華六街","SECT":" ","MAREA":" ","LANE":"２０６巷","ALLEY":" ","HOUSE_NO":"１３號","E_COORD97":165703.63,"N_COORD97":2544130.9500000002,"ADDRESS":"永華六街２０６巷１３號","OBJECTID":288196},"geometry":{"x":165703.63000000082,"y":2544130.9499999993}},{"attributes":{"ID":288203,"DIS_CODE":0,"TOWNNAME":"安平區","LI":"平通里","LIN":"10鄰","STREET":"育平九街","SECT":" ","MAREA":" ","LANE":"２４６巷","ALLEY":" ","HOUSE_NO":"３９號","E_COORD97":164899.174355,"N_COORD97":2544113.7434800002,"ADDRESS":"育平九街２４６巷３９號","OBJECTID":288197},"geometry":{"x":164899.17435500026,"y":2544113.7434800044}},{"attributes":{"ID":288204,"DIS_CODE":0,"TOWNNAME":"中西區","LI":"三合里","LIN":"11鄰","STREET":"文賢路","SECT":" ","MAREA":" ","LANE":" ","ALLEY":" ","HOUSE_NO":"２６號","E_COORD97":167453.22,"N_COORD97":2544476.71,"ADDRESS":"文賢路２６號","OBJECTID":288198},"geometry":{"x":167453.21999999974,"y":2544476.7100000009}},{"attributes":{"ID":288205,"DIS_CODE":0,"TOWNNAME":"中西區","LI":"三合里","LIN":"11鄰","STREET":"文賢路","SECT":" ","MAREA":" ","LANE":" ","ALLEY":" ","HOUSE_NO":"２８號","E_COORD97":167450.16,"N_COORD97":2544479.1600000001,"ADDRESS":"文賢路２８號","OBJECTID":288199},"geometry":{"x":167450.16000000108,"y":2544479.160000002}},{"attributes":{"ID":288206,"DIS_CODE":0,"TOWNNAME":"中西區","LI":"中正里","LIN":"11鄰","STREET":"民生路","SECT":"二段","MAREA":" ","LANE":" ","ALLEY":" ","HOUSE_NO":"１１３號","E_COORD97":167604.98000000001,"N_COORD97":2543985.3700000001,"ADDRESS":"民生路二段１１３號","OBJECTID":288200},"geometry":{"x":167604.98000000045,"y":2543985.3699999992}}]}