{"displayFieldName":"TOWNNAME","fieldAliases":{"ID":"ID","DIS_CODE":"DIS_CODE","TOWNNAME":"TOWNNAME","LI":"LI","LIN":"LIN","STREET":"STREET","SECT":"SECT","MAREA":"MAREA","LANE":"LANE","ALLEY":"ALLEY","HOUSE_NO":"HOUSE_NO","E_COORD97":"E_COORD97","N_COORD97":"N_COORD97","ADDRESS":"ADDRESS","OBJECTID":"OBJECTID"},"geometryType":"esriGeometryPoint","spatialReference":{"wkid":102443,"latestWkid":3826},"fields":[{"name":"ID","type":"esriFieldTypeDouble","alias":"ID"},{"name":"DIS_CODE","type":"esriFieldTypeInteger","alias":"DIS_CODE"},{"name":"TOWNNAME","type":"esriFieldTypeString","alias":"TOWNNAME","length":8},{"name":"LI","type":"esriFieldTypeString","alias":"LI","length":8},{"name":"LIN","type":"esriFieldTypeString","alias":"LIN","length":12},{"name":"STREET","type":"esriFieldTypeString","alias":"STREET","length":20},{"name":"SECT","type":"esriFieldTypeString","alias":"SECT","length":8},{"name":"MAREA","type":"esriFieldTypeString","alias":"MAREA","length":12},{"name":"LANE","type":"esriFieldTypeString","alias":"LANE","length":10},{"name":"ALLEY","type":"esriFieldTypeString","alias":"ALLEY","length":10},{"name":"HOUSE_NO","type":"esriFieldTypeString","alias":"HOUSE_NO","length":20},{"name":"E_COORD97","type":"esriFieldTypeDouble","alias":"E_COORD97"},{"name":"N_COORD97","type":"esriFieldTypeDouble","alias":"N_COORD97"},{"name":"ADDRESS","type":"esriFieldTypeString","alias":"ADDRESS","length":50},{"name":"OBJECTID","type":"esriFieldTypeOID","alias":"OBJECTID"}],"features":[{"attributes":{"ID":234205,"DIS_CODE":0,"TOWNNAME":"麻豆區","LI":"保安里","LIN":"14鄰","STREET":"興中路","SECT":" ","MAREA":" ","LANE":" ","ALLEY":" ","HOUSE_NO":"１０６號之６","E_COORD97":173342.26999999999,"N_COORD97":2564781.2599999998,"ADDRESS":"興中路１０６號之６","OBJECTID":234201},"geometry":{"x":173342.27000000142,"y":2564781.2599999998}},{"attributes":{"ID":234206,"DIS_CODE":0,"TOWNNAME":"鹽水區","LI":"岸內里","LIN":"16鄰","STREET":"北門路","SECT":" ","MAREA":" ","LANE":"１巷","ALLEY":" ","HOUSE_NO":"５５號","E_COORD97":175095.79999999999,"N_COORD97":2580331.7999999998,"ADDRESS":"北門路１巷５５號","OBJECTID":234202},"geometry":{"x":175095.80000000075,"y":2580331.8000000026}},{"attributes":{"ID":234207,"DIS_CODE":0,"TOWNNAME":"鹽水區","LI":"岸內里","LIN":"16鄰","STREET":"北門路","SECT":" ","MAREA":" ","LANE":"１巷","ALLEY":" ","HOUSE_NO":"５７號","E_COORD97":175101.10000000001,"N_COORD97":2580332.02,"ADDRESS":"北門路１巷５７號","OBJECTID":234203},"geometry":{"x":175101.09999999963,"y":2580332.0200000014}},{"attributes":{"ID":234208,"DIS_CODE":0,"TOWNNAME":"關廟區","LI":"松腳里","LIN":"16鄰","STREET":"民族街","SECT":" ","MAREA":" ","LANE":"１６巷","ALLEY":" ","HOUSE_NO":"２６號","E_COORD97":181641.48999999999,"N_COORD97":2539825.29,"ADDRESS":"民族街１６巷２６號","OBJECTID":234204},"geometry":{"x":181641.49000000115,"y":2539825.290000001}},{"attributes":{"ID":234209,"DIS_CODE":0,"TOWNNAME":"關廟區","LI":"松腳里","LIN":"16鄰","STREET":"民族街","SECT":" ","MAREA":" ","LANE":"１６巷","ALLEY":" ","HOUSE_NO":"２０號","E_COORD97":181641.09,"N_COORD97":2539818.29,"ADDRESS":"民族街１６巷２０號","OBJECTID":234205},"geometry":{"x":181641.08999999985,"y":2539818.290000001}},{"attributes":{"ID":234210,"DIS_CODE":0,"TOWNNAME":"關廟區","LI":"山西里","LIN":"16鄰","STREET":"中正路","SECT":" ","MAREA":" ","LANE":"１０１０巷","ALLEY":" ","HOUSE_NO":"９號","E_COORD97":180999.81,"N_COORD97":2540387.25,"ADDRESS":"中正路１０１０巷９號","OBJECTID":234206},"geometry":{"x":180999.81000000052,"y":2540387.25}},{"attributes":{"ID":234211,"DIS_CODE":0,"TOWNNAME":"安南區","LI":"州南里","LIN":"4鄰","STREET":"安和路","SECT":"四段","MAREA":" ","LANE":"５３７巷","ALLEY":" ","HOUSE_NO":"４８號","E_COORD97":169891.57999999999,"N_COORD97":2551388.2599999998,"ADDRESS":"安和路四段５３７巷４８號","OBJECTID":234207},"geometry":{"x":169891.58000000101,"y":2551388.2599999998}},{"attributes":{"ID":234212,"DIS_CODE":0,"TOWNNAME":"安南區","LI":"佃東里","LIN":" ","STREET":"公學路","SECT":"四段","MAREA":" ","LANE":"１２６巷","ALLEY":" ","HOUSE_NO":"５３號","E_COORD97":165455.45999999999,"N_COORD97":2551981.1699999999,"ADDRESS":"公學路四段１２６巷５３號","OBJECTID":234208},"geometry":{"x":165455.46000000183,"y":2551981.1700000018}},{"attributes":{"ID":234213,"DIS_CODE":0,"TOWNNAME":"安南區","LI":"佃東里","LIN":" ","STREET":"公學路","SECT":"四段","MAREA":" ","LANE":"９３巷","ALLEY":" ","HOUSE_NO":"６號","E_COORD97":165670.34,"N_COORD97":2552072.2200000002,"ADDRESS":"公學路四段９３巷６號","OBJECTID":234209},"geometry":{"x":165670.34000000078,"y":2552072.2200000044}},{"attributes":{"ID":234214,"DIS_CODE":0,"TOWNNAME":"安南區","LI":"佃東里","LIN":" ","STREET":"公學路","SECT":"四段","MAREA":" ","LANE":"５４巷","ALLEY":" ","HOUSE_NO":"１５號","E_COORD97":165794.07000000001,"N_COORD97":2552108.2599999998,"ADDRESS":"公學路四段５４巷１５號","OBJECTID":234210},"geometry":{"x":165794.07000000216,"y":2552108.2600000035}},{"attributes":{"ID":234215,"DIS_CODE":0,"TOWNNAME":"安南區","LI":"佃東里","LIN":" ","STREET":"海佃路","SECT":" ","MAREA":" ","LANE":"３８８巷","ALLEY":" ","HOUSE_NO":"８０號","E_COORD97":165630.67000000001,"N_COORD97":2551699.9900000002,"ADDRESS":"海佃路３８８巷８０號","OBJECTID":234211},"geometry":{"x":165630.67000000086,"y":2551699.9900000002}},{"attributes":{"ID":234216,"DIS_CODE":0,"TOWNNAME":"安南區","LI":"州南里","LIN":"12鄰","STREET":"長和路","SECT":"二段","MAREA":" ","LANE":"１４６巷","ALLEY":" ","HOUSE_NO":"４３號","E_COORD97":170049.34,"N_COORD97":2551601.4199999999,"ADDRESS":"長和路二段１４６巷４３號","OBJECTID":234212},"geometry":{"x":170049.33999999985,"y":2551601.4199999999}},{"attributes":{"ID":234217,"DIS_CODE":0,"TOWNNAME":"安南區","LI":"州南里","LIN":" ","STREET":"長和路","SECT":"二段","MAREA":" ","LANE":"１８４巷","ALLEY":" ","HOUSE_NO":"７號","E_COORD97":169982.76000000001,"N_COORD97":2551541.6499999999,"ADDRESS":"長和路二段１８４巷７號","OBJECTID":234213},"geometry":{"x":169982.76000000164,"y":2551541.6500000022}},{"attributes":{"ID":234218,"DIS_CODE":0,"TOWNNAME":"安南區","LI":"州南里","LIN":" ","STREET":"長和路","SECT":"三段","MAREA":" ","LANE":"１８巷","ALLEY":" ","HOUSE_NO":"９號","E_COORD97":169889.12,"N_COORD97":2551539.3999999999,"ADDRESS":"長和路三段１８巷９號","OBJECTID":234214},"geometry":{"x":169889.12000000197,"y":2551539.4000000022}},{"attributes":{"ID":234219,"DIS_CODE":0,"TOWNNAME":"安南區","LI":"州南里","LIN":"10鄰","STREET":"長和路","SECT":"三段","MAREA":" ","LANE":"３８巷","ALLEY":" ","HOUSE_NO":"５號","E_COORD97":169861.920385,"N_COORD97":2551543.3324799999,"ADDRESS":"長和路三段３８巷５號","OBJECTID":234215},"geometry":{"x":169861.92038499936,"y":2551543.3324769996}},{"attributes":{"ID":234220,"DIS_CODE":0,"TOWNNAME":"安南區","LI":"佃東里","LIN":" ","STREET":"海佃路","SECT":" ","MAREA":" ","LANE":"３８８巷","ALLEY":" ","HOUSE_NO":"１１２號","E_COORD97":165612.23000000001,"N_COORD97":2551785.2000000002,"ADDRESS":"海佃路３８８巷１１２號","OBJECTID":234216},"geometry":{"x":165612.23000000138,"y":2551785.1999999993}},{"attributes":{"ID":234221,"DIS_CODE":0,"TOWNNAME":"東區","LI":"大同里","LIN":"14鄰","STREET":"府連路","SECT":" ","MAREA":" ","LANE":" ","ALLEY":" ","HOUSE_NO":"１６７號","E_COORD97":169215.17000000001,"N_COORD97":2542849.4199999999,"ADDRESS":"府連路１６７號","OBJECTID":234217},"geometry":{"x":169215.16999999993,"y":2542849.4200000018}},{"attributes":{"ID":234222,"DIS_CODE":0,"TOWNNAME":"東區","LI":"裕聖里","LIN":"14鄰","STREET":"裕信三街","SECT":" ","MAREA":" ","LANE":" ","ALLEY":" ","HOUSE_NO":"４９號","E_COORD97":172757.60999999999,"N_COORD97":2542482.5699999998,"ADDRESS":"裕信三街４９號","OBJECTID":234218},"geometry":{"x":172757.6099999994,"y":2542482.5700000022}},{"attributes":{"ID":234223,"DIS_CODE":0,"TOWNNAME":"東區","LI":"裕聖里","LIN":"14鄰","STREET":"裕信三街","SECT":" ","MAREA":" ","LANE":" ","ALLEY":" ","HOUSE_NO":"６１號","E_COORD97":172787.45000000001,"N_COORD97":2542479.3399999999,"ADDRESS":"裕信三街６１號","OBJECTID":234219},"geometry":{"x":172787.45000000205,"y":2542479.3400000036}},{"attributes":{"ID":234224,"DIS_CODE":0,"TOWNNAME":"東區","LI":"裕聖里","LIN":"14鄰","STREET":"裕信三街","SECT":" ","MAREA":" ","LANE":" ","ALLEY":" ","HOUSE_NO":"６３號","E_COORD97":172792.79999999999,"N_COORD97":2542482.98,"ADDRESS":"裕信三街６３號","OBJECTID":234220},"geometry":{"x":172792.79999999981,"y":2542482.9800000023}},{"attributes":{"ID":234225,"DIS_CODE":0,"TOWNNAME":"東區","LI":"裕聖里","LIN":"14鄰","STREET":"裕信三街","SECT":" ","MAREA":" ","LANE":" ","ALLEY":" ","HOUSE_NO":"６５號","E_COORD97":172797.73000000001,"N_COORD97":2542479.3399999999,"ADDRESS":"裕信三街６５號","OBJECTID":234221},"geometry":{"x":172797.73000000231,"y":2542479.3400000036}},{"attributes":{"ID":234226,"DIS_CODE":0,"TOWNNAME":"安南區","LI":"佃東里","LIN":"20鄰","STREET":"公學路","SECT":"四段","MAREA":" ","LANE":"５４巷","ALLEY":" ","HOUSE_NO":"９號","E_COORD97":165792.01999999999,"N_COORD97":2552094.3799999999,"ADDRESS":"公學路四段５４巷９號","OBJECTID":234222},"geometry":{"x":165792.02000000142,"y":2552094.3800000008}},{"attributes":{"ID":234227,"DIS_CODE":0,"TOWNNAME":"安南區","LI":"幸福里","LIN":" ","STREET":"府安路","SECT":"六段","MAREA":" ","LANE":"７１巷","ALLEY":" ","HOUSE_NO":"４０號","E_COORD97":166845.54999999999,"N_COORD97":2546702.9900000002,"ADDRESS":"府安路六段７１巷４０號","OBJECTID":234223},"geometry":{"x":166845.55000000075,"y":2546702.9900000039}},{"attributes":{"ID":234228,"DIS_CODE":0,"TOWNNAME":"安南區","LI":"佃東里","LIN":" ","STREET":"海佃路","SECT":" ","MAREA":" ","LANE":"３５０巷","ALLEY":" ","HOUSE_NO":"１號","E_COORD97":165621.70000000001,"N_COORD97":2551431.8100000001,"ADDRESS":"海佃路３５０巷１號","OBJECTID":234224},"geometry":{"x":165621.70000000019,"y":2551431.8100000024}},{"attributes":{"ID":234229,"DIS_CODE":0,"TOWNNAME":"安南區","LI":"幸福里","LIN":"20鄰","STREET":"海佃路","SECT":"一段","MAREA":" ","LANE":"９５巷","ALLEY":" ","HOUSE_NO":"１９號","E_COORD97":167094.42999999999,"N_COORD97":2546921.46,"ADDRESS":"海佃路一段９５巷１９號","OBJECTID":234225},"geometry":{"x":167094.4299999997,"y":2546921.4600000028}},{"attributes":{"ID":234230,"DIS_CODE":0,"TOWNNAME":"安南區","LI":"幸福里","LIN":"8鄰","STREET":"府安路","SECT":"六段","MAREA":" ","LANE":"１０３巷","ALLEY":" ","HOUSE_NO":"８６號","E_COORD97":166690.45000000001,"N_COORD97":2546725.6600000001,"ADDRESS":"府安路六段１０３巷８６號","OBJECTID":234226},"geometry":{"x":166690.45000000112,"y":2546725.6600000039}},{"attributes":{"ID":234231,"DIS_CODE":0,"TOWNNAME":"安南區","LI":"幸福里","LIN":"8鄰","STREET":"府安路","SECT":"六段","MAREA":" ","LANE":"１０３巷","ALLEY":" ","HOUSE_NO":"８８號","E_COORD97":166689.63,"N_COORD97":2546730.6400000001,"ADDRESS":"府安路六段１０３巷８８號","OBJECTID":234227},"geometry":{"x":166689.62999999989,"y":2546730.6400000025}},{"attributes":{"ID":234232,"DIS_CODE":0,"TOWNNAME":"安南區","LI":"幸福里","LIN":"7鄰","STREET":"府安路","SECT":"六段","MAREA":" ","LANE":"１０３巷","ALLEY":" ","HOUSE_NO":"１４０號","E_COORD97":166666.41,"N_COORD97":2546887.9900000002,"ADDRESS":"府安路六段１０３巷１４０號","OBJECTID":234228},"geometry":{"x":166666.41000000201,"y":2546887.9900000002}},{"attributes":{"ID":234233,"DIS_CODE":0,"TOWNNAME":"安南區","LI":"幸福里","LIN":"7鄰","STREET":"府安路","SECT":"六段","MAREA":" ","LANE":"１０３巷","ALLEY":" ","HOUSE_NO":"１４２號","E_COORD97":166666.17000000001,"N_COORD97":2546892,"ADDRESS":"府安路六段１０３巷１４２號","OBJECTID":234229},"geometry":{"x":166666.17000000179,"y":2546892}},{"attributes":{"ID":234234,"DIS_CODE":0,"TOWNNAME":"安南區","LI":"幸福里","LIN":"15鄰","STREET":"海佃路","SECT":"一段","MAREA":" ","LANE":"９５巷","ALLEY":" ","HOUSE_NO":"５１號","E_COORD97":166954.54000000001,"N_COORD97":2546869.8799999999,"ADDRESS":"海佃路一段９５巷５１號","OBJECTID":234230},"geometry":{"x":166954.54000000004,"y":2546869.8800000008}},{"attributes":{"ID":234235,"DIS_CODE":0,"TOWNNAME":"安南區","LI":"幸福里","LIN":"4鄰","STREET":"國安街","SECT":" ","MAREA":" ","LANE":"９１巷","ALLEY":" ","HOUSE_NO":"１２號","E_COORD97":166902.63,"N_COORD97":2546941.0800000001,"ADDRESS":"國安街９１巷１２號","OBJECTID":234231},"geometry":{"x":166902.63000000082,"y":2546941.0800000019}},{"attributes":{"ID":234236,"DIS_CODE":0,"TOWNNAME":"安南區","LI":"幸福里","LIN":" ","STREET":"國安街","SECT":" ","MAREA":" ","LANE":"９１巷","ALLEY":" ","HOUSE_NO":"２６號","E_COORD97":166908.62,"N_COORD97":2546906.2000000002,"ADDRESS":"國安街９１巷２６號","OBJECTID":234232},"geometry":{"x":166908.62000000011,"y":2546906.1999999993}},{"attributes":{"ID":234237,"DIS_CODE":0,"TOWNNAME":"安南區","LI":"幸福里","LIN":" ","STREET":"府安路","SECT":"六段","MAREA":" ","LANE":"２７巷","ALLEY":" ","HOUSE_NO":"３３號","E_COORD97":167014.09,"N_COORD97":2546786.4700000002,"ADDRESS":"府安路六段２７巷３３號","OBJECTID":234233},"geometry":{"x":167014.09000000171,"y":2546786.4700000025}},{"attributes":{"ID":234238,"DIS_CODE":0,"TOWNNAME":"安南區","LI":"幸福里","LIN":" ","STREET":"府安路","SECT":"六段","MAREA":" ","LANE":"９４巷","ALLEY":" ","HOUSE_NO":"３８之２號","E_COORD97":166749.32000000001,"N_COORD97":2546650.5499999998,"ADDRESS":"府安路六段９４巷３８之２號","OBJECTID":234234},"geometry":{"x":166749.32000000123,"y":2546650.5500000007}},{"attributes":{"ID":234239,"DIS_CODE":0,"TOWNNAME":"安南區","LI":"幸福里","LIN":" ","STREET":"府安路","SECT":"六段","MAREA":" ","LANE":"９４巷","ALLEY":" ","HOUSE_NO":"４０號","E_COORD97":166752.92000000001,"N_COORD97":2546638.5099999998,"ADDRESS":"府安路六段９４巷４０號","OBJECTID":234235},"geometry":{"x":166752.92000000086,"y":2546638.5100000016}},{"attributes":{"ID":234240,"DIS_CODE":0,"TOWNNAME":"安南區","LI":"幸福里","LIN":"13鄰","STREET":"府安路","SECT":"六段","MAREA":" ","LANE":"７１巷","ALLEY":" ","HOUSE_NO":"１２號","E_COORD97":166861,"N_COORD97":2546627.0899999999,"ADDRESS":"府安路六段７１巷１２號","OBJECTID":234236},"geometry":{"x":166861.00000000093,"y":2546627.089999998}},{"attributes":{"ID":234241,"DIS_CODE":0,"TOWNNAME":"安南區","LI":"南興里","LIN":" ","STREET":"安興街","SECT":" ","MAREA":" ","LANE":"４３５巷","ALLEY":" ","HOUSE_NO":"１２號","E_COORD97":163533.51000000001,"N_COORD97":2552296.6299999999,"ADDRESS":"安興街４３５巷１２號","OBJECTID":234237},"geometry":{"x":163533.50999999978,"y":2552296.629999999}},{"attributes":{"ID":234242,"DIS_CODE":0,"TOWNNAME":"安南區","LI":"南興里","LIN":" ","STREET":"安興街","SECT":" ","MAREA":" ","LANE":"４３５巷","ALLEY":" ","HOUSE_NO":"５７之１號","E_COORD97":163629.92000000001,"N_COORD97":2552190.0299999998,"ADDRESS":"安興街４３５巷５７之１號","OBJECTID":234238},"geometry":{"x":163629.92000000179,"y":2552190.0299999993}},{"attributes":{"ID":234243,"DIS_CODE":0,"TOWNNAME":"安南區","LI":"城北里","LIN":"10鄰","STREET":"安中路","SECT":"六段","MAREA":" ","LANE":"４２９巷","ALLEY":" ","HOUSE_NO":"３３號之１０","E_COORD97":161187.70000000001,"N_COORD97":2551154.3799999999,"ADDRESS":"安中路六段４２９巷３３號之１０","OBJECTID":234239},"geometry":{"x":161187.70000000112,"y":2551154.3800000008}},{"attributes":{"ID":234244,"DIS_CODE":0,"TOWNNAME":"關廟區","LI":"北勢里","LIN":"16鄰","STREET":"成功路","SECT":" ","MAREA":" ","LANE":" ","ALLEY":" ","HOUSE_NO":"３３２號","E_COORD97":181304.76999999999,"N_COORD97":2540545.27,"ADDRESS":"成功路３３２號","OBJECTID":234240},"geometry":{"x":181304.77000000142,"y":2540545.2699999996}},{"attributes":{"ID":234245,"DIS_CODE":0,"TOWNNAME":"關廟區","LI":"香洋里","LIN":"16鄰","STREET":"中央路","SECT":" ","MAREA":" ","LANE":"８２巷","ALLEY":" ","HOUSE_NO":"１３號","E_COORD97":181498.19,"N_COORD97":2540053.96,"ADDRESS":"中央路８２巷１３號","OBJECTID":234241},"geometry":{"x":181498.19000000134,"y":2540053.9600000009}},{"attributes":{"ID":234246,"DIS_CODE":0,"TOWNNAME":"關廟區","LI":"五甲里","LIN":"16鄰","STREET":"光復街","SECT":" ","MAREA":" ","LANE":"９１巷","ALLEY":" ","HOUSE_NO":"２號","E_COORD97":181499.39000000001,"N_COORD97":2539352.2799999998,"ADDRESS":"光復街９１巷２號","OBJECTID":234242},"geometry":{"x":181499.3900000006,"y":2539352.2799999993}},{"attributes":{"ID":234247,"DIS_CODE":0,"TOWNNAME":"東區","LI":"大福里","LIN":"6鄰","STREET":"立德八路","SECT":" ","MAREA":" ","LANE":"１４巷","ALLEY":" ","HOUSE_NO":"２３號","E_COORD97":169452.32000000001,"N_COORD97":2541807.0899999999,"ADDRESS":"立德八路１４巷２３號","OBJECTID":234243},"geometry":{"x":169452.32000000216,"y":2541807.0900000017}},{"attributes":{"ID":234248,"DIS_CODE":0,"TOWNNAME":"關廟區","LI":"五甲里","LIN":"16鄰","STREET":"光復街","SECT":" ","MAREA":" ","LANE":"９１巷","ALLEY":" ","HOUSE_NO":"２８號","E_COORD97":181462.64000000001,"N_COORD97":2539367.2799999998,"ADDRESS":"光復街９１巷２８號","OBJECTID":234244},"geometry":{"x":181462.63999999966,"y":2539367.2800000012}},{"attributes":{"ID":234249,"DIS_CODE":0,"TOWNNAME":"安南區","LI":"城北里","LIN":"8鄰","STREET":"安中路","SECT":"六段","MAREA":" ","LANE":"１巷","ALLEY":" ","HOUSE_NO":"３號","E_COORD97":161888.59,"N_COORD97":2551230.8700000001,"ADDRESS":"安中路六段１巷３號","OBJECTID":234245},"geometry":{"x":161888.59000000078,"y":2551230.8700000048}},{"attributes":{"ID":234250,"DIS_CODE":0,"TOWNNAME":"安南區","LI":"城北里","LIN":"8鄰","STREET":"安中路","SECT":"六段","MAREA":" ","LANE":"３５１巷","ALLEY":" ","HOUSE_NO":"２３號","E_COORD97":161218.31,"N_COORD97":2551228.9199999999,"ADDRESS":"安中路六段３５１巷２３號","OBJECTID":234246},"geometry":{"x":161218.31000000052,"y":2551228.9199999999}},{"attributes":{"ID":234251,"DIS_CODE":0,"TOWNNAME":"安南區","LI":"城西里","LIN":"4鄰","STREET":"城西街","SECT":"三段","MAREA":" ","LANE":"１０３０巷","ALLEY":" ","HOUSE_NO":"９號","E_COORD97":156020.84,"N_COORD97":2550833.5499999998,"ADDRESS":"城西街三段１０３０巷９號","OBJECTID":234247},"geometry":{"x":156020.84000000171,"y":2550833.5500000026}},{"attributes":{"ID":234252,"DIS_CODE":0,"TOWNNAME":"安南區","LI":"城西里","LIN":"4鄰","STREET":"城西街","SECT":"三段","MAREA":" ","LANE":"１１０５巷","ALLEY":" ","HOUSE_NO":"９９號","E_COORD97":155332.79000000001,"N_COORD97":2550408.6400000001,"ADDRESS":"城西街三段１１０５巷９９號","OBJECTID":234248},"geometry":{"x":155332.79000000004,"y":2550408.6400000025}},{"attributes":{"ID":234253,"DIS_CODE":0,"TOWNNAME":"安南區","LI":"城東里","LIN":" ","STREET":"城北路","SECT":" ","MAREA":" ","LANE":"２３４巷","ALLEY":" ","HOUSE_NO":"２４號","E_COORD97":161046.67000000001,"N_COORD97":2551856.7400000002,"ADDRESS":"城北路２３４巷２４號","OBJECTID":234249},"geometry":{"x":161046.67000000086,"y":2551856.7400000002}},{"attributes":{"ID":234254,"DIS_CODE":0,"TOWNNAME":"東區","LI":"裕聖里","LIN":"14鄰","STREET":"裕信三街","SECT":" ","MAREA":" ","LANE":" ","ALLEY":" ","HOUSE_NO":"６７號","E_COORD97":172802.44,"N_COORD97":2542482.98,"ADDRESS":"裕信三街６７號","OBJECTID":234250},"geometry":{"x":172802.44000000041,"y":2542482.9800000023}},{"attributes":{"ID":234255,"DIS_CODE":0,"TOWNNAME":"東區","LI":"裕聖里","LIN":"14鄰","STREET":"裕信三街","SECT":" ","MAREA":" ","LANE":" ","ALLEY":" ","HOUSE_NO":"６９號","E_COORD97":172807.37,"N_COORD97":2542479.3399999999,"ADDRESS":"裕信三街６９號","OBJECTID":234251},"geometry":{"x":172807.37000000104,"y":2542479.3400000036}},{"attributes":{"ID":234256,"DIS_CODE":0,"TOWNNAME":"東區","LI":"裕聖里","LIN":"14鄰","STREET":"裕信三街","SECT":" ","MAREA":" ","LANE":" ","ALLEY":" ","HOUSE_NO":"７１號","E_COORD97":172813.79000000001,"N_COORD97":2542482.98,"ADDRESS":"裕信三街７１號","OBJECTID":234252},"geometry":{"x":172813.7900000019,"y":2542482.9800000023}},{"attributes":{"ID":234257,"DIS_CODE":0,"TOWNNAME":"東區","LI":"裕聖里","LIN":"14鄰","STREET":"裕信三街","SECT":" ","MAREA":" ","LANE":" ","ALLEY":" ","HOUSE_NO":"７８號","E_COORD97":172808.98999999999,"N_COORD97":2542456.4300000002,"ADDRESS":"裕信三街７８號","OBJECTID":234253},"geometry":{"x":172808.99000000022,"y":2542456.4299999997}},{"attributes":{"ID":234258,"DIS_CODE":0,"TOWNNAME":"麻豆區","LI":"新建里","LIN":"1鄰","STREET":"中山路","SECT":" ","MAREA":" ","LANE":" ","ALLEY":" ","HOUSE_NO":"１４７號","E_COORD97":172681.47,"N_COORD97":2564811.0899999999,"ADDRESS":"中山路１４７號","OBJECTID":234254},"geometry":{"x":172681.46999999974,"y":2564811.0900000017}},{"attributes":{"ID":234259,"DIS_CODE":0,"TOWNNAME":"安定區","LI":"蘇厝里","LIN":"4鄰","STREET":" ","SECT":" ","MAREA":"蘇厝","LANE":" ","ALLEY":" ","HOUSE_NO":"３０８號","E_COORD97":173175.32000000001,"N_COORD97":2558585.25,"ADDRESS":"蘇厝３０８號","OBJECTID":234255},"geometry":{"x":173175.32000000123,"y":2558585.2500000019}},{"attributes":{"ID":234260,"DIS_CODE":0,"TOWNNAME":"東區","LI":"崇德里","LIN":"23鄰","STREET":"崇德路","SECT":" ","MAREA":" ","LANE":"５３０巷","ALLEY":" ","HOUSE_NO":"５０號","E_COORD97":170660.54000000001,"N_COORD97":2541524.8599999999,"ADDRESS":"崇德路５３０巷５０號","OBJECTID":234256},"geometry":{"x":170660.54000000004,"y":2541524.8599999994}},{"attributes":{"ID":234261,"DIS_CODE":0,"TOWNNAME":"關廟區","LI":"北勢里","LIN":"16鄰","STREET":"成功路","SECT":" ","MAREA":" ","LANE":"３２８巷","ALLEY":" ","HOUSE_NO":"７號","E_COORD97":181309.97,"N_COORD97":2540561.27,"ADDRESS":"成功路３２８巷７號","OBJECTID":234257},"geometry":{"x":181309.96999999974,"y":2540561.2700000014}},{"attributes":{"ID":234262,"DIS_CODE":0,"TOWNNAME":"關廟區","LI":"五甲里","LIN":"16鄰","STREET":"光復街","SECT":" ","MAREA":" ","LANE":"９３巷","ALLEY":" ","HOUSE_NO":"３號","E_COORD97":181491.39000000001,"N_COORD97":2539378.2799999998,"ADDRESS":"光復街９３巷３號","OBJECTID":234258},"geometry":{"x":181491.38999999966,"y":2539378.2800000012}},{"attributes":{"ID":234263,"DIS_CODE":0,"TOWNNAME":"關廟區","LI":"香洋里","LIN":"16鄰","STREET":"中央路","SECT":" ","MAREA":" ","LANE":"８２巷","ALLEY":" ","HOUSE_NO":"１１號","E_COORD97":181497.09,"N_COORD97":2540049.96,"ADDRESS":"中央路８２巷１１號","OBJECTID":234259},"geometry":{"x":181497.08999999985,"y":2540049.9600000028}},{"attributes":{"ID":234264,"DIS_CODE":0,"TOWNNAME":"關廟區","LI":"香洋里","LIN":"16鄰","STREET":"中央路","SECT":" ","MAREA":" ","LANE":"８２巷","ALLEY":" ","HOUSE_NO":"３５號","E_COORD97":181521.32999999999,"N_COORD97":2540122.04,"ADDRESS":"中央路８２巷３５號","OBJECTID":234260},"geometry":{"x":181521.33000000007,"y":2540122.040000001}},{"attributes":{"ID":234265,"DIS_CODE":0,"TOWNNAME":"安南區","LI":"城東里","LIN":" ","STREET":"城北路","SECT":" ","MAREA":" ","LANE":"２３４巷","ALLEY":" ","HOUSE_NO":"１８號","E_COORD97":161031.60000000001,"N_COORD97":2551863.5299999998,"ADDRESS":"城北路２３４巷１８號","OBJECTID":234261},"geometry":{"x":161031.60000000056,"y":2551863.5300000012}},{"attributes":{"ID":234266,"DIS_CODE":0,"TOWNNAME":"安南區","LI":"城南里","LIN":" ","STREET":"青砂街","SECT":"一段","MAREA":" ","LANE":"６５巷","ALLEY":" ","HOUSE_NO":"８號","E_COORD97":160564.79000000001,"N_COORD97":2551610.0699999998,"ADDRESS":"青砂街一段６５巷８號","OBJECTID":234262},"geometry":{"x":160564.79000000097,"y":2551610.0700000003}},{"attributes":{"ID":234267,"DIS_CODE":0,"TOWNNAME":"東山區","LI":"聖賢里","LIN":"16鄰","STREET":" ","SECT":" ","MAREA":"頂窩","LANE":" ","ALLEY":" ","HOUSE_NO":"１６號","E_COORD97":183270.70000000001,"N_COORD97":2578598.3900000001,"ADDRESS":"頂窩１６號","OBJECTID":234263},"geometry":{"x":183270.70000000112,"y":2578598.3900000025}},{"attributes":{"ID":234268,"DIS_CODE":0,"TOWNNAME":"安南區","LI":"城南里","LIN":" ","STREET":"城西街","SECT":"一段","MAREA":" ","LANE":"２４９巷","ALLEY":" ","HOUSE_NO":"７４號","E_COORD97":160381.64000000001,"N_COORD97":2551111.2599999998,"ADDRESS":"城西街一段２４９巷７４號","OBJECTID":234264},"geometry":{"x":160381.63999999966,"y":2551111.2599999979}},{"attributes":{"ID":234269,"DIS_CODE":0,"TOWNNAME":"安南區","LI":"城南里","LIN":" ","STREET":"城西街","SECT":"一段","MAREA":" ","LANE":"６１巷","ALLEY":" ","HOUSE_NO":"７６號之１","E_COORD97":160756.62,"N_COORD97":2551256.3599999999,"ADDRESS":"城西街一段６１巷７６號之１","OBJECTID":234265},"geometry":{"x":160756.62000000011,"y":2551256.3600000031}},{"attributes":{"ID":234270,"DIS_CODE":0,"TOWNNAME":"安南區","LI":"城南里","LIN":"4鄰","STREET":"城西街","SECT":"一段","MAREA":" ","LANE":"１８１巷","ALLEY":" ","HOUSE_NO":"１１號","E_COORD97":160527.79999999999,"N_COORD97":2551241.8399999999,"ADDRESS":"城西街一段１８１巷１１號","OBJECTID":234266},"geometry":{"x":160527.79999999981,"y":2551241.8399999999}},{"attributes":{"ID":234271,"DIS_CODE":0,"TOWNNAME":"安南區","LI":"城南里","LIN":" ","STREET":"城西街","SECT":"二段","MAREA":" ","LANE":"２６３巷","ALLEY":" ","HOUSE_NO":"４４號","E_COORD97":159682.26999999999,"N_COORD97":2550845,"ADDRESS":"城西街二段２６３巷４４號","OBJECTID":234267},"geometry":{"x":159682.26999999955,"y":2550845}},{"attributes":{"ID":234272,"DIS_CODE":0,"TOWNNAME":"安南區","LI":"砂崙里","LIN":" ","STREET":"青砂街","SECT":"一段","MAREA":" ","LANE":"６３３巷","ALLEY":" ","HOUSE_NO":"３９號","E_COORD97":159842.54999999999,"N_COORD97":2552704.21,"ADDRESS":"青砂街一段６３３巷３９號","OBJECTID":234268},"geometry":{"x":159842.55000000075,"y":2552704.2100000028}},{"attributes":{"ID":234273,"DIS_CODE":0,"TOWNNAME":"安南區","LI":"砂崙里","LIN":" ","STREET":"青砂街","SECT":"一段","MAREA":" ","LANE":"５７２巷","ALLEY":" ","HOUSE_NO":"１０８號","E_COORD97":160126.39000000001,"N_COORD97":2552851.9199999999,"ADDRESS":"青砂街一段５７２巷１０８號","OBJECTID":234269},"geometry":{"x":160126.3900000006,"y":2552851.9199999999}},{"attributes":{"ID":234274,"DIS_CODE":0,"TOWNNAME":"安南區","LI":"砂崙里","LIN":" ","STREET":"城北路","SECT":" ","MAREA":" ","LANE":"８７１巷","ALLEY":" ","HOUSE_NO":"１６號","E_COORD97":160869.41,"N_COORD97":2553312.7000000002,"ADDRESS":"城北路８７１巷１６號","OBJECTID":234270},"geometry":{"x":160869.41000000108,"y":2553312.7000000011}},{"attributes":{"ID":234275,"DIS_CODE":0,"TOWNNAME":"安南區","LI":"原佃里","LIN":" ","STREET":"本原街","SECT":"一段","MAREA":" ","LANE":"９７巷","ALLEY":" ","HOUSE_NO":"１０２號","E_COORD97":167889.23000000001,"N_COORD97":2550000.3399999999,"ADDRESS":"本原街一段９７巷１０２號","OBJECTID":234271},"geometry":{"x":167889.23000000138,"y":2550000.3400000017}},{"attributes":{"ID":234276,"DIS_CODE":0,"TOWNNAME":"安南區","LI":"原佃里","LIN":" ","STREET":"本原街","SECT":"一段","MAREA":" ","LANE":"１６７巷","ALLEY":" ","HOUSE_NO":"１４６號","E_COORD97":167671.45999999999,"N_COORD97":2550008.1299999999,"ADDRESS":"本原街一段１６７巷１４６號","OBJECTID":234272},"geometry":{"x":167671.46000000089,"y":2550008.129999999}},{"attributes":{"ID":234277,"DIS_CODE":0,"TOWNNAME":"安南區","LI":"原佃里","LIN":" ","STREET":"本原街","SECT":"一段","MAREA":" ","LANE":"１６７巷","ALLEY":" ","HOUSE_NO":"２號之１","E_COORD97":167822.44,"N_COORD97":2550114.3199999998,"ADDRESS":"本原街一段１６７巷２號之１","OBJECTID":234273},"geometry":{"x":167822.43999999948,"y":2550114.3200000003}},{"attributes":{"ID":234278,"DIS_CODE":0,"TOWNNAME":"下營區","LI":"新興里","LIN":"14鄰","STREET":"中山路","SECT":"一段","MAREA":" ","LANE":" ","ALLEY":" ","HOUSE_NO":"１８６號","E_COORD97":174772.22,"N_COORD97":2570587.9900000002,"ADDRESS":"中山路一段１８６號","OBJECTID":234274},"geometry":{"x":174772.22000000067,"y":2570587.9899999984}},{"attributes":{"ID":234279,"DIS_CODE":0,"TOWNNAME":"下營區","LI":"新興里","LIN":"14鄰","STREET":"中山路","SECT":"一段","MAREA":" ","LANE":" ","ALLEY":" ","HOUSE_NO":"１９０號","E_COORD97":174780.72,"N_COORD97":2570594.5099999998,"ADDRESS":"中山路一段１９０號","OBJECTID":234275},"geometry":{"x":174780.72000000067,"y":2570594.5100000035}},{"attributes":{"ID":234280,"DIS_CODE":0,"TOWNNAME":"下營區","LI":"新興里","LIN":"14鄰","STREET":"中山路","SECT":"一段","MAREA":" ","LANE":" ","ALLEY":" ","HOUSE_NO":"１９２號","E_COORD97":174784.85000000001,"N_COORD97":2570597.02,"ADDRESS":"中山路一段１９２號","OBJECTID":234276},"geometry":{"x":174784.85000000056,"y":2570597.0199999996}},{"attributes":{"ID":234281,"DIS_CODE":0,"TOWNNAME":"下營區","LI":"新興里","LIN":"14鄰","STREET":"中山路","SECT":"一段","MAREA":" ","LANE":" ","ALLEY":" ","HOUSE_NO":"１９６號","E_COORD97":174788.64999999999,"N_COORD97":2570598.54,"ADDRESS":"中山路一段１９６號","OBJECTID":234277},"geometry":{"x":174788.6500000013,"y":2570598.5399999991}},{"attributes":{"ID":234282,"DIS_CODE":0,"TOWNNAME":"下營區","LI":"新興里","LIN":"14鄰","STREET":"中山路","SECT":"一段","MAREA":" ","LANE":" ","ALLEY":" ","HOUSE_NO":"１９８號","E_COORD97":174792.23999999999,"N_COORD97":2570601.5800000001,"ADDRESS":"中山路一段１９８號","OBJECTID":234278},"geometry":{"x":174792.24000000022,"y":2570601.5800000019}},{"attributes":{"ID":234283,"DIS_CODE":0,"TOWNNAME":"新營區","LI":"土庫里","LIN":"16鄰","STREET":" ","SECT":" ","MAREA":"卯舍","LANE":" ","ALLEY":" ","HOUSE_NO":"７號","E_COORD97":181854.92999999999,"N_COORD97":2580092.3399999999,"ADDRESS":"卯舍７號","OBJECTID":234279},"geometry":{"x":181854.93000000063,"y":2580092.3400000017}},{"attributes":{"ID":234284,"DIS_CODE":0,"TOWNNAME":"東區","LI":"崇德里","LIN":"8鄰","STREET":"崇德七街","SECT":" ","MAREA":" ","LANE":"８巷","ALLEY":" ","HOUSE_NO":"５０號","E_COORD97":170884.20000000001,"N_COORD97":2541654.7799999998,"ADDRESS":"崇德七街８巷５０號","OBJECTID":234280},"geometry":{"x":170884.20000000112,"y":2541654.7799999993}},{"attributes":{"ID":234285,"DIS_CODE":0,"TOWNNAME":"關廟區","LI":"田中里","LIN":"7鄰","STREET":"中崙街","SECT":" ","MAREA":" ","LANE":"３２巷","ALLEY":" ","HOUSE_NO":"８號","E_COORD97":183414.98144199999,"N_COORD97":2533535.6113399998,"ADDRESS":"中崙街３２巷８號","OBJECTID":234281},"geometry":{"x":183414.98144199979,"y":2533535.6113350019}},{"attributes":{"ID":234286,"DIS_CODE":0,"TOWNNAME":"東區","LI":"崇德里","LIN":"8鄰","STREET":"崇德七街","SECT":" ","MAREA":" ","LANE":"８巷","ALLEY":" ","HOUSE_NO":"５２號","E_COORD97":170887.82000000001,"N_COORD97":2541655.3799999999,"ADDRESS":"崇德七街８巷５２號","OBJECTID":234282},"geometry":{"x":170887.8200000003,"y":2541655.3800000008}},{"attributes":{"ID":234287,"DIS_CODE":0,"TOWNNAME":"東區","LI":"大學里","LIN":"15鄰","STREET":"長榮路","SECT":"三段","MAREA":" ","LANE":"２４巷","ALLEY":" ","HOUSE_NO":"７號","E_COORD97":170237.52536599999,"N_COORD97":2543684.2704500002,"ADDRESS":"長榮路三段２４巷７號","OBJECTID":234283},"geometry":{"x":170237.52536600083,"y":2543684.2704510018}},{"attributes":{"ID":234288,"DIS_CODE":0,"TOWNNAME":"東區","LI":"大學里","LIN":"15鄰","STREET":"長榮路","SECT":"三段","MAREA":" ","LANE":"２４巷","ALLEY":" ","HOUSE_NO":"８號","E_COORD97":170231.69,"N_COORD97":2543675.4100000001,"ADDRESS":"長榮路三段２４巷８號","OBJECTID":234284},"geometry":{"x":170231.69000000134,"y":2543675.4100000001}},{"attributes":{"ID":234289,"DIS_CODE":0,"TOWNNAME":"安南區","LI":"城南里","LIN":"4鄰","STREET":"城西街","SECT":"一段","MAREA":" ","LANE":"６１巷","ALLEY":" ","HOUSE_NO":"１２０號","E_COORD97":160654.82999999999,"N_COORD97":2551219.73,"ADDRESS":"城西街一段６１巷１２０號","OBJECTID":234285},"geometry":{"x":160654.83000000101,"y":2551219.7300000004}},{"attributes":{"ID":234290,"DIS_CODE":0,"TOWNNAME":"安南區","LI":"新順里","LIN":"13鄰","STREET":"永安路","SECT":" ","MAREA":" ","LANE":"７１巷","ALLEY":" ","HOUSE_NO":"１６號","E_COORD97":170362.17000000001,"N_COORD97":2549490.4199999999,"ADDRESS":"永安路７１巷１６號","OBJECTID":234286},"geometry":{"x":170362.17000000086,"y":2549490.4200000018}},{"attributes":{"ID":234291,"DIS_CODE":0,"TOWNNAME":"安南區","LI":"安慶里","LIN":"14鄰","STREET":"安中路","SECT":"一段","MAREA":" ","LANE":"１１３巷","ALLEY":" ","HOUSE_NO":"２號之１","E_COORD97":168962.75,"N_COORD97":2548330.27,"ADDRESS":"安中路一段１１３巷２號之１","OBJECTID":234287},"geometry":{"x":168962.75000000093,"y":2548330.2699999996}},{"attributes":{"ID":234292,"DIS_CODE":0,"TOWNNAME":"安南區","LI":"頂安里","LIN":"18鄰","STREET":"怡安路","SECT":"一段","MAREA":" ","LANE":"４４７巷","ALLEY":" ","HOUSE_NO":"３４號","E_COORD97":168476.53,"N_COORD97":2549160.3500000001,"ADDRESS":"怡安路一段４４７巷３４號","OBJECTID":234288},"geometry":{"x":168476.53000000119,"y":2549160.3499999996}},{"attributes":{"ID":234293,"DIS_CODE":0,"TOWNNAME":"安南區","LI":"溪頂里","LIN":"25鄰","STREET":"郡安路","SECT":"四段","MAREA":" ","LANE":"１２０巷","ALLEY":" ","HOUSE_NO":"２２號","E_COORD97":168854.70000000001,"N_COORD97":2547540.54,"ADDRESS":"郡安路四段１２０巷２２號","OBJECTID":234289},"geometry":{"x":168854.70000000205,"y":2547540.540000001}},{"attributes":{"ID":234294,"DIS_CODE":0,"TOWNNAME":"安南區","LI":"溪東里","LIN":"4鄰","STREET":"府安路","SECT":"五段","MAREA":" ","LANE":"９８巷","ALLEY":" ","HOUSE_NO":"２４號","E_COORD97":168066.44,"N_COORD97":2547212.4900000002,"ADDRESS":"府安路五段９８巷２４號","OBJECTID":234290},"geometry":{"x":168066.44000000041,"y":2547212.4900000021}},{"attributes":{"ID":234295,"DIS_CODE":0,"TOWNNAME":"安南區","LI":"溪東里","LIN":"4鄰","STREET":"府安路","SECT":"五段","MAREA":" ","LANE":"９８巷","ALLEY":" ","HOUSE_NO":"２８號","E_COORD97":168064.66,"N_COORD97":2547223.1200000001,"ADDRESS":"府安路五段９８巷２８號","OBJECTID":234291},"geometry":{"x":168064.66000000015,"y":2547223.1200000029}},{"attributes":{"ID":234296,"DIS_CODE":0,"TOWNNAME":"安南區","LI":"溪東里","LIN":"4鄰","STREET":"府安路","SECT":"五段","MAREA":" ","LANE":"９８巷","ALLEY":" ","HOUSE_NO":"３６號","E_COORD97":168060.5,"N_COORD97":2547245.3300000001,"ADDRESS":"府安路五段９８巷３６號","OBJECTID":234292},"geometry":{"x":168060.5,"y":2547245.3300000001}},{"attributes":{"ID":234297,"DIS_CODE":0,"TOWNNAME":"安南區","LI":"溪墘里","LIN":"26鄰","STREET":"安寧街","SECT":" ","MAREA":" ","LANE":"６５巷","ALLEY":" ","HOUSE_NO":"２１號","E_COORD97":167336.72,"N_COORD97":2547009.1200000001,"ADDRESS":"安寧街６５巷２１號","OBJECTID":234293},"geometry":{"x":167336.71999999881,"y":2547009.1200000029}},{"attributes":{"ID":234298,"DIS_CODE":0,"TOWNNAME":"下營區","LI":"新興里","LIN":"14鄰","STREET":"中山路","SECT":"一段","MAREA":" ","LANE":" ","ALLEY":" ","HOUSE_NO":"２００號","E_COORD97":174796.39999999999,"N_COORD97":2570602.9199999999,"ADDRESS":"中山路一段２００號","OBJECTID":234294},"geometry":{"x":174796.40000000037,"y":2570602.9200000018}},{"attributes":{"ID":234299,"DIS_CODE":0,"TOWNNAME":"下營區","LI":"新興里","LIN":"14鄰","STREET":"中山路","SECT":"一段","MAREA":" ","LANE":" ","ALLEY":" ","HOUSE_NO":"２０２號","E_COORD97":174800.79999999999,"N_COORD97":2570603.96,"ADDRESS":"中山路一段２０２號","OBJECTID":234295},"geometry":{"x":174800.80000000075,"y":2570603.9600000028}},{"attributes":{"ID":234300,"DIS_CODE":0,"TOWNNAME":"下營區","LI":"新興里","LIN":"14鄰","STREET":"中山路","SECT":"一段","MAREA":" ","LANE":" ","ALLEY":" ","HOUSE_NO":"２０６號","E_COORD97":174806.59,"N_COORD97":2570605.4900000002,"ADDRESS":"中山路一段２０６號","OBJECTID":234296},"geometry":{"x":174806.58999999985,"y":2570605.4900000021}},{"attributes":{"ID":234301,"DIS_CODE":0,"TOWNNAME":"下營區","LI":"新興里","LIN":"14鄰","STREET":"中山路","SECT":"一段","MAREA":" ","LANE":" ","ALLEY":" ","HOUSE_NO":"２１０號","E_COORD97":174812.07000000001,"N_COORD97":2570607.2999999998,"ADDRESS":"中山路一段２１０號","OBJECTID":234297},"geometry":{"x":174812.0700000003,"y":2570607.3000000026}},{"attributes":{"ID":234302,"DIS_CODE":0,"TOWNNAME":"永康區","LI":"東灣里","LIN":" ","STREET":"南灣街","SECT":" ","MAREA":" ","LANE":"６０巷","ALLEY":" ","HOUSE_NO":"７號","E_COORD97":174526.5,"N_COORD97":2544961.75,"ADDRESS":"南灣街６０巷７號","OBJECTID":234298},"geometry":{"x":174526.50000000093,"y":2544961.7500000037}},{"attributes":{"ID":234303,"DIS_CODE":0,"TOWNNAME":"中西區","LI":"光賢里","LIN":"4鄰","STREET":"武聖路","SECT":" ","MAREA":" ","LANE":"４５巷","ALLEY":" ","HOUSE_NO":"１０號","E_COORD97":167187.98999999999,"N_COORD97":2545079.5499999998,"ADDRESS":"武聖路４５巷１０號","OBJECTID":234299},"geometry":{"x":167187.99000000209,"y":2545079.5500000026}},{"attributes":{"ID":234304,"DIS_CODE":0,"TOWNNAME":"中西區","LI":"光賢里","LIN":"4鄰","STREET":"武聖路","SECT":" ","MAREA":" ","LANE":"４５巷","ALLEY":" ","HOUSE_NO":"１２號","E_COORD97":167185.88,"N_COORD97":2545075.5299999998,"ADDRESS":"武聖路４５巷１２號","OBJECTID":234300},"geometry":{"x":167185.87999999989,"y":2545075.5300000012}},{"attributes":{"ID":234305,"DIS_CODE":0,"TOWNNAME":"中西區","LI":"光賢里","LIN":"4鄰","STREET":"武聖路","SECT":" ","MAREA":" ","LANE":"４５巷","ALLEY":" ","HOUSE_NO":"１４號","E_COORD97":167183.76000000001,"N_COORD97":2545071.29,"ADDRESS":"武聖路４５巷１４號","OBJECTID":234301},"geometry":{"x":167183.75999999978,"y":2545071.2899999991}},{"attributes":{"ID":234306,"DIS_CODE":0,"TOWNNAME":"中西區","LI":"光賢里","LIN":"4鄰","STREET":"武聖路","SECT":" ","MAREA":" ","LANE":"４５巷","ALLEY":" ","HOUSE_NO":"１８號","E_COORD97":167178.67999999999,"N_COORD97":2545061.98,"ADDRESS":"武聖路４５巷１８號","OBJECTID":234302},"geometry":{"x":167178.6799999997,"y":2545061.9800000004}},{"attributes":{"ID":234307,"DIS_CODE":0,"TOWNNAME":"中西區","LI":"光賢里","LIN":"4鄰","STREET":"武聖路","SECT":" ","MAREA":" ","LANE":"４５巷","ALLEY":" ","HOUSE_NO":"２０號","E_COORD97":167176.56,"N_COORD97":2545057.3199999998,"ADDRESS":"武聖路４５巷２０號","OBJECTID":234303},"geometry":{"x":167176.55999999959,"y":2545057.3200000022}},{"attributes":{"ID":234308,"DIS_CODE":0,"TOWNNAME":"中西區","LI":"光賢里","LIN":"4鄰","STREET":"武聖路","SECT":" ","MAREA":" ","LANE":"４５巷","ALLEY":" ","HOUSE_NO":"２２號","E_COORD97":167174.45000000001,"N_COORD97":2545053.0899999999,"ADDRESS":"武聖路４５巷２２號","OBJECTID":234304},"geometry":{"x":167174.45000000019,"y":2545053.0899999999}},{"attributes":{"ID":234309,"DIS_CODE":0,"TOWNNAME":"中西區","LI":"光賢里","LIN":"4鄰","STREET":"武聖路","SECT":" ","MAREA":" ","LANE":"４５巷","ALLEY":" ","HOUSE_NO":"８號","E_COORD97":167190.32000000001,"N_COORD97":2545083.3599999999,"ADDRESS":"武聖路４５巷８號","OBJECTID":234305},"geometry":{"x":167190.3200000003,"y":2545083.3600000013}},{"attributes":{"ID":234310,"DIS_CODE":0,"TOWNNAME":"中西區","LI":"光賢里","LIN":"4鄰","STREET":"武聖路","SECT":" ","MAREA":" ","LANE":"６９巷","ALLEY":" ","HOUSE_NO":"１１號","E_COORD97":167141.42999999999,"N_COORD97":2545082.9300000002,"ADDRESS":"武聖路６９巷１１號","OBJECTID":234306},"geometry":{"x":167141.4299999997,"y":2545082.9300000016}},{"attributes":{"ID":234311,"DIS_CODE":0,"TOWNNAME":"中西區","LI":"光賢里","LIN":"4鄰","STREET":"武聖路","SECT":" ","MAREA":" ","LANE":"６９巷","ALLEY":" ","HOUSE_NO":"１３號","E_COORD97":167139.51999999999,"N_COORD97":2545079.3399999999,"ADDRESS":"武聖路６９巷１３號","OBJECTID":234307},"geometry":{"x":167139.51999999862,"y":2545079.339999998}},{"attributes":{"ID":234312,"DIS_CODE":0,"TOWNNAME":"中西區","LI":"光賢里","LIN":"4鄰","STREET":"武聖路","SECT":" ","MAREA":" ","LANE":"６９巷","ALLEY":" ","HOUSE_NO":"１５號","E_COORD97":167137.62,"N_COORD97":2545075.5299999998,"ADDRESS":"武聖路６９巷１５號","OBJECTID":234308},"geometry":{"x":167137.62000000011,"y":2545075.5300000012}},{"attributes":{"ID":234313,"DIS_CODE":0,"TOWNNAME":"中西區","LI":"光賢里","LIN":"4鄰","STREET":"武聖路","SECT":" ","MAREA":" ","LANE":"６９巷","ALLEY":" ","HOUSE_NO":"１７號","E_COORD97":167135.92000000001,"N_COORD97":2545071.9300000002,"ADDRESS":"武聖路６９巷１７號","OBJECTID":234309},"geometry":{"x":167135.92000000086,"y":2545071.9300000034}},{"attributes":{"ID":234314,"DIS_CODE":0,"TOWNNAME":"中西區","LI":"光賢里","LIN":"4鄰","STREET":"武聖路","SECT":" ","MAREA":" ","LANE":"６９巷","ALLEY":" ","HOUSE_NO":"１號","E_COORD97":167153.07000000001,"N_COORD97":2545104.3100000001,"ADDRESS":"武聖路６９巷１號","OBJECTID":234310},"geometry":{"x":167153.0700000003,"y":2545104.3100000042}},{"attributes":{"ID":234315,"DIS_CODE":0,"TOWNNAME":"中西區","LI":"光賢里","LIN":"4鄰","STREET":"武聖路","SECT":" ","MAREA":" ","LANE":"６９巷","ALLEY":" ","HOUSE_NO":"３號","E_COORD97":167150.73999999999,"N_COORD97":2545100.0800000001,"ADDRESS":"武聖路６９巷３號","OBJECTID":234311},"geometry":{"x":167150.74000000209,"y":2545100.0800000019}},{"attributes":{"ID":234316,"DIS_CODE":0,"TOWNNAME":"中西區","LI":"光賢里","LIN":"4鄰","STREET":"武聖路","SECT":" ","MAREA":" ","LANE":"６９巷","ALLEY":" ","HOUSE_NO":"５號","E_COORD97":167148.41,"N_COORD97":2545095.21,"ADDRESS":"武聖路６９巷５號","OBJECTID":234312},"geometry":{"x":167148.41000000108,"y":2545095.2100000046}},{"attributes":{"ID":234317,"DIS_CODE":0,"TOWNNAME":"中西區","LI":"光賢里","LIN":"4鄰","STREET":"武聖路","SECT":" ","MAREA":" ","LANE":"６９巷","ALLEY":" ","HOUSE_NO":"７號","E_COORD97":167146.07999999999,"N_COORD97":2545090.5499999998,"ADDRESS":"武聖路６９巷７號","OBJECTID":234313},"geometry":{"x":167146.08000000007,"y":2545090.5500000026}},{"attributes":{"ID":234318,"DIS_CODE":0,"TOWNNAME":"中西區","LI":"文賢里","LIN":"1鄰","STREET":"文和街","SECT":" ","MAREA":" ","LANE":"１０巷","ALLEY":" ","HOUSE_NO":"８號","E_COORD97":167292.28,"N_COORD97":2545026.8100000001,"ADDRESS":"文和街１０巷８號","OBJECTID":234314},"geometry":{"x":167292.28000000026,"y":2545026.8100000024}},{"attributes":{"ID":234319,"DIS_CODE":0,"TOWNNAME":"永康區","LI":"\u25A0洲里","LIN":"4鄰","STREET":"\u25A0洲二街","SECT":" ","MAREA":" ","LANE":"１５３巷","ALLEY":" ","HOUSE_NO":"６號","E_COORD97":171672.70000000001,"N_COORD97":2549399.4100000001,"ADDRESS":"\u25A0洲二街１５３巷６號","OBJECTID":234315},"geometry":{"x":171672.70000000112,"y":2549399.410000002}},{"attributes":{"ID":234320,"DIS_CODE":0,"TOWNNAME":"永康區","LI":"尚頂里","LIN":" ","STREET":"國聖街","SECT":" ","MAREA":" ","LANE":"４３巷","ALLEY":" ","HOUSE_NO":"４２號","E_COORD97":170284.17000000001,"N_COORD97":2547707.73,"ADDRESS":"國聖街４３巷４２號","OBJECTID":234316},"geometry":{"x":170284.17000000086,"y":2547707.7300000004}},{"attributes":{"ID":234321,"DIS_CODE":0,"TOWNNAME":"永康區","LI":"西灣里","LIN":" ","STREET":"大勇路","SECT":" ","MAREA":" ","LANE":"２３巷","ALLEY":" ","HOUSE_NO":"１９之１號","E_COORD97":174155.88,"N_COORD97":2545407.5499999998,"ADDRESS":"大勇路２３巷１９之１號","OBJECTID":234317},"geometry":{"x":174155.88000000082,"y":2545407.5500000007}},{"attributes":{"ID":234322,"DIS_CODE":0,"TOWNNAME":"永康區","LI":"東橋里","LIN":" ","STREET":"中山南路","SECT":" ","MAREA":" ","LANE":"４７１巷","ALLEY":" ","HOUSE_NO":"１號","E_COORD97":172820.88,"N_COORD97":2546987.6200000001,"ADDRESS":"中山南路４７１巷１號","OBJECTID":234318},"geometry":{"x":172820.87999999989,"y":2546987.6200000048}},{"attributes":{"ID":234323,"DIS_CODE":0,"TOWNNAME":"永康區","LI":"中華里","LIN":"18鄰","STREET":"中華路","SECT":" ","MAREA":" ","LANE":"１０巷","ALLEY":" ","HOUSE_NO":"９號","E_COORD97":171629.62,"N_COORD97":2544481.8399999999,"ADDRESS":"中華路１０巷９號","OBJECTID":234319},"geometry":{"x":171629.62000000011,"y":2544481.8399999999}},{"attributes":{"ID":234324,"DIS_CODE":0,"TOWNNAME":"永康區","LI":"新樹里","LIN":" ","STREET":"富強路","SECT":"二段","MAREA":" ","LANE":"３９８巷","ALLEY":" ","HOUSE_NO":"１４６之９號","E_COORD97":176118.97,"N_COORD97":2547565.1400000001,"ADDRESS":"富強路二段３９８巷１４６之９號","OBJECTID":234320},"geometry":{"x":176118.96999999974,"y":2547565.1400000025}},{"attributes":{"ID":234325,"DIS_CODE":0,"TOWNNAME":"永康區","LI":"東橋里","LIN":" ","STREET":"中山南路","SECT":" ","MAREA":" ","LANE":"１９５巷","ALLEY":" ","HOUSE_NO":"８０號","E_COORD97":171339.09,"N_COORD97":2546554.29,"ADDRESS":"中山南路１９５巷８０號","OBJECTID":234321},"geometry":{"x":171339.09000000078,"y":2546554.290000001}},{"attributes":{"ID":234326,"DIS_CODE":0,"TOWNNAME":"永康區","LI":"永康里","LIN":" ","STREET":"中山南路","SECT":" ","MAREA":" ","LANE":"１０５４巷","ALLEY":" ","HOUSE_NO":"２號","E_COORD97":173722.64999999999,"N_COORD97":2547282.3100000001,"ADDRESS":"中山南路１０５４巷２號","OBJECTID":234322},"geometry":{"x":173722.6500000013,"y":2547282.3100000024}},{"attributes":{"ID":234327,"DIS_CODE":0,"TOWNNAME":"永康區","LI":"\u25A0洲里","LIN":"25鄰","STREET":"國聖街","SECT":" ","MAREA":" ","LANE":"１６７巷","ALLEY":" ","HOUSE_NO":"２５號","E_COORD97":170580.64999999999,"N_COORD97":2548299,"ADDRESS":"國聖街１６７巷２５號","OBJECTID":234323},"geometry":{"x":170580.65000000037,"y":2548299}},{"attributes":{"ID":234328,"DIS_CODE":0,"TOWNNAME":"永康區","LI":"復華里","LIN":" ","STREET":"復華十街","SECT":" ","MAREA":" ","LANE":"３９巷","ALLEY":" ","HOUSE_NO":"２７號","E_COORD97":172567.95999999999,"N_COORD97":2546352.27,"ADDRESS":"復華十街３９巷２７號","OBJECTID":234324},"geometry":{"x":172567.95999999996,"y":2546352.2700000014}},{"attributes":{"ID":234329,"DIS_CODE":0,"TOWNNAME":"永康區","LI":"東橋里","LIN":" ","STREET":"大橋一街","SECT":" ","MAREA":" ","LANE":"３２４巷","ALLEY":" ","HOUSE_NO":"４１號","E_COORD97":171375.82999999999,"N_COORD97":2546591.0899999999,"ADDRESS":"大橋一街３２４巷４１號","OBJECTID":234325},"geometry":{"x":171375.83000000007,"y":2546591.0900000017}},{"attributes":{"ID":234330,"DIS_CODE":0,"TOWNNAME":"永康區","LI":"東橋里","LIN":" ","STREET":"自強路","SECT":" ","MAREA":" ","LANE":"１２巷","ALLEY":" ","HOUSE_NO":"１號","E_COORD97":172692.20999999999,"N_COORD97":2547214.2400000002,"ADDRESS":"自強路１２巷１號","OBJECTID":234326},"geometry":{"x":172692.21000000183,"y":2547214.2400000021}},{"attributes":{"ID":234331,"DIS_CODE":0,"TOWNNAME":"永康區","LI":"東橋里","LIN":" ","STREET":"大橋一街","SECT":" ","MAREA":" ","LANE":"３３０巷","ALLEY":" ","HOUSE_NO":"３３２號","E_COORD97":171345.57000000001,"N_COORD97":2546673.2799999998,"ADDRESS":"大橋一街３３０巷３３２號","OBJECTID":234327},"geometry":{"x":171345.5700000003,"y":2546673.2800000012}},{"attributes":{"ID":234332,"DIS_CODE":0,"TOWNNAME":"永康區","LI":"尚頂里","LIN":" ","STREET":"國聖街","SECT":" ","MAREA":" ","LANE":"６５０巷","ALLEY":" ","HOUSE_NO":"２２號","E_COORD97":170336.09,"N_COORD97":2547998.25,"ADDRESS":"國聖街６５０巷２２號","OBJECTID":234328},"geometry":{"x":170336.08999999985,"y":2547998.25}},{"attributes":{"ID":234333,"DIS_CODE":0,"TOWNNAME":"北區","LI":"力行里","LIN":"16鄰","STREET":"南園街","SECT":" ","MAREA":" ","LANE":"１２７巷","ALLEY":" ","HOUSE_NO":"１１６號","E_COORD97":170975.60999999999,"N_COORD97":2545539.8500000001,"ADDRESS":"南園街１２７巷１１６號","OBJECTID":234329},"geometry":{"x":170975.61000000034,"y":2545539.8499999996}},{"attributes":{"ID":234334,"DIS_CODE":0,"TOWNNAME":"北區","LI":"力行里","LIN":"16鄰","STREET":"南園街","SECT":" ","MAREA":" ","LANE":"１２７巷","ALLEY":" ","HOUSE_NO":"１１８號","E_COORD97":170982.82999999999,"N_COORD97":2545543.0299999998,"ADDRESS":"南園街１２７巷１１８號","OBJECTID":234330},"geometry":{"x":170982.83000000194,"y":2545543.0300000012}},{"attributes":{"ID":234335,"DIS_CODE":0,"TOWNNAME":"北區","LI":"玉皇里","LIN":"16鄰","STREET":"成功路","SECT":" ","MAREA":" ","LANE":"６８巷","ALLEY":" ","HOUSE_NO":"１５號","E_COORD97":168675.14999999999,"N_COORD97":2544350.27,"ADDRESS":"成功路６８巷１５號","OBJECTID":234331},"geometry":{"x":168675.15000000037,"y":2544350.2699999996}},{"attributes":{"ID":234336,"DIS_CODE":0,"TOWNNAME":"北區","LI":"玉皇里","LIN":"16鄰","STREET":"成功路","SECT":" ","MAREA":" ","LANE":"６８巷","ALLEY":" ","HOUSE_NO":"１９號","E_COORD97":168685.89000000001,"N_COORD97":2544347.71,"ADDRESS":"成功路６８巷１９號","OBJECTID":234332},"geometry":{"x":168685.88999999966,"y":2544347.7100000009}},{"attributes":{"ID":234337,"DIS_CODE":0,"TOWNNAME":"北區","LI":"玉皇里","LIN":"16鄰","STREET":"成功路","SECT":" ","MAREA":" ","LANE":"６８巷","ALLEY":" ","HOUSE_NO":"２１號","E_COORD97":168688.13,"N_COORD97":2544351.6699999999,"ADDRESS":"成功路６８巷２１號","OBJECTID":234333},"geometry":{"x":168688.12999999989,"y":2544351.6699999981}},{"attributes":{"ID":234338,"DIS_CODE":0,"TOWNNAME":"北區","LI":"玉皇里","LIN":"16鄰","STREET":"成功路","SECT":" ","MAREA":" ","LANE":"６８巷","ALLEY":" ","HOUSE_NO":"２３號","E_COORD97":168688.42000000001,"N_COORD97":2544356.4100000001,"ADDRESS":"成功路６８巷２３號","OBJECTID":234334},"geometry":{"x":168688.42000000179,"y":2544356.4100000001}},{"attributes":{"ID":234339,"DIS_CODE":0,"TOWNNAME":"北區","LI":"玉皇里","LIN":"16鄰","STREET":"成功路","SECT":" ","MAREA":" ","LANE":"６８巷","ALLEY":" ","HOUSE_NO":"２５號","E_COORD97":168690.23999999999,"N_COORD97":2544359.8199999998,"ADDRESS":"成功路６８巷２５號","OBJECTID":234335},"geometry":{"x":168690.24000000115,"y":2544359.8200000003}},{"attributes":{"ID":234340,"DIS_CODE":0,"TOWNNAME":"北區","LI":"玉皇里","LIN":"16鄰","STREET":"成功路","SECT":" ","MAREA":" ","LANE":"６８巷","ALLEY":" ","HOUSE_NO":"２７號","E_COORD97":168690.42999999999,"N_COORD97":2544363.8399999999,"ADDRESS":"成功路６８巷２７號","OBJECTID":234336},"geometry":{"x":168690.43000000063,"y":2544363.8399999999}},{"attributes":{"ID":234341,"DIS_CODE":0,"TOWNNAME":"北區","LI":"玉皇里","LIN":"16鄰","STREET":"成功路","SECT":" ","MAREA":" ","LANE":"６８巷","ALLEY":" ","HOUSE_NO":"３號","E_COORD97":168678.14999999999,"N_COORD97":2544327.5,"ADDRESS":"成功路６８巷３號","OBJECTID":234337},"geometry":{"x":168678.15000000037,"y":2544327.5000000019}},{"attributes":{"ID":234342,"DIS_CODE":0,"TOWNNAME":"北區","LI":"玉皇里","LIN":"16鄰","STREET":"成功路","SECT":" ","MAREA":" ","LANE":"６８巷","ALLEY":" ","HOUSE_NO":"４３號","E_COORD97":168670.32000000001,"N_COORD97":2544388.6200000001,"ADDRESS":"成功路６８巷４３號","OBJECTID":234338},"geometry":{"x":168670.3200000003,"y":2544388.6200000029}},{"attributes":{"ID":234343,"DIS_CODE":0,"TOWNNAME":"北區","LI":"玉皇里","LIN":"16鄰","STREET":"成功路","SECT":" ","MAREA":" ","LANE":"６８巷","ALLEY":" ","HOUSE_NO":"４５號","E_COORD97":168697.26000000001,"N_COORD97":2544379.6000000001,"ADDRESS":"成功路６８巷４５號","OBJECTID":234339},"geometry":{"x":168697.25999999978,"y":2544379.6000000015}},{"attributes":{"ID":234344,"DIS_CODE":0,"TOWNNAME":"北區","LI":"玉皇里","LIN":"16鄰","STREET":"成功路","SECT":" ","MAREA":" ","LANE":"６８巷","ALLEY":" ","HOUSE_NO":"５號","E_COORD97":168679.10999999999,"N_COORD97":2544332.6800000002,"ADDRESS":"成功路６８巷５號","OBJECTID":234340},"geometry":{"x":168679.1100000022,"y":2544332.6800000016}},{"attributes":{"ID":234345,"DIS_CODE":0,"TOWNNAME":"北區","LI":"玉皇里","LIN":"16鄰","STREET":"成功路","SECT":" ","MAREA":" ","LANE":"６８巷","ALLEY":" ","HOUSE_NO":"７號","E_COORD97":168682.12,"N_COORD97":2544339.2000000002,"ADDRESS":"成功路６８巷７號","OBJECTID":234341},"geometry":{"x":168682.12000000197,"y":2544339.1999999993}},{"attributes":{"ID":234346,"DIS_CODE":0,"TOWNNAME":"永康區","LI":"\u25A0洲里","LIN":"4鄰","STREET":"\u25A0洲二街","SECT":" ","MAREA":" ","LANE":"１５３巷","ALLEY":" ","HOUSE_NO":"３６號","E_COORD97":171640.10999999999,"N_COORD97":2549434.1699999999,"ADDRESS":"\u25A0洲二街１５３巷３６號","OBJECTID":234342},"geometry":{"x":171640.11000000034,"y":2549434.1700000037}},{"attributes":{"ID":234347,"DIS_CODE":0,"TOWNNAME":"永康區","LI":"\u25A0洲里","LIN":"4鄰","STREET":"\u25A0洲二街","SECT":" ","MAREA":" ","LANE":"１５３巷","ALLEY":" ","HOUSE_NO":"１６號","E_COORD97":171662.64000000001,"N_COORD97":2549411.1699999999,"ADDRESS":"\u25A0洲二街１５３巷１６號","OBJECTID":234343},"geometry":{"x":171662.63999999966,"y":2549411.1700000018}},{"attributes":{"ID":234348,"DIS_CODE":0,"TOWNNAME":"永康區","LI":"蔦松里","LIN":" ","STREET":"蔦松一街","SECT":" ","MAREA":" ","LANE":"７４巷","ALLEY":" ","HOUSE_NO":"１０２之１號","E_COORD97":173980.29999999999,"N_COORD97":2549657.3599999999,"ADDRESS":"蔦松一街７４巷１０２之１號","OBJECTID":234344},"geometry":{"x":173980.30000000075,"y":2549657.3600000013}},{"attributes":{"ID":234349,"DIS_CODE":0,"TOWNNAME":"永康區","LI":"尚頂里","LIN":" ","STREET":"正南一街","SECT":" ","MAREA":" ","LANE":"１０７巷","ALLEY":" ","HOUSE_NO":"４５號","E_COORD97":170798.95000000001,"N_COORD97":2547118.4900000002,"ADDRESS":"正南一街１０７巷４５號","OBJECTID":234345},"geometry":{"x":170798.95000000205,"y":2547118.4900000002}},{"attributes":{"ID":234350,"DIS_CODE":0,"TOWNNAME":"永康區","LI":"東橋里","LIN":" ","STREET":"自強路","SECT":" ","MAREA":" ","LANE":"１３９巷","ALLEY":" ","HOUSE_NO":"１之２號","E_COORD97":172934.12,"N_COORD97":2547502.6200000001,"ADDRESS":"自強路１３９巷１之２號","OBJECTID":234346},"geometry":{"x":172934.12000000104,"y":2547502.620000001}},{"attributes":{"ID":234351,"DIS_CODE":0,"TOWNNAME":"永康區","LI":"龍潭里","LIN":" ","STREET":"中山北路","SECT":" ","MAREA":" ","LANE":"４６１巷","ALLEY":" ","HOUSE_NO":"２８號","E_COORD97":175112.26000000001,"N_COORD97":2547839.6099999999,"ADDRESS":"中山北路４６１巷２８號","OBJECTID":234347},"geometry":{"x":175112.25999999978,"y":2547839.6099999994}},{"attributes":{"ID":234352,"DIS_CODE":0,"TOWNNAME":"永康區","LI":"\u25A0洲里","LIN":"25鄰","STREET":"中正南路","SECT":" ","MAREA":" ","LANE":"４５３巷","ALLEY":" ","HOUSE_NO":"１８號","E_COORD97":170780.04000000001,"N_COORD97":2548183.25,"ADDRESS":"中正南路４５３巷１８號","OBJECTID":234348},"geometry":{"x":170780.04000000097,"y":2548183.2500000019}},{"attributes":{"ID":234353,"DIS_CODE":0,"TOWNNAME":"下營區","LI":"後街里","LIN":"14鄰","STREET":"中正北路","SECT":" ","MAREA":" ","LANE":" ","ALLEY":" ","HOUSE_NO":"１０８號","E_COORD97":174480.47,"N_COORD97":2570706.3300000001,"ADDRESS":"中正北路１０８號","OBJECTID":234349},"geometry":{"x":174480.4700000016,"y":2570706.3300000001}},{"attributes":{"ID":234354,"DIS_CODE":0,"TOWNNAME":"下營區","LI":"後街里","LIN":"14鄰","STREET":"中正北路","SECT":" ","MAREA":" ","LANE":" ","ALLEY":" ","HOUSE_NO":"１１０號","E_COORD97":174478.17999999999,"N_COORD97":2570710.6499999999,"ADDRESS":"中正北路１１０號","OBJECTID":234350},"geometry":{"x":174478.1799999997,"y":2570710.6500000022}},{"attributes":{"ID":234355,"DIS_CODE":0,"TOWNNAME":"下營區","LI":"後街里","LIN":"14鄰","STREET":"中正北路","SECT":" ","MAREA":" ","LANE":" ","ALLEY":" ","HOUSE_NO":"１１２號","E_COORD97":174476.14000000001,"N_COORD97":2570714.8999999999,"ADDRESS":"中正北路１１２號","OBJECTID":234351},"geometry":{"x":174476.1400000006,"y":2570714.9000000022}},{"attributes":{"ID":234356,"DIS_CODE":0,"TOWNNAME":"下營區","LI":"後街里","LIN":"14鄰","STREET":"中正北路","SECT":" ","MAREA":" ","LANE":" ","ALLEY":" ","HOUSE_NO":"１１６號","E_COORD97":174473.95000000001,"N_COORD97":2570719.29,"ADDRESS":"中正北路１１６號","OBJECTID":234352},"geometry":{"x":174473.95000000019,"y":2570719.2899999991}},{"attributes":{"ID":234357,"DIS_CODE":0,"TOWNNAME":"下營區","LI":"下營里","LIN":"14鄰","STREET":"中正北路","SECT":" ","MAREA":" ","LANE":" ","ALLEY":" ","HOUSE_NO":"２９號","E_COORD97":174501.91,"N_COORD97":2570593.98,"ADDRESS":"中正北路２９號","OBJECTID":234353},"geometry":{"x":174501.91000000108,"y":2570593.9800000004}},{"attributes":{"ID":234358,"DIS_CODE":0,"TOWNNAME":"下營區","LI":"下營里","LIN":"14鄰","STREET":"中正北路","SECT":" ","MAREA":" ","LANE":" ","ALLEY":" ","HOUSE_NO":"３１號","E_COORD97":174499.91,"N_COORD97":2570597.8500000001,"ADDRESS":"中正北路３１號","OBJECTID":234354},"geometry":{"x":174499.91000000201,"y":2570597.8499999996}},{"attributes":{"ID":234359,"DIS_CODE":0,"TOWNNAME":"下營區","LI":"下營里","LIN":"14鄰","STREET":"中正北路","SECT":" ","MAREA":" ","LANE":" ","ALLEY":" ","HOUSE_NO":"３５號","E_COORD97":174496.51000000001,"N_COORD97":2570605.73,"ADDRESS":"中正北路３５號","OBJECTID":234355},"geometry":{"x":174496.50999999978,"y":2570605.7300000004}},{"attributes":{"ID":234360,"DIS_CODE":0,"TOWNNAME":"下營區","LI":"下營里","LIN":"14鄰","STREET":"中正北路","SECT":" ","MAREA":" ","LANE":" ","ALLEY":" ","HOUSE_NO":"３７號","E_COORD97":174494.85000000001,"N_COORD97":2570610.04,"ADDRESS":"中正北路３７號","OBJECTID":234356},"geometry":{"x":174494.85000000056,"y":2570610.0399999991}},{"attributes":{"ID":234361,"DIS_CODE":0,"TOWNNAME":"下營區","LI":"下營里","LIN":"14鄰","STREET":"中正北路","SECT":" ","MAREA":" ","LANE":" ","ALLEY":" ","HOUSE_NO":"３９號","E_COORD97":174493.35000000001,"N_COORD97":2570613.29,"ADDRESS":"中正北路３９號","OBJECTID":234357},"geometry":{"x":174493.35000000056,"y":2570613.290000001}},{"attributes":{"ID":234362,"DIS_CODE":0,"TOWNNAME":"下營區","LI":"下營里","LIN":"14鄰","STREET":"中正北路","SECT":" ","MAREA":" ","LANE":" ","ALLEY":" ","HOUSE_NO":"４５號","E_COORD97":174488.73000000001,"N_COORD97":2570626.9500000002,"ADDRESS":"中正北路４５號","OBJECTID":234358},"geometry":{"x":174488.73000000045,"y":2570626.9499999993}},{"attributes":{"ID":234363,"DIS_CODE":0,"TOWNNAME":"永康區","LI":"尚頂里","LIN":"14鄰","STREET":"中正南路","SECT":" ","MAREA":" ","LANE":" ","ALLEY":" ","HOUSE_NO":"２５６號","E_COORD97":170345.95999999999,"N_COORD97":2547543.6400000001,"ADDRESS":"中正南路２５６號","OBJECTID":234359},"geometry":{"x":170345.95999999903,"y":2547543.6400000025}},{"attributes":{"ID":234364,"DIS_CODE":0,"TOWNNAME":"永康區","LI":"尚頂里","LIN":"14鄰","STREET":"中正南路","SECT":" ","MAREA":" ","LANE":" ","ALLEY":" ","HOUSE_NO":"２７０號","E_COORD97":170422.29999999999,"N_COORD97":2547565.4500000002,"ADDRESS":"中正南路２７０號","OBJECTID":234360},"geometry":{"x":170422.30000000075,"y":2547565.4499999993}},{"attributes":{"ID":234365,"DIS_CODE":0,"TOWNNAME":"永康區","LI":"南灣里","LIN":"14鄰","STREET":"大灣路","SECT":" ","MAREA":" ","LANE":" ","ALLEY":" ","HOUSE_NO":"６３２號","E_COORD97":174512.48999999999,"N_COORD97":2544610.7999999998,"ADDRESS":"大灣路６３２號","OBJECTID":234361},"geometry":{"x":174512.49000000022,"y":2544610.8000000026}},{"attributes":{"ID":234366,"DIS_CODE":0,"TOWNNAME":"北區","LI":"玉皇里","LIN":"16鄰","STREET":"成功路","SECT":" ","MAREA":" ","LANE":"６８巷","ALLEY":" ","HOUSE_NO":"９號","E_COORD97":168667.47,"N_COORD97":2544344.6400000001,"ADDRESS":"成功路６８巷９號","OBJECTID":234362},"geometry":{"x":168667.46999999881,"y":2544344.6400000006}},{"attributes":{"ID":234367,"DIS_CODE":0,"TOWNNAME":"安平區","LI":"平安里","LIN":"16鄰","STREET":"安平路","SECT":" ","MAREA":" ","LANE":"５５０巷","ALLEY":" ","HOUSE_NO":"４４號","E_COORD97":165038.42000000001,"N_COORD97":2544509.3500000001,"ADDRESS":"安平路５５０巷４４號","OBJECTID":234363},"geometry":{"x":165038.41999999993,"y":2544509.3499999996}},{"attributes":{"ID":234368,"DIS_CODE":0,"TOWNNAME":"東區","LI":"大福里","LIN":"4鄰","STREET":"立德二路","SECT":" ","MAREA":" ","LANE":"２２巷","ALLEY":" ","HOUSE_NO":"１１號","E_COORD97":169557.98000000001,"N_COORD97":2541715.0699999998,"ADDRESS":"立德二路２２巷１１號","OBJECTID":234364},"geometry":{"x":169557.98000000045,"y":2541715.0699999984}},{"attributes":{"ID":234369,"DIS_CODE":0,"TOWNNAME":"安平區","LI":"平安里","LIN":"16鄰","STREET":"安平路","SECT":" ","MAREA":" ","LANE":"５５０巷","ALLEY":" ","HOUSE_NO":"４６號","E_COORD97":165040.56,"N_COORD97":2544515.3199999998,"ADDRESS":"安平路５５０巷４６號","OBJECTID":234365},"geometry":{"x":165040.55999999959,"y":2544515.3200000022}},{"attributes":{"ID":234370,"DIS_CODE":0,"TOWNNAME":"安平區","LI":"平安里","LIN":"16鄰","STREET":"安平路","SECT":" ","MAREA":" ","LANE":"５５０巷","ALLEY":" ","HOUSE_NO":"４７號","E_COORD97":165027.39999999999,"N_COORD97":2544526.7999999998,"ADDRESS":"安平路５５０巷４７號","OBJECTID":234366},"geometry":{"x":165027.40000000224,"y":2544526.8000000007}},{"attributes":{"ID":234371,"DIS_CODE":0,"TOWNNAME":"安平區","LI":"平安里","LIN":"16鄰","STREET":"安平路","SECT":" ","MAREA":" ","LANE":"５５０巷","ALLEY":" ","HOUSE_NO":"５３號","E_COORD97":165034.45999999999,"N_COORD97":2544542.29,"ADDRESS":"安平路５５０巷５３號","OBJECTID":234367},"geometry":{"x":165034.45999999996,"y":2544542.2899999991}},{"attributes":{"ID":234372,"DIS_CODE":0,"TOWNNAME":"安平區","LI":"石門里","LIN":"16鄰","STREET":"安北路","SECT":" ","MAREA":" ","LANE":"１００巷","ALLEY":" ","HOUSE_NO":"１號","E_COORD97":164431.31,"N_COORD97":2544760.46,"ADDRESS":"安北路１００巷１號","OBJECTID":234368},"geometry":{"x":164431.31000000052,"y":2544760.4600000009}},{"attributes":{"ID":234373,"DIS_CODE":0,"TOWNNAME":"永康區","LI":"龍潭里","LIN":" ","STREET":"龍國街","SECT":" ","MAREA":" ","LANE":"６５巷","ALLEY":" ","HOUSE_NO":"２８之４號","E_COORD97":174693.79999999999,"N_COORD97":2548053.8100000001,"ADDRESS":"龍國街６５巷２８之４號","OBJECTID":234369},"geometry":{"x":174693.80000000075,"y":2548053.8100000042}},{"attributes":{"ID":234374,"DIS_CODE":0,"TOWNNAME":"永康區","LI":"東橋里","LIN":" ","STREET":"中山南路","SECT":" ","MAREA":" ","LANE":"３６５巷","ALLEY":" ","HOUSE_NO":"３６５號","E_COORD97":172572.76000000001,"N_COORD97":2547622.9900000002,"ADDRESS":"中山南路３６５巷３６５號","OBJECTID":234370},"geometry":{"x":172572.75999999978,"y":2547622.9900000021}},{"attributes":{"ID":234375,"DIS_CODE":0,"TOWNNAME":"永康區","LI":"\u25A0洲里","LIN":"5鄰","STREET":"仁愛街","SECT":" ","MAREA":" ","LANE":"１０３巷","ALLEY":" ","HOUSE_NO":"４９號","E_COORD97":171852.26000000001,"N_COORD97":2549564.27,"ADDRESS":"仁愛街１０３巷４９號","OBJECTID":234371},"geometry":{"x":171852.25999999978,"y":2549564.2699999996}},{"attributes":{"ID":234376,"DIS_CODE":0,"TOWNNAME":"永康區","LI":"\u25A0洲里","LIN":"38鄰","STREET":"\u25A0行路","SECT":" ","MAREA":" ","LANE":"１８８巷","ALLEY":" ","HOUSE_NO":"１號","E_COORD97":171316.20999999999,"N_COORD97":2549224.6099999999,"ADDRESS":"\u25A0行路１８８巷１號","OBJECTID":234372},"geometry":{"x":171316.21000000089,"y":2549224.6100000013}},{"attributes":{"ID":234377,"DIS_CODE":0,"TOWNNAME":"永康區","LI":"\u25A0洲里","LIN":"25鄰","STREET":"國聖街","SECT":" ","MAREA":" ","LANE":"１６７巷","ALLEY":" ","HOUSE_NO":"３１號","E_COORD97":170551.54000000001,"N_COORD97":2548311.75,"ADDRESS":"國聖街１６７巷３１號","OBJECTID":234373},"geometry":{"x":170551.54000000097,"y":2548311.7500000019}},{"attributes":{"ID":234378,"DIS_CODE":0,"TOWNNAME":"永康區","LI":"\u25A0洲里","LIN":"32鄰","STREET":"洲尾街","SECT":" ","MAREA":" ","LANE":"７４巷","ALLEY":" ","HOUSE_NO":"２２號","E_COORD97":170962.26999999999,"N_COORD97":2549019.0099999998,"ADDRESS":"洲尾街７４巷２２號","OBJECTID":234374},"geometry":{"x":170962.27000000142,"y":2549019.0100000016}},{"attributes":{"ID":234379,"DIS_CODE":0,"TOWNNAME":"永康區","LI":"\u25A0洲里","LIN":"4鄰","STREET":"\u25A0洲二街","SECT":" ","MAREA":" ","LANE":"１５３巷","ALLEY":" ","HOUSE_NO":"１２號","E_COORD97":171665.59,"N_COORD97":2549408.1699999999,"ADDRESS":"\u25A0洲二街１５３巷１２號","OBJECTID":234375},"geometry":{"x":171665.59000000171,"y":2549408.1700000018}},{"attributes":{"ID":234380,"DIS_CODE":0,"TOWNNAME":"永康區","LI":"南灣里","LIN":" ","STREET":"大灣東路","SECT":" ","MAREA":" ","LANE":"２２巷","ALLEY":" ","HOUSE_NO":"４２之１號","E_COORD97":173958.01000000001,"N_COORD97":2544121.54,"ADDRESS":"大灣東路２２巷４２之１號","OBJECTID":234376},"geometry":{"x":173958.01000000164,"y":2544121.5400000028}},{"attributes":{"ID":234381,"DIS_CODE":0,"TOWNNAME":"永康區","LI":"永康里","LIN":" ","STREET":"中山南路","SECT":" ","MAREA":" ","LANE":"５１７巷","ALLEY":" ","HOUSE_NO":"１１號","E_COORD97":173339.57999999999,"N_COORD97":2547106.7400000002,"ADDRESS":"中山南路５１７巷１１號","OBJECTID":234377},"geometry":{"x":173339.58000000101,"y":2547106.7400000002}},{"attributes":{"ID":234382,"DIS_CODE":0,"TOWNNAME":"永康區","LI":"西灣里","LIN":" ","STREET":"永大路","SECT":"二段","MAREA":" ","LANE":"４６７巷","ALLEY":" ","HOUSE_NO":"８６號","E_COORD97":174327.60000000001,"N_COORD97":2546143.4900000002,"ADDRESS":"永大路二段４６７巷８６號","OBJECTID":234378},"geometry":{"x":174327.60000000056,"y":2546143.4900000039}},{"attributes":{"ID":234383,"DIS_CODE":0,"TOWNNAME":"永康區","LI":"東橋里","LIN":" ","STREET":"中正路","SECT":" ","MAREA":" ","LANE":"３６５巷","ALLEY":" ","HOUSE_NO":"５號","E_COORD97":172199.66,"N_COORD97":2548552.2400000002,"ADDRESS":"中正路３６５巷５號","OBJECTID":234379},"geometry":{"x":172199.66000000108,"y":2548552.2399999984}},{"attributes":{"ID":234384,"DIS_CODE":0,"TOWNNAME":"永康區","LI":"東灣里","LIN":"14鄰","STREET":"大灣路","SECT":" ","MAREA":" ","LANE":" ","ALLEY":" ","HOUSE_NO":"３２５號","E_COORD97":174791.92000000001,"N_COORD97":2544965.7200000002,"ADDRESS":"大灣路３２５號","OBJECTID":234380},"geometry":{"x":174791.92000000086,"y":2544965.7199999988}},{"attributes":{"ID":234385,"DIS_CODE":0,"TOWNNAME":"永康區","LI":"尚頂里","LIN":"14鄰","STREET":"中正南路","SECT":" ","MAREA":" ","LANE":" ","ALLEY":" ","HOUSE_NO":"２６２號","E_COORD97":170387.35999999999,"N_COORD97":2547579.6299999999,"ADDRESS":"中正南路２６２號","OBJECTID":234381},"geometry":{"x":170387.36000000034,"y":2547579.6300000008}},{"attributes":{"ID":234386,"DIS_CODE":0,"TOWNNAME":"永康區","LI":"東灣里","LIN":"14鄰","STREET":"大灣路","SECT":" ","MAREA":" ","LANE":" ","ALLEY":" ","HOUSE_NO":"３１９號","E_COORD97":174794.41,"N_COORD97":2544980.0099999998,"ADDRESS":"大灣路３１９號","OBJECTID":234382},"geometry":{"x":174794.41000000015,"y":2544980.0100000035}},{"attributes":{"ID":234387,"DIS_CODE":0,"TOWNNAME":"永康區","LI":"尚頂里","LIN":"14鄰","STREET":"正南一街","SECT":" ","MAREA":" ","LANE":" ","ALLEY":" ","HOUSE_NO":"１９７號","E_COORD97":170633.35000000001,"N_COORD97":2547422.4300000002,"ADDRESS":"正南一街１９７號","OBJECTID":234383},"geometry":{"x":170633.35000000056,"y":2547422.4300000016}},{"attributes":{"ID":234388,"DIS_CODE":0,"TOWNNAME":"永康區","LI":"東灣里","LIN":"14鄰","STREET":"大灣路","SECT":" ","MAREA":" ","LANE":" ","ALLEY":" ","HOUSE_NO":"３２９號","E_COORD97":174788.29000000001,"N_COORD97":2544958.2999999998,"ADDRESS":"大灣路３２９號","OBJECTID":234384},"geometry":{"x":174788.29000000004,"y":2544958.3000000007}},{"attributes":{"ID":234389,"DIS_CODE":0,"TOWNNAME":"永康區","LI":"尚頂里","LIN":"14鄰","STREET":"正南一街","SECT":" ","MAREA":" ","LANE":" ","ALLEY":" ","HOUSE_NO":"１９９號","E_COORD97":170629.57000000001,"N_COORD97":2547432.4399999999,"ADDRESS":"正南一街１９９號","OBJECTID":234385},"geometry":{"x":170629.57000000123,"y":2547432.4400000013}},{"attributes":{"ID":234390,"DIS_CODE":0,"TOWNNAME":"佳里區","LI":"鎮山里","LIN":"14鄰","STREET":"安南路","SECT":" ","MAREA":" ","LANE":" ","ALLEY":" ","HOUSE_NO":"１６號","E_COORD97":166020.54999999999,"N_COORD97":2561372.7999999998,"ADDRESS":"安南路１６號","OBJECTID":234386},"geometry":{"x":166020.54999999981,"y":2561372.8000000026}},{"attributes":{"ID":234391,"DIS_CODE":0,"TOWNNAME":"佳里區","LI":"鎮山里","LIN":"14鄰","STREET":"安南路","SECT":" ","MAREA":" ","LANE":" ","ALLEY":" ","HOUSE_NO":"１８號","E_COORD97":166017.76999999999,"N_COORD97":2561369.1099999999,"ADDRESS":"安南路１８號","OBJECTID":234387},"geometry":{"x":166017.77000000048,"y":2561369.1100000013}},{"attributes":{"ID":234392,"DIS_CODE":0,"TOWNNAME":"安平區","LI":"石門里","LIN":"16鄰","STREET":"安北路","SECT":" ","MAREA":" ","LANE":"１００巷","ALLEY":" ","HOUSE_NO":"２８號之１","E_COORD97":164458.32000000001,"N_COORD97":2544757.2599999998,"ADDRESS":"安北路１００巷２８號之１","OBJECTID":234388},"geometry":{"x":164458.32000000216,"y":2544757.2599999998}},{"attributes":{"ID":234393,"DIS_CODE":0,"TOWNNAME":"永康區","LI":"東灣里","LIN":" ","STREET":"南灣街","SECT":" ","MAREA":" ","LANE":"６０巷","ALLEY":" ","HOUSE_NO":"２３號","E_COORD97":174560.37,"N_COORD97":2544980.9399999999,"ADDRESS":"南灣街６０巷２３號","OBJECTID":234389},"geometry":{"x":174560.37000000011,"y":2544980.9400000013}},{"attributes":{"ID":234394,"DIS_CODE":0,"TOWNNAME":"永康區","LI":"龍潭里","LIN":" ","STREET":"中山北路","SECT":" ","MAREA":" ","LANE":"２６４巷","ALLEY":" ","HOUSE_NO":"２８號","E_COORD97":174704.10999999999,"N_COORD97":2547475.7400000002,"ADDRESS":"中山北路２６４巷２８號","OBJECTID":234390},"geometry":{"x":174704.11000000127,"y":2547475.7400000021}},{"attributes":{"ID":234395,"DIS_CODE":0,"TOWNNAME":"永康區","LI":"永康里","LIN":" ","STREET":"永信路","SECT":" ","MAREA":" ","LANE":"５８巷","ALLEY":" ","HOUSE_NO":"６２之１４號","E_COORD97":174150.32000000001,"N_COORD97":2546474.21,"ADDRESS":"永信路５８巷６２之１４號","OBJECTID":234391},"geometry":{"x":174150.32000000123,"y":2546474.2100000009}},{"attributes":{"ID":234396,"DIS_CODE":0,"TOWNNAME":"永康區","LI":"甲頂里","LIN":" ","STREET":"中央路","SECT":" ","MAREA":" ","LANE":"２３巷","ALLEY":" ","HOUSE_NO":"１７號","E_COORD97":169558.48000000001,"N_COORD97":2546972.7400000002,"ADDRESS":"中央路２３巷１７號","OBJECTID":234392},"geometry":{"x":169558.48000000138,"y":2546972.7400000039}},{"attributes":{"ID":234397,"DIS_CODE":0,"TOWNNAME":"永康區","LI":"\u25A0洲里","LIN":"25鄰","STREET":"國聖街","SECT":" ","MAREA":" ","LANE":"１６７巷","ALLEY":" ","HOUSE_NO":"１７號","E_COORD97":170609.14000000001,"N_COORD97":2548284.75,"ADDRESS":"國聖街１６７巷１７號","OBJECTID":234393},"geometry":{"x":170609.1400000006,"y":2548284.7500000019}},{"attributes":{"ID":234398,"DIS_CODE":0,"TOWNNAME":"麻豆區","LI":"寮\u25A0里","LIN":"16鄰","STREET":" ","SECT":" ","MAREA":"寮子\u25A0","LANE":" ","ALLEY":" ","HOUSE_NO":"１２６號之１","E_COORD97":176474.70358100001,"N_COORD97":2565348.4243399999,"ADDRESS":"寮子\u25A0１２６號之１","OBJECTID":234394},"geometry":{"x":176474.70358099975,"y":2565348.4243369997}},{"attributes":{"ID":234399,"DIS_CODE":0,"TOWNNAME":"麻豆區","LI":"寮\u25A0里","LIN":"16鄰","STREET":" ","SECT":" ","MAREA":"寮子\u25A0","LANE":" ","ALLEY":" ","HOUSE_NO":"１２６號","E_COORD97":176471.23999999999,"N_COORD97":2565331.8999999999,"ADDRESS":"寮子\u25A0１２６號","OBJECTID":234395},"geometry":{"x":176471.24000000115,"y":2565331.9000000022}},{"attributes":{"ID":234400,"DIS_CODE":0,"TOWNNAME":"麻豆區","LI":"寮\u25A0里","LIN":"16鄰","STREET":" ","SECT":" ","MAREA":"寮子\u25A0","LANE":" ","ALLEY":" ","HOUSE_NO":"１２７號之１","E_COORD97":176439.10999999999,"N_COORD97":2565363.0800000001,"ADDRESS":"寮子\u25A0１２７號之１","OBJECTID":234396},"geometry":{"x":176439.11000000034,"y":2565363.0800000038}},{"attributes":{"ID":234401,"DIS_CODE":0,"TOWNNAME":"麻豆區","LI":"寮\u25A0里","LIN":"16鄰","STREET":" ","SECT":" ","MAREA":"寮子\u25A0","LANE":" ","ALLEY":" ","HOUSE_NO":"１２７號之２","E_COORD97":176441.45000000001,"N_COORD97":2565356.48,"ADDRESS":"寮子\u25A0１２７號之２","OBJECTID":234397},"geometry":{"x":176441.45000000019,"y":2565356.4800000004}},{"attributes":{"ID":234402,"DIS_CODE":0,"TOWNNAME":"麻豆區","LI":"寮\u25A0里","LIN":"16鄰","STREET":" ","SECT":" ","MAREA":"寮子\u25A0","LANE":" ","ALLEY":" ","HOUSE_NO":"１２７號之３","E_COORD97":176436.13,"N_COORD97":2565374.52,"ADDRESS":"寮子\u25A0１２７號之３","OBJECTID":234398},"geometry":{"x":176436.13000000082,"y":2565374.5200000014}},{"attributes":{"ID":234403,"DIS_CODE":0,"TOWNNAME":"麻豆區","LI":"寮\u25A0里","LIN":"16鄰","STREET":" ","SECT":" ","MAREA":"寮子\u25A0","LANE":" ","ALLEY":" ","HOUSE_NO":"１２７號之７","E_COORD97":176457.53,"N_COORD97":2565323.4100000001,"ADDRESS":"寮子\u25A0１２７號之７","OBJECTID":234399},"geometry":{"x":176457.53000000119,"y":2565323.4100000039}},{"attributes":{"ID":234404,"DIS_CODE":0,"TOWNNAME":"麻豆區","LI":"寮\u25A0里","LIN":"16鄰","STREET":" ","SECT":" ","MAREA":"寮子\u25A0","LANE":" ","ALLEY":" ","HOUSE_NO":"１２７號","E_COORD97":176448.10795500001,"N_COORD97":2565334.1368499999,"ADDRESS":"寮子\u25A0１２７號","OBJECTID":234400},"geometry":{"x":176448.10795500129,"y":2565334.1368450001}}]}