{"displayFieldName":"TOWNNAME","fieldAliases":{"ID":"ID","DIS_CODE":"DIS_CODE","TOWNNAME":"TOWNNAME","LI":"LI","LIN":"LIN","STREET":"STREET","SECT":"SECT","MAREA":"MAREA","LANE":"LANE","ALLEY":"ALLEY","HOUSE_NO":"HOUSE_NO","E_COORD97":"E_COORD97","N_COORD97":"N_COORD97","ADDRESS":"ADDRESS","OBJECTID":"OBJECTID"},"geometryType":"esriGeometryPoint","spatialReference":{"wkid":102443,"latestWkid":3826},"fields":[{"name":"ID","type":"esriFieldTypeDouble","alias":"ID"},{"name":"DIS_CODE","type":"esriFieldTypeInteger","alias":"DIS_CODE"},{"name":"TOWNNAME","type":"esriFieldTypeString","alias":"TOWNNAME","length":8},{"name":"LI","type":"esriFieldTypeString","alias":"LI","length":8},{"name":"LIN","type":"esriFieldTypeString","alias":"LIN","length":12},{"name":"STREET","type":"esriFieldTypeString","alias":"STREET","length":20},{"name":"SECT","type":"esriFieldTypeString","alias":"SECT","length":8},{"name":"MAREA","type":"esriFieldTypeString","alias":"MAREA","length":12},{"name":"LANE","type":"esriFieldTypeString","alias":"LANE","length":10},{"name":"ALLEY","type":"esriFieldTypeString","alias":"ALLEY","length":10},{"name":"HOUSE_NO","type":"esriFieldTypeString","alias":"HOUSE_NO","length":20},{"name":"E_COORD97","type":"esriFieldTypeDouble","alias":"E_COORD97"},{"name":"N_COORD97","type":"esriFieldTypeDouble","alias":"N_COORD97"},{"name":"ADDRESS","type":"esriFieldTypeString","alias":"ADDRESS","length":50},{"name":"OBJECTID","type":"esriFieldTypeOID","alias":"OBJECTID"}],"features":[{"attributes":{"ID":607828,"DIS_CODE":0,"TOWNNAME":"南區","LI":"廣州里","LIN":"3鄰","STREET":"健康路","SECT":"二段","MAREA":" ","LANE":" ","ALLEY":" ","HOUSE_NO":"１０８號","E_COORD97":167435.48000000001,"N_COORD97":2542474.2200000002,"ADDRESS":"健康路二段１０８號","OBJECTID":607801},"geometry":{"x":167435.48000000045,"y":2542474.2200000044}},{"attributes":{"ID":607829,"DIS_CODE":0,"TOWNNAME":"南區","LI":"廣州里","LIN":"3鄰","STREET":"健康路","SECT":"二段","MAREA":" ","LANE":" ","ALLEY":" ","HOUSE_NO":"１１０號","E_COORD97":167430.42000000001,"N_COORD97":2542477.1800000002,"ADDRESS":"健康路二段１１０號","OBJECTID":607802},"geometry":{"x":167430.41999999993,"y":2542477.1800000016}},{"attributes":{"ID":607830,"DIS_CODE":0,"TOWNNAME":"南區","LI":"廣州里","LIN":"3鄰","STREET":"健康路","SECT":"二段","MAREA":" ","LANE":" ","ALLEY":" ","HOUSE_NO":"１１２號","E_COORD97":167425.76999999999,"N_COORD97":2542474.6499999999,"ADDRESS":"健康路二段１１２號","OBJECTID":607803},"geometry":{"x":167425.76999999955,"y":2542474.6500000022}},{"attributes":{"ID":607831,"DIS_CODE":0,"TOWNNAME":"南區","LI":"廣州里","LIN":"3鄰","STREET":"健康路","SECT":"二段","MAREA":" ","LANE":" ","ALLEY":" ","HOUSE_NO":"１１４號","E_COORD97":167414.79000000001,"N_COORD97":2542477.1800000002,"ADDRESS":"健康路二段１１４號","OBJECTID":607804},"geometry":{"x":167414.79000000097,"y":2542477.1800000016}},{"attributes":{"ID":607832,"DIS_CODE":0,"TOWNNAME":"南區","LI":"廣州里","LIN":"3鄰","STREET":"健康路","SECT":"二段","MAREA":" ","LANE":" ","ALLEY":" ","HOUSE_NO":"１３０號","E_COORD97":167367.85000000001,"N_COORD97":2542478.02,"ADDRESS":"健康路二段１３０號","OBJECTID":607805},"geometry":{"x":167367.84999999963,"y":2542478.0200000014}},{"attributes":{"ID":607833,"DIS_CODE":0,"TOWNNAME":"南區","LI":"廣州里","LIN":"3鄰","STREET":"健康路","SECT":"二段","MAREA":" ","LANE":" ","ALLEY":" ","HOUSE_NO":"１３２號","E_COORD97":167363.63,"N_COORD97":2542476.3300000001,"ADDRESS":"健康路二段１３２號","OBJECTID":607806},"geometry":{"x":167363.63000000082,"y":2542476.3300000038}},{"attributes":{"ID":607834,"DIS_CODE":0,"TOWNNAME":"南區","LI":"廣州里","LIN":"3鄰","STREET":"健康路","SECT":"二段","MAREA":" ","LANE":" ","ALLEY":" ","HOUSE_NO":"１３４號","E_COORD97":167356.88,"N_COORD97":2542477.1800000002,"ADDRESS":"健康路二段１３４號","OBJECTID":607807},"geometry":{"x":167356.88000000082,"y":2542477.1800000016}},{"attributes":{"ID":607835,"DIS_CODE":0,"TOWNNAME":"南區","LI":"大忠里","LIN":"3鄰","STREET":"公英一街","SECT":" ","MAREA":" ","LANE":" ","ALLEY":" ","HOUSE_NO":"３號","E_COORD97":169496.19,"N_COORD97":2541283.6400000001,"ADDRESS":"公英一街３號","OBJECTID":607808},"geometry":{"x":169496.19000000134,"y":2541283.6400000006}},{"attributes":{"ID":607836,"DIS_CODE":0,"TOWNNAME":"南區","LI":"廣州里","LIN":"3鄰","STREET":"健康路","SECT":"二段","MAREA":" ","LANE":" ","ALLEY":" ","HOUSE_NO":"１３６號","E_COORD97":167349.70000000001,"N_COORD97":2542478.02,"ADDRESS":"健康路二段１３６號","OBJECTID":607809},"geometry":{"x":167349.70000000112,"y":2542478.0200000014}},{"attributes":{"ID":607837,"DIS_CODE":0,"TOWNNAME":"南區","LI":"廣州里","LIN":"3鄰","STREET":"健康路","SECT":"二段","MAREA":" ","LANE":" ","ALLEY":" ","HOUSE_NO":"１４０號","E_COORD97":167345.89999999999,"N_COORD97":2542480.9700000002,"ADDRESS":"健康路二段１４０號","OBJECTID":607810},"geometry":{"x":167345.90000000037,"y":2542480.9700000007}},{"attributes":{"ID":607838,"DIS_CODE":0,"TOWNNAME":"南區","LI":"廣州里","LIN":"3鄰","STREET":"健康路","SECT":"二段","MAREA":" ","LANE":" ","ALLEY":" ","HOUSE_NO":"１４２號","E_COORD97":167341.25,"N_COORD97":2542477.1800000002,"ADDRESS":"健康路二段１４２號","OBJECTID":607811},"geometry":{"x":167341.25,"y":2542477.1800000016}},{"attributes":{"ID":607839,"DIS_CODE":0,"TOWNNAME":"南區","LI":"廣州里","LIN":"3鄰","STREET":"健康路","SECT":"二段","MAREA":" ","LANE":" ","ALLEY":" ","HOUSE_NO":"１４６號","E_COORD97":167334.92000000001,"N_COORD97":2542480.9700000002,"ADDRESS":"健康路二段１４６號","OBJECTID":607812},"geometry":{"x":167334.91999999993,"y":2542480.9700000007}},{"attributes":{"ID":607840,"DIS_CODE":0,"TOWNNAME":"南區","LI":"廣州里","LIN":"3鄰","STREET":"健康路","SECT":"二段","MAREA":" ","LANE":" ","ALLEY":" ","HOUSE_NO":"１４８號","E_COORD97":167330.28,"N_COORD97":2542476.75,"ADDRESS":"健康路二段１４８號","OBJECTID":607813},"geometry":{"x":167330.28000000212,"y":2542476.7500000037}},{"attributes":{"ID":607841,"DIS_CODE":0,"TOWNNAME":"南區","LI":"同安里","LIN":"3鄰","STREET":"興南街","SECT":" ","MAREA":" ","LANE":" ","ALLEY":" ","HOUSE_NO":"７０號","E_COORD97":166283.39000000001,"N_COORD97":2536113.8100000001,"ADDRESS":"興南街７０號","OBJECTID":607814},"geometry":{"x":166283.3900000006,"y":2536113.8100000024}},{"attributes":{"ID":607842,"DIS_CODE":0,"TOWNNAME":"歸仁區","LI":"大廟里","LIN":"3鄰","STREET":"大廟二街","SECT":" ","MAREA":" ","LANE":" ","ALLEY":" ","HOUSE_NO":"１３１號","E_COORD97":176080.01999999999,"N_COORD97":2543838.25,"ADDRESS":"大廟二街１３１號","OBJECTID":607815},"geometry":{"x":176080.02000000142,"y":2543838.25}},{"attributes":{"ID":607843,"DIS_CODE":0,"TOWNNAME":"歸仁區","LI":"西埔里","LIN":"3鄰","STREET":"保大路","SECT":"二段","MAREA":" ","LANE":" ","ALLEY":" ","HOUSE_NO":"１３７號","E_COORD97":176952.07000000001,"N_COORD97":2544125.2799999998,"ADDRESS":"保大路二段１３７號","OBJECTID":607816},"geometry":{"x":176952.07000000123,"y":2544125.2799999993}},{"attributes":{"ID":607844,"DIS_CODE":0,"TOWNNAME":"歸仁區","LI":"六甲里","LIN":"3鄰","STREET":"中正南路","SECT":"一段","MAREA":" ","LANE":" ","ALLEY":" ","HOUSE_NO":"６８３號","E_COORD97":176581.87918799999,"N_COORD97":2539793.55852,"ADDRESS":"中正南路一段６８３號","OBJECTID":607817},"geometry":{"x":176581.87918800116,"y":2539793.5585190021}},{"attributes":{"ID":607845,"DIS_CODE":0,"TOWNNAME":"歸仁區","LI":"大潭里","LIN":"3鄰","STREET":"長榮路","SECT":"一段","MAREA":" ","LANE":" ","ALLEY":" ","HOUSE_NO":"２９７號","E_COORD97":175310.17000000001,"N_COORD97":2534512.2799999998,"ADDRESS":"長榮路一段２９７號","OBJECTID":607818},"geometry":{"x":175310.17000000086,"y":2534512.2800000012}},{"attributes":{"ID":607846,"DIS_CODE":0,"TOWNNAME":"歸仁區","LI":"六甲里","LIN":"3鄰","STREET":"中正南路","SECT":"一段","MAREA":" ","LANE":" ","ALLEY":" ","HOUSE_NO":"６２５號","E_COORD97":176668.638897,"N_COORD97":2539865.6045200001,"ADDRESS":"中正南路一段６２５號","OBJECTID":607819},"geometry":{"x":176668.63889700081,"y":2539865.604522001}},{"attributes":{"ID":607847,"DIS_CODE":0,"TOWNNAME":"歸仁區","LI":"文化里","LIN":"3鄰","STREET":"文化街","SECT":"二段","MAREA":" ","LANE":" ","ALLEY":" ","HOUSE_NO":"１１０號","E_COORD97":177260.01999999999,"N_COORD97":2541179.2599999998,"ADDRESS":"文化街二段１１０號","OBJECTID":607820},"geometry":{"x":177260.02000000142,"y":2541179.2600000016}},{"attributes":{"ID":607848,"DIS_CODE":0,"TOWNNAME":"歸仁區","LI":"大潭里","LIN":"3鄰","STREET":"大潭一街","SECT":" ","MAREA":" ","LANE":" ","ALLEY":" ","HOUSE_NO":"６７號","E_COORD97":175294.76999999999,"N_COORD97":2534602.25,"ADDRESS":"大潭一街６７號","OBJECTID":607821},"geometry":{"x":175294.76999999955,"y":2534602.2500000019}},{"attributes":{"ID":607849,"DIS_CODE":0,"TOWNNAME":"歸仁區","LI":"大潭里","LIN":"3鄰","STREET":"長榮路","SECT":"一段","MAREA":" ","LANE":" ","ALLEY":" ","HOUSE_NO":"３３５號","E_COORD97":175390.17000000001,"N_COORD97":2534517.2799999998,"ADDRESS":"長榮路一段３３５號","OBJECTID":607822},"geometry":{"x":175390.17000000086,"y":2534517.2799999993}},{"attributes":{"ID":607850,"DIS_CODE":0,"TOWNNAME":"歸仁區","LI":"文化里","LIN":"3鄰","STREET":"文化街","SECT":"二段","MAREA":" ","LANE":" ","ALLEY":" ","HOUSE_NO":"１１２號","E_COORD97":177254.92000000001,"N_COORD97":2541181.2599999998,"ADDRESS":"文化街二段１１２號","OBJECTID":607823},"geometry":{"x":177254.92000000086,"y":2541181.2600000035}},{"attributes":{"ID":607851,"DIS_CODE":0,"TOWNNAME":"歸仁區","LI":"大潭里","LIN":"3鄰","STREET":"長榮路","SECT":"一段","MAREA":" ","LANE":" ","ALLEY":" ","HOUSE_NO":"３０５號","E_COORD97":175332.76999999999,"N_COORD97":2534519.2799999998,"ADDRESS":"長榮路一段３０５號","OBJECTID":607824},"geometry":{"x":175332.77000000048,"y":2534519.2800000012}},{"attributes":{"ID":607852,"DIS_CODE":0,"TOWNNAME":"歸仁區","LI":"六甲里","LIN":"3鄰","STREET":"中正南路","SECT":"一段","MAREA":" ","LANE":" ","ALLEY":" ","HOUSE_NO":"６３１號","E_COORD97":176658.46926099999,"N_COORD97":2539859.2016099999,"ADDRESS":"中正南路一段６３１號","OBJECTID":607825},"geometry":{"x":176658.46926099993,"y":2539859.201608004}},{"attributes":{"ID":607853,"DIS_CODE":0,"TOWNNAME":"歸仁區","LI":"大廟里","LIN":"3鄰","STREET":"大廟三街","SECT":" ","MAREA":" ","LANE":" ","ALLEY":" ","HOUSE_NO":"１３１號","E_COORD97":176309.92000000001,"N_COORD97":2543689.25,"ADDRESS":"大廟三街１３１號","OBJECTID":607826},"geometry":{"x":176309.91999999899,"y":2543689.25}},{"attributes":{"ID":607854,"DIS_CODE":0,"TOWNNAME":"歸仁區","LI":"六甲里","LIN":"3鄰","STREET":"中正南路","SECT":"一段","MAREA":" ","LANE":" ","ALLEY":" ","HOUSE_NO":"６２９號","E_COORD97":176661.75320599999,"N_COORD97":2539861.2918199999,"ADDRESS":"中正南路一段６２９號","OBJECTID":607827},"geometry":{"x":176661.75320599973,"y":2539861.2918160036}},{"attributes":{"ID":607855,"DIS_CODE":0,"TOWNNAME":"歸仁區","LI":"大廟里","LIN":"3鄰","STREET":"大廟三街","SECT":" ","MAREA":" ","LANE":" ","ALLEY":" ","HOUSE_NO":"１０５號","E_COORD97":176289.12,"N_COORD97":2543836.25,"ADDRESS":"大廟三街１０５號","OBJECTID":607828},"geometry":{"x":176289.12000000104,"y":2543836.2500000037}},{"attributes":{"ID":607856,"DIS_CODE":0,"TOWNNAME":"歸仁區","LI":"八甲里","LIN":"3鄰","STREET":"大明三街","SECT":" ","MAREA":" ","LANE":" ","ALLEY":" ","HOUSE_NO":"５０號","E_COORD97":178044.23000000001,"N_COORD97":2541734.4100000001,"ADDRESS":"大明三街５０號","OBJECTID":607829},"geometry":{"x":178044.22999999952,"y":2541734.410000002}},{"attributes":{"ID":607857,"DIS_CODE":0,"TOWNNAME":"歸仁區","LI":"辜厝里","LIN":"3鄰","STREET":"中正六街","SECT":" ","MAREA":" ","LANE":" ","ALLEY":" ","HOUSE_NO":"３０號","E_COORD97":177557.70000000001,"N_COORD97":2540674.0800000001,"ADDRESS":"中正六街３０號","OBJECTID":607830},"geometry":{"x":177557.70000000205,"y":2540674.0800000038}},{"attributes":{"ID":607858,"DIS_CODE":0,"TOWNNAME":"歸仁區","LI":"辜厝里","LIN":"3鄰","STREET":"中正六街","SECT":" ","MAREA":" ","LANE":" ","ALLEY":" ","HOUSE_NO":"３２號","E_COORD97":177552.35999999999,"N_COORD97":2540674.71,"ADDRESS":"中正六街３２號","OBJECTID":607831},"geometry":{"x":177552.36000000127,"y":2540674.7100000028}},{"attributes":{"ID":607859,"DIS_CODE":0,"TOWNNAME":"南區","LI":"再興里","LIN":"3鄰","STREET":"三和街","SECT":" ","MAREA":" ","LANE":" ","ALLEY":" ","HOUSE_NO":"１號","E_COORD97":167310.51999999999,"N_COORD97":2542399.8399999999,"ADDRESS":"三和街１號","OBJECTID":607832},"geometry":{"x":167310.51999999955,"y":2542399.8399999999}},{"attributes":{"ID":607860,"DIS_CODE":0,"TOWNNAME":"歸仁區","LI":"許厝里","LIN":"3鄰","STREET":"仁愛南街","SECT":" ","MAREA":" ","LANE":" ","ALLEY":" ","HOUSE_NO":"３７號","E_COORD97":178289.73000000001,"N_COORD97":2540518.6099999999,"ADDRESS":"仁愛南街３７號","OBJECTID":607833},"geometry":{"x":178289.73000000045,"y":2540518.6100000013}},{"attributes":{"ID":607861,"DIS_CODE":0,"TOWNNAME":"歸仁區","LI":"許厝里","LIN":"3鄰","STREET":"仁愛南街","SECT":" ","MAREA":" ","LANE":" ","ALLEY":" ","HOUSE_NO":"３９號","E_COORD97":178289.59,"N_COORD97":2540514.52,"ADDRESS":"仁愛南街３９號","OBJECTID":607834},"geometry":{"x":178289.58999999985,"y":2540514.5200000033}},{"attributes":{"ID":607862,"DIS_CODE":0,"TOWNNAME":"歸仁區","LI":"許厝里","LIN":"3鄰","STREET":"仁愛南街","SECT":" ","MAREA":" ","LANE":" ","ALLEY":" ","HOUSE_NO":"４１號","E_COORD97":178289.29000000001,"N_COORD97":2540510.2200000002,"ADDRESS":"仁愛南街４１號","OBJECTID":607835},"geometry":{"x":178289.2900000019,"y":2540510.2200000007}},{"attributes":{"ID":607863,"DIS_CODE":0,"TOWNNAME":"歸仁區","LI":"許厝里","LIN":"3鄰","STREET":"仁愛南街","SECT":" ","MAREA":" ","LANE":" ","ALLEY":" ","HOUSE_NO":"４３號","E_COORD97":178289.29000000001,"N_COORD97":2540506.1200000001,"ADDRESS":"仁愛南街４３號","OBJECTID":607836},"geometry":{"x":178289.2900000019,"y":2540506.1200000029}},{"attributes":{"ID":607864,"DIS_CODE":0,"TOWNNAME":"歸仁區","LI":"許厝里","LIN":"3鄰","STREET":"仁愛南街","SECT":" ","MAREA":" ","LANE":" ","ALLEY":" ","HOUSE_NO":"５３號","E_COORD97":178288.28,"N_COORD97":2540485.79,"ADDRESS":"仁愛南街５３號","OBJECTID":607837},"geometry":{"x":178288.28000000119,"y":2540485.790000001}},{"attributes":{"ID":607865,"DIS_CODE":0,"TOWNNAME":"歸仁區","LI":"許厝里","LIN":"3鄰","STREET":"仁愛南街","SECT":" ","MAREA":" ","LANE":" ","ALLEY":" ","HOUSE_NO":"５５號","E_COORD97":178288.39999999999,"N_COORD97":2540481.8599999999,"ADDRESS":"仁愛南街５５號","OBJECTID":607838},"geometry":{"x":178288.40000000037,"y":2540481.8600000031}},{"attributes":{"ID":607866,"DIS_CODE":0,"TOWNNAME":"歸仁區","LI":"文化里","LIN":"3鄰","STREET":"文化街","SECT":"二段","MAREA":" ","LANE":" ","ALLEY":" ","HOUSE_NO":"８６號","E_COORD97":177315.98000000001,"N_COORD97":2541156.4900000002,"ADDRESS":"文化街二段８６號","OBJECTID":607839},"geometry":{"x":177315.98000000138,"y":2541156.4900000039}},{"attributes":{"ID":607867,"DIS_CODE":0,"TOWNNAME":"歸仁區","LI":"文化里","LIN":"3鄰","STREET":"文化街","SECT":"二段","MAREA":" ","LANE":" ","ALLEY":" ","HOUSE_NO":"９６號","E_COORD97":177286.29999999999,"N_COORD97":2541168.0299999998,"ADDRESS":"文化街二段９６號","OBJECTID":607840},"geometry":{"x":177286.29999999981,"y":2541168.0299999993}},{"attributes":{"ID":607868,"DIS_CODE":0,"TOWNNAME":"歸仁區","LI":"崙頂里","LIN":"3鄰","STREET":"信義南路","SECT":" ","MAREA":" ","LANE":" ","ALLEY":" ","HOUSE_NO":"２０８號","E_COORD97":178148.20999999999,"N_COORD97":2540033.0699999998,"ADDRESS":"信義南路２０８號","OBJECTID":607841},"geometry":{"x":178148.20999999996,"y":2540033.0700000003}},{"attributes":{"ID":607869,"DIS_CODE":0,"TOWNNAME":"歸仁區","LI":"崙頂里","LIN":"3鄰","STREET":"信義南路","SECT":" ","MAREA":" ","LANE":" ","ALLEY":" ","HOUSE_NO":"２１０號","E_COORD97":178149.94,"N_COORD97":2540029.3300000001,"ADDRESS":"信義南路２１０號","OBJECTID":607842},"geometry":{"x":178149.94000000134,"y":2540029.3300000019}},{"attributes":{"ID":607870,"DIS_CODE":0,"TOWNNAME":"歸仁區","LI":"崙頂里","LIN":"3鄰","STREET":"信義南路","SECT":" ","MAREA":" ","LANE":" ","ALLEY":" ","HOUSE_NO":"２１２號","E_COORD97":178151.51000000001,"N_COORD97":2540025.23,"ADDRESS":"信義南路２１２號","OBJECTID":607843},"geometry":{"x":178151.50999999978,"y":2540025.2300000004}},{"attributes":{"ID":607871,"DIS_CODE":0,"TOWNNAME":"歸仁區","LI":"崙頂里","LIN":"3鄰","STREET":"信義南路","SECT":" ","MAREA":" ","LANE":" ","ALLEY":" ","HOUSE_NO":"２１２之１號","E_COORD97":178153.14999999999,"N_COORD97":2540021.77,"ADDRESS":"信義南路２１２之１號","OBJECTID":607844},"geometry":{"x":178153.14999999944,"y":2540021.7700000014}},{"attributes":{"ID":607872,"DIS_CODE":0,"TOWNNAME":"歸仁區","LI":"崙頂里","LIN":"3鄰","STREET":"信義南路","SECT":" ","MAREA":" ","LANE":" ","ALLEY":" ","HOUSE_NO":"２１６號","E_COORD97":178154.59,"N_COORD97":2540018.27,"ADDRESS":"信義南路２１６號","OBJECTID":607845},"geometry":{"x":178154.58999999985,"y":2540018.2700000014}},{"attributes":{"ID":607873,"DIS_CODE":0,"TOWNNAME":"歸仁區","LI":"崙頂里","LIN":"3鄰","STREET":"信義南路","SECT":" ","MAREA":" ","LANE":" ","ALLEY":" ","HOUSE_NO":"２１８號","E_COORD97":178156.51000000001,"N_COORD97":2540014.3199999998,"ADDRESS":"信義南路２１８號","OBJECTID":607846},"geometry":{"x":178156.50999999978,"y":2540014.3200000003}},{"attributes":{"ID":607874,"DIS_CODE":0,"TOWNNAME":"南區","LI":"喜東里","LIN":"3鄰","STREET":"明興路","SECT":" ","MAREA":" ","LANE":" ","ALLEY":" ","HOUSE_NO":"３３４號","E_COORD97":166342.19,"N_COORD97":2538994.7799999998,"ADDRESS":"明興路３３４號","OBJECTID":607847},"geometry":{"x":166342.19000000041,"y":2538994.7800000012}},{"attributes":{"ID":607875,"DIS_CODE":0,"TOWNNAME":"安平區","LI":"文平里","LIN":"3鄰","STREET":"永華路","SECT":"二段","MAREA":" ","LANE":" ","ALLEY":" ","HOUSE_NO":"４１之２號","E_COORD97":166462.29000000001,"N_COORD97":2543294.2799999998,"ADDRESS":"永華路二段４１之２號","OBJECTID":607848},"geometry":{"x":166462.29000000097,"y":2543294.2800000012}},{"attributes":{"ID":607876,"DIS_CODE":0,"TOWNNAME":"安平區","LI":"文平里","LIN":"3鄰","STREET":"永華二街","SECT":" ","MAREA":" ","LANE":" ","ALLEY":" ","HOUSE_NO":"２００號","E_COORD97":166407.70000000001,"N_COORD97":2543283.2799999998,"ADDRESS":"永華二街２００號","OBJECTID":607849},"geometry":{"x":166407.70000000019,"y":2543283.2800000012}},{"attributes":{"ID":607877,"DIS_CODE":0,"TOWNNAME":"安平區","LI":"文平里","LIN":"3鄰","STREET":"永華二街","SECT":" ","MAREA":" ","LANE":" ","ALLEY":" ","HOUSE_NO":"１９８號","E_COORD97":166403.57000000001,"N_COORD97":2543278.52,"ADDRESS":"永華二街１９８號","OBJECTID":607850},"geometry":{"x":166403.5700000003,"y":2543278.5200000014}},{"attributes":{"ID":607878,"DIS_CODE":0,"TOWNNAME":"安平區","LI":"文平里","LIN":"3鄰","STREET":"永華路","SECT":"二段","MAREA":" ","LANE":" ","ALLEY":" ","HOUSE_NO":"３３１號","E_COORD97":166082.01000000001,"N_COORD97":2543353.4700000002,"ADDRESS":"永華路二段３３１號","OBJECTID":607851},"geometry":{"x":166082.00999999885,"y":2543353.4700000007}},{"attributes":{"ID":607879,"DIS_CODE":0,"TOWNNAME":"安平區","LI":"文平里","LIN":"3鄰","STREET":"永華路","SECT":"二段","MAREA":" ","LANE":" ","ALLEY":" ","HOUSE_NO":"３３３號","E_COORD97":166073.92000000001,"N_COORD97":2543356.6499999999,"ADDRESS":"永華路二段３３３號","OBJECTID":607852},"geometry":{"x":166073.91999999993,"y":2543356.6500000022}},{"attributes":{"ID":607880,"DIS_CODE":0,"TOWNNAME":"安平區","LI":"文平里","LIN":"3鄰","STREET":"永華路","SECT":"二段","MAREA":" ","LANE":" ","ALLEY":" ","HOUSE_NO":"３３５號","E_COORD97":166066.60999999999,"N_COORD97":2543356.9700000002,"ADDRESS":"永華路二段３３５號","OBJECTID":607853},"geometry":{"x":166066.61000000034,"y":2543356.9700000007}},{"attributes":{"ID":607881,"DIS_CODE":0,"TOWNNAME":"安平區","LI":"文平里","LIN":"3鄰","STREET":"永華路","SECT":"二段","MAREA":" ","LANE":" ","ALLEY":" ","HOUSE_NO":"３３７號","E_COORD97":166061.22,"N_COORD97":2543357.2799999998,"ADDRESS":"永華路二段３３７號","OBJECTID":607854},"geometry":{"x":166061.21999999974,"y":2543357.2800000031}},{"attributes":{"ID":607882,"DIS_CODE":0,"TOWNNAME":"安平區","LI":"文平里","LIN":"3鄰","STREET":"永華路","SECT":"二段","MAREA":" ","LANE":" ","ALLEY":" ","HOUSE_NO":"３３９號","E_COORD97":166053.28,"N_COORD97":2543356.9700000002,"ADDRESS":"永華路二段３３９號","OBJECTID":607855},"geometry":{"x":166053.28000000026,"y":2543356.9700000007}},{"attributes":{"ID":607883,"DIS_CODE":0,"TOWNNAME":"安平區","LI":"億載里","LIN":"3鄰","STREET":"永華十二街","SECT":" ","MAREA":" ","LANE":" ","ALLEY":" ","HOUSE_NO":"１８號","E_COORD97":163770.79999999999,"N_COORD97":2543655.75,"ADDRESS":"永華十二街１８號","OBJECTID":607856},"geometry":{"x":163770.79999999981,"y":2543655.75}},{"attributes":{"ID":607884,"DIS_CODE":0,"TOWNNAME":"鹽水區","LI":"福得里","LIN":"3鄰","STREET":"朝琴路","SECT":" ","MAREA":" ","LANE":" ","ALLEY":" ","HOUSE_NO":"２６號","E_COORD97":175214.45000000001,"N_COORD97":2580001.3599999999,"ADDRESS":"朝琴路２６號","OBJECTID":607857},"geometry":{"x":175214.45000000019,"y":2580001.3600000013}},{"attributes":{"ID":607885,"DIS_CODE":0,"TOWNNAME":"鹽水區","LI":"福得里","LIN":"3鄰","STREET":"朝琴路","SECT":" ","MAREA":" ","LANE":" ","ALLEY":" ","HOUSE_NO":"３０號","E_COORD97":175222.73999999999,"N_COORD97":2580006.23,"ADDRESS":"朝琴路３０號","OBJECTID":607858},"geometry":{"x":175222.74000000022,"y":2580006.2300000023}},{"attributes":{"ID":607886,"DIS_CODE":0,"TOWNNAME":"鹽水區","LI":"福得里","LIN":"3鄰","STREET":"朝琴路","SECT":" ","MAREA":" ","LANE":" ","ALLEY":" ","HOUSE_NO":"３２號","E_COORD97":175226.66,"N_COORD97":2580009.0600000001,"ADDRESS":"朝琴路３２號","OBJECTID":607859},"geometry":{"x":175226.66000000015,"y":2580009.0600000005}},{"attributes":{"ID":607887,"DIS_CODE":0,"TOWNNAME":"鹽水區","LI":"福得里","LIN":"3鄰","STREET":"朝琴路","SECT":" ","MAREA":" ","LANE":" ","ALLEY":" ","HOUSE_NO":"３４號","E_COORD97":175231.13,"N_COORD97":2580011.5699999998,"ADDRESS":"朝琴路３４號","OBJECTID":607860},"geometry":{"x":175231.13000000082,"y":2580011.5700000003}},{"attributes":{"ID":607888,"DIS_CODE":0,"TOWNNAME":"鹽水區","LI":"福得里","LIN":"3鄰","STREET":"朝琴路","SECT":" ","MAREA":" ","LANE":" ","ALLEY":" ","HOUSE_NO":"３６號","E_COORD97":175234.79999999999,"N_COORD97":2580013.7400000002,"ADDRESS":"朝琴路３６號","OBJECTID":607861},"geometry":{"x":175234.80000000075,"y":2580013.7400000002}},{"attributes":{"ID":607889,"DIS_CODE":0,"TOWNNAME":"鹽水區","LI":"福得里","LIN":"3鄰","STREET":"朝琴路","SECT":" ","MAREA":" ","LANE":" ","ALLEY":" ","HOUSE_NO":"３８號","E_COORD97":175239.35000000001,"N_COORD97":2580016.6699999999,"ADDRESS":"朝琴路３８號","OBJECTID":607862},"geometry":{"x":175239.35000000056,"y":2580016.6700000018}},{"attributes":{"ID":607890,"DIS_CODE":0,"TOWNNAME":"鹽水區","LI":"橋南里","LIN":"3鄰","STREET":"橋南街","SECT":" ","MAREA":" ","LANE":" ","ALLEY":" ","HOUSE_NO":"３９號","E_COORD97":175134.89999999999,"N_COORD97":2579478.1800000002,"ADDRESS":"橋南街３９號","OBJECTID":607863},"geometry":{"x":175134.9000000013,"y":2579478.1799999997}},{"attributes":{"ID":607891,"DIS_CODE":0,"TOWNNAME":"鹽水區","LI":"橋南里","LIN":"3鄰","STREET":"橋南街","SECT":" ","MAREA":" ","LANE":" ","ALLEY":" ","HOUSE_NO":"４１號","E_COORD97":175135.64000000001,"N_COORD97":2579473.9199999999,"ADDRESS":"橋南街４１號","OBJECTID":607864},"geometry":{"x":175135.6400000006,"y":2579473.9199999999}},{"attributes":{"ID":607892,"DIS_CODE":0,"TOWNNAME":"鹽水區","LI":"橋南里","LIN":"3鄰","STREET":"橋南街","SECT":" ","MAREA":" ","LANE":" ","ALLEY":" ","HOUSE_NO":"４３號","E_COORD97":175136.17999999999,"N_COORD97":2579469.23,"ADDRESS":"橋南街４３號","OBJECTID":607865},"geometry":{"x":175136.1799999997,"y":2579469.2300000004}},{"attributes":{"ID":607893,"DIS_CODE":0,"TOWNNAME":"鹽水區","LI":"橋南里","LIN":"3鄰","STREET":"橋南街","SECT":" ","MAREA":" ","LANE":" ","ALLEY":" ","HOUSE_NO":"４５號","E_COORD97":175137.04999999999,"N_COORD97":2579464.79,"ADDRESS":"橋南街４５號","OBJECTID":607866},"geometry":{"x":175137.04999999981,"y":2579464.790000001}},{"attributes":{"ID":607894,"DIS_CODE":0,"TOWNNAME":"鹽水區","LI":"橋南里","LIN":"3鄰","STREET":"橋南街","SECT":" ","MAREA":" ","LANE":" ","ALLEY":" ","HOUSE_NO":"４９號","E_COORD97":175138.26999999999,"N_COORD97":2579456.1400000001,"ADDRESS":"橋南街４９號","OBJECTID":607867},"geometry":{"x":175138.27000000048,"y":2579456.1400000006}},{"attributes":{"ID":607895,"DIS_CODE":0,"TOWNNAME":"鹽水區","LI":"橋南里","LIN":"3鄰","STREET":"橋南街","SECT":" ","MAREA":" ","LANE":" ","ALLEY":" ","HOUSE_NO":"５１號","E_COORD97":175139.19,"N_COORD97":2579451.3999999999,"ADDRESS":"橋南街５１號","OBJECTID":607868},"geometry":{"x":175139.19000000134,"y":2579451.4000000041}},{"attributes":{"ID":607896,"DIS_CODE":0,"TOWNNAME":"鹽水區","LI":"橋南里","LIN":"3鄰","STREET":"橋南街","SECT":" ","MAREA":" ","LANE":" ","ALLEY":" ","HOUSE_NO":"５９號","E_COORD97":175143.41,"N_COORD97":2579432.23,"ADDRESS":"橋南街５９號","OBJECTID":607869},"geometry":{"x":175143.41000000015,"y":2579432.2300000042}},{"attributes":{"ID":607897,"DIS_CODE":0,"TOWNNAME":"鹽水區","LI":"橋南里","LIN":"3鄰","STREET":"橋南街","SECT":" ","MAREA":" ","LANE":" ","ALLEY":" ","HOUSE_NO":"６１號","E_COORD97":175144.42000000001,"N_COORD97":2579427.21,"ADDRESS":"橋南街６１號","OBJECTID":607870},"geometry":{"x":175144.42000000086,"y":2579427.2100000028}},{"attributes":{"ID":607898,"DIS_CODE":0,"TOWNNAME":"安平區","LI":"文平里","LIN":"3鄰","STREET":"永華二街","SECT":" ","MAREA":" ","LANE":" ","ALLEY":" ","HOUSE_NO":"１９２號","E_COORD97":166404.51999999999,"N_COORD97":2543265.3399999999,"ADDRESS":"永華二街１９２號","OBJECTID":607871},"geometry":{"x":166404.52000000048,"y":2543265.3399999999}},{"attributes":{"ID":607899,"DIS_CODE":0,"TOWNNAME":"南區","LI":"大忠里","LIN":"3鄰","STREET":"公英一街","SECT":" ","MAREA":" ","LANE":" ","ALLEY":" ","HOUSE_NO":"１９號","E_COORD97":169448.13,"N_COORD97":2541269.8300000001,"ADDRESS":"公英一街１９號","OBJECTID":607872},"geometry":{"x":169448.13000000175,"y":2541269.8300000019}},{"attributes":{"ID":607900,"DIS_CODE":0,"TOWNNAME":"南區","LI":"大忠里","LIN":"3鄰","STREET":"公英一街","SECT":" ","MAREA":" ","LANE":" ","ALLEY":" ","HOUSE_NO":"１３號","E_COORD97":169462.44,"N_COORD97":2541273.1699999999,"ADDRESS":"公英一街１３號","OBJECTID":607873},"geometry":{"x":169462.44000000134,"y":2541273.1699999981}},{"attributes":{"ID":607901,"DIS_CODE":0,"TOWNNAME":"南區","LI":"大忠里","LIN":"3鄰","STREET":"公英一街","SECT":" ","MAREA":" ","LANE":" ","ALLEY":" ","HOUSE_NO":"２０號","E_COORD97":169433.79999999999,"N_COORD97":2541285.5,"ADDRESS":"公英一街２０號","OBJECTID":607874},"geometry":{"x":169433.80000000075,"y":2541285.5000000019}},{"attributes":{"ID":607902,"DIS_CODE":0,"TOWNNAME":"南區","LI":"大忠里","LIN":"3鄰","STREET":"公英一街","SECT":" ","MAREA":" ","LANE":" ","ALLEY":" ","HOUSE_NO":"２１號","E_COORD97":169443.44,"N_COORD97":2541269.3900000001,"ADDRESS":"公英一街２１號","OBJECTID":607875},"geometry":{"x":169443.44000000134,"y":2541269.3900000043}},{"attributes":{"ID":607903,"DIS_CODE":0,"TOWNNAME":"南區","LI":"大忠里","LIN":"3鄰","STREET":"公英一街","SECT":" ","MAREA":" ","LANE":" ","ALLEY":" ","HOUSE_NO":"２２號","E_COORD97":169430.76999999999,"N_COORD97":2541284.5,"ADDRESS":"公英一街２２號","OBJECTID":607876},"geometry":{"x":169430.76999999955,"y":2541284.5}},{"attributes":{"ID":607904,"DIS_CODE":0,"TOWNNAME":"南區","LI":"大忠里","LIN":"3鄰","STREET":"公英一街","SECT":" ","MAREA":" ","LANE":" ","ALLEY":" ","HOUSE_NO":"２３號","E_COORD97":169439.64000000001,"N_COORD97":2541268.27,"ADDRESS":"公英一街２３號","OBJECTID":607877},"geometry":{"x":169439.6400000006,"y":2541268.2699999996}},{"attributes":{"ID":607905,"DIS_CODE":0,"TOWNNAME":"南區","LI":"大忠里","LIN":"3鄰","STREET":"公英一街","SECT":" ","MAREA":" ","LANE":" ","ALLEY":" ","HOUSE_NO":"２４號","E_COORD97":169424.70999999999,"N_COORD97":2541283.8300000001,"ADDRESS":"公英一街２４號","OBJECTID":607878},"geometry":{"x":169424.71000000089,"y":2541283.8300000019}},{"attributes":{"ID":607906,"DIS_CODE":0,"TOWNNAME":"南區","LI":"大忠里","LIN":"3鄰","STREET":"公英一街","SECT":" ","MAREA":" ","LANE":" ","ALLEY":" ","HOUSE_NO":"２５號","E_COORD97":169435.39999999999,"N_COORD97":2541266.9399999999,"ADDRESS":"公英一街２５號","OBJECTID":607879},"geometry":{"x":169435.4000000013,"y":2541266.9399999995}},{"attributes":{"ID":607907,"DIS_CODE":0,"TOWNNAME":"歸仁區","LI":"辜厝里","LIN":"3鄰","STREET":"中正南路","SECT":"一段","MAREA":" ","LANE":" ","ALLEY":" ","HOUSE_NO":"１６號","E_COORD97":177610.35999999999,"N_COORD97":2540700.1200000001,"ADDRESS":"中正南路一段１６號","OBJECTID":607880},"geometry":{"x":177610.36000000034,"y":2540700.1200000029}},{"attributes":{"ID":607908,"DIS_CODE":0,"TOWNNAME":"歸仁區","LI":"看西里","LIN":"3鄰","STREET":"仁愛三街","SECT":" ","MAREA":" ","LANE":" ","ALLEY":" ","HOUSE_NO":"３０號","E_COORD97":178336.60000000001,"N_COORD97":2540396.96,"ADDRESS":"仁愛三街３０號","OBJECTID":607881},"geometry":{"x":178336.60000000056,"y":2540396.9600000009}},{"attributes":{"ID":607909,"DIS_CODE":0,"TOWNNAME":"歸仁區","LI":"辜厝里","LIN":"3鄰","STREET":"中正六街","SECT":" ","MAREA":" ","LANE":" ","ALLEY":" ","HOUSE_NO":"８２號","E_COORD97":177475.51000000001,"N_COORD97":2540681.25,"ADDRESS":"中正六街８２號","OBJECTID":607882},"geometry":{"x":177475.51000000164,"y":2540681.2500000019}},{"attributes":{"ID":607910,"DIS_CODE":0,"TOWNNAME":"歸仁區","LI":"辜厝里","LIN":"3鄰","STREET":"中正南路","SECT":"一段","MAREA":" ","LANE":" ","ALLEY":" ","HOUSE_NO":"２０號","E_COORD97":177609.26000000001,"N_COORD97":2540692.1200000001,"ADDRESS":"中正南路一段２０號","OBJECTID":607883},"geometry":{"x":177609.25999999978,"y":2540692.1200000029}},{"attributes":{"ID":607911,"DIS_CODE":0,"TOWNNAME":"歸仁區","LI":"看西里","LIN":"3鄰","STREET":"仁愛三街","SECT":" ","MAREA":" ","LANE":" ","ALLEY":" ","HOUSE_NO":"２６號","E_COORD97":178325.29999999999,"N_COORD97":2540397.96,"ADDRESS":"仁愛三街２６號","OBJECTID":607884},"geometry":{"x":178325.30000000075,"y":2540397.9600000046}},{"attributes":{"ID":607912,"DIS_CODE":0,"TOWNNAME":"歸仁區","LI":"崙頂里","LIN":"3鄰","STREET":"崙頂一街","SECT":" ","MAREA":" ","LANE":" ","ALLEY":" ","HOUSE_NO":"１０５號","E_COORD97":178134.5,"N_COORD97":2540008.6800000002,"ADDRESS":"崙頂一街１０５號","OBJECTID":607885},"geometry":{"x":178134.5,"y":2540008.6800000034}},{"attributes":{"ID":607913,"DIS_CODE":0,"TOWNNAME":"歸仁區","LI":"看東里","LIN":"3鄰","STREET":"忠孝南路","SECT":" ","MAREA":" ","LANE":" ","ALLEY":" ","HOUSE_NO":"１８８號","E_COORD97":178531.17000000001,"N_COORD97":2540232.8300000001,"ADDRESS":"忠孝南路１８８號","OBJECTID":607886},"geometry":{"x":178531.17000000086,"y":2540232.8300000019}},{"attributes":{"ID":607914,"DIS_CODE":0,"TOWNNAME":"歸仁區","LI":"辜厝里","LIN":"3鄰","STREET":"中正二街","SECT":" ","MAREA":" ","LANE":" ","ALLEY":" ","HOUSE_NO":"４５號","E_COORD97":177500.26000000001,"N_COORD97":2540722.1099999999,"ADDRESS":"中正二街４５號","OBJECTID":607887},"geometry":{"x":177500.25999999978,"y":2540722.1100000013}},{"attributes":{"ID":607915,"DIS_CODE":0,"TOWNNAME":"歸仁區","LI":"辜厝里","LIN":"3鄰","STREET":"中正二街","SECT":" ","MAREA":" ","LANE":" ","ALLEY":" ","HOUSE_NO":"６１號","E_COORD97":177456.48999999999,"N_COORD97":2540720.54,"ADDRESS":"中正二街６１號","OBJECTID":607888},"geometry":{"x":177456.49000000115,"y":2540720.5399999972}},{"attributes":{"ID":607916,"DIS_CODE":0,"TOWNNAME":"歸仁區","LI":"看西里","LIN":"3鄰","STREET":"仁愛三街","SECT":" ","MAREA":" ","LANE":" ","ALLEY":" ","HOUSE_NO":"２８號","E_COORD97":178331.5,"N_COORD97":2540396.96,"ADDRESS":"仁愛三街２８號","OBJECTID":607889},"geometry":{"x":178331.5,"y":2540396.9600000009}},{"attributes":{"ID":607917,"DIS_CODE":0,"TOWNNAME":"歸仁區","LI":"辜厝里","LIN":"3鄰","STREET":"中正二街","SECT":" ","MAREA":" ","LANE":" ","ALLEY":" ","HOUSE_NO":"５７號","E_COORD97":177471.98999999999,"N_COORD97":2540725.54,"ADDRESS":"中正二街５７號","OBJECTID":607890},"geometry":{"x":177471.99000000022,"y":2540725.540000001}},{"attributes":{"ID":607918,"DIS_CODE":0,"TOWNNAME":"歸仁區","LI":"南保里","LIN":"3鄰","STREET":"民權二街","SECT":" ","MAREA":" ","LANE":" ","ALLEY":" ","HOUSE_NO":"８５號","E_COORD97":176927.51000000001,"N_COORD97":2541450.25,"ADDRESS":"民權二街８５號","OBJECTID":607891},"geometry":{"x":176927.50999999978,"y":2541450.2500000019}},{"attributes":{"ID":607919,"DIS_CODE":0,"TOWNNAME":"歸仁區","LI":"看東里","LIN":"3鄰","STREET":"忠孝南路","SECT":" ","MAREA":" ","LANE":" ","ALLEY":" ","HOUSE_NO":"１６６號","E_COORD97":178540.57000000001,"N_COORD97":2540252.8300000001,"ADDRESS":"忠孝南路１６６號","OBJECTID":607892},"geometry":{"x":178540.57000000123,"y":2540252.8300000019}},{"attributes":{"ID":607920,"DIS_CODE":0,"TOWNNAME":"歸仁區","LI":"辜厝里","LIN":"3鄰","STREET":"中正南路","SECT":"一段","MAREA":" ","LANE":" ","ALLEY":" ","HOUSE_NO":"２６之１號","E_COORD97":177605.56,"N_COORD97":2540671.1200000001,"ADDRESS":"中正南路一段２６之１號","OBJECTID":607893},"geometry":{"x":177605.56000000145,"y":2540671.120000001}},{"attributes":{"ID":607921,"DIS_CODE":0,"TOWNNAME":"歸仁區","LI":"南保里","LIN":"3鄰","STREET":"民權二街","SECT":" ","MAREA":" ","LANE":" ","ALLEY":" ","HOUSE_NO":"８７號","E_COORD97":176948.01000000001,"N_COORD97":2541449.25,"ADDRESS":"民權二街８７號","OBJECTID":607894},"geometry":{"x":176948.00999999978,"y":2541449.2500000037}},{"attributes":{"ID":607922,"DIS_CODE":0,"TOWNNAME":"歸仁區","LI":"許厝里","LIN":"3鄰","STREET":"仁愛一街","SECT":" ","MAREA":" ","LANE":" ","ALLEY":" ","HOUSE_NO":"１０號","E_COORD97":178311.76999999999,"N_COORD97":2540616.6499999999,"ADDRESS":"仁愛一街１０號","OBJECTID":607895},"geometry":{"x":178311.77000000048,"y":2540616.6500000022}},{"attributes":{"ID":607923,"DIS_CODE":0,"TOWNNAME":"歸仁區","LI":"辜厝里","LIN":"3鄰","STREET":"中正六街","SECT":" ","MAREA":" ","LANE":" ","ALLEY":" ","HOUSE_NO":"８８號","E_COORD97":177461.48999999999,"N_COORD97":2540688.54,"ADDRESS":"中正六街８８號","OBJECTID":607896},"geometry":{"x":177461.49000000115,"y":2540688.540000001}},{"attributes":{"ID":607924,"DIS_CODE":0,"TOWNNAME":"歸仁區","LI":"南保里","LIN":"3鄰","STREET":"民權二街","SECT":" ","MAREA":" ","LANE":" ","ALLEY":" ","HOUSE_NO":"７１號","E_COORD97":176945.91,"N_COORD97":2541427.25,"ADDRESS":"民權二街７１號","OBJECTID":607897},"geometry":{"x":176945.90999999922,"y":2541427.25}},{"attributes":{"ID":607925,"DIS_CODE":0,"TOWNNAME":"歸仁區","LI":"看東里","LIN":"3鄰","STREET":"忠孝南路","SECT":" ","MAREA":" ","LANE":" ","ALLEY":" ","HOUSE_NO":"１７０號","E_COORD97":178511.87,"N_COORD97":2540255.8300000001,"ADDRESS":"忠孝南路１７０號","OBJECTID":607898},"geometry":{"x":178511.87000000011,"y":2540255.8300000019}},{"attributes":{"ID":607926,"DIS_CODE":0,"TOWNNAME":"歸仁區","LI":"辜厝里","LIN":"3鄰","STREET":"中正二街","SECT":" ","MAREA":" ","LANE":" ","ALLEY":" ","HOUSE_NO":"６７號","E_COORD97":177450.39000000001,"N_COORD97":2540723.54,"ADDRESS":"中正二街６７號","OBJECTID":607899},"geometry":{"x":177450.38999999966,"y":2540723.5399999991}},{"attributes":{"ID":607927,"DIS_CODE":0,"TOWNNAME":"歸仁區","LI":"南興里","LIN":"3鄰","STREET":"文化十二街","SECT":" ","MAREA":" ","LANE":" ","ALLEY":" ","HOUSE_NO":"５３號","E_COORD97":176449.26999999999,"N_COORD97":2541298.2599999998,"ADDRESS":"文化十二街５３號","OBJECTID":607900},"geometry":{"x":176449.26999999955,"y":2541298.2599999998}},{"attributes":{"ID":607928,"DIS_CODE":0,"TOWNNAME":"北區","LI":"仁愛里","LIN":"3鄰","STREET":"勝利路","SECT":" ","MAREA":" ","LANE":" ","ALLEY":" ","HOUSE_NO":"１９２號","E_COORD97":169931,"N_COORD97":2544933.04,"ADDRESS":"勝利路１９２號","OBJECTID":607901},"geometry":{"x":169931.00000000093,"y":2544933.040000001}},{"attributes":{"ID":607929,"DIS_CODE":0,"TOWNNAME":"北區","LI":"仁愛里","LIN":"3鄰","STREET":"勝利路","SECT":" ","MAREA":" ","LANE":" ","ALLEY":" ","HOUSE_NO":"１９６號","E_COORD97":169931.35999999999,"N_COORD97":2544937.2400000002,"ADDRESS":"勝利路１９６號","OBJECTID":607902},"geometry":{"x":169931.36000000034,"y":2544937.2400000002}},{"attributes":{"ID":607930,"DIS_CODE":0,"TOWNNAME":"北區","LI":"仁愛里","LIN":"3鄰","STREET":"勝利路","SECT":" ","MAREA":" ","LANE":" ","ALLEY":" ","HOUSE_NO":"１９８號","E_COORD97":169931.89000000001,"N_COORD97":2544943.2200000002,"ADDRESS":"勝利路１９８號","OBJECTID":607903},"geometry":{"x":169931.88999999966,"y":2544943.2200000025}},{"attributes":{"ID":607931,"DIS_CODE":0,"TOWNNAME":"北區","LI":"仁愛里","LIN":"3鄰","STREET":"勝利路","SECT":" ","MAREA":" ","LANE":" ","ALLEY":" ","HOUSE_NO":"２００號","E_COORD97":169932.82381500001,"N_COORD97":2544953.2738899998,"ADDRESS":"勝利路２００號","OBJECTID":607904},"geometry":{"x":169932.82381500024,"y":2544953.2738910001}},{"attributes":{"ID":607932,"DIS_CODE":0,"TOWNNAME":"北區","LI":"仁愛里","LIN":"3鄰","STREET":"勝利路","SECT":" ","MAREA":" ","LANE":" ","ALLEY":" ","HOUSE_NO":"２０２號","E_COORD97":169933.59,"N_COORD97":2544960.5899999999,"ADDRESS":"勝利路２０２號","OBJECTID":607905},"geometry":{"x":169933.59000000078,"y":2544960.5900000017}},{"attributes":{"ID":607933,"DIS_CODE":0,"TOWNNAME":"北區","LI":"仁愛里","LIN":"3鄰","STREET":"勝利路","SECT":" ","MAREA":" ","LANE":" ","ALLEY":" ","HOUSE_NO":"２０４號","E_COORD97":169933.03565999999,"N_COORD97":2544975.4988799999,"ADDRESS":"勝利路２０４號","OBJECTID":607906},"geometry":{"x":169933.03566000052,"y":2544975.4988790005}},{"attributes":{"ID":607934,"DIS_CODE":0,"TOWNNAME":"北區","LI":"仁愛里","LIN":"3鄰","STREET":"勝利路","SECT":" ","MAREA":" ","LANE":" ","ALLEY":" ","HOUSE_NO":"２０８號","E_COORD97":169937.48000000001,"N_COORD97":2544983.27,"ADDRESS":"勝利路２０８號","OBJECTID":607907},"geometry":{"x":169937.48000000045,"y":2544983.2699999996}},{"attributes":{"ID":607935,"DIS_CODE":0,"TOWNNAME":"北區","LI":"仁愛里","LIN":"3鄰","STREET":"勝利路","SECT":" ","MAREA":" ","LANE":" ","ALLEY":" ","HOUSE_NO":"２１０號","E_COORD97":169935.47,"N_COORD97":2544986.3599999999,"ADDRESS":"勝利路２１０號","OBJECTID":607908},"geometry":{"x":169935.46999999881,"y":2544986.3599999994}},{"attributes":{"ID":607936,"DIS_CODE":0,"TOWNNAME":"北區","LI":"仁愛里","LIN":"3鄰","STREET":"勝利路","SECT":" ","MAREA":" ","LANE":" ","ALLEY":" ","HOUSE_NO":"２１２號","E_COORD97":169933.85000000001,"N_COORD97":2544989.7200000002,"ADDRESS":"勝利路２１２號","OBJECTID":607909},"geometry":{"x":169933.84999999963,"y":2544989.7200000044}},{"attributes":{"ID":607937,"DIS_CODE":0,"TOWNNAME":"北區","LI":"仁愛里","LIN":"3鄰","STREET":"勝利路","SECT":" ","MAREA":" ","LANE":" ","ALLEY":" ","HOUSE_NO":"２１４號","E_COORD97":169935.73999999999,"N_COORD97":2544994.8300000001,"ADDRESS":"勝利路２１４號","OBJECTID":607910},"geometry":{"x":169935.74000000022,"y":2544994.8300000001}},{"attributes":{"ID":607938,"DIS_CODE":0,"TOWNNAME":"北區","LI":"仁愛里","LIN":"3鄰","STREET":"勝利路","SECT":" ","MAREA":" ","LANE":" ","ALLEY":" ","HOUSE_NO":"２１６號","E_COORD97":169934.26000000001,"N_COORD97":2544999.3999999999,"ADDRESS":"勝利路２１６號","OBJECTID":607911},"geometry":{"x":169934.26000000071,"y":2544999.4000000022}},{"attributes":{"ID":607939,"DIS_CODE":0,"TOWNNAME":"北區","LI":"仁愛里","LIN":"3鄰","STREET":"勝利路","SECT":" ","MAREA":" ","LANE":" ","ALLEY":" ","HOUSE_NO":"２１８號","E_COORD97":169936.41,"N_COORD97":2545005.1800000002,"ADDRESS":"勝利路２１８號","OBJECTID":607912},"geometry":{"x":169936.41000000201,"y":2545005.1799999997}},{"attributes":{"ID":607940,"DIS_CODE":0,"TOWNNAME":"北區","LI":"六甲里","LIN":"3鄰","STREET":"公園路","SECT":" ","MAREA":" ","LANE":" ","ALLEY":" ","HOUSE_NO":"４９１號","E_COORD97":169038.54999999999,"N_COORD97":2545512.0800000001,"ADDRESS":"公園路４９１號","OBJECTID":607913},"geometry":{"x":169038.55000000075,"y":2545512.0800000038}},{"attributes":{"ID":607941,"DIS_CODE":0,"TOWNNAME":"北區","LI":"六甲里","LIN":"3鄰","STREET":"公園路","SECT":" ","MAREA":" ","LANE":" ","ALLEY":" ","HOUSE_NO":"４８９號","E_COORD97":169037.76999999999,"N_COORD97":2545508.3300000001,"ADDRESS":"公園路４８９號","OBJECTID":607914},"geometry":{"x":169037.76999999955,"y":2545508.3300000019}},{"attributes":{"ID":607942,"DIS_CODE":0,"TOWNNAME":"新市區","LI":"新和里","LIN":"26鄰","STREET":"永福街","SECT":" ","MAREA":" ","LANE":" ","ALLEY":" ","HOUSE_NO":"７號","E_COORD97":177806.84,"N_COORD97":2552672.9900000002,"ADDRESS":"永福街７號","OBJECTID":607915},"geometry":{"x":177806.83999999985,"y":2552672.9900000002}},{"attributes":{"ID":607943,"DIS_CODE":0,"TOWNNAME":"北區","LI":"賢北里","LIN":"3鄰","STREET":"中華北路","SECT":"一段","MAREA":" ","LANE":" ","ALLEY":" ","HOUSE_NO":"１０７號","E_COORD97":166497.23000000001,"N_COORD97":2545514.3500000001,"ADDRESS":"中華北路一段１０７號","OBJECTID":607916},"geometry":{"x":166497.23000000138,"y":2545514.3500000015}},{"attributes":{"ID":607944,"DIS_CODE":0,"TOWNNAME":"新營區","LI":"民權里","LIN":"3鄰","STREET":"信義街","SECT":" ","MAREA":" ","LANE":" ","ALLEY":" ","HOUSE_NO":"１６之３號","E_COORD97":179970.89999999999,"N_COORD97":2578198.5899999999,"ADDRESS":"信義街１６之３號","OBJECTID":607917},"geometry":{"x":179970.9000000013,"y":2578198.5900000036}},{"attributes":{"ID":607945,"DIS_CODE":0,"TOWNNAME":"新營區","LI":"民榮里","LIN":"3鄰","STREET":"新進路","SECT":"二段","MAREA":" ","LANE":" ","ALLEY":" ","HOUSE_NO":"４８６號","E_COORD97":178679.98000000001,"N_COORD97":2578006.4700000002,"ADDRESS":"新進路二段４８６號","OBJECTID":607918},"geometry":{"x":178679.98000000231,"y":2578006.4700000007}},{"attributes":{"ID":607946,"DIS_CODE":0,"TOWNNAME":"新營區","LI":"民榮里","LIN":"3鄰","STREET":"新進路","SECT":"二段","MAREA":" ","LANE":" ","ALLEY":" ","HOUSE_NO":"４７０號","E_COORD97":178691.07000000001,"N_COORD97":2577973.1899999999,"ADDRESS":"新進路二段４７０號","OBJECTID":607919},"geometry":{"x":178691.07000000216,"y":2577973.1899999995}},{"attributes":{"ID":607947,"DIS_CODE":0,"TOWNNAME":"新營區","LI":"民權里","LIN":"3鄰","STREET":"博愛街","SECT":" ","MAREA":" ","LANE":" ","ALLEY":" ","HOUSE_NO":"１２號","E_COORD97":179994.89999999999,"N_COORD97":2578176.27,"ADDRESS":"博愛街１２號","OBJECTID":607920},"geometry":{"x":179994.9000000013,"y":2578176.2699999996}},{"attributes":{"ID":607948,"DIS_CODE":0,"TOWNNAME":"新營區","LI":"民榮里","LIN":"3鄰","STREET":"新進路","SECT":"二段","MAREA":" ","LANE":" ","ALLEY":" ","HOUSE_NO":"４７６號","E_COORD97":178687.04999999999,"N_COORD97":2577986.4900000002,"ADDRESS":"新進路二段４７６號","OBJECTID":607921},"geometry":{"x":178687.04999999981,"y":2577986.4900000021}},{"attributes":{"ID":607949,"DIS_CODE":0,"TOWNNAME":"新營區","LI":"民榮里","LIN":"3鄰","STREET":"新進路","SECT":"二段","MAREA":" ","LANE":" ","ALLEY":" ","HOUSE_NO":"４８４號","E_COORD97":178682.01000000001,"N_COORD97":2578002.0299999998,"ADDRESS":"新進路二段４８４號","OBJECTID":607922},"geometry":{"x":178682.00999999978,"y":2578002.0300000012}},{"attributes":{"ID":607950,"DIS_CODE":0,"TOWNNAME":"新營區","LI":"民權里","LIN":"3鄰","STREET":"博愛街","SECT":" ","MAREA":" ","LANE":" ","ALLEY":" ","HOUSE_NO":"２０號","E_COORD97":179959.09,"N_COORD97":2578159.8300000001,"ADDRESS":"博愛街２０號","OBJECTID":607923},"geometry":{"x":179959.09000000078,"y":2578159.8300000038}},{"attributes":{"ID":607951,"DIS_CODE":0,"TOWNNAME":"新營區","LI":"民權里","LIN":"3鄰","STREET":"博愛街","SECT":" ","MAREA":" ","LANE":" ","ALLEY":" ","HOUSE_NO":"１４號","E_COORD97":179987.66,"N_COORD97":2578160.7999999998,"ADDRESS":"博愛街１４號","OBJECTID":607924},"geometry":{"x":179987.66000000108,"y":2578160.8000000045}},{"attributes":{"ID":607952,"DIS_CODE":0,"TOWNNAME":"新營區","LI":"民榮里","LIN":"3鄰","STREET":"新進路","SECT":"二段","MAREA":" ","LANE":" ","ALLEY":" ","HOUSE_NO":"４６８號","E_COORD97":178693.10000000001,"N_COORD97":2577969.8500000001,"ADDRESS":"新進路二段４６８號","OBJECTID":607925},"geometry":{"x":178693.09999999963,"y":2577969.8500000015}},{"attributes":{"ID":607953,"DIS_CODE":0,"TOWNNAME":"新營區","LI":"民榮里","LIN":"3鄰","STREET":"新進路","SECT":"二段","MAREA":" ","LANE":" ","ALLEY":" ","HOUSE_NO":"４７４號","E_COORD97":178689.07000000001,"N_COORD97":2577982.0499999998,"ADDRESS":"新進路二段４７４號","OBJECTID":607926},"geometry":{"x":178689.0700000003,"y":2577982.0500000007}},{"attributes":{"ID":607954,"DIS_CODE":0,"TOWNNAME":"新營區","LI":"民權里","LIN":"3鄰","STREET":"博愛街","SECT":" ","MAREA":" ","LANE":" ","ALLEY":" ","HOUSE_NO":"１６號","E_COORD97":179981.53,"N_COORD97":2578160.8300000001,"ADDRESS":"博愛街１６號","OBJECTID":607927},"geometry":{"x":179981.53000000119,"y":2578160.8300000019}},{"attributes":{"ID":607955,"DIS_CODE":0,"TOWNNAME":"新營區","LI":"民權里","LIN":"3鄰","STREET":"博愛街","SECT":" ","MAREA":" ","LANE":" ","ALLEY":" ","HOUSE_NO":"１８號","E_COORD97":179972.31,"N_COORD97":2578159.77,"ADDRESS":"博愛街１８號","OBJECTID":607928},"geometry":{"x":179972.31000000052,"y":2578159.7700000033}},{"attributes":{"ID":607956,"DIS_CODE":0,"TOWNNAME":"新營區","LI":"民權里","LIN":"3鄰","STREET":"博愛街","SECT":" ","MAREA":" ","LANE":" ","ALLEY":" ","HOUSE_NO":"１６號之１","E_COORD97":179978.54000000001,"N_COORD97":2578159.7999999998,"ADDRESS":"博愛街１６號之１","OBJECTID":607929},"geometry":{"x":179978.54000000004,"y":2578159.8000000007}},{"attributes":{"ID":607957,"DIS_CODE":0,"TOWNNAME":"新營區","LI":"民榮里","LIN":"3鄰","STREET":"新進路","SECT":"二段","MAREA":" ","LANE":" ","ALLEY":" ","HOUSE_NO":"４７２號","E_COORD97":178690.07000000001,"N_COORD97":2577977.6200000001,"ADDRESS":"新進路二段４７２號","OBJECTID":607930},"geometry":{"x":178690.07000000123,"y":2577977.620000001}},{"attributes":{"ID":607958,"DIS_CODE":0,"TOWNNAME":"新營區","LI":"民榮里","LIN":"3鄰","STREET":"新進路","SECT":"二段","MAREA":" ","LANE":" ","ALLEY":" ","HOUSE_NO":"５００之４號","E_COORD97":178673.37,"N_COORD97":2578038.6800000002,"ADDRESS":"新進路二段５００之４號","OBJECTID":607931},"geometry":{"x":178673.37000000011,"y":2578038.6800000016}},{"attributes":{"ID":607959,"DIS_CODE":0,"TOWNNAME":"新營區","LI":"民榮里","LIN":"3鄰","STREET":"新進路","SECT":"二段","MAREA":" ","LANE":" ","ALLEY":" ","HOUSE_NO":"４９０號","E_COORD97":178676.95999999999,"N_COORD97":2578015.3399999999,"ADDRESS":"新進路二段４９０號","OBJECTID":607932},"geometry":{"x":178676.96000000089,"y":2578015.3400000017}},{"attributes":{"ID":607960,"DIS_CODE":0,"TOWNNAME":"新營區","LI":"大宏里","LIN":"3鄰","STREET":"綠川北街","SECT":" ","MAREA":" ","LANE":" ","ALLEY":" ","HOUSE_NO":"１０８號","E_COORD97":180328.03,"N_COORD97":2578712.9199999999,"ADDRESS":"綠川北街１０８號","OBJECTID":607933},"geometry":{"x":180328.03000000119,"y":2578712.9200000018}},{"attributes":{"ID":607961,"DIS_CODE":0,"TOWNNAME":"新營區","LI":"民權里","LIN":"3鄰","STREET":"博愛街","SECT":" ","MAREA":" ","LANE":" ","ALLEY":" ","HOUSE_NO":"１０號","E_COORD97":179993.79999999999,"N_COORD97":2578160.77,"ADDRESS":"博愛街１０號","OBJECTID":607934},"geometry":{"x":179993.79999999981,"y":2578160.7700000014}},{"attributes":{"ID":607962,"DIS_CODE":0,"TOWNNAME":"新營區","LI":"民榮里","LIN":"3鄰","STREET":"新進路","SECT":"二段","MAREA":" ","LANE":" ","ALLEY":" ","HOUSE_NO":"４９２號","E_COORD97":178674.92999999999,"N_COORD97":2578019.7799999998,"ADDRESS":"新進路二段４９２號","OBJECTID":607935},"geometry":{"x":178674.93000000063,"y":2578019.7799999993}},{"attributes":{"ID":607963,"DIS_CODE":0,"TOWNNAME":"新營區","LI":"好平里","LIN":"3鄰","STREET":"新進路","SECT":"二段","MAREA":" ","LANE":" ","ALLEY":" ","HOUSE_NO":"９０號","E_COORD97":179514.10999999999,"N_COORD97":2577745.54,"ADDRESS":"新進路二段９０號","OBJECTID":607936},"geometry":{"x":179514.11000000034,"y":2577745.5399999991}},{"attributes":{"ID":607964,"DIS_CODE":0,"TOWNNAME":"新營區","LI":"三仙里","LIN":"3鄰","STREET":"正義街","SECT":" ","MAREA":" ","LANE":" ","ALLEY":" ","HOUSE_NO":"１８號之２","E_COORD97":179669.42999999999,"N_COORD97":2578089.27,"ADDRESS":"正義街１８號之２","OBJECTID":607937},"geometry":{"x":179669.42999999877,"y":2578089.2700000014}},{"attributes":{"ID":607965,"DIS_CODE":0,"TOWNNAME":"新營區","LI":"興業里","LIN":"3鄰","STREET":"新進路","SECT":" ","MAREA":" ","LANE":" ","ALLEY":" ","HOUSE_NO":"１１６號","E_COORD97":180485.41,"N_COORD97":2578027.79,"ADDRESS":"新進路１１６號","OBJECTID":607938},"geometry":{"x":180485.40999999922,"y":2578027.790000001}},{"attributes":{"ID":607966,"DIS_CODE":0,"TOWNNAME":"新營區","LI":"新東里","LIN":"3鄰","STREET":"東興二街","SECT":" ","MAREA":" ","LANE":" ","ALLEY":" ","HOUSE_NO":"５９號","E_COORD97":180984.57000000001,"N_COORD97":2579051.5099999998,"ADDRESS":"東興二街５９號","OBJECTID":607939},"geometry":{"x":180984.56999999937,"y":2579051.5100000016}},{"attributes":{"ID":607967,"DIS_CODE":0,"TOWNNAME":"楠西區","LI":"東勢里","LIN":"3鄰","STREET":"民權路","SECT":" ","MAREA":" ","LANE":" ","ALLEY":" ","HOUSE_NO":"４３號","E_COORD97":197350.44,"N_COORD97":2564269.29,"ADDRESS":"民權路４３號","OBJECTID":607940},"geometry":{"x":197350.44000000041,"y":2564269.290000001}},{"attributes":{"ID":607968,"DIS_CODE":0,"TOWNNAME":"楠西區","LI":"東勢里","LIN":"3鄰","STREET":"民生路","SECT":" ","MAREA":" ","LANE":" ","ALLEY":" ","HOUSE_NO":"１０８號","E_COORD97":197417.69,"N_COORD97":2564233.29,"ADDRESS":"民生路１０８號","OBJECTID":607941},"geometry":{"x":197417.69000000134,"y":2564233.2899999991}},{"attributes":{"ID":607969,"DIS_CODE":0,"TOWNNAME":"楠西區","LI":"東勢里","LIN":"3鄰","STREET":"民權路","SECT":" ","MAREA":" ","LANE":" ","ALLEY":" ","HOUSE_NO":"４１號","E_COORD97":197345.94,"N_COORD97":2564270.29,"ADDRESS":"民權路４１號","OBJECTID":607942},"geometry":{"x":197345.94000000227,"y":2564270.290000001}},{"attributes":{"ID":607970,"DIS_CODE":0,"TOWNNAME":"楠西區","LI":"東勢里","LIN":"3鄰","STREET":"民權路","SECT":" ","MAREA":" ","LANE":" ","ALLEY":" ","HOUSE_NO":"５９號","E_COORD97":197385.04000000001,"N_COORD97":2564266.29,"ADDRESS":"民權路５９號","OBJECTID":607943},"geometry":{"x":197385.04000000004,"y":2564266.290000001}},{"attributes":{"ID":607971,"DIS_CODE":0,"TOWNNAME":"楠西區","LI":"東勢里","LIN":"3鄰","STREET":"民權路","SECT":" ","MAREA":" ","LANE":" ","ALLEY":" ","HOUSE_NO":"３１號","E_COORD97":197321.14000000001,"N_COORD97":2564272.29,"ADDRESS":"民權路３１號","OBJECTID":607944},"geometry":{"x":197321.13999999966,"y":2564272.2900000028}},{"attributes":{"ID":607972,"DIS_CODE":0,"TOWNNAME":"楠西區","LI":"東勢里","LIN":"3鄰","STREET":"民權路","SECT":" ","MAREA":" ","LANE":" ","ALLEY":" ","HOUSE_NO":"５５號","E_COORD97":197376.54000000001,"N_COORD97":2564267.29,"ADDRESS":"民權路５５號","OBJECTID":607945},"geometry":{"x":197376.54000000004,"y":2564267.2899999991}},{"attributes":{"ID":607973,"DIS_CODE":0,"TOWNNAME":"東山區","LI":"東中里","LIN":"3鄰","STREET":"達雲路","SECT":"一段","MAREA":" ","LANE":" ","ALLEY":" ","HOUSE_NO":"１１號","E_COORD97":189011.89000000001,"N_COORD97":2580116.8599999999,"ADDRESS":"達雲路一段１１號","OBJECTID":607946},"geometry":{"x":189011.88999999873,"y":2580116.8599999994}},{"attributes":{"ID":607974,"DIS_CODE":0,"TOWNNAME":"東山區","LI":"東中里","LIN":"3鄰","STREET":"達雲路","SECT":"一段","MAREA":" ","LANE":" ","ALLEY":" ","HOUSE_NO":"１３號","E_COORD97":189014.26999999999,"N_COORD97":2580113.1299999999,"ADDRESS":"達雲路一段１３號","OBJECTID":607947},"geometry":{"x":189014.26999999862,"y":2580113.1300000008}},{"attributes":{"ID":607975,"DIS_CODE":0,"TOWNNAME":"東山區","LI":"東中里","LIN":"3鄰","STREET":"達雲路","SECT":"一段","MAREA":" ","LANE":" ","ALLEY":" ","HOUSE_NO":"１５號","E_COORD97":189016.57999999999,"N_COORD97":2580109.4500000002,"ADDRESS":"達雲路一段１５號","OBJECTID":607948},"geometry":{"x":189016.58000000101,"y":2580109.4499999993}},{"attributes":{"ID":607976,"DIS_CODE":0,"TOWNNAME":"東山區","LI":"東中里","LIN":"3鄰","STREET":"達雲路","SECT":"一段","MAREA":" ","LANE":" ","ALLEY":" ","HOUSE_NO":"１７號","E_COORD97":189018.95999999999,"N_COORD97":2580106.1400000001,"ADDRESS":"達雲路一段１７號","OBJECTID":607949},"geometry":{"x":189018.96000000089,"y":2580106.1400000006}},{"attributes":{"ID":607977,"DIS_CODE":0,"TOWNNAME":"東山區","LI":"東中里","LIN":"3鄰","STREET":"達雲路","SECT":"一段","MAREA":" ","LANE":" ","ALLEY":" ","HOUSE_NO":"１９號","E_COORD97":189021.60000000001,"N_COORD97":2580102.3399999999,"ADDRESS":"達雲路一段１９號","OBJECTID":607950},"geometry":{"x":189021.59999999963,"y":2580102.3400000036}},{"attributes":{"ID":607978,"DIS_CODE":0,"TOWNNAME":"東山區","LI":"東中里","LIN":"3鄰","STREET":"達雲路","SECT":"一段","MAREA":" ","LANE":" ","ALLEY":" ","HOUSE_NO":"１號","E_COORD97":189000.67999999999,"N_COORD97":2580133.4500000002,"ADDRESS":"達雲路一段１號","OBJECTID":607951},"geometry":{"x":189000.68000000063,"y":2580133.4499999993}},{"attributes":{"ID":607979,"DIS_CODE":0,"TOWNNAME":"東山區","LI":"東中里","LIN":"3鄰","STREET":"達雲路","SECT":"一段","MAREA":" ","LANE":" ","ALLEY":" ","HOUSE_NO":"２１號","E_COORD97":189023.98000000001,"N_COORD97":2580098.5800000001,"ADDRESS":"達雲路一段２１號","OBJECTID":607952},"geometry":{"x":189023.97999999952,"y":2580098.5800000019}},{"attributes":{"ID":607980,"DIS_CODE":0,"TOWNNAME":"東山區","LI":"東中里","LIN":"3鄰","STREET":"達雲路","SECT":"一段","MAREA":" ","LANE":" ","ALLEY":" ","HOUSE_NO":"２３號","E_COORD97":189026.25,"N_COORD97":2580095.3900000001,"ADDRESS":"達雲路一段２３號","OBJECTID":607953},"geometry":{"x":189026.25,"y":2580095.3900000006}},{"attributes":{"ID":607981,"DIS_CODE":0,"TOWNNAME":"東山區","LI":"東中里","LIN":"3鄰","STREET":"達雲路","SECT":"一段","MAREA":" ","LANE":" ","ALLEY":" ","HOUSE_NO":"２５號","E_COORD97":189032.01999999999,"N_COORD97":2580089.4199999999,"ADDRESS":"達雲路一段２５號","OBJECTID":607954},"geometry":{"x":189032.02000000048,"y":2580089.4200000018}},{"attributes":{"ID":607982,"DIS_CODE":0,"TOWNNAME":"東山區","LI":"東中里","LIN":"3鄰","STREET":"達雲路","SECT":"一段","MAREA":" ","LANE":" ","ALLEY":" ","HOUSE_NO":"２７號","E_COORD97":189034.20000000001,"N_COORD97":2580085.5899999999,"ADDRESS":"達雲路一段２７號","OBJECTID":607955},"geometry":{"x":189034.20000000205,"y":2580085.5899999999}},{"attributes":{"ID":607983,"DIS_CODE":0,"TOWNNAME":"新市區","LI":"新和里","LIN":"5鄰","STREET":"昆明街","SECT":" ","MAREA":" ","LANE":" ","ALLEY":" ","HOUSE_NO":"６號","E_COORD97":177374.10000000001,"N_COORD97":2552374.25,"ADDRESS":"昆明街６號","OBJECTID":607956},"geometry":{"x":177374.09999999963,"y":2552374.2500000019}},{"attributes":{"ID":607984,"DIS_CODE":0,"TOWNNAME":"新市區","LI":"豐華里","LIN":"9鄰","STREET":"南科二路","SECT":" ","MAREA":" ","LANE":" ","ALLEY":" ","HOUSE_NO":"３之１號","E_COORD97":176961.82000000001,"N_COORD97":2555091.2999999998,"ADDRESS":"南科二路３之１號","OBJECTID":607957},"geometry":{"x":176961.8200000003,"y":2555091.3000000007}},{"attributes":{"ID":607985,"DIS_CODE":0,"TOWNNAME":"新市區","LI":"新和里","LIN":"23鄰","STREET":"中正路","SECT":" ","MAREA":" ","LANE":" ","ALLEY":" ","HOUSE_NO":"１７７號","E_COORD97":177411.01999999999,"N_COORD97":2552890.25,"ADDRESS":"中正路１７７號","OBJECTID":607958},"geometry":{"x":177411.02000000048,"y":2552890.25}},{"attributes":{"ID":607986,"DIS_CODE":0,"TOWNNAME":"東山區","LI":"東中里","LIN":"3鄰","STREET":"達雲路","SECT":"一段","MAREA":" ","LANE":" ","ALLEY":" ","HOUSE_NO":"３１號","E_COORD97":189037.45000000001,"N_COORD97":2580077.5299999998,"ADDRESS":"達雲路一段３１號","OBJECTID":607959},"geometry":{"x":189037.44999999925,"y":2580077.5300000012}},{"attributes":{"ID":607987,"DIS_CODE":0,"TOWNNAME":"東山區","LI":"東中里","LIN":"3鄰","STREET":"達雲路","SECT":"一段","MAREA":" ","LANE":" ","ALLEY":" ","HOUSE_NO":"３３號","E_COORD97":189040.48000000001,"N_COORD97":2580073.48,"ADDRESS":"達雲路一段３３號","OBJECTID":607960},"geometry":{"x":189040.48000000045,"y":2580073.4800000004}},{"attributes":{"ID":607988,"DIS_CODE":0,"TOWNNAME":"東山區","LI":"東中里","LIN":"3鄰","STREET":"達雲路","SECT":"一段","MAREA":" ","LANE":" ","ALLEY":" ","HOUSE_NO":"３５號","E_COORD97":189042.91,"N_COORD97":2580069.8100000001,"ADDRESS":"達雲路一段３５號","OBJECTID":607961},"geometry":{"x":189042.91000000201,"y":2580069.8100000024}},{"attributes":{"ID":607989,"DIS_CODE":0,"TOWNNAME":"東山區","LI":"東中里","LIN":"3鄰","STREET":"達雲路","SECT":"一段","MAREA":" ","LANE":" ","ALLEY":" ","HOUSE_NO":"３７號","E_COORD97":189045.20000000001,"N_COORD97":2580066.0499999998,"ADDRESS":"達雲路一段３７號","OBJECTID":607962},"geometry":{"x":189045.20000000019,"y":2580066.0500000026}},{"attributes":{"ID":607990,"DIS_CODE":0,"TOWNNAME":"東山區","LI":"東中里","LIN":"3鄰","STREET":"達雲路","SECT":"一段","MAREA":" ","LANE":" ","ALLEY":" ","HOUSE_NO":"４５號","E_COORD97":189054.73999999999,"N_COORD97":2580050.5600000001,"ADDRESS":"達雲路一段４５號","OBJECTID":607963},"geometry":{"x":189054.74000000115,"y":2580050.5600000042}},{"attributes":{"ID":607991,"DIS_CODE":0,"TOWNNAME":"東山區","LI":"東中里","LIN":"3鄰","STREET":"達雲路","SECT":"一段","MAREA":" ","LANE":" ","ALLEY":" ","HOUSE_NO":"４７號","E_COORD97":189057.29999999999,"N_COORD97":2580046.6600000001,"ADDRESS":"達雲路一段４７號","OBJECTID":607964},"geometry":{"x":189057.30000000075,"y":2580046.660000002}},{"attributes":{"ID":607992,"DIS_CODE":0,"TOWNNAME":"東山區","LI":"東中里","LIN":"3鄰","STREET":"達雲路","SECT":"一段","MAREA":" ","LANE":" ","ALLEY":" ","HOUSE_NO":"４９號","E_COORD97":189059.85999999999,"N_COORD97":2580042.7599999998,"ADDRESS":"達雲路一段４９號","OBJECTID":607965},"geometry":{"x":189059.86000000034,"y":2580042.7600000016}},{"attributes":{"ID":607993,"DIS_CODE":0,"TOWNNAME":"東山區","LI":"東中里","LIN":"3鄰","STREET":"達雲路","SECT":"一段","MAREA":" ","LANE":" ","ALLEY":" ","HOUSE_NO":"５３號","E_COORD97":189064.98000000001,"N_COORD97":2580034.9500000002,"ADDRESS":"達雲路一段５３號","OBJECTID":607966},"geometry":{"x":189064.98000000138,"y":2580034.9499999993}},{"attributes":{"ID":607994,"DIS_CODE":0,"TOWNNAME":"東山區","LI":"東中里","LIN":"3鄰","STREET":"達雲路","SECT":"一段","MAREA":" ","LANE":" ","ALLEY":" ","HOUSE_NO":"５５號","E_COORD97":189067.54999999999,"N_COORD97":2580031.0499999998,"ADDRESS":"達雲路一段５５號","OBJECTID":607967},"geometry":{"x":189067.55000000075,"y":2580031.0500000026}},{"attributes":{"ID":607995,"DIS_CODE":0,"TOWNNAME":"東山區","LI":"東中里","LIN":"3鄰","STREET":"達雲路","SECT":"一段","MAREA":" ","LANE":" ","ALLEY":" ","HOUSE_NO":"５７號","E_COORD97":189070.10999999999,"N_COORD97":2580027.1400000001,"ADDRESS":"達雲路一段５７號","OBJECTID":607968},"geometry":{"x":189070.11000000034,"y":2580027.1400000025}},{"attributes":{"ID":607996,"DIS_CODE":0,"TOWNNAME":"東山區","LI":"東中里","LIN":"3鄰","STREET":"達雲路","SECT":"一段","MAREA":" ","LANE":" ","ALLEY":" ","HOUSE_NO":"５號","E_COORD97":189005.17000000001,"N_COORD97":2580127.2000000002,"ADDRESS":"達雲路一段５號","OBJECTID":607969},"geometry":{"x":189005.16999999899,"y":2580127.2000000011}},{"attributes":{"ID":607997,"DIS_CODE":0,"TOWNNAME":"東山區","LI":"東中里","LIN":"3鄰","STREET":"達雲路","SECT":"一段","MAREA":" ","LANE":" ","ALLEY":" ","HOUSE_NO":"７號","E_COORD97":189007.14000000001,"N_COORD97":2580123.9199999999,"ADDRESS":"達雲路一段７號","OBJECTID":607970},"geometry":{"x":189007.1400000006,"y":2580123.9199999999}},{"attributes":{"ID":607998,"DIS_CODE":0,"TOWNNAME":"東山區","LI":"東中里","LIN":"3鄰","STREET":"達雲路","SECT":"一段","MAREA":" ","LANE":" ","ALLEY":" ","HOUSE_NO":"９號","E_COORD97":189009.82999999999,"N_COORD97":2580120,"ADDRESS":"達雲路一段９號","OBJECTID":607971},"geometry":{"x":189009.83000000101,"y":2580120}},{"attributes":{"ID":607999,"DIS_CODE":0,"TOWNNAME":"新化區","LI":"太平里","LIN":"3鄰","STREET":"太平街","SECT":" ","MAREA":" ","LANE":" ","ALLEY":" ","HOUSE_NO":"２５號","E_COORD97":178999.97,"N_COORD97":2548799.25,"ADDRESS":"太平街２５號","OBJECTID":607972},"geometry":{"x":178999.97000000067,"y":2548799.25}},{"attributes":{"ID":608000,"DIS_CODE":0,"TOWNNAME":"新化區","LI":"協興里","LIN":"3鄰","STREET":"正新路","SECT":" ","MAREA":" ","LANE":" ","ALLEY":" ","HOUSE_NO":"２７１號","E_COORD97":178559.01999999999,"N_COORD97":2548572.25,"ADDRESS":"正新路２７１號","OBJECTID":607973},"geometry":{"x":178559.02000000048,"y":2548572.2499999981}},{"attributes":{"ID":608001,"DIS_CODE":0,"TOWNNAME":"新化區","LI":"護國里","LIN":"3鄰","STREET":"建國街","SECT":" ","MAREA":" ","LANE":" ","ALLEY":" ","HOUSE_NO":"１５號之１","E_COORD97":179213.20999999999,"N_COORD97":2548535.2599999998,"ADDRESS":"建國街１５號之１","OBJECTID":607974},"geometry":{"x":179213.20999999996,"y":2548535.2600000016}},{"attributes":{"ID":608002,"DIS_CODE":0,"TOWNNAME":"新市區","LI":"新和里","LIN":"48鄰","STREET":"和平街","SECT":" ","MAREA":" ","LANE":" ","ALLEY":" ","HOUSE_NO":"１４４號","E_COORD97":177495.67999999999,"N_COORD97":2553333.25,"ADDRESS":"和平街１４４號","OBJECTID":607975},"geometry":{"x":177495.6799999997,"y":2553333.2500000019}},{"attributes":{"ID":608003,"DIS_CODE":0,"TOWNNAME":"新化區","LI":"太平里","LIN":"3鄰","STREET":"太平街","SECT":" ","MAREA":" ","LANE":" ","ALLEY":" ","HOUSE_NO":"１３號","E_COORD97":179039.07000000001,"N_COORD97":2548826.25,"ADDRESS":"太平街１３號","OBJECTID":607976},"geometry":{"x":179039.07000000123,"y":2548826.25}},{"attributes":{"ID":608004,"DIS_CODE":0,"TOWNNAME":"新化區","LI":"太平里","LIN":"3鄰","STREET":"中正路","SECT":" ","MAREA":" ","LANE":" ","ALLEY":" ","HOUSE_NO":"５２８號","E_COORD97":178978.10999999999,"N_COORD97":2548799.25,"ADDRESS":"中正路５２８號","OBJECTID":607977},"geometry":{"x":178978.11000000127,"y":2548799.25}},{"attributes":{"ID":608005,"DIS_CODE":0,"TOWNNAME":"新化區","LI":"清水里","LIN":"3鄰","STREET":"民治路","SECT":" ","MAREA":" ","LANE":" ","ALLEY":" ","HOUSE_NO":"１２５號","E_COORD97":178673.20999999999,"N_COORD97":2548331.25,"ADDRESS":"民治路１２５號","OBJECTID":607978},"geometry":{"x":178673.21000000089,"y":2548331.25}},{"attributes":{"ID":608006,"DIS_CODE":0,"TOWNNAME":"新化區","LI":"唪口里","LIN":"3鄰","STREET":"大德路","SECT":" ","MAREA":" ","LANE":" ","ALLEY":" ","HOUSE_NO":"８２號之６","E_COORD97":178229.13,"N_COORD97":2549463.2599999998,"ADDRESS":"大德路８２號之６","OBJECTID":607979},"geometry":{"x":178229.13000000175,"y":2549463.2599999998}},{"attributes":{"ID":608007,"DIS_CODE":0,"TOWNNAME":"新化區","LI":"唪口里","LIN":"3鄰","STREET":"大德路","SECT":" ","MAREA":" ","LANE":" ","ALLEY":" ","HOUSE_NO":"８２號之１１","E_COORD97":178250.56,"N_COORD97":2549462.2599999998,"ADDRESS":"大德路８２號之１１","OBJECTID":607980},"geometry":{"x":178250.55999999959,"y":2549462.2599999998}},{"attributes":{"ID":608008,"DIS_CODE":0,"TOWNNAME":"新化區","LI":"唪口里","LIN":"3鄰","STREET":"大德路","SECT":" ","MAREA":" ","LANE":" ","ALLEY":" ","HOUSE_NO":"８２號之３０","E_COORD97":178261.37,"N_COORD97":2549483.2599999998,"ADDRESS":"大德路８２號之３０","OBJECTID":607981},"geometry":{"x":178261.37000000011,"y":2549483.2599999998}},{"attributes":{"ID":608009,"DIS_CODE":0,"TOWNNAME":"新化區","LI":"唪口里","LIN":"3鄰","STREET":"大德路","SECT":" ","MAREA":" ","LANE":" ","ALLEY":" ","HOUSE_NO":"８２號之２１","E_COORD97":178227.35999999999,"N_COORD97":2549484.2599999998,"ADDRESS":"大德路８２號之２１","OBJECTID":607982},"geometry":{"x":178227.36000000034,"y":2549484.2600000035}},{"attributes":{"ID":608010,"DIS_CODE":0,"TOWNNAME":"新化區","LI":"唪口里","LIN":"3鄰","STREET":"大德路","SECT":" ","MAREA":" ","LANE":" ","ALLEY":" ","HOUSE_NO":"８２號之２６","E_COORD97":178244.28,"N_COORD97":2549483.2599999998,"ADDRESS":"大德路８２號之２６","OBJECTID":607983},"geometry":{"x":178244.28000000119,"y":2549483.2599999998}},{"attributes":{"ID":608011,"DIS_CODE":0,"TOWNNAME":"新化區","LI":"唪口里","LIN":"3鄰","STREET":"大德路","SECT":" ","MAREA":" ","LANE":" ","ALLEY":" ","HOUSE_NO":"８２號之１７","E_COORD97":178272.76999999999,"N_COORD97":2549461.2599999998,"ADDRESS":"大德路８２號之１７","OBJECTID":607984},"geometry":{"x":178272.77000000048,"y":2549461.2600000016}},{"attributes":{"ID":608012,"DIS_CODE":0,"TOWNNAME":"新化區","LI":"中央里","LIN":"3鄰","STREET":"中正路","SECT":" ","MAREA":" ","LANE":" ","ALLEY":" ","HOUSE_NO":"４３１號","E_COORD97":179080.20999999999,"N_COORD97":2548390.25,"ADDRESS":"中正路４３１號","OBJECTID":607985},"geometry":{"x":179080.21000000089,"y":2548390.2500000019}},{"attributes":{"ID":608013,"DIS_CODE":0,"TOWNNAME":"新化區","LI":"協興里","LIN":"3鄰","STREET":"忠孝路","SECT":" ","MAREA":" ","LANE":" ","ALLEY":" ","HOUSE_NO":"２２９號","E_COORD97":178515.12,"N_COORD97":2548566.25,"ADDRESS":"忠孝路２２９號","OBJECTID":607986},"geometry":{"x":178515.12000000104,"y":2548566.2500000019}},{"attributes":{"ID":608014,"DIS_CODE":0,"TOWNNAME":"新化區","LI":"協興里","LIN":"3鄰","STREET":"忠孝路","SECT":" ","MAREA":" ","LANE":" ","ALLEY":" ","HOUSE_NO":"２３７號","E_COORD97":178508.92000000001,"N_COORD97":2548589.25,"ADDRESS":"忠孝路２３７號","OBJECTID":607987},"geometry":{"x":178508.92000000086,"y":2548589.2499999981}},{"attributes":{"ID":608015,"DIS_CODE":0,"TOWNNAME":"新化區","LI":"武安里","LIN":"3鄰","STREET":"大同街","SECT":" ","MAREA":" ","LANE":" ","ALLEY":" ","HOUSE_NO":"１０號","E_COORD97":179039.98000000001,"N_COORD97":2548055.25,"ADDRESS":"大同街１０號","OBJECTID":607988},"geometry":{"x":179039.98000000138,"y":2548055.2500000019}},{"attributes":{"ID":608016,"DIS_CODE":0,"TOWNNAME":"新化區","LI":"中央里","LIN":"3鄰","STREET":"中正路","SECT":" ","MAREA":" ","LANE":" ","ALLEY":" ","HOUSE_NO":"４４３號","E_COORD97":179073.60999999999,"N_COORD97":2548415.25,"ADDRESS":"中正路４４３號","OBJECTID":607989},"geometry":{"x":179073.61000000034,"y":2548415.25}},{"attributes":{"ID":608017,"DIS_CODE":0,"TOWNNAME":"永康區","LI":"五王里","LIN":"34鄰","STREET":"五福街","SECT":" ","MAREA":" ","LANE":" ","ALLEY":" ","HOUSE_NO":"３５號","E_COORD97":171330.32000000001,"N_COORD97":2545900,"ADDRESS":"五福街３５號","OBJECTID":607990},"geometry":{"x":171330.3200000003,"y":2545900.0000000019}},{"attributes":{"ID":608018,"DIS_CODE":0,"TOWNNAME":"永康區","LI":"五王里","LIN":"21鄰","STREET":"振興路","SECT":" ","MAREA":" ","LANE":" ","ALLEY":" ","HOUSE_NO":"１８號","E_COORD97":171412.26000000001,"N_COORD97":2545749.2999999998,"ADDRESS":"振興路１８號","OBJECTID":607991},"geometry":{"x":171412.26000000071,"y":2545749.3000000026}},{"attributes":{"ID":608019,"DIS_CODE":0,"TOWNNAME":"新化區","LI":"太平里","LIN":"3鄰","STREET":"中正路","SECT":" ","MAREA":" ","LANE":" ","ALLEY":" ","HOUSE_NO":"５０８號","E_COORD97":178992.70999999999,"N_COORD97":2548750.25,"ADDRESS":"中正路５０８號","OBJECTID":607992},"geometry":{"x":178992.70999999996,"y":2548750.2500000019}},{"attributes":{"ID":608020,"DIS_CODE":0,"TOWNNAME":"新化區","LI":"協興里","LIN":"3鄰","STREET":"忠孝路","SECT":" ","MAREA":" ","LANE":" ","ALLEY":" ","HOUSE_NO":"２１１號","E_COORD97":178531.92000000001,"N_COORD97":2548541.25,"ADDRESS":"忠孝路２１１號","OBJECTID":607993},"geometry":{"x":178531.91999999993,"y":2548541.25}},{"attributes":{"ID":608021,"DIS_CODE":0,"TOWNNAME":"新化區","LI":"護國里","LIN":"3鄰","STREET":"建國街","SECT":" ","MAREA":" ","LANE":" ","ALLEY":" ","HOUSE_NO":"１７號","E_COORD97":179210.57999999999,"N_COORD97":2548548.2599999998,"ADDRESS":"建國街１７號","OBJECTID":607994},"geometry":{"x":179210.58000000007,"y":2548548.2599999979}},{"attributes":{"ID":608022,"DIS_CODE":0,"TOWNNAME":"新化區","LI":"太平里","LIN":"3鄰","STREET":"太平街","SECT":" ","MAREA":" ","LANE":" ","ALLEY":" ","HOUSE_NO":"１７號","E_COORD97":179025.87,"N_COORD97":2548805.25,"ADDRESS":"太平街１７號","OBJECTID":607995},"geometry":{"x":179025.87000000011,"y":2548805.25}},{"attributes":{"ID":608023,"DIS_CODE":0,"TOWNNAME":"新化區","LI":"協興里","LIN":"3鄰","STREET":"忠孝路","SECT":" ","MAREA":" ","LANE":" ","ALLEY":" ","HOUSE_NO":"２２１號","E_COORD97":178511.12,"N_COORD97":2548543.25,"ADDRESS":"忠孝路２２１號","OBJECTID":607996},"geometry":{"x":178511.12000000104,"y":2548543.2500000019}},{"attributes":{"ID":608024,"DIS_CODE":0,"TOWNNAME":"新化區","LI":"武安里","LIN":"3鄰","STREET":"和平街","SECT":" ","MAREA":" ","LANE":" ","ALLEY":" ","HOUSE_NO":"８３號","E_COORD97":179047.17000000001,"N_COORD97":2548140.25,"ADDRESS":"和平街８３號","OBJECTID":607997},"geometry":{"x":179047.16999999993,"y":2548140.25}},{"attributes":{"ID":608025,"DIS_CODE":0,"TOWNNAME":"新化區","LI":"護國里","LIN":"3鄰","STREET":"建國街","SECT":" ","MAREA":" ","LANE":" ","ALLEY":" ","HOUSE_NO":"２３號","E_COORD97":179206.07999999999,"N_COORD97":2548569.2599999998,"ADDRESS":"建國街２３號","OBJECTID":607998},"geometry":{"x":179206.08000000194,"y":2548569.2600000016}},{"attributes":{"ID":608026,"DIS_CODE":0,"TOWNNAME":"新化區","LI":"武安里","LIN":"3鄰","STREET":"和平街","SECT":" ","MAREA":" ","LANE":" ","ALLEY":" ","HOUSE_NO":"７１號","E_COORD97":179068.07000000001,"N_COORD97":2548142.25,"ADDRESS":"和平街７１號","OBJECTID":607999},"geometry":{"x":179068.07000000123,"y":2548142.2500000019}},{"attributes":{"ID":608027,"DIS_CODE":0,"TOWNNAME":"永康區","LI":"北灣里","LIN":"18鄰","STREET":"文賢街","SECT":" ","MAREA":" ","LANE":" ","ALLEY":" ","HOUSE_NO":"４２６號","E_COORD97":174709.53,"N_COORD97":2545817.5800000001,"ADDRESS":"文賢街４２６號","OBJECTID":608000},"geometry":{"x":174709.53000000119,"y":2545817.5800000019}}]}