{"displayFieldName":"TOWNNAME","fieldAliases":{"ID":"ID","DIS_CODE":"DIS_CODE","TOWNNAME":"TOWNNAME","LI":"LI","LIN":"LIN","STREET":"STREET","SECT":"SECT","MAREA":"MAREA","LANE":"LANE","ALLEY":"ALLEY","HOUSE_NO":"HOUSE_NO","E_COORD97":"E_COORD97","N_COORD97":"N_COORD97","ADDRESS":"ADDRESS","OBJECTID":"OBJECTID"},"geometryType":"esriGeometryPoint","spatialReference":{"wkid":102443,"latestWkid":3826},"fields":[{"name":"ID","type":"esriFieldTypeDouble","alias":"ID"},{"name":"DIS_CODE","type":"esriFieldTypeInteger","alias":"DIS_CODE"},{"name":"TOWNNAME","type":"esriFieldTypeString","alias":"TOWNNAME","length":8},{"name":"LI","type":"esriFieldTypeString","alias":"LI","length":8},{"name":"LIN","type":"esriFieldTypeString","alias":"LIN","length":12},{"name":"STREET","type":"esriFieldTypeString","alias":"STREET","length":20},{"name":"SECT","type":"esriFieldTypeString","alias":"SECT","length":8},{"name":"MAREA","type":"esriFieldTypeString","alias":"MAREA","length":12},{"name":"LANE","type":"esriFieldTypeString","alias":"LANE","length":10},{"name":"ALLEY","type":"esriFieldTypeString","alias":"ALLEY","length":10},{"name":"HOUSE_NO","type":"esriFieldTypeString","alias":"HOUSE_NO","length":20},{"name":"E_COORD97","type":"esriFieldTypeDouble","alias":"E_COORD97"},{"name":"N_COORD97","type":"esriFieldTypeDouble","alias":"N_COORD97"},{"name":"ADDRESS","type":"esriFieldTypeString","alias":"ADDRESS","length":50},{"name":"OBJECTID","type":"esriFieldTypeOID","alias":"OBJECTID"}],"features":[{"attributes":{"ID":133801,"DIS_CODE":0,"TOWNNAME":"東山區","LI":"東正里","LIN":"19鄰","STREET":" ","SECT":" ","MAREA":"東勢","LANE":" ","ALLEY":" ","HOUSE_NO":"１２７號之１","E_COORD97":189243.73000000001,"N_COORD97":2580316.4500000002,"ADDRESS":"東勢１２７號之１","OBJECTID":133801},"geometry":{"x":189243.73000000045,"y":2580316.4499999993}},{"attributes":{"ID":133802,"DIS_CODE":0,"TOWNNAME":"東區","LI":"富強里","LIN":"15鄰","STREET":"裕農路","SECT":" ","MAREA":" ","LANE":"３５０巷","ALLEY":"２４弄","HOUSE_NO":"１５號","E_COORD97":170989.60999999999,"N_COORD97":2542968.3100000001,"ADDRESS":"裕農路３５０巷２４弄１５號","OBJECTID":133802},"geometry":{"x":170989.6100000022,"y":2542968.3100000042}},{"attributes":{"ID":133803,"DIS_CODE":0,"TOWNNAME":"東區","LI":"富強里","LIN":"15鄰","STREET":"裕農路","SECT":" ","MAREA":" ","LANE":"３５０巷","ALLEY":"２４弄","HOUSE_NO":"１０號","E_COORD97":171004.64000000001,"N_COORD97":2542988.7400000002,"ADDRESS":"裕農路３５０巷２４弄１０號","OBJECTID":133803},"geometry":{"x":171004.6400000006,"y":2542988.7400000039}},{"attributes":{"ID":133804,"DIS_CODE":0,"TOWNNAME":"東區","LI":"富強里","LIN":"15鄰","STREET":"裕農路","SECT":" ","MAREA":" ","LANE":"３５０巷","ALLEY":"２４弄","HOUSE_NO":"１４號","E_COORD97":170987.72,"N_COORD97":2542986.8399999999,"ADDRESS":"裕農路３５０巷２４弄１４號","OBJECTID":133804},"geometry":{"x":170987.71999999974,"y":2542986.8399999999}},{"attributes":{"ID":133805,"DIS_CODE":0,"TOWNNAME":"東區","LI":"富強里","LIN":"15鄰","STREET":"裕農路","SECT":" ","MAREA":" ","LANE":"３５０巷","ALLEY":"２４弄","HOUSE_NO":"１３號","E_COORD97":170999.10000000001,"N_COORD97":2542970.5299999998,"ADDRESS":"裕農路３５０巷２４弄１３號","OBJECTID":133805},"geometry":{"x":170999.10000000149,"y":2542970.5300000012}},{"attributes":{"ID":133806,"DIS_CODE":0,"TOWNNAME":"東區","LI":"後甲里","LIN":"11鄰","STREET":"建東街","SECT":" ","MAREA":" ","LANE":"４３巷","ALLEY":"１４弄","HOUSE_NO":"９號","E_COORD97":171702.38,"N_COORD97":2543437.3799999999,"ADDRESS":"建東街４３巷１４弄９號","OBJECTID":133806},"geometry":{"x":171702.37999999989,"y":2543437.3800000027}},{"attributes":{"ID":133807,"DIS_CODE":0,"TOWNNAME":"東區","LI":"後甲里","LIN":"11鄰","STREET":"建東街","SECT":" ","MAREA":" ","LANE":"４３巷","ALLEY":"１４弄","HOUSE_NO":"８號","E_COORD97":171714.57000000001,"N_COORD97":2543438.9700000002,"ADDRESS":"建東街４３巷１４弄８號","OBJECTID":133807},"geometry":{"x":171714.5700000003,"y":2543438.9700000025}},{"attributes":{"ID":133808,"DIS_CODE":0,"TOWNNAME":"東區","LI":"後甲里","LIN":"11鄰","STREET":"建東街","SECT":" ","MAREA":" ","LANE":"４３巷","ALLEY":"１４弄","HOUSE_NO":"１０號","E_COORD97":171710.85999999999,"N_COORD97":2543438.4399999999,"ADDRESS":"建東街４３巷１４弄１０號","OBJECTID":133808},"geometry":{"x":171710.86000000127,"y":2543438.4400000013}},{"attributes":{"ID":133809,"DIS_CODE":0,"TOWNNAME":"東區","LI":"後甲里","LIN":"11鄰","STREET":"建東街","SECT":" ","MAREA":" ","LANE":"４３巷","ALLEY":"１４弄","HOUSE_NO":"１１號","E_COORD97":171702.10999999999,"N_COORD97":2543441.8799999999,"ADDRESS":"建東街４３巷１４弄１１號","OBJECTID":133809},"geometry":{"x":171702.11000000127,"y":2543441.8800000008}},{"attributes":{"ID":133810,"DIS_CODE":0,"TOWNNAME":"東區","LI":"崇善里","LIN":"24鄰","STREET":"崇善十二街","SECT":" ","MAREA":" ","LANE":"６巷","ALLEY":"１５弄","HOUSE_NO":"１２號","E_COORD97":171279.31,"N_COORD97":2541056.3599999999,"ADDRESS":"崇善十二街６巷１５弄１２號","OBJECTID":133810},"geometry":{"x":171279.31000000052,"y":2541056.3599999994}},{"attributes":{"ID":133811,"DIS_CODE":0,"TOWNNAME":"東區","LI":"崇善里","LIN":"24鄰","STREET":"崇善十二街","SECT":" ","MAREA":" ","LANE":"６巷","ALLEY":"１５弄","HOUSE_NO":"１４號","E_COORD97":171282.38,"N_COORD97":2541057.8900000001,"ADDRESS":"崇善十二街６巷１５弄１４號","OBJECTID":133811},"geometry":{"x":171282.38000000175,"y":2541057.8900000006}},{"attributes":{"ID":133812,"DIS_CODE":0,"TOWNNAME":"東區","LI":"崇善里","LIN":"24鄰","STREET":"崇善十二街","SECT":" ","MAREA":" ","LANE":"６巷","ALLEY":"１５弄","HOUSE_NO":"１６號","E_COORD97":171285.97,"N_COORD97":2541059.6000000001,"ADDRESS":"崇善十二街６巷１５弄１６號","OBJECTID":133812},"geometry":{"x":171285.96999999974,"y":2541059.5999999996}},{"attributes":{"ID":133813,"DIS_CODE":0,"TOWNNAME":"東區","LI":"崇善里","LIN":"21鄰","STREET":"崇善十一街","SECT":" ","MAREA":" ","LANE":"１２巷","ALLEY":"１７弄","HOUSE_NO":"１８號之１","E_COORD97":171254.01999999999,"N_COORD97":2541148.8100000001,"ADDRESS":"崇善十一街１２巷１７弄１８號之１","OBJECTID":133813},"geometry":{"x":171254.02000000048,"y":2541148.8100000024}},{"attributes":{"ID":133814,"DIS_CODE":0,"TOWNNAME":"東區","LI":"崇善里","LIN":"21鄰","STREET":"崇善十一街","SECT":" ","MAREA":" ","LANE":"１２巷","ALLEY":"１７弄","HOUSE_NO":"１８號","E_COORD97":171248.19,"N_COORD97":2541145.3700000001,"ADDRESS":"崇善十一街１２巷１７弄１８號","OBJECTID":133814},"geometry":{"x":171248.19000000041,"y":2541145.3700000029}},{"attributes":{"ID":133815,"DIS_CODE":0,"TOWNNAME":"東區","LI":"後甲里","LIN":"12鄰","STREET":"裕農路","SECT":" ","MAREA":" ","LANE":"６６１巷","ALLEY":"４２弄","HOUSE_NO":"２號","E_COORD97":171743.48999999999,"N_COORD97":2543335.9199999999,"ADDRESS":"裕農路６６１巷４２弄２號","OBJECTID":133815},"geometry":{"x":171743.49000000115,"y":2543335.9199999999}},{"attributes":{"ID":133816,"DIS_CODE":0,"TOWNNAME":"東區","LI":"後甲里","LIN":"12鄰","STREET":"裕農路","SECT":" ","MAREA":" ","LANE":"６６１巷","ALLEY":"４２弄","HOUSE_NO":"４號","E_COORD97":171749.85000000001,"N_COORD97":2543337.77,"ADDRESS":"裕農路６６１巷４２弄４號","OBJECTID":133816},"geometry":{"x":171749.84999999963,"y":2543337.7700000014}},{"attributes":{"ID":133817,"DIS_CODE":0,"TOWNNAME":"東區","LI":"後甲里","LIN":"12鄰","STREET":"裕農路","SECT":" ","MAREA":" ","LANE":"６６１巷","ALLEY":"４２弄","HOUSE_NO":"６號","E_COORD97":171755.41,"N_COORD97":2543338.2999999998,"ADDRESS":"裕農路６６１巷４２弄６號","OBJECTID":133817},"geometry":{"x":171755.41000000201,"y":2543338.3000000045}},{"attributes":{"ID":133818,"DIS_CODE":0,"TOWNNAME":"東區","LI":"後甲里","LIN":"12鄰","STREET":"裕農路","SECT":" ","MAREA":" ","LANE":"６６１巷","ALLEY":"４２弄","HOUSE_NO":"８號","E_COORD97":171761.76999999999,"N_COORD97":2543339.3599999999,"ADDRESS":"裕農路６６１巷４２弄８號","OBJECTID":133818},"geometry":{"x":171761.76999999955,"y":2543339.3599999994}},{"attributes":{"ID":133819,"DIS_CODE":0,"TOWNNAME":"東區","LI":"後甲里","LIN":"21鄰","STREET":"裕農路","SECT":" ","MAREA":" ","LANE":"６６１巷","ALLEY":"４２弄","HOUSE_NO":"１３號","E_COORD97":171764.42000000001,"N_COORD97":2543353.71,"ADDRESS":"裕農路６６１巷４２弄１３號","OBJECTID":133819},"geometry":{"x":171764.41999999993,"y":2543353.7100000028}},{"attributes":{"ID":133820,"DIS_CODE":0,"TOWNNAME":"東區","LI":"後甲里","LIN":"21鄰","STREET":"裕農路","SECT":" ","MAREA":" ","LANE":"６６１巷","ALLEY":"４２弄","HOUSE_NO":"３號","E_COORD97":171741.89999999999,"N_COORD97":2543351.6000000001,"ADDRESS":"裕農路６６１巷４２弄３號","OBJECTID":133820},"geometry":{"x":171741.90000000037,"y":2543351.5999999996}},{"attributes":{"ID":133821,"DIS_CODE":0,"TOWNNAME":"東區","LI":"後甲里","LIN":"21鄰","STREET":"裕農路","SECT":" ","MAREA":" ","LANE":"６６１巷","ALLEY":"４２弄","HOUSE_NO":"５號","E_COORD97":171746.67000000001,"N_COORD97":2543351.3300000001,"ADDRESS":"裕農路６６１巷４２弄５號","OBJECTID":133821},"geometry":{"x":171746.67000000179,"y":2543351.3300000019}},{"attributes":{"ID":133822,"DIS_CODE":0,"TOWNNAME":"東區","LI":"後甲里","LIN":"21鄰","STREET":"裕農路","SECT":" ","MAREA":" ","LANE":"６６１巷","ALLEY":"４２弄","HOUSE_NO":"７號","E_COORD97":171751.17000000001,"N_COORD97":2543353.71,"ADDRESS":"裕農路６６１巷４２弄７號","OBJECTID":133822},"geometry":{"x":171751.16999999993,"y":2543353.7100000028}},{"attributes":{"ID":133823,"DIS_CODE":0,"TOWNNAME":"東區","LI":"後甲里","LIN":"21鄰","STREET":"裕農路","SECT":" ","MAREA":" ","LANE":"６６１巷","ALLEY":"４２弄","HOUSE_NO":"９號","E_COORD97":171755.67999999999,"N_COORD97":2543352.3900000001,"ADDRESS":"裕農路６６１巷４２弄９號","OBJECTID":133823},"geometry":{"x":171755.6799999997,"y":2543352.3900000025}},{"attributes":{"ID":133824,"DIS_CODE":0,"TOWNNAME":"東區","LI":"後甲里","LIN":"21鄰","STREET":"裕農路","SECT":" ","MAREA":" ","LANE":"６６１巷","ALLEY":"４２弄","HOUSE_NO":"１號","E_COORD97":171737.13,"N_COORD97":2543351.6000000001,"ADDRESS":"裕農路６６１巷４２弄１號","OBJECTID":133824},"geometry":{"x":171737.13000000082,"y":2543351.5999999996}},{"attributes":{"ID":133825,"DIS_CODE":0,"TOWNNAME":"東區","LI":"崇誨里","LIN":"17鄰","STREET":"林森路","SECT":"二段","MAREA":" ","LANE":"１９２巷","ALLEY":"３６弄","HOUSE_NO":"３號","E_COORD97":170630.64999999999,"N_COORD97":2543317.3100000001,"ADDRESS":"林森路二段１９２巷３６弄３號","OBJECTID":133825},"geometry":{"x":170630.6500000013,"y":2543317.3099999987}},{"attributes":{"ID":133826,"DIS_CODE":0,"TOWNNAME":"東區","LI":"崇誨里","LIN":"17鄰","STREET":"林森路","SECT":"二段","MAREA":" ","LANE":"１９２巷","ALLEY":"３６弄","HOUSE_NO":"５號","E_COORD97":170632.47,"N_COORD97":2543311.5299999998,"ADDRESS":"林森路二段１９２巷３６弄５號","OBJECTID":133826},"geometry":{"x":170632.47000000067,"y":2543311.5300000031}},{"attributes":{"ID":133827,"DIS_CODE":0,"TOWNNAME":"東區","LI":"崇誨里","LIN":"17鄰","STREET":"林森路","SECT":"二段","MAREA":" ","LANE":"１９２巷","ALLEY":"３６弄","HOUSE_NO":"７號","E_COORD97":170634.28,"N_COORD97":2543304.0800000001,"ADDRESS":"林森路二段１９２巷３６弄７號","OBJECTID":133827},"geometry":{"x":170634.28000000119,"y":2543304.0800000001}},{"attributes":{"ID":133828,"DIS_CODE":0,"TOWNNAME":"南化區","LI":"北寮里","LIN":" ","STREET":" ","SECT":" ","MAREA":"北寮","LANE":" ","ALLEY":" ","HOUSE_NO":"８４號","E_COORD97":197803.28,"N_COORD97":2553146.75,"ADDRESS":"北寮８４號","OBJECTID":133828},"geometry":{"x":197803.28000000119,"y":2553146.7500000019}},{"attributes":{"ID":133829,"DIS_CODE":0,"TOWNNAME":"東區","LI":"崇誨里","LIN":"17鄰","STREET":"林森路","SECT":"二段","MAREA":" ","LANE":"１９２巷","ALLEY":"３６弄","HOUSE_NO":"９號","E_COORD97":170635.53,"N_COORD97":2543296.04,"ADDRESS":"林森路二段１９２巷３６弄９號","OBJECTID":133829},"geometry":{"x":170635.53000000026,"y":2543296.0399999991}},{"attributes":{"ID":133830,"DIS_CODE":0,"TOWNNAME":"北區","LI":"國興里","LIN":"11鄰","STREET":"開元路","SECT":" ","MAREA":" ","LANE":"４４２巷","ALLEY":"２６弄","HOUSE_NO":"２號七樓","E_COORD97":170734.26000000001,"N_COORD97":2545619.2999999998,"ADDRESS":"開元路４４２巷２６弄２號七樓","OBJECTID":133830},"geometry":{"x":170734.26000000071,"y":2545619.3000000007}},{"attributes":{"ID":133831,"DIS_CODE":0,"TOWNNAME":"北區","LI":"國興里","LIN":"11鄰","STREET":"開元路","SECT":" ","MAREA":" ","LANE":"４４２巷","ALLEY":"２６弄","HOUSE_NO":"２號二樓","E_COORD97":170734.26000000001,"N_COORD97":2545619.2999999998,"ADDRESS":"開元路４４２巷２６弄２號二樓","OBJECTID":133831},"geometry":{"x":170734.26000000071,"y":2545619.3000000007}},{"attributes":{"ID":133832,"DIS_CODE":0,"TOWNNAME":"北區","LI":"國興里","LIN":"11鄰","STREET":"開元路","SECT":" ","MAREA":" ","LANE":"４４２巷","ALLEY":"２６弄","HOUSE_NO":"２號八樓","E_COORD97":170734.26000000001,"N_COORD97":2545619.2999999998,"ADDRESS":"開元路４４２巷２６弄２號八樓","OBJECTID":133832},"geometry":{"x":170734.26000000071,"y":2545619.3000000007}},{"attributes":{"ID":133833,"DIS_CODE":0,"TOWNNAME":"北區","LI":"國興里","LIN":"11鄰","STREET":"開元路","SECT":" ","MAREA":" ","LANE":"４４２巷","ALLEY":"２６弄","HOUSE_NO":"２號三樓","E_COORD97":170734.26000000001,"N_COORD97":2545619.2999999998,"ADDRESS":"開元路４４２巷２６弄２號三樓","OBJECTID":133833},"geometry":{"x":170734.26000000071,"y":2545619.3000000007}},{"attributes":{"ID":133834,"DIS_CODE":0,"TOWNNAME":"北區","LI":"國興里","LIN":"11鄰","STREET":"開元路","SECT":" ","MAREA":" ","LANE":"４４２巷","ALLEY":"２６弄","HOUSE_NO":"２號五樓","E_COORD97":170734.26000000001,"N_COORD97":2545619.2999999998,"ADDRESS":"開元路４４２巷２６弄２號五樓","OBJECTID":133834},"geometry":{"x":170734.26000000071,"y":2545619.3000000007}},{"attributes":{"ID":133835,"DIS_CODE":0,"TOWNNAME":"北區","LI":"國興里","LIN":"11鄰","STREET":"開元路","SECT":" ","MAREA":" ","LANE":"４４２巷","ALLEY":"２６弄","HOUSE_NO":"２號六樓","E_COORD97":170734.26000000001,"N_COORD97":2545619.2999999998,"ADDRESS":"開元路４４２巷２６弄２號六樓","OBJECTID":133835},"geometry":{"x":170734.26000000071,"y":2545619.3000000007}},{"attributes":{"ID":133836,"DIS_CODE":0,"TOWNNAME":"北區","LI":"國興里","LIN":"11鄰","STREET":"開元路","SECT":" ","MAREA":" ","LANE":"４４２巷","ALLEY":"２６弄","HOUSE_NO":"２號四樓","E_COORD97":170734.26000000001,"N_COORD97":2545619.2999999998,"ADDRESS":"開元路４４２巷２６弄２號四樓","OBJECTID":133836},"geometry":{"x":170734.26000000071,"y":2545619.3000000007}},{"attributes":{"ID":133837,"DIS_CODE":0,"TOWNNAME":"北區","LI":"國興里","LIN":"11鄰","STREET":"開元路","SECT":" ","MAREA":" ","LANE":"４４２巷","ALLEY":"２６弄","HOUSE_NO":"６號七樓","E_COORD97":170723.01999999999,"N_COORD97":2545605.3900000001,"ADDRESS":"開元路４４２巷２６弄６號七樓","OBJECTID":133837},"geometry":{"x":170723.01999999955,"y":2545605.3899999987}},{"attributes":{"ID":133838,"DIS_CODE":0,"TOWNNAME":"北區","LI":"國興里","LIN":"11鄰","STREET":"開元路","SECT":" ","MAREA":" ","LANE":"４４２巷","ALLEY":"２６弄","HOUSE_NO":"６號二樓","E_COORD97":170723.01999999999,"N_COORD97":2545605.3900000001,"ADDRESS":"開元路４４２巷２６弄６號二樓","OBJECTID":133838},"geometry":{"x":170723.01999999955,"y":2545605.3899999987}},{"attributes":{"ID":133839,"DIS_CODE":0,"TOWNNAME":"佳里區","LI":"安西里","LIN":" ","STREET":"光復路","SECT":" ","MAREA":" ","LANE":" ","ALLEY":" ","HOUSE_NO":"２２４號","E_COORD97":165517.85999999999,"N_COORD97":2562423.4700000002,"ADDRESS":"光復路２２４號","OBJECTID":133839},"geometry":{"x":165517.86000000127,"y":2562423.4700000007}},{"attributes":{"ID":133840,"DIS_CODE":0,"TOWNNAME":"佳里區","LI":"六安里","LIN":" ","STREET":"光復路","SECT":" ","MAREA":" ","LANE":" ","ALLEY":" ","HOUSE_NO":"３５０之１號","E_COORD97":165529.45999999999,"N_COORD97":2562797.8799999999,"ADDRESS":"光復路３５０之１號","OBJECTID":133840},"geometry":{"x":165529.45999999996,"y":2562797.8800000008}},{"attributes":{"ID":133841,"DIS_CODE":0,"TOWNNAME":"佳里區","LI":"六安里","LIN":" ","STREET":"光復路","SECT":" ","MAREA":" ","LANE":" ","ALLEY":" ","HOUSE_NO":"３６６號","E_COORD97":165543.70000000001,"N_COORD97":2562815.4199999999,"ADDRESS":"光復路３６６號","OBJECTID":133841},"geometry":{"x":165543.70000000019,"y":2562815.4200000018}},{"attributes":{"ID":133842,"DIS_CODE":0,"TOWNNAME":"北區","LI":"國興里","LIN":"11鄰","STREET":"開元路","SECT":" ","MAREA":" ","LANE":"４４２巷","ALLEY":"２６弄","HOUSE_NO":"６號八樓","E_COORD97":170723.01999999999,"N_COORD97":2545605.3900000001,"ADDRESS":"開元路４４２巷２６弄６號八樓","OBJECTID":133842},"geometry":{"x":170723.01999999955,"y":2545605.3899999987}},{"attributes":{"ID":133843,"DIS_CODE":0,"TOWNNAME":"北區","LI":"國興里","LIN":"11鄰","STREET":"開元路","SECT":" ","MAREA":" ","LANE":"４４２巷","ALLEY":"２６弄","HOUSE_NO":"６號三樓","E_COORD97":170723.01999999999,"N_COORD97":2545605.3900000001,"ADDRESS":"開元路４４２巷２６弄６號三樓","OBJECTID":133843},"geometry":{"x":170723.01999999955,"y":2545605.3899999987}},{"attributes":{"ID":133844,"DIS_CODE":0,"TOWNNAME":"北區","LI":"國興里","LIN":"11鄰","STREET":"開元路","SECT":" ","MAREA":" ","LANE":"４４２巷","ALLEY":"２６弄","HOUSE_NO":"６號五樓","E_COORD97":170723.01999999999,"N_COORD97":2545605.3900000001,"ADDRESS":"開元路４４２巷２６弄６號五樓","OBJECTID":133844},"geometry":{"x":170723.01999999955,"y":2545605.3899999987}},{"attributes":{"ID":133845,"DIS_CODE":0,"TOWNNAME":"北區","LI":"國興里","LIN":"11鄰","STREET":"開元路","SECT":" ","MAREA":" ","LANE":"４４２巷","ALLEY":"２６弄","HOUSE_NO":"６號六樓","E_COORD97":170723.01999999999,"N_COORD97":2545605.3900000001,"ADDRESS":"開元路４４２巷２６弄６號六樓","OBJECTID":133845},"geometry":{"x":170723.01999999955,"y":2545605.3899999987}},{"attributes":{"ID":133846,"DIS_CODE":0,"TOWNNAME":"北區","LI":"國興里","LIN":"11鄰","STREET":"開元路","SECT":" ","MAREA":" ","LANE":"４４２巷","ALLEY":"２６弄","HOUSE_NO":"６號四樓","E_COORD97":170723.01999999999,"N_COORD97":2545605.3900000001,"ADDRESS":"開元路４４２巷２６弄６號四樓","OBJECTID":133846},"geometry":{"x":170723.01999999955,"y":2545605.3899999987}},{"attributes":{"ID":133847,"DIS_CODE":0,"TOWNNAME":"東區","LI":"大智里","LIN":"17鄰","STREET":"德東街","SECT":" ","MAREA":" ","LANE":"１５１巷","ALLEY":"３７弄","HOUSE_NO":"７號","E_COORD97":171152.75,"N_COORD97":2540378.5899999999,"ADDRESS":"德東街１５１巷３７弄７號","OBJECTID":133847},"geometry":{"x":171152.75000000186,"y":2540378.589999998}},{"attributes":{"ID":133848,"DIS_CODE":0,"TOWNNAME":"佳里區","LI":"建南里","LIN":"18鄰","STREET":"平等街","SECT":" ","MAREA":" ","LANE":" ","ALLEY":" ","HOUSE_NO":"１８０號","E_COORD97":165686.44,"N_COORD97":2561884.79,"ADDRESS":"平等街１８０號","OBJECTID":133848},"geometry":{"x":165686.44000000041,"y":2561884.7899999991}},{"attributes":{"ID":133849,"DIS_CODE":0,"TOWNNAME":"佳里區","LI":"安西里","LIN":"14鄰","STREET":"光復路","SECT":" ","MAREA":" ","LANE":" ","ALLEY":" ","HOUSE_NO":"３２１號","E_COORD97":165487.81,"N_COORD97":2562575.4199999999,"ADDRESS":"光復路３２１號","OBJECTID":133849},"geometry":{"x":165487.80999999959,"y":2562575.4199999999}},{"attributes":{"ID":133850,"DIS_CODE":0,"TOWNNAME":"佳里區","LI":"建南里","LIN":"37鄰","STREET":"四維三街","SECT":" ","MAREA":" ","LANE":" ","ALLEY":" ","HOUSE_NO":"５０號","E_COORD97":165532.23999999999,"N_COORD97":2561300.1099999999,"ADDRESS":"四維三街５０號","OBJECTID":133850},"geometry":{"x":165532.24000000115,"y":2561300.1100000031}},{"attributes":{"ID":133851,"DIS_CODE":0,"TOWNNAME":"佳里區","LI":"建南里","LIN":"37鄰","STREET":"四維三街","SECT":" ","MAREA":" ","LANE":" ","ALLEY":" ","HOUSE_NO":"５２號","E_COORD97":165531.20999999999,"N_COORD97":2561295.0299999998,"ADDRESS":"四維三街５２號","OBJECTID":133851},"geometry":{"x":165531.20999999996,"y":2561295.0300000012}},{"attributes":{"ID":133852,"DIS_CODE":0,"TOWNNAME":"佳里區","LI":"建南里","LIN":"37鄰","STREET":"四維三街","SECT":" ","MAREA":" ","LANE":" ","ALLEY":" ","HOUSE_NO":"５４號","E_COORD97":165530.70999999999,"N_COORD97":2561289.8999999999,"ADDRESS":"四維三街５４號","OBJECTID":133852},"geometry":{"x":165530.71000000089,"y":2561289.9000000022}},{"attributes":{"ID":133853,"DIS_CODE":0,"TOWNNAME":"佳里區","LI":"建南里","LIN":"37鄰","STREET":"四維三街","SECT":" ","MAREA":" ","LANE":" ","ALLEY":" ","HOUSE_NO":"５６號","E_COORD97":165529.98999999999,"N_COORD97":2561284.6299999999,"ADDRESS":"四維三街５６號","OBJECTID":133853},"geometry":{"x":165529.98999999929,"y":2561284.629999999}},{"attributes":{"ID":133854,"DIS_CODE":0,"TOWNNAME":"佳里區","LI":"建南里","LIN":"37鄰","STREET":"四維三街","SECT":" ","MAREA":" ","LANE":" ","ALLEY":" ","HOUSE_NO":"５７號","E_COORD97":165555.01999999999,"N_COORD97":2561303.2200000002,"ADDRESS":"四維三街５７號","OBJECTID":133854},"geometry":{"x":165555.02000000048,"y":2561303.2200000007}},{"attributes":{"ID":133855,"DIS_CODE":0,"TOWNNAME":"佳里區","LI":"建南里","LIN":"37鄰","STREET":"四維三街","SECT":" ","MAREA":" ","LANE":" ","ALLEY":" ","HOUSE_NO":"５８號","E_COORD97":165529.14999999999,"N_COORD97":2561279.5800000001,"ADDRESS":"四維三街５８號","OBJECTID":133855},"geometry":{"x":165529.15000000224,"y":2561279.5800000001}},{"attributes":{"ID":133856,"DIS_CODE":0,"TOWNNAME":"佳里區","LI":"安西里","LIN":" ","STREET":"光華街","SECT":" ","MAREA":" ","LANE":" ","ALLEY":" ","HOUSE_NO":"１２５號","E_COORD97":165090.94,"N_COORD97":2562800.2999999998,"ADDRESS":"光華街１２５號","OBJECTID":133856},"geometry":{"x":165090.94000000041,"y":2562800.3000000026}},{"attributes":{"ID":133857,"DIS_CODE":0,"TOWNNAME":"南區","LI":"南華里","LIN":"11鄰","STREET":"中華南路","SECT":"二段","MAREA":" ","LANE":"４００巷","ALLEY":"４弄","HOUSE_NO":"１７號二樓","E_COORD97":166493.73000000001,"N_COORD97":2540380.1899999999,"ADDRESS":"中華南路二段４００巷４弄１７號二樓","OBJECTID":133857},"geometry":{"x":166493.73000000138,"y":2540380.1899999995}},{"attributes":{"ID":133858,"DIS_CODE":0,"TOWNNAME":"佳里區","LI":"安西里","LIN":" ","STREET":"光華街","SECT":" ","MAREA":" ","LANE":" ","ALLEY":" ","HOUSE_NO":"１７５號","E_COORD97":164951.87,"N_COORD97":2562800.9500000002,"ADDRESS":"光華街１７５號","OBJECTID":133858},"geometry":{"x":164951.87000000104,"y":2562800.9500000011}},{"attributes":{"ID":133859,"DIS_CODE":0,"TOWNNAME":"佳里區","LI":"建南里","LIN":"37鄰","STREET":"安南路","SECT":" ","MAREA":" ","LANE":" ","ALLEY":" ","HOUSE_NO":"１６１號","E_COORD97":165665.51999999999,"N_COORD97":2561323.71,"ADDRESS":"安南路１６１號","OBJECTID":133859},"geometry":{"x":165665.52000000048,"y":2561323.7100000009}},{"attributes":{"ID":133860,"DIS_CODE":0,"TOWNNAME":"南區","LI":"南華里","LIN":"11鄰","STREET":"中華南路","SECT":"二段","MAREA":" ","LANE":"４００巷","ALLEY":"４弄","HOUSE_NO":"１７號三樓","E_COORD97":166493.73000000001,"N_COORD97":2540380.1899999999,"ADDRESS":"中華南路二段４００巷４弄１７號三樓","OBJECTID":133860},"geometry":{"x":166493.73000000138,"y":2540380.1899999995}},{"attributes":{"ID":133861,"DIS_CODE":0,"TOWNNAME":"佳里區","LI":"建南里","LIN":" ","STREET":"安南路","SECT":" ","MAREA":" ","LANE":" ","ALLEY":" ","HOUSE_NO":"４２９之１號","E_COORD97":165124.54000000001,"N_COORD97":2561566.5699999998,"ADDRESS":"安南路４２９之１號","OBJECTID":133861},"geometry":{"x":165124.5400000019,"y":2561566.5700000022}},{"attributes":{"ID":133862,"DIS_CODE":0,"TOWNNAME":"佳里區","LI":"建南里","LIN":" ","STREET":"成功路","SECT":" ","MAREA":" ","LANE":" ","ALLEY":" ","HOUSE_NO":"２００之１號","E_COORD97":165361.69,"N_COORD97":2561181.4100000001,"ADDRESS":"成功路２００之１號","OBJECTID":133862},"geometry":{"x":165361.69000000134,"y":2561181.410000002}},{"attributes":{"ID":133863,"DIS_CODE":0,"TOWNNAME":"佳里區","LI":"建南里","LIN":" ","STREET":"成功路","SECT":" ","MAREA":" ","LANE":" ","ALLEY":" ","HOUSE_NO":"２００之３號","E_COORD97":165346.5,"N_COORD97":2561176.8399999999,"ADDRESS":"成功路２００之３號","OBJECTID":133863},"geometry":{"x":165346.5,"y":2561176.839999998}},{"attributes":{"ID":133864,"DIS_CODE":0,"TOWNNAME":"南區","LI":"南華里","LIN":"11鄰","STREET":"中華南路","SECT":"二段","MAREA":" ","LANE":"４００巷","ALLEY":"４弄","HOUSE_NO":"１７號五樓","E_COORD97":166493.73000000001,"N_COORD97":2540380.1899999999,"ADDRESS":"中華南路二段４００巷４弄１７號五樓","OBJECTID":133864},"geometry":{"x":166493.73000000138,"y":2540380.1899999995}},{"attributes":{"ID":133865,"DIS_CODE":0,"TOWNNAME":"南區","LI":"南華里","LIN":"11鄰","STREET":"中華南路","SECT":"二段","MAREA":" ","LANE":"４００巷","ALLEY":"４弄","HOUSE_NO":"１７號四樓","E_COORD97":166493.73000000001,"N_COORD97":2540380.1899999999,"ADDRESS":"中華南路二段４００巷４弄１７號四樓","OBJECTID":133865},"geometry":{"x":166493.73000000138,"y":2540380.1899999995}},{"attributes":{"ID":133866,"DIS_CODE":0,"TOWNNAME":"南區","LI":"南華里","LIN":"11鄰","STREET":"中華南路","SECT":"二段","MAREA":" ","LANE":"４００巷","ALLEY":"４弄","HOUSE_NO":"１９號二樓","E_COORD97":166506.85000000001,"N_COORD97":2540380.7799999998,"ADDRESS":"中華南路二段４００巷４弄１９號二樓","OBJECTID":133866},"geometry":{"x":166506.85000000149,"y":2540380.7800000012}},{"attributes":{"ID":133867,"DIS_CODE":0,"TOWNNAME":"南區","LI":"南華里","LIN":"11鄰","STREET":"中華南路","SECT":"二段","MAREA":" ","LANE":"４００巷","ALLEY":"４弄","HOUSE_NO":"１９號三樓","E_COORD97":166506.85000000001,"N_COORD97":2540380.7799999998,"ADDRESS":"中華南路二段４００巷４弄１９號三樓","OBJECTID":133867},"geometry":{"x":166506.85000000149,"y":2540380.7800000012}},{"attributes":{"ID":133868,"DIS_CODE":0,"TOWNNAME":"南區","LI":"南華里","LIN":"11鄰","STREET":"中華南路","SECT":"二段","MAREA":" ","LANE":"４００巷","ALLEY":"４弄","HOUSE_NO":"１９號五樓","E_COORD97":166506.85000000001,"N_COORD97":2540380.7799999998,"ADDRESS":"中華南路二段４００巷４弄１９號五樓","OBJECTID":133868},"geometry":{"x":166506.85000000149,"y":2540380.7800000012}},{"attributes":{"ID":133869,"DIS_CODE":0,"TOWNNAME":"南區","LI":"南華里","LIN":"11鄰","STREET":"中華南路","SECT":"二段","MAREA":" ","LANE":"４００巷","ALLEY":"４弄","HOUSE_NO":"１９號四樓","E_COORD97":166506.85000000001,"N_COORD97":2540380.7799999998,"ADDRESS":"中華南路二段４００巷４弄１９號四樓","OBJECTID":133869},"geometry":{"x":166506.85000000149,"y":2540380.7800000012}},{"attributes":{"ID":133870,"DIS_CODE":0,"TOWNNAME":"南區","LI":"南華里","LIN":"11鄰","STREET":"中華南路","SECT":"二段","MAREA":" ","LANE":"４００巷","ALLEY":"４弄","HOUSE_NO":"２１號二樓","E_COORD97":166494.20000000001,"N_COORD97":2540388.27,"ADDRESS":"中華南路二段４００巷４弄２１號二樓","OBJECTID":133870},"geometry":{"x":166494.20000000019,"y":2540388.2700000014}},{"attributes":{"ID":133871,"DIS_CODE":0,"TOWNNAME":"南區","LI":"南華里","LIN":"11鄰","STREET":"中華南路","SECT":"二段","MAREA":" ","LANE":"４００巷","ALLEY":"４弄","HOUSE_NO":"２１號三樓","E_COORD97":166494.20000000001,"N_COORD97":2540388.27,"ADDRESS":"中華南路二段４００巷４弄２１號三樓","OBJECTID":133871},"geometry":{"x":166494.20000000019,"y":2540388.2700000014}},{"attributes":{"ID":133872,"DIS_CODE":0,"TOWNNAME":"南區","LI":"南華里","LIN":"11鄰","STREET":"中華南路","SECT":"二段","MAREA":" ","LANE":"４００巷","ALLEY":"４弄","HOUSE_NO":"２１號五樓","E_COORD97":166494.20000000001,"N_COORD97":2540388.27,"ADDRESS":"中華南路二段４００巷４弄２１號五樓","OBJECTID":133872},"geometry":{"x":166494.20000000019,"y":2540388.2700000014}},{"attributes":{"ID":133873,"DIS_CODE":0,"TOWNNAME":"南區","LI":"南華里","LIN":"11鄰","STREET":"中華南路","SECT":"二段","MAREA":" ","LANE":"４００巷","ALLEY":"４弄","HOUSE_NO":"２１號四樓","E_COORD97":166494.20000000001,"N_COORD97":2540388.27,"ADDRESS":"中華南路二段４００巷４弄２１號四樓","OBJECTID":133873},"geometry":{"x":166494.20000000019,"y":2540388.2700000014}},{"attributes":{"ID":133874,"DIS_CODE":0,"TOWNNAME":"南區","LI":"南華里","LIN":"11鄰","STREET":"中華南路","SECT":"二段","MAREA":" ","LANE":"４００巷","ALLEY":"４弄","HOUSE_NO":"２３號二樓","E_COORD97":166507.56,"N_COORD97":2540388.0299999998,"ADDRESS":"中華南路二段４００巷４弄２３號二樓","OBJECTID":133874},"geometry":{"x":166507.56000000052,"y":2540388.0299999993}},{"attributes":{"ID":133875,"DIS_CODE":0,"TOWNNAME":"東區","LI":"崇文里","LIN":"6鄰","STREET":"崇德路","SECT":" ","MAREA":" ","LANE":" ","ALLEY":" ","HOUSE_NO":"６５９之９號","E_COORD97":170810.10000000001,"N_COORD97":2541169.4700000002,"ADDRESS":"崇德路６５９之９號","OBJECTID":133875},"geometry":{"x":170810.10000000056,"y":2541169.4700000007}},{"attributes":{"ID":133876,"DIS_CODE":0,"TOWNNAME":"東區","LI":"崇文里","LIN":"6鄰","STREET":"崇德十七街","SECT":" ","MAREA":" ","LANE":" ","ALLEY":" ","HOUSE_NO":"３３號","E_COORD97":170871.89000000001,"N_COORD97":2541095.2599999998,"ADDRESS":"崇德十七街３３號","OBJECTID":133876},"geometry":{"x":170871.8900000006,"y":2541095.2599999998}},{"attributes":{"ID":133877,"DIS_CODE":0,"TOWNNAME":"東山區","LI":"東正里","LIN":"19鄰","STREET":" ","SECT":" ","MAREA":"東勢","LANE":" ","ALLEY":" ","HOUSE_NO":"１２７號之２","E_COORD97":189246.63,"N_COORD97":2580316.3399999999,"ADDRESS":"東勢１２７號之２","OBJECTID":133877},"geometry":{"x":189246.63000000082,"y":2580316.3400000017}},{"attributes":{"ID":133878,"DIS_CODE":0,"TOWNNAME":"東山區","LI":"東正里","LIN":"19鄰","STREET":" ","SECT":" ","MAREA":"東勢","LANE":" ","ALLEY":" ","HOUSE_NO":"１２８號","E_COORD97":189250.56,"N_COORD97":2580316.0099999998,"ADDRESS":"東勢１２８號","OBJECTID":133878},"geometry":{"x":189250.56000000052,"y":2580316.0100000016}},{"attributes":{"ID":133879,"DIS_CODE":0,"TOWNNAME":"東山區","LI":"東正里","LIN":"20鄰","STREET":" ","SECT":" ","MAREA":"東勢","LANE":" ","ALLEY":" ","HOUSE_NO":"１３８號","E_COORD97":189321.54000000001,"N_COORD97":2580351.6400000001,"ADDRESS":"東勢１３８號","OBJECTID":133879},"geometry":{"x":189321.5400000019,"y":2580351.6399999987}},{"attributes":{"ID":133880,"DIS_CODE":0,"TOWNNAME":"東山區","LI":"東正里","LIN":"20鄰","STREET":" ","SECT":" ","MAREA":"東勢","LANE":" ","ALLEY":" ","HOUSE_NO":"１３９號","E_COORD97":189330.20999999999,"N_COORD97":2580333.0299999998,"ADDRESS":"東勢１３９號","OBJECTID":133880},"geometry":{"x":189330.20999999996,"y":2580333.0299999993}},{"attributes":{"ID":133881,"DIS_CODE":0,"TOWNNAME":"東山區","LI":"東正里","LIN":"20鄰","STREET":" ","SECT":" ","MAREA":"東勢","LANE":" ","ALLEY":" ","HOUSE_NO":"１４０號之１０","E_COORD97":189368.26000000001,"N_COORD97":2580313.6200000001,"ADDRESS":"東勢１４０號之１０","OBJECTID":133881},"geometry":{"x":189368.25999999978,"y":2580313.620000001}},{"attributes":{"ID":133882,"DIS_CODE":0,"TOWNNAME":"東山區","LI":"東正里","LIN":"20鄰","STREET":" ","SECT":" ","MAREA":"東勢","LANE":" ","ALLEY":" ","HOUSE_NO":"１４０號之１１","E_COORD97":189391.17000000001,"N_COORD97":2580304.4700000002,"ADDRESS":"東勢１４０號之１１","OBJECTID":133882},"geometry":{"x":189391.16999999993,"y":2580304.4700000007}},{"attributes":{"ID":133883,"DIS_CODE":0,"TOWNNAME":"東山區","LI":"東正里","LIN":"20鄰","STREET":" ","SECT":" ","MAREA":"東勢","LANE":" ","ALLEY":" ","HOUSE_NO":"１４０號之１２","E_COORD97":189390.89999999999,"N_COORD97":2580297.6200000001,"ADDRESS":"東勢１４０號之１２","OBJECTID":133883},"geometry":{"x":189390.9000000013,"y":2580297.620000001}},{"attributes":{"ID":133884,"DIS_CODE":0,"TOWNNAME":"東山區","LI":"東正里","LIN":"20鄰","STREET":" ","SECT":" ","MAREA":"東勢","LANE":" ","ALLEY":" ","HOUSE_NO":"１４０號之１３","E_COORD97":189392.31,"N_COORD97":2580288.4500000002,"ADDRESS":"東勢１４０號之１３","OBJECTID":133884},"geometry":{"x":189392.31000000052,"y":2580288.4500000011}},{"attributes":{"ID":133885,"DIS_CODE":0,"TOWNNAME":"東山區","LI":"東正里","LIN":"20鄰","STREET":" ","SECT":" ","MAREA":"東勢","LANE":" ","ALLEY":" ","HOUSE_NO":"１４０號之１","E_COORD97":189351.98000000001,"N_COORD97":2580302.77,"ADDRESS":"東勢１４０號之１","OBJECTID":133885},"geometry":{"x":189351.98000000138,"y":2580302.7700000014}},{"attributes":{"ID":133886,"DIS_CODE":0,"TOWNNAME":"東山區","LI":"東正里","LIN":"20鄰","STREET":" ","SECT":" ","MAREA":"東勢","LANE":" ","ALLEY":" ","HOUSE_NO":"１４０號之５","E_COORD97":189359.98000000001,"N_COORD97":2580298.6499999999,"ADDRESS":"東勢１４０號之５","OBJECTID":133886},"geometry":{"x":189359.98000000138,"y":2580298.6500000022}},{"attributes":{"ID":133887,"DIS_CODE":0,"TOWNNAME":"東山區","LI":"東正里","LIN":"20鄰","STREET":" ","SECT":" ","MAREA":"東勢","LANE":" ","ALLEY":" ","HOUSE_NO":"１４０號之６","E_COORD97":189363.60000000001,"N_COORD97":2580297.1699999999,"ADDRESS":"東勢１４０號之６","OBJECTID":133887},"geometry":{"x":189363.60000000056,"y":2580297.1700000018}},{"attributes":{"ID":133888,"DIS_CODE":0,"TOWNNAME":"東山區","LI":"東正里","LIN":"20鄰","STREET":" ","SECT":" ","MAREA":"東勢","LANE":" ","ALLEY":" ","HOUSE_NO":"１４０號之７","E_COORD97":189367.23000000001,"N_COORD97":2580295.6899999999,"ADDRESS":"東勢１４０號之７","OBJECTID":133888},"geometry":{"x":189367.23000000138,"y":2580295.6899999995}},{"attributes":{"ID":133889,"DIS_CODE":0,"TOWNNAME":"東山區","LI":"東正里","LIN":"20鄰","STREET":" ","SECT":" ","MAREA":"東勢","LANE":" ","ALLEY":" ","HOUSE_NO":"１４０號之８","E_COORD97":189370.85999999999,"N_COORD97":2580294.21,"ADDRESS":"東勢１４０號之８","OBJECTID":133889},"geometry":{"x":189370.86000000127,"y":2580294.2100000046}},{"attributes":{"ID":133890,"DIS_CODE":0,"TOWNNAME":"東山區","LI":"東正里","LIN":"20鄰","STREET":" ","SECT":" ","MAREA":"東勢","LANE":" ","ALLEY":" ","HOUSE_NO":"１４０號之９","E_COORD97":189374.48999999999,"N_COORD97":2580292.7400000002,"ADDRESS":"東勢１４０號之９","OBJECTID":133890},"geometry":{"x":189374.49000000022,"y":2580292.7400000002}},{"attributes":{"ID":133891,"DIS_CODE":0,"TOWNNAME":"東山區","LI":"東正里","LIN":"21鄰","STREET":" ","SECT":" ","MAREA":"東勢","LANE":" ","ALLEY":" ","HOUSE_NO":"１４２號之２","E_COORD97":189406.17999999999,"N_COORD97":2580292.1600000001,"ADDRESS":"東勢１４２號之２","OBJECTID":133891},"geometry":{"x":189406.1799999997,"y":2580292.1600000001}},{"attributes":{"ID":133892,"DIS_CODE":0,"TOWNNAME":"東山區","LI":"東正里","LIN":"21鄰","STREET":" ","SECT":" ","MAREA":"東勢","LANE":" ","ALLEY":" ","HOUSE_NO":"１４２號之３","E_COORD97":189399.13,"N_COORD97":2580313.5299999998,"ADDRESS":"東勢１４２號之３","OBJECTID":133892},"geometry":{"x":189399.13000000082,"y":2580313.5299999993}},{"attributes":{"ID":133893,"DIS_CODE":0,"TOWNNAME":"東山區","LI":"東正里","LIN":"21鄰","STREET":" ","SECT":" ","MAREA":"東勢","LANE":" ","ALLEY":" ","HOUSE_NO":"１４２號之４","E_COORD97":189441.82999999999,"N_COORD97":2580298.4199999999,"ADDRESS":"東勢１４２號之４","OBJECTID":133893},"geometry":{"x":189441.83000000194,"y":2580298.4200000037}},{"attributes":{"ID":133894,"DIS_CODE":0,"TOWNNAME":"東山區","LI":"東正里","LIN":"21鄰","STREET":" ","SECT":" ","MAREA":"東勢","LANE":" ","ALLEY":" ","HOUSE_NO":"１４２號之５","E_COORD97":189411.25,"N_COORD97":2580314.5600000001,"ADDRESS":"東勢１４２號之５","OBJECTID":133894},"geometry":{"x":189411.25,"y":2580314.5600000005}},{"attributes":{"ID":133895,"DIS_CODE":0,"TOWNNAME":"佳里區","LI":"禮化里","LIN":"6鄰","STREET":" ","SECT":" ","MAREA":"佳里興","LANE":" ","ALLEY":" ","HOUSE_NO":"２８１號之１","E_COORD97":166769.04000000001,"N_COORD97":2566035.1400000001,"ADDRESS":"佳里興２８１號之１","OBJECTID":133895},"geometry":{"x":166769.04000000097,"y":2566035.1400000025}},{"attributes":{"ID":133896,"DIS_CODE":0,"TOWNNAME":"佳里區","LI":"禮化里","LIN":"6鄰","STREET":" ","SECT":" ","MAREA":"佳里興","LANE":" ","ALLEY":" ","HOUSE_NO":"２８１號","E_COORD97":166796.84,"N_COORD97":2566035.3700000001,"ADDRESS":"佳里興２８１號","OBJECTID":133896},"geometry":{"x":166796.83999999985,"y":2566035.370000001}},{"attributes":{"ID":133897,"DIS_CODE":0,"TOWNNAME":"佳里區","LI":"禮化里","LIN":"6鄰","STREET":" ","SECT":" ","MAREA":"佳里興","LANE":" ","ALLEY":" ","HOUSE_NO":"２８２號","E_COORD97":166796.23000000001,"N_COORD97":2566066.2999999998,"ADDRESS":"佳里興２８２號","OBJECTID":133897},"geometry":{"x":166796.23000000045,"y":2566066.3000000007}},{"attributes":{"ID":133898,"DIS_CODE":0,"TOWNNAME":"佳里區","LI":"禮化里","LIN":"6鄰","STREET":" ","SECT":" ","MAREA":"佳里興","LANE":" ","ALLEY":" ","HOUSE_NO":"２８３號","E_COORD97":166698.60999999999,"N_COORD97":2565908.2999999998,"ADDRESS":"佳里興２８３號","OBJECTID":133898},"geometry":{"x":166698.61000000034,"y":2565908.3000000026}},{"attributes":{"ID":133899,"DIS_CODE":0,"TOWNNAME":"佳里區","LI":"禮化里","LIN":"6鄰","STREET":" ","SECT":" ","MAREA":"佳里興","LANE":" ","ALLEY":" ","HOUSE_NO":"２８４號之１","E_COORD97":166636.95999999999,"N_COORD97":2565830.4300000002,"ADDRESS":"佳里興２８４號之１","OBJECTID":133899},"geometry":{"x":166636.96000000183,"y":2565830.4299999997}},{"attributes":{"ID":133900,"DIS_CODE":0,"TOWNNAME":"佳里區","LI":"禮化里","LIN":"6鄰","STREET":" ","SECT":" ","MAREA":"佳里興","LANE":" ","ALLEY":" ","HOUSE_NO":"２８４號","E_COORD97":166652.85999999999,"N_COORD97":2565885.96,"ADDRESS":"佳里興２８４號","OBJECTID":133900},"geometry":{"x":166652.86000000034,"y":2565885.9600000009}},{"attributes":{"ID":133901,"DIS_CODE":0,"TOWNNAME":"佳里區","LI":"禮化里","LIN":"6鄰","STREET":" ","SECT":" ","MAREA":"佳里興","LANE":" ","ALLEY":" ","HOUSE_NO":"２８５號","E_COORD97":166705.14000000001,"N_COORD97":2565884.1400000001,"ADDRESS":"佳里興２８５號","OBJECTID":133901},"geometry":{"x":166705.1400000006,"y":2565884.1400000006}},{"attributes":{"ID":133902,"DIS_CODE":0,"TOWNNAME":"南區","LI":"南華里","LIN":"11鄰","STREET":"中華南路","SECT":"二段","MAREA":" ","LANE":"４００巷","ALLEY":"４弄","HOUSE_NO":"２３號三樓","E_COORD97":166507.56,"N_COORD97":2540388.0299999998,"ADDRESS":"中華南路二段４００巷４弄２３號三樓","OBJECTID":133902},"geometry":{"x":166507.56000000052,"y":2540388.0299999993}},{"attributes":{"ID":133903,"DIS_CODE":0,"TOWNNAME":"佳里區","LI":"興化里","LIN":"6鄰","STREET":" ","SECT":" ","MAREA":"佳里興","LANE":" ","ALLEY":" ","HOUSE_NO":"４３５號","E_COORD97":166804.23999999999,"N_COORD97":2565506.0800000001,"ADDRESS":"佳里興４３５號","OBJECTID":133903},"geometry":{"x":166804.24000000022,"y":2565506.0800000019}},{"attributes":{"ID":133904,"DIS_CODE":0,"TOWNNAME":"佳里區","LI":"興化里","LIN":"6鄰","STREET":" ","SECT":" ","MAREA":"佳里興","LANE":" ","ALLEY":" ","HOUSE_NO":"４３６號之１","E_COORD97":166821.64999999999,"N_COORD97":2565574.0499999998,"ADDRESS":"佳里興４３６號之１","OBJECTID":133904},"geometry":{"x":166821.6500000013,"y":2565574.0500000045}},{"attributes":{"ID":133905,"DIS_CODE":0,"TOWNNAME":"佳里區","LI":"興化里","LIN":"6鄰","STREET":" ","SECT":" ","MAREA":"佳里興","LANE":" ","ALLEY":" ","HOUSE_NO":"４３６號之２","E_COORD97":166822.70000000001,"N_COORD97":2565569.6299999999,"ADDRESS":"佳里興４３６號之２","OBJECTID":133905},"geometry":{"x":166822.70000000112,"y":2565569.6300000008}},{"attributes":{"ID":133906,"DIS_CODE":0,"TOWNNAME":"佳里區","LI":"興化里","LIN":"6鄰","STREET":" ","SECT":" ","MAREA":"佳里興","LANE":" ","ALLEY":" ","HOUSE_NO":"４３６號之３","E_COORD97":166806.82999999999,"N_COORD97":2565560.9500000002,"ADDRESS":"佳里興４３６號之３","OBJECTID":133906},"geometry":{"x":166806.83000000007,"y":2565560.9500000011}},{"attributes":{"ID":133907,"DIS_CODE":0,"TOWNNAME":"南區","LI":"南華里","LIN":"11鄰","STREET":"中華南路","SECT":"二段","MAREA":" ","LANE":"４００巷","ALLEY":"４弄","HOUSE_NO":"２３號五樓","E_COORD97":166507.56,"N_COORD97":2540388.0299999998,"ADDRESS":"中華南路二段４００巷４弄２３號五樓","OBJECTID":133907},"geometry":{"x":166507.56000000052,"y":2540388.0299999993}},{"attributes":{"ID":133908,"DIS_CODE":0,"TOWNNAME":"南區","LI":"南華里","LIN":"11鄰","STREET":"中華南路","SECT":"二段","MAREA":" ","LANE":"４００巷","ALLEY":"４弄","HOUSE_NO":"２３號四樓","E_COORD97":166507.56,"N_COORD97":2540388.0299999998,"ADDRESS":"中華南路二段４００巷４弄２３號四樓","OBJECTID":133908},"geometry":{"x":166507.56000000052,"y":2540388.0299999993}},{"attributes":{"ID":133909,"DIS_CODE":0,"TOWNNAME":"南區","LI":"南華里","LIN":"11鄰","STREET":"中華南路","SECT":"二段","MAREA":" ","LANE":"４００巷","ALLEY":"４弄","HOUSE_NO":"２５號二樓","E_COORD97":166525.82999999999,"N_COORD97":2540380.6600000001,"ADDRESS":"中華南路二段４００巷４弄２５號二樓","OBJECTID":133909},"geometry":{"x":166525.83000000007,"y":2540380.6600000001}},{"attributes":{"ID":133910,"DIS_CODE":0,"TOWNNAME":"佳里區","LI":"興化里","LIN":"6鄰","STREET":" ","SECT":" ","MAREA":"佳里興","LANE":" ","ALLEY":" ","HOUSE_NO":"４３６號","E_COORD97":166808.54999999999,"N_COORD97":2565553.5699999998,"ADDRESS":"佳里興４３６號","OBJECTID":133910},"geometry":{"x":166808.54999999981,"y":2565553.5700000022}},{"attributes":{"ID":133911,"DIS_CODE":0,"TOWNNAME":"佳里區","LI":"興化里","LIN":"6鄰","STREET":" ","SECT":" ","MAREA":"佳里興","LANE":" ","ALLEY":" ","HOUSE_NO":"４３７號","E_COORD97":166821.79000000001,"N_COORD97":2565589.3100000001,"ADDRESS":"佳里興４３７號","OBJECTID":133911},"geometry":{"x":166821.79000000097,"y":2565589.3100000024}},{"attributes":{"ID":133912,"DIS_CODE":0,"TOWNNAME":"佳里區","LI":"興化里","LIN":"6鄰","STREET":" ","SECT":" ","MAREA":"佳里興","LANE":" ","ALLEY":" ","HOUSE_NO":"４３８號","E_COORD97":166802.17999999999,"N_COORD97":2565581.04,"ADDRESS":"佳里興４３８號","OBJECTID":133912},"geometry":{"x":166802.18000000063,"y":2565581.0399999991}},{"attributes":{"ID":133913,"DIS_CODE":0,"TOWNNAME":"佳里區","LI":"興化里","LIN":"6鄰","STREET":" ","SECT":" ","MAREA":"佳里興","LANE":" ","ALLEY":" ","HOUSE_NO":"４３９號","E_COORD97":166809.72,"N_COORD97":2565604.5299999998,"ADDRESS":"佳里興４３９號","OBJECTID":133913},"geometry":{"x":166809.7200000016,"y":2565604.5300000012}},{"attributes":{"ID":133914,"DIS_CODE":0,"TOWNNAME":"佳里區","LI":"佳化里","LIN":"6鄰","STREET":" ","SECT":" ","MAREA":"佳里興","LANE":" ","ALLEY":" ","HOUSE_NO":"６１號之７","E_COORD97":167375.54000000001,"N_COORD97":2565252.7799999998,"ADDRESS":"佳里興６１號之７","OBJECTID":133914},"geometry":{"x":167375.53999999911,"y":2565252.7800000012}},{"attributes":{"ID":133915,"DIS_CODE":0,"TOWNNAME":"佳里區","LI":"佳化里","LIN":"6鄰","STREET":" ","SECT":" ","MAREA":"佳里興","LANE":" ","ALLEY":" ","HOUSE_NO":"６１號之８","E_COORD97":167376.09,"N_COORD97":2565257.48,"ADDRESS":"佳里興６１號之８","OBJECTID":133915},"geometry":{"x":167376.08999999985,"y":2565257.4800000004}},{"attributes":{"ID":133916,"DIS_CODE":0,"TOWNNAME":"佳里區","LI":"佳化里","LIN":"6鄰","STREET":" ","SECT":" ","MAREA":"佳里興","LANE":" ","ALLEY":" ","HOUSE_NO":"６１號之９","E_COORD97":167376.38,"N_COORD97":2565262.52,"ADDRESS":"佳里興６１號之９","OBJECTID":133916},"geometry":{"x":167376.37999999989,"y":2565262.5200000014}},{"attributes":{"ID":133917,"DIS_CODE":0,"TOWNNAME":"東山區","LI":"東正里","LIN":"21鄰","STREET":" ","SECT":" ","MAREA":"東勢","LANE":" ","ALLEY":" ","HOUSE_NO":"１４２號之６","E_COORD97":189415.51999999999,"N_COORD97":2580280.9399999999,"ADDRESS":"東勢１４２號之６","OBJECTID":133917},"geometry":{"x":189415.51999999955,"y":2580280.9400000032}},{"attributes":{"ID":133918,"DIS_CODE":0,"TOWNNAME":"東山區","LI":"東正里","LIN":"3鄰","STREET":" ","SECT":" ","MAREA":"東勢","LANE":" ","ALLEY":" ","HOUSE_NO":"１３號","E_COORD97":189390.82999999999,"N_COORD97":2580085.27,"ADDRESS":"東勢１３號","OBJECTID":133918},"geometry":{"x":189390.83000000194,"y":2580085.2700000033}},{"attributes":{"ID":133919,"DIS_CODE":0,"TOWNNAME":"東山區","LI":"東正里","LIN":"21鄰","STREET":" ","SECT":" ","MAREA":"東勢","LANE":" ","ALLEY":" ","HOUSE_NO":"１４９號","E_COORD97":189459.39000000001,"N_COORD97":2580330.0800000001,"ADDRESS":"東勢１４９號","OBJECTID":133919},"geometry":{"x":189459.38999999873,"y":2580330.0800000001}},{"attributes":{"ID":133920,"DIS_CODE":0,"TOWNNAME":"東山區","LI":"東正里","LIN":"23鄰","STREET":" ","SECT":" ","MAREA":"東勢","LANE":" ","ALLEY":" ","HOUSE_NO":"１６１號之１","E_COORD97":189400.14000000001,"N_COORD97":2580431.5,"ADDRESS":"東勢１６１號之１","OBJECTID":133920},"geometry":{"x":189400.14000000153,"y":2580431.5000000019}},{"attributes":{"ID":133921,"DIS_CODE":0,"TOWNNAME":"東山區","LI":"東正里","LIN":"23鄰","STREET":" ","SECT":" ","MAREA":"東勢","LANE":" ","ALLEY":" ","HOUSE_NO":"１６１號之２","E_COORD97":189380.82000000001,"N_COORD97":2580424.3999999999,"ADDRESS":"東勢１６１號之２","OBJECTID":133921},"geometry":{"x":189380.8200000003,"y":2580424.4000000041}},{"attributes":{"ID":133922,"DIS_CODE":0,"TOWNNAME":"東山區","LI":"東正里","LIN":"23鄰","STREET":" ","SECT":" ","MAREA":"東勢","LANE":" ","ALLEY":" ","HOUSE_NO":"１６１號","E_COORD97":189395.01999999999,"N_COORD97":2580427.7599999998,"ADDRESS":"東勢１６１號","OBJECTID":133922},"geometry":{"x":189395.01999999955,"y":2580427.7599999998}},{"attributes":{"ID":133923,"DIS_CODE":0,"TOWNNAME":"東山區","LI":"東正里","LIN":"23鄰","STREET":" ","SECT":" ","MAREA":"東勢","LANE":" ","ALLEY":" ","HOUSE_NO":"１６２號之１","E_COORD97":189419.17999999999,"N_COORD97":2580443.1099999999,"ADDRESS":"東勢１６２號之１","OBJECTID":133923},"geometry":{"x":189419.18000000063,"y":2580443.1100000013}},{"attributes":{"ID":133924,"DIS_CODE":0,"TOWNNAME":"東山區","LI":"東正里","LIN":"23鄰","STREET":" ","SECT":" ","MAREA":"東勢","LANE":" ","ALLEY":" ","HOUSE_NO":"１６２號","E_COORD97":189398.10999999999,"N_COORD97":2580446.5899999999,"ADDRESS":"東勢１６２號","OBJECTID":133924},"geometry":{"x":189398.11000000127,"y":2580446.5900000036}},{"attributes":{"ID":133925,"DIS_CODE":0,"TOWNNAME":"東山區","LI":"東正里","LIN":"23鄰","STREET":" ","SECT":" ","MAREA":"東勢","LANE":" ","ALLEY":" ","HOUSE_NO":"１６３號之１","E_COORD97":189404.12,"N_COORD97":2580480.9300000002,"ADDRESS":"東勢１６３號之１","OBJECTID":133925},"geometry":{"x":189404.12000000197,"y":2580480.9299999978}},{"attributes":{"ID":133926,"DIS_CODE":0,"TOWNNAME":"東山區","LI":"東正里","LIN":"4鄰","STREET":" ","SECT":" ","MAREA":"東勢","LANE":" ","ALLEY":" ","HOUSE_NO":"２２號之１","E_COORD97":189478.29999999999,"N_COORD97":2579982.0600000001,"ADDRESS":"東勢２２號之１","OBJECTID":133926},"geometry":{"x":189478.29999999981,"y":2579982.0600000005}},{"attributes":{"ID":133927,"DIS_CODE":0,"TOWNNAME":"東山區","LI":"東正里","LIN":"4鄰","STREET":" ","SECT":" ","MAREA":"東勢","LANE":" ","ALLEY":" ","HOUSE_NO":"２２號之２","E_COORD97":189487.72,"N_COORD97":2580049.79,"ADDRESS":"東勢２２號之２","OBJECTID":133927},"geometry":{"x":189487.71999999974,"y":2580049.7899999991}},{"attributes":{"ID":133928,"DIS_CODE":0,"TOWNNAME":"東山區","LI":"東正里","LIN":"4鄰","STREET":" ","SECT":" ","MAREA":"東勢","LANE":" ","ALLEY":" ","HOUSE_NO":"２２號之３","E_COORD97":189506.35000000001,"N_COORD97":2579994.04,"ADDRESS":"東勢２２號之３","OBJECTID":133928},"geometry":{"x":189506.35000000056,"y":2579994.0399999991}},{"attributes":{"ID":133929,"DIS_CODE":0,"TOWNNAME":"東山區","LI":"東正里","LIN":"4鄰","STREET":" ","SECT":" ","MAREA":"東勢","LANE":" ","ALLEY":" ","HOUSE_NO":"２２號之４","E_COORD97":189486.03,"N_COORD97":2580020.8700000001,"ADDRESS":"東勢２２號之４","OBJECTID":133929},"geometry":{"x":189486.03000000026,"y":2580020.870000001}},{"attributes":{"ID":133930,"DIS_CODE":0,"TOWNNAME":"東山區","LI":"東正里","LIN":"4鄰","STREET":" ","SECT":" ","MAREA":"東勢","LANE":" ","ALLEY":" ","HOUSE_NO":"２２號之５","E_COORD97":189501.14000000001,"N_COORD97":2579970.27,"ADDRESS":"東勢２２號之５","OBJECTID":133930},"geometry":{"x":189501.13999999966,"y":2579970.2700000033}},{"attributes":{"ID":133931,"DIS_CODE":0,"TOWNNAME":"東山區","LI":"東正里","LIN":"4鄰","STREET":" ","SECT":" ","MAREA":"東勢","LANE":" ","ALLEY":" ","HOUSE_NO":"２２號之６","E_COORD97":189475.72,"N_COORD97":2579995.3799999999,"ADDRESS":"東勢２２號之６","OBJECTID":133931},"geometry":{"x":189475.71999999974,"y":2579995.379999999}},{"attributes":{"ID":133932,"DIS_CODE":0,"TOWNNAME":"東山區","LI":"東正里","LIN":"4鄰","STREET":" ","SECT":" ","MAREA":"東勢","LANE":" ","ALLEY":" ","HOUSE_NO":"２２號","E_COORD97":189485.70000000001,"N_COORD97":2580054.1400000001,"ADDRESS":"東勢２２號","OBJECTID":133932},"geometry":{"x":189485.70000000112,"y":2580054.1400000025}},{"attributes":{"ID":133933,"DIS_CODE":0,"TOWNNAME":"東山區","LI":"東正里","LIN":"4鄰","STREET":" ","SECT":" ","MAREA":"東勢","LANE":" ","ALLEY":" ","HOUSE_NO":"２３號","E_COORD97":189479.13,"N_COORD97":2580086.1899999999,"ADDRESS":"東勢２３號","OBJECTID":133933},"geometry":{"x":189479.13000000082,"y":2580086.1900000013}},{"attributes":{"ID":133934,"DIS_CODE":0,"TOWNNAME":"東山區","LI":"東正里","LIN":"4鄰","STREET":" ","SECT":" ","MAREA":"東勢","LANE":" ","ALLEY":" ","HOUSE_NO":"２４號","E_COORD97":189489.17000000001,"N_COORD97":2580091.6899999999,"ADDRESS":"東勢２４號","OBJECTID":133934},"geometry":{"x":189489.17000000086,"y":2580091.6899999995}},{"attributes":{"ID":133935,"DIS_CODE":0,"TOWNNAME":"東山區","LI":"東正里","LIN":"4鄰","STREET":" ","SECT":" ","MAREA":"東勢","LANE":" ","ALLEY":" ","HOUSE_NO":"２５號","E_COORD97":189477,"N_COORD97":2580115.2000000002,"ADDRESS":"東勢２５號","OBJECTID":133935},"geometry":{"x":189477,"y":2580115.1999999993}},{"attributes":{"ID":133936,"DIS_CODE":0,"TOWNNAME":"東山區","LI":"東正里","LIN":"4鄰","STREET":" ","SECT":" ","MAREA":"東勢","LANE":" ","ALLEY":" ","HOUSE_NO":"２６號","E_COORD97":189501.16,"N_COORD97":2580114.8399999999,"ADDRESS":"東勢２６號","OBJECTID":133936},"geometry":{"x":189501.16000000108,"y":2580114.8399999999}},{"attributes":{"ID":133937,"DIS_CODE":0,"TOWNNAME":"東山區","LI":"東正里","LIN":"4鄰","STREET":" ","SECT":" ","MAREA":"東勢","LANE":" ","ALLEY":" ","HOUSE_NO":"２７號之１","E_COORD97":189672.45999999999,"N_COORD97":2580081.4300000002,"ADDRESS":"東勢２７號之１","OBJECTID":133937},"geometry":{"x":189672.45999999996,"y":2580081.4300000016}},{"attributes":{"ID":133938,"DIS_CODE":0,"TOWNNAME":"東山區","LI":"東正里","LIN":"4鄰","STREET":" ","SECT":" ","MAREA":"東勢","LANE":" ","ALLEY":" ","HOUSE_NO":"２７號之２","E_COORD97":189707.26999999999,"N_COORD97":2580065.8799999999,"ADDRESS":"東勢２７號之２","OBJECTID":133938},"geometry":{"x":189707.26999999955,"y":2580065.879999999}},{"attributes":{"ID":133939,"DIS_CODE":0,"TOWNNAME":"東山區","LI":"東正里","LIN":"4鄰","STREET":" ","SECT":" ","MAREA":"東勢","LANE":" ","ALLEY":" ","HOUSE_NO":"２７號之３","E_COORD97":189704.20000000001,"N_COORD97":2579973.1899999999,"ADDRESS":"東勢２７號之３","OBJECTID":133939},"geometry":{"x":189704.20000000112,"y":2579973.1899999995}},{"attributes":{"ID":133940,"DIS_CODE":0,"TOWNNAME":"東山區","LI":"東正里","LIN":"4鄰","STREET":" ","SECT":" ","MAREA":"東勢","LANE":" ","ALLEY":" ","HOUSE_NO":"２７號之４","E_COORD97":189719.66,"N_COORD97":2580048.3999999999,"ADDRESS":"東勢２７號之４","OBJECTID":133940},"geometry":{"x":189719.66000000108,"y":2580048.4000000022}},{"attributes":{"ID":133941,"DIS_CODE":0,"TOWNNAME":"東山區","LI":"東正里","LIN":"4鄰","STREET":" ","SECT":" ","MAREA":"東勢","LANE":" ","ALLEY":" ","HOUSE_NO":"２７號之５","E_COORD97":189682.95000000001,"N_COORD97":2579854.8999999999,"ADDRESS":"東勢２７號之５","OBJECTID":133941},"geometry":{"x":189682.95000000019,"y":2579854.9000000041}},{"attributes":{"ID":133942,"DIS_CODE":0,"TOWNNAME":"東山區","LI":"東正里","LIN":"4鄰","STREET":" ","SECT":" ","MAREA":"東勢","LANE":" ","ALLEY":" ","HOUSE_NO":"２７號之６","E_COORD97":189732.17999999999,"N_COORD97":2580039.2000000002,"ADDRESS":"東勢２７號之６","OBJECTID":133942},"geometry":{"x":189732.18000000156,"y":2580039.2000000011}},{"attributes":{"ID":133943,"DIS_CODE":0,"TOWNNAME":"東山區","LI":"東正里","LIN":"4鄰","STREET":" ","SECT":" ","MAREA":"東勢","LANE":" ","ALLEY":" ","HOUSE_NO":"２７號","E_COORD97":189501.59,"N_COORD97":2580087.8500000001,"ADDRESS":"東勢２７號","OBJECTID":133943},"geometry":{"x":189501.58999999985,"y":2580087.8499999996}},{"attributes":{"ID":133944,"DIS_CODE":0,"TOWNNAME":"東山區","LI":"東正里","LIN":"4鄰","STREET":" ","SECT":" ","MAREA":"東勢","LANE":" ","ALLEY":" ","HOUSE_NO":"２８號之１","E_COORD97":189531.63,"N_COORD97":2580094.52,"ADDRESS":"東勢２８號之１","OBJECTID":133944},"geometry":{"x":189531.63000000082,"y":2580094.5200000014}},{"attributes":{"ID":133945,"DIS_CODE":0,"TOWNNAME":"東山區","LI":"東正里","LIN":"4鄰","STREET":" ","SECT":" ","MAREA":"東勢","LANE":" ","ALLEY":" ","HOUSE_NO":"２８號之２","E_COORD97":189516.60000000001,"N_COORD97":2580082.7599999998,"ADDRESS":"東勢２８號之２","OBJECTID":133945},"geometry":{"x":189516.59999999963,"y":2580082.7600000016}},{"attributes":{"ID":133946,"DIS_CODE":0,"TOWNNAME":"東山區","LI":"東正里","LIN":"4鄰","STREET":" ","SECT":" ","MAREA":"東勢","LANE":" ","ALLEY":" ","HOUSE_NO":"２８號","E_COORD97":189527.97,"N_COORD97":2580117.8199999998,"ADDRESS":"東勢２８號","OBJECTID":133946},"geometry":{"x":189527.96999999974,"y":2580117.8200000022}},{"attributes":{"ID":133947,"DIS_CODE":0,"TOWNNAME":"南區","LI":"南華里","LIN":"11鄰","STREET":"中華南路","SECT":"二段","MAREA":" ","LANE":"４００巷","ALLEY":"４弄","HOUSE_NO":"２５號三樓","E_COORD97":166525.82999999999,"N_COORD97":2540380.6600000001,"ADDRESS":"中華南路二段４００巷４弄２５號三樓","OBJECTID":133947},"geometry":{"x":166525.83000000007,"y":2540380.6600000001}},{"attributes":{"ID":133948,"DIS_CODE":0,"TOWNNAME":"下營區","LI":"仁里里","LIN":"6鄰","STREET":"仁里街","SECT":" ","MAREA":" ","LANE":" ","ALLEY":" ","HOUSE_NO":"１０６號","E_COORD97":174240.79999999999,"N_COORD97":2570046.1600000001,"ADDRESS":"仁里街１０６號","OBJECTID":133948},"geometry":{"x":174240.80000000168,"y":2570046.160000002}},{"attributes":{"ID":133949,"DIS_CODE":0,"TOWNNAME":"下營區","LI":"仁里里","LIN":"6鄰","STREET":"仁里街","SECT":" ","MAREA":" ","LANE":" ","ALLEY":" ","HOUSE_NO":"１１６號","E_COORD97":174236.48000000001,"N_COORD97":2570006.1600000001,"ADDRESS":"仁里街１１６號","OBJECTID":133949},"geometry":{"x":174236.48000000045,"y":2570006.1600000001}},{"attributes":{"ID":133950,"DIS_CODE":0,"TOWNNAME":"下營區","LI":"仁里里","LIN":"6鄰","STREET":"仁里街","SECT":" ","MAREA":" ","LANE":" ","ALLEY":" ","HOUSE_NO":"１１８號","E_COORD97":174222.72,"N_COORD97":2569998.1000000001,"ADDRESS":"仁里街１１８號","OBJECTID":133950},"geometry":{"x":174222.7200000016,"y":2569998.1000000015}},{"attributes":{"ID":133951,"DIS_CODE":0,"TOWNNAME":"下營區","LI":"仁里里","LIN":"6鄰","STREET":"仁興街","SECT":" ","MAREA":" ","LANE":" ","ALLEY":" ","HOUSE_NO":"２１號","E_COORD97":174174.51999999999,"N_COORD97":2570108.73,"ADDRESS":"仁興街２１號","OBJECTID":133951},"geometry":{"x":174174.51999999955,"y":2570108.7300000042}},{"attributes":{"ID":133952,"DIS_CODE":0,"TOWNNAME":"下營區","LI":"仁里里","LIN":"6鄰","STREET":"仁興街","SECT":" ","MAREA":" ","LANE":" ","ALLEY":" ","HOUSE_NO":"２７號","E_COORD97":174161.23999999999,"N_COORD97":2570109.1800000002,"ADDRESS":"仁興街２７號","OBJECTID":133952},"geometry":{"x":174161.24000000022,"y":2570109.1800000016}},{"attributes":{"ID":133953,"DIS_CODE":0,"TOWNNAME":"南區","LI":"南華里","LIN":"11鄰","STREET":"中華南路","SECT":"二段","MAREA":" ","LANE":"４００巷","ALLEY":"４弄","HOUSE_NO":"２５號五樓","E_COORD97":166525.82999999999,"N_COORD97":2540380.6600000001,"ADDRESS":"中華南路二段４００巷４弄２５號五樓","OBJECTID":133953},"geometry":{"x":166525.83000000007,"y":2540380.6600000001}},{"attributes":{"ID":133954,"DIS_CODE":0,"TOWNNAME":"下營區","LI":"仁里里","LIN":"6鄰","STREET":"仁興街","SECT":" ","MAREA":" ","LANE":" ","ALLEY":" ","HOUSE_NO":"３１號","E_COORD97":174152.97,"N_COORD97":2570114.25,"ADDRESS":"仁興街３１號","OBJECTID":133954},"geometry":{"x":174152.96999999974,"y":2570114.25}},{"attributes":{"ID":133955,"DIS_CODE":0,"TOWNNAME":"南區","LI":"南華里","LIN":"11鄰","STREET":"中華南路","SECT":"二段","MAREA":" ","LANE":"４００巷","ALLEY":"４弄","HOUSE_NO":"２５號四樓","E_COORD97":166525.82999999999,"N_COORD97":2540380.6600000001,"ADDRESS":"中華南路二段４００巷４弄２５號四樓","OBJECTID":133955},"geometry":{"x":166525.83000000007,"y":2540380.6600000001}},{"attributes":{"ID":133956,"DIS_CODE":0,"TOWNNAME":"南區","LI":"南華里","LIN":"11鄰","STREET":"中華南路","SECT":"二段","MAREA":" ","LANE":"４００巷","ALLEY":"４弄","HOUSE_NO":"２７號二樓","E_COORD97":166539.42000000001,"N_COORD97":2540380.6600000001,"ADDRESS":"中華南路二段４００巷４弄２７號二樓","OBJECTID":133956},"geometry":{"x":166539.42000000086,"y":2540380.6600000001}},{"attributes":{"ID":133957,"DIS_CODE":0,"TOWNNAME":"南區","LI":"南華里","LIN":"11鄰","STREET":"中華南路","SECT":"二段","MAREA":" ","LANE":"４００巷","ALLEY":"４弄","HOUSE_NO":"２７號三樓","E_COORD97":166539.42000000001,"N_COORD97":2540380.6600000001,"ADDRESS":"中華南路二段４００巷４弄２７號三樓","OBJECTID":133957},"geometry":{"x":166539.42000000086,"y":2540380.6600000001}},{"attributes":{"ID":133958,"DIS_CODE":0,"TOWNNAME":"南區","LI":"南華里","LIN":"11鄰","STREET":"中華南路","SECT":"二段","MAREA":" ","LANE":"４００巷","ALLEY":"４弄","HOUSE_NO":"２７號五樓","E_COORD97":166539.42000000001,"N_COORD97":2540380.6600000001,"ADDRESS":"中華南路二段４００巷４弄２７號五樓","OBJECTID":133958},"geometry":{"x":166539.42000000086,"y":2540380.6600000001}},{"attributes":{"ID":133959,"DIS_CODE":0,"TOWNNAME":"南區","LI":"南華里","LIN":"11鄰","STREET":"中華南路","SECT":"二段","MAREA":" ","LANE":"４００巷","ALLEY":"４弄","HOUSE_NO":"２７號四樓","E_COORD97":166539.42000000001,"N_COORD97":2540380.6600000001,"ADDRESS":"中華南路二段４００巷４弄２７號四樓","OBJECTID":133959},"geometry":{"x":166539.42000000086,"y":2540380.6600000001}},{"attributes":{"ID":133960,"DIS_CODE":0,"TOWNNAME":"南區","LI":"南華里","LIN":"11鄰","STREET":"中華南路","SECT":"二段","MAREA":" ","LANE":"４００巷","ALLEY":"４弄","HOUSE_NO":"２９號二樓","E_COORD97":166525.95000000001,"N_COORD97":2540387.6800000002,"ADDRESS":"中華南路二段４００巷４弄２９號二樓","OBJECTID":133960},"geometry":{"x":166525.95000000112,"y":2540387.6799999997}},{"attributes":{"ID":133961,"DIS_CODE":0,"TOWNNAME":"東山區","LI":"東正里","LIN":"4鄰","STREET":" ","SECT":" ","MAREA":"東勢","LANE":" ","ALLEY":" ","HOUSE_NO":"２９號之１","E_COORD97":189541.45999999999,"N_COORD97":2580136.4100000001,"ADDRESS":"東勢２９號之１","OBJECTID":133961},"geometry":{"x":189541.46000000089,"y":2580136.410000002}},{"attributes":{"ID":133962,"DIS_CODE":0,"TOWNNAME":"東山區","LI":"東正里","LIN":"4鄰","STREET":" ","SECT":" ","MAREA":"東勢","LANE":" ","ALLEY":" ","HOUSE_NO":"２９號之２","E_COORD97":189564.20999999999,"N_COORD97":2580114.98,"ADDRESS":"東勢２９號之２","OBJECTID":133962},"geometry":{"x":189564.20999999996,"y":2580114.9800000004}},{"attributes":{"ID":133963,"DIS_CODE":0,"TOWNNAME":"東山區","LI":"東正里","LIN":"4鄰","STREET":" ","SECT":" ","MAREA":"東勢","LANE":" ","ALLEY":" ","HOUSE_NO":"２９號之３","E_COORD97":189565.14999999999,"N_COORD97":2580119.8199999998,"ADDRESS":"東勢２９號之３","OBJECTID":133963},"geometry":{"x":189565.14999999944,"y":2580119.820000004}},{"attributes":{"ID":133964,"DIS_CODE":0,"TOWNNAME":"東山區","LI":"東正里","LIN":"4鄰","STREET":" ","SECT":" ","MAREA":"東勢","LANE":" ","ALLEY":" ","HOUSE_NO":"２９之５號","E_COORD97":189569.54999999999,"N_COORD97":2580104.5499999998,"ADDRESS":"東勢２９之５號","OBJECTID":133964},"geometry":{"x":189569.55000000075,"y":2580104.5500000007}},{"attributes":{"ID":133965,"DIS_CODE":0,"TOWNNAME":"東山區","LI":"東正里","LIN":"4鄰","STREET":" ","SECT":" ","MAREA":"東勢","LANE":" ","ALLEY":" ","HOUSE_NO":"２９號","E_COORD97":189540.29000000001,"N_COORD97":2580127.98,"ADDRESS":"東勢２９號","OBJECTID":133965},"geometry":{"x":189540.2900000019,"y":2580127.9800000004}},{"attributes":{"ID":133966,"DIS_CODE":0,"TOWNNAME":"南區","LI":"南華里","LIN":"11鄰","STREET":"中華南路","SECT":"二段","MAREA":" ","LANE":"４００巷","ALLEY":"４弄","HOUSE_NO":"２９號三樓","E_COORD97":166525.95000000001,"N_COORD97":2540387.6800000002,"ADDRESS":"中華南路二段４００巷４弄２９號三樓","OBJECTID":133966},"geometry":{"x":166525.95000000112,"y":2540387.6799999997}},{"attributes":{"ID":133967,"DIS_CODE":0,"TOWNNAME":"南區","LI":"南華里","LIN":"11鄰","STREET":"中華南路","SECT":"二段","MAREA":" ","LANE":"４００巷","ALLEY":"４弄","HOUSE_NO":"２９號五樓","E_COORD97":166525.95000000001,"N_COORD97":2540387.6800000002,"ADDRESS":"中華南路二段４００巷４弄２９號五樓","OBJECTID":133967},"geometry":{"x":166525.95000000112,"y":2540387.6799999997}},{"attributes":{"ID":133968,"DIS_CODE":0,"TOWNNAME":"南區","LI":"南華里","LIN":"11鄰","STREET":"中華南路","SECT":"二段","MAREA":" ","LANE":"４００巷","ALLEY":"４弄","HOUSE_NO":"２９號四樓","E_COORD97":166525.95000000001,"N_COORD97":2540387.6800000002,"ADDRESS":"中華南路二段４００巷４弄２９號四樓","OBJECTID":133968},"geometry":{"x":166525.95000000112,"y":2540387.6799999997}},{"attributes":{"ID":133969,"DIS_CODE":0,"TOWNNAME":"南區","LI":"南華里","LIN":"11鄰","STREET":"中華南路","SECT":"二段","MAREA":" ","LANE":"４００巷","ALLEY":"４弄","HOUSE_NO":"３１號二樓","E_COORD97":166539.42000000001,"N_COORD97":2540387.4500000002,"ADDRESS":"中華南路二段４００巷４弄３１號二樓","OBJECTID":133969},"geometry":{"x":166539.42000000086,"y":2540387.4500000011}},{"attributes":{"ID":133970,"DIS_CODE":0,"TOWNNAME":"南區","LI":"南華里","LIN":"11鄰","STREET":"中華南路","SECT":"二段","MAREA":" ","LANE":"４００巷","ALLEY":"４弄","HOUSE_NO":"３１號三樓","E_COORD97":166539.42000000001,"N_COORD97":2540387.4500000002,"ADDRESS":"中華南路二段４００巷４弄３１號三樓","OBJECTID":133970},"geometry":{"x":166539.42000000086,"y":2540387.4500000011}},{"attributes":{"ID":133971,"DIS_CODE":0,"TOWNNAME":"南區","LI":"南華里","LIN":"11鄰","STREET":"中華南路","SECT":"二段","MAREA":" ","LANE":"４００巷","ALLEY":"４弄","HOUSE_NO":"３１號五樓","E_COORD97":166539.42000000001,"N_COORD97":2540387.4500000002,"ADDRESS":"中華南路二段４００巷４弄３１號五樓","OBJECTID":133971},"geometry":{"x":166539.42000000086,"y":2540387.4500000011}},{"attributes":{"ID":133972,"DIS_CODE":0,"TOWNNAME":"下營區","LI":"仁里里","LIN":"6鄰","STREET":"仁興街","SECT":" ","MAREA":" ","LANE":" ","ALLEY":" ","HOUSE_NO":"３號","E_COORD97":174225.41,"N_COORD97":2570086.96,"ADDRESS":"仁興街３號","OBJECTID":133972},"geometry":{"x":174225.41000000108,"y":2570086.9600000009}},{"attributes":{"ID":133973,"DIS_CODE":0,"TOWNNAME":"東山區","LI":"東正里","LIN":"4鄰","STREET":" ","SECT":" ","MAREA":"東勢","LANE":" ","ALLEY":" ","HOUSE_NO":"３０號之１","E_COORD97":189553.10000000001,"N_COORD97":2580163.8599999999,"ADDRESS":"東勢３０號之１","OBJECTID":133973},"geometry":{"x":189553.10000000149,"y":2580163.8600000013}},{"attributes":{"ID":133974,"DIS_CODE":0,"TOWNNAME":"東山區","LI":"東正里","LIN":"4鄰","STREET":" ","SECT":" ","MAREA":"東勢","LANE":" ","ALLEY":" ","HOUSE_NO":"３０號之２","E_COORD97":189552.17999999999,"N_COORD97":2580158.98,"ADDRESS":"東勢３０號之２","OBJECTID":133974},"geometry":{"x":189552.1799999997,"y":2580158.9800000004}},{"attributes":{"ID":133975,"DIS_CODE":0,"TOWNNAME":"東山區","LI":"東正里","LIN":"4鄰","STREET":" ","SECT":" ","MAREA":"東勢","LANE":" ","ALLEY":" ","HOUSE_NO":"３０號","E_COORD97":189545.06,"N_COORD97":2580144.79,"ADDRESS":"東勢３０號","OBJECTID":133975},"geometry":{"x":189545.06000000052,"y":2580144.7899999991}},{"attributes":{"ID":133976,"DIS_CODE":0,"TOWNNAME":"東山區","LI":"東正里","LIN":"4鄰","STREET":" ","SECT":" ","MAREA":"東勢","LANE":" ","ALLEY":" ","HOUSE_NO":"３１號之３","E_COORD97":189525.26000000001,"N_COORD97":2580167.6200000001,"ADDRESS":"東勢３１號之３","OBJECTID":133976},"geometry":{"x":189525.26000000071,"y":2580167.6200000029}},{"attributes":{"ID":133977,"DIS_CODE":0,"TOWNNAME":"東山區","LI":"東正里","LIN":"4鄰","STREET":" ","SECT":" ","MAREA":"東勢","LANE":" ","ALLEY":" ","HOUSE_NO":"３１號","E_COORD97":189515.35999999999,"N_COORD97":2580169.25,"ADDRESS":"東勢３１號","OBJECTID":133977},"geometry":{"x":189515.36000000127,"y":2580169.25}},{"attributes":{"ID":133978,"DIS_CODE":0,"TOWNNAME":"南區","LI":"南華里","LIN":"11鄰","STREET":"中華南路","SECT":"二段","MAREA":" ","LANE":"４００巷","ALLEY":"４弄","HOUSE_NO":"３１號四樓","E_COORD97":166539.42000000001,"N_COORD97":2540387.4500000002,"ADDRESS":"中華南路二段４００巷４弄３１號四樓","OBJECTID":133978},"geometry":{"x":166539.42000000086,"y":2540387.4500000011}},{"attributes":{"ID":133979,"DIS_CODE":0,"TOWNNAME":"安平區","LI":"平安里","LIN":"11鄰","STREET":"安平路","SECT":" ","MAREA":" ","LANE":"５００巷","ALLEY":"１７弄","HOUSE_NO":"３號一樓之１","E_COORD97":165125.79999999999,"N_COORD97":2544388.2599999998,"ADDRESS":"安平路５００巷１７弄３號一樓之１","OBJECTID":133979},"geometry":{"x":165125.80000000168,"y":2544388.2599999979}},{"attributes":{"ID":133980,"DIS_CODE":0,"TOWNNAME":"安平區","LI":"平安里","LIN":"11鄰","STREET":"安平路","SECT":" ","MAREA":" ","LANE":"５００巷","ALLEY":"１７弄","HOUSE_NO":"３號一樓之２","E_COORD97":165125.79999999999,"N_COORD97":2544388.2599999998,"ADDRESS":"安平路５００巷１７弄３號一樓之２","OBJECTID":133980},"geometry":{"x":165125.80000000168,"y":2544388.2599999979}},{"attributes":{"ID":133981,"DIS_CODE":0,"TOWNNAME":"安平區","LI":"平安里","LIN":"11鄰","STREET":"安平路","SECT":" ","MAREA":" ","LANE":"５００巷","ALLEY":"１７弄","HOUSE_NO":"３號七樓之１","E_COORD97":165125.79999999999,"N_COORD97":2544388.2599999998,"ADDRESS":"安平路５００巷１７弄３號七樓之１","OBJECTID":133981},"geometry":{"x":165125.80000000168,"y":2544388.2599999979}},{"attributes":{"ID":133982,"DIS_CODE":0,"TOWNNAME":"安定區","LI":"六嘉里","LIN":"1鄰","STREET":" ","SECT":" ","MAREA":"六塊寮","LANE":" ","ALLEY":" ","HOUSE_NO":"８號","E_COORD97":170453.76999999999,"N_COORD97":2553609.27,"ADDRESS":"六塊寮８號","OBJECTID":133982},"geometry":{"x":170453.77000000142,"y":2553609.2699999996}},{"attributes":{"ID":133983,"DIS_CODE":0,"TOWNNAME":"安平區","LI":"平安里","LIN":"11鄰","STREET":"安平路","SECT":" ","MAREA":" ","LANE":"５００巷","ALLEY":"１７弄","HOUSE_NO":"３號七樓之２","E_COORD97":165125.79999999999,"N_COORD97":2544388.2599999998,"ADDRESS":"安平路５００巷１７弄３號七樓之２","OBJECTID":133983},"geometry":{"x":165125.80000000168,"y":2544388.2599999979}},{"attributes":{"ID":133984,"DIS_CODE":0,"TOWNNAME":"安平區","LI":"平安里","LIN":"11鄰","STREET":"安平路","SECT":" ","MAREA":" ","LANE":"５００巷","ALLEY":"１７弄","HOUSE_NO":"３號七樓之３","E_COORD97":165125.79999999999,"N_COORD97":2544388.2599999998,"ADDRESS":"安平路５００巷１７弄３號七樓之３","OBJECTID":133984},"geometry":{"x":165125.80000000168,"y":2544388.2599999979}},{"attributes":{"ID":133985,"DIS_CODE":0,"TOWNNAME":"安平區","LI":"平安里","LIN":"11鄰","STREET":"安平路","SECT":" ","MAREA":" ","LANE":"５００巷","ALLEY":"１７弄","HOUSE_NO":"３號二樓之１","E_COORD97":165125.79999999999,"N_COORD97":2544388.2599999998,"ADDRESS":"安平路５００巷１７弄３號二樓之１","OBJECTID":133985},"geometry":{"x":165125.80000000168,"y":2544388.2599999979}},{"attributes":{"ID":133986,"DIS_CODE":0,"TOWNNAME":"安平區","LI":"平安里","LIN":"11鄰","STREET":"安平路","SECT":" ","MAREA":" ","LANE":"５００巷","ALLEY":"１７弄","HOUSE_NO":"３號二樓之２","E_COORD97":165125.79999999999,"N_COORD97":2544388.2599999998,"ADDRESS":"安平路５００巷１７弄３號二樓之２","OBJECTID":133986},"geometry":{"x":165125.80000000168,"y":2544388.2599999979}},{"attributes":{"ID":133987,"DIS_CODE":0,"TOWNNAME":"東山區","LI":"東正里","LIN":"7鄰","STREET":" ","SECT":" ","MAREA":"東勢","LANE":" ","ALLEY":" ","HOUSE_NO":"３８號之１","E_COORD97":189488.91,"N_COORD97":2580176.46,"ADDRESS":"東勢３８號之１","OBJECTID":133987},"geometry":{"x":189488.91000000108,"y":2580176.4600000009}},{"attributes":{"ID":133988,"DIS_CODE":0,"TOWNNAME":"東山區","LI":"東正里","LIN":"7鄰","STREET":" ","SECT":" ","MAREA":"東勢","LANE":" ","ALLEY":" ","HOUSE_NO":"３８號之２","E_COORD97":189488.42999999999,"N_COORD97":2580181.1299999999,"ADDRESS":"東勢３８號之２","OBJECTID":133988},"geometry":{"x":189488.43000000063,"y":2580181.1300000008}},{"attributes":{"ID":133989,"DIS_CODE":0,"TOWNNAME":"東山區","LI":"東正里","LIN":"7鄰","STREET":" ","SECT":" ","MAREA":"東勢","LANE":" ","ALLEY":" ","HOUSE_NO":"３８號","E_COORD97":189491.89999999999,"N_COORD97":2580169.7799999998,"ADDRESS":"東勢３８號","OBJECTID":133989},"geometry":{"x":189491.90000000037,"y":2580169.7800000031}},{"attributes":{"ID":133990,"DIS_CODE":0,"TOWNNAME":"東山區","LI":"東正里","LIN":"7鄰","STREET":" ","SECT":" ","MAREA":"東勢","LANE":" ","ALLEY":" ","HOUSE_NO":"３９號","E_COORD97":189502.35000000001,"N_COORD97":2580143.75,"ADDRESS":"東勢３９號","OBJECTID":133990},"geometry":{"x":189502.35000000056,"y":2580143.7500000037}},{"attributes":{"ID":133991,"DIS_CODE":0,"TOWNNAME":"東山區","LI":"東正里","LIN":"7鄰","STREET":" ","SECT":" ","MAREA":"東勢","LANE":" ","ALLEY":" ","HOUSE_NO":"４２號之１","E_COORD97":189479.59,"N_COORD97":2580152.2599999998,"ADDRESS":"東勢４２號之１","OBJECTID":133991},"geometry":{"x":189479.58999999985,"y":2580152.2599999998}},{"attributes":{"ID":133992,"DIS_CODE":0,"TOWNNAME":"東山區","LI":"東正里","LIN":"7鄰","STREET":" ","SECT":" ","MAREA":"東勢","LANE":" ","ALLEY":" ","HOUSE_NO":"４２號之２","E_COORD97":189478.94,"N_COORD97":2580136.9399999999,"ADDRESS":"東勢４２號之２","OBJECTID":133992},"geometry":{"x":189478.94000000134,"y":2580136.9399999995}},{"attributes":{"ID":133993,"DIS_CODE":0,"TOWNNAME":"東山區","LI":"東正里","LIN":"7鄰","STREET":" ","SECT":" ","MAREA":"東勢","LANE":" ","ALLEY":" ","HOUSE_NO":"４２號之３","E_COORD97":189480.17999999999,"N_COORD97":2580141.46,"ADDRESS":"東勢４２號之３","OBJECTID":133993},"geometry":{"x":189480.18000000063,"y":2580141.4600000028}},{"attributes":{"ID":133994,"DIS_CODE":0,"TOWNNAME":"東山區","LI":"東正里","LIN":"7鄰","STREET":" ","SECT":" ","MAREA":"東勢","LANE":" ","ALLEY":" ","HOUSE_NO":"４２號之４","E_COORD97":189478.48000000001,"N_COORD97":2580147.4900000002,"ADDRESS":"東勢４２號之４","OBJECTID":133994},"geometry":{"x":189478.48000000231,"y":2580147.4900000002}},{"attributes":{"ID":133995,"DIS_CODE":0,"TOWNNAME":"東山區","LI":"東正里","LIN":"7鄰","STREET":" ","SECT":" ","MAREA":"東勢","LANE":" ","ALLEY":" ","HOUSE_NO":"４３號之１","E_COORD97":189461.31,"N_COORD97":2580172.2599999998,"ADDRESS":"東勢４３號之１","OBJECTID":133995},"geometry":{"x":189461.30999999959,"y":2580172.2599999998}},{"attributes":{"ID":133996,"DIS_CODE":0,"TOWNNAME":"東山區","LI":"東正里","LIN":"7鄰","STREET":" ","SECT":" ","MAREA":"東勢","LANE":" ","ALLEY":" ","HOUSE_NO":"４３號之２","E_COORD97":189462.70999999999,"N_COORD97":2580176.8999999999,"ADDRESS":"東勢４３號之２","OBJECTID":133996},"geometry":{"x":189462.71000000183,"y":2580176.9000000041}},{"attributes":{"ID":133997,"DIS_CODE":0,"TOWNNAME":"東山區","LI":"東正里","LIN":"1鄰","STREET":" ","SECT":" ","MAREA":"東勢","LANE":" ","ALLEY":" ","HOUSE_NO":"２號之１","E_COORD97":189150.60999999999,"N_COORD97":2579955.0800000001,"ADDRESS":"東勢２號之１","OBJECTID":133997},"geometry":{"x":189150.61000000127,"y":2579955.0800000038}},{"attributes":{"ID":133998,"DIS_CODE":0,"TOWNNAME":"東山區","LI":"東正里","LIN":"1鄰","STREET":" ","SECT":" ","MAREA":"東勢","LANE":" ","ALLEY":" ","HOUSE_NO":"２號之２","E_COORD97":189150.14000000001,"N_COORD97":2579951,"ADDRESS":"東勢２號之２","OBJECTID":133998},"geometry":{"x":189150.13999999966,"y":2579951}},{"attributes":{"ID":133999,"DIS_CODE":0,"TOWNNAME":"東山區","LI":"林安里","LIN":"4鄰","STREET":" ","SECT":" ","MAREA":"林安","LANE":" ","ALLEY":" ","HOUSE_NO":"２３號","E_COORD97":192191.20999999999,"N_COORD97":2575010.1800000002,"ADDRESS":"林安２３號","OBJECTID":133999},"geometry":{"x":192191.20999999996,"y":2575010.1799999997}},{"attributes":{"ID":134000,"DIS_CODE":0,"TOWNNAME":"東山區","LI":"林安里","LIN":"4鄰","STREET":" ","SECT":" ","MAREA":"林安","LANE":" ","ALLEY":" ","HOUSE_NO":"２８號之１","E_COORD97":192112.98000000001,"N_COORD97":2575117.8399999999,"ADDRESS":"林安２８號之１","OBJECTID":134000},"geometry":{"x":192112.98000000138,"y":2575117.8399999999}}]}