{"displayFieldName":"TOWNNAME","fieldAliases":{"ID":"ID","DIS_CODE":"DIS_CODE","TOWNNAME":"TOWNNAME","LI":"LI","LIN":"LIN","STREET":"STREET","SECT":"SECT","MAREA":"MAREA","LANE":"LANE","ALLEY":"ALLEY","HOUSE_NO":"HOUSE_NO","E_COORD97":"E_COORD97","N_COORD97":"N_COORD97","ADDRESS":"ADDRESS","OBJECTID":"OBJECTID"},"geometryType":"esriGeometryPoint","spatialReference":{"wkid":102443,"latestWkid":3826},"fields":[{"name":"ID","type":"esriFieldTypeDouble","alias":"ID"},{"name":"DIS_CODE","type":"esriFieldTypeInteger","alias":"DIS_CODE"},{"name":"TOWNNAME","type":"esriFieldTypeString","alias":"TOWNNAME","length":8},{"name":"LI","type":"esriFieldTypeString","alias":"LI","length":8},{"name":"LIN","type":"esriFieldTypeString","alias":"LIN","length":12},{"name":"STREET","type":"esriFieldTypeString","alias":"STREET","length":20},{"name":"SECT","type":"esriFieldTypeString","alias":"SECT","length":8},{"name":"MAREA","type":"esriFieldTypeString","alias":"MAREA","length":12},{"name":"LANE","type":"esriFieldTypeString","alias":"LANE","length":10},{"name":"ALLEY","type":"esriFieldTypeString","alias":"ALLEY","length":10},{"name":"HOUSE_NO","type":"esriFieldTypeString","alias":"HOUSE_NO","length":20},{"name":"E_COORD97","type":"esriFieldTypeDouble","alias":"E_COORD97"},{"name":"N_COORD97","type":"esriFieldTypeDouble","alias":"N_COORD97"},{"name":"ADDRESS","type":"esriFieldTypeString","alias":"ADDRESS","length":50},{"name":"OBJECTID","type":"esriFieldTypeOID","alias":"OBJECTID"}],"features":[{"attributes":{"ID":140801,"DIS_CODE":0,"TOWNNAME":"歸仁區","LI":"歸南里","LIN":"22鄰","STREET":"民生八街","SECT":" ","MAREA":" ","LANE":"２８巷","ALLEY":"１９弄","HOUSE_NO":"２０號","E_COORD97":176062.70999999999,"N_COORD97":2540429.25,"ADDRESS":"民生八街２８巷１９弄２０號","OBJECTID":140801},"geometry":{"x":176062.71000000089,"y":2540429.2500000019}},{"attributes":{"ID":140802,"DIS_CODE":0,"TOWNNAME":"歸仁區","LI":"歸南里","LIN":"22鄰","STREET":"民生八街","SECT":" ","MAREA":" ","LANE":"２８巷","ALLEY":"１９弄","HOUSE_NO":"１０號","E_COORD97":176084.20999999999,"N_COORD97":2540429.25,"ADDRESS":"民生八街２８巷１９弄１０號","OBJECTID":140802},"geometry":{"x":176084.20999999903,"y":2540429.2500000019}},{"attributes":{"ID":140803,"DIS_CODE":0,"TOWNNAME":"南化區","LI":"南化里","LIN":" ","STREET":" ","SECT":" ","MAREA":"南化","LANE":" ","ALLEY":" ","HOUSE_NO":"１８１之２號","E_COORD97":196498.04000000001,"N_COORD97":2549083.7999999998,"ADDRESS":"南化１８１之２號","OBJECTID":140803},"geometry":{"x":196498.04000000097,"y":2549083.8000000007}},{"attributes":{"ID":140804,"DIS_CODE":0,"TOWNNAME":"南化區","LI":"南化里","LIN":" ","STREET":" ","SECT":" ","MAREA":"南化","LANE":" ","ALLEY":" ","HOUSE_NO":"１７４之９號","E_COORD97":196459.14000000001,"N_COORD97":2549090.7999999998,"ADDRESS":"南化１７４之９號","OBJECTID":140804},"geometry":{"x":196459.1400000006,"y":2549090.8000000007}},{"attributes":{"ID":140805,"DIS_CODE":0,"TOWNNAME":"歸仁區","LI":"歸南里","LIN":"22鄰","STREET":"民生八街","SECT":" ","MAREA":" ","LANE":"２８巷","ALLEY":"１９弄","HOUSE_NO":"６號","E_COORD97":176092.16,"N_COORD97":2540430.25,"ADDRESS":"民生八街２８巷１９弄６號","OBJECTID":140805},"geometry":{"x":176092.16000000108,"y":2540430.2500000019}},{"attributes":{"ID":140806,"DIS_CODE":0,"TOWNNAME":"歸仁區","LI":"歸南里","LIN":"22鄰","STREET":"民生八街","SECT":" ","MAREA":" ","LANE":"２８巷","ALLEY":"１９弄","HOUSE_NO":"３０號","E_COORD97":176043.20999999999,"N_COORD97":2540429.25,"ADDRESS":"民生八街２８巷１９弄３０號","OBJECTID":140806},"geometry":{"x":176043.20999999996,"y":2540429.2500000019}},{"attributes":{"ID":140807,"DIS_CODE":0,"TOWNNAME":"歸仁區","LI":"歸南里","LIN":"22鄰","STREET":"民生八街","SECT":" ","MAREA":" ","LANE":"２８巷","ALLEY":"１９弄","HOUSE_NO":"１４號","E_COORD97":176076.01000000001,"N_COORD97":2540429.25,"ADDRESS":"民生八街２８巷１９弄１４號","OBJECTID":140807},"geometry":{"x":176076.01000000071,"y":2540429.2500000019}},{"attributes":{"ID":140808,"DIS_CODE":0,"TOWNNAME":"歸仁區","LI":"歸南里","LIN":"22鄰","STREET":"民生八街","SECT":" ","MAREA":" ","LANE":"２８巷","ALLEY":"１９弄","HOUSE_NO":"１６號","E_COORD97":176071.91,"N_COORD97":2540429.25,"ADDRESS":"民生八街２８巷１９弄１６號","OBJECTID":140808},"geometry":{"x":176071.91000000108,"y":2540429.2500000019}},{"attributes":{"ID":140809,"DIS_CODE":0,"TOWNNAME":"歸仁區","LI":"看西里","LIN":"22鄰","STREET":"成功七街","SECT":" ","MAREA":" ","LANE":"７９巷","ALLEY":"２６弄","HOUSE_NO":"１６號","E_COORD97":178221.26000000001,"N_COORD97":2539768.3599999999,"ADDRESS":"成功七街７９巷２６弄１６號","OBJECTID":140809},"geometry":{"x":178221.25999999978,"y":2539768.3599999994}},{"attributes":{"ID":140810,"DIS_CODE":0,"TOWNNAME":"仁德區","LI":"後壁里","LIN":"33鄰","STREET":"民安路","SECT":"一段","MAREA":" ","LANE":" ","ALLEY":" ","HOUSE_NO":"１３２之５號","E_COORD97":172139.79999999999,"N_COORD97":2539935.8100000001,"ADDRESS":"民安路一段１３２之５號","OBJECTID":140810},"geometry":{"x":172139.79999999981,"y":2539935.8100000005}},{"attributes":{"ID":140811,"DIS_CODE":0,"TOWNNAME":"南化區","LI":"西埔里","LIN":" ","STREET":" ","SECT":" ","MAREA":"西埔","LANE":" ","ALLEY":" ","HOUSE_NO":"９４號","E_COORD97":193158.64000000001,"N_COORD97":2549572.75,"ADDRESS":"西埔９４號","OBJECTID":140811},"geometry":{"x":193158.6400000006,"y":2549572.7500000037}},{"attributes":{"ID":140812,"DIS_CODE":0,"TOWNNAME":"南化區","LI":"南化里","LIN":" ","STREET":" ","SECT":" ","MAREA":"南化","LANE":" ","ALLEY":" ","HOUSE_NO":"３４之１號","E_COORD97":195666.29000000001,"N_COORD97":2549580.7999999998,"ADDRESS":"南化３４之１號","OBJECTID":140812},"geometry":{"x":195666.29000000004,"y":2549580.8000000026}},{"attributes":{"ID":140813,"DIS_CODE":0,"TOWNNAME":"南化區","LI":"北寮里","LIN":" ","STREET":" ","SECT":" ","MAREA":"北寮","LANE":" ","ALLEY":" ","HOUSE_NO":"２７號","E_COORD97":197771.09,"N_COORD97":2553092.75,"ADDRESS":"北寮２７號","OBJECTID":140813},"geometry":{"x":197771.08999999985,"y":2553092.7500000019}},{"attributes":{"ID":140814,"DIS_CODE":0,"TOWNNAME":"南化區","LI":"北寮里","LIN":" ","STREET":" ","SECT":" ","MAREA":"北寮","LANE":" ","ALLEY":" ","HOUSE_NO":"５之１號","E_COORD97":197831.73999999999,"N_COORD97":2553000.7999999998,"ADDRESS":"北寮５之１號","OBJECTID":140814},"geometry":{"x":197831.74000000022,"y":2553000.8000000045}},{"attributes":{"ID":140815,"DIS_CODE":0,"TOWNNAME":"南化區","LI":"玉山里","LIN":" ","STREET":" ","SECT":" ","MAREA":"玉山","LANE":" ","ALLEY":" ","HOUSE_NO":"１１５之５號","E_COORD97":201238.51999999999,"N_COORD97":2553672.79,"ADDRESS":"玉山１１５之５號","OBJECTID":140815},"geometry":{"x":201238.52000000048,"y":2553672.7899999991}},{"attributes":{"ID":140816,"DIS_CODE":0,"TOWNNAME":"南化區","LI":"北寮里","LIN":" ","STREET":" ","SECT":" ","MAREA":"北寮","LANE":" ","ALLEY":" ","HOUSE_NO":"１之５號","E_COORD97":197915.94,"N_COORD97":2552964.7999999998,"ADDRESS":"北寮１之５號","OBJECTID":140816},"geometry":{"x":197915.94000000134,"y":2552964.8000000026}},{"attributes":{"ID":140817,"DIS_CODE":0,"TOWNNAME":"南化區","LI":"小崙里","LIN":" ","STREET":" ","SECT":" ","MAREA":"小崙","LANE":" ","ALLEY":" ","HOUSE_NO":"１之２５號","E_COORD97":196837.17000000001,"N_COORD97":2549500.7999999998,"ADDRESS":"小崙１之２５號","OBJECTID":140817},"geometry":{"x":196837.17000000179,"y":2549500.8000000007}},{"attributes":{"ID":140818,"DIS_CODE":0,"TOWNNAME":"南化區","LI":"南化里","LIN":" ","STREET":" ","SECT":" ","MAREA":"南化","LANE":" ","ALLEY":" ","HOUSE_NO":"４７之１３號","E_COORD97":196205.54000000001,"N_COORD97":2549267.7999999998,"ADDRESS":"南化４７之１３號","OBJECTID":140818},"geometry":{"x":196205.54000000004,"y":2549267.8000000045}},{"attributes":{"ID":140819,"DIS_CODE":0,"TOWNNAME":"南化區","LI":"南化里","LIN":" ","STREET":" ","SECT":" ","MAREA":"南化","LANE":" ","ALLEY":" ","HOUSE_NO":"１６７號","E_COORD97":196397.04000000001,"N_COORD97":2549070.75,"ADDRESS":"南化１６７號","OBJECTID":140819},"geometry":{"x":196397.04000000004,"y":2549070.7500000037}},{"attributes":{"ID":140820,"DIS_CODE":0,"TOWNNAME":"歸仁區","LI":"歸南里","LIN":"22鄰","STREET":"民生八街","SECT":" ","MAREA":" ","LANE":"２８巷","ALLEY":"１９弄","HOUSE_NO":"５６號","E_COORD97":175990.91,"N_COORD97":2540429.25,"ADDRESS":"民生八街２８巷１９弄５６號","OBJECTID":140820},"geometry":{"x":175990.91000000015,"y":2540429.2500000019}},{"attributes":{"ID":140821,"DIS_CODE":0,"TOWNNAME":"新營區","LI":"忠政里","LIN":"22鄰","STREET":"府西路","SECT":" ","MAREA":" ","LANE":"２３１巷","ALLEY":"９弄","HOUSE_NO":"５號","E_COORD97":179762.97,"N_COORD97":2579570.54,"ADDRESS":"府西路２３１巷９弄５號","OBJECTID":140821},"geometry":{"x":179762.97000000067,"y":2579570.5399999991}},{"attributes":{"ID":140822,"DIS_CODE":0,"TOWNNAME":"東區","LI":"大福里","LIN":"13鄰","STREET":"立德五路","SECT":" ","MAREA":" ","LANE":" ","ALLEY":" ","HOUSE_NO":"２號","E_COORD97":169504.20000000001,"N_COORD97":2541818.5899999999,"ADDRESS":"立德五路２號","OBJECTID":140822},"geometry":{"x":169504.20000000112,"y":2541818.5899999999}},{"attributes":{"ID":140823,"DIS_CODE":0,"TOWNNAME":"仁德區","LI":"仁愛里","LIN":"10鄰","STREET":" ","SECT":" ","MAREA":"仁愛","LANE":" ","ALLEY":" ","HOUSE_NO":"１８９號","E_COORD97":170301.54019599999,"N_COORD97":2539958.5499999998,"ADDRESS":"仁愛１８９號","OBJECTID":140823},"geometry":{"x":170301.54019599967,"y":2539958.5500000007}},{"attributes":{"ID":140824,"DIS_CODE":0,"TOWNNAME":"仁德區","LI":"仁愛里","LIN":"10鄰","STREET":" ","SECT":" ","MAREA":"仁愛","LANE":" ","ALLEY":" ","HOUSE_NO":"１９４號","E_COORD97":170318.17079599999,"N_COORD97":2539958.5499999998,"ADDRESS":"仁愛１９４號","OBJECTID":140824},"geometry":{"x":170318.1707960004,"y":2539958.5500000007}},{"attributes":{"ID":140825,"DIS_CODE":0,"TOWNNAME":"新營區","LI":"南紙里","LIN":"22鄰","STREET":"建業路","SECT":" ","MAREA":" ","LANE":"１９３巷","ALLEY":"１０弄","HOUSE_NO":"６號","E_COORD97":178165.42000000001,"N_COORD97":2577472.9300000002,"ADDRESS":"建業路１９３巷１０弄６號","OBJECTID":140825},"geometry":{"x":178165.41999999993,"y":2577472.9299999997}},{"attributes":{"ID":140826,"DIS_CODE":0,"TOWNNAME":"東區","LI":"大福里","LIN":"13鄰","STREET":"立德五路","SECT":" ","MAREA":" ","LANE":" ","ALLEY":" ","HOUSE_NO":"４號","E_COORD97":169508.39999999999,"N_COORD97":2541818.9700000002,"ADDRESS":"立德五路４號","OBJECTID":140826},"geometry":{"x":169508.4000000013,"y":2541818.9700000025}},{"attributes":{"ID":140827,"DIS_CODE":0,"TOWNNAME":"東區","LI":"大福里","LIN":"13鄰","STREET":"立德五路","SECT":" ","MAREA":" ","LANE":" ","ALLEY":" ","HOUSE_NO":"６號","E_COORD97":169513.35999999999,"N_COORD97":2541819.3500000001,"ADDRESS":"立德五路６號","OBJECTID":140827},"geometry":{"x":169513.36000000127,"y":2541819.3500000015}},{"attributes":{"ID":140828,"DIS_CODE":0,"TOWNNAME":"東區","LI":"大福里","LIN":"13鄰","STREET":"立德五路","SECT":" ","MAREA":" ","LANE":" ","ALLEY":" ","HOUSE_NO":"８號","E_COORD97":169516.41,"N_COORD97":2541819.73,"ADDRESS":"立德五路８號","OBJECTID":140828},"geometry":{"x":169516.41000000108,"y":2541819.7300000023}},{"attributes":{"ID":140829,"DIS_CODE":0,"TOWNNAME":"東區","LI":"大福里","LIN":"15鄰","STREET":"立德五路","SECT":" ","MAREA":" ","LANE":" ","ALLEY":" ","HOUSE_NO":"１９號","E_COORD97":169536.23999999999,"N_COORD97":2541841.0699999998,"ADDRESS":"立德五路１９號","OBJECTID":140829},"geometry":{"x":169536.24000000115,"y":2541841.0700000022}},{"attributes":{"ID":140830,"DIS_CODE":0,"TOWNNAME":"新營區","LI":"南紙里","LIN":"22鄰","STREET":"建業路","SECT":" ","MAREA":" ","LANE":"１９３巷","ALLEY":"１０弄","HOUSE_NO":"４號","E_COORD97":178170.60000000001,"N_COORD97":2577471.79,"ADDRESS":"建業路１９３巷１０弄４號","OBJECTID":140830},"geometry":{"x":178170.60000000056,"y":2577471.790000001}},{"attributes":{"ID":140831,"DIS_CODE":0,"TOWNNAME":"仁德區","LI":"中洲里","LIN":"10鄰","STREET":" ","SECT":" ","MAREA":"中洲","LANE":" ","ALLEY":" ","HOUSE_NO":"３１６號之１３","E_COORD97":173334.07999999999,"N_COORD97":2534074.29,"ADDRESS":"中洲３１６號之１３","OBJECTID":140831},"geometry":{"x":173334.08000000194,"y":2534074.290000001}},{"attributes":{"ID":140832,"DIS_CODE":0,"TOWNNAME":"新營區","LI":"南紙里","LIN":"22鄰","STREET":"建業路","SECT":" ","MAREA":" ","LANE":"１９３巷","ALLEY":"１０弄","HOUSE_NO":"８號","E_COORD97":178161.39000000001,"N_COORD97":2577472.9500000002,"ADDRESS":"建業路１９３巷１０弄８號","OBJECTID":140832},"geometry":{"x":178161.3900000006,"y":2577472.9499999993}},{"attributes":{"ID":140833,"DIS_CODE":0,"TOWNNAME":"仁德區","LI":"中洲里","LIN":"10鄰","STREET":" ","SECT":" ","MAREA":"中洲","LANE":" ","ALLEY":" ","HOUSE_NO":"３０９號之１４","E_COORD97":173580.81,"N_COORD97":2534141.54,"ADDRESS":"中洲３０９號之１４","OBJECTID":140833},"geometry":{"x":173580.80999999959,"y":2534141.540000001}},{"attributes":{"ID":140834,"DIS_CODE":0,"TOWNNAME":"新營區","LI":"南紙里","LIN":"22鄰","STREET":"建業路","SECT":" ","MAREA":" ","LANE":"１９３巷","ALLEY":"１０弄","HOUSE_NO":"３號","E_COORD97":178168.47,"N_COORD97":2577450.77,"ADDRESS":"建業路１９３巷１０弄３號","OBJECTID":140834},"geometry":{"x":178168.46999999974,"y":2577450.7699999996}},{"attributes":{"ID":140835,"DIS_CODE":0,"TOWNNAME":"仁德區","LI":"中洲里","LIN":"10鄰","STREET":" ","SECT":" ","MAREA":"中洲","LANE":" ","ALLEY":" ","HOUSE_NO":"３１７之１５號","E_COORD97":173475.76000000001,"N_COORD97":2533996.5499999998,"ADDRESS":"中洲３１７之１５號","OBJECTID":140835},"geometry":{"x":173475.75999999978,"y":2533996.5500000026}},{"attributes":{"ID":140836,"DIS_CODE":0,"TOWNNAME":"仁德區","LI":"中洲里","LIN":"10鄰","STREET":" ","SECT":" ","MAREA":"中洲","LANE":" ","ALLEY":" ","HOUSE_NO":"３１８號之１０","E_COORD97":173387.45000000001,"N_COORD97":2534009.0499999998,"ADDRESS":"中洲３１８號之１０","OBJECTID":140836},"geometry":{"x":173387.44999999925,"y":2534009.0500000007}},{"attributes":{"ID":140837,"DIS_CODE":0,"TOWNNAME":"新營區","LI":"忠政里","LIN":"22鄰","STREET":"府西路","SECT":" ","MAREA":" ","LANE":"２３１巷","ALLEY":"９弄","HOUSE_NO":"３號","E_COORD97":179763.06,"N_COORD97":2579573.8599999999,"ADDRESS":"府西路２３１巷９弄３號","OBJECTID":140837},"geometry":{"x":179763.05999999959,"y":2579573.8600000013}},{"attributes":{"ID":140838,"DIS_CODE":0,"TOWNNAME":"仁德區","LI":"中生里","LIN":"10鄰","STREET":" ","SECT":" ","MAREA":"中洲","LANE":" ","ALLEY":" ","HOUSE_NO":"１７５號","E_COORD97":173169.76999999999,"N_COORD97":2534074.4900000002,"ADDRESS":"中洲１７５號","OBJECTID":140838},"geometry":{"x":173169.77000000048,"y":2534074.4900000021}},{"attributes":{"ID":140839,"DIS_CODE":0,"TOWNNAME":"仁德區","LI":"上崙里","LIN":"10鄰","STREET":"德善路","SECT":" ","MAREA":" ","LANE":" ","ALLEY":" ","HOUSE_NO":"４２５號","E_COORD97":174040.54999999999,"N_COORD97":2538261.02,"ADDRESS":"德善路４２５號","OBJECTID":140839},"geometry":{"x":174040.54999999981,"y":2538261.0200000014}},{"attributes":{"ID":140840,"DIS_CODE":0,"TOWNNAME":"新營區","LI":"南紙里","LIN":"22鄰","STREET":"建業路","SECT":" ","MAREA":" ","LANE":"１９３巷","ALLEY":"１０弄","HOUSE_NO":"２２號","E_COORD97":178129.91,"N_COORD97":2577475.3199999998,"ADDRESS":"建業路１９３巷１０弄２２號","OBJECTID":140840},"geometry":{"x":178129.91000000108,"y":2577475.320000004}},{"attributes":{"ID":140841,"DIS_CODE":0,"TOWNNAME":"南化區","LI":"關山里","LIN":" ","STREET":" ","SECT":" ","MAREA":"西阿里關","LANE":" ","ALLEY":" ","HOUSE_NO":"１９之３號","E_COORD97":208402.14000000001,"N_COORD97":2562940.7999999998,"ADDRESS":"西阿里關１９之３號","OBJECTID":140841},"geometry":{"x":208402.1400000006,"y":2562940.8000000007}},{"attributes":{"ID":140842,"DIS_CODE":0,"TOWNNAME":"南化區","LI":"小崙里","LIN":" ","STREET":" ","SECT":" ","MAREA":"小崙","LANE":" ","ALLEY":" ","HOUSE_NO":"１之３號","E_COORD97":196754.72,"N_COORD97":2549490.7999999998,"ADDRESS":"小崙１之３號","OBJECTID":140842},"geometry":{"x":196754.71999999974,"y":2549490.8000000007}},{"attributes":{"ID":140843,"DIS_CODE":0,"TOWNNAME":"南化區","LI":"西埔里","LIN":" ","STREET":" ","SECT":" ","MAREA":"西埔","LANE":" ","ALLEY":" ","HOUSE_NO":"１０３號","E_COORD97":193222.09,"N_COORD97":2549591.75,"ADDRESS":"西埔１０３號","OBJECTID":140843},"geometry":{"x":193222.09000000078,"y":2549591.75}},{"attributes":{"ID":140844,"DIS_CODE":0,"TOWNNAME":"南化區","LI":"南化里","LIN":" ","STREET":" ","SECT":" ","MAREA":"南化","LANE":" ","ALLEY":" ","HOUSE_NO":"３２之２５號","E_COORD97":195822.23999999999,"N_COORD97":2549369.7999999998,"ADDRESS":"南化３２之２５號","OBJECTID":140844},"geometry":{"x":195822.24000000115,"y":2549369.8000000045}},{"attributes":{"ID":140845,"DIS_CODE":0,"TOWNNAME":"南化區","LI":"小崙里","LIN":" ","STREET":" ","SECT":" ","MAREA":"小崙","LANE":" ","ALLEY":" ","HOUSE_NO":"１之２１號","E_COORD97":196821.87,"N_COORD97":2549497.7999999998,"ADDRESS":"小崙１之２１號","OBJECTID":140845},"geometry":{"x":196821.87000000011,"y":2549497.8000000007}},{"attributes":{"ID":140846,"DIS_CODE":0,"TOWNNAME":"永康區","LI":"正強里","LIN":"33鄰","STREET":"四維街","SECT":" ","MAREA":" ","LANE":" ","ALLEY":" ","HOUSE_NO":"１３９號","E_COORD97":173327.54000000001,"N_COORD97":2548263.5600000001,"ADDRESS":"四維街１３９號","OBJECTID":140846},"geometry":{"x":173327.5400000019,"y":2548263.5600000024}},{"attributes":{"ID":140847,"DIS_CODE":0,"TOWNNAME":"永康區","LI":"正強里","LIN":"33鄰","STREET":"四維街","SECT":" ","MAREA":" ","LANE":" ","ALLEY":" ","HOUSE_NO":"９７號","E_COORD97":173354.23999999999,"N_COORD97":2548182,"ADDRESS":"四維街９７號","OBJECTID":140847},"geometry":{"x":173354.24000000115,"y":2548182.0000000019}},{"attributes":{"ID":140848,"DIS_CODE":0,"TOWNNAME":"永康區","LI":"正強里","LIN":"33鄰","STREET":"四維街","SECT":" ","MAREA":" ","LANE":" ","ALLEY":" ","HOUSE_NO":"８９號","E_COORD97":173359.66,"N_COORD97":2548165.75,"ADDRESS":"四維街８９號","OBJECTID":140848},"geometry":{"x":173359.66000000108,"y":2548165.7500000037}},{"attributes":{"ID":140849,"DIS_CODE":0,"TOWNNAME":"永康區","LI":"正強里","LIN":"33鄰","STREET":"四維街","SECT":" ","MAREA":" ","LANE":" ","ALLEY":" ","HOUSE_NO":"１４１號","E_COORD97":173325.95000000001,"N_COORD97":2548268.0600000001,"ADDRESS":"四維街１４１號","OBJECTID":140849},"geometry":{"x":173325.95000000019,"y":2548268.0600000005}},{"attributes":{"ID":140850,"DIS_CODE":0,"TOWNNAME":"新市區","LI":"新和里","LIN":"33鄰","STREET":"忠孝街","SECT":" ","MAREA":" ","LANE":" ","ALLEY":" ","HOUSE_NO":"２３０號","E_COORD97":177733.53,"N_COORD97":2552958,"ADDRESS":"忠孝街２３０號","OBJECTID":140850},"geometry":{"x":177733.53000000212,"y":2552958.0000000037}},{"attributes":{"ID":140851,"DIS_CODE":0,"TOWNNAME":"新市區","LI":"新和里","LIN":"33鄰","STREET":"忠孝街","SECT":" ","MAREA":" ","LANE":" ","ALLEY":" ","HOUSE_NO":"２０９號","E_COORD97":177720.78,"N_COORD97":2552874.25,"ADDRESS":"忠孝街２０９號","OBJECTID":140851},"geometry":{"x":177720.78000000119,"y":2552874.25}},{"attributes":{"ID":140852,"DIS_CODE":0,"TOWNNAME":"新市區","LI":"新和里","LIN":"33鄰","STREET":"忠孝街","SECT":" ","MAREA":" ","LANE":" ","ALLEY":" ","HOUSE_NO":"２００號","E_COORD97":177738.01000000001,"N_COORD97":2552873.75,"ADDRESS":"忠孝街２００號","OBJECTID":140852},"geometry":{"x":177738.00999999978,"y":2552873.75}},{"attributes":{"ID":140853,"DIS_CODE":0,"TOWNNAME":"新市區","LI":"新和里","LIN":"33鄰","STREET":"忠孝街","SECT":" ","MAREA":" ","LANE":" ","ALLEY":" ","HOUSE_NO":"２１４之１號","E_COORD97":177738.85000000001,"N_COORD97":2552913.7999999998,"ADDRESS":"忠孝街２１４之１號","OBJECTID":140853},"geometry":{"x":177738.84999999963,"y":2552913.8000000026}},{"attributes":{"ID":140854,"DIS_CODE":0,"TOWNNAME":"新市區","LI":"新和里","LIN":"33鄰","STREET":"忠孝街","SECT":" ","MAREA":" ","LANE":" ","ALLEY":" ","HOUSE_NO":"２１３號","E_COORD97":177720.42999999999,"N_COORD97":2552882.75,"ADDRESS":"忠孝街２１３號","OBJECTID":140854},"geometry":{"x":177720.43000000063,"y":2552882.7500000019}},{"attributes":{"ID":140855,"DIS_CODE":0,"TOWNNAME":"新市區","LI":"新和里","LIN":"33鄰","STREET":"忠孝街","SECT":" ","MAREA":" ","LANE":" ","ALLEY":" ","HOUSE_NO":"２１６號","E_COORD97":177736.20000000001,"N_COORD97":2552917.75,"ADDRESS":"忠孝街２１６號","OBJECTID":140855},"geometry":{"x":177736.20000000112,"y":2552917.75}},{"attributes":{"ID":140856,"DIS_CODE":0,"TOWNNAME":"新市區","LI":"新和里","LIN":"33鄰","STREET":"忠孝街","SECT":" ","MAREA":" ","LANE":" ","ALLEY":" ","HOUSE_NO":"２３２號","E_COORD97":177733.23000000001,"N_COORD97":2552962.5,"ADDRESS":"忠孝街２３２號","OBJECTID":140856},"geometry":{"x":177733.23000000138,"y":2552962.5000000019}},{"attributes":{"ID":140857,"DIS_CODE":0,"TOWNNAME":"新營區","LI":"南紙里","LIN":"22鄰","STREET":"建業路","SECT":" ","MAREA":" ","LANE":"１９３巷","ALLEY":"１０弄","HOUSE_NO":"５號","E_COORD97":178164.29999999999,"N_COORD97":2577451.8900000001,"ADDRESS":"建業路１９３巷１０弄５號","OBJECTID":140857},"geometry":{"x":178164.30000000075,"y":2577451.8900000025}},{"attributes":{"ID":140858,"DIS_CODE":0,"TOWNNAME":"新營區","LI":"民榮里","LIN":"39鄰","STREET":"太子路","SECT":" ","MAREA":" ","LANE":"５３巷","ALLEY":"７弄","HOUSE_NO":"３１號","E_COORD97":178290.63498,"N_COORD97":2577897.89396,"ADDRESS":"太子路５３巷７弄３１號","OBJECTID":140858},"geometry":{"x":178290.63498000149,"y":2577897.8939620014}},{"attributes":{"ID":140859,"DIS_CODE":0,"TOWNNAME":"新營區","LI":"忠政里","LIN":"22鄰","STREET":"府西路","SECT":" ","MAREA":" ","LANE":"２３１巷","ALLEY":"９弄","HOUSE_NO":"４號","E_COORD97":179747.70999999999,"N_COORD97":2579575.04,"ADDRESS":"府西路２３１巷９弄４號","OBJECTID":140859},"geometry":{"x":179747.71000000183,"y":2579575.040000001}},{"attributes":{"ID":140860,"DIS_CODE":0,"TOWNNAME":"新營區","LI":"忠政里","LIN":"22鄰","STREET":"府西路","SECT":" ","MAREA":" ","LANE":"２３１巷","ALLEY":"２９弄","HOUSE_NO":"５號","E_COORD97":179715.92000000001,"N_COORD97":2579570.77,"ADDRESS":"府西路２３１巷２９弄５號","OBJECTID":140860},"geometry":{"x":179715.92000000086,"y":2579570.7700000014}},{"attributes":{"ID":140861,"DIS_CODE":0,"TOWNNAME":"新營區","LI":"忠政里","LIN":"22鄰","STREET":"府西路","SECT":" ","MAREA":" ","LANE":"２３１巷","ALLEY":"９弄","HOUSE_NO":"９號","E_COORD97":179762.89000000001,"N_COORD97":2579562.79,"ADDRESS":"府西路２３１巷９弄９號","OBJECTID":140861},"geometry":{"x":179762.88999999873,"y":2579562.7900000028}},{"attributes":{"ID":140862,"DIS_CODE":0,"TOWNNAME":"東山區","LI":"南溪里","LIN":" ","STREET":" ","SECT":" ","MAREA":"二重溪","LANE":" ","ALLEY":" ","HOUSE_NO":"４４號","E_COORD97":188255.59,"N_COORD97":2574811.3300000001,"ADDRESS":"二重溪４４號","OBJECTID":140862},"geometry":{"x":188255.59000000078,"y":2574811.3300000019}},{"attributes":{"ID":140863,"DIS_CODE":0,"TOWNNAME":"新營區","LI":"忠政里","LIN":"22鄰","STREET":"府西路","SECT":" ","MAREA":" ","LANE":"２３１巷","ALLEY":"２９弄","HOUSE_NO":"７號","E_COORD97":179715.91,"N_COORD97":2579566.3399999999,"ADDRESS":"府西路２３１巷２９弄７號","OBJECTID":140863},"geometry":{"x":179715.91000000201,"y":2579566.339999998}},{"attributes":{"ID":140864,"DIS_CODE":0,"TOWNNAME":"新營區","LI":"南紙里","LIN":"22鄰","STREET":"建業路","SECT":" ","MAREA":" ","LANE":"１９３巷","ALLEY":"１０弄","HOUSE_NO":"１６號","E_COORD97":178144.16,"N_COORD97":2577474.1400000001,"ADDRESS":"建業路１９３巷１０弄１６號","OBJECTID":140864},"geometry":{"x":178144.16000000015,"y":2577474.1400000025}},{"attributes":{"ID":140865,"DIS_CODE":0,"TOWNNAME":"新營區","LI":"南紙里","LIN":"22鄰","STREET":"建業路","SECT":" ","MAREA":" ","LANE":"１９３巷","ALLEY":"１０弄","HOUSE_NO":"１９號","E_COORD97":178133.82999999999,"N_COORD97":2577453.1499999999,"ADDRESS":"建業路１９３巷１０弄１９號","OBJECTID":140865},"geometry":{"x":178133.83000000101,"y":2577453.1500000022}},{"attributes":{"ID":140866,"DIS_CODE":0,"TOWNNAME":"新營區","LI":"忠政里","LIN":"22鄰","STREET":"府西路","SECT":" ","MAREA":" ","LANE":"２３１巷","ALLEY":"９弄","HOUSE_NO":"８號","E_COORD97":179747.66,"N_COORD97":2579567.29,"ADDRESS":"府西路２３１巷９弄８號","OBJECTID":140866},"geometry":{"x":179747.66000000015,"y":2579567.290000001}},{"attributes":{"ID":140867,"DIS_CODE":0,"TOWNNAME":"新營區","LI":"忠政里","LIN":"22鄰","STREET":"府西路","SECT":" ","MAREA":" ","LANE":"２３１巷","ALLEY":"９弄","HOUSE_NO":"６號","E_COORD97":179747.63,"N_COORD97":2579571.7200000002,"ADDRESS":"府西路２３１巷９弄６號","OBJECTID":140867},"geometry":{"x":179747.62999999989,"y":2579571.7200000044}},{"attributes":{"ID":140868,"DIS_CODE":0,"TOWNNAME":"新營區","LI":"忠政里","LIN":"22鄰","STREET":"府西路","SECT":" ","MAREA":" ","LANE":"２３１巷","ALLEY":"２９弄","HOUSE_NO":"２號","E_COORD97":179699.64999999999,"N_COORD97":2579578.5899999999,"ADDRESS":"府西路２３１巷２９弄２號","OBJECTID":140868},"geometry":{"x":179699.6500000013,"y":2579578.5900000036}},{"attributes":{"ID":140869,"DIS_CODE":0,"TOWNNAME":"新市區","LI":"大社里","LIN":"33鄰","STREET":" ","SECT":" ","MAREA":"大社","LANE":" ","ALLEY":" ","HOUSE_NO":"４８０號","E_COORD97":180821.59,"N_COORD97":2555382.5099999998,"ADDRESS":"大社４８０號","OBJECTID":140869},"geometry":{"x":180821.59000000078,"y":2555382.5100000016}},{"attributes":{"ID":140870,"DIS_CODE":0,"TOWNNAME":"新營區","LI":"南紙里","LIN":"22鄰","STREET":"建業路","SECT":" ","MAREA":" ","LANE":"１９３巷","ALLEY":"１０弄","HOUSE_NO":"１４號","E_COORD97":178149.28,"N_COORD97":2577474.1200000001,"ADDRESS":"建業路１９３巷１０弄１４號","OBJECTID":140870},"geometry":{"x":178149.28000000119,"y":2577474.1200000048}},{"attributes":{"ID":140871,"DIS_CODE":0,"TOWNNAME":"南化區","LI":"南化里","LIN":" ","STREET":" ","SECT":" ","MAREA":"南化","LANE":" ","ALLEY":" ","HOUSE_NO":"２５８５號","E_COORD97":196841.89000000001,"N_COORD97":2549011.75,"ADDRESS":"南化２５８５號","OBJECTID":140871},"geometry":{"x":196841.88999999966,"y":2549011.75}},{"attributes":{"ID":140872,"DIS_CODE":0,"TOWNNAME":"南化區","LI":"南化里","LIN":" ","STREET":" ","SECT":" ","MAREA":"南化","LANE":" ","ALLEY":" ","HOUSE_NO":"８６之１號","E_COORD97":196391.98999999999,"N_COORD97":2549044.7999999998,"ADDRESS":"南化８６之１號","OBJECTID":140872},"geometry":{"x":196391.99000000022,"y":2549044.8000000026}},{"attributes":{"ID":140873,"DIS_CODE":0,"TOWNNAME":"南化區","LI":"南化里","LIN":" ","STREET":" ","SECT":" ","MAREA":"南化","LANE":" ","ALLEY":" ","HOUSE_NO":"２５７之３號","E_COORD97":196931.64000000001,"N_COORD97":2549343.7999999998,"ADDRESS":"南化２５７之３號","OBJECTID":140873},"geometry":{"x":196931.63999999966,"y":2549343.8000000026}},{"attributes":{"ID":140874,"DIS_CODE":0,"TOWNNAME":"南化區","LI":"北寮里","LIN":" ","STREET":" ","SECT":" ","MAREA":"北寮","LANE":" ","ALLEY":" ","HOUSE_NO":"１之１３號","E_COORD97":197965.59,"N_COORD97":2552923.7999999998,"ADDRESS":"北寮１之１３號","OBJECTID":140874},"geometry":{"x":197965.59000000078,"y":2552923.8000000026}},{"attributes":{"ID":140875,"DIS_CODE":0,"TOWNNAME":"南化區","LI":"南化里","LIN":" ","STREET":" ","SECT":" ","MAREA":"南化","LANE":" ","ALLEY":" ","HOUSE_NO":"１８１之３號","E_COORD97":196499.64000000001,"N_COORD97":2549080.7999999998,"ADDRESS":"南化１８１之３號","OBJECTID":140875},"geometry":{"x":196499.64000000153,"y":2549080.8000000007}},{"attributes":{"ID":140876,"DIS_CODE":0,"TOWNNAME":"南化區","LI":"北平里","LIN":" ","STREET":" ","SECT":" ","MAREA":"北平","LANE":" ","ALLEY":" ","HOUSE_NO":"１０７號","E_COORD97":193832.44,"N_COORD97":2551165.75,"ADDRESS":"北平１０７號","OBJECTID":140876},"geometry":{"x":193832.44000000134,"y":2551165.75}},{"attributes":{"ID":140877,"DIS_CODE":0,"TOWNNAME":"南化區","LI":"小崙里","LIN":" ","STREET":" ","SECT":" ","MAREA":"小崙","LANE":" ","ALLEY":" ","HOUSE_NO":"１之２０號","E_COORD97":196817.37,"N_COORD97":2549496.7999999998,"ADDRESS":"小崙１之２０號","OBJECTID":140877},"geometry":{"x":196817.37000000104,"y":2549496.8000000007}},{"attributes":{"ID":140878,"DIS_CODE":0,"TOWNNAME":"南化區","LI":"西埔里","LIN":" ","STREET":" ","SECT":" ","MAREA":"西埔","LANE":" ","ALLEY":" ","HOUSE_NO":"１５４號","E_COORD97":193155.19,"N_COORD97":2549584.75,"ADDRESS":"西埔１５４號","OBJECTID":140878},"geometry":{"x":193155.19000000041,"y":2549584.75}},{"attributes":{"ID":140879,"DIS_CODE":0,"TOWNNAME":"南化區","LI":"南化里","LIN":" ","STREET":" ","SECT":" ","MAREA":"南化","LANE":" ","ALLEY":" ","HOUSE_NO":"３２之１８號","E_COORD97":195834.73999999999,"N_COORD97":2549377.7999999998,"ADDRESS":"南化３２之１８號","OBJECTID":140879},"geometry":{"x":195834.74000000022,"y":2549377.8000000026}},{"attributes":{"ID":140880,"DIS_CODE":0,"TOWNNAME":"歸仁區","LI":"大廟里","LIN":"22鄰","STREET":"大廟一街","SECT":" ","MAREA":" ","LANE":"３８巷","ALLEY":"２５弄","HOUSE_NO":"３號","E_COORD97":175742.62,"N_COORD97":2544061.25,"ADDRESS":"大廟一街３８巷２５弄３號","OBJECTID":140880},"geometry":{"x":175742.62000000197,"y":2544061.2500000019}},{"attributes":{"ID":140881,"DIS_CODE":0,"TOWNNAME":"歸仁區","LI":"歸南里","LIN":"22鄰","STREET":"民生八街","SECT":" ","MAREA":" ","LANE":"２８巷","ALLEY":"１９弄","HOUSE_NO":"２號","E_COORD97":176108.14000000001,"N_COORD97":2540429.29,"ADDRESS":"民生八街２８巷１９弄２號","OBJECTID":140881},"geometry":{"x":176108.14000000153,"y":2540429.2899999991}},{"attributes":{"ID":140882,"DIS_CODE":0,"TOWNNAME":"關廟區","LI":"香洋里","LIN":"22鄰","STREET":"中山路","SECT":"一段","MAREA":" ","LANE":"２３９巷","ALLEY":"３弄","HOUSE_NO":"３號","E_COORD97":181390.45999999999,"N_COORD97":2539873.2799999998,"ADDRESS":"中山路一段２３９巷３弄３號","OBJECTID":140882},"geometry":{"x":181390.46000000089,"y":2539873.2800000012}},{"attributes":{"ID":140883,"DIS_CODE":0,"TOWNNAME":"永康區","LI":"永康里","LIN":"22鄰","STREET":"中山南路","SECT":" ","MAREA":" ","LANE":"４７１巷","ALLEY":"３８弄","HOUSE_NO":"８號","E_COORD97":173166.67999999999,"N_COORD97":2547122.1200000001,"ADDRESS":"中山南路４７１巷３８弄８號","OBJECTID":140883},"geometry":{"x":173166.67999999877,"y":2547122.120000001}},{"attributes":{"ID":140884,"DIS_CODE":0,"TOWNNAME":"新營區","LI":"南紙里","LIN":"22鄰","STREET":"建業路","SECT":" ","MAREA":" ","LANE":"１９３巷","ALLEY":"１０弄","HOUSE_NO":"１號","E_COORD97":178173.48999999999,"N_COORD97":2577450.7400000002,"ADDRESS":"建業路１９３巷１０弄１號","OBJECTID":140884},"geometry":{"x":178173.49000000115,"y":2577450.7400000002}},{"attributes":{"ID":140885,"DIS_CODE":0,"TOWNNAME":"新營區","LI":"新南里","LIN":"22鄰","STREET":"復興路","SECT":" ","MAREA":" ","LANE":"６２０巷","ALLEY":"１６弄","HOUSE_NO":"５號","E_COORD97":178052.23000000001,"N_COORD97":2578388.2400000002,"ADDRESS":"復興路６２０巷１６弄５號","OBJECTID":140885},"geometry":{"x":178052.23000000045,"y":2578388.2400000021}},{"attributes":{"ID":140886,"DIS_CODE":0,"TOWNNAME":"新營區","LI":"新南里","LIN":"22鄰","STREET":"復興路","SECT":" ","MAREA":" ","LANE":"６２０巷","ALLEY":"１６弄","HOUSE_NO":"７號","E_COORD97":178056.34,"N_COORD97":2578387.1099999999,"ADDRESS":"復興路６２０巷１６弄７號","OBJECTID":140886},"geometry":{"x":178056.33999999985,"y":2578387.1099999994}},{"attributes":{"ID":140887,"DIS_CODE":0,"TOWNNAME":"永康區","LI":"正強里","LIN":"33鄰","STREET":"四維街","SECT":" ","MAREA":" ","LANE":" ","ALLEY":" ","HOUSE_NO":"８５號","E_COORD97":173366.94,"N_COORD97":2548136.2400000002,"ADDRESS":"四維街８５號","OBJECTID":140887},"geometry":{"x":173366.94000000041,"y":2548136.2400000021}},{"attributes":{"ID":140888,"DIS_CODE":0,"TOWNNAME":"永康區","LI":"正強里","LIN":"33鄰","STREET":"四維街","SECT":" ","MAREA":" ","LANE":" ","ALLEY":" ","HOUSE_NO":"９９號","E_COORD97":173335.64999999999,"N_COORD97":2548181.25,"ADDRESS":"四維街９９號","OBJECTID":140888},"geometry":{"x":173335.65000000224,"y":2548181.25}},{"attributes":{"ID":140889,"DIS_CODE":0,"TOWNNAME":"永康區","LI":"西灣里","LIN":"33鄰","STREET":"永華路","SECT":" ","MAREA":" ","LANE":" ","ALLEY":" ","HOUSE_NO":"３８８號","E_COORD97":174061.76000000001,"N_COORD97":2545862.48,"ADDRESS":"永華路３８８號","OBJECTID":140889},"geometry":{"x":174061.76000000071,"y":2545862.4800000042}},{"attributes":{"ID":140890,"DIS_CODE":0,"TOWNNAME":"永康區","LI":"永康里","LIN":"33鄰","STREET":"永大路","SECT":"二段","MAREA":" ","LANE":" ","ALLEY":" ","HOUSE_NO":"１３６６號","E_COORD97":174296.31,"N_COORD97":2546999.6000000001,"ADDRESS":"永大路二段１３６６號","OBJECTID":140890},"geometry":{"x":174296.30999999959,"y":2546999.5999999996}},{"attributes":{"ID":140891,"DIS_CODE":0,"TOWNNAME":"永康區","LI":"永康里","LIN":"33鄰","STREET":"永大路","SECT":"二段","MAREA":" ","LANE":" ","ALLEY":" ","HOUSE_NO":"１３２６號","E_COORD97":174306.37,"N_COORD97":2546933.7799999998,"ADDRESS":"永大路二段１３２６號","OBJECTID":140891},"geometry":{"x":174306.37000000011,"y":2546933.7799999975}},{"attributes":{"ID":140892,"DIS_CODE":0,"TOWNNAME":"永康區","LI":"正強里","LIN":"33鄰","STREET":"埔園街","SECT":" ","MAREA":" ","LANE":" ","ALLEY":" ","HOUSE_NO":"４１２號","E_COORD97":173292.29999999999,"N_COORD97":2548142.52,"ADDRESS":"埔園街４１２號","OBJECTID":140892},"geometry":{"x":173292.30000000075,"y":2548142.5199999996}},{"attributes":{"ID":140893,"DIS_CODE":0,"TOWNNAME":"永康區","LI":"正強里","LIN":"33鄰","STREET":"埔園街","SECT":" ","MAREA":" ","LANE":" ","ALLEY":" ","HOUSE_NO":"４２６號","E_COORD97":173272.03,"N_COORD97":2548136.2200000002,"ADDRESS":"埔園街４２６號","OBJECTID":140893},"geometry":{"x":173272.03000000119,"y":2548136.2200000044}},{"attributes":{"ID":140894,"DIS_CODE":0,"TOWNNAME":"新營區","LI":"新南里","LIN":"22鄰","STREET":"復興路","SECT":" ","MAREA":" ","LANE":"６２０巷","ALLEY":"１６弄","HOUSE_NO":"７７號","E_COORD97":178125.10999999999,"N_COORD97":2578389,"ADDRESS":"復興路６２０巷１６弄７７號","OBJECTID":140894},"geometry":{"x":178125.11000000127,"y":2578389.0000000037}},{"attributes":{"ID":140895,"DIS_CODE":0,"TOWNNAME":"南化區","LI":"南化里","LIN":" ","STREET":" ","SECT":" ","MAREA":"南化","LANE":" ","ALLEY":" ","HOUSE_NO":"２５５之２０號","E_COORD97":196529.89000000001,"N_COORD97":2549375.7999999998,"ADDRESS":"南化２５５之２０號","OBJECTID":140895},"geometry":{"x":196529.88999999966,"y":2549375.8000000007}},{"attributes":{"ID":140896,"DIS_CODE":0,"TOWNNAME":"新營區","LI":"新南里","LIN":"22鄰","STREET":"復興路","SECT":" ","MAREA":" ","LANE":"６２０巷","ALLEY":"１６弄","HOUSE_NO":"２１號","E_COORD97":178093.38,"N_COORD97":2578379.1800000002,"ADDRESS":"復興路６２０巷１６弄２１號","OBJECTID":140896},"geometry":{"x":178093.37999999989,"y":2578379.1799999997}},{"attributes":{"ID":140897,"DIS_CODE":0,"TOWNNAME":"新營區","LI":"新南里","LIN":"22鄰","STREET":"復興路","SECT":" ","MAREA":" ","LANE":"６２０巷","ALLEY":"１６弄","HOUSE_NO":"９號","E_COORD97":178060.35999999999,"N_COORD97":2578385.98,"ADDRESS":"復興路６２０巷１６弄９號","OBJECTID":140897},"geometry":{"x":178060.3600000022,"y":2578385.9800000004}},{"attributes":{"ID":140898,"DIS_CODE":0,"TOWNNAME":"新營區","LI":"新南里","LIN":"22鄰","STREET":"復興路","SECT":" ","MAREA":" ","LANE":"６２０巷","ALLEY":"１６弄","HOUSE_NO":"１７號","E_COORD97":178085.14000000001,"N_COORD97":2578380.3300000001,"ADDRESS":"復興路６２０巷１６弄１７號","OBJECTID":140898},"geometry":{"x":178085.1400000006,"y":2578380.3300000038}},{"attributes":{"ID":140899,"DIS_CODE":0,"TOWNNAME":"新營區","LI":"新南里","LIN":"22鄰","STREET":"復興路","SECT":" ","MAREA":" ","LANE":"６２０巷","ALLEY":"１６弄","HOUSE_NO":"４９號","E_COORD97":178112.04000000001,"N_COORD97":2578427.8300000001,"ADDRESS":"復興路６２０巷１６弄４９號","OBJECTID":140899},"geometry":{"x":178112.04000000097,"y":2578427.8300000038}},{"attributes":{"ID":140900,"DIS_CODE":0,"TOWNNAME":"新營區","LI":"新南里","LIN":"22鄰","STREET":"復興路","SECT":" ","MAREA":" ","LANE":"６２０巷","ALLEY":"１６弄","HOUSE_NO":"４３號","E_COORD97":178111.98000000001,"N_COORD97":2578415.6499999999,"ADDRESS":"復興路６２０巷１６弄４３號","OBJECTID":140900},"geometry":{"x":178111.98000000045,"y":2578415.6500000041}},{"attributes":{"ID":140901,"DIS_CODE":0,"TOWNNAME":"新營區","LI":"新南里","LIN":"22鄰","STREET":"復興路","SECT":" ","MAREA":" ","LANE":"６２０巷","ALLEY":"１６弄","HOUSE_NO":"７５號","E_COORD97":178125.12,"N_COORD97":2578393.4199999999,"ADDRESS":"復興路６２０巷１６弄７５號","OBJECTID":140901},"geometry":{"x":178125.12000000104,"y":2578393.4200000018}},{"attributes":{"ID":140902,"DIS_CODE":0,"TOWNNAME":"新營區","LI":"新南里","LIN":"22鄰","STREET":"復興路","SECT":" ","MAREA":" ","LANE":"６２０巷","ALLEY":"１６弄","HOUSE_NO":"６７號","E_COORD97":178125.19,"N_COORD97":2578411.1499999999,"ADDRESS":"復興路６２０巷１６弄６７號","OBJECTID":140902},"geometry":{"x":178125.19000000041,"y":2578411.1500000004}},{"attributes":{"ID":140903,"DIS_CODE":0,"TOWNNAME":"新營區","LI":"新南里","LIN":"22鄰","STREET":"復興路","SECT":" ","MAREA":" ","LANE":"６２０巷","ALLEY":"１６弄","HOUSE_NO":"４１號","E_COORD97":178111.97,"N_COORD97":2578411.2200000002,"ADDRESS":"復興路６２０巷１６弄４１號","OBJECTID":140903},"geometry":{"x":178111.97000000067,"y":2578411.2200000007}},{"attributes":{"ID":140904,"DIS_CODE":0,"TOWNNAME":"新營區","LI":"新南里","LIN":"22鄰","STREET":"復興路","SECT":" ","MAREA":" ","LANE":"６２０巷","ALLEY":"１６弄","HOUSE_NO":"１９號","E_COORD97":178089.23000000001,"N_COORD97":2578380.3100000001,"ADDRESS":"復興路６２０巷１６弄１９號","OBJECTID":140904},"geometry":{"x":178089.23000000138,"y":2578380.3100000005}},{"attributes":{"ID":140905,"DIS_CODE":0,"TOWNNAME":"永康區","LI":"正強里","LIN":"33鄰","STREET":"埔園街","SECT":" ","MAREA":" ","LANE":" ","ALLEY":" ","HOUSE_NO":"３９８號","E_COORD97":173327.56,"N_COORD97":2548153.21,"ADDRESS":"埔園街３９８號","OBJECTID":140905},"geometry":{"x":173327.56000000052,"y":2548153.2100000046}},{"attributes":{"ID":140906,"DIS_CODE":0,"TOWNNAME":"南化區","LI":"東和里","LIN":" ","STREET":" ","SECT":" ","MAREA":"東和","LANE":" ","ALLEY":" ","HOUSE_NO":"９２之１號","E_COORD97":198269.76999999999,"N_COORD97":2547176.7999999998,"ADDRESS":"東和９２之１號","OBJECTID":140906},"geometry":{"x":198269.76999999955,"y":2547176.8000000026}},{"attributes":{"ID":140907,"DIS_CODE":0,"TOWNNAME":"南化區","LI":"北寮里","LIN":"1鄰","STREET":" ","SECT":" ","MAREA":"北寮","LANE":" ","ALLEY":" ","HOUSE_NO":"１之５１號","E_COORD97":198286.59,"N_COORD97":2552695.7999999998,"ADDRESS":"北寮１之５１號","OBJECTID":140907},"geometry":{"x":198286.58999999985,"y":2552695.8000000045}},{"attributes":{"ID":140908,"DIS_CODE":0,"TOWNNAME":"南化區","LI":"北寮里","LIN":"4鄰","STREET":" ","SECT":" ","MAREA":"北寮","LANE":" ","ALLEY":" ","HOUSE_NO":"４８之１２號","E_COORD97":197657.94,"N_COORD97":2553044.7999999998,"ADDRESS":"北寮４８之１２號","OBJECTID":140908},"geometry":{"x":197657.94000000227,"y":2553044.8000000045}},{"attributes":{"ID":140909,"DIS_CODE":0,"TOWNNAME":"南化區","LI":"南化里","LIN":" ","STREET":" ","SECT":" ","MAREA":"南化","LANE":" ","ALLEY":" ","HOUSE_NO":"１７４之４號","E_COORD97":196484.54000000001,"N_COORD97":2549053.7999999998,"ADDRESS":"南化１７４之４號","OBJECTID":140909},"geometry":{"x":196484.54000000097,"y":2549053.8000000007}},{"attributes":{"ID":140910,"DIS_CODE":0,"TOWNNAME":"南化區","LI":"玉山里","LIN":" ","STREET":" ","SECT":" ","MAREA":"玉山","LANE":" ","ALLEY":" ","HOUSE_NO":"９２號","E_COORD97":200706.47,"N_COORD97":2552836.75,"ADDRESS":"玉山９２號","OBJECTID":140910},"geometry":{"x":200706.46999999974,"y":2552836.75}},{"attributes":{"ID":140911,"DIS_CODE":0,"TOWNNAME":"南化區","LI":"玉山里","LIN":" ","STREET":" ","SECT":" ","MAREA":"玉山","LANE":" ","ALLEY":" ","HOUSE_NO":"９８號","E_COORD97":200118.17000000001,"N_COORD97":2553006.75,"ADDRESS":"玉山９８號","OBJECTID":140911},"geometry":{"x":200118.16999999993,"y":2553006.75}},{"attributes":{"ID":140912,"DIS_CODE":0,"TOWNNAME":"南化區","LI":"南化里","LIN":" ","STREET":" ","SECT":" ","MAREA":"南化","LANE":" ","ALLEY":" ","HOUSE_NO":"３１之１９號","E_COORD97":195778.84,"N_COORD97":2549396.7999999998,"ADDRESS":"南化３１之１９號","OBJECTID":140912},"geometry":{"x":195778.84000000078,"y":2549396.8000000045}},{"attributes":{"ID":140913,"DIS_CODE":0,"TOWNNAME":"新營區","LI":"新南里","LIN":"22鄰","STREET":"復興路","SECT":" ","MAREA":" ","LANE":"６２０巷","ALLEY":"１６弄","HOUSE_NO":"４５號","E_COORD97":178112.01000000001,"N_COORD97":2578420.0699999998,"ADDRESS":"復興路６２０巷１６弄４５號","OBJECTID":140913},"geometry":{"x":178112.01000000071,"y":2578420.0700000022}},{"attributes":{"ID":140914,"DIS_CODE":0,"TOWNNAME":"新營區","LI":"新南里","LIN":"22鄰","STREET":"復興路","SECT":" ","MAREA":" ","LANE":"６２０巷","ALLEY":"１６弄","HOUSE_NO":"２７號","E_COORD97":178111.79999999999,"N_COORD97":2578380.2000000002,"ADDRESS":"復興路６２０巷１６弄２７號","OBJECTID":140914},"geometry":{"x":178111.80000000075,"y":2578380.200000003}},{"attributes":{"ID":140915,"DIS_CODE":0,"TOWNNAME":"新營區","LI":"新南里","LIN":"22鄰","STREET":"復興路","SECT":" ","MAREA":" ","LANE":"６２０巷","ALLEY":"１６弄","HOUSE_NO":"４７號","E_COORD97":178112.03,"N_COORD97":2578423.3999999999,"ADDRESS":"復興路６２０巷１６弄４７號","OBJECTID":140915},"geometry":{"x":178112.03000000119,"y":2578423.4000000004}},{"attributes":{"ID":140916,"DIS_CODE":0,"TOWNNAME":"新營區","LI":"新南里","LIN":"22鄰","STREET":"復興路","SECT":" ","MAREA":" ","LANE":"６２０巷","ALLEY":"１６弄","HOUSE_NO":"８１號","E_COORD97":178126.13,"N_COORD97":2578381.2400000002,"ADDRESS":"復興路６２０巷１６弄８１號","OBJECTID":140916},"geometry":{"x":178126.13000000082,"y":2578381.2400000021}},{"attributes":{"ID":140917,"DIS_CODE":0,"TOWNNAME":"新營區","LI":"新南里","LIN":"22鄰","STREET":"復興路","SECT":" ","MAREA":" ","LANE":"６２０巷","ALLEY":"１６弄","HOUSE_NO":"１５號","E_COORD97":178074.92999999999,"N_COORD97":2578383.7000000002,"ADDRESS":"復興路６２０巷１６弄１５號","OBJECTID":140917},"geometry":{"x":178074.93000000063,"y":2578383.700000003}},{"attributes":{"ID":140918,"DIS_CODE":0,"TOWNNAME":"新營區","LI":"新南里","LIN":"22鄰","STREET":"復興路","SECT":" ","MAREA":" ","LANE":"６２０巷","ALLEY":"１６弄","HOUSE_NO":"７９號","E_COORD97":178126.10000000001,"N_COORD97":2578384.5600000001,"ADDRESS":"復興路６２０巷１６弄７９號","OBJECTID":140918},"geometry":{"x":178126.10000000056,"y":2578384.5600000005}},{"attributes":{"ID":140919,"DIS_CODE":0,"TOWNNAME":"新營區","LI":"新南里","LIN":"22鄰","STREET":"復興路","SECT":" ","MAREA":" ","LANE":"６２０巷","ALLEY":"１６弄","HOUSE_NO":"２３號","E_COORD97":178097.47,"N_COORD97":2578376.9500000002,"ADDRESS":"復興路６２０巷１６弄２３號","OBJECTID":140919},"geometry":{"x":178097.46999999974,"y":2578376.9499999993}},{"attributes":{"ID":140920,"DIS_CODE":0,"TOWNNAME":"新營區","LI":"新南里","LIN":"22鄰","STREET":"復興路","SECT":" ","MAREA":" ","LANE":"６２０巷","ALLEY":"１６弄","HOUSE_NO":"６１號","E_COORD97":178126.26999999999,"N_COORD97":2578424.4300000002,"ADDRESS":"復興路６２０巷１６弄６１號","OBJECTID":140920},"geometry":{"x":178126.27000000142,"y":2578424.4300000016}},{"attributes":{"ID":140921,"DIS_CODE":0,"TOWNNAME":"新營區","LI":"新南里","LIN":"22鄰","STREET":"復興路","SECT":" ","MAREA":" ","LANE":"６２０巷","ALLEY":"１６弄","HOUSE_NO":"６９號","E_COORD97":178125.17000000001,"N_COORD97":2578406.71,"ADDRESS":"復興路６２０巷１６弄６９號","OBJECTID":140921},"geometry":{"x":178125.16999999993,"y":2578406.7100000028}},{"attributes":{"ID":140922,"DIS_CODE":0,"TOWNNAME":"新營區","LI":"新南里","LIN":"22鄰","STREET":"復興路","SECT":" ","MAREA":" ","LANE":"６２０巷","ALLEY":"３８弄","HOUSE_NO":"２６號","E_COORD97":178100.94,"N_COORD97":2578459.9900000002,"ADDRESS":"復興路６２０巷３８弄２６號","OBJECTID":140922},"geometry":{"x":178100.94000000134,"y":2578459.9900000002}},{"attributes":{"ID":140923,"DIS_CODE":0,"TOWNNAME":"新營區","LI":"南紙里","LIN":"22鄰","STREET":"建業路","SECT":" ","MAREA":" ","LANE":"１９３巷","ALLEY":"１０弄","HOUSE_NO":"１０號","E_COORD97":178158.47,"N_COORD97":2577472.9700000002,"ADDRESS":"建業路１９３巷１０弄１０號","OBJECTID":140923},"geometry":{"x":178158.46999999974,"y":2577472.9700000007}},{"attributes":{"ID":140924,"DIS_CODE":0,"TOWNNAME":"新營區","LI":"新南里","LIN":"22鄰","STREET":"復興路","SECT":" ","MAREA":" ","LANE":"６２０巷","ALLEY":"１６弄","HOUSE_NO":"６３號","E_COORD97":178126.26000000001,"N_COORD97":2578420.0099999998,"ADDRESS":"復興路６２０巷１６弄６３號","OBJECTID":140924},"geometry":{"x":178126.25999999978,"y":2578420.0100000016}},{"attributes":{"ID":140925,"DIS_CODE":0,"TOWNNAME":"安平區","LI":"平通里","LIN":"22鄰","STREET":"育平九街","SECT":" ","MAREA":" ","LANE":"３７２巷","ALLEY":"１４１弄","HOUSE_NO":"４３號","E_COORD97":164466.91,"N_COORD97":2544089.5600000001,"ADDRESS":"育平九街３７２巷１４１弄４３號","OBJECTID":140925},"geometry":{"x":164466.91000000015,"y":2544089.5600000024}},{"attributes":{"ID":140926,"DIS_CODE":0,"TOWNNAME":"安平區","LI":"平通里","LIN":"22鄰","STREET":"育平九街","SECT":" ","MAREA":" ","LANE":"３７２巷","ALLEY":"１４１弄","HOUSE_NO":"１５號","E_COORD97":164562.37,"N_COORD97":2544085.8199999998,"ADDRESS":"育平九街３７２巷１４１弄１５號","OBJECTID":140926},"geometry":{"x":164562.37000000011,"y":2544085.8200000003}},{"attributes":{"ID":140927,"DIS_CODE":0,"TOWNNAME":"永康區","LI":"永康里","LIN":"33鄰","STREET":"永大路","SECT":"二段","MAREA":" ","LANE":" ","ALLEY":" ","HOUSE_NO":"１３５０號","E_COORD97":174299.57999999999,"N_COORD97":2546969.7799999998,"ADDRESS":"永大路二段１３５０號","OBJECTID":140927},"geometry":{"x":174299.58000000007,"y":2546969.7799999993}},{"attributes":{"ID":140928,"DIS_CODE":0,"TOWNNAME":"永康區","LI":"正強里","LIN":"33鄰","STREET":"埔園街","SECT":" ","MAREA":" ","LANE":" ","ALLEY":" ","HOUSE_NO":"３３９號","E_COORD97":173270.34,"N_COORD97":2548115.9900000002,"ADDRESS":"埔園街３３９號","OBJECTID":140928},"geometry":{"x":173270.33999999985,"y":2548115.9900000002}},{"attributes":{"ID":140929,"DIS_CODE":0,"TOWNNAME":"永康區","LI":"勝利里","LIN":"33鄰","STREET":"中華路","SECT":" ","MAREA":" ","LANE":" ","ALLEY":" ","HOUSE_NO":"１號之９９","E_COORD97":171501.94,"N_COORD97":2544353.0499999998,"ADDRESS":"中華路１號之９９","OBJECTID":140929},"geometry":{"x":171501.94000000134,"y":2544353.0500000007}},{"attributes":{"ID":140930,"DIS_CODE":0,"TOWNNAME":"永康區","LI":"北灣里","LIN":"33鄰","STREET":"大灣路","SECT":" ","MAREA":" ","LANE":" ","ALLEY":" ","HOUSE_NO":"５９號","E_COORD97":175253.51999999999,"N_COORD97":2545753.6699999999,"ADDRESS":"大灣路５９號","OBJECTID":140930},"geometry":{"x":175253.52000000048,"y":2545753.6700000018}},{"attributes":{"ID":140931,"DIS_CODE":0,"TOWNNAME":"永康區","LI":"勝利里","LIN":"33鄰","STREET":"中華路","SECT":" ","MAREA":" ","LANE":" ","ALLEY":" ","HOUSE_NO":"１號之１５０","E_COORD97":171503.16,"N_COORD97":2544353.0499999998,"ADDRESS":"中華路１號之１５０","OBJECTID":140931},"geometry":{"x":171503.16000000108,"y":2544353.0500000007}},{"attributes":{"ID":140932,"DIS_CODE":0,"TOWNNAME":"南區","LI":"永寧里","LIN":"22鄰","STREET":"灣裡路","SECT":" ","MAREA":" ","LANE":"３５１巷","ALLEY":"１５弄","HOUSE_NO":"１３號","E_COORD97":166209.87,"N_COORD97":2536271.9399999999,"ADDRESS":"灣裡路３５１巷１５弄１３號","OBJECTID":140932},"geometry":{"x":166209.87000000011,"y":2536271.9400000013}},{"attributes":{"ID":140933,"DIS_CODE":0,"TOWNNAME":"南區","LI":"永寧里","LIN":"22鄰","STREET":"灣裡路","SECT":" ","MAREA":" ","LANE":"３５１巷","ALLEY":"１５弄","HOUSE_NO":"１４號","E_COORD97":166228.56,"N_COORD97":2536277.1899999999,"ADDRESS":"灣裡路３５１巷１５弄１４號","OBJECTID":140933},"geometry":{"x":166228.55999999959,"y":2536277.1899999995}},{"attributes":{"ID":140934,"DIS_CODE":0,"TOWNNAME":"南區","LI":"永寧里","LIN":"22鄰","STREET":"灣裡路","SECT":" ","MAREA":" ","LANE":"３５１巷","ALLEY":"１５弄","HOUSE_NO":"１４號之１","E_COORD97":166227.28,"N_COORD97":2536282.4399999999,"ADDRESS":"灣裡路３５１巷１５弄１４號之１","OBJECTID":140934},"geometry":{"x":166227.28000000119,"y":2536282.4399999995}},{"attributes":{"ID":140935,"DIS_CODE":0,"TOWNNAME":"南區","LI":"永寧里","LIN":"22鄰","STREET":"灣裡路","SECT":" ","MAREA":" ","LANE":"３５１巷","ALLEY":"１５弄","HOUSE_NO":"１５號","E_COORD97":166209.63,"N_COORD97":2536276.6099999999,"ADDRESS":"灣裡路３５１巷１５弄１５號","OBJECTID":140935},"geometry":{"x":166209.62999999989,"y":2536276.6100000013}},{"attributes":{"ID":140936,"DIS_CODE":0,"TOWNNAME":"南區","LI":"永寧里","LIN":"22鄰","STREET":"灣裡路","SECT":" ","MAREA":" ","LANE":"３５１巷","ALLEY":"１５弄","HOUSE_NO":"１７號","E_COORD97":166208.35000000001,"N_COORD97":2536281.5099999998,"ADDRESS":"灣裡路３５１巷１５弄１７號","OBJECTID":140936},"geometry":{"x":166208.34999999963,"y":2536281.5100000016}},{"attributes":{"ID":140937,"DIS_CODE":0,"TOWNNAME":"永康區","LI":"北灣里","LIN":"33鄰","STREET":"大灣路","SECT":" ","MAREA":" ","LANE":" ","ALLEY":" ","HOUSE_NO":"８７號","E_COORD97":175211.12,"N_COORD97":2545654.3500000001,"ADDRESS":"大灣路８７號","OBJECTID":140937},"geometry":{"x":175211.12000000104,"y":2545654.3499999996}},{"attributes":{"ID":140938,"DIS_CODE":0,"TOWNNAME":"南區","LI":"省躬里","LIN":" ","STREET":"灣裡路","SECT":" ","MAREA":" ","LANE":" ","ALLEY":" ","HOUSE_NO":"１２６號","E_COORD97":166002.88,"N_COORD97":2536777.2400000002,"ADDRESS":"灣裡路１２６號","OBJECTID":140938},"geometry":{"x":166002.87999999989,"y":2536777.2400000002}},{"attributes":{"ID":140939,"DIS_CODE":0,"TOWNNAME":"南化區","LI":"南化里","LIN":" ","STREET":" ","SECT":" ","MAREA":"南化","LANE":" ","ALLEY":" ","HOUSE_NO":"６０號","E_COORD97":196334.29000000001,"N_COORD97":2549174.75,"ADDRESS":"南化６０號","OBJECTID":140939},"geometry":{"x":196334.29000000004,"y":2549174.75}},{"attributes":{"ID":140940,"DIS_CODE":0,"TOWNNAME":"南化區","LI":"小崙里","LIN":" ","STREET":" ","SECT":" ","MAREA":"小崙","LANE":" ","ALLEY":" ","HOUSE_NO":"１之２８號","E_COORD97":196849.97,"N_COORD97":2549502.7999999998,"ADDRESS":"小崙１之２８號","OBJECTID":140940},"geometry":{"x":196849.96999999881,"y":2549502.8000000026}},{"attributes":{"ID":140941,"DIS_CODE":0,"TOWNNAME":"南化區","LI":"西埔里","LIN":" ","STREET":" ","SECT":" ","MAREA":"西埔","LANE":" ","ALLEY":" ","HOUSE_NO":"１１７號","E_COORD97":193183.29000000001,"N_COORD97":2549506.75,"ADDRESS":"西埔１１７號","OBJECTID":140941},"geometry":{"x":193183.2900000019,"y":2549506.75}},{"attributes":{"ID":140942,"DIS_CODE":0,"TOWNNAME":"南化區","LI":"北寮里","LIN":" ","STREET":" ","SECT":" ","MAREA":"北寮","LANE":" ","ALLEY":" ","HOUSE_NO":"３１之２號","E_COORD97":197728.09,"N_COORD97":2553088.7999999998,"ADDRESS":"北寮３１之２號","OBJECTID":140942},"geometry":{"x":197728.09000000078,"y":2553088.8000000045}},{"attributes":{"ID":140943,"DIS_CODE":0,"TOWNNAME":"南化區","LI":"北寮里","LIN":" ","STREET":" ","SECT":" ","MAREA":"北寮","LANE":" ","ALLEY":" ","HOUSE_NO":"１０號","E_COORD97":197817.39000000001,"N_COORD97":2553050.75,"ADDRESS":"北寮１０號","OBJECTID":140943},"geometry":{"x":197817.3900000006,"y":2553050.75}},{"attributes":{"ID":140944,"DIS_CODE":0,"TOWNNAME":"南化區","LI":"北寮里","LIN":" ","STREET":" ","SECT":" ","MAREA":"北寮","LANE":" ","ALLEY":" ","HOUSE_NO":"３１之３號","E_COORD97":197723.09,"N_COORD97":2553099.7999999998,"ADDRESS":"北寮３１之３號","OBJECTID":140944},"geometry":{"x":197723.09000000078,"y":2553099.8000000026}},{"attributes":{"ID":140945,"DIS_CODE":0,"TOWNNAME":"永康區","LI":"埔園里","LIN":"33鄰","STREET":"自強路","SECT":" ","MAREA":" ","LANE":" ","ALLEY":" ","HOUSE_NO":"５６７號之１","E_COORD97":174004.12,"N_COORD97":2548134.3399999999,"ADDRESS":"自強路５６７號之１","OBJECTID":140945},"geometry":{"x":174004.12000000104,"y":2548134.3400000036}},{"attributes":{"ID":140946,"DIS_CODE":0,"TOWNNAME":"南區","LI":"永寧里","LIN":"22鄰","STREET":"灣裡路","SECT":" ","MAREA":" ","LANE":"３５１巷","ALLEY":"１５弄","HOUSE_NO":"１８號","E_COORD97":166224,"N_COORD97":2536291.7799999998,"ADDRESS":"灣裡路３５１巷１５弄１８號","OBJECTID":140946},"geometry":{"x":166224,"y":2536291.7800000031}},{"attributes":{"ID":140947,"DIS_CODE":0,"TOWNNAME":"南區","LI":"永寧里","LIN":"22鄰","STREET":"灣裡路","SECT":" ","MAREA":" ","LANE":"３５１巷","ALLEY":"１５弄","HOUSE_NO":"１９號","E_COORD97":166208,"N_COORD97":2536286.2999999998,"ADDRESS":"灣裡路３５１巷１５弄１９號","OBJECTID":140947},"geometry":{"x":166208.00000000186,"y":2536286.3000000045}},{"attributes":{"ID":140948,"DIS_CODE":0,"TOWNNAME":"南區","LI":"永寧里","LIN":"22鄰","STREET":"灣裡路","SECT":" ","MAREA":" ","LANE":"３５１巷","ALLEY":"１５弄","HOUSE_NO":"２０號","E_COORD97":166222.95000000001,"N_COORD97":2536298.5499999998,"ADDRESS":"灣裡路３５１巷１５弄２０號","OBJECTID":140948},"geometry":{"x":166222.95000000019,"y":2536298.5500000026}},{"attributes":{"ID":140949,"DIS_CODE":0,"TOWNNAME":"南區","LI":"永寧里","LIN":"22鄰","STREET":"灣裡路","SECT":" ","MAREA":" ","LANE":"３５１巷","ALLEY":"１５弄","HOUSE_NO":"２５號","E_COORD97":166207.06,"N_COORD97":2536290.2599999998,"ADDRESS":"灣裡路３５１巷１５弄２５號","OBJECTID":140949},"geometry":{"x":166207.06000000145,"y":2536290.2600000016}},{"attributes":{"ID":140950,"DIS_CODE":0,"TOWNNAME":"中西區","LI":"銀同里","LIN":"13鄰","STREET":"開山路","SECT":" ","MAREA":" ","LANE":"３５巷","ALLEY":"１弄","HOUSE_NO":"１１號","E_COORD97":168685.79000000001,"N_COORD97":2543536.6200000001,"ADDRESS":"開山路３５巷１弄１１號","OBJECTID":140950},"geometry":{"x":168685.79000000004,"y":2543536.6200000029}},{"attributes":{"ID":140951,"DIS_CODE":0,"TOWNNAME":"中西區","LI":"銀同里","LIN":"13鄰","STREET":"開山路","SECT":" ","MAREA":" ","LANE":"３５巷","ALLEY":"１弄","HOUSE_NO":"１號","E_COORD97":168670.19,"N_COORD97":2543539.3999999999,"ADDRESS":"開山路３５巷１弄１號","OBJECTID":140951},"geometry":{"x":168670.19000000227,"y":2543539.4000000004}},{"attributes":{"ID":140952,"DIS_CODE":0,"TOWNNAME":"中西區","LI":"銀同里","LIN":"13鄰","STREET":"開山路","SECT":" ","MAREA":" ","LANE":"３５巷","ALLEY":"１弄","HOUSE_NO":"３號","E_COORD97":168676.82999999999,"N_COORD97":2543537.0800000001,"ADDRESS":"開山路３５巷１弄３號","OBJECTID":140952},"geometry":{"x":168676.83000000007,"y":2543537.0800000019}},{"attributes":{"ID":140953,"DIS_CODE":0,"TOWNNAME":"仁德區","LI":"後壁里","LIN":"33鄰","STREET":"民安路","SECT":"一段","MAREA":" ","LANE":" ","ALLEY":" ","HOUSE_NO":"１３２號之１","E_COORD97":172166.75,"N_COORD97":2539885.0600000001,"ADDRESS":"民安路一段１３２號之１","OBJECTID":140953},"geometry":{"x":172166.75000000093,"y":2539885.0600000024}},{"attributes":{"ID":140954,"DIS_CODE":0,"TOWNNAME":"南區","LI":"大忠里","LIN":"22鄰","STREET":"中華南路","SECT":"一段","MAREA":" ","LANE":"１２５巷","ALLEY":"１２弄","HOUSE_NO":"１０號","E_COORD97":169180.12,"N_COORD97":2541207.46,"ADDRESS":"中華南路一段１２５巷１２弄１０號","OBJECTID":140954},"geometry":{"x":169180.12000000011,"y":2541207.4600000009}},{"attributes":{"ID":140955,"DIS_CODE":0,"TOWNNAME":"南區","LI":"大忠里","LIN":"22鄰","STREET":"中華南路","SECT":"一段","MAREA":" ","LANE":"１２５巷","ALLEY":"１２弄","HOUSE_NO":"１１號","E_COORD97":169178.23000000001,"N_COORD97":2541186.3500000001,"ADDRESS":"中華南路一段１２５巷１２弄１１號","OBJECTID":140955},"geometry":{"x":169178.23000000045,"y":2541186.3499999996}},{"attributes":{"ID":140956,"DIS_CODE":0,"TOWNNAME":"南區","LI":"大忠里","LIN":"22鄰","STREET":"中華南路","SECT":"一段","MAREA":" ","LANE":"１２５巷","ALLEY":"１２弄","HOUSE_NO":"１２號","E_COORD97":169175.5,"N_COORD97":2541206.7400000002,"ADDRESS":"中華南路一段１２５巷１２弄１２號","OBJECTID":140956},"geometry":{"x":169175.5,"y":2541206.7400000021}},{"attributes":{"ID":140957,"DIS_CODE":0,"TOWNNAME":"仁德區","LI":"後壁里","LIN":"33鄰","STREET":"民安路","SECT":"一段","MAREA":" ","LANE":" ","ALLEY":" ","HOUSE_NO":"１３２號之４","E_COORD97":172158.53,"N_COORD97":2539930.5699999998,"ADDRESS":"民安路一段１３２號之４","OBJECTID":140957},"geometry":{"x":172158.53000000119,"y":2539930.5700000003}},{"attributes":{"ID":140958,"DIS_CODE":0,"TOWNNAME":"南區","LI":"大忠里","LIN":"22鄰","STREET":"中華南路","SECT":"一段","MAREA":" ","LANE":"１２５巷","ALLEY":"１２弄","HOUSE_NO":"１３號","E_COORD97":169173.53,"N_COORD97":2541185.4199999999,"ADDRESS":"中華南路一段１２５巷１２弄１３號","OBJECTID":140958},"geometry":{"x":169173.53000000119,"y":2541185.4199999999}},{"attributes":{"ID":140959,"DIS_CODE":0,"TOWNNAME":"仁德區","LI":"仁愛里","LIN":"28鄰","STREET":"大同路","SECT":"三段","MAREA":" ","LANE":"３５８巷","ALLEY":" ","HOUSE_NO":"５０號","E_COORD97":169717.57000000001,"N_COORD97":2539433.4199999999,"ADDRESS":"大同路三段３５８巷５０號","OBJECTID":140959},"geometry":{"x":169717.57000000123,"y":2539433.4199999999}},{"attributes":{"ID":140960,"DIS_CODE":0,"TOWNNAME":"南化區","LI":"南化里","LIN":" ","STREET":" ","SECT":" ","MAREA":"南化","LANE":" ","ALLEY":" ","HOUSE_NO":"１６８號","E_COORD97":196401.84,"N_COORD97":2549072.75,"ADDRESS":"南化１６８號","OBJECTID":140960},"geometry":{"x":196401.84000000171,"y":2549072.75}},{"attributes":{"ID":140961,"DIS_CODE":0,"TOWNNAME":"南化區","LI":"南化里","LIN":" ","STREET":" ","SECT":" ","MAREA":"南化","LANE":" ","ALLEY":" ","HOUSE_NO":"１８５號","E_COORD97":196483.34,"N_COORD97":2549116.75,"ADDRESS":"南化１８５號","OBJECTID":140961},"geometry":{"x":196483.34000000171,"y":2549116.75}},{"attributes":{"ID":140962,"DIS_CODE":0,"TOWNNAME":"南化區","LI":"南化里","LIN":" ","STREET":" ","SECT":" ","MAREA":"南化","LANE":" ","ALLEY":" ","HOUSE_NO":"４７之１２號","E_COORD97":196203.14000000001,"N_COORD97":2549271.7999999998,"ADDRESS":"南化４７之１２號","OBJECTID":140962},"geometry":{"x":196203.1400000006,"y":2549271.8000000026}},{"attributes":{"ID":140963,"DIS_CODE":0,"TOWNNAME":"南化區","LI":"南化里","LIN":" ","STREET":" ","SECT":" ","MAREA":"南化","LANE":" ","ALLEY":" ","HOUSE_NO":"２５０之３９號","E_COORD97":196490.29000000001,"N_COORD97":2549339.7999999998,"ADDRESS":"南化２５０之３９號","OBJECTID":140963},"geometry":{"x":196490.29000000004,"y":2549339.8000000026}},{"attributes":{"ID":140964,"DIS_CODE":0,"TOWNNAME":"仁德區","LI":"後壁里","LIN":"33鄰","STREET":"民安路","SECT":"一段","MAREA":" ","LANE":" ","ALLEY":" ","HOUSE_NO":"３２號","E_COORD97":171942.97,"N_COORD97":2540026.0699999998,"ADDRESS":"民安路一段３２號","OBJECTID":140964},"geometry":{"x":171942.97000000067,"y":2540026.0700000003}},{"attributes":{"ID":140965,"DIS_CODE":0,"TOWNNAME":"仁德區","LI":"後壁里","LIN":"33鄰","STREET":"民安路","SECT":"一段","MAREA":" ","LANE":" ","ALLEY":" ","HOUSE_NO":"２１２號","E_COORD97":172586.48000000001,"N_COORD97":2539791.0699999998,"ADDRESS":"民安路一段２１２號","OBJECTID":140965},"geometry":{"x":172586.48000000138,"y":2539791.0700000022}},{"attributes":{"ID":140966,"DIS_CODE":0,"TOWNNAME":"仁德區","LI":"後壁里","LIN":"33鄰","STREET":"民安路","SECT":"一段","MAREA":" ","LANE":" ","ALLEY":" ","HOUSE_NO":"２１６號","E_COORD97":172593.01999999999,"N_COORD97":2539808.0699999998,"ADDRESS":"民安路一段２１６號","OBJECTID":140966},"geometry":{"x":172593.02000000142,"y":2539808.0700000022}},{"attributes":{"ID":140967,"DIS_CODE":0,"TOWNNAME":"仁德區","LI":"太子里","LIN":"33鄰","STREET":"太興路","SECT":" ","MAREA":" ","LANE":" ","ALLEY":" ","HOUSE_NO":"６１號","E_COORD97":174039.94,"N_COORD97":2543397.2599999998,"ADDRESS":"太興路６１號","OBJECTID":140967},"geometry":{"x":174039.94000000041,"y":2543397.2599999998}},{"attributes":{"ID":140968,"DIS_CODE":0,"TOWNNAME":"南化區","LI":"玉山里","LIN":" ","STREET":" ","SECT":" ","MAREA":"玉山","LANE":" ","ALLEY":" ","HOUSE_NO":"１３９號","E_COORD97":202581.12,"N_COORD97":2553940.75,"ADDRESS":"玉山１３９號","OBJECTID":140968},"geometry":{"x":202581.12000000104,"y":2553940.7500000019}},{"attributes":{"ID":140969,"DIS_CODE":0,"TOWNNAME":"仁德區","LI":"後壁里","LIN":"33鄰","STREET":"民安路","SECT":"一段","MAREA":" ","LANE":" ","ALLEY":" ","HOUSE_NO":"７０號","E_COORD97":172018.76000000001,"N_COORD97":2539978.5,"ADDRESS":"民安路一段７０號","OBJECTID":140969},"geometry":{"x":172018.76000000164,"y":2539978.5}},{"attributes":{"ID":140970,"DIS_CODE":0,"TOWNNAME":"南化區","LI":"南化里","LIN":" ","STREET":" ","SECT":" ","MAREA":"南化","LANE":" ","ALLEY":" ","HOUSE_NO":"２９６號","E_COORD97":198773.14000000001,"N_COORD97":2548064.75,"ADDRESS":"南化２９６號","OBJECTID":140970},"geometry":{"x":198773.1400000006,"y":2548064.7500000019}},{"attributes":{"ID":140971,"DIS_CODE":0,"TOWNNAME":"南化區","LI":"西埔里","LIN":" ","STREET":" ","SECT":" ","MAREA":"西埔","LANE":" ","ALLEY":" ","HOUSE_NO":"１３２號","E_COORD97":193262.09,"N_COORD97":2549606.75,"ADDRESS":"西埔１３２號","OBJECTID":140971},"geometry":{"x":193262.08999999985,"y":2549606.7500000037}},{"attributes":{"ID":140972,"DIS_CODE":0,"TOWNNAME":"南化區","LI":"北寮里","LIN":" ","STREET":" ","SECT":" ","MAREA":"北寮","LANE":" ","ALLEY":" ","HOUSE_NO":"２０號","E_COORD97":197781.79000000001,"N_COORD97":2553083.75,"ADDRESS":"北寮２０號","OBJECTID":140972},"geometry":{"x":197781.79000000004,"y":2553083.75}},{"attributes":{"ID":140973,"DIS_CODE":0,"TOWNNAME":"南化區","LI":"西埔里","LIN":" ","STREET":" ","SECT":" ","MAREA":"西埔","LANE":" ","ALLEY":" ","HOUSE_NO":"１４９號","E_COORD97":193175.98999999999,"N_COORD97":2549590.75,"ADDRESS":"西埔１４９號","OBJECTID":140973},"geometry":{"x":193175.99000000115,"y":2549590.7500000019}},{"attributes":{"ID":140974,"DIS_CODE":0,"TOWNNAME":"南化區","LI":"西埔里","LIN":" ","STREET":" ","SECT":" ","MAREA":"西埔","LANE":" ","ALLEY":" ","HOUSE_NO":"６０之２號","E_COORD97":194315.73999999999,"N_COORD97":2548433.7999999998,"ADDRESS":"西埔６０之２號","OBJECTID":140974},"geometry":{"x":194315.74000000022,"y":2548433.8000000045}},{"attributes":{"ID":140975,"DIS_CODE":0,"TOWNNAME":"南化區","LI":"小崙里","LIN":" ","STREET":" ","SECT":" ","MAREA":"小崙","LANE":" ","ALLEY":" ","HOUSE_NO":"１７之１號","E_COORD97":196155.17000000001,"N_COORD97":2551642.7999999998,"ADDRESS":"小崙１７之１號","OBJECTID":140975},"geometry":{"x":196155.16999999993,"y":2551642.8000000026}},{"attributes":{"ID":140976,"DIS_CODE":0,"TOWNNAME":"南化區","LI":"南化里","LIN":" ","STREET":" ","SECT":" ","MAREA":"南化","LANE":" ","ALLEY":" ","HOUSE_NO":"１８１之１號","E_COORD97":196495.94,"N_COORD97":2549085.7999999998,"ADDRESS":"南化１８１之１號","OBJECTID":140976},"geometry":{"x":196495.94000000041,"y":2549085.8000000026}},{"attributes":{"ID":140977,"DIS_CODE":0,"TOWNNAME":"南化區","LI":"北平里","LIN":" ","STREET":" ","SECT":" ","MAREA":"北平","LANE":" ","ALLEY":" ","HOUSE_NO":"１０之４號","E_COORD97":196513.09,"N_COORD97":2551745.7999999998,"ADDRESS":"北平１０之４號","OBJECTID":140977},"geometry":{"x":196513.08999999985,"y":2551745.8000000007}},{"attributes":{"ID":140978,"DIS_CODE":0,"TOWNNAME":"官田區","LI":"渡頭里","LIN":"33鄰","STREET":" ","SECT":" ","MAREA":"三塊厝","LANE":" ","ALLEY":" ","HOUSE_NO":"３００號","E_COORD97":183552.31,"N_COORD97":2561805.1499999999,"ADDRESS":"三塊厝３００號","OBJECTID":140978},"geometry":{"x":183552.31000000145,"y":2561805.1500000004}},{"attributes":{"ID":140979,"DIS_CODE":0,"TOWNNAME":"南區","LI":"大忠里","LIN":"22鄰","STREET":"中華南路","SECT":"一段","MAREA":" ","LANE":"１２５巷","ALLEY":"１２弄","HOUSE_NO":"１４號","E_COORD97":169170.63,"N_COORD97":2541206.25,"ADDRESS":"中華南路一段１２５巷１２弄１４號","OBJECTID":140979},"geometry":{"x":169170.63000000082,"y":2541206.2500000019}},{"attributes":{"ID":140980,"DIS_CODE":0,"TOWNNAME":"南區","LI":"大忠里","LIN":"22鄰","STREET":"中華南路","SECT":"一段","MAREA":" ","LANE":"１２５巷","ALLEY":"１２弄","HOUSE_NO":"１５號","E_COORD97":169169.45999999999,"N_COORD97":2541184.79,"ADDRESS":"中華南路一段１２５巷１２弄１５號","OBJECTID":140980},"geometry":{"x":169169.45999999996,"y":2541184.790000001}},{"attributes":{"ID":140981,"DIS_CODE":0,"TOWNNAME":"南區","LI":"大忠里","LIN":"22鄰","STREET":"中華南路","SECT":"一段","MAREA":" ","LANE":"１２５巷","ALLEY":"１２弄","HOUSE_NO":"１６號","E_COORD97":169166.01000000001,"N_COORD97":2541204.0699999998,"ADDRESS":"中華南路一段１２５巷１２弄１６號","OBJECTID":140981},"geometry":{"x":169166.01000000071,"y":2541204.0700000022}},{"attributes":{"ID":140982,"DIS_CODE":0,"TOWNNAME":"南區","LI":"大忠里","LIN":"22鄰","STREET":"中華南路","SECT":"一段","MAREA":" ","LANE":"１２５巷","ALLEY":"１２弄","HOUSE_NO":"１號","E_COORD97":169201.10999999999,"N_COORD97":2541189.1600000001,"ADDRESS":"中華南路一段１２５巷１２弄１號","OBJECTID":140982},"geometry":{"x":169201.1099999994,"y":2541189.1600000039}},{"attributes":{"ID":140983,"DIS_CODE":0,"TOWNNAME":"南區","LI":"大忠里","LIN":"22鄰","STREET":"中華南路","SECT":"一段","MAREA":" ","LANE":"１２５巷","ALLEY":"１２弄","HOUSE_NO":"２號","E_COORD97":169198.35999999999,"N_COORD97":2541209.6499999999,"ADDRESS":"中華南路一段１２５巷１２弄２號","OBJECTID":140983},"geometry":{"x":169198.36000000127,"y":2541209.6500000041}},{"attributes":{"ID":140984,"DIS_CODE":0,"TOWNNAME":"南區","LI":"大忠里","LIN":"22鄰","STREET":"中華南路","SECT":"一段","MAREA":" ","LANE":"１２５巷","ALLEY":"１２弄","HOUSE_NO":"３號","E_COORD97":169196.41,"N_COORD97":2541188.23,"ADDRESS":"中華南路一段１２５巷１２弄３號","OBJECTID":140984},"geometry":{"x":169196.41000000108,"y":2541188.2300000004}},{"attributes":{"ID":140985,"DIS_CODE":0,"TOWNNAME":"中西區","LI":"銀同里","LIN":"6鄰","STREET":"開山路","SECT":" ","MAREA":" ","LANE":"３５巷","ALLEY":"３９弄","HOUSE_NO":"３號","E_COORD97":168760.32999999999,"N_COORD97":2543445.0499999998,"ADDRESS":"開山路３５巷３９弄３號","OBJECTID":140985},"geometry":{"x":168760.33000000194,"y":2543445.0500000045}},{"attributes":{"ID":140986,"DIS_CODE":0,"TOWNNAME":"南區","LI":"大忠里","LIN":"22鄰","STREET":"中華南路","SECT":"一段","MAREA":" ","LANE":"１２５巷","ALLEY":"１２弄","HOUSE_NO":"４號","E_COORD97":169193.73999999999,"N_COORD97":2541209.1600000001,"ADDRESS":"中華南路一段１２５巷１２弄４號","OBJECTID":140986},"geometry":{"x":169193.74000000115,"y":2541209.1599999983}},{"attributes":{"ID":140987,"DIS_CODE":0,"TOWNNAME":"南區","LI":"大忠里","LIN":"22鄰","STREET":"中華南路","SECT":"一段","MAREA":" ","LANE":"１２５巷","ALLEY":"１２弄","HOUSE_NO":"５號","E_COORD97":169192.01999999999,"N_COORD97":2541187.9100000001,"ADDRESS":"中華南路一段１２５巷１２弄５號","OBJECTID":140987},"geometry":{"x":169192.01999999955,"y":2541187.910000002}},{"attributes":{"ID":140988,"DIS_CODE":0,"TOWNNAME":"南區","LI":"大忠里","LIN":"22鄰","STREET":"中華南路","SECT":"一段","MAREA":" ","LANE":"１２５巷","ALLEY":"１２弄","HOUSE_NO":"６號","E_COORD97":169189.12,"N_COORD97":2541208.4300000002,"ADDRESS":"中華南路一段１２５巷１２弄６號","OBJECTID":140988},"geometry":{"x":169189.12000000197,"y":2541208.4300000016}},{"attributes":{"ID":140989,"DIS_CODE":0,"TOWNNAME":"左鎮區","LI":"中正里","LIN":" ","STREET":" ","SECT":" ","MAREA":"中正","LANE":" ","ALLEY":" ","HOUSE_NO":"１６１號","E_COORD97":189434.60999999999,"N_COORD97":2550794.25,"ADDRESS":"中正１６１號","OBJECTID":140989},"geometry":{"x":189434.61000000034,"y":2550794.2500000019}},{"attributes":{"ID":140990,"DIS_CODE":0,"TOWNNAME":"南區","LI":"大忠里","LIN":"22鄰","STREET":"中華南路","SECT":"一段","MAREA":" ","LANE":"１２５巷","ALLEY":"１２弄","HOUSE_NO":"７號","E_COORD97":169187.32000000001,"N_COORD97":2541187.6000000001,"ADDRESS":"中華南路一段１２５巷１２弄７號","OBJECTID":140990},"geometry":{"x":169187.3200000003,"y":2541187.5999999996}},{"attributes":{"ID":140991,"DIS_CODE":0,"TOWNNAME":"左鎮區","LI":"中正里","LIN":" ","STREET":" ","SECT":" ","MAREA":"中正","LANE":" ","ALLEY":" ","HOUSE_NO":"１６２之６號","E_COORD97":189484.20999999999,"N_COORD97":2550841.2999999998,"ADDRESS":"中正１６２之６號","OBJECTID":140991},"geometry":{"x":189484.20999999996,"y":2550841.3000000045}},{"attributes":{"ID":140992,"DIS_CODE":0,"TOWNNAME":"南區","LI":"大忠里","LIN":"22鄰","STREET":"中華南路","SECT":"一段","MAREA":" ","LANE":"１２５巷","ALLEY":"１２弄","HOUSE_NO":"８號","E_COORD97":169184.5,"N_COORD97":2541207.9500000002,"ADDRESS":"中華南路一段１２５巷１２弄８號","OBJECTID":140992},"geometry":{"x":169184.5,"y":2541207.9500000011}},{"attributes":{"ID":140993,"DIS_CODE":0,"TOWNNAME":"南區","LI":"大忠里","LIN":"22鄰","STREET":"中華南路","SECT":"一段","MAREA":" ","LANE":"１２５巷","ALLEY":"１２弄","HOUSE_NO":"９號","E_COORD97":169183.25,"N_COORD97":2541186.98,"ADDRESS":"中華南路一段１２５巷１２弄９號","OBJECTID":140993},"geometry":{"x":169183.25000000093,"y":2541186.9800000042}},{"attributes":{"ID":140994,"DIS_CODE":0,"TOWNNAME":"南區","LI":"大忠里","LIN":"22鄰","STREET":"中華南路","SECT":"一段","MAREA":" ","LANE":"１２５巷","ALLEY":"３２弄","HOUSE_NO":"１１號","E_COORD97":169164.28,"N_COORD97":2541115.3799999999,"ADDRESS":"中華南路一段１２５巷３２弄１１號","OBJECTID":140994},"geometry":{"x":169164.27999999933,"y":2541115.3800000008}},{"attributes":{"ID":140995,"DIS_CODE":0,"TOWNNAME":"永康區","LI":"南灣里","LIN":"33鄰","STREET":"南灣街","SECT":" ","MAREA":" ","LANE":"８７巷","ALLEY":" ","HOUSE_NO":"１１號","E_COORD97":174380.41,"N_COORD97":2544896.5,"ADDRESS":"南灣街８７巷１１號","OBJECTID":140995},"geometry":{"x":174380.41000000015,"y":2544896.5000000019}},{"attributes":{"ID":140996,"DIS_CODE":0,"TOWNNAME":"安平區","LI":"金城里","LIN":"15鄰","STREET":"州平三街","SECT":" ","MAREA":" ","LANE":" ","ALLEY":" ","HOUSE_NO":"１３號","E_COORD97":162741.12,"N_COORD97":2544395.9900000002,"ADDRESS":"州平三街１３號","OBJECTID":140996},"geometry":{"x":162741.12000000104,"y":2544395.9900000002}},{"attributes":{"ID":140997,"DIS_CODE":0,"TOWNNAME":"安平區","LI":"金城里","LIN":"15鄰","STREET":"州平三街","SECT":" ","MAREA":" ","LANE":" ","ALLEY":" ","HOUSE_NO":"１２號","E_COORD97":162760.32999999999,"N_COORD97":2544394.5600000001,"ADDRESS":"州平三街１２號","OBJECTID":140997},"geometry":{"x":162760.33000000007,"y":2544394.5600000024}},{"attributes":{"ID":140998,"DIS_CODE":0,"TOWNNAME":"官田區","LI":"渡頭里","LIN":"33鄰","STREET":" ","SECT":" ","MAREA":"三塊厝","LANE":" ","ALLEY":" ","HOUSE_NO":"３０２號","E_COORD97":183412.64999999999,"N_COORD97":2561873.02,"ADDRESS":"三塊厝３０２號","OBJECTID":140998},"geometry":{"x":183412.65000000037,"y":2561873.0199999996}},{"attributes":{"ID":140999,"DIS_CODE":0,"TOWNNAME":"官田區","LI":"渡頭里","LIN":"33鄰","STREET":" ","SECT":" ","MAREA":"三塊厝","LANE":" ","ALLEY":" ","HOUSE_NO":"３０６號","E_COORD97":183403.39999999999,"N_COORD97":2561902.3900000001,"ADDRESS":"三塊厝３０６號","OBJECTID":140999},"geometry":{"x":183403.40000000224,"y":2561902.3900000006}},{"attributes":{"ID":141000,"DIS_CODE":0,"TOWNNAME":"永康區","LI":"西灣里","LIN":"33鄰","STREET":"公園路","SECT":" ","MAREA":" ","LANE":" ","ALLEY":" ","HOUSE_NO":"１５５號","E_COORD97":174069.44,"N_COORD97":2545918.3900000001,"ADDRESS":"公園路１５５號","OBJECTID":141000},"geometry":{"x":174069.44000000227,"y":2545918.3900000025}}]}