{"displayFieldName":"TOWNNAME","fieldAliases":{"ID":"ID","DIS_CODE":"DIS_CODE","TOWNNAME":"TOWNNAME","LI":"LI","LIN":"LIN","STREET":"STREET","SECT":"SECT","MAREA":"MAREA","LANE":"LANE","ALLEY":"ALLEY","HOUSE_NO":"HOUSE_NO","E_COORD97":"E_COORD97","N_COORD97":"N_COORD97","ADDRESS":"ADDRESS","OBJECTID":"OBJECTID"},"geometryType":"esriGeometryPoint","spatialReference":{"wkid":102443,"latestWkid":3826},"fields":[{"name":"ID","type":"esriFieldTypeDouble","alias":"ID"},{"name":"DIS_CODE","type":"esriFieldTypeInteger","alias":"DIS_CODE"},{"name":"TOWNNAME","type":"esriFieldTypeString","alias":"TOWNNAME","length":8},{"name":"LI","type":"esriFieldTypeString","alias":"LI","length":8},{"name":"LIN","type":"esriFieldTypeString","alias":"LIN","length":12},{"name":"STREET","type":"esriFieldTypeString","alias":"STREET","length":20},{"name":"SECT","type":"esriFieldTypeString","alias":"SECT","length":8},{"name":"MAREA","type":"esriFieldTypeString","alias":"MAREA","length":12},{"name":"LANE","type":"esriFieldTypeString","alias":"LANE","length":10},{"name":"ALLEY","type":"esriFieldTypeString","alias":"ALLEY","length":10},{"name":"HOUSE_NO","type":"esriFieldTypeString","alias":"HOUSE_NO","length":20},{"name":"E_COORD97","type":"esriFieldTypeDouble","alias":"E_COORD97"},{"name":"N_COORD97","type":"esriFieldTypeDouble","alias":"N_COORD97"},{"name":"ADDRESS","type":"esriFieldTypeString","alias":"ADDRESS","length":50},{"name":"OBJECTID","type":"esriFieldTypeOID","alias":"OBJECTID"}],"features":[{"attributes":{"ID":537828,"DIS_CODE":0,"TOWNNAME":"東區","LI":"東光里","LIN":"19鄰","STREET":"東興路","SECT":" ","MAREA":" ","LANE":" ","ALLEY":" ","HOUSE_NO":"１６３號","E_COORD97":170982.17000000001,"N_COORD97":2543786.54,"ADDRESS":"東興路１６３號","OBJECTID":537801},"geometry":{"x":170982.17000000086,"y":2543786.540000001}},{"attributes":{"ID":537829,"DIS_CODE":0,"TOWNNAME":"東區","LI":"東光里","LIN":"19鄰","STREET":"東興路","SECT":" ","MAREA":" ","LANE":" ","ALLEY":" ","HOUSE_NO":"１６５號","E_COORD97":170982.89999999999,"N_COORD97":2543790.2200000002,"ADDRESS":"東興路１６５號","OBJECTID":537802},"geometry":{"x":170982.9000000013,"y":2543790.2200000025}},{"attributes":{"ID":537830,"DIS_CODE":0,"TOWNNAME":"東區","LI":"東光里","LIN":"19鄰","STREET":"東興路","SECT":" ","MAREA":" ","LANE":" ","ALLEY":" ","HOUSE_NO":"１６７號","E_COORD97":170983.35999999999,"N_COORD97":2543795.2799999998,"ADDRESS":"東興路１６７號","OBJECTID":537803},"geometry":{"x":170983.36000000127,"y":2543795.2800000012}},{"attributes":{"ID":537831,"DIS_CODE":0,"TOWNNAME":"東區","LI":"東光里","LIN":"19鄰","STREET":"凱旋路","SECT":" ","MAREA":" ","LANE":" ","ALLEY":" ","HOUSE_NO":"２１４號","E_COORD97":170961.70999999999,"N_COORD97":2543757.1499999999,"ADDRESS":"凱旋路２１４號","OBJECTID":537804},"geometry":{"x":170961.71000000089,"y":2543757.1500000022}},{"attributes":{"ID":537832,"DIS_CODE":0,"TOWNNAME":"東區","LI":"東光里","LIN":"19鄰","STREET":"凱旋路","SECT":" ","MAREA":" ","LANE":" ","ALLEY":" ","HOUSE_NO":"２１６號","E_COORD97":170957.78,"N_COORD97":2543758.8300000001,"ADDRESS":"凱旋路２１６號","OBJECTID":537805},"geometry":{"x":170957.77999999933,"y":2543758.8300000019}},{"attributes":{"ID":537833,"DIS_CODE":0,"TOWNNAME":"東區","LI":"東光里","LIN":"19鄰","STREET":"凱旋路","SECT":" ","MAREA":" ","LANE":" ","ALLEY":" ","HOUSE_NO":"２１８號","E_COORD97":170953.57000000001,"N_COORD97":2543761.4700000002,"ADDRESS":"凱旋路２１８號","OBJECTID":537806},"geometry":{"x":170953.5700000003,"y":2543761.4700000025}},{"attributes":{"ID":537834,"DIS_CODE":0,"TOWNNAME":"東區","LI":"東光里","LIN":"19鄰","STREET":"凱旋路","SECT":" ","MAREA":" ","LANE":" ","ALLEY":" ","HOUSE_NO":"２２０號","E_COORD97":170948.79999999999,"N_COORD97":2543759.3900000001,"ADDRESS":"凱旋路２２０號","OBJECTID":537807},"geometry":{"x":170948.80000000168,"y":2543759.3900000025}},{"attributes":{"ID":537835,"DIS_CODE":0,"TOWNNAME":"東區","LI":"東光里","LIN":"19鄰","STREET":"凱旋路","SECT":" ","MAREA":" ","LANE":" ","ALLEY":" ","HOUSE_NO":"２２２號","E_COORD97":170945.76999999999,"N_COORD97":2543762.2000000002,"ADDRESS":"凱旋路２２２號","OBJECTID":537808},"geometry":{"x":170945.77000000048,"y":2543762.2000000011}},{"attributes":{"ID":537836,"DIS_CODE":0,"TOWNNAME":"東區","LI":"東光里","LIN":"19鄰","STREET":"凱旋路","SECT":" ","MAREA":" ","LANE":" ","ALLEY":" ","HOUSE_NO":"２２４號","E_COORD97":170940.82999999999,"N_COORD97":2543759.96,"ADDRESS":"凱旋路２２４號","OBJECTID":537809},"geometry":{"x":170940.83000000101,"y":2543759.9600000009}},{"attributes":{"ID":537837,"DIS_CODE":0,"TOWNNAME":"東區","LI":"東光里","LIN":"19鄰","STREET":"凱旋路","SECT":" ","MAREA":" ","LANE":" ","ALLEY":" ","HOUSE_NO":"２２６號","E_COORD97":170937.10999999999,"N_COORD97":2543762.1899999999,"ADDRESS":"凱旋路２２６號","OBJECTID":537810},"geometry":{"x":170937.1100000022,"y":2543762.1900000013}},{"attributes":{"ID":537838,"DIS_CODE":0,"TOWNNAME":"東區","LI":"東光里","LIN":"19鄰","STREET":"凱旋路","SECT":" ","MAREA":" ","LANE":" ","ALLEY":" ","HOUSE_NO":"２２８號","E_COORD97":170933.37,"N_COORD97":2543764.9199999999,"ADDRESS":"凱旋路２２８號","OBJECTID":537811},"geometry":{"x":170933.37000000197,"y":2543764.9200000018}},{"attributes":{"ID":537839,"DIS_CODE":0,"TOWNNAME":"東區","LI":"東光里","LIN":"19鄰","STREET":"凱旋路","SECT":" ","MAREA":" ","LANE":" ","ALLEY":" ","HOUSE_NO":"２３０號","E_COORD97":170928.32000000001,"N_COORD97":2543761.8900000001,"ADDRESS":"凱旋路２３０號","OBJECTID":537812},"geometry":{"x":170928.3200000003,"y":2543761.8900000025}},{"attributes":{"ID":537840,"DIS_CODE":0,"TOWNNAME":"東區","LI":"東光里","LIN":"19鄰","STREET":"凱旋路","SECT":" ","MAREA":" ","LANE":" ","ALLEY":" ","HOUSE_NO":"２３２號","E_COORD97":170924.51000000001,"N_COORD97":2543765.2000000002,"ADDRESS":"凱旋路２３２號","OBJECTID":537813},"geometry":{"x":170924.50999999978,"y":2543765.2000000011}},{"attributes":{"ID":537841,"DIS_CODE":0,"TOWNNAME":"東區","LI":"東光里","LIN":"19鄰","STREET":"凱旋路","SECT":" ","MAREA":" ","LANE":" ","ALLEY":" ","HOUSE_NO":"２３４號","E_COORD97":170920.47,"N_COORD97":2543763.1099999999,"ADDRESS":"凱旋路２３４號","OBJECTID":537814},"geometry":{"x":170920.4700000016,"y":2543763.1100000013}},{"attributes":{"ID":537842,"DIS_CODE":0,"TOWNNAME":"東區","LI":"東光里","LIN":"19鄰","STREET":"凱旋路","SECT":" ","MAREA":" ","LANE":" ","ALLEY":" ","HOUSE_NO":"２３６號","E_COORD97":170916.29000000001,"N_COORD97":2543766.6899999999,"ADDRESS":"凱旋路２３６號","OBJECTID":537815},"geometry":{"x":170916.29000000004,"y":2543766.6899999995}},{"attributes":{"ID":537843,"DIS_CODE":0,"TOWNNAME":"東區","LI":"東光里","LIN":"19鄰","STREET":"凱旋路","SECT":" ","MAREA":" ","LANE":" ","ALLEY":" ","HOUSE_NO":"２３８號","E_COORD97":170911.35999999999,"N_COORD97":2543764.8999999999,"ADDRESS":"凱旋路２３８號","OBJECTID":537816},"geometry":{"x":170911.36000000034,"y":2543764.9000000022}},{"attributes":{"ID":537844,"DIS_CODE":0,"TOWNNAME":"東區","LI":"東光里","LIN":"19鄰","STREET":"凱旋路","SECT":" ","MAREA":" ","LANE":" ","ALLEY":" ","HOUSE_NO":"２４０號","E_COORD97":170908.37,"N_COORD97":2543767.4399999999,"ADDRESS":"凱旋路２４０號","OBJECTID":537817},"geometry":{"x":170908.37000000104,"y":2543767.4400000013}},{"attributes":{"ID":537845,"DIS_CODE":0,"TOWNNAME":"東區","LI":"東光里","LIN":"19鄰","STREET":"凱旋路","SECT":" ","MAREA":" ","LANE":" ","ALLEY":" ","HOUSE_NO":"２４２號","E_COORD97":170903.14000000001,"N_COORD97":2543765.3500000001,"ADDRESS":"凱旋路２４２號","OBJECTID":537818},"geometry":{"x":170903.13999999966,"y":2543765.3500000015}},{"attributes":{"ID":537846,"DIS_CODE":0,"TOWNNAME":"東區","LI":"東光里","LIN":"19鄰","STREET":"凱旋路","SECT":" ","MAREA":" ","LANE":" ","ALLEY":" ","HOUSE_NO":"２４４號","E_COORD97":170899.10000000001,"N_COORD97":2543768.6400000001,"ADDRESS":"凱旋路２４４號","OBJECTID":537819},"geometry":{"x":170899.10000000149,"y":2543768.6400000006}},{"attributes":{"ID":537847,"DIS_CODE":0,"TOWNNAME":"東區","LI":"東光里","LIN":"19鄰","STREET":"凱旋路","SECT":" ","MAREA":" ","LANE":" ","ALLEY":" ","HOUSE_NO":"２４６號","E_COORD97":170895.37,"N_COORD97":2543766.8399999999,"ADDRESS":"凱旋路２４６號","OBJECTID":537820},"geometry":{"x":170895.37000000011,"y":2543766.8399999999}},{"attributes":{"ID":537848,"DIS_CODE":0,"TOWNNAME":"東區","LI":"東光里","LIN":"19鄰","STREET":"凱旋路","SECT":" ","MAREA":" ","LANE":" ","ALLEY":" ","HOUSE_NO":"２４８號","E_COORD97":170890.14000000001,"N_COORD97":2543770.5800000001,"ADDRESS":"凱旋路２４８號","OBJECTID":537821},"geometry":{"x":170890.13999999966,"y":2543770.5800000019}},{"attributes":{"ID":537849,"DIS_CODE":0,"TOWNNAME":"東區","LI":"東光里","LIN":"19鄰","STREET":"怡東路","SECT":" ","MAREA":" ","LANE":" ","ALLEY":" ","HOUSE_NO":"９８號","E_COORD97":170893.45999999999,"N_COORD97":2543786.9900000002,"ADDRESS":"怡東路９８號","OBJECTID":537822},"geometry":{"x":170893.45999999996,"y":2543786.9899999984}},{"attributes":{"ID":537850,"DIS_CODE":0,"TOWNNAME":"永康區","LI":"網寮里","LIN":"19鄰","STREET":"永二街","SECT":" ","MAREA":" ","LANE":" ","ALLEY":" ","HOUSE_NO":"２２３號","E_COORD97":173394.97,"N_COORD97":2546267.9700000002,"ADDRESS":"永二街２２３號","OBJECTID":537823},"geometry":{"x":173394.96999999974,"y":2546267.9700000007}},{"attributes":{"ID":537851,"DIS_CODE":0,"TOWNNAME":"中西區","LI":"仙草里","LIN":"13鄰","STREET":"南寧街","SECT":" ","MAREA":" ","LANE":" ","ALLEY":" ","HOUSE_NO":"８５號","E_COORD97":167815.42999999999,"N_COORD97":2542848.5299999998,"ADDRESS":"南寧街８５號","OBJECTID":537824},"geometry":{"x":167815.43000000063,"y":2542848.5300000012}},{"attributes":{"ID":537852,"DIS_CODE":0,"TOWNNAME":"中西區","LI":"仙草里","LIN":"13鄰","STREET":"南寧街","SECT":" ","MAREA":" ","LANE":" ","ALLEY":" ","HOUSE_NO":"８７號","E_COORD97":167810.92000000001,"N_COORD97":2542844.2000000002,"ADDRESS":"南寧街８７號","OBJECTID":537825},"geometry":{"x":167810.92000000086,"y":2542844.1999999993}},{"attributes":{"ID":537853,"DIS_CODE":0,"TOWNNAME":"中西區","LI":"仙草里","LIN":"13鄰","STREET":"南寧街","SECT":" ","MAREA":" ","LANE":" ","ALLEY":" ","HOUSE_NO":"９１號","E_COORD97":167802.07000000001,"N_COORD97":2542845.0699999998,"ADDRESS":"南寧街９１號","OBJECTID":537826},"geometry":{"x":167802.0700000003,"y":2542845.0700000022}},{"attributes":{"ID":537854,"DIS_CODE":0,"TOWNNAME":"中西區","LI":"仙草里","LIN":"13鄰","STREET":"南寧街","SECT":" ","MAREA":" ","LANE":" ","ALLEY":" ","HOUSE_NO":"９３號","E_COORD97":167797.20999999999,"N_COORD97":2542843.6800000002,"ADDRESS":"南寧街９３號","OBJECTID":537827},"geometry":{"x":167797.21000000089,"y":2542843.6800000016}},{"attributes":{"ID":537855,"DIS_CODE":0,"TOWNNAME":"中西區","LI":"仙草里","LIN":"13鄰","STREET":"南寧街","SECT":" ","MAREA":" ","LANE":" ","ALLEY":" ","HOUSE_NO":"８９號","E_COORD97":167806.76000000001,"N_COORD97":2542845.0699999998,"ADDRESS":"南寧街８９號","OBJECTID":537828},"geometry":{"x":167806.76000000071,"y":2542845.0700000022}},{"attributes":{"ID":537856,"DIS_CODE":0,"TOWNNAME":"永康區","LI":"網寮里","LIN":"19鄰","STREET":"永二街","SECT":" ","MAREA":" ","LANE":" ","ALLEY":" ","HOUSE_NO":"２１７號","E_COORD97":173400.98000000001,"N_COORD97":2546279.4700000002,"ADDRESS":"永二街２１７號","OBJECTID":537829},"geometry":{"x":173400.98000000045,"y":2546279.4700000007}},{"attributes":{"ID":537857,"DIS_CODE":0,"TOWNNAME":"永康區","LI":"網寮里","LIN":"19鄰","STREET":"文化路","SECT":" ","MAREA":" ","LANE":" ","ALLEY":" ","HOUSE_NO":"３０８號","E_COORD97":173435.56,"N_COORD97":2546165.9300000002,"ADDRESS":"文化路３０８號","OBJECTID":537830},"geometry":{"x":173435.56000000052,"y":2546165.9299999997}},{"attributes":{"ID":537858,"DIS_CODE":0,"TOWNNAME":"永康區","LI":"網寮里","LIN":"19鄰","STREET":"永二街","SECT":" ","MAREA":" ","LANE":" ","ALLEY":" ","HOUSE_NO":"２２１號","E_COORD97":173396.82999999999,"N_COORD97":2546271.9700000002,"ADDRESS":"永二街２２１號","OBJECTID":537831},"geometry":{"x":173396.83000000194,"y":2546271.9700000007}},{"attributes":{"ID":537859,"DIS_CODE":0,"TOWNNAME":"永康區","LI":"網寮里","LIN":"19鄰","STREET":"文化路","SECT":" ","MAREA":" ","LANE":" ","ALLEY":" ","HOUSE_NO":"２９０號","E_COORD97":173449.75,"N_COORD97":2546155.2999999998,"ADDRESS":"文化路２９０號","OBJECTID":537832},"geometry":{"x":173449.75000000186,"y":2546155.2999999989}},{"attributes":{"ID":537860,"DIS_CODE":0,"TOWNNAME":"永康區","LI":"網寮里","LIN":"19鄰","STREET":"永二街","SECT":" ","MAREA":" ","LANE":" ","ALLEY":" ","HOUSE_NO":"２３１號","E_COORD97":173378.92000000001,"N_COORD97":2546246.7999999998,"ADDRESS":"永二街２３１號","OBJECTID":537833},"geometry":{"x":173378.91999999899,"y":2546246.8000000007}},{"attributes":{"ID":537861,"DIS_CODE":0,"TOWNNAME":"永康區","LI":"網寮里","LIN":"19鄰","STREET":"文化路","SECT":" ","MAREA":" ","LANE":" ","ALLEY":" ","HOUSE_NO":"２９６號","E_COORD97":173463.19,"N_COORD97":2546164.5499999998,"ADDRESS":"文化路２９６號","OBJECTID":537834},"geometry":{"x":173463.19000000134,"y":2546164.5500000026}},{"attributes":{"ID":537862,"DIS_CODE":0,"TOWNNAME":"永康區","LI":"網寮里","LIN":"19鄰","STREET":"永二街","SECT":" ","MAREA":" ","LANE":" ","ALLEY":" ","HOUSE_NO":"２２５號","E_COORD97":173392.62,"N_COORD97":2546264.7200000002,"ADDRESS":"永二街２２５號","OBJECTID":537835},"geometry":{"x":173392.62000000011,"y":2546264.7200000044}},{"attributes":{"ID":537863,"DIS_CODE":0,"TOWNNAME":"永康區","LI":"網寮里","LIN":"19鄰","STREET":"文化路","SECT":" ","MAREA":" ","LANE":" ","ALLEY":" ","HOUSE_NO":"３０２號","E_COORD97":173441.97,"N_COORD97":2546160.9300000002,"ADDRESS":"文化路３０２號","OBJECTID":537836},"geometry":{"x":173441.97000000067,"y":2546160.9300000016}},{"attributes":{"ID":537864,"DIS_CODE":0,"TOWNNAME":"中西區","LI":"五妃里","LIN":"3鄰","STREET":"五妃街","SECT":" ","MAREA":" ","LANE":" ","ALLEY":" ","HOUSE_NO":"２０２號","E_COORD97":168530.14999999999,"N_COORD97":2542585.8199999998,"ADDRESS":"五妃街２０２號","OBJECTID":537837},"geometry":{"x":168530.1500000013,"y":2542585.8200000022}},{"attributes":{"ID":537865,"DIS_CODE":0,"TOWNNAME":"中西區","LI":"大南里","LIN":"5鄰","STREET":"五妃街","SECT":" ","MAREA":" ","LANE":" ","ALLEY":" ","HOUSE_NO":"２３０號","E_COORD97":168217.20000000001,"N_COORD97":2542588.5800000001,"ADDRESS":"五妃街２３０號","OBJECTID":537838},"geometry":{"x":168217.20000000205,"y":2542588.5800000001}},{"attributes":{"ID":537866,"DIS_CODE":0,"TOWNNAME":"中西區","LI":"大南里","LIN":"5鄰","STREET":"五妃街","SECT":" ","MAREA":" ","LANE":" ","ALLEY":" ","HOUSE_NO":"２３２號","E_COORD97":168190.78,"N_COORD97":2542589.6299999999,"ADDRESS":"五妃街２３２號","OBJECTID":537839},"geometry":{"x":168190.78000000026,"y":2542589.6300000008}},{"attributes":{"ID":537867,"DIS_CODE":0,"TOWNNAME":"中西區","LI":"大南里","LIN":"5鄰","STREET":"五妃街","SECT":" ","MAREA":" ","LANE":" ","ALLEY":" ","HOUSE_NO":"２３４號","E_COORD97":168179.85999999999,"N_COORD97":2542589.6299999999,"ADDRESS":"五妃街２３４號","OBJECTID":537840},"geometry":{"x":168179.86000000034,"y":2542589.6300000008}},{"attributes":{"ID":537868,"DIS_CODE":0,"TOWNNAME":"中西區","LI":"大南里","LIN":"5鄰","STREET":"五妃街","SECT":" ","MAREA":" ","LANE":" ","ALLEY":" ","HOUSE_NO":"２３６號","E_COORD97":168169.29000000001,"N_COORD97":2542589.2799999998,"ADDRESS":"五妃街２３６號","OBJECTID":537841},"geometry":{"x":168169.29000000097,"y":2542589.2799999993}},{"attributes":{"ID":537869,"DIS_CODE":0,"TOWNNAME":"中西區","LI":"大南里","LIN":"5鄰","STREET":"五妃街","SECT":" ","MAREA":" ","LANE":" ","ALLEY":" ","HOUSE_NO":"２４３號","E_COORD97":168253.48000000001,"N_COORD97":2542567.4700000002,"ADDRESS":"五妃街２４３號","OBJECTID":537842},"geometry":{"x":168253.48000000138,"y":2542567.4700000044}},{"attributes":{"ID":537870,"DIS_CODE":0,"TOWNNAME":"中西區","LI":"大南里","LIN":"5鄰","STREET":"五妃街","SECT":" ","MAREA":" ","LANE":" ","ALLEY":" ","HOUSE_NO":"２４９號","E_COORD97":168241.85999999999,"N_COORD97":2542567.8199999998,"ADDRESS":"五妃街２４９號","OBJECTID":537843},"geometry":{"x":168241.8600000022,"y":2542567.820000004}},{"attributes":{"ID":537871,"DIS_CODE":0,"TOWNNAME":"中西區","LI":"五妃里","LIN":"8鄰","STREET":"南寧街","SECT":" ","MAREA":" ","LANE":" ","ALLEY":" ","HOUSE_NO":"１７號","E_COORD97":168500.66,"N_COORD97":2542783.0299999998,"ADDRESS":"南寧街１７號","OBJECTID":537844},"geometry":{"x":168500.66000000201,"y":2542783.0300000012}},{"attributes":{"ID":537872,"DIS_CODE":0,"TOWNNAME":"中西區","LI":"五妃里","LIN":"8鄰","STREET":"南寧街","SECT":" ","MAREA":" ","LANE":" ","ALLEY":" ","HOUSE_NO":"１號","E_COORD97":168543.82000000001,"N_COORD97":2542777.8100000001,"ADDRESS":"南寧街１號","OBJECTID":537845},"geometry":{"x":168543.82000000216,"y":2542777.8100000005}},{"attributes":{"ID":537873,"DIS_CODE":0,"TOWNNAME":"中西區","LI":"五妃里","LIN":"8鄰","STREET":"南寧街","SECT":" ","MAREA":" ","LANE":" ","ALLEY":" ","HOUSE_NO":"１號底層","E_COORD97":168543.82000000001,"N_COORD97":2542777.8100000001,"ADDRESS":"南寧街１號底層","OBJECTID":537846},"geometry":{"x":168543.82000000216,"y":2542777.8100000005}},{"attributes":{"ID":537874,"DIS_CODE":0,"TOWNNAME":"中西區","LI":"五妃里","LIN":"8鄰","STREET":"南寧街","SECT":" ","MAREA":" ","LANE":" ","ALLEY":" ","HOUSE_NO":"２７號","E_COORD97":168487.64000000001,"N_COORD97":2542784.0499999998,"ADDRESS":"南寧街２７號","OBJECTID":537847},"geometry":{"x":168487.63999999966,"y":2542784.0500000045}},{"attributes":{"ID":537875,"DIS_CODE":0,"TOWNNAME":"中西區","LI":"五妃里","LIN":"8鄰","STREET":"南寧街","SECT":" ","MAREA":" ","LANE":" ","ALLEY":" ","HOUSE_NO":"３號","E_COORD97":168539.60999999999,"N_COORD97":2542778.8300000001,"ADDRESS":"南寧街３號","OBJECTID":537848},"geometry":{"x":168539.61000000034,"y":2542778.8300000019}},{"attributes":{"ID":537876,"DIS_CODE":0,"TOWNNAME":"中西區","LI":"五妃里","LIN":"8鄰","STREET":"南寧街","SECT":" ","MAREA":" ","LANE":" ","ALLEY":" ","HOUSE_NO":"５號","E_COORD97":168534.88,"N_COORD97":2542779.9700000002,"ADDRESS":"南寧街５號","OBJECTID":537849},"geometry":{"x":168534.88000000082,"y":2542779.9700000007}},{"attributes":{"ID":537877,"DIS_CODE":0,"TOWNNAME":"中西區","LI":"五妃里","LIN":"8鄰","STREET":"南寧街","SECT":" ","MAREA":" ","LANE":" ","ALLEY":" ","HOUSE_NO":"７號","E_COORD97":168530.41,"N_COORD97":2542781.1200000001,"ADDRESS":"南寧街７號","OBJECTID":537850},"geometry":{"x":168530.41000000015,"y":2542781.1200000029}},{"attributes":{"ID":537878,"DIS_CODE":0,"TOWNNAME":"中西區","LI":"五妃里","LIN":"8鄰","STREET":"南寧街","SECT":" ","MAREA":" ","LANE":" ","ALLEY":" ","HOUSE_NO":"９號","E_COORD97":168525.82000000001,"N_COORD97":2542782.27,"ADDRESS":"南寧街９號","OBJECTID":537851},"geometry":{"x":168525.82000000123,"y":2542782.2700000014}},{"attributes":{"ID":537879,"DIS_CODE":0,"TOWNNAME":"中西區","LI":"郡王里","LIN":"4鄰","STREET":"開山路","SECT":" ","MAREA":" ","LANE":" ","ALLEY":" ","HOUSE_NO":"２０６號","E_COORD97":168959.85999999999,"N_COORD97":2542993.5899999999,"ADDRESS":"開山路２０６號","OBJECTID":537852},"geometry":{"x":168959.86000000034,"y":2542993.5900000017}},{"attributes":{"ID":537880,"DIS_CODE":0,"TOWNNAME":"仁德區","LI":"一甲里","LIN":"19鄰","STREET":"太乙路","SECT":" ","MAREA":" ","LANE":" ","ALLEY":" ","HOUSE_NO":"７號","E_COORD97":173720.38,"N_COORD97":2542436.5,"ADDRESS":"太乙路７號","OBJECTID":537853},"geometry":{"x":173720.38000000082,"y":2542436.5}},{"attributes":{"ID":537881,"DIS_CODE":0,"TOWNNAME":"仁德區","LI":"一甲里","LIN":"19鄰","STREET":"太乙二街","SECT":" ","MAREA":" ","LANE":" ","ALLEY":" ","HOUSE_NO":"５８號","E_COORD97":173399.95999999999,"N_COORD97":2542210.75,"ADDRESS":"太乙二街５８號","OBJECTID":537854},"geometry":{"x":173399.96000000089,"y":2542210.75}},{"attributes":{"ID":537882,"DIS_CODE":0,"TOWNNAME":"仁德區","LI":"土庫里","LIN":"19鄰","STREET":"太子二街","SECT":" ","MAREA":" ","LANE":" ","ALLEY":" ","HOUSE_NO":"１７６號","E_COORD97":174461.47,"N_COORD97":2543138.5099999998,"ADDRESS":"太子二街１７６號","OBJECTID":537855},"geometry":{"x":174461.46999999974,"y":2543138.5099999998}},{"attributes":{"ID":537883,"DIS_CODE":0,"TOWNNAME":"仁德區","LI":"土庫里","LIN":"19鄰","STREET":"太子二街","SECT":" ","MAREA":" ","LANE":" ","ALLEY":" ","HOUSE_NO":"１８２號","E_COORD97":174486.39999999999,"N_COORD97":2543125.2599999998,"ADDRESS":"太子二街１８２號","OBJECTID":537856},"geometry":{"x":174486.40000000037,"y":2543125.2600000016}},{"attributes":{"ID":537884,"DIS_CODE":0,"TOWNNAME":"仁德區","LI":"一甲里","LIN":"19鄰","STREET":"太乙路","SECT":" ","MAREA":" ","LANE":" ","ALLEY":" ","HOUSE_NO":"１１號","E_COORD97":173695.73000000001,"N_COORD97":2542420.5,"ADDRESS":"太乙路１１號","OBJECTID":537857},"geometry":{"x":173695.73000000045,"y":2542420.5000000037}},{"attributes":{"ID":537885,"DIS_CODE":0,"TOWNNAME":"仁德區","LI":"一甲里","LIN":"19鄰","STREET":"太乙三街","SECT":" ","MAREA":" ","LANE":" ","ALLEY":" ","HOUSE_NO":"９號","E_COORD97":173355.37,"N_COORD97":2542413.5099999998,"ADDRESS":"太乙三街９號","OBJECTID":537858},"geometry":{"x":173355.37000000011,"y":2542413.5100000035}},{"attributes":{"ID":537886,"DIS_CODE":0,"TOWNNAME":"仁德區","LI":"一甲里","LIN":"19鄰","STREET":"太乙三街","SECT":" ","MAREA":" ","LANE":" ","ALLEY":" ","HOUSE_NO":"２號","E_COORD97":173408.67999999999,"N_COORD97":2542428.25,"ADDRESS":"太乙三街２號","OBJECTID":537859},"geometry":{"x":173408.6799999997,"y":2542428.25}},{"attributes":{"ID":537887,"DIS_CODE":0,"TOWNNAME":"仁德區","LI":"仁義里","LIN":"19鄰","STREET":"中山路","SECT":" ","MAREA":" ","LANE":" ","ALLEY":" ","HOUSE_NO":"２８８號","E_COORD97":174035.01000000001,"N_COORD97":2541252.25,"ADDRESS":"中山路２８８號","OBJECTID":537860},"geometry":{"x":174035.01000000071,"y":2541252.25}},{"attributes":{"ID":537888,"DIS_CODE":0,"TOWNNAME":"東區","LI":"東光里","LIN":"19鄰","STREET":"怡東路","SECT":" ","MAREA":" ","LANE":" ","ALLEY":" ","HOUSE_NO":"１０６號","E_COORD97":170899.06,"N_COORD97":2543805.6699999999,"ADDRESS":"怡東路１０６號","OBJECTID":537861},"geometry":{"x":170899.05999999959,"y":2543805.6699999999}},{"attributes":{"ID":537889,"DIS_CODE":0,"TOWNNAME":"安南區","LI":"長安里","LIN":"19鄰","STREET":"公學路","SECT":"二段","MAREA":" ","LANE":" ","ALLEY":" ","HOUSE_NO":"２７６號","E_COORD97":167352.95999999999,"N_COORD97":2552087.0299999998,"ADDRESS":"公學路二段２７６號","OBJECTID":537862},"geometry":{"x":167352.96000000089,"y":2552087.0300000012}},{"attributes":{"ID":537890,"DIS_CODE":0,"TOWNNAME":"安南區","LI":"長安里","LIN":"19鄰","STREET":"公學路","SECT":"二段","MAREA":" ","LANE":" ","ALLEY":" ","HOUSE_NO":"２７８號","E_COORD97":167348.06,"N_COORD97":2552088.3500000001,"ADDRESS":"公學路二段２７８號","OBJECTID":537863},"geometry":{"x":167348.06000000052,"y":2552088.3500000015}},{"attributes":{"ID":537891,"DIS_CODE":0,"TOWNNAME":"安南區","LI":"長安里","LIN":"19鄰","STREET":"公學路","SECT":"二段","MAREA":" ","LANE":" ","ALLEY":" ","HOUSE_NO":"２８０號","E_COORD97":167341.82000000001,"N_COORD97":2552089.0800000001,"ADDRESS":"公學路二段２８０號","OBJECTID":537864},"geometry":{"x":167341.82000000216,"y":2552089.0800000001}},{"attributes":{"ID":537892,"DIS_CODE":0,"TOWNNAME":"安南區","LI":"新順里","LIN":"19鄰","STREET":"安豐六街","SECT":" ","MAREA":" ","LANE":" ","ALLEY":" ","HOUSE_NO":"５６之１號","E_COORD97":169386.48000000001,"N_COORD97":2549680.1699999999,"ADDRESS":"安豐六街５６之１號","OBJECTID":537865},"geometry":{"x":169386.48000000045,"y":2549680.1699999999}},{"attributes":{"ID":537893,"DIS_CODE":0,"TOWNNAME":"中西區","LI":"仙草里","LIN":"8鄰","STREET":"永福路","SECT":"一段","MAREA":" ","LANE":" ","ALLEY":" ","HOUSE_NO":"１０９號","E_COORD97":167979.57000000001,"N_COORD97":2542764.6800000002,"ADDRESS":"永福路一段１０９號","OBJECTID":537866},"geometry":{"x":167979.57000000123,"y":2542764.6799999978}},{"attributes":{"ID":537894,"DIS_CODE":0,"TOWNNAME":"中西區","LI":"仙草里","LIN":"8鄰","STREET":"永福路","SECT":"一段","MAREA":" ","LANE":" ","ALLEY":" ","HOUSE_NO":"４３號","E_COORD97":167978.35999999999,"N_COORD97":2542597.7799999998,"ADDRESS":"永福路一段４３號","OBJECTID":537867},"geometry":{"x":167978.36000000034,"y":2542597.7800000031}},{"attributes":{"ID":537895,"DIS_CODE":0,"TOWNNAME":"中西區","LI":"仙草里","LIN":"8鄰","STREET":"永福路","SECT":"一段","MAREA":" ","LANE":" ","ALLEY":" ","HOUSE_NO":"４５號","E_COORD97":167978.19,"N_COORD97":2542602.29,"ADDRESS":"永福路一段４５號","OBJECTID":537868},"geometry":{"x":167978.19000000041,"y":2542602.290000001}},{"attributes":{"ID":537896,"DIS_CODE":0,"TOWNNAME":"中西區","LI":"仙草里","LIN":"8鄰","STREET":"永福路","SECT":"一段","MAREA":" ","LANE":" ","ALLEY":" ","HOUSE_NO":"５１號","E_COORD97":167977.32000000001,"N_COORD97":2542615.6400000001,"ADDRESS":"永福路一段５１號","OBJECTID":537869},"geometry":{"x":167977.3200000003,"y":2542615.6400000006}},{"attributes":{"ID":537897,"DIS_CODE":0,"TOWNNAME":"中西區","LI":"仙草里","LIN":"8鄰","STREET":"永福路","SECT":"一段","MAREA":" ","LANE":" ","ALLEY":" ","HOUSE_NO":"５３號","E_COORD97":167977.32000000001,"N_COORD97":2542619.98,"ADDRESS":"永福路一段５３號","OBJECTID":537870},"geometry":{"x":167977.3200000003,"y":2542619.9800000004}},{"attributes":{"ID":537898,"DIS_CODE":0,"TOWNNAME":"中西區","LI":"仙草里","LIN":"8鄰","STREET":"永福路","SECT":"一段","MAREA":" ","LANE":" ","ALLEY":" ","HOUSE_NO":"５５號","E_COORD97":167978.01000000001,"N_COORD97":2542623.9700000002,"ADDRESS":"永福路一段５５號","OBJECTID":537871},"geometry":{"x":167978.01000000071,"y":2542623.9700000007}},{"attributes":{"ID":537899,"DIS_CODE":0,"TOWNNAME":"中西區","LI":"仙草里","LIN":"8鄰","STREET":"永福路","SECT":"一段","MAREA":" ","LANE":" ","ALLEY":" ","HOUSE_NO":"５７號","E_COORD97":167978.01000000001,"N_COORD97":2542627.6099999999,"ADDRESS":"永福路一段５７號","OBJECTID":537872},"geometry":{"x":167978.01000000071,"y":2542627.6100000013}},{"attributes":{"ID":537900,"DIS_CODE":0,"TOWNNAME":"中西區","LI":"仙草里","LIN":"8鄰","STREET":"永福路","SECT":"一段","MAREA":" ","LANE":" ","ALLEY":" ","HOUSE_NO":"５９號","E_COORD97":167975.76000000001,"N_COORD97":2542632.9900000002,"ADDRESS":"永福路一段５９號","OBJECTID":537873},"geometry":{"x":167975.76000000164,"y":2542632.9900000002}},{"attributes":{"ID":537901,"DIS_CODE":0,"TOWNNAME":"中西區","LI":"仙草里","LIN":"8鄰","STREET":"永福路","SECT":"一段","MAREA":" ","LANE":" ","ALLEY":" ","HOUSE_NO":"６３號","E_COORD97":167982.51999999999,"N_COORD97":2542640.21,"ADDRESS":"永福路一段６３號","OBJECTID":537874},"geometry":{"x":167982.52000000048,"y":2542640.2100000009}},{"attributes":{"ID":537902,"DIS_CODE":0,"TOWNNAME":"中西區","LI":"仙草里","LIN":"8鄰","STREET":"永福路","SECT":"一段","MAREA":" ","LANE":" ","ALLEY":" ","HOUSE_NO":"６５號","E_COORD97":167982.70000000001,"N_COORD97":2542645.0699999998,"ADDRESS":"永福路一段６５號","OBJECTID":537875},"geometry":{"x":167982.70000000019,"y":2542645.0700000022}},{"attributes":{"ID":537903,"DIS_CODE":0,"TOWNNAME":"中西區","LI":"仙草里","LIN":"8鄰","STREET":"永福路","SECT":"一段","MAREA":" ","LANE":" ","ALLEY":" ","HOUSE_NO":"７３號","E_COORD97":167976.28,"N_COORD97":2542664.1400000001,"ADDRESS":"永福路一段７３號","OBJECTID":537876},"geometry":{"x":167976.28000000119,"y":2542664.1399999987}},{"attributes":{"ID":537904,"DIS_CODE":0,"TOWNNAME":"中西區","LI":"仙草里","LIN":"8鄰","STREET":"永福路","SECT":"一段","MAREA":" ","LANE":" ","ALLEY":" ","HOUSE_NO":"９５號","E_COORD97":167968.60000000001,"N_COORD97":2542743.9500000002,"ADDRESS":"永福路一段９５號","OBJECTID":537877},"geometry":{"x":167968.60000000056,"y":2542743.9499999993}},{"attributes":{"ID":537905,"DIS_CODE":0,"TOWNNAME":"永康區","LI":"烏竹里","LIN":"19鄰","STREET":"自強路","SECT":" ","MAREA":" ","LANE":" ","ALLEY":" ","HOUSE_NO":"７５５號","E_COORD97":174445.32000000001,"N_COORD97":2548542.1000000001,"ADDRESS":"自強路７５５號","OBJECTID":537878},"geometry":{"x":174445.32000000123,"y":2548542.0999999996}},{"attributes":{"ID":537906,"DIS_CODE":0,"TOWNNAME":"永康區","LI":"中華里","LIN":"19鄰","STREET":"華興街","SECT":" ","MAREA":" ","LANE":" ","ALLEY":" ","HOUSE_NO":"１２３號","E_COORD97":171699.59,"N_COORD97":2544560.8300000001,"ADDRESS":"華興街１２３號","OBJECTID":537879},"geometry":{"x":171699.59000000171,"y":2544560.8300000001}},{"attributes":{"ID":537907,"DIS_CODE":0,"TOWNNAME":"永康區","LI":"中華里","LIN":"19鄰","STREET":"華興街","SECT":" ","MAREA":" ","LANE":" ","ALLEY":" ","HOUSE_NO":"１３３號","E_COORD97":171659.92000000001,"N_COORD97":2544560.4100000001,"ADDRESS":"華興街１３３號","OBJECTID":537880},"geometry":{"x":171659.91999999993,"y":2544560.4100000001}},{"attributes":{"ID":537908,"DIS_CODE":0,"TOWNNAME":"永康區","LI":"中華里","LIN":"19鄰","STREET":"華興街","SECT":" ","MAREA":" ","LANE":" ","ALLEY":" ","HOUSE_NO":"１２７號","E_COORD97":171685.70999999999,"N_COORD97":2544560.4100000001,"ADDRESS":"華興街１２７號","OBJECTID":537881},"geometry":{"x":171685.71000000089,"y":2544560.4100000001}},{"attributes":{"ID":537909,"DIS_CODE":0,"TOWNNAME":"永康區","LI":"勝利里","LIN":"19鄰","STREET":"中華一路","SECT":" ","MAREA":" ","LANE":" ","ALLEY":" ","HOUSE_NO":"２６６號","E_COORD97":171338.82999999999,"N_COORD97":2544990,"ADDRESS":"中華一路２６６號","OBJECTID":537882},"geometry":{"x":171338.83000000194,"y":2544990}},{"attributes":{"ID":537910,"DIS_CODE":0,"TOWNNAME":"永康區","LI":"東橋里","LIN":"19鄰","STREET":"中山南路","SECT":" ","MAREA":" ","LANE":" ","ALLEY":" ","HOUSE_NO":"４７５號","E_COORD97":173005.73000000001,"N_COORD97":2546897.75,"ADDRESS":"中山南路４７５號","OBJECTID":537883},"geometry":{"x":173005.73000000045,"y":2546897.7500000037}},{"attributes":{"ID":537911,"DIS_CODE":0,"TOWNNAME":"永康區","LI":"中華里","LIN":"19鄰","STREET":"華興街","SECT":" ","MAREA":" ","LANE":" ","ALLEY":" ","HOUSE_NO":"１２１號","E_COORD97":171707.70999999999,"N_COORD97":2544560.4100000001,"ADDRESS":"華興街１２１號","OBJECTID":537884},"geometry":{"x":171707.71000000089,"y":2544560.4100000001}},{"attributes":{"ID":537912,"DIS_CODE":0,"TOWNNAME":"永康區","LI":"中華里","LIN":"19鄰","STREET":"華興街","SECT":" ","MAREA":" ","LANE":" ","ALLEY":" ","HOUSE_NO":"１３９號","E_COORD97":171638.20000000001,"N_COORD97":2544559.8500000001,"ADDRESS":"華興街１３９號","OBJECTID":537885},"geometry":{"x":171638.20000000205,"y":2544559.8499999996}},{"attributes":{"ID":537913,"DIS_CODE":0,"TOWNNAME":"永康區","LI":"東橋里","LIN":"19鄰","STREET":"中山南路","SECT":" ","MAREA":" ","LANE":" ","ALLEY":" ","HOUSE_NO":"４７７號","E_COORD97":173011.07000000001,"N_COORD97":2546899.75,"ADDRESS":"中山南路４７７號","OBJECTID":537886},"geometry":{"x":173011.07000000123,"y":2546899.75}},{"attributes":{"ID":537914,"DIS_CODE":0,"TOWNNAME":"永康區","LI":"中華里","LIN":"19鄰","STREET":"忠義街","SECT":" ","MAREA":" ","LANE":" ","ALLEY":" ","HOUSE_NO":"５３號","E_COORD97":171709.26999999999,"N_COORD97":2544545.5800000001,"ADDRESS":"忠義街５３號","OBJECTID":537887},"geometry":{"x":171709.26999999955,"y":2544545.5800000001}},{"attributes":{"ID":537915,"DIS_CODE":0,"TOWNNAME":"善化區","LI":"光文里","LIN":"19鄰","STREET":"民生路","SECT":" ","MAREA":" ","LANE":" ","ALLEY":" ","HOUSE_NO":"３０４號","E_COORD97":178143.73000000001,"N_COORD97":2558920.7599999998,"ADDRESS":"民生路３０４號","OBJECTID":537888},"geometry":{"x":178143.73000000045,"y":2558920.7600000016}},{"attributes":{"ID":537916,"DIS_CODE":0,"TOWNNAME":"善化區","LI":"光文里","LIN":"19鄰","STREET":"和平路","SECT":" ","MAREA":" ","LANE":" ","ALLEY":" ","HOUSE_NO":"１１０號","E_COORD97":178143.62,"N_COORD97":2558859,"ADDRESS":"和平路１１０號","OBJECTID":537889},"geometry":{"x":178143.62000000104,"y":2558859}},{"attributes":{"ID":537917,"DIS_CODE":0,"TOWNNAME":"中西區","LI":"大南里","LIN":"6鄰","STREET":"南寧街","SECT":" ","MAREA":" ","LANE":" ","ALLEY":" ","HOUSE_NO":"６０號","E_COORD97":168289.98999999999,"N_COORD97":2542851.8900000001,"ADDRESS":"南寧街６０號","OBJECTID":537890},"geometry":{"x":168289.99000000209,"y":2542851.8900000006}},{"attributes":{"ID":537918,"DIS_CODE":0,"TOWNNAME":"中西區","LI":"法華里","LIN":"6鄰","STREET":"大同路","SECT":"一段","MAREA":" ","LANE":" ","ALLEY":" ","HOUSE_NO":"２５２號","E_COORD97":169180.14999999999,"N_COORD97":2542459,"ADDRESS":"大同路一段２５２號","OBJECTID":537891},"geometry":{"x":169180.15000000037,"y":2542459.0000000019}},{"attributes":{"ID":537919,"DIS_CODE":0,"TOWNNAME":"中西區","LI":"法華里","LIN":"6鄰","STREET":"大同路","SECT":"一段","MAREA":" ","LANE":" ","ALLEY":" ","HOUSE_NO":"２５８號","E_COORD97":169185.72,"N_COORD97":2542441.8599999999,"ADDRESS":"大同路一段２５８號","OBJECTID":537892},"geometry":{"x":169185.71999999974,"y":2542441.8600000013}},{"attributes":{"ID":537920,"DIS_CODE":0,"TOWNNAME":"善化區","LI":"東關里","LIN":"19鄰","STREET":"中山路","SECT":" ","MAREA":" ","LANE":" ","ALLEY":" ","HOUSE_NO":"３７３號","E_COORD97":177492.85999999999,"N_COORD97":2559092,"ADDRESS":"中山路３７３號","OBJECTID":537893},"geometry":{"x":177492.86000000127,"y":2559092.0000000019}},{"attributes":{"ID":537921,"DIS_CODE":0,"TOWNNAME":"善化區","LI":"光文里","LIN":"19鄰","STREET":"民生路","SECT":" ","MAREA":" ","LANE":" ","ALLEY":" ","HOUSE_NO":"２７５號","E_COORD97":178229.63,"N_COORD97":2558899.2599999998,"ADDRESS":"民生路２７５號","OBJECTID":537894},"geometry":{"x":178229.63000000082,"y":2558899.2600000035}},{"attributes":{"ID":537922,"DIS_CODE":0,"TOWNNAME":"善化區","LI":"光文里","LIN":"19鄰","STREET":"民生路","SECT":" ","MAREA":" ","LANE":" ","ALLEY":" ","HOUSE_NO":"３０１號","E_COORD97":178169.12,"N_COORD97":2558906.0099999998,"ADDRESS":"民生路３０１號","OBJECTID":537895},"geometry":{"x":178169.12000000104,"y":2558906.0100000016}},{"attributes":{"ID":537923,"DIS_CODE":0,"TOWNNAME":"善化區","LI":"光文里","LIN":"19鄰","STREET":"民生路","SECT":" ","MAREA":" ","LANE":" ","ALLEY":" ","HOUSE_NO":"３１３號","E_COORD97":178151.23000000001,"N_COORD97":2558897.5099999998,"ADDRESS":"民生路３１３號","OBJECTID":537896},"geometry":{"x":178151.23000000231,"y":2558897.5100000035}},{"attributes":{"ID":537924,"DIS_CODE":0,"TOWNNAME":"善化區","LI":"光文里","LIN":"19鄰","STREET":"民生路","SECT":" ","MAREA":" ","LANE":" ","ALLEY":" ","HOUSE_NO":"２７７號","E_COORD97":178225.07000000001,"N_COORD97":2558885.25,"ADDRESS":"民生路２７７號","OBJECTID":537897},"geometry":{"x":178225.07000000123,"y":2558885.25}},{"attributes":{"ID":537925,"DIS_CODE":0,"TOWNNAME":"善化區","LI":"光文里","LIN":"19鄰","STREET":"和平路","SECT":" ","MAREA":" ","LANE":" ","ALLEY":" ","HOUSE_NO":"１２２號","E_COORD97":178139.12,"N_COORD97":2558884.25,"ADDRESS":"和平路１２２號","OBJECTID":537898},"geometry":{"x":178139.12000000011,"y":2558884.2500000019}},{"attributes":{"ID":537926,"DIS_CODE":0,"TOWNNAME":"善化區","LI":"光文里","LIN":"19鄰","STREET":"民生路","SECT":" ","MAREA":" ","LANE":" ","ALLEY":" ","HOUSE_NO":"２９１號","E_COORD97":178194.45999999999,"N_COORD97":2558911.0099999998,"ADDRESS":"民生路２９１號","OBJECTID":537899},"geometry":{"x":178194.45999999996,"y":2558911.0100000035}},{"attributes":{"ID":537927,"DIS_CODE":0,"TOWNNAME":"善化區","LI":"光文里","LIN":"19鄰","STREET":"大成路","SECT":" ","MAREA":" ","LANE":" ","ALLEY":" ","HOUSE_NO":"２８４號","E_COORD97":178179.66,"N_COORD97":2558847.25,"ADDRESS":"大成路２８４號","OBJECTID":537900},"geometry":{"x":178179.66000000015,"y":2558847.25}},{"attributes":{"ID":537928,"DIS_CODE":0,"TOWNNAME":"善化區","LI":"光文里","LIN":"19鄰","STREET":"民生路","SECT":" ","MAREA":" ","LANE":" ","ALLEY":" ","HOUSE_NO":"２８５號","E_COORD97":178196.84,"N_COORD97":2558891.7599999998,"ADDRESS":"民生路２８５號","OBJECTID":537901},"geometry":{"x":178196.83999999985,"y":2558891.7599999998}},{"attributes":{"ID":537929,"DIS_CODE":0,"TOWNNAME":"善化區","LI":"文昌里","LIN":"19鄰","STREET":"中正路","SECT":" ","MAREA":" ","LANE":" ","ALLEY":" ","HOUSE_NO":"２２４號","E_COORD97":177713.60999999999,"N_COORD97":2558319.25,"ADDRESS":"中正路２２４號","OBJECTID":537902},"geometry":{"x":177713.61000000034,"y":2558319.25}},{"attributes":{"ID":537930,"DIS_CODE":0,"TOWNNAME":"中西區","LI":"大南里","LIN":"6鄰","STREET":"忠義路","SECT":"一段","MAREA":" ","LANE":" ","ALLEY":" ","HOUSE_NO":"１８號","E_COORD97":168175.04000000001,"N_COORD97":2542863.8500000001,"ADDRESS":"忠義路一段１８號","OBJECTID":537903},"geometry":{"x":168175.04000000004,"y":2542863.8499999996}},{"attributes":{"ID":537931,"DIS_CODE":0,"TOWNNAME":"中西區","LI":"大南里","LIN":"6鄰","STREET":"忠義路","SECT":"一段","MAREA":" ","LANE":" ","ALLEY":" ","HOUSE_NO":"２０號","E_COORD97":168175.39999999999,"N_COORD97":2542869.8300000001,"ADDRESS":"忠義路一段２０號","OBJECTID":537904},"geometry":{"x":168175.40000000224,"y":2542869.8300000019}},{"attributes":{"ID":537932,"DIS_CODE":0,"TOWNNAME":"中西區","LI":"大南里","LIN":"6鄰","STREET":"忠義路","SECT":"一段","MAREA":" ","LANE":" ","ALLEY":" ","HOUSE_NO":"２２號","E_COORD97":168175.04000000001,"N_COORD97":2542883.9100000001,"ADDRESS":"忠義路一段２２號","OBJECTID":537905},"geometry":{"x":168175.04000000004,"y":2542883.910000002}},{"attributes":{"ID":537933,"DIS_CODE":0,"TOWNNAME":"善化區","LI":"光文里","LIN":"19鄰","STREET":"大成路","SECT":" ","MAREA":" ","LANE":" ","ALLEY":" ","HOUSE_NO":"２７４號","E_COORD97":178202.92999999999,"N_COORD97":2558850.75,"ADDRESS":"大成路２７４號","OBJECTID":537906},"geometry":{"x":178202.9299999997,"y":2558850.75}},{"attributes":{"ID":537934,"DIS_CODE":0,"TOWNNAME":"善化區","LI":"光文里","LIN":"19鄰","STREET":"和平路","SECT":" ","MAREA":" ","LANE":" ","ALLEY":" ","HOUSE_NO":"１１２號","E_COORD97":178142.67000000001,"N_COORD97":2558864.25,"ADDRESS":"和平路１１２號","OBJECTID":537907},"geometry":{"x":178142.67000000086,"y":2558864.25}},{"attributes":{"ID":537935,"DIS_CODE":0,"TOWNNAME":"善化區","LI":"光文里","LIN":"19鄰","STREET":"民生路","SECT":" ","MAREA":" ","LANE":" ","ALLEY":" ","HOUSE_NO":"２８２號","E_COORD97":178190.13,"N_COORD97":2558927.2599999998,"ADDRESS":"民生路２８２號","OBJECTID":537908},"geometry":{"x":178190.13000000175,"y":2558927.2600000016}},{"attributes":{"ID":537936,"DIS_CODE":0,"TOWNNAME":"善化區","LI":"光文里","LIN":"19鄰","STREET":"民生路","SECT":" ","MAREA":" ","LANE":" ","ALLEY":" ","HOUSE_NO":"２６５號","E_COORD97":178227.16,"N_COORD97":2558916.5099999998,"ADDRESS":"民生路２６５號","OBJECTID":537909},"geometry":{"x":178227.16000000015,"y":2558916.5099999998}},{"attributes":{"ID":537937,"DIS_CODE":0,"TOWNNAME":"善化區","LI":"文昌里","LIN":"19鄰","STREET":"中正路","SECT":" ","MAREA":" ","LANE":" ","ALLEY":" ","HOUSE_NO":"２４０號","E_COORD97":177713.07000000001,"N_COORD97":2558360.5,"ADDRESS":"中正路２４０號","OBJECTID":537910},"geometry":{"x":177713.07000000216,"y":2558360.5}},{"attributes":{"ID":537938,"DIS_CODE":0,"TOWNNAME":"善化區","LI":"光文里","LIN":"19鄰","STREET":"民生路","SECT":" ","MAREA":" ","LANE":" ","ALLEY":" ","HOUSE_NO":"２９８號","E_COORD97":178157.92999999999,"N_COORD97":2558922.7599999998,"ADDRESS":"民生路２９８號","OBJECTID":537911},"geometry":{"x":178157.93000000063,"y":2558922.7599999979}},{"attributes":{"ID":537939,"DIS_CODE":0,"TOWNNAME":"善化區","LI":"光文里","LIN":"19鄰","STREET":"民生路","SECT":" ","MAREA":" ","LANE":" ","ALLEY":" ","HOUSE_NO":"２６４號","E_COORD97":178233.87,"N_COORD97":2558934.5099999998,"ADDRESS":"民生路２６４號","OBJECTID":537912},"geometry":{"x":178233.87000000011,"y":2558934.5099999998}},{"attributes":{"ID":537940,"DIS_CODE":0,"TOWNNAME":"善化區","LI":"光文里","LIN":"19鄰","STREET":"民生路","SECT":" ","MAREA":" ","LANE":" ","ALLEY":" ","HOUSE_NO":"２７６號","E_COORD97":178205.12,"N_COORD97":2558929.7599999998,"ADDRESS":"民生路２７６號","OBJECTID":537913},"geometry":{"x":178205.12000000011,"y":2558929.7600000035}},{"attributes":{"ID":537941,"DIS_CODE":0,"TOWNNAME":"善化區","LI":"光文里","LIN":"19鄰","STREET":"民生路","SECT":" ","MAREA":" ","LANE":" ","ALLEY":" ","HOUSE_NO":"２９４號","E_COORD97":178165.26999999999,"N_COORD97":2558923.5099999998,"ADDRESS":"民生路２９４號","OBJECTID":537914},"geometry":{"x":178165.27000000142,"y":2558923.5099999998}},{"attributes":{"ID":537942,"DIS_CODE":0,"TOWNNAME":"善化區","LI":"光文里","LIN":"19鄰","STREET":"和平路","SECT":" ","MAREA":" ","LANE":" ","ALLEY":" ","HOUSE_NO":"１２０號","E_COORD97":178139.95000000001,"N_COORD97":2558879.5,"ADDRESS":"和平路１２０號","OBJECTID":537915},"geometry":{"x":178139.95000000112,"y":2558879.5}},{"attributes":{"ID":537943,"DIS_CODE":0,"TOWNNAME":"善化區","LI":"光文里","LIN":"19鄰","STREET":"民生路","SECT":" ","MAREA":" ","LANE":" ","ALLEY":" ","HOUSE_NO":"２８６號","E_COORD97":178182.26999999999,"N_COORD97":2558926.2599999998,"ADDRESS":"民生路２８６號","OBJECTID":537916},"geometry":{"x":178182.27000000048,"y":2558926.2600000035}},{"attributes":{"ID":537944,"DIS_CODE":0,"TOWNNAME":"善化區","LI":"光文里","LIN":"19鄰","STREET":"民生路","SECT":" ","MAREA":" ","LANE":" ","ALLEY":" ","HOUSE_NO":"３１７號","E_COORD97":178142.47,"N_COORD97":2558896.0099999998,"ADDRESS":"民生路３１７號","OBJECTID":537917},"geometry":{"x":178142.47000000067,"y":2558896.0099999998}},{"attributes":{"ID":537945,"DIS_CODE":0,"TOWNNAME":"中西區","LI":"小西里","LIN":"15鄰","STREET":"府前路","SECT":"一段","MAREA":" ","LANE":" ","ALLEY":" ","HOUSE_NO":"３１９號","E_COORD97":167982.62,"N_COORD97":2543381.5299999998,"ADDRESS":"府前路一段３１９號","OBJECTID":537918},"geometry":{"x":167982.62000000104,"y":2543381.5299999993}},{"attributes":{"ID":537946,"DIS_CODE":0,"TOWNNAME":"中西區","LI":"永華里","LIN":"19鄰","STREET":"中正路","SECT":" ","MAREA":" ","LANE":" ","ALLEY":" ","HOUSE_NO":"９號","E_COORD97":168337.73999999999,"N_COORD97":2543617.4900000002,"ADDRESS":"中正路９號","OBJECTID":537919},"geometry":{"x":168337.74000000115,"y":2543617.4899999984}},{"attributes":{"ID":537947,"DIS_CODE":0,"TOWNNAME":"永康區","LI":"龍潭里","LIN":"19鄰","STREET":"龍潭街","SECT":" ","MAREA":" ","LANE":" ","ALLEY":" ","HOUSE_NO":"２５７號","E_COORD97":174850.81,"N_COORD97":2548439.7400000002,"ADDRESS":"龍潭街２５７號","OBJECTID":537920},"geometry":{"x":174850.81000000145,"y":2548439.7400000002}},{"attributes":{"ID":537948,"DIS_CODE":0,"TOWNNAME":"永康區","LI":"網寮里","LIN":"19鄰","STREET":"文化路","SECT":" ","MAREA":" ","LANE":" ","ALLEY":" ","HOUSE_NO":"２９８號","E_COORD97":173452.60000000001,"N_COORD97":2546172.02,"ADDRESS":"文化路２９８號","OBJECTID":537921},"geometry":{"x":173452.60000000056,"y":2546172.0199999996}},{"attributes":{"ID":537949,"DIS_CODE":0,"TOWNNAME":"永康區","LI":"龍潭里","LIN":"19鄰","STREET":"龍潭街","SECT":" ","MAREA":" ","LANE":" ","ALLEY":" ","HOUSE_NO":"２５１號","E_COORD97":174858.81,"N_COORD97":2548452.1800000002,"ADDRESS":"龍潭街２５１號","OBJECTID":537922},"geometry":{"x":174858.80999999959,"y":2548452.1800000016}},{"attributes":{"ID":537950,"DIS_CODE":0,"TOWNNAME":"東區","LI":"崇文里","LIN":"19鄰","STREET":"崇德二十街","SECT":" ","MAREA":" ","LANE":" ","ALLEY":" ","HOUSE_NO":"３０號","E_COORD97":170891.17000000001,"N_COORD97":2540901.5499999998,"ADDRESS":"崇德二十街３０號","OBJECTID":537923},"geometry":{"x":170891.17000000086,"y":2540901.5500000007}},{"attributes":{"ID":537951,"DIS_CODE":0,"TOWNNAME":"東區","LI":"崇文里","LIN":"19鄰","STREET":"崇德二十街","SECT":" ","MAREA":" ","LANE":" ","ALLEY":" ","HOUSE_NO":"３２號","E_COORD97":170896.14000000001,"N_COORD97":2540901.1499999999,"ADDRESS":"崇德二十街３２號","OBJECTID":537924},"geometry":{"x":170896.1400000006,"y":2540901.1500000041}},{"attributes":{"ID":537952,"DIS_CODE":0,"TOWNNAME":"東區","LI":"崇文里","LIN":"19鄰","STREET":"崇德二十街","SECT":" ","MAREA":" ","LANE":" ","ALLEY":" ","HOUSE_NO":"３４號","E_COORD97":170901.32000000001,"N_COORD97":2540901.0499999998,"ADDRESS":"崇德二十街３４號","OBJECTID":537925},"geometry":{"x":170901.3200000003,"y":2540901.0500000007}},{"attributes":{"ID":537953,"DIS_CODE":0,"TOWNNAME":"東區","LI":"崇文里","LIN":"19鄰","STREET":"崇德二十街","SECT":" ","MAREA":" ","LANE":" ","ALLEY":" ","HOUSE_NO":"３６號","E_COORD97":170906.39999999999,"N_COORD97":2540901.25,"ADDRESS":"崇德二十街３６號","OBJECTID":537926},"geometry":{"x":170906.40000000224,"y":2540901.2500000019}},{"attributes":{"ID":537954,"DIS_CODE":0,"TOWNNAME":"東區","LI":"崇文里","LIN":"19鄰","STREET":"崇德二十街","SECT":" ","MAREA":" ","LANE":" ","ALLEY":" ","HOUSE_NO":"３８號","E_COORD97":170911.76999999999,"N_COORD97":2540901.1499999999,"ADDRESS":"崇德二十街３８號","OBJECTID":537927},"geometry":{"x":170911.77000000048,"y":2540901.1500000041}},{"attributes":{"ID":537955,"DIS_CODE":0,"TOWNNAME":"東區","LI":"崇文里","LIN":"19鄰","STREET":"崇德二十街","SECT":" ","MAREA":" ","LANE":" ","ALLEY":" ","HOUSE_NO":"４０號","E_COORD97":170916.95000000001,"N_COORD97":2540900.9500000002,"ADDRESS":"崇德二十街４０號","OBJECTID":537928},"geometry":{"x":170916.95000000019,"y":2540900.9499999993}},{"attributes":{"ID":537956,"DIS_CODE":0,"TOWNNAME":"東區","LI":"崇文里","LIN":"19鄰","STREET":"崇德二十街","SECT":" ","MAREA":" ","LANE":" ","ALLEY":" ","HOUSE_NO":"４２號","E_COORD97":170921.53,"N_COORD97":2540901.25,"ADDRESS":"崇德二十街４２號","OBJECTID":537929},"geometry":{"x":170921.53000000026,"y":2540901.2500000019}},{"attributes":{"ID":537957,"DIS_CODE":0,"TOWNNAME":"中西區","LI":"小西里","LIN":"7鄰","STREET":"西門路","SECT":"一段","MAREA":" ","LANE":" ","ALLEY":" ","HOUSE_NO":"６７２號","E_COORD97":167749.62,"N_COORD97":2543300.6699999999,"ADDRESS":"西門路一段６７２號","OBJECTID":537930},"geometry":{"x":167749.62000000011,"y":2543300.6699999981}},{"attributes":{"ID":537958,"DIS_CODE":0,"TOWNNAME":"東區","LI":"崇文里","LIN":"19鄰","STREET":"崇德二十街","SECT":" ","MAREA":" ","LANE":" ","ALLEY":" ","HOUSE_NO":"４４號","E_COORD97":170926.01000000001,"N_COORD97":2540901.25,"ADDRESS":"崇德二十街４４號","OBJECTID":537931},"geometry":{"x":170926.01000000071,"y":2540901.2500000019}},{"attributes":{"ID":537959,"DIS_CODE":0,"TOWNNAME":"東區","LI":"崇文里","LIN":"19鄰","STREET":"崇德二十街","SECT":" ","MAREA":" ","LANE":" ","ALLEY":" ","HOUSE_NO":"４６號","E_COORD97":170931.17999999999,"N_COORD97":2540901.25,"ADDRESS":"崇德二十街４６號","OBJECTID":537932},"geometry":{"x":170931.18000000063,"y":2540901.2500000019}},{"attributes":{"ID":537960,"DIS_CODE":0,"TOWNNAME":"中西區","LI":"安海里","LIN":"19鄰","STREET":"民生路","SECT":"二段","MAREA":" ","LANE":" ","ALLEY":" ","HOUSE_NO":"３９１號","E_COORD97":166835.85000000001,"N_COORD97":2544221.9100000001,"ADDRESS":"民生路二段３９１號","OBJECTID":537933},"geometry":{"x":166835.85000000149,"y":2544221.9100000039}},{"attributes":{"ID":537961,"DIS_CODE":0,"TOWNNAME":"中西區","LI":"大涼里","LIN":"19鄰","STREET":"府前一街","SECT":" ","MAREA":" ","LANE":" ","ALLEY":" ","HOUSE_NO":"１５３號","E_COORD97":166650.37,"N_COORD97":2544113.1099999999,"ADDRESS":"府前一街１５３號","OBJECTID":537934},"geometry":{"x":166650.37000000104,"y":2544113.1099999994}},{"attributes":{"ID":537962,"DIS_CODE":0,"TOWNNAME":"中西區","LI":"大涼里","LIN":"19鄰","STREET":"府前一街","SECT":" ","MAREA":" ","LANE":" ","ALLEY":" ","HOUSE_NO":"１５５號","E_COORD97":166649.91,"N_COORD97":2544117.4500000002,"ADDRESS":"府前一街１５５號","OBJECTID":537935},"geometry":{"x":166649.91000000108,"y":2544117.4499999993}},{"attributes":{"ID":537963,"DIS_CODE":0,"TOWNNAME":"中西區","LI":"大涼里","LIN":"19鄰","STREET":"府前一街","SECT":" ","MAREA":" ","LANE":" ","ALLEY":" ","HOUSE_NO":"１５７號","E_COORD97":166648.76999999999,"N_COORD97":2544121.79,"ADDRESS":"府前一街１５７號","OBJECTID":537936},"geometry":{"x":166648.77000000048,"y":2544121.7899999991}},{"attributes":{"ID":537964,"DIS_CODE":0,"TOWNNAME":"中西區","LI":"大涼里","LIN":"19鄰","STREET":"府前一街","SECT":" ","MAREA":" ","LANE":" ","ALLEY":" ","HOUSE_NO":"１６１號","E_COORD97":166647.39999999999,"N_COORD97":2544127.2799999998,"ADDRESS":"府前一街１６１號","OBJECTID":537937},"geometry":{"x":166647.40000000037,"y":2544127.2800000012}},{"attributes":{"ID":537965,"DIS_CODE":0,"TOWNNAME":"中西區","LI":"大涼里","LIN":"19鄰","STREET":"府前一街","SECT":" ","MAREA":" ","LANE":" ","ALLEY":" ","HOUSE_NO":"１６７號","E_COORD97":166670.04000000001,"N_COORD97":2544128.4199999999,"ADDRESS":"府前一街１６７號","OBJECTID":537938},"geometry":{"x":166670.04000000004,"y":2544128.4199999999}},{"attributes":{"ID":537966,"DIS_CODE":0,"TOWNNAME":"中西區","LI":"大涼里","LIN":"19鄰","STREET":"府前一街","SECT":" ","MAREA":" ","LANE":" ","ALLEY":" ","HOUSE_NO":"１６９號","E_COORD97":166669.76000000001,"N_COORD97":2544132.3999999999,"ADDRESS":"府前一街１６９號","OBJECTID":537939},"geometry":{"x":166669.75999999978,"y":2544132.4000000004}},{"attributes":{"ID":537967,"DIS_CODE":0,"TOWNNAME":"中西區","LI":"大涼里","LIN":"19鄰","STREET":"府前一街","SECT":" ","MAREA":" ","LANE":" ","ALLEY":" ","HOUSE_NO":"１７１號","E_COORD97":166667.07000000001,"N_COORD97":2544136.1800000002,"ADDRESS":"府前一街１７１號","OBJECTID":537940},"geometry":{"x":166667.07000000216,"y":2544136.1800000016}},{"attributes":{"ID":537968,"DIS_CODE":0,"TOWNNAME":"中西區","LI":"大涼里","LIN":"19鄰","STREET":"府前一街","SECT":" ","MAREA":" ","LANE":" ","ALLEY":" ","HOUSE_NO":"１７３號","E_COORD97":166666.14999999999,"N_COORD97":2544140.29,"ADDRESS":"府前一街１７３號","OBJECTID":537941},"geometry":{"x":166666.15000000037,"y":2544140.290000001}},{"attributes":{"ID":537969,"DIS_CODE":0,"TOWNNAME":"永康區","LI":"中華里","LIN":"19鄰","STREET":"華興街","SECT":" ","MAREA":" ","LANE":" ","ALLEY":" ","HOUSE_NO":"１２９號","E_COORD97":171678,"N_COORD97":2544560.5499999998,"ADDRESS":"華興街１２９號","OBJECTID":537942},"geometry":{"x":171678,"y":2544560.5500000045}},{"attributes":{"ID":537970,"DIS_CODE":0,"TOWNNAME":"永康區","LI":"網寮里","LIN":"19鄰","STREET":"文化路","SECT":" ","MAREA":" ","LANE":" ","ALLEY":" ","HOUSE_NO":"２７２號","E_COORD97":173473.28,"N_COORD97":2546139.8100000001,"ADDRESS":"文化路２７２號","OBJECTID":537943},"geometry":{"x":173473.28000000026,"y":2546139.8100000024}},{"attributes":{"ID":537971,"DIS_CODE":0,"TOWNNAME":"永康區","LI":"復國里","LIN":"19鄰","STREET":"復國一路","SECT":" ","MAREA":" ","LANE":" ","ALLEY":" ","HOUSE_NO":"３５２號","E_COORD97":172771.45999999999,"N_COORD97":2545726.1600000001,"ADDRESS":"復國一路３５２號","OBJECTID":537944},"geometry":{"x":172771.45999999996,"y":2545726.160000002}},{"attributes":{"ID":537972,"DIS_CODE":0,"TOWNNAME":"永康區","LI":"崑山里","LIN":"19鄰","STREET":"大灣路","SECT":" ","MAREA":" ","LANE":" ","ALLEY":" ","HOUSE_NO":"８２６號之１","E_COORD97":173944.82000000001,"N_COORD97":2544520.1699999999,"ADDRESS":"大灣路８２６號之１","OBJECTID":537945},"geometry":{"x":173944.82000000123,"y":2544520.1699999999}},{"attributes":{"ID":537973,"DIS_CODE":0,"TOWNNAME":"永康區","LI":"烏竹里","LIN":"19鄰","STREET":"自強路","SECT":" ","MAREA":" ","LANE":" ","ALLEY":" ","HOUSE_NO":"７５７號","E_COORD97":174448.44,"N_COORD97":2548545.0099999998,"ADDRESS":"自強路７５７號","OBJECTID":537946},"geometry":{"x":174448.44000000041,"y":2548545.0100000016}},{"attributes":{"ID":537974,"DIS_CODE":0,"TOWNNAME":"佳里區","LI":"忠仁里","LIN":"19鄰","STREET":"博愛街","SECT":" ","MAREA":" ","LANE":" ","ALLEY":" ","HOUSE_NO":"３８號","E_COORD97":166082.94,"N_COORD97":2562030.25,"ADDRESS":"博愛街３８號","OBJECTID":537947},"geometry":{"x":166082.94000000041,"y":2562030.2500000019}},{"attributes":{"ID":537975,"DIS_CODE":0,"TOWNNAME":"歸仁區","LI":"後市里","LIN":"19鄰","STREET":"大通路","SECT":" ","MAREA":" ","LANE":" ","ALLEY":" ","HOUSE_NO":"１２７號","E_COORD97":177540.39999999999,"N_COORD97":2540898.25,"ADDRESS":"大通路１２７號","OBJECTID":537948},"geometry":{"x":177540.4000000013,"y":2540898.2500000019}},{"attributes":{"ID":537976,"DIS_CODE":0,"TOWNNAME":"安平區","LI":"文平里","LIN":"19鄰","STREET":"健康一街","SECT":" ","MAREA":" ","LANE":" ","ALLEY":" ","HOUSE_NO":"６７號","E_COORD97":165934.84,"N_COORD97":2542831.73,"ADDRESS":"健康一街６７號","OBJECTID":537949},"geometry":{"x":165934.84000000078,"y":2542831.7300000004}},{"attributes":{"ID":537977,"DIS_CODE":0,"TOWNNAME":"新營區","LI":"民生里","LIN":"19鄰","STREET":"民治路","SECT":" ","MAREA":" ","LANE":" ","ALLEY":" ","HOUSE_NO":"１６９號","E_COORD97":178837.76999999999,"N_COORD97":2578502.9500000002,"ADDRESS":"民治路１６９號","OBJECTID":537950},"geometry":{"x":178837.76999999955,"y":2578502.9499999993}},{"attributes":{"ID":537978,"DIS_CODE":0,"TOWNNAME":"新營區","LI":"三仙里","LIN":"19鄰","STREET":"三民路","SECT":" ","MAREA":" ","LANE":" ","ALLEY":" ","HOUSE_NO":"１３８號之９","E_COORD97":179588.51999999999,"N_COORD97":2578459.5600000001,"ADDRESS":"三民路１３８號之９","OBJECTID":537951},"geometry":{"x":179588.51999999955,"y":2578459.5600000005}},{"attributes":{"ID":537979,"DIS_CODE":0,"TOWNNAME":"南區","LI":"新興里","LIN":"19鄰","STREET":"新興路","SECT":" ","MAREA":" ","LANE":" ","ALLEY":" ","HOUSE_NO":"１６０號之１","E_COORD97":167401.20999999999,"N_COORD97":2542059.1200000001,"ADDRESS":"新興路１６０號之１","OBJECTID":537952},"geometry":{"x":167401.20999999996,"y":2542059.1200000029}},{"attributes":{"ID":537980,"DIS_CODE":0,"TOWNNAME":"南區","LI":"新興里","LIN":"19鄰","STREET":"新興路","SECT":" ","MAREA":" ","LANE":" ","ALLEY":" ","HOUSE_NO":"１６０號之２","E_COORD97":167394.53,"N_COORD97":2542062.9199999999,"ADDRESS":"新興路１６０號之２","OBJECTID":537953},"geometry":{"x":167394.52999999933,"y":2542062.9200000018}},{"attributes":{"ID":537981,"DIS_CODE":0,"TOWNNAME":"南區","LI":"新興里","LIN":"19鄰","STREET":"新興路","SECT":" ","MAREA":" ","LANE":" ","ALLEY":" ","HOUSE_NO":"１６０號之３","E_COORD97":167389.66,"N_COORD97":2542065.7999999998,"ADDRESS":"新興路１６０號之３","OBJECTID":537954},"geometry":{"x":167389.66000000015,"y":2542065.8000000007}},{"attributes":{"ID":537982,"DIS_CODE":0,"TOWNNAME":"南區","LI":"新興里","LIN":"19鄰","STREET":"新興路","SECT":" ","MAREA":" ","LANE":" ","ALLEY":" ","HOUSE_NO":"１６０號之５","E_COORD97":167375.84,"N_COORD97":2542072.5499999998,"ADDRESS":"新興路１６０號之５","OBJECTID":537955},"geometry":{"x":167375.84000000078,"y":2542072.5500000026}},{"attributes":{"ID":537983,"DIS_CODE":0,"TOWNNAME":"南區","LI":"新興里","LIN":"19鄰","STREET":"新興路","SECT":" ","MAREA":" ","LANE":" ","ALLEY":" ","HOUSE_NO":"１６２號","E_COORD97":167367.79000000001,"N_COORD97":2542077.8599999999,"ADDRESS":"新興路１６２號","OBJECTID":537956},"geometry":{"x":167367.79000000097,"y":2542077.8599999994}},{"attributes":{"ID":537984,"DIS_CODE":0,"TOWNNAME":"南區","LI":"新興里","LIN":"19鄰","STREET":"新興路","SECT":" ","MAREA":" ","LANE":" ","ALLEY":" ","HOUSE_NO":"１６２號之１","E_COORD97":167361.41,"N_COORD97":2542081.6499999999,"ADDRESS":"新興路１６２號之１","OBJECTID":537957},"geometry":{"x":167361.41000000201,"y":2542081.6500000022}},{"attributes":{"ID":537985,"DIS_CODE":0,"TOWNNAME":"南區","LI":"新興里","LIN":"19鄰","STREET":"新興路","SECT":" ","MAREA":" ","LANE":" ","ALLEY":" ","HOUSE_NO":"１６２號之２","E_COORD97":167356.39000000001,"N_COORD97":2542082.4100000001,"ADDRESS":"新興路１６２號之２","OBJECTID":537958},"geometry":{"x":167356.3900000006,"y":2542082.4100000039}},{"attributes":{"ID":537986,"DIS_CODE":0,"TOWNNAME":"南區","LI":"新興里","LIN":"19鄰","STREET":"新興路","SECT":" ","MAREA":" ","LANE":" ","ALLEY":" ","HOUSE_NO":"１６４號","E_COORD97":167392.85000000001,"N_COORD97":2542051.54,"ADDRESS":"新興路１６４號","OBJECTID":537959},"geometry":{"x":167392.84999999963,"y":2542051.5399999991}},{"attributes":{"ID":537987,"DIS_CODE":0,"TOWNNAME":"新營區","LI":"新東里","LIN":"19鄰","STREET":"東學路","SECT":" ","MAREA":" ","LANE":" ","ALLEY":" ","HOUSE_NO":"９０號","E_COORD97":180916.88,"N_COORD97":2579358.0299999998,"ADDRESS":"東學路９０號","OBJECTID":537960},"geometry":{"x":180916.88000000082,"y":2579358.0300000031}},{"attributes":{"ID":537988,"DIS_CODE":0,"TOWNNAME":"南區","LI":"新興里","LIN":"19鄰","STREET":"新興路","SECT":" ","MAREA":" ","LANE":" ","ALLEY":" ","HOUSE_NO":"１６６號","E_COORD97":167385.70999999999,"N_COORD97":2542043.04,"ADDRESS":"新興路１６６號","OBJECTID":537961},"geometry":{"x":167385.70999999996,"y":2542043.0400000028}},{"attributes":{"ID":537989,"DIS_CODE":0,"TOWNNAME":"南區","LI":"新興里","LIN":"19鄰","STREET":"新興路","SECT":" ","MAREA":" ","LANE":" ","ALLEY":" ","HOUSE_NO":"１７２號","E_COORD97":167359.89000000001,"N_COORD97":2542038.6400000001,"ADDRESS":"新興路１７２號","OBJECTID":537962},"geometry":{"x":167359.8900000006,"y":2542038.6400000025}},{"attributes":{"ID":537990,"DIS_CODE":0,"TOWNNAME":"南區","LI":"新興里","LIN":"19鄰","STREET":"新興路","SECT":" ","MAREA":" ","LANE":" ","ALLEY":" ","HOUSE_NO":"１７８號","E_COORD97":167354.45000000001,"N_COORD97":2542020.9399999999,"ADDRESS":"新興路１７８號","OBJECTID":537963},"geometry":{"x":167354.45000000205,"y":2542020.9400000013}},{"attributes":{"ID":537991,"DIS_CODE":0,"TOWNNAME":"南區","LI":"新興里","LIN":"19鄰","STREET":"新興路","SECT":" ","MAREA":" ","LANE":" ","ALLEY":" ","HOUSE_NO":"１８４號","E_COORD97":167339.53,"N_COORD97":2542011.1800000002,"ADDRESS":"新興路１８４號","OBJECTID":537964},"geometry":{"x":167339.53000000026,"y":2542011.1799999997}},{"attributes":{"ID":537992,"DIS_CODE":0,"TOWNNAME":"南區","LI":"新興里","LIN":"19鄰","STREET":"新興路","SECT":" ","MAREA":" ","LANE":" ","ALLEY":" ","HOUSE_NO":"１８６號","E_COORD97":167335.26999999999,"N_COORD97":2542009.0499999998,"ADDRESS":"新興路１８６號","OBJECTID":537965},"geometry":{"x":167335.27000000048,"y":2542009.0500000026}},{"attributes":{"ID":537993,"DIS_CODE":0,"TOWNNAME":"南區","LI":"新興里","LIN":"19鄰","STREET":"新興路","SECT":" ","MAREA":" ","LANE":" ","ALLEY":" ","HOUSE_NO":"１８８號","E_COORD97":167332.69,"N_COORD97":2542004.6499999999,"ADDRESS":"新興路１８８號","OBJECTID":537966},"geometry":{"x":167332.69000000227,"y":2542004.6500000022}},{"attributes":{"ID":537994,"DIS_CODE":0,"TOWNNAME":"南區","LI":"新興里","LIN":"19鄰","STREET":"新興路","SECT":" ","MAREA":" ","LANE":" ","ALLEY":" ","HOUSE_NO":"１９０號","E_COORD97":167327.37,"N_COORD97":2542002.8300000001,"ADDRESS":"新興路１９０號","OBJECTID":537967},"geometry":{"x":167327.37000000011,"y":2542002.8300000019}},{"attributes":{"ID":537995,"DIS_CODE":0,"TOWNNAME":"歸仁區","LI":"新厝里","LIN":"19鄰","STREET":"大成路","SECT":" ","MAREA":" ","LANE":" ","ALLEY":" ","HOUSE_NO":"８０號","E_COORD97":177647.79000000001,"N_COORD97":2540349.1800000002,"ADDRESS":"大成路８０號","OBJECTID":537968},"geometry":{"x":177647.79000000004,"y":2540349.1800000016}},{"attributes":{"ID":537996,"DIS_CODE":0,"TOWNNAME":"歸仁區","LI":"歸仁里","LIN":"19鄰","STREET":"忠孝北路","SECT":" ","MAREA":" ","LANE":" ","ALLEY":" ","HOUSE_NO":"１５３號","E_COORD97":178182.98999999999,"N_COORD97":2541098.1099999999,"ADDRESS":"忠孝北路１５３號","OBJECTID":537969},"geometry":{"x":178182.99000000209,"y":2541098.1100000013}},{"attributes":{"ID":537997,"DIS_CODE":0,"TOWNNAME":"歸仁區","LI":"看西里","LIN":"19鄰","STREET":"成功八街","SECT":" ","MAREA":" ","LANE":" ","ALLEY":" ","HOUSE_NO":"８號","E_COORD97":178105.07999999999,"N_COORD97":2539852.25,"ADDRESS":"成功八街８號","OBJECTID":537970},"geometry":{"x":178105.08000000101,"y":2539852.2500000037}},{"attributes":{"ID":537998,"DIS_CODE":0,"TOWNNAME":"中西區","LI":"仙草里","LIN":"14鄰","STREET":"西門路","SECT":"一段","MAREA":" ","LANE":" ","ALLEY":" ","HOUSE_NO":"５００號","E_COORD97":167747.42000000001,"N_COORD97":2542768.75,"ADDRESS":"西門路一段５００號","OBJECTID":537971},"geometry":{"x":167747.41999999993,"y":2542768.7500000019}},{"attributes":{"ID":537999,"DIS_CODE":0,"TOWNNAME":"中西區","LI":"仙草里","LIN":"14鄰","STREET":"西門路","SECT":"一段","MAREA":" ","LANE":" ","ALLEY":" ","HOUSE_NO":"５０２號","E_COORD97":167747.42000000001,"N_COORD97":2542772.5099999998,"ADDRESS":"西門路一段５０２號","OBJECTID":537972},"geometry":{"x":167747.41999999993,"y":2542772.5099999998}},{"attributes":{"ID":538000,"DIS_CODE":0,"TOWNNAME":"中西區","LI":"仙草里","LIN":"14鄰","STREET":"西門路","SECT":"一段","MAREA":" ","LANE":" ","ALLEY":" ","HOUSE_NO":"５０４號","E_COORD97":167746.82000000001,"N_COORD97":2542777.8599999999,"ADDRESS":"西門路一段５０４號","OBJECTID":537973},"geometry":{"x":167746.8200000003,"y":2542777.8600000013}},{"attributes":{"ID":538001,"DIS_CODE":0,"TOWNNAME":"中西區","LI":"仙草里","LIN":"14鄰","STREET":"西門路","SECT":"一段","MAREA":" ","LANE":" ","ALLEY":" ","HOUSE_NO":"５１２號","E_COORD97":167746.03,"N_COORD97":2542814.1800000002,"ADDRESS":"西門路一段５１２號","OBJECTID":537974},"geometry":{"x":167746.03000000119,"y":2542814.1799999997}},{"attributes":{"ID":538002,"DIS_CODE":0,"TOWNNAME":"中西區","LI":"仙草里","LIN":"14鄰","STREET":"府緯街","SECT":" ","MAREA":" ","LANE":" ","ALLEY":" ","HOUSE_NO":"４９號","E_COORD97":167821.72,"N_COORD97":2542706.0299999998,"ADDRESS":"府緯街４９號","OBJECTID":537975},"geometry":{"x":167821.7200000016,"y":2542706.0300000012}},{"attributes":{"ID":538003,"DIS_CODE":0,"TOWNNAME":"中西區","LI":"仙草里","LIN":"14鄰","STREET":"府緯街","SECT":" ","MAREA":" ","LANE":" ","ALLEY":" ","HOUSE_NO":"５３號","E_COORD97":167804.48000000001,"N_COORD97":2542712.1699999999,"ADDRESS":"府緯街５３號","OBJECTID":537976},"geometry":{"x":167804.48000000138,"y":2542712.1700000018}},{"attributes":{"ID":538004,"DIS_CODE":0,"TOWNNAME":"新營區","LI":"民權里","LIN":"19鄰","STREET":"仁愛街","SECT":" ","MAREA":" ","LANE":" ","ALLEY":" ","HOUSE_NO":"１１號","E_COORD97":179817.92999999999,"N_COORD97":2578174.8900000001,"ADDRESS":"仁愛街１１號","OBJECTID":537977},"geometry":{"x":179817.9299999997,"y":2578174.8900000025}},{"attributes":{"ID":538005,"DIS_CODE":0,"TOWNNAME":"新營區","LI":"三仙里","LIN":"19鄰","STREET":"三民路","SECT":" ","MAREA":" ","LANE":" ","ALLEY":" ","HOUSE_NO":"１３８號之７","E_COORD97":179591.53,"N_COORD97":2578451.79,"ADDRESS":"三民路１３８號之７","OBJECTID":537978},"geometry":{"x":179591.53000000212,"y":2578451.790000001}},{"attributes":{"ID":538006,"DIS_CODE":0,"TOWNNAME":"新營區","LI":"三仙里","LIN":"19鄰","STREET":"三民路","SECT":" ","MAREA":" ","LANE":" ","ALLEY":" ","HOUSE_NO":"１４０號之３２","E_COORD97":179557.03,"N_COORD97":2578448.6299999999,"ADDRESS":"三民路１４０號之３２","OBJECTID":537979},"geometry":{"x":179557.03000000026,"y":2578448.6300000008}},{"attributes":{"ID":538007,"DIS_CODE":0,"TOWNNAME":"新營區","LI":"三仙里","LIN":"19鄰","STREET":"三民路","SECT":" ","MAREA":" ","LANE":" ","ALLEY":" ","HOUSE_NO":"１３８之１４號","E_COORD97":179585.01999999999,"N_COORD97":2578479.5099999998,"ADDRESS":"三民路１３８之１４號","OBJECTID":537980},"geometry":{"x":179585.01999999955,"y":2578479.5099999998}},{"attributes":{"ID":538008,"DIS_CODE":0,"TOWNNAME":"新營區","LI":"大宏里","LIN":"19鄰","STREET":"三民路","SECT":" ","MAREA":" ","LANE":" ","ALLEY":" ","HOUSE_NO":"３６之２２號","E_COORD97":180447.31,"N_COORD97":2578513.0800000001,"ADDRESS":"三民路３６之２２號","OBJECTID":537981},"geometry":{"x":180447.31000000052,"y":2578513.0800000001}},{"attributes":{"ID":538009,"DIS_CODE":0,"TOWNNAME":"新營區","LI":"民權里","LIN":"19鄰","STREET":"博愛街","SECT":" ","MAREA":" ","LANE":" ","ALLEY":" ","HOUSE_NO":"５４號","E_COORD97":179798.37,"N_COORD97":2578143.98,"ADDRESS":"博愛街５４號","OBJECTID":537982},"geometry":{"x":179798.37000000104,"y":2578143.9800000004}},{"attributes":{"ID":538010,"DIS_CODE":0,"TOWNNAME":"安平區","LI":"建平里","LIN":"19鄰","STREET":"文平路","SECT":" ","MAREA":" ","LANE":" ","ALLEY":" ","HOUSE_NO":"４３０號","E_COORD97":165822.85000000001,"N_COORD97":2543781.6899999999,"ADDRESS":"文平路４３０號","OBJECTID":537983},"geometry":{"x":165822.85000000056,"y":2543781.6900000032}},{"attributes":{"ID":538011,"DIS_CODE":0,"TOWNNAME":"安平區","LI":"建平里","LIN":"19鄰","STREET":"文平路","SECT":" ","MAREA":" ","LANE":" ","ALLEY":" ","HOUSE_NO":"４３２號","E_COORD97":165823.17999999999,"N_COORD97":2543791.5499999998,"ADDRESS":"文平路４３２號","OBJECTID":537984},"geometry":{"x":165823.18000000156,"y":2543791.5500000026}},{"attributes":{"ID":538012,"DIS_CODE":0,"TOWNNAME":"安平區","LI":"建平里","LIN":"19鄰","STREET":"文平路","SECT":" ","MAREA":" ","LANE":" ","ALLEY":" ","HOUSE_NO":"４３６號","E_COORD97":165823.01999999999,"N_COORD97":2543800.7599999998,"ADDRESS":"文平路４３６號","OBJECTID":537985},"geometry":{"x":165823.02000000048,"y":2543800.7599999998}},{"attributes":{"ID":538013,"DIS_CODE":0,"TOWNNAME":"安平區","LI":"建平里","LIN":"19鄰","STREET":"文平路","SECT":" ","MAREA":" ","LANE":" ","ALLEY":" ","HOUSE_NO":"４３８號","E_COORD97":165824.47,"N_COORD97":2543808.8399999999,"ADDRESS":"文平路４３８號","OBJECTID":537986},"geometry":{"x":165824.46999999974,"y":2543808.8400000017}},{"attributes":{"ID":538014,"DIS_CODE":0,"TOWNNAME":"安平區","LI":"建平里","LIN":"19鄰","STREET":"怡平路","SECT":" ","MAREA":" ","LANE":" ","ALLEY":" ","HOUSE_NO":"１５４號","E_COORD97":165822.98000000001,"N_COORD97":2543778.6299999999,"ADDRESS":"怡平路１５４號","OBJECTID":537987},"geometry":{"x":165822.98000000045,"y":2543778.6300000008}},{"attributes":{"ID":538015,"DIS_CODE":0,"TOWNNAME":"中西區","LI":"仙草里","LIN":"14鄰","STREET":"府緯街","SECT":" ","MAREA":" ","LANE":" ","ALLEY":" ","HOUSE_NO":"６６號","E_COORD97":167804.64000000001,"N_COORD97":2542733.79,"ADDRESS":"府緯街６６號","OBJECTID":537988},"geometry":{"x":167804.63999999966,"y":2542733.790000001}},{"attributes":{"ID":538016,"DIS_CODE":0,"TOWNNAME":"中西區","LI":"仙草里","LIN":"14鄰","STREET":"府緯街","SECT":" ","MAREA":" ","LANE":" ","ALLEY":" ","HOUSE_NO":"６７號","E_COORD97":167756.87,"N_COORD97":2542713.8799999999,"ADDRESS":"府緯街６７號","OBJECTID":537989},"geometry":{"x":167756.87000000104,"y":2542713.879999999}},{"attributes":{"ID":538017,"DIS_CODE":0,"TOWNNAME":"中西區","LI":"仙草里","LIN":"14鄰","STREET":"府緯街","SECT":" ","MAREA":" ","LANE":" ","ALLEY":" ","HOUSE_NO":"６８號","E_COORD97":167800.29999999999,"N_COORD97":2542735.8700000001,"ADDRESS":"府緯街６８號","OBJECTID":537990},"geometry":{"x":167800.29999999981,"y":2542735.8700000029}},{"attributes":{"ID":538018,"DIS_CODE":0,"TOWNNAME":"中西區","LI":"仙草里","LIN":"14鄰","STREET":"府緯街","SECT":" ","MAREA":" ","LANE":" ","ALLEY":" ","HOUSE_NO":"７０號","E_COORD97":167796.13,"N_COORD97":2542734.48,"ADDRESS":"府緯街７０號","OBJECTID":537991},"geometry":{"x":167796.13000000082,"y":2542734.4800000023}},{"attributes":{"ID":538019,"DIS_CODE":0,"TOWNNAME":"安平區","LI":"建平里","LIN":"19鄰","STREET":"怡平路","SECT":" ","MAREA":" ","LANE":" ","ALLEY":" ","HOUSE_NO":"１４８號","E_COORD97":165851.34,"N_COORD97":2543774.9399999999,"ADDRESS":"怡平路１４８號","OBJECTID":537992},"geometry":{"x":165851.34000000078,"y":2543774.9399999995}},{"attributes":{"ID":538020,"DIS_CODE":0,"TOWNNAME":"安平區","LI":"建平里","LIN":"19鄰","STREET":"怡平路","SECT":" ","MAREA":" ","LANE":" ","ALLEY":" ","HOUSE_NO":"１４６號","E_COORD97":165860.38,"N_COORD97":2543773.5,"ADDRESS":"怡平路１４６號","OBJECTID":537993},"geometry":{"x":165860.37999999989,"y":2543773.5000000037}},{"attributes":{"ID":538021,"DIS_CODE":0,"TOWNNAME":"安平區","LI":"建平里","LIN":"19鄰","STREET":"怡平路","SECT":" ","MAREA":" ","LANE":" ","ALLEY":" ","HOUSE_NO":"１４２號","E_COORD97":165868.39000000001,"N_COORD97":2543772.6800000002,"ADDRESS":"怡平路１４２號","OBJECTID":537994},"geometry":{"x":165868.3900000006,"y":2543772.6800000016}},{"attributes":{"ID":538022,"DIS_CODE":0,"TOWNNAME":"南區","LI":"郡南里","LIN":"5鄰","STREET":"永興一街","SECT":" ","MAREA":" ","LANE":" ","ALLEY":" ","HOUSE_NO":"４號","E_COORD97":167289.42999999999,"N_COORD97":2540728.2599999998,"ADDRESS":"永興一街４號","OBJECTID":537995},"geometry":{"x":167289.4299999997,"y":2540728.2600000016}},{"attributes":{"ID":538023,"DIS_CODE":0,"TOWNNAME":"新營區","LI":"新東里","LIN":"19鄰","STREET":"東學路","SECT":" ","MAREA":" ","LANE":" ","ALLEY":" ","HOUSE_NO":"１０２號","E_COORD97":180945.76999999999,"N_COORD97":2579355.6800000002,"ADDRESS":"東學路１０２號","OBJECTID":537996},"geometry":{"x":180945.77000000048,"y":2579355.6799999997}},{"attributes":{"ID":538024,"DIS_CODE":0,"TOWNNAME":"新營區","LI":"民權里","LIN":"19鄰","STREET":"仁愛街","SECT":" ","MAREA":" ","LANE":" ","ALLEY":" ","HOUSE_NO":"３號","E_COORD97":179819.78,"N_COORD97":2578161.5899999999,"ADDRESS":"仁愛街３號","OBJECTID":537997},"geometry":{"x":179819.78000000026,"y":2578161.5900000017}},{"attributes":{"ID":538025,"DIS_CODE":0,"TOWNNAME":"南區","LI":"建南里","LIN":"19鄰","STREET":"明興路","SECT":" ","MAREA":" ","LANE":" ","ALLEY":" ","HOUSE_NO":"７３號","E_COORD97":166677.64000000001,"N_COORD97":2539988.3199999998,"ADDRESS":"明興路７３號","OBJECTID":537998},"geometry":{"x":166677.63999999966,"y":2539988.3200000022}},{"attributes":{"ID":538026,"DIS_CODE":0,"TOWNNAME":"南區","LI":"大林里","LIN":"19鄰","STREET":"大林路","SECT":" ","MAREA":" ","LANE":" ","ALLEY":" ","HOUSE_NO":"１０１號","E_COORD97":169169.25,"N_COORD97":2541780.7200000002,"ADDRESS":"大林路１０１號","OBJECTID":537999},"geometry":{"x":169169.25,"y":2541780.7200000025}},{"attributes":{"ID":538027,"DIS_CODE":0,"TOWNNAME":"南區","LI":"大林里","LIN":"19鄰","STREET":"大林路","SECT":" ","MAREA":" ","LANE":" ","ALLEY":" ","HOUSE_NO":"１０３號","E_COORD97":169164.94,"N_COORD97":2541781.1499999999,"ADDRESS":"大林路１０３號","OBJECTID":538000},"geometry":{"x":169164.94000000041,"y":2541781.1500000004}}]}