{"displayFieldName":"TOWNNAME","fieldAliases":{"ID":"ID","DIS_CODE":"DIS_CODE","TOWNNAME":"TOWNNAME","LI":"LI","LIN":"LIN","STREET":"STREET","SECT":"SECT","MAREA":"MAREA","LANE":"LANE","ALLEY":"ALLEY","HOUSE_NO":"HOUSE_NO","E_COORD97":"E_COORD97","N_COORD97":"N_COORD97","ADDRESS":"ADDRESS","OBJECTID":"OBJECTID"},"geometryType":"esriGeometryPoint","spatialReference":{"wkid":102443,"latestWkid":3826},"fields":[{"name":"ID","type":"esriFieldTypeDouble","alias":"ID"},{"name":"DIS_CODE","type":"esriFieldTypeInteger","alias":"DIS_CODE"},{"name":"TOWNNAME","type":"esriFieldTypeString","alias":"TOWNNAME","length":8},{"name":"LI","type":"esriFieldTypeString","alias":"LI","length":8},{"name":"LIN","type":"esriFieldTypeString","alias":"LIN","length":12},{"name":"STREET","type":"esriFieldTypeString","alias":"STREET","length":20},{"name":"SECT","type":"esriFieldTypeString","alias":"SECT","length":8},{"name":"MAREA","type":"esriFieldTypeString","alias":"MAREA","length":12},{"name":"LANE","type":"esriFieldTypeString","alias":"LANE","length":10},{"name":"ALLEY","type":"esriFieldTypeString","alias":"ALLEY","length":10},{"name":"HOUSE_NO","type":"esriFieldTypeString","alias":"HOUSE_NO","length":20},{"name":"E_COORD97","type":"esriFieldTypeDouble","alias":"E_COORD97"},{"name":"N_COORD97","type":"esriFieldTypeDouble","alias":"N_COORD97"},{"name":"ADDRESS","type":"esriFieldTypeString","alias":"ADDRESS","length":50},{"name":"OBJECTID","type":"esriFieldTypeOID","alias":"OBJECTID"}],"features":[{"attributes":{"ID":40001,"DIS_CODE":0,"TOWNNAME":"新營區","LI":"土庫里","LIN":"17鄰","STREET":" ","SECT":" ","MAREA":"卯舍","LANE":" ","ALLEY":" ","HOUSE_NO":"７０號","E_COORD97":181246.78,"N_COORD97":2580126.1600000001,"ADDRESS":"卯舍７０號","OBJECTID":40001},"geometry":{"x":181246.78000000119,"y":2580126.1600000001}},{"attributes":{"ID":40002,"DIS_CODE":0,"TOWNNAME":"歸仁區","LI":"媽廟里","LIN":"7鄰","STREET":"中正北路","SECT":"三段","MAREA":" ","LANE":"２０５巷","ALLEY":"１１弄","HOUSE_NO":"２６號","E_COORD97":177524.26000000001,"N_COORD97":2543826.7200000002,"ADDRESS":"中正北路三段２０５巷１１弄２６號","OBJECTID":40002},"geometry":{"x":177524.25999999978,"y":2543826.7200000044}},{"attributes":{"ID":40003,"DIS_CODE":0,"TOWNNAME":"仁德區","LI":"大甲里","LIN":"14鄰","STREET":"行大街","SECT":" ","MAREA":" ","LANE":" ","ALLEY":" ","HOUSE_NO":"３７３號","E_COORD97":169548.82999999999,"N_COORD97":2535204.7400000002,"ADDRESS":"行大街３７３號","OBJECTID":40003},"geometry":{"x":169548.83000000101,"y":2535204.7400000039}},{"attributes":{"ID":40004,"DIS_CODE":0,"TOWNNAME":"仁德區","LI":"大甲里","LIN":"14鄰","STREET":"行大街","SECT":" ","MAREA":" ","LANE":" ","ALLEY":" ","HOUSE_NO":"３７５之３號","E_COORD97":169530.92999999999,"N_COORD97":2535212.04,"ADDRESS":"行大街３７５之３號","OBJECTID":40004},"geometry":{"x":169530.93000000063,"y":2535212.040000001}},{"attributes":{"ID":40005,"DIS_CODE":0,"TOWNNAME":"仁德區","LI":"大甲里","LIN":"14鄰","STREET":"行大街","SECT":" ","MAREA":" ","LANE":" ","ALLEY":" ","HOUSE_NO":"３７５號","E_COORD97":169541.34,"N_COORD97":2535207.4900000002,"ADDRESS":"行大街３７５號","OBJECTID":40005},"geometry":{"x":169541.33999999985,"y":2535207.4900000021}},{"attributes":{"ID":40006,"DIS_CODE":0,"TOWNNAME":"仁德區","LI":"大甲里","LIN":"14鄰","STREET":"行大街","SECT":" ","MAREA":" ","LANE":" ","ALLEY":" ","HOUSE_NO":"３７５之２號","E_COORD97":169535.17999999999,"N_COORD97":2535210.54,"ADDRESS":"行大街３７５之２號","OBJECTID":40006},"geometry":{"x":169535.1799999997,"y":2535210.5399999991}},{"attributes":{"ID":40007,"DIS_CODE":0,"TOWNNAME":"仁德區","LI":"仁愛里","LIN":"14鄰","STREET":" ","SECT":" ","MAREA":"仁愛","LANE":" ","ALLEY":" ","HOUSE_NO":"２９０號","E_COORD97":170259.16923999999,"N_COORD97":2539927.1499999999,"ADDRESS":"仁愛２９０號","OBJECTID":40007},"geometry":{"x":170259.16923999973,"y":2539927.1500000004}},{"attributes":{"ID":40008,"DIS_CODE":0,"TOWNNAME":"仁德區","LI":"中生里","LIN":"14鄰","STREET":" ","SECT":" ","MAREA":"中洲","LANE":" ","ALLEY":" ","HOUSE_NO":"２２８號","E_COORD97":173138.34,"N_COORD97":2533974.4900000002,"ADDRESS":"中洲２２８號","OBJECTID":40008},"geometry":{"x":173138.33999999985,"y":2533974.4900000002}},{"attributes":{"ID":40009,"DIS_CODE":0,"TOWNNAME":"左鎮區","LI":"中正里","LIN":"7鄰","STREET":" ","SECT":" ","MAREA":"中正","LANE":" ","ALLEY":" ","HOUSE_NO":"７８號之６","E_COORD97":189383.10000000001,"N_COORD97":2550932.2999999998,"ADDRESS":"中正７８號之６","OBJECTID":40009},"geometry":{"x":189383.09999999963,"y":2550932.3000000007}},{"attributes":{"ID":40010,"DIS_CODE":0,"TOWNNAME":"左鎮區","LI":"榮和里","LIN":"7鄰","STREET":" ","SECT":" ","MAREA":"菜寮","LANE":" ","ALLEY":" ","HOUSE_NO":"６３號之４","E_COORD97":187687.29999999999,"N_COORD97":2551096.2999999998,"ADDRESS":"菜寮６３號之４","OBJECTID":40010},"geometry":{"x":187687.30000000075,"y":2551096.3000000026}},{"attributes":{"ID":40011,"DIS_CODE":0,"TOWNNAME":"左鎮區","LI":"榮和里","LIN":"7鄰","STREET":" ","SECT":" ","MAREA":"菜寮","LANE":" ","ALLEY":" ","HOUSE_NO":"６３號之１５","E_COORD97":187749.38,"N_COORD97":2551066.2999999998,"ADDRESS":"菜寮６３號之１５","OBJECTID":40011},"geometry":{"x":187749.38000000175,"y":2551066.3000000026}},{"attributes":{"ID":40012,"DIS_CODE":0,"TOWNNAME":"左鎮區","LI":"榮和里","LIN":"7鄰","STREET":" ","SECT":" ","MAREA":"菜寮","LANE":" ","ALLEY":" ","HOUSE_NO":"６３號之２４","E_COORD97":187780.04999999999,"N_COORD97":2551050.2999999998,"ADDRESS":"菜寮６３號之２４","OBJECTID":40012},"geometry":{"x":187780.04999999981,"y":2551050.3000000007}},{"attributes":{"ID":40013,"DIS_CODE":0,"TOWNNAME":"新化區","LI":"唪口里","LIN":"4鄰","STREET":"大德路","SECT":" ","MAREA":" ","LANE":" ","ALLEY":" ","HOUSE_NO":"８８號之１８","E_COORD97":178147.59,"N_COORD97":2549498.2599999998,"ADDRESS":"大德路８８號之１８","OBJECTID":40013},"geometry":{"x":178147.58999999985,"y":2549498.2600000016}},{"attributes":{"ID":40014,"DIS_CODE":0,"TOWNNAME":"新化區","LI":"唪口里","LIN":"4鄰","STREET":"大德路","SECT":" ","MAREA":" ","LANE":" ","ALLEY":" ","HOUSE_NO":"８８號之５","E_COORD97":178166.94,"N_COORD97":2549492.2599999998,"ADDRESS":"大德路８８號之５","OBJECTID":40014},"geometry":{"x":178166.94000000134,"y":2549492.2600000016}},{"attributes":{"ID":40015,"DIS_CODE":0,"TOWNNAME":"新化區","LI":"太平里","LIN":"4鄰","STREET":"民生路","SECT":" ","MAREA":" ","LANE":" ","ALLEY":" ","HOUSE_NO":"２２５號","E_COORD97":179046.31,"N_COORD97":2548979.25,"ADDRESS":"民生路２２５號","OBJECTID":40015},"geometry":{"x":179046.30999999866,"y":2548979.2500000037}},{"attributes":{"ID":40016,"DIS_CODE":0,"TOWNNAME":"新化區","LI":"協興里","LIN":"14鄰","STREET":"太平街","SECT":" ","MAREA":" ","LANE":" ","ALLEY":" ","HOUSE_NO":"１６０號之１","E_COORD97":178258.25,"N_COORD97":2548671.2599999998,"ADDRESS":"太平街１６０號之１","OBJECTID":40016},"geometry":{"x":178258.25,"y":2548671.2600000016}},{"attributes":{"ID":40017,"DIS_CODE":0,"TOWNNAME":"歸仁區","LI":"看東里","LIN":"7鄰","STREET":"成功路","SECT":"一段","MAREA":" ","LANE":"１５５巷","ALLEY":"１６弄","HOUSE_NO":"１號","E_COORD97":178576.39999999999,"N_COORD97":2540165.4500000002,"ADDRESS":"成功路一段１５５巷１６弄１號","OBJECTID":40017},"geometry":{"x":178576.40000000037,"y":2540165.450000003}},{"attributes":{"ID":40018,"DIS_CODE":0,"TOWNNAME":"玉井區","LI":"竹圍里","LIN":"7鄰","STREET":"中正路","SECT":" ","MAREA":" ","LANE":"４４８巷","ALLEY":"１８弄","HOUSE_NO":"１１號","E_COORD97":195580.34,"N_COORD97":2558647.0899999999,"ADDRESS":"中正路４４８巷１８弄１１號","OBJECTID":40018},"geometry":{"x":195580.34000000078,"y":2558647.0900000017}},{"attributes":{"ID":40019,"DIS_CODE":0,"TOWNNAME":"玉井區","LI":"竹圍里","LIN":"7鄰","STREET":"中正路","SECT":" ","MAREA":" ","LANE":"４４８巷","ALLEY":"２１弄","HOUSE_NO":"８號","E_COORD97":195579.25,"N_COORD97":2558636.6400000001,"ADDRESS":"中正路４４８巷２１弄８號","OBJECTID":40019},"geometry":{"x":195579.25000000093,"y":2558636.6400000043}},{"attributes":{"ID":40020,"DIS_CODE":0,"TOWNNAME":"玉井區","LI":"竹圍里","LIN":"7鄰","STREET":"中正路","SECT":" ","MAREA":" ","LANE":"４４８巷","ALLEY":"２１弄","HOUSE_NO":"２號","E_COORD97":195579.41,"N_COORD97":2558626.7599999998,"ADDRESS":"中正路４４８巷２１弄２號","OBJECTID":40020},"geometry":{"x":195579.40999999922,"y":2558626.7599999998}},{"attributes":{"ID":40021,"DIS_CODE":0,"TOWNNAME":"鹽水區","LI":"橋南里","LIN":"7鄰","STREET":"南門路","SECT":" ","MAREA":" ","LANE":"２０１巷","ALLEY":"３３弄","HOUSE_NO":"６０號","E_COORD97":175513.57000000001,"N_COORD97":2579058.3500000001,"ADDRESS":"南門路２０１巷３３弄６０號","OBJECTID":40021},"geometry":{"x":175513.5700000003,"y":2579058.3500000015}},{"attributes":{"ID":40022,"DIS_CODE":0,"TOWNNAME":"北區","LI":"文元里","LIN":"7鄰","STREET":"文賢路","SECT":" ","MAREA":" ","LANE":"１１２２巷","ALLEY":"９２弄","HOUSE_NO":"１６號","E_COORD97":167568.32999999999,"N_COORD97":2546340.0899999999,"ADDRESS":"文賢路１１２２巷９２弄１６號","OBJECTID":40022},"geometry":{"x":167568.33000000007,"y":2546340.0900000017}},{"attributes":{"ID":40023,"DIS_CODE":0,"TOWNNAME":"北區","LI":"文元里","LIN":"7鄰","STREET":"文賢路","SECT":" ","MAREA":" ","LANE":"１１２２巷","ALLEY":"９２弄","HOUSE_NO":"２０號","E_COORD97":167568.92999999999,"N_COORD97":2546330.5699999998,"ADDRESS":"文賢路１１２２巷９２弄２０號","OBJECTID":40023},"geometry":{"x":167568.9299999997,"y":2546330.5700000022}},{"attributes":{"ID":40024,"DIS_CODE":0,"TOWNNAME":"北區","LI":"文元里","LIN":"7鄰","STREET":"文賢路","SECT":" ","MAREA":" ","LANE":"１１２２巷","ALLEY":"９２弄","HOUSE_NO":"２號","E_COORD97":167565.95000000001,"N_COORD97":2546371.3199999998,"ADDRESS":"文賢路１１２２巷９２弄２號","OBJECTID":40024},"geometry":{"x":167565.95000000019,"y":2546371.3200000003}},{"attributes":{"ID":40025,"DIS_CODE":0,"TOWNNAME":"北區","LI":"正覺里","LIN":"7鄰","STREET":"北安路","SECT":"一段","MAREA":" ","LANE":"５１巷","ALLEY":"１弄","HOUSE_NO":"１０號","E_COORD97":169202.25,"N_COORD97":2546163.02,"ADDRESS":"北安路一段５１巷１弄１０號","OBJECTID":40025},"geometry":{"x":169202.25000000093,"y":2546163.0200000033}},{"attributes":{"ID":40026,"DIS_CODE":0,"TOWNNAME":"北區","LI":"正覺里","LIN":"7鄰","STREET":"北安路","SECT":"一段","MAREA":" ","LANE":"５１巷","ALLEY":"１弄","HOUSE_NO":"１１號","E_COORD97":169228.35999999999,"N_COORD97":2546161.8199999998,"ADDRESS":"北安路一段５１巷１弄１１號","OBJECTID":40026},"geometry":{"x":169228.3600000022,"y":2546161.820000004}},{"attributes":{"ID":40027,"DIS_CODE":0,"TOWNNAME":"北區","LI":"正覺里","LIN":"7鄰","STREET":"北安路","SECT":"一段","MAREA":" ","LANE":"５１巷","ALLEY":"１弄","HOUSE_NO":"１２號","E_COORD97":169205.97,"N_COORD97":2546159.3999999999,"ADDRESS":"北安路一段５１巷１弄１２號","OBJECTID":40027},"geometry":{"x":169205.96999999974,"y":2546159.4000000022}},{"attributes":{"ID":40028,"DIS_CODE":0,"TOWNNAME":"北區","LI":"正覺里","LIN":"7鄰","STREET":"北安路","SECT":"一段","MAREA":" ","LANE":"５１巷","ALLEY":"１弄","HOUSE_NO":"１３號","E_COORD97":169224.35000000001,"N_COORD97":2546155.3599999999,"ADDRESS":"北安路一段５１巷１弄１３號","OBJECTID":40028},"geometry":{"x":169224.35000000149,"y":2546155.3600000013}},{"attributes":{"ID":40029,"DIS_CODE":0,"TOWNNAME":"北區","LI":"正覺里","LIN":"7鄰","STREET":"北安路","SECT":"一段","MAREA":" ","LANE":"５１巷","ALLEY":"１弄","HOUSE_NO":"１７號","E_COORD97":169217.98000000001,"N_COORD97":2546144.6899999999,"ADDRESS":"北安路一段５１巷１弄１７號","OBJECTID":40029},"geometry":{"x":169217.98000000138,"y":2546144.6900000032}},{"attributes":{"ID":40030,"DIS_CODE":0,"TOWNNAME":"北區","LI":"正覺里","LIN":"7鄰","STREET":"北安路","SECT":"一段","MAREA":" ","LANE":"５１巷","ALLEY":"１弄","HOUSE_NO":"１９號","E_COORD97":169214.75,"N_COORD97":2546138.8199999998,"ADDRESS":"北安路一段５１巷１弄１９號","OBJECTID":40030},"geometry":{"x":169214.75,"y":2546138.8200000022}},{"attributes":{"ID":40031,"DIS_CODE":0,"TOWNNAME":"北區","LI":"正覺里","LIN":"7鄰","STREET":"北安路","SECT":"一段","MAREA":" ","LANE":"５１巷","ALLEY":"１弄","HOUSE_NO":"１號","E_COORD97":169193.25,"N_COORD97":2546194.1899999999,"ADDRESS":"北安路一段５１巷１弄１號","OBJECTID":40031},"geometry":{"x":169193.25000000186,"y":2546194.1899999995}},{"attributes":{"ID":40032,"DIS_CODE":0,"TOWNNAME":"北區","LI":"正覺里","LIN":"7鄰","STREET":"北安路","SECT":"一段","MAREA":" ","LANE":"５１巷","ALLEY":"１弄","HOUSE_NO":"２１號","E_COORD97":169210.34,"N_COORD97":2546134.6099999999,"ADDRESS":"北安路一段５１巷１弄２１號","OBJECTID":40032},"geometry":{"x":169210.33999999985,"y":2546134.6099999994}},{"attributes":{"ID":40033,"DIS_CODE":0,"TOWNNAME":"北區","LI":"正覺里","LIN":"7鄰","STREET":"北安路","SECT":"一段","MAREA":" ","LANE":"５１巷","ALLEY":"１弄","HOUSE_NO":"２號","E_COORD97":169182.37,"N_COORD97":2546178.0899999999,"ADDRESS":"北安路一段５１巷１弄２號","OBJECTID":40033},"geometry":{"x":169182.37000000197,"y":2546178.0899999999}},{"attributes":{"ID":40034,"DIS_CODE":0,"TOWNNAME":"北區","LI":"正覺里","LIN":"7鄰","STREET":"北安路","SECT":"一段","MAREA":" ","LANE":"５１巷","ALLEY":"１弄","HOUSE_NO":"３號","E_COORD97":169198.25,"N_COORD97":2546190.4700000002,"ADDRESS":"北安路一段５１巷１弄３號","OBJECTID":40034},"geometry":{"x":169198.25000000186,"y":2546190.4700000007}},{"attributes":{"ID":40035,"DIS_CODE":0,"TOWNNAME":"北區","LI":"正覺里","LIN":"7鄰","STREET":"北安路","SECT":"一段","MAREA":" ","LANE":"５１巷","ALLEY":"１弄","HOUSE_NO":"４號","E_COORD97":169186.78,"N_COORD97":2546173.98,"ADDRESS":"北安路一段５１巷１弄４號","OBJECTID":40035},"geometry":{"x":169186.78000000119,"y":2546173.9800000004}},{"attributes":{"ID":40036,"DIS_CODE":0,"TOWNNAME":"北區","LI":"正覺里","LIN":"7鄰","STREET":"北安路","SECT":"一段","MAREA":" ","LANE":"５１巷","ALLEY":"１弄","HOUSE_NO":"５號","E_COORD97":169203.04999999999,"N_COORD97":2546186.2599999998,"ADDRESS":"北安路一段５１巷１弄５號","OBJECTID":40036},"geometry":{"x":169203.05000000075,"y":2546186.2600000016}},{"attributes":{"ID":40037,"DIS_CODE":0,"TOWNNAME":"北區","LI":"正覺里","LIN":"7鄰","STREET":"北安路","SECT":"一段","MAREA":" ","LANE":"５１巷","ALLEY":"１弄","HOUSE_NO":"６號","E_COORD97":169192.16,"N_COORD97":2546170.46,"ADDRESS":"北安路一段５１巷１弄６號","OBJECTID":40037},"geometry":{"x":169192.16000000201,"y":2546170.4600000009}},{"attributes":{"ID":40038,"DIS_CODE":0,"TOWNNAME":"善化區","LI":"光文里","LIN":"14鄰","STREET":"民生路","SECT":" ","MAREA":" ","LANE":" ","ALLEY":" ","HOUSE_NO":"１７７號","E_COORD97":178457.37,"N_COORD97":2558951.2599999998,"ADDRESS":"民生路１７７號","OBJECTID":40038},"geometry":{"x":178457.37000000104,"y":2558951.2600000016}},{"attributes":{"ID":40039,"DIS_CODE":0,"TOWNNAME":"新化區","LI":"太平里","LIN":"14鄰","STREET":"民權街","SECT":" ","MAREA":" ","LANE":" ","ALLEY":" ","HOUSE_NO":"１４１號","E_COORD97":178702.81,"N_COORD97":2548844.25,"ADDRESS":"民權街１４１號","OBJECTID":40039},"geometry":{"x":178702.81000000052,"y":2548844.2500000019}},{"attributes":{"ID":40040,"DIS_CODE":0,"TOWNNAME":"新化區","LI":"唪口里","LIN":"4鄰","STREET":"大德路","SECT":" ","MAREA":" ","LANE":" ","ALLEY":" ","HOUSE_NO":"８８號之１６","E_COORD97":178147.07999999999,"N_COORD97":2549489.2599999998,"ADDRESS":"大德路８８號之１６","OBJECTID":40040},"geometry":{"x":178147.08000000101,"y":2549489.2599999998}},{"attributes":{"ID":40041,"DIS_CODE":0,"TOWNNAME":"新化區","LI":"中央里","LIN":"4鄰","STREET":"大同街","SECT":" ","MAREA":" ","LANE":" ","ALLEY":" ","HOUSE_NO":"１２８號","E_COORD97":178973.42999999999,"N_COORD97":2548394.25,"ADDRESS":"大同街１２８號","OBJECTID":40041},"geometry":{"x":178973.43000000063,"y":2548394.2500000019}},{"attributes":{"ID":40042,"DIS_CODE":0,"TOWNNAME":"新化區","LI":"中央里","LIN":"4鄰","STREET":"中山路","SECT":" ","MAREA":" ","LANE":" ","ALLEY":" ","HOUSE_NO":"２４５號","E_COORD97":179063.60999999999,"N_COORD97":2548416.25,"ADDRESS":"中山路２４５號","OBJECTID":40042},"geometry":{"x":179063.61000000034,"y":2548416.2499999981}},{"attributes":{"ID":40043,"DIS_CODE":0,"TOWNNAME":"新化區","LI":"東榮里","LIN":"25鄰","STREET":"中正路","SECT":" ","MAREA":" ","LANE":" ","ALLEY":" ","HOUSE_NO":"３１２號","E_COORD97":179159.20999999999,"N_COORD97":2548030.25,"ADDRESS":"中正路３１２號","OBJECTID":40043},"geometry":{"x":179159.20999999996,"y":2548030.2500000037}},{"attributes":{"ID":40044,"DIS_CODE":0,"TOWNNAME":"左鎮區","LI":"岡林里","LIN":"7鄰","STREET":" ","SECT":" ","MAREA":"岡林","LANE":" ","ALLEY":" ","HOUSE_NO":"７７號","E_COORD97":189995.45999999999,"N_COORD97":2546693.25,"ADDRESS":"岡林７７號","OBJECTID":40044},"geometry":{"x":189995.46000000089,"y":2546693.25}},{"attributes":{"ID":40045,"DIS_CODE":0,"TOWNNAME":"左鎮區","LI":"榮和里","LIN":"7鄰","STREET":" ","SECT":" ","MAREA":"菜寮","LANE":" ","ALLEY":" ","HOUSE_NO":"６４號之１","E_COORD97":187757.17999999999,"N_COORD97":2551040.2999999998,"ADDRESS":"菜寮６４號之１","OBJECTID":40045},"geometry":{"x":187757.17999999877,"y":2551040.3000000007}},{"attributes":{"ID":40046,"DIS_CODE":0,"TOWNNAME":"左鎮區","LI":"榮和里","LIN":"7鄰","STREET":" ","SECT":" ","MAREA":"菜寮","LANE":" ","ALLEY":" ","HOUSE_NO":"６５號之３","E_COORD97":187651.37,"N_COORD97":2551142.2999999998,"ADDRESS":"菜寮６５號之３","OBJECTID":40046},"geometry":{"x":187651.37000000197,"y":2551142.3000000007}},{"attributes":{"ID":40047,"DIS_CODE":0,"TOWNNAME":"北區","LI":"正覺里","LIN":"7鄰","STREET":"北安路","SECT":"一段","MAREA":" ","LANE":"５１巷","ALLEY":"１弄","HOUSE_NO":"７號","E_COORD97":169208.34,"N_COORD97":2546183.0299999998,"ADDRESS":"北安路一段５１巷１弄７號","OBJECTID":40047},"geometry":{"x":169208.34000000078,"y":2546183.0300000031}},{"attributes":{"ID":40048,"DIS_CODE":0,"TOWNNAME":"左鎮區","LI":"內庄里","LIN":"7鄰","STREET":" ","SECT":" ","MAREA":"內庄","LANE":" ","ALLEY":" ","HOUSE_NO":"５９號","E_COORD97":191229.42999999999,"N_COORD97":2549344.25,"ADDRESS":"內庄５９號","OBJECTID":40048},"geometry":{"x":191229.43000000063,"y":2549344.25}},{"attributes":{"ID":40049,"DIS_CODE":0,"TOWNNAME":"左鎮區","LI":"二寮里","LIN":"7鄰","STREET":" ","SECT":" ","MAREA":"二寮","LANE":" ","ALLEY":" ","HOUSE_NO":"６３號","E_COORD97":188326.94,"N_COORD97":2544390.25,"ADDRESS":"二寮６３號","OBJECTID":40049},"geometry":{"x":188326.94000000041,"y":2544390.2500000019}},{"attributes":{"ID":40050,"DIS_CODE":0,"TOWNNAME":"左鎮區","LI":"光和里","LIN":"7鄰","STREET":" ","SECT":" ","MAREA":"光和","LANE":" ","ALLEY":" ","HOUSE_NO":"６７號之３","E_COORD97":187691.67000000001,"N_COORD97":2550751.2999999998,"ADDRESS":"光和６７號之３","OBJECTID":40050},"geometry":{"x":187691.67000000086,"y":2550751.3000000007}},{"attributes":{"ID":40051,"DIS_CODE":0,"TOWNNAME":"左鎮區","LI":"中正里","LIN":"7鄰","STREET":" ","SECT":" ","MAREA":"中正","LANE":" ","ALLEY":" ","HOUSE_NO":"７９號之３","E_COORD97":189374.70000000001,"N_COORD97":2550992.2999999998,"ADDRESS":"中正７９號之３","OBJECTID":40051},"geometry":{"x":189374.70000000019,"y":2550992.3000000007}},{"attributes":{"ID":40052,"DIS_CODE":0,"TOWNNAME":"左鎮區","LI":"榮和里","LIN":"7鄰","STREET":" ","SECT":" ","MAREA":"菜寮","LANE":" ","ALLEY":" ","HOUSE_NO":"７９號之１","E_COORD97":188179.28,"N_COORD97":2550973.2999999998,"ADDRESS":"菜寮７９號之１","OBJECTID":40052},"geometry":{"x":188179.28000000212,"y":2550973.3000000045}},{"attributes":{"ID":40053,"DIS_CODE":0,"TOWNNAME":"左鎮區","LI":"榮和里","LIN":"7鄰","STREET":" ","SECT":" ","MAREA":"菜寮","LANE":" ","ALLEY":" ","HOUSE_NO":"６３號之３","E_COORD97":187681.57000000001,"N_COORD97":2551099.2999999998,"ADDRESS":"菜寮６３號之３","OBJECTID":40053},"geometry":{"x":187681.5700000003,"y":2551099.3000000026}},{"attributes":{"ID":40054,"DIS_CODE":0,"TOWNNAME":"左鎮區","LI":"岡林里","LIN":"7鄰","STREET":" ","SECT":" ","MAREA":"岡林","LANE":" ","ALLEY":" ","HOUSE_NO":"７０號之１","E_COORD97":190091.89999999999,"N_COORD97":2546287.2999999998,"ADDRESS":"岡林７０號之１","OBJECTID":40054},"geometry":{"x":190091.90000000037,"y":2546287.3000000007}},{"attributes":{"ID":40055,"DIS_CODE":0,"TOWNNAME":"左鎮區","LI":"左鎮里","LIN":"7鄰","STREET":" ","SECT":" ","MAREA":"左鎮","LANE":" ","ALLEY":" ","HOUSE_NO":"７２號之１","E_COORD97":188509.79999999999,"N_COORD97":2549642.2999999998,"ADDRESS":"左鎮７２號之１","OBJECTID":40055},"geometry":{"x":188509.80000000075,"y":2549642.3000000026}},{"attributes":{"ID":40056,"DIS_CODE":0,"TOWNNAME":"左鎮區","LI":"榮和里","LIN":"7鄰","STREET":" ","SECT":" ","MAREA":"菜寮","LANE":" ","ALLEY":" ","HOUSE_NO":"７９號","E_COORD97":188247.04000000001,"N_COORD97":2550974.25,"ADDRESS":"菜寮７９號","OBJECTID":40056},"geometry":{"x":188247.04000000097,"y":2550974.2500000019}},{"attributes":{"ID":40057,"DIS_CODE":0,"TOWNNAME":"左鎮區","LI":"二寮里","LIN":"7鄰","STREET":" ","SECT":" ","MAREA":"二寮","LANE":" ","ALLEY":" ","HOUSE_NO":"６４號","E_COORD97":188325.44,"N_COORD97":2545350.25,"ADDRESS":"二寮６４號","OBJECTID":40057},"geometry":{"x":188325.44000000041,"y":2545350.25}},{"attributes":{"ID":40058,"DIS_CODE":0,"TOWNNAME":"左鎮區","LI":"二寮里","LIN":"7鄰","STREET":" ","SECT":" ","MAREA":"二寮","LANE":" ","ALLEY":" ","HOUSE_NO":"６６號","E_COORD97":188143.04000000001,"N_COORD97":2545303.25,"ADDRESS":"二寮６６號","OBJECTID":40058},"geometry":{"x":188143.04000000004,"y":2545303.25}},{"attributes":{"ID":40059,"DIS_CODE":0,"TOWNNAME":"北區","LI":"正覺里","LIN":"7鄰","STREET":"北安路","SECT":"一段","MAREA":" ","LANE":"５１巷","ALLEY":"１弄","HOUSE_NO":"８號","E_COORD97":169196.57000000001,"N_COORD97":2546166.7400000002,"ADDRESS":"北安路一段５１巷１弄８號","OBJECTID":40059},"geometry":{"x":169196.57000000123,"y":2546166.7400000021}},{"attributes":{"ID":40060,"DIS_CODE":0,"TOWNNAME":"北區","LI":"正覺里","LIN":"7鄰","STREET":"北安路","SECT":"一段","MAREA":" ","LANE":"５１巷","ALLEY":"１弄","HOUSE_NO":"９號","E_COORD97":169214.41,"N_COORD97":2546179.2200000002,"ADDRESS":"北安路一段５１巷１弄９號","OBJECTID":40060},"geometry":{"x":169214.41000000108,"y":2546179.2200000007}},{"attributes":{"ID":40061,"DIS_CODE":0,"TOWNNAME":"北區","LI":"正覺里","LIN":"7鄰","STREET":"北安路","SECT":"一段","MAREA":" ","LANE":"５１巷","ALLEY":"２弄","HOUSE_NO":"１０號","E_COORD97":169161.45000000001,"N_COORD97":2546220.5600000001,"ADDRESS":"北安路一段５１巷２弄１０號","OBJECTID":40061},"geometry":{"x":169161.45000000205,"y":2546220.5600000005}},{"attributes":{"ID":40062,"DIS_CODE":0,"TOWNNAME":"北區","LI":"正覺里","LIN":"7鄰","STREET":"北安路","SECT":"一段","MAREA":" ","LANE":"５１巷","ALLEY":"２弄","HOUSE_NO":"１１號","E_COORD97":169153.39999999999,"N_COORD97":2546216.6800000002,"ADDRESS":"北安路一段５１巷２弄１１號","OBJECTID":40062},"geometry":{"x":169153.39999999944,"y":2546216.6800000016}},{"attributes":{"ID":40063,"DIS_CODE":0,"TOWNNAME":"北區","LI":"正覺里","LIN":"7鄰","STREET":"北安路","SECT":"一段","MAREA":" ","LANE":"５１巷","ALLEY":"２弄","HOUSE_NO":"１號","E_COORD97":169171.22,"N_COORD97":2546188.3199999998,"ADDRESS":"北安路一段５１巷２弄１號","OBJECTID":40063},"geometry":{"x":169171.22000000067,"y":2546188.3200000003}},{"attributes":{"ID":40064,"DIS_CODE":0,"TOWNNAME":"北區","LI":"正覺里","LIN":"7鄰","STREET":"北安路","SECT":"一段","MAREA":" ","LANE":"５１巷","ALLEY":"２弄","HOUSE_NO":"２號","E_COORD97":169183.35000000001,"N_COORD97":2546204.1200000001,"ADDRESS":"北安路一段５１巷２弄２號","OBJECTID":40064},"geometry":{"x":169183.34999999963,"y":2546204.120000001}},{"attributes":{"ID":40065,"DIS_CODE":0,"TOWNNAME":"北區","LI":"正覺里","LIN":"7鄰","STREET":"北安路","SECT":"一段","MAREA":" ","LANE":"５１巷","ALLEY":"２弄","HOUSE_NO":"５號","E_COORD97":169161.34,"N_COORD97":2546194.8700000001,"ADDRESS":"北安路一段５１巷２弄５號","OBJECTID":40065},"geometry":{"x":169161.33999999985,"y":2546194.870000001}},{"attributes":{"ID":40066,"DIS_CODE":0,"TOWNNAME":"左鎮區","LI":"光和里","LIN":"7鄰","STREET":" ","SECT":" ","MAREA":"光和","LANE":" ","ALLEY":" ","HOUSE_NO":"６７號","E_COORD97":187853.04000000001,"N_COORD97":2550601.25,"ADDRESS":"光和６７號","OBJECTID":40066},"geometry":{"x":187853.04000000004,"y":2550601.2500000019}},{"attributes":{"ID":40067,"DIS_CODE":0,"TOWNNAME":"左鎮區","LI":"中正里","LIN":"7鄰","STREET":" ","SECT":" ","MAREA":"中正","LANE":" ","ALLEY":" ","HOUSE_NO":"７８號之７","E_COORD97":189380.67999999999,"N_COORD97":2550929.2999999998,"ADDRESS":"中正７８號之７","OBJECTID":40067},"geometry":{"x":189380.6799999997,"y":2550929.3000000045}},{"attributes":{"ID":40068,"DIS_CODE":0,"TOWNNAME":"東區","LI":"大德里","LIN":"14鄰","STREET":"立德十路","SECT":" ","MAREA":" ","LANE":" ","ALLEY":" ","HOUSE_NO":"３７號","E_COORD97":169504.57000000001,"N_COORD97":2542062.75,"ADDRESS":"立德十路３７號","OBJECTID":40068},"geometry":{"x":169504.5700000003,"y":2542062.7499999981}},{"attributes":{"ID":40069,"DIS_CODE":0,"TOWNNAME":"北區","LI":"正覺里","LIN":"7鄰","STREET":"北安路","SECT":"一段","MAREA":" ","LANE":"５１巷","ALLEY":"２弄","HOUSE_NO":"７號","E_COORD97":169153.29999999999,"N_COORD97":2546200.1299999999,"ADDRESS":"北安路一段５１巷２弄７號","OBJECTID":40069},"geometry":{"x":169153.29999999981,"y":2546200.1300000008}},{"attributes":{"ID":40070,"DIS_CODE":0,"TOWNNAME":"左鎮區","LI":"中正里","LIN":"7鄰","STREET":" ","SECT":" ","MAREA":"中正","LANE":" ","ALLEY":" ","HOUSE_NO":"７９號之１２","E_COORD97":189377.28,"N_COORD97":2551002.2999999998,"ADDRESS":"中正７９號之１２","OBJECTID":40070},"geometry":{"x":189377.28000000026,"y":2551002.3000000007}},{"attributes":{"ID":40071,"DIS_CODE":0,"TOWNNAME":"左鎮區","LI":"榮和里","LIN":"7鄰","STREET":" ","SECT":" ","MAREA":"菜寮","LANE":" ","ALLEY":" ","HOUSE_NO":"６３號","E_COORD97":187655.14000000001,"N_COORD97":2551106.25,"ADDRESS":"菜寮６３號","OBJECTID":40071},"geometry":{"x":187655.13999999966,"y":2551106.2500000019}},{"attributes":{"ID":40072,"DIS_CODE":0,"TOWNNAME":"左鎮區","LI":"中正里","LIN":"7鄰","STREET":" ","SECT":" ","MAREA":"中正","LANE":" ","ALLEY":" ","HOUSE_NO":"７８號之３","E_COORD97":189393.5,"N_COORD97":2550943.2999999998,"ADDRESS":"中正７８號之３","OBJECTID":40072},"geometry":{"x":189393.50000000093,"y":2550943.3000000026}},{"attributes":{"ID":40073,"DIS_CODE":0,"TOWNNAME":"北區","LI":"正覺里","LIN":"7鄰","STREET":"北安路","SECT":"一段","MAREA":" ","LANE":"５１巷","ALLEY":"２弄","HOUSE_NO":"８號","E_COORD97":169167.26999999999,"N_COORD97":2546216.5899999999,"ADDRESS":"北安路一段５１巷２弄８號","OBJECTID":40073},"geometry":{"x":169167.27000000048,"y":2546216.5899999999}},{"attributes":{"ID":40074,"DIS_CODE":0,"TOWNNAME":"北區","LI":"正覺里","LIN":"7鄰","STREET":"北安路","SECT":"一段","MAREA":" ","LANE":"５１巷","ALLEY":"２弄","HOUSE_NO":"９號","E_COORD97":169146.09,"N_COORD97":2546205.2999999998,"ADDRESS":"北安路一段５１巷２弄９號","OBJECTID":40074},"geometry":{"x":169146.08999999985,"y":2546205.3000000007}},{"attributes":{"ID":40075,"DIS_CODE":0,"TOWNNAME":"北區","LI":"正覺里","LIN":"7鄰","STREET":"北安路","SECT":"一段","MAREA":" ","LANE":"５１巷","ALLEY":"３弄","HOUSE_NO":"１１號","E_COORD97":169199.89999999999,"N_COORD97":2546149.8999999999,"ADDRESS":"北安路一段５１巷３弄１１號","OBJECTID":40075},"geometry":{"x":169199.9000000013,"y":2546149.9000000004}},{"attributes":{"ID":40076,"DIS_CODE":0,"TOWNNAME":"北區","LI":"正覺里","LIN":"7鄰","STREET":"北安路","SECT":"一段","MAREA":" ","LANE":"５１巷","ALLEY":"３弄","HOUSE_NO":"１號","E_COORD97":169172.48000000001,"N_COORD97":2546166.1499999999,"ADDRESS":"北安路一段５１巷３弄１號","OBJECTID":40076},"geometry":{"x":169172.48000000138,"y":2546166.1499999985}},{"attributes":{"ID":40077,"DIS_CODE":0,"TOWNNAME":"北區","LI":"正覺里","LIN":"7鄰","STREET":"北安路","SECT":"一段","MAREA":" ","LANE":"５１巷","ALLEY":"３弄","HOUSE_NO":"３號","E_COORD97":169177.95999999999,"N_COORD97":2546163.4100000001,"ADDRESS":"北安路一段５１巷３弄３號","OBJECTID":40077},"geometry":{"x":169177.95999999996,"y":2546163.4100000001}},{"attributes":{"ID":40078,"DIS_CODE":0,"TOWNNAME":"中西區","LI":"三民里","LIN":"14鄰","STREET":"公園路","SECT":" ","MAREA":" ","LANE":" ","ALLEY":" ","HOUSE_NO":"２８號","E_COORD97":168559.47,"N_COORD97":2543883.6499999999,"ADDRESS":"公園路２８號","OBJECTID":40078},"geometry":{"x":168559.47000000067,"y":2543883.6500000004}},{"attributes":{"ID":40079,"DIS_CODE":0,"TOWNNAME":"中西區","LI":"三民里","LIN":"14鄰","STREET":"公園路","SECT":" ","MAREA":" ","LANE":" ","ALLEY":" ","HOUSE_NO":"３２號","E_COORD97":168560.70000000001,"N_COORD97":2543894.8599999999,"ADDRESS":"公園路３２號","OBJECTID":40079},"geometry":{"x":168560.70000000019,"y":2543894.8599999994}},{"attributes":{"ID":40080,"DIS_CODE":0,"TOWNNAME":"北區","LI":"正覺里","LIN":"7鄰","STREET":"北安路","SECT":"一段","MAREA":" ","LANE":"５１巷","ALLEY":"３弄","HOUSE_NO":"５號","E_COORD97":169184.03,"N_COORD97":2546159.6899999999,"ADDRESS":"北安路一段５１巷３弄５號","OBJECTID":40080},"geometry":{"x":169184.03000000026,"y":2546159.6900000013}},{"attributes":{"ID":40081,"DIS_CODE":0,"TOWNNAME":"北區","LI":"正覺里","LIN":"7鄰","STREET":"北安路","SECT":"一段","MAREA":" ","LANE":"５１巷","ALLEY":"３弄","HOUSE_NO":"７號","E_COORD97":169189.32000000001,"N_COORD97":2546156.1699999999,"ADDRESS":"北安路一段５１巷３弄７號","OBJECTID":40081},"geometry":{"x":169189.3200000003,"y":2546156.1700000018}},{"attributes":{"ID":40082,"DIS_CODE":0,"TOWNNAME":"北區","LI":"正覺里","LIN":"7鄰","STREET":"北安路","SECT":"一段","MAREA":" ","LANE":"５１巷","ALLEY":"３弄","HOUSE_NO":"９號","E_COORD97":169194.12,"N_COORD97":2546153.6200000001,"ADDRESS":"北安路一段５１巷３弄９號","OBJECTID":40082},"geometry":{"x":169194.12000000197,"y":2546153.6200000048}},{"attributes":{"ID":40083,"DIS_CODE":0,"TOWNNAME":"北區","LI":"勝安里","LIN":"7鄰","STREET":"開元路","SECT":" ","MAREA":" ","LANE":"７３巷","ALLEY":"４１弄","HOUSE_NO":"３０號之１","E_COORD97":169807.73000000001,"N_COORD97":2545453.4399999999,"ADDRESS":"開元路７３巷４１弄３０號之１","OBJECTID":40083},"geometry":{"x":169807.73000000138,"y":2545453.4399999995}},{"attributes":{"ID":40084,"DIS_CODE":0,"TOWNNAME":"北區","LI":"勝安里","LIN":"7鄰","STREET":"開元路","SECT":" ","MAREA":" ","LANE":"７３巷","ALLEY":"４１弄","HOUSE_NO":"４０號","E_COORD97":169757.39999999999,"N_COORD97":2545486.46,"ADDRESS":"開元路７３巷４１弄４０號","OBJECTID":40084},"geometry":{"x":169757.4000000013,"y":2545486.459999999}},{"attributes":{"ID":40085,"DIS_CODE":0,"TOWNNAME":"左鎮區","LI":"中正里","LIN":"7鄰","STREET":" ","SECT":" ","MAREA":"中正","LANE":" ","ALLEY":" ","HOUSE_NO":"７９號之８","E_COORD97":189394.35000000001,"N_COORD97":2550999.2999999998,"ADDRESS":"中正７９號之８","OBJECTID":40085},"geometry":{"x":189394.35000000056,"y":2550999.3000000007}},{"attributes":{"ID":40086,"DIS_CODE":0,"TOWNNAME":"左鎮區","LI":"榮和里","LIN":"7鄰","STREET":" ","SECT":" ","MAREA":"菜寮","LANE":" ","ALLEY":" ","HOUSE_NO":"６４號之３","E_COORD97":187800.07000000001,"N_COORD97":2551027.2999999998,"ADDRESS":"菜寮６４號之３","OBJECTID":40086},"geometry":{"x":187800.07000000123,"y":2551027.2999999989}},{"attributes":{"ID":40087,"DIS_CODE":0,"TOWNNAME":"左鎮區","LI":"中正里","LIN":"7鄰","STREET":" ","SECT":" ","MAREA":"中正","LANE":" ","ALLEY":" ","HOUSE_NO":"７８號之１５","E_COORD97":189355.70000000001,"N_COORD97":2550952.2999999998,"ADDRESS":"中正７８號之１５","OBJECTID":40087},"geometry":{"x":189355.70000000019,"y":2550952.3000000007}},{"attributes":{"ID":40088,"DIS_CODE":0,"TOWNNAME":"左鎮區","LI":"榮和里","LIN":"7鄰","STREET":" ","SECT":" ","MAREA":"菜寮","LANE":" ","ALLEY":" ","HOUSE_NO":"６３號之２２","E_COORD97":187772.66,"N_COORD97":2551054.2999999998,"ADDRESS":"菜寮６３號之２２","OBJECTID":40088},"geometry":{"x":187772.66000000015,"y":2551054.3000000007}},{"attributes":{"ID":40089,"DIS_CODE":0,"TOWNNAME":"左鎮區","LI":"榮和里","LIN":"7鄰","STREET":" ","SECT":" ","MAREA":"菜寮","LANE":" ","ALLEY":" ","HOUSE_NO":"６４號","E_COORD97":187670.64000000001,"N_COORD97":2551070.25,"ADDRESS":"菜寮６４號","OBJECTID":40089},"geometry":{"x":187670.63999999966,"y":2551070.25}},{"attributes":{"ID":40090,"DIS_CODE":0,"TOWNNAME":"左鎮區","LI":"中正里","LIN":"7鄰","STREET":" ","SECT":" ","MAREA":"中正","LANE":" ","ALLEY":" ","HOUSE_NO":"７９號之４","E_COORD97":189378.42000000001,"N_COORD97":2550993.2999999998,"ADDRESS":"中正７９號之４","OBJECTID":40090},"geometry":{"x":189378.42000000086,"y":2550993.3000000007}},{"attributes":{"ID":40091,"DIS_CODE":0,"TOWNNAME":"左鎮區","LI":"榮和里","LIN":"7鄰","STREET":" ","SECT":" ","MAREA":"菜寮","LANE":" ","ALLEY":" ","HOUSE_NO":"６３號之６","E_COORD97":187695.48000000001,"N_COORD97":2551092.2999999998,"ADDRESS":"菜寮６３號之６","OBJECTID":40091},"geometry":{"x":187695.48000000138,"y":2551092.3000000026}},{"attributes":{"ID":40092,"DIS_CODE":0,"TOWNNAME":"左鎮區","LI":"中正里","LIN":"7鄰","STREET":" ","SECT":" ","MAREA":"中正","LANE":" ","ALLEY":" ","HOUSE_NO":"７９號","E_COORD97":189342.95999999999,"N_COORD97":2550996.25,"ADDRESS":"中正７９號","OBJECTID":40092},"geometry":{"x":189342.96000000089,"y":2550996.25}},{"attributes":{"ID":40093,"DIS_CODE":0,"TOWNNAME":"北區","LI":"勝安里","LIN":"7鄰","STREET":"開元路","SECT":" ","MAREA":" ","LANE":"７３巷","ALLEY":"４１弄","HOUSE_NO":"４２號","E_COORD97":169754.39999999999,"N_COORD97":2545488.5099999998,"ADDRESS":"開元路７３巷４１弄４２號","OBJECTID":40093},"geometry":{"x":169754.4000000013,"y":2545488.5100000035}},{"attributes":{"ID":40094,"DIS_CODE":0,"TOWNNAME":"北區","LI":"勝安里","LIN":"7鄰","STREET":"開元路","SECT":" ","MAREA":" ","LANE":"７３巷","ALLEY":"４１弄","HOUSE_NO":"４４號","E_COORD97":169751.88,"N_COORD97":2545491.0299999998,"ADDRESS":"開元路７３巷４１弄４４號","OBJECTID":40094},"geometry":{"x":169751.88000000082,"y":2545491.0299999993}},{"attributes":{"ID":40095,"DIS_CODE":0,"TOWNNAME":"北區","LI":"勝安里","LIN":"7鄰","STREET":"開元路","SECT":" ","MAREA":" ","LANE":"７３巷","ALLEY":"４１弄","HOUSE_NO":"４６號","E_COORD97":169748.72,"N_COORD97":2545492.9199999999,"ADDRESS":"開元路７３巷４１弄４６號","OBJECTID":40095},"geometry":{"x":169748.71999999974,"y":2545492.9200000037}},{"attributes":{"ID":40096,"DIS_CODE":0,"TOWNNAME":"北區","LI":"勝安里","LIN":"7鄰","STREET":"開元路","SECT":" ","MAREA":" ","LANE":"７３巷","ALLEY":"４１弄","HOUSE_NO":"４８號","E_COORD97":169745.41,"N_COORD97":2545494.8199999998,"ADDRESS":"開元路７３巷４１弄４８號","OBJECTID":40096},"geometry":{"x":169745.41000000108,"y":2545494.8200000022}},{"attributes":{"ID":40097,"DIS_CODE":0,"TOWNNAME":"北區","LI":"勝安里","LIN":"7鄰","STREET":"開元路","SECT":" ","MAREA":" ","LANE":"７３巷","ALLEY":"４１弄","HOUSE_NO":"５０號","E_COORD97":169742.88,"N_COORD97":2545497.02,"ADDRESS":"開元路７３巷４１弄５０號","OBJECTID":40097},"geometry":{"x":169742.87999999989,"y":2545497.0199999996}},{"attributes":{"ID":40098,"DIS_CODE":0,"TOWNNAME":"北區","LI":"勝安里","LIN":"7鄰","STREET":"開元路","SECT":" ","MAREA":" ","LANE":"７３巷","ALLEY":"４１弄","HOUSE_NO":"６號","E_COORD97":169838.01999999999,"N_COORD97":2545431.1400000001,"ADDRESS":"開元路７３巷４１弄６號","OBJECTID":40098},"geometry":{"x":169838.01999999955,"y":2545431.1400000043}},{"attributes":{"ID":40099,"DIS_CODE":0,"TOWNNAME":"北區","LI":"勝安里","LIN":"7鄰","STREET":"開元路","SECT":" ","MAREA":" ","LANE":"７３巷","ALLEY":"４１弄","HOUSE_NO":"８號","E_COORD97":169833.60000000001,"N_COORD97":2545433.98,"ADDRESS":"開元路７３巷４１弄８號","OBJECTID":40099},"geometry":{"x":169833.60000000056,"y":2545433.9800000004}},{"attributes":{"ID":40100,"DIS_CODE":0,"TOWNNAME":"北區","LI":"大豐里","LIN":"7鄰","STREET":"文賢路","SECT":" ","MAREA":" ","LANE":"３１３巷","ALLEY":"１１弄","HOUSE_NO":"８號","E_COORD97":167258.85000000001,"N_COORD97":2545205.4900000002,"ADDRESS":"文賢路３１３巷１１弄８號","OBJECTID":40100},"geometry":{"x":167258.84999999963,"y":2545205.4900000021}},{"attributes":{"ID":40101,"DIS_CODE":0,"TOWNNAME":"北區","LI":"大豐里","LIN":"7鄰","STREET":"文賢路","SECT":" ","MAREA":" ","LANE":"３１３巷","ALLEY":"３３弄","HOUSE_NO":"４號","E_COORD97":167204.81,"N_COORD97":2545219.2999999998,"ADDRESS":"文賢路３１３巷３３弄４號","OBJECTID":40101},"geometry":{"x":167204.80999999959,"y":2545219.3000000007}},{"attributes":{"ID":40102,"DIS_CODE":0,"TOWNNAME":"東區","LI":"大德里","LIN":"14鄰","STREET":"立德十路","SECT":" ","MAREA":" ","LANE":" ","ALLEY":" ","HOUSE_NO":"５１號","E_COORD97":169532.23999999999,"N_COORD97":2542067.0699999998,"ADDRESS":"立德十路５１號","OBJECTID":40102},"geometry":{"x":169532.24000000022,"y":2542067.0700000003}},{"attributes":{"ID":40103,"DIS_CODE":0,"TOWNNAME":"東區","LI":"大德里","LIN":"14鄰","STREET":"立德十路","SECT":" ","MAREA":" ","LANE":" ","ALLEY":" ","HOUSE_NO":"３９號","E_COORD97":169508.39000000001,"N_COORD97":2542063.0099999998,"ADDRESS":"立德十路３９號","OBJECTID":40103},"geometry":{"x":169508.38999999966,"y":2542063.0099999998}},{"attributes":{"ID":40104,"DIS_CODE":0,"TOWNNAME":"左鎮區","LI":"榮和里","LIN":"7鄰","STREET":" ","SECT":" ","MAREA":"菜寮","LANE":" ","ALLEY":" ","HOUSE_NO":"６３號之５","E_COORD97":187692.92999999999,"N_COORD97":2551094.2999999998,"ADDRESS":"菜寮６３號之５","OBJECTID":40104},"geometry":{"x":187692.93000000156,"y":2551094.3000000007}},{"attributes":{"ID":40105,"DIS_CODE":0,"TOWNNAME":"左鎮區","LI":"內庄里","LIN":"7鄰","STREET":" ","SECT":" ","MAREA":"內庄","LANE":" ","ALLEY":" ","HOUSE_NO":"６８號之１","E_COORD97":191654.95999999999,"N_COORD97":2549364.2999999998,"ADDRESS":"內庄６８號之１","OBJECTID":40105},"geometry":{"x":191654.96000000089,"y":2549364.3000000026}},{"attributes":{"ID":40106,"DIS_CODE":0,"TOWNNAME":"左鎮區","LI":"中正里","LIN":"7鄰","STREET":" ","SECT":" ","MAREA":"中正","LANE":" ","ALLEY":" ","HOUSE_NO":"７８號之１０","E_COORD97":189368.60000000001,"N_COORD97":2550938.2999999998,"ADDRESS":"中正７８號之１０","OBJECTID":40106},"geometry":{"x":189368.60000000056,"y":2550938.3000000007}},{"attributes":{"ID":40107,"DIS_CODE":0,"TOWNNAME":"左鎮區","LI":"榮和里","LIN":"7鄰","STREET":" ","SECT":" ","MAREA":"菜寮","LANE":" ","ALLEY":" ","HOUSE_NO":"６３號之１３","E_COORD97":187717.51999999999,"N_COORD97":2551069.2999999998,"ADDRESS":"菜寮６３號之１３","OBJECTID":40107},"geometry":{"x":187717.52000000142,"y":2551069.3000000026}},{"attributes":{"ID":40108,"DIS_CODE":0,"TOWNNAME":"左鎮區","LI":"中正里","LIN":"7鄰","STREET":" ","SECT":" ","MAREA":"中正","LANE":" ","ALLEY":" ","HOUSE_NO":"７９號之５","E_COORD97":189382.35000000001,"N_COORD97":2550994.2999999998,"ADDRESS":"中正７９號之５","OBJECTID":40108},"geometry":{"x":189382.35000000056,"y":2550994.3000000026}},{"attributes":{"ID":40109,"DIS_CODE":0,"TOWNNAME":"左鎮區","LI":"中正里","LIN":"7鄰","STREET":" ","SECT":" ","MAREA":"中正","LANE":" ","ALLEY":" ","HOUSE_NO":"７８號之８","E_COORD97":189378.04999999999,"N_COORD97":2550927.2999999998,"ADDRESS":"中正７８號之８","OBJECTID":40109},"geometry":{"x":189378.05000000075,"y":2550927.3000000026}},{"attributes":{"ID":40110,"DIS_CODE":0,"TOWNNAME":"左鎮區","LI":"中正里","LIN":"7鄰","STREET":" ","SECT":" ","MAREA":"中正","LANE":" ","ALLEY":" ","HOUSE_NO":"７９號之１１","E_COORD97":189381.54999999999,"N_COORD97":2551004.2999999998,"ADDRESS":"中正７９號之１１","OBJECTID":40110},"geometry":{"x":189381.54999999981,"y":2551004.3000000026}},{"attributes":{"ID":40111,"DIS_CODE":0,"TOWNNAME":"左鎮區","LI":"中正里","LIN":"7鄰","STREET":" ","SECT":" ","MAREA":"中正","LANE":" ","ALLEY":" ","HOUSE_NO":"７８號之１１","E_COORD97":189366.64999999999,"N_COORD97":2550941.2999999998,"ADDRESS":"中正７８號之１１","OBJECTID":40111},"geometry":{"x":189366.65000000037,"y":2550941.3000000007}},{"attributes":{"ID":40112,"DIS_CODE":0,"TOWNNAME":"東區","LI":"大德里","LIN":"14鄰","STREET":"立德十路","SECT":" ","MAREA":" ","LANE":" ","ALLEY":" ","HOUSE_NO":"６１號","E_COORD97":169552.13,"N_COORD97":2542069.9100000001,"ADDRESS":"立德十路６１號","OBJECTID":40112},"geometry":{"x":169552.13000000082,"y":2542069.910000002}},{"attributes":{"ID":40113,"DIS_CODE":0,"TOWNNAME":"東區","LI":"大德里","LIN":"14鄰","STREET":"立德十路","SECT":" ","MAREA":" ","LANE":" ","ALLEY":" ","HOUSE_NO":"５７號","E_COORD97":169544.32000000001,"N_COORD97":2542068.8500000001,"ADDRESS":"立德十路５７號","OBJECTID":40113},"geometry":{"x":169544.32000000123,"y":2542068.8500000034}},{"attributes":{"ID":40114,"DIS_CODE":0,"TOWNNAME":"歸仁區","LI":"大潭里","LIN":"7鄰","STREET":"長榮路","SECT":"一段","MAREA":" ","LANE":"２４５巷","ALLEY":"５弄","HOUSE_NO":"１６號","E_COORD97":175167.01999999999,"N_COORD97":2534590.2799999998,"ADDRESS":"長榮路一段２４５巷５弄１６號","OBJECTID":40114},"geometry":{"x":175167.02000000048,"y":2534590.2800000012}},{"attributes":{"ID":40115,"DIS_CODE":0,"TOWNNAME":"南區","LI":"大林里","LIN":"7鄰","STREET":"大同路","SECT":"二段","MAREA":" ","LANE":"４８２巷","ALLEY":"７４弄","HOUSE_NO":"７號","E_COORD97":169264.64999999999,"N_COORD97":2541526.9100000001,"ADDRESS":"大同路二段４８２巷７４弄７號","OBJECTID":40115},"geometry":{"x":169264.65000000037,"y":2541526.910000002}},{"attributes":{"ID":40116,"DIS_CODE":0,"TOWNNAME":"南區","LI":"大林里","LIN":"7鄰","STREET":"大同路","SECT":"二段","MAREA":" ","LANE":"４８２巷","ALLEY":"７４弄","HOUSE_NO":"１５號","E_COORD97":169246.37,"N_COORD97":2541554.8500000001,"ADDRESS":"大同路二段４８２巷７４弄１５號","OBJECTID":40116},"geometry":{"x":169246.37000000011,"y":2541554.8500000015}},{"attributes":{"ID":40117,"DIS_CODE":0,"TOWNNAME":"南區","LI":"大林里","LIN":"7鄰","STREET":"大同路","SECT":"二段","MAREA":" ","LANE":"４８２巷","ALLEY":"７４弄","HOUSE_NO":"１９號","E_COORD97":169264.56,"N_COORD97":2541556.1200000001,"ADDRESS":"大同路二段４８２巷７４弄１９號","OBJECTID":40117},"geometry":{"x":169264.55999999959,"y":2541556.1199999992}},{"attributes":{"ID":40118,"DIS_CODE":0,"TOWNNAME":"南區","LI":"大林里","LIN":"7鄰","STREET":"大同路","SECT":"二段","MAREA":" ","LANE":"４８２巷","ALLEY":"７４弄","HOUSE_NO":"２１號","E_COORD97":169261.25,"N_COORD97":2541563.6699999999,"ADDRESS":"大同路二段４８２巷７４弄２１號","OBJECTID":40118},"geometry":{"x":169261.25000000093,"y":2541563.6699999999}},{"attributes":{"ID":40119,"DIS_CODE":0,"TOWNNAME":"南區","LI":"大林里","LIN":"7鄰","STREET":"大同路","SECT":"二段","MAREA":" ","LANE":"４８２巷","ALLEY":"７４弄","HOUSE_NO":"２３號","E_COORD97":169257.34,"N_COORD97":2541569.8700000001,"ADDRESS":"大同路二段４８２巷７４弄２３號","OBJECTID":40119},"geometry":{"x":169257.34000000078,"y":2541569.8700000029}},{"attributes":{"ID":40120,"DIS_CODE":0,"TOWNNAME":"南區","LI":"大林里","LIN":"7鄰","STREET":"大同路","SECT":"二段","MAREA":" ","LANE":"４８２巷","ALLEY":"７４弄","HOUSE_NO":"２５號","E_COORD97":169254.95000000001,"N_COORD97":2541573.8599999999,"ADDRESS":"大同路二段４８２巷７４弄２５號","OBJECTID":40120},"geometry":{"x":169254.95000000112,"y":2541573.8600000013}},{"attributes":{"ID":40121,"DIS_CODE":0,"TOWNNAME":"南區","LI":"大林里","LIN":"7鄰","STREET":"大同路","SECT":"二段","MAREA":" ","LANE":"４８２巷","ALLEY":"７４弄","HOUSE_NO":"２７號","E_COORD97":169244.66,"N_COORD97":2541586.9300000002,"ADDRESS":"大同路二段４８２巷７４弄２７號","OBJECTID":40121},"geometry":{"x":169244.65999999922,"y":2541586.9300000034}},{"attributes":{"ID":40122,"DIS_CODE":0,"TOWNNAME":"南區","LI":"大林里","LIN":"7鄰","STREET":"大同路","SECT":"二段","MAREA":" ","LANE":"４８２巷","ALLEY":"９４弄","HOUSE_NO":"２號","E_COORD97":169231.54999999999,"N_COORD97":2541523.2999999998,"ADDRESS":"大同路二段４８２巷９４弄２號","OBJECTID":40122},"geometry":{"x":169231.55000000168,"y":2541523.3000000007}},{"attributes":{"ID":40123,"DIS_CODE":0,"TOWNNAME":"南區","LI":"大林里","LIN":"7鄰","STREET":"大同路","SECT":"二段","MAREA":" ","LANE":"４８２巷","ALLEY":"９４弄","HOUSE_NO":"６號","E_COORD97":169221.22,"N_COORD97":2541562.8300000001,"ADDRESS":"大同路二段４８２巷９４弄６號","OBJECTID":40123},"geometry":{"x":169221.21999999974,"y":2541562.8300000001}},{"attributes":{"ID":40124,"DIS_CODE":0,"TOWNNAME":"歸仁區","LI":"後市里","LIN":"23鄰","STREET":"成功五街","SECT":" ","MAREA":" ","LANE":"８８巷","ALLEY":"９７弄","HOUSE_NO":"８號","E_COORD97":178343.86666900001,"N_COORD97":2539816.7588999998,"ADDRESS":"成功五街８８巷９７弄８號","OBJECTID":40124},"geometry":{"x":178343.86666900106,"y":2539816.7589010037}},{"attributes":{"ID":40125,"DIS_CODE":0,"TOWNNAME":"南區","LI":"大林里","LIN":"7鄰","STREET":"大同路","SECT":"二段","MAREA":" ","LANE":"４８２巷","ALLEY":"９４弄","HOUSE_NO":"９號","E_COORD97":169204.14999999999,"N_COORD97":2541537.7000000002,"ADDRESS":"大同路二段４８２巷９４弄９號","OBJECTID":40125},"geometry":{"x":169204.15000000037,"y":2541537.7000000011}},{"attributes":{"ID":40126,"DIS_CODE":0,"TOWNNAME":"楠西區","LI":"東勢里","LIN":"7鄰","STREET":"東勢路","SECT":" ","MAREA":" ","LANE":"３９巷","ALLEY":"２２弄","HOUSE_NO":"２號","E_COORD97":197593.67000000001,"N_COORD97":2563998.29,"ADDRESS":"東勢路３９巷２２弄２號","OBJECTID":40126},"geometry":{"x":197593.67000000086,"y":2563998.290000001}},{"attributes":{"ID":40127,"DIS_CODE":0,"TOWNNAME":"安平區","LI":"育平里","LIN":"34鄰","STREET":"郡平路","SECT":" ","MAREA":" ","LANE":"２７４巷","ALLEY":"２０弄","HOUSE_NO":"１８號","E_COORD97":164474.78,"N_COORD97":2543412.02,"ADDRESS":"郡平路２７４巷２０弄１８號","OBJECTID":40127},"geometry":{"x":164474.78000000026,"y":2543412.0199999996}},{"attributes":{"ID":40128,"DIS_CODE":0,"TOWNNAME":"安平區","LI":"育平里","LIN":"34鄰","STREET":"郡平路","SECT":" ","MAREA":" ","LANE":"２７４巷","ALLEY":"２０弄","HOUSE_NO":"１９號","E_COORD97":164494.39999999999,"N_COORD97":2543423.3599999999,"ADDRESS":"郡平路２７４巷２０弄１９號","OBJECTID":40128},"geometry":{"x":164494.40000000037,"y":2543423.3599999994}},{"attributes":{"ID":40129,"DIS_CODE":0,"TOWNNAME":"安平區","LI":"育平里","LIN":"34鄰","STREET":"郡平路","SECT":" ","MAREA":" ","LANE":"２７４巷","ALLEY":"２０弄","HOUSE_NO":"１號","E_COORD97":164453.01000000001,"N_COORD97":2543435.6400000001,"ADDRESS":"郡平路２７４巷２０弄１號","OBJECTID":40129},"geometry":{"x":164453.01000000164,"y":2543435.6400000025}},{"attributes":{"ID":40130,"DIS_CODE":0,"TOWNNAME":"安平區","LI":"育平里","LIN":"34鄰","STREET":"郡平路","SECT":" ","MAREA":" ","LANE":"２７４巷","ALLEY":"２０弄","HOUSE_NO":"２０號","E_COORD97":164478.45000000001,"N_COORD97":2543411.6899999999,"ADDRESS":"郡平路２７４巷２０弄２０號","OBJECTID":40130},"geometry":{"x":164478.45000000112,"y":2543411.6899999995}},{"attributes":{"ID":40131,"DIS_CODE":0,"TOWNNAME":"安平區","LI":"育平里","LIN":"34鄰","STREET":"郡平路","SECT":" ","MAREA":" ","LANE":"２７４巷","ALLEY":"２０弄","HOUSE_NO":"２４號","E_COORD97":164489.76999999999,"N_COORD97":2543410.5099999998,"ADDRESS":"郡平路２７４巷２０弄２４號","OBJECTID":40131},"geometry":{"x":164489.76999999955,"y":2543410.5100000035}},{"attributes":{"ID":40132,"DIS_CODE":0,"TOWNNAME":"安平區","LI":"育平里","LIN":"34鄰","STREET":"郡平路","SECT":" ","MAREA":" ","LANE":"２７４巷","ALLEY":"２０弄","HOUSE_NO":"２６號","E_COORD97":164494.39999999999,"N_COORD97":2543409.4300000002,"ADDRESS":"郡平路２７４巷２０弄２６號","OBJECTID":40132},"geometry":{"x":164494.40000000037,"y":2543409.4299999997}},{"attributes":{"ID":40133,"DIS_CODE":0,"TOWNNAME":"安平區","LI":"育平里","LIN":"34鄰","STREET":"郡平路","SECT":" ","MAREA":" ","LANE":"２７４巷","ALLEY":"２０弄","HOUSE_NO":"３號","E_COORD97":164457.42999999999,"N_COORD97":2543433.27,"ADDRESS":"郡平路２７４巷２０弄３號","OBJECTID":40133},"geometry":{"x":164457.43000000063,"y":2543433.2700000014}},{"attributes":{"ID":40134,"DIS_CODE":0,"TOWNNAME":"永康區","LI":"甲頂里","LIN":"14鄰","STREET":"正新街","SECT":" ","MAREA":" ","LANE":" ","ALLEY":" ","HOUSE_NO":"５８號","E_COORD97":170285.98999999999,"N_COORD97":2546739.5,"ADDRESS":"正新街５８號","OBJECTID":40134},"geometry":{"x":170285.99000000022,"y":2546739.5}},{"attributes":{"ID":40135,"DIS_CODE":0,"TOWNNAME":"左鎮區","LI":"中正里","LIN":"7鄰","STREET":" ","SECT":" ","MAREA":"中正","LANE":" ","ALLEY":" ","HOUSE_NO":"７８號之４","E_COORD97":189388.51999999999,"N_COORD97":2550938.2999999998,"ADDRESS":"中正７８號之４","OBJECTID":40135},"geometry":{"x":189388.51999999955,"y":2550938.3000000007}},{"attributes":{"ID":40136,"DIS_CODE":0,"TOWNNAME":"左鎮區","LI":"榮和里","LIN":"7鄰","STREET":" ","SECT":" ","MAREA":"菜寮","LANE":" ","ALLEY":" ","HOUSE_NO":"６３號之２９","E_COORD97":187738.41,"N_COORD97":2551071.2999999998,"ADDRESS":"菜寮６３號之２９","OBJECTID":40136},"geometry":{"x":187738.41000000108,"y":2551071.3000000007}},{"attributes":{"ID":40137,"DIS_CODE":0,"TOWNNAME":"左鎮區","LI":"中正里","LIN":"7鄰","STREET":" ","SECT":" ","MAREA":"中正","LANE":" ","ALLEY":" ","HOUSE_NO":"７９號之１３","E_COORD97":189373.04999999999,"N_COORD97":2551000.2999999998,"ADDRESS":"中正７９號之１３","OBJECTID":40137},"geometry":{"x":189373.04999999981,"y":2551000.3000000045}},{"attributes":{"ID":40138,"DIS_CODE":0,"TOWNNAME":"左鎮區","LI":"榮和里","LIN":"7鄰","STREET":" ","SECT":" ","MAREA":"菜寮","LANE":" ","ALLEY":" ","HOUSE_NO":"６３號之２１","E_COORD97":187769.23000000001,"N_COORD97":2551056.2999999998,"ADDRESS":"菜寮６３號之２１","OBJECTID":40138},"geometry":{"x":187769.23000000045,"y":2551056.3000000026}},{"attributes":{"ID":40139,"DIS_CODE":0,"TOWNNAME":"左鎮區","LI":"左鎮里","LIN":"7鄰","STREET":" ","SECT":" ","MAREA":"左鎮","LANE":" ","ALLEY":" ","HOUSE_NO":"７０號","E_COORD97":188710.57000000001,"N_COORD97":2549655.25,"ADDRESS":"左鎮７０號","OBJECTID":40139},"geometry":{"x":188710.5700000003,"y":2549655.2500000019}},{"attributes":{"ID":40140,"DIS_CODE":0,"TOWNNAME":"左鎮區","LI":"榮和里","LIN":"7鄰","STREET":" ","SECT":" ","MAREA":"菜寮","LANE":" ","ALLEY":" ","HOUSE_NO":"６３號之２３","E_COORD97":187776.92000000001,"N_COORD97":2551052.2999999998,"ADDRESS":"菜寮６３號之２３","OBJECTID":40140},"geometry":{"x":187776.92000000086,"y":2551052.3000000026}},{"attributes":{"ID":40141,"DIS_CODE":0,"TOWNNAME":"左鎮區","LI":"內庄里","LIN":"7鄰","STREET":" ","SECT":" ","MAREA":"內庄","LANE":" ","ALLEY":" ","HOUSE_NO":"６９號之２","E_COORD97":191484,"N_COORD97":2549317.2999999998,"ADDRESS":"內庄６９號之２","OBJECTID":40141},"geometry":{"x":191484.00000000093,"y":2549317.3000000007}},{"attributes":{"ID":40142,"DIS_CODE":0,"TOWNNAME":"左鎮區","LI":"中正里","LIN":"7鄰","STREET":" ","SECT":" ","MAREA":"中正","LANE":" ","ALLEY":" ","HOUSE_NO":"７７號之２","E_COORD97":189406.82999999999,"N_COORD97":2550957.2999999998,"ADDRESS":"中正７７號之２","OBJECTID":40142},"geometry":{"x":189406.83000000101,"y":2550957.3000000026}},{"attributes":{"ID":40143,"DIS_CODE":0,"TOWNNAME":"左鎮區","LI":"內庄里","LIN":"7鄰","STREET":" ","SECT":" ","MAREA":"內庄","LANE":" ","ALLEY":" ","HOUSE_NO":"６９號之１","E_COORD97":191509.06,"N_COORD97":2549337.2999999998,"ADDRESS":"內庄６９號之１","OBJECTID":40143},"geometry":{"x":191509.05999999959,"y":2549337.3000000026}},{"attributes":{"ID":40144,"DIS_CODE":0,"TOWNNAME":"左鎮區","LI":"榮和里","LIN":"7鄰","STREET":" ","SECT":" ","MAREA":"菜寮","LANE":" ","ALLEY":" ","HOUSE_NO":"６４號之２","E_COORD97":187770.31,"N_COORD97":2551021.2999999998,"ADDRESS":"菜寮６４號之２","OBJECTID":40144},"geometry":{"x":187770.31000000052,"y":2551021.3000000026}},{"attributes":{"ID":40145,"DIS_CODE":0,"TOWNNAME":"安平區","LI":"育平里","LIN":"34鄰","STREET":"郡平路","SECT":" ","MAREA":" ","LANE":"２７４巷","ALLEY":"２０弄","HOUSE_NO":"５號","E_COORD97":164462.28,"N_COORD97":2543431.4399999999,"ADDRESS":"郡平路２７４巷２０弄５號","OBJECTID":40145},"geometry":{"x":164462.28000000119,"y":2543431.4400000013}},{"attributes":{"ID":40146,"DIS_CODE":0,"TOWNNAME":"安平區","LI":"育平里","LIN":"34鄰","STREET":"郡平路","SECT":" ","MAREA":" ","LANE":"２７４巷","ALLEY":"２０弄","HOUSE_NO":"７號","E_COORD97":164466.92000000001,"N_COORD97":2543430.04,"ADDRESS":"郡平路２７４巷２０弄７號","OBJECTID":40146},"geometry":{"x":164466.91999999993,"y":2543430.040000001}},{"attributes":{"ID":40147,"DIS_CODE":0,"TOWNNAME":"楠西區","LI":"東勢里","LIN":"7鄰","STREET":"東勢路","SECT":" ","MAREA":" ","LANE":"３９巷","ALLEY":"２２弄","HOUSE_NO":"１２號","E_COORD97":197586.92000000001,"N_COORD97":2563997.29,"ADDRESS":"東勢路３９巷２２弄１２號","OBJECTID":40147},"geometry":{"x":197586.92000000086,"y":2563997.2899999972}},{"attributes":{"ID":40148,"DIS_CODE":0,"TOWNNAME":"新營區","LI":"新東里","LIN":"7鄰","STREET":"東學路","SECT":" ","MAREA":" ","LANE":"１７６巷","ALLEY":"２弄","HOUSE_NO":"６號","E_COORD97":181187.64000000001,"N_COORD97":2579339.0299999998,"ADDRESS":"東學路１７６巷２弄６號","OBJECTID":40148},"geometry":{"x":181187.6400000006,"y":2579339.0300000012}},{"attributes":{"ID":40149,"DIS_CODE":0,"TOWNNAME":"新營區","LI":"新東里","LIN":"7鄰","STREET":"東學路","SECT":" ","MAREA":" ","LANE":"１７６巷","ALLEY":"４弄","HOUSE_NO":"１１號","E_COORD97":181169.16,"N_COORD97":2579276,"ADDRESS":"東學路１７６巷４弄１１號","OBJECTID":40149},"geometry":{"x":181169.16000000108,"y":2579276}},{"attributes":{"ID":40150,"DIS_CODE":0,"TOWNNAME":"新營區","LI":"南紙里","LIN":"7鄰","STREET":"建業路","SECT":" ","MAREA":" ","LANE":"２６９巷","ALLEY":"２０弄","HOUSE_NO":"９號","E_COORD97":177955.37,"N_COORD97":2577409.7200000002,"ADDRESS":"建業路２６９巷２０弄９號","OBJECTID":40150},"geometry":{"x":177955.37000000104,"y":2577409.7200000025}},{"attributes":{"ID":40151,"DIS_CODE":0,"TOWNNAME":"新營區","LI":"新東里","LIN":"7鄰","STREET":"東學路","SECT":" ","MAREA":" ","LANE":"１７６巷","ALLEY":"２弄","HOUSE_NO":"３號","E_COORD97":181189.67999999999,"N_COORD97":2579319.0899999999,"ADDRESS":"東學路１７６巷２弄３號","OBJECTID":40151},"geometry":{"x":181189.6799999997,"y":2579319.0899999999}},{"attributes":{"ID":40152,"DIS_CODE":0,"TOWNNAME":"新營區","LI":"新東里","LIN":"7鄰","STREET":"東學路","SECT":" ","MAREA":" ","LANE":"１４８巷","ALLEY":"１弄","HOUSE_NO":"７號","E_COORD97":181161.26000000001,"N_COORD97":2579334.6099999999,"ADDRESS":"東學路１４８巷１弄７號","OBJECTID":40152},"geometry":{"x":181161.26000000071,"y":2579334.6100000013}},{"attributes":{"ID":40153,"DIS_CODE":0,"TOWNNAME":"新營區","LI":"新東里","LIN":"7鄰","STREET":"東學路","SECT":" ","MAREA":" ","LANE":"１７６巷","ALLEY":"４弄","HOUSE_NO":"２２號","E_COORD97":181149.67000000001,"N_COORD97":2579291.04,"ADDRESS":"東學路１７６巷４弄２２號","OBJECTID":40153},"geometry":{"x":181149.66999999899,"y":2579291.040000001}},{"attributes":{"ID":40154,"DIS_CODE":0,"TOWNNAME":"新營區","LI":"新東里","LIN":"7鄰","STREET":"東學路","SECT":" ","MAREA":" ","LANE":"１７６巷","ALLEY":"６弄","HOUSE_NO":"５號","E_COORD97":181184.09,"N_COORD97":2579231.6299999999,"ADDRESS":"東學路１７６巷６弄５號","OBJECTID":40154},"geometry":{"x":181184.09000000171,"y":2579231.6300000008}},{"attributes":{"ID":40155,"DIS_CODE":0,"TOWNNAME":"新營區","LI":"南紙里","LIN":"7鄰","STREET":"建業路","SECT":" ","MAREA":" ","LANE":"２６９巷","ALLEY":"２０弄","HOUSE_NO":"１９號","E_COORD97":177931.07999999999,"N_COORD97":2577410.9500000002,"ADDRESS":"建業路２６９巷２０弄１９號","OBJECTID":40155},"geometry":{"x":177931.08000000007,"y":2577410.9499999993}},{"attributes":{"ID":40156,"DIS_CODE":0,"TOWNNAME":"新營區","LI":"南紙里","LIN":"7鄰","STREET":"建業路","SECT":" ","MAREA":" ","LANE":"２６９巷","ALLEY":"２０弄","HOUSE_NO":"３號","E_COORD97":177966.75,"N_COORD97":2577409.6699999999,"ADDRESS":"建業路２６９巷２０弄３號","OBJECTID":40156},"geometry":{"x":177966.75,"y":2577409.6700000018}},{"attributes":{"ID":40157,"DIS_CODE":0,"TOWNNAME":"左鎮區","LI":"中正里","LIN":"7鄰","STREET":" ","SECT":" ","MAREA":"中正","LANE":" ","ALLEY":" ","HOUSE_NO":"７９號之９","E_COORD97":189389.57999999999,"N_COORD97":2551008.2999999998,"ADDRESS":"中正７９號之９","OBJECTID":40157},"geometry":{"x":189389.58000000101,"y":2551008.3000000026}},{"attributes":{"ID":40158,"DIS_CODE":0,"TOWNNAME":"左鎮區","LI":"左鎮里","LIN":"7鄰","STREET":" ","SECT":" ","MAREA":"左鎮","LANE":" ","ALLEY":" ","HOUSE_NO":"７１號","E_COORD97":188702.07000000001,"N_COORD97":2549685.25,"ADDRESS":"左鎮７１號","OBJECTID":40158},"geometry":{"x":188702.0700000003,"y":2549685.2500000019}},{"attributes":{"ID":40159,"DIS_CODE":0,"TOWNNAME":"新營區","LI":"新東里","LIN":"7鄰","STREET":"東學路","SECT":" ","MAREA":" ","LANE":"１７６巷","ALLEY":"２弄","HOUSE_NO":"１號","E_COORD97":181194.70000000001,"N_COORD97":2579319.0699999998,"ADDRESS":"東學路１７６巷２弄１號","OBJECTID":40159},"geometry":{"x":181194.70000000112,"y":2579319.0700000022}},{"attributes":{"ID":40160,"DIS_CODE":0,"TOWNNAME":"左鎮區","LI":"左鎮里","LIN":"7鄰","STREET":" ","SECT":" ","MAREA":"左鎮","LANE":" ","ALLEY":" ","HOUSE_NO":"６９號","E_COORD97":188639.97,"N_COORD97":2549665.25,"ADDRESS":"左鎮６９號","OBJECTID":40160},"geometry":{"x":188639.96999999974,"y":2549665.2500000019}},{"attributes":{"ID":40161,"DIS_CODE":0,"TOWNNAME":"新營區","LI":"南紙里","LIN":"7鄰","STREET":"建業路","SECT":" ","MAREA":" ","LANE":"２６９巷","ALLEY":"２０弄","HOUSE_NO":"１號","E_COORD97":177970.75,"N_COORD97":2577409.6499999999,"ADDRESS":"建業路２６９巷２０弄１號","OBJECTID":40161},"geometry":{"x":177970.75000000186,"y":2577409.6500000022}},{"attributes":{"ID":40162,"DIS_CODE":0,"TOWNNAME":"新營區","LI":"新東里","LIN":"7鄰","STREET":"東學路","SECT":" ","MAREA":" ","LANE":"１７６巷","ALLEY":"４弄","HOUSE_NO":"８號","E_COORD97":181183.41,"N_COORD97":2579295.8700000001,"ADDRESS":"東學路１７６巷４弄８號","OBJECTID":40162},"geometry":{"x":181183.41000000015,"y":2579295.870000001}},{"attributes":{"ID":40163,"DIS_CODE":0,"TOWNNAME":"左鎮區","LI":"榮和里","LIN":"7鄰","STREET":" ","SECT":" ","MAREA":"菜寮","LANE":" ","ALLEY":" ","HOUSE_NO":"６３號之１４","E_COORD97":187745.04999999999,"N_COORD97":2551068.2999999998,"ADDRESS":"菜寮６３號之１４","OBJECTID":40163},"geometry":{"x":187745.05000000075,"y":2551068.3000000045}},{"attributes":{"ID":40164,"DIS_CODE":0,"TOWNNAME":"安平區","LI":"金城里","LIN":"7鄰","STREET":"同平路","SECT":" ","MAREA":" ","LANE":"９６巷","ALLEY":"３５弄","HOUSE_NO":"６號","E_COORD97":163051.07000000001,"N_COORD97":2544182.8700000001,"ADDRESS":"同平路９６巷３５弄６號","OBJECTID":40164},"geometry":{"x":163051.0700000003,"y":2544182.8700000029}},{"attributes":{"ID":40165,"DIS_CODE":0,"TOWNNAME":"左鎮區","LI":"榮和里","LIN":"7鄰","STREET":" ","SECT":" ","MAREA":"菜寮","LANE":" ","ALLEY":" ","HOUSE_NO":"６３號之１０","E_COORD97":187715.98000000001,"N_COORD97":2551083.2999999998,"ADDRESS":"菜寮６３號之１０","OBJECTID":40165},"geometry":{"x":187715.98000000138,"y":2551083.3000000026}},{"attributes":{"ID":40166,"DIS_CODE":0,"TOWNNAME":"新營區","LI":"太南里","LIN":"20鄰","STREET":" ","SECT":" ","MAREA":"太子宮","LANE":" ","ALLEY":" ","HOUSE_NO":"３４３號","E_COORD97":176335.39000000001,"N_COORD97":2576953.6699999999,"ADDRESS":"太子宮３４３號","OBJECTID":40166},"geometry":{"x":176335.39000000153,"y":2576953.6700000037}},{"attributes":{"ID":40167,"DIS_CODE":0,"TOWNNAME":"安平區","LI":"金城里","LIN":"7鄰","STREET":"同平路","SECT":" ","MAREA":" ","LANE":"９６巷","ALLEY":"３５弄","HOUSE_NO":"１號","E_COORD97":163074.73999999999,"N_COORD97":2544186.1400000001,"ADDRESS":"同平路９６巷３５弄１號","OBJECTID":40167},"geometry":{"x":163074.74000000022,"y":2544186.1400000006}},{"attributes":{"ID":40168,"DIS_CODE":0,"TOWNNAME":"安平區","LI":"金城里","LIN":"7鄰","STREET":"同平路","SECT":" ","MAREA":" ","LANE":"９６巷","ALLEY":"３５弄","HOUSE_NO":"２號","E_COORD97":163059.32000000001,"N_COORD97":2544195.1600000001,"ADDRESS":"同平路９６巷３５弄２號","OBJECTID":40168},"geometry":{"x":163059.3200000003,"y":2544195.1600000001}},{"attributes":{"ID":40169,"DIS_CODE":0,"TOWNNAME":"安平區","LI":"金城里","LIN":"7鄰","STREET":"同平路","SECT":" ","MAREA":" ","LANE":"９６巷","ALLEY":"３５弄","HOUSE_NO":"４號","E_COORD97":163060.88,"N_COORD97":2544182.0899999999,"ADDRESS":"同平路９６巷３５弄４號","OBJECTID":40169},"geometry":{"x":163060.88000000082,"y":2544182.0899999999}},{"attributes":{"ID":40170,"DIS_CODE":0,"TOWNNAME":"新營區","LI":"護鎮里","LIN":"8鄰","STREET":" ","SECT":" ","MAREA":"後鎮","LANE":" ","ALLEY":" ","HOUSE_NO":"８５號之２","E_COORD97":179276.01000000001,"N_COORD97":2580939.5299999998,"ADDRESS":"後鎮８５號之２","OBJECTID":40170},"geometry":{"x":179276.01000000071,"y":2580939.5299999993}},{"attributes":{"ID":40171,"DIS_CODE":0,"TOWNNAME":"南區","LI":"南都里","LIN":"7鄰","STREET":"中華南路","SECT":"二段","MAREA":" ","LANE":"３１５巷","ALLEY":"１２弄","HOUSE_NO":"１１號","E_COORD97":166463.82999999999,"N_COORD97":2540062.8799999999,"ADDRESS":"中華南路二段３１５巷１２弄１１號","OBJECTID":40171},"geometry":{"x":166463.83000000101,"y":2540062.879999999}},{"attributes":{"ID":40172,"DIS_CODE":0,"TOWNNAME":"南區","LI":"南都里","LIN":"7鄰","STREET":"中華南路","SECT":"二段","MAREA":" ","LANE":"３１５巷","ALLEY":"１２弄","HOUSE_NO":"１３號","E_COORD97":166458.95000000001,"N_COORD97":2540064.27,"ADDRESS":"中華南路二段３１５巷１２弄１３號","OBJECTID":40172},"geometry":{"x":166458.95000000019,"y":2540064.2699999996}},{"attributes":{"ID":40173,"DIS_CODE":0,"TOWNNAME":"南區","LI":"南都里","LIN":"7鄰","STREET":"中華南路","SECT":"二段","MAREA":" ","LANE":"３１５巷","ALLEY":"１２弄","HOUSE_NO":"１５號","E_COORD97":166454.07000000001,"N_COORD97":2540062.8799999999,"ADDRESS":"中華南路二段３１５巷１２弄１５號","OBJECTID":40173},"geometry":{"x":166454.07000000123,"y":2540062.879999999}},{"attributes":{"ID":40174,"DIS_CODE":0,"TOWNNAME":"永康區","LI":"西橋里","LIN":"14鄰","STREET":"大橋一街","SECT":" ","MAREA":" ","LANE":"３１巷","ALLEY":" ","HOUSE_NO":"４８號","E_COORD97":170585.39999999999,"N_COORD97":2546358.7400000002,"ADDRESS":"大橋一街３１巷４８號","OBJECTID":40174},"geometry":{"x":170585.40000000037,"y":2546358.7400000039}},{"attributes":{"ID":40175,"DIS_CODE":0,"TOWNNAME":"永康區","LI":"西勢里","LIN":"14鄰","STREET":"西勢路","SECT":" ","MAREA":" ","LANE":" ","ALLEY":" ","HOUSE_NO":"７５號","E_COORD97":176142.64999999999,"N_COORD97":2546749.9900000002,"ADDRESS":"西勢路７５號","OBJECTID":40175},"geometry":{"x":176142.64999999944,"y":2546749.9900000002}},{"attributes":{"ID":40176,"DIS_CODE":0,"TOWNNAME":"永康區","LI":"西灣里","LIN":"14鄰","STREET":"大灣五街","SECT":" ","MAREA":" ","LANE":" ","ALLEY":" ","HOUSE_NO":"６６號","E_COORD97":174723.14999999999,"N_COORD97":2545274.3399999999,"ADDRESS":"大灣五街６６號","OBJECTID":40176},"geometry":{"x":174723.15000000037,"y":2545274.3400000017}},{"attributes":{"ID":40177,"DIS_CODE":0,"TOWNNAME":"新化區","LI":"太平里","LIN":"13鄰","STREET":"太平街","SECT":" ","MAREA":" ","LANE":" ","ALLEY":" ","HOUSE_NO":"３２號","E_COORD97":178895.17000000001,"N_COORD97":2548809.25,"ADDRESS":"太平街３２號","OBJECTID":40177},"geometry":{"x":178895.17000000179,"y":2548809.25}},{"attributes":{"ID":40178,"DIS_CODE":0,"TOWNNAME":"新化區","LI":"協興里","LIN":"8鄰","STREET":"太平街","SECT":" ","MAREA":" ","LANE":" ","ALLEY":" ","HOUSE_NO":"１２０號","E_COORD97":178465.92000000001,"N_COORD97":2548715.25,"ADDRESS":"太平街１２０號","OBJECTID":40178},"geometry":{"x":178465.91999999993,"y":2548715.2500000019}},{"attributes":{"ID":40179,"DIS_CODE":0,"TOWNNAME":"新化區","LI":"中央里","LIN":"4鄰","STREET":"大同街","SECT":" ","MAREA":" ","LANE":" ","ALLEY":" ","HOUSE_NO":"１３２號","E_COORD97":178971.92999999999,"N_COORD97":2548401.25,"ADDRESS":"大同街１３２號","OBJECTID":40179},"geometry":{"x":178971.93000000063,"y":2548401.25}},{"attributes":{"ID":40180,"DIS_CODE":0,"TOWNNAME":"新化區","LI":"武安里","LIN":"4鄰","STREET":"中正路","SECT":" ","MAREA":" ","LANE":" ","ALLEY":" ","HOUSE_NO":"３２１號","E_COORD97":179122.10999999999,"N_COORD97":2548167.25,"ADDRESS":"中正路３２１號","OBJECTID":40180},"geometry":{"x":179122.11000000127,"y":2548167.2500000019}},{"attributes":{"ID":40181,"DIS_CODE":0,"TOWNNAME":"南區","LI":"南都里","LIN":"7鄰","STREET":"中華南路","SECT":"二段","MAREA":" ","LANE":"３１５巷","ALLEY":"１２弄","HOUSE_NO":"１７號","E_COORD97":166449.19,"N_COORD97":2540064.96,"ADDRESS":"中華南路二段３１５巷１２弄１７號","OBJECTID":40181},"geometry":{"x":166449.19000000041,"y":2540064.9600000009}},{"attributes":{"ID":40182,"DIS_CODE":0,"TOWNNAME":"新化區","LI":"唪口里","LIN":"4鄰","STREET":"大德路","SECT":" ","MAREA":" ","LANE":" ","ALLEY":" ","HOUSE_NO":"８８號之１３","E_COORD97":178146.57999999999,"N_COORD97":2549480.2599999998,"ADDRESS":"大德路８８號之１３","OBJECTID":40182},"geometry":{"x":178146.57999999914,"y":2549480.2599999998}},{"attributes":{"ID":40183,"DIS_CODE":0,"TOWNNAME":"左鎮區","LI":"左鎮里","LIN":"7鄰","STREET":" ","SECT":" ","MAREA":"左鎮","LANE":" ","ALLEY":" ","HOUSE_NO":"６７號","E_COORD97":188527.17000000001,"N_COORD97":2549254.25,"ADDRESS":"左鎮６７號","OBJECTID":40183},"geometry":{"x":188527.17000000179,"y":2549254.2500000019}},{"attributes":{"ID":40184,"DIS_CODE":0,"TOWNNAME":"左鎮區","LI":"中正里","LIN":"7鄰","STREET":" ","SECT":" ","MAREA":"中正","LANE":" ","ALLEY":" ","HOUSE_NO":"７８號之５","E_COORD97":189386.04999999999,"N_COORD97":2550934.2999999998,"ADDRESS":"中正７８號之５","OBJECTID":40184},"geometry":{"x":189386.05000000075,"y":2550934.3000000007}},{"attributes":{"ID":40185,"DIS_CODE":0,"TOWNNAME":"左鎮區","LI":"榮和里","LIN":"7鄰","STREET":" ","SECT":" ","MAREA":"菜寮","LANE":" ","ALLEY":" ","HOUSE_NO":"６３號之８","E_COORD97":187706.82000000001,"N_COORD97":2551086.2999999998,"ADDRESS":"菜寮６３號之８","OBJECTID":40185},"geometry":{"x":187706.82000000123,"y":2551086.3000000026}},{"attributes":{"ID":40186,"DIS_CODE":0,"TOWNNAME":"左鎮區","LI":"左鎮里","LIN":"7鄰","STREET":" ","SECT":" ","MAREA":"左鎮","LANE":" ","ALLEY":" ","HOUSE_NO":"６３號","E_COORD97":186432.37,"N_COORD97":2547222.25,"ADDRESS":"左鎮６３號","OBJECTID":40186},"geometry":{"x":186432.36999999918,"y":2547222.25}},{"attributes":{"ID":40187,"DIS_CODE":0,"TOWNNAME":"左鎮區","LI":"左鎮里","LIN":"7鄰","STREET":" ","SECT":" ","MAREA":"左鎮","LANE":" ","ALLEY":" ","HOUSE_NO":"６８號","E_COORD97":188660.57000000001,"N_COORD97":2549521.25,"ADDRESS":"左鎮６８號","OBJECTID":40187},"geometry":{"x":188660.57000000216,"y":2549521.25}},{"attributes":{"ID":40188,"DIS_CODE":0,"TOWNNAME":"南區","LI":"南都里","LIN":"7鄰","STREET":"中華南路","SECT":"二段","MAREA":" ","LANE":"３１５巷","ALLEY":"１２弄","HOUSE_NO":"１９號","E_COORD97":166443.95999999999,"N_COORD97":2540063.5699999998,"ADDRESS":"中華南路二段３１５巷１２弄１９號","OBJECTID":40188},"geometry":{"x":166443.96000000089,"y":2540063.5700000003}},{"attributes":{"ID":40189,"DIS_CODE":0,"TOWNNAME":"南區","LI":"南都里","LIN":"7鄰","STREET":"中華南路","SECT":"二段","MAREA":" ","LANE":"３１５巷","ALLEY":"１２弄","HOUSE_NO":"１號","E_COORD97":166490.31,"N_COORD97":2540076.1000000001,"ADDRESS":"中華南路二段３１５巷１２弄１號","OBJECTID":40189},"geometry":{"x":166490.31000000052,"y":2540076.0999999996}},{"attributes":{"ID":40190,"DIS_CODE":0,"TOWNNAME":"南區","LI":"南都里","LIN":"7鄰","STREET":"中華南路","SECT":"二段","MAREA":" ","LANE":"３１５巷","ALLEY":"１２弄","HOUSE_NO":"２１號","E_COORD97":166441.20999999999,"N_COORD97":2540065.8300000001,"ADDRESS":"中華南路二段３１５巷１２弄２１號","OBJECTID":40190},"geometry":{"x":166441.21000000089,"y":2540065.8300000019}},{"attributes":{"ID":40191,"DIS_CODE":0,"TOWNNAME":"南區","LI":"南都里","LIN":"7鄰","STREET":"中華南路","SECT":"二段","MAREA":" ","LANE":"３１５巷","ALLEY":"１２弄","HOUSE_NO":"２３號","E_COORD97":166435.81,"N_COORD97":2540065.1899999999,"ADDRESS":"中華南路二段３１５巷１２弄２３號","OBJECTID":40191},"geometry":{"x":166435.80999999866,"y":2540065.1899999995}},{"attributes":{"ID":40192,"DIS_CODE":0,"TOWNNAME":"南區","LI":"南都里","LIN":"7鄰","STREET":"中華南路","SECT":"二段","MAREA":" ","LANE":"３１５巷","ALLEY":"１２弄","HOUSE_NO":"２５號","E_COORD97":166431.04999999999,"N_COORD97":2540064.71,"ADDRESS":"中華南路二段３１５巷１２弄２５號","OBJECTID":40192},"geometry":{"x":166431.04999999888,"y":2540064.7100000028}},{"attributes":{"ID":40193,"DIS_CODE":0,"TOWNNAME":"南區","LI":"南都里","LIN":"7鄰","STREET":"中華南路","SECT":"二段","MAREA":" ","LANE":"３１５巷","ALLEY":"１２弄","HOUSE_NO":"２７號","E_COORD97":166425.81,"N_COORD97":2540065.1899999999,"ADDRESS":"中華南路二段３１５巷１２弄２７號","OBJECTID":40193},"geometry":{"x":166425.81000000145,"y":2540065.1899999995}},{"attributes":{"ID":40194,"DIS_CODE":0,"TOWNNAME":"南區","LI":"南都里","LIN":"7鄰","STREET":"中華南路","SECT":"二段","MAREA":" ","LANE":"３１５巷","ALLEY":"１２弄","HOUSE_NO":"２９號","E_COORD97":166420.73000000001,"N_COORD97":2540065.5099999998,"ADDRESS":"中華南路二段３１５巷１２弄２９號","OBJECTID":40194},"geometry":{"x":166420.73000000138,"y":2540065.5100000016}},{"attributes":{"ID":40195,"DIS_CODE":0,"TOWNNAME":"南區","LI":"南都里","LIN":"7鄰","STREET":"中華南路","SECT":"二段","MAREA":" ","LANE":"３１５巷","ALLEY":"１２弄","HOUSE_NO":"３１號","E_COORD97":166415.81,"N_COORD97":2540065.0299999998,"ADDRESS":"中華南路二段３１５巷１２弄３１號","OBJECTID":40195},"geometry":{"x":166415.81000000052,"y":2540065.0300000012}},{"attributes":{"ID":40196,"DIS_CODE":0,"TOWNNAME":"南區","LI":"南都里","LIN":"7鄰","STREET":"中華南路","SECT":"二段","MAREA":" ","LANE":"３１５巷","ALLEY":"１２弄","HOUSE_NO":"３３號","E_COORD97":166410.73000000001,"N_COORD97":2540064.8700000001,"ADDRESS":"中華南路二段３１５巷１２弄３３號","OBJECTID":40196},"geometry":{"x":166410.73000000138,"y":2540064.870000001}},{"attributes":{"ID":40197,"DIS_CODE":0,"TOWNNAME":"南區","LI":"南都里","LIN":"7鄰","STREET":"中華南路","SECT":"二段","MAREA":" ","LANE":"３１５巷","ALLEY":"１２弄","HOUSE_NO":"３５號","E_COORD97":166405.81,"N_COORD97":2540065.0299999998,"ADDRESS":"中華南路二段３１５巷１２弄３５號","OBJECTID":40197},"geometry":{"x":166405.81000000052,"y":2540065.0300000012}},{"attributes":{"ID":40198,"DIS_CODE":0,"TOWNNAME":"南區","LI":"南都里","LIN":"7鄰","STREET":"中華南路","SECT":"二段","MAREA":" ","LANE":"３１５巷","ALLEY":"１２弄","HOUSE_NO":"３７號","E_COORD97":166400.73000000001,"N_COORD97":2540064.8700000001,"ADDRESS":"中華南路二段３１５巷１２弄３７號","OBJECTID":40198},"geometry":{"x":166400.73000000138,"y":2540064.870000001}},{"attributes":{"ID":40199,"DIS_CODE":0,"TOWNNAME":"南區","LI":"南都里","LIN":"7鄰","STREET":"中華南路","SECT":"二段","MAREA":" ","LANE":"３１５巷","ALLEY":"１２弄","HOUSE_NO":"３９號","E_COORD97":166395.97,"N_COORD97":2540065.0299999998,"ADDRESS":"中華南路二段３１５巷１２弄３９號","OBJECTID":40199},"geometry":{"x":166395.9700000016,"y":2540065.0300000012}},{"attributes":{"ID":40200,"DIS_CODE":0,"TOWNNAME":"南區","LI":"南都里","LIN":"7鄰","STREET":"中華南路","SECT":"二段","MAREA":" ","LANE":"３１５巷","ALLEY":"１２弄","HOUSE_NO":"３號","E_COORD97":166486.13,"N_COORD97":2540072.9700000002,"ADDRESS":"中華南路二段３１５巷１２弄３號","OBJECTID":40200},"geometry":{"x":166486.12999999989,"y":2540072.9700000025}}]}