{"displayFieldName":"TOWNNAME","fieldAliases":{"ID":"ID","DIS_CODE":"DIS_CODE","TOWNNAME":"TOWNNAME","LI":"LI","LIN":"LIN","STREET":"STREET","SECT":"SECT","MAREA":"MAREA","LANE":"LANE","ALLEY":"ALLEY","HOUSE_NO":"HOUSE_NO","E_COORD97":"E_COORD97","N_COORD97":"N_COORD97","ADDRESS":"ADDRESS","OBJECTID":"OBJECTID"},"geometryType":"esriGeometryPoint","spatialReference":{"wkid":102443,"latestWkid":3826},"fields":[{"name":"ID","type":"esriFieldTypeDouble","alias":"ID"},{"name":"DIS_CODE","type":"esriFieldTypeInteger","alias":"DIS_CODE"},{"name":"TOWNNAME","type":"esriFieldTypeString","alias":"TOWNNAME","length":8},{"name":"LI","type":"esriFieldTypeString","alias":"LI","length":8},{"name":"LIN","type":"esriFieldTypeString","alias":"LIN","length":12},{"name":"STREET","type":"esriFieldTypeString","alias":"STREET","length":20},{"name":"SECT","type":"esriFieldTypeString","alias":"SECT","length":8},{"name":"MAREA","type":"esriFieldTypeString","alias":"MAREA","length":12},{"name":"LANE","type":"esriFieldTypeString","alias":"LANE","length":10},{"name":"ALLEY","type":"esriFieldTypeString","alias":"ALLEY","length":10},{"name":"HOUSE_NO","type":"esriFieldTypeString","alias":"HOUSE_NO","length":20},{"name":"E_COORD97","type":"esriFieldTypeDouble","alias":"E_COORD97"},{"name":"N_COORD97","type":"esriFieldTypeDouble","alias":"N_COORD97"},{"name":"ADDRESS","type":"esriFieldTypeString","alias":"ADDRESS","length":50},{"name":"OBJECTID","type":"esriFieldTypeOID","alias":"OBJECTID"}],"features":[{"attributes":{"ID":502028,"DIS_CODE":0,"TOWNNAME":"北區","LI":"元寶里","LIN":"7鄰","STREET":"北園街","SECT":" ","MAREA":" ","LANE":" ","ALLEY":" ","HOUSE_NO":"２２號十樓之９","E_COORD97":170389.20999999999,"N_COORD97":2545683.5299999998,"ADDRESS":"北園街２２號十樓之９","OBJECTID":502001},"geometry":{"x":170389.21000000089,"y":2545683.5299999993}},{"attributes":{"ID":502029,"DIS_CODE":0,"TOWNNAME":"北區","LI":"元寶里","LIN":"7鄰","STREET":"北園街","SECT":" ","MAREA":" ","LANE":" ","ALLEY":" ","HOUSE_NO":"２２號三樓之１","E_COORD97":170389.20999999999,"N_COORD97":2545683.5299999998,"ADDRESS":"北園街２２號三樓之１","OBJECTID":502002},"geometry":{"x":170389.21000000089,"y":2545683.5299999993}},{"attributes":{"ID":502030,"DIS_CODE":0,"TOWNNAME":"北區","LI":"元寶里","LIN":"7鄰","STREET":"北園街","SECT":" ","MAREA":" ","LANE":" ","ALLEY":" ","HOUSE_NO":"２２號三樓之２","E_COORD97":170389.20999999999,"N_COORD97":2545683.5299999998,"ADDRESS":"北園街２２號三樓之２","OBJECTID":502003},"geometry":{"x":170389.21000000089,"y":2545683.5299999993}},{"attributes":{"ID":502031,"DIS_CODE":0,"TOWNNAME":"北區","LI":"元寶里","LIN":"7鄰","STREET":"北園街","SECT":" ","MAREA":" ","LANE":" ","ALLEY":" ","HOUSE_NO":"２２號三樓之３","E_COORD97":170389.20999999999,"N_COORD97":2545683.5299999998,"ADDRESS":"北園街２２號三樓之３","OBJECTID":502004},"geometry":{"x":170389.21000000089,"y":2545683.5299999993}},{"attributes":{"ID":502032,"DIS_CODE":0,"TOWNNAME":"北區","LI":"元寶里","LIN":"7鄰","STREET":"北園街","SECT":" ","MAREA":" ","LANE":" ","ALLEY":" ","HOUSE_NO":"２２號三樓之５","E_COORD97":170389.20999999999,"N_COORD97":2545683.5299999998,"ADDRESS":"北園街２２號三樓之５","OBJECTID":502005},"geometry":{"x":170389.21000000089,"y":2545683.5299999993}},{"attributes":{"ID":502033,"DIS_CODE":0,"TOWNNAME":"北區","LI":"元寶里","LIN":"7鄰","STREET":"北園街","SECT":" ","MAREA":" ","LANE":" ","ALLEY":" ","HOUSE_NO":"２２號三樓之６","E_COORD97":170389.20999999999,"N_COORD97":2545683.5299999998,"ADDRESS":"北園街２２號三樓之６","OBJECTID":502006},"geometry":{"x":170389.21000000089,"y":2545683.5299999993}},{"attributes":{"ID":502034,"DIS_CODE":0,"TOWNNAME":"北區","LI":"元寶里","LIN":"7鄰","STREET":"北園街","SECT":" ","MAREA":" ","LANE":" ","ALLEY":" ","HOUSE_NO":"２２號三樓之７","E_COORD97":170389.20999999999,"N_COORD97":2545683.5299999998,"ADDRESS":"北園街２２號三樓之７","OBJECTID":502007},"geometry":{"x":170389.21000000089,"y":2545683.5299999993}},{"attributes":{"ID":502035,"DIS_CODE":0,"TOWNNAME":"北區","LI":"元寶里","LIN":"7鄰","STREET":"北園街","SECT":" ","MAREA":" ","LANE":" ","ALLEY":" ","HOUSE_NO":"２２號三樓之８","E_COORD97":170389.20999999999,"N_COORD97":2545683.5299999998,"ADDRESS":"北園街２２號三樓之８","OBJECTID":502008},"geometry":{"x":170389.21000000089,"y":2545683.5299999993}},{"attributes":{"ID":502036,"DIS_CODE":0,"TOWNNAME":"北區","LI":"元寶里","LIN":"7鄰","STREET":"北園街","SECT":" ","MAREA":" ","LANE":" ","ALLEY":" ","HOUSE_NO":"２２號三樓之９","E_COORD97":170389.20999999999,"N_COORD97":2545683.5299999998,"ADDRESS":"北園街２２號三樓之９","OBJECTID":502009},"geometry":{"x":170389.21000000089,"y":2545683.5299999993}},{"attributes":{"ID":502037,"DIS_CODE":0,"TOWNNAME":"北區","LI":"元寶里","LIN":"7鄰","STREET":"北園街","SECT":" ","MAREA":" ","LANE":" ","ALLEY":" ","HOUSE_NO":"２２號五樓之１","E_COORD97":170389.20999999999,"N_COORD97":2545683.5299999998,"ADDRESS":"北園街２２號五樓之１","OBJECTID":502010},"geometry":{"x":170389.21000000089,"y":2545683.5299999993}},{"attributes":{"ID":502038,"DIS_CODE":0,"TOWNNAME":"北區","LI":"元寶里","LIN":"7鄰","STREET":"北園街","SECT":" ","MAREA":" ","LANE":" ","ALLEY":" ","HOUSE_NO":"２２號五樓之２","E_COORD97":170389.20999999999,"N_COORD97":2545683.5299999998,"ADDRESS":"北園街２２號五樓之２","OBJECTID":502011},"geometry":{"x":170389.21000000089,"y":2545683.5299999993}},{"attributes":{"ID":502039,"DIS_CODE":0,"TOWNNAME":"北區","LI":"元寶里","LIN":"7鄰","STREET":"北園街","SECT":" ","MAREA":" ","LANE":" ","ALLEY":" ","HOUSE_NO":"２２號五樓之３","E_COORD97":170389.20999999999,"N_COORD97":2545683.5299999998,"ADDRESS":"北園街２２號五樓之３","OBJECTID":502012},"geometry":{"x":170389.21000000089,"y":2545683.5299999993}},{"attributes":{"ID":502040,"DIS_CODE":0,"TOWNNAME":"北區","LI":"元寶里","LIN":"7鄰","STREET":"北園街","SECT":" ","MAREA":" ","LANE":" ","ALLEY":" ","HOUSE_NO":"２２號五樓之５","E_COORD97":170389.20999999999,"N_COORD97":2545683.5299999998,"ADDRESS":"北園街２２號五樓之５","OBJECTID":502013},"geometry":{"x":170389.21000000089,"y":2545683.5299999993}},{"attributes":{"ID":502041,"DIS_CODE":0,"TOWNNAME":"北區","LI":"元寶里","LIN":"7鄰","STREET":"北園街","SECT":" ","MAREA":" ","LANE":" ","ALLEY":" ","HOUSE_NO":"２２號五樓之６","E_COORD97":170389.20999999999,"N_COORD97":2545683.5299999998,"ADDRESS":"北園街２２號五樓之６","OBJECTID":502014},"geometry":{"x":170389.21000000089,"y":2545683.5299999993}},{"attributes":{"ID":502042,"DIS_CODE":0,"TOWNNAME":"北區","LI":"元寶里","LIN":"7鄰","STREET":"北園街","SECT":" ","MAREA":" ","LANE":" ","ALLEY":" ","HOUSE_NO":"２２號五樓之７","E_COORD97":170389.20999999999,"N_COORD97":2545683.5299999998,"ADDRESS":"北園街２２號五樓之７","OBJECTID":502015},"geometry":{"x":170389.21000000089,"y":2545683.5299999993}},{"attributes":{"ID":502043,"DIS_CODE":0,"TOWNNAME":"北區","LI":"元寶里","LIN":"7鄰","STREET":"北園街","SECT":" ","MAREA":" ","LANE":" ","ALLEY":" ","HOUSE_NO":"２２號五樓之８","E_COORD97":170389.20999999999,"N_COORD97":2545683.5299999998,"ADDRESS":"北園街２２號五樓之８","OBJECTID":502016},"geometry":{"x":170389.21000000089,"y":2545683.5299999993}},{"attributes":{"ID":502044,"DIS_CODE":0,"TOWNNAME":"北區","LI":"元寶里","LIN":"7鄰","STREET":"北園街","SECT":" ","MAREA":" ","LANE":" ","ALLEY":" ","HOUSE_NO":"２２號五樓之９","E_COORD97":170389.20999999999,"N_COORD97":2545683.5299999998,"ADDRESS":"北園街２２號五樓之９","OBJECTID":502017},"geometry":{"x":170389.21000000089,"y":2545683.5299999993}},{"attributes":{"ID":502045,"DIS_CODE":0,"TOWNNAME":"北區","LI":"元寶里","LIN":"7鄰","STREET":"北園街","SECT":" ","MAREA":" ","LANE":" ","ALLEY":" ","HOUSE_NO":"２２號六樓之１","E_COORD97":170389.20999999999,"N_COORD97":2545683.5299999998,"ADDRESS":"北園街２２號六樓之１","OBJECTID":502018},"geometry":{"x":170389.21000000089,"y":2545683.5299999993}},{"attributes":{"ID":502046,"DIS_CODE":0,"TOWNNAME":"北區","LI":"元寶里","LIN":"7鄰","STREET":"北園街","SECT":" ","MAREA":" ","LANE":" ","ALLEY":" ","HOUSE_NO":"２２號六樓之２","E_COORD97":170389.20999999999,"N_COORD97":2545683.5299999998,"ADDRESS":"北園街２２號六樓之２","OBJECTID":502019},"geometry":{"x":170389.21000000089,"y":2545683.5299999993}},{"attributes":{"ID":502047,"DIS_CODE":0,"TOWNNAME":"北區","LI":"元寶里","LIN":"7鄰","STREET":"北園街","SECT":" ","MAREA":" ","LANE":" ","ALLEY":" ","HOUSE_NO":"２２號六樓之３","E_COORD97":170389.20999999999,"N_COORD97":2545683.5299999998,"ADDRESS":"北園街２２號六樓之３","OBJECTID":502020},"geometry":{"x":170389.21000000089,"y":2545683.5299999993}},{"attributes":{"ID":502048,"DIS_CODE":0,"TOWNNAME":"北區","LI":"元寶里","LIN":"7鄰","STREET":"北園街","SECT":" ","MAREA":" ","LANE":" ","ALLEY":" ","HOUSE_NO":"２２號六樓之５","E_COORD97":170389.20999999999,"N_COORD97":2545683.5299999998,"ADDRESS":"北園街２２號六樓之５","OBJECTID":502021},"geometry":{"x":170389.21000000089,"y":2545683.5299999993}},{"attributes":{"ID":502049,"DIS_CODE":0,"TOWNNAME":"北區","LI":"元寶里","LIN":"7鄰","STREET":"北園街","SECT":" ","MAREA":" ","LANE":" ","ALLEY":" ","HOUSE_NO":"２２號六樓之６","E_COORD97":170389.20999999999,"N_COORD97":2545683.5299999998,"ADDRESS":"北園街２２號六樓之６","OBJECTID":502022},"geometry":{"x":170389.21000000089,"y":2545683.5299999993}},{"attributes":{"ID":502050,"DIS_CODE":0,"TOWNNAME":"北區","LI":"元寶里","LIN":"7鄰","STREET":"北園街","SECT":" ","MAREA":" ","LANE":" ","ALLEY":" ","HOUSE_NO":"２２號六樓之７","E_COORD97":170389.20999999999,"N_COORD97":2545683.5299999998,"ADDRESS":"北園街２２號六樓之７","OBJECTID":502023},"geometry":{"x":170389.21000000089,"y":2545683.5299999993}},{"attributes":{"ID":502051,"DIS_CODE":0,"TOWNNAME":"北區","LI":"元寶里","LIN":"7鄰","STREET":"北園街","SECT":" ","MAREA":" ","LANE":" ","ALLEY":" ","HOUSE_NO":"２２號六樓之８","E_COORD97":170389.20999999999,"N_COORD97":2545683.5299999998,"ADDRESS":"北園街２２號六樓之８","OBJECTID":502024},"geometry":{"x":170389.21000000089,"y":2545683.5299999993}},{"attributes":{"ID":502052,"DIS_CODE":0,"TOWNNAME":"北區","LI":"元寶里","LIN":"7鄰","STREET":"北園街","SECT":" ","MAREA":" ","LANE":" ","ALLEY":" ","HOUSE_NO":"２２號六樓之９","E_COORD97":170389.20999999999,"N_COORD97":2545683.5299999998,"ADDRESS":"北園街２２號六樓之９","OBJECTID":502025},"geometry":{"x":170389.21000000089,"y":2545683.5299999993}},{"attributes":{"ID":502053,"DIS_CODE":0,"TOWNNAME":"北區","LI":"元寶里","LIN":"7鄰","STREET":"北園街","SECT":" ","MAREA":" ","LANE":" ","ALLEY":" ","HOUSE_NO":"２２號四樓之１","E_COORD97":170389.20999999999,"N_COORD97":2545683.5299999998,"ADDRESS":"北園街２２號四樓之１","OBJECTID":502026},"geometry":{"x":170389.21000000089,"y":2545683.5299999993}},{"attributes":{"ID":502054,"DIS_CODE":0,"TOWNNAME":"北區","LI":"元寶里","LIN":"7鄰","STREET":"北園街","SECT":" ","MAREA":" ","LANE":" ","ALLEY":" ","HOUSE_NO":"２２號四樓之２","E_COORD97":170389.20999999999,"N_COORD97":2545683.5299999998,"ADDRESS":"北園街２２號四樓之２","OBJECTID":502027},"geometry":{"x":170389.21000000089,"y":2545683.5299999993}},{"attributes":{"ID":502055,"DIS_CODE":0,"TOWNNAME":"北區","LI":"元寶里","LIN":"7鄰","STREET":"北園街","SECT":" ","MAREA":" ","LANE":" ","ALLEY":" ","HOUSE_NO":"２２號四樓之３","E_COORD97":170389.20999999999,"N_COORD97":2545683.5299999998,"ADDRESS":"北園街２２號四樓之３","OBJECTID":502028},"geometry":{"x":170389.21000000089,"y":2545683.5299999993}},{"attributes":{"ID":502056,"DIS_CODE":0,"TOWNNAME":"北區","LI":"元寶里","LIN":"7鄰","STREET":"北園街","SECT":" ","MAREA":" ","LANE":" ","ALLEY":" ","HOUSE_NO":"２２號四樓之５","E_COORD97":170389.20999999999,"N_COORD97":2545683.5299999998,"ADDRESS":"北園街２２號四樓之５","OBJECTID":502029},"geometry":{"x":170389.21000000089,"y":2545683.5299999993}},{"attributes":{"ID":502057,"DIS_CODE":0,"TOWNNAME":"北區","LI":"元寶里","LIN":"7鄰","STREET":"北園街","SECT":" ","MAREA":" ","LANE":" ","ALLEY":" ","HOUSE_NO":"２２號四樓之６","E_COORD97":170389.20999999999,"N_COORD97":2545683.5299999998,"ADDRESS":"北園街２２號四樓之６","OBJECTID":502030},"geometry":{"x":170389.21000000089,"y":2545683.5299999993}},{"attributes":{"ID":502058,"DIS_CODE":0,"TOWNNAME":"北區","LI":"元寶里","LIN":"7鄰","STREET":"北園街","SECT":" ","MAREA":" ","LANE":" ","ALLEY":" ","HOUSE_NO":"２２號四樓之７","E_COORD97":170389.20999999999,"N_COORD97":2545683.5299999998,"ADDRESS":"北園街２２號四樓之７","OBJECTID":502031},"geometry":{"x":170389.21000000089,"y":2545683.5299999993}},{"attributes":{"ID":502059,"DIS_CODE":0,"TOWNNAME":"北區","LI":"元寶里","LIN":"7鄰","STREET":"北園街","SECT":" ","MAREA":" ","LANE":" ","ALLEY":" ","HOUSE_NO":"２２號四樓之８","E_COORD97":170389.20999999999,"N_COORD97":2545683.5299999998,"ADDRESS":"北園街２２號四樓之８","OBJECTID":502032},"geometry":{"x":170389.21000000089,"y":2545683.5299999993}},{"attributes":{"ID":502060,"DIS_CODE":0,"TOWNNAME":"北區","LI":"元寶里","LIN":"7鄰","STREET":"北園街","SECT":" ","MAREA":" ","LANE":" ","ALLEY":" ","HOUSE_NO":"２２號四樓之９","E_COORD97":170389.20999999999,"N_COORD97":2545683.5299999998,"ADDRESS":"北園街２２號四樓之９","OBJECTID":502033},"geometry":{"x":170389.21000000089,"y":2545683.5299999993}},{"attributes":{"ID":502061,"DIS_CODE":0,"TOWNNAME":"北區","LI":"裕民里","LIN":"7鄰","STREET":"成功路","SECT":" ","MAREA":" ","LANE":" ","ALLEY":" ","HOUSE_NO":"５１６號七樓之１","E_COORD97":167640.62,"N_COORD97":2544668.5600000001,"ADDRESS":"成功路５１６號七樓之１","OBJECTID":502034},"geometry":{"x":167640.62000000011,"y":2544668.5600000042}},{"attributes":{"ID":502062,"DIS_CODE":0,"TOWNNAME":"北區","LI":"裕民里","LIN":"7鄰","STREET":"成功路","SECT":" ","MAREA":" ","LANE":" ","ALLEY":" ","HOUSE_NO":"５１６號七樓之２","E_COORD97":167640.62,"N_COORD97":2544668.5600000001,"ADDRESS":"成功路５１６號七樓之２","OBJECTID":502035},"geometry":{"x":167640.62000000011,"y":2544668.5600000042}},{"attributes":{"ID":502063,"DIS_CODE":0,"TOWNNAME":"北區","LI":"裕民里","LIN":"7鄰","STREET":"成功路","SECT":" ","MAREA":" ","LANE":" ","ALLEY":" ","HOUSE_NO":"５１６號七樓之３","E_COORD97":167640.62,"N_COORD97":2544668.5600000001,"ADDRESS":"成功路５１６號七樓之３","OBJECTID":502036},"geometry":{"x":167640.62000000011,"y":2544668.5600000042}},{"attributes":{"ID":502064,"DIS_CODE":0,"TOWNNAME":"北區","LI":"裕民里","LIN":"7鄰","STREET":"成功路","SECT":" ","MAREA":" ","LANE":" ","ALLEY":" ","HOUSE_NO":"５１６號二樓之１","E_COORD97":167640.62,"N_COORD97":2544668.5600000001,"ADDRESS":"成功路５１６號二樓之１","OBJECTID":502037},"geometry":{"x":167640.62000000011,"y":2544668.5600000042}},{"attributes":{"ID":502065,"DIS_CODE":0,"TOWNNAME":"北區","LI":"裕民里","LIN":"7鄰","STREET":"成功路","SECT":" ","MAREA":" ","LANE":" ","ALLEY":" ","HOUSE_NO":"５１６號二樓之２","E_COORD97":167640.62,"N_COORD97":2544668.5600000001,"ADDRESS":"成功路５１６號二樓之２","OBJECTID":502038},"geometry":{"x":167640.62000000011,"y":2544668.5600000042}},{"attributes":{"ID":502066,"DIS_CODE":0,"TOWNNAME":"北區","LI":"裕民里","LIN":"7鄰","STREET":"成功路","SECT":" ","MAREA":" ","LANE":" ","ALLEY":" ","HOUSE_NO":"５１６號二樓之３","E_COORD97":167640.62,"N_COORD97":2544668.5600000001,"ADDRESS":"成功路５１６號二樓之３","OBJECTID":502039},"geometry":{"x":167640.62000000011,"y":2544668.5600000042}},{"attributes":{"ID":502067,"DIS_CODE":0,"TOWNNAME":"北區","LI":"裕民里","LIN":"7鄰","STREET":"成功路","SECT":" ","MAREA":" ","LANE":" ","ALLEY":" ","HOUSE_NO":"５１６號三樓之１","E_COORD97":167640.62,"N_COORD97":2544668.5600000001,"ADDRESS":"成功路５１６號三樓之１","OBJECTID":502040},"geometry":{"x":167640.62000000011,"y":2544668.5600000042}},{"attributes":{"ID":502068,"DIS_CODE":0,"TOWNNAME":"北區","LI":"裕民里","LIN":"7鄰","STREET":"成功路","SECT":" ","MAREA":" ","LANE":" ","ALLEY":" ","HOUSE_NO":"５１６號三樓之２","E_COORD97":167640.62,"N_COORD97":2544668.5600000001,"ADDRESS":"成功路５１６號三樓之２","OBJECTID":502041},"geometry":{"x":167640.62000000011,"y":2544668.5600000042}},{"attributes":{"ID":502069,"DIS_CODE":0,"TOWNNAME":"北區","LI":"裕民里","LIN":"7鄰","STREET":"成功路","SECT":" ","MAREA":" ","LANE":" ","ALLEY":" ","HOUSE_NO":"５１６號三樓之３","E_COORD97":167640.62,"N_COORD97":2544668.5600000001,"ADDRESS":"成功路５１６號三樓之３","OBJECTID":502042},"geometry":{"x":167640.62000000011,"y":2544668.5600000042}},{"attributes":{"ID":502070,"DIS_CODE":0,"TOWNNAME":"北區","LI":"裕民里","LIN":"7鄰","STREET":"成功路","SECT":" ","MAREA":" ","LANE":" ","ALLEY":" ","HOUSE_NO":"５１６號五樓之１","E_COORD97":167640.62,"N_COORD97":2544668.5600000001,"ADDRESS":"成功路５１６號五樓之１","OBJECTID":502043},"geometry":{"x":167640.62000000011,"y":2544668.5600000042}},{"attributes":{"ID":502071,"DIS_CODE":0,"TOWNNAME":"北區","LI":"裕民里","LIN":"7鄰","STREET":"成功路","SECT":" ","MAREA":" ","LANE":" ","ALLEY":" ","HOUSE_NO":"５１６號五樓之２","E_COORD97":167640.62,"N_COORD97":2544668.5600000001,"ADDRESS":"成功路５１６號五樓之２","OBJECTID":502044},"geometry":{"x":167640.62000000011,"y":2544668.5600000042}},{"attributes":{"ID":502072,"DIS_CODE":0,"TOWNNAME":"北區","LI":"裕民里","LIN":"7鄰","STREET":"成功路","SECT":" ","MAREA":" ","LANE":" ","ALLEY":" ","HOUSE_NO":"５１６號五樓之３","E_COORD97":167640.62,"N_COORD97":2544668.5600000001,"ADDRESS":"成功路５１６號五樓之３","OBJECTID":502045},"geometry":{"x":167640.62000000011,"y":2544668.5600000042}},{"attributes":{"ID":502073,"DIS_CODE":0,"TOWNNAME":"北區","LI":"裕民里","LIN":"7鄰","STREET":"成功路","SECT":" ","MAREA":" ","LANE":" ","ALLEY":" ","HOUSE_NO":"５１６號五樓之４","E_COORD97":167640.62,"N_COORD97":2544668.5600000001,"ADDRESS":"成功路５１６號五樓之４","OBJECTID":502046},"geometry":{"x":167640.62000000011,"y":2544668.5600000042}},{"attributes":{"ID":502074,"DIS_CODE":0,"TOWNNAME":"北區","LI":"裕民里","LIN":"7鄰","STREET":"成功路","SECT":" ","MAREA":" ","LANE":" ","ALLEY":" ","HOUSE_NO":"５１６號六樓之１","E_COORD97":167640.62,"N_COORD97":2544668.5600000001,"ADDRESS":"成功路５１６號六樓之１","OBJECTID":502047},"geometry":{"x":167640.62000000011,"y":2544668.5600000042}},{"attributes":{"ID":502075,"DIS_CODE":0,"TOWNNAME":"北區","LI":"裕民里","LIN":"7鄰","STREET":"成功路","SECT":" ","MAREA":" ","LANE":" ","ALLEY":" ","HOUSE_NO":"５１６號六樓之２","E_COORD97":167640.62,"N_COORD97":2544668.5600000001,"ADDRESS":"成功路５１６號六樓之２","OBJECTID":502048},"geometry":{"x":167640.62000000011,"y":2544668.5600000042}},{"attributes":{"ID":502076,"DIS_CODE":0,"TOWNNAME":"白河區","LI":"永安里","LIN":"7鄰","STREET":"中正路","SECT":" ","MAREA":" ","LANE":" ","ALLEY":" ","HOUSE_NO":"１７０號","E_COORD97":189716.42999999999,"N_COORD97":2583102.5899999999,"ADDRESS":"中正路１７０號","OBJECTID":502049},"geometry":{"x":189716.4299999997,"y":2583102.5900000017}},{"attributes":{"ID":502077,"DIS_CODE":0,"TOWNNAME":"北區","LI":"裕民里","LIN":"7鄰","STREET":"成功路","SECT":" ","MAREA":" ","LANE":" ","ALLEY":" ","HOUSE_NO":"５１６號六樓之３","E_COORD97":167640.62,"N_COORD97":2544668.5600000001,"ADDRESS":"成功路５１６號六樓之３","OBJECTID":502050},"geometry":{"x":167640.62000000011,"y":2544668.5600000042}},{"attributes":{"ID":502078,"DIS_CODE":0,"TOWNNAME":"北區","LI":"裕民里","LIN":"7鄰","STREET":"成功路","SECT":" ","MAREA":" ","LANE":" ","ALLEY":" ","HOUSE_NO":"５１６號六樓之４","E_COORD97":167640.62,"N_COORD97":2544668.5600000001,"ADDRESS":"成功路５１６號六樓之４","OBJECTID":502051},"geometry":{"x":167640.62000000011,"y":2544668.5600000042}},{"attributes":{"ID":502079,"DIS_CODE":0,"TOWNNAME":"北區","LI":"裕民里","LIN":"7鄰","STREET":"成功路","SECT":" ","MAREA":" ","LANE":" ","ALLEY":" ","HOUSE_NO":"５１６號四樓之１","E_COORD97":167640.62,"N_COORD97":2544668.5600000001,"ADDRESS":"成功路５１６號四樓之１","OBJECTID":502052},"geometry":{"x":167640.62000000011,"y":2544668.5600000042}},{"attributes":{"ID":502080,"DIS_CODE":0,"TOWNNAME":"北區","LI":"裕民里","LIN":"7鄰","STREET":"成功路","SECT":" ","MAREA":" ","LANE":" ","ALLEY":" ","HOUSE_NO":"５１６號四樓之２","E_COORD97":167640.62,"N_COORD97":2544668.5600000001,"ADDRESS":"成功路５１６號四樓之２","OBJECTID":502053},"geometry":{"x":167640.62000000011,"y":2544668.5600000042}},{"attributes":{"ID":502081,"DIS_CODE":0,"TOWNNAME":"北區","LI":"裕民里","LIN":"7鄰","STREET":"成功路","SECT":" ","MAREA":" ","LANE":" ","ALLEY":" ","HOUSE_NO":"５１６號四樓之３","E_COORD97":167640.62,"N_COORD97":2544668.5600000001,"ADDRESS":"成功路５１６號四樓之３","OBJECTID":502054},"geometry":{"x":167640.62000000011,"y":2544668.5600000042}},{"attributes":{"ID":502082,"DIS_CODE":0,"TOWNNAME":"北區","LI":"裕民里","LIN":"7鄰","STREET":"成功路","SECT":" ","MAREA":" ","LANE":" ","ALLEY":" ","HOUSE_NO":"５１８號七樓之１","E_COORD97":167634.54000000001,"N_COORD97":2544669.1600000001,"ADDRESS":"成功路５１８號七樓之１","OBJECTID":502055},"geometry":{"x":167634.54000000004,"y":2544669.160000002}},{"attributes":{"ID":502083,"DIS_CODE":0,"TOWNNAME":"北區","LI":"裕民里","LIN":"7鄰","STREET":"成功路","SECT":" ","MAREA":" ","LANE":" ","ALLEY":" ","HOUSE_NO":"５１８號七樓之２","E_COORD97":167634.54000000001,"N_COORD97":2544669.1600000001,"ADDRESS":"成功路５１８號七樓之２","OBJECTID":502056},"geometry":{"x":167634.54000000004,"y":2544669.160000002}},{"attributes":{"ID":502084,"DIS_CODE":0,"TOWNNAME":"北區","LI":"裕民里","LIN":"7鄰","STREET":"成功路","SECT":" ","MAREA":" ","LANE":" ","ALLEY":" ","HOUSE_NO":"５１８號九樓之１","E_COORD97":167634.54000000001,"N_COORD97":2544669.1600000001,"ADDRESS":"成功路５１８號九樓之１","OBJECTID":502057},"geometry":{"x":167634.54000000004,"y":2544669.160000002}},{"attributes":{"ID":502085,"DIS_CODE":0,"TOWNNAME":"北區","LI":"裕民里","LIN":"7鄰","STREET":"成功路","SECT":" ","MAREA":" ","LANE":" ","ALLEY":" ","HOUSE_NO":"５１８號九樓之２","E_COORD97":167634.54000000001,"N_COORD97":2544669.1600000001,"ADDRESS":"成功路５１８號九樓之２","OBJECTID":502058},"geometry":{"x":167634.54000000004,"y":2544669.160000002}},{"attributes":{"ID":502086,"DIS_CODE":0,"TOWNNAME":"北區","LI":"裕民里","LIN":"7鄰","STREET":"成功路","SECT":" ","MAREA":" ","LANE":" ","ALLEY":" ","HOUSE_NO":"５１８號二樓之１","E_COORD97":167634.54000000001,"N_COORD97":2544669.1600000001,"ADDRESS":"成功路５１８號二樓之１","OBJECTID":502059},"geometry":{"x":167634.54000000004,"y":2544669.160000002}},{"attributes":{"ID":502087,"DIS_CODE":0,"TOWNNAME":"北區","LI":"裕民里","LIN":"7鄰","STREET":"成功路","SECT":" ","MAREA":" ","LANE":" ","ALLEY":" ","HOUSE_NO":"５１８號二樓之２","E_COORD97":167634.54000000001,"N_COORD97":2544669.1600000001,"ADDRESS":"成功路５１８號二樓之２","OBJECTID":502060},"geometry":{"x":167634.54000000004,"y":2544669.160000002}},{"attributes":{"ID":502088,"DIS_CODE":0,"TOWNNAME":"北區","LI":"裕民里","LIN":"7鄰","STREET":"成功路","SECT":" ","MAREA":" ","LANE":" ","ALLEY":" ","HOUSE_NO":"５１８號八樓之１","E_COORD97":167634.54000000001,"N_COORD97":2544669.1600000001,"ADDRESS":"成功路５１８號八樓之１","OBJECTID":502061},"geometry":{"x":167634.54000000004,"y":2544669.160000002}},{"attributes":{"ID":502089,"DIS_CODE":0,"TOWNNAME":"北區","LI":"裕民里","LIN":"7鄰","STREET":"成功路","SECT":" ","MAREA":" ","LANE":" ","ALLEY":" ","HOUSE_NO":"５１８號八樓之２","E_COORD97":167634.54000000001,"N_COORD97":2544669.1600000001,"ADDRESS":"成功路５１８號八樓之２","OBJECTID":502062},"geometry":{"x":167634.54000000004,"y":2544669.160000002}},{"attributes":{"ID":502090,"DIS_CODE":0,"TOWNNAME":"北區","LI":"裕民里","LIN":"7鄰","STREET":"成功路","SECT":" ","MAREA":" ","LANE":" ","ALLEY":" ","HOUSE_NO":"５１８號十一樓之１","E_COORD97":167634.54000000001,"N_COORD97":2544669.1600000001,"ADDRESS":"成功路５１８號十一樓之１","OBJECTID":502063},"geometry":{"x":167634.54000000004,"y":2544669.160000002}},{"attributes":{"ID":502091,"DIS_CODE":0,"TOWNNAME":"北區","LI":"裕民里","LIN":"7鄰","STREET":"成功路","SECT":" ","MAREA":" ","LANE":" ","ALLEY":" ","HOUSE_NO":"５１８號十一樓之２","E_COORD97":167634.54000000001,"N_COORD97":2544669.1600000001,"ADDRESS":"成功路５１８號十一樓之２","OBJECTID":502064},"geometry":{"x":167634.54000000004,"y":2544669.160000002}},{"attributes":{"ID":502092,"DIS_CODE":0,"TOWNNAME":"北區","LI":"裕民里","LIN":"7鄰","STREET":"成功路","SECT":" ","MAREA":" ","LANE":" ","ALLEY":" ","HOUSE_NO":"５１８號十樓之１","E_COORD97":167634.54000000001,"N_COORD97":2544669.1600000001,"ADDRESS":"成功路５１８號十樓之１","OBJECTID":502065},"geometry":{"x":167634.54000000004,"y":2544669.160000002}},{"attributes":{"ID":502093,"DIS_CODE":0,"TOWNNAME":"北區","LI":"裕民里","LIN":"7鄰","STREET":"成功路","SECT":" ","MAREA":" ","LANE":" ","ALLEY":" ","HOUSE_NO":"５１８號十樓之２","E_COORD97":167634.54000000001,"N_COORD97":2544669.1600000001,"ADDRESS":"成功路５１８號十樓之２","OBJECTID":502066},"geometry":{"x":167634.54000000004,"y":2544669.160000002}},{"attributes":{"ID":502094,"DIS_CODE":0,"TOWNNAME":"北區","LI":"裕民里","LIN":"7鄰","STREET":"成功路","SECT":" ","MAREA":" ","LANE":" ","ALLEY":" ","HOUSE_NO":"５１８號三樓之１","E_COORD97":167634.54000000001,"N_COORD97":2544669.1600000001,"ADDRESS":"成功路５１８號三樓之１","OBJECTID":502067},"geometry":{"x":167634.54000000004,"y":2544669.160000002}},{"attributes":{"ID":502095,"DIS_CODE":0,"TOWNNAME":"北區","LI":"裕民里","LIN":"7鄰","STREET":"成功路","SECT":" ","MAREA":" ","LANE":" ","ALLEY":" ","HOUSE_NO":"５１８號三樓之２","E_COORD97":167634.54000000001,"N_COORD97":2544669.1600000001,"ADDRESS":"成功路５１８號三樓之２","OBJECTID":502068},"geometry":{"x":167634.54000000004,"y":2544669.160000002}},{"attributes":{"ID":502096,"DIS_CODE":0,"TOWNNAME":"北區","LI":"裕民里","LIN":"7鄰","STREET":"成功路","SECT":" ","MAREA":" ","LANE":" ","ALLEY":" ","HOUSE_NO":"５１８號五樓之１","E_COORD97":167634.54000000001,"N_COORD97":2544669.1600000001,"ADDRESS":"成功路５１８號五樓之１","OBJECTID":502069},"geometry":{"x":167634.54000000004,"y":2544669.160000002}},{"attributes":{"ID":502097,"DIS_CODE":0,"TOWNNAME":"北區","LI":"裕民里","LIN":"7鄰","STREET":"成功路","SECT":" ","MAREA":" ","LANE":" ","ALLEY":" ","HOUSE_NO":"５１８號五樓之２","E_COORD97":167634.54000000001,"N_COORD97":2544669.1600000001,"ADDRESS":"成功路５１８號五樓之２","OBJECTID":502070},"geometry":{"x":167634.54000000004,"y":2544669.160000002}},{"attributes":{"ID":502098,"DIS_CODE":0,"TOWNNAME":"北區","LI":"裕民里","LIN":"7鄰","STREET":"成功路","SECT":" ","MAREA":" ","LANE":" ","ALLEY":" ","HOUSE_NO":"５１８號六樓之１","E_COORD97":167634.54000000001,"N_COORD97":2544669.1600000001,"ADDRESS":"成功路５１８號六樓之１","OBJECTID":502071},"geometry":{"x":167634.54000000004,"y":2544669.160000002}},{"attributes":{"ID":502099,"DIS_CODE":0,"TOWNNAME":"北區","LI":"裕民里","LIN":"7鄰","STREET":"成功路","SECT":" ","MAREA":" ","LANE":" ","ALLEY":" ","HOUSE_NO":"５１８號六樓之２","E_COORD97":167634.54000000001,"N_COORD97":2544669.1600000001,"ADDRESS":"成功路５１８號六樓之２","OBJECTID":502072},"geometry":{"x":167634.54000000004,"y":2544669.160000002}},{"attributes":{"ID":502100,"DIS_CODE":0,"TOWNNAME":"北區","LI":"裕民里","LIN":"7鄰","STREET":"成功路","SECT":" ","MAREA":" ","LANE":" ","ALLEY":" ","HOUSE_NO":"５１８號四樓之１","E_COORD97":167634.54000000001,"N_COORD97":2544669.1600000001,"ADDRESS":"成功路５１８號四樓之１","OBJECTID":502073},"geometry":{"x":167634.54000000004,"y":2544669.160000002}},{"attributes":{"ID":502101,"DIS_CODE":0,"TOWNNAME":"北區","LI":"裕民里","LIN":"7鄰","STREET":"成功路","SECT":" ","MAREA":" ","LANE":" ","ALLEY":" ","HOUSE_NO":"５１８號四樓之２","E_COORD97":167634.54000000001,"N_COORD97":2544669.1600000001,"ADDRESS":"成功路５１８號四樓之２","OBJECTID":502074},"geometry":{"x":167634.54000000004,"y":2544669.160000002}},{"attributes":{"ID":502102,"DIS_CODE":0,"TOWNNAME":"安平區","LI":"平通里","LIN":"7鄰","STREET":"慶平路","SECT":" ","MAREA":" ","LANE":" ","ALLEY":" ","HOUSE_NO":"５５７號七樓","E_COORD97":164963.12,"N_COORD97":2544233.21,"ADDRESS":"慶平路５５７號七樓","OBJECTID":502075},"geometry":{"x":164963.12000000104,"y":2544233.2100000009}},{"attributes":{"ID":502103,"DIS_CODE":0,"TOWNNAME":"安平區","LI":"平通里","LIN":"7鄰","STREET":"慶平路","SECT":" ","MAREA":" ","LANE":" ","ALLEY":" ","HOUSE_NO":"５５７號九樓","E_COORD97":164963.12,"N_COORD97":2544233.21,"ADDRESS":"慶平路５５７號九樓","OBJECTID":502076},"geometry":{"x":164963.12000000104,"y":2544233.2100000009}},{"attributes":{"ID":502104,"DIS_CODE":0,"TOWNNAME":"安平區","LI":"平通里","LIN":"7鄰","STREET":"慶平路","SECT":" ","MAREA":" ","LANE":" ","ALLEY":" ","HOUSE_NO":"５５７號八樓","E_COORD97":164963.12,"N_COORD97":2544233.21,"ADDRESS":"慶平路５５７號八樓","OBJECTID":502077},"geometry":{"x":164963.12000000104,"y":2544233.2100000009}},{"attributes":{"ID":502105,"DIS_CODE":0,"TOWNNAME":"安平區","LI":"平通里","LIN":"7鄰","STREET":"慶平路","SECT":" ","MAREA":" ","LANE":" ","ALLEY":" ","HOUSE_NO":"５５７號十一樓","E_COORD97":164963.12,"N_COORD97":2544233.21,"ADDRESS":"慶平路５５７號十一樓","OBJECTID":502078},"geometry":{"x":164963.12000000104,"y":2544233.2100000009}},{"attributes":{"ID":502106,"DIS_CODE":0,"TOWNNAME":"安平區","LI":"平通里","LIN":"7鄰","STREET":"慶平路","SECT":" ","MAREA":" ","LANE":" ","ALLEY":" ","HOUSE_NO":"５５７號十二樓","E_COORD97":164963.12,"N_COORD97":2544233.21,"ADDRESS":"慶平路５５７號十二樓","OBJECTID":502079},"geometry":{"x":164963.12000000104,"y":2544233.2100000009}},{"attributes":{"ID":502107,"DIS_CODE":0,"TOWNNAME":"安平區","LI":"平通里","LIN":"7鄰","STREET":"慶平路","SECT":" ","MAREA":" ","LANE":" ","ALLEY":" ","HOUSE_NO":"５５７號十三樓","E_COORD97":164963.12,"N_COORD97":2544233.21,"ADDRESS":"慶平路５５７號十三樓","OBJECTID":502080},"geometry":{"x":164963.12000000104,"y":2544233.2100000009}},{"attributes":{"ID":502108,"DIS_CODE":0,"TOWNNAME":"安平區","LI":"平通里","LIN":"7鄰","STREET":"慶平路","SECT":" ","MAREA":" ","LANE":" ","ALLEY":" ","HOUSE_NO":"５５７號十樓","E_COORD97":164963.12,"N_COORD97":2544233.21,"ADDRESS":"慶平路５５７號十樓","OBJECTID":502081},"geometry":{"x":164963.12000000104,"y":2544233.2100000009}},{"attributes":{"ID":502109,"DIS_CODE":0,"TOWNNAME":"安平區","LI":"平通里","LIN":"7鄰","STREET":"慶平路","SECT":" ","MAREA":" ","LANE":" ","ALLEY":" ","HOUSE_NO":"５５７號三樓","E_COORD97":164963.12,"N_COORD97":2544233.21,"ADDRESS":"慶平路５５７號三樓","OBJECTID":502082},"geometry":{"x":164963.12000000104,"y":2544233.2100000009}},{"attributes":{"ID":502110,"DIS_CODE":0,"TOWNNAME":"安平區","LI":"平通里","LIN":"7鄰","STREET":"慶平路","SECT":" ","MAREA":" ","LANE":" ","ALLEY":" ","HOUSE_NO":"５５７號五樓","E_COORD97":164963.12,"N_COORD97":2544233.21,"ADDRESS":"慶平路５５７號五樓","OBJECTID":502083},"geometry":{"x":164963.12000000104,"y":2544233.2100000009}},{"attributes":{"ID":502111,"DIS_CODE":0,"TOWNNAME":"安平區","LI":"平通里","LIN":"7鄰","STREET":"慶平路","SECT":" ","MAREA":" ","LANE":" ","ALLEY":" ","HOUSE_NO":"５５７號六樓","E_COORD97":164963.12,"N_COORD97":2544233.21,"ADDRESS":"慶平路５５７號六樓","OBJECTID":502084},"geometry":{"x":164963.12000000104,"y":2544233.2100000009}},{"attributes":{"ID":502112,"DIS_CODE":0,"TOWNNAME":"白河區","LI":"永安里","LIN":"7鄰","STREET":"中正路","SECT":" ","MAREA":" ","LANE":" ","ALLEY":" ","HOUSE_NO":"１３６號","E_COORD97":189814.85999999999,"N_COORD97":2583120.4399999999,"ADDRESS":"中正路１３６號","OBJECTID":502085},"geometry":{"x":189814.86000000127,"y":2583120.4399999995}},{"attributes":{"ID":502113,"DIS_CODE":0,"TOWNNAME":"安平區","LI":"平通里","LIN":"7鄰","STREET":"慶平路","SECT":" ","MAREA":" ","LANE":" ","ALLEY":" ","HOUSE_NO":"５５７號四樓","E_COORD97":164963.12,"N_COORD97":2544233.21,"ADDRESS":"慶平路５５７號四樓","OBJECTID":502086},"geometry":{"x":164963.12000000104,"y":2544233.2100000009}},{"attributes":{"ID":502114,"DIS_CODE":0,"TOWNNAME":"安平區","LI":"平通里","LIN":"7鄰","STREET":"慶平路","SECT":" ","MAREA":" ","LANE":" ","ALLEY":" ","HOUSE_NO":"５５９號七樓","E_COORD97":164954.57999999999,"N_COORD97":2544235.2599999998,"ADDRESS":"慶平路５５９號七樓","OBJECTID":502087},"geometry":{"x":164954.57999999914,"y":2544235.2599999998}},{"attributes":{"ID":502115,"DIS_CODE":0,"TOWNNAME":"安平區","LI":"平通里","LIN":"7鄰","STREET":"慶平路","SECT":" ","MAREA":" ","LANE":" ","ALLEY":" ","HOUSE_NO":"５５９號九樓","E_COORD97":164954.57999999999,"N_COORD97":2544235.2599999998,"ADDRESS":"慶平路５５９號九樓","OBJECTID":502088},"geometry":{"x":164954.57999999914,"y":2544235.2599999998}},{"attributes":{"ID":502116,"DIS_CODE":0,"TOWNNAME":"安平區","LI":"平通里","LIN":"7鄰","STREET":"慶平路","SECT":" ","MAREA":" ","LANE":" ","ALLEY":" ","HOUSE_NO":"５５９號八樓","E_COORD97":164954.57999999999,"N_COORD97":2544235.2599999998,"ADDRESS":"慶平路５５９號八樓","OBJECTID":502089},"geometry":{"x":164954.57999999914,"y":2544235.2599999998}},{"attributes":{"ID":502117,"DIS_CODE":0,"TOWNNAME":"安平區","LI":"平通里","LIN":"7鄰","STREET":"慶平路","SECT":" ","MAREA":" ","LANE":" ","ALLEY":" ","HOUSE_NO":"５５９號十一樓","E_COORD97":164954.57999999999,"N_COORD97":2544235.2599999998,"ADDRESS":"慶平路５５９號十一樓","OBJECTID":502090},"geometry":{"x":164954.57999999914,"y":2544235.2599999998}},{"attributes":{"ID":502118,"DIS_CODE":0,"TOWNNAME":"安平區","LI":"平通里","LIN":"7鄰","STREET":"慶平路","SECT":" ","MAREA":" ","LANE":" ","ALLEY":" ","HOUSE_NO":"５５９號十二樓","E_COORD97":164954.57999999999,"N_COORD97":2544235.2599999998,"ADDRESS":"慶平路５５９號十二樓","OBJECTID":502091},"geometry":{"x":164954.57999999914,"y":2544235.2599999998}},{"attributes":{"ID":502119,"DIS_CODE":0,"TOWNNAME":"安平區","LI":"平通里","LIN":"7鄰","STREET":"慶平路","SECT":" ","MAREA":" ","LANE":" ","ALLEY":" ","HOUSE_NO":"５５９號十三樓","E_COORD97":164954.57999999999,"N_COORD97":2544235.2599999998,"ADDRESS":"慶平路５５９號十三樓","OBJECTID":502092},"geometry":{"x":164954.57999999914,"y":2544235.2599999998}},{"attributes":{"ID":502120,"DIS_CODE":0,"TOWNNAME":"安平區","LI":"平通里","LIN":"7鄰","STREET":"慶平路","SECT":" ","MAREA":" ","LANE":" ","ALLEY":" ","HOUSE_NO":"５５９號十樓","E_COORD97":164954.57999999999,"N_COORD97":2544235.2599999998,"ADDRESS":"慶平路５５９號十樓","OBJECTID":502093},"geometry":{"x":164954.57999999914,"y":2544235.2599999998}},{"attributes":{"ID":502121,"DIS_CODE":0,"TOWNNAME":"安平區","LI":"平通里","LIN":"7鄰","STREET":"慶平路","SECT":" ","MAREA":" ","LANE":" ","ALLEY":" ","HOUSE_NO":"５５９號三樓","E_COORD97":164954.57999999999,"N_COORD97":2544235.2599999998,"ADDRESS":"慶平路５５９號三樓","OBJECTID":502094},"geometry":{"x":164954.57999999914,"y":2544235.2599999998}},{"attributes":{"ID":502122,"DIS_CODE":0,"TOWNNAME":"安平區","LI":"平通里","LIN":"7鄰","STREET":"慶平路","SECT":" ","MAREA":" ","LANE":" ","ALLEY":" ","HOUSE_NO":"５５９號五樓","E_COORD97":164954.57999999999,"N_COORD97":2544235.2599999998,"ADDRESS":"慶平路５５９號五樓","OBJECTID":502095},"geometry":{"x":164954.57999999914,"y":2544235.2599999998}},{"attributes":{"ID":502123,"DIS_CODE":0,"TOWNNAME":"安平區","LI":"平通里","LIN":"7鄰","STREET":"慶平路","SECT":" ","MAREA":" ","LANE":" ","ALLEY":" ","HOUSE_NO":"５５９號六樓","E_COORD97":164954.57999999999,"N_COORD97":2544235.2599999998,"ADDRESS":"慶平路５５９號六樓","OBJECTID":502096},"geometry":{"x":164954.57999999914,"y":2544235.2599999998}},{"attributes":{"ID":502124,"DIS_CODE":0,"TOWNNAME":"安平區","LI":"平通里","LIN":"7鄰","STREET":"慶平路","SECT":" ","MAREA":" ","LANE":" ","ALLEY":" ","HOUSE_NO":"５５９號四樓","E_COORD97":164954.57999999999,"N_COORD97":2544235.2599999998,"ADDRESS":"慶平路５５９號四樓","OBJECTID":502097},"geometry":{"x":164954.57999999914,"y":2544235.2599999998}},{"attributes":{"ID":502125,"DIS_CODE":0,"TOWNNAME":"安平區","LI":"平通里","LIN":"7鄰","STREET":"慶平路","SECT":" ","MAREA":" ","LANE":" ","ALLEY":" ","HOUSE_NO":"５６３號七樓","E_COORD97":164936.13,"N_COORD97":2544239.3599999999,"ADDRESS":"慶平路５６３號七樓","OBJECTID":502098},"geometry":{"x":164936.13000000082,"y":2544239.3600000013}},{"attributes":{"ID":502126,"DIS_CODE":0,"TOWNNAME":"安平區","LI":"平通里","LIN":"7鄰","STREET":"慶平路","SECT":" ","MAREA":" ","LANE":" ","ALLEY":" ","HOUSE_NO":"５６３號九樓","E_COORD97":164936.13,"N_COORD97":2544239.3599999999,"ADDRESS":"慶平路５６３號九樓","OBJECTID":502099},"geometry":{"x":164936.13000000082,"y":2544239.3600000013}},{"attributes":{"ID":502127,"DIS_CODE":0,"TOWNNAME":"安平區","LI":"平通里","LIN":"7鄰","STREET":"慶平路","SECT":" ","MAREA":" ","LANE":" ","ALLEY":" ","HOUSE_NO":"５６３號八樓","E_COORD97":164936.13,"N_COORD97":2544239.3599999999,"ADDRESS":"慶平路５６３號八樓","OBJECTID":502100},"geometry":{"x":164936.13000000082,"y":2544239.3600000013}},{"attributes":{"ID":502128,"DIS_CODE":0,"TOWNNAME":"安平區","LI":"平通里","LIN":"7鄰","STREET":"慶平路","SECT":" ","MAREA":" ","LANE":" ","ALLEY":" ","HOUSE_NO":"５６３號十一樓","E_COORD97":164936.13,"N_COORD97":2544239.3599999999,"ADDRESS":"慶平路５６３號十一樓","OBJECTID":502101},"geometry":{"x":164936.13000000082,"y":2544239.3600000013}},{"attributes":{"ID":502129,"DIS_CODE":0,"TOWNNAME":"安平區","LI":"平通里","LIN":"7鄰","STREET":"慶平路","SECT":" ","MAREA":" ","LANE":" ","ALLEY":" ","HOUSE_NO":"５６３號十二樓","E_COORD97":164936.13,"N_COORD97":2544239.3599999999,"ADDRESS":"慶平路５６３號十二樓","OBJECTID":502102},"geometry":{"x":164936.13000000082,"y":2544239.3600000013}},{"attributes":{"ID":502130,"DIS_CODE":0,"TOWNNAME":"安平區","LI":"平通里","LIN":"7鄰","STREET":"慶平路","SECT":" ","MAREA":" ","LANE":" ","ALLEY":" ","HOUSE_NO":"５６３號十樓","E_COORD97":164936.13,"N_COORD97":2544239.3599999999,"ADDRESS":"慶平路５６３號十樓","OBJECTID":502103},"geometry":{"x":164936.13000000082,"y":2544239.3600000013}},{"attributes":{"ID":502131,"DIS_CODE":0,"TOWNNAME":"安平區","LI":"平通里","LIN":"7鄰","STREET":"慶平路","SECT":" ","MAREA":" ","LANE":" ","ALLEY":" ","HOUSE_NO":"５６３號三樓","E_COORD97":164936.13,"N_COORD97":2544239.3599999999,"ADDRESS":"慶平路５６３號三樓","OBJECTID":502104},"geometry":{"x":164936.13000000082,"y":2544239.3600000013}},{"attributes":{"ID":502132,"DIS_CODE":0,"TOWNNAME":"安平區","LI":"平通里","LIN":"7鄰","STREET":"慶平路","SECT":" ","MAREA":" ","LANE":" ","ALLEY":" ","HOUSE_NO":"５６３號五樓","E_COORD97":164936.13,"N_COORD97":2544239.3599999999,"ADDRESS":"慶平路５６３號五樓","OBJECTID":502105},"geometry":{"x":164936.13000000082,"y":2544239.3600000013}},{"attributes":{"ID":502133,"DIS_CODE":0,"TOWNNAME":"安平區","LI":"平通里","LIN":"7鄰","STREET":"慶平路","SECT":" ","MAREA":" ","LANE":" ","ALLEY":" ","HOUSE_NO":"５６３號六樓","E_COORD97":164936.13,"N_COORD97":2544239.3599999999,"ADDRESS":"慶平路５６３號六樓","OBJECTID":502106},"geometry":{"x":164936.13000000082,"y":2544239.3600000013}},{"attributes":{"ID":502134,"DIS_CODE":0,"TOWNNAME":"安平區","LI":"平通里","LIN":"7鄰","STREET":"慶平路","SECT":" ","MAREA":" ","LANE":" ","ALLEY":" ","HOUSE_NO":"５６３號四樓","E_COORD97":164936.13,"N_COORD97":2544239.3599999999,"ADDRESS":"慶平路５６３號四樓","OBJECTID":502107},"geometry":{"x":164936.13000000082,"y":2544239.3600000013}},{"attributes":{"ID":502135,"DIS_CODE":0,"TOWNNAME":"安平區","LI":"平通里","LIN":"7鄰","STREET":"慶平路","SECT":" ","MAREA":" ","LANE":" ","ALLEY":" ","HOUSE_NO":"５６５號七樓","E_COORD97":164925.78,"N_COORD97":2544240.6200000001,"ADDRESS":"慶平路５６５號七樓","OBJECTID":502108},"geometry":{"x":164925.78000000026,"y":2544240.620000001}},{"attributes":{"ID":502136,"DIS_CODE":0,"TOWNNAME":"安平區","LI":"平通里","LIN":"7鄰","STREET":"慶平路","SECT":" ","MAREA":" ","LANE":" ","ALLEY":" ","HOUSE_NO":"５６５號九樓","E_COORD97":164925.78,"N_COORD97":2544240.6200000001,"ADDRESS":"慶平路５６５號九樓","OBJECTID":502109},"geometry":{"x":164925.78000000026,"y":2544240.620000001}},{"attributes":{"ID":502137,"DIS_CODE":0,"TOWNNAME":"安平區","LI":"平通里","LIN":"7鄰","STREET":"慶平路","SECT":" ","MAREA":" ","LANE":" ","ALLEY":" ","HOUSE_NO":"５６５號八樓","E_COORD97":164925.78,"N_COORD97":2544240.6200000001,"ADDRESS":"慶平路５６５號八樓","OBJECTID":502110},"geometry":{"x":164925.78000000026,"y":2544240.620000001}},{"attributes":{"ID":502138,"DIS_CODE":0,"TOWNNAME":"安平區","LI":"平通里","LIN":"7鄰","STREET":"慶平路","SECT":" ","MAREA":" ","LANE":" ","ALLEY":" ","HOUSE_NO":"５６５號十一樓","E_COORD97":164925.78,"N_COORD97":2544240.6200000001,"ADDRESS":"慶平路５６５號十一樓","OBJECTID":502111},"geometry":{"x":164925.78000000026,"y":2544240.620000001}},{"attributes":{"ID":502139,"DIS_CODE":0,"TOWNNAME":"安平區","LI":"平通里","LIN":"7鄰","STREET":"慶平路","SECT":" ","MAREA":" ","LANE":" ","ALLEY":" ","HOUSE_NO":"５６５號十二樓","E_COORD97":164925.78,"N_COORD97":2544240.6200000001,"ADDRESS":"慶平路５６５號十二樓","OBJECTID":502112},"geometry":{"x":164925.78000000026,"y":2544240.620000001}},{"attributes":{"ID":502140,"DIS_CODE":0,"TOWNNAME":"安平區","LI":"平通里","LIN":"7鄰","STREET":"慶平路","SECT":" ","MAREA":" ","LANE":" ","ALLEY":" ","HOUSE_NO":"５６５號十三樓","E_COORD97":164925.78,"N_COORD97":2544240.6200000001,"ADDRESS":"慶平路５６５號十三樓","OBJECTID":502113},"geometry":{"x":164925.78000000026,"y":2544240.620000001}},{"attributes":{"ID":502141,"DIS_CODE":0,"TOWNNAME":"安平區","LI":"平通里","LIN":"7鄰","STREET":"慶平路","SECT":" ","MAREA":" ","LANE":" ","ALLEY":" ","HOUSE_NO":"５６５號十樓","E_COORD97":164925.78,"N_COORD97":2544240.6200000001,"ADDRESS":"慶平路５６５號十樓","OBJECTID":502114},"geometry":{"x":164925.78000000026,"y":2544240.620000001}},{"attributes":{"ID":502142,"DIS_CODE":0,"TOWNNAME":"安平區","LI":"平通里","LIN":"7鄰","STREET":"慶平路","SECT":" ","MAREA":" ","LANE":" ","ALLEY":" ","HOUSE_NO":"５６５號三樓","E_COORD97":164925.78,"N_COORD97":2544240.6200000001,"ADDRESS":"慶平路５６５號三樓","OBJECTID":502115},"geometry":{"x":164925.78000000026,"y":2544240.620000001}},{"attributes":{"ID":502143,"DIS_CODE":0,"TOWNNAME":"安平區","LI":"平通里","LIN":"7鄰","STREET":"慶平路","SECT":" ","MAREA":" ","LANE":" ","ALLEY":" ","HOUSE_NO":"５６５號五樓","E_COORD97":164925.78,"N_COORD97":2544240.6200000001,"ADDRESS":"慶平路５６５號五樓","OBJECTID":502116},"geometry":{"x":164925.78000000026,"y":2544240.620000001}},{"attributes":{"ID":502144,"DIS_CODE":0,"TOWNNAME":"安平區","LI":"平通里","LIN":"7鄰","STREET":"慶平路","SECT":" ","MAREA":" ","LANE":" ","ALLEY":" ","HOUSE_NO":"５６５號六樓","E_COORD97":164925.78,"N_COORD97":2544240.6200000001,"ADDRESS":"慶平路５６５號六樓","OBJECTID":502117},"geometry":{"x":164925.78000000026,"y":2544240.620000001}},{"attributes":{"ID":502145,"DIS_CODE":0,"TOWNNAME":"安平區","LI":"平通里","LIN":"7鄰","STREET":"慶平路","SECT":" ","MAREA":" ","LANE":" ","ALLEY":" ","HOUSE_NO":"５６５號四樓","E_COORD97":164925.78,"N_COORD97":2544240.6200000001,"ADDRESS":"慶平路５６５號四樓","OBJECTID":502118},"geometry":{"x":164925.78000000026,"y":2544240.620000001}},{"attributes":{"ID":502146,"DIS_CODE":0,"TOWNNAME":"安平區","LI":"平通里","LIN":"7鄰","STREET":"慶平路","SECT":" ","MAREA":" ","LANE":" ","ALLEY":" ","HOUSE_NO":"５６７號七樓","E_COORD97":164916.31,"N_COORD97":2544242.4300000002,"ADDRESS":"慶平路５６７號七樓","OBJECTID":502119},"geometry":{"x":164916.30999999959,"y":2544242.4300000016}},{"attributes":{"ID":502147,"DIS_CODE":0,"TOWNNAME":"安平區","LI":"平通里","LIN":"7鄰","STREET":"慶平路","SECT":" ","MAREA":" ","LANE":" ","ALLEY":" ","HOUSE_NO":"５６７號九樓","E_COORD97":164916.31,"N_COORD97":2544242.4300000002,"ADDRESS":"慶平路５６７號九樓","OBJECTID":502120},"geometry":{"x":164916.30999999959,"y":2544242.4300000016}},{"attributes":{"ID":502148,"DIS_CODE":0,"TOWNNAME":"安平區","LI":"平通里","LIN":"7鄰","STREET":"慶平路","SECT":" ","MAREA":" ","LANE":" ","ALLEY":" ","HOUSE_NO":"５６７號八樓","E_COORD97":164916.31,"N_COORD97":2544242.4300000002,"ADDRESS":"慶平路５６７號八樓","OBJECTID":502121},"geometry":{"x":164916.30999999959,"y":2544242.4300000016}},{"attributes":{"ID":502149,"DIS_CODE":0,"TOWNNAME":"安平區","LI":"平通里","LIN":"7鄰","STREET":"慶平路","SECT":" ","MAREA":" ","LANE":" ","ALLEY":" ","HOUSE_NO":"５６７號十一樓","E_COORD97":164916.31,"N_COORD97":2544242.4300000002,"ADDRESS":"慶平路５６７號十一樓","OBJECTID":502122},"geometry":{"x":164916.30999999959,"y":2544242.4300000016}},{"attributes":{"ID":502150,"DIS_CODE":0,"TOWNNAME":"安平區","LI":"平通里","LIN":"7鄰","STREET":"慶平路","SECT":" ","MAREA":" ","LANE":" ","ALLEY":" ","HOUSE_NO":"５６７號十二樓","E_COORD97":164916.31,"N_COORD97":2544242.4300000002,"ADDRESS":"慶平路５６７號十二樓","OBJECTID":502123},"geometry":{"x":164916.30999999959,"y":2544242.4300000016}},{"attributes":{"ID":502151,"DIS_CODE":0,"TOWNNAME":"安平區","LI":"平通里","LIN":"7鄰","STREET":"慶平路","SECT":" ","MAREA":" ","LANE":" ","ALLEY":" ","HOUSE_NO":"５６７號十三樓","E_COORD97":164916.31,"N_COORD97":2544242.4300000002,"ADDRESS":"慶平路５６７號十三樓","OBJECTID":502124},"geometry":{"x":164916.30999999959,"y":2544242.4300000016}},{"attributes":{"ID":502152,"DIS_CODE":0,"TOWNNAME":"安平區","LI":"平通里","LIN":"7鄰","STREET":"慶平路","SECT":" ","MAREA":" ","LANE":" ","ALLEY":" ","HOUSE_NO":"５６７號十樓","E_COORD97":164916.31,"N_COORD97":2544242.4300000002,"ADDRESS":"慶平路５６７號十樓","OBJECTID":502125},"geometry":{"x":164916.30999999959,"y":2544242.4300000016}},{"attributes":{"ID":502153,"DIS_CODE":0,"TOWNNAME":"安平區","LI":"平通里","LIN":"7鄰","STREET":"慶平路","SECT":" ","MAREA":" ","LANE":" ","ALLEY":" ","HOUSE_NO":"５６７號三樓","E_COORD97":164916.31,"N_COORD97":2544242.4300000002,"ADDRESS":"慶平路５６７號三樓","OBJECTID":502126},"geometry":{"x":164916.30999999959,"y":2544242.4300000016}},{"attributes":{"ID":502154,"DIS_CODE":0,"TOWNNAME":"安平區","LI":"平通里","LIN":"7鄰","STREET":"慶平路","SECT":" ","MAREA":" ","LANE":" ","ALLEY":" ","HOUSE_NO":"５６７號五樓","E_COORD97":164916.31,"N_COORD97":2544242.4300000002,"ADDRESS":"慶平路５６７號五樓","OBJECTID":502127},"geometry":{"x":164916.30999999959,"y":2544242.4300000016}},{"attributes":{"ID":502155,"DIS_CODE":0,"TOWNNAME":"安平區","LI":"平通里","LIN":"7鄰","STREET":"慶平路","SECT":" ","MAREA":" ","LANE":" ","ALLEY":" ","HOUSE_NO":"５６７號六樓","E_COORD97":164916.31,"N_COORD97":2544242.4300000002,"ADDRESS":"慶平路５６７號六樓","OBJECTID":502128},"geometry":{"x":164916.30999999959,"y":2544242.4300000016}},{"attributes":{"ID":502156,"DIS_CODE":0,"TOWNNAME":"安平區","LI":"平通里","LIN":"7鄰","STREET":"慶平路","SECT":" ","MAREA":" ","LANE":" ","ALLEY":" ","HOUSE_NO":"５６７號四樓","E_COORD97":164916.31,"N_COORD97":2544242.4300000002,"ADDRESS":"慶平路５６７號四樓","OBJECTID":502129},"geometry":{"x":164916.30999999959,"y":2544242.4300000016}},{"attributes":{"ID":502157,"DIS_CODE":0,"TOWNNAME":"安平區","LI":"平通里","LIN":"7鄰","STREET":"慶平路","SECT":" ","MAREA":" ","LANE":" ","ALLEY":" ","HOUSE_NO":"５６９號七樓","E_COORD97":164907.32999999999,"N_COORD97":2544244.3799999999,"ADDRESS":"慶平路５６９號七樓","OBJECTID":502130},"geometry":{"x":164907.33000000194,"y":2544244.3800000027}},{"attributes":{"ID":502158,"DIS_CODE":0,"TOWNNAME":"安平區","LI":"平通里","LIN":"7鄰","STREET":"慶平路","SECT":" ","MAREA":" ","LANE":" ","ALLEY":" ","HOUSE_NO":"５６９號九樓","E_COORD97":164907.32999999999,"N_COORD97":2544244.3799999999,"ADDRESS":"慶平路５６９號九樓","OBJECTID":502131},"geometry":{"x":164907.33000000194,"y":2544244.3800000027}},{"attributes":{"ID":502159,"DIS_CODE":0,"TOWNNAME":"安平區","LI":"平通里","LIN":"7鄰","STREET":"慶平路","SECT":" ","MAREA":" ","LANE":" ","ALLEY":" ","HOUSE_NO":"５６９號八樓","E_COORD97":164907.32999999999,"N_COORD97":2544244.3799999999,"ADDRESS":"慶平路５６９號八樓","OBJECTID":502132},"geometry":{"x":164907.33000000194,"y":2544244.3800000027}},{"attributes":{"ID":502160,"DIS_CODE":0,"TOWNNAME":"安平區","LI":"平通里","LIN":"7鄰","STREET":"慶平路","SECT":" ","MAREA":" ","LANE":" ","ALLEY":" ","HOUSE_NO":"５６９號十一樓","E_COORD97":164907.32999999999,"N_COORD97":2544244.3799999999,"ADDRESS":"慶平路５６９號十一樓","OBJECTID":502133},"geometry":{"x":164907.33000000194,"y":2544244.3800000027}},{"attributes":{"ID":502161,"DIS_CODE":0,"TOWNNAME":"安平區","LI":"平通里","LIN":"7鄰","STREET":"慶平路","SECT":" ","MAREA":" ","LANE":" ","ALLEY":" ","HOUSE_NO":"５６９號十二樓","E_COORD97":164907.32999999999,"N_COORD97":2544244.3799999999,"ADDRESS":"慶平路５６９號十二樓","OBJECTID":502134},"geometry":{"x":164907.33000000194,"y":2544244.3800000027}},{"attributes":{"ID":502162,"DIS_CODE":0,"TOWNNAME":"安平區","LI":"平通里","LIN":"7鄰","STREET":"慶平路","SECT":" ","MAREA":" ","LANE":" ","ALLEY":" ","HOUSE_NO":"５６９號十樓","E_COORD97":164907.32999999999,"N_COORD97":2544244.3799999999,"ADDRESS":"慶平路５６９號十樓","OBJECTID":502135},"geometry":{"x":164907.33000000194,"y":2544244.3800000027}},{"attributes":{"ID":502163,"DIS_CODE":0,"TOWNNAME":"安平區","LI":"平通里","LIN":"7鄰","STREET":"慶平路","SECT":" ","MAREA":" ","LANE":" ","ALLEY":" ","HOUSE_NO":"５６９號三樓","E_COORD97":164907.32999999999,"N_COORD97":2544244.3799999999,"ADDRESS":"慶平路５６９號三樓","OBJECTID":502136},"geometry":{"x":164907.33000000194,"y":2544244.3800000027}},{"attributes":{"ID":502164,"DIS_CODE":0,"TOWNNAME":"安平區","LI":"平通里","LIN":"7鄰","STREET":"慶平路","SECT":" ","MAREA":" ","LANE":" ","ALLEY":" ","HOUSE_NO":"５６９號五樓","E_COORD97":164907.32999999999,"N_COORD97":2544244.3799999999,"ADDRESS":"慶平路５６９號五樓","OBJECTID":502137},"geometry":{"x":164907.33000000194,"y":2544244.3800000027}},{"attributes":{"ID":502165,"DIS_CODE":0,"TOWNNAME":"安平區","LI":"平通里","LIN":"7鄰","STREET":"慶平路","SECT":" ","MAREA":" ","LANE":" ","ALLEY":" ","HOUSE_NO":"５６９號六樓","E_COORD97":164907.32999999999,"N_COORD97":2544244.3799999999,"ADDRESS":"慶平路５６９號六樓","OBJECTID":502138},"geometry":{"x":164907.33000000194,"y":2544244.3800000027}},{"attributes":{"ID":502166,"DIS_CODE":0,"TOWNNAME":"安平區","LI":"平通里","LIN":"7鄰","STREET":"慶平路","SECT":" ","MAREA":" ","LANE":" ","ALLEY":" ","HOUSE_NO":"５６９號四樓","E_COORD97":164907.32999999999,"N_COORD97":2544244.3799999999,"ADDRESS":"慶平路５６９號四樓","OBJECTID":502139},"geometry":{"x":164907.33000000194,"y":2544244.3800000027}},{"attributes":{"ID":502167,"DIS_CODE":0,"TOWNNAME":"安平區","LI":"平通里","LIN":"7鄰","STREET":"慶平路","SECT":" ","MAREA":" ","LANE":" ","ALLEY":" ","HOUSE_NO":"５７１號七樓","E_COORD97":164895.81,"N_COORD97":2544246.7599999998,"ADDRESS":"慶平路５７１號七樓","OBJECTID":502140},"geometry":{"x":164895.81000000052,"y":2544246.7600000016}},{"attributes":{"ID":502168,"DIS_CODE":0,"TOWNNAME":"安平區","LI":"平通里","LIN":"7鄰","STREET":"慶平路","SECT":" ","MAREA":" ","LANE":" ","ALLEY":" ","HOUSE_NO":"５７１號九樓","E_COORD97":164895.81,"N_COORD97":2544246.7599999998,"ADDRESS":"慶平路５７１號九樓","OBJECTID":502141},"geometry":{"x":164895.81000000052,"y":2544246.7600000016}},{"attributes":{"ID":502169,"DIS_CODE":0,"TOWNNAME":"安平區","LI":"平通里","LIN":"7鄰","STREET":"慶平路","SECT":" ","MAREA":" ","LANE":" ","ALLEY":" ","HOUSE_NO":"５７１號八樓","E_COORD97":164895.81,"N_COORD97":2544246.7599999998,"ADDRESS":"慶平路５７１號八樓","OBJECTID":502142},"geometry":{"x":164895.81000000052,"y":2544246.7600000016}},{"attributes":{"ID":502170,"DIS_CODE":0,"TOWNNAME":"安平區","LI":"平通里","LIN":"7鄰","STREET":"慶平路","SECT":" ","MAREA":" ","LANE":" ","ALLEY":" ","HOUSE_NO":"５７１號十一樓","E_COORD97":164895.81,"N_COORD97":2544246.7599999998,"ADDRESS":"慶平路５７１號十一樓","OBJECTID":502143},"geometry":{"x":164895.81000000052,"y":2544246.7600000016}},{"attributes":{"ID":502171,"DIS_CODE":0,"TOWNNAME":"安平區","LI":"平通里","LIN":"7鄰","STREET":"慶平路","SECT":" ","MAREA":" ","LANE":" ","ALLEY":" ","HOUSE_NO":"５７１號十二樓","E_COORD97":164895.81,"N_COORD97":2544246.7599999998,"ADDRESS":"慶平路５７１號十二樓","OBJECTID":502144},"geometry":{"x":164895.81000000052,"y":2544246.7600000016}},{"attributes":{"ID":502172,"DIS_CODE":0,"TOWNNAME":"安平區","LI":"平通里","LIN":"7鄰","STREET":"慶平路","SECT":" ","MAREA":" ","LANE":" ","ALLEY":" ","HOUSE_NO":"５７１號十三樓","E_COORD97":164895.81,"N_COORD97":2544246.7599999998,"ADDRESS":"慶平路５７１號十三樓","OBJECTID":502145},"geometry":{"x":164895.81000000052,"y":2544246.7600000016}},{"attributes":{"ID":502173,"DIS_CODE":0,"TOWNNAME":"白河區","LI":"永安里","LIN":"7鄰","STREET":"中正路","SECT":" ","MAREA":" ","LANE":" ","ALLEY":" ","HOUSE_NO":"１７１號","E_COORD97":189750.73999999999,"N_COORD97":2583074.5499999998,"ADDRESS":"中正路１７１號","OBJECTID":502146},"geometry":{"x":189750.74000000022,"y":2583074.5500000007}},{"attributes":{"ID":502174,"DIS_CODE":0,"TOWNNAME":"安平區","LI":"平通里","LIN":"7鄰","STREET":"慶平路","SECT":" ","MAREA":" ","LANE":" ","ALLEY":" ","HOUSE_NO":"５７１號十六樓","E_COORD97":164895.81,"N_COORD97":2544246.7599999998,"ADDRESS":"慶平路５７１號十六樓","OBJECTID":502147},"geometry":{"x":164895.81000000052,"y":2544246.7600000016}},{"attributes":{"ID":502175,"DIS_CODE":0,"TOWNNAME":"安平區","LI":"平通里","LIN":"7鄰","STREET":"慶平路","SECT":" ","MAREA":" ","LANE":" ","ALLEY":" ","HOUSE_NO":"５７１號十四樓","E_COORD97":164895.81,"N_COORD97":2544246.7599999998,"ADDRESS":"慶平路５７１號十四樓","OBJECTID":502148},"geometry":{"x":164895.81000000052,"y":2544246.7600000016}},{"attributes":{"ID":502176,"DIS_CODE":0,"TOWNNAME":"安平區","LI":"平通里","LIN":"7鄰","STREET":"慶平路","SECT":" ","MAREA":" ","LANE":" ","ALLEY":" ","HOUSE_NO":"５７１號十樓","E_COORD97":164895.81,"N_COORD97":2544246.7599999998,"ADDRESS":"慶平路５７１號十樓","OBJECTID":502149},"geometry":{"x":164895.81000000052,"y":2544246.7600000016}},{"attributes":{"ID":502177,"DIS_CODE":0,"TOWNNAME":"安平區","LI":"平通里","LIN":"7鄰","STREET":"慶平路","SECT":" ","MAREA":" ","LANE":" ","ALLEY":" ","HOUSE_NO":"５７１號三樓","E_COORD97":164895.81,"N_COORD97":2544246.7599999998,"ADDRESS":"慶平路５７１號三樓","OBJECTID":502150},"geometry":{"x":164895.81000000052,"y":2544246.7600000016}},{"attributes":{"ID":502178,"DIS_CODE":0,"TOWNNAME":"安平區","LI":"平通里","LIN":"7鄰","STREET":"慶平路","SECT":" ","MAREA":" ","LANE":" ","ALLEY":" ","HOUSE_NO":"５７１號五樓","E_COORD97":164895.81,"N_COORD97":2544246.7599999998,"ADDRESS":"慶平路５７１號五樓","OBJECTID":502151},"geometry":{"x":164895.81000000052,"y":2544246.7600000016}},{"attributes":{"ID":502179,"DIS_CODE":0,"TOWNNAME":"安平區","LI":"平通里","LIN":"7鄰","STREET":"慶平路","SECT":" ","MAREA":" ","LANE":" ","ALLEY":" ","HOUSE_NO":"５７３號十九樓","E_COORD97":164884.76000000001,"N_COORD97":2544248.8999999999,"ADDRESS":"慶平路５７３號十九樓","OBJECTID":502152},"geometry":{"x":164884.75999999978,"y":2544248.8999999985}},{"attributes":{"ID":502180,"DIS_CODE":0,"TOWNNAME":"安平區","LI":"平通里","LIN":"7鄰","STREET":"慶平路","SECT":" ","MAREA":" ","LANE":" ","ALLEY":" ","HOUSE_NO":"５７３號十二樓","E_COORD97":164884.76000000001,"N_COORD97":2544248.8999999999,"ADDRESS":"慶平路５７３號十二樓","OBJECTID":502153},"geometry":{"x":164884.75999999978,"y":2544248.8999999985}},{"attributes":{"ID":502181,"DIS_CODE":0,"TOWNNAME":"安平區","LI":"平通里","LIN":"7鄰","STREET":"慶平路","SECT":" ","MAREA":" ","LANE":" ","ALLEY":" ","HOUSE_NO":"５７３號十八樓","E_COORD97":164884.76000000001,"N_COORD97":2544248.8999999999,"ADDRESS":"慶平路５７３號十八樓","OBJECTID":502154},"geometry":{"x":164884.75999999978,"y":2544248.8999999985}},{"attributes":{"ID":502182,"DIS_CODE":0,"TOWNNAME":"安平區","LI":"平通里","LIN":"7鄰","STREET":"慶平路","SECT":" ","MAREA":" ","LANE":" ","ALLEY":" ","HOUSE_NO":"５７３號十三樓","E_COORD97":164884.76000000001,"N_COORD97":2544248.8999999999,"ADDRESS":"慶平路５７３號十三樓","OBJECTID":502155},"geometry":{"x":164884.75999999978,"y":2544248.8999999985}},{"attributes":{"ID":502183,"DIS_CODE":0,"TOWNNAME":"安平區","LI":"平通里","LIN":"7鄰","STREET":"慶平路","SECT":" ","MAREA":" ","LANE":" ","ALLEY":" ","HOUSE_NO":"５７３號十五樓","E_COORD97":164884.76000000001,"N_COORD97":2544248.8999999999,"ADDRESS":"慶平路５７３號十五樓","OBJECTID":502156},"geometry":{"x":164884.75999999978,"y":2544248.8999999985}},{"attributes":{"ID":502184,"DIS_CODE":0,"TOWNNAME":"安平區","LI":"平通里","LIN":"7鄰","STREET":"慶平路","SECT":" ","MAREA":" ","LANE":" ","ALLEY":" ","HOUSE_NO":"５７３號十六樓","E_COORD97":164884.76000000001,"N_COORD97":2544248.8999999999,"ADDRESS":"慶平路５７３號十六樓","OBJECTID":502157},"geometry":{"x":164884.75999999978,"y":2544248.8999999985}},{"attributes":{"ID":502185,"DIS_CODE":0,"TOWNNAME":"安平區","LI":"平通里","LIN":"7鄰","STREET":"慶平路","SECT":" ","MAREA":" ","LANE":" ","ALLEY":" ","HOUSE_NO":"５７３號十四樓","E_COORD97":164884.76000000001,"N_COORD97":2544248.8999999999,"ADDRESS":"慶平路５７３號十四樓","OBJECTID":502158},"geometry":{"x":164884.75999999978,"y":2544248.8999999985}},{"attributes":{"ID":502186,"DIS_CODE":0,"TOWNNAME":"安平區","LI":"平通里","LIN":"7鄰","STREET":"慶平路","SECT":" ","MAREA":" ","LANE":" ","ALLEY":" ","HOUSE_NO":"５７３號十樓","E_COORD97":164884.76000000001,"N_COORD97":2544248.8999999999,"ADDRESS":"慶平路５７３號十樓","OBJECTID":502159},"geometry":{"x":164884.75999999978,"y":2544248.8999999985}},{"attributes":{"ID":502187,"DIS_CODE":0,"TOWNNAME":"安平區","LI":"平通里","LIN":"7鄰","STREET":"慶平路","SECT":" ","MAREA":" ","LANE":" ","ALLEY":" ","HOUSE_NO":"５７３號三樓","E_COORD97":164884.76000000001,"N_COORD97":2544248.8999999999,"ADDRESS":"慶平路５７３號三樓","OBJECTID":502160},"geometry":{"x":164884.75999999978,"y":2544248.8999999985}},{"attributes":{"ID":502188,"DIS_CODE":0,"TOWNNAME":"安平區","LI":"平通里","LIN":"7鄰","STREET":"慶平路","SECT":" ","MAREA":" ","LANE":" ","ALLEY":" ","HOUSE_NO":"５７３號五樓","E_COORD97":164884.76000000001,"N_COORD97":2544248.8999999999,"ADDRESS":"慶平路５７３號五樓","OBJECTID":502161},"geometry":{"x":164884.75999999978,"y":2544248.8999999985}},{"attributes":{"ID":502189,"DIS_CODE":0,"TOWNNAME":"安平區","LI":"平通里","LIN":"7鄰","STREET":"慶平路","SECT":" ","MAREA":" ","LANE":" ","ALLEY":" ","HOUSE_NO":"５７３號六樓","E_COORD97":164884.76000000001,"N_COORD97":2544248.8999999999,"ADDRESS":"慶平路５７３號六樓","OBJECTID":502162},"geometry":{"x":164884.75999999978,"y":2544248.8999999985}},{"attributes":{"ID":502190,"DIS_CODE":0,"TOWNNAME":"安平區","LI":"平通里","LIN":"7鄰","STREET":"慶平路","SECT":" ","MAREA":" ","LANE":" ","ALLEY":" ","HOUSE_NO":"５７３號四樓","E_COORD97":164884.76000000001,"N_COORD97":2544248.8999999999,"ADDRESS":"慶平路５７３號四樓","OBJECTID":502163},"geometry":{"x":164884.75999999978,"y":2544248.8999999985}},{"attributes":{"ID":502191,"DIS_CODE":0,"TOWNNAME":"安平區","LI":"怡平里","LIN":"7鄰","STREET":"慶平路","SECT":" ","MAREA":" ","LANE":" ","ALLEY":" ","HOUSE_NO":"２００號四樓之１","E_COORD97":165800.79999999999,"N_COORD97":2544196.79,"ADDRESS":"慶平路２００號四樓之１","OBJECTID":502164},"geometry":{"x":165800.80000000075,"y":2544196.7899999991}},{"attributes":{"ID":502192,"DIS_CODE":0,"TOWNNAME":"安平區","LI":"怡平里","LIN":"7鄰","STREET":"慶平路","SECT":" ","MAREA":" ","LANE":" ","ALLEY":" ","HOUSE_NO":"２００號四樓之６","E_COORD97":165800.79999999999,"N_COORD97":2544196.79,"ADDRESS":"慶平路２００號四樓之６","OBJECTID":502165},"geometry":{"x":165800.80000000075,"y":2544196.7899999991}},{"attributes":{"ID":502193,"DIS_CODE":0,"TOWNNAME":"安平區","LI":"怡平里","LIN":"7鄰","STREET":"慶平路","SECT":" ","MAREA":" ","LANE":" ","ALLEY":" ","HOUSE_NO":"２００號四樓之８","E_COORD97":165800.79999999999,"N_COORD97":2544196.79,"ADDRESS":"慶平路２００號四樓之８","OBJECTID":502166},"geometry":{"x":165800.80000000075,"y":2544196.7899999991}},{"attributes":{"ID":502194,"DIS_CODE":0,"TOWNNAME":"安平區","LI":"怡平里","LIN":"7鄰","STREET":"慶平路","SECT":" ","MAREA":" ","LANE":" ","ALLEY":" ","HOUSE_NO":"２００號四樓之１０","E_COORD97":165800.79999999999,"N_COORD97":2544196.79,"ADDRESS":"慶平路２００號四樓之１０","OBJECTID":502167},"geometry":{"x":165800.80000000075,"y":2544196.7899999991}},{"attributes":{"ID":502195,"DIS_CODE":0,"TOWNNAME":"安平區","LI":"怡平里","LIN":"7鄰","STREET":"慶平路","SECT":" ","MAREA":" ","LANE":" ","ALLEY":" ","HOUSE_NO":"２００號四樓之１２","E_COORD97":165800.79999999999,"N_COORD97":2544196.79,"ADDRESS":"慶平路２００號四樓之１２","OBJECTID":502168},"geometry":{"x":165800.80000000075,"y":2544196.7899999991}},{"attributes":{"ID":502196,"DIS_CODE":0,"TOWNNAME":"安平區","LI":"怡平里","LIN":"7鄰","STREET":"慶平路","SECT":" ","MAREA":" ","LANE":" ","ALLEY":" ","HOUSE_NO":"２００號四樓之１４","E_COORD97":165800.79999999999,"N_COORD97":2544196.79,"ADDRESS":"慶平路２００號四樓之１４","OBJECTID":502169},"geometry":{"x":165800.80000000075,"y":2544196.7899999991}},{"attributes":{"ID":502197,"DIS_CODE":0,"TOWNNAME":"安平區","LI":"怡平里","LIN":"7鄰","STREET":"慶平路","SECT":" ","MAREA":" ","LANE":" ","ALLEY":" ","HOUSE_NO":"２００號四樓之１８","E_COORD97":165800.79999999999,"N_COORD97":2544196.79,"ADDRESS":"慶平路２００號四樓之１８","OBJECTID":502170},"geometry":{"x":165800.80000000075,"y":2544196.7899999991}},{"attributes":{"ID":502198,"DIS_CODE":0,"TOWNNAME":"善化區","LI":"小新里","LIN":"7鄰","STREET":"成功路","SECT":" ","MAREA":" ","LANE":" ","ALLEY":" ","HOUSE_NO":"１５１號","E_COORD97":179769.63,"N_COORD97":2558648.5600000001,"ADDRESS":"成功路１５１號","OBJECTID":502171},"geometry":{"x":179769.62999999989,"y":2558648.5600000024}},{"attributes":{"ID":502199,"DIS_CODE":0,"TOWNNAME":"安平區","LI":"華平里","LIN":"7鄰","STREET":"華平路","SECT":" ","MAREA":" ","LANE":" ","ALLEY":" ","HOUSE_NO":"５４９號三樓","E_COORD97":165468.32000000001,"N_COORD97":2543930.3599999999,"ADDRESS":"華平路５４９號三樓","OBJECTID":502172},"geometry":{"x":165468.3200000003,"y":2543930.3600000013}},{"attributes":{"ID":502200,"DIS_CODE":0,"TOWNNAME":"安平區","LI":"華平里","LIN":"7鄰","STREET":"華平路","SECT":" ","MAREA":" ","LANE":" ","ALLEY":" ","HOUSE_NO":"５４９號四樓","E_COORD97":165468.32000000001,"N_COORD97":2543930.3599999999,"ADDRESS":"華平路５４９號四樓","OBJECTID":502173},"geometry":{"x":165468.3200000003,"y":2543930.3600000013}},{"attributes":{"ID":502201,"DIS_CODE":0,"TOWNNAME":"安平區","LI":"怡平里","LIN":"7鄰","STREET":"慶平路","SECT":" ","MAREA":" ","LANE":" ","ALLEY":" ","HOUSE_NO":"２００號十三樓之３","E_COORD97":165800.79999999999,"N_COORD97":2544196.79,"ADDRESS":"慶平路２００號十三樓之３","OBJECTID":502174},"geometry":{"x":165800.80000000075,"y":2544196.7899999991}},{"attributes":{"ID":502202,"DIS_CODE":0,"TOWNNAME":"安平區","LI":"怡平里","LIN":"7鄰","STREET":"慶平路","SECT":" ","MAREA":" ","LANE":" ","ALLEY":" ","HOUSE_NO":"２００號七樓之１７","E_COORD97":165800.79999999999,"N_COORD97":2544196.79,"ADDRESS":"慶平路２００號七樓之１７","OBJECTID":502175},"geometry":{"x":165800.80000000075,"y":2544196.7899999991}},{"attributes":{"ID":502203,"DIS_CODE":0,"TOWNNAME":"安平區","LI":"怡平里","LIN":"7鄰","STREET":"慶平路","SECT":" ","MAREA":" ","LANE":" ","ALLEY":" ","HOUSE_NO":"２００號四樓之７","E_COORD97":165800.79999999999,"N_COORD97":2544196.79,"ADDRESS":"慶平路２００號四樓之７","OBJECTID":502176},"geometry":{"x":165800.80000000075,"y":2544196.7899999991}},{"attributes":{"ID":502204,"DIS_CODE":0,"TOWNNAME":"歸仁區","LI":"許厝里","LIN":"7鄰","STREET":"中山路","SECT":"一段","MAREA":" ","LANE":" ","ALLEY":" ","HOUSE_NO":"４１１號四樓","E_COORD97":178220.01000000001,"N_COORD97":2540685.25,"ADDRESS":"中山路一段４１１號四樓","OBJECTID":502177},"geometry":{"x":178220.01000000071,"y":2540685.25}},{"attributes":{"ID":502205,"DIS_CODE":0,"TOWNNAME":"歸仁區","LI":"許厝里","LIN":"7鄰","STREET":"中山路","SECT":"一段","MAREA":" ","LANE":" ","ALLEY":" ","HOUSE_NO":"４１１號五樓","E_COORD97":178220.01000000001,"N_COORD97":2540685.25,"ADDRESS":"中山路一段４１１號五樓","OBJECTID":502178},"geometry":{"x":178220.01000000071,"y":2540685.25}},{"attributes":{"ID":502206,"DIS_CODE":0,"TOWNNAME":"新化區","LI":"北勢里","LIN":"7鄰","STREET":"金華街","SECT":"一段","MAREA":" ","LANE":" ","ALLEY":" ","HOUSE_NO":"２號二樓之２","E_COORD97":177906.34,"N_COORD97":2550965.2999999998,"ADDRESS":"金華街一段２號二樓之２","OBJECTID":502179},"geometry":{"x":177906.34000000078,"y":2550965.3000000007}},{"attributes":{"ID":502207,"DIS_CODE":0,"TOWNNAME":"新化區","LI":"北勢里","LIN":"7鄰","STREET":"中正路","SECT":" ","MAREA":" ","LANE":" ","ALLEY":" ","HOUSE_NO":"１２１１號八樓之８","E_COORD97":177942.10000000001,"N_COORD97":2551050.2999999998,"ADDRESS":"中正路１２１１號八樓之８","OBJECTID":502180},"geometry":{"x":177942.09999999963,"y":2551050.3000000007}},{"attributes":{"ID":502208,"DIS_CODE":0,"TOWNNAME":"新化區","LI":"北勢里","LIN":"7鄰","STREET":"中正路","SECT":" ","MAREA":" ","LANE":" ","ALLEY":" ","HOUSE_NO":"１２１１號五樓之９","E_COORD97":177942.03,"N_COORD97":2551050.2999999998,"ADDRESS":"中正路１２１１號五樓之９","OBJECTID":502181},"geometry":{"x":177942.03000000212,"y":2551050.3000000007}},{"attributes":{"ID":502209,"DIS_CODE":0,"TOWNNAME":"新化區","LI":"北勢里","LIN":"7鄰","STREET":"中正路","SECT":" ","MAREA":" ","LANE":" ","ALLEY":" ","HOUSE_NO":"１２１１號六樓之８","E_COORD97":177942.10000000001,"N_COORD97":2551050.2999999998,"ADDRESS":"中正路１２１１號六樓之８","OBJECTID":502182},"geometry":{"x":177942.09999999963,"y":2551050.3000000007}},{"attributes":{"ID":502210,"DIS_CODE":0,"TOWNNAME":"新化區","LI":"北勢里","LIN":"7鄰","STREET":"金華街","SECT":"一段","MAREA":" ","LANE":" ","ALLEY":" ","HOUSE_NO":"２號六樓之３","E_COORD97":177906.29999999999,"N_COORD97":2550965.2999999998,"ADDRESS":"金華街一段２號六樓之３","OBJECTID":502183},"geometry":{"x":177906.30000000075,"y":2550965.3000000007}},{"attributes":{"ID":502211,"DIS_CODE":0,"TOWNNAME":"新化區","LI":"北勢里","LIN":"7鄰","STREET":"中正路","SECT":" ","MAREA":" ","LANE":" ","ALLEY":" ","HOUSE_NO":"１２１１號八樓之２１","E_COORD97":177943.20000000001,"N_COORD97":2551050.2999999998,"ADDRESS":"中正路１２１１號八樓之２１","OBJECTID":502184},"geometry":{"x":177943.20000000112,"y":2551050.3000000007}},{"attributes":{"ID":502212,"DIS_CODE":0,"TOWNNAME":"新化區","LI":"北勢里","LIN":"7鄰","STREET":"中正路","SECT":" ","MAREA":" ","LANE":" ","ALLEY":" ","HOUSE_NO":"１２１１號八樓之１７","E_COORD97":177943.28,"N_COORD97":2551050.2999999998,"ADDRESS":"中正路１２１１號八樓之１７","OBJECTID":502185},"geometry":{"x":177943.28000000026,"y":2551050.3000000007}},{"attributes":{"ID":502213,"DIS_CODE":0,"TOWNNAME":"新化區","LI":"北勢里","LIN":"7鄰","STREET":"金華街","SECT":"一段","MAREA":" ","LANE":" ","ALLEY":" ","HOUSE_NO":"２號五樓之１","E_COORD97":177906.20000000001,"N_COORD97":2550965.2999999998,"ADDRESS":"金華街一段２號五樓之１","OBJECTID":502186},"geometry":{"x":177906.20000000019,"y":2550965.3000000007}},{"attributes":{"ID":502214,"DIS_CODE":0,"TOWNNAME":"新化區","LI":"北勢里","LIN":"7鄰","STREET":"中正路","SECT":" ","MAREA":" ","LANE":" ","ALLEY":" ","HOUSE_NO":"１２１１號六樓之２６","E_COORD97":177943.29999999999,"N_COORD97":2551050.2999999998,"ADDRESS":"中正路１２１１號六樓之２６","OBJECTID":502187},"geometry":{"x":177943.30000000075,"y":2551050.3000000007}},{"attributes":{"ID":502215,"DIS_CODE":0,"TOWNNAME":"新化區","LI":"北勢里","LIN":"7鄰","STREET":"中正路","SECT":" ","MAREA":" ","LANE":" ","ALLEY":" ","HOUSE_NO":"１２１１號八樓之１０","E_COORD97":177943.25,"N_COORD97":2551050.2999999998,"ADDRESS":"中正路１２１１號八樓之１０","OBJECTID":502188},"geometry":{"x":177943.25,"y":2551050.3000000007}},{"attributes":{"ID":502216,"DIS_CODE":0,"TOWNNAME":"新化區","LI":"北勢里","LIN":"7鄰","STREET":"中正路","SECT":" ","MAREA":" ","LANE":" ","ALLEY":" ","HOUSE_NO":"１２１１號八樓之２７","E_COORD97":177943.28,"N_COORD97":2551050.2999999998,"ADDRESS":"中正路１２１１號八樓之２７","OBJECTID":502189},"geometry":{"x":177943.28000000026,"y":2551050.3000000007}},{"attributes":{"ID":502217,"DIS_CODE":0,"TOWNNAME":"新化區","LI":"北勢里","LIN":"7鄰","STREET":"金華街","SECT":"一段","MAREA":" ","LANE":" ","ALLEY":" ","HOUSE_NO":"１０號六樓之３","E_COORD97":177907.54999999999,"N_COORD97":2550965.2999999998,"ADDRESS":"金華街一段１０號六樓之３","OBJECTID":502190},"geometry":{"x":177907.55000000168,"y":2550965.3000000007}},{"attributes":{"ID":502218,"DIS_CODE":0,"TOWNNAME":"新化區","LI":"北勢里","LIN":"7鄰","STREET":"金華街","SECT":"一段","MAREA":" ","LANE":" ","ALLEY":" ","HOUSE_NO":"１８號三樓之１","E_COORD97":177907.45000000001,"N_COORD97":2550965.2999999998,"ADDRESS":"金華街一段１８號三樓之１","OBJECTID":502191},"geometry":{"x":177907.45000000112,"y":2550965.3000000007}},{"attributes":{"ID":502219,"DIS_CODE":0,"TOWNNAME":"新化區","LI":"北勢里","LIN":"7鄰","STREET":"金華街","SECT":"一段","MAREA":" ","LANE":" ","ALLEY":" ","HOUSE_NO":"２４號三樓之１","E_COORD97":177907.45000000001,"N_COORD97":2550965.2999999998,"ADDRESS":"金華街一段２４號三樓之１","OBJECTID":502192},"geometry":{"x":177907.45000000112,"y":2550965.3000000007}},{"attributes":{"ID":502220,"DIS_CODE":0,"TOWNNAME":"新化區","LI":"北勢里","LIN":"7鄰","STREET":"金華街","SECT":"一段","MAREA":" ","LANE":" ","ALLEY":" ","HOUSE_NO":"１８號六樓之１","E_COORD97":177907.45000000001,"N_COORD97":2550965.2999999998,"ADDRESS":"金華街一段１８號六樓之１","OBJECTID":502193},"geometry":{"x":177907.45000000112,"y":2550965.3000000007}},{"attributes":{"ID":502221,"DIS_CODE":0,"TOWNNAME":"新化區","LI":"北勢里","LIN":"7鄰","STREET":"中正路","SECT":" ","MAREA":" ","LANE":" ","ALLEY":" ","HOUSE_NO":"１２１１號九樓之５","E_COORD97":177942.10000000001,"N_COORD97":2551050.2999999998,"ADDRESS":"中正路１２１１號九樓之５","OBJECTID":502194},"geometry":{"x":177942.09999999963,"y":2551050.3000000007}},{"attributes":{"ID":502222,"DIS_CODE":0,"TOWNNAME":"新化區","LI":"北勢里","LIN":"7鄰","STREET":"中正路","SECT":" ","MAREA":" ","LANE":" ","ALLEY":" ","HOUSE_NO":"１２１１號八樓之５","E_COORD97":177942.10000000001,"N_COORD97":2551050.2999999998,"ADDRESS":"中正路１２１１號八樓之５","OBJECTID":502195},"geometry":{"x":177942.09999999963,"y":2551050.3000000007}},{"attributes":{"ID":502223,"DIS_CODE":0,"TOWNNAME":"新化區","LI":"北勢里","LIN":"7鄰","STREET":"中正路","SECT":" ","MAREA":" ","LANE":" ","ALLEY":" ","HOUSE_NO":"１２１１號六樓之２５","E_COORD97":177943.35000000001,"N_COORD97":2551050.2999999998,"ADDRESS":"中正路１２１１號六樓之２５","OBJECTID":502196},"geometry":{"x":177943.35000000056,"y":2551050.3000000007}},{"attributes":{"ID":502224,"DIS_CODE":0,"TOWNNAME":"新化區","LI":"北勢里","LIN":"7鄰","STREET":"金華街","SECT":"一段","MAREA":" ","LANE":" ","ALLEY":" ","HOUSE_NO":"２４號七樓之１","E_COORD97":177907.45000000001,"N_COORD97":2550965.2999999998,"ADDRESS":"金華街一段２４號七樓之１","OBJECTID":502197},"geometry":{"x":177907.45000000112,"y":2550965.3000000007}},{"attributes":{"ID":502225,"DIS_CODE":0,"TOWNNAME":"新化區","LI":"北勢里","LIN":"7鄰","STREET":"中正路","SECT":" ","MAREA":" ","LANE":" ","ALLEY":" ","HOUSE_NO":"１２１１號九樓之２２","E_COORD97":177943.32999999999,"N_COORD97":2551050.2999999998,"ADDRESS":"中正路１２１１號九樓之２２","OBJECTID":502198},"geometry":{"x":177943.33000000194,"y":2551050.3000000007}},{"attributes":{"ID":502226,"DIS_CODE":0,"TOWNNAME":"新化區","LI":"北勢里","LIN":"7鄰","STREET":"金華街","SECT":"一段","MAREA":" ","LANE":" ","ALLEY":" ","HOUSE_NO":"１０號七樓之３","E_COORD97":177907.54999999999,"N_COORD97":2550965.2999999998,"ADDRESS":"金華街一段１０號七樓之３","OBJECTID":502199},"geometry":{"x":177907.55000000168,"y":2550965.3000000007}},{"attributes":{"ID":502227,"DIS_CODE":0,"TOWNNAME":"新化區","LI":"北勢里","LIN":"7鄰","STREET":"中正路","SECT":" ","MAREA":" ","LANE":" ","ALLEY":" ","HOUSE_NO":"１２１１號三樓之９","E_COORD97":177942.03,"N_COORD97":2551050.2999999998,"ADDRESS":"中正路１２１１號三樓之９","OBJECTID":502200},"geometry":{"x":177942.03000000212,"y":2551050.3000000007}}]}