{"displayFieldName":"TOWNNAME","fieldAliases":{"ID":"ID","DIS_CODE":"DIS_CODE","TOWNNAME":"TOWNNAME","LI":"LI","LIN":"LIN","STREET":"STREET","SECT":"SECT","MAREA":"MAREA","LANE":"LANE","ALLEY":"ALLEY","HOUSE_NO":"HOUSE_NO","E_COORD97":"E_COORD97","N_COORD97":"N_COORD97","ADDRESS":"ADDRESS","OBJECTID":"OBJECTID"},"geometryType":"esriGeometryPoint","spatialReference":{"wkid":102443,"latestWkid":3826},"fields":[{"name":"ID","type":"esriFieldTypeDouble","alias":"ID"},{"name":"DIS_CODE","type":"esriFieldTypeInteger","alias":"DIS_CODE"},{"name":"TOWNNAME","type":"esriFieldTypeString","alias":"TOWNNAME","length":8},{"name":"LI","type":"esriFieldTypeString","alias":"LI","length":8},{"name":"LIN","type":"esriFieldTypeString","alias":"LIN","length":12},{"name":"STREET","type":"esriFieldTypeString","alias":"STREET","length":20},{"name":"SECT","type":"esriFieldTypeString","alias":"SECT","length":8},{"name":"MAREA","type":"esriFieldTypeString","alias":"MAREA","length":12},{"name":"LANE","type":"esriFieldTypeString","alias":"LANE","length":10},{"name":"ALLEY","type":"esriFieldTypeString","alias":"ALLEY","length":10},{"name":"HOUSE_NO","type":"esriFieldTypeString","alias":"HOUSE_NO","length":20},{"name":"E_COORD97","type":"esriFieldTypeDouble","alias":"E_COORD97"},{"name":"N_COORD97","type":"esriFieldTypeDouble","alias":"N_COORD97"},{"name":"ADDRESS","type":"esriFieldTypeString","alias":"ADDRESS","length":50},{"name":"OBJECTID","type":"esriFieldTypeOID","alias":"OBJECTID"}],"features":[{"attributes":{"ID":225805,"DIS_CODE":0,"TOWNNAME":"東區","LI":"泉南里","LIN":"34鄰","STREET":"林森路","SECT":"一段","MAREA":" ","LANE":" ","ALLEY":" ","HOUSE_NO":"１４９號二十樓之７","E_COORD97":169495.73000000001,"N_COORD97":2542552.3999999999,"ADDRESS":"林森路一段１４９號二十樓之７","OBJECTID":225801},"geometry":{"x":169495.73000000138,"y":2542552.4000000004}},{"attributes":{"ID":225806,"DIS_CODE":0,"TOWNNAME":"東區","LI":"泉南里","LIN":"34鄰","STREET":"林森路","SECT":"一段","MAREA":" ","LANE":" ","ALLEY":" ","HOUSE_NO":"１４９號二十一樓之１","E_COORD97":169495.73000000001,"N_COORD97":2542552.3999999999,"ADDRESS":"林森路一段１４９號二十一樓之１","OBJECTID":225802},"geometry":{"x":169495.73000000138,"y":2542552.4000000004}},{"attributes":{"ID":225807,"DIS_CODE":0,"TOWNNAME":"東區","LI":"泉南里","LIN":"34鄰","STREET":"林森路","SECT":"一段","MAREA":" ","LANE":" ","ALLEY":" ","HOUSE_NO":"１４９號二十一樓之２","E_COORD97":169495.73000000001,"N_COORD97":2542552.3999999999,"ADDRESS":"林森路一段１４９號二十一樓之２","OBJECTID":225803},"geometry":{"x":169495.73000000138,"y":2542552.4000000004}},{"attributes":{"ID":225808,"DIS_CODE":0,"TOWNNAME":"仁德區","LI":"仁愛里","LIN":"29鄰","STREET":"亞航街","SECT":" ","MAREA":" ","LANE":"１９８巷","ALLEY":" ","HOUSE_NO":"２８號","E_COORD97":170022.58499999999,"N_COORD97":2539092.0950000002,"ADDRESS":"亞航街１９８巷２８號","OBJECTID":225804},"geometry":{"x":170022.58499999996,"y":2539092.0950000007}},{"attributes":{"ID":225809,"DIS_CODE":0,"TOWNNAME":"仁德區","LI":"仁愛里","LIN":"29鄰","STREET":"亞航街","SECT":" ","MAREA":" ","LANE":"１９８巷","ALLEY":" ","HOUSE_NO":"２２號","E_COORD97":170020.57500000001,"N_COORD97":2539099.3050000002,"ADDRESS":"亞航街１９８巷２２號","OBJECTID":225805},"geometry":{"x":170020.57500000112,"y":2539099.3049999997}},{"attributes":{"ID":225810,"DIS_CODE":0,"TOWNNAME":"仁德區","LI":"仁愛里","LIN":"29鄰","STREET":"亞航街","SECT":" ","MAREA":" ","LANE":"１９８巷","ALLEY":" ","HOUSE_NO":"１１８號","E_COORD97":170117.383,"N_COORD97":2539043.8620000002,"ADDRESS":"亞航街１９８巷１１８號","OBJECTID":225806},"geometry":{"x":170117.38300000131,"y":2539043.8620000016}},{"attributes":{"ID":225811,"DIS_CODE":0,"TOWNNAME":"仁德區","LI":"仁愛里","LIN":"29鄰","STREET":"亞航街","SECT":" ","MAREA":" ","LANE":"１９８巷","ALLEY":" ","HOUSE_NO":"１００號","E_COORD97":170090.51300000001,"N_COORD97":2539038.4539999999,"ADDRESS":"亞航街１９８巷１００號","OBJECTID":225807},"geometry":{"x":170090.51300000213,"y":2539038.4539999999}},{"attributes":{"ID":225812,"DIS_CODE":0,"TOWNNAME":"仁德區","LI":"仁愛里","LIN":"29鄰","STREET":"亞航街","SECT":" ","MAREA":" ","LANE":"１９８巷","ALLEY":" ","HOUSE_NO":"９６號","E_COORD97":170083.08300000001,"N_COORD97":2539037.0830000001,"ADDRESS":"亞航街１９８巷９６號","OBJECTID":225808},"geometry":{"x":170083.08300000057,"y":2539037.0830000006}},{"attributes":{"ID":225813,"DIS_CODE":0,"TOWNNAME":"善化區","LI":"光文里","LIN":"22鄰","STREET":"光華路","SECT":" ","MAREA":" ","LANE":"３５巷","ALLEY":" ","HOUSE_NO":"３號","E_COORD97":178613.29999999999,"N_COORD97":2559272,"ADDRESS":"光華路３５巷３號","OBJECTID":225809},"geometry":{"x":178613.30000000075,"y":2559272.0000000019}},{"attributes":{"ID":225814,"DIS_CODE":0,"TOWNNAME":"永康區","LI":"崑山里","LIN":"14鄰","STREET":"大灣路","SECT":" ","MAREA":" ","LANE":"９７０巷","ALLEY":" ","HOUSE_NO":"３７號","E_COORD97":173545.01000000001,"N_COORD97":2544506.9700000002,"ADDRESS":"大灣路９７０巷３７號","OBJECTID":225810},"geometry":{"x":173545.01000000071,"y":2544506.9700000025}},{"attributes":{"ID":225815,"DIS_CODE":0,"TOWNNAME":"永康區","LI":"崑山里","LIN":"31鄰","STREET":"崑山街","SECT":" ","MAREA":" ","LANE":"１１６巷","ALLEY":" ","HOUSE_NO":"３２號","E_COORD97":174079.98000000001,"N_COORD97":2544763,"ADDRESS":"崑山街１１６巷３２號","OBJECTID":225811},"geometry":{"x":174079.98000000138,"y":2544763}},{"attributes":{"ID":225816,"DIS_CODE":0,"TOWNNAME":"善化區","LI":"光文里","LIN":"22鄰","STREET":"光華路","SECT":" ","MAREA":" ","LANE":"５３巷","ALLEY":" ","HOUSE_NO":"１７號","E_COORD97":178576.81,"N_COORD97":2559313.25,"ADDRESS":"光華路５３巷１７號","OBJECTID":225812},"geometry":{"x":178576.81000000145,"y":2559313.2500000037}},{"attributes":{"ID":225817,"DIS_CODE":0,"TOWNNAME":"永康區","LI":"龍潭里","LIN":"22鄰","STREET":"龍橋街","SECT":" ","MAREA":" ","LANE":"１３０巷","ALLEY":" ","HOUSE_NO":"２０號","E_COORD97":174703.98999999999,"N_COORD97":2548641.3399999999,"ADDRESS":"龍橋街１３０巷２０號","OBJECTID":225813},"geometry":{"x":174703.99000000022,"y":2548641.3399999999}},{"attributes":{"ID":225818,"DIS_CODE":0,"TOWNNAME":"永康區","LI":"勝利里","LIN":"22鄰","STREET":"勝華街","SECT":" ","MAREA":" ","LANE":"３７巷","ALLEY":" ","HOUSE_NO":"３１號","E_COORD97":171459.31,"N_COORD97":2545134.5,"ADDRESS":"勝華街３７巷３１號","OBJECTID":225814},"geometry":{"x":171459.31000000052,"y":2545134.5000000019}},{"attributes":{"ID":225819,"DIS_CODE":0,"TOWNNAME":"永康區","LI":"網寮里","LIN":"22鄰","STREET":"永春街","SECT":" ","MAREA":" ","LANE":"２５巷","ALLEY":" ","HOUSE_NO":"１２之１號","E_COORD97":173724.66,"N_COORD97":2546285.79,"ADDRESS":"永春街２５巷１２之１號","OBJECTID":225815},"geometry":{"x":173724.66000000015,"y":2546285.7899999991}},{"attributes":{"ID":225820,"DIS_CODE":0,"TOWNNAME":"永康區","LI":"崑山里","LIN":"22鄰","STREET":"崑山街","SECT":" ","MAREA":" ","LANE":"５６巷","ALLEY":" ","HOUSE_NO":"２６號","E_COORD97":174009.07999999999,"N_COORD97":2544625.29,"ADDRESS":"崑山街５６巷２６號","OBJECTID":225816},"geometry":{"x":174009.08000000101,"y":2544625.290000001}},{"attributes":{"ID":225821,"DIS_CODE":0,"TOWNNAME":"永康區","LI":"崑山里","LIN":"22鄰","STREET":"大灣路","SECT":" ","MAREA":" ","LANE":"７９８巷","ALLEY":" ","HOUSE_NO":"２２號","E_COORD97":174025.01000000001,"N_COORD97":2544583.3100000001,"ADDRESS":"大灣路７９８巷２２號","OBJECTID":225817},"geometry":{"x":174025.00999999978,"y":2544583.3100000024}},{"attributes":{"ID":225822,"DIS_CODE":0,"TOWNNAME":"永康區","LI":"埔園里","LIN":"22鄰","STREET":"埔園街","SECT":" ","MAREA":" ","LANE":"２７１巷","ALLEY":" ","HOUSE_NO":"５號","E_COORD97":173477.88,"N_COORD97":2548155.7000000002,"ADDRESS":"埔園街２７１巷５號","OBJECTID":225818},"geometry":{"x":173477.88000000082,"y":2548155.7000000011}},{"attributes":{"ID":225823,"DIS_CODE":0,"TOWNNAME":"永康區","LI":"勝利里","LIN":"22鄰","STREET":"中華路","SECT":" ","MAREA":" ","LANE":"２１７巷","ALLEY":" ","HOUSE_NO":"１０號","E_COORD97":171567.64999999999,"N_COORD97":2545060.6600000001,"ADDRESS":"中華路２１７巷１０號","OBJECTID":225819},"geometry":{"x":171567.6500000013,"y":2545060.6600000039}},{"attributes":{"ID":225824,"DIS_CODE":0,"TOWNNAME":"永康區","LI":"埔園里","LIN":"22鄰","STREET":"四維街","SECT":" ","MAREA":" ","LANE":"５８巷","ALLEY":" ","HOUSE_NO":"３號","E_COORD97":173428.03,"N_COORD97":2548077.0800000001,"ADDRESS":"四維街５８巷３號","OBJECTID":225820},"geometry":{"x":173428.03000000119,"y":2548077.0800000001}},{"attributes":{"ID":225825,"DIS_CODE":0,"TOWNNAME":"永康區","LI":"崑山里","LIN":"22鄰","STREET":"崑山街","SECT":" ","MAREA":" ","LANE":"５６巷","ALLEY":" ","HOUSE_NO":"２１號","E_COORD97":174001.17999999999,"N_COORD97":2544643.4100000001,"ADDRESS":"崑山街５６巷２１號","OBJECTID":225821},"geometry":{"x":174001.18000000063,"y":2544643.410000002}},{"attributes":{"ID":225826,"DIS_CODE":0,"TOWNNAME":"永康區","LI":"勝利里","LIN":"22鄰","STREET":"中華一路","SECT":" ","MAREA":" ","LANE":"１８２巷","ALLEY":" ","HOUSE_NO":"１８號","E_COORD97":171522.67999999999,"N_COORD97":2545089.75,"ADDRESS":"中華一路１８２巷１８號","OBJECTID":225822},"geometry":{"x":171522.68000000063,"y":2545089.75}},{"attributes":{"ID":225827,"DIS_CODE":0,"TOWNNAME":"永康區","LI":"神洲里","LIN":"22鄰","STREET":"忠孝路","SECT":" ","MAREA":" ","LANE":"７６巷","ALLEY":" ","HOUSE_NO":"７號","E_COORD97":172125.64000000001,"N_COORD97":2544920.9900000002,"ADDRESS":"忠孝路７６巷７號","OBJECTID":225823},"geometry":{"x":172125.63999999966,"y":2544920.9900000021}},{"attributes":{"ID":225828,"DIS_CODE":0,"TOWNNAME":"東區","LI":"崇明里","LIN":"22鄰","STREET":"中華東路","SECT":"三段","MAREA":" ","LANE":"３７７巷","ALLEY":" ","HOUSE_NO":"１６號","E_COORD97":170194.56,"N_COORD97":2541474.5899999999,"ADDRESS":"中華東路三段３７７巷１６號","OBJECTID":225824},"geometry":{"x":170194.56000000052,"y":2541474.5900000017}},{"attributes":{"ID":225829,"DIS_CODE":0,"TOWNNAME":"白河區","LI":"永安里","LIN":"22鄰","STREET":"西安街","SECT":" ","MAREA":" ","LANE":"７７巷","ALLEY":" ","HOUSE_NO":"１０號","E_COORD97":189707.67999999999,"N_COORD97":2582789.2999999998,"ADDRESS":"西安街７７巷１０號","OBJECTID":225825},"geometry":{"x":189707.6799999997,"y":2582789.3000000026}},{"attributes":{"ID":225830,"DIS_CODE":0,"TOWNNAME":"白河區","LI":"永安里","LIN":"22鄰","STREET":"西安街","SECT":" ","MAREA":" ","LANE":"７７巷","ALLEY":" ","HOUSE_NO":"１２號","E_COORD97":189703.44,"N_COORD97":2582782.1200000001,"ADDRESS":"西安街７７巷１２號","OBJECTID":225826},"geometry":{"x":189703.44000000041,"y":2582782.120000001}},{"attributes":{"ID":225831,"DIS_CODE":0,"TOWNNAME":"白河區","LI":"永安里","LIN":"22鄰","STREET":"西安街","SECT":" ","MAREA":" ","LANE":"７７巷","ALLEY":" ","HOUSE_NO":"１６號","E_COORD97":189701.17000000001,"N_COORD97":2582777.7200000002,"ADDRESS":"西安街７７巷１６號","OBJECTID":225827},"geometry":{"x":189701.16999999993,"y":2582777.7200000007}},{"attributes":{"ID":225832,"DIS_CODE":0,"TOWNNAME":"安南區","LI":"安東里","LIN":"22鄰","STREET":"安和路","SECT":"二段","MAREA":" ","LANE":"５４巷","ALLEY":" ","HOUSE_NO":"８１號之１０","E_COORD97":169803.87,"N_COORD97":2548622.0899999999,"ADDRESS":"安和路二段５４巷８１號之１０","OBJECTID":225828},"geometry":{"x":169803.87000000011,"y":2548622.0900000017}},{"attributes":{"ID":225833,"DIS_CODE":0,"TOWNNAME":"東區","LI":"泉南里","LIN":"34鄰","STREET":"林森路","SECT":"一段","MAREA":" ","LANE":" ","ALLEY":" ","HOUSE_NO":"１４９號二十一樓之３","E_COORD97":169495.73000000001,"N_COORD97":2542552.3999999999,"ADDRESS":"林森路一段１４９號二十一樓之３","OBJECTID":225829},"geometry":{"x":169495.73000000138,"y":2542552.4000000004}},{"attributes":{"ID":225834,"DIS_CODE":0,"TOWNNAME":"東區","LI":"泉南里","LIN":"34鄰","STREET":"林森路","SECT":"一段","MAREA":" ","LANE":" ","ALLEY":" ","HOUSE_NO":"１４９號二十一樓之４","E_COORD97":169495.73000000001,"N_COORD97":2542552.3999999999,"ADDRESS":"林森路一段１４９號二十一樓之４","OBJECTID":225830},"geometry":{"x":169495.73000000138,"y":2542552.4000000004}},{"attributes":{"ID":225835,"DIS_CODE":0,"TOWNNAME":"東區","LI":"泉南里","LIN":"34鄰","STREET":"林森路","SECT":"一段","MAREA":" ","LANE":" ","ALLEY":" ","HOUSE_NO":"１４９號二十一樓之５","E_COORD97":169495.73000000001,"N_COORD97":2542552.3999999999,"ADDRESS":"林森路一段１４９號二十一樓之５","OBJECTID":225831},"geometry":{"x":169495.73000000138,"y":2542552.4000000004}},{"attributes":{"ID":225836,"DIS_CODE":0,"TOWNNAME":"永康區","LI":"復國里","LIN":"34鄰","STREET":"復華一街","SECT":" ","MAREA":" ","LANE":" ","ALLEY":" ","HOUSE_NO":"７３號七樓之２","E_COORD97":172520.14000000001,"N_COORD97":2545071.0499999998,"ADDRESS":"復華一街７３號七樓之２","OBJECTID":225832},"geometry":{"x":172520.1400000006,"y":2545071.0500000007}},{"attributes":{"ID":225837,"DIS_CODE":0,"TOWNNAME":"永康區","LI":"復國里","LIN":"34鄰","STREET":"復華一街","SECT":" ","MAREA":" ","LANE":" ","ALLEY":" ","HOUSE_NO":"７３號四樓之２","E_COORD97":172520.14000000001,"N_COORD97":2545071.0499999998,"ADDRESS":"復華一街７３號四樓之２","OBJECTID":225833},"geometry":{"x":172520.1400000006,"y":2545071.0500000007}},{"attributes":{"ID":225838,"DIS_CODE":0,"TOWNNAME":"仁德區","LI":"仁愛里","LIN":"29鄰","STREET":"亞航街","SECT":" ","MAREA":" ","LANE":"１９８巷","ALLEY":" ","HOUSE_NO":"２０號","E_COORD97":170019.57000000001,"N_COORD97":2539102.9100000001,"ADDRESS":"亞航街１９８巷２０號","OBJECTID":225834},"geometry":{"x":170019.5700000003,"y":2539102.910000002}},{"attributes":{"ID":225839,"DIS_CODE":0,"TOWNNAME":"安南區","LI":"安慶里","LIN":"29鄰","STREET":"安和路","SECT":"一段","MAREA":" ","LANE":"４５９巷","ALLEY":" ","HOUSE_NO":"４６號","E_COORD97":169242.26999999999,"N_COORD97":2548522.8900000001,"ADDRESS":"安和路一段４５９巷４６號","OBJECTID":225835},"geometry":{"x":169242.27000000048,"y":2548522.8900000025}},{"attributes":{"ID":225840,"DIS_CODE":0,"TOWNNAME":"安南區","LI":"安慶里","LIN":"29鄰","STREET":"安和路","SECT":"一段","MAREA":" ","LANE":"４５９巷","ALLEY":" ","HOUSE_NO":"４８號","E_COORD97":169241.56,"N_COORD97":2548527.9300000002,"ADDRESS":"安和路一段４５９巷４８號","OBJECTID":225836},"geometry":{"x":169241.56000000145,"y":2548527.9300000016}},{"attributes":{"ID":225841,"DIS_CODE":0,"TOWNNAME":"安南區","LI":"安慶里","LIN":"29鄰","STREET":"安和路","SECT":"一段","MAREA":" ","LANE":"４５９巷","ALLEY":" ","HOUSE_NO":"５０號","E_COORD97":169240.64000000001,"N_COORD97":2548532.8399999999,"ADDRESS":"安和路一段４５９巷５０號","OBJECTID":225837},"geometry":{"x":169240.63999999966,"y":2548532.8399999999}},{"attributes":{"ID":225842,"DIS_CODE":0,"TOWNNAME":"安南區","LI":"安慶里","LIN":"29鄰","STREET":"安和路","SECT":"一段","MAREA":" ","LANE":"４５９巷","ALLEY":" ","HOUSE_NO":"５２號","E_COORD97":169239.73000000001,"N_COORD97":2548537.23,"ADDRESS":"安和路一段４５９巷５２號","OBJECTID":225838},"geometry":{"x":169239.73000000138,"y":2548537.2300000023}},{"attributes":{"ID":225843,"DIS_CODE":0,"TOWNNAME":"安南區","LI":"安慶里","LIN":"29鄰","STREET":"安和路","SECT":"一段","MAREA":" ","LANE":"４５９巷","ALLEY":" ","HOUSE_NO":"５４號","E_COORD97":169238.5,"N_COORD97":2548541.8799999999,"ADDRESS":"安和路一段４５９巷５４號","OBJECTID":225839},"geometry":{"x":169238.5,"y":2548541.879999999}},{"attributes":{"ID":225844,"DIS_CODE":0,"TOWNNAME":"仁德區","LI":"仁愛里","LIN":"10鄰","STREET":" ","SECT":" ","MAREA":"仁愛","LANE":" ","ALLEY":" ","HOUSE_NO":"１９６號","E_COORD97":170324.10273000001,"N_COORD97":2539958.5499999998,"ADDRESS":"仁愛１９６號","OBJECTID":225840},"geometry":{"x":170324.10273000039,"y":2539958.5500000007}},{"attributes":{"ID":225845,"DIS_CODE":0,"TOWNNAME":"安南區","LI":"安慶里","LIN":"29鄰","STREET":"安和路","SECT":"一段","MAREA":" ","LANE":"４５９巷","ALLEY":" ","HOUSE_NO":"５６號","E_COORD97":169237.14999999999,"N_COORD97":2548547.0699999998,"ADDRESS":"安和路一段４５９巷５６號","OBJECTID":225841},"geometry":{"x":169237.1500000013,"y":2548547.070000004}},{"attributes":{"ID":225846,"DIS_CODE":0,"TOWNNAME":"安南區","LI":"安慶里","LIN":"29鄰","STREET":"安和路","SECT":"一段","MAREA":" ","LANE":"４５９巷","ALLEY":" ","HOUSE_NO":"５８號","E_COORD97":169236.29000000001,"N_COORD97":2548550.98,"ADDRESS":"安和路一段４５９巷５８號","OBJECTID":225842},"geometry":{"x":169236.29000000004,"y":2548550.9800000042}},{"attributes":{"ID":225847,"DIS_CODE":0,"TOWNNAME":"安南區","LI":"安慶里","LIN":"29鄰","STREET":"安和路","SECT":"一段","MAREA":" ","LANE":"４５９巷","ALLEY":" ","HOUSE_NO":"６０號","E_COORD97":169235.19,"N_COORD97":2548554.3599999999,"ADDRESS":"安和路一段４５９巷６０號","OBJECTID":225843},"geometry":{"x":169235.19000000134,"y":2548554.3600000031}},{"attributes":{"ID":225848,"DIS_CODE":0,"TOWNNAME":"安南區","LI":"安慶里","LIN":"29鄰","STREET":"安和路","SECT":"一段","MAREA":" ","LANE":"４５９巷","ALLEY":" ","HOUSE_NO":"６２號","E_COORD97":169234.62,"N_COORD97":2548557.5,"ADDRESS":"安和路一段４５９巷６２號","OBJECTID":225844},"geometry":{"x":169234.62000000011,"y":2548557.5000000019}},{"attributes":{"ID":225849,"DIS_CODE":0,"TOWNNAME":"安南區","LI":"安慶里","LIN":"29鄰","STREET":"安和路","SECT":"一段","MAREA":" ","LANE":"４５９巷","ALLEY":" ","HOUSE_NO":"６４號","E_COORD97":169209.42000000001,"N_COORD97":2548559.54,"ADDRESS":"安和路一段４５９巷６４號","OBJECTID":225845},"geometry":{"x":169209.42000000086,"y":2548559.5400000028}},{"attributes":{"ID":225850,"DIS_CODE":0,"TOWNNAME":"安南區","LI":"安慶里","LIN":"29鄰","STREET":"安和路","SECT":"一段","MAREA":" ","LANE":"４５９巷","ALLEY":" ","HOUSE_NO":"６６號","E_COORD97":169210.73999999999,"N_COORD97":2548556.1600000001,"ADDRESS":"安和路一段４５９巷６６號","OBJECTID":225846},"geometry":{"x":169210.74000000115,"y":2548556.1600000039}},{"attributes":{"ID":225851,"DIS_CODE":0,"TOWNNAME":"安南區","LI":"安東里","LIN":"22鄰","STREET":"安和路","SECT":"二段","MAREA":" ","LANE":"５４巷","ALLEY":" ","HOUSE_NO":"８１號之１１","E_COORD97":169829.73999999999,"N_COORD97":2548617.9900000002,"ADDRESS":"安和路二段５４巷８１號之１１","OBJECTID":225847},"geometry":{"x":169829.74000000115,"y":2548617.9900000002}},{"attributes":{"ID":225852,"DIS_CODE":0,"TOWNNAME":"安南區","LI":"安東里","LIN":"22鄰","STREET":"安和路","SECT":"二段","MAREA":" ","LANE":"５４巷","ALLEY":" ","HOUSE_NO":"８１號之１３","E_COORD97":169843.29000000001,"N_COORD97":2548615.52,"ADDRESS":"安和路二段５４巷８１號之１３","OBJECTID":225848},"geometry":{"x":169843.29000000004,"y":2548615.5200000014}},{"attributes":{"ID":225853,"DIS_CODE":0,"TOWNNAME":"安南區","LI":"安東里","LIN":"22鄰","STREET":"安和路","SECT":"二段","MAREA":" ","LANE":"５４巷","ALLEY":" ","HOUSE_NO":"８１號之３","E_COORD97":169729.57000000001,"N_COORD97":2548638.0899999999,"ADDRESS":"安和路二段５４巷８１號之３","OBJECTID":225849},"geometry":{"x":169729.5700000003,"y":2548638.0900000017}},{"attributes":{"ID":225854,"DIS_CODE":0,"TOWNNAME":"安南區","LI":"安東里","LIN":"22鄰","STREET":"安和路","SECT":"二段","MAREA":" ","LANE":"５４巷","ALLEY":" ","HOUSE_NO":"８１號之７","E_COORD97":169745.98999999999,"N_COORD97":2548634.3999999999,"ADDRESS":"安和路二段５４巷８１號之７","OBJECTID":225850},"geometry":{"x":169745.99000000209,"y":2548634.4000000022}},{"attributes":{"ID":225855,"DIS_CODE":0,"TOWNNAME":"永康區","LI":"復國里","LIN":"34鄰","STREET":"復華一街","SECT":" ","MAREA":" ","LANE":" ","ALLEY":" ","HOUSE_NO":"７３號十樓之１","E_COORD97":172520.01000000001,"N_COORD97":2545071.0499999998,"ADDRESS":"復華一街７３號十樓之１","OBJECTID":225851},"geometry":{"x":172520.00999999978,"y":2545071.0500000007}},{"attributes":{"ID":225856,"DIS_CODE":0,"TOWNNAME":"永康區","LI":"復國里","LIN":"34鄰","STREET":"復華一街","SECT":" ","MAREA":" ","LANE":" ","ALLEY":" ","HOUSE_NO":"７３號九樓之１","E_COORD97":172520.01000000001,"N_COORD97":2545071.0499999998,"ADDRESS":"復華一街７３號九樓之１","OBJECTID":225852},"geometry":{"x":172520.00999999978,"y":2545071.0500000007}},{"attributes":{"ID":225857,"DIS_CODE":0,"TOWNNAME":"永康區","LI":"復國里","LIN":"34鄰","STREET":"復華一街","SECT":" ","MAREA":" ","LANE":" ","ALLEY":" ","HOUSE_NO":"７３號二樓","E_COORD97":172517.87,"N_COORD97":2545071.0299999998,"ADDRESS":"復華一街７３號二樓","OBJECTID":225853},"geometry":{"x":172517.87000000011,"y":2545071.0300000031}},{"attributes":{"ID":225858,"DIS_CODE":0,"TOWNNAME":"歸仁區","LI":"看西里","LIN":"2鄰","STREET":"成功六街","SECT":" ","MAREA":" ","LANE":"１１６巷","ALLEY":" ","HOUSE_NO":"７號","E_COORD97":178419.821214,"N_COORD97":2540347.40717,"ADDRESS":"成功六街１１６巷７號","OBJECTID":225854},"geometry":{"x":178419.82121399976,"y":2540347.4071740005}},{"attributes":{"ID":225859,"DIS_CODE":0,"TOWNNAME":"永康區","LI":"復國里","LIN":"34鄰","STREET":"復華一街","SECT":" ","MAREA":" ","LANE":" ","ALLEY":" ","HOUSE_NO":"７３號三樓之２","E_COORD97":172520.14000000001,"N_COORD97":2545071.0499999998,"ADDRESS":"復華一街７３號三樓之２","OBJECTID":225855},"geometry":{"x":172520.1400000006,"y":2545071.0500000007}},{"attributes":{"ID":225860,"DIS_CODE":0,"TOWNNAME":"仁德區","LI":"太子里","LIN":"34鄰","STREET":"土庫路","SECT":" ","MAREA":" ","LANE":" ","ALLEY":" ","HOUSE_NO":"２號","E_COORD97":174161,"N_COORD97":2543479.2400000002,"ADDRESS":"土庫路２號","OBJECTID":225856},"geometry":{"x":174161,"y":2543479.2400000002}},{"attributes":{"ID":225861,"DIS_CODE":0,"TOWNNAME":"仁德區","LI":"太子里","LIN":"34鄰","STREET":"土庫路","SECT":" ","MAREA":" ","LANE":" ","ALLEY":" ","HOUSE_NO":"２１號","E_COORD97":174203.69,"N_COORD97":2543422.75,"ADDRESS":"土庫路２１號","OBJECTID":225857},"geometry":{"x":174203.69000000134,"y":2543422.7500000019}},{"attributes":{"ID":225862,"DIS_CODE":0,"TOWNNAME":"永康區","LI":"復華里","LIN":"34鄰","STREET":"復國一路","SECT":" ","MAREA":" ","LANE":" ","ALLEY":" ","HOUSE_NO":"４９９號","E_COORD97":172555.98999999999,"N_COORD97":2546199.7799999998,"ADDRESS":"復國一路４９９號","OBJECTID":225858},"geometry":{"x":172555.99000000022,"y":2546199.7800000012}},{"attributes":{"ID":225863,"DIS_CODE":0,"TOWNNAME":"永康區","LI":"復華里","LIN":"34鄰","STREET":"復國一路","SECT":" ","MAREA":" ","LANE":" ","ALLEY":" ","HOUSE_NO":"４８３號","E_COORD97":172580.38,"N_COORD97":2546168.52,"ADDRESS":"復國一路４８３號","OBJECTID":225859},"geometry":{"x":172580.37999999989,"y":2546168.5199999996}},{"attributes":{"ID":225864,"DIS_CODE":0,"TOWNNAME":"永康區","LI":"崑山里","LIN":"34鄰","STREET":"大仁街","SECT":" ","MAREA":" ","LANE":" ","ALLEY":" ","HOUSE_NO":"１２７號","E_COORD97":173853.09,"N_COORD97":2544861.29,"ADDRESS":"大仁街１２７號","OBJECTID":225860},"geometry":{"x":173853.09000000078,"y":2544861.2899999991}},{"attributes":{"ID":225865,"DIS_CODE":0,"TOWNNAME":"仁德區","LI":"太子里","LIN":"34鄰","STREET":"土庫路","SECT":" ","MAREA":" ","LANE":" ","ALLEY":" ","HOUSE_NO":"１１號","E_COORD97":174198.73000000001,"N_COORD97":2543443.5,"ADDRESS":"土庫路１１號","OBJECTID":225861},"geometry":{"x":174198.73000000138,"y":2543443.5}},{"attributes":{"ID":225866,"DIS_CODE":0,"TOWNNAME":"新市區","LI":"新市里","LIN":"34鄰","STREET":"復興路","SECT":" ","MAREA":" ","LANE":" ","ALLEY":" ","HOUSE_NO":"１０８號","E_COORD97":177822.70999999999,"N_COORD97":2553644.5299999998,"ADDRESS":"復興路１０８號","OBJECTID":225862},"geometry":{"x":177822.71000000089,"y":2553644.5299999993}},{"attributes":{"ID":225867,"DIS_CODE":0,"TOWNNAME":"永康區","LI":"崑山里","LIN":"34鄰","STREET":"大仁街","SECT":" ","MAREA":" ","LANE":" ","ALLEY":" ","HOUSE_NO":"１４７號","E_COORD97":173872.04999999999,"N_COORD97":2544915.9399999999,"ADDRESS":"大仁街１４７號","OBJECTID":225863},"geometry":{"x":173872.05000000075,"y":2544915.9400000032}},{"attributes":{"ID":225868,"DIS_CODE":0,"TOWNNAME":"永康區","LI":"埔園里","LIN":"34鄰","STREET":"永大路","SECT":"三段","MAREA":" ","LANE":" ","ALLEY":" ","HOUSE_NO":"５６２號","E_COORD97":174076.44,"N_COORD97":2548654.5800000001,"ADDRESS":"永大路三段５６２號","OBJECTID":225864},"geometry":{"x":174076.44000000134,"y":2548654.5800000001}},{"attributes":{"ID":225869,"DIS_CODE":0,"TOWNNAME":"永康區","LI":"埔園里","LIN":"34鄰","STREET":"永大路","SECT":"三段","MAREA":" ","LANE":" ","ALLEY":" ","HOUSE_NO":"５６６號","E_COORD97":174075.42999999999,"N_COORD97":2548658.9700000002,"ADDRESS":"永大路三段５６６號","OBJECTID":225865},"geometry":{"x":174075.43000000156,"y":2548658.9700000007}},{"attributes":{"ID":225870,"DIS_CODE":0,"TOWNNAME":"安南區","LI":"安慶里","LIN":"29鄰","STREET":"長溪路","SECT":"一段","MAREA":" ","LANE":"１４６巷","ALLEY":" ","HOUSE_NO":"５１號","E_COORD97":169140.88,"N_COORD97":2548552.3199999998,"ADDRESS":"長溪路一段１４６巷５１號","OBJECTID":225866},"geometry":{"x":169140.87999999989,"y":2548552.3200000022}},{"attributes":{"ID":225871,"DIS_CODE":0,"TOWNNAME":"安南區","LI":"安慶里","LIN":"29鄰","STREET":"長溪路","SECT":"一段","MAREA":" ","LANE":"１４６巷","ALLEY":" ","HOUSE_NO":"５３號","E_COORD97":169144.91,"N_COORD97":2548552.5099999998,"ADDRESS":"長溪路一段１４６巷５３號","OBJECTID":225867},"geometry":{"x":169144.91000000108,"y":2548552.5099999998}},{"attributes":{"ID":225872,"DIS_CODE":0,"TOWNNAME":"安南區","LI":"安慶里","LIN":"29鄰","STREET":"長溪路","SECT":"一段","MAREA":" ","LANE":"１４６巷","ALLEY":" ","HOUSE_NO":"５５號","E_COORD97":169149.54000000001,"N_COORD97":2548552.3100000001,"ADDRESS":"長溪路一段１４６巷５５號","OBJECTID":225868},"geometry":{"x":169149.54000000097,"y":2548552.3100000042}},{"attributes":{"ID":225873,"DIS_CODE":0,"TOWNNAME":"安南區","LI":"安慶里","LIN":"29鄰","STREET":"長溪路","SECT":"一段","MAREA":" ","LANE":"１４６巷","ALLEY":" ","HOUSE_NO":"５７號","E_COORD97":169153.76999999999,"N_COORD97":2548552.3799999999,"ADDRESS":"長溪路一段１４６巷５７號","OBJECTID":225869},"geometry":{"x":169153.77000000048,"y":2548552.379999999}},{"attributes":{"ID":225874,"DIS_CODE":0,"TOWNNAME":"安南區","LI":"安慶里","LIN":"29鄰","STREET":"長溪路","SECT":"一段","MAREA":" ","LANE":"１４６巷","ALLEY":" ","HOUSE_NO":"５９號","E_COORD97":169158.26999999999,"N_COORD97":2548551.79,"ADDRESS":"長溪路一段１４６巷５９號","OBJECTID":225870},"geometry":{"x":169158.26999999955,"y":2548551.790000001}},{"attributes":{"ID":225875,"DIS_CODE":0,"TOWNNAME":"安南區","LI":"安慶里","LIN":"29鄰","STREET":"長溪路","SECT":"一段","MAREA":" ","LANE":"１４６巷","ALLEY":" ","HOUSE_NO":"５號","E_COORD97":169071.82000000001,"N_COORD97":2548543.3599999999,"ADDRESS":"長溪路一段１４６巷５號","OBJECTID":225871},"geometry":{"x":169071.8200000003,"y":2548543.3599999994}},{"attributes":{"ID":225876,"DIS_CODE":0,"TOWNNAME":"安南區","LI":"安慶里","LIN":"29鄰","STREET":"長溪路","SECT":"一段","MAREA":" ","LANE":"１４６巷","ALLEY":" ","HOUSE_NO":"６１號","E_COORD97":169162.63,"N_COORD97":2548551.6499999999,"ADDRESS":"長溪路一段１４６巷６１號","OBJECTID":225872},"geometry":{"x":169162.62999999989,"y":2548551.6500000004}},{"attributes":{"ID":225877,"DIS_CODE":0,"TOWNNAME":"仁德區","LI":"仁義里","LIN":"41鄰","STREET":"中正路","SECT":"二段","MAREA":" ","LANE":"８９２巷","ALLEY":" ","HOUSE_NO":"３９號","E_COORD97":173554.72,"N_COORD97":2540590.52,"ADDRESS":"中正路二段８９２巷３９號","OBJECTID":225873},"geometry":{"x":173554.7200000016,"y":2540590.5200000014}},{"attributes":{"ID":225878,"DIS_CODE":0,"TOWNNAME":"安南區","LI":"安慶里","LIN":"29鄰","STREET":"長溪路","SECT":"一段","MAREA":" ","LANE":"１４６巷","ALLEY":" ","HOUSE_NO":"６５號","E_COORD97":169173.07999999999,"N_COORD97":2548550.73,"ADDRESS":"長溪路一段１４６巷６５號","OBJECTID":225874},"geometry":{"x":169173.08000000101,"y":2548550.7300000023}},{"attributes":{"ID":225879,"DIS_CODE":0,"TOWNNAME":"安南區","LI":"安慶里","LIN":"29鄰","STREET":"長溪路","SECT":"一段","MAREA":" ","LANE":"１４６巷","ALLEY":" ","HOUSE_NO":"９號","E_COORD97":169086.23999999999,"N_COORD97":2548549.46,"ADDRESS":"長溪路一段１４６巷９號","OBJECTID":225875},"geometry":{"x":169086.24000000022,"y":2548549.4600000028}},{"attributes":{"ID":225880,"DIS_CODE":0,"TOWNNAME":"東區","LI":"崇學里","LIN":"22鄰","STREET":"崇學路","SECT":" ","MAREA":" ","LANE":"１６巷","ALLEY":" ","HOUSE_NO":"１６號","E_COORD97":170110.29999999999,"N_COORD97":2541993.1600000001,"ADDRESS":"崇學路１６巷１６號","OBJECTID":225876},"geometry":{"x":170110.30000000075,"y":2541993.160000002}},{"attributes":{"ID":225881,"DIS_CODE":0,"TOWNNAME":"東區","LI":"崇學里","LIN":"22鄰","STREET":"崇學路","SECT":" ","MAREA":" ","LANE":"１６巷","ALLEY":" ","HOUSE_NO":"１８號","E_COORD97":170111.82000000001,"N_COORD97":2541988.0299999998,"ADDRESS":"崇學路１６巷１８號","OBJECTID":225877},"geometry":{"x":170111.82000000216,"y":2541988.0299999993}},{"attributes":{"ID":225882,"DIS_CODE":0,"TOWNNAME":"中西區","LI":"大涼里","LIN":"22鄰","STREET":"永華一街","SECT":" ","MAREA":" ","LANE":"１４８巷","ALLEY":" ","HOUSE_NO":"１３號","E_COORD97":166939.97,"N_COORD97":2543589.8599999999,"ADDRESS":"永華一街１４８巷１３號","OBJECTID":225878},"geometry":{"x":166939.96999999974,"y":2543589.8599999994}},{"attributes":{"ID":225883,"DIS_CODE":0,"TOWNNAME":"永康區","LI":"埔園里","LIN":"34鄰","STREET":"永大路","SECT":"三段","MAREA":" ","LANE":" ","ALLEY":" ","HOUSE_NO":"５６８號","E_COORD97":174075.06,"N_COORD97":2548662.8700000001,"ADDRESS":"永大路三段５６８號","OBJECTID":225879},"geometry":{"x":174075.06000000052,"y":2548662.870000001}},{"attributes":{"ID":225884,"DIS_CODE":0,"TOWNNAME":"永康區","LI":"埔園里","LIN":"34鄰","STREET":"永大路","SECT":"三段","MAREA":" ","LANE":" ","ALLEY":" ","HOUSE_NO":"５７０號","E_COORD97":174074.56,"N_COORD97":2548666.7599999998,"ADDRESS":"永大路三段５７０號","OBJECTID":225880},"geometry":{"x":174074.56000000145,"y":2548666.7599999998}},{"attributes":{"ID":225885,"DIS_CODE":0,"TOWNNAME":"永康區","LI":"埔園里","LIN":"34鄰","STREET":"永大路","SECT":"三段","MAREA":" ","LANE":" ","ALLEY":" ","HOUSE_NO":"５７２號","E_COORD97":174073.92999999999,"N_COORD97":2548671.02,"ADDRESS":"永大路三段５７２號","OBJECTID":225881},"geometry":{"x":174073.93000000063,"y":2548671.0199999996}},{"attributes":{"ID":225886,"DIS_CODE":0,"TOWNNAME":"永康區","LI":"埔園里","LIN":"34鄰","STREET":"永大路","SECT":"三段","MAREA":" ","LANE":" ","ALLEY":" ","HOUSE_NO":"５７６號","E_COORD97":174073.42999999999,"N_COORD97":2548675.04,"ADDRESS":"永大路三段５７６號","OBJECTID":225882},"geometry":{"x":174073.4299999997,"y":2548675.040000001}},{"attributes":{"ID":225887,"DIS_CODE":0,"TOWNNAME":"永康區","LI":"埔園里","LIN":"34鄰","STREET":"永大路","SECT":"三段","MAREA":" ","LANE":" ","ALLEY":" ","HOUSE_NO":"５７８號","E_COORD97":174072.79999999999,"N_COORD97":2548678.9300000002,"ADDRESS":"永大路三段５７８號","OBJECTID":225883},"geometry":{"x":174072.79999999981,"y":2548678.9299999997}},{"attributes":{"ID":225888,"DIS_CODE":0,"TOWNNAME":"永康區","LI":"埔園里","LIN":"34鄰","STREET":"永大路","SECT":"三段","MAREA":" ","LANE":" ","ALLEY":" ","HOUSE_NO":"５８０號","E_COORD97":174072.29000000001,"N_COORD97":2548683.0699999998,"ADDRESS":"永大路三段５８０號","OBJECTID":225884},"geometry":{"x":174072.29000000097,"y":2548683.0700000022}},{"attributes":{"ID":225889,"DIS_CODE":0,"TOWNNAME":"永康區","LI":"埔園里","LIN":"34鄰","STREET":"永大路","SECT":"三段","MAREA":" ","LANE":" ","ALLEY":" ","HOUSE_NO":"５８２號","E_COORD97":174072.17000000001,"N_COORD97":2548687.21,"ADDRESS":"永大路三段５８２號","OBJECTID":225885},"geometry":{"x":174072.16999999993,"y":2548687.2100000028}},{"attributes":{"ID":225890,"DIS_CODE":0,"TOWNNAME":"永康區","LI":"埔園里","LIN":"34鄰","STREET":"永大路","SECT":"三段","MAREA":" ","LANE":" ","ALLEY":" ","HOUSE_NO":"５８６號","E_COORD97":174071.54000000001,"N_COORD97":2548691.1099999999,"ADDRESS":"永大路三段５８６號","OBJECTID":225886},"geometry":{"x":174071.53999999911,"y":2548691.1099999994}},{"attributes":{"ID":225891,"DIS_CODE":0,"TOWNNAME":"永康區","LI":"埔園里","LIN":"34鄰","STREET":"永大路","SECT":"三段","MAREA":" ","LANE":" ","ALLEY":" ","HOUSE_NO":"５８８號","E_COORD97":174070.91,"N_COORD97":2548695.1200000001,"ADDRESS":"永大路三段５８８號","OBJECTID":225887},"geometry":{"x":174070.91000000201,"y":2548695.120000001}},{"attributes":{"ID":225892,"DIS_CODE":0,"TOWNNAME":"永康區","LI":"埔園里","LIN":"34鄰","STREET":"永大路","SECT":"三段","MAREA":" ","LANE":" ","ALLEY":" ","HOUSE_NO":"５９０號","E_COORD97":174069.78,"N_COORD97":2548699.3900000001,"ADDRESS":"永大路三段５９０號","OBJECTID":225888},"geometry":{"x":174069.78000000026,"y":2548699.3900000006}},{"attributes":{"ID":225893,"DIS_CODE":0,"TOWNNAME":"永康區","LI":"埔園里","LIN":"34鄰","STREET":"永大路","SECT":"三段","MAREA":" ","LANE":" ","ALLEY":" ","HOUSE_NO":"５９２號","E_COORD97":174069.14999999999,"N_COORD97":2548703.2799999998,"ADDRESS":"永大路三段５９２號","OBJECTID":225889},"geometry":{"x":174069.15000000037,"y":2548703.2799999993}},{"attributes":{"ID":225894,"DIS_CODE":0,"TOWNNAME":"東區","LI":"虎尾里","LIN":"29鄰","STREET":"自由路","SECT":"三段","MAREA":" ","LANE":" ","ALLEY":" ","HOUSE_NO":"２４６號","E_COORD97":171847.42000000001,"N_COORD97":2542288.7799999998,"ADDRESS":"自由路三段２４６號","OBJECTID":225890},"geometry":{"x":171847.41999999993,"y":2542288.7799999993}},{"attributes":{"ID":225895,"DIS_CODE":0,"TOWNNAME":"東區","LI":"虎尾里","LIN":"29鄰","STREET":"自由路","SECT":"三段","MAREA":" ","LANE":" ","ALLEY":" ","HOUSE_NO":"２４０號","E_COORD97":171848.20999999999,"N_COORD97":2542280.3799999999,"ADDRESS":"自由路三段２４０號","OBJECTID":225891},"geometry":{"x":171848.21000000089,"y":2542280.379999999}},{"attributes":{"ID":225896,"DIS_CODE":0,"TOWNNAME":"東區","LI":"虎尾里","LIN":"29鄰","STREET":"自由路","SECT":"三段","MAREA":" ","LANE":" ","ALLEY":" ","HOUSE_NO":"２３８號","E_COORD97":171848.47,"N_COORD97":2542276.3100000001,"ADDRESS":"自由路三段２３８號","OBJECTID":225892},"geometry":{"x":171848.47000000067,"y":2542276.3100000005}},{"attributes":{"ID":225897,"DIS_CODE":0,"TOWNNAME":"東區","LI":"虎尾里","LIN":"29鄰","STREET":"自由路","SECT":"三段","MAREA":" ","LANE":" ","ALLEY":" ","HOUSE_NO":"２３６號","E_COORD97":171849.26000000001,"N_COORD97":2542272.25,"ADDRESS":"自由路三段２３６號","OBJECTID":225893},"geometry":{"x":171849.26000000164,"y":2542272.25}},{"attributes":{"ID":225898,"DIS_CODE":0,"TOWNNAME":"東區","LI":"虎尾里","LIN":"29鄰","STREET":"自由路","SECT":"三段","MAREA":" ","LANE":" ","ALLEY":" ","HOUSE_NO":"２３２號","E_COORD97":171849.92000000001,"N_COORD97":2542268.1800000002,"ADDRESS":"自由路三段２３２號","OBJECTID":225894},"geometry":{"x":171849.92000000179,"y":2542268.1800000016}},{"attributes":{"ID":225899,"DIS_CODE":0,"TOWNNAME":"東區","LI":"虎尾里","LIN":"29鄰","STREET":"自由路","SECT":"三段","MAREA":" ","LANE":" ","ALLEY":" ","HOUSE_NO":"２３０號","E_COORD97":171850.17999999999,"N_COORD97":2542264.3700000001,"ADDRESS":"自由路三段２３０號","OBJECTID":225895},"geometry":{"x":171850.18000000063,"y":2542264.3700000029}},{"attributes":{"ID":225900,"DIS_CODE":0,"TOWNNAME":"永康區","LI":"東橋里","LIN":"22鄰","STREET":"中山南路","SECT":" ","MAREA":" ","LANE":"３６５巷","ALLEY":" ","HOUSE_NO":"９號","E_COORD97":172645.94158300001,"N_COORD97":2547213.0088499999,"ADDRESS":"中山南路３６５巷９號","OBJECTID":225896},"geometry":{"x":172645.94158300012,"y":2547213.0088459998}},{"attributes":{"ID":225901,"DIS_CODE":0,"TOWNNAME":"東區","LI":"虎尾里","LIN":"29鄰","STREET":"自由路","SECT":"三段","MAREA":" ","LANE":" ","ALLEY":" ","HOUSE_NO":"２２８號","E_COORD97":171850.44,"N_COORD97":2542260.1699999999,"ADDRESS":"自由路三段２２８號","OBJECTID":225897},"geometry":{"x":171850.44000000227,"y":2542260.1700000037}},{"attributes":{"ID":225902,"DIS_CODE":0,"TOWNNAME":"仁德區","LI":"仁義里","LIN":"43鄰","STREET":"仁義路","SECT":" ","MAREA":" ","LANE":"７０巷","ALLEY":" ","HOUSE_NO":"２４號","E_COORD97":173544.48000000001,"N_COORD97":2540864.2599999998,"ADDRESS":"仁義路７０巷２４號","OBJECTID":225898},"geometry":{"x":173544.48000000045,"y":2540864.2599999998}},{"attributes":{"ID":225903,"DIS_CODE":0,"TOWNNAME":"東區","LI":"虎尾里","LIN":"29鄰","STREET":"自由路","SECT":"三段","MAREA":" ","LANE":" ","ALLEY":" ","HOUSE_NO":"２２６號","E_COORD97":171850.44,"N_COORD97":2542256.3700000001,"ADDRESS":"自由路三段２２６號","OBJECTID":225899},"geometry":{"x":171850.44000000227,"y":2542256.3700000048}},{"attributes":{"ID":225904,"DIS_CODE":0,"TOWNNAME":"中西區","LI":"大涼里","LIN":"22鄰","STREET":"永華一街","SECT":" ","MAREA":" ","LANE":"１４８巷","ALLEY":" ","HOUSE_NO":"１５號","E_COORD97":166944.14999999999,"N_COORD97":2543589,"ADDRESS":"永華一街１４８巷１５號","OBJECTID":225900},"geometry":{"x":166944.15000000037,"y":2543589}},{"attributes":{"ID":225905,"DIS_CODE":0,"TOWNNAME":"歸仁區","LI":"崙頂里","LIN":"22鄰","STREET":"崙頂二街","SECT":" ","MAREA":" ","LANE":"５０巷","ALLEY":" ","HOUSE_NO":"３號","E_COORD97":177739.98999999999,"N_COORD97":2540044.48,"ADDRESS":"崙頂二街５０巷３號","OBJECTID":225901},"geometry":{"x":177739.99000000022,"y":2540044.4800000042}},{"attributes":{"ID":225906,"DIS_CODE":0,"TOWNNAME":"安平區","LI":"文平里","LIN":"22鄰","STREET":"建平一街","SECT":" ","MAREA":" ","LANE":"２３巷","ALLEY":" ","HOUSE_NO":"３３號","E_COORD97":166030.70999999999,"N_COORD97":2542805.1000000001,"ADDRESS":"建平一街２３巷３３號","OBJECTID":225902},"geometry":{"x":166030.71000000089,"y":2542805.0999999996}},{"attributes":{"ID":225907,"DIS_CODE":0,"TOWNNAME":"南區","LI":"建南里","LIN":"22鄰","STREET":"永成路","SECT":"二段","MAREA":" ","LANE":"８４５巷","ALLEY":" ","HOUSE_NO":"２號","E_COORD97":167462.92999999999,"N_COORD97":2540172.9900000002,"ADDRESS":"永成路二段８４５巷２號","OBJECTID":225903},"geometry":{"x":167462.93000000063,"y":2540172.9900000039}},{"attributes":{"ID":225908,"DIS_CODE":0,"TOWNNAME":"歸仁區","LI":"看西里","LIN":"22鄰","STREET":"成功七街","SECT":" ","MAREA":" ","LANE":"６５巷","ALLEY":" ","HOUSE_NO":"１２號","E_COORD97":178269.70999999999,"N_COORD97":2539766.3599999999,"ADDRESS":"成功七街６５巷１２號","OBJECTID":225904},"geometry":{"x":178269.71000000089,"y":2539766.3600000031}},{"attributes":{"ID":225909,"DIS_CODE":0,"TOWNNAME":"歸仁區","LI":"崙頂里","LIN":"22鄰","STREET":"崙頂二街","SECT":" ","MAREA":" ","LANE":"５０巷","ALLEY":" ","HOUSE_NO":"６１號","E_COORD97":177710.23999999999,"N_COORD97":2539995.48,"ADDRESS":"崙頂二街５０巷６１號","OBJECTID":225905},"geometry":{"x":177710.24000000115,"y":2539995.4800000004}},{"attributes":{"ID":225910,"DIS_CODE":0,"TOWNNAME":"新營區","LI":"新北里","LIN":"22鄰","STREET":"民生路","SECT":" ","MAREA":" ","LANE":"３５６巷","ALLEY":" ","HOUSE_NO":"４３號","E_COORD97":179004.04999999999,"N_COORD97":2579295.0899999999,"ADDRESS":"民生路３５６巷４３號","OBJECTID":225906},"geometry":{"x":179004.04999999981,"y":2579295.0900000017}},{"attributes":{"ID":225911,"DIS_CODE":0,"TOWNNAME":"新營區","LI":"新北里","LIN":"22鄰","STREET":"民生路","SECT":" ","MAREA":" ","LANE":"３５６巷","ALLEY":" ","HOUSE_NO":"３１號","E_COORD97":178970.29999999999,"N_COORD97":2579291.9300000002,"ADDRESS":"民生路３５６巷３１號","OBJECTID":225907},"geometry":{"x":178970.29999999981,"y":2579291.9300000016}},{"attributes":{"ID":225912,"DIS_CODE":0,"TOWNNAME":"新營區","LI":"新北里","LIN":"22鄰","STREET":"民生路","SECT":" ","MAREA":" ","LANE":"３５６巷","ALLEY":" ","HOUSE_NO":"３７號","E_COORD97":178986.67000000001,"N_COORD97":2579294.0600000001,"ADDRESS":"民生路３５６巷３７號","OBJECTID":225908},"geometry":{"x":178986.67000000179,"y":2579294.0600000005}},{"attributes":{"ID":225913,"DIS_CODE":0,"TOWNNAME":"新營區","LI":"南興里","LIN":"22鄰","STREET":"延平路","SECT":" ","MAREA":" ","LANE":"１４０巷","ALLEY":" ","HOUSE_NO":"３３之４號","E_COORD97":179592.85999999999,"N_COORD97":2577406.3500000001,"ADDRESS":"延平路１４０巷３３之４號","OBJECTID":225909},"geometry":{"x":179592.86000000127,"y":2577406.3499999978}},{"attributes":{"ID":225914,"DIS_CODE":0,"TOWNNAME":"北區","LI":"成德里","LIN":"22鄰","STREET":"育成路","SECT":" ","MAREA":" ","LANE":"３１７巷","ALLEY":" ","HOUSE_NO":"５５號","E_COORD97":168412.23000000001,"N_COORD97":2546823.8999999999,"ADDRESS":"育成路３１７巷５５號","OBJECTID":225910},"geometry":{"x":168412.23000000231,"y":2546823.9000000022}},{"attributes":{"ID":225915,"DIS_CODE":0,"TOWNNAME":"北區","LI":"成德里","LIN":"22鄰","STREET":"育德一街","SECT":" ","MAREA":" ","LANE":"３２７巷","ALLEY":" ","HOUSE_NO":"３號","E_COORD97":168498.91,"N_COORD97":2546632.9700000002,"ADDRESS":"育德一街３２７巷３號","OBJECTID":225911},"geometry":{"x":168498.91000000201,"y":2546632.9700000025}},{"attributes":{"ID":225916,"DIS_CODE":0,"TOWNNAME":"北區","LI":"成德里","LIN":"22鄰","STREET":"育德一街","SECT":" ","MAREA":" ","LANE":"３２７巷","ALLEY":" ","HOUSE_NO":"１號","E_COORD97":168503.20000000001,"N_COORD97":2546634.2400000002,"ADDRESS":"育德一街３２７巷１號","OBJECTID":225912},"geometry":{"x":168503.20000000019,"y":2546634.2400000021}},{"attributes":{"ID":225917,"DIS_CODE":0,"TOWNNAME":"新營區","LI":"新東里","LIN":"22鄰","STREET":"東明街","SECT":" ","MAREA":" ","LANE":"８０巷","ALLEY":" ","HOUSE_NO":"４３號","E_COORD97":180925.26000000001,"N_COORD97":2579815.3599999999,"ADDRESS":"東明街８０巷４３號","OBJECTID":225913},"geometry":{"x":180925.26000000164,"y":2579815.3599999994}},{"attributes":{"ID":225918,"DIS_CODE":0,"TOWNNAME":"永康區","LI":"埔園里","LIN":"34鄰","STREET":"永大路","SECT":"三段","MAREA":" ","LANE":" ","ALLEY":" ","HOUSE_NO":"５９６號","E_COORD97":174068.78,"N_COORD97":2548707.2999999998,"ADDRESS":"永大路三段５９６號","OBJECTID":225914},"geometry":{"x":174068.78000000119,"y":2548707.3000000007}},{"attributes":{"ID":225919,"DIS_CODE":0,"TOWNNAME":"永康區","LI":"埔園里","LIN":"34鄰","STREET":"永大路","SECT":"三段","MAREA":" ","LANE":" ","ALLEY":" ","HOUSE_NO":"５９８號","E_COORD97":174068.53,"N_COORD97":2548711.4399999999,"ADDRESS":"永大路三段５９８號","OBJECTID":225915},"geometry":{"x":174068.53000000212,"y":2548711.4399999995}},{"attributes":{"ID":225920,"DIS_CODE":0,"TOWNNAME":"永康區","LI":"埔園里","LIN":"34鄰","STREET":"永大路","SECT":"三段","MAREA":" ","LANE":" ","ALLEY":" ","HOUSE_NO":"６００號","E_COORD97":174068.17000000001,"N_COORD97":2548715.2999999998,"ADDRESS":"永大路三段６００號","OBJECTID":225916},"geometry":{"x":174068.16999999993,"y":2548715.3000000045}},{"attributes":{"ID":225921,"DIS_CODE":0,"TOWNNAME":"永康區","LI":"埔園里","LIN":"34鄰","STREET":"永大路","SECT":"三段","MAREA":" ","LANE":" ","ALLEY":" ","HOUSE_NO":"６０２號","E_COORD97":174067.26999999999,"N_COORD97":2548719.3399999999,"ADDRESS":"永大路三段６０２號","OBJECTID":225917},"geometry":{"x":174067.26999999955,"y":2548719.3399999999}},{"attributes":{"ID":225922,"DIS_CODE":0,"TOWNNAME":"永康區","LI":"埔園里","LIN":"34鄰","STREET":"永大路","SECT":"三段","MAREA":" ","LANE":" ","ALLEY":" ","HOUSE_NO":"６０６號","E_COORD97":174066.73000000001,"N_COORD97":2548723.5600000001,"ADDRESS":"永大路三段６０６號","OBJECTID":225918},"geometry":{"x":174066.73000000045,"y":2548723.5600000042}},{"attributes":{"ID":225923,"DIS_CODE":0,"TOWNNAME":"仁德區","LI":"太子里","LIN":"34鄰","STREET":"土庫路","SECT":" ","MAREA":" ","LANE":" ","ALLEY":" ","HOUSE_NO":"１９號","E_COORD97":174201.91,"N_COORD97":2543428,"ADDRESS":"土庫路１９號","OBJECTID":225919},"geometry":{"x":174201.91000000108,"y":2543428.0000000019}},{"attributes":{"ID":225924,"DIS_CODE":0,"TOWNNAME":"仁德區","LI":"後壁里","LIN":"34鄰","STREET":"德洋路","SECT":" ","MAREA":" ","LANE":" ","ALLEY":" ","HOUSE_NO":"１５３號","E_COORD97":172610.39999999999,"N_COORD97":2539324.0099999998,"ADDRESS":"德洋路１５３號","OBJECTID":225920},"geometry":{"x":172610.4000000013,"y":2539324.0099999998}},{"attributes":{"ID":225925,"DIS_CODE":0,"TOWNNAME":"仁德區","LI":"仁義里","LIN":"34鄰","STREET":"正義三街","SECT":" ","MAREA":" ","LANE":" ","ALLEY":" ","HOUSE_NO":"３２號","E_COORD97":173480.35000000001,"N_COORD97":2541594.0099999998,"ADDRESS":"正義三街３２號","OBJECTID":225921},"geometry":{"x":173480.34999999963,"y":2541594.0100000016}},{"attributes":{"ID":225926,"DIS_CODE":0,"TOWNNAME":"佳里區","LI":"建南里","LIN":"34鄰","STREET":"勝利路","SECT":" ","MAREA":" ","LANE":" ","ALLEY":" ","HOUSE_NO":"３００號","E_COORD97":166083.14000000001,"N_COORD97":2560701.8999999999,"ADDRESS":"勝利路３００號","OBJECTID":225922},"geometry":{"x":166083.1400000006,"y":2560701.9000000004}},{"attributes":{"ID":225927,"DIS_CODE":0,"TOWNNAME":"佳里區","LI":"建南里","LIN":"34鄰","STREET":"勝利路","SECT":" ","MAREA":" ","LANE":" ","ALLEY":" ","HOUSE_NO":"２４８號","E_COORD97":166048.82999999999,"N_COORD97":2560884.5499999998,"ADDRESS":"勝利路２４８號","OBJECTID":225923},"geometry":{"x":166048.83000000101,"y":2560884.5500000007}},{"attributes":{"ID":225928,"DIS_CODE":0,"TOWNNAME":"歸仁區","LI":"歸仁里","LIN":"22鄰","STREET":"文化二街","SECT":" ","MAREA":" ","LANE":"２６巷","ALLEY":" ","HOUSE_NO":"２０號","E_COORD97":178042.89999999999,"N_COORD97":2541209.2599999998,"ADDRESS":"文化二街２６巷２０號","OBJECTID":225924},"geometry":{"x":178042.90000000037,"y":2541209.2600000016}},{"attributes":{"ID":225929,"DIS_CODE":0,"TOWNNAME":"歸仁區","LI":"歸仁里","LIN":"22鄰","STREET":"文化二街","SECT":" ","MAREA":" ","LANE":"２６巷","ALLEY":" ","HOUSE_NO":"１６號","E_COORD97":178034.70000000001,"N_COORD97":2541209.2599999998,"ADDRESS":"文化二街２６巷１６號","OBJECTID":225925},"geometry":{"x":178034.70000000112,"y":2541209.2600000016}},{"attributes":{"ID":225930,"DIS_CODE":0,"TOWNNAME":"歸仁區","LI":"崙頂里","LIN":"22鄰","STREET":"崙頂二街","SECT":" ","MAREA":" ","LANE":"５０巷","ALLEY":" ","HOUSE_NO":"８１號","E_COORD97":177704.34,"N_COORD97":2540032.48,"ADDRESS":"崙頂二街５０巷８１號","OBJECTID":225926},"geometry":{"x":177704.34000000078,"y":2540032.4800000023}},{"attributes":{"ID":225931,"DIS_CODE":0,"TOWNNAME":"歸仁區","LI":"南保里","LIN":"22鄰","STREET":"文化街","SECT":"三段","MAREA":" ","LANE":"６１巷","ALLEY":" ","HOUSE_NO":"２７號","E_COORD97":176915.44,"N_COORD97":2541144.3300000001,"ADDRESS":"文化街三段６１巷２７號","OBJECTID":225927},"geometry":{"x":176915.43999999948,"y":2541144.3300000019}},{"attributes":{"ID":225932,"DIS_CODE":0,"TOWNNAME":"永康區","LI":"崑山里","LIN":"4鄰","STREET":"永大路","SECT":"一段","MAREA":" ","LANE":"２８７巷","ALLEY":" ","HOUSE_NO":"７１號","E_COORD97":173760.32999999999,"N_COORD97":2544329.0099999998,"ADDRESS":"永大路一段２８７巷７１號","OBJECTID":225928},"geometry":{"x":173760.33000000101,"y":2544329.0100000035}},{"attributes":{"ID":225933,"DIS_CODE":0,"TOWNNAME":"永康區","LI":"勝利里","LIN":"17鄰","STREET":"中華一路","SECT":" ","MAREA":" ","LANE":"２９９巷","ALLEY":" ","HOUSE_NO":"４號","E_COORD97":171206.45999999999,"N_COORD97":2544957.75,"ADDRESS":"中華一路２９９巷４號","OBJECTID":225929},"geometry":{"x":171206.45999999996,"y":2544957.75}},{"attributes":{"ID":225934,"DIS_CODE":0,"TOWNNAME":"永康區","LI":"勝利里","LIN":"16鄰","STREET":"勝利街","SECT":" ","MAREA":" ","LANE":"１１３巷","ALLEY":" ","HOUSE_NO":"１１號","E_COORD97":171320.59,"N_COORD97":2544917.25,"ADDRESS":"勝利街１１３巷１１號","OBJECTID":225930},"geometry":{"x":171320.59000000078,"y":2544917.25}},{"attributes":{"ID":225935,"DIS_CODE":0,"TOWNNAME":"北區","LI":"成德里","LIN":"22鄰","STREET":"育成路","SECT":" ","MAREA":" ","LANE":"３１７巷","ALLEY":" ","HOUSE_NO":"６７號","E_COORD97":168312.28,"N_COORD97":2546798.5,"ADDRESS":"育成路３１７巷６７號","OBJECTID":225931},"geometry":{"x":168312.28000000119,"y":2546798.5000000019}},{"attributes":{"ID":225936,"DIS_CODE":0,"TOWNNAME":"新營區","LI":"南興里","LIN":"22鄰","STREET":"延平路","SECT":" ","MAREA":" ","LANE":"１４０巷","ALLEY":" ","HOUSE_NO":"５６之６號","E_COORD97":179604.20000000001,"N_COORD97":2577440.6200000001,"ADDRESS":"延平路１４０巷５６之６號","OBJECTID":225932},"geometry":{"x":179604.20000000112,"y":2577440.6200000029}},{"attributes":{"ID":225937,"DIS_CODE":0,"TOWNNAME":"永康區","LI":"崑山里","LIN":"3鄰","STREET":"大灣路","SECT":" ","MAREA":" ","LANE":"８７９巷","ALLEY":" ","HOUSE_NO":"４９號","E_COORD97":173654.12,"N_COORD97":2544366.96,"ADDRESS":"大灣路８７９巷４９號","OBJECTID":225933},"geometry":{"x":173654.12000000197,"y":2544366.9600000009}},{"attributes":{"ID":225938,"DIS_CODE":0,"TOWNNAME":"永康區","LI":"崑山里","LIN":"42鄰","STREET":"大仁街","SECT":" ","MAREA":" ","LANE":"２１７巷","ALLEY":" ","HOUSE_NO":"２號","E_COORD97":173929.54999999999,"N_COORD97":2545111.2400000002,"ADDRESS":"大仁街２１７巷２號","OBJECTID":225934},"geometry":{"x":173929.55000000075,"y":2545111.2400000039}},{"attributes":{"ID":225939,"DIS_CODE":0,"TOWNNAME":"永康區","LI":"勝利里","LIN":"33鄰","STREET":"中華路","SECT":" ","MAREA":" ","LANE":"７巷","ALLEY":" ","HOUSE_NO":"３０號","E_COORD97":171467.42000000001,"N_COORD97":2544396.2400000002,"ADDRESS":"中華路７巷３０號","OBJECTID":225935},"geometry":{"x":171467.42000000086,"y":2544396.2400000021}},{"attributes":{"ID":225940,"DIS_CODE":0,"TOWNNAME":"新營區","LI":"民權里","LIN":"22鄰","STREET":"民權路","SECT":" ","MAREA":" ","LANE":"９４巷","ALLEY":" ","HOUSE_NO":"５號","E_COORD97":179707.97,"N_COORD97":2578541.98,"ADDRESS":"民權路９４巷５號","OBJECTID":225936},"geometry":{"x":179707.96999999974,"y":2578541.9800000004}},{"attributes":{"ID":225941,"DIS_CODE":0,"TOWNNAME":"新營區","LI":"新南里","LIN":"22鄰","STREET":"復興路","SECT":" ","MAREA":" ","LANE":"６１８巷","ALLEY":" ","HOUSE_NO":"１２號","E_COORD97":178087.38,"N_COORD97":2578421.2999999998,"ADDRESS":"復興路６１８巷１２號","OBJECTID":225937},"geometry":{"x":178087.38000000082,"y":2578421.3000000007}},{"attributes":{"ID":225942,"DIS_CODE":0,"TOWNNAME":"鹽水區","LI":"橋南里","LIN":"22鄰","STREET":"新中路","SECT":" ","MAREA":" ","LANE":"１０２巷","ALLEY":" ","HOUSE_NO":"３４號","E_COORD97":175938.70000000001,"N_COORD97":2578624.3100000001,"ADDRESS":"新中路１０２巷３４號","OBJECTID":225938},"geometry":{"x":175938.69999999925,"y":2578624.3100000005}},{"attributes":{"ID":225943,"DIS_CODE":0,"TOWNNAME":"鹽水區","LI":"橋南里","LIN":"22鄰","STREET":"新中路","SECT":" ","MAREA":" ","LANE":"１０２巷","ALLEY":" ","HOUSE_NO":"３５號","E_COORD97":175919.69,"N_COORD97":2578602.0699999998,"ADDRESS":"新中路１０２巷３５號","OBJECTID":225939},"geometry":{"x":175919.69000000041,"y":2578602.0700000003}},{"attributes":{"ID":225944,"DIS_CODE":0,"TOWNNAME":"鹽水區","LI":"橋南里","LIN":"22鄰","STREET":"新中路","SECT":" ","MAREA":" ","LANE":"１０２巷","ALLEY":" ","HOUSE_NO":"６４號","E_COORD97":175874.47,"N_COORD97":2578627.4500000002,"ADDRESS":"新中路１０２巷６４號","OBJECTID":225940},"geometry":{"x":175874.47000000067,"y":2578627.4500000011}},{"attributes":{"ID":225945,"DIS_CODE":0,"TOWNNAME":"永康區","LI":"崑山里","LIN":"9鄰","STREET":"崑大路","SECT":" ","MAREA":" ","LANE":"２０１巷","ALLEY":" ","HOUSE_NO":"３２號","E_COORD97":173300.07000000001,"N_COORD97":2544223.2400000002,"ADDRESS":"崑大路２０１巷３２號","OBJECTID":225941},"geometry":{"x":173300.0700000003,"y":2544223.2400000021}},{"attributes":{"ID":225946,"DIS_CODE":0,"TOWNNAME":"南區","LI":"開南里","LIN":"22鄰","STREET":"新建路","SECT":" ","MAREA":" ","LANE":"４１巷","ALLEY":" ","HOUSE_NO":"１０號","E_COORD97":166570.82999999999,"N_COORD97":2540972.3500000001,"ADDRESS":"新建路４１巷１０號","OBJECTID":225942},"geometry":{"x":166570.83000000101,"y":2540972.3499999996}},{"attributes":{"ID":225947,"DIS_CODE":0,"TOWNNAME":"新營區","LI":"民榮里","LIN":"22鄰","STREET":"裕民路","SECT":" ","MAREA":" ","LANE":"５８巷","ALLEY":" ","HOUSE_NO":"８號","E_COORD97":179101.19,"N_COORD97":2577842.7400000002,"ADDRESS":"裕民路５８巷８號","OBJECTID":225943},"geometry":{"x":179101.19000000134,"y":2577842.7400000021}},{"attributes":{"ID":225948,"DIS_CODE":0,"TOWNNAME":"永康區","LI":"\u25A0洲里","LIN":"22鄰","STREET":"正南八街","SECT":" ","MAREA":" ","LANE":"３２巷","ALLEY":" ","HOUSE_NO":"１１號","E_COORD97":171386.81,"N_COORD97":2548863.1299999999,"ADDRESS":"正南八街３２巷１１號","OBJECTID":225944},"geometry":{"x":171386.80999999959,"y":2548863.129999999}},{"attributes":{"ID":225949,"DIS_CODE":0,"TOWNNAME":"永康區","LI":"安康里","LIN":"22鄰","STREET":"中華路","SECT":" ","MAREA":" ","LANE":"７０３巷","ALLEY":" ","HOUSE_NO":"１０３號","E_COORD97":170702.69,"N_COORD97":2546274.8100000001,"ADDRESS":"中華路７０３巷１０３號","OBJECTID":225945},"geometry":{"x":170702.69000000227,"y":2546274.8100000024}},{"attributes":{"ID":225950,"DIS_CODE":0,"TOWNNAME":"東區","LI":"德光里","LIN":"22鄰","STREET":"崇學路","SECT":" ","MAREA":" ","LANE":"５９巷","ALLEY":" ","HOUSE_NO":"１１號","E_COORD97":170045.48999999999,"N_COORD97":2542110.52,"ADDRESS":"崇學路５９巷１１號","OBJECTID":225946},"geometry":{"x":170045.49000000022,"y":2542110.5199999996}},{"attributes":{"ID":225951,"DIS_CODE":0,"TOWNNAME":"東區","LI":"德光里","LIN":"22鄰","STREET":"崇學路","SECT":" ","MAREA":" ","LANE":"５９巷","ALLEY":" ","HOUSE_NO":"１３號","E_COORD97":170037.48999999999,"N_COORD97":2542118.21,"ADDRESS":"崇學路５９巷１３號","OBJECTID":225947},"geometry":{"x":170037.49000000022,"y":2542118.209999999}},{"attributes":{"ID":225952,"DIS_CODE":0,"TOWNNAME":"東區","LI":"德光里","LIN":"22鄰","STREET":"崇學路","SECT":" ","MAREA":" ","LANE":"５９巷","ALLEY":" ","HOUSE_NO":"１５號","E_COORD97":170028.87,"N_COORD97":2542124.9700000002,"ADDRESS":"崇學路５９巷１５號","OBJECTID":225948},"geometry":{"x":170028.87000000104,"y":2542124.9700000007}},{"attributes":{"ID":225953,"DIS_CODE":0,"TOWNNAME":"東區","LI":"德光里","LIN":"22鄰","STREET":"崇學路","SECT":" ","MAREA":" ","LANE":"５９巷","ALLEY":" ","HOUSE_NO":"１７號","E_COORD97":170021.79000000001,"N_COORD97":2542132.3399999999,"ADDRESS":"崇學路５９巷１７號","OBJECTID":225949},"geometry":{"x":170021.7900000019,"y":2542132.3399999999}},{"attributes":{"ID":225954,"DIS_CODE":0,"TOWNNAME":"東區","LI":"德光里","LIN":"22鄰","STREET":"崇學路","SECT":" ","MAREA":" ","LANE":"５９巷","ALLEY":" ","HOUSE_NO":"１９號","E_COORD97":170014.10000000001,"N_COORD97":2542138.4900000002,"ADDRESS":"崇學路５９巷１９號","OBJECTID":225950},"geometry":{"x":170014.0999999987,"y":2542138.4900000002}},{"attributes":{"ID":225955,"DIS_CODE":0,"TOWNNAME":"永康區","LI":"崑山里","LIN":"12鄰","STREET":"大灣路","SECT":" ","MAREA":" ","LANE":"１１０２巷","ALLEY":" ","HOUSE_NO":"６號","E_COORD97":173196.17999999999,"N_COORD97":2544636.0800000001,"ADDRESS":"大灣路１１０２巷６號","OBJECTID":225951},"geometry":{"x":173196.18000000063,"y":2544636.0800000001}},{"attributes":{"ID":225956,"DIS_CODE":0,"TOWNNAME":"永康區","LI":"神洲里","LIN":"11鄰","STREET":"忠孝路","SECT":" ","MAREA":" ","LANE":"１５２巷","ALLEY":" ","HOUSE_NO":"４２號","E_COORD97":172269.22,"N_COORD97":2545070.8999999999,"ADDRESS":"忠孝路１５２巷４２號","OBJECTID":225952},"geometry":{"x":172269.21999999974,"y":2545070.9000000022}},{"attributes":{"ID":225957,"DIS_CODE":0,"TOWNNAME":"永康區","LI":"埔園里","LIN":"22鄰","STREET":"埔園街","SECT":" ","MAREA":" ","LANE":"２７１巷","ALLEY":" ","HOUSE_NO":"１５號","E_COORD97":173482.45999999999,"N_COORD97":2548128.7400000002,"ADDRESS":"埔園街２７１巷１５號","OBJECTID":225953},"geometry":{"x":173482.46000000089,"y":2548128.7400000039}},{"attributes":{"ID":225958,"DIS_CODE":0,"TOWNNAME":"永康區","LI":"神洲里","LIN":"22鄰","STREET":"忠孝路","SECT":" ","MAREA":" ","LANE":"７６巷","ALLEY":" ","HOUSE_NO":"５號","E_COORD97":172119.34,"N_COORD97":2544920.4900000002,"ADDRESS":"忠孝路７６巷５號","OBJECTID":225954},"geometry":{"x":172119.33999999985,"y":2544920.4900000021}},{"attributes":{"ID":225959,"DIS_CODE":0,"TOWNNAME":"永康區","LI":"東灣里","LIN":"22鄰","STREET":"大灣二街","SECT":" ","MAREA":" ","LANE":"３８巷","ALLEY":" ","HOUSE_NO":"２１號","E_COORD97":174909.59,"N_COORD97":2544810.9900000002,"ADDRESS":"大灣二街３８巷２１號","OBJECTID":225955},"geometry":{"x":174909.58999999985,"y":2544810.9900000039}},{"attributes":{"ID":225960,"DIS_CODE":0,"TOWNNAME":"永康區","LI":"東灣里","LIN":"22鄰","STREET":"大灣二街","SECT":" ","MAREA":" ","LANE":"３８巷","ALLEY":" ","HOUSE_NO":"１５號","E_COORD97":174914.67999999999,"N_COORD97":2544793.25,"ADDRESS":"大灣二街３８巷１５號","OBJECTID":225956},"geometry":{"x":174914.68000000156,"y":2544793.2500000019}},{"attributes":{"ID":225961,"DIS_CODE":0,"TOWNNAME":"永康區","LI":"東灣里","LIN":"22鄰","STREET":"大灣二街","SECT":" ","MAREA":" ","LANE":"３８巷","ALLEY":" ","HOUSE_NO":"１３號","E_COORD97":174889.17000000001,"N_COORD97":2544774.25,"ADDRESS":"大灣二街３８巷１３號","OBJECTID":225957},"geometry":{"x":174889.16999999993,"y":2544774.25}},{"attributes":{"ID":225962,"DIS_CODE":0,"TOWNNAME":"永康區","LI":"烏竹里","LIN":"2鄰","STREET":"烏竹北街","SECT":" ","MAREA":" ","LANE":"２０巷","ALLEY":" ","HOUSE_NO":"３２號","E_COORD97":174623.79999999999,"N_COORD97":2549531.4900000002,"ADDRESS":"烏竹北街２０巷３２號","OBJECTID":225958},"geometry":{"x":174623.79999999981,"y":2549531.4900000021}},{"attributes":{"ID":225963,"DIS_CODE":0,"TOWNNAME":"永康區","LI":"西灣里","LIN":"22鄰","STREET":"大勇路","SECT":" ","MAREA":" ","LANE":"６２巷","ALLEY":" ","HOUSE_NO":"１４號","E_COORD97":174268.23000000001,"N_COORD97":2545424.2000000002,"ADDRESS":"大勇路６２巷１４號","OBJECTID":225959},"geometry":{"x":174268.23000000138,"y":2545424.1999999993}},{"attributes":{"ID":225964,"DIS_CODE":0,"TOWNNAME":"永康區","LI":"西勢里","LIN":"22鄰","STREET":"富強路","SECT":"一段","MAREA":" ","LANE":"１９４巷","ALLEY":" ","HOUSE_NO":"１３號","E_COORD97":175668.16,"N_COORD97":2546303.0299999998,"ADDRESS":"富強路一段１９４巷１３號","OBJECTID":225960},"geometry":{"x":175668.16000000108,"y":2546303.0300000012}},{"attributes":{"ID":225965,"DIS_CODE":0,"TOWNNAME":"永康區","LI":"尚頂里","LIN":"22鄰","STREET":"大武街","SECT":" ","MAREA":" ","LANE":"７６巷","ALLEY":" ","HOUSE_NO":"２號","E_COORD97":170411.54000000001,"N_COORD97":2546807.4900000002,"ADDRESS":"大武街７６巷２號","OBJECTID":225961},"geometry":{"x":170411.54000000004,"y":2546807.4900000002}},{"attributes":{"ID":225966,"DIS_CODE":0,"TOWNNAME":"永康區","LI":"西灣里","LIN":"22鄰","STREET":"大勇路","SECT":" ","MAREA":" ","LANE":"４８巷","ALLEY":" ","HOUSE_NO":"９號","E_COORD97":174241.75,"N_COORD97":2545390.8300000001,"ADDRESS":"大勇路４８巷９號","OBJECTID":225962},"geometry":{"x":174241.75000000093,"y":2545390.8300000001}},{"attributes":{"ID":225967,"DIS_CODE":0,"TOWNNAME":"永康區","LI":"勝利里","LIN":"18鄰","STREET":"中華一路","SECT":" ","MAREA":" ","LANE":"３２４巷","ALLEY":" ","HOUSE_NO":"９號","E_COORD97":171215.82000000001,"N_COORD97":2545041.7400000002,"ADDRESS":"中華一路３２４巷９號","OBJECTID":225963},"geometry":{"x":171215.82000000123,"y":2545041.7400000002}},{"attributes":{"ID":225968,"DIS_CODE":0,"TOWNNAME":"永康區","LI":"崑山里","LIN":"20鄰","STREET":"崑山街","SECT":" ","MAREA":" ","LANE":"２１巷","ALLEY":" ","HOUSE_NO":"２６號","E_COORD97":173854.75,"N_COORD97":2544586.8799999999,"ADDRESS":"崑山街２１巷２６號","OBJECTID":225964},"geometry":{"x":173854.75,"y":2544586.8800000027}},{"attributes":{"ID":225969,"DIS_CODE":0,"TOWNNAME":"善化區","LI":"溪美里","LIN":"21鄰","STREET":" ","SECT":" ","MAREA":"溪尾","LANE":" ","ALLEY":" ","HOUSE_NO":"１８９號","E_COORD97":176888.95999999999,"N_COORD97":2561208.52,"ADDRESS":"溪尾１８９號","OBJECTID":225965},"geometry":{"x":176888.95999999996,"y":2561208.5199999996}},{"attributes":{"ID":225970,"DIS_CODE":0,"TOWNNAME":"東區","LI":"東明里","LIN":"29鄰","STREET":"東寧路","SECT":" ","MAREA":" ","LANE":"２０１巷","ALLEY":" ","HOUSE_NO":"９號","E_COORD97":170598.29000000001,"N_COORD97":2543527.4700000002,"ADDRESS":"東寧路２０１巷９號","OBJECTID":225966},"geometry":{"x":170598.2900000019,"y":2543527.4700000025}},{"attributes":{"ID":225971,"DIS_CODE":0,"TOWNNAME":"永康區","LI":"復國里","LIN":"29鄰","STREET":"復華二街","SECT":" ","MAREA":" ","LANE":"２３巷","ALLEY":" ","HOUSE_NO":"１號","E_COORD97":172591.60999999999,"N_COORD97":2545332.02,"ADDRESS":"復華二街２３巷１號","OBJECTID":225967},"geometry":{"x":172591.6100000022,"y":2545332.0199999996}},{"attributes":{"ID":225972,"DIS_CODE":0,"TOWNNAME":"永康區","LI":"西灣里","LIN":"22鄰","STREET":"大勇路","SECT":" ","MAREA":" ","LANE":"４８巷","ALLEY":" ","HOUSE_NO":"１９號","E_COORD97":174264.32999999999,"N_COORD97":2545383.1099999999,"ADDRESS":"大勇路４８巷１９號","OBJECTID":225968},"geometry":{"x":174264.33000000007,"y":2545383.1100000013}},{"attributes":{"ID":225973,"DIS_CODE":0,"TOWNNAME":"善化區","LI":"光文里","LIN":"22鄰","STREET":"光華路","SECT":" ","MAREA":" ","LANE":"１５０巷","ALLEY":" ","HOUSE_NO":"１８號","E_COORD97":178667.89999999999,"N_COORD97":2559531.75,"ADDRESS":"光華路１５０巷１８號","OBJECTID":225969},"geometry":{"x":178667.90000000037,"y":2559531.7500000019}},{"attributes":{"ID":225974,"DIS_CODE":0,"TOWNNAME":"永康區","LI":"崑山里","LIN":"42鄰","STREET":"大仁街","SECT":" ","MAREA":" ","LANE":"１９９巷","ALLEY":" ","HOUSE_NO":"６號","E_COORD97":173905.10999999999,"N_COORD97":2545062,"ADDRESS":"大仁街１９９巷６號","OBJECTID":225970},"geometry":{"x":173905.11000000034,"y":2545062.0000000019}},{"attributes":{"ID":225975,"DIS_CODE":0,"TOWNNAME":"永康區","LI":"安康里","LIN":"22鄰","STREET":"中華路","SECT":" ","MAREA":" ","LANE":"７０３巷","ALLEY":" ","HOUSE_NO":"８７號","E_COORD97":170720.23000000001,"N_COORD97":2546218.25,"ADDRESS":"中華路７０３巷８７號","OBJECTID":225971},"geometry":{"x":170720.23000000138,"y":2546218.25}},{"attributes":{"ID":225976,"DIS_CODE":0,"TOWNNAME":"新化區","LI":"東榮里","LIN":"22鄰","STREET":"和平街","SECT":" ","MAREA":" ","LANE":"３１巷","ALLEY":" ","HOUSE_NO":"７號","E_COORD97":179307.67000000001,"N_COORD97":2548126.25,"ADDRESS":"和平街３１巷７號","OBJECTID":225972},"geometry":{"x":179307.67000000086,"y":2548126.2500000019}},{"attributes":{"ID":225977,"DIS_CODE":0,"TOWNNAME":"新化區","LI":"東榮里","LIN":"22鄰","STREET":"和平街","SECT":" ","MAREA":" ","LANE":"３１巷","ALLEY":" ","HOUSE_NO":"５號","E_COORD97":179294.26999999999,"N_COORD97":2548132.25,"ADDRESS":"和平街３１巷５號","OBJECTID":225973},"geometry":{"x":179294.27000000142,"y":2548132.2500000019}},{"attributes":{"ID":225978,"DIS_CODE":0,"TOWNNAME":"新化區","LI":"東榮里","LIN":"22鄰","STREET":"和平街","SECT":" ","MAREA":" ","LANE":"３１巷","ALLEY":" ","HOUSE_NO":"７號之１","E_COORD97":179314.29999999999,"N_COORD97":2548127.2599999998,"ADDRESS":"和平街３１巷７號之１","OBJECTID":225974},"geometry":{"x":179314.29999999981,"y":2548127.2599999998}},{"attributes":{"ID":225979,"DIS_CODE":0,"TOWNNAME":"永康區","LI":"尚頂里","LIN":"22鄰","STREET":"大武街","SECT":" ","MAREA":" ","LANE":"７６巷","ALLEY":" ","HOUSE_NO":"８號","E_COORD97":170420.54000000001,"N_COORD97":2546801.2400000002,"ADDRESS":"大武街７６巷８號","OBJECTID":225975},"geometry":{"x":170420.54000000097,"y":2546801.2400000021}},{"attributes":{"ID":225980,"DIS_CODE":0,"TOWNNAME":"永康區","LI":"尚頂里","LIN":"22鄰","STREET":"大武街","SECT":" ","MAREA":" ","LANE":"７１巷","ALLEY":" ","HOUSE_NO":"１號","E_COORD97":170376.54000000001,"N_COORD97":2546831.5,"ADDRESS":"大武街７１巷１號","OBJECTID":225976},"geometry":{"x":170376.54000000097,"y":2546831.5000000037}},{"attributes":{"ID":225981,"DIS_CODE":0,"TOWNNAME":"永康區","LI":"\u25A0行里","LIN":"22鄰","STREET":"正南五街","SECT":" ","MAREA":" ","LANE":"５２０巷","ALLEY":" ","HOUSE_NO":"９８號","E_COORD97":171811.31,"N_COORD97":2548765.7400000002,"ADDRESS":"正南五街５２０巷９８號","OBJECTID":225977},"geometry":{"x":171811.31000000145,"y":2548765.7399999984}},{"attributes":{"ID":225982,"DIS_CODE":0,"TOWNNAME":"中西區","LI":"永華里","LIN":"22鄰","STREET":"忠義路","SECT":"二段","MAREA":" ","LANE":"５０巷","ALLEY":" ","HOUSE_NO":"３號","E_COORD97":168314.07999999999,"N_COORD97":2543724.4700000002,"ADDRESS":"忠義路二段５０巷３號","OBJECTID":225978},"geometry":{"x":168314.08000000007,"y":2543724.4700000025}},{"attributes":{"ID":225983,"DIS_CODE":0,"TOWNNAME":"中西區","LI":"三民里","LIN":"22鄰","STREET":"忠義路","SECT":"二段","MAREA":" ","LANE":"１５８巷","ALLEY":" ","HOUSE_NO":"１３號","E_COORD97":168459.70999999999,"N_COORD97":2544035.3599999999,"ADDRESS":"忠義路二段１５８巷１３號","OBJECTID":225979},"geometry":{"x":168459.71000000089,"y":2544035.3600000013}},{"attributes":{"ID":225984,"DIS_CODE":0,"TOWNNAME":"永康區","LI":"龍潭里","LIN":"22鄰","STREET":"龍安街","SECT":" ","MAREA":" ","LANE":"２７２巷","ALLEY":" ","HOUSE_NO":"６號","E_COORD97":174770.85000000001,"N_COORD97":2548556.3100000001,"ADDRESS":"龍安街２７２巷６號","OBJECTID":225980},"geometry":{"x":174770.8499999987,"y":2548556.3100000024}},{"attributes":{"ID":225985,"DIS_CODE":0,"TOWNNAME":"佳里區","LI":"建南里","LIN":"34鄰","STREET":"勝利路","SECT":" ","MAREA":" ","LANE":" ","ALLEY":" ","HOUSE_NO":"２５０號","E_COORD97":166032.84,"N_COORD97":2560875.8199999998,"ADDRESS":"勝利路２５０號","OBJECTID":225981},"geometry":{"x":166032.84000000078,"y":2560875.8199999984}},{"attributes":{"ID":225986,"DIS_CODE":0,"TOWNNAME":"歸仁區","LI":"南興里","LIN":"34鄰","STREET":"文化九街","SECT":" ","MAREA":" ","LANE":" ","ALLEY":" ","HOUSE_NO":"３８號","E_COORD97":176337.22,"N_COORD97":2541088.2599999998,"ADDRESS":"文化九街３８號","OBJECTID":225982},"geometry":{"x":176337.22000000067,"y":2541088.2599999998}},{"attributes":{"ID":225987,"DIS_CODE":0,"TOWNNAME":"善化區","LI":"溪美里","LIN":"21鄰","STREET":" ","SECT":" ","MAREA":"溪尾","LANE":" ","ALLEY":" ","HOUSE_NO":"１８２號","E_COORD97":176994.23000000001,"N_COORD97":2561245.52,"ADDRESS":"溪尾１８２號","OBJECTID":225983},"geometry":{"x":176994.23000000045,"y":2561245.5199999996}},{"attributes":{"ID":225988,"DIS_CODE":0,"TOWNNAME":"永康區","LI":"復國里","LIN":"29鄰","STREET":"復華二街","SECT":" ","MAREA":" ","LANE":"３３巷","ALLEY":" ","HOUSE_NO":"７號","E_COORD97":172553.51000000001,"N_COORD97":2545313.7799999998,"ADDRESS":"復華二街３３巷７號","OBJECTID":225984},"geometry":{"x":172553.51000000071,"y":2545313.7800000012}},{"attributes":{"ID":225989,"DIS_CODE":0,"TOWNNAME":"永康區","LI":"復國里","LIN":"29鄰","STREET":"復華二街","SECT":" ","MAREA":" ","LANE":"２３巷","ALLEY":" ","HOUSE_NO":"６號","E_COORD97":172579.39999999999,"N_COORD97":2545326.27,"ADDRESS":"復華二街２３巷６號","OBJECTID":225985},"geometry":{"x":172579.39999999944,"y":2545326.2699999996}},{"attributes":{"ID":225990,"DIS_CODE":0,"TOWNNAME":"永康區","LI":"復國里","LIN":"29鄰","STREET":"復華二街","SECT":" ","MAREA":" ","LANE":"２３巷","ALLEY":" ","HOUSE_NO":"３號","E_COORD97":172591.79999999999,"N_COORD97":2545327.27,"ADDRESS":"復華二街２３巷３號","OBJECTID":225986},"geometry":{"x":172591.80000000075,"y":2545327.2700000033}},{"attributes":{"ID":225991,"DIS_CODE":0,"TOWNNAME":"永康區","LI":"復國里","LIN":"29鄰","STREET":"復華二街","SECT":" ","MAREA":" ","LANE":"１３巷","ALLEY":" ","HOUSE_NO":"１號","E_COORD97":172629.85000000001,"N_COORD97":2545331.02,"ADDRESS":"復華二街１３巷１號","OBJECTID":225987},"geometry":{"x":172629.85000000149,"y":2545331.0199999996}},{"attributes":{"ID":225992,"DIS_CODE":0,"TOWNNAME":"永康區","LI":"勝利里","LIN":"29鄰","STREET":"勝利街","SECT":" ","MAREA":" ","LANE":"３２巷","ALLEY":" ","HOUSE_NO":"８號","E_COORD97":171371.75,"N_COORD97":2544577.2200000002,"ADDRESS":"勝利街３２巷８號","OBJECTID":225988},"geometry":{"x":171371.75000000093,"y":2544577.2200000025}},{"attributes":{"ID":225993,"DIS_CODE":0,"TOWNNAME":"永康區","LI":"勝利里","LIN":"29鄰","STREET":"勝利街","SECT":" ","MAREA":" ","LANE":"３２巷","ALLEY":" ","HOUSE_NO":"２號","E_COORD97":171362.70000000001,"N_COORD97":2544578.9700000002,"ADDRESS":"勝利街３２巷２號","OBJECTID":225989},"geometry":{"x":171362.70000000019,"y":2544578.9700000025}},{"attributes":{"ID":225994,"DIS_CODE":0,"TOWNNAME":"永康區","LI":"復國里","LIN":"29鄰","STREET":"復華二街","SECT":" ","MAREA":" ","LANE":"１３巷","ALLEY":" ","HOUSE_NO":"６號","E_COORD97":172617.14999999999,"N_COORD97":2545326.52,"ADDRESS":"復華二街１３巷６號","OBJECTID":225990},"geometry":{"x":172617.1500000013,"y":2545326.5200000014}},{"attributes":{"ID":225995,"DIS_CODE":0,"TOWNNAME":"永康區","LI":"勝利里","LIN":"29鄰","STREET":"勝利街","SECT":" ","MAREA":" ","LANE":"３２巷","ALLEY":" ","HOUSE_NO":"１３號","E_COORD97":171376.59,"N_COORD97":2544602.0800000001,"ADDRESS":"勝利街３２巷１３號","OBJECTID":225991},"geometry":{"x":171376.59000000078,"y":2544602.0800000001}},{"attributes":{"ID":225996,"DIS_CODE":0,"TOWNNAME":"永康區","LI":"復國里","LIN":"29鄰","STREET":"復華二街","SECT":" ","MAREA":" ","LANE":"１巷","ALLEY":" ","HOUSE_NO":"９號","E_COORD97":172684.92999999999,"N_COORD97":2545308.7799999998,"ADDRESS":"復華二街１巷９號","OBJECTID":225992},"geometry":{"x":172684.9299999997,"y":2545308.7799999993}},{"attributes":{"ID":225997,"DIS_CODE":0,"TOWNNAME":"永康區","LI":"網寮里","LIN":"22鄰","STREET":"永春街","SECT":" ","MAREA":" ","LANE":"２５巷","ALLEY":" ","HOUSE_NO":"１號","E_COORD97":173764.85000000001,"N_COORD97":2546277.2400000002,"ADDRESS":"永春街２５巷１號","OBJECTID":225993},"geometry":{"x":173764.84999999963,"y":2546277.2399999984}},{"attributes":{"ID":225998,"DIS_CODE":0,"TOWNNAME":"永康區","LI":"龍潭里","LIN":"22鄰","STREET":"龍橋街","SECT":" ","MAREA":" ","LANE":"１３０巷","ALLEY":" ","HOUSE_NO":"１１號","E_COORD97":174687.98999999999,"N_COORD97":2548657.9900000002,"ADDRESS":"龍橋街１３０巷１１號","OBJECTID":225994},"geometry":{"x":174687.99000000115,"y":2548657.9900000002}},{"attributes":{"ID":225999,"DIS_CODE":0,"TOWNNAME":"永康區","LI":"龍潭里","LIN":"22鄰","STREET":"龍橋街","SECT":" ","MAREA":" ","LANE":"１３０巷","ALLEY":" ","HOUSE_NO":"３號","E_COORD97":174670.17999999999,"N_COORD97":2548645.7400000002,"ADDRESS":"龍橋街１３０巷３號","OBJECTID":225995},"geometry":{"x":174670.1799999997,"y":2548645.7400000002}},{"attributes":{"ID":226000,"DIS_CODE":0,"TOWNNAME":"歸仁區","LI":"南保里","LIN":"34鄰","STREET":"民權八街","SECT":" ","MAREA":" ","LANE":" ","ALLEY":" ","HOUSE_NO":"９４號","E_COORD97":176736.91,"N_COORD97":2541045.25,"ADDRESS":"民權八街９４號","OBJECTID":225996},"geometry":{"x":176736.91000000015,"y":2541045.25}},{"attributes":{"ID":226001,"DIS_CODE":0,"TOWNNAME":"歸仁區","LI":"南保里","LIN":"34鄰","STREET":"民權八街","SECT":" ","MAREA":" ","LANE":" ","ALLEY":" ","HOUSE_NO":"１０６號","E_COORD97":176738.26000000001,"N_COORD97":2541071.25,"ADDRESS":"民權八街１０６號","OBJECTID":225997},"geometry":{"x":176738.26000000071,"y":2541071.25}},{"attributes":{"ID":226002,"DIS_CODE":0,"TOWNNAME":"歸仁區","LI":"南保里","LIN":"34鄰","STREET":"民權八街","SECT":" ","MAREA":" ","LANE":" ","ALLEY":" ","HOUSE_NO":"９５號","E_COORD97":176721.60999999999,"N_COORD97":2541059.25,"ADDRESS":"民權八街９５號","OBJECTID":225998},"geometry":{"x":176721.61000000127,"y":2541059.2500000037}},{"attributes":{"ID":226003,"DIS_CODE":0,"TOWNNAME":"歸仁區","LI":"南保里","LIN":"34鄰","STREET":"民權八街","SECT":" ","MAREA":" ","LANE":" ","ALLEY":" ","HOUSE_NO":"１０５號","E_COORD97":176722.95999999999,"N_COORD97":2541081.25,"ADDRESS":"民權八街１０５號","OBJECTID":225999},"geometry":{"x":176722.95999999996,"y":2541081.2500000019}},{"attributes":{"ID":226004,"DIS_CODE":0,"TOWNNAME":"歸仁區","LI":"南興里","LIN":"34鄰","STREET":"文化九街","SECT":" ","MAREA":" ","LANE":" ","ALLEY":" ","HOUSE_NO":"４６號","E_COORD97":176336.12,"N_COORD97":2541075.2599999998,"ADDRESS":"文化九街４６號","OBJECTID":226000},"geometry":{"x":176336.12000000104,"y":2541075.2599999998}}]}