{"displayFieldName":"TOWNNAME","fieldAliases":{"ID":"ID","DIS_CODE":"DIS_CODE","TOWNNAME":"TOWNNAME","LI":"LI","LIN":"LIN","STREET":"STREET","SECT":"SECT","MAREA":"MAREA","LANE":"LANE","ALLEY":"ALLEY","HOUSE_NO":"HOUSE_NO","E_COORD97":"E_COORD97","N_COORD97":"N_COORD97","ADDRESS":"ADDRESS","OBJECTID":"OBJECTID"},"geometryType":"esriGeometryPoint","spatialReference":{"wkid":102443,"latestWkid":3826},"fields":[{"name":"ID","type":"esriFieldTypeDouble","alias":"ID"},{"name":"DIS_CODE","type":"esriFieldTypeInteger","alias":"DIS_CODE"},{"name":"TOWNNAME","type":"esriFieldTypeString","alias":"TOWNNAME","length":8},{"name":"LI","type":"esriFieldTypeString","alias":"LI","length":8},{"name":"LIN","type":"esriFieldTypeString","alias":"LIN","length":12},{"name":"STREET","type":"esriFieldTypeString","alias":"STREET","length":20},{"name":"SECT","type":"esriFieldTypeString","alias":"SECT","length":8},{"name":"MAREA","type":"esriFieldTypeString","alias":"MAREA","length":12},{"name":"LANE","type":"esriFieldTypeString","alias":"LANE","length":10},{"name":"ALLEY","type":"esriFieldTypeString","alias":"ALLEY","length":10},{"name":"HOUSE_NO","type":"esriFieldTypeString","alias":"HOUSE_NO","length":20},{"name":"E_COORD97","type":"esriFieldTypeDouble","alias":"E_COORD97"},{"name":"N_COORD97","type":"esriFieldTypeDouble","alias":"N_COORD97"},{"name":"ADDRESS","type":"esriFieldTypeString","alias":"ADDRESS","length":50},{"name":"OBJECTID","type":"esriFieldTypeOID","alias":"OBJECTID"}],"features":[{"attributes":{"ID":613628,"DIS_CODE":0,"TOWNNAME":"安平區","LI":"建平里","LIN":"2鄰","STREET":"建平十七街","SECT":" ","MAREA":" ","LANE":" ","ALLEY":" ","HOUSE_NO":"４３號十樓之１０","E_COORD97":166197.94,"N_COORD97":2544207.8599999999,"ADDRESS":"建平十七街４３號十樓之１０","OBJECTID":613601},"geometry":{"x":166197.94000000041,"y":2544207.8600000031}},{"attributes":{"ID":613629,"DIS_CODE":0,"TOWNNAME":"安平區","LI":"建平里","LIN":"2鄰","STREET":"建平十七街","SECT":" ","MAREA":" ","LANE":" ","ALLEY":" ","HOUSE_NO":"４３號十樓之１１","E_COORD97":166197.94,"N_COORD97":2544207.8599999999,"ADDRESS":"建平十七街４３號十樓之１１","OBJECTID":613602},"geometry":{"x":166197.94000000041,"y":2544207.8600000031}},{"attributes":{"ID":613630,"DIS_CODE":0,"TOWNNAME":"安平區","LI":"建平里","LIN":"2鄰","STREET":"建平十七街","SECT":" ","MAREA":" ","LANE":" ","ALLEY":" ","HOUSE_NO":"４３號十樓之１２","E_COORD97":166197.94,"N_COORD97":2544207.8599999999,"ADDRESS":"建平十七街４３號十樓之１２","OBJECTID":613603},"geometry":{"x":166197.94000000041,"y":2544207.8600000031}},{"attributes":{"ID":613631,"DIS_CODE":0,"TOWNNAME":"安平區","LI":"建平里","LIN":"2鄰","STREET":"建平十七街","SECT":" ","MAREA":" ","LANE":" ","ALLEY":" ","HOUSE_NO":"４３號十樓之２","E_COORD97":166197.94,"N_COORD97":2544207.8599999999,"ADDRESS":"建平十七街４３號十樓之２","OBJECTID":613604},"geometry":{"x":166197.94000000041,"y":2544207.8600000031}},{"attributes":{"ID":613632,"DIS_CODE":0,"TOWNNAME":"安平區","LI":"建平里","LIN":"2鄰","STREET":"建平十七街","SECT":" ","MAREA":" ","LANE":" ","ALLEY":" ","HOUSE_NO":"４３號十樓之３","E_COORD97":166197.94,"N_COORD97":2544207.8599999999,"ADDRESS":"建平十七街４３號十樓之３","OBJECTID":613605},"geometry":{"x":166197.94000000041,"y":2544207.8600000031}},{"attributes":{"ID":613633,"DIS_CODE":0,"TOWNNAME":"安平區","LI":"建平里","LIN":"2鄰","STREET":"建平十七街","SECT":" ","MAREA":" ","LANE":" ","ALLEY":" ","HOUSE_NO":"４３號十樓之４","E_COORD97":166197.94,"N_COORD97":2544207.8599999999,"ADDRESS":"建平十七街４３號十樓之４","OBJECTID":613606},"geometry":{"x":166197.94000000041,"y":2544207.8600000031}},{"attributes":{"ID":613634,"DIS_CODE":0,"TOWNNAME":"安平區","LI":"建平里","LIN":"2鄰","STREET":"建平十七街","SECT":" ","MAREA":" ","LANE":" ","ALLEY":" ","HOUSE_NO":"４３號十樓之５","E_COORD97":166197.94,"N_COORD97":2544207.8599999999,"ADDRESS":"建平十七街４３號十樓之５","OBJECTID":613607},"geometry":{"x":166197.94000000041,"y":2544207.8600000031}},{"attributes":{"ID":613635,"DIS_CODE":0,"TOWNNAME":"安平區","LI":"建平里","LIN":"2鄰","STREET":"建平十七街","SECT":" ","MAREA":" ","LANE":" ","ALLEY":" ","HOUSE_NO":"４３號十樓之６","E_COORD97":166197.94,"N_COORD97":2544207.8599999999,"ADDRESS":"建平十七街４３號十樓之６","OBJECTID":613608},"geometry":{"x":166197.94000000041,"y":2544207.8600000031}},{"attributes":{"ID":613636,"DIS_CODE":0,"TOWNNAME":"安平區","LI":"建平里","LIN":"2鄰","STREET":"建平十七街","SECT":" ","MAREA":" ","LANE":" ","ALLEY":" ","HOUSE_NO":"４３號三樓之１","E_COORD97":166197.94,"N_COORD97":2544207.8599999999,"ADDRESS":"建平十七街４３號三樓之１","OBJECTID":613609},"geometry":{"x":166197.94000000041,"y":2544207.8600000031}},{"attributes":{"ID":613637,"DIS_CODE":0,"TOWNNAME":"安平區","LI":"建平里","LIN":"2鄰","STREET":"建平十七街","SECT":" ","MAREA":" ","LANE":" ","ALLEY":" ","HOUSE_NO":"４３號三樓之１０","E_COORD97":166197.94,"N_COORD97":2544207.8599999999,"ADDRESS":"建平十七街４３號三樓之１０","OBJECTID":613610},"geometry":{"x":166197.94000000041,"y":2544207.8600000031}},{"attributes":{"ID":613638,"DIS_CODE":0,"TOWNNAME":"安平區","LI":"建平里","LIN":"2鄰","STREET":"建平十七街","SECT":" ","MAREA":" ","LANE":" ","ALLEY":" ","HOUSE_NO":"４３號三樓之１１","E_COORD97":166197.94,"N_COORD97":2544207.8599999999,"ADDRESS":"建平十七街４３號三樓之１１","OBJECTID":613611},"geometry":{"x":166197.94000000041,"y":2544207.8600000031}},{"attributes":{"ID":613639,"DIS_CODE":0,"TOWNNAME":"安平區","LI":"建平里","LIN":"2鄰","STREET":"建平十七街","SECT":" ","MAREA":" ","LANE":" ","ALLEY":" ","HOUSE_NO":"４３號三樓之１２","E_COORD97":166197.94,"N_COORD97":2544207.8599999999,"ADDRESS":"建平十七街４３號三樓之１２","OBJECTID":613612},"geometry":{"x":166197.94000000041,"y":2544207.8600000031}},{"attributes":{"ID":613640,"DIS_CODE":0,"TOWNNAME":"安平區","LI":"建平里","LIN":"2鄰","STREET":"建平十七街","SECT":" ","MAREA":" ","LANE":" ","ALLEY":" ","HOUSE_NO":"４３號三樓之２","E_COORD97":166197.94,"N_COORD97":2544207.8599999999,"ADDRESS":"建平十七街４３號三樓之２","OBJECTID":613613},"geometry":{"x":166197.94000000041,"y":2544207.8600000031}},{"attributes":{"ID":613641,"DIS_CODE":0,"TOWNNAME":"安平區","LI":"建平里","LIN":"2鄰","STREET":"建平十七街","SECT":" ","MAREA":" ","LANE":" ","ALLEY":" ","HOUSE_NO":"４３號三樓之３","E_COORD97":166197.94,"N_COORD97":2544207.8599999999,"ADDRESS":"建平十七街４３號三樓之３","OBJECTID":613614},"geometry":{"x":166197.94000000041,"y":2544207.8600000031}},{"attributes":{"ID":613642,"DIS_CODE":0,"TOWNNAME":"安平區","LI":"建平里","LIN":"2鄰","STREET":"建平十七街","SECT":" ","MAREA":" ","LANE":" ","ALLEY":" ","HOUSE_NO":"４３號三樓之４","E_COORD97":166197.94,"N_COORD97":2544207.8599999999,"ADDRESS":"建平十七街４３號三樓之４","OBJECTID":613615},"geometry":{"x":166197.94000000041,"y":2544207.8600000031}},{"attributes":{"ID":613643,"DIS_CODE":0,"TOWNNAME":"安平區","LI":"建平里","LIN":"2鄰","STREET":"建平十七街","SECT":" ","MAREA":" ","LANE":" ","ALLEY":" ","HOUSE_NO":"４３號三樓之５","E_COORD97":166197.94,"N_COORD97":2544207.8599999999,"ADDRESS":"建平十七街４３號三樓之５","OBJECTID":613616},"geometry":{"x":166197.94000000041,"y":2544207.8600000031}},{"attributes":{"ID":613644,"DIS_CODE":0,"TOWNNAME":"安平區","LI":"建平里","LIN":"2鄰","STREET":"建平十七街","SECT":" ","MAREA":" ","LANE":" ","ALLEY":" ","HOUSE_NO":"４３號三樓之６","E_COORD97":166197.94,"N_COORD97":2544207.8599999999,"ADDRESS":"建平十七街４３號三樓之６","OBJECTID":613617},"geometry":{"x":166197.94000000041,"y":2544207.8600000031}},{"attributes":{"ID":613645,"DIS_CODE":0,"TOWNNAME":"安平區","LI":"建平里","LIN":"2鄰","STREET":"建平十七街","SECT":" ","MAREA":" ","LANE":" ","ALLEY":" ","HOUSE_NO":"４３號三樓之７","E_COORD97":166197.94,"N_COORD97":2544207.8599999999,"ADDRESS":"建平十七街４３號三樓之７","OBJECTID":613618},"geometry":{"x":166197.94000000041,"y":2544207.8600000031}},{"attributes":{"ID":613646,"DIS_CODE":0,"TOWNNAME":"安平區","LI":"建平里","LIN":"2鄰","STREET":"建平十七街","SECT":" ","MAREA":" ","LANE":" ","ALLEY":" ","HOUSE_NO":"４３號三樓之８","E_COORD97":166197.94,"N_COORD97":2544207.8599999999,"ADDRESS":"建平十七街４３號三樓之８","OBJECTID":613619},"geometry":{"x":166197.94000000041,"y":2544207.8600000031}},{"attributes":{"ID":613647,"DIS_CODE":0,"TOWNNAME":"安平區","LI":"建平里","LIN":"2鄰","STREET":"建平十七街","SECT":" ","MAREA":" ","LANE":" ","ALLEY":" ","HOUSE_NO":"４３號三樓之９","E_COORD97":166197.94,"N_COORD97":2544207.8599999999,"ADDRESS":"建平十七街４３號三樓之９","OBJECTID":613620},"geometry":{"x":166197.94000000041,"y":2544207.8600000031}},{"attributes":{"ID":613648,"DIS_CODE":0,"TOWNNAME":"永康區","LI":"西橋里","LIN":"24鄰","STREET":"中華西街","SECT":" ","MAREA":" ","LANE":" ","ALLEY":" ","HOUSE_NO":"２７９號","E_COORD97":170701.48999999999,"N_COORD97":2546478.48,"ADDRESS":"中華西街２７９號","OBJECTID":613621},"geometry":{"x":170701.49000000022,"y":2546478.4800000004}},{"attributes":{"ID":613649,"DIS_CODE":0,"TOWNNAME":"永康區","LI":"正強里","LIN":"11鄰","STREET":"正強街","SECT":" ","MAREA":" ","LANE":" ","ALLEY":" ","HOUSE_NO":"１４８號","E_COORD97":173340.88,"N_COORD97":2547466.3399999999,"ADDRESS":"正強街１４８號","OBJECTID":613622},"geometry":{"x":173340.88000000082,"y":2547466.3400000036}},{"attributes":{"ID":613650,"DIS_CODE":0,"TOWNNAME":"安平區","LI":"建平里","LIN":"2鄰","STREET":"建平十七街","SECT":" ","MAREA":" ","LANE":" ","ALLEY":" ","HOUSE_NO":"４３號五樓之１","E_COORD97":166197.94,"N_COORD97":2544207.8599999999,"ADDRESS":"建平十七街４３號五樓之１","OBJECTID":613623},"geometry":{"x":166197.94000000041,"y":2544207.8600000031}},{"attributes":{"ID":613651,"DIS_CODE":0,"TOWNNAME":"安平區","LI":"建平里","LIN":"2鄰","STREET":"建平十七街","SECT":" ","MAREA":" ","LANE":" ","ALLEY":" ","HOUSE_NO":"４３號五樓之１０","E_COORD97":166197.94,"N_COORD97":2544207.8599999999,"ADDRESS":"建平十七街４３號五樓之１０","OBJECTID":613624},"geometry":{"x":166197.94000000041,"y":2544207.8600000031}},{"attributes":{"ID":613652,"DIS_CODE":0,"TOWNNAME":"安平區","LI":"建平里","LIN":"2鄰","STREET":"建平十七街","SECT":" ","MAREA":" ","LANE":" ","ALLEY":" ","HOUSE_NO":"４３號五樓之１１","E_COORD97":166197.94,"N_COORD97":2544207.8599999999,"ADDRESS":"建平十七街４３號五樓之１１","OBJECTID":613625},"geometry":{"x":166197.94000000041,"y":2544207.8600000031}},{"attributes":{"ID":613653,"DIS_CODE":0,"TOWNNAME":"安平區","LI":"建平里","LIN":"2鄰","STREET":"建平十七街","SECT":" ","MAREA":" ","LANE":" ","ALLEY":" ","HOUSE_NO":"４３號五樓之１２","E_COORD97":166197.94,"N_COORD97":2544207.8599999999,"ADDRESS":"建平十七街４３號五樓之１２","OBJECTID":613626},"geometry":{"x":166197.94000000041,"y":2544207.8600000031}},{"attributes":{"ID":613654,"DIS_CODE":0,"TOWNNAME":"安平區","LI":"建平里","LIN":"2鄰","STREET":"建平十七街","SECT":" ","MAREA":" ","LANE":" ","ALLEY":" ","HOUSE_NO":"４３號五樓之２","E_COORD97":166197.94,"N_COORD97":2544207.8599999999,"ADDRESS":"建平十七街４３號五樓之２","OBJECTID":613627},"geometry":{"x":166197.94000000041,"y":2544207.8600000031}},{"attributes":{"ID":613655,"DIS_CODE":0,"TOWNNAME":"安平區","LI":"建平里","LIN":"2鄰","STREET":"建平十七街","SECT":" ","MAREA":" ","LANE":" ","ALLEY":" ","HOUSE_NO":"４３號五樓之３","E_COORD97":166197.94,"N_COORD97":2544207.8599999999,"ADDRESS":"建平十七街４３號五樓之３","OBJECTID":613628},"geometry":{"x":166197.94000000041,"y":2544207.8600000031}},{"attributes":{"ID":613656,"DIS_CODE":0,"TOWNNAME":"安平區","LI":"建平里","LIN":"2鄰","STREET":"建平十七街","SECT":" ","MAREA":" ","LANE":" ","ALLEY":" ","HOUSE_NO":"４３號五樓之４","E_COORD97":166197.94,"N_COORD97":2544207.8599999999,"ADDRESS":"建平十七街４３號五樓之４","OBJECTID":613629},"geometry":{"x":166197.94000000041,"y":2544207.8600000031}},{"attributes":{"ID":613657,"DIS_CODE":0,"TOWNNAME":"安平區","LI":"建平里","LIN":"2鄰","STREET":"建平十七街","SECT":" ","MAREA":" ","LANE":" ","ALLEY":" ","HOUSE_NO":"４３號五樓之５","E_COORD97":166197.94,"N_COORD97":2544207.8599999999,"ADDRESS":"建平十七街４３號五樓之５","OBJECTID":613630},"geometry":{"x":166197.94000000041,"y":2544207.8600000031}},{"attributes":{"ID":613658,"DIS_CODE":0,"TOWNNAME":"安平區","LI":"建平里","LIN":"2鄰","STREET":"建平十七街","SECT":" ","MAREA":" ","LANE":" ","ALLEY":" ","HOUSE_NO":"４３號五樓之６","E_COORD97":166197.94,"N_COORD97":2544207.8599999999,"ADDRESS":"建平十七街４３號五樓之６","OBJECTID":613631},"geometry":{"x":166197.94000000041,"y":2544207.8600000031}},{"attributes":{"ID":613659,"DIS_CODE":0,"TOWNNAME":"安平區","LI":"建平里","LIN":"2鄰","STREET":"建平十七街","SECT":" ","MAREA":" ","LANE":" ","ALLEY":" ","HOUSE_NO":"４３號五樓之８","E_COORD97":166197.94,"N_COORD97":2544207.8599999999,"ADDRESS":"建平十七街４３號五樓之８","OBJECTID":613632},"geometry":{"x":166197.94000000041,"y":2544207.8600000031}},{"attributes":{"ID":613660,"DIS_CODE":0,"TOWNNAME":"安平區","LI":"建平里","LIN":"2鄰","STREET":"建平十七街","SECT":" ","MAREA":" ","LANE":" ","ALLEY":" ","HOUSE_NO":"４３號五樓之９","E_COORD97":166197.94,"N_COORD97":2544207.8599999999,"ADDRESS":"建平十七街４３號五樓之９","OBJECTID":613633},"geometry":{"x":166197.94000000041,"y":2544207.8600000031}},{"attributes":{"ID":613661,"DIS_CODE":0,"TOWNNAME":"安平區","LI":"建平里","LIN":"2鄰","STREET":"建平十七街","SECT":" ","MAREA":" ","LANE":" ","ALLEY":" ","HOUSE_NO":"４３號六樓之１","E_COORD97":166197.94,"N_COORD97":2544207.8599999999,"ADDRESS":"建平十七街４３號六樓之１","OBJECTID":613634},"geometry":{"x":166197.94000000041,"y":2544207.8600000031}},{"attributes":{"ID":613662,"DIS_CODE":0,"TOWNNAME":"永康區","LI":"西勢里","LIN":"21鄰","STREET":"富強路","SECT":"一段","MAREA":" ","LANE":" ","ALLEY":" ","HOUSE_NO":"１０１號","E_COORD97":175485.42000000001,"N_COORD97":2546209.6899999999,"ADDRESS":"富強路一段１０１號","OBJECTID":613635},"geometry":{"x":175485.41999999993,"y":2546209.6900000013}},{"attributes":{"ID":613663,"DIS_CODE":0,"TOWNNAME":"安平區","LI":"建平里","LIN":"2鄰","STREET":"建平十七街","SECT":" ","MAREA":" ","LANE":" ","ALLEY":" ","HOUSE_NO":"４３號六樓之１０","E_COORD97":166197.94,"N_COORD97":2544207.8599999999,"ADDRESS":"建平十七街４３號六樓之１０","OBJECTID":613636},"geometry":{"x":166197.94000000041,"y":2544207.8600000031}},{"attributes":{"ID":613664,"DIS_CODE":0,"TOWNNAME":"安平區","LI":"建平里","LIN":"2鄰","STREET":"建平十七街","SECT":" ","MAREA":" ","LANE":" ","ALLEY":" ","HOUSE_NO":"４３號六樓之１１","E_COORD97":166197.94,"N_COORD97":2544207.8599999999,"ADDRESS":"建平十七街４３號六樓之１１","OBJECTID":613637},"geometry":{"x":166197.94000000041,"y":2544207.8600000031}},{"attributes":{"ID":613665,"DIS_CODE":0,"TOWNNAME":"安平區","LI":"建平里","LIN":"2鄰","STREET":"建平十七街","SECT":" ","MAREA":" ","LANE":" ","ALLEY":" ","HOUSE_NO":"４３號六樓之１２","E_COORD97":166197.94,"N_COORD97":2544207.8599999999,"ADDRESS":"建平十七街４３號六樓之１２","OBJECTID":613638},"geometry":{"x":166197.94000000041,"y":2544207.8600000031}},{"attributes":{"ID":613666,"DIS_CODE":0,"TOWNNAME":"安平區","LI":"建平里","LIN":"2鄰","STREET":"建平十七街","SECT":" ","MAREA":" ","LANE":" ","ALLEY":" ","HOUSE_NO":"４３號六樓之２","E_COORD97":166197.94,"N_COORD97":2544207.8599999999,"ADDRESS":"建平十七街４３號六樓之２","OBJECTID":613639},"geometry":{"x":166197.94000000041,"y":2544207.8600000031}},{"attributes":{"ID":613667,"DIS_CODE":0,"TOWNNAME":"安平區","LI":"建平里","LIN":"2鄰","STREET":"建平十七街","SECT":" ","MAREA":" ","LANE":" ","ALLEY":" ","HOUSE_NO":"４３號六樓之３","E_COORD97":166197.94,"N_COORD97":2544207.8599999999,"ADDRESS":"建平十七街４３號六樓之３","OBJECTID":613640},"geometry":{"x":166197.94000000041,"y":2544207.8600000031}},{"attributes":{"ID":613668,"DIS_CODE":0,"TOWNNAME":"安平區","LI":"建平里","LIN":"2鄰","STREET":"建平十七街","SECT":" ","MAREA":" ","LANE":" ","ALLEY":" ","HOUSE_NO":"４３號六樓之４","E_COORD97":166197.94,"N_COORD97":2544207.8599999999,"ADDRESS":"建平十七街４３號六樓之４","OBJECTID":613641},"geometry":{"x":166197.94000000041,"y":2544207.8600000031}},{"attributes":{"ID":613669,"DIS_CODE":0,"TOWNNAME":"中西區","LI":"銀同里","LIN":"14鄰","STREET":"青年路","SECT":" ","MAREA":" ","LANE":" ","ALLEY":" ","HOUSE_NO":"７０號","E_COORD97":168746.20000000001,"N_COORD97":2543621.6600000001,"ADDRESS":"青年路７０號","OBJECTID":613642},"geometry":{"x":168746.20000000205,"y":2543621.6600000001}},{"attributes":{"ID":613670,"DIS_CODE":0,"TOWNNAME":"安平區","LI":"建平里","LIN":"2鄰","STREET":"建平十七街","SECT":" ","MAREA":" ","LANE":" ","ALLEY":" ","HOUSE_NO":"４３號六樓之５","E_COORD97":166197.94,"N_COORD97":2544207.8599999999,"ADDRESS":"建平十七街４３號六樓之５","OBJECTID":613643},"geometry":{"x":166197.94000000041,"y":2544207.8600000031}},{"attributes":{"ID":613671,"DIS_CODE":0,"TOWNNAME":"安平區","LI":"建平里","LIN":"2鄰","STREET":"建平十七街","SECT":" ","MAREA":" ","LANE":" ","ALLEY":" ","HOUSE_NO":"４３號六樓之６","E_COORD97":166197.94,"N_COORD97":2544207.8599999999,"ADDRESS":"建平十七街４３號六樓之６","OBJECTID":613644},"geometry":{"x":166197.94000000041,"y":2544207.8600000031}},{"attributes":{"ID":613672,"DIS_CODE":0,"TOWNNAME":"安平區","LI":"建平里","LIN":"2鄰","STREET":"建平十七街","SECT":" ","MAREA":" ","LANE":" ","ALLEY":" ","HOUSE_NO":"４３號六樓之７","E_COORD97":166197.94,"N_COORD97":2544207.8599999999,"ADDRESS":"建平十七街４３號六樓之７","OBJECTID":613645},"geometry":{"x":166197.94000000041,"y":2544207.8600000031}},{"attributes":{"ID":613673,"DIS_CODE":0,"TOWNNAME":"安平區","LI":"建平里","LIN":"2鄰","STREET":"建平十七街","SECT":" ","MAREA":" ","LANE":" ","ALLEY":" ","HOUSE_NO":"４３號六樓之８","E_COORD97":166197.94,"N_COORD97":2544207.8599999999,"ADDRESS":"建平十七街４３號六樓之８","OBJECTID":613646},"geometry":{"x":166197.94000000041,"y":2544207.8600000031}},{"attributes":{"ID":613674,"DIS_CODE":0,"TOWNNAME":"安平區","LI":"建平里","LIN":"2鄰","STREET":"建平十七街","SECT":" ","MAREA":" ","LANE":" ","ALLEY":" ","HOUSE_NO":"４３號六樓之９","E_COORD97":166197.94,"N_COORD97":2544207.8599999999,"ADDRESS":"建平十七街４３號六樓之９","OBJECTID":613647},"geometry":{"x":166197.94000000041,"y":2544207.8600000031}},{"attributes":{"ID":613675,"DIS_CODE":0,"TOWNNAME":"安平區","LI":"建平里","LIN":"2鄰","STREET":"建平十七街","SECT":" ","MAREA":" ","LANE":" ","ALLEY":" ","HOUSE_NO":"４３號四樓之１","E_COORD97":166197.94,"N_COORD97":2544207.8599999999,"ADDRESS":"建平十七街４３號四樓之１","OBJECTID":613648},"geometry":{"x":166197.94000000041,"y":2544207.8600000031}},{"attributes":{"ID":613676,"DIS_CODE":0,"TOWNNAME":"安平區","LI":"建平里","LIN":"2鄰","STREET":"建平十七街","SECT":" ","MAREA":" ","LANE":" ","ALLEY":" ","HOUSE_NO":"４３號四樓之１０","E_COORD97":166197.94,"N_COORD97":2544207.8599999999,"ADDRESS":"建平十七街４３號四樓之１０","OBJECTID":613649},"geometry":{"x":166197.94000000041,"y":2544207.8600000031}},{"attributes":{"ID":613677,"DIS_CODE":0,"TOWNNAME":"安平區","LI":"建平里","LIN":"2鄰","STREET":"建平十七街","SECT":" ","MAREA":" ","LANE":" ","ALLEY":" ","HOUSE_NO":"４３號四樓之１１","E_COORD97":166197.94,"N_COORD97":2544207.8599999999,"ADDRESS":"建平十七街４３號四樓之１１","OBJECTID":613650},"geometry":{"x":166197.94000000041,"y":2544207.8600000031}},{"attributes":{"ID":613678,"DIS_CODE":0,"TOWNNAME":"安平區","LI":"建平里","LIN":"2鄰","STREET":"建平十七街","SECT":" ","MAREA":" ","LANE":" ","ALLEY":" ","HOUSE_NO":"４３號四樓之１２","E_COORD97":166197.94,"N_COORD97":2544207.8599999999,"ADDRESS":"建平十七街４３號四樓之１２","OBJECTID":613651},"geometry":{"x":166197.94000000041,"y":2544207.8600000031}},{"attributes":{"ID":613679,"DIS_CODE":0,"TOWNNAME":"安平區","LI":"建平里","LIN":"2鄰","STREET":"建平十七街","SECT":" ","MAREA":" ","LANE":" ","ALLEY":" ","HOUSE_NO":"４３號四樓之２","E_COORD97":166197.94,"N_COORD97":2544207.8599999999,"ADDRESS":"建平十七街４３號四樓之２","OBJECTID":613652},"geometry":{"x":166197.94000000041,"y":2544207.8600000031}},{"attributes":{"ID":613680,"DIS_CODE":0,"TOWNNAME":"安平區","LI":"建平里","LIN":"2鄰","STREET":"建平十七街","SECT":" ","MAREA":" ","LANE":" ","ALLEY":" ","HOUSE_NO":"４３號四樓之３","E_COORD97":166197.94,"N_COORD97":2544207.8599999999,"ADDRESS":"建平十七街４３號四樓之３","OBJECTID":613653},"geometry":{"x":166197.94000000041,"y":2544207.8600000031}},{"attributes":{"ID":613681,"DIS_CODE":0,"TOWNNAME":"安平區","LI":"建平里","LIN":"2鄰","STREET":"建平十七街","SECT":" ","MAREA":" ","LANE":" ","ALLEY":" ","HOUSE_NO":"４３號四樓之４","E_COORD97":166197.94,"N_COORD97":2544207.8599999999,"ADDRESS":"建平十七街４３號四樓之４","OBJECTID":613654},"geometry":{"x":166197.94000000041,"y":2544207.8600000031}},{"attributes":{"ID":613682,"DIS_CODE":0,"TOWNNAME":"安平區","LI":"建平里","LIN":"2鄰","STREET":"建平十七街","SECT":" ","MAREA":" ","LANE":" ","ALLEY":" ","HOUSE_NO":"４３號四樓之５","E_COORD97":166197.94,"N_COORD97":2544207.8599999999,"ADDRESS":"建平十七街４３號四樓之５","OBJECTID":613655},"geometry":{"x":166197.94000000041,"y":2544207.8600000031}},{"attributes":{"ID":613683,"DIS_CODE":0,"TOWNNAME":"安平區","LI":"建平里","LIN":"2鄰","STREET":"建平十七街","SECT":" ","MAREA":" ","LANE":" ","ALLEY":" ","HOUSE_NO":"４３號四樓之６","E_COORD97":166197.94,"N_COORD97":2544207.8599999999,"ADDRESS":"建平十七街４３號四樓之６","OBJECTID":613656},"geometry":{"x":166197.94000000041,"y":2544207.8600000031}},{"attributes":{"ID":613684,"DIS_CODE":0,"TOWNNAME":"安平區","LI":"建平里","LIN":"2鄰","STREET":"建平十七街","SECT":" ","MAREA":" ","LANE":" ","ALLEY":" ","HOUSE_NO":"４３號四樓之７","E_COORD97":166197.94,"N_COORD97":2544207.8599999999,"ADDRESS":"建平十七街４３號四樓之７","OBJECTID":613657},"geometry":{"x":166197.94000000041,"y":2544207.8600000031}},{"attributes":{"ID":613685,"DIS_CODE":0,"TOWNNAME":"安平區","LI":"建平里","LIN":"2鄰","STREET":"建平十七街","SECT":" ","MAREA":" ","LANE":" ","ALLEY":" ","HOUSE_NO":"４３號四樓之８","E_COORD97":166197.94,"N_COORD97":2544207.8599999999,"ADDRESS":"建平十七街４３號四樓之８","OBJECTID":613658},"geometry":{"x":166197.94000000041,"y":2544207.8600000031}},{"attributes":{"ID":613686,"DIS_CODE":0,"TOWNNAME":"安平區","LI":"建平里","LIN":"2鄰","STREET":"建平十七街","SECT":" ","MAREA":" ","LANE":" ","ALLEY":" ","HOUSE_NO":"４３號四樓之９","E_COORD97":166197.94,"N_COORD97":2544207.8599999999,"ADDRESS":"建平十七街４３號四樓之９","OBJECTID":613659},"geometry":{"x":166197.94000000041,"y":2544207.8600000031}},{"attributes":{"ID":613687,"DIS_CODE":0,"TOWNNAME":"永康區","LI":"永康里","LIN":"31鄰","STREET":"永大路","SECT":"三段","MAREA":" ","LANE":" ","ALLEY":" ","HOUSE_NO":"１０２號","E_COORD97":174182.76000000001,"N_COORD97":2547853.7999999998,"ADDRESS":"永大路三段１０２號","OBJECTID":613660},"geometry":{"x":174182.75999999978,"y":2547853.8000000007}},{"attributes":{"ID":613688,"DIS_CODE":0,"TOWNNAME":"北區","LI":"和順里","LIN":"2鄰","STREET":"西門路","SECT":"三段","MAREA":" ","LANE":" ","ALLEY":" ","HOUSE_NO":"１５５號六樓之１","E_COORD97":168379.76000000001,"N_COORD97":2544890.1499999999,"ADDRESS":"西門路三段１５５號六樓之１","OBJECTID":613661},"geometry":{"x":168379.76000000071,"y":2544890.1500000004}},{"attributes":{"ID":613689,"DIS_CODE":0,"TOWNNAME":"北區","LI":"和順里","LIN":"2鄰","STREET":"西門路","SECT":"三段","MAREA":" ","LANE":" ","ALLEY":" ","HOUSE_NO":"１５５號六樓之２","E_COORD97":168379.76000000001,"N_COORD97":2544890.1499999999,"ADDRESS":"西門路三段１５５號六樓之２","OBJECTID":613662},"geometry":{"x":168379.76000000071,"y":2544890.1500000004}},{"attributes":{"ID":613690,"DIS_CODE":0,"TOWNNAME":"北區","LI":"和順里","LIN":"2鄰","STREET":"西門路","SECT":"三段","MAREA":" ","LANE":" ","ALLEY":" ","HOUSE_NO":"１５５號六樓之３","E_COORD97":168379.76000000001,"N_COORD97":2544890.1499999999,"ADDRESS":"西門路三段１５５號六樓之３","OBJECTID":613663},"geometry":{"x":168379.76000000071,"y":2544890.1500000004}},{"attributes":{"ID":613691,"DIS_CODE":0,"TOWNNAME":"北區","LI":"和順里","LIN":"2鄰","STREET":"西門路","SECT":"三段","MAREA":" ","LANE":" ","ALLEY":" ","HOUSE_NO":"１５５號六樓之５","E_COORD97":168379.76000000001,"N_COORD97":2544890.1499999999,"ADDRESS":"西門路三段１５５號六樓之５","OBJECTID":613664},"geometry":{"x":168379.76000000071,"y":2544890.1500000004}},{"attributes":{"ID":613692,"DIS_CODE":0,"TOWNNAME":"北區","LI":"和順里","LIN":"2鄰","STREET":"西門路","SECT":"三段","MAREA":" ","LANE":" ","ALLEY":" ","HOUSE_NO":"１５５號七樓之１","E_COORD97":168379.76000000001,"N_COORD97":2544890.1499999999,"ADDRESS":"西門路三段１５５號七樓之１","OBJECTID":613665},"geometry":{"x":168379.76000000071,"y":2544890.1500000004}},{"attributes":{"ID":613693,"DIS_CODE":0,"TOWNNAME":"北區","LI":"和順里","LIN":"2鄰","STREET":"西門路","SECT":"三段","MAREA":" ","LANE":" ","ALLEY":" ","HOUSE_NO":"１５５號七樓之２","E_COORD97":168379.76000000001,"N_COORD97":2544890.1499999999,"ADDRESS":"西門路三段１５５號七樓之２","OBJECTID":613666},"geometry":{"x":168379.76000000071,"y":2544890.1500000004}},{"attributes":{"ID":613694,"DIS_CODE":0,"TOWNNAME":"北區","LI":"和順里","LIN":"2鄰","STREET":"西門路","SECT":"三段","MAREA":" ","LANE":" ","ALLEY":" ","HOUSE_NO":"１５５號七樓之３","E_COORD97":168379.76000000001,"N_COORD97":2544890.1499999999,"ADDRESS":"西門路三段１５５號七樓之３","OBJECTID":613667},"geometry":{"x":168379.76000000071,"y":2544890.1500000004}},{"attributes":{"ID":613695,"DIS_CODE":0,"TOWNNAME":"北區","LI":"和順里","LIN":"2鄰","STREET":"西門路","SECT":"三段","MAREA":" ","LANE":" ","ALLEY":" ","HOUSE_NO":"１５５號七樓之５","E_COORD97":168379.76000000001,"N_COORD97":2544890.1499999999,"ADDRESS":"西門路三段１５５號七樓之５","OBJECTID":613668},"geometry":{"x":168379.76000000071,"y":2544890.1500000004}},{"attributes":{"ID":613696,"DIS_CODE":0,"TOWNNAME":"北區","LI":"和順里","LIN":"2鄰","STREET":"西門路","SECT":"三段","MAREA":" ","LANE":" ","ALLEY":" ","HOUSE_NO":"１５５號八樓之１","E_COORD97":168379.76000000001,"N_COORD97":2544890.1499999999,"ADDRESS":"西門路三段１５５號八樓之１","OBJECTID":613669},"geometry":{"x":168379.76000000071,"y":2544890.1500000004}},{"attributes":{"ID":613697,"DIS_CODE":0,"TOWNNAME":"北區","LI":"和順里","LIN":"2鄰","STREET":"西門路","SECT":"三段","MAREA":" ","LANE":" ","ALLEY":" ","HOUSE_NO":"１５５號八樓之２","E_COORD97":168379.76000000001,"N_COORD97":2544890.1499999999,"ADDRESS":"西門路三段１５５號八樓之２","OBJECTID":613670},"geometry":{"x":168379.76000000071,"y":2544890.1500000004}},{"attributes":{"ID":613698,"DIS_CODE":0,"TOWNNAME":"北區","LI":"和順里","LIN":"2鄰","STREET":"西門路","SECT":"三段","MAREA":" ","LANE":" ","ALLEY":" ","HOUSE_NO":"１５５號八樓之３","E_COORD97":168379.76000000001,"N_COORD97":2544890.1499999999,"ADDRESS":"西門路三段１５５號八樓之３","OBJECTID":613671},"geometry":{"x":168379.76000000071,"y":2544890.1500000004}},{"attributes":{"ID":613699,"DIS_CODE":0,"TOWNNAME":"關廟區","LI":"松腳里","LIN":"2鄰","STREET":"松柏街","SECT":" ","MAREA":" ","LANE":" ","ALLEY":" ","HOUSE_NO":"７號","E_COORD97":181954.07000000001,"N_COORD97":2539681.25,"ADDRESS":"松柏街７號","OBJECTID":613672},"geometry":{"x":181954.0700000003,"y":2539681.25}},{"attributes":{"ID":613700,"DIS_CODE":0,"TOWNNAME":"北區","LI":"和順里","LIN":"2鄰","STREET":"西門路","SECT":"三段","MAREA":" ","LANE":" ","ALLEY":" ","HOUSE_NO":"１５５號八樓之５","E_COORD97":168379.76000000001,"N_COORD97":2544890.1499999999,"ADDRESS":"西門路三段１５５號八樓之５","OBJECTID":613673},"geometry":{"x":168379.76000000071,"y":2544890.1500000004}},{"attributes":{"ID":613701,"DIS_CODE":0,"TOWNNAME":"中西區","LI":"保安里","LIN":"2鄰","STREET":"府前路","SECT":"二段","MAREA":" ","LANE":" ","ALLEY":" ","HOUSE_NO":"１６號","E_COORD97":167691.75,"N_COORD97":2543484.6899999999,"ADDRESS":"府前路二段１６號","OBJECTID":613674},"geometry":{"x":167691.75000000093,"y":2543484.6900000013}},{"attributes":{"ID":613702,"DIS_CODE":0,"TOWNNAME":"北區","LI":"和順里","LIN":"2鄰","STREET":"西門路","SECT":"三段","MAREA":" ","LANE":" ","ALLEY":" ","HOUSE_NO":"１５５號九樓之１","E_COORD97":168379.76000000001,"N_COORD97":2544890.1499999999,"ADDRESS":"西門路三段１５５號九樓之１","OBJECTID":613675},"geometry":{"x":168379.76000000071,"y":2544890.1500000004}},{"attributes":{"ID":613703,"DIS_CODE":0,"TOWNNAME":"北區","LI":"和順里","LIN":"2鄰","STREET":"西門路","SECT":"三段","MAREA":" ","LANE":" ","ALLEY":" ","HOUSE_NO":"１５５號九樓之２","E_COORD97":168379.76000000001,"N_COORD97":2544890.1499999999,"ADDRESS":"西門路三段１５５號九樓之２","OBJECTID":613676},"geometry":{"x":168379.76000000071,"y":2544890.1500000004}},{"attributes":{"ID":613704,"DIS_CODE":0,"TOWNNAME":"永康區","LI":"崑山里","LIN":"48鄰","STREET":"國光六街","SECT":" ","MAREA":" ","LANE":" ","ALLEY":" ","HOUSE_NO":"３９之１號","E_COORD97":174207.01000000001,"N_COORD97":2545271.8300000001,"ADDRESS":"國光六街３９之１號","OBJECTID":613677},"geometry":{"x":174207.00999999978,"y":2545271.8300000001}},{"attributes":{"ID":613705,"DIS_CODE":0,"TOWNNAME":"北區","LI":"和順里","LIN":"2鄰","STREET":"西門路","SECT":"三段","MAREA":" ","LANE":" ","ALLEY":" ","HOUSE_NO":"１５５號九樓之３","E_COORD97":168379.76000000001,"N_COORD97":2544890.1499999999,"ADDRESS":"西門路三段１５５號九樓之３","OBJECTID":613678},"geometry":{"x":168379.76000000071,"y":2544890.1500000004}},{"attributes":{"ID":613706,"DIS_CODE":0,"TOWNNAME":"北區","LI":"和順里","LIN":"2鄰","STREET":"西門路","SECT":"三段","MAREA":" ","LANE":" ","ALLEY":" ","HOUSE_NO":"１５５號十樓之１","E_COORD97":168379.76000000001,"N_COORD97":2544890.1499999999,"ADDRESS":"西門路三段１５５號十樓之１","OBJECTID":613679},"geometry":{"x":168379.76000000071,"y":2544890.1500000004}},{"attributes":{"ID":613707,"DIS_CODE":0,"TOWNNAME":"北區","LI":"和順里","LIN":"2鄰","STREET":"西門路","SECT":"三段","MAREA":" ","LANE":" ","ALLEY":" ","HOUSE_NO":"１５５號十樓之２","E_COORD97":168379.76000000001,"N_COORD97":2544890.1499999999,"ADDRESS":"西門路三段１５５號十樓之２","OBJECTID":613680},"geometry":{"x":168379.76000000071,"y":2544890.1500000004}},{"attributes":{"ID":613708,"DIS_CODE":0,"TOWNNAME":"北區","LI":"和順里","LIN":"2鄰","STREET":"西門路","SECT":"三段","MAREA":" ","LANE":" ","ALLEY":" ","HOUSE_NO":"１５５號十樓之３","E_COORD97":168379.76000000001,"N_COORD97":2544890.1499999999,"ADDRESS":"西門路三段１５５號十樓之３","OBJECTID":613681},"geometry":{"x":168379.76000000071,"y":2544890.1500000004}},{"attributes":{"ID":613709,"DIS_CODE":0,"TOWNNAME":"北區","LI":"和順里","LIN":"2鄰","STREET":"西門路","SECT":"三段","MAREA":" ","LANE":" ","ALLEY":" ","HOUSE_NO":"１５５號十樓之５","E_COORD97":168379.76000000001,"N_COORD97":2544890.1499999999,"ADDRESS":"西門路三段１５５號十樓之５","OBJECTID":613682},"geometry":{"x":168379.76000000071,"y":2544890.1500000004}},{"attributes":{"ID":613710,"DIS_CODE":0,"TOWNNAME":"北區","LI":"和順里","LIN":"2鄰","STREET":"西門路","SECT":"三段","MAREA":" ","LANE":" ","ALLEY":" ","HOUSE_NO":"１５５號十一樓之１","E_COORD97":168379.76000000001,"N_COORD97":2544890.1499999999,"ADDRESS":"西門路三段１５５號十一樓之１","OBJECTID":613683},"geometry":{"x":168379.76000000071,"y":2544890.1500000004}},{"attributes":{"ID":613711,"DIS_CODE":0,"TOWNNAME":"北區","LI":"和順里","LIN":"2鄰","STREET":"西門路","SECT":"三段","MAREA":" ","LANE":" ","ALLEY":" ","HOUSE_NO":"１５５號十一樓之２","E_COORD97":168379.76000000001,"N_COORD97":2544890.1499999999,"ADDRESS":"西門路三段１５５號十一樓之２","OBJECTID":613684},"geometry":{"x":168379.76000000071,"y":2544890.1500000004}},{"attributes":{"ID":613712,"DIS_CODE":0,"TOWNNAME":"北區","LI":"和順里","LIN":"2鄰","STREET":"西門路","SECT":"三段","MAREA":" ","LANE":" ","ALLEY":" ","HOUSE_NO":"１５５號十一樓之３","E_COORD97":168379.76000000001,"N_COORD97":2544890.1499999999,"ADDRESS":"西門路三段１５５號十一樓之３","OBJECTID":613685},"geometry":{"x":168379.76000000071,"y":2544890.1500000004}},{"attributes":{"ID":613713,"DIS_CODE":0,"TOWNNAME":"北區","LI":"和順里","LIN":"2鄰","STREET":"西門路","SECT":"三段","MAREA":" ","LANE":" ","ALLEY":" ","HOUSE_NO":"１５５號十一樓之５","E_COORD97":168379.76000000001,"N_COORD97":2544890.1499999999,"ADDRESS":"西門路三段１５５號十一樓之５","OBJECTID":613686},"geometry":{"x":168379.76000000071,"y":2544890.1500000004}},{"attributes":{"ID":613714,"DIS_CODE":0,"TOWNNAME":"北區","LI":"和順里","LIN":"2鄰","STREET":"西門路","SECT":"三段","MAREA":" ","LANE":" ","ALLEY":" ","HOUSE_NO":"１５５號十二樓之１","E_COORD97":168379.76000000001,"N_COORD97":2544890.1499999999,"ADDRESS":"西門路三段１５５號十二樓之１","OBJECTID":613687},"geometry":{"x":168379.76000000071,"y":2544890.1500000004}},{"attributes":{"ID":613715,"DIS_CODE":0,"TOWNNAME":"北區","LI":"和順里","LIN":"2鄰","STREET":"西門路","SECT":"三段","MAREA":" ","LANE":" ","ALLEY":" ","HOUSE_NO":"１５５號十二樓之２","E_COORD97":168379.76000000001,"N_COORD97":2544890.1499999999,"ADDRESS":"西門路三段１５５號十二樓之２","OBJECTID":613688},"geometry":{"x":168379.76000000071,"y":2544890.1500000004}},{"attributes":{"ID":613716,"DIS_CODE":0,"TOWNNAME":"永康區","LI":"西灣里","LIN":"34鄰","STREET":"國光八街","SECT":" ","MAREA":" ","LANE":" ","ALLEY":" ","HOUSE_NO":"１２２號","E_COORD97":174121.95000000001,"N_COORD97":2545752.8599999999,"ADDRESS":"國光八街１２２號","OBJECTID":613689},"geometry":{"x":174121.95000000112,"y":2545752.8599999994}},{"attributes":{"ID":613717,"DIS_CODE":0,"TOWNNAME":"永康區","LI":"南灣里","LIN":"8鄰","STREET":"南興路","SECT":" ","MAREA":" ","LANE":" ","ALLEY":" ","HOUSE_NO":"８４號","E_COORD97":174272.23999999999,"N_COORD97":2544275.6600000001,"ADDRESS":"南興路８４號","OBJECTID":613690},"geometry":{"x":174272.24000000209,"y":2544275.660000002}},{"attributes":{"ID":613718,"DIS_CODE":0,"TOWNNAME":"北區","LI":"和順里","LIN":"2鄰","STREET":"西門路","SECT":"三段","MAREA":" ","LANE":" ","ALLEY":" ","HOUSE_NO":"１５５號十二樓之３","E_COORD97":168379.76000000001,"N_COORD97":2544890.1499999999,"ADDRESS":"西門路三段１５５號十二樓之３","OBJECTID":613691},"geometry":{"x":168379.76000000071,"y":2544890.1500000004}},{"attributes":{"ID":613719,"DIS_CODE":0,"TOWNNAME":"北區","LI":"和順里","LIN":"2鄰","STREET":"西門路","SECT":"三段","MAREA":" ","LANE":" ","ALLEY":" ","HOUSE_NO":"１５５號十二樓之５","E_COORD97":168379.76000000001,"N_COORD97":2544890.1499999999,"ADDRESS":"西門路三段１５５號十二樓之５","OBJECTID":613692},"geometry":{"x":168379.76000000071,"y":2544890.1500000004}},{"attributes":{"ID":613720,"DIS_CODE":0,"TOWNNAME":"北區","LI":"和順里","LIN":"2鄰","STREET":"西門路","SECT":"三段","MAREA":" ","LANE":" ","ALLEY":" ","HOUSE_NO":"１５５號十三樓之１","E_COORD97":168379.76000000001,"N_COORD97":2544890.1499999999,"ADDRESS":"西門路三段１５５號十三樓之１","OBJECTID":613693},"geometry":{"x":168379.76000000071,"y":2544890.1500000004}},{"attributes":{"ID":613721,"DIS_CODE":0,"TOWNNAME":"北區","LI":"和順里","LIN":"2鄰","STREET":"西門路","SECT":"三段","MAREA":" ","LANE":" ","ALLEY":" ","HOUSE_NO":"１５５號十三樓之２","E_COORD97":168379.76000000001,"N_COORD97":2544890.1499999999,"ADDRESS":"西門路三段１５５號十三樓之２","OBJECTID":613694},"geometry":{"x":168379.76000000071,"y":2544890.1500000004}},{"attributes":{"ID":613722,"DIS_CODE":0,"TOWNNAME":"北區","LI":"和順里","LIN":"2鄰","STREET":"西門路","SECT":"三段","MAREA":" ","LANE":" ","ALLEY":" ","HOUSE_NO":"１５５號十三樓之３","E_COORD97":168379.76000000001,"N_COORD97":2544890.1499999999,"ADDRESS":"西門路三段１５５號十三樓之３","OBJECTID":613695},"geometry":{"x":168379.76000000071,"y":2544890.1500000004}},{"attributes":{"ID":613723,"DIS_CODE":0,"TOWNNAME":"北區","LI":"和順里","LIN":"2鄰","STREET":"西門路","SECT":"三段","MAREA":" ","LANE":" ","ALLEY":" ","HOUSE_NO":"１５５號十三樓之５","E_COORD97":168379.76000000001,"N_COORD97":2544890.1499999999,"ADDRESS":"西門路三段１５５號十三樓之５","OBJECTID":613696},"geometry":{"x":168379.76000000071,"y":2544890.1500000004}},{"attributes":{"ID":613724,"DIS_CODE":0,"TOWNNAME":"北區","LI":"和順里","LIN":"2鄰","STREET":"西門路","SECT":"三段","MAREA":" ","LANE":" ","ALLEY":" ","HOUSE_NO":"１５５號十四樓之１","E_COORD97":168379.76000000001,"N_COORD97":2544890.1499999999,"ADDRESS":"西門路三段１５５號十四樓之１","OBJECTID":613697},"geometry":{"x":168379.76000000071,"y":2544890.1500000004}},{"attributes":{"ID":613725,"DIS_CODE":0,"TOWNNAME":"北區","LI":"和順里","LIN":"2鄰","STREET":"西門路","SECT":"三段","MAREA":" ","LANE":" ","ALLEY":" ","HOUSE_NO":"１５５號十四樓之２","E_COORD97":168379.76000000001,"N_COORD97":2544890.1499999999,"ADDRESS":"西門路三段１５５號十四樓之２","OBJECTID":613698},"geometry":{"x":168379.76000000071,"y":2544890.1500000004}},{"attributes":{"ID":613726,"DIS_CODE":0,"TOWNNAME":"北區","LI":"和順里","LIN":"2鄰","STREET":"西門路","SECT":"三段","MAREA":" ","LANE":" ","ALLEY":" ","HOUSE_NO":"１５５號十四樓之３","E_COORD97":168379.76000000001,"N_COORD97":2544890.1499999999,"ADDRESS":"西門路三段１５５號十四樓之３","OBJECTID":613699},"geometry":{"x":168379.76000000071,"y":2544890.1500000004}},{"attributes":{"ID":613727,"DIS_CODE":0,"TOWNNAME":"北區","LI":"和順里","LIN":"2鄰","STREET":"西門路","SECT":"三段","MAREA":" ","LANE":" ","ALLEY":" ","HOUSE_NO":"１５５號十四樓之５","E_COORD97":168379.76000000001,"N_COORD97":2544890.1499999999,"ADDRESS":"西門路三段１５５號十四樓之５","OBJECTID":613700},"geometry":{"x":168379.76000000071,"y":2544890.1500000004}},{"attributes":{"ID":613728,"DIS_CODE":0,"TOWNNAME":"新營區","LI":"好平里","LIN":"2鄰","STREET":"武侯街","SECT":" ","MAREA":" ","LANE":" ","ALLEY":" ","HOUSE_NO":"７之１號四樓之１","E_COORD97":179681.5,"N_COORD97":2577710.4900000002,"ADDRESS":"武侯街７之１號四樓之１","OBJECTID":613701},"geometry":{"x":179681.50000000093,"y":2577710.4900000002}},{"attributes":{"ID":613729,"DIS_CODE":0,"TOWNNAME":"北區","LI":"和順里","LIN":"2鄰","STREET":"西門路","SECT":"三段","MAREA":" ","LANE":" ","ALLEY":" ","HOUSE_NO":"１５５號十五樓之１","E_COORD97":168379.76000000001,"N_COORD97":2544890.1499999999,"ADDRESS":"西門路三段１５５號十五樓之１","OBJECTID":613702},"geometry":{"x":168379.76000000071,"y":2544890.1500000004}},{"attributes":{"ID":613730,"DIS_CODE":0,"TOWNNAME":"北區","LI":"和順里","LIN":"2鄰","STREET":"西門路","SECT":"三段","MAREA":" ","LANE":" ","ALLEY":" ","HOUSE_NO":"１５５號十五樓之２","E_COORD97":168379.76000000001,"N_COORD97":2544890.1499999999,"ADDRESS":"西門路三段１５５號十五樓之２","OBJECTID":613703},"geometry":{"x":168379.76000000071,"y":2544890.1500000004}},{"attributes":{"ID":613731,"DIS_CODE":0,"TOWNNAME":"中西區","LI":"保安里","LIN":"2鄰","STREET":"府前路","SECT":"二段","MAREA":" ","LANE":" ","ALLEY":" ","HOUSE_NO":"１８號","E_COORD97":167686.41,"N_COORD97":2543486.0699999998,"ADDRESS":"府前路二段１８號","OBJECTID":613704},"geometry":{"x":167686.41000000015,"y":2543486.0700000022}},{"attributes":{"ID":613732,"DIS_CODE":0,"TOWNNAME":"北區","LI":"和順里","LIN":"2鄰","STREET":"西門路","SECT":"三段","MAREA":" ","LANE":" ","ALLEY":" ","HOUSE_NO":"１５５號十五樓之３","E_COORD97":168379.76000000001,"N_COORD97":2544890.1499999999,"ADDRESS":"西門路三段１５５號十五樓之３","OBJECTID":613705},"geometry":{"x":168379.76000000071,"y":2544890.1500000004}},{"attributes":{"ID":613733,"DIS_CODE":0,"TOWNNAME":"北區","LI":"和順里","LIN":"2鄰","STREET":"西門路","SECT":"三段","MAREA":" ","LANE":" ","ALLEY":" ","HOUSE_NO":"１５５號十五樓之５","E_COORD97":168379.76000000001,"N_COORD97":2544890.1499999999,"ADDRESS":"西門路三段１５５號十五樓之５","OBJECTID":613706},"geometry":{"x":168379.76000000071,"y":2544890.1500000004}},{"attributes":{"ID":613734,"DIS_CODE":0,"TOWNNAME":"北區","LI":"和順里","LIN":"2鄰","STREET":"西門路","SECT":"三段","MAREA":" ","LANE":" ","ALLEY":" ","HOUSE_NO":"１５５號十六樓之１","E_COORD97":168379.76000000001,"N_COORD97":2544890.1499999999,"ADDRESS":"西門路三段１５５號十六樓之１","OBJECTID":613707},"geometry":{"x":168379.76000000071,"y":2544890.1500000004}},{"attributes":{"ID":613735,"DIS_CODE":0,"TOWNNAME":"北區","LI":"和順里","LIN":"2鄰","STREET":"西門路","SECT":"三段","MAREA":" ","LANE":" ","ALLEY":" ","HOUSE_NO":"１５５號十六樓之２","E_COORD97":168379.76000000001,"N_COORD97":2544890.1499999999,"ADDRESS":"西門路三段１５５號十六樓之２","OBJECTID":613708},"geometry":{"x":168379.76000000071,"y":2544890.1500000004}},{"attributes":{"ID":613736,"DIS_CODE":0,"TOWNNAME":"北區","LI":"和順里","LIN":"2鄰","STREET":"西門路","SECT":"三段","MAREA":" ","LANE":" ","ALLEY":" ","HOUSE_NO":"１５５號十八樓之１","E_COORD97":168379.76000000001,"N_COORD97":2544890.1499999999,"ADDRESS":"西門路三段１５５號十八樓之１","OBJECTID":613709},"geometry":{"x":168379.76000000071,"y":2544890.1500000004}},{"attributes":{"ID":613737,"DIS_CODE":0,"TOWNNAME":"北區","LI":"和順里","LIN":"2鄰","STREET":"西門路","SECT":"三段","MAREA":" ","LANE":" ","ALLEY":" ","HOUSE_NO":"１５５號十八樓之２","E_COORD97":168379.76000000001,"N_COORD97":2544890.1499999999,"ADDRESS":"西門路三段１５５號十八樓之２","OBJECTID":613710},"geometry":{"x":168379.76000000071,"y":2544890.1500000004}},{"attributes":{"ID":613738,"DIS_CODE":0,"TOWNNAME":"北區","LI":"和順里","LIN":"2鄰","STREET":"西門路","SECT":"三段","MAREA":" ","LANE":" ","ALLEY":" ","HOUSE_NO":"１５５號十九樓之１","E_COORD97":168379.76000000001,"N_COORD97":2544890.1499999999,"ADDRESS":"西門路三段１５５號十九樓之１","OBJECTID":613711},"geometry":{"x":168379.76000000071,"y":2544890.1500000004}},{"attributes":{"ID":613739,"DIS_CODE":0,"TOWNNAME":"北區","LI":"和順里","LIN":"2鄰","STREET":"西門路","SECT":"三段","MAREA":" ","LANE":" ","ALLEY":" ","HOUSE_NO":"１５５號十九樓之２","E_COORD97":168379.76000000001,"N_COORD97":2544890.1499999999,"ADDRESS":"西門路三段１５５號十九樓之２","OBJECTID":613712},"geometry":{"x":168379.76000000071,"y":2544890.1500000004}},{"attributes":{"ID":613740,"DIS_CODE":0,"TOWNNAME":"永康區","LI":"東橋里","LIN":"15鄰","STREET":"東橋二街","SECT":" ","MAREA":" ","LANE":" ","ALLEY":" ","HOUSE_NO":"１４６號","E_COORD97":171870.29000000001,"N_COORD97":2546561.9199999999,"ADDRESS":"東橋二街１４６號","OBJECTID":613713},"geometry":{"x":171870.29000000097,"y":2546561.9200000018}},{"attributes":{"ID":613741,"DIS_CODE":0,"TOWNNAME":"永康區","LI":"西勢里","LIN":"9鄰","STREET":"富強路","SECT":"一段","MAREA":" ","LANE":" ","ALLEY":" ","HOUSE_NO":"３３６號","E_COORD97":175728.75,"N_COORD97":2546725.5299999998,"ADDRESS":"富強路一段３３６號","OBJECTID":613714},"geometry":{"x":175728.75000000093,"y":2546725.5300000031}},{"attributes":{"ID":613742,"DIS_CODE":0,"TOWNNAME":"永康區","LI":"甲頂里","LIN":"23鄰","STREET":"中正南路","SECT":" ","MAREA":" ","LANE":" ","ALLEY":" ","HOUSE_NO":"９２號","E_COORD97":169672.89000000001,"N_COORD97":2546848.1200000001,"ADDRESS":"中正南路９２號","OBJECTID":613715},"geometry":{"x":169672.88999999966,"y":2546848.120000001}},{"attributes":{"ID":613743,"DIS_CODE":0,"TOWNNAME":"仁德區","LI":"保安里","LIN":"23鄰","STREET":"保學路","SECT":" ","MAREA":" ","LANE":" ","ALLEY":" ","HOUSE_NO":"９８號","E_COORD97":171658.76000000001,"N_COORD97":2535643.4700000002,"ADDRESS":"保學路９８號","OBJECTID":613716},"geometry":{"x":171658.75999999978,"y":2535643.4700000007}},{"attributes":{"ID":613744,"DIS_CODE":0,"TOWNNAME":"北區","LI":"和順里","LIN":"2鄰","STREET":"西門路","SECT":"三段","MAREA":" ","LANE":" ","ALLEY":" ","HOUSE_NO":"１２５號二樓","E_COORD97":168370.48000000001,"N_COORD97":2544855.9700000002,"ADDRESS":"西門路三段１２５號二樓","OBJECTID":613717},"geometry":{"x":168370.48000000138,"y":2544855.9700000044}},{"attributes":{"ID":613745,"DIS_CODE":0,"TOWNNAME":"北區","LI":"和順里","LIN":"2鄰","STREET":"西門路","SECT":"三段","MAREA":" ","LANE":" ","ALLEY":" ","HOUSE_NO":"１２５號三樓","E_COORD97":168370.48000000001,"N_COORD97":2544855.9700000002,"ADDRESS":"西門路三段１２５號三樓","OBJECTID":613718},"geometry":{"x":168370.48000000138,"y":2544855.9700000044}},{"attributes":{"ID":613746,"DIS_CODE":0,"TOWNNAME":"北區","LI":"和順里","LIN":"2鄰","STREET":"西門路","SECT":"三段","MAREA":" ","LANE":" ","ALLEY":" ","HOUSE_NO":"１２５號四樓","E_COORD97":168370.48000000001,"N_COORD97":2544855.9700000002,"ADDRESS":"西門路三段１２５號四樓","OBJECTID":613719},"geometry":{"x":168370.48000000138,"y":2544855.9700000044}},{"attributes":{"ID":613747,"DIS_CODE":0,"TOWNNAME":"柳營區","LI":"士林里","LIN":"2鄰","STREET":"士賢街","SECT":" ","MAREA":" ","LANE":" ","ALLEY":" ","HOUSE_NO":"１７２號二樓","E_COORD97":179138.54000000001,"N_COORD97":2575254.3100000001,"ADDRESS":"士賢街１７２號二樓","OBJECTID":613720},"geometry":{"x":179138.5400000019,"y":2575254.3100000005}},{"attributes":{"ID":613748,"DIS_CODE":0,"TOWNNAME":"柳營區","LI":"士林里","LIN":"2鄰","STREET":"士賢街","SECT":" ","MAREA":" ","LANE":" ","ALLEY":" ","HOUSE_NO":"１７２號三樓","E_COORD97":179138.54000000001,"N_COORD97":2575254.3100000001,"ADDRESS":"士賢街１７２號三樓","OBJECTID":613721},"geometry":{"x":179138.5400000019,"y":2575254.3100000005}},{"attributes":{"ID":613749,"DIS_CODE":0,"TOWNNAME":"柳營區","LI":"士林里","LIN":"2鄰","STREET":"士賢街","SECT":" ","MAREA":" ","LANE":" ","ALLEY":" ","HOUSE_NO":"１７２號四樓","E_COORD97":179138.54000000001,"N_COORD97":2575254.3100000001,"ADDRESS":"士賢街１７２號四樓","OBJECTID":613722},"geometry":{"x":179138.5400000019,"y":2575254.3100000005}},{"attributes":{"ID":613750,"DIS_CODE":0,"TOWNNAME":"新營區","LI":"興業里","LIN":"2鄰","STREET":"新進路","SECT":" ","MAREA":" ","LANE":" ","ALLEY":" ","HOUSE_NO":"２３２號六樓","E_COORD97":180275.56,"N_COORD97":2577883.71,"ADDRESS":"新進路２３２號六樓","OBJECTID":613723},"geometry":{"x":180275.56000000145,"y":2577883.7100000046}},{"attributes":{"ID":613751,"DIS_CODE":0,"TOWNNAME":"新營區","LI":"延平里","LIN":"2鄰","STREET":"延平路","SECT":" ","MAREA":" ","LANE":" ","ALLEY":" ","HOUSE_NO":"４０之１號七樓之２","E_COORD97":179768.48000000001,"N_COORD97":2577845.1899999999,"ADDRESS":"延平路４０之１號七樓之２","OBJECTID":613724},"geometry":{"x":179768.48000000138,"y":2577845.1900000013}},{"attributes":{"ID":613752,"DIS_CODE":0,"TOWNNAME":"新營區","LI":"延平里","LIN":"2鄰","STREET":"延平路","SECT":" ","MAREA":" ","LANE":" ","ALLEY":" ","HOUSE_NO":"４０之１號四樓之２","E_COORD97":179768.48000000001,"N_COORD97":2577845.1899999999,"ADDRESS":"延平路４０之１號四樓之２","OBJECTID":613725},"geometry":{"x":179768.48000000138,"y":2577845.1900000013}},{"attributes":{"ID":613753,"DIS_CODE":0,"TOWNNAME":"新營區","LI":"延平里","LIN":"2鄰","STREET":"延平路","SECT":" ","MAREA":" ","LANE":" ","ALLEY":" ","HOUSE_NO":"４０之１號九樓之１","E_COORD97":179768.34,"N_COORD97":2577845.1899999999,"ADDRESS":"延平路４０之１號九樓之１","OBJECTID":613726},"geometry":{"x":179768.33999999985,"y":2577845.1900000013}},{"attributes":{"ID":613754,"DIS_CODE":0,"TOWNNAME":"新營區","LI":"延平里","LIN":"2鄰","STREET":"延平路","SECT":" ","MAREA":" ","LANE":" ","ALLEY":" ","HOUSE_NO":"４０之２號六樓之３","E_COORD97":179768.44,"N_COORD97":2577845.1899999999,"ADDRESS":"延平路４０之２號六樓之３","OBJECTID":613727},"geometry":{"x":179768.43999999948,"y":2577845.1900000013}},{"attributes":{"ID":613755,"DIS_CODE":0,"TOWNNAME":"新營區","LI":"延平里","LIN":"2鄰","STREET":"延平路","SECT":" ","MAREA":" ","LANE":" ","ALLEY":" ","HOUSE_NO":"４０之２號四樓之１","E_COORD97":179768.34,"N_COORD97":2577845.1899999999,"ADDRESS":"延平路４０之２號四樓之１","OBJECTID":613728},"geometry":{"x":179768.33999999985,"y":2577845.1900000013}},{"attributes":{"ID":613756,"DIS_CODE":0,"TOWNNAME":"新營區","LI":"延平里","LIN":"2鄰","STREET":"延平路","SECT":" ","MAREA":" ","LANE":" ","ALLEY":" ","HOUSE_NO":"４０之２號九樓之３","E_COORD97":179768.44,"N_COORD97":2577845.1899999999,"ADDRESS":"延平路４０之２號九樓之３","OBJECTID":613729},"geometry":{"x":179768.43999999948,"y":2577845.1900000013}},{"attributes":{"ID":613757,"DIS_CODE":0,"TOWNNAME":"新營區","LI":"好平里","LIN":"2鄰","STREET":"武侯街","SECT":" ","MAREA":" ","LANE":" ","ALLEY":" ","HOUSE_NO":"７之１號三樓之２","E_COORD97":179681.64000000001,"N_COORD97":2577710.4900000002,"ADDRESS":"武侯街７之１號三樓之２","OBJECTID":613730},"geometry":{"x":179681.64000000153,"y":2577710.4900000002}},{"attributes":{"ID":613758,"DIS_CODE":0,"TOWNNAME":"新營區","LI":"民權里","LIN":"2鄰","STREET":"信義街","SECT":" ","MAREA":" ","LANE":" ","ALLEY":" ","HOUSE_NO":"１０之３號三樓之３","E_COORD97":179968.20000000001,"N_COORD97":2578141.04,"ADDRESS":"信義街１０之３號三樓之３","OBJECTID":613731},"geometry":{"x":179968.19999999925,"y":2578141.040000001}},{"attributes":{"ID":613759,"DIS_CODE":0,"TOWNNAME":"新營區","LI":"民權里","LIN":"2鄰","STREET":"信義街","SECT":" ","MAREA":" ","LANE":" ","ALLEY":" ","HOUSE_NO":"１０之３號五樓之３","E_COORD97":179968.20000000001,"N_COORD97":2578141.04,"ADDRESS":"信義街１０之３號五樓之３","OBJECTID":613732},"geometry":{"x":179968.19999999925,"y":2578141.040000001}},{"attributes":{"ID":613760,"DIS_CODE":0,"TOWNNAME":"永康區","LI":"西勢里","LIN":"13鄰","STREET":"廣盛街","SECT":" ","MAREA":" ","LANE":" ","ALLEY":" ","HOUSE_NO":"１８６號","E_COORD97":176088.59,"N_COORD97":2546723.8700000001,"ADDRESS":"廣盛街１８６號","OBJECTID":613733},"geometry":{"x":176088.59000000078,"y":2546723.870000001}},{"attributes":{"ID":613761,"DIS_CODE":0,"TOWNNAME":"永康區","LI":"北灣里","LIN":"1鄰","STREET":"文賢街","SECT":" ","MAREA":" ","LANE":" ","ALLEY":" ","HOUSE_NO":"１７９號","E_COORD97":175352.73999999999,"N_COORD97":2545457.7999999998,"ADDRESS":"文賢街１７９號","OBJECTID":613734},"geometry":{"x":175352.74000000115,"y":2545457.8000000026}},{"attributes":{"ID":613762,"DIS_CODE":0,"TOWNNAME":"北區","LI":"仁愛里","LIN":"2鄰","STREET":"勝利路","SECT":" ","MAREA":" ","LANE":" ","ALLEY":" ","HOUSE_NO":"２２６號三樓之２","E_COORD97":169937.62,"N_COORD97":2545030.2599999998,"ADDRESS":"勝利路２２６號三樓之２","OBJECTID":613735},"geometry":{"x":169937.62000000011,"y":2545030.2600000016}},{"attributes":{"ID":613763,"DIS_CODE":0,"TOWNNAME":"北區","LI":"仁愛里","LIN":"2鄰","STREET":"勝利路","SECT":" ","MAREA":" ","LANE":" ","ALLEY":" ","HOUSE_NO":"２２６號三樓之３","E_COORD97":169937.62,"N_COORD97":2545030.2599999998,"ADDRESS":"勝利路２２６號三樓之３","OBJECTID":613736},"geometry":{"x":169937.62000000011,"y":2545030.2600000016}},{"attributes":{"ID":613764,"DIS_CODE":0,"TOWNNAME":"北區","LI":"仁愛里","LIN":"2鄰","STREET":"勝利路","SECT":" ","MAREA":" ","LANE":" ","ALLEY":" ","HOUSE_NO":"２２６號三樓之４","E_COORD97":169937.62,"N_COORD97":2545030.2599999998,"ADDRESS":"勝利路２２６號三樓之４","OBJECTID":613737},"geometry":{"x":169937.62000000011,"y":2545030.2600000016}},{"attributes":{"ID":613765,"DIS_CODE":0,"TOWNNAME":"北區","LI":"仁愛里","LIN":"2鄰","STREET":"勝利路","SECT":" ","MAREA":" ","LANE":" ","ALLEY":" ","HOUSE_NO":"２２６號三樓之５","E_COORD97":169937.62,"N_COORD97":2545030.2599999998,"ADDRESS":"勝利路２２６號三樓之５","OBJECTID":613738},"geometry":{"x":169937.62000000011,"y":2545030.2600000016}},{"attributes":{"ID":613766,"DIS_CODE":0,"TOWNNAME":"北區","LI":"仁愛里","LIN":"2鄰","STREET":"勝利路","SECT":" ","MAREA":" ","LANE":" ","ALLEY":" ","HOUSE_NO":"２２６號三樓之６","E_COORD97":169937.62,"N_COORD97":2545030.2599999998,"ADDRESS":"勝利路２２６號三樓之６","OBJECTID":613739},"geometry":{"x":169937.62000000011,"y":2545030.2600000016}},{"attributes":{"ID":613767,"DIS_CODE":0,"TOWNNAME":"北區","LI":"仁愛里","LIN":"2鄰","STREET":"勝利路","SECT":" ","MAREA":" ","LANE":" ","ALLEY":" ","HOUSE_NO":"２２６號三樓之７","E_COORD97":169937.62,"N_COORD97":2545030.2599999998,"ADDRESS":"勝利路２２６號三樓之７","OBJECTID":613740},"geometry":{"x":169937.62000000011,"y":2545030.2600000016}},{"attributes":{"ID":613768,"DIS_CODE":0,"TOWNNAME":"北區","LI":"仁愛里","LIN":"2鄰","STREET":"勝利路","SECT":" ","MAREA":" ","LANE":" ","ALLEY":" ","HOUSE_NO":"２２６號三樓之８","E_COORD97":169937.62,"N_COORD97":2545030.2599999998,"ADDRESS":"勝利路２２６號三樓之８","OBJECTID":613741},"geometry":{"x":169937.62000000011,"y":2545030.2600000016}},{"attributes":{"ID":613769,"DIS_CODE":0,"TOWNNAME":"北區","LI":"仁愛里","LIN":"2鄰","STREET":"勝利路","SECT":" ","MAREA":" ","LANE":" ","ALLEY":" ","HOUSE_NO":"２２６號五樓之１","E_COORD97":169937.62,"N_COORD97":2545030.2599999998,"ADDRESS":"勝利路２２６號五樓之１","OBJECTID":613742},"geometry":{"x":169937.62000000011,"y":2545030.2600000016}},{"attributes":{"ID":613770,"DIS_CODE":0,"TOWNNAME":"北區","LI":"仁愛里","LIN":"2鄰","STREET":"勝利路","SECT":" ","MAREA":" ","LANE":" ","ALLEY":" ","HOUSE_NO":"２２６號五樓之２","E_COORD97":169937.62,"N_COORD97":2545030.2599999998,"ADDRESS":"勝利路２２６號五樓之２","OBJECTID":613743},"geometry":{"x":169937.62000000011,"y":2545030.2600000016}},{"attributes":{"ID":613771,"DIS_CODE":0,"TOWNNAME":"北區","LI":"仁愛里","LIN":"2鄰","STREET":"勝利路","SECT":" ","MAREA":" ","LANE":" ","ALLEY":" ","HOUSE_NO":"２２６號五樓之３","E_COORD97":169937.62,"N_COORD97":2545030.2599999998,"ADDRESS":"勝利路２２６號五樓之３","OBJECTID":613744},"geometry":{"x":169937.62000000011,"y":2545030.2600000016}},{"attributes":{"ID":613772,"DIS_CODE":0,"TOWNNAME":"北區","LI":"仁愛里","LIN":"2鄰","STREET":"勝利路","SECT":" ","MAREA":" ","LANE":" ","ALLEY":" ","HOUSE_NO":"２２６號五樓之４","E_COORD97":169937.62,"N_COORD97":2545030.2599999998,"ADDRESS":"勝利路２２６號五樓之４","OBJECTID":613745},"geometry":{"x":169937.62000000011,"y":2545030.2600000016}},{"attributes":{"ID":613773,"DIS_CODE":0,"TOWNNAME":"北區","LI":"仁愛里","LIN":"2鄰","STREET":"勝利路","SECT":" ","MAREA":" ","LANE":" ","ALLEY":" ","HOUSE_NO":"２２６號五樓之５","E_COORD97":169937.62,"N_COORD97":2545030.2599999998,"ADDRESS":"勝利路２２６號五樓之５","OBJECTID":613746},"geometry":{"x":169937.62000000011,"y":2545030.2600000016}},{"attributes":{"ID":613774,"DIS_CODE":0,"TOWNNAME":"北區","LI":"仁愛里","LIN":"2鄰","STREET":"勝利路","SECT":" ","MAREA":" ","LANE":" ","ALLEY":" ","HOUSE_NO":"２２６號五樓之６","E_COORD97":169937.62,"N_COORD97":2545030.2599999998,"ADDRESS":"勝利路２２６號五樓之６","OBJECTID":613747},"geometry":{"x":169937.62000000011,"y":2545030.2600000016}},{"attributes":{"ID":613775,"DIS_CODE":0,"TOWNNAME":"北區","LI":"仁愛里","LIN":"2鄰","STREET":"勝利路","SECT":" ","MAREA":" ","LANE":" ","ALLEY":" ","HOUSE_NO":"２２６號五樓之７","E_COORD97":169937.62,"N_COORD97":2545030.2599999998,"ADDRESS":"勝利路２２６號五樓之７","OBJECTID":613748},"geometry":{"x":169937.62000000011,"y":2545030.2600000016}},{"attributes":{"ID":613776,"DIS_CODE":0,"TOWNNAME":"北區","LI":"仁愛里","LIN":"2鄰","STREET":"勝利路","SECT":" ","MAREA":" ","LANE":" ","ALLEY":" ","HOUSE_NO":"２２６號五樓之８","E_COORD97":169937.62,"N_COORD97":2545030.2599999998,"ADDRESS":"勝利路２２６號五樓之８","OBJECTID":613749},"geometry":{"x":169937.62000000011,"y":2545030.2600000016}},{"attributes":{"ID":613777,"DIS_CODE":0,"TOWNNAME":"北區","LI":"仁愛里","LIN":"2鄰","STREET":"勝利路","SECT":" ","MAREA":" ","LANE":" ","ALLEY":" ","HOUSE_NO":"２２６號四樓之１","E_COORD97":169937.62,"N_COORD97":2545030.2599999998,"ADDRESS":"勝利路２２６號四樓之１","OBJECTID":613750},"geometry":{"x":169937.62000000011,"y":2545030.2600000016}},{"attributes":{"ID":613778,"DIS_CODE":0,"TOWNNAME":"北區","LI":"仁愛里","LIN":"2鄰","STREET":"勝利路","SECT":" ","MAREA":" ","LANE":" ","ALLEY":" ","HOUSE_NO":"２２６號四樓之２","E_COORD97":169937.62,"N_COORD97":2545030.2599999998,"ADDRESS":"勝利路２２６號四樓之２","OBJECTID":613751},"geometry":{"x":169937.62000000011,"y":2545030.2600000016}},{"attributes":{"ID":613779,"DIS_CODE":0,"TOWNNAME":"北區","LI":"仁愛里","LIN":"2鄰","STREET":"勝利路","SECT":" ","MAREA":" ","LANE":" ","ALLEY":" ","HOUSE_NO":"２２６號四樓之３","E_COORD97":169937.62,"N_COORD97":2545030.2599999998,"ADDRESS":"勝利路２２６號四樓之３","OBJECTID":613752},"geometry":{"x":169937.62000000011,"y":2545030.2600000016}},{"attributes":{"ID":613780,"DIS_CODE":0,"TOWNNAME":"北區","LI":"仁愛里","LIN":"2鄰","STREET":"勝利路","SECT":" ","MAREA":" ","LANE":" ","ALLEY":" ","HOUSE_NO":"２２６號四樓之４","E_COORD97":169937.62,"N_COORD97":2545030.2599999998,"ADDRESS":"勝利路２２６號四樓之４","OBJECTID":613753},"geometry":{"x":169937.62000000011,"y":2545030.2600000016}},{"attributes":{"ID":613781,"DIS_CODE":0,"TOWNNAME":"北區","LI":"仁愛里","LIN":"2鄰","STREET":"勝利路","SECT":" ","MAREA":" ","LANE":" ","ALLEY":" ","HOUSE_NO":"２２６號四樓之５","E_COORD97":169937.62,"N_COORD97":2545030.2599999998,"ADDRESS":"勝利路２２６號四樓之５","OBJECTID":613754},"geometry":{"x":169937.62000000011,"y":2545030.2600000016}},{"attributes":{"ID":613782,"DIS_CODE":0,"TOWNNAME":"北區","LI":"仁愛里","LIN":"2鄰","STREET":"勝利路","SECT":" ","MAREA":" ","LANE":" ","ALLEY":" ","HOUSE_NO":"２２６號四樓之６","E_COORD97":169937.62,"N_COORD97":2545030.2599999998,"ADDRESS":"勝利路２２６號四樓之６","OBJECTID":613755},"geometry":{"x":169937.62000000011,"y":2545030.2600000016}},{"attributes":{"ID":613783,"DIS_CODE":0,"TOWNNAME":"北區","LI":"仁愛里","LIN":"2鄰","STREET":"勝利路","SECT":" ","MAREA":" ","LANE":" ","ALLEY":" ","HOUSE_NO":"２２６號四樓之７","E_COORD97":169937.62,"N_COORD97":2545030.2599999998,"ADDRESS":"勝利路２２６號四樓之７","OBJECTID":613756},"geometry":{"x":169937.62000000011,"y":2545030.2600000016}},{"attributes":{"ID":613784,"DIS_CODE":0,"TOWNNAME":"北區","LI":"仁愛里","LIN":"2鄰","STREET":"勝利路","SECT":" ","MAREA":" ","LANE":" ","ALLEY":" ","HOUSE_NO":"２２６號四樓之８","E_COORD97":169937.62,"N_COORD97":2545030.2599999998,"ADDRESS":"勝利路２２６號四樓之８","OBJECTID":613757},"geometry":{"x":169937.62000000011,"y":2545030.2600000016}},{"attributes":{"ID":613785,"DIS_CODE":0,"TOWNNAME":"南區","LI":"新生里","LIN":"2鄰","STREET":"大同路","SECT":"二段","MAREA":" ","LANE":" ","ALLEY":" ","HOUSE_NO":"１８８號四樓之３","E_COORD97":169355.95999999999,"N_COORD97":2541937.3900000001,"ADDRESS":"大同路二段１８８號四樓之３","OBJECTID":613758},"geometry":{"x":169355.95999999903,"y":2541937.3900000043}},{"attributes":{"ID":613786,"DIS_CODE":0,"TOWNNAME":"南區","LI":"新生里","LIN":"2鄰","STREET":"大同路","SECT":"二段","MAREA":" ","LANE":" ","ALLEY":" ","HOUSE_NO":"１８８號四樓之１","E_COORD97":169355.95999999999,"N_COORD97":2541937.3900000001,"ADDRESS":"大同路二段１８８號四樓之１","OBJECTID":613759},"geometry":{"x":169355.95999999903,"y":2541937.3900000043}},{"attributes":{"ID":613787,"DIS_CODE":0,"TOWNNAME":"南區","LI":"新生里","LIN":"2鄰","STREET":"大同路","SECT":"二段","MAREA":" ","LANE":" ","ALLEY":" ","HOUSE_NO":"１８８號四樓之２","E_COORD97":169355.95999999999,"N_COORD97":2541937.3900000001,"ADDRESS":"大同路二段１８８號四樓之２","OBJECTID":613760},"geometry":{"x":169355.95999999903,"y":2541937.3900000043}},{"attributes":{"ID":613788,"DIS_CODE":0,"TOWNNAME":"南區","LI":"新生里","LIN":"2鄰","STREET":"大同路","SECT":"二段","MAREA":" ","LANE":" ","ALLEY":" ","HOUSE_NO":"１８８號五樓之１","E_COORD97":169355.95999999999,"N_COORD97":2541937.3900000001,"ADDRESS":"大同路二段１８８號五樓之１","OBJECTID":613761},"geometry":{"x":169355.95999999903,"y":2541937.3900000043}},{"attributes":{"ID":613789,"DIS_CODE":0,"TOWNNAME":"南區","LI":"新生里","LIN":"2鄰","STREET":"大同路","SECT":"二段","MAREA":" ","LANE":" ","ALLEY":" ","HOUSE_NO":"１８８號五樓之２","E_COORD97":169355.95999999999,"N_COORD97":2541937.3900000001,"ADDRESS":"大同路二段１８８號五樓之２","OBJECTID":613762},"geometry":{"x":169355.95999999903,"y":2541937.3900000043}},{"attributes":{"ID":613790,"DIS_CODE":0,"TOWNNAME":"南區","LI":"新生里","LIN":"2鄰","STREET":"大同路","SECT":"二段","MAREA":" ","LANE":" ","ALLEY":" ","HOUSE_NO":"１８８號五樓之３","E_COORD97":169355.95999999999,"N_COORD97":2541937.3900000001,"ADDRESS":"大同路二段１８８號五樓之３","OBJECTID":613763},"geometry":{"x":169355.95999999903,"y":2541937.3900000043}},{"attributes":{"ID":613791,"DIS_CODE":0,"TOWNNAME":"南區","LI":"新生里","LIN":"2鄰","STREET":"大同路","SECT":"二段","MAREA":" ","LANE":" ","ALLEY":" ","HOUSE_NO":"１８８號五樓之５","E_COORD97":169355.95999999999,"N_COORD97":2541937.3900000001,"ADDRESS":"大同路二段１８８號五樓之５","OBJECTID":613764},"geometry":{"x":169355.95999999903,"y":2541937.3900000043}},{"attributes":{"ID":613792,"DIS_CODE":0,"TOWNNAME":"南區","LI":"新生里","LIN":"2鄰","STREET":"大同路","SECT":"二段","MAREA":" ","LANE":" ","ALLEY":" ","HOUSE_NO":"１８８號六樓之１","E_COORD97":169355.95999999999,"N_COORD97":2541937.3900000001,"ADDRESS":"大同路二段１８８號六樓之１","OBJECTID":613765},"geometry":{"x":169355.95999999903,"y":2541937.3900000043}},{"attributes":{"ID":613793,"DIS_CODE":0,"TOWNNAME":"南區","LI":"新生里","LIN":"2鄰","STREET":"大同路","SECT":"二段","MAREA":" ","LANE":" ","ALLEY":" ","HOUSE_NO":"１８８號六樓之２","E_COORD97":169355.95999999999,"N_COORD97":2541937.3900000001,"ADDRESS":"大同路二段１８８號六樓之２","OBJECTID":613766},"geometry":{"x":169355.95999999903,"y":2541937.3900000043}},{"attributes":{"ID":613794,"DIS_CODE":0,"TOWNNAME":"南區","LI":"新生里","LIN":"2鄰","STREET":"大同路","SECT":"二段","MAREA":" ","LANE":" ","ALLEY":" ","HOUSE_NO":"１８８號六樓之３","E_COORD97":169355.95999999999,"N_COORD97":2541937.3900000001,"ADDRESS":"大同路二段１８８號六樓之３","OBJECTID":613767},"geometry":{"x":169355.95999999903,"y":2541937.3900000043}},{"attributes":{"ID":613795,"DIS_CODE":0,"TOWNNAME":"南區","LI":"新生里","LIN":"2鄰","STREET":"大同路","SECT":"二段","MAREA":" ","LANE":" ","ALLEY":" ","HOUSE_NO":"１８８號六樓之５","E_COORD97":169355.95999999999,"N_COORD97":2541937.3900000001,"ADDRESS":"大同路二段１８８號六樓之５","OBJECTID":613768},"geometry":{"x":169355.95999999903,"y":2541937.3900000043}},{"attributes":{"ID":613796,"DIS_CODE":0,"TOWNNAME":"南區","LI":"新生里","LIN":"2鄰","STREET":"大同路","SECT":"二段","MAREA":" ","LANE":" ","ALLEY":" ","HOUSE_NO":"１８８號七樓之１","E_COORD97":169355.95999999999,"N_COORD97":2541937.3900000001,"ADDRESS":"大同路二段１８８號七樓之１","OBJECTID":613769},"geometry":{"x":169355.95999999903,"y":2541937.3900000043}},{"attributes":{"ID":613797,"DIS_CODE":0,"TOWNNAME":"南區","LI":"新生里","LIN":"2鄰","STREET":"大同路","SECT":"二段","MAREA":" ","LANE":" ","ALLEY":" ","HOUSE_NO":"１８８號七樓之２","E_COORD97":169355.95999999999,"N_COORD97":2541937.3900000001,"ADDRESS":"大同路二段１８８號七樓之２","OBJECTID":613770},"geometry":{"x":169355.95999999903,"y":2541937.3900000043}},{"attributes":{"ID":613798,"DIS_CODE":0,"TOWNNAME":"南區","LI":"新生里","LIN":"2鄰","STREET":"大同路","SECT":"二段","MAREA":" ","LANE":" ","ALLEY":" ","HOUSE_NO":"１８８號七樓之３","E_COORD97":169355.95999999999,"N_COORD97":2541937.3900000001,"ADDRESS":"大同路二段１８８號七樓之３","OBJECTID":613771},"geometry":{"x":169355.95999999903,"y":2541937.3900000043}},{"attributes":{"ID":613799,"DIS_CODE":0,"TOWNNAME":"南區","LI":"新生里","LIN":"2鄰","STREET":"大同路","SECT":"二段","MAREA":" ","LANE":" ","ALLEY":" ","HOUSE_NO":"１８８號七樓之５","E_COORD97":169355.95999999999,"N_COORD97":2541937.3900000001,"ADDRESS":"大同路二段１８８號七樓之５","OBJECTID":613772},"geometry":{"x":169355.95999999903,"y":2541937.3900000043}},{"attributes":{"ID":613800,"DIS_CODE":0,"TOWNNAME":"南區","LI":"新生里","LIN":"2鄰","STREET":"大同路","SECT":"二段","MAREA":" ","LANE":" ","ALLEY":" ","HOUSE_NO":"１８８號三樓之１","E_COORD97":169355.95999999999,"N_COORD97":2541937.3900000001,"ADDRESS":"大同路二段１８８號三樓之１","OBJECTID":613773},"geometry":{"x":169355.95999999903,"y":2541937.3900000043}},{"attributes":{"ID":613801,"DIS_CODE":0,"TOWNNAME":"南區","LI":"新生里","LIN":"2鄰","STREET":"大同路","SECT":"二段","MAREA":" ","LANE":" ","ALLEY":" ","HOUSE_NO":"１８８號三樓之２","E_COORD97":169355.95999999999,"N_COORD97":2541937.3900000001,"ADDRESS":"大同路二段１８８號三樓之２","OBJECTID":613774},"geometry":{"x":169355.95999999903,"y":2541937.3900000043}},{"attributes":{"ID":613802,"DIS_CODE":0,"TOWNNAME":"南區","LI":"新生里","LIN":"2鄰","STREET":"大同路","SECT":"二段","MAREA":" ","LANE":" ","ALLEY":" ","HOUSE_NO":"１８８號三樓之３","E_COORD97":169355.95999999999,"N_COORD97":2541937.3900000001,"ADDRESS":"大同路二段１８８號三樓之３","OBJECTID":613775},"geometry":{"x":169355.95999999903,"y":2541937.3900000043}},{"attributes":{"ID":613803,"DIS_CODE":0,"TOWNNAME":"南區","LI":"新生里","LIN":"2鄰","STREET":"大同路","SECT":"二段","MAREA":" ","LANE":" ","ALLEY":" ","HOUSE_NO":"１８８號三樓之５","E_COORD97":169355.95999999999,"N_COORD97":2541937.3900000001,"ADDRESS":"大同路二段１８８號三樓之５","OBJECTID":613776},"geometry":{"x":169355.95999999903,"y":2541937.3900000043}},{"attributes":{"ID":613804,"DIS_CODE":0,"TOWNNAME":"南區","LI":"新生里","LIN":"2鄰","STREET":"大同路","SECT":"二段","MAREA":" ","LANE":" ","ALLEY":" ","HOUSE_NO":"１８８號四樓之５","E_COORD97":169355.95999999999,"N_COORD97":2541937.3900000001,"ADDRESS":"大同路二段１８８號四樓之５","OBJECTID":613777},"geometry":{"x":169355.95999999903,"y":2541937.3900000043}},{"attributes":{"ID":613805,"DIS_CODE":0,"TOWNNAME":"南區","LI":"新生里","LIN":"2鄰","STREET":"大同路","SECT":"二段","MAREA":" ","LANE":" ","ALLEY":" ","HOUSE_NO":"１８８號八樓之１","E_COORD97":169355.95999999999,"N_COORD97":2541937.3900000001,"ADDRESS":"大同路二段１８８號八樓之１","OBJECTID":613778},"geometry":{"x":169355.95999999903,"y":2541937.3900000043}},{"attributes":{"ID":613806,"DIS_CODE":0,"TOWNNAME":"南區","LI":"新生里","LIN":"2鄰","STREET":"大同路","SECT":"二段","MAREA":" ","LANE":" ","ALLEY":" ","HOUSE_NO":"１８８號八樓之２","E_COORD97":169355.95999999999,"N_COORD97":2541937.3900000001,"ADDRESS":"大同路二段１８８號八樓之２","OBJECTID":613779},"geometry":{"x":169355.95999999903,"y":2541937.3900000043}},{"attributes":{"ID":613807,"DIS_CODE":0,"TOWNNAME":"南區","LI":"新生里","LIN":"2鄰","STREET":"大同路","SECT":"二段","MAREA":" ","LANE":" ","ALLEY":" ","HOUSE_NO":"１８８號八樓之３","E_COORD97":169355.95999999999,"N_COORD97":2541937.3900000001,"ADDRESS":"大同路二段１８８號八樓之３","OBJECTID":613780},"geometry":{"x":169355.95999999903,"y":2541937.3900000043}},{"attributes":{"ID":613808,"DIS_CODE":0,"TOWNNAME":"南區","LI":"新生里","LIN":"2鄰","STREET":"大同路","SECT":"二段","MAREA":" ","LANE":" ","ALLEY":" ","HOUSE_NO":"１８８號八樓之５","E_COORD97":169355.95999999999,"N_COORD97":2541937.3900000001,"ADDRESS":"大同路二段１８８號八樓之５","OBJECTID":613781},"geometry":{"x":169355.95999999903,"y":2541937.3900000043}},{"attributes":{"ID":613809,"DIS_CODE":0,"TOWNNAME":"南區","LI":"新生里","LIN":"2鄰","STREET":"大同路","SECT":"二段","MAREA":" ","LANE":" ","ALLEY":" ","HOUSE_NO":"１８８號九樓之１","E_COORD97":169355.95999999999,"N_COORD97":2541937.3900000001,"ADDRESS":"大同路二段１８８號九樓之１","OBJECTID":613782},"geometry":{"x":169355.95999999903,"y":2541937.3900000043}},{"attributes":{"ID":613810,"DIS_CODE":0,"TOWNNAME":"南區","LI":"新生里","LIN":"2鄰","STREET":"大同路","SECT":"二段","MAREA":" ","LANE":" ","ALLEY":" ","HOUSE_NO":"１８８號九樓之２","E_COORD97":169355.95999999999,"N_COORD97":2541937.3900000001,"ADDRESS":"大同路二段１８８號九樓之２","OBJECTID":613783},"geometry":{"x":169355.95999999903,"y":2541937.3900000043}},{"attributes":{"ID":613811,"DIS_CODE":0,"TOWNNAME":"南區","LI":"新生里","LIN":"2鄰","STREET":"大同路","SECT":"二段","MAREA":" ","LANE":" ","ALLEY":" ","HOUSE_NO":"１８８號九樓之３","E_COORD97":169355.95999999999,"N_COORD97":2541937.3900000001,"ADDRESS":"大同路二段１８８號九樓之３","OBJECTID":613784},"geometry":{"x":169355.95999999903,"y":2541937.3900000043}},{"attributes":{"ID":613812,"DIS_CODE":0,"TOWNNAME":"南區","LI":"新生里","LIN":"2鄰","STREET":"大同路","SECT":"二段","MAREA":" ","LANE":" ","ALLEY":" ","HOUSE_NO":"１８８號九樓之５","E_COORD97":169355.95999999999,"N_COORD97":2541937.3900000001,"ADDRESS":"大同路二段１８８號九樓之５","OBJECTID":613785},"geometry":{"x":169355.95999999903,"y":2541937.3900000043}},{"attributes":{"ID":613813,"DIS_CODE":0,"TOWNNAME":"南區","LI":"新生里","LIN":"2鄰","STREET":"大同路","SECT":"二段","MAREA":" ","LANE":" ","ALLEY":" ","HOUSE_NO":"１８８號十樓之５","E_COORD97":169355.95999999999,"N_COORD97":2541937.3900000001,"ADDRESS":"大同路二段１８８號十樓之５","OBJECTID":613786},"geometry":{"x":169355.95999999903,"y":2541937.3900000043}},{"attributes":{"ID":613814,"DIS_CODE":0,"TOWNNAME":"南區","LI":"新生里","LIN":"2鄰","STREET":"大同路","SECT":"二段","MAREA":" ","LANE":" ","ALLEY":" ","HOUSE_NO":"１８８號十樓之１","E_COORD97":169355.95999999999,"N_COORD97":2541937.3900000001,"ADDRESS":"大同路二段１８８號十樓之１","OBJECTID":613787},"geometry":{"x":169355.95999999903,"y":2541937.3900000043}},{"attributes":{"ID":613815,"DIS_CODE":0,"TOWNNAME":"南區","LI":"新生里","LIN":"2鄰","STREET":"大同路","SECT":"二段","MAREA":" ","LANE":" ","ALLEY":" ","HOUSE_NO":"１８８號十樓之２","E_COORD97":169355.95999999999,"N_COORD97":2541937.3900000001,"ADDRESS":"大同路二段１８８號十樓之２","OBJECTID":613788},"geometry":{"x":169355.95999999903,"y":2541937.3900000043}},{"attributes":{"ID":613816,"DIS_CODE":0,"TOWNNAME":"南區","LI":"新生里","LIN":"2鄰","STREET":"大同路","SECT":"二段","MAREA":" ","LANE":" ","ALLEY":" ","HOUSE_NO":"１８８號十樓之３","E_COORD97":169355.95999999999,"N_COORD97":2541937.3900000001,"ADDRESS":"大同路二段１８８號十樓之３","OBJECTID":613789},"geometry":{"x":169355.95999999903,"y":2541937.3900000043}},{"attributes":{"ID":613817,"DIS_CODE":0,"TOWNNAME":"南區","LI":"新生里","LIN":"2鄰","STREET":"大同路","SECT":"二段","MAREA":" ","LANE":" ","ALLEY":" ","HOUSE_NO":"１８８號二樓之１","E_COORD97":169355.95999999999,"N_COORD97":2541937.3900000001,"ADDRESS":"大同路二段１８８號二樓之１","OBJECTID":613790},"geometry":{"x":169355.95999999903,"y":2541937.3900000043}},{"attributes":{"ID":613818,"DIS_CODE":0,"TOWNNAME":"南區","LI":"新生里","LIN":"2鄰","STREET":"大同路","SECT":"二段","MAREA":" ","LANE":" ","ALLEY":" ","HOUSE_NO":"１８８號二樓之２","E_COORD97":169355.95999999999,"N_COORD97":2541937.3900000001,"ADDRESS":"大同路二段１８８號二樓之２","OBJECTID":613791},"geometry":{"x":169355.95999999903,"y":2541937.3900000043}},{"attributes":{"ID":613819,"DIS_CODE":0,"TOWNNAME":"南區","LI":"新生里","LIN":"2鄰","STREET":"大同路","SECT":"二段","MAREA":" ","LANE":" ","ALLEY":" ","HOUSE_NO":"１９６號五樓之１","E_COORD97":169367.23000000001,"N_COORD97":2541911.75,"ADDRESS":"大同路二段１９６號五樓之１","OBJECTID":613792},"geometry":{"x":169367.23000000138,"y":2541911.7500000019}},{"attributes":{"ID":613820,"DIS_CODE":0,"TOWNNAME":"南區","LI":"新生里","LIN":"2鄰","STREET":"大同路","SECT":"二段","MAREA":" ","LANE":" ","ALLEY":" ","HOUSE_NO":"１９６號五樓之２","E_COORD97":169367.23000000001,"N_COORD97":2541911.75,"ADDRESS":"大同路二段１９６號五樓之２","OBJECTID":613793},"geometry":{"x":169367.23000000138,"y":2541911.7500000019}},{"attributes":{"ID":613821,"DIS_CODE":0,"TOWNNAME":"南區","LI":"新生里","LIN":"2鄰","STREET":"大同路","SECT":"二段","MAREA":" ","LANE":" ","ALLEY":" ","HOUSE_NO":"１９６號六樓之１","E_COORD97":169367.23000000001,"N_COORD97":2541911.75,"ADDRESS":"大同路二段１９６號六樓之１","OBJECTID":613794},"geometry":{"x":169367.23000000138,"y":2541911.7500000019}},{"attributes":{"ID":613822,"DIS_CODE":0,"TOWNNAME":"南區","LI":"新生里","LIN":"2鄰","STREET":"大同路","SECT":"二段","MAREA":" ","LANE":" ","ALLEY":" ","HOUSE_NO":"１９６號六樓之２","E_COORD97":169367.23000000001,"N_COORD97":2541911.75,"ADDRESS":"大同路二段１９６號六樓之２","OBJECTID":613795},"geometry":{"x":169367.23000000138,"y":2541911.7500000019}},{"attributes":{"ID":613823,"DIS_CODE":0,"TOWNNAME":"南區","LI":"新生里","LIN":"2鄰","STREET":"大同路","SECT":"二段","MAREA":" ","LANE":" ","ALLEY":" ","HOUSE_NO":"１９６號七樓之１","E_COORD97":169367.23000000001,"N_COORD97":2541911.75,"ADDRESS":"大同路二段１９６號七樓之１","OBJECTID":613796},"geometry":{"x":169367.23000000138,"y":2541911.7500000019}},{"attributes":{"ID":613824,"DIS_CODE":0,"TOWNNAME":"南區","LI":"新生里","LIN":"2鄰","STREET":"大同路","SECT":"二段","MAREA":" ","LANE":" ","ALLEY":" ","HOUSE_NO":"１９６號七樓之２","E_COORD97":169367.23000000001,"N_COORD97":2541911.75,"ADDRESS":"大同路二段１９６號七樓之２","OBJECTID":613797},"geometry":{"x":169367.23000000138,"y":2541911.7500000019}},{"attributes":{"ID":613825,"DIS_CODE":0,"TOWNNAME":"南區","LI":"新生里","LIN":"2鄰","STREET":"大同路","SECT":"二段","MAREA":" ","LANE":" ","ALLEY":" ","HOUSE_NO":"１９６號三樓之１","E_COORD97":169367.23000000001,"N_COORD97":2541911.75,"ADDRESS":"大同路二段１９６號三樓之１","OBJECTID":613798},"geometry":{"x":169367.23000000138,"y":2541911.7500000019}},{"attributes":{"ID":613826,"DIS_CODE":0,"TOWNNAME":"南區","LI":"新生里","LIN":"2鄰","STREET":"大同路","SECT":"二段","MAREA":" ","LANE":" ","ALLEY":" ","HOUSE_NO":"１９６號三樓之２","E_COORD97":169367.23000000001,"N_COORD97":2541911.75,"ADDRESS":"大同路二段１９６號三樓之２","OBJECTID":613799},"geometry":{"x":169367.23000000138,"y":2541911.7500000019}},{"attributes":{"ID":613827,"DIS_CODE":0,"TOWNNAME":"南區","LI":"新生里","LIN":"2鄰","STREET":"大同路","SECT":"二段","MAREA":" ","LANE":" ","ALLEY":" ","HOUSE_NO":"１９６號四樓之１","E_COORD97":169367.23000000001,"N_COORD97":2541911.75,"ADDRESS":"大同路二段１９６號四樓之１","OBJECTID":613800},"geometry":{"x":169367.23000000138,"y":2541911.7500000019}}]}