{"displayFieldName":"TOWNNAME","fieldAliases":{"ID":"ID","DIS_CODE":"DIS_CODE","TOWNNAME":"TOWNNAME","LI":"LI","LIN":"LIN","STREET":"STREET","SECT":"SECT","MAREA":"MAREA","LANE":"LANE","ALLEY":"ALLEY","HOUSE_NO":"HOUSE_NO","E_COORD97":"E_COORD97","N_COORD97":"N_COORD97","ADDRESS":"ADDRESS","OBJECTID":"OBJECTID"},"geometryType":"esriGeometryPoint","spatialReference":{"wkid":102443,"latestWkid":3826},"fields":[{"name":"ID","type":"esriFieldTypeDouble","alias":"ID"},{"name":"DIS_CODE","type":"esriFieldTypeInteger","alias":"DIS_CODE"},{"name":"TOWNNAME","type":"esriFieldTypeString","alias":"TOWNNAME","length":8},{"name":"LI","type":"esriFieldTypeString","alias":"LI","length":8},{"name":"LIN","type":"esriFieldTypeString","alias":"LIN","length":12},{"name":"STREET","type":"esriFieldTypeString","alias":"STREET","length":20},{"name":"SECT","type":"esriFieldTypeString","alias":"SECT","length":8},{"name":"MAREA","type":"esriFieldTypeString","alias":"MAREA","length":12},{"name":"LANE","type":"esriFieldTypeString","alias":"LANE","length":10},{"name":"ALLEY","type":"esriFieldTypeString","alias":"ALLEY","length":10},{"name":"HOUSE_NO","type":"esriFieldTypeString","alias":"HOUSE_NO","length":20},{"name":"E_COORD97","type":"esriFieldTypeDouble","alias":"E_COORD97"},{"name":"N_COORD97","type":"esriFieldTypeDouble","alias":"N_COORD97"},{"name":"ADDRESS","type":"esriFieldTypeString","alias":"ADDRESS","length":50},{"name":"OBJECTID","type":"esriFieldTypeOID","alias":"OBJECTID"}],"features":[{"attributes":{"ID":241005,"DIS_CODE":0,"TOWNNAME":"永康區","LI":"南灣里","LIN":"40鄰","STREET":"南灣街","SECT":" ","MAREA":" ","LANE":"１３８巷","ALLEY":" ","HOUSE_NO":"１２號","E_COORD97":174325.64000000001,"N_COORD97":2545051,"ADDRESS":"南灣街１３８巷１２號","OBJECTID":241001},"geometry":{"x":174325.6400000006,"y":2545051}},{"attributes":{"ID":241006,"DIS_CODE":0,"TOWNNAME":"永康區","LI":"大橋里","LIN":"14鄰","STREET":"大橋一街","SECT":" ","MAREA":" ","LANE":" ","ALLEY":" ","HOUSE_NO":"６１號十三樓之１","E_COORD97":170896.95000000001,"N_COORD97":2546426.5499999998,"ADDRESS":"大橋一街６１號十三樓之１","OBJECTID":241002},"geometry":{"x":170896.95000000019,"y":2546426.5500000026}},{"attributes":{"ID":241007,"DIS_CODE":0,"TOWNNAME":"永康區","LI":"大橋里","LIN":"14鄰","STREET":"大橋一街","SECT":" ","MAREA":" ","LANE":" ","ALLEY":" ","HOUSE_NO":"６３號九樓之１","E_COORD97":170898.78,"N_COORD97":2546429.5499999998,"ADDRESS":"大橋一街６３號九樓之１","OBJECTID":241003},"geometry":{"x":170898.78000000119,"y":2546429.5500000026}},{"attributes":{"ID":241008,"DIS_CODE":0,"TOWNNAME":"永康區","LI":"大橋里","LIN":"14鄰","STREET":"大橋二街","SECT":" ","MAREA":" ","LANE":" ","ALLEY":" ","HOUSE_NO":"２４號二樓","E_COORD97":170775.35000000001,"N_COORD97":2546535.9700000002,"ADDRESS":"大橋二街２４號二樓","OBJECTID":241004},"geometry":{"x":170775.35000000149,"y":2546535.9700000007}},{"attributes":{"ID":241009,"DIS_CODE":0,"TOWNNAME":"永康區","LI":"大橋里","LIN":"14鄰","STREET":"大橋一街","SECT":" ","MAREA":" ","LANE":" ","ALLEY":" ","HOUSE_NO":"６１號十一樓之２","E_COORD97":170897.09,"N_COORD97":2546426.5499999998,"ADDRESS":"大橋一街６１號十一樓之２","OBJECTID":241005},"geometry":{"x":170897.08999999985,"y":2546426.5500000026}},{"attributes":{"ID":241010,"DIS_CODE":0,"TOWNNAME":"永康區","LI":"大橋里","LIN":"14鄰","STREET":"大橋一街","SECT":" ","MAREA":" ","LANE":" ","ALLEY":" ","HOUSE_NO":"６３號八樓之３","E_COORD97":170898.88,"N_COORD97":2546429.5499999998,"ADDRESS":"大橋一街６３號八樓之３","OBJECTID":241006},"geometry":{"x":170898.87999999989,"y":2546429.5500000026}},{"attributes":{"ID":241011,"DIS_CODE":0,"TOWNNAME":"學甲區","LI":"三慶里","LIN":"16鄰","STREET":" ","SECT":" ","MAREA":"紅茄","LANE":" ","ALLEY":" ","HOUSE_NO":"１４號","E_COORD97":167632.25,"N_COORD97":2575733.1099999999,"ADDRESS":"紅茄１４號","OBJECTID":241007},"geometry":{"x":167632.25000000093,"y":2575733.1100000031}},{"attributes":{"ID":241012,"DIS_CODE":0,"TOWNNAME":"北區","LI":"永祥里","LIN":"16鄰","STREET":"大武街","SECT":" ","MAREA":" ","LANE":"５０２巷","ALLEY":" ","HOUSE_NO":"８號","E_COORD97":170139.17000000001,"N_COORD97":2546292.5699999998,"ADDRESS":"大武街５０２巷８號","OBJECTID":241008},"geometry":{"x":170139.16999999993,"y":2546292.5700000022}},{"attributes":{"ID":241013,"DIS_CODE":0,"TOWNNAME":"北區","LI":"小康里","LIN":"16鄰","STREET":"大武街","SECT":" ","MAREA":" ","LANE":"４１３巷","ALLEY":" ","HOUSE_NO":"１號","E_COORD97":169801.04999999999,"N_COORD97":2546488.6899999999,"ADDRESS":"大武街４１３巷１號","OBJECTID":241009},"geometry":{"x":169801.04999999888,"y":2546488.6900000013}},{"attributes":{"ID":241014,"DIS_CODE":0,"TOWNNAME":"北區","LI":"小康里","LIN":"16鄰","STREET":"大武街","SECT":" ","MAREA":" ","LANE":"４１３巷","ALLEY":" ","HOUSE_NO":"２號","E_COORD97":169789.66,"N_COORD97":2546489.29,"ADDRESS":"大武街４１３巷２號","OBJECTID":241010},"geometry":{"x":169789.66000000108,"y":2546489.2899999972}},{"attributes":{"ID":241015,"DIS_CODE":0,"TOWNNAME":"北區","LI":"小康里","LIN":"16鄰","STREET":"大武街","SECT":" ","MAREA":" ","LANE":"４１３巷","ALLEY":" ","HOUSE_NO":"３號","E_COORD97":169799.85000000001,"N_COORD97":2546495.7999999998,"ADDRESS":"大武街４１３巷３號","OBJECTID":241011},"geometry":{"x":169799.84999999963,"y":2546495.8000000026}},{"attributes":{"ID":241016,"DIS_CODE":0,"TOWNNAME":"北區","LI":"小康里","LIN":"16鄰","STREET":"大武街","SECT":" ","MAREA":" ","LANE":"４１３巷","ALLEY":" ","HOUSE_NO":"４號","E_COORD97":169787.57000000001,"N_COORD97":2546495,"ADDRESS":"大武街４１３巷４號","OBJECTID":241012},"geometry":{"x":169787.5700000003,"y":2546495}},{"attributes":{"ID":241017,"DIS_CODE":0,"TOWNNAME":"永康區","LI":"北灣里","LIN":"40鄰","STREET":"大同街","SECT":" ","MAREA":" ","LANE":"４１３巷","ALLEY":" ","HOUSE_NO":"１２號","E_COORD97":174630.73000000001,"N_COORD97":2546272.0899999999,"ADDRESS":"大同街４１３巷１２號","OBJECTID":241013},"geometry":{"x":174630.73000000138,"y":2546272.0900000017}},{"attributes":{"ID":241018,"DIS_CODE":0,"TOWNNAME":"永康區","LI":"正強里","LIN":"40鄰","STREET":"四維街","SECT":" ","MAREA":" ","LANE":"１８１巷","ALLEY":" ","HOUSE_NO":"１１號","E_COORD97":173239.57000000001,"N_COORD97":2548428.7400000002,"ADDRESS":"四維街１８１巷１１號","OBJECTID":241014},"geometry":{"x":173239.57000000123,"y":2548428.7400000002}},{"attributes":{"ID":241019,"DIS_CODE":0,"TOWNNAME":"永康區","LI":"正強里","LIN":"40鄰","STREET":"四維街","SECT":" ","MAREA":" ","LANE":"１８１巷","ALLEY":" ","HOUSE_NO":"１９號","E_COORD97":173221.41,"N_COORD97":2548448.7400000002,"ADDRESS":"四維街１８１巷１９號","OBJECTID":241015},"geometry":{"x":173221.41000000015,"y":2548448.7400000021}},{"attributes":{"ID":241020,"DIS_CODE":0,"TOWNNAME":"永康區","LI":"正強里","LIN":"40鄰","STREET":"四維街","SECT":" ","MAREA":" ","LANE":"１８１巷","ALLEY":" ","HOUSE_NO":"４號","E_COORD97":173242.56,"N_COORD97":2548451.9900000002,"ADDRESS":"四維街１８１巷４號","OBJECTID":241016},"geometry":{"x":173242.56000000052,"y":2548451.9900000002}},{"attributes":{"ID":241021,"DIS_CODE":0,"TOWNNAME":"永康區","LI":"正強里","LIN":"40鄰","STREET":"四維街","SECT":" ","MAREA":" ","LANE":"２０７巷","ALLEY":" ","HOUSE_NO":"１４號","E_COORD97":173205.82000000001,"N_COORD97":2548478,"ADDRESS":"四維街２０７巷１４號","OBJECTID":241017},"geometry":{"x":173205.82000000123,"y":2548478}},{"attributes":{"ID":241022,"DIS_CODE":0,"TOWNNAME":"永康區","LI":"正強里","LIN":"40鄰","STREET":"四維街","SECT":" ","MAREA":" ","LANE":"１８１巷","ALLEY":" ","HOUSE_NO":"５號","E_COORD97":173252.13,"N_COORD97":2548415.3199999998,"ADDRESS":"四維街１８１巷５號","OBJECTID":241018},"geometry":{"x":173252.13000000175,"y":2548415.3200000003}},{"attributes":{"ID":241023,"DIS_CODE":0,"TOWNNAME":"永康區","LI":"正強里","LIN":"40鄰","STREET":"四維街","SECT":" ","MAREA":" ","LANE":"１８１巷","ALLEY":" ","HOUSE_NO":"８號","E_COORD97":173235.88,"N_COORD97":2548463.1499999999,"ADDRESS":"四維街１８１巷８號","OBJECTID":241019},"geometry":{"x":173235.88000000082,"y":2548463.1500000022}},{"attributes":{"ID":241024,"DIS_CODE":0,"TOWNNAME":"永康區","LI":"正強里","LIN":"40鄰","STREET":"四維街","SECT":" ","MAREA":" ","LANE":"１８１巷","ALLEY":" ","HOUSE_NO":"２５號","E_COORD97":173211.82000000001,"N_COORD97":2548462.2400000002,"ADDRESS":"四維街１８１巷２５號","OBJECTID":241020},"geometry":{"x":173211.8200000003,"y":2548462.2400000021}},{"attributes":{"ID":241025,"DIS_CODE":0,"TOWNNAME":"永康區","LI":"正強里","LIN":"40鄰","STREET":"四維街","SECT":" ","MAREA":" ","LANE":"２０７巷","ALLEY":" ","HOUSE_NO":"２號","E_COORD97":173229.84,"N_COORD97":2548497.48,"ADDRESS":"四維街２０７巷２號","OBJECTID":241021},"geometry":{"x":173229.83999999985,"y":2548497.4800000023}},{"attributes":{"ID":241026,"DIS_CODE":0,"TOWNNAME":"永康區","LI":"大橋里","LIN":"14鄰","STREET":"大橋一街","SECT":" ","MAREA":" ","LANE":" ","ALLEY":" ","HOUSE_NO":"６３號九樓之３","E_COORD97":170898.88,"N_COORD97":2546429.5499999998,"ADDRESS":"大橋一街６３號九樓之３","OBJECTID":241022},"geometry":{"x":170898.87999999989,"y":2546429.5500000026}},{"attributes":{"ID":241027,"DIS_CODE":0,"TOWNNAME":"永康區","LI":"大橋里","LIN":"14鄰","STREET":"大橋一街","SECT":" ","MAREA":" ","LANE":" ","ALLEY":" ","HOUSE_NO":"６３號十樓之３","E_COORD97":170898.88,"N_COORD97":2546429.5499999998,"ADDRESS":"大橋一街６３號十樓之３","OBJECTID":241023},"geometry":{"x":170898.87999999989,"y":2546429.5500000026}},{"attributes":{"ID":241028,"DIS_CODE":0,"TOWNNAME":"永康區","LI":"大橋里","LIN":"14鄰","STREET":"大橋一街","SECT":" ","MAREA":" ","LANE":" ","ALLEY":" ","HOUSE_NO":"６３號九樓之２","E_COORD97":170898.92000000001,"N_COORD97":2546429.5499999998,"ADDRESS":"大橋一街６３號九樓之２","OBJECTID":241024},"geometry":{"x":170898.92000000179,"y":2546429.5500000026}},{"attributes":{"ID":241029,"DIS_CODE":0,"TOWNNAME":"永康區","LI":"大橋里","LIN":"14鄰","STREET":"大橋一街","SECT":" ","MAREA":" ","LANE":" ","ALLEY":" ","HOUSE_NO":"６１號六樓之２","E_COORD97":170895.84,"N_COORD97":2546426.5499999998,"ADDRESS":"大橋一街６１號六樓之２","OBJECTID":241025},"geometry":{"x":170895.83999999985,"y":2546426.5500000026}},{"attributes":{"ID":241030,"DIS_CODE":0,"TOWNNAME":"永康區","LI":"大橋里","LIN":"14鄰","STREET":"大橋一街","SECT":" ","MAREA":" ","LANE":" ","ALLEY":" ","HOUSE_NO":"６３號七樓之２","E_COORD97":170898.92000000001,"N_COORD97":2546429.5499999998,"ADDRESS":"大橋一街６３號七樓之２","OBJECTID":241026},"geometry":{"x":170898.92000000179,"y":2546429.5500000026}},{"attributes":{"ID":241031,"DIS_CODE":0,"TOWNNAME":"新營區","LI":"太南里","LIN":"16鄰","STREET":" ","SECT":" ","MAREA":"太子宮","LANE":" ","ALLEY":" ","HOUSE_NO":"３０４號","E_COORD97":175995.70000000001,"N_COORD97":2576737.1899999999,"ADDRESS":"太子宮３０４號","OBJECTID":241027},"geometry":{"x":175995.70000000019,"y":2576737.1900000013}},{"attributes":{"ID":241032,"DIS_CODE":0,"TOWNNAME":"新營區","LI":"土庫里","LIN":"16鄰","STREET":" ","SECT":" ","MAREA":"卯舍","LANE":" ","ALLEY":" ","HOUSE_NO":"５之１號","E_COORD97":181963.88,"N_COORD97":2580111.8300000001,"ADDRESS":"卯舍５之１號","OBJECTID":241028},"geometry":{"x":181963.88000000082,"y":2580111.8300000001}},{"attributes":{"ID":241033,"DIS_CODE":0,"TOWNNAME":"新營區","LI":"土庫里","LIN":"16鄰","STREET":" ","SECT":" ","MAREA":"卯舍","LANE":" ","ALLEY":" ","HOUSE_NO":"１２之２９號","E_COORD97":181725.01000000001,"N_COORD97":2580117.3700000001,"ADDRESS":"卯舍１２之２９號","OBJECTID":241029},"geometry":{"x":181725.00999999978,"y":2580117.3700000029}},{"attributes":{"ID":241034,"DIS_CODE":0,"TOWNNAME":"永康區","LI":"正強里","LIN":"40鄰","STREET":"四維街","SECT":" ","MAREA":" ","LANE":"２０７巷","ALLEY":" ","HOUSE_NO":"１２號","E_COORD97":173210.76000000001,"N_COORD97":2548482.75,"ADDRESS":"四維街２０７巷１２號","OBJECTID":241030},"geometry":{"x":173210.76000000071,"y":2548482.75}},{"attributes":{"ID":241035,"DIS_CODE":0,"TOWNNAME":"永康區","LI":"正強里","LIN":"40鄰","STREET":"四維街","SECT":" ","MAREA":" ","LANE":"２０７巷","ALLEY":" ","HOUSE_NO":"１０號","E_COORD97":173212.54000000001,"N_COORD97":2548488.25,"ADDRESS":"四維街２０７巷１０號","OBJECTID":241031},"geometry":{"x":173212.54000000097,"y":2548488.2500000019}},{"attributes":{"ID":241036,"DIS_CODE":0,"TOWNNAME":"永康區","LI":"正強里","LIN":"40鄰","STREET":"四維街","SECT":" ","MAREA":" ","LANE":"１８１巷","ALLEY":" ","HOUSE_NO":"１０號","E_COORD97":173226.26999999999,"N_COORD97":2548474.4900000002,"ADDRESS":"四維街１８１巷１０號","OBJECTID":241032},"geometry":{"x":173226.26999999955,"y":2548474.4900000002}},{"attributes":{"ID":241037,"DIS_CODE":0,"TOWNNAME":"永康區","LI":"正強里","LIN":"40鄰","STREET":"四維街","SECT":" ","MAREA":" ","LANE":"２０７巷","ALLEY":" ","HOUSE_NO":"８號","E_COORD97":173216.48000000001,"N_COORD97":2548490.23,"ADDRESS":"四維街２０７巷８號","OBJECTID":241033},"geometry":{"x":173216.48000000231,"y":2548490.2300000004}},{"attributes":{"ID":241038,"DIS_CODE":0,"TOWNNAME":"永康區","LI":"正強里","LIN":"40鄰","STREET":"四維街","SECT":" ","MAREA":" ","LANE":"２０７巷","ALLEY":" ","HOUSE_NO":"１６號","E_COORD97":173202.98999999999,"N_COORD97":2548473.4900000002,"ADDRESS":"四維街２０７巷１６號","OBJECTID":241034},"geometry":{"x":173202.99000000115,"y":2548473.4900000021}},{"attributes":{"ID":241039,"DIS_CODE":0,"TOWNNAME":"永康區","LI":"正強里","LIN":"40鄰","STREET":"四維街","SECT":" ","MAREA":" ","LANE":"２０７巷","ALLEY":" ","HOUSE_NO":"２０號","E_COORD97":173195.57000000001,"N_COORD97":2548465.4900000002,"ADDRESS":"四維街２０７巷２０號","OBJECTID":241035},"geometry":{"x":173195.57000000123,"y":2548465.4900000002}},{"attributes":{"ID":241040,"DIS_CODE":0,"TOWNNAME":"永康區","LI":"正強里","LIN":"40鄰","STREET":"四維街","SECT":" ","MAREA":" ","LANE":"１８１巷","ALLEY":" ","HOUSE_NO":"１號","E_COORD97":173260.01000000001,"N_COORD97":2548405.0899999999,"ADDRESS":"四維街１８１巷１號","OBJECTID":241036},"geometry":{"x":173260.01000000071,"y":2548405.0900000017}},{"attributes":{"ID":241041,"DIS_CODE":0,"TOWNNAME":"永康區","LI":"西灣里","LIN":"40鄰","STREET":"大勇路","SECT":" ","MAREA":" ","LANE":"２３巷","ALLEY":" ","HOUSE_NO":"１３號三樓","E_COORD97":174166.64999999999,"N_COORD97":2545389.7599999998,"ADDRESS":"大勇路２３巷１３號三樓","OBJECTID":241037},"geometry":{"x":174166.6500000013,"y":2545389.7600000016}},{"attributes":{"ID":241042,"DIS_CODE":0,"TOWNNAME":"永康區","LI":"西灣里","LIN":"40鄰","STREET":"大勇路","SECT":" ","MAREA":" ","LANE":"２３巷","ALLEY":" ","HOUSE_NO":"９號三樓","E_COORD97":174175.60999999999,"N_COORD97":2545400.2599999998,"ADDRESS":"大勇路２３巷９號三樓","OBJECTID":241038},"geometry":{"x":174175.61000000127,"y":2545400.2600000016}},{"attributes":{"ID":241043,"DIS_CODE":0,"TOWNNAME":"永康區","LI":"西灣里","LIN":"40鄰","STREET":"大勇路","SECT":" ","MAREA":" ","LANE":"２３巷","ALLEY":" ","HOUSE_NO":"１３號二樓","E_COORD97":174166.64999999999,"N_COORD97":2545389.7599999998,"ADDRESS":"大勇路２３巷１３號二樓","OBJECTID":241039},"geometry":{"x":174166.6500000013,"y":2545389.7600000016}},{"attributes":{"ID":241044,"DIS_CODE":0,"TOWNNAME":"永康區","LI":"西灣里","LIN":"40鄰","STREET":"大勇路","SECT":" ","MAREA":" ","LANE":"２３巷","ALLEY":" ","HOUSE_NO":"１９號六樓之２","E_COORD97":174164.26000000001,"N_COORD97":2545406.0499999998,"ADDRESS":"大勇路２３巷１９號六樓之２","OBJECTID":241040},"geometry":{"x":174164.25999999978,"y":2545406.0500000026}},{"attributes":{"ID":241045,"DIS_CODE":0,"TOWNNAME":"永康區","LI":"西灣里","LIN":"40鄰","STREET":"大勇路","SECT":" ","MAREA":" ","LANE":"２３巷","ALLEY":" ","HOUSE_NO":"１５號三樓","E_COORD97":174158.39999999999,"N_COORD97":2545392.5099999998,"ADDRESS":"大勇路２３巷１５號三樓","OBJECTID":241041},"geometry":{"x":174158.4000000013,"y":2545392.5099999998}},{"attributes":{"ID":241046,"DIS_CODE":0,"TOWNNAME":"永康區","LI":"西灣里","LIN":"40鄰","STREET":"大勇路","SECT":" ","MAREA":" ","LANE":"２３巷","ALLEY":" ","HOUSE_NO":"９號五樓","E_COORD97":174175.60999999999,"N_COORD97":2545400.2599999998,"ADDRESS":"大勇路２３巷９號五樓","OBJECTID":241042},"geometry":{"x":174175.61000000127,"y":2545400.2600000016}},{"attributes":{"ID":241047,"DIS_CODE":0,"TOWNNAME":"永康區","LI":"西灣里","LIN":"40鄰","STREET":"大勇路","SECT":" ","MAREA":" ","LANE":"２３巷","ALLEY":" ","HOUSE_NO":"１１號二樓","E_COORD97":174174.89999999999,"N_COORD97":2545386.5099999998,"ADDRESS":"大勇路２３巷１１號二樓","OBJECTID":241043},"geometry":{"x":174174.9000000013,"y":2545386.5099999998}},{"attributes":{"ID":241048,"DIS_CODE":0,"TOWNNAME":"永康區","LI":"西灣里","LIN":"40鄰","STREET":"大勇路","SECT":" ","MAREA":" ","LANE":"２３巷","ALLEY":" ","HOUSE_NO":"１７號二樓","E_COORD97":174150.59,"N_COORD97":2545395.5099999998,"ADDRESS":"大勇路２３巷１７號二樓","OBJECTID":241044},"geometry":{"x":174150.58999999985,"y":2545395.5099999998}},{"attributes":{"ID":241049,"DIS_CODE":0,"TOWNNAME":"新營區","LI":"土庫里","LIN":"16鄰","STREET":" ","SECT":" ","MAREA":"卯舍","LANE":" ","ALLEY":" ","HOUSE_NO":"１１號","E_COORD97":181797.57000000001,"N_COORD97":2580252.0800000001,"ADDRESS":"卯舍１１號","OBJECTID":241045},"geometry":{"x":181797.5700000003,"y":2580252.0800000001}},{"attributes":{"ID":241050,"DIS_CODE":0,"TOWNNAME":"新營區","LI":"土庫里","LIN":"16鄰","STREET":" ","SECT":" ","MAREA":"卯舍","LANE":" ","ALLEY":" ","HOUSE_NO":"１號之１６","E_COORD97":181989.04999999999,"N_COORD97":2580203.6400000001,"ADDRESS":"卯舍１號之１６","OBJECTID":241046},"geometry":{"x":181989.04999999981,"y":2580203.6400000025}},{"attributes":{"ID":241051,"DIS_CODE":0,"TOWNNAME":"新營區","LI":"土庫里","LIN":"16鄰","STREET":" ","SECT":" ","MAREA":"卯舍","LANE":" ","ALLEY":" ","HOUSE_NO":"１２之３２號","E_COORD97":181710.67999999999,"N_COORD97":2580113.0099999998,"ADDRESS":"卯舍１２之３２號","OBJECTID":241047},"geometry":{"x":181710.68000000156,"y":2580113.0099999998}},{"attributes":{"ID":241052,"DIS_CODE":0,"TOWNNAME":"永康區","LI":"西灣里","LIN":"40鄰","STREET":"大勇路","SECT":" ","MAREA":" ","LANE":"２３巷","ALLEY":" ","HOUSE_NO":"１９號四樓之２","E_COORD97":174164.26000000001,"N_COORD97":2545406.0499999998,"ADDRESS":"大勇路２３巷１９號四樓之２","OBJECTID":241048},"geometry":{"x":174164.25999999978,"y":2545406.0500000026}},{"attributes":{"ID":241053,"DIS_CODE":0,"TOWNNAME":"仁德區","LI":"太子里","LIN":"40鄰","STREET":"太子路","SECT":" ","MAREA":" ","LANE":"２８巷","ALLEY":" ","HOUSE_NO":"２２之１號","E_COORD97":175356.5,"N_COORD97":2543687.79,"ADDRESS":"太子路２８巷２２之１號","OBJECTID":241049},"geometry":{"x":175356.5,"y":2543687.7899999991}},{"attributes":{"ID":241054,"DIS_CODE":0,"TOWNNAME":"仁德區","LI":"太子里","LIN":"40鄰","STREET":"太子路","SECT":" ","MAREA":" ","LANE":"６６巷","ALLEY":" ","HOUSE_NO":"３５號之１","E_COORD97":175293.73000000001,"N_COORD97":2543872.04,"ADDRESS":"太子路６６巷３５號之１","OBJECTID":241050},"geometry":{"x":175293.73000000138,"y":2543872.040000001}},{"attributes":{"ID":241055,"DIS_CODE":0,"TOWNNAME":"新市區","LI":"新和里","LIN":"40鄰","STREET":"勝利街","SECT":" ","MAREA":" ","LANE":"１１巷","ALLEY":" ","HOUSE_NO":"２號","E_COORD97":177358.95000000001,"N_COORD97":2552927.5099999998,"ADDRESS":"勝利街１１巷２號","OBJECTID":241051},"geometry":{"x":177358.95000000019,"y":2552927.5100000016}},{"attributes":{"ID":241056,"DIS_CODE":0,"TOWNNAME":"新市區","LI":"新和里","LIN":"40鄰","STREET":"勝利街","SECT":" ","MAREA":" ","LANE":"１１巷","ALLEY":" ","HOUSE_NO":"６號","E_COORD97":177357.35000000001,"N_COORD97":2552914.7599999998,"ADDRESS":"勝利街１１巷６號","OBJECTID":241052},"geometry":{"x":177357.34999999963,"y":2552914.7599999998}},{"attributes":{"ID":241057,"DIS_CODE":0,"TOWNNAME":"新市區","LI":"新和里","LIN":"40鄰","STREET":"勝利街","SECT":" ","MAREA":" ","LANE":"１１巷","ALLEY":" ","HOUSE_NO":"５號","E_COORD97":177372.04000000001,"N_COORD97":2552931.0099999998,"ADDRESS":"勝利街１１巷５號","OBJECTID":241053},"geometry":{"x":177372.04000000004,"y":2552931.0100000016}},{"attributes":{"ID":241058,"DIS_CODE":0,"TOWNNAME":"北區","LI":" ","LIN":" ","STREET":"北門路","SECT":"二段","MAREA":" ","LANE":"５７６巷","ALLEY":" ","HOUSE_NO":"２號","E_COORD97":169677.76000000001,"N_COORD97":2545660.9700000002,"ADDRESS":"北門路二段５７６巷２號","OBJECTID":241054},"geometry":{"x":169677.76000000164,"y":2545660.9700000025}},{"attributes":{"ID":241059,"DIS_CODE":0,"TOWNNAME":"南區","LI":"新興里","LIN":"16鄰","STREET":"三官路","SECT":" ","MAREA":" ","LANE":"２５巷","ALLEY":" ","HOUSE_NO":"１０號","E_COORD97":167393.37,"N_COORD97":2542360.54,"ADDRESS":"三官路２５巷１０號","OBJECTID":241055},"geometry":{"x":167393.37000000011,"y":2542360.5399999991}},{"attributes":{"ID":241060,"DIS_CODE":0,"TOWNNAME":"北區","LI":" ","LIN":" ","STREET":"北門路","SECT":"二段","MAREA":" ","LANE":"５７６巷","ALLEY":" ","HOUSE_NO":"３號","E_COORD97":169696.01999999999,"N_COORD97":2545717.6400000001,"ADDRESS":"北門路二段５７６巷３號","OBJECTID":241056},"geometry":{"x":169696.02000000142,"y":2545717.6400000006}},{"attributes":{"ID":241061,"DIS_CODE":0,"TOWNNAME":"北區","LI":" ","LIN":" ","STREET":"北門路","SECT":"二段","MAREA":" ","LANE":"５７６巷","ALLEY":" ","HOUSE_NO":"５號","E_COORD97":169702.04999999999,"N_COORD97":2545737.6499999999,"ADDRESS":"北門路二段５７６巷５號","OBJECTID":241057},"geometry":{"x":169702.04999999981,"y":2545737.6500000004}},{"attributes":{"ID":241062,"DIS_CODE":0,"TOWNNAME":"永康區","LI":"復華里","LIN":"40鄰","STREET":"復華七街","SECT":" ","MAREA":" ","LANE":"３２巷","ALLEY":" ","HOUSE_NO":"１４號","E_COORD97":172667.39999999999,"N_COORD97":2545949.0699999998,"ADDRESS":"復華七街３２巷１４號","OBJECTID":241058},"geometry":{"x":172667.40000000037,"y":2545949.0700000003}},{"attributes":{"ID":241063,"DIS_CODE":0,"TOWNNAME":"永康區","LI":"崑山里","LIN":"40鄰","STREET":"國光五街","SECT":" ","MAREA":" ","LANE":"９巷","ALLEY":" ","HOUSE_NO":"９號","E_COORD97":174163.95999999999,"N_COORD97":2545009.02,"ADDRESS":"國光五街９巷９號","OBJECTID":241059},"geometry":{"x":174163.96000000089,"y":2545009.0199999996}},{"attributes":{"ID":241064,"DIS_CODE":0,"TOWNNAME":"永康區","LI":"崑山里","LIN":"40鄰","STREET":"國光五街","SECT":" ","MAREA":" ","LANE":"９巷","ALLEY":" ","HOUSE_NO":"１０號","E_COORD97":174164.29999999999,"N_COORD97":2545040.5800000001,"ADDRESS":"國光五街９巷１０號","OBJECTID":241060},"geometry":{"x":174164.29999999981,"y":2545040.5800000001}},{"attributes":{"ID":241065,"DIS_CODE":0,"TOWNNAME":"仁德區","LI":"太子里","LIN":"40鄰","STREET":"太子路","SECT":" ","MAREA":" ","LANE":"２８巷","ALLEY":" ","HOUSE_NO":"４６號","E_COORD97":175374.95000000001,"N_COORD97":2543780,"ADDRESS":"太子路２８巷４６號","OBJECTID":241061},"geometry":{"x":175374.95000000112,"y":2543779.9999999981}},{"attributes":{"ID":241066,"DIS_CODE":0,"TOWNNAME":"仁德區","LI":"太子里","LIN":"40鄰","STREET":"太子路","SECT":" ","MAREA":" ","LANE":"２８巷","ALLEY":" ","HOUSE_NO":"５８號","E_COORD97":175320,"N_COORD97":2543777,"ADDRESS":"太子路２８巷５８號","OBJECTID":241062},"geometry":{"x":175320.00000000093,"y":2543777.0000000037}},{"attributes":{"ID":241067,"DIS_CODE":0,"TOWNNAME":"仁德區","LI":"太子里","LIN":"40鄰","STREET":"太子路","SECT":" ","MAREA":" ","LANE":"６６巷","ALLEY":" ","HOUSE_NO":"３５號","E_COORD97":175303.38,"N_COORD97":2543824.2599999998,"ADDRESS":"太子路６６巷３５號","OBJECTID":241063},"geometry":{"x":175303.38000000175,"y":2543824.2599999998}},{"attributes":{"ID":241068,"DIS_CODE":0,"TOWNNAME":"仁德區","LI":"太子里","LIN":"40鄰","STREET":"太子路","SECT":" ","MAREA":" ","LANE":"２８巷","ALLEY":" ","HOUSE_NO":"１８號","E_COORD97":175349.04000000001,"N_COORD97":2543656.5099999998,"ADDRESS":"太子路２８巷１８號","OBJECTID":241064},"geometry":{"x":175349.04000000004,"y":2543656.5099999998}},{"attributes":{"ID":241069,"DIS_CODE":0,"TOWNNAME":"楠西區","LI":"東勢里","LIN":"16鄰","STREET":"茄拔路","SECT":" ","MAREA":" ","LANE":" ","ALLEY":" ","HOUSE_NO":"３０１號","E_COORD97":197854.84,"N_COORD97":2563715.2799999998,"ADDRESS":"茄拔路３０１號","OBJECTID":241065},"geometry":{"x":197854.84000000078,"y":2563715.2799999993}},{"attributes":{"ID":241070,"DIS_CODE":0,"TOWNNAME":"仁德區","LI":"太子里","LIN":"40鄰","STREET":"太子路","SECT":" ","MAREA":" ","LANE":"２８巷","ALLEY":" ","HOUSE_NO":"５１號","E_COORD97":175356.34,"N_COORD97":2543747.5099999998,"ADDRESS":"太子路２８巷５１號","OBJECTID":241066},"geometry":{"x":175356.34000000078,"y":2543747.5100000016}},{"attributes":{"ID":241071,"DIS_CODE":0,"TOWNNAME":"歸仁區","LI":"南保里","LIN":"60鄰","STREET":"中山路","SECT":"三段","MAREA":" ","LANE":"８１巷","ALLEY":" ","HOUSE_NO":"２０號","E_COORD97":176763.44,"N_COORD97":2540791.2799999998,"ADDRESS":"中山路三段８１巷２０號","OBJECTID":241067},"geometry":{"x":176763.44000000134,"y":2540791.2800000012}},{"attributes":{"ID":241072,"DIS_CODE":0,"TOWNNAME":"歸仁區","LI":"南保里","LIN":"60鄰","STREET":"中山七街","SECT":" ","MAREA":" ","LANE":"１１巷","ALLEY":" ","HOUSE_NO":"４５號","E_COORD97":176731.59,"N_COORD97":2540829.2599999998,"ADDRESS":"中山七街１１巷４５號","OBJECTID":241068},"geometry":{"x":176731.59000000078,"y":2540829.2600000016}},{"attributes":{"ID":241073,"DIS_CODE":0,"TOWNNAME":"歸仁區","LI":"南保里","LIN":"60鄰","STREET":"中山七街","SECT":" ","MAREA":" ","LANE":"１１巷","ALLEY":" ","HOUSE_NO":"２５號","E_COORD97":176663.98999999999,"N_COORD97":2540832.2599999998,"ADDRESS":"中山七街１１巷２５號","OBJECTID":241069},"geometry":{"x":176663.98999999929,"y":2540832.2600000016}},{"attributes":{"ID":241074,"DIS_CODE":0,"TOWNNAME":"歸仁區","LI":"南保里","LIN":"60鄰","STREET":"中山七街","SECT":" ","MAREA":" ","LANE":"１１巷","ALLEY":" ","HOUSE_NO":"３２號","E_COORD97":176701.79000000001,"N_COORD97":2540804.2599999998,"ADDRESS":"中山七街１１巷３２號","OBJECTID":241070},"geometry":{"x":176701.79000000004,"y":2540804.2599999998}},{"attributes":{"ID":241075,"DIS_CODE":0,"TOWNNAME":"歸仁區","LI":"南保里","LIN":"60鄰","STREET":"中山七街","SECT":" ","MAREA":" ","LANE":"１１巷","ALLEY":" ","HOUSE_NO":"３０號","E_COORD97":176688.48999999999,"N_COORD97":2540816.2599999998,"ADDRESS":"中山七街１１巷３０號","OBJECTID":241071},"geometry":{"x":176688.49000000115,"y":2540816.2600000016}},{"attributes":{"ID":241076,"DIS_CODE":0,"TOWNNAME":"東區","LI":"大智里","LIN":"24鄰","STREET":"文東街","SECT":" ","MAREA":" ","LANE":"３０巷","ALLEY":" ","HOUSE_NO":"１０號","E_COORD97":171356.60999999999,"N_COORD97":2540152.3500000001,"ADDRESS":"文東街３０巷１０號","OBJECTID":241072},"geometry":{"x":171356.61000000127,"y":2540152.3499999996}},{"attributes":{"ID":241077,"DIS_CODE":0,"TOWNNAME":"東區","LI":"大智里","LIN":"24鄰","STREET":"文東街","SECT":" ","MAREA":" ","LANE":"３０巷","ALLEY":" ","HOUSE_NO":"１１號","E_COORD97":171366.69,"N_COORD97":2540166.27,"ADDRESS":"文東街３０巷１１號","OBJECTID":241073},"geometry":{"x":171366.69000000041,"y":2540166.2699999996}},{"attributes":{"ID":241078,"DIS_CODE":0,"TOWNNAME":"東區","LI":"大智里","LIN":"24鄰","STREET":"文東街","SECT":" ","MAREA":" ","LANE":"３０巷","ALLEY":" ","HOUSE_NO":"１２號","E_COORD97":171361.38,"N_COORD97":2540152.4900000002,"ADDRESS":"文東街３０巷１２號","OBJECTID":241074},"geometry":{"x":171361.37999999989,"y":2540152.4899999984}},{"attributes":{"ID":241079,"DIS_CODE":0,"TOWNNAME":"東區","LI":"大智里","LIN":"24鄰","STREET":"文東街","SECT":" ","MAREA":" ","LANE":"３０巷","ALLEY":" ","HOUSE_NO":"１３號","E_COORD97":171370.97,"N_COORD97":2540163.8900000001,"ADDRESS":"文東街３０巷１３號","OBJECTID":241075},"geometry":{"x":171370.96999999974,"y":2540163.8900000043}},{"attributes":{"ID":241080,"DIS_CODE":0,"TOWNNAME":"東區","LI":"大智里","LIN":"24鄰","STREET":"文東街","SECT":" ","MAREA":" ","LANE":"３０巷","ALLEY":" ","HOUSE_NO":"１４號","E_COORD97":171365.66,"N_COORD97":2540152.77,"ADDRESS":"文東街３０巷１４號","OBJECTID":241076},"geometry":{"x":171365.66000000108,"y":2540152.7699999996}},{"attributes":{"ID":241081,"DIS_CODE":0,"TOWNNAME":"永康區","LI":"大橋里","LIN":"14鄰","STREET":"大橋二街","SECT":" ","MAREA":" ","LANE":" ","ALLEY":" ","HOUSE_NO":"２４號八樓之１","E_COORD97":170777.48999999999,"N_COORD97":2546536,"ADDRESS":"大橋二街２４號八樓之１","OBJECTID":241077},"geometry":{"x":170777.49000000115,"y":2546536}},{"attributes":{"ID":241082,"DIS_CODE":0,"TOWNNAME":"南區","LI":"新興里","LIN":"16鄰","STREET":"三官路","SECT":" ","MAREA":" ","LANE":"７巷","ALLEY":" ","HOUSE_NO":"３８號","E_COORD97":167392.03,"N_COORD97":2542315.25,"ADDRESS":"三官路７巷３８號","OBJECTID":241078},"geometry":{"x":167392.03000000119,"y":2542315.2500000019}},{"attributes":{"ID":241083,"DIS_CODE":0,"TOWNNAME":"南區","LI":"新興里","LIN":"16鄰","STREET":"三官路","SECT":" ","MAREA":" ","LANE":"７巷","ALLEY":" ","HOUSE_NO":"３９號","E_COORD97":167416.20999999999,"N_COORD97":2542367.8300000001,"ADDRESS":"三官路７巷３９號","OBJECTID":241079},"geometry":{"x":167416.20999999996,"y":2542367.8300000038}},{"attributes":{"ID":241084,"DIS_CODE":0,"TOWNNAME":"南區","LI":"新興里","LIN":"16鄰","STREET":"三官路","SECT":" ","MAREA":" ","LANE":"７巷","ALLEY":" ","HOUSE_NO":"４１號","E_COORD97":167415.04999999999,"N_COORD97":2542363.7200000002,"ADDRESS":"三官路７巷４１號","OBJECTID":241080},"geometry":{"x":167415.05000000075,"y":2542363.7200000025}},{"attributes":{"ID":241085,"DIS_CODE":0,"TOWNNAME":"南區","LI":"新興里","LIN":"16鄰","STREET":"三官路","SECT":" ","MAREA":" ","LANE":"７巷","ALLEY":" ","HOUSE_NO":"４２號","E_COORD97":167397.70000000001,"N_COORD97":2542302.3300000001,"ADDRESS":"三官路７巷４２號","OBJECTID":241081},"geometry":{"x":167397.70000000019,"y":2542302.3300000001}},{"attributes":{"ID":241086,"DIS_CODE":0,"TOWNNAME":"南區","LI":"新興里","LIN":"16鄰","STREET":"三官路","SECT":" ","MAREA":" ","LANE":"７巷","ALLEY":" ","HOUSE_NO":"４３號","E_COORD97":167415.76000000001,"N_COORD97":2542359.8799999999,"ADDRESS":"三官路７巷４３號","OBJECTID":241082},"geometry":{"x":167415.75999999978,"y":2542359.8800000008}},{"attributes":{"ID":241087,"DIS_CODE":0,"TOWNNAME":"南區","LI":"新興里","LIN":"16鄰","STREET":"三官路","SECT":" ","MAREA":" ","LANE":"７巷","ALLEY":" ","HOUSE_NO":"４５號","E_COORD97":167416.12,"N_COORD97":2542354.7799999998,"ADDRESS":"三官路７巷４５號","OBJECTID":241083},"geometry":{"x":167416.12000000104,"y":2542354.7800000012}},{"attributes":{"ID":241088,"DIS_CODE":0,"TOWNNAME":"東區","LI":"大智里","LIN":"24鄰","STREET":"文東街","SECT":" ","MAREA":" ","LANE":"３０巷","ALLEY":" ","HOUSE_NO":"１５號","E_COORD97":171374.41,"N_COORD97":2540165.9900000002,"ADDRESS":"文東街３０巷１５號","OBJECTID":241084},"geometry":{"x":171374.41000000108,"y":2540165.9900000002}},{"attributes":{"ID":241089,"DIS_CODE":0,"TOWNNAME":"東區","LI":"大智里","LIN":"24鄰","STREET":"文東街","SECT":" ","MAREA":" ","LANE":"３０巷","ALLEY":" ","HOUSE_NO":"１６號","E_COORD97":171369.94,"N_COORD97":2540152.5600000001,"ADDRESS":"文東街３０巷１６號","OBJECTID":241085},"geometry":{"x":171369.94000000041,"y":2540152.5600000042}},{"attributes":{"ID":241090,"DIS_CODE":0,"TOWNNAME":"東區","LI":"大智里","LIN":"24鄰","STREET":"文東街","SECT":" ","MAREA":" ","LANE":"３０巷","ALLEY":" ","HOUSE_NO":"１７號","E_COORD97":171378.54000000001,"N_COORD97":2540163.4700000002,"ADDRESS":"文東街３０巷１７號","OBJECTID":241086},"geometry":{"x":171378.54000000097,"y":2540163.4700000044}},{"attributes":{"ID":241091,"DIS_CODE":0,"TOWNNAME":"東區","LI":"大智里","LIN":"24鄰","STREET":"文東街","SECT":" ","MAREA":" ","LANE":"３０巷","ALLEY":" ","HOUSE_NO":"１８號","E_COORD97":171373.94,"N_COORD97":2540152.4900000002,"ADDRESS":"文東街３０巷１８號","OBJECTID":241087},"geometry":{"x":171373.94000000227,"y":2540152.4899999984}},{"attributes":{"ID":241092,"DIS_CODE":0,"TOWNNAME":"東區","LI":"大智里","LIN":"24鄰","STREET":"文東街","SECT":" ","MAREA":" ","LANE":"３０巷","ALLEY":" ","HOUSE_NO":"１９號","E_COORD97":171382.39999999999,"N_COORD97":2540166.3399999999,"ADDRESS":"文東街３０巷１９號","OBJECTID":241088},"geometry":{"x":171382.40000000037,"y":2540166.3399999999}},{"attributes":{"ID":241093,"DIS_CODE":0,"TOWNNAME":"東區","LI":"大智里","LIN":"24鄰","STREET":"文東街","SECT":" ","MAREA":" ","LANE":"３０巷","ALLEY":" ","HOUSE_NO":"１號","E_COORD97":171345.98999999999,"N_COORD97":2540164.0299999998,"ADDRESS":"文東街３０巷１號","OBJECTID":241089},"geometry":{"x":171345.99000000022,"y":2540164.0299999993}},{"attributes":{"ID":241094,"DIS_CODE":0,"TOWNNAME":"東區","LI":"大智里","LIN":"24鄰","STREET":"文東街","SECT":" ","MAREA":" ","LANE":"３０巷","ALLEY":" ","HOUSE_NO":"２１號","E_COORD97":171387.10000000001,"N_COORD97":2540163.4700000002,"ADDRESS":"文東街３０巷２１號","OBJECTID":241090},"geometry":{"x":171387.09999999963,"y":2540163.4700000044}},{"attributes":{"ID":241095,"DIS_CODE":0,"TOWNNAME":"東區","LI":"大智里","LIN":"24鄰","STREET":"文東街","SECT":" ","MAREA":" ","LANE":"３０巷","ALLEY":" ","HOUSE_NO":"２３號","E_COORD97":171391.17000000001,"N_COORD97":2540164.4500000002,"ADDRESS":"文東街３０巷２３號","OBJECTID":241091},"geometry":{"x":171391.17000000086,"y":2540164.4499999993}},{"attributes":{"ID":241096,"DIS_CODE":0,"TOWNNAME":"東區","LI":"大智里","LIN":"24鄰","STREET":"文東街","SECT":" ","MAREA":" ","LANE":"３０巷","ALLEY":" ","HOUSE_NO":"２５號","E_COORD97":171394.67999999999,"N_COORD97":2540163.2599999998,"ADDRESS":"文東街３０巷２５號","OBJECTID":241092},"geometry":{"x":171394.6799999997,"y":2540163.2599999998}},{"attributes":{"ID":241097,"DIS_CODE":0,"TOWNNAME":"東區","LI":"大智里","LIN":"24鄰","STREET":"文東街","SECT":" ","MAREA":" ","LANE":"３０巷","ALLEY":" ","HOUSE_NO":"２７號","E_COORD97":171399.10000000001,"N_COORD97":2540164.6600000001,"ADDRESS":"文東街３０巷２７號","OBJECTID":241093},"geometry":{"x":171399.0999999987,"y":2540164.6600000001}},{"attributes":{"ID":241098,"DIS_CODE":0,"TOWNNAME":"東區","LI":"大智里","LIN":"24鄰","STREET":"文東街","SECT":" ","MAREA":" ","LANE":"３０巷","ALLEY":" ","HOUSE_NO":"２９號","E_COORD97":171403.51999999999,"N_COORD97":2540163.1200000001,"ADDRESS":"文東街３０巷２９號","OBJECTID":241094},"geometry":{"x":171403.52000000048,"y":2540163.1200000048}},{"attributes":{"ID":241099,"DIS_CODE":0,"TOWNNAME":"東區","LI":"大智里","LIN":"24鄰","STREET":"文東街","SECT":" ","MAREA":" ","LANE":"３０巷","ALLEY":" ","HOUSE_NO":"２號","E_COORD97":171333.92999999999,"N_COORD97":2540152.27,"ADDRESS":"文東街３０巷２號","OBJECTID":241095},"geometry":{"x":171333.9299999997,"y":2540152.2699999996}},{"attributes":{"ID":241100,"DIS_CODE":0,"TOWNNAME":"東區","LI":"大智里","LIN":"24鄰","STREET":"文東街","SECT":" ","MAREA":" ","LANE":"３０巷","ALLEY":" ","HOUSE_NO":"３１號","E_COORD97":171407.23000000001,"N_COORD97":2540164.2400000002,"ADDRESS":"文東街３０巷３１號","OBJECTID":241096},"geometry":{"x":171407.23000000045,"y":2540164.2400000002}},{"attributes":{"ID":241101,"DIS_CODE":0,"TOWNNAME":"東區","LI":"大智里","LIN":"24鄰","STREET":"文東街","SECT":" ","MAREA":" ","LANE":"３０巷","ALLEY":" ","HOUSE_NO":"３３號","E_COORD97":171411.85999999999,"N_COORD97":2540163.0499999998,"ADDRESS":"文東街３０巷３３號","OBJECTID":241097},"geometry":{"x":171411.8600000022,"y":2540163.0500000045}},{"attributes":{"ID":241102,"DIS_CODE":0,"TOWNNAME":"永康區","LI":"大橋里","LIN":"14鄰","STREET":"大橋一街","SECT":" ","MAREA":" ","LANE":" ","ALLEY":" ","HOUSE_NO":"６３號五樓之３","E_COORD97":170898.88,"N_COORD97":2546429.5499999998,"ADDRESS":"大橋一街６３號五樓之３","OBJECTID":241098},"geometry":{"x":170898.87999999989,"y":2546429.5500000026}},{"attributes":{"ID":241103,"DIS_CODE":0,"TOWNNAME":"中西區","LI":"藥王里","LIN":"14鄰","STREET":"臨安路","SECT":"一段","MAREA":" ","LANE":" ","ALLEY":" ","HOUSE_NO":"７３號七樓之１","E_COORD97":166995.17000000001,"N_COORD97":2544409.9300000002,"ADDRESS":"臨安路一段７３號七樓之１","OBJECTID":241099},"geometry":{"x":166995.17000000086,"y":2544409.9299999997}},{"attributes":{"ID":241104,"DIS_CODE":0,"TOWNNAME":"中西區","LI":"藥王里","LIN":"14鄰","STREET":"臨安路","SECT":"一段","MAREA":" ","LANE":" ","ALLEY":" ","HOUSE_NO":"７３號七樓之１０","E_COORD97":166995.17000000001,"N_COORD97":2544409.9300000002,"ADDRESS":"臨安路一段７３號七樓之１０","OBJECTID":241100},"geometry":{"x":166995.17000000086,"y":2544409.9299999997}},{"attributes":{"ID":241105,"DIS_CODE":0,"TOWNNAME":"中西區","LI":"藥王里","LIN":"14鄰","STREET":"臨安路","SECT":"一段","MAREA":" ","LANE":" ","ALLEY":" ","HOUSE_NO":"７３號七樓之１１","E_COORD97":166995.17000000001,"N_COORD97":2544409.9300000002,"ADDRESS":"臨安路一段７３號七樓之１１","OBJECTID":241101},"geometry":{"x":166995.17000000086,"y":2544409.9299999997}},{"attributes":{"ID":241106,"DIS_CODE":0,"TOWNNAME":"關廟區","LI":"松腳里","LIN":"14鄰","STREET":"四維街","SECT":" ","MAREA":" ","LANE":" ","ALLEY":" ","HOUSE_NO":"４７號","E_COORD97":181898.31,"N_COORD97":2539565.25,"ADDRESS":"四維街４７號","OBJECTID":241102},"geometry":{"x":181898.31000000052,"y":2539565.2500000019}},{"attributes":{"ID":241107,"DIS_CODE":0,"TOWNNAME":"東區","LI":"富強里","LIN":"24鄰","STREET":"中華東路","SECT":"二段","MAREA":" ","LANE":"９６巷","ALLEY":" ","HOUSE_NO":"１２號","E_COORD97":171324.17000000001,"N_COORD97":2542882.6800000002,"ADDRESS":"中華東路二段９６巷１２號","OBJECTID":241103},"geometry":{"x":171324.16999999993,"y":2542882.6799999997}},{"attributes":{"ID":241108,"DIS_CODE":0,"TOWNNAME":"東區","LI":"富強里","LIN":"24鄰","STREET":"中華東路","SECT":"二段","MAREA":" ","LANE":"９６巷","ALLEY":" ","HOUSE_NO":"６號","E_COORD97":171336.45999999999,"N_COORD97":2542885.3100000001,"ADDRESS":"中華東路二段９６巷６號","OBJECTID":241104},"geometry":{"x":171336.46000000089,"y":2542885.3100000005}},{"attributes":{"ID":241109,"DIS_CODE":0,"TOWNNAME":"東區","LI":"富強里","LIN":"24鄰","STREET":"中華東路","SECT":"二段","MAREA":" ","LANE":"９６巷","ALLEY":" ","HOUSE_NO":"２號","E_COORD97":171345.85000000001,"N_COORD97":2542886.8999999999,"ADDRESS":"中華東路二段９６巷２號","OBJECTID":241105},"geometry":{"x":171345.84999999963,"y":2542886.9000000022}},{"attributes":{"ID":241110,"DIS_CODE":0,"TOWNNAME":"東區","LI":"富強里","LIN":"24鄰","STREET":"中華東路","SECT":"二段","MAREA":" ","LANE":"９６巷","ALLEY":" ","HOUSE_NO":"４號","E_COORD97":171342.19,"N_COORD97":2542883.1499999999,"ADDRESS":"中華東路二段９６巷４號","OBJECTID":241106},"geometry":{"x":171342.19000000134,"y":2542883.1500000004}},{"attributes":{"ID":241111,"DIS_CODE":0,"TOWNNAME":"東區","LI":"東安里","LIN":"17鄰","STREET":"衛國街","SECT":" ","MAREA":" ","LANE":"１３巷","ALLEY":" ","HOUSE_NO":"６號","E_COORD97":170208.69,"N_COORD97":2543002.2999999998,"ADDRESS":"衛國街１３巷６號","OBJECTID":241107},"geometry":{"x":170208.69000000041,"y":2543002.2999999989}},{"attributes":{"ID":241112,"DIS_CODE":0,"TOWNNAME":"東區","LI":"大智里","LIN":"24鄰","STREET":"文東街","SECT":" ","MAREA":" ","LANE":"３０巷","ALLEY":" ","HOUSE_NO":"３５號","E_COORD97":171415.57999999999,"N_COORD97":2540164.2400000002,"ADDRESS":"文東街３０巷３５號","OBJECTID":241108},"geometry":{"x":171415.58000000101,"y":2540164.2400000002}},{"attributes":{"ID":241113,"DIS_CODE":0,"TOWNNAME":"東區","LI":"大智里","LIN":"24鄰","STREET":"文東街","SECT":" ","MAREA":" ","LANE":"３０巷","ALLEY":" ","HOUSE_NO":"３７號","E_COORD97":171418.81,"N_COORD97":2540163.0499999998,"ADDRESS":"文東街３０巷３７號","OBJECTID":241109},"geometry":{"x":171418.81000000052,"y":2540163.0500000045}},{"attributes":{"ID":241114,"DIS_CODE":0,"TOWNNAME":"中西區","LI":"藥王里","LIN":"14鄰","STREET":"臨安路","SECT":"一段","MAREA":" ","LANE":" ","ALLEY":" ","HOUSE_NO":"７３號七樓之１２","E_COORD97":166995.17000000001,"N_COORD97":2544409.9300000002,"ADDRESS":"臨安路一段７３號七樓之１２","OBJECTID":241110},"geometry":{"x":166995.17000000086,"y":2544409.9299999997}},{"attributes":{"ID":241115,"DIS_CODE":0,"TOWNNAME":"中西區","LI":"藥王里","LIN":"14鄰","STREET":"臨安路","SECT":"一段","MAREA":" ","LANE":" ","ALLEY":" ","HOUSE_NO":"７３號七樓之１３","E_COORD97":166995.17000000001,"N_COORD97":2544409.9300000002,"ADDRESS":"臨安路一段７３號七樓之１３","OBJECTID":241111},"geometry":{"x":166995.17000000086,"y":2544409.9299999997}},{"attributes":{"ID":241116,"DIS_CODE":0,"TOWNNAME":"中西區","LI":"藥王里","LIN":"14鄰","STREET":"臨安路","SECT":"一段","MAREA":" ","LANE":" ","ALLEY":" ","HOUSE_NO":"７３號七樓之２","E_COORD97":166995.17000000001,"N_COORD97":2544409.9300000002,"ADDRESS":"臨安路一段７３號七樓之２","OBJECTID":241112},"geometry":{"x":166995.17000000086,"y":2544409.9299999997}},{"attributes":{"ID":241117,"DIS_CODE":0,"TOWNNAME":"中西區","LI":"藥王里","LIN":"14鄰","STREET":"臨安路","SECT":"一段","MAREA":" ","LANE":" ","ALLEY":" ","HOUSE_NO":"７３號七樓之３","E_COORD97":166995.17000000001,"N_COORD97":2544409.9300000002,"ADDRESS":"臨安路一段７３號七樓之３","OBJECTID":241113},"geometry":{"x":166995.17000000086,"y":2544409.9299999997}},{"attributes":{"ID":241118,"DIS_CODE":0,"TOWNNAME":"東區","LI":"富強里","LIN":"16鄰","STREET":"裕農路","SECT":" ","MAREA":" ","LANE":"２８８巷","ALLEY":" ","HOUSE_NO":"８８號","E_COORD97":170948.70999999999,"N_COORD97":2542930.6699999999,"ADDRESS":"裕農路２８８巷８８號","OBJECTID":241114},"geometry":{"x":170948.71000000089,"y":2542930.6699999999}},{"attributes":{"ID":241119,"DIS_CODE":0,"TOWNNAME":"東區","LI":"大智里","LIN":"24鄰","STREET":"文東街","SECT":" ","MAREA":" ","LANE":"３０巷","ALLEY":" ","HOUSE_NO":"３９號","E_COORD97":171423.64999999999,"N_COORD97":2540163.75,"ADDRESS":"文東街３０巷３９號","OBJECTID":241115},"geometry":{"x":171423.6500000013,"y":2540163.75}},{"attributes":{"ID":241120,"DIS_CODE":0,"TOWNNAME":"東區","LI":"大智里","LIN":"24鄰","STREET":"文東街","SECT":" ","MAREA":" ","LANE":"３０巷","ALLEY":" ","HOUSE_NO":"３號","E_COORD97":171350.06,"N_COORD97":2540166.2000000002,"ADDRESS":"文東街３０巷３號","OBJECTID":241116},"geometry":{"x":171350.05999999959,"y":2540166.1999999993}},{"attributes":{"ID":241121,"DIS_CODE":0,"TOWNNAME":"仁德區","LI":"太子里","LIN":"24鄰","STREET":"長興五街","SECT":" ","MAREA":" ","LANE":"４２巷","ALLEY":" ","HOUSE_NO":"１２號","E_COORD97":173729.45000000001,"N_COORD97":2543722.0099999998,"ADDRESS":"長興五街４２巷１２號","OBJECTID":241117},"geometry":{"x":173729.45000000019,"y":2543722.0099999979}},{"attributes":{"ID":241122,"DIS_CODE":0,"TOWNNAME":"永康區","LI":"大橋里","LIN":"24鄰","STREET":"大橋一街","SECT":" ","MAREA":" ","LANE":"２２３巷","ALLEY":" ","HOUSE_NO":"７０號","E_COORD97":171182.60000000001,"N_COORD97":2546729.25,"ADDRESS":"大橋一街２２３巷７０號","OBJECTID":241118},"geometry":{"x":171182.60000000056,"y":2546729.2500000019}},{"attributes":{"ID":241123,"DIS_CODE":0,"TOWNNAME":"永康區","LI":"復興里","LIN":"24鄰","STREET":"復興路","SECT":" ","MAREA":" ","LANE":"３５６巷","ALLEY":" ","HOUSE_NO":"７６號","E_COORD97":172350.25,"N_COORD97":2544519.27,"ADDRESS":"復興路３５６巷７６號","OBJECTID":241119},"geometry":{"x":172350.25000000093,"y":2544519.2699999996}},{"attributes":{"ID":241124,"DIS_CODE":0,"TOWNNAME":"永康區","LI":"大橋里","LIN":"24鄰","STREET":"大橋一街","SECT":" ","MAREA":" ","LANE":"２２３巷","ALLEY":" ","HOUSE_NO":"７８號","E_COORD97":171165.35000000001,"N_COORD97":2546753,"ADDRESS":"大橋一街２２３巷７８號","OBJECTID":241120},"geometry":{"x":171165.35000000149,"y":2546753}},{"attributes":{"ID":241125,"DIS_CODE":0,"TOWNNAME":"永康區","LI":"中興里","LIN":"24鄰","STREET":"中華路","SECT":" ","MAREA":" ","LANE":"２１６巷","ALLEY":" ","HOUSE_NO":"１２號之７","E_COORD97":171715.26000000001,"N_COORD97":2545134.29,"ADDRESS":"中華路２１６巷１２號之７","OBJECTID":241121},"geometry":{"x":171715.26000000164,"y":2545134.290000001}},{"attributes":{"ID":241126,"DIS_CODE":0,"TOWNNAME":"中西區","LI":"藥王里","LIN":"14鄰","STREET":"臨安路","SECT":"一段","MAREA":" ","LANE":" ","ALLEY":" ","HOUSE_NO":"７３號七樓之４","E_COORD97":166995.17000000001,"N_COORD97":2544409.9300000002,"ADDRESS":"臨安路一段７３號七樓之４","OBJECTID":241122},"geometry":{"x":166995.17000000086,"y":2544409.9299999997}},{"attributes":{"ID":241127,"DIS_CODE":0,"TOWNNAME":"歸仁區","LI":"大廟里","LIN":"16鄰","STREET":"大廟六街","SECT":" ","MAREA":" ","LANE":"３５巷","ALLEY":" ","HOUSE_NO":"３號","E_COORD97":176052.38,"N_COORD97":2544268.0899999999,"ADDRESS":"大廟六街３５巷３號","OBJECTID":241123},"geometry":{"x":176052.37999999989,"y":2544268.0900000017}},{"attributes":{"ID":241128,"DIS_CODE":0,"TOWNNAME":"玉井區","LI":"層林里","LIN":"16鄰","STREET":" ","SECT":" ","MAREA":"層林","LANE":" ","ALLEY":" ","HOUSE_NO":"１３２之１６號","E_COORD97":192491.85999999999,"N_COORD97":2554305.2999999998,"ADDRESS":"層林１３２之１６號","OBJECTID":241124},"geometry":{"x":192491.86000000127,"y":2554305.3000000007}},{"attributes":{"ID":241129,"DIS_CODE":0,"TOWNNAME":"玉井區","LI":"望明里","LIN":"16鄰","STREET":" ","SECT":" ","MAREA":"望明","LANE":" ","ALLEY":" ","HOUSE_NO":"１６６號","E_COORD97":191764.67999999999,"N_COORD97":2555412.2400000002,"ADDRESS":"望明１６６號","OBJECTID":241125},"geometry":{"x":191764.68000000156,"y":2555412.2400000021}},{"attributes":{"ID":241130,"DIS_CODE":0,"TOWNNAME":"歸仁區","LI":"大廟里","LIN":"16鄰","STREET":"大廟六街","SECT":" ","MAREA":" ","LANE":"７５巷","ALLEY":" ","HOUSE_NO":"２０號","E_COORD97":176114.23000000001,"N_COORD97":2544292.0899999999,"ADDRESS":"大廟六街７５巷２０號","OBJECTID":241126},"geometry":{"x":176114.23000000138,"y":2544292.0900000017}},{"attributes":{"ID":241131,"DIS_CODE":0,"TOWNNAME":"玉井區","LI":"玉井里","LIN":"16鄰","STREET":"民主街","SECT":" ","MAREA":" ","LANE":"６３巷","ALLEY":" ","HOUSE_NO":"１號","E_COORD97":194900.23999999999,"N_COORD97":2558083.2799999998,"ADDRESS":"民主街６３巷１號","OBJECTID":241127},"geometry":{"x":194900.24000000022,"y":2558083.2799999993}},{"attributes":{"ID":241132,"DIS_CODE":0,"TOWNNAME":"永康區","LI":"中興里","LIN":"24鄰","STREET":"中華路","SECT":" ","MAREA":" ","LANE":"２１６巷","ALLEY":" ","HOUSE_NO":"１２號之１５","E_COORD97":171766.26999999999,"N_COORD97":2545139,"ADDRESS":"中華路２１６巷１２號之１５","OBJECTID":241128},"geometry":{"x":171766.27000000048,"y":2545139}},{"attributes":{"ID":241133,"DIS_CODE":0,"TOWNNAME":"永康區","LI":"崑山里","LIN":"24鄰","STREET":"國光一街","SECT":" ","MAREA":" ","LANE":"７０巷","ALLEY":" ","HOUSE_NO":"３１號","E_COORD97":173858.32000000001,"N_COORD97":2544705.02,"ADDRESS":"國光一街７０巷３１號","OBJECTID":241129},"geometry":{"x":173858.32000000123,"y":2544705.0200000033}},{"attributes":{"ID":241134,"DIS_CODE":0,"TOWNNAME":"永康區","LI":"崑山里","LIN":"24鄰","STREET":"國光一街","SECT":" ","MAREA":" ","LANE":"７０巷","ALLEY":" ","HOUSE_NO":"１９號","E_COORD97":173850.78,"N_COORD97":2544682.2799999998,"ADDRESS":"國光一街７０巷１９號","OBJECTID":241130},"geometry":{"x":173850.78000000026,"y":2544682.2799999993}},{"attributes":{"ID":241135,"DIS_CODE":0,"TOWNNAME":"東區","LI":"大智里","LIN":"24鄰","STREET":"文東街","SECT":" ","MAREA":" ","LANE":"３０巷","ALLEY":" ","HOUSE_NO":"２４號","E_COORD97":171386.48999999999,"N_COORD97":2540151.6499999999,"ADDRESS":"文東街３０巷２４號","OBJECTID":241131},"geometry":{"x":171386.49000000022,"y":2540151.6499999985}},{"attributes":{"ID":241136,"DIS_CODE":0,"TOWNNAME":"東區","LI":"崇德里","LIN":"24鄰","STREET":"崇德路","SECT":" ","MAREA":" ","LANE":"５５０巷","ALLEY":" ","HOUSE_NO":"４７號","E_COORD97":170658.57999999999,"N_COORD97":2541453.02,"ADDRESS":"崇德路５５０巷４７號","OBJECTID":241132},"geometry":{"x":170658.58000000007,"y":2541453.0199999996}},{"attributes":{"ID":241137,"DIS_CODE":0,"TOWNNAME":"中西區","LI":"藥王里","LIN":"14鄰","STREET":"臨安路","SECT":"一段","MAREA":" ","LANE":" ","ALLEY":" ","HOUSE_NO":"７３號七樓之５","E_COORD97":166995.17000000001,"N_COORD97":2544409.9300000002,"ADDRESS":"臨安路一段７３號七樓之５","OBJECTID":241133},"geometry":{"x":166995.17000000086,"y":2544409.9299999997}},{"attributes":{"ID":241138,"DIS_CODE":0,"TOWNNAME":"中西區","LI":"藥王里","LIN":"14鄰","STREET":"臨安路","SECT":"一段","MAREA":" ","LANE":" ","ALLEY":" ","HOUSE_NO":"７３號七樓之６","E_COORD97":166995.17000000001,"N_COORD97":2544409.9300000002,"ADDRESS":"臨安路一段７３號七樓之６","OBJECTID":241134},"geometry":{"x":166995.17000000086,"y":2544409.9299999997}},{"attributes":{"ID":241139,"DIS_CODE":0,"TOWNNAME":"關廟區","LI":"南花里","LIN":"14鄰","STREET":"明德街","SECT":" ","MAREA":" ","LANE":" ","ALLEY":" ","HOUSE_NO":"６８號","E_COORD97":181677.34,"N_COORD97":2540038.27,"ADDRESS":"明德街６８號","OBJECTID":241135},"geometry":{"x":181677.33999999892,"y":2540038.2700000033}},{"attributes":{"ID":241140,"DIS_CODE":0,"TOWNNAME":"玉井區","LI":"玉田里","LIN":"16鄰","STREET":"中正路","SECT":" ","MAREA":" ","LANE":"４巷","ALLEY":" ","HOUSE_NO":"９號","E_COORD97":194628.64999999999,"N_COORD97":2557707.25,"ADDRESS":"中正路４巷９號","OBJECTID":241136},"geometry":{"x":194628.65000000037,"y":2557707.2500000019}},{"attributes":{"ID":241141,"DIS_CODE":0,"TOWNNAME":"東區","LI":"虎尾里","LIN":"36鄰","STREET":"東成街","SECT":" ","MAREA":" ","LANE":"２００巷","ALLEY":" ","HOUSE_NO":"５７號","E_COORD97":171895.69,"N_COORD97":2542136.8100000001,"ADDRESS":"東成街２００巷５７號","OBJECTID":241137},"geometry":{"x":171895.69000000041,"y":2542136.8100000005}},{"attributes":{"ID":241142,"DIS_CODE":0,"TOWNNAME":"東區","LI":"虎尾里","LIN":"36鄰","STREET":"東成街","SECT":" ","MAREA":" ","LANE":"２００巷","ALLEY":" ","HOUSE_NO":"５９號","E_COORD97":171895.82000000001,"N_COORD97":2542129.46,"ADDRESS":"東成街２００巷５９號","OBJECTID":241138},"geometry":{"x":171895.82000000123,"y":2542129.4600000009}},{"attributes":{"ID":241143,"DIS_CODE":0,"TOWNNAME":"東區","LI":"虎尾里","LIN":"36鄰","STREET":"東成街","SECT":" ","MAREA":" ","LANE":"２００巷","ALLEY":" ","HOUSE_NO":"６１號","E_COORD97":171895.95000000001,"N_COORD97":2542122.3700000001,"ADDRESS":"東成街２００巷６１號","OBJECTID":241139},"geometry":{"x":171895.95000000112,"y":2542122.3700000029}},{"attributes":{"ID":241144,"DIS_CODE":0,"TOWNNAME":"東區","LI":"虎尾里","LIN":"29鄰","STREET":"東成街","SECT":" ","MAREA":" ","LANE":"２００巷","ALLEY":" ","HOUSE_NO":"５４號","E_COORD97":171871.98000000001,"N_COORD97":2542145.6000000001,"ADDRESS":"東成街２００巷５４號","OBJECTID":241140},"geometry":{"x":171871.98000000045,"y":2542145.6000000015}},{"attributes":{"ID":241145,"DIS_CODE":0,"TOWNNAME":"東區","LI":"虎尾里","LIN":"29鄰","STREET":"東成街","SECT":" ","MAREA":" ","LANE":"２００巷","ALLEY":" ","HOUSE_NO":"５６號","E_COORD97":171868.17000000001,"N_COORD97":2542139.04,"ADDRESS":"東成街２００巷５６號","OBJECTID":241141},"geometry":{"x":171868.16999999993,"y":2542139.040000001}},{"attributes":{"ID":241146,"DIS_CODE":0,"TOWNNAME":"東區","LI":"崇德里","LIN":"24鄰","STREET":"崇德路","SECT":" ","MAREA":" ","LANE":"５５０巷","ALLEY":" ","HOUSE_NO":"４９號","E_COORD97":170654.45999999999,"N_COORD97":2541453.48,"ADDRESS":"崇德路５５０巷４９號","OBJECTID":241142},"geometry":{"x":170654.45999999996,"y":2541453.4800000004}},{"attributes":{"ID":241147,"DIS_CODE":0,"TOWNNAME":"東區","LI":"崇德里","LIN":"24鄰","STREET":"崇德路","SECT":" ","MAREA":" ","LANE":"５５０巷","ALLEY":" ","HOUSE_NO":"５１號","E_COORD97":170649.23999999999,"N_COORD97":2541453.48,"ADDRESS":"崇德路５５０巷５１號","OBJECTID":241143},"geometry":{"x":170649.24000000022,"y":2541453.4800000004}},{"attributes":{"ID":241148,"DIS_CODE":0,"TOWNNAME":"東區","LI":"崇德里","LIN":"24鄰","STREET":"崇德路","SECT":" ","MAREA":" ","LANE":"５５０巷","ALLEY":" ","HOUSE_NO":"５３號","E_COORD97":170642.28,"N_COORD97":2541453.2000000002,"ADDRESS":"崇德路５５０巷５３號","OBJECTID":241144},"geometry":{"x":170642.28000000026,"y":2541453.2000000011}},{"attributes":{"ID":241149,"DIS_CODE":0,"TOWNNAME":"東區","LI":"崇德里","LIN":"24鄰","STREET":"崇德路","SECT":" ","MAREA":" ","LANE":"５５０巷","ALLEY":" ","HOUSE_NO":"５５號","E_COORD97":170635.88,"N_COORD97":2541453.2000000002,"ADDRESS":"崇德路５５０巷５５號","OBJECTID":241145},"geometry":{"x":170635.87999999989,"y":2541453.2000000011}},{"attributes":{"ID":241150,"DIS_CODE":0,"TOWNNAME":"中西區","LI":"藥王里","LIN":"14鄰","STREET":"臨安路","SECT":"一段","MAREA":" ","LANE":" ","ALLEY":" ","HOUSE_NO":"７３號七樓之７","E_COORD97":166995.17000000001,"N_COORD97":2544409.9300000002,"ADDRESS":"臨安路一段７３號七樓之７","OBJECTID":241146},"geometry":{"x":166995.17000000086,"y":2544409.9299999997}},{"attributes":{"ID":241151,"DIS_CODE":0,"TOWNNAME":"中西區","LI":"藥王里","LIN":"14鄰","STREET":"臨安路","SECT":"一段","MAREA":" ","LANE":" ","ALLEY":" ","HOUSE_NO":"７３號七樓之８","E_COORD97":166995.17000000001,"N_COORD97":2544409.9300000002,"ADDRESS":"臨安路一段７３號七樓之８","OBJECTID":241147},"geometry":{"x":166995.17000000086,"y":2544409.9299999997}},{"attributes":{"ID":241152,"DIS_CODE":0,"TOWNNAME":"中西區","LI":"藥王里","LIN":"14鄰","STREET":"臨安路","SECT":"一段","MAREA":" ","LANE":" ","ALLEY":" ","HOUSE_NO":"７３號七樓之９","E_COORD97":166995.17000000001,"N_COORD97":2544409.9300000002,"ADDRESS":"臨安路一段７３號七樓之９","OBJECTID":241148},"geometry":{"x":166995.17000000086,"y":2544409.9299999997}},{"attributes":{"ID":241153,"DIS_CODE":0,"TOWNNAME":"中西區","LI":"藥王里","LIN":"14鄰","STREET":"臨安路","SECT":"一段","MAREA":" ","LANE":" ","ALLEY":" ","HOUSE_NO":"７３號二樓","E_COORD97":166995.17000000001,"N_COORD97":2544409.9300000002,"ADDRESS":"臨安路一段７３號二樓","OBJECTID":241149},"geometry":{"x":166995.17000000086,"y":2544409.9299999997}},{"attributes":{"ID":241154,"DIS_CODE":0,"TOWNNAME":"中西區","LI":"藥王里","LIN":"14鄰","STREET":"臨安路","SECT":"一段","MAREA":" ","LANE":" ","ALLEY":" ","HOUSE_NO":"７３號三樓之１","E_COORD97":166995.17000000001,"N_COORD97":2544409.9300000002,"ADDRESS":"臨安路一段７３號三樓之１","OBJECTID":241150},"geometry":{"x":166995.17000000086,"y":2544409.9299999997}},{"attributes":{"ID":241155,"DIS_CODE":0,"TOWNNAME":"中西區","LI":"藥王里","LIN":"14鄰","STREET":"臨安路","SECT":"一段","MAREA":" ","LANE":" ","ALLEY":" ","HOUSE_NO":"７３號三樓之１０","E_COORD97":166995.17000000001,"N_COORD97":2544409.9300000002,"ADDRESS":"臨安路一段７３號三樓之１０","OBJECTID":241151},"geometry":{"x":166995.17000000086,"y":2544409.9299999997}},{"attributes":{"ID":241156,"DIS_CODE":0,"TOWNNAME":"東區","LI":"虎尾里","LIN":"29鄰","STREET":"東成街","SECT":" ","MAREA":" ","LANE":"２００巷","ALLEY":" ","HOUSE_NO":"６０號","E_COORD97":171880.12,"N_COORD97":2542133.9199999999,"ADDRESS":"東成街２００巷６０號","OBJECTID":241152},"geometry":{"x":171880.12000000104,"y":2542133.9200000018}},{"attributes":{"ID":241157,"DIS_CODE":0,"TOWNNAME":"玉井區","LI":"竹圍里","LIN":"16鄰","STREET":"忠孝街","SECT":" ","MAREA":" ","LANE":"４１８巷","ALLEY":" ","HOUSE_NO":"７號","E_COORD97":195564.73999999999,"N_COORD97":2558387.3999999999,"ADDRESS":"忠孝街４１８巷７號","OBJECTID":241153},"geometry":{"x":195564.74000000022,"y":2558387.4000000022}},{"attributes":{"ID":241158,"DIS_CODE":0,"TOWNNAME":"玉井區","LI":"望明里","LIN":"16鄰","STREET":" ","SECT":" ","MAREA":"望明","LANE":" ","ALLEY":" ","HOUSE_NO":"１６３號之２","E_COORD97":191842.06,"N_COORD97":2555453.2999999998,"ADDRESS":"望明１６３號之２","OBJECTID":241154},"geometry":{"x":191842.06000000052,"y":2555453.3000000026}},{"attributes":{"ID":241159,"DIS_CODE":0,"TOWNNAME":"玉井區","LI":"竹圍里","LIN":"16鄰","STREET":"忠孝街","SECT":" ","MAREA":" ","LANE":"４１８巷","ALLEY":" ","HOUSE_NO":"１號","E_COORD97":195545.28,"N_COORD97":2558387.1400000001,"ADDRESS":"忠孝街４１８巷１號","OBJECTID":241155},"geometry":{"x":195545.28000000119,"y":2558387.1400000025}},{"attributes":{"ID":241160,"DIS_CODE":0,"TOWNNAME":"玉井區","LI":"竹圍里","LIN":"16鄰","STREET":"忠孝街","SECT":" ","MAREA":" ","LANE":"４１８巷","ALLEY":" ","HOUSE_NO":"３號","E_COORD97":195551.51999999999,"N_COORD97":2558387.2200000002,"ADDRESS":"忠孝街４１８巷３號","OBJECTID":241156},"geometry":{"x":195551.52000000048,"y":2558387.2200000007}},{"attributes":{"ID":241161,"DIS_CODE":0,"TOWNNAME":"玉井區","LI":"竹圍里","LIN":"16鄰","STREET":"忠孝街","SECT":" ","MAREA":" ","LANE":"４１８巷","ALLEY":" ","HOUSE_NO":"５號","E_COORD97":195558.07999999999,"N_COORD97":2558387.2000000002,"ADDRESS":"忠孝街４１８巷５號","OBJECTID":241157},"geometry":{"x":195558.08000000101,"y":2558387.200000003}},{"attributes":{"ID":241162,"DIS_CODE":0,"TOWNNAME":"玉井區","LI":"竹圍里","LIN":"16鄰","STREET":"忠孝街","SECT":" ","MAREA":" ","LANE":"４１８巷","ALLEY":" ","HOUSE_NO":"９號","E_COORD97":195571.09,"N_COORD97":2558387.3700000001,"ADDRESS":"忠孝街４１８巷９號","OBJECTID":241158},"geometry":{"x":195571.08999999892,"y":2558387.370000001}},{"attributes":{"ID":241163,"DIS_CODE":0,"TOWNNAME":"東區","LI":"虎尾里","LIN":"24鄰","STREET":"東成街","SECT":" ","MAREA":" ","LANE":"２２２巷","ALLEY":" ","HOUSE_NO":"７６號","E_COORD97":171918.63,"N_COORD97":2542113.2599999998,"ADDRESS":"東成街２２２巷７６號","OBJECTID":241159},"geometry":{"x":171918.63000000082,"y":2542113.2599999979}},{"attributes":{"ID":241164,"DIS_CODE":0,"TOWNNAME":"東區","LI":"虎尾里","LIN":"24鄰","STREET":"東成街","SECT":" ","MAREA":" ","LANE":"２２２巷","ALLEY":" ","HOUSE_NO":"７８號","E_COORD97":171918.20999999999,"N_COORD97":2542108.8199999998,"ADDRESS":"東成街２２２巷７８號","OBJECTID":241160},"geometry":{"x":171918.21000000089,"y":2542108.8200000003}},{"attributes":{"ID":241165,"DIS_CODE":0,"TOWNNAME":"北區","LI":" ","LIN":" ","STREET":"北門路","SECT":"二段","MAREA":" ","LANE":"５７７巷","ALLEY":" ","HOUSE_NO":"１９號","E_COORD97":169524.41,"N_COORD97":2545780.9900000002,"ADDRESS":"北門路二段５７７巷１９號","OBJECTID":241161},"geometry":{"x":169524.41000000201,"y":2545780.9900000039}},{"attributes":{"ID":241166,"DIS_CODE":0,"TOWNNAME":"東區","LI":"虎尾里","LIN":"24鄰","STREET":"東成街","SECT":" ","MAREA":" ","LANE":"２２２巷","ALLEY":" ","HOUSE_NO":"８０號","E_COORD97":171917.64999999999,"N_COORD97":2542104.1000000001,"ADDRESS":"東成街２２２巷８０號","OBJECTID":241162},"geometry":{"x":171917.65000000037,"y":2542104.1000000034}},{"attributes":{"ID":241167,"DIS_CODE":0,"TOWNNAME":"中西區","LI":"藥王里","LIN":"14鄰","STREET":"臨安路","SECT":"一段","MAREA":" ","LANE":" ","ALLEY":" ","HOUSE_NO":"７３號三樓之１１","E_COORD97":166995.17000000001,"N_COORD97":2544409.9300000002,"ADDRESS":"臨安路一段７３號三樓之１１","OBJECTID":241163},"geometry":{"x":166995.17000000086,"y":2544409.9299999997}},{"attributes":{"ID":241168,"DIS_CODE":0,"TOWNNAME":"中西區","LI":"藥王里","LIN":"14鄰","STREET":"臨安路","SECT":"一段","MAREA":" ","LANE":" ","ALLEY":" ","HOUSE_NO":"７３號三樓之１２","E_COORD97":166995.17000000001,"N_COORD97":2544409.9300000002,"ADDRESS":"臨安路一段７３號三樓之１２","OBJECTID":241164},"geometry":{"x":166995.17000000086,"y":2544409.9299999997}},{"attributes":{"ID":241169,"DIS_CODE":0,"TOWNNAME":"中西區","LI":"藥王里","LIN":"14鄰","STREET":"臨安路","SECT":"一段","MAREA":" ","LANE":" ","ALLEY":" ","HOUSE_NO":"７３號三樓之１３","E_COORD97":166995.17000000001,"N_COORD97":2544409.9300000002,"ADDRESS":"臨安路一段７３號三樓之１３","OBJECTID":241165},"geometry":{"x":166995.17000000086,"y":2544409.9299999997}},{"attributes":{"ID":241170,"DIS_CODE":0,"TOWNNAME":"中西區","LI":"藥王里","LIN":"14鄰","STREET":"臨安路","SECT":"一段","MAREA":" ","LANE":" ","ALLEY":" ","HOUSE_NO":"７３號三樓之２","E_COORD97":166995.17000000001,"N_COORD97":2544409.9300000002,"ADDRESS":"臨安路一段７３號三樓之２","OBJECTID":241166},"geometry":{"x":166995.17000000086,"y":2544409.9299999997}},{"attributes":{"ID":241171,"DIS_CODE":0,"TOWNNAME":"中西區","LI":"藥王里","LIN":"14鄰","STREET":"臨安路","SECT":"一段","MAREA":" ","LANE":" ","ALLEY":" ","HOUSE_NO":"７３號三樓之３","E_COORD97":166995.17000000001,"N_COORD97":2544409.9300000002,"ADDRESS":"臨安路一段７３號三樓之３","OBJECTID":241167},"geometry":{"x":166995.17000000086,"y":2544409.9299999997}},{"attributes":{"ID":241172,"DIS_CODE":0,"TOWNNAME":"玉井區","LI":"望明里","LIN":"16鄰","STREET":" ","SECT":" ","MAREA":"望明","LANE":" ","ALLEY":" ","HOUSE_NO":"１６４號","E_COORD97":191735.98000000001,"N_COORD97":2555493.2400000002,"ADDRESS":"望明１６４號","OBJECTID":241168},"geometry":{"x":191735.98000000045,"y":2555493.2400000021}},{"attributes":{"ID":241173,"DIS_CODE":0,"TOWNNAME":"東區","LI":"虎尾里","LIN":"24鄰","STREET":"東成街","SECT":" ","MAREA":" ","LANE":"２２２巷","ALLEY":" ","HOUSE_NO":"８２號","E_COORD97":171917.51999999999,"N_COORD97":2542099.25,"ADDRESS":"東成街２２２巷８２號","OBJECTID":241169},"geometry":{"x":171917.52000000048,"y":2542099.25}},{"attributes":{"ID":241174,"DIS_CODE":0,"TOWNNAME":"東區","LI":"崇善里","LIN":"24鄰","STREET":"崇善十二街","SECT":" ","MAREA":" ","LANE":"５６巷","ALLEY":" ","HOUSE_NO":"９號","E_COORD97":171369.20000000001,"N_COORD97":2541125.02,"ADDRESS":"崇善十二街５６巷９號","OBJECTID":241170},"geometry":{"x":171369.20000000112,"y":2541125.0200000033}},{"attributes":{"ID":241175,"DIS_CODE":0,"TOWNNAME":"東區","LI":"崇善里","LIN":"24鄰","STREET":"崇善十二街","SECT":" ","MAREA":" ","LANE":"５６巷","ALLEY":" ","HOUSE_NO":"１１號","E_COORD97":171373,"N_COORD97":2541127.2599999998,"ADDRESS":"崇善十二街５６巷１１號","OBJECTID":241171},"geometry":{"x":171372.99999999907,"y":2541127.2600000016}},{"attributes":{"ID":241176,"DIS_CODE":0,"TOWNNAME":"玉井區","LI":"層林里","LIN":"16鄰","STREET":" ","SECT":" ","MAREA":"層林","LANE":" ","ALLEY":" ","HOUSE_NO":"１３４之７號","E_COORD97":191920.91,"N_COORD97":2554473.29,"ADDRESS":"層林１３４之７號","OBJECTID":241172},"geometry":{"x":191920.91000000015,"y":2554473.2899999991}},{"attributes":{"ID":241177,"DIS_CODE":0,"TOWNNAME":"東區","LI":"崇善里","LIN":"24鄰","STREET":"崇善十二街","SECT":" ","MAREA":" ","LANE":"５６巷","ALLEY":" ","HOUSE_NO":"１３號","E_COORD97":171376.54000000001,"N_COORD97":2541128.3900000001,"ADDRESS":"崇善十二街５６巷１３號","OBJECTID":241173},"geometry":{"x":171376.54000000097,"y":2541128.3900000025}},{"attributes":{"ID":241178,"DIS_CODE":0,"TOWNNAME":"學甲區","LI":"三慶里","LIN":"16鄰","STREET":" ","SECT":" ","MAREA":"紅茄","LANE":" ","ALLEY":" ","HOUSE_NO":"１５號","E_COORD97":167602.84,"N_COORD97":2575734.7599999998,"ADDRESS":"紅茄１５號","OBJECTID":241174},"geometry":{"x":167602.84000000078,"y":2575734.7599999998}},{"attributes":{"ID":241179,"DIS_CODE":0,"TOWNNAME":"東區","LI":"崇善里","LIN":"24鄰","STREET":"崇善十二街","SECT":" ","MAREA":" ","LANE":"５６巷","ALLEY":" ","HOUSE_NO":"１５號","E_COORD97":171388.70999999999,"N_COORD97":2541115.8100000001,"ADDRESS":"崇善十二街５６巷１５號","OBJECTID":241175},"geometry":{"x":171388.71000000183,"y":2541115.8100000005}},{"attributes":{"ID":241180,"DIS_CODE":0,"TOWNNAME":"東區","LI":"崇善里","LIN":"24鄰","STREET":"崇善十二街","SECT":" ","MAREA":" ","LANE":"５６巷","ALLEY":" ","HOUSE_NO":"１７號","E_COORD97":171384.04999999999,"N_COORD97":2541114.9500000002,"ADDRESS":"崇善十二街５６巷１７號","OBJECTID":241176},"geometry":{"x":171384.04999999981,"y":2541114.950000003}},{"attributes":{"ID":241181,"DIS_CODE":0,"TOWNNAME":"東區","LI":"崇善里","LIN":"24鄰","STREET":"崇善十二街","SECT":" ","MAREA":" ","LANE":"５６巷","ALLEY":" ","HOUSE_NO":"１９號","E_COORD97":171378.78,"N_COORD97":2541113.1400000001,"ADDRESS":"崇善十二街５６巷１９號","OBJECTID":241177},"geometry":{"x":171378.78000000119,"y":2541113.1400000025}},{"attributes":{"ID":241182,"DIS_CODE":0,"TOWNNAME":"東區","LI":"崇善里","LIN":"24鄰","STREET":"崇善十二街","SECT":" ","MAREA":" ","LANE":"５６巷","ALLEY":" ","HOUSE_NO":"２１號","E_COORD97":171375.67999999999,"N_COORD97":2541111.2400000002,"ADDRESS":"崇善十二街５６巷２１號","OBJECTID":241178},"geometry":{"x":171375.68000000063,"y":2541111.2400000021}},{"attributes":{"ID":241183,"DIS_CODE":0,"TOWNNAME":"東區","LI":"崇善里","LIN":"24鄰","STREET":"崇善十二街","SECT":" ","MAREA":" ","LANE":"５６巷","ALLEY":" ","HOUSE_NO":"２３號","E_COORD97":171371.35999999999,"N_COORD97":2541109,"ADDRESS":"崇善十二街５６巷２３號","OBJECTID":241179},"geometry":{"x":171371.36000000127,"y":2541109.0000000019}},{"attributes":{"ID":241184,"DIS_CODE":0,"TOWNNAME":"東區","LI":"崇善里","LIN":"24鄰","STREET":"崇善十二街","SECT":" ","MAREA":" ","LANE":"６巷","ALLEY":" ","HOUSE_NO":"１６號","E_COORD97":171223.14999999999,"N_COORD97":2541026.4300000002,"ADDRESS":"崇善十二街６巷１６號","OBJECTID":241180},"geometry":{"x":171223.15000000037,"y":2541026.4299999997}},{"attributes":{"ID":241185,"DIS_CODE":0,"TOWNNAME":"安南區","LI":"溪墘里","LIN":"24鄰","STREET":"海佃路","SECT":"一段","MAREA":" ","LANE":"３８８巷","ALLEY":" ","HOUSE_NO":"１１號","E_COORD97":167130.51999999999,"N_COORD97":2547652.7200000002,"ADDRESS":"海佃路一段３８８巷１１號","OBJECTID":241181},"geometry":{"x":167130.51999999955,"y":2547652.7200000025}},{"attributes":{"ID":241186,"DIS_CODE":0,"TOWNNAME":"東區","LI":"崇成里","LIN":"14鄰","STREET":"崇明十六街","SECT":" ","MAREA":" ","LANE":" ","ALLEY":" ","HOUSE_NO":"４０號","E_COORD97":170721.66,"N_COORD97":2541280.8300000001,"ADDRESS":"崇明十六街４０號","OBJECTID":241182},"geometry":{"x":170721.66000000108,"y":2541280.8300000019}},{"attributes":{"ID":241187,"DIS_CODE":0,"TOWNNAME":"安南區","LI":"溪墘里","LIN":"24鄰","STREET":"海佃路","SECT":"一段","MAREA":" ","LANE":"３８８巷","ALLEY":" ","HOUSE_NO":"１３號","E_COORD97":167136.23000000001,"N_COORD97":2547653.3399999999,"ADDRESS":"海佃路一段３８８巷１３號","OBJECTID":241183},"geometry":{"x":167136.23000000138,"y":2547653.3400000017}},{"attributes":{"ID":241188,"DIS_CODE":0,"TOWNNAME":"安南區","LI":"溪墘里","LIN":"24鄰","STREET":"海佃路","SECT":"一段","MAREA":" ","LANE":"３８８巷","ALLEY":" ","HOUSE_NO":"１５號","E_COORD97":167142.78,"N_COORD97":2547655.4199999999,"ADDRESS":"海佃路一段３８８巷１５號","OBJECTID":241184},"geometry":{"x":167142.78000000119,"y":2547655.4199999999}},{"attributes":{"ID":241189,"DIS_CODE":0,"TOWNNAME":"安南區","LI":"溪墘里","LIN":"24鄰","STREET":"海佃路","SECT":"一段","MAREA":" ","LANE":"３８８巷","ALLEY":" ","HOUSE_NO":"１７號","E_COORD97":167148.01999999999,"N_COORD97":2547656.98,"ADDRESS":"海佃路一段３８８巷１７號","OBJECTID":241185},"geometry":{"x":167148.01999999862,"y":2547656.9800000023}},{"attributes":{"ID":241190,"DIS_CODE":0,"TOWNNAME":"安南區","LI":"溪墘里","LIN":"24鄰","STREET":"海佃路","SECT":"一段","MAREA":" ","LANE":"３８８巷","ALLEY":" ","HOUSE_NO":"１９號","E_COORD97":167154.76999999999,"N_COORD97":2547658.0099999998,"ADDRESS":"海佃路一段３８８巷１９號","OBJECTID":241186},"geometry":{"x":167154.76999999862,"y":2547658.0099999998}},{"attributes":{"ID":241191,"DIS_CODE":0,"TOWNNAME":"安南區","LI":"溪墘里","LIN":"24鄰","STREET":"海佃路","SECT":"一段","MAREA":" ","LANE":"３８８巷","ALLEY":" ","HOUSE_NO":"１號","E_COORD97":167100.29000000001,"N_COORD97":2547646.3900000001,"ADDRESS":"海佃路一段３８８巷１號","OBJECTID":241187},"geometry":{"x":167100.29000000004,"y":2547646.3899999987}},{"attributes":{"ID":241192,"DIS_CODE":0,"TOWNNAME":"安南區","LI":"溪墘里","LIN":"24鄰","STREET":"海佃路","SECT":"一段","MAREA":" ","LANE":"３８８巷","ALLEY":" ","HOUSE_NO":"２１號","E_COORD97":167160.38,"N_COORD97":2547660.1899999999,"ADDRESS":"海佃路一段３８８巷２１號","OBJECTID":241188},"geometry":{"x":167160.38000000082,"y":2547660.1900000032}},{"attributes":{"ID":241193,"DIS_CODE":0,"TOWNNAME":"安南區","LI":"溪墘里","LIN":"24鄰","STREET":"海佃路","SECT":"一段","MAREA":" ","LANE":"３８８巷","ALLEY":" ","HOUSE_NO":"２３號","E_COORD97":167166.29999999999,"N_COORD97":2547661.3399999999,"ADDRESS":"海佃路一段３８８巷２３號","OBJECTID":241189},"geometry":{"x":167166.29999999981,"y":2547661.3400000017}},{"attributes":{"ID":241194,"DIS_CODE":0,"TOWNNAME":"安南區","LI":"溪墘里","LIN":"24鄰","STREET":"海佃路","SECT":"一段","MAREA":" ","LANE":"３８８巷","ALLEY":" ","HOUSE_NO":"３１號","E_COORD97":167191.32000000001,"N_COORD97":2547665.4900000002,"ADDRESS":"海佃路一段３８８巷３１號","OBJECTID":241190},"geometry":{"x":167191.32000000123,"y":2547665.4900000002}},{"attributes":{"ID":241195,"DIS_CODE":0,"TOWNNAME":"安南區","LI":"溪墘里","LIN":"24鄰","STREET":"海佃路","SECT":"一段","MAREA":" ","LANE":"３８８巷","ALLEY":" ","HOUSE_NO":"３３號","E_COORD97":167196.62,"N_COORD97":2547667.25,"ADDRESS":"海佃路一段３８８巷３３號","OBJECTID":241191},"geometry":{"x":167196.62000000011,"y":2547667.2500000037}},{"attributes":{"ID":241196,"DIS_CODE":0,"TOWNNAME":"安南區","LI":"溪墘里","LIN":"24鄰","STREET":"海佃路","SECT":"一段","MAREA":" ","LANE":"３８８巷","ALLEY":" ","HOUSE_NO":"３５號","E_COORD97":167202.85000000001,"N_COORD97":2547669.2200000002,"ADDRESS":"海佃路一段３８８巷３５號","OBJECTID":241192},"geometry":{"x":167202.84999999963,"y":2547669.2200000025}},{"attributes":{"ID":241197,"DIS_CODE":0,"TOWNNAME":"安南區","LI":"溪墘里","LIN":"24鄰","STREET":"海佃路","SECT":"一段","MAREA":" ","LANE":"３８８巷","ALLEY":" ","HOUSE_NO":"３７號","E_COORD97":167208.98000000001,"N_COORD97":2547671.0899999999,"ADDRESS":"海佃路一段３８８巷３７號","OBJECTID":241193},"geometry":{"x":167208.98000000138,"y":2547671.0899999999}},{"attributes":{"ID":241198,"DIS_CODE":0,"TOWNNAME":"安南區","LI":"溪墘里","LIN":"24鄰","STREET":"海佃路","SECT":"一段","MAREA":" ","LANE":"３８８巷","ALLEY":" ","HOUSE_NO":"３９號","E_COORD97":167215.84,"N_COORD97":2547672.5499999998,"ADDRESS":"海佃路一段３８８巷３９號","OBJECTID":241194},"geometry":{"x":167215.84000000171,"y":2547672.5499999989}},{"attributes":{"ID":241199,"DIS_CODE":0,"TOWNNAME":"安南區","LI":"溪墘里","LIN":"24鄰","STREET":"海佃路","SECT":"一段","MAREA":" ","LANE":"３８８巷","ALLEY":" ","HOUSE_NO":"３號","E_COORD97":167106.51999999999,"N_COORD97":2547647.0099999998,"ADDRESS":"海佃路一段３８８巷３號","OBJECTID":241195},"geometry":{"x":167106.52000000048,"y":2547647.0099999998}},{"attributes":{"ID":241200,"DIS_CODE":0,"TOWNNAME":"安南區","LI":"溪墘里","LIN":"24鄰","STREET":"海佃路","SECT":"一段","MAREA":" ","LANE":"３８８巷","ALLEY":" ","HOUSE_NO":"４１號","E_COORD97":167221.67999999999,"N_COORD97":2547674.1699999999,"ADDRESS":"海佃路一段３８８巷４１號","OBJECTID":241196},"geometry":{"x":167221.67999999877,"y":2547674.1699999999}},{"attributes":{"ID":241201,"DIS_CODE":0,"TOWNNAME":"安南區","LI":"溪墘里","LIN":"24鄰","STREET":"海佃路","SECT":"一段","MAREA":" ","LANE":"３８８巷","ALLEY":" ","HOUSE_NO":"４３號","E_COORD97":167226.41,"N_COORD97":2547676.2999999998,"ADDRESS":"海佃路一段３８８巷４３號","OBJECTID":241197},"geometry":{"x":167226.41000000108,"y":2547676.3000000007}},{"attributes":{"ID":241202,"DIS_CODE":0,"TOWNNAME":"安南區","LI":"溪墘里","LIN":"24鄰","STREET":"海佃路","SECT":"一段","MAREA":" ","LANE":"３８８巷","ALLEY":" ","HOUSE_NO":"４５號","E_COORD97":167233.39999999999,"N_COORD97":2547677.0600000001,"ADDRESS":"海佃路一段３８８巷４５號","OBJECTID":241198},"geometry":{"x":167233.4000000013,"y":2547677.0600000024}},{"attributes":{"ID":241203,"DIS_CODE":0,"TOWNNAME":"安南區","LI":"溪墘里","LIN":"24鄰","STREET":"海佃路","SECT":"一段","MAREA":" ","LANE":"３８８巷","ALLEY":" ","HOUSE_NO":"４７號","E_COORD97":167240.22,"N_COORD97":2547678.2000000002,"ADDRESS":"海佃路一段３８８巷４７號","OBJECTID":241199},"geometry":{"x":167240.2200000016,"y":2547678.2000000011}},{"attributes":{"ID":241204,"DIS_CODE":0,"TOWNNAME":"安南區","LI":"溪墘里","LIN":"24鄰","STREET":"海佃路","SECT":"一段","MAREA":" ","LANE":"３８８巷","ALLEY":" ","HOUSE_NO":"４９號","E_COORD97":167246.5,"N_COORD97":2547679.2799999998,"ADDRESS":"海佃路一段３８８巷４９號","OBJECTID":241200},"geometry":{"x":167246.5,"y":2547679.2799999993}}]}