{"displayFieldName":"TOWNNAME","fieldAliases":{"ID":"ID","DIS_CODE":"DIS_CODE","TOWNNAME":"TOWNNAME","LI":"LI","LIN":"LIN","STREET":"STREET","SECT":"SECT","MAREA":"MAREA","LANE":"LANE","ALLEY":"ALLEY","HOUSE_NO":"HOUSE_NO","E_COORD97":"E_COORD97","N_COORD97":"N_COORD97","ADDRESS":"ADDRESS","OBJECTID":"OBJECTID"},"geometryType":"esriGeometryPoint","spatialReference":{"wkid":102443,"latestWkid":3826},"fields":[{"name":"ID","type":"esriFieldTypeDouble","alias":"ID"},{"name":"DIS_CODE","type":"esriFieldTypeInteger","alias":"DIS_CODE"},{"name":"TOWNNAME","type":"esriFieldTypeString","alias":"TOWNNAME","length":8},{"name":"LI","type":"esriFieldTypeString","alias":"LI","length":8},{"name":"LIN","type":"esriFieldTypeString","alias":"LIN","length":12},{"name":"STREET","type":"esriFieldTypeString","alias":"STREET","length":20},{"name":"SECT","type":"esriFieldTypeString","alias":"SECT","length":8},{"name":"MAREA","type":"esriFieldTypeString","alias":"MAREA","length":12},{"name":"LANE","type":"esriFieldTypeString","alias":"LANE","length":10},{"name":"ALLEY","type":"esriFieldTypeString","alias":"ALLEY","length":10},{"name":"HOUSE_NO","type":"esriFieldTypeString","alias":"HOUSE_NO","length":20},{"name":"E_COORD97","type":"esriFieldTypeDouble","alias":"E_COORD97"},{"name":"N_COORD97","type":"esriFieldTypeDouble","alias":"N_COORD97"},{"name":"ADDRESS","type":"esriFieldTypeString","alias":"ADDRESS","length":50},{"name":"OBJECTID","type":"esriFieldTypeOID","alias":"OBJECTID"}],"features":[{"attributes":{"ID":384611,"DIS_CODE":0,"TOWNNAME":"北區","LI":"賢北里","LIN":"9鄰","STREET":"賢北街","SECT":" ","MAREA":" ","LANE":"２１巷","ALLEY":" ","HOUSE_NO":"１號","E_COORD97":166307.76999999999,"N_COORD97":2545304.04,"ADDRESS":"賢北街２１巷１號","OBJECTID":384601},"geometry":{"x":166307.77000000048,"y":2545304.0399999991}},{"attributes":{"ID":384612,"DIS_CODE":0,"TOWNNAME":"北區","LI":"賢北里","LIN":"9鄰","STREET":"賢北街","SECT":" ","MAREA":" ","LANE":"２１巷","ALLEY":" ","HOUSE_NO":"２０號","E_COORD97":166254.17999999999,"N_COORD97":2545316.8999999999,"ADDRESS":"賢北街２１巷２０號","OBJECTID":384602},"geometry":{"x":166254.18000000063,"y":2545316.8999999985}},{"attributes":{"ID":384613,"DIS_CODE":0,"TOWNNAME":"北區","LI":"賢北里","LIN":"9鄰","STREET":"賢北街","SECT":" ","MAREA":" ","LANE":"２１巷","ALLEY":" ","HOUSE_NO":"２１號","E_COORD97":166262.23000000001,"N_COORD97":2545284.0499999998,"ADDRESS":"賢北街２１巷２１號","OBJECTID":384603},"geometry":{"x":166262.23000000045,"y":2545284.0500000026}},{"attributes":{"ID":384614,"DIS_CODE":0,"TOWNNAME":"北區","LI":"賢北里","LIN":"9鄰","STREET":"賢北街","SECT":" ","MAREA":" ","LANE":"２１巷","ALLEY":" ","HOUSE_NO":"２２號","E_COORD97":166249.81,"N_COORD97":2545315.2999999998,"ADDRESS":"賢北街２１巷２２號","OBJECTID":384604},"geometry":{"x":166249.81000000052,"y":2545315.3000000026}},{"attributes":{"ID":384615,"DIS_CODE":0,"TOWNNAME":"北區","LI":"賢北里","LIN":"9鄰","STREET":"賢北街","SECT":" ","MAREA":" ","LANE":"２１巷","ALLEY":" ","HOUSE_NO":"２３號","E_COORD97":166258.54999999999,"N_COORD97":2545281.98,"ADDRESS":"賢北街２１巷２３號","OBJECTID":384605},"geometry":{"x":166258.55000000075,"y":2545281.9800000004}},{"attributes":{"ID":384616,"DIS_CODE":0,"TOWNNAME":"北區","LI":"賢北里","LIN":"9鄰","STREET":"賢北街","SECT":" ","MAREA":" ","LANE":"２１巷","ALLEY":" ","HOUSE_NO":"２４號","E_COORD97":166244.75,"N_COORD97":2545313,"ADDRESS":"賢北街２１巷２４號","OBJECTID":384606},"geometry":{"x":166244.75,"y":2545313.0000000019}},{"attributes":{"ID":384617,"DIS_CODE":0,"TOWNNAME":"北區","LI":"賢北里","LIN":"9鄰","STREET":"賢北街","SECT":" ","MAREA":" ","LANE":"２１巷","ALLEY":" ","HOUSE_NO":"２５號","E_COORD97":166253.72,"N_COORD97":2545280.3799999999,"ADDRESS":"賢北街２１巷２５號","OBJECTID":384607},"geometry":{"x":166253.7200000016,"y":2545280.379999999}},{"attributes":{"ID":384618,"DIS_CODE":0,"TOWNNAME":"北區","LI":"賢北里","LIN":"9鄰","STREET":"賢北街","SECT":" ","MAREA":" ","LANE":"２１巷","ALLEY":" ","HOUSE_NO":"２６號","E_COORD97":166240.84,"N_COORD97":2545309.7799999998,"ADDRESS":"賢北街２１巷２６號","OBJECTID":384608},"geometry":{"x":166240.83999999985,"y":2545309.7799999975}},{"attributes":{"ID":384619,"DIS_CODE":0,"TOWNNAME":"北區","LI":"賢北里","LIN":"9鄰","STREET":"賢北街","SECT":" ","MAREA":" ","LANE":"２１巷","ALLEY":" ","HOUSE_NO":"２７號","E_COORD97":166248.89000000001,"N_COORD97":2545278.77,"ADDRESS":"賢北街２１巷２７號","OBJECTID":384609},"geometry":{"x":166248.88999999873,"y":2545278.7699999996}},{"attributes":{"ID":384620,"DIS_CODE":0,"TOWNNAME":"北區","LI":"賢北里","LIN":"9鄰","STREET":"賢北街","SECT":" ","MAREA":" ","LANE":"２１巷","ALLEY":" ","HOUSE_NO":"２８號","E_COORD97":166236.01000000001,"N_COORD97":2545307.71,"ADDRESS":"賢北街２１巷２８號","OBJECTID":384610},"geometry":{"x":166236.00999999978,"y":2545307.7100000009}},{"attributes":{"ID":384621,"DIS_CODE":0,"TOWNNAME":"北區","LI":"賢北里","LIN":"9鄰","STREET":"賢北街","SECT":" ","MAREA":" ","LANE":"２１巷","ALLEY":" ","HOUSE_NO":"２９號","E_COORD97":166245.20999999999,"N_COORD97":2545276.4700000002,"ADDRESS":"賢北街２１巷２９號","OBJECTID":384611},"geometry":{"x":166245.20999999996,"y":2545276.4700000044}},{"attributes":{"ID":384622,"DIS_CODE":0,"TOWNNAME":"北區","LI":"賢北里","LIN":"9鄰","STREET":"賢北街","SECT":" ","MAREA":" ","LANE":"２１巷","ALLEY":" ","HOUSE_NO":"２號","E_COORD97":166294.20999999999,"N_COORD97":2545334.4300000002,"ADDRESS":"賢北街２１巷２號","OBJECTID":384612},"geometry":{"x":166294.20999999996,"y":2545334.4300000016}},{"attributes":{"ID":384623,"DIS_CODE":0,"TOWNNAME":"北區","LI":"賢北里","LIN":"9鄰","STREET":"賢北街","SECT":" ","MAREA":" ","LANE":"２１巷","ALLEY":" ","HOUSE_NO":"３０號","E_COORD97":166232.32000000001,"N_COORD97":2545306.7999999998,"ADDRESS":"賢北街２１巷３０號","OBJECTID":384613},"geometry":{"x":166232.3200000003,"y":2545306.8000000007}},{"attributes":{"ID":384624,"DIS_CODE":0,"TOWNNAME":"北區","LI":"賢北里","LIN":"9鄰","STREET":"賢北街","SECT":" ","MAREA":" ","LANE":"２１巷","ALLEY":" ","HOUSE_NO":"３１號","E_COORD97":166240.14999999999,"N_COORD97":2545273.9399999999,"ADDRESS":"賢北街２１巷３１號","OBJECTID":384614},"geometry":{"x":166240.1500000013,"y":2545273.9399999995}},{"attributes":{"ID":384625,"DIS_CODE":0,"TOWNNAME":"北區","LI":"賢北里","LIN":"9鄰","STREET":"賢北街","SECT":" ","MAREA":" ","LANE":"２１巷","ALLEY":" ","HOUSE_NO":"３２號","E_COORD97":166227.72,"N_COORD97":2545304.5,"ADDRESS":"賢北街２１巷３２號","OBJECTID":384615},"geometry":{"x":166227.71999999974,"y":2545304.5}},{"attributes":{"ID":384626,"DIS_CODE":0,"TOWNNAME":"北區","LI":"賢北里","LIN":"9鄰","STREET":"賢北街","SECT":" ","MAREA":" ","LANE":"２１巷","ALLEY":" ","HOUSE_NO":"３３號","E_COORD97":166236.47,"N_COORD97":2545272.3399999999,"ADDRESS":"賢北街２１巷３３號","OBJECTID":384616},"geometry":{"x":166236.46999999974,"y":2545272.3399999999}},{"attributes":{"ID":384627,"DIS_CODE":0,"TOWNNAME":"北區","LI":"賢北里","LIN":"9鄰","STREET":"賢北街","SECT":" ","MAREA":" ","LANE":"２１巷","ALLEY":" ","HOUSE_NO":"３４號","E_COORD97":166223.35000000001,"N_COORD97":2545302.2000000002,"ADDRESS":"賢北街２１巷３４號","OBJECTID":384617},"geometry":{"x":166223.34999999963,"y":2545302.1999999993}},{"attributes":{"ID":384628,"DIS_CODE":0,"TOWNNAME":"北區","LI":"賢北里","LIN":"9鄰","STREET":"賢北街","SECT":" ","MAREA":" ","LANE":"２１巷","ALLEY":" ","HOUSE_NO":"３５號","E_COORD97":166231.39999999999,"N_COORD97":2545270.73,"ADDRESS":"賢北街２１巷３５號","OBJECTID":384618},"geometry":{"x":166231.4000000013,"y":2545270.7300000042}},{"attributes":{"ID":384629,"DIS_CODE":0,"TOWNNAME":"永康區","LI":"尚頂里","LIN":" ","STREET":"國聖街","SECT":" ","MAREA":" ","LANE":"４３巷","ALLEY":" ","HOUSE_NO":"８２號","E_COORD97":170193.10000000001,"N_COORD97":2547566.4900000002,"ADDRESS":"國聖街４３巷８２號","OBJECTID":384619},"geometry":{"x":170193.09999999963,"y":2547566.4900000002}},{"attributes":{"ID":384630,"DIS_CODE":0,"TOWNNAME":"永康區","LI":"南灣里","LIN":" ","STREET":"南興路","SECT":" ","MAREA":" ","LANE":"４８巷","ALLEY":" ","HOUSE_NO":"４２之４號","E_COORD97":174537.42000000001,"N_COORD97":2544153.2999999998,"ADDRESS":"南興路４８巷４２之４號","OBJECTID":384620},"geometry":{"x":174537.42000000086,"y":2544153.3000000026}},{"attributes":{"ID":384631,"DIS_CODE":0,"TOWNNAME":"永康區","LI":"\u25A0洲里","LIN":"7鄰","STREET":"\u25A0洲二街","SECT":" ","MAREA":" ","LANE":"２２１巷","ALLEY":" ","HOUSE_NO":"９號","E_COORD97":171813.23000000001,"N_COORD97":2549531.75,"ADDRESS":"\u25A0洲二街２２１巷９號","OBJECTID":384621},"geometry":{"x":171813.23000000138,"y":2549531.7499999981}},{"attributes":{"ID":384632,"DIS_CODE":0,"TOWNNAME":"北區","LI":"賢北里","LIN":"9鄰","STREET":"賢北街","SECT":" ","MAREA":" ","LANE":"２１巷","ALLEY":" ","HOUSE_NO":"３６號","E_COORD97":166218.98000000001,"N_COORD97":2545300.8199999998,"ADDRESS":"賢北街２１巷３６號","OBJECTID":384622},"geometry":{"x":166218.98000000138,"y":2545300.820000004}},{"attributes":{"ID":384633,"DIS_CODE":0,"TOWNNAME":"北區","LI":"賢北里","LIN":"9鄰","STREET":"賢北街","SECT":" ","MAREA":" ","LANE":"２１巷","ALLEY":" ","HOUSE_NO":"３７號","E_COORD97":166227.26000000001,"N_COORD97":2545268.4300000002,"ADDRESS":"賢北街２１巷３７號","OBJECTID":384623},"geometry":{"x":166227.25999999978,"y":2545268.4299999978}},{"attributes":{"ID":384634,"DIS_CODE":0,"TOWNNAME":"北區","LI":"賢北里","LIN":"9鄰","STREET":"賢北街","SECT":" ","MAREA":" ","LANE":"２１巷","ALLEY":" ","HOUSE_NO":"３９號","E_COORD97":166223.12,"N_COORD97":2545266.8199999998,"ADDRESS":"賢北街２１巷３９號","OBJECTID":384624},"geometry":{"x":166223.12000000104,"y":2545266.820000004}},{"attributes":{"ID":384635,"DIS_CODE":0,"TOWNNAME":"北區","LI":"賢北里","LIN":"9鄰","STREET":"賢北街","SECT":" ","MAREA":" ","LANE":"２１巷","ALLEY":" ","HOUSE_NO":"４０號","E_COORD97":166209.54999999999,"N_COORD97":2545297.1499999999,"ADDRESS":"賢北街２１巷４０號","OBJECTID":384625},"geometry":{"x":166209.55000000075,"y":2545297.1500000004}},{"attributes":{"ID":384636,"DIS_CODE":0,"TOWNNAME":"北區","LI":"賢北里","LIN":"9鄰","STREET":"賢北街","SECT":" ","MAREA":" ","LANE":"２１巷","ALLEY":" ","HOUSE_NO":"４１號","E_COORD97":166218.75,"N_COORD97":2545264.7599999998,"ADDRESS":"賢北街２１巷４１號","OBJECTID":384626},"geometry":{"x":166218.75000000093,"y":2545264.7600000016}},{"attributes":{"ID":384637,"DIS_CODE":0,"TOWNNAME":"北區","LI":"賢北里","LIN":"9鄰","STREET":"賢北街","SECT":" ","MAREA":" ","LANE":"２１巷","ALLEY":" ","HOUSE_NO":"４２號","E_COORD97":166206.10000000001,"N_COORD97":2545295.3100000001,"ADDRESS":"賢北街２１巷４２號","OBJECTID":384627},"geometry":{"x":166206.09999999963,"y":2545295.3100000024}},{"attributes":{"ID":384638,"DIS_CODE":0,"TOWNNAME":"北區","LI":"賢北里","LIN":"9鄰","STREET":"賢北街","SECT":" ","MAREA":" ","LANE":"２１巷","ALLEY":" ","HOUSE_NO":"４２號之１","E_COORD97":166199.66,"N_COORD97":2545293.2400000002,"ADDRESS":"賢北街２１巷４２號之１","OBJECTID":384628},"geometry":{"x":166199.66000000015,"y":2545293.2400000002}},{"attributes":{"ID":384639,"DIS_CODE":0,"TOWNNAME":"北區","LI":"賢北里","LIN":"9鄰","STREET":"賢北街","SECT":" ","MAREA":" ","LANE":"２１巷","ALLEY":" ","HOUSE_NO":"４３號","E_COORD97":166213.92000000001,"N_COORD97":2545263.6099999999,"ADDRESS":"賢北街２１巷４３號","OBJECTID":384629},"geometry":{"x":166213.92000000086,"y":2545263.6099999975}},{"attributes":{"ID":384640,"DIS_CODE":0,"TOWNNAME":"北區","LI":"賢北里","LIN":"9鄰","STREET":"賢北街","SECT":" ","MAREA":" ","LANE":"２１巷","ALLEY":" ","HOUSE_NO":"４５號","E_COORD97":166209.78,"N_COORD97":2545260.6200000001,"ADDRESS":"賢北街２１巷４５號","OBJECTID":384630},"geometry":{"x":166209.78000000212,"y":2545260.620000001}},{"attributes":{"ID":384641,"DIS_CODE":0,"TOWNNAME":"北區","LI":"賢北里","LIN":"9鄰","STREET":"賢北街","SECT":" ","MAREA":" ","LANE":"２１巷","ALLEY":" ","HOUSE_NO":"４６號","E_COORD97":166196.44,"N_COORD97":2545291.1699999999,"ADDRESS":"賢北街２１巷４６號","OBJECTID":384631},"geometry":{"x":166196.44000000041,"y":2545291.1700000037}},{"attributes":{"ID":384642,"DIS_CODE":0,"TOWNNAME":"關廟區","LI":"關廟里","LIN":"9鄰","STREET":"大富街","SECT":" ","MAREA":" ","LANE":"３０１巷","ALLEY":" ","HOUSE_NO":"７３號","E_COORD97":180943.60999999999,"N_COORD97":2539663.8799999999,"ADDRESS":"大富街３０１巷７３號","OBJECTID":384632},"geometry":{"x":180943.61000000034,"y":2539663.8800000027}},{"attributes":{"ID":384643,"DIS_CODE":0,"TOWNNAME":"關廟區","LI":"新埔里","LIN":"9鄰","STREET":"新埔二街","SECT":" ","MAREA":" ","LANE":"７２巷","ALLEY":" ","HOUSE_NO":"１００號","E_COORD97":182208.76999999999,"N_COORD97":2541556.25,"ADDRESS":"新埔二街７２巷１００號","OBJECTID":384633},"geometry":{"x":182208.77000000048,"y":2541556.25}},{"attributes":{"ID":384644,"DIS_CODE":0,"TOWNNAME":"關廟區","LI":"關廟里","LIN":"9鄰","STREET":"大仁街","SECT":" ","MAREA":" ","LANE":"３４６巷","ALLEY":" ","HOUSE_NO":"９號","E_COORD97":180862.37,"N_COORD97":2539677.25,"ADDRESS":"大仁街３４６巷９號","OBJECTID":384634},"geometry":{"x":180862.37000000104,"y":2539677.2500000019}},{"attributes":{"ID":384645,"DIS_CODE":0,"TOWNNAME":"關廟區","LI":"五甲里","LIN":"9鄰","STREET":"南雄路","SECT":"一段","MAREA":" ","LANE":"５２１巷","ALLEY":" ","HOUSE_NO":"１６號","E_COORD97":181558.14000000001,"N_COORD97":2538326.2799999998,"ADDRESS":"南雄路一段５２１巷１６號","OBJECTID":384635},"geometry":{"x":181558.13999999873,"y":2538326.2800000012}},{"attributes":{"ID":384646,"DIS_CODE":0,"TOWNNAME":"關廟區","LI":"關廟里","LIN":"9鄰","STREET":"大富街","SECT":" ","MAREA":" ","LANE":"３０１巷","ALLEY":" ","HOUSE_NO":"４１號","E_COORD97":180960.98999999999,"N_COORD97":2539667.1499999999,"ADDRESS":"大富街３０１巷４１號","OBJECTID":384636},"geometry":{"x":180960.99000000022,"y":2539667.1500000041}},{"attributes":{"ID":384647,"DIS_CODE":0,"TOWNNAME":"關廟區","LI":"關廟里","LIN":"9鄰","STREET":"大富街","SECT":" ","MAREA":" ","LANE":"３０１巷","ALLEY":" ","HOUSE_NO":"７９號","E_COORD97":180946.60999999999,"N_COORD97":2539649.8799999999,"ADDRESS":"大富街３０１巷７９號","OBJECTID":384637},"geometry":{"x":180946.61000000034,"y":2539649.879999999}},{"attributes":{"ID":384648,"DIS_CODE":0,"TOWNNAME":"關廟區","LI":"關廟里","LIN":"9鄰","STREET":"大富街","SECT":" ","MAREA":" ","LANE":"３０１巷","ALLEY":" ","HOUSE_NO":"５７號","E_COORD97":180967.19,"N_COORD97":2539632.1499999999,"ADDRESS":"大富街３０１巷５７號","OBJECTID":384638},"geometry":{"x":180967.19000000134,"y":2539632.1500000004}},{"attributes":{"ID":384649,"DIS_CODE":0,"TOWNNAME":"關廟區","LI":"五甲里","LIN":"9鄰","STREET":"南雄路","SECT":"一段","MAREA":" ","LANE":"５２１巷","ALLEY":" ","HOUSE_NO":"１０號","E_COORD97":181573.14000000001,"N_COORD97":2538334.2799999998,"ADDRESS":"南雄路一段５２１巷１０號","OBJECTID":384639},"geometry":{"x":181573.13999999966,"y":2538334.2799999993}},{"attributes":{"ID":384650,"DIS_CODE":0,"TOWNNAME":"關廟區","LI":"五甲里","LIN":"9鄰","STREET":"南雄路","SECT":"一段","MAREA":" ","LANE":"５２１巷","ALLEY":" ","HOUSE_NO":"１２號","E_COORD97":181565.84,"N_COORD97":2538333.2799999998,"ADDRESS":"南雄路一段５２１巷１２號","OBJECTID":384640},"geometry":{"x":181565.84000000078,"y":2538333.2800000012}},{"attributes":{"ID":384651,"DIS_CODE":0,"TOWNNAME":"關廟區","LI":"關廟里","LIN":"9鄰","STREET":"大富街","SECT":" ","MAREA":" ","LANE":"３０１巷","ALLEY":" ","HOUSE_NO":"６５號","E_COORD97":180940.51000000001,"N_COORD97":2539680.8799999999,"ADDRESS":"大富街３０１巷６５號","OBJECTID":384641},"geometry":{"x":180940.51000000164,"y":2539680.8800000027}},{"attributes":{"ID":384652,"DIS_CODE":0,"TOWNNAME":"永康區","LI":"復興里","LIN":" ","STREET":"復興路","SECT":" ","MAREA":" ","LANE":"４２９巷","ALLEY":" ","HOUSE_NO":"４２７之１１號","E_COORD97":172149.76999999999,"N_COORD97":2543910.71,"ADDRESS":"復興路４２９巷４２７之１１號","OBJECTID":384642},"geometry":{"x":172149.77000000048,"y":2543910.7100000009}},{"attributes":{"ID":384653,"DIS_CODE":0,"TOWNNAME":"永康區","LI":"尚頂里","LIN":" ","STREET":"中正南路","SECT":" ","MAREA":" ","LANE":"３１３巷","ALLEY":" ","HOUSE_NO":"２９號","E_COORD97":170161.70000000001,"N_COORD97":2547578.9100000001,"ADDRESS":"中正南路３１３巷２９號","OBJECTID":384643},"geometry":{"x":170161.70000000205,"y":2547578.910000002}},{"attributes":{"ID":384654,"DIS_CODE":0,"TOWNNAME":"永康區","LI":"\u25A0洲里","LIN":"25鄰","STREET":"中正南路","SECT":" ","MAREA":" ","LANE":"４５３巷","ALLEY":" ","HOUSE_NO":"２２號","E_COORD97":170762.95000000001,"N_COORD97":2548206.25,"ADDRESS":"中正南路４５３巷２２號","OBJECTID":384644},"geometry":{"x":170762.95000000019,"y":2548206.2500000037}},{"attributes":{"ID":384655,"DIS_CODE":0,"TOWNNAME":"永康區","LI":"安康里","LIN":"24鄰","STREET":"中華路","SECT":" ","MAREA":" ","LANE":"７０３巷","ALLEY":" ","HOUSE_NO":"７４號","E_COORD97":170729.04000000001,"N_COORD97":2546252.7400000002,"ADDRESS":"中華路７０３巷７４號","OBJECTID":384645},"geometry":{"x":170729.04000000097,"y":2546252.7400000002}},{"attributes":{"ID":384656,"DIS_CODE":0,"TOWNNAME":"永康區","LI":"\u25A0洲里","LIN":"12鄰","STREET":"\u25A0洲一街","SECT":" ","MAREA":" ","LANE":"１１巷","ALLEY":" ","HOUSE_NO":"２７號","E_COORD97":171552.92999999999,"N_COORD97":2549110,"ADDRESS":"\u25A0洲一街１１巷２７號","OBJECTID":384646},"geometry":{"x":171552.93000000156,"y":2549110.0000000037}},{"attributes":{"ID":384657,"DIS_CODE":0,"TOWNNAME":"關廟區","LI":"五甲里","LIN":"9鄰","STREET":"南雄路","SECT":"一段","MAREA":" ","LANE":"５３１巷","ALLEY":" ","HOUSE_NO":"８號","E_COORD97":181545.39000000001,"N_COORD97":2538352.2799999998,"ADDRESS":"南雄路一段５３１巷８號","OBJECTID":384647},"geometry":{"x":181545.3900000006,"y":2538352.2799999993}},{"attributes":{"ID":384658,"DIS_CODE":0,"TOWNNAME":"關廟區","LI":"五甲里","LIN":"9鄰","STREET":"南雄路","SECT":"一段","MAREA":" ","LANE":"７２０巷","ALLEY":" ","HOUSE_NO":"３２號","E_COORD97":181676.73999999999,"N_COORD97":2538782.2799999998,"ADDRESS":"南雄路一段７２０巷３２號","OBJECTID":384648},"geometry":{"x":181676.74000000209,"y":2538782.2799999993}},{"attributes":{"ID":384659,"DIS_CODE":0,"TOWNNAME":"關廟區","LI":"五甲里","LIN":"9鄰","STREET":"南雄路","SECT":"一段","MAREA":" ","LANE":"５１１巷","ALLEY":" ","HOUSE_NO":"２號","E_COORD97":181603.69,"N_COORD97":2538302.2799999998,"ADDRESS":"南雄路一段５１１巷２號","OBJECTID":384649},"geometry":{"x":181603.69000000041,"y":2538302.2800000031}},{"attributes":{"ID":384660,"DIS_CODE":0,"TOWNNAME":"關廟區","LI":"深坑里","LIN":"9鄰","STREET":"深坑三街","SECT":" ","MAREA":" ","LANE":"２５巷","ALLEY":" ","HOUSE_NO":"３０號","E_COORD97":181897.76999999999,"N_COORD97":2537829.2999999998,"ADDRESS":"深坑三街２５巷３０號","OBJECTID":384650},"geometry":{"x":181897.76999999955,"y":2537829.3000000026}},{"attributes":{"ID":384661,"DIS_CODE":0,"TOWNNAME":"關廟區","LI":"五甲里","LIN":"9鄰","STREET":"南雄路","SECT":"一段","MAREA":" ","LANE":"５５０巷","ALLEY":" ","HOUSE_NO":"２８號","E_COORD97":181682.14000000001,"N_COORD97":2538403.2799999998,"ADDRESS":"南雄路一段５５０巷２８號","OBJECTID":384651},"geometry":{"x":181682.1400000006,"y":2538403.2799999993}},{"attributes":{"ID":384662,"DIS_CODE":0,"TOWNNAME":"關廟區","LI":"北花里","LIN":"9鄰","STREET":"中正路","SECT":" ","MAREA":" ","LANE":"７３３巷","ALLEY":" ","HOUSE_NO":"９號","E_COORD97":181851.06,"N_COORD97":2540347.25,"ADDRESS":"中正路７３３巷９號","OBJECTID":384652},"geometry":{"x":181851.06000000052,"y":2540347.2500000037}},{"attributes":{"ID":384663,"DIS_CODE":0,"TOWNNAME":"關廟區","LI":"五甲里","LIN":"9鄰","STREET":"南雄路","SECT":"一段","MAREA":" ","LANE":"５１１巷","ALLEY":" ","HOUSE_NO":"２０號","E_COORD97":181544.34,"N_COORD97":2538285.2799999998,"ADDRESS":"南雄路一段５１１巷２０號","OBJECTID":384653},"geometry":{"x":181544.34000000078,"y":2538285.2800000031}},{"attributes":{"ID":384664,"DIS_CODE":0,"TOWNNAME":"關廟區","LI":"五甲里","LIN":"9鄰","STREET":"南雄路","SECT":"一段","MAREA":" ","LANE":"５２１巷","ALLEY":" ","HOUSE_NO":"５號","E_COORD97":181587.98999999999,"N_COORD97":2538321.2799999998,"ADDRESS":"南雄路一段５２１巷５號","OBJECTID":384654},"geometry":{"x":181587.99000000022,"y":2538321.2799999993}},{"attributes":{"ID":384665,"DIS_CODE":0,"TOWNNAME":"關廟區","LI":"五甲里","LIN":"9鄰","STREET":"南雄路","SECT":"一段","MAREA":" ","LANE":"５３１巷","ALLEY":" ","HOUSE_NO":"２號","E_COORD97":181578.79000000001,"N_COORD97":2538374.2799999998,"ADDRESS":"南雄路一段５３１巷２號","OBJECTID":384655},"geometry":{"x":181578.79000000097,"y":2538374.2800000012}},{"attributes":{"ID":384666,"DIS_CODE":0,"TOWNNAME":"關廟區","LI":"關廟里","LIN":"9鄰","STREET":"民生街","SECT":" ","MAREA":" ","LANE":"６３巷","ALLEY":" ","HOUSE_NO":"１３號","E_COORD97":180881.89000000001,"N_COORD97":2539584.29,"ADDRESS":"民生街６３巷１３號","OBJECTID":384656},"geometry":{"x":180881.89000000153,"y":2539584.290000001}},{"attributes":{"ID":384667,"DIS_CODE":0,"TOWNNAME":"關廟區","LI":"松腳里","LIN":"9鄰","STREET":"四維街","SECT":" ","MAREA":" ","LANE":"１０１巷","ALLEY":" ","HOUSE_NO":"１８號","E_COORD97":181829.60999999999,"N_COORD97":2539695.25,"ADDRESS":"四維街１０１巷１８號","OBJECTID":384657},"geometry":{"x":181829.61000000034,"y":2539695.25}},{"attributes":{"ID":384668,"DIS_CODE":0,"TOWNNAME":"關廟區","LI":"關廟里","LIN":"9鄰","STREET":"民生街","SECT":" ","MAREA":" ","LANE":"６３巷","ALLEY":" ","HOUSE_NO":"１０號","E_COORD97":180876.09,"N_COORD97":2539632.29,"ADDRESS":"民生街６３巷１０號","OBJECTID":384658},"geometry":{"x":180876.09000000078,"y":2539632.290000001}},{"attributes":{"ID":384669,"DIS_CODE":0,"TOWNNAME":"關廟區","LI":"關廟里","LIN":"9鄰","STREET":"民生街","SECT":" ","MAREA":" ","LANE":"６３巷","ALLEY":" ","HOUSE_NO":"１２號","E_COORD97":180875.69,"N_COORD97":2539626.29,"ADDRESS":"民生街６３巷１２號","OBJECTID":384659},"geometry":{"x":180875.69000000134,"y":2539626.2899999991}},{"attributes":{"ID":384670,"DIS_CODE":0,"TOWNNAME":"關廟區","LI":"關廟里","LIN":"9鄰","STREET":"大富街","SECT":" ","MAREA":" ","LANE":"３０１巷","ALLEY":" ","HOUSE_NO":"６７號","E_COORD97":180940.91,"N_COORD97":2539675.8799999999,"ADDRESS":"大富街３０１巷６７號","OBJECTID":384660},"geometry":{"x":180940.91000000015,"y":2539675.879999999}},{"attributes":{"ID":384671,"DIS_CODE":0,"TOWNNAME":"關廟區","LI":"關廟里","LIN":"9鄰","STREET":"大富街","SECT":" ","MAREA":" ","LANE":"３０１巷","ALLEY":" ","HOUSE_NO":"４９號","E_COORD97":180964.09,"N_COORD97":2539649.1499999999,"ADDRESS":"大富街３０１巷４９號","OBJECTID":384661},"geometry":{"x":180964.09000000078,"y":2539649.1500000004}},{"attributes":{"ID":384672,"DIS_CODE":0,"TOWNNAME":"關廟區","LI":"新埔里","LIN":"9鄰","STREET":"新埔三街","SECT":" ","MAREA":" ","LANE":"１３７巷","ALLEY":" ","HOUSE_NO":"９５號","E_COORD97":181235.26999999999,"N_COORD97":2541846.25,"ADDRESS":"新埔三街１３７巷９５號","OBJECTID":384662},"geometry":{"x":181235.27000000142,"y":2541846.2500000019}},{"attributes":{"ID":384673,"DIS_CODE":0,"TOWNNAME":"關廟區","LI":"關廟里","LIN":"9鄰","STREET":"大富街","SECT":" ","MAREA":" ","LANE":"３０１巷","ALLEY":" ","HOUSE_NO":"４７號","E_COORD97":180962.98999999999,"N_COORD97":2539654.1499999999,"ADDRESS":"大富街３０１巷４７號","OBJECTID":384663},"geometry":{"x":180962.98999999929,"y":2539654.1500000022}},{"attributes":{"ID":384674,"DIS_CODE":0,"TOWNNAME":"關廟區","LI":"五甲里","LIN":"9鄰","STREET":"南雄路","SECT":"一段","MAREA":" ","LANE":"５２１巷","ALLEY":" ","HOUSE_NO":"６號","E_COORD97":181587.19,"N_COORD97":2538339.2799999998,"ADDRESS":"南雄路一段５２１巷６號","OBJECTID":384664},"geometry":{"x":181587.19000000041,"y":2538339.2800000031}},{"attributes":{"ID":384675,"DIS_CODE":0,"TOWNNAME":"關廟區","LI":"關廟里","LIN":"9鄰","STREET":"民生街","SECT":" ","MAREA":" ","LANE":"６３巷","ALLEY":" ","HOUSE_NO":"２號","E_COORD97":180894.84,"N_COORD97":2539625.29,"ADDRESS":"民生街６３巷２號","OBJECTID":384665},"geometry":{"x":180894.84000000078,"y":2539625.290000001}},{"attributes":{"ID":384676,"DIS_CODE":0,"TOWNNAME":"關廟區","LI":"五甲里","LIN":"9鄰","STREET":"南雄路","SECT":"一段","MAREA":" ","LANE":"５２１巷","ALLEY":" ","HOUSE_NO":"１８號","E_COORD97":181551.64000000001,"N_COORD97":2538324.2799999998,"ADDRESS":"南雄路一段５２１巷１８號","OBJECTID":384666},"geometry":{"x":181551.6400000006,"y":2538324.2799999993}},{"attributes":{"ID":384677,"DIS_CODE":0,"TOWNNAME":"關廟區","LI":"關廟里","LIN":"9鄰","STREET":"大富街","SECT":" ","MAREA":" ","LANE":"３０１巷","ALLEY":" ","HOUSE_NO":"３９號","E_COORD97":180960.29000000001,"N_COORD97":2539671.1499999999,"ADDRESS":"大富街３０１巷３９號","OBJECTID":384667},"geometry":{"x":180960.29000000004,"y":2539671.1500000022}},{"attributes":{"ID":384678,"DIS_CODE":0,"TOWNNAME":"關廟區","LI":"新埔里","LIN":"9鄰","STREET":"忠孝街","SECT":" ","MAREA":" ","LANE":"３４０巷","ALLEY":" ","HOUSE_NO":"７號","E_COORD97":181230.44,"N_COORD97":2541071.25,"ADDRESS":"忠孝街３４０巷７號","OBJECTID":384668},"geometry":{"x":181230.44000000134,"y":2541071.25}},{"attributes":{"ID":384679,"DIS_CODE":0,"TOWNNAME":"關廟區","LI":"埤頭里","LIN":"9鄰","STREET":"關新路","SECT":"二段","MAREA":" ","LANE":"２３巷","ALLEY":" ","HOUSE_NO":"２６號","E_COORD97":178990.76999999999,"N_COORD97":2544093.25,"ADDRESS":"關新路二段２３巷２６號","OBJECTID":384669},"geometry":{"x":178990.77000000142,"y":2544093.25}},{"attributes":{"ID":384680,"DIS_CODE":0,"TOWNNAME":"關廟區","LI":"埤頭里","LIN":"9鄰","STREET":"關新路","SECT":"二段","MAREA":" ","LANE":"２３巷","ALLEY":" ","HOUSE_NO":"１８號","E_COORD97":179013.97,"N_COORD97":2544096.2999999998,"ADDRESS":"關新路二段２３巷１８號","OBJECTID":384670},"geometry":{"x":179013.97000000067,"y":2544096.3000000007}},{"attributes":{"ID":384681,"DIS_CODE":0,"TOWNNAME":"關廟區","LI":"南花里","LIN":"9鄰","STREET":"四維街","SECT":" ","MAREA":" ","LANE":"２３１巷","ALLEY":" ","HOUSE_NO":"１１號","E_COORD97":181797.81,"N_COORD97":2540219.25,"ADDRESS":"四維街２３１巷１１號","OBJECTID":384671},"geometry":{"x":181797.81000000145,"y":2540219.2500000019}},{"attributes":{"ID":384682,"DIS_CODE":0,"TOWNNAME":"關廟區","LI":"新埔里","LIN":"9鄰","STREET":"忠孝街","SECT":" ","MAREA":" ","LANE":"３４０巷","ALLEY":" ","HOUSE_NO":"１０號","E_COORD97":181224.39000000001,"N_COORD97":2541027.25,"ADDRESS":"忠孝街３４０巷１０號","OBJECTID":384672},"geometry":{"x":181224.39000000153,"y":2541027.25}},{"attributes":{"ID":384683,"DIS_CODE":0,"TOWNNAME":"關廟區","LI":"南花里","LIN":"9鄰","STREET":"四維街","SECT":" ","MAREA":" ","LANE":"２３１巷","ALLEY":" ","HOUSE_NO":"３號","E_COORD97":181813.45999999999,"N_COORD97":2540219.25,"ADDRESS":"四維街２３１巷３號","OBJECTID":384673},"geometry":{"x":181813.45999999996,"y":2540219.2500000019}},{"attributes":{"ID":384684,"DIS_CODE":0,"TOWNNAME":"關廟區","LI":"山西里","LIN":"9鄰","STREET":"文衡路","SECT":" ","MAREA":" ","LANE":"３１８巷","ALLEY":" ","HOUSE_NO":"１０號","E_COORD97":180957.01999999999,"N_COORD97":2540761.6699999999,"ADDRESS":"文衡路３１８巷１０號","OBJECTID":384674},"geometry":{"x":180957.01999999862,"y":2540761.6700000037}},{"attributes":{"ID":384685,"DIS_CODE":0,"TOWNNAME":"關廟區","LI":"山西里","LIN":"9鄰","STREET":"文衡路","SECT":" ","MAREA":" ","LANE":"３１８巷","ALLEY":" ","HOUSE_NO":"１２號","E_COORD97":180960.57000000001,"N_COORD97":2540760.9700000002,"ADDRESS":"文衡路３１８巷１２號","OBJECTID":384675},"geometry":{"x":180960.5700000003,"y":2540760.9700000025}},{"attributes":{"ID":384686,"DIS_CODE":0,"TOWNNAME":"關廟區","LI":"山西里","LIN":"9鄰","STREET":"文衡路","SECT":" ","MAREA":" ","LANE":"３１８巷","ALLEY":" ","HOUSE_NO":"２號","E_COORD97":180945.51999999999,"N_COORD97":2540763.2200000002,"ADDRESS":"文衡路３１８巷２號","OBJECTID":384676},"geometry":{"x":180945.52000000048,"y":2540763.2200000025}},{"attributes":{"ID":384687,"DIS_CODE":0,"TOWNNAME":"關廟區","LI":"山西里","LIN":"9鄰","STREET":"文衡路","SECT":" ","MAREA":" ","LANE":"３１８巷","ALLEY":" ","HOUSE_NO":"６號","E_COORD97":180949.35999999999,"N_COORD97":2540762.9199999999,"ADDRESS":"文衡路３１８巷６號","OBJECTID":384677},"geometry":{"x":180949.36000000127,"y":2540762.9199999981}},{"attributes":{"ID":384688,"DIS_CODE":0,"TOWNNAME":"關廟區","LI":"山西里","LIN":"9鄰","STREET":"文衡路","SECT":" ","MAREA":" ","LANE":"３１８巷","ALLEY":" ","HOUSE_NO":"８號","E_COORD97":180952.35000000001,"N_COORD97":2540762.3199999998,"ADDRESS":"文衡路３１８巷８號","OBJECTID":384678},"geometry":{"x":180952.35000000056,"y":2540762.3200000022}},{"attributes":{"ID":384689,"DIS_CODE":0,"TOWNNAME":"永康區","LI":"安康里","LIN":" ","STREET":"中華路","SECT":" ","MAREA":" ","LANE":"７０３巷","ALLEY":" ","HOUSE_NO":"２４號","E_COORD97":170843.45000000001,"N_COORD97":2546303.5,"ADDRESS":"中華路７０３巷２４號","OBJECTID":384679},"geometry":{"x":170843.45000000112,"y":2546303.5000000019}},{"attributes":{"ID":384690,"DIS_CODE":0,"TOWNNAME":"永康區","LI":"大灣里","LIN":" ","STREET":"大灣路","SECT":" ","MAREA":" ","LANE":"２１８巷","ALLEY":" ","HOUSE_NO":"６１號","E_COORD97":174829.89999999999,"N_COORD97":2545548.3399999999,"ADDRESS":"大灣路２１８巷６１號","OBJECTID":384680},"geometry":{"x":174829.90000000037,"y":2545548.3400000017}},{"attributes":{"ID":384691,"DIS_CODE":0,"TOWNNAME":"永康區","LI":"\u25A0洲里","LIN":"5鄰","STREET":"仁愛街","SECT":" ","MAREA":" ","LANE":"１０３巷","ALLEY":" ","HOUSE_NO":"１２號","E_COORD97":172004.42000000001,"N_COORD97":2549501.7799999998,"ADDRESS":"仁愛街１０３巷１２號","OBJECTID":384681},"geometry":{"x":172004.42000000086,"y":2549501.7800000012}},{"attributes":{"ID":384692,"DIS_CODE":0,"TOWNNAME":"永康區","LI":"\u25A0行里","LIN":"40鄰","STREET":"永安路","SECT":" ","MAREA":" ","LANE":"１０５巷","ALLEY":" ","HOUSE_NO":"３８號","E_COORD97":172640.25,"N_COORD97":2549301.2000000002,"ADDRESS":"永安路１０５巷３８號","OBJECTID":384682},"geometry":{"x":172640.25000000093,"y":2549301.2000000011}},{"attributes":{"ID":384693,"DIS_CODE":0,"TOWNNAME":"永康區","LI":"\u25A0洲里","LIN":"15鄰","STREET":"\u25A0洲一街","SECT":" ","MAREA":" ","LANE":"５巷","ALLEY":" ","HOUSE_NO":"３６號","E_COORD97":171495.73999999999,"N_COORD97":2549067.7400000002,"ADDRESS":"\u25A0洲一街５巷３６號","OBJECTID":384683},"geometry":{"x":171495.74000000115,"y":2549067.7400000039}},{"attributes":{"ID":384694,"DIS_CODE":0,"TOWNNAME":"永康區","LI":"\u25A0洲里","LIN":"6鄰","STREET":"\u25A0洲二街","SECT":" ","MAREA":" ","LANE":"２２１巷","ALLEY":" ","HOUSE_NO":"１６號","E_COORD97":171820.38,"N_COORD97":2549551.5,"ADDRESS":"\u25A0洲二街２２１巷１６號","OBJECTID":384684},"geometry":{"x":171820.38000000082,"y":2549551.5000000019}},{"attributes":{"ID":384695,"DIS_CODE":0,"TOWNNAME":"永康區","LI":"正強里","LIN":"30鄰","STREET":"中正路","SECT":" ","MAREA":" ","LANE":"２０９巷","ALLEY":" ","HOUSE_NO":"１２０號","E_COORD97":173128.87,"N_COORD97":2547673.5,"ADDRESS":"中正路２０９巷１２０號","OBJECTID":384685},"geometry":{"x":173128.87000000104,"y":2547673.5000000019}},{"attributes":{"ID":384696,"DIS_CODE":0,"TOWNNAME":"永康區","LI":"\u25A0行里","LIN":"10鄰","STREET":"正南五街","SECT":" ","MAREA":" ","LANE":"２４８巷","ALLEY":" ","HOUSE_NO":"７號","E_COORD97":172094.57999999999,"N_COORD97":2548308.5,"ADDRESS":"正南五街２４８巷７號","OBJECTID":384686},"geometry":{"x":172094.58000000007,"y":2548308.5}},{"attributes":{"ID":384697,"DIS_CODE":0,"TOWNNAME":"永康區","LI":"東橋里","LIN":" ","STREET":"自強路","SECT":" ","MAREA":" ","LANE":"１３９巷","ALLEY":" ","HOUSE_NO":"７號","E_COORD97":173000.62,"N_COORD97":2547424.9900000002,"ADDRESS":"自強路１３９巷７號","OBJECTID":384687},"geometry":{"x":173000.62000000104,"y":2547424.9900000039}},{"attributes":{"ID":384698,"DIS_CODE":0,"TOWNNAME":"永康區","LI":"\u25A0洲里","LIN":"36鄰","STREET":"\u25A0洲二街","SECT":" ","MAREA":" ","LANE":"１７５巷","ALLEY":" ","HOUSE_NO":"３８號","E_COORD97":171675.39000000001,"N_COORD97":2549471.9900000002,"ADDRESS":"\u25A0洲二街１７５巷３８號","OBJECTID":384688},"geometry":{"x":171675.39000000153,"y":2549471.9900000002}},{"attributes":{"ID":384699,"DIS_CODE":0,"TOWNNAME":"永康區","LI":"\u25A0洲里","LIN":"36鄰","STREET":"\u25A0洲二街","SECT":" ","MAREA":" ","LANE":"１７５巷","ALLEY":" ","HOUSE_NO":"３２號","E_COORD97":171681.29999999999,"N_COORD97":2549466.4900000002,"ADDRESS":"\u25A0洲二街１７５巷３２號","OBJECTID":384689},"geometry":{"x":171681.30000000075,"y":2549466.4900000021}},{"attributes":{"ID":384700,"DIS_CODE":0,"TOWNNAME":"新營區","LI":"新南里","LIN":"9鄰","STREET":"新北五街","SECT":" ","MAREA":" ","LANE":"１４３巷","ALLEY":" ","HOUSE_NO":"３號","E_COORD97":178548.92000000001,"N_COORD97":2579132.25,"ADDRESS":"新北五街１４３巷３號","OBJECTID":384690},"geometry":{"x":178548.91999999993,"y":2579132.25}},{"attributes":{"ID":384701,"DIS_CODE":0,"TOWNNAME":"新營區","LI":"南紙里","LIN":"9鄰","STREET":"南紙街","SECT":" ","MAREA":" ","LANE":"８５巷","ALLEY":" ","HOUSE_NO":"８號","E_COORD97":177885.72,"N_COORD97":2577580.6000000001,"ADDRESS":"南紙街８５巷８號","OBJECTID":384691},"geometry":{"x":177885.71999999974,"y":2577580.5999999996}},{"attributes":{"ID":384702,"DIS_CODE":0,"TOWNNAME":"新營區","LI":"南紙里","LIN":"9鄰","STREET":"南紙街","SECT":" ","MAREA":" ","LANE":"８５巷","ALLEY":" ","HOUSE_NO":"５號","E_COORD97":177835.60000000001,"N_COORD97":2577591.9300000002,"ADDRESS":"南紙街８５巷５號","OBJECTID":384692},"geometry":{"x":177835.59999999963,"y":2577591.9299999997}},{"attributes":{"ID":384703,"DIS_CODE":0,"TOWNNAME":"新營區","LI":"南紙里","LIN":"9鄰","STREET":"南紙街","SECT":" ","MAREA":" ","LANE":"８５巷","ALLEY":" ","HOUSE_NO":"５之５號","E_COORD97":177861.63,"N_COORD97":2577591.8599999999,"ADDRESS":"南紙街８５巷５之５號","OBJECTID":384693},"geometry":{"x":177861.63000000082,"y":2577591.8599999994}},{"attributes":{"ID":384704,"DIS_CODE":0,"TOWNNAME":"新營區","LI":"忠政里","LIN":"9鄰","STREET":"中正路","SECT":" ","MAREA":" ","LANE":"３９巷","ALLEY":" ","HOUSE_NO":"４６號","E_COORD97":179919.26999999999,"N_COORD97":2579253.0800000001,"ADDRESS":"中正路３９巷４６號","OBJECTID":384694},"geometry":{"x":179919.26999999955,"y":2579253.0800000038}},{"attributes":{"ID":384705,"DIS_CODE":0,"TOWNNAME":"新營區","LI":"新南里","LIN":"9鄰","STREET":"新北五街","SECT":" ","MAREA":" ","LANE":"１４３巷","ALLEY":" ","HOUSE_NO":"６號","E_COORD97":178543.82000000001,"N_COORD97":2579150.0099999998,"ADDRESS":"新北五街１４３巷６號","OBJECTID":384695},"geometry":{"x":178543.82000000123,"y":2579150.0099999998}},{"attributes":{"ID":384706,"DIS_CODE":0,"TOWNNAME":"新營區","LI":"南紙里","LIN":"9鄰","STREET":"南紙街","SECT":" ","MAREA":" ","LANE":"８５巷","ALLEY":" ","HOUSE_NO":"５之７號","E_COORD97":177869.82000000001,"N_COORD97":2577591.8199999998,"ADDRESS":"南紙街８５巷５之７號","OBJECTID":384696},"geometry":{"x":177869.8200000003,"y":2577591.8200000022}},{"attributes":{"ID":384707,"DIS_CODE":0,"TOWNNAME":"新營區","LI":"新北里","LIN":"9鄰","STREET":"三興街","SECT":" ","MAREA":" ","LANE":"３０１巷","ALLEY":" ","HOUSE_NO":"３０號","E_COORD97":179242.39000000001,"N_COORD97":2579726.96,"ADDRESS":"三興街３０１巷３０號","OBJECTID":384697},"geometry":{"x":179242.38999999966,"y":2579726.9600000028}},{"attributes":{"ID":384708,"DIS_CODE":0,"TOWNNAME":"新營區","LI":"忠政里","LIN":"9鄰","STREET":"中正路","SECT":" ","MAREA":" ","LANE":"３９巷","ALLEY":" ","HOUSE_NO":"３３號","E_COORD97":180009.20000000001,"N_COORD97":2579234.9199999999,"ADDRESS":"中正路３９巷３３號","OBJECTID":384698},"geometry":{"x":180009.20000000112,"y":2579234.9200000018}},{"attributes":{"ID":384709,"DIS_CODE":0,"TOWNNAME":"新營區","LI":"忠政里","LIN":"9鄰","STREET":"中正路","SECT":" ","MAREA":" ","LANE":"３９巷","ALLEY":" ","HOUSE_NO":"４３號之３","E_COORD97":179957.23999999999,"N_COORD97":2579241.8799999999,"ADDRESS":"中正路３９巷４３號之３","OBJECTID":384699},"geometry":{"x":179957.24000000022,"y":2579241.879999999}},{"attributes":{"ID":384710,"DIS_CODE":0,"TOWNNAME":"新營區","LI":"忠政里","LIN":"9鄰","STREET":"中正路","SECT":" ","MAREA":" ","LANE":"３９巷","ALLEY":" ","HOUSE_NO":"４７號之１","E_COORD97":179933.63,"N_COORD97":2579244.21,"ADDRESS":"中正路３９巷４７號之１","OBJECTID":384700},"geometry":{"x":179933.63000000082,"y":2579244.2100000028}},{"attributes":{"ID":384711,"DIS_CODE":0,"TOWNNAME":"新營區","LI":"忠政里","LIN":"9鄰","STREET":"中正路","SECT":" ","MAREA":" ","LANE":"３９巷","ALLEY":" ","HOUSE_NO":"３３號之３","E_COORD97":180011.42999999999,"N_COORD97":2579234.9700000002,"ADDRESS":"中正路３９巷３３號之３","OBJECTID":384701},"geometry":{"x":180011.4299999997,"y":2579234.9700000025}},{"attributes":{"ID":384712,"DIS_CODE":0,"TOWNNAME":"新營區","LI":"南紙里","LIN":"9鄰","STREET":"南紙街","SECT":" ","MAREA":" ","LANE":"８５巷","ALLEY":" ","HOUSE_NO":"１７號","E_COORD97":177928.84,"N_COORD97":2577581.5,"ADDRESS":"南紙街８５巷１７號","OBJECTID":384702},"geometry":{"x":177928.83999999985,"y":2577581.5}},{"attributes":{"ID":384713,"DIS_CODE":0,"TOWNNAME":"新營區","LI":"南紙里","LIN":"9鄰","STREET":"南紙街","SECT":" ","MAREA":" ","LANE":"８５巷","ALLEY":" ","HOUSE_NO":"５之２號","E_COORD97":177847.31,"N_COORD97":2577591.9300000002,"ADDRESS":"南紙街８５巷５之２號","OBJECTID":384703},"geometry":{"x":177847.30999999959,"y":2577591.9299999997}},{"attributes":{"ID":384714,"DIS_CODE":0,"TOWNNAME":"新營區","LI":"新北里","LIN":"9鄰","STREET":"三興街","SECT":" ","MAREA":" ","LANE":"３０１巷","ALLEY":" ","HOUSE_NO":"３８號","E_COORD97":179227.04000000001,"N_COORD97":2579724.8199999998,"ADDRESS":"三興街３０１巷３８號","OBJECTID":384704},"geometry":{"x":179227.04000000097,"y":2579724.8200000003}},{"attributes":{"ID":384715,"DIS_CODE":0,"TOWNNAME":"新營區","LI":"忠政里","LIN":"9鄰","STREET":"中正路","SECT":" ","MAREA":" ","LANE":"３９巷","ALLEY":" ","HOUSE_NO":"４８號","E_COORD97":179918.22,"N_COORD97":2579247.5499999998,"ADDRESS":"中正路３９巷４８號","OBJECTID":384705},"geometry":{"x":179918.21999999974,"y":2579247.5500000045}},{"attributes":{"ID":384716,"DIS_CODE":0,"TOWNNAME":"新營區","LI":"南紙里","LIN":"9鄰","STREET":"南紙街","SECT":" ","MAREA":" ","LANE":"８５巷","ALLEY":" ","HOUSE_NO":"５之１號","E_COORD97":177842.19,"N_COORD97":2577591.96,"ADDRESS":"南紙街８５巷５之１號","OBJECTID":384706},"geometry":{"x":177842.19000000041,"y":2577591.9600000009}},{"attributes":{"ID":384717,"DIS_CODE":0,"TOWNNAME":"永康區","LI":"\u25A0洲里","LIN":"6鄰","STREET":"\u25A0洲二街","SECT":" ","MAREA":" ","LANE":"２２１巷","ALLEY":" ","HOUSE_NO":"２０號","E_COORD97":171812.42999999999,"N_COORD97":2549555.5,"ADDRESS":"\u25A0洲二街２２１巷２０號","OBJECTID":384707},"geometry":{"x":171812.43000000156,"y":2549555.5000000019}},{"attributes":{"ID":384718,"DIS_CODE":0,"TOWNNAME":"新營區","LI":"忠政里","LIN":"9鄰","STREET":"中正路","SECT":" ","MAREA":" ","LANE":"３９巷","ALLEY":" ","HOUSE_NO":"２１號之３","E_COORD97":179989.87,"N_COORD97":2579224,"ADDRESS":"中正路３９巷２１號之３","OBJECTID":384708},"geometry":{"x":179989.87000000104,"y":2579224.0000000019}},{"attributes":{"ID":384719,"DIS_CODE":0,"TOWNNAME":"新營區","LI":"忠政里","LIN":"9鄰","STREET":"中正路","SECT":" ","MAREA":" ","LANE":"３９巷","ALLEY":" ","HOUSE_NO":"１９號之１","E_COORD97":180003.01000000001,"N_COORD97":2579222.8300000001,"ADDRESS":"中正路３９巷１９號之１","OBJECTID":384709},"geometry":{"x":180003.01000000164,"y":2579222.8300000001}},{"attributes":{"ID":384720,"DIS_CODE":0,"TOWNNAME":"新營區","LI":"忠政里","LIN":"9鄰","STREET":"中正路","SECT":" ","MAREA":" ","LANE":"３９巷","ALLEY":" ","HOUSE_NO":"１９號","E_COORD97":180000.87,"N_COORD97":2579222.7799999998,"ADDRESS":"中正路３９巷１９號","OBJECTID":384710},"geometry":{"x":180000.86999999918,"y":2579222.7799999993}},{"attributes":{"ID":384721,"DIS_CODE":0,"TOWNNAME":"新營區","LI":"忠政里","LIN":"9鄰","STREET":"中正路","SECT":" ","MAREA":" ","LANE":"３９巷","ALLEY":" ","HOUSE_NO":"２５號","E_COORD97":179967.20000000001,"N_COORD97":2579226.2599999998,"ADDRESS":"中正路３９巷２５號","OBJECTID":384711},"geometry":{"x":179967.20000000112,"y":2579226.2599999998}},{"attributes":{"ID":384722,"DIS_CODE":0,"TOWNNAME":"新營區","LI":"忠政里","LIN":"9鄰","STREET":"中正路","SECT":" ","MAREA":" ","LANE":"３９巷","ALLEY":" ","HOUSE_NO":"２７號","E_COORD97":179955.95000000001,"N_COORD97":2579227.4199999999,"ADDRESS":"中正路３９巷２７號","OBJECTID":384712},"geometry":{"x":179955.95000000019,"y":2579227.4200000018}},{"attributes":{"ID":384723,"DIS_CODE":0,"TOWNNAME":"白河區","LI":"外角里","LIN":"13鄰","STREET":"三民路","SECT":" ","MAREA":" ","LANE":" ","ALLEY":" ","HOUSE_NO":"２３６號","E_COORD97":190809.57000000001,"N_COORD97":2583313.7599999998,"ADDRESS":"三民路２３６號","OBJECTID":384713},"geometry":{"x":190809.5700000003,"y":2583313.7600000016}},{"attributes":{"ID":384724,"DIS_CODE":0,"TOWNNAME":"新營區","LI":"忠政里","LIN":"9鄰","STREET":"中正路","SECT":" ","MAREA":" ","LANE":"３９巷","ALLEY":" ","HOUSE_NO":"１７號之２","E_COORD97":180013.35999999999,"N_COORD97":2579221.6800000002,"ADDRESS":"中正路３９巷１７號之２","OBJECTID":384714},"geometry":{"x":180013.36000000127,"y":2579221.6800000034}},{"attributes":{"ID":384725,"DIS_CODE":0,"TOWNNAME":"新營區","LI":"忠政里","LIN":"9鄰","STREET":"中正路","SECT":" ","MAREA":" ","LANE":"３９巷","ALLEY":" ","HOUSE_NO":"２７號之１","E_COORD97":179958.07999999999,"N_COORD97":2579227.4700000002,"ADDRESS":"中正路３９巷２７號之１","OBJECTID":384715},"geometry":{"x":179958.08000000007,"y":2579227.4700000044}},{"attributes":{"ID":384726,"DIS_CODE":0,"TOWNNAME":"新營區","LI":"忠政里","LIN":"9鄰","STREET":"中正路","SECT":" ","MAREA":" ","LANE":"３９巷","ALLEY":" ","HOUSE_NO":"２１號","E_COORD97":179987.64000000001,"N_COORD97":2579223.9500000002,"ADDRESS":"中正路３９巷２１號","OBJECTID":384716},"geometry":{"x":179987.63999999966,"y":2579223.9500000011}},{"attributes":{"ID":384727,"DIS_CODE":0,"TOWNNAME":"新營區","LI":"南興里","LIN":"9鄰","STREET":"和平路","SECT":" ","MAREA":" ","LANE":"１０２巷","ALLEY":" ","HOUSE_NO":"４之２號","E_COORD97":179391.06,"N_COORD97":2577613.29,"ADDRESS":"和平路１０２巷４之２號","OBJECTID":384717},"geometry":{"x":179391.06000000052,"y":2577613.2900000028}},{"attributes":{"ID":384728,"DIS_CODE":0,"TOWNNAME":"新營區","LI":"忠政里","LIN":"9鄰","STREET":"中正路","SECT":" ","MAREA":" ","LANE":"３９巷","ALLEY":" ","HOUSE_NO":"２５號之２","E_COORD97":179969.47,"N_COORD97":2579226.3100000001,"ADDRESS":"中正路３９巷２５號之２","OBJECTID":384718},"geometry":{"x":179969.4700000016,"y":2579226.3100000024}},{"attributes":{"ID":384729,"DIS_CODE":0,"TOWNNAME":"新營區","LI":"忠政里","LIN":"9鄰","STREET":"中正路","SECT":" ","MAREA":" ","LANE":"３９巷","ALLEY":" ","HOUSE_NO":"３１號","E_COORD97":179933.48000000001,"N_COORD97":2579229.75,"ADDRESS":"中正路３９巷３１號","OBJECTID":384719},"geometry":{"x":179933.48000000138,"y":2579229.7500000019}},{"attributes":{"ID":384730,"DIS_CODE":0,"TOWNNAME":"新營區","LI":"忠政里","LIN":"9鄰","STREET":"中正路","SECT":" ","MAREA":" ","LANE":"３９巷","ALLEY":" ","HOUSE_NO":"２３之２號","E_COORD97":179979.92000000001,"N_COORD97":2579225.1600000001,"ADDRESS":"中正路３９巷２３之２號","OBJECTID":384720},"geometry":{"x":179979.91999999993,"y":2579225.1600000001}},{"attributes":{"ID":384731,"DIS_CODE":0,"TOWNNAME":"新營區","LI":"忠政里","LIN":"9鄰","STREET":"中正路","SECT":" ","MAREA":" ","LANE":"３９巷","ALLEY":" ","HOUSE_NO":"１９號之３","E_COORD97":180003.10000000001,"N_COORD97":2579222.8300000001,"ADDRESS":"中正路３９巷１９號之３","OBJECTID":384721},"geometry":{"x":180003.10000000056,"y":2579222.8300000001}},{"attributes":{"ID":384732,"DIS_CODE":0,"TOWNNAME":"永康區","LI":"\u25A0行里","LIN":"2鄰","STREET":"中正路","SECT":" ","MAREA":" ","LANE":"９５６巷","ALLEY":" ","HOUSE_NO":"１３號","E_COORD97":171990.28,"N_COORD97":2548990.4900000002,"ADDRESS":"中正路９５６巷１３號","OBJECTID":384722},"geometry":{"x":171990.28000000212,"y":2548990.4900000002}},{"attributes":{"ID":384733,"DIS_CODE":0,"TOWNNAME":"新營區","LI":"忠政里","LIN":"9鄰","STREET":"中正路","SECT":" ","MAREA":" ","LANE":"３９巷","ALLEY":" ","HOUSE_NO":"２９號之２","E_COORD97":179946.97,"N_COORD97":2579227.5299999998,"ADDRESS":"中正路３９巷２９號之２","OBJECTID":384723},"geometry":{"x":179946.96999999974,"y":2579227.5299999993}},{"attributes":{"ID":384734,"DIS_CODE":0,"TOWNNAME":"永康區","LI":"\u25A0洲里","LIN":"36鄰","STREET":"\u25A0洲二街","SECT":" ","MAREA":" ","LANE":"１７５巷","ALLEY":" ","HOUSE_NO":"３１號","E_COORD97":171657.82000000001,"N_COORD97":2549460.4900000002,"ADDRESS":"\u25A0洲二街１７５巷３１號","OBJECTID":384724},"geometry":{"x":171657.82000000216,"y":2549460.4900000021}},{"attributes":{"ID":384735,"DIS_CODE":0,"TOWNNAME":"永康區","LI":"\u25A0洲里","LIN":"5鄰","STREET":"仁愛街","SECT":" ","MAREA":" ","LANE":"１０３巷","ALLEY":" ","HOUSE_NO":"７１號","E_COORD97":171808.53,"N_COORD97":2549588.27,"ADDRESS":"仁愛街１０３巷７１號","OBJECTID":384725},"geometry":{"x":171808.53000000026,"y":2549588.2699999996}},{"attributes":{"ID":384736,"DIS_CODE":0,"TOWNNAME":"永康區","LI":"\u25A0行里","LIN":"20鄰","STREET":"正南五街","SECT":" ","MAREA":" ","LANE":"２８９巷","ALLEY":" ","HOUSE_NO":"５２號","E_COORD97":171762.23000000001,"N_COORD97":2548351.8500000001,"ADDRESS":"正南五街２８９巷５２號","OBJECTID":384726},"geometry":{"x":171762.23000000138,"y":2548351.8500000015}},{"attributes":{"ID":384737,"DIS_CODE":0,"TOWNNAME":"永康區","LI":"\u25A0行里","LIN":"40鄰","STREET":"永安路","SECT":" ","MAREA":" ","LANE":"１０５巷","ALLEY":" ","HOUSE_NO":"１６號","E_COORD97":172689.34,"N_COORD97":2549299.9500000002,"ADDRESS":"永安路１０５巷１６號","OBJECTID":384727},"geometry":{"x":172689.33999999985,"y":2549299.9500000011}},{"attributes":{"ID":384738,"DIS_CODE":0,"TOWNNAME":"新營區","LI":"忠政里","LIN":"9鄰","STREET":"中正路","SECT":" ","MAREA":" ","LANE":"３９巷","ALLEY":" ","HOUSE_NO":"２７號之３","E_COORD97":179958.17999999999,"N_COORD97":2579227.4700000002,"ADDRESS":"中正路３９巷２７號之３","OBJECTID":384728},"geometry":{"x":179958.18000000063,"y":2579227.4700000044}},{"attributes":{"ID":384739,"DIS_CODE":0,"TOWNNAME":"新營區","LI":"忠政里","LIN":"9鄰","STREET":"中正路","SECT":" ","MAREA":" ","LANE":"３９巷","ALLEY":" ","HOUSE_NO":"１９號之２","E_COORD97":180003.14000000001,"N_COORD97":2579222.8300000001,"ADDRESS":"中正路３９巷１９號之２","OBJECTID":384729},"geometry":{"x":180003.13999999966,"y":2579222.8300000001}},{"attributes":{"ID":384740,"DIS_CODE":0,"TOWNNAME":"新營區","LI":"忠政里","LIN":"9鄰","STREET":"中正路","SECT":" ","MAREA":" ","LANE":"３９巷","ALLEY":" ","HOUSE_NO":"２３號","E_COORD97":179977.42000000001,"N_COORD97":2579225.1099999999,"ADDRESS":"中正路３９巷２３號","OBJECTID":384730},"geometry":{"x":179977.42000000086,"y":2579225.1100000031}},{"attributes":{"ID":384741,"DIS_CODE":0,"TOWNNAME":"新營區","LI":"忠政里","LIN":"9鄰","STREET":"中正路","SECT":" ","MAREA":" ","LANE":"３９巷","ALLEY":" ","HOUSE_NO":"３７號之１","E_COORD97":179988.85000000001,"N_COORD97":2579237.2999999998,"ADDRESS":"中正路３９巷３７號之１","OBJECTID":384731},"geometry":{"x":179988.85000000056,"y":2579237.3000000007}},{"attributes":{"ID":384742,"DIS_CODE":0,"TOWNNAME":"新營區","LI":"新東里","LIN":"9鄰","STREET":"東仁街","SECT":" ","MAREA":" ","LANE":"２１巷","ALLEY":" ","HOUSE_NO":"６號","E_COORD97":181255.32999999999,"N_COORD97":2579597.8700000001,"ADDRESS":"東仁街２１巷６號","OBJECTID":384732},"geometry":{"x":181255.33000000007,"y":2579597.8699999992}},{"attributes":{"ID":384743,"DIS_CODE":0,"TOWNNAME":"新營區","LI":"南興里","LIN":"9鄰","STREET":"和平路","SECT":" ","MAREA":" ","LANE":"１０２巷","ALLEY":" ","HOUSE_NO":"１０號","E_COORD97":179377.47,"N_COORD97":2577614.3999999999,"ADDRESS":"和平路１０２巷１０號","OBJECTID":384733},"geometry":{"x":179377.46999999974,"y":2577614.4000000022}},{"attributes":{"ID":384744,"DIS_CODE":0,"TOWNNAME":"新營區","LI":"忠政里","LIN":"9鄰","STREET":"中正路","SECT":" ","MAREA":" ","LANE":"３９巷","ALLEY":" ","HOUSE_NO":"４４號","E_COORD97":179920.29999999999,"N_COORD97":2579257.5,"ADDRESS":"中正路３９巷４４號","OBJECTID":384734},"geometry":{"x":179920.30000000075,"y":2579257.5000000019}},{"attributes":{"ID":384745,"DIS_CODE":0,"TOWNNAME":"永康區","LI":"復華里","LIN":" ","STREET":"復華六街","SECT":" ","MAREA":" ","LANE":"３２巷","ALLEY":" ","HOUSE_NO":"５９號","E_COORD97":172706.20000000001,"N_COORD97":2545875.52,"ADDRESS":"復華六街３２巷５９號","OBJECTID":384735},"geometry":{"x":172706.20000000205,"y":2545875.5200000014}},{"attributes":{"ID":384746,"DIS_CODE":0,"TOWNNAME":"永康區","LI":"復興里","LIN":" ","STREET":"復興路","SECT":" ","MAREA":" ","LANE":"４２９巷","ALLEY":" ","HOUSE_NO":"４２７之３號","E_COORD97":172141.35999999999,"N_COORD97":2543914.71,"ADDRESS":"復興路４２９巷４２７之３號","OBJECTID":384736},"geometry":{"x":172141.36000000127,"y":2543914.7100000009}},{"attributes":{"ID":384747,"DIS_CODE":0,"TOWNNAME":"永康區","LI":"\u25A0洲里","LIN":"5鄰","STREET":"仁愛街","SECT":" ","MAREA":" ","LANE":"１０３巷","ALLEY":" ","HOUSE_NO":"２２號","E_COORD97":171987.47,"N_COORD97":2549511.2799999998,"ADDRESS":"仁愛街１０３巷２２號","OBJECTID":384737},"geometry":{"x":171987.47000000067,"y":2549511.2800000012}},{"attributes":{"ID":384748,"DIS_CODE":0,"TOWNNAME":"永康區","LI":"\u25A0洲里","LIN":"24鄰","STREET":"正南二街","SECT":" ","MAREA":" ","LANE":"８６巷","ALLEY":" ","HOUSE_NO":"８號","E_COORD97":170782.97,"N_COORD97":2548458.2400000002,"ADDRESS":"正南二街８６巷８號","OBJECTID":384738},"geometry":{"x":170782.96999999974,"y":2548458.2400000021}},{"attributes":{"ID":384749,"DIS_CODE":0,"TOWNNAME":"永康區","LI":"正強里","LIN":"30鄰","STREET":"正強街","SECT":" ","MAREA":" ","LANE":"２１５巷","ALLEY":" ","HOUSE_NO":"３７號","E_COORD97":173169.01000000001,"N_COORD97":2547680.5,"ADDRESS":"正強街２１５巷３７號","OBJECTID":384739},"geometry":{"x":173169.00999999978,"y":2547680.5000000019}},{"attributes":{"ID":384750,"DIS_CODE":0,"TOWNNAME":"永康區","LI":"\u25A0洲里","LIN":"4鄰","STREET":"\u25A0行路","SECT":" ","MAREA":" ","LANE":"９８巷","ALLEY":" ","HOUSE_NO":"７號","E_COORD97":171556.75,"N_COORD97":2549305.5,"ADDRESS":"\u25A0行路９８巷７號","OBJECTID":384740},"geometry":{"x":171556.75000000093,"y":2549305.5}},{"attributes":{"ID":384751,"DIS_CODE":0,"TOWNNAME":"新化區","LI":"武安里","LIN":"9鄰","STREET":"大同街","SECT":" ","MAREA":" ","LANE":"４９巷","ALLEY":" ","HOUSE_NO":"６號","E_COORD97":178954.48000000001,"N_COORD97":2548190.25,"ADDRESS":"大同街４９巷６號","OBJECTID":384741},"geometry":{"x":178954.48000000045,"y":2548190.2500000019}},{"attributes":{"ID":384752,"DIS_CODE":0,"TOWNNAME":"南區","LI":"佛壇里","LIN":"9鄰","STREET":"明興路","SECT":" ","MAREA":" ","LANE":"１３９８巷","ALLEY":" ","HOUSE_NO":"８號","E_COORD97":166316.75,"N_COORD97":2535848.0299999998,"ADDRESS":"明興路１３９８巷８號","OBJECTID":384742},"geometry":{"x":166316.75000000093,"y":2535848.0299999993}},{"attributes":{"ID":384753,"DIS_CODE":0,"TOWNNAME":"永康區","LI":"\u25A0洲里","LIN":"5鄰","STREET":"仁愛街","SECT":" ","MAREA":" ","LANE":"１０３巷","ALLEY":" ","HOUSE_NO":"７２號","E_COORD97":171902.92999999999,"N_COORD97":2549555.0299999998,"ADDRESS":"仁愛街１０３巷７２號","OBJECTID":384743},"geometry":{"x":171902.93000000063,"y":2549555.0299999993}},{"attributes":{"ID":384754,"DIS_CODE":0,"TOWNNAME":"永康區","LI":"\u25A0洲里","LIN":"7鄰","STREET":"\u25A0洲二街","SECT":" ","MAREA":" ","LANE":"２２１巷","ALLEY":" ","HOUSE_NO":"４２號","E_COORD97":171768.20000000001,"N_COORD97":2549575.2000000002,"ADDRESS":"\u25A0洲二街２２１巷４２號","OBJECTID":384744},"geometry":{"x":171768.20000000019,"y":2549575.1999999993}},{"attributes":{"ID":384755,"DIS_CODE":0,"TOWNNAME":"永康區","LI":"\u25A0洲里","LIN":"1鄰","STREET":"仁愛街","SECT":" ","MAREA":" ","LANE":"５巷","ALLEY":" ","HOUSE_NO":"１０號","E_COORD97":171888.66,"N_COORD97":2549257.52,"ADDRESS":"仁愛街５巷１０號","OBJECTID":384745},"geometry":{"x":171888.66000000015,"y":2549257.5199999996}},{"attributes":{"ID":384756,"DIS_CODE":0,"TOWNNAME":"南區","LI":"廣州里","LIN":"9鄰","STREET":"健康路","SECT":"二段","MAREA":" ","LANE":"１１６巷","ALLEY":" ","HOUSE_NO":"３２號","E_COORD97":167415.92000000001,"N_COORD97":2542591.0499999998,"ADDRESS":"健康路二段１１６巷３２號","OBJECTID":384746},"geometry":{"x":167415.92000000086,"y":2542591.0500000026}},{"attributes":{"ID":384757,"DIS_CODE":0,"TOWNNAME":"南區","LI":"廣州里","LIN":"9鄰","STREET":"健康路","SECT":"二段","MAREA":" ","LANE":"１１６巷","ALLEY":" ","HOUSE_NO":"３４號","E_COORD97":167415.92000000001,"N_COORD97":2542598.21,"ADDRESS":"健康路二段１１６巷３４號","OBJECTID":384747},"geometry":{"x":167415.92000000086,"y":2542598.2100000009}},{"attributes":{"ID":384758,"DIS_CODE":0,"TOWNNAME":"南區","LI":"廣州里","LIN":"9鄰","STREET":"健康路","SECT":"二段","MAREA":" ","LANE":"１１６巷","ALLEY":" ","HOUSE_NO":"３８號","E_COORD97":167418.03,"N_COORD97":2542613.3900000001,"ADDRESS":"健康路二段１１６巷３８號","OBJECTID":384748},"geometry":{"x":167418.03000000026,"y":2542613.3900000025}},{"attributes":{"ID":384759,"DIS_CODE":0,"TOWNNAME":"南區","LI":"廣州里","LIN":"9鄰","STREET":"健康路","SECT":"二段","MAREA":" ","LANE":"１１６巷","ALLEY":" ","HOUSE_NO":"４２號","E_COORD97":167418.03,"N_COORD97":2542621.8300000001,"ADDRESS":"健康路二段１１６巷４２號","OBJECTID":384749},"geometry":{"x":167418.03000000026,"y":2542621.8300000038}},{"attributes":{"ID":384760,"DIS_CODE":0,"TOWNNAME":"南區","LI":"再興里","LIN":"9鄰","STREET":"仁慈街","SECT":" ","MAREA":" ","LANE":"７６巷","ALLEY":" ","HOUSE_NO":"５號","E_COORD97":167234.17000000001,"N_COORD97":2542189.8100000001,"ADDRESS":"仁慈街７６巷５號","OBJECTID":384750},"geometry":{"x":167234.17000000086,"y":2542189.8100000024}},{"attributes":{"ID":384761,"DIS_CODE":0,"TOWNNAME":"南區","LI":"明興里","LIN":"9鄰","STREET":"金華路","SECT":"一段","MAREA":" ","LANE":"１１６巷","ALLEY":" ","HOUSE_NO":"２之１號","E_COORD97":166942.37,"N_COORD97":2540535.3999999999,"ADDRESS":"金華路一段１１６巷２之１號","OBJECTID":384751},"geometry":{"x":166942.37000000011,"y":2540535.4000000004}},{"attributes":{"ID":384762,"DIS_CODE":0,"TOWNNAME":"歸仁區","LI":"大潭里","LIN":"9鄰","STREET":"長榮路","SECT":"一段","MAREA":" ","LANE":"３２０巷","ALLEY":" ","HOUSE_NO":"３６號","E_COORD97":175367.97,"N_COORD97":2534380.6000000001,"ADDRESS":"長榮路一段３２０巷３６號","OBJECTID":384752},"geometry":{"x":175367.96999999974,"y":2534380.5999999996}},{"attributes":{"ID":384763,"DIS_CODE":0,"TOWNNAME":"南區","LI":"興農里","LIN":"9鄰","STREET":"灣裡路","SECT":" ","MAREA":" ","LANE":"２６３巷","ALLEY":" ","HOUSE_NO":"１０１號","E_COORD97":166432.54999999999,"N_COORD97":2536332.5699999998,"ADDRESS":"灣裡路２６３巷１０１號","OBJECTID":384753},"geometry":{"x":166432.54999999981,"y":2536332.5700000022}},{"attributes":{"ID":384764,"DIS_CODE":0,"TOWNNAME":"南區","LI":"興農里","LIN":"9鄰","STREET":"灣裡路","SECT":" ","MAREA":" ","LANE":"２６３巷","ALLEY":" ","HOUSE_NO":"１０１號之１","E_COORD97":166441.72,"N_COORD97":2536334.9900000002,"ADDRESS":"灣裡路２６３巷１０１號之１","OBJECTID":384754},"geometry":{"x":166441.7200000016,"y":2536334.9899999984}},{"attributes":{"ID":384765,"DIS_CODE":0,"TOWNNAME":"南區","LI":"文華里","LIN":"9鄰","STREET":"金華路","SECT":"二段","MAREA":" ","LANE":"３８５巷","ALLEY":" ","HOUSE_NO":"２３號","E_COORD97":167024.82999999999,"N_COORD97":2543029.52,"ADDRESS":"金華路二段３８５巷２３號","OBJECTID":384755},"geometry":{"x":167024.83000000101,"y":2543029.5199999996}},{"attributes":{"ID":384766,"DIS_CODE":0,"TOWNNAME":"南區","LI":"文華里","LIN":"9鄰","STREET":"金華路","SECT":"二段","MAREA":" ","LANE":"３８５巷","ALLEY":" ","HOUSE_NO":"２５號","E_COORD97":167020.60999999999,"N_COORD97":2543029.52,"ADDRESS":"金華路二段３８５巷２５號","OBJECTID":384756},"geometry":{"x":167020.61000000034,"y":2543029.5199999996}},{"attributes":{"ID":384767,"DIS_CODE":0,"TOWNNAME":"南區","LI":"文華里","LIN":"9鄰","STREET":"金華路","SECT":"二段","MAREA":" ","LANE":"３８５巷","ALLEY":" ","HOUSE_NO":"２７號","E_COORD97":167016.39000000001,"N_COORD97":2543029.7000000002,"ADDRESS":"金華路二段３８５巷２７號","OBJECTID":384757},"geometry":{"x":167016.38999999966,"y":2543029.7000000011}},{"attributes":{"ID":384768,"DIS_CODE":0,"TOWNNAME":"南區","LI":"大林里","LIN":"9鄰","STREET":"大同路","SECT":"二段","MAREA":" ","LANE":"４８２巷","ALLEY":" ","HOUSE_NO":"１４４號","E_COORD97":169083.22,"N_COORD97":2541569.1800000002,"ADDRESS":"大同路二段４８２巷１４４號","OBJECTID":384758},"geometry":{"x":169083.22000000067,"y":2541569.1800000016}},{"attributes":{"ID":384769,"DIS_CODE":0,"TOWNNAME":"永康區","LI":"正強里","LIN":" ","STREET":"中正路","SECT":" ","MAREA":" ","LANE":"１２７巷","ALLEY":" ","HOUSE_NO":"５４號","E_COORD97":173400.57000000001,"N_COORD97":2547721.3999999999,"ADDRESS":"中正路１２７巷５４號","OBJECTID":384759},"geometry":{"x":173400.57000000123,"y":2547721.4000000022}},{"attributes":{"ID":384770,"DIS_CODE":0,"TOWNNAME":"永康區","LI":"二王里","LIN":" ","STREET":"忠孝路","SECT":" ","MAREA":" ","LANE":"４６１巷","ALLEY":" ","HOUSE_NO":"８號","E_COORD97":172432.07999999999,"N_COORD97":2546613.4100000001,"ADDRESS":"忠孝路４６１巷８號","OBJECTID":384760},"geometry":{"x":172432.07999999914,"y":2546613.410000002}},{"attributes":{"ID":384771,"DIS_CODE":0,"TOWNNAME":"永康區","LI":"安康里","LIN":" ","STREET":"中華西街","SECT":" ","MAREA":" ","LANE":"１２２巷","ALLEY":" ","HOUSE_NO":"８４號","E_COORD97":170896.07999999999,"N_COORD97":2546210.46,"ADDRESS":"中華西街１２２巷８４號","OBJECTID":384761},"geometry":{"x":170896.08000000007,"y":2546210.4600000028}},{"attributes":{"ID":384772,"DIS_CODE":0,"TOWNNAME":"永康區","LI":"西橋里","LIN":" ","STREET":"中華西街","SECT":" ","MAREA":" ","LANE":"１２７巷","ALLEY":" ","HOUSE_NO":"１２７號","E_COORD97":170671.48000000001,"N_COORD97":2546187.0899999999,"ADDRESS":"中華西街１２７巷１２７號","OBJECTID":384762},"geometry":{"x":170671.48000000045,"y":2546187.0900000017}},{"attributes":{"ID":384773,"DIS_CODE":0,"TOWNNAME":"永康區","LI":"\u25A0行里","LIN":"20鄰","STREET":"正南五街","SECT":" ","MAREA":" ","LANE":"２８９巷","ALLEY":" ","HOUSE_NO":"６７號","E_COORD97":171789.92000000001,"N_COORD97":2548355.8500000001,"ADDRESS":"正南五街２８９巷６７號","OBJECTID":384763},"geometry":{"x":171789.91999999993,"y":2548355.8500000015}},{"attributes":{"ID":384774,"DIS_CODE":0,"TOWNNAME":"永康區","LI":"\u25A0洲里","LIN":"5鄰","STREET":"仁愛街","SECT":" ","MAREA":" ","LANE":"１０３巷","ALLEY":" ","HOUSE_NO":"１１號","E_COORD97":171988.20000000001,"N_COORD97":2549487.52,"ADDRESS":"仁愛街１０３巷１１號","OBJECTID":384764},"geometry":{"x":171988.20000000019,"y":2549487.5199999996}},{"attributes":{"ID":384775,"DIS_CODE":0,"TOWNNAME":"永康區","LI":"\u25A0洲里","LIN":"6鄰","STREET":"\u25A0洲二街","SECT":" ","MAREA":" ","LANE":"２２１巷","ALLEY":" ","HOUSE_NO":"２號","E_COORD97":171839.98000000001,"N_COORD97":2549540.25,"ADDRESS":"\u25A0洲二街２２１巷２號","OBJECTID":384765},"geometry":{"x":171839.98000000231,"y":2549540.2500000019}},{"attributes":{"ID":384776,"DIS_CODE":0,"TOWNNAME":"南區","LI":"建南里","LIN":"9鄰","STREET":"中華南路","SECT":"二段","MAREA":" ","LANE":"１７７巷","ALLEY":" ","HOUSE_NO":"７６號","E_COORD97":167075.26999999999,"N_COORD97":2539995.8100000001,"ADDRESS":"中華南路二段１７７巷７６號","OBJECTID":384766},"geometry":{"x":167075.27000000142,"y":2539995.8100000024}},{"attributes":{"ID":384777,"DIS_CODE":0,"TOWNNAME":"南區","LI":"建南里","LIN":"9鄰","STREET":"中華南路","SECT":"二段","MAREA":" ","LANE":"１７７巷","ALLEY":" ","HOUSE_NO":"７８號","E_COORD97":167075.26999999999,"N_COORD97":2539991.7799999998,"ADDRESS":"中華南路二段１７７巷７８號","OBJECTID":384767},"geometry":{"x":167075.27000000142,"y":2539991.7800000012}},{"attributes":{"ID":384778,"DIS_CODE":0,"TOWNNAME":"南區","LI":"建南里","LIN":"9鄰","STREET":"中華南路","SECT":"二段","MAREA":" ","LANE":"１７７巷","ALLEY":" ","HOUSE_NO":"８０號","E_COORD97":167075.10999999999,"N_COORD97":2539987.2799999998,"ADDRESS":"中華南路二段１７７巷８０號","OBJECTID":384768},"geometry":{"x":167075.11000000034,"y":2539987.2800000031}},{"attributes":{"ID":384779,"DIS_CODE":0,"TOWNNAME":"南區","LI":"日新里","LIN":"9鄰","STREET":"利南街","SECT":" ","MAREA":" ","LANE":"１４８巷","ALLEY":" ","HOUSE_NO":"６號","E_COORD97":166877.76999999999,"N_COORD97":2541540.3799999999,"ADDRESS":"利南街１４８巷６號","OBJECTID":384769},"geometry":{"x":166877.76999999955,"y":2541540.3800000008}},{"attributes":{"ID":384780,"DIS_CODE":0,"TOWNNAME":"南區","LI":"喜北里","LIN":"9鄰","STREET":"喜樹路","SECT":" ","MAREA":" ","LANE":"１３４巷","ALLEY":" ","HOUSE_NO":"２６號","E_COORD97":165795.10999999999,"N_COORD97":2538314.2599999998,"ADDRESS":"喜樹路１３４巷２６號","OBJECTID":384770},"geometry":{"x":165795.11000000034,"y":2538314.2600000016}},{"attributes":{"ID":384781,"DIS_CODE":0,"TOWNNAME":"南區","LI":"喜北里","LIN":"9鄰","STREET":"喜樹路","SECT":" ","MAREA":" ","LANE":"１３４巷","ALLEY":" ","HOUSE_NO":"２８號","E_COORD97":165789.69,"N_COORD97":2538313.9300000002,"ADDRESS":"喜樹路１３４巷２８號","OBJECTID":384771},"geometry":{"x":165789.69000000041,"y":2538313.9299999997}},{"attributes":{"ID":384782,"DIS_CODE":0,"TOWNNAME":"南區","LI":"喜北里","LIN":"9鄰","STREET":"喜樹路","SECT":" ","MAREA":" ","LANE":"１３４巷","ALLEY":" ","HOUSE_NO":"３０號","E_COORD97":165784.32999999999,"N_COORD97":2538314.1899999999,"ADDRESS":"喜樹路１３４巷３０號","OBJECTID":384772},"geometry":{"x":165784.33000000101,"y":2538314.1900000013}},{"attributes":{"ID":384783,"DIS_CODE":0,"TOWNNAME":"安平區","LI":"平通里","LIN":"9鄰","STREET":"平通路","SECT":" ","MAREA":" ","LANE":"５８０巷","ALLEY":" ","HOUSE_NO":"１０２號","E_COORD97":164977.70999999999,"N_COORD97":2544130.1099999999,"ADDRESS":"平通路５８０巷１０２號","OBJECTID":384773},"geometry":{"x":164977.71000000089,"y":2544130.1099999994}},{"attributes":{"ID":384784,"DIS_CODE":0,"TOWNNAME":"安平區","LI":"國平里","LIN":"9鄰","STREET":"建平一街","SECT":" ","MAREA":" ","LANE":"２２４巷","ALLEY":" ","HOUSE_NO":"６號","E_COORD97":165456.01999999999,"N_COORD97":2542829.5499999998,"ADDRESS":"建平一街２２４巷６號","OBJECTID":384774},"geometry":{"x":165456.01999999955,"y":2542829.5500000026}},{"attributes":{"ID":384785,"DIS_CODE":0,"TOWNNAME":"安平區","LI":"國平里","LIN":"9鄰","STREET":"建平一街","SECT":" ","MAREA":" ","LANE":"２２４巷","ALLEY":" ","HOUSE_NO":"２２號","E_COORD97":165464.59,"N_COORD97":2542897.3300000001,"ADDRESS":"建平一街２２４巷２２號","OBJECTID":384775},"geometry":{"x":165464.59000000171,"y":2542897.3300000019}},{"attributes":{"ID":384786,"DIS_CODE":0,"TOWNNAME":"安平區","LI":"國平里","LIN":"9鄰","STREET":"建平一街","SECT":" ","MAREA":" ","LANE":"２２４巷","ALLEY":" ","HOUSE_NO":"２０號","E_COORD97":165461.89000000001,"N_COORD97":2542882.4100000001,"ADDRESS":"建平一街２２４巷２０號","OBJECTID":384776},"geometry":{"x":165461.88999999966,"y":2542882.4100000039}},{"attributes":{"ID":384787,"DIS_CODE":0,"TOWNNAME":"安平區","LI":"國平里","LIN":"9鄰","STREET":"建平一街","SECT":" ","MAREA":" ","LANE":"２２４巷","ALLEY":" ","HOUSE_NO":"１８號","E_COORD97":165461.57999999999,"N_COORD97":2542873.6800000002,"ADDRESS":"建平一街２２４巷１８號","OBJECTID":384777},"geometry":{"x":165461.58000000194,"y":2542873.6800000016}},{"attributes":{"ID":384788,"DIS_CODE":0,"TOWNNAME":"安平區","LI":"國平里","LIN":"9鄰","STREET":"建平一街","SECT":" ","MAREA":" ","LANE":"２２４巷","ALLEY":" ","HOUSE_NO":"１８之１號","E_COORD97":165461.89000000001,"N_COORD97":2542877.9700000002,"ADDRESS":"建平一街２２４巷１８之１號","OBJECTID":384778},"geometry":{"x":165461.88999999966,"y":2542877.9700000007}},{"attributes":{"ID":384789,"DIS_CODE":0,"TOWNNAME":"安平區","LI":"國平里","LIN":"9鄰","STREET":"建平一街","SECT":" ","MAREA":" ","LANE":"２２４巷","ALLEY":" ","HOUSE_NO":"１６之１號","E_COORD97":165460.78,"N_COORD97":2542869.8700000001,"ADDRESS":"建平一街２２４巷１６之１號","OBJECTID":384779},"geometry":{"x":165460.78000000119,"y":2542869.8699999992}},{"attributes":{"ID":384790,"DIS_CODE":0,"TOWNNAME":"安平區","LI":"國平里","LIN":"9鄰","STREET":"建平一街","SECT":" ","MAREA":" ","LANE":"２２４巷","ALLEY":" ","HOUSE_NO":"１６號","E_COORD97":165460.31,"N_COORD97":2542865.27,"ADDRESS":"建平一街２２４巷１６號","OBJECTID":384780},"geometry":{"x":165460.31000000052,"y":2542865.2699999996}},{"attributes":{"ID":384791,"DIS_CODE":0,"TOWNNAME":"安平區","LI":"國平里","LIN":"9鄰","STREET":"建平一街","SECT":" ","MAREA":" ","LANE":"２２４巷","ALLEY":" ","HOUSE_NO":"１２號","E_COORD97":165459.98999999999,"N_COORD97":2542856.6899999999,"ADDRESS":"建平一街２２４巷１２號","OBJECTID":384781},"geometry":{"x":165459.99000000022,"y":2542856.6900000013}},{"attributes":{"ID":384792,"DIS_CODE":0,"TOWNNAME":"安平區","LI":"國平里","LIN":"9鄰","STREET":"建平一街","SECT":" ","MAREA":" ","LANE":"２２４巷","ALLEY":" ","HOUSE_NO":"２０之１號","E_COORD97":165462.85000000001,"N_COORD97":2542887.4900000002,"ADDRESS":"建平一街２２４巷２０之１號","OBJECTID":384782},"geometry":{"x":165462.85000000056,"y":2542887.4900000002}},{"attributes":{"ID":384793,"DIS_CODE":0,"TOWNNAME":"安平區","LI":"國平里","LIN":"9鄰","STREET":"建平一街","SECT":" ","MAREA":" ","LANE":"２２４巷","ALLEY":" ","HOUSE_NO":"２０之２號","E_COORD97":165463.79999999999,"N_COORD97":2542892.4100000001,"ADDRESS":"建平一街２２４巷２０之２號","OBJECTID":384783},"geometry":{"x":165463.80000000075,"y":2542892.4099999983}},{"attributes":{"ID":384794,"DIS_CODE":0,"TOWNNAME":"安平區","LI":"國平里","LIN":"9鄰","STREET":"建平一街","SECT":" ","MAREA":" ","LANE":"２２４巷","ALLEY":" ","HOUSE_NO":"１２之１號","E_COORD97":165460.78,"N_COORD97":2542860.98,"ADDRESS":"建平一街２２４巷１２之１號","OBJECTID":384784},"geometry":{"x":165460.78000000119,"y":2542860.9800000004}},{"attributes":{"ID":384795,"DIS_CODE":0,"TOWNNAME":"安平區","LI":"國平里","LIN":"9鄰","STREET":"建平一街","SECT":" ","MAREA":" ","LANE":"２２４巷","ALLEY":" ","HOUSE_NO":"１０之１號","E_COORD97":165458.88,"N_COORD97":2542852.73,"ADDRESS":"建平一街２２４巷１０之１號","OBJECTID":384785},"geometry":{"x":165458.87999999989,"y":2542852.7300000004}},{"attributes":{"ID":384796,"DIS_CODE":0,"TOWNNAME":"安平區","LI":"國平里","LIN":"9鄰","STREET":"建平一街","SECT":" ","MAREA":" ","LANE":"２２４巷","ALLEY":" ","HOUSE_NO":"１０號","E_COORD97":165458.23999999999,"N_COORD97":2542847.6499999999,"ADDRESS":"建平一街２２４巷１０號","OBJECTID":384786},"geometry":{"x":165458.24000000022,"y":2542847.6500000022}},{"attributes":{"ID":384797,"DIS_CODE":0,"TOWNNAME":"永康區","LI":"\u25A0洲里","LIN":"5鄰","STREET":"仁愛街","SECT":" ","MAREA":" ","LANE":"１０３巷","ALLEY":" ","HOUSE_NO":"６７號","E_COORD97":171816.98999999999,"N_COORD97":2549583.77,"ADDRESS":"仁愛街１０３巷６７號","OBJECTID":384787},"geometry":{"x":171816.99000000022,"y":2549583.7700000014}},{"attributes":{"ID":384798,"DIS_CODE":0,"TOWNNAME":"永康區","LI":"正強里","LIN":"30鄰","STREET":"正強街","SECT":" ","MAREA":" ","LANE":"２１５巷","ALLEY":" ","HOUSE_NO":"３９號","E_COORD97":173164.19,"N_COORD97":2547679.75,"ADDRESS":"正強街２１５巷３９號","OBJECTID":384788},"geometry":{"x":173164.19000000227,"y":2547679.75}},{"attributes":{"ID":384799,"DIS_CODE":0,"TOWNNAME":"安平區","LI":"國平里","LIN":"9鄰","STREET":"建平一街","SECT":" ","MAREA":" ","LANE":"２２４巷","ALLEY":" ","HOUSE_NO":"２２之１號","E_COORD97":165465.39000000001,"N_COORD97":2542901.9399999999,"ADDRESS":"建平一街２２４巷２２之１號","OBJECTID":384789},"geometry":{"x":165465.38999999966,"y":2542901.9400000032}},{"attributes":{"ID":384800,"DIS_CODE":0,"TOWNNAME":"安平區","LI":"國平里","LIN":"9鄰","STREET":"建平一街","SECT":" ","MAREA":" ","LANE":"２２４巷","ALLEY":" ","HOUSE_NO":"６之１號","E_COORD97":165456.64999999999,"N_COORD97":2542833.9900000002,"ADDRESS":"建平一街２２４巷６之１號","OBJECTID":384790},"geometry":{"x":165456.6500000013,"y":2542833.9900000002}},{"attributes":{"ID":384801,"DIS_CODE":0,"TOWNNAME":"安平區","LI":"國平里","LIN":"9鄰","STREET":"建平一街","SECT":" ","MAREA":" ","LANE":"２２４巷","ALLEY":" ","HOUSE_NO":"８號","E_COORD97":165457.45000000001,"N_COORD97":2542838.6000000001,"ADDRESS":"建平一街２２４巷８號","OBJECTID":384791},"geometry":{"x":165457.45000000205,"y":2542838.5999999996}},{"attributes":{"ID":384802,"DIS_CODE":0,"TOWNNAME":"安平區","LI":"國平里","LIN":"9鄰","STREET":"建平一街","SECT":" ","MAREA":" ","LANE":"２２４巷","ALLEY":" ","HOUSE_NO":"８之１號","E_COORD97":165457.45000000001,"N_COORD97":2542843.6800000002,"ADDRESS":"建平一街２２４巷８之１號","OBJECTID":384792},"geometry":{"x":165457.45000000205,"y":2542843.6800000016}},{"attributes":{"ID":384803,"DIS_CODE":0,"TOWNNAME":"安平區","LI":"文平里","LIN":"9鄰","STREET":"建平七街","SECT":" ","MAREA":" ","LANE":"１８２巷","ALLEY":" ","HOUSE_NO":"３２之１號","E_COORD97":166072.293963,"N_COORD97":2543322.7720499998,"ADDRESS":"建平七街１８２巷３２之１號","OBJECTID":384793},"geometry":{"x":166072.29396300111,"y":2543322.7720460016}},{"attributes":{"ID":384804,"DIS_CODE":0,"TOWNNAME":"安平區","LI":"文平里","LIN":"9鄰","STREET":"建平七街","SECT":" ","MAREA":" ","LANE":"１８２巷","ALLEY":" ","HOUSE_NO":"２３號","E_COORD97":166091.92000000001,"N_COORD97":2543291.0800000001,"ADDRESS":"建平七街１８２巷２３號","OBJECTID":384794},"geometry":{"x":166091.92000000086,"y":2543291.0800000001}},{"attributes":{"ID":384805,"DIS_CODE":0,"TOWNNAME":"安平區","LI":"文平里","LIN":"9鄰","STREET":"建平七街","SECT":" ","MAREA":" ","LANE":"１８２巷","ALLEY":" ","HOUSE_NO":"４７號","E_COORD97":166039.35000000001,"N_COORD97":2543307.4500000002,"ADDRESS":"建平七街１８２巷４７號","OBJECTID":384795},"geometry":{"x":166039.35000000056,"y":2543307.4499999993}},{"attributes":{"ID":384806,"DIS_CODE":0,"TOWNNAME":"安平區","LI":"文平里","LIN":"9鄰","STREET":"建平七街","SECT":" ","MAREA":" ","LANE":"１８２巷","ALLEY":" ","HOUSE_NO":"３５號","E_COORD97":166062.57000000001,"N_COORD97":2543295.3700000001,"ADDRESS":"建平七街１８２巷３５號","OBJECTID":384796},"geometry":{"x":166062.57000000123,"y":2543295.3700000029}},{"attributes":{"ID":384807,"DIS_CODE":0,"TOWNNAME":"南區","LI":"國宅里","LIN":"9鄰","STREET":"金華路","SECT":"二段","MAREA":" ","LANE":"２７巷","ALLEY":" ","HOUSE_NO":"４２之１號","E_COORD97":166895.10000000001,"N_COORD97":2541955.6400000001,"ADDRESS":"金華路二段２７巷４２之１號","OBJECTID":384797},"geometry":{"x":166895.10000000149,"y":2541955.6399999987}},{"attributes":{"ID":384808,"DIS_CODE":0,"TOWNNAME":"南區","LI":"大成里","LIN":"9鄰","STREET":"西門路","SECT":"一段","MAREA":" ","LANE":"３５２巷","ALLEY":" ","HOUSE_NO":"１０號","E_COORD97":167775.42000000001,"N_COORD97":2542310.5899999999,"ADDRESS":"西門路一段３５２巷１０號","OBJECTID":384798},"geometry":{"x":167775.42000000086,"y":2542310.5899999999}},{"attributes":{"ID":384809,"DIS_CODE":0,"TOWNNAME":"南區","LI":"大成里","LIN":"9鄰","STREET":"西門路","SECT":"一段","MAREA":" ","LANE":"３５２巷","ALLEY":" ","HOUSE_NO":"１２號","E_COORD97":167779.85000000001,"N_COORD97":2542310.77,"ADDRESS":"西門路一段３５２巷１２號","OBJECTID":384799},"geometry":{"x":167779.8499999987,"y":2542310.7700000014}},{"attributes":{"ID":384810,"DIS_CODE":0,"TOWNNAME":"南區","LI":"大成里","LIN":"9鄰","STREET":"西門路","SECT":"一段","MAREA":" ","LANE":"３５２巷","ALLEY":" ","HOUSE_NO":"１６號","E_COORD97":167790.92999999999,"N_COORD97":2542310.2200000002,"ADDRESS":"西門路一段３５２巷１６號","OBJECTID":384800},"geometry":{"x":167790.9299999997,"y":2542310.2200000007}}]}