{"displayFieldName":"TOWNNAME","fieldAliases":{"ID":"ID","DIS_CODE":"DIS_CODE","TOWNNAME":"TOWNNAME","LI":"LI","LIN":"LIN","STREET":"STREET","SECT":"SECT","MAREA":"MAREA","LANE":"LANE","ALLEY":"ALLEY","HOUSE_NO":"HOUSE_NO","E_COORD97":"E_COORD97","N_COORD97":"N_COORD97","ADDRESS":"ADDRESS","OBJECTID":"OBJECTID"},"geometryType":"esriGeometryPoint","spatialReference":{"wkid":102443,"latestWkid":3826},"fields":[{"name":"ID","type":"esriFieldTypeDouble","alias":"ID"},{"name":"DIS_CODE","type":"esriFieldTypeInteger","alias":"DIS_CODE"},{"name":"TOWNNAME","type":"esriFieldTypeString","alias":"TOWNNAME","length":8},{"name":"LI","type":"esriFieldTypeString","alias":"LI","length":8},{"name":"LIN","type":"esriFieldTypeString","alias":"LIN","length":12},{"name":"STREET","type":"esriFieldTypeString","alias":"STREET","length":20},{"name":"SECT","type":"esriFieldTypeString","alias":"SECT","length":8},{"name":"MAREA","type":"esriFieldTypeString","alias":"MAREA","length":12},{"name":"LANE","type":"esriFieldTypeString","alias":"LANE","length":10},{"name":"ALLEY","type":"esriFieldTypeString","alias":"ALLEY","length":10},{"name":"HOUSE_NO","type":"esriFieldTypeString","alias":"HOUSE_NO","length":20},{"name":"E_COORD97","type":"esriFieldTypeDouble","alias":"E_COORD97"},{"name":"N_COORD97","type":"esriFieldTypeDouble","alias":"N_COORD97"},{"name":"ADDRESS","type":"esriFieldTypeString","alias":"ADDRESS","length":50},{"name":"OBJECTID","type":"esriFieldTypeOID","alias":"OBJECTID"}],"features":[{"attributes":{"ID":553228,"DIS_CODE":0,"TOWNNAME":"新營區","LI":"永生里","LIN":"21鄰","STREET":"延平路","SECT":" ","MAREA":" ","LANE":" ","ALLEY":" ","HOUSE_NO":"４１號","E_COORD97":179800.04000000001,"N_COORD97":2577836.1000000001,"ADDRESS":"延平路４１號","OBJECTID":553201},"geometry":{"x":179800.04000000097,"y":2577836.1000000015}},{"attributes":{"ID":553229,"DIS_CODE":0,"TOWNNAME":"安平區","LI":"建平里","LIN":"21鄰","STREET":"永華三街","SECT":" ","MAREA":" ","LANE":" ","ALLEY":" ","HOUSE_NO":"８９號","E_COORD97":166094.67999999999,"N_COORD97":2543684.0499999998,"ADDRESS":"永華三街８９號","OBJECTID":553202},"geometry":{"x":166094.68000000063,"y":2543684.0500000007}},{"attributes":{"ID":553230,"DIS_CODE":0,"TOWNNAME":"安平區","LI":"建平里","LIN":"21鄰","STREET":"平通路","SECT":" ","MAREA":" ","LANE":" ","ALLEY":" ","HOUSE_NO":"７２之１號","E_COORD97":166060.64000000001,"N_COORD97":2543680.1800000002,"ADDRESS":"平通路７２之１號","OBJECTID":553203},"geometry":{"x":166060.63999999966,"y":2543680.1800000034}},{"attributes":{"ID":553231,"DIS_CODE":0,"TOWNNAME":"安平區","LI":"建平里","LIN":"21鄰","STREET":"平通路","SECT":" ","MAREA":" ","LANE":" ","ALLEY":" ","HOUSE_NO":"７６號","E_COORD97":166057.16,"N_COORD97":2543681,"ADDRESS":"平通路７６號","OBJECTID":553204},"geometry":{"x":166057.16000000015,"y":2543681}},{"attributes":{"ID":553232,"DIS_CODE":0,"TOWNNAME":"安平區","LI":"建平里","LIN":"21鄰","STREET":"平通路","SECT":" ","MAREA":" ","LANE":" ","ALLEY":" ","HOUSE_NO":"８０號","E_COORD97":166047.35999999999,"N_COORD97":2543682.0299999998,"ADDRESS":"平通路８０號","OBJECTID":553205},"geometry":{"x":166047.36000000034,"y":2543682.0300000012}},{"attributes":{"ID":553233,"DIS_CODE":0,"TOWNNAME":"安平區","LI":"建平里","LIN":"21鄰","STREET":"平通路","SECT":" ","MAREA":" ","LANE":" ","ALLEY":" ","HOUSE_NO":"８２號","E_COORD97":166043.5,"N_COORD97":2543682.9399999999,"ADDRESS":"平通路８２號","OBJECTID":553206},"geometry":{"x":166043.50000000186,"y":2543682.9400000013}},{"attributes":{"ID":553234,"DIS_CODE":0,"TOWNNAME":"安平區","LI":"建平里","LIN":"21鄰","STREET":"平通路","SECT":" ","MAREA":" ","LANE":" ","ALLEY":" ","HOUSE_NO":"９０號","E_COORD97":166010.66,"N_COORD97":2543694.7599999998,"ADDRESS":"平通路９０號","OBJECTID":553207},"geometry":{"x":166010.66000000108,"y":2543694.7600000016}},{"attributes":{"ID":553235,"DIS_CODE":0,"TOWNNAME":"安平區","LI":"建平里","LIN":"21鄰","STREET":"怡平路","SECT":" ","MAREA":" ","LANE":" ","ALLEY":" ","HOUSE_NO":"１０７號","E_COORD97":165939.88,"N_COORD97":2543731.23,"ADDRESS":"怡平路１０７號","OBJECTID":553208},"geometry":{"x":165939.88000000082,"y":2543731.2300000004}},{"attributes":{"ID":553236,"DIS_CODE":0,"TOWNNAME":"安平區","LI":"建平里","LIN":"21鄰","STREET":"怡平路","SECT":" ","MAREA":" ","LANE":" ","ALLEY":" ","HOUSE_NO":"１５號","E_COORD97":166190.14999999999,"N_COORD97":2543688.0800000001,"ADDRESS":"怡平路１５號","OBJECTID":553209},"geometry":{"x":166190.15000000037,"y":2543688.0800000038}},{"attributes":{"ID":553237,"DIS_CODE":0,"TOWNNAME":"安平區","LI":"建平里","LIN":"21鄰","STREET":"怡平路","SECT":" ","MAREA":" ","LANE":" ","ALLEY":" ","HOUSE_NO":"２３號","E_COORD97":166177.87,"N_COORD97":2543703.2999999998,"ADDRESS":"怡平路２３號","OBJECTID":553210},"geometry":{"x":166177.87000000011,"y":2543703.3000000007}},{"attributes":{"ID":553238,"DIS_CODE":0,"TOWNNAME":"安平區","LI":"建平里","LIN":"21鄰","STREET":"怡平路","SECT":" ","MAREA":" ","LANE":" ","ALLEY":" ","HOUSE_NO":"２５號","E_COORD97":166173.79999999999,"N_COORD97":2543704.3100000001,"ADDRESS":"怡平路２５號","OBJECTID":553211},"geometry":{"x":166173.80000000075,"y":2543704.3100000024}},{"attributes":{"ID":553239,"DIS_CODE":0,"TOWNNAME":"安平區","LI":"建平里","LIN":"21鄰","STREET":"怡平路","SECT":" ","MAREA":" ","LANE":" ","ALLEY":" ","HOUSE_NO":"２７號","E_COORD97":166169.39999999999,"N_COORD97":2543704.9900000002,"ADDRESS":"怡平路２７號","OBJECTID":553212},"geometry":{"x":166169.40000000037,"y":2543704.9900000002}},{"attributes":{"ID":553240,"DIS_CODE":0,"TOWNNAME":"安平區","LI":"建平里","LIN":"21鄰","STREET":"怡平路","SECT":" ","MAREA":" ","LANE":" ","ALLEY":" ","HOUSE_NO":"２９號","E_COORD97":166165.51000000001,"N_COORD97":2543706,"ADDRESS":"怡平路２９號","OBJECTID":553213},"geometry":{"x":166165.51000000071,"y":2543706.0000000019}},{"attributes":{"ID":553241,"DIS_CODE":0,"TOWNNAME":"安平區","LI":"文平里","LIN":"21鄰","STREET":"文平路","SECT":" ","MAREA":" ","LANE":" ","ALLEY":" ","HOUSE_NO":"２０號","E_COORD97":165688.41,"N_COORD97":2542733.7999999998,"ADDRESS":"文平路２０號","OBJECTID":553214},"geometry":{"x":165688.41000000108,"y":2542733.8000000007}},{"attributes":{"ID":553242,"DIS_CODE":0,"TOWNNAME":"安平區","LI":"文平里","LIN":"21鄰","STREET":"文平路","SECT":" ","MAREA":" ","LANE":" ","ALLEY":" ","HOUSE_NO":"１８號","E_COORD97":165686.66,"N_COORD97":2542723.96,"ADDRESS":"文平路１８號","OBJECTID":553215},"geometry":{"x":165686.66000000201,"y":2542723.9600000028}},{"attributes":{"ID":553243,"DIS_CODE":0,"TOWNNAME":"安平區","LI":"文平里","LIN":"21鄰","STREET":"文平路","SECT":" ","MAREA":" ","LANE":" ","ALLEY":" ","HOUSE_NO":"２２號","E_COORD97":165689.35999999999,"N_COORD97":2542738.5600000001,"ADDRESS":"文平路２２號","OBJECTID":553216},"geometry":{"x":165689.36000000127,"y":2542738.5600000005}},{"attributes":{"ID":553244,"DIS_CODE":0,"TOWNNAME":"安平區","LI":"國平里","LIN":"21鄰","STREET":"育平五街","SECT":" ","MAREA":" ","LANE":" ","ALLEY":" ","HOUSE_NO":"１９號之１地下層","E_COORD97":164870.69,"N_COORD97":2543473.4900000002,"ADDRESS":"育平五街１９號之１地下層","OBJECTID":553217},"geometry":{"x":164870.69000000041,"y":2543473.4900000021}},{"attributes":{"ID":553245,"DIS_CODE":0,"TOWNNAME":"安平區","LI":"文平里","LIN":"21鄰","STREET":"建平一街","SECT":" ","MAREA":" ","LANE":" ","ALLEY":" ","HOUSE_NO":"２５號","E_COORD97":166016.19,"N_COORD97":2542721.2799999998,"ADDRESS":"建平一街２５號","OBJECTID":553218},"geometry":{"x":166016.19000000134,"y":2542721.2800000012}},{"attributes":{"ID":553246,"DIS_CODE":0,"TOWNNAME":"安平區","LI":"文平里","LIN":"21鄰","STREET":"建平一街","SECT":" ","MAREA":" ","LANE":" ","ALLEY":" ","HOUSE_NO":"２７號","E_COORD97":166011.29000000001,"N_COORD97":2542722.0800000001,"ADDRESS":"建平一街２７號","OBJECTID":553219},"geometry":{"x":166011.29000000097,"y":2542722.0800000038}},{"attributes":{"ID":553247,"DIS_CODE":0,"TOWNNAME":"北區","LI":"六甲里","LIN":"21鄰","STREET":"公園路","SECT":" ","MAREA":" ","LANE":" ","ALLEY":" ","HOUSE_NO":"５９１號之３３","E_COORD97":169163.17000000001,"N_COORD97":2545902.1099999999,"ADDRESS":"公園路５９１號之３３","OBJECTID":553220},"geometry":{"x":169163.17000000179,"y":2545902.1100000013}},{"attributes":{"ID":553248,"DIS_CODE":0,"TOWNNAME":"北區","LI":"六甲里","LIN":"21鄰","STREET":"公園路","SECT":" ","MAREA":" ","LANE":" ","ALLEY":" ","HOUSE_NO":"５９１號之３４","E_COORD97":169164.29999999999,"N_COORD97":2545905.77,"ADDRESS":"公園路５９１號之３４","OBJECTID":553221},"geometry":{"x":169164.30000000075,"y":2545905.7699999996}},{"attributes":{"ID":553249,"DIS_CODE":0,"TOWNNAME":"北區","LI":"六甲里","LIN":"21鄰","STREET":"公園路","SECT":" ","MAREA":" ","LANE":" ","ALLEY":" ","HOUSE_NO":"５９１號之３５","E_COORD97":169166,"N_COORD97":2545909.1600000001,"ADDRESS":"公園路５９１號之３５","OBJECTID":553222},"geometry":{"x":169166.00000000186,"y":2545909.160000002}},{"attributes":{"ID":553250,"DIS_CODE":0,"TOWNNAME":"北區","LI":"六甲里","LIN":"21鄰","STREET":"公園路","SECT":" ","MAREA":" ","LANE":" ","ALLEY":" ","HOUSE_NO":"５９１號之３６","E_COORD97":169167.85999999999,"N_COORD97":2545913.1400000001,"ADDRESS":"公園路５９１號之３６","OBJECTID":553223},"geometry":{"x":169167.86000000127,"y":2545913.1400000025}},{"attributes":{"ID":553251,"DIS_CODE":0,"TOWNNAME":"北區","LI":"六甲里","LIN":"21鄰","STREET":"公園路","SECT":" ","MAREA":" ","LANE":" ","ALLEY":" ","HOUSE_NO":"５９１號之３７","E_COORD97":169169.54999999999,"N_COORD97":2545917.2200000002,"ADDRESS":"公園路５９１號之３７","OBJECTID":553224},"geometry":{"x":169169.55000000075,"y":2545917.2200000007}},{"attributes":{"ID":553252,"DIS_CODE":0,"TOWNNAME":"北區","LI":"六甲里","LIN":"21鄰","STREET":"公園路","SECT":" ","MAREA":" ","LANE":" ","ALLEY":" ","HOUSE_NO":"５９１號之３８","E_COORD97":169171.67000000001,"N_COORD97":2545921.6000000001,"ADDRESS":"公園路５９１號之３８","OBJECTID":553225},"geometry":{"x":169171.67000000179,"y":2545921.5999999978}},{"attributes":{"ID":553253,"DIS_CODE":0,"TOWNNAME":"北區","LI":"六甲里","LIN":"21鄰","STREET":"公園路","SECT":" ","MAREA":" ","LANE":" ","ALLEY":" ","HOUSE_NO":"５９１號之３９","E_COORD97":169180.29000000001,"N_COORD97":2545936.4300000002,"ADDRESS":"公園路５９１號之３９","OBJECTID":553226},"geometry":{"x":169180.29000000004,"y":2545936.4299999978}},{"attributes":{"ID":553254,"DIS_CODE":0,"TOWNNAME":"北區","LI":"六甲里","LIN":"21鄰","STREET":"公園路","SECT":" ","MAREA":" ","LANE":" ","ALLEY":" ","HOUSE_NO":"５９１號之４","E_COORD97":169115.01999999999,"N_COORD97":2545894.2000000002,"ADDRESS":"公園路５９１號之４","OBJECTID":553227},"geometry":{"x":169115.02000000048,"y":2545894.2000000011}},{"attributes":{"ID":553255,"DIS_CODE":0,"TOWNNAME":"北區","LI":"六甲里","LIN":"21鄰","STREET":"公園路","SECT":" ","MAREA":" ","LANE":" ","ALLEY":" ","HOUSE_NO":"５９１號之４０","E_COORD97":169183.01000000001,"N_COORD97":2545940.1800000002,"ADDRESS":"公園路５９１號之４０","OBJECTID":553228},"geometry":{"x":169183.01000000071,"y":2545940.1799999997}},{"attributes":{"ID":553256,"DIS_CODE":0,"TOWNNAME":"北區","LI":"六甲里","LIN":"21鄰","STREET":"公園路","SECT":" ","MAREA":" ","LANE":" ","ALLEY":" ","HOUSE_NO":"５９１號之４１","E_COORD97":169185.10000000001,"N_COORD97":2545943.3100000001,"ADDRESS":"公園路５９１號之４１","OBJECTID":553229},"geometry":{"x":169185.09999999963,"y":2545943.3100000024}},{"attributes":{"ID":553257,"DIS_CODE":0,"TOWNNAME":"北區","LI":"六甲里","LIN":"21鄰","STREET":"公園路","SECT":" ","MAREA":" ","LANE":" ","ALLEY":" ","HOUSE_NO":"５９１號之４２","E_COORD97":169187.60999999999,"N_COORD97":2545946.8599999999,"ADDRESS":"公園路５９１號之４２","OBJECTID":553230},"geometry":{"x":169187.6100000022,"y":2545946.8600000031}},{"attributes":{"ID":553258,"DIS_CODE":0,"TOWNNAME":"北區","LI":"六甲里","LIN":"21鄰","STREET":"公園路","SECT":" ","MAREA":" ","LANE":" ","ALLEY":" ","HOUSE_NO":"５９１號之４３","E_COORD97":169190.12,"N_COORD97":2545951.0299999998,"ADDRESS":"公園路５９１號之４３","OBJECTID":553231},"geometry":{"x":169190.12000000011,"y":2545951.0299999993}},{"attributes":{"ID":553259,"DIS_CODE":0,"TOWNNAME":"北區","LI":"六甲里","LIN":"21鄰","STREET":"公園路","SECT":" ","MAREA":" ","LANE":" ","ALLEY":" ","HOUSE_NO":"５９１號之４４","E_COORD97":169192.42000000001,"N_COORD97":2545954.79,"ADDRESS":"公園路５９１號之４４","OBJECTID":553232},"geometry":{"x":169192.42000000086,"y":2545954.790000001}},{"attributes":{"ID":553260,"DIS_CODE":0,"TOWNNAME":"北區","LI":"六甲里","LIN":"21鄰","STREET":"公園路","SECT":" ","MAREA":" ","LANE":" ","ALLEY":" ","HOUSE_NO":"５９１號之４５","E_COORD97":169195.13,"N_COORD97":2545958.7599999998,"ADDRESS":"公園路５９１號之４５","OBJECTID":553233},"geometry":{"x":169195.12999999989,"y":2545958.7600000016}},{"attributes":{"ID":553261,"DIS_CODE":0,"TOWNNAME":"北區","LI":"六甲里","LIN":"21鄰","STREET":"公園路","SECT":" ","MAREA":" ","LANE":" ","ALLEY":" ","HOUSE_NO":"５９１號之４６","E_COORD97":169197.85000000001,"N_COORD97":2545961.8900000001,"ADDRESS":"公園路５９１號之４６","OBJECTID":553234},"geometry":{"x":169197.85000000056,"y":2545961.8900000025}},{"attributes":{"ID":553262,"DIS_CODE":0,"TOWNNAME":"北區","LI":"六甲里","LIN":"21鄰","STREET":"公園路","SECT":" ","MAREA":" ","LANE":" ","ALLEY":" ","HOUSE_NO":"５９１號之４６地下一","E_COORD97":169197.85000000001,"N_COORD97":2545961.8900000001,"ADDRESS":"公園路５９１號之４６地下一層之１","OBJECTID":553235},"geometry":{"x":169197.85000000056,"y":2545961.8900000025}},{"attributes":{"ID":553263,"DIS_CODE":0,"TOWNNAME":"北區","LI":"六甲里","LIN":"21鄰","STREET":"公園路","SECT":" ","MAREA":" ","LANE":" ","ALLEY":" ","HOUSE_NO":"５９１號之４６地下一","E_COORD97":169197.85000000001,"N_COORD97":2545961.8900000001,"ADDRESS":"公園路５９１號之４６地下一層之２","OBJECTID":553236},"geometry":{"x":169197.85000000056,"y":2545961.8900000025}},{"attributes":{"ID":553264,"DIS_CODE":0,"TOWNNAME":"北區","LI":"六甲里","LIN":"21鄰","STREET":"公園路","SECT":" ","MAREA":" ","LANE":" ","ALLEY":" ","HOUSE_NO":"５９１號之９","E_COORD97":169102.69,"N_COORD97":2545920.5,"ADDRESS":"公園路５９１號之９","OBJECTID":553237},"geometry":{"x":169102.69000000134,"y":2545920.5000000019}},{"attributes":{"ID":553265,"DIS_CODE":0,"TOWNNAME":"北區","LI":"成德里","LIN":"21鄰","STREET":"北成路","SECT":" ","MAREA":" ","LANE":" ","ALLEY":" ","HOUSE_NO":"２５９號","E_COORD97":168516.37,"N_COORD97":2546704.2599999998,"ADDRESS":"北成路２５９號","OBJECTID":553238},"geometry":{"x":168516.37000000104,"y":2546704.2600000035}},{"attributes":{"ID":553266,"DIS_CODE":0,"TOWNNAME":"北區","LI":"成德里","LIN":"21鄰","STREET":"育成路","SECT":" ","MAREA":" ","LANE":" ","ALLEY":" ","HOUSE_NO":"２４２號","E_COORD97":168635.12,"N_COORD97":2546616.25,"ADDRESS":"育成路２４２號","OBJECTID":553239},"geometry":{"x":168635.12000000104,"y":2546616.2500000037}},{"attributes":{"ID":553267,"DIS_CODE":0,"TOWNNAME":"北區","LI":"成德里","LIN":"21鄰","STREET":"育成路","SECT":" ","MAREA":" ","LANE":" ","ALLEY":" ","HOUSE_NO":"２２８號","E_COORD97":168658.60999999999,"N_COORD97":2546587.8300000001,"ADDRESS":"育成路２２８號","OBJECTID":553240},"geometry":{"x":168658.6099999994,"y":2546587.8300000001}},{"attributes":{"ID":553268,"DIS_CODE":0,"TOWNNAME":"北區","LI":"成德里","LIN":"21鄰","STREET":"育成路","SECT":" ","MAREA":" ","LANE":" ","ALLEY":" ","HOUSE_NO":"２１６號","E_COORD97":168678.92999999999,"N_COORD97":2546564.8199999998,"ADDRESS":"育成路２１６號","OBJECTID":553241},"geometry":{"x":168678.9299999997,"y":2546564.8200000003}},{"attributes":{"ID":553269,"DIS_CODE":0,"TOWNNAME":"安平區","LI":"建平里","LIN":"21鄰","STREET":"平通路","SECT":" ","MAREA":" ","LANE":" ","ALLEY":" ","HOUSE_NO":"２號","E_COORD97":166227.72,"N_COORD97":2543661.8700000001,"ADDRESS":"平通路２號","OBJECTID":553242},"geometry":{"x":166227.71999999974,"y":2543661.870000001}},{"attributes":{"ID":553270,"DIS_CODE":0,"TOWNNAME":"北區","LI":"大豐里","LIN":"21鄰","STREET":"大興街","SECT":" ","MAREA":" ","LANE":" ","ALLEY":" ","HOUSE_NO":"２７９號","E_COORD97":166727.57000000001,"N_COORD97":2545702.7599999998,"ADDRESS":"大興街２７９號","OBJECTID":553243},"geometry":{"x":166727.5700000003,"y":2545702.7599999998}},{"attributes":{"ID":553271,"DIS_CODE":0,"TOWNNAME":"北區","LI":"大豐里","LIN":"21鄰","STREET":"大興街","SECT":" ","MAREA":" ","LANE":" ","ALLEY":" ","HOUSE_NO":"２８１號","E_COORD97":166723.20999999999,"N_COORD97":2545699.9100000001,"ADDRESS":"大興街２８１號","OBJECTID":553244},"geometry":{"x":166723.20999999996,"y":2545699.9100000039}},{"attributes":{"ID":553272,"DIS_CODE":0,"TOWNNAME":"北區","LI":"大豐里","LIN":"21鄰","STREET":"大興街","SECT":" ","MAREA":" ","LANE":" ","ALLEY":" ","HOUSE_NO":"２８３號之１","E_COORD97":166711.56,"N_COORD97":2545688.5899999999,"ADDRESS":"大興街２８３號之１","OBJECTID":553245},"geometry":{"x":166711.55999999959,"y":2545688.5900000017}},{"attributes":{"ID":553273,"DIS_CODE":0,"TOWNNAME":"新營區","LI":"民權里","LIN":"21鄰","STREET":"仁愛街","SECT":" ","MAREA":" ","LANE":" ","ALLEY":" ","HOUSE_NO":"６７號","E_COORD97":179773.79000000001,"N_COORD97":2578354.5099999998,"ADDRESS":"仁愛街６７號","OBJECTID":553246},"geometry":{"x":179773.79000000004,"y":2578354.5099999998}},{"attributes":{"ID":553274,"DIS_CODE":0,"TOWNNAME":"新營區","LI":"民權里","LIN":"21鄰","STREET":"三民路","SECT":" ","MAREA":" ","LANE":" ","ALLEY":" ","HOUSE_NO":"９５號","E_COORD97":179718.85999999999,"N_COORD97":2578428.9700000002,"ADDRESS":"三民路９５號","OBJECTID":553247},"geometry":{"x":179718.86000000127,"y":2578428.9700000025}},{"attributes":{"ID":553275,"DIS_CODE":0,"TOWNNAME":"新營區","LI":"忠政里","LIN":"21鄰","STREET":"府西路","SECT":" ","MAREA":" ","LANE":" ","ALLEY":" ","HOUSE_NO":"２２６號","E_COORD97":179812.66,"N_COORD97":2579590.25,"ADDRESS":"府西路２２６號","OBJECTID":553248},"geometry":{"x":179812.66000000201,"y":2579590.25}},{"attributes":{"ID":553276,"DIS_CODE":0,"TOWNNAME":"安平區","LI":"國平里","LIN":"21鄰","STREET":"育平五街","SECT":" ","MAREA":" ","LANE":" ","ALLEY":" ","HOUSE_NO":"１１號","E_COORD97":164882.73999999999,"N_COORD97":2543453.8599999999,"ADDRESS":"育平五街１１號","OBJECTID":553249},"geometry":{"x":164882.74000000115,"y":2543453.8599999994}},{"attributes":{"ID":553277,"DIS_CODE":0,"TOWNNAME":"安平區","LI":"國平里","LIN":"21鄰","STREET":"育平五街","SECT":" ","MAREA":" ","LANE":" ","ALLEY":" ","HOUSE_NO":"１３號","E_COORD97":164872.48999999999,"N_COORD97":2543454.8100000001,"ADDRESS":"育平五街１３號","OBJECTID":553250},"geometry":{"x":164872.49000000209,"y":2543454.8100000005}},{"attributes":{"ID":553278,"DIS_CODE":0,"TOWNNAME":"安平區","LI":"國平里","LIN":"21鄰","STREET":"育平五街","SECT":" ","MAREA":" ","LANE":" ","ALLEY":" ","HOUSE_NO":"１５號","E_COORD97":164863.29999999999,"N_COORD97":2543459.8799999999,"ADDRESS":"育平五街１５號","OBJECTID":553251},"geometry":{"x":164863.30000000075,"y":2543459.879999999}},{"attributes":{"ID":553279,"DIS_CODE":0,"TOWNNAME":"安平區","LI":"國平里","LIN":"21鄰","STREET":"育平五街","SECT":" ","MAREA":" ","LANE":" ","ALLEY":" ","HOUSE_NO":"１７號","E_COORD97":164870.59,"N_COORD97":2543465.0499999998,"ADDRESS":"育平五街１７號","OBJECTID":553252},"geometry":{"x":164870.58999999985,"y":2543465.0499999989}},{"attributes":{"ID":553280,"DIS_CODE":0,"TOWNNAME":"安平區","LI":"國平里","LIN":"21鄰","STREET":"育平五街","SECT":" ","MAREA":" ","LANE":" ","ALLEY":" ","HOUSE_NO":"２１號","E_COORD97":164843.04000000001,"N_COORD97":2543478.8700000001,"ADDRESS":"育平五街２１號","OBJECTID":553253},"geometry":{"x":164843.0400000019,"y":2543478.870000001}},{"attributes":{"ID":553281,"DIS_CODE":0,"TOWNNAME":"安平區","LI":"國平里","LIN":"21鄰","STREET":"育平五街","SECT":" ","MAREA":" ","LANE":" ","ALLEY":" ","HOUSE_NO":"２３號","E_COORD97":164841.66,"N_COORD97":2543470.21,"ADDRESS":"育平五街２３號","OBJECTID":553254},"geometry":{"x":164841.66000000015,"y":2543470.2100000009}},{"attributes":{"ID":553282,"DIS_CODE":0,"TOWNNAME":"安平區","LI":"國平里","LIN":"21鄰","STREET":"育平五街","SECT":" ","MAREA":" ","LANE":" ","ALLEY":" ","HOUSE_NO":"２５號","E_COORD97":164845.57000000001,"N_COORD97":2543461.0299999998,"ADDRESS":"育平五街２５號","OBJECTID":553255},"geometry":{"x":164845.57000000123,"y":2543461.0300000012}},{"attributes":{"ID":553283,"DIS_CODE":0,"TOWNNAME":"安平區","LI":"國平里","LIN":"21鄰","STREET":"育平五街","SECT":" ","MAREA":" ","LANE":" ","ALLEY":" ","HOUSE_NO":"２７號","E_COORD97":164836.06,"N_COORD97":2543459.8700000001,"ADDRESS":"育平五街２７號","OBJECTID":553256},"geometry":{"x":164836.06000000052,"y":2543459.8699999992}},{"attributes":{"ID":553284,"DIS_CODE":0,"TOWNNAME":"安平區","LI":"國平里","LIN":"21鄰","STREET":"育平五街","SECT":" ","MAREA":" ","LANE":" ","ALLEY":" ","HOUSE_NO":"２９號","E_COORD97":164826.91,"N_COORD97":2543462.04,"ADDRESS":"育平五街２９號","OBJECTID":553257},"geometry":{"x":164826.91000000015,"y":2543462.0399999991}},{"attributes":{"ID":553285,"DIS_CODE":0,"TOWNNAME":"安平區","LI":"國平里","LIN":"21鄰","STREET":"育平五街","SECT":" ","MAREA":" ","LANE":" ","ALLEY":" ","HOUSE_NO":"３１號","E_COORD97":164816.14000000001,"N_COORD97":2543465.8999999999,"ADDRESS":"育平五街３１號","OBJECTID":553258},"geometry":{"x":164816.13999999966,"y":2543465.9000000041}},{"attributes":{"ID":553286,"DIS_CODE":0,"TOWNNAME":"安平區","LI":"國平里","LIN":"21鄰","STREET":"育平五街","SECT":" ","MAREA":" ","LANE":" ","ALLEY":" ","HOUSE_NO":"３３號","E_COORD97":164824.22,"N_COORD97":2543471.7799999998,"ADDRESS":"育平五街３３號","OBJECTID":553259},"geometry":{"x":164824.21999999974,"y":2543471.7799999993}},{"attributes":{"ID":553287,"DIS_CODE":0,"TOWNNAME":"安平區","LI":"國平里","LIN":"21鄰","STREET":"育平五街","SECT":" ","MAREA":" ","LANE":" ","ALLEY":" ","HOUSE_NO":"３５號","E_COORD97":164825.56,"N_COORD97":2543480.1899999999,"ADDRESS":"育平五街３５號","OBJECTID":553260},"geometry":{"x":164825.56000000145,"y":2543480.1900000032}},{"attributes":{"ID":553288,"DIS_CODE":0,"TOWNNAME":"安平區","LI":"國平里","LIN":"21鄰","STREET":"育平五街","SECT":" ","MAREA":" ","LANE":" ","ALLEY":" ","HOUSE_NO":"５號","E_COORD97":164888.23000000001,"N_COORD97":2543470.96,"ADDRESS":"育平五街５號","OBJECTID":553261},"geometry":{"x":164888.23000000138,"y":2543470.9600000028}},{"attributes":{"ID":553289,"DIS_CODE":0,"TOWNNAME":"新營區","LI":"新東里","LIN":"21鄰","STREET":"東明街","SECT":" ","MAREA":" ","LANE":" ","ALLEY":" ","HOUSE_NO":"１４７號","E_COORD97":180777.04000000001,"N_COORD97":2579800.5600000001,"ADDRESS":"東明街１４７號","OBJECTID":553262},"geometry":{"x":180777.04000000004,"y":2579800.5600000024}},{"attributes":{"ID":553290,"DIS_CODE":0,"TOWNNAME":"南區","LI":"文華里","LIN":"21鄰","STREET":"文南一街","SECT":" ","MAREA":" ","LANE":" ","ALLEY":" ","HOUSE_NO":"２號","E_COORD97":166925.82999999999,"N_COORD97":2542938.7400000002,"ADDRESS":"文南一街２號","OBJECTID":553263},"geometry":{"x":166925.83000000007,"y":2542938.7400000021}},{"attributes":{"ID":553291,"DIS_CODE":0,"TOWNNAME":"南區","LI":"文華里","LIN":"21鄰","STREET":"文南一街","SECT":" ","MAREA":" ","LANE":" ","ALLEY":" ","HOUSE_NO":"２號地下層之１","E_COORD97":166919.81,"N_COORD97":2542943.0499999998,"ADDRESS":"文南一街２號地下層之１","OBJECTID":553264},"geometry":{"x":166919.81000000052,"y":2542943.0500000045}},{"attributes":{"ID":553292,"DIS_CODE":0,"TOWNNAME":"南區","LI":"文華里","LIN":"21鄰","STREET":"文南一街","SECT":" ","MAREA":" ","LANE":" ","ALLEY":" ","HOUSE_NO":"２號地下層之２","E_COORD97":166919.81,"N_COORD97":2542943.0499999998,"ADDRESS":"文南一街２號地下層之２","OBJECTID":553265},"geometry":{"x":166919.81000000052,"y":2542943.0500000045}},{"attributes":{"ID":553293,"DIS_CODE":0,"TOWNNAME":"南區","LI":"文華里","LIN":"21鄰","STREET":"文南一街","SECT":" ","MAREA":" ","LANE":" ","ALLEY":" ","HOUSE_NO":"２號地下層之３","E_COORD97":166919.81,"N_COORD97":2542943.0499999998,"ADDRESS":"文南一街２號地下層之３","OBJECTID":553266},"geometry":{"x":166919.81000000052,"y":2542943.0500000045}},{"attributes":{"ID":553294,"DIS_CODE":0,"TOWNNAME":"南區","LI":"文華里","LIN":"21鄰","STREET":"文南路","SECT":" ","MAREA":" ","LANE":" ","ALLEY":" ","HOUSE_NO":"２６７號","E_COORD97":166943.95999999999,"N_COORD97":2542943.5899999999,"ADDRESS":"文南路２６７號","OBJECTID":553267},"geometry":{"x":166943.96000000183,"y":2542943.5900000017}},{"attributes":{"ID":553295,"DIS_CODE":0,"TOWNNAME":"南區","LI":"文華里","LIN":"21鄰","STREET":"文南路","SECT":" ","MAREA":" ","LANE":" ","ALLEY":" ","HOUSE_NO":"２６９號","E_COORD97":166947.28,"N_COORD97":2542974.3500000001,"ADDRESS":"文南路２６９號","OBJECTID":553268},"geometry":{"x":166947.28000000119,"y":2542974.3500000015}},{"attributes":{"ID":553296,"DIS_CODE":0,"TOWNNAME":"南區","LI":"文華里","LIN":"21鄰","STREET":"文南路","SECT":" ","MAREA":" ","LANE":" ","ALLEY":" ","HOUSE_NO":"２６７號之３","E_COORD97":166946.20000000001,"N_COORD97":2542961.98,"ADDRESS":"文南路２６７號之３","OBJECTID":553269},"geometry":{"x":166946.20000000112,"y":2542961.9800000004}},{"attributes":{"ID":553297,"DIS_CODE":0,"TOWNNAME":"南區","LI":"文華里","LIN":"21鄰","STREET":"文南路","SECT":" ","MAREA":" ","LANE":" ","ALLEY":" ","HOUSE_NO":"２６７號之４","E_COORD97":166946.56,"N_COORD97":2542967.9900000002,"ADDRESS":"文南路２６７號之４","OBJECTID":553270},"geometry":{"x":166946.56000000052,"y":2542967.9900000021}},{"attributes":{"ID":553298,"DIS_CODE":0,"TOWNNAME":"歸仁區","LI":"看西里","LIN":"21鄰","STREET":"成功七街","SECT":" ","MAREA":" ","LANE":" ","ALLEY":" ","HOUSE_NO":"９６號","E_COORD97":178197.35999999999,"N_COORD97":2539800.3599999999,"ADDRESS":"成功七街９６號","OBJECTID":553271},"geometry":{"x":178197.36000000034,"y":2539800.3600000031}},{"attributes":{"ID":553299,"DIS_CODE":0,"TOWNNAME":"歸仁區","LI":"大潭里","LIN":"21鄰","STREET":"長榮路","SECT":"二段","MAREA":" ","LANE":" ","ALLEY":" ","HOUSE_NO":"７４號","E_COORD97":176867.12,"N_COORD97":2534494.2799999998,"ADDRESS":"長榮路二段７４號","OBJECTID":553272},"geometry":{"x":176867.12000000104,"y":2534494.2799999993}},{"attributes":{"ID":553300,"DIS_CODE":0,"TOWNNAME":"歸仁區","LI":"六甲里","LIN":"21鄰","STREET":"中正南路","SECT":"一段","MAREA":" ","LANE":" ","ALLEY":" ","HOUSE_NO":"７５４號","E_COORD97":176429.00795,"N_COORD97":2539669.7299500001,"ADDRESS":"中正南路一段７５４號","OBJECTID":553273},"geometry":{"x":176429.00795000046,"y":2539669.7299470007}},{"attributes":{"ID":553301,"DIS_CODE":0,"TOWNNAME":"歸仁區","LI":"新厝里","LIN":"21鄰","STREET":"大成八街","SECT":" ","MAREA":" ","LANE":" ","ALLEY":" ","HOUSE_NO":"２４號","E_COORD97":177637.34,"N_COORD97":2540255.1800000002,"ADDRESS":"大成八街２４號","OBJECTID":553274},"geometry":{"x":177637.33999999985,"y":2540255.1799999997}},{"attributes":{"ID":553302,"DIS_CODE":0,"TOWNNAME":"麻豆區","LI":"\u25A0江里","LIN":"21鄰","STREET":"民生路","SECT":" ","MAREA":" ","LANE":" ","ALLEY":" ","HOUSE_NO":"４０號","E_COORD97":173656.07000000001,"N_COORD97":2564483.9700000002,"ADDRESS":"民生路４０號","OBJECTID":553275},"geometry":{"x":173656.0700000003,"y":2564483.9700000025}},{"attributes":{"ID":553303,"DIS_CODE":0,"TOWNNAME":"麻豆區","LI":"\u25A0江里","LIN":"21鄰","STREET":"民生路","SECT":" ","MAREA":" ","LANE":" ","ALLEY":" ","HOUSE_NO":"７４號","E_COORD97":173749.85999999999,"N_COORD97":2564417.3300000001,"ADDRESS":"民生路７４號","OBJECTID":553276},"geometry":{"x":173749.86000000127,"y":2564417.3300000001}},{"attributes":{"ID":553304,"DIS_CODE":0,"TOWNNAME":"麻豆區","LI":"\u25A0江里","LIN":"21鄰","STREET":"民生路","SECT":" ","MAREA":" ","LANE":" ","ALLEY":" ","HOUSE_NO":"７６號","E_COORD97":173748.17000000001,"N_COORD97":2564411.4100000001,"ADDRESS":"民生路７６號","OBJECTID":553277},"geometry":{"x":173748.16999999993,"y":2564411.4100000039}},{"attributes":{"ID":553305,"DIS_CODE":0,"TOWNNAME":"麻豆區","LI":"\u25A0江里","LIN":"21鄰","STREET":"民生路","SECT":" ","MAREA":" ","LANE":" ","ALLEY":" ","HOUSE_NO":"７８號之３","E_COORD97":173715.57999999999,"N_COORD97":2564407.0699999998,"ADDRESS":"民生路７８號之３","OBJECTID":553278},"geometry":{"x":173715.58000000101,"y":2564407.070000004}},{"attributes":{"ID":553306,"DIS_CODE":0,"TOWNNAME":"麻豆區","LI":"\u25A0江里","LIN":"21鄰","STREET":"民生路","SECT":" ","MAREA":" ","LANE":" ","ALLEY":" ","HOUSE_NO":"７８號之４","E_COORD97":173713.87,"N_COORD97":2564414.1400000001,"ADDRESS":"民生路７８號之４","OBJECTID":553279},"geometry":{"x":173713.87000000104,"y":2564414.1400000025}},{"attributes":{"ID":553307,"DIS_CODE":0,"TOWNNAME":"麻豆區","LI":"\u25A0江里","LIN":"21鄰","STREET":"民生路","SECT":" ","MAREA":" ","LANE":" ","ALLEY":" ","HOUSE_NO":"７８號之５","E_COORD97":173713.81,"N_COORD97":2564421.1299999999,"ADDRESS":"民生路７８號之５","OBJECTID":553280},"geometry":{"x":173713.81000000052,"y":2564421.129999999}},{"attributes":{"ID":553308,"DIS_CODE":0,"TOWNNAME":"麻豆區","LI":"\u25A0江里","LIN":"21鄰","STREET":"民生路","SECT":" ","MAREA":" ","LANE":" ","ALLEY":" ","HOUSE_NO":"７８號之６","E_COORD97":173713.59,"N_COORD97":2564428.29,"ADDRESS":"民生路７８號之６","OBJECTID":553281},"geometry":{"x":173713.59000000078,"y":2564428.2900000028}},{"attributes":{"ID":553309,"DIS_CODE":0,"TOWNNAME":"麻豆區","LI":"\u25A0江里","LIN":"21鄰","STREET":"民生路","SECT":" ","MAREA":" ","LANE":" ","ALLEY":" ","HOUSE_NO":"７８號","E_COORD97":173746.57000000001,"N_COORD97":2564405.5800000001,"ADDRESS":"民生路７８號","OBJECTID":553282},"geometry":{"x":173746.57000000123,"y":2564405.5800000001}},{"attributes":{"ID":553310,"DIS_CODE":0,"TOWNNAME":"北區","LI":"長榮里","LIN":"21鄰","STREET":"長榮路","SECT":"五段","MAREA":" ","LANE":" ","ALLEY":" ","HOUSE_NO":"１２之２號","E_COORD97":170130.5,"N_COORD97":2545460.1099999999,"ADDRESS":"長榮路五段１２之２號","OBJECTID":553283},"geometry":{"x":170130.50000000186,"y":2545460.1099999994}},{"attributes":{"ID":553311,"DIS_CODE":0,"TOWNNAME":"北區","LI":"長榮里","LIN":"21鄰","STREET":"長榮路","SECT":"五段","MAREA":" ","LANE":" ","ALLEY":" ","HOUSE_NO":"１２之３號","E_COORD97":170129.85999999999,"N_COORD97":2545465.8199999998,"ADDRESS":"長榮路五段１２之３號","OBJECTID":553284},"geometry":{"x":170129.86000000034,"y":2545465.8200000003}},{"attributes":{"ID":553312,"DIS_CODE":0,"TOWNNAME":"北區","LI":"長榮里","LIN":"21鄰","STREET":"長榮路","SECT":"五段","MAREA":" ","LANE":" ","ALLEY":" ","HOUSE_NO":"１６號","E_COORD97":170129.23000000001,"N_COORD97":2545471.8599999999,"ADDRESS":"長榮路五段１６號","OBJECTID":553285},"geometry":{"x":170129.23000000045,"y":2545471.8599999994}},{"attributes":{"ID":553313,"DIS_CODE":0,"TOWNNAME":"北區","LI":"長榮里","LIN":"21鄰","STREET":"長榮路","SECT":"五段","MAREA":" ","LANE":" ","ALLEY":" ","HOUSE_NO":"１６之１號","E_COORD97":170128.42999999999,"N_COORD97":2545477.73,"ADDRESS":"長榮路五段１６之１號","OBJECTID":553286},"geometry":{"x":170128.4299999997,"y":2545477.7300000042}},{"attributes":{"ID":553314,"DIS_CODE":0,"TOWNNAME":"北區","LI":"長榮里","LIN":"21鄰","STREET":"長榮路","SECT":"五段","MAREA":" ","LANE":" ","ALLEY":" ","HOUSE_NO":"１６之２號","E_COORD97":170127.16,"N_COORD97":2545483.4500000002,"ADDRESS":"長榮路五段１６之２號","OBJECTID":553287},"geometry":{"x":170127.16000000015,"y":2545483.4499999993}},{"attributes":{"ID":553315,"DIS_CODE":0,"TOWNNAME":"北區","LI":"長榮里","LIN":"21鄰","STREET":"長榮路","SECT":"五段","MAREA":" ","LANE":" ","ALLEY":" ","HOUSE_NO":"１６之３號","E_COORD97":170126.04999999999,"N_COORD97":2545489.1600000001,"ADDRESS":"長榮路五段１６之３號","OBJECTID":553288},"geometry":{"x":170126.04999999981,"y":2545489.160000002}},{"attributes":{"ID":553316,"DIS_CODE":0,"TOWNNAME":"南區","LI":"金華里","LIN":"21鄰","STREET":"尊南街","SECT":" ","MAREA":" ","LANE":" ","ALLEY":" ","HOUSE_NO":"２５５號","E_COORD97":166844.45000000001,"N_COORD97":2542394.0099999998,"ADDRESS":"尊南街２５５號","OBJECTID":553289},"geometry":{"x":166844.45000000112,"y":2542394.0100000016}},{"attributes":{"ID":553317,"DIS_CODE":0,"TOWNNAME":"南區","LI":"金華里","LIN":"21鄰","STREET":"尊南街","SECT":" ","MAREA":" ","LANE":" ","ALLEY":" ","HOUSE_NO":"２５７號","E_COORD97":166843.85000000001,"N_COORD97":2542398.3300000001,"ADDRESS":"尊南街２５７號","OBJECTID":553290},"geometry":{"x":166843.84999999963,"y":2542398.3300000038}},{"attributes":{"ID":553318,"DIS_CODE":0,"TOWNNAME":"南區","LI":"金華里","LIN":"21鄰","STREET":"尊南街","SECT":" ","MAREA":" ","LANE":" ","ALLEY":" ","HOUSE_NO":"２５９號","E_COORD97":166843.54999999999,"N_COORD97":2542402.6499999999,"ADDRESS":"尊南街２５９號","OBJECTID":553291},"geometry":{"x":166843.55000000075,"y":2542402.6500000004}},{"attributes":{"ID":553319,"DIS_CODE":0,"TOWNNAME":"南區","LI":"金華里","LIN":"21鄰","STREET":"尊南街","SECT":" ","MAREA":" ","LANE":" ","ALLEY":" ","HOUSE_NO":"２６１號","E_COORD97":166841.45999999999,"N_COORD97":2542408.02,"ADDRESS":"尊南街２６１號","OBJECTID":553292},"geometry":{"x":166841.45999999996,"y":2542408.0200000014}},{"attributes":{"ID":553320,"DIS_CODE":0,"TOWNNAME":"南區","LI":"金華里","LIN":"21鄰","STREET":"賢南街","SECT":" ","MAREA":" ","LANE":" ","ALLEY":" ","HOUSE_NO":"５３號之２","E_COORD97":166767.48999999999,"N_COORD97":2542393.1299999999,"ADDRESS":"賢南街５３號之２","OBJECTID":553293},"geometry":{"x":166767.48999999929,"y":2542393.1300000008}},{"attributes":{"ID":553321,"DIS_CODE":0,"TOWNNAME":"南區","LI":"金華里","LIN":"21鄰","STREET":"賢南街","SECT":" ","MAREA":" ","LANE":" ","ALLEY":" ","HOUSE_NO":"６１號","E_COORD97":166762.51999999999,"N_COORD97":2542393.3300000001,"ADDRESS":"賢南街６１號","OBJECTID":553294},"geometry":{"x":166762.51999999955,"y":2542393.3300000001}},{"attributes":{"ID":553322,"DIS_CODE":0,"TOWNNAME":"南區","LI":"金華里","LIN":"21鄰","STREET":"賢南街","SECT":" ","MAREA":" ","LANE":" ","ALLEY":" ","HOUSE_NO":"６３號","E_COORD97":166758.94,"N_COORD97":2542392.5299999998,"ADDRESS":"賢南街６３號","OBJECTID":553295},"geometry":{"x":166758.94000000041,"y":2542392.5300000031}},{"attributes":{"ID":553323,"DIS_CODE":0,"TOWNNAME":"南區","LI":"金華里","LIN":"21鄰","STREET":"賢南街","SECT":" ","MAREA":" ","LANE":" ","ALLEY":" ","HOUSE_NO":"６５號","E_COORD97":166752.37,"N_COORD97":2542396.3100000001,"ADDRESS":"賢南街６５號","OBJECTID":553296},"geometry":{"x":166752.37000000011,"y":2542396.3100000024}},{"attributes":{"ID":553324,"DIS_CODE":0,"TOWNNAME":"南區","LI":"金華里","LIN":"21鄰","STREET":"賢南街","SECT":" ","MAREA":" ","LANE":" ","ALLEY":" ","HOUSE_NO":"６７號","E_COORD97":166740.16,"N_COORD97":2542396.46,"ADDRESS":"賢南街６７號","OBJECTID":553297},"geometry":{"x":166740.16000000015,"y":2542396.4600000009}},{"attributes":{"ID":553325,"DIS_CODE":0,"TOWNNAME":"南區","LI":"金華里","LIN":"21鄰","STREET":"賢南街","SECT":" ","MAREA":" ","LANE":" ","ALLEY":" ","HOUSE_NO":"６９號","E_COORD97":166719.45000000001,"N_COORD97":2542392.2200000002,"ADDRESS":"賢南街６９號","OBJECTID":553298},"geometry":{"x":166719.45000000112,"y":2542392.2200000007}},{"attributes":{"ID":553326,"DIS_CODE":0,"TOWNNAME":"南區","LI":"金華里","LIN":"21鄰","STREET":"惠南街","SECT":" ","MAREA":" ","LANE":" ","ALLEY":" ","HOUSE_NO":"１０６號","E_COORD97":166750.31,"N_COORD97":2542351.6099999999,"ADDRESS":"惠南街１０６號","OBJECTID":553299},"geometry":{"x":166750.31000000052,"y":2542351.6100000031}},{"attributes":{"ID":553327,"DIS_CODE":0,"TOWNNAME":"南區","LI":"金華里","LIN":"21鄰","STREET":"惠南街","SECT":" ","MAREA":" ","LANE":" ","ALLEY":" ","HOUSE_NO":"１１０號","E_COORD97":166748.82000000001,"N_COORD97":2542366.0600000001,"ADDRESS":"惠南街１１０號","OBJECTID":553300},"geometry":{"x":166748.82000000123,"y":2542366.0600000005}},{"attributes":{"ID":553328,"DIS_CODE":0,"TOWNNAME":"南區","LI":"金華里","LIN":"21鄰","STREET":"惠南街","SECT":" ","MAREA":" ","LANE":" ","ALLEY":" ","HOUSE_NO":"１１０號地下層","E_COORD97":166748.82000000001,"N_COORD97":2542366.0600000001,"ADDRESS":"惠南街１１０號地下層","OBJECTID":553301},"geometry":{"x":166748.82000000123,"y":2542366.0600000005}},{"attributes":{"ID":553329,"DIS_CODE":0,"TOWNNAME":"南區","LI":"金華里","LIN":"21鄰","STREET":"惠南街","SECT":" ","MAREA":" ","LANE":" ","ALLEY":" ","HOUSE_NO":"１１２號","E_COORD97":166745.38,"N_COORD97":2542374.1099999999,"ADDRESS":"惠南街１１２號","OBJECTID":553302},"geometry":{"x":166745.37999999989,"y":2542374.1099999994}},{"attributes":{"ID":553330,"DIS_CODE":0,"TOWNNAME":"南區","LI":"金華里","LIN":"21鄰","STREET":"惠南街","SECT":" ","MAREA":" ","LANE":" ","ALLEY":" ","HOUSE_NO":"１１２號之１","E_COORD97":166744.19,"N_COORD97":2542378.29,"ADDRESS":"惠南街１１２號之１","OBJECTID":553303},"geometry":{"x":166744.19000000041,"y":2542378.290000001}},{"attributes":{"ID":553331,"DIS_CODE":0,"TOWNNAME":"南區","LI":"金華里","LIN":"21鄰","STREET":"惠南街","SECT":" ","MAREA":" ","LANE":" ","ALLEY":" ","HOUSE_NO":"１１２號之２","E_COORD97":166743.59,"N_COORD97":2542383.2000000002,"ADDRESS":"惠南街１１２號之２","OBJECTID":553304},"geometry":{"x":166743.59000000078,"y":2542383.1999999993}},{"attributes":{"ID":553332,"DIS_CODE":0,"TOWNNAME":"南區","LI":"金華里","LIN":"21鄰","STREET":"惠南街","SECT":" ","MAREA":" ","LANE":" ","ALLEY":" ","HOUSE_NO":"１１２號之３","E_COORD97":166742.10000000001,"N_COORD97":2542387.8199999998,"ADDRESS":"惠南街１１２號之３","OBJECTID":553305},"geometry":{"x":166742.09999999963,"y":2542387.8200000003}},{"attributes":{"ID":553333,"DIS_CODE":0,"TOWNNAME":"南區","LI":"金華里","LIN":"21鄰","STREET":"惠南街","SECT":" ","MAREA":" ","LANE":" ","ALLEY":" ","HOUSE_NO":"１１２號之４","E_COORD97":166740.60999999999,"N_COORD97":2542391.5499999998,"ADDRESS":"惠南街１１２號之４","OBJECTID":553306},"geometry":{"x":166740.61000000127,"y":2542391.5500000026}},{"attributes":{"ID":553334,"DIS_CODE":0,"TOWNNAME":"新營區","LI":"民權里","LIN":"21鄰","STREET":"仁愛街","SECT":" ","MAREA":" ","LANE":" ","ALLEY":" ","HOUSE_NO":"８７號","E_COORD97":179764.82000000001,"N_COORD97":2578392.2000000002,"ADDRESS":"仁愛街８７號","OBJECTID":553307},"geometry":{"x":179764.82000000123,"y":2578392.1999999993}},{"attributes":{"ID":553335,"DIS_CODE":0,"TOWNNAME":"新營區","LI":"新東里","LIN":"21鄰","STREET":"東興十街","SECT":" ","MAREA":" ","LANE":" ","ALLEY":" ","HOUSE_NO":"６２號","E_COORD97":180883.92999999999,"N_COORD97":2579739.1400000001,"ADDRESS":"東興十街６２號","OBJECTID":553308},"geometry":{"x":180883.93000000063,"y":2579739.1400000025}},{"attributes":{"ID":553336,"DIS_CODE":0,"TOWNNAME":"新營區","LI":"民權里","LIN":"21鄰","STREET":"三民路","SECT":" ","MAREA":" ","LANE":" ","ALLEY":" ","HOUSE_NO":"９１之２號","E_COORD97":179743.88,"N_COORD97":2578431.1299999999,"ADDRESS":"三民路９１之２號","OBJECTID":553309},"geometry":{"x":179743.87999999989,"y":2578431.1300000027}},{"attributes":{"ID":553337,"DIS_CODE":0,"TOWNNAME":"新營區","LI":"民權里","LIN":"21鄰","STREET":"仁愛街","SECT":" ","MAREA":" ","LANE":" ","ALLEY":" ","HOUSE_NO":"９５號","E_COORD97":179751.5,"N_COORD97":2578408.8799999999,"ADDRESS":"仁愛街９５號","OBJECTID":553310},"geometry":{"x":179751.50000000093,"y":2578408.879999999}},{"attributes":{"ID":553338,"DIS_CODE":0,"TOWNNAME":"新營區","LI":"忠政里","LIN":"21鄰","STREET":"府西路","SECT":" ","MAREA":" ","LANE":" ","ALLEY":" ","HOUSE_NO":"２０７號","E_COORD97":179795.04999999999,"N_COORD97":2579542.71,"ADDRESS":"府西路２０７號","OBJECTID":553311},"geometry":{"x":179795.05000000075,"y":2579542.7100000028}},{"attributes":{"ID":553339,"DIS_CODE":0,"TOWNNAME":"北區","LI":"成德里","LIN":"21鄰","STREET":"北安路","SECT":"一段","MAREA":" ","LANE":" ","ALLEY":" ","HOUSE_NO":"２０９號","E_COORD97":168755.97,"N_COORD97":2546527.54,"ADDRESS":"北安路一段２０９號","OBJECTID":553312},"geometry":{"x":168755.97000000067,"y":2546527.5399999991}},{"attributes":{"ID":553340,"DIS_CODE":0,"TOWNNAME":"北區","LI":"成德里","LIN":"21鄰","STREET":"北安路","SECT":"一段","MAREA":" ","LANE":" ","ALLEY":" ","HOUSE_NO":"２１１號","E_COORD97":168752.26000000001,"N_COORD97":2546530.29,"ADDRESS":"北安路一段２１１號","OBJECTID":553313},"geometry":{"x":168752.26000000071,"y":2546530.2900000028}},{"attributes":{"ID":553341,"DIS_CODE":0,"TOWNNAME":"北區","LI":"成德里","LIN":"21鄰","STREET":"北安路","SECT":"一段","MAREA":" ","LANE":" ","ALLEY":" ","HOUSE_NO":"２１７號","E_COORD97":168742.06,"N_COORD97":2546539.5899999999,"ADDRESS":"北安路一段２１７號","OBJECTID":553314},"geometry":{"x":168742.06000000052,"y":2546539.5900000017}},{"attributes":{"ID":553342,"DIS_CODE":0,"TOWNNAME":"新營區","LI":"忠政里","LIN":"21鄰","STREET":"府西路","SECT":" ","MAREA":" ","LANE":" ","ALLEY":" ","HOUSE_NO":"２２８號","E_COORD97":179812.69,"N_COORD97":2579595.79,"ADDRESS":"府西路２２８號","OBJECTID":553315},"geometry":{"x":179812.69000000227,"y":2579595.7899999991}},{"attributes":{"ID":553343,"DIS_CODE":0,"TOWNNAME":"歸仁區","LI":"六甲里","LIN":"21鄰","STREET":"中正十八街","SECT":" ","MAREA":" ","LANE":" ","ALLEY":" ","HOUSE_NO":"９號","E_COORD97":176394.049826,"N_COORD97":2539665.54953,"ADDRESS":"中正十八街９號","OBJECTID":553316},"geometry":{"x":176394.04982600082,"y":2539665.5495330002}},{"attributes":{"ID":553344,"DIS_CODE":0,"TOWNNAME":"關廟區","LI":"香洋里","LIN":"21鄰","STREET":"中央路","SECT":" ","MAREA":" ","LANE":" ","ALLEY":" ","HOUSE_NO":"７號","E_COORD97":181624.95999999999,"N_COORD97":2539975.3199999998,"ADDRESS":"中央路７號","OBJECTID":553317},"geometry":{"x":181624.96000000089,"y":2539975.3200000022}},{"attributes":{"ID":553345,"DIS_CODE":0,"TOWNNAME":"南區","LI":"郡南里","LIN":"21鄰","STREET":"新都路","SECT":" ","MAREA":" ","LANE":" ","ALLEY":" ","HOUSE_NO":"３１９號","E_COORD97":167654.73999999999,"N_COORD97":2540865.6400000001,"ADDRESS":"新都路３１９號","OBJECTID":553318},"geometry":{"x":167654.74000000115,"y":2540865.6400000025}},{"attributes":{"ID":553346,"DIS_CODE":0,"TOWNNAME":"安平區","LI":"平安里","LIN":"21鄰","STREET":"民權路","SECT":"四段","MAREA":" ","LANE":" ","ALLEY":" ","HOUSE_NO":"３２７號","E_COORD97":165622.82999999999,"N_COORD97":2544419.7000000002,"ADDRESS":"民權路四段３２７號","OBJECTID":553319},"geometry":{"x":165622.83000000101,"y":2544419.7000000011}},{"attributes":{"ID":553347,"DIS_CODE":0,"TOWNNAME":"安平區","LI":"平安里","LIN":"21鄰","STREET":"民權路","SECT":"四段","MAREA":" ","LANE":" ","ALLEY":" ","HOUSE_NO":"３２９號","E_COORD97":165619.17999999999,"N_COORD97":2544421.4500000002,"ADDRESS":"民權路四段３２９號","OBJECTID":553320},"geometry":{"x":165619.1799999997,"y":2544421.4500000011}},{"attributes":{"ID":553348,"DIS_CODE":0,"TOWNNAME":"安平區","LI":"平安里","LIN":"21鄰","STREET":"民權路","SECT":"四段","MAREA":" ","LANE":" ","ALLEY":" ","HOUSE_NO":"３３１號","E_COORD97":165615.06,"N_COORD97":2544421.29,"ADDRESS":"民權路四段３３１號","OBJECTID":553321},"geometry":{"x":165615.05999999959,"y":2544421.2900000028}},{"attributes":{"ID":553349,"DIS_CODE":0,"TOWNNAME":"安平區","LI":"平安里","LIN":"21鄰","STREET":"民權路","SECT":"四段","MAREA":" ","LANE":" ","ALLEY":" ","HOUSE_NO":"３３３號","E_COORD97":165611.56,"N_COORD97":2544422.0800000001,"ADDRESS":"民權路四段３３３號","OBJECTID":553322},"geometry":{"x":165611.55999999959,"y":2544422.0800000019}},{"attributes":{"ID":553350,"DIS_CODE":0,"TOWNNAME":"安平區","LI":"平安里","LIN":"21鄰","STREET":"民權路","SECT":"四段","MAREA":" ","LANE":" ","ALLEY":" ","HOUSE_NO":"３３５號","E_COORD97":165607.59,"N_COORD97":2544422.5600000001,"ADDRESS":"民權路四段３３５號","OBJECTID":553323},"geometry":{"x":165607.59000000078,"y":2544422.5600000024}},{"attributes":{"ID":553351,"DIS_CODE":0,"TOWNNAME":"安平區","LI":"平安里","LIN":"21鄰","STREET":"民權路","SECT":"四段","MAREA":" ","LANE":" ","ALLEY":" ","HOUSE_NO":"３３７號","E_COORD97":165603.63,"N_COORD97":2544423.1899999999,"ADDRESS":"民權路四段３３７號","OBJECTID":553324},"geometry":{"x":165603.63000000082,"y":2544423.1900000013}},{"attributes":{"ID":553352,"DIS_CODE":0,"TOWNNAME":"安平區","LI":"平安里","LIN":"21鄰","STREET":"民權路","SECT":"四段","MAREA":" ","LANE":" ","ALLEY":" ","HOUSE_NO":"３６１號","E_COORD97":165555.67999999999,"N_COORD97":2544424.7799999998,"ADDRESS":"民權路四段３６１號","OBJECTID":553325},"geometry":{"x":165555.68000000063,"y":2544424.7799999993}},{"attributes":{"ID":553353,"DIS_CODE":0,"TOWNNAME":"安平區","LI":"平安里","LIN":"21鄰","STREET":"民權路","SECT":"四段","MAREA":" ","LANE":" ","ALLEY":" ","HOUSE_NO":"３６３號","E_COORD97":165549.81,"N_COORD97":2544424.9399999999,"ADDRESS":"民權路四段３６３號","OBJECTID":553326},"geometry":{"x":165549.81000000052,"y":2544424.9400000013}},{"attributes":{"ID":553354,"DIS_CODE":0,"TOWNNAME":"安平區","LI":"平安里","LIN":"21鄰","STREET":"民權路","SECT":"四段","MAREA":" ","LANE":" ","ALLEY":" ","HOUSE_NO":"３６５號","E_COORD97":165543.45999999999,"N_COORD97":2544424.7799999998,"ADDRESS":"民權路四段３６５號","OBJECTID":553327},"geometry":{"x":165543.45999999996,"y":2544424.7799999993}},{"attributes":{"ID":553355,"DIS_CODE":0,"TOWNNAME":"安平區","LI":"平安里","LIN":"21鄰","STREET":"民權路","SECT":"四段","MAREA":" ","LANE":" ","ALLEY":" ","HOUSE_NO":"３７９之１號","E_COORD97":165484.89000000001,"N_COORD97":2544426.9100000001,"ADDRESS":"民權路四段３７９之１號","OBJECTID":553328},"geometry":{"x":165484.8900000006,"y":2544426.9100000001}},{"attributes":{"ID":553356,"DIS_CODE":0,"TOWNNAME":"安平區","LI":"平安里","LIN":"21鄰","STREET":"民權路","SECT":"四段","MAREA":" ","LANE":" ","ALLEY":" ","HOUSE_NO":"３８１號","E_COORD97":165429.17000000001,"N_COORD97":2544423.4199999999,"ADDRESS":"民權路四段３８１號","OBJECTID":553329},"geometry":{"x":165429.17000000086,"y":2544423.4199999999}},{"attributes":{"ID":553357,"DIS_CODE":0,"TOWNNAME":"安平區","LI":"平安里","LIN":"21鄰","STREET":"民權路","SECT":"四段","MAREA":" ","LANE":" ","ALLEY":" ","HOUSE_NO":"３８１之１號","E_COORD97":165433.76999999999,"N_COORD97":2544423.5800000001,"ADDRESS":"民權路四段３８１之１號","OBJECTID":553330},"geometry":{"x":165433.76999999955,"y":2544423.5799999982}},{"attributes":{"ID":553358,"DIS_CODE":0,"TOWNNAME":"安平區","LI":"平安里","LIN":"21鄰","STREET":"民權路","SECT":"四段","MAREA":" ","LANE":" ","ALLEY":" ","HOUSE_NO":"３８１之２號","E_COORD97":165438.22,"N_COORD97":2544423.4199999999,"ADDRESS":"民權路四段３８１之２號","OBJECTID":553331},"geometry":{"x":165438.2200000016,"y":2544423.4199999999}},{"attributes":{"ID":553359,"DIS_CODE":0,"TOWNNAME":"安平區","LI":"平安里","LIN":"21鄰","STREET":"民權路","SECT":"四段","MAREA":" ","LANE":" ","ALLEY":" ","HOUSE_NO":"３８１之３號","E_COORD97":165443.14000000001,"N_COORD97":2544423.4199999999,"ADDRESS":"民權路四段３８１之３號","OBJECTID":553332},"geometry":{"x":165443.13999999966,"y":2544423.4199999999}},{"attributes":{"ID":553360,"DIS_CODE":0,"TOWNNAME":"安平區","LI":"平安里","LIN":"21鄰","STREET":"民權路","SECT":"四段","MAREA":" ","LANE":" ","ALLEY":" ","HOUSE_NO":"３８１之５號","E_COORD97":165447.73999999999,"N_COORD97":2544423.7400000002,"ADDRESS":"民權路四段３８１之５號","OBJECTID":553333},"geometry":{"x":165447.74000000115,"y":2544423.7400000021}},{"attributes":{"ID":553361,"DIS_CODE":0,"TOWNNAME":"安平區","LI":"平安里","LIN":"21鄰","STREET":"民權路","SECT":"四段","MAREA":" ","LANE":" ","ALLEY":" ","HOUSE_NO":"３８１之６號","E_COORD97":165452.82000000001,"N_COORD97":2544424.21,"ADDRESS":"民權路四段３８１之６號","OBJECTID":553334},"geometry":{"x":165452.8200000003,"y":2544424.2100000028}},{"attributes":{"ID":553362,"DIS_CODE":0,"TOWNNAME":"安平區","LI":"平安里","LIN":"21鄰","STREET":"民權路","SECT":"四段","MAREA":" ","LANE":" ","ALLEY":" ","HOUSE_NO":"４９７號","E_COORD97":165188.10000000001,"N_COORD97":2544515.4199999999,"ADDRESS":"民權路四段４９７號","OBJECTID":553335},"geometry":{"x":165188.10000000149,"y":2544515.4199999999}},{"attributes":{"ID":553363,"DIS_CODE":0,"TOWNNAME":"安平區","LI":"平安里","LIN":"21鄰","STREET":"民權路","SECT":"四段","MAREA":" ","LANE":" ","ALLEY":" ","HOUSE_NO":"４９５號","E_COORD97":165192.54000000001,"N_COORD97":2544511.4500000002,"ADDRESS":"民權路四段４９５號","OBJECTID":553336},"geometry":{"x":165192.54000000097,"y":2544511.4499999993}},{"attributes":{"ID":553364,"DIS_CODE":0,"TOWNNAME":"安平區","LI":"平安里","LIN":"21鄰","STREET":"民權路","SECT":"四段","MAREA":" ","LANE":" ","ALLEY":" ","HOUSE_NO":"４９３號","E_COORD97":165198.10000000001,"N_COORD97":2544510.02,"ADDRESS":"民權路四段４９３號","OBJECTID":553337},"geometry":{"x":165198.0999999987,"y":2544510.0200000014}},{"attributes":{"ID":553365,"DIS_CODE":0,"TOWNNAME":"安平區","LI":"平安里","LIN":"21鄰","STREET":"民權路","SECT":"四段","MAREA":" ","LANE":" ","ALLEY":" ","HOUSE_NO":"４９１號","E_COORD97":165202.85999999999,"N_COORD97":2544508.1200000001,"ADDRESS":"民權路四段４９１號","OBJECTID":553338},"geometry":{"x":165202.86000000127,"y":2544508.120000001}},{"attributes":{"ID":553366,"DIS_CODE":0,"TOWNNAME":"北區","LI":"文元里","LIN":"21鄰","STREET":"海安路","SECT":"三段","MAREA":" ","LANE":" ","ALLEY":" ","HOUSE_NO":"７７７號","E_COORD97":168017.35999999999,"N_COORD97":2545983.0699999998,"ADDRESS":"海安路三段７７７號","OBJECTID":553339},"geometry":{"x":168017.36000000034,"y":2545983.0700000003}},{"attributes":{"ID":553367,"DIS_CODE":0,"TOWNNAME":"北區","LI":"公園里","LIN":"21鄰","STREET":"公園路","SECT":" ","MAREA":" ","LANE":" ","ALLEY":" ","HOUSE_NO":"１３０號","E_COORD97":168776.73999999999,"N_COORD97":2544398.27,"ADDRESS":"公園路１３０號","OBJECTID":553340},"geometry":{"x":168776.74000000115,"y":2544398.2700000033}},{"attributes":{"ID":553368,"DIS_CODE":0,"TOWNNAME":"北區","LI":"公園里","LIN":"21鄰","STREET":"公園路","SECT":" ","MAREA":" ","LANE":" ","ALLEY":" ","HOUSE_NO":"１３２號","E_COORD97":168779.32999999999,"N_COORD97":2544402.6200000001,"ADDRESS":"公園路１３２號","OBJECTID":553341},"geometry":{"x":168779.33000000101,"y":2544402.620000001}},{"attributes":{"ID":553369,"DIS_CODE":0,"TOWNNAME":"北區","LI":"公園里","LIN":"21鄰","STREET":"公園路","SECT":" ","MAREA":" ","LANE":" ","ALLEY":" ","HOUSE_NO":"１３４號","E_COORD97":168781.78,"N_COORD97":2544406.4300000002,"ADDRESS":"公園路１３４號","OBJECTID":553342},"geometry":{"x":168781.78000000119,"y":2544406.4299999997}},{"attributes":{"ID":553370,"DIS_CODE":0,"TOWNNAME":"北區","LI":"公園里","LIN":"21鄰","STREET":"公園路","SECT":" ","MAREA":" ","LANE":" ","ALLEY":" ","HOUSE_NO":"１３４號地下一層","E_COORD97":168781.78,"N_COORD97":2544406.4300000002,"ADDRESS":"公園路１３４號地下一層","OBJECTID":553343},"geometry":{"x":168781.78000000119,"y":2544406.4299999997}},{"attributes":{"ID":553371,"DIS_CODE":0,"TOWNNAME":"北區","LI":"公園里","LIN":"21鄰","STREET":"公園路","SECT":" ","MAREA":" ","LANE":" ","ALLEY":" ","HOUSE_NO":"１３４號地下二層","E_COORD97":168781.78,"N_COORD97":2544406.4300000002,"ADDRESS":"公園路１３４號地下二層","OBJECTID":553344},"geometry":{"x":168781.78000000119,"y":2544406.4299999997}},{"attributes":{"ID":553372,"DIS_CODE":0,"TOWNNAME":"北區","LI":"公園里","LIN":"21鄰","STREET":"公園路","SECT":" ","MAREA":" ","LANE":" ","ALLEY":" ","HOUSE_NO":"１３６號","E_COORD97":168784.51000000001,"N_COORD97":2544411.1899999999,"ADDRESS":"公園路１３６號","OBJECTID":553345},"geometry":{"x":168784.51000000071,"y":2544411.1899999995}},{"attributes":{"ID":553373,"DIS_CODE":0,"TOWNNAME":"北區","LI":"公園里","LIN":"21鄰","STREET":"公園路","SECT":" ","MAREA":" ","LANE":" ","ALLEY":" ","HOUSE_NO":"１３８號","E_COORD97":168786.84,"N_COORD97":2544416.96,"ADDRESS":"公園路１３８號","OBJECTID":553346},"geometry":{"x":168786.83999999985,"y":2544416.9600000028}},{"attributes":{"ID":553374,"DIS_CODE":0,"TOWNNAME":"北區","LI":"公園里","LIN":"21鄰","STREET":"公園路","SECT":" ","MAREA":" ","LANE":" ","ALLEY":" ","HOUSE_NO":"１４０號","E_COORD97":168789.29000000001,"N_COORD97":2544421.5899999999,"ADDRESS":"公園路１４０號","OBJECTID":553347},"geometry":{"x":168789.29000000004,"y":2544421.5900000017}},{"attributes":{"ID":553375,"DIS_CODE":0,"TOWNNAME":"新營區","LI":"永生里","LIN":"21鄰","STREET":"康樂街","SECT":" ","MAREA":" ","LANE":" ","ALLEY":" ","HOUSE_NO":"６４號","E_COORD97":179827.60999999999,"N_COORD97":2577839.29,"ADDRESS":"康樂街６４號","OBJECTID":553348},"geometry":{"x":179827.61000000034,"y":2577839.2899999991}},{"attributes":{"ID":553376,"DIS_CODE":0,"TOWNNAME":"新營區","LI":"民權里","LIN":"21鄰","STREET":"民權路","SECT":" ","MAREA":" ","LANE":" ","ALLEY":" ","HOUSE_NO":"８８號","E_COORD97":179689.23999999999,"N_COORD97":2578416.9300000002,"ADDRESS":"民權路８８號","OBJECTID":553349},"geometry":{"x":179689.24000000022,"y":2578416.9300000016}},{"attributes":{"ID":553377,"DIS_CODE":0,"TOWNNAME":"新營區","LI":"大宏里","LIN":"21鄰","STREET":"三民路","SECT":" ","MAREA":" ","LANE":" ","ALLEY":" ","HOUSE_NO":"６號之４","E_COORD97":180640.81,"N_COORD97":2578518.8199999998,"ADDRESS":"三民路６號之４","OBJECTID":553350},"geometry":{"x":180640.80999999959,"y":2578518.8200000003}},{"attributes":{"ID":553378,"DIS_CODE":0,"TOWNNAME":"安平區","LI":"文平里","LIN":"21鄰","STREET":"建平一街","SECT":" ","MAREA":" ","LANE":" ","ALLEY":" ","HOUSE_NO":"３５號","E_COORD97":165992.78,"N_COORD97":2542730.79,"ADDRESS":"建平一街３５號","OBJECTID":553351},"geometry":{"x":165992.78000000212,"y":2542730.790000001}},{"attributes":{"ID":553379,"DIS_CODE":0,"TOWNNAME":"安平區","LI":"文平里","LIN":"21鄰","STREET":"建平一街","SECT":" ","MAREA":" ","LANE":" ","ALLEY":" ","HOUSE_NO":"３７號","E_COORD97":165987.35000000001,"N_COORD97":2542731.7200000002,"ADDRESS":"建平一街３７號","OBJECTID":553352},"geometry":{"x":165987.34999999963,"y":2542731.7200000044}},{"attributes":{"ID":553380,"DIS_CODE":0,"TOWNNAME":"安平區","LI":"文平里","LIN":"21鄰","STREET":"建平一街","SECT":" ","MAREA":" ","LANE":" ","ALLEY":" ","HOUSE_NO":"３９號","E_COORD97":165982.70000000001,"N_COORD97":2542731.7200000002,"ADDRESS":"建平一街３９號","OBJECTID":553353},"geometry":{"x":165982.70000000019,"y":2542731.7200000044}},{"attributes":{"ID":553381,"DIS_CODE":0,"TOWNNAME":"南區","LI":"文華里","LIN":"21鄰","STREET":"文南二街","SECT":" ","MAREA":" ","LANE":" ","ALLEY":" ","HOUSE_NO":"６號","E_COORD97":166936.32999999999,"N_COORD97":2542995.7200000002,"ADDRESS":"文南二街６號","OBJECTID":553354},"geometry":{"x":166936.33000000194,"y":2542995.7200000007}},{"attributes":{"ID":553382,"DIS_CODE":0,"TOWNNAME":"安平區","LI":"文平里","LIN":"21鄰","STREET":"健康路","SECT":"三段","MAREA":" ","LANE":" ","ALLEY":" ","HOUSE_NO":"２８之６號","E_COORD97":165959.10000000001,"N_COORD97":2542626.5899999999,"ADDRESS":"健康路三段２８之６號","OBJECTID":553355},"geometry":{"x":165959.09999999963,"y":2542626.5900000036}},{"attributes":{"ID":553383,"DIS_CODE":0,"TOWNNAME":"安平區","LI":"文平里","LIN":"21鄰","STREET":"健康路","SECT":"三段","MAREA":" ","LANE":" ","ALLEY":" ","HOUSE_NO":"２８之７號","E_COORD97":165952.76000000001,"N_COORD97":2542627.73,"ADDRESS":"健康路三段２８之７號","OBJECTID":553356},"geometry":{"x":165952.75999999978,"y":2542627.7300000023}},{"attributes":{"ID":553384,"DIS_CODE":0,"TOWNNAME":"安平區","LI":"文平里","LIN":"21鄰","STREET":"健康路","SECT":"三段","MAREA":" ","LANE":" ","ALLEY":" ","HOUSE_NO":"２８之８號","E_COORD97":165948.95999999999,"N_COORD97":2542628.0499999998,"ADDRESS":"健康路三段２８之８號","OBJECTID":553357},"geometry":{"x":165948.96000000089,"y":2542628.0500000045}},{"attributes":{"ID":553385,"DIS_CODE":0,"TOWNNAME":"安平區","LI":"文平里","LIN":"21鄰","STREET":"健康路","SECT":"三段","MAREA":" ","LANE":" ","ALLEY":" ","HOUSE_NO":"２８之９號","E_COORD97":165944.82999999999,"N_COORD97":2542630.75,"ADDRESS":"健康路三段２８之９號","OBJECTID":553358},"geometry":{"x":165944.83000000101,"y":2542630.7500000019}},{"attributes":{"ID":553386,"DIS_CODE":0,"TOWNNAME":"安平區","LI":"建平里","LIN":"21鄰","STREET":"怡平路","SECT":" ","MAREA":" ","LANE":" ","ALLEY":" ","HOUSE_NO":"５９號","E_COORD97":166060.51999999999,"N_COORD97":2543713.3799999999,"ADDRESS":"怡平路５９號","OBJECTID":553359},"geometry":{"x":166060.52000000048,"y":2543713.3800000008}},{"attributes":{"ID":553387,"DIS_CODE":0,"TOWNNAME":"安平區","LI":"建平里","LIN":"21鄰","STREET":"怡平路","SECT":" ","MAREA":" ","LANE":" ","ALLEY":" ","HOUSE_NO":"６１號","E_COORD97":166056.06,"N_COORD97":2543714.27,"ADDRESS":"怡平路６１號","OBJECTID":553360},"geometry":{"x":166056.05999999866,"y":2543714.2700000014}},{"attributes":{"ID":553388,"DIS_CODE":0,"TOWNNAME":"安平區","LI":"建平里","LIN":"21鄰","STREET":"怡平路","SECT":" ","MAREA":" ","LANE":" ","ALLEY":" ","HOUSE_NO":"６３號","E_COORD97":166051.75,"N_COORD97":2543715.02,"ADDRESS":"怡平路６３號","OBJECTID":553361},"geometry":{"x":166051.75,"y":2543715.0200000033}},{"attributes":{"ID":553389,"DIS_CODE":0,"TOWNNAME":"安平區","LI":"建平里","LIN":"21鄰","STREET":"怡平路","SECT":" ","MAREA":" ","LANE":" ","ALLEY":" ","HOUSE_NO":"６５號","E_COORD97":166047.29999999999,"N_COORD97":2543715.7599999998,"ADDRESS":"怡平路６５號","OBJECTID":553362},"geometry":{"x":166047.29999999981,"y":2543715.7599999998}},{"attributes":{"ID":553390,"DIS_CODE":0,"TOWNNAME":"南區","LI":"文華里","LIN":"21鄰","STREET":"文南二街","SECT":" ","MAREA":" ","LANE":" ","ALLEY":" ","HOUSE_NO":"２６號","E_COORD97":166894.95000000001,"N_COORD97":2542963.8399999999,"ADDRESS":"文南二街２６號","OBJECTID":553363},"geometry":{"x":166894.95000000205,"y":2542963.839999998}},{"attributes":{"ID":553391,"DIS_CODE":0,"TOWNNAME":"東區","LI":"德高里","LIN":"21鄰","STREET":"崇善路","SECT":" ","MAREA":" ","LANE":" ","ALLEY":" ","HOUSE_NO":"８４１號","E_COORD97":171307.98000000001,"N_COORD97":2540817.1200000001,"ADDRESS":"崇善路８４１號","OBJECTID":553364},"geometry":{"x":171307.98000000138,"y":2540817.1200000048}},{"attributes":{"ID":553392,"DIS_CODE":0,"TOWNNAME":"東區","LI":"德高里","LIN":"21鄰","STREET":"崇善路","SECT":" ","MAREA":" ","LANE":" ","ALLEY":" ","HOUSE_NO":"８４３號","E_COORD97":171310.60000000001,"N_COORD97":2540813.7599999998,"ADDRESS":"崇善路８４３號","OBJECTID":553365},"geometry":{"x":171310.59999999963,"y":2540813.7599999998}},{"attributes":{"ID":553393,"DIS_CODE":0,"TOWNNAME":"東區","LI":"德高里","LIN":"21鄰","STREET":"崇善路","SECT":" ","MAREA":" ","LANE":" ","ALLEY":" ","HOUSE_NO":"８４５號","E_COORD97":171314.07000000001,"N_COORD97":2540810.04,"ADDRESS":"崇善路８４５號","OBJECTID":553366},"geometry":{"x":171314.07000000123,"y":2540810.040000001}},{"attributes":{"ID":553394,"DIS_CODE":0,"TOWNNAME":"東區","LI":"德高里","LIN":"21鄰","STREET":"崇善路","SECT":" ","MAREA":" ","LANE":" ","ALLEY":" ","HOUSE_NO":"８４７號","E_COORD97":171317.23999999999,"N_COORD97":2540806.3199999998,"ADDRESS":"崇善路８４７號","OBJECTID":553367},"geometry":{"x":171317.24000000022,"y":2540806.3200000022}},{"attributes":{"ID":553395,"DIS_CODE":0,"TOWNNAME":"南區","LI":"文南里","LIN":"21鄰","STREET":"健康路","SECT":"二段","MAREA":" ","LANE":" ","ALLEY":" ","HOUSE_NO":"４４７號","E_COORD97":166429.92000000001,"N_COORD97":2542536.46,"ADDRESS":"健康路二段４４７號","OBJECTID":553368},"geometry":{"x":166429.91999999993,"y":2542536.4600000009}},{"attributes":{"ID":553396,"DIS_CODE":0,"TOWNNAME":"南區","LI":"文南里","LIN":"21鄰","STREET":"健康路","SECT":"二段","MAREA":" ","LANE":" ","ALLEY":" ","HOUSE_NO":"４４９號","E_COORD97":166425.42000000001,"N_COORD97":2542537.1899999999,"ADDRESS":"健康路二段４４９號","OBJECTID":553369},"geometry":{"x":166425.42000000179,"y":2542537.1899999976}},{"attributes":{"ID":553397,"DIS_CODE":0,"TOWNNAME":"南區","LI":"文南里","LIN":"21鄰","STREET":"健康路","SECT":"二段","MAREA":" ","LANE":" ","ALLEY":" ","HOUSE_NO":"４５１號","E_COORD97":166421.06,"N_COORD97":2542537.7200000002,"ADDRESS":"健康路二段４５１號","OBJECTID":553370},"geometry":{"x":166421.06000000052,"y":2542537.7200000007}},{"attributes":{"ID":553398,"DIS_CODE":0,"TOWNNAME":"南區","LI":"文南里","LIN":"21鄰","STREET":"健康路","SECT":"二段","MAREA":" ","LANE":" ","ALLEY":" ","HOUSE_NO":"４５３號","E_COORD97":166416.35000000001,"N_COORD97":2542538.3399999999,"ADDRESS":"健康路二段４５３號","OBJECTID":553371},"geometry":{"x":166416.34999999963,"y":2542538.3400000017}},{"attributes":{"ID":553399,"DIS_CODE":0,"TOWNNAME":"南區","LI":"文南里","LIN":"21鄰","STREET":"健康路","SECT":"二段","MAREA":" ","LANE":" ","ALLEY":" ","HOUSE_NO":"４５５號","E_COORD97":166411.63,"N_COORD97":2542539.1400000001,"ADDRESS":"健康路二段４５５號","OBJECTID":553372},"geometry":{"x":166411.62999999989,"y":2542539.1400000043}},{"attributes":{"ID":553400,"DIS_CODE":0,"TOWNNAME":"南區","LI":"文南里","LIN":"21鄰","STREET":"健康路","SECT":"二段","MAREA":" ","LANE":" ","ALLEY":" ","HOUSE_NO":"４５７號","E_COORD97":166407.44,"N_COORD97":2542539.5899999999,"ADDRESS":"健康路二段４５７號","OBJECTID":553373},"geometry":{"x":166407.44000000134,"y":2542539.5900000017}},{"attributes":{"ID":553401,"DIS_CODE":0,"TOWNNAME":"南區","LI":"文南里","LIN":"21鄰","STREET":"健康路","SECT":"二段","MAREA":" ","LANE":" ","ALLEY":" ","HOUSE_NO":"４５９號","E_COORD97":166402.64999999999,"N_COORD97":2542539.9399999999,"ADDRESS":"健康路二段４５９號","OBJECTID":553374},"geometry":{"x":166402.6500000013,"y":2542539.9400000013}},{"attributes":{"ID":553402,"DIS_CODE":0,"TOWNNAME":"南區","LI":"文南里","LIN":"21鄰","STREET":"健康路","SECT":"二段","MAREA":" ","LANE":" ","ALLEY":" ","HOUSE_NO":"４６１號","E_COORD97":166397.92999999999,"N_COORD97":2542540.21,"ADDRESS":"健康路二段４６１號","OBJECTID":553375},"geometry":{"x":166397.93000000156,"y":2542540.2100000028}},{"attributes":{"ID":553403,"DIS_CODE":0,"TOWNNAME":"南區","LI":"文南里","LIN":"21鄰","STREET":"健康路","SECT":"二段","MAREA":" ","LANE":" ","ALLEY":" ","HOUSE_NO":"４７３號","E_COORD97":166365.14000000001,"N_COORD97":2542544.77,"ADDRESS":"健康路二段４７３號","OBJECTID":553376},"geometry":{"x":166365.13999999966,"y":2542544.7700000014}},{"attributes":{"ID":553404,"DIS_CODE":0,"TOWNNAME":"南區","LI":"文南里","LIN":"21鄰","STREET":"健康路","SECT":"二段","MAREA":" ","LANE":" ","ALLEY":" ","HOUSE_NO":"４７５號","E_COORD97":166360.76999999999,"N_COORD97":2542545.3799999999,"ADDRESS":"健康路二段４７５號","OBJECTID":553377},"geometry":{"x":166360.76999999955,"y":2542545.379999999}},{"attributes":{"ID":553405,"DIS_CODE":0,"TOWNNAME":"南區","LI":"文南里","LIN":"21鄰","STREET":"健康路","SECT":"二段","MAREA":" ","LANE":" ","ALLEY":" ","HOUSE_NO":"４７７號","E_COORD97":166356.67999999999,"N_COORD97":2542546.1899999999,"ADDRESS":"健康路二段４７７號","OBJECTID":553378},"geometry":{"x":166356.6799999997,"y":2542546.1899999995}},{"attributes":{"ID":553406,"DIS_CODE":0,"TOWNNAME":"南區","LI":"文南里","LIN":"21鄰","STREET":"健康路","SECT":"二段","MAREA":" ","LANE":" ","ALLEY":" ","HOUSE_NO":"４７９號","E_COORD97":166351.42999999999,"N_COORD97":2542546.6299999999,"ADDRESS":"健康路二段４７９號","OBJECTID":553379},"geometry":{"x":166351.4299999997,"y":2542546.629999999}},{"attributes":{"ID":553407,"DIS_CODE":0,"TOWNNAME":"南區","LI":"文南里","LIN":"21鄰","STREET":"健康路","SECT":"二段","MAREA":" ","LANE":" ","ALLEY":" ","HOUSE_NO":"４８３號","E_COORD97":166343.06,"N_COORD97":2542547.79,"ADDRESS":"健康路二段４８３號","OBJECTID":553380},"geometry":{"x":166343.06000000052,"y":2542547.790000001}},{"attributes":{"ID":553408,"DIS_CODE":0,"TOWNNAME":"東區","LI":"東光里","LIN":"21鄰","STREET":"怡東路","SECT":" ","MAREA":" ","LANE":" ","ALLEY":" ","HOUSE_NO":"１３７號","E_COORD97":170866.79000000001,"N_COORD97":2543803.1600000001,"ADDRESS":"怡東路１３７號","OBJECTID":553381},"geometry":{"x":170866.79000000097,"y":2543803.1600000039}},{"attributes":{"ID":553409,"DIS_CODE":0,"TOWNNAME":"南區","LI":"文南里","LIN":"21鄰","STREET":"健康路","SECT":"二段","MAREA":" ","LANE":" ","ALLEY":" ","HOUSE_NO":"４８５號","E_COORD97":166339.14999999999,"N_COORD97":2542548.3199999998,"ADDRESS":"健康路二段４８５號","OBJECTID":553382},"geometry":{"x":166339.15000000037,"y":2542548.3200000022}},{"attributes":{"ID":553410,"DIS_CODE":0,"TOWNNAME":"永康區","LI":"西勢里","LIN":"21鄰","STREET":"富強路","SECT":"一段","MAREA":" ","LANE":" ","ALLEY":" ","HOUSE_NO":"１０３號","E_COORD97":175487.39000000001,"N_COORD97":2546213.1899999999,"ADDRESS":"富強路一段１０３號","OBJECTID":553383},"geometry":{"x":175487.38999999966,"y":2546213.1900000013}},{"attributes":{"ID":553411,"DIS_CODE":0,"TOWNNAME":"永康區","LI":"西勢里","LIN":"21鄰","STREET":"富強路","SECT":"一段","MAREA":" ","LANE":" ","ALLEY":" ","HOUSE_NO":"１２７號","E_COORD97":175514.14999999999,"N_COORD97":2546260.02,"ADDRESS":"富強路一段１２７號","OBJECTID":553384},"geometry":{"x":175514.1500000013,"y":2546260.0199999996}},{"attributes":{"ID":553412,"DIS_CODE":0,"TOWNNAME":"永康區","LI":"西勢里","LIN":"21鄰","STREET":"富強路","SECT":"一段","MAREA":" ","LANE":" ","ALLEY":" ","HOUSE_NO":"６０號","E_COORD97":175454.17000000001,"N_COORD97":2546099.0299999998,"ADDRESS":"富強路一段６０號","OBJECTID":553385},"geometry":{"x":175454.17000000086,"y":2546099.0300000012}},{"attributes":{"ID":553413,"DIS_CODE":0,"TOWNNAME":"永康區","LI":"西勢里","LIN":"21鄰","STREET":"富強路","SECT":"一段","MAREA":" ","LANE":" ","ALLEY":" ","HOUSE_NO":"３６號","E_COORD97":175423.16,"N_COORD97":2546049.6099999999,"ADDRESS":"富強路一段３６號","OBJECTID":553386},"geometry":{"x":175423.16000000015,"y":2546049.6099999994}},{"attributes":{"ID":553414,"DIS_CODE":0,"TOWNNAME":"永康區","LI":"西勢里","LIN":"21鄰","STREET":"富強路","SECT":"一段","MAREA":" ","LANE":" ","ALLEY":" ","HOUSE_NO":"１７號","E_COORD97":175386.14999999999,"N_COORD97":2546042.27,"ADDRESS":"富強路一段１７號","OBJECTID":553387},"geometry":{"x":175386.15000000037,"y":2546042.2699999996}},{"attributes":{"ID":553415,"DIS_CODE":0,"TOWNNAME":"永康區","LI":"西勢里","LIN":"21鄰","STREET":"富強路","SECT":"一段","MAREA":" ","LANE":" ","ALLEY":" ","HOUSE_NO":"３７號","E_COORD97":175409.92999999999,"N_COORD97":2546082.02,"ADDRESS":"富強路一段３７號","OBJECTID":553388},"geometry":{"x":175409.93000000063,"y":2546082.0200000014}},{"attributes":{"ID":553416,"DIS_CODE":0,"TOWNNAME":"永康區","LI":"永康里","LIN":"21鄰","STREET":"中山南路","SECT":" ","MAREA":" ","LANE":" ","ALLEY":" ","HOUSE_NO":"１０４８號","E_COORD97":173709.73000000001,"N_COORD97":2547292.7000000002,"ADDRESS":"中山南路１０４８號","OBJECTID":553389},"geometry":{"x":173709.73000000231,"y":2547292.6999999993}},{"attributes":{"ID":553417,"DIS_CODE":0,"TOWNNAME":"永康區","LI":"永康里","LIN":"21鄰","STREET":"中山南路","SECT":" ","MAREA":" ","LANE":" ","ALLEY":" ","HOUSE_NO":"９７８號","E_COORD97":173572.92000000001,"N_COORD97":2547202.6299999999,"ADDRESS":"中山南路９７８號","OBJECTID":553390},"geometry":{"x":173572.92000000086,"y":2547202.6300000027}},{"attributes":{"ID":553418,"DIS_CODE":0,"TOWNNAME":"永康區","LI":"永康里","LIN":"21鄰","STREET":"中山南路","SECT":" ","MAREA":" ","LANE":" ","ALLEY":" ","HOUSE_NO":"１０４２號","E_COORD97":173701.41,"N_COORD97":2547287.25,"ADDRESS":"中山南路１０４２號","OBJECTID":553391},"geometry":{"x":173701.41000000201,"y":2547287.2499999981}},{"attributes":{"ID":553419,"DIS_CODE":0,"TOWNNAME":"永康區","LI":"永康里","LIN":"21鄰","STREET":"中山南路","SECT":" ","MAREA":" ","LANE":" ","ALLEY":" ","HOUSE_NO":"１０５０號","E_COORD97":173713.17000000001,"N_COORD97":2547294.9500000002,"ADDRESS":"中山南路１０５０號","OBJECTID":553392},"geometry":{"x":173713.17000000086,"y":2547294.9499999993}},{"attributes":{"ID":553420,"DIS_CODE":0,"TOWNNAME":"永康區","LI":"埔園里","LIN":"21鄰","STREET":"四維街","SECT":" ","MAREA":" ","LANE":" ","ALLEY":" ","HOUSE_NO":"１００號之３","E_COORD97":173376.54000000001,"N_COORD97":2548190.9700000002,"ADDRESS":"四維街１００號之３","OBJECTID":553393},"geometry":{"x":173376.53999999911,"y":2548190.9700000007}},{"attributes":{"ID":553421,"DIS_CODE":0,"TOWNNAME":"東區","LI":"關聖里","LIN":"21鄰","STREET":"裕信路","SECT":" ","MAREA":" ","LANE":" ","ALLEY":" ","HOUSE_NO":"７７號","E_COORD97":172619.82000000001,"N_COORD97":2543065.71,"ADDRESS":"裕信路７７號","OBJECTID":553394},"geometry":{"x":172619.8200000003,"y":2543065.7100000028}},{"attributes":{"ID":553422,"DIS_CODE":0,"TOWNNAME":"東區","LI":"關聖里","LIN":"21鄰","STREET":"裕英街","SECT":" ","MAREA":" ","LANE":" ","ALLEY":" ","HOUSE_NO":"２３５號","E_COORD97":172801.04999999999,"N_COORD97":2543027.0800000001,"ADDRESS":"裕英街２３５號","OBJECTID":553395},"geometry":{"x":172801.04999999981,"y":2543027.0800000038}},{"attributes":{"ID":553423,"DIS_CODE":0,"TOWNNAME":"仁德區","LI":"仁義里","LIN":"21鄰","STREET":"中山路","SECT":" ","MAREA":" ","LANE":" ","ALLEY":" ","HOUSE_NO":"３５８號","E_COORD97":173874.92999999999,"N_COORD97":2541272.75,"ADDRESS":"中山路３５８號","OBJECTID":553396},"geometry":{"x":173874.9299999997,"y":2541272.7499999981}},{"attributes":{"ID":553424,"DIS_CODE":0,"TOWNNAME":"東區","LI":"關聖里","LIN":"21鄰","STREET":"裕英街","SECT":" ","MAREA":" ","LANE":" ","ALLEY":" ","HOUSE_NO":"２３７號","E_COORD97":172805.47,"N_COORD97":2543027.7400000002,"ADDRESS":"裕英街２３７號","OBJECTID":553397},"geometry":{"x":172805.4700000016,"y":2543027.7400000021}},{"attributes":{"ID":553425,"DIS_CODE":0,"TOWNNAME":"善化區","LI":"胡厝里","LIN":"21鄰","STREET":"興農路","SECT":" ","MAREA":" ","LANE":" ","ALLEY":" ","HOUSE_NO":"４０６號","E_COORD97":175375.28,"N_COORD97":2558997.2599999998,"ADDRESS":"興農路４０６號","OBJECTID":553398},"geometry":{"x":175375.28000000026,"y":2558997.2599999998}},{"attributes":{"ID":553426,"DIS_CODE":0,"TOWNNAME":"安南區","LI":"梅花里","LIN":"21鄰","STREET":"同安路","SECT":" ","MAREA":" ","LANE":" ","ALLEY":" ","HOUSE_NO":"２９６號","E_COORD97":167224.67000000001,"N_COORD97":2549201.4300000002,"ADDRESS":"同安路２９６號","OBJECTID":553399},"geometry":{"x":167224.66999999993,"y":2549201.4300000034}},{"attributes":{"ID":553427,"DIS_CODE":0,"TOWNNAME":"安南區","LI":"梅花里","LIN":"21鄰","STREET":"同安路","SECT":" ","MAREA":" ","LANE":" ","ALLEY":" ","HOUSE_NO":"３０６號","E_COORD97":167235.89999999999,"N_COORD97":2549218.5600000001,"ADDRESS":"同安路３０６號","OBJECTID":553400},"geometry":{"x":167235.90000000037,"y":2549218.5600000042}}]}