{"displayFieldName":"TOWNNAME","fieldAliases":{"ID":"ID","DIS_CODE":"DIS_CODE","TOWNNAME":"TOWNNAME","LI":"LI","LIN":"LIN","STREET":"STREET","SECT":"SECT","MAREA":"MAREA","LANE":"LANE","ALLEY":"ALLEY","HOUSE_NO":"HOUSE_NO","E_COORD97":"E_COORD97","N_COORD97":"N_COORD97","ADDRESS":"ADDRESS","OBJECTID":"OBJECTID"},"geometryType":"esriGeometryPoint","spatialReference":{"wkid":102443,"latestWkid":3826},"fields":[{"name":"ID","type":"esriFieldTypeDouble","alias":"ID"},{"name":"DIS_CODE","type":"esriFieldTypeInteger","alias":"DIS_CODE"},{"name":"TOWNNAME","type":"esriFieldTypeString","alias":"TOWNNAME","length":8},{"name":"LI","type":"esriFieldTypeString","alias":"LI","length":8},{"name":"LIN","type":"esriFieldTypeString","alias":"LIN","length":12},{"name":"STREET","type":"esriFieldTypeString","alias":"STREET","length":20},{"name":"SECT","type":"esriFieldTypeString","alias":"SECT","length":8},{"name":"MAREA","type":"esriFieldTypeString","alias":"MAREA","length":12},{"name":"LANE","type":"esriFieldTypeString","alias":"LANE","length":10},{"name":"ALLEY","type":"esriFieldTypeString","alias":"ALLEY","length":10},{"name":"HOUSE_NO","type":"esriFieldTypeString","alias":"HOUSE_NO","length":20},{"name":"E_COORD97","type":"esriFieldTypeDouble","alias":"E_COORD97"},{"name":"N_COORD97","type":"esriFieldTypeDouble","alias":"N_COORD97"},{"name":"ADDRESS","type":"esriFieldTypeString","alias":"ADDRESS","length":50},{"name":"OBJECTID","type":"esriFieldTypeOID","alias":"OBJECTID"}],"features":[{"attributes":{"ID":339210,"DIS_CODE":0,"TOWNNAME":"歸仁區","LI":"七甲里","LIN":"1鄰","STREET":"七甲五街","SECT":" ","MAREA":" ","LANE":"９１巷","ALLEY":" ","HOUSE_NO":"８號","E_COORD97":177150.29999999999,"N_COORD97":2542596.9300000002,"ADDRESS":"七甲五街９１巷８號","OBJECTID":339201},"geometry":{"x":177150.30000000075,"y":2542596.9300000034}},{"attributes":{"ID":339211,"DIS_CODE":0,"TOWNNAME":"歸仁區","LI":"西埔里","LIN":"1鄰","STREET":"西埔三街","SECT":" ","MAREA":" ","LANE":"７３巷","ALLEY":" ","HOUSE_NO":"７３號","E_COORD97":176970.79000000001,"N_COORD97":2543934.25,"ADDRESS":"西埔三街７３巷７３號","OBJECTID":339202},"geometry":{"x":176970.79000000097,"y":2543934.2499999981}},{"attributes":{"ID":339212,"DIS_CODE":0,"TOWNNAME":"歸仁區","LI":"大廟里","LIN":"1鄰","STREET":"大廟二街","SECT":" ","MAREA":" ","LANE":"４５巷","ALLEY":" ","HOUSE_NO":"３號","E_COORD97":175991.09,"N_COORD97":2544008.8900000001,"ADDRESS":"大廟二街４５巷３號","OBJECTID":339203},"geometry":{"x":175991.08999999985,"y":2544008.8900000043}},{"attributes":{"ID":339213,"DIS_CODE":0,"TOWNNAME":"歸仁區","LI":"大廟里","LIN":"1鄰","STREET":"大廟二街","SECT":" ","MAREA":" ","LANE":"５７巷","ALLEY":" ","HOUSE_NO":"５號","E_COORD97":176013.39000000001,"N_COORD97":2543965.8900000001,"ADDRESS":"大廟二街５７巷５號","OBJECTID":339204},"geometry":{"x":176013.39000000153,"y":2543965.8900000025}},{"attributes":{"ID":339214,"DIS_CODE":0,"TOWNNAME":"歸仁區","LI":"文化里","LIN":"1鄰","STREET":"中正北路","SECT":"一段","MAREA":" ","LANE":"１１３巷","ALLEY":" ","HOUSE_NO":"５號","E_COORD97":177685.66,"N_COORD97":2541252.25,"ADDRESS":"中正北路一段１１３巷５號","OBJECTID":339205},"geometry":{"x":177685.66000000108,"y":2541252.25}},{"attributes":{"ID":339215,"DIS_CODE":0,"TOWNNAME":"歸仁區","LI":"大潭里","LIN":"1鄰","STREET":"中正南路","SECT":"三段","MAREA":" ","LANE":"９５巷","ALLEY":" ","HOUSE_NO":"２３號","E_COORD97":175355.31,"N_COORD97":2535014.2799999998,"ADDRESS":"中正南路三段９５巷２３號","OBJECTID":339206},"geometry":{"x":175355.30999999959,"y":2535014.2800000012}},{"attributes":{"ID":339216,"DIS_CODE":0,"TOWNNAME":"永康區","LI":"南灣里","LIN":" ","STREET":"南興路","SECT":" ","MAREA":" ","LANE":"１１２巷","ALLEY":" ","HOUSE_NO":"９之１號","E_COORD97":174337.89999999999,"N_COORD97":2544491.4900000002,"ADDRESS":"南興路１１２巷９之１號","OBJECTID":339207},"geometry":{"x":174337.9000000013,"y":2544491.4900000002}},{"attributes":{"ID":339217,"DIS_CODE":0,"TOWNNAME":"歸仁區","LI":"大廟里","LIN":"1鄰","STREET":"大廟二街","SECT":" ","MAREA":" ","LANE":"４５巷","ALLEY":" ","HOUSE_NO":"１４號","E_COORD97":176028.92000000001,"N_COORD97":2543990.25,"ADDRESS":"大廟二街４５巷１４號","OBJECTID":339208},"geometry":{"x":176028.92000000086,"y":2543990.2500000019}},{"attributes":{"ID":339218,"DIS_CODE":0,"TOWNNAME":"中西區","LI":"赤嵌里","LIN":"8鄰","STREET":"公園路","SECT":" ","MAREA":" ","LANE":" ","ALLEY":" ","HOUSE_NO":"１０４號","E_COORD97":168690.5,"N_COORD97":2544226.0099999998,"ADDRESS":"公園路１０４號","OBJECTID":339209},"geometry":{"x":168690.5,"y":2544226.0099999998}},{"attributes":{"ID":339219,"DIS_CODE":0,"TOWNNAME":"中西區","LI":"赤嵌里","LIN":"8鄰","STREET":"公園路","SECT":" ","MAREA":" ","LANE":" ","ALLEY":" ","HOUSE_NO":"１０８號","E_COORD97":168693.47,"N_COORD97":2544234.2599999998,"ADDRESS":"公園路１０８號","OBJECTID":339210},"geometry":{"x":168693.47000000067,"y":2544234.2599999998}},{"attributes":{"ID":339220,"DIS_CODE":0,"TOWNNAME":"歸仁區","LI":"大潭里","LIN":"1鄰","STREET":"中正南路","SECT":"三段","MAREA":" ","LANE":"５１巷","ALLEY":" ","HOUSE_NO":"１９號","E_COORD97":175343.10999999999,"N_COORD97":2535038.2799999998,"ADDRESS":"中正南路三段５１巷１９號","OBJECTID":339211},"geometry":{"x":175343.11000000127,"y":2535038.2800000012}},{"attributes":{"ID":339221,"DIS_CODE":0,"TOWNNAME":"歸仁區","LI":"大廟里","LIN":"1鄰","STREET":"大廟二街","SECT":" ","MAREA":" ","LANE":"４５巷","ALLEY":" ","HOUSE_NO":"１３號","E_COORD97":176035.56,"N_COORD97":2544009.8900000001,"ADDRESS":"大廟二街４５巷１３號","OBJECTID":339212},"geometry":{"x":176035.55999999959,"y":2544009.8900000025}},{"attributes":{"ID":339222,"DIS_CODE":0,"TOWNNAME":"歸仁區","LI":"大潭里","LIN":"1鄰","STREET":"中正南路","SECT":"三段","MAREA":" ","LANE":"５１巷","ALLEY":" ","HOUSE_NO":"１８號","E_COORD97":175331.81,"N_COORD97":2535034.2799999998,"ADDRESS":"中正南路三段５１巷１８號","OBJECTID":339213},"geometry":{"x":175331.80999999959,"y":2535034.2800000012}},{"attributes":{"ID":339223,"DIS_CODE":0,"TOWNNAME":"歸仁區","LI":"七甲里","LIN":"1鄰","STREET":"中正北路","SECT":"二段","MAREA":" ","LANE":"７５巷","ALLEY":" ","HOUSE_NO":"３２號","E_COORD97":177530.66,"N_COORD97":2542295.25,"ADDRESS":"中正北路二段７５巷３２號","OBJECTID":339214},"geometry":{"x":177530.66000000015,"y":2542295.25}},{"attributes":{"ID":339224,"DIS_CODE":0,"TOWNNAME":"歸仁區","LI":"大廟里","LIN":"1鄰","STREET":"大廟三街","SECT":" ","MAREA":" ","LANE":"２０巷","ALLEY":" ","HOUSE_NO":"２４號","E_COORD97":176056.42000000001,"N_COORD97":2543966.25,"ADDRESS":"大廟三街２０巷２４號","OBJECTID":339215},"geometry":{"x":176056.42000000086,"y":2543966.2500000019}},{"attributes":{"ID":339225,"DIS_CODE":0,"TOWNNAME":"歸仁區","LI":"大潭里","LIN":"1鄰","STREET":"中正南路","SECT":"三段","MAREA":" ","LANE":"９５巷","ALLEY":" ","HOUSE_NO":"２１號","E_COORD97":175351.20999999999,"N_COORD97":2535012.2799999998,"ADDRESS":"中正南路三段９５巷２１號","OBJECTID":339216},"geometry":{"x":175351.20999999996,"y":2535012.2799999993}},{"attributes":{"ID":339226,"DIS_CODE":0,"TOWNNAME":"歸仁區","LI":"大廟里","LIN":"1鄰","STREET":"大廟二街","SECT":" ","MAREA":" ","LANE":"４５巷","ALLEY":" ","HOUSE_NO":"７號","E_COORD97":176023.01000000001,"N_COORD97":2544008.8900000001,"ADDRESS":"大廟二街４５巷７號","OBJECTID":339217},"geometry":{"x":176023.01000000071,"y":2544008.8900000043}},{"attributes":{"ID":339227,"DIS_CODE":0,"TOWNNAME":"歸仁區","LI":"大廟里","LIN":"1鄰","STREET":"大廟二街","SECT":" ","MAREA":" ","LANE":"４５巷","ALLEY":" ","HOUSE_NO":"２１號","E_COORD97":176001.66,"N_COORD97":2544003.8900000001,"ADDRESS":"大廟二街４５巷２１號","OBJECTID":339218},"geometry":{"x":176001.65999999922,"y":2544003.8900000006}},{"attributes":{"ID":339228,"DIS_CODE":0,"TOWNNAME":"北區","LI":"公園里","LIN":"18鄰","STREET":"成功路","SECT":" ","MAREA":" ","LANE":"４０巷","ALLEY":" ","HOUSE_NO":"１９號","E_COORD97":168857.29000000001,"N_COORD97":2544405.0099999998,"ADDRESS":"成功路４０巷１９號","OBJECTID":339219},"geometry":{"x":168857.2900000019,"y":2544405.0100000016}},{"attributes":{"ID":339229,"DIS_CODE":0,"TOWNNAME":"歸仁區","LI":"大潭里","LIN":"1鄰","STREET":"中正南路","SECT":"三段","MAREA":" ","LANE":"９５巷","ALLEY":" ","HOUSE_NO":"５０號","E_COORD97":175438.31,"N_COORD97":2535004.2799999998,"ADDRESS":"中正南路三段９５巷５０號","OBJECTID":339220},"geometry":{"x":175438.30999999959,"y":2535004.2800000012}},{"attributes":{"ID":339230,"DIS_CODE":0,"TOWNNAME":"歸仁區","LI":"大廟里","LIN":"1鄰","STREET":"大廟二街","SECT":" ","MAREA":" ","LANE":"５７巷","ALLEY":" ","HOUSE_NO":"１５號","E_COORD97":176043.34,"N_COORD97":2543974.8900000001,"ADDRESS":"大廟二街５７巷１５號","OBJECTID":339221},"geometry":{"x":176043.34000000078,"y":2543974.8900000043}},{"attributes":{"ID":339231,"DIS_CODE":0,"TOWNNAME":"北區","LI":"和順里","LIN":"1鄰","STREET":"民德路","SECT":" ","MAREA":" ","LANE":"９０巷","ALLEY":" ","HOUSE_NO":"３７號","E_COORD97":168053.85999999999,"N_COORD97":2545344.0699999998,"ADDRESS":"民德路９０巷３７號","OBJECTID":339222},"geometry":{"x":168053.86000000127,"y":2545344.0700000022}},{"attributes":{"ID":339232,"DIS_CODE":0,"TOWNNAME":"北區","LI":"正覺里","LIN":"1鄰","STREET":"公園路","SECT":" ","MAREA":" ","LANE":"５９３巷","ALLEY":" ","HOUSE_NO":"２２號","E_COORD97":169098.88599400001,"N_COORD97":2546016.5466499999,"ADDRESS":"公園路５９３巷２２號","OBJECTID":339223},"geometry":{"x":169098.88599400036,"y":2546016.5466490015}},{"attributes":{"ID":339233,"DIS_CODE":0,"TOWNNAME":"北區","LI":"和順里","LIN":"1鄰","STREET":"育德二路","SECT":" ","MAREA":" ","LANE":"５１巷","ALLEY":" ","HOUSE_NO":"１１號","E_COORD97":168183.85000000001,"N_COORD97":2545354.9900000002,"ADDRESS":"育德二路５１巷１１號","OBJECTID":339224},"geometry":{"x":168183.85000000056,"y":2545354.9900000021}},{"attributes":{"ID":339234,"DIS_CODE":0,"TOWNNAME":"北區","LI":"和順里","LIN":"1鄰","STREET":"育德二路","SECT":" ","MAREA":" ","LANE":"５１巷","ALLEY":" ","HOUSE_NO":"１３號","E_COORD97":168177.34,"N_COORD97":2545354.9900000002,"ADDRESS":"育德二路５１巷１３號","OBJECTID":339225},"geometry":{"x":168177.34000000078,"y":2545354.9900000021}},{"attributes":{"ID":339235,"DIS_CODE":0,"TOWNNAME":"永康區","LI":"復華里","LIN":"5鄰","STREET":"國華街","SECT":" ","MAREA":" ","LANE":"１０２巷","ALLEY":" ","HOUSE_NO":"８８號十一樓之１","E_COORD97":172990.26999999999,"N_COORD97":2546133.2799999998,"ADDRESS":"國華街１０２巷８８號十一樓之１","OBJECTID":339226},"geometry":{"x":172990.27000000048,"y":2546133.2799999993}},{"attributes":{"ID":339236,"DIS_CODE":0,"TOWNNAME":"中西區","LI":"永華里","LIN":"5鄰","STREET":"府前路","SECT":"一段","MAREA":" ","LANE":"１９６巷","ALLEY":" ","HOUSE_NO":"１８號二樓之４","E_COORD97":168529.79000000001,"N_COORD97":2543362.1000000001,"ADDRESS":"府前路一段１９６巷１８號二樓之４","OBJECTID":339227},"geometry":{"x":168529.79000000004,"y":2543362.1000000034}},{"attributes":{"ID":339237,"DIS_CODE":0,"TOWNNAME":"中西區","LI":"永華里","LIN":"5鄰","STREET":"府前路","SECT":"一段","MAREA":" ","LANE":"１９６巷","ALLEY":" ","HOUSE_NO":"１８號三樓之１","E_COORD97":168529.79000000001,"N_COORD97":2543362.1000000001,"ADDRESS":"府前路一段１９６巷１８號三樓之１","OBJECTID":339228},"geometry":{"x":168529.79000000004,"y":2543362.1000000034}},{"attributes":{"ID":339238,"DIS_CODE":0,"TOWNNAME":"中西區","LI":"永華里","LIN":"5鄰","STREET":"府前路","SECT":"一段","MAREA":" ","LANE":"１９６巷","ALLEY":" ","HOUSE_NO":"１８號三樓之２","E_COORD97":168529.79000000001,"N_COORD97":2543362.1000000001,"ADDRESS":"府前路一段１９６巷１８號三樓之２","OBJECTID":339229},"geometry":{"x":168529.79000000004,"y":2543362.1000000034}},{"attributes":{"ID":339239,"DIS_CODE":0,"TOWNNAME":"北區","LI":"和順里","LIN":"1鄰","STREET":"育德二路","SECT":" ","MAREA":" ","LANE":"５１巷","ALLEY":" ","HOUSE_NO":"１５號","E_COORD97":168171.87,"N_COORD97":2545354.73,"ADDRESS":"育德二路５１巷１５號","OBJECTID":339230},"geometry":{"x":168171.87000000197,"y":2545354.7300000004}},{"attributes":{"ID":339240,"DIS_CODE":0,"TOWNNAME":"北區","LI":"和順里","LIN":"1鄰","STREET":"育德二路","SECT":" ","MAREA":" ","LANE":"５１巷","ALLEY":" ","HOUSE_NO":"１號","E_COORD97":168213.81,"N_COORD97":2545355.5099999998,"ADDRESS":"育德二路５１巷１號","OBJECTID":339231},"geometry":{"x":168213.80999999959,"y":2545355.5099999998}},{"attributes":{"ID":339241,"DIS_CODE":0,"TOWNNAME":"北區","LI":"和順里","LIN":"1鄰","STREET":"育德二路","SECT":" ","MAREA":" ","LANE":"５１巷","ALLEY":" ","HOUSE_NO":"３號","E_COORD97":168207.29000000001,"N_COORD97":2545354.9900000002,"ADDRESS":"育德二路５１巷３號","OBJECTID":339232},"geometry":{"x":168207.29000000004,"y":2545354.9900000021}},{"attributes":{"ID":339242,"DIS_CODE":0,"TOWNNAME":"北區","LI":"和順里","LIN":"1鄰","STREET":"育德二路","SECT":" ","MAREA":" ","LANE":"５１巷","ALLEY":" ","HOUSE_NO":"５１號","E_COORD97":168086.20999999999,"N_COORD97":2545353.48,"ADDRESS":"育德二路５１巷５１號","OBJECTID":339233},"geometry":{"x":168086.20999999996,"y":2545353.4800000004}},{"attributes":{"ID":339243,"DIS_CODE":0,"TOWNNAME":"北區","LI":"和順里","LIN":"1鄰","STREET":"育德二路","SECT":" ","MAREA":" ","LANE":"５１巷","ALLEY":" ","HOUSE_NO":"５號","E_COORD97":168202.07999999999,"N_COORD97":2545355.25,"ADDRESS":"育德二路５１巷５號","OBJECTID":339234},"geometry":{"x":168202.08000000007,"y":2545355.2500000019}},{"attributes":{"ID":339244,"DIS_CODE":0,"TOWNNAME":"北區","LI":"和順里","LIN":"1鄰","STREET":"育德二路","SECT":" ","MAREA":" ","LANE":"５１巷","ALLEY":" ","HOUSE_NO":"７號","E_COORD97":168195.57000000001,"N_COORD97":2545354.9900000002,"ADDRESS":"育德二路５１巷７號","OBJECTID":339235},"geometry":{"x":168195.5700000003,"y":2545354.9900000021}},{"attributes":{"ID":339245,"DIS_CODE":0,"TOWNNAME":"北區","LI":"和順里","LIN":"1鄰","STREET":"育德二路","SECT":" ","MAREA":" ","LANE":"５１巷","ALLEY":" ","HOUSE_NO":"９號","E_COORD97":168189.57999999999,"N_COORD97":2545354.73,"ADDRESS":"育德二路５１巷９號","OBJECTID":339236},"geometry":{"x":168189.58000000101,"y":2545354.7300000004}},{"attributes":{"ID":339246,"DIS_CODE":0,"TOWNNAME":"北區","LI":"文元里","LIN":"1鄰","STREET":"文賢路","SECT":" ","MAREA":" ","LANE":"１１２２巷","ALLEY":" ","HOUSE_NO":"２１５號","E_COORD97":167907.81,"N_COORD97":2546476.04,"ADDRESS":"文賢路１１２２巷２１５號","OBJECTID":339237},"geometry":{"x":167907.81000000052,"y":2546476.0399999991}},{"attributes":{"ID":339247,"DIS_CODE":0,"TOWNNAME":"北區","LI":"文元里","LIN":"1鄰","STREET":"文賢路","SECT":" ","MAREA":" ","LANE":"１１２２巷","ALLEY":" ","HOUSE_NO":"２１７號","E_COORD97":167912.92000000001,"N_COORD97":2546477.6699999999,"ADDRESS":"文賢路１１２２巷２１７號","OBJECTID":339238},"geometry":{"x":167912.91999999993,"y":2546477.6700000037}},{"attributes":{"ID":339248,"DIS_CODE":0,"TOWNNAME":"北區","LI":"文元里","LIN":"1鄰","STREET":"文賢路","SECT":" ","MAREA":" ","LANE":"１１２２巷","ALLEY":" ","HOUSE_NO":"２１９號","E_COORD97":167917.79999999999,"N_COORD97":2546475.8100000001,"ADDRESS":"文賢路１１２２巷２１９號","OBJECTID":339239},"geometry":{"x":167917.80000000168,"y":2546475.8100000005}},{"attributes":{"ID":339249,"DIS_CODE":0,"TOWNNAME":"北區","LI":"文元里","LIN":"1鄰","STREET":"文賢路","SECT":" ","MAREA":" ","LANE":"１１２２巷","ALLEY":" ","HOUSE_NO":"２２１號","E_COORD97":167922.45000000001,"N_COORD97":2546478.3599999999,"ADDRESS":"文賢路１１２２巷２２１號","OBJECTID":339240},"geometry":{"x":167922.45000000112,"y":2546478.3599999994}},{"attributes":{"ID":339250,"DIS_CODE":0,"TOWNNAME":"柳營區","LI":"光福里","LIN":"1鄰","STREET":"建利街","SECT":" ","MAREA":" ","LANE":"２３巷","ALLEY":" ","HOUSE_NO":"１號","E_COORD97":179737.47,"N_COORD97":2575033.5699999998,"ADDRESS":"建利街２３巷１號","OBJECTID":339241},"geometry":{"x":179737.47000000067,"y":2575033.5700000022}},{"attributes":{"ID":339251,"DIS_CODE":0,"TOWNNAME":"柳營區","LI":"光福里","LIN":"1鄰","STREET":"建利街","SECT":" ","MAREA":" ","LANE":"９巷","ALLEY":" ","HOUSE_NO":"２號","E_COORD97":179733.82000000001,"N_COORD97":2575022.3399999999,"ADDRESS":"建利街９巷２號","OBJECTID":339242},"geometry":{"x":179733.82000000123,"y":2575022.3399999999}},{"attributes":{"ID":339252,"DIS_CODE":0,"TOWNNAME":"中西區","LI":"赤嵌里","LIN":"8鄰","STREET":"公園路","SECT":" ","MAREA":" ","LANE":" ","ALLEY":" ","HOUSE_NO":"１０６號","E_COORD97":168692.48000000001,"N_COORD97":2544229.9700000002,"ADDRESS":"公園路１０６號","OBJECTID":339243},"geometry":{"x":168692.48000000138,"y":2544229.9700000025}},{"attributes":{"ID":339253,"DIS_CODE":0,"TOWNNAME":"中西區","LI":"赤嵌里","LIN":"8鄰","STREET":"公園路","SECT":" ","MAREA":" ","LANE":" ","ALLEY":" ","HOUSE_NO":"１２０號之１０","E_COORD97":168703.06,"N_COORD97":2544253.3999999999,"ADDRESS":"公園路１２０號之１０","OBJECTID":339244},"geometry":{"x":168703.06000000052,"y":2544253.4000000022}},{"attributes":{"ID":339254,"DIS_CODE":0,"TOWNNAME":"中西區","LI":"赤嵌里","LIN":"8鄰","STREET":"公園路","SECT":" ","MAREA":" ","LANE":" ","ALLEY":" ","HOUSE_NO":"１２０號之１１","E_COORD97":168704.38,"N_COORD97":2544257.3599999999,"ADDRESS":"公園路１２０號之１１","OBJECTID":339245},"geometry":{"x":168704.38000000082,"y":2544257.3599999994}},{"attributes":{"ID":339255,"DIS_CODE":0,"TOWNNAME":"柳營區","LI":"光福里","LIN":"1鄰","STREET":"建利街","SECT":" ","MAREA":" ","LANE":"９巷","ALLEY":" ","HOUSE_NO":"８號","E_COORD97":179724.78,"N_COORD97":2575012.6299999999,"ADDRESS":"建利街９巷８號","OBJECTID":339246},"geometry":{"x":179724.78000000026,"y":2575012.629999999}},{"attributes":{"ID":339256,"DIS_CODE":0,"TOWNNAME":"柳營區","LI":"人和里","LIN":"1鄰","STREET":"界和路","SECT":" ","MAREA":" ","LANE":"１４０巷","ALLEY":" ","HOUSE_NO":"２號","E_COORD97":178666.47,"N_COORD97":2576225.3900000001,"ADDRESS":"界和路１４０巷２號","OBJECTID":339247},"geometry":{"x":178666.47000000067,"y":2576225.3900000025}},{"attributes":{"ID":339257,"DIS_CODE":0,"TOWNNAME":"柳營區","LI":"人和里","LIN":"1鄰","STREET":"界和路","SECT":" ","MAREA":" ","LANE":"１４０巷","ALLEY":" ","HOUSE_NO":"６１號","E_COORD97":178585.81,"N_COORD97":2576266.2999999998,"ADDRESS":"界和路１４０巷６１號","OBJECTID":339248},"geometry":{"x":178585.81000000052,"y":2576266.3000000026}},{"attributes":{"ID":339258,"DIS_CODE":0,"TOWNNAME":"柳營區","LI":"人和里","LIN":"1鄰","STREET":"界和路","SECT":" ","MAREA":" ","LANE":"１４０巷","ALLEY":" ","HOUSE_NO":"７８號","E_COORD97":178562.14000000001,"N_COORD97":2576308.6099999999,"ADDRESS":"界和路１４０巷７８號","OBJECTID":339249},"geometry":{"x":178562.13999999966,"y":2576308.6099999994}},{"attributes":{"ID":339259,"DIS_CODE":0,"TOWNNAME":"柳營區","LI":"人和里","LIN":"1鄰","STREET":"界和路","SECT":" ","MAREA":" ","LANE":"１４０巷","ALLEY":" ","HOUSE_NO":"８０號","E_COORD97":178558.56,"N_COORD97":2576308.8700000001,"ADDRESS":"界和路１４０巷８０號","OBJECTID":339250},"geometry":{"x":178558.56000000052,"y":2576308.870000001}},{"attributes":{"ID":339260,"DIS_CODE":0,"TOWNNAME":"柳營區","LI":"人和里","LIN":"1鄰","STREET":"界和路","SECT":" ","MAREA":" ","LANE":"１４０巷","ALLEY":" ","HOUSE_NO":"８２號","E_COORD97":178554.98000000001,"N_COORD97":2576309.5899999999,"ADDRESS":"界和路１４０巷８２號","OBJECTID":339251},"geometry":{"x":178554.98000000138,"y":2576309.5899999999}},{"attributes":{"ID":339261,"DIS_CODE":0,"TOWNNAME":"柳營區","LI":"人和里","LIN":"1鄰","STREET":"界和路","SECT":" ","MAREA":" ","LANE":"１４０巷","ALLEY":" ","HOUSE_NO":"８６號","E_COORD97":178551.32999999999,"N_COORD97":2576309.96,"ADDRESS":"界和路１４０巷８６號","OBJECTID":339252},"geometry":{"x":178551.33000000007,"y":2576309.9600000028}},{"attributes":{"ID":339262,"DIS_CODE":0,"TOWNNAME":"柳營區","LI":"人和里","LIN":"1鄰","STREET":"界和路","SECT":" ","MAREA":" ","LANE":"１４０巷","ALLEY":" ","HOUSE_NO":"９０號","E_COORD97":178536.66,"N_COORD97":2576313.75,"ADDRESS":"界和路１４０巷９０號","OBJECTID":339253},"geometry":{"x":178536.66000000108,"y":2576313.7500000019}},{"attributes":{"ID":339263,"DIS_CODE":0,"TOWNNAME":"柳營區","LI":"大農里","LIN":"1鄰","STREET":"義士路","SECT":"一段","MAREA":" ","LANE":"２６２巷","ALLEY":" ","HOUSE_NO":"２２號","E_COORD97":186362.29000000001,"N_COORD97":2575857.7999999998,"ADDRESS":"義士路一段２６２巷２２號","OBJECTID":339254},"geometry":{"x":186362.29000000097,"y":2575857.8000000007}},{"attributes":{"ID":339264,"DIS_CODE":0,"TOWNNAME":"北區","LI":"實踐里","LIN":"1鄰","STREET":"實踐街","SECT":" ","MAREA":" ","LANE":"８２巷","ALLEY":" ","HOUSE_NO":"１５號","E_COORD97":169955.95000000001,"N_COORD97":2545955.6899999999,"ADDRESS":"實踐街８２巷１５號","OBJECTID":339255},"geometry":{"x":169955.95000000019,"y":2545955.6900000013}},{"attributes":{"ID":339265,"DIS_CODE":0,"TOWNNAME":"北區","LI":"實踐里","LIN":"1鄰","STREET":"實踐街","SECT":" ","MAREA":" ","LANE":"８２巷","ALLEY":" ","HOUSE_NO":"１６號","E_COORD97":169934.45000000001,"N_COORD97":2545967.6299999999,"ADDRESS":"實踐街８２巷１６號","OBJECTID":339256},"geometry":{"x":169934.45000000205,"y":2545967.629999999}},{"attributes":{"ID":339266,"DIS_CODE":0,"TOWNNAME":"北區","LI":"實踐里","LIN":"1鄰","STREET":"實踐街","SECT":" ","MAREA":" ","LANE":"８２巷","ALLEY":" ","HOUSE_NO":"１７號","E_COORD97":169955.45999999999,"N_COORD97":2545951.27,"ADDRESS":"實踐街８２巷１７號","OBJECTID":339257},"geometry":{"x":169955.45999999996,"y":2545951.2700000033}},{"attributes":{"ID":339267,"DIS_CODE":0,"TOWNNAME":"北區","LI":"實踐里","LIN":"1鄰","STREET":"實踐街","SECT":" ","MAREA":" ","LANE":"８２巷","ALLEY":" ","HOUSE_NO":"１８號","E_COORD97":169916.35000000001,"N_COORD97":2545996.23,"ADDRESS":"實踐街８２巷１８號","OBJECTID":339258},"geometry":{"x":169916.35000000056,"y":2545996.2300000042}},{"attributes":{"ID":339268,"DIS_CODE":0,"TOWNNAME":"北區","LI":"實踐里","LIN":"1鄰","STREET":"實踐街","SECT":" ","MAREA":" ","LANE":"８２巷","ALLEY":" ","HOUSE_NO":"１９號","E_COORD97":169955.56,"N_COORD97":2545946.9500000002,"ADDRESS":"實踐街８２巷１９號","OBJECTID":339259},"geometry":{"x":169955.56000000052,"y":2545946.9500000011}},{"attributes":{"ID":339269,"DIS_CODE":0,"TOWNNAME":"北區","LI":"實踐里","LIN":"1鄰","STREET":"實踐街","SECT":" ","MAREA":" ","LANE":"８２巷","ALLEY":" ","HOUSE_NO":"１號","E_COORD97":169959.10000000001,"N_COORD97":2545987.5800000001,"ADDRESS":"實踐街８２巷１號","OBJECTID":339260},"geometry":{"x":169959.10000000056,"y":2545987.5800000019}},{"attributes":{"ID":339270,"DIS_CODE":0,"TOWNNAME":"北區","LI":"實踐里","LIN":"1鄰","STREET":"實踐街","SECT":" ","MAREA":" ","LANE":"８２巷","ALLEY":" ","HOUSE_NO":"２０號","E_COORD97":169915.45999999999,"N_COORD97":2545992.3900000001,"ADDRESS":"實踐街８２巷２０號","OBJECTID":339261},"geometry":{"x":169915.46000000183,"y":2545992.3900000025}},{"attributes":{"ID":339271,"DIS_CODE":0,"TOWNNAME":"北區","LI":"實踐里","LIN":"1鄰","STREET":"實踐街","SECT":" ","MAREA":" ","LANE":"８２巷","ALLEY":" ","HOUSE_NO":"２１號","E_COORD97":169955.66,"N_COORD97":2545942.52,"ADDRESS":"實踐街８２巷２１號","OBJECTID":339262},"geometry":{"x":169955.66000000108,"y":2545942.5200000033}},{"attributes":{"ID":339272,"DIS_CODE":0,"TOWNNAME":"北區","LI":"實踐里","LIN":"1鄰","STREET":"實踐街","SECT":" ","MAREA":" ","LANE":"８２巷","ALLEY":" ","HOUSE_NO":"２２號","E_COORD97":169915.66,"N_COORD97":2545988.46,"ADDRESS":"實踐街８２巷２２號","OBJECTID":339263},"geometry":{"x":169915.66000000015,"y":2545988.4600000046}},{"attributes":{"ID":339273,"DIS_CODE":0,"TOWNNAME":"北區","LI":"實踐里","LIN":"1鄰","STREET":"實踐街","SECT":" ","MAREA":" ","LANE":"８２巷","ALLEY":" ","HOUSE_NO":"２４號","E_COORD97":169915.66,"N_COORD97":2545984.3399999999,"ADDRESS":"實踐街８２巷２４號","OBJECTID":339264},"geometry":{"x":169915.66000000015,"y":2545984.3399999999}},{"attributes":{"ID":339274,"DIS_CODE":0,"TOWNNAME":"北區","LI":"實踐里","LIN":"1鄰","STREET":"實踐街","SECT":" ","MAREA":" ","LANE":"８２巷","ALLEY":" ","HOUSE_NO":"２６號","E_COORD97":169915.85999999999,"N_COORD97":2545980.7000000002,"ADDRESS":"實踐街８２巷２６號","OBJECTID":339265},"geometry":{"x":169915.86000000034,"y":2545980.6999999993}},{"attributes":{"ID":339275,"DIS_CODE":0,"TOWNNAME":"北區","LI":"實踐里","LIN":"1鄰","STREET":"實踐街","SECT":" ","MAREA":" ","LANE":"８２巷","ALLEY":" ","HOUSE_NO":"２８號","E_COORD97":169915.07000000001,"N_COORD97":2545976.77,"ADDRESS":"實踐街８２巷２８號","OBJECTID":339266},"geometry":{"x":169915.07000000216,"y":2545976.7699999996}},{"attributes":{"ID":339276,"DIS_CODE":0,"TOWNNAME":"北區","LI":"實踐里","LIN":"1鄰","STREET":"實踐街","SECT":" ","MAREA":" ","LANE":"８２巷","ALLEY":" ","HOUSE_NO":"２號","E_COORD97":169937.79000000001,"N_COORD97":2545994.2599999998,"ADDRESS":"實踐街８２巷２號","OBJECTID":339267},"geometry":{"x":169937.79000000097,"y":2545994.2599999998}},{"attributes":{"ID":339277,"DIS_CODE":0,"TOWNNAME":"北區","LI":"實踐里","LIN":"1鄰","STREET":"實踐街","SECT":" ","MAREA":" ","LANE":"８２巷","ALLEY":" ","HOUSE_NO":"３０號","E_COORD97":169915.26999999999,"N_COORD97":2545973.0299999998,"ADDRESS":"實踐街８２巷３０號","OBJECTID":339268},"geometry":{"x":169915.27000000048,"y":2545973.0300000031}},{"attributes":{"ID":339278,"DIS_CODE":0,"TOWNNAME":"北區","LI":"實踐里","LIN":"1鄰","STREET":"實踐街","SECT":" ","MAREA":" ","LANE":"８２巷","ALLEY":" ","HOUSE_NO":"３２號","E_COORD97":169914.67999999999,"N_COORD97":2545968.8100000001,"ADDRESS":"實踐街８２巷３２號","OBJECTID":339269},"geometry":{"x":169914.6799999997,"y":2545968.8100000042}},{"attributes":{"ID":339279,"DIS_CODE":0,"TOWNNAME":"北區","LI":"實踐里","LIN":"1鄰","STREET":"實踐街","SECT":" ","MAREA":" ","LANE":"８２巷","ALLEY":" ","HOUSE_NO":"３４號","E_COORD97":169920.38,"N_COORD97":2545956.5800000001,"ADDRESS":"實踐街８２巷３４號","OBJECTID":339270},"geometry":{"x":169920.37999999989,"y":2545956.5800000019}},{"attributes":{"ID":339280,"DIS_CODE":0,"TOWNNAME":"北區","LI":"實踐里","LIN":"1鄰","STREET":"實踐街","SECT":" ","MAREA":" ","LANE":"８２巷","ALLEY":" ","HOUSE_NO":"３６號","E_COORD97":169913.10000000001,"N_COORD97":2545956.0899999999,"ADDRESS":"實踐街８２巷３６號","OBJECTID":339271},"geometry":{"x":169913.10000000056,"y":2545956.0900000036}},{"attributes":{"ID":339281,"DIS_CODE":0,"TOWNNAME":"北區","LI":"實踐里","LIN":"1鄰","STREET":"實踐街","SECT":" ","MAREA":" ","LANE":"８２巷","ALLEY":" ","HOUSE_NO":"３號","E_COORD97":169958.81,"N_COORD97":2545983.5499999998,"ADDRESS":"實踐街８２巷３號","OBJECTID":339272},"geometry":{"x":169958.81000000052,"y":2545983.5500000007}},{"attributes":{"ID":339282,"DIS_CODE":0,"TOWNNAME":"北區","LI":"實踐里","LIN":"1鄰","STREET":"實踐街","SECT":" ","MAREA":" ","LANE":"８２巷","ALLEY":" ","HOUSE_NO":"４２號","E_COORD97":169935.82000000001,"N_COORD97":2545945.5699999998,"ADDRESS":"實踐街８２巷４２號","OBJECTID":339273},"geometry":{"x":169935.82000000123,"y":2545945.5700000003}},{"attributes":{"ID":339283,"DIS_CODE":0,"TOWNNAME":"北區","LI":"實踐里","LIN":"1鄰","STREET":"實踐街","SECT":" ","MAREA":" ","LANE":"８２巷","ALLEY":" ","HOUSE_NO":"４號","E_COORD97":169937.39999999999,"N_COORD97":2545990.4300000002,"ADDRESS":"實踐街８２巷４號","OBJECTID":339274},"geometry":{"x":169937.4000000013,"y":2545990.4299999997}},{"attributes":{"ID":339284,"DIS_CODE":0,"TOWNNAME":"北區","LI":"實踐里","LIN":"1鄰","STREET":"實踐街","SECT":" ","MAREA":" ","LANE":"８２巷","ALLEY":" ","HOUSE_NO":"５號","E_COORD97":169958.51000000001,"N_COORD97":2545980.0099999998,"ADDRESS":"實踐街８２巷５號","OBJECTID":339275},"geometry":{"x":169958.50999999978,"y":2545980.0099999979}},{"attributes":{"ID":339285,"DIS_CODE":0,"TOWNNAME":"北區","LI":"實踐里","LIN":"1鄰","STREET":"實踐街","SECT":" ","MAREA":" ","LANE":"８２巷","ALLEY":" ","HOUSE_NO":"６號","E_COORD97":169936.51000000001,"N_COORD97":2545986.6000000001,"ADDRESS":"實踐街８２巷６號","OBJECTID":339276},"geometry":{"x":169936.50999999978,"y":2545986.6000000015}},{"attributes":{"ID":339286,"DIS_CODE":0,"TOWNNAME":"北區","LI":"實踐里","LIN":"1鄰","STREET":"實踐街","SECT":" ","MAREA":" ","LANE":"８２巷","ALLEY":" ","HOUSE_NO":"８號","E_COORD97":169936.41,"N_COORD97":2545982.7599999998,"ADDRESS":"實踐街８２巷８號","OBJECTID":339277},"geometry":{"x":169936.41000000201,"y":2545982.7600000016}},{"attributes":{"ID":339287,"DIS_CODE":0,"TOWNNAME":"北區","LI":"實踐里","LIN":"1鄰","STREET":"實踐街","SECT":" ","MAREA":" ","LANE":"８２巷","ALLEY":" ","HOUSE_NO":"９號","E_COORD97":169957.82000000001,"N_COORD97":2545972.3500000001,"ADDRESS":"實踐街８２巷９號","OBJECTID":339278},"geometry":{"x":169957.82000000123,"y":2545972.3500000015}},{"attributes":{"ID":339288,"DIS_CODE":0,"TOWNNAME":"北區","LI":"光武里","LIN":"1鄰","STREET":"長榮路","SECT":"五段","MAREA":" ","LANE":"２３３巷","ALLEY":" ","HOUSE_NO":"１號","E_COORD97":169943.89999999999,"N_COORD97":2545874.8799999999,"ADDRESS":"長榮路五段２３３巷１號","OBJECTID":339279},"geometry":{"x":169943.9000000013,"y":2545874.8799999971}},{"attributes":{"ID":339289,"DIS_CODE":0,"TOWNNAME":"中西區","LI":"赤嵌里","LIN":"8鄰","STREET":"公園路","SECT":" ","MAREA":" ","LANE":" ","ALLEY":" ","HOUSE_NO":"１２０號之７","E_COORD97":168726.53,"N_COORD97":2544243.8300000001,"ADDRESS":"公園路１２０號之７","OBJECTID":339280},"geometry":{"x":168726.53000000026,"y":2544243.8300000019}},{"attributes":{"ID":339290,"DIS_CODE":0,"TOWNNAME":"中西區","LI":"赤嵌里","LIN":"8鄰","STREET":"公園路","SECT":" ","MAREA":" ","LANE":" ","ALLEY":" ","HOUSE_NO":"１２０號之８","E_COORD97":168719.92000000001,"N_COORD97":2544244.4900000002,"ADDRESS":"公園路１２０號之８","OBJECTID":339281},"geometry":{"x":168719.91999999993,"y":2544244.4900000002}},{"attributes":{"ID":339291,"DIS_CODE":0,"TOWNNAME":"北區","LI":"光武里","LIN":"1鄰","STREET":"長榮路","SECT":"五段","MAREA":" ","LANE":"２３３巷","ALLEY":" ","HOUSE_NO":"２０號","E_COORD97":169928.45999999999,"N_COORD97":2545848.54,"ADDRESS":"長榮路五段２３３巷２０號","OBJECTID":339282},"geometry":{"x":169928.45999999996,"y":2545848.540000001}},{"attributes":{"ID":339292,"DIS_CODE":0,"TOWNNAME":"北區","LI":"光武里","LIN":"1鄰","STREET":"長榮路","SECT":"五段","MAREA":" ","LANE":"２３３巷","ALLEY":" ","HOUSE_NO":"２２號","E_COORD97":169929.17000000001,"N_COORD97":2545842.6099999999,"ADDRESS":"長榮路五段２３３巷２２號","OBJECTID":339283},"geometry":{"x":169929.16999999899,"y":2545842.6099999994}},{"attributes":{"ID":339293,"DIS_CODE":0,"TOWNNAME":"北區","LI":"光武里","LIN":"1鄰","STREET":"長榮路","SECT":"五段","MAREA":" ","LANE":"２３３巷","ALLEY":" ","HOUSE_NO":"２４號","E_COORD97":169929.17000000001,"N_COORD97":2545837.6299999999,"ADDRESS":"長榮路五段２３３巷２４號","OBJECTID":339284},"geometry":{"x":169929.16999999899,"y":2545837.6300000008}},{"attributes":{"ID":339294,"DIS_CODE":0,"TOWNNAME":"北區","LI":"光武里","LIN":"1鄰","STREET":"長榮路","SECT":"五段","MAREA":" ","LANE":"２３３巷","ALLEY":" ","HOUSE_NO":"２６號","E_COORD97":169931.31,"N_COORD97":2545834.5299999998,"ADDRESS":"長榮路五段２３３巷２６號","OBJECTID":339285},"geometry":{"x":169931.30999999866,"y":2545834.5300000012}},{"attributes":{"ID":339295,"DIS_CODE":0,"TOWNNAME":"北區","LI":"光武里","LIN":"1鄰","STREET":"長榮路","SECT":"五段","MAREA":" ","LANE":"２３３巷","ALLEY":" ","HOUSE_NO":"２８號","E_COORD97":169928.70000000001,"N_COORD97":2545827.27,"ADDRESS":"長榮路五段２３３巷２８號","OBJECTID":339286},"geometry":{"x":169928.70000000019,"y":2545827.2700000014}},{"attributes":{"ID":339296,"DIS_CODE":0,"TOWNNAME":"北區","LI":"光武里","LIN":"1鄰","STREET":"長榮路","SECT":"五段","MAREA":" ","LANE":"２３３巷","ALLEY":" ","HOUSE_NO":"３號","E_COORD97":169943.42999999999,"N_COORD97":2545870.6099999999,"ADDRESS":"長榮路五段２３３巷３號","OBJECTID":339287},"geometry":{"x":169943.4299999997,"y":2545870.6100000031}},{"attributes":{"ID":339297,"DIS_CODE":0,"TOWNNAME":"北區","LI":"光武里","LIN":"1鄰","STREET":"長榮路","SECT":"五段","MAREA":" ","LANE":"２３３巷","ALLEY":" ","HOUSE_NO":"５號","E_COORD97":169943.19,"N_COORD97":2545867.29,"ADDRESS":"長榮路五段２３３巷５號","OBJECTID":339288},"geometry":{"x":169943.19000000227,"y":2545867.290000001}},{"attributes":{"ID":339298,"DIS_CODE":0,"TOWNNAME":"北區","LI":"光武里","LIN":"1鄰","STREET":"長榮路","SECT":"五段","MAREA":" ","LANE":"２３３巷","ALLEY":" ","HOUSE_NO":"７號","E_COORD97":169943.19,"N_COORD97":2545863.73,"ADDRESS":"長榮路五段２３３巷７號","OBJECTID":339289},"geometry":{"x":169943.19000000227,"y":2545863.7300000004}},{"attributes":{"ID":339299,"DIS_CODE":0,"TOWNNAME":"北區","LI":"光武里","LIN":"1鄰","STREET":"長榮路","SECT":"五段","MAREA":" ","LANE":"２３３巷","ALLEY":" ","HOUSE_NO":"９號","E_COORD97":169943.19,"N_COORD97":2545851.6299999999,"ADDRESS":"長榮路五段２３３巷９號","OBJECTID":339290},"geometry":{"x":169943.19000000227,"y":2545851.629999999}},{"attributes":{"ID":339300,"DIS_CODE":0,"TOWNNAME":"北區","LI":"實踐里","LIN":"1鄰","STREET":"實踐街","SECT":" ","MAREA":" ","LANE":"１００巷","ALLEY":" ","HOUSE_NO":"１０號","E_COORD97":169975.63,"N_COORD97":2545971.8399999999,"ADDRESS":"實踐街１００巷１０號","OBJECTID":339291},"geometry":{"x":169975.63000000082,"y":2545971.8400000017}},{"attributes":{"ID":339301,"DIS_CODE":0,"TOWNNAME":"北區","LI":"實踐里","LIN":"1鄰","STREET":"實踐街","SECT":" ","MAREA":" ","LANE":"１００巷","ALLEY":" ","HOUSE_NO":"１２號","E_COORD97":169975.72,"N_COORD97":2545967.71,"ADDRESS":"實踐街１００巷１２號","OBJECTID":339292},"geometry":{"x":169975.71999999974,"y":2545967.7100000028}},{"attributes":{"ID":339302,"DIS_CODE":0,"TOWNNAME":"北區","LI":"實踐里","LIN":"1鄰","STREET":"實踐街","SECT":" ","MAREA":" ","LANE":"１００巷","ALLEY":" ","HOUSE_NO":"１４號","E_COORD97":169975.92000000001,"N_COORD97":2545953.6299999999,"ADDRESS":"實踐街１００巷１４號","OBJECTID":339293},"geometry":{"x":169975.91999999993,"y":2545953.629999999}},{"attributes":{"ID":339303,"DIS_CODE":0,"TOWNNAME":"北區","LI":"實踐里","LIN":"1鄰","STREET":"實踐街","SECT":" ","MAREA":" ","LANE":"１００巷","ALLEY":" ","HOUSE_NO":"１５號","E_COORD97":169999.51000000001,"N_COORD97":2545950.3100000001,"ADDRESS":"實踐街１００巷１５號","OBJECTID":339294},"geometry":{"x":169999.50999999978,"y":2545950.3100000005}},{"attributes":{"ID":339304,"DIS_CODE":0,"TOWNNAME":"北區","LI":"實踐里","LIN":"1鄰","STREET":"實踐街","SECT":" ","MAREA":" ","LANE":"１００巷","ALLEY":" ","HOUSE_NO":"１６號","E_COORD97":169975.63,"N_COORD97":2545949.21,"ADDRESS":"實踐街１００巷１６號","OBJECTID":339295},"geometry":{"x":169975.63000000082,"y":2545949.2100000009}},{"attributes":{"ID":339305,"DIS_CODE":0,"TOWNNAME":"北區","LI":"實踐里","LIN":"1鄰","STREET":"實踐街","SECT":" ","MAREA":" ","LANE":"１００巷","ALLEY":" ","HOUSE_NO":"１７號","E_COORD97":169999.51000000001,"N_COORD97":2545946.0899999999,"ADDRESS":"實踐街１００巷１７號","OBJECTID":339296},"geometry":{"x":169999.50999999978,"y":2545946.0900000036}},{"attributes":{"ID":339306,"DIS_CODE":0,"TOWNNAME":"北區","LI":"實踐里","LIN":"1鄰","STREET":"實踐街","SECT":" ","MAREA":" ","LANE":"１００巷","ALLEY":" ","HOUSE_NO":"１８號","E_COORD97":169975.04000000001,"N_COORD97":2545945.1800000002,"ADDRESS":"實踐街１００巷１８號","OBJECTID":339297},"geometry":{"x":169975.04000000097,"y":2545945.1800000034}},{"attributes":{"ID":339307,"DIS_CODE":0,"TOWNNAME":"永康區","LI":"大灣里","LIN":"5鄰","STREET":"大民街","SECT":" ","MAREA":" ","LANE":" ","ALLEY":" ","HOUSE_NO":"１４５號","E_COORD97":174921.79000000001,"N_COORD97":2545652.2799999998,"ADDRESS":"大民街１４５號","OBJECTID":339298},"geometry":{"x":174921.79000000004,"y":2545652.2800000031}},{"attributes":{"ID":339308,"DIS_CODE":0,"TOWNNAME":"永康區","LI":"大橋里","LIN":"5鄰","STREET":"大橋一街","SECT":" ","MAREA":" ","LANE":"１０３巷","ALLEY":" ","HOUSE_NO":"１８６號","E_COORD97":170807.20000000001,"N_COORD97":2546769.2400000002,"ADDRESS":"大橋一街１０３巷１８６號","OBJECTID":339299},"geometry":{"x":170807.20000000019,"y":2546769.2400000039}},{"attributes":{"ID":339309,"DIS_CODE":0,"TOWNNAME":"永康區","LI":"大灣里","LIN":"5鄰","STREET":"大民街","SECT":" ","MAREA":" ","LANE":"１２９巷","ALLEY":" ","HOUSE_NO":"８號","E_COORD97":174905.29999999999,"N_COORD97":2545628.48,"ADDRESS":"大民街１２９巷８號","OBJECTID":339300},"geometry":{"x":174905.29999999888,"y":2545628.4800000042}},{"attributes":{"ID":339310,"DIS_CODE":0,"TOWNNAME":"永康區","LI":"中興里","LIN":"5鄰","STREET":"中華路","SECT":" ","MAREA":" ","LANE":"２１４巷","ALLEY":" ","HOUSE_NO":"４７號","E_COORD97":171814.59,"N_COORD97":2545070.6299999999,"ADDRESS":"中華路２１４巷４７號","OBJECTID":339301},"geometry":{"x":171814.58999999985,"y":2545070.6300000008}},{"attributes":{"ID":339311,"DIS_CODE":0,"TOWNNAME":"永康區","LI":"中興里","LIN":"5鄰","STREET":"中華路","SECT":" ","MAREA":" ","LANE":"２１４巷","ALLEY":" ","HOUSE_NO":"４號","E_COORD97":171711.97,"N_COORD97":2545047.7400000002,"ADDRESS":"中華路２１４巷４號","OBJECTID":339302},"geometry":{"x":171711.96999999881,"y":2545047.7400000021}},{"attributes":{"ID":339312,"DIS_CODE":0,"TOWNNAME":"北區","LI":"實踐里","LIN":"1鄰","STREET":"實踐街","SECT":" ","MAREA":" ","LANE":"１００巷","ALLEY":" ","HOUSE_NO":"１９號","E_COORD97":169999.22,"N_COORD97":2545941.8599999999,"ADDRESS":"實踐街１００巷１９號","OBJECTID":339303},"geometry":{"x":169999.21999999974,"y":2545941.8599999994}},{"attributes":{"ID":339313,"DIS_CODE":0,"TOWNNAME":"北區","LI":"實踐里","LIN":"1鄰","STREET":"實踐街","SECT":" ","MAREA":" ","LANE":"１００巷","ALLEY":" ","HOUSE_NO":"１號","E_COORD97":169997.70000000001,"N_COORD97":2545995.3999999999,"ADDRESS":"實踐街１００巷１號","OBJECTID":339304},"geometry":{"x":169997.70000000112,"y":2545995.4000000041}},{"attributes":{"ID":339314,"DIS_CODE":0,"TOWNNAME":"北區","LI":"實踐里","LIN":"1鄰","STREET":"實踐街","SECT":" ","MAREA":" ","LANE":"１００巷","ALLEY":" ","HOUSE_NO":"２０號","E_COORD97":169975.42999999999,"N_COORD97":2545940.7599999998,"ADDRESS":"實踐街１００巷２０號","OBJECTID":339305},"geometry":{"x":169975.43000000063,"y":2545940.7599999998}},{"attributes":{"ID":339315,"DIS_CODE":0,"TOWNNAME":"北區","LI":"實踐里","LIN":"1鄰","STREET":"實踐街","SECT":" ","MAREA":" ","LANE":"１００巷","ALLEY":" ","HOUSE_NO":"２１號","E_COORD97":169997.91,"N_COORD97":2545932.8199999998,"ADDRESS":"實踐街１００巷２１號","OBJECTID":339306},"geometry":{"x":169997.91000000108,"y":2545932.8200000022}},{"attributes":{"ID":339316,"DIS_CODE":0,"TOWNNAME":"北區","LI":"實踐里","LIN":"1鄰","STREET":"實踐街","SECT":" ","MAREA":" ","LANE":"１００巷","ALLEY":" ","HOUSE_NO":"２號","E_COORD97":169977,"N_COORD97":2545987.7599999998,"ADDRESS":"實踐街１００巷２號","OBJECTID":339307},"geometry":{"x":169977.00000000093,"y":2545987.7599999998}},{"attributes":{"ID":339317,"DIS_CODE":0,"TOWNNAME":"北區","LI":"實踐里","LIN":"1鄰","STREET":"實踐街","SECT":" ","MAREA":" ","LANE":"１００巷","ALLEY":" ","HOUSE_NO":"３號","E_COORD97":169997.54999999999,"N_COORD97":2545990.6099999999,"ADDRESS":"實踐街１００巷３號","OBJECTID":339308},"geometry":{"x":169997.54999999981,"y":2545990.6100000013}},{"attributes":{"ID":339318,"DIS_CODE":0,"TOWNNAME":"善化區","LI":"東隆里","LIN":"5鄰","STREET":" ","SECT":" ","MAREA":"東勢寮","LANE":" ","ALLEY":" ","HOUSE_NO":"１７１之２號","E_COORD97":180042.44,"N_COORD97":2561912.27,"ADDRESS":"東勢寮１７１之２號","OBJECTID":339309},"geometry":{"x":180042.44000000041,"y":2561912.2699999996}},{"attributes":{"ID":339319,"DIS_CODE":0,"TOWNNAME":"北區","LI":"實踐里","LIN":"1鄰","STREET":"實踐街","SECT":" ","MAREA":" ","LANE":"１００巷","ALLEY":" ","HOUSE_NO":"４號","E_COORD97":169977,"N_COORD97":2545983.5299999998,"ADDRESS":"實踐街１００巷４號","OBJECTID":339310},"geometry":{"x":169977.00000000093,"y":2545983.5300000012}},{"attributes":{"ID":339320,"DIS_CODE":0,"TOWNNAME":"北區","LI":"實踐里","LIN":"1鄰","STREET":"實踐街","SECT":" ","MAREA":" ","LANE":"１００巷","ALLEY":" ","HOUSE_NO":"５號","E_COORD97":169996.95999999999,"N_COORD97":2545986.6800000002,"ADDRESS":"實踐街１００巷５號","OBJECTID":339311},"geometry":{"x":169996.96000000183,"y":2545986.6800000016}},{"attributes":{"ID":339321,"DIS_CODE":0,"TOWNNAME":"北區","LI":"實踐里","LIN":"1鄰","STREET":"實踐街","SECT":" ","MAREA":" ","LANE":"１００巷","ALLEY":" ","HOUSE_NO":"６號","E_COORD97":169976.22,"N_COORD97":2545979.7000000002,"ADDRESS":"實踐街１００巷６號","OBJECTID":339312},"geometry":{"x":169976.2200000016,"y":2545979.7000000011}},{"attributes":{"ID":339322,"DIS_CODE":0,"TOWNNAME":"北區","LI":"實踐里","LIN":"1鄰","STREET":"實踐街","SECT":" ","MAREA":" ","LANE":"１００巷","ALLEY":" ","HOUSE_NO":"７號","E_COORD97":169995.78,"N_COORD97":2545983.04,"ADDRESS":"實踐街１００巷７號","OBJECTID":339313},"geometry":{"x":169995.78000000119,"y":2545983.040000001}},{"attributes":{"ID":339323,"DIS_CODE":0,"TOWNNAME":"北區","LI":"實踐里","LIN":"1鄰","STREET":"實踐街","SECT":" ","MAREA":" ","LANE":"１００巷","ALLEY":" ","HOUSE_NO":"８號","E_COORD97":169976.01999999999,"N_COORD97":2545975.4700000002,"ADDRESS":"實踐街１００巷８號","OBJECTID":339314},"geometry":{"x":169976.02000000048,"y":2545975.4700000025}},{"attributes":{"ID":339324,"DIS_CODE":0,"TOWNNAME":"北區","LI":"實踐里","LIN":"1鄰","STREET":"實踐街","SECT":" ","MAREA":" ","LANE":"１００巷","ALLEY":" ","HOUSE_NO":"９號","E_COORD97":169994.60000000001,"N_COORD97":2545978.1299999999,"ADDRESS":"實踐街１００巷９號","OBJECTID":339315},"geometry":{"x":169994.60000000056,"y":2545978.129999999}},{"attributes":{"ID":339325,"DIS_CODE":0,"TOWNNAME":"北區","LI":"興南里","LIN":"1鄰","STREET":"公園南路","SECT":" ","MAREA":" ","LANE":"３８巷","ALLEY":" ","HOUSE_NO":"１３號","E_COORD97":168841.28,"N_COORD97":2544676.1800000002,"ADDRESS":"公園南路３８巷１３號","OBJECTID":339316},"geometry":{"x":168841.28000000119,"y":2544676.1799999997}},{"attributes":{"ID":339326,"DIS_CODE":0,"TOWNNAME":"中西區","LI":"赤嵌里","LIN":"8鄰","STREET":"公園路","SECT":" ","MAREA":" ","LANE":" ","ALLEY":" ","HOUSE_NO":"１２０號之９","E_COORD97":168702.07000000001,"N_COORD97":2544249.1099999999,"ADDRESS":"公園路１２０號之９","OBJECTID":339317},"geometry":{"x":168702.07000000123,"y":2544249.1099999994}},{"attributes":{"ID":339327,"DIS_CODE":0,"TOWNNAME":"中西區","LI":"赤嵌里","LIN":"8鄰","STREET":"成功路","SECT":" ","MAREA":" ","LANE":" ","ALLEY":" ","HOUSE_NO":"１０１號","E_COORD97":168790.97,"N_COORD97":2544256.04,"ADDRESS":"成功路１０１號","OBJECTID":339318},"geometry":{"x":168790.96999999974,"y":2544256.0399999991}},{"attributes":{"ID":339328,"DIS_CODE":0,"TOWNNAME":"中西區","LI":"赤嵌里","LIN":"8鄰","STREET":"成功路","SECT":" ","MAREA":" ","LANE":" ","ALLEY":" ","HOUSE_NO":"１０３號","E_COORD97":168785.35000000001,"N_COORD97":2544255.3799999999,"ADDRESS":"成功路１０３號","OBJECTID":339319},"geometry":{"x":168785.35000000056,"y":2544255.3800000008}},{"attributes":{"ID":339329,"DIS_CODE":0,"TOWNNAME":"中西區","LI":"赤嵌里","LIN":"8鄰","STREET":"成功路","SECT":" ","MAREA":" ","LANE":" ","ALLEY":" ","HOUSE_NO":"１０５號","E_COORD97":168779.73999999999,"N_COORD97":2544256.7000000002,"ADDRESS":"成功路１０５號","OBJECTID":339320},"geometry":{"x":168779.74000000209,"y":2544256.7000000011}},{"attributes":{"ID":339330,"DIS_CODE":0,"TOWNNAME":"北區","LI":"興南里","LIN":"1鄰","STREET":"公園南路","SECT":" ","MAREA":" ","LANE":"３８巷","ALLEY":" ","HOUSE_NO":"７號","E_COORD97":168849.51999999999,"N_COORD97":2544675.3500000001,"ADDRESS":"公園南路３８巷７號","OBJECTID":339321},"geometry":{"x":168849.51999999955,"y":2544675.3499999996}},{"attributes":{"ID":339331,"DIS_CODE":0,"TOWNNAME":"北區","LI":"興南里","LIN":"1鄰","STREET":"公園南路","SECT":" ","MAREA":" ","LANE":"６０巷","ALLEY":" ","HOUSE_NO":"１號","E_COORD97":168817.64999999999,"N_COORD97":2544667.77,"ADDRESS":"公園南路６０巷１號","OBJECTID":339322},"geometry":{"x":168817.65000000037,"y":2544667.7700000014}},{"attributes":{"ID":339332,"DIS_CODE":0,"TOWNNAME":"北區","LI":"興南里","LIN":"1鄰","STREET":"公園南路","SECT":" ","MAREA":" ","LANE":"６０巷","ALLEY":" ","HOUSE_NO":"３號","E_COORD97":168824.89999999999,"N_COORD97":2544679.2000000002,"ADDRESS":"公園南路６０巷３號","OBJECTID":339323},"geometry":{"x":168824.9000000013,"y":2544679.1999999993}},{"attributes":{"ID":339333,"DIS_CODE":0,"TOWNNAME":"中西區","LI":"赤嵌里","LIN":"8鄰","STREET":"成功路","SECT":" ","MAREA":" ","LANE":" ","ALLEY":" ","HOUSE_NO":"１０７號","E_COORD97":168769.16,"N_COORD97":2544258.6800000002,"ADDRESS":"成功路１０７號","OBJECTID":339324},"geometry":{"x":168769.16000000108,"y":2544258.6799999997}},{"attributes":{"ID":339334,"DIS_CODE":0,"TOWNNAME":"善化區","LI":"牛庄里","LIN":"5鄰","STREET":" ","SECT":" ","MAREA":"牛庄","LANE":" ","ALLEY":" ","HOUSE_NO":"５８號","E_COORD97":180171.87,"N_COORD97":2559941.0699999998,"ADDRESS":"牛庄５８號","OBJECTID":339325},"geometry":{"x":180171.87000000011,"y":2559941.0700000003}},{"attributes":{"ID":339335,"DIS_CODE":0,"TOWNNAME":"善化區","LI":"溪美里","LIN":"5鄰","STREET":" ","SECT":" ","MAREA":"溪尾","LANE":" ","ALLEY":" ","HOUSE_NO":"４６號之２","E_COORD97":176734.89000000001,"N_COORD97":2561232.8100000001,"ADDRESS":"溪尾４６號之２","OBJECTID":339326},"geometry":{"x":176734.88999999966,"y":2561232.8100000024}},{"attributes":{"ID":339336,"DIS_CODE":0,"TOWNNAME":"中西區","LI":"郡西里","LIN":"5鄰","STREET":"永華路","SECT":"一段","MAREA":" ","LANE":"１４４巷","ALLEY":" ","HOUSE_NO":"３號","E_COORD97":167269.35000000001,"N_COORD97":2543210.6400000001,"ADDRESS":"永華路一段１４４巷３號","OBJECTID":339327},"geometry":{"x":167269.34999999963,"y":2543210.6400000025}},{"attributes":{"ID":339337,"DIS_CODE":0,"TOWNNAME":"將軍區","LI":"仁和里","LIN":"18鄰","STREET":" ","SECT":" ","MAREA":"和巷","LANE":" ","ALLEY":" ","HOUSE_NO":"５８號","E_COORD97":163955.60999999999,"N_COORD97":2569313.1499999999,"ADDRESS":"和巷５８號","OBJECTID":339328},"geometry":{"x":163955.61000000034,"y":2569313.1500000022}},{"attributes":{"ID":339338,"DIS_CODE":0,"TOWNNAME":"歸仁區","LI":"大潭里","LIN":"1鄰","STREET":"中正南路","SECT":"三段","MAREA":" ","LANE":"９５巷","ALLEY":" ","HOUSE_NO":"３５號","E_COORD97":175388.20999999999,"N_COORD97":2535031.2799999998,"ADDRESS":"中正南路三段９５巷３５號","OBJECTID":339329},"geometry":{"x":175388.21000000089,"y":2535031.2800000012}},{"attributes":{"ID":339339,"DIS_CODE":0,"TOWNNAME":"歸仁區","LI":"七甲里","LIN":"1鄰","STREET":"中正北路","SECT":"二段","MAREA":" ","LANE":"７５巷","ALLEY":" ","HOUSE_NO":"１號","E_COORD97":177579.31,"N_COORD97":2542225.25,"ADDRESS":"中正北路二段７５巷１號","OBJECTID":339330},"geometry":{"x":177579.30999999959,"y":2542225.25}},{"attributes":{"ID":339340,"DIS_CODE":0,"TOWNNAME":"歸仁區","LI":"武東里","LIN":"1鄰","STREET":"武東二街","SECT":" ","MAREA":" ","LANE":"４２巷","ALLEY":" ","HOUSE_NO":"６８號","E_COORD97":175738.29000000001,"N_COORD97":2535162.25,"ADDRESS":"武東二街４２巷６８號","OBJECTID":339331},"geometry":{"x":175738.29000000097,"y":2535162.25}},{"attributes":{"ID":339341,"DIS_CODE":0,"TOWNNAME":"歸仁區","LI":"西埔里","LIN":"1鄰","STREET":"西埔三街","SECT":" ","MAREA":" ","LANE":"５１巷","ALLEY":" ","HOUSE_NO":"３０號","E_COORD97":176898.19,"N_COORD97":2543975.25,"ADDRESS":"西埔三街５１巷３０號","OBJECTID":339332},"geometry":{"x":176898.19000000041,"y":2543975.2500000037}},{"attributes":{"ID":339342,"DIS_CODE":0,"TOWNNAME":"歸仁區","LI":"文化里","LIN":"1鄰","STREET":"中正北路","SECT":"一段","MAREA":" ","LANE":"１１３巷","ALLEY":" ","HOUSE_NO":"７號","E_COORD97":177677.45999999999,"N_COORD97":2541252.25,"ADDRESS":"中正北路一段１１３巷７號","OBJECTID":339333},"geometry":{"x":177677.45999999996,"y":2541252.25}},{"attributes":{"ID":339343,"DIS_CODE":0,"TOWNNAME":"歸仁區","LI":"武東里","LIN":"1鄰","STREET":"武東二街","SECT":" ","MAREA":" ","LANE":"４２巷","ALLEY":" ","HOUSE_NO":"６０號","E_COORD97":175616.64999999999,"N_COORD97":2535190.0299999998,"ADDRESS":"武東二街４２巷６０號","OBJECTID":339334},"geometry":{"x":175616.65000000037,"y":2535190.0299999993}},{"attributes":{"ID":339344,"DIS_CODE":0,"TOWNNAME":"歸仁區","LI":"西埔里","LIN":"1鄰","STREET":"西埔三街","SECT":" ","MAREA":" ","LANE":"５１巷","ALLEY":" ","HOUSE_NO":"４６號","E_COORD97":176920.69,"N_COORD97":2543959.25,"ADDRESS":"西埔三街５１巷４６號","OBJECTID":339335},"geometry":{"x":176920.69000000227,"y":2543959.2500000019}},{"attributes":{"ID":339345,"DIS_CODE":0,"TOWNNAME":"歸仁區","LI":"六甲里","LIN":"1鄰","STREET":"中正南路","SECT":"一段","MAREA":" ","LANE":"５４５巷","ALLEY":" ","HOUSE_NO":"９號","E_COORD97":176822.26044000001,"N_COORD97":2539932.0773299998,"ADDRESS":"中正南路一段５４５巷９號","OBJECTID":339336},"geometry":{"x":176822.26044000126,"y":2539932.0773340017}},{"attributes":{"ID":339346,"DIS_CODE":0,"TOWNNAME":"歸仁區","LI":"大潭里","LIN":"1鄰","STREET":"中正南路","SECT":"三段","MAREA":" ","LANE":"５１巷","ALLEY":" ","HOUSE_NO":"１６號","E_COORD97":175331.81,"N_COORD97":2535038.2799999998,"ADDRESS":"中正南路三段５１巷１６號","OBJECTID":339337},"geometry":{"x":175331.80999999959,"y":2535038.2800000012}},{"attributes":{"ID":339347,"DIS_CODE":0,"TOWNNAME":"歸仁區","LI":"西埔里","LIN":"1鄰","STREET":"西埔三街","SECT":" ","MAREA":" ","LANE":"５１巷","ALLEY":" ","HOUSE_NO":"４８號","E_COORD97":176931.89000000001,"N_COORD97":2543954.25,"ADDRESS":"西埔三街５１巷４８號","OBJECTID":339338},"geometry":{"x":176931.88999999966,"y":2543954.25}},{"attributes":{"ID":339348,"DIS_CODE":0,"TOWNNAME":"北區","LI":"正覺里","LIN":"26鄰","STREET":"公園路","SECT":" ","MAREA":" ","LANE":"７６９巷","ALLEY":" ","HOUSE_NO":"６號之５","E_COORD97":169556.06,"N_COORD97":2546575.3500000001,"ADDRESS":"公園路７６９巷６號之５","OBJECTID":339339},"geometry":{"x":169556.05999999959,"y":2546575.3500000015}},{"attributes":{"ID":339349,"DIS_CODE":0,"TOWNNAME":"北區","LI":"正覺里","LIN":"26鄰","STREET":"公園路","SECT":" ","MAREA":" ","LANE":"７６９巷","ALLEY":" ","HOUSE_NO":"６號之６","E_COORD97":169557.56,"N_COORD97":2546580.5099999998,"ADDRESS":"公園路７６９巷６號之６","OBJECTID":339340},"geometry":{"x":169557.56000000052,"y":2546580.5100000035}},{"attributes":{"ID":339350,"DIS_CODE":0,"TOWNNAME":"北區","LI":"正覺里","LIN":"26鄰","STREET":"公園路","SECT":" ","MAREA":" ","LANE":"７６９巷","ALLEY":" ","HOUSE_NO":"６號之７","E_COORD97":169558.5,"N_COORD97":2546585.5800000001,"ADDRESS":"公園路７６９巷６號之７","OBJECTID":339341},"geometry":{"x":169558.5,"y":2546585.5800000001}},{"attributes":{"ID":339351,"DIS_CODE":0,"TOWNNAME":"後壁區","LI":"仕安里","LIN":"5鄰","STREET":" ","SECT":" ","MAREA":"下長","LANE":" ","ALLEY":" ","HOUSE_NO":"３４號之１","E_COORD97":180616.89999999999,"N_COORD97":2583822.0800000001,"ADDRESS":"下長３４號之１","OBJECTID":339342},"geometry":{"x":180616.9000000013,"y":2583822.0800000001}},{"attributes":{"ID":339352,"DIS_CODE":0,"TOWNNAME":"後壁區","LI":"仕安里","LIN":"5鄰","STREET":" ","SECT":" ","MAREA":"下長","LANE":" ","ALLEY":" ","HOUSE_NO":"３４號之５","E_COORD97":180602.41,"N_COORD97":2583857.9900000002,"ADDRESS":"下長３４號之５","OBJECTID":339343},"geometry":{"x":180602.40999999922,"y":2583857.9900000039}},{"attributes":{"ID":339353,"DIS_CODE":0,"TOWNNAME":"關廟區","LI":"松腳里","LIN":"1鄰","STREET":"四維街","SECT":" ","MAREA":" ","LANE":"１４２巷","ALLEY":" ","HOUSE_NO":"３號","E_COORD97":181897.85999999999,"N_COORD97":2539735.25,"ADDRESS":"四維街１４２巷３號","OBJECTID":339344},"geometry":{"x":181897.86000000034,"y":2539735.2500000019}},{"attributes":{"ID":339354,"DIS_CODE":0,"TOWNNAME":"後壁區","LI":"仕安里","LIN":"5鄰","STREET":" ","SECT":" ","MAREA":"下長","LANE":" ","ALLEY":" ","HOUSE_NO":"３４號","E_COORD97":180643.35999999999,"N_COORD97":2583839.48,"ADDRESS":"下長３４號","OBJECTID":339345},"geometry":{"x":180643.36000000034,"y":2583839.4800000023}},{"attributes":{"ID":339355,"DIS_CODE":0,"TOWNNAME":"關廟區","LI":"下湖里","LIN":"1鄰","STREET":"保東一街","SECT":" ","MAREA":" ","LANE":"６００巷","ALLEY":" ","HOUSE_NO":"３６號","E_COORD97":178072.34,"N_COORD97":2542570.2999999998,"ADDRESS":"保東一街６００巷３６號","OBJECTID":339346},"geometry":{"x":178072.34000000078,"y":2542570.3000000007}},{"attributes":{"ID":339356,"DIS_CODE":0,"TOWNNAME":"關廟區","LI":"南花里","LIN":"1鄰","STREET":"四維街","SECT":" ","MAREA":" ","LANE":"２６０巷","ALLEY":" ","HOUSE_NO":"５號","E_COORD97":181889.85999999999,"N_COORD97":2540054.25,"ADDRESS":"四維街２６０巷５號","OBJECTID":339347},"geometry":{"x":181889.86000000127,"y":2540054.25}},{"attributes":{"ID":339357,"DIS_CODE":0,"TOWNNAME":"關廟區","LI":"深坑里","LIN":"1鄰","STREET":"南雄路","SECT":"一段","MAREA":" ","LANE":"２６６巷","ALLEY":" ","HOUSE_NO":"３２號","E_COORD97":181914.67000000001,"N_COORD97":2537448.2999999998,"ADDRESS":"南雄路一段２６６巷３２號","OBJECTID":339348},"geometry":{"x":181914.67000000086,"y":2537448.3000000007}},{"attributes":{"ID":339358,"DIS_CODE":0,"TOWNNAME":"北區","LI":"安民里","LIN":" ","STREET":"成功路","SECT":" ","MAREA":" ","LANE":"４０１巷","ALLEY":" ","HOUSE_NO":"１號","E_COORD97":167821.69,"N_COORD97":2544626.3500000001,"ADDRESS":"成功路４０１巷１號","OBJECTID":339349},"geometry":{"x":167821.69000000134,"y":2544626.3500000015}},{"attributes":{"ID":339359,"DIS_CODE":0,"TOWNNAME":"中西區","LI":"赤嵌里","LIN":"8鄰","STREET":"成功路","SECT":" ","MAREA":" ","LANE":" ","ALLEY":" ","HOUSE_NO":"１１７號","E_COORD97":168732.14000000001,"N_COORD97":2544266.2799999998,"ADDRESS":"成功路１１７號","OBJECTID":339350},"geometry":{"x":168732.13999999966,"y":2544266.2800000012}},{"attributes":{"ID":339360,"DIS_CODE":0,"TOWNNAME":"中西區","LI":"郡西里","LIN":"5鄰","STREET":"大智街","SECT":" ","MAREA":" ","LANE":"１２９巷","ALLEY":" ","HOUSE_NO":"２號","E_COORD97":167279.97,"N_COORD97":2543303.27,"ADDRESS":"大智街１２９巷２號","OBJECTID":339351},"geometry":{"x":167279.97000000067,"y":2543303.2700000033}},{"attributes":{"ID":339361,"DIS_CODE":0,"TOWNNAME":"關廟區","LI":"深坑里","LIN":"1鄰","STREET":"南雄路","SECT":"一段","MAREA":" ","LANE":"２６６巷","ALLEY":" ","HOUSE_NO":"２２號","E_COORD97":181922.76999999999,"N_COORD97":2537433.2999999998,"ADDRESS":"南雄路一段２６６巷２２號","OBJECTID":339352},"geometry":{"x":181922.76999999955,"y":2537433.3000000026}},{"attributes":{"ID":339362,"DIS_CODE":0,"TOWNNAME":"關廟區","LI":"新埔里","LIN":"1鄰","STREET":"忠孝街","SECT":" ","MAREA":" ","LANE":"２５８巷","ALLEY":" ","HOUSE_NO":"１６號","E_COORD97":181222.09,"N_COORD97":2540852.25,"ADDRESS":"忠孝街２５８巷１６號","OBJECTID":339353},"geometry":{"x":181222.09000000078,"y":2540852.25}},{"attributes":{"ID":339363,"DIS_CODE":0,"TOWNNAME":"關廟區","LI":"埤頭里","LIN":"1鄰","STREET":"關新路","SECT":"一段","MAREA":" ","LANE":"８１３巷","ALLEY":" ","HOUSE_NO":"６８號","E_COORD97":179034.67000000001,"N_COORD97":2543721.2999999998,"ADDRESS":"關新路一段８１３巷６８號","OBJECTID":339354},"geometry":{"x":179034.67000000086,"y":2543721.3000000045}},{"attributes":{"ID":339364,"DIS_CODE":0,"TOWNNAME":"關廟區","LI":"五甲里","LIN":"1鄰","STREET":"和平路","SECT":" ","MAREA":" ","LANE":"１１巷","ALLEY":" ","HOUSE_NO":"３號","E_COORD97":181698.98999999999,"N_COORD97":2539319.25,"ADDRESS":"和平路１１巷３號","OBJECTID":339355},"geometry":{"x":181698.99000000115,"y":2539319.25}},{"attributes":{"ID":339365,"DIS_CODE":0,"TOWNNAME":"關廟區","LI":"下湖里","LIN":"1鄰","STREET":"保東一街","SECT":" ","MAREA":" ","LANE":"６００巷","ALLEY":" ","HOUSE_NO":"５２號","E_COORD97":178063.14000000001,"N_COORD97":2542641.2999999998,"ADDRESS":"保東一街６００巷５２號","OBJECTID":339356},"geometry":{"x":178063.1400000006,"y":2542641.3000000026}},{"attributes":{"ID":339366,"DIS_CODE":0,"TOWNNAME":"關廟區","LI":"松腳里","LIN":"1鄰","STREET":"四維街","SECT":" ","MAREA":" ","LANE":"１４２巷","ALLEY":" ","HOUSE_NO":"１２號","E_COORD97":181925.20999999999,"N_COORD97":2539722.25,"ADDRESS":"四維街１４２巷１２號","OBJECTID":339357},"geometry":{"x":181925.20999999996,"y":2539722.25}},{"attributes":{"ID":339367,"DIS_CODE":0,"TOWNNAME":"北區","LI":"元寶里","LIN":"1鄰","STREET":"北園街","SECT":" ","MAREA":" ","LANE":"１１４巷","ALLEY":" ","HOUSE_NO":"１０號","E_COORD97":170399.17000000001,"N_COORD97":2545940.4100000001,"ADDRESS":"北園街１１４巷１０號","OBJECTID":339358},"geometry":{"x":170399.17000000086,"y":2545940.4099999983}},{"attributes":{"ID":339368,"DIS_CODE":0,"TOWNNAME":"北區","LI":"元寶里","LIN":"1鄰","STREET":"北園街","SECT":" ","MAREA":" ","LANE":"１１４巷","ALLEY":" ","HOUSE_NO":"１２號","E_COORD97":170402.26000000001,"N_COORD97":2545940.4100000001,"ADDRESS":"北園街１１４巷１２號","OBJECTID":339359},"geometry":{"x":170402.26000000071,"y":2545940.4099999983}},{"attributes":{"ID":339369,"DIS_CODE":0,"TOWNNAME":"北區","LI":"元寶里","LIN":"1鄰","STREET":"北園街","SECT":" ","MAREA":" ","LANE":"１１４巷","ALLEY":" ","HOUSE_NO":"１４號","E_COORD97":170406.89999999999,"N_COORD97":2545939.79,"ADDRESS":"北園街１１４巷１４號","OBJECTID":339360},"geometry":{"x":170406.9000000013,"y":2545939.7899999991}},{"attributes":{"ID":339370,"DIS_CODE":0,"TOWNNAME":"北區","LI":"元寶里","LIN":"1鄰","STREET":"北園街","SECT":" ","MAREA":" ","LANE":"１１４巷","ALLEY":" ","HOUSE_NO":"１６號","E_COORD97":170412.14999999999,"N_COORD97":2545939.79,"ADDRESS":"北園街１１４巷１６號","OBJECTID":339361},"geometry":{"x":170412.1500000013,"y":2545939.7899999991}},{"attributes":{"ID":339371,"DIS_CODE":0,"TOWNNAME":"將軍區","LI":"仁和里","LIN":"18鄰","STREET":" ","SECT":" ","MAREA":"和巷","LANE":" ","ALLEY":" ","HOUSE_NO":"６０號","E_COORD97":163955.92999999999,"N_COORD97":2569347.1099999999,"ADDRESS":"和巷６０號","OBJECTID":339362},"geometry":{"x":163955.93000000063,"y":2569347.1100000013}},{"attributes":{"ID":339372,"DIS_CODE":0,"TOWNNAME":"中西區","LI":"赤嵌里","LIN":"8鄰","STREET":"成功路","SECT":" ","MAREA":" ","LANE":" ","ALLEY":" ","HOUSE_NO":"１１９號","E_COORD97":168727.85000000001,"N_COORD97":2544266.9399999999,"ADDRESS":"成功路１１９號","OBJECTID":339363},"geometry":{"x":168727.85000000056,"y":2544266.9399999995}},{"attributes":{"ID":339373,"DIS_CODE":0,"TOWNNAME":"將軍區","LI":"嘉昌里","LIN":"18鄰","STREET":" ","SECT":" ","MAREA":"昌平","LANE":" ","ALLEY":" ","HOUSE_NO":"５７號","E_COORD97":163520.37,"N_COORD97":2567361.4900000002,"ADDRESS":"昌平５７號","OBJECTID":339364},"geometry":{"x":163520.37000000197,"y":2567361.4900000021}},{"attributes":{"ID":339374,"DIS_CODE":0,"TOWNNAME":"中西區","LI":"三合里","LIN":"5鄰","STREET":"忠孝街","SECT":" ","MAREA":" ","LANE":"１１６巷","ALLEY":" ","HOUSE_NO":"５號之２","E_COORD97":167757.84,"N_COORD97":2544545.8199999998,"ADDRESS":"忠孝街１１６巷５號之２","OBJECTID":339365},"geometry":{"x":167757.83999999985,"y":2544545.8200000022}},{"attributes":{"ID":339375,"DIS_CODE":0,"TOWNNAME":"中西區","LI":"三合里","LIN":"5鄰","STREET":"忠孝街","SECT":" ","MAREA":" ","LANE":"１１６巷","ALLEY":" ","HOUSE_NO":"５號之１","E_COORD97":167753.41,"N_COORD97":2544547.2000000002,"ADDRESS":"忠孝街１１６巷５號之１","OBJECTID":339366},"geometry":{"x":167753.41000000108,"y":2544547.1999999993}},{"attributes":{"ID":339376,"DIS_CODE":0,"TOWNNAME":"北區","LI":"元寶里","LIN":"1鄰","STREET":"北園街","SECT":" ","MAREA":" ","LANE":"１１４巷","ALLEY":" ","HOUSE_NO":"１８號","E_COORD97":170415.85999999999,"N_COORD97":2545939.1699999999,"ADDRESS":"北園街１１４巷１８號","OBJECTID":339367},"geometry":{"x":170415.86000000034,"y":2545939.1700000018}},{"attributes":{"ID":339377,"DIS_CODE":0,"TOWNNAME":"北區","LI":"元寶里","LIN":"1鄰","STREET":"北園街","SECT":" ","MAREA":" ","LANE":"１１４巷","ALLEY":" ","HOUSE_NO":"１號","E_COORD97":170420.81,"N_COORD97":2545960.79,"ADDRESS":"北園街１１４巷１號","OBJECTID":339368},"geometry":{"x":170420.80999999959,"y":2545960.7900000028}},{"attributes":{"ID":339378,"DIS_CODE":0,"TOWNNAME":"北區","LI":"元寶里","LIN":"1鄰","STREET":"北園街","SECT":" ","MAREA":" ","LANE":"１１４巷","ALLEY":" ","HOUSE_NO":"２０號","E_COORD97":170426.67999999999,"N_COORD97":2545940.1000000001,"ADDRESS":"北園街１１４巷２０號","OBJECTID":339369},"geometry":{"x":170426.6799999997,"y":2545940.1000000015}},{"attributes":{"ID":339379,"DIS_CODE":0,"TOWNNAME":"北區","LI":"元寶里","LIN":"1鄰","STREET":"北園街","SECT":" ","MAREA":" ","LANE":"１１４巷","ALLEY":" ","HOUSE_NO":"２２號","E_COORD97":170430.70000000001,"N_COORD97":2545942.8799999999,"ADDRESS":"北園街１１４巷２２號","OBJECTID":339370},"geometry":{"x":170430.70000000019,"y":2545942.8800000027}},{"attributes":{"ID":339380,"DIS_CODE":0,"TOWNNAME":"北區","LI":"元寶里","LIN":"1鄰","STREET":"北園街","SECT":" ","MAREA":" ","LANE":"１１４巷","ALLEY":" ","HOUSE_NO":"２４號","E_COORD97":170435.64999999999,"N_COORD97":2545938.5499999998,"ADDRESS":"北園街１１４巷２４號","OBJECTID":339371},"geometry":{"x":170435.6500000013,"y":2545938.5500000026}},{"attributes":{"ID":339381,"DIS_CODE":0,"TOWNNAME":"北區","LI":"元寶里","LIN":"1鄰","STREET":"北園街","SECT":" ","MAREA":" ","LANE":"１１４巷","ALLEY":" ","HOUSE_NO":"２號","E_COORD97":170374.73999999999,"N_COORD97":2545938.8599999999,"ADDRESS":"北園街１１４巷２號","OBJECTID":339372},"geometry":{"x":170374.74000000022,"y":2545938.8599999994}},{"attributes":{"ID":339382,"DIS_CODE":0,"TOWNNAME":"北區","LI":"元寶里","LIN":"1鄰","STREET":"北園街","SECT":" ","MAREA":" ","LANE":"１１４巷","ALLEY":" ","HOUSE_NO":"３號","E_COORD97":170425.14000000001,"N_COORD97":2545961.4100000001,"ADDRESS":"北園街１１４巷３號","OBJECTID":339373},"geometry":{"x":170425.13999999966,"y":2545961.410000002}},{"attributes":{"ID":339383,"DIS_CODE":0,"TOWNNAME":"北區","LI":"元寶里","LIN":"1鄰","STREET":"北園街","SECT":" ","MAREA":" ","LANE":"１１４巷","ALLEY":" ","HOUSE_NO":"４號","E_COORD97":170379.07000000001,"N_COORD97":2545939.1699999999,"ADDRESS":"北園街１１４巷４號","OBJECTID":339374},"geometry":{"x":170379.0700000003,"y":2545939.1700000018}},{"attributes":{"ID":339384,"DIS_CODE":0,"TOWNNAME":"中西區","LI":"赤嵌里","LIN":"8鄰","STREET":"成功路","SECT":" ","MAREA":" ","LANE":" ","ALLEY":" ","HOUSE_NO":"１２１號","E_COORD97":168723.22,"N_COORD97":2544267.9300000002,"ADDRESS":"成功路１２１號","OBJECTID":339375},"geometry":{"x":168723.21999999974,"y":2544267.9299999997}},{"attributes":{"ID":339385,"DIS_CODE":0,"TOWNNAME":"中西區","LI":"赤嵌里","LIN":"8鄰","STREET":"成功路","SECT":" ","MAREA":" ","LANE":" ","ALLEY":" ","HOUSE_NO":"１２３號","E_COORD97":168712.31,"N_COORD97":2544266.9399999999,"ADDRESS":"成功路１２３號","OBJECTID":339376},"geometry":{"x":168712.30999999959,"y":2544266.9399999995}},{"attributes":{"ID":339386,"DIS_CODE":0,"TOWNNAME":"中西區","LI":"開山里","LIN":"5鄰","STREET":"府前路","SECT":"一段","MAREA":" ","LANE":"８５巷","ALLEY":" ","HOUSE_NO":"１６號","E_COORD97":168934.10000000001,"N_COORD97":2543219.0899999999,"ADDRESS":"府前路一段８５巷１６號","OBJECTID":339377},"geometry":{"x":168934.09999999963,"y":2543219.0899999999}},{"attributes":{"ID":339387,"DIS_CODE":0,"TOWNNAME":"中西區","LI":"開山里","LIN":"5鄰","STREET":"府前路","SECT":"一段","MAREA":" ","LANE":"８５巷","ALLEY":" ","HOUSE_NO":"１８號","E_COORD97":168932.01999999999,"N_COORD97":2543211.9900000002,"ADDRESS":"府前路一段８５巷１８號","OBJECTID":339378},"geometry":{"x":168932.02000000048,"y":2543211.9900000021}},{"attributes":{"ID":339388,"DIS_CODE":0,"TOWNNAME":"北區","LI":"元寶里","LIN":"1鄰","STREET":"北園街","SECT":" ","MAREA":" ","LANE":"１１４巷","ALLEY":" ","HOUSE_NO":"５號","E_COORD97":170428.85000000001,"N_COORD97":2545958.9399999999,"ADDRESS":"北園街１１４巷５號","OBJECTID":339379},"geometry":{"x":170428.84999999963,"y":2545958.9399999995}},{"attributes":{"ID":339389,"DIS_CODE":0,"TOWNNAME":"北區","LI":"元寶里","LIN":"1鄰","STREET":"北園街","SECT":" ","MAREA":" ","LANE":"１１４巷","ALLEY":" ","HOUSE_NO":"６號","E_COORD97":170382.78,"N_COORD97":2545939.1699999999,"ADDRESS":"北園街１１４巷６號","OBJECTID":339380},"geometry":{"x":170382.78000000026,"y":2545939.1700000018}},{"attributes":{"ID":339390,"DIS_CODE":0,"TOWNNAME":"北區","LI":"元寶里","LIN":"1鄰","STREET":"北園街","SECT":" ","MAREA":" ","LANE":"１１４巷","ALLEY":" ","HOUSE_NO":"７號","E_COORD97":170431.63,"N_COORD97":2545961.4100000001,"ADDRESS":"北園街１１４巷７號","OBJECTID":339381},"geometry":{"x":170431.63000000082,"y":2545961.410000002}},{"attributes":{"ID":339391,"DIS_CODE":0,"TOWNNAME":"北區","LI":"元寶里","LIN":"1鄰","STREET":"北園街","SECT":" ","MAREA":" ","LANE":"１１４巷","ALLEY":" ","HOUSE_NO":"８號","E_COORD97":170393.91,"N_COORD97":2545940.1000000001,"ADDRESS":"北園街１１４巷８號","OBJECTID":339382},"geometry":{"x":170393.91000000015,"y":2545940.1000000015}},{"attributes":{"ID":339392,"DIS_CODE":0,"TOWNNAME":"北區","LI":"元寶里","LIN":"1鄰","STREET":"北園街","SECT":" ","MAREA":" ","LANE":"１１４巷","ALLEY":" ","HOUSE_NO":"９號","E_COORD97":170436.57999999999,"N_COORD97":2545959.8599999999,"ADDRESS":"北園街１１４巷９號","OBJECTID":339383},"geometry":{"x":170436.58000000007,"y":2545959.8599999994}},{"attributes":{"ID":339393,"DIS_CODE":0,"TOWNNAME":"北區","LI":"元寶里","LIN":"1鄰","STREET":"北園街","SECT":" ","MAREA":" ","LANE":"１２２巷","ALLEY":" ","HOUSE_NO":"１０號","E_COORD97":170381.85000000001,"N_COORD97":2545961.1000000001,"ADDRESS":"北園街１２２巷１０號","OBJECTID":339384},"geometry":{"x":170381.84999999963,"y":2545961.0999999996}},{"attributes":{"ID":339394,"DIS_CODE":0,"TOWNNAME":"北區","LI":"元寶里","LIN":"1鄰","STREET":"北園街","SECT":" ","MAREA":" ","LANE":"１２２巷","ALLEY":" ","HOUSE_NO":"１１號","E_COORD97":170388.66,"N_COORD97":2545978.3999999999,"ADDRESS":"北園街１２２巷１１號","OBJECTID":339385},"geometry":{"x":170388.66000000015,"y":2545978.4000000041}},{"attributes":{"ID":339395,"DIS_CODE":0,"TOWNNAME":"新市區","LI":"大社里","LIN":"5鄰","STREET":" ","SECT":" ","MAREA":"大社","LANE":" ","ALLEY":" ","HOUSE_NO":"１９０之１６號","E_COORD97":180241.14999999999,"N_COORD97":2554329.7999999998,"ADDRESS":"大社１９０之１６號","OBJECTID":339386},"geometry":{"x":180241.15000000037,"y":2554329.8000000045}},{"attributes":{"ID":339396,"DIS_CODE":0,"TOWNNAME":"北區","LI":"元寶里","LIN":"1鄰","STREET":"北園街","SECT":" ","MAREA":" ","LANE":"１２２巷","ALLEY":" ","HOUSE_NO":"１２號","E_COORD97":170386.79999999999,"N_COORD97":2545961.4100000001,"ADDRESS":"北園街１２２巷１２號","OBJECTID":339387},"geometry":{"x":170386.80000000075,"y":2545961.410000002}},{"attributes":{"ID":339397,"DIS_CODE":0,"TOWNNAME":"新市區","LI":"大洲里","LIN":"5鄰","STREET":" ","SECT":" ","MAREA":"大洲","LANE":" ","ALLEY":" ","HOUSE_NO":"４８號之１","E_COORD97":174174.59,"N_COORD97":2552258.5499999998,"ADDRESS":"大洲４８號之１","OBJECTID":339388},"geometry":{"x":174174.59000000171,"y":2552258.5500000007}},{"attributes":{"ID":339398,"DIS_CODE":0,"TOWNNAME":"中西區","LI":"赤嵌里","LIN":"8鄰","STREET":"成功路","SECT":" ","MAREA":" ","LANE":" ","ALLEY":" ","HOUSE_NO":"９９號","E_COORD97":168795.60000000001,"N_COORD97":2544254.7200000002,"ADDRESS":"成功路９９號","OBJECTID":339389},"geometry":{"x":168795.60000000056,"y":2544254.7200000025}},{"attributes":{"ID":339399,"DIS_CODE":0,"TOWNNAME":"新市區","LI":"潭頂里","LIN":"5鄰","STREET":" ","SECT":" ","MAREA":"潭頂","LANE":" ","ALLEY":" ","HOUSE_NO":"２２０號","E_COORD97":180751.76000000001,"N_COORD97":2552996.5,"ADDRESS":"潭頂２２０號","OBJECTID":339390},"geometry":{"x":180751.75999999978,"y":2552996.5000000019}},{"attributes":{"ID":339400,"DIS_CODE":0,"TOWNNAME":"新市區","LI":"潭頂里","LIN":"5鄰","STREET":" ","SECT":" ","MAREA":"潭頂","LANE":" ","ALLEY":" ","HOUSE_NO":"２２８之２號","E_COORD97":180774.29000000001,"N_COORD97":2553043.2999999998,"ADDRESS":"潭頂２２８之２號","OBJECTID":339391},"geometry":{"x":180774.28999999911,"y":2553043.3000000007}},{"attributes":{"ID":339401,"DIS_CODE":0,"TOWNNAME":"新市區","LI":"大營里","LIN":"5鄰","STREET":" ","SECT":" ","MAREA":"大營","LANE":" ","ALLEY":" ","HOUSE_NO":"７８之３１號","E_COORD97":179645.98999999999,"N_COORD97":2555453.2999999998,"ADDRESS":"大營７８之３１號","OBJECTID":339392},"geometry":{"x":179645.99000000209,"y":2555453.3000000026}},{"attributes":{"ID":339402,"DIS_CODE":0,"TOWNNAME":"新市區","LI":"三舍里","LIN":"5鄰","STREET":" ","SECT":" ","MAREA":"三舍","LANE":" ","ALLEY":" ","HOUSE_NO":"１２５之３號","E_COORD97":177857.37,"N_COORD97":2554571.29,"ADDRESS":"三舍１２５之３號","OBJECTID":339393},"geometry":{"x":177857.37000000104,"y":2554571.2899999991}},{"attributes":{"ID":339403,"DIS_CODE":0,"TOWNNAME":"新市區","LI":"大社里","LIN":"5鄰","STREET":" ","SECT":" ","MAREA":"大社","LANE":" ","ALLEY":" ","HOUSE_NO":"１５３號","E_COORD97":180146.51000000001,"N_COORD97":2554246,"ADDRESS":"大社１５３號","OBJECTID":339394},"geometry":{"x":180146.50999999978,"y":2554245.9999999981}},{"attributes":{"ID":339404,"DIS_CODE":0,"TOWNNAME":"仁德區","LI":"新田里","LIN":"8鄰","STREET":"北保路","SECT":" ","MAREA":" ","LANE":" ","ALLEY":" ","HOUSE_NO":"２２０號","E_COORD97":173554.20000000001,"N_COORD97":2539387.25,"ADDRESS":"北保路２２０號","OBJECTID":339395},"geometry":{"x":173554.20000000112,"y":2539387.25}},{"attributes":{"ID":339405,"DIS_CODE":0,"TOWNNAME":"北區","LI":"元寶里","LIN":"1鄰","STREET":"北園街","SECT":" ","MAREA":" ","LANE":"１１４巷","ALLEY":" ","HOUSE_NO":"１３號","E_COORD97":170393.91,"N_COORD97":2545979.0099999998,"ADDRESS":"北園街１２２巷１３號","OBJECTID":339396},"geometry":{"x":170393.91000000015,"y":2545979.0099999998}},{"attributes":{"ID":339406,"DIS_CODE":0,"TOWNNAME":"北區","LI":"元寶里","LIN":"1鄰","STREET":"北園街","SECT":" ","MAREA":" ","LANE":"１２２巷","ALLEY":" ","HOUSE_NO":"１４號","E_COORD97":170389.89000000001,"N_COORD97":2545961.7200000002,"ADDRESS":"北園街１２２巷１４號","OBJECTID":339397},"geometry":{"x":170389.88999999966,"y":2545961.7200000007}},{"attributes":{"ID":339407,"DIS_CODE":0,"TOWNNAME":"北門區","LI":"東壁里","LIN":"5鄰","STREET":" ","SECT":" ","MAREA":"蚵寮","LANE":" ","ALLEY":" ","HOUSE_NO":"５９７號","E_COORD97":161599.98999999999,"N_COORD97":2576400,"ADDRESS":"蚵寮５９７號","OBJECTID":339398},"geometry":{"x":161599.99000000022,"y":2576400.0000000019}},{"attributes":{"ID":339408,"DIS_CODE":0,"TOWNNAME":"北區","LI":"元寶里","LIN":"1鄰","STREET":"北園街","SECT":" ","MAREA":" ","LANE":"１１４巷","ALLEY":" ","HOUSE_NO":"１５號","E_COORD97":170400.10000000001,"N_COORD97":2545979.6299999999,"ADDRESS":"北園街１２２巷１５號","OBJECTID":339399},"geometry":{"x":170400.09999999963,"y":2545979.6300000008}},{"attributes":{"ID":339409,"DIS_CODE":0,"TOWNNAME":"仁德區","LI":"新田里","LIN":"8鄰","STREET":"北保路","SECT":" ","MAREA":" ","LANE":" ","ALLEY":" ","HOUSE_NO":"１８５號","E_COORD97":173499.19,"N_COORD97":2539441.9900000002,"ADDRESS":"北保路１８５號","OBJECTID":339400},"geometry":{"x":173499.19000000041,"y":2539441.9900000021}}]}