{"displayFieldName":"TOWNNAME","fieldAliases":{"ID":"ID","DIS_CODE":"DIS_CODE","TOWNNAME":"TOWNNAME","LI":"LI","LIN":"LIN","STREET":"STREET","SECT":"SECT","MAREA":"MAREA","LANE":"LANE","ALLEY":"ALLEY","HOUSE_NO":"HOUSE_NO","E_COORD97":"E_COORD97","N_COORD97":"N_COORD97","ADDRESS":"ADDRESS","OBJECTID":"OBJECTID"},"geometryType":"esriGeometryPoint","spatialReference":{"wkid":102443,"latestWkid":3826},"fields":[{"name":"ID","type":"esriFieldTypeDouble","alias":"ID"},{"name":"DIS_CODE","type":"esriFieldTypeInteger","alias":"DIS_CODE"},{"name":"TOWNNAME","type":"esriFieldTypeString","alias":"TOWNNAME","length":8},{"name":"LI","type":"esriFieldTypeString","alias":"LI","length":8},{"name":"LIN","type":"esriFieldTypeString","alias":"LIN","length":12},{"name":"STREET","type":"esriFieldTypeString","alias":"STREET","length":20},{"name":"SECT","type":"esriFieldTypeString","alias":"SECT","length":8},{"name":"MAREA","type":"esriFieldTypeString","alias":"MAREA","length":12},{"name":"LANE","type":"esriFieldTypeString","alias":"LANE","length":10},{"name":"ALLEY","type":"esriFieldTypeString","alias":"ALLEY","length":10},{"name":"HOUSE_NO","type":"esriFieldTypeString","alias":"HOUSE_NO","length":20},{"name":"E_COORD97","type":"esriFieldTypeDouble","alias":"E_COORD97"},{"name":"N_COORD97","type":"esriFieldTypeDouble","alias":"N_COORD97"},{"name":"ADDRESS","type":"esriFieldTypeString","alias":"ADDRESS","length":50},{"name":"OBJECTID","type":"esriFieldTypeOID","alias":"OBJECTID"}],"features":[{"attributes":{"ID":187802,"DIS_CODE":0,"TOWNNAME":"安南區","LI":"安慶里","LIN":"5鄰","STREET":"怡安路","SECT":"一段","MAREA":" ","LANE":"２６２巷","ALLEY":"３３弄","HOUSE_NO":"１５號","E_COORD97":168987.67999999999,"N_COORD97":2549181.3700000001,"ADDRESS":"怡安路一段２６２巷３３弄１５號","OBJECTID":187801},"geometry":{"x":168987.6799999997,"y":2549181.370000001}},{"attributes":{"ID":187803,"DIS_CODE":0,"TOWNNAME":"安南區","LI":"安慶里","LIN":"5鄰","STREET":"怡安路","SECT":"一段","MAREA":" ","LANE":"２６２巷","ALLEY":"３３弄","HOUSE_NO":"１７號","E_COORD97":168983.70999999999,"N_COORD97":2549182.6400000001,"ADDRESS":"怡安路一段２６２巷３３弄１７號","OBJECTID":187802},"geometry":{"x":168983.71000000089,"y":2549182.6400000006}},{"attributes":{"ID":187804,"DIS_CODE":0,"TOWNNAME":"安南區","LI":"安慶里","LIN":"5鄰","STREET":"怡安路","SECT":"一段","MAREA":" ","LANE":"２６２巷","ALLEY":"３３弄","HOUSE_NO":"２號","E_COORD97":169013.87,"N_COORD97":2549190.1000000001,"ADDRESS":"怡安路一段２６２巷３３弄２號","OBJECTID":187803},"geometry":{"x":169013.87000000011,"y":2549190.1000000034}},{"attributes":{"ID":187805,"DIS_CODE":0,"TOWNNAME":"安南區","LI":"安慶里","LIN":"5鄰","STREET":"怡安路","SECT":"一段","MAREA":" ","LANE":"２６２巷","ALLEY":"３３弄","HOUSE_NO":"８號","E_COORD97":169003.39999999999,"N_COORD97":2549193.1200000001,"ADDRESS":"怡安路一段２６２巷３３弄８號","OBJECTID":187804},"geometry":{"x":169003.4000000013,"y":2549193.1200000029}},{"attributes":{"ID":187806,"DIS_CODE":0,"TOWNNAME":"安南區","LI":"安慶里","LIN":"5鄰","STREET":"怡安路","SECT":"一段","MAREA":" ","LANE":"２６２巷","ALLEY":"３３弄","HOUSE_NO":"１０號","E_COORD97":168999.59,"N_COORD97":2549193.6000000001,"ADDRESS":"怡安路一段２６２巷３３弄１０號","OBJECTID":187805},"geometry":{"x":168999.59000000078,"y":2549193.6000000034}},{"attributes":{"ID":187807,"DIS_CODE":0,"TOWNNAME":"安南區","LI":"安慶里","LIN":"5鄰","STREET":"怡安路","SECT":"一段","MAREA":" ","LANE":"２６２巷","ALLEY":"３３弄","HOUSE_NO":"１２號","E_COORD97":168995.45999999999,"N_COORD97":2549194.8700000001,"ADDRESS":"怡安路一段２６２巷３３弄１２號","OBJECTID":187806},"geometry":{"x":168995.46000000089,"y":2549194.870000001}},{"attributes":{"ID":187808,"DIS_CODE":0,"TOWNNAME":"安南區","LI":"安慶里","LIN":"5鄰","STREET":"怡安路","SECT":"一段","MAREA":" ","LANE":"２６２巷","ALLEY":"３３弄","HOUSE_NO":"１６號","E_COORD97":168991.32999999999,"N_COORD97":2549196.29,"ADDRESS":"怡安路一段２６２巷３３弄１６號","OBJECTID":187807},"geometry":{"x":168991.33000000101,"y":2549196.290000001}},{"attributes":{"ID":187809,"DIS_CODE":0,"TOWNNAME":"安南區","LI":"安慶里","LIN":"5鄰","STREET":"怡安路","SECT":"一段","MAREA":" ","LANE":"２６２巷","ALLEY":"３３弄","HOUSE_NO":"１８號","E_COORD97":168987.67999999999,"N_COORD97":2549197.0899999999,"ADDRESS":"怡安路一段２６２巷３３弄１８號","OBJECTID":187808},"geometry":{"x":168987.6799999997,"y":2549197.0900000036}},{"attributes":{"ID":187810,"DIS_CODE":0,"TOWNNAME":"安南區","LI":"安慶里","LIN":"5鄰","STREET":"怡安路","SECT":"一段","MAREA":" ","LANE":"２６２巷","ALLEY":"３３弄","HOUSE_NO":"２０號","E_COORD97":168983.54999999999,"N_COORD97":2549198.6800000002,"ADDRESS":"怡安路一段２６２巷３３弄２０號","OBJECTID":187809},"geometry":{"x":168983.54999999981,"y":2549198.6799999997}},{"attributes":{"ID":187811,"DIS_CODE":0,"TOWNNAME":"安南區","LI":"安慶里","LIN":"5鄰","STREET":"怡安路","SECT":"一段","MAREA":" ","LANE":"２６２巷","ALLEY":"３３弄","HOUSE_NO":"２２號","E_COORD97":168979.57999999999,"N_COORD97":2549199.4700000002,"ADDRESS":"怡安路一段２６２巷３３弄２２號","OBJECTID":187810},"geometry":{"x":168979.58000000101,"y":2549199.4700000025}},{"attributes":{"ID":187812,"DIS_CODE":0,"TOWNNAME":"安南區","LI":"安慶里","LIN":"5鄰","STREET":"怡安路","SECT":"一段","MAREA":" ","LANE":"２６２巷","ALLEY":"３３弄","HOUSE_NO":"２６號","E_COORD97":168974.98000000001,"N_COORD97":2549200.7400000002,"ADDRESS":"怡安路一段２６２巷３３弄２６號","OBJECTID":187811},"geometry":{"x":168974.97999999952,"y":2549200.7400000021}},{"attributes":{"ID":187813,"DIS_CODE":0,"TOWNNAME":"安南區","LI":"安慶里","LIN":"5鄰","STREET":"怡安路","SECT":"一段","MAREA":" ","LANE":"２６２巷","ALLEY":"３５弄","HOUSE_NO":"２號","E_COORD97":169013.87,"N_COORD97":2549220.6499999999,"ADDRESS":"怡安路一段２６２巷３５弄２號","OBJECTID":187812},"geometry":{"x":169013.87000000011,"y":2549220.6500000004}},{"attributes":{"ID":187814,"DIS_CODE":0,"TOWNNAME":"安南區","LI":"安慶里","LIN":"5鄰","STREET":"怡安路","SECT":"一段","MAREA":" ","LANE":"２６２巷","ALLEY":"３５弄","HOUSE_NO":"６號","E_COORD97":169006.91,"N_COORD97":2549223.3199999998,"ADDRESS":"怡安路一段２６２巷３５弄６號","OBJECTID":187813},"geometry":{"x":169006.91000000015,"y":2549223.320000004}},{"attributes":{"ID":187815,"DIS_CODE":0,"TOWNNAME":"安南區","LI":"安慶里","LIN":"5鄰","STREET":"怡安路","SECT":"一段","MAREA":" ","LANE":"２６２巷","ALLEY":"３５弄","HOUSE_NO":"８號","E_COORD97":169003.26000000001,"N_COORD97":2549224.75,"ADDRESS":"怡安路一段２６２巷３５弄８號","OBJECTID":187814},"geometry":{"x":169003.26000000071,"y":2549224.7500000019}},{"attributes":{"ID":187816,"DIS_CODE":0,"TOWNNAME":"安南區","LI":"安慶里","LIN":"5鄰","STREET":"怡安路","SECT":"一段","MAREA":" ","LANE":"２６２巷","ALLEY":"３５弄","HOUSE_NO":"１０號","E_COORD97":169000.14999999999,"N_COORD97":2549225.3900000001,"ADDRESS":"怡安路一段２６２巷３５弄１０號","OBJECTID":187815},"geometry":{"x":169000.15000000037,"y":2549225.3900000006}},{"attributes":{"ID":187817,"DIS_CODE":0,"TOWNNAME":"東區","LI":"大智里","LIN":"5鄰","STREET":"長東街","SECT":" ","MAREA":" ","LANE":"４１巷","ALLEY":"２弄","HOUSE_NO":"１５號","E_COORD97":171085.44,"N_COORD97":2540462.0099999998,"ADDRESS":"長東街４１巷２弄１５號","OBJECTID":187816},"geometry":{"x":171085.44000000041,"y":2540462.0100000016}},{"attributes":{"ID":187818,"DIS_CODE":0,"TOWNNAME":"安南區","LI":"安慶里","LIN":"5鄰","STREET":"怡安路","SECT":"一段","MAREA":" ","LANE":"２６２巷","ALLEY":"３５弄","HOUSE_NO":"１２號","E_COORD97":168995.75,"N_COORD97":2549227.0899999999,"ADDRESS":"怡安路一段２６２巷３５弄１２號","OBJECTID":187817},"geometry":{"x":168995.75,"y":2549227.0899999999}},{"attributes":{"ID":187819,"DIS_CODE":0,"TOWNNAME":"安南區","LI":"安慶里","LIN":"5鄰","STREET":"怡安路","SECT":"一段","MAREA":" ","LANE":"２６２巷","ALLEY":"３５弄","HOUSE_NO":"１６號","E_COORD97":168991.51999999999,"N_COORD97":2549228.7799999998,"ADDRESS":"怡安路一段２６２巷３５弄１６號","OBJECTID":187818},"geometry":{"x":168991.52000000048,"y":2549228.7799999993}},{"attributes":{"ID":187820,"DIS_CODE":0,"TOWNNAME":"南區","LI":"開南里","LIN":"21鄰","STREET":"新建路","SECT":" ","MAREA":" ","LANE":"４１巷","ALLEY":" ","HOUSE_NO":"１號","E_COORD97":166498.70000000001,"N_COORD97":2540997.0600000001,"ADDRESS":"新建路４１巷１號","OBJECTID":187819},"geometry":{"x":166498.70000000112,"y":2540997.0600000024}},{"attributes":{"ID":187821,"DIS_CODE":0,"TOWNNAME":"仁德區","LI":"上崙里","LIN":"4鄰","STREET":"德南路","SECT":" ","MAREA":" ","LANE":" ","ALLEY":" ","HOUSE_NO":"２７４號","E_COORD97":173855.73000000001,"N_COORD97":2538324.2599999998,"ADDRESS":"德南路２７４號","OBJECTID":187820},"geometry":{"x":173855.73000000138,"y":2538324.2600000016}},{"attributes":{"ID":187822,"DIS_CODE":0,"TOWNNAME":"將軍區","LI":"嘉昌里","LIN":"11鄰","STREET":" ","SECT":" ","MAREA":"北嘉","LANE":" ","ALLEY":" ","HOUSE_NO":"９８之５號","E_COORD97":163161.32000000001,"N_COORD97":2567924.3199999998,"ADDRESS":"北嘉９８之５號","OBJECTID":187821},"geometry":{"x":163161.3200000003,"y":2567924.3199999984}},{"attributes":{"ID":187823,"DIS_CODE":0,"TOWNNAME":"將軍區","LI":"嘉昌里","LIN":"11鄰","STREET":" ","SECT":" ","MAREA":"北嘉","LANE":" ","ALLEY":" ","HOUSE_NO":"９８之６號","E_COORD97":163146.42999999999,"N_COORD97":2567924.71,"ADDRESS":"北嘉９８之６號","OBJECTID":187822},"geometry":{"x":163146.42999999877,"y":2567924.7100000009}},{"attributes":{"ID":187824,"DIS_CODE":0,"TOWNNAME":"將軍區","LI":"嘉昌里","LIN":"11鄰","STREET":" ","SECT":" ","MAREA":"北嘉","LANE":" ","ALLEY":" ","HOUSE_NO":"９８之７號","E_COORD97":163137.41,"N_COORD97":2567925.4300000002,"ADDRESS":"北嘉９８之７號","OBJECTID":187823},"geometry":{"x":163137.41000000108,"y":2567925.4299999997}},{"attributes":{"ID":187825,"DIS_CODE":0,"TOWNNAME":"安南區","LI":"安慶里","LIN":"5鄰","STREET":"怡安路","SECT":"一段","MAREA":" ","LANE":"２６２巷","ALLEY":"３５弄","HOUSE_NO":"１８號","E_COORD97":168987.10999999999,"N_COORD97":2549230.4700000002,"ADDRESS":"怡安路一段２６２巷３５弄１８號","OBJECTID":187824},"geometry":{"x":168987.11000000034,"y":2549230.4700000025}},{"attributes":{"ID":187826,"DIS_CODE":0,"TOWNNAME":"東區","LI":"德高里","LIN":"21鄰","STREET":"崇善路","SECT":" ","MAREA":" ","LANE":" ","ALLEY":" ","HOUSE_NO":"８３７號","E_COORD97":171302.54000000001,"N_COORD97":2540824.9199999999,"ADDRESS":"崇善路８３７號","OBJECTID":187825},"geometry":{"x":171302.54000000097,"y":2540824.9200000018}},{"attributes":{"ID":187827,"DIS_CODE":0,"TOWNNAME":"東區","LI":"德高里","LIN":"21鄰","STREET":"崇善路","SECT":" ","MAREA":" ","LANE":" ","ALLEY":" ","HOUSE_NO":"８３９號","E_COORD97":171304.57000000001,"N_COORD97":2540821.1200000001,"ADDRESS":"崇善路８３９號","OBJECTID":187826},"geometry":{"x":171304.5700000003,"y":2540821.1200000029}},{"attributes":{"ID":187828,"DIS_CODE":0,"TOWNNAME":"將軍區","LI":"嘉昌里","LIN":"11鄰","STREET":" ","SECT":" ","MAREA":"北嘉","LANE":" ","ALLEY":" ","HOUSE_NO":"９８號","E_COORD97":163201.87,"N_COORD97":2567906.4300000002,"ADDRESS":"北嘉９８號","OBJECTID":187827},"geometry":{"x":163201.87000000104,"y":2567906.4300000034}},{"attributes":{"ID":187829,"DIS_CODE":0,"TOWNNAME":"將軍區","LI":"平沙里","LIN":"11鄰","STREET":" ","SECT":" ","MAREA":"平沙","LANE":" ","ALLEY":" ","HOUSE_NO":"１００之１號","E_COORD97":157284.54000000001,"N_COORD97":2568461.2400000002,"ADDRESS":"平沙１００之１號","OBJECTID":187828},"geometry":{"x":157284.54000000097,"y":2568461.2400000021}},{"attributes":{"ID":187830,"DIS_CODE":0,"TOWNNAME":"將軍區","LI":"平沙里","LIN":"11鄰","STREET":" ","SECT":" ","MAREA":"平沙","LANE":" ","ALLEY":" ","HOUSE_NO":"１００號","E_COORD97":157279.67999999999,"N_COORD97":2568460.25,"ADDRESS":"平沙１００號","OBJECTID":187829},"geometry":{"x":157279.68000000063,"y":2568460.2499999981}},{"attributes":{"ID":187831,"DIS_CODE":0,"TOWNNAME":"將軍區","LI":"平沙里","LIN":"11鄰","STREET":" ","SECT":" ","MAREA":"平沙","LANE":" ","ALLEY":" ","HOUSE_NO":"８８之１號","E_COORD97":157219.51999999999,"N_COORD97":2568453.5499999998,"ADDRESS":"平沙８８之１號","OBJECTID":187830},"geometry":{"x":157219.52000000142,"y":2568453.5500000026}},{"attributes":{"ID":187832,"DIS_CODE":0,"TOWNNAME":"將軍區","LI":"玉山里","LIN":"11鄰","STREET":" ","SECT":" ","MAREA":"玉山","LANE":" ","ALLEY":" ","HOUSE_NO":"９３之２號","E_COORD97":160409.04999999999,"N_COORD97":2567809.3799999999,"ADDRESS":"玉山９３之２號","OBJECTID":187831},"geometry":{"x":160409.04999999981,"y":2567809.379999999}},{"attributes":{"ID":187833,"DIS_CODE":0,"TOWNNAME":"安南區","LI":"安慶里","LIN":"5鄰","STREET":"怡安路","SECT":"一段","MAREA":" ","LANE":"２６２巷","ALLEY":"３５弄","HOUSE_NO":"２０號","E_COORD97":168982.70999999999,"N_COORD97":2549231.4900000002,"ADDRESS":"怡安路一段２６２巷３５弄２０號","OBJECTID":187832},"geometry":{"x":168982.70999999996,"y":2549231.4900000002}},{"attributes":{"ID":187834,"DIS_CODE":0,"TOWNNAME":"安南區","LI":"安慶里","LIN":"5鄰","STREET":"怡安路","SECT":"一段","MAREA":" ","LANE":"２６２巷","ALLEY":"３５弄","HOUSE_NO":"２２號","E_COORD97":168983.89999999999,"N_COORD97":2549245.0699999998,"ADDRESS":"怡安路一段２６２巷３５弄２２號","OBJECTID":187833},"geometry":{"x":168983.89999999944,"y":2549245.0699999984}},{"attributes":{"ID":187835,"DIS_CODE":0,"TOWNNAME":"安南區","LI":"安慶里","LIN":"5鄰","STREET":"怡安路","SECT":"一段","MAREA":" ","LANE":"２６２巷","ALLEY":"３５弄","HOUSE_NO":"２６號","E_COORD97":168983.42000000001,"N_COORD97":2549249.6800000002,"ADDRESS":"怡安路一段２６２巷３５弄２６號","OBJECTID":187834},"geometry":{"x":168983.42000000179,"y":2549249.6799999997}},{"attributes":{"ID":187836,"DIS_CODE":0,"TOWNNAME":"安南區","LI":"安慶里","LIN":"5鄰","STREET":"怡安路","SECT":"一段","MAREA":" ","LANE":"２６２巷","ALLEY":"３５弄","HOUSE_NO":"２８號","E_COORD97":168982.78,"N_COORD97":2549253.6499999999,"ADDRESS":"怡安路一段２６２巷３５弄２８號","OBJECTID":187835},"geometry":{"x":168982.78000000026,"y":2549253.6500000004}},{"attributes":{"ID":187837,"DIS_CODE":0,"TOWNNAME":"安南區","LI":"安慶里","LIN":"5鄰","STREET":"怡安路","SECT":"一段","MAREA":" ","LANE":"２６２巷","ALLEY":"３５弄","HOUSE_NO":"３０號","E_COORD97":168982.31,"N_COORD97":2549257.6200000001,"ADDRESS":"怡安路一段２６２巷３５弄３０號","OBJECTID":187836},"geometry":{"x":168982.31000000052,"y":2549257.620000001}},{"attributes":{"ID":187838,"DIS_CODE":0,"TOWNNAME":"安南區","LI":"佃西里","LIN":"5鄰","STREET":"公學路","SECT":"四段","MAREA":" ","LANE":"１２６巷","ALLEY":"１２８弄","HOUSE_NO":"５３號","E_COORD97":165188.640805,"N_COORD97":2551895.1070900001,"ADDRESS":"公學路四段１２６巷１２８弄５３號","OBJECTID":187837},"geometry":{"x":165188.64080500044,"y":2551895.1070869993}},{"attributes":{"ID":187839,"DIS_CODE":0,"TOWNNAME":"安南區","LI":"佃西里","LIN":"5鄰","STREET":"公學路","SECT":"四段","MAREA":" ","LANE":"１２６巷","ALLEY":"１２８弄","HOUSE_NO":"５５號","E_COORD97":165184.61532400001,"N_COORD97":2551897.6470900001,"ADDRESS":"公學路四段１２６巷１２８弄５５號","OBJECTID":187838},"geometry":{"x":165184.61532400083,"y":2551897.6470860019}},{"attributes":{"ID":187840,"DIS_CODE":0,"TOWNNAME":"安南區","LI":"佃西里","LIN":"5鄰","STREET":"公學路","SECT":"四段","MAREA":" ","LANE":"１２６巷","ALLEY":"１２８弄","HOUSE_NO":"５７號","E_COORD97":165182.072915,"N_COORD97":2551900.1870800001,"ADDRESS":"公學路四段１２６巷１２８弄５７號","OBJECTID":187839},"geometry":{"x":165182.07291499991,"y":2551900.1870840024}},{"attributes":{"ID":187841,"DIS_CODE":0,"TOWNNAME":"安南區","LI":"佃西里","LIN":"5鄰","STREET":"公學路","SECT":"四段","MAREA":" ","LANE":"１２６巷","ALLEY":"１２８弄","HOUSE_NO":"５９號","E_COORD97":165178.04743400001,"N_COORD97":2551902.7270800001,"ADDRESS":"公學路四段１２６巷１２８弄５９號","OBJECTID":187840},"geometry":{"x":165178.04743400123,"y":2551902.7270830013}},{"attributes":{"ID":187842,"DIS_CODE":0,"TOWNNAME":"安南區","LI":"佃西里","LIN":"5鄰","STREET":"公學路","SECT":"四段","MAREA":" ","LANE":"１２６巷","ALLEY":"１２８弄","HOUSE_NO":"６１號","E_COORD97":165175.50502499999,"N_COORD97":2551905.4787499998,"ADDRESS":"公學路四段１２６巷１２８弄６１號","OBJECTID":187841},"geometry":{"x":165175.50502500217,"y":2551905.478748003}},{"attributes":{"ID":187843,"DIS_CODE":0,"TOWNNAME":"安南區","LI":"佃西里","LIN":"5鄰","STREET":"公學路","SECT":"四段","MAREA":" ","LANE":"１２６巷","ALLEY":"１２８弄","HOUSE_NO":"６３號","E_COORD97":165171.479544,"N_COORD97":2551907.38375,"ADDRESS":"公學路四段１２６巷１２８弄６３號","OBJECTID":187842},"geometry":{"x":165171.4795440007,"y":2551907.3837470021}},{"attributes":{"ID":187844,"DIS_CODE":0,"TOWNNAME":"安南區","LI":"佃西里","LIN":"5鄰","STREET":"公學路","SECT":"四段","MAREA":" ","LANE":"１２６巷","ALLEY":"１２８弄","HOUSE_NO":"６５號","E_COORD97":165168.5134,"N_COORD97":2551910.5587499999,"ADDRESS":"公學路四段１２６巷１２８弄６５號","OBJECTID":187843},"geometry":{"x":165168.51340000052,"y":2551910.5587450024}},{"attributes":{"ID":187845,"DIS_CODE":0,"TOWNNAME":"將軍區","LI":"平沙里","LIN":"11鄰","STREET":" ","SECT":" ","MAREA":"平沙","LANE":" ","ALLEY":" ","HOUSE_NO":"８８號","E_COORD97":157226.70000000001,"N_COORD97":2568452.1699999999,"ADDRESS":"平沙８８號","OBJECTID":187844},"geometry":{"x":157226.70000000019,"y":2568452.1700000018}},{"attributes":{"ID":187846,"DIS_CODE":0,"TOWNNAME":"將軍區","LI":"平沙里","LIN":"11鄰","STREET":" ","SECT":" ","MAREA":"平沙","LANE":" ","ALLEY":" ","HOUSE_NO":"８９之１號","E_COORD97":157244.67999999999,"N_COORD97":2568450.0499999998,"ADDRESS":"平沙８９之１號","OBJECTID":187845},"geometry":{"x":157244.68000000063,"y":2568450.0500000026}},{"attributes":{"ID":187847,"DIS_CODE":0,"TOWNNAME":"將軍區","LI":"平沙里","LIN":"11鄰","STREET":" ","SECT":" ","MAREA":"平沙","LANE":" ","ALLEY":" ","HOUSE_NO":"８９號","E_COORD97":157244.41,"N_COORD97":2568463.1499999999,"ADDRESS":"平沙８９號","OBJECTID":187846},"geometry":{"x":157244.40999999922,"y":2568463.1500000022}},{"attributes":{"ID":187848,"DIS_CODE":0,"TOWNNAME":"將軍區","LI":"平沙里","LIN":"11鄰","STREET":" ","SECT":" ","MAREA":"平沙","LANE":" ","ALLEY":" ","HOUSE_NO":"９０號","E_COORD97":157231.73000000001,"N_COORD97":2568476.4100000001,"ADDRESS":"平沙９０號","OBJECTID":187847},"geometry":{"x":157231.73000000045,"y":2568476.4100000039}},{"attributes":{"ID":187849,"DIS_CODE":0,"TOWNNAME":"將軍區","LI":"平沙里","LIN":"11鄰","STREET":" ","SECT":" ","MAREA":"平沙","LANE":" ","ALLEY":" ","HOUSE_NO":"９１之１號","E_COORD97":157259.47,"N_COORD97":2568460.4500000002,"ADDRESS":"平沙９１之１號","OBJECTID":187848},"geometry":{"x":157259.47000000067,"y":2568460.4499999993}},{"attributes":{"ID":187850,"DIS_CODE":0,"TOWNNAME":"將軍區","LI":"平沙里","LIN":"11鄰","STREET":" ","SECT":" ","MAREA":"平沙","LANE":" ","ALLEY":" ","HOUSE_NO":"９１號","E_COORD97":157265.03,"N_COORD97":2568462.4900000002,"ADDRESS":"平沙９１號","OBJECTID":187849},"geometry":{"x":157265.03000000026,"y":2568462.4900000039}},{"attributes":{"ID":187851,"DIS_CODE":0,"TOWNNAME":"將軍區","LI":"平沙里","LIN":"11鄰","STREET":" ","SECT":" ","MAREA":"平沙","LANE":" ","ALLEY":" ","HOUSE_NO":"９３號","E_COORD97":157274.59,"N_COORD97":2568472.1099999999,"ADDRESS":"平沙９３號","OBJECTID":187850},"geometry":{"x":157274.58999999985,"y":2568472.1100000013}},{"attributes":{"ID":187852,"DIS_CODE":0,"TOWNNAME":"將軍區","LI":"玉山里","LIN":"11鄰","STREET":" ","SECT":" ","MAREA":"玉山","LANE":" ","ALLEY":" ","HOUSE_NO":"８７之１號","E_COORD97":160357.48000000001,"N_COORD97":2567796,"ADDRESS":"玉山８７之１號","OBJECTID":187851},"geometry":{"x":160357.48000000138,"y":2567796}},{"attributes":{"ID":187853,"DIS_CODE":0,"TOWNNAME":"安定區","LI":"港南里","LIN":"21鄰","STREET":" ","SECT":" ","MAREA":"港口","LANE":" ","ALLEY":" ","HOUSE_NO":"１７２號","E_COORD97":171400.32564200001,"N_COORD97":2554548.3670299998,"ADDRESS":"港口１７２號","OBJECTID":187852},"geometry":{"x":171400.32564200088,"y":2554548.3670280036}},{"attributes":{"ID":187854,"DIS_CODE":0,"TOWNNAME":"將軍區","LI":"玉山里","LIN":"11鄰","STREET":" ","SECT":" ","MAREA":"玉山","LANE":" ","ALLEY":" ","HOUSE_NO":"８８號","E_COORD97":160373.60000000001,"N_COORD97":2567773.1600000001,"ADDRESS":"玉山８８號","OBJECTID":187853},"geometry":{"x":160373.5999999987,"y":2567773.1600000039}},{"attributes":{"ID":187855,"DIS_CODE":0,"TOWNNAME":"安南區","LI":"安慶里","LIN":"5鄰","STREET":"頂安街","SECT":" ","MAREA":" ","LANE":"３７７巷","ALLEY":"７弄","HOUSE_NO":"７號","E_COORD97":169062.25,"N_COORD97":2549308,"ADDRESS":"頂安街３７７巷７弄７號","OBJECTID":187854},"geometry":{"x":169062.25,"y":2549308.0000000019}},{"attributes":{"ID":187856,"DIS_CODE":0,"TOWNNAME":"將軍區","LI":"玉山里","LIN":"11鄰","STREET":" ","SECT":" ","MAREA":"玉山","LANE":" ","ALLEY":" ","HOUSE_NO":"８９號","E_COORD97":160385.10999999999,"N_COORD97":2567771.8399999999,"ADDRESS":"玉山８９號","OBJECTID":187855},"geometry":{"x":160385.11000000127,"y":2567771.8400000017}},{"attributes":{"ID":187857,"DIS_CODE":0,"TOWNNAME":"將軍區","LI":"玉山里","LIN":"11鄰","STREET":" ","SECT":" ","MAREA":"玉山","LANE":" ","ALLEY":" ","HOUSE_NO":"９０號","E_COORD97":160379.66,"N_COORD97":2567786.2599999998,"ADDRESS":"玉山９０號","OBJECTID":187856},"geometry":{"x":160379.66000000108,"y":2567786.2600000016}},{"attributes":{"ID":187858,"DIS_CODE":0,"TOWNNAME":"安南區","LI":"佃西里","LIN":"5鄰","STREET":"公學路","SECT":"四段","MAREA":" ","LANE":"１２６巷","ALLEY":"１２８弄","HOUSE_NO":"６７號","E_COORD97":165164.911654,"N_COORD97":2551913.0987399998,"ADDRESS":"公學路四段１２６巷１２８弄６７號","OBJECTID":187857},"geometry":{"x":165164.91165400017,"y":2551913.0987440012}},{"attributes":{"ID":187859,"DIS_CODE":0,"TOWNNAME":"將軍區","LI":"玉山里","LIN":"11鄰","STREET":" ","SECT":" ","MAREA":"玉山","LANE":" ","ALLEY":" ","HOUSE_NO":"９１號","E_COORD97":160377.07000000001,"N_COORD97":2567809.0099999998,"ADDRESS":"玉山９１號","OBJECTID":187858},"geometry":{"x":160377.07000000123,"y":2567809.0100000016}},{"attributes":{"ID":187860,"DIS_CODE":0,"TOWNNAME":"將軍區","LI":"玉山里","LIN":"11鄰","STREET":" ","SECT":" ","MAREA":"玉山","LANE":" ","ALLEY":" ","HOUSE_NO":"９２號","E_COORD97":160387.92999999999,"N_COORD97":2567813.2200000002,"ADDRESS":"玉山９２號","OBJECTID":187859},"geometry":{"x":160387.9299999997,"y":2567813.2200000007}},{"attributes":{"ID":187861,"DIS_CODE":0,"TOWNNAME":"安南區","LI":"佃西里","LIN":"5鄰","STREET":"公學路","SECT":"四段","MAREA":" ","LANE":"１２６巷","ALLEY":"１２８弄","HOUSE_NO":"６９號","E_COORD97":165161.521775,"N_COORD97":2551914.79208,"ADDRESS":"公學路四段１２６巷１２８弄６９號","OBJECTID":187860},"geometry":{"x":165161.52177500073,"y":2551914.7920760009}},{"attributes":{"ID":187862,"DIS_CODE":0,"TOWNNAME":"南區","LI":"文南里","LIN":"21鄰","STREET":"健康路","SECT":"二段","MAREA":" ","LANE":" ","ALLEY":" ","HOUSE_NO":"４８１號","E_COORD97":166347.60000000001,"N_COORD97":2542547.2599999998,"ADDRESS":"健康路二段４８１號","OBJECTID":187861},"geometry":{"x":166347.60000000149,"y":2542547.2599999979}},{"attributes":{"ID":187863,"DIS_CODE":0,"TOWNNAME":"安南區","LI":"佃西里","LIN":"5鄰","STREET":"公學路","SECT":"四段","MAREA":" ","LANE":"１２６巷","ALLEY":"１２８弄","HOUSE_NO":"７１號","E_COORD97":165157.49629400001,"N_COORD97":2551918.1787399999,"ADDRESS":"公學路四段１２６巷１２８弄７１號","OBJECTID":187862},"geometry":{"x":165157.49629400205,"y":2551918.1787410006}},{"attributes":{"ID":187864,"DIS_CODE":0,"TOWNNAME":"將軍區","LI":"玉山里","LIN":"11鄰","STREET":" ","SECT":" ","MAREA":"玉山","LANE":" ","ALLEY":" ","HOUSE_NO":"９３之１０號","E_COORD97":160395.85000000001,"N_COORD97":2567844.8999999999,"ADDRESS":"玉山９３之１０號","OBJECTID":187863},"geometry":{"x":160395.85000000056,"y":2567844.9000000004}},{"attributes":{"ID":187865,"DIS_CODE":0,"TOWNNAME":"將軍區","LI":"玉山里","LIN":"11鄰","STREET":" ","SECT":" ","MAREA":"玉山","LANE":" ","ALLEY":" ","HOUSE_NO":"９３之７號","E_COORD97":160399.54999999999,"N_COORD97":2567832.04,"ADDRESS":"玉山９３之７號","OBJECTID":187864},"geometry":{"x":160399.54999999888,"y":2567832.0399999991}},{"attributes":{"ID":187866,"DIS_CODE":0,"TOWNNAME":"將軍區","LI":"玉山里","LIN":"11鄰","STREET":" ","SECT":" ","MAREA":"玉山","LANE":" ","ALLEY":" ","HOUSE_NO":"９３之８號","E_COORD97":160398.42000000001,"N_COORD97":2567836.1800000002,"ADDRESS":"玉山９３之８號","OBJECTID":187865},"geometry":{"x":160398.41999999993,"y":2567836.1799999997}},{"attributes":{"ID":187867,"DIS_CODE":0,"TOWNNAME":"將軍區","LI":"玉山里","LIN":"11鄰","STREET":" ","SECT":" ","MAREA":"玉山","LANE":" ","ALLEY":" ","HOUSE_NO":"９３之９號","E_COORD97":160397.10000000001,"N_COORD97":2567840.6099999999,"ADDRESS":"玉山９３之９號","OBJECTID":187866},"geometry":{"x":160397.09999999963,"y":2567840.6100000013}},{"attributes":{"ID":187868,"DIS_CODE":0,"TOWNNAME":"安南區","LI":"佃西里","LIN":"5鄰","STREET":"公學路","SECT":"四段","MAREA":" ","LANE":"１２６巷","ALLEY":"１２８弄","HOUSE_NO":"７３號","E_COORD97":165171.89999999999,"N_COORD97":2551933.6699999999,"ADDRESS":"公學路四段１２６巷１２８弄７３號","OBJECTID":187867},"geometry":{"x":165171.9000000013,"y":2551933.6700000018}},{"attributes":{"ID":187869,"DIS_CODE":0,"TOWNNAME":"將軍區","LI":"玉山里","LIN":"11鄰","STREET":" ","SECT":" ","MAREA":"玉山","LANE":" ","ALLEY":" ","HOUSE_NO":"９３號","E_COORD97":160395.84,"N_COORD97":2567815.9500000002,"ADDRESS":"玉山９３號","OBJECTID":187868},"geometry":{"x":160395.83999999985,"y":2567815.9499999993}},{"attributes":{"ID":187870,"DIS_CODE":0,"TOWNNAME":"安南區","LI":"佃西里","LIN":"5鄰","STREET":"公學路","SECT":"四段","MAREA":" ","LANE":"１２６巷","ALLEY":"１２８弄","HOUSE_NO":"７５號","E_COORD97":165176.14062699999,"N_COORD97":2551930.0320700002,"ADDRESS":"公學路四段１２６巷１２８弄７５號","OBJECTID":187869},"geometry":{"x":165176.14062699955,"y":2551930.032068003}},{"attributes":{"ID":187871,"DIS_CODE":0,"TOWNNAME":"安南區","LI":"佃西里","LIN":"5鄰","STREET":"公學路","SECT":"四段","MAREA":" ","LANE":"１２６巷","ALLEY":"１２８弄","HOUSE_NO":"７７號","E_COORD97":165180.80171,"N_COORD97":2551927.4920700002,"ADDRESS":"公學路四段１２６巷１２８弄７７號","OBJECTID":187870},"geometry":{"x":165180.80171000119,"y":2551927.4920690022}},{"attributes":{"ID":187872,"DIS_CODE":0,"TOWNNAME":"安南區","LI":"佃西里","LIN":"5鄰","STREET":"公學路","SECT":"四段","MAREA":" ","LANE":"１２６巷","ALLEY":"１２８弄","HOUSE_NO":"７９號","E_COORD97":165184.82719099999,"N_COORD97":2551926.0104,"ADDRESS":"公學路四段１２６巷１２８弄７９號","OBJECTID":187871},"geometry":{"x":165184.82719099987,"y":2551926.0104040001}},{"attributes":{"ID":187873,"DIS_CODE":0,"TOWNNAME":"安南區","LI":"佃西里","LIN":"5鄰","STREET":"公學路","SECT":"四段","MAREA":" ","LANE":"１２６巷","ALLEY":"１２８弄","HOUSE_NO":"８１號","E_COORD97":165188.428938,"N_COORD97":2551923.8937400002,"ADDRESS":"公學路四段１２６巷１２８弄８１號","OBJECTID":187872},"geometry":{"x":165188.42893799953,"y":2551923.8937379997}},{"attributes":{"ID":187874,"DIS_CODE":0,"TOWNNAME":"安南區","LI":"佃西里","LIN":"5鄰","STREET":"公學路","SECT":"四段","MAREA":" ","LANE":"１２６巷","ALLEY":"１２８弄","HOUSE_NO":"９１號","E_COORD97":165206.01393300001,"N_COORD97":2551909.9237500001,"ADDRESS":"公學路四段１２６巷１２８弄９１號","OBJECTID":187873},"geometry":{"x":165206.01393300109,"y":2551909.9237460028}},{"attributes":{"ID":187875,"DIS_CODE":0,"TOWNNAME":"安南區","LI":"佃西里","LIN":"5鄰","STREET":"公學路","SECT":"四段","MAREA":" ","LANE":"１２６巷","ALLEY":"１２８弄","HOUSE_NO":"８９號","E_COORD97":165201.14098299999,"N_COORD97":2551912.6754100001,"ADDRESS":"公學路四段１２６巷１２８弄８９號","OBJECTID":187874},"geometry":{"x":165201.14098300133,"y":2551912.6754110027}},{"attributes":{"ID":187876,"DIS_CODE":0,"TOWNNAME":"安南區","LI":"佃西里","LIN":"5鄰","STREET":"公學路","SECT":"四段","MAREA":" ","LANE":"１２６巷","ALLEY":"１２８弄","HOUSE_NO":"８７號","E_COORD97":165199.65791099999,"N_COORD97":2551917.7554100002,"ADDRESS":"公學路四段１２６巷１２８弄８７號","OBJECTID":187875},"geometry":{"x":165199.65791100077,"y":2551917.7554080021}},{"attributes":{"ID":187877,"DIS_CODE":0,"TOWNNAME":"安南區","LI":"佃西里","LIN":"5鄰","STREET":"公學路","SECT":"四段","MAREA":" ","LANE":"１２６巷","ALLEY":"１２８弄","HOUSE_NO":"８５號","E_COORD97":165196.479899,"N_COORD97":2551919.4487399999,"ADDRESS":"公學路四段１２６巷１２８弄８５號","OBJECTID":187876},"geometry":{"x":165196.47989900038,"y":2551919.4487400018}},{"attributes":{"ID":187878,"DIS_CODE":0,"TOWNNAME":"安南區","LI":"佃西里","LIN":"5鄰","STREET":"公學路","SECT":"四段","MAREA":" ","LANE":"１２６巷","ALLEY":"１２８弄","HOUSE_NO":"８３號","E_COORD97":165192.878153,"N_COORD97":2551921.9887399999,"ADDRESS":"公學路四段１２６巷１２８弄８３號","OBJECTID":187877},"geometry":{"x":165192.87815300003,"y":2551921.9887390006}},{"attributes":{"ID":187879,"DIS_CODE":0,"TOWNNAME":"安南區","LI":"安慶里","LIN":"5鄰","STREET":"頂安街","SECT":" ","MAREA":" ","LANE":"３７７巷","ALLEY":"７弄","HOUSE_NO":"２號","E_COORD97":169042.75,"N_COORD97":2549269.6800000002,"ADDRESS":"頂安街３７７巷７弄２號","OBJECTID":187878},"geometry":{"x":169042.75000000093,"y":2549269.6799999997}},{"attributes":{"ID":187880,"DIS_CODE":0,"TOWNNAME":"安南區","LI":"安慶里","LIN":"5鄰","STREET":"頂安街","SECT":" ","MAREA":" ","LANE":"３７７巷","ALLEY":"７弄","HOUSE_NO":"６號","E_COORD97":169047.73000000001,"N_COORD97":2549269.9300000002,"ADDRESS":"頂安街３７７巷７弄６號","OBJECTID":187879},"geometry":{"x":169047.73000000045,"y":2549269.9300000016}},{"attributes":{"ID":187881,"DIS_CODE":0,"TOWNNAME":"安南區","LI":"安慶里","LIN":"5鄰","STREET":"頂安街","SECT":" ","MAREA":" ","LANE":"３７７巷","ALLEY":"７弄","HOUSE_NO":"８號","E_COORD97":169051.92000000001,"N_COORD97":2549269.9300000002,"ADDRESS":"頂安街３７７巷７弄８號","OBJECTID":187880},"geometry":{"x":169051.92000000086,"y":2549269.9300000016}},{"attributes":{"ID":187882,"DIS_CODE":0,"TOWNNAME":"將軍區","LI":"玉山里","LIN":"11鄰","STREET":" ","SECT":" ","MAREA":"玉山","LANE":" ","ALLEY":" ","HOUSE_NO":"９４號","E_COORD97":160397.88,"N_COORD97":2567792.46,"ADDRESS":"玉山９４號","OBJECTID":187881},"geometry":{"x":160397.88000000082,"y":2567792.4600000028}},{"attributes":{"ID":187883,"DIS_CODE":0,"TOWNNAME":"東區","LI":"德光里","LIN":"21鄰","STREET":"崇德路","SECT":" ","MAREA":" ","LANE":" ","ALLEY":" ","HOUSE_NO":"１３８號","E_COORD97":170001.09,"N_COORD97":2542206.4500000002,"ADDRESS":"崇德路１３８號","OBJECTID":187882},"geometry":{"x":170001.09000000171,"y":2542206.450000003}},{"attributes":{"ID":187884,"DIS_CODE":0,"TOWNNAME":"東區","LI":"關聖里","LIN":"21鄰","STREET":"裕善街","SECT":" ","MAREA":" ","LANE":" ","ALLEY":" ","HOUSE_NO":"３１號","E_COORD97":172763.60000000001,"N_COORD97":2543086.46,"ADDRESS":"裕善街３１號","OBJECTID":187883},"geometry":{"x":172763.59999999963,"y":2543086.4600000046}},{"attributes":{"ID":187885,"DIS_CODE":0,"TOWNNAME":"東區","LI":"德光里","LIN":"21鄰","STREET":"崇德路","SECT":" ","MAREA":" ","LANE":" ","ALLEY":" ","HOUSE_NO":"１４２號","E_COORD97":170015.04000000001,"N_COORD97":2542196.4300000002,"ADDRESS":"崇德路１４２號","OBJECTID":187884},"geometry":{"x":170015.0400000019,"y":2542196.4299999997}},{"attributes":{"ID":187886,"DIS_CODE":0,"TOWNNAME":"東區","LI":"德光里","LIN":"21鄰","STREET":"崇德路","SECT":" ","MAREA":" ","LANE":" ","ALLEY":" ","HOUSE_NO":"１４４號","E_COORD97":170021.64999999999,"N_COORD97":2542191.23,"ADDRESS":"崇德路１４４號","OBJECTID":187885},"geometry":{"x":170021.6500000013,"y":2542191.2300000004}},{"attributes":{"ID":187887,"DIS_CODE":0,"TOWNNAME":"永康區","LI":"永康里","LIN":"21鄰","STREET":"永平街","SECT":" ","MAREA":" ","LANE":" ","ALLEY":" ","HOUSE_NO":"３３號","E_COORD97":173617.89000000001,"N_COORD97":2547131.2000000002,"ADDRESS":"永平街３３號","OBJECTID":187886},"geometry":{"x":173617.89000000153,"y":2547131.200000003}},{"attributes":{"ID":187888,"DIS_CODE":0,"TOWNNAME":"安南區","LI":"安慶里","LIN":"5鄰","STREET":"頂安街","SECT":" ","MAREA":" ","LANE":"３７７巷","ALLEY":"７弄","HOUSE_NO":"１０號","E_COORD97":169057.06,"N_COORD97":2549269.7400000002,"ADDRESS":"頂安街３７７巷７弄１０號","OBJECTID":187887},"geometry":{"x":169057.06000000052,"y":2549269.7400000002}},{"attributes":{"ID":187889,"DIS_CODE":0,"TOWNNAME":"安南區","LI":"安慶里","LIN":"5鄰","STREET":"頂安街","SECT":" ","MAREA":" ","LANE":"３７７巷","ALLEY":"７弄","HOUSE_NO":"３８號","E_COORD97":169111.70999999999,"N_COORD97":2549270.4399999999,"ADDRESS":"頂安街３７７巷７弄３８號","OBJECTID":187888},"geometry":{"x":169111.70999999996,"y":2549270.4400000013}},{"attributes":{"ID":187890,"DIS_CODE":0,"TOWNNAME":"安南區","LI":"安慶里","LIN":"5鄰","STREET":"頂安街","SECT":" ","MAREA":" ","LANE":"３７７巷","ALLEY":"７弄","HOUSE_NO":"２０號","E_COORD97":169078.42999999999,"N_COORD97":2549270.1899999999,"ADDRESS":"頂安街３７７巷７弄２０號","OBJECTID":187889},"geometry":{"x":169078.43000000063,"y":2549270.1899999995}},{"attributes":{"ID":187891,"DIS_CODE":0,"TOWNNAME":"安南區","LI":"安慶里","LIN":"5鄰","STREET":"頂安街","SECT":" ","MAREA":" ","LANE":"３７７巷","ALLEY":"７弄","HOUSE_NO":"３６號","E_COORD97":169107.01000000001,"N_COORD97":2549270.3100000001,"ADDRESS":"頂安街３７７巷７弄３６號","OBJECTID":187890},"geometry":{"x":169107.01000000071,"y":2549270.3100000005}},{"attributes":{"ID":187892,"DIS_CODE":0,"TOWNNAME":"安南區","LI":"安慶里","LIN":"5鄰","STREET":"頂安街","SECT":" ","MAREA":" ","LANE":"３７７巷","ALLEY":"７弄","HOUSE_NO":"３２號","E_COORD97":169101.67999999999,"N_COORD97":2549270.1899999999,"ADDRESS":"頂安街３７７巷７弄３２號","OBJECTID":187891},"geometry":{"x":169101.68000000156,"y":2549270.1899999995}},{"attributes":{"ID":187893,"DIS_CODE":0,"TOWNNAME":"安南區","LI":"安慶里","LIN":"5鄰","STREET":"頂安街","SECT":" ","MAREA":" ","LANE":"３７７巷","ALLEY":"７弄","HOUSE_NO":"３０號","E_COORD97":169095.57999999999,"N_COORD97":2549270.0600000001,"ADDRESS":"頂安街３７７巷７弄３０號","OBJECTID":187892},"geometry":{"x":169095.58000000007,"y":2549270.0600000024}},{"attributes":{"ID":187894,"DIS_CODE":0,"TOWNNAME":"安南區","LI":"安慶里","LIN":"5鄰","STREET":"頂安街","SECT":" ","MAREA":" ","LANE":"３７７巷","ALLEY":"７弄","HOUSE_NO":"２８號","E_COORD97":169091.13,"N_COORD97":2549270.0600000001,"ADDRESS":"頂安街３７７巷７弄２８號","OBJECTID":187893},"geometry":{"x":169091.13000000082,"y":2549270.0600000024}},{"attributes":{"ID":187895,"DIS_CODE":0,"TOWNNAME":"安南區","LI":"安慶里","LIN":"5鄰","STREET":"頂安街","SECT":" ","MAREA":" ","LANE":"３７７巷","ALLEY":"７弄","HOUSE_NO":"２６號","E_COORD97":169086.82000000001,"N_COORD97":2549270.1899999999,"ADDRESS":"頂安街３７７巷７弄２６號","OBJECTID":187894},"geometry":{"x":169086.82000000123,"y":2549270.1899999995}},{"attributes":{"ID":187896,"DIS_CODE":0,"TOWNNAME":"安南區","LI":"安慶里","LIN":"5鄰","STREET":"頂安街","SECT":" ","MAREA":" ","LANE":"３７７巷","ALLEY":"７弄","HOUSE_NO":"２２號","E_COORD97":169082.37,"N_COORD97":2549270.1899999999,"ADDRESS":"頂安街３７７巷７弄２２號","OBJECTID":187895},"geometry":{"x":169082.37000000197,"y":2549270.1899999995}},{"attributes":{"ID":187897,"DIS_CODE":0,"TOWNNAME":"安南區","LI":"安慶里","LIN":"5鄰","STREET":"頂安街","SECT":" ","MAREA":" ","LANE":"３７７巷","ALLEY":"７弄","HOUSE_NO":"１８號","E_COORD97":169073.98999999999,"N_COORD97":2549269.9300000002,"ADDRESS":"頂安街３７７巷７弄１８號","OBJECTID":187896},"geometry":{"x":169073.99000000022,"y":2549269.9300000016}},{"attributes":{"ID":187898,"DIS_CODE":0,"TOWNNAME":"安南區","LI":"安慶里","LIN":"5鄰","STREET":"頂安街","SECT":" ","MAREA":" ","LANE":"３７７巷","ALLEY":"７弄","HOUSE_NO":"１６號","E_COORD97":169068.39999999999,"N_COORD97":2549269.9300000002,"ADDRESS":"頂安街３７７巷７弄１６號","OBJECTID":187897},"geometry":{"x":169068.40000000037,"y":2549269.9300000016}},{"attributes":{"ID":187899,"DIS_CODE":0,"TOWNNAME":"永康區","LI":"埔園里","LIN":"21鄰","STREET":"四維街","SECT":" ","MAREA":" ","LANE":" ","ALLEY":" ","HOUSE_NO":"１００號之２","E_COORD97":173377.85999999999,"N_COORD97":2548186.9700000002,"ADDRESS":"四維街１００號之２","OBJECTID":187898},"geometry":{"x":173377.86000000034,"y":2548186.9700000007}},{"attributes":{"ID":187900,"DIS_CODE":0,"TOWNNAME":"安南區","LI":"安慶里","LIN":"5鄰","STREET":"頂安街","SECT":" ","MAREA":" ","LANE":"３７７巷","ALLEY":"７弄","HOUSE_NO":"１２號","E_COORD97":169062.94,"N_COORD97":2549269.9300000002,"ADDRESS":"頂安街３７７巷７弄１２號","OBJECTID":187899},"geometry":{"x":169062.94000000041,"y":2549269.9300000016}},{"attributes":{"ID":187901,"DIS_CODE":0,"TOWNNAME":"安南區","LI":"安慶里","LIN":"5鄰","STREET":"頂安街","SECT":" ","MAREA":" ","LANE":"３７７巷","ALLEY":"７弄","HOUSE_NO":"２３號","E_COORD97":169101.79999999999,"N_COORD97":2549307.02,"ADDRESS":"頂安街３７７巷７弄２３號","OBJECTID":187900},"geometry":{"x":169101.80000000075,"y":2549307.0200000014}},{"attributes":{"ID":187902,"DIS_CODE":0,"TOWNNAME":"安南區","LI":"安慶里","LIN":"5鄰","STREET":"頂安街","SECT":" ","MAREA":" ","LANE":"３７７巷","ALLEY":"７弄","HOUSE_NO":"３號","E_COORD97":169053.62,"N_COORD97":2549307.6200000001,"ADDRESS":"頂安街３７７巷７弄３號","OBJECTID":187901},"geometry":{"x":169053.62000000104,"y":2549307.6200000029}},{"attributes":{"ID":187903,"DIS_CODE":0,"TOWNNAME":"安南區","LI":"安慶里","LIN":"5鄰","STREET":"頂安街","SECT":" ","MAREA":" ","LANE":"３７７巷","ALLEY":"７弄","HOUSE_NO":"５號","E_COORD97":169057.42999999999,"N_COORD97":2549307.8700000001,"ADDRESS":"頂安街３７７巷７弄５號","OBJECTID":187902},"geometry":{"x":169057.4299999997,"y":2549307.870000001}},{"attributes":{"ID":187904,"DIS_CODE":0,"TOWNNAME":"安南區","LI":"安慶里","LIN":"5鄰","STREET":"頂安街","SECT":" ","MAREA":" ","LANE":"３７７巷","ALLEY":"７弄","HOUSE_NO":"９號","E_COORD97":169066.44,"N_COORD97":2549307.8700000001,"ADDRESS":"頂安街３７７巷７弄９號","OBJECTID":187903},"geometry":{"x":169066.44000000041,"y":2549307.870000001}},{"attributes":{"ID":187905,"DIS_CODE":0,"TOWNNAME":"安南區","LI":"安慶里","LIN":"5鄰","STREET":"頂安街","SECT":" ","MAREA":" ","LANE":"３７７巷","ALLEY":"７弄","HOUSE_NO":"１號","E_COORD97":169050.19,"N_COORD97":2549307.7400000002,"ADDRESS":"頂安街３７７巷７弄１號","OBJECTID":187904},"geometry":{"x":169050.19000000134,"y":2549307.7400000002}},{"attributes":{"ID":187906,"DIS_CODE":0,"TOWNNAME":"將軍區","LI":"玉山里","LIN":"11鄰","STREET":" ","SECT":" ","MAREA":"玉山","LANE":" ","ALLEY":" ","HOUSE_NO":"９５號","E_COORD97":160411.29000000001,"N_COORD97":2567767.96,"ADDRESS":"玉山９５號","OBJECTID":187905},"geometry":{"x":160411.29000000004,"y":2567767.9600000009}},{"attributes":{"ID":187907,"DIS_CODE":0,"TOWNNAME":"安南區","LI":"安慶里","LIN":"5鄰","STREET":"頂安街","SECT":" ","MAREA":" ","LANE":"３７７巷","ALLEY":"７弄","HOUSE_NO":"１１號","E_COORD97":169070.64000000001,"N_COORD97":2549307.8700000001,"ADDRESS":"頂安街３７７巷７弄１１號","OBJECTID":187906},"geometry":{"x":169070.63999999966,"y":2549307.870000001}},{"attributes":{"ID":187908,"DIS_CODE":0,"TOWNNAME":"安南區","LI":"安慶里","LIN":"5鄰","STREET":"頂安街","SECT":" ","MAREA":" ","LANE":"３７７巷","ALLEY":"７弄","HOUSE_NO":"１３號","E_COORD97":169075.72,"N_COORD97":2549307.8700000001,"ADDRESS":"頂安街３７７巷７弄１３號","OBJECTID":187907},"geometry":{"x":169075.71999999974,"y":2549307.870000001}},{"attributes":{"ID":187909,"DIS_CODE":0,"TOWNNAME":"將軍區","LI":"玉山里","LIN":"11鄰","STREET":" ","SECT":" ","MAREA":"玉山","LANE":" ","ALLEY":" ","HOUSE_NO":"９６號","E_COORD97":160412.26000000001,"N_COORD97":2567794.2000000002,"ADDRESS":"玉山９６號","OBJECTID":187908},"geometry":{"x":160412.26000000071,"y":2567794.1999999993}},{"attributes":{"ID":187910,"DIS_CODE":0,"TOWNNAME":"將軍區","LI":"玉山里","LIN":"11鄰","STREET":" ","SECT":" ","MAREA":"玉山","LANE":" ","ALLEY":" ","HOUSE_NO":"９７之２號","E_COORD97":160442.73000000001,"N_COORD97":2567788.3100000001,"ADDRESS":"玉山９７之２號","OBJECTID":187909},"geometry":{"x":160442.73000000045,"y":2567788.3100000005}},{"attributes":{"ID":187911,"DIS_CODE":0,"TOWNNAME":"將軍區","LI":"玉山里","LIN":"11鄰","STREET":" ","SECT":" ","MAREA":"玉山","LANE":" ","ALLEY":" ","HOUSE_NO":"９７之３號","E_COORD97":160439,"N_COORD97":2567797.1400000001,"ADDRESS":"玉山９７之３號","OBJECTID":187910},"geometry":{"x":160439,"y":2567797.1400000043}},{"attributes":{"ID":187912,"DIS_CODE":0,"TOWNNAME":"將軍區","LI":"玉山里","LIN":"11鄰","STREET":" ","SECT":" ","MAREA":"玉山","LANE":" ","ALLEY":" ","HOUSE_NO":"９７之４號","E_COORD97":160437.48000000001,"N_COORD97":2567803.7400000002,"ADDRESS":"玉山９７之４號","OBJECTID":187911},"geometry":{"x":160437.48000000045,"y":2567803.7400000021}},{"attributes":{"ID":187913,"DIS_CODE":0,"TOWNNAME":"將軍區","LI":"玉山里","LIN":"11鄰","STREET":" ","SECT":" ","MAREA":"玉山","LANE":" ","ALLEY":" ","HOUSE_NO":"９７之５號","E_COORD97":160435.79000000001,"N_COORD97":2567812.4100000001,"ADDRESS":"玉山９７之５號","OBJECTID":187912},"geometry":{"x":160435.79000000097,"y":2567812.410000002}},{"attributes":{"ID":187914,"DIS_CODE":0,"TOWNNAME":"將軍區","LI":"玉山里","LIN":"11鄰","STREET":" ","SECT":" ","MAREA":"玉山","LANE":" ","ALLEY":" ","HOUSE_NO":"９７號","E_COORD97":160426.88,"N_COORD97":2567796.9700000002,"ADDRESS":"玉山９７號","OBJECTID":187913},"geometry":{"x":160426.88000000082,"y":2567796.9700000007}},{"attributes":{"ID":187915,"DIS_CODE":0,"TOWNNAME":"將軍區","LI":"西和里","LIN":"11鄰","STREET":" ","SECT":" ","MAREA":"西和","LANE":" ","ALLEY":" ","HOUSE_NO":"８７之１號","E_COORD97":163176.64000000001,"N_COORD97":2566312.2799999998,"ADDRESS":"西和８７之１號","OBJECTID":187914},"geometry":{"x":163176.63999999966,"y":2566312.2799999993}},{"attributes":{"ID":187916,"DIS_CODE":0,"TOWNNAME":"東區","LI":"崇德里","LIN":"21鄰","STREET":"崇德路","SECT":" ","MAREA":" ","LANE":" ","ALLEY":" ","HOUSE_NO":"５４６號","E_COORD97":170774.37,"N_COORD97":2541471.1299999999,"ADDRESS":"崇德路５４６號","OBJECTID":187915},"geometry":{"x":170774.37000000104,"y":2541471.129999999}},{"attributes":{"ID":187917,"DIS_CODE":0,"TOWNNAME":"東區","LI":"崇德里","LIN":"21鄰","STREET":"崇德路","SECT":" ","MAREA":" ","LANE":" ","ALLEY":" ","HOUSE_NO":"５４８號","E_COORD97":170773.48999999999,"N_COORD97":2541466.3199999998,"ADDRESS":"崇德路５４８號","OBJECTID":187916},"geometry":{"x":170773.49000000115,"y":2541466.320000004}},{"attributes":{"ID":187918,"DIS_CODE":0,"TOWNNAME":"永康區","LI":"西勢里","LIN":"21鄰","STREET":"富強路","SECT":"一段","MAREA":" ","LANE":" ","ALLEY":" ","HOUSE_NO":"２３號","E_COORD97":175393.07000000001,"N_COORD97":2546054.02,"ADDRESS":"富強路一段２３號","OBJECTID":187917},"geometry":{"x":175393.07000000123,"y":2546054.0199999996}},{"attributes":{"ID":187919,"DIS_CODE":0,"TOWNNAME":"東區","LI":"龍山里","LIN":"19鄰","STREET":"富德街","SECT":" ","MAREA":" ","LANE":" ","ALLEY":" ","HOUSE_NO":"１３號","E_COORD97":170506.56,"N_COORD97":2542725.2200000002,"ADDRESS":"富德街１３號","OBJECTID":187918},"geometry":{"x":170506.56000000052,"y":2542725.2200000044}},{"attributes":{"ID":187920,"DIS_CODE":0,"TOWNNAME":"東區","LI":"關聖里","LIN":"21鄰","STREET":"裕善街","SECT":" ","MAREA":" ","LANE":" ","ALLEY":" ","HOUSE_NO":"８號","E_COORD97":172684.07999999999,"N_COORD97":2543050.5299999998,"ADDRESS":"裕善街８號","OBJECTID":187919},"geometry":{"x":172684.08000000007,"y":2543050.5300000031}},{"attributes":{"ID":187921,"DIS_CODE":0,"TOWNNAME":"永康區","LI":"網寮里","LIN":"21鄰","STREET":"文化路","SECT":" ","MAREA":" ","LANE":" ","ALLEY":" ","HOUSE_NO":"２４７號","E_COORD97":173611.22,"N_COORD97":2546128.46,"ADDRESS":"文化路２４７號","OBJECTID":187920},"geometry":{"x":173611.22000000067,"y":2546128.4600000028}},{"attributes":{"ID":187922,"DIS_CODE":0,"TOWNNAME":"仁德區","LI":"一甲里","LIN":"20鄰","STREET":"太乙五街","SECT":" ","MAREA":" ","LANE":" ","ALLEY":" ","HOUSE_NO":"４８號","E_COORD97":173209.70000000001,"N_COORD97":2542082.0099999998,"ADDRESS":"太乙五街４８號","OBJECTID":187921},"geometry":{"x":173209.70000000112,"y":2542082.0100000016}},{"attributes":{"ID":187923,"DIS_CODE":0,"TOWNNAME":"安南區","LI":"安慶里","LIN":"5鄰","STREET":"頂安街","SECT":" ","MAREA":" ","LANE":"３７７巷","ALLEY":"７弄","HOUSE_NO":"１５號","E_COORD97":169080.41,"N_COORD97":2549307.6200000001,"ADDRESS":"頂安街３７７巷７弄１５號","OBJECTID":187922},"geometry":{"x":169080.41000000201,"y":2549307.6200000029}},{"attributes":{"ID":187924,"DIS_CODE":0,"TOWNNAME":"安南區","LI":"安慶里","LIN":"5鄰","STREET":"頂安街","SECT":" ","MAREA":" ","LANE":"３７７巷","ALLEY":"７弄","HOUSE_NO":"１７號","E_COORD97":169084.98999999999,"N_COORD97":2549307.7400000002,"ADDRESS":"頂安街３７７巷７弄１７號","OBJECTID":187923},"geometry":{"x":169084.99000000209,"y":2549307.7400000002}},{"attributes":{"ID":187925,"DIS_CODE":0,"TOWNNAME":"安南區","LI":"安慶里","LIN":"5鄰","STREET":"頂安街","SECT":" ","MAREA":" ","LANE":"３７７巷","ALLEY":"７弄","HOUSE_NO":"１９號","E_COORD97":169089.94,"N_COORD97":2549307.8700000001,"ADDRESS":"頂安街３７７巷７弄１９號","OBJECTID":187924},"geometry":{"x":169089.94000000041,"y":2549307.870000001}},{"attributes":{"ID":187926,"DIS_CODE":0,"TOWNNAME":"安南區","LI":"安慶里","LIN":"5鄰","STREET":"頂安街","SECT":" ","MAREA":" ","LANE":"３７７巷","ALLEY":"７弄","HOUSE_NO":"２１號","E_COORD97":169096.42000000001,"N_COORD97":2549307.3599999999,"ADDRESS":"頂安街３７７巷７弄２１號","OBJECTID":187925},"geometry":{"x":169096.41999999993,"y":2549307.3600000013}},{"attributes":{"ID":187927,"DIS_CODE":0,"TOWNNAME":"仁德區","LI":"一甲里","LIN":"17鄰","STREET":"忠義路","SECT":" ","MAREA":" ","LANE":" ","ALLEY":" ","HOUSE_NO":"２８１號","E_COORD97":173762.28,"N_COORD97":2541844.7599999998,"ADDRESS":"忠義路２８１號","OBJECTID":187926},"geometry":{"x":173762.28000000119,"y":2541844.7599999998}},{"attributes":{"ID":187928,"DIS_CODE":0,"TOWNNAME":"仁德區","LI":"上崙里","LIN":"20鄰","STREET":"上崙街","SECT":" ","MAREA":" ","LANE":" ","ALLEY":" ","HOUSE_NO":"３號","E_COORD97":173794.76000000001,"N_COORD97":2538124,"ADDRESS":"上崙街３號","OBJECTID":187927},"geometry":{"x":173794.75999999978,"y":2538124}},{"attributes":{"ID":187929,"DIS_CODE":0,"TOWNNAME":"仁德區","LI":"一甲里","LIN":"20鄰","STREET":"太乙七街","SECT":" ","MAREA":" ","LANE":" ","ALLEY":" ","HOUSE_NO":"８號","E_COORD97":173092.20999999999,"N_COORD97":2542436.5,"ADDRESS":"太乙七街８號","OBJECTID":187928},"geometry":{"x":173092.20999999903,"y":2542436.5}},{"attributes":{"ID":187930,"DIS_CODE":0,"TOWNNAME":"安南區","LI":"安慶里","LIN":"5鄰","STREET":"頂安街","SECT":" ","MAREA":" ","LANE":"３７７巷","ALLEY":"７弄","HOUSE_NO":"２５號","E_COORD97":169106.95999999999,"N_COORD97":2549307.3599999999,"ADDRESS":"頂安街３７７巷７弄２５號","OBJECTID":187929},"geometry":{"x":169106.96000000183,"y":2549307.3600000013}},{"attributes":{"ID":187931,"DIS_CODE":0,"TOWNNAME":"安南區","LI":"安慶里","LIN":"5鄰","STREET":"頂安街","SECT":" ","MAREA":" ","LANE":"３７７巷","ALLEY":"７弄","HOUSE_NO":"２７號","E_COORD97":169111.91,"N_COORD97":2549307.2400000002,"ADDRESS":"頂安街３７７巷７弄２７號","OBJECTID":187930},"geometry":{"x":169111.91000000015,"y":2549307.2400000002}},{"attributes":{"ID":187932,"DIS_CODE":0,"TOWNNAME":"仁德區","LI":"上崙里","LIN":"26鄰","STREET":"上崙街","SECT":" ","MAREA":" ","LANE":" ","ALLEY":" ","HOUSE_NO":"４３６號","E_COORD97":172906.91,"N_COORD97":2537640.5,"ADDRESS":"上崙街４３６號","OBJECTID":187931},"geometry":{"x":172906.91000000108,"y":2537640.5000000019}},{"attributes":{"ID":187933,"DIS_CODE":0,"TOWNNAME":"安南區","LI":"國安里","LIN":"5鄰","STREET":"國安街","SECT":" ","MAREA":" ","LANE":"１５６巷","ALLEY":"１８５弄","HOUSE_NO":"２號","E_COORD97":166620.76999999999,"N_COORD97":2547479.4100000001,"ADDRESS":"國安街１５６巷１８５弄２號","OBJECTID":187932},"geometry":{"x":166620.76999999955,"y":2547479.4100000001}},{"attributes":{"ID":187934,"DIS_CODE":0,"TOWNNAME":"安南區","LI":"國安里","LIN":"5鄰","STREET":"國安街","SECT":" ","MAREA":" ","LANE":"１５６巷","ALLEY":"１８５弄","HOUSE_NO":"１號","E_COORD97":166623.13,"N_COORD97":2547468.73,"ADDRESS":"國安街１５６巷１８５弄１號","OBJECTID":187933},"geometry":{"x":166623.12999999989,"y":2547468.7300000023}},{"attributes":{"ID":187935,"DIS_CODE":0,"TOWNNAME":"仁德區","LI":"上崙里","LIN":"26鄰","STREET":"中正路","SECT":"一段","MAREA":" ","LANE":" ","ALLEY":" ","HOUSE_NO":"７２６號","E_COORD97":172927.82000000001,"N_COORD97":2537738.0299999998,"ADDRESS":"中正路一段７２６號","OBJECTID":187934},"geometry":{"x":172927.82000000123,"y":2537738.0300000012}},{"attributes":{"ID":187936,"DIS_CODE":0,"TOWNNAME":"安南區","LI":"國安里","LIN":"5鄰","STREET":"國安街","SECT":" ","MAREA":" ","LANE":"１５６巷","ALLEY":"１８５弄","HOUSE_NO":"３號","E_COORD97":166618.42999999999,"N_COORD97":2547467.71,"ADDRESS":"國安街１５６巷１８５弄３號","OBJECTID":187935},"geometry":{"x":166618.43000000063,"y":2547467.7100000009}},{"attributes":{"ID":187937,"DIS_CODE":0,"TOWNNAME":"安南區","LI":"國安里","LIN":"5鄰","STREET":"國安街","SECT":" ","MAREA":" ","LANE":"１５６巷","ALLEY":"１８５弄","HOUSE_NO":"５號","E_COORD97":166614.37,"N_COORD97":2547467.0800000001,"ADDRESS":"國安街１５６巷１８５弄５號","OBJECTID":187936},"geometry":{"x":166614.37000000104,"y":2547467.0800000001}},{"attributes":{"ID":187938,"DIS_CODE":0,"TOWNNAME":"仁德區","LI":"上崙里","LIN":"25鄰","STREET":"上崙街","SECT":" ","MAREA":" ","LANE":" ","ALLEY":" ","HOUSE_NO":"３６０號","E_COORD97":173104.70999999999,"N_COORD97":2537649.25,"ADDRESS":"上崙街３６０號","OBJECTID":187937},"geometry":{"x":173104.71000000089,"y":2537649.2500000019}},{"attributes":{"ID":187939,"DIS_CODE":0,"TOWNNAME":"安南區","LI":"國安里","LIN":"5鄰","STREET":"國安街","SECT":" ","MAREA":" ","LANE":"１５６巷","ALLEY":"１８５弄","HOUSE_NO":"７號","E_COORD97":166610.29999999999,"N_COORD97":2547466.4399999999,"ADDRESS":"國安街１５６巷１８５弄７號","OBJECTID":187938},"geometry":{"x":166610.29999999981,"y":2547466.4400000013}},{"attributes":{"ID":187940,"DIS_CODE":0,"TOWNNAME":"安南區","LI":"國安里","LIN":"5鄰","STREET":"國安街","SECT":" ","MAREA":" ","LANE":"１５６巷","ALLEY":"１８５弄","HOUSE_NO":"９號","E_COORD97":166606.10999999999,"N_COORD97":2547466.1899999999,"ADDRESS":"國安街１５６巷１８５弄９號","OBJECTID":187939},"geometry":{"x":166606.11000000127,"y":2547466.1899999995}},{"attributes":{"ID":187941,"DIS_CODE":0,"TOWNNAME":"安南區","LI":"國安里","LIN":"5鄰","STREET":"國安街","SECT":" ","MAREA":" ","LANE":"１５６巷","ALLEY":"１８５弄","HOUSE_NO":"１１號","E_COORD97":166601.92000000001,"N_COORD97":2547465.4300000002,"ADDRESS":"國安街１５６巷１８５弄１１號","OBJECTID":187940},"geometry":{"x":166601.92000000086,"y":2547465.4299999978}},{"attributes":{"ID":187942,"DIS_CODE":0,"TOWNNAME":"仁德區","LI":"二行里","LIN":"15鄰","STREET":"行大二街","SECT":" ","MAREA":" ","LANE":" ","ALLEY":" ","HOUSE_NO":"２７號","E_COORD97":169750.04000000001,"N_COORD97":2535303.9900000002,"ADDRESS":"行大二街２７號","OBJECTID":187941},"geometry":{"x":169750.04000000004,"y":2535303.9900000002}},{"attributes":{"ID":187943,"DIS_CODE":0,"TOWNNAME":"仁德區","LI":"上崙里","LIN":"4鄰","STREET":"德崙路","SECT":" ","MAREA":" ","LANE":" ","ALLEY":" ","HOUSE_NO":"２８３號","E_COORD97":173837.48999999999,"N_COORD97":2538149.27,"ADDRESS":"德崙路２８３號","OBJECTID":187942},"geometry":{"x":173837.49000000022,"y":2538149.2699999996}},{"attributes":{"ID":187944,"DIS_CODE":0,"TOWNNAME":"仁德區","LI":"一甲里","LIN":"20鄰","STREET":"太乙六街","SECT":" ","MAREA":" ","LANE":" ","ALLEY":" ","HOUSE_NO":"３８號","E_COORD97":173196.95999999999,"N_COORD97":2542412.7599999998,"ADDRESS":"太乙六街３８號","OBJECTID":187943},"geometry":{"x":173196.95999999996,"y":2542412.7600000016}},{"attributes":{"ID":187945,"DIS_CODE":0,"TOWNNAME":"將軍區","LI":"西和里","LIN":"11鄰","STREET":" ","SECT":" ","MAREA":"西和","LANE":" ","ALLEY":" ","HOUSE_NO":"８７之２號","E_COORD97":163171.94,"N_COORD97":2566312.29,"ADDRESS":"西和８７之２號","OBJECTID":187944},"geometry":{"x":163171.94000000041,"y":2566312.2899999991}},{"attributes":{"ID":187946,"DIS_CODE":0,"TOWNNAME":"將軍區","LI":"西和里","LIN":"11鄰","STREET":" ","SECT":" ","MAREA":"西和","LANE":" ","ALLEY":" ","HOUSE_NO":"８７之３號","E_COORD97":163167.06,"N_COORD97":2566312.23,"ADDRESS":"西和８７之３號","OBJECTID":187945},"geometry":{"x":163167.05999999959,"y":2566312.2300000023}},{"attributes":{"ID":187947,"DIS_CODE":0,"TOWNNAME":"將軍區","LI":"西和里","LIN":"11鄰","STREET":" ","SECT":" ","MAREA":"西和","LANE":" ","ALLEY":" ","HOUSE_NO":"８７之４號","E_COORD97":163160.60000000001,"N_COORD97":2566313.7400000002,"ADDRESS":"西和８７之４號","OBJECTID":187946},"geometry":{"x":163160.60000000149,"y":2566313.7400000002}},{"attributes":{"ID":187948,"DIS_CODE":0,"TOWNNAME":"將軍區","LI":"西和里","LIN":"11鄰","STREET":" ","SECT":" ","MAREA":"西和","LANE":" ","ALLEY":" ","HOUSE_NO":"８８之３號","E_COORD97":163198.79000000001,"N_COORD97":2566306.6899999999,"ADDRESS":"西和８８之３號","OBJECTID":187947},"geometry":{"x":163198.7900000019,"y":2566306.6899999995}},{"attributes":{"ID":187949,"DIS_CODE":0,"TOWNNAME":"將軍區","LI":"西和里","LIN":"11鄰","STREET":" ","SECT":" ","MAREA":"西和","LANE":" ","ALLEY":" ","HOUSE_NO":"８８號","E_COORD97":163186.01999999999,"N_COORD97":2566307.9500000002,"ADDRESS":"西和８８號","OBJECTID":187948},"geometry":{"x":163186.01999999955,"y":2566307.9499999993}},{"attributes":{"ID":187950,"DIS_CODE":0,"TOWNNAME":"安南區","LI":"國安里","LIN":"5鄰","STREET":"國安街","SECT":" ","MAREA":" ","LANE":"１５６巷","ALLEY":"１８５弄","HOUSE_NO":"１３號","E_COORD97":166597.73000000001,"N_COORD97":2547464.1600000001,"ADDRESS":"國安街１５６巷１８５弄１３號","OBJECTID":187949},"geometry":{"x":166597.73000000045,"y":2547464.1600000001}},{"attributes":{"ID":187951,"DIS_CODE":0,"TOWNNAME":"安南區","LI":"國安里","LIN":"5鄰","STREET":"國安街","SECT":" ","MAREA":" ","LANE":"１５６巷","ALLEY":"１８５弄","HOUSE_NO":"１５號","E_COORD97":166593.67000000001,"N_COORD97":2547463.0099999998,"ADDRESS":"國安街１５６巷１８５弄１５號","OBJECTID":187950},"geometry":{"x":166593.67000000086,"y":2547463.0100000016}},{"attributes":{"ID":187952,"DIS_CODE":0,"TOWNNAME":"安南區","LI":"國安里","LIN":"5鄰","STREET":"國安街","SECT":" ","MAREA":" ","LANE":"１５６巷","ALLEY":"１８５弄","HOUSE_NO":"１７號","E_COORD97":166589.73000000001,"N_COORD97":2547462,"ADDRESS":"國安街１５６巷１８５弄１７號","OBJECTID":187951},"geometry":{"x":166589.73000000045,"y":2547462.0000000037}},{"attributes":{"ID":187953,"DIS_CODE":0,"TOWNNAME":"將軍區","LI":"西和里","LIN":"11鄰","STREET":" ","SECT":" ","MAREA":"西和","LANE":" ","ALLEY":" ","HOUSE_NO":"８９之１號","E_COORD97":163207.82999999999,"N_COORD97":2566306.8900000001,"ADDRESS":"西和８９之１號","OBJECTID":187952},"geometry":{"x":163207.83000000007,"y":2566306.8900000006}},{"attributes":{"ID":187954,"DIS_CODE":0,"TOWNNAME":"將軍區","LI":"西和里","LIN":"11鄰","STREET":" ","SECT":" ","MAREA":"西和","LANE":" ","ALLEY":" ","HOUSE_NO":"８９號","E_COORD97":163203.17999999999,"N_COORD97":2566306.6899999999,"ADDRESS":"西和８９號","OBJECTID":187953},"geometry":{"x":163203.18000000063,"y":2566306.6899999995}},{"attributes":{"ID":187955,"DIS_CODE":0,"TOWNNAME":"將軍區","LI":"西和里","LIN":"11鄰","STREET":" ","SECT":" ","MAREA":"西和","LANE":" ","ALLEY":" ","HOUSE_NO":"９０之５號","E_COORD97":163236.69,"N_COORD97":2566315.75,"ADDRESS":"西和９０之５號","OBJECTID":187954},"geometry":{"x":163236.69000000041,"y":2566315.7500000019}},{"attributes":{"ID":187956,"DIS_CODE":0,"TOWNNAME":"將軍區","LI":"西和里","LIN":"11鄰","STREET":" ","SECT":" ","MAREA":"西和","LANE":" ","ALLEY":" ","HOUSE_NO":"９０之６號","E_COORD97":163240.57000000001,"N_COORD97":2566315.8599999999,"ADDRESS":"西和９０之６號","OBJECTID":187955},"geometry":{"x":163240.5700000003,"y":2566315.8599999994}},{"attributes":{"ID":187957,"DIS_CODE":0,"TOWNNAME":"將軍區","LI":"西和里","LIN":"11鄰","STREET":" ","SECT":" ","MAREA":"西和","LANE":" ","ALLEY":" ","HOUSE_NO":"９０之８號","E_COORD97":163248.63,"N_COORD97":2566315.5600000001,"ADDRESS":"西和９０之８號","OBJECTID":187956},"geometry":{"x":163248.62999999989,"y":2566315.5600000005}},{"attributes":{"ID":187958,"DIS_CODE":0,"TOWNNAME":"將軍區","LI":"西和里","LIN":"11鄰","STREET":" ","SECT":" ","MAREA":"西和","LANE":" ","ALLEY":" ","HOUSE_NO":"９１之１號","E_COORD97":163256.78,"N_COORD97":2566315.8199999998,"ADDRESS":"西和９１之１號","OBJECTID":187957},"geometry":{"x":163256.78000000119,"y":2566315.8200000022}},{"attributes":{"ID":187959,"DIS_CODE":0,"TOWNNAME":"將軍區","LI":"西和里","LIN":"11鄰","STREET":" ","SECT":" ","MAREA":"西和","LANE":" ","ALLEY":" ","HOUSE_NO":"９１之２號","E_COORD97":163261.01000000001,"N_COORD97":2566316.1600000001,"ADDRESS":"西和９１之２號","OBJECTID":187958},"geometry":{"x":163261.00999999978,"y":2566316.160000002}},{"attributes":{"ID":187960,"DIS_CODE":0,"TOWNNAME":"將軍區","LI":"西和里","LIN":"11鄰","STREET":" ","SECT":" ","MAREA":"西和","LANE":" ","ALLEY":" ","HOUSE_NO":"９１之３號","E_COORD97":163264.82000000001,"N_COORD97":2566316.21,"ADDRESS":"西和９１之３號","OBJECTID":187959},"geometry":{"x":163264.82000000216,"y":2566316.2100000028}},{"attributes":{"ID":187961,"DIS_CODE":0,"TOWNNAME":"將軍區","LI":"西和里","LIN":"11鄰","STREET":" ","SECT":" ","MAREA":"西和","LANE":" ","ALLEY":" ","HOUSE_NO":"９１號","E_COORD97":163252.67000000001,"N_COORD97":2566315.73,"ADDRESS":"西和９１號","OBJECTID":187960},"geometry":{"x":163252.67000000086,"y":2566315.7300000023}},{"attributes":{"ID":187962,"DIS_CODE":0,"TOWNNAME":"將軍區","LI":"西和里","LIN":"11鄰","STREET":" ","SECT":" ","MAREA":"西和","LANE":" ","ALLEY":" ","HOUSE_NO":"９２之１號","E_COORD97":163276.28,"N_COORD97":2566317.79,"ADDRESS":"西和９２之１號","OBJECTID":187961},"geometry":{"x":163276.28000000026,"y":2566317.790000001}},{"attributes":{"ID":187963,"DIS_CODE":0,"TOWNNAME":"將軍區","LI":"西和里","LIN":"11鄰","STREET":" ","SECT":" ","MAREA":"西和","LANE":" ","ALLEY":" ","HOUSE_NO":"９２之２號","E_COORD97":163272.57000000001,"N_COORD97":2566317.6400000001,"ADDRESS":"西和９２之２號","OBJECTID":187962},"geometry":{"x":163272.5700000003,"y":2566317.6400000006}},{"attributes":{"ID":187964,"DIS_CODE":0,"TOWNNAME":"將軍區","LI":"西和里","LIN":"11鄰","STREET":" ","SECT":" ","MAREA":"西和","LANE":" ","ALLEY":" ","HOUSE_NO":"９２之４號","E_COORD97":163284.09,"N_COORD97":2566317.8900000001,"ADDRESS":"西和９２之４號","OBJECTID":187963},"geometry":{"x":163284.08999999985,"y":2566317.8900000025}},{"attributes":{"ID":187965,"DIS_CODE":0,"TOWNNAME":"將軍區","LI":"西和里","LIN":"11鄰","STREET":" ","SECT":" ","MAREA":"西和","LANE":" ","ALLEY":" ","HOUSE_NO":"９２號","E_COORD97":163280.13,"N_COORD97":2566317.9900000002,"ADDRESS":"西和９２號","OBJECTID":187964},"geometry":{"x":163280.13000000082,"y":2566317.9900000002}},{"attributes":{"ID":187966,"DIS_CODE":0,"TOWNNAME":"安南區","LI":"國安里","LIN":"5鄰","STREET":"國安街","SECT":" ","MAREA":" ","LANE":"１５６巷","ALLEY":"１８５弄","HOUSE_NO":"３５號","E_COORD97":166552.89999999999,"N_COORD97":2547453.7400000002,"ADDRESS":"國安街１５６巷１８５弄３５號","OBJECTID":187965},"geometry":{"x":166552.90000000037,"y":2547453.7399999984}},{"attributes":{"ID":187967,"DIS_CODE":0,"TOWNNAME":"安南區","LI":"國安里","LIN":"5鄰","STREET":"國安街","SECT":" ","MAREA":" ","LANE":"１５６巷","ALLEY":"１８５弄","HOUSE_NO":"３３號","E_COORD97":166556.70999999999,"N_COORD97":2547454.6299999999,"ADDRESS":"國安街１５６巷１８５弄３３號","OBJECTID":187966},"geometry":{"x":166556.70999999996,"y":2547454.6300000008}},{"attributes":{"ID":187968,"DIS_CODE":0,"TOWNNAME":"安南區","LI":"國安里","LIN":"5鄰","STREET":"國安街","SECT":" ","MAREA":" ","LANE":"１５６巷","ALLEY":"１８５弄","HOUSE_NO":"３１號","E_COORD97":166560.51999999999,"N_COORD97":2547455.6499999999,"ADDRESS":"國安街１５６巷１８５弄３１號","OBJECTID":187967},"geometry":{"x":166560.52000000048,"y":2547455.6500000022}},{"attributes":{"ID":187969,"DIS_CODE":0,"TOWNNAME":"安南區","LI":"國安里","LIN":"5鄰","STREET":"國安街","SECT":" ","MAREA":" ","LANE":"１５６巷","ALLEY":"１８５弄","HOUSE_NO":"２９號","E_COORD97":166564.70999999999,"N_COORD97":2547456.54,"ADDRESS":"國安街１５６巷１８５弄２９號","OBJECTID":187968},"geometry":{"x":166564.71000000089,"y":2547456.5399999991}},{"attributes":{"ID":187970,"DIS_CODE":0,"TOWNNAME":"安南區","LI":"國安里","LIN":"5鄰","STREET":"國安街","SECT":" ","MAREA":" ","LANE":"１５６巷","ALLEY":"１８５弄","HOUSE_NO":"２７號","E_COORD97":166568.89999999999,"N_COORD97":2547457.6800000002,"ADDRESS":"國安街１５６巷１８５弄２７號","OBJECTID":187969},"geometry":{"x":166568.9000000013,"y":2547457.6800000016}},{"attributes":{"ID":187971,"DIS_CODE":0,"TOWNNAME":"安南區","LI":"國安里","LIN":"5鄰","STREET":"國安街","SECT":" ","MAREA":" ","LANE":"１５６巷","ALLEY":"１８５弄","HOUSE_NO":"２３號","E_COORD97":166577.79000000001,"N_COORD97":2547459.2000000002,"ADDRESS":"國安街１５６巷１８５弄２３號","OBJECTID":187970},"geometry":{"x":166577.79000000097,"y":2547459.1999999993}},{"attributes":{"ID":187972,"DIS_CODE":0,"TOWNNAME":"永康區","LI":"西勢里","LIN":"21鄰","STREET":"富強路","SECT":"一段","MAREA":" ","LANE":"１４３巷","ALLEY":" ","HOUSE_NO":"１９號","E_COORD97":175488.76999999999,"N_COORD97":2546338.5299999998,"ADDRESS":"富強路一段１４３巷１９號","OBJECTID":187971},"geometry":{"x":175488.77000000048,"y":2546338.5299999993}},{"attributes":{"ID":187973,"DIS_CODE":0,"TOWNNAME":"六甲區","LI":"二甲里","LIN":"24鄰","STREET":"信義街","SECT":" ","MAREA":" ","LANE":" ","ALLEY":" ","HOUSE_NO":"２９０號","E_COORD97":183378.48000000001,"N_COORD97":2569907.5600000001,"ADDRESS":"信義街２９０號","OBJECTID":187972},"geometry":{"x":183378.48000000045,"y":2569907.5600000024}},{"attributes":{"ID":187974,"DIS_CODE":0,"TOWNNAME":"六甲區","LI":"二甲里","LIN":"24鄰","STREET":"信義街","SECT":" ","MAREA":" ","LANE":" ","ALLEY":" ","HOUSE_NO":"２９４號","E_COORD97":183380.37,"N_COORD97":2569915.6200000001,"ADDRESS":"信義街２９４號","OBJECTID":187973},"geometry":{"x":183380.37000000011,"y":2569915.620000001}},{"attributes":{"ID":187975,"DIS_CODE":0,"TOWNNAME":"六甲區","LI":"二甲里","LIN":"24鄰","STREET":"信義街","SECT":" ","MAREA":" ","LANE":" ","ALLEY":" ","HOUSE_NO":"２９６號","E_COORD97":183381.45999999999,"N_COORD97":2569919.7599999998,"ADDRESS":"信義街２９６號","OBJECTID":187974},"geometry":{"x":183381.45999999996,"y":2569919.7599999998}},{"attributes":{"ID":187976,"DIS_CODE":0,"TOWNNAME":"六甲區","LI":"二甲里","LIN":"24鄰","STREET":"信義街","SECT":" ","MAREA":" ","LANE":" ","ALLEY":" ","HOUSE_NO":"２９８號","E_COORD97":183382.10000000001,"N_COORD97":2569923.02,"ADDRESS":"信義街２９８號","OBJECTID":187975},"geometry":{"x":183382.09999999963,"y":2569923.0200000014}},{"attributes":{"ID":187977,"DIS_CODE":0,"TOWNNAME":"六甲區","LI":"二甲里","LIN":"24鄰","STREET":"信義街","SECT":" ","MAREA":" ","LANE":" ","ALLEY":" ","HOUSE_NO":"３００號","E_COORD97":183383.13,"N_COORD97":2569927.6800000002,"ADDRESS":"信義街３００號","OBJECTID":187976},"geometry":{"x":183383.13000000082,"y":2569927.6799999997}},{"attributes":{"ID":187978,"DIS_CODE":0,"TOWNNAME":"六甲區","LI":"二甲里","LIN":"24鄰","STREET":"信義街","SECT":" ","MAREA":" ","LANE":" ","ALLEY":" ","HOUSE_NO":"３０２號","E_COORD97":183383.75,"N_COORD97":2569932.0600000001,"ADDRESS":"信義街３０２號","OBJECTID":187977},"geometry":{"x":183383.75000000093,"y":2569932.0600000005}},{"attributes":{"ID":187979,"DIS_CODE":0,"TOWNNAME":"六甲區","LI":"二甲里","LIN":"24鄰","STREET":"信義街","SECT":" ","MAREA":" ","LANE":" ","ALLEY":" ","HOUSE_NO":"３０６號","E_COORD97":183386.20999999999,"N_COORD97":2569940.27,"ADDRESS":"信義街３０６號","OBJECTID":187978},"geometry":{"x":183386.21000000089,"y":2569940.2699999996}},{"attributes":{"ID":187980,"DIS_CODE":0,"TOWNNAME":"六甲區","LI":"二甲里","LIN":"24鄰","STREET":"信義街","SECT":" ","MAREA":" ","LANE":" ","ALLEY":" ","HOUSE_NO":"３０８號","E_COORD97":183387.5,"N_COORD97":2569944.4700000002,"ADDRESS":"信義街３０８號","OBJECTID":187979},"geometry":{"x":183387.50000000093,"y":2569944.4700000044}},{"attributes":{"ID":187981,"DIS_CODE":0,"TOWNNAME":"六甲區","LI":"二甲里","LIN":"24鄰","STREET":"信義街","SECT":" ","MAREA":" ","LANE":" ","ALLEY":" ","HOUSE_NO":"３１０號","E_COORD97":183388.44,"N_COORD97":2569948.46,"ADDRESS":"信義街３１０號","OBJECTID":187980},"geometry":{"x":183388.44000000134,"y":2569948.4600000046}},{"attributes":{"ID":187982,"DIS_CODE":0,"TOWNNAME":"六甲區","LI":"二甲里","LIN":"24鄰","STREET":"信義街","SECT":" ","MAREA":" ","LANE":" ","ALLEY":" ","HOUSE_NO":"３１２號","E_COORD97":183389.48000000001,"N_COORD97":2569952.6499999999,"ADDRESS":"信義街３１２號","OBJECTID":187981},"geometry":{"x":183389.48000000138,"y":2569952.6500000004}},{"attributes":{"ID":187983,"DIS_CODE":0,"TOWNNAME":"新營區","LI":"大宏里","LIN":"24鄰","STREET":"民治路","SECT":" ","MAREA":" ","LANE":" ","ALLEY":" ","HOUSE_NO":"３號之２８","E_COORD97":180564.85000000001,"N_COORD97":2578807.1099999999,"ADDRESS":"民治路３號之２８","OBJECTID":187982},"geometry":{"x":180564.84999999963,"y":2578807.1099999994}},{"attributes":{"ID":187984,"DIS_CODE":0,"TOWNNAME":"安南區","LI":"國安里","LIN":"5鄰","STREET":"國安街","SECT":" ","MAREA":" ","LANE":"１５６巷","ALLEY":"１８５弄","HOUSE_NO":"２５號","E_COORD97":166573.35000000001,"N_COORD97":2547458.7000000002,"ADDRESS":"國安街１５６巷１８５弄２５號","OBJECTID":187983},"geometry":{"x":166573.35000000056,"y":2547458.6999999993}},{"attributes":{"ID":187985,"DIS_CODE":0,"TOWNNAME":"安南區","LI":"國安里","LIN":"5鄰","STREET":"國安街","SECT":" ","MAREA":" ","LANE":"１５６巷","ALLEY":"１８５弄","HOUSE_NO":"２１號","E_COORD97":166581.22,"N_COORD97":2547460.4700000002,"ADDRESS":"國安街１５６巷１８５弄２１號","OBJECTID":187984},"geometry":{"x":166581.22000000067,"y":2547460.4700000025}},{"attributes":{"ID":187986,"DIS_CODE":0,"TOWNNAME":"安南區","LI":"國安里","LIN":"5鄰","STREET":"國安街","SECT":" ","MAREA":" ","LANE":"１５６巷","ALLEY":"１８５弄","HOUSE_NO":"１９號","E_COORD97":166585.29000000001,"N_COORD97":2547461.2400000002,"ADDRESS":"國安街１５６巷１８５弄１９號","OBJECTID":187985},"geometry":{"x":166585.29000000004,"y":2547461.2400000021}},{"attributes":{"ID":187987,"DIS_CODE":0,"TOWNNAME":"安南區","LI":"國安里","LIN":"5鄰","STREET":"國安街","SECT":" ","MAREA":" ","LANE":"１５６巷","ALLEY":"１８５弄","HOUSE_NO":"４６號","E_COORD97":166549.98000000001,"N_COORD97":2547464.79,"ADDRESS":"國安街１５６巷１８５弄４６號","OBJECTID":187986},"geometry":{"x":166549.98000000138,"y":2547464.7899999991}},{"attributes":{"ID":187988,"DIS_CODE":0,"TOWNNAME":"安南區","LI":"國安里","LIN":"5鄰","STREET":"國安街","SECT":" ","MAREA":" ","LANE":"１５６巷","ALLEY":"１８５弄","HOUSE_NO":"４２號","E_COORD97":166553.66,"N_COORD97":2547465.9399999999,"ADDRESS":"國安街１５６巷１８５弄４２號","OBJECTID":187987},"geometry":{"x":166553.66000000015,"y":2547465.9400000013}},{"attributes":{"ID":187989,"DIS_CODE":0,"TOWNNAME":"安南區","LI":"國安里","LIN":"5鄰","STREET":"國安街","SECT":" ","MAREA":" ","LANE":"１５６巷","ALLEY":"１８５弄","HOUSE_NO":"４０號","E_COORD97":166557.60000000001,"N_COORD97":2547466.3199999998,"ADDRESS":"國安街１５６巷１８５弄４０號","OBJECTID":187988},"geometry":{"x":166557.5999999987,"y":2547466.3200000003}},{"attributes":{"ID":187990,"DIS_CODE":0,"TOWNNAME":"安南區","LI":"國安里","LIN":"5鄰","STREET":"國安街","SECT":" ","MAREA":" ","LANE":"１５６巷","ALLEY":"１８５弄","HOUSE_NO":"３８號","E_COORD97":166562.17000000001,"N_COORD97":2547466.9500000002,"ADDRESS":"國安街１５６巷１８５弄３８號","OBJECTID":187989},"geometry":{"x":166562.16999999993,"y":2547466.9499999993}},{"attributes":{"ID":187991,"DIS_CODE":0,"TOWNNAME":"安南區","LI":"國安里","LIN":"5鄰","STREET":"國安街","SECT":" ","MAREA":" ","LANE":"１５６巷","ALLEY":"１８５弄","HOUSE_NO":"３６號","E_COORD97":166565.85000000001,"N_COORD97":2547468.0899999999,"ADDRESS":"國安街１５６巷１８５弄３６號","OBJECTID":187990},"geometry":{"x":166565.84999999963,"y":2547468.0900000036}},{"attributes":{"ID":187992,"DIS_CODE":0,"TOWNNAME":"安南區","LI":"國安里","LIN":"5鄰","STREET":"國安街","SECT":" ","MAREA":" ","LANE":"１５６巷","ALLEY":"１８５弄","HOUSE_NO":"３２號","E_COORD97":166570.29999999999,"N_COORD97":2547469.1099999999,"ADDRESS":"國安街１５６巷１８５弄３２號","OBJECTID":187991},"geometry":{"x":166570.30000000075,"y":2547469.1100000013}},{"attributes":{"ID":187993,"DIS_CODE":0,"TOWNNAME":"安南區","LI":"國安里","LIN":"5鄰","STREET":"國安街","SECT":" ","MAREA":" ","LANE":"１５６巷","ALLEY":"１８５弄","HOUSE_NO":"３０號","E_COORD97":166574.62,"N_COORD97":2547469.75,"ADDRESS":"國安街１５６巷１８５弄３０號","OBJECTID":187992},"geometry":{"x":166574.62000000011,"y":2547469.75}},{"attributes":{"ID":187994,"DIS_CODE":0,"TOWNNAME":"安南區","LI":"國安里","LIN":"5鄰","STREET":"國安街","SECT":" ","MAREA":" ","LANE":"１５６巷","ALLEY":"１８５弄","HOUSE_NO":"２８號","E_COORD97":166578.54999999999,"N_COORD97":2547470.5099999998,"ADDRESS":"國安街１５６巷１８５弄２８號","OBJECTID":187993},"geometry":{"x":166578.55000000168,"y":2547470.5099999998}},{"attributes":{"ID":187995,"DIS_CODE":0,"TOWNNAME":"善化區","LI":"坐駕里","LIN":"21鄰","STREET":" ","SECT":" ","MAREA":"坐駕","LANE":" ","ALLEY":" ","HOUSE_NO":"１５之４號","E_COORD97":178233.63,"N_COORD97":2558357.02,"ADDRESS":"坐駕１５之４號","OBJECTID":187994},"geometry":{"x":178233.62999999989,"y":2558357.0199999996}},{"attributes":{"ID":187996,"DIS_CODE":0,"TOWNNAME":"安南區","LI":"國安里","LIN":"5鄰","STREET":"國安街","SECT":" ","MAREA":" ","LANE":"１５６巷","ALLEY":"１８５弄","HOUSE_NO":"２６號","E_COORD97":166582.62,"N_COORD97":2547471.6499999999,"ADDRESS":"國安街１５６巷１８５弄２６號","OBJECTID":187995},"geometry":{"x":166582.62000000104,"y":2547471.6500000041}},{"attributes":{"ID":187997,"DIS_CODE":0,"TOWNNAME":"安南區","LI":"國安里","LIN":"5鄰","STREET":"國安街","SECT":" ","MAREA":" ","LANE":"１５６巷","ALLEY":"１８５弄","HOUSE_NO":"２２號","E_COORD97":166586.67999999999,"N_COORD97":2547472.79,"ADDRESS":"國安街１５６巷１８５弄２２號","OBJECTID":187996},"geometry":{"x":166586.68000000063,"y":2547472.7900000028}},{"attributes":{"ID":187998,"DIS_CODE":0,"TOWNNAME":"安南區","LI":"國安里","LIN":"5鄰","STREET":"國安街","SECT":" ","MAREA":" ","LANE":"１５６巷","ALLEY":"１８５弄","HOUSE_NO":"２０號","E_COORD97":166591,"N_COORD97":2547473.5600000001,"ADDRESS":"國安街１５６巷１８５弄２０號","OBJECTID":187997},"geometry":{"x":166591.00000000186,"y":2547473.5600000024}},{"attributes":{"ID":187999,"DIS_CODE":0,"TOWNNAME":"安南區","LI":"國安里","LIN":"5鄰","STREET":"國安街","SECT":" ","MAREA":" ","LANE":"１５６巷","ALLEY":"１８５弄","HOUSE_NO":"１８號","E_COORD97":166595.06,"N_COORD97":2547474.4399999999,"ADDRESS":"國安街１５６巷１８５弄１８號","OBJECTID":187998},"geometry":{"x":166595.05999999959,"y":2547474.4399999995}},{"attributes":{"ID":188000,"DIS_CODE":0,"TOWNNAME":"安南區","LI":"國安里","LIN":"5鄰","STREET":"國安街","SECT":" ","MAREA":" ","LANE":"１５６巷","ALLEY":"１８５弄","HOUSE_NO":"１６號","E_COORD97":166599,"N_COORD97":2547475.21,"ADDRESS":"國安街１５６巷１８５弄１６號","OBJECTID":187999},"geometry":{"x":166599,"y":2547475.2100000046}},{"attributes":{"ID":188001,"DIS_CODE":0,"TOWNNAME":"安南區","LI":"國安里","LIN":"5鄰","STREET":"國安街","SECT":" ","MAREA":" ","LANE":"１５６巷","ALLEY":"１８５弄","HOUSE_NO":"１２號","E_COORD97":166603.19,"N_COORD97":2547476.1000000001,"ADDRESS":"國安街１５６巷１８５弄１２號","OBJECTID":188000},"geometry":{"x":166603.19000000041,"y":2547476.1000000015}}]}