{"displayFieldName":"TOWNNAME","fieldAliases":{"ID":"ID","DIS_CODE":"DIS_CODE","TOWNNAME":"TOWNNAME","LI":"LI","LIN":"LIN","STREET":"STREET","SECT":"SECT","MAREA":"MAREA","LANE":"LANE","ALLEY":"ALLEY","HOUSE_NO":"HOUSE_NO","E_COORD97":"E_COORD97","N_COORD97":"N_COORD97","ADDRESS":"ADDRESS","OBJECTID":"OBJECTID"},"geometryType":"esriGeometryPoint","spatialReference":{"wkid":102443,"latestWkid":3826},"fields":[{"name":"ID","type":"esriFieldTypeDouble","alias":"ID"},{"name":"DIS_CODE","type":"esriFieldTypeInteger","alias":"DIS_CODE"},{"name":"TOWNNAME","type":"esriFieldTypeString","alias":"TOWNNAME","length":8},{"name":"LI","type":"esriFieldTypeString","alias":"LI","length":8},{"name":"LIN","type":"esriFieldTypeString","alias":"LIN","length":12},{"name":"STREET","type":"esriFieldTypeString","alias":"STREET","length":20},{"name":"SECT","type":"esriFieldTypeString","alias":"SECT","length":8},{"name":"MAREA","type":"esriFieldTypeString","alias":"MAREA","length":12},{"name":"LANE","type":"esriFieldTypeString","alias":"LANE","length":10},{"name":"ALLEY","type":"esriFieldTypeString","alias":"ALLEY","length":10},{"name":"HOUSE_NO","type":"esriFieldTypeString","alias":"HOUSE_NO","length":20},{"name":"E_COORD97","type":"esriFieldTypeDouble","alias":"E_COORD97"},{"name":"N_COORD97","type":"esriFieldTypeDouble","alias":"N_COORD97"},{"name":"ADDRESS","type":"esriFieldTypeString","alias":"ADDRESS","length":50},{"name":"OBJECTID","type":"esriFieldTypeOID","alias":"OBJECTID"}],"features":[{"attributes":{"ID":460826,"DIS_CODE":0,"TOWNNAME":"中西區","LI":"永福里","LIN":"17鄰","STREET":"永福路","SECT":"二段","MAREA":" ","LANE":" ","ALLEY":" ","HOUSE_NO":"１８６號之１","E_COORD97":168192.45999999999,"N_COORD97":2544043.0499999998,"ADDRESS":"永福路二段１８６號之１","OBJECTID":460801},"geometry":{"x":168192.45999999996,"y":2544043.0500000026}},{"attributes":{"ID":460827,"DIS_CODE":0,"TOWNNAME":"中西區","LI":"永福里","LIN":"17鄰","STREET":"永福路","SECT":"二段","MAREA":" ","LANE":" ","ALLEY":" ","HOUSE_NO":"１８６號之２","E_COORD97":168193.95000000001,"N_COORD97":2544046.8999999999,"ADDRESS":"永福路二段１８６號之２","OBJECTID":460802},"geometry":{"x":168193.95000000112,"y":2544046.9000000022}},{"attributes":{"ID":460828,"DIS_CODE":0,"TOWNNAME":"中西區","LI":"永福里","LIN":"17鄰","STREET":"永福路","SECT":"二段","MAREA":" ","LANE":" ","ALLEY":" ","HOUSE_NO":"１８６號之３","E_COORD97":168194.94,"N_COORD97":2544051.3599999999,"ADDRESS":"永福路二段１８６號之３","OBJECTID":460803},"geometry":{"x":168194.94000000041,"y":2544051.3599999994}},{"attributes":{"ID":460829,"DIS_CODE":0,"TOWNNAME":"中西區","LI":"永福里","LIN":"17鄰","STREET":"永福路","SECT":"二段","MAREA":" ","LANE":" ","ALLEY":" ","HOUSE_NO":"１８８號","E_COORD97":168197.79999999999,"N_COORD97":2544055.8300000001,"ADDRESS":"永福路二段１８８號","OBJECTID":460804},"geometry":{"x":168197.80000000075,"y":2544055.8299999982}},{"attributes":{"ID":460830,"DIS_CODE":0,"TOWNNAME":"中西區","LI":"永福里","LIN":"17鄰","STREET":"永福路","SECT":"二段","MAREA":" ","LANE":" ","ALLEY":" ","HOUSE_NO":"１９０號","E_COORD97":168199.41,"N_COORD97":2544060.29,"ADDRESS":"永福路二段１９０號","OBJECTID":460805},"geometry":{"x":168199.41000000108,"y":2544060.290000001}},{"attributes":{"ID":460831,"DIS_CODE":0,"TOWNNAME":"中西區","LI":"永福里","LIN":"17鄰","STREET":"永福路","SECT":"二段","MAREA":" ","LANE":" ","ALLEY":" ","HOUSE_NO":"１９２號","E_COORD97":168213.76999999999,"N_COORD97":2544061.5299999998,"ADDRESS":"永福路二段１９２號","OBJECTID":460806},"geometry":{"x":168213.76999999955,"y":2544061.5300000012}},{"attributes":{"ID":460832,"DIS_CODE":0,"TOWNNAME":"中西區","LI":"永福里","LIN":"17鄰","STREET":"永福路","SECT":"二段","MAREA":" ","LANE":" ","ALLEY":" ","HOUSE_NO":"１９４號","E_COORD97":168214.73000000001,"N_COORD97":2544064.29,"ADDRESS":"永福路二段１９４號","OBJECTID":460807},"geometry":{"x":168214.73000000138,"y":2544064.2899999991}},{"attributes":{"ID":460833,"DIS_CODE":0,"TOWNNAME":"中西區","LI":"永福里","LIN":"17鄰","STREET":"永福路","SECT":"二段","MAREA":" ","LANE":" ","ALLEY":" ","HOUSE_NO":"２００號","E_COORD97":168225.76999999999,"N_COORD97":2544082.0699999998,"ADDRESS":"永福路二段２００號","OBJECTID":460808},"geometry":{"x":168225.76999999955,"y":2544082.0700000022}},{"attributes":{"ID":460834,"DIS_CODE":0,"TOWNNAME":"中西區","LI":"永福里","LIN":"20鄰","STREET":"民族路","SECT":"二段","MAREA":" ","LANE":" ","ALLEY":" ","HOUSE_NO":"３１１號","E_COORD97":168292.57999999999,"N_COORD97":2544125.1600000001,"ADDRESS":"民族路二段３１１號","OBJECTID":460809},"geometry":{"x":168292.58000000194,"y":2544125.1600000039}},{"attributes":{"ID":460835,"DIS_CODE":0,"TOWNNAME":"中西區","LI":"永福里","LIN":"20鄰","STREET":"民族路","SECT":"二段","MAREA":" ","LANE":" ","ALLEY":" ","HOUSE_NO":"２７７號","E_COORD97":168342.92999999999,"N_COORD97":2544078.6499999999,"ADDRESS":"民族路二段２７７號","OBJECTID":460810},"geometry":{"x":168342.93000000063,"y":2544078.6500000022}},{"attributes":{"ID":460836,"DIS_CODE":0,"TOWNNAME":"中西區","LI":"永福里","LIN":"20鄰","STREET":"民族路","SECT":"二段","MAREA":" ","LANE":" ","ALLEY":" ","HOUSE_NO":"２７９號","E_COORD97":168353.23999999999,"N_COORD97":2544102.1400000001,"ADDRESS":"民族路二段２７９號","OBJECTID":460811},"geometry":{"x":168353.24000000115,"y":2544102.1400000043}},{"attributes":{"ID":460837,"DIS_CODE":0,"TOWNNAME":"中西區","LI":"永福里","LIN":"20鄰","STREET":"民族路","SECT":"二段","MAREA":" ","LANE":" ","ALLEY":" ","HOUSE_NO":"２７９號之１","E_COORD97":168347.32999999999,"N_COORD97":2544087.5,"ADDRESS":"民族路二段２７９號之１","OBJECTID":460812},"geometry":{"x":168347.33000000101,"y":2544087.5}},{"attributes":{"ID":460838,"DIS_CODE":0,"TOWNNAME":"中西區","LI":"永福里","LIN":"20鄰","STREET":"民族路","SECT":"二段","MAREA":" ","LANE":" ","ALLEY":" ","HOUSE_NO":"２８１號","E_COORD97":168350,"N_COORD97":2544103.3599999999,"ADDRESS":"民族路二段２８１號","OBJECTID":460813},"geometry":{"x":168350,"y":2544103.3600000013}},{"attributes":{"ID":460839,"DIS_CODE":0,"TOWNNAME":"中西區","LI":"永福里","LIN":"20鄰","STREET":"民族路","SECT":"二段","MAREA":" ","LANE":" ","ALLEY":" ","HOUSE_NO":"２８３號","E_COORD97":168347.44,"N_COORD97":2544105.0299999998,"ADDRESS":"民族路二段２８３號","OBJECTID":460814},"geometry":{"x":168347.44000000041,"y":2544105.0300000012}},{"attributes":{"ID":460840,"DIS_CODE":0,"TOWNNAME":"東區","LI":"莊敬里","LIN":"25鄰","STREET":"東平路","SECT":" ","MAREA":" ","LANE":" ","ALLEY":" ","HOUSE_NO":"７０號","E_COORD97":171234.06,"N_COORD97":2543951.8900000001,"ADDRESS":"東平路７０號","OBJECTID":460815},"geometry":{"x":171234.06000000052,"y":2543951.8900000025}},{"attributes":{"ID":460841,"DIS_CODE":0,"TOWNNAME":"中西區","LI":"永福里","LIN":"21鄰","STREET":"忠義路","SECT":"二段","MAREA":" ","LANE":" ","ALLEY":" ","HOUSE_NO":"１４９號","E_COORD97":168373.07000000001,"N_COORD97":2544042.6400000001,"ADDRESS":"忠義路二段１４９號","OBJECTID":460816},"geometry":{"x":168373.07000000123,"y":2544042.6400000006}},{"attributes":{"ID":460842,"DIS_CODE":0,"TOWNNAME":"中西區","LI":"永福里","LIN":"21鄰","STREET":"忠義路","SECT":"二段","MAREA":" ","LANE":" ","ALLEY":" ","HOUSE_NO":"１５１號","E_COORD97":168375.19,"N_COORD97":2544045.6299999999,"ADDRESS":"忠義路二段１５１號","OBJECTID":460817},"geometry":{"x":168375.19000000227,"y":2544045.629999999}},{"attributes":{"ID":460843,"DIS_CODE":0,"TOWNNAME":"中西區","LI":"永福里","LIN":"21鄰","STREET":"忠義路","SECT":"二段","MAREA":" ","LANE":" ","ALLEY":" ","HOUSE_NO":"１５３號","E_COORD97":168376.56,"N_COORD97":2544048.8599999999,"ADDRESS":"忠義路二段１５３號","OBJECTID":460818},"geometry":{"x":168376.55999999959,"y":2544048.8600000013}},{"attributes":{"ID":460844,"DIS_CODE":0,"TOWNNAME":"中西區","LI":"永福里","LIN":"21鄰","STREET":"忠義路","SECT":"二段","MAREA":" ","LANE":" ","ALLEY":" ","HOUSE_NO":"１５５號","E_COORD97":168377.17999999999,"N_COORD97":2544052.2200000002,"ADDRESS":"忠義路二段１５５號","OBJECTID":460819},"geometry":{"x":168377.1799999997,"y":2544052.2200000025}},{"attributes":{"ID":460845,"DIS_CODE":0,"TOWNNAME":"永康區","LI":"龍潭里","LIN":"9鄰","STREET":"龍埔街","SECT":" ","MAREA":" ","LANE":" ","ALLEY":" ","HOUSE_NO":"７０號","E_COORD97":174638.19,"N_COORD97":2548242.3799999999,"ADDRESS":"龍埔街７０號","OBJECTID":460820},"geometry":{"x":174638.19000000041,"y":2548242.3800000008}},{"attributes":{"ID":460846,"DIS_CODE":0,"TOWNNAME":"永康區","LI":"網寮里","LIN":"20鄰","STREET":"永二街","SECT":" ","MAREA":" ","LANE":" ","ALLEY":" ","HOUSE_NO":"２４９號","E_COORD97":173320.70000000001,"N_COORD97":2546224.75,"ADDRESS":"永二街２４９號","OBJECTID":460821},"geometry":{"x":173320.70000000019,"y":2546224.75}},{"attributes":{"ID":460847,"DIS_CODE":0,"TOWNNAME":"永康區","LI":"龍潭里","LIN":"39鄰","STREET":"永明街","SECT":" ","MAREA":" ","LANE":" ","ALLEY":" ","HOUSE_NO":"１７７號","E_COORD97":174431.57999999999,"N_COORD97":2547210.25,"ADDRESS":"永明街１７７號","OBJECTID":460822},"geometry":{"x":174431.58000000101,"y":2547210.2500000019}},{"attributes":{"ID":460848,"DIS_CODE":0,"TOWNNAME":"永康區","LI":"網寮里","LIN":"24鄰","STREET":"永華路","SECT":" ","MAREA":" ","LANE":" ","ALLEY":" ","HOUSE_NO":"４２３號","E_COORD97":173873.07999999999,"N_COORD97":2546480.5499999998,"ADDRESS":"永華路４２３號","OBJECTID":460823},"geometry":{"x":173873.08000000194,"y":2546480.5500000026}},{"attributes":{"ID":460849,"DIS_CODE":0,"TOWNNAME":"永康區","LI":"龍潭里","LIN":"20鄰","STREET":"龍潭街","SECT":" ","MAREA":" ","LANE":" ","ALLEY":" ","HOUSE_NO":"２１３號","E_COORD97":174963.39999999999,"N_COORD97":2548452.4900000002,"ADDRESS":"龍潭街２１３號","OBJECTID":460824},"geometry":{"x":174963.4000000013,"y":2548452.4900000039}},{"attributes":{"ID":460850,"DIS_CODE":0,"TOWNNAME":"東區","LI":"莊敬里","LIN":"25鄰","STREET":"東平路","SECT":" ","MAREA":" ","LANE":" ","ALLEY":" ","HOUSE_NO":"７４號","E_COORD97":171225.14999999999,"N_COORD97":2543954.6800000002,"ADDRESS":"東平路７４號","OBJECTID":460825},"geometry":{"x":171225.15000000224,"y":2543954.6799999978}},{"attributes":{"ID":460851,"DIS_CODE":0,"TOWNNAME":"永康區","LI":"蔦松里","LIN":"5鄰","STREET":"蔦松一街","SECT":" ","MAREA":" ","LANE":" ","ALLEY":" ","HOUSE_NO":"２３１號之１","E_COORD97":173538.73999999999,"N_COORD97":2549753.7999999998,"ADDRESS":"蔦松一街２３１號之１","OBJECTID":460826},"geometry":{"x":173538.74000000115,"y":2549753.8000000026}},{"attributes":{"ID":460852,"DIS_CODE":0,"TOWNNAME":"東區","LI":"莊敬里","LIN":"25鄰","STREET":"東平路","SECT":" ","MAREA":" ","LANE":" ","ALLEY":" ","HOUSE_NO":"７６號","E_COORD97":171221.47,"N_COORD97":2543955.71,"ADDRESS":"東平路７６號","OBJECTID":460827},"geometry":{"x":171221.46999999974,"y":2543955.709999999}},{"attributes":{"ID":460853,"DIS_CODE":0,"TOWNNAME":"永康區","LI":"龍潭里","LIN":"32鄰","STREET":"龍中街","SECT":" ","MAREA":" ","LANE":" ","ALLEY":" ","HOUSE_NO":"６２號之２","E_COORD97":174451.82000000001,"N_COORD97":2547998.3500000001,"ADDRESS":"龍中街６２號之２","OBJECTID":460828},"geometry":{"x":174451.82000000123,"y":2547998.3500000034}},{"attributes":{"ID":460854,"DIS_CODE":0,"TOWNNAME":"永康區","LI":"網寮里","LIN":"20鄰","STREET":"文化路","SECT":" ","MAREA":" ","LANE":" ","ALLEY":" ","HOUSE_NO":"３１７號","E_COORD97":173441.13,"N_COORD97":2546137.21,"ADDRESS":"文化路３１７號","OBJECTID":460829},"geometry":{"x":173441.12999999989,"y":2546137.2100000028}},{"attributes":{"ID":460855,"DIS_CODE":0,"TOWNNAME":"永康區","LI":"龍潭里","LIN":"18鄰","STREET":"龍潭街","SECT":" ","MAREA":" ","LANE":" ","ALLEY":" ","HOUSE_NO":"２６５號","E_COORD97":174831.45000000001,"N_COORD97":2548440.4500000002,"ADDRESS":"龍潭街２６５號","OBJECTID":460830},"geometry":{"x":174831.45000000019,"y":2548440.4499999993}},{"attributes":{"ID":460856,"DIS_CODE":0,"TOWNNAME":"永康區","LI":"龍潭里","LIN":"26鄰","STREET":"中山北路","SECT":" ","MAREA":" ","LANE":" ","ALLEY":" ","HOUSE_NO":"４３３號","E_COORD97":175034.48000000001,"N_COORD97":2547724.6899999999,"ADDRESS":"中山北路４３３號","OBJECTID":460831},"geometry":{"x":175034.48000000138,"y":2547724.6900000032}},{"attributes":{"ID":460857,"DIS_CODE":0,"TOWNNAME":"永康區","LI":"龍潭里","LIN":"26鄰","STREET":"中山北路","SECT":" ","MAREA":" ","LANE":" ","ALLEY":" ","HOUSE_NO":"４３９號","E_COORD97":175049.5,"N_COORD97":2547726.7000000002,"ADDRESS":"中山北路４３９號","OBJECTID":460832},"geometry":{"x":175049.5,"y":2547726.6999999993}},{"attributes":{"ID":460858,"DIS_CODE":0,"TOWNNAME":"永康區","LI":"龍潭里","LIN":"25鄰","STREET":"龍昌街","SECT":" ","MAREA":" ","LANE":" ","ALLEY":" ","HOUSE_NO":"２８號","E_COORD97":175019.89000000001,"N_COORD97":2547822.5299999998,"ADDRESS":"龍昌街２８號","OBJECTID":460833},"geometry":{"x":175019.89000000153,"y":2547822.5299999993}},{"attributes":{"ID":460859,"DIS_CODE":0,"TOWNNAME":"永康區","LI":"龍潭里","LIN":"32鄰","STREET":"龍中街","SECT":" ","MAREA":" ","LANE":" ","ALLEY":" ","HOUSE_NO":"５２號之１","E_COORD97":174454.31,"N_COORD97":2547970.1000000001,"ADDRESS":"龍中街５２號之１","OBJECTID":460834},"geometry":{"x":174454.31000000052,"y":2547970.1000000015}},{"attributes":{"ID":460860,"DIS_CODE":0,"TOWNNAME":"永康區","LI":"龍潭里","LIN":"18鄰","STREET":"龍橋街","SECT":" ","MAREA":" ","LANE":" ","ALLEY":" ","HOUSE_NO":"５８號","E_COORD97":174800.13,"N_COORD97":2548429.9900000002,"ADDRESS":"龍橋街５８號","OBJECTID":460835},"geometry":{"x":174800.13000000082,"y":2548429.9900000021}},{"attributes":{"ID":460861,"DIS_CODE":0,"TOWNNAME":"永康區","LI":"龍潭里","LIN":"18鄰","STREET":"龍潭街","SECT":" ","MAREA":" ","LANE":" ","ALLEY":" ","HOUSE_NO":"２４９號","E_COORD97":174867.06,"N_COORD97":2548442.5499999998,"ADDRESS":"龍潭街２４９號","OBJECTID":460836},"geometry":{"x":174867.05999999959,"y":2548442.5500000045}},{"attributes":{"ID":460862,"DIS_CODE":0,"TOWNNAME":"永康區","LI":"龍潭里","LIN":"32鄰","STREET":"龍中街","SECT":" ","MAREA":" ","LANE":" ","ALLEY":" ","HOUSE_NO":"７４號之１","E_COORD97":174447.42999999999,"N_COORD97":2548028.0899999999,"ADDRESS":"龍中街７４號之１","OBJECTID":460837},"geometry":{"x":174447.43000000063,"y":2548028.0900000017}},{"attributes":{"ID":460863,"DIS_CODE":0,"TOWNNAME":"永康區","LI":"蔦松里","LIN":"5鄰","STREET":"蔦松一街","SECT":" ","MAREA":" ","LANE":" ","ALLEY":" ","HOUSE_NO":"７３號","E_COORD97":173824.20999999999,"N_COORD97":2549474.9900000002,"ADDRESS":"蔦松一街７３號","OBJECTID":460838},"geometry":{"x":173824.20999999996,"y":2549474.9900000002}},{"attributes":{"ID":460864,"DIS_CODE":0,"TOWNNAME":"永康區","LI":"龍潭里","LIN":"18鄰","STREET":"龍潭街","SECT":" ","MAREA":" ","LANE":" ","ALLEY":" ","HOUSE_NO":"２７１號","E_COORD97":174804.26999999999,"N_COORD97":2548441.6200000001,"ADDRESS":"龍潭街２７１號","OBJECTID":460839},"geometry":{"x":174804.27000000048,"y":2548441.620000001}},{"attributes":{"ID":460865,"DIS_CODE":0,"TOWNNAME":"永康區","LI":"網寮里","LIN":"20鄰","STREET":"文化路","SECT":" ","MAREA":" ","LANE":" ","ALLEY":" ","HOUSE_NO":"３０５號","E_COORD97":173464.76999999999,"N_COORD97":2546120.5099999998,"ADDRESS":"文化路３０５號","OBJECTID":460840},"geometry":{"x":173464.77000000048,"y":2546120.5100000016}},{"attributes":{"ID":460866,"DIS_CODE":0,"TOWNNAME":"永康區","LI":"龍潭里","LIN":"25鄰","STREET":"龍昌街","SECT":" ","MAREA":" ","LANE":" ","ALLEY":" ","HOUSE_NO":"２４號","E_COORD97":175021.04000000001,"N_COORD97":2547814.5299999998,"ADDRESS":"龍昌街２４號","OBJECTID":460841},"geometry":{"x":175021.0400000019,"y":2547814.5300000012}},{"attributes":{"ID":460867,"DIS_CODE":0,"TOWNNAME":"永康區","LI":"龍潭里","LIN":"32鄰","STREET":"龍中街","SECT":" ","MAREA":" ","LANE":" ","ALLEY":" ","HOUSE_NO":"４８號之１","E_COORD97":174455.29999999999,"N_COORD97":2547961.6000000001,"ADDRESS":"龍中街４８號之１","OBJECTID":460842},"geometry":{"x":174455.30000000075,"y":2547961.5999999996}},{"attributes":{"ID":460868,"DIS_CODE":0,"TOWNNAME":"永康區","LI":"龍潭里","LIN":"32鄰","STREET":"龍中街","SECT":" ","MAREA":" ","LANE":" ","ALLEY":" ","HOUSE_NO":"７０號之２","E_COORD97":174449.25,"N_COORD97":2548017.3399999999,"ADDRESS":"龍中街７０號之２","OBJECTID":460843},"geometry":{"x":174449.25,"y":2548017.3400000017}},{"attributes":{"ID":460869,"DIS_CODE":0,"TOWNNAME":"永康區","LI":"蔦松里","LIN":"4鄰","STREET":"蔦松一街","SECT":" ","MAREA":" ","LANE":" ","ALLEY":" ","HOUSE_NO":"３７號","E_COORD97":173943.51000000001,"N_COORD97":2549403.7400000002,"ADDRESS":"蔦松一街３７號","OBJECTID":460844},"geometry":{"x":173943.51000000071,"y":2549403.7400000021}},{"attributes":{"ID":460870,"DIS_CODE":0,"TOWNNAME":"永康區","LI":"龍潭里","LIN":"25鄰","STREET":"龍昌街","SECT":" ","MAREA":" ","LANE":" ","ALLEY":" ","HOUSE_NO":"５０號","E_COORD97":175016.34,"N_COORD97":2547872.5699999998,"ADDRESS":"龍昌街５０號","OBJECTID":460845},"geometry":{"x":175016.33999999985,"y":2547872.5700000022}},{"attributes":{"ID":460871,"DIS_CODE":0,"TOWNNAME":"永康區","LI":"龍潭里","LIN":"32鄰","STREET":"龍中街","SECT":" ","MAREA":" ","LANE":" ","ALLEY":" ","HOUSE_NO":"５６號之１","E_COORD97":174452.84,"N_COORD97":2547981.1000000001,"ADDRESS":"龍中街５６號之１","OBJECTID":460846},"geometry":{"x":174452.84000000078,"y":2547981.1000000015}},{"attributes":{"ID":460872,"DIS_CODE":0,"TOWNNAME":"永康區","LI":"龍潭里","LIN":"5鄰","STREET":"龍埔街","SECT":" ","MAREA":" ","LANE":" ","ALLEY":" ","HOUSE_NO":"１３號","E_COORD97":174838.97,"N_COORD97":2548183.1699999999,"ADDRESS":"龍埔街１３號","OBJECTID":460847},"geometry":{"x":174838.96999999974,"y":2548183.1700000037}},{"attributes":{"ID":460873,"DIS_CODE":0,"TOWNNAME":"永康區","LI":"龍潭里","LIN":"18鄰","STREET":"龍橋街","SECT":" ","MAREA":" ","LANE":" ","ALLEY":" ","HOUSE_NO":"５４號","E_COORD97":174800.78,"N_COORD97":2548411.8700000001,"ADDRESS":"龍橋街５４號","OBJECTID":460848},"geometry":{"x":174800.77999999933,"y":2548411.870000001}},{"attributes":{"ID":460874,"DIS_CODE":0,"TOWNNAME":"永康區","LI":"龍潭里","LIN":"25鄰","STREET":"龍昌街","SECT":" ","MAREA":" ","LANE":" ","ALLEY":" ","HOUSE_NO":"３２號","E_COORD97":175019.09,"N_COORD97":2547830.5299999998,"ADDRESS":"龍昌街３２號","OBJECTID":460849},"geometry":{"x":175019.09000000078,"y":2547830.5299999975}},{"attributes":{"ID":460875,"DIS_CODE":0,"TOWNNAME":"永康區","LI":"\u25A0行里","LIN":"20鄰","STREET":"中正六街","SECT":" ","MAREA":" ","LANE":" ","ALLEY":" ","HOUSE_NO":"１３５號","E_COORD97":171822.62,"N_COORD97":2548761.6699999999,"ADDRESS":"中正六街１３５號","OBJECTID":460850},"geometry":{"x":171822.62000000011,"y":2548761.6699999999}},{"attributes":{"ID":460876,"DIS_CODE":0,"TOWNNAME":"永康區","LI":"\u25A0行里","LIN":"43鄰","STREET":"中正二街","SECT":" ","MAREA":" ","LANE":" ","ALLEY":" ","HOUSE_NO":"２２１號","E_COORD97":171541.34,"N_COORD97":2547833.9900000002,"ADDRESS":"中正二街２２１號","OBJECTID":460851},"geometry":{"x":171541.33999999985,"y":2547833.9900000002}},{"attributes":{"ID":460877,"DIS_CODE":0,"TOWNNAME":"永康區","LI":"\u25A0行里","LIN":"41鄰","STREET":"永安一街","SECT":" ","MAREA":" ","LANE":" ","ALLEY":" ","HOUSE_NO":"１０６號","E_COORD97":172421.01000000001,"N_COORD97":2549396.3100000001,"ADDRESS":"永安一街１０６號","OBJECTID":460852},"geometry":{"x":172421.01000000071,"y":2549396.3100000042}},{"attributes":{"ID":460878,"DIS_CODE":0,"TOWNNAME":"永康區","LI":"龍潭里","LIN":"4鄰","STREET":"龍埔街","SECT":" ","MAREA":" ","LANE":" ","ALLEY":" ","HOUSE_NO":"５號","E_COORD97":174852.92000000001,"N_COORD97":2548179.4199999999,"ADDRESS":"龍埔街５號","OBJECTID":460853},"geometry":{"x":174852.92000000086,"y":2548179.4200000018}},{"attributes":{"ID":460879,"DIS_CODE":0,"TOWNNAME":"永康區","LI":"龍潭里","LIN":"4鄰","STREET":"龍埔街","SECT":" ","MAREA":" ","LANE":" ","ALLEY":" ","HOUSE_NO":"７號","E_COORD97":174849.06,"N_COORD97":2548180.4199999999,"ADDRESS":"龍埔街７號","OBJECTID":460854},"geometry":{"x":174849.05999999866,"y":2548180.4199999999}},{"attributes":{"ID":460880,"DIS_CODE":0,"TOWNNAME":"永康區","LI":"蔦松里","LIN":"4鄰","STREET":"蔦松二街","SECT":" ","MAREA":" ","LANE":" ","ALLEY":" ","HOUSE_NO":"１７０號","E_COORD97":173892.54999999999,"N_COORD97":2549435.3700000001,"ADDRESS":"蔦松二街１７０號","OBJECTID":460855},"geometry":{"x":173892.54999999981,"y":2549435.3700000029}},{"attributes":{"ID":460881,"DIS_CODE":0,"TOWNNAME":"永康區","LI":"\u25A0行里","LIN":"20鄰","STREET":"中正六街","SECT":" ","MAREA":" ","LANE":" ","ALLEY":" ","HOUSE_NO":"１３３號","E_COORD97":171834.51000000001,"N_COORD97":2548744.5499999998,"ADDRESS":"中正六街１３３號","OBJECTID":460856},"geometry":{"x":171834.51000000071,"y":2548744.5500000026}},{"attributes":{"ID":460882,"DIS_CODE":0,"TOWNNAME":"永康區","LI":"\u25A0行里","LIN":"43鄰","STREET":"正南三路","SECT":" ","MAREA":" ","LANE":" ","ALLEY":" ","HOUSE_NO":"１２８號","E_COORD97":171745.67999999999,"N_COORD97":2547684.5,"ADDRESS":"正南三路１２８號","OBJECTID":460857},"geometry":{"x":171745.6799999997,"y":2547684.5}},{"attributes":{"ID":460883,"DIS_CODE":0,"TOWNNAME":"永康區","LI":"\u25A0行里","LIN":"43鄰","STREET":"正南三路","SECT":" ","MAREA":" ","LANE":" ","ALLEY":" ","HOUSE_NO":"１３２號","E_COORD97":171717.04000000001,"N_COORD97":2547730.7400000002,"ADDRESS":"正南三路１３２號","OBJECTID":460858},"geometry":{"x":171717.0400000019,"y":2547730.7400000002}},{"attributes":{"ID":460884,"DIS_CODE":0,"TOWNNAME":"永康區","LI":"龍潭里","LIN":"4鄰","STREET":"龍潭街","SECT":" ","MAREA":" ","LANE":" ","ALLEY":" ","HOUSE_NO":"９９號","E_COORD97":174840.64999999999,"N_COORD97":2548108.73,"ADDRESS":"龍潭街９９號","OBJECTID":460859},"geometry":{"x":174840.65000000037,"y":2548108.7300000042}},{"attributes":{"ID":460885,"DIS_CODE":0,"TOWNNAME":"永康區","LI":"龍潭里","LIN":"39鄰","STREET":"永明街","SECT":" ","MAREA":" ","LANE":" ","ALLEY":" ","HOUSE_NO":"２６５之９號","E_COORD97":174628.12,"N_COORD97":2547263.5499999998,"ADDRESS":"永明街２６５之９號","OBJECTID":460860},"geometry":{"x":174628.12000000011,"y":2547263.5500000026}},{"attributes":{"ID":460886,"DIS_CODE":0,"TOWNNAME":"永康區","LI":"蔦松里","LIN":"5鄰","STREET":"蔦松二街","SECT":" ","MAREA":" ","LANE":" ","ALLEY":" ","HOUSE_NO":"１５７號","E_COORD97":173868.44,"N_COORD97":2549445.25,"ADDRESS":"蔦松二街１５７號","OBJECTID":460861},"geometry":{"x":173868.44000000134,"y":2549445.2500000019}},{"attributes":{"ID":460887,"DIS_CODE":0,"TOWNNAME":"永康區","LI":"龍潭里","LIN":"39鄰","STREET":"永明街","SECT":" ","MAREA":" ","LANE":" ","ALLEY":" ","HOUSE_NO":"２６７之３號","E_COORD97":174628.13,"N_COORD97":2547287.79,"ADDRESS":"永明街２６７之３號","OBJECTID":460862},"geometry":{"x":174628.12999999989,"y":2547287.790000001}},{"attributes":{"ID":460888,"DIS_CODE":0,"TOWNNAME":"永康區","LI":"龍潭里","LIN":"5鄰","STREET":"龍埔街","SECT":" ","MAREA":" ","LANE":" ","ALLEY":" ","HOUSE_NO":"６９號","E_COORD97":174690.42999999999,"N_COORD97":2548217.0699999998,"ADDRESS":"龍埔街６９號","OBJECTID":460863},"geometry":{"x":174690.4299999997,"y":2548217.0700000003}},{"attributes":{"ID":460889,"DIS_CODE":0,"TOWNNAME":"永康區","LI":"\u25A0行里","LIN":"5鄰","STREET":"新行街","SECT":" ","MAREA":" ","LANE":" ","ALLEY":" ","HOUSE_NO":"１３號","E_COORD97":172204.70000000001,"N_COORD97":2548770.1299999999,"ADDRESS":"新行街１３號","OBJECTID":460864},"geometry":{"x":172204.70000000112,"y":2548770.1300000008}},{"attributes":{"ID":460890,"DIS_CODE":0,"TOWNNAME":"永康區","LI":"網寮里","LIN":"18鄰","STREET":"永勝街","SECT":" ","MAREA":" ","LANE":" ","ALLEY":" ","HOUSE_NO":"８３號","E_COORD97":173479.82000000001,"N_COORD97":2546343.9900000002,"ADDRESS":"永勝街８３號","OBJECTID":460865},"geometry":{"x":173479.8200000003,"y":2546343.9900000021}},{"attributes":{"ID":460891,"DIS_CODE":0,"TOWNNAME":"永康區","LI":"龍潭里","LIN":"39鄰","STREET":"永明街","SECT":" ","MAREA":" ","LANE":" ","ALLEY":" ","HOUSE_NO":"２６７之１２號","E_COORD97":174629.38,"N_COORD97":2547287.79,"ADDRESS":"永明街２６７之１２號","OBJECTID":460866},"geometry":{"x":174629.38000000082,"y":2547287.790000001}},{"attributes":{"ID":460892,"DIS_CODE":0,"TOWNNAME":"永康區","LI":"龍潭里","LIN":"39鄰","STREET":"永明街","SECT":" ","MAREA":" ","LANE":" ","ALLEY":" ","HOUSE_NO":"２６３之１７號","E_COORD97":174633.53,"N_COORD97":2547243.6200000001,"ADDRESS":"永明街２６３之１７號","OBJECTID":460867},"geometry":{"x":174633.53000000119,"y":2547243.6200000029}},{"attributes":{"ID":460893,"DIS_CODE":0,"TOWNNAME":"永康區","LI":"\u25A0行里","LIN":"20鄰","STREET":"中正六街","SECT":" ","MAREA":" ","LANE":" ","ALLEY":" ","HOUSE_NO":"１２７號","E_COORD97":171834.88,"N_COORD97":2548728.3100000001,"ADDRESS":"中正六街１２７號","OBJECTID":460868},"geometry":{"x":171834.88000000175,"y":2548728.3099999987}},{"attributes":{"ID":460894,"DIS_CODE":0,"TOWNNAME":"永康區","LI":"龍潭里","LIN":"42鄰","STREET":"永平街","SECT":" ","MAREA":" ","LANE":" ","ALLEY":" ","HOUSE_NO":"７７５號","E_COORD97":174623.38,"N_COORD97":2547116.2400000002,"ADDRESS":"永平街７７５號","OBJECTID":460869},"geometry":{"x":174623.37999999896,"y":2547116.2400000021}},{"attributes":{"ID":460895,"DIS_CODE":0,"TOWNNAME":"永康區","LI":"蔦松里","LIN":"4鄰","STREET":"蔦松二街","SECT":" ","MAREA":" ","LANE":" ","ALLEY":" ","HOUSE_NO":"１３０號","E_COORD97":173837.57000000001,"N_COORD97":2549390.9900000002,"ADDRESS":"蔦松二街１３０號","OBJECTID":460870},"geometry":{"x":173837.5700000003,"y":2549390.9900000002}},{"attributes":{"ID":460896,"DIS_CODE":0,"TOWNNAME":"永康區","LI":"龍潭里","LIN":"5鄰","STREET":"龍埔街","SECT":" ","MAREA":" ","LANE":" ","ALLEY":" ","HOUSE_NO":"４５號","E_COORD97":174759.29999999999,"N_COORD97":2548201.2000000002,"ADDRESS":"龍埔街４５號","OBJECTID":460871},"geometry":{"x":174759.29999999981,"y":2548201.1999999993}},{"attributes":{"ID":460897,"DIS_CODE":0,"TOWNNAME":"永康區","LI":"龍潭里","LIN":"5鄰","STREET":"龍埔街","SECT":" ","MAREA":" ","LANE":" ","ALLEY":" ","HOUSE_NO":"８５號","E_COORD97":174615.06,"N_COORD97":2548225.7000000002,"ADDRESS":"龍埔街８５號","OBJECTID":460872},"geometry":{"x":174615.05999999866,"y":2548225.6999999993}},{"attributes":{"ID":460898,"DIS_CODE":0,"TOWNNAME":"永康區","LI":"\u25A0行里","LIN":"26鄰","STREET":"正南三路","SECT":" ","MAREA":" ","LANE":" ","ALLEY":" ","HOUSE_NO":"３２１號","E_COORD97":171180.81,"N_COORD97":2548345.2400000002,"ADDRESS":"正南三路３２１號","OBJECTID":460873},"geometry":{"x":171180.81000000145,"y":2548345.2400000002}},{"attributes":{"ID":460899,"DIS_CODE":0,"TOWNNAME":"永康區","LI":"龍潭里","LIN":"5鄰","STREET":"龍埔街","SECT":" ","MAREA":" ","LANE":" ","ALLEY":" ","HOUSE_NO":"２７號","E_COORD97":174806.60000000001,"N_COORD97":2548190.4399999999,"ADDRESS":"龍埔街２７號","OBJECTID":460874},"geometry":{"x":174806.60000000149,"y":2548190.4399999995}},{"attributes":{"ID":460900,"DIS_CODE":0,"TOWNNAME":"永康區","LI":"\u25A0行里","LIN":"5鄰","STREET":"新行街","SECT":" ","MAREA":" ","LANE":" ","ALLEY":" ","HOUSE_NO":"１１號","E_COORD97":172201.89999999999,"N_COORD97":2548767.1299999999,"ADDRESS":"新行街１１號","OBJECTID":460875},"geometry":{"x":172201.9000000013,"y":2548767.129999999}},{"attributes":{"ID":460901,"DIS_CODE":0,"TOWNNAME":"永康區","LI":"\u25A0行里","LIN":"39鄰","STREET":"永安路","SECT":" ","MAREA":" ","LANE":" ","ALLEY":" ","HOUSE_NO":"１５號","E_COORD97":172764.54999999999,"N_COORD97":2549151.0299999998,"ADDRESS":"永安路１５號","OBJECTID":460876},"geometry":{"x":172764.55000000075,"y":2549151.0300000012}},{"attributes":{"ID":460902,"DIS_CODE":0,"TOWNNAME":"永康區","LI":"網寮里","LIN":"26鄰","STREET":"永興路","SECT":" ","MAREA":" ","LANE":" ","ALLEY":" ","HOUSE_NO":"６５號","E_COORD97":174042.42000000001,"N_COORD97":2546517.5,"ADDRESS":"永興路６５號","OBJECTID":460877},"geometry":{"x":174042.42000000086,"y":2546517.5000000019}},{"attributes":{"ID":460903,"DIS_CODE":0,"TOWNNAME":"永康區","LI":"龍潭里","LIN":"39鄰","STREET":"永明街","SECT":" ","MAREA":" ","LANE":" ","ALLEY":" ","HOUSE_NO":"２６７之２號","E_COORD97":174628.13,"N_COORD97":2547287.79,"ADDRESS":"永明街２６７之２號","OBJECTID":460878},"geometry":{"x":174628.12999999989,"y":2547287.790000001}},{"attributes":{"ID":460904,"DIS_CODE":0,"TOWNNAME":"永康區","LI":"\u25A0行里","LIN":"4鄰","STREET":"新行街","SECT":" ","MAREA":" ","LANE":" ","ALLEY":" ","HOUSE_NO":"８號","E_COORD97":172218.84,"N_COORD97":2548755.7400000002,"ADDRESS":"新行街８號","OBJECTID":460879},"geometry":{"x":172218.84000000078,"y":2548755.7400000039}},{"attributes":{"ID":460905,"DIS_CODE":0,"TOWNNAME":"永康區","LI":"龍潭里","LIN":"39鄰","STREET":"國民路","SECT":" ","MAREA":" ","LANE":" ","ALLEY":" ","HOUSE_NO":"１０９號","E_COORD97":174392.72,"N_COORD97":2547254.8100000001,"ADDRESS":"國民路１０９號","OBJECTID":460880},"geometry":{"x":174392.72000000067,"y":2547254.8100000024}},{"attributes":{"ID":460906,"DIS_CODE":0,"TOWNNAME":"永康區","LI":"蔦松里","LIN":"4鄰","STREET":"蔦松二街","SECT":" ","MAREA":" ","LANE":" ","ALLEY":" ","HOUSE_NO":"１５０號","E_COORD97":173844.98999999999,"N_COORD97":2549411.75,"ADDRESS":"蔦松二街１５０號","OBJECTID":460881},"geometry":{"x":173844.99000000209,"y":2549411.75}},{"attributes":{"ID":460907,"DIS_CODE":0,"TOWNNAME":"永康區","LI":"龍潭里","LIN":"5鄰","STREET":"龍埔街","SECT":" ","MAREA":" ","LANE":" ","ALLEY":" ","HOUSE_NO":"６５號","E_COORD97":174700.17999999999,"N_COORD97":2548215.8199999998,"ADDRESS":"龍埔街６５號","OBJECTID":460882},"geometry":{"x":174700.1799999997,"y":2548215.8200000003}},{"attributes":{"ID":460908,"DIS_CODE":0,"TOWNNAME":"永康區","LI":"龍潭里","LIN":"5鄰","STREET":"龍埔街","SECT":" ","MAREA":" ","LANE":" ","ALLEY":" ","HOUSE_NO":"２９號","E_COORD97":174798.95000000001,"N_COORD97":2548192.1899999999,"ADDRESS":"龍埔街２９號","OBJECTID":460883},"geometry":{"x":174798.95000000019,"y":2548192.1899999995}},{"attributes":{"ID":460909,"DIS_CODE":0,"TOWNNAME":"永康區","LI":"龍潭里","LIN":"5鄰","STREET":"龍埔街","SECT":" ","MAREA":" ","LANE":" ","ALLEY":" ","HOUSE_NO":"６７號","E_COORD97":174695.13,"N_COORD97":2548216.0699999998,"ADDRESS":"龍埔街６７號","OBJECTID":460884},"geometry":{"x":174695.13000000082,"y":2548216.0700000022}},{"attributes":{"ID":460910,"DIS_CODE":0,"TOWNNAME":"永康區","LI":"龍潭里","LIN":"5鄰","STREET":"龍埔街","SECT":" ","MAREA":" ","LANE":" ","ALLEY":" ","HOUSE_NO":"３１號","E_COORD97":174793,"N_COORD97":2548193.1899999999,"ADDRESS":"龍埔街３１號","OBJECTID":460885},"geometry":{"x":174793.00000000093,"y":2548193.1900000013}},{"attributes":{"ID":460911,"DIS_CODE":0,"TOWNNAME":"永康區","LI":"龍潭里","LIN":"39鄰","STREET":"永明街","SECT":" ","MAREA":" ","LANE":" ","ALLEY":" ","HOUSE_NO":"２６５之７號","E_COORD97":174628.12,"N_COORD97":2547263.5499999998,"ADDRESS":"永明街２６５之７號","OBJECTID":460886},"geometry":{"x":174628.12000000011,"y":2547263.5500000026}},{"attributes":{"ID":460912,"DIS_CODE":0,"TOWNNAME":"永康區","LI":"\u25A0行里","LIN":"43鄰","STREET":"正南三路","SECT":" ","MAREA":" ","LANE":" ","ALLEY":" ","HOUSE_NO":"１７９號","E_COORD97":171575.12,"N_COORD97":2547915.4900000002,"ADDRESS":"正南三路１７９號","OBJECTID":460887},"geometry":{"x":171575.12000000011,"y":2547915.4900000002}},{"attributes":{"ID":460913,"DIS_CODE":0,"TOWNNAME":"永康區","LI":"\u25A0行里","LIN":"4鄰","STREET":"新行街","SECT":" ","MAREA":" ","LANE":" ","ALLEY":" ","HOUSE_NO":"１４號","E_COORD97":172229.07999999999,"N_COORD97":2548765.7400000002,"ADDRESS":"新行街１４號","OBJECTID":460888},"geometry":{"x":172229.08000000101,"y":2548765.7399999984}},{"attributes":{"ID":460914,"DIS_CODE":0,"TOWNNAME":"永康區","LI":"龍潭里","LIN":"4鄰","STREET":"龍潭街","SECT":" ","MAREA":" ","LANE":" ","ALLEY":" ","HOUSE_NO":"１１３號","E_COORD97":174859.17000000001,"N_COORD97":2548137.3199999998,"ADDRESS":"龍潭街１１３號","OBJECTID":460889},"geometry":{"x":174859.17000000086,"y":2548137.3200000003}},{"attributes":{"ID":460915,"DIS_CODE":0,"TOWNNAME":"永康區","LI":"龍潭里","LIN":"4鄰","STREET":"龍潭街","SECT":" ","MAREA":" ","LANE":" ","ALLEY":" ","HOUSE_NO":"１０１號","E_COORD97":174847.07999999999,"N_COORD97":2548114.1499999999,"ADDRESS":"龍潭街１０１號","OBJECTID":460890},"geometry":{"x":174847.08000000007,"y":2548114.1500000004}},{"attributes":{"ID":460916,"DIS_CODE":0,"TOWNNAME":"永康區","LI":"\u25A0行里","LIN":"20鄰","STREET":"中正六街","SECT":" ","MAREA":" ","LANE":" ","ALLEY":" ","HOUSE_NO":"１２１號","E_COORD97":171835.29000000001,"N_COORD97":2548714.3100000001,"ADDRESS":"中正六街１２１號","OBJECTID":460891},"geometry":{"x":171835.29000000004,"y":2548714.3100000005}},{"attributes":{"ID":460917,"DIS_CODE":0,"TOWNNAME":"永康區","LI":"龍潭里","LIN":"39鄰","STREET":"永明街","SECT":" ","MAREA":" ","LANE":" ","ALLEY":" ","HOUSE_NO":"２６３之１５號","E_COORD97":174633.53,"N_COORD97":2547243.6200000001,"ADDRESS":"永明街２６３之１５號","OBJECTID":460892},"geometry":{"x":174633.53000000119,"y":2547243.6200000029}},{"attributes":{"ID":460918,"DIS_CODE":0,"TOWNNAME":"永康區","LI":"龍潭里","LIN":"39鄰","STREET":"永明街","SECT":" ","MAREA":" ","LANE":" ","ALLEY":" ","HOUSE_NO":"２６５之１７號","E_COORD97":174629.37,"N_COORD97":2547263.5499999998,"ADDRESS":"永明街２６５之１７號","OBJECTID":460893},"geometry":{"x":174629.37000000104,"y":2547263.5500000026}},{"attributes":{"ID":460919,"DIS_CODE":0,"TOWNNAME":"永康區","LI":"蔦松里","LIN":"4鄰","STREET":"蔦松二街","SECT":" ","MAREA":" ","LANE":" ","ALLEY":" ","HOUSE_NO":"１５６號","E_COORD97":173859.22,"N_COORD97":2549419.25,"ADDRESS":"蔦松二街１５６號","OBJECTID":460894},"geometry":{"x":173859.21999999974,"y":2549419.25}},{"attributes":{"ID":460920,"DIS_CODE":0,"TOWNNAME":"永康區","LI":"蔦松里","LIN":"4鄰","STREET":"蔦松二街","SECT":" ","MAREA":" ","LANE":" ","ALLEY":" ","HOUSE_NO":"１６８號","E_COORD97":173888.81,"N_COORD97":2549433.6200000001,"ADDRESS":"蔦松二街１６８號","OBJECTID":460895},"geometry":{"x":173888.80999999959,"y":2549433.6200000029}},{"attributes":{"ID":460921,"DIS_CODE":0,"TOWNNAME":"永康區","LI":"龍潭里","LIN":"38鄰","STREET":"國民路","SECT":" ","MAREA":" ","LANE":" ","ALLEY":" ","HOUSE_NO":"６１號","E_COORD97":174322.32000000001,"N_COORD97":2547370,"ADDRESS":"國民路６１號","OBJECTID":460896},"geometry":{"x":174322.3200000003,"y":2547370}},{"attributes":{"ID":460922,"DIS_CODE":0,"TOWNNAME":"永康區","LI":"\u25A0行里","LIN":"20鄰","STREET":"中正六街","SECT":" ","MAREA":" ","LANE":" ","ALLEY":" ","HOUSE_NO":"７３號","E_COORD97":171849.42000000001,"N_COORD97":2548584.5,"ADDRESS":"中正六街７３號","OBJECTID":460897},"geometry":{"x":171849.41999999993,"y":2548584.5000000037}},{"attributes":{"ID":460923,"DIS_CODE":0,"TOWNNAME":"永康區","LI":"龍潭里","LIN":"39鄰","STREET":"國民路","SECT":" ","MAREA":" ","LANE":" ","ALLEY":" ","HOUSE_NO":"１１１號","E_COORD97":174393.20000000001,"N_COORD97":2547250.8100000001,"ADDRESS":"國民路１１１號","OBJECTID":460898},"geometry":{"x":174393.20000000112,"y":2547250.8100000024}},{"attributes":{"ID":460924,"DIS_CODE":0,"TOWNNAME":"永康區","LI":"\u25A0行里","LIN":"4鄰","STREET":"新行街","SECT":" ","MAREA":" ","LANE":" ","ALLEY":" ","HOUSE_NO":"３２號","E_COORD97":172255.63,"N_COORD97":2548792.7799999998,"ADDRESS":"新行街３２號","OBJECTID":460899},"geometry":{"x":172255.63000000082,"y":2548792.7800000012}},{"attributes":{"ID":460925,"DIS_CODE":0,"TOWNNAME":"永康區","LI":"\u25A0行里","LIN":"5鄰","STREET":"新行街","SECT":" ","MAREA":" ","LANE":" ","ALLEY":" ","HOUSE_NO":"１５號","E_COORD97":172207.31,"N_COORD97":2548772.8799999999,"ADDRESS":"新行街１５號","OBJECTID":460900},"geometry":{"x":172207.30999999959,"y":2548772.879999999}},{"attributes":{"ID":460926,"DIS_CODE":0,"TOWNNAME":"永康區","LI":"龍潭里","LIN":"39鄰","STREET":"永明街","SECT":" ","MAREA":" ","LANE":" ","ALLEY":" ","HOUSE_NO":"２６３之５號","E_COORD97":174632.28,"N_COORD97":2547243.6200000001,"ADDRESS":"永明街２６３之５號","OBJECTID":460901},"geometry":{"x":174632.28000000026,"y":2547243.6200000029}},{"attributes":{"ID":460927,"DIS_CODE":0,"TOWNNAME":"永康區","LI":"蔦松里","LIN":"4鄰","STREET":"蔦松二街","SECT":" ","MAREA":" ","LANE":" ","ALLEY":" ","HOUSE_NO":"１４８號","E_COORD97":173841.73000000001,"N_COORD97":2549409.25,"ADDRESS":"蔦松二街１４８號","OBJECTID":460902},"geometry":{"x":173841.73000000045,"y":2549409.25}},{"attributes":{"ID":460928,"DIS_CODE":0,"TOWNNAME":"永康區","LI":"網寮里","LIN":"18鄰","STREET":"永勝街","SECT":" ","MAREA":" ","LANE":" ","ALLEY":" ","HOUSE_NO":"６５號","E_COORD97":173526.44,"N_COORD97":2546323.3300000001,"ADDRESS":"永勝街６５號","OBJECTID":460903},"geometry":{"x":173526.44000000041,"y":2546323.3300000001}},{"attributes":{"ID":460929,"DIS_CODE":0,"TOWNNAME":"永康區","LI":"網寮里","LIN":"18鄰","STREET":"永勝街","SECT":" ","MAREA":" ","LANE":" ","ALLEY":" ","HOUSE_NO":"８５號","E_COORD97":173505.07000000001,"N_COORD97":2546351.21,"ADDRESS":"永勝街８５號","OBJECTID":460904},"geometry":{"x":173505.0700000003,"y":2546351.2100000028}},{"attributes":{"ID":460930,"DIS_CODE":0,"TOWNNAME":"永康區","LI":"龍潭里","LIN":"39鄰","STREET":"永明街","SECT":" ","MAREA":" ","LANE":" ","ALLEY":" ","HOUSE_NO":"２６７之７號","E_COORD97":174628.13,"N_COORD97":2547287.79,"ADDRESS":"永明街２６７之７號","OBJECTID":460905},"geometry":{"x":174628.12999999989,"y":2547287.790000001}},{"attributes":{"ID":460931,"DIS_CODE":0,"TOWNNAME":"永康區","LI":"\u25A0行里","LIN":"20鄰","STREET":"中正六街","SECT":" ","MAREA":" ","LANE":" ","ALLEY":" ","HOUSE_NO":"１２５號","E_COORD97":171834.79000000001,"N_COORD97":2548723.0600000001,"ADDRESS":"中正六街１２５號","OBJECTID":460906},"geometry":{"x":171834.79000000097,"y":2548723.0600000005}},{"attributes":{"ID":460932,"DIS_CODE":0,"TOWNNAME":"永康區","LI":"\u25A0行里","LIN":"20鄰","STREET":"中正六街","SECT":" ","MAREA":" ","LANE":" ","ALLEY":" ","HOUSE_NO":"６５號","E_COORD97":171859.07000000001,"N_COORD97":2548569.4900000002,"ADDRESS":"中正六街６５號","OBJECTID":460907},"geometry":{"x":171859.0700000003,"y":2548569.4900000002}},{"attributes":{"ID":460933,"DIS_CODE":0,"TOWNNAME":"永康區","LI":"\u25A0行里","LIN":"43鄰","STREET":"中正二街","SECT":" ","MAREA":" ","LANE":" ","ALLEY":" ","HOUSE_NO":"３０１號","E_COORD97":171743.98999999999,"N_COORD97":2547960.5,"ADDRESS":"中正二街３０１號","OBJECTID":460908},"geometry":{"x":171743.99000000022,"y":2547960.5000000037}},{"attributes":{"ID":460934,"DIS_CODE":0,"TOWNNAME":"永康區","LI":"\u25A0行里","LIN":"5鄰","STREET":"新行街","SECT":" ","MAREA":" ","LANE":" ","ALLEY":" ","HOUSE_NO":"５號","E_COORD97":172192.54999999999,"N_COORD97":2548758.1299999999,"ADDRESS":"新行街５號","OBJECTID":460909},"geometry":{"x":172192.54999999981,"y":2548758.129999999}},{"attributes":{"ID":460935,"DIS_CODE":0,"TOWNNAME":"東區","LI":"崇成里","LIN":"20鄰","STREET":"崇明十九街","SECT":" ","MAREA":" ","LANE":" ","ALLEY":" ","HOUSE_NO":"５１號","E_COORD97":170747.51999999999,"N_COORD97":2541148.21,"ADDRESS":"崇明十九街５１號","OBJECTID":460910},"geometry":{"x":170747.52000000048,"y":2541148.2100000009}},{"attributes":{"ID":460936,"DIS_CODE":0,"TOWNNAME":"永康區","LI":"龍潭里","LIN":"43鄰","STREET":"永平街","SECT":" ","MAREA":" ","LANE":" ","ALLEY":" ","HOUSE_NO":"７５７之９號","E_COORD97":174631.72,"N_COORD97":2547023.8300000001,"ADDRESS":"永平街７５７之９號","OBJECTID":460911},"geometry":{"x":174631.72000000067,"y":2547023.8300000019}},{"attributes":{"ID":460937,"DIS_CODE":0,"TOWNNAME":"永康區","LI":"龍潭里","LIN":"39鄰","STREET":"永明街","SECT":" ","MAREA":" ","LANE":" ","ALLEY":" ","HOUSE_NO":"２６３之１０號","E_COORD97":174633.53,"N_COORD97":2547243.6200000001,"ADDRESS":"永明街２６３之１０號","OBJECTID":460912},"geometry":{"x":174633.53000000119,"y":2547243.6200000029}},{"attributes":{"ID":460938,"DIS_CODE":0,"TOWNNAME":"永康區","LI":"龍潭里","LIN":"39鄰","STREET":"永明街","SECT":" ","MAREA":" ","LANE":" ","ALLEY":" ","HOUSE_NO":"２６７之１７號","E_COORD97":174629.38,"N_COORD97":2547287.79,"ADDRESS":"永明街２６７之１７號","OBJECTID":460913},"geometry":{"x":174629.38000000082,"y":2547287.790000001}},{"attributes":{"ID":460939,"DIS_CODE":0,"TOWNNAME":"永康區","LI":"龍潭里","LIN":"5鄰","STREET":"龍埔街","SECT":" ","MAREA":" ","LANE":" ","ALLEY":" ","HOUSE_NO":"２３號","E_COORD97":174815.45000000001,"N_COORD97":2548188.1800000002,"ADDRESS":"龍埔街２３號","OBJECTID":460914},"geometry":{"x":174815.45000000112,"y":2548188.1799999997}},{"attributes":{"ID":460940,"DIS_CODE":0,"TOWNNAME":"永康區","LI":"蔦松里","LIN":"5鄰","STREET":"蔦松二街","SECT":" ","MAREA":" ","LANE":" ","ALLEY":" ","HOUSE_NO":"１４９號","E_COORD97":173848.79999999999,"N_COORD97":2549448.75,"ADDRESS":"蔦松二街１４９號","OBJECTID":460915},"geometry":{"x":173848.79999999981,"y":2549448.7500000019}},{"attributes":{"ID":460941,"DIS_CODE":0,"TOWNNAME":"永康區","LI":"龍潭里","LIN":"25鄰","STREET":"龍昌街","SECT":" ","MAREA":" ","LANE":" ","ALLEY":" ","HOUSE_NO":"６０號","E_COORD97":175014.14000000001,"N_COORD97":2547892.8199999998,"ADDRESS":"龍昌街６０號","OBJECTID":460916},"geometry":{"x":175014.13999999966,"y":2547892.8200000003}},{"attributes":{"ID":460942,"DIS_CODE":0,"TOWNNAME":"永康區","LI":"龍潭里","LIN":"39鄰","STREET":"永明街","SECT":" ","MAREA":" ","LANE":" ","ALLEY":" ","HOUSE_NO":"２６５之１號","E_COORD97":174628.12,"N_COORD97":2547263.5499999998,"ADDRESS":"永明街２６５之１號","OBJECTID":460917},"geometry":{"x":174628.12000000011,"y":2547263.5500000026}},{"attributes":{"ID":460943,"DIS_CODE":0,"TOWNNAME":"永康區","LI":"蔦松里","LIN":"4鄰","STREET":"蔦松二街","SECT":" ","MAREA":" ","LANE":" ","ALLEY":" ","HOUSE_NO":"１４０號","E_COORD97":173828,"N_COORD97":2549397.7400000002,"ADDRESS":"蔦松二街１４０號","OBJECTID":460918},"geometry":{"x":173828.00000000093,"y":2549397.7400000021}},{"attributes":{"ID":460944,"DIS_CODE":0,"TOWNNAME":"永康區","LI":"龍潭里","LIN":"39鄰","STREET":"永明街","SECT":" ","MAREA":" ","LANE":" ","ALLEY":" ","HOUSE_NO":"２６７之８號","E_COORD97":174628.13,"N_COORD97":2547287.79,"ADDRESS":"永明街２６７之８號","OBJECTID":460919},"geometry":{"x":174628.12999999989,"y":2547287.790000001}},{"attributes":{"ID":460945,"DIS_CODE":0,"TOWNNAME":"永康區","LI":"\u25A0行里","LIN":"43鄰","STREET":"中正二街","SECT":" ","MAREA":" ","LANE":" ","ALLEY":" ","HOUSE_NO":"２１７號","E_COORD97":171527.23999999999,"N_COORD97":2547823.9900000002,"ADDRESS":"中正二街２１７號","OBJECTID":460920},"geometry":{"x":171527.24000000022,"y":2547823.9900000002}},{"attributes":{"ID":460946,"DIS_CODE":0,"TOWNNAME":"永康區","LI":"\u25A0行里","LIN":"41鄰","STREET":"永安一街","SECT":" ","MAREA":" ","LANE":" ","ALLEY":" ","HOUSE_NO":"９２號","E_COORD97":172442.29999999999,"N_COORD97":2549396.8100000001,"ADDRESS":"永安一街９２號","OBJECTID":460921},"geometry":{"x":172442.30000000168,"y":2549396.8100000024}},{"attributes":{"ID":460947,"DIS_CODE":0,"TOWNNAME":"永康區","LI":"\u25A0行里","LIN":"34鄰","STREET":"中正北路","SECT":" ","MAREA":" ","LANE":" ","ALLEY":" ","HOUSE_NO":"３１１號","E_COORD97":172865.41,"N_COORD97":2549138.75,"ADDRESS":"中正北路３１１號","OBJECTID":460922},"geometry":{"x":172865.41000000015,"y":2549138.7500000037}},{"attributes":{"ID":460948,"DIS_CODE":0,"TOWNNAME":"永康區","LI":"\u25A0行里","LIN":"4鄰","STREET":"新行街","SECT":" ","MAREA":" ","LANE":" ","ALLEY":" ","HOUSE_NO":"１０號","E_COORD97":172222.48000000001,"N_COORD97":2548758.7400000002,"ADDRESS":"新行街１０號","OBJECTID":460923},"geometry":{"x":172222.48000000045,"y":2548758.7400000002}},{"attributes":{"ID":460949,"DIS_CODE":0,"TOWNNAME":"永康區","LI":"網寮里","LIN":"18鄰","STREET":"永二街","SECT":" ","MAREA":" ","LANE":" ","ALLEY":" ","HOUSE_NO":"２０１號","E_COORD97":173415.81,"N_COORD97":2546313.2000000002,"ADDRESS":"永二街２０１號","OBJECTID":460924},"geometry":{"x":173415.81000000052,"y":2546313.1999999993}},{"attributes":{"ID":460950,"DIS_CODE":0,"TOWNNAME":"永康區","LI":"龍潭里","LIN":"39鄰","STREET":"永明街","SECT":" ","MAREA":" ","LANE":" ","ALLEY":" ","HOUSE_NO":"２６３之２號","E_COORD97":174632.28,"N_COORD97":2547243.6200000001,"ADDRESS":"永明街２６３之２號","OBJECTID":460925},"geometry":{"x":174632.28000000026,"y":2547243.6200000029}},{"attributes":{"ID":460951,"DIS_CODE":0,"TOWNNAME":"永康區","LI":"龍潭里","LIN":"39鄰","STREET":"永明街","SECT":" ","MAREA":" ","LANE":" ","ALLEY":" ","HOUSE_NO":"２６５之５號","E_COORD97":174628.12,"N_COORD97":2547263.5499999998,"ADDRESS":"永明街２６５之５號","OBJECTID":460926},"geometry":{"x":174628.12000000011,"y":2547263.5500000026}},{"attributes":{"ID":460952,"DIS_CODE":0,"TOWNNAME":"永康區","LI":"\u25A0行里","LIN":"5鄰","STREET":"新行街","SECT":" ","MAREA":" ","LANE":" ","ALLEY":" ","HOUSE_NO":"３號","E_COORD97":172189.76000000001,"N_COORD97":2548755.3799999999,"ADDRESS":"新行街３號","OBJECTID":460927},"geometry":{"x":172189.75999999978,"y":2548755.379999999}},{"attributes":{"ID":460953,"DIS_CODE":0,"TOWNNAME":"東區","LI":"自強里","LIN":"1鄰","STREET":"東成街","SECT":" ","MAREA":" ","LANE":" ","ALLEY":" ","HOUSE_NO":"５１號","E_COORD97":171367.04999999999,"N_COORD97":2542269.5699999998,"ADDRESS":"東成街５１號","OBJECTID":460928},"geometry":{"x":171367.04999999981,"y":2542269.5700000003}},{"attributes":{"ID":460954,"DIS_CODE":0,"TOWNNAME":"東區","LI":"東安里","LIN":"4鄰","STREET":"東門路","SECT":"二段","MAREA":" ","LANE":" ","ALLEY":" ","HOUSE_NO":"１５號","E_COORD97":169959.82000000001,"N_COORD97":2543010.8100000001,"ADDRESS":"東門路二段１５號","OBJECTID":460929},"geometry":{"x":169959.82000000123,"y":2543010.8100000005}},{"attributes":{"ID":460955,"DIS_CODE":0,"TOWNNAME":"東區","LI":"後甲里","LIN":"26鄰","STREET":"中華東路","SECT":"一段","MAREA":" ","LANE":" ","ALLEY":" ","HOUSE_NO":"２４３號","E_COORD97":171451.26000000001,"N_COORD97":2543306.5499999998,"ADDRESS":"中華東路一段２４３號","OBJECTID":460930},"geometry":{"x":171451.26000000071,"y":2543306.5500000026}},{"attributes":{"ID":460956,"DIS_CODE":0,"TOWNNAME":"東區","LI":"後甲里","LIN":"25鄰","STREET":"中華東路","SECT":"一段","MAREA":" ","LANE":" ","ALLEY":" ","HOUSE_NO":"１５３號","E_COORD97":171474.98999999999,"N_COORD97":2543522.6200000001,"ADDRESS":"中華東路一段１５３號","OBJECTID":460931},"geometry":{"x":171474.99000000022,"y":2543522.6199999992}},{"attributes":{"ID":460957,"DIS_CODE":0,"TOWNNAME":"東區","LI":"後甲里","LIN":"25鄰","STREET":"中華東路","SECT":"一段","MAREA":" ","LANE":" ","ALLEY":" ","HOUSE_NO":"１８７號","E_COORD97":171465.82000000001,"N_COORD97":2543437.3399999999,"ADDRESS":"中華東路一段１８７號","OBJECTID":460932},"geometry":{"x":171465.8200000003,"y":2543437.3399999999}},{"attributes":{"ID":460958,"DIS_CODE":0,"TOWNNAME":"東區","LI":"後甲里","LIN":"25鄰","STREET":"中華東路","SECT":"一段","MAREA":" ","LANE":" ","ALLEY":" ","HOUSE_NO":"１８９號","E_COORD97":171465.09,"N_COORD97":2543432.7599999998,"ADDRESS":"中華東路一段１８９號","OBJECTID":460933},"geometry":{"x":171465.08999999985,"y":2543432.7600000016}},{"attributes":{"ID":460959,"DIS_CODE":0,"TOWNNAME":"東區","LI":"後甲里","LIN":"25鄰","STREET":"中華東路","SECT":"一段","MAREA":" ","LANE":" ","ALLEY":" ","HOUSE_NO":"１９５號","E_COORD97":171465.57999999999,"N_COORD97":2543418.5,"ADDRESS":"中華東路一段１９５號","OBJECTID":460934},"geometry":{"x":171465.58000000007,"y":2543418.5000000019}},{"attributes":{"ID":460960,"DIS_CODE":0,"TOWNNAME":"東區","LI":"泉南里","LIN":"4鄰","STREET":"東門路","SECT":"一段","MAREA":" ","LANE":" ","ALLEY":" ","HOUSE_NO":"１６０號","E_COORD97":169531,"N_COORD97":2543133.0600000001,"ADDRESS":"東門路一段１６０號","OBJECTID":460935},"geometry":{"x":169531.00000000093,"y":2543133.0600000024}},{"attributes":{"ID":460961,"DIS_CODE":0,"TOWNNAME":"東區","LI":"泉南里","LIN":"4鄰","STREET":"東門路","SECT":"一段","MAREA":" ","LANE":" ","ALLEY":" ","HOUSE_NO":"１６２號","E_COORD97":169536.01999999999,"N_COORD97":2543133.4399999999,"ADDRESS":"東門路一段１６２號","OBJECTID":460936},"geometry":{"x":169536.01999999955,"y":2543133.4400000013}},{"attributes":{"ID":460962,"DIS_CODE":0,"TOWNNAME":"東區","LI":"泉南里","LIN":"1鄰","STREET":"東門路","SECT":"一段","MAREA":" ","LANE":" ","ALLEY":" ","HOUSE_NO":"１８０號","E_COORD97":169579.85999999999,"N_COORD97":2543110.3199999998,"ADDRESS":"東門路一段１８０號","OBJECTID":460937},"geometry":{"x":169579.86000000127,"y":2543110.320000004}},{"attributes":{"ID":460963,"DIS_CODE":0,"TOWNNAME":"東區","LI":"泉南里","LIN":"1鄰","STREET":"東門路","SECT":"一段","MAREA":" ","LANE":" ","ALLEY":" ","HOUSE_NO":"１８２號","E_COORD97":169603.73000000001,"N_COORD97":2543109.5699999998,"ADDRESS":"東門路一段１８２號","OBJECTID":460938},"geometry":{"x":169603.73000000045,"y":2543109.5700000022}},{"attributes":{"ID":460964,"DIS_CODE":0,"TOWNNAME":"東區","LI":"泉南里","LIN":"1鄰","STREET":"東門路","SECT":"一段","MAREA":" ","LANE":" ","ALLEY":" ","HOUSE_NO":"１８４號","E_COORD97":169607.69,"N_COORD97":2543108.25,"ADDRESS":"東門路一段１８４號","OBJECTID":460939},"geometry":{"x":169607.69000000227,"y":2543108.2500000019}},{"attributes":{"ID":460965,"DIS_CODE":0,"TOWNNAME":"東區","LI":"泉南里","LIN":"6鄰","STREET":"東門路","SECT":"一段","MAREA":" ","LANE":" ","ALLEY":" ","HOUSE_NO":"１１６號","E_COORD97":169436.07999999999,"N_COORD97":2543167.8399999999,"ADDRESS":"東門路一段１１６號","OBJECTID":460940},"geometry":{"x":169436.08000000007,"y":2543167.8400000017}},{"attributes":{"ID":460966,"DIS_CODE":0,"TOWNNAME":"東區","LI":"泉南里","LIN":"6鄰","STREET":"東門路","SECT":"一段","MAREA":" ","LANE":" ","ALLEY":" ","HOUSE_NO":"１１８號","E_COORD97":169439.32000000001,"N_COORD97":2543166.1600000001,"ADDRESS":"東門路一段１１８號","OBJECTID":460941},"geometry":{"x":169439.32000000123,"y":2543166.160000002}},{"attributes":{"ID":460967,"DIS_CODE":0,"TOWNNAME":"東區","LI":"泉南里","LIN":"6鄰","STREET":"東門路","SECT":"一段","MAREA":" ","LANE":" ","ALLEY":" ","HOUSE_NO":"１２６號","E_COORD97":169453.57999999999,"N_COORD97":2543161.6099999999,"ADDRESS":"東門路一段１２６號","OBJECTID":460942},"geometry":{"x":169453.58000000007,"y":2543161.6100000031}},{"attributes":{"ID":460968,"DIS_CODE":0,"TOWNNAME":"東區","LI":"泉南里","LIN":"6鄰","STREET":"東門路","SECT":"一段","MAREA":" ","LANE":" ","ALLEY":" ","HOUSE_NO":"１３２號之１","E_COORD97":169457.63,"N_COORD97":2543146.6000000001,"ADDRESS":"東門路一段１３２號之１","OBJECTID":460943},"geometry":{"x":169457.62999999989,"y":2543146.6000000015}},{"attributes":{"ID":460969,"DIS_CODE":0,"TOWNNAME":"東區","LI":"後甲里","LIN":"25鄰","STREET":"中華東路","SECT":"一段","MAREA":" ","LANE":" ","ALLEY":" ","HOUSE_NO":"２０１號","E_COORD97":171463.41,"N_COORD97":2543405.4900000002,"ADDRESS":"中華東路一段２０１號","OBJECTID":460944},"geometry":{"x":171463.41000000015,"y":2543405.4900000021}},{"attributes":{"ID":460970,"DIS_CODE":0,"TOWNNAME":"東區","LI":"後甲里","LIN":"25鄰","STREET":"中華東路","SECT":"一段","MAREA":" ","LANE":" ","ALLEY":" ","HOUSE_NO":"２０３號","E_COORD97":171463.41,"N_COORD97":2543401.6400000001,"ADDRESS":"中華東路一段２０３號","OBJECTID":460945},"geometry":{"x":171463.41000000015,"y":2543401.6400000025}},{"attributes":{"ID":460971,"DIS_CODE":0,"TOWNNAME":"東區","LI":"後甲里","LIN":"25鄰","STREET":"中華東路","SECT":"一段","MAREA":" ","LANE":" ","ALLEY":" ","HOUSE_NO":"２０５號","E_COORD97":171463.41,"N_COORD97":2543397.54,"ADDRESS":"中華東路一段２０５號","OBJECTID":460946},"geometry":{"x":171463.41000000015,"y":2543397.5399999991}},{"attributes":{"ID":460972,"DIS_CODE":0,"TOWNNAME":"東區","LI":"東安里","LIN":"4鄰","STREET":"東門路","SECT":"二段","MAREA":" ","LANE":" ","ALLEY":" ","HOUSE_NO":"１３號","E_COORD97":169955.85999999999,"N_COORD97":2543012.6000000001,"ADDRESS":"東門路二段１３號","OBJECTID":460947},"geometry":{"x":169955.86000000127,"y":2543012.5999999978}},{"attributes":{"ID":460973,"DIS_CODE":0,"TOWNNAME":"東區","LI":"東安里","LIN":"4鄰","STREET":"東門路","SECT":"二段","MAREA":" ","LANE":" ","ALLEY":" ","HOUSE_NO":"１９號","E_COORD97":169968.01999999999,"N_COORD97":2543007.8900000001,"ADDRESS":"東門路二段１９號","OBJECTID":460948},"geometry":{"x":169968.02000000048,"y":2543007.8900000006}},{"attributes":{"ID":460974,"DIS_CODE":0,"TOWNNAME":"東區","LI":"東安里","LIN":"4鄰","STREET":"東門路","SECT":"二段","MAREA":" ","LANE":" ","ALLEY":" ","HOUSE_NO":"１號","E_COORD97":169932.48000000001,"N_COORD97":2543020.0699999998,"ADDRESS":"東門路二段１號","OBJECTID":460949},"geometry":{"x":169932.48000000045,"y":2543020.0700000003}},{"attributes":{"ID":460975,"DIS_CODE":0,"TOWNNAME":"東區","LI":"東安里","LIN":"4鄰","STREET":"東門路","SECT":"二段","MAREA":" ","LANE":" ","ALLEY":" ","HOUSE_NO":"２１號","E_COORD97":169971.41,"N_COORD97":2543006.6699999999,"ADDRESS":"東門路二段２１號","OBJECTID":460950},"geometry":{"x":169971.41000000015,"y":2543006.6700000018}},{"attributes":{"ID":460976,"DIS_CODE":0,"TOWNNAME":"東區","LI":"東安里","LIN":"4鄰","STREET":"東門路","SECT":"二段","MAREA":" ","LANE":" ","ALLEY":" ","HOUSE_NO":"７號","E_COORD97":169942.10000000001,"N_COORD97":2543017.1200000001,"ADDRESS":"東門路二段７號","OBJECTID":460951},"geometry":{"x":169942.10000000056,"y":2543017.120000001}},{"attributes":{"ID":460977,"DIS_CODE":0,"TOWNNAME":"東區","LI":"東安里","LIN":"4鄰","STREET":"東門路","SECT":"二段","MAREA":" ","LANE":" ","ALLEY":" ","HOUSE_NO":"９號","E_COORD97":169946.89999999999,"N_COORD97":2543015.4300000002,"ADDRESS":"東門路二段９號","OBJECTID":460952},"geometry":{"x":169946.90000000224,"y":2543015.4300000016}},{"attributes":{"ID":460978,"DIS_CODE":0,"TOWNNAME":"東區","LI":"和平里","LIN":"4鄰","STREET":"東門路","SECT":"三段","MAREA":" ","LANE":" ","ALLEY":" ","HOUSE_NO":"２３２號","E_COORD97":171557.19,"N_COORD97":2541909.02,"ADDRESS":"東門路三段２３２號","OBJECTID":460953},"geometry":{"x":171557.19000000227,"y":2541909.0200000014}},{"attributes":{"ID":460979,"DIS_CODE":0,"TOWNNAME":"東區","LI":"和平里","LIN":"4鄰","STREET":"東門路","SECT":"三段","MAREA":" ","LANE":" ","ALLEY":" ","HOUSE_NO":"２９６號","E_COORD97":171773.73999999999,"N_COORD97":2541805.4700000002,"ADDRESS":"東門路三段２９６號","OBJECTID":460954},"geometry":{"x":171773.74000000115,"y":2541805.4700000025}},{"attributes":{"ID":460980,"DIS_CODE":0,"TOWNNAME":"東區","LI":"富強里","LIN":"6鄰","STREET":"中華東路","SECT":"二段","MAREA":" ","LANE":" ","ALLEY":" ","HOUSE_NO":"５８號","E_COORD97":171370.47,"N_COORD97":2542986.2999999998,"ADDRESS":"中華東路二段５８號","OBJECTID":460955},"geometry":{"x":171370.47000000067,"y":2542986.3000000026}},{"attributes":{"ID":460981,"DIS_CODE":0,"TOWNNAME":"東區","LI":"崇德里","LIN":"25鄰","STREET":"崇道路","SECT":" ","MAREA":" ","LANE":" ","ALLEY":" ","HOUSE_NO":"１５號","E_COORD97":170629.54000000001,"N_COORD97":2541421.7200000002,"ADDRESS":"崇道路１５號","OBJECTID":460956},"geometry":{"x":170629.54000000097,"y":2541421.7200000007}},{"attributes":{"ID":460982,"DIS_CODE":0,"TOWNNAME":"永康區","LI":"中華里","LIN":"12鄰","STREET":"忠勇街","SECT":" ","MAREA":" ","LANE":" ","ALLEY":" ","HOUSE_NO":"１３號","E_COORD97":171878.5,"N_COORD97":2544392.3300000001,"ADDRESS":"忠勇街１３號","OBJECTID":460957},"geometry":{"x":171878.50000000093,"y":2544392.3300000019}},{"attributes":{"ID":460983,"DIS_CODE":0,"TOWNNAME":"麻豆區","LI":"大埕里","LIN":"2鄰","STREET":"中正路","SECT":" ","MAREA":" ","LANE":" ","ALLEY":" ","HOUSE_NO":"５３號之３","E_COORD97":173092.07999999999,"N_COORD97":2564991.2999999998,"ADDRESS":"中正路５３號之３","OBJECTID":460958},"geometry":{"x":173092.08000000101,"y":2564991.3000000007}},{"attributes":{"ID":460984,"DIS_CODE":0,"TOWNNAME":"東區","LI":"龍山里","LIN":"12鄰","STREET":"東門路","SECT":"一段","MAREA":" ","LANE":" ","ALLEY":" ","HOUSE_NO":"３４０號","E_COORD97":169796.44,"N_COORD97":2543005.0699999998,"ADDRESS":"東門路一段３４０號","OBJECTID":460959},"geometry":{"x":169796.44000000134,"y":2543005.0700000022}},{"attributes":{"ID":460985,"DIS_CODE":0,"TOWNNAME":"東區","LI":"龍山里","LIN":"12鄰","STREET":"東門路","SECT":"一段","MAREA":" ","LANE":" ","ALLEY":" ","HOUSE_NO":"３４２號","E_COORD97":169801.07999999999,"N_COORD97":2543004.8900000001,"ADDRESS":"東門路一段３４２號","OBJECTID":460960},"geometry":{"x":169801.08000000007,"y":2543004.8899999987}},{"attributes":{"ID":460986,"DIS_CODE":0,"TOWNNAME":"東區","LI":"龍山里","LIN":"12鄰","STREET":"東門路","SECT":"一段","MAREA":" ","LANE":" ","ALLEY":" ","HOUSE_NO":"３４６號","E_COORD97":169810.19,"N_COORD97":2543006.96,"ADDRESS":"東門路一段３４６號","OBJECTID":460961},"geometry":{"x":169810.19000000041,"y":2543006.9600000009}},{"attributes":{"ID":460987,"DIS_CODE":0,"TOWNNAME":"東區","LI":"龍山里","LIN":"12鄰","STREET":"東門路","SECT":"一段","MAREA":" ","LANE":" ","ALLEY":" ","HOUSE_NO":"３６０號","E_COORD97":169866.48999999999,"N_COORD97":2543006.7799999998,"ADDRESS":"東門路一段３６０號","OBJECTID":460962},"geometry":{"x":169866.49000000209,"y":2543006.7799999993}},{"attributes":{"ID":460988,"DIS_CODE":0,"TOWNNAME":"東區","LI":"龍山里","LIN":"21鄰","STREET":"東門路","SECT":"二段","MAREA":" ","LANE":" ","ALLEY":" ","HOUSE_NO":"２１４號","E_COORD97":170418.41,"N_COORD97":2542821.6099999999,"ADDRESS":"東門路二段２１４號","OBJECTID":460963},"geometry":{"x":170418.41000000108,"y":2542821.6099999994}},{"attributes":{"ID":460989,"DIS_CODE":0,"TOWNNAME":"東區","LI":"龍山里","LIN":"21鄰","STREET":"東門路","SECT":"二段","MAREA":" ","LANE":" ","ALLEY":" ","HOUSE_NO":"２２０號","E_COORD97":170435.63,"N_COORD97":2542812.6200000001,"ADDRESS":"東門路二段２２０號","OBJECTID":460964},"geometry":{"x":170435.62999999989,"y":2542812.620000001}},{"attributes":{"ID":460990,"DIS_CODE":0,"TOWNNAME":"東區","LI":"龍山里","LIN":"21鄰","STREET":"東門路","SECT":"二段","MAREA":" ","LANE":" ","ALLEY":" ","HOUSE_NO":"２２２號","E_COORD97":170440.17000000001,"N_COORD97":2542810.2799999998,"ADDRESS":"東門路二段２２２號","OBJECTID":460965},"geometry":{"x":170440.17000000086,"y":2542810.2799999993}},{"attributes":{"ID":460991,"DIS_CODE":0,"TOWNNAME":"東區","LI":"龍山里","LIN":"21鄰","STREET":"東門路","SECT":"二段","MAREA":" ","LANE":" ","ALLEY":" ","HOUSE_NO":"２２４號","E_COORD97":170445.12,"N_COORD97":2542808.77,"ADDRESS":"東門路二段２２４號","OBJECTID":460966},"geometry":{"x":170445.12000000197,"y":2542808.7700000014}},{"attributes":{"ID":460992,"DIS_CODE":0,"TOWNNAME":"東區","LI":"龍山里","LIN":"21鄰","STREET":"東門路","SECT":"二段","MAREA":" ","LANE":" ","ALLEY":" ","HOUSE_NO":"２２６號","E_COORD97":170449.53,"N_COORD97":2542806.4300000002,"ADDRESS":"東門路二段２２６號","OBJECTID":460967},"geometry":{"x":170449.53000000119,"y":2542806.4299999997}},{"attributes":{"ID":460993,"DIS_CODE":0,"TOWNNAME":"東區","LI":"龍山里","LIN":"21鄰","STREET":"東門路","SECT":"二段","MAREA":" ","LANE":" ","ALLEY":" ","HOUSE_NO":"２３４號","E_COORD97":170467.82999999999,"N_COORD97":2542796.9399999999,"ADDRESS":"東門路二段２３４號","OBJECTID":460968},"geometry":{"x":170467.83000000101,"y":2542796.9400000032}},{"attributes":{"ID":460994,"DIS_CODE":0,"TOWNNAME":"東區","LI":"龍山里","LIN":"21鄰","STREET":"東門路","SECT":"二段","MAREA":" ","LANE":" ","ALLEY":" ","HOUSE_NO":"２３６號","E_COORD97":170470.72,"N_COORD97":2542793.23,"ADDRESS":"東門路二段２３６號","OBJECTID":460969},"geometry":{"x":170470.71999999974,"y":2542793.2300000023}},{"attributes":{"ID":460995,"DIS_CODE":0,"TOWNNAME":"東區","LI":"虎尾里","LIN":"1鄰","STREET":"東門路","SECT":"三段","MAREA":" ","LANE":" ","ALLEY":" ","HOUSE_NO":"１１７號","E_COORD97":171312.28,"N_COORD97":2542170.8399999999,"ADDRESS":"東門路三段１１７號","OBJECTID":460970},"geometry":{"x":171312.28000000212,"y":2542170.8400000036}},{"attributes":{"ID":460996,"DIS_CODE":0,"TOWNNAME":"佳里區","LI":"鎮山里","LIN":"20鄰","STREET":"鎮山街","SECT":" ","MAREA":" ","LANE":" ","ALLEY":" ","HOUSE_NO":"２０８號","E_COORD97":166254.22,"N_COORD97":2560893.9900000002,"ADDRESS":"鎮山街２０８號","OBJECTID":460971},"geometry":{"x":166254.22000000067,"y":2560893.9900000002}},{"attributes":{"ID":460997,"DIS_CODE":0,"TOWNNAME":"東區","LI":"德光里","LIN":"18鄰","STREET":"崇德路","SECT":" ","MAREA":" ","LANE":" ","ALLEY":" ","HOUSE_NO":"１１１號","E_COORD97":169903.73000000001,"N_COORD97":2542348.5699999998,"ADDRESS":"崇德路１１１號","OBJECTID":460972},"geometry":{"x":169903.73000000045,"y":2542348.5700000003}},{"attributes":{"ID":460998,"DIS_CODE":0,"TOWNNAME":"永康區","LI":"永康里","LIN":"36鄰","STREET":"大同街","SECT":" ","MAREA":" ","LANE":" ","ALLEY":" ","HOUSE_NO":"７７３號六樓之２","E_COORD97":174445.72,"N_COORD97":2546922.3300000001,"ADDRESS":"大同街７７３號六樓之２","OBJECTID":460973},"geometry":{"x":174445.71999999974,"y":2546922.3300000019}},{"attributes":{"ID":460999,"DIS_CODE":0,"TOWNNAME":"北區","LI":"成德里","LIN":"20鄰","STREET":"文成二路","SECT":" ","MAREA":" ","LANE":" ","ALLEY":" ","HOUSE_NO":"１５９號三樓之１","E_COORD97":168496.76000000001,"N_COORD97":2546160.23,"ADDRESS":"文成二路１５９號三樓之１","OBJECTID":460974},"geometry":{"x":168496.76000000071,"y":2546160.2300000023}},{"attributes":{"ID":461000,"DIS_CODE":0,"TOWNNAME":"北區","LI":"成德里","LIN":"20鄰","STREET":"文成二路","SECT":" ","MAREA":" ","LANE":" ","ALLEY":" ","HOUSE_NO":"１５９號三樓之２","E_COORD97":168496.76000000001,"N_COORD97":2546160.23,"ADDRESS":"文成二路１５９號三樓之２","OBJECTID":460975},"geometry":{"x":168496.76000000071,"y":2546160.2300000023}},{"attributes":{"ID":461001,"DIS_CODE":0,"TOWNNAME":"北區","LI":"成德里","LIN":"20鄰","STREET":"文成二路","SECT":" ","MAREA":" ","LANE":" ","ALLEY":" ","HOUSE_NO":"１５９號四樓之１","E_COORD97":168496.76000000001,"N_COORD97":2546160.23,"ADDRESS":"文成二路１５９號四樓之１","OBJECTID":460976},"geometry":{"x":168496.76000000071,"y":2546160.2300000023}},{"attributes":{"ID":461002,"DIS_CODE":0,"TOWNNAME":"北區","LI":"成德里","LIN":"20鄰","STREET":"文成二路","SECT":" ","MAREA":" ","LANE":" ","ALLEY":" ","HOUSE_NO":"１５９號四樓之２","E_COORD97":168496.76000000001,"N_COORD97":2546160.23,"ADDRESS":"文成二路１５９號四樓之２","OBJECTID":460977},"geometry":{"x":168496.76000000071,"y":2546160.2300000023}},{"attributes":{"ID":461003,"DIS_CODE":0,"TOWNNAME":"北區","LI":"成德里","LIN":"20鄰","STREET":"文成二路","SECT":" ","MAREA":" ","LANE":" ","ALLEY":" ","HOUSE_NO":"１５９號五樓之１","E_COORD97":168496.76000000001,"N_COORD97":2546160.23,"ADDRESS":"文成二路１５９號五樓之１","OBJECTID":460978},"geometry":{"x":168496.76000000071,"y":2546160.2300000023}},{"attributes":{"ID":461004,"DIS_CODE":0,"TOWNNAME":"北區","LI":"成德里","LIN":"20鄰","STREET":"文成二路","SECT":" ","MAREA":" ","LANE":" ","ALLEY":" ","HOUSE_NO":"１５９號五樓之２","E_COORD97":168496.76000000001,"N_COORD97":2546160.23,"ADDRESS":"文成二路１５９號五樓之２","OBJECTID":460979},"geometry":{"x":168496.76000000071,"y":2546160.2300000023}},{"attributes":{"ID":461005,"DIS_CODE":0,"TOWNNAME":"北區","LI":"成德里","LIN":"20鄰","STREET":"文成二路","SECT":" ","MAREA":" ","LANE":" ","ALLEY":" ","HOUSE_NO":"１５９號六樓之１","E_COORD97":168496.76000000001,"N_COORD97":2546160.23,"ADDRESS":"文成二路１５９號六樓之１","OBJECTID":460980},"geometry":{"x":168496.76000000071,"y":2546160.2300000023}},{"attributes":{"ID":461006,"DIS_CODE":0,"TOWNNAME":"北區","LI":"成德里","LIN":"20鄰","STREET":"文成二路","SECT":" ","MAREA":" ","LANE":" ","ALLEY":" ","HOUSE_NO":"１５９號六樓之２","E_COORD97":168496.76000000001,"N_COORD97":2546160.23,"ADDRESS":"文成二路１５９號六樓之２","OBJECTID":460981},"geometry":{"x":168496.76000000071,"y":2546160.2300000023}},{"attributes":{"ID":461007,"DIS_CODE":0,"TOWNNAME":"北區","LI":"成德里","LIN":"20鄰","STREET":"文成二路","SECT":" ","MAREA":" ","LANE":" ","ALLEY":" ","HOUSE_NO":"１５９號七樓之１","E_COORD97":168496.76000000001,"N_COORD97":2546160.23,"ADDRESS":"文成二路１５９號七樓之１","OBJECTID":460982},"geometry":{"x":168496.76000000071,"y":2546160.2300000023}},{"attributes":{"ID":461008,"DIS_CODE":0,"TOWNNAME":"北區","LI":"成德里","LIN":"20鄰","STREET":"文成二路","SECT":" ","MAREA":" ","LANE":" ","ALLEY":" ","HOUSE_NO":"１５９號七樓之２","E_COORD97":168496.76000000001,"N_COORD97":2546160.23,"ADDRESS":"文成二路１５９號七樓之２","OBJECTID":460983},"geometry":{"x":168496.76000000071,"y":2546160.2300000023}},{"attributes":{"ID":461009,"DIS_CODE":0,"TOWNNAME":"北區","LI":"成德里","LIN":"20鄰","STREET":"文成二路","SECT":" ","MAREA":" ","LANE":" ","ALLEY":" ","HOUSE_NO":"１５９號八樓之１","E_COORD97":168496.76000000001,"N_COORD97":2546160.23,"ADDRESS":"文成二路１５９號八樓之１","OBJECTID":460984},"geometry":{"x":168496.76000000071,"y":2546160.2300000023}},{"attributes":{"ID":461010,"DIS_CODE":0,"TOWNNAME":"北區","LI":"成德里","LIN":"20鄰","STREET":"文成二路","SECT":" ","MAREA":" ","LANE":" ","ALLEY":" ","HOUSE_NO":"１５９號八樓之２","E_COORD97":168496.76000000001,"N_COORD97":2546160.23,"ADDRESS":"文成二路１５９號八樓之２","OBJECTID":460985},"geometry":{"x":168496.76000000071,"y":2546160.2300000023}},{"attributes":{"ID":461011,"DIS_CODE":0,"TOWNNAME":"北區","LI":"成德里","LIN":"20鄰","STREET":"文成二路","SECT":" ","MAREA":" ","LANE":" ","ALLEY":" ","HOUSE_NO":"１５９號九樓之１","E_COORD97":168496.76000000001,"N_COORD97":2546160.23,"ADDRESS":"文成二路１５９號九樓之１","OBJECTID":460986},"geometry":{"x":168496.76000000071,"y":2546160.2300000023}},{"attributes":{"ID":461012,"DIS_CODE":0,"TOWNNAME":"北區","LI":"成德里","LIN":"20鄰","STREET":"文成二路","SECT":" ","MAREA":" ","LANE":" ","ALLEY":" ","HOUSE_NO":"１５９號九樓之２","E_COORD97":168496.76000000001,"N_COORD97":2546160.23,"ADDRESS":"文成二路１５９號九樓之２","OBJECTID":460987},"geometry":{"x":168496.76000000071,"y":2546160.2300000023}},{"attributes":{"ID":461013,"DIS_CODE":0,"TOWNNAME":"北區","LI":"成德里","LIN":"20鄰","STREET":"文成二路","SECT":" ","MAREA":" ","LANE":" ","ALLEY":" ","HOUSE_NO":"１５９號十樓之１","E_COORD97":168496.76000000001,"N_COORD97":2546160.23,"ADDRESS":"文成二路１５９號十樓之１","OBJECTID":460988},"geometry":{"x":168496.76000000071,"y":2546160.2300000023}},{"attributes":{"ID":461014,"DIS_CODE":0,"TOWNNAME":"北區","LI":"成德里","LIN":"20鄰","STREET":"文成二路","SECT":" ","MAREA":" ","LANE":" ","ALLEY":" ","HOUSE_NO":"１５９號十樓之２","E_COORD97":168496.76000000001,"N_COORD97":2546160.23,"ADDRESS":"文成二路１５９號十樓之２","OBJECTID":460989},"geometry":{"x":168496.76000000071,"y":2546160.2300000023}},{"attributes":{"ID":461015,"DIS_CODE":0,"TOWNNAME":"北區","LI":"成德里","LIN":"20鄰","STREET":"文成二路","SECT":" ","MAREA":" ","LANE":" ","ALLEY":" ","HOUSE_NO":"１５９號十一樓之１","E_COORD97":168496.76000000001,"N_COORD97":2546160.23,"ADDRESS":"文成二路１５９號十一樓之１","OBJECTID":460990},"geometry":{"x":168496.76000000071,"y":2546160.2300000023}},{"attributes":{"ID":461016,"DIS_CODE":0,"TOWNNAME":"北區","LI":"成德里","LIN":"20鄰","STREET":"文成二路","SECT":" ","MAREA":" ","LANE":" ","ALLEY":" ","HOUSE_NO":"１５９號十一樓之２","E_COORD97":168496.76000000001,"N_COORD97":2546160.23,"ADDRESS":"文成二路１５９號十一樓之２","OBJECTID":460991},"geometry":{"x":168496.76000000071,"y":2546160.2300000023}},{"attributes":{"ID":461017,"DIS_CODE":0,"TOWNNAME":"北區","LI":"成德里","LIN":"20鄰","STREET":"文成二路","SECT":" ","MAREA":" ","LANE":" ","ALLEY":" ","HOUSE_NO":"１５９號十二樓之１","E_COORD97":168496.76000000001,"N_COORD97":2546160.23,"ADDRESS":"文成二路１５９號十二樓之１","OBJECTID":460992},"geometry":{"x":168496.76000000071,"y":2546160.2300000023}},{"attributes":{"ID":461018,"DIS_CODE":0,"TOWNNAME":"北區","LI":"成德里","LIN":"20鄰","STREET":"文成二路","SECT":" ","MAREA":" ","LANE":" ","ALLEY":" ","HOUSE_NO":"１５９號十二樓之２","E_COORD97":168496.76000000001,"N_COORD97":2546160.23,"ADDRESS":"文成二路１５９號十二樓之２","OBJECTID":460993},"geometry":{"x":168496.76000000071,"y":2546160.2300000023}},{"attributes":{"ID":461019,"DIS_CODE":0,"TOWNNAME":"北區","LI":"成德里","LIN":"20鄰","STREET":"文成二路","SECT":" ","MAREA":" ","LANE":" ","ALLEY":" ","HOUSE_NO":"１５９號十三樓之１","E_COORD97":168496.76000000001,"N_COORD97":2546160.23,"ADDRESS":"文成二路１５９號十三樓之１","OBJECTID":460994},"geometry":{"x":168496.76000000071,"y":2546160.2300000023}},{"attributes":{"ID":461020,"DIS_CODE":0,"TOWNNAME":"北區","LI":"成德里","LIN":"20鄰","STREET":"文成二路","SECT":" ","MAREA":" ","LANE":" ","ALLEY":" ","HOUSE_NO":"１５９號十三樓之２","E_COORD97":168496.76000000001,"N_COORD97":2546160.23,"ADDRESS":"文成二路１５９號十三樓之２","OBJECTID":460995},"geometry":{"x":168496.76000000071,"y":2546160.2300000023}},{"attributes":{"ID":461021,"DIS_CODE":0,"TOWNNAME":"北區","LI":"成德里","LIN":"20鄰","STREET":"文成二路","SECT":" ","MAREA":" ","LANE":" ","ALLEY":" ","HOUSE_NO":"１５９號十四樓之１","E_COORD97":168496.76000000001,"N_COORD97":2546160.23,"ADDRESS":"文成二路１５９號十四樓之１","OBJECTID":460996},"geometry":{"x":168496.76000000071,"y":2546160.2300000023}},{"attributes":{"ID":461022,"DIS_CODE":0,"TOWNNAME":"北區","LI":"成德里","LIN":"20鄰","STREET":"文成二路","SECT":" ","MAREA":" ","LANE":" ","ALLEY":" ","HOUSE_NO":"１５９號十四樓之２","E_COORD97":168496.76000000001,"N_COORD97":2546160.23,"ADDRESS":"文成二路１５９號十四樓之２","OBJECTID":460997},"geometry":{"x":168496.76000000071,"y":2546160.2300000023}},{"attributes":{"ID":461023,"DIS_CODE":0,"TOWNNAME":"北區","LI":"成德里","LIN":"20鄰","STREET":"文成二路","SECT":" ","MAREA":" ","LANE":" ","ALLEY":" ","HOUSE_NO":"１５５號二樓之２","E_COORD97":168511.37,"N_COORD97":2546160.7000000002,"ADDRESS":"文成二路１５５號二樓之２","OBJECTID":460998},"geometry":{"x":168511.37000000104,"y":2546160.6999999993}},{"attributes":{"ID":461024,"DIS_CODE":0,"TOWNNAME":"北區","LI":"成德里","LIN":"20鄰","STREET":"文成二路","SECT":" ","MAREA":" ","LANE":" ","ALLEY":" ","HOUSE_NO":"１５５號三樓之１","E_COORD97":168511.37,"N_COORD97":2546160.7000000002,"ADDRESS":"文成二路１５５號三樓之１","OBJECTID":460999},"geometry":{"x":168511.37000000104,"y":2546160.6999999993}},{"attributes":{"ID":461025,"DIS_CODE":0,"TOWNNAME":"北區","LI":"成德里","LIN":"20鄰","STREET":"文成二路","SECT":" ","MAREA":" ","LANE":" ","ALLEY":" ","HOUSE_NO":"１５５號三樓之２","E_COORD97":168511.37,"N_COORD97":2546160.7000000002,"ADDRESS":"文成二路１５５號三樓之２","OBJECTID":461000},"geometry":{"x":168511.37000000104,"y":2546160.6999999993}}]}