{"displayFieldName":"TOWNNAME","fieldAliases":{"ID":"ID","DIS_CODE":"DIS_CODE","TOWNNAME":"TOWNNAME","LI":"LI","LIN":"LIN","STREET":"STREET","SECT":"SECT","MAREA":"MAREA","LANE":"LANE","ALLEY":"ALLEY","HOUSE_NO":"HOUSE_NO","E_COORD97":"E_COORD97","N_COORD97":"N_COORD97","ADDRESS":"ADDRESS","OBJECTID":"OBJECTID"},"geometryType":"esriGeometryPoint","spatialReference":{"wkid":102443,"latestWkid":3826},"fields":[{"name":"ID","type":"esriFieldTypeDouble","alias":"ID"},{"name":"DIS_CODE","type":"esriFieldTypeInteger","alias":"DIS_CODE"},{"name":"TOWNNAME","type":"esriFieldTypeString","alias":"TOWNNAME","length":8},{"name":"LI","type":"esriFieldTypeString","alias":"LI","length":8},{"name":"LIN","type":"esriFieldTypeString","alias":"LIN","length":12},{"name":"STREET","type":"esriFieldTypeString","alias":"STREET","length":20},{"name":"SECT","type":"esriFieldTypeString","alias":"SECT","length":8},{"name":"MAREA","type":"esriFieldTypeString","alias":"MAREA","length":12},{"name":"LANE","type":"esriFieldTypeString","alias":"LANE","length":10},{"name":"ALLEY","type":"esriFieldTypeString","alias":"ALLEY","length":10},{"name":"HOUSE_NO","type":"esriFieldTypeString","alias":"HOUSE_NO","length":20},{"name":"E_COORD97","type":"esriFieldTypeDouble","alias":"E_COORD97"},{"name":"N_COORD97","type":"esriFieldTypeDouble","alias":"N_COORD97"},{"name":"ADDRESS","type":"esriFieldTypeString","alias":"ADDRESS","length":50},{"name":"OBJECTID","type":"esriFieldTypeOID","alias":"OBJECTID"}],"features":[{"attributes":{"ID":495028,"DIS_CODE":0,"TOWNNAME":"北區","LI":"長德里","LIN":"13鄰","STREET":"長北街","SECT":" ","MAREA":" ","LANE":" ","ALLEY":" ","HOUSE_NO":"２１２號之４","E_COORD97":168578.48999999999,"N_COORD97":2545045.5600000001,"ADDRESS":"長北街２１２號之４","OBJECTID":495001},"geometry":{"x":168578.49000000115,"y":2545045.5600000024}},{"attributes":{"ID":495029,"DIS_CODE":0,"TOWNNAME":"北區","LI":"長德里","LIN":"13鄰","STREET":"長北街","SECT":" ","MAREA":" ","LANE":" ","ALLEY":" ","HOUSE_NO":"２１２號之５","E_COORD97":168572.23999999999,"N_COORD97":2545034.7200000002,"ADDRESS":"長北街２１２號之５","OBJECTID":495002},"geometry":{"x":168572.24000000022,"y":2545034.7200000025}},{"attributes":{"ID":495030,"DIS_CODE":0,"TOWNNAME":"北區","LI":"長德里","LIN":"13鄰","STREET":"長北街","SECT":" ","MAREA":" ","LANE":" ","ALLEY":" ","HOUSE_NO":"２１２號之６","E_COORD97":168582.87,"N_COORD97":2545042.4300000002,"ADDRESS":"長北街２１２號之６","OBJECTID":495003},"geometry":{"x":168582.87000000104,"y":2545042.4300000016}},{"attributes":{"ID":495031,"DIS_CODE":0,"TOWNNAME":"東區","LI":"文聖里","LIN":"8鄰","STREET":"裕興街","SECT":" ","MAREA":" ","LANE":" ","ALLEY":" ","HOUSE_NO":"１５號","E_COORD97":171996.63,"N_COORD97":2542680.0699999998,"ADDRESS":"裕興街１５號","OBJECTID":495004},"geometry":{"x":171996.63000000082,"y":2542680.0700000003}},{"attributes":{"ID":495032,"DIS_CODE":0,"TOWNNAME":"東區","LI":"文聖里","LIN":"8鄰","STREET":"裕興街","SECT":" ","MAREA":" ","LANE":" ","ALLEY":" ","HOUSE_NO":"１７號","E_COORD97":172002.72,"N_COORD97":2542676.3500000001,"ADDRESS":"裕興街１７號","OBJECTID":495005},"geometry":{"x":172002.72000000067,"y":2542676.3500000015}},{"attributes":{"ID":495033,"DIS_CODE":0,"TOWNNAME":"東區","LI":"文聖里","LIN":"8鄰","STREET":"裕興街","SECT":" ","MAREA":" ","LANE":" ","ALLEY":" ","HOUSE_NO":"１９號","E_COORD97":172007.79000000001,"N_COORD97":2542679.2200000002,"ADDRESS":"裕興街１９號","OBJECTID":495006},"geometry":{"x":172007.79000000004,"y":2542679.2200000007}},{"attributes":{"ID":495034,"DIS_CODE":0,"TOWNNAME":"東區","LI":"文聖里","LIN":"8鄰","STREET":"裕興街","SECT":" ","MAREA":" ","LANE":" ","ALLEY":" ","HOUSE_NO":"３８號","E_COORD97":172006.59,"N_COORD97":2542646.3900000001,"ADDRESS":"裕興街３８號","OBJECTID":495007},"geometry":{"x":172006.59000000078,"y":2542646.3900000025}},{"attributes":{"ID":495035,"DIS_CODE":0,"TOWNNAME":"東區","LI":"文聖里","LIN":"8鄰","STREET":"裕興街","SECT":" ","MAREA":" ","LANE":" ","ALLEY":" ","HOUSE_NO":"６號","E_COORD97":171937.82999999999,"N_COORD97":2542648.0899999999,"ADDRESS":"裕興街６號","OBJECTID":495008},"geometry":{"x":171937.83000000101,"y":2542648.0900000017}},{"attributes":{"ID":495036,"DIS_CODE":0,"TOWNNAME":"東區","LI":"大智里","LIN":"8鄰","STREET":"長東街","SECT":" ","MAREA":" ","LANE":" ","ALLEY":" ","HOUSE_NO":"１１７號","E_COORD97":171027.10000000001,"N_COORD97":2540296.7799999998,"ADDRESS":"長東街１１７號","OBJECTID":495009},"geometry":{"x":171027.09999999963,"y":2540296.7800000012}},{"attributes":{"ID":495037,"DIS_CODE":0,"TOWNNAME":"東區","LI":"大福里","LIN":"8鄰","STREET":"立德二路","SECT":" ","MAREA":" ","LANE":" ","ALLEY":" ","HOUSE_NO":"１５號","E_COORD97":169517.87,"N_COORD97":2541741.8999999999,"ADDRESS":"立德二路１５號","OBJECTID":495010},"geometry":{"x":169517.87000000197,"y":2541741.9000000004}},{"attributes":{"ID":495038,"DIS_CODE":0,"TOWNNAME":"東區","LI":"大福里","LIN":"8鄰","STREET":"立德二路","SECT":" ","MAREA":" ","LANE":" ","ALLEY":" ","HOUSE_NO":"１７號","E_COORD97":169524.5,"N_COORD97":2541743.6499999999,"ADDRESS":"立德二路１７號","OBJECTID":495011},"geometry":{"x":169524.50000000093,"y":2541743.6500000004}},{"attributes":{"ID":495039,"DIS_CODE":0,"TOWNNAME":"東區","LI":"大福里","LIN":"8鄰","STREET":"立德二路","SECT":" ","MAREA":" ","LANE":" ","ALLEY":" ","HOUSE_NO":"１９號","E_COORD97":169530.78,"N_COORD97":2541743.9900000002,"ADDRESS":"立德二路１９號","OBJECTID":495012},"geometry":{"x":169530.78000000119,"y":2541743.9900000021}},{"attributes":{"ID":495040,"DIS_CODE":0,"TOWNNAME":"東區","LI":"大福里","LIN":"8鄰","STREET":"立德二路","SECT":" ","MAREA":" ","LANE":" ","ALLEY":" ","HOUSE_NO":"２３號","E_COORD97":169539.85000000001,"N_COORD97":2541746.0800000001,"ADDRESS":"立德二路２３號","OBJECTID":495013},"geometry":{"x":169539.85000000056,"y":2541746.0800000019}},{"attributes":{"ID":495041,"DIS_CODE":0,"TOWNNAME":"東區","LI":"大福里","LIN":"8鄰","STREET":"立德二路","SECT":" ","MAREA":" ","LANE":" ","ALLEY":" ","HOUSE_NO":"２５號","E_COORD97":169546.12,"N_COORD97":2541747.1299999999,"ADDRESS":"立德二路２５號","OBJECTID":495014},"geometry":{"x":169546.12000000011,"y":2541747.1299999971}},{"attributes":{"ID":495042,"DIS_CODE":0,"TOWNNAME":"東區","LI":"大福里","LIN":"8鄰","STREET":"立德二路","SECT":" ","MAREA":" ","LANE":" ","ALLEY":" ","HOUSE_NO":"２７號","E_COORD97":169550.66,"N_COORD97":2541747.48,"ADDRESS":"立德二路２７號","OBJECTID":495015},"geometry":{"x":169550.66000000108,"y":2541747.4800000023}},{"attributes":{"ID":495043,"DIS_CODE":0,"TOWNNAME":"東區","LI":"大福里","LIN":"8鄰","STREET":"立德二路","SECT":" ","MAREA":" ","LANE":" ","ALLEY":" ","HOUSE_NO":"２９號","E_COORD97":169556.23999999999,"N_COORD97":2541748.1699999999,"ADDRESS":"立德二路２９號","OBJECTID":495016},"geometry":{"x":169556.24000000209,"y":2541748.1700000037}},{"attributes":{"ID":495044,"DIS_CODE":0,"TOWNNAME":"東區","LI":"大福里","LIN":"8鄰","STREET":"立德二路","SECT":" ","MAREA":" ","LANE":" ","ALLEY":" ","HOUSE_NO":"３１號","E_COORD97":169561.47,"N_COORD97":2541749.9199999999,"ADDRESS":"立德二路３１號","OBJECTID":495017},"geometry":{"x":169561.47000000067,"y":2541749.9200000037}},{"attributes":{"ID":495045,"DIS_CODE":0,"TOWNNAME":"東區","LI":"大福里","LIN":"8鄰","STREET":"立德二路","SECT":" ","MAREA":" ","LANE":" ","ALLEY":" ","HOUSE_NO":"３３號","E_COORD97":169567.04999999999,"N_COORD97":2541750.6099999999,"ADDRESS":"立德二路３３號","OBJECTID":495018},"geometry":{"x":169567.04999999981,"y":2541750.6099999994}},{"attributes":{"ID":495046,"DIS_CODE":0,"TOWNNAME":"東區","LI":"大福里","LIN":"8鄰","STREET":"立德二路","SECT":" ","MAREA":" ","LANE":" ","ALLEY":" ","HOUSE_NO":"３５號","E_COORD97":169571.59,"N_COORD97":2541751.6600000001,"ADDRESS":"立德二路３５號","OBJECTID":495019},"geometry":{"x":169571.58999999985,"y":2541751.6600000039}},{"attributes":{"ID":495047,"DIS_CODE":0,"TOWNNAME":"東區","LI":"大福里","LIN":"8鄰","STREET":"立德二路","SECT":" ","MAREA":" ","LANE":" ","ALLEY":" ","HOUSE_NO":"３７號","E_COORD97":169576.82000000001,"N_COORD97":2541753.0499999998,"ADDRESS":"立德二路３７號","OBJECTID":495020},"geometry":{"x":169576.82000000123,"y":2541753.0500000045}},{"attributes":{"ID":495048,"DIS_CODE":0,"TOWNNAME":"東區","LI":"大福里","LIN":"8鄰","STREET":"立德三路","SECT":" ","MAREA":" ","LANE":" ","ALLEY":" ","HOUSE_NO":"２號","E_COORD97":169516.13,"N_COORD97":2541756.8799999999,"ADDRESS":"立德三路２號","OBJECTID":495021},"geometry":{"x":169516.13000000082,"y":2541756.8800000008}},{"attributes":{"ID":495049,"DIS_CODE":0,"TOWNNAME":"東區","LI":"大福里","LIN":"8鄰","STREET":"立德三路","SECT":" ","MAREA":" ","LANE":" ","ALLEY":" ","HOUSE_NO":"４號","E_COORD97":169522.06,"N_COORD97":2541756.8799999999,"ADDRESS":"立德三路４號","OBJECTID":495022},"geometry":{"x":169522.05999999959,"y":2541756.8800000008}},{"attributes":{"ID":495050,"DIS_CODE":0,"TOWNNAME":"東區","LI":"大福里","LIN":"8鄰","STREET":"立德三路","SECT":" ","MAREA":" ","LANE":" ","ALLEY":" ","HOUSE_NO":"６號","E_COORD97":169526.59,"N_COORD97":2541758.2799999998,"ADDRESS":"立德三路６號","OBJECTID":495023},"geometry":{"x":169526.59000000078,"y":2541758.2800000012}},{"attributes":{"ID":495051,"DIS_CODE":0,"TOWNNAME":"東區","LI":"大福里","LIN":"8鄰","STREET":"立德三路","SECT":" ","MAREA":" ","LANE":" ","ALLEY":" ","HOUSE_NO":"８號","E_COORD97":169532.87,"N_COORD97":2541759.6699999999,"ADDRESS":"立德三路８號","OBJECTID":495024},"geometry":{"x":169532.87000000011,"y":2541759.6700000018}},{"attributes":{"ID":495052,"DIS_CODE":0,"TOWNNAME":"東區","LI":"大福里","LIN":"8鄰","STREET":"立德三路","SECT":" ","MAREA":" ","LANE":" ","ALLEY":" ","HOUSE_NO":"１０號","E_COORD97":169537.06,"N_COORD97":2541760.02,"ADDRESS":"立德三路１０號","OBJECTID":495025},"geometry":{"x":169537.06000000052,"y":2541760.0200000014}},{"attributes":{"ID":495053,"DIS_CODE":0,"TOWNNAME":"東區","LI":"大福里","LIN":"8鄰","STREET":"立德三路","SECT":" ","MAREA":" ","LANE":" ","ALLEY":" ","HOUSE_NO":"１２號","E_COORD97":169544.03,"N_COORD97":2541760.3700000001,"ADDRESS":"立德三路１２號","OBJECTID":495026},"geometry":{"x":169544.02999999933,"y":2541760.370000001}},{"attributes":{"ID":495054,"DIS_CODE":0,"TOWNNAME":"東區","LI":"大福里","LIN":"8鄰","STREET":"立德三路","SECT":" ","MAREA":" ","LANE":" ","ALLEY":" ","HOUSE_NO":"１４號","E_COORD97":169548.22,"N_COORD97":2541761.7599999998,"ADDRESS":"立德三路１４號","OBJECTID":495027},"geometry":{"x":169548.21999999974,"y":2541761.7600000016}},{"attributes":{"ID":495055,"DIS_CODE":0,"TOWNNAME":"東區","LI":"大福里","LIN":"8鄰","STREET":"立德三路","SECT":" ","MAREA":" ","LANE":" ","ALLEY":" ","HOUSE_NO":"１６號","E_COORD97":169553.45000000001,"N_COORD97":2541763.1499999999,"ADDRESS":"立德三路１６號","OBJECTID":495028},"geometry":{"x":169553.45000000112,"y":2541763.1500000022}},{"attributes":{"ID":495056,"DIS_CODE":0,"TOWNNAME":"東區","LI":"大福里","LIN":"8鄰","STREET":"立德三路","SECT":" ","MAREA":" ","LANE":" ","ALLEY":" ","HOUSE_NO":"１８號","E_COORD97":169557.63,"N_COORD97":2541763.8500000001,"ADDRESS":"立德三路１８號","OBJECTID":495029},"geometry":{"x":169557.62999999989,"y":2541763.8500000015}},{"attributes":{"ID":495057,"DIS_CODE":0,"TOWNNAME":"東區","LI":"大福里","LIN":"8鄰","STREET":"立德三路","SECT":" ","MAREA":" ","LANE":" ","ALLEY":" ","HOUSE_NO":"２０號","E_COORD97":169563.20999999999,"N_COORD97":2541764.5499999998,"ADDRESS":"立德三路２０號","OBJECTID":495030},"geometry":{"x":169563.21000000089,"y":2541764.5500000026}},{"attributes":{"ID":495058,"DIS_CODE":0,"TOWNNAME":"東區","LI":"大福里","LIN":"8鄰","STREET":"立德三路","SECT":" ","MAREA":" ","LANE":" ","ALLEY":" ","HOUSE_NO":"２２號","E_COORD97":169568.79999999999,"N_COORD97":2541765.5899999999,"ADDRESS":"立德三路２２號","OBJECTID":495031},"geometry":{"x":169568.79999999888,"y":2541765.5900000036}},{"attributes":{"ID":495059,"DIS_CODE":0,"TOWNNAME":"東區","LI":"大福里","LIN":"8鄰","STREET":"立德三路","SECT":" ","MAREA":" ","LANE":" ","ALLEY":" ","HOUSE_NO":"２４號","E_COORD97":169574.38,"N_COORD97":2541767.3300000001,"ADDRESS":"立德三路２４號","OBJECTID":495032},"geometry":{"x":169574.38000000082,"y":2541767.3299999982}},{"attributes":{"ID":495060,"DIS_CODE":0,"TOWNNAME":"安南區","LI":"顯宮里","LIN":"8鄰","STREET":"媽祖宮五街","SECT":" ","MAREA":" ","LANE":" ","ALLEY":" ","HOUSE_NO":"１９２之３０號","E_COORD97":161951.10000000001,"N_COORD97":2550552.0800000001,"ADDRESS":"媽祖宮五街１９２之３０號","OBJECTID":495033},"geometry":{"x":161951.09999999963,"y":2550552.0800000001}},{"attributes":{"ID":495061,"DIS_CODE":0,"TOWNNAME":"仁德區","LI":"田厝里","LIN":"8鄰","STREET":"田厝二街","SECT":" ","MAREA":" ","LANE":" ","ALLEY":" ","HOUSE_NO":"５４號","E_COORD97":172415.85999999999,"N_COORD97":2537628.25,"ADDRESS":"田厝二街５４號","OBJECTID":495034},"geometry":{"x":172415.86000000127,"y":2537628.2500000037}},{"attributes":{"ID":495062,"DIS_CODE":0,"TOWNNAME":"仁德區","LI":"田厝里","LIN":"8鄰","STREET":"田厝二街","SECT":" ","MAREA":" ","LANE":" ","ALLEY":" ","HOUSE_NO":"３８號","E_COORD97":172442.73000000001,"N_COORD97":2537609.5,"ADDRESS":"田厝二街３８號","OBJECTID":495035},"geometry":{"x":172442.73000000045,"y":2537609.4999999981}},{"attributes":{"ID":495063,"DIS_CODE":0,"TOWNNAME":"仁德區","LI":"後壁里","LIN":"8鄰","STREET":"德善二街","SECT":" ","MAREA":" ","LANE":" ","ALLEY":" ","HOUSE_NO":"５９號","E_COORD97":173660.73999999999,"N_COORD97":2538989.77,"ADDRESS":"德善二街５９號","OBJECTID":495036},"geometry":{"x":173660.74000000115,"y":2538989.7699999996}},{"attributes":{"ID":495064,"DIS_CODE":0,"TOWNNAME":"仁德區","LI":"仁義里","LIN":"8鄰","STREET":"仁義一街","SECT":" ","MAREA":" ","LANE":" ","ALLEY":" ","HOUSE_NO":"１１９號","E_COORD97":173595.94,"N_COORD97":2541196.0099999998,"ADDRESS":"仁義一街１１９號","OBJECTID":495037},"geometry":{"x":173595.94000000041,"y":2541196.0099999998}},{"attributes":{"ID":495065,"DIS_CODE":0,"TOWNNAME":"仁德區","LI":"新田里","LIN":"8鄰","STREET":"北保路","SECT":" ","MAREA":" ","LANE":" ","ALLEY":" ","HOUSE_NO":"２０５號","E_COORD97":173540.78,"N_COORD97":2539420.9900000002,"ADDRESS":"北保路２０５號","OBJECTID":495038},"geometry":{"x":173540.78000000026,"y":2539420.9900000021}},{"attributes":{"ID":495066,"DIS_CODE":0,"TOWNNAME":"仁德區","LI":"新田里","LIN":"8鄰","STREET":"北保路","SECT":" ","MAREA":" ","LANE":" ","ALLEY":" ","HOUSE_NO":"１９５號","E_COORD97":173521.10000000001,"N_COORD97":2539431.2400000002,"ADDRESS":"北保路１９５號","OBJECTID":495039},"geometry":{"x":173521.09999999963,"y":2539431.2400000002}},{"attributes":{"ID":495067,"DIS_CODE":0,"TOWNNAME":"仁德區","LI":"太子里","LIN":"8鄰","STREET":"太子路","SECT":" ","MAREA":" ","LANE":" ","ALLEY":" ","HOUSE_NO":"１８４號","E_COORD97":174340.01000000001,"N_COORD97":2543517.5099999998,"ADDRESS":"太子路１８４號","OBJECTID":495040},"geometry":{"x":174340.01000000071,"y":2543517.5099999998}},{"attributes":{"ID":495068,"DIS_CODE":0,"TOWNNAME":"仁德區","LI":"一甲里","LIN":"8鄰","STREET":"中正路","SECT":"三段","MAREA":" ","LANE":" ","ALLEY":" ","HOUSE_NO":"２１０號","E_COORD97":173519.38,"N_COORD97":2541871.0299999998,"ADDRESS":"中正路三段２１０號","OBJECTID":495041},"geometry":{"x":173519.37999999989,"y":2541871.0300000012}},{"attributes":{"ID":495069,"DIS_CODE":0,"TOWNNAME":"仁德區","LI":"保安里","LIN":"8鄰","STREET":"文賢路","SECT":"一段","MAREA":" ","LANE":" ","ALLEY":" ","HOUSE_NO":"７８３號","E_COORD97":171566.01999999999,"N_COORD97":2536119.5699999998,"ADDRESS":"文賢路一段７８３號","OBJECTID":495042},"geometry":{"x":171566.02000000048,"y":2536119.5700000003}},{"attributes":{"ID":495070,"DIS_CODE":0,"TOWNNAME":"仁德區","LI":"後壁里","LIN":"8鄰","STREET":"民安路","SECT":"二段","MAREA":" ","LANE":" ","ALLEY":" ","HOUSE_NO":"１５２號","E_COORD97":173705.62,"N_COORD97":2539023.0600000001,"ADDRESS":"民安路二段１５２號","OBJECTID":495043},"geometry":{"x":173705.62000000104,"y":2539023.0600000005}},{"attributes":{"ID":495071,"DIS_CODE":0,"TOWNNAME":"仁德區","LI":"一甲里","LIN":"8鄰","STREET":"中正路","SECT":"三段","MAREA":" ","LANE":" ","ALLEY":" ","HOUSE_NO":"１８０號","E_COORD97":173492.42999999999,"N_COORD97":2541812.52,"ADDRESS":"中正路三段１８０號","OBJECTID":495044},"geometry":{"x":173492.43000000063,"y":2541812.5199999996}},{"attributes":{"ID":495072,"DIS_CODE":0,"TOWNNAME":"仁德區","LI":"仁義里","LIN":"8鄰","STREET":"中山路","SECT":" ","MAREA":" ","LANE":" ","ALLEY":" ","HOUSE_NO":"４９５號","E_COORD97":173601.53,"N_COORD97":2541278.9900000002,"ADDRESS":"中山路４９５號","OBJECTID":495045},"geometry":{"x":173601.53000000119,"y":2541278.9900000021}},{"attributes":{"ID":495073,"DIS_CODE":0,"TOWNNAME":"永康區","LI":"大灣里","LIN":"8鄰","STREET":"大安街","SECT":" ","MAREA":" ","LANE":" ","ALLEY":" ","HOUSE_NO":"３００號","E_COORD97":174703.64000000001,"N_COORD97":2545508.8599999999,"ADDRESS":"大安街３００號","OBJECTID":495046},"geometry":{"x":174703.6400000006,"y":2545508.8599999994}},{"attributes":{"ID":495074,"DIS_CODE":0,"TOWNNAME":"永康區","LI":"三合里","LIN":"8鄰","STREET":"南工街","SECT":" ","MAREA":" ","LANE":" ","ALLEY":" ","HOUSE_NO":"１０９號","E_COORD97":172090.95999999999,"N_COORD97":2545734.2400000002,"ADDRESS":"南工街１０９號","OBJECTID":495047},"geometry":{"x":172090.96000000089,"y":2545734.2400000002}},{"attributes":{"ID":495075,"DIS_CODE":0,"TOWNNAME":"永康區","LI":"中興里","LIN":"8鄰","STREET":"中山東路","SECT":" ","MAREA":" ","LANE":" ","ALLEY":" ","HOUSE_NO":"４２３號","E_COORD97":171967.73999999999,"N_COORD97":2545052.4900000002,"ADDRESS":"中山東路４２３號","OBJECTID":495048},"geometry":{"x":171967.74000000022,"y":2545052.4900000021}},{"attributes":{"ID":495076,"DIS_CODE":0,"TOWNNAME":"永康區","LI":"南灣里","LIN":"8鄰","STREET":"南興路","SECT":" ","MAREA":" ","LANE":" ","ALLEY":" ","HOUSE_NO":"３６號","E_COORD97":174219.51999999999,"N_COORD97":2544053.25,"ADDRESS":"南興路３６號","OBJECTID":495049},"geometry":{"x":174219.52000000048,"y":2544053.2500000037}},{"attributes":{"ID":495077,"DIS_CODE":0,"TOWNNAME":"永康區","LI":"烏竹里","LIN":"8鄰","STREET":"竹園二街","SECT":" ","MAREA":" ","LANE":" ","ALLEY":" ","HOUSE_NO":"７２號","E_COORD97":174364.75,"N_COORD97":2549158.7400000002,"ADDRESS":"竹園二街７２號","OBJECTID":495050},"geometry":{"x":174364.75,"y":2549158.7400000002}},{"attributes":{"ID":495078,"DIS_CODE":0,"TOWNNAME":"安南區","LI":"\u25A0田里","LIN":"8鄰","STREET":"本田路","SECT":"三段","MAREA":" ","LANE":" ","ALLEY":" ","HOUSE_NO":"９３號","E_COORD97":163926.89999999999,"N_COORD97":2549238.27,"ADDRESS":"本田路三段９３號","OBJECTID":495051},"geometry":{"x":163926.90000000037,"y":2549238.2699999996}},{"attributes":{"ID":495079,"DIS_CODE":0,"TOWNNAME":"南區","LI":"明亮里","LIN":"8鄰","STREET":"新都路","SECT":" ","MAREA":" ","LANE":" ","ALLEY":" ","HOUSE_NO":"４６６號","E_COORD97":167254.79999999999,"N_COORD97":2540881.2200000002,"ADDRESS":"新都路４６６號","OBJECTID":495052},"geometry":{"x":167254.79999999981,"y":2540881.2200000025}},{"attributes":{"ID":495080,"DIS_CODE":0,"TOWNNAME":"南區","LI":"明亮里","LIN":"8鄰","STREET":"新都路","SECT":" ","MAREA":" ","LANE":" ","ALLEY":" ","HOUSE_NO":"４６８號","E_COORD97":167249.14999999999,"N_COORD97":2540880.2799999998,"ADDRESS":"新都路４６８號","OBJECTID":495053},"geometry":{"x":167249.15000000037,"y":2540880.2800000012}},{"attributes":{"ID":495081,"DIS_CODE":0,"TOWNNAME":"南區","LI":"明亮里","LIN":"8鄰","STREET":"新都路","SECT":" ","MAREA":" ","LANE":" ","ALLEY":" ","HOUSE_NO":"４７０號","E_COORD97":167243.51000000001,"N_COORD97":2540879.3399999999,"ADDRESS":"新都路４７０號","OBJECTID":495054},"geometry":{"x":167243.51000000071,"y":2540879.3400000017}},{"attributes":{"ID":495082,"DIS_CODE":0,"TOWNNAME":"南區","LI":"明亮里","LIN":"8鄰","STREET":"新都路","SECT":" ","MAREA":" ","LANE":" ","ALLEY":" ","HOUSE_NO":"４７２號","E_COORD97":167239.42999999999,"N_COORD97":2540880.2799999998,"ADDRESS":"新都路４７２號","OBJECTID":495055},"geometry":{"x":167239.43000000063,"y":2540880.2800000012}},{"attributes":{"ID":495083,"DIS_CODE":0,"TOWNNAME":"南區","LI":"明亮里","LIN":"8鄰","STREET":"新都路","SECT":" ","MAREA":" ","LANE":" ","ALLEY":" ","HOUSE_NO":"４８０號","E_COORD97":167216.88,"N_COORD97":2540881.6400000001,"ADDRESS":"新都路４８０號","OBJECTID":495056},"geometry":{"x":167216.87999999989,"y":2540881.6400000025}},{"attributes":{"ID":495084,"DIS_CODE":0,"TOWNNAME":"南區","LI":"明亮里","LIN":"8鄰","STREET":"新都路","SECT":" ","MAREA":" ","LANE":" ","ALLEY":" ","HOUSE_NO":"４８２號","E_COORD97":167212.73999999999,"N_COORD97":2540882.3900000001,"ADDRESS":"新都路４８２號","OBJECTID":495057},"geometry":{"x":167212.74000000022,"y":2540882.3900000006}},{"attributes":{"ID":495085,"DIS_CODE":0,"TOWNNAME":"南區","LI":"明亮里","LIN":"8鄰","STREET":"新都路","SECT":" ","MAREA":" ","LANE":" ","ALLEY":" ","HOUSE_NO":"４８６號","E_COORD97":167207.48000000001,"N_COORD97":2540884.27,"ADDRESS":"新都路４８６號","OBJECTID":495058},"geometry":{"x":167207.48000000138,"y":2540884.2699999996}},{"attributes":{"ID":495086,"DIS_CODE":0,"TOWNNAME":"南區","LI":"明亮里","LIN":"8鄰","STREET":"新都路","SECT":" ","MAREA":" ","LANE":" ","ALLEY":" ","HOUSE_NO":"４９２號","E_COORD97":167192.81,"N_COORD97":2540883.1400000001,"ADDRESS":"新都路４９２號","OBJECTID":495059},"geometry":{"x":167192.80999999959,"y":2540883.1400000006}},{"attributes":{"ID":495087,"DIS_CODE":0,"TOWNNAME":"南區","LI":"明亮里","LIN":"8鄰","STREET":"新都路","SECT":" ","MAREA":" ","LANE":" ","ALLEY":" ","HOUSE_NO":"４９４號","E_COORD97":167189.04999999999,"N_COORD97":2540885.3900000001,"ADDRESS":"新都路４９４號","OBJECTID":495060},"geometry":{"x":167189.05000000075,"y":2540885.3900000006}},{"attributes":{"ID":495088,"DIS_CODE":0,"TOWNNAME":"南區","LI":"明亮里","LIN":"8鄰","STREET":"新都路","SECT":" ","MAREA":" ","LANE":" ","ALLEY":" ","HOUSE_NO":"４９６號","E_COORD97":167182.66,"N_COORD97":2540883.8900000001,"ADDRESS":"新都路４９６號","OBJECTID":495061},"geometry":{"x":167182.66000000015,"y":2540883.8900000025}},{"attributes":{"ID":495089,"DIS_CODE":0,"TOWNNAME":"南區","LI":"明亮里","LIN":"8鄰","STREET":"新都路","SECT":" ","MAREA":" ","LANE":" ","ALLEY":" ","HOUSE_NO":"４９８號","E_COORD97":167178.14999999999,"N_COORD97":2540886.1400000001,"ADDRESS":"新都路４９８號","OBJECTID":495062},"geometry":{"x":167178.15000000037,"y":2540886.1400000006}},{"attributes":{"ID":495090,"DIS_CODE":0,"TOWNNAME":"南區","LI":"明亮里","LIN":"8鄰","STREET":"新都路","SECT":" ","MAREA":" ","LANE":" ","ALLEY":" ","HOUSE_NO":"５００號","E_COORD97":167173.26000000001,"N_COORD97":2540885.3900000001,"ADDRESS":"新都路５００號","OBJECTID":495063},"geometry":{"x":167173.25999999978,"y":2540885.3900000006}},{"attributes":{"ID":495091,"DIS_CODE":0,"TOWNNAME":"南區","LI":"明亮里","LIN":"8鄰","STREET":"新都路","SECT":" ","MAREA":" ","LANE":" ","ALLEY":" ","HOUSE_NO":"５０２號","E_COORD97":167169.5,"N_COORD97":2540887.27,"ADDRESS":"新都路５０２號","OBJECTID":495064},"geometry":{"x":167169.50000000093,"y":2540887.2700000014}},{"attributes":{"ID":495092,"DIS_CODE":0,"TOWNNAME":"南區","LI":"明興里","LIN":"8鄰","STREET":"金華路","SECT":"一段","MAREA":" ","LANE":" ","ALLEY":" ","HOUSE_NO":"１４４號","E_COORD97":166933.25,"N_COORD97":2540623.3799999999,"ADDRESS":"金華路一段１４４號","OBJECTID":495065},"geometry":{"x":166933.25,"y":2540623.3800000027}},{"attributes":{"ID":495093,"DIS_CODE":0,"TOWNNAME":"南區","LI":"建南里","LIN":"8鄰","STREET":"德興路","SECT":" ","MAREA":" ","LANE":" ","ALLEY":" ","HOUSE_NO":"２３０號","E_COORD97":167199.56,"N_COORD97":2540116.3500000001,"ADDRESS":"德興路２３０號","OBJECTID":495066},"geometry":{"x":167199.56000000052,"y":2540116.3500000015}},{"attributes":{"ID":495094,"DIS_CODE":0,"TOWNNAME":"新化區","LI":"清水里","LIN":"8鄰","STREET":"忠孝路","SECT":" ","MAREA":" ","LANE":" ","ALLEY":" ","HOUSE_NO":"１４１號","E_COORD97":178679.92000000001,"N_COORD97":2548628.25,"ADDRESS":"忠孝路１４１號","OBJECTID":495067},"geometry":{"x":178679.92000000179,"y":2548628.2500000019}},{"attributes":{"ID":495095,"DIS_CODE":0,"TOWNNAME":"新化區","LI":"清水里","LIN":"8鄰","STREET":"民權街","SECT":" ","MAREA":" ","LANE":" ","ALLEY":" ","HOUSE_NO":"７５號之２","E_COORD97":178738.82000000001,"N_COORD97":2548615.2599999998,"ADDRESS":"民權街７５號之２","OBJECTID":495068},"geometry":{"x":178738.82000000123,"y":2548615.2599999998}},{"attributes":{"ID":495096,"DIS_CODE":0,"TOWNNAME":"新化區","LI":"清水里","LIN":"8鄰","STREET":"忠孝路","SECT":" ","MAREA":" ","LANE":" ","ALLEY":" ","HOUSE_NO":"１３９號","E_COORD97":178686.22,"N_COORD97":2548630.25,"ADDRESS":"忠孝路１３９號","OBJECTID":495069},"geometry":{"x":178686.2200000016,"y":2548630.2500000037}},{"attributes":{"ID":495097,"DIS_CODE":0,"TOWNNAME":"新化區","LI":"武安里","LIN":"8鄰","STREET":"和平街","SECT":" ","MAREA":" ","LANE":" ","ALLEY":" ","HOUSE_NO":"１７４號","E_COORD97":178908.72,"N_COORD97":2548283.25,"ADDRESS":"和平街１７４號","OBJECTID":495070},"geometry":{"x":178908.72000000067,"y":2548283.25}},{"attributes":{"ID":495098,"DIS_CODE":0,"TOWNNAME":"新化區","LI":"武安里","LIN":"8鄰","STREET":"和平街","SECT":" ","MAREA":" ","LANE":" ","ALLEY":" ","HOUSE_NO":"１２６號","E_COORD97":178921.01999999999,"N_COORD97":2548165.25,"ADDRESS":"和平街１２６號","OBJECTID":495071},"geometry":{"x":178921.01999999955,"y":2548165.25}},{"attributes":{"ID":495099,"DIS_CODE":0,"TOWNNAME":"西港區","LI":"西港里","LIN":"8鄰","STREET":"文化路","SECT":" ","MAREA":" ","LANE":" ","ALLEY":" ","HOUSE_NO":"１４號","E_COORD97":168514.26999999999,"N_COORD97":2558133.25,"ADDRESS":"文化路１４號","OBJECTID":495072},"geometry":{"x":168514.26999999955,"y":2558133.2500000037}},{"attributes":{"ID":495100,"DIS_CODE":0,"TOWNNAME":"西港區","LI":"西港里","LIN":"8鄰","STREET":"文化路","SECT":" ","MAREA":" ","LANE":" ","ALLEY":" ","HOUSE_NO":"１６號","E_COORD97":168520.31,"N_COORD97":2558136.77,"ADDRESS":"文化路１６號","OBJECTID":495073},"geometry":{"x":168520.30999999959,"y":2558136.7700000014}},{"attributes":{"ID":495101,"DIS_CODE":0,"TOWNNAME":"西港區","LI":"西港里","LIN":"8鄰","STREET":"文化路","SECT":" ","MAREA":" ","LANE":" ","ALLEY":" ","HOUSE_NO":"１８號","E_COORD97":168540.12,"N_COORD97":2558143.1600000001,"ADDRESS":"文化路１８號","OBJECTID":495074},"geometry":{"x":168540.12000000104,"y":2558143.1600000001}},{"attributes":{"ID":495102,"DIS_CODE":0,"TOWNNAME":"西港區","LI":"西港里","LIN":"8鄰","STREET":"文化路","SECT":" ","MAREA":" ","LANE":" ","ALLEY":" ","HOUSE_NO":"２０號","E_COORD97":168546.22,"N_COORD97":2558152.5499999998,"ADDRESS":"文化路２０號","OBJECTID":495075},"geometry":{"x":168546.22000000067,"y":2558152.5500000045}},{"attributes":{"ID":495103,"DIS_CODE":0,"TOWNNAME":"西港區","LI":"西港里","LIN":"8鄰","STREET":"文化路","SECT":" ","MAREA":" ","LANE":" ","ALLEY":" ","HOUSE_NO":"２４號","E_COORD97":168557.57999999999,"N_COORD97":2558159.6200000001,"ADDRESS":"文化路２４號","OBJECTID":495076},"geometry":{"x":168557.58000000101,"y":2558159.6200000029}},{"attributes":{"ID":495104,"DIS_CODE":0,"TOWNNAME":"西港區","LI":"西港里","LIN":"8鄰","STREET":"文化路","SECT":" ","MAREA":" ","LANE":" ","ALLEY":" ","HOUSE_NO":"２８號","E_COORD97":168579.17000000001,"N_COORD97":2558170.2599999998,"ADDRESS":"文化路２８號","OBJECTID":495077},"geometry":{"x":168579.16999999993,"y":2558170.2600000035}},{"attributes":{"ID":495105,"DIS_CODE":0,"TOWNNAME":"西港區","LI":"西港里","LIN":"8鄰","STREET":"文化路","SECT":" ","MAREA":" ","LANE":" ","ALLEY":" ","HOUSE_NO":"３０號","E_COORD97":168582.73999999999,"N_COORD97":2558172.1899999999,"ADDRESS":"文化路３０號","OBJECTID":495078},"geometry":{"x":168582.74000000022,"y":2558172.1899999995}},{"attributes":{"ID":495106,"DIS_CODE":0,"TOWNNAME":"西港區","LI":"西港里","LIN":"8鄰","STREET":"文化路","SECT":" ","MAREA":" ","LANE":" ","ALLEY":" ","HOUSE_NO":"３２號","E_COORD97":168586.54999999999,"N_COORD97":2558173.8999999999,"ADDRESS":"文化路３２號","OBJECTID":495079},"geometry":{"x":168586.55000000075,"y":2558173.9000000022}},{"attributes":{"ID":495107,"DIS_CODE":0,"TOWNNAME":"西港區","LI":"西港里","LIN":"8鄰","STREET":"文化路","SECT":" ","MAREA":" ","LANE":" ","ALLEY":" ","HOUSE_NO":"３４號","E_COORD97":168589.98000000001,"N_COORD97":2558176.3100000001,"ADDRESS":"文化路３４號","OBJECTID":495080},"geometry":{"x":168589.98000000045,"y":2558176.3100000005}},{"attributes":{"ID":495108,"DIS_CODE":0,"TOWNNAME":"東區","LI":"大德里","LIN":"8鄰","STREET":"立德十一路","SECT":" ","MAREA":" ","LANE":" ","ALLEY":" ","HOUSE_NO":"２８號","E_COORD97":169506.78,"N_COORD97":2542084.8599999999,"ADDRESS":"立德十一路２８號","OBJECTID":495081},"geometry":{"x":169506.78000000212,"y":2542084.8599999994}},{"attributes":{"ID":495109,"DIS_CODE":0,"TOWNNAME":"東區","LI":"大德里","LIN":"8鄰","STREET":"立德十一路","SECT":" ","MAREA":" ","LANE":" ","ALLEY":" ","HOUSE_NO":"５２號","E_COORD97":169536.26999999999,"N_COORD97":2542092.6699999999,"ADDRESS":"立德十一路５２號","OBJECTID":495082},"geometry":{"x":169536.26999999955,"y":2542092.6699999999}},{"attributes":{"ID":495110,"DIS_CODE":0,"TOWNNAME":"東區","LI":"大德里","LIN":"8鄰","STREET":"立德十一路","SECT":" ","MAREA":" ","LANE":" ","ALLEY":" ","HOUSE_NO":"５４號","E_COORD97":169539.42999999999,"N_COORD97":2542092.7400000002,"ADDRESS":"立德十一路５４號","OBJECTID":495083},"geometry":{"x":169539.43000000063,"y":2542092.7400000002}},{"attributes":{"ID":495111,"DIS_CODE":0,"TOWNNAME":"東區","LI":"大德里","LIN":"8鄰","STREET":"立德十一路","SECT":" ","MAREA":" ","LANE":" ","ALLEY":" ","HOUSE_NO":"５６號","E_COORD97":169544.60999999999,"N_COORD97":2542092.8199999998,"ADDRESS":"立德十一路５６號","OBJECTID":495084},"geometry":{"x":169544.61000000034,"y":2542092.8200000003}},{"attributes":{"ID":495112,"DIS_CODE":0,"TOWNNAME":"東區","LI":"大德里","LIN":"8鄰","STREET":"立德十一路","SECT":" ","MAREA":" ","LANE":" ","ALLEY":" ","HOUSE_NO":"５８號","E_COORD97":169547.54000000001,"N_COORD97":2542093.9399999999,"ADDRESS":"立德十一路５８號","OBJECTID":495085},"geometry":{"x":169547.54000000097,"y":2542093.9399999995}},{"attributes":{"ID":495113,"DIS_CODE":0,"TOWNNAME":"東區","LI":"大德里","LIN":"8鄰","STREET":"立德十一路","SECT":" ","MAREA":" ","LANE":" ","ALLEY":" ","HOUSE_NO":"５７號","E_COORD97":169507.03,"N_COORD97":2542113.0600000001,"ADDRESS":"立德十一路５７號","OBJECTID":495086},"geometry":{"x":169507.03000000119,"y":2542113.0600000024}},{"attributes":{"ID":495114,"DIS_CODE":0,"TOWNNAME":"東區","LI":"大德里","LIN":"8鄰","STREET":"立德十一路","SECT":" ","MAREA":" ","LANE":" ","ALLEY":" ","HOUSE_NO":"５號","E_COORD97":169397.75,"N_COORD97":2542093.7200000002,"ADDRESS":"立德十一路５號","OBJECTID":495087},"geometry":{"x":169397.75,"y":2542093.7200000007}},{"attributes":{"ID":495115,"DIS_CODE":0,"TOWNNAME":"東區","LI":"大德里","LIN":"8鄰","STREET":"立德十一路","SECT":" ","MAREA":" ","LANE":" ","ALLEY":" ","HOUSE_NO":"７號","E_COORD97":169402.32999999999,"N_COORD97":2542093.8700000001,"ADDRESS":"立德十一路７號","OBJECTID":495088},"geometry":{"x":169402.33000000007,"y":2542093.8700000048}},{"attributes":{"ID":495116,"DIS_CODE":0,"TOWNNAME":"東區","LI":"大德里","LIN":"8鄰","STREET":"立德十一路","SECT":" ","MAREA":" ","LANE":" ","ALLEY":" ","HOUSE_NO":"１７號","E_COORD97":169419.23999999999,"N_COORD97":2542095.4399999999,"ADDRESS":"立德十一路１７號","OBJECTID":495089},"geometry":{"x":169419.24000000115,"y":2542095.4400000013}},{"attributes":{"ID":495117,"DIS_CODE":0,"TOWNNAME":"東區","LI":"大德里","LIN":"8鄰","STREET":"立德十一路","SECT":" ","MAREA":" ","LANE":" ","ALLEY":" ","HOUSE_NO":"２１號","E_COORD97":169426.45999999999,"N_COORD97":2542096.7999999998,"ADDRESS":"立德十一路２１號","OBJECTID":495090},"geometry":{"x":169426.45999999996,"y":2542096.8000000007}},{"attributes":{"ID":495118,"DIS_CODE":0,"TOWNNAME":"東區","LI":"大德里","LIN":"8鄰","STREET":"立德十一路","SECT":" ","MAREA":" ","LANE":" ","ALLEY":" ","HOUSE_NO":"２３號","E_COORD97":169430.97,"N_COORD97":2542097.4700000002,"ADDRESS":"立德十一路２３號","OBJECTID":495091},"geometry":{"x":169430.97000000067,"y":2542097.4700000025}},{"attributes":{"ID":495119,"DIS_CODE":0,"TOWNNAME":"東區","LI":"大德里","LIN":"8鄰","STREET":"立德十一路","SECT":" ","MAREA":" ","LANE":" ","ALLEY":" ","HOUSE_NO":"２５號","E_COORD97":169434.53,"N_COORD97":2542098.8999999999,"ADDRESS":"立德十一路２５號","OBJECTID":495092},"geometry":{"x":169434.53000000119,"y":2542098.9000000004}},{"attributes":{"ID":495120,"DIS_CODE":0,"TOWNNAME":"東區","LI":"大德里","LIN":"8鄰","STREET":"立德十一路","SECT":" ","MAREA":" ","LANE":" ","ALLEY":" ","HOUSE_NO":"３５號","E_COORD97":169457.76000000001,"N_COORD97":2542102.3500000001,"ADDRESS":"立德十一路３５號","OBJECTID":495093},"geometry":{"x":169457.76000000071,"y":2542102.3499999978}},{"attributes":{"ID":495121,"DIS_CODE":0,"TOWNNAME":"東區","LI":"大德里","LIN":"8鄰","STREET":"立德十一路","SECT":" ","MAREA":" ","LANE":" ","ALLEY":" ","HOUSE_NO":"３７號","E_COORD97":169462.79000000001,"N_COORD97":2542102.5699999998,"ADDRESS":"立德十一路３７號","OBJECTID":495094},"geometry":{"x":169462.79000000097,"y":2542102.5700000022}},{"attributes":{"ID":495122,"DIS_CODE":0,"TOWNNAME":"東區","LI":"大德里","LIN":"8鄰","STREET":"立德十一路","SECT":" ","MAREA":" ","LANE":" ","ALLEY":" ","HOUSE_NO":"３９號","E_COORD97":169465.79999999999,"N_COORD97":2542103.7799999998,"ADDRESS":"立德十一路３９號","OBJECTID":495095},"geometry":{"x":169465.80000000075,"y":2542103.7800000012}},{"attributes":{"ID":495123,"DIS_CODE":0,"TOWNNAME":"東區","LI":"大德里","LIN":"8鄰","STREET":"立德十一路","SECT":" ","MAREA":" ","LANE":" ","ALLEY":" ","HOUSE_NO":"４１號","E_COORD97":169469.85999999999,"N_COORD97":2542104.1499999999,"ADDRESS":"立德十一路４１號","OBJECTID":495096},"geometry":{"x":169469.86000000127,"y":2542104.1500000004}},{"attributes":{"ID":495124,"DIS_CODE":0,"TOWNNAME":"東區","LI":"大德里","LIN":"8鄰","STREET":"立德十一路","SECT":" ","MAREA":" ","LANE":" ","ALLEY":" ","HOUSE_NO":"４５號","E_COORD97":169477.97,"N_COORD97":2542105.6400000001,"ADDRESS":"立德十一路４５號","OBJECTID":495097},"geometry":{"x":169477.9700000016,"y":2542105.6400000025}},{"attributes":{"ID":495125,"DIS_CODE":0,"TOWNNAME":"東區","LI":"大德里","LIN":"8鄰","STREET":"立德十一路","SECT":" ","MAREA":" ","LANE":" ","ALLEY":" ","HOUSE_NO":"４７號","E_COORD97":169481.57999999999,"N_COORD97":2542106.1800000002,"ADDRESS":"立德十一路４７號","OBJECTID":495098},"geometry":{"x":169481.58000000101,"y":2542106.1799999997}},{"attributes":{"ID":495126,"DIS_CODE":0,"TOWNNAME":"東區","LI":"大德里","LIN":"8鄰","STREET":"立德十一路","SECT":" ","MAREA":" ","LANE":" ","ALLEY":" ","HOUSE_NO":"５３號","E_COORD97":169494.39999999999,"N_COORD97":2542109.2400000002,"ADDRESS":"立德十一路５３號","OBJECTID":495099},"geometry":{"x":169494.4000000013,"y":2542109.2400000002}},{"attributes":{"ID":495127,"DIS_CODE":0,"TOWNNAME":"東區","LI":"大德里","LIN":"8鄰","STREET":"立德十一路","SECT":" ","MAREA":" ","LANE":" ","ALLEY":" ","HOUSE_NO":"８３號","E_COORD97":169567.45999999999,"N_COORD97":2542123.96,"ADDRESS":"立德十一路８３號","OBJECTID":495100},"geometry":{"x":169567.45999999996,"y":2542123.9600000028}},{"attributes":{"ID":495128,"DIS_CODE":0,"TOWNNAME":"東區","LI":"中西里","LIN":"8鄰","STREET":"勝利路","SECT":" ","MAREA":" ","LANE":" ","ALLEY":" ","HOUSE_NO":"３０號","E_COORD97":169806.10999999999,"N_COORD97":2543441.0899999999,"ADDRESS":"勝利路３０號","OBJECTID":495101},"geometry":{"x":169806.11000000034,"y":2543441.0900000017}},{"attributes":{"ID":495129,"DIS_CODE":0,"TOWNNAME":"東區","LI":"中西里","LIN":"8鄰","STREET":"勝利路","SECT":" ","MAREA":" ","LANE":" ","ALLEY":" ","HOUSE_NO":"１４號","E_COORD97":169800.44,"N_COORD97":2543353.8199999998,"ADDRESS":"勝利路１４號","OBJECTID":495102},"geometry":{"x":169800.44000000041,"y":2543353.8200000003}},{"attributes":{"ID":495130,"DIS_CODE":0,"TOWNNAME":"新市區","LI":"新市里","LIN":"8鄰","STREET":"中正路","SECT":" ","MAREA":" ","LANE":" ","ALLEY":" ","HOUSE_NO":"２３７之６號","E_COORD97":177450.07000000001,"N_COORD97":2553145.2999999998,"ADDRESS":"中正路２３７之６號","OBJECTID":495103},"geometry":{"x":177450.0700000003,"y":2553145.3000000007}},{"attributes":{"ID":495131,"DIS_CODE":0,"TOWNNAME":"新市區","LI":"新市里","LIN":"8鄰","STREET":"中正路","SECT":" ","MAREA":" ","LANE":" ","ALLEY":" ","HOUSE_NO":"２３７之１０號","E_COORD97":177461.04000000001,"N_COORD97":2553172.0499999998,"ADDRESS":"中正路２３７之１０號","OBJECTID":495104},"geometry":{"x":177461.04000000097,"y":2553172.0500000045}},{"attributes":{"ID":495132,"DIS_CODE":0,"TOWNNAME":"新市區","LI":"新市里","LIN":"8鄰","STREET":"中正路","SECT":" ","MAREA":" ","LANE":" ","ALLEY":" ","HOUSE_NO":"２４３號","E_COORD97":177462.29000000001,"N_COORD97":2553180.75,"ADDRESS":"中正路２４３號","OBJECTID":495105},"geometry":{"x":177462.29000000097,"y":2553180.7500000019}},{"attributes":{"ID":495133,"DIS_CODE":0,"TOWNNAME":"新市區","LI":"永就里","LIN":"8鄰","STREET":"中華路","SECT":" ","MAREA":" ","LANE":" ","ALLEY":" ","HOUSE_NO":"６８號","E_COORD97":177598.04000000001,"N_COORD97":2551664,"ADDRESS":"中華路６８號","OBJECTID":495106},"geometry":{"x":177598.04000000097,"y":2551664.0000000019}},{"attributes":{"ID":495134,"DIS_CODE":0,"TOWNNAME":"新市區","LI":"新市里","LIN":"8鄰","STREET":"中正路","SECT":" ","MAREA":" ","LANE":" ","ALLEY":" ","HOUSE_NO":"２８９號","E_COORD97":177566.60000000001,"N_COORD97":2553235.75,"ADDRESS":"中正路２８９號","OBJECTID":495107},"geometry":{"x":177566.60000000056,"y":2553235.7500000019}},{"attributes":{"ID":495135,"DIS_CODE":0,"TOWNNAME":"新市區","LI":"新市里","LIN":"8鄰","STREET":"中正路","SECT":" ","MAREA":" ","LANE":" ","ALLEY":" ","HOUSE_NO":"２６５號","E_COORD97":177501.89999999999,"N_COORD97":2553208.75,"ADDRESS":"中正路２６５號","OBJECTID":495108},"geometry":{"x":177501.90000000037,"y":2553208.7500000019}},{"attributes":{"ID":495136,"DIS_CODE":0,"TOWNNAME":"新市區","LI":"永就里","LIN":"8鄰","STREET":"中華路","SECT":" ","MAREA":" ","LANE":" ","ALLEY":" ","HOUSE_NO":"１２４號","E_COORD97":177685.32000000001,"N_COORD97":2551580.5,"ADDRESS":"中華路１２４號","OBJECTID":495109},"geometry":{"x":177685.3200000003,"y":2551580.5}},{"attributes":{"ID":495137,"DIS_CODE":0,"TOWNNAME":"新市區","LI":"新和里","LIN":"8鄰","STREET":"仁愛街","SECT":" ","MAREA":" ","LANE":" ","ALLEY":" ","HOUSE_NO":"７９之７號","E_COORD97":177527.89000000001,"N_COORD97":2552462.5499999998,"ADDRESS":"仁愛街７９之７號","OBJECTID":495110},"geometry":{"x":177527.8900000006,"y":2552462.5500000007}},{"attributes":{"ID":495138,"DIS_CODE":0,"TOWNNAME":"新市區","LI":"新市里","LIN":"8鄰","STREET":"中正路","SECT":" ","MAREA":" ","LANE":" ","ALLEY":" ","HOUSE_NO":"２４７號","E_COORD97":177467.79000000001,"N_COORD97":2553187.5,"ADDRESS":"中正路２４７號","OBJECTID":495111},"geometry":{"x":177467.79000000097,"y":2553187.5}},{"attributes":{"ID":495139,"DIS_CODE":0,"TOWNNAME":"新市區","LI":"新和里","LIN":"8鄰","STREET":"仁愛街","SECT":" ","MAREA":" ","LANE":" ","ALLEY":" ","HOUSE_NO":"１０６號","E_COORD97":177546.70000000001,"N_COORD97":2552480.7799999998,"ADDRESS":"仁愛街１０６號","OBJECTID":495112},"geometry":{"x":177546.70000000112,"y":2552480.7800000031}},{"attributes":{"ID":495140,"DIS_CODE":0,"TOWNNAME":"新市區","LI":"新市里","LIN":"8鄰","STREET":"中正路","SECT":" ","MAREA":" ","LANE":" ","ALLEY":" ","HOUSE_NO":"２５９號","E_COORD97":177490.20000000001,"N_COORD97":2553203.75,"ADDRESS":"中正路２５９號","OBJECTID":495113},"geometry":{"x":177490.20000000112,"y":2553203.7500000037}},{"attributes":{"ID":495141,"DIS_CODE":0,"TOWNNAME":"新市區","LI":"永就里","LIN":"8鄰","STREET":"中華路","SECT":" ","MAREA":" ","LANE":" ","ALLEY":" ","HOUSE_NO":"９０號","E_COORD97":177632.98000000001,"N_COORD97":2551631.25,"ADDRESS":"中華路９０號","OBJECTID":495114},"geometry":{"x":177632.98000000138,"y":2551631.2500000019}},{"attributes":{"ID":495142,"DIS_CODE":0,"TOWNNAME":"新市區","LI":"永就里","LIN":"8鄰","STREET":"中華路","SECT":" ","MAREA":" ","LANE":" ","ALLEY":" ","HOUSE_NO":"７６號","E_COORD97":177610.54000000001,"N_COORD97":2551651,"ADDRESS":"中華路７６號","OBJECTID":495115},"geometry":{"x":177610.54000000004,"y":2551651}},{"attributes":{"ID":495143,"DIS_CODE":0,"TOWNNAME":"新市區","LI":"永就里","LIN":"8鄰","STREET":"中華路","SECT":" ","MAREA":" ","LANE":" ","ALLEY":" ","HOUSE_NO":"１１８號","E_COORD97":177677.57000000001,"N_COORD97":2551590.25,"ADDRESS":"中華路１１８號","OBJECTID":495116},"geometry":{"x":177677.57000000123,"y":2551590.2500000019}},{"attributes":{"ID":495144,"DIS_CODE":0,"TOWNNAME":"新市區","LI":"新市里","LIN":"8鄰","STREET":"中正路","SECT":" ","MAREA":" ","LANE":" ","ALLEY":" ","HOUSE_NO":"２７３號","E_COORD97":177535.20000000001,"N_COORD97":2553222.75,"ADDRESS":"中正路２７３號","OBJECTID":495117},"geometry":{"x":177535.20000000019,"y":2553222.75}},{"attributes":{"ID":495145,"DIS_CODE":0,"TOWNNAME":"新市區","LI":"新和里","LIN":"8鄰","STREET":"仁愛街","SECT":" ","MAREA":" ","LANE":" ","ALLEY":" ","HOUSE_NO":"１０４號","E_COORD97":177545.95000000001,"N_COORD97":2552477.0299999998,"ADDRESS":"仁愛街１０４號","OBJECTID":495118},"geometry":{"x":177545.95000000205,"y":2552477.0300000012}},{"attributes":{"ID":495146,"DIS_CODE":0,"TOWNNAME":"新市區","LI":"新市里","LIN":"8鄰","STREET":"中正路","SECT":" ","MAREA":" ","LANE":" ","ALLEY":" ","HOUSE_NO":"２６７之１號","E_COORD97":177512.23999999999,"N_COORD97":2553212.0499999998,"ADDRESS":"中正路２６７之１號","OBJECTID":495119},"geometry":{"x":177512.24000000115,"y":2553212.0500000007}},{"attributes":{"ID":495147,"DIS_CODE":0,"TOWNNAME":"新市區","LI":"新市里","LIN":"8鄰","STREET":"中正路","SECT":" ","MAREA":" ","LANE":" ","ALLEY":" ","HOUSE_NO":"２８１號","E_COORD97":177550.45000000001,"N_COORD97":2553229,"ADDRESS":"中正路２８１號","OBJECTID":495120},"geometry":{"x":177550.45000000019,"y":2553229.0000000037}},{"attributes":{"ID":495148,"DIS_CODE":0,"TOWNNAME":"新市區","LI":"新市里","LIN":"8鄰","STREET":"中正路","SECT":" ","MAREA":" ","LANE":" ","ALLEY":" ","HOUSE_NO":"２９５號","E_COORD97":177578.82000000001,"N_COORD97":2553240.5,"ADDRESS":"中正路２９５號","OBJECTID":495121},"geometry":{"x":177578.8200000003,"y":2553240.5000000019}},{"attributes":{"ID":495149,"DIS_CODE":0,"TOWNNAME":"新市區","LI":"新市里","LIN":"8鄰","STREET":"中正路","SECT":" ","MAREA":" ","LANE":" ","ALLEY":" ","HOUSE_NO":"２６７號","E_COORD97":177505.48999999999,"N_COORD97":2553209.75,"ADDRESS":"中正路２６７號","OBJECTID":495122},"geometry":{"x":177505.49000000115,"y":2553209.75}},{"attributes":{"ID":495150,"DIS_CODE":0,"TOWNNAME":"新市區","LI":"新市里","LIN":"8鄰","STREET":"中正路","SECT":" ","MAREA":" ","LANE":" ","ALLEY":" ","HOUSE_NO":"２６９號","E_COORD97":177527.79000000001,"N_COORD97":2553219.75,"ADDRESS":"中正路２６９號","OBJECTID":495123},"geometry":{"x":177527.79000000004,"y":2553219.75}},{"attributes":{"ID":495151,"DIS_CODE":0,"TOWNNAME":"新市區","LI":"新市里","LIN":"8鄰","STREET":"中正路","SECT":" ","MAREA":" ","LANE":" ","ALLEY":" ","HOUSE_NO":"２６３號","E_COORD97":177497.89999999999,"N_COORD97":2553207.25,"ADDRESS":"中正路２６３號","OBJECTID":495124},"geometry":{"x":177497.9000000013,"y":2553207.2500000037}},{"attributes":{"ID":495152,"DIS_CODE":0,"TOWNNAME":"新市區","LI":"新和里","LIN":"8鄰","STREET":"仁愛街","SECT":" ","MAREA":" ","LANE":" ","ALLEY":" ","HOUSE_NO":"７９之２號","E_COORD97":177523.59,"N_COORD97":2552441.2999999998,"ADDRESS":"仁愛街７９之２號","OBJECTID":495125},"geometry":{"x":177523.58999999985,"y":2552441.3000000045}},{"attributes":{"ID":495153,"DIS_CODE":0,"TOWNNAME":"新市區","LI":"新和里","LIN":"8鄰","STREET":"仁愛街","SECT":" ","MAREA":" ","LANE":" ","ALLEY":" ","HOUSE_NO":"８３號","E_COORD97":177530,"N_COORD97":2552485.2799999998,"ADDRESS":"仁愛街８３號","OBJECTID":495126},"geometry":{"x":177530.00000000186,"y":2552485.2800000012}},{"attributes":{"ID":495154,"DIS_CODE":0,"TOWNNAME":"新市區","LI":"永就里","LIN":"8鄰","STREET":"中華路","SECT":" ","MAREA":" ","LANE":" ","ALLEY":" ","HOUSE_NO":"１１２號","E_COORD97":177668.82000000001,"N_COORD97":2551599,"ADDRESS":"中華路１１２號","OBJECTID":495127},"geometry":{"x":177668.81999999937,"y":2551599.0000000019}},{"attributes":{"ID":495155,"DIS_CODE":0,"TOWNNAME":"新市區","LI":"新市里","LIN":"8鄰","STREET":"中正路","SECT":" ","MAREA":" ","LANE":" ","ALLEY":" ","HOUSE_NO":"２８７號","E_COORD97":177562.79000000001,"N_COORD97":2553234,"ADDRESS":"中正路２８７號","OBJECTID":495128},"geometry":{"x":177562.79000000097,"y":2553234.0000000019}},{"attributes":{"ID":495156,"DIS_CODE":0,"TOWNNAME":"新市區","LI":"新市里","LIN":"8鄰","STREET":"中正路","SECT":" ","MAREA":" ","LANE":" ","ALLEY":" ","HOUSE_NO":"２９３號","E_COORD97":177574.85000000001,"N_COORD97":2553238.75,"ADDRESS":"中正路２９３號","OBJECTID":495129},"geometry":{"x":177574.85000000149,"y":2553238.7500000019}},{"attributes":{"ID":495157,"DIS_CODE":0,"TOWNNAME":"新市區","LI":"新和里","LIN":"8鄰","STREET":"仁愛街","SECT":" ","MAREA":" ","LANE":" ","ALLEY":" ","HOUSE_NO":"９２號","E_COORD97":177539.70000000001,"N_COORD97":2552453.7799999998,"ADDRESS":"仁愛街９２號","OBJECTID":495130},"geometry":{"x":177539.70000000112,"y":2552453.7800000031}},{"attributes":{"ID":495158,"DIS_CODE":0,"TOWNNAME":"新市區","LI":"新和里","LIN":"8鄰","STREET":"仁愛街","SECT":" ","MAREA":" ","LANE":" ","ALLEY":" ","HOUSE_NO":"８５號","E_COORD97":177530.54000000001,"N_COORD97":2552488.5299999998,"ADDRESS":"仁愛街８５號","OBJECTID":495131},"geometry":{"x":177530.54000000097,"y":2552488.5299999993}},{"attributes":{"ID":495159,"DIS_CODE":0,"TOWNNAME":"新市區","LI":"新和里","LIN":"8鄰","STREET":"仁愛街","SECT":" ","MAREA":" ","LANE":" ","ALLEY":" ","HOUSE_NO":"１０８號","E_COORD97":177547.54000000001,"N_COORD97":2552484.7799999998,"ADDRESS":"仁愛街１０８號","OBJECTID":495132},"geometry":{"x":177547.54000000097,"y":2552484.7800000012}},{"attributes":{"ID":495160,"DIS_CODE":0,"TOWNNAME":"中西區","LI":"藥王里","LIN":"8鄰","STREET":"民權路","SECT":"三段","MAREA":" ","LANE":" ","ALLEY":" ","HOUSE_NO":"２７６號","E_COORD97":167187.26999999999,"N_COORD97":2544315.1699999999,"ADDRESS":"民權路三段２７６號","OBJECTID":495133},"geometry":{"x":167187.27000000048,"y":2544315.1700000018}},{"attributes":{"ID":495161,"DIS_CODE":0,"TOWNNAME":"中西區","LI":"仙草里","LIN":"8鄰","STREET":"永福路","SECT":"一段","MAREA":" ","LANE":" ","ALLEY":" ","HOUSE_NO":"１０３號","E_COORD97":167981.66,"N_COORD97":2542741.6099999999,"ADDRESS":"永福路一段１０３號","OBJECTID":495134},"geometry":{"x":167981.66000000015,"y":2542741.6100000013}},{"attributes":{"ID":495162,"DIS_CODE":0,"TOWNNAME":"中西區","LI":"仙草里","LIN":"8鄰","STREET":"永福路","SECT":"一段","MAREA":" ","LANE":" ","ALLEY":" ","HOUSE_NO":"１０５號","E_COORD97":167981.31,"N_COORD97":2542748.0299999998,"ADDRESS":"永福路一段１０５號","OBJECTID":495135},"geometry":{"x":167981.30999999959,"y":2542748.0299999993}},{"attributes":{"ID":495163,"DIS_CODE":0,"TOWNNAME":"中西區","LI":"仙草里","LIN":"8鄰","STREET":"永福路","SECT":"一段","MAREA":" ","LANE":" ","ALLEY":" ","HOUSE_NO":"７５號","E_COORD97":167973.67000000001,"N_COORD97":2542670.04,"ADDRESS":"永福路一段７５號","OBJECTID":495136},"geometry":{"x":167973.67000000086,"y":2542670.0399999972}},{"attributes":{"ID":495164,"DIS_CODE":0,"TOWNNAME":"中西區","LI":"小西里","LIN":"8鄰","STREET":"西門路","SECT":"一段","MAREA":" ","LANE":" ","ALLEY":" ","HOUSE_NO":"６８０號","E_COORD97":167750.82000000001,"N_COORD97":2543317.21,"ADDRESS":"西門路一段６８０號","OBJECTID":495137},"geometry":{"x":167750.82000000123,"y":2543317.2100000009}},{"attributes":{"ID":495165,"DIS_CODE":0,"TOWNNAME":"中西區","LI":"小西里","LIN":"8鄰","STREET":"西門路","SECT":"一段","MAREA":" ","LANE":" ","ALLEY":" ","HOUSE_NO":"６８２號","E_COORD97":167750.62,"N_COORD97":2543322.3100000001,"ADDRESS":"西門路一段６８２號","OBJECTID":495138},"geometry":{"x":167750.62000000104,"y":2543322.3100000024}},{"attributes":{"ID":495166,"DIS_CODE":0,"TOWNNAME":"北區","LI":"成功里","LIN":"20鄰","STREET":"中華北路","SECT":"二段","MAREA":" ","LANE":" ","ALLEY":" ","HOUSE_NO":"２７４號","E_COORD97":168847.66,"N_COORD97":2546948.8599999999,"ADDRESS":"中華北路二段２７４號","OBJECTID":495139},"geometry":{"x":168847.66000000015,"y":2546948.8599999994}},{"attributes":{"ID":495167,"DIS_CODE":0,"TOWNNAME":"北區","LI":"成功里","LIN":"20鄰","STREET":"中華北路","SECT":"二段","MAREA":" ","LANE":" ","ALLEY":" ","HOUSE_NO":"２７７號","E_COORD97":168866.19,"N_COORD97":2546951.8999999999,"ADDRESS":"中華北路二段２７７號","OBJECTID":495140},"geometry":{"x":168866.19000000041,"y":2546951.9000000022}},{"attributes":{"ID":495168,"DIS_CODE":0,"TOWNNAME":"北區","LI":"成功里","LIN":"20鄰","STREET":"中華北路","SECT":"二段","MAREA":" ","LANE":" ","ALLEY":" ","HOUSE_NO":"２７８號","E_COORD97":168875.60999999999,"N_COORD97":2546953.9199999999,"ADDRESS":"中華北路二段２７８號","OBJECTID":495141},"geometry":{"x":168875.6099999994,"y":2546953.9200000037}},{"attributes":{"ID":495169,"DIS_CODE":0,"TOWNNAME":"北區","LI":"成功里","LIN":"20鄰","STREET":"中華北路","SECT":"二段","MAREA":" ","LANE":" ","ALLEY":" ","HOUSE_NO":"２７９號","E_COORD97":168881.47,"N_COORD97":2546951.5800000001,"ADDRESS":"中華北路二段２７９號","OBJECTID":495142},"geometry":{"x":168881.47000000067,"y":2546951.5800000001}},{"attributes":{"ID":495170,"DIS_CODE":0,"TOWNNAME":"北區","LI":"成功里","LIN":"20鄰","STREET":"中華北路","SECT":"二段","MAREA":" ","LANE":" ","ALLEY":" ","HOUSE_NO":"２８０號","E_COORD97":168885.85999999999,"N_COORD97":2546954.79,"ADDRESS":"中華北路二段２８０號","OBJECTID":495143},"geometry":{"x":168885.8600000022,"y":2546954.790000001}},{"attributes":{"ID":495171,"DIS_CODE":0,"TOWNNAME":"北區","LI":"成功里","LIN":"20鄰","STREET":"中華北路","SECT":"二段","MAREA":" ","LANE":" ","ALLEY":" ","HOUSE_NO":"２８１號","E_COORD97":168893.17999999999,"N_COORD97":2546952.1600000001,"ADDRESS":"中華北路二段２８１號","OBJECTID":495144},"geometry":{"x":168893.18000000156,"y":2546952.1600000001}},{"attributes":{"ID":495172,"DIS_CODE":0,"TOWNNAME":"北區","LI":"成功里","LIN":"20鄰","STREET":"中華北路","SECT":"二段","MAREA":" ","LANE":" ","ALLEY":" ","HOUSE_NO":"２８２號","E_COORD97":168897.87,"N_COORD97":2546956.8399999999,"ADDRESS":"中華北路二段２８２號","OBJECTID":495145},"geometry":{"x":168897.87000000104,"y":2546956.8399999999}},{"attributes":{"ID":495173,"DIS_CODE":0,"TOWNNAME":"北區","LI":"成功里","LIN":"20鄰","STREET":"中華北路","SECT":"二段","MAREA":" ","LANE":" ","ALLEY":" ","HOUSE_NO":"２８３號","E_COORD97":168903.14000000001,"N_COORD97":2546954.5,"ADDRESS":"中華北路二段２８３號","OBJECTID":495146},"geometry":{"x":168903.13999999966,"y":2546954.5000000019}},{"attributes":{"ID":495174,"DIS_CODE":0,"TOWNNAME":"中西區","LI":"小西里","LIN":"8鄰","STREET":"西門路","SECT":"一段","MAREA":" ","LANE":" ","ALLEY":" ","HOUSE_NO":"６８４號","E_COORD97":167750.72,"N_COORD97":2543326.8300000001,"ADDRESS":"西門路一段６８４號","OBJECTID":495147},"geometry":{"x":167750.72000000067,"y":2543326.8299999982}},{"attributes":{"ID":495175,"DIS_CODE":0,"TOWNNAME":"中西區","LI":"小西里","LIN":"8鄰","STREET":"西門路","SECT":"一段","MAREA":" ","LANE":" ","ALLEY":" ","HOUSE_NO":"６８６號","E_COORD97":167749.14999999999,"N_COORD97":2543332.3199999998,"ADDRESS":"西門路一段６８６號","OBJECTID":495148},"geometry":{"x":167749.15000000037,"y":2543332.3200000022}},{"attributes":{"ID":495176,"DIS_CODE":0,"TOWNNAME":"中西區","LI":"小西里","LIN":"8鄰","STREET":"西門路","SECT":"一段","MAREA":" ","LANE":" ","ALLEY":" ","HOUSE_NO":"６８８號","E_COORD97":167749.34,"N_COORD97":2543337.3199999998,"ADDRESS":"西門路一段６８８號","OBJECTID":495149},"geometry":{"x":167749.33999999985,"y":2543337.3199999984}},{"attributes":{"ID":495177,"DIS_CODE":0,"TOWNNAME":"中西區","LI":"小西里","LIN":"8鄰","STREET":"西門路","SECT":"一段","MAREA":" ","LANE":" ","ALLEY":" ","HOUSE_NO":"６９０號","E_COORD97":167749.92999999999,"N_COORD97":2543340.5600000001,"ADDRESS":"西門路一段６９０號","OBJECTID":495150},"geometry":{"x":167749.9299999997,"y":2543340.5600000024}},{"attributes":{"ID":495178,"DIS_CODE":0,"TOWNNAME":"中西區","LI":"小西里","LIN":"8鄰","STREET":"西門路","SECT":"一段","MAREA":" ","LANE":" ","ALLEY":" ","HOUSE_NO":"６９２號","E_COORD97":167750.23000000001,"N_COORD97":2543343.3100000001,"ADDRESS":"西門路一段６９２號","OBJECTID":495151},"geometry":{"x":167750.23000000138,"y":2543343.3100000005}},{"attributes":{"ID":495179,"DIS_CODE":0,"TOWNNAME":"中西區","LI":"小西里","LIN":"8鄰","STREET":"西門路","SECT":"一段","MAREA":" ","LANE":" ","ALLEY":" ","HOUSE_NO":"６９４號","E_COORD97":167760.37,"N_COORD97":2543340.46,"ADDRESS":"西門路一段６９４號","OBJECTID":495152},"geometry":{"x":167760.37000000104,"y":2543340.459999999}},{"attributes":{"ID":495180,"DIS_CODE":0,"TOWNNAME":"中西區","LI":"小西里","LIN":"8鄰","STREET":"西門路","SECT":"一段","MAREA":" ","LANE":" ","ALLEY":" ","HOUSE_NO":"６９６號","E_COORD97":167750.42000000001,"N_COORD97":2543348.6000000001,"ADDRESS":"西門路一段６９６號","OBJECTID":495153},"geometry":{"x":167750.41999999993,"y":2543348.6000000034}},{"attributes":{"ID":495181,"DIS_CODE":0,"TOWNNAME":"仁德區","LI":"仁德里","LIN":"12鄰","STREET":"四維街","SECT":" ","MAREA":" ","LANE":"４８巷","ALLEY":"１弄","HOUSE_NO":"２３號","E_COORD97":173154.82000000001,"N_COORD97":2541548.5,"ADDRESS":"四維街４８巷１弄２３號","OBJECTID":495154},"geometry":{"x":173154.82000000123,"y":2541548.5}},{"attributes":{"ID":495182,"DIS_CODE":0,"TOWNNAME":"東區","LI":"大德里","LIN":"8鄰","STREET":"立德十一路","SECT":" ","MAREA":" ","LANE":" ","ALLEY":" ","HOUSE_NO":"７５號","E_COORD97":169543.76999999999,"N_COORD97":2542117.1499999999,"ADDRESS":"立德十一路７５號","OBJECTID":495155},"geometry":{"x":169543.77000000048,"y":2542117.1500000004}},{"attributes":{"ID":495183,"DIS_CODE":0,"TOWNNAME":"東區","LI":"大德里","LIN":"8鄰","STREET":"立德十一路","SECT":" ","MAREA":" ","LANE":" ","ALLEY":" ","HOUSE_NO":"７７號","E_COORD97":169549.51999999999,"N_COORD97":2542118.1600000001,"ADDRESS":"立德十一路７７號","OBJECTID":495156},"geometry":{"x":169549.51999999955,"y":2542118.1600000039}},{"attributes":{"ID":495184,"DIS_CODE":0,"TOWNNAME":"東區","LI":"龍山里","LIN":"8鄰","STREET":"光華街","SECT":" ","MAREA":" ","LANE":" ","ALLEY":" ","HOUSE_NO":"８１號","E_COORD97":169933.54999999999,"N_COORD97":2542760.6299999999,"ADDRESS":"光華街８１號","OBJECTID":495157},"geometry":{"x":169933.55000000075,"y":2542760.629999999}},{"attributes":{"ID":495185,"DIS_CODE":0,"TOWNNAME":"東區","LI":"龍山里","LIN":"8鄰","STREET":"光華街","SECT":" ","MAREA":" ","LANE":" ","ALLEY":" ","HOUSE_NO":"８１之１號","E_COORD97":169927.32999999999,"N_COORD97":2542751.46,"ADDRESS":"光華街８１之１號","OBJECTID":495158},"geometry":{"x":169927.33000000101,"y":2542751.4600000028}},{"attributes":{"ID":495186,"DIS_CODE":0,"TOWNNAME":"東區","LI":"龍山里","LIN":"8鄰","STREET":"光華街","SECT":" ","MAREA":" ","LANE":" ","ALLEY":" ","HOUSE_NO":"８３號","E_COORD97":169926.01999999999,"N_COORD97":2542770.7799999998,"ADDRESS":"光華街８３號","OBJECTID":495159},"geometry":{"x":169926.01999999955,"y":2542770.7800000031}},{"attributes":{"ID":495187,"DIS_CODE":0,"TOWNNAME":"東區","LI":"龍山里","LIN":"8鄰","STREET":"光華街","SECT":" ","MAREA":" ","LANE":" ","ALLEY":" ","HOUSE_NO":"８３之１號","E_COORD97":169922.73999999999,"N_COORD97":2542765.54,"ADDRESS":"光華街８３之１號","OBJECTID":495160},"geometry":{"x":169922.74000000115,"y":2542765.540000001}},{"attributes":{"ID":495188,"DIS_CODE":0,"TOWNNAME":"東區","LI":"龍山里","LIN":"8鄰","STREET":"光華街","SECT":" ","MAREA":" ","LANE":" ","ALLEY":" ","HOUSE_NO":"８３之２號","E_COORD97":169919.14000000001,"N_COORD97":2542760.6299999999,"ADDRESS":"光華街８３之２號","OBJECTID":495161},"geometry":{"x":169919.14000000153,"y":2542760.629999999}},{"attributes":{"ID":495189,"DIS_CODE":0,"TOWNNAME":"東區","LI":"龍山里","LIN":"8鄰","STREET":"光華街","SECT":" ","MAREA":" ","LANE":" ","ALLEY":" ","HOUSE_NO":"８３之３號","E_COORD97":169913.89999999999,"N_COORD97":2542754.4100000001,"ADDRESS":"光華街８３之３號","OBJECTID":495162},"geometry":{"x":169913.90000000037,"y":2542754.410000002}},{"attributes":{"ID":495190,"DIS_CODE":0,"TOWNNAME":"東區","LI":"龍山里","LIN":"8鄰","STREET":"光華街","SECT":" ","MAREA":" ","LANE":" ","ALLEY":" ","HOUSE_NO":"８５號","E_COORD97":169908.98999999999,"N_COORD97":2542781.9199999999,"ADDRESS":"光華街８５號","OBJECTID":495163},"geometry":{"x":169908.99000000115,"y":2542781.9200000018}},{"attributes":{"ID":495191,"DIS_CODE":0,"TOWNNAME":"東區","LI":"龍山里","LIN":"8鄰","STREET":"光華街","SECT":" ","MAREA":" ","LANE":" ","ALLEY":" ","HOUSE_NO":"８５之１號","E_COORD97":169905.39000000001,"N_COORD97":2542777.6600000001,"ADDRESS":"光華街８５之１號","OBJECTID":495164},"geometry":{"x":169905.38999999873,"y":2542777.6600000001}},{"attributes":{"ID":495192,"DIS_CODE":0,"TOWNNAME":"東區","LI":"龍山里","LIN":"8鄰","STREET":"光華街","SECT":" ","MAREA":" ","LANE":" ","ALLEY":" ","HOUSE_NO":"８５之２號","E_COORD97":169902.44,"N_COORD97":2542773.0800000001,"ADDRESS":"光華街８５之２號","OBJECTID":495165},"geometry":{"x":169902.43999999948,"y":2542773.0800000019}},{"attributes":{"ID":495193,"DIS_CODE":0,"TOWNNAME":"東區","LI":"龍山里","LIN":"8鄰","STREET":"光華街","SECT":" ","MAREA":" ","LANE":" ","ALLEY":" ","HOUSE_NO":"８５之３號","E_COORD97":169896.22,"N_COORD97":2542763.9100000001,"ADDRESS":"光華街８５之３號","OBJECTID":495166},"geometry":{"x":169896.21999999974,"y":2542763.9100000039}},{"attributes":{"ID":495194,"DIS_CODE":0,"TOWNNAME":"東區","LI":"龍山里","LIN":"8鄰","STREET":"光華街","SECT":" ","MAREA":" ","LANE":" ","ALLEY":" ","HOUSE_NO":"８７號","E_COORD97":169892.95000000001,"N_COORD97":2542795.6699999999,"ADDRESS":"光華街８７號","OBJECTID":495167},"geometry":{"x":169892.95000000019,"y":2542795.6700000037}},{"attributes":{"ID":495195,"DIS_CODE":0,"TOWNNAME":"東區","LI":"龍山里","LIN":"8鄰","STREET":"光華街","SECT":" ","MAREA":" ","LANE":" ","ALLEY":" ","HOUSE_NO":"８７之１號","E_COORD97":169890.98000000001,"N_COORD97":2542792.3999999999,"ADDRESS":"光華街８７之１號","OBJECTID":495168},"geometry":{"x":169890.98000000138,"y":2542792.4000000022}},{"attributes":{"ID":495196,"DIS_CODE":0,"TOWNNAME":"東區","LI":"龍山里","LIN":"8鄰","STREET":"光華街","SECT":" ","MAREA":" ","LANE":" ","ALLEY":" ","HOUSE_NO":"８７之２號","E_COORD97":169889.01999999999,"N_COORD97":2542787.8100000001,"ADDRESS":"光華街８７之２號","OBJECTID":495169},"geometry":{"x":169889.01999999955,"y":2542787.8100000005}},{"attributes":{"ID":495197,"DIS_CODE":0,"TOWNNAME":"東區","LI":"龍山里","LIN":"8鄰","STREET":"光華街","SECT":" ","MAREA":" ","LANE":" ","ALLEY":" ","HOUSE_NO":"８７之３號","E_COORD97":169886.73000000001,"N_COORD97":2542783.23,"ADDRESS":"光華街８７之３號","OBJECTID":495170},"geometry":{"x":169886.73000000045,"y":2542783.2300000023}},{"attributes":{"ID":495198,"DIS_CODE":0,"TOWNNAME":"東區","LI":"龍山里","LIN":"8鄰","STREET":"光華街","SECT":" ","MAREA":" ","LANE":" ","ALLEY":" ","HOUSE_NO":"８７之５號","E_COORD97":169883.78,"N_COORD97":2542778.6400000001,"ADDRESS":"光華街８７之５號","OBJECTID":495171},"geometry":{"x":169883.78000000119,"y":2542778.6400000006}},{"attributes":{"ID":495199,"DIS_CODE":0,"TOWNNAME":"東區","LI":"龍山里","LIN":"8鄰","STREET":"光華街","SECT":" ","MAREA":" ","LANE":" ","ALLEY":" ","HOUSE_NO":"８７之６號","E_COORD97":169881.16,"N_COORD97":2542771.4399999999,"ADDRESS":"光華街８７之６號","OBJECTID":495172},"geometry":{"x":169881.16000000108,"y":2542771.4399999995}},{"attributes":{"ID":495200,"DIS_CODE":0,"TOWNNAME":"東區","LI":"龍山里","LIN":"8鄰","STREET":"府連東路","SECT":" ","MAREA":" ","LANE":" ","ALLEY":" ","HOUSE_NO":"４５號","E_COORD97":169853.31,"N_COORD97":2542757.7000000002,"ADDRESS":"府連東路４５號","OBJECTID":495173},"geometry":{"x":169853.30999999866,"y":2542757.700000003}},{"attributes":{"ID":495201,"DIS_CODE":0,"TOWNNAME":"東區","LI":"龍山里","LIN":"8鄰","STREET":"府連東路","SECT":" ","MAREA":" ","LANE":" ","ALLEY":" ","HOUSE_NO":"４７號","E_COORD97":169858.07999999999,"N_COORD97":2542756.3799999999,"ADDRESS":"府連東路４７號","OBJECTID":495174},"geometry":{"x":169858.08000000007,"y":2542756.3800000008}},{"attributes":{"ID":495202,"DIS_CODE":0,"TOWNNAME":"東區","LI":"龍山里","LIN":"8鄰","STREET":"府連東路","SECT":" ","MAREA":" ","LANE":" ","ALLEY":" ","HOUSE_NO":"４９號","E_COORD97":169862.84,"N_COORD97":2542754.79,"ADDRESS":"府連東路４９號","OBJECTID":495175},"geometry":{"x":169862.83999999985,"y":2542754.790000001}},{"attributes":{"ID":495203,"DIS_CODE":0,"TOWNNAME":"東區","LI":"龍山里","LIN":"8鄰","STREET":"府連東路","SECT":" ","MAREA":" ","LANE":" ","ALLEY":" ","HOUSE_NO":"５１號","E_COORD97":169868.39000000001,"N_COORD97":2542753.73,"ADDRESS":"府連東路５１號","OBJECTID":495176},"geometry":{"x":169868.3900000006,"y":2542753.7300000004}},{"attributes":{"ID":495204,"DIS_CODE":0,"TOWNNAME":"東區","LI":"龍山里","LIN":"8鄰","STREET":"府連東路","SECT":" ","MAREA":" ","LANE":" ","ALLEY":" ","HOUSE_NO":"５５號","E_COORD97":169881.62,"N_COORD97":2542749.5,"ADDRESS":"府連東路５５號","OBJECTID":495177},"geometry":{"x":169881.62000000011,"y":2542749.5000000037}},{"attributes":{"ID":495205,"DIS_CODE":0,"TOWNNAME":"東區","LI":"龍山里","LIN":"8鄰","STREET":"府連東路","SECT":" ","MAREA":" ","LANE":" ","ALLEY":" ","HOUSE_NO":"５７號","E_COORD97":169888.5,"N_COORD97":2542747.6499999999,"ADDRESS":"府連東路５７號","OBJECTID":495178},"geometry":{"x":169888.50000000093,"y":2542747.6500000004}},{"attributes":{"ID":495206,"DIS_CODE":0,"TOWNNAME":"東區","LI":"龍山里","LIN":"8鄰","STREET":"府連東路","SECT":" ","MAREA":" ","LANE":" ","ALLEY":" ","HOUSE_NO":"５９號","E_COORD97":169896.44,"N_COORD97":2542743.9399999999,"ADDRESS":"府連東路５９號","OBJECTID":495179},"geometry":{"x":169896.44000000134,"y":2542743.9400000013}},{"attributes":{"ID":495207,"DIS_CODE":0,"TOWNNAME":"東區","LI":"龍山里","LIN":"8鄰","STREET":"府連東路","SECT":" ","MAREA":" ","LANE":" ","ALLEY":" ","HOUSE_NO":"６１號","E_COORD97":169902,"N_COORD97":2542741.2999999998,"ADDRESS":"府連東路６１號","OBJECTID":495180},"geometry":{"x":169902.00000000093,"y":2542741.2999999989}},{"attributes":{"ID":495208,"DIS_CODE":0,"TOWNNAME":"東區","LI":"龍山里","LIN":"8鄰","STREET":"府連東路","SECT":" ","MAREA":" ","LANE":" ","ALLEY":" ","HOUSE_NO":"６３號","E_COORD97":169907.54999999999,"N_COORD97":2542738.6499999999,"ADDRESS":"府連東路６３號","OBJECTID":495181},"geometry":{"x":169907.54999999981,"y":2542738.6500000041}},{"attributes":{"ID":495209,"DIS_CODE":0,"TOWNNAME":"東區","LI":"龍山里","LIN":"8鄰","STREET":"府連東路","SECT":" ","MAREA":" ","LANE":" ","ALLEY":" ","HOUSE_NO":"６５號","E_COORD97":169913.10999999999,"N_COORD97":2542737.8599999999,"ADDRESS":"府連東路６５號","OBJECTID":495182},"geometry":{"x":169913.1099999994,"y":2542737.8600000013}},{"attributes":{"ID":495210,"DIS_CODE":0,"TOWNNAME":"東區","LI":"龍山里","LIN":"8鄰","STREET":"府連東路","SECT":" ","MAREA":" ","LANE":" ","ALLEY":" ","HOUSE_NO":"６７號","E_COORD97":169919.98999999999,"N_COORD97":2542735.48,"ADDRESS":"府連東路６７號","OBJECTID":495183},"geometry":{"x":169919.99000000022,"y":2542735.4800000004}},{"attributes":{"ID":495211,"DIS_CODE":0,"TOWNNAME":"東區","LI":"龍山里","LIN":"8鄰","STREET":"長榮路","SECT":"一段","MAREA":" ","LANE":" ","ALLEY":" ","HOUSE_NO":"１８８號","E_COORD97":169855.25,"N_COORD97":2542803.6899999999,"ADDRESS":"長榮路一段１８８號","OBJECTID":495184},"geometry":{"x":169855.25,"y":2542803.6899999995}},{"attributes":{"ID":495212,"DIS_CODE":0,"TOWNNAME":"東區","LI":"文聖里","LIN":"8鄰","STREET":"裕文路","SECT":" ","MAREA":" ","LANE":" ","ALLEY":" ","HOUSE_NO":"８７號","E_COORD97":172001.19,"N_COORD97":2542595.98,"ADDRESS":"裕文路８７號","OBJECTID":495185},"geometry":{"x":172001.19000000227,"y":2542595.9800000004}},{"attributes":{"ID":495213,"DIS_CODE":0,"TOWNNAME":"東區","LI":"文聖里","LIN":"8鄰","STREET":"裕平路","SECT":" ","MAREA":" ","LANE":" ","ALLEY":" ","HOUSE_NO":"３６號","E_COORD97":172030.88,"N_COORD97":2542810.0699999998,"ADDRESS":"裕平路３６號","OBJECTID":495186},"geometry":{"x":172030.87999999989,"y":2542810.0699999984}},{"attributes":{"ID":495214,"DIS_CODE":0,"TOWNNAME":"東區","LI":"裕聖里","LIN":"8鄰","STREET":"裕孝三街","SECT":" ","MAREA":" ","LANE":" ","ALLEY":" ","HOUSE_NO":"１１２號","E_COORD97":172715.73999999999,"N_COORD97":2542045.54,"ADDRESS":"裕孝三街１１２號","OBJECTID":495187},"geometry":{"x":172715.74000000022,"y":2542045.5399999991}},{"attributes":{"ID":495215,"DIS_CODE":0,"TOWNNAME":"東區","LI":"裕聖里","LIN":"8鄰","STREET":"裕孝三街","SECT":" ","MAREA":" ","LANE":" ","ALLEY":" ","HOUSE_NO":"１１６號","E_COORD97":172715.51999999999,"N_COORD97":2542050.29,"ADDRESS":"裕孝三街１１６號","OBJECTID":495188},"geometry":{"x":172715.52000000048,"y":2542050.2899999991}},{"attributes":{"ID":495216,"DIS_CODE":0,"TOWNNAME":"東區","LI":"裕聖里","LIN":"8鄰","STREET":"裕孝三街","SECT":" ","MAREA":" ","LANE":" ","ALLEY":" ","HOUSE_NO":"１１８號","E_COORD97":172715.29000000001,"N_COORD97":2542056.6299999999,"ADDRESS":"裕孝三街１１８號","OBJECTID":495189},"geometry":{"x":172715.29000000004,"y":2542056.6300000008}},{"attributes":{"ID":495217,"DIS_CODE":0,"TOWNNAME":"東區","LI":"裕聖里","LIN":"8鄰","STREET":"裕孝三街","SECT":" ","MAREA":" ","LANE":" ","ALLEY":" ","HOUSE_NO":"１２０號","E_COORD97":172715.07000000001,"N_COORD97":2542062.7400000002,"ADDRESS":"裕孝三街１２０號","OBJECTID":495190},"geometry":{"x":172715.0700000003,"y":2542062.7400000002}},{"attributes":{"ID":495218,"DIS_CODE":0,"TOWNNAME":"東區","LI":"裕聖里","LIN":"8鄰","STREET":"裕孝三街","SECT":" ","MAREA":" ","LANE":" ","ALLEY":" ","HOUSE_NO":"１２２號","E_COORD97":172734.31,"N_COORD97":2542062.9700000002,"ADDRESS":"裕孝三街１２２號","OBJECTID":495191},"geometry":{"x":172734.31000000052,"y":2542062.9700000025}},{"attributes":{"ID":495219,"DIS_CODE":0,"TOWNNAME":"東區","LI":"裕聖里","LIN":"8鄰","STREET":"裕孝三街","SECT":" ","MAREA":" ","LANE":" ","ALLEY":" ","HOUSE_NO":"１２６號","E_COORD97":172734.07999999999,"N_COORD97":2542057.0800000001,"ADDRESS":"裕孝三街１２６號","OBJECTID":495192},"geometry":{"x":172734.08000000101,"y":2542057.0800000001}},{"attributes":{"ID":495220,"DIS_CODE":0,"TOWNNAME":"東區","LI":"裕聖里","LIN":"8鄰","STREET":"裕孝三街","SECT":" ","MAREA":" ","LANE":" ","ALLEY":" ","HOUSE_NO":"１２８號","E_COORD97":172734.53,"N_COORD97":2542050.29,"ADDRESS":"裕孝三街１２８號","OBJECTID":495193},"geometry":{"x":172734.53000000212,"y":2542050.2899999991}},{"attributes":{"ID":495221,"DIS_CODE":0,"TOWNNAME":"東區","LI":"裕聖里","LIN":"8鄰","STREET":"裕孝三街","SECT":" ","MAREA":" ","LANE":" ","ALLEY":" ","HOUSE_NO":"１３０號","E_COORD97":172734.98000000001,"N_COORD97":2542044.6299999999,"ADDRESS":"裕孝三街１３０號","OBJECTID":495194},"geometry":{"x":172734.98000000231,"y":2542044.629999999}},{"attributes":{"ID":495222,"DIS_CODE":0,"TOWNNAME":"善化區","LI":"文昌里","LIN":"8鄰","STREET":"大同路","SECT":" ","MAREA":" ","LANE":" ","ALLEY":" ","HOUSE_NO":"２２５號","E_COORD97":177424.45000000001,"N_COORD97":2558727.75,"ADDRESS":"大同路２２５號","OBJECTID":495195},"geometry":{"x":177424.45000000112,"y":2558727.7500000019}},{"attributes":{"ID":495223,"DIS_CODE":0,"TOWNNAME":"善化區","LI":"北關里","LIN":"8鄰","STREET":"進學路","SECT":" ","MAREA":" ","LANE":" ","ALLEY":" ","HOUSE_NO":"５６號","E_COORD97":177262.32000000001,"N_COORD97":2559294,"ADDRESS":"進學路５６號","OBJECTID":495196},"geometry":{"x":177262.32000000123,"y":2559294}},{"attributes":{"ID":495224,"DIS_CODE":0,"TOWNNAME":"善化區","LI":"北關里","LIN":"8鄰","STREET":"進學路","SECT":" ","MAREA":" ","LANE":" ","ALLEY":" ","HOUSE_NO":"２１號之３","E_COORD97":177252.504602,"N_COORD97":2559242.18579,"ADDRESS":"進學路２１號之３","OBJECTID":495197},"geometry":{"x":177252.50460200012,"y":2559242.1857930012}},{"attributes":{"ID":495225,"DIS_CODE":0,"TOWNNAME":"善化區","LI":"南關里","LIN":"8鄰","STREET":"三民路","SECT":" ","MAREA":" ","LANE":" ","ALLEY":" ","HOUSE_NO":"１７號之２６","E_COORD97":176935.89000000001,"N_COORD97":2558736.52,"ADDRESS":"三民路１７號之２６","OBJECTID":495198},"geometry":{"x":176935.8900000006,"y":2558736.5199999996}},{"attributes":{"ID":495226,"DIS_CODE":0,"TOWNNAME":"善化區","LI":"南關里","LIN":"8鄰","STREET":"三民路","SECT":" ","MAREA":" ","LANE":" ","ALLEY":" ","HOUSE_NO":"１７號之１２","E_COORD97":176951.53,"N_COORD97":2558751.27,"ADDRESS":"三民路１７號之１２","OBJECTID":495199},"geometry":{"x":176951.53000000026,"y":2558751.2700000014}},{"attributes":{"ID":495227,"DIS_CODE":0,"TOWNNAME":"善化區","LI":"文昌里","LIN":"8鄰","STREET":"文昌路","SECT":" ","MAREA":" ","LANE":" ","ALLEY":" ","HOUSE_NO":"３３之４號","E_COORD97":177358.41,"N_COORD97":2558740.5299999998,"ADDRESS":"文昌路３３之４號","OBJECTID":495200},"geometry":{"x":177358.41000000108,"y":2558740.5299999993}}]}