{"displayFieldName":"TOWNNAME","fieldAliases":{"ID":"ID","DIS_CODE":"DIS_CODE","TOWNNAME":"TOWNNAME","LI":"LI","LIN":"LIN","STREET":"STREET","SECT":"SECT","MAREA":"MAREA","LANE":"LANE","ALLEY":"ALLEY","HOUSE_NO":"HOUSE_NO","E_COORD97":"E_COORD97","N_COORD97":"N_COORD97","ADDRESS":"ADDRESS","OBJECTID":"OBJECTID"},"geometryType":"esriGeometryPoint","spatialReference":{"wkid":102443,"latestWkid":3826},"fields":[{"name":"ID","type":"esriFieldTypeDouble","alias":"ID"},{"name":"DIS_CODE","type":"esriFieldTypeInteger","alias":"DIS_CODE"},{"name":"TOWNNAME","type":"esriFieldTypeString","alias":"TOWNNAME","length":8},{"name":"LI","type":"esriFieldTypeString","alias":"LI","length":8},{"name":"LIN","type":"esriFieldTypeString","alias":"LIN","length":12},{"name":"STREET","type":"esriFieldTypeString","alias":"STREET","length":20},{"name":"SECT","type":"esriFieldTypeString","alias":"SECT","length":8},{"name":"MAREA","type":"esriFieldTypeString","alias":"MAREA","length":12},{"name":"LANE","type":"esriFieldTypeString","alias":"LANE","length":10},{"name":"ALLEY","type":"esriFieldTypeString","alias":"ALLEY","length":10},{"name":"HOUSE_NO","type":"esriFieldTypeString","alias":"HOUSE_NO","length":20},{"name":"E_COORD97","type":"esriFieldTypeDouble","alias":"E_COORD97"},{"name":"N_COORD97","type":"esriFieldTypeDouble","alias":"N_COORD97"},{"name":"ADDRESS","type":"esriFieldTypeString","alias":"ADDRESS","length":50},{"name":"OBJECTID","type":"esriFieldTypeOID","alias":"OBJECTID"}],"features":[{"attributes":{"ID":104001,"DIS_CODE":0,"TOWNNAME":"安定區","LI":"港南里","LIN":"9鄰","STREET":" ","SECT":" ","MAREA":"港口","LANE":" ","ALLEY":" ","HOUSE_NO":"６７之５號","E_COORD97":171414.64000000001,"N_COORD97":2554357.2999999998,"ADDRESS":"港口６７之５號","OBJECTID":104001},"geometry":{"x":171414.6400000006,"y":2554357.3000000026}},{"attributes":{"ID":104002,"DIS_CODE":0,"TOWNNAME":"安定區","LI":"港南里","LIN":"9鄰","STREET":" ","SECT":" ","MAREA":"港口","LANE":" ","ALLEY":" ","HOUSE_NO":"７３號之１","E_COORD97":171373.64000000001,"N_COORD97":2554284.2999999998,"ADDRESS":"港口７３之１號","OBJECTID":104002},"geometry":{"x":171373.64000000153,"y":2554284.3000000007}},{"attributes":{"ID":104003,"DIS_CODE":0,"TOWNNAME":"安定區","LI":"保西里","LIN":"9鄰","STREET":" ","SECT":" ","MAREA":"安定","LANE":" ","ALLEY":" ","HOUSE_NO":"４３０號之３","E_COORD97":171618.45000000001,"N_COORD97":2557826.3199999998,"ADDRESS":"安定４３０號之３","OBJECTID":104003},"geometry":{"x":171618.45000000112,"y":2557826.3200000003}},{"attributes":{"ID":104004,"DIS_CODE":0,"TOWNNAME":"安定區","LI":"港口里","LIN":"9鄰","STREET":" ","SECT":" ","MAREA":"港口","LANE":" ","ALLEY":" ","HOUSE_NO":"２９７之１號","E_COORD97":171375.98999999999,"N_COORD97":2554697.2999999998,"ADDRESS":"港口２９７之１號","OBJECTID":104004},"geometry":{"x":171375.99000000022,"y":2554697.3000000026}},{"attributes":{"ID":104005,"DIS_CODE":0,"TOWNNAME":"安定區","LI":"保西里","LIN":"9鄰","STREET":" ","SECT":" ","MAREA":"安定","LANE":" ","ALLEY":" ","HOUSE_NO":"４２８之１號","E_COORD97":171633.51999999999,"N_COORD97":2557789.3199999998,"ADDRESS":"安定４２８之１號","OBJECTID":104005},"geometry":{"x":171633.52000000142,"y":2557789.3200000003}},{"attributes":{"ID":104006,"DIS_CODE":0,"TOWNNAME":"安定區","LI":"港南里","LIN":"9鄰","STREET":" ","SECT":" ","MAREA":"港口","LANE":" ","ALLEY":" ","HOUSE_NO":"６７號之１","E_COORD97":171419.17999999999,"N_COORD97":2554347.2999999998,"ADDRESS":"港口６７號之１","OBJECTID":104006},"geometry":{"x":171419.18000000156,"y":2554347.3000000026}},{"attributes":{"ID":104007,"DIS_CODE":0,"TOWNNAME":"安定區","LI":"港口里","LIN":"9鄰","STREET":" ","SECT":" ","MAREA":"港口","LANE":" ","ALLEY":" ","HOUSE_NO":"２９８號","E_COORD97":171381.59,"N_COORD97":2554727.25,"ADDRESS":"港口２９８號","OBJECTID":104007},"geometry":{"x":171381.59000000078,"y":2554727.2500000019}},{"attributes":{"ID":104008,"DIS_CODE":0,"TOWNNAME":"安定區","LI":"港口里","LIN":"9鄰","STREET":" ","SECT":" ","MAREA":"港口","LANE":" ","ALLEY":" ","HOUSE_NO":"２９９號","E_COORD97":171356.98999999999,"N_COORD97":2554719.25,"ADDRESS":"港口２９９號","OBJECTID":104008},"geometry":{"x":171356.99000000115,"y":2554719.2500000037}},{"attributes":{"ID":104009,"DIS_CODE":0,"TOWNNAME":"白河區","LI":"內角里","LIN":"1鄰","STREET":" ","SECT":" ","MAREA":"內角","LANE":" ","ALLEY":" ","HOUSE_NO":"１０號","E_COORD97":192740.47,"N_COORD97":2588506.3300000001,"ADDRESS":"內角１０號","OBJECTID":104009},"geometry":{"x":192740.46999999974,"y":2588506.3300000001}},{"attributes":{"ID":104010,"DIS_CODE":0,"TOWNNAME":"白河區","LI":"內角里","LIN":"1鄰","STREET":" ","SECT":" ","MAREA":"內角","LANE":" ","ALLEY":" ","HOUSE_NO":"１１號","E_COORD97":192729.45000000001,"N_COORD97":2588487.29,"ADDRESS":"內角１１號","OBJECTID":104010},"geometry":{"x":192729.45000000019,"y":2588487.290000001}},{"attributes":{"ID":104011,"DIS_CODE":0,"TOWNNAME":"白河區","LI":"內角里","LIN":"1鄰","STREET":" ","SECT":" ","MAREA":"內角","LANE":" ","ALLEY":" ","HOUSE_NO":"１２之１號","E_COORD97":192764.17999999999,"N_COORD97":2588491.6800000002,"ADDRESS":"內角１２之１號","OBJECTID":104011},"geometry":{"x":192764.1799999997,"y":2588491.6800000016}},{"attributes":{"ID":104012,"DIS_CODE":0,"TOWNNAME":"白河區","LI":"內角里","LIN":"1鄰","STREET":" ","SECT":" ","MAREA":"內角","LANE":" ","ALLEY":" ","HOUSE_NO":"１２之２號","E_COORD97":192779.14000000001,"N_COORD97":2588473.8500000001,"ADDRESS":"內角１２之２號","OBJECTID":104012},"geometry":{"x":192779.1400000006,"y":2588473.8500000015}},{"attributes":{"ID":104013,"DIS_CODE":0,"TOWNNAME":"白河區","LI":"內角里","LIN":"1鄰","STREET":" ","SECT":" ","MAREA":"內角","LANE":" ","ALLEY":" ","HOUSE_NO":"１２之４號","E_COORD97":192783.01000000001,"N_COORD97":2588479.4199999999,"ADDRESS":"內角１２之４號","OBJECTID":104013},"geometry":{"x":192783.01000000164,"y":2588479.4200000037}},{"attributes":{"ID":104014,"DIS_CODE":0,"TOWNNAME":"白河區","LI":"內角里","LIN":"1鄰","STREET":" ","SECT":" ","MAREA":"內角","LANE":" ","ALLEY":" ","HOUSE_NO":"１２號","E_COORD97":192755.72,"N_COORD97":2588468.96,"ADDRESS":"內角１２號","OBJECTID":104014},"geometry":{"x":192755.71999999974,"y":2588468.9600000009}},{"attributes":{"ID":104015,"DIS_CODE":0,"TOWNNAME":"北區","LI":"永祥里","LIN":"9鄰","STREET":"實踐街","SECT":" ","MAREA":" ","LANE":"７１巷","ALLEY":"１００弄","HOUSE_NO":"８號之１","E_COORD97":170022.14999999999,"N_COORD97":2546276.1200000001,"ADDRESS":"實踐街７１巷１００弄８號之１","OBJECTID":104015},"geometry":{"x":170022.1500000013,"y":2546276.1200000029}},{"attributes":{"ID":104016,"DIS_CODE":0,"TOWNNAME":"北區","LI":"永祥里","LIN":"9鄰","STREET":"實踐街","SECT":" ","MAREA":" ","LANE":"７１巷","ALLEY":"１００弄","HOUSE_NO":"９號","E_COORD97":170024.84,"N_COORD97":2546288.54,"ADDRESS":"實踐街７１巷１００弄９號","OBJECTID":104016},"geometry":{"x":170024.84000000078,"y":2546288.540000001}},{"attributes":{"ID":104017,"DIS_CODE":0,"TOWNNAME":"北區","LI":"永祥里","LIN":"9鄰","STREET":"實踐街","SECT":" ","MAREA":" ","LANE":"７１巷","ALLEY":"１２０弄","HOUSE_NO":"１１號","E_COORD97":170030.26000000001,"N_COORD97":2546328.3199999998,"ADDRESS":"實踐街７１巷１２０弄１１號","OBJECTID":104017},"geometry":{"x":170030.26000000164,"y":2546328.3200000022}},{"attributes":{"ID":104018,"DIS_CODE":0,"TOWNNAME":"白河區","LI":"內角里","LIN":"1鄰","STREET":" ","SECT":" ","MAREA":"內角","LANE":" ","ALLEY":" ","HOUSE_NO":"１之１號","E_COORD97":192752.66,"N_COORD97":2588355.6600000001,"ADDRESS":"內角１之１號","OBJECTID":104018},"geometry":{"x":192752.66000000108,"y":2588355.6599999983}},{"attributes":{"ID":104019,"DIS_CODE":0,"TOWNNAME":"白河區","LI":"內角里","LIN":"1鄰","STREET":" ","SECT":" ","MAREA":"內角","LANE":" ","ALLEY":" ","HOUSE_NO":"３之３號","E_COORD97":192840.75,"N_COORD97":2588537.1600000001,"ADDRESS":"內角３之３號","OBJECTID":104019},"geometry":{"x":192840.75,"y":2588537.160000002}},{"attributes":{"ID":104020,"DIS_CODE":0,"TOWNNAME":"安南區","LI":"布袋里","LIN":"1鄰","STREET":"工明南二路","SECT":" ","MAREA":" ","LANE":" ","ALLEY":" ","HOUSE_NO":"１８之１號","E_COORD97":168802.59,"N_COORD97":2551022.6200000001,"ADDRESS":"工明南二路１８之１號","OBJECTID":104020},"geometry":{"x":168802.59000000171,"y":2551022.6200000029}},{"attributes":{"ID":104021,"DIS_CODE":0,"TOWNNAME":"安南區","LI":"布袋里","LIN":"1鄰","STREET":"工明二路","SECT":" ","MAREA":" ","LANE":" ","ALLEY":" ","HOUSE_NO":"６１號","E_COORD97":168779.67999999999,"N_COORD97":2551228.6200000001,"ADDRESS":"工明二路６１號","OBJECTID":104021},"geometry":{"x":168779.68000000156,"y":2551228.620000001}},{"attributes":{"ID":104022,"DIS_CODE":0,"TOWNNAME":"北區","LI":"永祥里","LIN":"9鄰","STREET":"實踐街","SECT":" ","MAREA":" ","LANE":"７１巷","ALLEY":"１２０弄","HOUSE_NO":"１３號","E_COORD97":170034.31,"N_COORD97":2546327.46,"ADDRESS":"實踐街７１巷１２０弄１３號","OBJECTID":104022},"geometry":{"x":170034.30999999959,"y":2546327.4600000046}},{"attributes":{"ID":104023,"DIS_CODE":0,"TOWNNAME":"北區","LI":"永祥里","LIN":"9鄰","STREET":"實踐街","SECT":" ","MAREA":" ","LANE":"７１巷","ALLEY":"１２０弄","HOUSE_NO":"１５號","E_COORD97":170040.23999999999,"N_COORD97":2546326.9700000002,"ADDRESS":"實踐街７１巷１２０弄１５號","OBJECTID":104023},"geometry":{"x":170040.24000000022,"y":2546326.9699999988}},{"attributes":{"ID":104024,"DIS_CODE":0,"TOWNNAME":"北區","LI":"永祥里","LIN":"9鄰","STREET":"實踐街","SECT":" ","MAREA":" ","LANE":"７１巷","ALLEY":"１２０弄","HOUSE_NO":"１號","E_COORD97":170007.07000000001,"N_COORD97":2546332.98,"ADDRESS":"實踐街７１巷１２０弄１號","OBJECTID":104024},"geometry":{"x":170007.07000000123,"y":2546332.9800000004}},{"attributes":{"ID":104025,"DIS_CODE":0,"TOWNNAME":"白河區","LI":"內角里","LIN":"1鄰","STREET":" ","SECT":" ","MAREA":"內角","LANE":" ","ALLEY":" ","HOUSE_NO":"７號","E_COORD97":192801.84,"N_COORD97":2588533.98,"ADDRESS":"內角７號","OBJECTID":104025},"geometry":{"x":192801.84000000078,"y":2588533.9800000042}},{"attributes":{"ID":104026,"DIS_CODE":0,"TOWNNAME":"白河區","LI":"內角里","LIN":"1鄰","STREET":" ","SECT":" ","MAREA":"內角","LANE":" ","ALLEY":" ","HOUSE_NO":"８之１號","E_COORD97":192794.12,"N_COORD97":2588498.5800000001,"ADDRESS":"內角８之１號","OBJECTID":104026},"geometry":{"x":192794.12000000011,"y":2588498.5799999982}},{"attributes":{"ID":104027,"DIS_CODE":0,"TOWNNAME":"安定區","LI":"保西里","LIN":"9鄰","STREET":" ","SECT":" ","MAREA":"安定","LANE":" ","ALLEY":" ","HOUSE_NO":"４２０號","E_COORD97":171687.62,"N_COORD97":2557805.3199999998,"ADDRESS":"安定４２０號","OBJECTID":104027},"geometry":{"x":171687.61999999918,"y":2557805.3200000022}},{"attributes":{"ID":104028,"DIS_CODE":0,"TOWNNAME":"安定區","LI":"蘇厝里","LIN":"9鄰","STREET":" ","SECT":" ","MAREA":"蘇厝","LANE":" ","ALLEY":" ","HOUSE_NO":"３５５號之１","E_COORD97":172983.54999999999,"N_COORD97":2558879.2999999998,"ADDRESS":"蘇厝３５５號之１","OBJECTID":104028},"geometry":{"x":172983.55000000075,"y":2558879.3000000007}},{"attributes":{"ID":104029,"DIS_CODE":0,"TOWNNAME":"安定區","LI":"保西里","LIN":"9鄰","STREET":" ","SECT":" ","MAREA":"安定","LANE":" ","ALLEY":" ","HOUSE_NO":"４３０號之１","E_COORD97":171617.85000000001,"N_COORD97":2557816.3199999998,"ADDRESS":"安定４３０號之１","OBJECTID":104029},"geometry":{"x":171617.85000000149,"y":2557816.3200000003}},{"attributes":{"ID":104030,"DIS_CODE":0,"TOWNNAME":"安定區","LI":"保西里","LIN":"9鄰","STREET":" ","SECT":" ","MAREA":"安定","LANE":" ","ALLEY":" ","HOUSE_NO":"４２８號","E_COORD97":171642.49348,"N_COORD97":2557782.40227,"ADDRESS":"安定４２８號","OBJECTID":104030},"geometry":{"x":171642.49347999971,"y":2557782.402265003}},{"attributes":{"ID":104031,"DIS_CODE":0,"TOWNNAME":"安定區","LI":"保西里","LIN":"9鄰","STREET":" ","SECT":" ","MAREA":"安定","LANE":" ","ALLEY":" ","HOUSE_NO":"４３１號之１","E_COORD97":171623.04999999999,"N_COORD97":2557858.3199999998,"ADDRESS":"安定４３１號之１","OBJECTID":104031},"geometry":{"x":171623.04999999981,"y":2557858.3199999984}},{"attributes":{"ID":104032,"DIS_CODE":0,"TOWNNAME":"安定區","LI":"港南里","LIN":"9鄰","STREET":" ","SECT":" ","MAREA":"港口","LANE":" ","ALLEY":" ","HOUSE_NO":"６５之１號","E_COORD97":171441.04000000001,"N_COORD97":2554364.2999999998,"ADDRESS":"港口６５之１號","OBJECTID":104032},"geometry":{"x":171441.04000000097,"y":2554364.3000000026}},{"attributes":{"ID":104033,"DIS_CODE":0,"TOWNNAME":"北區","LI":"永祥里","LIN":"9鄰","STREET":"實踐街","SECT":" ","MAREA":" ","LANE":"７１巷","ALLEY":"１２０弄","HOUSE_NO":"２號","E_COORD97":170019.22,"N_COORD97":2546317.79,"ADDRESS":"實踐街７１巷１２０弄２號","OBJECTID":104033},"geometry":{"x":170019.22000000067,"y":2546317.790000001}},{"attributes":{"ID":104034,"DIS_CODE":0,"TOWNNAME":"安定區","LI":"港南里","LIN":"9鄰","STREET":" ","SECT":" ","MAREA":"港口","LANE":" ","ALLEY":" ","HOUSE_NO":"６７號","E_COORD97":171419.54000000001,"N_COORD97":2554373.25,"ADDRESS":"港口６７號","OBJECTID":104034},"geometry":{"x":171419.54000000004,"y":2554373.2500000037}},{"attributes":{"ID":104035,"DIS_CODE":0,"TOWNNAME":"安定區","LI":"港南里","LIN":"9鄰","STREET":" ","SECT":" ","MAREA":"港口","LANE":" ","ALLEY":" ","HOUSE_NO":"６６之１號","E_COORD97":171407.64000000001,"N_COORD97":2554316.2999999998,"ADDRESS":"港口６６之１號","OBJECTID":104035},"geometry":{"x":171407.6400000006,"y":2554316.3000000045}},{"attributes":{"ID":104036,"DIS_CODE":0,"TOWNNAME":"白河區","LI":"內角里","LIN":"1鄰","STREET":" ","SECT":" ","MAREA":"內角","LANE":" ","ALLEY":" ","HOUSE_NO":"８之２號","E_COORD97":192785.85000000001,"N_COORD97":2588484.0499999998,"ADDRESS":"內角８之２號","OBJECTID":104036},"geometry":{"x":192785.85000000056,"y":2588484.0500000026}},{"attributes":{"ID":104037,"DIS_CODE":0,"TOWNNAME":"白河區","LI":"內角里","LIN":"1鄰","STREET":" ","SECT":" ","MAREA":"內角","LANE":" ","ALLEY":" ","HOUSE_NO":"８之４號","E_COORD97":192798.42999999999,"N_COORD97":2588502.6099999999,"ADDRESS":"內角８之４號","OBJECTID":104037},"geometry":{"x":192798.4299999997,"y":2588502.6100000013}},{"attributes":{"ID":104038,"DIS_CODE":0,"TOWNNAME":"北區","LI":"永祥里","LIN":"9鄰","STREET":"實踐街","SECT":" ","MAREA":" ","LANE":"７１巷","ALLEY":"１２０弄","HOUSE_NO":"３號","E_COORD97":170013.35999999999,"N_COORD97":2546332.2000000002,"ADDRESS":"實踐街７１巷１２０弄３號","OBJECTID":104038},"geometry":{"x":170013.36000000127,"y":2546332.2000000011}},{"attributes":{"ID":104039,"DIS_CODE":0,"TOWNNAME":"北區","LI":"永祥里","LIN":"9鄰","STREET":"實踐街","SECT":" ","MAREA":" ","LANE":"７１巷","ALLEY":"１２０弄","HOUSE_NO":"４號","E_COORD97":170023.53,"N_COORD97":2546316.8399999999,"ADDRESS":"實踐街７１巷１２０弄４號","OBJECTID":104039},"geometry":{"x":170023.53000000026,"y":2546316.839999998}},{"attributes":{"ID":104040,"DIS_CODE":0,"TOWNNAME":"北區","LI":"永祥里","LIN":"9鄰","STREET":"實踐街","SECT":" ","MAREA":" ","LANE":"７１巷","ALLEY":"１２０弄","HOUSE_NO":"５號","E_COORD97":170017.5,"N_COORD97":2546331.3399999999,"ADDRESS":"實踐街７１巷１２０弄５號","OBJECTID":104040},"geometry":{"x":170017.50000000093,"y":2546331.3400000017}},{"attributes":{"ID":104041,"DIS_CODE":0,"TOWNNAME":"白河區","LI":"內角里","LIN":"1鄰","STREET":" ","SECT":" ","MAREA":"內角","LANE":" ","ALLEY":" ","HOUSE_NO":"８之５號","E_COORD97":192791.13,"N_COORD97":2588494.1200000001,"ADDRESS":"內角８之５號","OBJECTID":104041},"geometry":{"x":192791.13000000082,"y":2588494.1200000029}},{"attributes":{"ID":104042,"DIS_CODE":0,"TOWNNAME":"北區","LI":"永祥里","LIN":"9鄰","STREET":"實踐街","SECT":" ","MAREA":" ","LANE":"７１巷","ALLEY":"１２０弄","HOUSE_NO":"６號","E_COORD97":170027.57999999999,"N_COORD97":2546315.98,"ADDRESS":"實踐街７１巷１２０弄６號","OBJECTID":104042},"geometry":{"x":170027.58000000007,"y":2546315.9800000004}},{"attributes":{"ID":104043,"DIS_CODE":0,"TOWNNAME":"北區","LI":"永祥里","LIN":"9鄰","STREET":"實踐街","SECT":" ","MAREA":" ","LANE":"７１巷","ALLEY":"１２０弄","HOUSE_NO":"７號","E_COORD97":170022.23999999999,"N_COORD97":2546330.5600000001,"ADDRESS":"實踐街７１巷１２０弄７號","OBJECTID":104043},"geometry":{"x":170022.23999999929,"y":2546330.5600000024}},{"attributes":{"ID":104044,"DIS_CODE":0,"TOWNNAME":"北區","LI":"永祥里","LIN":"9鄰","STREET":"實踐街","SECT":" ","MAREA":" ","LANE":"７１巷","ALLEY":"１２０弄","HOUSE_NO":"８號","E_COORD97":170031.12,"N_COORD97":2546315.21,"ADDRESS":"實踐街７１巷１２０弄８號","OBJECTID":104044},"geometry":{"x":170031.12000000011,"y":2546315.2100000009}},{"attributes":{"ID":104045,"DIS_CODE":0,"TOWNNAME":"北區","LI":"永祥里","LIN":"9鄰","STREET":"實踐街","SECT":" ","MAREA":" ","LANE":"７１巷","ALLEY":"１２０弄","HOUSE_NO":"８號之１","E_COORD97":170041.73000000001,"N_COORD97":2546312.77,"ADDRESS":"實踐街７１巷１２０弄８號之１","OBJECTID":104045},"geometry":{"x":170041.73000000138,"y":2546312.7699999996}},{"attributes":{"ID":104046,"DIS_CODE":0,"TOWNNAME":"北區","LI":"永祥里","LIN":"9鄰","STREET":"實踐街","SECT":" ","MAREA":" ","LANE":"７１巷","ALLEY":"１２０弄","HOUSE_NO":"８號之２","E_COORD97":170053.01000000001,"N_COORD97":2546312.77,"ADDRESS":"實踐街７１巷１２０弄８號之２","OBJECTID":104046},"geometry":{"x":170053.01000000071,"y":2546312.7699999996}},{"attributes":{"ID":104047,"DIS_CODE":0,"TOWNNAME":"白河區","LI":"內角里","LIN":"1鄰","STREET":" ","SECT":" ","MAREA":"內角","LANE":" ","ALLEY":" ","HOUSE_NO":"８號","E_COORD97":192787.95000000001,"N_COORD97":2588488.9900000002,"ADDRESS":"內角８號","OBJECTID":104047},"geometry":{"x":192787.95000000112,"y":2588488.9900000002}},{"attributes":{"ID":104048,"DIS_CODE":0,"TOWNNAME":"仁德區","LI":"成功里","LIN":"1鄰","STREET":"保生東路","SECT":" ","MAREA":" ","LANE":"１３８巷","ALLEY":" ","HOUSE_NO":"８號","E_COORD97":171219.73999999999,"N_COORD97":2539575.3100000001,"ADDRESS":"保生東路１３８巷８號","OBJECTID":104048},"geometry":{"x":171219.74000000115,"y":2539575.3100000024}},{"attributes":{"ID":104049,"DIS_CODE":0,"TOWNNAME":"白河區","LI":"內角里","LIN":"1鄰","STREET":" ","SECT":" ","MAREA":"內角","LANE":" ","ALLEY":" ","HOUSE_NO":"９號","E_COORD97":192753.82999999999,"N_COORD97":2588534.2999999998,"ADDRESS":"內角９號","OBJECTID":104049},"geometry":{"x":192753.83000000007,"y":2588534.3000000007}},{"attributes":{"ID":104050,"DIS_CODE":0,"TOWNNAME":"楠西區","LI":"東勢里","LIN":"15鄰","STREET":"中正路","SECT":" ","MAREA":" ","LANE":" ","ALLEY":" ","HOUSE_NO":"３２１號","E_COORD97":197502.45999999999,"N_COORD97":2563468.25,"ADDRESS":"中正路３２１號","OBJECTID":104050},"geometry":{"x":197502.45999999996,"y":2563468.25}},{"attributes":{"ID":104051,"DIS_CODE":0,"TOWNNAME":"仁德區","LI":"後壁里","LIN":"1鄰","STREET":"中正路","SECT":"二段","MAREA":" ","LANE":" ","ALLEY":" ","HOUSE_NO":"４２０號","E_COORD97":173288.54000000001,"N_COORD97":2539280.2799999998,"ADDRESS":"中正路二段４２０號","OBJECTID":104051},"geometry":{"x":173288.5400000019,"y":2539280.2799999993}},{"attributes":{"ID":104052,"DIS_CODE":0,"TOWNNAME":"北區","LI":"永祥里","LIN":"9鄰","STREET":"實踐街","SECT":" ","MAREA":" ","LANE":"７１巷","ALLEY":"１２０弄","HOUSE_NO":"９號","E_COORD97":170025.76999999999,"N_COORD97":2546329.0099999998,"ADDRESS":"實踐街７１巷１２０弄９號","OBJECTID":104052},"geometry":{"x":170025.76999999955,"y":2546329.0099999998}},{"attributes":{"ID":104053,"DIS_CODE":0,"TOWNNAME":"仁德區","LI":"田厝里","LIN":"1鄰","STREET":"保安路","SECT":"二段","MAREA":" ","LANE":" ","ALLEY":" ","HOUSE_NO":"６２６號","E_COORD97":172766.92000000001,"N_COORD97":2537584.8100000001,"ADDRESS":"保安路二段６２６號","OBJECTID":104053},"geometry":{"x":172766.91999999899,"y":2537584.8100000024}},{"attributes":{"ID":104054,"DIS_CODE":0,"TOWNNAME":"永康區","LI":"龍潭里","LIN":"38鄰","STREET":"中山北路","SECT":" ","MAREA":" ","LANE":"１６４巷","ALLEY":"７８弄","HOUSE_NO":"９號之１５","E_COORD97":174457.69,"N_COORD97":2547311.04,"ADDRESS":"中山北路１６４巷７８弄９號之１５","OBJECTID":104054},"geometry":{"x":174457.69000000134,"y":2547311.0399999991}},{"attributes":{"ID":104055,"DIS_CODE":0,"TOWNNAME":"永康區","LI":"龍潭里","LIN":"43鄰","STREET":"國民路","SECT":" ","MAREA":" ","LANE":"２３１巷","ALLEY":"１弄","HOUSE_NO":"８號","E_COORD97":174545.35000000001,"N_COORD97":2547020.1400000001,"ADDRESS":"國民路２３１巷１弄８號","OBJECTID":104055},"geometry":{"x":174545.3499999987,"y":2547020.1400000006}},{"attributes":{"ID":104056,"DIS_CODE":0,"TOWNNAME":"永康區","LI":"復興里","LIN":"9鄰","STREET":"復興路","SECT":" ","MAREA":" ","LANE":"２７７巷","ALLEY":"６弄","HOUSE_NO":"１號","E_COORD97":172318.73999999999,"N_COORD97":2544248.3599999999,"ADDRESS":"復興路２７７巷６弄１號","OBJECTID":104056},"geometry":{"x":172318.74000000022,"y":2544248.3600000031}},{"attributes":{"ID":104057,"DIS_CODE":0,"TOWNNAME":"南區","LI":"新興里","LIN":"9鄰","STREET":"健康路","SECT":"二段","MAREA":" ","LANE":"５３巷","ALLEY":"５１弄","HOUSE_NO":"１０號","E_COORD97":167541.84,"N_COORD97":2542329.1299999999,"ADDRESS":"健康路二段５３巷５１弄１０號","OBJECTID":104057},"geometry":{"x":167541.84000000078,"y":2542329.129999999}},{"attributes":{"ID":104058,"DIS_CODE":0,"TOWNNAME":"南區","LI":"新興里","LIN":"9鄰","STREET":"健康路","SECT":"二段","MAREA":" ","LANE":"５３巷","ALLEY":"５１弄","HOUSE_NO":"１１號","E_COORD97":167562.06,"N_COORD97":2542328.0800000001,"ADDRESS":"健康路二段５３巷５１弄１１號","OBJECTID":104058},"geometry":{"x":167562.06000000052,"y":2542328.0800000001}},{"attributes":{"ID":104059,"DIS_CODE":0,"TOWNNAME":"南區","LI":"新興里","LIN":"9鄰","STREET":"健康路","SECT":"二段","MAREA":" ","LANE":"５３巷","ALLEY":"５１弄","HOUSE_NO":"１２號","E_COORD97":167540.5,"N_COORD97":2542325.1400000001,"ADDRESS":"健康路二段５３巷５１弄１２號","OBJECTID":104059},"geometry":{"x":167540.50000000093,"y":2542325.1399999987}},{"attributes":{"ID":104060,"DIS_CODE":0,"TOWNNAME":"南區","LI":"新興里","LIN":"9鄰","STREET":"健康路","SECT":"二段","MAREA":" ","LANE":"５３巷","ALLEY":"５１弄","HOUSE_NO":"１３號","E_COORD97":167561.06,"N_COORD97":2542324.1899999999,"ADDRESS":"健康路二段５３巷５１弄１３號","OBJECTID":104060},"geometry":{"x":167561.05999999959,"y":2542324.1900000013}},{"attributes":{"ID":104061,"DIS_CODE":0,"TOWNNAME":"南區","LI":"新興里","LIN":"9鄰","STREET":"健康路","SECT":"二段","MAREA":" ","LANE":"５３巷","ALLEY":"５１弄","HOUSE_NO":"１４號","E_COORD97":167540.06,"N_COORD97":2542320.5899999999,"ADDRESS":"健康路二段５３巷５１弄１４號","OBJECTID":104061},"geometry":{"x":167540.06000000052,"y":2542320.5899999999}},{"attributes":{"ID":104062,"DIS_CODE":0,"TOWNNAME":"南區","LI":"新興里","LIN":"9鄰","STREET":"健康路","SECT":"二段","MAREA":" ","LANE":"５３巷","ALLEY":"５１弄","HOUSE_NO":"１５號","E_COORD97":167560.62,"N_COORD97":2542319.5299999998,"ADDRESS":"健康路二段５３巷５１弄１５號","OBJECTID":104062},"geometry":{"x":167560.62000000104,"y":2542319.5300000012}},{"attributes":{"ID":104063,"DIS_CODE":0,"TOWNNAME":"南區","LI":"新興里","LIN":"9鄰","STREET":"健康路","SECT":"二段","MAREA":" ","LANE":"５３巷","ALLEY":"５１弄","HOUSE_NO":"１６號","E_COORD97":167540.5,"N_COORD97":2542314.4300000002,"ADDRESS":"健康路二段５３巷５１弄１６號","OBJECTID":104063},"geometry":{"x":167540.50000000093,"y":2542314.4299999997}},{"attributes":{"ID":104064,"DIS_CODE":0,"TOWNNAME":"南區","LI":"新興里","LIN":"9鄰","STREET":"健康路","SECT":"二段","MAREA":" ","LANE":"５３巷","ALLEY":"５１弄","HOUSE_NO":"１７號","E_COORD97":167560.28,"N_COORD97":2542313.98,"ADDRESS":"健康路二段５３巷５１弄１７號","OBJECTID":104064},"geometry":{"x":167560.28000000026,"y":2542313.9800000023}},{"attributes":{"ID":104065,"DIS_CODE":0,"TOWNNAME":"永康區","LI":"龍潭里","LIN":"40鄰","STREET":"永明街","SECT":" ","MAREA":" ","LANE":"３０２巷","ALLEY":"５弄","HOUSE_NO":"６號","E_COORD97":174551.37,"N_COORD97":2547142,"ADDRESS":"永明街３０２巷５弄６號","OBJECTID":104065},"geometry":{"x":174551.37000000104,"y":2547142}},{"attributes":{"ID":104066,"DIS_CODE":0,"TOWNNAME":"永康區","LI":"\u25A0行里","LIN":"15鄰","STREET":"中正路","SECT":" ","MAREA":" ","LANE":"６３５巷","ALLEY":"９弄","HOUSE_NO":"１０號","E_COORD97":171846.42999999999,"N_COORD97":2548882.2400000002,"ADDRESS":"中正路６３５巷９弄１０號","OBJECTID":104066},"geometry":{"x":171846.43000000063,"y":2548882.2400000021}},{"attributes":{"ID":104067,"DIS_CODE":0,"TOWNNAME":"將軍區","LI":"長榮里","LIN":"1鄰","STREET":" ","SECT":" ","MAREA":"長榮","LANE":" ","ALLEY":" ","HOUSE_NO":"４之５號","E_COORD97":164114.67999999999,"N_COORD97":2566563.79,"ADDRESS":"長榮４之５號","OBJECTID":104067},"geometry":{"x":164114.68000000063,"y":2566563.7899999972}},{"attributes":{"ID":104068,"DIS_CODE":0,"TOWNNAME":"南區","LI":"新興里","LIN":"9鄰","STREET":"健康路","SECT":"二段","MAREA":" ","LANE":"５３巷","ALLEY":"５１弄","HOUSE_NO":"１８號","E_COORD97":167546.32000000001,"N_COORD97":2542296.5099999998,"ADDRESS":"健康路二段５３巷５１弄１８號","OBJECTID":104068},"geometry":{"x":167546.3200000003,"y":2542296.5100000016}},{"attributes":{"ID":104069,"DIS_CODE":0,"TOWNNAME":"南區","LI":"新興里","LIN":"9鄰","STREET":"健康路","SECT":"二段","MAREA":" ","LANE":"５３巷","ALLEY":"５１弄","HOUSE_NO":"１號","E_COORD97":167558.84,"N_COORD97":2542346.7799999998,"ADDRESS":"健康路二段５３巷５１弄１號","OBJECTID":104069},"geometry":{"x":167558.84000000078,"y":2542346.7800000031}},{"attributes":{"ID":104070,"DIS_CODE":0,"TOWNNAME":"南區","LI":"新興里","LIN":"9鄰","STREET":"健康路","SECT":"二段","MAREA":" ","LANE":"５３巷","ALLEY":"５１弄","HOUSE_NO":"２０號","E_COORD97":167540.59,"N_COORD97":2542296.77,"ADDRESS":"健康路二段５３巷５１弄２０號","OBJECTID":104070},"geometry":{"x":167540.58999999985,"y":2542296.7700000014}},{"attributes":{"ID":104071,"DIS_CODE":0,"TOWNNAME":"南區","LI":"新興里","LIN":"9鄰","STREET":"健康路","SECT":"二段","MAREA":" ","LANE":"５３巷","ALLEY":"５１弄","HOUSE_NO":"２１號","E_COORD97":167555.62,"N_COORD97":2542309.1000000001,"ADDRESS":"健康路二段５３巷５１弄２１號","OBJECTID":104071},"geometry":{"x":167555.62000000104,"y":2542309.1000000015}},{"attributes":{"ID":104072,"DIS_CODE":0,"TOWNNAME":"南區","LI":"新興里","LIN":"9鄰","STREET":"健康路","SECT":"二段","MAREA":" ","LANE":"５３巷","ALLEY":"５１弄","HOUSE_NO":"２２號","E_COORD97":167534.10000000001,"N_COORD97":2542298.79,"ADDRESS":"健康路二段５３巷５１弄２２號","OBJECTID":104072},"geometry":{"x":167534.10000000149,"y":2542298.7899999972}},{"attributes":{"ID":104073,"DIS_CODE":0,"TOWNNAME":"將軍區","LI":"長榮里","LIN":"1鄰","STREET":" ","SECT":" ","MAREA":"長榮","LANE":" ","ALLEY":" ","HOUSE_NO":"４之６號","E_COORD97":164128.57999999999,"N_COORD97":2566548.1899999999,"ADDRESS":"長榮４之６號","OBJECTID":104073},"geometry":{"x":164128.58000000007,"y":2566548.1900000032}},{"attributes":{"ID":104074,"DIS_CODE":0,"TOWNNAME":"將軍區","LI":"長榮里","LIN":"1鄰","STREET":" ","SECT":" ","MAREA":"長榮","LANE":" ","ALLEY":" ","HOUSE_NO":"６號","E_COORD97":163869.89999999999,"N_COORD97":2566476.0600000001,"ADDRESS":"長榮６號","OBJECTID":104074},"geometry":{"x":163869.9000000013,"y":2566476.0600000024}},{"attributes":{"ID":104075,"DIS_CODE":0,"TOWNNAME":"將軍區","LI":"長榮里","LIN":"1鄰","STREET":" ","SECT":" ","MAREA":"長榮","LANE":" ","ALLEY":" ","HOUSE_NO":"７號","E_COORD97":163868.51000000001,"N_COORD97":2566472.5600000001,"ADDRESS":"長榮７號","OBJECTID":104075},"geometry":{"x":163868.51000000071,"y":2566472.5600000024}},{"attributes":{"ID":104076,"DIS_CODE":0,"TOWNNAME":"將軍區","LI":"鯤溟里","LIN":"1鄰","STREET":" ","SECT":" ","MAREA":"鯤溟","LANE":" ","ALLEY":" ","HOUSE_NO":"６之５號","E_COORD97":156827.60999999999,"N_COORD97":2565450.8199999998,"ADDRESS":"鯤溟６之５號","OBJECTID":104076},"geometry":{"x":156827.61000000034,"y":2565450.8200000022}},{"attributes":{"ID":104077,"DIS_CODE":0,"TOWNNAME":"楠西區","LI":"楠西里","LIN":"15鄰","STREET":"中正路","SECT":" ","MAREA":" ","LANE":" ","ALLEY":" ","HOUSE_NO":"２８號","E_COORD97":197113.20999999999,"N_COORD97":2564119.25,"ADDRESS":"中正路２８號","OBJECTID":104077},"geometry":{"x":197113.21000000183,"y":2564119.25}},{"attributes":{"ID":104078,"DIS_CODE":0,"TOWNNAME":"將軍區","LI":"鯤溟里","LIN":"1鄰","STREET":" ","SECT":" ","MAREA":"鯤溟","LANE":" ","ALLEY":" ","HOUSE_NO":"６之６號","E_COORD97":156826.87,"N_COORD97":2565459.6499999999,"ADDRESS":"鯤溟６之６號","OBJECTID":104078},"geometry":{"x":156826.87000000011,"y":2565459.6500000004}},{"attributes":{"ID":104079,"DIS_CODE":0,"TOWNNAME":"將軍區","LI":"鯤溟里","LIN":"1鄰","STREET":" ","SECT":" ","MAREA":"鯤溟","LANE":" ","ALLEY":" ","HOUSE_NO":"６之７號","E_COORD97":156826.72,"N_COORD97":2565463.9500000002,"ADDRESS":"鯤溟６之７號","OBJECTID":104079},"geometry":{"x":156826.7200000016,"y":2565463.9499999993}},{"attributes":{"ID":104080,"DIS_CODE":0,"TOWNNAME":"將軍區","LI":"鯤溟里","LIN":"1鄰","STREET":" ","SECT":" ","MAREA":"鯤溟","LANE":" ","ALLEY":" ","HOUSE_NO":"６之８號","E_COORD97":156821.81,"N_COORD97":2565502.77,"ADDRESS":"鯤溟６之８號","OBJECTID":104080},"geometry":{"x":156821.80999999959,"y":2565502.7699999996}},{"attributes":{"ID":104081,"DIS_CODE":0,"TOWNNAME":"將軍區","LI":"鯤溟里","LIN":"1鄰","STREET":" ","SECT":" ","MAREA":"鯤溟","LANE":" ","ALLEY":" ","HOUSE_NO":"６之９號","E_COORD97":156813.67999999999,"N_COORD97":2565484.6699999999,"ADDRESS":"鯤溟６之９號","OBJECTID":104081},"geometry":{"x":156813.68000000063,"y":2565484.6700000018}},{"attributes":{"ID":104082,"DIS_CODE":0,"TOWNNAME":"將軍區","LI":"鯤溟里","LIN":"1鄰","STREET":" ","SECT":" ","MAREA":"鯤溟","LANE":" ","ALLEY":" ","HOUSE_NO":"９之１號","E_COORD97":156633.54999999999,"N_COORD97":2565373.79,"ADDRESS":"鯤溟９之１號","OBJECTID":104082},"geometry":{"x":156633.55000000075,"y":2565373.7899999972}},{"attributes":{"ID":104083,"DIS_CODE":0,"TOWNNAME":"將軍區","LI":"鯤溟里","LIN":"1鄰","STREET":" ","SECT":" ","MAREA":"鯤溟","LANE":" ","ALLEY":" ","HOUSE_NO":"９號","E_COORD97":156640.88,"N_COORD97":2565405.4199999999,"ADDRESS":"鯤溟９號","OBJECTID":104083},"geometry":{"x":156640.88000000175,"y":2565405.4200000018}},{"attributes":{"ID":104084,"DIS_CODE":0,"TOWNNAME":"將軍區","LI":"鯤鯓里","LIN":"1鄰","STREET":" ","SECT":" ","MAREA":"鯤鯓","LANE":" ","ALLEY":" ","HOUSE_NO":"２號","E_COORD97":156642.89999999999,"N_COORD97":2565608.3700000001,"ADDRESS":"鯤鯓２號","OBJECTID":104084},"geometry":{"x":156642.89999999944,"y":2565608.370000001}},{"attributes":{"ID":104085,"DIS_CODE":0,"TOWNNAME":"下營區","LI":"茅港里","LIN":"1鄰","STREET":" ","SECT":" ","MAREA":"茅港尾","LANE":" ","ALLEY":" ","HOUSE_NO":"２３之１號","E_COORD97":176696.26000000001,"N_COORD97":2569420.8599999999,"ADDRESS":"茅港尾２３之１號","OBJECTID":104085},"geometry":{"x":176696.26000000071,"y":2569420.8599999994}},{"attributes":{"ID":104086,"DIS_CODE":0,"TOWNNAME":"龍崎區","LI":"崎頂里","LIN":"1鄰","STREET":" ","SECT":" ","MAREA":"新市子","LANE":" ","ALLEY":" ","HOUSE_NO":"９之１號","E_COORD97":184234.17000000001,"N_COORD97":2540752.2999999998,"ADDRESS":"新市子９之１號","OBJECTID":104086},"geometry":{"x":184234.16999999993,"y":2540752.3000000026}},{"attributes":{"ID":104087,"DIS_CODE":0,"TOWNNAME":"龍崎區","LI":"土崎里","LIN":"1鄰","STREET":" ","SECT":" ","MAREA":"考潭","LANE":" ","ALLEY":" ","HOUSE_NO":"１０之３號","E_COORD97":185470.94,"N_COORD97":2543187.2999999998,"ADDRESS":"考潭１０之３號","OBJECTID":104087},"geometry":{"x":185470.94000000041,"y":2543187.3000000007}},{"attributes":{"ID":104088,"DIS_CODE":0,"TOWNNAME":"龍崎區","LI":"崎頂里","LIN":"1鄰","STREET":" ","SECT":" ","MAREA":"新市子","LANE":" ","ALLEY":" ","HOUSE_NO":"６號","E_COORD97":184192.76999999999,"N_COORD97":2540766.25,"ADDRESS":"新市子６號","OBJECTID":104088},"geometry":{"x":184192.76999999955,"y":2540766.25}},{"attributes":{"ID":104089,"DIS_CODE":0,"TOWNNAME":"龍崎區","LI":"崎頂里","LIN":"1鄰","STREET":" ","SECT":" ","MAREA":"新市子","LANE":" ","ALLEY":" ","HOUSE_NO":"１之１號","E_COORD97":184131.76999999999,"N_COORD97":2540783.2999999998,"ADDRESS":"新市子１之１號","OBJECTID":104089},"geometry":{"x":184131.76999999955,"y":2540783.3000000026}},{"attributes":{"ID":104090,"DIS_CODE":0,"TOWNNAME":"南區","LI":"新興里","LIN":"9鄰","STREET":"健康路","SECT":"二段","MAREA":" ","LANE":"５３巷","ALLEY":"５１弄","HOUSE_NO":"２３號","E_COORD97":167555.5,"N_COORD97":2542304.5499999998,"ADDRESS":"健康路二段５３巷５１弄２３號","OBJECTID":104090},"geometry":{"x":167555.49999999907,"y":2542304.5500000007}},{"attributes":{"ID":104091,"DIS_CODE":0,"TOWNNAME":"南區","LI":"新興里","LIN":"9鄰","STREET":"健康路","SECT":"二段","MAREA":" ","LANE":"５３巷","ALLEY":"５１弄","HOUSE_NO":"２５號","E_COORD97":167555.35000000001,"N_COORD97":2542297.1899999999,"ADDRESS":"健康路二段５３巷５１弄２５號","OBJECTID":104091},"geometry":{"x":167555.34999999963,"y":2542297.1900000013}},{"attributes":{"ID":104092,"DIS_CODE":0,"TOWNNAME":"南區","LI":"新興里","LIN":"9鄰","STREET":"健康路","SECT":"二段","MAREA":" ","LANE":"５３巷","ALLEY":"５１弄","HOUSE_NO":"２號","E_COORD97":167539.60999999999,"N_COORD97":2542346.5600000001,"ADDRESS":"健康路二段５３巷５１弄２號","OBJECTID":104092},"geometry":{"x":167539.61000000034,"y":2542346.5600000024}},{"attributes":{"ID":104093,"DIS_CODE":0,"TOWNNAME":"南區","LI":"新興里","LIN":"9鄰","STREET":"健康路","SECT":"二段","MAREA":" ","LANE":"５３巷","ALLEY":"５１弄","HOUSE_NO":"２號之１","E_COORD97":167540.72,"N_COORD97":2542341.3399999999,"ADDRESS":"健康路二段５３巷５１弄２號之１","OBJECTID":104093},"geometry":{"x":167540.72000000067,"y":2542341.3400000017}},{"attributes":{"ID":104094,"DIS_CODE":0,"TOWNNAME":"下營區","LI":"新興里","LIN":"1鄰","STREET":"新北街","SECT":" ","MAREA":" ","LANE":" ","ALLEY":" ","HOUSE_NO":"８５號","E_COORD97":175015.06,"N_COORD97":2571073.23,"ADDRESS":"新北街８５號","OBJECTID":104094},"geometry":{"x":175015.05999999959,"y":2571073.2300000023}},{"attributes":{"ID":104095,"DIS_CODE":0,"TOWNNAME":"龍崎區","LI":"大坪里","LIN":"1鄰","STREET":" ","SECT":" ","MAREA":"磅空子","LANE":" ","ALLEY":" ","HOUSE_NO":"２之３號","E_COORD97":187757.69,"N_COORD97":2538172.2999999998,"ADDRESS":"磅空子２之３號","OBJECTID":104095},"geometry":{"x":187757.69000000041,"y":2538172.3000000026}},{"attributes":{"ID":104096,"DIS_CODE":0,"TOWNNAME":"龍崎區","LI":"大坪里","LIN":"1鄰","STREET":" ","SECT":" ","MAREA":"磅空子","LANE":" ","ALLEY":" ","HOUSE_NO":"６之２號","E_COORD97":187314.39000000001,"N_COORD97":2537965.2999999998,"ADDRESS":"磅空子６之２號","OBJECTID":104096},"geometry":{"x":187314.38999999966,"y":2537965.3000000026}},{"attributes":{"ID":104097,"DIS_CODE":0,"TOWNNAME":"新化區","LI":"東榮里","LIN":"1鄰","STREET":"中興路","SECT":" ","MAREA":" ","LANE":" ","ALLEY":" ","HOUSE_NO":"１２８號","E_COORD97":181704.41,"N_COORD97":2547328.25,"ADDRESS":"中興路１２８號","OBJECTID":104097},"geometry":{"x":181704.41000000201,"y":2547328.2500000037}},{"attributes":{"ID":104098,"DIS_CODE":0,"TOWNNAME":"南區","LI":"新興里","LIN":"9鄰","STREET":"健康路","SECT":"二段","MAREA":" ","LANE":"５３巷","ALLEY":"５１弄","HOUSE_NO":"３號","E_COORD97":167558.39000000001,"N_COORD97":2542343.8900000001,"ADDRESS":"健康路二段５３巷５１弄３號","OBJECTID":104098},"geometry":{"x":167558.3900000006,"y":2542343.8900000043}},{"attributes":{"ID":104099,"DIS_CODE":0,"TOWNNAME":"南區","LI":"新興里","LIN":"9鄰","STREET":"健康路","SECT":"二段","MAREA":" ","LANE":"５３巷","ALLEY":"５１弄","HOUSE_NO":"５號","E_COORD97":167558.95000000001,"N_COORD97":2542339.5699999998,"ADDRESS":"健康路二段５３巷５１弄５號","OBJECTID":104099},"geometry":{"x":167558.95000000019,"y":2542339.5700000022}},{"attributes":{"ID":104100,"DIS_CODE":0,"TOWNNAME":"南區","LI":"新興里","LIN":"9鄰","STREET":"健康路","SECT":"二段","MAREA":" ","LANE":"５３巷","ALLEY":"５１弄","HOUSE_NO":"６號","E_COORD97":167541.95000000001,"N_COORD97":2542337.8999999999,"ADDRESS":"健康路二段５３巷５１弄６號","OBJECTID":104100},"geometry":{"x":167541.95000000019,"y":2542337.9000000022}},{"attributes":{"ID":104101,"DIS_CODE":0,"TOWNNAME":"南區","LI":"新興里","LIN":"9鄰","STREET":"健康路","SECT":"二段","MAREA":" ","LANE":"５３巷","ALLEY":"５１弄","HOUSE_NO":"７號","E_COORD97":167558.17000000001,"N_COORD97":2542332.3500000001,"ADDRESS":"健康路二段５３巷５１弄７號","OBJECTID":104101},"geometry":{"x":167558.17000000086,"y":2542332.3499999996}},{"attributes":{"ID":104102,"DIS_CODE":0,"TOWNNAME":"南區","LI":"新興里","LIN":"9鄰","STREET":"健康路","SECT":"二段","MAREA":" ","LANE":"５３巷","ALLEY":"５１弄","HOUSE_NO":"８號","E_COORD97":167538.39000000001,"N_COORD97":2542333.2400000002,"ADDRESS":"健康路二段５３巷５１弄８號","OBJECTID":104102},"geometry":{"x":167538.38999999966,"y":2542333.2400000002}},{"attributes":{"ID":104103,"DIS_CODE":0,"TOWNNAME":"安平區","LI":"國平里","LIN":"9鄰","STREET":"建平一街","SECT":" ","MAREA":" ","LANE":"２０２巷","ALLEY":"３弄","HOUSE_NO":"６號","E_COORD97":165572.66,"N_COORD97":2542904.29,"ADDRESS":"建平一街２０２巷３弄６號","OBJECTID":104103},"geometry":{"x":165572.66000000015,"y":2542904.2899999991}},{"attributes":{"ID":104104,"DIS_CODE":0,"TOWNNAME":"佳里區","LI":"頂\u25A0里","LIN":"1鄰","STREET":" ","SECT":" ","MAREA":"頂\u25A0","LANE":" ","ALLEY":" ","HOUSE_NO":"１號之９４","E_COORD97":163724.84,"N_COORD97":2563772.6400000001,"ADDRESS":"頂\u25A0１號之９４","OBJECTID":104104},"geometry":{"x":163724.83999999985,"y":2563772.6399999987}},{"attributes":{"ID":104105,"DIS_CODE":0,"TOWNNAME":"佳里區","LI":"頂\u25A0里","LIN":"1鄰","STREET":" ","SECT":" ","MAREA":"頂\u25A0","LANE":" ","ALLEY":" ","HOUSE_NO":"１號之９５","E_COORD97":163724.76999999999,"N_COORD97":2563776.6200000001,"ADDRESS":"頂\u25A0１號之９５","OBJECTID":104105},"geometry":{"x":163724.76999999955,"y":2563776.6199999992}},{"attributes":{"ID":104106,"DIS_CODE":0,"TOWNNAME":"佳里區","LI":"頂\u25A0里","LIN":"1鄰","STREET":" ","SECT":" ","MAREA":"頂\u25A0","LANE":" ","ALLEY":" ","HOUSE_NO":"１號之９６","E_COORD97":163724.78,"N_COORD97":2563780.6899999999,"ADDRESS":"頂\u25A0１號之９６","OBJECTID":104106},"geometry":{"x":163724.78000000119,"y":2563780.6899999995}},{"attributes":{"ID":104107,"DIS_CODE":0,"TOWNNAME":"佳里區","LI":"頂\u25A0里","LIN":"1鄰","STREET":" ","SECT":" ","MAREA":"頂\u25A0","LANE":" ","ALLEY":" ","HOUSE_NO":"１號之９７","E_COORD97":163725.01000000001,"N_COORD97":2563784.5099999998,"ADDRESS":"頂\u25A0１號之９７","OBJECTID":104107},"geometry":{"x":163725.00999999978,"y":2563784.5100000016}},{"attributes":{"ID":104108,"DIS_CODE":0,"TOWNNAME":"學甲區","LI":"中洲里","LIN":"1鄰","STREET":" ","SECT":" ","MAREA":"中洲","LANE":" ","ALLEY":" ","HOUSE_NO":"１１號","E_COORD97":164084.87,"N_COORD97":2571424.75,"ADDRESS":"中洲１１號","OBJECTID":104108},"geometry":{"x":164084.87000000197,"y":2571424.7500000019}},{"attributes":{"ID":104109,"DIS_CODE":0,"TOWNNAME":"學甲區","LI":"中洲里","LIN":"1鄰","STREET":" ","SECT":" ","MAREA":"中洲","LANE":" ","ALLEY":" ","HOUSE_NO":"１２號之１","E_COORD97":164092.64000000001,"N_COORD97":2571485.98,"ADDRESS":"中洲１２號之１","OBJECTID":104109},"geometry":{"x":164092.64000000153,"y":2571485.9800000004}},{"attributes":{"ID":104110,"DIS_CODE":0,"TOWNNAME":"學甲區","LI":"中洲里","LIN":"1鄰","STREET":" ","SECT":" ","MAREA":"中洲","LANE":" ","ALLEY":" ","HOUSE_NO":"１４號之１","E_COORD97":164126.94,"N_COORD97":2571495.1600000001,"ADDRESS":"中洲１４號之１","OBJECTID":104110},"geometry":{"x":164126.93999999948,"y":2571495.1600000001}},{"attributes":{"ID":104111,"DIS_CODE":0,"TOWNNAME":"學甲區","LI":"中洲里","LIN":"1鄰","STREET":" ","SECT":" ","MAREA":"中洲","LANE":" ","ALLEY":" ","HOUSE_NO":"１４號之２","E_COORD97":164121.89999999999,"N_COORD97":2571496.0899999999,"ADDRESS":"中洲１４號之２","OBJECTID":104111},"geometry":{"x":164121.90000000037,"y":2571496.0900000017}},{"attributes":{"ID":104112,"DIS_CODE":0,"TOWNNAME":"學甲區","LI":"中洲里","LIN":"1鄰","STREET":" ","SECT":" ","MAREA":"中洲","LANE":" ","ALLEY":" ","HOUSE_NO":"１４號之３","E_COORD97":164117.38,"N_COORD97":2571497.4100000001,"ADDRESS":"中洲１４號之３","OBJECTID":104112},"geometry":{"x":164117.38000000082,"y":2571497.4100000039}},{"attributes":{"ID":104113,"DIS_CODE":0,"TOWNNAME":"學甲區","LI":"中洲里","LIN":"1鄰","STREET":" ","SECT":" ","MAREA":"中洲","LANE":" ","ALLEY":" ","HOUSE_NO":"１４號之４","E_COORD97":164111.47,"N_COORD97":2571499.52,"ADDRESS":"中洲１４號之４","OBJECTID":104113},"geometry":{"x":164111.47000000067,"y":2571499.5200000033}},{"attributes":{"ID":104114,"DIS_CODE":0,"TOWNNAME":"學甲區","LI":"中洲里","LIN":"1鄰","STREET":" ","SECT":" ","MAREA":"中洲","LANE":" ","ALLEY":" ","HOUSE_NO":"１４號之５","E_COORD97":164106.72,"N_COORD97":2571500.7599999998,"ADDRESS":"中洲１４號之５","OBJECTID":104114},"geometry":{"x":164106.71999999974,"y":2571500.7599999998}},{"attributes":{"ID":104115,"DIS_CODE":0,"TOWNNAME":"學甲區","LI":"中洲里","LIN":"1鄰","STREET":" ","SECT":" ","MAREA":"中洲","LANE":" ","ALLEY":" ","HOUSE_NO":"１４號之６","E_COORD97":164102.5,"N_COORD97":2571502.52,"ADDRESS":"中洲１４號之６","OBJECTID":104115},"geometry":{"x":164102.50000000186,"y":2571502.5199999977}},{"attributes":{"ID":104116,"DIS_CODE":0,"TOWNNAME":"學甲區","LI":"中洲里","LIN":"1鄰","STREET":" ","SECT":" ","MAREA":"中洲","LANE":" ","ALLEY":" ","HOUSE_NO":"１４號","E_COORD97":164117.54000000001,"N_COORD97":2571471.6000000001,"ADDRESS":"中洲１４號","OBJECTID":104116},"geometry":{"x":164117.5400000019,"y":2571471.6000000034}},{"attributes":{"ID":104117,"DIS_CODE":0,"TOWNNAME":"學甲區","LI":"中洲里","LIN":"1鄰","STREET":" ","SECT":" ","MAREA":"中洲","LANE":" ","ALLEY":" ","HOUSE_NO":"１５號之１０","E_COORD97":164279.64999999999,"N_COORD97":2571407.5800000001,"ADDRESS":"中洲１５號之１０","OBJECTID":104117},"geometry":{"x":164279.65000000037,"y":2571407.5800000001}},{"attributes":{"ID":104118,"DIS_CODE":0,"TOWNNAME":"學甲區","LI":"中洲里","LIN":"1鄰","STREET":" ","SECT":" ","MAREA":"中洲","LANE":" ","ALLEY":" ","HOUSE_NO":"１５號之１８","E_COORD97":164362.06,"N_COORD97":2571384.4500000002,"ADDRESS":"中洲１５號之１８","OBJECTID":104118},"geometry":{"x":164362.05999999959,"y":2571384.4500000011}},{"attributes":{"ID":104119,"DIS_CODE":0,"TOWNNAME":"學甲區","LI":"中洲里","LIN":"1鄰","STREET":" ","SECT":" ","MAREA":"中洲","LANE":" ","ALLEY":" ","HOUSE_NO":"１５號之１","E_COORD97":164139.60999999999,"N_COORD97":2571490.7999999998,"ADDRESS":"中洲１５號之１","OBJECTID":104119},"geometry":{"x":164139.61000000127,"y":2571490.8000000007}},{"attributes":{"ID":104120,"DIS_CODE":0,"TOWNNAME":"學甲區","LI":"中洲里","LIN":"1鄰","STREET":" ","SECT":" ","MAREA":"中洲","LANE":" ","ALLEY":" ","HOUSE_NO":"１５號之２０","E_COORD97":164386.42000000001,"N_COORD97":2571378.46,"ADDRESS":"中洲１５號之２０","OBJECTID":104120},"geometry":{"x":164386.42000000086,"y":2571378.4600000009}},{"attributes":{"ID":104121,"DIS_CODE":0,"TOWNNAME":"學甲區","LI":"中洲里","LIN":"1鄰","STREET":" ","SECT":" ","MAREA":"中洲","LANE":" ","ALLEY":" ","HOUSE_NO":"１５號之２４","E_COORD97":164459.94,"N_COORD97":2571340.5899999999,"ADDRESS":"中洲１５號之２４","OBJECTID":104121},"geometry":{"x":164459.94000000134,"y":2571340.5900000017}},{"attributes":{"ID":104122,"DIS_CODE":0,"TOWNNAME":"學甲區","LI":"中洲里","LIN":"1鄰","STREET":" ","SECT":" ","MAREA":"中洲","LANE":" ","ALLEY":" ","HOUSE_NO":"１５號之２８","E_COORD97":164496.91,"N_COORD97":2571317.9100000001,"ADDRESS":"中洲１５號之２８","OBJECTID":104122},"geometry":{"x":164496.91000000108,"y":2571317.910000002}},{"attributes":{"ID":104123,"DIS_CODE":0,"TOWNNAME":"學甲區","LI":"中洲里","LIN":"1鄰","STREET":" ","SECT":" ","MAREA":"中洲","LANE":" ","ALLEY":" ","HOUSE_NO":"１５號之２","E_COORD97":164146.20000000001,"N_COORD97":2571434.3100000001,"ADDRESS":"中洲１５號之２","OBJECTID":104123},"geometry":{"x":164146.20000000112,"y":2571434.3100000024}},{"attributes":{"ID":104124,"DIS_CODE":0,"TOWNNAME":"學甲區","LI":"中洲里","LIN":"1鄰","STREET":" ","SECT":" ","MAREA":"中洲","LANE":" ","ALLEY":" ","HOUSE_NO":"１５號之３０","E_COORD97":164618.97,"N_COORD97":2571240.2200000002,"ADDRESS":"中洲１５號之３０","OBJECTID":104124},"geometry":{"x":164618.96999999974,"y":2571240.2200000007}},{"attributes":{"ID":104125,"DIS_CODE":0,"TOWNNAME":"安定區","LI":"保西里","LIN":"9鄰","STREET":" ","SECT":" ","MAREA":"安定","LANE":" ","ALLEY":" ","HOUSE_NO":"４２１號","E_COORD97":171675.51999999999,"N_COORD97":2557815.3199999998,"ADDRESS":"安定４２１號","OBJECTID":104125},"geometry":{"x":171675.51999999955,"y":2557815.3200000022}},{"attributes":{"ID":104126,"DIS_CODE":0,"TOWNNAME":"安定區","LI":"蘇厝里","LIN":"9鄰","STREET":" ","SECT":" ","MAREA":"蘇厝","LANE":" ","ALLEY":" ","HOUSE_NO":"３５４號之１","E_COORD97":172980.75,"N_COORD97":2558867.2999999998,"ADDRESS":"蘇厝３５４號之１","OBJECTID":104126},"geometry":{"x":172980.75000000093,"y":2558867.3000000026}},{"attributes":{"ID":104127,"DIS_CODE":0,"TOWNNAME":"安定區","LI":"新吉里","LIN":"9鄰","STREET":" ","SECT":" ","MAREA":"新吉","LANE":" ","ALLEY":" ","HOUSE_NO":"７３之２２號","E_COORD97":169217.01999999999,"N_COORD97":2554047.2999999998,"ADDRESS":"新吉７３之２２號","OBJECTID":104127},"geometry":{"x":169217.02000000048,"y":2554047.3000000007}},{"attributes":{"ID":104128,"DIS_CODE":0,"TOWNNAME":"安定區","LI":"港口里","LIN":"9鄰","STREET":" ","SECT":" ","MAREA":"港口","LANE":" ","ALLEY":" ","HOUSE_NO":"３５３號","E_COORD97":171341.39000000001,"N_COORD97":2554771.25,"ADDRESS":"港口３５３號","OBJECTID":104128},"geometry":{"x":171341.39000000153,"y":2554771.2500000019}},{"attributes":{"ID":104129,"DIS_CODE":0,"TOWNNAME":"安定區","LI":"新吉里","LIN":"9鄰","STREET":" ","SECT":" ","MAREA":"新吉","LANE":" ","ALLEY":" ","HOUSE_NO":"７３號","E_COORD97":169168.76999999999,"N_COORD97":2554025.25,"ADDRESS":"新吉７３號","OBJECTID":104129},"geometry":{"x":169168.77000000142,"y":2554025.2500000019}},{"attributes":{"ID":104130,"DIS_CODE":0,"TOWNNAME":"安定區","LI":"新吉里","LIN":"9鄰","STREET":" ","SECT":" ","MAREA":"新吉","LANE":" ","ALLEY":" ","HOUSE_NO":"７８號","E_COORD97":169234.206213,"N_COORD97":2554036.2308,"ADDRESS":"新吉７８號","OBJECTID":104130},"geometry":{"x":169234.20621300023,"y":2554036.230800001}},{"attributes":{"ID":104131,"DIS_CODE":0,"TOWNNAME":"學甲區","LI":"中洲里","LIN":"1鄰","STREET":" ","SECT":" ","MAREA":"中洲","LANE":" ","ALLEY":" ","HOUSE_NO":"１５號之３１","E_COORD97":164627.72,"N_COORD97":2571232.2200000002,"ADDRESS":"中洲１５號之３１","OBJECTID":104131},"geometry":{"x":164627.71999999974,"y":2571232.2200000025}},{"attributes":{"ID":104132,"DIS_CODE":0,"TOWNNAME":"學甲區","LI":"中洲里","LIN":"1鄰","STREET":" ","SECT":" ","MAREA":"中洲","LANE":" ","ALLEY":" ","HOUSE_NO":"１５號之３２","E_COORD97":164632.82000000001,"N_COORD97":2571232.02,"ADDRESS":"中洲１５號之３２","OBJECTID":104132},"geometry":{"x":164632.81999999937,"y":2571232.0200000014}},{"attributes":{"ID":104133,"DIS_CODE":0,"TOWNNAME":"學甲區","LI":"中洲里","LIN":"1鄰","STREET":" ","SECT":" ","MAREA":"中洲","LANE":" ","ALLEY":" ","HOUSE_NO":"１５號之３３","E_COORD97":164638.01999999999,"N_COORD97":2571181.9199999999,"ADDRESS":"中洲１５號之３３","OBJECTID":104133},"geometry":{"x":164638.02000000048,"y":2571181.9200000018}},{"attributes":{"ID":104134,"DIS_CODE":0,"TOWNNAME":"學甲區","LI":"中洲里","LIN":"1鄰","STREET":" ","SECT":" ","MAREA":"中洲","LANE":" ","ALLEY":" ","HOUSE_NO":"１５號之５","E_COORD97":164151.66,"N_COORD97":2571488.3399999999,"ADDRESS":"中洲１５號之５","OBJECTID":104134},"geometry":{"x":164151.66000000015,"y":2571488.3400000017}},{"attributes":{"ID":104135,"DIS_CODE":0,"TOWNNAME":"學甲區","LI":"中洲里","LIN":"1鄰","STREET":" ","SECT":" ","MAREA":"中洲","LANE":" ","ALLEY":" ","HOUSE_NO":"１５號之７","E_COORD97":164216.45999999999,"N_COORD97":2571463.1000000001,"ADDRESS":"中洲１５號之７","OBJECTID":104135},"geometry":{"x":164216.46000000089,"y":2571463.1000000015}},{"attributes":{"ID":104136,"DIS_CODE":0,"TOWNNAME":"學甲區","LI":"中洲里","LIN":"1鄰","STREET":" ","SECT":" ","MAREA":"中洲","LANE":" ","ALLEY":" ","HOUSE_NO":"１５號","E_COORD97":164143.79000000001,"N_COORD97":2571464.1899999999,"ADDRESS":"中洲１５號","OBJECTID":104136},"geometry":{"x":164143.79000000004,"y":2571464.1900000032}},{"attributes":{"ID":104137,"DIS_CODE":0,"TOWNNAME":"學甲區","LI":"中洲里","LIN":"1鄰","STREET":" ","SECT":" ","MAREA":"中洲","LANE":" ","ALLEY":" ","HOUSE_NO":"１６號之２","E_COORD97":164065.59,"N_COORD97":2571522.5800000001,"ADDRESS":"中洲１６號之２","OBJECTID":104137},"geometry":{"x":164065.58999999985,"y":2571522.5800000001}},{"attributes":{"ID":104138,"DIS_CODE":0,"TOWNNAME":"學甲區","LI":"中洲里","LIN":"1鄰","STREET":" ","SECT":" ","MAREA":"中洲","LANE":" ","ALLEY":" ","HOUSE_NO":"１６號之５","E_COORD97":164054.53,"N_COORD97":2571527.4700000002,"ADDRESS":"中洲１６號之５","OBJECTID":104138},"geometry":{"x":164054.53000000026,"y":2571527.4700000007}},{"attributes":{"ID":104139,"DIS_CODE":0,"TOWNNAME":"安定區","LI":"新吉里","LIN":"9鄰","STREET":" ","SECT":" ","MAREA":"新吉","LANE":" ","ALLEY":" ","HOUSE_NO":"７３之３０號","E_COORD97":169194.92000000001,"N_COORD97":2554019.2999999998,"ADDRESS":"新吉７３之３０號","OBJECTID":104139},"geometry":{"x":169194.91999999993,"y":2554019.3000000026}},{"attributes":{"ID":104140,"DIS_CODE":0,"TOWNNAME":"安定區","LI":"中榮里","LIN":"9鄰","STREET":" ","SECT":" ","MAREA":"許中營","LANE":" ","ALLEY":" ","HOUSE_NO":"７６之３９號","E_COORD97":172534.918703,"N_COORD97":2555083.8656299999,"ADDRESS":"許中營７６之３９號","OBJECTID":104140},"geometry":{"x":172534.91870300006,"y":2555083.8656320013}},{"attributes":{"ID":104141,"DIS_CODE":0,"TOWNNAME":"安定區","LI":"中榮里","LIN":"9鄰","STREET":" ","SECT":" ","MAREA":"許中營","LANE":" ","ALLEY":" ","HOUSE_NO":"７５號","E_COORD97":172375.04000000001,"N_COORD97":2555100.25,"ADDRESS":"許中營７５號","OBJECTID":104141},"geometry":{"x":172375.04000000097,"y":2555100.2500000019}},{"attributes":{"ID":104142,"DIS_CODE":0,"TOWNNAME":"安定區","LI":"港口里","LIN":"9鄰","STREET":" ","SECT":" ","MAREA":"港口","LANE":" ","ALLEY":" ","HOUSE_NO":"３６１號","E_COORD97":171364.69,"N_COORD97":2554755.25,"ADDRESS":"港口３６１號","OBJECTID":104142},"geometry":{"x":171364.69000000041,"y":2554755.25}},{"attributes":{"ID":104143,"DIS_CODE":0,"TOWNNAME":"安定區","LI":"中榮里","LIN":"9鄰","STREET":" ","SECT":" ","MAREA":"許中營","LANE":" ","ALLEY":" ","HOUSE_NO":"７５之６號","E_COORD97":172445.23999999999,"N_COORD97":2555090.2999999998,"ADDRESS":"許中營７５之６號","OBJECTID":104143},"geometry":{"x":172445.24000000115,"y":2555090.3000000026}},{"attributes":{"ID":104144,"DIS_CODE":0,"TOWNNAME":"安定區","LI":"中榮里","LIN":"9鄰","STREET":" ","SECT":" ","MAREA":"許中營","LANE":" ","ALLEY":" ","HOUSE_NO":"７６之１２號","E_COORD97":172495.39000000001,"N_COORD97":2555226.2999999998,"ADDRESS":"許中營７６之１２號","OBJECTID":104144},"geometry":{"x":172495.38999999966,"y":2555226.3000000026}},{"attributes":{"ID":104145,"DIS_CODE":0,"TOWNNAME":"安定區","LI":"港口里","LIN":"9鄰","STREET":" ","SECT":" ","MAREA":"港口","LANE":" ","ALLEY":" ","HOUSE_NO":"３６１號之１","E_COORD97":171375.82999999999,"N_COORD97":2554776.2999999998,"ADDRESS":"港口３６１號之１","OBJECTID":104145},"geometry":{"x":171375.83000000007,"y":2554776.3000000007}},{"attributes":{"ID":104146,"DIS_CODE":0,"TOWNNAME":"安定區","LI":"安加里","LIN":"9鄰","STREET":" ","SECT":" ","MAREA":"安定","LANE":" ","ALLEY":" ","HOUSE_NO":"２４５號之１","E_COORD97":171860.04999999999,"N_COORD97":2557347.3199999998,"ADDRESS":"安定２４５號之１","OBJECTID":104146},"geometry":{"x":171860.04999999981,"y":2557347.3200000022}},{"attributes":{"ID":104147,"DIS_CODE":0,"TOWNNAME":"安定區","LI":"六嘉里","LIN":"9鄰","STREET":" ","SECT":" ","MAREA":"六塊寮","LANE":" ","ALLEY":" ","HOUSE_NO":"７７號","E_COORD97":170292.62,"N_COORD97":2553352.27,"ADDRESS":"六塊寮７７號","OBJECTID":104147},"geometry":{"x":170292.62000000197,"y":2553352.2700000033}},{"attributes":{"ID":104148,"DIS_CODE":0,"TOWNNAME":"安定區","LI":"新吉里","LIN":"9鄰","STREET":" ","SECT":" ","MAREA":"新吉","LANE":" ","ALLEY":" ","HOUSE_NO":"７３之１７號","E_COORD97":169216.12,"N_COORD97":2554063.2999999998,"ADDRESS":"新吉７３之１７號","OBJECTID":104148},"geometry":{"x":169216.12000000197,"y":2554063.3000000026}},{"attributes":{"ID":104149,"DIS_CODE":0,"TOWNNAME":"安定區","LI":"安加里","LIN":"9鄰","STREET":" ","SECT":" ","MAREA":"安定","LANE":" ","ALLEY":" ","HOUSE_NO":"２５６號","E_COORD97":171783.72,"N_COORD97":2557295.3199999998,"ADDRESS":"安定２５６號","OBJECTID":104149},"geometry":{"x":171783.72000000067,"y":2557295.3200000003}},{"attributes":{"ID":104150,"DIS_CODE":0,"TOWNNAME":"安定區","LI":"安加里","LIN":"9鄰","STREET":" ","SECT":" ","MAREA":"安定","LANE":" ","ALLEY":" ","HOUSE_NO":"２５０號","E_COORD97":171772.12,"N_COORD97":2557396.3199999998,"ADDRESS":"安定２５０號","OBJECTID":104150},"geometry":{"x":171772.12000000011,"y":2557396.3200000003}},{"attributes":{"ID":104151,"DIS_CODE":0,"TOWNNAME":"安定區","LI":"安定里","LIN":"9鄰","STREET":" ","SECT":" ","MAREA":"安定","LANE":" ","ALLEY":" ","HOUSE_NO":"７７號","E_COORD97":171811.03766100001,"N_COORD97":2557795.0899,"ADDRESS":"安定７７號","OBJECTID":104151},"geometry":{"x":171811.03766100109,"y":2557795.0899039991}},{"attributes":{"ID":104152,"DIS_CODE":0,"TOWNNAME":"安定區","LI":"安加里","LIN":"9鄰","STREET":" ","SECT":" ","MAREA":"安定","LANE":" ","ALLEY":" ","HOUSE_NO":"２４６號","E_COORD97":171825.22,"N_COORD97":2557380.3199999998,"ADDRESS":"安定２４６號","OBJECTID":104152},"geometry":{"x":171825.21999999974,"y":2557380.3199999984}},{"attributes":{"ID":104153,"DIS_CODE":0,"TOWNNAME":"安定區","LI":"中榮里","LIN":"9鄰","STREET":" ","SECT":" ","MAREA":"許中營","LANE":" ","ALLEY":" ","HOUSE_NO":"７６之５０號","E_COORD97":172535.69,"N_COORD97":2555117.2999999998,"ADDRESS":"許中營７６之５０號","OBJECTID":104153},"geometry":{"x":172535.69000000134,"y":2555117.3000000026}},{"attributes":{"ID":104154,"DIS_CODE":0,"TOWNNAME":"安定區","LI":"安定里","LIN":"9鄰","STREET":" ","SECT":" ","MAREA":"安定","LANE":" ","ALLEY":" ","HOUSE_NO":"８２之５號","E_COORD97":171882.37,"N_COORD97":2557841.3199999998,"ADDRESS":"安定８２之５號","OBJECTID":104154},"geometry":{"x":171882.37000000011,"y":2557841.3199999984}},{"attributes":{"ID":104155,"DIS_CODE":0,"TOWNNAME":"安定區","LI":"安定里","LIN":"9鄰","STREET":" ","SECT":" ","MAREA":"安定","LANE":" ","ALLEY":" ","HOUSE_NO":"８２之２號","E_COORD97":171871.94809699999,"N_COORD97":2557804.9241900002,"ADDRESS":"安定８２號之２","OBJECTID":104155},"geometry":{"x":171871.94809700176,"y":2557804.9241860025}},{"attributes":{"ID":104156,"DIS_CODE":0,"TOWNNAME":"新市區","LI":"三舍里","LIN":"9鄰","STREET":" ","SECT":" ","MAREA":"三舍","LANE":" ","ALLEY":" ","HOUSE_NO":"１９１之２號","E_COORD97":177454.10000000001,"N_COORD97":2554995.2999999998,"ADDRESS":"三舍１９１之２號","OBJECTID":104156},"geometry":{"x":177454.09999999963,"y":2554995.3000000026}},{"attributes":{"ID":104157,"DIS_CODE":0,"TOWNNAME":"新市區","LI":"永就里","LIN":"9鄰","STREET":" ","SECT":" ","MAREA":"永就","LANE":" ","ALLEY":" ","HOUSE_NO":"１０４號","E_COORD97":177479.84,"N_COORD97":2551559.75,"ADDRESS":"永就１０４號","OBJECTID":104157},"geometry":{"x":177479.83999999985,"y":2551559.7500000019}},{"attributes":{"ID":104158,"DIS_CODE":0,"TOWNNAME":"新市區","LI":"社內里","LIN":"9鄰","STREET":" ","SECT":" ","MAREA":"社內","LANE":" ","ALLEY":" ","HOUSE_NO":"９９號","E_COORD97":176380.69,"N_COORD97":2552970.25,"ADDRESS":"社內９９號","OBJECTID":104158},"geometry":{"x":176380.69000000134,"y":2552970.2500000019}},{"attributes":{"ID":104159,"DIS_CODE":0,"TOWNNAME":"新市區","LI":"永就里","LIN":"9鄰","STREET":" ","SECT":" ","MAREA":"永就","LANE":" ","ALLEY":" ","HOUSE_NO":"９７之２號","E_COORD97":177494.25,"N_COORD97":2551474.04,"ADDRESS":"永就９７之２號","OBJECTID":104159},"geometry":{"x":177494.25,"y":2551474.0399999991}},{"attributes":{"ID":104160,"DIS_CODE":0,"TOWNNAME":"新市區","LI":"港墘里","LIN":"9鄰","STREET":" ","SECT":" ","MAREA":"崙頂","LANE":" ","ALLEY":" ","HOUSE_NO":"７５之８號","E_COORD97":178764.10000000001,"N_COORD97":2552706.7999999998,"ADDRESS":"崙頂７５之８號","OBJECTID":104160},"geometry":{"x":178764.09999999963,"y":2552706.8000000026}},{"attributes":{"ID":104161,"DIS_CODE":0,"TOWNNAME":"新市區","LI":"永就里","LIN":"9鄰","STREET":" ","SECT":" ","MAREA":"永就","LANE":" ","ALLEY":" ","HOUSE_NO":"９７之８號","E_COORD97":177505.26000000001,"N_COORD97":2551496.2999999998,"ADDRESS":"永就９７之８號","OBJECTID":104161},"geometry":{"x":177505.25999999978,"y":2551496.3000000026}},{"attributes":{"ID":104162,"DIS_CODE":0,"TOWNNAME":"新市區","LI":"永就里","LIN":"9鄰","STREET":" ","SECT":" ","MAREA":"永就","LANE":" ","ALLEY":" ","HOUSE_NO":"１０５之２號","E_COORD97":177497.39999999999,"N_COORD97":2551546.0499999998,"ADDRESS":"永就１０５之２號","OBJECTID":104162},"geometry":{"x":177497.4000000013,"y":2551546.0500000026}},{"attributes":{"ID":104163,"DIS_CODE":0,"TOWNNAME":"新市區","LI":"大營里","LIN":"9鄰","STREET":" ","SECT":" ","MAREA":"大營","LANE":" ","ALLEY":" ","HOUSE_NO":"１８５號","E_COORD97":179400.20000000001,"N_COORD97":2555636.5,"ADDRESS":"大營１８５號","OBJECTID":104163},"geometry":{"x":179400.20000000019,"y":2555636.5000000037}},{"attributes":{"ID":104164,"DIS_CODE":0,"TOWNNAME":"新市區","LI":"社內里","LIN":"9鄰","STREET":" ","SECT":" ","MAREA":"社內","LANE":" ","ALLEY":" ","HOUSE_NO":"９１之１２號","E_COORD97":176406,"N_COORD97":2553016.5499999998,"ADDRESS":"社內９１之１２號","OBJECTID":104164},"geometry":{"x":176406,"y":2553016.5500000026}},{"attributes":{"ID":104165,"DIS_CODE":0,"TOWNNAME":"新市區","LI":"三舍里","LIN":"9鄰","STREET":" ","SECT":" ","MAREA":"三舍","LANE":" ","ALLEY":" ","HOUSE_NO":"１９１之３４號","E_COORD97":177471.82000000001,"N_COORD97":2555153.7999999998,"ADDRESS":"三舍１９１之３４號","OBJECTID":104165},"geometry":{"x":177471.8200000003,"y":2555153.8000000045}},{"attributes":{"ID":104166,"DIS_CODE":0,"TOWNNAME":"新市區","LI":"三舍里","LIN":"9鄰","STREET":" ","SECT":" ","MAREA":"三舍","LANE":" ","ALLEY":" ","HOUSE_NO":"１９３之１號","E_COORD97":177438.20000000001,"N_COORD97":2554988.5499999998,"ADDRESS":"三舍１９３之１號","OBJECTID":104166},"geometry":{"x":177438.20000000112,"y":2554988.5500000007}},{"attributes":{"ID":104167,"DIS_CODE":0,"TOWNNAME":"新市區","LI":"社內里","LIN":"9鄰","STREET":" ","SECT":" ","MAREA":"社內","LANE":" ","ALLEY":" ","HOUSE_NO":"９９之７２號","E_COORD97":176352.89000000001,"N_COORD97":2553039.0499999998,"ADDRESS":"社內９９之７２號","OBJECTID":104167},"geometry":{"x":176352.8900000006,"y":2553039.0500000007}},{"attributes":{"ID":104168,"DIS_CODE":0,"TOWNNAME":"新市區","LI":"港墘里","LIN":"9鄰","STREET":" ","SECT":" ","MAREA":"崙頂","LANE":" ","ALLEY":" ","HOUSE_NO":"８６號","E_COORD97":178635.85000000001,"N_COORD97":2552689.25,"ADDRESS":"崙頂８６號","OBJECTID":104168},"geometry":{"x":178635.8499999987,"y":2552689.2500000019}},{"attributes":{"ID":104169,"DIS_CODE":0,"TOWNNAME":"官田區","LI":"渡頭里","LIN":"9鄰","STREET":" ","SECT":" ","MAREA":"渡子頭","LANE":" ","ALLEY":" ","HOUSE_NO":"６３號","E_COORD97":181107.48000000001,"N_COORD97":2563047.2000000002,"ADDRESS":"渡子頭６３號","OBJECTID":104169},"geometry":{"x":181107.48000000231,"y":2563047.2000000011}},{"attributes":{"ID":104170,"DIS_CODE":0,"TOWNNAME":"永康區","LI":"龍潭里","LIN":"23鄰","STREET":"自強路","SECT":" ","MAREA":" ","LANE":"７５０巷","ALLEY":"１８弄","HOUSE_NO":"１０號","E_COORD97":174443.78,"N_COORD97":2548461.79,"ADDRESS":"自強路７５０巷１８弄１０號","OBJECTID":104170},"geometry":{"x":174443.78000000119,"y":2548461.7899999991}},{"attributes":{"ID":104171,"DIS_CODE":0,"TOWNNAME":"北區","LI":"東興里","LIN":"9鄰","STREET":"小東路","SECT":" ","MAREA":" ","LANE":"３０７巷","ALLEY":"５４弄","HOUSE_NO":"１０號","E_COORD97":171212.07000000001,"N_COORD97":2544528.8399999999,"ADDRESS":"小東路３０７巷５４弄１０號","OBJECTID":104171},"geometry":{"x":171212.07000000123,"y":2544528.8399999999}},{"attributes":{"ID":104172,"DIS_CODE":0,"TOWNNAME":"北區","LI":"東興里","LIN":"9鄰","STREET":"小東路","SECT":" ","MAREA":" ","LANE":"３０７巷","ALLEY":"５４弄","HOUSE_NO":"１１號","E_COORD97":171264.16,"N_COORD97":2544540.7999999998,"ADDRESS":"小東路３０７巷５４弄１１號","OBJECTID":104172},"geometry":{"x":171264.16000000108,"y":2544540.8000000007}},{"attributes":{"ID":104173,"DIS_CODE":0,"TOWNNAME":"官田區","LI":"渡頭里","LIN":"9鄰","STREET":" ","SECT":" ","MAREA":"渡子頭","LANE":" ","ALLEY":" ","HOUSE_NO":"６４號","E_COORD97":181093.85999999999,"N_COORD97":2563055.6099999999,"ADDRESS":"渡子頭６４號","OBJECTID":104173},"geometry":{"x":181093.86000000034,"y":2563055.6099999994}},{"attributes":{"ID":104174,"DIS_CODE":0,"TOWNNAME":"官田區","LI":"渡頭里","LIN":"9鄰","STREET":" ","SECT":" ","MAREA":"渡子頭","LANE":" ","ALLEY":" ","HOUSE_NO":"６５號之１","E_COORD97":181097.06,"N_COORD97":2563026.5899999999,"ADDRESS":"渡子頭６５號之１","OBJECTID":104174},"geometry":{"x":181097.05999999959,"y":2563026.5900000036}},{"attributes":{"ID":104175,"DIS_CODE":0,"TOWNNAME":"官田區","LI":"渡頭里","LIN":"9鄰","STREET":" ","SECT":" ","MAREA":"渡子頭","LANE":" ","ALLEY":" ","HOUSE_NO":"６５號","E_COORD97":181094.31,"N_COORD97":2563037.27,"ADDRESS":"渡子頭６５號","OBJECTID":104175},"geometry":{"x":181094.31000000145,"y":2563037.2699999996}},{"attributes":{"ID":104176,"DIS_CODE":0,"TOWNNAME":"官田區","LI":"渡頭里","LIN":"9鄰","STREET":" ","SECT":" ","MAREA":"渡子頭","LANE":" ","ALLEY":" ","HOUSE_NO":"６６號之１","E_COORD97":181078.97,"N_COORD97":2562998.6299999999,"ADDRESS":"渡子頭６６號之１","OBJECTID":104176},"geometry":{"x":181078.96999999974,"y":2562998.6300000008}},{"attributes":{"ID":104177,"DIS_CODE":0,"TOWNNAME":"官田區","LI":"渡頭里","LIN":"9鄰","STREET":" ","SECT":" ","MAREA":"渡子頭","LANE":" ","ALLEY":" ","HOUSE_NO":"６６號之３","E_COORD97":181053.41,"N_COORD97":2563001.1600000001,"ADDRESS":"渡子頭６６號之３","OBJECTID":104177},"geometry":{"x":181053.41000000201,"y":2563001.1600000001}},{"attributes":{"ID":104178,"DIS_CODE":0,"TOWNNAME":"官田區","LI":"渡頭里","LIN":"9鄰","STREET":" ","SECT":" ","MAREA":"渡子頭","LANE":" ","ALLEY":" ","HOUSE_NO":"６６號","E_COORD97":181077.17000000001,"N_COORD97":2563011.7000000002,"ADDRESS":"渡子頭６６號","OBJECTID":104178},"geometry":{"x":181077.17000000086,"y":2563011.700000003}},{"attributes":{"ID":104179,"DIS_CODE":0,"TOWNNAME":"官田區","LI":"渡頭里","LIN":"9鄰","STREET":" ","SECT":" ","MAREA":"渡子頭","LANE":" ","ALLEY":" ","HOUSE_NO":"６７號之１","E_COORD97":181097.41,"N_COORD97":2562993.3199999998,"ADDRESS":"渡子頭６７號之１","OBJECTID":104179},"geometry":{"x":181097.40999999922,"y":2562993.3200000003}},{"attributes":{"ID":104180,"DIS_CODE":0,"TOWNNAME":"官田區","LI":"渡頭里","LIN":"9鄰","STREET":" ","SECT":" ","MAREA":"渡子頭","LANE":" ","ALLEY":" ","HOUSE_NO":"６７號","E_COORD97":181100.73000000001,"N_COORD97":2563012.8999999999,"ADDRESS":"渡子頭６７號","OBJECTID":104180},"geometry":{"x":181100.73000000231,"y":2563012.9000000022}},{"attributes":{"ID":104181,"DIS_CODE":0,"TOWNNAME":"官田區","LI":"大崎里","LIN":"9鄰","STREET":" ","SECT":" ","MAREA":"莿子埔","LANE":" ","ALLEY":" ","HOUSE_NO":"１號","E_COORD97":187923.79000000001,"N_COORD97":2564261.9900000002,"ADDRESS":"莿子埔１號","OBJECTID":104181},"geometry":{"x":187923.79000000097,"y":2564261.9900000039}},{"attributes":{"ID":104182,"DIS_CODE":0,"TOWNNAME":"官田區","LI":"大崎里","LIN":"9鄰","STREET":" ","SECT":" ","MAREA":"莿子埔","LANE":" ","ALLEY":" ","HOUSE_NO":"４號","E_COORD97":188015.97,"N_COORD97":2564203.7799999998,"ADDRESS":"莿子埔４號","OBJECTID":104182},"geometry":{"x":188015.96999999974,"y":2564203.7799999993}},{"attributes":{"ID":104183,"DIS_CODE":0,"TOWNNAME":"官田區","LI":"大崎里","LIN":"9鄰","STREET":" ","SECT":" ","MAREA":"莿子埔","LANE":" ","ALLEY":" ","HOUSE_NO":"６號","E_COORD97":188011.82999999999,"N_COORD97":2564219.4700000002,"ADDRESS":"莿子埔６號","OBJECTID":104183},"geometry":{"x":188011.83000000007,"y":2564219.4700000025}},{"attributes":{"ID":104184,"DIS_CODE":0,"TOWNNAME":"安定區","LI":"中榮里","LIN":"9鄰","STREET":" ","SECT":" ","MAREA":"許中營","LANE":" ","ALLEY":" ","HOUSE_NO":"７６之７號","E_COORD97":172576.94,"N_COORD97":2555133.2999999998,"ADDRESS":"許中營７６之７號","OBJECTID":104184},"geometry":{"x":172576.94000000041,"y":2555133.3000000045}},{"attributes":{"ID":104185,"DIS_CODE":0,"TOWNNAME":"安定區","LI":"中榮里","LIN":"9鄰","STREET":" ","SECT":" ","MAREA":"許中營","LANE":" ","ALLEY":" ","HOUSE_NO":"７５之１８號","E_COORD97":172445.39000000001,"N_COORD97":2555121.2999999998,"ADDRESS":"許中營７５之１８號","OBJECTID":104185},"geometry":{"x":172445.3900000006,"y":2555121.3000000026}},{"attributes":{"ID":104186,"DIS_CODE":0,"TOWNNAME":"安定區","LI":"中榮里","LIN":"9鄰","STREET":" ","SECT":" ","MAREA":"許中營","LANE":" ","ALLEY":" ","HOUSE_NO":"７７號之１１","E_COORD97":172456.82999999999,"N_COORD97":2555196.2999999998,"ADDRESS":"許中營７７號之１１","OBJECTID":104186},"geometry":{"x":172456.83000000007,"y":2555196.3000000007}},{"attributes":{"ID":104187,"DIS_CODE":0,"TOWNNAME":"安定區","LI":"中榮里","LIN":"9鄰","STREET":" ","SECT":" ","MAREA":"許中營","LANE":" ","ALLEY":" ","HOUSE_NO":"７７之２３號","E_COORD97":172471.29000000001,"N_COORD97":2555223.2999999998,"ADDRESS":"許中營７７之２３號","OBJECTID":104187},"geometry":{"x":172471.28999999911,"y":2555223.3000000007}},{"attributes":{"ID":104188,"DIS_CODE":0,"TOWNNAME":"安定區","LI":"蘇林里","LIN":"9鄰","STREET":" ","SECT":" ","MAREA":"蘇厝","LANE":" ","ALLEY":" ","HOUSE_NO":"９９號之１","E_COORD97":173549.20000000001,"N_COORD97":2558812.2999999998,"ADDRESS":"蘇厝９９號之１","OBJECTID":104188},"geometry":{"x":173549.20000000112,"y":2558812.3000000026}},{"attributes":{"ID":104189,"DIS_CODE":0,"TOWNNAME":"安定區","LI":"安加里","LIN":"9鄰","STREET":" ","SECT":" ","MAREA":"安定","LANE":" ","ALLEY":" ","HOUSE_NO":"２５６之１２號","E_COORD97":171763.67000000001,"N_COORD97":2557305.3199999998,"ADDRESS":"安定２５６之１２號","OBJECTID":104189},"geometry":{"x":171763.67000000086,"y":2557305.3200000003}},{"attributes":{"ID":104190,"DIS_CODE":0,"TOWNNAME":"安定區","LI":"蘇林里","LIN":"9鄰","STREET":" ","SECT":" ","MAREA":"蘇厝","LANE":" ","ALLEY":" ","HOUSE_NO":"１０５號","E_COORD97":173589.72,"N_COORD97":2558873.25,"ADDRESS":"蘇厝１０５號","OBJECTID":104190},"geometry":{"x":173589.71999999974,"y":2558873.2500000019}},{"attributes":{"ID":104191,"DIS_CODE":0,"TOWNNAME":"安定區","LI":"管寮里","LIN":"9鄰","STREET":" ","SECT":" ","MAREA":"管寮","LANE":" ","ALLEY":" ","HOUSE_NO":"８０之３號","E_COORD97":169796.54000000001,"N_COORD97":2556493.2999999998,"ADDRESS":"管寮８０之３號","OBJECTID":104191},"geometry":{"x":169796.54000000097,"y":2556493.3000000026}},{"attributes":{"ID":104192,"DIS_CODE":0,"TOWNNAME":"新市區","LI":"潭頂里","LIN":"9鄰","STREET":" ","SECT":" ","MAREA":"潭頂","LANE":" ","ALLEY":" ","HOUSE_NO":"３３６號","E_COORD97":180657.84,"N_COORD97":2552904.25,"ADDRESS":"潭頂３３６號","OBJECTID":104192},"geometry":{"x":180657.83999999985,"y":2552904.25}},{"attributes":{"ID":104193,"DIS_CODE":0,"TOWNNAME":"新市區","LI":"潭頂里","LIN":"9鄰","STREET":" ","SECT":" ","MAREA":"潭頂","LANE":" ","ALLEY":" ","HOUSE_NO":"３２５之６號","E_COORD97":180602.53,"N_COORD97":2553098.7999999998,"ADDRESS":"潭頂３２５之６號","OBJECTID":104193},"geometry":{"x":180602.53000000119,"y":2553098.7999999989}},{"attributes":{"ID":104194,"DIS_CODE":0,"TOWNNAME":"新市區","LI":"三舍里","LIN":"9鄰","STREET":" ","SECT":" ","MAREA":"三舍","LANE":" ","ALLEY":" ","HOUSE_NO":"１９１之２２號","E_COORD97":177442.85000000001,"N_COORD97":2555102.5499999998,"ADDRESS":"三舍１９１之２２號","OBJECTID":104194},"geometry":{"x":177442.85000000056,"y":2555102.5500000026}},{"attributes":{"ID":104195,"DIS_CODE":0,"TOWNNAME":"新市區","LI":"三舍里","LIN":"9鄰","STREET":" ","SECT":" ","MAREA":"三舍","LANE":" ","ALLEY":" ","HOUSE_NO":"１９１之５９號","E_COORD97":177407.57000000001,"N_COORD97":2555218.98,"ADDRESS":"三舍１９１之５９號","OBJECTID":104195},"geometry":{"x":177407.5700000003,"y":2555218.9800000004}},{"attributes":{"ID":104196,"DIS_CODE":0,"TOWNNAME":"新市區","LI":"三舍里","LIN":"9鄰","STREET":" ","SECT":" ","MAREA":"三舍","LANE":" ","ALLEY":" ","HOUSE_NO":"１９５之６０號","E_COORD97":177353.84,"N_COORD97":2555240.4199999999,"ADDRESS":"三舍１９５之６０號","OBJECTID":104196},"geometry":{"x":177353.84000000078,"y":2555240.4200000018}},{"attributes":{"ID":104197,"DIS_CODE":0,"TOWNNAME":"新市區","LI":"三舍里","LIN":"9鄰","STREET":" ","SECT":" ","MAREA":"三舍","LANE":" ","ALLEY":" ","HOUSE_NO":"２０２之２號","E_COORD97":177300.01000000001,"N_COORD97":2554892.1400000001,"ADDRESS":"三舍２０２之２號","OBJECTID":104197},"geometry":{"x":177300.01000000071,"y":2554892.1400000006}},{"attributes":{"ID":104198,"DIS_CODE":0,"TOWNNAME":"新市區","LI":"三舍里","LIN":"9鄰","STREET":" ","SECT":" ","MAREA":"三舍","LANE":" ","ALLEY":" ","HOUSE_NO":"２０２之３號","E_COORD97":177296.60999999999,"N_COORD97":2554890.29,"ADDRESS":"三舍２０２之３號","OBJECTID":104198},"geometry":{"x":177296.61000000034,"y":2554890.2899999991}},{"attributes":{"ID":104199,"DIS_CODE":0,"TOWNNAME":"新市區","LI":"大社里","LIN":"9鄰","STREET":" ","SECT":" ","MAREA":"大社","LANE":" ","ALLEY":" ","HOUSE_NO":"２９０之１號","E_COORD97":180387.13,"N_COORD97":2554562.3799999999,"ADDRESS":"大社２９０之１號","OBJECTID":104199},"geometry":{"x":180387.13000000175,"y":2554562.3800000008}},{"attributes":{"ID":104200,"DIS_CODE":0,"TOWNNAME":"新市區","LI":"大社里","LIN":"9鄰","STREET":" ","SECT":" ","MAREA":"大社","LANE":" ","ALLEY":" ","HOUSE_NO":"２９０之２號","E_COORD97":180382.13,"N_COORD97":2554561.0299999998,"ADDRESS":"大社２９０之２號","OBJECTID":104200},"geometry":{"x":180382.13000000175,"y":2554561.0300000012}}]}