{"displayFieldName":"TOWNNAME","fieldAliases":{"ID":"ID","DIS_CODE":"DIS_CODE","TOWNNAME":"TOWNNAME","LI":"LI","LIN":"LIN","STREET":"STREET","SECT":"SECT","MAREA":"MAREA","LANE":"LANE","ALLEY":"ALLEY","HOUSE_NO":"HOUSE_NO","E_COORD97":"E_COORD97","N_COORD97":"N_COORD97","ADDRESS":"ADDRESS","OBJECTID":"OBJECTID"},"geometryType":"esriGeometryPoint","spatialReference":{"wkid":102443,"latestWkid":3826},"fields":[{"name":"ID","type":"esriFieldTypeDouble","alias":"ID"},{"name":"DIS_CODE","type":"esriFieldTypeInteger","alias":"DIS_CODE"},{"name":"TOWNNAME","type":"esriFieldTypeString","alias":"TOWNNAME","length":8},{"name":"LI","type":"esriFieldTypeString","alias":"LI","length":8},{"name":"LIN","type":"esriFieldTypeString","alias":"LIN","length":12},{"name":"STREET","type":"esriFieldTypeString","alias":"STREET","length":20},{"name":"SECT","type":"esriFieldTypeString","alias":"SECT","length":8},{"name":"MAREA","type":"esriFieldTypeString","alias":"MAREA","length":12},{"name":"LANE","type":"esriFieldTypeString","alias":"LANE","length":10},{"name":"ALLEY","type":"esriFieldTypeString","alias":"ALLEY","length":10},{"name":"HOUSE_NO","type":"esriFieldTypeString","alias":"HOUSE_NO","length":20},{"name":"E_COORD97","type":"esriFieldTypeDouble","alias":"E_COORD97"},{"name":"N_COORD97","type":"esriFieldTypeDouble","alias":"N_COORD97"},{"name":"ADDRESS","type":"esriFieldTypeString","alias":"ADDRESS","length":50},{"name":"OBJECTID","type":"esriFieldTypeOID","alias":"OBJECTID"}],"features":[{"attributes":{"ID":36001,"DIS_CODE":0,"TOWNNAME":"將軍區","LI":"將貴里","LIN":"7鄰","STREET":" ","SECT":" ","MAREA":"將貴","LANE":" ","ALLEY":" ","HOUSE_NO":"６３之６０號","E_COORD97":161436.98999999999,"N_COORD97":2567524.6200000001,"ADDRESS":"將貴６３之６０號","OBJECTID":36001},"geometry":{"x":161436.99000000115,"y":2567524.6200000029}},{"attributes":{"ID":36002,"DIS_CODE":0,"TOWNNAME":"將軍區","LI":"將貴里","LIN":"7鄰","STREET":" ","SECT":" ","MAREA":"將貴","LANE":" ","ALLEY":" ","HOUSE_NO":"６３號","E_COORD97":161931.67000000001,"N_COORD97":2567358.6899999999,"ADDRESS":"將貴６３號","OBJECTID":36002},"geometry":{"x":161931.67000000086,"y":2567358.6900000013}},{"attributes":{"ID":36003,"DIS_CODE":0,"TOWNNAME":"六甲區","LI":"龍湖里","LIN":"14鄰","STREET":"中正路","SECT":" ","MAREA":" ","LANE":" ","ALLEY":" ","HOUSE_NO":"１３２號","E_COORD97":183437.14999999999,"N_COORD97":2568976.79,"ADDRESS":"中正路１３２號","OBJECTID":36003},"geometry":{"x":183437.15000000224,"y":2568976.7899999991}},{"attributes":{"ID":36004,"DIS_CODE":0,"TOWNNAME":"六甲區","LI":"龍湖里","LIN":"14鄰","STREET":"中正路","SECT":" ","MAREA":" ","LANE":" ","ALLEY":" ","HOUSE_NO":"１３４號","E_COORD97":183436.76999999999,"N_COORD97":2568980.5699999998,"ADDRESS":"中正路１３４號","OBJECTID":36004},"geometry":{"x":183436.76999999955,"y":2568980.570000004}},{"attributes":{"ID":36005,"DIS_CODE":0,"TOWNNAME":"六甲區","LI":"龍湖里","LIN":"14鄰","STREET":"中正路","SECT":" ","MAREA":" ","LANE":" ","ALLEY":" ","HOUSE_NO":"１３６號","E_COORD97":183437.42999999999,"N_COORD97":2568988.2799999998,"ADDRESS":"中正路１３６號","OBJECTID":36005},"geometry":{"x":183437.4299999997,"y":2568988.2800000031}},{"attributes":{"ID":36006,"DIS_CODE":0,"TOWNNAME":"將軍區","LI":"將貴里","LIN":"7鄰","STREET":" ","SECT":" ","MAREA":"將貴","LANE":" ","ALLEY":" ","HOUSE_NO":"６４號","E_COORD97":161947.88,"N_COORD97":2567367.27,"ADDRESS":"將貴６４號","OBJECTID":36006},"geometry":{"x":161947.87999999989,"y":2567367.2699999996}},{"attributes":{"ID":36007,"DIS_CODE":0,"TOWNNAME":"將軍區","LI":"將貴里","LIN":"7鄰","STREET":" ","SECT":" ","MAREA":"將貴","LANE":" ","ALLEY":" ","HOUSE_NO":"６５之１號","E_COORD97":161895.92999999999,"N_COORD97":2567483.8900000001,"ADDRESS":"將貴６５之１號","OBJECTID":36007},"geometry":{"x":161895.93000000063,"y":2567483.8900000043}},{"attributes":{"ID":36008,"DIS_CODE":0,"TOWNNAME":"將軍區","LI":"將貴里","LIN":"7鄰","STREET":" ","SECT":" ","MAREA":"將貴","LANE":" ","ALLEY":" ","HOUSE_NO":"６５號","E_COORD97":161958.5,"N_COORD97":2567372.8700000001,"ADDRESS":"將貴６５號","OBJECTID":36008},"geometry":{"x":161958.50000000093,"y":2567372.8700000029}},{"attributes":{"ID":36009,"DIS_CODE":0,"TOWNNAME":"將軍區","LI":"將貴里","LIN":"7鄰","STREET":" ","SECT":" ","MAREA":"將貴","LANE":" ","ALLEY":" ","HOUSE_NO":"６６號","E_COORD97":161967.01999999999,"N_COORD97":2567355.7599999998,"ADDRESS":"將貴６６號","OBJECTID":36009},"geometry":{"x":161967.01999999955,"y":2567355.7600000016}},{"attributes":{"ID":36010,"DIS_CODE":0,"TOWNNAME":"南區","LI":"同安里","LIN":"8鄰","STREET":"灣裡路","SECT":" ","MAREA":" ","LANE":"３５１巷","ALLEY":"１５弄","HOUSE_NO":"１號","E_COORD97":166254.17999999999,"N_COORD97":2536219.98,"ADDRESS":"灣裡路３５１巷１５弄１號","OBJECTID":36010},"geometry":{"x":166254.18000000063,"y":2536219.9799999986}},{"attributes":{"ID":36011,"DIS_CODE":0,"TOWNNAME":"南區","LI":"同安里","LIN":"8鄰","STREET":"灣裡路","SECT":" ","MAREA":" ","LANE":"３５１巷","ALLEY":"１５弄","HOUSE_NO":"３號","E_COORD97":166252.88,"N_COORD97":2536232.6000000001,"ADDRESS":"灣裡路３５１巷１５弄３號","OBJECTID":36011},"geometry":{"x":166252.88000000082,"y":2536232.6000000015}},{"attributes":{"ID":36012,"DIS_CODE":0,"TOWNNAME":"南區","LI":"同安里","LIN":"8鄰","STREET":"灣裡路","SECT":" ","MAREA":" ","LANE":"３５１巷","ALLEY":"１５弄","HOUSE_NO":"５號","E_COORD97":166249.54000000001,"N_COORD97":2536239.27,"ADDRESS":"灣裡路３５１巷１５弄５號","OBJECTID":36012},"geometry":{"x":166249.54000000004,"y":2536239.2700000014}},{"attributes":{"ID":36013,"DIS_CODE":0,"TOWNNAME":"將軍區","LI":"將貴里","LIN":"7鄰","STREET":" ","SECT":" ","MAREA":"將貴","LANE":" ","ALLEY":" ","HOUSE_NO":"６７之１號","E_COORD97":161994.20999999999,"N_COORD97":2567310.6899999999,"ADDRESS":"將貴６７之１號","OBJECTID":36013},"geometry":{"x":161994.21000000089,"y":2567310.6899999976}},{"attributes":{"ID":36014,"DIS_CODE":0,"TOWNNAME":"將軍區","LI":"將貴里","LIN":"7鄰","STREET":" ","SECT":" ","MAREA":"將貴","LANE":" ","ALLEY":" ","HOUSE_NO":"６７號","E_COORD97":162008.04000000001,"N_COORD97":2567317.04,"ADDRESS":"將貴６７號","OBJECTID":36014},"geometry":{"x":162008.04000000004,"y":2567317.0399999991}},{"attributes":{"ID":36015,"DIS_CODE":0,"TOWNNAME":"將軍區","LI":"將貴里","LIN":"7鄰","STREET":" ","SECT":" ","MAREA":"將貴","LANE":" ","ALLEY":" ","HOUSE_NO":"７０之１號","E_COORD97":161930.95000000001,"N_COORD97":2567280.6499999999,"ADDRESS":"將貴７０之１號","OBJECTID":36015},"geometry":{"x":161930.95000000019,"y":2567280.6500000004}},{"attributes":{"ID":36016,"DIS_CODE":0,"TOWNNAME":"將軍區","LI":"將貴里","LIN":"7鄰","STREET":" ","SECT":" ","MAREA":"將貴","LANE":" ","ALLEY":" ","HOUSE_NO":"７０之２號","E_COORD97":161938.39999999999,"N_COORD97":2567290.1299999999,"ADDRESS":"將貴７０之２號","OBJECTID":36016},"geometry":{"x":161938.40000000037,"y":2567290.129999999}},{"attributes":{"ID":36017,"DIS_CODE":0,"TOWNNAME":"南區","LI":"府南里","LIN":"8鄰","STREET":"金華路","SECT":"一段","MAREA":" ","LANE":"４８４巷","ALLEY":"１２１弄","HOUSE_NO":"１１號","E_COORD97":167282.69,"N_COORD97":2541364.48,"ADDRESS":"金華路一段４８４巷１２１弄１１號","OBJECTID":36017},"geometry":{"x":167282.69000000041,"y":2541364.4800000023}},{"attributes":{"ID":36018,"DIS_CODE":0,"TOWNNAME":"南區","LI":"府南里","LIN":"8鄰","STREET":"金華路","SECT":"一段","MAREA":" ","LANE":"４８４巷","ALLEY":"１２１弄","HOUSE_NO":"１３號","E_COORD97":167285.39999999999,"N_COORD97":2541366.9100000001,"ADDRESS":"金華路一段４８４巷１２１弄１３號","OBJECTID":36018},"geometry":{"x":167285.40000000224,"y":2541366.9100000039}},{"attributes":{"ID":36019,"DIS_CODE":0,"TOWNNAME":"南區","LI":"府南里","LIN":"8鄰","STREET":"金華路","SECT":"一段","MAREA":" ","LANE":"４８４巷","ALLEY":"１２７弄","HOUSE_NO":"１０號","E_COORD97":167308.54999999999,"N_COORD97":2541331.6200000001,"ADDRESS":"金華路一段４８４巷１２７弄１０號","OBJECTID":36019},"geometry":{"x":167308.54999999981,"y":2541331.620000001}},{"attributes":{"ID":36020,"DIS_CODE":0,"TOWNNAME":"南區","LI":"府南里","LIN":"8鄰","STREET":"金華路","SECT":"一段","MAREA":" ","LANE":"４８４巷","ALLEY":"１２７弄","HOUSE_NO":"１１號","E_COORD97":167297.82999999999,"N_COORD97":2541334.96,"ADDRESS":"金華路一段４８４巷１２７弄１１號","OBJECTID":36020},"geometry":{"x":167297.83000000101,"y":2541334.9600000028}},{"attributes":{"ID":36021,"DIS_CODE":0,"TOWNNAME":"南區","LI":"府南里","LIN":"8鄰","STREET":"金華路","SECT":"一段","MAREA":" ","LANE":"４８４巷","ALLEY":"１２７弄","HOUSE_NO":"１２號","E_COORD97":167311.82000000001,"N_COORD97":2541335.1200000001,"ADDRESS":"金華路一段４８４巷１２７弄１２號","OBJECTID":36021},"geometry":{"x":167311.82000000123,"y":2541335.120000001}},{"attributes":{"ID":36022,"DIS_CODE":0,"TOWNNAME":"南區","LI":"府南里","LIN":"8鄰","STREET":"金華路","SECT":"一段","MAREA":" ","LANE":"４８４巷","ALLEY":"１２７弄","HOUSE_NO":"１３號","E_COORD97":167300.88,"N_COORD97":2541338.3100000001,"ADDRESS":"金華路一段４８４巷１２７弄１３號","OBJECTID":36022},"geometry":{"x":167300.88000000082,"y":2541338.3100000024}},{"attributes":{"ID":36023,"DIS_CODE":0,"TOWNNAME":"南區","LI":"府南里","LIN":"8鄰","STREET":"金華路","SECT":"一段","MAREA":" ","LANE":"４８４巷","ALLEY":"１２７弄","HOUSE_NO":"１４號","E_COORD97":167313.82999999999,"N_COORD97":2541338.46,"ADDRESS":"金華路一段４８４巷１２７弄１４號","OBJECTID":36023},"geometry":{"x":167313.83000000007,"y":2541338.4600000028}},{"attributes":{"ID":36024,"DIS_CODE":0,"TOWNNAME":"南區","LI":"府南里","LIN":"8鄰","STREET":"金華路","SECT":"一段","MAREA":" ","LANE":"４８４巷","ALLEY":"１２７弄","HOUSE_NO":"１５號","E_COORD97":167302.81,"N_COORD97":2541342.25,"ADDRESS":"金華路一段４８４巷１２７弄１５號","OBJECTID":36024},"geometry":{"x":167302.81000000052,"y":2541342.2500000019}},{"attributes":{"ID":36025,"DIS_CODE":0,"TOWNNAME":"將軍區","LI":"將貴里","LIN":"7鄰","STREET":" ","SECT":" ","MAREA":"將貴","LANE":" ","ALLEY":" ","HOUSE_NO":"７０號","E_COORD97":161923.23000000001,"N_COORD97":2567270.8599999999,"ADDRESS":"將貴７０號","OBJECTID":36025},"geometry":{"x":161923.23000000138,"y":2567270.8599999994}},{"attributes":{"ID":36026,"DIS_CODE":0,"TOWNNAME":"將軍區","LI":"將貴里","LIN":"7鄰","STREET":" ","SECT":" ","MAREA":"將貴","LANE":" ","ALLEY":" ","HOUSE_NO":"７１之３０號","E_COORD97":161669.85999999999,"N_COORD97":2567068.1299999999,"ADDRESS":"將貴７１之３０號","OBJECTID":36026},"geometry":{"x":161669.86000000127,"y":2567068.1300000008}},{"attributes":{"ID":36027,"DIS_CODE":0,"TOWNNAME":"南區","LI":"府南里","LIN":"8鄰","STREET":"金華路","SECT":"一段","MAREA":" ","LANE":"４８４巷","ALLEY":"１２７弄","HOUSE_NO":"１６號","E_COORD97":167316.35999999999,"N_COORD97":2541342.8500000001,"ADDRESS":"金華路一段４８４巷１２７弄１６號","OBJECTID":36027},"geometry":{"x":167316.36000000127,"y":2541342.8499999978}},{"attributes":{"ID":36028,"DIS_CODE":0,"TOWNNAME":"南區","LI":"府南里","LIN":"8鄰","STREET":"金華路","SECT":"一段","MAREA":" ","LANE":"４８４巷","ALLEY":"１２７弄","HOUSE_NO":"１７號","E_COORD97":167306.53,"N_COORD97":2541346.4100000001,"ADDRESS":"金華路一段４８４巷１２７弄１７號","OBJECTID":36028},"geometry":{"x":167306.53000000212,"y":2541346.4099999983}},{"attributes":{"ID":36029,"DIS_CODE":0,"TOWNNAME":"南區","LI":"府南里","LIN":"8鄰","STREET":"金華路","SECT":"一段","MAREA":" ","LANE":"４８４巷","ALLEY":"１２７弄","HOUSE_NO":"１８號","E_COORD97":167323.35999999999,"N_COORD97":2541326.9100000001,"ADDRESS":"金華路一段４８４巷１２７弄１８號","OBJECTID":36029},"geometry":{"x":167323.36000000127,"y":2541326.910000002}},{"attributes":{"ID":36030,"DIS_CODE":0,"TOWNNAME":"南區","LI":"府南里","LIN":"8鄰","STREET":"金華路","SECT":"一段","MAREA":" ","LANE":"４８４巷","ALLEY":"１２７弄","HOUSE_NO":"１９號","E_COORD97":167308.17999999999,"N_COORD97":2541349.3100000001,"ADDRESS":"金華路一段４８４巷１２７弄１９號","OBJECTID":36030},"geometry":{"x":167308.18000000156,"y":2541349.3100000024}},{"attributes":{"ID":36031,"DIS_CODE":0,"TOWNNAME":"六甲區","LI":"六甲里","LIN":"14鄰","STREET":"民生街","SECT":" ","MAREA":" ","LANE":" ","ALLEY":" ","HOUSE_NO":"１９３號","E_COORD97":183805.03,"N_COORD97":2569908.1800000002,"ADDRESS":"民生街１９３號","OBJECTID":36031},"geometry":{"x":183805.03000000026,"y":2569908.1800000034}},{"attributes":{"ID":36032,"DIS_CODE":0,"TOWNNAME":"六甲區","LI":"六甲里","LIN":"14鄰","STREET":"民生街","SECT":" ","MAREA":" ","LANE":" ","ALLEY":" ","HOUSE_NO":"１９５號","E_COORD97":183800.89999999999,"N_COORD97":2569916.3399999999,"ADDRESS":"民生街１９５號","OBJECTID":36032},"geometry":{"x":183800.90000000037,"y":2569916.3399999999}},{"attributes":{"ID":36033,"DIS_CODE":0,"TOWNNAME":"六甲區","LI":"水林里","LIN":"14鄰","STREET":"民族街","SECT":" ","MAREA":" ","LANE":" ","ALLEY":" ","HOUSE_NO":"２８６號","E_COORD97":183151.01999999999,"N_COORD97":2570379.2799999998,"ADDRESS":"民族街２８６號","OBJECTID":36033},"geometry":{"x":183151.02000000048,"y":2570379.2800000012}},{"attributes":{"ID":36034,"DIS_CODE":0,"TOWNNAME":"六甲區","LI":"水林里","LIN":"14鄰","STREET":"民族街","SECT":" ","MAREA":" ","LANE":" ","ALLEY":" ","HOUSE_NO":"２９６號","E_COORD97":183144.98999999999,"N_COORD97":2570365.1699999999,"ADDRESS":"民族街２９６號","OBJECTID":36034},"geometry":{"x":183144.99000000115,"y":2570365.1699999999}},{"attributes":{"ID":36035,"DIS_CODE":0,"TOWNNAME":"六甲區","LI":"水林里","LIN":"14鄰","STREET":"民族街","SECT":" ","MAREA":" ","LANE":" ","ALLEY":" ","HOUSE_NO":"３００號","E_COORD97":183134.69,"N_COORD97":2570366.8500000001,"ADDRESS":"民族街３００號","OBJECTID":36035},"geometry":{"x":183134.69000000041,"y":2570366.8499999996}},{"attributes":{"ID":36036,"DIS_CODE":0,"TOWNNAME":"南區","LI":"府南里","LIN":"8鄰","STREET":"金華路","SECT":"一段","MAREA":" ","LANE":"４８４巷","ALLEY":"１２７弄","HOUSE_NO":"２０號","E_COORD97":167329.01000000001,"N_COORD97":2541331.7400000002,"ADDRESS":"金華路一段４８４巷１２７弄２０號","OBJECTID":36036},"geometry":{"x":167329.00999999978,"y":2541331.7400000021}},{"attributes":{"ID":36037,"DIS_CODE":0,"TOWNNAME":"南區","LI":"府南里","LIN":"8鄰","STREET":"金華路","SECT":"一段","MAREA":" ","LANE":"４８４巷","ALLEY":"１２７弄","HOUSE_NO":"２號","E_COORD97":167296.04000000001,"N_COORD97":2541315.23,"ADDRESS":"金華路一段４８４巷１２７弄２號","OBJECTID":36037},"geometry":{"x":167296.0400000019,"y":2541315.2300000023}},{"attributes":{"ID":36038,"DIS_CODE":0,"TOWNNAME":"南區","LI":"府南里","LIN":"8鄰","STREET":"金華路","SECT":"一段","MAREA":" ","LANE":"４８４巷","ALLEY":"１２７弄","HOUSE_NO":"３號","E_COORD97":167286.73999999999,"N_COORD97":2541320.29,"ADDRESS":"金華路一段４８４巷１２７弄３號","OBJECTID":36038},"geometry":{"x":167286.74000000115,"y":2541320.290000001}},{"attributes":{"ID":36039,"DIS_CODE":0,"TOWNNAME":"南區","LI":"府南里","LIN":"8鄰","STREET":"金華路","SECT":"一段","MAREA":" ","LANE":"４８４巷","ALLEY":"１２７弄","HOUSE_NO":"４號","E_COORD97":167299.17000000001,"N_COORD97":2541319.4700000002,"ADDRESS":"金華路一段４８４巷１２７弄４號","OBJECTID":36039},"geometry":{"x":167299.17000000086,"y":2541319.4699999988}},{"attributes":{"ID":36040,"DIS_CODE":0,"TOWNNAME":"南區","LI":"府南里","LIN":"8鄰","STREET":"金華路","SECT":"一段","MAREA":" ","LANE":"４８４巷","ALLEY":"１２７弄","HOUSE_NO":"５號","E_COORD97":167288.82000000001,"N_COORD97":2541324.75,"ADDRESS":"金華路一段４８４巷１２７弄５號","OBJECTID":36040},"geometry":{"x":167288.8200000003,"y":2541324.7500000019}},{"attributes":{"ID":36041,"DIS_CODE":0,"TOWNNAME":"南區","LI":"府南里","LIN":"8鄰","STREET":"金華路","SECT":"一段","MAREA":" ","LANE":"４８４巷","ALLEY":"１２７弄","HOUSE_NO":"６號","E_COORD97":167302.53,"N_COORD97":2541323.0800000001,"ADDRESS":"金華路一段４８４巷１２７弄６號","OBJECTID":36041},"geometry":{"x":167302.53000000026,"y":2541323.0800000019}},{"attributes":{"ID":36042,"DIS_CODE":0,"TOWNNAME":"南區","LI":"府南里","LIN":"8鄰","STREET":"金華路","SECT":"一段","MAREA":" ","LANE":"４８４巷","ALLEY":"１２７弄","HOUSE_NO":"７號","E_COORD97":167292.23999999999,"N_COORD97":2541328.4700000002,"ADDRESS":"金華路一段４８４巷１２７弄７號","OBJECTID":36042},"geometry":{"x":167292.24000000115,"y":2541328.4700000007}},{"attributes":{"ID":36043,"DIS_CODE":0,"TOWNNAME":"南區","LI":"府南里","LIN":"8鄰","STREET":"金華路","SECT":"一段","MAREA":" ","LANE":"４８４巷","ALLEY":"１２７弄","HOUSE_NO":"８號","E_COORD97":167306.54000000001,"N_COORD97":2541327.2400000002,"ADDRESS":"金華路一段４８４巷１２７弄８號","OBJECTID":36043},"geometry":{"x":167306.54000000097,"y":2541327.2399999984}},{"attributes":{"ID":36044,"DIS_CODE":0,"TOWNNAME":"南區","LI":"府南里","LIN":"8鄰","STREET":"金華路","SECT":"一段","MAREA":" ","LANE":"４８４巷","ALLEY":"１２７弄","HOUSE_NO":"９號","E_COORD97":167294.48000000001,"N_COORD97":2541331.6699999999,"ADDRESS":"金華路一段４８４巷１２７弄９號","OBJECTID":36044},"geometry":{"x":167294.48000000045,"y":2541331.6700000018}},{"attributes":{"ID":36045,"DIS_CODE":0,"TOWNNAME":"北區","LI":"長德里","LIN":"5鄰","STREET":"公園南路","SECT":" ","MAREA":" ","LANE":"２２２巷","ALLEY":"２０弄","HOUSE_NO":"２７號","E_COORD97":168593.31,"N_COORD97":2544803.79,"ADDRESS":"公園南路２２２巷２０弄２７號","OBJECTID":36045},"geometry":{"x":168593.30999999959,"y":2544803.7899999991}},{"attributes":{"ID":36046,"DIS_CODE":0,"TOWNNAME":"將軍區","LI":"將貴里","LIN":"7鄰","STREET":" ","SECT":" ","MAREA":"將貴","LANE":" ","ALLEY":" ","HOUSE_NO":"７１之６０號","E_COORD97":161376.29999999999,"N_COORD97":2566786.27,"ADDRESS":"將貴７１之６０號","OBJECTID":36046},"geometry":{"x":161376.30000000075,"y":2566786.2700000014}},{"attributes":{"ID":36047,"DIS_CODE":0,"TOWNNAME":"將軍區","LI":"將貴里","LIN":"7鄰","STREET":" ","SECT":" ","MAREA":"將貴","LANE":" ","ALLEY":" ","HOUSE_NO":"７２號","E_COORD97":161955.63,"N_COORD97":2567268.1800000002,"ADDRESS":"將貴７２號","OBJECTID":36047},"geometry":{"x":161955.63000000082,"y":2567268.1800000016}},{"attributes":{"ID":36048,"DIS_CODE":0,"TOWNNAME":"將軍區","LI":"廣山里","LIN":"7鄰","STREET":" ","SECT":" ","MAREA":"廣山","LANE":" ","ALLEY":" ","HOUSE_NO":"６５之１號","E_COORD97":159628.03,"N_COORD97":2568857.6800000002,"ADDRESS":"廣山６５之１號","OBJECTID":36048},"geometry":{"x":159628.03000000119,"y":2568857.6800000016}},{"attributes":{"ID":36049,"DIS_CODE":0,"TOWNNAME":"將軍區","LI":"廣山里","LIN":"7鄰","STREET":" ","SECT":" ","MAREA":"廣山","LANE":" ","ALLEY":" ","HOUSE_NO":"６５之２號","E_COORD97":159633.69,"N_COORD97":2568830.25,"ADDRESS":"廣山６５之２號","OBJECTID":36049},"geometry":{"x":159633.69000000134,"y":2568830.2500000019}},{"attributes":{"ID":36050,"DIS_CODE":0,"TOWNNAME":"將軍區","LI":"廣山里","LIN":"7鄰","STREET":" ","SECT":" ","MAREA":"廣山","LANE":" ","ALLEY":" ","HOUSE_NO":"６５號","E_COORD97":159641.94,"N_COORD97":2568849.3300000001,"ADDRESS":"廣山６５號","OBJECTID":36050},"geometry":{"x":159641.94000000134,"y":2568849.3300000001}},{"attributes":{"ID":36051,"DIS_CODE":0,"TOWNNAME":"將軍區","LI":"廣山里","LIN":"7鄰","STREET":" ","SECT":" ","MAREA":"廣山","LANE":" ","ALLEY":" ","HOUSE_NO":"６６之２號","E_COORD97":159620.97,"N_COORD97":2568840.73,"ADDRESS":"廣山６６之２號","OBJECTID":36051},"geometry":{"x":159620.97000000067,"y":2568840.7300000042}},{"attributes":{"ID":36052,"DIS_CODE":0,"TOWNNAME":"將軍區","LI":"廣山里","LIN":"7鄰","STREET":" ","SECT":" ","MAREA":"廣山","LANE":" ","ALLEY":" ","HOUSE_NO":"６６之３號","E_COORD97":159619.29000000001,"N_COORD97":2568849.71,"ADDRESS":"廣山６６之３號","OBJECTID":36052},"geometry":{"x":159619.29000000097,"y":2568849.7100000028}},{"attributes":{"ID":36053,"DIS_CODE":0,"TOWNNAME":"將軍區","LI":"廣山里","LIN":"7鄰","STREET":" ","SECT":" ","MAREA":"廣山","LANE":" ","ALLEY":" ","HOUSE_NO":"６６之５號","E_COORD97":159603.48999999999,"N_COORD97":2568873.02,"ADDRESS":"廣山６６之５號","OBJECTID":36053},"geometry":{"x":159603.49000000022,"y":2568873.0200000014}},{"attributes":{"ID":36054,"DIS_CODE":0,"TOWNNAME":"將軍區","LI":"廣山里","LIN":"7鄰","STREET":" ","SECT":" ","MAREA":"廣山","LANE":" ","ALLEY":" ","HOUSE_NO":"６６之６號","E_COORD97":159601.51999999999,"N_COORD97":2568883.1600000001,"ADDRESS":"廣山６６之６號","OBJECTID":36054},"geometry":{"x":159601.52000000048,"y":2568883.160000002}},{"attributes":{"ID":36055,"DIS_CODE":0,"TOWNNAME":"北區","LI":"長德里","LIN":"5鄰","STREET":"公園南路","SECT":" ","MAREA":" ","LANE":"２２２巷","ALLEY":"２０弄","HOUSE_NO":"２８號","E_COORD97":168591.57999999999,"N_COORD97":2544808.2799999998,"ADDRESS":"公園南路２２２巷２０弄２８號","OBJECTID":36055},"geometry":{"x":168591.58000000101,"y":2544808.2800000031}},{"attributes":{"ID":36056,"DIS_CODE":0,"TOWNNAME":"北區","LI":"長德里","LIN":"5鄰","STREET":"公園南路","SECT":" ","MAREA":" ","LANE":"２２２巷","ALLEY":"２０弄","HOUSE_NO":"２９號","E_COORD97":168591.23000000001,"N_COORD97":2544811.7400000002,"ADDRESS":"公園南路２２２巷２０弄２９號","OBJECTID":36056},"geometry":{"x":168591.23000000045,"y":2544811.7400000002}},{"attributes":{"ID":36057,"DIS_CODE":0,"TOWNNAME":"北區","LI":"長德里","LIN":"5鄰","STREET":"公園南路","SECT":" ","MAREA":" ","LANE":"２２２巷","ALLEY":"２０弄","HOUSE_NO":"２號","E_COORD97":168591.92999999999,"N_COORD97":2544781.2999999998,"ADDRESS":"公園南路２２２巷２０弄２號","OBJECTID":36057},"geometry":{"x":168591.93000000063,"y":2544781.3000000007}},{"attributes":{"ID":36058,"DIS_CODE":0,"TOWNNAME":"六甲區","LI":"水林里","LIN":"14鄰","STREET":"民族街","SECT":" ","MAREA":" ","LANE":" ","ALLEY":" ","HOUSE_NO":"３５４號","E_COORD97":183008.51000000001,"N_COORD97":2570361.23,"ADDRESS":"民族街３５４號","OBJECTID":36058},"geometry":{"x":183008.50999999885,"y":2570361.2300000023}},{"attributes":{"ID":36059,"DIS_CODE":0,"TOWNNAME":"將軍區","LI":"廣山里","LIN":"7鄰","STREET":" ","SECT":" ","MAREA":"廣山","LANE":" ","ALLEY":" ","HOUSE_NO":"６６號","E_COORD97":159609.45999999999,"N_COORD97":2568863.8100000001,"ADDRESS":"廣山６６號","OBJECTID":36059},"geometry":{"x":159609.46000000089,"y":2568863.8099999987}},{"attributes":{"ID":36060,"DIS_CODE":0,"TOWNNAME":"六甲區","LI":"水林里","LIN":"14鄰","STREET":"民族街","SECT":" ","MAREA":" ","LANE":" ","ALLEY":" ","HOUSE_NO":"３５６號","E_COORD97":183004.59,"N_COORD97":2570361.52,"ADDRESS":"民族街３５６號","OBJECTID":36060},"geometry":{"x":183004.58999999985,"y":2570361.5200000014}},{"attributes":{"ID":36061,"DIS_CODE":0,"TOWNNAME":"六甲區","LI":"水林里","LIN":"14鄰","STREET":"民族街","SECT":" ","MAREA":" ","LANE":" ","ALLEY":" ","HOUSE_NO":"３５８號","E_COORD97":183000.31,"N_COORD97":2570361.52,"ADDRESS":"民族街３５８號","OBJECTID":36061},"geometry":{"x":183000.31000000052,"y":2570361.5200000014}},{"attributes":{"ID":36062,"DIS_CODE":0,"TOWNNAME":"六甲區","LI":"水林里","LIN":"14鄰","STREET":"民族街","SECT":" ","MAREA":" ","LANE":" ","ALLEY":" ","HOUSE_NO":"３６０號","E_COORD97":182996.29000000001,"N_COORD97":2570361.46,"ADDRESS":"民族街３６０號","OBJECTID":36062},"geometry":{"x":182996.29000000004,"y":2570361.4600000009}},{"attributes":{"ID":36063,"DIS_CODE":0,"TOWNNAME":"六甲區","LI":"水林里","LIN":"14鄰","STREET":"民族街","SECT":" ","MAREA":" ","LANE":" ","ALLEY":" ","HOUSE_NO":"３６２號","E_COORD97":182992.57999999999,"N_COORD97":2570361.9100000001,"ADDRESS":"民族街３６２號","OBJECTID":36063},"geometry":{"x":182992.58000000007,"y":2570361.910000002}},{"attributes":{"ID":36064,"DIS_CODE":0,"TOWNNAME":"六甲區","LI":"水林里","LIN":"14鄰","STREET":"民族街","SECT":" ","MAREA":" ","LANE":" ","ALLEY":" ","HOUSE_NO":"３６４號","E_COORD97":182988.75,"N_COORD97":2570362.23,"ADDRESS":"民族街３６４號","OBJECTID":36064},"geometry":{"x":182988.75000000093,"y":2570362.2300000004}},{"attributes":{"ID":36065,"DIS_CODE":0,"TOWNNAME":"六甲區","LI":"水林里","LIN":"14鄰","STREET":"民族街","SECT":" ","MAREA":" ","LANE":" ","ALLEY":" ","HOUSE_NO":"３７０號","E_COORD97":182974.04999999999,"N_COORD97":2570361.2999999998,"ADDRESS":"民族街３７０號","OBJECTID":36065},"geometry":{"x":182974.04999999981,"y":2570361.3000000007}},{"attributes":{"ID":36066,"DIS_CODE":0,"TOWNNAME":"六甲區","LI":"水林里","LIN":"14鄰","STREET":"民族街","SECT":" ","MAREA":" ","LANE":" ","ALLEY":" ","HOUSE_NO":"３７２號","E_COORD97":182970.10999999999,"N_COORD97":2570362.3100000001,"ADDRESS":"民族街３７２號","OBJECTID":36066},"geometry":{"x":182970.11000000127,"y":2570362.3099999987}},{"attributes":{"ID":36067,"DIS_CODE":0,"TOWNNAME":"六甲區","LI":"水林里","LIN":"14鄰","STREET":"民族街","SECT":" ","MAREA":" ","LANE":" ","ALLEY":" ","HOUSE_NO":"３７４號之１","E_COORD97":182963.92000000001,"N_COORD97":2570363.3700000001,"ADDRESS":"民族街３７４號之１","OBJECTID":36067},"geometry":{"x":182963.92000000086,"y":2570363.3700000029}},{"attributes":{"ID":36068,"DIS_CODE":0,"TOWNNAME":"六甲區","LI":"水林里","LIN":"14鄰","STREET":"民族街","SECT":" ","MAREA":" ","LANE":" ","ALLEY":" ","HOUSE_NO":"３７６號","E_COORD97":182959.64999999999,"N_COORD97":2570364.7000000002,"ADDRESS":"民族街３７６號","OBJECTID":36068},"geometry":{"x":182959.6500000013,"y":2570364.6999999993}},{"attributes":{"ID":36069,"DIS_CODE":0,"TOWNNAME":"北區","LI":"長德里","LIN":"5鄰","STREET":"公園南路","SECT":" ","MAREA":" ","LANE":"２２２巷","ALLEY":"２０弄","HOUSE_NO":"３０號","E_COORD97":168591.92999999999,"N_COORD97":2544814.1699999999,"ADDRESS":"公園南路２２２巷２０弄３０號","OBJECTID":36069},"geometry":{"x":168591.93000000063,"y":2544814.1700000018}},{"attributes":{"ID":36070,"DIS_CODE":0,"TOWNNAME":"柳營區","LI":"太康里","LIN":"14鄰","STREET":" ","SECT":" ","MAREA":"太康","LANE":" ","ALLEY":" ","HOUSE_NO":"１３１之１號","E_COORD97":181769.54999999999,"N_COORD97":2576390.1499999999,"ADDRESS":"太康１３１之１號","OBJECTID":36070},"geometry":{"x":181769.55000000075,"y":2576390.1500000004}},{"attributes":{"ID":36071,"DIS_CODE":0,"TOWNNAME":"北區","LI":"長德里","LIN":"5鄰","STREET":"公園南路","SECT":" ","MAREA":" ","LANE":"２２２巷","ALLEY":"２０弄","HOUSE_NO":"３１號","E_COORD97":168596.42999999999,"N_COORD97":2544821.7799999998,"ADDRESS":"公園南路２２２巷２０弄３１號","OBJECTID":36071},"geometry":{"x":168596.4299999997,"y":2544821.7800000031}},{"attributes":{"ID":36072,"DIS_CODE":0,"TOWNNAME":"柳營區","LI":"太康里","LIN":"14鄰","STREET":" ","SECT":" ","MAREA":"太康","LANE":" ","ALLEY":" ","HOUSE_NO":"１３１號","E_COORD97":181766.88,"N_COORD97":2576403.1000000001,"ADDRESS":"太康１３１號","OBJECTID":36072},"geometry":{"x":181766.87999999989,"y":2576403.0999999996}},{"attributes":{"ID":36073,"DIS_CODE":0,"TOWNNAME":"柳營區","LI":"太康里","LIN":"14鄰","STREET":" ","SECT":" ","MAREA":"太康","LANE":" ","ALLEY":" ","HOUSE_NO":"１３２號之１","E_COORD97":181801.04000000001,"N_COORD97":2576354.3500000001,"ADDRESS":"太康１３２號之１","OBJECTID":36073},"geometry":{"x":181801.04000000004,"y":2576354.3499999996}},{"attributes":{"ID":36074,"DIS_CODE":0,"TOWNNAME":"北區","LI":"長德里","LIN":"5鄰","STREET":"公園南路","SECT":" ","MAREA":" ","LANE":"２２２巷","ALLEY":"２０弄","HOUSE_NO":"３２號","E_COORD97":168595.92999999999,"N_COORD97":2544828.1800000002,"ADDRESS":"公園南路２２２巷２０弄３２號","OBJECTID":36074},"geometry":{"x":168595.9299999997,"y":2544828.1799999997}},{"attributes":{"ID":36075,"DIS_CODE":0,"TOWNNAME":"北區","LI":"長德里","LIN":"5鄰","STREET":"公園南路","SECT":" ","MAREA":" ","LANE":"２２２巷","ALLEY":"２０弄","HOUSE_NO":"３８號","E_COORD97":168577.57329599999,"N_COORD97":2544794.3044400001,"ADDRESS":"公園南路２２２巷２０弄３８號","OBJECTID":36075},"geometry":{"x":168577.57329600118,"y":2544794.304444002}},{"attributes":{"ID":36076,"DIS_CODE":0,"TOWNNAME":"北區","LI":"長德里","LIN":"5鄰","STREET":"公園南路","SECT":" ","MAREA":" ","LANE":"２２２巷","ALLEY":"２０弄","HOUSE_NO":"３９號","E_COORD97":168579.20000000001,"N_COORD97":2544789.23,"ADDRESS":"公園南路２２２巷２０弄３９號","OBJECTID":36076},"geometry":{"x":168579.20000000019,"y":2544789.2299999986}},{"attributes":{"ID":36077,"DIS_CODE":0,"TOWNNAME":"柳營區","LI":"太康里","LIN":"14鄰","STREET":" ","SECT":" ","MAREA":"太康","LANE":" ","ALLEY":" ","HOUSE_NO":"１３２號之２","E_COORD97":181816.53,"N_COORD97":2576350.77,"ADDRESS":"太康１３２號之２","OBJECTID":36077},"geometry":{"x":181816.53000000026,"y":2576350.7700000014}},{"attributes":{"ID":36078,"DIS_CODE":0,"TOWNNAME":"北區","LI":"長德里","LIN":"5鄰","STREET":"公園南路","SECT":" ","MAREA":" ","LANE":"２２２巷","ALLEY":"２０弄","HOUSE_NO":"３號","E_COORD97":168590.89000000001,"N_COORD97":2544786.8300000001,"ADDRESS":"公園南路２２２巷２０弄３號","OBJECTID":36078},"geometry":{"x":168590.88999999966,"y":2544786.8300000001}},{"attributes":{"ID":36079,"DIS_CODE":0,"TOWNNAME":"柳營區","LI":"太康里","LIN":"14鄰","STREET":" ","SECT":" ","MAREA":"太康","LANE":" ","ALLEY":" ","HOUSE_NO":"１３２號","E_COORD97":181786.01999999999,"N_COORD97":2576392.9199999999,"ADDRESS":"太康１３２號","OBJECTID":36079},"geometry":{"x":181786.02000000142,"y":2576392.9200000037}},{"attributes":{"ID":36080,"DIS_CODE":0,"TOWNNAME":"新營區","LI":"埤寮里","LIN":"14鄰","STREET":"中正路","SECT":" ","MAREA":" ","LANE":" ","ALLEY":" ","HOUSE_NO":"３９６號","E_COORD97":180075.39999999999,"N_COORD97":2580426.2400000002,"ADDRESS":"中正路３９６號","OBJECTID":36080},"geometry":{"x":180075.40000000037,"y":2580426.2400000021}},{"attributes":{"ID":36081,"DIS_CODE":0,"TOWNNAME":"新營區","LI":"新南里","LIN":"14鄰","STREET":"民治路","SECT":" ","MAREA":" ","LANE":" ","ALLEY":" ","HOUSE_NO":"２３２號","E_COORD97":178831.92999999999,"N_COORD97":2578551.71,"ADDRESS":"民治路２３２號","OBJECTID":36081},"geometry":{"x":178831.9299999997,"y":2578551.7100000028}},{"attributes":{"ID":36082,"DIS_CODE":0,"TOWNNAME":"柳營區","LI":"太康里","LIN":"14鄰","STREET":" ","SECT":" ","MAREA":"太康","LANE":" ","ALLEY":" ","HOUSE_NO":"１３６之１號","E_COORD97":181829.87,"N_COORD97":2576458.4399999999,"ADDRESS":"太康１３６之１號","OBJECTID":36082},"geometry":{"x":181829.87000000011,"y":2576458.4399999995}},{"attributes":{"ID":36083,"DIS_CODE":0,"TOWNNAME":"柳營區","LI":"太康里","LIN":"14鄰","STREET":" ","SECT":" ","MAREA":"太康","LANE":" ","ALLEY":" ","HOUSE_NO":"１３６之２號","E_COORD97":181825.16,"N_COORD97":2576458.5,"ADDRESS":"太康１３６之２號","OBJECTID":36083},"geometry":{"x":181825.16000000108,"y":2576458.5}},{"attributes":{"ID":36084,"DIS_CODE":0,"TOWNNAME":"柳營區","LI":"太康里","LIN":"14鄰","STREET":" ","SECT":" ","MAREA":"太康","LANE":" ","ALLEY":" ","HOUSE_NO":"１３６號之２","E_COORD97":181825.16,"N_COORD97":2576458.5,"ADDRESS":"太康１３６號之２","OBJECTID":36084},"geometry":{"x":181825.16000000108,"y":2576458.5}},{"attributes":{"ID":36085,"DIS_CODE":0,"TOWNNAME":"柳營區","LI":"太康里","LIN":"14鄰","STREET":" ","SECT":" ","MAREA":"太康","LANE":" ","ALLEY":" ","HOUSE_NO":"１３６號","E_COORD97":181818.42999999999,"N_COORD97":2576459.8500000001,"ADDRESS":"太康１３６號","OBJECTID":36085},"geometry":{"x":181818.4299999997,"y":2576459.8499999996}},{"attributes":{"ID":36086,"DIS_CODE":0,"TOWNNAME":"柳營區","LI":"太康里","LIN":"14鄰","STREET":" ","SECT":" ","MAREA":"太康","LANE":" ","ALLEY":" ","HOUSE_NO":"１３７號","E_COORD97":181826.67999999999,"N_COORD97":2576477.8300000001,"ADDRESS":"太康１３７號","OBJECTID":36086},"geometry":{"x":181826.68000000063,"y":2576477.8300000001}},{"attributes":{"ID":36087,"DIS_CODE":0,"TOWNNAME":"將軍區","LI":"鯤溟里","LIN":"7鄰","STREET":" ","SECT":" ","MAREA":"鯤溟","LANE":" ","ALLEY":" ","HOUSE_NO":"５４之１號","E_COORD97":156570.04000000001,"N_COORD97":2565410.1499999999,"ADDRESS":"鯤溟５４之１號","OBJECTID":36087},"geometry":{"x":156570.04000000004,"y":2565410.1500000041}},{"attributes":{"ID":36088,"DIS_CODE":0,"TOWNNAME":"新營區","LI":"嘉芳里","LIN":"14鄰","STREET":"五福路","SECT":" ","MAREA":" ","LANE":" ","ALLEY":" ","HOUSE_NO":"２７號","E_COORD97":176488.95999999999,"N_COORD97":2578266.3500000001,"ADDRESS":"五福路２７號","OBJECTID":36088},"geometry":{"x":176488.95999999996,"y":2578266.3499999996}},{"attributes":{"ID":36089,"DIS_CODE":0,"TOWNNAME":"將軍區","LI":"鯤溟里","LIN":"7鄰","STREET":" ","SECT":" ","MAREA":"鯤溟","LANE":" ","ALLEY":" ","HOUSE_NO":"５４之３號","E_COORD97":156563.51000000001,"N_COORD97":2565404.1800000002,"ADDRESS":"鯤溟５４之３號","OBJECTID":36089},"geometry":{"x":156563.50999999978,"y":2565404.1799999997}},{"attributes":{"ID":36090,"DIS_CODE":0,"TOWNNAME":"將軍區","LI":"鯤溟里","LIN":"7鄰","STREET":" ","SECT":" ","MAREA":"鯤溟","LANE":" ","ALLEY":" ","HOUSE_NO":"５４之４號","E_COORD97":156559.82999999999,"N_COORD97":2565396.2599999998,"ADDRESS":"鯤溟５４之４號","OBJECTID":36090},"geometry":{"x":156559.83000000007,"y":2565396.2600000016}},{"attributes":{"ID":36091,"DIS_CODE":0,"TOWNNAME":"將軍區","LI":"鯤溟里","LIN":"7鄰","STREET":" ","SECT":" ","MAREA":"鯤溟","LANE":" ","ALLEY":" ","HOUSE_NO":"５４之５號","E_COORD97":156560.20000000001,"N_COORD97":2565383.7599999998,"ADDRESS":"鯤溟５４之５號","OBJECTID":36091},"geometry":{"x":156560.20000000112,"y":2565383.7599999998}},{"attributes":{"ID":36092,"DIS_CODE":0,"TOWNNAME":"新營區","LI":"中營里","LIN":"14鄰","STREET":"東義街","SECT":" ","MAREA":" ","LANE":" ","ALLEY":" ","HOUSE_NO":"１１號","E_COORD97":181358.53,"N_COORD97":2578868.6899999999,"ADDRESS":"東義街１１號","OBJECTID":36092},"geometry":{"x":181358.53000000119,"y":2578868.6900000032}},{"attributes":{"ID":36093,"DIS_CODE":0,"TOWNNAME":"新營區","LI":"嘉芳里","LIN":"14鄰","STREET":"四維路","SECT":" ","MAREA":" ","LANE":" ","ALLEY":" ","HOUSE_NO":"２２號","E_COORD97":176189.67000000001,"N_COORD97":2578554.6699999999,"ADDRESS":"四維路２２號","OBJECTID":36093},"geometry":{"x":176189.67000000179,"y":2578554.6700000018}},{"attributes":{"ID":36094,"DIS_CODE":0,"TOWNNAME":"柳營區","LI":"果毅里","LIN":"14鄰","STREET":" ","SECT":" ","MAREA":"果毅後","LANE":" ","ALLEY":" ","HOUSE_NO":"１６１號之１","E_COORD97":185480.14999999999,"N_COORD97":2572858.4900000002,"ADDRESS":"果毅後１６１號之１","OBJECTID":36094},"geometry":{"x":185480.1500000013,"y":2572858.4900000002}},{"attributes":{"ID":36095,"DIS_CODE":0,"TOWNNAME":"柳營區","LI":"果毅里","LIN":"14鄰","STREET":" ","SECT":" ","MAREA":"果毅後","LANE":" ","ALLEY":" ","HOUSE_NO":"１６１號之２","E_COORD97":185491.78,"N_COORD97":2572847.6099999999,"ADDRESS":"果毅後１６１號之２","OBJECTID":36095},"geometry":{"x":185491.78000000026,"y":2572847.6099999975}},{"attributes":{"ID":36096,"DIS_CODE":0,"TOWNNAME":"柳營區","LI":"果毅里","LIN":"14鄰","STREET":" ","SECT":" ","MAREA":"果毅後","LANE":" ","ALLEY":" ","HOUSE_NO":"１６１號之３","E_COORD97":185488.67999999999,"N_COORD97":2572868.3199999998,"ADDRESS":"果毅後１６１號之３","OBJECTID":36096},"geometry":{"x":185488.6799999997,"y":2572868.3200000022}},{"attributes":{"ID":36097,"DIS_CODE":0,"TOWNNAME":"柳營區","LI":"果毅里","LIN":"14鄰","STREET":" ","SECT":" ","MAREA":"果毅後","LANE":" ","ALLEY":" ","HOUSE_NO":"１６１號","E_COORD97":185483.73999999999,"N_COORD97":2572838.6400000001,"ADDRESS":"果毅後１６１號","OBJECTID":36097},"geometry":{"x":185483.74000000022,"y":2572838.6400000043}},{"attributes":{"ID":36098,"DIS_CODE":0,"TOWNNAME":"柳營區","LI":"果毅里","LIN":"14鄰","STREET":" ","SECT":" ","MAREA":"果毅後","LANE":" ","ALLEY":" ","HOUSE_NO":"１６２號","E_COORD97":185502.63,"N_COORD97":2572882.0299999998,"ADDRESS":"果毅後１６２號","OBJECTID":36098},"geometry":{"x":185502.62999999989,"y":2572882.0299999975}},{"attributes":{"ID":36099,"DIS_CODE":0,"TOWNNAME":"柳營區","LI":"果毅里","LIN":"14鄰","STREET":" ","SECT":" ","MAREA":"果毅後","LANE":" ","ALLEY":" ","HOUSE_NO":"１６５號","E_COORD97":185054.44,"N_COORD97":2572040.25,"ADDRESS":"果毅後１６５號","OBJECTID":36099},"geometry":{"x":185054.44000000134,"y":2572040.25}},{"attributes":{"ID":36100,"DIS_CODE":0,"TOWNNAME":"柳營區","LI":"果毅里","LIN":"14鄰","STREET":" ","SECT":" ","MAREA":"果毅後","LANE":" ","ALLEY":" ","HOUSE_NO":"１６７號","E_COORD97":185497.82000000001,"N_COORD97":2572925.3100000001,"ADDRESS":"果毅後１６７號","OBJECTID":36100},"geometry":{"x":185497.82000000123,"y":2572925.3100000005}},{"attributes":{"ID":36101,"DIS_CODE":0,"TOWNNAME":"柳營區","LI":"果毅里","LIN":"14鄰","STREET":" ","SECT":" ","MAREA":"果毅後","LANE":" ","ALLEY":" ","HOUSE_NO":"１６８號","E_COORD97":185493.48000000001,"N_COORD97":2572916.8100000001,"ADDRESS":"果毅後１６８號","OBJECTID":36101},"geometry":{"x":185493.48000000138,"y":2572916.8100000024}},{"attributes":{"ID":36102,"DIS_CODE":0,"TOWNNAME":"柳營區","LI":"果毅里","LIN":"14鄰","STREET":" ","SECT":" ","MAREA":"果毅後","LANE":" ","ALLEY":" ","HOUSE_NO":"１６９號","E_COORD97":185495.01000000001,"N_COORD97":2572897.52,"ADDRESS":"果毅後１６９號","OBJECTID":36102},"geometry":{"x":185495.00999999978,"y":2572897.5200000014}},{"attributes":{"ID":36103,"DIS_CODE":0,"TOWNNAME":"柳營區","LI":"神農里","LIN":"14鄰","STREET":" ","SECT":" ","MAREA":"果毅後","LANE":" ","ALLEY":" ","HOUSE_NO":"３６７號之１４","E_COORD97":185290,"N_COORD97":2573037.6099999999,"ADDRESS":"果毅後３６７號之１４","OBJECTID":36103},"geometry":{"x":185290,"y":2573037.6100000031}},{"attributes":{"ID":36104,"DIS_CODE":0,"TOWNNAME":"柳營區","LI":"神農里","LIN":"14鄰","STREET":" ","SECT":" ","MAREA":"果毅後","LANE":" ","ALLEY":" ","HOUSE_NO":"３６７號之１５","E_COORD97":185286.01999999999,"N_COORD97":2573036.8399999999,"ADDRESS":"果毅後３６７號之１５","OBJECTID":36104},"geometry":{"x":185286.01999999955,"y":2573036.8400000036}},{"attributes":{"ID":36105,"DIS_CODE":0,"TOWNNAME":"柳營區","LI":"神農里","LIN":"14鄰","STREET":" ","SECT":" ","MAREA":"果毅後","LANE":" ","ALLEY":" ","HOUSE_NO":"３６７號之１６","E_COORD97":185262.66,"N_COORD97":2573035.73,"ADDRESS":"果毅後３６７號之１６","OBJECTID":36105},"geometry":{"x":185262.66000000201,"y":2573035.7300000023}},{"attributes":{"ID":36106,"DIS_CODE":0,"TOWNNAME":"柳營區","LI":"神農里","LIN":"14鄰","STREET":" ","SECT":" ","MAREA":"果毅後","LANE":" ","ALLEY":" ","HOUSE_NO":"３６７之１７號","E_COORD97":185245.54999999999,"N_COORD97":2573084.6200000001,"ADDRESS":"果毅後３６７之１７號","OBJECTID":36106},"geometry":{"x":185245.54999999981,"y":2573084.6200000029}},{"attributes":{"ID":36107,"DIS_CODE":0,"TOWNNAME":"柳營區","LI":"神農里","LIN":"14鄰","STREET":" ","SECT":" ","MAREA":"果毅後","LANE":" ","ALLEY":" ","HOUSE_NO":"３６７號之２","E_COORD97":185291.14000000001,"N_COORD97":2573057.6400000001,"ADDRESS":"果毅後３６７號之２","OBJECTID":36107},"geometry":{"x":185291.14000000153,"y":2573057.6400000006}},{"attributes":{"ID":36108,"DIS_CODE":0,"TOWNNAME":"柳營區","LI":"神農里","LIN":"14鄰","STREET":" ","SECT":" ","MAREA":"果毅後","LANE":" ","ALLEY":" ","HOUSE_NO":"３６７號之３","E_COORD97":185272.34,"N_COORD97":2573029.3599999999,"ADDRESS":"果毅後３６７號之３","OBJECTID":36108},"geometry":{"x":185272.33999999985,"y":2573029.3600000031}},{"attributes":{"ID":36109,"DIS_CODE":0,"TOWNNAME":"柳營區","LI":"神農里","LIN":"14鄰","STREET":" ","SECT":" ","MAREA":"果毅後","LANE":" ","ALLEY":" ","HOUSE_NO":"３８０號","E_COORD97":185162.19,"N_COORD97":2572935.0099999998,"ADDRESS":"果毅後３８０號","OBJECTID":36109},"geometry":{"x":185162.19000000041,"y":2572935.0100000016}},{"attributes":{"ID":36110,"DIS_CODE":0,"TOWNNAME":"柳營區","LI":"神農里","LIN":"14鄰","STREET":" ","SECT":" ","MAREA":"果毅後","LANE":" ","ALLEY":" ","HOUSE_NO":"３６７號之５","E_COORD97":185301.54999999999,"N_COORD97":2573083.1499999999,"ADDRESS":"果毅後３６７號之５","OBJECTID":36110},"geometry":{"x":185301.54999999981,"y":2573083.1500000022}},{"attributes":{"ID":36111,"DIS_CODE":0,"TOWNNAME":"新化區","LI":"武安里","LIN":"4鄰","STREET":"大同街","SECT":" ","MAREA":" ","LANE":" ","ALLEY":" ","HOUSE_NO":"４２號","E_COORD97":179033.48000000001,"N_COORD97":2548188.25,"ADDRESS":"大同街４２號","OBJECTID":36111},"geometry":{"x":179033.48000000045,"y":2548188.25}},{"attributes":{"ID":36112,"DIS_CODE":0,"TOWNNAME":"新化區","LI":"太平里","LIN":"4鄰","STREET":"民生路","SECT":" ","MAREA":" ","LANE":" ","ALLEY":" ","HOUSE_NO":"２２３號","E_COORD97":179063.91,"N_COORD97":2548975.2400000002,"ADDRESS":"民生路２２３號","OBJECTID":36112},"geometry":{"x":179063.91000000108,"y":2548975.2400000002}},{"attributes":{"ID":36113,"DIS_CODE":0,"TOWNNAME":"新化區","LI":"武安里","LIN":"4鄰","STREET":"大同街","SECT":" ","MAREA":" ","LANE":" ","ALLEY":" ","HOUSE_NO":"３０號","E_COORD97":179037.38,"N_COORD97":2548171.25,"ADDRESS":"大同街３０號","OBJECTID":36113},"geometry":{"x":179037.37999999989,"y":2548171.25}},{"attributes":{"ID":36114,"DIS_CODE":0,"TOWNNAME":"新化區","LI":"東榮里","LIN":"25鄰","STREET":"中正路","SECT":" ","MAREA":" ","LANE":" ","ALLEY":" ","HOUSE_NO":"３２４號","E_COORD97":179150.31,"N_COORD97":2548087.25,"ADDRESS":"中正路３２４號","OBJECTID":36114},"geometry":{"x":179150.31000000052,"y":2548087.25}},{"attributes":{"ID":36115,"DIS_CODE":0,"TOWNNAME":"新化區","LI":"東榮里","LIN":"20鄰","STREET":"復興路","SECT":" ","MAREA":" ","LANE":" ","ALLEY":" ","HOUSE_NO":"２６６號","E_COORD97":179376.72,"N_COORD97":2548360.25,"ADDRESS":"復興路２６６號","OBJECTID":36115},"geometry":{"x":179376.72000000067,"y":2548360.2500000019}},{"attributes":{"ID":36116,"DIS_CODE":0,"TOWNNAME":"新化區","LI":"協興里","LIN":"8鄰","STREET":"太平街","SECT":" ","MAREA":" ","LANE":" ","ALLEY":" ","HOUSE_NO":"１２６號","E_COORD97":178434.01999999999,"N_COORD97":2548709.25,"ADDRESS":"太平街１２６號","OBJECTID":36116},"geometry":{"x":178434.01999999955,"y":2548709.2500000019}},{"attributes":{"ID":36117,"DIS_CODE":0,"TOWNNAME":"北區","LI":"長德里","LIN":"5鄰","STREET":"公園南路","SECT":" ","MAREA":" ","LANE":"２２２巷","ALLEY":"２０弄","HOUSE_NO":"５號","E_COORD97":168590.54000000001,"N_COORD97":2544792.3700000001,"ADDRESS":"公園南路２２２巷２０弄５號","OBJECTID":36117},"geometry":{"x":168590.54000000004,"y":2544792.3700000048}},{"attributes":{"ID":36118,"DIS_CODE":0,"TOWNNAME":"北區","LI":"長德里","LIN":"5鄰","STREET":"公園南路","SECT":" ","MAREA":" ","LANE":"２２２巷","ALLEY":"２０弄","HOUSE_NO":"９號","E_COORD97":168605.09,"N_COORD97":2544798.25,"ADDRESS":"公園南路２２２巷２０弄９號","OBJECTID":36118},"geometry":{"x":168605.08999999985,"y":2544798.25}},{"attributes":{"ID":36119,"DIS_CODE":0,"TOWNNAME":"北區","LI":"長德里","LIN":"5鄰","STREET":"公園南路","SECT":" ","MAREA":" ","LANE":"２２２巷","ALLEY":"２０弄","HOUSE_NO":"３５號","E_COORD97":168582.57000000001,"N_COORD97":2544805.8599999999,"ADDRESS":"公園南路２２２巷２０弄３５號","OBJECTID":36119},"geometry":{"x":168582.56999999937,"y":2544805.8600000013}},{"attributes":{"ID":36120,"DIS_CODE":0,"TOWNNAME":"安南區","LI":"理想里","LIN":"8鄰","STREET":"海佃路","SECT":"二段","MAREA":" ","LANE":"１５０巷","ALLEY":"１１２弄","HOUSE_NO":"４０之１號","E_COORD97":167296.26000000001,"N_COORD97":2548317.4500000002,"ADDRESS":"海佃路二段１５０巷１１２弄４０之１號","OBJECTID":36120},"geometry":{"x":167296.26000000071,"y":2548317.4500000011}},{"attributes":{"ID":36121,"DIS_CODE":0,"TOWNNAME":"東區","LI":"富裕里","LIN":"8鄰","STREET":"裕農路","SECT":" ","MAREA":" ","LANE":"２８８巷","ALLEY":"６０弄","HOUSE_NO":"９８號","E_COORD97":170909.42999999999,"N_COORD97":2542796.9700000002,"ADDRESS":"裕農路２８８巷６０弄９８號","OBJECTID":36121},"geometry":{"x":170909.43000000063,"y":2542796.9700000007}},{"attributes":{"ID":36122,"DIS_CODE":0,"TOWNNAME":"安南區","LI":"理想里","LIN":"8鄰","STREET":"海佃路","SECT":"二段","MAREA":" ","LANE":"１５０巷","ALLEY":"１１２弄","HOUSE_NO":"４０之２號","E_COORD97":167287.69,"N_COORD97":2548303.7200000002,"ADDRESS":"海佃路二段１５０巷１１２弄４０之２號","OBJECTID":36122},"geometry":{"x":167287.69000000134,"y":2548303.7200000025}},{"attributes":{"ID":36123,"DIS_CODE":0,"TOWNNAME":"南區","LI":"建南里","LIN":"14鄰","STREET":"中華南路","SECT":"二段","MAREA":" ","LANE":" ","ALLEY":" ","HOUSE_NO":"１９５號","E_COORD97":166993.63,"N_COORD97":2540217.0899999999,"ADDRESS":"中華南路二段１９５號","OBJECTID":36123},"geometry":{"x":166993.63000000082,"y":2540217.0900000017}},{"attributes":{"ID":36124,"DIS_CODE":0,"TOWNNAME":"柳營區","LI":"神農里","LIN":"14鄰","STREET":" ","SECT":" ","MAREA":"果毅後","LANE":" ","ALLEY":" ","HOUSE_NO":"３７５號之４","E_COORD97":185125.92000000001,"N_COORD97":2573146.3900000001,"ADDRESS":"果毅後３７５號之４","OBJECTID":36124},"geometry":{"x":185125.91999999993,"y":2573146.3900000025}},{"attributes":{"ID":36125,"DIS_CODE":0,"TOWNNAME":"安南區","LI":"理想里","LIN":"8鄰","STREET":"海佃路","SECT":"二段","MAREA":" ","LANE":"１５０巷","ALLEY":"１１２弄","HOUSE_NO":"４０號","E_COORD97":167275.29999999999,"N_COORD97":2548318.1600000001,"ADDRESS":"海佃路二段１５０巷１１２弄４０號","OBJECTID":36125},"geometry":{"x":167275.30000000168,"y":2548318.1600000001}},{"attributes":{"ID":36126,"DIS_CODE":0,"TOWNNAME":"安南區","LI":"理想里","LIN":"8鄰","STREET":"海佃路","SECT":"二段","MAREA":" ","LANE":"１５０巷","ALLEY":"１１２弄","HOUSE_NO":"１之６號","E_COORD97":167236.20999999999,"N_COORD97":2548412.0600000001,"ADDRESS":"海佃路二段１５０巷１１２弄１之６號","OBJECTID":36126},"geometry":{"x":167236.21000000089,"y":2548412.0600000024}},{"attributes":{"ID":36127,"DIS_CODE":0,"TOWNNAME":"安南區","LI":"砂崙里","LIN":"8鄰","STREET":"青砂街","SECT":"一段","MAREA":" ","LANE":"５７２巷","ALLEY":"８７弄","HOUSE_NO":"３２號","E_COORD97":160063.64999999999,"N_COORD97":2552783.02,"ADDRESS":"青砂街一段５７２巷８７弄３２號","OBJECTID":36127},"geometry":{"x":160063.65000000037,"y":2552783.0199999996}},{"attributes":{"ID":36128,"DIS_CODE":0,"TOWNNAME":"仁德區","LI":"上崙里","LIN":"8鄰","STREET":"德南路","SECT":" ","MAREA":" ","LANE":"３７３巷","ALLEY":"２１弄","HOUSE_NO":"４６號","E_COORD97":173887.20999999999,"N_COORD97":2538429.77,"ADDRESS":"德南路３７３巷２１弄４６號","OBJECTID":36128},"geometry":{"x":173887.20999999903,"y":2538429.7699999996}},{"attributes":{"ID":36129,"DIS_CODE":0,"TOWNNAME":"新化區","LI":"協興里","LIN":"8鄰","STREET":"太平街","SECT":" ","MAREA":" ","LANE":" ","ALLEY":" ","HOUSE_NO":"１１８號之３","E_COORD97":178482.57000000001,"N_COORD97":2548719.2599999998,"ADDRESS":"太平街１１８號之３","OBJECTID":36129},"geometry":{"x":178482.57000000216,"y":2548719.2600000016}},{"attributes":{"ID":36130,"DIS_CODE":0,"TOWNNAME":"新化區","LI":"護國里","LIN":"4鄰","STREET":"中山路","SECT":" ","MAREA":" ","LANE":" ","ALLEY":" ","HOUSE_NO":"２０６號","E_COORD97":179161.20999999999,"N_COORD97":2548465.25,"ADDRESS":"中山路２０６號","OBJECTID":36130},"geometry":{"x":179161.21000000089,"y":2548465.2500000019}},{"attributes":{"ID":36131,"DIS_CODE":0,"TOWNNAME":"新化區","LI":"唪口里","LIN":"4鄰","STREET":"大德路","SECT":" ","MAREA":" ","LANE":" ","ALLEY":" ","HOUSE_NO":"８８號之１２","E_COORD97":178168.88,"N_COORD97":2549524.2599999998,"ADDRESS":"大德路８８號之１２","OBJECTID":36131},"geometry":{"x":178168.88000000082,"y":2549524.2599999998}},{"attributes":{"ID":36132,"DIS_CODE":0,"TOWNNAME":"新化區","LI":"東榮里","LIN":"13鄰","STREET":"中興路","SECT":" ","MAREA":" ","LANE":" ","ALLEY":" ","HOUSE_NO":"５７３號","E_COORD97":179887.51000000001,"N_COORD97":2547928.25,"ADDRESS":"中興路５７３號","OBJECTID":36132},"geometry":{"x":179887.50999999978,"y":2547928.2500000037}},{"attributes":{"ID":36133,"DIS_CODE":0,"TOWNNAME":"新化區","LI":"太平里","LIN":"14鄰","STREET":"民權街","SECT":" ","MAREA":" ","LANE":" ","ALLEY":" ","HOUSE_NO":"１１５號","E_COORD97":178715.20999999999,"N_COORD97":2548794.25,"ADDRESS":"民權街１１５號","OBJECTID":36133},"geometry":{"x":178715.21000000183,"y":2548794.2500000019}},{"attributes":{"ID":36134,"DIS_CODE":0,"TOWNNAME":"新化區","LI":"武安里","LIN":"4鄰","STREET":"中正路","SECT":" ","MAREA":" ","LANE":" ","ALLEY":" ","HOUSE_NO":"３３９號","E_COORD97":179109.70999999999,"N_COORD97":2548214.25,"ADDRESS":"中正路３３９號","OBJECTID":36134},"geometry":{"x":179109.70999999996,"y":2548214.2500000019}},{"attributes":{"ID":36135,"DIS_CODE":0,"TOWNNAME":"將軍區","LI":"鯤溟里","LIN":"7鄰","STREET":" ","SECT":" ","MAREA":"鯤溟","LANE":" ","ALLEY":" ","HOUSE_NO":"５４號","E_COORD97":156575.04000000001,"N_COORD97":2565410,"ADDRESS":"鯤溟５４號","OBJECTID":36135},"geometry":{"x":156575.04000000004,"y":2565410}},{"attributes":{"ID":36136,"DIS_CODE":0,"TOWNNAME":"將軍區","LI":"鯤鯓里","LIN":"7鄰","STREET":" ","SECT":" ","MAREA":"鯤鯓","LANE":" ","ALLEY":" ","HOUSE_NO":"５７之２號","E_COORD97":156459.88,"N_COORD97":2565545.5099999998,"ADDRESS":"鯤鯓５７之２號","OBJECTID":36136},"geometry":{"x":156459.88000000082,"y":2565545.5099999998}},{"attributes":{"ID":36137,"DIS_CODE":0,"TOWNNAME":"將軍區","LI":"鯤鯓里","LIN":"7鄰","STREET":" ","SECT":" ","MAREA":"鯤鯓","LANE":" ","ALLEY":" ","HOUSE_NO":"５７號","E_COORD97":156492.44,"N_COORD97":2565559.9100000001,"ADDRESS":"鯤鯓５７號","OBJECTID":36137},"geometry":{"x":156492.44000000134,"y":2565559.9100000001}},{"attributes":{"ID":36138,"DIS_CODE":0,"TOWNNAME":"將軍區","LI":"鯤鯓里","LIN":"7鄰","STREET":" ","SECT":" ","MAREA":"鯤鯓","LANE":" ","ALLEY":" ","HOUSE_NO":"５８之１號","E_COORD97":156512.62,"N_COORD97":2565568.3900000001,"ADDRESS":"鯤鯓５８之１號","OBJECTID":36138},"geometry":{"x":156512.62000000104,"y":2565568.3900000025}},{"attributes":{"ID":36139,"DIS_CODE":0,"TOWNNAME":"仁德區","LI":"保安里","LIN":"8鄰","STREET":"文賢路","SECT":"一段","MAREA":" ","LANE":"７６３巷","ALLEY":"１８弄","HOUSE_NO":"８之２號","E_COORD97":171581.96399300001,"N_COORD97":2536118.5373800001,"ADDRESS":"文賢路一段７６３巷１８弄８之２號","OBJECTID":36139},"geometry":{"x":171581.96399299987,"y":2536118.5373760015}},{"attributes":{"ID":36140,"DIS_CODE":0,"TOWNNAME":"仁德區","LI":"新田里","LIN":"8鄰","STREET":"北保路","SECT":" ","MAREA":" ","LANE":"１８３巷","ALLEY":"２弄","HOUSE_NO":"５號","E_COORD97":173559.48000000001,"N_COORD97":2539438.9900000002,"ADDRESS":"北保路１８３巷２弄５號","OBJECTID":36140},"geometry":{"x":173559.48000000138,"y":2539438.9900000021}},{"attributes":{"ID":36141,"DIS_CODE":0,"TOWNNAME":"仁德區","LI":"上崙里","LIN":"8鄰","STREET":"德南路","SECT":" ","MAREA":" ","LANE":"３７３巷","ALLEY":"２１弄","HOUSE_NO":"１４號","E_COORD97":173931.57000000001,"N_COORD97":2538374.77,"ADDRESS":"德南路３７３巷２１弄１４號","OBJECTID":36141},"geometry":{"x":173931.57000000123,"y":2538374.7700000014}},{"attributes":{"ID":36142,"DIS_CODE":0,"TOWNNAME":"仁德區","LI":"上崙里","LIN":"8鄰","STREET":"德南路","SECT":" ","MAREA":" ","LANE":"３７３巷","ALLEY":"２１弄","HOUSE_NO":"４２號","E_COORD97":173889.70999999999,"N_COORD97":2538426.2599999998,"ADDRESS":"德南路３７３巷２１弄４２號","OBJECTID":36142},"geometry":{"x":173889.71000000089,"y":2538426.2600000016}},{"attributes":{"ID":36143,"DIS_CODE":0,"TOWNNAME":"永康區","LI":"成功里","LIN":"8鄰","STREET":"忠孝路","SECT":" ","MAREA":" ","LANE":"２０７巷","ALLEY":"３０弄","HOUSE_NO":"２號","E_COORD97":171991,"N_COORD97":2544967.7200000002,"ADDRESS":"忠孝路２０７巷３０弄２號","OBJECTID":36143},"geometry":{"x":171991.00000000093,"y":2544967.7200000007}},{"attributes":{"ID":36144,"DIS_CODE":0,"TOWNNAME":"永康區","LI":"成功里","LIN":"8鄰","STREET":"忠孝路","SECT":" ","MAREA":" ","LANE":"２０７巷","ALLEY":"３０弄","HOUSE_NO":"１號","E_COORD97":172005.87,"N_COORD97":2544968.25,"ADDRESS":"忠孝路２０７巷３０弄１號","OBJECTID":36144},"geometry":{"x":172005.87000000011,"y":2544968.2499999981}},{"attributes":{"ID":36145,"DIS_CODE":0,"TOWNNAME":"永康區","LI":"神洲里","LIN":"8鄰","STREET":"忠孝路","SECT":" ","MAREA":" ","LANE":"６巷","ALLEY":"１９弄","HOUSE_NO":"９號","E_COORD97":172216.20999999999,"N_COORD97":2544607.7400000002,"ADDRESS":"忠孝路６巷１９弄９號","OBJECTID":36145},"geometry":{"x":172216.21000000089,"y":2544607.7400000002}},{"attributes":{"ID":36146,"DIS_CODE":0,"TOWNNAME":"永康區","LI":"新樹里","LIN":"8鄰","STREET":"富強路","SECT":"二段","MAREA":" ","LANE":"５６巷","ALLEY":"５８弄","HOUSE_NO":"２９號","E_COORD97":175886.03,"N_COORD97":2547037.23,"ADDRESS":"富強路二段５６巷５８弄２９號","OBJECTID":36146},"geometry":{"x":175886.03000000119,"y":2547037.2300000042}},{"attributes":{"ID":36147,"DIS_CODE":0,"TOWNNAME":"永康區","LI":"西勢里","LIN":"8鄰","STREET":"廣興街","SECT":" ","MAREA":" ","LANE":"２５巷","ALLEY":"１弄","HOUSE_NO":"３號","E_COORD97":175795.35999999999,"N_COORD97":2546615.25,"ADDRESS":"廣興街２５巷１弄３號","OBJECTID":36147},"geometry":{"x":175795.3599999994,"y":2546615.25}},{"attributes":{"ID":36148,"DIS_CODE":0,"TOWNNAME":"永康區","LI":"網寮里","LIN":"8鄰","STREET":"永二街","SECT":" ","MAREA":" ","LANE":"２４４巷","ALLEY":"４弄","HOUSE_NO":"１９號","E_COORD97":173309.17999999999,"N_COORD97":2546339.3999999999,"ADDRESS":"永二街２４４巷４弄１９號","OBJECTID":36148},"geometry":{"x":173309.18000000156,"y":2546339.4000000004}},{"attributes":{"ID":36149,"DIS_CODE":0,"TOWNNAME":"永康區","LI":"東橋里","LIN":"8鄰","STREET":"大橋一街","SECT":" ","MAREA":" ","LANE":"３２４巷","ALLEY":"１１７弄","HOUSE_NO":"１號","E_COORD97":171541.31,"N_COORD97":2546397.7999999998,"ADDRESS":"大橋一街３２４巷１１７弄１號","OBJECTID":36149},"geometry":{"x":171541.30999999959,"y":2546397.8000000026}},{"attributes":{"ID":36150,"DIS_CODE":0,"TOWNNAME":"永康區","LI":"大灣里","LIN":"8鄰","STREET":"民族路","SECT":" ","MAREA":" ","LANE":"３９６巷","ALLEY":"１６弄","HOUSE_NO":"１９號","E_COORD97":174837.76999999999,"N_COORD97":2545430.1000000001,"ADDRESS":"民族路３９６巷１６弄１９號","OBJECTID":36150},"geometry":{"x":174837.77000000048,"y":2545430.1000000034}},{"attributes":{"ID":36151,"DIS_CODE":0,"TOWNNAME":"永康區","LI":"神洲里","LIN":"8鄰","STREET":"忠孝路","SECT":" ","MAREA":" ","LANE":"６巷","ALLEY":"２５弄","HOUSE_NO":"４號","E_COORD97":172245.76000000001,"N_COORD97":2544575.75,"ADDRESS":"忠孝路６巷２５弄４號","OBJECTID":36151},"geometry":{"x":172245.75999999885,"y":2544575.7500000019}},{"attributes":{"ID":36152,"DIS_CODE":0,"TOWNNAME":"南區","LI":"彰南里","LIN":"14鄰","STREET":"新信路","SECT":" ","MAREA":" ","LANE":" ","ALLEY":" ","HOUSE_NO":"２號之２","E_COORD97":166174.20999999999,"N_COORD97":2541621.4700000002,"ADDRESS":"新信路２號之２","OBJECTID":36152},"geometry":{"x":166174.21000000183,"y":2541621.4700000044}},{"attributes":{"ID":36153,"DIS_CODE":0,"TOWNNAME":"南區","LI":"彰南里","LIN":"14鄰","STREET":"新愛路","SECT":" ","MAREA":" ","LANE":" ","ALLEY":" ","HOUSE_NO":"１３號","E_COORD97":166054.41,"N_COORD97":2541687.2599999998,"ADDRESS":"新愛路１３號","OBJECTID":36153},"geometry":{"x":166054.41000000201,"y":2541687.2600000016}},{"attributes":{"ID":36154,"DIS_CODE":0,"TOWNNAME":"南區","LI":"彰南里","LIN":"14鄰","STREET":"新愛路","SECT":" ","MAREA":" ","LANE":" ","ALLEY":" ","HOUSE_NO":"２１號","E_COORD97":165956.39999999999,"N_COORD97":2541683.3999999999,"ADDRESS":"新愛路２１號","OBJECTID":36154},"geometry":{"x":165956.40000000224,"y":2541683.4000000022}},{"attributes":{"ID":36155,"DIS_CODE":0,"TOWNNAME":"南區","LI":"彰南里","LIN":"14鄰","STREET":"新愛路","SECT":" ","MAREA":" ","LANE":" ","ALLEY":" ","HOUSE_NO":"２５號之１","E_COORD97":165863.87,"N_COORD97":2541689.46,"ADDRESS":"新愛路２５號之１","OBJECTID":36155},"geometry":{"x":165863.87000000104,"y":2541689.4600000046}},{"attributes":{"ID":36156,"DIS_CODE":0,"TOWNNAME":"南區","LI":"彰南里","LIN":"14鄰","STREET":"新樂路","SECT":" ","MAREA":" ","LANE":" ","ALLEY":" ","HOUSE_NO":"２７號","E_COORD97":165726.94,"N_COORD97":2541680.0299999998,"ADDRESS":"新樂路２７號","OBJECTID":36156},"geometry":{"x":165726.94000000041,"y":2541680.0299999993}},{"attributes":{"ID":36157,"DIS_CODE":0,"TOWNNAME":"將軍區","LI":"鯤鯓里","LIN":"7鄰","STREET":" ","SECT":" ","MAREA":"鯤鯓","LANE":" ","ALLEY":" ","HOUSE_NO":"５８號","E_COORD97":156516.26000000001,"N_COORD97":2565560.0899999999,"ADDRESS":"鯤鯓５８號","OBJECTID":36157},"geometry":{"x":156516.26000000164,"y":2565560.0900000017}},{"attributes":{"ID":36158,"DIS_CODE":0,"TOWNNAME":"安南區","LI":"安順里","LIN":"8鄰","STREET":"安和路","SECT":"四段","MAREA":" ","LANE":"８７巷","ALLEY":"２２弄","HOUSE_NO":"１號","E_COORD97":169871.82999999999,"N_COORD97":2550297.79,"ADDRESS":"安和路四段８７巷２２弄１號","OBJECTID":36158},"geometry":{"x":169871.83000000007,"y":2550297.790000001}},{"attributes":{"ID":36159,"DIS_CODE":0,"TOWNNAME":"東區","LI":"富強里","LIN":"8鄰","STREET":"中華東路","SECT":"二段","MAREA":" ","LANE":"９６巷","ALLEY":"２３弄","HOUSE_NO":"１２號","E_COORD97":171197.45999999999,"N_COORD97":2542802.2200000002,"ADDRESS":"中華東路二段９６巷２３弄１２號","OBJECTID":36159},"geometry":{"x":171197.46000000089,"y":2542802.2200000007}},{"attributes":{"ID":36160,"DIS_CODE":0,"TOWNNAME":"東區","LI":"富強里","LIN":"8鄰","STREET":"中華東路","SECT":"二段","MAREA":" ","LANE":"９６巷","ALLEY":"２３弄","HOUSE_NO":"１４號","E_COORD97":171193.42999999999,"N_COORD97":2542803.7999999998,"ADDRESS":"中華東路二段９６巷２３弄１４號","OBJECTID":36160},"geometry":{"x":171193.4299999997,"y":2542803.8000000026}},{"attributes":{"ID":36161,"DIS_CODE":0,"TOWNNAME":"東區","LI":"富裕里","LIN":"8鄰","STREET":"裕農路","SECT":" ","MAREA":" ","LANE":"２８８巷","ALLEY":"６０弄","HOUSE_NO":"５２號","E_COORD97":170905.67999999999,"N_COORD97":2542832.27,"ADDRESS":"裕農路２８８巷６０弄５２號","OBJECTID":36161},"geometry":{"x":170905.68000000063,"y":2542832.2700000014}},{"attributes":{"ID":36162,"DIS_CODE":0,"TOWNNAME":"東區","LI":"富裕里","LIN":"8鄰","STREET":"裕農路","SECT":" ","MAREA":" ","LANE":"２８８巷","ALLEY":"６０弄","HOUSE_NO":"５４號","E_COORD97":170905.17999999999,"N_COORD97":2542828.5299999998,"ADDRESS":"裕農路２８８巷６０弄５４號","OBJECTID":36162},"geometry":{"x":170905.1799999997,"y":2542828.5299999993}},{"attributes":{"ID":36163,"DIS_CODE":0,"TOWNNAME":"東區","LI":"富裕里","LIN":"8鄰","STREET":"裕農路","SECT":" ","MAREA":" ","LANE":"２８８巷","ALLEY":"６０弄","HOUSE_NO":"５６號","E_COORD97":170906.01000000001,"N_COORD97":2542825.1699999999,"ADDRESS":"裕農路２８８巷６０弄５６號","OBJECTID":36163},"geometry":{"x":170906.00999999978,"y":2542825.1699999999}},{"attributes":{"ID":36164,"DIS_CODE":0,"TOWNNAME":"將軍區","LI":"將貴里","LIN":"7鄰","STREET":" ","SECT":" ","MAREA":"將貴","LANE":" ","ALLEY":" ","HOUSE_NO":"１２１號","E_COORD97":161437.60999999999,"N_COORD97":2567586.98,"ADDRESS":"將貴１２１號","OBJECTID":36164},"geometry":{"x":161437.61000000127,"y":2567586.9800000004}},{"attributes":{"ID":36165,"DIS_CODE":0,"TOWNNAME":"仁德區","LI":"中洲里","LIN":"7鄰","STREET":" ","SECT":" ","MAREA":"中洲","LANE":" ","ALLEY":" ","HOUSE_NO":"２８１號之１","E_COORD97":173197.67999999999,"N_COORD97":2534169.54,"ADDRESS":"中洲２８１號之１","OBJECTID":36165},"geometry":{"x":173197.68000000063,"y":2534169.5399999991}},{"attributes":{"ID":36166,"DIS_CODE":0,"TOWNNAME":"龍崎區","LI":"崎頂里","LIN":"7鄰","STREET":" ","SECT":" ","MAREA":"新市子","LANE":" ","ALLEY":" ","HOUSE_NO":"２５２號","E_COORD97":184532.07000000001,"N_COORD97":2541231.25,"ADDRESS":"新市子２５２號","OBJECTID":36166},"geometry":{"x":184532.0700000003,"y":2541231.25}},{"attributes":{"ID":36167,"DIS_CODE":0,"TOWNNAME":"龍崎區","LI":"崎頂里","LIN":"7鄰","STREET":" ","SECT":" ","MAREA":"新市子","LANE":" ","ALLEY":" ","HOUSE_NO":"２２０號","E_COORD97":184404.57000000001,"N_COORD97":2540636.25,"ADDRESS":"新市子２２０號","OBJECTID":36167},"geometry":{"x":184404.57000000123,"y":2540636.2500000019}},{"attributes":{"ID":36168,"DIS_CODE":0,"TOWNNAME":"龍崎區","LI":"楠坑里","LIN":"7鄰","STREET":" ","SECT":" ","MAREA":"楠坑","LANE":" ","ALLEY":" ","HOUSE_NO":"１８號","E_COORD97":183855.69,"N_COORD97":2535128.2799999998,"ADDRESS":"楠坑１８號","OBJECTID":36168},"geometry":{"x":183855.69000000227,"y":2535128.2799999993}},{"attributes":{"ID":36169,"DIS_CODE":0,"TOWNNAME":"龍崎區","LI":"楠坑里","LIN":"7鄰","STREET":" ","SECT":" ","MAREA":"楠坑","LANE":" ","ALLEY":" ","HOUSE_NO":"１７之６號","E_COORD97":183740.59,"N_COORD97":2535385.2999999998,"ADDRESS":"楠坑１７之６號","OBJECTID":36169},"geometry":{"x":183740.59000000171,"y":2535385.3000000026}},{"attributes":{"ID":36170,"DIS_CODE":0,"TOWNNAME":"龍崎區","LI":"崎頂里","LIN":"7鄰","STREET":" ","SECT":" ","MAREA":"新市子","LANE":" ","ALLEY":" ","HOUSE_NO":"２７２號","E_COORD97":184380.76999999999,"N_COORD97":2540879.25,"ADDRESS":"新市子２７２號","OBJECTID":36170},"geometry":{"x":184380.76999999955,"y":2540879.25}},{"attributes":{"ID":36171,"DIS_CODE":0,"TOWNNAME":"龍崎區","LI":"崎頂里","LIN":"7鄰","STREET":" ","SECT":" ","MAREA":"新市子","LANE":" ","ALLEY":" ","HOUSE_NO":"２６５之４號","E_COORD97":184400.37,"N_COORD97":2540912.2999999998,"ADDRESS":"新市子２６５之４號","OBJECTID":36171},"geometry":{"x":184400.37000000104,"y":2540912.3000000026}},{"attributes":{"ID":36172,"DIS_CODE":0,"TOWNNAME":"龍崎區","LI":"崎頂里","LIN":"7鄰","STREET":" ","SECT":" ","MAREA":"新市子","LANE":" ","ALLEY":" ","HOUSE_NO":"２４１號","E_COORD97":184425.57000000001,"N_COORD97":2540856.25,"ADDRESS":"新市子２４１號","OBJECTID":36172},"geometry":{"x":184425.5700000003,"y":2540856.2500000019}},{"attributes":{"ID":36173,"DIS_CODE":0,"TOWNNAME":"龍崎區","LI":"大坪里","LIN":"7鄰","STREET":" ","SECT":" ","MAREA":"大坪","LANE":" ","ALLEY":" ","HOUSE_NO":"１１號","E_COORD97":187628.26999999999,"N_COORD97":2536505.25,"ADDRESS":"大坪１１號","OBJECTID":36173},"geometry":{"x":187628.27000000048,"y":2536505.25}},{"attributes":{"ID":36174,"DIS_CODE":0,"TOWNNAME":"龍崎區","LI":"牛埔里","LIN":"7鄰","STREET":" ","SECT":" ","MAREA":"烏山頭","LANE":" ","ALLEY":" ","HOUSE_NO":"２號","E_COORD97":191078.79000000001,"N_COORD97":2537419.25,"ADDRESS":"烏山頭２號","OBJECTID":36174},"geometry":{"x":191078.79000000004,"y":2537419.2500000019}},{"attributes":{"ID":36175,"DIS_CODE":0,"TOWNNAME":"柳營區","LI":"神農里","LIN":"15鄰","STREET":" ","SECT":" ","MAREA":"新厝","LANE":" ","ALLEY":" ","HOUSE_NO":"１號之２","E_COORD97":183784.48000000001,"N_COORD97":2572869.6400000001,"ADDRESS":"新厝１號之２","OBJECTID":36175},"geometry":{"x":183784.48000000138,"y":2572869.6400000025}},{"attributes":{"ID":36176,"DIS_CODE":0,"TOWNNAME":"龍崎區","LI":"崎頂里","LIN":"7鄰","STREET":" ","SECT":" ","MAREA":"新市子","LANE":" ","ALLEY":" ","HOUSE_NO":"２７９號","E_COORD97":184365.47,"N_COORD97":2540735.25,"ADDRESS":"新市子２７９號","OBJECTID":36176},"geometry":{"x":184365.47000000067,"y":2540735.2500000019}},{"attributes":{"ID":36177,"DIS_CODE":0,"TOWNNAME":"龍崎區","LI":"龍船里","LIN":"7鄰","STREET":" ","SECT":" ","MAREA":"水堀坪","LANE":" ","ALLEY":" ","HOUSE_NO":"７號","E_COORD97":191884.16,"N_COORD97":2539542.25,"ADDRESS":"水堀坪７號","OBJECTID":36177},"geometry":{"x":191884.16000000108,"y":2539542.25}},{"attributes":{"ID":36178,"DIS_CODE":0,"TOWNNAME":"龍崎區","LI":"龍船里","LIN":"7鄰","STREET":" ","SECT":" ","MAREA":"水堀坪","LANE":" ","ALLEY":" ","HOUSE_NO":"３號","E_COORD97":191672.66,"N_COORD97":2539570.25,"ADDRESS":"水堀坪３號","OBJECTID":36178},"geometry":{"x":191672.66000000108,"y":2539570.25}},{"attributes":{"ID":36179,"DIS_CODE":0,"TOWNNAME":"東區","LI":"富裕里","LIN":"8鄰","STREET":"裕農路","SECT":" ","MAREA":" ","LANE":"２８８巷","ALLEY":"６０弄","HOUSE_NO":"５８號","E_COORD97":170906.23000000001,"N_COORD97":2542820.3300000001,"ADDRESS":"裕農路２８８巷６０弄５８號","OBJECTID":36179},"geometry":{"x":170906.23000000138,"y":2542820.3300000001}},{"attributes":{"ID":36180,"DIS_CODE":0,"TOWNNAME":"東區","LI":"富裕里","LIN":"8鄰","STREET":"裕農路","SECT":" ","MAREA":" ","LANE":"２８８巷","ALLEY":"６０弄","HOUSE_NO":"６０號","E_COORD97":170906.67000000001,"N_COORD97":2542817.5299999998,"ADDRESS":"裕農路２８８巷６０弄６０號","OBJECTID":36180},"geometry":{"x":170906.66999999993,"y":2542817.5300000012}},{"attributes":{"ID":36181,"DIS_CODE":0,"TOWNNAME":"東區","LI":"富裕里","LIN":"8鄰","STREET":"裕農路","SECT":" ","MAREA":" ","LANE":"２８８巷","ALLEY":"６０弄","HOUSE_NO":"６２號","E_COORD97":170906.89000000001,"N_COORD97":2542812.5800000001,"ADDRESS":"裕農路２８８巷６０弄６２號","OBJECTID":36181},"geometry":{"x":170906.88999999966,"y":2542812.5800000001}},{"attributes":{"ID":36182,"DIS_CODE":0,"TOWNNAME":"龍崎區","LI":"楠坑里","LIN":"7鄰","STREET":" ","SECT":" ","MAREA":"楠坑","LANE":" ","ALLEY":" ","HOUSE_NO":"１８之１號","E_COORD97":183945.48999999999,"N_COORD97":2535035.2999999998,"ADDRESS":"楠坑１８之１號","OBJECTID":36182},"geometry":{"x":183945.49000000115,"y":2535035.3000000045}},{"attributes":{"ID":36183,"DIS_CODE":0,"TOWNNAME":"南區","LI":"同安里","LIN":"14鄰","STREET":"明興路","SECT":" ","MAREA":" ","LANE":" ","ALLEY":" ","HOUSE_NO":"１３６７號","E_COORD97":166385.37,"N_COORD97":2535894.1000000001,"ADDRESS":"明興路１３６７號","OBJECTID":36183},"geometry":{"x":166385.37000000104,"y":2535894.1000000015}},{"attributes":{"ID":36184,"DIS_CODE":0,"TOWNNAME":"南區","LI":"同安里","LIN":"14鄰","STREET":"明興路","SECT":" ","MAREA":" ","LANE":" ","ALLEY":" ","HOUSE_NO":"１３６９號","E_COORD97":166385.01999999999,"N_COORD97":2535890.71,"ADDRESS":"明興路１３６９號","OBJECTID":36184},"geometry":{"x":166385.01999999955,"y":2535890.7100000028}},{"attributes":{"ID":36185,"DIS_CODE":0,"TOWNNAME":"南區","LI":"同安里","LIN":"14鄰","STREET":"明興路","SECT":" ","MAREA":" ","LANE":" ","ALLEY":" ","HOUSE_NO":"１３７１號","E_COORD97":166385.28,"N_COORD97":2535885.8799999999,"ADDRESS":"明興路１３７１號","OBJECTID":36185},"geometry":{"x":166385.28000000026,"y":2535885.879999999}},{"attributes":{"ID":36186,"DIS_CODE":0,"TOWNNAME":"南區","LI":"同安里","LIN":"14鄰","STREET":"明興路","SECT":" ","MAREA":" ","LANE":" ","ALLEY":" ","HOUSE_NO":"１３７３號","E_COORD97":166382.76999999999,"N_COORD97":2535881.8199999998,"ADDRESS":"明興路１３７３號","OBJECTID":36186},"geometry":{"x":166382.76999999955,"y":2535881.8199999984}},{"attributes":{"ID":36187,"DIS_CODE":0,"TOWNNAME":"南區","LI":"同安里","LIN":"14鄰","STREET":"明興路","SECT":" ","MAREA":" ","LANE":" ","ALLEY":" ","HOUSE_NO":"１３７５號","E_COORD97":166381.56,"N_COORD97":2535877.73,"ADDRESS":"明興路１３７５號","OBJECTID":36187},"geometry":{"x":166381.55999999866,"y":2535877.7300000023}},{"attributes":{"ID":36188,"DIS_CODE":0,"TOWNNAME":"南區","LI":"同安里","LIN":"14鄰","STREET":"明興路","SECT":" ","MAREA":" ","LANE":" ","ALLEY":" ","HOUSE_NO":"１３７７號","E_COORD97":166383.20000000001,"N_COORD97":2535873.9300000002,"ADDRESS":"明興路１３７７號","OBJECTID":36188},"geometry":{"x":166383.20000000112,"y":2535873.9300000034}},{"attributes":{"ID":36189,"DIS_CODE":0,"TOWNNAME":"南區","LI":"同安里","LIN":"14鄰","STREET":"明興路","SECT":" ","MAREA":" ","LANE":" ","ALLEY":" ","HOUSE_NO":"１３７９號","E_COORD97":166382.60000000001,"N_COORD97":2535869.8700000001,"ADDRESS":"明興路１３７９號","OBJECTID":36189},"geometry":{"x":166382.59999999963,"y":2535869.8700000029}},{"attributes":{"ID":36190,"DIS_CODE":0,"TOWNNAME":"龍崎區","LI":"楠坑里","LIN":"7鄰","STREET":" ","SECT":" ","MAREA":"楠坑","LANE":" ","ALLEY":" ","HOUSE_NO":"１７號","E_COORD97":183762.09,"N_COORD97":2535388.2799999998,"ADDRESS":"楠坑１７號","OBJECTID":36190},"geometry":{"x":183762.08999999985,"y":2535388.2799999993}},{"attributes":{"ID":36191,"DIS_CODE":0,"TOWNNAME":"龍崎區","LI":"楠坑里","LIN":"7鄰","STREET":" ","SECT":" ","MAREA":"楠坑","LANE":" ","ALLEY":" ","HOUSE_NO":"１５之１號","E_COORD97":184034.69,"N_COORD97":2535394.2999999998,"ADDRESS":"楠坑１５之１號","OBJECTID":36191},"geometry":{"x":184034.69000000041,"y":2535394.2999999989}},{"attributes":{"ID":36192,"DIS_CODE":0,"TOWNNAME":"龍崎區","LI":"楠坑里","LIN":"7鄰","STREET":" ","SECT":" ","MAREA":"楠坑","LANE":" ","ALLEY":" ","HOUSE_NO":"１４號","E_COORD97":184112.69,"N_COORD97":2535416.2799999998,"ADDRESS":"楠坑１４號","OBJECTID":36192},"geometry":{"x":184112.69000000041,"y":2535416.2799999993}},{"attributes":{"ID":36193,"DIS_CODE":0,"TOWNNAME":"龍崎區","LI":"楠坑里","LIN":"7鄰","STREET":" ","SECT":" ","MAREA":"楠坑","LANE":" ","ALLEY":" ","HOUSE_NO":"１９號","E_COORD97":183980.19,"N_COORD97":2535181.2799999998,"ADDRESS":"楠坑１９號","OBJECTID":36193},"geometry":{"x":183980.19000000134,"y":2535181.2799999993}},{"attributes":{"ID":36194,"DIS_CODE":0,"TOWNNAME":"龍崎區","LI":"楠坑里","LIN":"7鄰","STREET":" ","SECT":" ","MAREA":"楠坑","LANE":" ","ALLEY":" ","HOUSE_NO":"１７之５號","E_COORD97":183817.79000000001,"N_COORD97":2535370.2999999998,"ADDRESS":"楠坑１７之５號","OBJECTID":36194},"geometry":{"x":183817.79000000097,"y":2535370.3000000007}},{"attributes":{"ID":36195,"DIS_CODE":0,"TOWNNAME":"龍崎區","LI":"崎頂里","LIN":"7鄰","STREET":" ","SECT":" ","MAREA":"新市子","LANE":" ","ALLEY":" ","HOUSE_NO":"２２５之２號","E_COORD97":184432.57000000001,"N_COORD97":2540697.2999999998,"ADDRESS":"新市子２２５之２號","OBJECTID":36195},"geometry":{"x":184432.5700000003,"y":2540697.3000000045}},{"attributes":{"ID":36196,"DIS_CODE":0,"TOWNNAME":"龍崎區","LI":"楠坑里","LIN":"7鄰","STREET":" ","SECT":" ","MAREA":"楠坑","LANE":" ","ALLEY":" ","HOUSE_NO":"２４號之１","E_COORD97":184270.03,"N_COORD97":2535172.2999999998,"ADDRESS":"楠坑２４號之１","OBJECTID":36196},"geometry":{"x":184270.03000000026,"y":2535172.3000000026}},{"attributes":{"ID":36197,"DIS_CODE":0,"TOWNNAME":"龍崎區","LI":"楠坑里","LIN":"7鄰","STREET":" ","SECT":" ","MAREA":"楠坑","LANE":" ","ALLEY":" ","HOUSE_NO":"２０號","E_COORD97":184278.89000000001,"N_COORD97":2535206.2799999998,"ADDRESS":"楠坑２０號","OBJECTID":36197},"geometry":{"x":184278.88999999873,"y":2535206.2799999993}},{"attributes":{"ID":36198,"DIS_CODE":0,"TOWNNAME":"龍崎區","LI":"崎頂里","LIN":"7鄰","STREET":" ","SECT":" ","MAREA":"新市子","LANE":" ","ALLEY":" ","HOUSE_NO":"２７１號","E_COORD97":184406.37,"N_COORD97":2540866.25,"ADDRESS":"新市子２７１號","OBJECTID":36198},"geometry":{"x":184406.37000000011,"y":2540866.2500000037}},{"attributes":{"ID":36199,"DIS_CODE":0,"TOWNNAME":"東區","LI":"富裕里","LIN":"8鄰","STREET":"裕農路","SECT":" ","MAREA":" ","LANE":"２８８巷","ALLEY":"６０弄","HOUSE_NO":"６８號","E_COORD97":170898.84,"N_COORD97":2542816.9700000002,"ADDRESS":"裕農路２８８巷６０弄６８號","OBJECTID":36199},"geometry":{"x":170898.83999999985,"y":2542816.9700000007}},{"attributes":{"ID":36200,"DIS_CODE":0,"TOWNNAME":"龍崎區","LI":"土崎里","LIN":"7鄰","STREET":" ","SECT":" ","MAREA":"土崎","LANE":" ","ALLEY":" ","HOUSE_NO":"３１號","E_COORD97":188294.97,"N_COORD97":2542461.25,"ADDRESS":"土崎３１號","OBJECTID":36200},"geometry":{"x":188294.97000000067,"y":2542461.2500000019}}]}