{"displayFieldName":"TOWNNAME","fieldAliases":{"ID":"ID","DIS_CODE":"DIS_CODE","TOWNNAME":"TOWNNAME","LI":"LI","LIN":"LIN","STREET":"STREET","SECT":"SECT","MAREA":"MAREA","LANE":"LANE","ALLEY":"ALLEY","HOUSE_NO":"HOUSE_NO","E_COORD97":"E_COORD97","N_COORD97":"N_COORD97","ADDRESS":"ADDRESS","OBJECTID":"OBJECTID"},"geometryType":"esriGeometryPoint","spatialReference":{"wkid":102443,"latestWkid":3826},"fields":[{"name":"ID","type":"esriFieldTypeDouble","alias":"ID"},{"name":"DIS_CODE","type":"esriFieldTypeInteger","alias":"DIS_CODE"},{"name":"TOWNNAME","type":"esriFieldTypeString","alias":"TOWNNAME","length":8},{"name":"LI","type":"esriFieldTypeString","alias":"LI","length":8},{"name":"LIN","type":"esriFieldTypeString","alias":"LIN","length":12},{"name":"STREET","type":"esriFieldTypeString","alias":"STREET","length":20},{"name":"SECT","type":"esriFieldTypeString","alias":"SECT","length":8},{"name":"MAREA","type":"esriFieldTypeString","alias":"MAREA","length":12},{"name":"LANE","type":"esriFieldTypeString","alias":"LANE","length":10},{"name":"ALLEY","type":"esriFieldTypeString","alias":"ALLEY","length":10},{"name":"HOUSE_NO","type":"esriFieldTypeString","alias":"HOUSE_NO","length":20},{"name":"E_COORD97","type":"esriFieldTypeDouble","alias":"E_COORD97"},{"name":"N_COORD97","type":"esriFieldTypeDouble","alias":"N_COORD97"},{"name":"ADDRESS","type":"esriFieldTypeString","alias":"ADDRESS","length":50},{"name":"OBJECTID","type":"esriFieldTypeOID","alias":"OBJECTID"}],"features":[{"attributes":{"ID":538228,"DIS_CODE":0,"TOWNNAME":"永康區","LI":"西灣里","LIN":"44鄰","STREET":"永華路","SECT":" ","MAREA":" ","LANE":" ","ALLEY":" ","HOUSE_NO":"１９７號","E_COORD97":174085.20000000001,"N_COORD97":2545618.3599999999,"ADDRESS":"永華路１９７號","OBJECTID":538201},"geometry":{"x":174085.20000000019,"y":2545618.3600000013}},{"attributes":{"ID":538229,"DIS_CODE":0,"TOWNNAME":"永康區","LI":"西灣里","LIN":"44鄰","STREET":"永華路","SECT":" ","MAREA":" ","LANE":" ","ALLEY":" ","HOUSE_NO":"１６７號","E_COORD97":174089.94,"N_COORD97":2545545.6000000001,"ADDRESS":"永華路１６７號","OBJECTID":538202},"geometry":{"x":174089.94000000134,"y":2545545.6000000034}},{"attributes":{"ID":538230,"DIS_CODE":0,"TOWNNAME":"永康區","LI":"西灣里","LIN":"44鄰","STREET":"永華路","SECT":" ","MAREA":" ","LANE":" ","ALLEY":" ","HOUSE_NO":"１９３號","E_COORD97":174085.35000000001,"N_COORD97":2545609.3599999999,"ADDRESS":"永華路１９３號","OBJECTID":538203},"geometry":{"x":174085.34999999963,"y":2545609.3600000013}},{"attributes":{"ID":538231,"DIS_CODE":0,"TOWNNAME":"永康區","LI":"龍潭里","LIN":"44鄰","STREET":"永平街","SECT":" ","MAREA":" ","LANE":" ","ALLEY":" ","HOUSE_NO":"２８８之２３號","E_COORD97":174686.12,"N_COORD97":2547050.2999999998,"ADDRESS":"永平街２８８之２３號","OBJECTID":538204},"geometry":{"x":174686.12000000011,"y":2547050.3000000007}},{"attributes":{"ID":538232,"DIS_CODE":0,"TOWNNAME":"永康區","LI":"龍潭里","LIN":"44鄰","STREET":"永平街","SECT":" ","MAREA":" ","LANE":" ","ALLEY":" ","HOUSE_NO":"２９２之２６號","E_COORD97":174655.56,"N_COORD97":2547068.5499999998,"ADDRESS":"永平街２９２之２６號","OBJECTID":538205},"geometry":{"x":174655.55999999959,"y":2547068.5500000007}},{"attributes":{"ID":538233,"DIS_CODE":0,"TOWNNAME":"永康區","LI":"龍潭里","LIN":"44鄰","STREET":"永平街","SECT":" ","MAREA":" ","LANE":" ","ALLEY":" ","HOUSE_NO":"２７８之１６號","E_COORD97":174685.51000000001,"N_COORD97":2547032.0499999998,"ADDRESS":"永平街２７８之１６號","OBJECTID":538206},"geometry":{"x":174685.51000000071,"y":2547032.0500000045}},{"attributes":{"ID":538234,"DIS_CODE":0,"TOWNNAME":"永康區","LI":"龍潭里","LIN":"44鄰","STREET":"永平街","SECT":" ","MAREA":" ","LANE":" ","ALLEY":" ","HOUSE_NO":"２７８之６號","E_COORD97":174684.26000000001,"N_COORD97":2547032.0499999998,"ADDRESS":"永平街２７８之６號","OBJECTID":538207},"geometry":{"x":174684.26000000071,"y":2547032.0500000045}},{"attributes":{"ID":538235,"DIS_CODE":0,"TOWNNAME":"永康區","LI":"龍潭里","LIN":"44鄰","STREET":"永平街","SECT":" ","MAREA":" ","LANE":" ","ALLEY":" ","HOUSE_NO":"２９６之７號","E_COORD97":174672.37,"N_COORD97":2547093.29,"ADDRESS":"永平街２９６之７號","OBJECTID":538208},"geometry":{"x":174672.37000000011,"y":2547093.2900000028}},{"attributes":{"ID":538236,"DIS_CODE":0,"TOWNNAME":"仁德區","LI":"成功里","LIN":"39鄰","STREET":"文賢路","SECT":"一段","MAREA":" ","LANE":" ","ALLEY":" ","HOUSE_NO":"４８０號","E_COORD97":170961.84,"N_COORD97":2537240.27,"ADDRESS":"文賢路一段４８０號","OBJECTID":538209},"geometry":{"x":170961.83999999985,"y":2537240.2699999996}},{"attributes":{"ID":538237,"DIS_CODE":0,"TOWNNAME":"中西區","LI":"仙草里","LIN":"10鄰","STREET":"南寧街","SECT":" ","MAREA":" ","LANE":" ","ALLEY":" ","HOUSE_NO":"５５號","E_COORD97":167934.14000000001,"N_COORD97":2542838.4700000002,"ADDRESS":"南寧街５５號","OBJECTID":538210},"geometry":{"x":167934.1400000006,"y":2542838.4700000044}},{"attributes":{"ID":538238,"DIS_CODE":0,"TOWNNAME":"中西區","LI":"福安里","LIN":"3鄰","STREET":"府前路","SECT":"一段","MAREA":" ","LANE":" ","ALLEY":" ","HOUSE_NO":"３０８號","E_COORD97":167871.16,"N_COORD97":2543434.5299999998,"ADDRESS":"府前路一段３０８號","OBJECTID":538211},"geometry":{"x":167871.16000000015,"y":2543434.5300000012}},{"attributes":{"ID":538239,"DIS_CODE":0,"TOWNNAME":"南區","LI":"國宅里","LIN":"8鄰","STREET":"新孝路","SECT":" ","MAREA":" ","LANE":" ","ALLEY":" ","HOUSE_NO":"５３號","E_COORD97":166905.92000000001,"N_COORD97":2542039.7999999998,"ADDRESS":"新孝路５３號","OBJECTID":538212},"geometry":{"x":166905.92000000086,"y":2542039.8000000045}},{"attributes":{"ID":538240,"DIS_CODE":0,"TOWNNAME":"中西區","LI":"仙草里","LIN":"1鄰","STREET":"西門路","SECT":"一段","MAREA":" ","LANE":" ","ALLEY":" ","HOUSE_NO":"４７６號","E_COORD97":167750.39000000001,"N_COORD97":2542669.3199999998,"ADDRESS":"西門路一段４７６號","OBJECTID":538213},"geometry":{"x":167750.38999999966,"y":2542669.3200000003}},{"attributes":{"ID":538241,"DIS_CODE":0,"TOWNNAME":"新市區","LI":"新和里","LIN":"44鄰","STREET":"民生路","SECT":" ","MAREA":" ","LANE":" ","ALLEY":" ","HOUSE_NO":"４７號","E_COORD97":177294.84,"N_COORD97":2553177.29,"ADDRESS":"民生路４７號","OBJECTID":538214},"geometry":{"x":177294.83999999985,"y":2553177.2899999991}},{"attributes":{"ID":538242,"DIS_CODE":0,"TOWNNAME":"新市區","LI":"新和里","LIN":"44鄰","STREET":"民生路","SECT":" ","MAREA":" ","LANE":" ","ALLEY":" ","HOUSE_NO":"５０號","E_COORD97":177266.62,"N_COORD97":2553218.29,"ADDRESS":"民生路５０號","OBJECTID":538215},"geometry":{"x":177266.62000000197,"y":2553218.2899999991}},{"attributes":{"ID":538243,"DIS_CODE":0,"TOWNNAME":"新市區","LI":"新和里","LIN":"44鄰","STREET":"民生路","SECT":" ","MAREA":" ","LANE":" ","ALLEY":" ","HOUSE_NO":"５７號","E_COORD97":177276.38,"N_COORD97":2553188.2799999998,"ADDRESS":"民生路５７號","OBJECTID":538216},"geometry":{"x":177276.37999999896,"y":2553188.2799999993}},{"attributes":{"ID":538244,"DIS_CODE":0,"TOWNNAME":"新市區","LI":"新和里","LIN":"44鄰","STREET":"民生路","SECT":" ","MAREA":" ","LANE":" ","ALLEY":" ","HOUSE_NO":"３８號","E_COORD97":177286.51999999999,"N_COORD97":2553207.04,"ADDRESS":"民生路３８號","OBJECTID":538217},"geometry":{"x":177286.51999999955,"y":2553207.0399999991}},{"attributes":{"ID":538245,"DIS_CODE":0,"TOWNNAME":"新市區","LI":"新和里","LIN":"44鄰","STREET":"民生路","SECT":" ","MAREA":" ","LANE":" ","ALLEY":" ","HOUSE_NO":"１３號","E_COORD97":177371.13,"N_COORD97":2553134.04,"ADDRESS":"民生路１３號","OBJECTID":538218},"geometry":{"x":177371.12999999989,"y":2553134.040000001}},{"attributes":{"ID":538246,"DIS_CODE":0,"TOWNNAME":"新市區","LI":"新和里","LIN":"44鄰","STREET":"民生路","SECT":" ","MAREA":" ","LANE":" ","ALLEY":" ","HOUSE_NO":"２３０號","E_COORD97":176924.35000000001,"N_COORD97":2553458.54,"ADDRESS":"民生路２３０號","OBJECTID":538219},"geometry":{"x":176924.35000000056,"y":2553458.5400000028}},{"attributes":{"ID":538247,"DIS_CODE":0,"TOWNNAME":"新市區","LI":"新和里","LIN":"44鄰","STREET":"民生路","SECT":" ","MAREA":" ","LANE":" ","ALLEY":" ","HOUSE_NO":"６號","E_COORD97":177375.89999999999,"N_COORD97":2553154.29,"ADDRESS":"民生路６號","OBJECTID":538220},"geometry":{"x":177375.9000000013,"y":2553154.2899999991}},{"attributes":{"ID":538248,"DIS_CODE":0,"TOWNNAME":"新市區","LI":"新和里","LIN":"44鄰","STREET":"民生路","SECT":" ","MAREA":" ","LANE":" ","ALLEY":" ","HOUSE_NO":"４８號","E_COORD97":177270.32000000001,"N_COORD97":2553216.04,"ADDRESS":"民生路４８號","OBJECTID":538221},"geometry":{"x":177270.3200000003,"y":2553216.040000001}},{"attributes":{"ID":538249,"DIS_CODE":0,"TOWNNAME":"新市區","LI":"新和里","LIN":"44鄰","STREET":"民生路","SECT":" ","MAREA":" ","LANE":" ","ALLEY":" ","HOUSE_NO":"４５號","E_COORD97":177300.59,"N_COORD97":2553174.29,"ADDRESS":"民生路４５號","OBJECTID":538222},"geometry":{"x":177300.59000000078,"y":2553174.2899999991}},{"attributes":{"ID":538250,"DIS_CODE":0,"TOWNNAME":"新市區","LI":"新和里","LIN":"44鄰","STREET":"民生路","SECT":" ","MAREA":" ","LANE":" ","ALLEY":" ","HOUSE_NO":"４６號","E_COORD97":177277.82000000001,"N_COORD97":2553211.79,"ADDRESS":"民生路４６號","OBJECTID":538223},"geometry":{"x":177277.82000000123,"y":2553211.7899999991}},{"attributes":{"ID":538251,"DIS_CODE":0,"TOWNNAME":"新市區","LI":"新和里","LIN":"44鄰","STREET":"民權路","SECT":" ","MAREA":" ","LANE":" ","ALLEY":" ","HOUSE_NO":"４號","E_COORD97":177394.17999999999,"N_COORD97":2553095.79,"ADDRESS":"民權路４號","OBJECTID":538224},"geometry":{"x":177394.1799999997,"y":2553095.7899999991}},{"attributes":{"ID":538252,"DIS_CODE":0,"TOWNNAME":"新市區","LI":"新和里","LIN":"44鄰","STREET":"民生路","SECT":" ","MAREA":" ","LANE":" ","ALLEY":" ","HOUSE_NO":"６７號","E_COORD97":177257.13,"N_COORD97":2553199.29,"ADDRESS":"民生路６７號","OBJECTID":538225},"geometry":{"x":177257.12999999989,"y":2553199.2900000028}},{"attributes":{"ID":538253,"DIS_CODE":0,"TOWNNAME":"佳里區","LI":"安西里","LIN":"44鄰","STREET":"文化路","SECT":" ","MAREA":" ","LANE":" ","ALLEY":" ","HOUSE_NO":"４６３號","E_COORD97":164982.87,"N_COORD97":2562562.5800000001,"ADDRESS":"文化路４６３號","OBJECTID":538226},"geometry":{"x":164982.87000000011,"y":2562562.5800000038}},{"attributes":{"ID":538254,"DIS_CODE":0,"TOWNNAME":"佳里區","LI":"安西里","LIN":"44鄰","STREET":"文化路","SECT":" ","MAREA":" ","LANE":" ","ALLEY":" ","HOUSE_NO":"４６５號","E_COORD97":164975.89999999999,"N_COORD97":2562563.8599999999,"ADDRESS":"文化路４６５號","OBJECTID":538227},"geometry":{"x":164975.90000000037,"y":2562563.8600000013}},{"attributes":{"ID":538255,"DIS_CODE":0,"TOWNNAME":"佳里區","LI":"安西里","LIN":"44鄰","STREET":"文化路","SECT":" ","MAREA":" ","LANE":" ","ALLEY":" ","HOUSE_NO":"４６９號","E_COORD97":164969.47,"N_COORD97":2562563.7599999998,"ADDRESS":"文化路４６９號","OBJECTID":538228},"geometry":{"x":164969.47000000067,"y":2562563.7599999998}},{"attributes":{"ID":538256,"DIS_CODE":0,"TOWNNAME":"佳里區","LI":"安西里","LIN":"44鄰","STREET":"文化路","SECT":" ","MAREA":" ","LANE":" ","ALLEY":" ","HOUSE_NO":"４７１號","E_COORD97":164965.17999999999,"N_COORD97":2562564.1899999999,"ADDRESS":"文化路４７１號","OBJECTID":538229},"geometry":{"x":164965.1799999997,"y":2562564.1899999976}},{"attributes":{"ID":538257,"DIS_CODE":0,"TOWNNAME":"佳里區","LI":"安西里","LIN":"44鄰","STREET":"文化路","SECT":" ","MAREA":" ","LANE":" ","ALLEY":" ","HOUSE_NO":"４７７號","E_COORD97":164948.01999999999,"N_COORD97":2562562.3700000001,"ADDRESS":"文化路４７７號","OBJECTID":538230},"geometry":{"x":164948.02000000048,"y":2562562.3700000029}},{"attributes":{"ID":538258,"DIS_CODE":0,"TOWNNAME":"佳里區","LI":"安西里","LIN":"44鄰","STREET":"文化路","SECT":" ","MAREA":" ","LANE":" ","ALLEY":" ","HOUSE_NO":"４７９號","E_COORD97":164944.10000000001,"N_COORD97":2562562.4300000002,"ADDRESS":"文化路４７９號","OBJECTID":538231},"geometry":{"x":164944.10000000056,"y":2562562.4299999997}},{"attributes":{"ID":538259,"DIS_CODE":0,"TOWNNAME":"佳里區","LI":"安西里","LIN":"44鄰","STREET":"文化路","SECT":" ","MAREA":" ","LANE":" ","ALLEY":" ","HOUSE_NO":"４８１號","E_COORD97":164939.45000000001,"N_COORD97":2562562.4900000002,"ADDRESS":"文化路４８１號","OBJECTID":538232},"geometry":{"x":164939.45000000112,"y":2562562.4900000002}},{"attributes":{"ID":538260,"DIS_CODE":0,"TOWNNAME":"南區","LI":"郡南里","LIN":"5鄰","STREET":"永吉街","SECT":" ","MAREA":" ","LANE":" ","ALLEY":" ","HOUSE_NO":"４１號","E_COORD97":167293.60000000001,"N_COORD97":2540705.8500000001,"ADDRESS":"永吉街４１號","OBJECTID":538233},"geometry":{"x":167293.60000000056,"y":2540705.8500000034}},{"attributes":{"ID":538261,"DIS_CODE":0,"TOWNNAME":"佳里區","LI":"安西里","LIN":"44鄰","STREET":"文化路","SECT":" ","MAREA":" ","LANE":" ","ALLEY":" ","HOUSE_NO":"４８５號","E_COORD97":164930.5,"N_COORD97":2562562.6400000001,"ADDRESS":"文化路４８５號","OBJECTID":538234},"geometry":{"x":164930.50000000093,"y":2562562.6400000043}},{"attributes":{"ID":538262,"DIS_CODE":0,"TOWNNAME":"佳里區","LI":"安西里","LIN":"44鄰","STREET":"文化路","SECT":" ","MAREA":" ","LANE":" ","ALLEY":" ","HOUSE_NO":"４８７號","E_COORD97":164926.64999999999,"N_COORD97":2562562.48,"ADDRESS":"文化路４８７號","OBJECTID":538235},"geometry":{"x":164926.65000000037,"y":2562562.4800000004}},{"attributes":{"ID":538263,"DIS_CODE":0,"TOWNNAME":"佳里區","LI":"安西里","LIN":"44鄰","STREET":"文化路","SECT":" ","MAREA":" ","LANE":" ","ALLEY":" ","HOUSE_NO":"４８９號","E_COORD97":164922.39000000001,"N_COORD97":2562562.3999999999,"ADDRESS":"文化路４８９號","OBJECTID":538236},"geometry":{"x":164922.3900000006,"y":2562562.4000000004}},{"attributes":{"ID":538264,"DIS_CODE":0,"TOWNNAME":"佳里區","LI":"安西里","LIN":"44鄰","STREET":"文化路","SECT":" ","MAREA":" ","LANE":" ","ALLEY":" ","HOUSE_NO":"４９１號","E_COORD97":164903.03,"N_COORD97":2562554.96,"ADDRESS":"文化路４９１號","OBJECTID":538237},"geometry":{"x":164903.03000000119,"y":2562554.9600000028}},{"attributes":{"ID":538265,"DIS_CODE":0,"TOWNNAME":"佳里區","LI":"安西里","LIN":"44鄰","STREET":"文化路","SECT":" ","MAREA":" ","LANE":" ","ALLEY":" ","HOUSE_NO":"５３９號","E_COORD97":164803.76999999999,"N_COORD97":2562540.0800000001,"ADDRESS":"文化路５３９號","OBJECTID":538238},"geometry":{"x":164803.77000000142,"y":2562540.0800000019}},{"attributes":{"ID":538266,"DIS_CODE":0,"TOWNNAME":"佳里區","LI":"安西里","LIN":"44鄰","STREET":"文化路","SECT":" ","MAREA":" ","LANE":" ","ALLEY":" ","HOUSE_NO":"５６１號","E_COORD97":164749.32999999999,"N_COORD97":2562549.6099999999,"ADDRESS":"文化路５６１號","OBJECTID":538239},"geometry":{"x":164749.33000000007,"y":2562549.6099999994}},{"attributes":{"ID":538267,"DIS_CODE":0,"TOWNNAME":"佳里區","LI":"安西里","LIN":"44鄰","STREET":"文化路","SECT":" ","MAREA":" ","LANE":" ","ALLEY":" ","HOUSE_NO":"５６３號","E_COORD97":164742.07000000001,"N_COORD97":2562536.4100000001,"ADDRESS":"文化路５６３號","OBJECTID":538240},"geometry":{"x":164742.07000000123,"y":2562536.4100000039}},{"attributes":{"ID":538268,"DIS_CODE":0,"TOWNNAME":"佳里區","LI":"安西里","LIN":"44鄰","STREET":"文化路","SECT":" ","MAREA":" ","LANE":" ","ALLEY":" ","HOUSE_NO":"５７５號","E_COORD97":164720.26999999999,"N_COORD97":2562559.7000000002,"ADDRESS":"文化路５７５號","OBJECTID":538241},"geometry":{"x":164720.26999999955,"y":2562559.6999999993}},{"attributes":{"ID":538269,"DIS_CODE":0,"TOWNNAME":"佳里區","LI":"安西里","LIN":"44鄰","STREET":"文化路","SECT":" ","MAREA":" ","LANE":" ","ALLEY":" ","HOUSE_NO":"５７７號","E_COORD97":164715.16,"N_COORD97":2562559.5699999998,"ADDRESS":"文化路５７７號","OBJECTID":538242},"geometry":{"x":164715.16000000201,"y":2562559.5700000022}},{"attributes":{"ID":538270,"DIS_CODE":0,"TOWNNAME":"佳里區","LI":"安西里","LIN":"44鄰","STREET":"文化路","SECT":" ","MAREA":" ","LANE":" ","ALLEY":" ","HOUSE_NO":"５７９號","E_COORD97":164710.76000000001,"N_COORD97":2562559.54,"ADDRESS":"文化路５７９號","OBJECTID":538243},"geometry":{"x":164710.76000000164,"y":2562559.540000001}},{"attributes":{"ID":538271,"DIS_CODE":0,"TOWNNAME":"永康區","LI":"龍潭里","LIN":"44鄰","STREET":"永平街","SECT":" ","MAREA":" ","LANE":" ","ALLEY":" ","HOUSE_NO":"２８８之１３號","E_COORD97":174686.12,"N_COORD97":2547050.2999999998,"ADDRESS":"永平街２８８之１３號","OBJECTID":538244},"geometry":{"x":174686.12000000011,"y":2547050.3000000007}},{"attributes":{"ID":538272,"DIS_CODE":0,"TOWNNAME":"新市區","LI":"新和里","LIN":"44鄰","STREET":"民生路","SECT":" ","MAREA":" ","LANE":" ","ALLEY":" ","HOUSE_NO":"６０號","E_COORD97":177234.16,"N_COORD97":2553236.79,"ADDRESS":"民生路６０號","OBJECTID":538245},"geometry":{"x":177234.16000000201,"y":2553236.790000001}},{"attributes":{"ID":538273,"DIS_CODE":0,"TOWNNAME":"新市區","LI":"新和里","LIN":"44鄰","STREET":"民生路","SECT":" ","MAREA":" ","LANE":" ","ALLEY":" ","HOUSE_NO":"８８號","E_COORD97":177110.98000000001,"N_COORD97":2553308.29,"ADDRESS":"民生路８８號","OBJECTID":538246},"geometry":{"x":177110.98000000138,"y":2553308.290000001}},{"attributes":{"ID":538274,"DIS_CODE":0,"TOWNNAME":"永康區","LI":"西灣里","LIN":"44鄰","STREET":"永華路","SECT":" ","MAREA":" ","LANE":" ","ALLEY":" ","HOUSE_NO":"１６９號","E_COORD97":174090.67000000001,"N_COORD97":2545550.3500000001,"ADDRESS":"永華路１６９號","OBJECTID":538247},"geometry":{"x":174090.66999999993,"y":2545550.3499999978}},{"attributes":{"ID":538275,"DIS_CODE":0,"TOWNNAME":"仁德區","LI":"太子里","LIN":"44鄰","STREET":"太子路","SECT":" ","MAREA":" ","LANE":" ","ALLEY":" ","HOUSE_NO":"１０９號","E_COORD97":174896.67999999999,"N_COORD97":2543524.7599999998,"ADDRESS":"太子路１０９號","OBJECTID":538248},"geometry":{"x":174896.68000000063,"y":2543524.7600000016}},{"attributes":{"ID":538276,"DIS_CODE":0,"TOWNNAME":"中西區","LI":"大南里","LIN":"13鄰","STREET":"忠義路","SECT":"一段","MAREA":" ","LANE":" ","ALLEY":" ","HOUSE_NO":"３２號","E_COORD97":168178.57000000001,"N_COORD97":2542910.1099999999,"ADDRESS":"忠義路一段３２號","OBJECTID":538249},"geometry":{"x":168178.5700000003,"y":2542910.1099999994}},{"attributes":{"ID":538277,"DIS_CODE":0,"TOWNNAME":"歸仁區","LI":"後市里","LIN":"44鄰","STREET":"民權北路","SECT":" ","MAREA":" ","LANE":" ","ALLEY":" ","HOUSE_NO":"７２號五樓","E_COORD97":177037.42999999999,"N_COORD97":2541053.75,"ADDRESS":"民權北路７２號五樓","OBJECTID":538250},"geometry":{"x":177037.43000000063,"y":2541053.7500000019}},{"attributes":{"ID":538278,"DIS_CODE":0,"TOWNNAME":"歸仁區","LI":"後市里","LIN":"44鄰","STREET":"民權北路","SECT":" ","MAREA":" ","LANE":" ","ALLEY":" ","HOUSE_NO":"６８號六樓","E_COORD97":177020.70999999999,"N_COORD97":2541056.7799999998,"ADDRESS":"民權北路６８號六樓","OBJECTID":538251},"geometry":{"x":177020.71000000089,"y":2541056.7799999993}},{"attributes":{"ID":538279,"DIS_CODE":0,"TOWNNAME":"永康區","LI":"崑山里","LIN":"44鄰","STREET":"國光六街","SECT":" ","MAREA":" ","LANE":" ","ALLEY":" ","HOUSE_NO":"９３號六樓","E_COORD97":174027.66,"N_COORD97":2545319.9100000001,"ADDRESS":"國光六街９３號六樓","OBJECTID":538252},"geometry":{"x":174027.66000000108,"y":2545319.9099999983}},{"attributes":{"ID":538280,"DIS_CODE":0,"TOWNNAME":"仁德區","LI":"成功里","LIN":"44鄰","STREET":"文賢路","SECT":"一段","MAREA":" ","LANE":" ","ALLEY":" ","HOUSE_NO":"９５號","E_COORD97":170313.73000000001,"N_COORD97":2538155.8300000001,"ADDRESS":"文賢路一段９５號","OBJECTID":538253},"geometry":{"x":170313.73000000045,"y":2538155.8300000001}},{"attributes":{"ID":538281,"DIS_CODE":0,"TOWNNAME":"永康區","LI":"龍潭里","LIN":"44鄰","STREET":"永平街","SECT":" ","MAREA":" ","LANE":" ","ALLEY":" ","HOUSE_NO":"２８２之１５號","E_COORD97":174658.67000000001,"N_COORD97":2547013.54,"ADDRESS":"永平街２８２之１５號","OBJECTID":538254},"geometry":{"x":174658.66999999993,"y":2547013.5400000028}},{"attributes":{"ID":538282,"DIS_CODE":0,"TOWNNAME":"永康區","LI":"龍潭里","LIN":"44鄰","STREET":"永平街","SECT":" ","MAREA":" ","LANE":" ","ALLEY":" ","HOUSE_NO":"２８０之２２號","E_COORD97":174657.84,"N_COORD97":2547031.5499999998,"ADDRESS":"永平街２８０之２２號","OBJECTID":538255},"geometry":{"x":174657.84000000078,"y":2547031.5500000007}},{"attributes":{"ID":538283,"DIS_CODE":0,"TOWNNAME":"永康區","LI":"龍潭里","LIN":"44鄰","STREET":"永平街","SECT":" ","MAREA":" ","LANE":" ","ALLEY":" ","HOUSE_NO":"２８８之５號","E_COORD97":174684.87,"N_COORD97":2547050.2999999998,"ADDRESS":"永平街２８８之５號","OBJECTID":538256},"geometry":{"x":174684.87000000197,"y":2547050.3000000007}},{"attributes":{"ID":538284,"DIS_CODE":0,"TOWNNAME":"永康區","LI":"龍潭里","LIN":"44鄰","STREET":"永平街","SECT":" ","MAREA":" ","LANE":" ","ALLEY":" ","HOUSE_NO":"２８２之８號","E_COORD97":174657.42000000001,"N_COORD97":2547013.54,"ADDRESS":"永平街２８２之８號","OBJECTID":538257},"geometry":{"x":174657.42000000086,"y":2547013.5400000028}},{"attributes":{"ID":538285,"DIS_CODE":0,"TOWNNAME":"永康區","LI":"龍潭里","LIN":"44鄰","STREET":"永平街","SECT":" ","MAREA":" ","LANE":" ","ALLEY":" ","HOUSE_NO":"２８２之１號","E_COORD97":174657.42000000001,"N_COORD97":2547013.54,"ADDRESS":"永平街２８２之１號","OBJECTID":538258},"geometry":{"x":174657.42000000086,"y":2547013.5400000028}},{"attributes":{"ID":538286,"DIS_CODE":0,"TOWNNAME":"永康區","LI":"龍潭里","LIN":"44鄰","STREET":"永平街","SECT":" ","MAREA":" ","LANE":" ","ALLEY":" ","HOUSE_NO":"２８８之１２號","E_COORD97":174686.12,"N_COORD97":2547050.2999999998,"ADDRESS":"永平街２８８之１２號","OBJECTID":538259},"geometry":{"x":174686.12000000011,"y":2547050.3000000007}},{"attributes":{"ID":538287,"DIS_CODE":0,"TOWNNAME":"永康區","LI":"龍潭里","LIN":"44鄰","STREET":"永平街","SECT":" ","MAREA":" ","LANE":" ","ALLEY":" ","HOUSE_NO":"２８２之１７號","E_COORD97":174658.67000000001,"N_COORD97":2547013.54,"ADDRESS":"永平街２８２之１７號","OBJECTID":538260},"geometry":{"x":174658.66999999993,"y":2547013.5400000028}},{"attributes":{"ID":538288,"DIS_CODE":0,"TOWNNAME":"永康區","LI":"龍潭里","LIN":"44鄰","STREET":"永平街","SECT":" ","MAREA":" ","LANE":" ","ALLEY":" ","HOUSE_NO":"２８０之２１號","E_COORD97":174657.84,"N_COORD97":2547031.5499999998,"ADDRESS":"永平街２８０之２１號","OBJECTID":538261},"geometry":{"x":174657.84000000078,"y":2547031.5500000007}},{"attributes":{"ID":538289,"DIS_CODE":0,"TOWNNAME":"永康區","LI":"龍潭里","LIN":"44鄰","STREET":"永平街","SECT":" ","MAREA":" ","LANE":" ","ALLEY":" ","HOUSE_NO":"２８６之５號","E_COORD97":174684.25,"N_COORD97":2547069.2999999998,"ADDRESS":"永平街２８６之５號","OBJECTID":538262},"geometry":{"x":174684.25000000093,"y":2547069.3000000007}},{"attributes":{"ID":538290,"DIS_CODE":0,"TOWNNAME":"永康區","LI":"龍潭里","LIN":"44鄰","STREET":"永平街","SECT":" ","MAREA":" ","LANE":" ","ALLEY":" ","HOUSE_NO":"２８２之１３號","E_COORD97":174658.67000000001,"N_COORD97":2547013.54,"ADDRESS":"永平街２８２之１３號","OBJECTID":538263},"geometry":{"x":174658.66999999993,"y":2547013.5400000028}},{"attributes":{"ID":538291,"DIS_CODE":0,"TOWNNAME":"永康區","LI":"龍潭里","LIN":"44鄰","STREET":"永平街","SECT":" ","MAREA":" ","LANE":" ","ALLEY":" ","HOUSE_NO":"２８６之１８號","E_COORD97":174685.5,"N_COORD97":2547069.2999999998,"ADDRESS":"永平街２８６之１８號","OBJECTID":538264},"geometry":{"x":174685.50000000186,"y":2547069.3000000007}},{"attributes":{"ID":538292,"DIS_CODE":0,"TOWNNAME":"中西區","LI":"大南里","LIN":"13鄰","STREET":"忠義路","SECT":"一段","MAREA":" ","LANE":" ","ALLEY":" ","HOUSE_NO":"２６號","E_COORD97":168176.45999999999,"N_COORD97":2542898.8500000001,"ADDRESS":"忠義路一段２６號","OBJECTID":538265},"geometry":{"x":168176.46000000089,"y":2542898.8499999996}},{"attributes":{"ID":538293,"DIS_CODE":0,"TOWNNAME":"中西區","LI":"大南里","LIN":"13鄰","STREET":"忠義路","SECT":"一段","MAREA":" ","LANE":" ","ALLEY":" ","HOUSE_NO":"２８號","E_COORD97":168177.51999999999,"N_COORD97":2542902.7200000002,"ADDRESS":"忠義路一段２８號","OBJECTID":538266},"geometry":{"x":168177.52000000048,"y":2542902.7200000025}},{"attributes":{"ID":538294,"DIS_CODE":0,"TOWNNAME":"中西區","LI":"大南里","LIN":"13鄰","STREET":"忠義路","SECT":"一段","MAREA":" ","LANE":" ","ALLEY":" ","HOUSE_NO":"３０號","E_COORD97":168177.17000000001,"N_COORD97":2542906.2400000002,"ADDRESS":"忠義路一段３０號","OBJECTID":538267},"geometry":{"x":168177.17000000086,"y":2542906.2400000002}},{"attributes":{"ID":538295,"DIS_CODE":0,"TOWNNAME":"永康區","LI":"龍潭里","LIN":"44鄰","STREET":"永平街","SECT":" ","MAREA":" ","LANE":" ","ALLEY":" ","HOUSE_NO":"２８０之２３號","E_COORD97":174657.84,"N_COORD97":2547031.5499999998,"ADDRESS":"永平街２８０之２３號","OBJECTID":538268},"geometry":{"x":174657.84000000078,"y":2547031.5500000007}},{"attributes":{"ID":538296,"DIS_CODE":0,"TOWNNAME":"永康區","LI":"龍潭里","LIN":"44鄰","STREET":"永平街","SECT":" ","MAREA":" ","LANE":" ","ALLEY":" ","HOUSE_NO":"２８８之７號","E_COORD97":174684.87,"N_COORD97":2547050.2999999998,"ADDRESS":"永平街２８８之７號","OBJECTID":538269},"geometry":{"x":174684.87000000197,"y":2547050.3000000007}},{"attributes":{"ID":538297,"DIS_CODE":0,"TOWNNAME":"新市區","LI":"新和里","LIN":"44鄰","STREET":"民生路","SECT":" ","MAREA":" ","LANE":" ","ALLEY":" ","HOUSE_NO":"１５號","E_COORD97":177367.59,"N_COORD97":2553136.29,"ADDRESS":"民生路１５號","OBJECTID":538270},"geometry":{"x":177367.58999999985,"y":2553136.290000001}},{"attributes":{"ID":538298,"DIS_CODE":0,"TOWNNAME":"新市區","LI":"新和里","LIN":"44鄰","STREET":"信義街","SECT":" ","MAREA":" ","LANE":" ","ALLEY":" ","HOUSE_NO":"１８８號","E_COORD97":177249.23000000001,"N_COORD97":2553184.02,"ADDRESS":"信義街１８８號","OBJECTID":538271},"geometry":{"x":177249.23000000231,"y":2553184.0199999996}},{"attributes":{"ID":538299,"DIS_CODE":0,"TOWNNAME":"中西區","LI":"大南里","LIN":"13鄰","STREET":"忠義路","SECT":"一段","MAREA":" ","LANE":" ","ALLEY":" ","HOUSE_NO":"３４號","E_COORD97":168178.57000000001,"N_COORD97":2542915.3799999999,"ADDRESS":"忠義路一段３４號","OBJECTID":538272},"geometry":{"x":168178.5700000003,"y":2542915.3800000027}},{"attributes":{"ID":538300,"DIS_CODE":0,"TOWNNAME":"中西區","LI":"大南里","LIN":"13鄰","STREET":"忠義路","SECT":"一段","MAREA":" ","LANE":" ","ALLEY":" ","HOUSE_NO":"３６號","E_COORD97":168179.63,"N_COORD97":2542919.25,"ADDRESS":"忠義路一段３６號","OBJECTID":538273},"geometry":{"x":168179.62999999989,"y":2542919.25}},{"attributes":{"ID":538301,"DIS_CODE":0,"TOWNNAME":"中西區","LI":"大南里","LIN":"13鄰","STREET":"忠義路","SECT":"一段","MAREA":" ","LANE":" ","ALLEY":" ","HOUSE_NO":"３８號","E_COORD97":168180.69,"N_COORD97":2542924.8799999999,"ADDRESS":"忠義路一段３８號","OBJECTID":538274},"geometry":{"x":168180.69000000134,"y":2542924.879999999}},{"attributes":{"ID":538302,"DIS_CODE":0,"TOWNNAME":"中西區","LI":"大南里","LIN":"13鄰","STREET":"忠義路","SECT":"一段","MAREA":" ","LANE":" ","ALLEY":" ","HOUSE_NO":"４０號","E_COORD97":168181.75,"N_COORD97":2542930.1600000001,"ADDRESS":"忠義路一段４０號","OBJECTID":538275},"geometry":{"x":168181.75000000093,"y":2542930.1600000001}},{"attributes":{"ID":538303,"DIS_CODE":0,"TOWNNAME":"中西區","LI":"大南里","LIN":"13鄰","STREET":"忠義路","SECT":"一段","MAREA":" ","LANE":" ","ALLEY":" ","HOUSE_NO":"４２號","E_COORD97":168184.20999999999,"N_COORD97":2542937.5499999998,"ADDRESS":"忠義路一段４２號","OBJECTID":538276},"geometry":{"x":168184.20999999996,"y":2542937.5500000026}},{"attributes":{"ID":538304,"DIS_CODE":0,"TOWNNAME":"中西區","LI":"大南里","LIN":"13鄰","STREET":"忠義路","SECT":"一段","MAREA":" ","LANE":" ","ALLEY":" ","HOUSE_NO":"４６號","E_COORD97":168176.81,"N_COORD97":2542950.21,"ADDRESS":"忠義路一段４６號","OBJECTID":538277},"geometry":{"x":168176.81000000145,"y":2542950.2100000028}},{"attributes":{"ID":538305,"DIS_CODE":0,"TOWNNAME":"中西區","LI":"大南里","LIN":"13鄰","STREET":"忠義路","SECT":"一段","MAREA":" ","LANE":" ","ALLEY":" ","HOUSE_NO":"４８號","E_COORD97":168177.51999999999,"N_COORD97":2542955.8399999999,"ADDRESS":"忠義路一段４８號","OBJECTID":538278},"geometry":{"x":168177.52000000048,"y":2542955.8399999999}},{"attributes":{"ID":538306,"DIS_CODE":0,"TOWNNAME":"新市區","LI":"新和里","LIN":"44鄰","STREET":"民生路","SECT":" ","MAREA":" ","LANE":" ","ALLEY":" ","HOUSE_NO":"３３號","E_COORD97":177323.04000000001,"N_COORD97":2553161.54,"ADDRESS":"民生路３３號","OBJECTID":538279},"geometry":{"x":177323.0400000019,"y":2553161.540000001}},{"attributes":{"ID":538307,"DIS_CODE":0,"TOWNNAME":"新市區","LI":"新和里","LIN":"44鄰","STREET":"民權路","SECT":" ","MAREA":" ","LANE":" ","ALLEY":" ","HOUSE_NO":"４之４號","E_COORD97":177380.48999999999,"N_COORD97":2553095.0499999998,"ADDRESS":"民權路４之４號","OBJECTID":538280},"geometry":{"x":177380.49000000022,"y":2553095.0500000026}},{"attributes":{"ID":538308,"DIS_CODE":0,"TOWNNAME":"南區","LI":"金華里","LIN":"12鄰","STREET":"賢南街","SECT":" ","MAREA":" ","LANE":" ","ALLEY":" ","HOUSE_NO":"９號","E_COORD97":166925.59,"N_COORD97":2542418.7599999998,"ADDRESS":"賢南街９號","OBJECTID":538281},"geometry":{"x":166925.58999999985,"y":2542418.7600000035}},{"attributes":{"ID":538309,"DIS_CODE":0,"TOWNNAME":"新市區","LI":"新和里","LIN":"44鄰","STREET":"民生路","SECT":" ","MAREA":" ","LANE":" ","ALLEY":" ","HOUSE_NO":"６３號","E_COORD97":177265.92999999999,"N_COORD97":2553194.29,"ADDRESS":"民生路６３號","OBJECTID":538282},"geometry":{"x":177265.93000000063,"y":2553194.2899999991}},{"attributes":{"ID":538310,"DIS_CODE":0,"TOWNNAME":"新市區","LI":"新和里","LIN":"44鄰","STREET":"民權路","SECT":" ","MAREA":" ","LANE":" ","ALLEY":" ","HOUSE_NO":"３４號","E_COORD97":177272.73000000001,"N_COORD97":2553077.79,"ADDRESS":"民權路３４號","OBJECTID":538283},"geometry":{"x":177272.73000000045,"y":2553077.790000001}},{"attributes":{"ID":538311,"DIS_CODE":0,"TOWNNAME":"新市區","LI":"新和里","LIN":"44鄰","STREET":"民權路","SECT":" ","MAREA":" ","LANE":" ","ALLEY":" ","HOUSE_NO":"１６號","E_COORD97":177327.73999999999,"N_COORD97":2553110.54,"ADDRESS":"民權路１６號","OBJECTID":538284},"geometry":{"x":177327.74000000115,"y":2553110.540000001}},{"attributes":{"ID":538312,"DIS_CODE":0,"TOWNNAME":"仁德區","LI":"太子里","LIN":"44鄰","STREET":"太子一街","SECT":" ","MAREA":" ","LANE":" ","ALLEY":" ","HOUSE_NO":"２８號","E_COORD97":174812.14999999999,"N_COORD97":2543416.0099999998,"ADDRESS":"太子一街２８號","OBJECTID":538285},"geometry":{"x":174812.15000000224,"y":2543416.0099999998}},{"attributes":{"ID":538313,"DIS_CODE":0,"TOWNNAME":"仁德區","LI":"太子里","LIN":"44鄰","STREET":"太子路","SECT":" ","MAREA":" ","LANE":" ","ALLEY":" ","HOUSE_NO":"１０７號","E_COORD97":174905.64999999999,"N_COORD97":2543524.5099999998,"ADDRESS":"太子路１０７號","OBJECTID":538286},"geometry":{"x":174905.6500000013,"y":2543524.5099999998}},{"attributes":{"ID":538314,"DIS_CODE":0,"TOWNNAME":"仁德區","LI":"太子里","LIN":"44鄰","STREET":"太子一街","SECT":" ","MAREA":" ","LANE":" ","ALLEY":" ","HOUSE_NO":"２０號","E_COORD97":174786.39999999999,"N_COORD97":2543452.25,"ADDRESS":"太子一街２０號","OBJECTID":538287},"geometry":{"x":174786.40000000037,"y":2543452.25}},{"attributes":{"ID":538315,"DIS_CODE":0,"TOWNNAME":"仁德區","LI":"太子里","LIN":"44鄰","STREET":"太子路","SECT":" ","MAREA":" ","LANE":" ","ALLEY":" ","HOUSE_NO":"１１９號","E_COORD97":174867.95000000001,"N_COORD97":2543523.0099999998,"ADDRESS":"太子路１１９號","OBJECTID":538288},"geometry":{"x":174867.95000000112,"y":2543523.0100000016}},{"attributes":{"ID":538316,"DIS_CODE":0,"TOWNNAME":"仁德區","LI":"太子里","LIN":"44鄰","STREET":"太子一街","SECT":" ","MAREA":" ","LANE":" ","ALLEY":" ","HOUSE_NO":"１１號","E_COORD97":174858.60000000001,"N_COORD97":2543430.2599999998,"ADDRESS":"太子一街１１號","OBJECTID":538289},"geometry":{"x":174858.59999999963,"y":2543430.2600000016}},{"attributes":{"ID":538317,"DIS_CODE":0,"TOWNNAME":"仁德區","LI":"太子里","LIN":"44鄰","STREET":"太子一街","SECT":" ","MAREA":" ","LANE":" ","ALLEY":" ","HOUSE_NO":"２６號","E_COORD97":174817.20999999999,"N_COORD97":2543434.2599999998,"ADDRESS":"太子一街２６號","OBJECTID":538290},"geometry":{"x":174817.20999999996,"y":2543434.2599999998}},{"attributes":{"ID":538318,"DIS_CODE":0,"TOWNNAME":"永康區","LI":"崑山里","LIN":"44鄰","STREET":"國光六街","SECT":" ","MAREA":" ","LANE":" ","ALLEY":" ","HOUSE_NO":"１２７號","E_COORD97":173951.45000000001,"N_COORD97":2545362.4500000002,"ADDRESS":"國光六街１２７號","OBJECTID":538291},"geometry":{"x":173951.45000000019,"y":2545362.4499999993}},{"attributes":{"ID":538319,"DIS_CODE":0,"TOWNNAME":"南區","LI":"郡南里","LIN":"14鄰","STREET":"永吉街","SECT":" ","MAREA":" ","LANE":" ","ALLEY":" ","HOUSE_NO":"１８號","E_COORD97":167314.19,"N_COORD97":2540571.9900000002,"ADDRESS":"永吉街１８號","OBJECTID":538292},"geometry":{"x":167314.19000000134,"y":2540571.9900000002}},{"attributes":{"ID":538320,"DIS_CODE":0,"TOWNNAME":"中西區","LI":"大南里","LIN":"15鄰","STREET":"樹林街","SECT":"二段","MAREA":" ","LANE":" ","ALLEY":" ","HOUSE_NO":"１２７號","E_COORD97":168261.70999999999,"N_COORD97":2542951.6200000001,"ADDRESS":"樹林街二段１２７號","OBJECTID":538293},"geometry":{"x":168261.71000000089,"y":2542951.620000001}},{"attributes":{"ID":538321,"DIS_CODE":0,"TOWNNAME":"中西區","LI":"大南里","LIN":"15鄰","STREET":"樹林街","SECT":"二段","MAREA":" ","LANE":" ","ALLEY":" ","HOUSE_NO":"１３１號","E_COORD97":168253.95999999999,"N_COORD97":2542954.4300000002,"ADDRESS":"樹林街二段１３１號","OBJECTID":538294},"geometry":{"x":168253.95999999996,"y":2542954.4300000016}},{"attributes":{"ID":538322,"DIS_CODE":0,"TOWNNAME":"中西區","LI":"大南里","LIN":"15鄰","STREET":"樹林街","SECT":"二段","MAREA":" ","LANE":" ","ALLEY":" ","HOUSE_NO":"１３５號","E_COORD97":168248.32000000001,"N_COORD97":2542955.4900000002,"ADDRESS":"樹林街二段１３５號","OBJECTID":538295},"geometry":{"x":168248.3200000003,"y":2542955.4900000002}},{"attributes":{"ID":538323,"DIS_CODE":0,"TOWNNAME":"中西區","LI":"大南里","LIN":"15鄰","STREET":"樹林街","SECT":"二段","MAREA":" ","LANE":" ","ALLEY":" ","HOUSE_NO":"１３７號","E_COORD97":168244.10000000001,"N_COORD97":2542956.8999999999,"ADDRESS":"樹林街二段１３７號","OBJECTID":538296},"geometry":{"x":168244.09999999963,"y":2542956.9000000004}},{"attributes":{"ID":538324,"DIS_CODE":0,"TOWNNAME":"中西區","LI":"大南里","LIN":"15鄰","STREET":"樹林街","SECT":"二段","MAREA":" ","LANE":" ","ALLEY":" ","HOUSE_NO":"１３９號","E_COORD97":168238.45999999999,"N_COORD97":2542955.4900000002,"ADDRESS":"樹林街二段１３９號","OBJECTID":538297},"geometry":{"x":168238.45999999996,"y":2542955.4900000002}},{"attributes":{"ID":538325,"DIS_CODE":0,"TOWNNAME":"中西區","LI":"大南里","LIN":"15鄰","STREET":"樹林街","SECT":"二段","MAREA":" ","LANE":" ","ALLEY":" ","HOUSE_NO":"１４３號","E_COORD97":168226.82999999999,"N_COORD97":2542953.0299999998,"ADDRESS":"樹林街二段１４３號","OBJECTID":538298},"geometry":{"x":168226.83000000101,"y":2542953.0300000012}},{"attributes":{"ID":538326,"DIS_CODE":0,"TOWNNAME":"中西區","LI":"大南里","LIN":"15鄰","STREET":"樹林街","SECT":"二段","MAREA":" ","LANE":" ","ALLEY":" ","HOUSE_NO":"１４５號","E_COORD97":168230.35999999999,"N_COORD97":2542964.2799999998,"ADDRESS":"樹林街二段１４５號","OBJECTID":538299},"geometry":{"x":168230.36000000127,"y":2542964.2800000012}},{"attributes":{"ID":538327,"DIS_CODE":0,"TOWNNAME":"中西區","LI":"大南里","LIN":"15鄰","STREET":"樹林街","SECT":"二段","MAREA":" ","LANE":" ","ALLEY":" ","HOUSE_NO":"１４７號","E_COORD97":168226.82999999999,"N_COORD97":2542965.3399999999,"ADDRESS":"樹林街二段１４７號","OBJECTID":538300},"geometry":{"x":168226.83000000101,"y":2542965.3400000017}},{"attributes":{"ID":538328,"DIS_CODE":0,"TOWNNAME":"中西區","LI":"大南里","LIN":"15鄰","STREET":"樹林街","SECT":"二段","MAREA":" ","LANE":" ","ALLEY":" ","HOUSE_NO":"１５１號","E_COORD97":168210.98000000001,"N_COORD97":2542962.8799999999,"ADDRESS":"樹林街二段１５１號","OBJECTID":538301},"geometry":{"x":168210.98000000138,"y":2542962.8800000027}},{"attributes":{"ID":538329,"DIS_CODE":0,"TOWNNAME":"中西區","LI":"大南里","LIN":"15鄰","STREET":"樹林街","SECT":"二段","MAREA":" ","LANE":" ","ALLEY":" ","HOUSE_NO":"１５５號","E_COORD97":168201.82000000001,"N_COORD97":2542965.3399999999,"ADDRESS":"樹林街二段１５５號","OBJECTID":538302},"geometry":{"x":168201.82000000123,"y":2542965.3400000017}},{"attributes":{"ID":538330,"DIS_CODE":0,"TOWNNAME":"永康區","LI":"崑山里","LIN":"44鄰","STREET":"國光五街","SECT":" ","MAREA":" ","LANE":" ","ALLEY":" ","HOUSE_NO":"７２號","E_COORD97":173961.42000000001,"N_COORD97":2545157.5600000001,"ADDRESS":"國光五街７２號","OBJECTID":538303},"geometry":{"x":173961.41999999993,"y":2545157.5600000024}},{"attributes":{"ID":538331,"DIS_CODE":0,"TOWNNAME":"永康區","LI":"龍潭里","LIN":"44鄰","STREET":"永平街","SECT":" ","MAREA":" ","LANE":" ","ALLEY":" ","HOUSE_NO":"２８０之６號","E_COORD97":174656.59,"N_COORD97":2547031.5499999998,"ADDRESS":"永平街２８０之６號","OBJECTID":538304},"geometry":{"x":174656.59000000078,"y":2547031.5500000007}},{"attributes":{"ID":538332,"DIS_CODE":0,"TOWNNAME":"永康區","LI":"龍潭里","LIN":"44鄰","STREET":"永平街","SECT":" ","MAREA":" ","LANE":" ","ALLEY":" ","HOUSE_NO":"２９０之１３號","E_COORD97":174658.23000000001,"N_COORD97":2547049.7999999998,"ADDRESS":"永平街２９０之１３號","OBJECTID":538305},"geometry":{"x":174658.23000000045,"y":2547049.8000000007}},{"attributes":{"ID":538333,"DIS_CODE":0,"TOWNNAME":"永康區","LI":"龍潭里","LIN":"44鄰","STREET":"永平街","SECT":" ","MAREA":" ","LANE":" ","ALLEY":" ","HOUSE_NO":"２９６之１１號","E_COORD97":174673.62,"N_COORD97":2547093.29,"ADDRESS":"永平街２９６之１１號","OBJECTID":538306},"geometry":{"x":174673.62000000104,"y":2547093.2900000028}},{"attributes":{"ID":538334,"DIS_CODE":0,"TOWNNAME":"永康區","LI":"崑山里","LIN":"44鄰","STREET":"國光六街","SECT":" ","MAREA":" ","LANE":" ","ALLEY":" ","HOUSE_NO":"１１１號","E_COORD97":173973.87,"N_COORD97":2545351.1200000001,"ADDRESS":"國光六街１１１號","OBJECTID":538307},"geometry":{"x":173973.87000000011,"y":2545351.1200000029}},{"attributes":{"ID":538335,"DIS_CODE":0,"TOWNNAME":"永康區","LI":"崑山里","LIN":"44鄰","STREET":"國光六街","SECT":" ","MAREA":" ","LANE":" ","ALLEY":" ","HOUSE_NO":"１０３號","E_COORD97":174009.76999999999,"N_COORD97":2545340.8100000001,"ADDRESS":"國光六街１０３號","OBJECTID":538308},"geometry":{"x":174009.76999999955,"y":2545340.8100000005}},{"attributes":{"ID":538336,"DIS_CODE":0,"TOWNNAME":"永康區","LI":"崑山里","LIN":"44鄰","STREET":"國光六街","SECT":" ","MAREA":" ","LANE":" ","ALLEY":" ","HOUSE_NO":"８７號","E_COORD97":174040.84,"N_COORD97":2545333.0699999998,"ADDRESS":"國光六街８７號","OBJECTID":538309},"geometry":{"x":174040.84000000078,"y":2545333.0700000022}},{"attributes":{"ID":538337,"DIS_CODE":0,"TOWNNAME":"永康區","LI":"崑山里","LIN":"44鄰","STREET":"國光六街","SECT":" ","MAREA":" ","LANE":" ","ALLEY":" ","HOUSE_NO":"１３３號","E_COORD97":173930.03,"N_COORD97":2545369.5899999999,"ADDRESS":"國光六街１３３號","OBJECTID":538310},"geometry":{"x":173930.03000000119,"y":2545369.5900000036}},{"attributes":{"ID":538338,"DIS_CODE":0,"TOWNNAME":"仁德區","LI":"成功里","LIN":"44鄰","STREET":"文賢路","SECT":"一段","MAREA":" ","LANE":" ","ALLEY":" ","HOUSE_NO":"８５號","E_COORD97":170293.38,"N_COORD97":2538168.0800000001,"ADDRESS":"文賢路一段８５號","OBJECTID":538311},"geometry":{"x":170293.37999999989,"y":2538168.0800000001}},{"attributes":{"ID":538339,"DIS_CODE":0,"TOWNNAME":"仁德區","LI":"成功里","LIN":"44鄰","STREET":"文賢路","SECT":"一段","MAREA":" ","LANE":" ","ALLEY":" ","HOUSE_NO":"８３號","E_COORD97":170287.70999999999,"N_COORD97":2538178.8199999998,"ADDRESS":"文賢路一段８３號","OBJECTID":538312},"geometry":{"x":170287.70999999996,"y":2538178.8200000022}},{"attributes":{"ID":538340,"DIS_CODE":0,"TOWNNAME":"仁德區","LI":"成功里","LIN":"44鄰","STREET":"文賢路","SECT":"一段","MAREA":" ","LANE":" ","ALLEY":" ","HOUSE_NO":"８９號","E_COORD97":170300.62,"N_COORD97":2538163.3300000001,"ADDRESS":"文賢路一段８９號","OBJECTID":538313},"geometry":{"x":170300.62000000011,"y":2538163.3299999982}},{"attributes":{"ID":538341,"DIS_CODE":0,"TOWNNAME":"仁德區","LI":"成功里","LIN":"44鄰","STREET":"文賢路","SECT":"一段","MAREA":" ","LANE":" ","ALLEY":" ","HOUSE_NO":"１０１號","E_COORD97":170327.17999999999,"N_COORD97":2538148.3300000001,"ADDRESS":"文賢路一段１０１號","OBJECTID":538314},"geometry":{"x":170327.1799999997,"y":2538148.3300000001}},{"attributes":{"ID":538342,"DIS_CODE":0,"TOWNNAME":"歸仁區","LI":"辜厝里","LIN":"44鄰","STREET":"中正八街","SECT":" ","MAREA":" ","LANE":" ","ALLEY":" ","HOUSE_NO":"８號","E_COORD97":177152.23999999999,"N_COORD97":2540265.9500000002,"ADDRESS":"中正八街８號","OBJECTID":538315},"geometry":{"x":177152.23999999929,"y":2540265.9499999993}},{"attributes":{"ID":538343,"DIS_CODE":0,"TOWNNAME":"歸仁區","LI":"後市里","LIN":"44鄰","STREET":"民權北路","SECT":" ","MAREA":" ","LANE":" ","ALLEY":" ","HOUSE_NO":"６４號","E_COORD97":177015.01000000001,"N_COORD97":2541038.7799999998,"ADDRESS":"民權北路６４號","OBJECTID":538316},"geometry":{"x":177015.01000000071,"y":2541038.7800000012}},{"attributes":{"ID":538344,"DIS_CODE":0,"TOWNNAME":"歸仁區","LI":"後市里","LIN":"44鄰","STREET":"民權北路","SECT":" ","MAREA":" ","LANE":" ","ALLEY":" ","HOUSE_NO":"６２號","E_COORD97":177015.01000000001,"N_COORD97":2541034.7799999998,"ADDRESS":"民權北路６２號","OBJECTID":538317},"geometry":{"x":177015.01000000071,"y":2541034.7800000031}},{"attributes":{"ID":538345,"DIS_CODE":0,"TOWNNAME":"歸仁區","LI":"辜厝里","LIN":"44鄰","STREET":"大吉街","SECT":" ","MAREA":" ","LANE":" ","ALLEY":" ","HOUSE_NO":"２２８號","E_COORD97":177193.81,"N_COORD97":2540306.9500000002,"ADDRESS":"大吉街２２８號","OBJECTID":538318},"geometry":{"x":177193.81000000052,"y":2540306.9499999993}},{"attributes":{"ID":538346,"DIS_CODE":0,"TOWNNAME":"歸仁區","LI":"後市里","LIN":"44鄰","STREET":"民權北路","SECT":" ","MAREA":" ","LANE":" ","ALLEY":" ","HOUSE_NO":"５６號","E_COORD97":177011.81,"N_COORD97":2541022.7799999998,"ADDRESS":"民權北路５６號","OBJECTID":538319},"geometry":{"x":177011.80999999959,"y":2541022.7800000012}},{"attributes":{"ID":538347,"DIS_CODE":0,"TOWNNAME":"歸仁區","LI":"辜厝里","LIN":"44鄰","STREET":"大吉街","SECT":" ","MAREA":" ","LANE":" ","ALLEY":" ","HOUSE_NO":"２３６號","E_COORD97":177197.81,"N_COORD97":2540290.9500000002,"ADDRESS":"大吉街２３６號","OBJECTID":538320},"geometry":{"x":177197.81000000052,"y":2540290.950000003}},{"attributes":{"ID":538348,"DIS_CODE":0,"TOWNNAME":"歸仁區","LI":"辜厝里","LIN":"44鄰","STREET":"中正南路","SECT":"一段","MAREA":" ","LANE":" ","ALLEY":" ","HOUSE_NO":"３１２號","E_COORD97":177175.73999999999,"N_COORD97":2540241.9500000002,"ADDRESS":"中正南路一段３１２號","OBJECTID":538321},"geometry":{"x":177175.74000000022,"y":2540241.9499999993}},{"attributes":{"ID":538349,"DIS_CODE":0,"TOWNNAME":"歸仁區","LI":"後市里","LIN":"44鄰","STREET":"民權北路","SECT":" ","MAREA":" ","LANE":" ","ALLEY":" ","HOUSE_NO":"７０號","E_COORD97":177036.92999999999,"N_COORD97":2541053.75,"ADDRESS":"民權北路７０號","OBJECTID":538322},"geometry":{"x":177036.93000000156,"y":2541053.7500000019}},{"attributes":{"ID":538350,"DIS_CODE":0,"TOWNNAME":"歸仁區","LI":"後市里","LIN":"44鄰","STREET":"民權北路","SECT":" ","MAREA":" ","LANE":" ","ALLEY":" ","HOUSE_NO":"５８號","E_COORD97":177013.91,"N_COORD97":2541026.7799999998,"ADDRESS":"民權北路５８號","OBJECTID":538323},"geometry":{"x":177013.91000000201,"y":2541026.7799999993}},{"attributes":{"ID":538351,"DIS_CODE":0,"TOWNNAME":"歸仁區","LI":"辜厝里","LIN":"44鄰","STREET":"中正南路","SECT":"一段","MAREA":" ","LANE":" ","ALLEY":" ","HOUSE_NO":"３００號","E_COORD97":177194.23999999999,"N_COORD97":2540254.9500000002,"ADDRESS":"中正南路一段３００號","OBJECTID":538324},"geometry":{"x":177194.24000000022,"y":2540254.9500000011}},{"attributes":{"ID":538352,"DIS_CODE":0,"TOWNNAME":"歸仁區","LI":"南保里","LIN":"44鄰","STREET":"民權十街","SECT":" ","MAREA":" ","LANE":" ","ALLEY":" ","HOUSE_NO":"６０號","E_COORD97":176786.48999999999,"N_COORD97":2540755.29,"ADDRESS":"民權十街６０號","OBJECTID":538325},"geometry":{"x":176786.49000000115,"y":2540755.2899999991}},{"attributes":{"ID":538353,"DIS_CODE":0,"TOWNNAME":"歸仁區","LI":"後市里","LIN":"44鄰","STREET":"民權北路","SECT":" ","MAREA":" ","LANE":" ","ALLEY":" ","HOUSE_NO":"６６號","E_COORD97":177017.10999999999,"N_COORD97":2541042.7799999998,"ADDRESS":"民權北路６６號","OBJECTID":538326},"geometry":{"x":177017.11000000034,"y":2541042.7800000012}},{"attributes":{"ID":538354,"DIS_CODE":0,"TOWNNAME":"歸仁區","LI":"辜厝里","LIN":"44鄰","STREET":"大吉街","SECT":" ","MAREA":" ","LANE":" ","ALLEY":" ","HOUSE_NO":"２４２號","E_COORD97":177202.91,"N_COORD97":2540280.9500000002,"ADDRESS":"大吉街２４２號","OBJECTID":538327},"geometry":{"x":177202.91000000015,"y":2540280.950000003}},{"attributes":{"ID":538355,"DIS_CODE":0,"TOWNNAME":"永康區","LI":"崑山里","LIN":"44鄰","STREET":"國光六街","SECT":" ","MAREA":" ","LANE":" ","ALLEY":" ","HOUSE_NO":"９５號三樓","E_COORD97":174013.42000000001,"N_COORD97":2545324.1000000001,"ADDRESS":"國光六街９５號三樓","OBJECTID":538328},"geometry":{"x":174013.42000000086,"y":2545324.0999999996}},{"attributes":{"ID":538356,"DIS_CODE":0,"TOWNNAME":"永康區","LI":"崑山里","LIN":"44鄰","STREET":"國光六街","SECT":" ","MAREA":" ","LANE":" ","ALLEY":" ","HOUSE_NO":"１０９號四樓之２","E_COORD97":173990.70000000001,"N_COORD97":2545351.4100000001,"ADDRESS":"國光六街１０９號四樓之２","OBJECTID":538329},"geometry":{"x":173990.70000000019,"y":2545351.410000002}},{"attributes":{"ID":538357,"DIS_CODE":0,"TOWNNAME":"永康區","LI":"崑山里","LIN":"44鄰","STREET":"國光六街","SECT":" ","MAREA":" ","LANE":" ","ALLEY":" ","HOUSE_NO":"１０９號六樓之１","E_COORD97":173990.57000000001,"N_COORD97":2545351.4100000001,"ADDRESS":"國光六街１０９號六樓之１","OBJECTID":538330},"geometry":{"x":173990.57000000123,"y":2545351.410000002}},{"attributes":{"ID":538358,"DIS_CODE":0,"TOWNNAME":"永康區","LI":"崑山里","LIN":"44鄰","STREET":"國光六街","SECT":" ","MAREA":" ","LANE":" ","ALLEY":" ","HOUSE_NO":"９９號三樓","E_COORD97":174021.95999999999,"N_COORD97":2545340.8199999998,"ADDRESS":"國光六街９９號三樓","OBJECTID":538331},"geometry":{"x":174021.96000000089,"y":2545340.8200000003}},{"attributes":{"ID":538359,"DIS_CODE":0,"TOWNNAME":"永康區","LI":"崑山里","LIN":"44鄰","STREET":"國光六街","SECT":" ","MAREA":" ","LANE":" ","ALLEY":" ","HOUSE_NO":"９７號六樓","E_COORD97":174026.87,"N_COORD97":2545339.3199999998,"ADDRESS":"國光六街９７號六樓","OBJECTID":538332},"geometry":{"x":174026.87000000011,"y":2545339.3200000022}},{"attributes":{"ID":538360,"DIS_CODE":0,"TOWNNAME":"永康區","LI":"崑山里","LIN":"44鄰","STREET":"國光六街","SECT":" ","MAREA":" ","LANE":" ","ALLEY":" ","HOUSE_NO":"９１號五樓","E_COORD97":174032.13,"N_COORD97":2545337.3199999998,"ADDRESS":"國光六街９１號五樓","OBJECTID":538333},"geometry":{"x":174032.13000000082,"y":2545337.3200000003}},{"attributes":{"ID":538361,"DIS_CODE":0,"TOWNNAME":"中西區","LI":"大南里","LIN":"7鄰","STREET":"南門路","SECT":" ","MAREA":" ","LANE":" ","ALLEY":" ","HOUSE_NO":"４２號","E_COORD97":168397.04999999999,"N_COORD97":2542935.6899999999,"ADDRESS":"南門路４２號","OBJECTID":538334},"geometry":{"x":168397.04999999981,"y":2542935.6900000013}},{"attributes":{"ID":538362,"DIS_CODE":0,"TOWNNAME":"中西區","LI":"大南里","LIN":"7鄰","STREET":"南門路","SECT":" ","MAREA":" ","LANE":" ","ALLEY":" ","HOUSE_NO":"４２號之１","E_COORD97":168397.04999999999,"N_COORD97":2542930.0600000001,"ADDRESS":"南門路４２號之１","OBJECTID":538335},"geometry":{"x":168397.04999999981,"y":2542930.0600000024}},{"attributes":{"ID":538363,"DIS_CODE":0,"TOWNNAME":"中西區","LI":"大南里","LIN":"7鄰","STREET":"南門路","SECT":" ","MAREA":" ","LANE":" ","ALLEY":" ","HOUSE_NO":"４２號之２","E_COORD97":168396.34,"N_COORD97":2542925.48,"ADDRESS":"南門路４２號之２","OBJECTID":538336},"geometry":{"x":168396.34000000078,"y":2542925.4800000004}},{"attributes":{"ID":538364,"DIS_CODE":0,"TOWNNAME":"永康區","LI":"崑山里","LIN":"44鄰","STREET":"國光六街","SECT":" ","MAREA":" ","LANE":" ","ALLEY":" ","HOUSE_NO":"９９號六樓","E_COORD97":174021.95999999999,"N_COORD97":2545340.8199999998,"ADDRESS":"國光六街９９號六樓","OBJECTID":538337},"geometry":{"x":174021.96000000089,"y":2545340.8200000003}},{"attributes":{"ID":538365,"DIS_CODE":0,"TOWNNAME":"永康區","LI":"崑山里","LIN":"44鄰","STREET":"國光六街","SECT":" ","MAREA":" ","LANE":" ","ALLEY":" ","HOUSE_NO":"９５號六樓","E_COORD97":174013.42000000001,"N_COORD97":2545324.1000000001,"ADDRESS":"國光六街９５號六樓","OBJECTID":538338},"geometry":{"x":174013.42000000086,"y":2545324.0999999996}},{"attributes":{"ID":538366,"DIS_CODE":0,"TOWNNAME":"永康區","LI":"崑山里","LIN":"44鄰","STREET":"國光六街","SECT":" ","MAREA":" ","LANE":" ","ALLEY":" ","HOUSE_NO":"９５號二樓","E_COORD97":174013.42000000001,"N_COORD97":2545324.1000000001,"ADDRESS":"國光六街９５號二樓","OBJECTID":538339},"geometry":{"x":174013.42000000086,"y":2545324.0999999996}},{"attributes":{"ID":538367,"DIS_CODE":0,"TOWNNAME":"永康區","LI":"崑山里","LIN":"44鄰","STREET":"國光六街","SECT":" ","MAREA":" ","LANE":" ","ALLEY":" ","HOUSE_NO":"９１號六樓","E_COORD97":174032.13,"N_COORD97":2545337.3199999998,"ADDRESS":"國光六街９１號六樓","OBJECTID":538340},"geometry":{"x":174032.13000000082,"y":2545337.3200000003}},{"attributes":{"ID":538368,"DIS_CODE":0,"TOWNNAME":"永康區","LI":"崑山里","LIN":"44鄰","STREET":"國光六街","SECT":" ","MAREA":" ","LANE":" ","ALLEY":" ","HOUSE_NO":"９１號三樓","E_COORD97":174032.13,"N_COORD97":2545337.3199999998,"ADDRESS":"國光六街９１號三樓","OBJECTID":538341},"geometry":{"x":174032.13000000082,"y":2545337.3200000003}},{"attributes":{"ID":538369,"DIS_CODE":0,"TOWNNAME":"永康區","LI":"崑山里","LIN":"44鄰","STREET":"國光六街","SECT":" ","MAREA":" ","LANE":" ","ALLEY":" ","HOUSE_NO":"９１號四樓","E_COORD97":174032.13,"N_COORD97":2545337.3199999998,"ADDRESS":"國光六街９１號四樓","OBJECTID":538342},"geometry":{"x":174032.13000000082,"y":2545337.3200000003}},{"attributes":{"ID":538370,"DIS_CODE":0,"TOWNNAME":"永康區","LI":"崑山里","LIN":"44鄰","STREET":"國光六街","SECT":" ","MAREA":" ","LANE":" ","ALLEY":" ","HOUSE_NO":"１０９號四樓之１","E_COORD97":173990.57000000001,"N_COORD97":2545351.4100000001,"ADDRESS":"國光六街１０９號四樓之１","OBJECTID":538343},"geometry":{"x":173990.57000000123,"y":2545351.410000002}},{"attributes":{"ID":538371,"DIS_CODE":0,"TOWNNAME":"永康區","LI":"崑山里","LIN":"44鄰","STREET":"國光六街","SECT":" ","MAREA":" ","LANE":" ","ALLEY":" ","HOUSE_NO":"９７號五樓","E_COORD97":174026.87,"N_COORD97":2545339.3199999998,"ADDRESS":"國光六街９７號五樓","OBJECTID":538344},"geometry":{"x":174026.87000000011,"y":2545339.3200000022}},{"attributes":{"ID":538372,"DIS_CODE":0,"TOWNNAME":"永康區","LI":"崑山里","LIN":"44鄰","STREET":"國光六街","SECT":" ","MAREA":" ","LANE":" ","ALLEY":" ","HOUSE_NO":"１０９號三樓之２","E_COORD97":173990.70000000001,"N_COORD97":2545351.4100000001,"ADDRESS":"國光六街１０９號三樓之２","OBJECTID":538345},"geometry":{"x":173990.70000000019,"y":2545351.410000002}},{"attributes":{"ID":538373,"DIS_CODE":0,"TOWNNAME":"永康區","LI":"崑山里","LIN":"44鄰","STREET":"國光六街","SECT":" ","MAREA":" ","LANE":" ","ALLEY":" ","HOUSE_NO":"９７號四樓","E_COORD97":174026.87,"N_COORD97":2545339.3199999998,"ADDRESS":"國光六街９７號四樓","OBJECTID":538346},"geometry":{"x":174026.87000000011,"y":2545339.3200000022}},{"attributes":{"ID":538374,"DIS_CODE":0,"TOWNNAME":"永康區","LI":"崑山里","LIN":"44鄰","STREET":"國光六街","SECT":" ","MAREA":" ","LANE":" ","ALLEY":" ","HOUSE_NO":"９５號五樓","E_COORD97":174013.42000000001,"N_COORD97":2545324.1000000001,"ADDRESS":"國光六街９５號五樓","OBJECTID":538347},"geometry":{"x":174013.42000000086,"y":2545324.0999999996}},{"attributes":{"ID":538375,"DIS_CODE":0,"TOWNNAME":"永康區","LI":"崑山里","LIN":"44鄰","STREET":"國光六街","SECT":" ","MAREA":" ","LANE":" ","ALLEY":" ","HOUSE_NO":"９３號三樓","E_COORD97":174027.66,"N_COORD97":2545319.9100000001,"ADDRESS":"國光六街９３號三樓","OBJECTID":538348},"geometry":{"x":174027.66000000108,"y":2545319.9099999983}},{"attributes":{"ID":538376,"DIS_CODE":0,"TOWNNAME":"永康區","LI":"崑山里","LIN":"44鄰","STREET":"國光六街","SECT":" ","MAREA":" ","LANE":" ","ALLEY":" ","HOUSE_NO":"１０９號六樓之２","E_COORD97":173990.70000000001,"N_COORD97":2545351.4100000001,"ADDRESS":"國光六街１０９號六樓之２","OBJECTID":538349},"geometry":{"x":173990.70000000019,"y":2545351.410000002}},{"attributes":{"ID":538377,"DIS_CODE":0,"TOWNNAME":"永康區","LI":"崑山里","LIN":"44鄰","STREET":"國光六街","SECT":" ","MAREA":" ","LANE":" ","ALLEY":" ","HOUSE_NO":"９９號五樓","E_COORD97":174021.95999999999,"N_COORD97":2545340.8199999998,"ADDRESS":"國光六街９９號五樓","OBJECTID":538350},"geometry":{"x":174021.96000000089,"y":2545340.8200000003}},{"attributes":{"ID":538378,"DIS_CODE":0,"TOWNNAME":"永康區","LI":"崑山里","LIN":"44鄰","STREET":"國光六街","SECT":" ","MAREA":" ","LANE":" ","ALLEY":" ","HOUSE_NO":"９３號四樓","E_COORD97":174027.66,"N_COORD97":2545319.9100000001,"ADDRESS":"國光六街９３號四樓","OBJECTID":538351},"geometry":{"x":174027.66000000108,"y":2545319.9099999983}},{"attributes":{"ID":538379,"DIS_CODE":0,"TOWNNAME":"永康區","LI":"崑山里","LIN":"44鄰","STREET":"國光六街","SECT":" ","MAREA":" ","LANE":" ","ALLEY":" ","HOUSE_NO":"１０９號七樓之１","E_COORD97":173990.57000000001,"N_COORD97":2545351.4100000001,"ADDRESS":"國光六街１０９號七樓之１","OBJECTID":538352},"geometry":{"x":173990.57000000123,"y":2545351.410000002}},{"attributes":{"ID":538380,"DIS_CODE":0,"TOWNNAME":"永康區","LI":"崑山里","LIN":"44鄰","STREET":"國光六街","SECT":" ","MAREA":" ","LANE":" ","ALLEY":" ","HOUSE_NO":"１０９號五樓之１","E_COORD97":173990.57000000001,"N_COORD97":2545351.4100000001,"ADDRESS":"國光六街１０９號五樓之１","OBJECTID":538353},"geometry":{"x":173990.57000000123,"y":2545351.410000002}},{"attributes":{"ID":538381,"DIS_CODE":0,"TOWNNAME":"永康區","LI":"崑山里","LIN":"44鄰","STREET":"國光六街","SECT":" ","MAREA":" ","LANE":" ","ALLEY":" ","HOUSE_NO":"１０９號三樓之１","E_COORD97":173990.57000000001,"N_COORD97":2545351.4100000001,"ADDRESS":"國光六街１０９號三樓之１","OBJECTID":538354},"geometry":{"x":173990.57000000123,"y":2545351.410000002}},{"attributes":{"ID":538382,"DIS_CODE":0,"TOWNNAME":"永康區","LI":"崑山里","LIN":"44鄰","STREET":"國光六街","SECT":" ","MAREA":" ","LANE":" ","ALLEY":" ","HOUSE_NO":"９７號三樓","E_COORD97":174026.87,"N_COORD97":2545339.3199999998,"ADDRESS":"國光六街９７號三樓","OBJECTID":538355},"geometry":{"x":174026.87000000011,"y":2545339.3200000022}},{"attributes":{"ID":538383,"DIS_CODE":0,"TOWNNAME":"永康區","LI":"崑山里","LIN":"44鄰","STREET":"國光六街","SECT":" ","MAREA":" ","LANE":" ","ALLEY":" ","HOUSE_NO":"９３號五樓","E_COORD97":174027.66,"N_COORD97":2545319.9100000001,"ADDRESS":"國光六街９３號五樓","OBJECTID":538356},"geometry":{"x":174027.66000000108,"y":2545319.9099999983}},{"attributes":{"ID":538384,"DIS_CODE":0,"TOWNNAME":"永康區","LI":"崑山里","LIN":"44鄰","STREET":"國光六街","SECT":" ","MAREA":" ","LANE":" ","ALLEY":" ","HOUSE_NO":"１０９號七樓之２","E_COORD97":173990.70000000001,"N_COORD97":2545351.4100000001,"ADDRESS":"國光六街１０９號七樓之２","OBJECTID":538357},"geometry":{"x":173990.70000000019,"y":2545351.410000002}},{"attributes":{"ID":538385,"DIS_CODE":0,"TOWNNAME":"永康區","LI":"崑山里","LIN":"44鄰","STREET":"國光六街","SECT":" ","MAREA":" ","LANE":" ","ALLEY":" ","HOUSE_NO":"１０９號二樓之１","E_COORD97":173990.57000000001,"N_COORD97":2545351.4100000001,"ADDRESS":"國光六街１０９號二樓之１","OBJECTID":538358},"geometry":{"x":173990.57000000123,"y":2545351.410000002}},{"attributes":{"ID":538386,"DIS_CODE":0,"TOWNNAME":"永康區","LI":"崑山里","LIN":"44鄰","STREET":"國光六街","SECT":" ","MAREA":" ","LANE":" ","ALLEY":" ","HOUSE_NO":"９７號二樓","E_COORD97":174026.87,"N_COORD97":2545339.3199999998,"ADDRESS":"國光六街９７號二樓","OBJECTID":538359},"geometry":{"x":174026.87000000011,"y":2545339.3200000022}},{"attributes":{"ID":538387,"DIS_CODE":0,"TOWNNAME":"中西區","LI":"大南里","LIN":"7鄰","STREET":"南寧街","SECT":" ","MAREA":" ","LANE":" ","ALLEY":" ","HOUSE_NO":"４２號","E_COORD97":168352.34,"N_COORD97":2542836.4100000001,"ADDRESS":"南寧街４２號","OBJECTID":538360},"geometry":{"x":168352.34000000078,"y":2542836.410000002}},{"attributes":{"ID":538388,"DIS_CODE":0,"TOWNNAME":"中西區","LI":"大南里","LIN":"7鄰","STREET":"南寧街","SECT":" ","MAREA":" ","LANE":" ","ALLEY":" ","HOUSE_NO":"４６號","E_COORD97":168345.64999999999,"N_COORD97":2542838.8700000001,"ADDRESS":"南寧街４６號","OBJECTID":538361},"geometry":{"x":168345.6500000013,"y":2542838.870000001}},{"attributes":{"ID":538389,"DIS_CODE":0,"TOWNNAME":"中西區","LI":"大南里","LIN":"7鄰","STREET":"南寧街","SECT":" ","MAREA":" ","LANE":" ","ALLEY":" ","HOUSE_NO":"４８號","E_COORD97":168334.37,"N_COORD97":2542842.7400000002,"ADDRESS":"南寧街４８號","OBJECTID":538362},"geometry":{"x":168334.37000000011,"y":2542842.7399999984}},{"attributes":{"ID":538390,"DIS_CODE":0,"TOWNNAME":"永康區","LI":"崑山里","LIN":"44鄰","STREET":"國光六街","SECT":" ","MAREA":" ","LANE":" ","ALLEY":" ","HOUSE_NO":"１０９號五樓之２","E_COORD97":173990.70000000001,"N_COORD97":2545351.4100000001,"ADDRESS":"國光六街１０９號五樓之２","OBJECTID":538363},"geometry":{"x":173990.70000000019,"y":2545351.410000002}},{"attributes":{"ID":538391,"DIS_CODE":0,"TOWNNAME":"永康區","LI":"崑山里","LIN":"44鄰","STREET":"國光六街","SECT":" ","MAREA":" ","LANE":" ","ALLEY":" ","HOUSE_NO":"１０９號二樓之２","E_COORD97":173990.70000000001,"N_COORD97":2545351.4100000001,"ADDRESS":"國光六街１０９號二樓之２","OBJECTID":538364},"geometry":{"x":173990.70000000019,"y":2545351.410000002}},{"attributes":{"ID":538392,"DIS_CODE":0,"TOWNNAME":"永康區","LI":"崑山里","LIN":"44鄰","STREET":"國光六街","SECT":" ","MAREA":" ","LANE":" ","ALLEY":" ","HOUSE_NO":"９９號四樓","E_COORD97":174021.95999999999,"N_COORD97":2545340.8199999998,"ADDRESS":"國光六街９９號四樓","OBJECTID":538365},"geometry":{"x":174021.96000000089,"y":2545340.8200000003}},{"attributes":{"ID":538393,"DIS_CODE":0,"TOWNNAME":"永康區","LI":"崑山里","LIN":"44鄰","STREET":"國光六街","SECT":" ","MAREA":" ","LANE":" ","ALLEY":" ","HOUSE_NO":"９３號二樓","E_COORD97":174027.66,"N_COORD97":2545319.9100000001,"ADDRESS":"國光六街９３號二樓","OBJECTID":538366},"geometry":{"x":174027.66000000108,"y":2545319.9099999983}},{"attributes":{"ID":538394,"DIS_CODE":0,"TOWNNAME":"永康區","LI":"崑山里","LIN":"44鄰","STREET":"國光六街","SECT":" ","MAREA":" ","LANE":" ","ALLEY":" ","HOUSE_NO":"１０９號八樓之１","E_COORD97":173990.57000000001,"N_COORD97":2545351.4100000001,"ADDRESS":"國光六街１０９號八樓之１","OBJECTID":538367},"geometry":{"x":173990.57000000123,"y":2545351.410000002}},{"attributes":{"ID":538395,"DIS_CODE":0,"TOWNNAME":"永康區","LI":"崑山里","LIN":"44鄰","STREET":"國光六街","SECT":" ","MAREA":" ","LANE":" ","ALLEY":" ","HOUSE_NO":"１０９號八樓之２","E_COORD97":173990.70000000001,"N_COORD97":2545351.4100000001,"ADDRESS":"國光六街１０９號八樓之２","OBJECTID":538368},"geometry":{"x":173990.70000000019,"y":2545351.410000002}},{"attributes":{"ID":538396,"DIS_CODE":0,"TOWNNAME":"歸仁區","LI":"後市里","LIN":"44鄰","STREET":"民權北路","SECT":" ","MAREA":" ","LANE":" ","ALLEY":" ","HOUSE_NO":"７２號六樓","E_COORD97":177037.42999999999,"N_COORD97":2541053.75,"ADDRESS":"民權北路７２號六樓","OBJECTID":538369},"geometry":{"x":177037.43000000063,"y":2541053.7500000019}},{"attributes":{"ID":538397,"DIS_CODE":0,"TOWNNAME":"歸仁區","LI":"後市里","LIN":"44鄰","STREET":"民權北路","SECT":" ","MAREA":" ","LANE":" ","ALLEY":" ","HOUSE_NO":"７０號五樓","E_COORD97":177037.42999999999,"N_COORD97":2541053.75,"ADDRESS":"民權北路７０號五樓","OBJECTID":538370},"geometry":{"x":177037.43000000063,"y":2541053.7500000019}},{"attributes":{"ID":538398,"DIS_CODE":0,"TOWNNAME":"歸仁區","LI":"後市里","LIN":"44鄰","STREET":"民權北路","SECT":" ","MAREA":" ","LANE":" ","ALLEY":" ","HOUSE_NO":"６８號七樓","E_COORD97":177020.70999999999,"N_COORD97":2541056.7799999998,"ADDRESS":"民權北路６８號七樓","OBJECTID":538371},"geometry":{"x":177020.71000000089,"y":2541056.7799999993}},{"attributes":{"ID":538399,"DIS_CODE":0,"TOWNNAME":"歸仁區","LI":"後市里","LIN":"44鄰","STREET":"民權北路","SECT":" ","MAREA":" ","LANE":" ","ALLEY":" ","HOUSE_NO":"７０號三樓","E_COORD97":177037.42999999999,"N_COORD97":2541053.75,"ADDRESS":"民權北路７０號三樓","OBJECTID":538372},"geometry":{"x":177037.43000000063,"y":2541053.7500000019}},{"attributes":{"ID":538400,"DIS_CODE":0,"TOWNNAME":"歸仁區","LI":"後市里","LIN":"44鄰","STREET":"民權北路","SECT":" ","MAREA":" ","LANE":" ","ALLEY":" ","HOUSE_NO":"６８號四樓","E_COORD97":177020.70999999999,"N_COORD97":2541056.7799999998,"ADDRESS":"民權北路６８號四樓","OBJECTID":538373},"geometry":{"x":177020.71000000089,"y":2541056.7799999993}},{"attributes":{"ID":538401,"DIS_CODE":0,"TOWNNAME":"歸仁區","LI":"後市里","LIN":"44鄰","STREET":"民權北路","SECT":" ","MAREA":" ","LANE":" ","ALLEY":" ","HOUSE_NO":"７２號三樓","E_COORD97":177037.42999999999,"N_COORD97":2541053.75,"ADDRESS":"民權北路７２號三樓","OBJECTID":538374},"geometry":{"x":177037.43000000063,"y":2541053.7500000019}},{"attributes":{"ID":538402,"DIS_CODE":0,"TOWNNAME":"歸仁區","LI":"後市里","LIN":"44鄰","STREET":"民權北路","SECT":" ","MAREA":" ","LANE":" ","ALLEY":" ","HOUSE_NO":"６８號五樓","E_COORD97":177020.70999999999,"N_COORD97":2541056.7799999998,"ADDRESS":"民權北路６８號五樓","OBJECTID":538375},"geometry":{"x":177020.71000000089,"y":2541056.7799999993}},{"attributes":{"ID":538403,"DIS_CODE":0,"TOWNNAME":"歸仁區","LI":"後市里","LIN":"44鄰","STREET":"民權北路","SECT":" ","MAREA":" ","LANE":" ","ALLEY":" ","HOUSE_NO":"７０號四樓","E_COORD97":177037.42999999999,"N_COORD97":2541053.75,"ADDRESS":"民權北路７０號四樓","OBJECTID":538376},"geometry":{"x":177037.43000000063,"y":2541053.7500000019}},{"attributes":{"ID":538404,"DIS_CODE":0,"TOWNNAME":"歸仁區","LI":"後市里","LIN":"44鄰","STREET":"民權北路","SECT":" ","MAREA":" ","LANE":" ","ALLEY":" ","HOUSE_NO":"７２號四樓","E_COORD97":177037.42999999999,"N_COORD97":2541053.75,"ADDRESS":"民權北路７２號四樓","OBJECTID":538377},"geometry":{"x":177037.43000000063,"y":2541053.7500000019}},{"attributes":{"ID":538405,"DIS_CODE":0,"TOWNNAME":"歸仁區","LI":"後市里","LIN":"44鄰","STREET":"民權北路","SECT":" ","MAREA":" ","LANE":" ","ALLEY":" ","HOUSE_NO":"７２號二樓","E_COORD97":177037.42999999999,"N_COORD97":2541053.75,"ADDRESS":"民權北路７２號二樓","OBJECTID":538378},"geometry":{"x":177037.43000000063,"y":2541053.7500000019}},{"attributes":{"ID":538406,"DIS_CODE":0,"TOWNNAME":"歸仁區","LI":"後市里","LIN":"44鄰","STREET":"民權北路","SECT":" ","MAREA":" ","LANE":" ","ALLEY":" ","HOUSE_NO":"７２號七樓","E_COORD97":177037.42999999999,"N_COORD97":2541053.75,"ADDRESS":"民權北路７２號七樓","OBJECTID":538379},"geometry":{"x":177037.43000000063,"y":2541053.7500000019}},{"attributes":{"ID":538407,"DIS_CODE":0,"TOWNNAME":"中西區","LI":"大南里","LIN":"4鄰","STREET":"五妃街","SECT":" ","MAREA":" ","LANE":" ","ALLEY":" ","HOUSE_NO":"２２７號","E_COORD97":168312.91,"N_COORD97":2542567.6499999999,"ADDRESS":"五妃街２２７號","OBJECTID":538380},"geometry":{"x":168312.91000000108,"y":2542567.6500000004}},{"attributes":{"ID":538408,"DIS_CODE":0,"TOWNNAME":"中西區","LI":"大南里","LIN":"4鄰","STREET":"五妃街","SECT":" ","MAREA":" ","LANE":" ","ALLEY":" ","HOUSE_NO":"２２９號","E_COORD97":168304.81,"N_COORD97":2542568.3500000001,"ADDRESS":"五妃街２２９號","OBJECTID":538381},"geometry":{"x":168304.81000000052,"y":2542568.3500000015}},{"attributes":{"ID":538409,"DIS_CODE":0,"TOWNNAME":"安南區","LI":"海西里","LIN":"1鄰","STREET":"海環街","SECT":" ","MAREA":" ","LANE":" ","ALLEY":" ","HOUSE_NO":"５２７號","E_COORD97":166223.60999999999,"N_COORD97":2549220.5,"ADDRESS":"海環街５２７號","OBJECTID":538382},"geometry":{"x":166223.61000000034,"y":2549220.5}},{"attributes":{"ID":538410,"DIS_CODE":0,"TOWNNAME":"永康區","LI":"龍潭里","LIN":"44鄰","STREET":"永平街","SECT":" ","MAREA":" ","LANE":" ","ALLEY":" ","HOUSE_NO":"２７８之２１號","E_COORD97":174685.51000000001,"N_COORD97":2547032.0499999998,"ADDRESS":"永平街２７８之２１號","OBJECTID":538383},"geometry":{"x":174685.51000000071,"y":2547032.0500000045}},{"attributes":{"ID":538411,"DIS_CODE":0,"TOWNNAME":"永康區","LI":"龍潭里","LIN":"44鄰","STREET":"永平街","SECT":" ","MAREA":" ","LANE":" ","ALLEY":" ","HOUSE_NO":"２８０之３號","E_COORD97":174656.59,"N_COORD97":2547031.5499999998,"ADDRESS":"永平街２８０之３號","OBJECTID":538384},"geometry":{"x":174656.59000000078,"y":2547031.5500000007}},{"attributes":{"ID":538412,"DIS_CODE":0,"TOWNNAME":"永康區","LI":"龍潭里","LIN":"44鄰","STREET":"永平街","SECT":" ","MAREA":" ","LANE":" ","ALLEY":" ","HOUSE_NO":"２９２之２０號","E_COORD97":174655.56,"N_COORD97":2547068.5499999998,"ADDRESS":"永平街２９２之２０號","OBJECTID":538385},"geometry":{"x":174655.55999999959,"y":2547068.5500000007}},{"attributes":{"ID":538413,"DIS_CODE":0,"TOWNNAME":"永康區","LI":"龍潭里","LIN":"44鄰","STREET":"永平街","SECT":" ","MAREA":" ","LANE":" ","ALLEY":" ","HOUSE_NO":"２７８之１０號","E_COORD97":174685.51000000001,"N_COORD97":2547032.0499999998,"ADDRESS":"永平街２７８之１０號","OBJECTID":538386},"geometry":{"x":174685.51000000071,"y":2547032.0500000045}},{"attributes":{"ID":538414,"DIS_CODE":0,"TOWNNAME":"新市區","LI":"新和里","LIN":"44鄰","STREET":"民生路","SECT":" ","MAREA":" ","LANE":" ","ALLEY":" ","HOUSE_NO":"４９號","E_COORD97":177291.20999999999,"N_COORD97":2553179.54,"ADDRESS":"民生路４９號","OBJECTID":538387},"geometry":{"x":177291.21000000183,"y":2553179.5399999991}},{"attributes":{"ID":538415,"DIS_CODE":0,"TOWNNAME":"永康區","LI":"龍潭里","LIN":"44鄰","STREET":"永平街","SECT":" ","MAREA":" ","LANE":" ","ALLEY":" ","HOUSE_NO":"２８８之３號","E_COORD97":174684.87,"N_COORD97":2547050.2999999998,"ADDRESS":"永平街２８８之３號","OBJECTID":538388},"geometry":{"x":174684.87000000197,"y":2547050.3000000007}},{"attributes":{"ID":538416,"DIS_CODE":0,"TOWNNAME":"永康區","LI":"龍潭里","LIN":"44鄰","STREET":"永平街","SECT":" ","MAREA":" ","LANE":" ","ALLEY":" ","HOUSE_NO":"２９２之１５號","E_COORD97":174655.56,"N_COORD97":2547068.5499999998,"ADDRESS":"永平街２９２之１５號","OBJECTID":538389},"geometry":{"x":174655.55999999959,"y":2547068.5500000007}},{"attributes":{"ID":538417,"DIS_CODE":0,"TOWNNAME":"永康區","LI":"龍潭里","LIN":"44鄰","STREET":"永平街","SECT":" ","MAREA":" ","LANE":" ","ALLEY":" ","HOUSE_NO":"２８８之９號","E_COORD97":174684.87,"N_COORD97":2547050.2999999998,"ADDRESS":"永平街２８８之９號","OBJECTID":538390},"geometry":{"x":174684.87000000197,"y":2547050.3000000007}},{"attributes":{"ID":538418,"DIS_CODE":0,"TOWNNAME":"永康區","LI":"龍潭里","LIN":"44鄰","STREET":"永平街","SECT":" ","MAREA":" ","LANE":" ","ALLEY":" ","HOUSE_NO":"２８６之２１號","E_COORD97":174685.5,"N_COORD97":2547069.2999999998,"ADDRESS":"永平街２８６之２１號","OBJECTID":538391},"geometry":{"x":174685.50000000186,"y":2547069.3000000007}},{"attributes":{"ID":538419,"DIS_CODE":0,"TOWNNAME":"永康區","LI":"龍潭里","LIN":"44鄰","STREET":"永平街","SECT":" ","MAREA":" ","LANE":" ","ALLEY":" ","HOUSE_NO":"２９６之１２號","E_COORD97":174673.62,"N_COORD97":2547093.29,"ADDRESS":"永平街２９６之１２號","OBJECTID":538392},"geometry":{"x":174673.62000000104,"y":2547093.2900000028}},{"attributes":{"ID":538420,"DIS_CODE":0,"TOWNNAME":"新市區","LI":"新和里","LIN":"44鄰","STREET":"信義街","SECT":" ","MAREA":" ","LANE":" ","ALLEY":" ","HOUSE_NO":"１８０號","E_COORD97":177246.67999999999,"N_COORD97":2553167.77,"ADDRESS":"信義街１８０號","OBJECTID":538393},"geometry":{"x":177246.6799999997,"y":2553167.7699999996}},{"attributes":{"ID":538421,"DIS_CODE":0,"TOWNNAME":"永康區","LI":"成功里","LIN":"44鄰","STREET":"中華路","SECT":" ","MAREA":" ","LANE":" ","ALLEY":" ","HOUSE_NO":"１３８號之１","E_COORD97":171617.25,"N_COORD97":2544822.54,"ADDRESS":"中華路１３８號之１","OBJECTID":538394},"geometry":{"x":171617.25000000186,"y":2544822.5399999991}},{"attributes":{"ID":538422,"DIS_CODE":0,"TOWNNAME":"歸仁區","LI":"後市里","LIN":"44鄰","STREET":"民權北路","SECT":" ","MAREA":" ","LANE":" ","ALLEY":" ","HOUSE_NO":"６６之２號","E_COORD97":177020.60999999999,"N_COORD97":2541050.79,"ADDRESS":"民權北路６６之２號","OBJECTID":538395},"geometry":{"x":177020.61000000034,"y":2541050.7899999991}},{"attributes":{"ID":538423,"DIS_CODE":0,"TOWNNAME":"歸仁區","LI":"辜厝里","LIN":"44鄰","STREET":"中正南路","SECT":"一段","MAREA":" ","LANE":" ","ALLEY":" ","HOUSE_NO":"２９４號","E_COORD97":177204.54000000001,"N_COORD97":2540260.9500000002,"ADDRESS":"中正南路一段２９４號","OBJECTID":538396},"geometry":{"x":177204.54000000097,"y":2540260.9500000011}},{"attributes":{"ID":538424,"DIS_CODE":0,"TOWNNAME":"歸仁區","LI":"辜厝里","LIN":"44鄰","STREET":"大吉街","SECT":" ","MAREA":" ","LANE":" ","ALLEY":" ","HOUSE_NO":"２３４號","E_COORD97":177196.81,"N_COORD97":2540294.9500000002,"ADDRESS":"大吉街２３４號","OBJECTID":538397},"geometry":{"x":177196.80999999959,"y":2540294.9500000011}},{"attributes":{"ID":538425,"DIS_CODE":0,"TOWNNAME":"歸仁區","LI":"辜厝里","LIN":"44鄰","STREET":"中正八街","SECT":" ","MAREA":" ","LANE":" ","ALLEY":" ","HOUSE_NO":"１０號","E_COORD97":177148.48999999999,"N_COORD97":2540269.9500000002,"ADDRESS":"中正八街１０號","OBJECTID":538398},"geometry":{"x":177148.49000000022,"y":2540269.9499999993}},{"attributes":{"ID":538426,"DIS_CODE":0,"TOWNNAME":"歸仁區","LI":"辜厝里","LIN":"44鄰","STREET":"中正南路","SECT":"一段","MAREA":" ","LANE":" ","ALLEY":" ","HOUSE_NO":"２９８號","E_COORD97":177197.34,"N_COORD97":2540256.9500000002,"ADDRESS":"中正南路一段２９８號","OBJECTID":538399},"geometry":{"x":177197.34000000078,"y":2540256.9499999974}},{"attributes":{"ID":538427,"DIS_CODE":0,"TOWNNAME":"六甲區","LI":"甲東里","LIN":"12鄰","STREET":"裕農街","SECT":" ","MAREA":" ","LANE":" ","ALLEY":" ","HOUSE_NO":"２８３號","E_COORD97":184141.26000000001,"N_COORD97":2569977.6499999999,"ADDRESS":"裕農街２８３號","OBJECTID":538400},"geometry":{"x":184141.26000000071,"y":2569977.6500000022}}]}