{"displayFieldName":"TOWNNAME","fieldAliases":{"ID":"ID","DIS_CODE":"DIS_CODE","TOWNNAME":"TOWNNAME","LI":"LI","LIN":"LIN","STREET":"STREET","SECT":"SECT","MAREA":"MAREA","LANE":"LANE","ALLEY":"ALLEY","HOUSE_NO":"HOUSE_NO","E_COORD97":"E_COORD97","N_COORD97":"N_COORD97","ADDRESS":"ADDRESS","OBJECTID":"OBJECTID"},"geometryType":"esriGeometryPoint","spatialReference":{"wkid":102443,"latestWkid":3826},"fields":[{"name":"ID","type":"esriFieldTypeDouble","alias":"ID"},{"name":"DIS_CODE","type":"esriFieldTypeInteger","alias":"DIS_CODE"},{"name":"TOWNNAME","type":"esriFieldTypeString","alias":"TOWNNAME","length":8},{"name":"LI","type":"esriFieldTypeString","alias":"LI","length":8},{"name":"LIN","type":"esriFieldTypeString","alias":"LIN","length":12},{"name":"STREET","type":"esriFieldTypeString","alias":"STREET","length":20},{"name":"SECT","type":"esriFieldTypeString","alias":"SECT","length":8},{"name":"MAREA","type":"esriFieldTypeString","alias":"MAREA","length":12},{"name":"LANE","type":"esriFieldTypeString","alias":"LANE","length":10},{"name":"ALLEY","type":"esriFieldTypeString","alias":"ALLEY","length":10},{"name":"HOUSE_NO","type":"esriFieldTypeString","alias":"HOUSE_NO","length":20},{"name":"E_COORD97","type":"esriFieldTypeDouble","alias":"E_COORD97"},{"name":"N_COORD97","type":"esriFieldTypeDouble","alias":"N_COORD97"},{"name":"ADDRESS","type":"esriFieldTypeString","alias":"ADDRESS","length":50},{"name":"OBJECTID","type":"esriFieldTypeOID","alias":"OBJECTID"}],"features":[{"attributes":{"ID":646628,"DIS_CODE":0,"TOWNNAME":"仁德區","LI":"仁和里","LIN":"10鄰","STREET":"和愛街","SECT":" ","MAREA":" ","LANE":" ","ALLEY":" ","HOUSE_NO":"１０號十三樓之２","E_COORD97":170390.81,"N_COORD97":2539995.3999999999,"ADDRESS":"和愛街１０號十三樓之２","OBJECTID":646601},"geometry":{"x":170390.81000000145,"y":2539995.4000000022}},{"attributes":{"ID":646629,"DIS_CODE":0,"TOWNNAME":"仁德區","LI":"仁和里","LIN":"10鄰","STREET":"和愛街","SECT":" ","MAREA":" ","LANE":" ","ALLEY":" ","HOUSE_NO":"１０號十三樓之３","E_COORD97":170390.81,"N_COORD97":2539995.3999999999,"ADDRESS":"和愛街１０號十三樓之３","OBJECTID":646602},"geometry":{"x":170390.81000000145,"y":2539995.4000000022}},{"attributes":{"ID":646630,"DIS_CODE":0,"TOWNNAME":"仁德區","LI":"仁和里","LIN":"10鄰","STREET":"和愛街","SECT":" ","MAREA":" ","LANE":" ","ALLEY":" ","HOUSE_NO":"１０號十三樓之５","E_COORD97":170390.81,"N_COORD97":2539995.3999999999,"ADDRESS":"和愛街１０號十三樓之５","OBJECTID":646603},"geometry":{"x":170390.81000000145,"y":2539995.4000000022}},{"attributes":{"ID":646631,"DIS_CODE":0,"TOWNNAME":"仁德區","LI":"仁和里","LIN":"10鄰","STREET":"和愛街","SECT":" ","MAREA":" ","LANE":" ","ALLEY":" ","HOUSE_NO":"１０號十四樓之１","E_COORD97":170390.81,"N_COORD97":2539995.3999999999,"ADDRESS":"和愛街１０號十四樓之１","OBJECTID":646604},"geometry":{"x":170390.81000000145,"y":2539995.4000000022}},{"attributes":{"ID":646632,"DIS_CODE":0,"TOWNNAME":"仁德區","LI":"仁和里","LIN":"10鄰","STREET":"和愛街","SECT":" ","MAREA":" ","LANE":" ","ALLEY":" ","HOUSE_NO":"１０號十四樓之２","E_COORD97":170390.81,"N_COORD97":2539995.3999999999,"ADDRESS":"和愛街１０號十四樓之２","OBJECTID":646605},"geometry":{"x":170390.81000000145,"y":2539995.4000000022}},{"attributes":{"ID":646633,"DIS_CODE":0,"TOWNNAME":"仁德區","LI":"仁和里","LIN":"10鄰","STREET":"和愛街","SECT":" ","MAREA":" ","LANE":" ","ALLEY":" ","HOUSE_NO":"１０號十四樓之３","E_COORD97":170390.81,"N_COORD97":2539995.3999999999,"ADDRESS":"和愛街１０號十四樓之３","OBJECTID":646606},"geometry":{"x":170390.81000000145,"y":2539995.4000000022}},{"attributes":{"ID":646634,"DIS_CODE":0,"TOWNNAME":"安南區","LI":"布袋里","LIN":"7鄰","STREET":"長和路","SECT":"四段","MAREA":" ","LANE":" ","ALLEY":" ","HOUSE_NO":"２５２號","E_COORD97":168717.91686,"N_COORD97":2551727.5990300002,"ADDRESS":"長和路四段２５２號","OBJECTID":646607},"geometry":{"x":168717.91686000023,"y":2551727.5990340002}},{"attributes":{"ID":646635,"DIS_CODE":0,"TOWNNAME":"仁德區","LI":"仁和里","LIN":"10鄰","STREET":"和愛街","SECT":" ","MAREA":" ","LANE":" ","ALLEY":" ","HOUSE_NO":"１０號十四樓之５","E_COORD97":170390.81,"N_COORD97":2539995.3999999999,"ADDRESS":"和愛街１０號十四樓之５","OBJECTID":646608},"geometry":{"x":170390.81000000145,"y":2539995.4000000022}},{"attributes":{"ID":646636,"DIS_CODE":0,"TOWNNAME":"東山區","LI":"東河里","LIN":"16鄰","STREET":" ","SECT":" ","MAREA":"吉貝耍","LANE":" ","ALLEY":" ","HOUSE_NO":"１６３號之３","E_COORD97":186744.92835999999,"N_COORD97":2577281.9512100001,"ADDRESS":"吉貝耍１６３號之３","OBJECTID":646609},"geometry":{"x":186744.92835999932,"y":2577281.9512100015}},{"attributes":{"ID":646637,"DIS_CODE":0,"TOWNNAME":"關廟區","LI":"龜洞里","LIN":"7鄰","STREET":"南雄南路","SECT":" ","MAREA":" ","LANE":"７８１巷","ALLEY":"１６弄","HOUSE_NO":"５０號","E_COORD97":183138.237651,"N_COORD97":2532805.0934799998,"ADDRESS":"南雄南路７８１巷１６弄５０號","OBJECTID":646610},"geometry":{"x":183138.2376509998,"y":2532805.0934830047}},{"attributes":{"ID":646638,"DIS_CODE":0,"TOWNNAME":"東山區","LI":"高原里","LIN":"11鄰","STREET":" ","SECT":" ","MAREA":"高原","LANE":" ","ALLEY":" ","HOUSE_NO":"８７號","E_COORD97":199343.462921,"N_COORD97":2575904.9780299999,"ADDRESS":"高原８７號","OBJECTID":646611},"geometry":{"x":199343.46292100009,"y":2575904.9780320004}},{"attributes":{"ID":646639,"DIS_CODE":0,"TOWNNAME":"東山區","LI":"高原里","LIN":"11鄰","STREET":" ","SECT":" ","MAREA":"高原","LANE":" ","ALLEY":" ","HOUSE_NO":"９１號","E_COORD97":199388.579505,"N_COORD97":2575903.4963699998,"ADDRESS":"高原９１號","OBJECTID":646612},"geometry":{"x":199388.57950500119,"y":2575903.4963659998}},{"attributes":{"ID":646640,"DIS_CODE":0,"TOWNNAME":"仁德區","LI":"仁和里","LIN":"11鄰","STREET":"和愛街","SECT":" ","MAREA":" ","LANE":" ","ALLEY":" ","HOUSE_NO":"１號二樓之２","E_COORD97":170390.81,"N_COORD97":2539995.3999999999,"ADDRESS":"和愛街１號二樓之２","OBJECTID":646613},"geometry":{"x":170390.81000000145,"y":2539995.4000000022}},{"attributes":{"ID":646641,"DIS_CODE":0,"TOWNNAME":"仁德區","LI":"仁和里","LIN":"11鄰","STREET":"和愛街","SECT":" ","MAREA":" ","LANE":" ","ALLEY":" ","HOUSE_NO":"１號二樓之３","E_COORD97":170390.81,"N_COORD97":2539995.3999999999,"ADDRESS":"和愛街１號二樓之３","OBJECTID":646614},"geometry":{"x":170390.81000000145,"y":2539995.4000000022}},{"attributes":{"ID":646642,"DIS_CODE":0,"TOWNNAME":"仁德區","LI":"仁和里","LIN":"11鄰","STREET":"和愛街","SECT":" ","MAREA":" ","LANE":" ","ALLEY":" ","HOUSE_NO":"１號二樓之５","E_COORD97":170390.81,"N_COORD97":2539995.3999999999,"ADDRESS":"和愛街１號二樓之５","OBJECTID":646615},"geometry":{"x":170390.81000000145,"y":2539995.4000000022}},{"attributes":{"ID":646643,"DIS_CODE":0,"TOWNNAME":"仁德區","LI":"仁和里","LIN":"11鄰","STREET":"和愛街","SECT":" ","MAREA":" ","LANE":" ","ALLEY":" ","HOUSE_NO":"１號三樓之１","E_COORD97":170390.81,"N_COORD97":2539995.3999999999,"ADDRESS":"和愛街１號三樓之１","OBJECTID":646616},"geometry":{"x":170390.81000000145,"y":2539995.4000000022}},{"attributes":{"ID":646644,"DIS_CODE":0,"TOWNNAME":"仁德區","LI":"仁和里","LIN":"11鄰","STREET":"和愛街","SECT":" ","MAREA":" ","LANE":" ","ALLEY":" ","HOUSE_NO":"１號三樓之２","E_COORD97":170390.81,"N_COORD97":2539995.3999999999,"ADDRESS":"和愛街１號三樓之２","OBJECTID":646617},"geometry":{"x":170390.81000000145,"y":2539995.4000000022}},{"attributes":{"ID":646645,"DIS_CODE":0,"TOWNNAME":"仁德區","LI":"仁和里","LIN":"11鄰","STREET":"和愛街","SECT":" ","MAREA":" ","LANE":" ","ALLEY":" ","HOUSE_NO":"１號三樓之３","E_COORD97":170390.81,"N_COORD97":2539995.3999999999,"ADDRESS":"和愛街１號三樓之３","OBJECTID":646618},"geometry":{"x":170390.81000000145,"y":2539995.4000000022}},{"attributes":{"ID":646646,"DIS_CODE":0,"TOWNNAME":"北區","LI":"大山里","LIN":"2鄰","STREET":"和緯路","SECT":"一段","MAREA":" ","LANE":" ","ALLEY":" ","HOUSE_NO":"８３號","E_COORD97":169495.81334399999,"N_COORD97":2545544.29318,"ADDRESS":"和緯路一段８３號","OBJECTID":646619},"geometry":{"x":169495.81334400084,"y":2545544.2931849994}},{"attributes":{"ID":646647,"DIS_CODE":0,"TOWNNAME":"永康區","LI":"三合里","LIN":"20鄰","STREET":"南工街","SECT":" ","MAREA":" ","LANE":" ","ALLEY":" ","HOUSE_NO":"２７３之１號","E_COORD97":171878.62683200001,"N_COORD97":2545983.09192,"ADDRESS":"南工街２７３之１號","OBJECTID":646620},"geometry":{"x":171878.62683200091,"y":2545983.0919240005}},{"attributes":{"ID":646648,"DIS_CODE":0,"TOWNNAME":"仁德區","LI":"仁和里","LIN":"11鄰","STREET":"和愛街","SECT":" ","MAREA":" ","LANE":" ","ALLEY":" ","HOUSE_NO":"１號三樓之５","E_COORD97":170390.81,"N_COORD97":2539995.3999999999,"ADDRESS":"和愛街１號三樓之５","OBJECTID":646621},"geometry":{"x":170390.81000000145,"y":2539995.4000000022}},{"attributes":{"ID":646649,"DIS_CODE":0,"TOWNNAME":"東山區","LI":"高原里","LIN":"11鄰","STREET":" ","SECT":" ","MAREA":"高原","LANE":" ","ALLEY":" ","HOUSE_NO":"９２號","E_COORD97":199515.35075099999,"N_COORD97":2576184.5895500001,"ADDRESS":"高原９２號","OBJECTID":646622},"geometry":{"x":199515.35075099859,"y":2576184.5895479992}},{"attributes":{"ID":646650,"DIS_CODE":0,"TOWNNAME":"仁德區","LI":"仁和里","LIN":"11鄰","STREET":"和愛街","SECT":" ","MAREA":" ","LANE":" ","ALLEY":" ","HOUSE_NO":"１號四樓之１","E_COORD97":170390.81,"N_COORD97":2539995.3999999999,"ADDRESS":"和愛街１號四樓之１","OBJECTID":646623},"geometry":{"x":170390.81000000145,"y":2539995.4000000022}},{"attributes":{"ID":646651,"DIS_CODE":0,"TOWNNAME":"東山區","LI":"東河里","LIN":"4鄰","STREET":" ","SECT":" ","MAREA":"吉貝耍","LANE":" ","ALLEY":" ","HOUSE_NO":"２９號","E_COORD97":186980.77225000001,"N_COORD97":2577158.7612800002,"ADDRESS":"吉貝耍２９號","OBJECTID":646624},"geometry":{"x":186980.77225000132,"y":2577158.7612769995}},{"attributes":{"ID":646652,"DIS_CODE":0,"TOWNNAME":"仁德區","LI":"新田里","LIN":"18鄰","STREET":"德糖路","SECT":" ","MAREA":" ","LANE":" ","ALLEY":" ","HOUSE_NO":"２５７號","E_COORD97":173712.69271999999,"N_COORD97":2539180.7510299999,"ADDRESS":"民安路二段９７巷５６號","OBJECTID":646625},"geometry":{"x":173712.6927199997,"y":2539180.7510299999}},{"attributes":{"ID":646653,"DIS_CODE":0,"TOWNNAME":"後壁區","LI":"後壁里","LIN":"7鄰","STREET":" ","SECT":" ","MAREA":"後壁","LANE":" ","ALLEY":" ","HOUSE_NO":"１４０之７號","E_COORD97":184860.83668099999,"N_COORD97":2584989.1983400001,"ADDRESS":"後壁１４０之７號","OBJECTID":646626},"geometry":{"x":184860.83668099996,"y":2584989.1983370017}},{"attributes":{"ID":646654,"DIS_CODE":0,"TOWNNAME":"北區","LI":"大山里","LIN":"2鄰","STREET":"和緯路","SECT":"一段","MAREA":" ","LANE":" ","ALLEY":" ","HOUSE_NO":"７７號","E_COORD97":169510.430448,"N_COORD97":2545540.27152,"ADDRESS":"和緯路一段７７號","OBJECTID":646627},"geometry":{"x":169510.43044800125,"y":2545540.27152}},{"attributes":{"ID":646655,"DIS_CODE":0,"TOWNNAME":"仁德區","LI":"中洲里","LIN":"10鄰","STREET":" ","SECT":" ","MAREA":"中洲","LANE":" ","ALLEY":" ","HOUSE_NO":"３０９之３７號","E_COORD97":173686.927864,"N_COORD97":2534110.5732999998,"ADDRESS":"中洲３０９之３７號","OBJECTID":646628},"geometry":{"x":173686.92786400206,"y":2534110.573303001}},{"attributes":{"ID":646656,"DIS_CODE":0,"TOWNNAME":"北區","LI":"大山里","LIN":"2鄰","STREET":"和緯路","SECT":"一段","MAREA":" ","LANE":" ","ALLEY":" ","HOUSE_NO":"７９號","E_COORD97":169504.710712,"N_COORD97":2545542.3881899999,"ADDRESS":"和緯路一段７９號","OBJECTID":646629},"geometry":{"x":169504.7107119998,"y":2545542.3881860003}},{"attributes":{"ID":646657,"DIS_CODE":0,"TOWNNAME":"安南區","LI":"布袋里","LIN":"5鄰","STREET":"長和路","SECT":"四段","MAREA":" ","LANE":" ","ALLEY":" ","HOUSE_NO":"３１９號","E_COORD97":168416.832471,"N_COORD97":2551787.2889999999,"ADDRESS":"長和路四段３１９號","OBJECTID":646630},"geometry":{"x":168416.83247100096,"y":2551787.2890019994}},{"attributes":{"ID":646658,"DIS_CODE":0,"TOWNNAME":"仁德區","LI":"中洲里","LIN":"10鄰","STREET":" ","SECT":" ","MAREA":"中洲","LANE":" ","ALLEY":" ","HOUSE_NO":"３０９之３９號","E_COORD97":173800.275024,"N_COORD97":2534064.4299900001,"ADDRESS":"中洲３０９之３９號","OBJECTID":646631},"geometry":{"x":173800.27502399962,"y":2534064.429994002}},{"attributes":{"ID":646659,"DIS_CODE":0,"TOWNNAME":"北區","LI":"大山里","LIN":"2鄰","STREET":"和緯路","SECT":"一段","MAREA":" ","LANE":" ","ALLEY":" ","HOUSE_NO":"８１號","E_COORD97":169499.626502,"N_COORD97":2545544.08152,"ADDRESS":"和緯路一段８１號","OBJECTID":646632},"geometry":{"x":169499.62650200073,"y":2545544.0815180037}},{"attributes":{"ID":646660,"DIS_CODE":0,"TOWNNAME":"仁德區","LI":"仁和里","LIN":"11鄰","STREET":"和愛街","SECT":" ","MAREA":" ","LANE":" ","ALLEY":" ","HOUSE_NO":"１２號二樓之２","E_COORD97":170392.85000000001,"N_COORD97":2539956.0299999998,"ADDRESS":"和愛街１２號二樓之２","OBJECTID":646633},"geometry":{"x":170392.85000000056,"y":2539956.0300000012}},{"attributes":{"ID":646661,"DIS_CODE":0,"TOWNNAME":"仁德區","LI":"仁和里","LIN":"11鄰","STREET":"和愛街","SECT":" ","MAREA":" ","LANE":" ","ALLEY":" ","HOUSE_NO":"１２號二樓之３","E_COORD97":170392.85000000001,"N_COORD97":2539956.0299999998,"ADDRESS":"和愛街１２號二樓之３","OBJECTID":646634},"geometry":{"x":170392.85000000056,"y":2539956.0300000012}},{"attributes":{"ID":646662,"DIS_CODE":0,"TOWNNAME":"仁德區","LI":"仁和里","LIN":"11鄰","STREET":"和愛街","SECT":" ","MAREA":" ","LANE":" ","ALLEY":" ","HOUSE_NO":"１２號二樓之５","E_COORD97":170392.85000000001,"N_COORD97":2539956.0299999998,"ADDRESS":"和愛街１２號二樓之５","OBJECTID":646635},"geometry":{"x":170392.85000000056,"y":2539956.0300000012}},{"attributes":{"ID":646663,"DIS_CODE":0,"TOWNNAME":"仁德區","LI":"中洲里","LIN":"10鄰","STREET":" ","SECT":" ","MAREA":"中洲","LANE":" ","ALLEY":" ","HOUSE_NO":"３０９之５０號","E_COORD97":173805.35975599999,"N_COORD97":2534058.7149999999,"ADDRESS":"中洲３０９之５０號","OBJECTID":646636},"geometry":{"x":173805.35975600127,"y":2534058.7149970029}},{"attributes":{"ID":646664,"DIS_CODE":0,"TOWNNAME":"仁德區","LI":"仁和里","LIN":"11鄰","STREET":"和愛街","SECT":" ","MAREA":" ","LANE":" ","ALLEY":" ","HOUSE_NO":"１２號三樓之１","E_COORD97":170392.85000000001,"N_COORD97":2539956.0299999998,"ADDRESS":"和愛街１２號三樓之１","OBJECTID":646637},"geometry":{"x":170392.85000000056,"y":2539956.0300000012}},{"attributes":{"ID":646665,"DIS_CODE":0,"TOWNNAME":"仁德區","LI":"仁和里","LIN":"11鄰","STREET":"和愛街","SECT":" ","MAREA":" ","LANE":" ","ALLEY":" ","HOUSE_NO":"１２號三樓之２","E_COORD97":170392.85000000001,"N_COORD97":2539956.0299999998,"ADDRESS":"和愛街１２號三樓之２","OBJECTID":646638},"geometry":{"x":170392.85000000056,"y":2539956.0300000012}},{"attributes":{"ID":646666,"DIS_CODE":0,"TOWNNAME":"安南區","LI":"布袋里","LIN":"5鄰","STREET":"長和路","SECT":"四段","MAREA":" ","LANE":" ","ALLEY":" ","HOUSE_NO":"３０７號","E_COORD97":168507.665947,"N_COORD97":2551761.0423499998,"ADDRESS":"長和路四段３０７號","OBJECTID":646639},"geometry":{"x":168507.66594700143,"y":2551761.0423490033}},{"attributes":{"ID":646667,"DIS_CODE":0,"TOWNNAME":"仁德區","LI":"仁和里","LIN":"11鄰","STREET":"和愛街","SECT":" ","MAREA":" ","LANE":" ","ALLEY":" ","HOUSE_NO":"１２號三樓之３","E_COORD97":170392.85000000001,"N_COORD97":2539956.0299999998,"ADDRESS":"和愛街１２號三樓之３","OBJECTID":646640},"geometry":{"x":170392.85000000056,"y":2539956.0300000012}},{"attributes":{"ID":646668,"DIS_CODE":0,"TOWNNAME":"仁德區","LI":"仁和里","LIN":"11鄰","STREET":"和愛街","SECT":" ","MAREA":" ","LANE":" ","ALLEY":" ","HOUSE_NO":"１２號三樓之５","E_COORD97":170392.85000000001,"N_COORD97":2539956.0299999998,"ADDRESS":"和愛街１２號三樓之５","OBJECTID":646641},"geometry":{"x":170392.85000000056,"y":2539956.0300000012}},{"attributes":{"ID":646669,"DIS_CODE":0,"TOWNNAME":"安南區","LI":"布袋里","LIN":"5鄰","STREET":"長和路","SECT":"四段","MAREA":" ","LANE":"２５３巷","ALLEY":" ","HOUSE_NO":"４７號","E_COORD97":168614.16766800001,"N_COORD97":2551650.76407,"ADDRESS":"長和路四段２５３巷４７號","OBJECTID":646642},"geometry":{"x":168614.16766800079,"y":2551650.7640749998}},{"attributes":{"ID":646670,"DIS_CODE":0,"TOWNNAME":"新營區","LI":"新南里","LIN":"10鄰","STREET":"新北五街","SECT":" ","MAREA":" ","LANE":"１４３巷","ALLEY":" ","HOUSE_NO":"９號","E_COORD97":178535.71577800001,"N_COORD97":2579112.8396600001,"ADDRESS":"新北五街１４３巷９號","OBJECTID":646643},"geometry":{"x":178535.71577799972,"y":2579112.8396640029}},{"attributes":{"ID":646671,"DIS_CODE":0,"TOWNNAME":"仁德區","LI":"中洲里","LIN":"10鄰","STREET":" ","SECT":" ","MAREA":"中洲","LANE":" ","ALLEY":" ","HOUSE_NO":"３０９之２８號","E_COORD97":173961.29154999999,"N_COORD97":2533986.9600399998,"ADDRESS":"中洲３０９之２８號","OBJECTID":646644},"geometry":{"x":173961.29155000113,"y":2533986.9600360002}},{"attributes":{"ID":646672,"DIS_CODE":0,"TOWNNAME":"仁德區","LI":"中洲里","LIN":"10鄰","STREET":" ","SECT":" ","MAREA":"中洲","LANE":" ","ALLEY":" ","HOUSE_NO":"３０９之３８號","E_COORD97":174052.60487000001,"N_COORD97":2533960.0783799998,"ADDRESS":"中洲３０９之３８號","OBJECTID":646645},"geometry":{"x":174052.60487000085,"y":2533960.0783840045}},{"attributes":{"ID":646673,"DIS_CODE":0,"TOWNNAME":"東山區","LI":"南勢里","LIN":"2鄰","STREET":" ","SECT":" ","MAREA":"大洋","LANE":" ","ALLEY":" ","HOUSE_NO":"１６號","E_COORD97":196065.09707300001,"N_COORD97":2574103.06067,"ADDRESS":"大洋１６號","OBJECTID":646646},"geometry":{"x":196065.09707300179,"y":2574103.0606720038}},{"attributes":{"ID":646674,"DIS_CODE":0,"TOWNNAME":"安南區","LI":"布袋里","LIN":"5鄰","STREET":"長和路","SECT":"四段","MAREA":" ","LANE":"２３１巷","ALLEY":"６０弄","HOUSE_NO":"２８號","E_COORD97":168686.79210200001,"N_COORD97":2551502.8091500001,"ADDRESS":"長和路四段２３１巷６０弄２８號","OBJECTID":646647},"geometry":{"x":168686.79210199974,"y":2551502.8091550022}},{"attributes":{"ID":646675,"DIS_CODE":0,"TOWNNAME":"東山區","LI":"南勢里","LIN":"3鄰","STREET":" ","SECT":" ","MAREA":"大洋","LANE":" ","ALLEY":" ","HOUSE_NO":"２１號之５","E_COORD97":195594.97378999999,"N_COORD97":2573961.2440800001,"ADDRESS":"大洋２１號之５","OBJECTID":646648},"geometry":{"x":195594.97379000112,"y":2573961.2440799996}},{"attributes":{"ID":646676,"DIS_CODE":0,"TOWNNAME":"東山區","LI":"東河里","LIN":"1鄰","STREET":" ","SECT":" ","MAREA":"吉貝耍","LANE":" ","ALLEY":" ","HOUSE_NO":"２號","E_COORD97":186653.59977599999,"N_COORD97":2576885.0764299999,"ADDRESS":"吉貝耍２號","OBJECTID":646649},"geometry":{"x":186653.59977600072,"y":2576885.076425001}},{"attributes":{"ID":646677,"DIS_CODE":0,"TOWNNAME":"後壁區","LI":"後壁里","LIN":"12鄰","STREET":" ","SECT":" ","MAREA":"後壁","LANE":" ","ALLEY":" ","HOUSE_NO":"１９５之６號","E_COORD97":185229.88896499999,"N_COORD97":2584888.5804900001,"ADDRESS":"後壁１９５之６號","OBJECTID":646650},"geometry":{"x":185229.88896500226,"y":2584888.5804880001}},{"attributes":{"ID":646678,"DIS_CODE":0,"TOWNNAME":"安南區","LI":"布袋里","LIN":"6鄰","STREET":"長和路","SECT":"四段","MAREA":" ","LANE":"１２０巷","ALLEY":" ","HOUSE_NO":"７１之１號","E_COORD97":169181.82396000001,"N_COORD97":2551952.6005799999,"ADDRESS":"長和路四段１２０巷７１之１號","OBJECTID":646651},"geometry":{"x":169181.82396000065,"y":2551952.6005790047}},{"attributes":{"ID":646679,"DIS_CODE":0,"TOWNNAME":"東山區","LI":"南勢里","LIN":"3鄰","STREET":" ","SECT":" ","MAREA":"大洋","LANE":" ","ALLEY":" ","HOUSE_NO":"２３號","E_COORD97":195420.544188,"N_COORD97":2574199.36895,"ADDRESS":"大洋２３號","OBJECTID":646652},"geometry":{"x":195420.54418800212,"y":2574199.3689530045}},{"attributes":{"ID":646680,"DIS_CODE":0,"TOWNNAME":"東山區","LI":"東河里","LIN":"1鄰","STREET":" ","SECT":" ","MAREA":"吉貝耍","LANE":" ","ALLEY":" ","HOUSE_NO":"２號之６","E_COORD97":186785.18922,"N_COORD97":2576674.4682,"ADDRESS":"吉貝耍２號之６","OBJECTID":646653},"geometry":{"x":186785.18922000006,"y":2576674.4682000019}},{"attributes":{"ID":646681,"DIS_CODE":0,"TOWNNAME":"仁德區","LI":"中洲里","LIN":"10鄰","STREET":" ","SECT":" ","MAREA":"中洲","LANE":" ","ALLEY":" ","HOUSE_NO":"３０９號之２","E_COORD97":173442.64884400001,"N_COORD97":2534102.1066399999,"ADDRESS":"中洲３０９號之２","OBJECTID":646654},"geometry":{"x":173442.64884400088,"y":2534102.1066400018}},{"attributes":{"ID":646682,"DIS_CODE":0,"TOWNNAME":"仁德區","LI":"中洲里","LIN":"10鄰","STREET":" ","SECT":" ","MAREA":"中洲","LANE":" ","ALLEY":" ","HOUSE_NO":"３１２號","E_COORD97":173417.43704600001,"N_COORD97":2534108.45664,"ADDRESS":"中洲３１２號","OBJECTID":646655},"geometry":{"x":173417.43704600073,"y":2534108.4566369988}},{"attributes":{"ID":646683,"DIS_CODE":0,"TOWNNAME":"仁德區","LI":"仁和里","LIN":"11鄰","STREET":"和愛街","SECT":" ","MAREA":" ","LANE":" ","ALLEY":" ","HOUSE_NO":"１２號四樓之１","E_COORD97":170392.85000000001,"N_COORD97":2539956.0299999998,"ADDRESS":"和愛街１２號四樓之１","OBJECTID":646656},"geometry":{"x":170392.85000000056,"y":2539956.0300000012}},{"attributes":{"ID":646684,"DIS_CODE":0,"TOWNNAME":"仁德區","LI":"仁和里","LIN":"11鄰","STREET":"和愛街","SECT":" ","MAREA":" ","LANE":" ","ALLEY":" ","HOUSE_NO":"１２號四樓之２","E_COORD97":170392.85000000001,"N_COORD97":2539956.0299999998,"ADDRESS":"和愛街１２號四樓之２","OBJECTID":646657},"geometry":{"x":170392.85000000056,"y":2539956.0300000012}},{"attributes":{"ID":646685,"DIS_CODE":0,"TOWNNAME":"仁德區","LI":"仁和里","LIN":"11鄰","STREET":"和愛街","SECT":" ","MAREA":" ","LANE":" ","ALLEY":" ","HOUSE_NO":"１２號四樓之３","E_COORD97":170392.85000000001,"N_COORD97":2539956.0299999998,"ADDRESS":"和愛街１２號四樓之３","OBJECTID":646658},"geometry":{"x":170392.85000000056,"y":2539956.0300000012}},{"attributes":{"ID":646686,"DIS_CODE":0,"TOWNNAME":"仁德區","LI":"仁和里","LIN":"11鄰","STREET":"和愛街","SECT":" ","MAREA":" ","LANE":" ","ALLEY":" ","HOUSE_NO":"１２號四樓之５","E_COORD97":170392.85000000001,"N_COORD97":2539956.0299999998,"ADDRESS":"和愛街１２號四樓之５","OBJECTID":646659},"geometry":{"x":170392.85000000056,"y":2539956.0300000012}},{"attributes":{"ID":646687,"DIS_CODE":0,"TOWNNAME":"仁德區","LI":"仁和里","LIN":"11鄰","STREET":"和愛街","SECT":" ","MAREA":" ","LANE":" ","ALLEY":" ","HOUSE_NO":"１２號五樓之１","E_COORD97":170392.85000000001,"N_COORD97":2539956.0299999998,"ADDRESS":"和愛街１２號五樓之１","OBJECTID":646660},"geometry":{"x":170392.85000000056,"y":2539956.0300000012}},{"attributes":{"ID":646688,"DIS_CODE":0,"TOWNNAME":"仁德區","LI":"仁和里","LIN":"11鄰","STREET":"和愛街","SECT":" ","MAREA":" ","LANE":" ","ALLEY":" ","HOUSE_NO":"１２號五樓之２","E_COORD97":170392.85000000001,"N_COORD97":2539956.0299999998,"ADDRESS":"和愛街１２號五樓之２","OBJECTID":646661},"geometry":{"x":170392.85000000056,"y":2539956.0300000012}},{"attributes":{"ID":646689,"DIS_CODE":0,"TOWNNAME":"仁德區","LI":"仁和里","LIN":"11鄰","STREET":"和愛街","SECT":" ","MAREA":" ","LANE":" ","ALLEY":" ","HOUSE_NO":"１２號五樓之３","E_COORD97":170392.85000000001,"N_COORD97":2539956.0299999998,"ADDRESS":"和愛街１２號五樓之３","OBJECTID":646662},"geometry":{"x":170392.85000000056,"y":2539956.0300000012}},{"attributes":{"ID":646690,"DIS_CODE":0,"TOWNNAME":"仁德區","LI":"仁和里","LIN":"11鄰","STREET":"和愛街","SECT":" ","MAREA":" ","LANE":" ","ALLEY":" ","HOUSE_NO":"１２號五樓之５","E_COORD97":170392.85000000001,"N_COORD97":2539956.0299999998,"ADDRESS":"和愛街１２號五樓之５","OBJECTID":646663},"geometry":{"x":170392.85000000056,"y":2539956.0300000012}},{"attributes":{"ID":646691,"DIS_CODE":0,"TOWNNAME":"仁德區","LI":"仁和里","LIN":"11鄰","STREET":"和愛街","SECT":" ","MAREA":" ","LANE":" ","ALLEY":" ","HOUSE_NO":"１２號六樓之１","E_COORD97":170392.85000000001,"N_COORD97":2539956.0299999998,"ADDRESS":"和愛街１２號六樓之１","OBJECTID":646664},"geometry":{"x":170392.85000000056,"y":2539956.0300000012}},{"attributes":{"ID":646692,"DIS_CODE":0,"TOWNNAME":"仁德區","LI":"仁和里","LIN":"11鄰","STREET":"和愛街","SECT":" ","MAREA":" ","LANE":" ","ALLEY":" ","HOUSE_NO":"１２號六樓之２","E_COORD97":170392.85000000001,"N_COORD97":2539956.0299999998,"ADDRESS":"和愛街１２號六樓之２","OBJECTID":646665},"geometry":{"x":170392.85000000056,"y":2539956.0300000012}},{"attributes":{"ID":646693,"DIS_CODE":0,"TOWNNAME":"佳里區","LI":"民安里","LIN":"6鄰","STREET":" ","SECT":" ","MAREA":"同安寮","LANE":" ","ALLEY":" ","HOUSE_NO":"７１號之１","E_COORD97":167378.821386,"N_COORD97":2562719.22444,"ADDRESS":"同安寮７１號之１","OBJECTID":646666},"geometry":{"x":167378.821386002,"y":2562719.224438997}},{"attributes":{"ID":646694,"DIS_CODE":0,"TOWNNAME":"仁德區","LI":"仁和里","LIN":"11鄰","STREET":"和愛街","SECT":" ","MAREA":" ","LANE":" ","ALLEY":" ","HOUSE_NO":"１２號六樓之３","E_COORD97":170392.85000000001,"N_COORD97":2539956.0299999998,"ADDRESS":"和愛街１２號六樓之３","OBJECTID":646667},"geometry":{"x":170392.85000000056,"y":2539956.0300000012}},{"attributes":{"ID":646695,"DIS_CODE":0,"TOWNNAME":"仁德區","LI":"仁和里","LIN":"11鄰","STREET":"和愛街","SECT":" ","MAREA":" ","LANE":" ","ALLEY":" ","HOUSE_NO":"１２號六樓之５","E_COORD97":170392.85000000001,"N_COORD97":2539956.0299999998,"ADDRESS":"和愛街１２號六樓之５","OBJECTID":646668},"geometry":{"x":170392.85000000056,"y":2539956.0300000012}},{"attributes":{"ID":646696,"DIS_CODE":0,"TOWNNAME":"仁德區","LI":"仁和里","LIN":"11鄰","STREET":"和愛街","SECT":" ","MAREA":" ","LANE":" ","ALLEY":" ","HOUSE_NO":"１２號七樓之１","E_COORD97":170392.85000000001,"N_COORD97":2539956.0299999998,"ADDRESS":"和愛街１２號七樓之１","OBJECTID":646669},"geometry":{"x":170392.85000000056,"y":2539956.0300000012}},{"attributes":{"ID":646697,"DIS_CODE":0,"TOWNNAME":"仁德區","LI":"仁和里","LIN":"11鄰","STREET":"和愛街","SECT":" ","MAREA":" ","LANE":" ","ALLEY":" ","HOUSE_NO":"１２號七樓之２","E_COORD97":170392.85000000001,"N_COORD97":2539956.0299999998,"ADDRESS":"和愛街１２號七樓之２","OBJECTID":646670},"geometry":{"x":170392.85000000056,"y":2539956.0300000012}},{"attributes":{"ID":646698,"DIS_CODE":0,"TOWNNAME":"仁德區","LI":"仁和里","LIN":"11鄰","STREET":"和愛街","SECT":" ","MAREA":" ","LANE":" ","ALLEY":" ","HOUSE_NO":"１２號七樓之３","E_COORD97":170392.85000000001,"N_COORD97":2539956.0299999998,"ADDRESS":"和愛街１２號七樓之３","OBJECTID":646671},"geometry":{"x":170392.85000000056,"y":2539956.0300000012}},{"attributes":{"ID":646699,"DIS_CODE":0,"TOWNNAME":"佳里區","LI":"民安里","LIN":"6鄰","STREET":" ","SECT":" ","MAREA":"同安寮","LANE":" ","ALLEY":" ","HOUSE_NO":"７１號之１３","E_COORD97":167395.347045,"N_COORD97":2562704.40778,"ADDRESS":"同安寮７１號之１３","OBJECTID":646672},"geometry":{"x":167395.34704499971,"y":2562704.4077799991}},{"attributes":{"ID":646700,"DIS_CODE":0,"TOWNNAME":"仁德區","LI":"仁和里","LIN":"11鄰","STREET":"和愛街","SECT":" ","MAREA":" ","LANE":" ","ALLEY":" ","HOUSE_NO":"１２號七樓之５","E_COORD97":170392.85000000001,"N_COORD97":2539956.0299999998,"ADDRESS":"和愛街１２號七樓之５","OBJECTID":646673},"geometry":{"x":170392.85000000056,"y":2539956.0300000012}},{"attributes":{"ID":646701,"DIS_CODE":0,"TOWNNAME":"仁德區","LI":"仁和里","LIN":"11鄰","STREET":"和愛街","SECT":" ","MAREA":" ","LANE":" ","ALLEY":" ","HOUSE_NO":"１２號八樓之１","E_COORD97":170392.85000000001,"N_COORD97":2539956.0299999998,"ADDRESS":"和愛街１２號八樓之１","OBJECTID":646674},"geometry":{"x":170392.85000000056,"y":2539956.0300000012}},{"attributes":{"ID":646702,"DIS_CODE":0,"TOWNNAME":"仁德區","LI":"仁和里","LIN":"11鄰","STREET":"和愛街","SECT":" ","MAREA":" ","LANE":" ","ALLEY":" ","HOUSE_NO":"１２號八樓之２","E_COORD97":170392.85000000001,"N_COORD97":2539956.0299999998,"ADDRESS":"和愛街１２號八樓之２","OBJECTID":646675},"geometry":{"x":170392.85000000056,"y":2539956.0300000012}},{"attributes":{"ID":646703,"DIS_CODE":0,"TOWNNAME":"仁德區","LI":"仁和里","LIN":"11鄰","STREET":"和愛街","SECT":" ","MAREA":" ","LANE":" ","ALLEY":" ","HOUSE_NO":"１２號八樓之３","E_COORD97":170392.85000000001,"N_COORD97":2539956.0299999998,"ADDRESS":"和愛街１２號八樓之３","OBJECTID":646676},"geometry":{"x":170392.85000000056,"y":2539956.0300000012}},{"attributes":{"ID":646704,"DIS_CODE":0,"TOWNNAME":"佳里區","LI":"民安里","LIN":"6鄰","STREET":" ","SECT":" ","MAREA":"同安寮","LANE":" ","ALLEY":" ","HOUSE_NO":"７１號之１５","E_COORD97":167393.863973,"N_COORD97":2562700.8094500001,"ADDRESS":"同安寮７１號之１５","OBJECTID":646677},"geometry":{"x":167393.86397300195,"y":2562700.8094490003}},{"attributes":{"ID":646705,"DIS_CODE":0,"TOWNNAME":"仁德區","LI":"仁和里","LIN":"11鄰","STREET":"和愛街","SECT":" ","MAREA":" ","LANE":" ","ALLEY":" ","HOUSE_NO":"１２號八樓之５","E_COORD97":170392.85000000001,"N_COORD97":2539956.0299999998,"ADDRESS":"和愛街１２號八樓之５","OBJECTID":646678},"geometry":{"x":170392.85000000056,"y":2539956.0300000012}},{"attributes":{"ID":646706,"DIS_CODE":0,"TOWNNAME":"仁德區","LI":"仁和里","LIN":"11鄰","STREET":"和愛街","SECT":" ","MAREA":" ","LANE":" ","ALLEY":" ","HOUSE_NO":"１２號九樓之１","E_COORD97":170392.85000000001,"N_COORD97":2539956.0299999998,"ADDRESS":"和愛街１２號九樓之１","OBJECTID":646679},"geometry":{"x":170392.85000000056,"y":2539956.0300000012}},{"attributes":{"ID":646707,"DIS_CODE":0,"TOWNNAME":"仁德區","LI":"仁和里","LIN":"11鄰","STREET":"和愛街","SECT":" ","MAREA":" ","LANE":" ","ALLEY":" ","HOUSE_NO":"１２號九樓之２","E_COORD97":170392.85000000001,"N_COORD97":2539956.0299999998,"ADDRESS":"和愛街１２號九樓之２","OBJECTID":646680},"geometry":{"x":170392.85000000056,"y":2539956.0300000012}},{"attributes":{"ID":646708,"DIS_CODE":0,"TOWNNAME":"仁德區","LI":"仁和里","LIN":"11鄰","STREET":"和愛街","SECT":" ","MAREA":" ","LANE":" ","ALLEY":" ","HOUSE_NO":"１２號九樓之３","E_COORD97":170392.85000000001,"N_COORD97":2539956.0299999998,"ADDRESS":"和愛街１２號九樓之３","OBJECTID":646681},"geometry":{"x":170392.85000000056,"y":2539956.0300000012}},{"attributes":{"ID":646709,"DIS_CODE":0,"TOWNNAME":"後壁區","LI":"後壁里","LIN":"12鄰","STREET":" ","SECT":" ","MAREA":"後壁","LANE":" ","ALLEY":" ","HOUSE_NO":"２０８號","E_COORD97":185356.314774,"N_COORD97":2584783.0030399999,"ADDRESS":"後壁２０８號","OBJECTID":646682},"geometry":{"x":185356.31477400102,"y":2584783.0030380003}},{"attributes":{"ID":646710,"DIS_CODE":0,"TOWNNAME":"仁德區","LI":"中洲里","LIN":"10鄰","STREET":" ","SECT":" ","MAREA":"中洲","LANE":" ","ALLEY":" ","HOUSE_NO":"３１８號","E_COORD97":173360.657534,"N_COORD97":2533975.9533799998,"ADDRESS":"中洲３１８號","OBJECTID":646683},"geometry":{"x":173360.65753400046,"y":2533975.9533750024}},{"attributes":{"ID":646711,"DIS_CODE":0,"TOWNNAME":"仁德區","LI":"仁和里","LIN":"11鄰","STREET":"和愛街","SECT":" ","MAREA":" ","LANE":" ","ALLEY":" ","HOUSE_NO":"１２號九樓之５","E_COORD97":170392.85000000001,"N_COORD97":2539956.0299999998,"ADDRESS":"和愛街１２號九樓之５","OBJECTID":646684},"geometry":{"x":170392.85000000056,"y":2539956.0300000012}},{"attributes":{"ID":646712,"DIS_CODE":0,"TOWNNAME":"佳里區","LI":"民安里","LIN":"6鄰","STREET":" ","SECT":" ","MAREA":"同安寮","LANE":" ","ALLEY":" ","HOUSE_NO":"７１號之１２","E_COORD97":167390.474094,"N_COORD97":2562705.8894500001,"ADDRESS":"同安寮７１號之１２","OBJECTID":646685},"geometry":{"x":167390.47409399971,"y":2562705.8894459996}},{"attributes":{"ID":646713,"DIS_CODE":0,"TOWNNAME":"仁德區","LI":"仁和里","LIN":"11鄰","STREET":"和愛街","SECT":" ","MAREA":" ","LANE":" ","ALLEY":" ","HOUSE_NO":"１２號十樓之１","E_COORD97":170392.85000000001,"N_COORD97":2539956.0299999998,"ADDRESS":"和愛街１２號十樓之１","OBJECTID":646686},"geometry":{"x":170392.85000000056,"y":2539956.0300000012}},{"attributes":{"ID":646714,"DIS_CODE":0,"TOWNNAME":"仁德區","LI":"仁和里","LIN":"11鄰","STREET":"和愛街","SECT":" ","MAREA":" ","LANE":" ","ALLEY":" ","HOUSE_NO":"１２號十樓之２","E_COORD97":170392.85000000001,"N_COORD97":2539956.0299999998,"ADDRESS":"和愛街１２號十樓之２","OBJECTID":646687},"geometry":{"x":170392.85000000056,"y":2539956.0300000012}},{"attributes":{"ID":646715,"DIS_CODE":0,"TOWNNAME":"仁德區","LI":"仁和里","LIN":"11鄰","STREET":"和愛街","SECT":" ","MAREA":" ","LANE":" ","ALLEY":" ","HOUSE_NO":"１２號十樓之３","E_COORD97":170392.85000000001,"N_COORD97":2539956.0299999998,"ADDRESS":"和愛街１２號十樓之３","OBJECTID":646688},"geometry":{"x":170392.85000000056,"y":2539956.0300000012}},{"attributes":{"ID":646716,"DIS_CODE":0,"TOWNNAME":"仁德區","LI":"仁和里","LIN":"11鄰","STREET":"和愛街","SECT":" ","MAREA":" ","LANE":" ","ALLEY":" ","HOUSE_NO":"１２號十樓之５","E_COORD97":170392.85000000001,"N_COORD97":2539956.0299999998,"ADDRESS":"和愛街１２號十樓之５","OBJECTID":646689},"geometry":{"x":170392.85000000056,"y":2539956.0300000012}},{"attributes":{"ID":646717,"DIS_CODE":0,"TOWNNAME":"仁德區","LI":"仁和里","LIN":"11鄰","STREET":"和愛街","SECT":" ","MAREA":" ","LANE":" ","ALLEY":" ","HOUSE_NO":"１２號十一樓之１","E_COORD97":170392.85000000001,"N_COORD97":2539956.0299999998,"ADDRESS":"和愛街１２號十一樓之１","OBJECTID":646690},"geometry":{"x":170392.85000000056,"y":2539956.0300000012}},{"attributes":{"ID":646718,"DIS_CODE":0,"TOWNNAME":"仁德區","LI":"新田里","LIN":"4鄰","STREET":"勝利路","SECT":" ","MAREA":" ","LANE":" ","ALLEY":" ","HOUSE_NO":"８６號","E_COORD97":173793.59372599999,"N_COORD97":2539812.25819,"ADDRESS":"勝利路８６號","OBJECTID":646691},"geometry":{"x":173793.59372599889,"y":2539812.2581900023}},{"attributes":{"ID":646719,"DIS_CODE":0,"TOWNNAME":"仁德區","LI":"仁和里","LIN":"11鄰","STREET":"和愛街","SECT":" ","MAREA":" ","LANE":" ","ALLEY":" ","HOUSE_NO":"１２號十一樓之２","E_COORD97":170392.85000000001,"N_COORD97":2539956.0299999998,"ADDRESS":"和愛街１２號十一樓之２","OBJECTID":646692},"geometry":{"x":170392.85000000056,"y":2539956.0300000012}},{"attributes":{"ID":646720,"DIS_CODE":0,"TOWNNAME":"仁德區","LI":"仁和里","LIN":"11鄰","STREET":"和愛街","SECT":" ","MAREA":" ","LANE":" ","ALLEY":" ","HOUSE_NO":"１２號十一樓之３","E_COORD97":170392.85000000001,"N_COORD97":2539956.0299999998,"ADDRESS":"和愛街１２號十一樓之３","OBJECTID":646693},"geometry":{"x":170392.85000000056,"y":2539956.0300000012}},{"attributes":{"ID":646721,"DIS_CODE":0,"TOWNNAME":"仁德區","LI":"仁和里","LIN":"11鄰","STREET":"和愛街","SECT":" ","MAREA":" ","LANE":" ","ALLEY":" ","HOUSE_NO":"１２號十一樓之５","E_COORD97":170392.85000000001,"N_COORD97":2539956.0299999998,"ADDRESS":"和愛街１２號十一樓之５","OBJECTID":646694},"geometry":{"x":170392.85000000056,"y":2539956.0300000012}},{"attributes":{"ID":646722,"DIS_CODE":0,"TOWNNAME":"仁德區","LI":"仁和里","LIN":"11鄰","STREET":"和愛街","SECT":" ","MAREA":" ","LANE":" ","ALLEY":" ","HOUSE_NO":"１２號十二樓之１","E_COORD97":170392.85000000001,"N_COORD97":2539956.0299999998,"ADDRESS":"和愛街１２號十二樓之１","OBJECTID":646695},"geometry":{"x":170392.85000000056,"y":2539956.0300000012}},{"attributes":{"ID":646723,"DIS_CODE":0,"TOWNNAME":"仁德區","LI":"仁和里","LIN":"11鄰","STREET":"和愛街","SECT":" ","MAREA":" ","LANE":" ","ALLEY":" ","HOUSE_NO":"１２號十二樓之２","E_COORD97":170392.85000000001,"N_COORD97":2539956.0299999998,"ADDRESS":"和愛街１２號十二樓之２","OBJECTID":646696},"geometry":{"x":170392.85000000056,"y":2539956.0300000012}},{"attributes":{"ID":646724,"DIS_CODE":0,"TOWNNAME":"仁德區","LI":"仁和里","LIN":"11鄰","STREET":"和愛街","SECT":" ","MAREA":" ","LANE":" ","ALLEY":" ","HOUSE_NO":"１２號十二樓之３","E_COORD97":170392.85000000001,"N_COORD97":2539956.0299999998,"ADDRESS":"和愛街１２號十二樓之３","OBJECTID":646697},"geometry":{"x":170392.85000000056,"y":2539956.0300000012}},{"attributes":{"ID":646725,"DIS_CODE":0,"TOWNNAME":"仁德區","LI":"仁和里","LIN":"11鄰","STREET":"和愛街","SECT":" ","MAREA":" ","LANE":" ","ALLEY":" ","HOUSE_NO":"１２號十二樓之５","E_COORD97":170392.85000000001,"N_COORD97":2539956.0299999998,"ADDRESS":"和愛街１２號十二樓之５","OBJECTID":646698},"geometry":{"x":170392.85000000056,"y":2539956.0300000012}},{"attributes":{"ID":646726,"DIS_CODE":0,"TOWNNAME":"仁德區","LI":"仁和里","LIN":"11鄰","STREET":"和愛街","SECT":" ","MAREA":" ","LANE":" ","ALLEY":" ","HOUSE_NO":"１２號十三樓之１","E_COORD97":170392.85000000001,"N_COORD97":2539956.0299999998,"ADDRESS":"和愛街１２號十三樓之１","OBJECTID":646699},"geometry":{"x":170392.85000000056,"y":2539956.0300000012}},{"attributes":{"ID":646727,"DIS_CODE":0,"TOWNNAME":"佳里區","LI":"民安里","LIN":"6鄰","STREET":" ","SECT":" ","MAREA":"同安寮","LANE":" ","ALLEY":" ","HOUSE_NO":"７１號之１６","E_COORD97":167388.56728799999,"N_COORD97":2562702.5027800002,"ADDRESS":"同安寮７１號之１６","OBJECTID":646700},"geometry":{"x":167388.56728800014,"y":2562702.502781}},{"attributes":{"ID":646728,"DIS_CODE":0,"TOWNNAME":"仁德區","LI":"仁和里","LIN":"11鄰","STREET":"和愛街","SECT":" ","MAREA":" ","LANE":" ","ALLEY":" ","HOUSE_NO":"１２號十三樓之２","E_COORD97":170392.85000000001,"N_COORD97":2539956.0299999998,"ADDRESS":"和愛街１２號十三樓之２","OBJECTID":646701},"geometry":{"x":170392.85000000056,"y":2539956.0300000012}},{"attributes":{"ID":646729,"DIS_CODE":0,"TOWNNAME":"仁德區","LI":"仁和里","LIN":"11鄰","STREET":"和愛街","SECT":" ","MAREA":" ","LANE":" ","ALLEY":" ","HOUSE_NO":"１２號十三樓之３","E_COORD97":170392.85000000001,"N_COORD97":2539956.0299999998,"ADDRESS":"和愛街１２號十三樓之３","OBJECTID":646702},"geometry":{"x":170392.85000000056,"y":2539956.0300000012}},{"attributes":{"ID":646730,"DIS_CODE":0,"TOWNNAME":"仁德區","LI":"仁和里","LIN":"11鄰","STREET":"和愛街","SECT":" ","MAREA":" ","LANE":" ","ALLEY":" ","HOUSE_NO":"１２號十三樓之５","E_COORD97":170392.85000000001,"N_COORD97":2539956.0299999998,"ADDRESS":"和愛街１２號十三樓之５","OBJECTID":646703},"geometry":{"x":170392.85000000056,"y":2539956.0300000012}},{"attributes":{"ID":646731,"DIS_CODE":0,"TOWNNAME":"後壁區","LI":"後壁里","LIN":"11鄰","STREET":" ","SECT":" ","MAREA":"後壁","LANE":" ","ALLEY":" ","HOUSE_NO":"１８３之２號","E_COORD97":185118.08257200001,"N_COORD97":2584965.6144099999,"ADDRESS":"後壁１８３之２號","OBJECTID":646704},"geometry":{"x":185118.0825720001,"y":2584965.6144070011}},{"attributes":{"ID":646732,"DIS_CODE":0,"TOWNNAME":"關廟區","LI":"布袋里","LIN":"4鄰","STREET":"長文街","SECT":" ","MAREA":" ","LANE":"２２５巷","ALLEY":"１６弄","HOUSE_NO":"９號","E_COORD97":182535.85888000001,"N_COORD97":2535166.2981400001,"ADDRESS":"長文街２２５巷１６弄９號","OBJECTID":646705},"geometry":{"x":182535.85888000112,"y":2535166.2981399987}},{"attributes":{"ID":646733,"DIS_CODE":0,"TOWNNAME":"關廟區","LI":"布袋里","LIN":"4鄰","STREET":"長文街","SECT":" ","MAREA":" ","LANE":"２２５巷","ALLEY":"１６弄","HOUSE_NO":"７號","E_COORD97":182533.10365,"N_COORD97":2535172.4364700001,"ADDRESS":"長文街２２５巷１６弄７號","OBJECTID":646706},"geometry":{"x":182533.10365000088,"y":2535172.4364700019}},{"attributes":{"ID":646734,"DIS_CODE":0,"TOWNNAME":"仁德區","LI":"仁和里","LIN":"12鄰","STREET":"和愛街","SECT":" ","MAREA":" ","LANE":" ","ALLEY":" ","HOUSE_NO":"１６號二樓之２","E_COORD97":170434.37,"N_COORD97":2539982.9199999999,"ADDRESS":"和愛街１６號二樓之２","OBJECTID":646707},"geometry":{"x":170434.37000000011,"y":2539982.9199999999}},{"attributes":{"ID":646735,"DIS_CODE":0,"TOWNNAME":"仁德區","LI":"仁和里","LIN":"12鄰","STREET":"和愛街","SECT":" ","MAREA":" ","LANE":" ","ALLEY":" ","HOUSE_NO":"１６號二樓之３","E_COORD97":170434.37,"N_COORD97":2539982.9199999999,"ADDRESS":"和愛街１６號二樓之３","OBJECTID":646708},"geometry":{"x":170434.37000000011,"y":2539982.9199999999}},{"attributes":{"ID":646736,"DIS_CODE":0,"TOWNNAME":"仁德區","LI":"仁和里","LIN":"12鄰","STREET":"和愛街","SECT":" ","MAREA":" ","LANE":" ","ALLEY":" ","HOUSE_NO":"１６號二樓之５","E_COORD97":170434.37,"N_COORD97":2539982.9199999999,"ADDRESS":"和愛街１６號二樓之５","OBJECTID":646709},"geometry":{"x":170434.37000000011,"y":2539982.9199999999}},{"attributes":{"ID":646737,"DIS_CODE":0,"TOWNNAME":"仁德區","LI":"仁和里","LIN":"12鄰","STREET":"和愛街","SECT":" ","MAREA":" ","LANE":" ","ALLEY":" ","HOUSE_NO":"１６號三樓之１","E_COORD97":170434.37,"N_COORD97":2539982.9199999999,"ADDRESS":"和愛街１６號三樓之１","OBJECTID":646710},"geometry":{"x":170434.37000000011,"y":2539982.9199999999}},{"attributes":{"ID":646738,"DIS_CODE":0,"TOWNNAME":"仁德區","LI":"仁和里","LIN":"12鄰","STREET":"和愛街","SECT":" ","MAREA":" ","LANE":" ","ALLEY":" ","HOUSE_NO":"１６號三樓之２","E_COORD97":170434.37,"N_COORD97":2539982.9199999999,"ADDRESS":"和愛街１６號三樓之２","OBJECTID":646711},"geometry":{"x":170434.37000000011,"y":2539982.9199999999}},{"attributes":{"ID":646739,"DIS_CODE":0,"TOWNNAME":"仁德區","LI":"仁和里","LIN":"12鄰","STREET":"和愛街","SECT":" ","MAREA":" ","LANE":" ","ALLEY":" ","HOUSE_NO":"１６號三樓之３","E_COORD97":170434.37,"N_COORD97":2539982.9199999999,"ADDRESS":"和愛街１６號三樓之３","OBJECTID":646712},"geometry":{"x":170434.37000000011,"y":2539982.9199999999}},{"attributes":{"ID":646740,"DIS_CODE":0,"TOWNNAME":"仁德區","LI":"仁和里","LIN":"12鄰","STREET":"和愛街","SECT":" ","MAREA":" ","LANE":" ","ALLEY":" ","HOUSE_NO":"１６號三樓之５","E_COORD97":170434.37,"N_COORD97":2539982.9199999999,"ADDRESS":"和愛街１６號三樓之５","OBJECTID":646713},"geometry":{"x":170434.37000000011,"y":2539982.9199999999}},{"attributes":{"ID":646741,"DIS_CODE":0,"TOWNNAME":"仁德區","LI":"仁和里","LIN":"12鄰","STREET":"和愛街","SECT":" ","MAREA":" ","LANE":" ","ALLEY":" ","HOUSE_NO":"１６號四樓之１","E_COORD97":170434.37,"N_COORD97":2539982.9199999999,"ADDRESS":"和愛街１６號四樓之１","OBJECTID":646714},"geometry":{"x":170434.37000000011,"y":2539982.9199999999}},{"attributes":{"ID":646742,"DIS_CODE":0,"TOWNNAME":"仁德區","LI":"仁和里","LIN":"12鄰","STREET":"和愛街","SECT":" ","MAREA":" ","LANE":" ","ALLEY":" ","HOUSE_NO":"１６號四樓之２","E_COORD97":170434.37,"N_COORD97":2539982.9199999999,"ADDRESS":"和愛街１６號四樓之２","OBJECTID":646715},"geometry":{"x":170434.37000000011,"y":2539982.9199999999}},{"attributes":{"ID":646743,"DIS_CODE":0,"TOWNNAME":"仁德區","LI":"仁和里","LIN":"12鄰","STREET":"和愛街","SECT":" ","MAREA":" ","LANE":" ","ALLEY":" ","HOUSE_NO":"１６號四樓之３","E_COORD97":170434.37,"N_COORD97":2539982.9199999999,"ADDRESS":"和愛街１６號四樓之３","OBJECTID":646716},"geometry":{"x":170434.37000000011,"y":2539982.9199999999}},{"attributes":{"ID":646744,"DIS_CODE":0,"TOWNNAME":"仁德區","LI":"仁和里","LIN":"12鄰","STREET":"和愛街","SECT":" ","MAREA":" ","LANE":" ","ALLEY":" ","HOUSE_NO":"１６號四樓之５","E_COORD97":170434.37,"N_COORD97":2539982.9199999999,"ADDRESS":"和愛街１６號四樓之５","OBJECTID":646717},"geometry":{"x":170434.37000000011,"y":2539982.9199999999}},{"attributes":{"ID":646745,"DIS_CODE":0,"TOWNNAME":"仁德區","LI":"仁和里","LIN":"12鄰","STREET":"和愛街","SECT":" ","MAREA":" ","LANE":" ","ALLEY":" ","HOUSE_NO":"１６號五樓之１","E_COORD97":170434.37,"N_COORD97":2539982.9199999999,"ADDRESS":"和愛街１６號五樓之１","OBJECTID":646718},"geometry":{"x":170434.37000000011,"y":2539982.9199999999}},{"attributes":{"ID":646746,"DIS_CODE":0,"TOWNNAME":"關廟區","LI":"布袋里","LIN":"4鄰","STREET":"長文街","SECT":" ","MAREA":" ","LANE":"２２５巷","ALLEY":"１６弄","HOUSE_NO":"１６號","E_COORD97":182537.97828000001,"N_COORD97":2535191.9097899999,"ADDRESS":"長文街２２５巷１６弄１６號","OBJECTID":646719},"geometry":{"x":182537.97828000039,"y":2535191.9097900037}},{"attributes":{"ID":646747,"DIS_CODE":0,"TOWNNAME":"仁德區","LI":"仁和里","LIN":"12鄰","STREET":"和愛街","SECT":" ","MAREA":" ","LANE":" ","ALLEY":" ","HOUSE_NO":"１６號五樓之２","E_COORD97":170434.37,"N_COORD97":2539982.9199999999,"ADDRESS":"和愛街１６號五樓之２","OBJECTID":646720},"geometry":{"x":170434.37000000011,"y":2539982.9199999999}},{"attributes":{"ID":646748,"DIS_CODE":0,"TOWNNAME":"仁德區","LI":"仁和里","LIN":"12鄰","STREET":"和愛街","SECT":" ","MAREA":" ","LANE":" ","ALLEY":" ","HOUSE_NO":"１６號五樓之３","E_COORD97":170434.37,"N_COORD97":2539982.9199999999,"ADDRESS":"和愛街１６號五樓之３","OBJECTID":646721},"geometry":{"x":170434.37000000011,"y":2539982.9199999999}},{"attributes":{"ID":646749,"DIS_CODE":0,"TOWNNAME":"仁德區","LI":"仁和里","LIN":"12鄰","STREET":"和愛街","SECT":" ","MAREA":" ","LANE":" ","ALLEY":" ","HOUSE_NO":"１６號五樓之５","E_COORD97":170434.37,"N_COORD97":2539982.9199999999,"ADDRESS":"和愛街１６號五樓之５","OBJECTID":646722},"geometry":{"x":170434.37000000011,"y":2539982.9199999999}},{"attributes":{"ID":646750,"DIS_CODE":0,"TOWNNAME":"佳里區","LI":"民安里","LIN":"6鄰","STREET":" ","SECT":" ","MAREA":"同安寮","LANE":" ","ALLEY":" ","HOUSE_NO":"７１號之１１","E_COORD97":167384.541807,"N_COORD97":2562707.3711100002,"ADDRESS":"同安寮７１號之１１","OBJECTID":646723},"geometry":{"x":167384.54180700146,"y":2562707.3711120021}},{"attributes":{"ID":646751,"DIS_CODE":0,"TOWNNAME":"仁德區","LI":"仁和里","LIN":"12鄰","STREET":"和愛街","SECT":" ","MAREA":" ","LANE":" ","ALLEY":" ","HOUSE_NO":"１６號六樓之１","E_COORD97":170434.37,"N_COORD97":2539982.9199999999,"ADDRESS":"和愛街１６號六樓之１","OBJECTID":646724},"geometry":{"x":170434.37000000011,"y":2539982.9199999999}},{"attributes":{"ID":646752,"DIS_CODE":0,"TOWNNAME":"仁德區","LI":"仁和里","LIN":"12鄰","STREET":"和愛街","SECT":" ","MAREA":" ","LANE":" ","ALLEY":" ","HOUSE_NO":"１６號六樓之２","E_COORD97":170434.37,"N_COORD97":2539982.9199999999,"ADDRESS":"和愛街１６號六樓之２","OBJECTID":646725},"geometry":{"x":170434.37000000011,"y":2539982.9199999999}},{"attributes":{"ID":646753,"DIS_CODE":0,"TOWNNAME":"仁德區","LI":"仁和里","LIN":"12鄰","STREET":"和愛街","SECT":" ","MAREA":" ","LANE":" ","ALLEY":" ","HOUSE_NO":"１６號六樓之３","E_COORD97":170434.37,"N_COORD97":2539982.9199999999,"ADDRESS":"和愛街１６號六樓之３","OBJECTID":646726},"geometry":{"x":170434.37000000011,"y":2539982.9199999999}},{"attributes":{"ID":646754,"DIS_CODE":0,"TOWNNAME":"仁德區","LI":"仁和里","LIN":"12鄰","STREET":"和愛街","SECT":" ","MAREA":" ","LANE":" ","ALLEY":" ","HOUSE_NO":"１６號六樓之５","E_COORD97":170434.37,"N_COORD97":2539982.9199999999,"ADDRESS":"和愛街１６號六樓之５","OBJECTID":646727},"geometry":{"x":170434.37000000011,"y":2539982.9199999999}},{"attributes":{"ID":646755,"DIS_CODE":0,"TOWNNAME":"仁德區","LI":"仁和里","LIN":"12鄰","STREET":"和愛街","SECT":" ","MAREA":" ","LANE":" ","ALLEY":" ","HOUSE_NO":"１６號七樓之１","E_COORD97":170434.37,"N_COORD97":2539982.9199999999,"ADDRESS":"和愛街１６號七樓之１","OBJECTID":646728},"geometry":{"x":170434.37000000011,"y":2539982.9199999999}},{"attributes":{"ID":646756,"DIS_CODE":0,"TOWNNAME":"關廟區","LI":"布袋里","LIN":"4鄰","STREET":"長文街","SECT":" ","MAREA":" ","LANE":"２２５巷","ALLEY":"１６弄","HOUSE_NO":"８號","E_COORD97":182558.11266000001,"N_COORD97":2535188.0997899999,"ADDRESS":"長文街２２５巷１６弄８號","OBJECTID":646729},"geometry":{"x":182558.11265999917,"y":2535188.0997900013}},{"attributes":{"ID":646757,"DIS_CODE":0,"TOWNNAME":"仁德區","LI":"仁和里","LIN":"12鄰","STREET":"和愛街","SECT":" ","MAREA":" ","LANE":" ","ALLEY":" ","HOUSE_NO":"１６號七樓之２","E_COORD97":170434.37,"N_COORD97":2539982.9199999999,"ADDRESS":"和愛街１６號七樓之２","OBJECTID":646730},"geometry":{"x":170434.37000000011,"y":2539982.9199999999}},{"attributes":{"ID":646758,"DIS_CODE":0,"TOWNNAME":"仁德區","LI":"仁和里","LIN":"12鄰","STREET":"和愛街","SECT":" ","MAREA":" ","LANE":" ","ALLEY":" ","HOUSE_NO":"１６號七樓之３","E_COORD97":170434.37,"N_COORD97":2539982.9199999999,"ADDRESS":"和愛街１６號七樓之３","OBJECTID":646731},"geometry":{"x":170434.37000000011,"y":2539982.9199999999}},{"attributes":{"ID":646759,"DIS_CODE":0,"TOWNNAME":"佳里區","LI":"民安里","LIN":"6鄰","STREET":" ","SECT":" ","MAREA":"同安寮","LANE":" ","ALLEY":" ","HOUSE_NO":"７１號之１０","E_COORD97":167378.60951899999,"N_COORD97":2562709.4877800001,"ADDRESS":"同安寮７１號之１０","OBJECTID":646732},"geometry":{"x":167378.6095190011,"y":2562709.4877770022}},{"attributes":{"ID":646760,"DIS_CODE":0,"TOWNNAME":"仁德區","LI":"仁和里","LIN":"12鄰","STREET":"和愛街","SECT":" ","MAREA":" ","LANE":" ","ALLEY":" ","HOUSE_NO":"１６號七樓之５","E_COORD97":170434.37,"N_COORD97":2539982.9199999999,"ADDRESS":"和愛街１６號七樓之５","OBJECTID":646733},"geometry":{"x":170434.37000000011,"y":2539982.9199999999}},{"attributes":{"ID":646761,"DIS_CODE":0,"TOWNNAME":"仁德區","LI":"仁和里","LIN":"12鄰","STREET":"和愛街","SECT":" ","MAREA":" ","LANE":" ","ALLEY":" ","HOUSE_NO":"１６號八樓之１","E_COORD97":170434.37,"N_COORD97":2539982.9199999999,"ADDRESS":"和愛街１６號八樓之１","OBJECTID":646734},"geometry":{"x":170434.37000000011,"y":2539982.9199999999}},{"attributes":{"ID":646762,"DIS_CODE":0,"TOWNNAME":"仁德區","LI":"仁和里","LIN":"12鄰","STREET":"和愛街","SECT":" ","MAREA":" ","LANE":" ","ALLEY":" ","HOUSE_NO":"１６號八樓之２","E_COORD97":170434.37,"N_COORD97":2539982.9199999999,"ADDRESS":"和愛街１６號八樓之２","OBJECTID":646735},"geometry":{"x":170434.37000000011,"y":2539982.9199999999}},{"attributes":{"ID":646763,"DIS_CODE":0,"TOWNNAME":"仁德區","LI":"仁和里","LIN":"12鄰","STREET":"和愛街","SECT":" ","MAREA":" ","LANE":" ","ALLEY":" ","HOUSE_NO":"１６號八樓之３","E_COORD97":170434.37,"N_COORD97":2539982.9199999999,"ADDRESS":"和愛街１６號八樓之３","OBJECTID":646736},"geometry":{"x":170434.37000000011,"y":2539982.9199999999}},{"attributes":{"ID":646764,"DIS_CODE":0,"TOWNNAME":"佳里區","LI":"民安里","LIN":"6鄰","STREET":" ","SECT":" ","MAREA":"同安寮","LANE":" ","ALLEY":" ","HOUSE_NO":"７１號之９","E_COORD97":167374.584038,"N_COORD97":2562712.0277800001,"ADDRESS":"同安寮７１號之９","OBJECTID":646737},"geometry":{"x":167374.58403799962,"y":2562712.0277760029}},{"attributes":{"ID":646765,"DIS_CODE":0,"TOWNNAME":"仁德區","LI":"仁和里","LIN":"12鄰","STREET":"和愛街","SECT":" ","MAREA":" ","LANE":" ","ALLEY":" ","HOUSE_NO":"１６號八樓之５","E_COORD97":170434.37,"N_COORD97":2539982.9199999999,"ADDRESS":"和愛街１６號八樓之５","OBJECTID":646738},"geometry":{"x":170434.37000000011,"y":2539982.9199999999}},{"attributes":{"ID":646766,"DIS_CODE":0,"TOWNNAME":"仁德區","LI":"仁和里","LIN":"12鄰","STREET":"和愛街","SECT":" ","MAREA":" ","LANE":" ","ALLEY":" ","HOUSE_NO":"１６號九樓之１","E_COORD97":170434.37,"N_COORD97":2539982.9199999999,"ADDRESS":"和愛街１６號九樓之１","OBJECTID":646739},"geometry":{"x":170434.37000000011,"y":2539982.9199999999}},{"attributes":{"ID":646767,"DIS_CODE":0,"TOWNNAME":"仁德區","LI":"仁和里","LIN":"12鄰","STREET":"和愛街","SECT":" ","MAREA":" ","LANE":" ","ALLEY":" ","HOUSE_NO":"１６號九樓之２","E_COORD97":170434.37,"N_COORD97":2539982.9199999999,"ADDRESS":"和愛街１６號九樓之２","OBJECTID":646740},"geometry":{"x":170434.37000000011,"y":2539982.9199999999}},{"attributes":{"ID":646768,"DIS_CODE":0,"TOWNNAME":"仁德區","LI":"仁和里","LIN":"12鄰","STREET":"和愛街","SECT":" ","MAREA":" ","LANE":" ","ALLEY":" ","HOUSE_NO":"１６號九樓之３","E_COORD97":170434.37,"N_COORD97":2539982.9199999999,"ADDRESS":"和愛街１６號九樓之３","OBJECTID":646741},"geometry":{"x":170434.37000000011,"y":2539982.9199999999}},{"attributes":{"ID":646769,"DIS_CODE":0,"TOWNNAME":"佳里區","LI":"民安里","LIN":"6鄰","STREET":" ","SECT":" ","MAREA":"同安寮","LANE":" ","ALLEY":" ","HOUSE_NO":"７１號之８","E_COORD97":167370.13482199999,"N_COORD97":2562713.5094400002,"ADDRESS":"同安寮７１號之８","OBJECTID":646742},"geometry":{"x":167370.13482200168,"y":2562713.5094419997}},{"attributes":{"ID":646770,"DIS_CODE":0,"TOWNNAME":"仁德區","LI":"仁和里","LIN":"12鄰","STREET":"和愛街","SECT":" ","MAREA":" ","LANE":" ","ALLEY":" ","HOUSE_NO":"１６號九樓之５","E_COORD97":170434.37,"N_COORD97":2539982.9199999999,"ADDRESS":"和愛街１６號九樓之５","OBJECTID":646743},"geometry":{"x":170434.37000000011,"y":2539982.9199999999}},{"attributes":{"ID":646771,"DIS_CODE":0,"TOWNNAME":"仁德區","LI":"仁和里","LIN":"12鄰","STREET":"和愛街","SECT":" ","MAREA":" ","LANE":" ","ALLEY":" ","HOUSE_NO":"１６號十樓之１","E_COORD97":170434.37,"N_COORD97":2539982.9199999999,"ADDRESS":"和愛街１６號十樓之１","OBJECTID":646744},"geometry":{"x":170434.37000000011,"y":2539982.9199999999}},{"attributes":{"ID":646772,"DIS_CODE":0,"TOWNNAME":"佳里區","LI":"民安里","LIN":"6鄰","STREET":" ","SECT":" ","MAREA":"同安寮","LANE":" ","ALLEY":" ","HOUSE_NO":"７１號之７","E_COORD97":167365.05000399999,"N_COORD97":2562715.2027699999,"ADDRESS":"同安寮７１號之７","OBJECTID":646745},"geometry":{"x":167365.05000400078,"y":2562715.2027740013}},{"attributes":{"ID":646773,"DIS_CODE":0,"TOWNNAME":"仁德區","LI":"仁和里","LIN":"12鄰","STREET":"和愛街","SECT":" ","MAREA":" ","LANE":" ","ALLEY":" ","HOUSE_NO":"１６號十樓之２","E_COORD97":170434.37,"N_COORD97":2539982.9199999999,"ADDRESS":"和愛街１６號十樓之２","OBJECTID":646746},"geometry":{"x":170434.37000000011,"y":2539982.9199999999}},{"attributes":{"ID":646774,"DIS_CODE":0,"TOWNNAME":"仁德區","LI":"仁和里","LIN":"12鄰","STREET":"和愛街","SECT":" ","MAREA":" ","LANE":" ","ALLEY":" ","HOUSE_NO":"１６號十樓之３","E_COORD97":170434.37,"N_COORD97":2539982.9199999999,"ADDRESS":"和愛街１６號十樓之３","OBJECTID":646747},"geometry":{"x":170434.37000000011,"y":2539982.9199999999}},{"attributes":{"ID":646775,"DIS_CODE":0,"TOWNNAME":"仁德區","LI":"仁和里","LIN":"12鄰","STREET":"和愛街","SECT":" ","MAREA":" ","LANE":" ","ALLEY":" ","HOUSE_NO":"１６號十樓之５","E_COORD97":170434.37,"N_COORD97":2539982.9199999999,"ADDRESS":"和愛街１６號十樓之５","OBJECTID":646748},"geometry":{"x":170434.37000000011,"y":2539982.9199999999}},{"attributes":{"ID":646776,"DIS_CODE":0,"TOWNNAME":"仁德區","LI":"仁和里","LIN":"12鄰","STREET":"和愛街","SECT":" ","MAREA":" ","LANE":" ","ALLEY":" ","HOUSE_NO":"１６號十一樓之１","E_COORD97":170434.37,"N_COORD97":2539982.9199999999,"ADDRESS":"和愛街１６號十一樓之１","OBJECTID":646749},"geometry":{"x":170434.37000000011,"y":2539982.9199999999}},{"attributes":{"ID":646777,"DIS_CODE":0,"TOWNNAME":"仁德區","LI":"仁和里","LIN":"12鄰","STREET":"和愛街","SECT":" ","MAREA":" ","LANE":" ","ALLEY":" ","HOUSE_NO":"１６號十一樓之２","E_COORD97":170434.37,"N_COORD97":2539982.9199999999,"ADDRESS":"和愛街１６號十一樓之２","OBJECTID":646750},"geometry":{"x":170434.37000000011,"y":2539982.9199999999}},{"attributes":{"ID":646778,"DIS_CODE":0,"TOWNNAME":"仁德區","LI":"仁和里","LIN":"12鄰","STREET":"和愛街","SECT":" ","MAREA":" ","LANE":" ","ALLEY":" ","HOUSE_NO":"１６號十一樓之３","E_COORD97":170434.37,"N_COORD97":2539982.9199999999,"ADDRESS":"和愛街１６號十一樓之３","OBJECTID":646751},"geometry":{"x":170434.37000000011,"y":2539982.9199999999}},{"attributes":{"ID":646779,"DIS_CODE":0,"TOWNNAME":"仁德區","LI":"仁和里","LIN":"12鄰","STREET":"和愛街","SECT":" ","MAREA":" ","LANE":" ","ALLEY":" ","HOUSE_NO":"１６號十一樓之５","E_COORD97":170434.37,"N_COORD97":2539982.9199999999,"ADDRESS":"和愛街１６號十一樓之５","OBJECTID":646752},"geometry":{"x":170434.37000000011,"y":2539982.9199999999}},{"attributes":{"ID":646780,"DIS_CODE":0,"TOWNNAME":"仁德區","LI":"仁和里","LIN":"12鄰","STREET":"和愛街","SECT":" ","MAREA":" ","LANE":" ","ALLEY":" ","HOUSE_NO":"１６號十二樓之１","E_COORD97":170434.37,"N_COORD97":2539982.9199999999,"ADDRESS":"和愛街１６號十二樓之１","OBJECTID":646753},"geometry":{"x":170434.37000000011,"y":2539982.9199999999}},{"attributes":{"ID":646781,"DIS_CODE":0,"TOWNNAME":"仁德區","LI":"仁和里","LIN":"12鄰","STREET":"和愛街","SECT":" ","MAREA":" ","LANE":" ","ALLEY":" ","HOUSE_NO":"１６號十二樓之２","E_COORD97":170434.37,"N_COORD97":2539982.9199999999,"ADDRESS":"和愛街１６號十二樓之２","OBJECTID":646754},"geometry":{"x":170434.37000000011,"y":2539982.9199999999}},{"attributes":{"ID":646782,"DIS_CODE":0,"TOWNNAME":"仁德區","LI":"仁和里","LIN":"12鄰","STREET":"和愛街","SECT":" ","MAREA":" ","LANE":" ","ALLEY":" ","HOUSE_NO":"１６號十二樓之３","E_COORD97":170434.37,"N_COORD97":2539982.9199999999,"ADDRESS":"和愛街１６號十二樓之３","OBJECTID":646755},"geometry":{"x":170434.37000000011,"y":2539982.9199999999}},{"attributes":{"ID":646783,"DIS_CODE":0,"TOWNNAME":"仁德區","LI":"新田里","LIN":"4鄰","STREET":"勝利路","SECT":" ","MAREA":" ","LANE":" ","ALLEY":" ","HOUSE_NO":"９２號","E_COORD97":173959.82327699999,"N_COORD97":2539727.3481899998,"ADDRESS":"勝利路９２號","OBJECTID":646756},"geometry":{"x":173959.82327700127,"y":2539727.3481940031}},{"attributes":{"ID":646784,"DIS_CODE":0,"TOWNNAME":"仁德區","LI":"仁和里","LIN":"12鄰","STREET":"和愛街","SECT":" ","MAREA":" ","LANE":" ","ALLEY":" ","HOUSE_NO":"１６號十二樓之５","E_COORD97":170434.37,"N_COORD97":2539982.9199999999,"ADDRESS":"和愛街１６號十二樓之５","OBJECTID":646757},"geometry":{"x":170434.37000000011,"y":2539982.9199999999}},{"attributes":{"ID":646785,"DIS_CODE":0,"TOWNNAME":"佳里區","LI":"民安里","LIN":"6鄰","STREET":" ","SECT":" ","MAREA":"同安寮","LANE":" ","ALLEY":" ","HOUSE_NO":"７１號之６","E_COORD97":167361.66012499999,"N_COORD97":2562717.1077700001,"ADDRESS":"同安寮７１號之６","OBJECTID":646758},"geometry":{"x":167361.66012500226,"y":2562717.1077730022}},{"attributes":{"ID":646786,"DIS_CODE":0,"TOWNNAME":"仁德區","LI":"仁和里","LIN":"12鄰","STREET":"和愛街","SECT":" ","MAREA":" ","LANE":" ","ALLEY":" ","HOUSE_NO":"１６號十三樓之１","E_COORD97":170434.37,"N_COORD97":2539982.9199999999,"ADDRESS":"和愛街１６號十三樓之１","OBJECTID":646759},"geometry":{"x":170434.37000000011,"y":2539982.9199999999}},{"attributes":{"ID":646787,"DIS_CODE":0,"TOWNNAME":"仁德區","LI":"仁和里","LIN":"12鄰","STREET":"和愛街","SECT":" ","MAREA":" ","LANE":" ","ALLEY":" ","HOUSE_NO":"１６號十三樓之２","E_COORD97":170434.37,"N_COORD97":2539982.9199999999,"ADDRESS":"和愛街１６號十三樓之２","OBJECTID":646760},"geometry":{"x":170434.37000000011,"y":2539982.9199999999}},{"attributes":{"ID":646788,"DIS_CODE":0,"TOWNNAME":"仁德區","LI":"仁和里","LIN":"12鄰","STREET":"和愛街","SECT":" ","MAREA":" ","LANE":" ","ALLEY":" ","HOUSE_NO":"１６號十三樓之３","E_COORD97":170434.37,"N_COORD97":2539982.9199999999,"ADDRESS":"和愛街１６號十三樓之３","OBJECTID":646761},"geometry":{"x":170434.37000000011,"y":2539982.9199999999}},{"attributes":{"ID":646789,"DIS_CODE":0,"TOWNNAME":"仁德區","LI":"仁和里","LIN":"12鄰","STREET":"和愛街","SECT":" ","MAREA":" ","LANE":" ","ALLEY":" ","HOUSE_NO":"１６號十三樓之５","E_COORD97":170434.37,"N_COORD97":2539982.9199999999,"ADDRESS":"和愛街１６號十三樓之５","OBJECTID":646762},"geometry":{"x":170434.37000000011,"y":2539982.9199999999}},{"attributes":{"ID":646790,"DIS_CODE":0,"TOWNNAME":"仁德區","LI":"新田里","LIN":"4鄰","STREET":"勝利路","SECT":" ","MAREA":" ","LANE":" ","ALLEY":" ","HOUSE_NO":"９２號","E_COORD97":173959.82327699999,"N_COORD97":2539727.3481899998,"ADDRESS":"勝利路９２號","OBJECTID":646763},"geometry":{"x":173959.82327700127,"y":2539727.3481940031}},{"attributes":{"ID":646791,"DIS_CODE":0,"TOWNNAME":"仁德區","LI":"仁和里","LIN":"12鄰","STREET":"和愛街","SECT":" ","MAREA":" ","LANE":" ","ALLEY":" ","HOUSE_NO":"１６號十四樓之１","E_COORD97":170434.37,"N_COORD97":2539982.9199999999,"ADDRESS":"和愛街１６號十四樓之１","OBJECTID":646764},"geometry":{"x":170434.37000000011,"y":2539982.9199999999}},{"attributes":{"ID":646792,"DIS_CODE":0,"TOWNNAME":"仁德區","LI":"仁和里","LIN":"12鄰","STREET":"和愛街","SECT":" ","MAREA":" ","LANE":" ","ALLEY":" ","HOUSE_NO":"１６號十四樓之２","E_COORD97":170434.37,"N_COORD97":2539982.9199999999,"ADDRESS":"和愛街１６號十四樓之２","OBJECTID":646765},"geometry":{"x":170434.37000000011,"y":2539982.9199999999}},{"attributes":{"ID":646793,"DIS_CODE":0,"TOWNNAME":"東山區","LI":"東河里","LIN":"5鄰","STREET":" ","SECT":" ","MAREA":"吉貝耍","LANE":" ","ALLEY":" ","HOUSE_NO":"３６號","E_COORD97":186995.35488,"N_COORD97":2577217.3062700001,"ADDRESS":"吉貝耍３６號","OBJECTID":646766},"geometry":{"x":186995.35488000046,"y":2577217.306268001}},{"attributes":{"ID":646794,"DIS_CODE":0,"TOWNNAME":"仁德區","LI":"仁和里","LIN":"12鄰","STREET":"和愛街","SECT":" ","MAREA":" ","LANE":" ","ALLEY":" ","HOUSE_NO":"１６號十四樓之３","E_COORD97":170434.37,"N_COORD97":2539982.9199999999,"ADDRESS":"和愛街１６號十四樓之３","OBJECTID":646767},"geometry":{"x":170434.37000000011,"y":2539982.9199999999}},{"attributes":{"ID":646795,"DIS_CODE":0,"TOWNNAME":"仁德區","LI":"仁和里","LIN":"12鄰","STREET":"和愛街","SECT":" ","MAREA":" ","LANE":" ","ALLEY":" ","HOUSE_NO":"１６號十四樓之５","E_COORD97":170434.37,"N_COORD97":2539982.9199999999,"ADDRESS":"和愛街１６號十四樓之５","OBJECTID":646768},"geometry":{"x":170434.37000000011,"y":2539982.9199999999}},{"attributes":{"ID":646796,"DIS_CODE":0,"TOWNNAME":"佳里區","LI":"民安里","LIN":"6鄰","STREET":" ","SECT":" ","MAREA":"同安寮","LANE":" ","ALLEY":" ","HOUSE_NO":"７１號之５","E_COORD97":167357.21090899999,"N_COORD97":2562717.7427699999,"ADDRESS":"同安寮７１號之５","OBJECTID":646769},"geometry":{"x":167357.21090899967,"y":2562717.742773002}},{"attributes":{"ID":646797,"DIS_CODE":0,"TOWNNAME":"佳里區","LI":"民安里","LIN":"6鄰","STREET":" ","SECT":" ","MAREA":"同安寮","LANE":" ","ALLEY":" ","HOUSE_NO":"７１號之３","E_COORD97":167353.821031,"N_COORD97":2562718.8011099999,"ADDRESS":"同安寮７１號之３","OBJECTID":646770},"geometry":{"x":167353.8210310014,"y":2562718.8011050001}},{"attributes":{"ID":646798,"DIS_CODE":0,"TOWNNAME":"佳里區","LI":"民安里","LIN":"6鄰","STREET":" ","SECT":" ","MAREA":"同安寮","LANE":" ","ALLEY":" ","HOUSE_NO":"７１號之２","E_COORD97":167350.00741699999,"N_COORD97":2562719.4361,"ADDRESS":"同安寮７１號之２","OBJECTID":646771},"geometry":{"x":167350.00741700083,"y":2562719.4361049999}},{"attributes":{"ID":646799,"DIS_CODE":0,"TOWNNAME":"佳里區","LI":"民安里","LIN":"6鄰","STREET":" ","SECT":" ","MAREA":"同安寮","LANE":" ","ALLEY":" ","HOUSE_NO":"７１號之１７","E_COORD97":167382.84686699999,"N_COORD97":2562703.5611100001,"ADDRESS":"同安寮７１號之１７","OBJECTID":646772},"geometry":{"x":167382.84686700068,"y":2562703.561114002}},{"attributes":{"ID":646800,"DIS_CODE":0,"TOWNNAME":"佳里區","LI":"民安里","LIN":"6鄰","STREET":" ","SECT":" ","MAREA":"同安寮","LANE":" ","ALLEY":" ","HOUSE_NO":"７１號之１８","E_COORD97":167376.27897700001,"N_COORD97":2562705.4661099999,"ADDRESS":"同安寮７１號之１８","OBJECTID":646773},"geometry":{"x":167376.27897700015,"y":2562705.4661130011}},{"attributes":{"ID":646801,"DIS_CODE":0,"TOWNNAME":"山上區","LI":"山上里","LIN":"13鄰","STREET":" ","SECT":" ","MAREA":"山上","LANE":" ","ALLEY":" ","HOUSE_NO":"２０１號之２","E_COORD97":184038.12446399999,"N_COORD97":2555536.21031,"ADDRESS":"山上２０１號之２","OBJECTID":646774},"geometry":{"x":184038.12446400058,"y":2555536.2103090007}},{"attributes":{"ID":646802,"DIS_CODE":0,"TOWNNAME":"佳里區","LI":"民安里","LIN":"6鄰","STREET":" ","SECT":" ","MAREA":"同安寮","LANE":" ","ALLEY":" ","HOUSE_NO":"７１號之１９","E_COORD97":167372.465364,"N_COORD97":2562707.5827799998,"ADDRESS":"同安寮７１號之１９","OBJECTID":646775},"geometry":{"x":167372.4653639989,"y":2562707.5827779993}},{"attributes":{"ID":646803,"DIS_CODE":0,"TOWNNAME":"關廟區","LI":"埤頭里","LIN":"11鄰","STREET":"關新路","SECT":"二段","MAREA":" ","LANE":"２９８巷","ALLEY":" ","HOUSE_NO":"１０８號","E_COORD97":179356.32870400001,"N_COORD97":2544626.06366,"ADDRESS":"關新路二段２９８巷１０８號","OBJECTID":646776},"geometry":{"x":179356.32870400138,"y":2544626.0636570025}},{"attributes":{"ID":646804,"DIS_CODE":0,"TOWNNAME":"關廟區","LI":"布袋里","LIN":"4鄰","STREET":"長文街","SECT":" ","MAREA":" ","LANE":" ","ALLEY":" ","HOUSE_NO":"２７９號","E_COORD97":182362.70322699999,"N_COORD97":2535175.7173000001,"ADDRESS":"長文街２７９號","OBJECTID":646777},"geometry":{"x":182362.70322700124,"y":2535175.7173030004}},{"attributes":{"ID":646805,"DIS_CODE":0,"TOWNNAME":"佳里區","LI":"民安里","LIN":"6鄰","STREET":" ","SECT":" ","MAREA":"同安寮","LANE":" ","ALLEY":" ","HOUSE_NO":"７１號之２０","E_COORD97":167368.43988300001,"N_COORD97":2562708.8527799998,"ADDRESS":"同安寮７１號之２０","OBJECTID":646778},"geometry":{"x":167368.43988300022,"y":2562708.8527779989}},{"attributes":{"ID":646806,"DIS_CODE":0,"TOWNNAME":"佳里區","LI":"民安里","LIN":"6鄰","STREET":" ","SECT":" ","MAREA":"同安寮","LANE":" ","ALLEY":" ","HOUSE_NO":"７１號之２１","E_COORD97":167364.41440199999,"N_COORD97":2562711.1811099998,"ADDRESS":"同安寮７１號之２１","OBJECTID":646779},"geometry":{"x":167364.41440200154,"y":2562711.1811100002}},{"attributes":{"ID":646807,"DIS_CODE":0,"TOWNNAME":"東山區","LI":"東河里","LIN":"7鄰","STREET":" ","SECT":" ","MAREA":"吉貝耍","LANE":" ","ALLEY":" ","HOUSE_NO":"５３號","E_COORD97":187242.217531,"N_COORD97":2577249.47958,"ADDRESS":"吉貝耍５３號","OBJECTID":646780},"geometry":{"x":187242.21753100213,"y":2577249.4795840029}},{"attributes":{"ID":646808,"DIS_CODE":0,"TOWNNAME":"佳里區","LI":"民安里","LIN":"6鄰","STREET":" ","SECT":" ","MAREA":"同安寮","LANE":" ","ALLEY":" ","HOUSE_NO":"７１號之２２","E_COORD97":167360.81265599999,"N_COORD97":2562712.8744399999,"ADDRESS":"同安寮７１號之２２","OBJECTID":646781},"geometry":{"x":167360.81265600119,"y":2562712.8744419999}},{"attributes":{"ID":646809,"DIS_CODE":0,"TOWNNAME":"仁德區","LI":"仁和里","LIN":"13鄰","STREET":"和愛街","SECT":" ","MAREA":" ","LANE":" ","ALLEY":" ","HOUSE_NO":"１８號一樓之２","E_COORD97":170463.39000000001,"N_COORD97":2539995.3999999999,"ADDRESS":"和愛街１８號一樓之２","OBJECTID":646782},"geometry":{"x":170463.3900000006,"y":2539995.4000000022}},{"attributes":{"ID":646810,"DIS_CODE":0,"TOWNNAME":"佳里區","LI":"民安里","LIN":"6鄰","STREET":" ","SECT":" ","MAREA":"同安寮","LANE":" ","ALLEY":" ","HOUSE_NO":"７１號之２３","E_COORD97":167355.939705,"N_COORD97":2562713.2977700001,"ADDRESS":"同安寮７１號之２３","OBJECTID":646783},"geometry":{"x":167355.93970500119,"y":2562713.2977750022}},{"attributes":{"ID":646811,"DIS_CODE":0,"TOWNNAME":"仁德區","LI":"仁和里","LIN":"13鄰","STREET":"和愛街","SECT":" ","MAREA":" ","LANE":" ","ALLEY":" ","HOUSE_NO":"１８號二樓之１","E_COORD97":170463.39000000001,"N_COORD97":2539995.3999999999,"ADDRESS":"和愛街１８號二樓之１","OBJECTID":646784},"geometry":{"x":170463.3900000006,"y":2539995.4000000022}},{"attributes":{"ID":646812,"DIS_CODE":0,"TOWNNAME":"仁德區","LI":"仁和里","LIN":"13鄰","STREET":"和愛街","SECT":" ","MAREA":" ","LANE":" ","ALLEY":" ","HOUSE_NO":"１８號二樓之２","E_COORD97":170463.39000000001,"N_COORD97":2539995.3999999999,"ADDRESS":"和愛街１８號二樓之２","OBJECTID":646785},"geometry":{"x":170463.3900000006,"y":2539995.4000000022}},{"attributes":{"ID":646813,"DIS_CODE":0,"TOWNNAME":"佳里區","LI":"民安里","LIN":"6鄰","STREET":" ","SECT":" ","MAREA":"同安寮","LANE":" ","ALLEY":" ","HOUSE_NO":"７１號之２５","E_COORD97":167352.549826,"N_COORD97":2562714.7794400002,"ADDRESS":"同安寮７１號之２５","OBJECTID":646786},"geometry":{"x":167352.54982599989,"y":2562714.779440999}},{"attributes":{"ID":646814,"DIS_CODE":0,"TOWNNAME":"仁德區","LI":"仁和里","LIN":"13鄰","STREET":"和愛街","SECT":" ","MAREA":" ","LANE":" ","ALLEY":" ","HOUSE_NO":"１８號二樓之３","E_COORD97":170463.39000000001,"N_COORD97":2539995.3999999999,"ADDRESS":"和愛街１８號二樓之３","OBJECTID":646787},"geometry":{"x":170463.3900000006,"y":2539995.4000000022}},{"attributes":{"ID":646815,"DIS_CODE":0,"TOWNNAME":"仁德區","LI":"仁和里","LIN":"13鄰","STREET":"和愛街","SECT":" ","MAREA":" ","LANE":" ","ALLEY":" ","HOUSE_NO":"１８號二樓之５","E_COORD97":170463.39000000001,"N_COORD97":2539995.3999999999,"ADDRESS":"和愛街１８號二樓之５","OBJECTID":646788},"geometry":{"x":170463.3900000006,"y":2539995.4000000022}},{"attributes":{"ID":646816,"DIS_CODE":0,"TOWNNAME":"佳里區","LI":"民安里","LIN":"6鄰","STREET":" ","SECT":" ","MAREA":"同安寮","LANE":" ","ALLEY":" ","HOUSE_NO":"７１號之２６","E_COORD97":167348.10060999999,"N_COORD97":2562716.4727699999,"ADDRESS":"同安寮７１號之２６","OBJECTID":646789},"geometry":{"x":167348.10061000008,"y":2562716.4727730025}},{"attributes":{"ID":646817,"DIS_CODE":0,"TOWNNAME":"仁德區","LI":"仁和里","LIN":"13鄰","STREET":"和愛街","SECT":" ","MAREA":" ","LANE":" ","ALLEY":" ","HOUSE_NO":"１８號三樓之１","E_COORD97":170463.39000000001,"N_COORD97":2539995.3999999999,"ADDRESS":"和愛街１８號三樓之１","OBJECTID":646790},"geometry":{"x":170463.3900000006,"y":2539995.4000000022}},{"attributes":{"ID":646818,"DIS_CODE":0,"TOWNNAME":"仁德區","LI":"仁和里","LIN":"13鄰","STREET":"和愛街","SECT":" ","MAREA":" ","LANE":" ","ALLEY":" ","HOUSE_NO":"１８號三樓之２","E_COORD97":170463.39000000001,"N_COORD97":2539995.3999999999,"ADDRESS":"和愛街１８號三樓之２","OBJECTID":646791},"geometry":{"x":170463.3900000006,"y":2539995.4000000022}},{"attributes":{"ID":646819,"DIS_CODE":0,"TOWNNAME":"仁德區","LI":"仁和里","LIN":"13鄰","STREET":"和愛街","SECT":" ","MAREA":" ","LANE":" ","ALLEY":" ","HOUSE_NO":"１８號三樓之３","E_COORD97":170463.39000000001,"N_COORD97":2539995.3999999999,"ADDRESS":"和愛街１８號三樓之３","OBJECTID":646792},"geometry":{"x":170463.3900000006,"y":2539995.4000000022}},{"attributes":{"ID":646820,"DIS_CODE":0,"TOWNNAME":"仁德區","LI":"仁和里","LIN":"13鄰","STREET":"和愛街","SECT":" ","MAREA":" ","LANE":" ","ALLEY":" ","HOUSE_NO":"１８號三樓之５","E_COORD97":170463.39000000001,"N_COORD97":2539995.3999999999,"ADDRESS":"和愛街１８號三樓之５","OBJECTID":646793},"geometry":{"x":170463.3900000006,"y":2539995.4000000022}},{"attributes":{"ID":646821,"DIS_CODE":0,"TOWNNAME":"仁德區","LI":"仁和里","LIN":"13鄰","STREET":"和愛街","SECT":" ","MAREA":" ","LANE":" ","ALLEY":" ","HOUSE_NO":"１８號四樓之１","E_COORD97":170463.39000000001,"N_COORD97":2539995.3999999999,"ADDRESS":"和愛街１８號四樓之１","OBJECTID":646794},"geometry":{"x":170463.3900000006,"y":2539995.4000000022}},{"attributes":{"ID":646822,"DIS_CODE":0,"TOWNNAME":"仁德區","LI":"仁和里","LIN":"13鄰","STREET":"和愛街","SECT":" ","MAREA":" ","LANE":" ","ALLEY":" ","HOUSE_NO":"１８號四樓之２","E_COORD97":170463.39000000001,"N_COORD97":2539995.3999999999,"ADDRESS":"和愛街１８號四樓之２","OBJECTID":646795},"geometry":{"x":170463.3900000006,"y":2539995.4000000022}},{"attributes":{"ID":646823,"DIS_CODE":0,"TOWNNAME":"仁德區","LI":"新田里","LIN":"4鄰","STREET":"新田二街","SECT":" ","MAREA":" ","LANE":" ","ALLEY":" ","HOUSE_NO":"１０號","E_COORD97":174575.26384500001,"N_COORD97":2539750.4198500002,"ADDRESS":"新田二街１０號","OBJECTID":646796},"geometry":{"x":174575.26384500228,"y":2539750.4198480006}},{"attributes":{"ID":646824,"DIS_CODE":0,"TOWNNAME":"仁德區","LI":"仁和里","LIN":"13鄰","STREET":"和愛街","SECT":" ","MAREA":" ","LANE":" ","ALLEY":" ","HOUSE_NO":"１８號四樓之３","E_COORD97":170463.39000000001,"N_COORD97":2539995.3999999999,"ADDRESS":"和愛街１８號四樓之３","OBJECTID":646797},"geometry":{"x":170463.3900000006,"y":2539995.4000000022}},{"attributes":{"ID":646825,"DIS_CODE":0,"TOWNNAME":"仁德區","LI":"仁和里","LIN":"13鄰","STREET":"和愛街","SECT":" ","MAREA":" ","LANE":" ","ALLEY":" ","HOUSE_NO":"１８號四樓之５","E_COORD97":170463.39000000001,"N_COORD97":2539995.3999999999,"ADDRESS":"和愛街１８號四樓之５","OBJECTID":646798},"geometry":{"x":170463.3900000006,"y":2539995.4000000022}},{"attributes":{"ID":646826,"DIS_CODE":0,"TOWNNAME":"仁德區","LI":"仁和里","LIN":"13鄰","STREET":"和愛街","SECT":" ","MAREA":" ","LANE":" ","ALLEY":" ","HOUSE_NO":"１８號五樓之１","E_COORD97":170463.39000000001,"N_COORD97":2539995.3999999999,"ADDRESS":"和愛街１８號五樓之１","OBJECTID":646799},"geometry":{"x":170463.3900000006,"y":2539995.4000000022}},{"attributes":{"ID":646827,"DIS_CODE":0,"TOWNNAME":"仁德區","LI":"仁和里","LIN":"13鄰","STREET":"和愛街","SECT":" ","MAREA":" ","LANE":" ","ALLEY":" ","HOUSE_NO":"１８號五樓之２","E_COORD97":170463.39000000001,"N_COORD97":2539995.3999999999,"ADDRESS":"和愛街１８號五樓之２","OBJECTID":646800},"geometry":{"x":170463.3900000006,"y":2539995.4000000022}}]}