{"displayFieldName":"TOWNNAME","fieldAliases":{"ID":"ID","DIS_CODE":"DIS_CODE","TOWNNAME":"TOWNNAME","LI":"LI","LIN":"LIN","STREET":"STREET","SECT":"SECT","MAREA":"MAREA","LANE":"LANE","ALLEY":"ALLEY","HOUSE_NO":"HOUSE_NO","E_COORD97":"E_COORD97","N_COORD97":"N_COORD97","ADDRESS":"ADDRESS","OBJECTID":"OBJECTID"},"geometryType":"esriGeometryPoint","spatialReference":{"wkid":102443,"latestWkid":3826},"fields":[{"name":"ID","type":"esriFieldTypeDouble","alias":"ID"},{"name":"DIS_CODE","type":"esriFieldTypeInteger","alias":"DIS_CODE"},{"name":"TOWNNAME","type":"esriFieldTypeString","alias":"TOWNNAME","length":8},{"name":"LI","type":"esriFieldTypeString","alias":"LI","length":8},{"name":"LIN","type":"esriFieldTypeString","alias":"LIN","length":12},{"name":"STREET","type":"esriFieldTypeString","alias":"STREET","length":20},{"name":"SECT","type":"esriFieldTypeString","alias":"SECT","length":8},{"name":"MAREA","type":"esriFieldTypeString","alias":"MAREA","length":12},{"name":"LANE","type":"esriFieldTypeString","alias":"LANE","length":10},{"name":"ALLEY","type":"esriFieldTypeString","alias":"ALLEY","length":10},{"name":"HOUSE_NO","type":"esriFieldTypeString","alias":"HOUSE_NO","length":20},{"name":"E_COORD97","type":"esriFieldTypeDouble","alias":"E_COORD97"},{"name":"N_COORD97","type":"esriFieldTypeDouble","alias":"N_COORD97"},{"name":"ADDRESS","type":"esriFieldTypeString","alias":"ADDRESS","length":50},{"name":"OBJECTID","type":"esriFieldTypeOID","alias":"OBJECTID"}],"features":[{"attributes":{"ID":223005,"DIS_CODE":0,"TOWNNAME":"南區","LI":"文南里","LIN":"28鄰","STREET":"中華西路","SECT":"一段","MAREA":" ","LANE":"１０９巷","ALLEY":" ","HOUSE_NO":"４０號","E_COORD97":166308.23000000001,"N_COORD97":2542457.8799999999,"ADDRESS":"中華西路一段１０９巷４０號","OBJECTID":223001},"geometry":{"x":166308.23000000045,"y":2542457.8800000008}},{"attributes":{"ID":223006,"DIS_CODE":0,"TOWNNAME":"南區","LI":"文南里","LIN":"28鄰","STREET":"中華西路","SECT":"一段","MAREA":" ","LANE":"１０９巷","ALLEY":" ","HOUSE_NO":"４２號","E_COORD97":166303.63,"N_COORD97":2542458.6699999999,"ADDRESS":"中華西路一段１０９巷４２號","OBJECTID":223002},"geometry":{"x":166303.63000000175,"y":2542458.6699999999}},{"attributes":{"ID":223007,"DIS_CODE":0,"TOWNNAME":"南區","LI":"文南里","LIN":"28鄰","STREET":"中華西路","SECT":"一段","MAREA":" ","LANE":"１０９巷","ALLEY":" ","HOUSE_NO":"４６號","E_COORD97":166298.87,"N_COORD97":2542459.7799999998,"ADDRESS":"中華西路一段１０９巷４６號","OBJECTID":223003},"geometry":{"x":166298.87000000197,"y":2542459.7800000012}},{"attributes":{"ID":223008,"DIS_CODE":0,"TOWNNAME":"南區","LI":"文南里","LIN":"28鄰","STREET":"中華西路","SECT":"一段","MAREA":" ","LANE":"１０９巷","ALLEY":" ","HOUSE_NO":"４８號","E_COORD97":166293.95000000001,"N_COORD97":2542460.7400000002,"ADDRESS":"中華西路一段１０９巷４８號","OBJECTID":223004},"geometry":{"x":166293.95000000112,"y":2542460.7400000021}},{"attributes":{"ID":223009,"DIS_CODE":0,"TOWNNAME":"南區","LI":"文南里","LIN":"28鄰","STREET":"中華西路","SECT":"一段","MAREA":" ","LANE":"１０９巷","ALLEY":" ","HOUSE_NO":"５０號","E_COORD97":166288.87,"N_COORD97":2542462.0099999998,"ADDRESS":"中華西路一段１０９巷５０號","OBJECTID":223005},"geometry":{"x":166288.87000000104,"y":2542462.0100000016}},{"attributes":{"ID":223010,"DIS_CODE":0,"TOWNNAME":"永康區","LI":"西勢里","LIN":"28鄰","STREET":"廣興街","SECT":" ","MAREA":" ","LANE":"７６巷","ALLEY":" ","HOUSE_NO":"２０２號","E_COORD97":176102.17000000001,"N_COORD97":2546226.25,"ADDRESS":"廣興街７６巷２０２號","OBJECTID":223006},"geometry":{"x":176102.17000000086,"y":2546226.2500000037}},{"attributes":{"ID":223011,"DIS_CODE":0,"TOWNNAME":"永康區","LI":"西勢里","LIN":"28鄰","STREET":"廣興街","SECT":" ","MAREA":" ","LANE":"７６巷","ALLEY":" ","HOUSE_NO":"１９６號之１","E_COORD97":176069.48000000001,"N_COORD97":2546251.04,"ADDRESS":"廣興街７６巷１９６號之１","OBJECTID":223007},"geometry":{"x":176069.48000000231,"y":2546251.040000001}},{"attributes":{"ID":223012,"DIS_CODE":0,"TOWNNAME":"永康區","LI":"西勢里","LIN":"28鄰","STREET":"廣興街","SECT":" ","MAREA":" ","LANE":"７６巷","ALLEY":" ","HOUSE_NO":"１８９號","E_COORD97":176379.76999999999,"N_COORD97":2546103.5,"ADDRESS":"廣興街７６巷１８９號","OBJECTID":223008},"geometry":{"x":176379.76999999955,"y":2546103.5000000019}},{"attributes":{"ID":223013,"DIS_CODE":0,"TOWNNAME":"永康區","LI":"龍潭里","LIN":"28鄰","STREET":"中山北路","SECT":" ","MAREA":" ","LANE":"３８５巷","ALLEY":" ","HOUSE_NO":"２６號之１","E_COORD97":174903.64999999999,"N_COORD97":2547781.4500000002,"ADDRESS":"中山北路３８５巷２６號之１","OBJECTID":223009},"geometry":{"x":174903.65000000224,"y":2547781.4500000011}},{"attributes":{"ID":223014,"DIS_CODE":0,"TOWNNAME":"永康區","LI":"龍潭里","LIN":"28鄰","STREET":"中山北路","SECT":" ","MAREA":" ","LANE":"３８５巷","ALLEY":" ","HOUSE_NO":"１８號之１","E_COORD97":174880.89000000001,"N_COORD97":2547778.7000000002,"ADDRESS":"中山北路３８５巷１８號之１","OBJECTID":223010},"geometry":{"x":174880.89000000153,"y":2547778.700000003}},{"attributes":{"ID":223015,"DIS_CODE":0,"TOWNNAME":"東區","LI":"和平里","LIN":"5鄰","STREET":"東門路","SECT":"三段","MAREA":" ","LANE":"２８０巷","ALLEY":" ","HOUSE_NO":"３４號","E_COORD97":171719.79000000001,"N_COORD97":2541720.3399999999,"ADDRESS":"東門路三段２８０巷３４號","OBJECTID":223011},"geometry":{"x":171719.79000000004,"y":2541720.3400000017}},{"attributes":{"ID":223016,"DIS_CODE":0,"TOWNNAME":"新市區","LI":"大社里","LIN":"28鄰","STREET":" ","SECT":" ","MAREA":"大社","LANE":" ","ALLEY":" ","HOUSE_NO":"９２１之１４號","E_COORD97":180015.17000000001,"N_COORD97":2554023.2999999998,"ADDRESS":"大社９２１之１４號","OBJECTID":223012},"geometry":{"x":180015.16999999993,"y":2554023.3000000007}},{"attributes":{"ID":223017,"DIS_CODE":0,"TOWNNAME":"新市區","LI":"大社里","LIN":"28鄰","STREET":" ","SECT":" ","MAREA":"大社","LANE":" ","ALLEY":" ","HOUSE_NO":"９２１號之６","E_COORD97":180032.39000000001,"N_COORD97":2553978.7999999998,"ADDRESS":"大社９２１號之６","OBJECTID":223013},"geometry":{"x":180032.38999999966,"y":2553978.8000000026}},{"attributes":{"ID":223018,"DIS_CODE":0,"TOWNNAME":"新市區","LI":"大社里","LIN":"28鄰","STREET":" ","SECT":" ","MAREA":"大社","LANE":" ","ALLEY":" ","HOUSE_NO":"９２１號之９","E_COORD97":180023.57000000001,"N_COORD97":2553996.5499999998,"ADDRESS":"大社９２１號之９","OBJECTID":223014},"geometry":{"x":180023.57000000216,"y":2553996.5500000026}},{"attributes":{"ID":223019,"DIS_CODE":0,"TOWNNAME":"新市區","LI":"大社里","LIN":"28鄰","STREET":" ","SECT":" ","MAREA":"大社","LANE":" ","ALLEY":" ","HOUSE_NO":"９２１號之１０","E_COORD97":180023.89000000001,"N_COORD97":2554000.5499999998,"ADDRESS":"大社９２１號之１０","OBJECTID":223015},"geometry":{"x":180023.88999999966,"y":2554000.5500000026}},{"attributes":{"ID":223020,"DIS_CODE":0,"TOWNNAME":"新市區","LI":"大社里","LIN":"28鄰","STREET":" ","SECT":" ","MAREA":"大社","LANE":" ","ALLEY":" ","HOUSE_NO":"９２２號","E_COORD97":179998.70999999999,"N_COORD97":2554051.25,"ADDRESS":"大社９２２號","OBJECTID":223016},"geometry":{"x":179998.71000000089,"y":2554051.2500000037}},{"attributes":{"ID":223021,"DIS_CODE":0,"TOWNNAME":"新市區","LI":"新市里","LIN":"28鄰","STREET":"復興路","SECT":" ","MAREA":" ","LANE":" ","ALLEY":" ","HOUSE_NO":"１２號","E_COORD97":177829.23000000001,"N_COORD97":2553351.2799999998,"ADDRESS":"復興路１２號","OBJECTID":223017},"geometry":{"x":177829.23000000138,"y":2553351.2799999993}},{"attributes":{"ID":223022,"DIS_CODE":0,"TOWNNAME":"新市區","LI":"新市里","LIN":"28鄰","STREET":"復興路","SECT":" ","MAREA":" ","LANE":" ","ALLEY":" ","HOUSE_NO":"５０號","E_COORD97":177828.53,"N_COORD97":2553445.7799999998,"ADDRESS":"復興路５０號","OBJECTID":223018},"geometry":{"x":177828.53000000212,"y":2553445.7799999993}},{"attributes":{"ID":223023,"DIS_CODE":0,"TOWNNAME":"新市區","LI":"港墘里","LIN":"28鄰","STREET":"華美街","SECT":" ","MAREA":" ","LANE":" ","ALLEY":" ","HOUSE_NO":"６９號","E_COORD97":178186.95999999999,"N_COORD97":2553055.7999999998,"ADDRESS":"華美街６９號","OBJECTID":223019},"geometry":{"x":178186.96000000089,"y":2553055.8000000026}},{"attributes":{"ID":223024,"DIS_CODE":0,"TOWNNAME":"中西區","LI":"民主里","LIN":"8鄰","STREET":"府前路","SECT":"二段","MAREA":" ","LANE":" ","ALLEY":" ","HOUSE_NO":"１７６號","E_COORD97":167342.12,"N_COORD97":2543566.2999999998,"ADDRESS":"府前路二段１７６號","OBJECTID":223020},"geometry":{"x":167342.12000000104,"y":2543566.3000000026}},{"attributes":{"ID":223025,"DIS_CODE":0,"TOWNNAME":"東區","LI":"和平里","LIN":"5鄰","STREET":"東門路","SECT":"三段","MAREA":" ","LANE":"２８０巷","ALLEY":" ","HOUSE_NO":"３５號","E_COORD97":171736.76999999999,"N_COORD97":2541699.3799999999,"ADDRESS":"東門路三段２８０巷３５號","OBJECTID":223021},"geometry":{"x":171736.76999999955,"y":2541699.3800000008}},{"attributes":{"ID":223026,"DIS_CODE":0,"TOWNNAME":"永康區","LI":"龍潭里","LIN":"28鄰","STREET":"中山北路","SECT":" ","MAREA":" ","LANE":"３８５巷","ALLEY":" ","HOUSE_NO":"３２號之２","E_COORD97":174947.20000000001,"N_COORD97":2547784.98,"ADDRESS":"中山北路３８５巷３２號之２","OBJECTID":223022},"geometry":{"x":174947.20000000205,"y":2547784.9800000042}},{"attributes":{"ID":223027,"DIS_CODE":0,"TOWNNAME":"善化區","LI":"光文里","LIN":"28鄰","STREET":"中山路","SECT":" ","MAREA":" ","LANE":"２４０巷","ALLEY":" ","HOUSE_NO":"４１號","E_COORD97":177810.07000000001,"N_COORD97":2559242.25,"ADDRESS":"中山路２４０巷４１號","OBJECTID":223023},"geometry":{"x":177810.07000000123,"y":2559242.2500000019}},{"attributes":{"ID":223028,"DIS_CODE":0,"TOWNNAME":"善化區","LI":"光文里","LIN":"28鄰","STREET":"中山路","SECT":" ","MAREA":" ","LANE":"２４０巷","ALLEY":" ","HOUSE_NO":"４６號","E_COORD97":177782.69,"N_COORD97":2559210,"ADDRESS":"中山路２４０巷４６號","OBJECTID":223024},"geometry":{"x":177782.69000000041,"y":2559210.0000000037}},{"attributes":{"ID":223029,"DIS_CODE":0,"TOWNNAME":"新市區","LI":"大社里","LIN":"28鄰","STREET":" ","SECT":" ","MAREA":"大社","LANE":" ","ALLEY":" ","HOUSE_NO":"９２１號之１１","E_COORD97":180021.14000000001,"N_COORD97":2554006.0499999998,"ADDRESS":"大社９２１號之１１","OBJECTID":223025},"geometry":{"x":180021.1400000006,"y":2554006.0500000045}},{"attributes":{"ID":223030,"DIS_CODE":0,"TOWNNAME":"東區","LI":"和平里","LIN":"9鄰","STREET":"東門路","SECT":"三段","MAREA":" ","LANE":"３３８巷","ALLEY":" ","HOUSE_NO":"５５號","E_COORD97":171856.84,"N_COORD97":2541394.2400000002,"ADDRESS":"東門路三段３３８巷５５號","OBJECTID":223026},"geometry":{"x":171856.83999999985,"y":2541394.2400000002}},{"attributes":{"ID":223031,"DIS_CODE":0,"TOWNNAME":"新市區","LI":"大社里","LIN":"28鄰","STREET":" ","SECT":" ","MAREA":"大社","LANE":" ","ALLEY":" ","HOUSE_NO":"９２６號","E_COORD97":180032.20999999999,"N_COORD97":2554098.25,"ADDRESS":"大社９２６號","OBJECTID":223027},"geometry":{"x":180032.20999999996,"y":2554098.25}},{"attributes":{"ID":223032,"DIS_CODE":0,"TOWNNAME":"善化區","LI":"光文里","LIN":"28鄰","STREET":"中山路","SECT":" ","MAREA":" ","LANE":"２４０巷","ALLEY":" ","HOUSE_NO":"５３號","E_COORD97":177772.78,"N_COORD97":2559217.25,"ADDRESS":"中山路２４０巷５３號","OBJECTID":223028},"geometry":{"x":177772.78000000119,"y":2559217.25}},{"attributes":{"ID":223033,"DIS_CODE":0,"TOWNNAME":"善化區","LI":"光文里","LIN":"28鄰","STREET":"中山路","SECT":" ","MAREA":" ","LANE":"３０２巷","ALLEY":" ","HOUSE_NO":"２號","E_COORD97":177793.45999999999,"N_COORD97":2559156.75,"ADDRESS":"中山路３０２巷２號","OBJECTID":223029},"geometry":{"x":177793.46000000089,"y":2559156.75}},{"attributes":{"ID":223034,"DIS_CODE":0,"TOWNNAME":"善化區","LI":"光文里","LIN":"28鄰","STREET":"中山路","SECT":" ","MAREA":" ","LANE":"２４０巷","ALLEY":" ","HOUSE_NO":"３２號","E_COORD97":177808.39000000001,"N_COORD97":2559197.25,"ADDRESS":"中山路２４０巷３２號","OBJECTID":223030},"geometry":{"x":177808.38999999873,"y":2559197.25}},{"attributes":{"ID":223035,"DIS_CODE":0,"TOWNNAME":"柳營區","LI":"旭山里","LIN":"16鄰","STREET":" ","SECT":" ","MAREA":"山子腳","LANE":" ","ALLEY":" ","HOUSE_NO":"６號之１６","E_COORD97":187274.37,"N_COORD97":2574430.8300000001,"ADDRESS":"山子腳６號之１６","OBJECTID":223031},"geometry":{"x":187274.37000000011,"y":2574430.8300000019}},{"attributes":{"ID":223036,"DIS_CODE":0,"TOWNNAME":"善化區","LI":"光文里","LIN":"28鄰","STREET":"中山路","SECT":" ","MAREA":" ","LANE":"２４０巷","ALLEY":" ","HOUSE_NO":"３８號","E_COORD97":177809.76999999999,"N_COORD97":2559229,"ADDRESS":"中山路２４０巷３８號","OBJECTID":223032},"geometry":{"x":177809.77000000048,"y":2559229}},{"attributes":{"ID":223037,"DIS_CODE":0,"TOWNNAME":"東區","LI":"東光里","LIN":"28鄰","STREET":"東寧路","SECT":" ","MAREA":" ","LANE":"２０１巷","ALLEY":" ","HOUSE_NO":"１１２之１號","E_COORD97":170691.28,"N_COORD97":2543838.0699999998,"ADDRESS":"東寧路２０１巷１１２之１號","OBJECTID":223033},"geometry":{"x":170691.28000000026,"y":2543838.0700000022}},{"attributes":{"ID":223038,"DIS_CODE":0,"TOWNNAME":"東區","LI":"崇誨里","LIN":"28鄰","STREET":"裕豐街","SECT":" ","MAREA":" ","LANE":"１８５巷","ALLEY":" ","HOUSE_NO":"１４號","E_COORD97":170742.62,"N_COORD97":2543207.77,"ADDRESS":"裕豐街１８５巷１４號","OBJECTID":223034},"geometry":{"x":170742.62000000104,"y":2543207.7699999996}},{"attributes":{"ID":223039,"DIS_CODE":0,"TOWNNAME":"東區","LI":"崇誨里","LIN":"28鄰","STREET":"裕豐街","SECT":" ","MAREA":" ","LANE":"１８５巷","ALLEY":" ","HOUSE_NO":"１６號","E_COORD97":170738.73000000001,"N_COORD97":2543206.3900000001,"ADDRESS":"裕豐街１８５巷１６號","OBJECTID":223035},"geometry":{"x":170738.73000000138,"y":2543206.3900000025}},{"attributes":{"ID":223040,"DIS_CODE":0,"TOWNNAME":"東區","LI":"崇誨里","LIN":"28鄰","STREET":"裕豐街","SECT":" ","MAREA":" ","LANE":"１８５巷","ALLEY":" ","HOUSE_NO":"１８號","E_COORD97":170734.09,"N_COORD97":2543205.27,"ADDRESS":"裕豐街１８５巷１８號","OBJECTID":223036},"geometry":{"x":170734.09000000078,"y":2543205.2700000014}},{"attributes":{"ID":223041,"DIS_CODE":0,"TOWNNAME":"東區","LI":"崇誨里","LIN":"28鄰","STREET":"裕豐街","SECT":" ","MAREA":" ","LANE":"１８５巷","ALLEY":" ","HOUSE_NO":"２０號","E_COORD97":170729.32000000001,"N_COORD97":2543204.5099999998,"ADDRESS":"裕豐街１８５巷２０號","OBJECTID":223037},"geometry":{"x":170729.32000000123,"y":2543204.5100000016}},{"attributes":{"ID":223042,"DIS_CODE":0,"TOWNNAME":"東區","LI":"崇誨里","LIN":"28鄰","STREET":"裕豐街","SECT":" ","MAREA":" ","LANE":"１８５巷","ALLEY":" ","HOUSE_NO":"２８號","E_COORD97":170702.70999999999,"N_COORD97":2543198.9100000001,"ADDRESS":"裕豐街１８５巷２８號","OBJECTID":223038},"geometry":{"x":170702.71000000089,"y":2543198.910000002}},{"attributes":{"ID":223043,"DIS_CODE":0,"TOWNNAME":"永康區","LI":"西灣里","LIN":"28鄰","STREET":"公園路","SECT":" ","MAREA":" ","LANE":"６３巷","ALLEY":" ","HOUSE_NO":"２９號","E_COORD97":174368.98999999999,"N_COORD97":2545887.6400000001,"ADDRESS":"公園路６３巷２９號","OBJECTID":223039},"geometry":{"x":174368.99000000115,"y":2545887.6400000006}},{"attributes":{"ID":223044,"DIS_CODE":0,"TOWNNAME":"永康區","LI":"西灣里","LIN":"28鄰","STREET":"公園路","SECT":" ","MAREA":" ","LANE":"７巷","ALLEY":" ","HOUSE_NO":"３７號","E_COORD97":174478.12,"N_COORD97":2545935.6600000001,"ADDRESS":"公園路７巷３７號","OBJECTID":223040},"geometry":{"x":174478.12000000197,"y":2545935.6600000039}},{"attributes":{"ID":223045,"DIS_CODE":0,"TOWNNAME":"永康區","LI":"西灣里","LIN":"28鄰","STREET":"公園路","SECT":" ","MAREA":" ","LANE":"７巷","ALLEY":" ","HOUSE_NO":"３９號","E_COORD97":174477.59,"N_COORD97":2545931.6600000001,"ADDRESS":"公園路７巷３９號","OBJECTID":223041},"geometry":{"x":174477.58999999985,"y":2545931.6600000001}},{"attributes":{"ID":223046,"DIS_CODE":0,"TOWNNAME":"仁德區","LI":"仁愛里","LIN":"28鄰","STREET":"大同路","SECT":"三段","MAREA":" ","LANE":"４５６巷","ALLEY":" ","HOUSE_NO":"１６號","E_COORD97":169750.75,"N_COORD97":2539294.5299999998,"ADDRESS":"大同路三段４５６巷１６號","OBJECTID":223042},"geometry":{"x":169750.74999999907,"y":2539294.5300000012}},{"attributes":{"ID":223047,"DIS_CODE":0,"TOWNNAME":"永康區","LI":"西灣里","LIN":"28鄰","STREET":"公園路","SECT":" ","MAREA":" ","LANE":"７巷","ALLEY":" ","HOUSE_NO":"４２號","E_COORD97":174450.57000000001,"N_COORD97":2545879.1299999999,"ADDRESS":"公園路７巷４２號","OBJECTID":223043},"geometry":{"x":174450.57000000123,"y":2545879.129999999}},{"attributes":{"ID":223048,"DIS_CODE":0,"TOWNNAME":"善化區","LI":"溪美里","LIN":"20鄰","STREET":" ","SECT":" ","MAREA":"溪尾","LANE":" ","ALLEY":" ","HOUSE_NO":"１７８號之２６","E_COORD97":176880.60999999999,"N_COORD97":2561324.02,"ADDRESS":"溪尾１７８號之２６","OBJECTID":223044},"geometry":{"x":176880.61000000127,"y":2561324.0199999996}},{"attributes":{"ID":223049,"DIS_CODE":0,"TOWNNAME":"善化區","LI":"胡厝里","LIN":"28鄰","STREET":" ","SECT":" ","MAREA":"烏橋","LANE":" ","ALLEY":" ","HOUSE_NO":"４８號","E_COORD97":175317.98000000001,"N_COORD97":2558892.75,"ADDRESS":"烏橋４８號","OBJECTID":223045},"geometry":{"x":175317.98000000045,"y":2558892.7500000037}},{"attributes":{"ID":223050,"DIS_CODE":0,"TOWNNAME":"善化區","LI":"溪美里","LIN":"20鄰","STREET":" ","SECT":" ","MAREA":"溪尾","LANE":" ","ALLEY":" ","HOUSE_NO":"１７８號之２７","E_COORD97":176883.32000000001,"N_COORD97":2561325.52,"ADDRESS":"溪尾１７８號之２７","OBJECTID":223046},"geometry":{"x":176883.3200000003,"y":2561325.5200000014}},{"attributes":{"ID":223051,"DIS_CODE":0,"TOWNNAME":"善化區","LI":"溪美里","LIN":"20鄰","STREET":" ","SECT":" ","MAREA":"溪尾","LANE":" ","ALLEY":" ","HOUSE_NO":"１７８號之１９","E_COORD97":176872.42999999999,"N_COORD97":2561278.02,"ADDRESS":"溪尾１７８號之１９","OBJECTID":223047},"geometry":{"x":176872.43000000156,"y":2561278.0200000014}},{"attributes":{"ID":223052,"DIS_CODE":0,"TOWNNAME":"永康區","LI":"西灣里","LIN":"28鄰","STREET":"公園路","SECT":" ","MAREA":" ","LANE":"７巷","ALLEY":" ","HOUSE_NO":"３３號","E_COORD97":174479.38,"N_COORD97":2545942.8999999999,"ADDRESS":"公園路７巷３３號","OBJECTID":223048},"geometry":{"x":174479.38000000175,"y":2545942.9000000004}},{"attributes":{"ID":223053,"DIS_CODE":0,"TOWNNAME":"永康區","LI":"西灣里","LIN":"28鄰","STREET":"公園路","SECT":" ","MAREA":" ","LANE":"６３巷","ALLEY":" ","HOUSE_NO":"２５號","E_COORD97":174367.69,"N_COORD97":2545896.8900000001,"ADDRESS":"公園路６３巷２５號","OBJECTID":223049},"geometry":{"x":174367.69000000227,"y":2545896.8899999987}},{"attributes":{"ID":223054,"DIS_CODE":0,"TOWNNAME":"永康區","LI":"\u25A0行里","LIN":"28鄰","STREET":"中正三街","SECT":" ","MAREA":" ","LANE":"４５５巷","ALLEY":" ","HOUSE_NO":"１１號","E_COORD97":173081.45999999999,"N_COORD97":2548579.2400000002,"ADDRESS":"中正三街４５５巷１１號","OBJECTID":223050},"geometry":{"x":173081.45999999996,"y":2548579.2400000002}},{"attributes":{"ID":223055,"DIS_CODE":0,"TOWNNAME":"永康區","LI":"\u25A0行里","LIN":"28鄰","STREET":"中正三街","SECT":" ","MAREA":" ","LANE":"４８６巷","ALLEY":" ","HOUSE_NO":"５號","E_COORD97":172953.04999999999,"N_COORD97":2548651.2400000002,"ADDRESS":"中正三街４８６巷５號","OBJECTID":223051},"geometry":{"x":172953.05000000075,"y":2548651.2400000021}},{"attributes":{"ID":223056,"DIS_CODE":0,"TOWNNAME":"永康區","LI":"\u25A0行里","LIN":"28鄰","STREET":"中正三街","SECT":" ","MAREA":" ","LANE":"４８６巷","ALLEY":" ","HOUSE_NO":"１號","E_COORD97":172980.54999999999,"N_COORD97":2548647.4900000002,"ADDRESS":"中正三街４８６巷１號","OBJECTID":223052},"geometry":{"x":172980.54999999981,"y":2548647.4900000002}},{"attributes":{"ID":223057,"DIS_CODE":0,"TOWNNAME":"永康區","LI":"\u25A0行里","LIN":"28鄰","STREET":"中正三街","SECT":" ","MAREA":" ","LANE":"４５５巷","ALLEY":" ","HOUSE_NO":"６號","E_COORD97":173048.07000000001,"N_COORD97":2548563.9900000002,"ADDRESS":"中正三街４５５巷６號","OBJECTID":223053},"geometry":{"x":173048.07000000123,"y":2548563.9900000002}},{"attributes":{"ID":223058,"DIS_CODE":0,"TOWNNAME":"永康區","LI":"\u25A0行里","LIN":"28鄰","STREET":"中正三街","SECT":" ","MAREA":" ","LANE":"４５５巷","ALLEY":" ","HOUSE_NO":"５號","E_COORD97":173057.17999999999,"N_COORD97":2548580.25,"ADDRESS":"中正三街４５５巷５號","OBJECTID":223054},"geometry":{"x":173057.18000000063,"y":2548580.2500000019}},{"attributes":{"ID":223059,"DIS_CODE":0,"TOWNNAME":"善化區","LI":"光文里","LIN":"28鄰","STREET":"中山路","SECT":" ","MAREA":" ","LANE":"３０２巷","ALLEY":" ","HOUSE_NO":"５號","E_COORD97":177783.73000000001,"N_COORD97":2559163,"ADDRESS":"中山路３０２巷５號","OBJECTID":223055},"geometry":{"x":177783.73000000138,"y":2559163.0000000019}},{"attributes":{"ID":223060,"DIS_CODE":0,"TOWNNAME":"仁德區","LI":"後壁里","LIN":"28鄰","STREET":"德洋路","SECT":" ","MAREA":" ","LANE":"４１巷","ALLEY":" ","HOUSE_NO":"３４號","E_COORD97":172902.73999999999,"N_COORD97":2538986.77,"ADDRESS":"德洋路４１巷３４號","OBJECTID":223056},"geometry":{"x":172902.74000000115,"y":2538986.7699999996}},{"attributes":{"ID":223061,"DIS_CODE":0,"TOWNNAME":"仁德區","LI":"仁義里","LIN":"1鄰","STREET":"義林五街","SECT":" ","MAREA":" ","LANE":" ","ALLEY":" ","HOUSE_NO":"１１０號","E_COORD97":174165.32999999999,"N_COORD97":2541052.02,"ADDRESS":"義林五街１１０號","OBJECTID":223057},"geometry":{"x":174165.33000000101,"y":2541052.0199999996}},{"attributes":{"ID":223062,"DIS_CODE":0,"TOWNNAME":"仁德區","LI":"仁義里","LIN":"1鄰","STREET":"義林六街","SECT":" ","MAREA":" ","LANE":" ","ALLEY":" ","HOUSE_NO":"３１號","E_COORD97":174391.92000000001,"N_COORD97":2541058.52,"ADDRESS":"義林六街３１號","OBJECTID":223058},"geometry":{"x":174391.91999999993,"y":2541058.5200000014}},{"attributes":{"ID":223063,"DIS_CODE":0,"TOWNNAME":"仁德區","LI":"仁義里","LIN":"1鄰","STREET":"義林六街","SECT":" ","MAREA":" ","LANE":" ","ALLEY":" ","HOUSE_NO":"５７號","E_COORD97":174329.26999999999,"N_COORD97":2541066.02,"ADDRESS":"義林六街５７號","OBJECTID":223059},"geometry":{"x":174329.27000000048,"y":2541066.0199999996}},{"attributes":{"ID":223064,"DIS_CODE":0,"TOWNNAME":"仁德區","LI":"仁義里","LIN":"1鄰","STREET":"義林二街","SECT":" ","MAREA":" ","LANE":" ","ALLEY":" ","HOUSE_NO":"７０號","E_COORD97":174138.51999999999,"N_COORD97":2541175.2599999998,"ADDRESS":"義林二街７０號","OBJECTID":223060},"geometry":{"x":174138.51999999955,"y":2541175.2600000016}},{"attributes":{"ID":223065,"DIS_CODE":0,"TOWNNAME":"永康區","LI":"\u25A0行里","LIN":"28鄰","STREET":"中正三街","SECT":" ","MAREA":" ","LANE":"４５５巷","ALLEY":" ","HOUSE_NO":"２２號","E_COORD97":173106.85999999999,"N_COORD97":2548560.4900000002,"ADDRESS":"中正三街４５５巷２２號","OBJECTID":223061},"geometry":{"x":173106.8600000022,"y":2548560.4900000002}},{"attributes":{"ID":223066,"DIS_CODE":0,"TOWNNAME":"永康區","LI":"\u25A0行里","LIN":"28鄰","STREET":"中正三街","SECT":" ","MAREA":" ","LANE":"４５５巷","ALLEY":" ","HOUSE_NO":"２號","E_COORD97":173032.95000000001,"N_COORD97":2548564.2400000002,"ADDRESS":"中正三街４５５巷２號","OBJECTID":223062},"geometry":{"x":173032.95000000019,"y":2548564.2400000021}},{"attributes":{"ID":223067,"DIS_CODE":0,"TOWNNAME":"永康區","LI":"龍潭里","LIN":"28鄰","STREET":"中山北路","SECT":" ","MAREA":" ","LANE":"３８５巷","ALLEY":" ","HOUSE_NO":"２６號之２","E_COORD97":174927.23000000001,"N_COORD97":2547782.3700000001,"ADDRESS":"中山北路３８５巷２６號之２","OBJECTID":223063},"geometry":{"x":174927.23000000138,"y":2547782.370000001}},{"attributes":{"ID":223068,"DIS_CODE":0,"TOWNNAME":"仁德區","LI":"上崙里","LIN":"28鄰","STREET":"中正路","SECT":"一段","MAREA":" ","LANE":" ","ALLEY":" ","HOUSE_NO":"６７８號","E_COORD97":172877.37,"N_COORD97":2537586.52,"ADDRESS":"中正路一段６７８號","OBJECTID":223064},"geometry":{"x":172877.37000000011,"y":2537586.5200000014}},{"attributes":{"ID":223069,"DIS_CODE":0,"TOWNNAME":"永康區","LI":"龍潭里","LIN":"28鄰","STREET":"中山北路","SECT":" ","MAREA":" ","LANE":"３８５巷","ALLEY":" ","HOUSE_NO":"２０號之３","E_COORD97":174888.56,"N_COORD97":2547779.7000000002,"ADDRESS":"中山北路３８５巷２０號之３","OBJECTID":223065},"geometry":{"x":174888.56000000052,"y":2547779.7000000011}},{"attributes":{"ID":223070,"DIS_CODE":0,"TOWNNAME":"永康區","LI":"三民里","LIN":" ","STREET":"三民街","SECT":" ","MAREA":" ","LANE":" ","ALLEY":" ","HOUSE_NO":"２０號","E_COORD97":172808.26000000001,"N_COORD97":2550278.1400000001,"ADDRESS":"三民街２０號","OBJECTID":223066},"geometry":{"x":172808.25999999978,"y":2550278.1400000006}},{"attributes":{"ID":223071,"DIS_CODE":0,"TOWNNAME":"永康區","LI":"復興里","LIN":"28鄰","STREET":"興國街","SECT":" ","MAREA":" ","LANE":"１８２巷","ALLEY":" ","HOUSE_NO":"１３號","E_COORD97":172378.67999999999,"N_COORD97":2544948.7400000002,"ADDRESS":"興國街１８２巷１３號","OBJECTID":223067},"geometry":{"x":172378.68000000063,"y":2544948.7400000021}},{"attributes":{"ID":223072,"DIS_CODE":0,"TOWNNAME":"永康區","LI":"中華里","LIN":"25鄰","STREET":"忠義街","SECT":" ","MAREA":" ","LANE":" ","ALLEY":" ","HOUSE_NO":"７３號","E_COORD97":171710.92999999999,"N_COORD97":2544626.2799999998,"ADDRESS":"忠義街７３號","OBJECTID":223068},"geometry":{"x":171710.93000000063,"y":2544626.2800000012}},{"attributes":{"ID":223073,"DIS_CODE":0,"TOWNNAME":"中西區","LI":"民主里","LIN":"8鄰","STREET":"府前路","SECT":"二段","MAREA":" ","LANE":" ","ALLEY":" ","HOUSE_NO":"１７８號","E_COORD97":167333.56,"N_COORD97":2543567.9500000002,"ADDRESS":"府前路二段１７８號","OBJECTID":223069},"geometry":{"x":167333.55999999959,"y":2543567.9499999993}},{"attributes":{"ID":223074,"DIS_CODE":0,"TOWNNAME":"中西區","LI":"民主里","LIN":"8鄰","STREET":"府前路","SECT":"二段","MAREA":" ","LANE":" ","ALLEY":" ","HOUSE_NO":"１７８號底層之１","E_COORD97":167333.56,"N_COORD97":2543567.9500000002,"ADDRESS":"府前路二段１７８號底層之１","OBJECTID":223070},"geometry":{"x":167333.55999999959,"y":2543567.9499999993}},{"attributes":{"ID":223075,"DIS_CODE":0,"TOWNNAME":"永康區","LI":"復興里","LIN":"28鄰","STREET":"興國街","SECT":" ","MAREA":" ","LANE":"１８２巷","ALLEY":" ","HOUSE_NO":"７號","E_COORD97":172378.32000000001,"N_COORD97":2544931.4900000002,"ADDRESS":"興國街１８２巷７號","OBJECTID":223071},"geometry":{"x":172378.32000000216,"y":2544931.4900000002}},{"attributes":{"ID":223076,"DIS_CODE":0,"TOWNNAME":"永康區","LI":"復興里","LIN":"28鄰","STREET":"興國街","SECT":" ","MAREA":" ","LANE":"１６２巷","ALLEY":" ","HOUSE_NO":"５號","E_COORD97":172380.07000000001,"N_COORD97":2544882,"ADDRESS":"興國街１６２巷５號","OBJECTID":223072},"geometry":{"x":172380.07000000123,"y":2544882.0000000037}},{"attributes":{"ID":223077,"DIS_CODE":0,"TOWNNAME":"中西區","LI":"民主里","LIN":"8鄰","STREET":"府前路","SECT":"二段","MAREA":" ","LANE":" ","ALLEY":" ","HOUSE_NO":"１７８號底層之２","E_COORD97":167333.56,"N_COORD97":2543567.9500000002,"ADDRESS":"府前路二段１７８號底層之２","OBJECTID":223073},"geometry":{"x":167333.55999999959,"y":2543567.9499999993}},{"attributes":{"ID":223078,"DIS_CODE":0,"TOWNNAME":"永康區","LI":"中華里","LIN":"8鄰","STREET":"忠勇街","SECT":" ","MAREA":" ","LANE":" ","ALLEY":" ","HOUSE_NO":"５４號","E_COORD97":171899.75,"N_COORD97":2544478,"ADDRESS":"忠勇街５４號","OBJECTID":223074},"geometry":{"x":171899.75,"y":2544478}},{"attributes":{"ID":223079,"DIS_CODE":0,"TOWNNAME":"柳營區","LI":"旭山里","LIN":"16鄰","STREET":" ","SECT":" ","MAREA":"山子腳","LANE":" ","ALLEY":" ","HOUSE_NO":"１號之２","E_COORD97":187374.14999999999,"N_COORD97":2574437.8900000001,"ADDRESS":"山子腳１號之２","OBJECTID":223075},"geometry":{"x":187374.1500000013,"y":2574437.8900000025}},{"attributes":{"ID":223080,"DIS_CODE":0,"TOWNNAME":"柳營區","LI":"重溪里","LIN":"16鄰","STREET":" ","SECT":" ","MAREA":"小腳腿","LANE":" ","ALLEY":" ","HOUSE_NO":"１５９號之２","E_COORD97":185194.78,"N_COORD97":2576938.1699999999,"ADDRESS":"小腳腿１５９號之２","OBJECTID":223076},"geometry":{"x":185194.78000000119,"y":2576938.1700000018}},{"attributes":{"ID":223081,"DIS_CODE":0,"TOWNNAME":"柳營區","LI":"重溪里","LIN":"16鄰","STREET":" ","SECT":" ","MAREA":"小腳腿","LANE":" ","ALLEY":" ","HOUSE_NO":"１５９號之４","E_COORD97":185189.17000000001,"N_COORD97":2576933.1099999999,"ADDRESS":"小腳腿１５９號之４","OBJECTID":223077},"geometry":{"x":185189.16999999993,"y":2576933.1099999975}},{"attributes":{"ID":223082,"DIS_CODE":0,"TOWNNAME":"永康區","LI":"復興里","LIN":"28鄰","STREET":"興國街","SECT":" ","MAREA":" ","LANE":"１７６巷","ALLEY":" ","HOUSE_NO":"７號","E_COORD97":172372.60000000001,"N_COORD97":2544913.7400000002,"ADDRESS":"興國街１７６巷７號","OBJECTID":223078},"geometry":{"x":172372.60000000056,"y":2544913.7400000002}},{"attributes":{"ID":223083,"DIS_CODE":0,"TOWNNAME":"中西區","LI":"民主里","LIN":"9鄰","STREET":"府前路","SECT":"二段","MAREA":" ","LANE":" ","ALLEY":" ","HOUSE_NO":"１８６號","E_COORD97":167289.34,"N_COORD97":2543577.5800000001,"ADDRESS":"府前路二段１８６號","OBJECTID":223079},"geometry":{"x":167289.34000000078,"y":2543577.5800000019}},{"attributes":{"ID":223084,"DIS_CODE":0,"TOWNNAME":"永康區","LI":"永康里","LIN":" ","STREET":"永二街","SECT":" ","MAREA":" ","LANE":" ","ALLEY":" ","HOUSE_NO":"２２號","E_COORD97":173773.85000000001,"N_COORD97":2547110.4100000001,"ADDRESS":"永二街２２號","OBJECTID":223080},"geometry":{"x":173773.84999999963,"y":2547110.4100000039}},{"attributes":{"ID":223085,"DIS_CODE":0,"TOWNNAME":"柳營區","LI":"重溪里","LIN":"16鄰","STREET":" ","SECT":" ","MAREA":"小腳腿","LANE":" ","ALLEY":" ","HOUSE_NO":"１５９號","E_COORD97":185175.76999999999,"N_COORD97":2576937.8599999999,"ADDRESS":"小腳腿１５９號","OBJECTID":223081},"geometry":{"x":185175.76999999955,"y":2576937.8599999994}},{"attributes":{"ID":223086,"DIS_CODE":0,"TOWNNAME":"柳營區","LI":"重溪里","LIN":"16鄰","STREET":" ","SECT":" ","MAREA":"小腳腿","LANE":" ","ALLEY":" ","HOUSE_NO":"１６１號之１","E_COORD97":185178.19,"N_COORD97":2576888.1600000001,"ADDRESS":"小腳腿１６１號之１","OBJECTID":223082},"geometry":{"x":185178.19000000134,"y":2576888.1600000001}},{"attributes":{"ID":223087,"DIS_CODE":0,"TOWNNAME":"柳營區","LI":"重溪里","LIN":"16鄰","STREET":" ","SECT":" ","MAREA":"小腳腿","LANE":" ","ALLEY":" ","HOUSE_NO":"１６１號之２","E_COORD97":185203.22,"N_COORD97":2576887.73,"ADDRESS":"小腳腿１６１號之２","OBJECTID":223083},"geometry":{"x":185203.22000000067,"y":2576887.7300000023}},{"attributes":{"ID":223088,"DIS_CODE":0,"TOWNNAME":"柳營區","LI":"重溪里","LIN":"16鄰","STREET":" ","SECT":" ","MAREA":"小腳腿","LANE":" ","ALLEY":" ","HOUSE_NO":"１６１號之３","E_COORD97":185199.22,"N_COORD97":2576888.6400000001,"ADDRESS":"小腳腿１６１號之３","OBJECTID":223084},"geometry":{"x":185199.22000000067,"y":2576888.6400000006}},{"attributes":{"ID":223089,"DIS_CODE":0,"TOWNNAME":"安南區","LI":"海東里","LIN":"22鄰","STREET":"同安路","SECT":" ","MAREA":" ","LANE":"８３巷","ALLEY":" ","HOUSE_NO":"２０號","E_COORD97":166902.38983299999,"N_COORD97":2549007.5898000002,"ADDRESS":"同安路８３巷２０號","OBJECTID":223085},"geometry":{"x":166902.38983299956,"y":2549007.5897979997}},{"attributes":{"ID":223090,"DIS_CODE":0,"TOWNNAME":"柳營區","LI":"重溪里","LIN":"16鄰","STREET":" ","SECT":" ","MAREA":"小腳腿","LANE":" ","ALLEY":" ","HOUSE_NO":"１６１號之５","E_COORD97":185209.39999999999,"N_COORD97":2576920.8999999999,"ADDRESS":"小腳腿１６１號之５","OBJECTID":223086},"geometry":{"x":185209.4000000013,"y":2576920.9000000004}},{"attributes":{"ID":223091,"DIS_CODE":0,"TOWNNAME":"柳營區","LI":"重溪里","LIN":"16鄰","STREET":" ","SECT":" ","MAREA":"小腳腿","LANE":" ","ALLEY":" ","HOUSE_NO":"１６１號之６","E_COORD97":185208,"N_COORD97":2576916.8500000001,"ADDRESS":"小腳腿１６１號之６","OBJECTID":223087},"geometry":{"x":185208.00000000093,"y":2576916.8499999996}},{"attributes":{"ID":223092,"DIS_CODE":0,"TOWNNAME":"柳營區","LI":"重溪里","LIN":"16鄰","STREET":" ","SECT":" ","MAREA":"小腳腿","LANE":" ","ALLEY":" ","HOUSE_NO":"１６１號之７","E_COORD97":185186.32000000001,"N_COORD97":2576908.7200000002,"ADDRESS":"小腳腿１６１號之７","OBJECTID":223088},"geometry":{"x":185186.3200000003,"y":2576908.7200000007}},{"attributes":{"ID":223093,"DIS_CODE":0,"TOWNNAME":"柳營區","LI":"重溪里","LIN":"16鄰","STREET":" ","SECT":" ","MAREA":"小腳腿","LANE":" ","ALLEY":" ","HOUSE_NO":"１６１號之８","E_COORD97":185181.57000000001,"N_COORD97":2576897.7400000002,"ADDRESS":"小腳腿１６１號之８","OBJECTID":223089},"geometry":{"x":185181.5700000003,"y":2576897.7400000002}},{"attributes":{"ID":223094,"DIS_CODE":0,"TOWNNAME":"安平區","LI":"文平里","LIN":"22鄰","STREET":"健康一街","SECT":" ","MAREA":" ","LANE":" ","ALLEY":" ","HOUSE_NO":"６６之１號","E_COORD97":165950.217565,"N_COORD97":2542819.2692800001,"ADDRESS":"健康一街６６之１號","OBJECTID":223090},"geometry":{"x":165950.21756500099,"y":2542819.2692769989}},{"attributes":{"ID":223095,"DIS_CODE":0,"TOWNNAME":"安平區","LI":"怡平里","LIN":"22鄰","STREET":"永華六街","SECT":" ","MAREA":" ","LANE":" ","ALLEY":" ","HOUSE_NO":"６６之３號","E_COORD97":165623.63015899999,"N_COORD97":2543678.4365099999,"ADDRESS":"永華六街６６之３號","OBJECTID":223091},"geometry":{"x":165623.63015900087,"y":2543678.4365069978}},{"attributes":{"ID":223096,"DIS_CODE":0,"TOWNNAME":"永康區","LI":"復興里","LIN":"28鄰","STREET":"興國街","SECT":" ","MAREA":" ","LANE":"１６０巷","ALLEY":" ","HOUSE_NO":"５號","E_COORD97":172371.87,"N_COORD97":2544870,"ADDRESS":"興國街１６０巷５號","OBJECTID":223092},"geometry":{"x":172371.87000000011,"y":2544870.0000000019}},{"attributes":{"ID":223097,"DIS_CODE":0,"TOWNNAME":"永康區","LI":"復興里","LIN":"28鄰","STREET":"興國街","SECT":" ","MAREA":" ","LANE":"１７６巷","ALLEY":" ","HOUSE_NO":"１號","E_COORD97":172362.85000000001,"N_COORD97":2544913.9900000002,"ADDRESS":"興國街１７６巷１號","OBJECTID":223093},"geometry":{"x":172362.85000000056,"y":2544913.9900000021}},{"attributes":{"ID":223098,"DIS_CODE":0,"TOWNNAME":"永康區","LI":"復興里","LIN":"28鄰","STREET":"興國街","SECT":" ","MAREA":" ","LANE":"１８７巷","ALLEY":" ","HOUSE_NO":"１１號","E_COORD97":172330.23000000001,"N_COORD97":2544866.25,"ADDRESS":"興國街１８７巷１１號","OBJECTID":223094},"geometry":{"x":172330.23000000138,"y":2544866.25}},{"attributes":{"ID":223099,"DIS_CODE":0,"TOWNNAME":"新營區","LI":"民榮里","LIN":"22鄰","STREET":"裕民路","SECT":" ","MAREA":" ","LANE":"５８巷","ALLEY":" ","HOUSE_NO":"６號","E_COORD97":179105.22,"N_COORD97":2577842.7200000002,"ADDRESS":"裕民路５８巷６號","OBJECTID":223095},"geometry":{"x":179105.22000000067,"y":2577842.7200000044}},{"attributes":{"ID":223100,"DIS_CODE":0,"TOWNNAME":"新營區","LI":"民榮里","LIN":"22鄰","STREET":"裕民路","SECT":" ","MAREA":" ","LANE":"５８巷","ALLEY":" ","HOUSE_NO":"１０號","E_COORD97":179097.26000000001,"N_COORD97":2577842.77,"ADDRESS":"裕民路５８巷１０號","OBJECTID":223096},"geometry":{"x":179097.25999999978,"y":2577842.7699999996}},{"attributes":{"ID":223101,"DIS_CODE":0,"TOWNNAME":"仁德區","LI":"仁義里","LIN":"34鄰","STREET":"正義二街","SECT":" ","MAREA":" ","LANE":" ","ALLEY":" ","HOUSE_NO":"１０７號四樓","E_COORD97":173678.37,"N_COORD97":2541601.5099999998,"ADDRESS":"正義二街１０７號四樓","OBJECTID":223097},"geometry":{"x":173678.37000000104,"y":2541601.5100000016}},{"attributes":{"ID":223102,"DIS_CODE":0,"TOWNNAME":"仁德區","LI":"仁義里","LIN":"34鄰","STREET":"正義三街","SECT":" ","MAREA":" ","LANE":" ","ALLEY":" ","HOUSE_NO":"１５０號七樓","E_COORD97":173812.26000000001,"N_COORD97":2541622.7599999998,"ADDRESS":"正義三街１５０號七樓","OBJECTID":223098},"geometry":{"x":173812.26000000164,"y":2541622.7600000016}},{"attributes":{"ID":223103,"DIS_CODE":0,"TOWNNAME":"仁德區","LI":"仁義里","LIN":"34鄰","STREET":"正義二街","SECT":" ","MAREA":" ","LANE":" ","ALLEY":" ","HOUSE_NO":"１０３號六樓","E_COORD97":173660.20999999999,"N_COORD97":2541599.5099999998,"ADDRESS":"正義二街１０３號六樓","OBJECTID":223099},"geometry":{"x":173660.21000000183,"y":2541599.5099999998}},{"attributes":{"ID":223104,"DIS_CODE":0,"TOWNNAME":"新營區","LI":"新東里","LIN":"22鄰","STREET":"東明街","SECT":" ","MAREA":" ","LANE":"８０巷","ALLEY":" ","HOUSE_NO":"６號","E_COORD97":180817.41,"N_COORD97":2579779.3199999998,"ADDRESS":"東明街８０巷６號","OBJECTID":223100},"geometry":{"x":180817.41000000015,"y":2579779.3200000003}},{"attributes":{"ID":223105,"DIS_CODE":0,"TOWNNAME":"柳營區","LI":"重溪里","LIN":"16鄰","STREET":" ","SECT":" ","MAREA":"小腳腿","LANE":" ","ALLEY":" ","HOUSE_NO":"１６１號","E_COORD97":185210.87,"N_COORD97":2576888.1200000001,"ADDRESS":"小腳腿１６１號","OBJECTID":223101},"geometry":{"x":185210.87000000104,"y":2576888.1200000029}},{"attributes":{"ID":223106,"DIS_CODE":0,"TOWNNAME":"柳營區","LI":"重溪里","LIN":"16鄰","STREET":" ","SECT":" ","MAREA":"小腳腿","LANE":" ","ALLEY":" ","HOUSE_NO":"１６３號之１","E_COORD97":185247.54000000001,"N_COORD97":2576915.3300000001,"ADDRESS":"小腳腿１６３號之１","OBJECTID":223102},"geometry":{"x":185247.54000000004,"y":2576915.3299999982}},{"attributes":{"ID":223107,"DIS_CODE":0,"TOWNNAME":"安南區","LI":"顯宮里","LIN":"1鄰","STREET":"顯宮二街","SECT":" ","MAREA":" ","LANE":" ","ALLEY":" ","HOUSE_NO":"７２號","E_COORD97":160503.95000000001,"N_COORD97":2548717.3599999999,"ADDRESS":"顯宮二街７２號","OBJECTID":223103},"geometry":{"x":160503.95000000019,"y":2548717.3600000013}},{"attributes":{"ID":223108,"DIS_CODE":0,"TOWNNAME":"安南區","LI":"顯宮里","LIN":"1鄰","STREET":"顯宮二街","SECT":" ","MAREA":" ","LANE":" ","ALLEY":" ","HOUSE_NO":"８２號","E_COORD97":160489.26000000001,"N_COORD97":2548748.0899999999,"ADDRESS":"顯宮二街８２號","OBJECTID":223104},"geometry":{"x":160489.25999999978,"y":2548748.0899999999}},{"attributes":{"ID":223109,"DIS_CODE":0,"TOWNNAME":"安南區","LI":"佃東里","LIN":"1鄰","STREET":"安吉路","SECT":"二段","MAREA":" ","LANE":" ","ALLEY":" ","HOUSE_NO":"１之１６９號","E_COORD97":167130.18789900001,"N_COORD97":2551345.7389000002,"ADDRESS":"安吉路二段１之１６９號","OBJECTID":223105},"geometry":{"x":167130.18789900094,"y":2551345.7388960011}},{"attributes":{"ID":223110,"DIS_CODE":0,"TOWNNAME":"安南區","LI":"顯宮里","LIN":"1鄰","STREET":"顯宮二街","SECT":" ","MAREA":" ","LANE":" ","ALLEY":" ","HOUSE_NO":"７０號","E_COORD97":160504.94,"N_COORD97":2548713.0099999998,"ADDRESS":"顯宮二街７０號","OBJECTID":223106},"geometry":{"x":160504.94000000134,"y":2548713.0100000035}},{"attributes":{"ID":223111,"DIS_CODE":0,"TOWNNAME":"東山區","LI":"大客里","LIN":"16鄰","STREET":" ","SECT":" ","MAREA":"凹子\u25A0","LANE":" ","ALLEY":" ","HOUSE_NO":"２６號","E_COORD97":191294.06,"N_COORD97":2579356.8199999998,"ADDRESS":"凹子\u25A0２６號","OBJECTID":223107},"geometry":{"x":191294.05999999866,"y":2579356.820000004}},{"attributes":{"ID":223112,"DIS_CODE":0,"TOWNNAME":"東山區","LI":"大客里","LIN":"16鄰","STREET":" ","SECT":" ","MAREA":"凹子\u25A0","LANE":" ","ALLEY":" ","HOUSE_NO":"２７號","E_COORD97":191323.48000000001,"N_COORD97":2579339.1699999999,"ADDRESS":"凹子\u25A0２７號","OBJECTID":223108},"geometry":{"x":191323.48000000138,"y":2579339.1699999999}},{"attributes":{"ID":223113,"DIS_CODE":0,"TOWNNAME":"安南區","LI":"顯宮里","LIN":"1鄰","STREET":"顯宮二街","SECT":" ","MAREA":" ","LANE":" ","ALLEY":" ","HOUSE_NO":"７８號","E_COORD97":160500.85999999999,"N_COORD97":2548722.6200000001,"ADDRESS":"顯宮二街７８號","OBJECTID":223109},"geometry":{"x":160500.86000000034,"y":2548722.620000001}},{"attributes":{"ID":223114,"DIS_CODE":0,"TOWNNAME":"永康區","LI":"復興里","LIN":"28鄰","STREET":"興國街","SECT":" ","MAREA":" ","LANE":"１８７巷","ALLEY":" ","HOUSE_NO":"７之２號","E_COORD97":172330.59,"N_COORD97":2544857.7999999998,"ADDRESS":"興國街１８７巷７之２號","OBJECTID":223110},"geometry":{"x":172330.59000000078,"y":2544857.8000000026}},{"attributes":{"ID":223115,"DIS_CODE":0,"TOWNNAME":"永康區","LI":"\u25A0洲里","LIN":"28鄰","STREET":"洲尾街","SECT":" ","MAREA":" ","LANE":"１５２巷","ALLEY":" ","HOUSE_NO":"９號","E_COORD97":171067.57999999999,"N_COORD97":2549087.1400000001,"ADDRESS":"洲尾街１５２巷９號","OBJECTID":223111},"geometry":{"x":171067.58000000194,"y":2549087.1400000025}},{"attributes":{"ID":223116,"DIS_CODE":0,"TOWNNAME":"永康區","LI":"\u25A0行里","LIN":"28鄰","STREET":"中正三街","SECT":" ","MAREA":" ","LANE":"４５５巷","ALLEY":" ","HOUSE_NO":"３號","E_COORD97":173048.73000000001,"N_COORD97":2548580.75,"ADDRESS":"中正三街４５５巷３號","OBJECTID":223112},"geometry":{"x":173048.73000000138,"y":2548580.7500000019}},{"attributes":{"ID":223117,"DIS_CODE":0,"TOWNNAME":"永康區","LI":"\u25A0行里","LIN":"28鄰","STREET":"中正三街","SECT":" ","MAREA":" ","LANE":"４８６巷","ALLEY":" ","HOUSE_NO":"３號","E_COORD97":172964.01000000001,"N_COORD97":2548650.7400000002,"ADDRESS":"中正三街４８６巷３號","OBJECTID":223113},"geometry":{"x":172964.00999999978,"y":2548650.7400000039}},{"attributes":{"ID":223118,"DIS_CODE":0,"TOWNNAME":"永康區","LI":"\u25A0行里","LIN":"28鄰","STREET":"中正三街","SECT":" ","MAREA":" ","LANE":"４５５巷","ALLEY":" ","HOUSE_NO":"９號","E_COORD97":173072.32000000001,"N_COORD97":2548579.2400000002,"ADDRESS":"中正三街４５５巷９號","OBJECTID":223114},"geometry":{"x":173072.32000000123,"y":2548579.2400000002}},{"attributes":{"ID":223119,"DIS_CODE":0,"TOWNNAME":"南區","LI":"竹溪里","LIN":"1鄰","STREET":"大同路","SECT":"二段","MAREA":" ","LANE":"四三０巷","ALLEY":" ","HOUSE_NO":"５號","E_COORD97":169409.59,"N_COORD97":2541610.1099999999,"ADDRESS":"大同路二段四三０巷５號","OBJECTID":223115},"geometry":{"x":169409.59000000078,"y":2541610.1100000013}},{"attributes":{"ID":223120,"DIS_CODE":0,"TOWNNAME":"東區","LI":"大福里","LIN":"1鄰","STREET":"榮譽街","SECT":" ","MAREA":" ","LANE":"７巷","ALLEY":" ","HOUSE_NO":"５號之１","E_COORD97":169495.38,"N_COORD97":2541607.8999999999,"ADDRESS":"榮譽街７巷５號之１","OBJECTID":223116},"geometry":{"x":169495.37999999989,"y":2541607.9000000041}},{"attributes":{"ID":223121,"DIS_CODE":0,"TOWNNAME":"仁德區","LI":"仁義里","LIN":"34鄰","STREET":"正義三街","SECT":" ","MAREA":" ","LANE":" ","ALLEY":" ","HOUSE_NO":"１５０號五樓","E_COORD97":173812.26000000001,"N_COORD97":2541622.7599999998,"ADDRESS":"正義三街１５０號五樓","OBJECTID":223117},"geometry":{"x":173812.26000000164,"y":2541622.7600000016}},{"attributes":{"ID":223122,"DIS_CODE":0,"TOWNNAME":"仁德區","LI":"仁義里","LIN":"34鄰","STREET":"正義三街","SECT":" ","MAREA":" ","LANE":" ","ALLEY":" ","HOUSE_NO":"１４０號四樓","E_COORD97":173790.16,"N_COORD97":2541622.0099999998,"ADDRESS":"正義三街１４０號四樓","OBJECTID":223118},"geometry":{"x":173790.16000000108,"y":2541622.0099999998}},{"attributes":{"ID":223123,"DIS_CODE":0,"TOWNNAME":"仁德區","LI":"仁義里","LIN":"34鄰","STREET":"正義二街","SECT":" ","MAREA":" ","LANE":" ","ALLEY":" ","HOUSE_NO":"１５５號五樓","E_COORD97":173817.62,"N_COORD97":2541598.2599999998,"ADDRESS":"正義二街１５５號五樓","OBJECTID":223119},"geometry":{"x":173817.62000000104,"y":2541598.2600000035}},{"attributes":{"ID":223124,"DIS_CODE":0,"TOWNNAME":"仁德區","LI":"仁義里","LIN":"34鄰","STREET":"正義二街","SECT":" ","MAREA":" ","LANE":" ","ALLEY":" ","HOUSE_NO":"１４９號八樓","E_COORD97":173780.62,"N_COORD97":2541595.0099999998,"ADDRESS":"正義二街１４９號八樓","OBJECTID":223120},"geometry":{"x":173780.62000000011,"y":2541595.0099999998}},{"attributes":{"ID":223125,"DIS_CODE":0,"TOWNNAME":"仁德區","LI":"仁義里","LIN":"34鄰","STREET":"正義二街","SECT":" ","MAREA":" ","LANE":" ","ALLEY":" ","HOUSE_NO":"１５１號五樓","E_COORD97":173794.29999999999,"N_COORD97":2541595.0099999998,"ADDRESS":"正義二街１５１號五樓","OBJECTID":223121},"geometry":{"x":173794.29999999981,"y":2541595.0099999998}},{"attributes":{"ID":223126,"DIS_CODE":0,"TOWNNAME":"安南區","LI":"顯宮里","LIN":"1鄰","STREET":"顯宮二街","SECT":" ","MAREA":" ","LANE":"５８巷","ALLEY":" ","HOUSE_NO":"１號","E_COORD97":160517.44,"N_COORD97":2548702.1299999999,"ADDRESS":"顯宮二街５８巷１號","OBJECTID":223122},"geometry":{"x":160517.44000000041,"y":2548702.1300000008}},{"attributes":{"ID":223127,"DIS_CODE":0,"TOWNNAME":"安南區","LI":"顯宮里","LIN":"1鄰","STREET":"顯宮二街","SECT":" ","MAREA":" ","LANE":"５８巷","ALLEY":" ","HOUSE_NO":"３號","E_COORD97":160522.42999999999,"N_COORD97":2548704.3999999999,"ADDRESS":"顯宮二街５８巷３號","OBJECTID":223123},"geometry":{"x":160522.43000000156,"y":2548704.4000000022}},{"attributes":{"ID":223128,"DIS_CODE":0,"TOWNNAME":"永康區","LI":"\u25A0行里","LIN":"28鄰","STREET":"中正三街","SECT":" ","MAREA":" ","LANE":"４５５巷","ALLEY":" ","HOUSE_NO":"１８號","E_COORD97":173089.48000000001,"N_COORD97":2548561.4900000002,"ADDRESS":"中正三街４５５巷１８號","OBJECTID":223124},"geometry":{"x":173089.48000000138,"y":2548561.4900000021}},{"attributes":{"ID":223129,"DIS_CODE":0,"TOWNNAME":"北區","LI":"文成里","LIN":"1鄰","STREET":"和緯路","SECT":"三段","MAREA":" ","LANE":" ","ALLEY":" ","HOUSE_NO":"３０１號","E_COORD97":167632.54000000001,"N_COORD97":2545618.1600000001,"ADDRESS":"和緯路三段３０１號","OBJECTID":223125},"geometry":{"x":167632.54000000004,"y":2545618.160000002}},{"attributes":{"ID":223130,"DIS_CODE":0,"TOWNNAME":"永康區","LI":"\u25A0行里","LIN":"28鄰","STREET":"中正三街","SECT":" ","MAREA":" ","LANE":"４５５巷","ALLEY":" ","HOUSE_NO":"７號","E_COORD97":173064.73000000001,"N_COORD97":2548579.75,"ADDRESS":"中正三街４５５巷７號","OBJECTID":223126},"geometry":{"x":173064.73000000045,"y":2548579.7500000019}},{"attributes":{"ID":223131,"DIS_CODE":0,"TOWNNAME":"善化區","LI":"光文里","LIN":"28鄰","STREET":"中山路","SECT":" ","MAREA":" ","LANE":"２４０巷","ALLEY":" ","HOUSE_NO":"２號之８","E_COORD97":178042.73000000001,"N_COORD97":2559237.77,"ADDRESS":"中山路２４０巷２號之８","OBJECTID":223127},"geometry":{"x":178042.73000000231,"y":2559237.7699999977}},{"attributes":{"ID":223132,"DIS_CODE":0,"TOWNNAME":"永康區","LI":"\u25A0行里","LIN":"28鄰","STREET":"中正五街","SECT":" ","MAREA":" ","LANE":"５３巷","ALLEY":" ","HOUSE_NO":"２號","E_COORD97":172692.39000000001,"N_COORD97":2548496.25,"ADDRESS":"中正五街５３巷２號","OBJECTID":223128},"geometry":{"x":172692.39000000153,"y":2548496.25}},{"attributes":{"ID":223133,"DIS_CODE":0,"TOWNNAME":"永康區","LI":"復興里","LIN":"28鄰","STREET":"興國街","SECT":" ","MAREA":" ","LANE":"１７６巷","ALLEY":" ","HOUSE_NO":"１１號","E_COORD97":172380.64999999999,"N_COORD97":2544913.4900000002,"ADDRESS":"興國街１７６巷１１號","OBJECTID":223129},"geometry":{"x":172380.65000000037,"y":2544913.4900000021}},{"attributes":{"ID":223134,"DIS_CODE":0,"TOWNNAME":"永康區","LI":"龍潭里","LIN":"28鄰","STREET":"中山北路","SECT":" ","MAREA":" ","LANE":"３８５巷","ALLEY":" ","HOUSE_NO":"１１號","E_COORD97":174863.48999999999,"N_COORD97":2547765.6600000001,"ADDRESS":"中山北路３８５巷１１號","OBJECTID":223130},"geometry":{"x":174863.49000000022,"y":2547765.6600000001}},{"attributes":{"ID":223135,"DIS_CODE":0,"TOWNNAME":"永康區","LI":"龍潭里","LIN":"28鄰","STREET":"中山北路","SECT":" ","MAREA":" ","LANE":"３８５巷","ALLEY":" ","HOUSE_NO":"９號","E_COORD97":174863.63,"N_COORD97":2547760.4100000001,"ADDRESS":"中山北路３８５巷９號","OBJECTID":223131},"geometry":{"x":174863.62999999989,"y":2547760.4100000001}},{"attributes":{"ID":223136,"DIS_CODE":0,"TOWNNAME":"中西區","LI":"民權里","LIN":"1鄰","STREET":"海安路","SECT":" ","MAREA":" ","LANE":"２５５巷","ALLEY":" ","HOUSE_NO":"１０號","E_COORD97":167587.97,"N_COORD97":2544045.9700000002,"ADDRESS":"海安路２５５巷１０號","OBJECTID":223132},"geometry":{"x":167587.97000000067,"y":2544045.9700000025}},{"attributes":{"ID":223137,"DIS_CODE":0,"TOWNNAME":"中西區","LI":"民權里","LIN":"1鄰","STREET":"海安路","SECT":" ","MAREA":" ","LANE":"２５５巷","ALLEY":" ","HOUSE_NO":"１０號之１","E_COORD97":167583.38,"N_COORD97":2544047.3799999999,"ADDRESS":"海安路２５５巷１０號之１","OBJECTID":223133},"geometry":{"x":167583.38000000175,"y":2544047.379999999}},{"attributes":{"ID":223138,"DIS_CODE":0,"TOWNNAME":"北區","LI":"文元里","LIN":"1鄰","STREET":"北成路","SECT":" ","MAREA":" ","LANE":" ","ALLEY":" ","HOUSE_NO":"５０１號","E_COORD97":167776.48999999999,"N_COORD97":2546512.8300000001,"ADDRESS":"北成路５０１號","OBJECTID":223134},"geometry":{"x":167776.49000000115,"y":2546512.8300000001}},{"attributes":{"ID":223139,"DIS_CODE":0,"TOWNNAME":"北區","LI":"文元里","LIN":"1鄰","STREET":"北成路","SECT":" ","MAREA":" ","LANE":" ","ALLEY":" ","HOUSE_NO":"５０３號","E_COORD97":167771.56,"N_COORD97":2546513.46,"ADDRESS":"北成路５０３號","OBJECTID":223135},"geometry":{"x":167771.55999999959,"y":2546513.4600000009}},{"attributes":{"ID":223140,"DIS_CODE":0,"TOWNNAME":"安平區","LI":"億載里","LIN":"1鄰","STREET":"平豐路","SECT":" ","MAREA":" ","LANE":" ","ALLEY":"２２弄","HOUSE_NO":"９號","E_COORD97":164370.51999999999,"N_COORD97":2542951.4700000002,"ADDRESS":"平豐路２２弄９號","OBJECTID":223136},"geometry":{"x":164370.52000000048,"y":2542951.4700000025}},{"attributes":{"ID":223141,"DIS_CODE":0,"TOWNNAME":"安南區","LI":"新順里","LIN":"1鄰","STREET":"安豐六街","SECT":" ","MAREA":" ","LANE":" ","ALLEY":" ","HOUSE_NO":"６８之１號","E_COORD97":169425.57999999999,"N_COORD97":2549678.2799999998,"ADDRESS":"安豐六街６８之１號","OBJECTID":223137},"geometry":{"x":169425.58000000101,"y":2549678.2800000012}},{"attributes":{"ID":223142,"DIS_CODE":0,"TOWNNAME":"安南區","LI":"新順里","LIN":"1鄰","STREET":"安豐六街","SECT":" ","MAREA":" ","LANE":" ","ALLEY":" ","HOUSE_NO":"６９號","E_COORD97":169423.07999999999,"N_COORD97":2549697.6899999999,"ADDRESS":"安豐六街６９號","OBJECTID":223138},"geometry":{"x":169423.07999999914,"y":2549697.6899999976}},{"attributes":{"ID":223143,"DIS_CODE":0,"TOWNNAME":"安南區","LI":"顯宮里","LIN":"1鄰","STREET":"顯宮二街","SECT":" ","MAREA":" ","LANE":" ","ALLEY":" ","HOUSE_NO":"８０號","E_COORD97":160498.23000000001,"N_COORD97":2548728.8700000001,"ADDRESS":"顯宮二街８０號","OBJECTID":223139},"geometry":{"x":160498.23000000138,"y":2548728.8700000048}},{"attributes":{"ID":223144,"DIS_CODE":0,"TOWNNAME":"永康區","LI":"復興里","LIN":"28鄰","STREET":"興國街","SECT":" ","MAREA":" ","LANE":"１８２巷","ALLEY":" ","HOUSE_NO":"５號","E_COORD97":172378.07000000001,"N_COORD97":2544927.4900000002,"ADDRESS":"興國街１８２巷５號","OBJECTID":223140},"geometry":{"x":172378.0700000003,"y":2544927.4900000021}},{"attributes":{"ID":223145,"DIS_CODE":0,"TOWNNAME":"永康區","LI":"復興里","LIN":"28鄰","STREET":"興國街","SECT":" ","MAREA":" ","LANE":"１７６巷","ALLEY":" ","HOUSE_NO":"９號","E_COORD97":172376.01000000001,"N_COORD97":2544913.4900000002,"ADDRESS":"興國街１７６巷９號","OBJECTID":223141},"geometry":{"x":172376.00999999978,"y":2544913.4900000021}},{"attributes":{"ID":223146,"DIS_CODE":0,"TOWNNAME":"永康區","LI":"\u25A0行里","LIN":"28鄰","STREET":"竹林街","SECT":" ","MAREA":" ","LANE":"２８巷","ALLEY":" ","HOUSE_NO":"２號","E_COORD97":172693.25,"N_COORD97":2548871.8300000001,"ADDRESS":"竹林街２８巷２號","OBJECTID":223142},"geometry":{"x":172693.25,"y":2548871.8300000019}},{"attributes":{"ID":223147,"DIS_CODE":0,"TOWNNAME":"永康區","LI":"復華里","LIN":"28鄰","STREET":"復華八街","SECT":" ","MAREA":" ","LANE":"４３巷","ALLEY":" ","HOUSE_NO":"１０號","E_COORD97":172736.82000000001,"N_COORD97":2546317.7799999998,"ADDRESS":"復華八街４３巷１０號","OBJECTID":223143},"geometry":{"x":172736.8200000003,"y":2546317.7800000012}},{"attributes":{"ID":223148,"DIS_CODE":0,"TOWNNAME":"東區","LI":"崇信里","LIN":"28鄰","STREET":"崇善一街","SECT":" ","MAREA":" ","LANE":"３巷","ALLEY":" ","HOUSE_NO":"３９號","E_COORD97":170613.57000000001,"N_COORD97":2542187.6200000001,"ADDRESS":"崇善一街３巷３９號","OBJECTID":223144},"geometry":{"x":170613.57000000216,"y":2542187.6200000029}},{"attributes":{"ID":223149,"DIS_CODE":0,"TOWNNAME":"東區","LI":"崇信里","LIN":"28鄰","STREET":"崇善一街","SECT":" ","MAREA":" ","LANE":"３巷","ALLEY":" ","HOUSE_NO":"４１號","E_COORD97":170609.95999999999,"N_COORD97":2542190.5,"ADDRESS":"崇善一街３巷４１號","OBJECTID":223145},"geometry":{"x":170609.95999999996,"y":2542190.5000000019}},{"attributes":{"ID":223150,"DIS_CODE":0,"TOWNNAME":"歸仁區","LI":"崙頂里","LIN":"28鄰","STREET":"成功十街","SECT":" ","MAREA":" ","LANE":"６２巷","ALLEY":" ","HOUSE_NO":"１６號","E_COORD97":177806.16,"N_COORD97":2539692.8199999998,"ADDRESS":"成功十街６２巷１６號","OBJECTID":223146},"geometry":{"x":177806.16000000108,"y":2539692.820000004}},{"attributes":{"ID":223151,"DIS_CODE":0,"TOWNNAME":"歸仁區","LI":"歸仁里","LIN":"28鄰","STREET":"中山路","SECT":"一段","MAREA":" ","LANE":"３０巷","ALLEY":" ","HOUSE_NO":"１７號","E_COORD97":179582.67999999999,"N_COORD97":2540406.5699999998,"ADDRESS":"中山路一段３０巷１７號","OBJECTID":223147},"geometry":{"x":179582.6799999997,"y":2540406.570000004}},{"attributes":{"ID":223152,"DIS_CODE":0,"TOWNNAME":"新營區","LI":"民榮里","LIN":"28鄰","STREET":"復興路","SECT":" ","MAREA":" ","LANE":"５１１巷","ALLEY":" ","HOUSE_NO":"５７號","E_COORD97":178094.20999999999,"N_COORD97":2578137.7599999998,"ADDRESS":"復興路５１１巷５７號","OBJECTID":223148},"geometry":{"x":178094.20999999996,"y":2578137.7600000016}},{"attributes":{"ID":223153,"DIS_CODE":0,"TOWNNAME":"東區","LI":"仁和里","LIN":"1鄰","STREET":"仁和路","SECT":" ","MAREA":" ","LANE":"１０７巷","ALLEY":" ","HOUSE_NO":"４號二樓","E_COORD97":171372.73000000001,"N_COORD97":2541341.6800000002,"ADDRESS":"仁和路１０７巷４號二樓","OBJECTID":223149},"geometry":{"x":171372.73000000138,"y":2541341.6800000016}},{"attributes":{"ID":223154,"DIS_CODE":0,"TOWNNAME":"安南區","LI":"新順里","LIN":"1鄰","STREET":"安豐六街","SECT":" ","MAREA":" ","LANE":" ","ALLEY":" ","HOUSE_NO":"６７號","E_COORD97":169418.23000000001,"N_COORD97":2549698.8199999998,"ADDRESS":"安豐六街６７號","OBJECTID":223150},"geometry":{"x":169418.23000000138,"y":2549698.8200000022}},{"attributes":{"ID":223155,"DIS_CODE":0,"TOWNNAME":"安平區","LI":"國平里","LIN":"1鄰","STREET":"建平七街","SECT":" ","MAREA":" ","LANE":" ","ALLEY":" ","HOUSE_NO":"６號","E_COORD97":166551.54000000001,"N_COORD97":2543206.8999999999,"ADDRESS":"建平七街６號","OBJECTID":223151},"geometry":{"x":166551.54000000004,"y":2543206.9000000004}},{"attributes":{"ID":223156,"DIS_CODE":0,"TOWNNAME":"安南區","LI":"布袋里","LIN":"1鄰","STREET":"長和路","SECT":"四段","MAREA":" ","LANE":"２３１巷","ALLEY":" ","HOUSE_NO":"１４６號","E_COORD97":168803.25,"N_COORD97":2551333.1600000001,"ADDRESS":"長和路四段２３１巷１４６號","OBJECTID":223152},"geometry":{"x":168803.25000000186,"y":2551333.1600000039}},{"attributes":{"ID":223157,"DIS_CODE":0,"TOWNNAME":"安南區","LI":"東和里","LIN":"1鄰","STREET":"長和路","SECT":"一段","MAREA":" ","LANE":"８７１巷","ALLEY":" ","HOUSE_NO":"３４之１號","E_COORD97":170713.39999999999,"N_COORD97":2551458.96,"ADDRESS":"長和路一段８７１巷３４之１號","OBJECTID":223153},"geometry":{"x":170713.4000000013,"y":2551458.9600000009}},{"attributes":{"ID":223158,"DIS_CODE":0,"TOWNNAME":"安南區","LI":"東和里","LIN":"1鄰","STREET":"長和路","SECT":"一段","MAREA":" ","LANE":"８７１巷","ALLEY":" ","HOUSE_NO":"３２號","E_COORD97":170716.28,"N_COORD97":2551450.0699999998,"ADDRESS":"長和路一段８７１巷３２號","OBJECTID":223154},"geometry":{"x":170716.28000000119,"y":2551450.0700000022}},{"attributes":{"ID":223159,"DIS_CODE":0,"TOWNNAME":"安南區","LI":"東和里","LIN":"1鄰","STREET":"長和路","SECT":"一段","MAREA":" ","LANE":"８７１巷","ALLEY":" ","HOUSE_NO":"３０號","E_COORD97":170720.13,"N_COORD97":2551451.2799999998,"ADDRESS":"長和路一段８７１巷３０號","OBJECTID":223155},"geometry":{"x":170720.13000000082,"y":2551451.2800000012}},{"attributes":{"ID":223160,"DIS_CODE":0,"TOWNNAME":"安南區","LI":"東和里","LIN":"1鄰","STREET":"長和路","SECT":"一段","MAREA":" ","LANE":"８７１巷","ALLEY":" ","HOUSE_NO":"２８號","E_COORD97":170725.42000000001,"N_COORD97":2551452.7200000002,"ADDRESS":"長和路一段８７１巷２８號","OBJECTID":223156},"geometry":{"x":170725.41999999993,"y":2551452.7200000025}},{"attributes":{"ID":223161,"DIS_CODE":0,"TOWNNAME":"歸仁區","LI":"後市里","LIN":"45鄰","STREET":"國光街","SECT":" ","MAREA":" ","LANE":" ","ALLEY":" ","HOUSE_NO":"３５號","E_COORD97":177091.41188999999,"N_COORD97":2540962.5370100001,"ADDRESS":"國光街３５號","OBJECTID":223157},"geometry":{"x":177091.41189000104,"y":2540962.537010001}},{"attributes":{"ID":223162,"DIS_CODE":0,"TOWNNAME":"新營區","LI":"新東里","LIN":"28鄰","STREET":"東興九街","SECT":" ","MAREA":" ","LANE":"１２巷","ALLEY":" ","HOUSE_NO":"１５號","E_COORD97":180696.10999999999,"N_COORD97":2579821.9700000002,"ADDRESS":"東興九街１２巷１５號","OBJECTID":223158},"geometry":{"x":180696.11000000034,"y":2579821.9700000025}},{"attributes":{"ID":223163,"DIS_CODE":0,"TOWNNAME":"東區","LI":"富裕里","LIN":"14鄰","STREET":"裕豐街","SECT":" ","MAREA":" ","LANE":" ","ALLEY":" ","HOUSE_NO":"１０６號","E_COORD97":170740.17999999999,"N_COORD97":2542881.75,"ADDRESS":"裕豐街１０６號","OBJECTID":223159},"geometry":{"x":170740.1799999997,"y":2542881.75}},{"attributes":{"ID":223164,"DIS_CODE":0,"TOWNNAME":"歸仁區","LI":"媽廟里","LIN":"28鄰","STREET":"保大路","SECT":"一段","MAREA":" ","LANE":"１５２巷","ALLEY":" ","HOUSE_NO":"１４號","E_COORD97":177735.88,"N_COORD97":2544126.7200000002,"ADDRESS":"保大路一段１５２巷１４號","OBJECTID":223160},"geometry":{"x":177735.88000000175,"y":2544126.7200000025}},{"attributes":{"ID":223165,"DIS_CODE":0,"TOWNNAME":"新營區","LI":"南興里","LIN":"28鄰","STREET":"建業路","SECT":" ","MAREA":" ","LANE":"１３７巷","ALLEY":" ","HOUSE_NO":"１９號","E_COORD97":178439.56,"N_COORD97":2577426.1899999999,"ADDRESS":"建業路１３７巷１９號","OBJECTID":223161},"geometry":{"x":178439.56000000145,"y":2577426.1899999995}},{"attributes":{"ID":223166,"DIS_CODE":0,"TOWNNAME":"新營區","LI":"南興里","LIN":"28鄰","STREET":"建業路","SECT":" ","MAREA":" ","LANE":"１３７巷","ALLEY":" ","HOUSE_NO":"２１號","E_COORD97":178438.57999999999,"N_COORD97":2577421.7799999998,"ADDRESS":"建業路１３７巷２１號","OBJECTID":223162},"geometry":{"x":178438.58000000101,"y":2577421.7800000012}},{"attributes":{"ID":223167,"DIS_CODE":0,"TOWNNAME":"新營區","LI":"新東里","LIN":"28鄰","STREET":"東光街","SECT":" ","MAREA":" ","LANE":"８２巷","ALLEY":" ","HOUSE_NO":"９號","E_COORD97":180636.72,"N_COORD97":2579642.8300000001,"ADDRESS":"東光街８２巷９號","OBJECTID":223163},"geometry":{"x":180636.71999999974,"y":2579642.8300000019}},{"attributes":{"ID":223168,"DIS_CODE":0,"TOWNNAME":"安平區","LI":"平通里","LIN":"28鄰","STREET":"育平七街","SECT":" ","MAREA":" ","LANE":"８０巷","ALLEY":" ","HOUSE_NO":"２９號","E_COORD97":164379.16,"N_COORD97":2543844.3500000001,"ADDRESS":"育平七街８０巷２９號","OBJECTID":223164},"geometry":{"x":164379.16000000015,"y":2543844.3499999996}},{"attributes":{"ID":223169,"DIS_CODE":0,"TOWNNAME":"歸仁區","LI":"歸仁里","LIN":"28鄰","STREET":"中山路","SECT":"一段","MAREA":" ","LANE":"３０巷","ALLEY":" ","HOUSE_NO":"３號","E_COORD97":179578.13,"N_COORD97":2540364.5699999998,"ADDRESS":"中山路一段３０巷３號","OBJECTID":223165},"geometry":{"x":179578.12999999989,"y":2540364.5700000003}},{"attributes":{"ID":223170,"DIS_CODE":0,"TOWNNAME":"歸仁區","LI":"媽廟里","LIN":"28鄰","STREET":"保大路","SECT":"一段","MAREA":" ","LANE":"１５２巷","ALLEY":" ","HOUSE_NO":"３６號","E_COORD97":177718.48000000001,"N_COORD97":2544248.25,"ADDRESS":"保大路一段１５２巷３６號","OBJECTID":223166},"geometry":{"x":177718.48000000045,"y":2544248.25}},{"attributes":{"ID":223171,"DIS_CODE":0,"TOWNNAME":"歸仁區","LI":"南保里","LIN":"28鄰","STREET":"民權北路","SECT":" ","MAREA":" ","LANE":"６１巷","ALLEY":" ","HOUSE_NO":"７０號","E_COORD97":176814.23999999999,"N_COORD97":2541053.29,"ADDRESS":"民權北路６１巷７０號","OBJECTID":223167},"geometry":{"x":176814.24000000022,"y":2541053.2899999991}},{"attributes":{"ID":223172,"DIS_CODE":0,"TOWNNAME":"新營區","LI":"大宏里","LIN":"28鄰","STREET":"新東街","SECT":" ","MAREA":" ","LANE":"３４巷","ALLEY":" ","HOUSE_NO":"１３號","E_COORD97":180821.48999999999,"N_COORD97":2578635.3100000001,"ADDRESS":"新東街３４巷１３號","OBJECTID":223168},"geometry":{"x":180821.49000000115,"y":2578635.3100000042}},{"attributes":{"ID":223173,"DIS_CODE":0,"TOWNNAME":"東區","LI":"圍下里","LIN":"11鄰","STREET":"青年路","SECT":" ","MAREA":" ","LANE":" ","ALLEY":" ","HOUSE_NO":"２２７號","E_COORD97":169239.67999999999,"N_COORD97":2543569.9900000002,"ADDRESS":"青年路２２７號","OBJECTID":223169},"geometry":{"x":169239.68000000063,"y":2543569.9899999984}},{"attributes":{"ID":223174,"DIS_CODE":0,"TOWNNAME":"北區","LI":"文成里","LIN":"1鄰","STREET":"和緯路","SECT":"三段","MAREA":" ","LANE":"３０３巷","ALLEY":" ","HOUSE_NO":"７號","E_COORD97":167646.03,"N_COORD97":2545581.6400000001,"ADDRESS":"和緯路三段３０３巷７號","OBJECTID":223170},"geometry":{"x":167646.03000000119,"y":2545581.6400000025}},{"attributes":{"ID":223175,"DIS_CODE":0,"TOWNNAME":"北區","LI":"文成里","LIN":"1鄰","STREET":"和緯路","SECT":"三段","MAREA":" ","LANE":"３０３巷","ALLEY":" ","HOUSE_NO":"９號","E_COORD97":167649.20999999999,"N_COORD97":2545573.5499999998,"ADDRESS":"和緯路三段３０３巷９號","OBJECTID":223171},"geometry":{"x":167649.21000000089,"y":2545573.5500000007}},{"attributes":{"ID":223176,"DIS_CODE":0,"TOWNNAME":"永康區","LI":"正強里","LIN":" ","STREET":"自強路","SECT":" ","MAREA":" ","LANE":"３６８巷","ALLEY":" ","HOUSE_NO":"４號","E_COORD97":173512.75,"N_COORD97":2547704.4900000002,"ADDRESS":"自強路３６８巷４號","OBJECTID":223172},"geometry":{"x":173512.75000000093,"y":2547704.4900000021}},{"attributes":{"ID":223177,"DIS_CODE":0,"TOWNNAME":"永康區","LI":"\u25A0洲里","LIN":"8鄰","STREET":"中正南路","SECT":" ","MAREA":" ","LANE":"８４５巷","ALLEY":" ","HOUSE_NO":"３之１號","E_COORD97":171754.79999999999,"N_COORD97":2549068.6400000001,"ADDRESS":"中正南路８４５巷３之１號","OBJECTID":223173},"geometry":{"x":171754.80000000075,"y":2549068.6399999987}},{"attributes":{"ID":223178,"DIS_CODE":0,"TOWNNAME":"仁德區","LI":"仁義里","LIN":"34鄰","STREET":"正義二街","SECT":" ","MAREA":" ","LANE":" ","ALLEY":" ","HOUSE_NO":"１６２號六樓","E_COORD97":173824.79000000001,"N_COORD97":2541580.27,"ADDRESS":"正義二街１６２號六樓","OBJECTID":223174},"geometry":{"x":173824.79000000097,"y":2541580.2699999996}},{"attributes":{"ID":223179,"DIS_CODE":0,"TOWNNAME":"永康區","LI":"復國里","LIN":"34鄰","STREET":"復華一街","SECT":" ","MAREA":" ","LANE":" ","ALLEY":" ","HOUSE_NO":"６５號四樓之３","E_COORD97":172536.45999999999,"N_COORD97":2545071.5499999998,"ADDRESS":"復華一街６５號四樓之３","OBJECTID":223175},"geometry":{"x":172536.46000000089,"y":2545071.5500000007}},{"attributes":{"ID":223180,"DIS_CODE":0,"TOWNNAME":"永康區","LI":"復國里","LIN":"34鄰","STREET":"復華一街","SECT":" ","MAREA":" ","LANE":" ","ALLEY":" ","HOUSE_NO":"６５號八樓之２","E_COORD97":172536.5,"N_COORD97":2545071.5499999998,"ADDRESS":"復華一街６５號八樓之２","OBJECTID":223176},"geometry":{"x":172536.50000000093,"y":2545071.5500000007}},{"attributes":{"ID":223181,"DIS_CODE":0,"TOWNNAME":"永康區","LI":"復國里","LIN":"34鄰","STREET":"復華一街","SECT":" ","MAREA":" ","LANE":" ","ALLEY":" ","HOUSE_NO":"６５號九樓之１","E_COORD97":172536.37,"N_COORD97":2545071.5499999998,"ADDRESS":"復華一街６５號九樓之１","OBJECTID":223177},"geometry":{"x":172536.37000000011,"y":2545071.5500000007}},{"attributes":{"ID":223182,"DIS_CODE":0,"TOWNNAME":"永康區","LI":"復國里","LIN":"34鄰","STREET":"復華一街","SECT":" ","MAREA":" ","LANE":" ","ALLEY":" ","HOUSE_NO":"７３號五樓之１","E_COORD97":172520.01000000001,"N_COORD97":2545071.0499999998,"ADDRESS":"復華一街７３號五樓之１","OBJECTID":223178},"geometry":{"x":172520.00999999978,"y":2545071.0500000007}},{"attributes":{"ID":223183,"DIS_CODE":0,"TOWNNAME":"東區","LI":"泉南里","LIN":"34鄰","STREET":"林森路","SECT":"一段","MAREA":" ","LANE":" ","ALLEY":" ","HOUSE_NO":"１４９號二樓","E_COORD97":169495.73000000001,"N_COORD97":2542552.3999999999,"ADDRESS":"林森路一段１４９號二樓","OBJECTID":223179},"geometry":{"x":169495.73000000138,"y":2542552.4000000004}},{"attributes":{"ID":223184,"DIS_CODE":0,"TOWNNAME":"安平區","LI":"平安里","LIN":"1鄰","STREET":"安平路","SECT":" ","MAREA":" ","LANE":" ","ALLEY":" ","HOUSE_NO":"５４號","E_COORD97":166495.10000000001,"N_COORD97":2544314.5699999998,"ADDRESS":"安平路５４號","OBJECTID":223180},"geometry":{"x":166495.10000000149,"y":2544314.5700000003}},{"attributes":{"ID":223185,"DIS_CODE":0,"TOWNNAME":"安平區","LI":"平安里","LIN":"1鄰","STREET":"安平路","SECT":" ","MAREA":" ","LANE":" ","ALLEY":" ","HOUSE_NO":"１１４號","E_COORD97":166313.20000000001,"N_COORD97":2544333.5899999999,"ADDRESS":"安平路１１４號","OBJECTID":223181},"geometry":{"x":166313.20000000019,"y":2544333.5900000017}},{"attributes":{"ID":223186,"DIS_CODE":0,"TOWNNAME":"安平區","LI":"平安里","LIN":"1鄰","STREET":"安平路","SECT":" ","MAREA":" ","LANE":" ","ALLEY":" ","HOUSE_NO":"１１２號","E_COORD97":166318.79999999999,"N_COORD97":2544333.5899999999,"ADDRESS":"安平路１１２號","OBJECTID":223182},"geometry":{"x":166318.79999999981,"y":2544333.5900000017}},{"attributes":{"ID":223187,"DIS_CODE":0,"TOWNNAME":"安平區","LI":"平安里","LIN":"1鄰","STREET":"安平路","SECT":" ","MAREA":" ","LANE":" ","ALLEY":" ","HOUSE_NO":"１１６號","E_COORD97":166308.79000000001,"N_COORD97":2544334.1800000002,"ADDRESS":"安平路１１６號","OBJECTID":223183},"geometry":{"x":166308.79000000004,"y":2544334.1799999997}},{"attributes":{"ID":223188,"DIS_CODE":0,"TOWNNAME":"新營區","LI":"忠政里","LIN":"28鄰","STREET":"中正路","SECT":" ","MAREA":" ","LANE":"３９巷","ALLEY":" ","HOUSE_NO":"９３號","E_COORD97":179836.35000000001,"N_COORD97":2579262.3300000001,"ADDRESS":"中正路３９巷９３號","OBJECTID":223184},"geometry":{"x":179836.35000000056,"y":2579262.3300000019}},{"attributes":{"ID":223189,"DIS_CODE":0,"TOWNNAME":"南區","LI":"明亮里","LIN":"28鄰","STREET":"金華路","SECT":"一段","MAREA":" ","LANE":"４８４巷","ALLEY":" ","HOUSE_NO":"２１８號","E_COORD97":167411.53,"N_COORD97":2541115.5600000001,"ADDRESS":"金華路一段４８４巷２１８號","OBJECTID":223185},"geometry":{"x":167411.53000000212,"y":2541115.5600000042}},{"attributes":{"ID":223190,"DIS_CODE":0,"TOWNNAME":"北區","LI":"文元里","LIN":"28鄰","STREET":"文賢一路","SECT":" ","MAREA":" ","LANE":"３００巷","ALLEY":" ","HOUSE_NO":"２９號","E_COORD97":167641.94,"N_COORD97":2545811.0800000001,"ADDRESS":"文賢一路３００巷２９號","OBJECTID":223186},"geometry":{"x":167641.94000000134,"y":2545811.0800000019}},{"attributes":{"ID":223191,"DIS_CODE":0,"TOWNNAME":"安平區","LI":"平安里","LIN":"1鄰","STREET":"安平路","SECT":" ","MAREA":" ","LANE":" ","ALLEY":" ","HOUSE_NO":"１１８號","E_COORD97":166305.84,"N_COORD97":2544334.1800000002,"ADDRESS":"安平路１１８號","OBJECTID":223187},"geometry":{"x":166305.84000000078,"y":2544334.1799999997}},{"attributes":{"ID":223192,"DIS_CODE":0,"TOWNNAME":"新營區","LI":"忠政里","LIN":"28鄰","STREET":"中正路","SECT":" ","MAREA":" ","LANE":"３９巷","ALLEY":" ","HOUSE_NO":"８７號","E_COORD97":179856.89999999999,"N_COORD97":2579261.1200000001,"ADDRESS":"中正路３９巷８７號","OBJECTID":223188},"geometry":{"x":179856.90000000224,"y":2579261.1200000029}},{"attributes":{"ID":223193,"DIS_CODE":0,"TOWNNAME":"南區","LI":"文南里","LIN":"28鄰","STREET":"中華西路","SECT":"一段","MAREA":" ","LANE":"１０９巷","ALLEY":" ","HOUSE_NO":"７０號","E_COORD97":166240.13,"N_COORD97":2542469.1499999999,"ADDRESS":"中華西路一段１０９巷７０號","OBJECTID":223189},"geometry":{"x":166240.12999999989,"y":2542469.1500000004}},{"attributes":{"ID":223194,"DIS_CODE":0,"TOWNNAME":"南區","LI":"文南里","LIN":"28鄰","STREET":"中華西路","SECT":"一段","MAREA":" ","LANE":"１０９巷","ALLEY":" ","HOUSE_NO":"７２號","E_COORD97":166226.48000000001,"N_COORD97":2542472.5600000001,"ADDRESS":"中華西路一段１０９巷７２號","OBJECTID":223190},"geometry":{"x":166226.48000000045,"y":2542472.5600000024}},{"attributes":{"ID":223195,"DIS_CODE":0,"TOWNNAME":"南區","LI":"文南里","LIN":"28鄰","STREET":"中華西路","SECT":"一段","MAREA":" ","LANE":"１０９巷","ALLEY":" ","HOUSE_NO":"７４號","E_COORD97":166218.06,"N_COORD97":2542473.9900000002,"ADDRESS":"中華西路一段１０９巷７４號","OBJECTID":223191},"geometry":{"x":166218.06000000052,"y":2542473.9900000002}},{"attributes":{"ID":223196,"DIS_CODE":0,"TOWNNAME":"永康區","LI":"甲頂里","LIN":"28鄰","STREET":"中央路","SECT":" ","MAREA":" ","LANE":"２３巷","ALLEY":" ","HOUSE_NO":"３０號","E_COORD97":169512.69,"N_COORD97":2546986.5699999998,"ADDRESS":"中央路２３巷３０號","OBJECTID":223192},"geometry":{"x":169512.69000000227,"y":2546986.5700000003}},{"attributes":{"ID":223197,"DIS_CODE":0,"TOWNNAME":"永康區","LI":"甲頂里","LIN":"28鄰","STREET":"中央路","SECT":" ","MAREA":" ","LANE":"２３巷","ALLEY":" ","HOUSE_NO":"１０號","E_COORD97":169572.69,"N_COORD97":2547003.5600000001,"ADDRESS":"中央路２３巷１０號","OBJECTID":223193},"geometry":{"x":169572.69000000134,"y":2547003.5600000005}},{"attributes":{"ID":223198,"DIS_CODE":0,"TOWNNAME":"安平區","LI":"平安里","LIN":"1鄰","STREET":"安平路","SECT":" ","MAREA":" ","LANE":" ","ALLEY":" ","HOUSE_NO":"１２０號","E_COORD97":166302.60000000001,"N_COORD97":2544334.4700000002,"ADDRESS":"安平路１２０號","OBJECTID":223194},"geometry":{"x":166302.60000000056,"y":2544334.4700000025}},{"attributes":{"ID":223199,"DIS_CODE":0,"TOWNNAME":"安平區","LI":"平通里","LIN":"1鄰","STREET":"國平路","SECT":" ","MAREA":" ","LANE":" ","ALLEY":" ","HOUSE_NO":"５９９號之３","E_COORD97":165068.51999999999,"N_COORD97":2544152.3199999998,"ADDRESS":"國平路５９９號之３","OBJECTID":223195},"geometry":{"x":165068.52000000048,"y":2544152.3200000022}},{"attributes":{"ID":223200,"DIS_CODE":0,"TOWNNAME":"安平區","LI":"平安里","LIN":"1鄰","STREET":"安平路","SECT":" ","MAREA":" ","LANE":" ","ALLEY":" ","HOUSE_NO":"６８號","E_COORD97":166441.85999999999,"N_COORD97":2544319.1600000001,"ADDRESS":"安平路６８號","OBJECTID":223196},"geometry":{"x":166441.86000000127,"y":2544319.160000002}},{"attributes":{"ID":223201,"DIS_CODE":0,"TOWNNAME":"東區","LI":"富裕里","LIN":"13鄰","STREET":"裕豐街","SECT":" ","MAREA":" ","LANE":" ","ALLEY":" ","HOUSE_NO":"８３號","E_COORD97":170725.67000000001,"N_COORD97":2542884.8599999999,"ADDRESS":"裕豐街８３號","OBJECTID":223197},"geometry":{"x":170725.66999999993,"y":2542884.8599999994}},{"attributes":{"ID":223202,"DIS_CODE":0,"TOWNNAME":"永康區","LI":"永康里","LIN":"28鄰","STREET":"永康街","SECT":" ","MAREA":" ","LANE":"３１０巷","ALLEY":" ","HOUSE_NO":"４６號","E_COORD97":174217.04000000001,"N_COORD97":2546937.4700000002,"ADDRESS":"永康街３１０巷４６號","OBJECTID":223198},"geometry":{"x":174217.04000000004,"y":2546937.4700000044}},{"attributes":{"ID":223203,"DIS_CODE":0,"TOWNNAME":"永康區","LI":"甲頂里","LIN":"28鄰","STREET":"中央路","SECT":" ","MAREA":" ","LANE":"２３巷","ALLEY":" ","HOUSE_NO":"６２號","E_COORD97":169426.44,"N_COORD97":2546928.2999999998,"ADDRESS":"中央路２３巷６２號","OBJECTID":223199},"geometry":{"x":169426.44000000134,"y":2546928.2999999989}},{"attributes":{"ID":223204,"DIS_CODE":0,"TOWNNAME":"永康區","LI":"\u25A0洲里","LIN":" ","STREET":"鹽行路","SECT":" ","MAREA":" ","LANE":" ","ALLEY":" ","HOUSE_NO":"３９號","E_COORD97":171674.14999999999,"N_COORD97":2549160.4199999999,"ADDRESS":"鹽行路３９號","OBJECTID":223200},"geometry":{"x":171674.14999999944,"y":2549160.4199999999}}]}