{"displayFieldName":"TOWNNAME","fieldAliases":{"ID":"ID","DIS_CODE":"DIS_CODE","TOWNNAME":"TOWNNAME","LI":"LI","LIN":"LIN","STREET":"STREET","SECT":"SECT","MAREA":"MAREA","LANE":"LANE","ALLEY":"ALLEY","HOUSE_NO":"HOUSE_NO","E_COORD97":"E_COORD97","N_COORD97":"N_COORD97","ADDRESS":"ADDRESS","OBJECTID":"OBJECTID"},"geometryType":"esriGeometryPoint","spatialReference":{"wkid":102443,"latestWkid":3826},"fields":[{"name":"ID","type":"esriFieldTypeDouble","alias":"ID"},{"name":"DIS_CODE","type":"esriFieldTypeInteger","alias":"DIS_CODE"},{"name":"TOWNNAME","type":"esriFieldTypeString","alias":"TOWNNAME","length":8},{"name":"LI","type":"esriFieldTypeString","alias":"LI","length":8},{"name":"LIN","type":"esriFieldTypeString","alias":"LIN","length":12},{"name":"STREET","type":"esriFieldTypeString","alias":"STREET","length":20},{"name":"SECT","type":"esriFieldTypeString","alias":"SECT","length":8},{"name":"MAREA","type":"esriFieldTypeString","alias":"MAREA","length":12},{"name":"LANE","type":"esriFieldTypeString","alias":"LANE","length":10},{"name":"ALLEY","type":"esriFieldTypeString","alias":"ALLEY","length":10},{"name":"HOUSE_NO","type":"esriFieldTypeString","alias":"HOUSE_NO","length":20},{"name":"E_COORD97","type":"esriFieldTypeDouble","alias":"E_COORD97"},{"name":"N_COORD97","type":"esriFieldTypeDouble","alias":"N_COORD97"},{"name":"ADDRESS","type":"esriFieldTypeString","alias":"ADDRESS","length":50},{"name":"OBJECTID","type":"esriFieldTypeOID","alias":"OBJECTID"}],"features":[{"attributes":{"ID":589628,"DIS_CODE":0,"TOWNNAME":"東區","LI":"中西里","LIN":"11鄰","STREET":"東寧路","SECT":" ","MAREA":" ","LANE":" ","ALLEY":" ","HOUSE_NO":"１２號之２","E_COORD97":169892.64000000001,"N_COORD97":2543629.4100000001,"ADDRESS":"東寧路１２號之２","OBJECTID":589601},"geometry":{"x":169892.6400000006,"y":2543629.410000002}},{"attributes":{"ID":589629,"DIS_CODE":0,"TOWNNAME":"中西區","LI":"五妃里","LIN":"11鄰","STREET":"南門路","SECT":" ","MAREA":" ","LANE":" ","ALLEY":" ","HOUSE_NO":"２１７號","E_COORD97":168412.72,"N_COORD97":2542833.5499999998,"ADDRESS":"南門路２１７號","OBJECTID":589602},"geometry":{"x":168412.71999999974,"y":2542833.5500000007}},{"attributes":{"ID":589630,"DIS_CODE":0,"TOWNNAME":"中西區","LI":"五妃里","LIN":"11鄰","STREET":"南門路","SECT":" ","MAREA":" ","LANE":" ","ALLEY":" ","HOUSE_NO":"２１９號","E_COORD97":168412.72,"N_COORD97":2542830.04,"ADDRESS":"南門路２１９號","OBJECTID":589603},"geometry":{"x":168412.71999999974,"y":2542830.040000001}},{"attributes":{"ID":589631,"DIS_CODE":0,"TOWNNAME":"中西區","LI":"五妃里","LIN":"11鄰","STREET":"南門路","SECT":" ","MAREA":" ","LANE":" ","ALLEY":" ","HOUSE_NO":"２２１號","E_COORD97":168412.48000000001,"N_COORD97":2542826.1600000001,"ADDRESS":"南門路２２１號","OBJECTID":589604},"geometry":{"x":168412.48000000138,"y":2542826.1600000001}},{"attributes":{"ID":589632,"DIS_CODE":0,"TOWNNAME":"中西區","LI":"五妃里","LIN":"11鄰","STREET":"南門路","SECT":" ","MAREA":" ","LANE":" ","ALLEY":" ","HOUSE_NO":"２２３號","E_COORD97":168412.23999999999,"N_COORD97":2542821.3100000001,"ADDRESS":"南門路２２３號","OBJECTID":589605},"geometry":{"x":168412.24000000115,"y":2542821.3100000005}},{"attributes":{"ID":589633,"DIS_CODE":0,"TOWNNAME":"中西區","LI":"五妃里","LIN":"11鄰","STREET":"南寧街","SECT":" ","MAREA":" ","LANE":" ","ALLEY":" ","HOUSE_NO":"１０號","E_COORD97":168522.37,"N_COORD97":2542803.0699999998,"ADDRESS":"南寧街１０號","OBJECTID":589606},"geometry":{"x":168522.37000000011,"y":2542803.0700000003}},{"attributes":{"ID":589634,"DIS_CODE":0,"TOWNNAME":"中西區","LI":"五妃里","LIN":"11鄰","STREET":"南寧街","SECT":" ","MAREA":" ","LANE":" ","ALLEY":" ","HOUSE_NO":"１２號","E_COORD97":168510.88,"N_COORD97":2542799.1200000001,"ADDRESS":"南寧街１２號","OBJECTID":589607},"geometry":{"x":168510.88000000082,"y":2542799.120000001}},{"attributes":{"ID":589635,"DIS_CODE":0,"TOWNNAME":"中西區","LI":"五妃里","LIN":"11鄰","STREET":"南寧街","SECT":" ","MAREA":" ","LANE":" ","ALLEY":" ","HOUSE_NO":"１４號","E_COORD97":168501.69,"N_COORD97":2542800.0099999998,"ADDRESS":"南寧街１４號","OBJECTID":589608},"geometry":{"x":168501.69000000041,"y":2542800.0100000035}},{"attributes":{"ID":589636,"DIS_CODE":0,"TOWNNAME":"中西區","LI":"五妃里","LIN":"11鄰","STREET":"南寧街","SECT":" ","MAREA":" ","LANE":" ","ALLEY":" ","HOUSE_NO":"１６號","E_COORD97":168494.79000000001,"N_COORD97":2542801.7999999998,"ADDRESS":"南寧街１６號","OBJECTID":589609},"geometry":{"x":168494.79000000097,"y":2542801.8000000007}},{"attributes":{"ID":589637,"DIS_CODE":0,"TOWNNAME":"中西區","LI":"五妃里","LIN":"11鄰","STREET":"南寧街","SECT":" ","MAREA":" ","LANE":" ","ALLEY":" ","HOUSE_NO":"１８號","E_COORD97":168484.32000000001,"N_COORD97":2542803.46,"ADDRESS":"南寧街１８號","OBJECTID":589610},"geometry":{"x":168484.32000000216,"y":2542803.4600000009}},{"attributes":{"ID":589638,"DIS_CODE":0,"TOWNNAME":"中西區","LI":"五妃里","LIN":"11鄰","STREET":"南寧街","SECT":" ","MAREA":" ","LANE":" ","ALLEY":" ","HOUSE_NO":"２６號","E_COORD97":168449.47,"N_COORD97":2542813.5299999998,"ADDRESS":"南寧街２６號","OBJECTID":589611},"geometry":{"x":168449.47000000067,"y":2542813.5300000012}},{"attributes":{"ID":589639,"DIS_CODE":0,"TOWNNAME":"中西區","LI":"五妃里","LIN":"11鄰","STREET":"南寧街","SECT":" ","MAREA":" ","LANE":" ","ALLEY":" ","HOUSE_NO":"２８號","E_COORD97":168434.78,"N_COORD97":2542815.1899999999,"ADDRESS":"南寧街２８號","OBJECTID":589612},"geometry":{"x":168434.78000000026,"y":2542815.1899999976}},{"attributes":{"ID":589640,"DIS_CODE":0,"TOWNNAME":"中西區","LI":"五妃里","LIN":"11鄰","STREET":"南寧街","SECT":" ","MAREA":" ","LANE":" ","ALLEY":" ","HOUSE_NO":"２號底層","E_COORD97":168540.5,"N_COORD97":2542792.3599999999,"ADDRESS":"南寧街２號底層","OBJECTID":589613},"geometry":{"x":168540.50000000186,"y":2542792.3599999994}},{"attributes":{"ID":589641,"DIS_CODE":0,"TOWNNAME":"中西區","LI":"五妃里","LIN":"11鄰","STREET":"南寧街","SECT":" ","MAREA":" ","LANE":" ","ALLEY":" ","HOUSE_NO":"３０號","E_COORD97":168430.19,"N_COORD97":2542816.21,"ADDRESS":"南寧街３０號","OBJECTID":589614},"geometry":{"x":168430.19000000134,"y":2542816.2100000009}},{"attributes":{"ID":589642,"DIS_CODE":0,"TOWNNAME":"中西區","LI":"五妃里","LIN":"11鄰","STREET":"南寧街","SECT":" ","MAREA":" ","LANE":" ","ALLEY":" ","HOUSE_NO":"６號","E_COORD97":168527.22,"N_COORD97":2542794.6600000001,"ADDRESS":"南寧街６號","OBJECTID":589615},"geometry":{"x":168527.22000000067,"y":2542794.6600000001}},{"attributes":{"ID":589643,"DIS_CODE":0,"TOWNNAME":"東區","LI":"文聖里","LIN":"11鄰","STREET":"裕平路","SECT":" ","MAREA":" ","LANE":" ","ALLEY":" ","HOUSE_NO":"１２２號","E_COORD97":172150.13,"N_COORD97":2542793.71,"ADDRESS":"裕平路１２２號","OBJECTID":589616},"geometry":{"x":172150.12999999896,"y":2542793.7100000028}},{"attributes":{"ID":589644,"DIS_CODE":0,"TOWNNAME":"永康區","LI":"尚頂里","LIN":"11鄰","STREET":"正南一街","SECT":" ","MAREA":" ","LANE":" ","ALLEY":" ","HOUSE_NO":"５１號","E_COORD97":171146.82000000001,"N_COORD97":2547293.9199999999,"ADDRESS":"正南一街５１號","OBJECTID":589617},"geometry":{"x":171146.8200000003,"y":2547293.9200000018}},{"attributes":{"ID":589645,"DIS_CODE":0,"TOWNNAME":"永康區","LI":"西勢里","LIN":"11鄰","STREET":"廣盛街","SECT":" ","MAREA":" ","LANE":" ","ALLEY":" ","HOUSE_NO":"１３１號","E_COORD97":176073.48000000001,"N_COORD97":2546671.1800000002,"ADDRESS":"廣盛街１３１號","OBJECTID":589618},"geometry":{"x":176073.48000000138,"y":2546671.1800000016}},{"attributes":{"ID":589646,"DIS_CODE":0,"TOWNNAME":"永康區","LI":"西橋里","LIN":"11鄰","STREET":"大橋一街","SECT":" ","MAREA":" ","LANE":" ","ALLEY":" ","HOUSE_NO":"２６號","E_COORD97":170560.35000000001,"N_COORD97":2546196.1699999999,"ADDRESS":"大橋一街２６號","OBJECTID":589619},"geometry":{"x":170560.35000000056,"y":2546196.1700000037}},{"attributes":{"ID":589647,"DIS_CODE":0,"TOWNNAME":"永康區","LI":"西橋里","LIN":"11鄰","STREET":"大橋一街","SECT":" ","MAREA":" ","LANE":" ","ALLEY":" ","HOUSE_NO":"１號","E_COORD97":170568.51999999999,"N_COORD97":2546143.75,"ADDRESS":"大橋一街１號","OBJECTID":589620},"geometry":{"x":170568.51999999955,"y":2546143.75}},{"attributes":{"ID":589648,"DIS_CODE":0,"TOWNNAME":"永康區","LI":"西勢里","LIN":"11鄰","STREET":"廣興街","SECT":" ","MAREA":" ","LANE":" ","ALLEY":" ","HOUSE_NO":"４９號","E_COORD97":175869.98000000001,"N_COORD97":2546589.71,"ADDRESS":"廣興街４９號","OBJECTID":589621},"geometry":{"x":175869.98000000138,"y":2546589.7100000009}},{"attributes":{"ID":589649,"DIS_CODE":0,"TOWNNAME":"永康區","LI":"西勢里","LIN":"11鄰","STREET":"廣盛街","SECT":" ","MAREA":" ","LANE":" ","ALLEY":" ","HOUSE_NO":"１０９號","E_COORD97":176067.12,"N_COORD97":2546623.0800000001,"ADDRESS":"廣盛街１０９號","OBJECTID":589622},"geometry":{"x":176067.12000000104,"y":2546623.0800000001}},{"attributes":{"ID":589650,"DIS_CODE":0,"TOWNNAME":"永康區","LI":"西勢里","LIN":"11鄰","STREET":"廣興街","SECT":" ","MAREA":" ","LANE":" ","ALLEY":" ","HOUSE_NO":"６５號","E_COORD97":175907.89999999999,"N_COORD97":2546586.5299999998,"ADDRESS":"廣興街６５號","OBJECTID":589623},"geometry":{"x":175907.9000000013,"y":2546586.5300000031}},{"attributes":{"ID":589651,"DIS_CODE":0,"TOWNNAME":"永康區","LI":"西勢里","LIN":"11鄰","STREET":"廣興街","SECT":" ","MAREA":" ","LANE":" ","ALLEY":" ","HOUSE_NO":"８３號","E_COORD97":175973.23999999999,"N_COORD97":2546601.3900000001,"ADDRESS":"廣興街８３號","OBJECTID":589624},"geometry":{"x":175973.24000000115,"y":2546601.3900000006}},{"attributes":{"ID":589652,"DIS_CODE":0,"TOWNNAME":"東區","LI":"中西里","LIN":"11鄰","STREET":"東寧路","SECT":" ","MAREA":" ","LANE":" ","ALLEY":" ","HOUSE_NO":"１０號之３","E_COORD97":169878.22,"N_COORD97":2543630.4399999999,"ADDRESS":"東寧路１０號之３","OBJECTID":589625},"geometry":{"x":169878.22000000067,"y":2543630.4399999995}},{"attributes":{"ID":589653,"DIS_CODE":0,"TOWNNAME":"新化區","LI":"太平里","LIN":"11鄰","STREET":"民權街","SECT":" ","MAREA":" ","LANE":" ","ALLEY":" ","HOUSE_NO":"１９０號","E_COORD97":178777.60999999999,"N_COORD97":2548951.25,"ADDRESS":"民權街１９０號","OBJECTID":589626},"geometry":{"x":178777.61000000127,"y":2548951.25}},{"attributes":{"ID":589654,"DIS_CODE":0,"TOWNNAME":"東區","LI":"大學里","LIN":"11鄰","STREET":"長榮路","SECT":"三段","MAREA":" ","LANE":" ","ALLEY":" ","HOUSE_NO":"７０號","E_COORD97":170225.98999999999,"N_COORD97":2543812.4300000002,"ADDRESS":"長榮路三段７０號","OBJECTID":589627},"geometry":{"x":170225.99000000115,"y":2543812.4300000016}},{"attributes":{"ID":589655,"DIS_CODE":0,"TOWNNAME":"東區","LI":"復興里","LIN":"11鄰","STREET":"裕忠二街","SECT":" ","MAREA":" ","LANE":" ","ALLEY":" ","HOUSE_NO":"１６號","E_COORD97":172197.41,"N_COORD97":2542275.2799999998,"ADDRESS":"裕忠二街１６號","OBJECTID":589628},"geometry":{"x":172197.41000000015,"y":2542275.2799999993}},{"attributes":{"ID":589656,"DIS_CODE":0,"TOWNNAME":"東區","LI":"復興里","LIN":"11鄰","STREET":"裕忠二街","SECT":" ","MAREA":" ","LANE":" ","ALLEY":" ","HOUSE_NO":"５號","E_COORD97":172222.09,"N_COORD97":2542235.1400000001,"ADDRESS":"裕忠二街５號","OBJECTID":589629},"geometry":{"x":172222.09000000078,"y":2542235.1400000025}},{"attributes":{"ID":589657,"DIS_CODE":0,"TOWNNAME":"仁德區","LI":"一甲里","LIN":"11鄰","STREET":"忠義二街","SECT":" ","MAREA":" ","LANE":" ","ALLEY":" ","HOUSE_NO":"１５號","E_COORD97":173943.60999999999,"N_COORD97":2542131.2599999998,"ADDRESS":"忠義二街１５號","OBJECTID":589630},"geometry":{"x":173943.61000000034,"y":2542131.2600000016}},{"attributes":{"ID":589658,"DIS_CODE":0,"TOWNNAME":"仁德區","LI":"仁德里","LIN":"11鄰","STREET":"中正路","SECT":"二段","MAREA":" ","LANE":" ","ALLEY":" ","HOUSE_NO":"１２５５號","E_COORD97":173256.45999999999,"N_COORD97":2541309.02,"ADDRESS":"中正路二段１２５５號","OBJECTID":589631},"geometry":{"x":173256.45999999996,"y":2541309.0200000014}},{"attributes":{"ID":589659,"DIS_CODE":0,"TOWNNAME":"仁德區","LI":"仁義里","LIN":"11鄰","STREET":"中山路","SECT":" ","MAREA":" ","LANE":" ","ALLEY":" ","HOUSE_NO":"６１１號","E_COORD97":173313.07000000001,"N_COORD97":2541317.2400000002,"ADDRESS":"中山路６１１號","OBJECTID":589632},"geometry":{"x":173313.07000000123,"y":2541317.2400000039}},{"attributes":{"ID":589660,"DIS_CODE":0,"TOWNNAME":"東區","LI":"中西里","LIN":"11鄰","STREET":"東寧路","SECT":" ","MAREA":" ","LANE":" ","ALLEY":" ","HOUSE_NO":"１０號","E_COORD97":169864.82999999999,"N_COORD97":2543632.0600000001,"ADDRESS":"東寧路１０號","OBJECTID":589633},"geometry":{"x":169864.83000000007,"y":2543632.0600000024}},{"attributes":{"ID":589661,"DIS_CODE":0,"TOWNNAME":"東區","LI":"中西里","LIN":"11鄰","STREET":"東寧路","SECT":" ","MAREA":" ","LANE":" ","ALLEY":" ","HOUSE_NO":"１０號之１","E_COORD97":169869.07000000001,"N_COORD97":2543631.2999999998,"ADDRESS":"東寧路１０號之１","OBJECTID":589634},"geometry":{"x":169869.0700000003,"y":2543631.3000000026}},{"attributes":{"ID":589662,"DIS_CODE":0,"TOWNNAME":"東區","LI":"中西里","LIN":"11鄰","STREET":"東寧路","SECT":" ","MAREA":" ","LANE":" ","ALLEY":" ","HOUSE_NO":"１０號之２","E_COORD97":169873.67000000001,"N_COORD97":2543631.04,"ADDRESS":"東寧路１０號之２","OBJECTID":589635},"geometry":{"x":169873.67000000086,"y":2543631.040000001}},{"attributes":{"ID":589663,"DIS_CODE":0,"TOWNNAME":"東區","LI":"中西里","LIN":"11鄰","STREET":"東寧路","SECT":" ","MAREA":" ","LANE":" ","ALLEY":" ","HOUSE_NO":"１２號","E_COORD97":169882.94,"N_COORD97":2543629.8300000001,"ADDRESS":"東寧路１２號","OBJECTID":589636},"geometry":{"x":169882.94000000134,"y":2543629.8300000019}},{"attributes":{"ID":589664,"DIS_CODE":0,"TOWNNAME":"東區","LI":"中西里","LIN":"11鄰","STREET":"東寧路","SECT":" ","MAREA":" ","LANE":" ","ALLEY":" ","HOUSE_NO":"１２號之１","E_COORD97":169887.82000000001,"N_COORD97":2543629.5800000001,"ADDRESS":"東寧路１２號之１","OBJECTID":589637},"geometry":{"x":169887.8200000003,"y":2543629.5800000001}},{"attributes":{"ID":589665,"DIS_CODE":0,"TOWNNAME":"東區","LI":"中西里","LIN":"11鄰","STREET":"東寧路","SECT":" ","MAREA":" ","LANE":" ","ALLEY":" ","HOUSE_NO":"１２號之３","E_COORD97":169897.34,"N_COORD97":2543628.6899999999,"ADDRESS":"東寧路１２號之３","OBJECTID":589638},"geometry":{"x":169897.33999999985,"y":2543628.6899999995}},{"attributes":{"ID":589666,"DIS_CODE":0,"TOWNNAME":"東區","LI":"中西里","LIN":"11鄰","STREET":"東寧路","SECT":" ","MAREA":" ","LANE":" ","ALLEY":" ","HOUSE_NO":"１４號","E_COORD97":169900.51000000001,"N_COORD97":2543627.8799999999,"ADDRESS":"東寧路１４號","OBJECTID":589639},"geometry":{"x":169900.51000000071,"y":2543627.8800000008}},{"attributes":{"ID":589667,"DIS_CODE":0,"TOWNNAME":"東區","LI":"中西里","LIN":"11鄰","STREET":"東寧路","SECT":" ","MAREA":" ","LANE":" ","ALLEY":" ","HOUSE_NO":"１４號之１","E_COORD97":169904.82000000001,"N_COORD97":2543627.8199999998,"ADDRESS":"東寧路１４號之１","OBJECTID":589640},"geometry":{"x":169904.81999999937,"y":2543627.8200000003}},{"attributes":{"ID":589668,"DIS_CODE":0,"TOWNNAME":"東區","LI":"中西里","LIN":"11鄰","STREET":"東寧路","SECT":" ","MAREA":" ","LANE":" ","ALLEY":" ","HOUSE_NO":"１４號之２","E_COORD97":169909.32000000001,"N_COORD97":2543627.54,"ADDRESS":"東寧路１４號之２","OBJECTID":589641},"geometry":{"x":169909.3200000003,"y":2543627.540000001}},{"attributes":{"ID":589669,"DIS_CODE":0,"TOWNNAME":"東區","LI":"中西里","LIN":"11鄰","STREET":"東寧路","SECT":" ","MAREA":" ","LANE":" ","ALLEY":" ","HOUSE_NO":"１４號之３","E_COORD97":169913.82999999999,"N_COORD97":2543627.0299999998,"ADDRESS":"東寧路１４號之３","OBJECTID":589642},"geometry":{"x":169913.83000000101,"y":2543627.0300000012}},{"attributes":{"ID":589670,"DIS_CODE":0,"TOWNNAME":"東區","LI":"中西里","LIN":"11鄰","STREET":"東寧路","SECT":" ","MAREA":" ","LANE":" ","ALLEY":" ","HOUSE_NO":"１６號","E_COORD97":169917.89000000001,"N_COORD97":2543626.8199999998,"ADDRESS":"東寧路１６號","OBJECTID":589643},"geometry":{"x":169917.8900000006,"y":2543626.8200000022}},{"attributes":{"ID":589671,"DIS_CODE":0,"TOWNNAME":"東區","LI":"中西里","LIN":"11鄰","STREET":"東寧路","SECT":" ","MAREA":" ","LANE":" ","ALLEY":" ","HOUSE_NO":"１６號之１","E_COORD97":169921.95000000001,"N_COORD97":2543626.2599999998,"ADDRESS":"東寧路１６號之１","OBJECTID":589644},"geometry":{"x":169921.95000000019,"y":2543626.2600000016}},{"attributes":{"ID":589672,"DIS_CODE":0,"TOWNNAME":"東區","LI":"中西里","LIN":"11鄰","STREET":"東寧路","SECT":" ","MAREA":" ","LANE":" ","ALLEY":" ","HOUSE_NO":"１６號之２","E_COORD97":169926.85000000001,"N_COORD97":2543626.5099999998,"ADDRESS":"東寧路１６號之２","OBJECTID":589645},"geometry":{"x":169926.85000000056,"y":2543626.5099999998}},{"attributes":{"ID":589673,"DIS_CODE":0,"TOWNNAME":"東區","LI":"中西里","LIN":"11鄰","STREET":"東寧路","SECT":" ","MAREA":" ","LANE":" ","ALLEY":" ","HOUSE_NO":"１６號之３","E_COORD97":169929.17999999999,"N_COORD97":2543626.3399999999,"ADDRESS":"東寧路１６號之３","OBJECTID":589646},"geometry":{"x":169929.18000000063,"y":2543626.3400000017}},{"attributes":{"ID":589674,"DIS_CODE":0,"TOWNNAME":"安南區","LI":"溪心里","LIN":"11鄰","STREET":"智安四街","SECT":" ","MAREA":" ","LANE":" ","ALLEY":" ","HOUSE_NO":"９號","E_COORD97":166343.82000000001,"N_COORD97":2550042.8199999998,"ADDRESS":"智安四街９號","OBJECTID":589647},"geometry":{"x":166343.82000000123,"y":2550042.8200000003}},{"attributes":{"ID":589675,"DIS_CODE":0,"TOWNNAME":"善化區","LI":"南關里","LIN":"11鄰","STREET":"復興街","SECT":" ","MAREA":" ","LANE":" ","ALLEY":" ","HOUSE_NO":"４９號","E_COORD97":177018.06,"N_COORD97":2559028.7599999998,"ADDRESS":"復興街４９號","OBJECTID":589648},"geometry":{"x":177018.06000000052,"y":2559028.7600000016}},{"attributes":{"ID":589676,"DIS_CODE":0,"TOWNNAME":"永康區","LI":"網寮里","LIN":"11鄰","STREET":"永勝街","SECT":" ","MAREA":" ","LANE":" ","ALLEY":" ","HOUSE_NO":"２２８號","E_COORD97":173349.17999999999,"N_COORD97":2546540.79,"ADDRESS":"永勝街２２８號","OBJECTID":589649},"geometry":{"x":173349.1799999997,"y":2546540.790000001}},{"attributes":{"ID":589677,"DIS_CODE":0,"TOWNNAME":"中西區","LI":"法華里","LIN":"11鄰","STREET":"府連路","SECT":" ","MAREA":" ","LANE":" ","ALLEY":" ","HOUSE_NO":"１１號","E_COORD97":168954.23999999999,"N_COORD97":2542476.96,"ADDRESS":"府連路１１號","OBJECTID":589650},"geometry":{"x":168954.24000000022,"y":2542476.9600000028}},{"attributes":{"ID":589678,"DIS_CODE":0,"TOWNNAME":"中西區","LI":"法華里","LIN":"11鄰","STREET":"府連路","SECT":" ","MAREA":" ","LANE":" ","ALLEY":" ","HOUSE_NO":"１３號","E_COORD97":168955.81,"N_COORD97":2542480.8900000001,"ADDRESS":"府連路１３號","OBJECTID":589651},"geometry":{"x":168955.80999999959,"y":2542480.8900000025}},{"attributes":{"ID":589679,"DIS_CODE":0,"TOWNNAME":"中西區","LI":"法華里","LIN":"11鄰","STREET":"府連路","SECT":" ","MAREA":" ","LANE":" ","ALLEY":" ","HOUSE_NO":"１５號","E_COORD97":168954.63,"N_COORD97":2542485.6099999999,"ADDRESS":"府連路１５號","OBJECTID":589652},"geometry":{"x":168954.62999999989,"y":2542485.6099999994}},{"attributes":{"ID":589680,"DIS_CODE":0,"TOWNNAME":"中西區","LI":"法華里","LIN":"11鄰","STREET":"府連路","SECT":" ","MAREA":" ","LANE":" ","ALLEY":" ","HOUSE_NO":"１７號","E_COORD97":168952.66,"N_COORD97":2542489.54,"ADDRESS":"府連路１７號","OBJECTID":589653},"geometry":{"x":168952.66000000015,"y":2542489.5399999991}},{"attributes":{"ID":589681,"DIS_CODE":0,"TOWNNAME":"中西區","LI":"法華里","LIN":"11鄰","STREET":"府連路","SECT":" ","MAREA":" ","LANE":" ","ALLEY":" ","HOUSE_NO":"１９號","E_COORD97":168955.01999999999,"N_COORD97":2542494.25,"ADDRESS":"府連路１９號","OBJECTID":589654},"geometry":{"x":168955.01999999955,"y":2542494.2500000019}},{"attributes":{"ID":589682,"DIS_CODE":0,"TOWNNAME":"中西區","LI":"法華里","LIN":"11鄰","STREET":"府連路","SECT":" ","MAREA":" ","LANE":" ","ALLEY":" ","HOUSE_NO":"２１號","E_COORD97":168954.63,"N_COORD97":2542498.9700000002,"ADDRESS":"府連路２１號","OBJECTID":589655},"geometry":{"x":168954.62999999989,"y":2542498.9700000007}},{"attributes":{"ID":589683,"DIS_CODE":0,"TOWNNAME":"中西區","LI":"法華里","LIN":"11鄰","STREET":"府連路","SECT":" ","MAREA":" ","LANE":" ","ALLEY":" ","HOUSE_NO":"２３號","E_COORD97":168957.39000000001,"N_COORD97":2542506.4399999999,"ADDRESS":"府連路２３號","OBJECTID":589656},"geometry":{"x":168957.38999999966,"y":2542506.4400000013}},{"attributes":{"ID":589684,"DIS_CODE":0,"TOWNNAME":"中西區","LI":"法華里","LIN":"11鄰","STREET":"府連路","SECT":" ","MAREA":" ","LANE":" ","ALLEY":" ","HOUSE_NO":"２５號","E_COORD97":168955.81,"N_COORD97":2542509.98,"ADDRESS":"府連路２５號","OBJECTID":589657},"geometry":{"x":168955.80999999959,"y":2542509.9800000023}},{"attributes":{"ID":589685,"DIS_CODE":0,"TOWNNAME":"中西區","LI":"法華里","LIN":"11鄰","STREET":"府連路","SECT":" ","MAREA":" ","LANE":" ","ALLEY":" ","HOUSE_NO":"２７號","E_COORD97":168957.39000000001,"N_COORD97":2542513.5099999998,"ADDRESS":"府連路２７號","OBJECTID":589658},"geometry":{"x":168957.38999999966,"y":2542513.5100000016}},{"attributes":{"ID":589686,"DIS_CODE":0,"TOWNNAME":"中西區","LI":"法華里","LIN":"11鄰","STREET":"府連路","SECT":" ","MAREA":" ","LANE":" ","ALLEY":" ","HOUSE_NO":"２９號","E_COORD97":168957.78,"N_COORD97":2542520.1899999999,"ADDRESS":"府連路２９號","OBJECTID":589659},"geometry":{"x":168957.78000000119,"y":2542520.1899999995}},{"attributes":{"ID":589687,"DIS_CODE":0,"TOWNNAME":"中西區","LI":"法華里","LIN":"11鄰","STREET":"府連路","SECT":" ","MAREA":" ","LANE":" ","ALLEY":" ","HOUSE_NO":"３１號","E_COORD97":168956.60000000001,"N_COORD97":2542529.23,"ADDRESS":"府連路３１號","OBJECTID":589660},"geometry":{"x":168956.60000000056,"y":2542529.2300000023}},{"attributes":{"ID":589688,"DIS_CODE":0,"TOWNNAME":"中西區","LI":"民主里","LIN":"11鄰","STREET":"金華路","SECT":"三段","MAREA":" ","LANE":" ","ALLEY":" ","HOUSE_NO":"１４４號","E_COORD97":167283.14999999999,"N_COORD97":2543670.54,"ADDRESS":"金華路三段１４４號","OBJECTID":589661},"geometry":{"x":167283.15000000037,"y":2543670.5400000028}},{"attributes":{"ID":589689,"DIS_CODE":0,"TOWNNAME":"永康區","LI":"中華里","LIN":"11鄰","STREET":"忠義街","SECT":" ","MAREA":" ","LANE":" ","ALLEY":" ","HOUSE_NO":"４號","E_COORD97":171731.10999999999,"N_COORD97":2544363.46,"ADDRESS":"忠義街４號","OBJECTID":589662},"geometry":{"x":171731.11000000127,"y":2544363.4600000009}},{"attributes":{"ID":589690,"DIS_CODE":0,"TOWNNAME":"永康區","LI":"中華里","LIN":"11鄰","STREET":"小東路","SECT":" ","MAREA":" ","LANE":" ","ALLEY":" ","HOUSE_NO":"５５５號","E_COORD97":171734.60999999999,"N_COORD97":2544339.7400000002,"ADDRESS":"小東路５５５號","OBJECTID":589663},"geometry":{"x":171734.61000000127,"y":2544339.7400000021}},{"attributes":{"ID":589691,"DIS_CODE":0,"TOWNNAME":"永康區","LI":"中華里","LIN":"11鄰","STREET":"小東路","SECT":" ","MAREA":" ","LANE":" ","ALLEY":" ","HOUSE_NO":"５８１號","E_COORD97":171785.48999999999,"N_COORD97":2544339.9500000002,"ADDRESS":"小東路５８１號","OBJECTID":589664},"geometry":{"x":171785.49000000209,"y":2544339.9500000011}},{"attributes":{"ID":589692,"DIS_CODE":0,"TOWNNAME":"永康區","LI":"中華里","LIN":"11鄰","STREET":"小東路","SECT":" ","MAREA":" ","LANE":" ","ALLEY":" ","HOUSE_NO":"５７９號","E_COORD97":171781.42999999999,"N_COORD97":2544339.9500000002,"ADDRESS":"小東路５７９號","OBJECTID":589665},"geometry":{"x":171781.4299999997,"y":2544339.9500000011}},{"attributes":{"ID":589693,"DIS_CODE":0,"TOWNNAME":"永康區","LI":"中華里","LIN":"11鄰","STREET":"小東路","SECT":" ","MAREA":" ","LANE":" ","ALLEY":" ","HOUSE_NO":"５７１號","E_COORD97":171765.82000000001,"N_COORD97":2544339.7400000002,"ADDRESS":"小東路５７１號","OBJECTID":589666},"geometry":{"x":171765.8200000003,"y":2544339.7400000021}},{"attributes":{"ID":589694,"DIS_CODE":0,"TOWNNAME":"永康區","LI":"中華里","LIN":"11鄰","STREET":"小東路","SECT":" ","MAREA":" ","LANE":" ","ALLEY":" ","HOUSE_NO":"５８３號","E_COORD97":171789.54999999999,"N_COORD97":2544339.7400000002,"ADDRESS":"小東路５８３號","OBJECTID":589667},"geometry":{"x":171789.55000000168,"y":2544339.7400000021}},{"attributes":{"ID":589695,"DIS_CODE":0,"TOWNNAME":"永康區","LI":"中華里","LIN":"11鄰","STREET":"忠義街","SECT":" ","MAREA":" ","LANE":" ","ALLEY":" ","HOUSE_NO":"６號","E_COORD97":171731.54000000001,"N_COORD97":2544367.73,"ADDRESS":"忠義街６號","OBJECTID":589668},"geometry":{"x":171731.54000000004,"y":2544367.7300000004}},{"attributes":{"ID":589696,"DIS_CODE":0,"TOWNNAME":"永康區","LI":"中華里","LIN":"11鄰","STREET":"小東路","SECT":" ","MAREA":" ","LANE":" ","ALLEY":" ","HOUSE_NO":"５８５號","E_COORD97":171795.54000000001,"N_COORD97":2544339.9500000002,"ADDRESS":"小東路５８５號","OBJECTID":589669},"geometry":{"x":171795.54000000097,"y":2544339.9500000011}},{"attributes":{"ID":589697,"DIS_CODE":0,"TOWNNAME":"永康區","LI":"大灣里","LIN":"11鄰","STREET":"大灣路","SECT":" ","MAREA":" ","LANE":" ","ALLEY":" ","HOUSE_NO":"２５８號","E_COORD97":174956.20999999999,"N_COORD97":2545336.9300000002,"ADDRESS":"大灣路２５８號","OBJECTID":589670},"geometry":{"x":174956.20999999996,"y":2545336.9300000016}},{"attributes":{"ID":589698,"DIS_CODE":0,"TOWNNAME":"永康區","LI":"三民里","LIN":"11鄰","STREET":"和平路","SECT":" ","MAREA":" ","LANE":" ","ALLEY":" ","HOUSE_NO":"２５０號","E_COORD97":174753.39999999999,"N_COORD97":2550768.75,"ADDRESS":"和平路２５０號","OBJECTID":589671},"geometry":{"x":174753.4000000013,"y":2550768.75}},{"attributes":{"ID":589699,"DIS_CODE":0,"TOWNNAME":"新市區","LI":"新和里","LIN":"49鄰","STREET":"自強街","SECT":" ","MAREA":" ","LANE":" ","ALLEY":" ","HOUSE_NO":"７５號","E_COORD97":177534.97,"N_COORD97":2553428.75,"ADDRESS":"自強街７５號","OBJECTID":589672},"geometry":{"x":177534.96999999881,"y":2553428.7500000019}},{"attributes":{"ID":589700,"DIS_CODE":0,"TOWNNAME":"仁德區","LI":"仁義里","LIN":"11鄰","STREET":"中山路","SECT":" ","MAREA":" ","LANE":" ","ALLEY":" ","HOUSE_NO":"５６７號","E_COORD97":173396.64999999999,"N_COORD97":2541306.4900000002,"ADDRESS":"中山路５６７號","OBJECTID":589673},"geometry":{"x":173396.65000000224,"y":2541306.4900000021}},{"attributes":{"ID":589701,"DIS_CODE":0,"TOWNNAME":"東區","LI":"東明里","LIN":"11鄰","STREET":"東興路","SECT":" ","MAREA":" ","LANE":" ","ALLEY":" ","HOUSE_NO":"１４３號","E_COORD97":170968.20000000001,"N_COORD97":2543717.2200000002,"ADDRESS":"東興路１４３號","OBJECTID":589674},"geometry":{"x":170968.20000000019,"y":2543717.2200000007}},{"attributes":{"ID":589702,"DIS_CODE":0,"TOWNNAME":"東區","LI":"東明里","LIN":"11鄰","STREET":"東興路","SECT":" ","MAREA":" ","LANE":" ","ALLEY":" ","HOUSE_NO":"１４５號","E_COORD97":170969.25,"N_COORD97":2543722.7599999998,"ADDRESS":"東興路１４５號","OBJECTID":589675},"geometry":{"x":170969.25,"y":2543722.7599999998}},{"attributes":{"ID":589703,"DIS_CODE":0,"TOWNNAME":"東區","LI":"東明里","LIN":"11鄰","STREET":"東興路","SECT":" ","MAREA":" ","LANE":" ","ALLEY":" ","HOUSE_NO":"１４７號","E_COORD97":170971.5,"N_COORD97":2543728.1499999999,"ADDRESS":"東興路１４７號","OBJECTID":589676},"geometry":{"x":170971.50000000186,"y":2543728.1500000004}},{"attributes":{"ID":589704,"DIS_CODE":0,"TOWNNAME":"東區","LI":"東明里","LIN":"11鄰","STREET":"東興路","SECT":" ","MAREA":" ","LANE":" ","ALLEY":" ","HOUSE_NO":"１４７號之２","E_COORD97":170968.73999999999,"N_COORD97":2543733.73,"ADDRESS":"東興路１４７號之２","OBJECTID":589677},"geometry":{"x":170968.74000000115,"y":2543733.7300000004}},{"attributes":{"ID":589705,"DIS_CODE":0,"TOWNNAME":"永康區","LI":"二王里","LIN":"11鄰","STREET":"二王路","SECT":" ","MAREA":" ","LANE":" ","ALLEY":" ","HOUSE_NO":"１６１號","E_COORD97":172973.17999999999,"N_COORD97":2546480.3599999999,"ADDRESS":"二王路１６１號","OBJECTID":589678},"geometry":{"x":172973.1799999997,"y":2546480.3600000013}},{"attributes":{"ID":589706,"DIS_CODE":0,"TOWNNAME":"永康區","LI":"新樹里","LIN":"11鄰","STREET":"富強路","SECT":"二段","MAREA":" ","LANE":" ","ALLEY":" ","HOUSE_NO":"１１６號","E_COORD97":175665.54000000001,"N_COORD97":2547069.79,"ADDRESS":"富強路二段１１６號","OBJECTID":589679},"geometry":{"x":175665.54000000097,"y":2547069.790000001}},{"attributes":{"ID":589707,"DIS_CODE":0,"TOWNNAME":"麻豆區","LI":"穀興里","LIN":"11鄰","STREET":"中山路","SECT":" ","MAREA":" ","LANE":" ","ALLEY":" ","HOUSE_NO":"２８號","E_COORD97":172982.48999999999,"N_COORD97":2564832.75,"ADDRESS":"中山路２８號","OBJECTID":589680},"geometry":{"x":172982.49000000115,"y":2564832.7500000037}},{"attributes":{"ID":589708,"DIS_CODE":0,"TOWNNAME":"善化區","LI":"坐駕里","LIN":"11鄰","STREET":"自強路","SECT":" ","MAREA":" ","LANE":" ","ALLEY":" ","HOUSE_NO":"１５１號","E_COORD97":177892.92999999999,"N_COORD97":2558685.5,"ADDRESS":"自強路１５１號","OBJECTID":589681},"geometry":{"x":177892.93000000156,"y":2558685.5000000019}},{"attributes":{"ID":589709,"DIS_CODE":0,"TOWNNAME":"永康區","LI":"二王里","LIN":"11鄰","STREET":"二王路","SECT":" ","MAREA":" ","LANE":" ","ALLEY":" ","HOUSE_NO":"１６２號","E_COORD97":172957.39999999999,"N_COORD97":2546476.1099999999,"ADDRESS":"二王路１６２號","OBJECTID":589682},"geometry":{"x":172957.39999999944,"y":2546476.1099999994}},{"attributes":{"ID":589710,"DIS_CODE":0,"TOWNNAME":"永康區","LI":"二王里","LIN":"11鄰","STREET":"二王路","SECT":" ","MAREA":" ","LANE":" ","ALLEY":" ","HOUSE_NO":"１６３號","E_COORD97":172971.63,"N_COORD97":2546476.3599999999,"ADDRESS":"二王路１６３號","OBJECTID":589683},"geometry":{"x":172971.62999999989,"y":2546476.3600000013}},{"attributes":{"ID":589711,"DIS_CODE":0,"TOWNNAME":"永康區","LI":"二王里","LIN":"11鄰","STREET":"二王路","SECT":" ","MAREA":" ","LANE":" ","ALLEY":" ","HOUSE_NO":"１６９號","E_COORD97":172968.59,"N_COORD97":2546463.8599999999,"ADDRESS":"二王路１６９號","OBJECTID":589684},"geometry":{"x":172968.58999999985,"y":2546463.8600000013}},{"attributes":{"ID":589712,"DIS_CODE":0,"TOWNNAME":"永康區","LI":"二王里","LIN":"11鄰","STREET":"二王路","SECT":" ","MAREA":" ","LANE":" ","ALLEY":" ","HOUSE_NO":"１７２號","E_COORD97":172952.16,"N_COORD97":2546459.3599999999,"ADDRESS":"二王路１７２號","OBJECTID":589685},"geometry":{"x":172952.16000000201,"y":2546459.3600000013}},{"attributes":{"ID":589713,"DIS_CODE":0,"TOWNNAME":"永康區","LI":"二王里","LIN":"11鄰","STREET":"二王路","SECT":" ","MAREA":" ","LANE":" ","ALLEY":" ","HOUSE_NO":"１６８號","E_COORD97":172955.12,"N_COORD97":2546467.8599999999,"ADDRESS":"二王路１６８號","OBJECTID":589686},"geometry":{"x":172955.12000000011,"y":2546467.8599999994}},{"attributes":{"ID":589714,"DIS_CODE":0,"TOWNNAME":"東區","LI":"崇德里","LIN":"11鄰","STREET":"崇德十一街","SECT":" ","MAREA":" ","LANE":" ","ALLEY":" ","HOUSE_NO":"３號","E_COORD97":170830.26999999999,"N_COORD97":2541472.6800000002,"ADDRESS":"崇德十一街３號","OBJECTID":589687},"geometry":{"x":170830.27000000048,"y":2541472.6799999997}},{"attributes":{"ID":589715,"DIS_CODE":0,"TOWNNAME":"東區","LI":"東明里","LIN":"11鄰","STREET":"東興路","SECT":" ","MAREA":" ","LANE":" ","ALLEY":" ","HOUSE_NO":"１４７號之１","E_COORD97":170971.76000000001,"N_COORD97":2543730.7999999998,"ADDRESS":"東興路１４７號之１","OBJECTID":589688},"geometry":{"x":170971.76000000071,"y":2543730.8000000007}},{"attributes":{"ID":589716,"DIS_CODE":0,"TOWNNAME":"東區","LI":"崇德里","LIN":"11鄰","STREET":"崇德十一街","SECT":" ","MAREA":" ","LANE":" ","ALLEY":" ","HOUSE_NO":"３７號","E_COORD97":170903.69,"N_COORD97":2541472.4300000002,"ADDRESS":"崇德十一街３７號","OBJECTID":589689},"geometry":{"x":170903.69000000041,"y":2541472.4300000016}},{"attributes":{"ID":589717,"DIS_CODE":0,"TOWNNAME":"東區","LI":"泉南里","LIN":"11鄰","STREET":"慶東街","SECT":" ","MAREA":" ","LANE":" ","ALLEY":" ","HOUSE_NO":"２號","E_COORD97":169563.75,"N_COORD97":2542870.6899999999,"ADDRESS":"慶東街２號","OBJECTID":589690},"geometry":{"x":169563.75,"y":2542870.6900000013}},{"attributes":{"ID":589718,"DIS_CODE":0,"TOWNNAME":"東區","LI":"泉南里","LIN":"11鄰","STREET":"府連路","SECT":" ","MAREA":" ","LANE":" ","ALLEY":" ","HOUSE_NO":"３１９號","E_COORD97":169562.38,"N_COORD97":2542859.04,"ADDRESS":"府連路３１９號","OBJECTID":589691},"geometry":{"x":169562.38000000082,"y":2542859.0399999991}},{"attributes":{"ID":589719,"DIS_CODE":0,"TOWNNAME":"麻豆區","LI":"穀興里","LIN":"11鄰","STREET":"仁愛路","SECT":" ","MAREA":" ","LANE":" ","ALLEY":" ","HOUSE_NO":"６號之３","E_COORD97":172967.57999999999,"N_COORD97":2564775.3100000001,"ADDRESS":"仁愛路６號之３","OBJECTID":589692},"geometry":{"x":172967.58000000007,"y":2564775.3100000042}},{"attributes":{"ID":589720,"DIS_CODE":0,"TOWNNAME":"麻豆區","LI":"穀興里","LIN":"11鄰","STREET":"仁愛路","SECT":" ","MAREA":" ","LANE":" ","ALLEY":" ","HOUSE_NO":"６號之５","E_COORD97":172977.26999999999,"N_COORD97":2564777.0099999998,"ADDRESS":"仁愛路６號之５","OBJECTID":589693},"geometry":{"x":172977.26999999955,"y":2564777.0100000016}},{"attributes":{"ID":589721,"DIS_CODE":0,"TOWNNAME":"中西區","LI":"郡王里","LIN":"11鄰","STREET":"南門路","SECT":" ","MAREA":" ","LANE":" ","ALLEY":" ","HOUSE_NO":"１４５號之１","E_COORD97":168482.32999999999,"N_COORD97":2543041.2999999998,"ADDRESS":"南門路１４５號之１","OBJECTID":589694},"geometry":{"x":168482.33000000194,"y":2543041.3000000026}},{"attributes":{"ID":589722,"DIS_CODE":0,"TOWNNAME":"中西區","LI":"郡王里","LIN":"11鄰","STREET":"南門路","SECT":" ","MAREA":" ","LANE":" ","ALLEY":" ","HOUSE_NO":"１４５號之２","E_COORD97":168478,"N_COORD97":2543041.5600000001,"ADDRESS":"南門路１４５號之２","OBJECTID":589695},"geometry":{"x":168478.00000000093,"y":2543041.5600000024}},{"attributes":{"ID":589723,"DIS_CODE":0,"TOWNNAME":"中西區","LI":"郡王里","LIN":"11鄰","STREET":"南門路","SECT":" ","MAREA":" ","LANE":" ","ALLEY":" ","HOUSE_NO":"１４７號","E_COORD97":168473.39000000001,"N_COORD97":2543041.5600000001,"ADDRESS":"南門路１４７號","OBJECTID":589696},"geometry":{"x":168473.3900000006,"y":2543041.5600000024}},{"attributes":{"ID":589724,"DIS_CODE":0,"TOWNNAME":"中西區","LI":"郡王里","LIN":"11鄰","STREET":"南門路","SECT":" ","MAREA":" ","LANE":" ","ALLEY":" ","HOUSE_NO":"１４７號之１","E_COORD97":168477.09,"N_COORD97":2543036.7599999998,"ADDRESS":"南門路１４７號之１","OBJECTID":589697},"geometry":{"x":168477.09000000171,"y":2543036.7600000016}},{"attributes":{"ID":589725,"DIS_CODE":0,"TOWNNAME":"中西區","LI":"郡王里","LIN":"11鄰","STREET":"南門路","SECT":" ","MAREA":" ","LANE":" ","ALLEY":" ","HOUSE_NO":"１４７號之２","E_COORD97":168477.95999999999,"N_COORD97":2543036.8100000001,"ADDRESS":"南門路１４７號之２","OBJECTID":589698},"geometry":{"x":168477.96000000183,"y":2543036.8100000024}},{"attributes":{"ID":589726,"DIS_CODE":0,"TOWNNAME":"中西區","LI":"郡王里","LIN":"11鄰","STREET":"南門路","SECT":" ","MAREA":" ","LANE":" ","ALLEY":" ","HOUSE_NO":"１４９號","E_COORD97":168436.57999999999,"N_COORD97":2543039.8199999998,"ADDRESS":"南門路１４９號","OBJECTID":589699},"geometry":{"x":168436.58000000194,"y":2543039.8200000022}},{"attributes":{"ID":589727,"DIS_CODE":0,"TOWNNAME":"中西區","LI":"郡王里","LIN":"11鄰","STREET":"南門路","SECT":" ","MAREA":" ","LANE":" ","ALLEY":" ","HOUSE_NO":"１４９號之１","E_COORD97":168436.57999999999,"N_COORD97":2543034.3199999998,"ADDRESS":"南門路１４９號之１","OBJECTID":589700},"geometry":{"x":168436.58000000194,"y":2543034.3200000003}},{"attributes":{"ID":589728,"DIS_CODE":0,"TOWNNAME":"中西區","LI":"郡王里","LIN":"11鄰","STREET":"南門路","SECT":" ","MAREA":" ","LANE":" ","ALLEY":" ","HOUSE_NO":"１４９號之１０","E_COORD97":168464.67999999999,"N_COORD97":2543033.1800000002,"ADDRESS":"南門路１４９號之１０","OBJECTID":589701},"geometry":{"x":168464.68000000063,"y":2543033.1800000016}},{"attributes":{"ID":589729,"DIS_CODE":0,"TOWNNAME":"中西區","LI":"郡王里","LIN":"11鄰","STREET":"南門路","SECT":" ","MAREA":" ","LANE":" ","ALLEY":" ","HOUSE_NO":"１４９號之２","E_COORD97":168436.76999999999,"N_COORD97":2543031.1000000001,"ADDRESS":"南門路１４９號之２","OBJECTID":589702},"geometry":{"x":168436.77000000048,"y":2543031.1000000015}},{"attributes":{"ID":589730,"DIS_CODE":0,"TOWNNAME":"中西區","LI":"郡王里","LIN":"11鄰","STREET":"南門路","SECT":" ","MAREA":" ","LANE":" ","ALLEY":" ","HOUSE_NO":"１４９號之３","E_COORD97":168436.57999999999,"N_COORD97":2543028.25,"ADDRESS":"南門路１４９號之３","OBJECTID":589703},"geometry":{"x":168436.58000000194,"y":2543028.25}},{"attributes":{"ID":589731,"DIS_CODE":0,"TOWNNAME":"中西區","LI":"郡王里","LIN":"11鄰","STREET":"南門路","SECT":" ","MAREA":" ","LANE":" ","ALLEY":" ","HOUSE_NO":"１４９號之４","E_COORD97":168436.57999999999,"N_COORD97":2543023.8900000001,"ADDRESS":"南門路１４９號之４","OBJECTID":589704},"geometry":{"x":168436.58000000194,"y":2543023.8900000006}},{"attributes":{"ID":589732,"DIS_CODE":0,"TOWNNAME":"中西區","LI":"郡王里","LIN":"11鄰","STREET":"南門路","SECT":" ","MAREA":" ","LANE":" ","ALLEY":" ","HOUSE_NO":"１４９號之５","E_COORD97":168451.95999999999,"N_COORD97":2543014.6000000001,"ADDRESS":"南門路１４９號之５","OBJECTID":589705},"geometry":{"x":168451.95999999996,"y":2543014.5999999996}},{"attributes":{"ID":589733,"DIS_CODE":0,"TOWNNAME":"中西區","LI":"郡王里","LIN":"11鄰","STREET":"南門路","SECT":" ","MAREA":" ","LANE":" ","ALLEY":" ","HOUSE_NO":"１４９號之６","E_COORD97":168458.04000000001,"N_COORD97":2543015.3599999999,"ADDRESS":"南門路１４９號之６","OBJECTID":589706},"geometry":{"x":168458.04000000004,"y":2543015.3600000013}},{"attributes":{"ID":589734,"DIS_CODE":0,"TOWNNAME":"中西區","LI":"郡王里","LIN":"11鄰","STREET":"南門路","SECT":" ","MAREA":" ","LANE":" ","ALLEY":" ","HOUSE_NO":"１４９號之７","E_COORD97":168462.59,"N_COORD97":2543013.8399999999,"ADDRESS":"南門路１４９號之７","OBJECTID":589707},"geometry":{"x":168462.58999999985,"y":2543013.8399999999}},{"attributes":{"ID":589735,"DIS_CODE":0,"TOWNNAME":"中西區","LI":"郡王里","LIN":"11鄰","STREET":"南門路","SECT":" ","MAREA":" ","LANE":" ","ALLEY":" ","HOUSE_NO":"１４９號之８","E_COORD97":168454.62,"N_COORD97":2543036.0299999998,"ADDRESS":"南門路１４９號之８","OBJECTID":589708},"geometry":{"x":168454.62000000011,"y":2543036.0299999993}},{"attributes":{"ID":589736,"DIS_CODE":0,"TOWNNAME":"中西區","LI":"郡王里","LIN":"11鄰","STREET":"南門路","SECT":" ","MAREA":" ","LANE":" ","ALLEY":" ","HOUSE_NO":"１４９號之９","E_COORD97":168459.17999999999,"N_COORD97":2543036.6000000001,"ADDRESS":"南門路１４９號之９","OBJECTID":589709},"geometry":{"x":168459.17999999877,"y":2543036.6000000034}},{"attributes":{"ID":589737,"DIS_CODE":0,"TOWNNAME":"中西區","LI":"郡王里","LIN":"11鄰","STREET":"南門路","SECT":" ","MAREA":" ","LANE":" ","ALLEY":" ","HOUSE_NO":"１５５號之１","E_COORD97":168480.48000000001,"N_COORD97":2542992.9300000002,"ADDRESS":"南門路１５５號之１","OBJECTID":589710},"geometry":{"x":168480.48000000138,"y":2542992.9299999997}},{"attributes":{"ID":589738,"DIS_CODE":0,"TOWNNAME":"中西區","LI":"郡王里","LIN":"11鄰","STREET":"南門路","SECT":" ","MAREA":" ","LANE":" ","ALLEY":" ","HOUSE_NO":"１５７號","E_COORD97":168476.04999999999,"N_COORD97":2542995.23,"ADDRESS":"南門路１５７號","OBJECTID":589711},"geometry":{"x":168476.05000000075,"y":2542995.2300000004}},{"attributes":{"ID":589739,"DIS_CODE":0,"TOWNNAME":"中西區","LI":"郡王里","LIN":"11鄰","STREET":"南門路","SECT":" ","MAREA":" ","LANE":" ","ALLEY":" ","HOUSE_NO":"１５７號之１","E_COORD97":168469.41,"N_COORD97":2542994.6099999999,"ADDRESS":"南門路１５７號之１","OBJECTID":589712},"geometry":{"x":168469.41000000015,"y":2542994.6099999994}},{"attributes":{"ID":589740,"DIS_CODE":0,"TOWNNAME":"仁德區","LI":"成功里","LIN":"11鄰","STREET":"成功二街","SECT":" ","MAREA":" ","LANE":" ","ALLEY":" ","HOUSE_NO":"３７號","E_COORD97":170918.10000000001,"N_COORD97":2539835.2599999998,"ADDRESS":"成功二街３７號","OBJECTID":589713},"geometry":{"x":170918.10000000056,"y":2539835.2600000035}},{"attributes":{"ID":589741,"DIS_CODE":0,"TOWNNAME":"永康區","LI":"復興里","LIN":"11鄰","STREET":"復興路","SECT":" ","MAREA":" ","LANE":" ","ALLEY":" ","HOUSE_NO":"３４８號","E_COORD97":172234.81,"N_COORD97":2544343.3300000001,"ADDRESS":"復興路３４８號","OBJECTID":589714},"geometry":{"x":172234.80999999959,"y":2544343.3300000001}},{"attributes":{"ID":589742,"DIS_CODE":0,"TOWNNAME":"永康區","LI":"大橋里","LIN":"11鄰","STREET":"大橋二街","SECT":" ","MAREA":" ","LANE":" ","ALLEY":" ","HOUSE_NO":"１４１號","E_COORD97":170899.5,"N_COORD97":2546667.9900000002,"ADDRESS":"大橋二街１４１號","OBJECTID":589715},"geometry":{"x":170899.5,"y":2546667.9900000002}},{"attributes":{"ID":589743,"DIS_CODE":0,"TOWNNAME":"東區","LI":"泉南里","LIN":"11鄰","STREET":"府連路","SECT":" ","MAREA":" ","LANE":" ","ALLEY":" ","HOUSE_NO":"３２５號","E_COORD97":169579.51000000001,"N_COORD97":2542852.6299999999,"ADDRESS":"府連路３２５號","OBJECTID":589716},"geometry":{"x":169579.51000000071,"y":2542852.6300000027}},{"attributes":{"ID":589744,"DIS_CODE":0,"TOWNNAME":"東區","LI":"泉南里","LIN":"11鄰","STREET":"府連路","SECT":" ","MAREA":" ","LANE":" ","ALLEY":" ","HOUSE_NO":"３２９號","E_COORD97":169589.23999999999,"N_COORD97":2542849.2799999998,"ADDRESS":"府連路３２９號","OBJECTID":589717},"geometry":{"x":169589.24000000115,"y":2542849.2800000012}},{"attributes":{"ID":589745,"DIS_CODE":0,"TOWNNAME":"東區","LI":"和平里","LIN":"11鄰","STREET":"仁和路","SECT":" ","MAREA":" ","LANE":" ","ALLEY":" ","HOUSE_NO":"９７號","E_COORD97":171404.23999999999,"N_COORD97":2541418.3599999999,"ADDRESS":"仁和路９７號","OBJECTID":589718},"geometry":{"x":171404.24000000115,"y":2541418.3600000013}},{"attributes":{"ID":589746,"DIS_CODE":0,"TOWNNAME":"東區","LI":"崇德里","LIN":"11鄰","STREET":"崇德十一街","SECT":" ","MAREA":" ","LANE":" ","ALLEY":" ","HOUSE_NO":"４５號地下二層","E_COORD97":170931.25,"N_COORD97":2541469.54,"ADDRESS":"崇德十一街４５號地下二層","OBJECTID":589719},"geometry":{"x":170931.25000000093,"y":2541469.5399999991}},{"attributes":{"ID":589747,"DIS_CODE":0,"TOWNNAME":"東區","LI":"崇德里","LIN":"11鄰","STREET":"崇德十一街","SECT":" ","MAREA":" ","LANE":" ","ALLEY":" ","HOUSE_NO":"４５號","E_COORD97":170931.25,"N_COORD97":2541469.54,"ADDRESS":"崇德十一街４５號","OBJECTID":589720},"geometry":{"x":170931.25000000093,"y":2541469.5399999991}},{"attributes":{"ID":589748,"DIS_CODE":0,"TOWNNAME":"東區","LI":"崇德里","LIN":"11鄰","STREET":"崇德十一街","SECT":" ","MAREA":" ","LANE":" ","ALLEY":" ","HOUSE_NO":"４７號","E_COORD97":170929.59,"N_COORD97":2541475.1800000002,"ADDRESS":"崇德十一街４７號","OBJECTID":589721},"geometry":{"x":170929.58999999985,"y":2541475.1799999997}},{"attributes":{"ID":589749,"DIS_CODE":0,"TOWNNAME":"東區","LI":"崇德里","LIN":"11鄰","STREET":"崇德十一街","SECT":" ","MAREA":" ","LANE":" ","ALLEY":" ","HOUSE_NO":"４９號","E_COORD97":170932.66,"N_COORD97":2541481.4100000001,"ADDRESS":"崇德十一街４９號","OBJECTID":589722},"geometry":{"x":170932.66000000015,"y":2541481.4100000001}},{"attributes":{"ID":589750,"DIS_CODE":0,"TOWNNAME":"東區","LI":"崇德里","LIN":"11鄰","STREET":"崇德十一街","SECT":" ","MAREA":" ","LANE":" ","ALLEY":" ","HOUSE_NO":"５１號","E_COORD97":170942.45999999999,"N_COORD97":2541483.8900000001,"ADDRESS":"崇德十一街５１號","OBJECTID":589723},"geometry":{"x":170942.45999999996,"y":2541483.8900000025}},{"attributes":{"ID":589751,"DIS_CODE":0,"TOWNNAME":"東區","LI":"崇德里","LIN":"11鄰","STREET":"崇德十一街","SECT":" ","MAREA":" ","LANE":" ","ALLEY":" ","HOUSE_NO":"５３號","E_COORD97":170949.94,"N_COORD97":2541481.4100000001,"ADDRESS":"崇德十一街５３號","OBJECTID":589724},"geometry":{"x":170949.94000000041,"y":2541481.4100000001}},{"attributes":{"ID":589752,"DIS_CODE":0,"TOWNNAME":"東區","LI":"崇德里","LIN":"11鄰","STREET":"崇德十一街","SECT":" ","MAREA":" ","LANE":" ","ALLEY":" ","HOUSE_NO":"５５號","E_COORD97":170952.42999999999,"N_COORD97":2541474.6000000001,"ADDRESS":"崇德十一街５５號","OBJECTID":589725},"geometry":{"x":170952.4299999997,"y":2541474.6000000015}},{"attributes":{"ID":589753,"DIS_CODE":0,"TOWNNAME":"東區","LI":"崇德里","LIN":"11鄰","STREET":"崇德十街","SECT":" ","MAREA":" ","LANE":" ","ALLEY":" ","HOUSE_NO":"５０號","E_COORD97":170944.89999999999,"N_COORD97":2541499.71,"ADDRESS":"崇德十街５０號","OBJECTID":589726},"geometry":{"x":170944.90000000037,"y":2541499.7100000009}},{"attributes":{"ID":589754,"DIS_CODE":0,"TOWNNAME":"永康區","LI":"大橋里","LIN":"11鄰","STREET":"大橋二街","SECT":" ","MAREA":" ","LANE":" ","ALLEY":" ","HOUSE_NO":"１４７號","E_COORD97":170917.04000000001,"N_COORD97":2546679.7400000002,"ADDRESS":"大橋二街１４７號","OBJECTID":589727},"geometry":{"x":170917.04000000097,"y":2546679.7400000002}},{"attributes":{"ID":589755,"DIS_CODE":0,"TOWNNAME":"仁德區","LI":"仁義里","LIN":"11鄰","STREET":"中山路","SECT":" ","MAREA":" ","LANE":" ","ALLEY":" ","HOUSE_NO":"５６９號","E_COORD97":173392.42999999999,"N_COORD97":2541306.9900000002,"ADDRESS":"中山路５６９號","OBJECTID":589728},"geometry":{"x":173392.43000000063,"y":2541306.9900000021}},{"attributes":{"ID":589756,"DIS_CODE":0,"TOWNNAME":"仁德區","LI":"仁義里","LIN":"11鄰","STREET":"中山路","SECT":" ","MAREA":" ","LANE":" ","ALLEY":" ","HOUSE_NO":"５８１號","E_COORD97":173368.81,"N_COORD97":2541309.4900000002,"ADDRESS":"中山路５８１號","OBJECTID":589729},"geometry":{"x":173368.80999999959,"y":2541309.4900000021}},{"attributes":{"ID":589757,"DIS_CODE":0,"TOWNNAME":"善化區","LI":"文正里","LIN":"11鄰","STREET":"光復路","SECT":" ","MAREA":" ","LANE":" ","ALLEY":" ","HOUSE_NO":"８４０號","E_COORD97":176861.23000000001,"N_COORD97":2559516.8799999999,"ADDRESS":"光復路８４０號","OBJECTID":589730},"geometry":{"x":176861.23000000138,"y":2559516.879999999}},{"attributes":{"ID":589758,"DIS_CODE":0,"TOWNNAME":"善化區","LI":"文正里","LIN":"11鄰","STREET":"光復路","SECT":" ","MAREA":" ","LANE":" ","ALLEY":" ","HOUSE_NO":"８４２號","E_COORD97":176855.03,"N_COORD97":2559520.8999999999,"ADDRESS":"光復路８４２號","OBJECTID":589731},"geometry":{"x":176855.03000000026,"y":2559520.9000000022}},{"attributes":{"ID":589759,"DIS_CODE":0,"TOWNNAME":"善化區","LI":"文正里","LIN":"11鄰","STREET":"光復路","SECT":" ","MAREA":" ","LANE":" ","ALLEY":" ","HOUSE_NO":"８４６號","E_COORD97":176857.42000000001,"N_COORD97":2559525.3900000001,"ADDRESS":"光復路８４６號","OBJECTID":589732},"geometry":{"x":176857.41999999899,"y":2559525.3900000006}},{"attributes":{"ID":589760,"DIS_CODE":0,"TOWNNAME":"善化區","LI":"文正里","LIN":"11鄰","STREET":"光復路","SECT":" ","MAREA":" ","LANE":" ","ALLEY":" ","HOUSE_NO":"８４８號","E_COORD97":176857.04000000001,"N_COORD97":2559531.4700000002,"ADDRESS":"光復路８４８號","OBJECTID":589733},"geometry":{"x":176857.04000000097,"y":2559531.4700000007}},{"attributes":{"ID":589761,"DIS_CODE":0,"TOWNNAME":"中西區","LI":"保安里","LIN":"11鄰","STREET":"中正路","SECT":" ","MAREA":" ","LANE":" ","ALLEY":" ","HOUSE_NO":"２０５號","E_COORD97":167751.34,"N_COORD97":2543706.6699999999,"ADDRESS":"中正路２０５號","OBJECTID":589734},"geometry":{"x":167751.33999999892,"y":2543706.6699999999}},{"attributes":{"ID":589762,"DIS_CODE":0,"TOWNNAME":"中西區","LI":"保安里","LIN":"11鄰","STREET":"中正路","SECT":" ","MAREA":" ","LANE":" ","ALLEY":" ","HOUSE_NO":"２０７號","E_COORD97":167748.89999999999,"N_COORD97":2543707.98,"ADDRESS":"中正路２０７號","OBJECTID":589735},"geometry":{"x":167748.9000000013,"y":2543707.9800000004}},{"attributes":{"ID":589763,"DIS_CODE":0,"TOWNNAME":"東區","LI":"崇善里","LIN":"11鄰","STREET":"崇善八街","SECT":" ","MAREA":" ","LANE":" ","ALLEY":" ","HOUSE_NO":"４號","E_COORD97":171083.07000000001,"N_COORD97":2541358.6200000001,"ADDRESS":"崇善八街４號","OBJECTID":589736},"geometry":{"x":171083.07000000216,"y":2541358.620000001}},{"attributes":{"ID":589764,"DIS_CODE":0,"TOWNNAME":"白河區","LI":"白河里","LIN":"11鄰","STREET":"中正路","SECT":" ","MAREA":" ","LANE":" ","ALLEY":" ","HOUSE_NO":"１４號","E_COORD97":190298.54000000001,"N_COORD97":2583093.54,"ADDRESS":"中正路１４號","OBJECTID":589737},"geometry":{"x":190298.54000000097,"y":2583093.5399999972}},{"attributes":{"ID":589765,"DIS_CODE":0,"TOWNNAME":"東區","LI":"莊敬里","LIN":"11鄰","STREET":"中華東路","SECT":"一段","MAREA":" ","LANE":" ","ALLEY":" ","HOUSE_NO":"４號","E_COORD97":171515.94,"N_COORD97":2544277.1299999999,"ADDRESS":"中華東路一段４號","OBJECTID":589738},"geometry":{"x":171515.94000000041,"y":2544277.1300000008}},{"attributes":{"ID":589766,"DIS_CODE":0,"TOWNNAME":"東區","LI":"莊敬里","LIN":"11鄰","STREET":"中華東路","SECT":"一段","MAREA":" ","LANE":" ","ALLEY":" ","HOUSE_NO":"６號","E_COORD97":171515.38,"N_COORD97":2544272.3999999999,"ADDRESS":"中華東路一段６號","OBJECTID":589739},"geometry":{"x":171515.37999999989,"y":2544272.4000000004}},{"attributes":{"ID":589767,"DIS_CODE":0,"TOWNNAME":"永康區","LI":"網寮里","LIN":"11鄰","STREET":"永勝街","SECT":" ","MAREA":" ","LANE":" ","ALLEY":" ","HOUSE_NO":"１３７號","E_COORD97":173358.45000000001,"N_COORD97":2546421.7599999998,"ADDRESS":"永勝街１３７號","OBJECTID":589740},"geometry":{"x":173358.45000000019,"y":2546421.7599999998}},{"attributes":{"ID":589768,"DIS_CODE":0,"TOWNNAME":"永康區","LI":"龍潭里","LIN":"11鄰","STREET":"龍橋街","SECT":" ","MAREA":" ","LANE":" ","ALLEY":" ","HOUSE_NO":"９號","E_COORD97":174865.47,"N_COORD97":2548305.3900000001,"ADDRESS":"龍橋街９號","OBJECTID":589741},"geometry":{"x":174865.47000000067,"y":2548305.3900000025}},{"attributes":{"ID":589769,"DIS_CODE":0,"TOWNNAME":"永康區","LI":"龍潭里","LIN":"11鄰","STREET":"龍橋街","SECT":" ","MAREA":" ","LANE":" ","ALLEY":" ","HOUSE_NO":"２３號","E_COORD97":174839.92000000001,"N_COORD97":2548338.2000000002,"ADDRESS":"龍橋街２３號","OBJECTID":589742},"geometry":{"x":174839.91999999993,"y":2548338.200000003}},{"attributes":{"ID":589770,"DIS_CODE":0,"TOWNNAME":"中西區","LI":"天后里","LIN":"11鄰","STREET":"民族路","SECT":"二段","MAREA":" ","LANE":" ","ALLEY":" ","HOUSE_NO":"３７７號","E_COORD97":168151.73999999999,"N_COORD97":2544173.2200000002,"ADDRESS":"民族路二段３７７號","OBJECTID":589743},"geometry":{"x":168151.74000000022,"y":2544173.2200000025}},{"attributes":{"ID":589771,"DIS_CODE":0,"TOWNNAME":"中西區","LI":"天后里","LIN":"11鄰","STREET":"民族路","SECT":"二段","MAREA":" ","LANE":" ","ALLEY":" ","HOUSE_NO":"３７９號","E_COORD97":168144.09,"N_COORD97":2544174.8900000001,"ADDRESS":"民族路二段３７９號","OBJECTID":589744},"geometry":{"x":168144.08999999985,"y":2544174.8900000043}},{"attributes":{"ID":589772,"DIS_CODE":0,"TOWNNAME":"中西區","LI":"天后里","LIN":"11鄰","STREET":"民族路","SECT":"二段","MAREA":" ","LANE":" ","ALLEY":" ","HOUSE_NO":"３８１號","E_COORD97":168140.41,"N_COORD97":2544176.8300000001,"ADDRESS":"民族路二段３８１號","OBJECTID":589745},"geometry":{"x":168140.41000000015,"y":2544176.8300000001}},{"attributes":{"ID":589773,"DIS_CODE":0,"TOWNNAME":"中西區","LI":"天后里","LIN":"11鄰","STREET":"民族路","SECT":"二段","MAREA":" ","LANE":" ","ALLEY":" ","HOUSE_NO":"３８３號","E_COORD97":168134.57999999999,"N_COORD97":2544180.9399999999,"ADDRESS":"民族路二段３８３號","OBJECTID":589746},"geometry":{"x":168134.58000000007,"y":2544180.9400000013}},{"attributes":{"ID":589774,"DIS_CODE":0,"TOWNNAME":"中西區","LI":"天后里","LIN":"11鄰","STREET":"民族路","SECT":"二段","MAREA":" ","LANE":" ","ALLEY":" ","HOUSE_NO":"３８５號","E_COORD97":168129.39999999999,"N_COORD97":2544182.6699999999,"ADDRESS":"民族路二段３８５號","OBJECTID":589747},"geometry":{"x":168129.40000000037,"y":2544182.6700000018}},{"attributes":{"ID":589775,"DIS_CODE":0,"TOWNNAME":"中西區","LI":"天后里","LIN":"11鄰","STREET":"民族路","SECT":"二段","MAREA":" ","LANE":" ","ALLEY":" ","HOUSE_NO":"３８７號","E_COORD97":168126.14999999999,"N_COORD97":2544183.96,"ADDRESS":"民族路二段３８７號","OBJECTID":589748},"geometry":{"x":168126.14999999944,"y":2544183.9600000009}},{"attributes":{"ID":589776,"DIS_CODE":0,"TOWNNAME":"中西區","LI":"天后里","LIN":"11鄰","STREET":"民族路","SECT":"二段","MAREA":" ","LANE":" ","ALLEY":" ","HOUSE_NO":"３８９號","E_COORD97":168122.04999999999,"N_COORD97":2544183.96,"ADDRESS":"民族路二段３８９號","OBJECTID":589749},"geometry":{"x":168122.05000000075,"y":2544183.9600000009}},{"attributes":{"ID":589777,"DIS_CODE":0,"TOWNNAME":"中西區","LI":"法華里","LIN":"11鄰","STREET":"府連路","SECT":" ","MAREA":" ","LANE":" ","ALLEY":" ","HOUSE_NO":"３５號","E_COORD97":168957.39000000001,"N_COORD97":2542538.6699999999,"ADDRESS":"府連路３５號","OBJECTID":589750},"geometry":{"x":168957.38999999966,"y":2542538.6700000018}},{"attributes":{"ID":589778,"DIS_CODE":0,"TOWNNAME":"中西區","LI":"法華里","LIN":"11鄰","STREET":"府連路","SECT":" ","MAREA":" ","LANE":" ","ALLEY":" ","HOUSE_NO":"３號","E_COORD97":168955.01999999999,"N_COORD97":2542459.2799999998,"ADDRESS":"府連路３號","OBJECTID":589751},"geometry":{"x":168955.01999999955,"y":2542459.2800000012}},{"attributes":{"ID":589779,"DIS_CODE":0,"TOWNNAME":"中西區","LI":"法華里","LIN":"11鄰","STREET":"府連路","SECT":" ","MAREA":" ","LANE":" ","ALLEY":" ","HOUSE_NO":"５號","E_COORD97":168954.63,"N_COORD97":2542463.9900000002,"ADDRESS":"府連路５號","OBJECTID":589752},"geometry":{"x":168954.62999999989,"y":2542463.9900000002}},{"attributes":{"ID":589780,"DIS_CODE":0,"TOWNNAME":"中西區","LI":"法華里","LIN":"11鄰","STREET":"健康路","SECT":"一段","MAREA":" ","LANE":" ","ALLEY":" ","HOUSE_NO":"９０號","E_COORD97":168952.26999999999,"N_COORD97":2542446.21,"ADDRESS":"健康路一段９０號","OBJECTID":589753},"geometry":{"x":168952.27000000048,"y":2542446.2100000009}},{"attributes":{"ID":589781,"DIS_CODE":0,"TOWNNAME":"中西區","LI":"法華里","LIN":"11鄰","STREET":"健康路","SECT":"一段","MAREA":" ","LANE":" ","ALLEY":" ","HOUSE_NO":"９２號","E_COORD97":168939.28,"N_COORD97":2542447.7799999998,"ADDRESS":"健康路一段９２號","OBJECTID":589754},"geometry":{"x":168939.28000000119,"y":2542447.7799999993}},{"attributes":{"ID":589782,"DIS_CODE":0,"TOWNNAME":"中西區","LI":"法華里","LIN":"11鄰","STREET":"健康路","SECT":"一段","MAREA":" ","LANE":" ","ALLEY":" ","HOUSE_NO":"９４號","E_COORD97":168935.34,"N_COORD97":2542450.1400000001,"ADDRESS":"健康路一段９４號","OBJECTID":589755},"geometry":{"x":168935.34000000078,"y":2542450.1400000006}},{"attributes":{"ID":589783,"DIS_CODE":0,"TOWNNAME":"中西區","LI":"法華里","LIN":"11鄰","STREET":"健康路","SECT":"一段","MAREA":" ","LANE":" ","ALLEY":" ","HOUSE_NO":"９６號","E_COORD97":168930.62,"N_COORD97":2542447,"ADDRESS":"健康路一段９６號","OBJECTID":589756},"geometry":{"x":168930.62000000011,"y":2542447}},{"attributes":{"ID":589784,"DIS_CODE":0,"TOWNNAME":"中西區","LI":"法華里","LIN":"11鄰","STREET":"健康路","SECT":"一段","MAREA":" ","LANE":" ","ALLEY":" ","HOUSE_NO":"９８號","E_COORD97":168926.29000000001,"N_COORD97":2542449.75,"ADDRESS":"健康路一段９８號","OBJECTID":589757},"geometry":{"x":168926.29000000004,"y":2542449.7500000019}},{"attributes":{"ID":589785,"DIS_CODE":0,"TOWNNAME":"安南區","LI":"安順里","LIN":"11鄰","STREET":"安和路","SECT":"四段","MAREA":" ","LANE":" ","ALLEY":" ","HOUSE_NO":"８０號","E_COORD97":169985.89999999999,"N_COORD97":2550256.5800000001,"ADDRESS":"安和路四段８０號","OBJECTID":589758},"geometry":{"x":169985.90000000224,"y":2550256.5800000019}},{"attributes":{"ID":589786,"DIS_CODE":0,"TOWNNAME":"安南區","LI":"安順里","LIN":"11鄰","STREET":"安和路","SECT":"四段","MAREA":" ","LANE":" ","ALLEY":" ","HOUSE_NO":"８２號","E_COORD97":169962.79999999999,"N_COORD97":2550266.77,"ADDRESS":"安和路四段８２號","OBJECTID":589759},"geometry":{"x":169962.80000000075,"y":2550266.7699999977}},{"attributes":{"ID":589787,"DIS_CODE":0,"TOWNNAME":"安南區","LI":"安順里","LIN":"11鄰","STREET":"安和路","SECT":"四段","MAREA":" ","LANE":" ","ALLEY":" ","HOUSE_NO":"１１２號","E_COORD97":169957.09,"N_COORD97":2550332.79,"ADDRESS":"安和路四段１１２號","OBJECTID":589760},"geometry":{"x":169957.09000000078,"y":2550332.7899999991}},{"attributes":{"ID":589788,"DIS_CODE":0,"TOWNNAME":"安南區","LI":"安順里","LIN":"11鄰","STREET":"安和路","SECT":"四段","MAREA":" ","LANE":" ","ALLEY":" ","HOUSE_NO":"１１８號","E_COORD97":169955.84,"N_COORD97":2550341.7200000002,"ADDRESS":"安和路四段１１８號","OBJECTID":589761},"geometry":{"x":169955.84000000078,"y":2550341.7200000007}},{"attributes":{"ID":589789,"DIS_CODE":0,"TOWNNAME":"安南區","LI":"安順里","LIN":"11鄰","STREET":"安和路","SECT":"四段","MAREA":" ","LANE":" ","ALLEY":" ","HOUSE_NO":"１８０號","E_COORD97":169941.79000000001,"N_COORD97":2550512.25,"ADDRESS":"安和路四段１８０號","OBJECTID":589762},"geometry":{"x":169941.79000000004,"y":2550512.2500000019}},{"attributes":{"ID":589790,"DIS_CODE":0,"TOWNNAME":"安南區","LI":"安慶里","LIN":"11鄰","STREET":"長溪路","SECT":"一段","MAREA":" ","LANE":" ","ALLEY":" ","HOUSE_NO":"１８８號","E_COORD97":168985.09,"N_COORD97":2548596.6800000002,"ADDRESS":"長溪路一段１８８號","OBJECTID":589763},"geometry":{"x":168985.08999999985,"y":2548596.6800000016}},{"attributes":{"ID":589791,"DIS_CODE":0,"TOWNNAME":"安南區","LI":"安慶里","LIN":"11鄰","STREET":"長溪路","SECT":"一段","MAREA":" ","LANE":" ","ALLEY":" ","HOUSE_NO":"１９０號","E_COORD97":168980.79000000001,"N_COORD97":2548598.52,"ADDRESS":"長溪路一段１９０號","OBJECTID":589764},"geometry":{"x":168980.79000000004,"y":2548598.5200000014}},{"attributes":{"ID":589792,"DIS_CODE":0,"TOWNNAME":"安南區","LI":"安慶里","LIN":"11鄰","STREET":"長溪路","SECT":"一段","MAREA":" ","LANE":" ","ALLEY":" ","HOUSE_NO":"１９４號","E_COORD97":168975.45999999999,"N_COORD97":2548616.23,"ADDRESS":"長溪路一段１９４號","OBJECTID":589765},"geometry":{"x":168975.46000000089,"y":2548616.2300000004}},{"attributes":{"ID":589793,"DIS_CODE":0,"TOWNNAME":"永康區","LI":"大橋里","LIN":"5鄰","STREET":"大橋五街","SECT":" ","MAREA":" ","LANE":" ","ALLEY":" ","HOUSE_NO":"１８之２號","E_COORD97":170796.87,"N_COORD97":2546843.8999999999,"ADDRESS":"大橋五街１８之２號","OBJECTID":589766},"geometry":{"x":170796.87000000104,"y":2546843.9000000022}},{"attributes":{"ID":589794,"DIS_CODE":0,"TOWNNAME":"永康區","LI":"大橋里","LIN":"29鄰","STREET":"大橋一街","SECT":" ","MAREA":" ","LANE":" ","ALLEY":" ","HOUSE_NO":"２３２號","E_COORD97":171031.37,"N_COORD97":2546466.2400000002,"ADDRESS":"大橋一街２３２號","OBJECTID":589767},"geometry":{"x":171031.37000000011,"y":2546466.2400000002}},{"attributes":{"ID":589795,"DIS_CODE":0,"TOWNNAME":"安南區","LI":"安慶里","LIN":"11鄰","STREET":"長溪路","SECT":"一段","MAREA":" ","LANE":" ","ALLEY":" ","HOUSE_NO":"１９６號","E_COORD97":168971.39000000001,"N_COORD97":2548618.0899999999,"ADDRESS":"長溪路一段１９６號","OBJECTID":589768},"geometry":{"x":168971.39000000153,"y":2548618.0900000017}},{"attributes":{"ID":589796,"DIS_CODE":0,"TOWNNAME":"安南區","LI":"安慶里","LIN":"11鄰","STREET":"長溪路","SECT":"一段","MAREA":" ","LANE":" ","ALLEY":" ","HOUSE_NO":"１９８號","E_COORD97":168967.48999999999,"N_COORD97":2548620.04,"ADDRESS":"長溪路一段１９８號","OBJECTID":589769},"geometry":{"x":168967.49000000022,"y":2548620.0399999991}},{"attributes":{"ID":589797,"DIS_CODE":0,"TOWNNAME":"安南區","LI":"安慶里","LIN":"11鄰","STREET":"長溪路","SECT":"一段","MAREA":" ","LANE":" ","ALLEY":" ","HOUSE_NO":"２００號","E_COORD97":168964.09,"N_COORD97":2548621.0600000001,"ADDRESS":"長溪路一段２００號","OBJECTID":589770},"geometry":{"x":168964.09000000078,"y":2548621.0600000005}},{"attributes":{"ID":589798,"DIS_CODE":0,"TOWNNAME":"安南區","LI":"安慶里","LIN":"11鄰","STREET":"長溪路","SECT":"一段","MAREA":" ","LANE":" ","ALLEY":" ","HOUSE_NO":"２０２號","E_COORD97":168960.53,"N_COORD97":2548623.5499999998,"ADDRESS":"長溪路一段２０２號","OBJECTID":589771},"geometry":{"x":168960.53000000026,"y":2548623.5500000026}},{"attributes":{"ID":589799,"DIS_CODE":0,"TOWNNAME":"安南區","LI":"安慶里","LIN":"11鄰","STREET":"長溪路","SECT":"一段","MAREA":" ","LANE":" ","ALLEY":" ","HOUSE_NO":"２０８號","E_COORD97":168950.85999999999,"N_COORD97":2548630.6600000001,"ADDRESS":"長溪路一段２０８號","OBJECTID":589772},"geometry":{"x":168950.86000000127,"y":2548630.6599999983}},{"attributes":{"ID":589800,"DIS_CODE":0,"TOWNNAME":"安南區","LI":"安慶里","LIN":"11鄰","STREET":"長溪路","SECT":"一段","MAREA":" ","LANE":" ","ALLEY":" ","HOUSE_NO":"２０４號","E_COORD97":168957.22,"N_COORD97":2548623.46,"ADDRESS":"長溪路一段２０４號","OBJECTID":589773},"geometry":{"x":168957.21999999974,"y":2548623.4600000028}},{"attributes":{"ID":589801,"DIS_CODE":0,"TOWNNAME":"安南區","LI":"安慶里","LIN":"11鄰","STREET":"長溪路","SECT":"一段","MAREA":" ","LANE":" ","ALLEY":" ","HOUSE_NO":"１８０號","E_COORD97":168996.95999999999,"N_COORD97":2548586.5099999998,"ADDRESS":"長溪路一段１８０號","OBJECTID":589774},"geometry":{"x":168996.96000000089,"y":2548586.5099999998}},{"attributes":{"ID":589802,"DIS_CODE":0,"TOWNNAME":"安南區","LI":"安慶里","LIN":"11鄰","STREET":"長溪路","SECT":"一段","MAREA":" ","LANE":" ","ALLEY":" ","HOUSE_NO":"１７６號","E_COORD97":169002.60999999999,"N_COORD97":2548581.0099999998,"ADDRESS":"長溪路一段１７６號","OBJECTID":589775},"geometry":{"x":169002.61000000034,"y":2548581.0100000016}},{"attributes":{"ID":589803,"DIS_CODE":0,"TOWNNAME":"安南區","LI":"安慶里","LIN":"11鄰","STREET":"長溪路","SECT":"一段","MAREA":" ","LANE":" ","ALLEY":" ","HOUSE_NO":"１７０號","E_COORD97":169011.35999999999,"N_COORD97":2548572.1800000002,"ADDRESS":"長溪路一段１７０號","OBJECTID":589776},"geometry":{"x":169011.3600000022,"y":2548572.1799999997}},{"attributes":{"ID":589804,"DIS_CODE":0,"TOWNNAME":"安南區","LI":"州南里","LIN":"11鄰","STREET":"安和路","SECT":"四段","MAREA":" ","LANE":" ","ALLEY":" ","HOUSE_NO":"５９４號","E_COORD97":169960.60999999999,"N_COORD97":2551444.02,"ADDRESS":"安和路四段５９４號","OBJECTID":589777},"geometry":{"x":169960.6100000022,"y":2551444.0199999996}},{"attributes":{"ID":589805,"DIS_CODE":0,"TOWNNAME":"永康區","LI":"大橋里","LIN":"18鄰","STREET":"大橋二街","SECT":" ","MAREA":" ","LANE":" ","ALLEY":" ","HOUSE_NO":"１５０號","E_COORD97":171042.62,"N_COORD97":2546742.5,"ADDRESS":"大橋二街１５０號","OBJECTID":589778},"geometry":{"x":171042.62000000104,"y":2546742.5}},{"attributes":{"ID":589806,"DIS_CODE":0,"TOWNNAME":"永康區","LI":"大橋里","LIN":"6鄰","STREET":"大橋五街","SECT":" ","MAREA":" ","LANE":" ","ALLEY":" ","HOUSE_NO":"１２０號","E_COORD97":170971.82999999999,"N_COORD97":2546962.5800000001,"ADDRESS":"大橋五街１２０號","OBJECTID":589779},"geometry":{"x":170971.83000000007,"y":2546962.5800000001}},{"attributes":{"ID":589807,"DIS_CODE":0,"TOWNNAME":"永康區","LI":"大橋里","LIN":"30鄰","STREET":"大橋一街","SECT":" ","MAREA":" ","LANE":" ","ALLEY":" ","HOUSE_NO":"２６８號之３","E_COORD97":171133.51999999999,"N_COORD97":2546515.2999999998,"ADDRESS":"大橋一街２６８號之３","OBJECTID":589780},"geometry":{"x":171133.52000000142,"y":2546515.3000000026}},{"attributes":{"ID":589808,"DIS_CODE":0,"TOWNNAME":"永康區","LI":"大灣里","LIN":"23鄰","STREET":"大灣路","SECT":" ","MAREA":" ","LANE":" ","ALLEY":" ","HOUSE_NO":"２４５號","E_COORD97":174927.92000000001,"N_COORD97":2545227.5099999998,"ADDRESS":"大灣路２４５號","OBJECTID":589781},"geometry":{"x":174927.91999999993,"y":2545227.5100000035}},{"attributes":{"ID":589809,"DIS_CODE":0,"TOWNNAME":"安南區","LI":"城南里","LIN":"11鄰","STREET":"城西街","SECT":"二段","MAREA":" ","LANE":" ","ALLEY":" ","HOUSE_NO":"１６２號","E_COORD97":159941.07000000001,"N_COORD97":2551061.3300000001,"ADDRESS":"城西街二段１６２號","OBJECTID":589782},"geometry":{"x":159941.07000000123,"y":2551061.3300000019}},{"attributes":{"ID":589810,"DIS_CODE":0,"TOWNNAME":"安南區","LI":"城南里","LIN":"11鄰","STREET":"城西街","SECT":"二段","MAREA":" ","LANE":" ","ALLEY":" ","HOUSE_NO":"２１８號","E_COORD97":159798.57000000001,"N_COORD97":2551032.52,"ADDRESS":"城西街二段２１８號","OBJECTID":589783},"geometry":{"x":159798.57000000123,"y":2551032.5200000014}},{"attributes":{"ID":589811,"DIS_CODE":0,"TOWNNAME":"安南區","LI":"城南里","LIN":"11鄰","STREET":"城西街","SECT":"二段","MAREA":" ","LANE":" ","ALLEY":" ","HOUSE_NO":"２２０號","E_COORD97":159794.29999999999,"N_COORD97":2551029.7799999998,"ADDRESS":"城西街二段２２０號","OBJECTID":589784},"geometry":{"x":159794.29999999981,"y":2551029.7800000031}},{"attributes":{"ID":589812,"DIS_CODE":0,"TOWNNAME":"安南區","LI":"城南里","LIN":"11鄰","STREET":"城西街","SECT":"二段","MAREA":" ","LANE":" ","ALLEY":" ","HOUSE_NO":"２２６號","E_COORD97":159784.84,"N_COORD97":2551029.4700000002,"ADDRESS":"城西街二段２２６號","OBJECTID":589785},"geometry":{"x":159784.84000000078,"y":2551029.4699999988}},{"attributes":{"ID":589813,"DIS_CODE":0,"TOWNNAME":"安南區","LI":"城南里","LIN":"11鄰","STREET":"城西街","SECT":"二段","MAREA":" ","LANE":" ","ALLEY":" ","HOUSE_NO":"６號","E_COORD97":160224.78,"N_COORD97":2551150.7200000002,"ADDRESS":"城西街二段６號","OBJECTID":589786},"geometry":{"x":160224.78000000119,"y":2551150.7200000025}},{"attributes":{"ID":589814,"DIS_CODE":0,"TOWNNAME":"安南區","LI":"安順里","LIN":"11鄰","STREET":"安和路","SECT":"四段","MAREA":" ","LANE":" ","ALLEY":" ","HOUSE_NO":"１００號","E_COORD97":169958.57999999999,"N_COORD97":2550307.73,"ADDRESS":"安和路四段１００號","OBJECTID":589787},"geometry":{"x":169958.58000000007,"y":2550307.7300000004}},{"attributes":{"ID":589815,"DIS_CODE":0,"TOWNNAME":"安南區","LI":"州南里","LIN":"11鄰","STREET":"安和路","SECT":"四段","MAREA":" ","LANE":" ","ALLEY":" ","HOUSE_NO":"５７０號","E_COORD97":169958.01999999999,"N_COORD97":2551399.48,"ADDRESS":"安和路四段５７０號","OBJECTID":589788},"geometry":{"x":169958.01999999955,"y":2551399.4800000023}},{"attributes":{"ID":589816,"DIS_CODE":0,"TOWNNAME":"安南區","LI":"溪心里","LIN":"11鄰","STREET":"仁安八街","SECT":" ","MAREA":" ","LANE":" ","ALLEY":" ","HOUSE_NO":"６３號","E_COORD97":166300.59,"N_COORD97":2549971.5099999998,"ADDRESS":"仁安八街６３號","OBJECTID":589789},"geometry":{"x":166300.59000000078,"y":2549971.5100000016}},{"attributes":{"ID":589817,"DIS_CODE":0,"TOWNNAME":"安南區","LI":"安西里","LIN":"11鄰","STREET":"安中路","SECT":"一段","MAREA":" ","LANE":" ","ALLEY":" ","HOUSE_NO":"３０號","E_COORD97":169158.90336200001,"N_COORD97":2548263.4969000001,"ADDRESS":"安中路一段３０號","OBJECTID":589790},"geometry":{"x":169158.90336200036,"y":2548263.4969030004}},{"attributes":{"ID":589818,"DIS_CODE":0,"TOWNNAME":"安南區","LI":"安西里","LIN":"11鄰","STREET":"安中路","SECT":"一段","MAREA":" ","LANE":" ","ALLEY":" ","HOUSE_NO":"３２號","E_COORD97":169155.511757,"N_COORD97":2548266.4602399999,"ADDRESS":"安中路一段３２號","OBJECTID":589791},"geometry":{"x":169155.51175700035,"y":2548266.4602350015}},{"attributes":{"ID":589819,"DIS_CODE":0,"TOWNNAME":"安南區","LI":"安西里","LIN":"11鄰","STREET":"安中路","SECT":"一段","MAREA":" ","LANE":" ","ALLEY":" ","HOUSE_NO":"３８號","E_COORD97":169139.61361199999,"N_COORD97":2548276.4085599999,"ADDRESS":"安中路一段３８號","OBJECTID":589792},"geometry":{"x":169139.6136119999,"y":2548276.4085629992}},{"attributes":{"ID":589820,"DIS_CODE":0,"TOWNNAME":"安南區","LI":"學東里","LIN":"11鄰","STREET":"公學路","SECT":"六段","MAREA":" ","LANE":" ","ALLEY":" ","HOUSE_NO":"６７８號","E_COORD97":162175.03,"N_COORD97":2553281.5899999999,"ADDRESS":"公學路六段６７８號","OBJECTID":589793},"geometry":{"x":162175.02999999933,"y":2553281.5899999999}},{"attributes":{"ID":589821,"DIS_CODE":0,"TOWNNAME":"安南區","LI":"學東里","LIN":"11鄰","STREET":"公學路","SECT":"六段","MAREA":" ","LANE":" ","ALLEY":" ","HOUSE_NO":"６７６號","E_COORD97":162181.47,"N_COORD97":2553281.5899999999,"ADDRESS":"公學路六段６７６號","OBJECTID":589794},"geometry":{"x":162181.46999999974,"y":2553281.5899999999}},{"attributes":{"ID":589822,"DIS_CODE":0,"TOWNNAME":"安南區","LI":"學東里","LIN":"11鄰","STREET":"公學路","SECT":"六段","MAREA":" ","LANE":" ","ALLEY":" ","HOUSE_NO":"６７４號","E_COORD97":162185.64000000001,"N_COORD97":2553279.7000000002,"ADDRESS":"公學路六段６７４號","OBJECTID":589795},"geometry":{"x":162185.64000000153,"y":2553279.6999999993}},{"attributes":{"ID":589823,"DIS_CODE":0,"TOWNNAME":"安南區","LI":"新順里","LIN":"11鄰","STREET":"安和路","SECT":"三段","MAREA":" ","LANE":" ","ALLEY":" ","HOUSE_NO":"１４９號","E_COORD97":169854.31,"N_COORD97":2549731.2000000002,"ADDRESS":"安和路三段１４９號","OBJECTID":589796},"geometry":{"x":169854.30999999959,"y":2549731.1999999993}},{"attributes":{"ID":589824,"DIS_CODE":0,"TOWNNAME":"安南區","LI":"新順里","LIN":"11鄰","STREET":"安和路","SECT":"三段","MAREA":" ","LANE":" ","ALLEY":" ","HOUSE_NO":"１５１號","E_COORD97":169857.16,"N_COORD97":2549738.9100000001,"ADDRESS":"安和路三段１５１號","OBJECTID":589797},"geometry":{"x":169857.16000000108,"y":2549738.910000002}},{"attributes":{"ID":589825,"DIS_CODE":0,"TOWNNAME":"安南區","LI":"新順里","LIN":"11鄰","STREET":"育安四街","SECT":" ","MAREA":" ","LANE":" ","ALLEY":" ","HOUSE_NO":"１１２號","E_COORD97":169756.54999999999,"N_COORD97":2549729.48,"ADDRESS":"育安四街１１２號","OBJECTID":589798},"geometry":{"x":169756.54999999981,"y":2549729.4800000004}},{"attributes":{"ID":589826,"DIS_CODE":0,"TOWNNAME":"安南區","LI":"新順里","LIN":"11鄰","STREET":"育安四街","SECT":" ","MAREA":" ","LANE":" ","ALLEY":" ","HOUSE_NO":"１１６號","E_COORD97":169758.26999999999,"N_COORD97":2549734.0499999998,"ADDRESS":"育安四街１１６號","OBJECTID":589799},"geometry":{"x":169758.26999999955,"y":2549734.0500000045}},{"attributes":{"ID":589827,"DIS_CODE":0,"TOWNNAME":"永康區","LI":"大灣里","LIN":"15鄰","STREET":"大民街","SECT":" ","MAREA":" ","LANE":" ","ALLEY":" ","HOUSE_NO":"２６號","E_COORD97":174802.88,"N_COORD97":2545261.1000000001,"ADDRESS":"大民街２６號","OBJECTID":589800},"geometry":{"x":174802.87999999989,"y":2545261.1000000015}}]}