{"displayFieldName":"TOWNNAME","fieldAliases":{"ID":"ID","DIS_CODE":"DIS_CODE","TOWNNAME":"TOWNNAME","LI":"LI","LIN":"LIN","STREET":"STREET","SECT":"SECT","MAREA":"MAREA","LANE":"LANE","ALLEY":"ALLEY","HOUSE_NO":"HOUSE_NO","E_COORD97":"E_COORD97","N_COORD97":"N_COORD97","ADDRESS":"ADDRESS","OBJECTID":"OBJECTID"},"geometryType":"esriGeometryPoint","spatialReference":{"wkid":102443,"latestWkid":3826},"fields":[{"name":"ID","type":"esriFieldTypeDouble","alias":"ID"},{"name":"DIS_CODE","type":"esriFieldTypeInteger","alias":"DIS_CODE"},{"name":"TOWNNAME","type":"esriFieldTypeString","alias":"TOWNNAME","length":8},{"name":"LI","type":"esriFieldTypeString","alias":"LI","length":8},{"name":"LIN","type":"esriFieldTypeString","alias":"LIN","length":12},{"name":"STREET","type":"esriFieldTypeString","alias":"STREET","length":20},{"name":"SECT","type":"esriFieldTypeString","alias":"SECT","length":8},{"name":"MAREA","type":"esriFieldTypeString","alias":"MAREA","length":12},{"name":"LANE","type":"esriFieldTypeString","alias":"LANE","length":10},{"name":"ALLEY","type":"esriFieldTypeString","alias":"ALLEY","length":10},{"name":"HOUSE_NO","type":"esriFieldTypeString","alias":"HOUSE_NO","length":20},{"name":"E_COORD97","type":"esriFieldTypeDouble","alias":"E_COORD97"},{"name":"N_COORD97","type":"esriFieldTypeDouble","alias":"N_COORD97"},{"name":"ADDRESS","type":"esriFieldTypeString","alias":"ADDRESS","length":50},{"name":"OBJECTID","type":"esriFieldTypeOID","alias":"OBJECTID"}],"features":[{"attributes":{"ID":245005,"DIS_CODE":0,"TOWNNAME":"南區","LI":"田寮里","LIN":"11鄰","STREET":"新興路","SECT":" ","MAREA":" ","LANE":"１１３巷","ALLEY":" ","HOUSE_NO":"１號","E_COORD97":167548.32999999999,"N_COORD97":2542117.98,"ADDRESS":"新興路１１３巷１號","OBJECTID":245001},"geometry":{"x":167548.33000000194,"y":2542117.9800000004}},{"attributes":{"ID":245006,"DIS_CODE":0,"TOWNNAME":"南區","LI":"田寮里","LIN":"11鄰","STREET":"新興路","SECT":" ","MAREA":" ","LANE":"１１３巷","ALLEY":" ","HOUSE_NO":"３號","E_COORD97":167551.26999999999,"N_COORD97":2542111.8500000001,"ADDRESS":"新興路１１３巷３號","OBJECTID":245002},"geometry":{"x":167551.26999999955,"y":2542111.8499999996}},{"attributes":{"ID":245007,"DIS_CODE":0,"TOWNNAME":"南區","LI":"田寮里","LIN":"11鄰","STREET":"新興路","SECT":" ","MAREA":" ","LANE":"１１３巷","ALLEY":" ","HOUSE_NO":"７號","E_COORD97":167558.97,"N_COORD97":2542118.4700000002,"ADDRESS":"新興路１１３巷７號","OBJECTID":245003},"geometry":{"x":167558.9700000016,"y":2542118.4700000007}},{"attributes":{"ID":245008,"DIS_CODE":0,"TOWNNAME":"南區","LI":"田寮里","LIN":"11鄰","STREET":"新興路","SECT":" ","MAREA":" ","LANE":"１１３巷","ALLEY":" ","HOUSE_NO":"９號","E_COORD97":167563.19,"N_COORD97":2542115.5800000001,"ADDRESS":"新興路１１３巷９號","OBJECTID":245004},"geometry":{"x":167563.19000000227,"y":2542115.5800000019}},{"attributes":{"ID":245009,"DIS_CODE":0,"TOWNNAME":"南區","LI":"喜北里","LIN":"11鄰","STREET":"喜樹路","SECT":" ","MAREA":" ","LANE":"１６８巷","ALLEY":" ","HOUSE_NO":"１０號","E_COORD97":165834.04999999999,"N_COORD97":2538238.02,"ADDRESS":"喜樹路１６８巷１０號","OBJECTID":245005},"geometry":{"x":165834.04999999981,"y":2538238.0199999996}},{"attributes":{"ID":245010,"DIS_CODE":0,"TOWNNAME":"南區","LI":"喜北里","LIN":"11鄰","STREET":"喜樹路","SECT":" ","MAREA":" ","LANE":"１６８巷","ALLEY":" ","HOUSE_NO":"１１號","E_COORD97":165819.69,"N_COORD97":2538224.1099999999,"ADDRESS":"喜樹路１６８巷１１號","OBJECTID":245006},"geometry":{"x":165819.69000000041,"y":2538224.1099999994}},{"attributes":{"ID":245011,"DIS_CODE":0,"TOWNNAME":"南區","LI":"喜北里","LIN":"11鄰","STREET":"喜樹路","SECT":" ","MAREA":" ","LANE":"１６８巷","ALLEY":" ","HOUSE_NO":"１２號","E_COORD97":165827.78,"N_COORD97":2538238.5499999998,"ADDRESS":"喜樹路１６８巷１２號","OBJECTID":245007},"geometry":{"x":165827.78000000026,"y":2538238.5500000026}},{"attributes":{"ID":245012,"DIS_CODE":0,"TOWNNAME":"南區","LI":"喜北里","LIN":"11鄰","STREET":"喜樹路","SECT":" ","MAREA":" ","LANE":"１６８巷","ALLEY":" ","HOUSE_NO":"１３號","E_COORD97":165812.35999999999,"N_COORD97":2538225.0099999998,"ADDRESS":"喜樹路１６８巷１３號","OBJECTID":245008},"geometry":{"x":165812.36000000034,"y":2538225.0099999998}},{"attributes":{"ID":245013,"DIS_CODE":0,"TOWNNAME":"南區","LI":"喜北里","LIN":"11鄰","STREET":"喜樹路","SECT":" ","MAREA":" ","LANE":"１６８巷","ALLEY":" ","HOUSE_NO":"１４號","E_COORD97":165821.20000000001,"N_COORD97":2538239.1499999999,"ADDRESS":"喜樹路１６８巷１４號","OBJECTID":245009},"geometry":{"x":165821.20000000019,"y":2538239.1500000004}},{"attributes":{"ID":245014,"DIS_CODE":0,"TOWNNAME":"仁德區","LI":"保安里","LIN":"24鄰","STREET":"保學一街","SECT":" ","MAREA":" ","LANE":"５５巷","ALLEY":" ","HOUSE_NO":"５號","E_COORD97":171724.89999999999,"N_COORD97":2535433.1600000001,"ADDRESS":"保學一街５５巷５號","OBJECTID":245010},"geometry":{"x":171724.90000000037,"y":2535433.160000002}},{"attributes":{"ID":245015,"DIS_CODE":0,"TOWNNAME":"南區","LI":"喜北里","LIN":"11鄰","STREET":"喜樹路","SECT":" ","MAREA":" ","LANE":"１６８巷","ALLEY":" ","HOUSE_NO":"１５號","E_COORD97":165805.79000000001,"N_COORD97":2538225.4700000002,"ADDRESS":"喜樹路１６８巷１５號","OBJECTID":245011},"geometry":{"x":165805.78999999911,"y":2538225.4700000025}},{"attributes":{"ID":245016,"DIS_CODE":0,"TOWNNAME":"南區","LI":"喜北里","LIN":"11鄰","STREET":"喜樹路","SECT":" ","MAREA":" ","LANE":"１６８巷","ALLEY":" ","HOUSE_NO":"１６號","E_COORD97":165814.22,"N_COORD97":2538240.1400000001,"ADDRESS":"喜樹路１６８巷１６號","OBJECTID":245012},"geometry":{"x":165814.21999999974,"y":2538240.1400000043}},{"attributes":{"ID":245017,"DIS_CODE":0,"TOWNNAME":"南區","LI":"喜北里","LIN":"11鄰","STREET":"喜樹路","SECT":" ","MAREA":" ","LANE":"１６８巷","ALLEY":" ","HOUSE_NO":"１７號","E_COORD97":165797.54999999999,"N_COORD97":2538226.2200000002,"ADDRESS":"喜樹路１６８巷１７號","OBJECTID":245013},"geometry":{"x":165797.55000000075,"y":2538226.2200000025}},{"attributes":{"ID":245018,"DIS_CODE":0,"TOWNNAME":"南區","LI":"喜北里","LIN":"11鄰","STREET":"喜樹路","SECT":" ","MAREA":" ","LANE":"１６８巷","ALLEY":" ","HOUSE_NO":"１８號","E_COORD97":165807.73000000001,"N_COORD97":2538240.75,"ADDRESS":"喜樹路１６８巷１８號","OBJECTID":245014},"geometry":{"x":165807.73000000045,"y":2538240.75}},{"attributes":{"ID":245019,"DIS_CODE":0,"TOWNNAME":"南區","LI":"田寮里","LIN":"11鄰","STREET":"新興路","SECT":" ","MAREA":" ","LANE":" ","ALLEY":" ","HOUSE_NO":"９５號","E_COORD97":167572.14000000001,"N_COORD97":2542147.1899999999,"ADDRESS":"新興路９５號","OBJECTID":245015},"geometry":{"x":167572.13999999966,"y":2542147.1899999995}},{"attributes":{"ID":245020,"DIS_CODE":0,"TOWNNAME":"南區","LI":"田寮里","LIN":"11鄰","STREET":"新興路","SECT":" ","MAREA":" ","LANE":" ","ALLEY":" ","HOUSE_NO":"９７號","E_COORD97":167569.28,"N_COORD97":2542144.96,"ADDRESS":"新興路９７號","OBJECTID":245016},"geometry":{"x":167569.28000000212,"y":2542144.9600000028}},{"attributes":{"ID":245021,"DIS_CODE":0,"TOWNNAME":"南區","LI":"田寮里","LIN":"11鄰","STREET":"新興路","SECT":" ","MAREA":" ","LANE":" ","ALLEY":" ","HOUSE_NO":"９９號","E_COORD97":167564.35999999999,"N_COORD97":2542143.0699999998,"ADDRESS":"新興路９９號","OBJECTID":245017},"geometry":{"x":167564.36000000127,"y":2542143.0700000022}},{"attributes":{"ID":245022,"DIS_CODE":0,"TOWNNAME":"永康區","LI":"\u25A0行里","LIN":"25鄰","STREET":"\u25A0和街","SECT":" ","MAREA":" ","LANE":" ","ALLEY":" ","HOUSE_NO":"２３９號","E_COORD97":171595.84,"N_COORD97":2548350.7400000002,"ADDRESS":"\u25A0和街２３９號","OBJECTID":245018},"geometry":{"x":171595.83999999985,"y":2548350.7400000002}},{"attributes":{"ID":245023,"DIS_CODE":0,"TOWNNAME":"永康區","LI":"龍潭里","LIN":"39鄰","STREET":"永明街","SECT":" ","MAREA":" ","LANE":" ","ALLEY":" ","HOUSE_NO":"２６１之１６號","E_COORD97":174627.89000000001,"N_COORD97":2547230.27,"ADDRESS":"永明街２６１之１６號","OBJECTID":245019},"geometry":{"x":174627.88999999966,"y":2547230.2700000014}},{"attributes":{"ID":245024,"DIS_CODE":0,"TOWNNAME":"永康區","LI":"\u25A0洲里","LIN":"4鄰","STREET":"\u25A0洲二街","SECT":" ","MAREA":" ","LANE":" ","ALLEY":" ","HOUSE_NO":"１７３號","E_COORD97":171713.32999999999,"N_COORD97":2549404.2400000002,"ADDRESS":"\u25A0洲二街１７３號","OBJECTID":245020},"geometry":{"x":171713.32999999914,"y":2549404.2400000021}},{"attributes":{"ID":245025,"DIS_CODE":0,"TOWNNAME":"永康區","LI":"\u25A0行里","LIN":"42鄰","STREET":"永安二街","SECT":" ","MAREA":" ","LANE":" ","ALLEY":" ","HOUSE_NO":"５０號","E_COORD97":172392.95000000001,"N_COORD97":2549614.6800000002,"ADDRESS":"永安二街５０號","OBJECTID":245021},"geometry":{"x":172392.95000000112,"y":2549614.6800000016}},{"attributes":{"ID":245026,"DIS_CODE":0,"TOWNNAME":"永康區","LI":"龍潭里","LIN":"39鄰","STREET":"國民路","SECT":" ","MAREA":" ","LANE":" ","ALLEY":" ","HOUSE_NO":"９９號","E_COORD97":174377.16,"N_COORD97":2547275.1600000001,"ADDRESS":"國民路９９號","OBJECTID":245022},"geometry":{"x":174377.16000000015,"y":2547275.160000002}},{"attributes":{"ID":245027,"DIS_CODE":0,"TOWNNAME":"永康區","LI":"龍潭里","LIN":"42鄰","STREET":"永平街","SECT":" ","MAREA":" ","LANE":" ","ALLEY":" ","HOUSE_NO":"７６１之１９號","E_COORD97":174633.25,"N_COORD97":2547074.2999999998,"ADDRESS":"永平街７６１之１９號","OBJECTID":245023},"geometry":{"x":174633.25000000093,"y":2547074.3000000045}},{"attributes":{"ID":245028,"DIS_CODE":0,"TOWNNAME":"永康區","LI":"\u25A0行里","LIN":"42鄰","STREET":"永安二街","SECT":" ","MAREA":" ","LANE":" ","ALLEY":" ","HOUSE_NO":"２９號","E_COORD97":172416.10000000001,"N_COORD97":2549595.8700000001,"ADDRESS":"永安二街２９號","OBJECTID":245024},"geometry":{"x":172416.09999999963,"y":2549595.870000001}},{"attributes":{"ID":245029,"DIS_CODE":0,"TOWNNAME":"永康區","LI":"龍潭里","LIN":"43鄰","STREET":"永平街","SECT":" ","MAREA":" ","LANE":" ","ALLEY":" ","HOUSE_NO":"７５７之１３號","E_COORD97":174658.51000000001,"N_COORD97":2547103.79,"ADDRESS":"永平街７５７之１３號","OBJECTID":245025},"geometry":{"x":174658.51000000071,"y":2547103.790000001}},{"attributes":{"ID":245030,"DIS_CODE":0,"TOWNNAME":"永康區","LI":"龍潭里","LIN":"42鄰","STREET":"永平街","SECT":" ","MAREA":" ","LANE":" ","ALLEY":" ","HOUSE_NO":"７６１之１２號","E_COORD97":174658.51000000001,"N_COORD97":2547103.79,"ADDRESS":"永平街７６１之１２號","OBJECTID":245026},"geometry":{"x":174658.51000000071,"y":2547103.790000001}},{"attributes":{"ID":245031,"DIS_CODE":0,"TOWNNAME":"永康區","LI":"龍潭里","LIN":"38鄰","STREET":"國民路","SECT":" ","MAREA":" ","LANE":" ","ALLEY":" ","HOUSE_NO":"８７號","E_COORD97":174360.69,"N_COORD97":2547310.9199999999,"ADDRESS":"國民路８７號","OBJECTID":245027},"geometry":{"x":174360.69000000041,"y":2547310.9200000018}},{"attributes":{"ID":245032,"DIS_CODE":0,"TOWNNAME":"永康區","LI":"\u25A0行里","LIN":"20鄰","STREET":"中正六街","SECT":" ","MAREA":" ","LANE":" ","ALLEY":" ","HOUSE_NO":"１３１號","E_COORD97":171834.79000000001,"N_COORD97":2548739.2999999998,"ADDRESS":"中正六街１３１號","OBJECTID":245028},"geometry":{"x":171834.79000000097,"y":2548739.3000000026}},{"attributes":{"ID":245033,"DIS_CODE":0,"TOWNNAME":"永康區","LI":"\u25A0行里","LIN":"20鄰","STREET":"中正六街","SECT":" ","MAREA":" ","LANE":" ","ALLEY":" ","HOUSE_NO":"７７號","E_COORD97":171844.98000000001,"N_COORD97":2548591.5,"ADDRESS":"中正六街７７號","OBJECTID":245029},"geometry":{"x":171844.98000000231,"y":2548591.5000000019}},{"attributes":{"ID":245034,"DIS_CODE":0,"TOWNNAME":"永康區","LI":"\u25A0行里","LIN":"20鄰","STREET":"中正六街","SECT":" ","MAREA":" ","LANE":" ","ALLEY":" ","HOUSE_NO":"１０９號","E_COORD97":171831.19,"N_COORD97":2548686.3100000001,"ADDRESS":"中正六街１０９號","OBJECTID":245030},"geometry":{"x":171831.19000000041,"y":2548686.3100000005}},{"attributes":{"ID":245035,"DIS_CODE":0,"TOWNNAME":"南區","LI":"喜北里","LIN":"11鄰","STREET":"喜樹路","SECT":" ","MAREA":" ","LANE":"１６８巷","ALLEY":" ","HOUSE_NO":"２０號","E_COORD97":165796.62,"N_COORD97":2538241.8799999999,"ADDRESS":"喜樹路１６８巷２０號","OBJECTID":245031},"geometry":{"x":165796.62000000011,"y":2538241.879999999}},{"attributes":{"ID":245036,"DIS_CODE":0,"TOWNNAME":"仁德區","LI":"保安里","LIN":"24鄰","STREET":"保學一街","SECT":" ","MAREA":" ","LANE":"３５巷","ALLEY":" ","HOUSE_NO":"１６號","E_COORD97":171695.09,"N_COORD97":2535554.5800000001,"ADDRESS":"保學一街３５巷１６號","OBJECTID":245032},"geometry":{"x":171695.09000000078,"y":2535554.5800000038}},{"attributes":{"ID":245037,"DIS_CODE":0,"TOWNNAME":"仁德區","LI":"保安里","LIN":"24鄰","STREET":"保學一街","SECT":" ","MAREA":" ","LANE":"３５巷","ALLEY":" ","HOUSE_NO":"１７號","E_COORD97":171766.32999999999,"N_COORD97":2535607.23,"ADDRESS":"保學一街３５巷１７號","OBJECTID":245033},"geometry":{"x":171766.33000000101,"y":2535607.2300000004}},{"attributes":{"ID":245038,"DIS_CODE":0,"TOWNNAME":"仁德區","LI":"保安里","LIN":"24鄰","STREET":"保學一街","SECT":" ","MAREA":" ","LANE":"３５巷","ALLEY":" ","HOUSE_NO":"１８號","E_COORD97":171708.60999999999,"N_COORD97":2535562.8199999998,"ADDRESS":"保學一街３５巷１８號","OBJECTID":245034},"geometry":{"x":171708.61000000127,"y":2535562.8200000003}},{"attributes":{"ID":245039,"DIS_CODE":0,"TOWNNAME":"仁德區","LI":"保安里","LIN":"24鄰","STREET":"保學一街","SECT":" ","MAREA":" ","LANE":"３５巷","ALLEY":" ","HOUSE_NO":"１９號","E_COORD97":171781.22,"N_COORD97":2535615.0099999998,"ADDRESS":"保學一街３５巷１９號","OBJECTID":245035},"geometry":{"x":171781.21999999974,"y":2535615.0099999998}},{"attributes":{"ID":245040,"DIS_CODE":0,"TOWNNAME":"仁德區","LI":"保安里","LIN":"24鄰","STREET":"保學一街","SECT":" ","MAREA":" ","LANE":"３５巷","ALLEY":" ","HOUSE_NO":"１號","E_COORD97":171648.12,"N_COORD97":2535547.5800000001,"ADDRESS":"保學一街３５巷１號","OBJECTID":245036},"geometry":{"x":171648.12000000011,"y":2535547.5799999982}},{"attributes":{"ID":245041,"DIS_CODE":0,"TOWNNAME":"仁德區","LI":"保安里","LIN":"24鄰","STREET":"保學一街","SECT":" ","MAREA":" ","LANE":"３５巷","ALLEY":" ","HOUSE_NO":"２０號","E_COORD97":171722.12,"N_COORD97":2535568.7799999998,"ADDRESS":"保學一街３５巷２０號","OBJECTID":245037},"geometry":{"x":171722.12000000104,"y":2535568.7799999993}},{"attributes":{"ID":245042,"DIS_CODE":0,"TOWNNAME":"仁德區","LI":"保安里","LIN":"24鄰","STREET":"保學一街","SECT":" ","MAREA":" ","LANE":"３５巷","ALLEY":" ","HOUSE_NO":"２１號","E_COORD97":171795.64999999999,"N_COORD97":2535622.3399999999,"ADDRESS":"保學一街３５巷２１號","OBJECTID":245038},"geometry":{"x":171795.65000000037,"y":2535622.3399999999}},{"attributes":{"ID":245043,"DIS_CODE":0,"TOWNNAME":"仁德區","LI":"保安里","LIN":"24鄰","STREET":"保學一街","SECT":" ","MAREA":" ","LANE":"３５巷","ALLEY":" ","HOUSE_NO":"２２號","E_COORD97":171736.78,"N_COORD97":2535577.02,"ADDRESS":"保學一街３５巷２２號","OBJECTID":245039},"geometry":{"x":171736.78000000119,"y":2535577.0199999996}},{"attributes":{"ID":245044,"DIS_CODE":0,"TOWNNAME":"仁德區","LI":"保安里","LIN":"24鄰","STREET":"保學一街","SECT":" ","MAREA":" ","LANE":"３５巷","ALLEY":" ","HOUSE_NO":"２６號","E_COORD97":171750.51999999999,"N_COORD97":2535583.8799999999,"ADDRESS":"保學一街３５巷２６號","OBJECTID":245040},"geometry":{"x":171750.52000000142,"y":2535583.879999999}},{"attributes":{"ID":245045,"DIS_CODE":0,"TOWNNAME":"仁德區","LI":"保安里","LIN":"24鄰","STREET":"保學一街","SECT":" ","MAREA":" ","LANE":"３５巷","ALLEY":" ","HOUSE_NO":"２８號","E_COORD97":171763.12,"N_COORD97":2535590.0600000001,"ADDRESS":"保學一街３５巷２８號","OBJECTID":245041},"geometry":{"x":171763.12000000104,"y":2535590.0600000024}},{"attributes":{"ID":245046,"DIS_CODE":0,"TOWNNAME":"仁德區","LI":"保安里","LIN":"24鄰","STREET":"保學一街","SECT":" ","MAREA":" ","LANE":"３５巷","ALLEY":" ","HOUSE_NO":"２號","E_COORD97":171626.98999999999,"N_COORD97":2535521.4500000002,"ADDRESS":"保學一街３５巷２號","OBJECTID":245042},"geometry":{"x":171626.99000000022,"y":2535521.4500000011}},{"attributes":{"ID":245047,"DIS_CODE":0,"TOWNNAME":"安平區","LI":"金城里","LIN":"2鄰","STREET":"運河路","SECT":" ","MAREA":" ","LANE":"４０巷","ALLEY":" ","HOUSE_NO":"４號","E_COORD97":163953.85488900001,"N_COORD97":2544372.9761700002,"ADDRESS":"運河路４０巷４號","OBJECTID":245043},"geometry":{"x":163953.85488899983,"y":2544372.9761740007}},{"attributes":{"ID":245048,"DIS_CODE":0,"TOWNNAME":"仁德區","LI":"保安里","LIN":"24鄰","STREET":"保學一街","SECT":" ","MAREA":" ","LANE":"３５巷","ALLEY":" ","HOUSE_NO":"３０號","E_COORD97":171777.78,"N_COORD97":2535597.3900000001,"ADDRESS":"保學一街３５巷３０號","OBJECTID":245044},"geometry":{"x":171777.78000000026,"y":2535597.3900000043}},{"attributes":{"ID":245049,"DIS_CODE":0,"TOWNNAME":"仁德區","LI":"保安里","LIN":"24鄰","STREET":"保學一街","SECT":" ","MAREA":" ","LANE":"３５巷","ALLEY":" ","HOUSE_NO":"３２號","E_COORD97":171791.07000000001,"N_COORD97":2535603.7999999998,"ADDRESS":"保學一街３５巷３２號","OBJECTID":245045},"geometry":{"x":171791.0700000003,"y":2535603.8000000007}},{"attributes":{"ID":245050,"DIS_CODE":0,"TOWNNAME":"仁德區","LI":"保安里","LIN":"24鄰","STREET":"保學一街","SECT":" ","MAREA":" ","LANE":"３５巷","ALLEY":" ","HOUSE_NO":"３６號","E_COORD97":171805.73000000001,"N_COORD97":2535611.3500000001,"ADDRESS":"保學一街３５巷３６號","OBJECTID":245046},"geometry":{"x":171805.73000000045,"y":2535611.3500000015}},{"attributes":{"ID":245051,"DIS_CODE":0,"TOWNNAME":"仁德區","LI":"保安里","LIN":"24鄰","STREET":"保學一街","SECT":" ","MAREA":" ","LANE":"３５巷","ALLEY":" ","HOUSE_NO":"５號","E_COORD97":171678.79000000001,"N_COORD97":2535564.2000000002,"ADDRESS":"保學一街３５巷５號","OBJECTID":245047},"geometry":{"x":171678.79000000097,"y":2535564.2000000011}},{"attributes":{"ID":245052,"DIS_CODE":0,"TOWNNAME":"仁德區","LI":"保安里","LIN":"24鄰","STREET":"保學一街","SECT":" ","MAREA":" ","LANE":"３５巷","ALLEY":" ","HOUSE_NO":"６號","E_COORD97":171640.39999999999,"N_COORD97":2535528.27,"ADDRESS":"保學一街３５巷６號","OBJECTID":245048},"geometry":{"x":171640.40000000224,"y":2535528.2699999996}},{"attributes":{"ID":245053,"DIS_CODE":0,"TOWNNAME":"仁德區","LI":"保安里","LIN":"24鄰","STREET":"保學一街","SECT":" ","MAREA":" ","LANE":"３５巷","ALLEY":" ","HOUSE_NO":"７號","E_COORD97":171693.22,"N_COORD97":2535571.52,"ADDRESS":"保學一街３５巷７號","OBJECTID":245049},"geometry":{"x":171693.21999999974,"y":2535571.5200000033}},{"attributes":{"ID":245054,"DIS_CODE":0,"TOWNNAME":"仁德區","LI":"保安里","LIN":"24鄰","STREET":"保學一街","SECT":" ","MAREA":" ","LANE":"３５巷","ALLEY":" ","HOUSE_NO":"８號","E_COORD97":171653.82000000001,"N_COORD97":2535535.0899999999,"ADDRESS":"保學一街３５巷８號","OBJECTID":245050},"geometry":{"x":171653.8200000003,"y":2535535.0900000017}},{"attributes":{"ID":245055,"DIS_CODE":0,"TOWNNAME":"仁德區","LI":"保安里","LIN":"24鄰","STREET":"保學一街","SECT":" ","MAREA":" ","LANE":"４５巷","ALLEY":" ","HOUSE_NO":"１０號","E_COORD97":171722.79999999999,"N_COORD97":2535495.29,"ADDRESS":"保學一街４５巷１０號","OBJECTID":245051},"geometry":{"x":171722.79999999981,"y":2535495.290000001}},{"attributes":{"ID":245056,"DIS_CODE":0,"TOWNNAME":"仁德區","LI":"保安里","LIN":"24鄰","STREET":"保學一街","SECT":" ","MAREA":" ","LANE":"４５巷","ALLEY":" ","HOUSE_NO":"１１號","E_COORD97":171731.98000000001,"N_COORD97":2535518.1000000001,"ADDRESS":"保學一街４５巷１１號","OBJECTID":245052},"geometry":{"x":171731.98000000138,"y":2535518.1000000015}},{"attributes":{"ID":245057,"DIS_CODE":0,"TOWNNAME":"仁德區","LI":"保安里","LIN":"24鄰","STREET":"保學一街","SECT":" ","MAREA":" ","LANE":"４５巷","ALLEY":" ","HOUSE_NO":"１２號","E_COORD97":171731.59,"N_COORD97":2535499.4500000002,"ADDRESS":"保學一街４５巷１２號","OBJECTID":245053},"geometry":{"x":171731.58999999985,"y":2535499.4499999993}},{"attributes":{"ID":245058,"DIS_CODE":0,"TOWNNAME":"仁德區","LI":"保安里","LIN":"24鄰","STREET":"保學一街","SECT":" ","MAREA":" ","LANE":"４５巷","ALLEY":" ","HOUSE_NO":"１３號","E_COORD97":171739.29999999999,"N_COORD97":2535521.7599999998,"ADDRESS":"保學一街４５巷１３號","OBJECTID":245054},"geometry":{"x":171739.30000000075,"y":2535521.7599999998}},{"attributes":{"ID":245059,"DIS_CODE":0,"TOWNNAME":"仁德區","LI":"保安里","LIN":"24鄰","STREET":"保學一街","SECT":" ","MAREA":" ","LANE":"４５巷","ALLEY":" ","HOUSE_NO":"１５號","E_COORD97":171748.39999999999,"N_COORD97":2535526.52,"ADDRESS":"保學一街４５巷１５號","OBJECTID":245055},"geometry":{"x":171748.40000000037,"y":2535526.5199999996}},{"attributes":{"ID":245060,"DIS_CODE":0,"TOWNNAME":"仁德區","LI":"保安里","LIN":"24鄰","STREET":"保學一街","SECT":" ","MAREA":" ","LANE":"４５巷","ALLEY":" ","HOUSE_NO":"１６號","E_COORD97":171739.10000000001,"N_COORD97":2535503.54,"ADDRESS":"保學一街４５巷１６號","OBJECTID":245056},"geometry":{"x":171739.09999999963,"y":2535503.540000001}},{"attributes":{"ID":245061,"DIS_CODE":0,"TOWNNAME":"仁德區","LI":"保安里","LIN":"24鄰","STREET":"保學一街","SECT":" ","MAREA":" ","LANE":"４５巷","ALLEY":" ","HOUSE_NO":"１７號","E_COORD97":171756.85000000001,"N_COORD97":2535530.23,"ADDRESS":"保學一街４５巷１７號","OBJECTID":245057},"geometry":{"x":171756.85000000149,"y":2535530.2300000042}},{"attributes":{"ID":245062,"DIS_CODE":0,"TOWNNAME":"仁德區","LI":"保安里","LIN":"24鄰","STREET":"保學一街","SECT":" ","MAREA":" ","LANE":"４５巷","ALLEY":" ","HOUSE_NO":"１８號","E_COORD97":171747.37,"N_COORD97":2535508.3799999999,"ADDRESS":"保學一街４５巷１８號","OBJECTID":245058},"geometry":{"x":171747.37000000104,"y":2535508.3800000008}},{"attributes":{"ID":245063,"DIS_CODE":0,"TOWNNAME":"仁德區","LI":"保安里","LIN":"24鄰","STREET":"保學一街","SECT":" ","MAREA":" ","LANE":"４５巷","ALLEY":" ","HOUSE_NO":"１９號","E_COORD97":171764.72,"N_COORD97":2535534.77,"ADDRESS":"保學一街４５巷１９號","OBJECTID":245059},"geometry":{"x":171764.7200000016,"y":2535534.7699999996}},{"attributes":{"ID":245064,"DIS_CODE":0,"TOWNNAME":"東區","LI":"崇學里","LIN":"14鄰","STREET":"崇德路","SECT":" ","MAREA":" ","LANE":" ","ALLEY":" ","HOUSE_NO":"２６０號五樓之８","E_COORD97":170226.48999999999,"N_COORD97":2542024.9399999999,"ADDRESS":"崇德路２６０號五樓之８","OBJECTID":245060},"geometry":{"x":170226.49000000115,"y":2542024.9400000013}},{"attributes":{"ID":245065,"DIS_CODE":0,"TOWNNAME":"南區","LI":"新昌里","LIN":"11鄰","STREET":"西門路","SECT":"一段","MAREA":" ","LANE":"５８７巷","ALLEY":" ","HOUSE_NO":"３號","E_COORD97":167692.41,"N_COORD97":2542794.7000000002,"ADDRESS":"西門路一段５８７巷３號","OBJECTID":245061},"geometry":{"x":167692.41000000108,"y":2542794.700000003}},{"attributes":{"ID":245066,"DIS_CODE":0,"TOWNNAME":"南區","LI":"新昌里","LIN":"11鄰","STREET":"西門路","SECT":"一段","MAREA":" ","LANE":"５８７巷","ALLEY":" ","HOUSE_NO":"４號","E_COORD97":167683.07999999999,"N_COORD97":2542807.2799999998,"ADDRESS":"西門路一段５８７巷４號","OBJECTID":245062},"geometry":{"x":167683.08000000101,"y":2542807.2799999993}},{"attributes":{"ID":245067,"DIS_CODE":0,"TOWNNAME":"仁德區","LI":"保安里","LIN":"24鄰","STREET":"保學一街","SECT":" ","MAREA":" ","LANE":"４５巷","ALLEY":" ","HOUSE_NO":"１號","E_COORD97":171690.14999999999,"N_COORD97":2535495.8799999999,"ADDRESS":"保學一街４５巷１號","OBJECTID":245063},"geometry":{"x":171690.1500000013,"y":2535495.879999999}},{"attributes":{"ID":245068,"DIS_CODE":0,"TOWNNAME":"仁德區","LI":"保安里","LIN":"24鄰","STREET":"保學一街","SECT":" ","MAREA":" ","LANE":"４５巷","ALLEY":" ","HOUSE_NO":"２０號","E_COORD97":171755.48000000001,"N_COORD97":2535512.77,"ADDRESS":"保學一街４５巷２０號","OBJECTID":245064},"geometry":{"x":171755.48000000138,"y":2535512.7700000014}},{"attributes":{"ID":245069,"DIS_CODE":0,"TOWNNAME":"仁德區","LI":"保安里","LIN":"24鄰","STREET":"保學一街","SECT":" ","MAREA":" ","LANE":"４５巷","ALLEY":" ","HOUSE_NO":"２１號","E_COORD97":171772.98000000001,"N_COORD97":2535539.3599999999,"ADDRESS":"保學一街４５巷２１號","OBJECTID":245065},"geometry":{"x":171772.98000000045,"y":2535539.3600000013}},{"attributes":{"ID":245070,"DIS_CODE":0,"TOWNNAME":"鹽水區","LI":"後宅里","LIN":"11鄰","STREET":" ","SECT":" ","MAREA":"番子寮","LANE":" ","ALLEY":" ","HOUSE_NO":"２４號","E_COORD97":171635.10999999999,"N_COORD97":2578054.54,"ADDRESS":"番子寮２４號","OBJECTID":245066},"geometry":{"x":171635.11000000034,"y":2578054.5399999991}},{"attributes":{"ID":245071,"DIS_CODE":0,"TOWNNAME":"鹽水區","LI":"後宅里","LIN":"11鄰","STREET":" ","SECT":" ","MAREA":"番子寮","LANE":" ","ALLEY":" ","HOUSE_NO":"１６號","E_COORD97":171588.64000000001,"N_COORD97":2578033.7599999998,"ADDRESS":"番子寮１６號","OBJECTID":245067},"geometry":{"x":171588.63999999966,"y":2578033.7599999998}},{"attributes":{"ID":245072,"DIS_CODE":0,"TOWNNAME":"仁德區","LI":"保安里","LIN":"24鄰","STREET":"保學一街","SECT":" ","MAREA":" ","LANE":"４５巷","ALLEY":" ","HOUSE_NO":"２２號","E_COORD97":171763.64000000001,"N_COORD97":2535516.5800000001,"ADDRESS":"保學一街４５巷２２號","OBJECTID":245068},"geometry":{"x":171763.6400000006,"y":2535516.5800000001}},{"attributes":{"ID":245073,"DIS_CODE":0,"TOWNNAME":"鹽水區","LI":"後宅里","LIN":"11鄰","STREET":" ","SECT":" ","MAREA":"番子寮","LANE":" ","ALLEY":" ","HOUSE_NO":"１７號","E_COORD97":171554.26000000001,"N_COORD97":2578060.96,"ADDRESS":"番子寮１７號","OBJECTID":245069},"geometry":{"x":171554.26000000164,"y":2578060.9600000009}},{"attributes":{"ID":245074,"DIS_CODE":0,"TOWNNAME":"仁德區","LI":"保安里","LIN":"24鄰","STREET":"保學一街","SECT":" ","MAREA":" ","LANE":"４５巷","ALLEY":" ","HOUSE_NO":"２３號","E_COORD97":171781.72,"N_COORD97":2535543.73,"ADDRESS":"保學一街４５巷２３號","OBJECTID":245070},"geometry":{"x":171781.7200000016,"y":2535543.7300000042}},{"attributes":{"ID":245075,"DIS_CODE":0,"TOWNNAME":"仁德區","LI":"保安里","LIN":"24鄰","STREET":"保學一街","SECT":" ","MAREA":" ","LANE":"４５巷","ALLEY":" ","HOUSE_NO":"２５號","E_COORD97":171789.47,"N_COORD97":2535548.0299999998,"ADDRESS":"保學一街４５巷２５號","OBJECTID":245071},"geometry":{"x":171789.46999999974,"y":2535548.0300000012}},{"attributes":{"ID":245076,"DIS_CODE":0,"TOWNNAME":"仁德區","LI":"保安里","LIN":"24鄰","STREET":"保學一街","SECT":" ","MAREA":" ","LANE":"４５巷","ALLEY":" ","HOUSE_NO":"２６號","E_COORD97":171772.48000000001,"N_COORD97":2535520.9900000002,"ADDRESS":"保學一街４５巷２６號","OBJECTID":245072},"geometry":{"x":171772.48000000138,"y":2535520.9900000002}},{"attributes":{"ID":245077,"DIS_CODE":0,"TOWNNAME":"仁德區","LI":"保安里","LIN":"24鄰","STREET":"保學一街","SECT":" ","MAREA":" ","LANE":"４５巷","ALLEY":" ","HOUSE_NO":"２７號","E_COORD97":171797.48000000001,"N_COORD97":2535551.4199999999,"ADDRESS":"保學一街４５巷２７號","OBJECTID":245073},"geometry":{"x":171797.48000000231,"y":2535551.4199999999}},{"attributes":{"ID":245078,"DIS_CODE":0,"TOWNNAME":"鹽水區","LI":"後宅里","LIN":"11鄰","STREET":" ","SECT":" ","MAREA":"番子寮","LANE":" ","ALLEY":" ","HOUSE_NO":"１９之１號","E_COORD97":171625.84,"N_COORD97":2578038.2599999998,"ADDRESS":"番子寮１９之１號","OBJECTID":245074},"geometry":{"x":171625.83999999985,"y":2578038.2600000016}},{"attributes":{"ID":245079,"DIS_CODE":0,"TOWNNAME":"鹽水區","LI":"後宅里","LIN":"11鄰","STREET":" ","SECT":" ","MAREA":"番子寮","LANE":" ","ALLEY":" ","HOUSE_NO":"１９號","E_COORD97":171601.89999999999,"N_COORD97":2578053.6000000001,"ADDRESS":"番子寮１９號","OBJECTID":245075},"geometry":{"x":171601.9000000013,"y":2578053.6000000015}},{"attributes":{"ID":245080,"DIS_CODE":0,"TOWNNAME":"鹽水區","LI":"後宅里","LIN":"11鄰","STREET":" ","SECT":" ","MAREA":"番子寮","LANE":" ","ALLEY":" ","HOUSE_NO":"２２號","E_COORD97":171668.54000000001,"N_COORD97":2578049.3799999999,"ADDRESS":"番子寮２２號","OBJECTID":245076},"geometry":{"x":171668.54000000097,"y":2578049.379999999}},{"attributes":{"ID":245081,"DIS_CODE":0,"TOWNNAME":"仁德區","LI":"保安里","LIN":"24鄰","STREET":"保學一街","SECT":" ","MAREA":" ","LANE":"４５巷","ALLEY":" ","HOUSE_NO":"２８號","E_COORD97":171780.98000000001,"N_COORD97":2535525.6400000001,"ADDRESS":"保學一街４５巷２８號","OBJECTID":245077},"geometry":{"x":171780.98000000138,"y":2535525.6400000025}},{"attributes":{"ID":245082,"DIS_CODE":0,"TOWNNAME":"仁德區","LI":"保安里","LIN":"24鄰","STREET":"保學一街","SECT":" ","MAREA":" ","LANE":"４５巷","ALLEY":" ","HOUSE_NO":"３０號","E_COORD97":171789.14000000001,"N_COORD97":2535529.9399999999,"ADDRESS":"保學一街４５巷３０號","OBJECTID":245078},"geometry":{"x":171789.1400000006,"y":2535529.9399999995}},{"attributes":{"ID":245083,"DIS_CODE":0,"TOWNNAME":"東區","LI":"崇成里","LIN":"14鄰","STREET":"崇明十六街","SECT":" ","MAREA":" ","LANE":" ","ALLEY":" ","HOUSE_NO":"７號","E_COORD97":170651.76000000001,"N_COORD97":2541313.1600000001,"ADDRESS":"崇明十六街７號","OBJECTID":245079},"geometry":{"x":170651.75999999978,"y":2541313.1600000001}},{"attributes":{"ID":245084,"DIS_CODE":0,"TOWNNAME":"東區","LI":"崇學里","LIN":"14鄰","STREET":"崇德路","SECT":" ","MAREA":" ","LANE":" ","ALLEY":" ","HOUSE_NO":"２６０號五樓之９","E_COORD97":170226.48999999999,"N_COORD97":2542024.9399999999,"ADDRESS":"崇德路２６０號五樓之９","OBJECTID":245080},"geometry":{"x":170226.49000000115,"y":2542024.9400000013}},{"attributes":{"ID":245085,"DIS_CODE":0,"TOWNNAME":"鹽水區","LI":"後宅里","LIN":"11鄰","STREET":" ","SECT":" ","MAREA":"番子寮","LANE":" ","ALLEY":" ","HOUSE_NO":"２３號","E_COORD97":171647.82999999999,"N_COORD97":2578042.29,"ADDRESS":"番子寮２３號","OBJECTID":245081},"geometry":{"x":171647.83000000101,"y":2578042.2899999991}},{"attributes":{"ID":245086,"DIS_CODE":0,"TOWNNAME":"鹽水區","LI":"義稠里","LIN":"11鄰","STREET":" ","SECT":" ","MAREA":"義稠","LANE":" ","ALLEY":" ","HOUSE_NO":"１４５號","E_COORD97":173708.60999999999,"N_COORD97":2580674.7200000002,"ADDRESS":"義稠１４５號","OBJECTID":245082},"geometry":{"x":173708.6099999994,"y":2580674.7200000025}},{"attributes":{"ID":245087,"DIS_CODE":0,"TOWNNAME":"鹽水區","LI":"義稠里","LIN":"11鄰","STREET":" ","SECT":" ","MAREA":"義稠","LANE":" ","ALLEY":" ","HOUSE_NO":"１４６號","E_COORD97":173689.29999999999,"N_COORD97":2580712.9100000001,"ADDRESS":"義稠１４６號","OBJECTID":245083},"geometry":{"x":173689.29999999981,"y":2580712.910000002}},{"attributes":{"ID":245088,"DIS_CODE":0,"TOWNNAME":"鹽水區","LI":"義稠里","LIN":"11鄰","STREET":" ","SECT":" ","MAREA":"義稠","LANE":" ","ALLEY":" ","HOUSE_NO":"１５４號","E_COORD97":173665.5,"N_COORD97":2580633.6400000001,"ADDRESS":"義稠１５４號","OBJECTID":245084},"geometry":{"x":173665.50000000093,"y":2580633.6400000025}},{"attributes":{"ID":245089,"DIS_CODE":0,"TOWNNAME":"左鎮區","LI":"左鎮里","LIN":"11鄰","STREET":" ","SECT":" ","MAREA":"左鎮","LANE":" ","ALLEY":" ","HOUSE_NO":"１１６號","E_COORD97":189135.01999999999,"N_COORD97":2550532.25,"ADDRESS":"左鎮１１６號","OBJECTID":245085},"geometry":{"x":189135.02000000048,"y":2550532.2500000037}},{"attributes":{"ID":245090,"DIS_CODE":0,"TOWNNAME":"仁德區","LI":"保安里","LIN":"24鄰","STREET":"保學一街","SECT":" ","MAREA":" ","LANE":"４５巷","ALLEY":" ","HOUSE_NO":"３２號","E_COORD97":171797.29999999999,"N_COORD97":2535533.6800000002,"ADDRESS":"保學一街４５巷３２號","OBJECTID":245086},"geometry":{"x":171797.29999999981,"y":2535533.6800000016}},{"attributes":{"ID":245091,"DIS_CODE":0,"TOWNNAME":"仁德區","LI":"保安里","LIN":"24鄰","STREET":"保學一街","SECT":" ","MAREA":" ","LANE":"４５巷","ALLEY":" ","HOUSE_NO":"３６號","E_COORD97":171805.67999999999,"N_COORD97":2535538.3199999998,"ADDRESS":"保學一街４５巷３６號","OBJECTID":245087},"geometry":{"x":171805.68000000156,"y":2535538.3200000003}},{"attributes":{"ID":245092,"DIS_CODE":0,"TOWNNAME":"仁德區","LI":"保安里","LIN":"24鄰","STREET":"保學一街","SECT":" ","MAREA":" ","LANE":"４５巷","ALLEY":" ","HOUSE_NO":"３號","E_COORD97":171697.64000000001,"N_COORD97":2535500.6899999999,"ADDRESS":"保學一街４５巷３號","OBJECTID":245088},"geometry":{"x":171697.6400000006,"y":2535500.6900000013}},{"attributes":{"ID":245093,"DIS_CODE":0,"TOWNNAME":"新營區","LI":"埤寮里","LIN":"11鄰","STREET":" ","SECT":" ","MAREA":"埤寮","LANE":" ","ALLEY":" ","HOUSE_NO":"８７號","E_COORD97":180463.59,"N_COORD97":2580821.98,"ADDRESS":"埤寮８７號","OBJECTID":245089},"geometry":{"x":180463.58999999892,"y":2580821.9800000023}},{"attributes":{"ID":245094,"DIS_CODE":0,"TOWNNAME":"仁德區","LI":"保安里","LIN":"24鄰","STREET":"保學一街","SECT":" ","MAREA":" ","LANE":"４５巷","ALLEY":" ","HOUSE_NO":"５號","E_COORD97":171706.51999999999,"N_COORD97":2535505.1299999999,"ADDRESS":"保學一街４５巷５號","OBJECTID":245090},"geometry":{"x":171706.52000000142,"y":2535505.129999999}},{"attributes":{"ID":245095,"DIS_CODE":0,"TOWNNAME":"仁德區","LI":"保安里","LIN":"24鄰","STREET":"保學一街","SECT":" ","MAREA":" ","LANE":"４５巷","ALLEY":" ","HOUSE_NO":"６號","E_COORD97":171705.81,"N_COORD97":2535486.7000000002,"ADDRESS":"保學一街４５巷６號","OBJECTID":245091},"geometry":{"x":171705.80999999959,"y":2535486.7000000011}},{"attributes":{"ID":245096,"DIS_CODE":0,"TOWNNAME":"歸仁區","LI":"看東里","LIN":"11鄰","STREET":"忠孝南路","SECT":" ","MAREA":" ","LANE":"１３９巷","ALLEY":" ","HOUSE_NO":"１５號","E_COORD97":178632.47,"N_COORD97":2540315.6800000002,"ADDRESS":"忠孝南路１３９巷１５號","OBJECTID":245092},"geometry":{"x":178632.47000000067,"y":2540315.6799999997}},{"attributes":{"ID":245097,"DIS_CODE":0,"TOWNNAME":"歸仁區","LI":"後市里","LIN":"11鄰","STREET":"民權七街","SECT":" ","MAREA":" ","LANE":"９巷","ALLEY":" ","HOUSE_NO":"２號","E_COORD97":177027.23999999999,"N_COORD97":2540746.25,"ADDRESS":"民權七街９巷２號","OBJECTID":245093},"geometry":{"x":177027.24000000115,"y":2540746.25}},{"attributes":{"ID":245098,"DIS_CODE":0,"TOWNNAME":"仁德區","LI":"保安里","LIN":"24鄰","STREET":"保學一街","SECT":" ","MAREA":" ","LANE":"４５巷","ALLEY":" ","HOUSE_NO":"７號","E_COORD97":171715.17000000001,"N_COORD97":2535509.3399999999,"ADDRESS":"保學一街４５巷７號","OBJECTID":245094},"geometry":{"x":171715.17000000086,"y":2535509.3400000017}},{"attributes":{"ID":245099,"DIS_CODE":0,"TOWNNAME":"仁德區","LI":"保安里","LIN":"24鄰","STREET":"保學一街","SECT":" ","MAREA":" ","LANE":"４５巷","ALLEY":" ","HOUSE_NO":"８號","E_COORD97":171713.97,"N_COORD97":2535490.75,"ADDRESS":"保學一街４５巷８號","OBJECTID":245095},"geometry":{"x":171713.97000000067,"y":2535490.75}},{"attributes":{"ID":245100,"DIS_CODE":0,"TOWNNAME":"仁德區","LI":"保安里","LIN":"24鄰","STREET":"保學一街","SECT":" ","MAREA":" ","LANE":"４５巷","ALLEY":" ","HOUSE_NO":"９號","E_COORD97":171723.94,"N_COORD97":2535513.77,"ADDRESS":"保學一街４５巷９號","OBJECTID":245096},"geometry":{"x":171723.94000000134,"y":2535513.7700000014}},{"attributes":{"ID":245101,"DIS_CODE":0,"TOWNNAME":"仁德區","LI":"保安里","LIN":"24鄰","STREET":"保學一街","SECT":" ","MAREA":" ","LANE":"５５巷","ALLEY":" ","HOUSE_NO":"１１號","E_COORD97":171777.32999999999,"N_COORD97":2535460.23,"ADDRESS":"保學一街５５巷１１號","OBJECTID":245097},"geometry":{"x":171777.33000000007,"y":2535460.2300000023}},{"attributes":{"ID":245102,"DIS_CODE":0,"TOWNNAME":"仁德區","LI":"保安里","LIN":"24鄰","STREET":"保學一街","SECT":" ","MAREA":" ","LANE":"５５巷","ALLEY":" ","HOUSE_NO":"１３號","E_COORD97":171793.76000000001,"N_COORD97":2535468.5099999998,"ADDRESS":"保學一街５５巷１３號","OBJECTID":245098},"geometry":{"x":171793.76000000071,"y":2535468.5099999998}},{"attributes":{"ID":245103,"DIS_CODE":0,"TOWNNAME":"仁德區","LI":"保安里","LIN":"24鄰","STREET":"保學一街","SECT":" ","MAREA":" ","LANE":"５５巷","ALLEY":" ","HOUSE_NO":"１５號","E_COORD97":171809.92999999999,"N_COORD97":2535477.29,"ADDRESS":"保學一街５５巷１５號","OBJECTID":245099},"geometry":{"x":171809.9299999997,"y":2535477.2899999991}},{"attributes":{"ID":245104,"DIS_CODE":0,"TOWNNAME":"仁德區","LI":"保安里","LIN":"24鄰","STREET":"保學一街","SECT":" ","MAREA":" ","LANE":"５５巷","ALLEY":" ","HOUSE_NO":"１７號","E_COORD97":171827.48000000001,"N_COORD97":2535486.9100000001,"ADDRESS":"保學一街５５巷１７號","OBJECTID":245100},"geometry":{"x":171827.48000000045,"y":2535486.9100000001}},{"attributes":{"ID":245105,"DIS_CODE":0,"TOWNNAME":"仁德區","LI":"保安里","LIN":"24鄰","STREET":"保學一街","SECT":" ","MAREA":" ","LANE":"５５巷","ALLEY":" ","HOUSE_NO":"１９號","E_COORD97":171844.5,"N_COORD97":2535496.3799999999,"ADDRESS":"保學一街５５巷１９號","OBJECTID":245101},"geometry":{"x":171844.50000000186,"y":2535496.379999999}},{"attributes":{"ID":245106,"DIS_CODE":0,"TOWNNAME":"仁德區","LI":"保安里","LIN":"24鄰","STREET":"保學一街","SECT":" ","MAREA":" ","LANE":"５５巷","ALLEY":" ","HOUSE_NO":"１號","E_COORD97":171690.54000000001,"N_COORD97":2535415.21,"ADDRESS":"保學一街５５巷１號","OBJECTID":245102},"geometry":{"x":171690.54000000097,"y":2535415.2100000009}},{"attributes":{"ID":245107,"DIS_CODE":0,"TOWNNAME":"仁德區","LI":"保安里","LIN":"24鄰","STREET":"保學一街","SECT":" ","MAREA":" ","LANE":"５５巷","ALLEY":" ","HOUSE_NO":"２１號","E_COORD97":171860.54999999999,"N_COORD97":2535503.9199999999,"ADDRESS":"保學一街５５巷２１號","OBJECTID":245103},"geometry":{"x":171860.54999999981,"y":2535503.9199999999}},{"attributes":{"ID":245108,"DIS_CODE":0,"TOWNNAME":"東區","LI":"崇學里","LIN":"14鄰","STREET":"崇德路","SECT":" ","MAREA":" ","LANE":" ","ALLEY":" ","HOUSE_NO":"２６０號六樓","E_COORD97":170226.48999999999,"N_COORD97":2542024.9399999999,"ADDRESS":"崇德路２６０號六樓","OBJECTID":245104},"geometry":{"x":170226.49000000115,"y":2542024.9400000013}},{"attributes":{"ID":245109,"DIS_CODE":0,"TOWNNAME":"東區","LI":"崇學里","LIN":"14鄰","STREET":"崇德路","SECT":" ","MAREA":" ","LANE":" ","ALLEY":" ","HOUSE_NO":"２６０號六樓之１","E_COORD97":170226.48999999999,"N_COORD97":2542024.9399999999,"ADDRESS":"崇德路２６０號六樓之１","OBJECTID":245105},"geometry":{"x":170226.49000000115,"y":2542024.9400000013}},{"attributes":{"ID":245110,"DIS_CODE":0,"TOWNNAME":"新營區","LI":"太南里","LIN":"11鄰","STREET":" ","SECT":" ","MAREA":"太子宮","LANE":" ","ALLEY":" ","HOUSE_NO":"２５８號","E_COORD97":176086.17000000001,"N_COORD97":2576830.8700000001,"ADDRESS":"太子宮２５８號","OBJECTID":245106},"geometry":{"x":176086.17000000179,"y":2576830.870000001}},{"attributes":{"ID":245111,"DIS_CODE":0,"TOWNNAME":"歸仁區","LI":"後市里","LIN":"11鄰","STREET":"民權七街","SECT":" ","MAREA":" ","LANE":"９巷","ALLEY":" ","HOUSE_NO":"５號","E_COORD97":177022.92000000001,"N_COORD97":2540759.29,"ADDRESS":"民權七街９巷５號","OBJECTID":245107},"geometry":{"x":177022.91999999993,"y":2540759.2899999991}},{"attributes":{"ID":245112,"DIS_CODE":0,"TOWNNAME":"歸仁區","LI":"南保里","LIN":"11鄰","STREET":"文化十街","SECT":" ","MAREA":" ","LANE":"１０巷","ALLEY":" ","HOUSE_NO":"２０號","E_COORD97":176610.47,"N_COORD97":2541257.2599999998,"ADDRESS":"文化十街１０巷２０號","OBJECTID":245108},"geometry":{"x":176610.46999999974,"y":2541257.2600000016}},{"attributes":{"ID":245113,"DIS_CODE":0,"TOWNNAME":"仁德區","LI":"保安里","LIN":"24鄰","STREET":"保學一街","SECT":" ","MAREA":" ","LANE":"５５巷","ALLEY":" ","HOUSE_NO":"２３號","E_COORD97":171873.09,"N_COORD97":2535508.1499999999,"ADDRESS":"保學一街５５巷２３號","OBJECTID":245109},"geometry":{"x":171873.09000000078,"y":2535508.1500000022}},{"attributes":{"ID":245114,"DIS_CODE":0,"TOWNNAME":"仁德區","LI":"保安里","LIN":"24鄰","STREET":"保學一街","SECT":" ","MAREA":" ","LANE":"５５巷","ALLEY":" ","HOUSE_NO":"２５號","E_COORD97":171878.39000000001,"N_COORD97":2535513.9199999999,"ADDRESS":"保學一街５５巷２５號","OBJECTID":245110},"geometry":{"x":171878.38999999966,"y":2535513.9199999999}},{"attributes":{"ID":245115,"DIS_CODE":0,"TOWNNAME":"仁德區","LI":"保安里","LIN":"24鄰","STREET":"保學一街","SECT":" ","MAREA":" ","LANE":"５５巷","ALLEY":" ","HOUSE_NO":"２７號","E_COORD97":171881.07999999999,"N_COORD97":2535517.9399999999,"ADDRESS":"保學一街５５巷２７號","OBJECTID":245111},"geometry":{"x":171881.08000000007,"y":2535517.9400000013}},{"attributes":{"ID":245116,"DIS_CODE":0,"TOWNNAME":"楠西區","LI":"鹿田里","LIN":"11鄰","STREET":" ","SECT":" ","MAREA":"油車","LANE":" ","ALLEY":" ","HOUSE_NO":"７４號","E_COORD97":197681.14000000001,"N_COORD97":2562726.25,"ADDRESS":"油車７４號","OBJECTID":245112},"geometry":{"x":197681.14000000153,"y":2562726.25}},{"attributes":{"ID":245117,"DIS_CODE":0,"TOWNNAME":"仁德區","LI":"保安里","LIN":"24鄰","STREET":"保學一街","SECT":" ","MAREA":" ","LANE":"５５巷","ALLEY":" ","HOUSE_NO":"７號","E_COORD97":171744.17000000001,"N_COORD97":2535443.1200000001,"ADDRESS":"保學一街５５巷７號","OBJECTID":245113},"geometry":{"x":171744.16999999993,"y":2535443.120000001}},{"attributes":{"ID":245118,"DIS_CODE":0,"TOWNNAME":"仁德區","LI":"保安里","LIN":"24鄰","STREET":"保學一街","SECT":" ","MAREA":" ","LANE":"５５巷","ALLEY":" ","HOUSE_NO":"９號","E_COORD97":171758.73999999999,"N_COORD97":2535451.2000000002,"ADDRESS":"保學一街５５巷９號","OBJECTID":245114},"geometry":{"x":171758.74000000115,"y":2535451.200000003}},{"attributes":{"ID":245119,"DIS_CODE":0,"TOWNNAME":"安平區","LI":"怡平里","LIN":"13鄰","STREET":"永華六街","SECT":" ","MAREA":" ","LANE":"２７９巷","ALLEY":" ","HOUSE_NO":"１８號地下一層","E_COORD97":165568.67000000001,"N_COORD97":2544123.71,"ADDRESS":"永華六街２７９巷１８號地下一層","OBJECTID":245115},"geometry":{"x":165568.66999999993,"y":2544123.7100000028}},{"attributes":{"ID":245120,"DIS_CODE":0,"TOWNNAME":"新市區","LI":"港墘里","LIN":"24鄰","STREET":"光華街","SECT":" ","MAREA":" ","LANE":"１５４巷","ALLEY":" ","HOUSE_NO":"３２號","E_COORD97":177931.26000000001,"N_COORD97":2552904.25,"ADDRESS":"光華街１５４巷３２號","OBJECTID":245116},"geometry":{"x":177931.25999999978,"y":2552904.25}},{"attributes":{"ID":245121,"DIS_CODE":0,"TOWNNAME":"安南區","LI":"新順里","LIN":"24鄰","STREET":"修安街","SECT":" ","MAREA":" ","LANE":"６６巷","ALLEY":" ","HOUSE_NO":"１２號","E_COORD97":169403.12,"N_COORD97":2549209.1600000001,"ADDRESS":"修安街６６巷１２號","OBJECTID":245117},"geometry":{"x":169403.12000000104,"y":2549209.1600000001}},{"attributes":{"ID":245122,"DIS_CODE":0,"TOWNNAME":"安南區","LI":"新順里","LIN":"24鄰","STREET":"修安街","SECT":" ","MAREA":" ","LANE":"６６巷","ALLEY":" ","HOUSE_NO":"１３號","E_COORD97":169416.81,"N_COORD97":2549218.21,"ADDRESS":"修安街６６巷１３號","OBJECTID":245118},"geometry":{"x":169416.81000000052,"y":2549218.2100000028}},{"attributes":{"ID":245123,"DIS_CODE":0,"TOWNNAME":"安南區","LI":"新順里","LIN":"24鄰","STREET":"修安街","SECT":" ","MAREA":" ","LANE":"６６巷","ALLEY":" ","HOUSE_NO":"１６號","E_COORD97":169409.48000000001,"N_COORD97":2549208.96,"ADDRESS":"修安街６６巷１６號","OBJECTID":245119},"geometry":{"x":169409.48000000138,"y":2549208.9600000009}},{"attributes":{"ID":245124,"DIS_CODE":0,"TOWNNAME":"安南區","LI":"新順里","LIN":"24鄰","STREET":"修安街","SECT":" ","MAREA":" ","LANE":"６６巷","ALLEY":" ","HOUSE_NO":"１８號","E_COORD97":169416.60999999999,"N_COORD97":2549208.77,"ADDRESS":"修安街６６巷１８號","OBJECTID":245120},"geometry":{"x":169416.6100000022,"y":2549208.7699999996}},{"attributes":{"ID":245125,"DIS_CODE":0,"TOWNNAME":"安南區","LI":"新順里","LIN":"24鄰","STREET":"修安街","SECT":" ","MAREA":" ","LANE":"６８巷","ALLEY":" ","HOUSE_NO":"１０號","E_COORD97":169390.20000000001,"N_COORD97":2549236.3100000001,"ADDRESS":"修安街６８巷１０號","OBJECTID":245121},"geometry":{"x":169390.19999999925,"y":2549236.3100000005}},{"attributes":{"ID":245126,"DIS_CODE":0,"TOWNNAME":"安南區","LI":"新順里","LIN":"24鄰","STREET":"修安街","SECT":" ","MAREA":" ","LANE":"６８巷","ALLEY":" ","HOUSE_NO":"１２號","E_COORD97":169395.01999999999,"N_COORD97":2549236.3100000001,"ADDRESS":"修安街６８巷１２號","OBJECTID":245122},"geometry":{"x":169395.02000000048,"y":2549236.3100000005}},{"attributes":{"ID":245127,"DIS_CODE":0,"TOWNNAME":"安南區","LI":"新順里","LIN":"24鄰","STREET":"修安街","SECT":" ","MAREA":" ","LANE":"６８巷","ALLEY":" ","HOUSE_NO":"１６號","E_COORD97":169399.64999999999,"N_COORD97":2549236.3100000001,"ADDRESS":"修安街６８巷１６號","OBJECTID":245123},"geometry":{"x":169399.6500000013,"y":2549236.3100000005}},{"attributes":{"ID":245128,"DIS_CODE":0,"TOWNNAME":"安南區","LI":"新順里","LIN":"24鄰","STREET":"修安街","SECT":" ","MAREA":" ","LANE":"６８巷","ALLEY":" ","HOUSE_NO":"１８號","E_COORD97":169404.47,"N_COORD97":2549236.5,"ADDRESS":"修安街６８巷１８號","OBJECTID":245124},"geometry":{"x":169404.46999999974,"y":2549236.5000000019}},{"attributes":{"ID":245129,"DIS_CODE":0,"TOWNNAME":"東區","LI":"崇學里","LIN":"14鄰","STREET":"崇德路","SECT":" ","MAREA":" ","LANE":" ","ALLEY":" ","HOUSE_NO":"２６０號六樓之１０","E_COORD97":170226.48999999999,"N_COORD97":2542024.9399999999,"ADDRESS":"崇德路２６０號六樓之１０","OBJECTID":245125},"geometry":{"x":170226.49000000115,"y":2542024.9400000013}},{"attributes":{"ID":245130,"DIS_CODE":0,"TOWNNAME":"東區","LI":"崇學里","LIN":"14鄰","STREET":"崇德路","SECT":" ","MAREA":" ","LANE":" ","ALLEY":" ","HOUSE_NO":"２６０號六樓之２","E_COORD97":170226.48999999999,"N_COORD97":2542024.9399999999,"ADDRESS":"崇德路２６０號六樓之２","OBJECTID":245126},"geometry":{"x":170226.49000000115,"y":2542024.9400000013}},{"attributes":{"ID":245131,"DIS_CODE":0,"TOWNNAME":"安南區","LI":"頂安里","LIN":"11鄰","STREET":"北安路","SECT":"三段","MAREA":" ","LANE":" ","ALLEY":" ","HOUSE_NO":"２３３號之３０","E_COORD97":168439.57999999999,"N_COORD97":2549338.9199999999,"ADDRESS":"北安路三段２３３號之３０","OBJECTID":245127},"geometry":{"x":168439.58000000007,"y":2549338.9200000018}},{"attributes":{"ID":245132,"DIS_CODE":0,"TOWNNAME":"北區","LI":"延平里","LIN":"11鄰","STREET":"公園路","SECT":" ","MAREA":" ","LANE":"７８８巷","ALLEY":" ","HOUSE_NO":"６９號","E_COORD97":169280.22,"N_COORD97":2545728.0800000001,"ADDRESS":"公園路７８８巷６９號","OBJECTID":245128},"geometry":{"x":169280.22000000067,"y":2545728.0800000001}},{"attributes":{"ID":245133,"DIS_CODE":0,"TOWNNAME":"北區","LI":"延平里","LIN":"11鄰","STREET":"公園路","SECT":" ","MAREA":" ","LANE":"７８８巷","ALLEY":" ","HOUSE_NO":"５７號","E_COORD97":169251.47,"N_COORD97":2545735.21,"ADDRESS":"公園路７８８巷５７號","OBJECTID":245129},"geometry":{"x":169251.47000000067,"y":2545735.2100000009}},{"attributes":{"ID":245134,"DIS_CODE":0,"TOWNNAME":"北區","LI":"延平里","LIN":"11鄰","STREET":"公園路","SECT":" ","MAREA":" ","LANE":"７８８巷","ALLEY":" ","HOUSE_NO":"５５號","E_COORD97":169248.01000000001,"N_COORD97":2545736.5099999998,"ADDRESS":"公園路７８８巷５５號","OBJECTID":245130},"geometry":{"x":169248.00999999978,"y":2545736.5100000016}},{"attributes":{"ID":245135,"DIS_CODE":0,"TOWNNAME":"北區","LI":"延平里","LIN":"11鄰","STREET":"公園路","SECT":" ","MAREA":" ","LANE":"７８８巷","ALLEY":" ","HOUSE_NO":"５３號","E_COORD97":169243.47,"N_COORD97":2545737.1600000001,"ADDRESS":"公園路７８８巷５３號","OBJECTID":245131},"geometry":{"x":169243.46999999974,"y":2545737.1600000001}},{"attributes":{"ID":245136,"DIS_CODE":0,"TOWNNAME":"北區","LI":"延平里","LIN":"11鄰","STREET":"公園路","SECT":" ","MAREA":" ","LANE":"７８８巷","ALLEY":" ","HOUSE_NO":"４９號","E_COORD97":169234.82000000001,"N_COORD97":2545739.3199999998,"ADDRESS":"公園路７８８巷４９號","OBJECTID":245132},"geometry":{"x":169234.8200000003,"y":2545739.3200000022}},{"attributes":{"ID":245137,"DIS_CODE":0,"TOWNNAME":"北區","LI":"延平里","LIN":"11鄰","STREET":"公園路","SECT":" ","MAREA":" ","LANE":"７８８巷","ALLEY":" ","HOUSE_NO":"４１號","E_COORD97":169216.07999999999,"N_COORD97":2545746.6099999999,"ADDRESS":"公園路７８８巷４１號","OBJECTID":245133},"geometry":{"x":169216.08000000007,"y":2545746.6100000013}},{"attributes":{"ID":245138,"DIS_CODE":0,"TOWNNAME":"北區","LI":"延平里","LIN":"11鄰","STREET":"公園路","SECT":" ","MAREA":" ","LANE":"７８８巷","ALLEY":" ","HOUSE_NO":"４３號","E_COORD97":169235.47,"N_COORD97":2545755.0899999999,"ADDRESS":"公園路７８８巷４３號","OBJECTID":245134},"geometry":{"x":169235.4700000016,"y":2545755.0899999999}},{"attributes":{"ID":245139,"DIS_CODE":0,"TOWNNAME":"北區","LI":"延平里","LIN":"11鄰","STREET":"公園路","SECT":" ","MAREA":" ","LANE":"７８８巷","ALLEY":" ","HOUSE_NO":"４５號","E_COORD97":169242.60000000001,"N_COORD97":2545760.7000000002,"ADDRESS":"公園路７８８巷４５號","OBJECTID":245135},"geometry":{"x":169242.59999999963,"y":2545760.6999999993}},{"attributes":{"ID":245140,"DIS_CODE":0,"TOWNNAME":"安南區","LI":"新順里","LIN":"24鄰","STREET":"修安街","SECT":" ","MAREA":" ","LANE":"６８巷","ALLEY":" ","HOUSE_NO":"２０號","E_COORD97":169409.48000000001,"N_COORD97":2549236.5,"ADDRESS":"修安街６８巷２０號","OBJECTID":245136},"geometry":{"x":169409.48000000138,"y":2549236.5000000019}},{"attributes":{"ID":245141,"DIS_CODE":0,"TOWNNAME":"安南區","LI":"新順里","LIN":"24鄰","STREET":"修安街","SECT":" ","MAREA":" ","LANE":"６８巷","ALLEY":" ","HOUSE_NO":"２２號","E_COORD97":169414.10999999999,"N_COORD97":2549236.5,"ADDRESS":"修安街６８巷２２號","OBJECTID":245137},"geometry":{"x":169414.11000000034,"y":2549236.5000000019}},{"attributes":{"ID":245142,"DIS_CODE":0,"TOWNNAME":"安南區","LI":"新順里","LIN":"24鄰","STREET":"修安街","SECT":" ","MAREA":" ","LANE":"６８巷","ALLEY":" ","HOUSE_NO":"２６號","E_COORD97":169419.12,"N_COORD97":2549236.3100000001,"ADDRESS":"修安街６８巷２６號","OBJECTID":245138},"geometry":{"x":169419.12000000011,"y":2549236.3100000005}},{"attributes":{"ID":245143,"DIS_CODE":0,"TOWNNAME":"安南區","LI":"新順里","LIN":"24鄰","STREET":"修安街","SECT":" ","MAREA":" ","LANE":"６８巷","ALLEY":" ","HOUSE_NO":"２號","E_COORD97":169376.13,"N_COORD97":2549236.5,"ADDRESS":"修安街６８巷２號","OBJECTID":245139},"geometry":{"x":169376.12999999989,"y":2549236.5000000019}},{"attributes":{"ID":245144,"DIS_CODE":0,"TOWNNAME":"東區","LI":"崇學里","LIN":"14鄰","STREET":"崇德路","SECT":" ","MAREA":" ","LANE":" ","ALLEY":" ","HOUSE_NO":"２６０號四樓之５","E_COORD97":170226.48999999999,"N_COORD97":2542024.9399999999,"ADDRESS":"崇德路２６０號四樓之５","OBJECTID":245140},"geometry":{"x":170226.49000000115,"y":2542024.9400000013}},{"attributes":{"ID":245145,"DIS_CODE":0,"TOWNNAME":"東區","LI":"崇學里","LIN":"14鄰","STREET":"崇德路","SECT":" ","MAREA":" ","LANE":" ","ALLEY":" ","HOUSE_NO":"２６０號四樓之６","E_COORD97":170226.48999999999,"N_COORD97":2542024.9399999999,"ADDRESS":"崇德路２６０號四樓之６","OBJECTID":245141},"geometry":{"x":170226.49000000115,"y":2542024.9400000013}},{"attributes":{"ID":245146,"DIS_CODE":0,"TOWNNAME":"東區","LI":"崇學里","LIN":"14鄰","STREET":"崇德路","SECT":" ","MAREA":" ","LANE":" ","ALLEY":" ","HOUSE_NO":"２６０號四樓之７","E_COORD97":170226.48999999999,"N_COORD97":2542024.9399999999,"ADDRESS":"崇德路２６０號四樓之７","OBJECTID":245142},"geometry":{"x":170226.49000000115,"y":2542024.9400000013}},{"attributes":{"ID":245147,"DIS_CODE":0,"TOWNNAME":"新營區","LI":"埤寮里","LIN":"11鄰","STREET":" ","SECT":" ","MAREA":"埤寮","LANE":" ","ALLEY":" ","HOUSE_NO":"７９號","E_COORD97":180511.75,"N_COORD97":2580848.3300000001,"ADDRESS":"埤寮７９號","OBJECTID":245143},"geometry":{"x":180511.75,"y":2580848.3300000038}},{"attributes":{"ID":245148,"DIS_CODE":0,"TOWNNAME":"新營區","LI":"鐵線里","LIN":"11鄰","STREET":" ","SECT":" ","MAREA":"鐵線橋","LANE":" ","ALLEY":" ","HOUSE_NO":"１２７號","E_COORD97":175730.62,"N_COORD97":2573725.8999999999,"ADDRESS":"鐵線橋１２７號","OBJECTID":245144},"geometry":{"x":175730.62000000011,"y":2573725.9000000022}},{"attributes":{"ID":245149,"DIS_CODE":0,"TOWNNAME":"新營區","LI":"埤寮里","LIN":"11鄰","STREET":" ","SECT":" ","MAREA":"埤寮","LANE":" ","ALLEY":" ","HOUSE_NO":"８８號","E_COORD97":180456.48999999999,"N_COORD97":2580833.0899999999,"ADDRESS":"埤寮８８號","OBJECTID":245145},"geometry":{"x":180456.49000000115,"y":2580833.0900000036}},{"attributes":{"ID":245150,"DIS_CODE":0,"TOWNNAME":"新營區","LI":"太南里","LIN":"11鄰","STREET":" ","SECT":" ","MAREA":"太子宮","LANE":" ","ALLEY":" ","HOUSE_NO":"２５７號","E_COORD97":176086.28,"N_COORD97":2576853.02,"ADDRESS":"太子宮２５７號","OBJECTID":245146},"geometry":{"x":176086.28000000119,"y":2576853.0200000014}},{"attributes":{"ID":245151,"DIS_CODE":0,"TOWNNAME":"新營區","LI":"太南里","LIN":"11鄰","STREET":" ","SECT":" ","MAREA":"太子宮","LANE":" ","ALLEY":" ","HOUSE_NO":"２５９號","E_COORD97":176105.62,"N_COORD97":2576832.9900000002,"ADDRESS":"太子宮２５９號","OBJECTID":245147},"geometry":{"x":176105.62000000104,"y":2576832.9899999984}},{"attributes":{"ID":245152,"DIS_CODE":0,"TOWNNAME":"新營區","LI":"太南里","LIN":"11鄰","STREET":" ","SECT":" ","MAREA":"太子宮","LANE":" ","ALLEY":" ","HOUSE_NO":"２６１號","E_COORD97":176107.45999999999,"N_COORD97":2576792.0099999998,"ADDRESS":"太子宮２６１號","OBJECTID":245148},"geometry":{"x":176107.45999999996,"y":2576792.0100000035}},{"attributes":{"ID":245153,"DIS_CODE":0,"TOWNNAME":"東區","LI":"崇學里","LIN":"14鄰","STREET":"崇德路","SECT":" ","MAREA":" ","LANE":" ","ALLEY":" ","HOUSE_NO":"２６０號四樓之８","E_COORD97":170226.48999999999,"N_COORD97":2542024.9399999999,"ADDRESS":"崇德路２６０號四樓之８","OBJECTID":245149},"geometry":{"x":170226.49000000115,"y":2542024.9400000013}},{"attributes":{"ID":245154,"DIS_CODE":0,"TOWNNAME":"永康區","LI":"大橋里","LIN":"14鄰","STREET":"大橋一街","SECT":" ","MAREA":" ","LANE":" ","ALLEY":" ","HOUSE_NO":"６３號十樓之１","E_COORD97":170898.78,"N_COORD97":2546429.5499999998,"ADDRESS":"大橋一街６３號十樓之１","OBJECTID":245150},"geometry":{"x":170898.78000000119,"y":2546429.5500000026}},{"attributes":{"ID":245155,"DIS_CODE":0,"TOWNNAME":"永康區","LI":"大橋里","LIN":"14鄰","STREET":"大橋一街","SECT":" ","MAREA":" ","LANE":" ","ALLEY":" ","HOUSE_NO":"６３號十二樓之３","E_COORD97":170900.13,"N_COORD97":2546429.5499999998,"ADDRESS":"大橋一街６３號十二樓之３","OBJECTID":245151},"geometry":{"x":170900.12999999989,"y":2546429.5500000026}},{"attributes":{"ID":245156,"DIS_CODE":0,"TOWNNAME":"永康區","LI":"大橋里","LIN":"14鄰","STREET":"大橋一街","SECT":" ","MAREA":" ","LANE":" ","ALLEY":" ","HOUSE_NO":"６１號十一樓之１","E_COORD97":170896.95000000001,"N_COORD97":2546426.5499999998,"ADDRESS":"大橋一街６１號十一樓之１","OBJECTID":245152},"geometry":{"x":170896.95000000019,"y":2546426.5500000026}},{"attributes":{"ID":245157,"DIS_CODE":0,"TOWNNAME":"永康區","LI":"大橋里","LIN":"14鄰","STREET":"大橋一街","SECT":" ","MAREA":" ","LANE":" ","ALLEY":" ","HOUSE_NO":"６３號七樓之１","E_COORD97":170898.78,"N_COORD97":2546429.5499999998,"ADDRESS":"大橋一街６３號七樓之１","OBJECTID":245153},"geometry":{"x":170898.78000000119,"y":2546429.5500000026}},{"attributes":{"ID":245158,"DIS_CODE":0,"TOWNNAME":"新營區","LI":"埤寮里","LIN":"11鄰","STREET":" ","SECT":" ","MAREA":"埤寮","LANE":" ","ALLEY":" ","HOUSE_NO":"７４之１號","E_COORD97":180460.14999999999,"N_COORD97":2580870.79,"ADDRESS":"埤寮７４之１號","OBJECTID":245154},"geometry":{"x":180460.15000000037,"y":2580870.7899999991}},{"attributes":{"ID":245159,"DIS_CODE":0,"TOWNNAME":"新營區","LI":"埤寮里","LIN":"11鄰","STREET":" ","SECT":" ","MAREA":"埤寮","LANE":" ","ALLEY":" ","HOUSE_NO":"７７號","E_COORD97":180466.76000000001,"N_COORD97":2580849.6499999999,"ADDRESS":"埤寮７７號","OBJECTID":245155},"geometry":{"x":180466.75999999978,"y":2580849.6499999985}},{"attributes":{"ID":245160,"DIS_CODE":0,"TOWNNAME":"新營區","LI":"鐵線里","LIN":"11鄰","STREET":" ","SECT":" ","MAREA":"鐵線橋","LANE":" ","ALLEY":" ","HOUSE_NO":"１２６之３號","E_COORD97":175889.01999999999,"N_COORD97":2573739.8999999999,"ADDRESS":"鐵線橋１２６之３號","OBJECTID":245156},"geometry":{"x":175889.02000000048,"y":2573739.9000000022}},{"attributes":{"ID":245161,"DIS_CODE":0,"TOWNNAME":"新營區","LI":"鐵線里","LIN":"11鄰","STREET":" ","SECT":" ","MAREA":"鐵線橋","LANE":" ","ALLEY":" ","HOUSE_NO":"１２６之６號","E_COORD97":175888.91,"N_COORD97":2573717.75,"ADDRESS":"鐵線橋１２６之６號","OBJECTID":245157},"geometry":{"x":175888.91000000108,"y":2573717.75}},{"attributes":{"ID":245162,"DIS_CODE":0,"TOWNNAME":"新營區","LI":"鐵線里","LIN":"11鄰","STREET":" ","SECT":" ","MAREA":"鐵線橋","LANE":" ","ALLEY":" ","HOUSE_NO":"１２１之３號","E_COORD97":175817.98999999999,"N_COORD97":2573858.7599999998,"ADDRESS":"鐵線橋１２１之３號","OBJECTID":245158},"geometry":{"x":175817.99000000022,"y":2573858.7600000016}},{"attributes":{"ID":245163,"DIS_CODE":0,"TOWNNAME":"新營區","LI":"埤寮里","LIN":"11鄰","STREET":" ","SECT":" ","MAREA":"埤寮","LANE":" ","ALLEY":" ","HOUSE_NO":"８４號","E_COORD97":180504.39999999999,"N_COORD97":2580798.54,"ADDRESS":"埤寮８４號","OBJECTID":245159},"geometry":{"x":180504.39999999944,"y":2580798.5400000028}},{"attributes":{"ID":245164,"DIS_CODE":0,"TOWNNAME":"安南區","LI":"新順里","LIN":"24鄰","STREET":"修安街","SECT":" ","MAREA":" ","LANE":"６８巷","ALLEY":" ","HOUSE_NO":"６號","E_COORD97":169380.95000000001,"N_COORD97":2549236.8900000001,"ADDRESS":"修安街６８巷６號","OBJECTID":245160},"geometry":{"x":169380.95000000112,"y":2549236.8900000043}},{"attributes":{"ID":245165,"DIS_CODE":0,"TOWNNAME":"安南區","LI":"新順里","LIN":"24鄰","STREET":"修安街","SECT":" ","MAREA":" ","LANE":"６８巷","ALLEY":" ","HOUSE_NO":"８號","E_COORD97":169385.39000000001,"N_COORD97":2549236.1200000001,"ADDRESS":"修安街６８巷８號","OBJECTID":245161},"geometry":{"x":169385.3900000006,"y":2549236.1200000029}},{"attributes":{"ID":245166,"DIS_CODE":0,"TOWNNAME":"安南區","LI":"新順里","LIN":"24鄰","STREET":"景安街","SECT":" ","MAREA":" ","LANE":"１１０巷","ALLEY":" ","HOUSE_NO":"１號","E_COORD97":169413.51000000001,"N_COORD97":2549195.3300000001,"ADDRESS":"景安街１１０巷１號","OBJECTID":245162},"geometry":{"x":169413.51000000071,"y":2549195.3300000001}},{"attributes":{"ID":245167,"DIS_CODE":0,"TOWNNAME":"東區","LI":"自強里","LIN":"24鄰","STREET":"富農街","SECT":"一段","MAREA":" ","LANE":"１９９巷","ALLEY":" ","HOUSE_NO":"４號","E_COORD97":171530.48999999999,"N_COORD97":2542642.4199999999,"ADDRESS":"富農街一段１９９巷４號","OBJECTID":245163},"geometry":{"x":171530.49000000022,"y":2542642.4200000018}},{"attributes":{"ID":245168,"DIS_CODE":0,"TOWNNAME":"新營區","LI":"鐵線里","LIN":"11鄰","STREET":" ","SECT":" ","MAREA":"鐵線橋","LANE":" ","ALLEY":" ","HOUSE_NO":"１２９號","E_COORD97":175693.16,"N_COORD97":2573744.1400000001,"ADDRESS":"鐵線橋１２９號","OBJECTID":245164},"geometry":{"x":175693.15999999922,"y":2573744.1400000043}},{"attributes":{"ID":245169,"DIS_CODE":0,"TOWNNAME":"新營區","LI":"埤寮里","LIN":"11鄰","STREET":" ","SECT":" ","MAREA":"埤寮","LANE":" ","ALLEY":" ","HOUSE_NO":"８６號","E_COORD97":180503.25,"N_COORD97":2580773.0699999998,"ADDRESS":"埤寮８６號","OBJECTID":245165},"geometry":{"x":180503.25,"y":2580773.0700000022}},{"attributes":{"ID":245170,"DIS_CODE":0,"TOWNNAME":"佳里區","LI":"建南里","LIN":"24鄰","STREET":"四維三街","SECT":" ","MAREA":" ","LANE":"９８巷","ALLEY":" ","HOUSE_NO":"１０號","E_COORD97":165482.10999999999,"N_COORD97":2561009.6200000001,"ADDRESS":"四維三街９８巷１０號","OBJECTID":245166},"geometry":{"x":165482.11000000127,"y":2561009.620000001}},{"attributes":{"ID":245171,"DIS_CODE":0,"TOWNNAME":"新營區","LI":"太南里","LIN":"11鄰","STREET":" ","SECT":" ","MAREA":"太子宮","LANE":" ","ALLEY":" ","HOUSE_NO":"２６１之３號","E_COORD97":176122.29999999999,"N_COORD97":2576806.3900000001,"ADDRESS":"太子宮２６１之３號","OBJECTID":245167},"geometry":{"x":176122.29999999981,"y":2576806.3900000006}},{"attributes":{"ID":245172,"DIS_CODE":0,"TOWNNAME":"新營區","LI":"鐵線里","LIN":"11鄰","STREET":" ","SECT":" ","MAREA":"鐵線橋","LANE":" ","ALLEY":" ","HOUSE_NO":"１２４號","E_COORD97":175822.42999999999,"N_COORD97":2573814.3700000001,"ADDRESS":"鐵線橋１２４號","OBJECTID":245168},"geometry":{"x":175822.4299999997,"y":2573814.3700000048}},{"attributes":{"ID":245173,"DIS_CODE":0,"TOWNNAME":"新營區","LI":"埤寮里","LIN":"11鄰","STREET":" ","SECT":" ","MAREA":"埤寮","LANE":" ","ALLEY":" ","HOUSE_NO":"７８號","E_COORD97":180493.25,"N_COORD97":2580828.4900000002,"ADDRESS":"埤寮７８號","OBJECTID":245169},"geometry":{"x":180493.25000000186,"y":2580828.4900000021}},{"attributes":{"ID":245174,"DIS_CODE":0,"TOWNNAME":"新營區","LI":"新北里","LIN":"11鄰","STREET":"三興街","SECT":" ","MAREA":" ","LANE":"３０１巷","ALLEY":" ","HOUSE_NO":"４６號","E_COORD97":179207.59,"N_COORD97":2579723.7999999998,"ADDRESS":"三興街３０１巷４６號","OBJECTID":245170},"geometry":{"x":179207.59000000171,"y":2579723.8000000045}},{"attributes":{"ID":245175,"DIS_CODE":0,"TOWNNAME":"佳里區","LI":"建南里","LIN":"24鄰","STREET":"四維三街","SECT":" ","MAREA":" ","LANE":"９８巷","ALLEY":" ","HOUSE_NO":"１１號","E_COORD97":165469.70999999999,"N_COORD97":2560993.25,"ADDRESS":"四維三街９８巷１１號","OBJECTID":245171},"geometry":{"x":165469.71000000089,"y":2560993.25}},{"attributes":{"ID":245176,"DIS_CODE":0,"TOWNNAME":"佳里區","LI":"建南里","LIN":"24鄰","STREET":"四維三街","SECT":" ","MAREA":" ","LANE":"９８巷","ALLEY":" ","HOUSE_NO":"１２號","E_COORD97":165477.01000000001,"N_COORD97":2561010.1400000001,"ADDRESS":"四維三街９８巷１２號","OBJECTID":245172},"geometry":{"x":165477.01000000164,"y":2561010.1400000025}},{"attributes":{"ID":245177,"DIS_CODE":0,"TOWNNAME":"佳里區","LI":"建南里","LIN":"24鄰","STREET":"四維三街","SECT":" ","MAREA":" ","LANE":"９８巷","ALLEY":" ","HOUSE_NO":"１３號","E_COORD97":165464.73000000001,"N_COORD97":2560994.1400000001,"ADDRESS":"四維三街９８巷１３號","OBJECTID":245173},"geometry":{"x":165464.73000000138,"y":2560994.1400000025}},{"attributes":{"ID":245178,"DIS_CODE":0,"TOWNNAME":"佳里區","LI":"建南里","LIN":"24鄰","STREET":"四維三街","SECT":" ","MAREA":" ","LANE":"９８巷","ALLEY":" ","HOUSE_NO":"１５號","E_COORD97":165459.26999999999,"N_COORD97":2560994.7000000002,"ADDRESS":"四維三街９８巷１５號","OBJECTID":245174},"geometry":{"x":165459.26999999955,"y":2560994.7000000011}},{"attributes":{"ID":245179,"DIS_CODE":0,"TOWNNAME":"永康區","LI":"\u25A0行里","LIN":"14鄰","STREET":"中正六街","SECT":" ","MAREA":" ","LANE":" ","ALLEY":" ","HOUSE_NO":"１７５號六樓之３","E_COORD97":171858.29000000001,"N_COORD97":2548861.5600000001,"ADDRESS":"中正六街１７５號六樓之３","OBJECTID":245175},"geometry":{"x":171858.29000000097,"y":2548861.5600000005}},{"attributes":{"ID":245180,"DIS_CODE":0,"TOWNNAME":"新營區","LI":"姑爺里","LIN":"11鄰","STREET":" ","SECT":" ","MAREA":"挖仔","LANE":" ","ALLEY":" ","HOUSE_NO":"４０－１１號","E_COORD97":173908.14999999999,"N_COORD97":2575424.3999999999,"ADDRESS":"挖仔４０－１１號","OBJECTID":245176},"geometry":{"x":173908.15000000037,"y":2575424.4000000022}},{"attributes":{"ID":245181,"DIS_CODE":0,"TOWNNAME":"善化區","LI":"牛庄里","LIN":"11鄰","STREET":" ","SECT":" ","MAREA":"牛庄","LANE":" ","ALLEY":" ","HOUSE_NO":"９４號","E_COORD97":180028.97,"N_COORD97":2560112.25,"ADDRESS":"牛庄９４號","OBJECTID":245177},"geometry":{"x":180028.97000000067,"y":2560112.25}},{"attributes":{"ID":245182,"DIS_CODE":0,"TOWNNAME":"新營區","LI":"太北里","LIN":"11鄰","STREET":" ","SECT":" ","MAREA":"太子宮","LANE":" ","ALLEY":" ","HOUSE_NO":"９８號","E_COORD97":176047.89000000001,"N_COORD97":2576957.6600000001,"ADDRESS":"太子宮９８號","OBJECTID":245178},"geometry":{"x":176047.8900000006,"y":2576957.6600000039}},{"attributes":{"ID":245183,"DIS_CODE":0,"TOWNNAME":"楠西區","LI":"鹿田里","LIN":"11鄰","STREET":" ","SECT":" ","MAREA":"油車","LANE":" ","ALLEY":" ","HOUSE_NO":"６１號之７","E_COORD97":197725.04999999999,"N_COORD97":2562783.2999999998,"ADDRESS":"油車６１號之７","OBJECTID":245179},"geometry":{"x":197725.05000000075,"y":2562783.3000000026}},{"attributes":{"ID":245184,"DIS_CODE":0,"TOWNNAME":"學甲區","LI":"大灣里","LIN":"11鄰","STREET":" ","SECT":" ","MAREA":"大灣","LANE":" ","ALLEY":" ","HOUSE_NO":"１１１號","E_COORD97":166809.16,"N_COORD97":2567741.1099999999,"ADDRESS":"大灣１１１號","OBJECTID":245180},"geometry":{"x":166809.16000000108,"y":2567741.1099999994}},{"attributes":{"ID":245185,"DIS_CODE":0,"TOWNNAME":"學甲區","LI":"大灣里","LIN":"11鄰","STREET":" ","SECT":" ","MAREA":"大灣","LANE":" ","ALLEY":" ","HOUSE_NO":"１１２號","E_COORD97":166795.26000000001,"N_COORD97":2567727.3399999999,"ADDRESS":"大灣１１２號","OBJECTID":245181},"geometry":{"x":166795.25999999978,"y":2567727.3400000036}},{"attributes":{"ID":245186,"DIS_CODE":0,"TOWNNAME":"學甲區","LI":"大灣里","LIN":"11鄰","STREET":" ","SECT":" ","MAREA":"大灣","LANE":" ","ALLEY":" ","HOUSE_NO":"１１３號","E_COORD97":166795.17000000001,"N_COORD97":2567709.46,"ADDRESS":"大灣１１３號","OBJECTID":245182},"geometry":{"x":166795.17000000086,"y":2567709.4600000009}},{"attributes":{"ID":245187,"DIS_CODE":0,"TOWNNAME":"學甲區","LI":"大灣里","LIN":"11鄰","STREET":" ","SECT":" ","MAREA":"大灣","LANE":" ","ALLEY":" ","HOUSE_NO":"１１４號之１","E_COORD97":166812.04999999999,"N_COORD97":2567695.6099999999,"ADDRESS":"大灣１１４號之１","OBJECTID":245183},"geometry":{"x":166812.04999999981,"y":2567695.6100000013}},{"attributes":{"ID":245188,"DIS_CODE":0,"TOWNNAME":"學甲區","LI":"大灣里","LIN":"11鄰","STREET":" ","SECT":" ","MAREA":"大灣","LANE":" ","ALLEY":" ","HOUSE_NO":"１１４號","E_COORD97":166819.14000000001,"N_COORD97":2567709.3900000001,"ADDRESS":"大灣１１４號","OBJECTID":245184},"geometry":{"x":166819.1400000006,"y":2567709.3900000006}},{"attributes":{"ID":245189,"DIS_CODE":0,"TOWNNAME":"學甲區","LI":"大灣里","LIN":"11鄰","STREET":" ","SECT":" ","MAREA":"大灣","LANE":" ","ALLEY":" ","HOUSE_NO":"１１５號","E_COORD97":166823.82999999999,"N_COORD97":2567688.1000000001,"ADDRESS":"大灣１１５號","OBJECTID":245185},"geometry":{"x":166823.83000000007,"y":2567688.1000000034}},{"attributes":{"ID":245190,"DIS_CODE":0,"TOWNNAME":"學甲區","LI":"大灣里","LIN":"11鄰","STREET":" ","SECT":" ","MAREA":"大灣","LANE":" ","ALLEY":" ","HOUSE_NO":"１１６號","E_COORD97":166809.59,"N_COORD97":2567678.5899999999,"ADDRESS":"大灣１１６號","OBJECTID":245186},"geometry":{"x":166809.59000000078,"y":2567678.5900000017}},{"attributes":{"ID":245191,"DIS_CODE":0,"TOWNNAME":"佳里區","LI":"建南里","LIN":"24鄰","STREET":"四維三街","SECT":" ","MAREA":" ","LANE":"９８巷","ALLEY":" ","HOUSE_NO":"１６號","E_COORD97":165472.34,"N_COORD97":2561010.8399999999,"ADDRESS":"四維三街９８巷１６號","OBJECTID":245187},"geometry":{"x":165472.33999999985,"y":2561010.8400000036}},{"attributes":{"ID":245192,"DIS_CODE":0,"TOWNNAME":"佳里區","LI":"建南里","LIN":"24鄰","STREET":"四維三街","SECT":" ","MAREA":" ","LANE":"９８巷","ALLEY":" ","HOUSE_NO":"１８號","E_COORD97":165467.64999999999,"N_COORD97":2561011.4700000002,"ADDRESS":"四維三街９８巷１８號","OBJECTID":245188},"geometry":{"x":165467.65000000037,"y":2561011.4700000025}},{"attributes":{"ID":245193,"DIS_CODE":0,"TOWNNAME":"佳里區","LI":"建南里","LIN":"24鄰","STREET":"四維三街","SECT":" ","MAREA":" ","LANE":"９８巷","ALLEY":" ","HOUSE_NO":"１號","E_COORD97":165494,"N_COORD97":2560989.0699999998,"ADDRESS":"四維三街９８巷１號","OBJECTID":245189},"geometry":{"x":165494,"y":2560989.0700000003}},{"attributes":{"ID":245194,"DIS_CODE":0,"TOWNNAME":"佳里區","LI":"建南里","LIN":"24鄰","STREET":"四維三街","SECT":" ","MAREA":" ","LANE":"９８巷","ALLEY":" ","HOUSE_NO":"２０號","E_COORD97":165462.47,"N_COORD97":2561012.1299999999,"ADDRESS":"四維三街９８巷２０號","OBJECTID":245190},"geometry":{"x":165462.47000000067,"y":2561012.1300000008}},{"attributes":{"ID":245195,"DIS_CODE":0,"TOWNNAME":"佳里區","LI":"建南里","LIN":"24鄰","STREET":"四維三街","SECT":" ","MAREA":" ","LANE":"９８巷","ALLEY":" ","HOUSE_NO":"２號","E_COORD97":165496.75,"N_COORD97":2561007.75,"ADDRESS":"四維三街９８巷２號","OBJECTID":245191},"geometry":{"x":165496.75000000093,"y":2561007.75}},{"attributes":{"ID":245196,"DIS_CODE":0,"TOWNNAME":"佳里區","LI":"建南里","LIN":"24鄰","STREET":"四維三街","SECT":" ","MAREA":" ","LANE":"９８巷","ALLEY":" ","HOUSE_NO":"３號","E_COORD97":165489.35000000001,"N_COORD97":2560989.23,"ADDRESS":"四維三街９８巷３號","OBJECTID":245192},"geometry":{"x":165489.34999999963,"y":2560989.2300000023}},{"attributes":{"ID":245197,"DIS_CODE":0,"TOWNNAME":"佳里區","LI":"建南里","LIN":"24鄰","STREET":"四維三街","SECT":" ","MAREA":" ","LANE":"９８巷","ALLEY":" ","HOUSE_NO":"７號","E_COORD97":165479.45999999999,"N_COORD97":2560991.5699999998,"ADDRESS":"四維三街９８巷７號","OBJECTID":245193},"geometry":{"x":165479.46000000089,"y":2560991.5700000003}},{"attributes":{"ID":245198,"DIS_CODE":0,"TOWNNAME":"佳里區","LI":"建南里","LIN":"24鄰","STREET":"四維三街","SECT":" ","MAREA":" ","LANE":"９８巷","ALLEY":" ","HOUSE_NO":"８號","E_COORD97":165487.38,"N_COORD97":2561009.29,"ADDRESS":"四維三街９８巷８號","OBJECTID":245194},"geometry":{"x":165487.37999999989,"y":2561009.2899999991}},{"attributes":{"ID":245199,"DIS_CODE":0,"TOWNNAME":"東山區","LI":"東中里","LIN":"11鄰","STREET":"育仁街","SECT":" ","MAREA":" ","LANE":" ","ALLEY":" ","HOUSE_NO":"１５號","E_COORD97":188829.62,"N_COORD97":2579525.7000000002,"ADDRESS":"育仁街１５號","OBJECTID":245195},"geometry":{"x":188829.62000000197,"y":2579525.6999999993}},{"attributes":{"ID":245200,"DIS_CODE":0,"TOWNNAME":"學甲區","LI":"大灣里","LIN":"11鄰","STREET":" ","SECT":" ","MAREA":"大灣","LANE":" ","ALLEY":" ","HOUSE_NO":"１１７號","E_COORD97":166807.79999999999,"N_COORD97":2567664.5699999998,"ADDRESS":"大灣１１７號","OBJECTID":245196},"geometry":{"x":166807.80000000075,"y":2567664.5700000003}},{"attributes":{"ID":245201,"DIS_CODE":0,"TOWNNAME":"學甲區","LI":"大灣里","LIN":"11鄰","STREET":" ","SECT":" ","MAREA":"大灣","LANE":" ","ALLEY":" ","HOUSE_NO":"１１８號","E_COORD97":166821.31,"N_COORD97":2567657.2999999998,"ADDRESS":"大灣１１８號","OBJECTID":245197},"geometry":{"x":166821.31000000052,"y":2567657.3000000045}},{"attributes":{"ID":245202,"DIS_CODE":0,"TOWNNAME":"東山區","LI":"東山里","LIN":"11鄰","STREET":" ","SECT":" ","MAREA":"東山","LANE":" ","ALLEY":" ","HOUSE_NO":"２１６號","E_COORD97":188917.01000000001,"N_COORD97":2580475.2400000002,"ADDRESS":"東山２１６號","OBJECTID":245198},"geometry":{"x":188917.01000000071,"y":2580475.2400000002}},{"attributes":{"ID":245203,"DIS_CODE":0,"TOWNNAME":"東山區","LI":"東山里","LIN":"11鄰","STREET":" ","SECT":" ","MAREA":"東山","LANE":" ","ALLEY":" ","HOUSE_NO":"２１７號之１０","E_COORD97":188956.20000000001,"N_COORD97":2580488.1899999999,"ADDRESS":"東山２１７號之１０","OBJECTID":245199},"geometry":{"x":188956.20000000205,"y":2580488.1899999995}},{"attributes":{"ID":245204,"DIS_CODE":0,"TOWNNAME":"東山區","LI":"東山里","LIN":"11鄰","STREET":" ","SECT":" ","MAREA":"東山","LANE":" ","ALLEY":" ","HOUSE_NO":"２１７號之１１","E_COORD97":188956.35000000001,"N_COORD97":2580492.7200000002,"ADDRESS":"東山２１７號之１１","OBJECTID":245200},"geometry":{"x":188956.35000000149,"y":2580492.7200000007}}]}