{"displayFieldName":"TOWNNAME","fieldAliases":{"ID":"ID","DIS_CODE":"DIS_CODE","TOWNNAME":"TOWNNAME","LI":"LI","LIN":"LIN","STREET":"STREET","SECT":"SECT","MAREA":"MAREA","LANE":"LANE","ALLEY":"ALLEY","HOUSE_NO":"HOUSE_NO","E_COORD97":"E_COORD97","N_COORD97":"N_COORD97","ADDRESS":"ADDRESS","OBJECTID":"OBJECTID"},"geometryType":"esriGeometryPoint","spatialReference":{"wkid":102443,"latestWkid":3826},"fields":[{"name":"ID","type":"esriFieldTypeDouble","alias":"ID"},{"name":"DIS_CODE","type":"esriFieldTypeInteger","alias":"DIS_CODE"},{"name":"TOWNNAME","type":"esriFieldTypeString","alias":"TOWNNAME","length":8},{"name":"LI","type":"esriFieldTypeString","alias":"LI","length":8},{"name":"LIN","type":"esriFieldTypeString","alias":"LIN","length":12},{"name":"STREET","type":"esriFieldTypeString","alias":"STREET","length":20},{"name":"SECT","type":"esriFieldTypeString","alias":"SECT","length":8},{"name":"MAREA","type":"esriFieldTypeString","alias":"MAREA","length":12},{"name":"LANE","type":"esriFieldTypeString","alias":"LANE","length":10},{"name":"ALLEY","type":"esriFieldTypeString","alias":"ALLEY","length":10},{"name":"HOUSE_NO","type":"esriFieldTypeString","alias":"HOUSE_NO","length":20},{"name":"E_COORD97","type":"esriFieldTypeDouble","alias":"E_COORD97"},{"name":"N_COORD97","type":"esriFieldTypeDouble","alias":"N_COORD97"},{"name":"ADDRESS","type":"esriFieldTypeString","alias":"ADDRESS","length":50},{"name":"OBJECTID","type":"esriFieldTypeOID","alias":"OBJECTID"}],"features":[{"attributes":{"ID":608628,"DIS_CODE":0,"TOWNNAME":"新化區","LI":"協興里","LIN":"3鄰","STREET":"忠孝路","SECT":" ","MAREA":" ","LANE":" ","ALLEY":" ","HOUSE_NO":"１９５號","E_COORD97":178534.22,"N_COORD97":2548596.25,"ADDRESS":"忠孝路１９５號","OBJECTID":608601},"geometry":{"x":178534.22000000067,"y":2548596.2500000037}},{"attributes":{"ID":608629,"DIS_CODE":0,"TOWNNAME":"新化區","LI":"唪口里","LIN":"3鄰","STREET":"大德路","SECT":" ","MAREA":" ","LANE":" ","ALLEY":" ","HOUSE_NO":"８２號之５","E_COORD97":178224.73999999999,"N_COORD97":2549463.2599999998,"ADDRESS":"大德路８２號之５","OBJECTID":608602},"geometry":{"x":178224.74000000022,"y":2549463.2599999998}},{"attributes":{"ID":608630,"DIS_CODE":0,"TOWNNAME":"新化區","LI":"護國里","LIN":"3鄰","STREET":"仁愛街","SECT":" ","MAREA":" ","LANE":" ","ALLEY":" ","HOUSE_NO":"２７號","E_COORD97":179179.07999999999,"N_COORD97":2548603.25,"ADDRESS":"仁愛街２７號","OBJECTID":608603},"geometry":{"x":179179.08000000194,"y":2548603.2500000019}},{"attributes":{"ID":608631,"DIS_CODE":0,"TOWNNAME":"新化區","LI":"唪口里","LIN":"3鄰","STREET":"大德路","SECT":" ","MAREA":" ","LANE":" ","ALLEY":" ","HOUSE_NO":"８２號之３２","E_COORD97":178269.78,"N_COORD97":2549482.2599999998,"ADDRESS":"大德路８２號之３２","OBJECTID":608604},"geometry":{"x":178269.78000000119,"y":2549482.2600000016}},{"attributes":{"ID":608632,"DIS_CODE":0,"TOWNNAME":"新化區","LI":"武安里","LIN":"3鄰","STREET":"和平街","SECT":" ","MAREA":" ","LANE":" ","ALLEY":" ","HOUSE_NO":"６１號","E_COORD97":179094.87,"N_COORD97":2548144.25,"ADDRESS":"和平街６１號","OBJECTID":608605},"geometry":{"x":179094.87000000104,"y":2548144.25}},{"attributes":{"ID":608633,"DIS_CODE":0,"TOWNNAME":"新化區","LI":"唪口里","LIN":"3鄰","STREET":"大德路","SECT":" ","MAREA":" ","LANE":" ","ALLEY":" ","HOUSE_NO":"８２號之７","E_COORD97":178233.32000000001,"N_COORD97":2549463.2599999998,"ADDRESS":"大德路８２號之７","OBJECTID":608606},"geometry":{"x":178233.31999999937,"y":2549463.2599999998}},{"attributes":{"ID":608634,"DIS_CODE":0,"TOWNNAME":"新化區","LI":"唪口里","LIN":"3鄰","STREET":"大德路","SECT":" ","MAREA":" ","LANE":" ","ALLEY":" ","HOUSE_NO":"８２號之２","E_COORD97":178215.92999999999,"N_COORD97":2549463.2599999998,"ADDRESS":"大德路８２號之２","OBJECTID":608607},"geometry":{"x":178215.9299999997,"y":2549463.2599999998}},{"attributes":{"ID":608635,"DIS_CODE":0,"TOWNNAME":"新化區","LI":"竹林里","LIN":"3鄰","STREET":"中山路","SECT":" ","MAREA":" ","LANE":" ","ALLEY":" ","HOUSE_NO":"４０２號之３","E_COORD97":178803.06,"N_COORD97":2548436.2599999998,"ADDRESS":"中山路４０２號之３","OBJECTID":608608},"geometry":{"x":178803.06000000052,"y":2548436.2599999979}},{"attributes":{"ID":608636,"DIS_CODE":0,"TOWNNAME":"新化區","LI":"唪口里","LIN":"3鄰","STREET":"大德路","SECT":" ","MAREA":" ","LANE":" ","ALLEY":" ","HOUSE_NO":"８２號之１６","E_COORD97":178267.78,"N_COORD97":2549461.2599999998,"ADDRESS":"大德路８２號之１６","OBJECTID":608609},"geometry":{"x":178267.78000000119,"y":2549461.2600000016}},{"attributes":{"ID":608637,"DIS_CODE":0,"TOWNNAME":"新化區","LI":"護國里","LIN":"3鄰","STREET":"仁愛街","SECT":" ","MAREA":" ","LANE":" ","ALLEY":" ","HOUSE_NO":"３９號","E_COORD97":179119.48000000001,"N_COORD97":2548594.25,"ADDRESS":"仁愛街３９號","OBJECTID":608610},"geometry":{"x":179119.48000000138,"y":2548594.2500000019}},{"attributes":{"ID":608638,"DIS_CODE":0,"TOWNNAME":"新化區","LI":"護國里","LIN":"3鄰","STREET":"建國街","SECT":" ","MAREA":" ","LANE":" ","ALLEY":" ","HOUSE_NO":"１５號","E_COORD97":179214.17999999999,"N_COORD97":2548530.2599999998,"ADDRESS":"建國街１５號","OBJECTID":608611},"geometry":{"x":179214.18000000063,"y":2548530.2599999998}},{"attributes":{"ID":608639,"DIS_CODE":0,"TOWNNAME":"新化區","LI":"太平里","LIN":"3鄰","STREET":"太平街","SECT":" ","MAREA":" ","LANE":" ","ALLEY":" ","HOUSE_NO":"１１號","E_COORD97":179045.37,"N_COORD97":2548828.25,"ADDRESS":"太平街１１號","OBJECTID":608612},"geometry":{"x":179045.37000000104,"y":2548828.2500000019}},{"attributes":{"ID":608640,"DIS_CODE":0,"TOWNNAME":"新化區","LI":"竹林里","LIN":"3鄰","STREET":"民權街","SECT":" ","MAREA":" ","LANE":" ","ALLEY":" ","HOUSE_NO":"２４號","E_COORD97":178767.45999999999,"N_COORD97":2548466.25,"ADDRESS":"民權街２４號","OBJECTID":608613},"geometry":{"x":178767.45999999996,"y":2548466.25}},{"attributes":{"ID":608641,"DIS_CODE":0,"TOWNNAME":"新化區","LI":"護國里","LIN":"3鄰","STREET":"仁愛街","SECT":" ","MAREA":" ","LANE":" ","ALLEY":" ","HOUSE_NO":"２３號","E_COORD97":179193.88,"N_COORD97":2548605.25,"ADDRESS":"仁愛街２３號","OBJECTID":608614},"geometry":{"x":179193.88000000082,"y":2548605.25}},{"attributes":{"ID":608642,"DIS_CODE":0,"TOWNNAME":"新化區","LI":"太平里","LIN":"3鄰","STREET":"太平街","SECT":" ","MAREA":" ","LANE":" ","ALLEY":" ","HOUSE_NO":"１５號","E_COORD97":179011.57000000001,"N_COORD97":2548820.25,"ADDRESS":"太平街１５號","OBJECTID":608615},"geometry":{"x":179011.57000000216,"y":2548820.2500000019}},{"attributes":{"ID":608643,"DIS_CODE":0,"TOWNNAME":"新化區","LI":"唪口里","LIN":"3鄰","STREET":"大德路","SECT":" ","MAREA":" ","LANE":" ","ALLEY":" ","HOUSE_NO":"８２號之１９","E_COORD97":178218.76999999999,"N_COORD97":2549484.2599999998,"ADDRESS":"大德路８２號之１９","OBJECTID":608616},"geometry":{"x":178218.76999999955,"y":2549484.2600000035}},{"attributes":{"ID":608644,"DIS_CODE":0,"TOWNNAME":"新化區","LI":"太平里","LIN":"3鄰","STREET":"中正路","SECT":" ","MAREA":" ","LANE":" ","ALLEY":" ","HOUSE_NO":"５２６號","E_COORD97":178978.91,"N_COORD97":2548796.25,"ADDRESS":"中正路５２６號","OBJECTID":608617},"geometry":{"x":178978.91000000108,"y":2548796.2500000037}},{"attributes":{"ID":608645,"DIS_CODE":0,"TOWNNAME":"新化區","LI":"唪口里","LIN":"3鄰","STREET":"大德路","SECT":" ","MAREA":" ","LANE":" ","ALLEY":" ","HOUSE_NO":"８２號之２５","E_COORD97":178240.09,"N_COORD97":2549483.2599999998,"ADDRESS":"大德路８２號之２５","OBJECTID":608618},"geometry":{"x":178240.09000000078,"y":2549483.2599999998}},{"attributes":{"ID":608646,"DIS_CODE":0,"TOWNNAME":"新化區","LI":"唪口里","LIN":"3鄰","STREET":"大德路","SECT":" ","MAREA":" ","LANE":" ","ALLEY":" ","HOUSE_NO":"８２號之１０","E_COORD97":178246.17000000001,"N_COORD97":2549462.2599999998,"ADDRESS":"大德路８２號之１０","OBJECTID":608619},"geometry":{"x":178246.17000000086,"y":2549462.2599999998}},{"attributes":{"ID":608647,"DIS_CODE":0,"TOWNNAME":"新化區","LI":"唪口里","LIN":"3鄰","STREET":"大德路","SECT":" ","MAREA":" ","LANE":" ","ALLEY":" ","HOUSE_NO":"８２號之１","E_COORD97":178211.41,"N_COORD97":2549464.2599999998,"ADDRESS":"大德路８２號之１","OBJECTID":608620},"geometry":{"x":178211.41000000108,"y":2549464.2600000016}},{"attributes":{"ID":608648,"DIS_CODE":0,"TOWNNAME":"新化區","LI":"太平里","LIN":"3鄰","STREET":"太平街","SECT":" ","MAREA":" ","LANE":" ","ALLEY":" ","HOUSE_NO":"１３號之１","E_COORD97":179034.39999999999,"N_COORD97":2548825.2599999998,"ADDRESS":"太平街１３號之１","OBJECTID":608621},"geometry":{"x":179034.40000000037,"y":2548825.2599999998}},{"attributes":{"ID":608649,"DIS_CODE":0,"TOWNNAME":"新化區","LI":"護國里","LIN":"3鄰","STREET":"建國街","SECT":" ","MAREA":" ","LANE":" ","ALLEY":" ","HOUSE_NO":"１３號之１","E_COORD97":179216.01000000001,"N_COORD97":2548526.2599999998,"ADDRESS":"建國街１３號之１","OBJECTID":608622},"geometry":{"x":179216.00999999978,"y":2548526.2600000016}},{"attributes":{"ID":608650,"DIS_CODE":0,"TOWNNAME":"新化區","LI":"護國里","LIN":"3鄰","STREET":"仁愛街","SECT":" ","MAREA":" ","LANE":" ","ALLEY":" ","HOUSE_NO":"２９號","E_COORD97":179172.57999999999,"N_COORD97":2548602.25,"ADDRESS":"仁愛街２９號","OBJECTID":608623},"geometry":{"x":179172.58000000101,"y":2548602.25}},{"attributes":{"ID":608651,"DIS_CODE":0,"TOWNNAME":"新化區","LI":"唪口里","LIN":"3鄰","STREET":"大德路","SECT":" ","MAREA":" ","LANE":" ","ALLEY":" ","HOUSE_NO":"８２號之２３","E_COORD97":178235.78,"N_COORD97":2549484.2599999998,"ADDRESS":"大德路８２號之２３","OBJECTID":608624},"geometry":{"x":178235.78000000119,"y":2549484.2600000035}},{"attributes":{"ID":608652,"DIS_CODE":0,"TOWNNAME":"西港區","LI":"西港里","LIN":"3鄰","STREET":"中山路","SECT":" ","MAREA":" ","LANE":" ","ALLEY":" ","HOUSE_NO":"３７２號","E_COORD97":168392.19,"N_COORD97":2558199.0499999998,"ADDRESS":"中山路３７２號","OBJECTID":608625},"geometry":{"x":168392.19000000227,"y":2558199.0500000007}},{"attributes":{"ID":608653,"DIS_CODE":0,"TOWNNAME":"西港區","LI":"西港里","LIN":"3鄰","STREET":"中山路","SECT":" ","MAREA":" ","LANE":" ","ALLEY":" ","HOUSE_NO":"３７４之１號","E_COORD97":168411.85000000001,"N_COORD97":2558214.6000000001,"ADDRESS":"中山路３７４之１號","OBJECTID":608626},"geometry":{"x":168411.84999999963,"y":2558214.5999999996}},{"attributes":{"ID":608654,"DIS_CODE":0,"TOWNNAME":"西港區","LI":"西港里","LIN":"3鄰","STREET":"中山路","SECT":" ","MAREA":" ","LANE":" ","ALLEY":" ","HOUSE_NO":"３７４號","E_COORD97":168412.64999999999,"N_COORD97":2558209.75,"ADDRESS":"中山路３７４號","OBJECTID":608627},"geometry":{"x":168412.65000000224,"y":2558209.75}},{"attributes":{"ID":608655,"DIS_CODE":0,"TOWNNAME":"西港區","LI":"西港里","LIN":"3鄰","STREET":"文化路","SECT":" ","MAREA":" ","LANE":" ","ALLEY":" ","HOUSE_NO":"１１號","E_COORD97":168468.45000000001,"N_COORD97":2558150.04,"ADDRESS":"文化路１１號","OBJECTID":608628},"geometry":{"x":168468.45000000112,"y":2558150.0399999991}},{"attributes":{"ID":608656,"DIS_CODE":0,"TOWNNAME":"西港區","LI":"西港里","LIN":"3鄰","STREET":"文化路","SECT":" ","MAREA":" ","LANE":" ","ALLEY":" ","HOUSE_NO":"１號","E_COORD97":168399.67000000001,"N_COORD97":2558131.1800000002,"ADDRESS":"文化路１號","OBJECTID":608629},"geometry":{"x":168399.66999999993,"y":2558131.1800000016}},{"attributes":{"ID":608657,"DIS_CODE":0,"TOWNNAME":"西港區","LI":"西港里","LIN":"3鄰","STREET":"文化路","SECT":" ","MAREA":" ","LANE":" ","ALLEY":" ","HOUSE_NO":"３號之１０","E_COORD97":168440.98000000001,"N_COORD97":2558199.29,"ADDRESS":"文化路３號之１０","OBJECTID":608630},"geometry":{"x":168440.97999999952,"y":2558199.2899999991}},{"attributes":{"ID":608658,"DIS_CODE":0,"TOWNNAME":"西港區","LI":"西港里","LIN":"3鄰","STREET":"文化路","SECT":" ","MAREA":" ","LANE":" ","ALLEY":" ","HOUSE_NO":"３號之１１","E_COORD97":168441.07000000001,"N_COORD97":2558203.6800000002,"ADDRESS":"文化路３號之１１","OBJECTID":608631},"geometry":{"x":168441.07000000123,"y":2558203.6799999997}},{"attributes":{"ID":608659,"DIS_CODE":0,"TOWNNAME":"西港區","LI":"西港里","LIN":"3鄰","STREET":"文化路","SECT":" ","MAREA":" ","LANE":" ","ALLEY":" ","HOUSE_NO":"３號之１２","E_COORD97":168441.01999999999,"N_COORD97":2558208.1400000001,"ADDRESS":"文化路３號之１２","OBJECTID":608632},"geometry":{"x":168441.01999999955,"y":2558208.1400000006}},{"attributes":{"ID":608660,"DIS_CODE":0,"TOWNNAME":"西港區","LI":"西港里","LIN":"3鄰","STREET":"文化路","SECT":" ","MAREA":" ","LANE":" ","ALLEY":" ","HOUSE_NO":"３號之１３","E_COORD97":168441.17999999999,"N_COORD97":2558212.7000000002,"ADDRESS":"文化路３號之１３","OBJECTID":608633},"geometry":{"x":168441.18000000063,"y":2558212.6999999993}},{"attributes":{"ID":608661,"DIS_CODE":0,"TOWNNAME":"西港區","LI":"西港里","LIN":"3鄰","STREET":"文化路","SECT":" ","MAREA":" ","LANE":" ","ALLEY":" ","HOUSE_NO":"３號之２","E_COORD97":168439.16,"N_COORD97":2558162.9900000002,"ADDRESS":"文化路３號之２","OBJECTID":608634},"geometry":{"x":168439.16000000015,"y":2558162.9900000021}},{"attributes":{"ID":608662,"DIS_CODE":0,"TOWNNAME":"西港區","LI":"西港里","LIN":"3鄰","STREET":"文化路","SECT":" ","MAREA":" ","LANE":" ","ALLEY":" ","HOUSE_NO":"３號之３","E_COORD97":168439.51999999999,"N_COORD97":2558167.96,"ADDRESS":"文化路３號之３","OBJECTID":608635},"geometry":{"x":168439.51999999955,"y":2558167.9600000028}},{"attributes":{"ID":608663,"DIS_CODE":0,"TOWNNAME":"西港區","LI":"西港里","LIN":"3鄰","STREET":"文化路","SECT":" ","MAREA":" ","LANE":" ","ALLEY":" ","HOUSE_NO":"３號之４","E_COORD97":168439.44,"N_COORD97":2558172.4300000002,"ADDRESS":"文化路３號之４","OBJECTID":608636},"geometry":{"x":168439.44000000041,"y":2558172.4300000034}},{"attributes":{"ID":608664,"DIS_CODE":0,"TOWNNAME":"西港區","LI":"西港里","LIN":"3鄰","STREET":"文化路","SECT":" ","MAREA":" ","LANE":" ","ALLEY":" ","HOUSE_NO":"３號之５","E_COORD97":168439.98999999999,"N_COORD97":2558176.3399999999,"ADDRESS":"文化路３號之５","OBJECTID":608637},"geometry":{"x":168439.99000000022,"y":2558176.3399999999}},{"attributes":{"ID":608665,"DIS_CODE":0,"TOWNNAME":"西港區","LI":"西港里","LIN":"3鄰","STREET":"文化路","SECT":" ","MAREA":" ","LANE":" ","ALLEY":" ","HOUSE_NO":"３號之６","E_COORD97":168440.16,"N_COORD97":2558180.7999999998,"ADDRESS":"文化路３號之６","OBJECTID":608638},"geometry":{"x":168440.16000000108,"y":2558180.8000000007}},{"attributes":{"ID":608666,"DIS_CODE":0,"TOWNNAME":"西港區","LI":"西港里","LIN":"3鄰","STREET":"文化路","SECT":" ","MAREA":" ","LANE":" ","ALLEY":" ","HOUSE_NO":"３號之７","E_COORD97":168440.25,"N_COORD97":2558185.7599999998,"ADDRESS":"文化路３號之７","OBJECTID":608639},"geometry":{"x":168440.25,"y":2558185.7599999998}},{"attributes":{"ID":608667,"DIS_CODE":0,"TOWNNAME":"西港區","LI":"西港里","LIN":"3鄰","STREET":"文化路","SECT":" ","MAREA":" ","LANE":" ","ALLEY":" ","HOUSE_NO":"３號之８","E_COORD97":168440.45999999999,"N_COORD97":2558190.2999999998,"ADDRESS":"文化路３號之８","OBJECTID":608640},"geometry":{"x":168440.45999999996,"y":2558190.3000000007}},{"attributes":{"ID":608668,"DIS_CODE":0,"TOWNNAME":"西港區","LI":"西港里","LIN":"3鄰","STREET":"文化路","SECT":" ","MAREA":" ","LANE":" ","ALLEY":" ","HOUSE_NO":"３號之９","E_COORD97":168440.29000000001,"N_COORD97":2558194.6600000001,"ADDRESS":"文化路３號之９","OBJECTID":608641},"geometry":{"x":168440.2900000019,"y":2558194.6600000001}},{"attributes":{"ID":608669,"DIS_CODE":0,"TOWNNAME":"西港區","LI":"西港里","LIN":"3鄰","STREET":"文化路","SECT":" ","MAREA":" ","LANE":" ","ALLEY":" ","HOUSE_NO":"３號","E_COORD97":168438.38,"N_COORD97":2558134.1000000001,"ADDRESS":"文化路３號","OBJECTID":608642},"geometry":{"x":168438.38000000082,"y":2558134.1000000034}},{"attributes":{"ID":608670,"DIS_CODE":0,"TOWNNAME":"西港區","LI":"西港里","LIN":"3鄰","STREET":"文化路","SECT":" ","MAREA":" ","LANE":" ","ALLEY":" ","HOUSE_NO":"５號","E_COORD97":168442.23999999999,"N_COORD97":2558135.98,"ADDRESS":"文化路５號","OBJECTID":608643},"geometry":{"x":168442.24000000022,"y":2558135.9800000023}},{"attributes":{"ID":608671,"DIS_CODE":0,"TOWNNAME":"東區","LI":"中西里","LIN":"3鄰","STREET":"勝利路","SECT":" ","MAREA":" ","LANE":" ","ALLEY":" ","HOUSE_NO":"１０號","E_COORD97":169799.42000000001,"N_COORD97":2543236.5600000001,"ADDRESS":"勝利路１０號","OBJECTID":608644},"geometry":{"x":169799.42000000086,"y":2543236.5600000005}},{"attributes":{"ID":608672,"DIS_CODE":0,"TOWNNAME":"東區","LI":"富裕里","LIN":"3鄰","STREET":"裕農路","SECT":" ","MAREA":" ","LANE":" ","ALLEY":" ","HOUSE_NO":"１８號","E_COORD97":170541.88,"N_COORD97":2542834.4199999999,"ADDRESS":"裕農路１８號","OBJECTID":608645},"geometry":{"x":170541.88000000082,"y":2542834.4199999981}},{"attributes":{"ID":608673,"DIS_CODE":0,"TOWNNAME":"東區","LI":"富裕里","LIN":"3鄰","STREET":"裕農路","SECT":" ","MAREA":" ","LANE":" ","ALLEY":" ","HOUSE_NO":"２０號","E_COORD97":170545.88,"N_COORD97":2542837.2400000002,"ADDRESS":"裕農路２０號","OBJECTID":608646},"geometry":{"x":170545.87999999989,"y":2542837.2400000021}},{"attributes":{"ID":608674,"DIS_CODE":0,"TOWNNAME":"東區","LI":"富裕里","LIN":"3鄰","STREET":"裕農路","SECT":" ","MAREA":" ","LANE":" ","ALLEY":" ","HOUSE_NO":"２２號","E_COORD97":170549.95999999999,"N_COORD97":2542838.4399999999,"ADDRESS":"裕農路２２號","OBJECTID":608647},"geometry":{"x":170549.96000000089,"y":2542838.4400000013}},{"attributes":{"ID":608675,"DIS_CODE":0,"TOWNNAME":"東區","LI":"大同里","LIN":"3鄰","STREET":"大同路","SECT":"一段","MAREA":" ","LANE":" ","ALLEY":" ","HOUSE_NO":"４９之１號","E_COORD97":169160.20000000001,"N_COORD97":2543150.1800000002,"ADDRESS":"大同路一段４９之１號","OBJECTID":608648},"geometry":{"x":169160.20000000112,"y":2543150.1799999997}},{"attributes":{"ID":608676,"DIS_CODE":0,"TOWNNAME":"東區","LI":"大同里","LIN":"3鄰","STREET":"大同路","SECT":"一段","MAREA":" ","LANE":" ","ALLEY":" ","HOUSE_NO":"４９號","E_COORD97":169160.92999999999,"N_COORD97":2543159.3500000001,"ADDRESS":"大同路一段４９號","OBJECTID":608649},"geometry":{"x":169160.9299999997,"y":2543159.3499999996}},{"attributes":{"ID":608677,"DIS_CODE":0,"TOWNNAME":"新市區","LI":"新市里","LIN":"3鄰","STREET":"仁愛街","SECT":" ","MAREA":" ","LANE":" ","ALLEY":" ","HOUSE_NO":"３２２號","E_COORD97":177665.62,"N_COORD97":2553060.5299999998,"ADDRESS":"仁愛街３２２號","OBJECTID":608650},"geometry":{"x":177665.62000000104,"y":2553060.5299999993}},{"attributes":{"ID":608678,"DIS_CODE":0,"TOWNNAME":"新市區","LI":"新市里","LIN":"3鄰","STREET":"仁愛街","SECT":" ","MAREA":" ","LANE":" ","ALLEY":" ","HOUSE_NO":"３１０號","E_COORD97":177660.51000000001,"N_COORD97":2553034.5299999998,"ADDRESS":"仁愛街３１０號","OBJECTID":608651},"geometry":{"x":177660.51000000071,"y":2553034.5299999993}},{"attributes":{"ID":608679,"DIS_CODE":0,"TOWNNAME":"新市區","LI":"港墘里","LIN":"3鄰","STREET":"三民街","SECT":" ","MAREA":" ","LANE":" ","ALLEY":" ","HOUSE_NO":"３２號","E_COORD97":178515.92000000001,"N_COORD97":2553383.29,"ADDRESS":"三民街３２號","OBJECTID":608652},"geometry":{"x":178515.92000000086,"y":2553383.290000001}},{"attributes":{"ID":608680,"DIS_CODE":0,"TOWNNAME":"新市區","LI":"新市里","LIN":"3鄰","STREET":"仁愛街","SECT":" ","MAREA":" ","LANE":" ","ALLEY":" ","HOUSE_NO":"３０２號","E_COORD97":177654.32999999999,"N_COORD97":2553005.2799999998,"ADDRESS":"仁愛街３０２號","OBJECTID":608653},"geometry":{"x":177654.33000000007,"y":2553005.2799999993}},{"attributes":{"ID":608681,"DIS_CODE":0,"TOWNNAME":"新市區","LI":"新市里","LIN":"3鄰","STREET":"仁愛街","SECT":" ","MAREA":" ","LANE":" ","ALLEY":" ","HOUSE_NO":"３２８號","E_COORD97":177668.73000000001,"N_COORD97":2553076.2799999998,"ADDRESS":"仁愛街３２８號","OBJECTID":608654},"geometry":{"x":177668.73000000138,"y":2553076.2799999993}},{"attributes":{"ID":608682,"DIS_CODE":0,"TOWNNAME":"新市區","LI":"新市里","LIN":"3鄰","STREET":"仁愛街","SECT":" ","MAREA":" ","LANE":" ","ALLEY":" ","HOUSE_NO":"３１８號","E_COORD97":177663.82999999999,"N_COORD97":2553052.0299999998,"ADDRESS":"仁愛街３１８號","OBJECTID":608655},"geometry":{"x":177663.83000000101,"y":2553052.0300000031}},{"attributes":{"ID":608683,"DIS_CODE":0,"TOWNNAME":"新市區","LI":"新市里","LIN":"3鄰","STREET":"仁愛街","SECT":" ","MAREA":" ","LANE":" ","ALLEY":" ","HOUSE_NO":"３１６號","E_COORD97":177663.12,"N_COORD97":2553047.5299999998,"ADDRESS":"仁愛街３１６號","OBJECTID":608656},"geometry":{"x":177663.12000000011,"y":2553047.5299999993}},{"attributes":{"ID":608684,"DIS_CODE":0,"TOWNNAME":"新市區","LI":"新市里","LIN":"3鄰","STREET":"仁愛街","SECT":" ","MAREA":" ","LANE":" ","ALLEY":" ","HOUSE_NO":"３００號","E_COORD97":177653.48000000001,"N_COORD97":2553001.2799999998,"ADDRESS":"仁愛街３００號","OBJECTID":608657},"geometry":{"x":177653.48000000138,"y":2553001.2799999993}},{"attributes":{"ID":608685,"DIS_CODE":0,"TOWNNAME":"新市區","LI":"新市里","LIN":"3鄰","STREET":"仁愛街","SECT":" ","MAREA":" ","LANE":" ","ALLEY":" ","HOUSE_NO":"３２６號","E_COORD97":177667.81,"N_COORD97":2553072.0299999998,"ADDRESS":"仁愛街３２６號","OBJECTID":608658},"geometry":{"x":177667.80999999959,"y":2553072.0299999975}},{"attributes":{"ID":608686,"DIS_CODE":0,"TOWNNAME":"新市區","LI":"新市里","LIN":"3鄰","STREET":"仁愛街","SECT":" ","MAREA":" ","LANE":" ","ALLEY":" ","HOUSE_NO":"３１２號","E_COORD97":177661.31,"N_COORD97":2553038.5299999998,"ADDRESS":"仁愛街３１２號","OBJECTID":608659},"geometry":{"x":177661.30999999959,"y":2553038.5300000031}},{"attributes":{"ID":608687,"DIS_CODE":0,"TOWNNAME":"新市區","LI":"新市里","LIN":"3鄰","STREET":"仁愛街","SECT":" ","MAREA":" ","LANE":" ","ALLEY":" ","HOUSE_NO":"２９８號","E_COORD97":177653.72,"N_COORD97":2552997.0299999998,"ADDRESS":"仁愛街２９８號","OBJECTID":608660},"geometry":{"x":177653.7200000016,"y":2552997.0299999993}},{"attributes":{"ID":608688,"DIS_CODE":0,"TOWNNAME":"新市區","LI":"港墘里","LIN":"3鄰","STREET":"三民街","SECT":" ","MAREA":" ","LANE":" ","ALLEY":" ","HOUSE_NO":"１４號","E_COORD97":178551.81,"N_COORD97":2553360.79,"ADDRESS":"三民街１４號","OBJECTID":608661},"geometry":{"x":178551.81000000052,"y":2553360.7899999991}},{"attributes":{"ID":608689,"DIS_CODE":0,"TOWNNAME":"新市區","LI":"新市里","LIN":"3鄰","STREET":"仁愛街","SECT":" ","MAREA":" ","LANE":" ","ALLEY":" ","HOUSE_NO":"３３４號","E_COORD97":177672.04000000001,"N_COORD97":2553093.2799999998,"ADDRESS":"仁愛街３３４號","OBJECTID":608662},"geometry":{"x":177672.04000000004,"y":2553093.2799999993}},{"attributes":{"ID":608690,"DIS_CODE":0,"TOWNNAME":"新市區","LI":"新市里","LIN":"3鄰","STREET":"仁愛街","SECT":" ","MAREA":" ","LANE":" ","ALLEY":" ","HOUSE_NO":"３１４號","E_COORD97":177662.12,"N_COORD97":2553043.2799999998,"ADDRESS":"仁愛街３１４號","OBJECTID":608663},"geometry":{"x":177662.12000000104,"y":2553043.2799999975}},{"attributes":{"ID":608691,"DIS_CODE":0,"TOWNNAME":"新市區","LI":"新市里","LIN":"3鄰","STREET":"仁愛街","SECT":" ","MAREA":" ","LANE":" ","ALLEY":" ","HOUSE_NO":"３０８號","E_COORD97":177659.67000000001,"N_COORD97":2553030.2799999998,"ADDRESS":"仁愛街３０８號","OBJECTID":608664},"geometry":{"x":177659.67000000086,"y":2553030.2800000012}},{"attributes":{"ID":608692,"DIS_CODE":0,"TOWNNAME":"安南區","LI":"原佃里","LIN":"3鄰","STREET":"本原街","SECT":"一段","MAREA":" ","LANE":" ","ALLEY":" ","HOUSE_NO":"１３３號","E_COORD97":167919.41,"N_COORD97":2550135.0299999998,"ADDRESS":"本原街一段１３３號","OBJECTID":608665},"geometry":{"x":167919.41000000108,"y":2550135.0299999993}},{"attributes":{"ID":608693,"DIS_CODE":0,"TOWNNAME":"安南區","LI":"溪墘里","LIN":"3鄰","STREET":"海佃路","SECT":"一段","MAREA":" ","LANE":" ","ALLEY":" ","HOUSE_NO":"１７６號","E_COORD97":167157.89999999999,"N_COORD97":2547238.8900000001,"ADDRESS":"海佃路一段１７６號","OBJECTID":608666},"geometry":{"x":167157.90000000037,"y":2547238.8900000006}},{"attributes":{"ID":608694,"DIS_CODE":0,"TOWNNAME":"安南區","LI":"總頭里","LIN":"3鄰","STREET":"總安街","SECT":"二段","MAREA":" ","LANE":" ","ALLEY":" ","HOUSE_NO":"３４６號","E_COORD97":168346.64999999999,"N_COORD97":2550541.2200000002,"ADDRESS":"總安街二段３４６號","OBJECTID":608667},"geometry":{"x":168346.65000000224,"y":2550541.2200000025}},{"attributes":{"ID":608695,"DIS_CODE":0,"TOWNNAME":"安南區","LI":"總頭里","LIN":"3鄰","STREET":"總安街","SECT":"二段","MAREA":" ","LANE":" ","ALLEY":" ","HOUSE_NO":"３６８號","E_COORD97":168301.82000000001,"N_COORD97":2550545.3399999999,"ADDRESS":"總安街二段３６８號","OBJECTID":608668},"geometry":{"x":168301.82000000123,"y":2550545.3400000017}},{"attributes":{"ID":608696,"DIS_CODE":0,"TOWNNAME":"安南區","LI":"總頭里","LIN":"3鄰","STREET":"總安街","SECT":"二段","MAREA":" ","LANE":" ","ALLEY":" ","HOUSE_NO":"３８０號","E_COORD97":168282.82999999999,"N_COORD97":2550524.27,"ADDRESS":"總安街二段３８０號","OBJECTID":608669},"geometry":{"x":168282.83000000101,"y":2550524.2699999996}},{"attributes":{"ID":608697,"DIS_CODE":0,"TOWNNAME":"中西區","LI":"保安里","LIN":"3鄰","STREET":"府前路","SECT":"二段","MAREA":" ","LANE":" ","ALLEY":" ","HOUSE_NO":"５７號","E_COORD97":167592.79000000001,"N_COORD97":2543481.5800000001,"ADDRESS":"府前路二段５７號","OBJECTID":608670},"geometry":{"x":167592.79000000097,"y":2543481.5800000038}},{"attributes":{"ID":608698,"DIS_CODE":0,"TOWNNAME":"中西區","LI":"保安里","LIN":"3鄰","STREET":"府前路","SECT":"二段","MAREA":" ","LANE":" ","ALLEY":" ","HOUSE_NO":"５９號","E_COORD97":167588.63,"N_COORD97":2543483.3199999998,"ADDRESS":"府前路二段５９號","OBJECTID":608671},"geometry":{"x":167588.63000000082,"y":2543483.320000004}},{"attributes":{"ID":608699,"DIS_CODE":0,"TOWNNAME":"中西區","LI":"郡西里","LIN":"3鄰","STREET":"郡西路","SECT":" ","MAREA":" ","LANE":" ","ALLEY":" ","HOUSE_NO":"１１號","E_COORD97":167350.87,"N_COORD97":2543211.6400000001,"ADDRESS":"郡西路１１號","OBJECTID":608672},"geometry":{"x":167350.87000000011,"y":2543211.6400000025}},{"attributes":{"ID":608700,"DIS_CODE":0,"TOWNNAME":"中西區","LI":"仙草里","LIN":"3鄰","STREET":"五妃街","SECT":" ","MAREA":" ","LANE":" ","ALLEY":" ","HOUSE_NO":"２８８號","E_COORD97":167876.38,"N_COORD97":2542596.5699999998,"ADDRESS":"五妃街２８８號","OBJECTID":608673},"geometry":{"x":167876.37999999989,"y":2542596.5699999984}},{"attributes":{"ID":608701,"DIS_CODE":0,"TOWNNAME":"中西區","LI":"仙草里","LIN":"3鄰","STREET":"五妃街","SECT":" ","MAREA":" ","LANE":" ","ALLEY":" ","HOUSE_NO":"２９０號","E_COORD97":167871.82000000001,"N_COORD97":2542597.1699999999,"ADDRESS":"五妃街２９０號","OBJECTID":608674},"geometry":{"x":167871.8200000003,"y":2542597.1700000018}},{"attributes":{"ID":608702,"DIS_CODE":0,"TOWNNAME":"中西區","LI":"仙草里","LIN":"3鄰","STREET":"五妃街","SECT":" ","MAREA":" ","LANE":" ","ALLEY":" ","HOUSE_NO":"２９２號","E_COORD97":167866.26999999999,"N_COORD97":2542598.1600000001,"ADDRESS":"五妃街２９２號","OBJECTID":608675},"geometry":{"x":167866.26999999955,"y":2542598.1600000001}},{"attributes":{"ID":608703,"DIS_CODE":0,"TOWNNAME":"中西區","LI":"仙草里","LIN":"3鄰","STREET":"五妃街","SECT":" ","MAREA":" ","LANE":" ","ALLEY":" ","HOUSE_NO":"２９４號","E_COORD97":167860.32999999999,"N_COORD97":2542597.96,"ADDRESS":"五妃街２９４號","OBJECTID":608676},"geometry":{"x":167860.33000000194,"y":2542597.959999999}},{"attributes":{"ID":608704,"DIS_CODE":0,"TOWNNAME":"中西區","LI":"仙草里","LIN":"3鄰","STREET":"五妃街","SECT":" ","MAREA":" ","LANE":" ","ALLEY":" ","HOUSE_NO":"２９８號","E_COORD97":167851.41,"N_COORD97":2542598.3599999999,"ADDRESS":"五妃街２９８號","OBJECTID":608677},"geometry":{"x":167851.41000000201,"y":2542598.3600000013}},{"attributes":{"ID":608705,"DIS_CODE":0,"TOWNNAME":"中西區","LI":"仙草里","LIN":"3鄰","STREET":"五妃街","SECT":" ","MAREA":" ","LANE":" ","ALLEY":" ","HOUSE_NO":"３０４號","E_COORD97":167838.73000000001,"N_COORD97":2542598.5499999998,"ADDRESS":"五妃街３０４號","OBJECTID":608678},"geometry":{"x":167838.73000000045,"y":2542598.5500000026}},{"attributes":{"ID":608706,"DIS_CODE":0,"TOWNNAME":"中西區","LI":"仙草里","LIN":"3鄰","STREET":"五妃街","SECT":" ","MAREA":" ","LANE":" ","ALLEY":" ","HOUSE_NO":"３０６號","E_COORD97":167833.78,"N_COORD97":2542598.1600000001,"ADDRESS":"五妃街３０６號","OBJECTID":608679},"geometry":{"x":167833.78000000212,"y":2542598.1600000001}},{"attributes":{"ID":608707,"DIS_CODE":0,"TOWNNAME":"中西區","LI":"仙草里","LIN":"3鄰","STREET":"五妃街","SECT":" ","MAREA":" ","LANE":" ","ALLEY":" ","HOUSE_NO":"３０８號","E_COORD97":167829.01999999999,"N_COORD97":2542598.3599999999,"ADDRESS":"五妃街３０８號","OBJECTID":608680},"geometry":{"x":167829.01999999955,"y":2542598.3600000013}},{"attributes":{"ID":608708,"DIS_CODE":0,"TOWNNAME":"中西區","LI":"仙草里","LIN":"3鄰","STREET":"五妃街","SECT":" ","MAREA":" ","LANE":" ","ALLEY":" ","HOUSE_NO":"３１０號","E_COORD97":167824.66,"N_COORD97":2542597.7599999998,"ADDRESS":"五妃街３１０號","OBJECTID":608681},"geometry":{"x":167824.66000000108,"y":2542597.7599999998}},{"attributes":{"ID":608709,"DIS_CODE":0,"TOWNNAME":"中西區","LI":"仙草里","LIN":"3鄰","STREET":"五妃街","SECT":" ","MAREA":" ","LANE":" ","ALLEY":" ","HOUSE_NO":"３１２號","E_COORD97":167821.29999999999,"N_COORD97":2542597.96,"ADDRESS":"五妃街３１２號","OBJECTID":608682},"geometry":{"x":167821.30000000168,"y":2542597.959999999}},{"attributes":{"ID":608710,"DIS_CODE":0,"TOWNNAME":"中西區","LI":"仙草里","LIN":"3鄰","STREET":"五妃街","SECT":" ","MAREA":" ","LANE":" ","ALLEY":" ","HOUSE_NO":"３１４號","E_COORD97":167818.13,"N_COORD97":2542597.1699999999,"ADDRESS":"五妃街３１４號","OBJECTID":608683},"geometry":{"x":167818.13000000082,"y":2542597.1700000018}},{"attributes":{"ID":608711,"DIS_CODE":0,"TOWNNAME":"中西區","LI":"五妃里","LIN":"3鄰","STREET":"五妃街","SECT":" ","MAREA":" ","LANE":" ","ALLEY":" ","HOUSE_NO":"２０５號","E_COORD97":168430.44,"N_COORD97":2542566.2999999998,"ADDRESS":"五妃街２０５號","OBJECTID":608684},"geometry":{"x":168430.44000000041,"y":2542566.3000000026}},{"attributes":{"ID":608712,"DIS_CODE":0,"TOWNNAME":"中西區","LI":"五妃里","LIN":"3鄰","STREET":"五妃街","SECT":" ","MAREA":" ","LANE":" ","ALLEY":" ","HOUSE_NO":"２０６號","E_COORD97":168512.31,"N_COORD97":2542586.4199999999,"ADDRESS":"五妃街２０６號","OBJECTID":608685},"geometry":{"x":168512.30999999959,"y":2542586.4199999999}},{"attributes":{"ID":608713,"DIS_CODE":0,"TOWNNAME":"中西區","LI":"五妃里","LIN":"3鄰","STREET":"五妃街","SECT":" ","MAREA":" ","LANE":" ","ALLEY":" ","HOUSE_NO":"２０７號","E_COORD97":168421.95999999999,"N_COORD97":2542570.4199999999,"ADDRESS":"五妃街２０７號","OBJECTID":608686},"geometry":{"x":168421.95999999903,"y":2542570.4200000037}},{"attributes":{"ID":608714,"DIS_CODE":0,"TOWNNAME":"中西區","LI":"五妃里","LIN":"3鄰","STREET":"五妃街","SECT":" ","MAREA":" ","LANE":" ","ALLEY":" ","HOUSE_NO":"２０８號","E_COORD97":168503.57000000001,"N_COORD97":2542586.9100000001,"ADDRESS":"五妃街２０８號","OBJECTID":608687},"geometry":{"x":168503.57000000123,"y":2542586.9100000001}},{"attributes":{"ID":608715,"DIS_CODE":0,"TOWNNAME":"中西區","LI":"五妃里","LIN":"3鄰","STREET":"五妃街","SECT":" ","MAREA":" ","LANE":" ","ALLEY":" ","HOUSE_NO":"２１０號","E_COORD97":168493.85999999999,"N_COORD97":2542587.27,"ADDRESS":"五妃街２１０號","OBJECTID":608688},"geometry":{"x":168493.86000000034,"y":2542587.2699999996}},{"attributes":{"ID":608716,"DIS_CODE":0,"TOWNNAME":"中西區","LI":"五妃里","LIN":"3鄰","STREET":"五妃街","SECT":" ","MAREA":" ","LANE":" ","ALLEY":" ","HOUSE_NO":"２１２號","E_COORD97":168484.63,"N_COORD97":2542587.3900000001,"ADDRESS":"五妃街２１２號","OBJECTID":608689},"geometry":{"x":168484.62999999989,"y":2542587.3900000006}},{"attributes":{"ID":608717,"DIS_CODE":0,"TOWNNAME":"中西區","LI":"五妃里","LIN":"3鄰","STREET":"五妃街","SECT":" ","MAREA":" ","LANE":" ","ALLEY":" ","HOUSE_NO":"２１３號","E_COORD97":168404.10999999999,"N_COORD97":2542570.79,"ADDRESS":"五妃街２１３號","OBJECTID":608690},"geometry":{"x":168404.11000000034,"y":2542570.790000001}},{"attributes":{"ID":608718,"DIS_CODE":0,"TOWNNAME":"中西區","LI":"五妃里","LIN":"3鄰","STREET":"五妃街","SECT":" ","MAREA":" ","LANE":" ","ALLEY":" ","HOUSE_NO":"２１４號","E_COORD97":168476.98000000001,"N_COORD97":2542587.8799999999,"ADDRESS":"五妃街２１４號","OBJECTID":608691},"geometry":{"x":168476.98000000138,"y":2542587.8800000008}},{"attributes":{"ID":608719,"DIS_CODE":0,"TOWNNAME":"中西區","LI":"五妃里","LIN":"3鄰","STREET":"五妃街","SECT":" ","MAREA":" ","LANE":" ","ALLEY":" ","HOUSE_NO":"２１５號","E_COORD97":168399.26000000001,"N_COORD97":2542570.79,"ADDRESS":"五妃街２１５號","OBJECTID":608692},"geometry":{"x":168399.25999999978,"y":2542570.790000001}},{"attributes":{"ID":608720,"DIS_CODE":0,"TOWNNAME":"中西區","LI":"五妃里","LIN":"3鄰","STREET":"五妃街","SECT":" ","MAREA":" ","LANE":" ","ALLEY":" ","HOUSE_NO":"２１６號","E_COORD97":168460.47,"N_COORD97":2542608.4300000002,"ADDRESS":"五妃街２１６號","OBJECTID":608693},"geometry":{"x":168460.46999999974,"y":2542608.4300000016}},{"attributes":{"ID":608721,"DIS_CODE":0,"TOWNNAME":"中西區","LI":"五妃里","LIN":"3鄰","STREET":"五妃街","SECT":" ","MAREA":" ","LANE":" ","ALLEY":" ","HOUSE_NO":"２１８號","E_COORD97":168460.47,"N_COORD97":2542603.5699999998,"ADDRESS":"五妃街２１８號","OBJECTID":608694},"geometry":{"x":168460.46999999974,"y":2542603.570000004}},{"attributes":{"ID":608722,"DIS_CODE":0,"TOWNNAME":"中西區","LI":"五妃里","LIN":"3鄰","STREET":"五妃街","SECT":" ","MAREA":" ","LANE":" ","ALLEY":" ","HOUSE_NO":"２２０號","E_COORD97":168461.14999999999,"N_COORD97":2542589.0899999999,"ADDRESS":"五妃街２２０號","OBJECTID":608695},"geometry":{"x":168461.15000000037,"y":2542589.089999998}},{"attributes":{"ID":608723,"DIS_CODE":0,"TOWNNAME":"中西區","LI":"五妃里","LIN":"3鄰","STREET":"五妃街","SECT":" ","MAREA":" ","LANE":" ","ALLEY":" ","HOUSE_NO":"２２２號","E_COORD97":168446.45999999999,"N_COORD97":2542588.6099999999,"ADDRESS":"五妃街２２２號","OBJECTID":608696},"geometry":{"x":168446.46000000089,"y":2542588.6100000031}},{"attributes":{"ID":608724,"DIS_CODE":0,"TOWNNAME":"中西區","LI":"五妃里","LIN":"3鄰","STREET":"五妃街","SECT":" ","MAREA":" ","LANE":" ","ALLEY":" ","HOUSE_NO":"２２４號","E_COORD97":168436.63,"N_COORD97":2542588.8500000001,"ADDRESS":"五妃街２２４號","OBJECTID":608697},"geometry":{"x":168436.63000000082,"y":2542588.8500000015}},{"attributes":{"ID":608725,"DIS_CODE":0,"TOWNNAME":"中西區","LI":"法華里","LIN":"3鄰","STREET":"大同路","SECT":"一段","MAREA":" ","LANE":" ","ALLEY":" ","HOUSE_NO":"１５８號","E_COORD97":169105.82000000001,"N_COORD97":2542704.6800000002,"ADDRESS":"大同路一段１５８號","OBJECTID":608698},"geometry":{"x":169105.8200000003,"y":2542704.6800000016}},{"attributes":{"ID":608726,"DIS_CODE":0,"TOWNNAME":"中西區","LI":"法華里","LIN":"3鄰","STREET":"大同路","SECT":"一段","MAREA":" ","LANE":" ","ALLEY":" ","HOUSE_NO":"１６４號","E_COORD97":169106.14999999999,"N_COORD97":2542697.54,"ADDRESS":"大同路一段１６４號","OBJECTID":608699},"geometry":{"x":169106.15000000224,"y":2542697.5400000028}},{"attributes":{"ID":608727,"DIS_CODE":0,"TOWNNAME":"中西區","LI":"法華里","LIN":"3鄰","STREET":"大同路","SECT":"一段","MAREA":" ","LANE":" ","ALLEY":" ","HOUSE_NO":"１６６號","E_COORD97":169105.82000000001,"N_COORD97":2542694.2999999998,"ADDRESS":"大同路一段１６６號","OBJECTID":608700},"geometry":{"x":169105.8200000003,"y":2542694.3000000026}},{"attributes":{"ID":608728,"DIS_CODE":0,"TOWNNAME":"中西區","LI":"法華里","LIN":"3鄰","STREET":"大同路","SECT":"一段","MAREA":" ","LANE":" ","ALLEY":" ","HOUSE_NO":"１７０號","E_COORD97":169106.79999999999,"N_COORD97":2542687.8100000001,"ADDRESS":"大同路一段１７０號","OBJECTID":608701},"geometry":{"x":169106.80000000075,"y":2542687.8100000024}},{"attributes":{"ID":608729,"DIS_CODE":0,"TOWNNAME":"中西區","LI":"法華里","LIN":"3鄰","STREET":"大同路","SECT":"一段","MAREA":" ","LANE":" ","ALLEY":" ","HOUSE_NO":"１７２號","E_COORD97":169105.82000000001,"N_COORD97":2542684.2400000002,"ADDRESS":"大同路一段１７２號","OBJECTID":608702},"geometry":{"x":169105.8200000003,"y":2542684.2400000021}},{"attributes":{"ID":608730,"DIS_CODE":0,"TOWNNAME":"中西區","LI":"法華里","LIN":"3鄰","STREET":"大同路","SECT":"一段","MAREA":" ","LANE":" ","ALLEY":" ","HOUSE_NO":"１７４號","E_COORD97":169105.5,"N_COORD97":2542679.0499999998,"ADDRESS":"大同路一段１７４號","OBJECTID":608703},"geometry":{"x":169105.50000000093,"y":2542679.0500000026}},{"attributes":{"ID":608731,"DIS_CODE":0,"TOWNNAME":"中西區","LI":"法華里","LIN":"3鄰","STREET":"大同路","SECT":"一段","MAREA":" ","LANE":" ","ALLEY":" ","HOUSE_NO":"１７６號","E_COORD97":169104.51999999999,"N_COORD97":2542674.5099999998,"ADDRESS":"大同路一段１７６號","OBJECTID":608704},"geometry":{"x":169104.52000000048,"y":2542674.5100000035}},{"attributes":{"ID":608732,"DIS_CODE":0,"TOWNNAME":"中西區","LI":"法華里","LIN":"3鄰","STREET":"大同路","SECT":"一段","MAREA":" ","LANE":" ","ALLEY":" ","HOUSE_NO":"１７８號","E_COORD97":169104.51999999999,"N_COORD97":2542669.3100000001,"ADDRESS":"大同路一段１７８號","OBJECTID":608705},"geometry":{"x":169104.52000000048,"y":2542669.3100000005}},{"attributes":{"ID":608733,"DIS_CODE":0,"TOWNNAME":"中西區","LI":"法華里","LIN":"3鄰","STREET":"大同路","SECT":"一段","MAREA":" ","LANE":" ","ALLEY":" ","HOUSE_NO":"１８４號","E_COORD97":169100.29999999999,"N_COORD97":2542656.3999999999,"ADDRESS":"大同路一段１８４號","OBJECTID":608706},"geometry":{"x":169100.29999999981,"y":2542656.4000000022}},{"attributes":{"ID":608734,"DIS_CODE":0,"TOWNNAME":"中西區","LI":"法華里","LIN":"3鄰","STREET":"大同路","SECT":"一段","MAREA":" ","LANE":" ","ALLEY":" ","HOUSE_NO":"１８６號","E_COORD97":169100.95000000001,"N_COORD97":2542652.1800000002,"ADDRESS":"大同路一段１８６號","OBJECTID":608707},"geometry":{"x":169100.95000000112,"y":2542652.1799999997}},{"attributes":{"ID":608735,"DIS_CODE":0,"TOWNNAME":"中西區","LI":"法華里","LIN":"3鄰","STREET":"大同路","SECT":"一段","MAREA":" ","LANE":" ","ALLEY":" ","HOUSE_NO":"１８８號","E_COORD97":169101.60000000001,"N_COORD97":2542647.96,"ADDRESS":"大同路一段１８８號","OBJECTID":608708},"geometry":{"x":169101.59999999963,"y":2542647.9600000009}},{"attributes":{"ID":608736,"DIS_CODE":0,"TOWNNAME":"中西區","LI":"法華里","LIN":"3鄰","STREET":"大同路","SECT":"一段","MAREA":" ","LANE":" ","ALLEY":" ","HOUSE_NO":"２００號","E_COORD97":169105.17000000001,"N_COORD97":2542614.6099999999,"ADDRESS":"大同路一段２００號","OBJECTID":608709},"geometry":{"x":169105.16999999993,"y":2542614.6099999994}},{"attributes":{"ID":608737,"DIS_CODE":0,"TOWNNAME":"中西區","LI":"法華里","LIN":"3鄰","STREET":"大同路","SECT":"一段","MAREA":" ","LANE":" ","ALLEY":" ","HOUSE_NO":"２０２號","E_COORD97":169107.45000000001,"N_COORD97":2542606.8199999998,"ADDRESS":"大同路一段２０２號","OBJECTID":608710},"geometry":{"x":169107.45000000112,"y":2542606.8200000022}},{"attributes":{"ID":608738,"DIS_CODE":0,"TOWNNAME":"中西區","LI":"法華里","LIN":"3鄰","STREET":"大同路","SECT":"一段","MAREA":" ","LANE":" ","ALLEY":" ","HOUSE_NO":"２０４號","E_COORD97":169108.42000000001,"N_COORD97":2542601.6299999999,"ADDRESS":"大同路一段２０４號","OBJECTID":608711},"geometry":{"x":169108.41999999993,"y":2542601.6300000027}},{"attributes":{"ID":608739,"DIS_CODE":0,"TOWNNAME":"中西區","LI":"法華里","LIN":"3鄰","STREET":"大同路","SECT":"一段","MAREA":" ","LANE":" ","ALLEY":" ","HOUSE_NO":"２０６號","E_COORD97":169109.07000000001,"N_COORD97":2542597.4100000001,"ADDRESS":"大同路一段２０６號","OBJECTID":608712},"geometry":{"x":169109.0700000003,"y":2542597.4099999983}},{"attributes":{"ID":608740,"DIS_CODE":0,"TOWNNAME":"中西區","LI":"法華里","LIN":"3鄰","STREET":"大同路","SECT":"一段","MAREA":" ","LANE":" ","ALLEY":" ","HOUSE_NO":"２０８號","E_COORD97":169110.70000000001,"N_COORD97":2542593.8399999999,"ADDRESS":"大同路一段２０８號","OBJECTID":608713},"geometry":{"x":169110.70000000205,"y":2542593.8399999999}},{"attributes":{"ID":608741,"DIS_CODE":0,"TOWNNAME":"中西區","LI":"法華里","LIN":"3鄰","STREET":"大同路","SECT":"一段","MAREA":" ","LANE":" ","ALLEY":" ","HOUSE_NO":"２１０號","E_COORD97":169111.82000000001,"N_COORD97":2542588.8900000001,"ADDRESS":"大同路一段２１０號","OBJECTID":608714},"geometry":{"x":169111.82000000123,"y":2542588.8900000025}},{"attributes":{"ID":608742,"DIS_CODE":0,"TOWNNAME":"中西區","LI":"法華里","LIN":"3鄰","STREET":"大同路","SECT":"一段","MAREA":" ","LANE":" ","ALLEY":" ","HOUSE_NO":"２１２號","E_COORD97":169112.70000000001,"N_COORD97":2542583.7400000002,"ADDRESS":"大同路一段２１２號","OBJECTID":608715},"geometry":{"x":169112.70000000112,"y":2542583.7400000002}},{"attributes":{"ID":608743,"DIS_CODE":0,"TOWNNAME":"中西區","LI":"法華里","LIN":"3鄰","STREET":"大同路","SECT":"一段","MAREA":" ","LANE":" ","ALLEY":" ","HOUSE_NO":"２１４號","E_COORD97":169114.84,"N_COORD97":2542576.3500000001,"ADDRESS":"大同路一段２１４號","OBJECTID":608716},"geometry":{"x":169114.84000000078,"y":2542576.3499999996}},{"attributes":{"ID":608744,"DIS_CODE":0,"TOWNNAME":"中西區","LI":"法華里","LIN":"3鄰","STREET":"大同路","SECT":"一段","MAREA":" ","LANE":" ","ALLEY":" ","HOUSE_NO":"２１８號","E_COORD97":169127.26000000001,"N_COORD97":2542553.5099999998,"ADDRESS":"大同路一段２１８號","OBJECTID":608717},"geometry":{"x":169127.26000000071,"y":2542553.5100000016}},{"attributes":{"ID":608745,"DIS_CODE":0,"TOWNNAME":"中西區","LI":"法華里","LIN":"3鄰","STREET":"大同路","SECT":"一段","MAREA":" ","LANE":" ","ALLEY":" ","HOUSE_NO":"２２０號","E_COORD97":169129.57999999999,"N_COORD97":2542547.02,"ADDRESS":"大同路一段２２０號","OBJECTID":608718},"geometry":{"x":169129.58000000007,"y":2542547.0200000014}},{"attributes":{"ID":608746,"DIS_CODE":0,"TOWNNAME":"中西區","LI":"法華里","LIN":"3鄰","STREET":"大同路","SECT":"一段","MAREA":" ","LANE":" ","ALLEY":" ","HOUSE_NO":"２２２號","E_COORD97":169132.82000000001,"N_COORD97":2542543.3199999998,"ADDRESS":"大同路一段２２２號","OBJECTID":608719},"geometry":{"x":169132.8200000003,"y":2542543.3200000003}},{"attributes":{"ID":608747,"DIS_CODE":0,"TOWNNAME":"中西區","LI":"法華里","LIN":"3鄰","STREET":"大同路","SECT":"一段","MAREA":" ","LANE":" ","ALLEY":" ","HOUSE_NO":"２２４號","E_COORD97":169133.29000000001,"N_COORD97":2542539.1499999999,"ADDRESS":"大同路一段２２４號","OBJECTID":608720},"geometry":{"x":169133.29000000004,"y":2542539.1500000022}},{"attributes":{"ID":608748,"DIS_CODE":0,"TOWNNAME":"中西區","LI":"法華里","LIN":"3鄰","STREET":"大同路","SECT":"一段","MAREA":" ","LANE":" ","ALLEY":" ","HOUSE_NO":"２２６號","E_COORD97":169137,"N_COORD97":2542535.4399999999,"ADDRESS":"大同路一段２２６號","OBJECTID":608721},"geometry":{"x":169137,"y":2542535.4399999995}},{"attributes":{"ID":608749,"DIS_CODE":0,"TOWNNAME":"中西區","LI":"法華里","LIN":"3鄰","STREET":"大同路","SECT":"一段","MAREA":" ","LANE":" ","ALLEY":" ","HOUSE_NO":"２２８號","E_COORD97":169138.85999999999,"N_COORD97":2542531.27,"ADDRESS":"大同路一段２２８號","OBJECTID":608722},"geometry":{"x":169138.86000000127,"y":2542531.2700000014}},{"attributes":{"ID":608750,"DIS_CODE":0,"TOWNNAME":"中西區","LI":"法華里","LIN":"3鄰","STREET":"大同路","SECT":"一段","MAREA":" ","LANE":" ","ALLEY":" ","HOUSE_NO":"２３０號","E_COORD97":169141.17999999999,"N_COORD97":2542527.1000000001,"ADDRESS":"大同路一段２３０號","OBJECTID":608723},"geometry":{"x":169141.18000000063,"y":2542527.0999999996}},{"attributes":{"ID":608751,"DIS_CODE":0,"TOWNNAME":"中西區","LI":"法華里","LIN":"3鄰","STREET":"大同路","SECT":"一段","MAREA":" ","LANE":" ","ALLEY":" ","HOUSE_NO":"２３２號","E_COORD97":169143.5,"N_COORD97":2542520.1499999999,"ADDRESS":"大同路一段２３２號","OBJECTID":608724},"geometry":{"x":169143.5,"y":2542520.1500000004}},{"attributes":{"ID":608752,"DIS_CODE":0,"TOWNNAME":"中西區","LI":"法華里","LIN":"3鄰","STREET":"大同路","SECT":"一段","MAREA":" ","LANE":" ","ALLEY":" ","HOUSE_NO":"２３６號","E_COORD97":169149.53,"N_COORD97":2542510.4199999999,"ADDRESS":"大同路一段２３６號","OBJECTID":608725},"geometry":{"x":169149.53000000119,"y":2542510.4200000018}},{"attributes":{"ID":608753,"DIS_CODE":0,"TOWNNAME":"中西區","LI":"郡王里","LIN":"3鄰","STREET":"樹林街","SECT":"二段","MAREA":" ","LANE":" ","ALLEY":" ","HOUSE_NO":"７２號","E_COORD97":168925.75,"N_COORD97":2542984.04,"ADDRESS":"樹林街二段７２號","OBJECTID":608726},"geometry":{"x":168925.75000000093,"y":2542984.0399999991}},{"attributes":{"ID":608754,"DIS_CODE":0,"TOWNNAME":"中西區","LI":"福安里","LIN":"3鄰","STREET":"府前路","SECT":"一段","MAREA":" ","LANE":" ","ALLEY":" ","HOUSE_NO":"３２８號","E_COORD97":167832.63,"N_COORD97":2543440.98,"ADDRESS":"府前路一段３２８號","OBJECTID":608727},"geometry":{"x":167832.63000000175,"y":2543440.9800000004}},{"attributes":{"ID":608755,"DIS_CODE":0,"TOWNNAME":"中西區","LI":"福安里","LIN":"3鄰","STREET":"府前路","SECT":"一段","MAREA":" ","LANE":" ","ALLEY":" ","HOUSE_NO":"３３０號","E_COORD97":167828.87,"N_COORD97":2543441.6899999999,"ADDRESS":"府前路一段３３０號","OBJECTID":608728},"geometry":{"x":167828.87000000011,"y":2543441.6899999995}},{"attributes":{"ID":608756,"DIS_CODE":0,"TOWNNAME":"中西區","LI":"大南里","LIN":"3鄰","STREET":"五妃街","SECT":" ","MAREA":" ","LANE":" ","ALLEY":" ","HOUSE_NO":"２１７號","E_COORD97":168353.76999999999,"N_COORD97":2542569.4100000001,"ADDRESS":"五妃街２１７號","OBJECTID":608729},"geometry":{"x":168353.77000000048,"y":2542569.4100000001}},{"attributes":{"ID":608757,"DIS_CODE":0,"TOWNNAME":"中西區","LI":"大南里","LIN":"3鄰","STREET":"五妃街","SECT":" ","MAREA":" ","LANE":" ","ALLEY":" ","HOUSE_NO":"２１９號","E_COORD97":168348.48999999999,"N_COORD97":2542569.4100000001,"ADDRESS":"五妃街２１９號","OBJECTID":608730},"geometry":{"x":168348.49000000022,"y":2542569.4100000001}},{"attributes":{"ID":608758,"DIS_CODE":0,"TOWNNAME":"安南區","LI":"溪心里","LIN":"3鄰","STREET":"海佃路","SECT":"三段","MAREA":" ","LANE":" ","ALLEY":" ","HOUSE_NO":"２２號","E_COORD97":166353.95000000001,"N_COORD97":2549788.3999999999,"ADDRESS":"海佃路三段２２號","OBJECTID":608731},"geometry":{"x":166353.95000000019,"y":2549788.4000000004}},{"attributes":{"ID":608759,"DIS_CODE":0,"TOWNNAME":"安南區","LI":"溪心里","LIN":"3鄰","STREET":"海佃路","SECT":"三段","MAREA":" ","LANE":" ","ALLEY":" ","HOUSE_NO":"２６號","E_COORD97":166346.34,"N_COORD97":2549795.5099999998,"ADDRESS":"海佃路三段２６號","OBJECTID":608732},"geometry":{"x":166346.34000000078,"y":2549795.5100000016}},{"attributes":{"ID":608760,"DIS_CODE":0,"TOWNNAME":"安南區","LI":"溪心里","LIN":"3鄰","STREET":"海佃路","SECT":"三段","MAREA":" ","LANE":" ","ALLEY":" ","HOUSE_NO":"２８號","E_COORD97":166344.09,"N_COORD97":2549798.96,"ADDRESS":"海佃路三段２８號","OBJECTID":608733},"geometry":{"x":166344.08999999985,"y":2549798.9600000009}},{"attributes":{"ID":608761,"DIS_CODE":0,"TOWNNAME":"安南區","LI":"溪心里","LIN":"3鄰","STREET":"海佃路","SECT":"三段","MAREA":" ","LANE":" ","ALLEY":" ","HOUSE_NO":"２號","E_COORD97":166377.67999999999,"N_COORD97":2549755.9900000002,"ADDRESS":"海佃路三段２號","OBJECTID":608734},"geometry":{"x":166377.68000000156,"y":2549755.9900000002}},{"attributes":{"ID":608762,"DIS_CODE":0,"TOWNNAME":"安南區","LI":"溪心里","LIN":"3鄰","STREET":"海佃路","SECT":"三段","MAREA":" ","LANE":" ","ALLEY":" ","HOUSE_NO":"３０號","E_COORD97":166341.67999999999,"N_COORD97":2549803.02,"ADDRESS":"海佃路三段３０號","OBJECTID":608735},"geometry":{"x":166341.6799999997,"y":2549803.0199999996}},{"attributes":{"ID":608763,"DIS_CODE":0,"TOWNNAME":"安南區","LI":"溪心里","LIN":"3鄰","STREET":"海佃路","SECT":"三段","MAREA":" ","LANE":" ","ALLEY":" ","HOUSE_NO":"３６號","E_COORD97":166330.56,"N_COORD97":2549810.3700000001,"ADDRESS":"海佃路三段３６號","OBJECTID":608736},"geometry":{"x":166330.55999999959,"y":2549810.3700000048}},{"attributes":{"ID":608764,"DIS_CODE":0,"TOWNNAME":"安南區","LI":"\u25A0南里","LIN":"3鄰","STREET":"環福街","SECT":" ","MAREA":" ","LANE":" ","ALLEY":" ","HOUSE_NO":"６５號","E_COORD97":170270.59,"N_COORD97":2552467.1299999999,"ADDRESS":"環福街６５號","OBJECTID":608737},"geometry":{"x":170270.59000000171,"y":2552467.129999999}},{"attributes":{"ID":608765,"DIS_CODE":0,"TOWNNAME":"安南區","LI":"\u25A0南里","LIN":"3鄰","STREET":"環福街","SECT":" ","MAREA":" ","LANE":" ","ALLEY":" ","HOUSE_NO":"６９號","E_COORD97":170279.64000000001,"N_COORD97":2552465.9300000002,"ADDRESS":"環福街６９號","OBJECTID":608738},"geometry":{"x":170279.63999999966,"y":2552465.9299999997}},{"attributes":{"ID":608766,"DIS_CODE":0,"TOWNNAME":"南區","LI":"喜北里","LIN":"3鄰","STREET":"喜樹路","SECT":" ","MAREA":" ","LANE":" ","ALLEY":" ","HOUSE_NO":"５８號","E_COORD97":165871.94,"N_COORD97":2538548.48,"ADDRESS":"喜樹路５８號","OBJECTID":608739},"geometry":{"x":165871.94000000134,"y":2538548.4800000004}},{"attributes":{"ID":608767,"DIS_CODE":0,"TOWNNAME":"南區","LI":"喜北里","LIN":"3鄰","STREET":"喜樹路","SECT":" ","MAREA":" ","LANE":" ","ALLEY":" ","HOUSE_NO":"６０號","E_COORD97":165871.54000000001,"N_COORD97":2538544.75,"ADDRESS":"喜樹路６０號","OBJECTID":608740},"geometry":{"x":165871.54000000004,"y":2538544.7500000019}},{"attributes":{"ID":608768,"DIS_CODE":0,"TOWNNAME":"南區","LI":"喜北里","LIN":"3鄰","STREET":"喜樹路","SECT":" ","MAREA":" ","LANE":" ","ALLEY":" ","HOUSE_NO":"６２號","E_COORD97":165871.66,"N_COORD97":2538541.1600000001,"ADDRESS":"喜樹路６２號","OBJECTID":608741},"geometry":{"x":165871.66000000108,"y":2538541.1600000039}},{"attributes":{"ID":608769,"DIS_CODE":0,"TOWNNAME":"南區","LI":"喜北里","LIN":"3鄰","STREET":"喜樹路","SECT":" ","MAREA":" ","LANE":" ","ALLEY":" ","HOUSE_NO":"６４號","E_COORD97":165871.54000000001,"N_COORD97":2538537.1499999999,"ADDRESS":"喜樹路６４號","OBJECTID":608742},"geometry":{"x":165871.54000000004,"y":2538537.1500000004}},{"attributes":{"ID":608770,"DIS_CODE":0,"TOWNNAME":"南區","LI":"喜北里","LIN":"3鄰","STREET":"喜樹路","SECT":" ","MAREA":" ","LANE":" ","ALLEY":" ","HOUSE_NO":"６６號","E_COORD97":165871.20999999999,"N_COORD97":2538533.4199999999,"ADDRESS":"喜樹路６６號","OBJECTID":608743},"geometry":{"x":165871.21000000089,"y":2538533.4200000018}},{"attributes":{"ID":608771,"DIS_CODE":0,"TOWNNAME":"南區","LI":"喜北里","LIN":"3鄰","STREET":"喜樹路","SECT":" ","MAREA":" ","LANE":" ","ALLEY":" ","HOUSE_NO":"６８號","E_COORD97":165871.48999999999,"N_COORD97":2538529.6899999999,"ADDRESS":"喜樹路６８號","OBJECTID":608744},"geometry":{"x":165871.49000000115,"y":2538529.6899999995}},{"attributes":{"ID":608772,"DIS_CODE":0,"TOWNNAME":"南區","LI":"喜北里","LIN":"3鄰","STREET":"喜樹路","SECT":" ","MAREA":" ","LANE":" ","ALLEY":" ","HOUSE_NO":"７０號","E_COORD97":165871.42999999999,"N_COORD97":2538525.8399999999,"ADDRESS":"喜樹路７０號","OBJECTID":608745},"geometry":{"x":165871.43000000063,"y":2538525.839999998}},{"attributes":{"ID":608773,"DIS_CODE":0,"TOWNNAME":"南區","LI":"喜東里","LIN":"3鄰","STREET":"明興路","SECT":" ","MAREA":" ","LANE":" ","ALLEY":" ","HOUSE_NO":"３２２號","E_COORD97":166347.37,"N_COORD97":2539018.3199999998,"ADDRESS":"明興路３２２號","OBJECTID":608746},"geometry":{"x":166347.37000000011,"y":2539018.320000004}},{"attributes":{"ID":608774,"DIS_CODE":0,"TOWNNAME":"南區","LI":"喜東里","LIN":"3鄰","STREET":"明興路","SECT":" ","MAREA":" ","LANE":" ","ALLEY":" ","HOUSE_NO":"３２４號","E_COORD97":166346.76000000001,"N_COORD97":2539014.96,"ADDRESS":"明興路３２４號","OBJECTID":608747},"geometry":{"x":166346.76000000071,"y":2539014.9600000028}},{"attributes":{"ID":608775,"DIS_CODE":0,"TOWNNAME":"南區","LI":"喜東里","LIN":"3鄰","STREET":"明興路","SECT":" ","MAREA":" ","LANE":" ","ALLEY":" ","HOUSE_NO":"３２６號","E_COORD97":166346.28,"N_COORD97":2539010.3900000001,"ADDRESS":"明興路３２６號","OBJECTID":608748},"geometry":{"x":166346.28000000026,"y":2539010.3900000006}},{"attributes":{"ID":608776,"DIS_CODE":0,"TOWNNAME":"南區","LI":"喜東里","LIN":"3鄰","STREET":"明興路","SECT":" ","MAREA":" ","LANE":" ","ALLEY":" ","HOUSE_NO":"３２８號","E_COORD97":166345.44,"N_COORD97":2539006.5499999998,"ADDRESS":"明興路３２８號","OBJECTID":608749},"geometry":{"x":166345.44000000041,"y":2539006.5500000007}},{"attributes":{"ID":608777,"DIS_CODE":0,"TOWNNAME":"南區","LI":"喜東里","LIN":"3鄰","STREET":"明興路","SECT":" ","MAREA":" ","LANE":" ","ALLEY":" ","HOUSE_NO":"３３０號","E_COORD97":166344.95999999999,"N_COORD97":2539002.5800000001,"ADDRESS":"明興路３３０號","OBJECTID":608750},"geometry":{"x":166344.95999999996,"y":2539002.5800000038}},{"attributes":{"ID":608778,"DIS_CODE":0,"TOWNNAME":"南區","LI":"喜東里","LIN":"3鄰","STREET":"明興路","SECT":" ","MAREA":" ","LANE":" ","ALLEY":" ","HOUSE_NO":"３３２號","E_COORD97":166385.20999999999,"N_COORD97":2539010.0899999999,"ADDRESS":"明興路３３２號","OBJECTID":608751},"geometry":{"x":166385.21000000089,"y":2539010.0900000017}},{"attributes":{"ID":608779,"DIS_CODE":0,"TOWNNAME":"南區","LI":"喜東里","LIN":"3鄰","STREET":"明興路","SECT":" ","MAREA":" ","LANE":" ","ALLEY":" ","HOUSE_NO":"３３６號","E_COORD97":166337.92000000001,"N_COORD97":2538990.5800000001,"ADDRESS":"明興路３３６號","OBJECTID":608752},"geometry":{"x":166337.92000000086,"y":2538990.5800000019}},{"attributes":{"ID":608780,"DIS_CODE":0,"TOWNNAME":"南區","LI":"喜東里","LIN":"3鄰","STREET":"明興路","SECT":" ","MAREA":" ","LANE":" ","ALLEY":" ","HOUSE_NO":"３４０號","E_COORD97":166336.17000000001,"N_COORD97":2538981.2799999998,"ADDRESS":"明興路３４０號","OBJECTID":608753},"geometry":{"x":166336.17000000086,"y":2538981.2800000012}},{"attributes":{"ID":608781,"DIS_CODE":0,"TOWNNAME":"南區","LI":"喜東里","LIN":"3鄰","STREET":"明興路","SECT":" ","MAREA":" ","LANE":" ","ALLEY":" ","HOUSE_NO":"３４２號","E_COORD97":166336.17000000001,"N_COORD97":2538976.5699999998,"ADDRESS":"明興路３４２號","OBJECTID":608754},"geometry":{"x":166336.17000000086,"y":2538976.5700000022}},{"attributes":{"ID":608782,"DIS_CODE":0,"TOWNNAME":"南區","LI":"喜東里","LIN":"3鄰","STREET":"明興路","SECT":" ","MAREA":" ","LANE":" ","ALLEY":" ","HOUSE_NO":"３４４號","E_COORD97":166335.39999999999,"N_COORD97":2538972.5299999998,"ADDRESS":"明興路３４４號","OBJECTID":608755},"geometry":{"x":166335.40000000037,"y":2538972.5300000012}},{"attributes":{"ID":608783,"DIS_CODE":0,"TOWNNAME":"南區","LI":"喜東里","LIN":"3鄰","STREET":"明興路","SECT":" ","MAREA":" ","LANE":" ","ALLEY":" ","HOUSE_NO":"３５４號","E_COORD97":166329.70999999999,"N_COORD97":2538951.75,"ADDRESS":"明興路３５４號","OBJECTID":608756},"geometry":{"x":166329.70999999996,"y":2538951.7500000019}},{"attributes":{"ID":608784,"DIS_CODE":0,"TOWNNAME":"南區","LI":"喜東里","LIN":"3鄰","STREET":"明興路","SECT":" ","MAREA":" ","LANE":" ","ALLEY":" ","HOUSE_NO":"３５６號","E_COORD97":166329.04999999999,"N_COORD97":2538948.25,"ADDRESS":"明興路３５６號","OBJECTID":608757},"geometry":{"x":166329.04999999981,"y":2538948.2500000019}},{"attributes":{"ID":608785,"DIS_CODE":0,"TOWNNAME":"南區","LI":"喜東里","LIN":"3鄰","STREET":"明興路","SECT":" ","MAREA":" ","LANE":" ","ALLEY":" ","HOUSE_NO":"３５８號","E_COORD97":166327.41,"N_COORD97":2538943.8799999999,"ADDRESS":"明興路３５８號","OBJECTID":608758},"geometry":{"x":166327.41000000201,"y":2538943.879999999}},{"attributes":{"ID":608786,"DIS_CODE":0,"TOWNNAME":"南區","LI":"喜東里","LIN":"3鄰","STREET":"喜樹路","SECT":" ","MAREA":" ","LANE":" ","ALLEY":" ","HOUSE_NO":"１３號","E_COORD97":166320.66,"N_COORD97":2539030.1099999999,"ADDRESS":"喜樹路１３號","OBJECTID":608759},"geometry":{"x":166320.66000000201,"y":2539030.1100000013}},{"attributes":{"ID":608787,"DIS_CODE":0,"TOWNNAME":"南區","LI":"喜東里","LIN":"3鄰","STREET":"喜樹路","SECT":" ","MAREA":" ","LANE":" ","ALLEY":" ","HOUSE_NO":"１７號","E_COORD97":166312.35999999999,"N_COORD97":2539029.1499999999,"ADDRESS":"喜樹路１７號","OBJECTID":608760},"geometry":{"x":166312.36000000034,"y":2539029.1500000004}},{"attributes":{"ID":608788,"DIS_CODE":0,"TOWNNAME":"南區","LI":"喜東里","LIN":"3鄰","STREET":"喜樹路","SECT":" ","MAREA":" ","LANE":" ","ALLEY":" ","HOUSE_NO":"１９號","E_COORD97":166308.03,"N_COORD97":2539029.75,"ADDRESS":"喜樹路１９號","OBJECTID":608761},"geometry":{"x":166308.03000000212,"y":2539029.7500000019}},{"attributes":{"ID":608789,"DIS_CODE":0,"TOWNNAME":"南區","LI":"喜東里","LIN":"3鄰","STREET":"喜樹路","SECT":" ","MAREA":" ","LANE":" ","ALLEY":" ","HOUSE_NO":"３號","E_COORD97":166341.70999999999,"N_COORD97":2539032.6299999999,"ADDRESS":"喜樹路３號","OBJECTID":608762},"geometry":{"x":166341.70999999996,"y":2539032.6300000008}},{"attributes":{"ID":608790,"DIS_CODE":0,"TOWNNAME":"南區","LI":"喜東里","LIN":"3鄰","STREET":"喜樹路","SECT":" ","MAREA":" ","LANE":" ","ALLEY":" ","HOUSE_NO":"５號","E_COORD97":166338.10000000001,"N_COORD97":2539032.0299999998,"ADDRESS":"喜樹路５號","OBJECTID":608763},"geometry":{"x":166338.10000000056,"y":2539032.0299999993}},{"attributes":{"ID":608791,"DIS_CODE":0,"TOWNNAME":"永康區","LI":"東灣里","LIN":"3鄰","STREET":"大安街","SECT":" ","MAREA":" ","LANE":" ","ALLEY":" ","HOUSE_NO":"１３０號","E_COORD97":174581.63,"N_COORD97":2545066.8900000001,"ADDRESS":"大安街１３０號","OBJECTID":608764},"geometry":{"x":174581.63000000082,"y":2545066.8900000025}},{"attributes":{"ID":608792,"DIS_CODE":0,"TOWNNAME":"永康區","LI":"東灣里","LIN":"3鄰","STREET":"大安街","SECT":" ","MAREA":" ","LANE":" ","ALLEY":" ","HOUSE_NO":"１１６號","E_COORD97":174552.76000000001,"N_COORD97":2545058.6499999999,"ADDRESS":"大安街１１６號","OBJECTID":608765},"geometry":{"x":174552.75999999978,"y":2545058.6500000022}},{"attributes":{"ID":608793,"DIS_CODE":0,"TOWNNAME":"永康區","LI":"南灣里","LIN":"3鄰","STREET":"大灣一街","SECT":" ","MAREA":" ","LANE":" ","ALLEY":" ","HOUSE_NO":"１５２號","E_COORD97":174642.35000000001,"N_COORD97":2544613.4900000002,"ADDRESS":"大灣一街１５２號","OBJECTID":608766},"geometry":{"x":174642.35000000056,"y":2544613.4900000002}},{"attributes":{"ID":608794,"DIS_CODE":0,"TOWNNAME":"永康區","LI":"東灣里","LIN":"3鄰","STREET":"大安街","SECT":" ","MAREA":" ","LANE":" ","ALLEY":" ","HOUSE_NO":"１２８號","E_COORD97":174581.06,"N_COORD97":2545059.8199999998,"ADDRESS":"大安街１２８號","OBJECTID":608767},"geometry":{"x":174581.05999999959,"y":2545059.820000004}},{"attributes":{"ID":608795,"DIS_CODE":0,"TOWNNAME":"永康區","LI":"東灣里","LIN":"3鄰","STREET":"大安街","SECT":" ","MAREA":" ","LANE":" ","ALLEY":" ","HOUSE_NO":"１２０號","E_COORD97":174557.42000000001,"N_COORD97":2545067.8999999999,"ADDRESS":"大安街１２０號","OBJECTID":608768},"geometry":{"x":174557.42000000086,"y":2545067.9000000004}},{"attributes":{"ID":608796,"DIS_CODE":0,"TOWNNAME":"永康區","LI":"埔園里","LIN":"3鄰","STREET":"聖龍街","SECT":" ","MAREA":" ","LANE":" ","ALLEY":" ","HOUSE_NO":"４８號","E_COORD97":173905.57999999999,"N_COORD97":2547781,"ADDRESS":"聖龍街４８號","OBJECTID":608769},"geometry":{"x":173905.58000000101,"y":2547781.0000000037}},{"attributes":{"ID":608797,"DIS_CODE":0,"TOWNNAME":"永康區","LI":"埔園里","LIN":"3鄰","STREET":"聖龍街","SECT":" ","MAREA":" ","LANE":" ","ALLEY":" ","HOUSE_NO":"４０號","E_COORD97":173883.64000000001,"N_COORD97":2547790.25,"ADDRESS":"聖龍街４０號","OBJECTID":608770},"geometry":{"x":173883.63999999966,"y":2547790.2500000019}},{"attributes":{"ID":608798,"DIS_CODE":0,"TOWNNAME":"安南區","LI":"淵中里","LIN":"3鄰","STREET":"安中路","SECT":"四段","MAREA":" ","LANE":" ","ALLEY":" ","HOUSE_NO":"４９號","E_COORD97":165223.84,"N_COORD97":2550047.3100000001,"ADDRESS":"安中路四段４９號","OBJECTID":608771},"geometry":{"x":165223.83999999892,"y":2550047.3100000042}},{"attributes":{"ID":608799,"DIS_CODE":0,"TOWNNAME":"安南區","LI":"南興里","LIN":"3鄰","STREET":"安興街","SECT":" ","MAREA":" ","LANE":" ","ALLEY":" ","HOUSE_NO":"４３３號","E_COORD97":163552.03,"N_COORD97":2552325.2799999998,"ADDRESS":"安興街４３３號","OBJECTID":608772},"geometry":{"x":163552.03000000119,"y":2552325.2800000012}},{"attributes":{"ID":608800,"DIS_CODE":0,"TOWNNAME":"安南區","LI":"城東里","LIN":"3鄰","STREET":"城北路","SECT":" ","MAREA":" ","LANE":" ","ALLEY":" ","HOUSE_NO":"２００號","E_COORD97":161000.48000000001,"N_COORD97":2551798.7200000002,"ADDRESS":"城北路２００號","OBJECTID":608773},"geometry":{"x":161000.48000000045,"y":2551798.7200000025}},{"attributes":{"ID":608801,"DIS_CODE":0,"TOWNNAME":"安南區","LI":"城東里","LIN":"3鄰","STREET":"城北路","SECT":" ","MAREA":" ","LANE":" ","ALLEY":" ","HOUSE_NO":"２１６號","E_COORD97":161000.28,"N_COORD97":2551838.1099999999,"ADDRESS":"城北路２１６號","OBJECTID":608774},"geometry":{"x":161000.28000000212,"y":2551838.1100000013}},{"attributes":{"ID":608802,"DIS_CODE":0,"TOWNNAME":"新市區","LI":"豐華里","LIN":"9鄰","STREET":"道爺路","SECT":" ","MAREA":" ","LANE":" ","ALLEY":" ","HOUSE_NO":"３號","E_COORD97":174988.91,"N_COORD97":2554655.6099999999,"ADDRESS":"道爺路３號","OBJECTID":608775},"geometry":{"x":174988.91000000015,"y":2554655.6100000013}},{"attributes":{"ID":608803,"DIS_CODE":0,"TOWNNAME":"東區","LI":"東智里","LIN":"3鄰","STREET":"崇德二十六街","SECT":" ","MAREA":" ","LANE":" ","ALLEY":" ","HOUSE_NO":"７７號","E_COORD97":171007.59,"N_COORD97":2540338.5899999999,"ADDRESS":"崇德二十六街７７號","OBJECTID":608776},"geometry":{"x":171007.58999999985,"y":2540338.5900000017}},{"attributes":{"ID":608804,"DIS_CODE":0,"TOWNNAME":"東區","LI":"崇成里","LIN":"3鄰","STREET":"崇德十二街","SECT":" ","MAREA":" ","LANE":" ","ALLEY":" ","HOUSE_NO":"１２號","E_COORD97":170838.35000000001,"N_COORD97":2541340.0099999998,"ADDRESS":"崇德十二街１２號","OBJECTID":608777},"geometry":{"x":170838.35000000056,"y":2541340.0100000016}},{"attributes":{"ID":608805,"DIS_CODE":0,"TOWNNAME":"東區","LI":"崇文里","LIN":"3鄰","STREET":"崇德十六街","SECT":" ","MAREA":" ","LANE":" ","ALLEY":" ","HOUSE_NO":"１１號","E_COORD97":170843.78,"N_COORD97":2541141.3999999999,"ADDRESS":"崇德十六街１１號","OBJECTID":608778},"geometry":{"x":170843.78000000026,"y":2541141.4000000022}},{"attributes":{"ID":608806,"DIS_CODE":0,"TOWNNAME":"東區","LI":"崇文里","LIN":"3鄰","STREET":"崇德十六街","SECT":" ","MAREA":" ","LANE":" ","ALLEY":" ","HOUSE_NO":"１３號","E_COORD97":170847.85999999999,"N_COORD97":2541141.0600000001,"ADDRESS":"崇德十六街１３號","OBJECTID":608779},"geometry":{"x":170847.86000000127,"y":2541141.0600000005}},{"attributes":{"ID":608807,"DIS_CODE":0,"TOWNNAME":"東區","LI":"崇文里","LIN":"3鄰","STREET":"崇德十六街","SECT":" ","MAREA":" ","LANE":" ","ALLEY":" ","HOUSE_NO":"１５號","E_COORD97":170854.31,"N_COORD97":2541140.7200000002,"ADDRESS":"崇德十六街１５號","OBJECTID":608780},"geometry":{"x":170854.31000000052,"y":2541140.7200000007}},{"attributes":{"ID":608808,"DIS_CODE":0,"TOWNNAME":"東區","LI":"崇文里","LIN":"3鄰","STREET":"崇德十六街","SECT":" ","MAREA":" ","LANE":" ","ALLEY":" ","HOUSE_NO":"１７號","E_COORD97":170875.35999999999,"N_COORD97":2541146.4900000002,"ADDRESS":"崇德十六街１７號","OBJECTID":608781},"geometry":{"x":170875.36000000034,"y":2541146.4900000021}},{"attributes":{"ID":608809,"DIS_CODE":0,"TOWNNAME":"東區","LI":"崇文里","LIN":"3鄰","STREET":"崇德十六街","SECT":" ","MAREA":" ","LANE":" ","ALLEY":" ","HOUSE_NO":"７號","E_COORD97":170836.31,"N_COORD97":2541141.0600000001,"ADDRESS":"崇德十六街７號","OBJECTID":608782},"geometry":{"x":170836.30999999959,"y":2541141.0600000005}},{"attributes":{"ID":608810,"DIS_CODE":0,"TOWNNAME":"東區","LI":"崇文里","LIN":"3鄰","STREET":"崇德十六街","SECT":" ","MAREA":" ","LANE":" ","ALLEY":" ","HOUSE_NO":"９號","E_COORD97":170840.04999999999,"N_COORD97":2541141.3999999999,"ADDRESS":"崇德十六街９號","OBJECTID":608783},"geometry":{"x":170840.04999999981,"y":2541141.4000000022}},{"attributes":{"ID":608811,"DIS_CODE":0,"TOWNNAME":"東區","LI":"崇德里","LIN":"3鄰","STREET":"崇德六街","SECT":" ","MAREA":" ","LANE":" ","ALLEY":" ","HOUSE_NO":"７１號","E_COORD97":170807.88,"N_COORD97":2541851.2999999998,"ADDRESS":"崇德六街７１號","OBJECTID":608784},"geometry":{"x":170807.88000000082,"y":2541851.3000000026}},{"attributes":{"ID":608812,"DIS_CODE":0,"TOWNNAME":"東區","LI":"裕聖里","LIN":"3鄰","STREET":"裕信三街","SECT":" ","MAREA":" ","LANE":" ","ALLEY":" ","HOUSE_NO":"１２１號","E_COORD97":172830.01999999999,"N_COORD97":2542302.0600000001,"ADDRESS":"裕信三街１２１號","OBJECTID":608785},"geometry":{"x":172830.01999999955,"y":2542302.0600000042}},{"attributes":{"ID":608813,"DIS_CODE":0,"TOWNNAME":"東區","LI":"裕聖里","LIN":"3鄰","STREET":"裕信三街","SECT":" ","MAREA":" ","LANE":" ","ALLEY":" ","HOUSE_NO":"１２３號","E_COORD97":172830.32999999999,"N_COORD97":2542297.0099999998,"ADDRESS":"裕信三街１２３號","OBJECTID":608786},"geometry":{"x":172830.33000000007,"y":2542297.0099999998}},{"attributes":{"ID":608814,"DIS_CODE":0,"TOWNNAME":"東區","LI":"裕聖里","LIN":"3鄰","STREET":"裕信三街","SECT":" ","MAREA":" ","LANE":" ","ALLEY":" ","HOUSE_NO":"１２５號","E_COORD97":172830.17000000001,"N_COORD97":2542291.5,"ADDRESS":"裕信三街１２５號","OBJECTID":608787},"geometry":{"x":172830.17000000086,"y":2542291.4999999981}},{"attributes":{"ID":608815,"DIS_CODE":0,"TOWNNAME":"東區","LI":"裕聖里","LIN":"3鄰","STREET":"裕信三街","SECT":" ","MAREA":" ","LANE":" ","ALLEY":" ","HOUSE_NO":"１２７號","E_COORD97":172829.72,"N_COORD97":2542286.4500000002,"ADDRESS":"裕信三街１２７號","OBJECTID":608788},"geometry":{"x":172829.72000000067,"y":2542286.4499999993}},{"attributes":{"ID":608816,"DIS_CODE":0,"TOWNNAME":"東區","LI":"裕聖里","LIN":"3鄰","STREET":"裕信三街","SECT":" ","MAREA":" ","LANE":" ","ALLEY":" ","HOUSE_NO":"１２９號","E_COORD97":172820.53,"N_COORD97":2542302.98,"ADDRESS":"裕信三街１２９號","OBJECTID":608789},"geometry":{"x":172820.53000000026,"y":2542302.9800000023}},{"attributes":{"ID":608817,"DIS_CODE":0,"TOWNNAME":"東區","LI":"裕聖里","LIN":"3鄰","STREET":"裕信三街","SECT":" ","MAREA":" ","LANE":" ","ALLEY":" ","HOUSE_NO":"１４１號","E_COORD97":172790.07000000001,"N_COORD97":2542303.4399999999,"ADDRESS":"裕信三街１４１號","OBJECTID":608790},"geometry":{"x":172790.06999999937,"y":2542303.4400000013}},{"attributes":{"ID":608818,"DIS_CODE":0,"TOWNNAME":"東區","LI":"裕聖里","LIN":"3鄰","STREET":"裕信三街","SECT":" ","MAREA":" ","LANE":" ","ALLEY":" ","HOUSE_NO":"１３１號","E_COORD97":172814.70999999999,"N_COORD97":2542302.8300000001,"ADDRESS":"裕信三街１３１號","OBJECTID":608791},"geometry":{"x":172814.71000000089,"y":2542302.8300000001}},{"attributes":{"ID":608819,"DIS_CODE":0,"TOWNNAME":"東區","LI":"裕聖里","LIN":"3鄰","STREET":"裕信三街","SECT":" ","MAREA":" ","LANE":" ","ALLEY":" ","HOUSE_NO":"１３３號","E_COORD97":172809.82000000001,"N_COORD97":2542302.8300000001,"ADDRESS":"裕信三街１３３號","OBJECTID":608792},"geometry":{"x":172809.8200000003,"y":2542302.8300000001}},{"attributes":{"ID":608820,"DIS_CODE":0,"TOWNNAME":"東區","LI":"裕聖里","LIN":"3鄰","STREET":"裕信三街","SECT":" ","MAREA":" ","LANE":" ","ALLEY":" ","HOUSE_NO":"１３５號","E_COORD97":172804.76000000001,"N_COORD97":2542303.1400000001,"ADDRESS":"裕信三街１３５號","OBJECTID":608793},"geometry":{"x":172804.75999999978,"y":2542303.1400000025}},{"attributes":{"ID":608821,"DIS_CODE":0,"TOWNNAME":"東區","LI":"裕聖里","LIN":"3鄰","STREET":"裕信三街","SECT":" ","MAREA":" ","LANE":" ","ALLEY":" ","HOUSE_NO":"１３７號","E_COORD97":172800.32000000001,"N_COORD97":2542303.29,"ADDRESS":"裕信三街１３７號","OBJECTID":608794},"geometry":{"x":172800.32000000216,"y":2542303.290000001}},{"attributes":{"ID":608822,"DIS_CODE":0,"TOWNNAME":"東區","LI":"裕聖里","LIN":"3鄰","STREET":"裕信三街","SECT":" ","MAREA":" ","LANE":" ","ALLEY":" ","HOUSE_NO":"１３９號","E_COORD97":172795.12,"N_COORD97":2542303.1400000001,"ADDRESS":"裕信三街１３９號","OBJECTID":608795},"geometry":{"x":172795.12000000104,"y":2542303.1400000025}},{"attributes":{"ID":608823,"DIS_CODE":0,"TOWNNAME":"東區","LI":"裕聖里","LIN":"3鄰","STREET":"裕信三街","SECT":" ","MAREA":" ","LANE":" ","ALLEY":" ","HOUSE_NO":"１４３號","E_COORD97":172752.41,"N_COORD97":2542302.52,"ADDRESS":"裕信三街１４３號","OBJECTID":608796},"geometry":{"x":172752.41000000108,"y":2542302.5200000014}},{"attributes":{"ID":608824,"DIS_CODE":0,"TOWNNAME":"東區","LI":"裕聖里","LIN":"3鄰","STREET":"裕信三街","SECT":" ","MAREA":" ","LANE":" ","ALLEY":" ","HOUSE_NO":"１４７號","E_COORD97":172748.12,"N_COORD97":2542302.52,"ADDRESS":"裕信三街１４７號","OBJECTID":608797},"geometry":{"x":172748.12000000011,"y":2542302.5200000014}},{"attributes":{"ID":608825,"DIS_CODE":0,"TOWNNAME":"東區","LI":"裕聖里","LIN":"3鄰","STREET":"裕信三街","SECT":" ","MAREA":" ","LANE":" ","ALLEY":" ","HOUSE_NO":"１４９號","E_COORD97":172743.07000000001,"N_COORD97":2542302.3700000001,"ADDRESS":"裕信三街１４９號","OBJECTID":608798},"geometry":{"x":172743.07000000123,"y":2542302.370000001}},{"attributes":{"ID":608826,"DIS_CODE":0,"TOWNNAME":"東區","LI":"裕聖里","LIN":"3鄰","STREET":"裕信三街","SECT":" ","MAREA":" ","LANE":" ","ALLEY":" ","HOUSE_NO":"１５１號","E_COORD97":172738.01999999999,"N_COORD97":2542302.52,"ADDRESS":"裕信三街１５１號","OBJECTID":608799},"geometry":{"x":172738.01999999955,"y":2542302.5200000014}},{"attributes":{"ID":608827,"DIS_CODE":0,"TOWNNAME":"東區","LI":"裕聖里","LIN":"3鄰","STREET":"裕信三街","SECT":" ","MAREA":" ","LANE":" ","ALLEY":" ","HOUSE_NO":"１５３號","E_COORD97":172733.42999999999,"N_COORD97":2542302.52,"ADDRESS":"裕信三街１５３號","OBJECTID":608800},"geometry":{"x":172733.43000000063,"y":2542302.5200000014}}]}