{"displayFieldName":"TOWNNAME","fieldAliases":{"ID":"ID","DIS_CODE":"DIS_CODE","TOWNNAME":"TOWNNAME","LI":"LI","LIN":"LIN","STREET":"STREET","SECT":"SECT","MAREA":"MAREA","LANE":"LANE","ALLEY":"ALLEY","HOUSE_NO":"HOUSE_NO","E_COORD97":"E_COORD97","N_COORD97":"N_COORD97","ADDRESS":"ADDRESS","OBJECTID":"OBJECTID"},"geometryType":"esriGeometryPoint","spatialReference":{"wkid":102443,"latestWkid":3826},"fields":[{"name":"ID","type":"esriFieldTypeDouble","alias":"ID"},{"name":"DIS_CODE","type":"esriFieldTypeInteger","alias":"DIS_CODE"},{"name":"TOWNNAME","type":"esriFieldTypeString","alias":"TOWNNAME","length":8},{"name":"LI","type":"esriFieldTypeString","alias":"LI","length":8},{"name":"LIN","type":"esriFieldTypeString","alias":"LIN","length":12},{"name":"STREET","type":"esriFieldTypeString","alias":"STREET","length":20},{"name":"SECT","type":"esriFieldTypeString","alias":"SECT","length":8},{"name":"MAREA","type":"esriFieldTypeString","alias":"MAREA","length":12},{"name":"LANE","type":"esriFieldTypeString","alias":"LANE","length":10},{"name":"ALLEY","type":"esriFieldTypeString","alias":"ALLEY","length":10},{"name":"HOUSE_NO","type":"esriFieldTypeString","alias":"HOUSE_NO","length":20},{"name":"E_COORD97","type":"esriFieldTypeDouble","alias":"E_COORD97"},{"name":"N_COORD97","type":"esriFieldTypeDouble","alias":"N_COORD97"},{"name":"ADDRESS","type":"esriFieldTypeString","alias":"ADDRESS","length":50},{"name":"OBJECTID","type":"esriFieldTypeOID","alias":"OBJECTID"}],"features":[{"attributes":{"ID":591428,"DIS_CODE":0,"TOWNNAME":"安平區","LI":"億載里","LIN":"11鄰","STREET":"郡平路","SECT":" ","MAREA":" ","LANE":" ","ALLEY":" ","HOUSE_NO":"３８８號四樓之１","E_COORD97":164024.29999999999,"N_COORD97":2543382.0600000001,"ADDRESS":"郡平路３８８號四樓之１","OBJECTID":591401},"geometry":{"x":164024.30000000075,"y":2543382.0600000005}},{"attributes":{"ID":591429,"DIS_CODE":0,"TOWNNAME":"安平區","LI":"億載里","LIN":"11鄰","STREET":"郡平路","SECT":" ","MAREA":" ","LANE":" ","ALLEY":" ","HOUSE_NO":"３８８號四樓之２","E_COORD97":164024.29999999999,"N_COORD97":2543382.0600000001,"ADDRESS":"郡平路３８８號四樓之２","OBJECTID":591402},"geometry":{"x":164024.30000000075,"y":2543382.0600000005}},{"attributes":{"ID":591430,"DIS_CODE":0,"TOWNNAME":"安平區","LI":"億載里","LIN":"11鄰","STREET":"郡平路","SECT":" ","MAREA":" ","LANE":" ","ALLEY":" ","HOUSE_NO":"３８８號四樓之３之１","E_COORD97":164024.29999999999,"N_COORD97":2543382.0600000001,"ADDRESS":"郡平路３８８號四樓之３之１","OBJECTID":591403},"geometry":{"x":164024.30000000075,"y":2543382.0600000005}},{"attributes":{"ID":591431,"DIS_CODE":0,"TOWNNAME":"安平區","LI":"億載里","LIN":"11鄰","STREET":"郡平路","SECT":" ","MAREA":" ","LANE":" ","ALLEY":" ","HOUSE_NO":"３８８號四樓之５","E_COORD97":164024.29999999999,"N_COORD97":2543382.0600000001,"ADDRESS":"郡平路３８８號四樓之５","OBJECTID":591404},"geometry":{"x":164024.30000000075,"y":2543382.0600000005}},{"attributes":{"ID":591432,"DIS_CODE":0,"TOWNNAME":"安平區","LI":"育平里","LIN":"11鄰","STREET":"育平五街","SECT":" ","MAREA":" ","LANE":" ","ALLEY":" ","HOUSE_NO":"７７號二樓之４","E_COORD97":164649.44,"N_COORD97":2543485.8900000001,"ADDRESS":"育平五街７７號二樓之４","OBJECTID":591405},"geometry":{"x":164649.44000000134,"y":2543485.8900000006}},{"attributes":{"ID":591433,"DIS_CODE":0,"TOWNNAME":"安平區","LI":"育平里","LIN":"11鄰","STREET":"育平五街","SECT":" ","MAREA":" ","LANE":" ","ALLEY":" ","HOUSE_NO":"７７號五樓之１２","E_COORD97":164649.44,"N_COORD97":2543485.8900000001,"ADDRESS":"育平五街７７號五樓之１２","OBJECTID":591406},"geometry":{"x":164649.44000000134,"y":2543485.8900000006}},{"attributes":{"ID":591434,"DIS_CODE":0,"TOWNNAME":"安平區","LI":"億載里","LIN":"11鄰","STREET":"郡平路","SECT":" ","MAREA":" ","LANE":" ","ALLEY":" ","HOUSE_NO":"３８８號七樓之４","E_COORD97":164024.29999999999,"N_COORD97":2543382.0600000001,"ADDRESS":"郡平路３８８號七樓之４","OBJECTID":591407},"geometry":{"x":164024.30000000075,"y":2543382.0600000005}},{"attributes":{"ID":591435,"DIS_CODE":0,"TOWNNAME":"安平區","LI":"億載里","LIN":"11鄰","STREET":"郡平路","SECT":" ","MAREA":" ","LANE":" ","ALLEY":" ","HOUSE_NO":"３８８號八樓之１","E_COORD97":164024.29999999999,"N_COORD97":2543382.0600000001,"ADDRESS":"郡平路３８８號八樓之１","OBJECTID":591408},"geometry":{"x":164024.30000000075,"y":2543382.0600000005}},{"attributes":{"ID":591436,"DIS_CODE":0,"TOWNNAME":"安平區","LI":"億載里","LIN":"11鄰","STREET":"郡平路","SECT":" ","MAREA":" ","LANE":" ","ALLEY":" ","HOUSE_NO":"３８８號六樓之２","E_COORD97":164024.29999999999,"N_COORD97":2543382.0600000001,"ADDRESS":"郡平路３８８號六樓之２","OBJECTID":591409},"geometry":{"x":164024.30000000075,"y":2543382.0600000005}},{"attributes":{"ID":591437,"DIS_CODE":0,"TOWNNAME":"安平區","LI":"億載里","LIN":"11鄰","STREET":"郡平路","SECT":" ","MAREA":" ","LANE":" ","ALLEY":" ","HOUSE_NO":"３８８號四樓之３","E_COORD97":164024.29999999999,"N_COORD97":2543382.0600000001,"ADDRESS":"郡平路３８８號四樓之３","OBJECTID":591410},"geometry":{"x":164024.30000000075,"y":2543382.0600000005}},{"attributes":{"ID":591438,"DIS_CODE":0,"TOWNNAME":"北區","LI":"成功里","LIN":"11鄰","STREET":"北成路","SECT":" ","MAREA":" ","LANE":" ","ALLEY":" ","HOUSE_NO":"２２號七樓之１","E_COORD97":169170.23000000001,"N_COORD97":2546568.2000000002,"ADDRESS":"北成路２２號七樓之１","OBJECTID":591411},"geometry":{"x":169170.23000000138,"y":2546568.200000003}},{"attributes":{"ID":591439,"DIS_CODE":0,"TOWNNAME":"北區","LI":"成功里","LIN":"11鄰","STREET":"北成路","SECT":" ","MAREA":" ","LANE":" ","ALLEY":" ","HOUSE_NO":"２２號七樓之２","E_COORD97":169170.23000000001,"N_COORD97":2546568.2000000002,"ADDRESS":"北成路２２號七樓之２","OBJECTID":591412},"geometry":{"x":169170.23000000138,"y":2546568.200000003}},{"attributes":{"ID":591440,"DIS_CODE":0,"TOWNNAME":"北區","LI":"成功里","LIN":"11鄰","STREET":"北成路","SECT":" ","MAREA":" ","LANE":" ","ALLEY":" ","HOUSE_NO":"２２號七樓之３","E_COORD97":169170.23000000001,"N_COORD97":2546568.2000000002,"ADDRESS":"北成路２２號七樓之３","OBJECTID":591413},"geometry":{"x":169170.23000000138,"y":2546568.200000003}},{"attributes":{"ID":591441,"DIS_CODE":0,"TOWNNAME":"北區","LI":"成功里","LIN":"11鄰","STREET":"北成路","SECT":" ","MAREA":" ","LANE":" ","ALLEY":" ","HOUSE_NO":"２２號七樓之５","E_COORD97":169170.23000000001,"N_COORD97":2546568.2000000002,"ADDRESS":"北成路２２號七樓之５","OBJECTID":591414},"geometry":{"x":169170.23000000138,"y":2546568.200000003}},{"attributes":{"ID":591442,"DIS_CODE":0,"TOWNNAME":"北區","LI":"成功里","LIN":"11鄰","STREET":"北成路","SECT":" ","MAREA":" ","LANE":" ","ALLEY":" ","HOUSE_NO":"２２號七樓之６","E_COORD97":169170.23000000001,"N_COORD97":2546568.2000000002,"ADDRESS":"北成路２２號七樓之６","OBJECTID":591415},"geometry":{"x":169170.23000000138,"y":2546568.200000003}},{"attributes":{"ID":591443,"DIS_CODE":0,"TOWNNAME":"北區","LI":"成功里","LIN":"11鄰","STREET":"北成路","SECT":" ","MAREA":" ","LANE":" ","ALLEY":" ","HOUSE_NO":"２２號七樓之７","E_COORD97":169170.23000000001,"N_COORD97":2546568.2000000002,"ADDRESS":"北成路２２號七樓之７","OBJECTID":591416},"geometry":{"x":169170.23000000138,"y":2546568.200000003}},{"attributes":{"ID":591444,"DIS_CODE":0,"TOWNNAME":"北區","LI":"成功里","LIN":"11鄰","STREET":"北成路","SECT":" ","MAREA":" ","LANE":" ","ALLEY":" ","HOUSE_NO":"２２號七樓之８","E_COORD97":169170.23000000001,"N_COORD97":2546568.2000000002,"ADDRESS":"北成路２２號七樓之８","OBJECTID":591417},"geometry":{"x":169170.23000000138,"y":2546568.200000003}},{"attributes":{"ID":591445,"DIS_CODE":0,"TOWNNAME":"北區","LI":"成功里","LIN":"11鄰","STREET":"北成路","SECT":" ","MAREA":" ","LANE":" ","ALLEY":" ","HOUSE_NO":"２２號九樓之１","E_COORD97":169170.23000000001,"N_COORD97":2546568.2000000002,"ADDRESS":"北成路２２號九樓之１","OBJECTID":591418},"geometry":{"x":169170.23000000138,"y":2546568.200000003}},{"attributes":{"ID":591446,"DIS_CODE":0,"TOWNNAME":"北區","LI":"成功里","LIN":"11鄰","STREET":"北成路","SECT":" ","MAREA":" ","LANE":" ","ALLEY":" ","HOUSE_NO":"２２號九樓之２","E_COORD97":169170.23000000001,"N_COORD97":2546568.2000000002,"ADDRESS":"北成路２２號九樓之２","OBJECTID":591419},"geometry":{"x":169170.23000000138,"y":2546568.200000003}},{"attributes":{"ID":591447,"DIS_CODE":0,"TOWNNAME":"北區","LI":"成功里","LIN":"11鄰","STREET":"北成路","SECT":" ","MAREA":" ","LANE":" ","ALLEY":" ","HOUSE_NO":"２２號九樓之３","E_COORD97":169170.23000000001,"N_COORD97":2546568.2000000002,"ADDRESS":"北成路２２號九樓之３","OBJECTID":591420},"geometry":{"x":169170.23000000138,"y":2546568.200000003}},{"attributes":{"ID":591448,"DIS_CODE":0,"TOWNNAME":"北區","LI":"成功里","LIN":"11鄰","STREET":"北成路","SECT":" ","MAREA":" ","LANE":" ","ALLEY":" ","HOUSE_NO":"２２號九樓之５","E_COORD97":169170.23000000001,"N_COORD97":2546568.2000000002,"ADDRESS":"北成路２２號九樓之５","OBJECTID":591421},"geometry":{"x":169170.23000000138,"y":2546568.200000003}},{"attributes":{"ID":591449,"DIS_CODE":0,"TOWNNAME":"北區","LI":"成功里","LIN":"11鄰","STREET":"北成路","SECT":" ","MAREA":" ","LANE":" ","ALLEY":" ","HOUSE_NO":"２２號九樓之６","E_COORD97":169170.23000000001,"N_COORD97":2546568.2000000002,"ADDRESS":"北成路２２號九樓之６","OBJECTID":591422},"geometry":{"x":169170.23000000138,"y":2546568.200000003}},{"attributes":{"ID":591450,"DIS_CODE":0,"TOWNNAME":"北區","LI":"成功里","LIN":"11鄰","STREET":"北成路","SECT":" ","MAREA":" ","LANE":" ","ALLEY":" ","HOUSE_NO":"２２號九樓之７","E_COORD97":169170.23000000001,"N_COORD97":2546568.2000000002,"ADDRESS":"北成路２２號九樓之７","OBJECTID":591423},"geometry":{"x":169170.23000000138,"y":2546568.200000003}},{"attributes":{"ID":591451,"DIS_CODE":0,"TOWNNAME":"北區","LI":"成功里","LIN":"11鄰","STREET":"北成路","SECT":" ","MAREA":" ","LANE":" ","ALLEY":" ","HOUSE_NO":"２２號九樓之８","E_COORD97":169170.23000000001,"N_COORD97":2546568.2000000002,"ADDRESS":"北成路２２號九樓之８","OBJECTID":591424},"geometry":{"x":169170.23000000138,"y":2546568.200000003}},{"attributes":{"ID":591452,"DIS_CODE":0,"TOWNNAME":"北區","LI":"成功里","LIN":"11鄰","STREET":"北成路","SECT":" ","MAREA":" ","LANE":" ","ALLEY":" ","HOUSE_NO":"２２號二樓之１","E_COORD97":169170.23000000001,"N_COORD97":2546568.2000000002,"ADDRESS":"北成路２２號二樓之１","OBJECTID":591425},"geometry":{"x":169170.23000000138,"y":2546568.200000003}},{"attributes":{"ID":591453,"DIS_CODE":0,"TOWNNAME":"北區","LI":"成功里","LIN":"11鄰","STREET":"北成路","SECT":" ","MAREA":" ","LANE":" ","ALLEY":" ","HOUSE_NO":"２２號二樓之２","E_COORD97":169170.23000000001,"N_COORD97":2546568.2000000002,"ADDRESS":"北成路２２號二樓之２","OBJECTID":591426},"geometry":{"x":169170.23000000138,"y":2546568.200000003}},{"attributes":{"ID":591454,"DIS_CODE":0,"TOWNNAME":"北區","LI":"成功里","LIN":"11鄰","STREET":"北成路","SECT":" ","MAREA":" ","LANE":" ","ALLEY":" ","HOUSE_NO":"２２號二樓之３","E_COORD97":169170.23000000001,"N_COORD97":2546568.2000000002,"ADDRESS":"北成路２２號二樓之３","OBJECTID":591427},"geometry":{"x":169170.23000000138,"y":2546568.200000003}},{"attributes":{"ID":591455,"DIS_CODE":0,"TOWNNAME":"北區","LI":"成功里","LIN":"11鄰","STREET":"北成路","SECT":" ","MAREA":" ","LANE":" ","ALLEY":" ","HOUSE_NO":"２２號二樓之５","E_COORD97":169170.23000000001,"N_COORD97":2546568.2000000002,"ADDRESS":"北成路２２號二樓之５","OBJECTID":591428},"geometry":{"x":169170.23000000138,"y":2546568.200000003}},{"attributes":{"ID":591456,"DIS_CODE":0,"TOWNNAME":"北區","LI":"成功里","LIN":"11鄰","STREET":"北成路","SECT":" ","MAREA":" ","LANE":" ","ALLEY":" ","HOUSE_NO":"２２號二樓之６","E_COORD97":169170.23000000001,"N_COORD97":2546568.2000000002,"ADDRESS":"北成路２２號二樓之６","OBJECTID":591429},"geometry":{"x":169170.23000000138,"y":2546568.200000003}},{"attributes":{"ID":591457,"DIS_CODE":0,"TOWNNAME":"北區","LI":"成功里","LIN":"11鄰","STREET":"北成路","SECT":" ","MAREA":" ","LANE":" ","ALLEY":" ","HOUSE_NO":"２２號二樓之７","E_COORD97":169170.23000000001,"N_COORD97":2546568.2000000002,"ADDRESS":"北成路２２號二樓之７","OBJECTID":591430},"geometry":{"x":169170.23000000138,"y":2546568.200000003}},{"attributes":{"ID":591458,"DIS_CODE":0,"TOWNNAME":"北區","LI":"成功里","LIN":"11鄰","STREET":"北成路","SECT":" ","MAREA":" ","LANE":" ","ALLEY":" ","HOUSE_NO":"２２號八樓之１","E_COORD97":169170.23000000001,"N_COORD97":2546568.2000000002,"ADDRESS":"北成路２２號八樓之１","OBJECTID":591431},"geometry":{"x":169170.23000000138,"y":2546568.200000003}},{"attributes":{"ID":591459,"DIS_CODE":0,"TOWNNAME":"北區","LI":"成功里","LIN":"11鄰","STREET":"北成路","SECT":" ","MAREA":" ","LANE":" ","ALLEY":" ","HOUSE_NO":"２２號八樓之２","E_COORD97":169170.23000000001,"N_COORD97":2546568.2000000002,"ADDRESS":"北成路２２號八樓之２","OBJECTID":591432},"geometry":{"x":169170.23000000138,"y":2546568.200000003}},{"attributes":{"ID":591460,"DIS_CODE":0,"TOWNNAME":"北區","LI":"成功里","LIN":"11鄰","STREET":"北成路","SECT":" ","MAREA":" ","LANE":" ","ALLEY":" ","HOUSE_NO":"２２號八樓之３","E_COORD97":169170.23000000001,"N_COORD97":2546568.2000000002,"ADDRESS":"北成路２２號八樓之３","OBJECTID":591433},"geometry":{"x":169170.23000000138,"y":2546568.200000003}},{"attributes":{"ID":591461,"DIS_CODE":0,"TOWNNAME":"北區","LI":"成功里","LIN":"11鄰","STREET":"北成路","SECT":" ","MAREA":" ","LANE":" ","ALLEY":" ","HOUSE_NO":"２２號八樓之５","E_COORD97":169170.23000000001,"N_COORD97":2546568.2000000002,"ADDRESS":"北成路２２號八樓之５","OBJECTID":591434},"geometry":{"x":169170.23000000138,"y":2546568.200000003}},{"attributes":{"ID":591462,"DIS_CODE":0,"TOWNNAME":"北區","LI":"成功里","LIN":"11鄰","STREET":"北成路","SECT":" ","MAREA":" ","LANE":" ","ALLEY":" ","HOUSE_NO":"２２號八樓之６","E_COORD97":169170.23000000001,"N_COORD97":2546568.2000000002,"ADDRESS":"北成路２２號八樓之６","OBJECTID":591435},"geometry":{"x":169170.23000000138,"y":2546568.200000003}},{"attributes":{"ID":591463,"DIS_CODE":0,"TOWNNAME":"北區","LI":"成功里","LIN":"11鄰","STREET":"北成路","SECT":" ","MAREA":" ","LANE":" ","ALLEY":" ","HOUSE_NO":"２２號十一樓之１","E_COORD97":169170.23000000001,"N_COORD97":2546568.2000000002,"ADDRESS":"北成路２２號十一樓之１","OBJECTID":591436},"geometry":{"x":169170.23000000138,"y":2546568.200000003}},{"attributes":{"ID":591464,"DIS_CODE":0,"TOWNNAME":"北區","LI":"成功里","LIN":"11鄰","STREET":"北成路","SECT":" ","MAREA":" ","LANE":" ","ALLEY":" ","HOUSE_NO":"２２號十一樓之２","E_COORD97":169170.23000000001,"N_COORD97":2546568.2000000002,"ADDRESS":"北成路２２號十一樓之２","OBJECTID":591437},"geometry":{"x":169170.23000000138,"y":2546568.200000003}},{"attributes":{"ID":591465,"DIS_CODE":0,"TOWNNAME":"北區","LI":"成功里","LIN":"11鄰","STREET":"北成路","SECT":" ","MAREA":" ","LANE":" ","ALLEY":" ","HOUSE_NO":"２２號十一樓之３","E_COORD97":169170.23000000001,"N_COORD97":2546568.2000000002,"ADDRESS":"北成路２２號十一樓之３","OBJECTID":591438},"geometry":{"x":169170.23000000138,"y":2546568.200000003}},{"attributes":{"ID":591466,"DIS_CODE":0,"TOWNNAME":"北區","LI":"成功里","LIN":"11鄰","STREET":"北成路","SECT":" ","MAREA":" ","LANE":" ","ALLEY":" ","HOUSE_NO":"２２號十一樓之５","E_COORD97":169170.23000000001,"N_COORD97":2546568.2000000002,"ADDRESS":"北成路２２號十一樓之５","OBJECTID":591439},"geometry":{"x":169170.23000000138,"y":2546568.200000003}},{"attributes":{"ID":591467,"DIS_CODE":0,"TOWNNAME":"北區","LI":"成功里","LIN":"11鄰","STREET":"北成路","SECT":" ","MAREA":" ","LANE":" ","ALLEY":" ","HOUSE_NO":"２２號十一樓之６","E_COORD97":169170.23000000001,"N_COORD97":2546568.2000000002,"ADDRESS":"北成路２２號十一樓之６","OBJECTID":591440},"geometry":{"x":169170.23000000138,"y":2546568.200000003}},{"attributes":{"ID":591468,"DIS_CODE":0,"TOWNNAME":"北區","LI":"成功里","LIN":"11鄰","STREET":"北成路","SECT":" ","MAREA":" ","LANE":" ","ALLEY":" ","HOUSE_NO":"２２號十一樓之７","E_COORD97":169170.23000000001,"N_COORD97":2546568.2000000002,"ADDRESS":"北成路２２號十一樓之７","OBJECTID":591441},"geometry":{"x":169170.23000000138,"y":2546568.200000003}},{"attributes":{"ID":591469,"DIS_CODE":0,"TOWNNAME":"北區","LI":"成功里","LIN":"11鄰","STREET":"北成路","SECT":" ","MAREA":" ","LANE":" ","ALLEY":" ","HOUSE_NO":"２２號十一樓之８","E_COORD97":169170.23000000001,"N_COORD97":2546568.2000000002,"ADDRESS":"北成路２２號十一樓之８","OBJECTID":591442},"geometry":{"x":169170.23000000138,"y":2546568.200000003}},{"attributes":{"ID":591470,"DIS_CODE":0,"TOWNNAME":"北區","LI":"成功里","LIN":"11鄰","STREET":"北成路","SECT":" ","MAREA":" ","LANE":" ","ALLEY":" ","HOUSE_NO":"２２號十二樓之１","E_COORD97":169170.23000000001,"N_COORD97":2546568.2000000002,"ADDRESS":"北成路２２號十二樓之１","OBJECTID":591443},"geometry":{"x":169170.23000000138,"y":2546568.200000003}},{"attributes":{"ID":591471,"DIS_CODE":0,"TOWNNAME":"北區","LI":"成功里","LIN":"11鄰","STREET":"北成路","SECT":" ","MAREA":" ","LANE":" ","ALLEY":" ","HOUSE_NO":"２２號十二樓之２","E_COORD97":169170.23000000001,"N_COORD97":2546568.2000000002,"ADDRESS":"北成路２２號十二樓之２","OBJECTID":591444},"geometry":{"x":169170.23000000138,"y":2546568.200000003}},{"attributes":{"ID":591472,"DIS_CODE":0,"TOWNNAME":"北區","LI":"成功里","LIN":"11鄰","STREET":"北成路","SECT":" ","MAREA":" ","LANE":" ","ALLEY":" ","HOUSE_NO":"２２號十二樓之３","E_COORD97":169170.23000000001,"N_COORD97":2546568.2000000002,"ADDRESS":"北成路２２號十二樓之３","OBJECTID":591445},"geometry":{"x":169170.23000000138,"y":2546568.200000003}},{"attributes":{"ID":591473,"DIS_CODE":0,"TOWNNAME":"北區","LI":"成功里","LIN":"11鄰","STREET":"北成路","SECT":" ","MAREA":" ","LANE":" ","ALLEY":" ","HOUSE_NO":"２２號十二樓之５","E_COORD97":169170.23000000001,"N_COORD97":2546568.2000000002,"ADDRESS":"北成路２２號十二樓之５","OBJECTID":591446},"geometry":{"x":169170.23000000138,"y":2546568.200000003}},{"attributes":{"ID":591474,"DIS_CODE":0,"TOWNNAME":"北區","LI":"成功里","LIN":"11鄰","STREET":"北成路","SECT":" ","MAREA":" ","LANE":" ","ALLEY":" ","HOUSE_NO":"２２號十二樓之６","E_COORD97":169170.23000000001,"N_COORD97":2546568.2000000002,"ADDRESS":"北成路２２號十二樓之６","OBJECTID":591447},"geometry":{"x":169170.23000000138,"y":2546568.200000003}},{"attributes":{"ID":591475,"DIS_CODE":0,"TOWNNAME":"北區","LI":"成功里","LIN":"11鄰","STREET":"北成路","SECT":" ","MAREA":" ","LANE":" ","ALLEY":" ","HOUSE_NO":"２２號十二樓之７","E_COORD97":169170.23000000001,"N_COORD97":2546568.2000000002,"ADDRESS":"北成路２２號十二樓之７","OBJECTID":591448},"geometry":{"x":169170.23000000138,"y":2546568.200000003}},{"attributes":{"ID":591476,"DIS_CODE":0,"TOWNNAME":"北區","LI":"成功里","LIN":"11鄰","STREET":"北成路","SECT":" ","MAREA":" ","LANE":" ","ALLEY":" ","HOUSE_NO":"２２號十二樓之８","E_COORD97":169170.23000000001,"N_COORD97":2546568.2000000002,"ADDRESS":"北成路２２號十二樓之８","OBJECTID":591449},"geometry":{"x":169170.23000000138,"y":2546568.200000003}},{"attributes":{"ID":591477,"DIS_CODE":0,"TOWNNAME":"北區","LI":"成功里","LIN":"11鄰","STREET":"北成路","SECT":" ","MAREA":" ","LANE":" ","ALLEY":" ","HOUSE_NO":"２２號十三樓之１","E_COORD97":169170.23000000001,"N_COORD97":2546568.2000000002,"ADDRESS":"北成路２２號十三樓之１","OBJECTID":591450},"geometry":{"x":169170.23000000138,"y":2546568.200000003}},{"attributes":{"ID":591478,"DIS_CODE":0,"TOWNNAME":"北區","LI":"成功里","LIN":"11鄰","STREET":"北成路","SECT":" ","MAREA":" ","LANE":" ","ALLEY":" ","HOUSE_NO":"２２號十三樓之２","E_COORD97":169170.23000000001,"N_COORD97":2546568.2000000002,"ADDRESS":"北成路２２號十三樓之２","OBJECTID":591451},"geometry":{"x":169170.23000000138,"y":2546568.200000003}},{"attributes":{"ID":591479,"DIS_CODE":0,"TOWNNAME":"北區","LI":"成功里","LIN":"11鄰","STREET":"北成路","SECT":" ","MAREA":" ","LANE":" ","ALLEY":" ","HOUSE_NO":"２２號十三樓之３","E_COORD97":169170.23000000001,"N_COORD97":2546568.2000000002,"ADDRESS":"北成路２２號十三樓之３","OBJECTID":591452},"geometry":{"x":169170.23000000138,"y":2546568.200000003}},{"attributes":{"ID":591480,"DIS_CODE":0,"TOWNNAME":"北區","LI":"成功里","LIN":"11鄰","STREET":"北成路","SECT":" ","MAREA":" ","LANE":" ","ALLEY":" ","HOUSE_NO":"２２號十三樓之５","E_COORD97":169170.23000000001,"N_COORD97":2546568.2000000002,"ADDRESS":"北成路２２號十三樓之５","OBJECTID":591453},"geometry":{"x":169170.23000000138,"y":2546568.200000003}},{"attributes":{"ID":591481,"DIS_CODE":0,"TOWNNAME":"北區","LI":"成功里","LIN":"11鄰","STREET":"北成路","SECT":" ","MAREA":" ","LANE":" ","ALLEY":" ","HOUSE_NO":"２２號十三樓之６","E_COORD97":169170.23000000001,"N_COORD97":2546568.2000000002,"ADDRESS":"北成路２２號十三樓之６","OBJECTID":591454},"geometry":{"x":169170.23000000138,"y":2546568.200000003}},{"attributes":{"ID":591482,"DIS_CODE":0,"TOWNNAME":"北區","LI":"成功里","LIN":"11鄰","STREET":"北成路","SECT":" ","MAREA":" ","LANE":" ","ALLEY":" ","HOUSE_NO":"２２號十三樓之７","E_COORD97":169170.23000000001,"N_COORD97":2546568.2000000002,"ADDRESS":"北成路２２號十三樓之７","OBJECTID":591455},"geometry":{"x":169170.23000000138,"y":2546568.200000003}},{"attributes":{"ID":591483,"DIS_CODE":0,"TOWNNAME":"北區","LI":"成功里","LIN":"11鄰","STREET":"北成路","SECT":" ","MAREA":" ","LANE":" ","ALLEY":" ","HOUSE_NO":"２２號十三樓之８","E_COORD97":169170.23000000001,"N_COORD97":2546568.2000000002,"ADDRESS":"北成路２２號十三樓之８","OBJECTID":591456},"geometry":{"x":169170.23000000138,"y":2546568.200000003}},{"attributes":{"ID":591484,"DIS_CODE":0,"TOWNNAME":"北區","LI":"成功里","LIN":"11鄰","STREET":"北成路","SECT":" ","MAREA":" ","LANE":" ","ALLEY":" ","HOUSE_NO":"２２號十四樓之１","E_COORD97":169170.23000000001,"N_COORD97":2546568.2000000002,"ADDRESS":"北成路２２號十四樓之１","OBJECTID":591457},"geometry":{"x":169170.23000000138,"y":2546568.200000003}},{"attributes":{"ID":591485,"DIS_CODE":0,"TOWNNAME":"北區","LI":"成功里","LIN":"11鄰","STREET":"北成路","SECT":" ","MAREA":" ","LANE":" ","ALLEY":" ","HOUSE_NO":"２２號十四樓之２","E_COORD97":169170.23000000001,"N_COORD97":2546568.2000000002,"ADDRESS":"北成路２２號十四樓之２","OBJECTID":591458},"geometry":{"x":169170.23000000138,"y":2546568.200000003}},{"attributes":{"ID":591486,"DIS_CODE":0,"TOWNNAME":"北區","LI":"成功里","LIN":"11鄰","STREET":"北成路","SECT":" ","MAREA":" ","LANE":" ","ALLEY":" ","HOUSE_NO":"２２號十四樓之３","E_COORD97":169170.23000000001,"N_COORD97":2546568.2000000002,"ADDRESS":"北成路２２號十四樓之３","OBJECTID":591459},"geometry":{"x":169170.23000000138,"y":2546568.200000003}},{"attributes":{"ID":591487,"DIS_CODE":0,"TOWNNAME":"北區","LI":"成功里","LIN":"11鄰","STREET":"北成路","SECT":" ","MAREA":" ","LANE":" ","ALLEY":" ","HOUSE_NO":"２２號十四樓之５","E_COORD97":169170.23000000001,"N_COORD97":2546568.2000000002,"ADDRESS":"北成路２２號十四樓之５","OBJECTID":591460},"geometry":{"x":169170.23000000138,"y":2546568.200000003}},{"attributes":{"ID":591488,"DIS_CODE":0,"TOWNNAME":"北區","LI":"成功里","LIN":"11鄰","STREET":"北成路","SECT":" ","MAREA":" ","LANE":" ","ALLEY":" ","HOUSE_NO":"２２號十四樓之６","E_COORD97":169170.23000000001,"N_COORD97":2546568.2000000002,"ADDRESS":"北成路２２號十四樓之６","OBJECTID":591461},"geometry":{"x":169170.23000000138,"y":2546568.200000003}},{"attributes":{"ID":591489,"DIS_CODE":0,"TOWNNAME":"北區","LI":"成功里","LIN":"11鄰","STREET":"北成路","SECT":" ","MAREA":" ","LANE":" ","ALLEY":" ","HOUSE_NO":"２２號十四樓之７","E_COORD97":169170.23000000001,"N_COORD97":2546568.2000000002,"ADDRESS":"北成路２２號十四樓之７","OBJECTID":591462},"geometry":{"x":169170.23000000138,"y":2546568.200000003}},{"attributes":{"ID":591490,"DIS_CODE":0,"TOWNNAME":"北區","LI":"成功里","LIN":"11鄰","STREET":"北成路","SECT":" ","MAREA":" ","LANE":" ","ALLEY":" ","HOUSE_NO":"２２號十樓之１","E_COORD97":169170.23000000001,"N_COORD97":2546568.2000000002,"ADDRESS":"北成路２２號十樓之１","OBJECTID":591463},"geometry":{"x":169170.23000000138,"y":2546568.200000003}},{"attributes":{"ID":591491,"DIS_CODE":0,"TOWNNAME":"北區","LI":"成功里","LIN":"11鄰","STREET":"北成路","SECT":" ","MAREA":" ","LANE":" ","ALLEY":" ","HOUSE_NO":"２２號十樓之２","E_COORD97":169170.23000000001,"N_COORD97":2546568.2000000002,"ADDRESS":"北成路２２號十樓之２","OBJECTID":591464},"geometry":{"x":169170.23000000138,"y":2546568.200000003}},{"attributes":{"ID":591492,"DIS_CODE":0,"TOWNNAME":"北區","LI":"成功里","LIN":"11鄰","STREET":"北成路","SECT":" ","MAREA":" ","LANE":" ","ALLEY":" ","HOUSE_NO":"２２號十樓之３","E_COORD97":169170.23000000001,"N_COORD97":2546568.2000000002,"ADDRESS":"北成路２２號十樓之３","OBJECTID":591465},"geometry":{"x":169170.23000000138,"y":2546568.200000003}},{"attributes":{"ID":591493,"DIS_CODE":0,"TOWNNAME":"北區","LI":"成功里","LIN":"11鄰","STREET":"北成路","SECT":" ","MAREA":" ","LANE":" ","ALLEY":" ","HOUSE_NO":"２２號十樓之５","E_COORD97":169170.23000000001,"N_COORD97":2546568.2000000002,"ADDRESS":"北成路２２號十樓之５","OBJECTID":591466},"geometry":{"x":169170.23000000138,"y":2546568.200000003}},{"attributes":{"ID":591494,"DIS_CODE":0,"TOWNNAME":"北區","LI":"成功里","LIN":"11鄰","STREET":"北成路","SECT":" ","MAREA":" ","LANE":" ","ALLEY":" ","HOUSE_NO":"２２號十樓之６","E_COORD97":169170.23000000001,"N_COORD97":2546568.2000000002,"ADDRESS":"北成路２２號十樓之６","OBJECTID":591467},"geometry":{"x":169170.23000000138,"y":2546568.200000003}},{"attributes":{"ID":591495,"DIS_CODE":0,"TOWNNAME":"北區","LI":"成功里","LIN":"11鄰","STREET":"北成路","SECT":" ","MAREA":" ","LANE":" ","ALLEY":" ","HOUSE_NO":"２２號十樓之７","E_COORD97":169170.23000000001,"N_COORD97":2546568.2000000002,"ADDRESS":"北成路２２號十樓之７","OBJECTID":591468},"geometry":{"x":169170.23000000138,"y":2546568.200000003}},{"attributes":{"ID":591496,"DIS_CODE":0,"TOWNNAME":"北區","LI":"成功里","LIN":"11鄰","STREET":"北成路","SECT":" ","MAREA":" ","LANE":" ","ALLEY":" ","HOUSE_NO":"２２號十樓之８","E_COORD97":169170.23000000001,"N_COORD97":2546568.2000000002,"ADDRESS":"北成路２２號十樓之８","OBJECTID":591469},"geometry":{"x":169170.23000000138,"y":2546568.200000003}},{"attributes":{"ID":591497,"DIS_CODE":0,"TOWNNAME":"北區","LI":"成功里","LIN":"11鄰","STREET":"北成路","SECT":" ","MAREA":" ","LANE":" ","ALLEY":" ","HOUSE_NO":"２２號三樓之１","E_COORD97":169170.23000000001,"N_COORD97":2546568.2000000002,"ADDRESS":"北成路２２號三樓之１","OBJECTID":591470},"geometry":{"x":169170.23000000138,"y":2546568.200000003}},{"attributes":{"ID":591498,"DIS_CODE":0,"TOWNNAME":"北區","LI":"成功里","LIN":"11鄰","STREET":"北成路","SECT":" ","MAREA":" ","LANE":" ","ALLEY":" ","HOUSE_NO":"２２號三樓之２","E_COORD97":169170.23000000001,"N_COORD97":2546568.2000000002,"ADDRESS":"北成路２２號三樓之２","OBJECTID":591471},"geometry":{"x":169170.23000000138,"y":2546568.200000003}},{"attributes":{"ID":591499,"DIS_CODE":0,"TOWNNAME":"北區","LI":"成功里","LIN":"11鄰","STREET":"北成路","SECT":" ","MAREA":" ","LANE":" ","ALLEY":" ","HOUSE_NO":"２２號三樓之３","E_COORD97":169170.23000000001,"N_COORD97":2546568.2000000002,"ADDRESS":"北成路２２號三樓之３","OBJECTID":591472},"geometry":{"x":169170.23000000138,"y":2546568.200000003}},{"attributes":{"ID":591500,"DIS_CODE":0,"TOWNNAME":"北區","LI":"成功里","LIN":"11鄰","STREET":"北成路","SECT":" ","MAREA":" ","LANE":" ","ALLEY":" ","HOUSE_NO":"２２號三樓之５","E_COORD97":169170.23000000001,"N_COORD97":2546568.2000000002,"ADDRESS":"北成路２２號三樓之５","OBJECTID":591473},"geometry":{"x":169170.23000000138,"y":2546568.200000003}},{"attributes":{"ID":591501,"DIS_CODE":0,"TOWNNAME":"北區","LI":"成功里","LIN":"11鄰","STREET":"北成路","SECT":" ","MAREA":" ","LANE":" ","ALLEY":" ","HOUSE_NO":"２２號三樓之６","E_COORD97":169170.23000000001,"N_COORD97":2546568.2000000002,"ADDRESS":"北成路２２號三樓之６","OBJECTID":591474},"geometry":{"x":169170.23000000138,"y":2546568.200000003}},{"attributes":{"ID":591502,"DIS_CODE":0,"TOWNNAME":"北區","LI":"成功里","LIN":"11鄰","STREET":"北成路","SECT":" ","MAREA":" ","LANE":" ","ALLEY":" ","HOUSE_NO":"２２號三樓之７","E_COORD97":169170.23000000001,"N_COORD97":2546568.2000000002,"ADDRESS":"北成路２２號三樓之７","OBJECTID":591475},"geometry":{"x":169170.23000000138,"y":2546568.200000003}},{"attributes":{"ID":591503,"DIS_CODE":0,"TOWNNAME":"北區","LI":"成功里","LIN":"11鄰","STREET":"北成路","SECT":" ","MAREA":" ","LANE":" ","ALLEY":" ","HOUSE_NO":"２２號三樓之８","E_COORD97":169170.23000000001,"N_COORD97":2546568.2000000002,"ADDRESS":"北成路２２號三樓之８","OBJECTID":591476},"geometry":{"x":169170.23000000138,"y":2546568.200000003}},{"attributes":{"ID":591504,"DIS_CODE":0,"TOWNNAME":"北區","LI":"成功里","LIN":"11鄰","STREET":"北成路","SECT":" ","MAREA":" ","LANE":" ","ALLEY":" ","HOUSE_NO":"２２號三樓之９","E_COORD97":169170.23000000001,"N_COORD97":2546568.2000000002,"ADDRESS":"北成路２２號三樓之９","OBJECTID":591477},"geometry":{"x":169170.23000000138,"y":2546568.200000003}},{"attributes":{"ID":591505,"DIS_CODE":0,"TOWNNAME":"北區","LI":"成功里","LIN":"11鄰","STREET":"北成路","SECT":" ","MAREA":" ","LANE":" ","ALLEY":" ","HOUSE_NO":"２２號五樓之１","E_COORD97":169170.23000000001,"N_COORD97":2546568.2000000002,"ADDRESS":"北成路２２號五樓之１","OBJECTID":591478},"geometry":{"x":169170.23000000138,"y":2546568.200000003}},{"attributes":{"ID":591506,"DIS_CODE":0,"TOWNNAME":"北區","LI":"成功里","LIN":"11鄰","STREET":"北成路","SECT":" ","MAREA":" ","LANE":" ","ALLEY":" ","HOUSE_NO":"２２號五樓之２","E_COORD97":169170.23000000001,"N_COORD97":2546568.2000000002,"ADDRESS":"北成路２２號五樓之２","OBJECTID":591479},"geometry":{"x":169170.23000000138,"y":2546568.200000003}},{"attributes":{"ID":591507,"DIS_CODE":0,"TOWNNAME":"北區","LI":"成功里","LIN":"11鄰","STREET":"北成路","SECT":" ","MAREA":" ","LANE":" ","ALLEY":" ","HOUSE_NO":"２２號五樓之３","E_COORD97":169170.23000000001,"N_COORD97":2546568.2000000002,"ADDRESS":"北成路２２號五樓之３","OBJECTID":591480},"geometry":{"x":169170.23000000138,"y":2546568.200000003}},{"attributes":{"ID":591508,"DIS_CODE":0,"TOWNNAME":"北區","LI":"成功里","LIN":"11鄰","STREET":"北成路","SECT":" ","MAREA":" ","LANE":" ","ALLEY":" ","HOUSE_NO":"２２號五樓之５","E_COORD97":169170.23000000001,"N_COORD97":2546568.2000000002,"ADDRESS":"北成路２２號五樓之５","OBJECTID":591481},"geometry":{"x":169170.23000000138,"y":2546568.200000003}},{"attributes":{"ID":591509,"DIS_CODE":0,"TOWNNAME":"北區","LI":"成功里","LIN":"11鄰","STREET":"北成路","SECT":" ","MAREA":" ","LANE":" ","ALLEY":" ","HOUSE_NO":"２２號五樓之６","E_COORD97":169170.23000000001,"N_COORD97":2546568.2000000002,"ADDRESS":"北成路２２號五樓之６","OBJECTID":591482},"geometry":{"x":169170.23000000138,"y":2546568.200000003}},{"attributes":{"ID":591510,"DIS_CODE":0,"TOWNNAME":"北區","LI":"成功里","LIN":"11鄰","STREET":"北成路","SECT":" ","MAREA":" ","LANE":" ","ALLEY":" ","HOUSE_NO":"２２號五樓之７","E_COORD97":169170.23000000001,"N_COORD97":2546568.2000000002,"ADDRESS":"北成路２２號五樓之７","OBJECTID":591483},"geometry":{"x":169170.23000000138,"y":2546568.200000003}},{"attributes":{"ID":591511,"DIS_CODE":0,"TOWNNAME":"北區","LI":"成功里","LIN":"11鄰","STREET":"北成路","SECT":" ","MAREA":" ","LANE":" ","ALLEY":" ","HOUSE_NO":"２２號五樓之８","E_COORD97":169170.23000000001,"N_COORD97":2546568.2000000002,"ADDRESS":"北成路２２號五樓之８","OBJECTID":591484},"geometry":{"x":169170.23000000138,"y":2546568.200000003}},{"attributes":{"ID":591512,"DIS_CODE":0,"TOWNNAME":"北區","LI":"成功里","LIN":"11鄰","STREET":"北成路","SECT":" ","MAREA":" ","LANE":" ","ALLEY":" ","HOUSE_NO":"２２號六樓之１","E_COORD97":169170.23000000001,"N_COORD97":2546568.2000000002,"ADDRESS":"北成路２２號六樓之１","OBJECTID":591485},"geometry":{"x":169170.23000000138,"y":2546568.200000003}},{"attributes":{"ID":591513,"DIS_CODE":0,"TOWNNAME":"北區","LI":"成功里","LIN":"11鄰","STREET":"北成路","SECT":" ","MAREA":" ","LANE":" ","ALLEY":" ","HOUSE_NO":"２２號六樓之２","E_COORD97":169170.23000000001,"N_COORD97":2546568.2000000002,"ADDRESS":"北成路２２號六樓之２","OBJECTID":591486},"geometry":{"x":169170.23000000138,"y":2546568.200000003}},{"attributes":{"ID":591514,"DIS_CODE":0,"TOWNNAME":"北區","LI":"成功里","LIN":"11鄰","STREET":"北成路","SECT":" ","MAREA":" ","LANE":" ","ALLEY":" ","HOUSE_NO":"２２號六樓之３","E_COORD97":169170.23000000001,"N_COORD97":2546568.2000000002,"ADDRESS":"北成路２２號六樓之３","OBJECTID":591487},"geometry":{"x":169170.23000000138,"y":2546568.200000003}},{"attributes":{"ID":591515,"DIS_CODE":0,"TOWNNAME":"北區","LI":"成功里","LIN":"11鄰","STREET":"北成路","SECT":" ","MAREA":" ","LANE":" ","ALLEY":" ","HOUSE_NO":"２２號六樓之５","E_COORD97":169170.23000000001,"N_COORD97":2546568.2000000002,"ADDRESS":"北成路２２號六樓之５","OBJECTID":591488},"geometry":{"x":169170.23000000138,"y":2546568.200000003}},{"attributes":{"ID":591516,"DIS_CODE":0,"TOWNNAME":"北區","LI":"成功里","LIN":"11鄰","STREET":"北成路","SECT":" ","MAREA":" ","LANE":" ","ALLEY":" ","HOUSE_NO":"２２號六樓之６","E_COORD97":169170.23000000001,"N_COORD97":2546568.2000000002,"ADDRESS":"北成路２２號六樓之６","OBJECTID":591489},"geometry":{"x":169170.23000000138,"y":2546568.200000003}},{"attributes":{"ID":591517,"DIS_CODE":0,"TOWNNAME":"北區","LI":"成功里","LIN":"11鄰","STREET":"北成路","SECT":" ","MAREA":" ","LANE":" ","ALLEY":" ","HOUSE_NO":"２２號六樓之７","E_COORD97":169170.23000000001,"N_COORD97":2546568.2000000002,"ADDRESS":"北成路２２號六樓之７","OBJECTID":591490},"geometry":{"x":169170.23000000138,"y":2546568.200000003}},{"attributes":{"ID":591518,"DIS_CODE":0,"TOWNNAME":"北區","LI":"成功里","LIN":"11鄰","STREET":"北成路","SECT":" ","MAREA":" ","LANE":" ","ALLEY":" ","HOUSE_NO":"２２號六樓之８","E_COORD97":169170.23000000001,"N_COORD97":2546568.2000000002,"ADDRESS":"北成路２２號六樓之８","OBJECTID":591491},"geometry":{"x":169170.23000000138,"y":2546568.200000003}},{"attributes":{"ID":591519,"DIS_CODE":0,"TOWNNAME":"北區","LI":"成功里","LIN":"11鄰","STREET":"北成路","SECT":" ","MAREA":" ","LANE":" ","ALLEY":" ","HOUSE_NO":"２２號四樓之１","E_COORD97":169170.23000000001,"N_COORD97":2546568.2000000002,"ADDRESS":"北成路２２號四樓之１","OBJECTID":591492},"geometry":{"x":169170.23000000138,"y":2546568.200000003}},{"attributes":{"ID":591520,"DIS_CODE":0,"TOWNNAME":"北區","LI":"成功里","LIN":"11鄰","STREET":"北成路","SECT":" ","MAREA":" ","LANE":" ","ALLEY":" ","HOUSE_NO":"２２號四樓之２","E_COORD97":169170.23000000001,"N_COORD97":2546568.2000000002,"ADDRESS":"北成路２２號四樓之２","OBJECTID":591493},"geometry":{"x":169170.23000000138,"y":2546568.200000003}},{"attributes":{"ID":591521,"DIS_CODE":0,"TOWNNAME":"北區","LI":"成功里","LIN":"11鄰","STREET":"北成路","SECT":" ","MAREA":" ","LANE":" ","ALLEY":" ","HOUSE_NO":"２２號四樓之３","E_COORD97":169170.23000000001,"N_COORD97":2546568.2000000002,"ADDRESS":"北成路２２號四樓之３","OBJECTID":591494},"geometry":{"x":169170.23000000138,"y":2546568.200000003}},{"attributes":{"ID":591522,"DIS_CODE":0,"TOWNNAME":"北區","LI":"成功里","LIN":"11鄰","STREET":"北成路","SECT":" ","MAREA":" ","LANE":" ","ALLEY":" ","HOUSE_NO":"２２號四樓之５","E_COORD97":169170.23000000001,"N_COORD97":2546568.2000000002,"ADDRESS":"北成路２２號四樓之５","OBJECTID":591495},"geometry":{"x":169170.23000000138,"y":2546568.200000003}},{"attributes":{"ID":591523,"DIS_CODE":0,"TOWNNAME":"北區","LI":"成功里","LIN":"11鄰","STREET":"北成路","SECT":" ","MAREA":" ","LANE":" ","ALLEY":" ","HOUSE_NO":"２２號四樓之６","E_COORD97":169170.23000000001,"N_COORD97":2546568.2000000002,"ADDRESS":"北成路２２號四樓之６","OBJECTID":591496},"geometry":{"x":169170.23000000138,"y":2546568.200000003}},{"attributes":{"ID":591524,"DIS_CODE":0,"TOWNNAME":"北區","LI":"成功里","LIN":"11鄰","STREET":"北成路","SECT":" ","MAREA":" ","LANE":" ","ALLEY":" ","HOUSE_NO":"２２號四樓之７","E_COORD97":169170.23000000001,"N_COORD97":2546568.2000000002,"ADDRESS":"北成路２２號四樓之７","OBJECTID":591497},"geometry":{"x":169170.23000000138,"y":2546568.200000003}},{"attributes":{"ID":591525,"DIS_CODE":0,"TOWNNAME":"北區","LI":"成功里","LIN":"11鄰","STREET":"北成路","SECT":" ","MAREA":" ","LANE":" ","ALLEY":" ","HOUSE_NO":"２２號四樓之８","E_COORD97":169170.23000000001,"N_COORD97":2546568.2000000002,"ADDRESS":"北成路２２號四樓之８","OBJECTID":591498},"geometry":{"x":169170.23000000138,"y":2546568.200000003}},{"attributes":{"ID":591526,"DIS_CODE":0,"TOWNNAME":"新營區","LI":"民權里","LIN":"11鄰","STREET":"中華路","SECT":" ","MAREA":" ","LANE":" ","ALLEY":" ","HOUSE_NO":"１８之５號五樓之３","E_COORD97":179848.97,"N_COORD97":2578234.6400000001,"ADDRESS":"中華路１８之５號五樓之３","OBJECTID":591499},"geometry":{"x":179848.9700000016,"y":2578234.6400000006}},{"attributes":{"ID":591527,"DIS_CODE":0,"TOWNNAME":"新營區","LI":"民權里","LIN":"11鄰","STREET":"中華路","SECT":" ","MAREA":" ","LANE":" ","ALLEY":" ","HOUSE_NO":"１８之５號五樓之４","E_COORD97":179848.89999999999,"N_COORD97":2578234.6400000001,"ADDRESS":"中華路１８之５號五樓之４","OBJECTID":591500},"geometry":{"x":179848.9000000013,"y":2578234.6400000006}},{"attributes":{"ID":591528,"DIS_CODE":0,"TOWNNAME":"新營區","LI":"民權里","LIN":"11鄰","STREET":"中華路","SECT":" ","MAREA":" ","LANE":" ","ALLEY":" ","HOUSE_NO":"１８之５號七樓之４","E_COORD97":179848.89999999999,"N_COORD97":2578234.6400000001,"ADDRESS":"中華路１８之５號七樓之４","OBJECTID":591501},"geometry":{"x":179848.9000000013,"y":2578234.6400000006}},{"attributes":{"ID":591529,"DIS_CODE":0,"TOWNNAME":"新營區","LI":"民權里","LIN":"11鄰","STREET":"中華路","SECT":" ","MAREA":" ","LANE":" ","ALLEY":" ","HOUSE_NO":"１８之５號二樓之３","E_COORD97":179848.97,"N_COORD97":2578234.6400000001,"ADDRESS":"中華路１８之５號二樓之３","OBJECTID":591502},"geometry":{"x":179848.9700000016,"y":2578234.6400000006}},{"attributes":{"ID":591530,"DIS_CODE":0,"TOWNNAME":"新營區","LI":"民權里","LIN":"11鄰","STREET":"中華路","SECT":" ","MAREA":" ","LANE":" ","ALLEY":" ","HOUSE_NO":"１８之５號四樓之２","E_COORD97":179849.01000000001,"N_COORD97":2578234.6400000001,"ADDRESS":"中華路１８之５號四樓之２","OBJECTID":591503},"geometry":{"x":179849.01000000071,"y":2578234.6400000006}},{"attributes":{"ID":591531,"DIS_CODE":0,"TOWNNAME":"新營區","LI":"民權里","LIN":"11鄰","STREET":"中華路","SECT":" ","MAREA":" ","LANE":" ","ALLEY":" ","HOUSE_NO":"１８之５號四樓之３","E_COORD97":179848.97,"N_COORD97":2578234.6400000001,"ADDRESS":"中華路１８之５號四樓之３","OBJECTID":591504},"geometry":{"x":179848.9700000016,"y":2578234.6400000006}},{"attributes":{"ID":591532,"DIS_CODE":0,"TOWNNAME":"新營區","LI":"民權里","LIN":"11鄰","STREET":"中華路","SECT":" ","MAREA":" ","LANE":" ","ALLEY":" ","HOUSE_NO":"１８之５號三樓之４","E_COORD97":179848.89999999999,"N_COORD97":2578234.6400000001,"ADDRESS":"中華路１８之５號三樓之４","OBJECTID":591505},"geometry":{"x":179848.9000000013,"y":2578234.6400000006}},{"attributes":{"ID":591533,"DIS_CODE":0,"TOWNNAME":"新營區","LI":"民權里","LIN":"11鄰","STREET":"中華路","SECT":" ","MAREA":" ","LANE":" ","ALLEY":" ","HOUSE_NO":"１８之５號三樓之３","E_COORD97":179848.97,"N_COORD97":2578234.6400000001,"ADDRESS":"中華路１８之５號三樓之３","OBJECTID":591506},"geometry":{"x":179848.9700000016,"y":2578234.6400000006}},{"attributes":{"ID":591534,"DIS_CODE":0,"TOWNNAME":"新營區","LI":"民權里","LIN":"11鄰","STREET":"中華路","SECT":" ","MAREA":" ","LANE":" ","ALLEY":" ","HOUSE_NO":"１８之５號四樓之４","E_COORD97":179848.89999999999,"N_COORD97":2578234.6400000001,"ADDRESS":"中華路１８之５號四樓之４","OBJECTID":591507},"geometry":{"x":179848.9000000013,"y":2578234.6400000006}},{"attributes":{"ID":591535,"DIS_CODE":0,"TOWNNAME":"新營區","LI":"民權里","LIN":"11鄰","STREET":"中華路","SECT":" ","MAREA":" ","LANE":" ","ALLEY":" ","HOUSE_NO":"１８之５號二樓之２","E_COORD97":179849.01000000001,"N_COORD97":2578234.6400000001,"ADDRESS":"中華路１８之５號二樓之２","OBJECTID":591508},"geometry":{"x":179849.01000000071,"y":2578234.6400000006}},{"attributes":{"ID":591536,"DIS_CODE":0,"TOWNNAME":"新營區","LI":"民權里","LIN":"11鄰","STREET":"中華路","SECT":" ","MAREA":" ","LANE":" ","ALLEY":" ","HOUSE_NO":"１８之５號六樓之４","E_COORD97":179848.89999999999,"N_COORD97":2578234.6400000001,"ADDRESS":"中華路１８之５號六樓之４","OBJECTID":591509},"geometry":{"x":179848.9000000013,"y":2578234.6400000006}},{"attributes":{"ID":591537,"DIS_CODE":0,"TOWNNAME":"新營區","LI":"民權里","LIN":"11鄰","STREET":"中華路","SECT":" ","MAREA":" ","LANE":" ","ALLEY":" ","HOUSE_NO":"１８之５號六樓之１","E_COORD97":179848.88,"N_COORD97":2578234.6400000001,"ADDRESS":"中華路１８之５號六樓之１","OBJECTID":591510},"geometry":{"x":179848.88000000082,"y":2578234.6400000006}},{"attributes":{"ID":591538,"DIS_CODE":0,"TOWNNAME":"新營區","LI":"民權里","LIN":"11鄰","STREET":"中華路","SECT":" ","MAREA":" ","LANE":" ","ALLEY":" ","HOUSE_NO":"１８之５號三樓之１","E_COORD97":179848.88,"N_COORD97":2578234.6400000001,"ADDRESS":"中華路１８之５號三樓之１","OBJECTID":591511},"geometry":{"x":179848.88000000082,"y":2578234.6400000006}},{"attributes":{"ID":591539,"DIS_CODE":0,"TOWNNAME":"新營區","LI":"民權里","LIN":"11鄰","STREET":"中華路","SECT":" ","MAREA":" ","LANE":" ","ALLEY":" ","HOUSE_NO":"１８之５號八樓之３","E_COORD97":179848.97,"N_COORD97":2578234.6400000001,"ADDRESS":"中華路１８之５號八樓之３","OBJECTID":591512},"geometry":{"x":179848.9700000016,"y":2578234.6400000006}},{"attributes":{"ID":591540,"DIS_CODE":0,"TOWNNAME":"新營區","LI":"民權里","LIN":"11鄰","STREET":"中華路","SECT":" ","MAREA":" ","LANE":" ","ALLEY":" ","HOUSE_NO":"１８之５號五樓之２","E_COORD97":179849.01000000001,"N_COORD97":2578234.6400000001,"ADDRESS":"中華路１８之５號五樓之２","OBJECTID":591513},"geometry":{"x":179849.01000000071,"y":2578234.6400000006}},{"attributes":{"ID":591541,"DIS_CODE":0,"TOWNNAME":"南區","LI":"文華里","LIN":"11鄰","STREET":"文南路","SECT":" ","MAREA":" ","LANE":" ","ALLEY":" ","HOUSE_NO":"２４２號二樓","E_COORD97":166964.79000000001,"N_COORD97":2542915.1600000001,"ADDRESS":"文南路２４２號二樓","OBJECTID":591514},"geometry":{"x":166964.79000000004,"y":2542915.160000002}},{"attributes":{"ID":591542,"DIS_CODE":0,"TOWNNAME":"安平區","LI":"建平里","LIN":"11鄰","STREET":"建平十五街","SECT":" ","MAREA":" ","LANE":" ","ALLEY":" ","HOUSE_NO":"５６號六樓之１","E_COORD97":166205.26999999999,"N_COORD97":2544128.6800000002,"ADDRESS":"建平十五街５６號六樓之１","OBJECTID":591515},"geometry":{"x":166205.26999999955,"y":2544128.6800000016}},{"attributes":{"ID":591543,"DIS_CODE":0,"TOWNNAME":"安平區","LI":"建平里","LIN":"11鄰","STREET":"建平十五街","SECT":" ","MAREA":" ","LANE":" ","ALLEY":" ","HOUSE_NO":"５６號六樓之２","E_COORD97":166205.26999999999,"N_COORD97":2544128.6800000002,"ADDRESS":"建平十五街５６號六樓之２","OBJECTID":591516},"geometry":{"x":166205.26999999955,"y":2544128.6800000016}},{"attributes":{"ID":591544,"DIS_CODE":0,"TOWNNAME":"安平區","LI":"建平里","LIN":"11鄰","STREET":"建平十五街","SECT":" ","MAREA":" ","LANE":" ","ALLEY":" ","HOUSE_NO":"５６號六樓之３","E_COORD97":166205.26999999999,"N_COORD97":2544128.6800000002,"ADDRESS":"建平十五街５６號六樓之３","OBJECTID":591517},"geometry":{"x":166205.26999999955,"y":2544128.6800000016}},{"attributes":{"ID":591545,"DIS_CODE":0,"TOWNNAME":"安平區","LI":"建平里","LIN":"11鄰","STREET":"建平十五街","SECT":" ","MAREA":" ","LANE":" ","ALLEY":" ","HOUSE_NO":"５６號六樓之４","E_COORD97":166205.26999999999,"N_COORD97":2544128.6800000002,"ADDRESS":"建平十五街５６號六樓之４","OBJECTID":591518},"geometry":{"x":166205.26999999955,"y":2544128.6800000016}},{"attributes":{"ID":591546,"DIS_CODE":0,"TOWNNAME":"安平區","LI":"建平里","LIN":"11鄰","STREET":"建平十五街","SECT":" ","MAREA":" ","LANE":" ","ALLEY":" ","HOUSE_NO":"５６號四樓之１","E_COORD97":166205.26999999999,"N_COORD97":2544128.6800000002,"ADDRESS":"建平十五街５６號四樓之１","OBJECTID":591519},"geometry":{"x":166205.26999999955,"y":2544128.6800000016}},{"attributes":{"ID":591547,"DIS_CODE":0,"TOWNNAME":"善化區","LI":"坐駕里","LIN":"11鄰","STREET":"自強路","SECT":" ","MAREA":" ","LANE":" ","ALLEY":" ","HOUSE_NO":"１３４號","E_COORD97":177935.88,"N_COORD97":2558709.5,"ADDRESS":"自強路１３４號","OBJECTID":591520},"geometry":{"x":177935.88000000175,"y":2558709.5000000019}},{"attributes":{"ID":591548,"DIS_CODE":0,"TOWNNAME":"安平區","LI":"建平里","LIN":"11鄰","STREET":"建平十五街","SECT":" ","MAREA":" ","LANE":" ","ALLEY":" ","HOUSE_NO":"５６號四樓之２","E_COORD97":166205.26999999999,"N_COORD97":2544128.6800000002,"ADDRESS":"建平十五街５６號四樓之２","OBJECTID":591521},"geometry":{"x":166205.26999999955,"y":2544128.6800000016}},{"attributes":{"ID":591549,"DIS_CODE":0,"TOWNNAME":"安平區","LI":"建平里","LIN":"11鄰","STREET":"建平十五街","SECT":" ","MAREA":" ","LANE":" ","ALLEY":" ","HOUSE_NO":"５６號四樓之３","E_COORD97":166205.26999999999,"N_COORD97":2544128.6800000002,"ADDRESS":"建平十五街５６號四樓之３","OBJECTID":591522},"geometry":{"x":166205.26999999955,"y":2544128.6800000016}},{"attributes":{"ID":591550,"DIS_CODE":0,"TOWNNAME":"安平區","LI":"建平里","LIN":"11鄰","STREET":"建平十五街","SECT":" ","MAREA":" ","LANE":" ","ALLEY":" ","HOUSE_NO":"５６號四樓之４","E_COORD97":166205.26999999999,"N_COORD97":2544128.6800000002,"ADDRESS":"建平十五街５６號四樓之４","OBJECTID":591523},"geometry":{"x":166205.26999999955,"y":2544128.6800000016}},{"attributes":{"ID":591551,"DIS_CODE":0,"TOWNNAME":"安平區","LI":"建平里","LIN":"11鄰","STREET":"建平十五街","SECT":" ","MAREA":" ","LANE":" ","ALLEY":" ","HOUSE_NO":"５６號四樓之５","E_COORD97":166205.26999999999,"N_COORD97":2544128.6800000002,"ADDRESS":"建平十五街５６號四樓之５","OBJECTID":591524},"geometry":{"x":166205.26999999955,"y":2544128.6800000016}},{"attributes":{"ID":591552,"DIS_CODE":0,"TOWNNAME":"新營區","LI":"民權里","LIN":"11鄰","STREET":"中華路","SECT":" ","MAREA":" ","LANE":" ","ALLEY":" ","HOUSE_NO":"１８之５號七樓之３","E_COORD97":179848.97,"N_COORD97":2578234.6400000001,"ADDRESS":"中華路１８之５號七樓之３","OBJECTID":591525},"geometry":{"x":179848.9700000016,"y":2578234.6400000006}},{"attributes":{"ID":591553,"DIS_CODE":0,"TOWNNAME":"新營區","LI":"民權里","LIN":"11鄰","STREET":"中華路","SECT":" ","MAREA":" ","LANE":" ","ALLEY":" ","HOUSE_NO":"１８之５號七樓之１","E_COORD97":179848.88,"N_COORD97":2578234.6400000001,"ADDRESS":"中華路１８之５號七樓之１","OBJECTID":591526},"geometry":{"x":179848.88000000082,"y":2578234.6400000006}},{"attributes":{"ID":591554,"DIS_CODE":0,"TOWNNAME":"新營區","LI":"民權里","LIN":"11鄰","STREET":"中華路","SECT":" ","MAREA":" ","LANE":" ","ALLEY":" ","HOUSE_NO":"１８之５號八樓之４","E_COORD97":179848.89999999999,"N_COORD97":2578234.6400000001,"ADDRESS":"中華路１８之５號八樓之４","OBJECTID":591527},"geometry":{"x":179848.9000000013,"y":2578234.6400000006}},{"attributes":{"ID":591555,"DIS_CODE":0,"TOWNNAME":"學甲區","LI":"仁得里","LIN":"11鄰","STREET":"八德街","SECT":" ","MAREA":" ","LANE":" ","ALLEY":" ","HOUSE_NO":"１６１號五樓之１１","E_COORD97":165875.92999999999,"N_COORD97":2569739.8799999999,"ADDRESS":"八德街１６１號五樓之１１","OBJECTID":591528},"geometry":{"x":165875.93000000156,"y":2569739.8800000027}},{"attributes":{"ID":591556,"DIS_CODE":0,"TOWNNAME":"學甲區","LI":"仁得里","LIN":"11鄰","STREET":"八德街","SECT":" ","MAREA":" ","LANE":" ","ALLEY":" ","HOUSE_NO":"１６１號五樓之１２","E_COORD97":165875.92999999999,"N_COORD97":2569739.8799999999,"ADDRESS":"八德街１６１號五樓之１２","OBJECTID":591529},"geometry":{"x":165875.93000000156,"y":2569739.8800000027}},{"attributes":{"ID":591557,"DIS_CODE":0,"TOWNNAME":"學甲區","LI":"仁得里","LIN":"11鄰","STREET":"八德街","SECT":" ","MAREA":" ","LANE":" ","ALLEY":" ","HOUSE_NO":"１６１號五樓之１３","E_COORD97":165875.92999999999,"N_COORD97":2569739.8799999999,"ADDRESS":"八德街１６１號五樓之１３","OBJECTID":591530},"geometry":{"x":165875.93000000156,"y":2569739.8800000027}},{"attributes":{"ID":591558,"DIS_CODE":0,"TOWNNAME":"學甲區","LI":"仁得里","LIN":"11鄰","STREET":"八德街","SECT":" ","MAREA":" ","LANE":" ","ALLEY":" ","HOUSE_NO":"１６１號五樓之２","E_COORD97":165875.92999999999,"N_COORD97":2569739.8799999999,"ADDRESS":"八德街１６１號五樓之２","OBJECTID":591531},"geometry":{"x":165875.93000000156,"y":2569739.8800000027}},{"attributes":{"ID":591559,"DIS_CODE":0,"TOWNNAME":"學甲區","LI":"仁得里","LIN":"11鄰","STREET":"八德街","SECT":" ","MAREA":" ","LANE":" ","ALLEY":" ","HOUSE_NO":"１６１號五樓之３","E_COORD97":165875.92999999999,"N_COORD97":2569739.8799999999,"ADDRESS":"八德街１６１號五樓之３","OBJECTID":591532},"geometry":{"x":165875.93000000156,"y":2569739.8800000027}},{"attributes":{"ID":591560,"DIS_CODE":0,"TOWNNAME":"學甲區","LI":"仁得里","LIN":"11鄰","STREET":"八德街","SECT":" ","MAREA":" ","LANE":" ","ALLEY":" ","HOUSE_NO":"１６１號五樓之４","E_COORD97":165875.92999999999,"N_COORD97":2569739.8799999999,"ADDRESS":"八德街１６１號五樓之４","OBJECTID":591533},"geometry":{"x":165875.93000000156,"y":2569739.8800000027}},{"attributes":{"ID":591561,"DIS_CODE":0,"TOWNNAME":"學甲區","LI":"仁得里","LIN":"11鄰","STREET":"八德街","SECT":" ","MAREA":" ","LANE":" ","ALLEY":" ","HOUSE_NO":"１６１號五樓之５","E_COORD97":165875.92999999999,"N_COORD97":2569739.8799999999,"ADDRESS":"八德街１６１號五樓之５","OBJECTID":591534},"geometry":{"x":165875.93000000156,"y":2569739.8800000027}},{"attributes":{"ID":591562,"DIS_CODE":0,"TOWNNAME":"學甲區","LI":"仁得里","LIN":"11鄰","STREET":"八德街","SECT":" ","MAREA":" ","LANE":" ","ALLEY":" ","HOUSE_NO":"１６１號五樓之６","E_COORD97":165875.92999999999,"N_COORD97":2569739.8799999999,"ADDRESS":"八德街１６１號五樓之６","OBJECTID":591535},"geometry":{"x":165875.93000000156,"y":2569739.8800000027}},{"attributes":{"ID":591563,"DIS_CODE":0,"TOWNNAME":"學甲區","LI":"仁得里","LIN":"11鄰","STREET":"八德街","SECT":" ","MAREA":" ","LANE":" ","ALLEY":" ","HOUSE_NO":"１６１號五樓之７","E_COORD97":165875.92999999999,"N_COORD97":2569739.8799999999,"ADDRESS":"八德街１６１號五樓之７","OBJECTID":591536},"geometry":{"x":165875.93000000156,"y":2569739.8800000027}},{"attributes":{"ID":591564,"DIS_CODE":0,"TOWNNAME":"學甲區","LI":"仁得里","LIN":"11鄰","STREET":"八德街","SECT":" ","MAREA":" ","LANE":" ","ALLEY":" ","HOUSE_NO":"１６１號五樓之８","E_COORD97":165875.92999999999,"N_COORD97":2569739.8799999999,"ADDRESS":"八德街１６１號五樓之８","OBJECTID":591537},"geometry":{"x":165875.93000000156,"y":2569739.8800000027}},{"attributes":{"ID":591565,"DIS_CODE":0,"TOWNNAME":"學甲區","LI":"仁得里","LIN":"11鄰","STREET":"八德街","SECT":" ","MAREA":" ","LANE":" ","ALLEY":" ","HOUSE_NO":"１６１號五樓之９","E_COORD97":165875.92999999999,"N_COORD97":2569739.8799999999,"ADDRESS":"八德街１６１號五樓之９","OBJECTID":591538},"geometry":{"x":165875.93000000156,"y":2569739.8800000027}},{"attributes":{"ID":591566,"DIS_CODE":0,"TOWNNAME":"學甲區","LI":"仁得里","LIN":"11鄰","STREET":"八德街","SECT":" ","MAREA":" ","LANE":" ","ALLEY":" ","HOUSE_NO":"１６１號六樓之１","E_COORD97":165875.92999999999,"N_COORD97":2569739.8799999999,"ADDRESS":"八德街１６１號六樓之１","OBJECTID":591539},"geometry":{"x":165875.93000000156,"y":2569739.8800000027}},{"attributes":{"ID":591567,"DIS_CODE":0,"TOWNNAME":"學甲區","LI":"仁得里","LIN":"11鄰","STREET":"八德街","SECT":" ","MAREA":" ","LANE":" ","ALLEY":" ","HOUSE_NO":"１６１號六樓之１０","E_COORD97":165875.92999999999,"N_COORD97":2569739.8799999999,"ADDRESS":"八德街１６１號六樓之１０","OBJECTID":591540},"geometry":{"x":165875.93000000156,"y":2569739.8800000027}},{"attributes":{"ID":591568,"DIS_CODE":0,"TOWNNAME":"學甲區","LI":"仁得里","LIN":"11鄰","STREET":"八德街","SECT":" ","MAREA":" ","LANE":" ","ALLEY":" ","HOUSE_NO":"１６１號一樓之１","E_COORD97":165875.92999999999,"N_COORD97":2569739.8799999999,"ADDRESS":"八德街１６１號一樓之１","OBJECTID":591541},"geometry":{"x":165875.93000000156,"y":2569739.8800000027}},{"attributes":{"ID":591569,"DIS_CODE":0,"TOWNNAME":"學甲區","LI":"仁得里","LIN":"11鄰","STREET":"八德街","SECT":" ","MAREA":" ","LANE":" ","ALLEY":" ","HOUSE_NO":"１６１號一樓之２","E_COORD97":165875.92999999999,"N_COORD97":2569739.8799999999,"ADDRESS":"八德街１６１號一樓之２","OBJECTID":591542},"geometry":{"x":165875.93000000156,"y":2569739.8800000027}},{"attributes":{"ID":591570,"DIS_CODE":0,"TOWNNAME":"學甲區","LI":"仁得里","LIN":"11鄰","STREET":"八德街","SECT":" ","MAREA":" ","LANE":" ","ALLEY":" ","HOUSE_NO":"１６１號一樓之３","E_COORD97":165875.92999999999,"N_COORD97":2569739.8799999999,"ADDRESS":"八德街１６１號一樓之３","OBJECTID":591543},"geometry":{"x":165875.93000000156,"y":2569739.8800000027}},{"attributes":{"ID":591571,"DIS_CODE":0,"TOWNNAME":"學甲區","LI":"仁得里","LIN":"11鄰","STREET":"八德街","SECT":" ","MAREA":" ","LANE":" ","ALLEY":" ","HOUSE_NO":"１６１號一樓之４","E_COORD97":165875.92999999999,"N_COORD97":2569739.8799999999,"ADDRESS":"八德街１６１號一樓之４","OBJECTID":591544},"geometry":{"x":165875.93000000156,"y":2569739.8800000027}},{"attributes":{"ID":591572,"DIS_CODE":0,"TOWNNAME":"學甲區","LI":"仁得里","LIN":"11鄰","STREET":"八德街","SECT":" ","MAREA":" ","LANE":" ","ALLEY":" ","HOUSE_NO":"１６１號一樓之５","E_COORD97":165875.92999999999,"N_COORD97":2569739.8799999999,"ADDRESS":"八德街１６１號一樓之５","OBJECTID":591545},"geometry":{"x":165875.93000000156,"y":2569739.8800000027}},{"attributes":{"ID":591573,"DIS_CODE":0,"TOWNNAME":"學甲區","LI":"仁得里","LIN":"11鄰","STREET":"八德街","SECT":" ","MAREA":" ","LANE":" ","ALLEY":" ","HOUSE_NO":"１６１號一樓之６","E_COORD97":165875.92999999999,"N_COORD97":2569739.8799999999,"ADDRESS":"八德街１６１號一樓之６","OBJECTID":591546},"geometry":{"x":165875.93000000156,"y":2569739.8800000027}},{"attributes":{"ID":591574,"DIS_CODE":0,"TOWNNAME":"學甲區","LI":"仁得里","LIN":"11鄰","STREET":"八德街","SECT":" ","MAREA":" ","LANE":" ","ALLEY":" ","HOUSE_NO":"１６１號一樓之７","E_COORD97":165875.92999999999,"N_COORD97":2569739.8799999999,"ADDRESS":"八德街１６１號一樓之７","OBJECTID":591547},"geometry":{"x":165875.93000000156,"y":2569739.8800000027}},{"attributes":{"ID":591575,"DIS_CODE":0,"TOWNNAME":"學甲區","LI":"仁得里","LIN":"11鄰","STREET":"八德街","SECT":" ","MAREA":" ","LANE":" ","ALLEY":" ","HOUSE_NO":"１６１號一樓之８","E_COORD97":165875.92999999999,"N_COORD97":2569739.8799999999,"ADDRESS":"八德街１６１號一樓之８","OBJECTID":591548},"geometry":{"x":165875.93000000156,"y":2569739.8800000027}},{"attributes":{"ID":591576,"DIS_CODE":0,"TOWNNAME":"學甲區","LI":"仁得里","LIN":"11鄰","STREET":"八德街","SECT":" ","MAREA":" ","LANE":" ","ALLEY":" ","HOUSE_NO":"１６１號一樓之９","E_COORD97":165875.92999999999,"N_COORD97":2569739.8799999999,"ADDRESS":"八德街１６１號一樓之９","OBJECTID":591549},"geometry":{"x":165875.93000000156,"y":2569739.8800000027}},{"attributes":{"ID":591577,"DIS_CODE":0,"TOWNNAME":"學甲區","LI":"仁得里","LIN":"11鄰","STREET":"八德街","SECT":" ","MAREA":" ","LANE":" ","ALLEY":" ","HOUSE_NO":"１６１號二樓之１","E_COORD97":165875.92999999999,"N_COORD97":2569739.8799999999,"ADDRESS":"八德街１６１號二樓之１","OBJECTID":591550},"geometry":{"x":165875.93000000156,"y":2569739.8800000027}},{"attributes":{"ID":591578,"DIS_CODE":0,"TOWNNAME":"善化區","LI":"北關里","LIN":"11鄰","STREET":"中華路","SECT":" ","MAREA":" ","LANE":" ","ALLEY":" ","HOUSE_NO":"１７８號","E_COORD97":177242.70000000001,"N_COORD97":2559202.8100000001,"ADDRESS":"中華路１７８號","OBJECTID":591551},"geometry":{"x":177242.70000000112,"y":2559202.8100000024}},{"attributes":{"ID":591579,"DIS_CODE":0,"TOWNNAME":"學甲區","LI":"仁得里","LIN":"11鄰","STREET":"八德街","SECT":" ","MAREA":" ","LANE":" ","ALLEY":" ","HOUSE_NO":"１６１號二樓之２","E_COORD97":165875.92999999999,"N_COORD97":2569739.8799999999,"ADDRESS":"八德街１６１號二樓之２","OBJECTID":591552},"geometry":{"x":165875.93000000156,"y":2569739.8800000027}},{"attributes":{"ID":591580,"DIS_CODE":0,"TOWNNAME":"學甲區","LI":"仁得里","LIN":"11鄰","STREET":"八德街","SECT":" ","MAREA":" ","LANE":" ","ALLEY":" ","HOUSE_NO":"１６１號二樓之３","E_COORD97":165875.92999999999,"N_COORD97":2569739.8799999999,"ADDRESS":"八德街１６１號二樓之３","OBJECTID":591553},"geometry":{"x":165875.93000000156,"y":2569739.8800000027}},{"attributes":{"ID":591581,"DIS_CODE":0,"TOWNNAME":"學甲區","LI":"仁得里","LIN":"11鄰","STREET":"八德街","SECT":" ","MAREA":" ","LANE":" ","ALLEY":" ","HOUSE_NO":"１６１號二樓之４","E_COORD97":165875.92999999999,"N_COORD97":2569739.8799999999,"ADDRESS":"八德街１６１號二樓之４","OBJECTID":591554},"geometry":{"x":165875.93000000156,"y":2569739.8800000027}},{"attributes":{"ID":591582,"DIS_CODE":0,"TOWNNAME":"學甲區","LI":"仁得里","LIN":"11鄰","STREET":"八德街","SECT":" ","MAREA":" ","LANE":" ","ALLEY":" ","HOUSE_NO":"１６１號二樓之５","E_COORD97":165875.92999999999,"N_COORD97":2569739.8799999999,"ADDRESS":"八德街１６１號二樓之５","OBJECTID":591555},"geometry":{"x":165875.93000000156,"y":2569739.8800000027}},{"attributes":{"ID":591583,"DIS_CODE":0,"TOWNNAME":"學甲區","LI":"仁得里","LIN":"11鄰","STREET":"八德街","SECT":" ","MAREA":" ","LANE":" ","ALLEY":" ","HOUSE_NO":"１６１號二樓之６","E_COORD97":165875.92999999999,"N_COORD97":2569739.8799999999,"ADDRESS":"八德街１６１號二樓之６","OBJECTID":591556},"geometry":{"x":165875.93000000156,"y":2569739.8800000027}},{"attributes":{"ID":591584,"DIS_CODE":0,"TOWNNAME":"學甲區","LI":"仁得里","LIN":"11鄰","STREET":"八德街","SECT":" ","MAREA":" ","LANE":" ","ALLEY":" ","HOUSE_NO":"１６１號二樓之７","E_COORD97":165875.92999999999,"N_COORD97":2569739.8799999999,"ADDRESS":"八德街１６１號二樓之７","OBJECTID":591557},"geometry":{"x":165875.93000000156,"y":2569739.8800000027}},{"attributes":{"ID":591585,"DIS_CODE":0,"TOWNNAME":"學甲區","LI":"仁得里","LIN":"11鄰","STREET":"八德街","SECT":" ","MAREA":" ","LANE":" ","ALLEY":" ","HOUSE_NO":"１６１號三樓之１","E_COORD97":165875.92999999999,"N_COORD97":2569739.8799999999,"ADDRESS":"八德街１６１號三樓之１","OBJECTID":591558},"geometry":{"x":165875.93000000156,"y":2569739.8800000027}},{"attributes":{"ID":591586,"DIS_CODE":0,"TOWNNAME":"學甲區","LI":"仁得里","LIN":"11鄰","STREET":"八德街","SECT":" ","MAREA":" ","LANE":" ","ALLEY":" ","HOUSE_NO":"１６１號三樓之１０","E_COORD97":165875.92999999999,"N_COORD97":2569739.8799999999,"ADDRESS":"八德街１６１號三樓之１０","OBJECTID":591559},"geometry":{"x":165875.93000000156,"y":2569739.8800000027}},{"attributes":{"ID":591587,"DIS_CODE":0,"TOWNNAME":"學甲區","LI":"仁得里","LIN":"11鄰","STREET":"八德街","SECT":" ","MAREA":" ","LANE":" ","ALLEY":" ","HOUSE_NO":"１６１號三樓之１１","E_COORD97":165875.92999999999,"N_COORD97":2569739.8799999999,"ADDRESS":"八德街１６１號三樓之１１","OBJECTID":591560},"geometry":{"x":165875.93000000156,"y":2569739.8800000027}},{"attributes":{"ID":591588,"DIS_CODE":0,"TOWNNAME":"學甲區","LI":"仁得里","LIN":"11鄰","STREET":"八德街","SECT":" ","MAREA":" ","LANE":" ","ALLEY":" ","HOUSE_NO":"１６１號三樓之１２","E_COORD97":165875.92999999999,"N_COORD97":2569739.8799999999,"ADDRESS":"八德街１６１號三樓之１２","OBJECTID":591561},"geometry":{"x":165875.93000000156,"y":2569739.8800000027}},{"attributes":{"ID":591589,"DIS_CODE":0,"TOWNNAME":"學甲區","LI":"仁得里","LIN":"11鄰","STREET":"八德街","SECT":" ","MAREA":" ","LANE":" ","ALLEY":" ","HOUSE_NO":"１６１號三樓之１３","E_COORD97":165875.92999999999,"N_COORD97":2569739.8799999999,"ADDRESS":"八德街１６１號三樓之１３","OBJECTID":591562},"geometry":{"x":165875.93000000156,"y":2569739.8800000027}},{"attributes":{"ID":591590,"DIS_CODE":0,"TOWNNAME":"學甲區","LI":"仁得里","LIN":"11鄰","STREET":"八德街","SECT":" ","MAREA":" ","LANE":" ","ALLEY":" ","HOUSE_NO":"１６１號三樓之２","E_COORD97":165875.92999999999,"N_COORD97":2569739.8799999999,"ADDRESS":"八德街１６１號三樓之２","OBJECTID":591563},"geometry":{"x":165875.93000000156,"y":2569739.8800000027}},{"attributes":{"ID":591591,"DIS_CODE":0,"TOWNNAME":"學甲區","LI":"仁得里","LIN":"11鄰","STREET":"八德街","SECT":" ","MAREA":" ","LANE":" ","ALLEY":" ","HOUSE_NO":"１６１號三樓之３","E_COORD97":165875.92999999999,"N_COORD97":2569739.8799999999,"ADDRESS":"八德街１６１號三樓之３","OBJECTID":591564},"geometry":{"x":165875.93000000156,"y":2569739.8800000027}},{"attributes":{"ID":591592,"DIS_CODE":0,"TOWNNAME":"學甲區","LI":"仁得里","LIN":"11鄰","STREET":"八德街","SECT":" ","MAREA":" ","LANE":" ","ALLEY":" ","HOUSE_NO":"１６１號三樓之４","E_COORD97":165875.92999999999,"N_COORD97":2569739.8799999999,"ADDRESS":"八德街１６１號三樓之４","OBJECTID":591565},"geometry":{"x":165875.93000000156,"y":2569739.8800000027}},{"attributes":{"ID":591593,"DIS_CODE":0,"TOWNNAME":"學甲區","LI":"仁得里","LIN":"11鄰","STREET":"八德街","SECT":" ","MAREA":" ","LANE":" ","ALLEY":" ","HOUSE_NO":"１６１號三樓之５","E_COORD97":165875.92999999999,"N_COORD97":2569739.8799999999,"ADDRESS":"八德街１６１號三樓之５","OBJECTID":591566},"geometry":{"x":165875.93000000156,"y":2569739.8800000027}},{"attributes":{"ID":591594,"DIS_CODE":0,"TOWNNAME":"學甲區","LI":"仁得里","LIN":"11鄰","STREET":"八德街","SECT":" ","MAREA":" ","LANE":" ","ALLEY":" ","HOUSE_NO":"１６１號三樓之６","E_COORD97":165875.92999999999,"N_COORD97":2569739.8799999999,"ADDRESS":"八德街１６１號三樓之６","OBJECTID":591567},"geometry":{"x":165875.93000000156,"y":2569739.8800000027}},{"attributes":{"ID":591595,"DIS_CODE":0,"TOWNNAME":"學甲區","LI":"仁得里","LIN":"11鄰","STREET":"八德街","SECT":" ","MAREA":" ","LANE":" ","ALLEY":" ","HOUSE_NO":"１６１號三樓之７","E_COORD97":165875.92999999999,"N_COORD97":2569739.8799999999,"ADDRESS":"八德街１６１號三樓之７","OBJECTID":591568},"geometry":{"x":165875.93000000156,"y":2569739.8800000027}},{"attributes":{"ID":591596,"DIS_CODE":0,"TOWNNAME":"學甲區","LI":"仁得里","LIN":"11鄰","STREET":"八德街","SECT":" ","MAREA":" ","LANE":" ","ALLEY":" ","HOUSE_NO":"１６１號三樓之８","E_COORD97":165875.92999999999,"N_COORD97":2569739.8799999999,"ADDRESS":"八德街１６１號三樓之８","OBJECTID":591569},"geometry":{"x":165875.93000000156,"y":2569739.8800000027}},{"attributes":{"ID":591597,"DIS_CODE":0,"TOWNNAME":"學甲區","LI":"仁得里","LIN":"11鄰","STREET":"八德街","SECT":" ","MAREA":" ","LANE":" ","ALLEY":" ","HOUSE_NO":"１６１號三樓之９","E_COORD97":165875.92999999999,"N_COORD97":2569739.8799999999,"ADDRESS":"八德街１６１號三樓之９","OBJECTID":591570},"geometry":{"x":165875.93000000156,"y":2569739.8800000027}},{"attributes":{"ID":591598,"DIS_CODE":0,"TOWNNAME":"學甲區","LI":"仁得里","LIN":"11鄰","STREET":"八德街","SECT":" ","MAREA":" ","LANE":" ","ALLEY":" ","HOUSE_NO":"１６１號五樓之１","E_COORD97":165875.92999999999,"N_COORD97":2569739.8799999999,"ADDRESS":"八德街１６１號五樓之１","OBJECTID":591571},"geometry":{"x":165875.93000000156,"y":2569739.8800000027}},{"attributes":{"ID":591599,"DIS_CODE":0,"TOWNNAME":"學甲區","LI":"仁得里","LIN":"11鄰","STREET":"八德街","SECT":" ","MAREA":" ","LANE":" ","ALLEY":" ","HOUSE_NO":"１６１號五樓之１０","E_COORD97":165875.92999999999,"N_COORD97":2569739.8799999999,"ADDRESS":"八德街１６１號五樓之１０","OBJECTID":591572},"geometry":{"x":165875.93000000156,"y":2569739.8800000027}},{"attributes":{"ID":591600,"DIS_CODE":0,"TOWNNAME":"學甲區","LI":"仁得里","LIN":"11鄰","STREET":"八德街","SECT":" ","MAREA":" ","LANE":" ","ALLEY":" ","HOUSE_NO":"１６１號六樓之１１","E_COORD97":165875.92999999999,"N_COORD97":2569739.8799999999,"ADDRESS":"八德街１６１號六樓之１１","OBJECTID":591573},"geometry":{"x":165875.93000000156,"y":2569739.8800000027}},{"attributes":{"ID":591601,"DIS_CODE":0,"TOWNNAME":"學甲區","LI":"仁得里","LIN":"11鄰","STREET":"八德街","SECT":" ","MAREA":" ","LANE":" ","ALLEY":" ","HOUSE_NO":"１６１號六樓之１２","E_COORD97":165875.92999999999,"N_COORD97":2569739.8799999999,"ADDRESS":"八德街１６１號六樓之１２","OBJECTID":591574},"geometry":{"x":165875.93000000156,"y":2569739.8800000027}},{"attributes":{"ID":591602,"DIS_CODE":0,"TOWNNAME":"學甲區","LI":"仁得里","LIN":"11鄰","STREET":"八德街","SECT":" ","MAREA":" ","LANE":" ","ALLEY":" ","HOUSE_NO":"１６１號六樓之１３","E_COORD97":165875.92999999999,"N_COORD97":2569739.8799999999,"ADDRESS":"八德街１６１號六樓之１３","OBJECTID":591575},"geometry":{"x":165875.93000000156,"y":2569739.8800000027}},{"attributes":{"ID":591603,"DIS_CODE":0,"TOWNNAME":"學甲區","LI":"仁得里","LIN":"11鄰","STREET":"八德街","SECT":" ","MAREA":" ","LANE":" ","ALLEY":" ","HOUSE_NO":"１６１號六樓之１４","E_COORD97":165875.92999999999,"N_COORD97":2569739.8799999999,"ADDRESS":"八德街１６１號六樓之１４","OBJECTID":591576},"geometry":{"x":165875.93000000156,"y":2569739.8800000027}},{"attributes":{"ID":591604,"DIS_CODE":0,"TOWNNAME":"學甲區","LI":"仁得里","LIN":"11鄰","STREET":"八德街","SECT":" ","MAREA":" ","LANE":" ","ALLEY":" ","HOUSE_NO":"１６１號六樓之２","E_COORD97":165875.92999999999,"N_COORD97":2569739.8799999999,"ADDRESS":"八德街１６１號六樓之２","OBJECTID":591577},"geometry":{"x":165875.93000000156,"y":2569739.8800000027}},{"attributes":{"ID":591605,"DIS_CODE":0,"TOWNNAME":"學甲區","LI":"仁得里","LIN":"11鄰","STREET":"八德街","SECT":" ","MAREA":" ","LANE":" ","ALLEY":" ","HOUSE_NO":"１６１號六樓之３","E_COORD97":165875.92999999999,"N_COORD97":2569739.8799999999,"ADDRESS":"八德街１６１號六樓之３","OBJECTID":591578},"geometry":{"x":165875.93000000156,"y":2569739.8800000027}},{"attributes":{"ID":591606,"DIS_CODE":0,"TOWNNAME":"學甲區","LI":"仁得里","LIN":"11鄰","STREET":"八德街","SECT":" ","MAREA":" ","LANE":" ","ALLEY":" ","HOUSE_NO":"１６１號六樓之４","E_COORD97":165875.92999999999,"N_COORD97":2569739.8799999999,"ADDRESS":"八德街１６１號六樓之４","OBJECTID":591579},"geometry":{"x":165875.93000000156,"y":2569739.8800000027}},{"attributes":{"ID":591607,"DIS_CODE":0,"TOWNNAME":"學甲區","LI":"仁得里","LIN":"11鄰","STREET":"八德街","SECT":" ","MAREA":" ","LANE":" ","ALLEY":" ","HOUSE_NO":"１６１號六樓之５","E_COORD97":165875.92999999999,"N_COORD97":2569739.8799999999,"ADDRESS":"八德街１６１號六樓之５","OBJECTID":591580},"geometry":{"x":165875.93000000156,"y":2569739.8800000027}},{"attributes":{"ID":591608,"DIS_CODE":0,"TOWNNAME":"學甲區","LI":"仁得里","LIN":"11鄰","STREET":"八德街","SECT":" ","MAREA":" ","LANE":" ","ALLEY":" ","HOUSE_NO":"１６１號六樓之６","E_COORD97":165875.92999999999,"N_COORD97":2569739.8799999999,"ADDRESS":"八德街１６１號六樓之６","OBJECTID":591581},"geometry":{"x":165875.93000000156,"y":2569739.8800000027}},{"attributes":{"ID":591609,"DIS_CODE":0,"TOWNNAME":"學甲區","LI":"仁得里","LIN":"11鄰","STREET":"八德街","SECT":" ","MAREA":" ","LANE":" ","ALLEY":" ","HOUSE_NO":"１６１號六樓之７","E_COORD97":165875.92999999999,"N_COORD97":2569739.8799999999,"ADDRESS":"八德街１６１號六樓之７","OBJECTID":591582},"geometry":{"x":165875.93000000156,"y":2569739.8800000027}},{"attributes":{"ID":591610,"DIS_CODE":0,"TOWNNAME":"學甲區","LI":"仁得里","LIN":"11鄰","STREET":"八德街","SECT":" ","MAREA":" ","LANE":" ","ALLEY":" ","HOUSE_NO":"１６１號六樓之８","E_COORD97":165875.92999999999,"N_COORD97":2569739.8799999999,"ADDRESS":"八德街１６１號六樓之８","OBJECTID":591583},"geometry":{"x":165875.93000000156,"y":2569739.8800000027}},{"attributes":{"ID":591611,"DIS_CODE":0,"TOWNNAME":"學甲區","LI":"仁得里","LIN":"11鄰","STREET":"八德街","SECT":" ","MAREA":" ","LANE":" ","ALLEY":" ","HOUSE_NO":"１６１號六樓之９","E_COORD97":165875.92999999999,"N_COORD97":2569739.8799999999,"ADDRESS":"八德街１６１號六樓之９","OBJECTID":591584},"geometry":{"x":165875.93000000156,"y":2569739.8800000027}},{"attributes":{"ID":591612,"DIS_CODE":0,"TOWNNAME":"學甲區","LI":"仁得里","LIN":"11鄰","STREET":"八德街","SECT":" ","MAREA":" ","LANE":" ","ALLEY":" ","HOUSE_NO":"１６１號四樓之１","E_COORD97":165875.92999999999,"N_COORD97":2569739.8799999999,"ADDRESS":"八德街１６１號四樓之１","OBJECTID":591585},"geometry":{"x":165875.93000000156,"y":2569739.8800000027}},{"attributes":{"ID":591613,"DIS_CODE":0,"TOWNNAME":"學甲區","LI":"仁得里","LIN":"11鄰","STREET":"八德街","SECT":" ","MAREA":" ","LANE":" ","ALLEY":" ","HOUSE_NO":"１６１號四樓之１０","E_COORD97":165875.92999999999,"N_COORD97":2569739.8799999999,"ADDRESS":"八德街１６１號四樓之１０","OBJECTID":591586},"geometry":{"x":165875.93000000156,"y":2569739.8800000027}},{"attributes":{"ID":591614,"DIS_CODE":0,"TOWNNAME":"學甲區","LI":"仁得里","LIN":"11鄰","STREET":"八德街","SECT":" ","MAREA":" ","LANE":" ","ALLEY":" ","HOUSE_NO":"１６１號四樓之１１","E_COORD97":165875.92999999999,"N_COORD97":2569739.8799999999,"ADDRESS":"八德街１６１號四樓之１１","OBJECTID":591587},"geometry":{"x":165875.93000000156,"y":2569739.8800000027}},{"attributes":{"ID":591615,"DIS_CODE":0,"TOWNNAME":"學甲區","LI":"仁得里","LIN":"11鄰","STREET":"八德街","SECT":" ","MAREA":" ","LANE":" ","ALLEY":" ","HOUSE_NO":"１６１號四樓之２","E_COORD97":165875.92999999999,"N_COORD97":2569739.8799999999,"ADDRESS":"八德街１６１號四樓之２","OBJECTID":591588},"geometry":{"x":165875.93000000156,"y":2569739.8800000027}},{"attributes":{"ID":591616,"DIS_CODE":0,"TOWNNAME":"學甲區","LI":"仁得里","LIN":"11鄰","STREET":"八德街","SECT":" ","MAREA":" ","LANE":" ","ALLEY":" ","HOUSE_NO":"１６１號四樓之３","E_COORD97":165875.92999999999,"N_COORD97":2569739.8799999999,"ADDRESS":"八德街１６１號四樓之３","OBJECTID":591589},"geometry":{"x":165875.93000000156,"y":2569739.8800000027}},{"attributes":{"ID":591617,"DIS_CODE":0,"TOWNNAME":"學甲區","LI":"仁得里","LIN":"11鄰","STREET":"八德街","SECT":" ","MAREA":" ","LANE":" ","ALLEY":" ","HOUSE_NO":"１６１號四樓之４","E_COORD97":165875.92999999999,"N_COORD97":2569739.8799999999,"ADDRESS":"八德街１６１號四樓之４","OBJECTID":591590},"geometry":{"x":165875.93000000156,"y":2569739.8800000027}},{"attributes":{"ID":591618,"DIS_CODE":0,"TOWNNAME":"學甲區","LI":"仁得里","LIN":"11鄰","STREET":"八德街","SECT":" ","MAREA":" ","LANE":" ","ALLEY":" ","HOUSE_NO":"１６１號四樓之５","E_COORD97":165875.92999999999,"N_COORD97":2569739.8799999999,"ADDRESS":"八德街１６１號四樓之５","OBJECTID":591591},"geometry":{"x":165875.93000000156,"y":2569739.8800000027}},{"attributes":{"ID":591619,"DIS_CODE":0,"TOWNNAME":"學甲區","LI":"仁得里","LIN":"11鄰","STREET":"八德街","SECT":" ","MAREA":" ","LANE":" ","ALLEY":" ","HOUSE_NO":"１６１號四樓之６","E_COORD97":165875.92999999999,"N_COORD97":2569739.8799999999,"ADDRESS":"八德街１６１號四樓之６","OBJECTID":591592},"geometry":{"x":165875.93000000156,"y":2569739.8800000027}},{"attributes":{"ID":591620,"DIS_CODE":0,"TOWNNAME":"學甲區","LI":"仁得里","LIN":"11鄰","STREET":"八德街","SECT":" ","MAREA":" ","LANE":" ","ALLEY":" ","HOUSE_NO":"１６１號四樓之７","E_COORD97":165875.92999999999,"N_COORD97":2569739.8799999999,"ADDRESS":"八德街１６１號四樓之７","OBJECTID":591593},"geometry":{"x":165875.93000000156,"y":2569739.8800000027}},{"attributes":{"ID":591621,"DIS_CODE":0,"TOWNNAME":"學甲區","LI":"仁得里","LIN":"11鄰","STREET":"八德街","SECT":" ","MAREA":" ","LANE":" ","ALLEY":" ","HOUSE_NO":"１６１號四樓之８","E_COORD97":165875.92999999999,"N_COORD97":2569739.8799999999,"ADDRESS":"八德街１６１號四樓之８","OBJECTID":591594},"geometry":{"x":165875.93000000156,"y":2569739.8800000027}},{"attributes":{"ID":591622,"DIS_CODE":0,"TOWNNAME":"學甲區","LI":"仁得里","LIN":"11鄰","STREET":"八德街","SECT":" ","MAREA":" ","LANE":" ","ALLEY":" ","HOUSE_NO":"１６１號四樓之９","E_COORD97":165875.92999999999,"N_COORD97":2569739.8799999999,"ADDRESS":"八德街１６１號四樓之９","OBJECTID":591595},"geometry":{"x":165875.93000000156,"y":2569739.8800000027}},{"attributes":{"ID":591623,"DIS_CODE":0,"TOWNNAME":"新化區","LI":"太平里","LIN":"11鄰","STREET":"正新北路","SECT":" ","MAREA":" ","LANE":" ","ALLEY":" ","HOUSE_NO":"３２號三樓之１","E_COORD97":178707.95000000001,"N_COORD97":2549121.2599999998,"ADDRESS":"正新北路３２號三樓之１","OBJECTID":591596},"geometry":{"x":178707.95000000019,"y":2549121.2600000035}},{"attributes":{"ID":591624,"DIS_CODE":0,"TOWNNAME":"新化區","LI":"太平里","LIN":"11鄰","STREET":"正新北路","SECT":" ","MAREA":" ","LANE":" ","ALLEY":" ","HOUSE_NO":"３２號四樓之２","E_COORD97":178707.97,"N_COORD97":2549121.2599999998,"ADDRESS":"正新北路３２號四樓之２","OBJECTID":591597},"geometry":{"x":178707.96999999974,"y":2549121.2600000035}},{"attributes":{"ID":591625,"DIS_CODE":0,"TOWNNAME":"新化區","LI":"太平里","LIN":"11鄰","STREET":"正新北路","SECT":" ","MAREA":" ","LANE":" ","ALLEY":" ","HOUSE_NO":"３６號三樓之１","E_COORD97":178707.95000000001,"N_COORD97":2549121.2599999998,"ADDRESS":"正新北路３６號三樓之１","OBJECTID":591598},"geometry":{"x":178707.95000000019,"y":2549121.2600000035}},{"attributes":{"ID":591626,"DIS_CODE":0,"TOWNNAME":"新化區","LI":"太平里","LIN":"11鄰","STREET":"正新北路","SECT":" ","MAREA":" ","LANE":" ","ALLEY":" ","HOUSE_NO":"３２號五樓之３","E_COORD97":178707.97,"N_COORD97":2549121.2599999998,"ADDRESS":"正新北路３２號五樓之３","OBJECTID":591599},"geometry":{"x":178707.96999999974,"y":2549121.2600000035}},{"attributes":{"ID":591627,"DIS_CODE":0,"TOWNNAME":"新化區","LI":"太平里","LIN":"11鄰","STREET":"正新北路","SECT":" ","MAREA":" ","LANE":" ","ALLEY":" ","HOUSE_NO":"３６號五樓之１","E_COORD97":178707.95000000001,"N_COORD97":2549121.2599999998,"ADDRESS":"正新北路３６號五樓之１","OBJECTID":591600},"geometry":{"x":178707.95000000019,"y":2549121.2600000035}}]}