{"displayFieldName":"TOWNNAME","fieldAliases":{"ID":"ID","DIS_CODE":"DIS_CODE","TOWNNAME":"TOWNNAME","LI":"LI","LIN":"LIN","STREET":"STREET","SECT":"SECT","MAREA":"MAREA","LANE":"LANE","ALLEY":"ALLEY","HOUSE_NO":"HOUSE_NO","E_COORD97":"E_COORD97","N_COORD97":"N_COORD97","ADDRESS":"ADDRESS","OBJECTID":"OBJECTID"},"geometryType":"esriGeometryPoint","spatialReference":{"wkid":102443,"latestWkid":3826},"fields":[{"name":"ID","type":"esriFieldTypeDouble","alias":"ID"},{"name":"DIS_CODE","type":"esriFieldTypeInteger","alias":"DIS_CODE"},{"name":"TOWNNAME","type":"esriFieldTypeString","alias":"TOWNNAME","length":8},{"name":"LI","type":"esriFieldTypeString","alias":"LI","length":8},{"name":"LIN","type":"esriFieldTypeString","alias":"LIN","length":12},{"name":"STREET","type":"esriFieldTypeString","alias":"STREET","length":20},{"name":"SECT","type":"esriFieldTypeString","alias":"SECT","length":8},{"name":"MAREA","type":"esriFieldTypeString","alias":"MAREA","length":12},{"name":"LANE","type":"esriFieldTypeString","alias":"LANE","length":10},{"name":"ALLEY","type":"esriFieldTypeString","alias":"ALLEY","length":10},{"name":"HOUSE_NO","type":"esriFieldTypeString","alias":"HOUSE_NO","length":20},{"name":"E_COORD97","type":"esriFieldTypeDouble","alias":"E_COORD97"},{"name":"N_COORD97","type":"esriFieldTypeDouble","alias":"N_COORD97"},{"name":"ADDRESS","type":"esriFieldTypeString","alias":"ADDRESS","length":50},{"name":"OBJECTID","type":"esriFieldTypeOID","alias":"OBJECTID"}],"features":[{"attributes":{"ID":130401,"DIS_CODE":0,"TOWNNAME":"六甲區","LI":"菁埔里","LIN":"7鄰","STREET":" ","SECT":" ","MAREA":"菁埔","LANE":" ","ALLEY":" ","HOUSE_NO":"２５２號","E_COORD97":178355.07000000001,"N_COORD97":2569898.1400000001,"ADDRESS":"菁埔２５２號","OBJECTID":130401},"geometry":{"x":178355.0700000003,"y":2569898.1400000006}},{"attributes":{"ID":130402,"DIS_CODE":0,"TOWNNAME":"六甲區","LI":"菁埔里","LIN":"7鄰","STREET":" ","SECT":" ","MAREA":"菁埔","LANE":" ","ALLEY":" ","HOUSE_NO":"２５６之６號","E_COORD97":178046.19,"N_COORD97":2569659.9700000002,"ADDRESS":"菁埔２５６之６號","OBJECTID":130402},"geometry":{"x":178046.19000000227,"y":2569659.9700000044}},{"attributes":{"ID":130403,"DIS_CODE":0,"TOWNNAME":"六甲區","LI":"菁埔里","LIN":"7鄰","STREET":" ","SECT":" ","MAREA":"菁埔","LANE":" ","ALLEY":" ","HOUSE_NO":"２５６號","E_COORD97":178065.39000000001,"N_COORD97":2569739.3100000001,"ADDRESS":"菁埔２５６號","OBJECTID":130403},"geometry":{"x":178065.38999999966,"y":2569739.3100000024}},{"attributes":{"ID":130404,"DIS_CODE":0,"TOWNNAME":"六甲區","LI":"菁埔里","LIN":"6鄰","STREET":" ","SECT":" ","MAREA":"菁埔","LANE":" ","ALLEY":" ","HOUSE_NO":"１５７號","E_COORD97":178811.19,"N_COORD97":2570454.6600000001,"ADDRESS":"菁埔１５７號","OBJECTID":130404},"geometry":{"x":178811.19000000134,"y":2570454.6600000039}},{"attributes":{"ID":130405,"DIS_CODE":0,"TOWNNAME":"六甲區","LI":"菁埔里","LIN":"6鄰","STREET":" ","SECT":" ","MAREA":"菁埔","LANE":" ","ALLEY":" ","HOUSE_NO":"１５８號","E_COORD97":178798.82999999999,"N_COORD97":2570463,"ADDRESS":"菁埔１５８號","OBJECTID":130405},"geometry":{"x":178798.83000000007,"y":2570463.0000000019}},{"attributes":{"ID":130406,"DIS_CODE":0,"TOWNNAME":"六甲區","LI":"菁埔里","LIN":"6鄰","STREET":" ","SECT":" ","MAREA":"菁埔","LANE":" ","ALLEY":" ","HOUSE_NO":"１６０號","E_COORD97":178813.39999999999,"N_COORD97":2570488.73,"ADDRESS":"菁埔１６０號","OBJECTID":130406},"geometry":{"x":178813.4000000013,"y":2570488.7300000023}},{"attributes":{"ID":130407,"DIS_CODE":0,"TOWNNAME":"六甲區","LI":"菁埔里","LIN":"6鄰","STREET":" ","SECT":" ","MAREA":"菁埔","LANE":" ","ALLEY":" ","HOUSE_NO":"１６２號","E_COORD97":178840.39000000001,"N_COORD97":2570483.4500000002,"ADDRESS":"菁埔１６２號","OBJECTID":130407},"geometry":{"x":178840.38999999966,"y":2570483.4500000011}},{"attributes":{"ID":130408,"DIS_CODE":0,"TOWNNAME":"六甲區","LI":"菁埔里","LIN":"6鄰","STREET":" ","SECT":" ","MAREA":"菁埔","LANE":" ","ALLEY":" ","HOUSE_NO":"１７２號","E_COORD97":178843,"N_COORD97":2570339.98,"ADDRESS":"菁埔１７２號","OBJECTID":130408},"geometry":{"x":178843,"y":2570339.9800000004}},{"attributes":{"ID":130409,"DIS_CODE":0,"TOWNNAME":"六甲區","LI":"菁埔里","LIN":"6鄰","STREET":" ","SECT":" ","MAREA":"菁埔","LANE":" ","ALLEY":" ","HOUSE_NO":"１７４號","E_COORD97":178808.07000000001,"N_COORD97":2570418.8300000001,"ADDRESS":"菁埔１７４號","OBJECTID":130409},"geometry":{"x":178808.07000000216,"y":2570418.8300000001}},{"attributes":{"ID":130410,"DIS_CODE":0,"TOWNNAME":"六甲區","LI":"菁埔里","LIN":"4鄰","STREET":" ","SECT":" ","MAREA":"菁埔","LANE":" ","ALLEY":" ","HOUSE_NO":"３之１號","E_COORD97":179120.01999999999,"N_COORD97":2570857.1800000002,"ADDRESS":"菁埔３之１號","OBJECTID":130410},"geometry":{"x":179120.02000000048,"y":2570857.1799999997}},{"attributes":{"ID":130411,"DIS_CODE":0,"TOWNNAME":"東區","LI":"龍山里","LIN":"6鄰","STREET":"林森路","SECT":"一段","MAREA":" ","LANE":" ","ALLEY":" ","HOUSE_NO":"３７７號十二樓","E_COORD97":170159.37,"N_COORD97":2542824.73,"ADDRESS":"林森路一段３７７號十二樓","OBJECTID":130411},"geometry":{"x":170159.37000000104,"y":2542824.7300000004}},{"attributes":{"ID":130412,"DIS_CODE":0,"TOWNNAME":"東區","LI":"龍山里","LIN":"6鄰","STREET":"林森路","SECT":"一段","MAREA":" ","LANE":" ","ALLEY":" ","HOUSE_NO":"３７７號十二樓之１","E_COORD97":170159.37,"N_COORD97":2542824.73,"ADDRESS":"林森路一段３７７號十二樓之１","OBJECTID":130412},"geometry":{"x":170159.37000000104,"y":2542824.7300000004}},{"attributes":{"ID":130413,"DIS_CODE":0,"TOWNNAME":"東區","LI":"龍山里","LIN":"6鄰","STREET":"林森路","SECT":"一段","MAREA":" ","LANE":" ","ALLEY":" ","HOUSE_NO":"３７７號十二樓之２","E_COORD97":170159.37,"N_COORD97":2542824.73,"ADDRESS":"林森路一段３７７號十二樓之２","OBJECTID":130413},"geometry":{"x":170159.37000000104,"y":2542824.7300000004}},{"attributes":{"ID":130414,"DIS_CODE":0,"TOWNNAME":"東區","LI":"龍山里","LIN":"6鄰","STREET":"林森路","SECT":"一段","MAREA":" ","LANE":" ","ALLEY":" ","HOUSE_NO":"３７７號十二樓之３","E_COORD97":170159.37,"N_COORD97":2542824.73,"ADDRESS":"林森路一段３７７號十二樓之３","OBJECTID":130414},"geometry":{"x":170159.37000000104,"y":2542824.7300000004}},{"attributes":{"ID":130415,"DIS_CODE":0,"TOWNNAME":"永康區","LI":"大橋里","LIN":"6鄰","STREET":"大橋五街","SECT":" ","MAREA":" ","LANE":" ","ALLEY":" ","HOUSE_NO":"７０號二樓","E_COORD97":170893.81,"N_COORD97":2546918.0899999999,"ADDRESS":"大橋五街７０號二樓","OBJECTID":130415},"geometry":{"x":170893.80999999959,"y":2546918.0899999999}},{"attributes":{"ID":130416,"DIS_CODE":0,"TOWNNAME":"中西區","LI":"光賢里","LIN":"11鄰","STREET":"和善街","SECT":" ","MAREA":" ","LANE":"１２５巷","ALLEY":"１２弄","HOUSE_NO":"２０號","E_COORD97":166820.32999999999,"N_COORD97":2544832.8500000001,"ADDRESS":"和善街１２５巷１２弄２０號","OBJECTID":130416},"geometry":{"x":166820.33000000007,"y":2544832.8500000015}},{"attributes":{"ID":130417,"DIS_CODE":0,"TOWNNAME":"中西區","LI":"光賢里","LIN":"11鄰","STREET":"和善街","SECT":" ","MAREA":" ","LANE":"１２５巷","ALLEY":"１２弄","HOUSE_NO":"２１號","E_COORD97":166805.54999999999,"N_COORD97":2544823.0899999999,"ADDRESS":"和善街１２５巷１２弄２１號","OBJECTID":130417},"geometry":{"x":166805.54999999981,"y":2544823.0899999999}},{"attributes":{"ID":130418,"DIS_CODE":0,"TOWNNAME":"中西區","LI":"光賢里","LIN":"11鄰","STREET":"和善街","SECT":" ","MAREA":" ","LANE":"１２５巷","ALLEY":"１２弄","HOUSE_NO":"２２號","E_COORD97":166815.88,"N_COORD97":2544836.0299999998,"ADDRESS":"和善街１２５巷１２弄２２號","OBJECTID":130418},"geometry":{"x":166815.88000000082,"y":2544836.0299999993}},{"attributes":{"ID":130419,"DIS_CODE":0,"TOWNNAME":"中西區","LI":"光賢里","LIN":"11鄰","STREET":"和善街","SECT":" ","MAREA":" ","LANE":"１２５巷","ALLEY":"１２弄","HOUSE_NO":"２號","E_COORD97":166849.10999999999,"N_COORD97":2544809.5699999998,"ADDRESS":"和善街１２５巷１２弄２號","OBJECTID":130419},"geometry":{"x":166849.11000000127,"y":2544809.5700000003}},{"attributes":{"ID":130420,"DIS_CODE":0,"TOWNNAME":"中西區","LI":"光賢里","LIN":"11鄰","STREET":"和善街","SECT":" ","MAREA":" ","LANE":"１２５巷","ALLEY":"１２弄","HOUSE_NO":"３號","E_COORD97":166835.01999999999,"N_COORD97":2544798.4500000002,"ADDRESS":"和善街１２５巷１２弄３號","OBJECTID":130420},"geometry":{"x":166835.02000000048,"y":2544798.4500000011}},{"attributes":{"ID":130421,"DIS_CODE":0,"TOWNNAME":"中西區","LI":"光賢里","LIN":"11鄰","STREET":"和善街","SECT":" ","MAREA":" ","LANE":"１２５巷","ALLEY":"１２弄","HOUSE_NO":"４號","E_COORD97":166815.20000000001,"N_COORD97":2544774.8300000001,"ADDRESS":"和善街１２５巷１２弄４號","OBJECTID":130421},"geometry":{"x":166815.19999999925,"y":2544774.8300000038}},{"attributes":{"ID":130422,"DIS_CODE":0,"TOWNNAME":"中西區","LI":"光賢里","LIN":"11鄰","STREET":"和善街","SECT":" ","MAREA":" ","LANE":"１２５巷","ALLEY":"１２弄","HOUSE_NO":"５號","E_COORD97":166831.70999999999,"N_COORD97":2544801.25,"ADDRESS":"和善街１２５巷１２弄５號","OBJECTID":130422},"geometry":{"x":166831.70999999996,"y":2544801.25}},{"attributes":{"ID":130423,"DIS_CODE":0,"TOWNNAME":"中西區","LI":"光賢里","LIN":"11鄰","STREET":"和善街","SECT":" ","MAREA":" ","LANE":"１２５巷","ALLEY":"１２弄","HOUSE_NO":"６號","E_COORD97":166843.19,"N_COORD97":2544814.8599999999,"ADDRESS":"和善街１２５巷１２弄６號","OBJECTID":130423},"geometry":{"x":166843.19000000134,"y":2544814.8600000013}},{"attributes":{"ID":130424,"DIS_CODE":0,"TOWNNAME":"中西區","LI":"光賢里","LIN":"11鄰","STREET":"和善街","SECT":" ","MAREA":" ","LANE":"１２５巷","ALLEY":"１２弄","HOUSE_NO":"７號","E_COORD97":166828.16,"N_COORD97":2544803.79,"ADDRESS":"和善街１２５巷１２弄７號","OBJECTID":130424},"geometry":{"x":166828.16000000108,"y":2544803.7899999991}},{"attributes":{"ID":130425,"DIS_CODE":0,"TOWNNAME":"中西區","LI":"光賢里","LIN":"11鄰","STREET":"和善街","SECT":" ","MAREA":" ","LANE":"１２５巷","ALLEY":"１２弄","HOUSE_NO":"９號","E_COORD97":166825.35999999999,"N_COORD97":2544806.5800000001,"ADDRESS":"和善街１２５巷１２弄９號","OBJECTID":130425},"geometry":{"x":166825.36000000127,"y":2544806.5800000001}},{"attributes":{"ID":130426,"DIS_CODE":0,"TOWNNAME":"永康區","LI":"大橋里","LIN":"15鄰","STREET":"大橋一街","SECT":" ","MAREA":" ","LANE":"７３巷","ALLEY":"４０弄","HOUSE_NO":"８號","E_COORD97":170905.48999999999,"N_COORD97":2546525.5,"ADDRESS":"大橋一街７３巷４０弄８號","OBJECTID":130426},"geometry":{"x":170905.48999999929,"y":2546525.5}},{"attributes":{"ID":130427,"DIS_CODE":0,"TOWNNAME":"永康區","LI":"二王里","LIN":"21鄰","STREET":"中山南路","SECT":" ","MAREA":" ","LANE":"６４４巷","ALLEY":"３９弄","HOUSE_NO":"１號之１","E_COORD97":172415.10000000001,"N_COORD97":2546547.54,"ADDRESS":"中山南路６４４巷３９弄１號之１","OBJECTID":130427},"geometry":{"x":172415.10000000056,"y":2546547.5399999991}},{"attributes":{"ID":130428,"DIS_CODE":0,"TOWNNAME":"永康區","LI":"二王里","LIN":"45鄰","STREET":"南工街","SECT":" ","MAREA":" ","LANE":"２１２巷","ALLEY":"１３弄","HOUSE_NO":"１０號","E_COORD97":172125.32999999999,"N_COORD97":2545978.46,"ADDRESS":"南工街２１２巷１３弄１０號","OBJECTID":130428},"geometry":{"x":172125.33000000194,"y":2545978.4600000046}},{"attributes":{"ID":130429,"DIS_CODE":0,"TOWNNAME":"中西區","LI":"光賢里","LIN":"11鄰","STREET":"和善街","SECT":" ","MAREA":" ","LANE":"１２５巷","ALLEY":"３４弄","HOUSE_NO":"１２號","E_COORD97":166802,"N_COORD97":2544785.25,"ADDRESS":"和善街１２５巷３４弄１２號","OBJECTID":130429},"geometry":{"x":166802.00000000093,"y":2544785.2499999981}},{"attributes":{"ID":130430,"DIS_CODE":0,"TOWNNAME":"中西區","LI":"光賢里","LIN":"11鄰","STREET":"和善街","SECT":" ","MAREA":" ","LANE":"１２５巷","ALLEY":"３４弄","HOUSE_NO":"１４號","E_COORD97":166798.95000000001,"N_COORD97":2544787.79,"ADDRESS":"和善街１２５巷３４弄１４號","OBJECTID":130430},"geometry":{"x":166798.95000000112,"y":2544787.7900000028}},{"attributes":{"ID":130431,"DIS_CODE":0,"TOWNNAME":"中西區","LI":"光賢里","LIN":"11鄰","STREET":"和善街","SECT":" ","MAREA":" ","LANE":"１２５巷","ALLEY":"３４弄","HOUSE_NO":"１６號","E_COORD97":166795.64999999999,"N_COORD97":2544790.5800000001,"ADDRESS":"和善街１２５巷３４弄１６號","OBJECTID":130431},"geometry":{"x":166795.6500000013,"y":2544790.5800000019}},{"attributes":{"ID":130432,"DIS_CODE":0,"TOWNNAME":"中西區","LI":"光賢里","LIN":"11鄰","STREET":"和善街","SECT":" ","MAREA":" ","LANE":"１２５巷","ALLEY":"３４弄","HOUSE_NO":"１８號","E_COORD97":166792.34,"N_COORD97":2544793.3799999999,"ADDRESS":"和善街１２５巷３４弄１８號","OBJECTID":130432},"geometry":{"x":166792.34000000078,"y":2544793.3799999971}},{"attributes":{"ID":130433,"DIS_CODE":0,"TOWNNAME":"中西區","LI":"光賢里","LIN":"11鄰","STREET":"和善街","SECT":" ","MAREA":" ","LANE":"１２５巷","ALLEY":"３４弄","HOUSE_NO":"１號","E_COORD97":166787.51999999999,"N_COORD97":2544777.3700000001,"ADDRESS":"和善街１２５巷３４弄１號","OBJECTID":130433},"geometry":{"x":166787.52000000048,"y":2544777.370000001}},{"attributes":{"ID":130434,"DIS_CODE":0,"TOWNNAME":"中西區","LI":"光賢里","LIN":"11鄰","STREET":"和善街","SECT":" ","MAREA":" ","LANE":"１２５巷","ALLEY":"３４弄","HOUSE_NO":"２０號","E_COORD97":166789.04000000001,"N_COORD97":2544795.9199999999,"ADDRESS":"和善街１２５巷３４弄２０號","OBJECTID":130434},"geometry":{"x":166789.03999999911,"y":2544795.9200000018}},{"attributes":{"ID":130435,"DIS_CODE":0,"TOWNNAME":"六甲區","LI":"菁埔里","LIN":"4鄰","STREET":" ","SECT":" ","MAREA":"菁埔","LANE":" ","ALLEY":" ","HOUSE_NO":"４２號","E_COORD97":179098.72,"N_COORD97":2570882.4300000002,"ADDRESS":"菁埔４２號","OBJECTID":130435},"geometry":{"x":179098.72000000067,"y":2570882.4299999997}},{"attributes":{"ID":130436,"DIS_CODE":0,"TOWNNAME":"六甲區","LI":"菁埔里","LIN":"4鄰","STREET":" ","SECT":" ","MAREA":"菁埔","LANE":" ","ALLEY":" ","HOUSE_NO":"４６號","E_COORD97":179068.39000000001,"N_COORD97":2570829.1499999999,"ADDRESS":"菁埔４６號","OBJECTID":130436},"geometry":{"x":179068.3900000006,"y":2570829.1500000022}},{"attributes":{"ID":130437,"DIS_CODE":0,"TOWNNAME":"六甲區","LI":"菁埔里","LIN":"4鄰","STREET":" ","SECT":" ","MAREA":"菁埔","LANE":" ","ALLEY":" ","HOUSE_NO":"４７號","E_COORD97":179059.32000000001,"N_COORD97":2570842.25,"ADDRESS":"菁埔４７號","OBJECTID":130437},"geometry":{"x":179059.32000000123,"y":2570842.25}},{"attributes":{"ID":130438,"DIS_CODE":0,"TOWNNAME":"六甲區","LI":"菁埔里","LIN":"4鄰","STREET":" ","SECT":" ","MAREA":"菁埔","LANE":" ","ALLEY":" ","HOUSE_NO":"４８號","E_COORD97":179045.44,"N_COORD97":2570845.2999999998,"ADDRESS":"菁埔４８號","OBJECTID":130438},"geometry":{"x":179045.44000000134,"y":2570845.3000000026}},{"attributes":{"ID":130439,"DIS_CODE":0,"TOWNNAME":"六甲區","LI":"菁埔里","LIN":"4鄰","STREET":" ","SECT":" ","MAREA":"菁埔","LANE":" ","ALLEY":" ","HOUSE_NO":"５２號","E_COORD97":178985.60999999999,"N_COORD97":2570784.8300000001,"ADDRESS":"菁埔５２號","OBJECTID":130439},"geometry":{"x":178985.61000000034,"y":2570784.8300000001}},{"attributes":{"ID":130440,"DIS_CODE":0,"TOWNNAME":"六甲區","LI":"菁埔里","LIN":"4鄰","STREET":" ","SECT":" ","MAREA":"菁埔","LANE":" ","ALLEY":" ","HOUSE_NO":"５６號","E_COORD97":178959.13,"N_COORD97":2570717.0499999998,"ADDRESS":"菁埔５６號","OBJECTID":130440},"geometry":{"x":178959.12999999989,"y":2570717.0500000045}},{"attributes":{"ID":130441,"DIS_CODE":0,"TOWNNAME":"中西區","LI":"光賢里","LIN":"11鄰","STREET":"和善街","SECT":" ","MAREA":" ","LANE":"１２５巷","ALLEY":"３４弄","HOUSE_NO":"２２號","E_COORD97":166785.73999999999,"N_COORD97":2544798.7000000002,"ADDRESS":"和善街１２５巷３４弄２２號","OBJECTID":130441},"geometry":{"x":166785.74000000022,"y":2544798.700000003}},{"attributes":{"ID":130442,"DIS_CODE":0,"TOWNNAME":"安定區","LI":"大同里","LIN":"5鄰","STREET":" ","SECT":" ","MAREA":"大同","LANE":" ","ALLEY":" ","HOUSE_NO":"５７號","E_COORD97":170393.76999999999,"N_COORD97":2553922.25,"ADDRESS":"大同５７號","OBJECTID":130442},"geometry":{"x":170393.76999999955,"y":2553922.2499999981}},{"attributes":{"ID":130443,"DIS_CODE":0,"TOWNNAME":"六甲區","LI":"菁埔里","LIN":"4鄰","STREET":" ","SECT":" ","MAREA":"菁埔","LANE":" ","ALLEY":" ","HOUSE_NO":"５９號","E_COORD97":178906.39999999999,"N_COORD97":2570667.8900000001,"ADDRESS":"菁埔５９號","OBJECTID":130443},"geometry":{"x":178906.4000000013,"y":2570667.8900000025}},{"attributes":{"ID":130444,"DIS_CODE":0,"TOWNNAME":"六甲區","LI":"菁埔里","LIN":"4鄰","STREET":" ","SECT":" ","MAREA":"菁埔","LANE":" ","ALLEY":" ","HOUSE_NO":"５號","E_COORD97":179117.42999999999,"N_COORD97":2570832.8900000001,"ADDRESS":"菁埔５號","OBJECTID":130444},"geometry":{"x":179117.43000000063,"y":2570832.8900000006}},{"attributes":{"ID":130445,"DIS_CODE":0,"TOWNNAME":"六甲區","LI":"菁埔里","LIN":"4鄰","STREET":" ","SECT":" ","MAREA":"菁埔","LANE":" ","ALLEY":" ","HOUSE_NO":"６１號","E_COORD97":178860.03,"N_COORD97":2570723.7000000002,"ADDRESS":"菁埔６１號","OBJECTID":130445},"geometry":{"x":178860.03000000026,"y":2570723.6999999993}},{"attributes":{"ID":130446,"DIS_CODE":0,"TOWNNAME":"六甲區","LI":"菁埔里","LIN":"4鄰","STREET":" ","SECT":" ","MAREA":"菁埔","LANE":" ","ALLEY":" ","HOUSE_NO":"６６號","E_COORD97":178698.25,"N_COORD97":2570720.3799999999,"ADDRESS":"菁埔６６號","OBJECTID":130446},"geometry":{"x":178698.25000000093,"y":2570720.3800000008}},{"attributes":{"ID":130447,"DIS_CODE":0,"TOWNNAME":"六甲區","LI":"菁埔里","LIN":"4鄰","STREET":" ","SECT":" ","MAREA":"菁埔","LANE":" ","ALLEY":" ","HOUSE_NO":"６９號","E_COORD97":178663.06,"N_COORD97":2570818.6400000001,"ADDRESS":"菁埔６９號","OBJECTID":130447},"geometry":{"x":178663.05999999959,"y":2570818.6400000025}},{"attributes":{"ID":130448,"DIS_CODE":0,"TOWNNAME":"六甲區","LI":"菁埔里","LIN":"4鄰","STREET":" ","SECT":" ","MAREA":"菁埔","LANE":" ","ALLEY":" ","HOUSE_NO":"７２號","E_COORD97":178426.47,"N_COORD97":2570791.79,"ADDRESS":"菁埔７２號","OBJECTID":130448},"geometry":{"x":178426.46999999974,"y":2570791.7900000028}},{"attributes":{"ID":130449,"DIS_CODE":0,"TOWNNAME":"六甲區","LI":"菁埔里","LIN":"4鄰","STREET":" ","SECT":" ","MAREA":"菁埔","LANE":" ","ALLEY":" ","HOUSE_NO":"８０號","E_COORD97":178681.60999999999,"N_COORD97":2570606.6499999999,"ADDRESS":"菁埔８０號","OBJECTID":130449},"geometry":{"x":178681.61000000034,"y":2570606.6500000004}},{"attributes":{"ID":130450,"DIS_CODE":0,"TOWNNAME":"六甲區","LI":"菁埔里","LIN":"4鄰","STREET":" ","SECT":" ","MAREA":"菁埔","LANE":" ","ALLEY":" ","HOUSE_NO":"８１號","E_COORD97":178657.72,"N_COORD97":2570596.79,"ADDRESS":"菁埔８１號","OBJECTID":130450},"geometry":{"x":178657.72000000067,"y":2570596.790000001}},{"attributes":{"ID":130451,"DIS_CODE":0,"TOWNNAME":"中西區","LI":"光賢里","LIN":"11鄰","STREET":"和善街","SECT":" ","MAREA":" ","LANE":"１２５巷","ALLEY":"３４弄","HOUSE_NO":"２號","E_COORD97":166818.25,"N_COORD97":2544772.04,"ADDRESS":"和善街１２５巷３４弄２號","OBJECTID":130451},"geometry":{"x":166818.25000000186,"y":2544772.0399999972}},{"attributes":{"ID":130452,"DIS_CODE":0,"TOWNNAME":"中西區","LI":"光賢里","LIN":"11鄰","STREET":"和善街","SECT":" ","MAREA":" ","LANE":"１２５巷","ALLEY":"３４弄","HOUSE_NO":"４號","E_COORD97":167073.91,"N_COORD97":2544914.2799999998,"ADDRESS":"和善街１２５巷３４弄４號","OBJECTID":130452},"geometry":{"x":167073.91000000108,"y":2544914.2800000012}},{"attributes":{"ID":130453,"DIS_CODE":0,"TOWNNAME":"中西區","LI":"光賢里","LIN":"11鄰","STREET":"和善街","SECT":" ","MAREA":" ","LANE":"１２５巷","ALLEY":"３４弄","HOUSE_NO":"６號","E_COORD97":166811.64999999999,"N_COORD97":2544777.3700000001,"ADDRESS":"和善街１２５巷３４弄６號","OBJECTID":130453},"geometry":{"x":166811.65000000037,"y":2544777.370000001}},{"attributes":{"ID":130454,"DIS_CODE":0,"TOWNNAME":"東區","LI":"崇善里","LIN":"6鄰","STREET":"崇善六街","SECT":" ","MAREA":" ","LANE":" ","ALLEY":" ","HOUSE_NO":"５５號二樓","E_COORD97":171157.17999999999,"N_COORD97":2541562.9199999999,"ADDRESS":"崇善六街５５號二樓","OBJECTID":130454},"geometry":{"x":171157.1799999997,"y":2541562.9199999999}},{"attributes":{"ID":130455,"DIS_CODE":0,"TOWNNAME":"東區","LI":"崇善里","LIN":"6鄰","STREET":"崇善六街","SECT":" ","MAREA":" ","LANE":" ","ALLEY":" ","HOUSE_NO":"５５號五樓","E_COORD97":171157.17999999999,"N_COORD97":2541562.9199999999,"ADDRESS":"崇善六街５５號五樓","OBJECTID":130455},"geometry":{"x":171157.1799999997,"y":2541562.9199999999}},{"attributes":{"ID":130456,"DIS_CODE":0,"TOWNNAME":"中西區","LI":"光賢里","LIN":"11鄰","STREET":"和善街","SECT":" ","MAREA":" ","LANE":"１２５巷","ALLEY":"３４弄","HOUSE_NO":"８號","E_COORD97":166808.60000000001,"N_COORD97":2544779.9100000001,"ADDRESS":"和善街１２５巷３４弄８號","OBJECTID":130456},"geometry":{"x":166808.60000000149,"y":2544779.9100000001}},{"attributes":{"ID":130457,"DIS_CODE":0,"TOWNNAME":"東區","LI":"東智里","LIN":"6鄰","STREET":"德東街","SECT":" ","MAREA":" ","LANE":" ","ALLEY":" ","HOUSE_NO":"７號二樓之１","E_COORD97":170819.17999999999,"N_COORD97":2540252.48,"ADDRESS":"德東街７號二樓之１","OBJECTID":130457},"geometry":{"x":170819.18000000063,"y":2540252.4800000023}},{"attributes":{"ID":130458,"DIS_CODE":0,"TOWNNAME":"東區","LI":"東智里","LIN":"6鄰","STREET":"德東街","SECT":" ","MAREA":" ","LANE":" ","ALLEY":" ","HOUSE_NO":"７號二樓之２","E_COORD97":170819.17999999999,"N_COORD97":2540252.48,"ADDRESS":"德東街７號二樓之２","OBJECTID":130458},"geometry":{"x":170819.18000000063,"y":2540252.4800000023}},{"attributes":{"ID":130459,"DIS_CODE":0,"TOWNNAME":"永康區","LI":"二王里","LIN":"24鄰","STREET":"中山南路","SECT":" ","MAREA":" ","LANE":"５４４巷","ALLEY":"６３弄","HOUSE_NO":"１０號","E_COORD97":172366.75,"N_COORD97":2546388.5699999998,"ADDRESS":"中山南路５４４巷６３弄１０號","OBJECTID":130459},"geometry":{"x":172366.75000000093,"y":2546388.5700000022}},{"attributes":{"ID":130460,"DIS_CODE":0,"TOWNNAME":"永康區","LI":"二王里","LIN":"21鄰","STREET":"中山南路","SECT":" ","MAREA":" ","LANE":"６４４巷","ALLEY":"３９弄","HOUSE_NO":"６號","E_COORD97":172419.56,"N_COORD97":2546526.6800000002,"ADDRESS":"中山南路６４４巷３９弄６號","OBJECTID":130460},"geometry":{"x":172419.55999999959,"y":2546526.6799999997}},{"attributes":{"ID":130461,"DIS_CODE":0,"TOWNNAME":"永康區","LI":"二王里","LIN":"21鄰","STREET":"中山南路","SECT":" ","MAREA":" ","LANE":"６４４巷","ALLEY":"３９弄","HOUSE_NO":"４號","E_COORD97":172414.76999999999,"N_COORD97":2546526.6800000002,"ADDRESS":"中山南路６４４巷３９弄４號","OBJECTID":130461},"geometry":{"x":172414.76999999955,"y":2546526.6799999997}},{"attributes":{"ID":130462,"DIS_CODE":0,"TOWNNAME":"中西區","LI":"光賢里","LIN":"11鄰","STREET":"和善街","SECT":" ","MAREA":" ","LANE":"１２５巷","ALLEY":"３４弄","HOUSE_NO":"１０號","E_COORD97":166805.29999999999,"N_COORD97":2544782.71,"ADDRESS":"和善街１２５巷３４弄１０號","OBJECTID":130462},"geometry":{"x":166805.29999999981,"y":2544782.7100000009}},{"attributes":{"ID":130463,"DIS_CODE":0,"TOWNNAME":"永康區","LI":"大灣里","LIN":"13鄰","STREET":"大灣路","SECT":" ","MAREA":" ","LANE":"２１５巷","ALLEY":"４弄","HOUSE_NO":"１３號","E_COORD97":175044.70000000001,"N_COORD97":2545268.2999999998,"ADDRESS":"大灣路２１５巷４弄１３號","OBJECTID":130463},"geometry":{"x":175044.70000000019,"y":2545268.3000000026}},{"attributes":{"ID":130464,"DIS_CODE":0,"TOWNNAME":"永康區","LI":"二王里","LIN":"28鄰","STREET":"中山南路","SECT":" ","MAREA":" ","LANE":"５４４巷","ALLEY":"６０弄","HOUSE_NO":"６號","E_COORD97":172306.22,"N_COORD97":2546359.3599999999,"ADDRESS":"中山南路５４４巷６０弄６號","OBJECTID":130464},"geometry":{"x":172306.22000000067,"y":2546359.3599999994}},{"attributes":{"ID":130465,"DIS_CODE":0,"TOWNNAME":"永康區","LI":"大橋里","LIN":"23鄰","STREET":"大橋一街","SECT":" ","MAREA":" ","LANE":"１３９巷","ALLEY":"２２弄","HOUSE_NO":"６２號之４","E_COORD97":171168.06,"N_COORD97":2546615.0499999998,"ADDRESS":"大橋一街１３９巷２２弄６２號之４","OBJECTID":130465},"geometry":{"x":171168.05999999959,"y":2546615.0500000045}},{"attributes":{"ID":130466,"DIS_CODE":0,"TOWNNAME":"永康區","LI":"\u25A0洲里","LIN":"11鄰","STREET":"\u25A0行路","SECT":" ","MAREA":" ","LANE":"１４６巷","ALLEY":"２１弄","HOUSE_NO":"３２號","E_COORD97":171337.48999999999,"N_COORD97":2549270.2400000002,"ADDRESS":"\u25A0行路１４６巷２１弄３２號","OBJECTID":130466},"geometry":{"x":171337.49000000022,"y":2549270.2400000002}},{"attributes":{"ID":130467,"DIS_CODE":0,"TOWNNAME":"永康區","LI":"\u25A0洲里","LIN":"11鄰","STREET":"\u25A0行路","SECT":" ","MAREA":" ","LANE":"１４６巷","ALLEY":"２１弄","HOUSE_NO":"１７號","E_COORD97":171362.5,"N_COORD97":2549275.1000000001,"ADDRESS":"\u25A0行路１４６巷２１弄１７號","OBJECTID":130467},"geometry":{"x":171362.5,"y":2549275.1000000034}},{"attributes":{"ID":130468,"DIS_CODE":0,"TOWNNAME":"永康區","LI":"\u25A0洲里","LIN":"11鄰","STREET":"\u25A0行路","SECT":" ","MAREA":" ","LANE":"１４６巷","ALLEY":"２１弄","HOUSE_NO":"１９號","E_COORD97":171359.5,"N_COORD97":2549272.3500000001,"ADDRESS":"\u25A0行路１４６巷２１弄１９號","OBJECTID":130468},"geometry":{"x":171359.49999999907,"y":2549272.3499999996}},{"attributes":{"ID":130469,"DIS_CODE":0,"TOWNNAME":"東區","LI":"東智里","LIN":"6鄰","STREET":"德東街","SECT":" ","MAREA":" ","LANE":" ","ALLEY":" ","HOUSE_NO":"７號三樓","E_COORD97":170819.17999999999,"N_COORD97":2540252.48,"ADDRESS":"德東街７號三樓","OBJECTID":130469},"geometry":{"x":170819.18000000063,"y":2540252.4800000023}},{"attributes":{"ID":130470,"DIS_CODE":0,"TOWNNAME":"六甲區","LI":"菁埔里","LIN":"4鄰","STREET":" ","SECT":" ","MAREA":"菁埔","LANE":" ","ALLEY":" ","HOUSE_NO":"８２號","E_COORD97":178652.42999999999,"N_COORD97":2570599,"ADDRESS":"菁埔８２號","OBJECTID":130470},"geometry":{"x":178652.43000000156,"y":2570599.0000000019}},{"attributes":{"ID":130471,"DIS_CODE":0,"TOWNNAME":"六甲區","LI":"菁埔里","LIN":"4鄰","STREET":" ","SECT":" ","MAREA":"菁埔","LANE":" ","ALLEY":" ","HOUSE_NO":"８３號","E_COORD97":178622.28,"N_COORD97":2570611.96,"ADDRESS":"菁埔８３號","OBJECTID":130471},"geometry":{"x":178622.28000000119,"y":2570611.9600000009}},{"attributes":{"ID":130472,"DIS_CODE":0,"TOWNNAME":"六甲區","LI":"菁埔里","LIN":"7鄰","STREET":" ","SECT":" ","MAREA":"菁埔","LANE":" ","ALLEY":" ","HOUSE_NO":"２５９號","E_COORD97":178299.35000000001,"N_COORD97":2569677.9700000002,"ADDRESS":"菁埔２５９號","OBJECTID":130472},"geometry":{"x":178299.35000000056,"y":2569677.9700000025}},{"attributes":{"ID":130473,"DIS_CODE":0,"TOWNNAME":"六甲區","LI":"菁埔里","LIN":"8鄰","STREET":" ","SECT":" ","MAREA":"菁埔寮","LANE":" ","ALLEY":" ","HOUSE_NO":"１０號","E_COORD97":177828.47,"N_COORD97":2570241.1899999999,"ADDRESS":"菁埔寮１０號","OBJECTID":130473},"geometry":{"x":177828.4700000016,"y":2570241.1900000013}},{"attributes":{"ID":130474,"DIS_CODE":0,"TOWNNAME":"麻豆區","LI":"安業里","LIN":"4鄰","STREET":" ","SECT":" ","MAREA":"安業","LANE":" ","ALLEY":" ","HOUSE_NO":"１００號之１","E_COORD97":172644.32999999999,"N_COORD97":2562005.6600000001,"ADDRESS":"安業１００號之１","OBJECTID":130474},"geometry":{"x":172644.33000000101,"y":2562005.6599999983}},{"attributes":{"ID":130475,"DIS_CODE":0,"TOWNNAME":"鹽水區","LI":"岸內里","LIN":"4鄰","STREET":" ","SECT":" ","MAREA":"岸內","LANE":" ","ALLEY":" ","HOUSE_NO":"６８號","E_COORD97":174823.72,"N_COORD97":2581248.6899999999,"ADDRESS":"岸內６８號","OBJECTID":130475},"geometry":{"x":174823.71999999974,"y":2581248.6900000032}},{"attributes":{"ID":130476,"DIS_CODE":0,"TOWNNAME":"永康區","LI":"\u25A0洲里","LIN":"11鄰","STREET":"\u25A0行路","SECT":" ","MAREA":" ","LANE":"１４６巷","ALLEY":"２１弄","HOUSE_NO":"６號","E_COORD97":171365.23999999999,"N_COORD97":2549296.2000000002,"ADDRESS":"\u25A0行路１４６巷２１弄６號","OBJECTID":130476},"geometry":{"x":171365.24000000115,"y":2549296.1999999993}},{"attributes":{"ID":130477,"DIS_CODE":0,"TOWNNAME":"永康區","LI":"二王里","LIN":"42鄰","STREET":"中山南路","SECT":" ","MAREA":" ","LANE":"３１６巷","ALLEY":"２６弄","HOUSE_NO":"１６號","E_COORD97":172014.57000000001,"N_COORD97":2546116.46,"ADDRESS":"中山南路３１６巷２６弄１６號","OBJECTID":130477},"geometry":{"x":172014.57000000123,"y":2546116.4600000009}},{"attributes":{"ID":130478,"DIS_CODE":0,"TOWNNAME":"永康區","LI":"\u25A0洲里","LIN":"11鄰","STREET":"\u25A0行路","SECT":" ","MAREA":" ","LANE":"１４６巷","ALLEY":"２１弄","HOUSE_NO":"２７號","E_COORD97":171348.44,"N_COORD97":2549257.6499999999,"ADDRESS":"\u25A0行路１４６巷２１弄２７號","OBJECTID":130478},"geometry":{"x":171348.43999999948,"y":2549257.6500000004}},{"attributes":{"ID":130479,"DIS_CODE":0,"TOWNNAME":"永康區","LI":"\u25A0洲里","LIN":"11鄰","STREET":"\u25A0行路","SECT":" ","MAREA":" ","LANE":"１４６巷","ALLEY":"２１弄","HOUSE_NO":"１８號","E_COORD97":171338.57999999999,"N_COORD97":2549310.29,"ADDRESS":"\u25A0行路１４６巷２１弄１８號","OBJECTID":130479},"geometry":{"x":171338.58000000007,"y":2549310.2900000028}},{"attributes":{"ID":130480,"DIS_CODE":0,"TOWNNAME":"永康區","LI":"\u25A0洲里","LIN":"11鄰","STREET":"\u25A0行路","SECT":" ","MAREA":" ","LANE":"１４６巷","ALLEY":"２１弄","HOUSE_NO":"２３號","E_COORD97":171354,"N_COORD97":2549266.6000000001,"ADDRESS":"\u25A0行路１４６巷２１弄２３號","OBJECTID":130480},"geometry":{"x":171354,"y":2549266.5999999996}},{"attributes":{"ID":130481,"DIS_CODE":0,"TOWNNAME":"永康區","LI":"\u25A0洲里","LIN":"11鄰","STREET":"\u25A0行路","SECT":" ","MAREA":" ","LANE":"１４６巷","ALLEY":"２１弄","HOUSE_NO":"４號","E_COORD97":171368.07999999999,"N_COORD97":2549298.9500000002,"ADDRESS":"\u25A0行路１４６巷２１弄４號","OBJECTID":130481},"geometry":{"x":171368.08000000101,"y":2549298.9499999993}},{"attributes":{"ID":130482,"DIS_CODE":0,"TOWNNAME":"永康區","LI":"\u25A0洲里","LIN":"11鄰","STREET":"\u25A0行路","SECT":" ","MAREA":" ","LANE":"１４６巷","ALLEY":"２１弄","HOUSE_NO":"８號","E_COORD97":171362.28,"N_COORD97":2549293.7000000002,"ADDRESS":"\u25A0行路１４６巷２１弄８號","OBJECTID":130482},"geometry":{"x":171362.28000000026,"y":2549293.6999999993}},{"attributes":{"ID":130483,"DIS_CODE":0,"TOWNNAME":"永康區","LI":"\u25A0洲里","LIN":"11鄰","STREET":"\u25A0行路","SECT":" ","MAREA":" ","LANE":"１４６巷","ALLEY":"２１弄","HOUSE_NO":"１３號","E_COORD97":171368,"N_COORD97":2549280.6000000001,"ADDRESS":"\u25A0行路１４６巷２１弄１３號","OBJECTID":130483},"geometry":{"x":171368.00000000186,"y":2549280.5999999996}},{"attributes":{"ID":130484,"DIS_CODE":0,"TOWNNAME":"麻豆區","LI":"安業里","LIN":"4鄰","STREET":" ","SECT":" ","MAREA":"安業","LANE":" ","ALLEY":" ","HOUSE_NO":"１００號之２","E_COORD97":172618.34,"N_COORD97":2562000.23,"ADDRESS":"安業１００號之２","OBJECTID":130484},"geometry":{"x":172618.34000000171,"y":2562000.2300000023}},{"attributes":{"ID":130485,"DIS_CODE":0,"TOWNNAME":"麻豆區","LI":"安業里","LIN":"4鄰","STREET":" ","SECT":" ","MAREA":"安業","LANE":" ","ALLEY":" ","HOUSE_NO":"１００號","E_COORD97":172625.59,"N_COORD97":2562012.1200000001,"ADDRESS":"安業１００號","OBJECTID":130485},"geometry":{"x":172625.59000000078,"y":2562012.1200000029}},{"attributes":{"ID":130486,"DIS_CODE":0,"TOWNNAME":"麻豆區","LI":"安業里","LIN":"4鄰","STREET":" ","SECT":" ","MAREA":"安業","LANE":" ","ALLEY":" ","HOUSE_NO":"１０２號之１","E_COORD97":172638.56,"N_COORD97":2562045.4700000002,"ADDRESS":"安業１０２號之１","OBJECTID":130486},"geometry":{"x":172638.56000000145,"y":2562045.4700000025}},{"attributes":{"ID":130487,"DIS_CODE":0,"TOWNNAME":"麻豆區","LI":"安業里","LIN":"4鄰","STREET":" ","SECT":" ","MAREA":"安業","LANE":" ","ALLEY":" ","HOUSE_NO":"１０５號之１","E_COORD97":172695.82999999999,"N_COORD97":2562003.3700000001,"ADDRESS":"安業１０５號之１","OBJECTID":130487},"geometry":{"x":172695.83000000007,"y":2562003.3700000029}},{"attributes":{"ID":130488,"DIS_CODE":0,"TOWNNAME":"永康區","LI":"\u25A0洲里","LIN":"11鄰","STREET":"\u25A0行路","SECT":" ","MAREA":" ","LANE":"１４６巷","ALLEY":"２１弄","HOUSE_NO":"２２號","E_COORD97":171339.64999999999,"N_COORD97":2549297.8300000001,"ADDRESS":"\u25A0行路１４６巷２１弄２２號","OBJECTID":130488},"geometry":{"x":171339.65000000037,"y":2549297.8300000019}},{"attributes":{"ID":130489,"DIS_CODE":0,"TOWNNAME":"永康區","LI":"三合里","LIN":"11鄰","STREET":"南工街","SECT":" ","MAREA":" ","LANE":"２４７巷","ALLEY":"６４弄","HOUSE_NO":"６號","E_COORD97":171935.04000000001,"N_COORD97":2545776.7400000002,"ADDRESS":"南工街２４７巷６４弄６號","OBJECTID":130489},"geometry":{"x":171935.04000000004,"y":2545776.7400000021}},{"attributes":{"ID":130490,"DIS_CODE":0,"TOWNNAME":"永康區","LI":"二王里","LIN":"11鄰","STREET":"永二街","SECT":" ","MAREA":" ","LANE":"３９３巷","ALLEY":"１６弄","HOUSE_NO":"５號","E_COORD97":172893.09,"N_COORD97":2546548.0099999998,"ADDRESS":"永二街３９３巷１６弄５號","OBJECTID":130490},"geometry":{"x":172893.09000000078,"y":2546548.0100000016}},{"attributes":{"ID":130491,"DIS_CODE":0,"TOWNNAME":"永康區","LI":"三合里","LIN":"9鄰","STREET":"南工街","SECT":" ","MAREA":" ","LANE":"２４７巷","ALLEY":"３５弄","HOUSE_NO":"９５號","E_COORD97":172046.91,"N_COORD97":2545687.25,"ADDRESS":"南工街２４７巷３５弄９５號","OBJECTID":130491},"geometry":{"x":172046.91000000201,"y":2545687.2500000037}},{"attributes":{"ID":130492,"DIS_CODE":0,"TOWNNAME":"永康區","LI":"大灣里","LIN":"29鄰","STREET":"民族路","SECT":" ","MAREA":" ","LANE":"１２６巷","ALLEY":"９弄","HOUSE_NO":"２４號","E_COORD97":175303.42999999999,"N_COORD97":2544962.8799999999,"ADDRESS":"民族路１２６巷９弄２４號","OBJECTID":130492},"geometry":{"x":175303.43000000063,"y":2544962.8799999971}},{"attributes":{"ID":130493,"DIS_CODE":0,"TOWNNAME":"永康區","LI":"二王里","LIN":"11鄰","STREET":"永二街","SECT":" ","MAREA":" ","LANE":"３９３巷","ALLEY":"１６弄","HOUSE_NO":"１７號","E_COORD97":172919.35000000001,"N_COORD97":2546527.6899999999,"ADDRESS":"永二街３９３巷１６弄１７號","OBJECTID":130493},"geometry":{"x":172919.34999999963,"y":2546527.6899999976}},{"attributes":{"ID":130494,"DIS_CODE":0,"TOWNNAME":"永康區","LI":"二王里","LIN":"11鄰","STREET":"永二街","SECT":" ","MAREA":" ","LANE":"３９３巷","ALLEY":"１６弄","HOUSE_NO":"９號","E_COORD97":172901.79999999999,"N_COORD97":2546547.2599999998,"ADDRESS":"永二街３９３巷１６弄９號","OBJECTID":130494},"geometry":{"x":172901.80000000075,"y":2546547.2599999998}},{"attributes":{"ID":130495,"DIS_CODE":0,"TOWNNAME":"麻豆區","LI":"安業里","LIN":"4鄰","STREET":" ","SECT":" ","MAREA":"安業","LANE":" ","ALLEY":" ","HOUSE_NO":"１０５號","E_COORD97":172718.17999999999,"N_COORD97":2562018.4500000002,"ADDRESS":"安業１０５號","OBJECTID":130495},"geometry":{"x":172718.18000000063,"y":2562018.4499999993}},{"attributes":{"ID":130496,"DIS_CODE":0,"TOWNNAME":"麻豆區","LI":"安業里","LIN":"4鄰","STREET":" ","SECT":" ","MAREA":"安業","LANE":" ","ALLEY":" ","HOUSE_NO":"１０６號之１","E_COORD97":172692.32999999999,"N_COORD97":2562033.2200000002,"ADDRESS":"安業１０６號之１","OBJECTID":130496},"geometry":{"x":172692.33000000101,"y":2562033.2200000044}},{"attributes":{"ID":130497,"DIS_CODE":0,"TOWNNAME":"麻豆區","LI":"安業里","LIN":"4鄰","STREET":" ","SECT":" ","MAREA":"安業","LANE":" ","ALLEY":" ","HOUSE_NO":"１０６號之２","E_COORD97":172663.64000000001,"N_COORD97":2562035.6499999999,"ADDRESS":"安業１０６號之２","OBJECTID":130497},"geometry":{"x":172663.64000000153,"y":2562035.6500000004}},{"attributes":{"ID":130498,"DIS_CODE":0,"TOWNNAME":"永康區","LI":"三合里","LIN":"11鄰","STREET":"南工街","SECT":" ","MAREA":" ","LANE":"２４７巷","ALLEY":"６４弄","HOUSE_NO":"１號","E_COORD97":171943.57999999999,"N_COORD97":2545766.9900000002,"ADDRESS":"南工街２４７巷６４弄１號","OBJECTID":130498},"geometry":{"x":171943.58000000007,"y":2545766.9899999984}},{"attributes":{"ID":130499,"DIS_CODE":0,"TOWNNAME":"永康區","LI":"二王里","LIN":"11鄰","STREET":"永二街","SECT":" ","MAREA":" ","LANE":"３９３巷","ALLEY":"１６弄","HOUSE_NO":"１９號","E_COORD97":172914.89000000001,"N_COORD97":2546528.1899999999,"ADDRESS":"永二街３９３巷１６弄１９號","OBJECTID":130499},"geometry":{"x":172914.8900000006,"y":2546528.1900000013}},{"attributes":{"ID":130500,"DIS_CODE":0,"TOWNNAME":"永康區","LI":"二王里","LIN":"11鄰","STREET":"永二街","SECT":" ","MAREA":" ","LANE":"３９３巷","ALLEY":"１６弄","HOUSE_NO":"１３號","E_COORD97":172912.06,"N_COORD97":2546546.7599999998,"ADDRESS":"永二街３９３巷１６弄１３號","OBJECTID":130500},"geometry":{"x":172912.06000000052,"y":2546546.7599999998}},{"attributes":{"ID":130501,"DIS_CODE":0,"TOWNNAME":"永康區","LI":"三合里","LIN":"11鄰","STREET":"南工街","SECT":" ","MAREA":" ","LANE":"２４７巷","ALLEY":"６４弄","HOUSE_NO":"９號之１","E_COORD97":171926.01000000001,"N_COORD97":2545730.23,"ADDRESS":"南工街２４７巷６４弄９號之１","OBJECTID":130501},"geometry":{"x":171926.01000000071,"y":2545730.2300000004}},{"attributes":{"ID":130502,"DIS_CODE":0,"TOWNNAME":"永康區","LI":"二王里","LIN":"24鄰","STREET":"中山南路","SECT":" ","MAREA":" ","LANE":"５４４巷","ALLEY":"６３弄","HOUSE_NO":"３號","E_COORD97":172346.34,"N_COORD97":2546408.5800000001,"ADDRESS":"中山南路５４４巷６３弄３號","OBJECTID":130502},"geometry":{"x":172346.33999999985,"y":2546408.5800000019}},{"attributes":{"ID":130503,"DIS_CODE":0,"TOWNNAME":"永康區","LI":"三合里","LIN":"20鄰","STREET":"南工街","SECT":" ","MAREA":" ","LANE":"２６７巷","ALLEY":"１０弄","HOUSE_NO":"８號","E_COORD97":171846.37,"N_COORD97":2545947.9900000002,"ADDRESS":"南工街２６７巷１０弄８號","OBJECTID":130503},"geometry":{"x":171846.37000000011,"y":2545947.9900000021}},{"attributes":{"ID":130504,"DIS_CODE":0,"TOWNNAME":"永康區","LI":"中興里","LIN":"6鄰","STREET":"中山東路","SECT":" ","MAREA":" ","LANE":"４７２巷","ALLEY":"２弄","HOUSE_NO":"２號","E_COORD97":171944.32000000001,"N_COORD97":2545026.9900000002,"ADDRESS":"中山東路４７２巷２弄２號","OBJECTID":130504},"geometry":{"x":171944.32000000216,"y":2545026.9900000002}},{"attributes":{"ID":130505,"DIS_CODE":0,"TOWNNAME":"麻豆區","LI":"安業里","LIN":"4鄰","STREET":" ","SECT":" ","MAREA":"安業","LANE":" ","ALLEY":" ","HOUSE_NO":"１０６號之３","E_COORD97":172664,"N_COORD97":2562021.0699999998,"ADDRESS":"安業１０６號之３","OBJECTID":130505},"geometry":{"x":172664.00000000093,"y":2562021.0700000022}},{"attributes":{"ID":130506,"DIS_CODE":0,"TOWNNAME":"麻豆區","LI":"安業里","LIN":"4鄰","STREET":" ","SECT":" ","MAREA":"安業","LANE":" ","ALLEY":" ","HOUSE_NO":"１０７號之２","E_COORD97":172673.28,"N_COORD97":2562054.5899999999,"ADDRESS":"安業１０７號之２","OBJECTID":130506},"geometry":{"x":172673.28000000026,"y":2562054.5900000017}},{"attributes":{"ID":130507,"DIS_CODE":0,"TOWNNAME":"麻豆區","LI":"安業里","LIN":"4鄰","STREET":" ","SECT":" ","MAREA":"安業","LANE":" ","ALLEY":" ","HOUSE_NO":"１０７號","E_COORD97":172694.51000000001,"N_COORD97":2562060.9300000002,"ADDRESS":"安業１０７號","OBJECTID":130507},"geometry":{"x":172694.50999999978,"y":2562060.9299999997}},{"attributes":{"ID":130508,"DIS_CODE":0,"TOWNNAME":"中西區","LI":"民生里","LIN":"18鄰","STREET":"南華街","SECT":" ","MAREA":" ","LANE":" ","ALLEY":" ","HOUSE_NO":"８８號","E_COORD97":167133.09,"N_COORD97":2543518.71,"ADDRESS":"南華街８８號","OBJECTID":130508},"geometry":{"x":167133.09000000078,"y":2543518.7100000046}},{"attributes":{"ID":130509,"DIS_CODE":0,"TOWNNAME":"中西區","LI":"民生里","LIN":"18鄰","STREET":"南華街","SECT":" ","MAREA":" ","LANE":" ","ALLEY":" ","HOUSE_NO":"９０號","E_COORD97":167134.45999999999,"N_COORD97":2543522.5800000001,"ADDRESS":"南華街９０號","OBJECTID":130509},"geometry":{"x":167134.46000000089,"y":2543522.5800000019}},{"attributes":{"ID":130510,"DIS_CODE":0,"TOWNNAME":"中西區","LI":"民生里","LIN":"18鄰","STREET":"南華街","SECT":" ","MAREA":" ","LANE":" ","ALLEY":" ","HOUSE_NO":"９２號","E_COORD97":167134.92000000001,"N_COORD97":2543526.6800000002,"ADDRESS":"南華街９２號","OBJECTID":130510},"geometry":{"x":167134.91999999993,"y":2543526.6799999997}},{"attributes":{"ID":130511,"DIS_CODE":0,"TOWNNAME":"中西區","LI":"民生里","LIN":"18鄰","STREET":"南華街","SECT":" ","MAREA":" ","LANE":" ","ALLEY":" ","HOUSE_NO":"９４號","E_COORD97":167135.60000000001,"N_COORD97":2543529.8599999999,"ADDRESS":"南華街９４號","OBJECTID":130511},"geometry":{"x":167135.59999999963,"y":2543529.8600000013}},{"attributes":{"ID":130512,"DIS_CODE":0,"TOWNNAME":"中西區","LI":"民生里","LIN":"18鄰","STREET":"南華街","SECT":" ","MAREA":" ","LANE":" ","ALLEY":" ","HOUSE_NO":"９６號","E_COORD97":167136.51000000001,"N_COORD97":2543533.0499999998,"ADDRESS":"南華街９６號","OBJECTID":130512},"geometry":{"x":167136.51000000164,"y":2543533.0500000045}},{"attributes":{"ID":130513,"DIS_CODE":0,"TOWNNAME":"中西區","LI":"元安里","LIN":"13鄰","STREET":"大德街","SECT":" ","MAREA":" ","LANE":" ","ALLEY":" ","HOUSE_NO":"１８號","E_COORD97":167547.17000000001,"N_COORD97":2543402.4100000001,"ADDRESS":"大德街１８號","OBJECTID":130513},"geometry":{"x":167547.16999999993,"y":2543402.410000002}},{"attributes":{"ID":130514,"DIS_CODE":0,"TOWNNAME":"中西區","LI":"民生里","LIN":"19鄰","STREET":"保安路","SECT":" ","MAREA":" ","LANE":" ","ALLEY":" ","HOUSE_NO":"２０１號之１","E_COORD97":167087.04999999999,"N_COORD97":2543540.1099999999,"ADDRESS":"保安路２０１號之１","OBJECTID":130514},"geometry":{"x":167087.04999999888,"y":2543540.1099999994}},{"attributes":{"ID":130515,"DIS_CODE":0,"TOWNNAME":"永康區","LI":"埔園里","LIN":"13鄰","STREET":"中山路","SECT":" ","MAREA":" ","LANE":" ","ALLEY":" ","HOUSE_NO":"２２３號","E_COORD97":173658.67000000001,"N_COORD97":2548129.9900000002,"ADDRESS":"中山路２２３號","OBJECTID":130515},"geometry":{"x":173658.67000000179,"y":2548129.9900000002}},{"attributes":{"ID":130516,"DIS_CODE":0,"TOWNNAME":"永康區","LI":"埔園里","LIN":"13鄰","STREET":"中山路","SECT":" ","MAREA":" ","LANE":" ","ALLEY":" ","HOUSE_NO":"２０９號","E_COORD97":173664.79999999999,"N_COORD97":2548100.25,"ADDRESS":"中山路２０９號","OBJECTID":130516},"geometry":{"x":173664.80000000075,"y":2548100.25}},{"attributes":{"ID":130517,"DIS_CODE":0,"TOWNNAME":"永康區","LI":"埔園里","LIN":"39鄰","STREET":"龍國街","SECT":" ","MAREA":" ","LANE":" ","ALLEY":" ","HOUSE_NO":"１５號","E_COORD97":174026.17999999999,"N_COORD97":2548107.6800000002,"ADDRESS":"龍國街１５號","OBJECTID":130517},"geometry":{"x":174026.17999999877,"y":2548107.6799999997}},{"attributes":{"ID":130518,"DIS_CODE":0,"TOWNNAME":"佳里區","LI":"建南里","LIN":" ","STREET":"成功路","SECT":" ","MAREA":" ","LANE":" ","ALLEY":" ","HOUSE_NO":"５３之５號","E_COORD97":165504.35999999999,"N_COORD97":2561502.1400000001,"ADDRESS":"成功路５３之５號","OBJECTID":130518},"geometry":{"x":165504.36000000127,"y":2561502.1400000025}},{"attributes":{"ID":130519,"DIS_CODE":0,"TOWNNAME":"永康區","LI":"大橋里","LIN":"19鄰","STREET":"大橋一街","SECT":" ","MAREA":" ","LANE":"１３９巷","ALLEY":"２２弄","HOUSE_NO":"４９號","E_COORD97":171043.47,"N_COORD97":2546604.54,"ADDRESS":"大橋一街１３９巷２２弄４９號","OBJECTID":130519},"geometry":{"x":171043.46999999974,"y":2546604.540000001}},{"attributes":{"ID":130520,"DIS_CODE":0,"TOWNNAME":"仁德區","LI":"太子里","LIN":"11鄰","STREET":"長興二街","SECT":" ","MAREA":" ","LANE":"７０巷","ALLEY":"６弄","HOUSE_NO":"２７號","E_COORD97":174226.57000000001,"N_COORD97":2543752.8399999999,"ADDRESS":"長興二街７０巷６弄２７號","OBJECTID":130520},"geometry":{"x":174226.57000000123,"y":2543752.8399999999}},{"attributes":{"ID":130521,"DIS_CODE":0,"TOWNNAME":"永康區","LI":"二王里","LIN":"42鄰","STREET":"中山南路","SECT":" ","MAREA":" ","LANE":"３１６巷","ALLEY":"２６弄","HOUSE_NO":"２號","E_COORD97":172018.53,"N_COORD97":2546146.9500000002,"ADDRESS":"中山南路３１６巷２６弄２號","OBJECTID":130521},"geometry":{"x":172018.53000000026,"y":2546146.9500000011}},{"attributes":{"ID":130522,"DIS_CODE":0,"TOWNNAME":"永康區","LI":"大灣里","LIN":"13鄰","STREET":"大灣路","SECT":" ","MAREA":" ","LANE":"２１５巷","ALLEY":"４弄","HOUSE_NO":"７號","E_COORD97":175021.23999999999,"N_COORD97":2545275.5499999998,"ADDRESS":"大灣路２１５巷４弄７號","OBJECTID":130522},"geometry":{"x":175021.24000000022,"y":2545275.5499999989}},{"attributes":{"ID":130523,"DIS_CODE":0,"TOWNNAME":"仁德區","LI":"保安里","LIN":"11鄰","STREET":"中正路","SECT":"一段","MAREA":" ","LANE":"２５１巷","ALLEY":"７弄","HOUSE_NO":"２號","E_COORD97":171749.76999999999,"N_COORD97":2536010.77,"ADDRESS":"中正路一段２５１巷７弄２號","OBJECTID":130523},"geometry":{"x":171749.76999999955,"y":2536010.7700000014}},{"attributes":{"ID":130524,"DIS_CODE":0,"TOWNNAME":"仁德區","LI":"保安里","LIN":"11鄰","STREET":"中正路","SECT":"一段","MAREA":" ","LANE":"２５１巷","ALLEY":"７弄","HOUSE_NO":"４號","E_COORD97":171745.81,"N_COORD97":2536007.27,"ADDRESS":"中正路一段２５１巷７弄４號","OBJECTID":130524},"geometry":{"x":171745.81000000052,"y":2536007.2700000033}},{"attributes":{"ID":130525,"DIS_CODE":0,"TOWNNAME":"仁德區","LI":"成功里","LIN":"11鄰","STREET":"成功二街","SECT":" ","MAREA":" ","LANE":"３１巷","ALLEY":"１０弄","HOUSE_NO":"５號","E_COORD97":170967.06,"N_COORD97":2539819.52,"ADDRESS":"成功二街３１巷１０弄５號","OBJECTID":130525},"geometry":{"x":170967.05999999866,"y":2539819.5200000033}},{"attributes":{"ID":130526,"DIS_CODE":0,"TOWNNAME":"仁德區","LI":"成功里","LIN":"11鄰","STREET":"成功二街","SECT":" ","MAREA":" ","LANE":"３１巷","ALLEY":"１０弄","HOUSE_NO":"２號","E_COORD97":170943.98999999999,"N_COORD97":2539828.9300000002,"ADDRESS":"成功二街３１巷１０弄２號","OBJECTID":130526},"geometry":{"x":170943.99000000022,"y":2539828.9299999997}},{"attributes":{"ID":130527,"DIS_CODE":0,"TOWNNAME":"安南區","LI":"國安里","LIN":"11鄰","STREET":"國安街","SECT":" ","MAREA":" ","LANE":"２１０巷","ALLEY":"１７５弄","HOUSE_NO":"６號","E_COORD97":166503.10000000001,"N_COORD97":2547419.5800000001,"ADDRESS":"國安街２１０巷１７５弄６號","OBJECTID":130527},"geometry":{"x":166503.09999999963,"y":2547419.5800000001}},{"attributes":{"ID":130528,"DIS_CODE":0,"TOWNNAME":"安南區","LI":"國安里","LIN":"11鄰","STREET":"國安街","SECT":" ","MAREA":" ","LANE":"２１０巷","ALLEY":"１７５弄","HOUSE_NO":"５號","E_COORD97":166512.57000000001,"N_COORD97":2547375.6600000001,"ADDRESS":"國安街２１０巷１７５弄５號","OBJECTID":130528},"geometry":{"x":166512.5700000003,"y":2547375.6600000001}},{"attributes":{"ID":130529,"DIS_CODE":0,"TOWNNAME":"安南區","LI":"國安里","LIN":"11鄰","STREET":"國安街","SECT":" ","MAREA":" ","LANE":"２１０巷","ALLEY":"１７５弄","HOUSE_NO":"１４號","E_COORD97":166487.07999999999,"N_COORD97":2547414.8900000001,"ADDRESS":"國安街２１０巷１７５弄１４號","OBJECTID":130529},"geometry":{"x":166487.08000000194,"y":2547414.8900000006}},{"attributes":{"ID":130530,"DIS_CODE":0,"TOWNNAME":"安南區","LI":"國安里","LIN":"11鄰","STREET":"國安街","SECT":" ","MAREA":" ","LANE":"２１０巷","ALLEY":"１７５弄","HOUSE_NO":"１號","E_COORD97":166520.42000000001,"N_COORD97":2547377.6200000001,"ADDRESS":"國安街２１０巷１７５弄１號","OBJECTID":130530},"geometry":{"x":166520.42000000086,"y":2547377.6200000048}},{"attributes":{"ID":130531,"DIS_CODE":0,"TOWNNAME":"永康區","LI":"埔園里","LIN":"13鄰","STREET":"中山路","SECT":" ","MAREA":" ","LANE":" ","ALLEY":" ","HOUSE_NO":"２１５號","E_COORD97":173662.20999999999,"N_COORD97":2548113.2400000002,"ADDRESS":"中山路２１５號","OBJECTID":130531},"geometry":{"x":173662.21000000089,"y":2548113.2400000021}},{"attributes":{"ID":130532,"DIS_CODE":0,"TOWNNAME":"佳里區","LI":"鎮山里","LIN":"17鄰","STREET":"鎮山街","SECT":" ","MAREA":" ","LANE":" ","ALLEY":" ","HOUSE_NO":"７２號","E_COORD97":166283.14000000001,"N_COORD97":2561243.6400000001,"ADDRESS":"鎮山街７２號","OBJECTID":130532},"geometry":{"x":166283.1400000006,"y":2561243.6400000043}},{"attributes":{"ID":130533,"DIS_CODE":0,"TOWNNAME":"永康區","LI":"埔園里","LIN":"39鄰","STREET":"自強路","SECT":" ","MAREA":" ","LANE":" ","ALLEY":" ","HOUSE_NO":"５９０號","E_COORD97":174033.70000000001,"N_COORD97":2548161.5499999998,"ADDRESS":"自強路５９０號","OBJECTID":130533},"geometry":{"x":174033.70000000112,"y":2548161.5500000026}},{"attributes":{"ID":130534,"DIS_CODE":0,"TOWNNAME":"安定區","LI":"六嘉里","LIN":"6鄰","STREET":" ","SECT":" ","MAREA":"六塊寮","LANE":" ","ALLEY":" ","HOUSE_NO":"４８號","E_COORD97":170249.62,"N_COORD97":2553379.27,"ADDRESS":"六塊寮４８號","OBJECTID":130534},"geometry":{"x":170249.62000000011,"y":2553379.2700000033}},{"attributes":{"ID":130535,"DIS_CODE":0,"TOWNNAME":"麻豆區","LI":"安業里","LIN":"4鄰","STREET":" ","SECT":" ","MAREA":"安業","LANE":" ","ALLEY":" ","HOUSE_NO":"１０８號之１","E_COORD97":172738.70000000001,"N_COORD97":2562071.9399999999,"ADDRESS":"安業１０８號之１","OBJECTID":130535},"geometry":{"x":172738.70000000112,"y":2562071.9400000013}},{"attributes":{"ID":130536,"DIS_CODE":0,"TOWNNAME":"麻豆區","LI":"安業里","LIN":"4鄰","STREET":" ","SECT":" ","MAREA":"安業","LANE":" ","ALLEY":" ","HOUSE_NO":"１１１號","E_COORD97":172774.32000000001,"N_COORD97":2562077.7599999998,"ADDRESS":"安業１１１號","OBJECTID":130536},"geometry":{"x":172774.3200000003,"y":2562077.7599999998}},{"attributes":{"ID":130537,"DIS_CODE":0,"TOWNNAME":"麻豆區","LI":"安東里","LIN":"8鄰","STREET":" ","SECT":" ","MAREA":"安業","LANE":" ","ALLEY":" ","HOUSE_NO":"１１７號之２","E_COORD97":172869.89000000001,"N_COORD97":2562405.1699999999,"ADDRESS":"安業１１７號之２","OBJECTID":130537},"geometry":{"x":172869.88999999966,"y":2562405.1699999999}},{"attributes":{"ID":130538,"DIS_CODE":0,"TOWNNAME":"麻豆區","LI":"安東里","LIN":"8鄰","STREET":" ","SECT":" ","MAREA":"安業","LANE":" ","ALLEY":" ","HOUSE_NO":"１１７號之３","E_COORD97":172864.67999999999,"N_COORD97":2562405.6800000002,"ADDRESS":"安業１１７號之３","OBJECTID":130538},"geometry":{"x":172864.6799999997,"y":2562405.6800000016}},{"attributes":{"ID":130539,"DIS_CODE":0,"TOWNNAME":"麻豆區","LI":"安東里","LIN":"8鄰","STREET":" ","SECT":" ","MAREA":"安業","LANE":" ","ALLEY":" ","HOUSE_NO":"１１８號","E_COORD97":172886.01000000001,"N_COORD97":2562407.4700000002,"ADDRESS":"安業１１８號","OBJECTID":130539},"geometry":{"x":172886.00999999978,"y":2562407.4700000007}},{"attributes":{"ID":130540,"DIS_CODE":0,"TOWNNAME":"安南區","LI":"國安里","LIN":"11鄰","STREET":"國安街","SECT":" ","MAREA":" ","LANE":"２１０巷","ALLEY":"１７５弄","HOUSE_NO":"２號","E_COORD97":166511.32999999999,"N_COORD97":2547420.02,"ADDRESS":"國安街２１０巷１７５弄２號","OBJECTID":130540},"geometry":{"x":166511.33000000101,"y":2547420.0199999996}},{"attributes":{"ID":130541,"DIS_CODE":0,"TOWNNAME":"安南區","LI":"國安里","LIN":"11鄰","STREET":"國安街","SECT":" ","MAREA":" ","LANE":"２１０巷","ALLEY":"１７５弄","HOUSE_NO":"４號","E_COORD97":166507.57999999999,"N_COORD97":2547417.3799999999,"ADDRESS":"國安街２１０巷１７５弄４號","OBJECTID":130541},"geometry":{"x":166507.58000000194,"y":2547417.379999999}},{"attributes":{"ID":130542,"DIS_CODE":0,"TOWNNAME":"安南區","LI":"國安里","LIN":"11鄰","STREET":"國安街","SECT":" ","MAREA":" ","LANE":"２１０巷","ALLEY":"１７５弄","HOUSE_NO":"７號","E_COORD97":166508.94,"N_COORD97":2547374.1499999999,"ADDRESS":"國安街２１０巷１７５弄７號","OBJECTID":130542},"geometry":{"x":166508.94000000134,"y":2547374.1500000022}},{"attributes":{"ID":130543,"DIS_CODE":0,"TOWNNAME":"永康區","LI":"二王里","LIN":"12鄰","STREET":"永二街","SECT":" ","MAREA":" ","LANE":"４４７巷","ALLEY":"６８弄","HOUSE_NO":"１２６號","E_COORD97":172798.47,"N_COORD97":2546471.8399999999,"ADDRESS":"永二街４４７巷６８弄１２６號","OBJECTID":130543},"geometry":{"x":172798.46999999974,"y":2546471.8399999999}},{"attributes":{"ID":130544,"DIS_CODE":0,"TOWNNAME":"中西區","LI":"元安里","LIN":"13鄰","STREET":"大德街","SECT":" ","MAREA":" ","LANE":" ","ALLEY":" ","HOUSE_NO":"１０號","E_COORD97":167560.88,"N_COORD97":2543398.1499999999,"ADDRESS":"大德街１０號","OBJECTID":130544},"geometry":{"x":167560.87999999989,"y":2543398.1500000004}},{"attributes":{"ID":130545,"DIS_CODE":0,"TOWNNAME":"中西區","LI":"元安里","LIN":"13鄰","STREET":"大德街","SECT":" ","MAREA":" ","LANE":" ","ALLEY":" ","HOUSE_NO":"１２號","E_COORD97":167563.10000000001,"N_COORD97":2543392.79,"ADDRESS":"大德街１２號","OBJECTID":130545},"geometry":{"x":167563.10000000149,"y":2543392.7899999991}},{"attributes":{"ID":130546,"DIS_CODE":0,"TOWNNAME":"中西區","LI":"元安里","LIN":"13鄰","STREET":"大德街","SECT":" ","MAREA":" ","LANE":" ","ALLEY":" ","HOUSE_NO":"１４號","E_COORD97":167562.39000000001,"N_COORD97":2543389.5699999998,"ADDRESS":"大德街１４號","OBJECTID":130546},"geometry":{"x":167562.38999999966,"y":2543389.5700000003}},{"attributes":{"ID":130547,"DIS_CODE":0,"TOWNNAME":"永康區","LI":"新樹里","LIN":"11鄰","STREET":"富強路","SECT":"二段","MAREA":" ","LANE":"１２８巷","ALLEY":"１４弄","HOUSE_NO":"２２號","E_COORD97":175722.19,"N_COORD97":2547055.6400000001,"ADDRESS":"富強路二段１２８巷１４弄２２號","OBJECTID":130547},"geometry":{"x":175722.19000000227,"y":2547055.6400000025}},{"attributes":{"ID":130548,"DIS_CODE":0,"TOWNNAME":"麻豆區","LI":"安業里","LIN":"7鄰","STREET":" ","SECT":" ","MAREA":"安業","LANE":" ","ALLEY":" ","HOUSE_NO":"１４２號之１","E_COORD97":172638.35000000001,"N_COORD97":2562212.6800000002,"ADDRESS":"安業１４２號之１","OBJECTID":130548},"geometry":{"x":172638.35000000149,"y":2562212.6800000016}},{"attributes":{"ID":130549,"DIS_CODE":0,"TOWNNAME":"麻豆區","LI":"安業里","LIN":"7鄰","STREET":" ","SECT":" ","MAREA":"安業","LANE":" ","ALLEY":" ","HOUSE_NO":"１４２號之３","E_COORD97":172636.04999999999,"N_COORD97":2562259.1400000001,"ADDRESS":"安業１４２號之３","OBJECTID":130549},"geometry":{"x":172636.05000000075,"y":2562259.1400000006}},{"attributes":{"ID":130550,"DIS_CODE":0,"TOWNNAME":"麻豆區","LI":"安業里","LIN":"7鄰","STREET":" ","SECT":" ","MAREA":"安業","LANE":" ","ALLEY":" ","HOUSE_NO":"１４２號之４","E_COORD97":172634.09,"N_COORD97":2562262.5,"ADDRESS":"安業１４２號之４","OBJECTID":130550},"geometry":{"x":172634.09000000078,"y":2562262.5000000019}},{"attributes":{"ID":130551,"DIS_CODE":0,"TOWNNAME":"永康區","LI":"新樹里","LIN":"11鄰","STREET":"富強路","SECT":"二段","MAREA":" ","LANE":"１２８巷","ALLEY":"１４弄","HOUSE_NO":"１號","E_COORD97":175734.82999999999,"N_COORD97":2547081.9500000002,"ADDRESS":"富強路二段１２８巷１４弄１號","OBJECTID":130551},"geometry":{"x":175734.83000000101,"y":2547081.950000003}},{"attributes":{"ID":130552,"DIS_CODE":0,"TOWNNAME":"永康區","LI":"二王里","LIN":"24鄰","STREET":"中山南路","SECT":" ","MAREA":" ","LANE":"５４４巷","ALLEY":"６７弄","HOUSE_NO":"６號","E_COORD97":172356.29999999999,"N_COORD97":2546342.25,"ADDRESS":"中山南路５４４巷６７弄６號","OBJECTID":130552},"geometry":{"x":172356.30000000075,"y":2546342.2500000019}},{"attributes":{"ID":130553,"DIS_CODE":0,"TOWNNAME":"中西區","LI":"元安里","LIN":"13鄰","STREET":"大德街","SECT":" ","MAREA":" ","LANE":" ","ALLEY":" ","HOUSE_NO":"１６號","E_COORD97":167561.79000000001,"N_COORD97":2543385.6600000001,"ADDRESS":"大德街１６號","OBJECTID":130553},"geometry":{"x":167561.79000000004,"y":2543385.6599999983}},{"attributes":{"ID":130554,"DIS_CODE":0,"TOWNNAME":"永康區","LI":"二王里","LIN":"28鄰","STREET":"中山南路","SECT":" ","MAREA":" ","LANE":"５４４巷","ALLEY":"６０弄","HOUSE_NO":"１２號","E_COORD97":172289.10999999999,"N_COORD97":2546358.8599999999,"ADDRESS":"中山南路５４４巷６０弄１２號","OBJECTID":130554},"geometry":{"x":172289.11000000034,"y":2546358.8599999994}},{"attributes":{"ID":130555,"DIS_CODE":0,"TOWNNAME":"永康區","LI":"二王里","LIN":"24鄰","STREET":"中山南路","SECT":" ","MAREA":" ","LANE":"５４４巷","ALLEY":"６７弄","HOUSE_NO":"８號","E_COORD97":172361.98000000001,"N_COORD97":2546342,"ADDRESS":"中山南路５４４巷６７弄８號","OBJECTID":130555},"geometry":{"x":172361.98000000231,"y":2546342}},{"attributes":{"ID":130556,"DIS_CODE":0,"TOWNNAME":"永康區","LI":"三合里","LIN":"20鄰","STREET":"南工街","SECT":" ","MAREA":" ","LANE":"２６７巷","ALLEY":"１０弄","HOUSE_NO":"６號","E_COORD97":171853.07000000001,"N_COORD97":2545946.9900000002,"ADDRESS":"南工街２６７巷１０弄６號","OBJECTID":130556},"geometry":{"x":171853.07000000123,"y":2545946.9900000039}},{"attributes":{"ID":130557,"DIS_CODE":0,"TOWNNAME":"永康區","LI":"大橋里","LIN":"15鄰","STREET":"大橋一街","SECT":" ","MAREA":" ","LANE":"７３巷","ALLEY":"４０弄","HOUSE_NO":"１號","E_COORD97":170879.87,"N_COORD97":2546528,"ADDRESS":"大橋一街７３巷４０弄１號","OBJECTID":130557},"geometry":{"x":170879.87000000104,"y":2546528.0000000019}},{"attributes":{"ID":130558,"DIS_CODE":0,"TOWNNAME":"永康區","LI":"大橋里","LIN":"21鄰","STREET":"大橋一街","SECT":" ","MAREA":" ","LANE":"１３９巷","ALLEY":"４４弄","HOUSE_NO":"９０號","E_COORD97":171143.53,"N_COORD97":2546717.5600000001,"ADDRESS":"大橋一街１３９巷４４弄９０號","OBJECTID":130558},"geometry":{"x":171143.53000000026,"y":2546717.5600000024}},{"attributes":{"ID":130559,"DIS_CODE":0,"TOWNNAME":"永康區","LI":"二王里","LIN":"23鄰","STREET":"忠孝路","SECT":" ","MAREA":" ","LANE":"４２９巷","ALLEY":"１５弄","HOUSE_NO":"３號","E_COORD97":172414.54999999999,"N_COORD97":2546504.1099999999,"ADDRESS":"忠孝路４２９巷１５弄３號","OBJECTID":130559},"geometry":{"x":172414.54999999981,"y":2546504.1099999994}},{"attributes":{"ID":130560,"DIS_CODE":0,"TOWNNAME":"永康區","LI":"大灣里","LIN":"27鄰","STREET":"大灣六街","SECT":" ","MAREA":" ","LANE":"８０巷","ALLEY":"３０弄","HOUSE_NO":"１０號","E_COORD97":175229.92999999999,"N_COORD97":2545272.6800000002,"ADDRESS":"大灣六街８０巷３０弄１０號","OBJECTID":130560},"geometry":{"x":175229.93000000156,"y":2545272.6799999997}},{"attributes":{"ID":130561,"DIS_CODE":0,"TOWNNAME":"永康區","LI":"二王里","LIN":"12鄰","STREET":"永二街","SECT":" ","MAREA":" ","LANE":"４４７巷","ALLEY":"６８弄","HOUSE_NO":"８８號","E_COORD97":172817.57000000001,"N_COORD97":2546502.0800000001,"ADDRESS":"永二街４４７巷６８弄８８號","OBJECTID":130561},"geometry":{"x":172817.57000000123,"y":2546502.0800000038}},{"attributes":{"ID":130562,"DIS_CODE":0,"TOWNNAME":"永康區","LI":"二王里","LIN":"12鄰","STREET":"永二街","SECT":" ","MAREA":" ","LANE":"４４７巷","ALLEY":"６８弄","HOUSE_NO":"１２０號","E_COORD97":172789.26999999999,"N_COORD97":2546471.0899999999,"ADDRESS":"永二街４４７巷６８弄１２０號","OBJECTID":130562},"geometry":{"x":172789.26999999955,"y":2546471.089999998}},{"attributes":{"ID":130563,"DIS_CODE":0,"TOWNNAME":"安南區","LI":"海佃里","LIN":"11鄰","STREET":"國安街","SECT":" ","MAREA":" ","LANE":"５６巷","ALLEY":"１１１弄","HOUSE_NO":"１０號","E_COORD97":166918.48999999999,"N_COORD97":2547327.7400000002,"ADDRESS":"國安街５６巷１１１弄１０號","OBJECTID":130563},"geometry":{"x":166918.49000000209,"y":2547327.7400000002}},{"attributes":{"ID":130564,"DIS_CODE":0,"TOWNNAME":"柳營區","LI":"旭山里","LIN":"1鄰","STREET":" ","SECT":" ","MAREA":"新吉庄","LANE":" ","ALLEY":" ","HOUSE_NO":"２號","E_COORD97":186677.60999999999,"N_COORD97":2573783,"ADDRESS":"新吉庄２號","OBJECTID":130564},"geometry":{"x":186677.61000000127,"y":2573783.0000000019}},{"attributes":{"ID":130565,"DIS_CODE":0,"TOWNNAME":"中西區","LI":"元安里","LIN":"13鄰","STREET":"大德街","SECT":" ","MAREA":" ","LANE":" ","ALLEY":" ","HOUSE_NO":"２０號","E_COORD97":167553.82999999999,"N_COORD97":2543383.5099999998,"ADDRESS":"大德街２０號","OBJECTID":130565},"geometry":{"x":167553.83000000101,"y":2543383.5100000016}},{"attributes":{"ID":130566,"DIS_CODE":0,"TOWNNAME":"麻豆區","LI":"安業里","LIN":"7鄰","STREET":" ","SECT":" ","MAREA":"安業","LANE":" ","ALLEY":" ","HOUSE_NO":"１４２號之５","E_COORD97":172632.17000000001,"N_COORD97":2562265.8999999999,"ADDRESS":"安業１４２號之５","OBJECTID":130566},"geometry":{"x":172632.17000000086,"y":2562265.9000000022}},{"attributes":{"ID":130567,"DIS_CODE":0,"TOWNNAME":"麻豆區","LI":"安業里","LIN":"7鄰","STREET":" ","SECT":" ","MAREA":"安業","LANE":" ","ALLEY":" ","HOUSE_NO":"１４２號之７","E_COORD97":172632,"N_COORD97":2562240.4199999999,"ADDRESS":"安業１４２號之７","OBJECTID":130567},"geometry":{"x":172632,"y":2562240.4199999999}},{"attributes":{"ID":130568,"DIS_CODE":0,"TOWNNAME":"麻豆區","LI":"安業里","LIN":"7鄰","STREET":" ","SECT":" ","MAREA":"安業","LANE":" ","ALLEY":" ","HOUSE_NO":"１４３號之１","E_COORD97":172580.04999999999,"N_COORD97":2562194.4300000002,"ADDRESS":"安業１４３號之１","OBJECTID":130568},"geometry":{"x":172580.05000000075,"y":2562194.4300000016}},{"attributes":{"ID":130569,"DIS_CODE":0,"TOWNNAME":"麻豆區","LI":"安業里","LIN":"7鄰","STREET":" ","SECT":" ","MAREA":"安業","LANE":" ","ALLEY":" ","HOUSE_NO":"１４３號之２","E_COORD97":172604.57999999999,"N_COORD97":2562197.7799999998,"ADDRESS":"安業１４３號之２","OBJECTID":130569},"geometry":{"x":172604.58000000007,"y":2562197.7800000012}},{"attributes":{"ID":130570,"DIS_CODE":0,"TOWNNAME":"麻豆區","LI":"安業里","LIN":"7鄰","STREET":" ","SECT":" ","MAREA":"安業","LANE":" ","ALLEY":" ","HOUSE_NO":"１４４號","E_COORD97":172592.53,"N_COORD97":2562187.48,"ADDRESS":"安業１４４號","OBJECTID":130570},"geometry":{"x":172592.53000000119,"y":2562187.4800000023}},{"attributes":{"ID":130571,"DIS_CODE":0,"TOWNNAME":"麻豆區","LI":"安業里","LIN":"7鄰","STREET":" ","SECT":" ","MAREA":"安業","LANE":" ","ALLEY":" ","HOUSE_NO":"１４５號之１","E_COORD97":172554.54000000001,"N_COORD97":2562196.8199999998,"ADDRESS":"安業１４５號之１","OBJECTID":130571},"geometry":{"x":172554.5400000019,"y":2562196.8200000003}},{"attributes":{"ID":130572,"DIS_CODE":0,"TOWNNAME":"麻豆區","LI":"安東里","LIN":"1鄰","STREET":" ","SECT":" ","MAREA":"安業","LANE":" ","ALLEY":" ","HOUSE_NO":"１號之２","E_COORD97":172829.57000000001,"N_COORD97":2563097.1400000001,"ADDRESS":"安業１號之２","OBJECTID":130572},"geometry":{"x":172829.57000000123,"y":2563097.1400000006}},{"attributes":{"ID":130573,"DIS_CODE":0,"TOWNNAME":"麻豆區","LI":"安西里","LIN":"4鄰","STREET":" ","SECT":" ","MAREA":"安業","LANE":" ","ALLEY":" ","HOUSE_NO":"２１４號","E_COORD97":172510.48999999999,"N_COORD97":2562121.5099999998,"ADDRESS":"安業２１４號","OBJECTID":130573},"geometry":{"x":172510.49000000022,"y":2562121.5099999998}},{"attributes":{"ID":130574,"DIS_CODE":0,"TOWNNAME":"安南區","LI":"海佃里","LIN":"11鄰","STREET":"國安街","SECT":" ","MAREA":" ","LANE":"５６巷","ALLEY":"１１１弄","HOUSE_NO":"１１號","E_COORD97":166917.82999999999,"N_COORD97":2547303.29,"ADDRESS":"國安街５６巷１１１弄１１號","OBJECTID":130574},"geometry":{"x":166917.83000000194,"y":2547303.2900000028}},{"attributes":{"ID":130575,"DIS_CODE":0,"TOWNNAME":"安南區","LI":"海佃里","LIN":"11鄰","STREET":"國安街","SECT":" ","MAREA":" ","LANE":"５６巷","ALLEY":"１１１弄","HOUSE_NO":"１２號","E_COORD97":166913.84,"N_COORD97":2547326.4100000001,"ADDRESS":"國安街５６巷１１１弄１２號","OBJECTID":130575},"geometry":{"x":166913.83999999985,"y":2547326.4100000001}},{"attributes":{"ID":130576,"DIS_CODE":0,"TOWNNAME":"安南區","LI":"海佃里","LIN":"11鄰","STREET":"國安街","SECT":" ","MAREA":" ","LANE":"５６巷","ALLEY":"１１１弄","HOUSE_NO":"１３號","E_COORD97":166913.84,"N_COORD97":2547301.2999999998,"ADDRESS":"國安街５６巷１１１弄１３號","OBJECTID":130576},"geometry":{"x":166913.83999999985,"y":2547301.2999999989}},{"attributes":{"ID":130577,"DIS_CODE":0,"TOWNNAME":"安南區","LI":"海佃里","LIN":"11鄰","STREET":"國安街","SECT":" ","MAREA":" ","LANE":"５６巷","ALLEY":"１１１弄","HOUSE_NO":"１４號","E_COORD97":166909.17999999999,"N_COORD97":2547324.4100000001,"ADDRESS":"國安街５６巷１１１弄１４號","OBJECTID":130577},"geometry":{"x":166909.1799999997,"y":2547324.410000002}},{"attributes":{"ID":130578,"DIS_CODE":0,"TOWNNAME":"安南區","LI":"海佃里","LIN":"11鄰","STREET":"國安街","SECT":" ","MAREA":" ","LANE":"５６巷","ALLEY":"１１１弄","HOUSE_NO":"１５號","E_COORD97":166909.17999999999,"N_COORD97":2547301.2999999998,"ADDRESS":"國安街５６巷１１１弄１５號","OBJECTID":130578},"geometry":{"x":166909.1799999997,"y":2547301.2999999989}},{"attributes":{"ID":130579,"DIS_CODE":0,"TOWNNAME":"安南區","LI":"海佃里","LIN":"11鄰","STREET":"國安街","SECT":" ","MAREA":" ","LANE":"５６巷","ALLEY":"１１１弄","HOUSE_NO":"１６號","E_COORD97":166904.53,"N_COORD97":2547324.4100000001,"ADDRESS":"國安街５６巷１１１弄１６號","OBJECTID":130579},"geometry":{"x":166904.53000000026,"y":2547324.410000002}},{"attributes":{"ID":130580,"DIS_CODE":0,"TOWNNAME":"永康區","LI":"大橋里","LIN":"22鄰","STREET":"大橋一街","SECT":" ","MAREA":" ","LANE":"１３９巷","ALLEY":"２２弄","HOUSE_NO":"４０號","E_COORD97":171099.54000000001,"N_COORD97":2546563.4500000002,"ADDRESS":"大橋一街１３９巷２２弄４０號","OBJECTID":130580},"geometry":{"x":171099.54000000004,"y":2546563.450000003}},{"attributes":{"ID":130581,"DIS_CODE":0,"TOWNNAME":"永康區","LI":"二王里","LIN":"45鄰","STREET":"南工街","SECT":" ","MAREA":" ","LANE":"２１２巷","ALLEY":"１３弄","HOUSE_NO":"４號","E_COORD97":172122.88,"N_COORD97":2545964.71,"ADDRESS":"南工街２１２巷１３弄４號","OBJECTID":130581},"geometry":{"x":172122.87999999989,"y":2545964.7100000028}},{"attributes":{"ID":130582,"DIS_CODE":0,"TOWNNAME":"麻豆區","LI":"安西里","LIN":"4鄰","STREET":" ","SECT":" ","MAREA":"安業","LANE":" ","ALLEY":" ","HOUSE_NO":"２１５號","E_COORD97":172491.94,"N_COORD97":2562125.4700000002,"ADDRESS":"安業２１５號","OBJECTID":130582},"geometry":{"x":172491.94000000134,"y":2562125.4700000007}},{"attributes":{"ID":130583,"DIS_CODE":0,"TOWNNAME":"麻豆區","LI":"安西里","LIN":"4鄰","STREET":" ","SECT":" ","MAREA":"安業","LANE":" ","ALLEY":" ","HOUSE_NO":"２１７號","E_COORD97":172477.13,"N_COORD97":2562112.04,"ADDRESS":"安業２１７號","OBJECTID":130583},"geometry":{"x":172477.12999999989,"y":2562112.040000001}},{"attributes":{"ID":130584,"DIS_CODE":0,"TOWNNAME":"安南區","LI":"海佃里","LIN":"11鄰","STREET":"國安街","SECT":" ","MAREA":" ","LANE":"５６巷","ALLEY":"１１１弄","HOUSE_NO":"１７號","E_COORD97":166904.53,"N_COORD97":2547300.6299999999,"ADDRESS":"國安街５６巷１１１弄１７號","OBJECTID":130584},"geometry":{"x":166904.53000000026,"y":2547300.6300000027}},{"attributes":{"ID":130585,"DIS_CODE":0,"TOWNNAME":"安南區","LI":"海佃里","LIN":"11鄰","STREET":"國安街","SECT":" ","MAREA":" ","LANE":"５６巷","ALLEY":"１１１弄","HOUSE_NO":"１８號","E_COORD97":166899.87,"N_COORD97":2547323.75,"ADDRESS":"國安街５６巷１１１弄１８號","OBJECTID":130585},"geometry":{"x":166899.87000000011,"y":2547323.75}},{"attributes":{"ID":130586,"DIS_CODE":0,"TOWNNAME":"安南區","LI":"海佃里","LIN":"11鄰","STREET":"國安街","SECT":" ","MAREA":" ","LANE":"５６巷","ALLEY":"１１１弄","HOUSE_NO":"１９號","E_COORD97":166900.54000000001,"N_COORD97":2547300.6299999999,"ADDRESS":"國安街５６巷１１１弄１９號","OBJECTID":130586},"geometry":{"x":166900.54000000004,"y":2547300.6300000027}},{"attributes":{"ID":130587,"DIS_CODE":0,"TOWNNAME":"安南區","LI":"海佃里","LIN":"11鄰","STREET":"國安街","SECT":" ","MAREA":" ","LANE":"５６巷","ALLEY":"１１１弄","HOUSE_NO":"１號","E_COORD97":166939.76999999999,"N_COORD97":2547307.2799999998,"ADDRESS":"國安街５６巷１１１弄１號","OBJECTID":130587},"geometry":{"x":166939.77000000048,"y":2547307.2800000012}},{"attributes":{"ID":130588,"DIS_CODE":0,"TOWNNAME":"安南區","LI":"海佃里","LIN":"11鄰","STREET":"國安街","SECT":" ","MAREA":" ","LANE":"５６巷","ALLEY":"１１１弄","HOUSE_NO":"２０號","E_COORD97":166896.54999999999,"N_COORD97":2547323.75,"ADDRESS":"國安街５６巷１１１弄２０號","OBJECTID":130588},"geometry":{"x":166896.54999999981,"y":2547323.75}},{"attributes":{"ID":130589,"DIS_CODE":0,"TOWNNAME":"安南區","LI":"海佃里","LIN":"11鄰","STREET":"國安街","SECT":" ","MAREA":" ","LANE":"５６巷","ALLEY":"１１１弄","HOUSE_NO":"２１號","E_COORD97":166895.88,"N_COORD97":2547298.6400000001,"ADDRESS":"國安街５６巷１１１弄２１號","OBJECTID":130589},"geometry":{"x":166895.88000000082,"y":2547298.6400000006}},{"attributes":{"ID":130590,"DIS_CODE":0,"TOWNNAME":"安南區","LI":"海佃里","LIN":"11鄰","STREET":"國安街","SECT":" ","MAREA":" ","LANE":"５６巷","ALLEY":"１１１弄","HOUSE_NO":"２２號","E_COORD97":166891.89000000001,"N_COORD97":2547321.7599999998,"ADDRESS":"國安街５６巷１１１弄２２號","OBJECTID":130590},"geometry":{"x":166891.8900000006,"y":2547321.7600000016}},{"attributes":{"ID":130591,"DIS_CODE":0,"TOWNNAME":"安南區","LI":"海佃里","LIN":"11鄰","STREET":"國安街","SECT":" ","MAREA":" ","LANE":"５６巷","ALLEY":"１１１弄","HOUSE_NO":"２３號","E_COORD97":166891.89000000001,"N_COORD97":2547297.98,"ADDRESS":"國安街５６巷１１１弄２３號","OBJECTID":130591},"geometry":{"x":166891.8900000006,"y":2547297.9800000023}},{"attributes":{"ID":130592,"DIS_CODE":0,"TOWNNAME":"安南區","LI":"海佃里","LIN":"11鄰","STREET":"國安街","SECT":" ","MAREA":" ","LANE":"５６巷","ALLEY":"１１１弄","HOUSE_NO":"２４號","E_COORD97":166887.23999999999,"N_COORD97":2547321.0899999999,"ADDRESS":"國安街５６巷１１１弄２４號","OBJECTID":130592},"geometry":{"x":166887.24000000022,"y":2547321.0899999999}},{"attributes":{"ID":130593,"DIS_CODE":0,"TOWNNAME":"安南區","LI":"海佃里","LIN":"11鄰","STREET":"國安街","SECT":" ","MAREA":" ","LANE":"５６巷","ALLEY":"１１１弄","HOUSE_NO":"２５號","E_COORD97":166887.23999999999,"N_COORD97":2547297.3100000001,"ADDRESS":"國安街５６巷１１１弄２５號","OBJECTID":130593},"geometry":{"x":166887.24000000022,"y":2547297.3100000005}},{"attributes":{"ID":130594,"DIS_CODE":0,"TOWNNAME":"麻豆區","LI":"安西里","LIN":"4鄰","STREET":" ","SECT":" ","MAREA":"安業","LANE":" ","ALLEY":" ","HOUSE_NO":"２１８號","E_COORD97":172471.94,"N_COORD97":2562122.4199999999,"ADDRESS":"安業２１８號","OBJECTID":130594},"geometry":{"x":172471.94000000041,"y":2562122.4200000037}},{"attributes":{"ID":130595,"DIS_CODE":0,"TOWNNAME":"麻豆區","LI":"安西里","LIN":"4鄰","STREET":" ","SECT":" ","MAREA":"安業","LANE":" ","ALLEY":" ","HOUSE_NO":"２２０號","E_COORD97":172494.82999999999,"N_COORD97":2562135.6800000002,"ADDRESS":"安業２２０號","OBJECTID":130595},"geometry":{"x":172494.83000000194,"y":2562135.6800000016}},{"attributes":{"ID":130596,"DIS_CODE":0,"TOWNNAME":"麻豆區","LI":"安西里","LIN":"4鄰","STREET":" ","SECT":" ","MAREA":"安業","LANE":" ","ALLEY":" ","HOUSE_NO":"２２１號之１","E_COORD97":172491.17000000001,"N_COORD97":2562150.8300000001,"ADDRESS":"安業２２１號之１","OBJECTID":130596},"geometry":{"x":172491.17000000086,"y":2562150.8300000019}},{"attributes":{"ID":130597,"DIS_CODE":0,"TOWNNAME":"麻豆區","LI":"安西里","LIN":"4鄰","STREET":" ","SECT":" ","MAREA":"安業","LANE":" ","ALLEY":" ","HOUSE_NO":"２２１號","E_COORD97":172499.37,"N_COORD97":2562145.2799999998,"ADDRESS":"安業２２１號","OBJECTID":130597},"geometry":{"x":172499.37000000011,"y":2562145.2799999993}},{"attributes":{"ID":130598,"DIS_CODE":0,"TOWNNAME":"麻豆區","LI":"安西里","LIN":"4鄰","STREET":" ","SECT":" ","MAREA":"安業","LANE":" ","ALLEY":" ","HOUSE_NO":"２２３號之１","E_COORD97":172456.5,"N_COORD97":2562144.96,"ADDRESS":"安業２２３號之１","OBJECTID":130598},"geometry":{"x":172456.50000000093,"y":2562144.9600000028}},{"attributes":{"ID":130599,"DIS_CODE":0,"TOWNNAME":"麻豆區","LI":"安西里","LIN":"4鄰","STREET":" ","SECT":" ","MAREA":"安業","LANE":" ","ALLEY":" ","HOUSE_NO":"２２３號","E_COORD97":172457.60999999999,"N_COORD97":2562140.2200000002,"ADDRESS":"安業２２３號","OBJECTID":130599},"geometry":{"x":172457.6100000022,"y":2562140.2200000007}},{"attributes":{"ID":130600,"DIS_CODE":0,"TOWNNAME":"麻豆區","LI":"安西里","LIN":"4鄰","STREET":" ","SECT":" ","MAREA":"安業","LANE":" ","ALLEY":" ","HOUSE_NO":"２２４號之１","E_COORD97":172462.92000000001,"N_COORD97":2562174.1400000001,"ADDRESS":"安業２２４號之１","OBJECTID":130600},"geometry":{"x":172462.91999999993,"y":2562174.1400000025}}]}