{"displayFieldName":"TOWNNAME","fieldAliases":{"ID":"ID","DIS_CODE":"DIS_CODE","TOWNNAME":"TOWNNAME","LI":"LI","LIN":"LIN","STREET":"STREET","SECT":"SECT","MAREA":"MAREA","LANE":"LANE","ALLEY":"ALLEY","HOUSE_NO":"HOUSE_NO","E_COORD97":"E_COORD97","N_COORD97":"N_COORD97","ADDRESS":"ADDRESS","OBJECTID":"OBJECTID"},"geometryType":"esriGeometryPoint","spatialReference":{"wkid":102443,"latestWkid":3826},"fields":[{"name":"ID","type":"esriFieldTypeDouble","alias":"ID"},{"name":"DIS_CODE","type":"esriFieldTypeInteger","alias":"DIS_CODE"},{"name":"TOWNNAME","type":"esriFieldTypeString","alias":"TOWNNAME","length":8},{"name":"LI","type":"esriFieldTypeString","alias":"LI","length":8},{"name":"LIN","type":"esriFieldTypeString","alias":"LIN","length":12},{"name":"STREET","type":"esriFieldTypeString","alias":"STREET","length":20},{"name":"SECT","type":"esriFieldTypeString","alias":"SECT","length":8},{"name":"MAREA","type":"esriFieldTypeString","alias":"MAREA","length":12},{"name":"LANE","type":"esriFieldTypeString","alias":"LANE","length":10},{"name":"ALLEY","type":"esriFieldTypeString","alias":"ALLEY","length":10},{"name":"HOUSE_NO","type":"esriFieldTypeString","alias":"HOUSE_NO","length":20},{"name":"E_COORD97","type":"esriFieldTypeDouble","alias":"E_COORD97"},{"name":"N_COORD97","type":"esriFieldTypeDouble","alias":"N_COORD97"},{"name":"ADDRESS","type":"esriFieldTypeString","alias":"ADDRESS","length":50},{"name":"OBJECTID","type":"esriFieldTypeOID","alias":"OBJECTID"}],"features":[{"attributes":{"ID":473226,"DIS_CODE":0,"TOWNNAME":"東區","LI":"龍山里","LIN":"18鄰","STREET":"東門路","SECT":"一段","MAREA":" ","LANE":" ","ALLEY":" ","HOUSE_NO":"２９８號九樓之１","E_COORD97":169698.48000000001,"N_COORD97":2543053.2000000002,"ADDRESS":"東門路一段２９８號九樓之１","OBJECTID":473201},"geometry":{"x":169698.48000000045,"y":2543053.2000000011}},{"attributes":{"ID":473227,"DIS_CODE":0,"TOWNNAME":"東區","LI":"龍山里","LIN":"18鄰","STREET":"東門路","SECT":"一段","MAREA":" ","LANE":" ","ALLEY":" ","HOUSE_NO":"２９８號九樓之２","E_COORD97":169698.48000000001,"N_COORD97":2543053.2000000002,"ADDRESS":"東門路一段２９８號九樓之２","OBJECTID":473202},"geometry":{"x":169698.48000000045,"y":2543053.2000000011}},{"attributes":{"ID":473228,"DIS_CODE":0,"TOWNNAME":"東區","LI":"龍山里","LIN":"18鄰","STREET":"東門路","SECT":"一段","MAREA":" ","LANE":" ","ALLEY":" ","HOUSE_NO":"２９８號九樓之３","E_COORD97":169698.48000000001,"N_COORD97":2543053.2000000002,"ADDRESS":"東門路一段２９８號九樓之３","OBJECTID":473203},"geometry":{"x":169698.48000000045,"y":2543053.2000000011}},{"attributes":{"ID":473229,"DIS_CODE":0,"TOWNNAME":"東區","LI":"龍山里","LIN":"18鄰","STREET":"東門路","SECT":"一段","MAREA":" ","LANE":" ","ALLEY":" ","HOUSE_NO":"２９８號九樓之４","E_COORD97":169698.48000000001,"N_COORD97":2543053.2000000002,"ADDRESS":"東門路一段２９８號九樓之４","OBJECTID":473204},"geometry":{"x":169698.48000000045,"y":2543053.2000000011}},{"attributes":{"ID":473230,"DIS_CODE":0,"TOWNNAME":"東區","LI":"龍山里","LIN":"18鄰","STREET":"東門路","SECT":"一段","MAREA":" ","LANE":" ","ALLEY":" ","HOUSE_NO":"２９８號九樓之５","E_COORD97":169698.48000000001,"N_COORD97":2543053.2000000002,"ADDRESS":"東門路一段２９８號九樓之５","OBJECTID":473205},"geometry":{"x":169698.48000000045,"y":2543053.2000000011}},{"attributes":{"ID":473231,"DIS_CODE":0,"TOWNNAME":"東區","LI":"龍山里","LIN":"18鄰","STREET":"東門路","SECT":"一段","MAREA":" ","LANE":" ","ALLEY":" ","HOUSE_NO":"２９８號九樓之６","E_COORD97":169698.48000000001,"N_COORD97":2543053.2000000002,"ADDRESS":"東門路一段２９８號九樓之６","OBJECTID":473206},"geometry":{"x":169698.48000000045,"y":2543053.2000000011}},{"attributes":{"ID":473232,"DIS_CODE":0,"TOWNNAME":"東區","LI":"龍山里","LIN":"18鄰","STREET":"東門路","SECT":"一段","MAREA":" ","LANE":" ","ALLEY":" ","HOUSE_NO":"２９８號九樓之７","E_COORD97":169698.48000000001,"N_COORD97":2543053.2000000002,"ADDRESS":"東門路一段２９８號九樓之７","OBJECTID":473207},"geometry":{"x":169698.48000000045,"y":2543053.2000000011}},{"attributes":{"ID":473233,"DIS_CODE":0,"TOWNNAME":"東區","LI":"龍山里","LIN":"18鄰","STREET":"東門路","SECT":"一段","MAREA":" ","LANE":" ","ALLEY":" ","HOUSE_NO":"２９８號九樓之８","E_COORD97":169698.48000000001,"N_COORD97":2543053.2000000002,"ADDRESS":"東門路一段２９８號九樓之８","OBJECTID":473208},"geometry":{"x":169698.48000000045,"y":2543053.2000000011}},{"attributes":{"ID":473234,"DIS_CODE":0,"TOWNNAME":"東區","LI":"龍山里","LIN":"18鄰","STREET":"東門路","SECT":"一段","MAREA":" ","LANE":" ","ALLEY":" ","HOUSE_NO":"２９８號十樓","E_COORD97":169698.48000000001,"N_COORD97":2543053.2000000002,"ADDRESS":"東門路一段２９８號十樓","OBJECTID":473209},"geometry":{"x":169698.48000000045,"y":2543053.2000000011}},{"attributes":{"ID":473235,"DIS_CODE":0,"TOWNNAME":"東區","LI":"龍山里","LIN":"18鄰","STREET":"東門路","SECT":"一段","MAREA":" ","LANE":" ","ALLEY":" ","HOUSE_NO":"２９８號十樓之１","E_COORD97":169698.48000000001,"N_COORD97":2543053.2000000002,"ADDRESS":"東門路一段２９８號十樓之１","OBJECTID":473210},"geometry":{"x":169698.48000000045,"y":2543053.2000000011}},{"attributes":{"ID":473236,"DIS_CODE":0,"TOWNNAME":"東區","LI":"龍山里","LIN":"18鄰","STREET":"東門路","SECT":"一段","MAREA":" ","LANE":" ","ALLEY":" ","HOUSE_NO":"２９８號十樓之２","E_COORD97":169698.48000000001,"N_COORD97":2543053.2000000002,"ADDRESS":"東門路一段２９８號十樓之２","OBJECTID":473211},"geometry":{"x":169698.48000000045,"y":2543053.2000000011}},{"attributes":{"ID":473237,"DIS_CODE":0,"TOWNNAME":"東區","LI":"和平里","LIN":"18鄰","STREET":"仁和路","SECT":" ","MAREA":" ","LANE":" ","ALLEY":" ","HOUSE_NO":"７９號六樓之１","E_COORD97":171251.70000000001,"N_COORD97":2541542.7599999998,"ADDRESS":"仁和路７９號六樓之１","OBJECTID":473212},"geometry":{"x":171251.70000000205,"y":2541542.7599999998}},{"attributes":{"ID":473238,"DIS_CODE":0,"TOWNNAME":"東區","LI":"龍山里","LIN":"18鄰","STREET":"東門路","SECT":"一段","MAREA":" ","LANE":" ","ALLEY":" ","HOUSE_NO":"２９８號十樓之３","E_COORD97":169698.48000000001,"N_COORD97":2543053.2000000002,"ADDRESS":"東門路一段２９８號十樓之３","OBJECTID":473213},"geometry":{"x":169698.48000000045,"y":2543053.2000000011}},{"attributes":{"ID":473239,"DIS_CODE":0,"TOWNNAME":"東區","LI":"龍山里","LIN":"18鄰","STREET":"東門路","SECT":"一段","MAREA":" ","LANE":" ","ALLEY":" ","HOUSE_NO":"２９８號十樓之４","E_COORD97":169698.48000000001,"N_COORD97":2543053.2000000002,"ADDRESS":"東門路一段２９８號十樓之４","OBJECTID":473214},"geometry":{"x":169698.48000000045,"y":2543053.2000000011}},{"attributes":{"ID":473240,"DIS_CODE":0,"TOWNNAME":"東區","LI":"龍山里","LIN":"18鄰","STREET":"東門路","SECT":"一段","MAREA":" ","LANE":" ","ALLEY":" ","HOUSE_NO":"２９８號十樓之５","E_COORD97":169698.48000000001,"N_COORD97":2543053.2000000002,"ADDRESS":"東門路一段２９８號十樓之５","OBJECTID":473215},"geometry":{"x":169698.48000000045,"y":2543053.2000000011}},{"attributes":{"ID":473241,"DIS_CODE":0,"TOWNNAME":"東區","LI":"龍山里","LIN":"18鄰","STREET":"東門路","SECT":"一段","MAREA":" ","LANE":" ","ALLEY":" ","HOUSE_NO":"２９８號十樓之６","E_COORD97":169698.48000000001,"N_COORD97":2543053.2000000002,"ADDRESS":"東門路一段２９８號十樓之６","OBJECTID":473216},"geometry":{"x":169698.48000000045,"y":2543053.2000000011}},{"attributes":{"ID":473242,"DIS_CODE":0,"TOWNNAME":"東區","LI":"崇文里","LIN":"18鄰","STREET":"崇德二十街","SECT":" ","MAREA":" ","LANE":" ","ALLEY":" ","HOUSE_NO":"７７號","E_COORD97":171023.26999999999,"N_COORD97":2540926.2200000002,"ADDRESS":"崇德二十街７７號","OBJECTID":473217},"geometry":{"x":171023.27000000142,"y":2540926.2200000025}},{"attributes":{"ID":473243,"DIS_CODE":0,"TOWNNAME":"東區","LI":"龍山里","LIN":"18鄰","STREET":"東門路","SECT":"一段","MAREA":" ","LANE":" ","ALLEY":" ","HOUSE_NO":"２９８號十樓之７","E_COORD97":169698.48000000001,"N_COORD97":2543053.2000000002,"ADDRESS":"東門路一段２９８號十樓之７","OBJECTID":473218},"geometry":{"x":169698.48000000045,"y":2543053.2000000011}},{"attributes":{"ID":473244,"DIS_CODE":0,"TOWNNAME":"東區","LI":"龍山里","LIN":"18鄰","STREET":"東門路","SECT":"一段","MAREA":" ","LANE":" ","ALLEY":" ","HOUSE_NO":"２９８號十樓之８","E_COORD97":169698.48000000001,"N_COORD97":2543053.2000000002,"ADDRESS":"東門路一段２９８號十樓之８","OBJECTID":473219},"geometry":{"x":169698.48000000045,"y":2543053.2000000011}},{"attributes":{"ID":473245,"DIS_CODE":0,"TOWNNAME":"東區","LI":"龍山里","LIN":"18鄰","STREET":"東門路","SECT":"一段","MAREA":" ","LANE":" ","ALLEY":" ","HOUSE_NO":"２９８號十樓之９","E_COORD97":169698.48000000001,"N_COORD97":2543053.2000000002,"ADDRESS":"東門路一段２９８號十樓之９","OBJECTID":473220},"geometry":{"x":169698.48000000045,"y":2543053.2000000011}},{"attributes":{"ID":473246,"DIS_CODE":0,"TOWNNAME":"東區","LI":"龍山里","LIN":"18鄰","STREET":"東門路","SECT":"一段","MAREA":" ","LANE":" ","ALLEY":" ","HOUSE_NO":"２９８號十樓之１０","E_COORD97":169698.48000000001,"N_COORD97":2543053.2000000002,"ADDRESS":"東門路一段２９８號十樓之１０","OBJECTID":473221},"geometry":{"x":169698.48000000045,"y":2543053.2000000011}},{"attributes":{"ID":473247,"DIS_CODE":0,"TOWNNAME":"東區","LI":"龍山里","LIN":"18鄰","STREET":"東門路","SECT":"一段","MAREA":" ","LANE":" ","ALLEY":" ","HOUSE_NO":"２９８號十樓之１１","E_COORD97":169698.48000000001,"N_COORD97":2543053.2000000002,"ADDRESS":"東門路一段２９８號十樓之１１","OBJECTID":473222},"geometry":{"x":169698.48000000045,"y":2543053.2000000011}},{"attributes":{"ID":473248,"DIS_CODE":0,"TOWNNAME":"東區","LI":"龍山里","LIN":"18鄰","STREET":"東門路","SECT":"一段","MAREA":" ","LANE":" ","ALLEY":" ","HOUSE_NO":"２９８號十樓之１２","E_COORD97":169698.48000000001,"N_COORD97":2543053.2000000002,"ADDRESS":"東門路一段２９８號十樓之１２","OBJECTID":473223},"geometry":{"x":169698.48000000045,"y":2543053.2000000011}},{"attributes":{"ID":473249,"DIS_CODE":0,"TOWNNAME":"東區","LI":"龍山里","LIN":"18鄰","STREET":"東門路","SECT":"一段","MAREA":" ","LANE":" ","ALLEY":" ","HOUSE_NO":"２９８號十一樓","E_COORD97":169698.48000000001,"N_COORD97":2543053.2000000002,"ADDRESS":"東門路一段２９８號十一樓","OBJECTID":473224},"geometry":{"x":169698.48000000045,"y":2543053.2000000011}},{"attributes":{"ID":473250,"DIS_CODE":0,"TOWNNAME":"東區","LI":"龍山里","LIN":"18鄰","STREET":"東門路","SECT":"一段","MAREA":" ","LANE":" ","ALLEY":" ","HOUSE_NO":"２９８號十一樓之１","E_COORD97":169698.48000000001,"N_COORD97":2543053.2000000002,"ADDRESS":"東門路一段２９８號十一樓之１","OBJECTID":473225},"geometry":{"x":169698.48000000045,"y":2543053.2000000011}},{"attributes":{"ID":473251,"DIS_CODE":0,"TOWNNAME":"東區","LI":"龍山里","LIN":"18鄰","STREET":"東門路","SECT":"一段","MAREA":" ","LANE":" ","ALLEY":" ","HOUSE_NO":"２９８號十一樓之２","E_COORD97":169698.48000000001,"N_COORD97":2543053.2000000002,"ADDRESS":"東門路一段２９８號十一樓之２","OBJECTID":473226},"geometry":{"x":169698.48000000045,"y":2543053.2000000011}},{"attributes":{"ID":473252,"DIS_CODE":0,"TOWNNAME":"東區","LI":"龍山里","LIN":"18鄰","STREET":"東門路","SECT":"一段","MAREA":" ","LANE":" ","ALLEY":" ","HOUSE_NO":"２９８號十一樓之３","E_COORD97":169698.48000000001,"N_COORD97":2543053.2000000002,"ADDRESS":"東門路一段２９８號十一樓之３","OBJECTID":473227},"geometry":{"x":169698.48000000045,"y":2543053.2000000011}},{"attributes":{"ID":473253,"DIS_CODE":0,"TOWNNAME":"東區","LI":"龍山里","LIN":"18鄰","STREET":"東門路","SECT":"一段","MAREA":" ","LANE":" ","ALLEY":" ","HOUSE_NO":"２９８號十一樓之４","E_COORD97":169698.48000000001,"N_COORD97":2543053.2000000002,"ADDRESS":"東門路一段２９８號十一樓之４","OBJECTID":473228},"geometry":{"x":169698.48000000045,"y":2543053.2000000011}},{"attributes":{"ID":473254,"DIS_CODE":0,"TOWNNAME":"東區","LI":"龍山里","LIN":"18鄰","STREET":"東門路","SECT":"一段","MAREA":" ","LANE":" ","ALLEY":" ","HOUSE_NO":"２９８號十一樓之５","E_COORD97":169698.48000000001,"N_COORD97":2543053.2000000002,"ADDRESS":"東門路一段２９８號十一樓之５","OBJECTID":473229},"geometry":{"x":169698.48000000045,"y":2543053.2000000011}},{"attributes":{"ID":473255,"DIS_CODE":0,"TOWNNAME":"學甲區","LI":"仁得里","LIN":"17鄰","STREET":"自立街","SECT":" ","MAREA":" ","LANE":"９７巷","ALLEY":" ","HOUSE_NO":"１號","E_COORD97":165832.54000000001,"N_COORD97":2569968.8399999999,"ADDRESS":"自立街９７巷１號","OBJECTID":473230},"geometry":{"x":165832.54000000004,"y":2569968.8400000017}},{"attributes":{"ID":473256,"DIS_CODE":0,"TOWNNAME":"東區","LI":"龍山里","LIN":"18鄰","STREET":"東門路","SECT":"一段","MAREA":" ","LANE":" ","ALLEY":" ","HOUSE_NO":"２９８號十一樓之６","E_COORD97":169698.48000000001,"N_COORD97":2543053.2000000002,"ADDRESS":"東門路一段２９８號十一樓之６","OBJECTID":473231},"geometry":{"x":169698.48000000045,"y":2543053.2000000011}},{"attributes":{"ID":473257,"DIS_CODE":0,"TOWNNAME":"東區","LI":"龍山里","LIN":"18鄰","STREET":"東門路","SECT":"一段","MAREA":" ","LANE":" ","ALLEY":" ","HOUSE_NO":"２９８號十一樓之７","E_COORD97":169698.48000000001,"N_COORD97":2543053.2000000002,"ADDRESS":"東門路一段２９８號十一樓之７","OBJECTID":473232},"geometry":{"x":169698.48000000045,"y":2543053.2000000011}},{"attributes":{"ID":473258,"DIS_CODE":0,"TOWNNAME":"東區","LI":"龍山里","LIN":"18鄰","STREET":"東門路","SECT":"一段","MAREA":" ","LANE":" ","ALLEY":" ","HOUSE_NO":"２９８號十一樓之８","E_COORD97":169698.48000000001,"N_COORD97":2543053.2000000002,"ADDRESS":"東門路一段２９８號十一樓之８","OBJECTID":473233},"geometry":{"x":169698.48000000045,"y":2543053.2000000011}},{"attributes":{"ID":473259,"DIS_CODE":0,"TOWNNAME":"東區","LI":"龍山里","LIN":"18鄰","STREET":"東門路","SECT":"一段","MAREA":" ","LANE":" ","ALLEY":" ","HOUSE_NO":"２９８號十一樓之９","E_COORD97":169698.48000000001,"N_COORD97":2543053.2000000002,"ADDRESS":"東門路一段２９８號十一樓之９","OBJECTID":473234},"geometry":{"x":169698.48000000045,"y":2543053.2000000011}},{"attributes":{"ID":473260,"DIS_CODE":0,"TOWNNAME":"東區","LI":"龍山里","LIN":"18鄰","STREET":"東門路","SECT":"一段","MAREA":" ","LANE":" ","ALLEY":" ","HOUSE_NO":"２９８號十一樓之１０","E_COORD97":169698.48000000001,"N_COORD97":2543053.2000000002,"ADDRESS":"東門路一段２９８號十一樓之１０","OBJECTID":473235},"geometry":{"x":169698.48000000045,"y":2543053.2000000011}},{"attributes":{"ID":473261,"DIS_CODE":0,"TOWNNAME":"東區","LI":"龍山里","LIN":"18鄰","STREET":"東門路","SECT":"一段","MAREA":" ","LANE":" ","ALLEY":" ","HOUSE_NO":"２９８號十一樓之１１","E_COORD97":169698.48000000001,"N_COORD97":2543053.2000000002,"ADDRESS":"東門路一段２９８號十一樓之１１","OBJECTID":473236},"geometry":{"x":169698.48000000045,"y":2543053.2000000011}},{"attributes":{"ID":473262,"DIS_CODE":0,"TOWNNAME":"東區","LI":"龍山里","LIN":"18鄰","STREET":"東門路","SECT":"一段","MAREA":" ","LANE":" ","ALLEY":" ","HOUSE_NO":"２９８號十一樓之１２","E_COORD97":169698.48000000001,"N_COORD97":2543053.2000000002,"ADDRESS":"東門路一段２９８號十一樓之１２","OBJECTID":473237},"geometry":{"x":169698.48000000045,"y":2543053.2000000011}},{"attributes":{"ID":473263,"DIS_CODE":0,"TOWNNAME":"東區","LI":"龍山里","LIN":"18鄰","STREET":"東門路","SECT":"一段","MAREA":" ","LANE":" ","ALLEY":" ","HOUSE_NO":"２９８號十一樓之１３","E_COORD97":169698.48000000001,"N_COORD97":2543053.2000000002,"ADDRESS":"東門路一段２９８號十一樓之１３","OBJECTID":473238},"geometry":{"x":169698.48000000045,"y":2543053.2000000011}},{"attributes":{"ID":473264,"DIS_CODE":0,"TOWNNAME":"東區","LI":"龍山里","LIN":"18鄰","STREET":"東門路","SECT":"一段","MAREA":" ","LANE":" ","ALLEY":" ","HOUSE_NO":"２９８號地下一樓","E_COORD97":169698.48000000001,"N_COORD97":2543053.2000000002,"ADDRESS":"東門路一段２９８號地下一樓","OBJECTID":473239},"geometry":{"x":169698.48000000045,"y":2543053.2000000011}},{"attributes":{"ID":473265,"DIS_CODE":0,"TOWNNAME":"東區","LI":"龍山里","LIN":"18鄰","STREET":"東門路","SECT":"一段","MAREA":" ","LANE":" ","ALLEY":" ","HOUSE_NO":"２９８號地下二樓","E_COORD97":169698.48000000001,"N_COORD97":2543053.2000000002,"ADDRESS":"東門路一段２９８號地下二樓","OBJECTID":473240},"geometry":{"x":169698.48000000045,"y":2543053.2000000011}},{"attributes":{"ID":473266,"DIS_CODE":0,"TOWNNAME":"東區","LI":"和平里","LIN":"18鄰","STREET":"仁和路","SECT":" ","MAREA":" ","LANE":" ","ALLEY":" ","HOUSE_NO":"７９號二樓","E_COORD97":171251.70000000001,"N_COORD97":2541542.7599999998,"ADDRESS":"仁和路７９號二樓","OBJECTID":473241},"geometry":{"x":171251.70000000205,"y":2541542.7599999998}},{"attributes":{"ID":473267,"DIS_CODE":0,"TOWNNAME":"東區","LI":"和平里","LIN":"18鄰","STREET":"仁和路","SECT":" ","MAREA":" ","LANE":" ","ALLEY":" ","HOUSE_NO":"７９號三樓","E_COORD97":171251.70000000001,"N_COORD97":2541542.7599999998,"ADDRESS":"仁和路７９號三樓","OBJECTID":473242},"geometry":{"x":171251.70000000205,"y":2541542.7599999998}},{"attributes":{"ID":473268,"DIS_CODE":0,"TOWNNAME":"東區","LI":"和平里","LIN":"18鄰","STREET":"仁和路","SECT":" ","MAREA":" ","LANE":" ","ALLEY":" ","HOUSE_NO":"７９號四樓","E_COORD97":171251.70000000001,"N_COORD97":2541542.7599999998,"ADDRESS":"仁和路７９號四樓","OBJECTID":473243},"geometry":{"x":171251.70000000205,"y":2541542.7599999998}},{"attributes":{"ID":473269,"DIS_CODE":0,"TOWNNAME":"東區","LI":"和平里","LIN":"18鄰","STREET":"仁和路","SECT":" ","MAREA":" ","LANE":" ","ALLEY":" ","HOUSE_NO":"７９號五樓","E_COORD97":171251.70000000001,"N_COORD97":2541542.7599999998,"ADDRESS":"仁和路７９號五樓","OBJECTID":473244},"geometry":{"x":171251.70000000205,"y":2541542.7599999998}},{"attributes":{"ID":473270,"DIS_CODE":0,"TOWNNAME":"東區","LI":"和平里","LIN":"18鄰","STREET":"仁和路","SECT":" ","MAREA":" ","LANE":" ","ALLEY":" ","HOUSE_NO":"７９號六樓","E_COORD97":171251.70000000001,"N_COORD97":2541542.7599999998,"ADDRESS":"仁和路７９號六樓","OBJECTID":473245},"geometry":{"x":171251.70000000205,"y":2541542.7599999998}},{"attributes":{"ID":473271,"DIS_CODE":0,"TOWNNAME":"東區","LI":"和平里","LIN":"18鄰","STREET":"仁和路","SECT":" ","MAREA":" ","LANE":" ","ALLEY":" ","HOUSE_NO":"７９號三樓之１","E_COORD97":171251.70000000001,"N_COORD97":2541542.7599999998,"ADDRESS":"仁和路７９號三樓之１","OBJECTID":473246},"geometry":{"x":171251.70000000205,"y":2541542.7599999998}},{"attributes":{"ID":473272,"DIS_CODE":0,"TOWNNAME":"東區","LI":"和平里","LIN":"18鄰","STREET":"仁和路","SECT":" ","MAREA":" ","LANE":" ","ALLEY":" ","HOUSE_NO":"７９號四樓之１","E_COORD97":171251.70000000001,"N_COORD97":2541542.7599999998,"ADDRESS":"仁和路７９號四樓之１","OBJECTID":473247},"geometry":{"x":171251.70000000205,"y":2541542.7599999998}},{"attributes":{"ID":473273,"DIS_CODE":0,"TOWNNAME":"東區","LI":"和平里","LIN":"18鄰","STREET":"仁和路","SECT":" ","MAREA":" ","LANE":" ","ALLEY":" ","HOUSE_NO":"７９號五樓之１","E_COORD97":171251.70000000001,"N_COORD97":2541542.7599999998,"ADDRESS":"仁和路７９號五樓之１","OBJECTID":473248},"geometry":{"x":171251.70000000205,"y":2541542.7599999998}},{"attributes":{"ID":473274,"DIS_CODE":0,"TOWNNAME":"東區","LI":"和平里","LIN":"18鄰","STREET":"仁和路","SECT":" ","MAREA":" ","LANE":" ","ALLEY":" ","HOUSE_NO":"７９號七樓之１","E_COORD97":171251.70000000001,"N_COORD97":2541542.7599999998,"ADDRESS":"仁和路７９號七樓之１","OBJECTID":473249},"geometry":{"x":171251.70000000205,"y":2541542.7599999998}},{"attributes":{"ID":473275,"DIS_CODE":0,"TOWNNAME":"東區","LI":"和平里","LIN":"18鄰","STREET":"仁和路","SECT":" ","MAREA":" ","LANE":" ","ALLEY":" ","HOUSE_NO":"７９號三樓之２","E_COORD97":171251.70000000001,"N_COORD97":2541542.7599999998,"ADDRESS":"仁和路７９號三樓之２","OBJECTID":473250},"geometry":{"x":171251.70000000205,"y":2541542.7599999998}},{"attributes":{"ID":473276,"DIS_CODE":0,"TOWNNAME":"東區","LI":"和平里","LIN":"18鄰","STREET":"仁和路","SECT":" ","MAREA":" ","LANE":" ","ALLEY":" ","HOUSE_NO":"７９號四樓之２","E_COORD97":171251.70000000001,"N_COORD97":2541542.7599999998,"ADDRESS":"仁和路７９號四樓之２","OBJECTID":473251},"geometry":{"x":171251.70000000205,"y":2541542.7599999998}},{"attributes":{"ID":473277,"DIS_CODE":0,"TOWNNAME":"東區","LI":"和平里","LIN":"18鄰","STREET":"仁和路","SECT":" ","MAREA":" ","LANE":" ","ALLEY":" ","HOUSE_NO":"７９號五樓之２","E_COORD97":171251.70000000001,"N_COORD97":2541542.7599999998,"ADDRESS":"仁和路７９號五樓之２","OBJECTID":473252},"geometry":{"x":171251.70000000205,"y":2541542.7599999998}},{"attributes":{"ID":473278,"DIS_CODE":0,"TOWNNAME":"東區","LI":"和平里","LIN":"18鄰","STREET":"仁和路","SECT":" ","MAREA":" ","LANE":" ","ALLEY":" ","HOUSE_NO":"７９號六樓之２","E_COORD97":171251.70000000001,"N_COORD97":2541542.7599999998,"ADDRESS":"仁和路７９號六樓之２","OBJECTID":473253},"geometry":{"x":171251.70000000205,"y":2541542.7599999998}},{"attributes":{"ID":473279,"DIS_CODE":0,"TOWNNAME":"東區","LI":"和平里","LIN":"18鄰","STREET":"仁和路","SECT":" ","MAREA":" ","LANE":" ","ALLEY":" ","HOUSE_NO":"７９號七樓之２","E_COORD97":171251.70000000001,"N_COORD97":2541542.7599999998,"ADDRESS":"仁和路７９號七樓之２","OBJECTID":473254},"geometry":{"x":171251.70000000205,"y":2541542.7599999998}},{"attributes":{"ID":473280,"DIS_CODE":0,"TOWNNAME":"東區","LI":"和平里","LIN":"18鄰","STREET":"仁和路","SECT":" ","MAREA":" ","LANE":" ","ALLEY":" ","HOUSE_NO":"７９號三樓之３","E_COORD97":171251.70000000001,"N_COORD97":2541542.7599999998,"ADDRESS":"仁和路７９號三樓之３","OBJECTID":473255},"geometry":{"x":171251.70000000205,"y":2541542.7599999998}},{"attributes":{"ID":473281,"DIS_CODE":0,"TOWNNAME":"東區","LI":"和平里","LIN":"18鄰","STREET":"仁和路","SECT":" ","MAREA":" ","LANE":" ","ALLEY":" ","HOUSE_NO":"７９號四樓之３","E_COORD97":171251.70000000001,"N_COORD97":2541542.7599999998,"ADDRESS":"仁和路７９號四樓之３","OBJECTID":473256},"geometry":{"x":171251.70000000205,"y":2541542.7599999998}},{"attributes":{"ID":473282,"DIS_CODE":0,"TOWNNAME":"東區","LI":"和平里","LIN":"18鄰","STREET":"仁和路","SECT":" ","MAREA":" ","LANE":" ","ALLEY":" ","HOUSE_NO":"７９號五樓之３","E_COORD97":171251.70000000001,"N_COORD97":2541542.7599999998,"ADDRESS":"仁和路７９號五樓之３","OBJECTID":473257},"geometry":{"x":171251.70000000205,"y":2541542.7599999998}},{"attributes":{"ID":473283,"DIS_CODE":0,"TOWNNAME":"東區","LI":"和平里","LIN":"18鄰","STREET":"仁和路","SECT":" ","MAREA":" ","LANE":" ","ALLEY":" ","HOUSE_NO":"７９號六樓之３","E_COORD97":171251.70000000001,"N_COORD97":2541542.7599999998,"ADDRESS":"仁和路７９號六樓之３","OBJECTID":473258},"geometry":{"x":171251.70000000205,"y":2541542.7599999998}},{"attributes":{"ID":473284,"DIS_CODE":0,"TOWNNAME":"學甲區","LI":"仁得里","LIN":"17鄰","STREET":"信義路","SECT":" ","MAREA":" ","LANE":"１７巷","ALLEY":" ","HOUSE_NO":"５號","E_COORD97":165544.69,"N_COORD97":2570202.6099999999,"ADDRESS":"信義路１７巷５號","OBJECTID":473259},"geometry":{"x":165544.69000000134,"y":2570202.6099999994}},{"attributes":{"ID":473285,"DIS_CODE":0,"TOWNNAME":"東區","LI":"和平里","LIN":"18鄰","STREET":"仁和路","SECT":" ","MAREA":" ","LANE":" ","ALLEY":" ","HOUSE_NO":"７９號七樓之３","E_COORD97":171251.70000000001,"N_COORD97":2541542.7599999998,"ADDRESS":"仁和路７９號七樓之３","OBJECTID":473260},"geometry":{"x":171251.70000000205,"y":2541542.7599999998}},{"attributes":{"ID":473286,"DIS_CODE":0,"TOWNNAME":"東區","LI":"和平里","LIN":"18鄰","STREET":"仁和路","SECT":" ","MAREA":" ","LANE":" ","ALLEY":" ","HOUSE_NO":"７９號三樓之４","E_COORD97":171251.70000000001,"N_COORD97":2541542.7599999998,"ADDRESS":"仁和路７９號三樓之４","OBJECTID":473261},"geometry":{"x":171251.70000000205,"y":2541542.7599999998}},{"attributes":{"ID":473287,"DIS_CODE":0,"TOWNNAME":"東區","LI":"和平里","LIN":"18鄰","STREET":"仁和路","SECT":" ","MAREA":" ","LANE":" ","ALLEY":" ","HOUSE_NO":"７９號四樓之４","E_COORD97":171251.70000000001,"N_COORD97":2541542.7599999998,"ADDRESS":"仁和路７９號四樓之４","OBJECTID":473262},"geometry":{"x":171251.70000000205,"y":2541542.7599999998}},{"attributes":{"ID":473288,"DIS_CODE":0,"TOWNNAME":"東區","LI":"和平里","LIN":"18鄰","STREET":"仁和路","SECT":" ","MAREA":" ","LANE":" ","ALLEY":" ","HOUSE_NO":"７９號五樓之４","E_COORD97":171251.70000000001,"N_COORD97":2541542.7599999998,"ADDRESS":"仁和路７９號五樓之４","OBJECTID":473263},"geometry":{"x":171251.70000000205,"y":2541542.7599999998}},{"attributes":{"ID":473289,"DIS_CODE":0,"TOWNNAME":"東區","LI":"和平里","LIN":"18鄰","STREET":"仁和路","SECT":" ","MAREA":" ","LANE":" ","ALLEY":" ","HOUSE_NO":"７９號六樓之４","E_COORD97":171251.70000000001,"N_COORD97":2541542.7599999998,"ADDRESS":"仁和路７９號六樓之４","OBJECTID":473264},"geometry":{"x":171251.70000000205,"y":2541542.7599999998}},{"attributes":{"ID":473290,"DIS_CODE":0,"TOWNNAME":"佳里區","LI":"鎮山里","LIN":"18鄰","STREET":"佳南路","SECT":" ","MAREA":" ","LANE":" ","ALLEY":" ","HOUSE_NO":"２２２號","E_COORD97":166113.56,"N_COORD97":2561035,"ADDRESS":"佳南路２２２號","OBJECTID":473265},"geometry":{"x":166113.55999999959,"y":2561035.0000000019}},{"attributes":{"ID":473291,"DIS_CODE":0,"TOWNNAME":"東區","LI":"和平里","LIN":"18鄰","STREET":"仁和路","SECT":" ","MAREA":" ","LANE":" ","ALLEY":" ","HOUSE_NO":"７９號七樓之４","E_COORD97":171251.70000000001,"N_COORD97":2541542.7599999998,"ADDRESS":"仁和路７９號七樓之４","OBJECTID":473266},"geometry":{"x":171251.70000000205,"y":2541542.7599999998}},{"attributes":{"ID":473292,"DIS_CODE":0,"TOWNNAME":"東區","LI":"和平里","LIN":"18鄰","STREET":"仁和路","SECT":" ","MAREA":" ","LANE":" ","ALLEY":" ","HOUSE_NO":"７９號三樓之５","E_COORD97":171251.70000000001,"N_COORD97":2541542.7599999998,"ADDRESS":"仁和路７９號三樓之５","OBJECTID":473267},"geometry":{"x":171251.70000000205,"y":2541542.7599999998}},{"attributes":{"ID":473293,"DIS_CODE":0,"TOWNNAME":"東區","LI":"和平里","LIN":"18鄰","STREET":"仁和路","SECT":" ","MAREA":" ","LANE":" ","ALLEY":" ","HOUSE_NO":"７９號四樓之５","E_COORD97":171251.70000000001,"N_COORD97":2541542.7599999998,"ADDRESS":"仁和路７９號四樓之５","OBJECTID":473268},"geometry":{"x":171251.70000000205,"y":2541542.7599999998}},{"attributes":{"ID":473294,"DIS_CODE":0,"TOWNNAME":"東區","LI":"和平里","LIN":"18鄰","STREET":"仁和路","SECT":" ","MAREA":" ","LANE":" ","ALLEY":" ","HOUSE_NO":"７９號五樓之５","E_COORD97":171251.70000000001,"N_COORD97":2541542.7599999998,"ADDRESS":"仁和路７９號五樓之５","OBJECTID":473269},"geometry":{"x":171251.70000000205,"y":2541542.7599999998}},{"attributes":{"ID":473295,"DIS_CODE":0,"TOWNNAME":"東區","LI":"和平里","LIN":"18鄰","STREET":"仁和路","SECT":" ","MAREA":" ","LANE":" ","ALLEY":" ","HOUSE_NO":"７９號六樓之５","E_COORD97":171251.70000000001,"N_COORD97":2541542.7599999998,"ADDRESS":"仁和路７９號六樓之５","OBJECTID":473270},"geometry":{"x":171251.70000000205,"y":2541542.7599999998}},{"attributes":{"ID":473296,"DIS_CODE":0,"TOWNNAME":"東區","LI":"和平里","LIN":"18鄰","STREET":"仁和路","SECT":" ","MAREA":" ","LANE":" ","ALLEY":" ","HOUSE_NO":"７９號七樓之５","E_COORD97":171251.70000000001,"N_COORD97":2541542.7599999998,"ADDRESS":"仁和路７９號七樓之５","OBJECTID":473271},"geometry":{"x":171251.70000000205,"y":2541542.7599999998}},{"attributes":{"ID":473297,"DIS_CODE":0,"TOWNNAME":"東區","LI":"和平里","LIN":"18鄰","STREET":"仁和路","SECT":" ","MAREA":" ","LANE":" ","ALLEY":" ","HOUSE_NO":"７９號三樓之６","E_COORD97":171251.70000000001,"N_COORD97":2541542.7599999998,"ADDRESS":"仁和路７９號三樓之６","OBJECTID":473272},"geometry":{"x":171251.70000000205,"y":2541542.7599999998}},{"attributes":{"ID":473298,"DIS_CODE":0,"TOWNNAME":"東區","LI":"和平里","LIN":"18鄰","STREET":"仁和路","SECT":" ","MAREA":" ","LANE":" ","ALLEY":" ","HOUSE_NO":"７９號四樓之６","E_COORD97":171251.70000000001,"N_COORD97":2541542.7599999998,"ADDRESS":"仁和路７９號四樓之６","OBJECTID":473273},"geometry":{"x":171251.70000000205,"y":2541542.7599999998}},{"attributes":{"ID":473299,"DIS_CODE":0,"TOWNNAME":"東區","LI":"和平里","LIN":"18鄰","STREET":"仁和路","SECT":" ","MAREA":" ","LANE":" ","ALLEY":" ","HOUSE_NO":"７９號五樓之６","E_COORD97":171251.70000000001,"N_COORD97":2541542.7599999998,"ADDRESS":"仁和路７９號五樓之６","OBJECTID":473274},"geometry":{"x":171251.70000000205,"y":2541542.7599999998}},{"attributes":{"ID":473300,"DIS_CODE":0,"TOWNNAME":"東區","LI":"和平里","LIN":"18鄰","STREET":"仁和路","SECT":" ","MAREA":" ","LANE":" ","ALLEY":" ","HOUSE_NO":"７９號六樓之６","E_COORD97":171251.70000000001,"N_COORD97":2541542.7599999998,"ADDRESS":"仁和路７９號六樓之６","OBJECTID":473275},"geometry":{"x":171251.70000000205,"y":2541542.7599999998}},{"attributes":{"ID":473301,"DIS_CODE":0,"TOWNNAME":"東區","LI":"和平里","LIN":"18鄰","STREET":"仁和路","SECT":" ","MAREA":" ","LANE":" ","ALLEY":" ","HOUSE_NO":"７９號七樓之６","E_COORD97":171251.70000000001,"N_COORD97":2541542.7599999998,"ADDRESS":"仁和路７９號七樓之６","OBJECTID":473276},"geometry":{"x":171251.70000000205,"y":2541542.7599999998}},{"attributes":{"ID":473302,"DIS_CODE":0,"TOWNNAME":"東區","LI":"和平里","LIN":"18鄰","STREET":"仁和路","SECT":" ","MAREA":" ","LANE":" ","ALLEY":" ","HOUSE_NO":"７９號四樓之８","E_COORD97":171251.70000000001,"N_COORD97":2541542.7599999998,"ADDRESS":"仁和路７９號四樓之８","OBJECTID":473277},"geometry":{"x":171251.70000000205,"y":2541542.7599999998}},{"attributes":{"ID":473303,"DIS_CODE":0,"TOWNNAME":"東區","LI":"和平里","LIN":"18鄰","STREET":"仁和路","SECT":" ","MAREA":" ","LANE":" ","ALLEY":" ","HOUSE_NO":"７９號五樓之８","E_COORD97":171251.70000000001,"N_COORD97":2541542.7599999998,"ADDRESS":"仁和路７９號五樓之８","OBJECTID":473278},"geometry":{"x":171251.70000000205,"y":2541542.7599999998}},{"attributes":{"ID":473304,"DIS_CODE":0,"TOWNNAME":"東區","LI":"和平里","LIN":"18鄰","STREET":"仁和路","SECT":" ","MAREA":" ","LANE":" ","ALLEY":" ","HOUSE_NO":"７９號六樓之８","E_COORD97":171251.70000000001,"N_COORD97":2541542.7599999998,"ADDRESS":"仁和路７９號六樓之８","OBJECTID":473279},"geometry":{"x":171251.70000000205,"y":2541542.7599999998}},{"attributes":{"ID":473305,"DIS_CODE":0,"TOWNNAME":"永康區","LI":"大橋里","LIN":"18鄰","STREET":"大橋二街","SECT":" ","MAREA":" ","LANE":" ","ALLEY":" ","HOUSE_NO":"１９２號五樓之１","E_COORD97":171134.72,"N_COORD97":2546764.96,"ADDRESS":"大橋二街１９２號五樓之１","OBJECTID":473280},"geometry":{"x":171134.72000000067,"y":2546764.9600000046}},{"attributes":{"ID":473306,"DIS_CODE":0,"TOWNNAME":"永康區","LI":"大橋里","LIN":"18鄰","STREET":"大橋二街","SECT":" ","MAREA":" ","LANE":" ","ALLEY":" ","HOUSE_NO":"１７２號五樓","E_COORD97":171084.89000000001,"N_COORD97":2546737.79,"ADDRESS":"大橋二街１７２號五樓","OBJECTID":473281},"geometry":{"x":171084.88999999966,"y":2546737.790000001}},{"attributes":{"ID":473307,"DIS_CODE":0,"TOWNNAME":"永康區","LI":"大橋里","LIN":"18鄰","STREET":"大橋二街","SECT":" ","MAREA":" ","LANE":" ","ALLEY":" ","HOUSE_NO":"１８６號六樓之３","E_COORD97":171107.73000000001,"N_COORD97":2546778.8999999999,"ADDRESS":"大橋二街１８６號六樓之３","OBJECTID":473282},"geometry":{"x":171107.73000000231,"y":2546778.9000000022}},{"attributes":{"ID":473308,"DIS_CODE":0,"TOWNNAME":"永康區","LI":"大橋里","LIN":"18鄰","STREET":"大橋二街","SECT":" ","MAREA":" ","LANE":" ","ALLEY":" ","HOUSE_NO":"１６８號六樓","E_COORD97":171074.64999999999,"N_COORD97":2546755.2000000002,"ADDRESS":"大橋二街１６８號六樓","OBJECTID":473283},"geometry":{"x":171074.6500000013,"y":2546755.2000000011}},{"attributes":{"ID":473309,"DIS_CODE":0,"TOWNNAME":"永康區","LI":"大橋里","LIN":"18鄰","STREET":"大橋二街","SECT":" ","MAREA":" ","LANE":" ","ALLEY":" ","HOUSE_NO":"１８６號四樓之１","E_COORD97":171107.63,"N_COORD97":2546778.8999999999,"ADDRESS":"大橋二街１８６號四樓之１","OBJECTID":473284},"geometry":{"x":171107.63000000175,"y":2546778.9000000022}},{"attributes":{"ID":473310,"DIS_CODE":0,"TOWNNAME":"永康區","LI":"大橋里","LIN":"18鄰","STREET":"大橋二街","SECT":" ","MAREA":" ","LANE":" ","ALLEY":" ","HOUSE_NO":"１８６號四樓之４","E_COORD97":171107.66,"N_COORD97":2546778.8999999999,"ADDRESS":"大橋二街１８６號四樓之４","OBJECTID":473285},"geometry":{"x":171107.65999999922,"y":2546778.9000000022}},{"attributes":{"ID":473311,"DIS_CODE":0,"TOWNNAME":"永康區","LI":"大橋里","LIN":"18鄰","STREET":"大橋二街","SECT":" ","MAREA":" ","LANE":" ","ALLEY":" ","HOUSE_NO":"１８６號三樓之３","E_COORD97":171107.73000000001,"N_COORD97":2546778.8999999999,"ADDRESS":"大橋二街１８６號三樓之３","OBJECTID":473286},"geometry":{"x":171107.73000000231,"y":2546778.9000000022}},{"attributes":{"ID":473312,"DIS_CODE":0,"TOWNNAME":"永康區","LI":"大橋里","LIN":"18鄰","STREET":"大橋二街","SECT":" ","MAREA":" ","LANE":" ","ALLEY":" ","HOUSE_NO":"１７６號六樓","E_COORD97":171089.26000000001,"N_COORD97":2546760.21,"ADDRESS":"大橋二街１７６號六樓","OBJECTID":473287},"geometry":{"x":171089.25999999978,"y":2546760.2100000028}},{"attributes":{"ID":473313,"DIS_CODE":0,"TOWNNAME":"善化區","LI":"東關里","LIN":"18鄰","STREET":"中山路","SECT":" ","MAREA":" ","LANE":" ","ALLEY":" ","HOUSE_NO":"３４９號二樓","E_COORD97":177642.17000000001,"N_COORD97":2559064.3799999999,"ADDRESS":"中山路３４９號二樓","OBJECTID":473288},"geometry":{"x":177642.16999999993,"y":2559064.3800000008}},{"attributes":{"ID":473314,"DIS_CODE":0,"TOWNNAME":"善化區","LI":"東關里","LIN":"18鄰","STREET":"中山路","SECT":" ","MAREA":" ","LANE":" ","ALLEY":" ","HOUSE_NO":"３４９號三樓","E_COORD97":177642.17000000001,"N_COORD97":2559064.3799999999,"ADDRESS":"中山路３４９號三樓","OBJECTID":473289},"geometry":{"x":177642.16999999993,"y":2559064.3800000008}},{"attributes":{"ID":473315,"DIS_CODE":0,"TOWNNAME":"善化區","LI":"東關里","LIN":"18鄰","STREET":"中山路","SECT":" ","MAREA":" ","LANE":" ","ALLEY":" ","HOUSE_NO":"３４９號四樓","E_COORD97":177642.17000000001,"N_COORD97":2559064.3799999999,"ADDRESS":"中山路３４９號四樓","OBJECTID":473290},"geometry":{"x":177642.16999999993,"y":2559064.3800000008}},{"attributes":{"ID":473316,"DIS_CODE":0,"TOWNNAME":"善化區","LI":"東關里","LIN":"18鄰","STREET":"中山路","SECT":" ","MAREA":" ","LANE":" ","ALLEY":" ","HOUSE_NO":"３４９號五樓","E_COORD97":177642.17000000001,"N_COORD97":2559064.3799999999,"ADDRESS":"中山路３４９號五樓","OBJECTID":473291},"geometry":{"x":177642.16999999993,"y":2559064.3800000008}},{"attributes":{"ID":473317,"DIS_CODE":0,"TOWNNAME":"善化區","LI":"東關里","LIN":"18鄰","STREET":"中山路","SECT":" ","MAREA":" ","LANE":" ","ALLEY":" ","HOUSE_NO":"３４９號六樓","E_COORD97":177642.17000000001,"N_COORD97":2559064.3799999999,"ADDRESS":"中山路３４９號六樓","OBJECTID":473292},"geometry":{"x":177642.16999999993,"y":2559064.3800000008}},{"attributes":{"ID":473318,"DIS_CODE":0,"TOWNNAME":"善化區","LI":"東關里","LIN":"18鄰","STREET":"中山路","SECT":" ","MAREA":" ","LANE":" ","ALLEY":" ","HOUSE_NO":"３４９號七樓","E_COORD97":177642.17000000001,"N_COORD97":2559064.3799999999,"ADDRESS":"中山路３４９號七樓","OBJECTID":473293},"geometry":{"x":177642.16999999993,"y":2559064.3800000008}},{"attributes":{"ID":473319,"DIS_CODE":0,"TOWNNAME":"善化區","LI":"東關里","LIN":"18鄰","STREET":"中山路","SECT":" ","MAREA":" ","LANE":" ","ALLEY":" ","HOUSE_NO":"３４９號八樓","E_COORD97":177642.17000000001,"N_COORD97":2559064.3799999999,"ADDRESS":"中山路３４９號八樓","OBJECTID":473294},"geometry":{"x":177642.16999999993,"y":2559064.3800000008}},{"attributes":{"ID":473320,"DIS_CODE":0,"TOWNNAME":"善化區","LI":"東關里","LIN":"18鄰","STREET":"中山路","SECT":" ","MAREA":" ","LANE":" ","ALLEY":" ","HOUSE_NO":"３４９號九樓","E_COORD97":177642.17000000001,"N_COORD97":2559064.3799999999,"ADDRESS":"中山路３４９號九樓","OBJECTID":473295},"geometry":{"x":177642.16999999993,"y":2559064.3800000008}},{"attributes":{"ID":473321,"DIS_CODE":0,"TOWNNAME":"中西區","LI":"安海里","LIN":"18鄰","STREET":"民生路","SECT":"二段","MAREA":" ","LANE":" ","ALLEY":" ","HOUSE_NO":"３０７號二十四樓","E_COORD97":167043.10999999999,"N_COORD97":2544166.9300000002,"ADDRESS":"民生路二段３０７號二十四樓","OBJECTID":473296},"geometry":{"x":167043.1099999994,"y":2544166.9300000034}},{"attributes":{"ID":473322,"DIS_CODE":0,"TOWNNAME":"中西區","LI":"安海里","LIN":"18鄰","STREET":"民生路","SECT":"二段","MAREA":" ","LANE":" ","ALLEY":" ","HOUSE_NO":"３０７號二樓之１","E_COORD97":167043.10999999999,"N_COORD97":2544166.9300000002,"ADDRESS":"民生路二段３０７號二樓之１","OBJECTID":473297},"geometry":{"x":167043.1099999994,"y":2544166.9300000034}},{"attributes":{"ID":473323,"DIS_CODE":0,"TOWNNAME":"中西區","LI":"安海里","LIN":"18鄰","STREET":"民生路","SECT":"二段","MAREA":" ","LANE":" ","ALLEY":" ","HOUSE_NO":"３０７號三樓之１","E_COORD97":167043.10999999999,"N_COORD97":2544166.9300000002,"ADDRESS":"民生路二段３０７號三樓之１","OBJECTID":473298},"geometry":{"x":167043.1099999994,"y":2544166.9300000034}},{"attributes":{"ID":473324,"DIS_CODE":0,"TOWNNAME":"中西區","LI":"安海里","LIN":"18鄰","STREET":"民生路","SECT":"二段","MAREA":" ","LANE":" ","ALLEY":" ","HOUSE_NO":"３０７號四樓之１","E_COORD97":167043.10999999999,"N_COORD97":2544166.9300000002,"ADDRESS":"民生路二段３０７號四樓之１","OBJECTID":473299},"geometry":{"x":167043.1099999994,"y":2544166.9300000034}},{"attributes":{"ID":473325,"DIS_CODE":0,"TOWNNAME":"中西區","LI":"安海里","LIN":"18鄰","STREET":"民生路","SECT":"二段","MAREA":" ","LANE":" ","ALLEY":" ","HOUSE_NO":"３０７號五樓之１","E_COORD97":167043.10999999999,"N_COORD97":2544166.9300000002,"ADDRESS":"民生路二段３０７號五樓之１","OBJECTID":473300},"geometry":{"x":167043.1099999994,"y":2544166.9300000034}},{"attributes":{"ID":473326,"DIS_CODE":0,"TOWNNAME":"中西區","LI":"安海里","LIN":"18鄰","STREET":"民生路","SECT":"二段","MAREA":" ","LANE":" ","ALLEY":" ","HOUSE_NO":"３０７號六樓之１","E_COORD97":167043.10999999999,"N_COORD97":2544166.9300000002,"ADDRESS":"民生路二段３０７號六樓之１","OBJECTID":473301},"geometry":{"x":167043.1099999994,"y":2544166.9300000034}},{"attributes":{"ID":473327,"DIS_CODE":0,"TOWNNAME":"中西區","LI":"安海里","LIN":"18鄰","STREET":"民生路","SECT":"二段","MAREA":" ","LANE":" ","ALLEY":" ","HOUSE_NO":"３０７號七樓之１","E_COORD97":167043.10999999999,"N_COORD97":2544166.9300000002,"ADDRESS":"民生路二段３０７號七樓之１","OBJECTID":473302},"geometry":{"x":167043.1099999994,"y":2544166.9300000034}},{"attributes":{"ID":473328,"DIS_CODE":0,"TOWNNAME":"中西區","LI":"安海里","LIN":"18鄰","STREET":"民生路","SECT":"二段","MAREA":" ","LANE":" ","ALLEY":" ","HOUSE_NO":"３０７號八樓之１","E_COORD97":167043.10999999999,"N_COORD97":2544166.9300000002,"ADDRESS":"民生路二段３０７號八樓之１","OBJECTID":473303},"geometry":{"x":167043.1099999994,"y":2544166.9300000034}},{"attributes":{"ID":473329,"DIS_CODE":0,"TOWNNAME":"中西區","LI":"安海里","LIN":"18鄰","STREET":"民生路","SECT":"二段","MAREA":" ","LANE":" ","ALLEY":" ","HOUSE_NO":"３０７號九樓之１","E_COORD97":167043.10999999999,"N_COORD97":2544166.9300000002,"ADDRESS":"民生路二段３０７號九樓之１","OBJECTID":473304},"geometry":{"x":167043.1099999994,"y":2544166.9300000034}},{"attributes":{"ID":473330,"DIS_CODE":0,"TOWNNAME":"中西區","LI":"安海里","LIN":"18鄰","STREET":"民生路","SECT":"二段","MAREA":" ","LANE":" ","ALLEY":" ","HOUSE_NO":"３０７號十樓之１","E_COORD97":167043.10999999999,"N_COORD97":2544166.9300000002,"ADDRESS":"民生路二段３０７號十樓之１","OBJECTID":473305},"geometry":{"x":167043.1099999994,"y":2544166.9300000034}},{"attributes":{"ID":473331,"DIS_CODE":0,"TOWNNAME":"中西區","LI":"安海里","LIN":"18鄰","STREET":"民生路","SECT":"二段","MAREA":" ","LANE":" ","ALLEY":" ","HOUSE_NO":"３０７號十一樓之１","E_COORD97":167043.10999999999,"N_COORD97":2544166.9300000002,"ADDRESS":"民生路二段３０７號十一樓之１","OBJECTID":473306},"geometry":{"x":167043.1099999994,"y":2544166.9300000034}},{"attributes":{"ID":473332,"DIS_CODE":0,"TOWNNAME":"中西區","LI":"安海里","LIN":"18鄰","STREET":"民生路","SECT":"二段","MAREA":" ","LANE":" ","ALLEY":" ","HOUSE_NO":"３０７號十二樓之１","E_COORD97":167043.10999999999,"N_COORD97":2544166.9300000002,"ADDRESS":"民生路二段３０７號十二樓之１","OBJECTID":473307},"geometry":{"x":167043.1099999994,"y":2544166.9300000034}},{"attributes":{"ID":473333,"DIS_CODE":0,"TOWNNAME":"中西區","LI":"安海里","LIN":"18鄰","STREET":"民生路","SECT":"二段","MAREA":" ","LANE":" ","ALLEY":" ","HOUSE_NO":"３０７號十三樓之１","E_COORD97":167043.10999999999,"N_COORD97":2544166.9300000002,"ADDRESS":"民生路二段３０７號十三樓之１","OBJECTID":473308},"geometry":{"x":167043.1099999994,"y":2544166.9300000034}},{"attributes":{"ID":473334,"DIS_CODE":0,"TOWNNAME":"中西區","LI":"安海里","LIN":"18鄰","STREET":"民生路","SECT":"二段","MAREA":" ","LANE":" ","ALLEY":" ","HOUSE_NO":"３０７號十四樓之１","E_COORD97":167043.10999999999,"N_COORD97":2544166.9300000002,"ADDRESS":"民生路二段３０７號十四樓之１","OBJECTID":473309},"geometry":{"x":167043.1099999994,"y":2544166.9300000034}},{"attributes":{"ID":473335,"DIS_CODE":0,"TOWNNAME":"中西區","LI":"安海里","LIN":"18鄰","STREET":"民生路","SECT":"二段","MAREA":" ","LANE":" ","ALLEY":" ","HOUSE_NO":"３０７號十五樓之１","E_COORD97":167043.10999999999,"N_COORD97":2544166.9300000002,"ADDRESS":"民生路二段３０７號十五樓之１","OBJECTID":473310},"geometry":{"x":167043.1099999994,"y":2544166.9300000034}},{"attributes":{"ID":473336,"DIS_CODE":0,"TOWNNAME":"中西區","LI":"安海里","LIN":"18鄰","STREET":"民生路","SECT":"二段","MAREA":" ","LANE":" ","ALLEY":" ","HOUSE_NO":"３０７號十六樓之１","E_COORD97":167043.10999999999,"N_COORD97":2544166.9300000002,"ADDRESS":"民生路二段３０７號十六樓之１","OBJECTID":473311},"geometry":{"x":167043.1099999994,"y":2544166.9300000034}},{"attributes":{"ID":473337,"DIS_CODE":0,"TOWNNAME":"中西區","LI":"安海里","LIN":"18鄰","STREET":"民生路","SECT":"二段","MAREA":" ","LANE":" ","ALLEY":" ","HOUSE_NO":"３０７號十七樓之１","E_COORD97":167043.10999999999,"N_COORD97":2544166.9300000002,"ADDRESS":"民生路二段３０７號十七樓之１","OBJECTID":473312},"geometry":{"x":167043.1099999994,"y":2544166.9300000034}},{"attributes":{"ID":473338,"DIS_CODE":0,"TOWNNAME":"中西區","LI":"安海里","LIN":"18鄰","STREET":"民生路","SECT":"二段","MAREA":" ","LANE":" ","ALLEY":" ","HOUSE_NO":"３０７號十八樓之１","E_COORD97":167043.10999999999,"N_COORD97":2544166.9300000002,"ADDRESS":"民生路二段３０７號十八樓之１","OBJECTID":473313},"geometry":{"x":167043.1099999994,"y":2544166.9300000034}},{"attributes":{"ID":473339,"DIS_CODE":0,"TOWNNAME":"中西區","LI":"安海里","LIN":"18鄰","STREET":"民生路","SECT":"二段","MAREA":" ","LANE":" ","ALLEY":" ","HOUSE_NO":"３０７號十九樓之１","E_COORD97":167043.10999999999,"N_COORD97":2544166.9300000002,"ADDRESS":"民生路二段３０７號十九樓之１","OBJECTID":473314},"geometry":{"x":167043.1099999994,"y":2544166.9300000034}},{"attributes":{"ID":473340,"DIS_CODE":0,"TOWNNAME":"中西區","LI":"安海里","LIN":"18鄰","STREET":"民生路","SECT":"二段","MAREA":" ","LANE":" ","ALLEY":" ","HOUSE_NO":"３０７號二十樓之１","E_COORD97":167043.10999999999,"N_COORD97":2544166.9300000002,"ADDRESS":"民生路二段３０７號二十樓之１","OBJECTID":473315},"geometry":{"x":167043.1099999994,"y":2544166.9300000034}},{"attributes":{"ID":473341,"DIS_CODE":0,"TOWNNAME":"中西區","LI":"安海里","LIN":"18鄰","STREET":"民生路","SECT":"二段","MAREA":" ","LANE":" ","ALLEY":" ","HOUSE_NO":"３０７號二十一樓之１","E_COORD97":167043.10999999999,"N_COORD97":2544166.9300000002,"ADDRESS":"民生路二段３０７號二十一樓之１","OBJECTID":473316},"geometry":{"x":167043.1099999994,"y":2544166.9300000034}},{"attributes":{"ID":473342,"DIS_CODE":0,"TOWNNAME":"中西區","LI":"安海里","LIN":"18鄰","STREET":"民生路","SECT":"二段","MAREA":" ","LANE":" ","ALLEY":" ","HOUSE_NO":"３０７號二十二樓之１","E_COORD97":167043.10999999999,"N_COORD97":2544166.9300000002,"ADDRESS":"民生路二段３０７號二十二樓之１","OBJECTID":473317},"geometry":{"x":167043.1099999994,"y":2544166.9300000034}},{"attributes":{"ID":473343,"DIS_CODE":0,"TOWNNAME":"中西區","LI":"安海里","LIN":"18鄰","STREET":"民生路","SECT":"二段","MAREA":" ","LANE":" ","ALLEY":" ","HOUSE_NO":"３０７號二十三樓之１","E_COORD97":167043.10999999999,"N_COORD97":2544166.9300000002,"ADDRESS":"民生路二段３０７號二十三樓之１","OBJECTID":473318},"geometry":{"x":167043.1099999994,"y":2544166.9300000034}},{"attributes":{"ID":473344,"DIS_CODE":0,"TOWNNAME":"中西區","LI":"安海里","LIN":"18鄰","STREET":"民生路","SECT":"二段","MAREA":" ","LANE":" ","ALLEY":" ","HOUSE_NO":"３０７號二樓之２","E_COORD97":167043.10999999999,"N_COORD97":2544166.9300000002,"ADDRESS":"民生路二段３０７號二樓之２","OBJECTID":473319},"geometry":{"x":167043.1099999994,"y":2544166.9300000034}},{"attributes":{"ID":473345,"DIS_CODE":0,"TOWNNAME":"中西區","LI":"安海里","LIN":"18鄰","STREET":"民生路","SECT":"二段","MAREA":" ","LANE":" ","ALLEY":" ","HOUSE_NO":"３０７號三樓之２","E_COORD97":167043.10999999999,"N_COORD97":2544166.9300000002,"ADDRESS":"民生路二段３０７號三樓之２","OBJECTID":473320},"geometry":{"x":167043.1099999994,"y":2544166.9300000034}},{"attributes":{"ID":473346,"DIS_CODE":0,"TOWNNAME":"中西區","LI":"安海里","LIN":"18鄰","STREET":"民生路","SECT":"二段","MAREA":" ","LANE":" ","ALLEY":" ","HOUSE_NO":"３０７號四樓之２","E_COORD97":167043.10999999999,"N_COORD97":2544166.9300000002,"ADDRESS":"民生路二段３０７號四樓之２","OBJECTID":473321},"geometry":{"x":167043.1099999994,"y":2544166.9300000034}},{"attributes":{"ID":473347,"DIS_CODE":0,"TOWNNAME":"中西區","LI":"安海里","LIN":"18鄰","STREET":"民生路","SECT":"二段","MAREA":" ","LANE":" ","ALLEY":" ","HOUSE_NO":"３０７號五樓之２","E_COORD97":167043.10999999999,"N_COORD97":2544166.9300000002,"ADDRESS":"民生路二段３０７號五樓之２","OBJECTID":473322},"geometry":{"x":167043.1099999994,"y":2544166.9300000034}},{"attributes":{"ID":473348,"DIS_CODE":0,"TOWNNAME":"中西區","LI":"安海里","LIN":"18鄰","STREET":"民生路","SECT":"二段","MAREA":" ","LANE":" ","ALLEY":" ","HOUSE_NO":"３０７號六樓之２","E_COORD97":167043.10999999999,"N_COORD97":2544166.9300000002,"ADDRESS":"民生路二段３０７號六樓之２","OBJECTID":473323},"geometry":{"x":167043.1099999994,"y":2544166.9300000034}},{"attributes":{"ID":473349,"DIS_CODE":0,"TOWNNAME":"中西區","LI":"安海里","LIN":"18鄰","STREET":"民生路","SECT":"二段","MAREA":" ","LANE":" ","ALLEY":" ","HOUSE_NO":"３０７號七樓之２","E_COORD97":167043.10999999999,"N_COORD97":2544166.9300000002,"ADDRESS":"民生路二段３０７號七樓之２","OBJECTID":473324},"geometry":{"x":167043.1099999994,"y":2544166.9300000034}},{"attributes":{"ID":473350,"DIS_CODE":0,"TOWNNAME":"中西區","LI":"安海里","LIN":"18鄰","STREET":"民生路","SECT":"二段","MAREA":" ","LANE":" ","ALLEY":" ","HOUSE_NO":"３０７號八樓之２","E_COORD97":167043.10999999999,"N_COORD97":2544166.9300000002,"ADDRESS":"民生路二段３０７號八樓之２","OBJECTID":473325},"geometry":{"x":167043.1099999994,"y":2544166.9300000034}},{"attributes":{"ID":473351,"DIS_CODE":0,"TOWNNAME":"中西區","LI":"安海里","LIN":"18鄰","STREET":"民生路","SECT":"二段","MAREA":" ","LANE":" ","ALLEY":" ","HOUSE_NO":"３０７號九樓之２","E_COORD97":167043.10999999999,"N_COORD97":2544166.9300000002,"ADDRESS":"民生路二段３０７號九樓之２","OBJECTID":473326},"geometry":{"x":167043.1099999994,"y":2544166.9300000034}},{"attributes":{"ID":473352,"DIS_CODE":0,"TOWNNAME":"中西區","LI":"安海里","LIN":"18鄰","STREET":"民生路","SECT":"二段","MAREA":" ","LANE":" ","ALLEY":" ","HOUSE_NO":"３０７號十樓之２","E_COORD97":167043.10999999999,"N_COORD97":2544166.9300000002,"ADDRESS":"民生路二段３０７號十樓之２","OBJECTID":473327},"geometry":{"x":167043.1099999994,"y":2544166.9300000034}},{"attributes":{"ID":473353,"DIS_CODE":0,"TOWNNAME":"中西區","LI":"安海里","LIN":"18鄰","STREET":"民生路","SECT":"二段","MAREA":" ","LANE":" ","ALLEY":" ","HOUSE_NO":"３０７號十一樓之２","E_COORD97":167043.10999999999,"N_COORD97":2544166.9300000002,"ADDRESS":"民生路二段３０７號十一樓之２","OBJECTID":473328},"geometry":{"x":167043.1099999994,"y":2544166.9300000034}},{"attributes":{"ID":473354,"DIS_CODE":0,"TOWNNAME":"中西區","LI":"安海里","LIN":"18鄰","STREET":"民生路","SECT":"二段","MAREA":" ","LANE":" ","ALLEY":" ","HOUSE_NO":"３０７號十二樓之２","E_COORD97":167043.10999999999,"N_COORD97":2544166.9300000002,"ADDRESS":"民生路二段３０７號十二樓之２","OBJECTID":473329},"geometry":{"x":167043.1099999994,"y":2544166.9300000034}},{"attributes":{"ID":473355,"DIS_CODE":0,"TOWNNAME":"中西區","LI":"安海里","LIN":"18鄰","STREET":"民生路","SECT":"二段","MAREA":" ","LANE":" ","ALLEY":" ","HOUSE_NO":"３０７號十三樓之２","E_COORD97":167043.10999999999,"N_COORD97":2544166.9300000002,"ADDRESS":"民生路二段３０７號十三樓之２","OBJECTID":473330},"geometry":{"x":167043.1099999994,"y":2544166.9300000034}},{"attributes":{"ID":473356,"DIS_CODE":0,"TOWNNAME":"中西區","LI":"安海里","LIN":"18鄰","STREET":"民生路","SECT":"二段","MAREA":" ","LANE":" ","ALLEY":" ","HOUSE_NO":"３０７號十四樓之２","E_COORD97":167043.10999999999,"N_COORD97":2544166.9300000002,"ADDRESS":"民生路二段３０７號十四樓之２","OBJECTID":473331},"geometry":{"x":167043.1099999994,"y":2544166.9300000034}},{"attributes":{"ID":473357,"DIS_CODE":0,"TOWNNAME":"中西區","LI":"安海里","LIN":"18鄰","STREET":"民生路","SECT":"二段","MAREA":" ","LANE":" ","ALLEY":" ","HOUSE_NO":"３０７號十五樓之２","E_COORD97":167043.10999999999,"N_COORD97":2544166.9300000002,"ADDRESS":"民生路二段３０７號十五樓之２","OBJECTID":473332},"geometry":{"x":167043.1099999994,"y":2544166.9300000034}},{"attributes":{"ID":473358,"DIS_CODE":0,"TOWNNAME":"中西區","LI":"安海里","LIN":"18鄰","STREET":"民生路","SECT":"二段","MAREA":" ","LANE":" ","ALLEY":" ","HOUSE_NO":"３０７號十六樓之２","E_COORD97":167043.10999999999,"N_COORD97":2544166.9300000002,"ADDRESS":"民生路二段３０７號十六樓之２","OBJECTID":473333},"geometry":{"x":167043.1099999994,"y":2544166.9300000034}},{"attributes":{"ID":473359,"DIS_CODE":0,"TOWNNAME":"中西區","LI":"安海里","LIN":"18鄰","STREET":"民生路","SECT":"二段","MAREA":" ","LANE":" ","ALLEY":" ","HOUSE_NO":"３０７號十七樓之２","E_COORD97":167043.10999999999,"N_COORD97":2544166.9300000002,"ADDRESS":"民生路二段３０７號十七樓之２","OBJECTID":473334},"geometry":{"x":167043.1099999994,"y":2544166.9300000034}},{"attributes":{"ID":473360,"DIS_CODE":0,"TOWNNAME":"中西區","LI":"安海里","LIN":"18鄰","STREET":"民生路","SECT":"二段","MAREA":" ","LANE":" ","ALLEY":" ","HOUSE_NO":"３０７號十八樓之２","E_COORD97":167043.10999999999,"N_COORD97":2544166.9300000002,"ADDRESS":"民生路二段３０７號十八樓之２","OBJECTID":473335},"geometry":{"x":167043.1099999994,"y":2544166.9300000034}},{"attributes":{"ID":473361,"DIS_CODE":0,"TOWNNAME":"中西區","LI":"安海里","LIN":"18鄰","STREET":"民生路","SECT":"二段","MAREA":" ","LANE":" ","ALLEY":" ","HOUSE_NO":"３０７號十九樓之２","E_COORD97":167043.10999999999,"N_COORD97":2544166.9300000002,"ADDRESS":"民生路二段３０７號十九樓之２","OBJECTID":473336},"geometry":{"x":167043.1099999994,"y":2544166.9300000034}},{"attributes":{"ID":473362,"DIS_CODE":0,"TOWNNAME":"中西區","LI":"安海里","LIN":"18鄰","STREET":"民生路","SECT":"二段","MAREA":" ","LANE":" ","ALLEY":" ","HOUSE_NO":"３０７號二十樓之２","E_COORD97":167043.10999999999,"N_COORD97":2544166.9300000002,"ADDRESS":"民生路二段３０７號二十樓之２","OBJECTID":473337},"geometry":{"x":167043.1099999994,"y":2544166.9300000034}},{"attributes":{"ID":473363,"DIS_CODE":0,"TOWNNAME":"中西區","LI":"安海里","LIN":"18鄰","STREET":"民生路","SECT":"二段","MAREA":" ","LANE":" ","ALLEY":" ","HOUSE_NO":"３０７號二十一樓之２","E_COORD97":167043.10999999999,"N_COORD97":2544166.9300000002,"ADDRESS":"民生路二段３０７號二十一樓之２","OBJECTID":473338},"geometry":{"x":167043.1099999994,"y":2544166.9300000034}},{"attributes":{"ID":473364,"DIS_CODE":0,"TOWNNAME":"中西區","LI":"安海里","LIN":"18鄰","STREET":"民生路","SECT":"二段","MAREA":" ","LANE":" ","ALLEY":" ","HOUSE_NO":"３０７號二十二樓之２","E_COORD97":167043.10999999999,"N_COORD97":2544166.9300000002,"ADDRESS":"民生路二段３０７號二十二樓之２","OBJECTID":473339},"geometry":{"x":167043.1099999994,"y":2544166.9300000034}},{"attributes":{"ID":473365,"DIS_CODE":0,"TOWNNAME":"中西區","LI":"安海里","LIN":"18鄰","STREET":"民生路","SECT":"二段","MAREA":" ","LANE":" ","ALLEY":" ","HOUSE_NO":"３０７號二十三樓之２","E_COORD97":167043.10999999999,"N_COORD97":2544166.9300000002,"ADDRESS":"民生路二段３０７號二十三樓之２","OBJECTID":473340},"geometry":{"x":167043.1099999994,"y":2544166.9300000034}},{"attributes":{"ID":473366,"DIS_CODE":0,"TOWNNAME":"佳里區","LI":"鎮山里","LIN":"18鄰","STREET":"佳南路","SECT":" ","MAREA":" ","LANE":" ","ALLEY":" ","HOUSE_NO":"２０６號","E_COORD97":166140.69,"N_COORD97":2561030.0600000001,"ADDRESS":"佳南路２０６號","OBJECTID":473341},"geometry":{"x":166140.69000000041,"y":2561030.0600000005}},{"attributes":{"ID":473367,"DIS_CODE":0,"TOWNNAME":"永康區","LI":"大橋里","LIN":"18鄰","STREET":"大橋二街","SECT":" ","MAREA":" ","LANE":" ","ALLEY":" ","HOUSE_NO":"１６６號七樓","E_COORD97":171072.94,"N_COORD97":2546759.27,"ADDRESS":"大橋二街１６６號七樓","OBJECTID":473342},"geometry":{"x":171072.94000000134,"y":2546759.2700000014}},{"attributes":{"ID":473368,"DIS_CODE":0,"TOWNNAME":"永康區","LI":"大橋里","LIN":"18鄰","STREET":"大橋二街","SECT":" ","MAREA":" ","LANE":" ","ALLEY":" ","HOUSE_NO":"１７４號五樓","E_COORD97":171094.39000000001,"N_COORD97":2546743.3700000001,"ADDRESS":"大橋二街１７４號五樓","OBJECTID":473343},"geometry":{"x":171094.3900000006,"y":2546743.3700000029}},{"attributes":{"ID":473369,"DIS_CODE":0,"TOWNNAME":"永康區","LI":"大橋里","LIN":"18鄰","STREET":"大橋二街","SECT":" ","MAREA":" ","LANE":" ","ALLEY":" ","HOUSE_NO":"１６６號三樓","E_COORD97":171072.94,"N_COORD97":2546759.27,"ADDRESS":"大橋二街１６６號三樓","OBJECTID":473344},"geometry":{"x":171072.94000000134,"y":2546759.2700000014}},{"attributes":{"ID":473370,"DIS_CODE":0,"TOWNNAME":"永康區","LI":"大橋里","LIN":"18鄰","STREET":"大橋二街","SECT":" ","MAREA":" ","LANE":" ","ALLEY":" ","HOUSE_NO":"１８６號二樓之１","E_COORD97":171107.63,"N_COORD97":2546778.8999999999,"ADDRESS":"大橋二街１８６號二樓之１","OBJECTID":473345},"geometry":{"x":171107.63000000175,"y":2546778.9000000022}},{"attributes":{"ID":473371,"DIS_CODE":0,"TOWNNAME":"永康區","LI":"大橋里","LIN":"18鄰","STREET":"大橋二街","SECT":" ","MAREA":" ","LANE":" ","ALLEY":" ","HOUSE_NO":"１８６號八樓之２","E_COORD97":171107.76999999999,"N_COORD97":2546778.8999999999,"ADDRESS":"大橋二街１８６號八樓之２","OBJECTID":473346},"geometry":{"x":171107.76999999955,"y":2546778.9000000022}},{"attributes":{"ID":473372,"DIS_CODE":0,"TOWNNAME":"永康區","LI":"大橋里","LIN":"18鄰","STREET":"大橋二街","SECT":" ","MAREA":" ","LANE":" ","ALLEY":" ","HOUSE_NO":"１７４號三樓","E_COORD97":171094.39000000001,"N_COORD97":2546743.3700000001,"ADDRESS":"大橋二街１７４號三樓","OBJECTID":473347},"geometry":{"x":171094.3900000006,"y":2546743.3700000029}},{"attributes":{"ID":473373,"DIS_CODE":0,"TOWNNAME":"永康區","LI":"大橋里","LIN":"18鄰","STREET":"大橋二街","SECT":" ","MAREA":" ","LANE":" ","ALLEY":" ","HOUSE_NO":"１８６號十樓之１","E_COORD97":171107.63,"N_COORD97":2546778.8999999999,"ADDRESS":"大橋二街１８６號十樓之１","OBJECTID":473348},"geometry":{"x":171107.63000000175,"y":2546778.9000000022}},{"attributes":{"ID":473374,"DIS_CODE":0,"TOWNNAME":"永康區","LI":"大橋里","LIN":"18鄰","STREET":"大橋二街","SECT":" ","MAREA":" ","LANE":" ","ALLEY":" ","HOUSE_NO":"１７０號二樓","E_COORD97":171078.95000000001,"N_COORD97":2546760.1499999999,"ADDRESS":"大橋二街１７０號二樓","OBJECTID":473349},"geometry":{"x":171078.95000000112,"y":2546760.1500000022}},{"attributes":{"ID":473375,"DIS_CODE":0,"TOWNNAME":"永康區","LI":"大橋里","LIN":"18鄰","STREET":"大橋二街","SECT":" ","MAREA":" ","LANE":" ","ALLEY":" ","HOUSE_NO":"１８６號七樓之３","E_COORD97":171107.73000000001,"N_COORD97":2546778.8999999999,"ADDRESS":"大橋二街１８６號七樓之３","OBJECTID":473350},"geometry":{"x":171107.73000000231,"y":2546778.9000000022}},{"attributes":{"ID":473376,"DIS_CODE":0,"TOWNNAME":"永康區","LI":"大橋里","LIN":"18鄰","STREET":"大橋二街","SECT":" ","MAREA":" ","LANE":" ","ALLEY":" ","HOUSE_NO":"１９２號八樓之４","E_COORD97":171134.75,"N_COORD97":2546764.96,"ADDRESS":"大橋二街１９２號八樓之４","OBJECTID":473351},"geometry":{"x":171134.75000000093,"y":2546764.9600000046}},{"attributes":{"ID":473377,"DIS_CODE":0,"TOWNNAME":"永康區","LI":"大橋里","LIN":"18鄰","STREET":"大橋二街","SECT":" ","MAREA":" ","LANE":" ","ALLEY":" ","HOUSE_NO":"１７６號五樓","E_COORD97":171089.26000000001,"N_COORD97":2546760.21,"ADDRESS":"大橋二街１７６號五樓","OBJECTID":473352},"geometry":{"x":171089.25999999978,"y":2546760.2100000028}},{"attributes":{"ID":473378,"DIS_CODE":0,"TOWNNAME":"永康區","LI":"大橋里","LIN":"18鄰","STREET":"大橋二街","SECT":" ","MAREA":" ","LANE":" ","ALLEY":" ","HOUSE_NO":"１９２號八樓之２","E_COORD97":171134.85999999999,"N_COORD97":2546764.96,"ADDRESS":"大橋二街１９２號八樓之２","OBJECTID":473353},"geometry":{"x":171134.86000000034,"y":2546764.9600000046}},{"attributes":{"ID":473379,"DIS_CODE":0,"TOWNNAME":"永康區","LI":"大橋里","LIN":"18鄰","STREET":"大橋二街","SECT":" ","MAREA":" ","LANE":" ","ALLEY":" ","HOUSE_NO":"１６８號四樓","E_COORD97":171074.64999999999,"N_COORD97":2546755.2000000002,"ADDRESS":"大橋二街１６８號四樓","OBJECTID":473354},"geometry":{"x":171074.6500000013,"y":2546755.2000000011}},{"attributes":{"ID":473380,"DIS_CODE":0,"TOWNNAME":"永康區","LI":"大橋里","LIN":"18鄰","STREET":"大橋二街","SECT":" ","MAREA":" ","LANE":" ","ALLEY":" ","HOUSE_NO":"１７０號三樓","E_COORD97":171078.95000000001,"N_COORD97":2546760.1499999999,"ADDRESS":"大橋二街１７０號三樓","OBJECTID":473355},"geometry":{"x":171078.95000000112,"y":2546760.1500000022}},{"attributes":{"ID":473381,"DIS_CODE":0,"TOWNNAME":"永康區","LI":"大橋里","LIN":"18鄰","STREET":"大橋二街","SECT":" ","MAREA":" ","LANE":" ","ALLEY":" ","HOUSE_NO":"１８６號五樓之２","E_COORD97":171107.76999999999,"N_COORD97":2546778.8999999999,"ADDRESS":"大橋二街１８６號五樓之２","OBJECTID":473356},"geometry":{"x":171107.76999999955,"y":2546778.9000000022}},{"attributes":{"ID":473382,"DIS_CODE":0,"TOWNNAME":"永康區","LI":"大橋里","LIN":"18鄰","STREET":"大橋二街","SECT":" ","MAREA":" ","LANE":" ","ALLEY":" ","HOUSE_NO":"１７０號五樓","E_COORD97":171078.95000000001,"N_COORD97":2546760.1499999999,"ADDRESS":"大橋二街１７０號五樓","OBJECTID":473357},"geometry":{"x":171078.95000000112,"y":2546760.1500000022}},{"attributes":{"ID":473383,"DIS_CODE":0,"TOWNNAME":"永康區","LI":"大橋里","LIN":"18鄰","STREET":"大橋二街","SECT":" ","MAREA":" ","LANE":" ","ALLEY":" ","HOUSE_NO":"１９２號二樓之２","E_COORD97":171134.85999999999,"N_COORD97":2546764.96,"ADDRESS":"大橋二街１９２號二樓之２","OBJECTID":473358},"geometry":{"x":171134.86000000034,"y":2546764.9600000046}},{"attributes":{"ID":473384,"DIS_CODE":0,"TOWNNAME":"永康區","LI":"大橋里","LIN":"18鄰","STREET":"大橋二街","SECT":" ","MAREA":" ","LANE":" ","ALLEY":" ","HOUSE_NO":"１８６號四樓之２","E_COORD97":171107.76999999999,"N_COORD97":2546778.8999999999,"ADDRESS":"大橋二街１８６號四樓之２","OBJECTID":473359},"geometry":{"x":171107.76999999955,"y":2546778.9000000022}},{"attributes":{"ID":473385,"DIS_CODE":0,"TOWNNAME":"永康區","LI":"大橋里","LIN":"18鄰","STREET":"大橋二街","SECT":" ","MAREA":" ","LANE":" ","ALLEY":" ","HOUSE_NO":"１８６號十一樓之１","E_COORD97":171108.88,"N_COORD97":2546778.8999999999,"ADDRESS":"大橋二街１８６號十一樓之１","OBJECTID":473360},"geometry":{"x":171108.87999999989,"y":2546778.9000000022}},{"attributes":{"ID":473386,"DIS_CODE":0,"TOWNNAME":"永康區","LI":"大橋里","LIN":"18鄰","STREET":"大橋二街","SECT":" ","MAREA":" ","LANE":" ","ALLEY":" ","HOUSE_NO":"１７４號四樓","E_COORD97":171094.39000000001,"N_COORD97":2546743.3700000001,"ADDRESS":"大橋二街１７４號四樓","OBJECTID":473361},"geometry":{"x":171094.3900000006,"y":2546743.3700000029}},{"attributes":{"ID":473387,"DIS_CODE":0,"TOWNNAME":"永康區","LI":"大橋里","LIN":"18鄰","STREET":"大橋二街","SECT":" ","MAREA":" ","LANE":" ","ALLEY":" ","HOUSE_NO":"１８６號三樓之２","E_COORD97":171107.76999999999,"N_COORD97":2546778.8999999999,"ADDRESS":"大橋二街１８６號三樓之２","OBJECTID":473362},"geometry":{"x":171107.76999999955,"y":2546778.9000000022}},{"attributes":{"ID":473388,"DIS_CODE":0,"TOWNNAME":"永康區","LI":"大橋里","LIN":"18鄰","STREET":"大橋二街","SECT":" ","MAREA":" ","LANE":" ","ALLEY":" ","HOUSE_NO":"１８６號九樓之１","E_COORD97":171107.63,"N_COORD97":2546778.8999999999,"ADDRESS":"大橋二街１８６號九樓之１","OBJECTID":473363},"geometry":{"x":171107.63000000175,"y":2546778.9000000022}},{"attributes":{"ID":473389,"DIS_CODE":0,"TOWNNAME":"中西區","LI":"藥王里","LIN":"18鄰","STREET":"美麗街","SECT":" ","MAREA":" ","LANE":" ","ALLEY":" ","HOUSE_NO":"１８號七樓之１","E_COORD97":166912.13,"N_COORD97":2544499.7999999998,"ADDRESS":"美麗街１８號七樓之１","OBJECTID":473364},"geometry":{"x":166912.13000000175,"y":2544499.8000000007}},{"attributes":{"ID":473390,"DIS_CODE":0,"TOWNNAME":"中西區","LI":"藥王里","LIN":"18鄰","STREET":"美麗街","SECT":" ","MAREA":" ","LANE":" ","ALLEY":" ","HOUSE_NO":"１８號七樓之２","E_COORD97":166912.13,"N_COORD97":2544499.7999999998,"ADDRESS":"美麗街１８號七樓之２","OBJECTID":473365},"geometry":{"x":166912.13000000175,"y":2544499.8000000007}},{"attributes":{"ID":473391,"DIS_CODE":0,"TOWNNAME":"中西區","LI":"藥王里","LIN":"18鄰","STREET":"美麗街","SECT":" ","MAREA":" ","LANE":" ","ALLEY":" ","HOUSE_NO":"１８號七樓之３","E_COORD97":166912.13,"N_COORD97":2544499.7999999998,"ADDRESS":"美麗街１８號七樓之３","OBJECTID":473366},"geometry":{"x":166912.13000000175,"y":2544499.8000000007}},{"attributes":{"ID":473392,"DIS_CODE":0,"TOWNNAME":"中西區","LI":"藥王里","LIN":"18鄰","STREET":"美麗街","SECT":" ","MAREA":" ","LANE":" ","ALLEY":" ","HOUSE_NO":"１８號七樓之５","E_COORD97":166912.13,"N_COORD97":2544499.7999999998,"ADDRESS":"美麗街１８號七樓之５","OBJECTID":473367},"geometry":{"x":166912.13000000175,"y":2544499.8000000007}},{"attributes":{"ID":473393,"DIS_CODE":0,"TOWNNAME":"中西區","LI":"藥王里","LIN":"18鄰","STREET":"美麗街","SECT":" ","MAREA":" ","LANE":" ","ALLEY":" ","HOUSE_NO":"１８號九樓之１","E_COORD97":166912.13,"N_COORD97":2544499.7999999998,"ADDRESS":"美麗街１８號九樓之１","OBJECTID":473368},"geometry":{"x":166912.13000000175,"y":2544499.8000000007}},{"attributes":{"ID":473394,"DIS_CODE":0,"TOWNNAME":"中西區","LI":"藥王里","LIN":"18鄰","STREET":"美麗街","SECT":" ","MAREA":" ","LANE":" ","ALLEY":" ","HOUSE_NO":"１８號九樓之２","E_COORD97":166912.13,"N_COORD97":2544499.7999999998,"ADDRESS":"美麗街１８號九樓之２","OBJECTID":473369},"geometry":{"x":166912.13000000175,"y":2544499.8000000007}},{"attributes":{"ID":473395,"DIS_CODE":0,"TOWNNAME":"中西區","LI":"藥王里","LIN":"18鄰","STREET":"美麗街","SECT":" ","MAREA":" ","LANE":" ","ALLEY":" ","HOUSE_NO":"１８號九樓之３","E_COORD97":166912.13,"N_COORD97":2544499.7999999998,"ADDRESS":"美麗街１８號九樓之３","OBJECTID":473370},"geometry":{"x":166912.13000000175,"y":2544499.8000000007}},{"attributes":{"ID":473396,"DIS_CODE":0,"TOWNNAME":"中西區","LI":"藥王里","LIN":"18鄰","STREET":"美麗街","SECT":" ","MAREA":" ","LANE":" ","ALLEY":" ","HOUSE_NO":"１８號九樓之５","E_COORD97":166912.13,"N_COORD97":2544499.7999999998,"ADDRESS":"美麗街１８號九樓之５","OBJECTID":473371},"geometry":{"x":166912.13000000175,"y":2544499.8000000007}},{"attributes":{"ID":473397,"DIS_CODE":0,"TOWNNAME":"中西區","LI":"藥王里","LIN":"18鄰","STREET":"美麗街","SECT":" ","MAREA":" ","LANE":" ","ALLEY":" ","HOUSE_NO":"１８號二樓之１","E_COORD97":166912.13,"N_COORD97":2544499.7999999998,"ADDRESS":"美麗街１８號二樓之１","OBJECTID":473372},"geometry":{"x":166912.13000000175,"y":2544499.8000000007}},{"attributes":{"ID":473398,"DIS_CODE":0,"TOWNNAME":"中西區","LI":"藥王里","LIN":"18鄰","STREET":"美麗街","SECT":" ","MAREA":" ","LANE":" ","ALLEY":" ","HOUSE_NO":"１８號二樓之２","E_COORD97":166912.13,"N_COORD97":2544499.7999999998,"ADDRESS":"美麗街１８號二樓之２","OBJECTID":473373},"geometry":{"x":166912.13000000175,"y":2544499.8000000007}},{"attributes":{"ID":473399,"DIS_CODE":0,"TOWNNAME":"中西區","LI":"藥王里","LIN":"18鄰","STREET":"美麗街","SECT":" ","MAREA":" ","LANE":" ","ALLEY":" ","HOUSE_NO":"１８號八樓之１","E_COORD97":166912.13,"N_COORD97":2544499.7999999998,"ADDRESS":"美麗街１８號八樓之１","OBJECTID":473374},"geometry":{"x":166912.13000000175,"y":2544499.8000000007}},{"attributes":{"ID":473400,"DIS_CODE":0,"TOWNNAME":"中西區","LI":"藥王里","LIN":"18鄰","STREET":"美麗街","SECT":" ","MAREA":" ","LANE":" ","ALLEY":" ","HOUSE_NO":"１８號八樓之２","E_COORD97":166912.13,"N_COORD97":2544499.7999999998,"ADDRESS":"美麗街１８號八樓之２","OBJECTID":473375},"geometry":{"x":166912.13000000175,"y":2544499.8000000007}},{"attributes":{"ID":473401,"DIS_CODE":0,"TOWNNAME":"中西區","LI":"藥王里","LIN":"18鄰","STREET":"美麗街","SECT":" ","MAREA":" ","LANE":" ","ALLEY":" ","HOUSE_NO":"１８號八樓之３","E_COORD97":166912.13,"N_COORD97":2544499.7999999998,"ADDRESS":"美麗街１８號八樓之３","OBJECTID":473376},"geometry":{"x":166912.13000000175,"y":2544499.8000000007}},{"attributes":{"ID":473402,"DIS_CODE":0,"TOWNNAME":"中西區","LI":"藥王里","LIN":"18鄰","STREET":"美麗街","SECT":" ","MAREA":" ","LANE":" ","ALLEY":" ","HOUSE_NO":"１８號八樓之５","E_COORD97":166912.13,"N_COORD97":2544499.7999999998,"ADDRESS":"美麗街１８號八樓之５","OBJECTID":473377},"geometry":{"x":166912.13000000175,"y":2544499.8000000007}},{"attributes":{"ID":473403,"DIS_CODE":0,"TOWNNAME":"中西區","LI":"藥王里","LIN":"18鄰","STREET":"美麗街","SECT":" ","MAREA":" ","LANE":" ","ALLEY":" ","HOUSE_NO":"１８號十樓之１","E_COORD97":166912.13,"N_COORD97":2544499.7999999998,"ADDRESS":"美麗街１８號十樓之１","OBJECTID":473378},"geometry":{"x":166912.13000000175,"y":2544499.8000000007}},{"attributes":{"ID":473404,"DIS_CODE":0,"TOWNNAME":"中西區","LI":"藥王里","LIN":"18鄰","STREET":"美麗街","SECT":" ","MAREA":" ","LANE":" ","ALLEY":" ","HOUSE_NO":"１８號十樓之２","E_COORD97":166912.13,"N_COORD97":2544499.7999999998,"ADDRESS":"美麗街１８號十樓之２","OBJECTID":473379},"geometry":{"x":166912.13000000175,"y":2544499.8000000007}},{"attributes":{"ID":473405,"DIS_CODE":0,"TOWNNAME":"中西區","LI":"藥王里","LIN":"18鄰","STREET":"美麗街","SECT":" ","MAREA":" ","LANE":" ","ALLEY":" ","HOUSE_NO":"１８號十樓之３","E_COORD97":166912.13,"N_COORD97":2544499.7999999998,"ADDRESS":"美麗街１８號十樓之３","OBJECTID":473380},"geometry":{"x":166912.13000000175,"y":2544499.8000000007}},{"attributes":{"ID":473406,"DIS_CODE":0,"TOWNNAME":"中西區","LI":"藥王里","LIN":"18鄰","STREET":"美麗街","SECT":" ","MAREA":" ","LANE":" ","ALLEY":" ","HOUSE_NO":"１８號十樓之５","E_COORD97":166912.13,"N_COORD97":2544499.7999999998,"ADDRESS":"美麗街１８號十樓之５","OBJECTID":473381},"geometry":{"x":166912.13000000175,"y":2544499.8000000007}},{"attributes":{"ID":473407,"DIS_CODE":0,"TOWNNAME":"中西區","LI":"藥王里","LIN":"18鄰","STREET":"美麗街","SECT":" ","MAREA":" ","LANE":" ","ALLEY":" ","HOUSE_NO":"１８號三樓之１","E_COORD97":166912.13,"N_COORD97":2544499.7999999998,"ADDRESS":"美麗街１８號三樓之１","OBJECTID":473382},"geometry":{"x":166912.13000000175,"y":2544499.8000000007}},{"attributes":{"ID":473408,"DIS_CODE":0,"TOWNNAME":"中西區","LI":"藥王里","LIN":"18鄰","STREET":"美麗街","SECT":" ","MAREA":" ","LANE":" ","ALLEY":" ","HOUSE_NO":"１８號三樓之２","E_COORD97":166912.13,"N_COORD97":2544499.7999999998,"ADDRESS":"美麗街１８號三樓之２","OBJECTID":473383},"geometry":{"x":166912.13000000175,"y":2544499.8000000007}},{"attributes":{"ID":473409,"DIS_CODE":0,"TOWNNAME":"中西區","LI":"藥王里","LIN":"18鄰","STREET":"美麗街","SECT":" ","MAREA":" ","LANE":" ","ALLEY":" ","HOUSE_NO":"１８號三樓之３","E_COORD97":166912.13,"N_COORD97":2544499.7999999998,"ADDRESS":"美麗街１８號三樓之３","OBJECTID":473384},"geometry":{"x":166912.13000000175,"y":2544499.8000000007}},{"attributes":{"ID":473410,"DIS_CODE":0,"TOWNNAME":"中西區","LI":"藥王里","LIN":"18鄰","STREET":"美麗街","SECT":" ","MAREA":" ","LANE":" ","ALLEY":" ","HOUSE_NO":"１８號三樓之５","E_COORD97":166912.13,"N_COORD97":2544499.7999999998,"ADDRESS":"美麗街１８號三樓之５","OBJECTID":473385},"geometry":{"x":166912.13000000175,"y":2544499.8000000007}},{"attributes":{"ID":473411,"DIS_CODE":0,"TOWNNAME":"中西區","LI":"藥王里","LIN":"18鄰","STREET":"美麗街","SECT":" ","MAREA":" ","LANE":" ","ALLEY":" ","HOUSE_NO":"１８號五樓之１","E_COORD97":166912.13,"N_COORD97":2544499.7999999998,"ADDRESS":"美麗街１８號五樓之１","OBJECTID":473386},"geometry":{"x":166912.13000000175,"y":2544499.8000000007}},{"attributes":{"ID":473412,"DIS_CODE":0,"TOWNNAME":"中西區","LI":"藥王里","LIN":"18鄰","STREET":"美麗街","SECT":" ","MAREA":" ","LANE":" ","ALLEY":" ","HOUSE_NO":"１８號五樓之２","E_COORD97":166912.13,"N_COORD97":2544499.7999999998,"ADDRESS":"美麗街１８號五樓之２","OBJECTID":473387},"geometry":{"x":166912.13000000175,"y":2544499.8000000007}},{"attributes":{"ID":473413,"DIS_CODE":0,"TOWNNAME":"中西區","LI":"藥王里","LIN":"18鄰","STREET":"美麗街","SECT":" ","MAREA":" ","LANE":" ","ALLEY":" ","HOUSE_NO":"１８號五樓之３","E_COORD97":166912.13,"N_COORD97":2544499.7999999998,"ADDRESS":"美麗街１８號五樓之３","OBJECTID":473388},"geometry":{"x":166912.13000000175,"y":2544499.8000000007}},{"attributes":{"ID":473414,"DIS_CODE":0,"TOWNNAME":"中西區","LI":"藥王里","LIN":"18鄰","STREET":"美麗街","SECT":" ","MAREA":" ","LANE":" ","ALLEY":" ","HOUSE_NO":"１８號五樓之５","E_COORD97":166912.13,"N_COORD97":2544499.7999999998,"ADDRESS":"美麗街１８號五樓之５","OBJECTID":473389},"geometry":{"x":166912.13000000175,"y":2544499.8000000007}},{"attributes":{"ID":473415,"DIS_CODE":0,"TOWNNAME":"中西區","LI":"藥王里","LIN":"18鄰","STREET":"美麗街","SECT":" ","MAREA":" ","LANE":" ","ALLEY":" ","HOUSE_NO":"１８號六樓之１","E_COORD97":166912.13,"N_COORD97":2544499.7999999998,"ADDRESS":"美麗街１８號六樓之１","OBJECTID":473390},"geometry":{"x":166912.13000000175,"y":2544499.8000000007}},{"attributes":{"ID":473416,"DIS_CODE":0,"TOWNNAME":"中西區","LI":"藥王里","LIN":"18鄰","STREET":"美麗街","SECT":" ","MAREA":" ","LANE":" ","ALLEY":" ","HOUSE_NO":"１８號六樓之２","E_COORD97":166912.13,"N_COORD97":2544499.7999999998,"ADDRESS":"美麗街１８號六樓之２","OBJECTID":473391},"geometry":{"x":166912.13000000175,"y":2544499.8000000007}},{"attributes":{"ID":473417,"DIS_CODE":0,"TOWNNAME":"中西區","LI":"藥王里","LIN":"18鄰","STREET":"美麗街","SECT":" ","MAREA":" ","LANE":" ","ALLEY":" ","HOUSE_NO":"１８號六樓之３","E_COORD97":166912.13,"N_COORD97":2544499.7999999998,"ADDRESS":"美麗街１８號六樓之３","OBJECTID":473392},"geometry":{"x":166912.13000000175,"y":2544499.8000000007}},{"attributes":{"ID":473418,"DIS_CODE":0,"TOWNNAME":"中西區","LI":"藥王里","LIN":"18鄰","STREET":"美麗街","SECT":" ","MAREA":" ","LANE":" ","ALLEY":" ","HOUSE_NO":"１８號六樓之５","E_COORD97":166912.13,"N_COORD97":2544499.7999999998,"ADDRESS":"美麗街１８號六樓之５","OBJECTID":473393},"geometry":{"x":166912.13000000175,"y":2544499.8000000007}},{"attributes":{"ID":473419,"DIS_CODE":0,"TOWNNAME":"中西區","LI":"藥王里","LIN":"18鄰","STREET":"美麗街","SECT":" ","MAREA":" ","LANE":" ","ALLEY":" ","HOUSE_NO":"１８號四樓之１","E_COORD97":166912.13,"N_COORD97":2544499.7999999998,"ADDRESS":"美麗街１８號四樓之１","OBJECTID":473394},"geometry":{"x":166912.13000000175,"y":2544499.8000000007}},{"attributes":{"ID":473420,"DIS_CODE":0,"TOWNNAME":"中西區","LI":"藥王里","LIN":"18鄰","STREET":"美麗街","SECT":" ","MAREA":" ","LANE":" ","ALLEY":" ","HOUSE_NO":"１８號四樓之２","E_COORD97":166912.13,"N_COORD97":2544499.7999999998,"ADDRESS":"美麗街１８號四樓之２","OBJECTID":473395},"geometry":{"x":166912.13000000175,"y":2544499.8000000007}},{"attributes":{"ID":473421,"DIS_CODE":0,"TOWNNAME":"中西區","LI":"藥王里","LIN":"18鄰","STREET":"美麗街","SECT":" ","MAREA":" ","LANE":" ","ALLEY":" ","HOUSE_NO":"１８號四樓之３","E_COORD97":166912.13,"N_COORD97":2544499.7999999998,"ADDRESS":"美麗街１８號四樓之３","OBJECTID":473396},"geometry":{"x":166912.13000000175,"y":2544499.8000000007}},{"attributes":{"ID":473422,"DIS_CODE":0,"TOWNNAME":"中西區","LI":"藥王里","LIN":"18鄰","STREET":"美麗街","SECT":" ","MAREA":" ","LANE":" ","ALLEY":" ","HOUSE_NO":"１８號四樓之５","E_COORD97":166912.13,"N_COORD97":2544499.7999999998,"ADDRESS":"美麗街１８號四樓之５","OBJECTID":473397},"geometry":{"x":166912.13000000175,"y":2544499.8000000007}},{"attributes":{"ID":473423,"DIS_CODE":0,"TOWNNAME":"中西區","LI":"藥王里","LIN":"18鄰","STREET":"美麗街","SECT":" ","MAREA":" ","LANE":" ","ALLEY":" ","HOUSE_NO":"２０號七樓之１","E_COORD97":166894.19,"N_COORD97":2544500.3500000001,"ADDRESS":"美麗街２０號七樓之１","OBJECTID":473398},"geometry":{"x":166894.19000000134,"y":2544500.3500000015}},{"attributes":{"ID":473424,"DIS_CODE":0,"TOWNNAME":"中西區","LI":"藥王里","LIN":"18鄰","STREET":"美麗街","SECT":" ","MAREA":" ","LANE":" ","ALLEY":" ","HOUSE_NO":"２０號七樓之２","E_COORD97":166894.19,"N_COORD97":2544500.3500000001,"ADDRESS":"美麗街２０號七樓之２","OBJECTID":473399},"geometry":{"x":166894.19000000134,"y":2544500.3500000015}},{"attributes":{"ID":473425,"DIS_CODE":0,"TOWNNAME":"中西區","LI":"藥王里","LIN":"18鄰","STREET":"美麗街","SECT":" ","MAREA":" ","LANE":" ","ALLEY":" ","HOUSE_NO":"２０號七樓之３","E_COORD97":166894.19,"N_COORD97":2544500.3500000001,"ADDRESS":"美麗街２０號七樓之３","OBJECTID":473400},"geometry":{"x":166894.19000000134,"y":2544500.3500000015}}]}