{"displayFieldName":"TOWNNAME","fieldAliases":{"ID":"ID","DIS_CODE":"DIS_CODE","TOWNNAME":"TOWNNAME","LI":"LI","LIN":"LIN","STREET":"STREET","SECT":"SECT","MAREA":"MAREA","LANE":"LANE","ALLEY":"ALLEY","HOUSE_NO":"HOUSE_NO","E_COORD97":"E_COORD97","N_COORD97":"N_COORD97","ADDRESS":"ADDRESS","OBJECTID":"OBJECTID"},"geometryType":"esriGeometryPoint","spatialReference":{"wkid":102443,"latestWkid":3826},"fields":[{"name":"ID","type":"esriFieldTypeDouble","alias":"ID"},{"name":"DIS_CODE","type":"esriFieldTypeInteger","alias":"DIS_CODE"},{"name":"TOWNNAME","type":"esriFieldTypeString","alias":"TOWNNAME","length":8},{"name":"LI","type":"esriFieldTypeString","alias":"LI","length":8},{"name":"LIN","type":"esriFieldTypeString","alias":"LIN","length":12},{"name":"STREET","type":"esriFieldTypeString","alias":"STREET","length":20},{"name":"SECT","type":"esriFieldTypeString","alias":"SECT","length":8},{"name":"MAREA","type":"esriFieldTypeString","alias":"MAREA","length":12},{"name":"LANE","type":"esriFieldTypeString","alias":"LANE","length":10},{"name":"ALLEY","type":"esriFieldTypeString","alias":"ALLEY","length":10},{"name":"HOUSE_NO","type":"esriFieldTypeString","alias":"HOUSE_NO","length":20},{"name":"E_COORD97","type":"esriFieldTypeDouble","alias":"E_COORD97"},{"name":"N_COORD97","type":"esriFieldTypeDouble","alias":"N_COORD97"},{"name":"ADDRESS","type":"esriFieldTypeString","alias":"ADDRESS","length":50},{"name":"OBJECTID","type":"esriFieldTypeOID","alias":"OBJECTID"}],"features":[{"attributes":{"ID":168802,"DIS_CODE":0,"TOWNNAME":"仁德區","LI":"一甲里","LIN":"20鄰","STREET":"太乙六街","SECT":" ","MAREA":" ","LANE":" ","ALLEY":" ","HOUSE_NO":"８０號","E_COORD97":173182.88,"N_COORD97":2542230,"ADDRESS":"太乙六街８０號","OBJECTID":168801},"geometry":{"x":173182.88000000082,"y":2542230}},{"attributes":{"ID":168803,"DIS_CODE":0,"TOWNNAME":"仁德區","LI":"一甲里","LIN":"20鄰","STREET":"太乙七街","SECT":" ","MAREA":" ","LANE":" ","ALLEY":" ","HOUSE_NO":"５９號","E_COORD97":173093.67999999999,"N_COORD97":2542124.75,"ADDRESS":"太乙七街５９號","OBJECTID":168802},"geometry":{"x":173093.6799999997,"y":2542124.7500000019}},{"attributes":{"ID":168804,"DIS_CODE":0,"TOWNNAME":"仁德區","LI":"一甲里","LIN":"1鄰","STREET":"中正路","SECT":"三段","MAREA":" ","LANE":" ","ALLEY":" ","HOUSE_NO":"９５號","E_COORD97":173384.82999999999,"N_COORD97":2541642.8100000001,"ADDRESS":"中正路三段９５號","OBJECTID":168803},"geometry":{"x":173384.83000000194,"y":2541642.8100000042}},{"attributes":{"ID":168805,"DIS_CODE":0,"TOWNNAME":"南區","LI":"喜北里","LIN":" ","STREET":"喜樹路","SECT":" ","MAREA":" ","LANE":" ","ALLEY":" ","HOUSE_NO":"１３０號","E_COORD97":165871.23000000001,"N_COORD97":2538313.1299999999,"ADDRESS":"喜樹路１３０號","OBJECTID":168804},"geometry":{"x":165871.23000000231,"y":2538313.1300000027}},{"attributes":{"ID":168806,"DIS_CODE":0,"TOWNNAME":"南區","LI":"喜北里","LIN":" ","STREET":"喜樹路","SECT":" ","MAREA":" ","LANE":" ","ALLEY":" ","HOUSE_NO":"１２８號","E_COORD97":165871.23000000001,"N_COORD97":2538317.7000000002,"ADDRESS":"喜樹路１２８號","OBJECTID":168805},"geometry":{"x":165871.23000000231,"y":2538317.7000000011}},{"attributes":{"ID":168807,"DIS_CODE":0,"TOWNNAME":"官田區","LI":"二鎮里","LIN":"13鄰","STREET":" ","SECT":" ","MAREA":"二鎮","LANE":" ","ALLEY":" ","HOUSE_NO":"１１１號之３５","E_COORD97":181430.51999999999,"N_COORD97":2567960.4199999999,"ADDRESS":"二鎮１１１號之３５","OBJECTID":168806},"geometry":{"x":181430.52000000048,"y":2567960.4199999999}},{"attributes":{"ID":168808,"DIS_CODE":0,"TOWNNAME":"官田區","LI":"二鎮里","LIN":"13鄰","STREET":" ","SECT":" ","MAREA":"二鎮","LANE":" ","ALLEY":" ","HOUSE_NO":"１１１號之６０","E_COORD97":181492.60999999999,"N_COORD97":2567997.2000000002,"ADDRESS":"二鎮１１１號之６０","OBJECTID":168807},"geometry":{"x":181492.61000000034,"y":2567997.1999999993}},{"attributes":{"ID":168809,"DIS_CODE":0,"TOWNNAME":"官田區","LI":"二鎮里","LIN":"13鄰","STREET":" ","SECT":" ","MAREA":"二鎮","LANE":" ","ALLEY":" ","HOUSE_NO":"１１１號之８０","E_COORD97":181515.39999999999,"N_COORD97":2568044.9100000001,"ADDRESS":"二鎮１１１號之８０","OBJECTID":168808},"geometry":{"x":181515.4000000013,"y":2568044.9100000001}},{"attributes":{"ID":168810,"DIS_CODE":0,"TOWNNAME":"官田區","LI":"二鎮里","LIN":"13鄰","STREET":" ","SECT":" ","MAREA":"二鎮","LANE":" ","ALLEY":" ","HOUSE_NO":"１１１號","E_COORD97":181432.62,"N_COORD97":2568189.6200000001,"ADDRESS":"二鎮１１１號","OBJECTID":168809},"geometry":{"x":181432.62000000011,"y":2568189.620000001}},{"attributes":{"ID":168811,"DIS_CODE":0,"TOWNNAME":"歸仁區","LI":"大潭里","LIN":"12鄰","STREET":"大潭二街","SECT":" ","MAREA":" ","LANE":" ","ALLEY":" ","HOUSE_NO":"６６號","E_COORD97":175026.85999999999,"N_COORD97":2534580.25,"ADDRESS":"大潭二街６６號","OBJECTID":168810},"geometry":{"x":175026.86000000034,"y":2534580.2500000037}},{"attributes":{"ID":168812,"DIS_CODE":0,"TOWNNAME":"歸仁區","LI":"武東里","LIN":"12鄰","STREET":" ","SECT":" ","MAREA":"明德新村","LANE":" ","ALLEY":" ","HOUSE_NO":"３７號","E_COORD97":175267.48999999999,"N_COORD97":2536148.27,"ADDRESS":"明德新村３７號","OBJECTID":168811},"geometry":{"x":175267.49000000115,"y":2536148.2699999996}},{"attributes":{"ID":168813,"DIS_CODE":0,"TOWNNAME":"歸仁區","LI":"武東里","LIN":"12鄰","STREET":" ","SECT":" ","MAREA":"明德新村","LANE":" ","ALLEY":" ","HOUSE_NO":"１０２號","E_COORD97":175150.73999999999,"N_COORD97":2536144.27,"ADDRESS":"明德新村１０２號","OBJECTID":168812},"geometry":{"x":175150.74000000115,"y":2536144.2700000014}},{"attributes":{"ID":168814,"DIS_CODE":0,"TOWNNAME":"安南區","LI":"州北里","LIN":"12鄰","STREET":"安和路","SECT":"五段","MAREA":" ","LANE":"１７１巷","ALLEY":"７２弄","HOUSE_NO":"１８號","E_COORD97":169672.07000000001,"N_COORD97":2551858.73,"ADDRESS":"安和路五段１７１巷７２弄１８號","OBJECTID":168813},"geometry":{"x":169672.0700000003,"y":2551858.7300000023}},{"attributes":{"ID":168815,"DIS_CODE":0,"TOWNNAME":"安南區","LI":"布袋里","LIN":"4鄰","STREET":"長和路","SECT":"四段","MAREA":" ","LANE":"２３１巷","ALLEY":"６０弄","HOUSE_NO":"２１號","E_COORD97":168761.51999999999,"N_COORD97":2551568.7000000002,"ADDRESS":"長和路四段２３１巷６０弄２１號","OBJECTID":168814},"geometry":{"x":168761.51999999955,"y":2551568.6999999993}},{"attributes":{"ID":168816,"DIS_CODE":0,"TOWNNAME":"安南區","LI":"安富里","LIN":"17鄰","STREET":"安富街","SECT":" ","MAREA":" ","LANE":"１９９巷","ALLEY":"６弄","HOUSE_NO":"１０號","E_COORD97":167679.81,"N_COORD97":2547372.6299999999,"ADDRESS":"安富街１９９巷６弄１０號","OBJECTID":168815},"geometry":{"x":167679.80999999959,"y":2547372.6300000008}},{"attributes":{"ID":168817,"DIS_CODE":0,"TOWNNAME":"安南區","LI":"安富里","LIN":"17鄰","STREET":"安富街","SECT":" ","MAREA":" ","LANE":"１９９巷","ALLEY":"６弄","HOUSE_NO":"１９號","E_COORD97":167655.45000000001,"N_COORD97":2547347.6099999999,"ADDRESS":"安富街１９９巷６弄１９號","OBJECTID":168816},"geometry":{"x":167655.45000000019,"y":2547347.6099999994}},{"attributes":{"ID":168818,"DIS_CODE":0,"TOWNNAME":"安南區","LI":"安富里","LIN":"17鄰","STREET":"安富街","SECT":" ","MAREA":" ","LANE":"１９９巷","ALLEY":"６弄","HOUSE_NO":"１號","E_COORD97":167707.48000000001,"N_COORD97":2547358.4199999999,"ADDRESS":"安富街１９９巷６弄１號","OBJECTID":168817},"geometry":{"x":167707.48000000138,"y":2547358.4200000018}},{"attributes":{"ID":168819,"DIS_CODE":0,"TOWNNAME":"永康區","LI":"尚頂里","LIN":" ","STREET":"國聖街","SECT":" ","MAREA":" ","LANE":"４３巷","ALLEY":"３５弄","HOUSE_NO":"１號","E_COORD97":170369.73999999999,"N_COORD97":2547730.2400000002,"ADDRESS":"國聖街４３巷３５弄１號","OBJECTID":168818},"geometry":{"x":170369.74000000022,"y":2547730.2400000002}},{"attributes":{"ID":168820,"DIS_CODE":0,"TOWNNAME":"安南區","LI":"安富里","LIN":"17鄰","STREET":"安富街","SECT":" ","MAREA":" ","LANE":"１９９巷","ALLEY":"６弄","HOUSE_NO":"２０號","E_COORD97":167645.22,"N_COORD97":2547365.1299999999,"ADDRESS":"安富街１９９巷６弄２０號","OBJECTID":168819},"geometry":{"x":167645.21999999881,"y":2547365.1300000027}},{"attributes":{"ID":168821,"DIS_CODE":0,"TOWNNAME":"東山區","LI":"三榮里","LIN":"12鄰","STREET":" ","SECT":" ","MAREA":"下寮子","LANE":" ","ALLEY":" ","HOUSE_NO":"８號之１","E_COORD97":187398.10000000001,"N_COORD97":2581166.98,"ADDRESS":"下寮子８號之１","OBJECTID":168820},"geometry":{"x":187398.09999999963,"y":2581166.9800000023}},{"attributes":{"ID":168822,"DIS_CODE":0,"TOWNNAME":"安南區","LI":"安富里","LIN":"17鄰","STREET":"安富街","SECT":" ","MAREA":" ","LANE":"１９９巷","ALLEY":"６弄","HOUSE_NO":"２１號","E_COORD97":167650.92999999999,"N_COORD97":2547345.21,"ADDRESS":"安富街１９９巷６弄２１號","OBJECTID":168821},"geometry":{"x":167650.93000000063,"y":2547345.2100000009}},{"attributes":{"ID":168823,"DIS_CODE":0,"TOWNNAME":"安南區","LI":"安富里","LIN":"17鄰","STREET":"安富街","SECT":" ","MAREA":" ","LANE":"１９９巷","ALLEY":"６弄","HOUSE_NO":"２２號","E_COORD97":167639.81,"N_COORD97":2547363.9300000002,"ADDRESS":"安富街１９９巷６弄２２號","OBJECTID":168822},"geometry":{"x":167639.81000000052,"y":2547363.9300000034}},{"attributes":{"ID":168824,"DIS_CODE":0,"TOWNNAME":"安南區","LI":"安富里","LIN":"17鄰","STREET":"安富街","SECT":" ","MAREA":" ","LANE":"１９９巷","ALLEY":"６弄","HOUSE_NO":"２３號","E_COORD97":167645.82000000001,"N_COORD97":2547344.3100000001,"ADDRESS":"安富街１９９巷６弄２３號","OBJECTID":168823},"geometry":{"x":167645.82000000123,"y":2547344.3100000005}},{"attributes":{"ID":168825,"DIS_CODE":0,"TOWNNAME":"安南區","LI":"安富里","LIN":"17鄰","STREET":"安富街","SECT":" ","MAREA":" ","LANE":"１９９巷","ALLEY":"６弄","HOUSE_NO":"２４號","E_COORD97":167633.48999999999,"N_COORD97":2547363.9300000002,"ADDRESS":"安富街１９９巷６弄２４號","OBJECTID":168824},"geometry":{"x":167633.49000000022,"y":2547363.9300000034}},{"attributes":{"ID":168826,"DIS_CODE":0,"TOWNNAME":"歸仁區","LI":"八甲里","LIN":"12鄰","STREET":"大明二街","SECT":" ","MAREA":" ","LANE":" ","ALLEY":" ","HOUSE_NO":"５０號","E_COORD97":177938.12,"N_COORD97":2541963.6099999999,"ADDRESS":"大明二街５０號","OBJECTID":168825},"geometry":{"x":177938.12000000104,"y":2541963.6099999994}},{"attributes":{"ID":168827,"DIS_CODE":0,"TOWNNAME":"安南區","LI":"安富里","LIN":"17鄰","STREET":"安富街","SECT":" ","MAREA":" ","LANE":"１９９巷","ALLEY":"６弄","HOUSE_NO":"２５號","E_COORD97":167641.60999999999,"N_COORD97":2547341.6099999999,"ADDRESS":"安富街１９９巷６弄２５號","OBJECTID":168826},"geometry":{"x":167641.6100000022,"y":2547341.6099999994}},{"attributes":{"ID":168828,"DIS_CODE":0,"TOWNNAME":"安南區","LI":"安富里","LIN":"17鄰","STREET":"安富街","SECT":" ","MAREA":" ","LANE":"１９９巷","ALLEY":"６弄","HOUSE_NO":"２６號","E_COORD97":167627.78,"N_COORD97":2547361.52,"ADDRESS":"安富街１９９巷６弄２６號","OBJECTID":168827},"geometry":{"x":167627.78000000026,"y":2547361.5199999996}},{"attributes":{"ID":168829,"DIS_CODE":0,"TOWNNAME":"安南區","LI":"安富里","LIN":"17鄰","STREET":"安富街","SECT":" ","MAREA":" ","LANE":"１９９巷","ALLEY":"６弄","HOUSE_NO":"２７號","E_COORD97":167636.5,"N_COORD97":2547340.1099999999,"ADDRESS":"安富街１９９巷６弄２７號","OBJECTID":168828},"geometry":{"x":167636.5,"y":2547340.1100000013}},{"attributes":{"ID":168830,"DIS_CODE":0,"TOWNNAME":"安南區","LI":"安富里","LIN":"17鄰","STREET":"安富街","SECT":" ","MAREA":" ","LANE":"１９９巷","ALLEY":"６弄","HOUSE_NO":"２８號","E_COORD97":167622.35999999999,"N_COORD97":2547361.8199999998,"ADDRESS":"安富街１９９巷６弄２８號","OBJECTID":168829},"geometry":{"x":167622.36000000034,"y":2547361.820000004}},{"attributes":{"ID":168831,"DIS_CODE":0,"TOWNNAME":"安南區","LI":"安富里","LIN":"21鄰","STREET":"郡安路","SECT":"五段","MAREA":" ","LANE":"１６４巷","ALLEY":"１１弄","HOUSE_NO":"１０號","E_COORD97":167708.32000000001,"N_COORD97":2547548.7999999998,"ADDRESS":"郡安路五段１６４巷１１弄１０號","OBJECTID":168830},"geometry":{"x":167708.32000000123,"y":2547548.7999999989}},{"attributes":{"ID":168832,"DIS_CODE":0,"TOWNNAME":"東山區","LI":"三榮里","LIN":"12鄰","STREET":" ","SECT":" ","MAREA":"下寮子","LANE":" ","ALLEY":" ","HOUSE_NO":"８號","E_COORD97":187388.67999999999,"N_COORD97":2581163.1000000001,"ADDRESS":"下寮子８號","OBJECTID":168831},"geometry":{"x":187388.6799999997,"y":2581163.0999999996}},{"attributes":{"ID":168833,"DIS_CODE":0,"TOWNNAME":"東山區","LI":"大客里","LIN":"12鄰","STREET":" ","SECT":" ","MAREA":"大庄","LANE":" ","ALLEY":" ","HOUSE_NO":"１００號","E_COORD97":190517.92000000001,"N_COORD97":2578913.6499999999,"ADDRESS":"大庄１００號","OBJECTID":168832},"geometry":{"x":190517.92000000086,"y":2578913.6500000004}},{"attributes":{"ID":168834,"DIS_CODE":0,"TOWNNAME":"官田區","LI":"二鎮里","LIN":"13鄰","STREET":" ","SECT":" ","MAREA":"二鎮","LANE":" ","ALLEY":" ","HOUSE_NO":"１１２號","E_COORD97":181438.20000000001,"N_COORD97":2568080.8799999999,"ADDRESS":"二鎮１１２號","OBJECTID":168833},"geometry":{"x":181438.20000000112,"y":2568080.879999999}},{"attributes":{"ID":168835,"DIS_CODE":0,"TOWNNAME":"安南區","LI":"安富里","LIN":"21鄰","STREET":"郡安路","SECT":"五段","MAREA":" ","LANE":"１６４巷","ALLEY":"１１弄","HOUSE_NO":"１１號","E_COORD97":167709.23000000001,"N_COORD97":2547570.8300000001,"ADDRESS":"郡安路五段１６４巷１１弄１１號","OBJECTID":168834},"geometry":{"x":167709.23000000138,"y":2547570.8300000001}},{"attributes":{"ID":168836,"DIS_CODE":0,"TOWNNAME":"安南區","LI":"安富里","LIN":"21鄰","STREET":"郡安路","SECT":"五段","MAREA":" ","LANE":"１６４巷","ALLEY":"１１弄","HOUSE_NO":"１２號","E_COORD97":167714.04999999999,"N_COORD97":2547549.2599999998,"ADDRESS":"郡安路五段１６４巷１１弄１２號","OBJECTID":168835},"geometry":{"x":167714.04999999981,"y":2547549.2600000016}},{"attributes":{"ID":168837,"DIS_CODE":0,"TOWNNAME":"安南區","LI":"安富里","LIN":"21鄰","STREET":"郡安路","SECT":"五段","MAREA":" ","LANE":"１６４巷","ALLEY":"１１弄","HOUSE_NO":"１３號","E_COORD97":167715.89000000001,"N_COORD97":2547570.1400000001,"ADDRESS":"郡安路五段１６４巷１１弄１３號","OBJECTID":168836},"geometry":{"x":167715.8900000006,"y":2547570.1400000043}},{"attributes":{"ID":168838,"DIS_CODE":0,"TOWNNAME":"安南區","LI":"安富里","LIN":"21鄰","STREET":"郡安路","SECT":"五段","MAREA":" ","LANE":"１６４巷","ALLEY":"１１弄","HOUSE_NO":"１４號","E_COORD97":167720.47,"N_COORD97":2547549.4900000002,"ADDRESS":"郡安路五段１６４巷１１弄１４號","OBJECTID":168837},"geometry":{"x":167720.47000000067,"y":2547549.4900000002}},{"attributes":{"ID":168839,"DIS_CODE":0,"TOWNNAME":"安南區","LI":"安富里","LIN":"21鄰","STREET":"郡安路","SECT":"五段","MAREA":" ","LANE":"１６４巷","ALLEY":"１１弄","HOUSE_NO":"１５號","E_COORD97":167725.75,"N_COORD97":2547572.6600000001,"ADDRESS":"郡安路五段１６４巷１１弄１５號","OBJECTID":168838},"geometry":{"x":167725.75000000093,"y":2547572.6600000001}},{"attributes":{"ID":168840,"DIS_CODE":0,"TOWNNAME":"安南區","LI":"安富里","LIN":"21鄰","STREET":"郡安路","SECT":"五段","MAREA":" ","LANE":"１６４巷","ALLEY":"１１弄","HOUSE_NO":"１７號","E_COORD97":167731.94,"N_COORD97":2547573.5699999998,"ADDRESS":"郡安路五段１６４巷１１弄１７號","OBJECTID":168839},"geometry":{"x":167731.94000000041,"y":2547573.5699999984}},{"attributes":{"ID":168841,"DIS_CODE":0,"TOWNNAME":"安南區","LI":"安富里","LIN":"21鄰","STREET":"郡安路","SECT":"五段","MAREA":" ","LANE":"１６４巷","ALLEY":"１１弄","HOUSE_NO":"１９號","E_COORD97":167737.45000000001,"N_COORD97":2547575.1800000002,"ADDRESS":"郡安路五段１６４巷１１弄１９號","OBJECTID":168840},"geometry":{"x":167737.45000000205,"y":2547575.1799999997}},{"attributes":{"ID":168842,"DIS_CODE":0,"TOWNNAME":"安南區","LI":"安富里","LIN":"21鄰","STREET":"郡安路","SECT":"五段","MAREA":" ","LANE":"１６４巷","ALLEY":"１１弄","HOUSE_NO":"１號","E_COORD97":167679.87,"N_COORD97":2547564.6400000001,"ADDRESS":"郡安路五段１６４巷１１弄１號","OBJECTID":168841},"geometry":{"x":167679.87000000011,"y":2547564.6400000025}},{"attributes":{"ID":168843,"DIS_CODE":0,"TOWNNAME":"安南區","LI":"安富里","LIN":"21鄰","STREET":"郡安路","SECT":"五段","MAREA":" ","LANE":"１６４巷","ALLEY":"１１弄","HOUSE_NO":"２０號","E_COORD97":167740.89000000001,"N_COORD97":2547555.8999999999,"ADDRESS":"郡安路五段１６４巷１１弄２０號","OBJECTID":168842},"geometry":{"x":167740.8900000006,"y":2547555.9000000022}},{"attributes":{"ID":168844,"DIS_CODE":0,"TOWNNAME":"安南區","LI":"安富里","LIN":"21鄰","STREET":"郡安路","SECT":"五段","MAREA":" ","LANE":"１６４巷","ALLEY":"１１弄","HOUSE_NO":"２１號","E_COORD97":167741.81,"N_COORD97":2547577.7000000002,"ADDRESS":"郡安路五段１６４巷１１弄２１號","OBJECTID":168843},"geometry":{"x":167741.81000000052,"y":2547577.6999999993}},{"attributes":{"ID":168845,"DIS_CODE":0,"TOWNNAME":"安南區","LI":"安富里","LIN":" ","STREET":"郡安路","SECT":"五段","MAREA":" ","LANE":"１６４巷","ALLEY":"２弄","HOUSE_NO":"１３號","E_COORD97":167606.07999999999,"N_COORD97":2547702.4300000002,"ADDRESS":"郡安路五段１６４巷２弄１３號","OBJECTID":168844},"geometry":{"x":167606.08000000194,"y":2547702.4299999997}},{"attributes":{"ID":168846,"DIS_CODE":0,"TOWNNAME":"安南區","LI":"安富里","LIN":"25鄰","STREET":"郡安路","SECT":"五段","MAREA":" ","LANE":"１６４巷","ALLEY":"３弄","HOUSE_NO":"１８號","E_COORD97":167702.79000000001,"N_COORD97":2547686.6299999999,"ADDRESS":"郡安路五段１６４巷３弄１８號","OBJECTID":168845},"geometry":{"x":167702.7900000019,"y":2547686.629999999}},{"attributes":{"ID":168847,"DIS_CODE":0,"TOWNNAME":"安南區","LI":"安富里","LIN":"25鄰","STREET":"郡安路","SECT":"五段","MAREA":" ","LANE":"１６４巷","ALLEY":"３弄","HOUSE_NO":"１９號","E_COORD97":167733.03,"N_COORD97":2547712.9100000001,"ADDRESS":"郡安路五段１６４巷３弄１９號","OBJECTID":168846},"geometry":{"x":167733.03000000026,"y":2547712.9100000001}},{"attributes":{"ID":168848,"DIS_CODE":0,"TOWNNAME":"安南區","LI":"安富里","LIN":"25鄰","STREET":"郡安路","SECT":"五段","MAREA":" ","LANE":"１６４巷","ALLEY":"３弄","HOUSE_NO":"２０號","E_COORD97":167709.44,"N_COORD97":2547687.3100000001,"ADDRESS":"郡安路五段１６４巷３弄２０號","OBJECTID":168847},"geometry":{"x":167709.44000000134,"y":2547687.3100000005}},{"attributes":{"ID":168849,"DIS_CODE":0,"TOWNNAME":"安南區","LI":"溪東里","LIN":"4鄰","STREET":"府安路","SECT":"五段","MAREA":" ","LANE":"９８巷","ALLEY":"４６弄","HOUSE_NO":"５號","E_COORD97":168054.59,"N_COORD97":2547284.9500000002,"ADDRESS":"府安路五段９８巷４６弄５號","OBJECTID":168848},"geometry":{"x":168054.58999999985,"y":2547284.9499999993}},{"attributes":{"ID":168850,"DIS_CODE":0,"TOWNNAME":"安南區","LI":"溪東里","LIN":"4鄰","STREET":"府安路","SECT":"五段","MAREA":" ","LANE":"９８巷","ALLEY":"４６弄","HOUSE_NO":"７號","E_COORD97":168058.20000000001,"N_COORD97":2547288.4300000002,"ADDRESS":"府安路五段９８巷４６弄７號","OBJECTID":168849},"geometry":{"x":168058.20000000112,"y":2547288.4299999997}},{"attributes":{"ID":168851,"DIS_CODE":0,"TOWNNAME":"安南區","LI":"溪東里","LIN":"4鄰","STREET":"府安路","SECT":"五段","MAREA":" ","LANE":"９８巷","ALLEY":"５５弄","HOUSE_NO":"１號","E_COORD97":168029.31,"N_COORD97":2547307.2799999998,"ADDRESS":"府安路五段９８巷５５弄１號","OBJECTID":168850},"geometry":{"x":168029.30999999866,"y":2547307.2800000012}},{"attributes":{"ID":168852,"DIS_CODE":0,"TOWNNAME":"安南區","LI":"溪東里","LIN":"4鄰","STREET":"府安路","SECT":"五段","MAREA":" ","LANE":"９８巷","ALLEY":"５５弄","HOUSE_NO":"３號","E_COORD97":168024.19,"N_COORD97":2547313.0299999998,"ADDRESS":"府安路五段９８巷５５弄３號","OBJECTID":168851},"geometry":{"x":168024.18999999948,"y":2547313.0300000012}},{"attributes":{"ID":168853,"DIS_CODE":0,"TOWNNAME":"安南區","LI":"溪東里","LIN":"4鄰","STREET":"府安路","SECT":"五段","MAREA":" ","LANE":"９８巷","ALLEY":"５５弄","HOUSE_NO":"５號","E_COORD97":168019.54000000001,"N_COORD97":2547310.6800000002,"ADDRESS":"府安路五段９８巷５５弄５號","OBJECTID":168852},"geometry":{"x":168019.54000000004,"y":2547310.6799999997}},{"attributes":{"ID":168854,"DIS_CODE":0,"TOWNNAME":"安南區","LI":"溪東里","LIN":"4鄰","STREET":"府安路","SECT":"五段","MAREA":" ","LANE":"９８巷","ALLEY":"５６弄","HOUSE_NO":"６號","E_COORD97":168046.95999999999,"N_COORD97":2547318.8199999998,"ADDRESS":"府安路五段９８巷５６弄６號","OBJECTID":168853},"geometry":{"x":168046.95999999996,"y":2547318.8200000022}},{"attributes":{"ID":168855,"DIS_CODE":0,"TOWNNAME":"安南區","LI":"溪東里","LIN":"17鄰","STREET":"府安路","SECT":"五段","MAREA":" ","LANE":"１１巷","ALLEY":"７８弄","HOUSE_NO":"１２號","E_COORD97":168459.67999999999,"N_COORD97":2547553.0499999998,"ADDRESS":"府安路五段１１巷７８弄１２號","OBJECTID":168854},"geometry":{"x":168459.68000000063,"y":2547553.0500000007}},{"attributes":{"ID":168856,"DIS_CODE":0,"TOWNNAME":"安南區","LI":"溪東里","LIN":"17鄰","STREET":"府安路","SECT":"五段","MAREA":" ","LANE":"１１巷","ALLEY":"７８弄","HOUSE_NO":"１號","E_COORD97":168436.35000000001,"N_COORD97":2547568.3500000001,"ADDRESS":"府安路五段１１巷７８弄１號","OBJECTID":168855},"geometry":{"x":168436.35000000056,"y":2547568.3500000015}},{"attributes":{"ID":168857,"DIS_CODE":0,"TOWNNAME":"安南區","LI":"溪東里","LIN":"17鄰","STREET":"府安路","SECT":"五段","MAREA":" ","LANE":"１１巷","ALLEY":"７８弄","HOUSE_NO":"３號","E_COORD97":168439.73999999999,"N_COORD97":2547568.6299999999,"ADDRESS":"府安路五段１１巷７８弄３號","OBJECTID":168856},"geometry":{"x":168439.74000000115,"y":2547568.6300000027}},{"attributes":{"ID":168858,"DIS_CODE":0,"TOWNNAME":"安南區","LI":"溪東里","LIN":"17鄰","STREET":"府安路","SECT":"五段","MAREA":" ","LANE":"１１巷","ALLEY":"７８弄","HOUSE_NO":"４號","E_COORD97":168442.26999999999,"N_COORD97":2547551.9199999999,"ADDRESS":"府安路五段１１巷７８弄４號","OBJECTID":168857},"geometry":{"x":168442.27000000048,"y":2547551.9200000018}},{"attributes":{"ID":168859,"DIS_CODE":0,"TOWNNAME":"關廟區","LI":"北勢里","LIN":"12鄰","STREET":"仁愛路","SECT":" ","MAREA":" ","LANE":" ","ALLEY":" ","HOUSE_NO":"６３２號","E_COORD97":181989.59,"N_COORD97":2540838.2799999998,"ADDRESS":"仁愛路６３２號","OBJECTID":168858},"geometry":{"x":181989.59000000078,"y":2540838.2800000031}},{"attributes":{"ID":168860,"DIS_CODE":0,"TOWNNAME":"官田區","LI":"二鎮里","LIN":"13鄰","STREET":" ","SECT":" ","MAREA":"二鎮","LANE":" ","ALLEY":" ","HOUSE_NO":"１１３號","E_COORD97":181459.95999999999,"N_COORD97":2568181.2599999998,"ADDRESS":"二鎮１１３號","OBJECTID":168859},"geometry":{"x":181459.96000000089,"y":2568181.2599999998}},{"attributes":{"ID":168861,"DIS_CODE":0,"TOWNNAME":"官田區","LI":"二鎮里","LIN":"13鄰","STREET":" ","SECT":" ","MAREA":"二鎮","LANE":" ","ALLEY":" ","HOUSE_NO":"１１４號","E_COORD97":181456.54000000001,"N_COORD97":2568198.7400000002,"ADDRESS":"二鎮１１４號","OBJECTID":168860},"geometry":{"x":181456.54000000097,"y":2568198.7400000002}},{"attributes":{"ID":168862,"DIS_CODE":0,"TOWNNAME":"安南區","LI":"溪東里","LIN":"17鄰","STREET":"府安路","SECT":"五段","MAREA":" ","LANE":"１１巷","ALLEY":"７８弄","HOUSE_NO":"５號","E_COORD97":168445.01000000001,"N_COORD97":2547569,"ADDRESS":"府安路五段１１巷７８弄５號","OBJECTID":168861},"geometry":{"x":168445.00999999978,"y":2547569}},{"attributes":{"ID":168863,"DIS_CODE":0,"TOWNNAME":"安南區","LI":"溪東里","LIN":"17鄰","STREET":"府安路","SECT":"五段","MAREA":" ","LANE":"１１巷","ALLEY":"７８弄","HOUSE_NO":"６號","E_COORD97":168447.17000000001,"N_COORD97":2547552.5800000001,"ADDRESS":"府安路五段１１巷７８弄６號","OBJECTID":168862},"geometry":{"x":168447.16999999993,"y":2547552.5800000001}},{"attributes":{"ID":168864,"DIS_CODE":0,"TOWNNAME":"安南區","LI":"溪東里","LIN":"17鄰","STREET":"府安路","SECT":"五段","MAREA":" ","LANE":"１１巷","ALLEY":"７８弄","HOUSE_NO":"７號","E_COORD97":168448.67999999999,"N_COORD97":2547569.7599999998,"ADDRESS":"府安路五段１１巷７８弄７號","OBJECTID":168863},"geometry":{"x":168448.6799999997,"y":2547569.7600000016}},{"attributes":{"ID":168865,"DIS_CODE":0,"TOWNNAME":"安南區","LI":"溪東里","LIN":"17鄰","STREET":"府安路","SECT":"五段","MAREA":" ","LANE":"１１巷","ALLEY":"７８弄","HOUSE_NO":"８號","E_COORD97":168451.39999999999,"N_COORD97":2547552.2999999998,"ADDRESS":"府安路五段１１巷７８弄８號","OBJECTID":168864},"geometry":{"x":168451.40000000037,"y":2547552.3000000045}},{"attributes":{"ID":168866,"DIS_CODE":0,"TOWNNAME":"安南區","LI":"溪東里","LIN":"17鄰","STREET":"府安路","SECT":"五段","MAREA":" ","LANE":"１１巷","ALLEY":"７８弄","HOUSE_NO":"９號","E_COORD97":168453.48000000001,"N_COORD97":2547570.4100000001,"ADDRESS":"府安路五段１１巷７８弄９號","OBJECTID":168865},"geometry":{"x":168453.48000000138,"y":2547570.4100000001}},{"attributes":{"ID":168867,"DIS_CODE":0,"TOWNNAME":"安南區","LI":"溪東里","LIN":"19鄰","STREET":"府安路","SECT":"五段","MAREA":" ","LANE":"１１巷","ALLEY":"９３弄","HOUSE_NO":"１０號","E_COORD97":168388.03,"N_COORD97":2547633.3399999999,"ADDRESS":"府安路五段１１巷９３弄１０號","OBJECTID":168866},"geometry":{"x":168388.03000000212,"y":2547633.3400000017}},{"attributes":{"ID":168868,"DIS_CODE":0,"TOWNNAME":"永康區","LI":"崑山里","LIN":"18鄰","STREET":"大灣路","SECT":" ","MAREA":" ","LANE":"９４２巷","ALLEY":"１６弄","HOUSE_NO":"１２號","E_COORD97":173681.73000000001,"N_COORD97":2544469.79,"ADDRESS":"大灣路９４２巷１６弄１２號","OBJECTID":168867},"geometry":{"x":173681.73000000138,"y":2544469.790000001}},{"attributes":{"ID":168869,"DIS_CODE":0,"TOWNNAME":"永康區","LI":"勝利里","LIN":"40鄰","STREET":"中華一路","SECT":" ","MAREA":" ","LANE":"１８２巷","ALLEY":"１弄","HOUSE_NO":"１０號","E_COORD97":171493.78,"N_COORD97":2545020.73,"ADDRESS":"中華一路１８２巷１弄１０號","OBJECTID":168868},"geometry":{"x":171493.78000000119,"y":2545020.7300000023}},{"attributes":{"ID":168870,"DIS_CODE":0,"TOWNNAME":"永康區","LI":"神洲里","LIN":"20鄰","STREET":"忠孝路","SECT":" ","MAREA":" ","LANE":"７６巷","ALLEY":"６３弄","HOUSE_NO":"３０號","E_COORD97":172161.01999999999,"N_COORD97":2545049.5800000001,"ADDRESS":"忠孝路７６巷６３弄３０號","OBJECTID":168869},"geometry":{"x":172161.02000000048,"y":2545049.5800000001}},{"attributes":{"ID":168871,"DIS_CODE":0,"TOWNNAME":"永康區","LI":"勝利里","LIN":"20鄰","STREET":"勝學路","SECT":" ","MAREA":" ","LANE":"２６０巷","ALLEY":"３弄","HOUSE_NO":"３號","E_COORD97":171239.57000000001,"N_COORD97":2545300.5099999998,"ADDRESS":"勝學路２６０巷３弄３號","OBJECTID":168870},"geometry":{"x":171239.57000000123,"y":2545300.5099999998}},{"attributes":{"ID":168872,"DIS_CODE":0,"TOWNNAME":"永康區","LI":"勝利里","LIN":"39鄰","STREET":"勝華街","SECT":" ","MAREA":" ","LANE":"３７巷","ALLEY":"４２弄","HOUSE_NO":"２０號","E_COORD97":171424.51999999999,"N_COORD97":2545167.4300000002,"ADDRESS":"勝華街３７巷４２弄２０號","OBJECTID":168871},"geometry":{"x":171424.51999999955,"y":2545167.4300000016}},{"attributes":{"ID":168873,"DIS_CODE":0,"TOWNNAME":"永康區","LI":"崑山里","LIN":"42鄰","STREET":"大灣路","SECT":" ","MAREA":" ","LANE":"９４２巷","ALLEY":"２８０弄","HOUSE_NO":"３８號","E_COORD97":173936.01999999999,"N_COORD97":2545147.8100000001,"ADDRESS":"大灣路９４２巷２８０弄３８號","OBJECTID":168872},"geometry":{"x":173936.02000000048,"y":2545147.8100000005}},{"attributes":{"ID":168874,"DIS_CODE":0,"TOWNNAME":"永康區","LI":"勝利里","LIN":"15鄰","STREET":"勝利街","SECT":" ","MAREA":" ","LANE":"２２巷","ALLEY":"４５弄","HOUSE_NO":"８７號","E_COORD97":171239.01000000001,"N_COORD97":2544840.9900000002,"ADDRESS":"勝利街２２巷４５弄８７號","OBJECTID":168873},"geometry":{"x":171239.01000000164,"y":2544840.9900000002}},{"attributes":{"ID":168875,"DIS_CODE":0,"TOWNNAME":"永康區","LI":"勝利里","LIN":"20鄰","STREET":"勝學路","SECT":" ","MAREA":" ","LANE":"２６０巷","ALLEY":"３弄","HOUSE_NO":"６號","E_COORD97":171250.01999999999,"N_COORD97":2545300.5099999998,"ADDRESS":"勝學路２６０巷３弄６號","OBJECTID":168874},"geometry":{"x":171250.01999999955,"y":2545300.5099999998}},{"attributes":{"ID":168876,"DIS_CODE":0,"TOWNNAME":"六甲區","LI":"甲東里","LIN":"12鄰","STREET":"裕農街","SECT":" ","MAREA":" ","LANE":" ","ALLEY":" ","HOUSE_NO":"２８９號","E_COORD97":184117.12,"N_COORD97":2569984.0299999998,"ADDRESS":"裕農街２８９號","OBJECTID":168875},"geometry":{"x":184117.12000000104,"y":2569984.0300000012}},{"attributes":{"ID":168877,"DIS_CODE":0,"TOWNNAME":"六甲區","LI":"甲東里","LIN":"12鄰","STREET":"裕農街","SECT":" ","MAREA":" ","LANE":" ","ALLEY":" ","HOUSE_NO":"２９０號","E_COORD97":184119.54999999999,"N_COORD97":2570014.6299999999,"ADDRESS":"裕農街２９０號","OBJECTID":168876},"geometry":{"x":184119.55000000075,"y":2570014.629999999}},{"attributes":{"ID":168878,"DIS_CODE":0,"TOWNNAME":"六甲區","LI":"甲東里","LIN":"12鄰","STREET":"裕農街","SECT":" ","MAREA":" ","LANE":" ","ALLEY":" ","HOUSE_NO":"２９２號","E_COORD97":184114.98999999999,"N_COORD97":2570014.5499999998,"ADDRESS":"裕農街２９２號","OBJECTID":168877},"geometry":{"x":184114.99000000115,"y":2570014.5500000007}},{"attributes":{"ID":168879,"DIS_CODE":0,"TOWNNAME":"仁德區","LI":"一甲里","LIN":"3鄰","STREET":"中正路","SECT":"三段","MAREA":" ","LANE":" ","ALLEY":" ","HOUSE_NO":"１３８號","E_COORD97":173449.31,"N_COORD97":2541714.02,"ADDRESS":"中正路三段１３８號","OBJECTID":168878},"geometry":{"x":173449.31000000052,"y":2541714.0199999996}},{"attributes":{"ID":168880,"DIS_CODE":0,"TOWNNAME":"仁德區","LI":"土庫里","LIN":"2鄰","STREET":"太乙路","SECT":" ","MAREA":" ","LANE":" ","ALLEY":" ","HOUSE_NO":"８號","E_COORD97":173814.45000000001,"N_COORD97":2542484.7599999998,"ADDRESS":"太乙路８號","OBJECTID":168879},"geometry":{"x":173814.45000000019,"y":2542484.7599999998}},{"attributes":{"ID":168881,"DIS_CODE":0,"TOWNNAME":"關廟區","LI":"深坑里","LIN":"12鄰","STREET":"深坑二街","SECT":" ","MAREA":" ","LANE":" ","ALLEY":" ","HOUSE_NO":"４６號","E_COORD97":181578.51999999999,"N_COORD97":2537607.2999999998,"ADDRESS":"深坑二街４６號","OBJECTID":168880},"geometry":{"x":181578.51999999955,"y":2537607.3000000007}},{"attributes":{"ID":168882,"DIS_CODE":0,"TOWNNAME":"南區","LI":"喜北里","LIN":" ","STREET":"喜樹路","SECT":" ","MAREA":" ","LANE":" ","ALLEY":" ","HOUSE_NO":"１２２號","E_COORD97":165871.42999999999,"N_COORD97":2538331.8100000001,"ADDRESS":"喜樹路１２２號","OBJECTID":168881},"geometry":{"x":165871.43000000063,"y":2538331.8100000024}},{"attributes":{"ID":168883,"DIS_CODE":0,"TOWNNAME":"南區","LI":"喜北里","LIN":" ","STREET":"喜樹路","SECT":" ","MAREA":" ","LANE":" ","ALLEY":" ","HOUSE_NO":"１２０號","E_COORD97":165871.70999999999,"N_COORD97":2538336.6499999999,"ADDRESS":"喜樹路１２０號","OBJECTID":168882},"geometry":{"x":165871.70999999996,"y":2538336.6500000004}},{"attributes":{"ID":168884,"DIS_CODE":0,"TOWNNAME":"南區","LI":"喜東里","LIN":"4鄰","STREET":"明興路","SECT":" ","MAREA":" ","LANE":" ","ALLEY":" ","HOUSE_NO":"３６２號","E_COORD97":166322.04000000001,"N_COORD97":2538933.9199999999,"ADDRESS":"明興路３６２號","OBJECTID":168883},"geometry":{"x":166322.04000000097,"y":2538933.9200000018}},{"attributes":{"ID":168885,"DIS_CODE":0,"TOWNNAME":"南區","LI":"喜東里","LIN":"4鄰","STREET":"明興路","SECT":" ","MAREA":" ","LANE":" ","ALLEY":" ","HOUSE_NO":"３６４號","E_COORD97":166321.38,"N_COORD97":2538929.7599999998,"ADDRESS":"明興路３６４號","OBJECTID":168884},"geometry":{"x":166321.37999999989,"y":2538929.7599999979}},{"attributes":{"ID":168886,"DIS_CODE":0,"TOWNNAME":"南區","LI":"喜東里","LIN":"4鄰","STREET":"明興路","SECT":" ","MAREA":" ","LANE":" ","ALLEY":" ","HOUSE_NO":"３６６號","E_COORD97":166321.16,"N_COORD97":2538926.04,"ADDRESS":"明興路３６６號","OBJECTID":168885},"geometry":{"x":166321.16000000108,"y":2538926.0399999991}},{"attributes":{"ID":168887,"DIS_CODE":0,"TOWNNAME":"南區","LI":"喜東里","LIN":"4鄰","STREET":"明興路","SECT":" ","MAREA":" ","LANE":" ","ALLEY":" ","HOUSE_NO":"３６８號","E_COORD97":166321.26999999999,"N_COORD97":2538922.1000000001,"ADDRESS":"明興路３６８號","OBJECTID":168886},"geometry":{"x":166321.27000000048,"y":2538922.1000000015}},{"attributes":{"ID":168888,"DIS_CODE":0,"TOWNNAME":"南區","LI":"喜東里","LIN":"4鄰","STREET":"明興路","SECT":" ","MAREA":" ","LANE":" ","ALLEY":" ","HOUSE_NO":"３７０號","E_COORD97":166320.06,"N_COORD97":2538917.6099999999,"ADDRESS":"明興路３７０號","OBJECTID":168887},"geometry":{"x":166320.05999999959,"y":2538917.6100000013}},{"attributes":{"ID":168889,"DIS_CODE":0,"TOWNNAME":"南區","LI":"喜東里","LIN":"4鄰","STREET":"明興路","SECT":" ","MAREA":" ","LANE":" ","ALLEY":" ","HOUSE_NO":"３７２號","E_COORD97":166318.53,"N_COORD97":2538915.21,"ADDRESS":"明興路３７２號","OBJECTID":168888},"geometry":{"x":166318.53000000119,"y":2538915.2100000028}},{"attributes":{"ID":168890,"DIS_CODE":0,"TOWNNAME":"南區","LI":"喜東里","LIN":"4鄰","STREET":"明興路","SECT":" ","MAREA":" ","LANE":" ","ALLEY":" ","HOUSE_NO":"３７４號","E_COORD97":166317.32000000001,"N_COORD97":2538909.4300000002,"ADDRESS":"明興路３７４號","OBJECTID":168889},"geometry":{"x":166317.3200000003,"y":2538909.4300000016}},{"attributes":{"ID":168891,"DIS_CODE":0,"TOWNNAME":"官田區","LI":"二鎮里","LIN":"13鄰","STREET":" ","SECT":" ","MAREA":"二鎮","LANE":" ","ALLEY":" ","HOUSE_NO":"１１５號","E_COORD97":181463.70999999999,"N_COORD97":2568200.3799999999,"ADDRESS":"二鎮１１５號","OBJECTID":168890},"geometry":{"x":181463.71000000089,"y":2568200.379999999}},{"attributes":{"ID":168892,"DIS_CODE":0,"TOWNNAME":"官田區","LI":"二鎮里","LIN":"13鄰","STREET":" ","SECT":" ","MAREA":"二鎮","LANE":" ","ALLEY":" ","HOUSE_NO":"１１６號","E_COORD97":181353.39000000001,"N_COORD97":2568138.6800000002,"ADDRESS":"二鎮１１６號","OBJECTID":168891},"geometry":{"x":181353.3900000006,"y":2568138.6800000034}},{"attributes":{"ID":168893,"DIS_CODE":0,"TOWNNAME":"官田區","LI":"二鎮里","LIN":"13鄰","STREET":" ","SECT":" ","MAREA":"二鎮","LANE":" ","ALLEY":" ","HOUSE_NO":"１１７號","E_COORD97":181349.01000000001,"N_COORD97":2568138.3599999999,"ADDRESS":"二鎮１１７號","OBJECTID":168892},"geometry":{"x":181349.01000000164,"y":2568138.3600000013}},{"attributes":{"ID":168894,"DIS_CODE":0,"TOWNNAME":"官田區","LI":"二鎮里","LIN":"13鄰","STREET":" ","SECT":" ","MAREA":"二鎮","LANE":" ","ALLEY":" ","HOUSE_NO":"１１８號","E_COORD97":181343.85999999999,"N_COORD97":2568137.5800000001,"ADDRESS":"二鎮１１８號","OBJECTID":168893},"geometry":{"x":181343.8600000022,"y":2568137.5800000019}},{"attributes":{"ID":168895,"DIS_CODE":0,"TOWNNAME":"官田區","LI":"二鎮里","LIN":"13鄰","STREET":" ","SECT":" ","MAREA":"二鎮","LANE":" ","ALLEY":" ","HOUSE_NO":"１１９號","E_COORD97":181339.03,"N_COORD97":2568136.6600000001,"ADDRESS":"二鎮１１９號","OBJECTID":168894},"geometry":{"x":181339.03000000026,"y":2568136.660000002}},{"attributes":{"ID":168896,"DIS_CODE":0,"TOWNNAME":"官田區","LI":"南\u25A0里","LIN":"13鄰","STREET":" ","SECT":" ","MAREA":"三結義","LANE":" ","ALLEY":" ","HOUSE_NO":"１９號","E_COORD97":179896.70999999999,"N_COORD97":2568441.2000000002,"ADDRESS":"三結義１９號","OBJECTID":168895},"geometry":{"x":179896.70999999903,"y":2568441.2000000011}},{"attributes":{"ID":168897,"DIS_CODE":0,"TOWNNAME":"永康區","LI":"勝利里","LIN":"40鄰","STREET":"中華一路","SECT":" ","MAREA":" ","LANE":"１８２巷","ALLEY":"２弄","HOUSE_NO":"２號","E_COORD97":171517.76000000001,"N_COORD97":2545004.9500000002,"ADDRESS":"中華一路１８２巷２弄２號","OBJECTID":168896},"geometry":{"x":171517.76000000071,"y":2545004.9500000011}},{"attributes":{"ID":168898,"DIS_CODE":0,"TOWNNAME":"永康區","LI":"勝利里","LIN":"24鄰","STREET":"勝利街","SECT":" ","MAREA":" ","LANE":"１１６巷","ALLEY":"１２弄","HOUSE_NO":"１９號","E_COORD97":171417.92999999999,"N_COORD97":2544819.25,"ADDRESS":"勝利街１１６巷１２弄１９號","OBJECTID":168897},"geometry":{"x":171417.93000000063,"y":2544819.2500000037}},{"attributes":{"ID":168899,"DIS_CODE":0,"TOWNNAME":"永康區","LI":"崑山里","LIN":"26鄰","STREET":"大灣路","SECT":" ","MAREA":" ","LANE":"９４２巷","ALLEY":"７１弄","HOUSE_NO":"８６號","E_COORD97":173578.53,"N_COORD97":2544667.7999999998,"ADDRESS":"大灣路９４２巷７１弄８６號","OBJECTID":168898},"geometry":{"x":173578.52999999933,"y":2544667.8000000026}},{"attributes":{"ID":168900,"DIS_CODE":0,"TOWNNAME":"永康區","LI":"勝利里","LIN":"40鄰","STREET":"中華一路","SECT":" ","MAREA":" ","LANE":"１８２巷","ALLEY":"３弄","HOUSE_NO":"７號","E_COORD97":171497.16,"N_COORD97":2545048.4700000002,"ADDRESS":"中華一路１８２巷３弄７號","OBJECTID":168899},"geometry":{"x":171497.16000000015,"y":2545048.4700000007}},{"attributes":{"ID":168901,"DIS_CODE":0,"TOWNNAME":"永康區","LI":"勝利里","LIN":"40鄰","STREET":"中華一路","SECT":" ","MAREA":" ","LANE":"１８２巷","ALLEY":"１弄","HOUSE_NO":"５號","E_COORD97":171499.10999999999,"N_COORD97":2545006.4300000002,"ADDRESS":"中華一路１８２巷１弄５號","OBJECTID":168900},"geometry":{"x":171499.11000000034,"y":2545006.4299999997}},{"attributes":{"ID":168902,"DIS_CODE":0,"TOWNNAME":"六甲區","LI":"甲東里","LIN":"12鄰","STREET":"裕農街","SECT":" ","MAREA":" ","LANE":" ","ALLEY":" ","HOUSE_NO":"２９９號","E_COORD97":184058.75,"N_COORD97":2569997.8300000001,"ADDRESS":"裕農街２９９號","OBJECTID":168901},"geometry":{"x":184058.75000000093,"y":2569997.8300000001}},{"attributes":{"ID":168903,"DIS_CODE":0,"TOWNNAME":"南區","LI":"喜東里","LIN":"4鄰","STREET":"明興路","SECT":" ","MAREA":" ","LANE":" ","ALLEY":" ","HOUSE_NO":"３７６號","E_COORD97":166314.48000000001,"N_COORD97":2538905.4900000002,"ADDRESS":"明興路３７６號","OBJECTID":168902},"geometry":{"x":166314.48000000045,"y":2538905.4900000021}},{"attributes":{"ID":168904,"DIS_CODE":0,"TOWNNAME":"南區","LI":"喜東里","LIN":"4鄰","STREET":"明興路","SECT":" ","MAREA":" ","LANE":" ","ALLEY":" ","HOUSE_NO":"３７８號","E_COORD97":166314.04000000001,"N_COORD97":2538901.4399999999,"ADDRESS":"明興路３７８號","OBJECTID":168903},"geometry":{"x":166314.04000000004,"y":2538901.4400000032}},{"attributes":{"ID":168905,"DIS_CODE":0,"TOWNNAME":"南區","LI":"喜東里","LIN":"4鄰","STREET":"明興路","SECT":" ","MAREA":" ","LANE":" ","ALLEY":" ","HOUSE_NO":"３８０號","E_COORD97":166313.60000000001,"N_COORD97":2538897.6099999999,"ADDRESS":"明興路３８０號","OBJECTID":168904},"geometry":{"x":166313.60000000149,"y":2538897.6100000013}},{"attributes":{"ID":168906,"DIS_CODE":0,"TOWNNAME":"南區","LI":"喜東里","LIN":"4鄰","STREET":"明興路","SECT":" ","MAREA":" ","LANE":" ","ALLEY":" ","HOUSE_NO":"３８４號","E_COORD97":166308.45000000001,"N_COORD97":2538887.7599999998,"ADDRESS":"明興路３８４號","OBJECTID":168905},"geometry":{"x":166308.45000000205,"y":2538887.7599999998}},{"attributes":{"ID":168907,"DIS_CODE":0,"TOWNNAME":"永康區","LI":"勝利里","LIN":"24鄰","STREET":"勝利街","SECT":" ","MAREA":" ","LANE":"１１６巷","ALLEY":"１２弄","HOUSE_NO":"４０號","E_COORD97":171402.70000000001,"N_COORD97":2544774.4900000002,"ADDRESS":"勝利街１１６巷１２弄４０號","OBJECTID":168906},"geometry":{"x":171402.70000000112,"y":2544774.4900000021}},{"attributes":{"ID":168908,"DIS_CODE":0,"TOWNNAME":"永康區","LI":"勝利里","LIN":"39鄰","STREET":"勝華街","SECT":" ","MAREA":" ","LANE":"３７巷","ALLEY":"４２弄","HOUSE_NO":"１０號","E_COORD97":171423.73000000001,"N_COORD97":2545148.4199999999,"ADDRESS":"勝華街３７巷４２弄１０號","OBJECTID":168907},"geometry":{"x":171423.73000000138,"y":2545148.4200000018}},{"attributes":{"ID":168909,"DIS_CODE":0,"TOWNNAME":"永康區","LI":"勝利里","LIN":"20鄰","STREET":"勝學路","SECT":" ","MAREA":" ","LANE":"２６０巷","ALLEY":"３弄","HOUSE_NO":"１２號","E_COORD97":171256.48000000001,"N_COORD97":2545315.7599999998,"ADDRESS":"勝學路２６０巷３弄１２號","OBJECTID":168908},"geometry":{"x":171256.48000000045,"y":2545315.7599999998}},{"attributes":{"ID":168910,"DIS_CODE":0,"TOWNNAME":"六甲區","LI":"龜港里","LIN":"12鄰","STREET":" ","SECT":" ","MAREA":"龜子港","LANE":"１６１巷","ALLEY":"８５弄","HOUSE_NO":"１２號","E_COORD97":179294.01999999999,"N_COORD97":2572386.3500000001,"ADDRESS":"龜子港１６１巷８５弄１２號","OBJECTID":168909},"geometry":{"x":179294.01999999862,"y":2572386.3500000015}},{"attributes":{"ID":168911,"DIS_CODE":0,"TOWNNAME":"六甲區","LI":"龜港里","LIN":"12鄰","STREET":" ","SECT":" ","MAREA":"龜子港","LANE":"１６１巷","ALLEY":" ","HOUSE_NO":"８９號","E_COORD97":179322.73000000001,"N_COORD97":2572411.1099999999,"ADDRESS":"龜子港１６１巷８９號","OBJECTID":168910},"geometry":{"x":179322.73000000138,"y":2572411.1100000013}},{"attributes":{"ID":168912,"DIS_CODE":0,"TOWNNAME":"六甲區","LI":"龜港里","LIN":"12鄰","STREET":" ","SECT":" ","MAREA":"龜子港","LANE":"１６１巷","ALLEY":" ","HOUSE_NO":"９５號","E_COORD97":179327.60000000001,"N_COORD97":2572434.5,"ADDRESS":"龜子港１６１巷９５號","OBJECTID":168911},"geometry":{"x":179327.60000000149,"y":2572434.5}},{"attributes":{"ID":168913,"DIS_CODE":0,"TOWNNAME":"六甲區","LI":"龜港里","LIN":"12鄰","STREET":" ","SECT":" ","MAREA":"龜子港","LANE":"１６１巷","ALLEY":" ","HOUSE_NO":"９７號","E_COORD97":179325.48000000001,"N_COORD97":2572438.8500000001,"ADDRESS":"龜子港１６１巷９７號","OBJECTID":168912},"geometry":{"x":179325.48000000045,"y":2572438.8499999996}},{"attributes":{"ID":168914,"DIS_CODE":0,"TOWNNAME":"官田區","LI":"南\u25A0里","LIN":"13鄰","STREET":" ","SECT":" ","MAREA":"三結義","LANE":" ","ALLEY":" ","HOUSE_NO":"１４號","E_COORD97":180048.37,"N_COORD97":2567940.5,"ADDRESS":"三結義１４號","OBJECTID":168913},"geometry":{"x":180048.37000000197,"y":2567940.5000000019}},{"attributes":{"ID":168915,"DIS_CODE":0,"TOWNNAME":"官田區","LI":"南\u25A0里","LIN":"13鄰","STREET":" ","SECT":" ","MAREA":"三結義","LANE":" ","ALLEY":" ","HOUSE_NO":"１５號之１０","E_COORD97":180090.53,"N_COORD97":2567988.52,"ADDRESS":"三結義１５號之１０","OBJECTID":168914},"geometry":{"x":180090.53000000119,"y":2567988.5200000014}},{"attributes":{"ID":168916,"DIS_CODE":0,"TOWNNAME":"官田區","LI":"南\u25A0里","LIN":"13鄰","STREET":" ","SECT":" ","MAREA":"三結義","LANE":" ","ALLEY":" ","HOUSE_NO":"１５號之１１","E_COORD97":180090.01999999999,"N_COORD97":2567993.4100000001,"ADDRESS":"三結義１５號之１１","OBJECTID":168915},"geometry":{"x":180090.02000000048,"y":2567993.4100000001}},{"attributes":{"ID":168917,"DIS_CODE":0,"TOWNNAME":"官田區","LI":"南\u25A0里","LIN":"13鄰","STREET":" ","SECT":" ","MAREA":"三結義","LANE":" ","ALLEY":" ","HOUSE_NO":"１５號之１８","E_COORD97":180108.01999999999,"N_COORD97":2568012,"ADDRESS":"三結義１５號之１８","OBJECTID":168916},"geometry":{"x":180108.02000000048,"y":2568012.0000000019}},{"attributes":{"ID":168918,"DIS_CODE":0,"TOWNNAME":"官田區","LI":"南\u25A0里","LIN":"13鄰","STREET":" ","SECT":" ","MAREA":"三結義","LANE":" ","ALLEY":" ","HOUSE_NO":"１５號之１９","E_COORD97":180108.48999999999,"N_COORD97":2568008.1699999999,"ADDRESS":"三結義１５號之１９","OBJECTID":168917},"geometry":{"x":180108.49000000022,"y":2568008.1700000018}},{"attributes":{"ID":168919,"DIS_CODE":0,"TOWNNAME":"官田區","LI":"南\u25A0里","LIN":"13鄰","STREET":" ","SECT":" ","MAREA":"三結義","LANE":" ","ALLEY":" ","HOUSE_NO":"１５號之２０","E_COORD97":180109.01999999999,"N_COORD97":2568004.1400000001,"ADDRESS":"三結義１５號之２０","OBJECTID":168918},"geometry":{"x":180109.01999999955,"y":2568004.1400000043}},{"attributes":{"ID":168920,"DIS_CODE":0,"TOWNNAME":"官田區","LI":"南\u25A0里","LIN":"13鄰","STREET":" ","SECT":" ","MAREA":"三結義","LANE":" ","ALLEY":" ","HOUSE_NO":"１５號之２１","E_COORD97":180109.31,"N_COORD97":2568000.1400000001,"ADDRESS":"三結義１５號之２１","OBJECTID":168919},"geometry":{"x":180109.31000000145,"y":2568000.1400000006}},{"attributes":{"ID":168921,"DIS_CODE":0,"TOWNNAME":"官田區","LI":"南\u25A0里","LIN":"13鄰","STREET":" ","SECT":" ","MAREA":"三結義","LANE":" ","ALLEY":" ","HOUSE_NO":"１５號之２２","E_COORD97":180109.60000000001,"N_COORD97":2567996.3500000001,"ADDRESS":"三結義１５號之２２","OBJECTID":168920},"geometry":{"x":180109.60000000056,"y":2567996.3500000015}},{"attributes":{"ID":168922,"DIS_CODE":0,"TOWNNAME":"官田區","LI":"南\u25A0里","LIN":"13鄰","STREET":" ","SECT":" ","MAREA":"三結義","LANE":" ","ALLEY":" ","HOUSE_NO":"１５號之２３","E_COORD97":180109.89000000001,"N_COORD97":2567992.1299999999,"ADDRESS":"三結義１５號之２３","OBJECTID":168921},"geometry":{"x":180109.88999999966,"y":2567992.1300000027}},{"attributes":{"ID":168923,"DIS_CODE":0,"TOWNNAME":"官田區","LI":"南\u25A0里","LIN":"13鄰","STREET":" ","SECT":" ","MAREA":"三結義","LANE":" ","ALLEY":" ","HOUSE_NO":"１５號之２４","E_COORD97":180110.42000000001,"N_COORD97":2567988.1400000001,"ADDRESS":"三結義１５號之２４","OBJECTID":168922},"geometry":{"x":180110.41999999993,"y":2567988.1400000025}},{"attributes":{"ID":168924,"DIS_CODE":0,"TOWNNAME":"官田區","LI":"南\u25A0里","LIN":"13鄰","STREET":" ","SECT":" ","MAREA":"三結義","LANE":" ","ALLEY":" ","HOUSE_NO":"１５號之２５","E_COORD97":180110.70000000001,"N_COORD97":2567983.6699999999,"ADDRESS":"三結義１５號之２５","OBJECTID":168923},"geometry":{"x":180110.70000000205,"y":2567983.6700000018}},{"attributes":{"ID":168925,"DIS_CODE":0,"TOWNNAME":"官田區","LI":"南\u25A0里","LIN":"13鄰","STREET":" ","SECT":" ","MAREA":"三結義","LANE":" ","ALLEY":" ","HOUSE_NO":"１５號之２６","E_COORD97":180111.04000000001,"N_COORD97":2567979.0699999998,"ADDRESS":"三結義１５號之２６","OBJECTID":168924},"geometry":{"x":180111.04000000004,"y":2567979.0700000003}},{"attributes":{"ID":168926,"DIS_CODE":0,"TOWNNAME":"官田區","LI":"南\u25A0里","LIN":"13鄰","STREET":" ","SECT":" ","MAREA":"三結義","LANE":" ","ALLEY":" ","HOUSE_NO":"１５號之２７","E_COORD97":180112.88,"N_COORD97":2567974.0099999998,"ADDRESS":"三結義１５號之２７","OBJECTID":168925},"geometry":{"x":180112.88000000082,"y":2567974.0100000016}},{"attributes":{"ID":168927,"DIS_CODE":0,"TOWNNAME":"官田區","LI":"南\u25A0里","LIN":"13鄰","STREET":" ","SECT":" ","MAREA":"三結義","LANE":" ","ALLEY":" ","HOUSE_NO":"１５號之２８","E_COORD97":180112.98000000001,"N_COORD97":2567969.25,"ADDRESS":"三結義１５號之２８","OBJECTID":168926},"geometry":{"x":180112.98000000138,"y":2567969.2500000019}},{"attributes":{"ID":168928,"DIS_CODE":0,"TOWNNAME":"六甲區","LI":"龜港里","LIN":"12鄰","STREET":" ","SECT":" ","MAREA":"龜子港","LANE":"３０３巷","ALLEY":" ","HOUSE_NO":"１３１號","E_COORD97":179208.94,"N_COORD97":2572567.9300000002,"ADDRESS":"龜子港３０３巷１３１號","OBJECTID":168927},"geometry":{"x":179208.94000000041,"y":2572567.9300000034}},{"attributes":{"ID":168929,"DIS_CODE":0,"TOWNNAME":"六甲區","LI":"龜港里","LIN":"12鄰","STREET":" ","SECT":" ","MAREA":"龜子港","LANE":"３０３巷","ALLEY":" ","HOUSE_NO":"１６１號","E_COORD97":179155.82999999999,"N_COORD97":2572549.5600000001,"ADDRESS":"龜子港３０３巷１６１號","OBJECTID":168928},"geometry":{"x":179155.83000000101,"y":2572549.5600000005}},{"attributes":{"ID":168930,"DIS_CODE":0,"TOWNNAME":"六甲區","LI":"龜港里","LIN":"12鄰","STREET":" ","SECT":" ","MAREA":"龜子港","LANE":"３０３巷","ALLEY":" ","HOUSE_NO":"１６６號","E_COORD97":179170.17999999999,"N_COORD97":2572619.8900000001,"ADDRESS":"龜子港３０３巷１６６號","OBJECTID":168929},"geometry":{"x":179170.18000000063,"y":2572619.8899999987}},{"attributes":{"ID":168931,"DIS_CODE":0,"TOWNNAME":"六甲區","LI":"龜港里","LIN":"12鄰","STREET":" ","SECT":" ","MAREA":"龜子港","LANE":"３０３巷","ALLEY":" ","HOUSE_NO":"１７０之１號","E_COORD97":179171.98999999999,"N_COORD97":2572740.1200000001,"ADDRESS":"龜子港３０３巷１７０之１號","OBJECTID":168930},"geometry":{"x":179171.99000000115,"y":2572740.120000001}},{"attributes":{"ID":168932,"DIS_CODE":0,"TOWNNAME":"六甲區","LI":"龜港里","LIN":"12鄰","STREET":" ","SECT":" ","MAREA":"龜子港","LANE":"３０３巷","ALLEY":" ","HOUSE_NO":"１７０號","E_COORD97":179143.17999999999,"N_COORD97":2572667.02,"ADDRESS":"龜子港３０３巷１７０號","OBJECTID":168931},"geometry":{"x":179143.18000000063,"y":2572667.0200000014}},{"attributes":{"ID":168933,"DIS_CODE":0,"TOWNNAME":"永康區","LI":"復華里","LIN":"25鄰","STREET":"國華街","SECT":" ","MAREA":" ","LANE":"１３２巷","ALLEY":"７弄","HOUSE_NO":"１６號","E_COORD97":172825.97,"N_COORD97":2546403.6000000001,"ADDRESS":"國華街１３２巷７弄１６號","OBJECTID":168932},"geometry":{"x":172825.9700000016,"y":2546403.6000000015}},{"attributes":{"ID":168934,"DIS_CODE":0,"TOWNNAME":"官田區","LI":"南\u25A0里","LIN":"13鄰","STREET":" ","SECT":" ","MAREA":"三結義","LANE":" ","ALLEY":" ","HOUSE_NO":"１５號之２９","E_COORD97":180113.37,"N_COORD97":2567964.5600000001,"ADDRESS":"三結義１５號之２９","OBJECTID":168933},"geometry":{"x":180113.37000000104,"y":2567964.5600000024}},{"attributes":{"ID":168935,"DIS_CODE":0,"TOWNNAME":"官田區","LI":"南\u25A0里","LIN":"13鄰","STREET":" ","SECT":" ","MAREA":"三結義","LANE":" ","ALLEY":" ","HOUSE_NO":"１５號之３０","E_COORD97":180113.57000000001,"N_COORD97":2567959.6000000001,"ADDRESS":"三結義１５號之３０","OBJECTID":168934},"geometry":{"x":180113.57000000123,"y":2567959.6000000015}},{"attributes":{"ID":168936,"DIS_CODE":0,"TOWNNAME":"官田區","LI":"南\u25A0里","LIN":"13鄰","STREET":" ","SECT":" ","MAREA":"三結義","LANE":" ","ALLEY":" ","HOUSE_NO":"１５號之３１","E_COORD97":180114.10000000001,"N_COORD97":2567954.7799999998,"ADDRESS":"三結義１５號之３１","OBJECTID":168935},"geometry":{"x":180114.10000000149,"y":2567954.7800000012}},{"attributes":{"ID":168937,"DIS_CODE":0,"TOWNNAME":"永康區","LI":"神洲里","LIN":"20鄰","STREET":"忠孝路","SECT":" ","MAREA":" ","LANE":"７６巷","ALLEY":"６３弄","HOUSE_NO":"２８號","E_COORD97":172167.67000000001,"N_COORD97":2545052.23,"ADDRESS":"忠孝路７６巷６３弄２８號","OBJECTID":168936},"geometry":{"x":172167.67000000086,"y":2545052.2300000004}},{"attributes":{"ID":168938,"DIS_CODE":0,"TOWNNAME":"永康區","LI":"北灣里","LIN":"24鄰","STREET":"大灣路","SECT":" ","MAREA":" ","LANE":"３７巷","ALLEY":"７弄","HOUSE_NO":"１０號","E_COORD97":175393.10000000001,"N_COORD97":2545892.75,"ADDRESS":"大灣路３７巷７弄１０號","OBJECTID":168937},"geometry":{"x":175393.10000000149,"y":2545892.75}},{"attributes":{"ID":168939,"DIS_CODE":0,"TOWNNAME":"六甲區","LI":"龜港里","LIN":"12鄰","STREET":" ","SECT":" ","MAREA":"龜子港","LANE":"２８１巷","ALLEY":"１２６弄","HOUSE_NO":"５５號","E_COORD97":179210.25,"N_COORD97":2572443.3900000001,"ADDRESS":"龜子港２８１巷１２６弄５５號","OBJECTID":168938},"geometry":{"x":179210.25000000093,"y":2572443.3900000006}},{"attributes":{"ID":168940,"DIS_CODE":0,"TOWNNAME":"官田區","LI":"南\u25A0里","LIN":"13鄰","STREET":" ","SECT":" ","MAREA":"三結義","LANE":" ","ALLEY":" ","HOUSE_NO":"１５號之６","E_COORD97":180079.35999999999,"N_COORD97":2567986.3100000001,"ADDRESS":"三結義１５號之６","OBJECTID":168939},"geometry":{"x":180079.3600000022,"y":2567986.3100000024}},{"attributes":{"ID":168941,"DIS_CODE":0,"TOWNNAME":"六甲區","LI":"龜港里","LIN":"12鄰","STREET":" ","SECT":" ","MAREA":"龜子港","LANE":"２８１巷","ALLEY":"１２６弄","HOUSE_NO":"６１號","E_COORD97":179187.69,"N_COORD97":2572492.02,"ADDRESS":"龜子港２８１巷１２６弄６１號","OBJECTID":168940},"geometry":{"x":179187.69000000134,"y":2572492.0199999996}},{"attributes":{"ID":168942,"DIS_CODE":0,"TOWNNAME":"六甲區","LI":"龜港里","LIN":"12鄰","STREET":" ","SECT":" ","MAREA":"龜子港","LANE":"３０３巷","ALLEY":"１２９弄","HOUSE_NO":"７號","E_COORD97":179225.26999999999,"N_COORD97":2572501.7999999998,"ADDRESS":"龜子港３０３巷１２９弄７號","OBJECTID":168941},"geometry":{"x":179225.27000000048,"y":2572501.8000000007}},{"attributes":{"ID":168943,"DIS_CODE":0,"TOWNNAME":"六甲區","LI":"龜港里","LIN":"12鄰","STREET":" ","SECT":" ","MAREA":"龜子港","LANE":"３０３巷","ALLEY":"１４２弄","HOUSE_NO":"１０號","E_COORD97":179192.75,"N_COORD97":2572694.0499999998,"ADDRESS":"龜子港３０３巷１４２弄１０號","OBJECTID":168942},"geometry":{"x":179192.75,"y":2572694.0500000026}},{"attributes":{"ID":168944,"DIS_CODE":0,"TOWNNAME":"六甲區","LI":"龜港里","LIN":"12鄰","STREET":" ","SECT":" ","MAREA":"龜子港","LANE":"３０３巷","ALLEY":"２４５弄","HOUSE_NO":"９號","E_COORD97":178650.29000000001,"N_COORD97":2572570.7999999998,"ADDRESS":"龜子港３０３巷２４５弄９號","OBJECTID":168943},"geometry":{"x":178650.2900000019,"y":2572570.8000000026}},{"attributes":{"ID":168945,"DIS_CODE":0,"TOWNNAME":"官田區","LI":"南\u25A0里","LIN":"13鄰","STREET":" ","SECT":" ","MAREA":"三結義","LANE":" ","ALLEY":" ","HOUSE_NO":"１５號之３２","E_COORD97":180114.23999999999,"N_COORD97":2567949.8599999999,"ADDRESS":"三結義１５號之３２","OBJECTID":168944},"geometry":{"x":180114.24000000115,"y":2567949.8599999994}},{"attributes":{"ID":168946,"DIS_CODE":0,"TOWNNAME":"官田區","LI":"南\u25A0里","LIN":"13鄰","STREET":" ","SECT":" ","MAREA":"三結義","LANE":" ","ALLEY":" ","HOUSE_NO":"１５號之３３","E_COORD97":180114.62,"N_COORD97":2567944.6899999999,"ADDRESS":"三結義１５號之３３","OBJECTID":168945},"geometry":{"x":180114.62000000197,"y":2567944.6899999976}},{"attributes":{"ID":168947,"DIS_CODE":0,"TOWNNAME":"官田區","LI":"南\u25A0里","LIN":"13鄰","STREET":" ","SECT":" ","MAREA":"三結義","LANE":" ","ALLEY":" ","HOUSE_NO":"１５號之３４","E_COORD97":180094.29000000001,"N_COORD97":2567943.0600000001,"ADDRESS":"三結義１５號之３４","OBJECTID":168946},"geometry":{"x":180094.29000000004,"y":2567943.0600000005}},{"attributes":{"ID":168948,"DIS_CODE":0,"TOWNNAME":"官田區","LI":"南\u25A0里","LIN":"13鄰","STREET":" ","SECT":" ","MAREA":"三結義","LANE":" ","ALLEY":" ","HOUSE_NO":"１５號之３５","E_COORD97":180093.73999999999,"N_COORD97":2567947.79,"ADDRESS":"三結義１５號之３５","OBJECTID":168947},"geometry":{"x":180093.74000000115,"y":2567947.790000001}},{"attributes":{"ID":168949,"DIS_CODE":0,"TOWNNAME":"官田區","LI":"南\u25A0里","LIN":"13鄰","STREET":" ","SECT":" ","MAREA":"三結義","LANE":" ","ALLEY":" ","HOUSE_NO":"１５號之３６","E_COORD97":180093.12,"N_COORD97":2567952.6200000001,"ADDRESS":"三結義１５號之３６","OBJECTID":168948},"geometry":{"x":180093.12000000104,"y":2567952.620000001}},{"attributes":{"ID":168950,"DIS_CODE":0,"TOWNNAME":"官田區","LI":"南\u25A0里","LIN":"13鄰","STREET":" ","SECT":" ","MAREA":"三結義","LANE":" ","ALLEY":" ","HOUSE_NO":"１５號之３７","E_COORD97":180092.47,"N_COORD97":2567957.3399999999,"ADDRESS":"三結義１５號之３７","OBJECTID":168949},"geometry":{"x":180092.46999999974,"y":2567957.3399999999}},{"attributes":{"ID":168951,"DIS_CODE":0,"TOWNNAME":"官田區","LI":"南\u25A0里","LIN":"13鄰","STREET":" ","SECT":" ","MAREA":"三結義","LANE":" ","ALLEY":" ","HOUSE_NO":"１５號之３８","E_COORD97":180092.41,"N_COORD97":2567962.77,"ADDRESS":"三結義１５號之３８","OBJECTID":168950},"geometry":{"x":180092.41000000108,"y":2567962.7700000014}},{"attributes":{"ID":168952,"DIS_CODE":0,"TOWNNAME":"官田區","LI":"南\u25A0里","LIN":"13鄰","STREET":" ","SECT":" ","MAREA":"三結義","LANE":" ","ALLEY":" ","HOUSE_NO":"１５號之３９","E_COORD97":180091.67999999999,"N_COORD97":2567969.6200000001,"ADDRESS":"三結義１５號之３９","OBJECTID":168951},"geometry":{"x":180091.68000000156,"y":2567969.620000001}},{"attributes":{"ID":168953,"DIS_CODE":0,"TOWNNAME":"官田區","LI":"南\u25A0里","LIN":"13鄰","STREET":" ","SECT":" ","MAREA":"三結義","LANE":" ","ALLEY":" ","HOUSE_NO":"１５號之４５","E_COORD97":180050.20000000001,"N_COORD97":2567996.8199999998,"ADDRESS":"三結義１５號之４５","OBJECTID":168952},"geometry":{"x":180050.20000000112,"y":2567996.8200000022}},{"attributes":{"ID":168954,"DIS_CODE":0,"TOWNNAME":"官田區","LI":"南\u25A0里","LIN":"13鄰","STREET":" ","SECT":" ","MAREA":"三結義","LANE":" ","ALLEY":" ","HOUSE_NO":"１５號之４６","E_COORD97":180056.29000000001,"N_COORD97":2567998.25,"ADDRESS":"三結義１５號之４６","OBJECTID":168953},"geometry":{"x":180056.29000000097,"y":2567998.25}},{"attributes":{"ID":168955,"DIS_CODE":0,"TOWNNAME":"官田區","LI":"南\u25A0里","LIN":"13鄰","STREET":" ","SECT":" ","MAREA":"三結義","LANE":" ","ALLEY":" ","HOUSE_NO":"１５號之４７","E_COORD97":180063.13,"N_COORD97":2567999.7999999998,"ADDRESS":"三結義１５號之４７","OBJECTID":168954},"geometry":{"x":180063.12999999989,"y":2567999.8000000045}},{"attributes":{"ID":168956,"DIS_CODE":0,"TOWNNAME":"官田區","LI":"南\u25A0里","LIN":"13鄰","STREET":" ","SECT":" ","MAREA":"三結義","LANE":" ","ALLEY":" ","HOUSE_NO":"１５號之４８","E_COORD97":180068.85999999999,"N_COORD97":2568001.8700000001,"ADDRESS":"三結義１５號之４８","OBJECTID":168955},"geometry":{"x":180068.86000000034,"y":2568001.870000001}},{"attributes":{"ID":168957,"DIS_CODE":0,"TOWNNAME":"官田區","LI":"南\u25A0里","LIN":"13鄰","STREET":" ","SECT":" ","MAREA":"三結義","LANE":" ","ALLEY":" ","HOUSE_NO":"１５號之４９","E_COORD97":180075.29999999999,"N_COORD97":2568003.1699999999,"ADDRESS":"三結義１５號之４９","OBJECTID":168956},"geometry":{"x":180075.29999999981,"y":2568003.1700000037}},{"attributes":{"ID":168958,"DIS_CODE":0,"TOWNNAME":"官田區","LI":"南\u25A0里","LIN":"13鄰","STREET":" ","SECT":" ","MAREA":"三結義","LANE":" ","ALLEY":" ","HOUSE_NO":"１５號之５０","E_COORD97":180081.41,"N_COORD97":2568004.8100000001,"ADDRESS":"三結義１５號之５０","OBJECTID":168957},"geometry":{"x":180081.41000000015,"y":2568004.8100000005}},{"attributes":{"ID":168959,"DIS_CODE":0,"TOWNNAME":"官田區","LI":"南\u25A0里","LIN":"13鄰","STREET":" ","SECT":" ","MAREA":"三結義","LANE":" ","ALLEY":" ","HOUSE_NO":"１５號之５１","E_COORD97":180087.16,"N_COORD97":2568006.7200000002,"ADDRESS":"三結義１５號之５１","OBJECTID":168958},"geometry":{"x":180087.16000000201,"y":2568006.7200000007}},{"attributes":{"ID":168960,"DIS_CODE":0,"TOWNNAME":"官田區","LI":"南\u25A0里","LIN":"13鄰","STREET":" ","SECT":" ","MAREA":"三結義","LANE":" ","ALLEY":" ","HOUSE_NO":"１５號之５６","E_COORD97":180072.44,"N_COORD97":2568017.7400000002,"ADDRESS":"三結義１５號之５６","OBJECTID":168959},"geometry":{"x":180072.44000000134,"y":2568017.7400000021}},{"attributes":{"ID":168961,"DIS_CODE":0,"TOWNNAME":"關廟區","LI":"五甲里","LIN":"12鄰","STREET":"東興一街","SECT":" ","MAREA":" ","LANE":" ","ALLEY":" ","HOUSE_NO":"１７號","E_COORD97":181237.97,"N_COORD97":2539587.25,"ADDRESS":"東興一街１７號","OBJECTID":168960},"geometry":{"x":181237.97000000067,"y":2539587.25}},{"attributes":{"ID":168962,"DIS_CODE":0,"TOWNNAME":"永康區","LI":"北灣里","LIN":"24鄰","STREET":"大灣路","SECT":" ","MAREA":" ","LANE":"３７巷","ALLEY":"７弄","HOUSE_NO":"１１號","E_COORD97":175381.72,"N_COORD97":2545895.77,"ADDRESS":"大灣路３７巷７弄１１號","OBJECTID":168961},"geometry":{"x":175381.71999999974,"y":2545895.7699999996}},{"attributes":{"ID":168963,"DIS_CODE":0,"TOWNNAME":"永康區","LI":"北灣里","LIN":"24鄰","STREET":"大灣路","SECT":" ","MAREA":" ","LANE":"３７巷","ALLEY":"７弄","HOUSE_NO":"１２號","E_COORD97":175394.94,"N_COORD97":2545895.77,"ADDRESS":"大灣路３７巷７弄１２號","OBJECTID":168962},"geometry":{"x":175394.94000000227,"y":2545895.7699999996}},{"attributes":{"ID":168964,"DIS_CODE":0,"TOWNNAME":"關廟區","LI":"深坑里","LIN":"12鄰","STREET":"深坑二街","SECT":" ","MAREA":" ","LANE":" ","ALLEY":" ","HOUSE_NO":"６２號","E_COORD97":181562.37,"N_COORD97":2537559.2999999998,"ADDRESS":"深坑二街６２號","OBJECTID":168963},"geometry":{"x":181562.37000000104,"y":2537559.3000000007}},{"attributes":{"ID":168965,"DIS_CODE":0,"TOWNNAME":"永康區","LI":"北灣里","LIN":"24鄰","STREET":"大灣路","SECT":" ","MAREA":" ","LANE":"３７巷","ALLEY":"７弄","HOUSE_NO":"１３號","E_COORD97":175384.44,"N_COORD97":2545899.79,"ADDRESS":"大灣路３７巷７弄１３號","OBJECTID":168964},"geometry":{"x":175384.44000000041,"y":2545899.7900000028}},{"attributes":{"ID":168966,"DIS_CODE":0,"TOWNNAME":"關廟區","LI":"北勢里","LIN":"12鄰","STREET":"仁愛路","SECT":" ","MAREA":" ","LANE":" ","ALLEY":" ","HOUSE_NO":"２５２號","E_COORD97":181457.19,"N_COORD97":2540554.2799999998,"ADDRESS":"仁愛路２５２號","OBJECTID":168965},"geometry":{"x":181457.19000000134,"y":2540554.2800000012}},{"attributes":{"ID":168967,"DIS_CODE":0,"TOWNNAME":"官田區","LI":"南\u25A0里","LIN":"13鄰","STREET":" ","SECT":" ","MAREA":"三結義","LANE":" ","ALLEY":" ","HOUSE_NO":"１５號之５７","E_COORD97":180065.88,"N_COORD97":2568016.29,"ADDRESS":"三結義１５號之５７","OBJECTID":168966},"geometry":{"x":180065.88000000082,"y":2568016.290000001}},{"attributes":{"ID":168968,"DIS_CODE":0,"TOWNNAME":"官田區","LI":"南\u25A0里","LIN":"13鄰","STREET":" ","SECT":" ","MAREA":"三結義","LANE":" ","ALLEY":" ","HOUSE_NO":"１５號之５８","E_COORD97":180058.82999999999,"N_COORD97":2568014.5699999998,"ADDRESS":"三結義１５號之５８","OBJECTID":168967},"geometry":{"x":180058.83000000194,"y":2568014.570000004}},{"attributes":{"ID":168969,"DIS_CODE":0,"TOWNNAME":"官田區","LI":"南\u25A0里","LIN":"13鄰","STREET":" ","SECT":" ","MAREA":"三結義","LANE":" ","ALLEY":" ","HOUSE_NO":"１５號之５９","E_COORD97":180052.78,"N_COORD97":2568013.0600000001,"ADDRESS":"三結義１５號之５９","OBJECTID":168968},"geometry":{"x":180052.78000000119,"y":2568013.0600000005}},{"attributes":{"ID":168970,"DIS_CODE":0,"TOWNNAME":"永康區","LI":"北灣里","LIN":"24鄰","STREET":"大灣路","SECT":" ","MAREA":" ","LANE":"３７巷","ALLEY":"７弄","HOUSE_NO":"１５號","E_COORD97":175387.91,"N_COORD97":2545904.21,"ADDRESS":"大灣路３７巷７弄１５號","OBJECTID":168969},"geometry":{"x":175387.91000000015,"y":2545904.2100000009}},{"attributes":{"ID":168971,"DIS_CODE":0,"TOWNNAME":"永康區","LI":"北灣里","LIN":"24鄰","STREET":"大灣路","SECT":" ","MAREA":" ","LANE":"３７巷","ALLEY":"７弄","HOUSE_NO":"１６號","E_COORD97":175397.95999999999,"N_COORD97":2545900.25,"ADDRESS":"大灣路３７巷７弄１６號","OBJECTID":168970},"geometry":{"x":175397.96000000089,"y":2545900.25}},{"attributes":{"ID":168972,"DIS_CODE":0,"TOWNNAME":"官田區","LI":"南\u25A0里","LIN":"13鄰","STREET":" ","SECT":" ","MAREA":"三結義","LANE":" ","ALLEY":" ","HOUSE_NO":"１５號之６０","E_COORD97":180046.51000000001,"N_COORD97":2568011.3999999999,"ADDRESS":"三結義１５號之６０","OBJECTID":168971},"geometry":{"x":180046.50999999978,"y":2568011.4000000004}},{"attributes":{"ID":168973,"DIS_CODE":0,"TOWNNAME":"關廟區","LI":"北勢里","LIN":"12鄰","STREET":"成功路","SECT":" ","MAREA":" ","LANE":" ","ALLEY":" ","HOUSE_NO":"２８６號","E_COORD97":181435.67000000001,"N_COORD97":2540494.27,"ADDRESS":"成功路２８６號","OBJECTID":168972},"geometry":{"x":181435.66999999993,"y":2540494.2699999996}},{"attributes":{"ID":168974,"DIS_CODE":0,"TOWNNAME":"關廟區","LI":"北勢里","LIN":"12鄰","STREET":"仁愛路","SECT":" ","MAREA":" ","LANE":" ","ALLEY":" ","HOUSE_NO":"２９８號","E_COORD97":181492.48999999999,"N_COORD97":2540645.2799999998,"ADDRESS":"仁愛路２９８號","OBJECTID":168973},"geometry":{"x":181492.49000000115,"y":2540645.2800000012}},{"attributes":{"ID":168975,"DIS_CODE":0,"TOWNNAME":"官田區","LI":"南\u25A0里","LIN":"13鄰","STREET":" ","SECT":" ","MAREA":"三結義","LANE":" ","ALLEY":" ","HOUSE_NO":"１５號之７","E_COORD97":180083.45000000001,"N_COORD97":2567986.8300000001,"ADDRESS":"三結義１５號之７","OBJECTID":168974},"geometry":{"x":180083.44999999925,"y":2567986.8300000019}},{"attributes":{"ID":168976,"DIS_CODE":0,"TOWNNAME":"官田區","LI":"南\u25A0里","LIN":"13鄰","STREET":" ","SECT":" ","MAREA":"三結義","LANE":" ","ALLEY":" ","HOUSE_NO":"１５號之８","E_COORD97":180091.63,"N_COORD97":2567979.4399999999,"ADDRESS":"三結義１５號之８","OBJECTID":168975},"geometry":{"x":180091.62999999989,"y":2567979.4399999995}},{"attributes":{"ID":168977,"DIS_CODE":0,"TOWNNAME":"官田區","LI":"南\u25A0里","LIN":"13鄰","STREET":" ","SECT":" ","MAREA":"三結義","LANE":" ","ALLEY":" ","HOUSE_NO":"１５號之９","E_COORD97":180090.64999999999,"N_COORD97":2567983.8100000001,"ADDRESS":"三結義１５號之９","OBJECTID":168976},"geometry":{"x":180090.65000000037,"y":2567983.8100000024}},{"attributes":{"ID":168978,"DIS_CODE":0,"TOWNNAME":"永康區","LI":"北灣里","LIN":"24鄰","STREET":"大灣路","SECT":" ","MAREA":" ","LANE":"３７巷","ALLEY":"７弄","HOUSE_NO":"１７號","E_COORD97":175390.32000000001,"N_COORD97":2545908.0600000001,"ADDRESS":"大灣路３７巷７弄１７號","OBJECTID":168977},"geometry":{"x":175390.3200000003,"y":2545908.0600000005}},{"attributes":{"ID":168979,"DIS_CODE":0,"TOWNNAME":"官田區","LI":"南\u25A0里","LIN":"13鄰","STREET":" ","SECT":" ","MAREA":"三結義","LANE":" ","ALLEY":" ","HOUSE_NO":"１６號之１０","E_COORD97":180081.23999999999,"N_COORD97":2568066.2000000002,"ADDRESS":"三結義１６號之１０","OBJECTID":168978},"geometry":{"x":180081.24000000022,"y":2568066.1999999993}},{"attributes":{"ID":168980,"DIS_CODE":0,"TOWNNAME":"官田區","LI":"南\u25A0里","LIN":"13鄰","STREET":" ","SECT":" ","MAREA":"三結義","LANE":" ","ALLEY":" ","HOUSE_NO":"１６號之１１","E_COORD97":180077.23000000001,"N_COORD97":2568066.52,"ADDRESS":"三結義１６號之１１","OBJECTID":168979},"geometry":{"x":180077.23000000138,"y":2568066.5199999996}},{"attributes":{"ID":168981,"DIS_CODE":0,"TOWNNAME":"永康區","LI":"北灣里","LIN":"24鄰","STREET":"大灣路","SECT":" ","MAREA":" ","LANE":"３７巷","ALLEY":"７弄","HOUSE_NO":"１８號","E_COORD97":175399.67999999999,"N_COORD97":2545904.5299999998,"ADDRESS":"大灣路３７巷７弄１８號","OBJECTID":168980},"geometry":{"x":175399.68000000063,"y":2545904.5299999993}},{"attributes":{"ID":168982,"DIS_CODE":0,"TOWNNAME":"永康區","LI":"北灣里","LIN":"24鄰","STREET":"大灣路","SECT":" ","MAREA":" ","LANE":"３７巷","ALLEY":"７弄","HOUSE_NO":"１號","E_COORD97":175367.97,"N_COORD97":2545875.8700000001,"ADDRESS":"大灣路３７巷７弄１號","OBJECTID":168981},"geometry":{"x":175367.96999999974,"y":2545875.870000001}},{"attributes":{"ID":168983,"DIS_CODE":0,"TOWNNAME":"官田區","LI":"南\u25A0里","LIN":"13鄰","STREET":" ","SECT":" ","MAREA":"三結義","LANE":" ","ALLEY":" ","HOUSE_NO":"１６號之１３","E_COORD97":180072.89000000001,"N_COORD97":2568066.6899999999,"ADDRESS":"三結義１６號之１３","OBJECTID":168982},"geometry":{"x":180072.88999999966,"y":2568066.6899999995}},{"attributes":{"ID":168984,"DIS_CODE":0,"TOWNNAME":"永康區","LI":"北灣里","LIN":"34鄰","STREET":"大灣路","SECT":" ","MAREA":" ","LANE":"４０巷","ALLEY":"２６弄","HOUSE_NO":"１０號","E_COORD97":175224.32000000001,"N_COORD97":2546006.3799999999,"ADDRESS":"大灣路４０巷２６弄１０號","OBJECTID":168983},"geometry":{"x":175224.31999999937,"y":2546006.379999999}},{"attributes":{"ID":168985,"DIS_CODE":0,"TOWNNAME":"官田區","LI":"南\u25A0里","LIN":"13鄰","STREET":" ","SECT":" ","MAREA":"三結義","LANE":" ","ALLEY":" ","HOUSE_NO":"１６號之１４","E_COORD97":180068.54999999999,"N_COORD97":2568067.1299999999,"ADDRESS":"三結義１６號之１４","OBJECTID":168984},"geometry":{"x":180068.54999999981,"y":2568067.1300000008}},{"attributes":{"ID":168986,"DIS_CODE":0,"TOWNNAME":"關廟區","LI":"五甲里","LIN":"12鄰","STREET":"東興一街","SECT":" ","MAREA":" ","LANE":" ","ALLEY":" ","HOUSE_NO":"３號","E_COORD97":181226.32000000001,"N_COORD97":2539613.25,"ADDRESS":"東興一街３號","OBJECTID":168985},"geometry":{"x":181226.3200000003,"y":2539613.2500000019}},{"attributes":{"ID":168987,"DIS_CODE":0,"TOWNNAME":"官田區","LI":"南\u25A0里","LIN":"13鄰","STREET":" ","SECT":" ","MAREA":"三結義","LANE":" ","ALLEY":" ","HOUSE_NO":"１６號之１５","E_COORD97":180064.64000000001,"N_COORD97":2568067.4100000001,"ADDRESS":"三結義１６號之１５","OBJECTID":168986},"geometry":{"x":180064.63999999873,"y":2568067.410000002}},{"attributes":{"ID":168988,"DIS_CODE":0,"TOWNNAME":"官田區","LI":"南\u25A0里","LIN":"13鄰","STREET":" ","SECT":" ","MAREA":"三結義","LANE":" ","ALLEY":" ","HOUSE_NO":"１６號之１６","E_COORD97":180060.5,"N_COORD97":2568067.2799999998,"ADDRESS":"三結義１６號之１６","OBJECTID":168987},"geometry":{"x":180060.5,"y":2568067.2800000012}},{"attributes":{"ID":168989,"DIS_CODE":0,"TOWNNAME":"官田區","LI":"南\u25A0里","LIN":"13鄰","STREET":" ","SECT":" ","MAREA":"三結義","LANE":" ","ALLEY":" ","HOUSE_NO":"１６號之１７","E_COORD97":180051.13,"N_COORD97":2568068.54,"ADDRESS":"三結義１６號之１７","OBJECTID":168988},"geometry":{"x":180051.12999999989,"y":2568068.540000001}},{"attributes":{"ID":168990,"DIS_CODE":0,"TOWNNAME":"官田區","LI":"南\u25A0里","LIN":"13鄰","STREET":" ","SECT":" ","MAREA":"三結義","LANE":" ","ALLEY":" ","HOUSE_NO":"１６號之１８","E_COORD97":180047.17999999999,"N_COORD97":2568068.3300000001,"ADDRESS":"三結義１６號之１８","OBJECTID":168989},"geometry":{"x":180047.1799999997,"y":2568068.3300000019}},{"attributes":{"ID":168991,"DIS_CODE":0,"TOWNNAME":"官田區","LI":"南\u25A0里","LIN":"13鄰","STREET":" ","SECT":" ","MAREA":"三結義","LANE":" ","ALLEY":" ","HOUSE_NO":"１６號之１９","E_COORD97":180042.64999999999,"N_COORD97":2568069.2000000002,"ADDRESS":"三結義１６號之１９","OBJECTID":168990},"geometry":{"x":180042.65000000037,"y":2568069.1999999993}},{"attributes":{"ID":168992,"DIS_CODE":0,"TOWNNAME":"官田區","LI":"南\u25A0里","LIN":"13鄰","STREET":" ","SECT":" ","MAREA":"三結義","LANE":" ","ALLEY":" ","HOUSE_NO":"１６號之１","E_COORD97":180166.48000000001,"N_COORD97":2568004.4500000002,"ADDRESS":"三結義１６號之１","OBJECTID":168991},"geometry":{"x":180166.48000000045,"y":2568004.4500000011}},{"attributes":{"ID":168993,"DIS_CODE":0,"TOWNNAME":"官田區","LI":"南\u25A0里","LIN":"13鄰","STREET":" ","SECT":" ","MAREA":"三結義","LANE":" ","ALLEY":" ","HOUSE_NO":"１６號之２０","E_COORD97":180038.92999999999,"N_COORD97":2568069.29,"ADDRESS":"三結義１６號之２０","OBJECTID":168992},"geometry":{"x":180038.9299999997,"y":2568069.2900000028}},{"attributes":{"ID":168994,"DIS_CODE":0,"TOWNNAME":"官田區","LI":"南\u25A0里","LIN":"13鄰","STREET":" ","SECT":" ","MAREA":"三結義","LANE":" ","ALLEY":" ","HOUSE_NO":"１６號之２１","E_COORD97":180034.72,"N_COORD97":2568069.9399999999,"ADDRESS":"三結義１６號之２１","OBJECTID":168993},"geometry":{"x":180034.71999999974,"y":2568069.9400000013}},{"attributes":{"ID":168995,"DIS_CODE":0,"TOWNNAME":"永康區","LI":"北灣里","LIN":"34鄰","STREET":"大灣路","SECT":" ","MAREA":" ","LANE":"４０巷","ALLEY":"２６弄","HOUSE_NO":"１２號","E_COORD97":175232.51000000001,"N_COORD97":2546015.02,"ADDRESS":"大灣路４０巷２６弄１２號","OBJECTID":168994},"geometry":{"x":175232.50999999978,"y":2546015.0200000014}},{"attributes":{"ID":168996,"DIS_CODE":0,"TOWNNAME":"官田區","LI":"南\u25A0里","LIN":"13鄰","STREET":" ","SECT":" ","MAREA":"三結義","LANE":" ","ALLEY":" ","HOUSE_NO":"１６號之２２","E_COORD97":180039.29999999999,"N_COORD97":2568058.27,"ADDRESS":"三結義１６號之２２","OBJECTID":168995},"geometry":{"x":180039.29999999981,"y":2568058.2699999996}},{"attributes":{"ID":168997,"DIS_CODE":0,"TOWNNAME":"官田區","LI":"南\u25A0里","LIN":"13鄰","STREET":" ","SECT":" ","MAREA":"三結義","LANE":" ","ALLEY":" ","HOUSE_NO":"１６號之２３","E_COORD97":180038.95000000001,"N_COORD97":2568054.0899999999,"ADDRESS":"三結義１６號之２３","OBJECTID":168996},"geometry":{"x":180038.95000000019,"y":2568054.0899999999}},{"attributes":{"ID":168998,"DIS_CODE":0,"TOWNNAME":"關廟區","LI":"五甲里","LIN":"12鄰","STREET":"南雄路","SECT":"一段","MAREA":" ","LANE":" ","ALLEY":" ","HOUSE_NO":"１０５６號","E_COORD97":181142.04999999999,"N_COORD97":2539663.1699999999,"ADDRESS":"南雄路一段１０５６號","OBJECTID":168997},"geometry":{"x":181142.05000000168,"y":2539663.1700000037}},{"attributes":{"ID":168999,"DIS_CODE":0,"TOWNNAME":"官田區","LI":"南\u25A0里","LIN":"13鄰","STREET":" ","SECT":" ","MAREA":"三結義","LANE":" ","ALLEY":" ","HOUSE_NO":"１６號之２４","E_COORD97":180038.67000000001,"N_COORD97":2568049.8300000001,"ADDRESS":"三結義１６號之２４","OBJECTID":168998},"geometry":{"x":180038.66999999993,"y":2568049.8300000038}},{"attributes":{"ID":169000,"DIS_CODE":0,"TOWNNAME":"官田區","LI":"南\u25A0里","LIN":"13鄰","STREET":" ","SECT":" ","MAREA":"三結義","LANE":" ","ALLEY":" ","HOUSE_NO":"１６號之２５","E_COORD97":180038.29000000001,"N_COORD97":2568046.1600000001,"ADDRESS":"三結義１６號之２５","OBJECTID":168999},"geometry":{"x":180038.29000000004,"y":2568046.1600000001}},{"attributes":{"ID":169001,"DIS_CODE":0,"TOWNNAME":"官田區","LI":"南\u25A0里","LIN":"13鄰","STREET":" ","SECT":" ","MAREA":"三結義","LANE":" ","ALLEY":" ","HOUSE_NO":"１６號之２６","E_COORD97":180037.85999999999,"N_COORD97":2568041.8100000001,"ADDRESS":"三結義１６號之２６","OBJECTID":169000},"geometry":{"x":180037.86000000034,"y":2568041.8100000024}}]}