{"displayFieldName":"TOWNNAME","fieldAliases":{"ID":"ID","DIS_CODE":"DIS_CODE","TOWNNAME":"TOWNNAME","LI":"LI","LIN":"LIN","STREET":"STREET","SECT":"SECT","MAREA":"MAREA","LANE":"LANE","ALLEY":"ALLEY","HOUSE_NO":"HOUSE_NO","E_COORD97":"E_COORD97","N_COORD97":"N_COORD97","ADDRESS":"ADDRESS","OBJECTID":"OBJECTID"},"geometryType":"esriGeometryPoint","spatialReference":{"wkid":102443,"latestWkid":3826},"fields":[{"name":"ID","type":"esriFieldTypeDouble","alias":"ID"},{"name":"DIS_CODE","type":"esriFieldTypeInteger","alias":"DIS_CODE"},{"name":"TOWNNAME","type":"esriFieldTypeString","alias":"TOWNNAME","length":8},{"name":"LI","type":"esriFieldTypeString","alias":"LI","length":8},{"name":"LIN","type":"esriFieldTypeString","alias":"LIN","length":12},{"name":"STREET","type":"esriFieldTypeString","alias":"STREET","length":20},{"name":"SECT","type":"esriFieldTypeString","alias":"SECT","length":8},{"name":"MAREA","type":"esriFieldTypeString","alias":"MAREA","length":12},{"name":"LANE","type":"esriFieldTypeString","alias":"LANE","length":10},{"name":"ALLEY","type":"esriFieldTypeString","alias":"ALLEY","length":10},{"name":"HOUSE_NO","type":"esriFieldTypeString","alias":"HOUSE_NO","length":20},{"name":"E_COORD97","type":"esriFieldTypeDouble","alias":"E_COORD97"},{"name":"N_COORD97","type":"esriFieldTypeDouble","alias":"N_COORD97"},{"name":"ADDRESS","type":"esriFieldTypeString","alias":"ADDRESS","length":50},{"name":"OBJECTID","type":"esriFieldTypeOID","alias":"OBJECTID"}],"features":[{"attributes":{"ID":625428,"DIS_CODE":0,"TOWNNAME":"北區","LI":"元寶里","LIN":"4鄰","STREET":"北園街","SECT":" ","MAREA":" ","LANE":" ","ALLEY":" ","HOUSE_NO":"４０號七樓之１","E_COORD97":170382.01000000001,"N_COORD97":2545764.04,"ADDRESS":"北園街４０號七樓之１","OBJECTID":625401},"geometry":{"x":170382.00999999978,"y":2545764.0399999991}},{"attributes":{"ID":625429,"DIS_CODE":0,"TOWNNAME":"北區","LI":"元寶里","LIN":"4鄰","STREET":"北園街","SECT":" ","MAREA":" ","LANE":" ","ALLEY":" ","HOUSE_NO":"４０號三樓之６","E_COORD97":170382.01000000001,"N_COORD97":2545764.04,"ADDRESS":"北園街４０號三樓之６","OBJECTID":625402},"geometry":{"x":170382.00999999978,"y":2545764.0399999991}},{"attributes":{"ID":625430,"DIS_CODE":0,"TOWNNAME":"北區","LI":"元寶里","LIN":"4鄰","STREET":"北園街","SECT":" ","MAREA":" ","LANE":" ","ALLEY":" ","HOUSE_NO":"４０號三樓之７","E_COORD97":170382.01000000001,"N_COORD97":2545764.04,"ADDRESS":"北園街４０號三樓之７","OBJECTID":625403},"geometry":{"x":170382.00999999978,"y":2545764.0399999991}},{"attributes":{"ID":625431,"DIS_CODE":0,"TOWNNAME":"北區","LI":"元寶里","LIN":"4鄰","STREET":"北園街","SECT":" ","MAREA":" ","LANE":" ","ALLEY":" ","HOUSE_NO":"４０號三樓之８","E_COORD97":170382.01000000001,"N_COORD97":2545764.04,"ADDRESS":"北園街４０號三樓之８","OBJECTID":625404},"geometry":{"x":170382.00999999978,"y":2545764.0399999991}},{"attributes":{"ID":625432,"DIS_CODE":0,"TOWNNAME":"北區","LI":"元寶里","LIN":"4鄰","STREET":"北園街","SECT":" ","MAREA":" ","LANE":" ","ALLEY":" ","HOUSE_NO":"４０號三樓之９","E_COORD97":170382.01000000001,"N_COORD97":2545764.04,"ADDRESS":"北園街４０號三樓之９","OBJECTID":625405},"geometry":{"x":170382.00999999978,"y":2545764.0399999991}},{"attributes":{"ID":625433,"DIS_CODE":0,"TOWNNAME":"北區","LI":"元寶里","LIN":"4鄰","STREET":"北園街","SECT":" ","MAREA":" ","LANE":" ","ALLEY":" ","HOUSE_NO":"４０號五樓之１","E_COORD97":170382.01000000001,"N_COORD97":2545764.04,"ADDRESS":"北園街４０號五樓之１","OBJECTID":625406},"geometry":{"x":170382.00999999978,"y":2545764.0399999991}},{"attributes":{"ID":625434,"DIS_CODE":0,"TOWNNAME":"北區","LI":"元寶里","LIN":"4鄰","STREET":"北園街","SECT":" ","MAREA":" ","LANE":" ","ALLEY":" ","HOUSE_NO":"４０號五樓之２","E_COORD97":170382.01000000001,"N_COORD97":2545764.04,"ADDRESS":"北園街４０號五樓之２","OBJECTID":625407},"geometry":{"x":170382.00999999978,"y":2545764.0399999991}},{"attributes":{"ID":625435,"DIS_CODE":0,"TOWNNAME":"北區","LI":"元寶里","LIN":"4鄰","STREET":"北園街","SECT":" ","MAREA":" ","LANE":" ","ALLEY":" ","HOUSE_NO":"４０號五樓之３","E_COORD97":170382.01000000001,"N_COORD97":2545764.04,"ADDRESS":"北園街４０號五樓之３","OBJECTID":625408},"geometry":{"x":170382.00999999978,"y":2545764.0399999991}},{"attributes":{"ID":625436,"DIS_CODE":0,"TOWNNAME":"北區","LI":"元寶里","LIN":"4鄰","STREET":"北園街","SECT":" ","MAREA":" ","LANE":" ","ALLEY":" ","HOUSE_NO":"４０號五樓之５","E_COORD97":170382.01000000001,"N_COORD97":2545764.04,"ADDRESS":"北園街４０號五樓之５","OBJECTID":625409},"geometry":{"x":170382.00999999978,"y":2545764.0399999991}},{"attributes":{"ID":625437,"DIS_CODE":0,"TOWNNAME":"北區","LI":"元寶里","LIN":"4鄰","STREET":"北園街","SECT":" ","MAREA":" ","LANE":" ","ALLEY":" ","HOUSE_NO":"４０號五樓之６","E_COORD97":170382.01000000001,"N_COORD97":2545764.04,"ADDRESS":"北園街４０號五樓之６","OBJECTID":625410},"geometry":{"x":170382.00999999978,"y":2545764.0399999991}},{"attributes":{"ID":625438,"DIS_CODE":0,"TOWNNAME":"北區","LI":"元寶里","LIN":"4鄰","STREET":"北園街","SECT":" ","MAREA":" ","LANE":" ","ALLEY":" ","HOUSE_NO":"４０號五樓之７","E_COORD97":170382.01000000001,"N_COORD97":2545764.04,"ADDRESS":"北園街４０號五樓之７","OBJECTID":625411},"geometry":{"x":170382.00999999978,"y":2545764.0399999991}},{"attributes":{"ID":625439,"DIS_CODE":0,"TOWNNAME":"北區","LI":"裕民里","LIN":"9鄰","STREET":"臨安路","SECT":"二段","MAREA":" ","LANE":" ","ALLEY":" ","HOUSE_NO":"５３號七樓之１","E_COORD97":167621.87,"N_COORD97":2544819.21,"ADDRESS":"臨安路二段５３號七樓之１","OBJECTID":625412},"geometry":{"x":167621.87000000011,"y":2544819.2100000009}},{"attributes":{"ID":625440,"DIS_CODE":0,"TOWNNAME":"北區","LI":"裕民里","LIN":"9鄰","STREET":"臨安路","SECT":"二段","MAREA":" ","LANE":" ","ALLEY":" ","HOUSE_NO":"５３號七樓之２","E_COORD97":167621.87,"N_COORD97":2544819.21,"ADDRESS":"臨安路二段５３號七樓之２","OBJECTID":625413},"geometry":{"x":167621.87000000011,"y":2544819.2100000009}},{"attributes":{"ID":625441,"DIS_CODE":0,"TOWNNAME":"北區","LI":"裕民里","LIN":"9鄰","STREET":"臨安路","SECT":"二段","MAREA":" ","LANE":" ","ALLEY":" ","HOUSE_NO":"５３號七樓之３","E_COORD97":167621.87,"N_COORD97":2544819.21,"ADDRESS":"臨安路二段５３號七樓之３","OBJECTID":625414},"geometry":{"x":167621.87000000011,"y":2544819.2100000009}},{"attributes":{"ID":625442,"DIS_CODE":0,"TOWNNAME":"南區","LI":"新昌里","LIN":"1鄰","STREET":"西門路","SECT":"一段","MAREA":" ","LANE":" ","ALLEY":" ","HOUSE_NO":"６５５號六樓","E_COORD97":167700.76999999999,"N_COORD97":2542982.75,"ADDRESS":"西門路一段６５５號六樓","OBJECTID":625415},"geometry":{"x":167700.77000000142,"y":2542982.7500000019}},{"attributes":{"ID":625443,"DIS_CODE":0,"TOWNNAME":"南區","LI":"新昌里","LIN":"1鄰","STREET":"西門路","SECT":"一段","MAREA":" ","LANE":" ","ALLEY":" ","HOUSE_NO":"６５５號四樓","E_COORD97":167700.76999999999,"N_COORD97":2542982.75,"ADDRESS":"西門路一段６５５號四樓","OBJECTID":625416},"geometry":{"x":167700.77000000142,"y":2542982.7500000019}},{"attributes":{"ID":625444,"DIS_CODE":0,"TOWNNAME":"南區","LI":"大恩里","LIN":"16鄰","STREET":"國民路","SECT":" ","MAREA":" ","LANE":" ","ALLEY":" ","HOUSE_NO":"２０５號二樓","E_COORD97":169103.75,"N_COORD97":2540908.9300000002,"ADDRESS":"國民路２０５號二樓","OBJECTID":625417},"geometry":{"x":169103.75000000093,"y":2540908.9300000016}},{"attributes":{"ID":625445,"DIS_CODE":0,"TOWNNAME":"南區","LI":"大恩里","LIN":"16鄰","STREET":"國民路","SECT":" ","MAREA":" ","LANE":" ","ALLEY":" ","HOUSE_NO":"２０５號三樓","E_COORD97":169103.75,"N_COORD97":2540908.9300000002,"ADDRESS":"國民路２０５號三樓","OBJECTID":625418},"geometry":{"x":169103.75000000093,"y":2540908.9300000016}},{"attributes":{"ID":625446,"DIS_CODE":0,"TOWNNAME":"南區","LI":"大恩里","LIN":"16鄰","STREET":"國民路","SECT":" ","MAREA":" ","LANE":" ","ALLEY":" ","HOUSE_NO":"２０５號五樓","E_COORD97":169103.75,"N_COORD97":2540908.9300000002,"ADDRESS":"國民路２０５號五樓","OBJECTID":625419},"geometry":{"x":169103.75000000093,"y":2540908.9300000016}},{"attributes":{"ID":625447,"DIS_CODE":0,"TOWNNAME":"南區","LI":"大恩里","LIN":"16鄰","STREET":"國民路","SECT":" ","MAREA":" ","LANE":" ","ALLEY":" ","HOUSE_NO":"２０５號四樓","E_COORD97":169103.75,"N_COORD97":2540908.9300000002,"ADDRESS":"國民路２０５號四樓","OBJECTID":625420},"geometry":{"x":169103.75000000093,"y":2540908.9300000016}},{"attributes":{"ID":625448,"DIS_CODE":0,"TOWNNAME":"南區","LI":"郡南里","LIN":"22鄰","STREET":"永吉街","SECT":" ","MAREA":" ","LANE":" ","ALLEY":" ","HOUSE_NO":"１１號四樓之２","E_COORD97":167287.26000000001,"N_COORD97":2540629.0899999999,"ADDRESS":"永吉街１１號四樓之２","OBJECTID":625421},"geometry":{"x":167287.25999999978,"y":2540629.0899999999}},{"attributes":{"ID":625449,"DIS_CODE":0,"TOWNNAME":"南區","LI":"郡南里","LIN":"22鄰","STREET":"永吉街","SECT":" ","MAREA":" ","LANE":" ","ALLEY":" ","HOUSE_NO":"１１號八樓之２","E_COORD97":167287.26000000001,"N_COORD97":2540629.0899999999,"ADDRESS":"永吉街１１號八樓之２","OBJECTID":625422},"geometry":{"x":167287.25999999978,"y":2540629.0899999999}},{"attributes":{"ID":625450,"DIS_CODE":0,"TOWNNAME":"南區","LI":"郡南里","LIN":"22鄰","STREET":"永吉街","SECT":" ","MAREA":" ","LANE":" ","ALLEY":" ","HOUSE_NO":"１１號七樓之１","E_COORD97":167287.26000000001,"N_COORD97":2540629.0899999999,"ADDRESS":"永吉街１１號七樓之１","OBJECTID":625423},"geometry":{"x":167287.25999999978,"y":2540629.0899999999}},{"attributes":{"ID":625451,"DIS_CODE":0,"TOWNNAME":"南區","LI":"郡南里","LIN":"22鄰","STREET":"永吉街","SECT":" ","MAREA":" ","LANE":" ","ALLEY":" ","HOUSE_NO":"１１號七樓之２","E_COORD97":167287.26000000001,"N_COORD97":2540629.0899999999,"ADDRESS":"永吉街１１號七樓之２","OBJECTID":625424},"geometry":{"x":167287.25999999978,"y":2540629.0899999999}},{"attributes":{"ID":625452,"DIS_CODE":0,"TOWNNAME":"南區","LI":"郡南里","LIN":"22鄰","STREET":"永吉街","SECT":" ","MAREA":" ","LANE":" ","ALLEY":" ","HOUSE_NO":"１１號七樓之３","E_COORD97":167287.26000000001,"N_COORD97":2540629.0899999999,"ADDRESS":"永吉街１１號七樓之３","OBJECTID":625425},"geometry":{"x":167287.25999999978,"y":2540629.0899999999}},{"attributes":{"ID":625453,"DIS_CODE":0,"TOWNNAME":"南區","LI":"郡南里","LIN":"22鄰","STREET":"永吉街","SECT":" ","MAREA":" ","LANE":" ","ALLEY":" ","HOUSE_NO":"１１號八樓之１","E_COORD97":167287.26000000001,"N_COORD97":2540629.0899999999,"ADDRESS":"永吉街１１號八樓之１","OBJECTID":625426},"geometry":{"x":167287.25999999978,"y":2540629.0899999999}},{"attributes":{"ID":625454,"DIS_CODE":0,"TOWNNAME":"南區","LI":"府南里","LIN":"29鄰","STREET":"西門路","SECT":"一段","MAREA":" ","LANE":" ","ALLEY":" ","HOUSE_NO":"１９９號一樓之１","E_COORD97":167719.32999999999,"N_COORD97":2541692.4100000001,"ADDRESS":"西門路一段１９９號一樓之１","OBJECTID":625427},"geometry":{"x":167719.33000000007,"y":2541692.4100000039}},{"attributes":{"ID":625455,"DIS_CODE":0,"TOWNNAME":"南區","LI":"府南里","LIN":"29鄰","STREET":"西門路","SECT":"一段","MAREA":" ","LANE":" ","ALLEY":" ","HOUSE_NO":"１９９號二樓之１","E_COORD97":167719.32999999999,"N_COORD97":2541692.4100000001,"ADDRESS":"西門路一段１９９號二樓之１","OBJECTID":625428},"geometry":{"x":167719.33000000007,"y":2541692.4100000039}},{"attributes":{"ID":625456,"DIS_CODE":0,"TOWNNAME":"南區","LI":"府南里","LIN":"29鄰","STREET":"西門路","SECT":"一段","MAREA":" ","LANE":" ","ALLEY":" ","HOUSE_NO":"１９９號三樓之１","E_COORD97":167719.32999999999,"N_COORD97":2541692.4100000001,"ADDRESS":"西門路一段１９９號三樓之１","OBJECTID":625429},"geometry":{"x":167719.33000000007,"y":2541692.4100000039}},{"attributes":{"ID":625457,"DIS_CODE":0,"TOWNNAME":"南區","LI":"郡南里","LIN":"22鄰","STREET":"永吉街","SECT":" ","MAREA":" ","LANE":" ","ALLEY":" ","HOUSE_NO":"１１號八樓之３","E_COORD97":167287.26000000001,"N_COORD97":2540629.0899999999,"ADDRESS":"永吉街１１號八樓之３","OBJECTID":625430},"geometry":{"x":167287.25999999978,"y":2540629.0899999999}},{"attributes":{"ID":625458,"DIS_CODE":0,"TOWNNAME":"南區","LI":"郡南里","LIN":"22鄰","STREET":"永吉街","SECT":" ","MAREA":" ","LANE":" ","ALLEY":" ","HOUSE_NO":"１１號三樓之１","E_COORD97":167287.26000000001,"N_COORD97":2540629.0899999999,"ADDRESS":"永吉街１１號三樓之１","OBJECTID":625431},"geometry":{"x":167287.25999999978,"y":2540629.0899999999}},{"attributes":{"ID":625459,"DIS_CODE":0,"TOWNNAME":"南區","LI":"郡南里","LIN":"22鄰","STREET":"永吉街","SECT":" ","MAREA":" ","LANE":" ","ALLEY":" ","HOUSE_NO":"１１號三樓之２","E_COORD97":167287.26000000001,"N_COORD97":2540629.0899999999,"ADDRESS":"永吉街１１號三樓之２","OBJECTID":625432},"geometry":{"x":167287.25999999978,"y":2540629.0899999999}},{"attributes":{"ID":625460,"DIS_CODE":0,"TOWNNAME":"南區","LI":"郡南里","LIN":"22鄰","STREET":"永吉街","SECT":" ","MAREA":" ","LANE":" ","ALLEY":" ","HOUSE_NO":"１１號五樓之１","E_COORD97":167287.26000000001,"N_COORD97":2540629.0899999999,"ADDRESS":"永吉街１１號五樓之１","OBJECTID":625433},"geometry":{"x":167287.25999999978,"y":2540629.0899999999}},{"attributes":{"ID":625461,"DIS_CODE":0,"TOWNNAME":"南區","LI":"郡南里","LIN":"22鄰","STREET":"永吉街","SECT":" ","MAREA":" ","LANE":" ","ALLEY":" ","HOUSE_NO":"１１號五樓之２","E_COORD97":167287.26000000001,"N_COORD97":2540629.0899999999,"ADDRESS":"永吉街１１號五樓之２","OBJECTID":625434},"geometry":{"x":167287.25999999978,"y":2540629.0899999999}},{"attributes":{"ID":625462,"DIS_CODE":0,"TOWNNAME":"南區","LI":"郡南里","LIN":"22鄰","STREET":"永吉街","SECT":" ","MAREA":" ","LANE":" ","ALLEY":" ","HOUSE_NO":"１１號五樓之３","E_COORD97":167287.26000000001,"N_COORD97":2540629.0899999999,"ADDRESS":"永吉街１１號五樓之３","OBJECTID":625435},"geometry":{"x":167287.25999999978,"y":2540629.0899999999}},{"attributes":{"ID":625463,"DIS_CODE":0,"TOWNNAME":"南區","LI":"郡南里","LIN":"22鄰","STREET":"永吉街","SECT":" ","MAREA":" ","LANE":" ","ALLEY":" ","HOUSE_NO":"１１號六樓之１","E_COORD97":167287.26000000001,"N_COORD97":2540629.0899999999,"ADDRESS":"永吉街１１號六樓之１","OBJECTID":625436},"geometry":{"x":167287.25999999978,"y":2540629.0899999999}},{"attributes":{"ID":625464,"DIS_CODE":0,"TOWNNAME":"南區","LI":"郡南里","LIN":"22鄰","STREET":"永吉街","SECT":" ","MAREA":" ","LANE":" ","ALLEY":" ","HOUSE_NO":"１１號六樓之２","E_COORD97":167287.26000000001,"N_COORD97":2540629.0899999999,"ADDRESS":"永吉街１１號六樓之２","OBJECTID":625437},"geometry":{"x":167287.25999999978,"y":2540629.0899999999}},{"attributes":{"ID":625465,"DIS_CODE":0,"TOWNNAME":"南區","LI":"郡南里","LIN":"22鄰","STREET":"永吉街","SECT":" ","MAREA":" ","LANE":" ","ALLEY":" ","HOUSE_NO":"１１號六樓之３","E_COORD97":167287.26000000001,"N_COORD97":2540629.0899999999,"ADDRESS":"永吉街１１號六樓之３","OBJECTID":625438},"geometry":{"x":167287.25999999978,"y":2540629.0899999999}},{"attributes":{"ID":625466,"DIS_CODE":0,"TOWNNAME":"南區","LI":"郡南里","LIN":"22鄰","STREET":"永吉街","SECT":" ","MAREA":" ","LANE":" ","ALLEY":" ","HOUSE_NO":"１１號四樓之１","E_COORD97":167287.26000000001,"N_COORD97":2540629.0899999999,"ADDRESS":"永吉街１１號四樓之１","OBJECTID":625439},"geometry":{"x":167287.25999999978,"y":2540629.0899999999}},{"attributes":{"ID":625467,"DIS_CODE":0,"TOWNNAME":"南區","LI":"郡南里","LIN":"22鄰","STREET":"永吉街","SECT":" ","MAREA":" ","LANE":" ","ALLEY":" ","HOUSE_NO":"１１號四樓之３","E_COORD97":167287.26000000001,"N_COORD97":2540629.0899999999,"ADDRESS":"永吉街１１號四樓之３","OBJECTID":625440},"geometry":{"x":167287.25999999978,"y":2540629.0899999999}},{"attributes":{"ID":625468,"DIS_CODE":0,"TOWNNAME":"南區","LI":"郡南里","LIN":"22鄰","STREET":"永興二街","SECT":" ","MAREA":" ","LANE":" ","ALLEY":" ","HOUSE_NO":"２３號二樓","E_COORD97":167243.92000000001,"N_COORD97":2540643.73,"ADDRESS":"永興二街２３號二樓","OBJECTID":625441},"geometry":{"x":167243.91999999993,"y":2540643.7300000023}},{"attributes":{"ID":625469,"DIS_CODE":0,"TOWNNAME":"南區","LI":"郡南里","LIN":"22鄰","STREET":"永興二街","SECT":" ","MAREA":" ","LANE":" ","ALLEY":" ","HOUSE_NO":"２３號三樓","E_COORD97":167243.92000000001,"N_COORD97":2540643.73,"ADDRESS":"永興二街２３號三樓","OBJECTID":625442},"geometry":{"x":167243.91999999993,"y":2540643.7300000023}},{"attributes":{"ID":625470,"DIS_CODE":0,"TOWNNAME":"南區","LI":"郡南里","LIN":"22鄰","STREET":"永興二街","SECT":" ","MAREA":" ","LANE":" ","ALLEY":" ","HOUSE_NO":"２３號四樓","E_COORD97":167243.92000000001,"N_COORD97":2540643.73,"ADDRESS":"永興二街２３號四樓","OBJECTID":625443},"geometry":{"x":167243.91999999993,"y":2540643.7300000023}},{"attributes":{"ID":625471,"DIS_CODE":0,"TOWNNAME":"南區","LI":"府南里","LIN":" ","STREET":"西門路","SECT":"一段","MAREA":" ","LANE":" ","ALLEY":" ","HOUSE_NO":"１９９號四樓之１１","E_COORD97":167674.09,"N_COORD97":2541691.9100000001,"ADDRESS":"西門路一段１９９號四樓之１１","OBJECTID":625444},"geometry":{"x":167674.09000000078,"y":2541691.9100000001}},{"attributes":{"ID":625472,"DIS_CODE":0,"TOWNNAME":"南區","LI":"府南里","LIN":" ","STREET":"西門路","SECT":"一段","MAREA":" ","LANE":" ","ALLEY":" ","HOUSE_NO":"１９９號四樓之７","E_COORD97":167691.13,"N_COORD97":2541692.2400000002,"ADDRESS":"西門路一段１９９號四樓之７","OBJECTID":625445},"geometry":{"x":167691.12999999989,"y":2541692.2400000002}},{"attributes":{"ID":625473,"DIS_CODE":0,"TOWNNAME":"南區","LI":"府南里","LIN":" ","STREET":"西門路","SECT":"一段","MAREA":" ","LANE":" ","ALLEY":" ","HOUSE_NO":"１９９號四樓之９","E_COORD97":167682.78,"N_COORD97":2541692.2400000002,"ADDRESS":"西門路一段１９９號四樓之９","OBJECTID":625446},"geometry":{"x":167682.78000000212,"y":2541692.2400000002}},{"attributes":{"ID":625474,"DIS_CODE":0,"TOWNNAME":"北區","LI":"華興里","LIN":"1鄰","STREET":"開南街","SECT":" ","MAREA":" ","LANE":" ","ALLEY":" ","HOUSE_NO":"５號三樓","E_COORD97":170296.16,"N_COORD97":2545392.8599999999,"ADDRESS":"開南街５號三樓","OBJECTID":625447},"geometry":{"x":170296.16000000108,"y":2545392.8599999994}},{"attributes":{"ID":625475,"DIS_CODE":0,"TOWNNAME":"南區","LI":"再興里","LIN":"17鄰","STREET":"金華路","SECT":"二段","MAREA":" ","LANE":" ","ALLEY":" ","HOUSE_NO":"１７２號五樓之５","E_COORD97":167125.57000000001,"N_COORD97":2542273.6499999999,"ADDRESS":"金華路二段１７２號五樓之５","OBJECTID":625448},"geometry":{"x":167125.57000000123,"y":2542273.6500000004}},{"attributes":{"ID":625476,"DIS_CODE":0,"TOWNNAME":"南區","LI":"再興里","LIN":"17鄰","STREET":"金華路","SECT":"二段","MAREA":" ","LANE":" ","ALLEY":" ","HOUSE_NO":"１７２號五樓之６","E_COORD97":167125.57000000001,"N_COORD97":2542273.6499999999,"ADDRESS":"金華路二段１７２號五樓之６","OBJECTID":625449},"geometry":{"x":167125.57000000123,"y":2542273.6500000004}},{"attributes":{"ID":625477,"DIS_CODE":0,"TOWNNAME":"南區","LI":"再興里","LIN":"17鄰","STREET":"金華路","SECT":"二段","MAREA":" ","LANE":" ","ALLEY":" ","HOUSE_NO":"１７２號五樓之７","E_COORD97":167125.57000000001,"N_COORD97":2542273.6499999999,"ADDRESS":"金華路二段１７２號五樓之７","OBJECTID":625450},"geometry":{"x":167125.57000000123,"y":2542273.6500000004}},{"attributes":{"ID":625478,"DIS_CODE":0,"TOWNNAME":"南區","LI":"再興里","LIN":"17鄰","STREET":"金華路","SECT":"二段","MAREA":" ","LANE":" ","ALLEY":" ","HOUSE_NO":"１７２號五樓之８","E_COORD97":167125.57000000001,"N_COORD97":2542273.6499999999,"ADDRESS":"金華路二段１７２號五樓之８","OBJECTID":625451},"geometry":{"x":167125.57000000123,"y":2542273.6500000004}},{"attributes":{"ID":625479,"DIS_CODE":0,"TOWNNAME":"南區","LI":"再興里","LIN":"17鄰","STREET":"金華路","SECT":"二段","MAREA":" ","LANE":" ","ALLEY":" ","HOUSE_NO":"１７２號六樓之１","E_COORD97":167125.57000000001,"N_COORD97":2542273.6499999999,"ADDRESS":"金華路二段１７２號六樓之１","OBJECTID":625452},"geometry":{"x":167125.57000000123,"y":2542273.6500000004}},{"attributes":{"ID":625480,"DIS_CODE":0,"TOWNNAME":"南區","LI":"再興里","LIN":"17鄰","STREET":"金華路","SECT":"二段","MAREA":" ","LANE":" ","ALLEY":" ","HOUSE_NO":"１７２號六樓之２","E_COORD97":167125.57000000001,"N_COORD97":2542273.6499999999,"ADDRESS":"金華路二段１７２號六樓之２","OBJECTID":625453},"geometry":{"x":167125.57000000123,"y":2542273.6500000004}},{"attributes":{"ID":625481,"DIS_CODE":0,"TOWNNAME":"南區","LI":"再興里","LIN":"17鄰","STREET":"金華路","SECT":"二段","MAREA":" ","LANE":" ","ALLEY":" ","HOUSE_NO":"１７２號六樓之３","E_COORD97":167125.57000000001,"N_COORD97":2542273.6499999999,"ADDRESS":"金華路二段１７２號六樓之３","OBJECTID":625454},"geometry":{"x":167125.57000000123,"y":2542273.6500000004}},{"attributes":{"ID":625482,"DIS_CODE":0,"TOWNNAME":"南區","LI":"再興里","LIN":"17鄰","STREET":"金華路","SECT":"二段","MAREA":" ","LANE":" ","ALLEY":" ","HOUSE_NO":"１７２號六樓之４","E_COORD97":167125.57000000001,"N_COORD97":2542273.6499999999,"ADDRESS":"金華路二段１７２號六樓之４","OBJECTID":625455},"geometry":{"x":167125.57000000123,"y":2542273.6500000004}},{"attributes":{"ID":625483,"DIS_CODE":0,"TOWNNAME":"南區","LI":"再興里","LIN":"17鄰","STREET":"金華路","SECT":"二段","MAREA":" ","LANE":" ","ALLEY":" ","HOUSE_NO":"１７２號六樓之５","E_COORD97":167125.57000000001,"N_COORD97":2542273.6499999999,"ADDRESS":"金華路二段１７２號六樓之５","OBJECTID":625456},"geometry":{"x":167125.57000000123,"y":2542273.6500000004}},{"attributes":{"ID":625484,"DIS_CODE":0,"TOWNNAME":"南區","LI":"再興里","LIN":"17鄰","STREET":"金華路","SECT":"二段","MAREA":" ","LANE":" ","ALLEY":" ","HOUSE_NO":"１７２號六樓之６","E_COORD97":167125.57000000001,"N_COORD97":2542273.6499999999,"ADDRESS":"金華路二段１７２號六樓之６","OBJECTID":625457},"geometry":{"x":167125.57000000123,"y":2542273.6500000004}},{"attributes":{"ID":625485,"DIS_CODE":0,"TOWNNAME":"南區","LI":"再興里","LIN":"17鄰","STREET":"金華路","SECT":"二段","MAREA":" ","LANE":" ","ALLEY":" ","HOUSE_NO":"１７２號六樓之７","E_COORD97":167125.57000000001,"N_COORD97":2542273.6499999999,"ADDRESS":"金華路二段１７２號六樓之７","OBJECTID":625458},"geometry":{"x":167125.57000000123,"y":2542273.6500000004}},{"attributes":{"ID":625486,"DIS_CODE":0,"TOWNNAME":"南區","LI":"再興里","LIN":"17鄰","STREET":"金華路","SECT":"二段","MAREA":" ","LANE":" ","ALLEY":" ","HOUSE_NO":"１７２號六樓之８","E_COORD97":167125.57000000001,"N_COORD97":2542273.6499999999,"ADDRESS":"金華路二段１７２號六樓之８","OBJECTID":625459},"geometry":{"x":167125.57000000123,"y":2542273.6500000004}},{"attributes":{"ID":625487,"DIS_CODE":0,"TOWNNAME":"南區","LI":"光明里","LIN":"15鄰","STREET":"新興路","SECT":" ","MAREA":" ","LANE":" ","ALLEY":" ","HOUSE_NO":"５４１號五樓之３","E_COORD97":166493.82000000001,"N_COORD97":2541607.96,"ADDRESS":"新興路５４１號五樓之３","OBJECTID":625460},"geometry":{"x":166493.8200000003,"y":2541607.959999999}},{"attributes":{"ID":625488,"DIS_CODE":0,"TOWNNAME":"南區","LI":"光明里","LIN":"15鄰","STREET":"新興路","SECT":" ","MAREA":" ","LANE":" ","ALLEY":" ","HOUSE_NO":"５４１號七樓","E_COORD97":166493.82000000001,"N_COORD97":2541607.96,"ADDRESS":"新興路５４１號七樓","OBJECTID":625461},"geometry":{"x":166493.8200000003,"y":2541607.959999999}},{"attributes":{"ID":625489,"DIS_CODE":0,"TOWNNAME":"南區","LI":"光明里","LIN":"15鄰","STREET":"新興路","SECT":" ","MAREA":" ","LANE":" ","ALLEY":" ","HOUSE_NO":"５４１號七樓之１","E_COORD97":166493.82000000001,"N_COORD97":2541607.96,"ADDRESS":"新興路５４１號七樓之１","OBJECTID":625462},"geometry":{"x":166493.8200000003,"y":2541607.959999999}},{"attributes":{"ID":625490,"DIS_CODE":0,"TOWNNAME":"南區","LI":"光明里","LIN":"15鄰","STREET":"新興路","SECT":" ","MAREA":" ","LANE":" ","ALLEY":" ","HOUSE_NO":"５４１號七樓之２","E_COORD97":166493.82000000001,"N_COORD97":2541607.96,"ADDRESS":"新興路５４１號七樓之２","OBJECTID":625463},"geometry":{"x":166493.8200000003,"y":2541607.959999999}},{"attributes":{"ID":625491,"DIS_CODE":0,"TOWNNAME":"南區","LI":"光明里","LIN":"15鄰","STREET":"新興路","SECT":" ","MAREA":" ","LANE":" ","ALLEY":" ","HOUSE_NO":"５４１號七樓之３","E_COORD97":166493.82000000001,"N_COORD97":2541607.96,"ADDRESS":"新興路５４１號七樓之３","OBJECTID":625464},"geometry":{"x":166493.8200000003,"y":2541607.959999999}},{"attributes":{"ID":625492,"DIS_CODE":0,"TOWNNAME":"南區","LI":"光明里","LIN":"15鄰","STREET":"新興路","SECT":" ","MAREA":" ","LANE":" ","ALLEY":" ","HOUSE_NO":"５４１號九樓","E_COORD97":166493.82000000001,"N_COORD97":2541607.96,"ADDRESS":"新興路５４１號九樓","OBJECTID":625465},"geometry":{"x":166493.8200000003,"y":2541607.959999999}},{"attributes":{"ID":625493,"DIS_CODE":0,"TOWNNAME":"南區","LI":"光明里","LIN":"15鄰","STREET":"新興路","SECT":" ","MAREA":" ","LANE":" ","ALLEY":" ","HOUSE_NO":"５４１號九樓之１","E_COORD97":166493.82000000001,"N_COORD97":2541607.96,"ADDRESS":"新興路５４１號九樓之１","OBJECTID":625466},"geometry":{"x":166493.8200000003,"y":2541607.959999999}},{"attributes":{"ID":625494,"DIS_CODE":0,"TOWNNAME":"南區","LI":"光明里","LIN":"15鄰","STREET":"新興路","SECT":" ","MAREA":" ","LANE":" ","ALLEY":" ","HOUSE_NO":"５４１號九樓之２","E_COORD97":166493.82000000001,"N_COORD97":2541607.96,"ADDRESS":"新興路５４１號九樓之２","OBJECTID":625467},"geometry":{"x":166493.8200000003,"y":2541607.959999999}},{"attributes":{"ID":625495,"DIS_CODE":0,"TOWNNAME":"南區","LI":"光明里","LIN":"15鄰","STREET":"新興路","SECT":" ","MAREA":" ","LANE":" ","ALLEY":" ","HOUSE_NO":"５４１號九樓之３","E_COORD97":166493.82000000001,"N_COORD97":2541607.96,"ADDRESS":"新興路５４１號九樓之３","OBJECTID":625468},"geometry":{"x":166493.8200000003,"y":2541607.959999999}},{"attributes":{"ID":625496,"DIS_CODE":0,"TOWNNAME":"安平區","LI":"育平里","LIN":"37鄰","STREET":"育平三街","SECT":" ","MAREA":" ","LANE":" ","ALLEY":" ","HOUSE_NO":"１７號六樓之２","E_COORD97":164499.45999999999,"N_COORD97":2543157.2400000002,"ADDRESS":"育平三街１７號六樓之２","OBJECTID":625469},"geometry":{"x":164499.46000000183,"y":2543157.2400000002}},{"attributes":{"ID":625497,"DIS_CODE":0,"TOWNNAME":"安平區","LI":"育平里","LIN":"37鄰","STREET":"育平三街","SECT":" ","MAREA":" ","LANE":" ","ALLEY":" ","HOUSE_NO":"１７號六樓之３","E_COORD97":164499.45999999999,"N_COORD97":2543157.2400000002,"ADDRESS":"育平三街１７號六樓之３","OBJECTID":625470},"geometry":{"x":164499.46000000183,"y":2543157.2400000002}},{"attributes":{"ID":625498,"DIS_CODE":0,"TOWNNAME":"安平區","LI":"育平里","LIN":"37鄰","STREET":"育平三街","SECT":" ","MAREA":" ","LANE":" ","ALLEY":" ","HOUSE_NO":"１７號六樓之４","E_COORD97":164499.45999999999,"N_COORD97":2543157.2400000002,"ADDRESS":"育平三街１７號六樓之４","OBJECTID":625471},"geometry":{"x":164499.46000000183,"y":2543157.2400000002}},{"attributes":{"ID":625499,"DIS_CODE":0,"TOWNNAME":"安平區","LI":"育平里","LIN":"37鄰","STREET":"育平三街","SECT":" ","MAREA":" ","LANE":" ","ALLEY":" ","HOUSE_NO":"１７號六樓之５","E_COORD97":164499.45999999999,"N_COORD97":2543157.2400000002,"ADDRESS":"育平三街１７號六樓之５","OBJECTID":625472},"geometry":{"x":164499.46000000183,"y":2543157.2400000002}},{"attributes":{"ID":625500,"DIS_CODE":0,"TOWNNAME":"安平區","LI":"育平里","LIN":"37鄰","STREET":"育平三街","SECT":" ","MAREA":" ","LANE":" ","ALLEY":" ","HOUSE_NO":"１７號四樓之１","E_COORD97":164499.45999999999,"N_COORD97":2543157.2400000002,"ADDRESS":"育平三街１７號四樓之１","OBJECTID":625473},"geometry":{"x":164499.46000000183,"y":2543157.2400000002}},{"attributes":{"ID":625501,"DIS_CODE":0,"TOWNNAME":"安平區","LI":"育平里","LIN":"37鄰","STREET":"育平三街","SECT":" ","MAREA":" ","LANE":" ","ALLEY":" ","HOUSE_NO":"１７號四樓之２","E_COORD97":164499.45999999999,"N_COORD97":2543157.2400000002,"ADDRESS":"育平三街１７號四樓之２","OBJECTID":625474},"geometry":{"x":164499.46000000183,"y":2543157.2400000002}},{"attributes":{"ID":625502,"DIS_CODE":0,"TOWNNAME":"安平區","LI":"育平里","LIN":"37鄰","STREET":"育平三街","SECT":" ","MAREA":" ","LANE":" ","ALLEY":" ","HOUSE_NO":"１７號四樓之３","E_COORD97":164499.45999999999,"N_COORD97":2543157.2400000002,"ADDRESS":"育平三街１７號四樓之３","OBJECTID":625475},"geometry":{"x":164499.46000000183,"y":2543157.2400000002}},{"attributes":{"ID":625503,"DIS_CODE":0,"TOWNNAME":"安平區","LI":"育平里","LIN":"37鄰","STREET":"育平三街","SECT":" ","MAREA":" ","LANE":" ","ALLEY":" ","HOUSE_NO":"１７號四樓之５","E_COORD97":164499.45999999999,"N_COORD97":2543157.2400000002,"ADDRESS":"育平三街１７號四樓之５","OBJECTID":625476},"geometry":{"x":164499.46000000183,"y":2543157.2400000002}},{"attributes":{"ID":625504,"DIS_CODE":0,"TOWNNAME":"安平區","LI":"育平里","LIN":"37鄰","STREET":"育平三街","SECT":" ","MAREA":" ","LANE":" ","ALLEY":" ","HOUSE_NO":"１７號四樓之６","E_COORD97":164499.45999999999,"N_COORD97":2543157.2400000002,"ADDRESS":"育平三街１７號四樓之６","OBJECTID":625477},"geometry":{"x":164499.46000000183,"y":2543157.2400000002}},{"attributes":{"ID":625505,"DIS_CODE":0,"TOWNNAME":"安平區","LI":"國平里","LIN":"22鄰","STREET":"建平七街","SECT":" ","MAREA":" ","LANE":" ","ALLEY":" ","HOUSE_NO":"７２６號四樓","E_COORD97":164793.42000000001,"N_COORD97":2543439.8500000001,"ADDRESS":"建平七街７２６號四樓","OBJECTID":625478},"geometry":{"x":164793.42000000086,"y":2543439.8500000015}},{"attributes":{"ID":625506,"DIS_CODE":0,"TOWNNAME":"安平區","LI":"平通里","LIN":"4鄰","STREET":"慶平路","SECT":" ","MAREA":" ","LANE":" ","ALLEY":" ","HOUSE_NO":"５３９號七樓之１８","E_COORD97":165071.10999999999,"N_COORD97":2544210.6600000001,"ADDRESS":"慶平路５３９號七樓之１８","OBJECTID":625479},"geometry":{"x":165071.11000000034,"y":2544210.660000002}},{"attributes":{"ID":625507,"DIS_CODE":0,"TOWNNAME":"安平區","LI":"平通里","LIN":"4鄰","STREET":"慶平路","SECT":" ","MAREA":" ","LANE":" ","ALLEY":" ","HOUSE_NO":"５３９號七樓之１９","E_COORD97":165071.10999999999,"N_COORD97":2544210.6600000001,"ADDRESS":"慶平路５３９號七樓之１９","OBJECTID":625480},"geometry":{"x":165071.11000000034,"y":2544210.660000002}},{"attributes":{"ID":625508,"DIS_CODE":0,"TOWNNAME":"安平區","LI":"平通里","LIN":"4鄰","STREET":"慶平路","SECT":" ","MAREA":" ","LANE":" ","ALLEY":" ","HOUSE_NO":"５３９號七樓之２","E_COORD97":165071.10999999999,"N_COORD97":2544210.6600000001,"ADDRESS":"慶平路５３９號七樓之２","OBJECTID":625481},"geometry":{"x":165071.11000000034,"y":2544210.660000002}},{"attributes":{"ID":625509,"DIS_CODE":0,"TOWNNAME":"安平區","LI":"平通里","LIN":"4鄰","STREET":"慶平路","SECT":" ","MAREA":" ","LANE":" ","ALLEY":" ","HOUSE_NO":"５３９號七樓之２０","E_COORD97":165071.10999999999,"N_COORD97":2544210.6600000001,"ADDRESS":"慶平路５３９號七樓之２０","OBJECTID":625482},"geometry":{"x":165071.11000000034,"y":2544210.660000002}},{"attributes":{"ID":625510,"DIS_CODE":0,"TOWNNAME":"安平區","LI":"國平里","LIN":"25鄰","STREET":"建平七街","SECT":" ","MAREA":" ","LANE":" ","ALLEY":" ","HOUSE_NO":"６７７號七樓之１２","E_COORD97":164850.32999999999,"N_COORD97":2543412.3599999999,"ADDRESS":"建平七街６７７號七樓之１２","OBJECTID":625483},"geometry":{"x":164850.33000000101,"y":2543412.3600000013}},{"attributes":{"ID":625511,"DIS_CODE":0,"TOWNNAME":"安平區","LI":"國平里","LIN":"25鄰","STREET":"建平七街","SECT":" ","MAREA":" ","LANE":" ","ALLEY":" ","HOUSE_NO":"６７７號四樓之２０","E_COORD97":164850.32999999999,"N_COORD97":2543412.3599999999,"ADDRESS":"建平七街６７７號四樓之２０","OBJECTID":625484},"geometry":{"x":164850.33000000101,"y":2543412.3600000013}},{"attributes":{"ID":625512,"DIS_CODE":0,"TOWNNAME":"安平區","LI":"國平里","LIN":"25鄰","STREET":"建平七街","SECT":" ","MAREA":" ","LANE":" ","ALLEY":" ","HOUSE_NO":"６７７號四樓之２１","E_COORD97":164850.32999999999,"N_COORD97":2543412.3599999999,"ADDRESS":"建平七街６７７號四樓之２１","OBJECTID":625485},"geometry":{"x":164850.33000000101,"y":2543412.3600000013}},{"attributes":{"ID":625513,"DIS_CODE":0,"TOWNNAME":"安平區","LI":"國平里","LIN":"25鄰","STREET":"建平七街","SECT":" ","MAREA":" ","LANE":" ","ALLEY":" ","HOUSE_NO":"６７７號四樓之２２","E_COORD97":164850.32999999999,"N_COORD97":2543412.3599999999,"ADDRESS":"建平七街６７７號四樓之２２","OBJECTID":625486},"geometry":{"x":164850.33000000101,"y":2543412.3600000013}},{"attributes":{"ID":625514,"DIS_CODE":0,"TOWNNAME":"安平區","LI":"港仔里","LIN":"11鄰","STREET":"延平街","SECT":" ","MAREA":" ","LANE":" ","ALLEY":" ","HOUSE_NO":"８７號二樓","E_COORD97":164151.89000000001,"N_COORD97":2544601.8300000001,"ADDRESS":"延平街８７號二樓","OBJECTID":625487},"geometry":{"x":164151.88999999873,"y":2544601.8300000038}},{"attributes":{"ID":625515,"DIS_CODE":0,"TOWNNAME":"安平區","LI":"港仔里","LIN":"9鄰","STREET":"安平路","SECT":" ","MAREA":" ","LANE":" ","ALLEY":" ","HOUSE_NO":"１４７號三樓","E_COORD97":164129.04000000001,"N_COORD97":2544524.3700000001,"ADDRESS":"安平路１４７號三樓","OBJECTID":625488},"geometry":{"x":164129.04000000004,"y":2544524.3699999992}},{"attributes":{"ID":625516,"DIS_CODE":0,"TOWNNAME":"安平區","LI":"港仔里","LIN":"11鄰","STREET":"延平街","SECT":" ","MAREA":" ","LANE":" ","ALLEY":" ","HOUSE_NO":"８３號二樓","E_COORD97":164161.04000000001,"N_COORD97":2544600.46,"ADDRESS":"延平街８３號二樓","OBJECTID":625489},"geometry":{"x":164161.04000000004,"y":2544600.4600000009}},{"attributes":{"ID":625517,"DIS_CODE":0,"TOWNNAME":"安平區","LI":"港仔里","LIN":"11鄰","STREET":"延平街","SECT":" ","MAREA":" ","LANE":" ","ALLEY":" ","HOUSE_NO":"８３號三樓","E_COORD97":164161.04000000001,"N_COORD97":2544600.46,"ADDRESS":"延平街８３號三樓","OBJECTID":625490},"geometry":{"x":164161.04000000004,"y":2544600.4600000009}},{"attributes":{"ID":625518,"DIS_CODE":0,"TOWNNAME":"安平區","LI":"港仔里","LIN":"11鄰","STREET":"延平街","SECT":" ","MAREA":" ","LANE":" ","ALLEY":" ","HOUSE_NO":"８３號四樓","E_COORD97":164161.04000000001,"N_COORD97":2544600.46,"ADDRESS":"延平街８３號四樓","OBJECTID":625491},"geometry":{"x":164161.04000000004,"y":2544600.4600000009}},{"attributes":{"ID":625519,"DIS_CODE":0,"TOWNNAME":"鹽水區","LI":"武廟里","LIN":"6鄰","STREET":"武廟路","SECT":" ","MAREA":" ","LANE":" ","ALLEY":" ","HOUSE_NO":"７６號五樓","E_COORD97":174924.57999999999,"N_COORD97":2580222.1000000001,"ADDRESS":"武廟路７６號五樓","OBJECTID":625492},"geometry":{"x":174924.58000000101,"y":2580222.0999999978}},{"attributes":{"ID":625520,"DIS_CODE":0,"TOWNNAME":"安平區","LI":"平通里","LIN":"4鄰","STREET":"慶平路","SECT":" ","MAREA":" ","LANE":" ","ALLEY":" ","HOUSE_NO":"５３９號十五樓之１４","E_COORD97":165071.10999999999,"N_COORD97":2544210.6600000001,"ADDRESS":"慶平路５３９號十五樓之１４","OBJECTID":625493},"geometry":{"x":165071.11000000034,"y":2544210.660000002}},{"attributes":{"ID":625521,"DIS_CODE":0,"TOWNNAME":"安平區","LI":"平通里","LIN":"4鄰","STREET":"慶平路","SECT":" ","MAREA":" ","LANE":" ","ALLEY":" ","HOUSE_NO":"５３９號十五樓之１５","E_COORD97":165071.10999999999,"N_COORD97":2544210.6600000001,"ADDRESS":"慶平路５３９號十五樓之１５","OBJECTID":625494},"geometry":{"x":165071.11000000034,"y":2544210.660000002}},{"attributes":{"ID":625522,"DIS_CODE":0,"TOWNNAME":"安平區","LI":"平通里","LIN":"4鄰","STREET":"慶平路","SECT":" ","MAREA":" ","LANE":" ","ALLEY":" ","HOUSE_NO":"５３９號十五樓之１６","E_COORD97":165071.10999999999,"N_COORD97":2544210.6600000001,"ADDRESS":"慶平路５３９號十五樓之１６","OBJECTID":625495},"geometry":{"x":165071.11000000034,"y":2544210.660000002}},{"attributes":{"ID":625523,"DIS_CODE":0,"TOWNNAME":"安平區","LI":"平通里","LIN":"4鄰","STREET":"慶平路","SECT":" ","MAREA":" ","LANE":" ","ALLEY":" ","HOUSE_NO":"５３９號十五樓之１７","E_COORD97":165071.10999999999,"N_COORD97":2544210.6600000001,"ADDRESS":"慶平路５３９號十五樓之１７","OBJECTID":625496},"geometry":{"x":165071.11000000034,"y":2544210.660000002}},{"attributes":{"ID":625524,"DIS_CODE":0,"TOWNNAME":"安平區","LI":"平通里","LIN":"4鄰","STREET":"慶平路","SECT":" ","MAREA":" ","LANE":" ","ALLEY":" ","HOUSE_NO":"５３９號十五樓之１８","E_COORD97":165071.10999999999,"N_COORD97":2544210.6600000001,"ADDRESS":"慶平路５３９號十五樓之１８","OBJECTID":625497},"geometry":{"x":165071.11000000034,"y":2544210.660000002}},{"attributes":{"ID":625525,"DIS_CODE":0,"TOWNNAME":"安平區","LI":"平通里","LIN":"7鄰","STREET":"慶平路","SECT":" ","MAREA":" ","LANE":" ","ALLEY":" ","HOUSE_NO":"５７１號六樓","E_COORD97":164895.81,"N_COORD97":2544246.7599999998,"ADDRESS":"慶平路５７１號六樓","OBJECTID":625498},"geometry":{"x":164895.81000000052,"y":2544246.7600000016}},{"attributes":{"ID":625526,"DIS_CODE":0,"TOWNNAME":"安平區","LI":"平通里","LIN":"7鄰","STREET":"慶平路","SECT":" ","MAREA":" ","LANE":" ","ALLEY":" ","HOUSE_NO":"５７１號四樓","E_COORD97":164895.81,"N_COORD97":2544246.7599999998,"ADDRESS":"慶平路５７１號四樓","OBJECTID":625499},"geometry":{"x":164895.81000000052,"y":2544246.7600000016}},{"attributes":{"ID":625527,"DIS_CODE":0,"TOWNNAME":"安平區","LI":"平通里","LIN":"7鄰","STREET":"慶平路","SECT":" ","MAREA":" ","LANE":" ","ALLEY":" ","HOUSE_NO":"５７３號七樓","E_COORD97":164884.76000000001,"N_COORD97":2544248.8999999999,"ADDRESS":"慶平路５７３號七樓","OBJECTID":625500},"geometry":{"x":164884.75999999978,"y":2544248.8999999985}},{"attributes":{"ID":625528,"DIS_CODE":0,"TOWNNAME":"安平區","LI":"平通里","LIN":"7鄰","STREET":"慶平路","SECT":" ","MAREA":" ","LANE":" ","ALLEY":" ","HOUSE_NO":"５７３號九樓","E_COORD97":164884.76000000001,"N_COORD97":2544248.8999999999,"ADDRESS":"慶平路５７３號九樓","OBJECTID":625501},"geometry":{"x":164884.75999999978,"y":2544248.8999999985}},{"attributes":{"ID":625529,"DIS_CODE":0,"TOWNNAME":"安平區","LI":"平通里","LIN":"7鄰","STREET":"慶平路","SECT":" ","MAREA":" ","LANE":" ","ALLEY":" ","HOUSE_NO":"５７３號八樓","E_COORD97":164884.76000000001,"N_COORD97":2544248.8999999999,"ADDRESS":"慶平路５７３號八樓","OBJECTID":625502},"geometry":{"x":164884.75999999978,"y":2544248.8999999985}},{"attributes":{"ID":625530,"DIS_CODE":0,"TOWNNAME":"安平區","LI":"平通里","LIN":"7鄰","STREET":"慶平路","SECT":" ","MAREA":" ","LANE":" ","ALLEY":" ","HOUSE_NO":"５７３號十一樓","E_COORD97":164884.76000000001,"N_COORD97":2544248.8999999999,"ADDRESS":"慶平路５７３號十一樓","OBJECTID":625503},"geometry":{"x":164884.75999999978,"y":2544248.8999999985}},{"attributes":{"ID":625531,"DIS_CODE":0,"TOWNNAME":"安平區","LI":"平通里","LIN":"7鄰","STREET":"慶平路","SECT":" ","MAREA":" ","LANE":" ","ALLEY":" ","HOUSE_NO":"５７３號十七樓","E_COORD97":164884.76000000001,"N_COORD97":2544248.8999999999,"ADDRESS":"慶平路５７３號十七樓","OBJECTID":625504},"geometry":{"x":164884.75999999978,"y":2544248.8999999985}},{"attributes":{"ID":625532,"DIS_CODE":0,"TOWNNAME":"安平區","LI":"怡平里","LIN":"9鄰","STREET":"慶平路","SECT":" ","MAREA":" ","LANE":" ","ALLEY":" ","HOUSE_NO":"１９１號三樓之１","E_COORD97":165822.95999999999,"N_COORD97":2544167.3799999999,"ADDRESS":"慶平路１９１號三樓之１","OBJECTID":625505},"geometry":{"x":165822.95999999996,"y":2544167.3800000008}},{"attributes":{"ID":625533,"DIS_CODE":0,"TOWNNAME":"安平區","LI":"建平里","LIN":" ","STREET":"慶平路","SECT":" ","MAREA":" ","LANE":" ","ALLEY":" ","HOUSE_NO":"８８號十二樓之１","E_COORD97":166131.37,"N_COORD97":2544197.7000000002,"ADDRESS":"慶平路８８號十二樓之１","OBJECTID":625506},"geometry":{"x":166131.37000000104,"y":2544197.6999999993}},{"attributes":{"ID":625534,"DIS_CODE":0,"TOWNNAME":"安平區","LI":"建平里","LIN":" ","STREET":"慶平路","SECT":" ","MAREA":" ","LANE":" ","ALLEY":" ","HOUSE_NO":"８８號十二樓之２","E_COORD97":166131.37,"N_COORD97":2544197.7000000002,"ADDRESS":"慶平路８８號十二樓之２","OBJECTID":625507},"geometry":{"x":166131.37000000104,"y":2544197.6999999993}},{"attributes":{"ID":625535,"DIS_CODE":0,"TOWNNAME":"安平區","LI":"建平里","LIN":" ","STREET":"永華路","SECT":"二段","MAREA":" ","LANE":" ","ALLEY":" ","HOUSE_NO":"２４８號十樓之７","E_COORD97":165931.70999999999,"N_COORD97":2543434.98,"ADDRESS":"永華路二段２４８號十樓之７","OBJECTID":625508},"geometry":{"x":165931.70999999903,"y":2543434.9800000042}},{"attributes":{"ID":625536,"DIS_CODE":0,"TOWNNAME":"安平區","LI":"怡平里","LIN":" ","STREET":"慶平路","SECT":" ","MAREA":" ","LANE":" ","ALLEY":" ","HOUSE_NO":"２００號四樓之１６","E_COORD97":165800.79999999999,"N_COORD97":2544196.79,"ADDRESS":"慶平路２００號四樓之１６","OBJECTID":625509},"geometry":{"x":165800.80000000075,"y":2544196.7899999991}},{"attributes":{"ID":625537,"DIS_CODE":0,"TOWNNAME":"安平區","LI":"怡平里","LIN":" ","STREET":"慶平路","SECT":" ","MAREA":" ","LANE":" ","ALLEY":" ","HOUSE_NO":"２００號四樓之３","E_COORD97":165800.79999999999,"N_COORD97":2544196.79,"ADDRESS":"慶平路２００號四樓之３","OBJECTID":625510},"geometry":{"x":165800.80000000075,"y":2544196.7899999991}},{"attributes":{"ID":625538,"DIS_CODE":0,"TOWNNAME":"安平區","LI":"港仔里","LIN":" ","STREET":"安平路","SECT":" ","MAREA":" ","LANE":" ","ALLEY":" ","HOUSE_NO":"９７之１３號一樓之１","E_COORD97":164314.75,"N_COORD97":2544393.73,"ADDRESS":"安平路９７之１３號一樓之１","OBJECTID":625511},"geometry":{"x":164314.75000000093,"y":2544393.7300000023}},{"attributes":{"ID":625539,"DIS_CODE":0,"TOWNNAME":"安平區","LI":"港仔里","LIN":" ","STREET":"安平路","SECT":" ","MAREA":" ","LANE":" ","ALLEY":" ","HOUSE_NO":"９７之１３號四樓之１","E_COORD97":164312.75,"N_COORD97":2544386.6400000001,"ADDRESS":"安平路９７之１３號四樓之１","OBJECTID":625512},"geometry":{"x":164312.75000000186,"y":2544386.6400000043}},{"attributes":{"ID":625540,"DIS_CODE":0,"TOWNNAME":"安平區","LI":"億載里","LIN":" ","STREET":"郡平路","SECT":" ","MAREA":" ","LANE":" ","ALLEY":" ","HOUSE_NO":"３８８號九樓之５","E_COORD97":164024.29999999999,"N_COORD97":2543382.0600000001,"ADDRESS":"郡平路３８８號九樓之５","OBJECTID":625513},"geometry":{"x":164024.30000000075,"y":2543382.0600000005}},{"attributes":{"ID":625541,"DIS_CODE":0,"TOWNNAME":"安平區","LI":"億載里","LIN":" ","STREET":"郡平路","SECT":" ","MAREA":" ","LANE":" ","ALLEY":" ","HOUSE_NO":"３８８號二樓之２","E_COORD97":164024.29999999999,"N_COORD97":2543382.0600000001,"ADDRESS":"郡平路３８８號二樓之２","OBJECTID":625514},"geometry":{"x":164024.30000000075,"y":2543382.0600000005}},{"attributes":{"ID":625542,"DIS_CODE":0,"TOWNNAME":"安平區","LI":"億載里","LIN":" ","STREET":"郡平路","SECT":" ","MAREA":" ","LANE":" ","ALLEY":" ","HOUSE_NO":"３８８號十一樓之１","E_COORD97":164024.29999999999,"N_COORD97":2543382.0600000001,"ADDRESS":"郡平路３８８號十一樓之１","OBJECTID":625515},"geometry":{"x":164024.30000000075,"y":2543382.0600000005}},{"attributes":{"ID":625543,"DIS_CODE":0,"TOWNNAME":"安平區","LI":"億載里","LIN":" ","STREET":"郡平路","SECT":" ","MAREA":" ","LANE":" ","ALLEY":" ","HOUSE_NO":"３８８號六樓之１","E_COORD97":164024.29999999999,"N_COORD97":2543382.0600000001,"ADDRESS":"郡平路３８８號六樓之１","OBJECTID":625516},"geometry":{"x":164024.30000000075,"y":2543382.0600000005}},{"attributes":{"ID":625544,"DIS_CODE":0,"TOWNNAME":"安平區","LI":"億載里","LIN":" ","STREET":"郡平路","SECT":" ","MAREA":" ","LANE":" ","ALLEY":" ","HOUSE_NO":"３８８號一樓之１","E_COORD97":164024.29999999999,"N_COORD97":2543382.0600000001,"ADDRESS":"郡平路３８８號一樓之１","OBJECTID":625517},"geometry":{"x":164024.30000000075,"y":2543382.0600000005}},{"attributes":{"ID":625545,"DIS_CODE":0,"TOWNNAME":"安平區","LI":"國平里","LIN":" ","STREET":"建平七街","SECT":" ","MAREA":" ","LANE":" ","ALLEY":" ","HOUSE_NO":"６７２號二樓","E_COORD97":164907.07000000001,"N_COORD97":2543422.5800000001,"ADDRESS":"建平七街６７２號二樓","OBJECTID":625518},"geometry":{"x":164907.0700000003,"y":2543422.5800000001}},{"attributes":{"ID":625546,"DIS_CODE":0,"TOWNNAME":"安平區","LI":"國平里","LIN":" ","STREET":"建平七街","SECT":" ","MAREA":" ","LANE":" ","ALLEY":" ","HOUSE_NO":"７２６號二樓","E_COORD97":164793.42000000001,"N_COORD97":2543439.8500000001,"ADDRESS":"建平七街７２６號二樓","OBJECTID":625519},"geometry":{"x":164793.42000000086,"y":2543439.8500000015}},{"attributes":{"ID":625547,"DIS_CODE":0,"TOWNNAME":"安平區","LI":"平安里","LIN":"4鄰","STREET":"安平路","SECT":" ","MAREA":" ","LANE":" ","ALLEY":" ","HOUSE_NO":"１２６號一樓之５","E_COORD97":166273.17000000001,"N_COORD97":2544343.1400000001,"ADDRESS":"安平路１２６號一樓之５","OBJECTID":625520},"geometry":{"x":166273.17000000086,"y":2544343.1400000025}},{"attributes":{"ID":625548,"DIS_CODE":0,"TOWNNAME":"北區","LI":"裕民里","LIN":"4鄰","STREET":"臨安路","SECT":"二段","MAREA":" ","LANE":" ","ALLEY":" ","HOUSE_NO":"９４號四樓之５","E_COORD97":167783.44,"N_COORD97":2544847.5099999998,"ADDRESS":"臨安路二段９４號四樓之５","OBJECTID":625521},"geometry":{"x":167783.43999999948,"y":2544847.5099999998}},{"attributes":{"ID":625549,"DIS_CODE":0,"TOWNNAME":"北區","LI":"裕民里","LIN":"4鄰","STREET":"臨安路","SECT":"二段","MAREA":" ","LANE":" ","ALLEY":" ","HOUSE_NO":"９４號四樓之６","E_COORD97":167783.44,"N_COORD97":2544847.5099999998,"ADDRESS":"臨安路二段９４號四樓之６","OBJECTID":625522},"geometry":{"x":167783.43999999948,"y":2544847.5099999998}},{"attributes":{"ID":625550,"DIS_CODE":0,"TOWNNAME":"北區","LI":"裕民里","LIN":"4鄰","STREET":"臨安路","SECT":"二段","MAREA":" ","LANE":" ","ALLEY":" ","HOUSE_NO":"９４號四樓之７","E_COORD97":167783.44,"N_COORD97":2544847.5099999998,"ADDRESS":"臨安路二段９４號四樓之７","OBJECTID":625523},"geometry":{"x":167783.43999999948,"y":2544847.5099999998}},{"attributes":{"ID":625551,"DIS_CODE":0,"TOWNNAME":"東區","LI":"德光里","LIN":"4鄰","STREET":"崇德路","SECT":" ","MAREA":" ","LANE":" ","ALLEY":" ","HOUSE_NO":"６４號六樓","E_COORD97":169806.54999999999,"N_COORD97":2542365.3999999999,"ADDRESS":"崇德路６４號六樓","OBJECTID":625524},"geometry":{"x":169806.55000000075,"y":2542365.4000000022}},{"attributes":{"ID":625552,"DIS_CODE":0,"TOWNNAME":"北區","LI":"裕民里","LIN":"4鄰","STREET":"臨安路","SECT":"二段","MAREA":" ","LANE":" ","ALLEY":" ","HOUSE_NO":"９４號四樓之８","E_COORD97":167783.44,"N_COORD97":2544847.5099999998,"ADDRESS":"臨安路二段９４號四樓之８","OBJECTID":625525},"geometry":{"x":167783.43999999948,"y":2544847.5099999998}},{"attributes":{"ID":625553,"DIS_CODE":0,"TOWNNAME":"北區","LI":"裕民里","LIN":"4鄰","STREET":"臨安路","SECT":"二段","MAREA":" ","LANE":" ","ALLEY":" ","HOUSE_NO":"９４號二樓之１","E_COORD97":167783.44,"N_COORD97":2544847.5099999998,"ADDRESS":"臨安路二段９４號二樓之１","OBJECTID":625526},"geometry":{"x":167783.43999999948,"y":2544847.5099999998}},{"attributes":{"ID":625554,"DIS_CODE":0,"TOWNNAME":"北區","LI":"裕民里","LIN":"4鄰","STREET":"臨安路","SECT":"二段","MAREA":" ","LANE":" ","ALLEY":" ","HOUSE_NO":"９４號三樓之１","E_COORD97":167783.44,"N_COORD97":2544847.5099999998,"ADDRESS":"臨安路二段９４號三樓之１","OBJECTID":625527},"geometry":{"x":167783.43999999948,"y":2544847.5099999998}},{"attributes":{"ID":625555,"DIS_CODE":0,"TOWNNAME":"北區","LI":"裕民里","LIN":"4鄰","STREET":"臨安路","SECT":"二段","MAREA":" ","LANE":" ","ALLEY":" ","HOUSE_NO":"９４號三樓之２","E_COORD97":167783.44,"N_COORD97":2544847.5099999998,"ADDRESS":"臨安路二段９４號三樓之２","OBJECTID":625528},"geometry":{"x":167783.43999999948,"y":2544847.5099999998}},{"attributes":{"ID":625556,"DIS_CODE":0,"TOWNNAME":"北區","LI":"裕民里","LIN":"4鄰","STREET":"臨安路","SECT":"二段","MAREA":" ","LANE":" ","ALLEY":" ","HOUSE_NO":"９４號三樓之３","E_COORD97":167783.44,"N_COORD97":2544847.5099999998,"ADDRESS":"臨安路二段９４號三樓之３","OBJECTID":625529},"geometry":{"x":167783.43999999948,"y":2544847.5099999998}},{"attributes":{"ID":625557,"DIS_CODE":0,"TOWNNAME":"北區","LI":"裕民里","LIN":"4鄰","STREET":"臨安路","SECT":"二段","MAREA":" ","LANE":" ","ALLEY":" ","HOUSE_NO":"９４號三樓之４","E_COORD97":167783.44,"N_COORD97":2544847.5099999998,"ADDRESS":"臨安路二段９４號三樓之４","OBJECTID":625530},"geometry":{"x":167783.43999999948,"y":2544847.5099999998}},{"attributes":{"ID":625558,"DIS_CODE":0,"TOWNNAME":"北區","LI":"裕民里","LIN":"4鄰","STREET":"臨安路","SECT":"二段","MAREA":" ","LANE":" ","ALLEY":" ","HOUSE_NO":"９４號三樓之５","E_COORD97":167783.44,"N_COORD97":2544847.5099999998,"ADDRESS":"臨安路二段９４號三樓之５","OBJECTID":625531},"geometry":{"x":167783.43999999948,"y":2544847.5099999998}},{"attributes":{"ID":625559,"DIS_CODE":0,"TOWNNAME":"北區","LI":"裕民里","LIN":"4鄰","STREET":"臨安路","SECT":"二段","MAREA":" ","LANE":" ","ALLEY":" ","HOUSE_NO":"９４號三樓之６","E_COORD97":167783.44,"N_COORD97":2544847.5099999998,"ADDRESS":"臨安路二段９４號三樓之６","OBJECTID":625532},"geometry":{"x":167783.43999999948,"y":2544847.5099999998}},{"attributes":{"ID":625560,"DIS_CODE":0,"TOWNNAME":"南區","LI":"大林里","LIN":"4鄰","STREET":"大同路","SECT":"二段","MAREA":" ","LANE":" ","ALLEY":" ","HOUSE_NO":"４０２號二樓","E_COORD97":169406.48000000001,"N_COORD97":2541712.0600000001,"ADDRESS":"大同路二段４０２號二樓","OBJECTID":625533},"geometry":{"x":169406.48000000045,"y":2541712.0600000042}},{"attributes":{"ID":625561,"DIS_CODE":0,"TOWNNAME":"南區","LI":"大林里","LIN":"4鄰","STREET":"大同路","SECT":"二段","MAREA":" ","LANE":" ","ALLEY":" ","HOUSE_NO":"４０２號三樓","E_COORD97":169406.48000000001,"N_COORD97":2541712.0600000001,"ADDRESS":"大同路二段４０２號三樓","OBJECTID":625534},"geometry":{"x":169406.48000000045,"y":2541712.0600000042}},{"attributes":{"ID":625562,"DIS_CODE":0,"TOWNNAME":"南區","LI":"大林里","LIN":"4鄰","STREET":"大同路","SECT":"二段","MAREA":" ","LANE":" ","ALLEY":" ","HOUSE_NO":"４０２號五樓","E_COORD97":169406.48000000001,"N_COORD97":2541712.0600000001,"ADDRESS":"大同路二段４０２號五樓","OBJECTID":625535},"geometry":{"x":169406.48000000045,"y":2541712.0600000042}},{"attributes":{"ID":625563,"DIS_CODE":0,"TOWNNAME":"南區","LI":"大林里","LIN":"4鄰","STREET":"大同路","SECT":"二段","MAREA":" ","LANE":" ","ALLEY":" ","HOUSE_NO":"４０２號四樓","E_COORD97":169406.48000000001,"N_COORD97":2541712.0600000001,"ADDRESS":"大同路二段４０２號四樓","OBJECTID":625536},"geometry":{"x":169406.48000000045,"y":2541712.0600000042}},{"attributes":{"ID":625564,"DIS_CODE":0,"TOWNNAME":"南區","LI":"再興里","LIN":"6鄰","STREET":"三官路","SECT":" ","MAREA":" ","LANE":" ","ALLEY":" ","HOUSE_NO":"２０號四樓之２","E_COORD97":167323.42999999999,"N_COORD97":2542374.8999999999,"ADDRESS":"三官路２０號四樓之２","OBJECTID":625537},"geometry":{"x":167323.43000000156,"y":2542374.9000000022}},{"attributes":{"ID":625565,"DIS_CODE":0,"TOWNNAME":"南區","LI":"再興里","LIN":"6鄰","STREET":"三官路","SECT":" ","MAREA":" ","LANE":" ","ALLEY":" ","HOUSE_NO":"２０號四樓之３","E_COORD97":167323.42999999999,"N_COORD97":2542374.8999999999,"ADDRESS":"三官路２０號四樓之３","OBJECTID":625538},"geometry":{"x":167323.43000000156,"y":2542374.9000000022}},{"attributes":{"ID":625566,"DIS_CODE":0,"TOWNNAME":"東區","LI":"德光里","LIN":"4鄰","STREET":"崇德路","SECT":" ","MAREA":" ","LANE":" ","ALLEY":" ","HOUSE_NO":"５８號四樓","E_COORD97":169801.97,"N_COORD97":2542374.7799999998,"ADDRESS":"崇德路５８號四樓","OBJECTID":625539},"geometry":{"x":169801.97000000067,"y":2542374.7800000012}},{"attributes":{"ID":625567,"DIS_CODE":0,"TOWNNAME":"南區","LI":"新興里","LIN":"4鄰","STREET":"健康路","SECT":"二段","MAREA":" ","LANE":" ","ALLEY":" ","HOUSE_NO":"５６號七樓之４","E_COORD97":167587.47,"N_COORD97":2542472.9500000002,"ADDRESS":"健康路二段５６號七樓之４","OBJECTID":625540},"geometry":{"x":167587.46999999974,"y":2542472.9499999993}},{"attributes":{"ID":625568,"DIS_CODE":0,"TOWNNAME":"南區","LI":"新興里","LIN":"4鄰","STREET":"健康路","SECT":"二段","MAREA":" ","LANE":" ","ALLEY":" ","HOUSE_NO":"５６號一樓之１","E_COORD97":167587.47,"N_COORD97":2542472.9500000002,"ADDRESS":"健康路二段５６號一樓之１","OBJECTID":625541},"geometry":{"x":167587.46999999974,"y":2542472.9499999993}},{"attributes":{"ID":625569,"DIS_CODE":0,"TOWNNAME":"南區","LI":"新興里","LIN":"4鄰","STREET":"健康路","SECT":"二段","MAREA":" ","LANE":" ","ALLEY":" ","HOUSE_NO":"５６號七樓之１","E_COORD97":167587.47,"N_COORD97":2542472.9500000002,"ADDRESS":"健康路二段５６號七樓之１","OBJECTID":625542},"geometry":{"x":167587.46999999974,"y":2542472.9499999993}},{"attributes":{"ID":625570,"DIS_CODE":0,"TOWNNAME":"南區","LI":"新興里","LIN":"4鄰","STREET":"健康路","SECT":"二段","MAREA":" ","LANE":" ","ALLEY":" ","HOUSE_NO":"５６號七樓之２","E_COORD97":167587.47,"N_COORD97":2542472.9500000002,"ADDRESS":"健康路二段５６號七樓之２","OBJECTID":625543},"geometry":{"x":167587.46999999974,"y":2542472.9499999993}},{"attributes":{"ID":625571,"DIS_CODE":0,"TOWNNAME":"南區","LI":"新興里","LIN":"4鄰","STREET":"健康路","SECT":"二段","MAREA":" ","LANE":" ","ALLEY":" ","HOUSE_NO":"５６號六樓之３","E_COORD97":167587.47,"N_COORD97":2542472.9500000002,"ADDRESS":"健康路二段５６號六樓之３","OBJECTID":625544},"geometry":{"x":167587.46999999974,"y":2542472.9499999993}},{"attributes":{"ID":625572,"DIS_CODE":0,"TOWNNAME":"南區","LI":"新興里","LIN":"4鄰","STREET":"健康路","SECT":"二段","MAREA":" ","LANE":" ","ALLEY":" ","HOUSE_NO":"５６號六樓之４","E_COORD97":167587.47,"N_COORD97":2542472.9500000002,"ADDRESS":"健康路二段５６號六樓之４","OBJECTID":625545},"geometry":{"x":167587.46999999974,"y":2542472.9499999993}},{"attributes":{"ID":625573,"DIS_CODE":0,"TOWNNAME":"南區","LI":"新興里","LIN":"4鄰","STREET":"健康路","SECT":"二段","MAREA":" ","LANE":" ","ALLEY":" ","HOUSE_NO":"５６號六樓之５","E_COORD97":167587.47,"N_COORD97":2542472.9500000002,"ADDRESS":"健康路二段５６號六樓之５","OBJECTID":625546},"geometry":{"x":167587.46999999974,"y":2542472.9499999993}},{"attributes":{"ID":625574,"DIS_CODE":0,"TOWNNAME":"南區","LI":"新興里","LIN":"4鄰","STREET":"健康路","SECT":"二段","MAREA":" ","LANE":" ","ALLEY":" ","HOUSE_NO":"５６號六樓之６","E_COORD97":167587.47,"N_COORD97":2542472.9500000002,"ADDRESS":"健康路二段５６號六樓之６","OBJECTID":625547},"geometry":{"x":167587.46999999974,"y":2542472.9499999993}},{"attributes":{"ID":625575,"DIS_CODE":0,"TOWNNAME":"南區","LI":"新興里","LIN":"4鄰","STREET":"健康路","SECT":"二段","MAREA":" ","LANE":" ","ALLEY":" ","HOUSE_NO":"５６號六樓之７","E_COORD97":167587.47,"N_COORD97":2542472.9500000002,"ADDRESS":"健康路二段５６號六樓之７","OBJECTID":625548},"geometry":{"x":167587.46999999974,"y":2542472.9499999993}},{"attributes":{"ID":625576,"DIS_CODE":0,"TOWNNAME":"南區","LI":"新興里","LIN":"4鄰","STREET":"健康路","SECT":"二段","MAREA":" ","LANE":" ","ALLEY":" ","HOUSE_NO":"５６號六樓之８","E_COORD97":167587.47,"N_COORD97":2542472.9500000002,"ADDRESS":"健康路二段５６號六樓之８","OBJECTID":625549},"geometry":{"x":167587.46999999974,"y":2542472.9499999993}},{"attributes":{"ID":625577,"DIS_CODE":0,"TOWNNAME":"南區","LI":"新興里","LIN":"4鄰","STREET":"健康路","SECT":"二段","MAREA":" ","LANE":" ","ALLEY":" ","HOUSE_NO":"５６號四樓之１","E_COORD97":167587.47,"N_COORD97":2542472.9500000002,"ADDRESS":"健康路二段５６號四樓之１","OBJECTID":625550},"geometry":{"x":167587.46999999974,"y":2542472.9499999993}},{"attributes":{"ID":625578,"DIS_CODE":0,"TOWNNAME":"南區","LI":"新興里","LIN":"4鄰","STREET":"健康路","SECT":"二段","MAREA":" ","LANE":" ","ALLEY":" ","HOUSE_NO":"５６號四樓之２","E_COORD97":167587.47,"N_COORD97":2542472.9500000002,"ADDRESS":"健康路二段５６號四樓之２","OBJECTID":625551},"geometry":{"x":167587.46999999974,"y":2542472.9499999993}},{"attributes":{"ID":625579,"DIS_CODE":0,"TOWNNAME":"南區","LI":"新興里","LIN":"4鄰","STREET":"健康路","SECT":"二段","MAREA":" ","LANE":" ","ALLEY":" ","HOUSE_NO":"５６號四樓之３","E_COORD97":167587.47,"N_COORD97":2542472.9500000002,"ADDRESS":"健康路二段５６號四樓之３","OBJECTID":625552},"geometry":{"x":167587.46999999974,"y":2542472.9499999993}},{"attributes":{"ID":625580,"DIS_CODE":0,"TOWNNAME":"南區","LI":"新興里","LIN":"4鄰","STREET":"健康路","SECT":"二段","MAREA":" ","LANE":" ","ALLEY":" ","HOUSE_NO":"５６號四樓之５","E_COORD97":167587.47,"N_COORD97":2542472.9500000002,"ADDRESS":"健康路二段５６號四樓之５","OBJECTID":625553},"geometry":{"x":167587.46999999974,"y":2542472.9499999993}},{"attributes":{"ID":625581,"DIS_CODE":0,"TOWNNAME":"南區","LI":"新興里","LIN":"4鄰","STREET":"健康路","SECT":"二段","MAREA":" ","LANE":" ","ALLEY":" ","HOUSE_NO":"５６號四樓之６","E_COORD97":167587.47,"N_COORD97":2542472.9500000002,"ADDRESS":"健康路二段５６號四樓之６","OBJECTID":625554},"geometry":{"x":167587.46999999974,"y":2542472.9499999993}},{"attributes":{"ID":625582,"DIS_CODE":0,"TOWNNAME":"南區","LI":"新興里","LIN":"4鄰","STREET":"健康路","SECT":"二段","MAREA":" ","LANE":" ","ALLEY":" ","HOUSE_NO":"５６號四樓之７","E_COORD97":167587.47,"N_COORD97":2542472.9500000002,"ADDRESS":"健康路二段５６號四樓之７","OBJECTID":625555},"geometry":{"x":167587.46999999974,"y":2542472.9499999993}},{"attributes":{"ID":625583,"DIS_CODE":0,"TOWNNAME":"南區","LI":"新興里","LIN":"4鄰","STREET":"健康路","SECT":"二段","MAREA":" ","LANE":" ","ALLEY":" ","HOUSE_NO":"５６號四樓之８","E_COORD97":167587.47,"N_COORD97":2542472.9500000002,"ADDRESS":"健康路二段５６號四樓之８","OBJECTID":625556},"geometry":{"x":167587.46999999974,"y":2542472.9499999993}},{"attributes":{"ID":625584,"DIS_CODE":0,"TOWNNAME":"南區","LI":"新興里","LIN":"4鄰","STREET":"健康路","SECT":"二段","MAREA":" ","LANE":" ","ALLEY":" ","HOUSE_NO":"５６號一樓之２","E_COORD97":167583.42000000001,"N_COORD97":2542473.04,"ADDRESS":"健康路二段５６號一樓之２","OBJECTID":625557},"geometry":{"x":167583.42000000086,"y":2542473.0399999991}},{"attributes":{"ID":625585,"DIS_CODE":0,"TOWNNAME":"南區","LI":"新興里","LIN":"4鄰","STREET":"健康路","SECT":"二段","MAREA":" ","LANE":" ","ALLEY":" ","HOUSE_NO":"５６號一樓之３","E_COORD97":167578.28,"N_COORD97":2542472.9500000002,"ADDRESS":"健康路二段５６號一樓之３","OBJECTID":625558},"geometry":{"x":167578.28000000119,"y":2542472.9499999993}},{"attributes":{"ID":625586,"DIS_CODE":0,"TOWNNAME":"南區","LI":"新興里","LIN":"4鄰","STREET":"健康路","SECT":"二段","MAREA":" ","LANE":" ","ALLEY":" ","HOUSE_NO":"５６號一樓之４","E_COORD97":167572.54999999999,"N_COORD97":2542473.2000000002,"ADDRESS":"健康路二段５６號一樓之４","OBJECTID":625559},"geometry":{"x":167572.55000000075,"y":2542473.2000000011}},{"attributes":{"ID":625587,"DIS_CODE":0,"TOWNNAME":"北區","LI":"成德里","LIN":"19鄰","STREET":"西門路","SECT":"四段","MAREA":" ","LANE":" ","ALLEY":" ","HOUSE_NO":"３６７號七樓","E_COORD97":169052.76999999999,"N_COORD97":2546294.5299999998,"ADDRESS":"西門路四段３６７號七樓","OBJECTID":625560},"geometry":{"x":169052.76999999955,"y":2546294.5299999993}},{"attributes":{"ID":625588,"DIS_CODE":0,"TOWNNAME":"北區","LI":"成德里","LIN":"19鄰","STREET":"西門路","SECT":"四段","MAREA":" ","LANE":" ","ALLEY":" ","HOUSE_NO":"３６７號九樓","E_COORD97":169052.76999999999,"N_COORD97":2546294.5299999998,"ADDRESS":"西門路四段３６７號九樓","OBJECTID":625561},"geometry":{"x":169052.76999999955,"y":2546294.5299999993}},{"attributes":{"ID":625589,"DIS_CODE":0,"TOWNNAME":"北區","LI":"華興里","LIN":"1鄰","STREET":"開南街","SECT":" ","MAREA":" ","LANE":" ","ALLEY":" ","HOUSE_NO":"７號五樓","E_COORD97":170301.20000000001,"N_COORD97":2545396.1499999999,"ADDRESS":"開南街７號五樓","OBJECTID":625562},"geometry":{"x":170301.20000000112,"y":2545396.1500000004}},{"attributes":{"ID":625590,"DIS_CODE":0,"TOWNNAME":"北區","LI":"成德里","LIN":"19鄰","STREET":"西門路","SECT":"四段","MAREA":" ","LANE":" ","ALLEY":" ","HOUSE_NO":"３６７號二樓","E_COORD97":169052.76999999999,"N_COORD97":2546294.5299999998,"ADDRESS":"西門路四段３６７號二樓","OBJECTID":625563},"geometry":{"x":169052.76999999955,"y":2546294.5299999993}},{"attributes":{"ID":625591,"DIS_CODE":0,"TOWNNAME":"北區","LI":"成德里","LIN":"19鄰","STREET":"西門路","SECT":"四段","MAREA":" ","LANE":" ","ALLEY":" ","HOUSE_NO":"３６７號八樓","E_COORD97":169052.76999999999,"N_COORD97":2546294.5299999998,"ADDRESS":"西門路四段３６７號八樓","OBJECTID":625564},"geometry":{"x":169052.76999999955,"y":2546294.5299999993}},{"attributes":{"ID":625592,"DIS_CODE":0,"TOWNNAME":"北區","LI":"成德里","LIN":"19鄰","STREET":"西門路","SECT":"四段","MAREA":" ","LANE":" ","ALLEY":" ","HOUSE_NO":"３６７號十一樓","E_COORD97":169052.76999999999,"N_COORD97":2546294.5299999998,"ADDRESS":"西門路四段３６７號十一樓","OBJECTID":625565},"geometry":{"x":169052.76999999955,"y":2546294.5299999993}},{"attributes":{"ID":625593,"DIS_CODE":0,"TOWNNAME":"北區","LI":"大和里","LIN":"22鄰","STREET":"大港街","SECT":" ","MAREA":" ","LANE":" ","ALLEY":" ","HOUSE_NO":"１１２號四樓","E_COORD97":167049.39999999999,"N_COORD97":2546043,"ADDRESS":"大港街１１２號四樓","OBJECTID":625566},"geometry":{"x":167049.40000000037,"y":2546043.0000000019}},{"attributes":{"ID":625594,"DIS_CODE":0,"TOWNNAME":"北區","LI":"公園里","LIN":"17鄰","STREET":"成功路","SECT":" ","MAREA":" ","LANE":" ","ALLEY":" ","HOUSE_NO":"３８號四樓","E_COORD97":168817.85999999999,"N_COORD97":2544283.3399999999,"ADDRESS":"成功路３８號四樓","OBJECTID":625567},"geometry":{"x":168817.86000000034,"y":2544283.3400000017}},{"attributes":{"ID":625595,"DIS_CODE":0,"TOWNNAME":"北區","LI":"華興里","LIN":"1鄰","STREET":"開南街","SECT":" ","MAREA":" ","LANE":" ","ALLEY":" ","HOUSE_NO":"９號五樓","E_COORD97":170305.23000000001,"N_COORD97":2545399.4399999999,"ADDRESS":"開南街９號五樓","OBJECTID":625568},"geometry":{"x":170305.23000000045,"y":2545399.4399999995}},{"attributes":{"ID":625596,"DIS_CODE":0,"TOWNNAME":"北區","LI":"公園里","LIN":"19鄰","STREET":"公園路","SECT":" ","MAREA":" ","LANE":" ","ALLEY":" ","HOUSE_NO":"１２８號四樓之２６","E_COORD97":168771.01999999999,"N_COORD97":2544380.0600000001,"ADDRESS":"公園路１２８號四樓之２６","OBJECTID":625569},"geometry":{"x":168771.02000000048,"y":2544380.0600000005}},{"attributes":{"ID":625597,"DIS_CODE":0,"TOWNNAME":"北區","LI":"公園里","LIN":"19鄰","STREET":"公園路","SECT":" ","MAREA":" ","LANE":" ","ALLEY":" ","HOUSE_NO":"１２８號四樓之２７","E_COORD97":168771.01999999999,"N_COORD97":2544380.0600000001,"ADDRESS":"公園路１２８號四樓之２７","OBJECTID":625570},"geometry":{"x":168771.02000000048,"y":2544380.0600000005}},{"attributes":{"ID":625598,"DIS_CODE":0,"TOWNNAME":"北區","LI":"公園里","LIN":"19鄰","STREET":"公園路","SECT":" ","MAREA":" ","LANE":" ","ALLEY":" ","HOUSE_NO":"１２８號四樓之２８","E_COORD97":168771.01999999999,"N_COORD97":2544380.0600000001,"ADDRESS":"公園路１２８號四樓之２８","OBJECTID":625571},"geometry":{"x":168771.02000000048,"y":2544380.0600000005}},{"attributes":{"ID":625599,"DIS_CODE":0,"TOWNNAME":"北區","LI":"公園里","LIN":"19鄰","STREET":"公園路","SECT":" ","MAREA":" ","LANE":" ","ALLEY":" ","HOUSE_NO":"１２８號四樓之２９","E_COORD97":168771.01999999999,"N_COORD97":2544380.0600000001,"ADDRESS":"公園路１２８號四樓之２９","OBJECTID":625572},"geometry":{"x":168771.02000000048,"y":2544380.0600000005}},{"attributes":{"ID":625600,"DIS_CODE":0,"TOWNNAME":"北區","LI":"公園里","LIN":"19鄰","STREET":"公園路","SECT":" ","MAREA":" ","LANE":" ","ALLEY":" ","HOUSE_NO":"１２８號四樓之３","E_COORD97":168771.01999999999,"N_COORD97":2544380.0600000001,"ADDRESS":"公園路１２８號四樓之３","OBJECTID":625573},"geometry":{"x":168771.02000000048,"y":2544380.0600000005}},{"attributes":{"ID":625601,"DIS_CODE":0,"TOWNNAME":"北區","LI":"公園里","LIN":"19鄰","STREET":"公園路","SECT":" ","MAREA":" ","LANE":" ","ALLEY":" ","HOUSE_NO":"１２８號四樓之３０","E_COORD97":168771.01999999999,"N_COORD97":2544380.0600000001,"ADDRESS":"公園路１２８號四樓之３０","OBJECTID":625574},"geometry":{"x":168771.02000000048,"y":2544380.0600000005}},{"attributes":{"ID":625602,"DIS_CODE":0,"TOWNNAME":"北區","LI":"公園里","LIN":"19鄰","STREET":"公園路","SECT":" ","MAREA":" ","LANE":" ","ALLEY":" ","HOUSE_NO":"１２８號四樓之３１","E_COORD97":168771.01999999999,"N_COORD97":2544380.0600000001,"ADDRESS":"公園路１２８號四樓之３１","OBJECTID":625575},"geometry":{"x":168771.02000000048,"y":2544380.0600000005}},{"attributes":{"ID":625603,"DIS_CODE":0,"TOWNNAME":"北區","LI":"公園里","LIN":"19鄰","STREET":"公園路","SECT":" ","MAREA":" ","LANE":" ","ALLEY":" ","HOUSE_NO":"１２８號四樓之３２","E_COORD97":168771.01999999999,"N_COORD97":2544380.0600000001,"ADDRESS":"公園路１２８號四樓之３２","OBJECTID":625576},"geometry":{"x":168771.02000000048,"y":2544380.0600000005}},{"attributes":{"ID":625604,"DIS_CODE":0,"TOWNNAME":"北區","LI":"公園里","LIN":"19鄰","STREET":"公園路","SECT":" ","MAREA":" ","LANE":" ","ALLEY":" ","HOUSE_NO":"１２８號四樓之３３","E_COORD97":168771.01999999999,"N_COORD97":2544380.0600000001,"ADDRESS":"公園路１２８號四樓之３３","OBJECTID":625577},"geometry":{"x":168771.02000000048,"y":2544380.0600000005}},{"attributes":{"ID":625605,"DIS_CODE":0,"TOWNNAME":"北區","LI":"公園里","LIN":"19鄰","STREET":"公園路","SECT":" ","MAREA":" ","LANE":" ","ALLEY":" ","HOUSE_NO":"１２８號四樓之３４","E_COORD97":168771.01999999999,"N_COORD97":2544380.0600000001,"ADDRESS":"公園路１２８號四樓之３４","OBJECTID":625578},"geometry":{"x":168771.02000000048,"y":2544380.0600000005}},{"attributes":{"ID":625606,"DIS_CODE":0,"TOWNNAME":"北區","LI":"公園里","LIN":"19鄰","STREET":"公園路","SECT":" ","MAREA":" ","LANE":" ","ALLEY":" ","HOUSE_NO":"１２８號四樓之３５","E_COORD97":168771.01999999999,"N_COORD97":2544380.0600000001,"ADDRESS":"公園路１２８號四樓之３５","OBJECTID":625579},"geometry":{"x":168771.02000000048,"y":2544380.0600000005}},{"attributes":{"ID":625607,"DIS_CODE":0,"TOWNNAME":"北區","LI":"公園里","LIN":"19鄰","STREET":"公園路","SECT":" ","MAREA":" ","LANE":" ","ALLEY":" ","HOUSE_NO":"１２８號四樓之３６","E_COORD97":168771.01999999999,"N_COORD97":2544380.0600000001,"ADDRESS":"公園路１２８號四樓之３６","OBJECTID":625580},"geometry":{"x":168771.02000000048,"y":2544380.0600000005}},{"attributes":{"ID":625608,"DIS_CODE":0,"TOWNNAME":"北區","LI":"公園里","LIN":"14鄰","STREET":"西華街","SECT":" ","MAREA":" ","LANE":" ","ALLEY":" ","HOUSE_NO":"１０５號五樓之１","E_COORD97":169069.39999999999,"N_COORD97":2544530.7599999998,"ADDRESS":"西華街１０５號五樓之１","OBJECTID":625581},"geometry":{"x":169069.4000000013,"y":2544530.7600000035}},{"attributes":{"ID":625609,"DIS_CODE":0,"TOWNNAME":"北區","LI":"公園里","LIN":"14鄰","STREET":"西華街","SECT":" ","MAREA":" ","LANE":" ","ALLEY":" ","HOUSE_NO":"１０５號五樓之１０","E_COORD97":169069.39999999999,"N_COORD97":2544530.7599999998,"ADDRESS":"西華街１０５號五樓之１０","OBJECTID":625582},"geometry":{"x":169069.4000000013,"y":2544530.7600000035}},{"attributes":{"ID":625610,"DIS_CODE":0,"TOWNNAME":"北區","LI":"公園里","LIN":"14鄰","STREET":"西華街","SECT":" ","MAREA":" ","LANE":" ","ALLEY":" ","HOUSE_NO":"１０５號五樓之１１","E_COORD97":169069.39999999999,"N_COORD97":2544530.7599999998,"ADDRESS":"西華街１０５號五樓之１１","OBJECTID":625583},"geometry":{"x":169069.4000000013,"y":2544530.7600000035}},{"attributes":{"ID":625611,"DIS_CODE":0,"TOWNNAME":"新營區","LI":"永生里","LIN":" ","STREET":"康樂街","SECT":" ","MAREA":" ","LANE":" ","ALLEY":" ","HOUSE_NO":"１之６號４樓","E_COORD97":180081.31,"N_COORD97":2577920.1099999999,"ADDRESS":"康樂街１之６號４樓","OBJECTID":625584},"geometry":{"x":180081.31000000052,"y":2577920.1100000031}},{"attributes":{"ID":625612,"DIS_CODE":0,"TOWNNAME":"新營區","LI":"延平里","LIN":" ","STREET":"延平路","SECT":" ","MAREA":" ","LANE":" ","ALLEY":" ","HOUSE_NO":"４０之１號二樓之２","E_COORD97":179768.48000000001,"N_COORD97":2577845.1899999999,"ADDRESS":"延平路４０之１號二樓之２","OBJECTID":625585},"geometry":{"x":179768.48000000138,"y":2577845.1900000013}},{"attributes":{"ID":625613,"DIS_CODE":0,"TOWNNAME":"北區","LI":"公園里","LIN":"13鄰","STREET":"西華街","SECT":" ","MAREA":" ","LANE":" ","ALLEY":" ","HOUSE_NO":"８１號六樓之４","E_COORD97":169061.89999999999,"N_COORD97":2544503.8799999999,"ADDRESS":"西華街８１號六樓之４","OBJECTID":625586},"geometry":{"x":169061.89999999944,"y":2544503.879999999}},{"attributes":{"ID":625614,"DIS_CODE":0,"TOWNNAME":"北區","LI":"公園里","LIN":"13鄰","STREET":"西華街","SECT":" ","MAREA":" ","LANE":" ","ALLEY":" ","HOUSE_NO":"８１號六樓之５","E_COORD97":169061.89999999999,"N_COORD97":2544503.8799999999,"ADDRESS":"西華街８１號六樓之５","OBJECTID":625587},"geometry":{"x":169061.89999999944,"y":2544503.879999999}},{"attributes":{"ID":625615,"DIS_CODE":0,"TOWNNAME":"北區","LI":"公園里","LIN":"13鄰","STREET":"西華街","SECT":" ","MAREA":" ","LANE":" ","ALLEY":" ","HOUSE_NO":"８１號六樓之６","E_COORD97":169061.89999999999,"N_COORD97":2544503.8799999999,"ADDRESS":"西華街８１號六樓之６","OBJECTID":625588},"geometry":{"x":169061.89999999944,"y":2544503.879999999}},{"attributes":{"ID":625616,"DIS_CODE":0,"TOWNNAME":"北區","LI":"公園里","LIN":"13鄰","STREET":"西華街","SECT":" ","MAREA":" ","LANE":" ","ALLEY":" ","HOUSE_NO":"８１號六樓之７","E_COORD97":169061.89999999999,"N_COORD97":2544503.8799999999,"ADDRESS":"西華街８１號六樓之７","OBJECTID":625589},"geometry":{"x":169061.89999999944,"y":2544503.879999999}},{"attributes":{"ID":625617,"DIS_CODE":0,"TOWNNAME":"新營區","LI":"民生里","LIN":" ","STREET":"進修街","SECT":" ","MAREA":" ","LANE":" ","ALLEY":" ","HOUSE_NO":"５５號五樓之５","E_COORD97":178989.85000000001,"N_COORD97":2578546.5899999999,"ADDRESS":"進修街５５號五樓之５","OBJECTID":625590},"geometry":{"x":178989.84999999963,"y":2578546.5899999999}},{"attributes":{"ID":625618,"DIS_CODE":0,"TOWNNAME":"新營區","LI":"忠政里","LIN":"4鄰","STREET":"中正路","SECT":" ","MAREA":" ","LANE":" ","ALLEY":" ","HOUSE_NO":"３７之２號四樓","E_COORD97":180093.60999999999,"N_COORD97":2579158.1899999999,"ADDRESS":"中正路３７之２號四樓","OBJECTID":625591},"geometry":{"x":180093.61000000127,"y":2579158.1900000013}},{"attributes":{"ID":625619,"DIS_CODE":0,"TOWNNAME":"新營區","LI":"新東里","LIN":"26鄰","STREET":"東興五街","SECT":" ","MAREA":" ","LANE":" ","ALLEY":" ","HOUSE_NO":"１號四樓","E_COORD97":180728.63,"N_COORD97":2579509.5299999998,"ADDRESS":"東興五街１號四樓","OBJECTID":625592},"geometry":{"x":180728.63000000082,"y":2579509.5299999993}},{"attributes":{"ID":625620,"DIS_CODE":0,"TOWNNAME":"新營區","LI":"大宏里","LIN":"8鄰","STREET":"文昌街","SECT":" ","MAREA":" ","LANE":" ","ALLEY":" ","HOUSE_NO":"１６號四樓之１","E_COORD97":180442.54000000001,"N_COORD97":2578413.4500000002,"ADDRESS":"文昌街１６號四樓之１","OBJECTID":625593},"geometry":{"x":180442.54000000097,"y":2578413.4500000011}},{"attributes":{"ID":625621,"DIS_CODE":0,"TOWNNAME":"新營區","LI":"忠政里","LIN":"4鄰","STREET":"中正路","SECT":" ","MAREA":" ","LANE":" ","ALLEY":" ","HOUSE_NO":"３７之１號二樓","E_COORD97":180094.59,"N_COORD97":2579149.3300000001,"ADDRESS":"中正路３７之１號二樓","OBJECTID":625594},"geometry":{"x":180094.59000000078,"y":2579149.3300000001}},{"attributes":{"ID":625622,"DIS_CODE":0,"TOWNNAME":"新營區","LI":"忠政里","LIN":" ","STREET":"健康路","SECT":" ","MAREA":" ","LANE":" ","ALLEY":" ","HOUSE_NO":"２９２號三樓之２","E_COORD97":179675.42999999999,"N_COORD97":2579624.2000000002,"ADDRESS":"健康路２９２號三樓之２","OBJECTID":625595},"geometry":{"x":179675.43000000063,"y":2579624.1999999974}},{"attributes":{"ID":625623,"DIS_CODE":0,"TOWNNAME":"新營區","LI":"永生里","LIN":" ","STREET":"康樂街","SECT":" ","MAREA":" ","LANE":" ","ALLEY":" ","HOUSE_NO":"１之８號６樓","E_COORD97":180081.31,"N_COORD97":2577920.1099999999,"ADDRESS":"康樂街１之８號６樓","OBJECTID":625596},"geometry":{"x":180081.31000000052,"y":2577920.1100000031}},{"attributes":{"ID":625624,"DIS_CODE":0,"TOWNNAME":"新營區","LI":"大宏里","LIN":"8鄰","STREET":"文昌街","SECT":" ","MAREA":" ","LANE":" ","ALLEY":" ","HOUSE_NO":"１６號五樓之３","E_COORD97":180442.63,"N_COORD97":2578413.4500000002,"ADDRESS":"文昌街１６號五樓之３","OBJECTID":625597},"geometry":{"x":180442.62999999989,"y":2578413.4500000011}},{"attributes":{"ID":625625,"DIS_CODE":0,"TOWNNAME":"新營區","LI":"延平里","LIN":" ","STREET":"延平路","SECT":" ","MAREA":" ","LANE":" ","ALLEY":" ","HOUSE_NO":"４０之１號六樓之１","E_COORD97":179768.34,"N_COORD97":2577845.1899999999,"ADDRESS":"延平路４０之１號六樓之１","OBJECTID":625598},"geometry":{"x":179768.33999999985,"y":2577845.1900000013}},{"attributes":{"ID":625626,"DIS_CODE":0,"TOWNNAME":"新營區","LI":"忠政里","LIN":" ","STREET":"健康路","SECT":" ","MAREA":" ","LANE":" ","ALLEY":" ","HOUSE_NO":"２９２號二樓之１","E_COORD97":179675.29000000001,"N_COORD97":2579624.2000000002,"ADDRESS":"健康路２９２號二樓之１","OBJECTID":625599},"geometry":{"x":179675.29000000004,"y":2579624.1999999974}},{"attributes":{"ID":625627,"DIS_CODE":0,"TOWNNAME":"新營區","LI":"民權里","LIN":" ","STREET":"武昌街","SECT":" ","MAREA":" ","LANE":" ","ALLEY":" ","HOUSE_NO":"９號二樓之２","E_COORD97":179894.81,"N_COORD97":2578336.29,"ADDRESS":"武昌街９號二樓之２","OBJECTID":625600},"geometry":{"x":179894.81000000052,"y":2578336.290000001}}]}