{"displayFieldName":"TOWNNAME","fieldAliases":{"ID":"ID","DIS_CODE":"DIS_CODE","TOWNNAME":"TOWNNAME","LI":"LI","LIN":"LIN","STREET":"STREET","SECT":"SECT","MAREA":"MAREA","LANE":"LANE","ALLEY":"ALLEY","HOUSE_NO":"HOUSE_NO","E_COORD97":"E_COORD97","N_COORD97":"N_COORD97","ADDRESS":"ADDRESS","OBJECTID":"OBJECTID"},"geometryType":"esriGeometryPoint","spatialReference":{"wkid":102443,"latestWkid":3826},"fields":[{"name":"ID","type":"esriFieldTypeDouble","alias":"ID"},{"name":"DIS_CODE","type":"esriFieldTypeInteger","alias":"DIS_CODE"},{"name":"TOWNNAME","type":"esriFieldTypeString","alias":"TOWNNAME","length":8},{"name":"LI","type":"esriFieldTypeString","alias":"LI","length":8},{"name":"LIN","type":"esriFieldTypeString","alias":"LIN","length":12},{"name":"STREET","type":"esriFieldTypeString","alias":"STREET","length":20},{"name":"SECT","type":"esriFieldTypeString","alias":"SECT","length":8},{"name":"MAREA","type":"esriFieldTypeString","alias":"MAREA","length":12},{"name":"LANE","type":"esriFieldTypeString","alias":"LANE","length":10},{"name":"ALLEY","type":"esriFieldTypeString","alias":"ALLEY","length":10},{"name":"HOUSE_NO","type":"esriFieldTypeString","alias":"HOUSE_NO","length":20},{"name":"E_COORD97","type":"esriFieldTypeDouble","alias":"E_COORD97"},{"name":"N_COORD97","type":"esriFieldTypeDouble","alias":"N_COORD97"},{"name":"ADDRESS","type":"esriFieldTypeString","alias":"ADDRESS","length":50},{"name":"OBJECTID","type":"esriFieldTypeOID","alias":"OBJECTID"}],"features":[{"attributes":{"ID":124001,"DIS_CODE":0,"TOWNNAME":"後壁區","LI":"後壁里","LIN":"3鄰","STREET":" ","SECT":" ","MAREA":"後壁","LANE":" ","ALLEY":" ","HOUSE_NO":"５８號之１","E_COORD97":184637.57000000001,"N_COORD97":2584875.0299999998,"ADDRESS":"後壁５８號之１","OBJECTID":124001},"geometry":{"x":184637.5700000003,"y":2584875.0300000012}},{"attributes":{"ID":124002,"DIS_CODE":0,"TOWNNAME":"後壁區","LI":"侯伯里","LIN":"4鄰","STREET":" ","SECT":" ","MAREA":"後壁寮","LANE":" ","ALLEY":" ","HOUSE_NO":"２９號","E_COORD97":185451.88,"N_COORD97":2585385.2000000002,"ADDRESS":"後壁寮２９號","OBJECTID":124002},"geometry":{"x":185451.87999999989,"y":2585385.2000000011}},{"attributes":{"ID":124003,"DIS_CODE":0,"TOWNNAME":"後壁區","LI":"侯伯里","LIN":"13鄰","STREET":" ","SECT":" ","MAREA":"後壁寮","LANE":" ","ALLEY":" ","HOUSE_NO":"１０１號之５","E_COORD97":185226.01000000001,"N_COORD97":2585297.6699999999,"ADDRESS":"後壁寮１０１號之５","OBJECTID":124003},"geometry":{"x":185226.01000000164,"y":2585297.6700000037}},{"attributes":{"ID":124004,"DIS_CODE":0,"TOWNNAME":"後壁區","LI":"侯伯里","LIN":"13鄰","STREET":" ","SECT":" ","MAREA":"後壁寮","LANE":" ","ALLEY":" ","HOUSE_NO":"１０１號之６","E_COORD97":185227.22,"N_COORD97":2585302.25,"ADDRESS":"後壁寮１０１號之６","OBJECTID":124004},"geometry":{"x":185227.21999999974,"y":2585302.25}},{"attributes":{"ID":124005,"DIS_CODE":0,"TOWNNAME":"後壁區","LI":"侯伯里","LIN":"13鄰","STREET":" ","SECT":" ","MAREA":"後壁寮","LANE":" ","ALLEY":" ","HOUSE_NO":"１０１號","E_COORD97":185223.81,"N_COORD97":2585315.96,"ADDRESS":"後壁寮１０１號","OBJECTID":124005},"geometry":{"x":185223.81000000145,"y":2585315.9600000009}},{"attributes":{"ID":124006,"DIS_CODE":0,"TOWNNAME":"後壁區","LI":"侯伯里","LIN":"13鄰","STREET":" ","SECT":" ","MAREA":"後壁寮","LANE":" ","ALLEY":" ","HOUSE_NO":"１０２號","E_COORD97":185155.76999999999,"N_COORD97":2585269.6299999999,"ADDRESS":"後壁寮１０２號","OBJECTID":124006},"geometry":{"x":185155.76999999955,"y":2585269.6300000027}},{"attributes":{"ID":124007,"DIS_CODE":0,"TOWNNAME":"後壁區","LI":"侯伯里","LIN":"17鄰","STREET":" ","SECT":" ","MAREA":"後壁寮","LANE":" ","ALLEY":" ","HOUSE_NO":"１５１號之７","E_COORD97":184989.79999999999,"N_COORD97":2585477.1200000001,"ADDRESS":"後壁寮１５１號之７","OBJECTID":124007},"geometry":{"x":184989.79999999981,"y":2585477.120000001}},{"attributes":{"ID":124008,"DIS_CODE":0,"TOWNNAME":"永康區","LI":"五王里","LIN":"9鄰","STREET":"中山東路","SECT":" ","MAREA":" ","LANE":"２１８巷","ALLEY":"２３弄","HOUSE_NO":"１號","E_COORD97":171712.95000000001,"N_COORD97":2545721.25,"ADDRESS":"中山東路２１８巷２３弄１號","OBJECTID":124008},"geometry":{"x":171712.95000000112,"y":2545721.2500000037}},{"attributes":{"ID":124009,"DIS_CODE":0,"TOWNNAME":"永康區","LI":"二王里","LIN":"37鄰","STREET":"中山南路","SECT":" ","MAREA":" ","LANE":"４９０巷","ALLEY":"１２弄","HOUSE_NO":"１３號","E_COORD97":172222.64000000001,"N_COORD97":2546303.3799999999,"ADDRESS":"中山南路４９０巷１２弄１３號","OBJECTID":124009},"geometry":{"x":172222.63999999966,"y":2546303.3800000008}},{"attributes":{"ID":124010,"DIS_CODE":0,"TOWNNAME":"永康區","LI":"二王里","LIN":"37鄰","STREET":"中山南路","SECT":" ","MAREA":" ","LANE":"４９０巷","ALLEY":"１２弄","HOUSE_NO":"５號","E_COORD97":172204.39000000001,"N_COORD97":2546303.1299999999,"ADDRESS":"中山南路４９０巷１２弄５號","OBJECTID":124010},"geometry":{"x":172204.3900000006,"y":2546303.129999999}},{"attributes":{"ID":124011,"DIS_CODE":0,"TOWNNAME":"永康區","LI":"中興里","LIN":"16鄰","STREET":"中華二路","SECT":" ","MAREA":" ","LANE":"１２７巷","ALLEY":"２弄","HOUSE_NO":"２５號","E_COORD97":171953.79000000001,"N_COORD97":2545389.75,"ADDRESS":"中華二路１２７巷２弄２５號","OBJECTID":124011},"geometry":{"x":171953.79000000004,"y":2545389.7500000019}},{"attributes":{"ID":124012,"DIS_CODE":0,"TOWNNAME":"永康區","LI":"神洲里","LIN":"16鄰","STREET":"忠孝路","SECT":" ","MAREA":" ","LANE":"７６巷","ALLEY":"４９弄","HOUSE_NO":"１１號","E_COORD97":172230.14000000001,"N_COORD97":2544963.7200000002,"ADDRESS":"忠孝路７６巷４９弄１１號","OBJECTID":124012},"geometry":{"x":172230.1400000006,"y":2544963.7200000025}},{"attributes":{"ID":124013,"DIS_CODE":0,"TOWNNAME":"永康區","LI":"烏竹里","LIN":"16鄰","STREET":"自強路","SECT":" ","MAREA":" ","LANE":"９２５巷","ALLEY":"１１弄","HOUSE_NO":"１１號","E_COORD97":174727.63,"N_COORD97":2548846.4900000002,"ADDRESS":"自強路９２５巷１１弄１１號","OBJECTID":124013},"geometry":{"x":174727.63000000082,"y":2548846.4900000021}},{"attributes":{"ID":124014,"DIS_CODE":0,"TOWNNAME":"永康區","LI":"崑山里","LIN":"16鄰","STREET":"大灣路","SECT":" ","MAREA":" ","LANE":"９４２巷","ALLEY":"７１弄","HOUSE_NO":"４７號","E_COORD97":173598.57999999999,"N_COORD97":2544547,"ADDRESS":"大灣路９４２巷７１弄４７號","OBJECTID":124014},"geometry":{"x":173598.58000000194,"y":2544547.0000000019}},{"attributes":{"ID":124015,"DIS_CODE":0,"TOWNNAME":"永康區","LI":"崑山里","LIN":"16鄰","STREET":"大灣路","SECT":" ","MAREA":" ","LANE":"９４２巷","ALLEY":"７１弄","HOUSE_NO":"８７號","E_COORD97":173607.69,"N_COORD97":2544595.9900000002,"ADDRESS":"大灣路９４２巷７１弄８７號","OBJECTID":124015},"geometry":{"x":173607.69000000041,"y":2544595.9900000002}},{"attributes":{"ID":124016,"DIS_CODE":0,"TOWNNAME":"永康區","LI":"崑山里","LIN":"16鄰","STREET":"大灣路","SECT":" ","MAREA":" ","LANE":"９４２巷","ALLEY":"７１弄","HOUSE_NO":"７７號","E_COORD97":173594.89000000001,"N_COORD97":2544563,"ADDRESS":"大灣路９４２巷７１弄７７號","OBJECTID":124016},"geometry":{"x":173594.8900000006,"y":2544563}},{"attributes":{"ID":124017,"DIS_CODE":0,"TOWNNAME":"永康區","LI":"神洲里","LIN":"16鄰","STREET":"忠孝路","SECT":" ","MAREA":" ","LANE":"７６巷","ALLEY":"４９弄","HOUSE_NO":"３號","E_COORD97":172261.92999999999,"N_COORD97":2544962.2200000002,"ADDRESS":"忠孝路７６巷４９弄３號","OBJECTID":124017},"geometry":{"x":172261.93000000063,"y":2544962.2200000007}},{"attributes":{"ID":124018,"DIS_CODE":0,"TOWNNAME":"南區","LI":"郡南里","LIN":"17鄰","STREET":"永成路","SECT":"三段","MAREA":" ","LANE":"７巷","ALLEY":" ","HOUSE_NO":"４２號","E_COORD97":167402.44,"N_COORD97":2540376.0899999999,"ADDRESS":"永成路三段７巷４２號","OBJECTID":124018},"geometry":{"x":167402.44000000134,"y":2540376.0900000017}},{"attributes":{"ID":124019,"DIS_CODE":0,"TOWNNAME":"北區","LI":"仁愛里","LIN":"2鄰","STREET":"勝利路","SECT":" ","MAREA":" ","LANE":" ","ALLEY":" ","HOUSE_NO":"２３０號","E_COORD97":169935.23999999999,"N_COORD97":2545035.1800000002,"ADDRESS":"勝利路２３０號","OBJECTID":124019},"geometry":{"x":169935.24000000022,"y":2545035.1799999997}},{"attributes":{"ID":124020,"DIS_CODE":0,"TOWNNAME":"北區","LI":"文元里","LIN":"2鄰","STREET":"北成路","SECT":" ","MAREA":" ","LANE":" ","ALLEY":" ","HOUSE_NO":"５８６號","E_COORD97":167746.82000000001,"N_COORD97":2546530.0899999999,"ADDRESS":"北成路５８６號","OBJECTID":124020},"geometry":{"x":167746.8200000003,"y":2546530.0900000017}},{"attributes":{"ID":124021,"DIS_CODE":0,"TOWNNAME":"北區","LI":"文元里","LIN":"2鄰","STREET":"北成路","SECT":" ","MAREA":" ","LANE":" ","ALLEY":" ","HOUSE_NO":"５８８號","E_COORD97":167739.51000000001,"N_COORD97":2546525.9700000002,"ADDRESS":"北成路５８８號","OBJECTID":124021},"geometry":{"x":167739.50999999978,"y":2546525.9700000007}},{"attributes":{"ID":124022,"DIS_CODE":0,"TOWNNAME":"南區","LI":"明亮里","LIN":"2鄰","STREET":"新都路","SECT":" ","MAREA":" ","LANE":" ","ALLEY":" ","HOUSE_NO":"５６０號之１","E_COORD97":167074.48000000001,"N_COORD97":2540891.1499999999,"ADDRESS":"新都路５６０號之１","OBJECTID":124022},"geometry":{"x":167074.48000000045,"y":2540891.1500000041}},{"attributes":{"ID":124023,"DIS_CODE":0,"TOWNNAME":"南區","LI":"明亮里","LIN":"2鄰","STREET":"新都路","SECT":" ","MAREA":" ","LANE":" ","ALLEY":" ","HOUSE_NO":"５６２號之１","E_COORD97":167063.07000000001,"N_COORD97":2540892.1400000001,"ADDRESS":"新都路５６２號之１","OBJECTID":124023},"geometry":{"x":167063.0700000003,"y":2540892.1400000025}},{"attributes":{"ID":124024,"DIS_CODE":0,"TOWNNAME":"南區","LI":"明亮里","LIN":"2鄰","STREET":"新都路","SECT":" ","MAREA":" ","LANE":" ","ALLEY":" ","HOUSE_NO":"５６２號之２","E_COORD97":167057.85999999999,"N_COORD97":2540892.1400000001,"ADDRESS":"新都路５６２號之２","OBJECTID":124024},"geometry":{"x":167057.86000000034,"y":2540892.1400000025}},{"attributes":{"ID":124025,"DIS_CODE":0,"TOWNNAME":"安南區","LI":"城中里","LIN":"2鄰","STREET":"安中路","SECT":"六段","MAREA":" ","LANE":" ","ALLEY":" ","HOUSE_NO":"５７１號","E_COORD97":160857.51999999999,"N_COORD97":2551407.98,"ADDRESS":"安中路六段５７１號","OBJECTID":124025},"geometry":{"x":160857.52000000048,"y":2551407.9800000004}},{"attributes":{"ID":124026,"DIS_CODE":0,"TOWNNAME":"安南區","LI":"顯宮里","LIN":"2鄰","STREET":"媽祖宮一街","SECT":" ","MAREA":" ","LANE":" ","ALLEY":" ","HOUSE_NO":"５８號","E_COORD97":160612.42999999999,"N_COORD97":2548696.8399999999,"ADDRESS":"媽祖宮一街５８號","OBJECTID":124026},"geometry":{"x":160612.43000000063,"y":2548696.8399999999}},{"attributes":{"ID":124027,"DIS_CODE":0,"TOWNNAME":"中西區","LI":"法華里","LIN":"2鄰","STREET":"府連路","SECT":" ","MAREA":" ","LANE":" ","ALLEY":" ","HOUSE_NO":"３６號","E_COORD97":169001.89999999999,"N_COORD97":2542593.9700000002,"ADDRESS":"府連路３６號","OBJECTID":124027},"geometry":{"x":169001.90000000037,"y":2542593.9700000007}},{"attributes":{"ID":124028,"DIS_CODE":0,"TOWNNAME":"中西區","LI":"法華里","LIN":"2鄰","STREET":"府連路","SECT":" ","MAREA":" ","LANE":" ","ALLEY":" ","HOUSE_NO":"３８號","E_COORD97":169006.92999999999,"N_COORD97":2542601.1200000001,"ADDRESS":"府連路３８號","OBJECTID":124028},"geometry":{"x":169006.93000000156,"y":2542601.1200000029}},{"attributes":{"ID":124029,"DIS_CODE":0,"TOWNNAME":"中西區","LI":"法華里","LIN":"2鄰","STREET":"府連路","SECT":" ","MAREA":" ","LANE":" ","ALLEY":" ","HOUSE_NO":"４０號","E_COORD97":169010.63,"N_COORD97":2542607.2000000002,"ADDRESS":"府連路４０號","OBJECTID":124029},"geometry":{"x":169010.62999999896,"y":2542607.1999999993}},{"attributes":{"ID":124030,"DIS_CODE":0,"TOWNNAME":"官田區","LI":"渡頭里","LIN":"32鄰","STREET":" ","SECT":" ","MAREA":"三塊厝","LANE":" ","ALLEY":" ","HOUSE_NO":"２９１號之１","E_COORD97":183421.99442,"N_COORD97":2561448.8193899998,"ADDRESS":"三塊厝２９１號之１","OBJECTID":124030},"geometry":{"x":183421.99442000035,"y":2561448.8193900026}},{"attributes":{"ID":124031,"DIS_CODE":0,"TOWNNAME":"後壁區","LI":"侯伯里","LIN":"17鄰","STREET":" ","SECT":" ","MAREA":"後壁寮","LANE":" ","ALLEY":" ","HOUSE_NO":"１５１號之８","E_COORD97":184985.17000000001,"N_COORD97":2585481.75,"ADDRESS":"後壁寮１５１號之８","OBJECTID":124031},"geometry":{"x":184985.16999999993,"y":2585481.7500000019}},{"attributes":{"ID":124032,"DIS_CODE":0,"TOWNNAME":"後壁區","LI":"侯伯里","LIN":"17鄰","STREET":" ","SECT":" ","MAREA":"後壁寮","LANE":" ","ALLEY":" ","HOUSE_NO":"１５１號之９","E_COORD97":184979.98000000001,"N_COORD97":2585485.2599999998,"ADDRESS":"後壁寮１５１號之９","OBJECTID":124032},"geometry":{"x":184979.98000000138,"y":2585485.2599999998}},{"attributes":{"ID":124033,"DIS_CODE":0,"TOWNNAME":"後壁區","LI":"侯伯里","LIN":"17鄰","STREET":" ","SECT":" ","MAREA":"後壁寮","LANE":" ","ALLEY":" ","HOUSE_NO":"１５１號","E_COORD97":185017,"N_COORD97":2585536.1000000001,"ADDRESS":"後壁寮１５１號","OBJECTID":124033},"geometry":{"x":185017,"y":2585536.1000000015}},{"attributes":{"ID":124034,"DIS_CODE":0,"TOWNNAME":"後壁區","LI":"侯伯里","LIN":"1鄰","STREET":" ","SECT":" ","MAREA":"後壁寮","LANE":" ","ALLEY":" ","HOUSE_NO":"１號","E_COORD97":186210.5,"N_COORD97":2585448.1499999999,"ADDRESS":"後壁寮１號","OBJECTID":124034},"geometry":{"x":186210.5,"y":2585448.1500000022}},{"attributes":{"ID":124035,"DIS_CODE":0,"TOWNNAME":"後壁區","LI":"侯伯里","LIN":"3鄰","STREET":" ","SECT":" ","MAREA":"後壁寮","LANE":" ","ALLEY":" ","HOUSE_NO":"２０號之１","E_COORD97":185990.88,"N_COORD97":2585561.6099999999,"ADDRESS":"後壁寮２０號之１","OBJECTID":124035},"geometry":{"x":185990.87999999989,"y":2585561.6099999975}},{"attributes":{"ID":124036,"DIS_CODE":0,"TOWNNAME":"後壁區","LI":"侯伯里","LIN":"3鄰","STREET":" ","SECT":" ","MAREA":"後壁寮","LANE":" ","ALLEY":" ","HOUSE_NO":"２０號","E_COORD97":185989.56,"N_COORD97":2585583.8900000001,"ADDRESS":"後壁寮２０號","OBJECTID":124036},"geometry":{"x":185989.55999999959,"y":2585583.8900000006}},{"attributes":{"ID":124037,"DIS_CODE":0,"TOWNNAME":"後壁區","LI":"侯伯里","LIN":"3鄰","STREET":" ","SECT":" ","MAREA":"後壁寮","LANE":" ","ALLEY":" ","HOUSE_NO":"２１號之１","E_COORD97":185928.89999999999,"N_COORD97":2585583,"ADDRESS":"後壁寮２１號之１","OBJECTID":124037},"geometry":{"x":185928.90000000037,"y":2585583}},{"attributes":{"ID":124038,"DIS_CODE":0,"TOWNNAME":"後壁區","LI":"侯伯里","LIN":"3鄰","STREET":" ","SECT":" ","MAREA":"後壁寮","LANE":" ","ALLEY":" ","HOUSE_NO":"２１號之４","E_COORD97":185873.26999999999,"N_COORD97":2585531.54,"ADDRESS":"後壁寮２１號之４","OBJECTID":124038},"geometry":{"x":185873.27000000142,"y":2585531.5400000028}},{"attributes":{"ID":124039,"DIS_CODE":0,"TOWNNAME":"後壁區","LI":"侯伯里","LIN":"3鄰","STREET":" ","SECT":" ","MAREA":"後壁寮","LANE":" ","ALLEY":" ","HOUSE_NO":"２１號之５","E_COORD97":185858.07999999999,"N_COORD97":2585557.9100000001,"ADDRESS":"後壁寮２１號之５","OBJECTID":124039},"geometry":{"x":185858.08000000194,"y":2585557.910000002}},{"attributes":{"ID":124040,"DIS_CODE":0,"TOWNNAME":"安南區","LI":"總頭里","LIN":"2鄰","STREET":"總安街","SECT":"二段","MAREA":" ","LANE":" ","ALLEY":" ","HOUSE_NO":"２４３之１６號","E_COORD97":168559.97,"N_COORD97":2550308.6499999999,"ADDRESS":"總安街二段２４３之１６號","OBJECTID":124040},"geometry":{"x":168559.96999999974,"y":2550308.6500000004}},{"attributes":{"ID":124041,"DIS_CODE":0,"TOWNNAME":"安南區","LI":"淵中里","LIN":"2鄰","STREET":"本淵一街","SECT":" ","MAREA":" ","LANE":" ","ALLEY":" ","HOUSE_NO":"６之３號","E_COORD97":165309.67999999999,"N_COORD97":2549929.4399999999,"ADDRESS":"本淵一街６之３號","OBJECTID":124041},"geometry":{"x":165309.68000000156,"y":2549929.4399999995}},{"attributes":{"ID":124042,"DIS_CODE":0,"TOWNNAME":"安南區","LI":"淵中里","LIN":"2鄰","STREET":"本淵一街","SECT":" ","MAREA":" ","LANE":" ","ALLEY":" ","HOUSE_NO":"１２號","E_COORD97":165317.62,"N_COORD97":2549951.1899999999,"ADDRESS":"本淵一街１２號","OBJECTID":124042},"geometry":{"x":165317.62000000104,"y":2549951.1899999995}},{"attributes":{"ID":124043,"DIS_CODE":0,"TOWNNAME":"永康區","LI":"崑山里","LIN":"16鄰","STREET":"大灣路","SECT":" ","MAREA":" ","LANE":"９４２巷","ALLEY":"７１弄","HOUSE_NO":"４５號","E_COORD97":173600.92000000001,"N_COORD97":2544554,"ADDRESS":"大灣路９４２巷７１弄４５號","OBJECTID":124043},"geometry":{"x":173600.91999999993,"y":2544554.0000000019}},{"attributes":{"ID":124044,"DIS_CODE":0,"TOWNNAME":"仁德區","LI":"仁義里","LIN":"35鄰","STREET":"勝利路","SECT":" ","MAREA":" ","LANE":" ","ALLEY":" ","HOUSE_NO":"８０號","E_COORD97":173733.01000000001,"N_COORD97":2539839,"ADDRESS":"勝利路８０號","OBJECTID":124044},"geometry":{"x":173733.01000000071,"y":2539839}},{"attributes":{"ID":124045,"DIS_CODE":0,"TOWNNAME":"永康區","LI":"崑山里","LIN":"16鄰","STREET":"大灣路","SECT":" ","MAREA":" ","LANE":"９４２巷","ALLEY":"７１弄","HOUSE_NO":"３９號","E_COORD97":173607.87,"N_COORD97":2544574.25,"ADDRESS":"大灣路９４２巷７１弄３９號","OBJECTID":124045},"geometry":{"x":173607.87000000011,"y":2544574.25}},{"attributes":{"ID":124046,"DIS_CODE":0,"TOWNNAME":"永康區","LI":"二王里","LIN":"38鄰","STREET":"中山南路","SECT":" ","MAREA":" ","LANE":"４９０巷","ALLEY":"１２弄","HOUSE_NO":"５３號","E_COORD97":172212.48999999999,"N_COORD97":2546280.3399999999,"ADDRESS":"中山南路４９０巷１２弄５３號","OBJECTID":124046},"geometry":{"x":172212.48999999929,"y":2546280.3400000017}},{"attributes":{"ID":124047,"DIS_CODE":0,"TOWNNAME":"永康區","LI":"大橋里","LIN":"13鄰","STREET":"大橋二街","SECT":" ","MAREA":" ","LANE":"２３９巷","ALLEY":"２２弄","HOUSE_NO":"３號","E_COORD97":171090.01000000001,"N_COORD97":2546864.4399999999,"ADDRESS":"大橋二街２３９巷２２弄３號","OBJECTID":124047},"geometry":{"x":171090.01000000071,"y":2546864.4399999995}},{"attributes":{"ID":124048,"DIS_CODE":0,"TOWNNAME":"永康區","LI":"大灣里","LIN":"30鄰","STREET":"民族路","SECT":" ","MAREA":" ","LANE":"１２６巷","ALLEY":"１０弄","HOUSE_NO":"３號","E_COORD97":175346.20999999999,"N_COORD97":2544901.04,"ADDRESS":"民族路１２６巷１０弄３號","OBJECTID":124048},"geometry":{"x":175346.20999999996,"y":2544901.0400000028}},{"attributes":{"ID":124049,"DIS_CODE":0,"TOWNNAME":"永康區","LI":"中興里","LIN":"10鄰","STREET":"忠孝路","SECT":" ","MAREA":" ","LANE":"２３９巷","ALLEY":"２０弄","HOUSE_NO":"１５號","E_COORD97":172020.44,"N_COORD97":2545098.25,"ADDRESS":"忠孝路２３９巷２０弄１５號","OBJECTID":124049},"geometry":{"x":172020.44000000134,"y":2545098.2500000019}},{"attributes":{"ID":124050,"DIS_CODE":0,"TOWNNAME":"永康區","LI":"中興里","LIN":"16鄰","STREET":"中華二路","SECT":" ","MAREA":" ","LANE":"１２７巷","ALLEY":"２弄","HOUSE_NO":"１２號","E_COORD97":171988.09,"N_COORD97":2545399.75,"ADDRESS":"中華二路１２７巷２弄１２號","OBJECTID":124050},"geometry":{"x":171988.09000000078,"y":2545399.7500000019}},{"attributes":{"ID":124051,"DIS_CODE":0,"TOWNNAME":"永康區","LI":"大橋里","LIN":"13鄰","STREET":"大橋二街","SECT":" ","MAREA":" ","LANE":"２３９巷","ALLEY":"２２弄","HOUSE_NO":"５號","E_COORD97":171094.10999999999,"N_COORD97":2546866.6899999999,"ADDRESS":"大橋二街２３９巷２２弄５號","OBJECTID":124051},"geometry":{"x":171094.11000000034,"y":2546866.6899999976}},{"attributes":{"ID":124052,"DIS_CODE":0,"TOWNNAME":"永康區","LI":"網寮里","LIN":"16鄰","STREET":"永二街","SECT":" ","MAREA":" ","LANE":"２４４巷","ALLEY":"６２弄","HOUSE_NO":"１３號","E_COORD97":173294.79000000001,"N_COORD97":2546719.6000000001,"ADDRESS":"永二街２４４巷６２弄１３號","OBJECTID":124052},"geometry":{"x":173294.79000000004,"y":2546719.6000000015}},{"attributes":{"ID":124053,"DIS_CODE":0,"TOWNNAME":"永康區","LI":"網寮里","LIN":"16鄰","STREET":"永二街","SECT":" ","MAREA":" ","LANE":"２４４巷","ALLEY":"６２弄","HOUSE_NO":"１５號","E_COORD97":173293.20999999999,"N_COORD97":2546733.6099999999,"ADDRESS":"永二街２４４巷６２弄１５號","OBJECTID":124053},"geometry":{"x":173293.20999999996,"y":2546733.6099999994}},{"attributes":{"ID":124054,"DIS_CODE":0,"TOWNNAME":"永康區","LI":"網寮里","LIN":"16鄰","STREET":"永二街","SECT":" ","MAREA":" ","LANE":"２４４巷","ALLEY":"６２弄","HOUSE_NO":"１７號","E_COORD97":173292.64999999999,"N_COORD97":2546739.3799999999,"ADDRESS":"永二街２４４巷６２弄１７號","OBJECTID":124054},"geometry":{"x":173292.65000000037,"y":2546739.3799999971}},{"attributes":{"ID":124055,"DIS_CODE":0,"TOWNNAME":"永康區","LI":"網寮里","LIN":"16鄰","STREET":"永二街","SECT":" ","MAREA":" ","LANE":"２４４巷","ALLEY":"６２弄","HOUSE_NO":"１８號","E_COORD97":173295.45000000001,"N_COORD97":2546706.6099999999,"ADDRESS":"永二街２４４巷６２弄１８號","OBJECTID":124055},"geometry":{"x":173295.45000000019,"y":2546706.6099999994}},{"attributes":{"ID":124056,"DIS_CODE":0,"TOWNNAME":"七股區","LI":"?榔里","LIN":"6鄰","STREET":" ","SECT":" ","MAREA":"?榔","LANE":" ","ALLEY":" ","HOUSE_NO":"５０號之１３","E_COORD97":162363.66,"N_COORD97":2555145.4500000002,"ADDRESS":"?榔５０號之１３","OBJECTID":124056},"geometry":{"x":162363.66000000015,"y":2555145.4500000011}},{"attributes":{"ID":124057,"DIS_CODE":0,"TOWNNAME":"永康區","LI":"網寮里","LIN":"16鄰","STREET":"永二街","SECT":" ","MAREA":" ","LANE":"２４４巷","ALLEY":"６２弄","HOUSE_NO":"２０號","E_COORD97":173298.57000000001,"N_COORD97":2546706.75,"ADDRESS":"永二街２４４巷６２弄２０號","OBJECTID":124057},"geometry":{"x":173298.5700000003,"y":2546706.75}},{"attributes":{"ID":124058,"DIS_CODE":0,"TOWNNAME":"麻豆區","LI":"南勢里","LIN":"6鄰","STREET":" ","SECT":" ","MAREA":"\u25A0帝\u25A0","LANE":" ","ALLEY":" ","HOUSE_NO":"３９號之２","E_COORD97":174034.5,"N_COORD97":2565155.4100000001,"ADDRESS":"\u25A0帝\u25A0３９號之２","OBJECTID":124058},"geometry":{"x":174034.49999999907,"y":2565155.410000002}},{"attributes":{"ID":124059,"DIS_CODE":0,"TOWNNAME":"後壁區","LI":"侯伯里","LIN":"3鄰","STREET":" ","SECT":" ","MAREA":"後壁寮","LANE":" ","ALLEY":" ","HOUSE_NO":"２１號之６","E_COORD97":185840.79999999999,"N_COORD97":2585555.71,"ADDRESS":"後壁寮２１號之６","OBJECTID":124059},"geometry":{"x":185840.79999999981,"y":2585555.709999999}},{"attributes":{"ID":124060,"DIS_CODE":0,"TOWNNAME":"永康區","LI":"網寮里","LIN":"16鄰","STREET":"永二街","SECT":" ","MAREA":" ","LANE":"２４４巷","ALLEY":"６２弄","HOUSE_NO":"２１號","E_COORD97":173302.89000000001,"N_COORD97":2546753.1600000001,"ADDRESS":"永二街２４４巷６２弄２１號","OBJECTID":124060},"geometry":{"x":173302.8900000006,"y":2546753.160000002}},{"attributes":{"ID":124061,"DIS_CODE":0,"TOWNNAME":"永康區","LI":"網寮里","LIN":"16鄰","STREET":"永二街","SECT":" ","MAREA":" ","LANE":"２４４巷","ALLEY":"６２弄","HOUSE_NO":"２２號","E_COORD97":173301.94,"N_COORD97":2546697.6299999999,"ADDRESS":"永二街２４４巷６２弄２２號","OBJECTID":124061},"geometry":{"x":173301.94000000134,"y":2546697.6300000008}},{"attributes":{"ID":124062,"DIS_CODE":0,"TOWNNAME":"永康區","LI":"網寮里","LIN":"16鄰","STREET":"永二街","SECT":" ","MAREA":" ","LANE":"２４４巷","ALLEY":"６２弄","HOUSE_NO":"２３號","E_COORD97":173304.98000000001,"N_COORD97":2546744.8100000001,"ADDRESS":"永二街２４４巷６２弄２３號","OBJECTID":124062},"geometry":{"x":173304.98000000138,"y":2546744.8100000005}},{"attributes":{"ID":124063,"DIS_CODE":0,"TOWNNAME":"永康區","LI":"網寮里","LIN":"16鄰","STREET":"永二街","SECT":" ","MAREA":" ","LANE":"２４４巷","ALLEY":"６２弄","HOUSE_NO":"２５號","E_COORD97":173306.29999999999,"N_COORD97":2546738.54,"ADDRESS":"永二街２４４巷６２弄２５號","OBJECTID":124063},"geometry":{"x":173306.29999999981,"y":2546738.5399999972}},{"attributes":{"ID":124064,"DIS_CODE":0,"TOWNNAME":"永康區","LI":"網寮里","LIN":"16鄰","STREET":"永二街","SECT":" ","MAREA":" ","LANE":"２４４巷","ALLEY":"６２弄","HOUSE_NO":"２６號","E_COORD97":173301.72,"N_COORD97":2546694.4100000001,"ADDRESS":"永二街２４４巷６２弄２６號","OBJECTID":124064},"geometry":{"x":173301.71999999974,"y":2546694.410000002}},{"attributes":{"ID":124065,"DIS_CODE":0,"TOWNNAME":"永康區","LI":"網寮里","LIN":"16鄰","STREET":"永二街","SECT":" ","MAREA":" ","LANE":"２４４巷","ALLEY":"６２弄","HOUSE_NO":"２７號","E_COORD97":173307.51000000001,"N_COORD97":2546731.3999999999,"ADDRESS":"永二街２４４巷６２弄２７號","OBJECTID":124065},"geometry":{"x":173307.51000000071,"y":2546731.4000000022}},{"attributes":{"ID":124066,"DIS_CODE":0,"TOWNNAME":"永康區","LI":"網寮里","LIN":"16鄰","STREET":"永二街","SECT":" ","MAREA":" ","LANE":"２４４巷","ALLEY":"６２弄","HOUSE_NO":"２８號","E_COORD97":173302.04999999999,"N_COORD97":2546690.4199999999,"ADDRESS":"永二街２４４巷６２弄２８號","OBJECTID":124066},"geometry":{"x":173302.05000000075,"y":2546690.4200000018}},{"attributes":{"ID":124067,"DIS_CODE":0,"TOWNNAME":"永康區","LI":"網寮里","LIN":"16鄰","STREET":"永二街","SECT":" ","MAREA":" ","LANE":"２４４巷","ALLEY":"６２弄","HOUSE_NO":"２９號","E_COORD97":173308.06,"N_COORD97":2546725.6899999999,"ADDRESS":"永二街２４４巷６２弄２９號","OBJECTID":124067},"geometry":{"x":173308.05999999959,"y":2546725.6900000013}},{"attributes":{"ID":124068,"DIS_CODE":0,"TOWNNAME":"中西區","LI":"法華里","LIN":"2鄰","STREET":"五妃街","SECT":" ","MAREA":" ","LANE":"４０巷","ALLEY":" ","HOUSE_NO":"３號","E_COORD97":169031.53,"N_COORD97":2542586.2999999998,"ADDRESS":"五妃街４０巷３號","OBJECTID":124068},"geometry":{"x":169031.53000000026,"y":2542586.3000000026}},{"attributes":{"ID":124069,"DIS_CODE":0,"TOWNNAME":"後壁區","LI":"侯伯里","LIN":"2鄰","STREET":" ","SECT":" ","MAREA":"後壁寮","LANE":" ","ALLEY":" ","HOUSE_NO":"１５號之１","E_COORD97":186060.45000000001,"N_COORD97":2585541.9900000002,"ADDRESS":"後壁寮１５號之１","OBJECTID":124069},"geometry":{"x":186060.45000000019,"y":2585541.9900000002}},{"attributes":{"ID":124070,"DIS_CODE":0,"TOWNNAME":"後壁區","LI":"侯伯里","LIN":"4鄰","STREET":" ","SECT":" ","MAREA":"後壁寮","LANE":" ","ALLEY":" ","HOUSE_NO":"２６號之３１","E_COORD97":185631.28,"N_COORD97":2585386.3399999999,"ADDRESS":"後壁寮２６號之３１","OBJECTID":124070},"geometry":{"x":185631.28000000026,"y":2585386.3399999999}},{"attributes":{"ID":124071,"DIS_CODE":0,"TOWNNAME":"後壁區","LI":"侯伯里","LIN":"4鄰","STREET":" ","SECT":" ","MAREA":"後壁寮","LANE":" ","ALLEY":" ","HOUSE_NO":"２６號之３５","E_COORD97":185663.37,"N_COORD97":2585397.6899999999,"ADDRESS":"後壁寮２６號之３５","OBJECTID":124071},"geometry":{"x":185663.37000000104,"y":2585397.6899999995}},{"attributes":{"ID":124072,"DIS_CODE":0,"TOWNNAME":"佳里區","LI":"東寧里","LIN":"15鄰","STREET":"新生路","SECT":" ","MAREA":" ","LANE":" ","ALLEY":" ","HOUSE_NO":"１０６號","E_COORD97":165893.69,"N_COORD97":2562328.5699999998,"ADDRESS":"新生路１０６號","OBJECTID":124072},"geometry":{"x":165893.69000000134,"y":2562328.5699999984}},{"attributes":{"ID":124073,"DIS_CODE":0,"TOWNNAME":"佳里區","LI":"東寧里","LIN":"15鄰","STREET":"新生路","SECT":" ","MAREA":" ","LANE":" ","ALLEY":" ","HOUSE_NO":"１０８號","E_COORD97":165883.07000000001,"N_COORD97":2562327.46,"ADDRESS":"新生路１０８號","OBJECTID":124073},"geometry":{"x":165883.07000000123,"y":2562327.4600000028}},{"attributes":{"ID":124074,"DIS_CODE":0,"TOWNNAME":"佳里區","LI":"東寧里","LIN":"19鄰","STREET":"新生東路","SECT":" ","MAREA":" ","LANE":" ","ALLEY":" ","HOUSE_NO":"１號","E_COORD97":166275.76000000001,"N_COORD97":2562476.6299999999,"ADDRESS":"新生東路１號","OBJECTID":124074},"geometry":{"x":166275.76000000071,"y":2562476.6300000008}},{"attributes":{"ID":124075,"DIS_CODE":0,"TOWNNAME":"佳里區","LI":"東寧里","LIN":"19鄰","STREET":"新生東路","SECT":" ","MAREA":" ","LANE":" ","ALLEY":" ","HOUSE_NO":"２３號","E_COORD97":166233.23000000001,"N_COORD97":2562452.3799999999,"ADDRESS":"新生東路２３號","OBJECTID":124075},"geometry":{"x":166233.23000000045,"y":2562452.379999999}},{"attributes":{"ID":124076,"DIS_CODE":0,"TOWNNAME":"佳里區","LI":"東寧里","LIN":"19鄰","STREET":"新生東路","SECT":" ","MAREA":" ","LANE":" ","ALLEY":" ","HOUSE_NO":"７號","E_COORD97":166258.51000000001,"N_COORD97":2562471.1699999999,"ADDRESS":"新生東路７號","OBJECTID":124076},"geometry":{"x":166258.51000000164,"y":2562471.1700000018}},{"attributes":{"ID":124077,"DIS_CODE":0,"TOWNNAME":"佳里區","LI":"忠仁里","LIN":"12鄰","STREET":"新生路","SECT":" ","MAREA":" ","LANE":" ","ALLEY":" ","HOUSE_NO":"１１號","E_COORD97":166152.26000000001,"N_COORD97":2562398.0600000001,"ADDRESS":"新生路１１號","OBJECTID":124077},"geometry":{"x":166152.26000000071,"y":2562398.0600000024}},{"attributes":{"ID":124078,"DIS_CODE":0,"TOWNNAME":"永康區","LI":"網寮里","LIN":"16鄰","STREET":"永二街","SECT":" ","MAREA":" ","LANE":"２４４巷","ALLEY":"６２弄","HOUSE_NO":"３０號","E_COORD97":173302.28,"N_COORD97":2546686.6400000001,"ADDRESS":"永二街２４４巷６２弄３０號","OBJECTID":124078},"geometry":{"x":173302.28000000212,"y":2546686.6400000025}},{"attributes":{"ID":124079,"DIS_CODE":0,"TOWNNAME":"永康區","LI":"網寮里","LIN":"16鄰","STREET":"永二街","SECT":" ","MAREA":" ","LANE":"２４４巷","ALLEY":"６２弄","HOUSE_NO":"３２號","E_COORD97":173302.60999999999,"N_COORD97":2546683.5299999998,"ADDRESS":"永二街２４４巷６２弄３２號","OBJECTID":124079},"geometry":{"x":173302.61000000127,"y":2546683.5299999993}},{"attributes":{"ID":124080,"DIS_CODE":0,"TOWNNAME":"永康區","LI":"三合里","LIN":"24鄰","STREET":"南工街","SECT":" ","MAREA":" ","LANE":"３１１巷","ALLEY":"４３弄","HOUSE_NO":"１６號","E_COORD97":171836.45999999999,"N_COORD97":2545893.9399999999,"ADDRESS":"南工街３１１巷４３弄１６號","OBJECTID":124080},"geometry":{"x":171836.46000000089,"y":2545893.9399999995}},{"attributes":{"ID":124081,"DIS_CODE":0,"TOWNNAME":"永康區","LI":"中興里","LIN":"16鄰","STREET":"中華二路","SECT":" ","MAREA":" ","LANE":"１２７巷","ALLEY":"２弄","HOUSE_NO":"１３號","E_COORD97":171978.87,"N_COORD97":2545389.75,"ADDRESS":"中華二路１２７巷２弄１３號","OBJECTID":124081},"geometry":{"x":171978.87000000011,"y":2545389.7500000019}},{"attributes":{"ID":124082,"DIS_CODE":0,"TOWNNAME":"永康區","LI":"網寮里","LIN":"16鄰","STREET":"永二街","SECT":" ","MAREA":" ","LANE":"２４４巷","ALLEY":"６２弄","HOUSE_NO":"３６號","E_COORD97":173302.94,"N_COORD97":2546679.7599999998,"ADDRESS":"永二街２４４巷６２弄３６號","OBJECTID":124082},"geometry":{"x":173302.94000000041,"y":2546679.7599999998}},{"attributes":{"ID":124083,"DIS_CODE":0,"TOWNNAME":"永康區","LI":"網寮里","LIN":"16鄰","STREET":"永二街","SECT":" ","MAREA":" ","LANE":"２４４巷","ALLEY":"６２弄","HOUSE_NO":"３８號","E_COORD97":173303.60999999999,"N_COORD97":2546676.21,"ADDRESS":"永二街２４４巷６２弄３８號","OBJECTID":124083},"geometry":{"x":173303.6100000022,"y":2546676.2100000028}},{"attributes":{"ID":124084,"DIS_CODE":0,"TOWNNAME":"永康區","LI":"網寮里","LIN":"16鄰","STREET":"永二街","SECT":" ","MAREA":" ","LANE":"２４４巷","ALLEY":"６２弄","HOUSE_NO":"４０號","E_COORD97":173315.94,"N_COORD97":2546675.6499999999,"ADDRESS":"永二街２４４巷６２弄４０號","OBJECTID":124084},"geometry":{"x":173315.94000000041,"y":2546675.6500000022}},{"attributes":{"ID":124085,"DIS_CODE":0,"TOWNNAME":"永康區","LI":"網寮里","LIN":"16鄰","STREET":"永二街","SECT":" ","MAREA":" ","LANE":"２４４巷","ALLEY":"６２弄","HOUSE_NO":"４２號","E_COORD97":173316.04999999999,"N_COORD97":2546682.98,"ADDRESS":"永二街２４４巷６２弄４２號","OBJECTID":124085},"geometry":{"x":173316.05000000075,"y":2546682.9800000042}},{"attributes":{"ID":124086,"DIS_CODE":0,"TOWNNAME":"永康區","LI":"網寮里","LIN":"16鄰","STREET":"永二街","SECT":" ","MAREA":" ","LANE":"２４４巷","ALLEY":"６２弄","HOUSE_NO":"４６號","E_COORD97":173315.82999999999,"N_COORD97":2546689.6400000001,"ADDRESS":"永二街２４４巷６２弄４６號","OBJECTID":124086},"geometry":{"x":173315.83000000101,"y":2546689.6400000025}},{"attributes":{"ID":124087,"DIS_CODE":0,"TOWNNAME":"永康區","LI":"網寮里","LIN":"16鄰","STREET":"永二街","SECT":" ","MAREA":" ","LANE":"２４４巷","ALLEY":"６２弄","HOUSE_NO":"５０號","E_COORD97":173314.82999999999,"N_COORD97":2546697.0800000001,"ADDRESS":"永二街２４４巷６２弄５０號","OBJECTID":124087},"geometry":{"x":173314.83000000007,"y":2546697.0800000019}},{"attributes":{"ID":124088,"DIS_CODE":0,"TOWNNAME":"永康區","LI":"網寮里","LIN":"16鄰","STREET":"永二街","SECT":" ","MAREA":" ","LANE":"２４４巷","ALLEY":"６２弄","HOUSE_NO":"５２號","E_COORD97":173313.72,"N_COORD97":2546702.96,"ADDRESS":"永二街２４４巷６２弄５２號","OBJECTID":124088},"geometry":{"x":173313.71999999974,"y":2546702.9600000009}},{"attributes":{"ID":124089,"DIS_CODE":0,"TOWNNAME":"後壁區","LI":"崁頂里","LIN":"1鄰","STREET":" ","SECT":" ","MAREA":"崁頂","LANE":" ","ALLEY":" ","HOUSE_NO":"５號之４","E_COORD97":182622.20000000001,"N_COORD97":2586657.3199999998,"ADDRESS":"崁頂５號之４","OBJECTID":124089},"geometry":{"x":182622.20000000019,"y":2586657.3200000022}},{"attributes":{"ID":124090,"DIS_CODE":0,"TOWNNAME":"永康區","LI":"大灣里","LIN":"27鄰","STREET":"大灣六街","SECT":" ","MAREA":" ","LANE":"８０巷","ALLEY":"３６弄","HOUSE_NO":"１號","E_COORD97":175251.48999999999,"N_COORD97":2545268.2000000002,"ADDRESS":"大灣六街８０巷３６弄１號","OBJECTID":124090},"geometry":{"x":175251.49000000022,"y":2545268.1999999993}},{"attributes":{"ID":124091,"DIS_CODE":0,"TOWNNAME":"永康區","LI":"中興里","LIN":"20鄰","STREET":"中華路","SECT":" ","MAREA":" ","LANE":"２１６巷","ALLEY":"３５弄","HOUSE_NO":"１６號","E_COORD97":171877.69,"N_COORD97":2545198.75,"ADDRESS":"中華路２１６巷３５弄１６號","OBJECTID":124091},"geometry":{"x":171877.69000000134,"y":2545198.7499999981}},{"attributes":{"ID":124092,"DIS_CODE":0,"TOWNNAME":"永康區","LI":"五王里","LIN":"12鄰","STREET":"中山東路","SECT":" ","MAREA":" ","LANE":"２１８巷","ALLEY":"１２弄","HOUSE_NO":"１６號","E_COORD97":171744.17999999999,"N_COORD97":2545784,"ADDRESS":"中山東路２１８巷１２弄１６號","OBJECTID":124092},"geometry":{"x":171744.1799999997,"y":2545784.0000000037}},{"attributes":{"ID":124093,"DIS_CODE":0,"TOWNNAME":"永康區","LI":"中興里","LIN":"16鄰","STREET":"中華二路","SECT":" ","MAREA":" ","LANE":"１２７巷","ALLEY":"２弄","HOUSE_NO":"１６號","E_COORD97":171983.34,"N_COORD97":2545399.75,"ADDRESS":"中華二路１２７巷２弄１６號","OBJECTID":124093},"geometry":{"x":171983.34000000078,"y":2545399.7500000019}},{"attributes":{"ID":124094,"DIS_CODE":0,"TOWNNAME":"永康區","LI":"烏竹里","LIN":"16鄰","STREET":"自強路","SECT":" ","MAREA":" ","LANE":"９２５巷","ALLEY":"５５弄","HOUSE_NO":"１號","E_COORD97":174691.48000000001,"N_COORD97":2548935.79,"ADDRESS":"自強路９２５巷５５弄１號","OBJECTID":124094},"geometry":{"x":174691.48000000138,"y":2548935.7899999991}},{"attributes":{"ID":124095,"DIS_CODE":0,"TOWNNAME":"永康區","LI":"烏竹里","LIN":"16鄰","STREET":"自強路","SECT":" ","MAREA":" ","LANE":"９２５巷","ALLEY":"５５弄","HOUSE_NO":"３號","E_COORD97":174685.48000000001,"N_COORD97":2548930.8199999998,"ADDRESS":"自強路９２５巷５５弄３號","OBJECTID":124095},"geometry":{"x":174685.48000000045,"y":2548930.8200000003}},{"attributes":{"ID":124096,"DIS_CODE":0,"TOWNNAME":"永康區","LI":"烏竹里","LIN":"16鄰","STREET":"自強路","SECT":" ","MAREA":" ","LANE":"９２５巷","ALLEY":"５５弄","HOUSE_NO":"５號","E_COORD97":174679.04999999999,"N_COORD97":2548925.71,"ADDRESS":"自強路９２５巷５５弄５號","OBJECTID":124096},"geometry":{"x":174679.05000000075,"y":2548925.7100000009}},{"attributes":{"ID":124097,"DIS_CODE":0,"TOWNNAME":"永康區","LI":"烏竹里","LIN":"16鄰","STREET":"自強路","SECT":" ","MAREA":" ","LANE":"９２５巷","ALLEY":"５５弄","HOUSE_NO":"７號","E_COORD97":174672.76000000001,"N_COORD97":2548920.7400000002,"ADDRESS":"自強路９２５巷５５弄７號","OBJECTID":124097},"geometry":{"x":174672.75999999978,"y":2548920.7400000002}},{"attributes":{"ID":124098,"DIS_CODE":0,"TOWNNAME":"永康區","LI":"中興里","LIN":"6鄰","STREET":"中華一路","SECT":" ","MAREA":" ","LANE":"５８巷","ALLEY":"６弄","HOUSE_NO":"２０號","E_COORD97":171914.35000000001,"N_COORD97":2545023.7400000002,"ADDRESS":"中華一路５８巷６弄２０號","OBJECTID":124098},"geometry":{"x":171914.34999999963,"y":2545023.7400000021}},{"attributes":{"ID":124099,"DIS_CODE":0,"TOWNNAME":"永康區","LI":"中興里","LIN":"21鄰","STREET":"中華路","SECT":" ","MAREA":" ","LANE":"２１６巷","ALLEY":"４０弄","HOUSE_NO":"２３號","E_COORD97":171863.67999999999,"N_COORD97":2545078.25,"ADDRESS":"中華路２１６巷４０弄２３號","OBJECTID":124099},"geometry":{"x":171863.68000000063,"y":2545078.2500000019}},{"attributes":{"ID":124100,"DIS_CODE":0,"TOWNNAME":"永康區","LI":"中興里","LIN":"20鄰","STREET":"中華路","SECT":" ","MAREA":" ","LANE":"２１６巷","ALLEY":"３５弄","HOUSE_NO":"２５號","E_COORD97":171897.23999999999,"N_COORD97":2545212.25,"ADDRESS":"中華路２１６巷３５弄２５號","OBJECTID":124100},"geometry":{"x":171897.24000000209,"y":2545212.25}},{"attributes":{"ID":124101,"DIS_CODE":0,"TOWNNAME":"永康區","LI":"大橋里","LIN":"20鄰","STREET":"大橋一街","SECT":" ","MAREA":" ","LANE":"１３９巷","ALLEY":"２２弄","HOUSE_NO":"９１號","E_COORD97":171126.29999999999,"N_COORD97":2546636.7999999998,"ADDRESS":"大橋一街１３９巷２２弄９１號","OBJECTID":124101},"geometry":{"x":171126.29999999981,"y":2546636.7999999989}},{"attributes":{"ID":124102,"DIS_CODE":0,"TOWNNAME":"永康區","LI":"大橋里","LIN":"8鄰","STREET":"大橋三街","SECT":" ","MAREA":" ","LANE":"１９９巷","ALLEY":"４２弄","HOUSE_NO":"７號","E_COORD97":170908.85999999999,"N_COORD97":2546837.75,"ADDRESS":"大橋三街１９９巷４２弄７號","OBJECTID":124102},"geometry":{"x":170908.86000000127,"y":2546837.7500000019}},{"attributes":{"ID":124103,"DIS_CODE":0,"TOWNNAME":"佳里區","LI":"建南里","LIN":"4鄰","STREET":"新生路","SECT":" ","MAREA":" ","LANE":" ","ALLEY":" ","HOUSE_NO":"３０４號","E_COORD97":165582.89999999999,"N_COORD97":2562269.1499999999,"ADDRESS":"新生路３０４號","OBJECTID":124103},"geometry":{"x":165582.90000000037,"y":2562269.1500000004}},{"attributes":{"ID":124104,"DIS_CODE":0,"TOWNNAME":"佳里區","LI":"建南里","LIN":"4鄰","STREET":"新生路","SECT":" ","MAREA":" ","LANE":" ","ALLEY":" ","HOUSE_NO":"３０６號","E_COORD97":165577.42000000001,"N_COORD97":2562267.9700000002,"ADDRESS":"新生路３０６號","OBJECTID":124104},"geometry":{"x":165577.41999999993,"y":2562267.9700000007}},{"attributes":{"ID":124105,"DIS_CODE":0,"TOWNNAME":"安平區","LI":"海頭里","LIN":"2鄰","STREET":"\u25A0忠街","SECT":" ","MAREA":" ","LANE":" ","ALLEY":" ","HOUSE_NO":"３５號","E_COORD97":164194.35999999999,"N_COORD97":2544656.2599999998,"ADDRESS":"\u25A0忠街３５號","OBJECTID":124105},"geometry":{"x":164194.36000000127,"y":2544656.2600000035}},{"attributes":{"ID":124106,"DIS_CODE":0,"TOWNNAME":"安平區","LI":"海頭里","LIN":"2鄰","STREET":"\u25A0忠街","SECT":" ","MAREA":" ","LANE":" ","ALLEY":" ","HOUSE_NO":"３７號","E_COORD97":164190.35000000001,"N_COORD97":2544637.6800000002,"ADDRESS":"\u25A0忠街３７號","OBJECTID":124106},"geometry":{"x":164190.35000000056,"y":2544637.6800000016}},{"attributes":{"ID":124107,"DIS_CODE":0,"TOWNNAME":"安平區","LI":"海頭里","LIN":"2鄰","STREET":"\u25A0忠街","SECT":" ","MAREA":" ","LANE":" ","ALLEY":" ","HOUSE_NO":"３９號","E_COORD97":164188,"N_COORD97":2544626.1800000002,"ADDRESS":"\u25A0忠街３９號","OBJECTID":124107},"geometry":{"x":164188.00000000093,"y":2544626.1800000034}},{"attributes":{"ID":124108,"DIS_CODE":0,"TOWNNAME":"安平區","LI":"海頭里","LIN":"2鄰","STREET":"\u25A0忠街","SECT":" ","MAREA":" ","LANE":" ","ALLEY":" ","HOUSE_NO":"４１號","E_COORD97":164184.89000000001,"N_COORD97":2544654.3300000001,"ADDRESS":"\u25A0忠街４１號","OBJECTID":124108},"geometry":{"x":164184.8900000006,"y":2544654.3300000019}},{"attributes":{"ID":124109,"DIS_CODE":0,"TOWNNAME":"安平區","LI":"海頭里","LIN":"2鄰","STREET":"\u25A0忠街","SECT":" ","MAREA":" ","LANE":" ","ALLEY":" ","HOUSE_NO":"４３號","E_COORD97":164178.81,"N_COORD97":2544660.8199999998,"ADDRESS":"\u25A0忠街４３號","OBJECTID":124109},"geometry":{"x":164178.80999999959,"y":2544660.8200000022}},{"attributes":{"ID":124110,"DIS_CODE":0,"TOWNNAME":"佳里區","LI":"嘉福里","LIN":"6鄰","STREET":" ","SECT":" ","MAREA":"下營","LANE":" ","ALLEY":" ","HOUSE_NO":"５０號","E_COORD97":163309.42000000001,"N_COORD97":2563424.9700000002,"ADDRESS":"下營５０號","OBJECTID":124110},"geometry":{"x":163309.41999999993,"y":2563424.9700000044}},{"attributes":{"ID":124111,"DIS_CODE":0,"TOWNNAME":"中西區","LI":"中正里","LIN":"2鄰","STREET":" ","SECT":" ","MAREA":"西門商場","LANE":" ","ALLEY":" ","HOUSE_NO":"４４號","E_COORD97":167834.60000000001,"N_COORD97":2543761.6699999999,"ADDRESS":"西門商場４４號","OBJECTID":124111},"geometry":{"x":167834.60000000056,"y":2543761.6699999999}},{"attributes":{"ID":124112,"DIS_CODE":0,"TOWNNAME":"永康區","LI":"五王里","LIN":"6鄰","STREET":"中華二路","SECT":" ","MAREA":" ","LANE":"２０６巷","ALLEY":"６８弄","HOUSE_NO":"２２號","E_COORD97":171649.94,"N_COORD97":2545655.5499999998,"ADDRESS":"中華二路２０６巷６８弄２２號","OBJECTID":124112},"geometry":{"x":171649.94000000041,"y":2545655.5500000045}},{"attributes":{"ID":124113,"DIS_CODE":0,"TOWNNAME":"永康區","LI":"中興里","LIN":"21鄰","STREET":"中華路","SECT":" ","MAREA":" ","LANE":"２１６巷","ALLEY":"４０弄","HOUSE_NO":"１號","E_COORD97":171859.45999999999,"N_COORD97":2545128.4900000002,"ADDRESS":"中華路２１６巷４０弄１號","OBJECTID":124113},"geometry":{"x":171859.45999999996,"y":2545128.4900000002}},{"attributes":{"ID":124114,"DIS_CODE":0,"TOWNNAME":"永康區","LI":"二王里","LIN":"37鄰","STREET":"中山南路","SECT":" ","MAREA":" ","LANE":"４９０巷","ALLEY":"１２弄","HOUSE_NO":"９號","E_COORD97":172212.64000000001,"N_COORD97":2546302.8799999999,"ADDRESS":"中山南路４９０巷１２弄９號","OBJECTID":124114},"geometry":{"x":172212.64000000153,"y":2546302.8800000008}},{"attributes":{"ID":124115,"DIS_CODE":0,"TOWNNAME":"永康區","LI":"中興里","LIN":"16鄰","STREET":"中華二路","SECT":" ","MAREA":" ","LANE":"１２７巷","ALLEY":"２弄","HOUSE_NO":"２７號","E_COORD97":171949.32000000001,"N_COORD97":2545389.75,"ADDRESS":"中華二路１２７巷２弄２７號","OBJECTID":124115},"geometry":{"x":171949.32000000216,"y":2545389.7500000019}},{"attributes":{"ID":124116,"DIS_CODE":0,"TOWNNAME":"永康區","LI":"大橋里","LIN":"18鄰","STREET":"大橋一街","SECT":" ","MAREA":" ","LANE":"１３９巷","ALLEY":"４４弄","HOUSE_NO":"４１號","E_COORD97":171036.10000000001,"N_COORD97":2546668.27,"ADDRESS":"大橋一街１３９巷４４弄４１號","OBJECTID":124116},"geometry":{"x":171036.09999999963,"y":2546668.2699999996}},{"attributes":{"ID":124117,"DIS_CODE":0,"TOWNNAME":"永康區","LI":"大橋里","LIN":"18鄰","STREET":"大橋一街","SECT":" ","MAREA":" ","LANE":"１３９巷","ALLEY":"４４弄","HOUSE_NO":"３３號","E_COORD97":171015.28,"N_COORD97":2546648.9199999999,"ADDRESS":"大橋一街１３９巷４４弄３３號","OBJECTID":124117},"geometry":{"x":171015.28000000026,"y":2546648.9200000037}},{"attributes":{"ID":124118,"DIS_CODE":0,"TOWNNAME":"永康區","LI":"中興里","LIN":"16鄰","STREET":"中華二路","SECT":" ","MAREA":" ","LANE":"１２７巷","ALLEY":"２弄","HOUSE_NO":"２８號","E_COORD97":171963.14999999999,"N_COORD97":2545399.75,"ADDRESS":"中華二路１２７巷２弄２８號","OBJECTID":124118},"geometry":{"x":171963.1500000013,"y":2545399.7500000019}},{"attributes":{"ID":124119,"DIS_CODE":0,"TOWNNAME":"永康區","LI":"二王里","LIN":"37鄰","STREET":"中山南路","SECT":" ","MAREA":" ","LANE":"４９０巷","ALLEY":"１２弄","HOUSE_NO":"３７號","E_COORD97":172250.94,"N_COORD97":2546316.4199999999,"ADDRESS":"中山南路４９０巷１２弄３７號","OBJECTID":124119},"geometry":{"x":172250.94000000134,"y":2546316.4199999981}},{"attributes":{"ID":124120,"DIS_CODE":0,"TOWNNAME":"永康區","LI":"中興里","LIN":"16鄰","STREET":"中華二路","SECT":" ","MAREA":" ","LANE":"１２７巷","ALLEY":"２弄","HOUSE_NO":"７號","E_COORD97":171989.87,"N_COORD97":2545389.5,"ADDRESS":"中華二路１２７巷２弄７號","OBJECTID":124120},"geometry":{"x":171989.87000000104,"y":2545389.5}},{"attributes":{"ID":124121,"DIS_CODE":0,"TOWNNAME":"北區","LI":"賢北里","LIN":"2鄰","STREET":"賢北街","SECT":" ","MAREA":" ","LANE":"６２巷","ALLEY":" ","HOUSE_NO":"４８號","E_COORD97":166404.73999999999,"N_COORD97":2545386.54,"ADDRESS":"賢北街６２巷４８號","OBJECTID":124121},"geometry":{"x":166404.73999999929,"y":2545386.540000001}},{"attributes":{"ID":124122,"DIS_CODE":0,"TOWNNAME":"安平區","LI":"平安里","LIN":"2鄰","STREET":"安平路","SECT":" ","MAREA":" ","LANE":"８０巷","ALLEY":" ","HOUSE_NO":"２１號","E_COORD97":166408.42999999999,"N_COORD97":2544385.8700000001,"ADDRESS":"安平路８０巷２１號","OBJECTID":124122},"geometry":{"x":166408.43000000063,"y":2544385.8700000048}},{"attributes":{"ID":124123,"DIS_CODE":0,"TOWNNAME":"安平區","LI":"平安里","LIN":"2鄰","STREET":"安平路","SECT":" ","MAREA":" ","LANE":"８０巷","ALLEY":" ","HOUSE_NO":"２３號","E_COORD97":166409.85999999999,"N_COORD97":2544389.9900000002,"ADDRESS":"安平路８０巷２３號","OBJECTID":124123},"geometry":{"x":166409.86000000127,"y":2544389.9900000002}},{"attributes":{"ID":124124,"DIS_CODE":0,"TOWNNAME":"後壁區","LI":"侯伯里","LIN":"4鄰","STREET":" ","SECT":" ","MAREA":"後壁寮","LANE":" ","ALLEY":" ","HOUSE_NO":"２６號之４１","E_COORD97":185715.66,"N_COORD97":2585372.0800000001,"ADDRESS":"後壁寮２６號之４１","OBJECTID":124124},"geometry":{"x":185715.66000000108,"y":2585372.0800000001}},{"attributes":{"ID":124125,"DIS_CODE":0,"TOWNNAME":"後壁區","LI":"侯伯里","LIN":"4鄰","STREET":" ","SECT":" ","MAREA":"後壁寮","LANE":" ","ALLEY":" ","HOUSE_NO":"２６號之５","E_COORD97":185517.54999999999,"N_COORD97":2585429.2400000002,"ADDRESS":"後壁寮２６號之５","OBJECTID":124125},"geometry":{"x":185517.55000000075,"y":2585429.2400000002}},{"attributes":{"ID":124126,"DIS_CODE":0,"TOWNNAME":"後壁區","LI":"侯伯里","LIN":"4鄰","STREET":" ","SECT":" ","MAREA":"後壁寮","LANE":" ","ALLEY":" ","HOUSE_NO":"２６號之６","E_COORD97":185535.5,"N_COORD97":2585453.4900000002,"ADDRESS":"後壁寮２６號之６","OBJECTID":124126},"geometry":{"x":185535.50000000093,"y":2585453.4900000002}},{"attributes":{"ID":124127,"DIS_CODE":0,"TOWNNAME":"後壁區","LI":"侯伯里","LIN":"4鄰","STREET":" ","SECT":" ","MAREA":"後壁寮","LANE":" ","ALLEY":" ","HOUSE_NO":"２６號之７","E_COORD97":185548.62,"N_COORD97":2585488.3100000001,"ADDRESS":"後壁寮２６號之７","OBJECTID":124127},"geometry":{"x":185548.62000000011,"y":2585488.3100000024}},{"attributes":{"ID":124128,"DIS_CODE":0,"TOWNNAME":"安平區","LI":"海頭里","LIN":"2鄰","STREET":"\u25A0忠街","SECT":" ","MAREA":" ","LANE":" ","ALLEY":" ","HOUSE_NO":"４５號","E_COORD97":164169.60999999999,"N_COORD97":2544663.4399999999,"ADDRESS":"\u25A0忠街４５號","OBJECTID":124128},"geometry":{"x":164169.61000000034,"y":2544663.4399999995}},{"attributes":{"ID":124129,"DIS_CODE":0,"TOWNNAME":"安南區","LI":"城西里","LIN":"2鄰","STREET":"城西街","SECT":"三段","MAREA":" ","LANE":"五一０巷","ALLEY":" ","HOUSE_NO":"２６號","E_COORD97":157205.85000000001,"N_COORD97":2550946.5600000001,"ADDRESS":"城西街三段五一０巷２６號","OBJECTID":124129},"geometry":{"x":157205.85000000056,"y":2550946.5600000005}},{"attributes":{"ID":124130,"DIS_CODE":0,"TOWNNAME":"安平區","LI":"海頭里","LIN":"2鄰","STREET":"\u25A0忠街","SECT":" ","MAREA":" ","LANE":" ","ALLEY":" ","HOUSE_NO":"５０號","E_COORD97":164200.44,"N_COORD97":2544661.2000000002,"ADDRESS":"\u25A0忠街５０號","OBJECTID":124130},"geometry":{"x":164200.44000000134,"y":2544661.1999999993}},{"attributes":{"ID":124131,"DIS_CODE":0,"TOWNNAME":"後壁區","LI":"侯伯里","LIN":"4鄰","STREET":" ","SECT":" ","MAREA":"後壁寮","LANE":" ","ALLEY":" ","HOUSE_NO":"２６號之８","E_COORD97":185567.10999999999,"N_COORD97":2585506.3700000001,"ADDRESS":"後壁寮２６號之８","OBJECTID":124131},"geometry":{"x":185567.11000000127,"y":2585506.370000001}},{"attributes":{"ID":124132,"DIS_CODE":0,"TOWNNAME":"後壁區","LI":"侯伯里","LIN":"4鄰","STREET":" ","SECT":" ","MAREA":"後壁寮","LANE":" ","ALLEY":" ","HOUSE_NO":"２６號","E_COORD97":185509.85000000001,"N_COORD97":2585393.54,"ADDRESS":"後壁寮２６號","OBJECTID":124132},"geometry":{"x":185509.8499999987,"y":2585393.540000001}},{"attributes":{"ID":124133,"DIS_CODE":0,"TOWNNAME":"後壁區","LI":"侯伯里","LIN":"4鄰","STREET":" ","SECT":" ","MAREA":"後壁寮","LANE":" ","ALLEY":" ","HOUSE_NO":"２７號","E_COORD97":185462.54000000001,"N_COORD97":2585375.8100000001,"ADDRESS":"後壁寮２７號","OBJECTID":124133},"geometry":{"x":185462.54000000004,"y":2585375.8100000024}},{"attributes":{"ID":124134,"DIS_CODE":0,"TOWNNAME":"後壁區","LI":"侯伯里","LIN":"4鄰","STREET":" ","SECT":" ","MAREA":"後壁寮","LANE":" ","ALLEY":" ","HOUSE_NO":"３１號","E_COORD97":185441.07999999999,"N_COORD97":2585383.0800000001,"ADDRESS":"後壁寮３１號","OBJECTID":124134},"geometry":{"x":185441.08000000194,"y":2585383.0800000038}},{"attributes":{"ID":124135,"DIS_CODE":0,"TOWNNAME":"後壁區","LI":"侯伯里","LIN":"4鄰","STREET":" ","SECT":" ","MAREA":"後壁寮","LANE":" ","ALLEY":" ","HOUSE_NO":"３２號之５","E_COORD97":185401.81,"N_COORD97":2585355.7999999998,"ADDRESS":"後壁寮３２號之５","OBJECTID":124135},"geometry":{"x":185401.81000000145,"y":2585355.8000000026}},{"attributes":{"ID":124136,"DIS_CODE":0,"TOWNNAME":"佳里區","LI":"東寧里","LIN":"18鄰","STREET":"新生路","SECT":" ","MAREA":" ","LANE":" ","ALLEY":" ","HOUSE_NO":"２８號","E_COORD97":166104.32000000001,"N_COORD97":2562404.3199999998,"ADDRESS":"新生路２８號","OBJECTID":124136},"geometry":{"x":166104.32000000216,"y":2562404.3200000003}},{"attributes":{"ID":124137,"DIS_CODE":0,"TOWNNAME":"佳里區","LI":"東寧里","LIN":"18鄰","STREET":"新生路","SECT":" ","MAREA":" ","LANE":" ","ALLEY":" ","HOUSE_NO":"２號之１","E_COORD97":166151.17000000001,"N_COORD97":2562438.3900000001,"ADDRESS":"新生路２號之１","OBJECTID":124137},"geometry":{"x":166151.17000000086,"y":2562438.3900000006}},{"attributes":{"ID":124138,"DIS_CODE":0,"TOWNNAME":"佳里區","LI":"建南里","LIN":"6鄰","STREET":"新生路","SECT":" ","MAREA":" ","LANE":" ","ALLEY":" ","HOUSE_NO":"２８７號","E_COORD97":165627.45000000001,"N_COORD97":2562246.25,"ADDRESS":"新生路２８７號","OBJECTID":124138},"geometry":{"x":165627.45000000112,"y":2562246.2500000019}},{"attributes":{"ID":124139,"DIS_CODE":0,"TOWNNAME":"中西區","LI":"西賢里","LIN":"16鄰","STREET":"西賢一街","SECT":" ","MAREA":" ","LANE":"２７巷","ALLEY":"２弄","HOUSE_NO":"２號","E_COORD97":165673.38,"N_COORD97":2544500.0600000001,"ADDRESS":"西賢一街２７巷２弄２號","OBJECTID":124139},"geometry":{"x":165673.38000000082,"y":2544500.0600000024}},{"attributes":{"ID":124140,"DIS_CODE":0,"TOWNNAME":"中西區","LI":"西賢里","LIN":"16鄰","STREET":"西賢一街","SECT":" ","MAREA":" ","LANE":"２７巷","ALLEY":"２弄","HOUSE_NO":"６號","E_COORD97":165673.79000000001,"N_COORD97":2544502.71,"ADDRESS":"西賢一街２７巷２弄６號","OBJECTID":124140},"geometry":{"x":165673.7900000019,"y":2544502.7100000028}},{"attributes":{"ID":124141,"DIS_CODE":0,"TOWNNAME":"中西區","LI":"西賢里","LIN":"16鄰","STREET":"西賢一街","SECT":" ","MAREA":" ","LANE":"２７巷","ALLEY":"２弄","HOUSE_NO":"８號","E_COORD97":165673.79000000001,"N_COORD97":2544507.6000000001,"ADDRESS":"西賢一街２７巷２弄８號","OBJECTID":124141},"geometry":{"x":165673.7900000019,"y":2544507.5999999996}},{"attributes":{"ID":124142,"DIS_CODE":0,"TOWNNAME":"安南區","LI":"溪北里","LIN":"16鄰","STREET":"府安路","SECT":"四段","MAREA":" ","LANE":"９１巷","ALLEY":"８弄","HOUSE_NO":"２之１號","E_COORD97":169149.10000000001,"N_COORD97":2547303.75,"ADDRESS":"府安路四段９１巷８弄２之１號","OBJECTID":124142},"geometry":{"x":169149.09999999963,"y":2547303.75}},{"attributes":{"ID":124143,"DIS_CODE":0,"TOWNNAME":"東區","LI":"東明里","LIN":"25鄰","STREET":"東安路","SECT":" ","MAREA":" ","LANE":"３０巷","ALLEY":"１０弄","HOUSE_NO":"２８號","E_COORD97":170788.95999999999,"N_COORD97":2543488.8799999999,"ADDRESS":"東安路３０巷１０弄２８號","OBJECTID":124143},"geometry":{"x":170788.96000000089,"y":2543488.8800000008}},{"attributes":{"ID":124144,"DIS_CODE":0,"TOWNNAME":"東區","LI":"富強里","LIN":"28鄰","STREET":"東門路","SECT":"二段","MAREA":" ","LANE":"３６５巷","ALLEY":"３４弄","HOUSE_NO":"３號","E_COORD97":170882.94,"N_COORD97":2542689.4700000002,"ADDRESS":"東門路二段３６５巷３４弄３號","OBJECTID":124144},"geometry":{"x":170882.94000000134,"y":2542689.4700000044}},{"attributes":{"ID":124145,"DIS_CODE":0,"TOWNNAME":"東區","LI":"富強里","LIN":"28鄰","STREET":"東門路","SECT":"二段","MAREA":" ","LANE":"３６５巷","ALLEY":"３４弄","HOUSE_NO":"５號","E_COORD97":170890.64000000001,"N_COORD97":2542690.3799999999,"ADDRESS":"東門路二段３６５巷３４弄５號","OBJECTID":124145},"geometry":{"x":170890.6400000006,"y":2542690.379999999}},{"attributes":{"ID":124146,"DIS_CODE":0,"TOWNNAME":"東區","LI":"富強里","LIN":"28鄰","STREET":"東門路","SECT":"二段","MAREA":" ","LANE":"３６５巷","ALLEY":"３４弄","HOUSE_NO":"９號","E_COORD97":170903.78,"N_COORD97":2542690.8300000001,"ADDRESS":"東門路二段３６５巷３４弄９號","OBJECTID":124146},"geometry":{"x":170903.78000000119,"y":2542690.8300000019}},{"attributes":{"ID":124147,"DIS_CODE":0,"TOWNNAME":"東區","LI":"富強里","LIN":"29鄰","STREET":"東門路","SECT":"二段","MAREA":" ","LANE":"３６５巷","ALLEY":"３２弄","HOUSE_NO":"１１號","E_COORD97":170901.51999999999,"N_COORD97":2542636.4100000001,"ADDRESS":"東門路二段３６５巷３２弄１１號","OBJECTID":124147},"geometry":{"x":170901.52000000048,"y":2542636.410000002}},{"attributes":{"ID":124148,"DIS_CODE":0,"TOWNNAME":"東區","LI":"富強里","LIN":"29鄰","STREET":"東門路","SECT":"二段","MAREA":" ","LANE":"３６５巷","ALLEY":"３２弄","HOUSE_NO":"１３號","E_COORD97":170906.5,"N_COORD97":2542638.2200000002,"ADDRESS":"東門路二段３６５巷３２弄１３號","OBJECTID":124148},"geometry":{"x":170906.5,"y":2542638.2200000025}},{"attributes":{"ID":124149,"DIS_CODE":0,"TOWNNAME":"東區","LI":"富強里","LIN":"29鄰","STREET":"東門路","SECT":"二段","MAREA":" ","LANE":"３６５巷","ALLEY":"３２弄","HOUSE_NO":"１５號","E_COORD97":170909.98000000001,"N_COORD97":2542635.5,"ADDRESS":"東門路二段３６５巷３２弄１５號","OBJECTID":124149},"geometry":{"x":170909.98000000138,"y":2542635.5000000019}},{"attributes":{"ID":124150,"DIS_CODE":0,"TOWNNAME":"東區","LI":"富強里","LIN":"29鄰","STREET":"東門路","SECT":"二段","MAREA":" ","LANE":"３６５巷","ALLEY":"３２弄","HOUSE_NO":"１７號","E_COORD97":170913.89999999999,"N_COORD97":2542638.0699999998,"ADDRESS":"東門路二段３６５巷３２弄１７號","OBJECTID":124150},"geometry":{"x":170913.9000000013,"y":2542638.0700000022}},{"attributes":{"ID":124151,"DIS_CODE":0,"TOWNNAME":"東區","LI":"富強里","LIN":"29鄰","STREET":"東門路","SECT":"二段","MAREA":" ","LANE":"３６５巷","ALLEY":"３２弄","HOUSE_NO":"１９號","E_COORD97":170917.82999999999,"N_COORD97":2542635.7999999998,"ADDRESS":"東門路二段３６５巷３２弄１９號","OBJECTID":124151},"geometry":{"x":170917.83000000007,"y":2542635.8000000007}},{"attributes":{"ID":124152,"DIS_CODE":0,"TOWNNAME":"東區","LI":"富強里","LIN":"29鄰","STREET":"東門路","SECT":"二段","MAREA":" ","LANE":"３６５巷","ALLEY":"３２弄","HOUSE_NO":"１號","E_COORD97":170878.10999999999,"N_COORD97":2542635.7999999998,"ADDRESS":"東門路二段３６５巷３２弄１號","OBJECTID":124152},"geometry":{"x":170878.11000000127,"y":2542635.8000000007}},{"attributes":{"ID":124153,"DIS_CODE":0,"TOWNNAME":"東區","LI":"富強里","LIN":"29鄰","STREET":"東門路","SECT":"二段","MAREA":" ","LANE":"３６５巷","ALLEY":"３２弄","HOUSE_NO":"２１號","E_COORD97":170922.35999999999,"N_COORD97":2542638.52,"ADDRESS":"東門路二段３６５巷３２弄２１號","OBJECTID":124153},"geometry":{"x":170922.36000000127,"y":2542638.5200000014}},{"attributes":{"ID":124154,"DIS_CODE":0,"TOWNNAME":"東區","LI":"富強里","LIN":"29鄰","STREET":"東門路","SECT":"二段","MAREA":" ","LANE":"３６５巷","ALLEY":"３２弄","HOUSE_NO":"３號","E_COORD97":170883.85000000001,"N_COORD97":2542636.4100000001,"ADDRESS":"東門路二段３６５巷３２弄３號","OBJECTID":124154},"geometry":{"x":170883.85000000149,"y":2542636.410000002}},{"attributes":{"ID":124155,"DIS_CODE":0,"TOWNNAME":"佳里區","LI":"建南里","LIN":"6鄰","STREET":"新生路","SECT":" ","MAREA":" ","LANE":" ","ALLEY":" ","HOUSE_NO":"２８９號","E_COORD97":165622.82999999999,"N_COORD97":2562245.3399999999,"ADDRESS":"新生路２８９號","OBJECTID":124155},"geometry":{"x":165622.83000000101,"y":2562245.3400000036}},{"attributes":{"ID":124156,"DIS_CODE":0,"TOWNNAME":"東區","LI":"富強里","LIN":"29鄰","STREET":"東門路","SECT":"二段","MAREA":" ","LANE":"３６５巷","ALLEY":"３２弄","HOUSE_NO":"９號","E_COORD97":170897.44,"N_COORD97":2542637.7599999998,"ADDRESS":"東門路二段３６５巷３２弄９號","OBJECTID":124156},"geometry":{"x":170897.44000000041,"y":2542637.7599999998}},{"attributes":{"ID":124157,"DIS_CODE":0,"TOWNNAME":"佳里區","LI":"建南里","LIN":"6鄰","STREET":"新生路","SECT":" ","MAREA":" ","LANE":" ","ALLEY":" ","HOUSE_NO":"２９１號","E_COORD97":165618.54999999999,"N_COORD97":2562244.3599999999,"ADDRESS":"新生路２９１號","OBJECTID":124157},"geometry":{"x":165618.54999999981,"y":2562244.3600000031}},{"attributes":{"ID":124158,"DIS_CODE":0,"TOWNNAME":"東區","LI":"富強里","LIN":"29鄰","STREET":"東門路","SECT":"二段","MAREA":" ","LANE":"３６５巷","ALLEY":"３３弄","HOUSE_NO":"２號","E_COORD97":170860.97,"N_COORD97":2542641.0499999998,"ADDRESS":"東門路二段３６５巷３３弄２號","OBJECTID":124158},"geometry":{"x":170860.96999999974,"y":2542641.0500000007}},{"attributes":{"ID":124159,"DIS_CODE":0,"TOWNNAME":"東區","LI":"富強里","LIN":"29鄰","STREET":"東門路","SECT":"二段","MAREA":" ","LANE":"３６５巷","ALLEY":"３３弄","HOUSE_NO":"４號","E_COORD97":170851.44,"N_COORD97":2542642.29,"ADDRESS":"東門路二段３６５巷３３弄４號","OBJECTID":124159},"geometry":{"x":170851.44000000041,"y":2542642.290000001}},{"attributes":{"ID":124160,"DIS_CODE":0,"TOWNNAME":"東區","LI":"富強里","LIN":"29鄰","STREET":"東門路","SECT":"二段","MAREA":" ","LANE":"３６５巷","ALLEY":"３３弄","HOUSE_NO":"６號","E_COORD97":170843.82999999999,"N_COORD97":2542641.3900000001,"ADDRESS":"東門路二段３６５巷３３弄６號","OBJECTID":124160},"geometry":{"x":170843.83000000194,"y":2542641.3900000006}},{"attributes":{"ID":124161,"DIS_CODE":0,"TOWNNAME":"東區","LI":"富強里","LIN":"29鄰","STREET":"東門路","SECT":"二段","MAREA":" ","LANE":"３６５巷","ALLEY":"３４弄","HOUSE_NO":"１０號","E_COORD97":170904.54000000001,"N_COORD97":2542656.7799999998,"ADDRESS":"東門路二段３６５巷３４弄１０號","OBJECTID":124161},"geometry":{"x":170904.54000000004,"y":2542656.7800000012}},{"attributes":{"ID":124162,"DIS_CODE":0,"TOWNNAME":"東區","LI":"富強里","LIN":"29鄰","STREET":"東門路","SECT":"二段","MAREA":" ","LANE":"３６５巷","ALLEY":"３４弄","HOUSE_NO":"１２號","E_COORD97":170912.39000000001,"N_COORD97":2542656.1800000002,"ADDRESS":"東門路二段３６５巷３４弄１２號","OBJECTID":124162},"geometry":{"x":170912.39000000153,"y":2542656.1799999978}},{"attributes":{"ID":124163,"DIS_CODE":0,"TOWNNAME":"東區","LI":"富強里","LIN":"29鄰","STREET":"東門路","SECT":"二段","MAREA":" ","LANE":"３６５巷","ALLEY":"３４弄","HOUSE_NO":"４號","E_COORD97":170885.66,"N_COORD97":2542655.5699999998,"ADDRESS":"東門路二段３６５巷３４弄４號","OBJECTID":124163},"geometry":{"x":170885.66000000201,"y":2542655.5700000022}},{"attributes":{"ID":124164,"DIS_CODE":0,"TOWNNAME":"東區","LI":"富強里","LIN":"29鄰","STREET":"東門路","SECT":"二段","MAREA":" ","LANE":"３６５巷","ALLEY":"３４弄","HOUSE_NO":"６號","E_COORD97":170891.70000000001,"N_COORD97":2542656.0299999998,"ADDRESS":"東門路二段３６５巷３４弄６號","OBJECTID":124164},"geometry":{"x":170891.70000000019,"y":2542656.0299999993}},{"attributes":{"ID":124165,"DIS_CODE":0,"TOWNNAME":"東區","LI":"富強里","LIN":"28鄰","STREET":"東門路","SECT":"二段","MAREA":" ","LANE":"３６５巷","ALLEY":"３４弄","HOUSE_NO":"１號","E_COORD97":170875.84,"N_COORD97":2542688.4199999999,"ADDRESS":"東門路二段３６５巷３４弄１號","OBJECTID":124165},"geometry":{"x":170875.84000000078,"y":2542688.4199999999}},{"attributes":{"ID":124166,"DIS_CODE":0,"TOWNNAME":"佳里區","LI":"建南里","LIN":"6鄰","STREET":"新生路","SECT":" ","MAREA":" ","LANE":" ","ALLEY":" ","HOUSE_NO":"２９３號","E_COORD97":165614.34,"N_COORD97":2562243.6200000001,"ADDRESS":"新生路２９３號","OBJECTID":124166},"geometry":{"x":165614.34000000078,"y":2562243.620000001}},{"attributes":{"ID":124167,"DIS_CODE":0,"TOWNNAME":"東區","LI":"富強里","LIN":"29鄰","STREET":"東門路","SECT":"二段","MAREA":" ","LANE":"３６５巷","ALLEY":"３４弄","HOUSE_NO":"１４號地下層","E_COORD97":170920.54999999999,"N_COORD97":2542658.29,"ADDRESS":"東門路二段３６５巷３４弄１４號地下層","OBJECTID":124167},"geometry":{"x":170920.55000000075,"y":2542658.2900000028}},{"attributes":{"ID":124168,"DIS_CODE":0,"TOWNNAME":"東區","LI":"富強里","LIN":"29鄰","STREET":"東門路","SECT":"二段","MAREA":" ","LANE":"３６５巷","ALLEY":"３４弄","HOUSE_NO":"１４號","E_COORD97":170920.54999999999,"N_COORD97":2542658.29,"ADDRESS":"東門路二段３６５巷３４弄１４號","OBJECTID":124168},"geometry":{"x":170920.55000000075,"y":2542658.2900000028}},{"attributes":{"ID":124169,"DIS_CODE":0,"TOWNNAME":"東區","LI":"富強里","LIN":"29鄰","STREET":"東門路","SECT":"二段","MAREA":" ","LANE":"３６５巷","ALLEY":"３４弄","HOUSE_NO":"２號","E_COORD97":170878.26000000001,"N_COORD97":2542654.9700000002,"ADDRESS":"東門路二段３６５巷３４弄２號","OBJECTID":124169},"geometry":{"x":170878.26000000071,"y":2542654.9700000007}},{"attributes":{"ID":124170,"DIS_CODE":0,"TOWNNAME":"東區","LI":"富強里","LIN":"29鄰","STREET":"東門路","SECT":"二段","MAREA":" ","LANE":"３６５巷","ALLEY":"３２弄","HOUSE_NO":"２３號","E_COORD97":170926.14000000001,"N_COORD97":2542635.9500000002,"ADDRESS":"東門路二段３６５巷３２弄２３號","OBJECTID":124170},"geometry":{"x":170926.1400000006,"y":2542635.9499999993}},{"attributes":{"ID":124171,"DIS_CODE":0,"TOWNNAME":"東區","LI":"富強里","LIN":"29鄰","STREET":"東門路","SECT":"二段","MAREA":" ","LANE":"３６５巷","ALLEY":"３２弄","HOUSE_NO":"５號","E_COORD97":170888.23000000001,"N_COORD97":2542637.9199999999,"ADDRESS":"東門路二段３６５巷３２弄５號","OBJECTID":124171},"geometry":{"x":170888.23000000045,"y":2542637.9200000037}},{"attributes":{"ID":124172,"DIS_CODE":0,"TOWNNAME":"東區","LI":"富強里","LIN":"29鄰","STREET":"東門路","SECT":"二段","MAREA":" ","LANE":"３６５巷","ALLEY":"３２弄","HOUSE_NO":"７號","E_COORD97":170892.76000000001,"N_COORD97":2542635.9500000002,"ADDRESS":"東門路二段３６５巷３２弄７號","OBJECTID":124172},"geometry":{"x":170892.75999999978,"y":2542635.9499999993}},{"attributes":{"ID":124173,"DIS_CODE":0,"TOWNNAME":"東區","LI":"富強里","LIN":"29鄰","STREET":"東門路","SECT":"二段","MAREA":" ","LANE":"３６５巷","ALLEY":"３４弄","HOUSE_NO":"８號","E_COORD97":170898.79999999999,"N_COORD97":2542655.4199999999,"ADDRESS":"東門路二段３６５巷３４弄８號","OBJECTID":124173},"geometry":{"x":170898.79999999981,"y":2542655.4200000018}},{"attributes":{"ID":124174,"DIS_CODE":0,"TOWNNAME":"安南區","LI":"海南里","LIN":"16鄰","STREET":"府安路","SECT":"七段","MAREA":" ","LANE":"１０２巷","ALLEY":"２３弄","HOUSE_NO":"３號","E_COORD97":165711.79000000001,"N_COORD97":2545863.8999999999,"ADDRESS":"府安路七段１０２巷２３弄３號","OBJECTID":124174},"geometry":{"x":165711.79000000097,"y":2545863.9000000022}},{"attributes":{"ID":124175,"DIS_CODE":0,"TOWNNAME":"安南區","LI":"溪北里","LIN":"16鄰","STREET":"府安路","SECT":"四段","MAREA":" ","LANE":"９１巷","ALLEY":"８弄","HOUSE_NO":"２號","E_COORD97":169142.60999999999,"N_COORD97":2547301.4300000002,"ADDRESS":"府安路四段９１巷８弄２號","OBJECTID":124175},"geometry":{"x":169142.61000000127,"y":2547301.4299999997}},{"attributes":{"ID":124176,"DIS_CODE":0,"TOWNNAME":"安南區","LI":"溪北里","LIN":"16鄰","STREET":"府安路","SECT":"四段","MAREA":" ","LANE":"９１巷","ALLEY":"８弄","HOUSE_NO":"６號","E_COORD97":169156.38,"N_COORD97":2547304.8799999999,"ADDRESS":"府安路四段９１巷８弄６號","OBJECTID":124176},"geometry":{"x":169156.37999999989,"y":2547304.879999999}},{"attributes":{"ID":124177,"DIS_CODE":0,"TOWNNAME":"安南區","LI":"溪北里","LIN":"16鄰","STREET":"府安路","SECT":"四段","MAREA":" ","LANE":"９１巷","ALLEY":"８弄","HOUSE_NO":"８號","E_COORD97":169163.01000000001,"N_COORD97":2547306.8199999998,"ADDRESS":"府安路四段９１巷８弄８號","OBJECTID":124177},"geometry":{"x":169163.01000000071,"y":2547306.8200000003}},{"attributes":{"ID":124178,"DIS_CODE":0,"TOWNNAME":"安南區","LI":"溪北里","LIN":"16鄰","STREET":"府安路","SECT":"四段","MAREA":" ","LANE":"９１巷","ALLEY":"８弄","HOUSE_NO":"１０號","E_COORD97":169169.64000000001,"N_COORD97":2547308.4300000002,"ADDRESS":"府安路四段９１巷８弄１０號","OBJECTID":124178},"geometry":{"x":169169.63999999966,"y":2547308.4299999997}},{"attributes":{"ID":124179,"DIS_CODE":0,"TOWNNAME":"安南區","LI":"溪北里","LIN":"16鄰","STREET":"府安路","SECT":"四段","MAREA":" ","LANE":"９１巷","ALLEY":"８弄","HOUSE_NO":"１２號","E_COORD97":169176.92000000001,"N_COORD97":2547309.2400000002,"ADDRESS":"府安路四段９１巷８弄１２號","OBJECTID":124179},"geometry":{"x":169176.92000000086,"y":2547309.2400000021}},{"attributes":{"ID":124180,"DIS_CODE":0,"TOWNNAME":"安南區","LI":"溪北里","LIN":"16鄰","STREET":"府安路","SECT":"四段","MAREA":" ","LANE":"９１巷","ALLEY":"８弄","HOUSE_NO":"１４號","E_COORD97":169183.23000000001,"N_COORD97":2547311.1800000002,"ADDRESS":"府安路四段９１巷８弄１４號","OBJECTID":124180},"geometry":{"x":169183.23000000045,"y":2547311.1799999978}},{"attributes":{"ID":124181,"DIS_CODE":0,"TOWNNAME":"永康區","LI":"崑山里","LIN":"16鄰","STREET":"大灣路","SECT":" ","MAREA":" ","LANE":"９４２巷","ALLEY":"７１弄","HOUSE_NO":"７９號","E_COORD97":173598.94,"N_COORD97":2544569.5,"ADDRESS":"大灣路９４２巷７１弄７９號","OBJECTID":124181},"geometry":{"x":173598.94000000041,"y":2544569.5}},{"attributes":{"ID":124182,"DIS_CODE":0,"TOWNNAME":"永康區","LI":"崑山里","LIN":"16鄰","STREET":"大灣路","SECT":" ","MAREA":" ","LANE":"９４２巷","ALLEY":"７１弄","HOUSE_NO":"８３號","E_COORD97":173603.39000000001,"N_COORD97":2544583,"ADDRESS":"大灣路９４２巷７１弄８３號","OBJECTID":124182},"geometry":{"x":173603.3900000006,"y":2544583}},{"attributes":{"ID":124183,"DIS_CODE":0,"TOWNNAME":"永康區","LI":"崑山里","LIN":"16鄰","STREET":"大灣路","SECT":" ","MAREA":" ","LANE":"９４２巷","ALLEY":"７１弄","HOUSE_NO":"６３號","E_COORD97":173579.17999999999,"N_COORD97":2544514.4900000002,"ADDRESS":"大灣路９４２巷７１弄６３號","OBJECTID":124183},"geometry":{"x":173579.18000000063,"y":2544514.4900000002}},{"attributes":{"ID":124184,"DIS_CODE":0,"TOWNNAME":"永康區","LI":"中華里","LIN":"16鄰","STREET":"小東路","SECT":" ","MAREA":" ","LANE":"４７７巷","ALLEY":"１０弄","HOUSE_NO":"９號","E_COORD97":171658.57000000001,"N_COORD97":2544384.2999999998,"ADDRESS":"小東路４７７巷１０弄９號","OBJECTID":124184},"geometry":{"x":171658.57000000123,"y":2544384.3000000007}},{"attributes":{"ID":124185,"DIS_CODE":0,"TOWNNAME":"永康區","LI":"安康里","LIN":"16鄰","STREET":"中華路","SECT":" ","MAREA":" ","LANE":"６１９巷","ALLEY":"８８弄","HOUSE_NO":"７９號","E_COORD97":170947.04000000001,"N_COORD97":2546124.75,"ADDRESS":"中華路６１９巷８８弄７９號","OBJECTID":124185},"geometry":{"x":170947.04000000004,"y":2546124.7500000037}},{"attributes":{"ID":124186,"DIS_CODE":0,"TOWNNAME":"永康區","LI":"烏竹里","LIN":"16鄰","STREET":"自強路","SECT":" ","MAREA":" ","LANE":"９２５巷","ALLEY":"１１弄","HOUSE_NO":"２１號","E_COORD97":174706.16,"N_COORD97":2548836,"ADDRESS":"自強路９２５巷１１弄２１號","OBJECTID":124186},"geometry":{"x":174706.16000000015,"y":2548836.0000000019}},{"attributes":{"ID":124187,"DIS_CODE":0,"TOWNNAME":"永康區","LI":"烏竹里","LIN":"16鄰","STREET":"自強路","SECT":" ","MAREA":" ","LANE":"９２５巷","ALLEY":"１１弄","HOUSE_NO":"３５號","E_COORD97":174680.66,"N_COORD97":2548819.75,"ADDRESS":"自強路９２５巷１１弄３５號","OBJECTID":124187},"geometry":{"x":174680.66000000015,"y":2548819.7499999981}},{"attributes":{"ID":124188,"DIS_CODE":0,"TOWNNAME":"永康區","LI":"勝利里","LIN":"16鄰","STREET":"勝利街","SECT":" ","MAREA":" ","LANE":"１０７巷","ALLEY":"６１弄","HOUSE_NO":"１３號","E_COORD97":171224.98999999999,"N_COORD97":2544885.5099999998,"ADDRESS":"勝利街１０７巷６１弄１３號","OBJECTID":124188},"geometry":{"x":171224.99000000115,"y":2544885.5100000016}},{"attributes":{"ID":124189,"DIS_CODE":0,"TOWNNAME":"永康區","LI":"烏竹里","LIN":"16鄰","STREET":"自強路","SECT":" ","MAREA":" ","LANE":"９２５巷","ALLEY":"１１弄","HOUSE_NO":"２９號","E_COORD97":174689.72,"N_COORD97":2548828.25,"ADDRESS":"自強路９２５巷１１弄２９號","OBJECTID":124189},"geometry":{"x":174689.71999999974,"y":2548828.2500000019}},{"attributes":{"ID":124190,"DIS_CODE":0,"TOWNNAME":"永康區","LI":"崑山里","LIN":"16鄰","STREET":"大灣路","SECT":" ","MAREA":" ","LANE":"９４２巷","ALLEY":"７１弄","HOUSE_NO":"３５號","E_COORD97":173613.45000000001,"N_COORD97":2544590.75,"ADDRESS":"大灣路９４２巷７１弄３５號","OBJECTID":124190},"geometry":{"x":173613.45000000112,"y":2544590.75}},{"attributes":{"ID":124191,"DIS_CODE":0,"TOWNNAME":"永康區","LI":"勝利里","LIN":"16鄰","STREET":"勝利街","SECT":" ","MAREA":" ","LANE":"１０７巷","ALLEY":"６１弄","HOUSE_NO":"２號","E_COORD97":171215.23999999999,"N_COORD97":2544924.25,"ADDRESS":"勝利街１０７巷６１弄２號","OBJECTID":124191},"geometry":{"x":171215.24000000022,"y":2544924.2499999981}},{"attributes":{"ID":124192,"DIS_CODE":0,"TOWNNAME":"永康區","LI":"烏竹里","LIN":"16鄰","STREET":"自強路","SECT":" ","MAREA":" ","LANE":"９２５巷","ALLEY":"１１弄","HOUSE_NO":"３３號","E_COORD97":174683.75,"N_COORD97":2548822.25,"ADDRESS":"自強路９２５巷１１弄３３號","OBJECTID":124192},"geometry":{"x":174683.74999999907,"y":2548822.25}},{"attributes":{"ID":124193,"DIS_CODE":0,"TOWNNAME":"永康區","LI":"勝利里","LIN":"16鄰","STREET":"勝利街","SECT":" ","MAREA":" ","LANE":"１０７巷","ALLEY":"６１弄","HOUSE_NO":"１號","E_COORD97":171225.26999999999,"N_COORD97":2544922.75,"ADDRESS":"勝利街１０７巷６１弄１號","OBJECTID":124193},"geometry":{"x":171225.27000000048,"y":2544922.75}},{"attributes":{"ID":124194,"DIS_CODE":0,"TOWNNAME":"佳里區","LI":"建南里","LIN":"6鄰","STREET":"新生路","SECT":" ","MAREA":" ","LANE":" ","ALLEY":" ","HOUSE_NO":"２９５號","E_COORD97":165607.57000000001,"N_COORD97":2562242.3999999999,"ADDRESS":"新生路２９５號","OBJECTID":124194},"geometry":{"x":165607.57000000216,"y":2562242.4000000022}},{"attributes":{"ID":124195,"DIS_CODE":0,"TOWNNAME":"南化區","LI":"玉山里","LIN":" ","STREET":" ","SECT":" ","MAREA":"玉山","LANE":" ","ALLEY":" ","HOUSE_NO":"４８號","E_COORD97":200736.97,"N_COORD97":2552583.75,"ADDRESS":"玉山４８號","OBJECTID":124195},"geometry":{"x":200736.96999999974,"y":2552583.7500000019}},{"attributes":{"ID":124196,"DIS_CODE":0,"TOWNNAME":"永康區","LI":"烏竹里","LIN":"16鄰","STREET":"自強路","SECT":" ","MAREA":" ","LANE":"９２５巷","ALLEY":"１１弄","HOUSE_NO":"１９號","E_COORD97":174710.38,"N_COORD97":2548837.75,"ADDRESS":"自強路９２５巷１１弄１９號","OBJECTID":124196},"geometry":{"x":174710.38000000082,"y":2548837.7500000019}},{"attributes":{"ID":124197,"DIS_CODE":0,"TOWNNAME":"永康區","LI":"勝利里","LIN":"16鄰","STREET":"勝利街","SECT":" ","MAREA":" ","LANE":"１０７巷","ALLEY":"６３弄","HOUSE_NO":"３號","E_COORD97":171196.10000000001,"N_COORD97":2544920.5,"ADDRESS":"勝利街１０７巷６３弄３號","OBJECTID":124197},"geometry":{"x":171196.10000000056,"y":2544920.5000000019}},{"attributes":{"ID":124198,"DIS_CODE":0,"TOWNNAME":"永康區","LI":"神洲里","LIN":"16鄰","STREET":"忠孝路","SECT":" ","MAREA":" ","LANE":"７６巷","ALLEY":"４９弄","HOUSE_NO":"９號","E_COORD97":172236.54000000001,"N_COORD97":2544962.9700000002,"ADDRESS":"忠孝路７６巷４９弄９號","OBJECTID":124198},"geometry":{"x":172236.54000000097,"y":2544962.9700000007}},{"attributes":{"ID":124199,"DIS_CODE":0,"TOWNNAME":"永康區","LI":"烏竹里","LIN":"16鄰","STREET":"自強路","SECT":" ","MAREA":" ","LANE":"９２５巷","ALLEY":"１１弄","HOUSE_NO":"９號","E_COORD97":174733.04999999999,"N_COORD97":2548847.4900000002,"ADDRESS":"自強路９２５巷１１弄９號","OBJECTID":124199},"geometry":{"x":174733.05000000075,"y":2548847.4900000002}},{"attributes":{"ID":124200,"DIS_CODE":0,"TOWNNAME":"永康區","LI":"崑山里","LIN":"16鄰","STREET":"大灣路","SECT":" ","MAREA":" ","LANE":"９４２巷","ALLEY":"７１弄","HOUSE_NO":"５５號","E_COORD97":173589.26999999999,"N_COORD97":2544519.9900000002,"ADDRESS":"大灣路９４２巷７１弄５５號","OBJECTID":124200},"geometry":{"x":173589.26999999955,"y":2544519.9900000021}}]}