{"displayFieldName":"TOWNNAME","fieldAliases":{"ID":"ID","DIS_CODE":"DIS_CODE","TOWNNAME":"TOWNNAME","LI":"LI","LIN":"LIN","STREET":"STREET","SECT":"SECT","MAREA":"MAREA","LANE":"LANE","ALLEY":"ALLEY","HOUSE_NO":"HOUSE_NO","E_COORD97":"E_COORD97","N_COORD97":"N_COORD97","ADDRESS":"ADDRESS","OBJECTID":"OBJECTID"},"geometryType":"esriGeometryPoint","spatialReference":{"wkid":102443,"latestWkid":3826},"fields":[{"name":"ID","type":"esriFieldTypeDouble","alias":"ID"},{"name":"DIS_CODE","type":"esriFieldTypeInteger","alias":"DIS_CODE"},{"name":"TOWNNAME","type":"esriFieldTypeString","alias":"TOWNNAME","length":8},{"name":"LI","type":"esriFieldTypeString","alias":"LI","length":8},{"name":"LIN","type":"esriFieldTypeString","alias":"LIN","length":12},{"name":"STREET","type":"esriFieldTypeString","alias":"STREET","length":20},{"name":"SECT","type":"esriFieldTypeString","alias":"SECT","length":8},{"name":"MAREA","type":"esriFieldTypeString","alias":"MAREA","length":12},{"name":"LANE","type":"esriFieldTypeString","alias":"LANE","length":10},{"name":"ALLEY","type":"esriFieldTypeString","alias":"ALLEY","length":10},{"name":"HOUSE_NO","type":"esriFieldTypeString","alias":"HOUSE_NO","length":20},{"name":"E_COORD97","type":"esriFieldTypeDouble","alias":"E_COORD97"},{"name":"N_COORD97","type":"esriFieldTypeDouble","alias":"N_COORD97"},{"name":"ADDRESS","type":"esriFieldTypeString","alias":"ADDRESS","length":50},{"name":"OBJECTID","type":"esriFieldTypeOID","alias":"OBJECTID"}],"features":[{"attributes":{"ID":585428,"DIS_CODE":0,"TOWNNAME":"歸仁區","LI":"文化里","LIN":"16鄰","STREET":"大德路","SECT":" ","MAREA":" ","LANE":" ","ALLEY":" ","HOUSE_NO":"１９７號四樓之２","E_COORD97":177236.01999999999,"N_COORD97":2541499.3399999999,"ADDRESS":"大德路１９７號四樓之２","OBJECTID":585401},"geometry":{"x":177236.01999999955,"y":2541499.3400000036}},{"attributes":{"ID":585429,"DIS_CODE":0,"TOWNNAME":"歸仁區","LI":"文化里","LIN":"16鄰","STREET":"大德路","SECT":" ","MAREA":" ","LANE":" ","ALLEY":" ","HOUSE_NO":"１９７號二樓之３","E_COORD97":177236.01999999999,"N_COORD97":2541499.3399999999,"ADDRESS":"大德路１９７號二樓之３","OBJECTID":585402},"geometry":{"x":177236.01999999955,"y":2541499.3400000036}},{"attributes":{"ID":585430,"DIS_CODE":0,"TOWNNAME":"歸仁區","LI":"文化里","LIN":"16鄰","STREET":"大德路","SECT":" ","MAREA":" ","LANE":" ","ALLEY":" ","HOUSE_NO":"１９７號三樓之６","E_COORD97":177236.01999999999,"N_COORD97":2541499.3399999999,"ADDRESS":"大德路１９７號三樓之６","OBJECTID":585403},"geometry":{"x":177236.01999999955,"y":2541499.3400000036}},{"attributes":{"ID":585431,"DIS_CODE":0,"TOWNNAME":"歸仁區","LI":"文化里","LIN":"16鄰","STREET":"大德路","SECT":" ","MAREA":" ","LANE":" ","ALLEY":" ","HOUSE_NO":"１９７號三樓之５","E_COORD97":177236.03,"N_COORD97":2541499.3399999999,"ADDRESS":"大德路１９７號三樓之５","OBJECTID":585404},"geometry":{"x":177236.03000000026,"y":2541499.3400000036}},{"attributes":{"ID":585432,"DIS_CODE":0,"TOWNNAME":"歸仁區","LI":"文化里","LIN":"16鄰","STREET":"大德路","SECT":" ","MAREA":" ","LANE":" ","ALLEY":" ","HOUSE_NO":"１９７號二樓之５","E_COORD97":177236.03,"N_COORD97":2541499.3399999999,"ADDRESS":"大德路１９７號二樓之５","OBJECTID":585405},"geometry":{"x":177236.03000000026,"y":2541499.3400000036}},{"attributes":{"ID":585433,"DIS_CODE":0,"TOWNNAME":"歸仁區","LI":"文化里","LIN":"16鄰","STREET":"大德路","SECT":" ","MAREA":" ","LANE":" ","ALLEY":" ","HOUSE_NO":"１９７號二樓之６","E_COORD97":177236.01999999999,"N_COORD97":2541499.3399999999,"ADDRESS":"大德路１９７號二樓之６","OBJECTID":585406},"geometry":{"x":177236.01999999955,"y":2541499.3400000036}},{"attributes":{"ID":585434,"DIS_CODE":0,"TOWNNAME":"永康區","LI":"正強里","LIN":"16鄰","STREET":"自強路","SECT":" ","MAREA":" ","LANE":" ","ALLEY":" ","HOUSE_NO":"２０４號","E_COORD97":173239.69,"N_COORD97":2547552.5,"ADDRESS":"自強路２０４號","OBJECTID":585407},"geometry":{"x":173239.69000000041,"y":2547552.5}},{"attributes":{"ID":585435,"DIS_CODE":0,"TOWNNAME":"永康區","LI":"正強里","LIN":"16鄰","STREET":"自強路","SECT":" ","MAREA":" ","LANE":" ","ALLEY":" ","HOUSE_NO":"２０８號","E_COORD97":173247.79999999999,"N_COORD97":2547554.5,"ADDRESS":"自強路２０８號","OBJECTID":585408},"geometry":{"x":173247.80000000075,"y":2547554.5000000019}},{"attributes":{"ID":585436,"DIS_CODE":0,"TOWNNAME":"永康區","LI":"北灣里","LIN":"16鄰","STREET":"信義二街","SECT":" ","MAREA":" ","LANE":" ","ALLEY":" ","HOUSE_NO":"１２８號","E_COORD97":174897.92000000001,"N_COORD97":2545747.1000000001,"ADDRESS":"信義二街１２８號","OBJECTID":585409},"geometry":{"x":174897.92000000179,"y":2545747.1000000015}},{"attributes":{"ID":585437,"DIS_CODE":0,"TOWNNAME":"永康區","LI":"北灣里","LIN":"16鄰","STREET":"信義二街","SECT":" ","MAREA":" ","LANE":" ","ALLEY":" ","HOUSE_NO":"１５８號","E_COORD97":174849.51000000001,"N_COORD97":2545739.1299999999,"ADDRESS":"信義二街１５８號","OBJECTID":585410},"geometry":{"x":174849.50999999978,"y":2545739.1300000008}},{"attributes":{"ID":585438,"DIS_CODE":0,"TOWNNAME":"永康區","LI":"北灣里","LIN":"16鄰","STREET":"信義二街","SECT":" ","MAREA":" ","LANE":" ","ALLEY":" ","HOUSE_NO":"１５６號","E_COORD97":174854.14999999999,"N_COORD97":2545739.3799999999,"ADDRESS":"信義二街１５６號","OBJECTID":585411},"geometry":{"x":174854.15000000037,"y":2545739.3800000027}},{"attributes":{"ID":585439,"DIS_CODE":0,"TOWNNAME":"安南區","LI":"溪頂里","LIN":"16鄰","STREET":"德安街","SECT":" ","MAREA":" ","LANE":" ","ALLEY":" ","HOUSE_NO":"２３號","E_COORD97":168671.01999999999,"N_COORD97":2547355.1099999999,"ADDRESS":"德安街２３號","OBJECTID":585412},"geometry":{"x":168671.02000000048,"y":2547355.1099999994}},{"attributes":{"ID":585440,"DIS_CODE":0,"TOWNNAME":"善化區","LI":"光文里","LIN":"12鄰","STREET":"民生路","SECT":" ","MAREA":" ","LANE":" ","ALLEY":" ","HOUSE_NO":"８８號","E_COORD97":178715.29000000001,"N_COORD97":2559012.8599999999,"ADDRESS":"民生路８８號","OBJECTID":585413},"geometry":{"x":178715.29000000097,"y":2559012.8599999994}},{"attributes":{"ID":585441,"DIS_CODE":0,"TOWNNAME":"善化區","LI":"光文里","LIN":"10鄰","STREET":"民族路","SECT":" ","MAREA":" ","LANE":" ","ALLEY":" ","HOUSE_NO":"１００號","E_COORD97":178433.98999999999,"N_COORD97":2559117.5,"ADDRESS":"民族路１００號","OBJECTID":585414},"geometry":{"x":178433.99000000209,"y":2559117.5}},{"attributes":{"ID":585442,"DIS_CODE":0,"TOWNNAME":"安南區","LI":"海東里","LIN":"16鄰","STREET":"海環街","SECT":" ","MAREA":" ","LANE":" ","ALLEY":" ","HOUSE_NO":"４７號","E_COORD97":166649.79000000001,"N_COORD97":2548824.29,"ADDRESS":"海環街４７號","OBJECTID":585415},"geometry":{"x":166649.79000000004,"y":2548824.2899999991}},{"attributes":{"ID":585443,"DIS_CODE":0,"TOWNNAME":"安南區","LI":"海東里","LIN":"16鄰","STREET":"海環街","SECT":" ","MAREA":" ","LANE":" ","ALLEY":" ","HOUSE_NO":"４９號","E_COORD97":166645.34,"N_COORD97":2548822,"ADDRESS":"海環街４９號","OBJECTID":585416},"geometry":{"x":166645.33999999985,"y":2548822.0000000019}},{"attributes":{"ID":585444,"DIS_CODE":0,"TOWNNAME":"安南區","LI":"頂安里","LIN":"16鄰","STREET":"安中路","SECT":"一段","MAREA":" ","LANE":" ","ALLEY":" ","HOUSE_NO":"２２２號之７","E_COORD97":168658.04999999999,"N_COORD97":2548584.2799999998,"ADDRESS":"安中路一段２２２號之７","OBJECTID":585417},"geometry":{"x":168658.04999999981,"y":2548584.2799999993}},{"attributes":{"ID":585445,"DIS_CODE":0,"TOWNNAME":"安南區","LI":"頂安里","LIN":"16鄰","STREET":"安中路","SECT":"一段","MAREA":" ","LANE":" ","ALLEY":" ","HOUSE_NO":"２２２號之６","E_COORD97":168661.98999999999,"N_COORD97":2548582.3100000001,"ADDRESS":"安中路一段２２２號之６","OBJECTID":585418},"geometry":{"x":168661.99000000022,"y":2548582.3100000005}},{"attributes":{"ID":585446,"DIS_CODE":0,"TOWNNAME":"南區","LI":"廣州里","LIN":"11鄰","STREET":"健民街","SECT":" ","MAREA":" ","LANE":" ","ALLEY":" ","HOUSE_NO":"８號","E_COORD97":167389.39000000001,"N_COORD97":2542748.79,"ADDRESS":"健民街８號","OBJECTID":585419},"geometry":{"x":167389.38999999966,"y":2542748.7899999991}},{"attributes":{"ID":585447,"DIS_CODE":0,"TOWNNAME":"安南區","LI":"頂安里","LIN":"16鄰","STREET":"安中路","SECT":"一段","MAREA":" ","LANE":" ","ALLEY":" ","HOUSE_NO":"２２２號之８","E_COORD97":168654.10999999999,"N_COORD97":2548586.7400000002,"ADDRESS":"安中路一段２２２號之８","OBJECTID":585420},"geometry":{"x":168654.11000000127,"y":2548586.7400000021}},{"attributes":{"ID":585448,"DIS_CODE":0,"TOWNNAME":"安南區","LI":"頂安里","LIN":"16鄰","STREET":"安中路","SECT":"一段","MAREA":" ","LANE":" ","ALLEY":" ","HOUSE_NO":"２２２號之９","E_COORD97":168649.92000000001,"N_COORD97":2548588.71,"ADDRESS":"安中路一段２２２號之９","OBJECTID":585421},"geometry":{"x":168649.92000000086,"y":2548588.7100000028}},{"attributes":{"ID":585449,"DIS_CODE":0,"TOWNNAME":"安南區","LI":"城南里","LIN":"16鄰","STREET":"青砂街","SECT":"一段","MAREA":" ","LANE":" ","ALLEY":" ","HOUSE_NO":"１５１號之２","E_COORD97":160492.87,"N_COORD97":2551802.6299999999,"ADDRESS":"青砂街一段１５１號之２","OBJECTID":585422},"geometry":{"x":160492.87000000104,"y":2551802.629999999}},{"attributes":{"ID":585450,"DIS_CODE":0,"TOWNNAME":"安南區","LI":"頂安里","LIN":"16鄰","STREET":"安中路","SECT":"一段","MAREA":" ","LANE":" ","ALLEY":" ","HOUSE_NO":"２２２號之１３","E_COORD97":168631.95999999999,"N_COORD97":2548601.8599999999,"ADDRESS":"安中路一段２２２號之１３","OBJECTID":585423},"geometry":{"x":168631.95999999996,"y":2548601.8600000013}},{"attributes":{"ID":585451,"DIS_CODE":0,"TOWNNAME":"中西區","LI":"三合里","LIN":"16鄰","STREET":"文賢路","SECT":" ","MAREA":" ","LANE":" ","ALLEY":" ","HOUSE_NO":"９６號","E_COORD97":167436.48000000001,"N_COORD97":2544652.1800000002,"ADDRESS":"文賢路９６號","OBJECTID":585424},"geometry":{"x":167436.48000000138,"y":2544652.1799999997}},{"attributes":{"ID":585452,"DIS_CODE":0,"TOWNNAME":"中西區","LI":"三合里","LIN":"16鄰","STREET":"文賢路","SECT":" ","MAREA":" ","LANE":" ","ALLEY":" ","HOUSE_NO":"９８號","E_COORD97":167436.10000000001,"N_COORD97":2544654.6099999999,"ADDRESS":"文賢路９８號","OBJECTID":585425},"geometry":{"x":167436.10000000056,"y":2544654.6100000013}},{"attributes":{"ID":585453,"DIS_CODE":0,"TOWNNAME":"東區","LI":"崇文里","LIN":"16鄰","STREET":"崇德十九街","SECT":" ","MAREA":" ","LANE":" ","ALLEY":" ","HOUSE_NO":"１０８號","E_COORD97":171093.75,"N_COORD97":2540962.6200000001,"ADDRESS":"崇德十九街１０８號","OBJECTID":585426},"geometry":{"x":171093.75000000093,"y":2540962.620000001}},{"attributes":{"ID":585454,"DIS_CODE":0,"TOWNNAME":"東區","LI":"崇文里","LIN":"16鄰","STREET":"崇德十九街","SECT":" ","MAREA":" ","LANE":" ","ALLEY":" ","HOUSE_NO":"１２２號","E_COORD97":171138.44,"N_COORD97":2540977.96,"ADDRESS":"崇德十九街１２２號","OBJECTID":585427},"geometry":{"x":171138.44000000227,"y":2540977.9600000028}},{"attributes":{"ID":585455,"DIS_CODE":0,"TOWNNAME":"東區","LI":"崇文里","LIN":"16鄰","STREET":"崇德十九街","SECT":" ","MAREA":" ","LANE":" ","ALLEY":" ","HOUSE_NO":"７０號","E_COORD97":170979.01999999999,"N_COORD97":2540942.4300000002,"ADDRESS":"崇德十九街７０號","OBJECTID":585428},"geometry":{"x":170979.01999999955,"y":2540942.4300000034}},{"attributes":{"ID":585456,"DIS_CODE":0,"TOWNNAME":"東區","LI":"崇文里","LIN":"16鄰","STREET":"崇德十九街","SECT":" ","MAREA":" ","LANE":" ","ALLEY":" ","HOUSE_NO":"７２號","E_COORD97":170979.01999999999,"N_COORD97":2540937.96,"ADDRESS":"崇德十九街７２號","OBJECTID":585429},"geometry":{"x":170979.01999999955,"y":2540937.9600000028}},{"attributes":{"ID":585457,"DIS_CODE":0,"TOWNNAME":"東區","LI":"崇文里","LIN":"16鄰","STREET":"崇德十九街","SECT":" ","MAREA":" ","LANE":" ","ALLEY":" ","HOUSE_NO":"７４號","E_COORD97":170979.01999999999,"N_COORD97":2540932.5899999999,"ADDRESS":"崇德十九街７４號","OBJECTID":585430},"geometry":{"x":170979.01999999955,"y":2540932.5900000017}},{"attributes":{"ID":585458,"DIS_CODE":0,"TOWNNAME":"東區","LI":"崇文里","LIN":"16鄰","STREET":"崇德十九街","SECT":" ","MAREA":" ","LANE":" ","ALLEY":" ","HOUSE_NO":"７６之１號","E_COORD97":171000.97,"N_COORD97":2540961.9300000002,"ADDRESS":"崇德十九街７６之１號","OBJECTID":585431},"geometry":{"x":171000.96999999974,"y":2540961.9299999997}},{"attributes":{"ID":585459,"DIS_CODE":0,"TOWNNAME":"東區","LI":"崇文里","LIN":"16鄰","STREET":"崇德十九街","SECT":" ","MAREA":" ","LANE":" ","ALLEY":" ","HOUSE_NO":"７６之２號","E_COORD97":171005.64999999999,"N_COORD97":2540961.9300000002,"ADDRESS":"崇德十九街７６之２號","OBJECTID":585432},"geometry":{"x":171005.65000000037,"y":2540961.9299999997}},{"attributes":{"ID":585460,"DIS_CODE":0,"TOWNNAME":"東區","LI":"崇文里","LIN":"16鄰","STREET":"崇德十九街","SECT":" ","MAREA":" ","LANE":" ","ALLEY":" ","HOUSE_NO":"７６之３號","E_COORD97":171009.82999999999,"N_COORD97":2540961.8300000001,"ADDRESS":"崇德十九街７６之３號","OBJECTID":585433},"geometry":{"x":171009.82999999914,"y":2540961.8300000019}},{"attributes":{"ID":585461,"DIS_CODE":0,"TOWNNAME":"東區","LI":"崇文里","LIN":"16鄰","STREET":"崇德十九街","SECT":" ","MAREA":" ","LANE":" ","ALLEY":" ","HOUSE_NO":"７６之５號","E_COORD97":171015,"N_COORD97":2540961.9300000002,"ADDRESS":"崇德十九街７６之５號","OBJECTID":585434},"geometry":{"x":171015,"y":2540961.9299999997}},{"attributes":{"ID":585462,"DIS_CODE":0,"TOWNNAME":"東區","LI":"崇文里","LIN":"16鄰","STREET":"崇德十九街","SECT":" ","MAREA":" ","LANE":" ","ALLEY":" ","HOUSE_NO":"７６之６號","E_COORD97":171019.17999999999,"N_COORD97":2540961.8300000001,"ADDRESS":"崇德十九街７６之６號","OBJECTID":585435},"geometry":{"x":171019.18000000063,"y":2540961.8300000019}},{"attributes":{"ID":585463,"DIS_CODE":0,"TOWNNAME":"東區","LI":"崇文里","LIN":"16鄰","STREET":"崇德十九街","SECT":" ","MAREA":" ","LANE":" ","ALLEY":" ","HOUSE_NO":"７６之７號","E_COORD97":171023.26999999999,"N_COORD97":2540961.9300000002,"ADDRESS":"崇德十九街７６之７號","OBJECTID":585436},"geometry":{"x":171023.27000000142,"y":2540961.9299999997}},{"attributes":{"ID":585464,"DIS_CODE":0,"TOWNNAME":"東區","LI":"崇文里","LIN":"16鄰","STREET":"崇德十九街","SECT":" ","MAREA":" ","LANE":" ","ALLEY":" ","HOUSE_NO":"７６號","E_COORD97":170996.09,"N_COORD97":2540961.9300000002,"ADDRESS":"崇德十九街７６號","OBJECTID":585437},"geometry":{"x":170996.09000000171,"y":2540961.9299999997}},{"attributes":{"ID":585465,"DIS_CODE":0,"TOWNNAME":"東區","LI":"崇文里","LIN":"16鄰","STREET":"崇德十九街","SECT":" ","MAREA":" ","LANE":" ","ALLEY":" ","HOUSE_NO":"７８之１號","E_COORD97":171000.76999999999,"N_COORD97":2540944.6200000001,"ADDRESS":"崇德十九街７８之１號","OBJECTID":585438},"geometry":{"x":171000.76999999955,"y":2540944.620000001}},{"attributes":{"ID":585466,"DIS_CODE":0,"TOWNNAME":"東區","LI":"崇文里","LIN":"16鄰","STREET":"崇德十九街","SECT":" ","MAREA":" ","LANE":" ","ALLEY":" ","HOUSE_NO":"７８之２號","E_COORD97":171005.25,"N_COORD97":2540944.4199999999,"ADDRESS":"崇德十九街７８之２號","OBJECTID":585439},"geometry":{"x":171005.25000000186,"y":2540944.4200000018}},{"attributes":{"ID":585467,"DIS_CODE":0,"TOWNNAME":"東區","LI":"崇文里","LIN":"16鄰","STREET":"崇德十九街","SECT":" ","MAREA":" ","LANE":" ","ALLEY":" ","HOUSE_NO":"７８之３號","E_COORD97":171010.13,"N_COORD97":2540944.7200000002,"ADDRESS":"崇德十九街７８之３號","OBJECTID":585440},"geometry":{"x":171010.13000000082,"y":2540944.7200000007}},{"attributes":{"ID":585468,"DIS_CODE":0,"TOWNNAME":"東區","LI":"崇文里","LIN":"16鄰","STREET":"崇德十九街","SECT":" ","MAREA":" ","LANE":" ","ALLEY":" ","HOUSE_NO":"７８之５號","E_COORD97":171014.20999999999,"N_COORD97":2540944.6200000001,"ADDRESS":"崇德十九街７８之５號","OBJECTID":585441},"geometry":{"x":171014.21000000089,"y":2540944.620000001}},{"attributes":{"ID":585469,"DIS_CODE":0,"TOWNNAME":"東區","LI":"崇文里","LIN":"16鄰","STREET":"崇德十九街","SECT":" ","MAREA":" ","LANE":" ","ALLEY":" ","HOUSE_NO":"７８之６號","E_COORD97":171018.39000000001,"N_COORD97":2540944.4199999999,"ADDRESS":"崇德十九街７８之６號","OBJECTID":585442},"geometry":{"x":171018.38999999966,"y":2540944.4200000018}},{"attributes":{"ID":585470,"DIS_CODE":0,"TOWNNAME":"東區","LI":"崇文里","LIN":"16鄰","STREET":"崇德十九街","SECT":" ","MAREA":" ","LANE":" ","ALLEY":" ","HOUSE_NO":"７８之７號","E_COORD97":171023.17000000001,"N_COORD97":2540944.4199999999,"ADDRESS":"崇德十九街７８之７號","OBJECTID":585443},"geometry":{"x":171023.17000000086,"y":2540944.4200000018}},{"attributes":{"ID":585471,"DIS_CODE":0,"TOWNNAME":"東區","LI":"崇文里","LIN":"16鄰","STREET":"崇德十九街","SECT":" ","MAREA":" ","LANE":" ","ALLEY":" ","HOUSE_NO":"７８號","E_COORD97":170996.19,"N_COORD97":2540944.6200000001,"ADDRESS":"崇德十九街７８號","OBJECTID":585444},"geometry":{"x":170996.19000000134,"y":2540944.620000001}},{"attributes":{"ID":585472,"DIS_CODE":0,"TOWNNAME":"東區","LI":"崇文里","LIN":"16鄰","STREET":"崇德十九街","SECT":" ","MAREA":" ","LANE":" ","ALLEY":" ","HOUSE_NO":"８０號","E_COORD97":171028.04000000001,"N_COORD97":2540957.4500000002,"ADDRESS":"崇德十九街８０號","OBJECTID":585445},"geometry":{"x":171028.04000000004,"y":2540957.4499999993}},{"attributes":{"ID":585473,"DIS_CODE":0,"TOWNNAME":"東區","LI":"崇文里","LIN":"16鄰","STREET":"崇德十九街","SECT":" ","MAREA":" ","LANE":" ","ALLEY":" ","HOUSE_NO":"８２號","E_COORD97":171032.51999999999,"N_COORD97":2540957.4500000002,"ADDRESS":"崇德十九街８２號","OBJECTID":585446},"geometry":{"x":171032.52000000048,"y":2540957.4499999993}},{"attributes":{"ID":585474,"DIS_CODE":0,"TOWNNAME":"東區","LI":"崇文里","LIN":"16鄰","STREET":"崇德十九街","SECT":" ","MAREA":" ","LANE":" ","ALLEY":" ","HOUSE_NO":"８６號","E_COORD97":171042.38,"N_COORD97":2540956.7599999998,"ADDRESS":"崇德十九街８６號","OBJECTID":585447},"geometry":{"x":171042.38000000082,"y":2540956.7599999998}},{"attributes":{"ID":585475,"DIS_CODE":0,"TOWNNAME":"東區","LI":"崇文里","LIN":"16鄰","STREET":"崇德十九街","SECT":" ","MAREA":" ","LANE":" ","ALLEY":" ","HOUSE_NO":"８８號","E_COORD97":171049.45000000001,"N_COORD97":2540955.8599999999,"ADDRESS":"崇德十九街８８號","OBJECTID":585448},"geometry":{"x":171049.45000000019,"y":2540955.8599999994}},{"attributes":{"ID":585476,"DIS_CODE":0,"TOWNNAME":"東區","LI":"崇文里","LIN":"16鄰","STREET":"崇德十九街","SECT":" ","MAREA":" ","LANE":" ","ALLEY":" ","HOUSE_NO":"９０號","E_COORD97":171054.13,"N_COORD97":2540955.96,"ADDRESS":"崇德十九街９０號","OBJECTID":585449},"geometry":{"x":171054.13000000082,"y":2540955.9600000009}},{"attributes":{"ID":585477,"DIS_CODE":0,"TOWNNAME":"東區","LI":"崇文里","LIN":"16鄰","STREET":"崇德十九街","SECT":" ","MAREA":" ","LANE":" ","ALLEY":" ","HOUSE_NO":"９６號","E_COORD97":171067.17000000001,"N_COORD97":2540957.9500000002,"ADDRESS":"崇德十九街９６號","OBJECTID":585450},"geometry":{"x":171067.17000000086,"y":2540957.9499999993}},{"attributes":{"ID":585478,"DIS_CODE":0,"TOWNNAME":"東區","LI":"崇文里","LIN":"16鄰","STREET":"崇德十九街","SECT":" ","MAREA":" ","LANE":" ","ALLEY":" ","HOUSE_NO":"９８號","E_COORD97":171071.04999999999,"N_COORD97":2540957.8500000001,"ADDRESS":"崇德十九街９８號","OBJECTID":585451},"geometry":{"x":171071.05000000075,"y":2540957.8500000015}},{"attributes":{"ID":585479,"DIS_CODE":0,"TOWNNAME":"東區","LI":"崇成里","LIN":"16鄰","STREET":"崇明十七街","SECT":" ","MAREA":" ","LANE":" ","ALLEY":" ","HOUSE_NO":"１０號","E_COORD97":170666.81,"N_COORD97":2541225.6899999999,"ADDRESS":"崇明十七街１０號","OBJECTID":585452},"geometry":{"x":170666.80999999959,"y":2541225.6900000013}},{"attributes":{"ID":585480,"DIS_CODE":0,"TOWNNAME":"仁德區","LI":"一甲里","LIN":"11鄰","STREET":"忠義二街","SECT":" ","MAREA":" ","LANE":" ","ALLEY":" ","HOUSE_NO":"９號","E_COORD97":173973.13,"N_COORD97":2542127.2599999998,"ADDRESS":"忠義二街９號","OBJECTID":585453},"geometry":{"x":173973.13000000082,"y":2542127.2600000035}},{"attributes":{"ID":585481,"DIS_CODE":0,"TOWNNAME":"東區","LI":"崇成里","LIN":"16鄰","STREET":"崇明十七街","SECT":" ","MAREA":" ","LANE":" ","ALLEY":" ","HOUSE_NO":"１２號","E_COORD97":170670.89999999999,"N_COORD97":2541225.77,"ADDRESS":"崇明十七街１２號","OBJECTID":585454},"geometry":{"x":170670.9000000013,"y":2541225.7700000014}},{"attributes":{"ID":585482,"DIS_CODE":0,"TOWNNAME":"東區","LI":"崇成里","LIN":"16鄰","STREET":"崇明十七街","SECT":" ","MAREA":" ","LANE":" ","ALLEY":" ","HOUSE_NO":"１４號","E_COORD97":170676.07000000001,"N_COORD97":2541225.77,"ADDRESS":"崇明十七街１４號","OBJECTID":585455},"geometry":{"x":170676.0700000003,"y":2541225.7700000014}},{"attributes":{"ID":585483,"DIS_CODE":0,"TOWNNAME":"東區","LI":"崇成里","LIN":"16鄰","STREET":"崇明十七街","SECT":" ","MAREA":" ","LANE":" ","ALLEY":" ","HOUSE_NO":"１５號","E_COORD97":170669.95000000001,"N_COORD97":2541258.3999999999,"ADDRESS":"崇明十七街１５號","OBJECTID":585456},"geometry":{"x":170669.95000000019,"y":2541258.4000000004}},{"attributes":{"ID":585484,"DIS_CODE":0,"TOWNNAME":"東區","LI":"崇成里","LIN":"16鄰","STREET":"崇明十七街","SECT":" ","MAREA":" ","LANE":" ","ALLEY":" ","HOUSE_NO":"１６號","E_COORD97":170680.89999999999,"N_COORD97":2541226.1800000002,"ADDRESS":"崇明十七街１６號","OBJECTID":585457},"geometry":{"x":170680.90000000224,"y":2541226.1800000016}},{"attributes":{"ID":585485,"DIS_CODE":0,"TOWNNAME":"東區","LI":"崇成里","LIN":"16鄰","STREET":"崇明十七街","SECT":" ","MAREA":" ","LANE":" ","ALLEY":" ","HOUSE_NO":"１７號","E_COORD97":170676.95000000001,"N_COORD97":2541257.5699999998,"ADDRESS":"崇明十七街１７號","OBJECTID":585458},"geometry":{"x":170676.95000000205,"y":2541257.570000004}},{"attributes":{"ID":585486,"DIS_CODE":0,"TOWNNAME":"東區","LI":"崇成里","LIN":"16鄰","STREET":"崇明十七街","SECT":" ","MAREA":" ","LANE":" ","ALLEY":" ","HOUSE_NO":"１８號","E_COORD97":170686.32000000001,"N_COORD97":2541226.27,"ADDRESS":"崇明十七街１８號","OBJECTID":585459},"geometry":{"x":170686.31999999937,"y":2541226.2700000014}},{"attributes":{"ID":585487,"DIS_CODE":0,"TOWNNAME":"東區","LI":"崇成里","LIN":"16鄰","STREET":"崇明十七街","SECT":" ","MAREA":" ","LANE":" ","ALLEY":" ","HOUSE_NO":"１９號","E_COORD97":170680.95000000001,"N_COORD97":2541257.8199999998,"ADDRESS":"崇明十七街１９號","OBJECTID":585460},"geometry":{"x":170680.95000000112,"y":2541257.8200000003}},{"attributes":{"ID":585488,"DIS_CODE":0,"TOWNNAME":"東區","LI":"崇成里","LIN":"16鄰","STREET":"崇明十七街","SECT":" ","MAREA":" ","LANE":" ","ALLEY":" ","HOUSE_NO":"２０號","E_COORD97":170691.07000000001,"N_COORD97":2541226.77,"ADDRESS":"崇明十七街２０號","OBJECTID":585461},"geometry":{"x":170691.0700000003,"y":2541226.7699999996}},{"attributes":{"ID":585489,"DIS_CODE":0,"TOWNNAME":"東區","LI":"崇成里","LIN":"16鄰","STREET":"崇明十七街","SECT":" ","MAREA":" ","LANE":" ","ALLEY":" ","HOUSE_NO":"２１號","E_COORD97":170685.12,"N_COORD97":2541257.7400000002,"ADDRESS":"崇明十七街２１號","OBJECTID":585462},"geometry":{"x":170685.12000000011,"y":2541257.7400000021}},{"attributes":{"ID":585490,"DIS_CODE":0,"TOWNNAME":"東區","LI":"崇成里","LIN":"16鄰","STREET":"崇明十七街","SECT":" ","MAREA":" ","LANE":" ","ALLEY":" ","HOUSE_NO":"２２號","E_COORD97":170694.94,"N_COORD97":2541226.6000000001,"ADDRESS":"崇明十七街２２號","OBJECTID":585463},"geometry":{"x":170694.94000000134,"y":2541226.6000000015}},{"attributes":{"ID":585491,"DIS_CODE":0,"TOWNNAME":"東區","LI":"崇成里","LIN":"16鄰","STREET":"崇明十七街","SECT":" ","MAREA":" ","LANE":" ","ALLEY":" ","HOUSE_NO":"２３號","E_COORD97":170689.37,"N_COORD97":2541257.3999999999,"ADDRESS":"崇明十七街２３號","OBJECTID":585464},"geometry":{"x":170689.37000000197,"y":2541257.4000000004}},{"attributes":{"ID":585492,"DIS_CODE":0,"TOWNNAME":"東區","LI":"崇成里","LIN":"16鄰","STREET":"崇明十七街","SECT":" ","MAREA":" ","LANE":" ","ALLEY":" ","HOUSE_NO":"２４號","E_COORD97":170699.35999999999,"N_COORD97":2541226.3500000001,"ADDRESS":"崇明十七街２４號","OBJECTID":585465},"geometry":{"x":170699.36000000034,"y":2541226.3499999996}},{"attributes":{"ID":585493,"DIS_CODE":0,"TOWNNAME":"東區","LI":"崇成里","LIN":"16鄰","STREET":"崇明十七街","SECT":" ","MAREA":" ","LANE":" ","ALLEY":" ","HOUSE_NO":"２５號","E_COORD97":170693.95999999999,"N_COORD97":2541257.3999999999,"ADDRESS":"崇明十七街２５號","OBJECTID":585466},"geometry":{"x":170693.96000000089,"y":2541257.4000000004}},{"attributes":{"ID":585494,"DIS_CODE":0,"TOWNNAME":"東區","LI":"崇成里","LIN":"16鄰","STREET":"崇明十七街","SECT":" ","MAREA":" ","LANE":" ","ALLEY":" ","HOUSE_NO":"２６號","E_COORD97":170703.44,"N_COORD97":2541226.6000000001,"ADDRESS":"崇明十七街２６號","OBJECTID":585467},"geometry":{"x":170703.44000000134,"y":2541226.6000000015}},{"attributes":{"ID":585495,"DIS_CODE":0,"TOWNNAME":"東區","LI":"崇成里","LIN":"16鄰","STREET":"崇明十七街","SECT":" ","MAREA":" ","LANE":" ","ALLEY":" ","HOUSE_NO":"２７號","E_COORD97":170697.95999999999,"N_COORD97":2541257.3999999999,"ADDRESS":"崇明十七街２７號","OBJECTID":585468},"geometry":{"x":170697.95999999996,"y":2541257.4000000004}},{"attributes":{"ID":585496,"DIS_CODE":0,"TOWNNAME":"東區","LI":"崇成里","LIN":"16鄰","STREET":"崇明十七街","SECT":" ","MAREA":" ","LANE":" ","ALLEY":" ","HOUSE_NO":"２８號","E_COORD97":170708.03,"N_COORD97":2541226.3500000001,"ADDRESS":"崇明十七街２８號","OBJECTID":585469},"geometry":{"x":170708.03000000026,"y":2541226.3499999996}},{"attributes":{"ID":585497,"DIS_CODE":0,"TOWNNAME":"東區","LI":"崇成里","LIN":"16鄰","STREET":"崇明十七街","SECT":" ","MAREA":" ","LANE":" ","ALLEY":" ","HOUSE_NO":"２９號","E_COORD97":170702.54000000001,"N_COORD97":2541257.3999999999,"ADDRESS":"崇明十七街２９號","OBJECTID":585470},"geometry":{"x":170702.54000000004,"y":2541257.4000000004}},{"attributes":{"ID":585498,"DIS_CODE":0,"TOWNNAME":"東區","LI":"崇成里","LIN":"16鄰","STREET":"崇明十七街","SECT":" ","MAREA":" ","LANE":" ","ALLEY":" ","HOUSE_NO":"３０號","E_COORD97":170712.28,"N_COORD97":2541226.27,"ADDRESS":"崇明十七街３０號","OBJECTID":585471},"geometry":{"x":170712.28000000119,"y":2541226.2700000014}},{"attributes":{"ID":585499,"DIS_CODE":0,"TOWNNAME":"東區","LI":"崇成里","LIN":"16鄰","STREET":"崇明十七街","SECT":" ","MAREA":" ","LANE":" ","ALLEY":" ","HOUSE_NO":"３１號","E_COORD97":170706.95999999999,"N_COORD97":2541257.3199999998,"ADDRESS":"崇明十七街３１號","OBJECTID":585472},"geometry":{"x":170706.95999999996,"y":2541257.3200000022}},{"attributes":{"ID":585500,"DIS_CODE":0,"TOWNNAME":"東區","LI":"崇成里","LIN":"16鄰","STREET":"崇明十七街","SECT":" ","MAREA":" ","LANE":" ","ALLEY":" ","HOUSE_NO":"３２號","E_COORD97":170716.53,"N_COORD97":2541226.77,"ADDRESS":"崇明十七街３２號","OBJECTID":585473},"geometry":{"x":170716.53000000026,"y":2541226.7699999996}},{"attributes":{"ID":585501,"DIS_CODE":0,"TOWNNAME":"東區","LI":"崇成里","LIN":"16鄰","STREET":"崇明十七街","SECT":" ","MAREA":" ","LANE":" ","ALLEY":" ","HOUSE_NO":"３３號","E_COORD97":170710.97,"N_COORD97":2541257.3999999999,"ADDRESS":"崇明十七街３３號","OBJECTID":585474},"geometry":{"x":170710.97000000067,"y":2541257.4000000004}},{"attributes":{"ID":585502,"DIS_CODE":0,"TOWNNAME":"東區","LI":"崇成里","LIN":"16鄰","STREET":"崇明十七街","SECT":" ","MAREA":" ","LANE":" ","ALLEY":" ","HOUSE_NO":"３４號","E_COORD97":170720.95000000001,"N_COORD97":2541226.3500000001,"ADDRESS":"崇明十七街３４號","OBJECTID":585475},"geometry":{"x":170720.94999999925,"y":2541226.3499999996}},{"attributes":{"ID":585503,"DIS_CODE":0,"TOWNNAME":"東區","LI":"崇成里","LIN":"16鄰","STREET":"崇明十七街","SECT":" ","MAREA":" ","LANE":" ","ALLEY":" ","HOUSE_NO":"５０號","E_COORD97":170756.88,"N_COORD97":2541225.77,"ADDRESS":"崇明十七街５０號","OBJECTID":585476},"geometry":{"x":170756.88000000175,"y":2541225.7700000014}},{"attributes":{"ID":585504,"DIS_CODE":0,"TOWNNAME":"東區","LI":"崇成里","LIN":"16鄰","STREET":"崇明十七街","SECT":" ","MAREA":" ","LANE":" ","ALLEY":" ","HOUSE_NO":"５１號","E_COORD97":170751.82000000001,"N_COORD97":2541256.6499999999,"ADDRESS":"崇明十七街５１號","OBJECTID":585477},"geometry":{"x":170751.8200000003,"y":2541256.6500000004}},{"attributes":{"ID":585505,"DIS_CODE":0,"TOWNNAME":"東區","LI":"崇成里","LIN":"16鄰","STREET":"崇明十七街","SECT":" ","MAREA":" ","LANE":" ","ALLEY":" ","HOUSE_NO":"７號","E_COORD97":170648.35000000001,"N_COORD97":2541252.9900000002,"ADDRESS":"崇明十七街７號","OBJECTID":585478},"geometry":{"x":170648.35000000149,"y":2541252.9900000002}},{"attributes":{"ID":585506,"DIS_CODE":0,"TOWNNAME":"中西區","LI":"安海里","LIN":"16鄰","STREET":"環河街","SECT":" ","MAREA":" ","LANE":" ","ALLEY":" ","HOUSE_NO":"１３０號","E_COORD97":167255.16,"N_COORD97":2544081.3500000001,"ADDRESS":"環河街１３０號","OBJECTID":585479},"geometry":{"x":167255.16000000108,"y":2544081.3499999996}},{"attributes":{"ID":585507,"DIS_CODE":0,"TOWNNAME":"中西區","LI":"普濟里","LIN":"16鄰","STREET":"郡緯街","SECT":" ","MAREA":" ","LANE":" ","ALLEY":" ","HOUSE_NO":"１０９號","E_COORD97":167838.53,"N_COORD97":2544418.6600000001,"ADDRESS":"郡緯街１０９號","OBJECTID":585480},"geometry":{"x":167838.53000000026,"y":2544418.6600000001}},{"attributes":{"ID":585508,"DIS_CODE":0,"TOWNNAME":"中西區","LI":"普濟里","LIN":"16鄰","STREET":"郡緯街","SECT":" ","MAREA":" ","LANE":" ","ALLEY":" ","HOUSE_NO":"１２２號","E_COORD97":167839.586048,"N_COORD97":2544430.8752600001,"ADDRESS":"郡緯街１２２號","OBJECTID":585481},"geometry":{"x":167839.58604800142,"y":2544430.875260001}},{"attributes":{"ID":585509,"DIS_CODE":0,"TOWNNAME":"下營區","LI":"仁里里","LIN":"16鄰","STREET":"公園路","SECT":" ","MAREA":" ","LANE":" ","ALLEY":" ","HOUSE_NO":"７８號","E_COORD97":174251.51000000001,"N_COORD97":2570331.5099999998,"ADDRESS":"公園路７８號","OBJECTID":585482},"geometry":{"x":174251.51000000071,"y":2570331.5100000016}},{"attributes":{"ID":585510,"DIS_CODE":0,"TOWNNAME":"下營區","LI":"仁里里","LIN":"16鄰","STREET":"公園路","SECT":" ","MAREA":" ","LANE":" ","ALLEY":" ","HOUSE_NO":"８０號","E_COORD97":174247.95000000001,"N_COORD97":2570330.27,"ADDRESS":"公園路８０號","OBJECTID":585483},"geometry":{"x":174247.95000000019,"y":2570330.2699999996}},{"attributes":{"ID":585511,"DIS_CODE":0,"TOWNNAME":"下營區","LI":"仁里里","LIN":"16鄰","STREET":"公園路","SECT":" ","MAREA":" ","LANE":" ","ALLEY":" ","HOUSE_NO":"８２號","E_COORD97":174244.45000000001,"N_COORD97":2570329.21,"ADDRESS":"公園路８２號","OBJECTID":585484},"geometry":{"x":174244.45000000112,"y":2570329.2100000009}},{"attributes":{"ID":585512,"DIS_CODE":0,"TOWNNAME":"下營區","LI":"仁里里","LIN":"16鄰","STREET":"公園路","SECT":" ","MAREA":" ","LANE":" ","ALLEY":" ","HOUSE_NO":"８６號","E_COORD97":174240.67000000001,"N_COORD97":2570327.6099999999,"ADDRESS":"公園路８６號","OBJECTID":585485},"geometry":{"x":174240.67000000086,"y":2570327.6099999994}},{"attributes":{"ID":585513,"DIS_CODE":0,"TOWNNAME":"下營區","LI":"仁里里","LIN":"16鄰","STREET":"公園路","SECT":" ","MAREA":" ","LANE":" ","ALLEY":" ","HOUSE_NO":"８８號","E_COORD97":174234.45999999999,"N_COORD97":2570325.21,"ADDRESS":"公園路８８號","OBJECTID":585486},"geometry":{"x":174234.45999999996,"y":2570325.2100000009}},{"attributes":{"ID":585514,"DIS_CODE":0,"TOWNNAME":"下營區","LI":"仁里里","LIN":"16鄰","STREET":"公園路","SECT":" ","MAREA":" ","LANE":" ","ALLEY":" ","HOUSE_NO":"９０號","E_COORD97":174231.42999999999,"N_COORD97":2570323.5699999998,"ADDRESS":"公園路９０號","OBJECTID":585487},"geometry":{"x":174231.43000000156,"y":2570323.5700000022}},{"attributes":{"ID":585515,"DIS_CODE":0,"TOWNNAME":"下營區","LI":"仁里里","LIN":"16鄰","STREET":"公園路","SECT":" ","MAREA":" ","LANE":" ","ALLEY":" ","HOUSE_NO":"９２號","E_COORD97":174227.79999999999,"N_COORD97":2570322.3799999999,"ADDRESS":"公園路９２號","OBJECTID":585488},"geometry":{"x":174227.80000000075,"y":2570322.379999999}},{"attributes":{"ID":585516,"DIS_CODE":0,"TOWNNAME":"下營區","LI":"仁里里","LIN":"16鄰","STREET":"公園路","SECT":" ","MAREA":" ","LANE":" ","ALLEY":" ","HOUSE_NO":"９６號","E_COORD97":174221.98000000001,"N_COORD97":2570321.1299999999,"ADDRESS":"公園路９６號","OBJECTID":585489},"geometry":{"x":174221.98000000138,"y":2570321.129999999}},{"attributes":{"ID":585517,"DIS_CODE":0,"TOWNNAME":"下營區","LI":"仁里里","LIN":"16鄰","STREET":"友愛街","SECT":" ","MAREA":" ","LANE":" ","ALLEY":" ","HOUSE_NO":"１８號","E_COORD97":174229.64000000001,"N_COORD97":2570364.8700000001,"ADDRESS":"友愛街１８號","OBJECTID":585490},"geometry":{"x":174229.63999999966,"y":2570364.870000001}},{"attributes":{"ID":585518,"DIS_CODE":0,"TOWNNAME":"下營區","LI":"仁里里","LIN":"16鄰","STREET":"友愛街","SECT":" ","MAREA":" ","LANE":" ","ALLEY":" ","HOUSE_NO":"３０號","E_COORD97":174214.57999999999,"N_COORD97":2570380.0299999998,"ADDRESS":"友愛街３０號","OBJECTID":585491},"geometry":{"x":174214.58000000101,"y":2570380.0300000031}},{"attributes":{"ID":585519,"DIS_CODE":0,"TOWNNAME":"下營區","LI":"仁里里","LIN":"16鄰","STREET":"友愛街","SECT":" ","MAREA":" ","LANE":" ","ALLEY":" ","HOUSE_NO":"６號","E_COORD97":174219.67999999999,"N_COORD97":2570335.75,"ADDRESS":"友愛街６號","OBJECTID":585492},"geometry":{"x":174219.68000000063,"y":2570335.7500000019}},{"attributes":{"ID":585520,"DIS_CODE":0,"TOWNNAME":"下營區","LI":"營前里","LIN":"16鄰","STREET":"文化街","SECT":" ","MAREA":" ","LANE":" ","ALLEY":" ","HOUSE_NO":"６３號","E_COORD97":174789.10000000001,"N_COORD97":2570369.1299999999,"ADDRESS":"文化街６３號","OBJECTID":585493},"geometry":{"x":174789.09999999963,"y":2570369.1300000027}},{"attributes":{"ID":585521,"DIS_CODE":0,"TOWNNAME":"下營區","LI":"營前里","LIN":"16鄰","STREET":"文化街","SECT":" ","MAREA":" ","LANE":" ","ALLEY":" ","HOUSE_NO":"６５號","E_COORD97":174783.62,"N_COORD97":2570381.3300000001,"ADDRESS":"文化街６５號","OBJECTID":585494},"geometry":{"x":174783.62000000104,"y":2570381.3300000001}},{"attributes":{"ID":585522,"DIS_CODE":0,"TOWNNAME":"下營區","LI":"營前里","LIN":"16鄰","STREET":"文化街","SECT":" ","MAREA":" ","LANE":" ","ALLEY":" ","HOUSE_NO":"７３號","E_COORD97":174775.76999999999,"N_COORD97":2570389.5800000001,"ADDRESS":"文化街７３號","OBJECTID":585495},"geometry":{"x":174775.76999999955,"y":2570389.5800000001}},{"attributes":{"ID":585523,"DIS_CODE":0,"TOWNNAME":"下營區","LI":"營前里","LIN":"16鄰","STREET":"文化街","SECT":" ","MAREA":" ","LANE":" ","ALLEY":" ","HOUSE_NO":"７５號","E_COORD97":174774.70999999999,"N_COORD97":2570393.8199999998,"ADDRESS":"文化街７５號","OBJECTID":585496},"geometry":{"x":174774.71000000089,"y":2570393.8200000022}},{"attributes":{"ID":585524,"DIS_CODE":0,"TOWNNAME":"下營區","LI":"營前里","LIN":"16鄰","STREET":"文化街","SECT":" ","MAREA":" ","LANE":" ","ALLEY":" ","HOUSE_NO":"７７號","E_COORD97":174762.62,"N_COORD97":2570408.4199999999,"ADDRESS":"文化街７７號","OBJECTID":585497},"geometry":{"x":174762.62000000011,"y":2570408.4199999981}},{"attributes":{"ID":585525,"DIS_CODE":0,"TOWNNAME":"下營區","LI":"營前里","LIN":"16鄰","STREET":"文明街","SECT":" ","MAREA":" ","LANE":" ","ALLEY":" ","HOUSE_NO":"１０號","E_COORD97":174766.35999999999,"N_COORD97":2570364.4700000002,"ADDRESS":"文明街１０號","OBJECTID":585498},"geometry":{"x":174766.36000000034,"y":2570364.4700000007}},{"attributes":{"ID":585526,"DIS_CODE":0,"TOWNNAME":"下營區","LI":"營前里","LIN":"16鄰","STREET":"文明街","SECT":" ","MAREA":" ","LANE":" ","ALLEY":" ","HOUSE_NO":"２２號","E_COORD97":174746.06,"N_COORD97":2570377.6200000001,"ADDRESS":"文明街２２號","OBJECTID":585499},"geometry":{"x":174746.06000000052,"y":2570377.620000001}},{"attributes":{"ID":585527,"DIS_CODE":0,"TOWNNAME":"下營區","LI":"營前里","LIN":"16鄰","STREET":"文明街","SECT":" ","MAREA":" ","LANE":" ","ALLEY":" ","HOUSE_NO":"８號","E_COORD97":174770.04000000001,"N_COORD97":2570365.1699999999,"ADDRESS":"文明街８號","OBJECTID":585500},"geometry":{"x":174770.0400000019,"y":2570365.1699999999}},{"attributes":{"ID":585528,"DIS_CODE":0,"TOWNNAME":"下營區","LI":"下營里","LIN":"16鄰","STREET":"民族一街","SECT":" ","MAREA":" ","LANE":" ","ALLEY":" ","HOUSE_NO":"４０號","E_COORD97":174444.23000000001,"N_COORD97":2570568,"ADDRESS":"民族一街４０號","OBJECTID":585501},"geometry":{"x":174444.23000000138,"y":2570568.0000000019}},{"attributes":{"ID":585529,"DIS_CODE":0,"TOWNNAME":"下營區","LI":"下營里","LIN":"16鄰","STREET":"民族一街","SECT":" ","MAREA":" ","LANE":" ","ALLEY":" ","HOUSE_NO":"４２號","E_COORD97":174425.35999999999,"N_COORD97":2570562.7799999998,"ADDRESS":"民族一街４２號","OBJECTID":585502},"geometry":{"x":174425.36000000034,"y":2570562.7800000012}},{"attributes":{"ID":585530,"DIS_CODE":0,"TOWNNAME":"下營區","LI":"下營里","LIN":"16鄰","STREET":"民族一街","SECT":" ","MAREA":" ","LANE":" ","ALLEY":" ","HOUSE_NO":"４６號","E_COORD97":174419.42999999999,"N_COORD97":2570561.1099999999,"ADDRESS":"民族一街４６號","OBJECTID":585503},"geometry":{"x":174419.42999999877,"y":2570561.1099999994}},{"attributes":{"ID":585531,"DIS_CODE":0,"TOWNNAME":"下營區","LI":"下營里","LIN":"16鄰","STREET":"民族一街","SECT":" ","MAREA":" ","LANE":" ","ALLEY":" ","HOUSE_NO":"４８號","E_COORD97":174414.89999999999,"N_COORD97":2570560.2000000002,"ADDRESS":"民族一街４８號","OBJECTID":585504},"geometry":{"x":174414.90000000037,"y":2570560.2000000011}},{"attributes":{"ID":585532,"DIS_CODE":0,"TOWNNAME":"下營區","LI":"下營里","LIN":"16鄰","STREET":"民族一街","SECT":" ","MAREA":" ","LANE":" ","ALLEY":" ","HOUSE_NO":"５０號","E_COORD97":174410.62,"N_COORD97":2570559.0600000001,"ADDRESS":"民族一街５０號","OBJECTID":585505},"geometry":{"x":174410.62000000104,"y":2570559.0600000024}},{"attributes":{"ID":585533,"DIS_CODE":0,"TOWNNAME":"下營區","LI":"下營里","LIN":"16鄰","STREET":"民權一街","SECT":" ","MAREA":" ","LANE":" ","ALLEY":" ","HOUSE_NO":"４７號","E_COORD97":174435.23000000001,"N_COORD97":2570584.0699999998,"ADDRESS":"民權一街４７號","OBJECTID":585506},"geometry":{"x":174435.23000000231,"y":2570584.0699999984}},{"attributes":{"ID":585534,"DIS_CODE":0,"TOWNNAME":"下營區","LI":"下營里","LIN":"16鄰","STREET":"民權一街","SECT":" ","MAREA":" ","LANE":" ","ALLEY":" ","HOUSE_NO":"５３號","E_COORD97":174433.38,"N_COORD97":2570598.4399999999,"ADDRESS":"民權一街５３號","OBJECTID":585507},"geometry":{"x":174433.37999999989,"y":2570598.4400000013}},{"attributes":{"ID":585535,"DIS_CODE":0,"TOWNNAME":"下營區","LI":"下營里","LIN":"16鄰","STREET":"民權一街","SECT":" ","MAREA":" ","LANE":" ","ALLEY":" ","HOUSE_NO":"５９號","E_COORD97":174423.16,"N_COORD97":2570614.9100000001,"ADDRESS":"民權一街５９號","OBJECTID":585508},"geometry":{"x":174423.16000000015,"y":2570614.9100000001}},{"attributes":{"ID":585536,"DIS_CODE":0,"TOWNNAME":"下營區","LI":"宅內里","LIN":"16鄰","STREET":"玄德街","SECT":" ","MAREA":" ","LANE":" ","ALLEY":" ","HOUSE_NO":"４９號","E_COORD97":174336.57999999999,"N_COORD97":2570610.0699999998,"ADDRESS":"玄德街４９號","OBJECTID":585509},"geometry":{"x":174336.58000000101,"y":2570610.0700000003}},{"attributes":{"ID":585537,"DIS_CODE":0,"TOWNNAME":"下營區","LI":"宅內里","LIN":"16鄰","STREET":"玄德街","SECT":" ","MAREA":" ","LANE":" ","ALLEY":" ","HOUSE_NO":"５１號","E_COORD97":174336.38,"N_COORD97":2570613.5499999998,"ADDRESS":"玄德街５１號","OBJECTID":585510},"geometry":{"x":174336.37999999989,"y":2570613.5500000026}},{"attributes":{"ID":585538,"DIS_CODE":0,"TOWNNAME":"下營區","LI":"宅內里","LIN":"16鄰","STREET":"玄德街","SECT":" ","MAREA":" ","LANE":" ","ALLEY":" ","HOUSE_NO":"５３號","E_COORD97":174336.10000000001,"N_COORD97":2570617.5,"ADDRESS":"玄德街５３號","OBJECTID":585511},"geometry":{"x":174336.10000000056,"y":2570617.5}},{"attributes":{"ID":585539,"DIS_CODE":0,"TOWNNAME":"下營區","LI":"宅內里","LIN":"16鄰","STREET":"玄德街","SECT":" ","MAREA":" ","LANE":" ","ALLEY":" ","HOUSE_NO":"５５號","E_COORD97":174335.88,"N_COORD97":2570621.77,"ADDRESS":"玄德街５５號","OBJECTID":585512},"geometry":{"x":174335.88000000082,"y":2570621.7699999996}},{"attributes":{"ID":585540,"DIS_CODE":0,"TOWNNAME":"下營區","LI":"宅內里","LIN":"16鄰","STREET":"玄德街","SECT":" ","MAREA":" ","LANE":" ","ALLEY":" ","HOUSE_NO":"５７號","E_COORD97":174335.92000000001,"N_COORD97":2570626.1899999999,"ADDRESS":"玄德街５７號","OBJECTID":585513},"geometry":{"x":174335.92000000086,"y":2570626.1899999995}},{"attributes":{"ID":585541,"DIS_CODE":0,"TOWNNAME":"下營區","LI":"宅內里","LIN":"16鄰","STREET":"玄德街","SECT":" ","MAREA":" ","LANE":" ","ALLEY":" ","HOUSE_NO":"５９號","E_COORD97":174335.69,"N_COORD97":2570630.23,"ADDRESS":"玄德街５９號","OBJECTID":585514},"geometry":{"x":174335.69000000134,"y":2570630.2300000004}},{"attributes":{"ID":585542,"DIS_CODE":0,"TOWNNAME":"下營區","LI":"宅內里","LIN":"16鄰","STREET":"玄德街","SECT":" ","MAREA":" ","LANE":" ","ALLEY":" ","HOUSE_NO":"６３號","E_COORD97":174353.73999999999,"N_COORD97":2570639.5099999998,"ADDRESS":"玄德街６３號","OBJECTID":585515},"geometry":{"x":174353.74000000115,"y":2570639.5100000016}},{"attributes":{"ID":585543,"DIS_CODE":0,"TOWNNAME":"下營區","LI":"宅內里","LIN":"16鄰","STREET":"玄德街","SECT":" ","MAREA":" ","LANE":" ","ALLEY":" ","HOUSE_NO":"６５號","E_COORD97":174358.23999999999,"N_COORD97":2570640.23,"ADDRESS":"玄德街６５號","OBJECTID":585516},"geometry":{"x":174358.24000000022,"y":2570640.2300000004}},{"attributes":{"ID":585544,"DIS_CODE":0,"TOWNNAME":"下營區","LI":"宅內里","LIN":"16鄰","STREET":"玄德街","SECT":" ","MAREA":" ","LANE":" ","ALLEY":" ","HOUSE_NO":"６７號","E_COORD97":174356.72,"N_COORD97":2570649.5,"ADDRESS":"玄德街６７號","OBJECTID":585517},"geometry":{"x":174356.7200000016,"y":2570649.5000000019}},{"attributes":{"ID":585545,"DIS_CODE":0,"TOWNNAME":"下營區","LI":"宅內里","LIN":"16鄰","STREET":"玄德街","SECT":" ","MAREA":" ","LANE":" ","ALLEY":" ","HOUSE_NO":"７１號","E_COORD97":174368.45000000001,"N_COORD97":2570646.3199999998,"ADDRESS":"玄德街７１號","OBJECTID":585518},"geometry":{"x":174368.45000000019,"y":2570646.3200000003}},{"attributes":{"ID":585546,"DIS_CODE":0,"TOWNNAME":"下營區","LI":"宅內里","LIN":"16鄰","STREET":"玄德街","SECT":" ","MAREA":" ","LANE":" ","ALLEY":" ","HOUSE_NO":"７３號","E_COORD97":174367.98000000001,"N_COORD97":2570652.23,"ADDRESS":"玄德街７３號","OBJECTID":585519},"geometry":{"x":174367.98000000138,"y":2570652.2300000023}},{"attributes":{"ID":585547,"DIS_CODE":0,"TOWNNAME":"下營區","LI":"宅內里","LIN":"16鄰","STREET":"玄德街","SECT":" ","MAREA":" ","LANE":" ","ALLEY":" ","HOUSE_NO":"７５號","E_COORD97":174348.79999999999,"N_COORD97":2570661.1200000001,"ADDRESS":"玄德街７５號","OBJECTID":585520},"geometry":{"x":174348.79999999981,"y":2570661.120000001}},{"attributes":{"ID":585548,"DIS_CODE":0,"TOWNNAME":"中西區","LI":"大涼里","LIN":"16鄰","STREET":"府前一街","SECT":" ","MAREA":" ","LANE":" ","ALLEY":" ","HOUSE_NO":"６５號","E_COORD97":166762.54999999999,"N_COORD97":2543853.8700000001,"ADDRESS":"府前一街６５號","OBJECTID":585521},"geometry":{"x":166762.54999999981,"y":2543853.8700000029}},{"attributes":{"ID":585549,"DIS_CODE":0,"TOWNNAME":"中西區","LI":"大涼里","LIN":"16鄰","STREET":"府前一街","SECT":" ","MAREA":" ","LANE":" ","ALLEY":" ","HOUSE_NO":"６７號","E_COORD97":166760.70999999999,"N_COORD97":2543859.0800000001,"ADDRESS":"府前一街６７號","OBJECTID":585522},"geometry":{"x":166760.71000000183,"y":2543859.0800000019}},{"attributes":{"ID":585550,"DIS_CODE":0,"TOWNNAME":"中西區","LI":"大涼里","LIN":"16鄰","STREET":"府前一街","SECT":" ","MAREA":" ","LANE":" ","ALLEY":" ","HOUSE_NO":"６９號","E_COORD97":166758.79999999999,"N_COORD97":2543863.23,"ADDRESS":"府前一街６９號","OBJECTID":585523},"geometry":{"x":166758.80000000075,"y":2543863.2300000004}},{"attributes":{"ID":585551,"DIS_CODE":0,"TOWNNAME":"中西區","LI":"大涼里","LIN":"16鄰","STREET":"府前一街","SECT":" ","MAREA":" ","LANE":" ","ALLEY":" ","HOUSE_NO":"７１號","E_COORD97":166757.82000000001,"N_COORD97":2543867.3700000001,"ADDRESS":"府前一街７１號","OBJECTID":585524},"geometry":{"x":166757.82000000123,"y":2543867.3700000029}},{"attributes":{"ID":585552,"DIS_CODE":0,"TOWNNAME":"中西區","LI":"大涼里","LIN":"16鄰","STREET":"府前一街","SECT":" ","MAREA":" ","LANE":" ","ALLEY":" ","HOUSE_NO":"７３號","E_COORD97":166756.38,"N_COORD97":2543871.6600000001,"ADDRESS":"府前一街７３號","OBJECTID":585525},"geometry":{"x":166756.38000000082,"y":2543871.660000002}},{"attributes":{"ID":585553,"DIS_CODE":0,"TOWNNAME":"中西區","LI":"大涼里","LIN":"16鄰","STREET":"府前一街","SECT":" ","MAREA":" ","LANE":" ","ALLEY":" ","HOUSE_NO":"７５號","E_COORD97":166755.17000000001,"N_COORD97":2543875.7000000002,"ADDRESS":"府前一街７５號","OBJECTID":585526},"geometry":{"x":166755.16999999993,"y":2543875.6999999993}},{"attributes":{"ID":585554,"DIS_CODE":0,"TOWNNAME":"中西區","LI":"大涼里","LIN":"16鄰","STREET":"府前一街","SECT":" ","MAREA":" ","LANE":" ","ALLEY":" ","HOUSE_NO":"７７號","E_COORD97":166753.54999999999,"N_COORD97":2543880.5600000001,"ADDRESS":"府前一街７７號","OBJECTID":585527},"geometry":{"x":166753.55000000075,"y":2543880.5600000005}},{"attributes":{"ID":585555,"DIS_CODE":0,"TOWNNAME":"中西區","LI":"大涼里","LIN":"16鄰","STREET":"府前一街","SECT":" ","MAREA":" ","LANE":" ","ALLEY":" ","HOUSE_NO":"７９號","E_COORD97":166752.34,"N_COORD97":2543883.79,"ADDRESS":"府前一街７９號","OBJECTID":585528},"geometry":{"x":166752.33999999985,"y":2543883.790000001}},{"attributes":{"ID":585556,"DIS_CODE":0,"TOWNNAME":"中西區","LI":"大涼里","LIN":"16鄰","STREET":"府前一街","SECT":" ","MAREA":" ","LANE":" ","ALLEY":" ","HOUSE_NO":"８１號","E_COORD97":166750.38,"N_COORD97":2543888.7999999998,"ADDRESS":"府前一街８１號","OBJECTID":585529},"geometry":{"x":166750.37999999989,"y":2543888.8000000026}},{"attributes":{"ID":585557,"DIS_CODE":0,"TOWNNAME":"中西區","LI":"大涼里","LIN":"16鄰","STREET":"府前一街","SECT":" ","MAREA":" ","LANE":" ","ALLEY":" ","HOUSE_NO":"８３號","E_COORD97":166749.63,"N_COORD97":2543893.4300000002,"ADDRESS":"府前一街８３號","OBJECTID":585530},"geometry":{"x":166749.63000000082,"y":2543893.4300000016}},{"attributes":{"ID":585558,"DIS_CODE":0,"TOWNNAME":"中西區","LI":"大涼里","LIN":"16鄰","STREET":"府前一街","SECT":" ","MAREA":" ","LANE":" ","ALLEY":" ","HOUSE_NO":"８５號","E_COORD97":166748.19,"N_COORD97":2543897.3500000001,"ADDRESS":"府前一街８５號","OBJECTID":585531},"geometry":{"x":166748.19000000134,"y":2543897.3500000015}},{"attributes":{"ID":585559,"DIS_CODE":0,"TOWNNAME":"中西區","LI":"大涼里","LIN":"16鄰","STREET":"府前一街","SECT":" ","MAREA":" ","LANE":" ","ALLEY":" ","HOUSE_NO":"８７號","E_COORD97":166747.62,"N_COORD97":2543902.5600000001,"ADDRESS":"府前一街８７號","OBJECTID":585532},"geometry":{"x":166747.62000000011,"y":2543902.5600000042}},{"attributes":{"ID":585560,"DIS_CODE":0,"TOWNNAME":"中西區","LI":"大涼里","LIN":"16鄰","STREET":"府前一街","SECT":" ","MAREA":" ","LANE":" ","ALLEY":" ","HOUSE_NO":"８９號","E_COORD97":166747.67000000001,"N_COORD97":2543907.3999999999,"ADDRESS":"府前一街８９號","OBJECTID":585533},"geometry":{"x":166747.67000000086,"y":2543907.4000000022}},{"attributes":{"ID":585561,"DIS_CODE":0,"TOWNNAME":"中西區","LI":"大涼里","LIN":"16鄰","STREET":"府前一街","SECT":" ","MAREA":" ","LANE":" ","ALLEY":" ","HOUSE_NO":"９１號","E_COORD97":166747.20999999999,"N_COORD97":2543910.9100000001,"ADDRESS":"府前一街９１號","OBJECTID":585534},"geometry":{"x":166747.21000000183,"y":2543910.910000002}},{"attributes":{"ID":585562,"DIS_CODE":0,"TOWNNAME":"中西區","LI":"大涼里","LIN":"16鄰","STREET":"府前一街","SECT":" ","MAREA":" ","LANE":" ","ALLEY":" ","HOUSE_NO":"９３號","E_COORD97":166742.07999999999,"N_COORD97":2543914.7400000002,"ADDRESS":"府前一街９３號","OBJECTID":585535},"geometry":{"x":166742.08000000101,"y":2543914.7400000021}},{"attributes":{"ID":585563,"DIS_CODE":0,"TOWNNAME":"中西區","LI":"大涼里","LIN":"16鄰","STREET":"府前一街","SECT":" ","MAREA":" ","LANE":" ","ALLEY":" ","HOUSE_NO":"９５號","E_COORD97":166741.20999999999,"N_COORD97":2543918.9500000002,"ADDRESS":"府前一街９５號","OBJECTID":585536},"geometry":{"x":166741.21000000089,"y":2543918.950000003}},{"attributes":{"ID":585564,"DIS_CODE":0,"TOWNNAME":"中西區","LI":"大涼里","LIN":"16鄰","STREET":"府前一街","SECT":" ","MAREA":" ","LANE":" ","ALLEY":" ","HOUSE_NO":"９７號","E_COORD97":166739.37,"N_COORD97":2543922.6899999999,"ADDRESS":"府前一街９７號","OBJECTID":585537},"geometry":{"x":166739.36999999918,"y":2543922.6899999995}},{"attributes":{"ID":585565,"DIS_CODE":0,"TOWNNAME":"中西區","LI":"大涼里","LIN":"16鄰","STREET":"府前一街","SECT":" ","MAREA":" ","LANE":" ","ALLEY":" ","HOUSE_NO":"９９號","E_COORD97":166737.87,"N_COORD97":2543927.27,"ADDRESS":"府前一街９９號","OBJECTID":585538},"geometry":{"x":166737.87000000197,"y":2543927.2700000033}},{"attributes":{"ID":585566,"DIS_CODE":0,"TOWNNAME":"永康區","LI":"北灣里","LIN":"16鄰","STREET":"信義二街","SECT":" ","MAREA":" ","LANE":" ","ALLEY":" ","HOUSE_NO":"１５０號","E_COORD97":174863.66,"N_COORD97":2545740.9399999999,"ADDRESS":"信義二街１５０號","OBJECTID":585539},"geometry":{"x":174863.66000000015,"y":2545740.9400000013}},{"attributes":{"ID":585567,"DIS_CODE":0,"TOWNNAME":"永康區","LI":"北灣里","LIN":"16鄰","STREET":"信義二街","SECT":" ","MAREA":" ","LANE":" ","ALLEY":" ","HOUSE_NO":"１２６號","E_COORD97":174902.45000000001,"N_COORD97":2545747.3500000001,"ADDRESS":"信義二街１２６號","OBJECTID":585540},"geometry":{"x":174902.45000000019,"y":2545747.3500000034}},{"attributes":{"ID":585568,"DIS_CODE":0,"TOWNNAME":"永康區","LI":"正強里","LIN":"16鄰","STREET":"正強街","SECT":" ","MAREA":" ","LANE":" ","ALLEY":" ","HOUSE_NO":"１８１號","E_COORD97":173303.60999999999,"N_COORD97":2547602.3199999998,"ADDRESS":"正強街１８１號","OBJECTID":585541},"geometry":{"x":173303.6100000022,"y":2547602.3200000003}},{"attributes":{"ID":585569,"DIS_CODE":0,"TOWNNAME":"永康區","LI":"正強里","LIN":"16鄰","STREET":"正強街","SECT":" ","MAREA":" ","LANE":" ","ALLEY":" ","HOUSE_NO":"１７１號","E_COORD97":173305.92000000001,"N_COORD97":2547560.4500000002,"ADDRESS":"正強街１７１號","OBJECTID":585542},"geometry":{"x":173305.91999999993,"y":2547560.4500000011}},{"attributes":{"ID":585570,"DIS_CODE":0,"TOWNNAME":"永康區","LI":"正強里","LIN":"16鄰","STREET":"自強路","SECT":" ","MAREA":" ","LANE":" ","ALLEY":" ","HOUSE_NO":"２２２號","E_COORD97":173303.34,"N_COORD97":2547606.8199999998,"ADDRESS":"自強路２２２號","OBJECTID":585543},"geometry":{"x":173303.34000000078,"y":2547606.8200000022}},{"attributes":{"ID":585571,"DIS_CODE":0,"TOWNNAME":"永康區","LI":"正強里","LIN":"16鄰","STREET":"自強路","SECT":" ","MAREA":" ","LANE":" ","ALLEY":" ","HOUSE_NO":"２１４號","E_COORD97":173260.39999999999,"N_COORD97":2547555.75,"ADDRESS":"自強路２１４號","OBJECTID":585544},"geometry":{"x":173260.40000000037,"y":2547555.7500000019}},{"attributes":{"ID":585572,"DIS_CODE":0,"TOWNNAME":"永康區","LI":"復華里","LIN":"16鄰","STREET":"復華七街","SECT":" ","MAREA":" ","LANE":" ","ALLEY":" ","HOUSE_NO":"４８號","E_COORD97":172733.03,"N_COORD97":2546034.2000000002,"ADDRESS":"復華七街４８號","OBJECTID":585545},"geometry":{"x":172733.03000000119,"y":2546034.2000000011}},{"attributes":{"ID":585573,"DIS_CODE":0,"TOWNNAME":"善化區","LI":"坐駕里","LIN":"13鄰","STREET":"和平路","SECT":" ","MAREA":" ","LANE":" ","ALLEY":" ","HOUSE_NO":"４２號","E_COORD97":178157.53,"N_COORD97":2558754,"ADDRESS":"和平路４２號","OBJECTID":585546},"geometry":{"x":178157.53000000119,"y":2558754}},{"attributes":{"ID":585574,"DIS_CODE":0,"TOWNNAME":"善化區","LI":"文昌里","LIN":"7鄰","STREET":"光復路","SECT":" ","MAREA":" ","LANE":" ","ALLEY":" ","HOUSE_NO":"１６０號","E_COORD97":177322.73999999999,"N_COORD97":2558676.2599999998,"ADDRESS":"光復路１６０號","OBJECTID":585547},"geometry":{"x":177322.74000000022,"y":2558676.2600000016}},{"attributes":{"ID":585575,"DIS_CODE":0,"TOWNNAME":"善化區","LI":"小新里","LIN":"7鄰","STREET":"成功路","SECT":" ","MAREA":" ","LANE":" ","ALLEY":" ","HOUSE_NO":"１５７號之１","E_COORD97":179754.64000000001,"N_COORD97":2558632.1899999999,"ADDRESS":"成功路１５７號之１","OBJECTID":585548},"geometry":{"x":179754.64000000153,"y":2558632.1900000013}},{"attributes":{"ID":585576,"DIS_CODE":0,"TOWNNAME":"善化區","LI":"光文里","LIN":"23鄰","STREET":"公園路","SECT":" ","MAREA":" ","LANE":" ","ALLEY":" ","HOUSE_NO":"４８號","E_COORD97":178221.20999999999,"N_COORD97":2559229.0600000001,"ADDRESS":"公園路４８號","OBJECTID":585549},"geometry":{"x":178221.20999999996,"y":2559229.0600000005}},{"attributes":{"ID":585577,"DIS_CODE":0,"TOWNNAME":"善化區","LI":"光文里","LIN":"23鄰","STREET":"光輝街","SECT":" ","MAREA":" ","LANE":" ","ALLEY":" ","HOUSE_NO":"１６７號","E_COORD97":178216.64000000001,"N_COORD97":2559258.2200000002,"ADDRESS":"光輝街１６７號","OBJECTID":585550},"geometry":{"x":178216.63999999966,"y":2559258.2200000007}},{"attributes":{"ID":585578,"DIS_CODE":0,"TOWNNAME":"中西區","LI":"文賢里","LIN":"2鄰","STREET":"文和街","SECT":" ","MAREA":" ","LANE":" ","ALLEY":" ","HOUSE_NO":"４２號","E_COORD97":167233.92000000001,"N_COORD97":2544937.77,"ADDRESS":"文和街４２號","OBJECTID":585551},"geometry":{"x":167233.92000000179,"y":2544937.7700000014}},{"attributes":{"ID":585579,"DIS_CODE":0,"TOWNNAME":"東區","LI":"崇明里","LIN":"16鄰","STREET":"崇明路","SECT":" ","MAREA":" ","LANE":" ","ALLEY":" ","HOUSE_NO":"５９２號","E_COORD97":170509.31,"N_COORD97":2541459.0899999999,"ADDRESS":"崇明路５９２號","OBJECTID":585552},"geometry":{"x":170509.30999999866,"y":2541459.0899999999}},{"attributes":{"ID":585580,"DIS_CODE":0,"TOWNNAME":"東區","LI":"崇明里","LIN":"16鄰","STREET":"崇明路","SECT":" ","MAREA":" ","LANE":" ","ALLEY":" ","HOUSE_NO":"６００號","E_COORD97":170522.01999999999,"N_COORD97":2541444.8399999999,"ADDRESS":"崇明路６００號","OBJECTID":585553},"geometry":{"x":170522.02000000048,"y":2541444.839999998}},{"attributes":{"ID":585581,"DIS_CODE":0,"TOWNNAME":"東區","LI":"崇明里","LIN":"16鄰","STREET":"崇明路","SECT":" ","MAREA":" ","LANE":" ","ALLEY":" ","HOUSE_NO":"６１２號","E_COORD97":170538.34,"N_COORD97":2541424.5699999998,"ADDRESS":"崇明路６１２號","OBJECTID":585554},"geometry":{"x":170538.34000000171,"y":2541424.5700000022}},{"attributes":{"ID":585582,"DIS_CODE":0,"TOWNNAME":"東區","LI":"崇明里","LIN":"16鄰","STREET":"崇明路","SECT":" ","MAREA":" ","LANE":" ","ALLEY":" ","HOUSE_NO":"６１４號","E_COORD97":170541.73000000001,"N_COORD97":2541421.8900000001,"ADDRESS":"崇明路６１４號","OBJECTID":585555},"geometry":{"x":170541.73000000138,"y":2541421.8900000043}},{"attributes":{"ID":585583,"DIS_CODE":0,"TOWNNAME":"東區","LI":"崇明里","LIN":"16鄰","STREET":"崇明路","SECT":" ","MAREA":" ","LANE":" ","ALLEY":" ","HOUSE_NO":"６１６號","E_COORD97":170545.97,"N_COORD97":2541418.7799999998,"ADDRESS":"崇明路６１６號","OBJECTID":585556},"geometry":{"x":170545.97000000067,"y":2541418.7800000012}},{"attributes":{"ID":585584,"DIS_CODE":0,"TOWNNAME":"東區","LI":"崇明里","LIN":"16鄰","STREET":"崇明路","SECT":" ","MAREA":" ","LANE":" ","ALLEY":" ","HOUSE_NO":"６１８號","E_COORD97":170549.22,"N_COORD97":2541415.6800000002,"ADDRESS":"崇明路６１８號","OBJECTID":585557},"geometry":{"x":170549.2200000016,"y":2541415.6800000034}},{"attributes":{"ID":585585,"DIS_CODE":0,"TOWNNAME":"東區","LI":"崇明里","LIN":"16鄰","STREET":"崇明路","SECT":" ","MAREA":" ","LANE":" ","ALLEY":" ","HOUSE_NO":"６２０號","E_COORD97":170552.60999999999,"N_COORD97":2541412.71,"ADDRESS":"崇明路６２０號","OBJECTID":585558},"geometry":{"x":170552.61000000127,"y":2541412.7100000009}},{"attributes":{"ID":585586,"DIS_CODE":0,"TOWNNAME":"東區","LI":"崇明里","LIN":"16鄰","STREET":"崇明路","SECT":" ","MAREA":" ","LANE":" ","ALLEY":" ","HOUSE_NO":"６２２號","E_COORD97":170557.13,"N_COORD97":2541411.2999999998,"ADDRESS":"崇明路６２２號","OBJECTID":585559},"geometry":{"x":170557.13000000082,"y":2541411.3000000007}},{"attributes":{"ID":585587,"DIS_CODE":0,"TOWNNAME":"東區","LI":"崇明里","LIN":"16鄰","STREET":"崇明路","SECT":" ","MAREA":" ","LANE":" ","ALLEY":" ","HOUSE_NO":"６２４號","E_COORD97":170561.22,"N_COORD97":2541407.77,"ADDRESS":"崇明路６２４號","OBJECTID":585560},"geometry":{"x":170561.22000000067,"y":2541407.7699999977}},{"attributes":{"ID":585588,"DIS_CODE":0,"TOWNNAME":"東區","LI":"崇明里","LIN":"16鄰","STREET":"崇明路","SECT":" ","MAREA":" ","LANE":" ","ALLEY":" ","HOUSE_NO":"６２６號","E_COORD97":170564.32999999999,"N_COORD97":2541404.6699999999,"ADDRESS":"崇明路６２６號","OBJECTID":585561},"geometry":{"x":170564.33000000101,"y":2541404.6699999999}},{"attributes":{"ID":585589,"DIS_CODE":0,"TOWNNAME":"東區","LI":"崇明里","LIN":"16鄰","STREET":"崇明路","SECT":" ","MAREA":" ","LANE":" ","ALLEY":" ","HOUSE_NO":"６２８號","E_COORD97":170568.29000000001,"N_COORD97":2541402.1200000001,"ADDRESS":"崇明路６２８號","OBJECTID":585562},"geometry":{"x":170568.29000000097,"y":2541402.120000001}},{"attributes":{"ID":585590,"DIS_CODE":0,"TOWNNAME":"東區","LI":"崇明里","LIN":"16鄰","STREET":"崇明路","SECT":" ","MAREA":" ","LANE":" ","ALLEY":" ","HOUSE_NO":"６３２號","E_COORD97":170575.48999999999,"N_COORD97":2541396.7599999998,"ADDRESS":"崇明路６３２號","OBJECTID":585563},"geometry":{"x":170575.49000000115,"y":2541396.7599999998}},{"attributes":{"ID":585591,"DIS_CODE":0,"TOWNNAME":"東區","LI":"崇明里","LIN":"16鄰","STREET":"崇明路","SECT":" ","MAREA":" ","LANE":" ","ALLEY":" ","HOUSE_NO":"６３６號","E_COORD97":170574.89000000001,"N_COORD97":2541387.9300000002,"ADDRESS":"崇明路６３６號","OBJECTID":585564},"geometry":{"x":170574.88999999966,"y":2541387.9300000016}},{"attributes":{"ID":585592,"DIS_CODE":0,"TOWNNAME":"東區","LI":"崇明里","LIN":"16鄰","STREET":"崇明路","SECT":" ","MAREA":" ","LANE":" ","ALLEY":" ","HOUSE_NO":"６３８號","E_COORD97":170577.01000000001,"N_COORD97":2541384.1200000001,"ADDRESS":"崇明路６３８號","OBJECTID":585565},"geometry":{"x":170577.00999999978,"y":2541384.1200000029}},{"attributes":{"ID":585593,"DIS_CODE":0,"TOWNNAME":"東區","LI":"崇明里","LIN":"16鄰","STREET":"崇明路","SECT":" ","MAREA":" ","LANE":" ","ALLEY":" ","HOUSE_NO":"６４０號","E_COORD97":170579.54999999999,"N_COORD97":2541380.2999999998,"ADDRESS":"崇明路６４０號","OBJECTID":585566},"geometry":{"x":170579.55000000075,"y":2541380.3000000007}},{"attributes":{"ID":585594,"DIS_CODE":0,"TOWNNAME":"東區","LI":"崇明里","LIN":"16鄰","STREET":"崇明路","SECT":" ","MAREA":" ","LANE":" ","ALLEY":" ","HOUSE_NO":"６４２號","E_COORD97":170580.54000000001,"N_COORD97":2541376.2200000002,"ADDRESS":"崇明路６４２號","OBJECTID":585567},"geometry":{"x":170580.54000000004,"y":2541376.2200000025}},{"attributes":{"ID":585595,"DIS_CODE":0,"TOWNNAME":"東區","LI":"崇明里","LIN":"16鄰","STREET":"崇明路","SECT":" ","MAREA":" ","LANE":" ","ALLEY":" ","HOUSE_NO":"６４４號","E_COORD97":170583.07999999999,"N_COORD97":2541372.8300000001,"ADDRESS":"崇明路６４４號","OBJECTID":585568},"geometry":{"x":170583.08000000101,"y":2541372.8300000001}},{"attributes":{"ID":585596,"DIS_CODE":0,"TOWNNAME":"東區","LI":"崇明里","LIN":"16鄰","STREET":"崇明路","SECT":" ","MAREA":" ","LANE":" ","ALLEY":" ","HOUSE_NO":"６４６號","E_COORD97":170583.51000000001,"N_COORD97":2541367.1800000002,"ADDRESS":"崇明路６４６號","OBJECTID":585569},"geometry":{"x":170583.51000000071,"y":2541367.1799999997}},{"attributes":{"ID":585597,"DIS_CODE":0,"TOWNNAME":"東區","LI":"崇明里","LIN":"16鄰","STREET":"崇明路","SECT":" ","MAREA":" ","LANE":" ","ALLEY":" ","HOUSE_NO":"６４８號","E_COORD97":170585.06,"N_COORD97":2541363.7999999998,"ADDRESS":"崇明路６４８號","OBJECTID":585570},"geometry":{"x":170585.05999999959,"y":2541363.8000000007}},{"attributes":{"ID":585598,"DIS_CODE":0,"TOWNNAME":"東區","LI":"崇明里","LIN":"16鄰","STREET":"崇明路","SECT":" ","MAREA":" ","LANE":" ","ALLEY":" ","HOUSE_NO":"６５０號","E_COORD97":170587.17999999999,"N_COORD97":2541357.8700000001,"ADDRESS":"崇明路６５０號","OBJECTID":585571},"geometry":{"x":170587.18000000063,"y":2541357.8700000048}},{"attributes":{"ID":585599,"DIS_CODE":0,"TOWNNAME":"東區","LI":"崇明里","LIN":"16鄰","STREET":"崇明路","SECT":" ","MAREA":" ","LANE":" ","ALLEY":" ","HOUSE_NO":"６９８號","E_COORD97":170574.89000000001,"N_COORD97":2541316.4199999999,"ADDRESS":"崇明路６９８號","OBJECTID":585572},"geometry":{"x":170574.88999999966,"y":2541316.4200000018}},{"attributes":{"ID":585600,"DIS_CODE":0,"TOWNNAME":"東區","LI":"崇明里","LIN":"16鄰","STREET":"崇明路","SECT":" ","MAREA":" ","LANE":" ","ALLEY":" ","HOUSE_NO":"７００號","E_COORD97":170533.79000000001,"N_COORD97":2541150.4300000002,"ADDRESS":"崇明路７００號","OBJECTID":585573},"geometry":{"x":170533.7900000019,"y":2541150.4300000016}},{"attributes":{"ID":585601,"DIS_CODE":0,"TOWNNAME":"白河區","LI":"永安里","LIN":"16鄰","STREET":"忠孝街","SECT":" ","MAREA":" ","LANE":" ","ALLEY":" ","HOUSE_NO":"２６之１號","E_COORD97":189831.26000000001,"N_COORD97":2583275.48,"ADDRESS":"忠孝街２６之１號","OBJECTID":585574},"geometry":{"x":189831.25999999978,"y":2583275.4800000042}},{"attributes":{"ID":585602,"DIS_CODE":0,"TOWNNAME":"白河區","LI":"永安里","LIN":"16鄰","STREET":"忠孝街","SECT":" ","MAREA":" ","LANE":" ","ALLEY":" ","HOUSE_NO":"２６號","E_COORD97":189877.92999999999,"N_COORD97":2583269.71,"ADDRESS":"忠孝街２６號","OBJECTID":585575},"geometry":{"x":189877.93000000156,"y":2583269.7100000009}},{"attributes":{"ID":585603,"DIS_CODE":0,"TOWNNAME":"白河區","LI":"永安里","LIN":"16鄰","STREET":"國泰路","SECT":" ","MAREA":" ","LANE":" ","ALLEY":" ","HOUSE_NO":"２０５號","E_COORD97":189917.37,"N_COORD97":2583174.8700000001,"ADDRESS":"國泰路２０５號","OBJECTID":585576},"geometry":{"x":189917.37000000011,"y":2583174.8700000048}},{"attributes":{"ID":585604,"DIS_CODE":0,"TOWNNAME":"白河區","LI":"永安里","LIN":"16鄰","STREET":"國泰路","SECT":" ","MAREA":" ","LANE":" ","ALLEY":" ","HOUSE_NO":"２０７號","E_COORD97":189917.20999999999,"N_COORD97":2583179.02,"ADDRESS":"國泰路２０７號","OBJECTID":585577},"geometry":{"x":189917.21000000089,"y":2583179.0200000033}},{"attributes":{"ID":585605,"DIS_CODE":0,"TOWNNAME":"白河區","LI":"永安里","LIN":"16鄰","STREET":"國泰路","SECT":" ","MAREA":" ","LANE":" ","ALLEY":" ","HOUSE_NO":"２０９號","E_COORD97":189917.37,"N_COORD97":2583183.4399999999,"ADDRESS":"國泰路２０９號","OBJECTID":585578},"geometry":{"x":189917.37000000011,"y":2583183.4400000013}},{"attributes":{"ID":585606,"DIS_CODE":0,"TOWNNAME":"白河區","LI":"永安里","LIN":"16鄰","STREET":"國泰路","SECT":" ","MAREA":" ","LANE":" ","ALLEY":" ","HOUSE_NO":"２１１號","E_COORD97":189917.14999999999,"N_COORD97":2583187.3700000001,"ADDRESS":"國泰路２１１號","OBJECTID":585579},"geometry":{"x":189917.15000000037,"y":2583187.370000001}},{"attributes":{"ID":585607,"DIS_CODE":0,"TOWNNAME":"白河區","LI":"永安里","LIN":"16鄰","STREET":"國泰路","SECT":" ","MAREA":" ","LANE":" ","ALLEY":" ","HOUSE_NO":"２１３號","E_COORD97":189917.16,"N_COORD97":2583191.75,"ADDRESS":"國泰路２１３號","OBJECTID":585580},"geometry":{"x":189917.16000000015,"y":2583191.7500000037}},{"attributes":{"ID":585608,"DIS_CODE":0,"TOWNNAME":"白河區","LI":"永安里","LIN":"16鄰","STREET":"國泰路","SECT":" ","MAREA":" ","LANE":" ","ALLEY":" ","HOUSE_NO":"２１５號","E_COORD97":189917.29000000001,"N_COORD97":2583195.9300000002,"ADDRESS":"國泰路２１５號","OBJECTID":585581},"geometry":{"x":189917.29000000097,"y":2583195.9299999997}},{"attributes":{"ID":585609,"DIS_CODE":0,"TOWNNAME":"白河區","LI":"永安里","LIN":"16鄰","STREET":"國泰路","SECT":" ","MAREA":" ","LANE":" ","ALLEY":" ","HOUSE_NO":"２２１號","E_COORD97":189920.26999999999,"N_COORD97":2583209.7400000002,"ADDRESS":"國泰路２２１號","OBJECTID":585582},"geometry":{"x":189920.27000000048,"y":2583209.7400000021}},{"attributes":{"ID":585610,"DIS_CODE":0,"TOWNNAME":"白河區","LI":"永安里","LIN":"16鄰","STREET":"國泰路","SECT":" ","MAREA":" ","LANE":" ","ALLEY":" ","HOUSE_NO":"２２３號","E_COORD97":189920.10999999999,"N_COORD97":2583214.6899999999,"ADDRESS":"國泰路２２３號","OBJECTID":585583},"geometry":{"x":189920.11000000127,"y":2583214.6899999995}},{"attributes":{"ID":585611,"DIS_CODE":0,"TOWNNAME":"白河區","LI":"永安里","LIN":"16鄰","STREET":"國泰路","SECT":" ","MAREA":" ","LANE":" ","ALLEY":" ","HOUSE_NO":"２２５號","E_COORD97":189920.12,"N_COORD97":2583218.2799999998,"ADDRESS":"國泰路２２５號","OBJECTID":585584},"geometry":{"x":189920.12000000104,"y":2583218.2800000012}},{"attributes":{"ID":585612,"DIS_CODE":0,"TOWNNAME":"白河區","LI":"永安里","LIN":"16鄰","STREET":"國泰路","SECT":" ","MAREA":" ","LANE":" ","ALLEY":" ","HOUSE_NO":"２２７號","E_COORD97":189920.45999999999,"N_COORD97":2583223.0499999998,"ADDRESS":"國泰路２２７號","OBJECTID":585585},"geometry":{"x":189920.46000000183,"y":2583223.0500000007}},{"attributes":{"ID":585613,"DIS_CODE":0,"TOWNNAME":"白河區","LI":"永安里","LIN":"16鄰","STREET":"國泰路","SECT":" ","MAREA":" ","LANE":" ","ALLEY":" ","HOUSE_NO":"２５８號","E_COORD97":189963.07999999999,"N_COORD97":2583324.5899999999,"ADDRESS":"國泰路２５８號","OBJECTID":585586},"geometry":{"x":189963.08000000007,"y":2583324.589999998}},{"attributes":{"ID":585614,"DIS_CODE":0,"TOWNNAME":"佳里區","LI":"安西里","LIN":"16鄰","STREET":"長安街","SECT":" ","MAREA":" ","LANE":" ","ALLEY":" ","HOUSE_NO":"１２６號","E_COORD97":165435.54000000001,"N_COORD97":2562638.25,"ADDRESS":"長安街１２６號","OBJECTID":585587},"geometry":{"x":165435.54000000004,"y":2562638.25}},{"attributes":{"ID":585615,"DIS_CODE":0,"TOWNNAME":"安南區","LI":"新順里","LIN":"16鄰","STREET":"安和路","SECT":"三段","MAREA":" ","LANE":" ","ALLEY":" ","HOUSE_NO":"４７號","E_COORD97":169756.67000000001,"N_COORD97":2549429.5699999998,"ADDRESS":"安和路三段４７號","OBJECTID":585588},"geometry":{"x":169756.67000000086,"y":2549429.5700000022}},{"attributes":{"ID":585616,"DIS_CODE":0,"TOWNNAME":"安南區","LI":"淵西里","LIN":"16鄰","STREET":"安中路","SECT":"四段","MAREA":" ","LANE":" ","ALLEY":" ","HOUSE_NO":"２２６號","E_COORD97":164731.04000000001,"N_COORD97":2550134.0600000001,"ADDRESS":"安中路四段２２６號","OBJECTID":585589},"geometry":{"x":164731.03999999911,"y":2550134.0600000042}},{"attributes":{"ID":585617,"DIS_CODE":0,"TOWNNAME":"安南區","LI":"淵西里","LIN":"16鄰","STREET":"安中路","SECT":"四段","MAREA":" ","LANE":" ","ALLEY":" ","HOUSE_NO":"２２８號","E_COORD97":164725.64000000001,"N_COORD97":2550138,"ADDRESS":"安中路四段２２８號","OBJECTID":585590},"geometry":{"x":164725.6400000006,"y":2550138.0000000019}},{"attributes":{"ID":585618,"DIS_CODE":0,"TOWNNAME":"安南區","LI":"淵西里","LIN":"16鄰","STREET":"安中路","SECT":"四段","MAREA":" ","LANE":" ","ALLEY":" ","HOUSE_NO":"２３０號","E_COORD97":164722.32000000001,"N_COORD97":2550140.4900000002,"ADDRESS":"安中路四段２３０號","OBJECTID":585591},"geometry":{"x":164722.3200000003,"y":2550140.4900000002}},{"attributes":{"ID":585619,"DIS_CODE":0,"TOWNNAME":"安南區","LI":"淵西里","LIN":"16鄰","STREET":"安中路","SECT":"四段","MAREA":" ","LANE":" ","ALLEY":" ","HOUSE_NO":"２３２號","E_COORD97":164718.98999999999,"N_COORD97":2550142.77,"ADDRESS":"安中路四段２３２號","OBJECTID":585592},"geometry":{"x":164718.99000000022,"y":2550142.7700000014}},{"attributes":{"ID":585620,"DIS_CODE":0,"TOWNNAME":"安南區","LI":"淵西里","LIN":"16鄰","STREET":"安中路","SECT":"四段","MAREA":" ","LANE":" ","ALLEY":" ","HOUSE_NO":"２３４號","E_COORD97":164715.26000000001,"N_COORD97":2550144.8500000001,"ADDRESS":"安中路四段２３４號","OBJECTID":585593},"geometry":{"x":164715.25999999978,"y":2550144.8500000015}},{"attributes":{"ID":585621,"DIS_CODE":0,"TOWNNAME":"安南區","LI":"淵西里","LIN":"16鄰","STREET":"安中路","SECT":"四段","MAREA":" ","LANE":" ","ALLEY":" ","HOUSE_NO":"２５１號","E_COORD97":164627.34,"N_COORD97":2550144.6000000001,"ADDRESS":"安中路四段２５１號","OBJECTID":585594},"geometry":{"x":164627.34000000171,"y":2550144.5999999996}},{"attributes":{"ID":585622,"DIS_CODE":0,"TOWNNAME":"安南區","LI":"淵西里","LIN":"16鄰","STREET":"安中路","SECT":"四段","MAREA":" ","LANE":" ","ALLEY":" ","HOUSE_NO":"２７１號","E_COORD97":164578.23999999999,"N_COORD97":2550168.7200000002,"ADDRESS":"安中路四段２７１號","OBJECTID":585595},"geometry":{"x":164578.24000000115,"y":2550168.7200000007}},{"attributes":{"ID":585623,"DIS_CODE":0,"TOWNNAME":"安南區","LI":"淵西里","LIN":"16鄰","STREET":"安中路","SECT":"四段","MAREA":" ","LANE":" ","ALLEY":" ","HOUSE_NO":"２５１之２號","E_COORD97":164612.26999999999,"N_COORD97":2550151.73,"ADDRESS":"安中路四段２５１之２號","OBJECTID":585596},"geometry":{"x":164612.27000000048,"y":2550151.7300000004}},{"attributes":{"ID":585624,"DIS_CODE":0,"TOWNNAME":"安南區","LI":"大安里","LIN":"16鄰","STREET":"義安街","SECT":" ","MAREA":" ","LANE":" ","ALLEY":" ","HOUSE_NO":"１２５號","E_COORD97":167484.20999999999,"N_COORD97":2548155.1000000001,"ADDRESS":"義安街１２５號","OBJECTID":585597},"geometry":{"x":167484.20999999996,"y":2548155.0999999996}},{"attributes":{"ID":585625,"DIS_CODE":0,"TOWNNAME":"安南區","LI":"大安里","LIN":"16鄰","STREET":"義安街","SECT":" ","MAREA":" ","LANE":" ","ALLEY":" ","HOUSE_NO":"１５３號","E_COORD97":167523.35999999999,"N_COORD97":2548212.23,"ADDRESS":"義安街１５３號","OBJECTID":585598},"geometry":{"x":167523.36000000127,"y":2548212.2300000004}},{"attributes":{"ID":585626,"DIS_CODE":0,"TOWNNAME":"安南區","LI":"淵西里","LIN":"16鄰","STREET":"安中路","SECT":"四段","MAREA":" ","LANE":" ","ALLEY":" ","HOUSE_NO":"２４２號","E_COORD97":164687.01000000001,"N_COORD97":2550157.0899999999,"ADDRESS":"安中路四段２４２號","OBJECTID":585599},"geometry":{"x":164687.01000000164,"y":2550157.0900000017}},{"attributes":{"ID":585627,"DIS_CODE":0,"TOWNNAME":"安南區","LI":"淵西里","LIN":"16鄰","STREET":"安中路","SECT":"四段","MAREA":" ","LANE":" ","ALLEY":" ","HOUSE_NO":"２４４號","E_COORD97":164682.23000000001,"N_COORD97":2550158.75,"ADDRESS":"安中路四段２４４號","OBJECTID":585600},"geometry":{"x":164682.23000000045,"y":2550158.75}}]}