{"displayFieldName":"TOWNNAME","fieldAliases":{"ID":"ID","DIS_CODE":"DIS_CODE","TOWNNAME":"TOWNNAME","LI":"LI","LIN":"LIN","STREET":"STREET","SECT":"SECT","MAREA":"MAREA","LANE":"LANE","ALLEY":"ALLEY","HOUSE_NO":"HOUSE_NO","E_COORD97":"E_COORD97","N_COORD97":"N_COORD97","ADDRESS":"ADDRESS","OBJECTID":"OBJECTID"},"geometryType":"esriGeometryPoint","spatialReference":{"wkid":102443,"latestWkid":3826},"fields":[{"name":"ID","type":"esriFieldTypeDouble","alias":"ID"},{"name":"DIS_CODE","type":"esriFieldTypeInteger","alias":"DIS_CODE"},{"name":"TOWNNAME","type":"esriFieldTypeString","alias":"TOWNNAME","length":8},{"name":"LI","type":"esriFieldTypeString","alias":"LI","length":8},{"name":"LIN","type":"esriFieldTypeString","alias":"LIN","length":12},{"name":"STREET","type":"esriFieldTypeString","alias":"STREET","length":20},{"name":"SECT","type":"esriFieldTypeString","alias":"SECT","length":8},{"name":"MAREA","type":"esriFieldTypeString","alias":"MAREA","length":12},{"name":"LANE","type":"esriFieldTypeString","alias":"LANE","length":10},{"name":"ALLEY","type":"esriFieldTypeString","alias":"ALLEY","length":10},{"name":"HOUSE_NO","type":"esriFieldTypeString","alias":"HOUSE_NO","length":20},{"name":"E_COORD97","type":"esriFieldTypeDouble","alias":"E_COORD97"},{"name":"N_COORD97","type":"esriFieldTypeDouble","alias":"N_COORD97"},{"name":"ADDRESS","type":"esriFieldTypeString","alias":"ADDRESS","length":50},{"name":"OBJECTID","type":"esriFieldTypeOID","alias":"OBJECTID"}],"features":[{"attributes":{"ID":277006,"DIS_CODE":0,"TOWNNAME":"安南區","LI":"鳳凰里","LIN":"3鄰","STREET":"安中路","SECT":"一段","MAREA":" ","LANE":" ","ALLEY":" ","HOUSE_NO":"５２２號","E_COORD97":168090.435471,"N_COORD97":2548952.2486399999,"ADDRESS":"安中路一段５２２號","OBJECTID":277001},"geometry":{"x":168090.43547100201,"y":2548952.2486439999}},{"attributes":{"ID":277007,"DIS_CODE":0,"TOWNNAME":"安南區","LI":"鳳凰里","LIN":"3鄰","STREET":"安中路","SECT":"一段","MAREA":" ","LANE":" ","ALLEY":" ","HOUSE_NO":"５２６號","E_COORD97":168086.41254300001,"N_COORD97":2548954.7886399999,"ADDRESS":"安中路一段５２６號","OBJECTID":277002},"geometry":{"x":168086.41254299879,"y":2548954.7886430006}},{"attributes":{"ID":277008,"DIS_CODE":0,"TOWNNAME":"東區","LI":"崇學里","LIN":"1鄰","STREET":"崇學路","SECT":" ","MAREA":" ","LANE":"９６巷","ALLEY":" ","HOUSE_NO":"２２號","E_COORD97":170370.91,"N_COORD97":2542119.6699999999,"ADDRESS":"崇學路９６巷２２號","OBJECTID":277003},"geometry":{"x":170370.91000000108,"y":2542119.6699999999}},{"attributes":{"ID":277009,"DIS_CODE":0,"TOWNNAME":"東區","LI":"崇學里","LIN":"1鄰","STREET":"崇學路","SECT":" ","MAREA":" ","LANE":"９６巷","ALLEY":" ","HOUSE_NO":"２４號","E_COORD97":170375.53,"N_COORD97":2542115.8300000001,"ADDRESS":"崇學路９６巷２４號","OBJECTID":277004},"geometry":{"x":170375.53000000119,"y":2542115.8300000001}},{"attributes":{"ID":277010,"DIS_CODE":0,"TOWNNAME":"歸仁區","LI":"崙頂里","LIN":"4鄰","STREET":"信義南路","SECT":" ","MAREA":" ","LANE":"１７０巷","ALLEY":" ","HOUSE_NO":"１１號","E_COORD97":178070.92999999999,"N_COORD97":2540165.25,"ADDRESS":"信義南路１７０巷１１號","OBJECTID":277005},"geometry":{"x":178070.93000000156,"y":2540165.2500000019}},{"attributes":{"ID":277011,"DIS_CODE":0,"TOWNNAME":"安南區","LI":"青草里","LIN":"1鄰","STREET":"青砂街","SECT":"二段","MAREA":" ","LANE":"１０５巷","ALLEY":" ","HOUSE_NO":"３２之１８號","E_COORD97":159506.23999999999,"N_COORD97":2552897.8100000001,"ADDRESS":"青砂街二段１０５巷３２之１８號","OBJECTID":277006},"geometry":{"x":159506.24000000115,"y":2552897.8100000005}},{"attributes":{"ID":277012,"DIS_CODE":0,"TOWNNAME":"歸仁區","LI":"許厝里","LIN":"8鄰","STREET":"仁愛南街","SECT":" ","MAREA":" ","LANE":"５６巷","ALLEY":" ","HOUSE_NO":"８號","E_COORD97":178236.73000000001,"N_COORD97":2540533.1099999999,"ADDRESS":"仁愛南街５６巷８號","OBJECTID":277007},"geometry":{"x":178236.73000000045,"y":2540533.1099999994}},{"attributes":{"ID":277013,"DIS_CODE":0,"TOWNNAME":"新市區","LI":"新和里","LIN":"1鄰","STREET":"中華路","SECT":" ","MAREA":" ","LANE":"３巷","ALLEY":" ","HOUSE_NO":"３號","E_COORD97":177301.45999999999,"N_COORD97":2552045.25,"ADDRESS":"中華路３巷３號","OBJECTID":277008},"geometry":{"x":177301.46000000183,"y":2552045.2500000019}},{"attributes":{"ID":277014,"DIS_CODE":0,"TOWNNAME":"新市區","LI":"港墘里","LIN":"1鄰","STREET":"民族路","SECT":" ","MAREA":" ","LANE":"２８巷","ALLEY":" ","HOUSE_NO":"１號","E_COORD97":178588.73999999999,"N_COORD97":2553920.04,"ADDRESS":"民族路２８巷１號","OBJECTID":277009},"geometry":{"x":178588.74000000115,"y":2553920.040000001}},{"attributes":{"ID":277015,"DIS_CODE":0,"TOWNNAME":"新市區","LI":"新和里","LIN":"1鄰","STREET":"中華路","SECT":" ","MAREA":" ","LANE":"３巷","ALLEY":" ","HOUSE_NO":"１３號","E_COORD97":177318.41,"N_COORD97":2552052.75,"ADDRESS":"中華路３巷１３號","OBJECTID":277010},"geometry":{"x":177318.41000000015,"y":2552052.75}},{"attributes":{"ID":277016,"DIS_CODE":0,"TOWNNAME":"永康區","LI":"復國里","LIN":"1鄰","STREET":"復國二路","SECT":" ","MAREA":" ","LANE":"１０巷","ALLEY":" ","HOUSE_NO":"１４號","E_COORD97":172870.51999999999,"N_COORD97":2544752.7000000002,"ADDRESS":"復國二路１０巷１４號","OBJECTID":277011},"geometry":{"x":172870.51999999955,"y":2544752.7000000011}},{"attributes":{"ID":277017,"DIS_CODE":0,"TOWNNAME":"安南區","LI":"安西里","LIN":"1鄰","STREET":"安和路","SECT":"一段","MAREA":" ","LANE":"１８５巷","ALLEY":" ","HOUSE_NO":"１２號","E_COORD97":169293.39000000001,"N_COORD97":2547866.2200000002,"ADDRESS":"安和路一段１８５巷１２號","OBJECTID":277012},"geometry":{"x":169293.38999999966,"y":2547866.2200000025}},{"attributes":{"ID":277018,"DIS_CODE":0,"TOWNNAME":"安南區","LI":"新順里","LIN":"3鄰","STREET":"安和路","SECT":"三段","MAREA":" ","LANE":" ","ALLEY":" ","HOUSE_NO":"２號","E_COORD97":169740.34,"N_COORD97":2549308.77,"ADDRESS":"安和路三段２號","OBJECTID":277013},"geometry":{"x":169740.34000000078,"y":2549308.7700000014}},{"attributes":{"ID":277019,"DIS_CODE":0,"TOWNNAME":"安南區","LI":"安西里","LIN":"1鄰","STREET":"安和路","SECT":"一段","MAREA":" ","LANE":"１８５巷","ALLEY":" ","HOUSE_NO":"２０號","E_COORD97":169285.95000000001,"N_COORD97":2547886.6299999999,"ADDRESS":"安和路一段１８５巷２０號","OBJECTID":277014},"geometry":{"x":169285.95000000112,"y":2547886.629999999}},{"attributes":{"ID":277020,"DIS_CODE":0,"TOWNNAME":"安南區","LI":"安西里","LIN":"1鄰","STREET":"安和路","SECT":"一段","MAREA":" ","LANE":"１８５巷","ALLEY":" ","HOUSE_NO":"２６號","E_COORD97":169272.25,"N_COORD97":2547915.6499999999,"ADDRESS":"安和路一段１８５巷２６號","OBJECTID":277015},"geometry":{"x":169272.25,"y":2547915.6500000041}},{"attributes":{"ID":277021,"DIS_CODE":0,"TOWNNAME":"安南區","LI":"安西里","LIN":"1鄰","STREET":"安和路","SECT":"一段","MAREA":" ","LANE":"１８５巷","ALLEY":" ","HOUSE_NO":"３５號","E_COORD97":169250.34,"N_COORD97":2547877.5499999998,"ADDRESS":"安和路一段１８５巷３５號","OBJECTID":277016},"geometry":{"x":169250.34000000078,"y":2547877.5500000026}},{"attributes":{"ID":277022,"DIS_CODE":0,"TOWNNAME":"安南區","LI":"安西里","LIN":"1鄰","STREET":"安和路","SECT":"一段","MAREA":" ","LANE":"１８５巷","ALLEY":" ","HOUSE_NO":"４１號","E_COORD97":169245.25,"N_COORD97":2547895.6200000001,"ADDRESS":"安和路一段１８５巷４１號","OBJECTID":277017},"geometry":{"x":169245.25,"y":2547895.620000001}},{"attributes":{"ID":277023,"DIS_CODE":0,"TOWNNAME":"安南區","LI":"安西里","LIN":"1鄰","STREET":"安和路","SECT":"一段","MAREA":" ","LANE":"１８５巷","ALLEY":" ","HOUSE_NO":"４５號","E_COORD97":169265.60000000001,"N_COORD97":2547902.6600000001,"ADDRESS":"安和路一段１８５巷４５號","OBJECTID":277018},"geometry":{"x":169265.60000000056,"y":2547902.660000002}},{"attributes":{"ID":277024,"DIS_CODE":0,"TOWNNAME":"安南區","LI":"安西里","LIN":"1鄰","STREET":"安和路","SECT":"一段","MAREA":" ","LANE":"１８５巷","ALLEY":" ","HOUSE_NO":"５號","E_COORD97":169278.89999999999,"N_COORD97":2547841.5899999999,"ADDRESS":"安和路一段１８５巷５號","OBJECTID":277019},"geometry":{"x":169278.90000000224,"y":2547841.5900000017}},{"attributes":{"ID":277025,"DIS_CODE":0,"TOWNNAME":"安南區","LI":"安西里","LIN":"1鄰","STREET":"安和路","SECT":"一段","MAREA":" ","LANE":"１８５巷","ALLEY":" ","HOUSE_NO":"６號","E_COORD97":169308.64999999999,"N_COORD97":2547872.0800000001,"ADDRESS":"安和路一段１８５巷６號","OBJECTID":277020},"geometry":{"x":169308.65000000037,"y":2547872.0800000038}},{"attributes":{"ID":277026,"DIS_CODE":0,"TOWNNAME":"安南區","LI":"溪北里","LIN":"1鄰","STREET":"安和路","SECT":"一段","MAREA":" ","LANE":"１０１巷","ALLEY":" ","HOUSE_NO":"１２號","E_COORD97":169441.63,"N_COORD97":2547606.2200000002,"ADDRESS":"安和路一段１０１巷１２號","OBJECTID":277021},"geometry":{"x":169441.63000000082,"y":2547606.2200000007}},{"attributes":{"ID":277027,"DIS_CODE":0,"TOWNNAME":"安南區","LI":"溪北里","LIN":"1鄰","STREET":"安和路","SECT":"一段","MAREA":" ","LANE":"１０１巷","ALLEY":" ","HOUSE_NO":"１４號","E_COORD97":169436.60000000001,"N_COORD97":2547604.3199999998,"ADDRESS":"安和路一段１０１巷１４號","OBJECTID":277022},"geometry":{"x":169436.60000000056,"y":2547604.3200000022}},{"attributes":{"ID":277028,"DIS_CODE":0,"TOWNNAME":"歸仁區","LI":"後市里","LIN":"42鄰","STREET":"中山路","SECT":"二段","MAREA":" ","LANE":"２１６巷","ALLEY":" ","HOUSE_NO":"６號","E_COORD97":177059.82999999999,"N_COORD97":2540909.7400000002,"ADDRESS":"中山路二段２１６巷６號","OBJECTID":277023},"geometry":{"x":177059.83000000007,"y":2540909.7400000002}},{"attributes":{"ID":277029,"DIS_CODE":0,"TOWNNAME":"安南區","LI":"溪北里","LIN":"1鄰","STREET":"安和路","SECT":"一段","MAREA":" ","LANE":"１０１巷","ALLEY":" ","HOUSE_NO":"２６號","E_COORD97":169404.17999999999,"N_COORD97":2547592.1899999999,"ADDRESS":"安和路一段１０１巷２６號","OBJECTID":277024},"geometry":{"x":169404.18000000063,"y":2547592.1899999995}},{"attributes":{"ID":277030,"DIS_CODE":0,"TOWNNAME":"安南區","LI":"溪北里","LIN":"1鄰","STREET":"安和路","SECT":"一段","MAREA":" ","LANE":"１０１巷","ALLEY":" ","HOUSE_NO":"３６號","E_COORD97":169383.73999999999,"N_COORD97":2547584.2000000002,"ADDRESS":"安和路一段１０１巷３６號","OBJECTID":277025},"geometry":{"x":169383.74000000115,"y":2547584.1999999993}},{"attributes":{"ID":277031,"DIS_CODE":0,"TOWNNAME":"北區","LI":"國姓里","LIN":"1鄰","STREET":"公園路","SECT":" ","MAREA":" ","LANE":"３７７巷","ALLEY":" ","HOUSE_NO":"１０號","E_COORD97":168956.19,"N_COORD97":2545227.8799999999,"ADDRESS":"公園路３７７巷１０號","OBJECTID":277026},"geometry":{"x":168956.19000000041,"y":2545227.8800000008}},{"attributes":{"ID":277032,"DIS_CODE":0,"TOWNNAME":"北區","LI":"國姓里","LIN":"1鄰","STREET":"公園路","SECT":" ","MAREA":" ","LANE":"３７７巷","ALLEY":" ","HOUSE_NO":"１１號","E_COORD97":168990.41,"N_COORD97":2545203.8799999999,"ADDRESS":"公園路３７７巷１１號","OBJECTID":277027},"geometry":{"x":168990.41000000201,"y":2545203.8800000027}},{"attributes":{"ID":277033,"DIS_CODE":0,"TOWNNAME":"永康區","LI":"永康里","LIN":"30鄰","STREET":"永華路","SECT":" ","MAREA":" ","LANE":" ","ALLEY":" ","HOUSE_NO":"７４２號","E_COORD97":174126.88,"N_COORD97":2547146.9300000002,"ADDRESS":"永華路７４２號","OBJECTID":277028},"geometry":{"x":174126.88000000175,"y":2547146.9300000034}},{"attributes":{"ID":277034,"DIS_CODE":0,"TOWNNAME":"永康區","LI":"西灣里","LIN":"20鄰","STREET":"大安街","SECT":" ","MAREA":" ","LANE":" ","ALLEY":" ","HOUSE_NO":"３９３號","E_COORD97":174572.85000000001,"N_COORD97":2545898.3500000001,"ADDRESS":"大安街３９３號","OBJECTID":277029},"geometry":{"x":174572.85000000056,"y":2545898.3499999996}},{"attributes":{"ID":277035,"DIS_CODE":0,"TOWNNAME":"永康區","LI":"南灣里","LIN":"24鄰","STREET":"立興街","SECT":" ","MAREA":" ","LANE":" ","ALLEY":" ","HOUSE_NO":"１０６號","E_COORD97":174494.91,"N_COORD97":2544741.5800000001,"ADDRESS":"立興街１０６號","OBJECTID":277030},"geometry":{"x":174494.91000000108,"y":2544741.5800000001}},{"attributes":{"ID":277036,"DIS_CODE":0,"TOWNNAME":"永康區","LI":"北灣里","LIN":"14鄰","STREET":"文賢街","SECT":" ","MAREA":" ","LANE":" ","ALLEY":" ","HOUSE_NO":"３１６號","E_COORD97":175017.48000000001,"N_COORD97":2545834.29,"ADDRESS":"文賢街３１６號","OBJECTID":277031},"geometry":{"x":175017.48000000138,"y":2545834.2899999991}},{"attributes":{"ID":277037,"DIS_CODE":0,"TOWNNAME":"永康區","LI":"五王里","LIN":"1鄰","STREET":"中華二路","SECT":" ","MAREA":" ","LANE":" ","ALLEY":" ","HOUSE_NO":"２０２號","E_COORD97":171600.84,"N_COORD97":2545440.9900000002,"ADDRESS":"中華二路２０２號","OBJECTID":277032},"geometry":{"x":171600.83999999985,"y":2545440.9900000002}},{"attributes":{"ID":277038,"DIS_CODE":0,"TOWNNAME":"白河區","LI":"永安里","LIN":"3鄰","STREET":"中正路","SECT":" ","MAREA":" ","LANE":" ","ALLEY":" ","HOUSE_NO":"７９號","E_COORD97":189970.53,"N_COORD97":2583115.0299999998,"ADDRESS":"中正路７９號","OBJECTID":277033},"geometry":{"x":189970.53000000026,"y":2583115.0300000012}},{"attributes":{"ID":277039,"DIS_CODE":0,"TOWNNAME":"白河區","LI":"永安里","LIN":"3鄰","STREET":"中正路","SECT":" ","MAREA":" ","LANE":" ","ALLEY":" ","HOUSE_NO":"８１號","E_COORD97":189966.59,"N_COORD97":2583113.6400000001,"ADDRESS":"中正路８１號","OBJECTID":277034},"geometry":{"x":189966.58999999985,"y":2583113.6400000006}},{"attributes":{"ID":277040,"DIS_CODE":0,"TOWNNAME":"白河區","LI":"內角里","LIN":"3鄰","STREET":" ","SECT":" ","MAREA":"內角","LANE":" ","ALLEY":" ","HOUSE_NO":"３８號","E_COORD97":192494.98999999999,"N_COORD97":2588348.2200000002,"ADDRESS":"內角３８號","OBJECTID":277035},"geometry":{"x":192494.99000000022,"y":2588348.2200000007}},{"attributes":{"ID":277041,"DIS_CODE":0,"TOWNNAME":"白河區","LI":"內角里","LIN":"3鄰","STREET":" ","SECT":" ","MAREA":"內角","LANE":" ","ALLEY":" ","HOUSE_NO":"３９號","E_COORD97":192499.10999999999,"N_COORD97":2588357.4300000002,"ADDRESS":"內角３９號","OBJECTID":277036},"geometry":{"x":192499.11000000034,"y":2588357.4300000016}},{"attributes":{"ID":277042,"DIS_CODE":0,"TOWNNAME":"白河區","LI":"內角里","LIN":"3鄰","STREET":" ","SECT":" ","MAREA":"內角","LANE":" ","ALLEY":" ","HOUSE_NO":"４０之２號","E_COORD97":192578.92000000001,"N_COORD97":2588357.6099999999,"ADDRESS":"內角４０之２號","OBJECTID":277037},"geometry":{"x":192578.92000000086,"y":2588357.6099999994}},{"attributes":{"ID":277043,"DIS_CODE":0,"TOWNNAME":"白河區","LI":"內角里","LIN":"3鄰","STREET":" ","SECT":" ","MAREA":"內角","LANE":" ","ALLEY":" ","HOUSE_NO":"４０之３號","E_COORD97":192594.94,"N_COORD97":2588349.3100000001,"ADDRESS":"內角４０之３號","OBJECTID":277038},"geometry":{"x":192594.94000000134,"y":2588349.3100000024}},{"attributes":{"ID":277044,"DIS_CODE":0,"TOWNNAME":"白河區","LI":"內角里","LIN":"3鄰","STREET":" ","SECT":" ","MAREA":"內角","LANE":" ","ALLEY":" ","HOUSE_NO":"４０之８號","E_COORD97":192549.70999999999,"N_COORD97":2588368.6099999999,"ADDRESS":"內角４０之８號","OBJECTID":277039},"geometry":{"x":192549.71000000183,"y":2588368.6099999994}},{"attributes":{"ID":277045,"DIS_CODE":0,"TOWNNAME":"新營區","LI":"大宏里","LIN":"7鄰","STREET":"三民路","SECT":" ","MAREA":" ","LANE":" ","ALLEY":" ","HOUSE_NO":"３３號","E_COORD97":180487.32812300001,"N_COORD97":2578479.7448700001,"ADDRESS":"三民路３３號","OBJECTID":277040},"geometry":{"x":180487.32812300138,"y":2578479.7448749989}},{"attributes":{"ID":277046,"DIS_CODE":0,"TOWNNAME":"北區","LI":"國姓里","LIN":"1鄰","STREET":"公園路","SECT":" ","MAREA":" ","LANE":"３７７巷","ALLEY":" ","HOUSE_NO":"１２號","E_COORD97":168952.23000000001,"N_COORD97":2545229.0099999998,"ADDRESS":"公園路３７７巷１２號","OBJECTID":277041},"geometry":{"x":168952.23000000045,"y":2545229.0100000016}},{"attributes":{"ID":277047,"DIS_CODE":0,"TOWNNAME":"北區","LI":"國姓里","LIN":"1鄰","STREET":"公園路","SECT":" ","MAREA":" ","LANE":"３７７巷","ALLEY":" ","HOUSE_NO":"１３號","E_COORD97":168985.32000000001,"N_COORD97":2545203.5899999999,"ADDRESS":"公園路３７７巷１３號","OBJECTID":277042},"geometry":{"x":168985.3200000003,"y":2545203.5900000036}},{"attributes":{"ID":277048,"DIS_CODE":0,"TOWNNAME":"東區","LI":"東智里","LIN":"3鄰","STREET":"崇德二十六街","SECT":" ","MAREA":" ","LANE":" ","ALLEY":" ","HOUSE_NO":"６９號","E_COORD97":170988.34,"N_COORD97":2540334.04,"ADDRESS":"崇德二十六街６９號","OBJECTID":277043},"geometry":{"x":170988.34000000078,"y":2540334.0399999972}},{"attributes":{"ID":277049,"DIS_CODE":0,"TOWNNAME":"北區","LI":"國姓里","LIN":"1鄰","STREET":"公園路","SECT":" ","MAREA":" ","LANE":"３７７巷","ALLEY":" ","HOUSE_NO":"１４號","E_COORD97":168947.98999999999,"N_COORD97":2545229.29,"ADDRESS":"公園路３７７巷１４號","OBJECTID":277044},"geometry":{"x":168947.99000000115,"y":2545229.290000001}},{"attributes":{"ID":277050,"DIS_CODE":0,"TOWNNAME":"北區","LI":"國姓里","LIN":"1鄰","STREET":"公園路","SECT":" ","MAREA":" ","LANE":"３７７巷","ALLEY":" ","HOUSE_NO":"３３號","E_COORD97":168932.26000000001,"N_COORD97":2545213.27,"ADDRESS":"公園路３７７巷３３號","OBJECTID":277045},"geometry":{"x":168932.26000000071,"y":2545213.2700000014}},{"attributes":{"ID":277051,"DIS_CODE":0,"TOWNNAME":"北區","LI":"國姓里","LIN":"1鄰","STREET":"公園路","SECT":" ","MAREA":" ","LANE":"３７７巷","ALLEY":" ","HOUSE_NO":"３號","E_COORD97":169010.48999999999,"N_COORD97":2545201.3300000001,"ADDRESS":"公園路３７７巷３號","OBJECTID":277046},"geometry":{"x":169010.49000000115,"y":2545201.3300000001}},{"attributes":{"ID":277052,"DIS_CODE":0,"TOWNNAME":"北區","LI":"國姓里","LIN":"1鄰","STREET":"公園路","SECT":" ","MAREA":" ","LANE":"３７７巷","ALLEY":" ","HOUSE_NO":"５號","E_COORD97":169005.39999999999,"N_COORD97":2545202.46,"ADDRESS":"公園路３７７巷５號","OBJECTID":277047},"geometry":{"x":169005.40000000037,"y":2545202.4600000028}},{"attributes":{"ID":277053,"DIS_CODE":0,"TOWNNAME":"北區","LI":"國姓里","LIN":"1鄰","STREET":"公園路","SECT":" ","MAREA":" ","LANE":"３７７巷","ALLEY":" ","HOUSE_NO":"８之１號","E_COORD97":168975.42000000001,"N_COORD97":2545223.6499999999,"ADDRESS":"公園路３７７巷８之１號","OBJECTID":277048},"geometry":{"x":168975.42000000086,"y":2545223.6499999985}},{"attributes":{"ID":277054,"DIS_CODE":0,"TOWNNAME":"北區","LI":"國姓里","LIN":"1鄰","STREET":"公園路","SECT":" ","MAREA":" ","LANE":"３７７巷","ALLEY":" ","HOUSE_NO":"７號","E_COORD97":169000.87,"N_COORD97":2545203.5899999999,"ADDRESS":"公園路３７７巷７號","OBJECTID":277049},"geometry":{"x":169000.87000000197,"y":2545203.5900000036}},{"attributes":{"ID":277055,"DIS_CODE":0,"TOWNNAME":"白河區","LI":"內角里","LIN":"3鄰","STREET":" ","SECT":" ","MAREA":"內角","LANE":" ","ALLEY":" ","HOUSE_NO":"４１號","E_COORD97":192499.70000000001,"N_COORD97":2588387.6600000001,"ADDRESS":"內角４１號","OBJECTID":277050},"geometry":{"x":192499.70000000112,"y":2588387.660000002}},{"attributes":{"ID":277056,"DIS_CODE":0,"TOWNNAME":"北區","LI":"國姓里","LIN":"1鄰","STREET":"公園路","SECT":" ","MAREA":" ","LANE":"３７７巷","ALLEY":" ","HOUSE_NO":"８號","E_COORD97":168960.42999999999,"N_COORD97":2545226.4700000002,"ADDRESS":"公園路３７７巷８號","OBJECTID":277051},"geometry":{"x":168960.4299999997,"y":2545226.4700000025}},{"attributes":{"ID":277057,"DIS_CODE":0,"TOWNNAME":"北區","LI":"國姓里","LIN":"1鄰","STREET":"公園路","SECT":" ","MAREA":" ","LANE":"３７７巷","ALLEY":" ","HOUSE_NO":"９號","E_COORD97":168996.07000000001,"N_COORD97":2545202.75,"ADDRESS":"公園路３７７巷９號","OBJECTID":277052},"geometry":{"x":168996.0700000003,"y":2545202.7500000019}},{"attributes":{"ID":277058,"DIS_CODE":0,"TOWNNAME":"白河區","LI":"內角里","LIN":"3鄰","STREET":" ","SECT":" ","MAREA":"內角","LANE":" ","ALLEY":" ","HOUSE_NO":"４２之１號","E_COORD97":192454.44,"N_COORD97":2588379.6200000001,"ADDRESS":"內角４２之１號","OBJECTID":277053},"geometry":{"x":192454.44000000134,"y":2588379.620000001}},{"attributes":{"ID":277059,"DIS_CODE":0,"TOWNNAME":"白河區","LI":"內角里","LIN":"3鄰","STREET":" ","SECT":" ","MAREA":"內角","LANE":" ","ALLEY":" ","HOUSE_NO":"４２之２號","E_COORD97":192456.32000000001,"N_COORD97":2588384.1899999999,"ADDRESS":"內角４２之２號","OBJECTID":277054},"geometry":{"x":192456.32000000123,"y":2588384.1899999995}},{"attributes":{"ID":277060,"DIS_CODE":0,"TOWNNAME":"白河區","LI":"內角里","LIN":"3鄰","STREET":" ","SECT":" ","MAREA":"內角","LANE":" ","ALLEY":" ","HOUSE_NO":"４３號","E_COORD97":192518.82999999999,"N_COORD97":2588394.73,"ADDRESS":"內角４３號","OBJECTID":277055},"geometry":{"x":192518.83000000101,"y":2588394.7300000023}},{"attributes":{"ID":277061,"DIS_CODE":0,"TOWNNAME":"白河區","LI":"內角里","LIN":"3鄰","STREET":" ","SECT":" ","MAREA":"內角","LANE":" ","ALLEY":" ","HOUSE_NO":"４５之１號","E_COORD97":192479.89999999999,"N_COORD97":2588410.3300000001,"ADDRESS":"內角４５之１號","OBJECTID":277056},"geometry":{"x":192479.9000000013,"y":2588410.3300000019}},{"attributes":{"ID":277062,"DIS_CODE":0,"TOWNNAME":"白河區","LI":"內角里","LIN":"3鄰","STREET":" ","SECT":" ","MAREA":"內角","LANE":" ","ALLEY":" ","HOUSE_NO":"４５之２號","E_COORD97":192458.98000000001,"N_COORD97":2588405.8199999998,"ADDRESS":"內角４５之２號","OBJECTID":277057},"geometry":{"x":192458.98000000138,"y":2588405.820000004}},{"attributes":{"ID":277063,"DIS_CODE":0,"TOWNNAME":"白河區","LI":"內角里","LIN":"3鄰","STREET":" ","SECT":" ","MAREA":"內角","LANE":" ","ALLEY":" ","HOUSE_NO":"４５號","E_COORD97":192515.16,"N_COORD97":2588403.7799999998,"ADDRESS":"內角４５號","OBJECTID":277058},"geometry":{"x":192515.16000000108,"y":2588403.7799999993}},{"attributes":{"ID":277064,"DIS_CODE":0,"TOWNNAME":"白河區","LI":"崎內里","LIN":"3鄰","STREET":" ","SECT":" ","MAREA":"內崎內","LANE":" ","ALLEY":" ","HOUSE_NO":"１５之１０號","E_COORD97":195665.79999999999,"N_COORD97":2586294.8799999999,"ADDRESS":"內崎內１５之１０號","OBJECTID":277059},"geometry":{"x":195665.79999999981,"y":2586294.879999999}},{"attributes":{"ID":277065,"DIS_CODE":0,"TOWNNAME":"白河區","LI":"崎內里","LIN":"3鄰","STREET":" ","SECT":" ","MAREA":"內崎內","LANE":" ","ALLEY":" ","HOUSE_NO":"１５之１１號","E_COORD97":195770.12,"N_COORD97":2586128.48,"ADDRESS":"內崎內１５之１１號","OBJECTID":277060},"geometry":{"x":195770.12000000104,"y":2586128.4800000004}},{"attributes":{"ID":277066,"DIS_CODE":0,"TOWNNAME":"白河區","LI":"崎內里","LIN":"3鄰","STREET":" ","SECT":" ","MAREA":"內崎內","LANE":" ","ALLEY":" ","HOUSE_NO":"１５之２號","E_COORD97":195336.56,"N_COORD97":2586406.8199999998,"ADDRESS":"內崎內１５之２號","OBJECTID":277061},"geometry":{"x":195336.55999999959,"y":2586406.8200000022}},{"attributes":{"ID":277067,"DIS_CODE":0,"TOWNNAME":"白河區","LI":"崎內里","LIN":"3鄰","STREET":" ","SECT":" ","MAREA":"內崎內","LANE":" ","ALLEY":" ","HOUSE_NO":"１５之３號","E_COORD97":195339.42999999999,"N_COORD97":2586411.9300000002,"ADDRESS":"內崎內１５之３號","OBJECTID":277062},"geometry":{"x":195339.4299999997,"y":2586411.9300000016}},{"attributes":{"ID":277068,"DIS_CODE":0,"TOWNNAME":"新營區","LI":"好平里","LIN":"1鄰","STREET":"武侯街","SECT":" ","MAREA":" ","LANE":"９巷","ALLEY":" ","HOUSE_NO":"２６號","E_COORD97":179578.44,"N_COORD97":2577702.04,"ADDRESS":"武侯街９巷２６號","OBJECTID":277063},"geometry":{"x":179578.44000000041,"y":2577702.0399999991}},{"attributes":{"ID":277069,"DIS_CODE":0,"TOWNNAME":"新營區","LI":"忠政里","LIN":"1鄰","STREET":"中正路","SECT":" ","MAREA":" ","LANE":"３１巷","ALLEY":" ","HOUSE_NO":"５４號","E_COORD97":180050.81,"N_COORD97":2578964.5099999998,"ADDRESS":"中正路３１巷５４號","OBJECTID":277064},"geometry":{"x":180050.81000000052,"y":2578964.5099999998}},{"attributes":{"ID":277070,"DIS_CODE":0,"TOWNNAME":"白河區","LI":"崎內里","LIN":"3鄰","STREET":" ","SECT":" ","MAREA":"內崎內","LANE":" ","ALLEY":" ","HOUSE_NO":"１５之６號","E_COORD97":195221.89999999999,"N_COORD97":2586333.5800000001,"ADDRESS":"內崎內１５之６號","OBJECTID":277065},"geometry":{"x":195221.90000000037,"y":2586333.5800000019}},{"attributes":{"ID":277071,"DIS_CODE":0,"TOWNNAME":"新營區","LI":"興業里","LIN":"1鄰","STREET":"公誠街","SECT":" ","MAREA":" ","LANE":"１７巷","ALLEY":" ","HOUSE_NO":"１２號之３","E_COORD97":180342.70999999999,"N_COORD97":2577926.6299999999,"ADDRESS":"公誠街１７巷１２號之３","OBJECTID":277066},"geometry":{"x":180342.71000000183,"y":2577926.6300000008}},{"attributes":{"ID":277072,"DIS_CODE":0,"TOWNNAME":"將軍區","LI":"長榮里","LIN":"3鄰","STREET":" ","SECT":" ","MAREA":"長榮","LANE":" ","ALLEY":" ","HOUSE_NO":"３９之１號","E_COORD97":163906.67000000001,"N_COORD97":2566345.4300000002,"ADDRESS":"長榮３９之１號","OBJECTID":277067},"geometry":{"x":163906.67000000086,"y":2566345.4299999997}},{"attributes":{"ID":277073,"DIS_CODE":0,"TOWNNAME":"新營區","LI":"興業里","LIN":"1鄰","STREET":"公誠街","SECT":" ","MAREA":" ","LANE":"１７巷","ALLEY":" ","HOUSE_NO":"４之１號","E_COORD97":180309.98999999999,"N_COORD97":2577916.8999999999,"ADDRESS":"公誠街１７巷４之１號","OBJECTID":277068},"geometry":{"x":180309.99000000022,"y":2577916.9000000022}},{"attributes":{"ID":277074,"DIS_CODE":0,"TOWNNAME":"新營區","LI":"興業里","LIN":"1鄰","STREET":"公誠街","SECT":" ","MAREA":" ","LANE":"１７巷","ALLEY":" ","HOUSE_NO":"１６之４號","E_COORD97":180359.37,"N_COORD97":2577932.0800000001,"ADDRESS":"公誠街１７巷１６之４號","OBJECTID":277069},"geometry":{"x":180359.37000000104,"y":2577932.0800000019}},{"attributes":{"ID":277075,"DIS_CODE":0,"TOWNNAME":"新營區","LI":"新南里","LIN":"1鄰","STREET":"民治路","SECT":" ","MAREA":" ","LANE":"２３０巷","ALLEY":" ","HOUSE_NO":"１６號","E_COORD97":178795.03,"N_COORD97":2578597.2799999998,"ADDRESS":"民治路２３０巷１６號","OBJECTID":277070},"geometry":{"x":178795.03000000119,"y":2578597.2800000012}},{"attributes":{"ID":277076,"DIS_CODE":0,"TOWNNAME":"仁德區","LI":"保安里","LIN":"3鄰","STREET":"保安路","SECT":"一段","MAREA":" ","LANE":" ","ALLEY":" ","HOUSE_NO":"１６２號","E_COORD97":171190.94,"N_COORD97":2536856.3100000001,"ADDRESS":"保安路一段１６２號","OBJECTID":277071},"geometry":{"x":171190.94000000227,"y":2536856.3100000024}},{"attributes":{"ID":277077,"DIS_CODE":0,"TOWNNAME":"安平區","LI":"國平里","LIN":"1鄰","STREET":"建平七街","SECT":" ","MAREA":" ","LANE":"３７０巷","ALLEY":" ","HOUSE_NO":"１２９號之１２","E_COORD97":165628.79999999999,"N_COORD97":2543342.2200000002,"ADDRESS":"建平七街３７０巷１２９號之１２","OBJECTID":277072},"geometry":{"x":165628.79999999981,"y":2543342.2200000044}},{"attributes":{"ID":277078,"DIS_CODE":0,"TOWNNAME":"仁德區","LI":"仁德里","LIN":"3鄰","STREET":"仁中六街","SECT":" ","MAREA":" ","LANE":" ","ALLEY":" ","HOUSE_NO":"８１號","E_COORD97":173310.5,"N_COORD97":2540391.2400000002,"ADDRESS":"仁中六街８１號","OBJECTID":277073},"geometry":{"x":173310.5,"y":2540391.2400000002}},{"attributes":{"ID":277079,"DIS_CODE":0,"TOWNNAME":"安平區","LI":"國平里","LIN":"1鄰","STREET":"建平七街","SECT":" ","MAREA":" ","LANE":"３７０巷","ALLEY":" ","HOUSE_NO":"１２９號之２","E_COORD97":165679.48000000001,"N_COORD97":2543335.2599999998,"ADDRESS":"建平七街３７０巷１２９號之２","OBJECTID":277074},"geometry":{"x":165679.47999999952,"y":2543335.2600000016}},{"attributes":{"ID":277080,"DIS_CODE":0,"TOWNNAME":"仁德區","LI":"後壁里","LIN":"3鄰","STREET":"中正路","SECT":"二段","MAREA":" ","LANE":" ","ALLEY":" ","HOUSE_NO":"２８６號","E_COORD97":173253.94,"N_COORD97":2538982.0299999998,"ADDRESS":"中正路二段２８６號","OBJECTID":277075},"geometry":{"x":173253.94000000227,"y":2538982.0300000031}},{"attributes":{"ID":277081,"DIS_CODE":0,"TOWNNAME":"仁德區","LI":"仁德里","LIN":"3鄰","STREET":"仁中三街","SECT":" ","MAREA":" ","LANE":" ","ALLEY":" ","HOUSE_NO":"７１號","E_COORD97":173278.84,"N_COORD97":2540411.75,"ADDRESS":"仁中三街７１號","OBJECTID":277076},"geometry":{"x":173278.83999999985,"y":2540411.7500000037}},{"attributes":{"ID":277082,"DIS_CODE":0,"TOWNNAME":"仁德區","LI":"後壁里","LIN":"3鄰","STREET":"中正路","SECT":"二段","MAREA":" ","LANE":" ","ALLEY":" ","HOUSE_NO":"２８８號","E_COORD97":173254.32000000001,"N_COORD97":2538985.77,"ADDRESS":"中正路二段２８８號","OBJECTID":277077},"geometry":{"x":173254.3200000003,"y":2538985.7699999996}},{"attributes":{"ID":277083,"DIS_CODE":0,"TOWNNAME":"仁德區","LI":"仁德里","LIN":"3鄰","STREET":"仁中五街","SECT":" ","MAREA":" ","LANE":" ","ALLEY":" ","HOUSE_NO":"６８號","E_COORD97":173354.60000000001,"N_COORD97":2540302.75,"ADDRESS":"仁中五街６８號","OBJECTID":277078},"geometry":{"x":173354.59999999963,"y":2540302.75}},{"attributes":{"ID":277084,"DIS_CODE":0,"TOWNNAME":"安平區","LI":"國平里","LIN":"1鄰","STREET":"建平七街","SECT":" ","MAREA":" ","LANE":"３７０巷","ALLEY":" ","HOUSE_NO":"１２９號之３","E_COORD97":165674.07999999999,"N_COORD97":2543336.2999999998,"ADDRESS":"建平七街３７０巷１２９號之３","OBJECTID":277079},"geometry":{"x":165674.08000000101,"y":2543336.3000000026}},{"attributes":{"ID":277085,"DIS_CODE":0,"TOWNNAME":"安平區","LI":"國平里","LIN":"1鄰","STREET":"建平七街","SECT":" ","MAREA":" ","LANE":"３７０巷","ALLEY":" ","HOUSE_NO":"１２９號之５","E_COORD97":165667.98000000001,"N_COORD97":2543336.48,"ADDRESS":"建平七街３７０巷１２９號之５","OBJECTID":277080},"geometry":{"x":165667.98000000138,"y":2543336.4800000042}},{"attributes":{"ID":277086,"DIS_CODE":0,"TOWNNAME":"安平區","LI":"國平里","LIN":"1鄰","STREET":"建平七街","SECT":" ","MAREA":" ","LANE":"３７０巷","ALLEY":" ","HOUSE_NO":"１２９號之６","E_COORD97":165662.76000000001,"N_COORD97":2543337.8700000001,"ADDRESS":"建平七街３７０巷１２９號之６","OBJECTID":277081},"geometry":{"x":165662.75999999978,"y":2543337.8700000048}},{"attributes":{"ID":277087,"DIS_CODE":0,"TOWNNAME":"安平區","LI":"國平里","LIN":"1鄰","STREET":"建平七街","SECT":" ","MAREA":" ","LANE":"３７０巷","ALLEY":" ","HOUSE_NO":"１２９號之７","E_COORD97":165656.84,"N_COORD97":2543338.7400000002,"ADDRESS":"建平七街３７０巷１２９號之７","OBJECTID":277082},"geometry":{"x":165656.84000000078,"y":2543338.7400000021}},{"attributes":{"ID":277088,"DIS_CODE":0,"TOWNNAME":"安平區","LI":"國平里","LIN":"1鄰","STREET":"建平七街","SECT":" ","MAREA":" ","LANE":"３７０巷","ALLEY":" ","HOUSE_NO":"１２９號之８","E_COORD97":165650.92000000001,"N_COORD97":2543339.6099999999,"ADDRESS":"建平七街３７０巷１２９號之８","OBJECTID":277083},"geometry":{"x":165650.92000000086,"y":2543339.6100000013}},{"attributes":{"ID":277089,"DIS_CODE":0,"TOWNNAME":"安平區","LI":"國平里","LIN":"1鄰","STREET":"建平七街","SECT":" ","MAREA":" ","LANE":"３７０巷","ALLEY":" ","HOUSE_NO":"１２９號之９","E_COORD97":165645.51999999999,"N_COORD97":2543340.6499999999,"ADDRESS":"建平七街３７０巷１２９號之９","OBJECTID":277084},"geometry":{"x":165645.51999999955,"y":2543340.6500000004}},{"attributes":{"ID":277090,"DIS_CODE":0,"TOWNNAME":"歸仁區","LI":"看西里","LIN":"13鄰","STREET":"成功六街","SECT":" ","MAREA":" ","LANE":"１３巷","ALLEY":" ","HOUSE_NO":"３２號","E_COORD97":178339.76000000001,"N_COORD97":2540123.1099999999,"ADDRESS":"成功六街１３巷３２號","OBJECTID":277085},"geometry":{"x":178339.75999999978,"y":2540123.1099999994}},{"attributes":{"ID":277091,"DIS_CODE":0,"TOWNNAME":"安平區","LI":"國平里","LIN":"1鄰","STREET":"建平七街","SECT":" ","MAREA":" ","LANE":"４５４巷","ALLEY":" ","HOUSE_NO":"１１號","E_COORD97":165460.17999999999,"N_COORD97":2543379.77,"ADDRESS":"建平七街４５４巷１１號","OBJECTID":277086},"geometry":{"x":165460.1799999997,"y":2543379.7699999996}},{"attributes":{"ID":277092,"DIS_CODE":0,"TOWNNAME":"安平區","LI":"國平里","LIN":"1鄰","STREET":"建平七街","SECT":" ","MAREA":" ","LANE":"４５４巷","ALLEY":" ","HOUSE_NO":"１３號","E_COORD97":165460.48999999999,"N_COORD97":2543384.2599999998,"ADDRESS":"建平七街４５４巷１３號","OBJECTID":277087},"geometry":{"x":165460.48999999929,"y":2543384.2599999998}},{"attributes":{"ID":277093,"DIS_CODE":0,"TOWNNAME":"白河區","LI":"虎山里","LIN":"3鄰","STREET":" ","SECT":" ","MAREA":"木屐寮","LANE":" ","ALLEY":" ","HOUSE_NO":"４６之５號","E_COORD97":194235.09,"N_COORD97":2583928.1400000001,"ADDRESS":"木屐寮４６之５號","OBJECTID":277088},"geometry":{"x":194235.08999999985,"y":2583928.1400000006}},{"attributes":{"ID":277094,"DIS_CODE":0,"TOWNNAME":"仁德區","LI":"仁德里","LIN":"3鄰","STREET":"仁中三街","SECT":" ","MAREA":" ","LANE":" ","ALLEY":" ","HOUSE_NO":"６９號","E_COORD97":173283.44,"N_COORD97":2540411.75,"ADDRESS":"仁中三街６９號","OBJECTID":277089},"geometry":{"x":173283.44000000134,"y":2540411.7500000037}},{"attributes":{"ID":277095,"DIS_CODE":0,"TOWNNAME":"白河區","LI":"虎山里","LIN":"3鄰","STREET":" ","SECT":" ","MAREA":"木屐寮","LANE":" ","ALLEY":" ","HOUSE_NO":"４６之６號","E_COORD97":194253.95000000001,"N_COORD97":2583872.5800000001,"ADDRESS":"木屐寮４６之６號","OBJECTID":277090},"geometry":{"x":194253.95000000112,"y":2583872.5800000019}},{"attributes":{"ID":277096,"DIS_CODE":0,"TOWNNAME":"白河區","LI":"虎山里","LIN":"3鄰","STREET":" ","SECT":" ","MAREA":"木屐寮","LANE":" ","ALLEY":" ","HOUSE_NO":"４６號","E_COORD97":194268.88,"N_COORD97":2583885.75,"ADDRESS":"木屐寮４６號","OBJECTID":277091},"geometry":{"x":194268.87999999989,"y":2583885.75}},{"attributes":{"ID":277097,"DIS_CODE":0,"TOWNNAME":"白河區","LI":"虎山里","LIN":"3鄰","STREET":" ","SECT":" ","MAREA":"木屐寮","LANE":" ","ALLEY":" ","HOUSE_NO":"４７號","E_COORD97":194276.32000000001,"N_COORD97":2583843.7999999998,"ADDRESS":"木屐寮４７號","OBJECTID":277092},"geometry":{"x":194276.3200000003,"y":2583843.8000000026}},{"attributes":{"ID":277098,"DIS_CODE":0,"TOWNNAME":"新營區","LI":"新南里","LIN":"1鄰","STREET":"民治路","SECT":" ","MAREA":" ","LANE":"２３０巷","ALLEY":" ","HOUSE_NO":"３０號","E_COORD97":178753.28,"N_COORD97":2578616.3100000001,"ADDRESS":"民治路２３０巷３０號","OBJECTID":277093},"geometry":{"x":178753.28000000026,"y":2578616.3100000024}},{"attributes":{"ID":277099,"DIS_CODE":0,"TOWNNAME":"永康區","LI":"龍潭里","LIN":"34鄰","STREET":"龍埔街","SECT":" ","MAREA":" ","LANE":" ","ALLEY":" ","HOUSE_NO":"１６３號","E_COORD97":174489.89999999999,"N_COORD97":2548245.98,"ADDRESS":"龍埔街１６３號","OBJECTID":277094},"geometry":{"x":174489.90000000224,"y":2548245.9800000042}},{"attributes":{"ID":277100,"DIS_CODE":0,"TOWNNAME":"永康區","LI":"網寮里","LIN":"3鄰","STREET":"永和街","SECT":" ","MAREA":" ","LANE":" ","ALLEY":" ","HOUSE_NO":"１８５號","E_COORD97":173483.16,"N_COORD97":2546501.8399999999,"ADDRESS":"永和街１８５號","OBJECTID":277095},"geometry":{"x":173483.16000000108,"y":2546501.8400000017}},{"attributes":{"ID":277101,"DIS_CODE":0,"TOWNNAME":"新營區","LI":"興業里","LIN":"1鄰","STREET":"公誠街","SECT":" ","MAREA":" ","LANE":"１７巷","ALLEY":" ","HOUSE_NO":"２０之３號","E_COORD97":180372.78,"N_COORD97":2577941.9900000002,"ADDRESS":"公誠街１７巷２０之３號","OBJECTID":277096},"geometry":{"x":180372.78000000026,"y":2577941.9900000039}},{"attributes":{"ID":277102,"DIS_CODE":0,"TOWNNAME":"柳營區","LI":"士林里","LIN":"1鄰","STREET":"中山西路","SECT":"三段","MAREA":" ","LANE":"２１８巷","ALLEY":" ","HOUSE_NO":"５號","E_COORD97":179242.10000000001,"N_COORD97":2575087.8999999999,"ADDRESS":"中山西路三段２１８巷５號","OBJECTID":277097},"geometry":{"x":179242.09999999963,"y":2575087.9000000041}},{"attributes":{"ID":277103,"DIS_CODE":0,"TOWNNAME":"北區","LI":"國興里","LIN":"1鄰","STREET":"開元路","SECT":" ","MAREA":" ","LANE":"３４２巷","ALLEY":" ","HOUSE_NO":"１０號","E_COORD97":170482.67999999999,"N_COORD97":2545507.9199999999,"ADDRESS":"開元路３４２巷１０號","OBJECTID":277098},"geometry":{"x":170482.6799999997,"y":2545507.9200000018}},{"attributes":{"ID":277104,"DIS_CODE":0,"TOWNNAME":"將軍區","LI":"長榮里","LIN":"3鄰","STREET":" ","SECT":" ","MAREA":"長榮","LANE":" ","ALLEY":" ","HOUSE_NO":"３７號","E_COORD97":163944.89000000001,"N_COORD97":2566399.98,"ADDRESS":"長榮３７號","OBJECTID":277099},"geometry":{"x":163944.88999999966,"y":2566399.9800000004}},{"attributes":{"ID":277105,"DIS_CODE":0,"TOWNNAME":"將軍區","LI":"長榮里","LIN":"3鄰","STREET":" ","SECT":" ","MAREA":"長榮","LANE":" ","ALLEY":" ","HOUSE_NO":"３８號","E_COORD97":163938.13,"N_COORD97":2566366.6200000001,"ADDRESS":"長榮３８號","OBJECTID":277100},"geometry":{"x":163938.12999999989,"y":2566366.620000001}},{"attributes":{"ID":277106,"DIS_CODE":0,"TOWNNAME":"北區","LI":"國興里","LIN":"1鄰","STREET":"開元路","SECT":" ","MAREA":" ","LANE":"３４２巷","ALLEY":" ","HOUSE_NO":"１４號","E_COORD97":170484.98000000001,"N_COORD97":2545491.1299999999,"ADDRESS":"開元路３４２巷１４號","OBJECTID":277101},"geometry":{"x":170484.98000000045,"y":2545491.1300000008}},{"attributes":{"ID":277107,"DIS_CODE":0,"TOWNNAME":"將軍區","LI":"長榮里","LIN":"3鄰","STREET":" ","SECT":" ","MAREA":"長榮","LANE":" ","ALLEY":" ","HOUSE_NO":"３９號","E_COORD97":163922.97,"N_COORD97":2566348.23,"ADDRESS":"長榮３９號","OBJECTID":277102},"geometry":{"x":163922.97000000067,"y":2566348.2300000004}},{"attributes":{"ID":277108,"DIS_CODE":0,"TOWNNAME":"將軍區","LI":"長榮里","LIN":"3鄰","STREET":" ","SECT":" ","MAREA":"長榮","LANE":" ","ALLEY":" ","HOUSE_NO":"４１號","E_COORD97":163971.60000000001,"N_COORD97":2566335.8999999999,"ADDRESS":"長榮４１號","OBJECTID":277103},"geometry":{"x":163971.60000000056,"y":2566335.9000000004}},{"attributes":{"ID":277109,"DIS_CODE":0,"TOWNNAME":"北區","LI":"國興里","LIN":"1鄰","STREET":"開元路","SECT":" ","MAREA":" ","LANE":"３４２巷","ALLEY":" ","HOUSE_NO":"６號","E_COORD97":170471.92999999999,"N_COORD97":2545523.2799999998,"ADDRESS":"開元路３４２巷６號","OBJECTID":277104},"geometry":{"x":170471.93000000063,"y":2545523.2799999993}},{"attributes":{"ID":277110,"DIS_CODE":0,"TOWNNAME":"將軍區","LI":"長榮里","LIN":"3鄰","STREET":" ","SECT":" ","MAREA":"長榮","LANE":" ","ALLEY":" ","HOUSE_NO":"４５號","E_COORD97":163970.07000000001,"N_COORD97":2566408.29,"ADDRESS":"長榮４５號","OBJECTID":277105},"geometry":{"x":163970.07000000216,"y":2566408.290000001}},{"attributes":{"ID":277111,"DIS_CODE":0,"TOWNNAME":"將軍區","LI":"苓和里","LIN":"3鄰","STREET":" ","SECT":" ","MAREA":"苓和","LANE":" ","ALLEY":" ","HOUSE_NO":"２１號","E_COORD97":164717.23999999999,"N_COORD97":2568962.6099999999,"ADDRESS":"苓和２１號","OBJECTID":277106},"geometry":{"x":164717.24000000115,"y":2568962.6100000031}},{"attributes":{"ID":277112,"DIS_CODE":0,"TOWNNAME":"將軍區","LI":"苓和里","LIN":"3鄰","STREET":" ","SECT":" ","MAREA":"苓和","LANE":" ","ALLEY":" ","HOUSE_NO":"２２號","E_COORD97":164740.73999999999,"N_COORD97":2568974.8900000001,"ADDRESS":"苓和２２號","OBJECTID":277107},"geometry":{"x":164740.74000000115,"y":2568974.8900000006}},{"attributes":{"ID":277113,"DIS_CODE":0,"TOWNNAME":"南區","LI":"明亮里","LIN":"1鄰","STREET":"金華路","SECT":"一段","MAREA":" ","LANE":"２７２巷","ALLEY":" ","HOUSE_NO":"１０號","E_COORD97":167010.04999999999,"N_COORD97":2540953.0600000001,"ADDRESS":"金華路一段２７２巷１０號","OBJECTID":277108},"geometry":{"x":167010.04999999981,"y":2540953.0600000024}},{"attributes":{"ID":277114,"DIS_CODE":0,"TOWNNAME":"南區","LI":"明亮里","LIN":"1鄰","STREET":"金華路","SECT":"一段","MAREA":" ","LANE":"２７２巷","ALLEY":" ","HOUSE_NO":"１２號","E_COORD97":167009.79000000001,"N_COORD97":2540949.6699999999,"ADDRESS":"金華路一段２７２巷１２號","OBJECTID":277109},"geometry":{"x":167009.79000000097,"y":2540949.6699999999}},{"attributes":{"ID":277115,"DIS_CODE":0,"TOWNNAME":"永康區","LI":"尚頂里","LIN":"5鄰","STREET":"\u25A0信街","SECT":" ","MAREA":" ","LANE":" ","ALLEY":" ","HOUSE_NO":"６０號","E_COORD97":170874.73000000001,"N_COORD97":2547493.8799999999,"ADDRESS":"\u25A0信街６０號","OBJECTID":277110},"geometry":{"x":170874.73000000045,"y":2547493.8800000008}},{"attributes":{"ID":277116,"DIS_CODE":0,"TOWNNAME":"永康區","LI":"北灣里","LIN":"25鄰","STREET":"大灣六街","SECT":" ","MAREA":" ","LANE":" ","ALLEY":" ","HOUSE_NO":"９２號","E_COORD97":175086.44,"N_COORD97":2545327.4900000002,"ADDRESS":"大灣六街９２號","OBJECTID":277111},"geometry":{"x":175086.44000000227,"y":2545327.4900000021}},{"attributes":{"ID":277117,"DIS_CODE":0,"TOWNNAME":"南區","LI":"文南里","LIN":"1鄰","STREET":"建南路","SECT":" ","MAREA":" ","LANE":"１１７巷","ALLEY":" ","HOUSE_NO":"７號","E_COORD97":167042.89999999999,"N_COORD97":2542803.5299999998,"ADDRESS":"建南路１１７巷７號","OBJECTID":277112},"geometry":{"x":167042.89999999944,"y":2542803.5300000012}},{"attributes":{"ID":277118,"DIS_CODE":0,"TOWNNAME":"永康區","LI":"東灣里","LIN":"7鄰","STREET":"大灣路","SECT":" ","MAREA":" ","LANE":" ","ALLEY":" ","HOUSE_NO":"４２８號","E_COORD97":174771.64000000001,"N_COORD97":2544994.4700000002,"ADDRESS":"大灣路４２８號","OBJECTID":277113},"geometry":{"x":174771.63999999966,"y":2544994.4700000007}},{"attributes":{"ID":277119,"DIS_CODE":0,"TOWNNAME":"南區","LI":"府南里","LIN":"1鄰","STREET":"金華路","SECT":"一段","MAREA":" ","LANE":"４８４巷","ALLEY":" ","HOUSE_NO":"３９號","E_COORD97":167130.09,"N_COORD97":2541469.27,"ADDRESS":"金華路一段４８４巷３９號","OBJECTID":277114},"geometry":{"x":167130.09000000078,"y":2541469.2700000014}},{"attributes":{"ID":277120,"DIS_CODE":0,"TOWNNAME":"歸仁區","LI":"許厝里","LIN":"1鄰","STREET":"中山路","SECT":"一段","MAREA":" ","LANE":"３４３巷","ALLEY":" ","HOUSE_NO":"８號","E_COORD97":178396.14000000001,"N_COORD97":2540636.0099999998,"ADDRESS":"中山路一段３４３巷８號","OBJECTID":277115},"geometry":{"x":178396.13999999966,"y":2540636.0099999998}},{"attributes":{"ID":277121,"DIS_CODE":0,"TOWNNAME":"將軍區","LI":"保源里","LIN":"3鄰","STREET":" ","SECT":" ","MAREA":"苓保","LANE":" ","ALLEY":" ","HOUSE_NO":"２５號","E_COORD97":164570.60000000001,"N_COORD97":2568826.8599999999,"ADDRESS":"苓保２５號","OBJECTID":277116},"geometry":{"x":164570.59999999963,"y":2568826.8600000013}},{"attributes":{"ID":277122,"DIS_CODE":0,"TOWNNAME":"將軍區","LI":"保源里","LIN":"3鄰","STREET":" ","SECT":" ","MAREA":"苓保","LANE":" ","ALLEY":" ","HOUSE_NO":"２６號","E_COORD97":164557.92000000001,"N_COORD97":2568826.21,"ADDRESS":"苓保２６號","OBJECTID":277117},"geometry":{"x":164557.92000000086,"y":2568826.2100000009}},{"attributes":{"ID":277123,"DIS_CODE":0,"TOWNNAME":"將軍區","LI":"保源里","LIN":"3鄰","STREET":" ","SECT":" ","MAREA":"苓保","LANE":" ","ALLEY":" ","HOUSE_NO":"２７號","E_COORD97":164555.04000000001,"N_COORD97":2568817.04,"ADDRESS":"苓保２７號","OBJECTID":277118},"geometry":{"x":164555.04000000097,"y":2568817.0400000028}},{"attributes":{"ID":277124,"DIS_CODE":0,"TOWNNAME":"歸仁區","LI":"六甲里","LIN":"1鄰","STREET":"中正南路","SECT":"一段","MAREA":" ","LANE":"５４５巷","ALLEY":" ","HOUSE_NO":"７號","E_COORD97":176820.45956700001,"N_COORD97":2539935.3052500002,"ADDRESS":"中正南路一段５４５巷７號","OBJECTID":277119},"geometry":{"x":176820.45956699923,"y":2539935.305249}},{"attributes":{"ID":277125,"DIS_CODE":0,"TOWNNAME":"玉井區","LI":"玉井里","LIN":"1鄰","STREET":"中正路","SECT":" ","MAREA":" ","LANE":"２１巷","ALLEY":" ","HOUSE_NO":"１１號","E_COORD97":194651.53,"N_COORD97":2558011.1600000001,"ADDRESS":"中正路２１巷１１號","OBJECTID":277120},"geometry":{"x":194651.53000000212,"y":2558011.1600000001}},{"attributes":{"ID":277126,"DIS_CODE":0,"TOWNNAME":"玉井區","LI":"玉田里","LIN":"1鄰","STREET":"中正路","SECT":" ","MAREA":" ","LANE":"１７３巷","ALLEY":" ","HOUSE_NO":"７號","E_COORD97":195011.76000000001,"N_COORD97":2558261.25,"ADDRESS":"中正路１７３巷７號","OBJECTID":277121},"geometry":{"x":195011.75999999978,"y":2558261.25}},{"attributes":{"ID":277127,"DIS_CODE":0,"TOWNNAME":"玉井區","LI":"玉井里","LIN":"1鄰","STREET":"中正路","SECT":" ","MAREA":" ","LANE":"２１巷","ALLEY":" ","HOUSE_NO":"４８號","E_COORD97":194651.92999999999,"N_COORD97":2558073.1499999999,"ADDRESS":"中正路２１巷４８號","OBJECTID":277122},"geometry":{"x":194651.93000000063,"y":2558073.1499999985}},{"attributes":{"ID":277128,"DIS_CODE":0,"TOWNNAME":"仁德區","LI":"仁德里","LIN":"3鄰","STREET":"仁中六街","SECT":" ","MAREA":" ","LANE":" ","ALLEY":" ","HOUSE_NO":"１００號","E_COORD97":173407.41,"N_COORD97":2540461.2400000002,"ADDRESS":"仁中六街１００號","OBJECTID":277123},"geometry":{"x":173407.41000000015,"y":2540461.2400000021}},{"attributes":{"ID":277129,"DIS_CODE":0,"TOWNNAME":"玉井區","LI":"玉井里","LIN":"1鄰","STREET":"中正路","SECT":" ","MAREA":" ","LANE":"２１巷","ALLEY":" ","HOUSE_NO":"３５號","E_COORD97":194657.03,"N_COORD97":2558064.1499999999,"ADDRESS":"中正路２１巷３５號","OBJECTID":277124},"geometry":{"x":194657.03000000119,"y":2558064.1500000022}},{"attributes":{"ID":277130,"DIS_CODE":0,"TOWNNAME":"仁德區","LI":"田厝里","LIN":"3鄰","STREET":"田厝三街","SECT":" ","MAREA":" ","LANE":" ","ALLEY":" ","HOUSE_NO":"１０６號","E_COORD97":172641.20999999999,"N_COORD97":2537476.9900000002,"ADDRESS":"田厝三街１０６號","OBJECTID":277125},"geometry":{"x":172641.20999999996,"y":2537476.9900000002}},{"attributes":{"ID":277131,"DIS_CODE":0,"TOWNNAME":"六甲區","LI":"水林里","LIN":"1鄰","STREET":"信義街","SECT":" ","MAREA":" ","LANE":"３４９巷","ALLEY":" ","HOUSE_NO":"１號","E_COORD97":183384,"N_COORD97":2570090.0600000001,"ADDRESS":"信義街３４９巷１號","OBJECTID":277126},"geometry":{"x":183384.00000000093,"y":2570090.0600000024}},{"attributes":{"ID":277132,"DIS_CODE":0,"TOWNNAME":"永康區","LI":"網寮里","LIN":"26鄰","STREET":"永吉路","SECT":" ","MAREA":" ","LANE":" ","ALLEY":" ","HOUSE_NO":"１３８號","E_COORD97":173974.48999999999,"N_COORD97":2546537.8100000001,"ADDRESS":"永吉路１３８號","OBJECTID":277127},"geometry":{"x":173974.49000000115,"y":2546537.8100000005}},{"attributes":{"ID":277133,"DIS_CODE":0,"TOWNNAME":"將軍區","LI":"鯤鯓里","LIN":"3鄰","STREET":" ","SECT":" ","MAREA":"鯤鯓","LANE":" ","ALLEY":" ","HOUSE_NO":"２２號","E_COORD97":156576.38,"N_COORD97":2565631.8399999999,"ADDRESS":"鯤鯓２２號","OBJECTID":277128},"geometry":{"x":156576.37999999989,"y":2565631.839999998}},{"attributes":{"ID":277134,"DIS_CODE":0,"TOWNNAME":"六甲區","LI":"水林里","LIN":"1鄰","STREET":"信義街","SECT":" ","MAREA":" ","LANE":"３４９巷","ALLEY":" ","HOUSE_NO":"３號","E_COORD97":183379.37,"N_COORD97":2570091.1099999999,"ADDRESS":"信義街３４９巷３號","OBJECTID":277129},"geometry":{"x":183379.36999999918,"y":2570091.1099999994}},{"attributes":{"ID":277135,"DIS_CODE":0,"TOWNNAME":"龍崎區","LI":"石\u25A0里","LIN":"3鄰","STREET":" ","SECT":" ","MAREA":"蜈蜞埔","LANE":" ","ALLEY":" ","HOUSE_NO":"１２號","E_COORD97":189982.10999999999,"N_COORD97":2539109.2999999998,"ADDRESS":"蜈蜞埔１２號","OBJECTID":277130},"geometry":{"x":189982.11000000034,"y":2539109.3000000007}},{"attributes":{"ID":277136,"DIS_CODE":0,"TOWNNAME":"永康區","LI":"復國里","LIN":"7鄰","STREET":"復國一路","SECT":" ","MAREA":" ","LANE":" ","ALLEY":" ","HOUSE_NO":"２８２號","E_COORD97":172754.48000000001,"N_COORD97":2545493.7799999998,"ADDRESS":"復國一路２８２號","OBJECTID":277131},"geometry":{"x":172754.48000000045,"y":2545493.7800000012}},{"attributes":{"ID":277137,"DIS_CODE":0,"TOWNNAME":"六甲區","LI":"水林里","LIN":"1鄰","STREET":"信義街","SECT":" ","MAREA":" ","LANE":"３４９巷","ALLEY":" ","HOUSE_NO":"５號","E_COORD97":183374.91,"N_COORD97":2570092,"ADDRESS":"信義街３４９巷５號","OBJECTID":277132},"geometry":{"x":183374.91000000108,"y":2570092}},{"attributes":{"ID":277138,"DIS_CODE":0,"TOWNNAME":"龍崎區","LI":"石\u25A0里","LIN":"3鄰","STREET":" ","SECT":" ","MAREA":"蜈蜞埔","LANE":" ","ALLEY":" ","HOUSE_NO":"９號","E_COORD97":190152.06,"N_COORD97":2539099.2999999998,"ADDRESS":"蜈蜞埔９號","OBJECTID":277133},"geometry":{"x":190152.06000000052,"y":2539099.3000000007}},{"attributes":{"ID":277139,"DIS_CODE":0,"TOWNNAME":"龍崎區","LI":"土崎里","LIN":"3鄰","STREET":" ","SECT":" ","MAREA":"礁坑子","LANE":" ","ALLEY":" ","HOUSE_NO":"２之１１號","E_COORD97":186591.23999999999,"N_COORD97":2542618.2999999998,"ADDRESS":"礁坑子２之１１號","OBJECTID":277134},"geometry":{"x":186591.24000000209,"y":2542618.3000000007}},{"attributes":{"ID":277140,"DIS_CODE":0,"TOWNNAME":"六甲區","LI":"水林里","LIN":"1鄰","STREET":"信義街","SECT":" ","MAREA":" ","LANE":"３４９巷","ALLEY":" ","HOUSE_NO":"７號","E_COORD97":183369.60000000001,"N_COORD97":2570093.3900000001,"ADDRESS":"信義街３４９巷７號","OBJECTID":277135},"geometry":{"x":183369.60000000056,"y":2570093.3900000006}},{"attributes":{"ID":277141,"DIS_CODE":0,"TOWNNAME":"龍崎區","LI":"土崎里","LIN":"3鄰","STREET":" ","SECT":" ","MAREA":"礁坑子","LANE":" ","ALLEY":" ","HOUSE_NO":"２之１２號","E_COORD97":186593.94,"N_COORD97":2542628.2999999998,"ADDRESS":"礁坑子２之１２號","OBJECTID":277136},"geometry":{"x":186593.94000000134,"y":2542628.3000000007}},{"attributes":{"ID":277142,"DIS_CODE":0,"TOWNNAME":"龍崎區","LI":"牛埔里","LIN":"3鄰","STREET":" ","SECT":" ","MAREA":"牛埔","LANE":" ","ALLEY":" ","HOUSE_NO":"２６號","E_COORD97":189476.67000000001,"N_COORD97":2536553.25,"ADDRESS":"牛埔２６號","OBJECTID":277137},"geometry":{"x":189476.67000000086,"y":2536553.25}},{"attributes":{"ID":277143,"DIS_CODE":0,"TOWNNAME":"六甲區","LI":"甲東里","LIN":"1鄰","STREET":"復興街","SECT":" ","MAREA":" ","LANE":"２巷","ALLEY":" ","HOUSE_NO":"１號","E_COORD97":183982.56,"N_COORD97":2569927.71,"ADDRESS":"復興街２巷１號","OBJECTID":277138},"geometry":{"x":183982.55999999959,"y":2569927.7100000028}},{"attributes":{"ID":277144,"DIS_CODE":0,"TOWNNAME":"六甲區","LI":"甲東里","LIN":"1鄰","STREET":"復興街","SECT":" ","MAREA":" ","LANE":"２巷","ALLEY":" ","HOUSE_NO":"２號","E_COORD97":183977.97,"N_COORD97":2569929.5299999998,"ADDRESS":"復興街２巷２號","OBJECTID":277139},"geometry":{"x":183977.96999999974,"y":2569929.5300000012}},{"attributes":{"ID":277145,"DIS_CODE":0,"TOWNNAME":"龍崎區","LI":"大坪里","LIN":"3鄰","STREET":" ","SECT":" ","MAREA":"番社","LANE":" ","ALLEY":" ","HOUSE_NO":"１８號","E_COORD97":188417.17000000001,"N_COORD97":2537379.25,"ADDRESS":"番社１８號","OBJECTID":277140},"geometry":{"x":188417.17000000086,"y":2537379.25}},{"attributes":{"ID":277146,"DIS_CODE":0,"TOWNNAME":"西港區","LI":"竹林里","LIN":"3鄰","STREET":" ","SECT":" ","MAREA":"大竹林","LANE":" ","ALLEY":" ","HOUSE_NO":"２０號","E_COORD97":166564.47,"N_COORD97":2558062.7000000002,"ADDRESS":"大竹林２０號","OBJECTID":277141},"geometry":{"x":166564.47000000067,"y":2558062.7000000011}},{"attributes":{"ID":277147,"DIS_CODE":0,"TOWNNAME":"西港區","LI":"竹林里","LIN":"3鄰","STREET":" ","SECT":" ","MAREA":"大竹林","LANE":" ","ALLEY":" ","HOUSE_NO":"２１號之１","E_COORD97":166558.22,"N_COORD97":2558086.3700000001,"ADDRESS":"大竹林２１號之１","OBJECTID":277142},"geometry":{"x":166558.21999999974,"y":2558086.3700000048}},{"attributes":{"ID":277148,"DIS_CODE":0,"TOWNNAME":"西港區","LI":"竹林里","LIN":"3鄰","STREET":" ","SECT":" ","MAREA":"大竹林","LANE":" ","ALLEY":" ","HOUSE_NO":"２１號","E_COORD97":166564.31,"N_COORD97":2558115.1699999999,"ADDRESS":"大竹林２１號","OBJECTID":277143},"geometry":{"x":166564.30999999959,"y":2558115.1699999999}},{"attributes":{"ID":277149,"DIS_CODE":0,"TOWNNAME":"西港區","LI":"竹林里","LIN":"3鄰","STREET":" ","SECT":" ","MAREA":"大竹林","LANE":" ","ALLEY":" ","HOUSE_NO":"２２號之１","E_COORD97":166501.84,"N_COORD97":2558063.3999999999,"ADDRESS":"大竹林２２號之１","OBJECTID":277144},"geometry":{"x":166501.83999999985,"y":2558063.4000000004}},{"attributes":{"ID":277150,"DIS_CODE":0,"TOWNNAME":"西港區","LI":"竹林里","LIN":"3鄰","STREET":" ","SECT":" ","MAREA":"大竹林","LANE":" ","ALLEY":" ","HOUSE_NO":"２２號","E_COORD97":166499.98999999999,"N_COORD97":2558094.6000000001,"ADDRESS":"大竹林２２號","OBJECTID":277145},"geometry":{"x":166499.99000000115,"y":2558094.6000000015}},{"attributes":{"ID":277151,"DIS_CODE":0,"TOWNNAME":"六甲區","LI":"甲南里","LIN":"1鄰","STREET":"復興街","SECT":" ","MAREA":" ","LANE":"４１巷","ALLEY":" ","HOUSE_NO":"１號","E_COORD97":183836.97,"N_COORD97":2569915.9500000002,"ADDRESS":"復興街４１巷１號","OBJECTID":277146},"geometry":{"x":183836.96999999974,"y":2569915.9499999974}},{"attributes":{"ID":277152,"DIS_CODE":0,"TOWNNAME":"西港區","LI":"竹林里","LIN":"3鄰","STREET":" ","SECT":" ","MAREA":"大竹林","LANE":" ","ALLEY":" ","HOUSE_NO":"２３號","E_COORD97":166485.37,"N_COORD97":2558128.77,"ADDRESS":"大竹林２３號","OBJECTID":277147},"geometry":{"x":166485.37000000104,"y":2558128.7699999996}},{"attributes":{"ID":277153,"DIS_CODE":0,"TOWNNAME":"西港區","LI":"竹林里","LIN":"3鄰","STREET":" ","SECT":" ","MAREA":"大竹林","LANE":" ","ALLEY":" ","HOUSE_NO":"２４號之１","E_COORD97":166464.04000000001,"N_COORD97":2558165.02,"ADDRESS":"大竹林２４號之１","OBJECTID":277148},"geometry":{"x":166464.04000000097,"y":2558165.0200000033}},{"attributes":{"ID":277154,"DIS_CODE":0,"TOWNNAME":"新營區","LI":"嘉芳里","LIN":"1鄰","STREET":"復興路","SECT":" ","MAREA":" ","LANE":"７００巷","ALLEY":" ","HOUSE_NO":"８３號","E_COORD97":177276.73999999999,"N_COORD97":2578924.7200000002,"ADDRESS":"復興路７００巷８３號","OBJECTID":277149},"geometry":{"x":177276.74000000115,"y":2578924.7200000025}},{"attributes":{"ID":277155,"DIS_CODE":0,"TOWNNAME":"歸仁區","LI":"大廟里","LIN":"1鄰","STREET":"大廟二街","SECT":" ","MAREA":" ","LANE":"５７巷","ALLEY":" ","HOUSE_NO":"１１號","E_COORD97":176033.14000000001,"N_COORD97":2543970.8900000001,"ADDRESS":"大廟二街５７巷１１號","OBJECTID":277150},"geometry":{"x":176033.13999999966,"y":2543970.8900000006}},{"attributes":{"ID":277156,"DIS_CODE":0,"TOWNNAME":"歸仁區","LI":"武東里","LIN":"1鄰","STREET":"中正南路","SECT":"二段","MAREA":" ","LANE":"２５３巷","ALLEY":" ","HOUSE_NO":"２６號","E_COORD97":175466.16,"N_COORD97":2535199.2799999998,"ADDRESS":"中正南路二段２５３巷２６號","OBJECTID":277151},"geometry":{"x":175466.16000000201,"y":2535199.2799999993}},{"attributes":{"ID":277157,"DIS_CODE":0,"TOWNNAME":"西港區","LI":"竹林里","LIN":"3鄰","STREET":" ","SECT":" ","MAREA":"大竹林","LANE":" ","ALLEY":" ","HOUSE_NO":"２４號之５","E_COORD97":166478.31,"N_COORD97":2558203.2200000002,"ADDRESS":"大竹林２４號之５","OBJECTID":277152},"geometry":{"x":166478.31000000145,"y":2558203.2200000025}},{"attributes":{"ID":277158,"DIS_CODE":0,"TOWNNAME":"歸仁區","LI":"武東里","LIN":"1鄰","STREET":"中正南路","SECT":"二段","MAREA":" ","LANE":"２７５巷","ALLEY":" ","HOUSE_NO":"３６號","E_COORD97":175549.95999999999,"N_COORD97":2535122.2799999998,"ADDRESS":"中正南路二段２７５巷３６號","OBJECTID":277153},"geometry":{"x":175549.95999999996,"y":2535122.2800000012}},{"attributes":{"ID":277159,"DIS_CODE":0,"TOWNNAME":"歸仁區","LI":"文化里","LIN":"1鄰","STREET":"中正北路","SECT":"一段","MAREA":" ","LANE":"１１３巷","ALLEY":" ","HOUSE_NO":"２５號","E_COORD97":177574.10999999999,"N_COORD97":2541258.25,"ADDRESS":"中正北路一段１１３巷２５號","OBJECTID":277154},"geometry":{"x":177574.11000000127,"y":2541258.25}},{"attributes":{"ID":277160,"DIS_CODE":0,"TOWNNAME":"西港區","LI":"竹林里","LIN":"3鄰","STREET":" ","SECT":" ","MAREA":"大竹林","LANE":" ","ALLEY":" ","HOUSE_NO":"２４號","E_COORD97":166473.29000000001,"N_COORD97":2558151.1899999999,"ADDRESS":"大竹林２４號","OBJECTID":277155},"geometry":{"x":166473.29000000004,"y":2558151.1900000013}},{"attributes":{"ID":277161,"DIS_CODE":0,"TOWNNAME":"中西區","LI":"三合里","LIN":"15鄰","STREET":"文賢路","SECT":" ","MAREA":" ","LANE":" ","ALLEY":" ","HOUSE_NO":"８４號","E_COORD97":167430,"N_COORD97":2544631.0600000001,"ADDRESS":"文賢路８４號","OBJECTID":277156},"geometry":{"x":167429.99999999907,"y":2544631.0599999987}},{"attributes":{"ID":277162,"DIS_CODE":0,"TOWNNAME":"中西區","LI":"三合里","LIN":"15鄰","STREET":"文賢路","SECT":" ","MAREA":" ","LANE":" ","ALLEY":" ","HOUSE_NO":"８６號","E_COORD97":167430.41,"N_COORD97":2544633.1299999999,"ADDRESS":"文賢路８６號","OBJECTID":277157},"geometry":{"x":167430.41000000015,"y":2544633.1300000008}},{"attributes":{"ID":277163,"DIS_CODE":0,"TOWNNAME":"歸仁區","LI":"大潭里","LIN":"1鄰","STREET":"中正南路","SECT":"三段","MAREA":" ","LANE":"９５巷","ALLEY":" ","HOUSE_NO":"１３號","E_COORD97":175331.60999999999,"N_COORD97":2535008.2799999998,"ADDRESS":"中正南路三段９５巷１３號","OBJECTID":277158},"geometry":{"x":175331.61000000127,"y":2535008.2800000012}},{"attributes":{"ID":277164,"DIS_CODE":0,"TOWNNAME":"歸仁區","LI":"大廟里","LIN":"1鄰","STREET":"大廟二街","SECT":" ","MAREA":" ","LANE":"４５巷","ALLEY":" ","HOUSE_NO":"１１號","E_COORD97":176031.45999999999,"N_COORD97":2544009.8900000001,"ADDRESS":"大廟二街４５巷１１號","OBJECTID":277159},"geometry":{"x":176031.45999999996,"y":2544009.8900000025}},{"attributes":{"ID":277165,"DIS_CODE":0,"TOWNNAME":"歸仁區","LI":"大廟里","LIN":"1鄰","STREET":"大廟二街","SECT":" ","MAREA":" ","LANE":"４５巷","ALLEY":" ","HOUSE_NO":"１９號","E_COORD97":176015.06,"N_COORD97":2544007.8900000001,"ADDRESS":"大廟二街４５巷１９號","OBJECTID":277160},"geometry":{"x":176015.05999999959,"y":2544007.8900000006}},{"attributes":{"ID":277166,"DIS_CODE":0,"TOWNNAME":"中西區","LI":"三合里","LIN":"15鄰","STREET":"文賢路","SECT":" ","MAREA":" ","LANE":" ","ALLEY":" ","HOUSE_NO":"８８號","E_COORD97":167431.23999999999,"N_COORD97":2544636.04,"ADDRESS":"文賢路８８號","OBJECTID":277161},"geometry":{"x":167431.24000000115,"y":2544636.0399999991}},{"attributes":{"ID":277167,"DIS_CODE":0,"TOWNNAME":"永康區","LI":"西灣里","LIN":"4鄰","STREET":"大灣五街","SECT":" ","MAREA":" ","LANE":" ","ALLEY":" ","HOUSE_NO":"５１號","E_COORD97":174733.92000000001,"N_COORD97":2545238.23,"ADDRESS":"大灣五街５１號","OBJECTID":277162},"geometry":{"x":174733.92000000086,"y":2545238.2300000023}},{"attributes":{"ID":277168,"DIS_CODE":0,"TOWNNAME":"東區","LI":"裕聖里","LIN":"8鄰","STREET":"裕敬五街","SECT":" ","MAREA":" ","LANE":" ","ALLEY":" ","HOUSE_NO":"１０８號","E_COORD97":172824.45999999999,"N_COORD97":2542024.4199999999,"ADDRESS":"裕敬五街１０８號","OBJECTID":277163},"geometry":{"x":172824.46000000183,"y":2542024.4200000037}},{"attributes":{"ID":277169,"DIS_CODE":0,"TOWNNAME":"北區","LI":"六甲里","LIN":"4鄰","STREET":"公園路","SECT":" ","MAREA":" ","LANE":"５０９巷","ALLEY":" ","HOUSE_NO":"３３號","E_COORD97":168967.28,"N_COORD97":2545558.54,"ADDRESS":"公園路５０９巷３３號","OBJECTID":277164},"geometry":{"x":168967.28000000026,"y":2545558.5399999991}},{"attributes":{"ID":277170,"DIS_CODE":0,"TOWNNAME":"歸仁區","LI":"大潭里","LIN":"1鄰","STREET":"中正南路","SECT":"三段","MAREA":" ","LANE":"９５巷","ALLEY":" ","HOUSE_NO":"７號","E_COORD97":175317.06,"N_COORD97":2535005.2799999998,"ADDRESS":"中正南路三段９５巷７號","OBJECTID":277165},"geometry":{"x":175317.06000000145,"y":2535005.2799999993}},{"attributes":{"ID":277171,"DIS_CODE":0,"TOWNNAME":"佳里區","LI":"頂\u25A0里","LIN":"3鄰","STREET":" ","SECT":" ","MAREA":"頂\u25A0","LANE":" ","ALLEY":" ","HOUSE_NO":"３０號之５","E_COORD97":163179.78,"N_COORD97":2563705.6200000001,"ADDRESS":"頂\u25A0３０號之５","OBJECTID":277166},"geometry":{"x":163179.78000000026,"y":2563705.6200000048}},{"attributes":{"ID":277172,"DIS_CODE":0,"TOWNNAME":"永康區","LI":"網寮里","LIN":"17鄰","STREET":"永興路","SECT":" ","MAREA":" ","LANE":" ","ALLEY":" ","HOUSE_NO":"４３７號","E_COORD97":173218.70999999999,"N_COORD97":2546899.6800000002,"ADDRESS":"永興路４３７號","OBJECTID":277167},"geometry":{"x":173218.70999999996,"y":2546899.6799999997}},{"attributes":{"ID":277173,"DIS_CODE":0,"TOWNNAME":"歸仁區","LI":"大潭里","LIN":"1鄰","STREET":"中正南路","SECT":"三段","MAREA":" ","LANE":"９５巷","ALLEY":" ","HOUSE_NO":"１７號","E_COORD97":175345.01000000001,"N_COORD97":2535011.2799999998,"ADDRESS":"中正南路三段９５巷１７號","OBJECTID":277168},"geometry":{"x":175345.01000000071,"y":2535011.2800000012}},{"attributes":{"ID":277174,"DIS_CODE":0,"TOWNNAME":"歸仁區","LI":"大潭里","LIN":"1鄰","STREET":"中正南路","SECT":"三段","MAREA":" ","LANE":"９５巷","ALLEY":" ","HOUSE_NO":"３號","E_COORD97":175310.85999999999,"N_COORD97":2535004.2799999998,"ADDRESS":"中正南路三段９５巷３號","OBJECTID":277169},"geometry":{"x":175310.86000000127,"y":2535004.2800000012}},{"attributes":{"ID":277175,"DIS_CODE":0,"TOWNNAME":"佳里區","LI":"漳洲里","LIN":"3鄰","STREET":" ","SECT":" ","MAREA":"番子寮","LANE":" ","ALLEY":" ","HOUSE_NO":"１８１號之１４","E_COORD97":163581.57999999999,"N_COORD97":2564528.3999999999,"ADDRESS":"番子寮１８１號之１４","OBJECTID":277170},"geometry":{"x":163581.58000000194,"y":2564528.4000000022}},{"attributes":{"ID":277176,"DIS_CODE":0,"TOWNNAME":"學甲區","LI":"明宜里","LIN":"3鄰","STREET":"中正路","SECT":" ","MAREA":" ","LANE":" ","ALLEY":" ","HOUSE_NO":"２４３號","E_COORD97":166077.48999999999,"N_COORD97":2570375.3300000001,"ADDRESS":"中正路２４３號","OBJECTID":277171},"geometry":{"x":166077.49000000022,"y":2570375.3299999982}},{"attributes":{"ID":277177,"DIS_CODE":0,"TOWNNAME":"歸仁區","LI":"七甲里","LIN":"1鄰","STREET":"七甲五街","SECT":" ","MAREA":" ","LANE":"９１巷","ALLEY":" ","HOUSE_NO":"１２號","E_COORD97":177163.75,"N_COORD97":2542568.9300000002,"ADDRESS":"七甲五街９１巷１２號","OBJECTID":277172},"geometry":{"x":177163.75,"y":2542568.9299999997}},{"attributes":{"ID":277178,"DIS_CODE":0,"TOWNNAME":"歸仁區","LI":"大廟里","LIN":"1鄰","STREET":"大廟二街","SECT":" ","MAREA":" ","LANE":"５７巷","ALLEY":" ","HOUSE_NO":"９號","E_COORD97":176025.69,"N_COORD97":2543969.8799999999,"ADDRESS":"大廟二街５７巷９號","OBJECTID":277173},"geometry":{"x":176025.69000000227,"y":2543969.8800000027}},{"attributes":{"ID":277179,"DIS_CODE":0,"TOWNNAME":"學甲區","LI":"明宜里","LIN":"3鄰","STREET":"中正路","SECT":" ","MAREA":" ","LANE":" ","ALLEY":" ","HOUSE_NO":"２４５號","E_COORD97":166077.95000000001,"N_COORD97":2570379.2999999998,"ADDRESS":"中正路２４５號","OBJECTID":277174},"geometry":{"x":166077.95000000205,"y":2570379.3000000007}},{"attributes":{"ID":277180,"DIS_CODE":0,"TOWNNAME":"歸仁區","LI":"大廟里","LIN":"1鄰","STREET":"大廟二街","SECT":" ","MAREA":" ","LANE":"５７巷","ALLEY":" ","HOUSE_NO":"７號","E_COORD97":176019.59,"N_COORD97":2543967.8900000001,"ADDRESS":"大廟二街５７巷７號","OBJECTID":277175},"geometry":{"x":176019.59000000078,"y":2543967.8900000043}},{"attributes":{"ID":277181,"DIS_CODE":0,"TOWNNAME":"學甲區","LI":"明宜里","LIN":"3鄰","STREET":"中正路","SECT":" ","MAREA":" ","LANE":" ","ALLEY":" ","HOUSE_NO":"２４７號","E_COORD97":166079.09,"N_COORD97":2570383.2999999998,"ADDRESS":"中正路２４７號","OBJECTID":277176},"geometry":{"x":166079.09000000078,"y":2570383.3000000045}},{"attributes":{"ID":277182,"DIS_CODE":0,"TOWNNAME":"歸仁區","LI":"大潭里","LIN":"1鄰","STREET":"中正南路","SECT":"三段","MAREA":" ","LANE":"５１巷","ALLEY":" ","HOUSE_NO":"２３號","E_COORD97":175343.01000000001,"N_COORD97":2535029.2799999998,"ADDRESS":"中正南路三段５１巷２３號","OBJECTID":277177},"geometry":{"x":175343.01000000164,"y":2535029.2799999993}},{"attributes":{"ID":277183,"DIS_CODE":0,"TOWNNAME":"歸仁區","LI":"大潭里","LIN":"1鄰","STREET":"中正南路","SECT":"三段","MAREA":" ","LANE":"９５巷","ALLEY":" ","HOUSE_NO":"１５號","E_COORD97":175334.70999999999,"N_COORD97":2535009.2799999998,"ADDRESS":"中正南路三段９５巷１５號","OBJECTID":277178},"geometry":{"x":175334.70999999996,"y":2535009.2799999993}},{"attributes":{"ID":277184,"DIS_CODE":0,"TOWNNAME":"佳里區","LI":"漳洲里","LIN":"3鄰","STREET":" ","SECT":" ","MAREA":"番子寮","LANE":" ","ALLEY":" ","HOUSE_NO":"１９７號之３","E_COORD97":163553.35999999999,"N_COORD97":2564417.8500000001,"ADDRESS":"番子寮１９７號之３","OBJECTID":277179},"geometry":{"x":163553.36000000127,"y":2564417.8499999978}},{"attributes":{"ID":277185,"DIS_CODE":0,"TOWNNAME":"佳里區","LI":"漳洲里","LIN":"3鄰","STREET":" ","SECT":" ","MAREA":"番子寮","LANE":" ","ALLEY":" ","HOUSE_NO":"１９７號之８","E_COORD97":163527.76000000001,"N_COORD97":2564431.8999999999,"ADDRESS":"番子寮１９７號之８","OBJECTID":277180},"geometry":{"x":163527.76000000071,"y":2564431.9000000041}},{"attributes":{"ID":277186,"DIS_CODE":0,"TOWNNAME":"佳里區","LI":"漳洲里","LIN":"3鄰","STREET":" ","SECT":" ","MAREA":"番子寮","LANE":" ","ALLEY":" ","HOUSE_NO":"１９７號","E_COORD97":163576.98000000001,"N_COORD97":2564431.02,"ADDRESS":"番子寮１９７號","OBJECTID":277181},"geometry":{"x":163576.98000000045,"y":2564431.0200000014}},{"attributes":{"ID":277187,"DIS_CODE":0,"TOWNNAME":"學甲區","LI":"大灣里","LIN":"3鄰","STREET":" ","SECT":" ","MAREA":"大灣","LANE":" ","ALLEY":" ","HOUSE_NO":"１８號","E_COORD97":166954.45999999999,"N_COORD97":2568097.1899999999,"ADDRESS":"大灣１８號","OBJECTID":277182},"geometry":{"x":166954.46000000089,"y":2568097.1899999995}},{"attributes":{"ID":277188,"DIS_CODE":0,"TOWNNAME":"學甲區","LI":"大灣里","LIN":"3鄰","STREET":" ","SECT":" ","MAREA":"大灣","LANE":" ","ALLEY":" ","HOUSE_NO":"１９號","E_COORD97":166976.69,"N_COORD97":2568072.0600000001,"ADDRESS":"大灣１９號","OBJECTID":277183},"geometry":{"x":166976.69000000227,"y":2568072.0600000005}},{"attributes":{"ID":277189,"DIS_CODE":0,"TOWNNAME":"學甲區","LI":"大灣里","LIN":"3鄰","STREET":" ","SECT":" ","MAREA":"大灣","LANE":" ","ALLEY":" ","HOUSE_NO":"２０號","E_COORD97":166945.17000000001,"N_COORD97":2568042.4700000002,"ADDRESS":"大灣２０號","OBJECTID":277184},"geometry":{"x":166945.16999999993,"y":2568042.4700000044}},{"attributes":{"ID":277190,"DIS_CODE":0,"TOWNNAME":"學甲區","LI":"大灣里","LIN":"3鄰","STREET":" ","SECT":" ","MAREA":"大灣","LANE":" ","ALLEY":" ","HOUSE_NO":"２４號","E_COORD97":166950.81,"N_COORD97":2568127.98,"ADDRESS":"大灣２４號","OBJECTID":277185},"geometry":{"x":166950.80999999959,"y":2568127.9800000023}},{"attributes":{"ID":277191,"DIS_CODE":0,"TOWNNAME":"學甲區","LI":"大灣里","LIN":"3鄰","STREET":" ","SECT":" ","MAREA":"大灣","LANE":" ","ALLEY":" ","HOUSE_NO":"２５號之１","E_COORD97":166907.28,"N_COORD97":2568117.77,"ADDRESS":"大灣２５號之１","OBJECTID":277186},"geometry":{"x":166907.28000000026,"y":2568117.7700000014}},{"attributes":{"ID":277192,"DIS_CODE":0,"TOWNNAME":"學甲區","LI":"大灣里","LIN":"3鄰","STREET":" ","SECT":" ","MAREA":"大灣","LANE":" ","ALLEY":" ","HOUSE_NO":"２５號之２","E_COORD97":166895.51999999999,"N_COORD97":2568114.5800000001,"ADDRESS":"大灣２５號之２","OBJECTID":277187},"geometry":{"x":166895.52000000142,"y":2568114.5800000001}},{"attributes":{"ID":277193,"DIS_CODE":0,"TOWNNAME":"學甲區","LI":"中洲里","LIN":"3鄰","STREET":" ","SECT":" ","MAREA":"中洲","LANE":" ","ALLEY":" ","HOUSE_NO":"３２號之１","E_COORD97":163992.42000000001,"N_COORD97":2571354.27,"ADDRESS":"中洲３２號之１","OBJECTID":277188},"geometry":{"x":163992.41999999993,"y":2571354.2699999996}},{"attributes":{"ID":277194,"DIS_CODE":0,"TOWNNAME":"學甲區","LI":"中洲里","LIN":"3鄰","STREET":" ","SECT":" ","MAREA":"中洲","LANE":" ","ALLEY":" ","HOUSE_NO":"３２號之３","E_COORD97":163969.16,"N_COORD97":2571375.1899999999,"ADDRESS":"中洲３２號之３","OBJECTID":277189},"geometry":{"x":163969.16000000015,"y":2571375.1899999995}},{"attributes":{"ID":277195,"DIS_CODE":0,"TOWNNAME":"學甲區","LI":"中洲里","LIN":"3鄰","STREET":" ","SECT":" ","MAREA":"中洲","LANE":" ","ALLEY":" ","HOUSE_NO":"３２號之４","E_COORD97":163964.85000000001,"N_COORD97":2571375.2000000002,"ADDRESS":"中洲３２號之４","OBJECTID":277190},"geometry":{"x":163964.85000000056,"y":2571375.1999999993}},{"attributes":{"ID":277196,"DIS_CODE":0,"TOWNNAME":"學甲區","LI":"中洲里","LIN":"3鄰","STREET":" ","SECT":" ","MAREA":"中洲","LANE":" ","ALLEY":" ","HOUSE_NO":"３２號之５","E_COORD97":163960.70000000001,"N_COORD97":2571375.4300000002,"ADDRESS":"中洲３２號之５","OBJECTID":277191},"geometry":{"x":163960.70000000205,"y":2571375.4300000016}},{"attributes":{"ID":277197,"DIS_CODE":0,"TOWNNAME":"學甲區","LI":"中洲里","LIN":"3鄰","STREET":" ","SECT":" ","MAREA":"中洲","LANE":" ","ALLEY":" ","HOUSE_NO":"３２號之６","E_COORD97":163956.48000000001,"N_COORD97":2571375.2999999998,"ADDRESS":"中洲３２號之６","OBJECTID":277192},"geometry":{"x":163956.48000000045,"y":2571375.3000000007}},{"attributes":{"ID":277198,"DIS_CODE":0,"TOWNNAME":"歸仁區","LI":"大潭里","LIN":"1鄰","STREET":"中正南路","SECT":"三段","MAREA":" ","LANE":"９５巷","ALLEY":" ","HOUSE_NO":"２５號","E_COORD97":175363.60999999999,"N_COORD97":2535029.2799999998,"ADDRESS":"中正南路三段９５巷２５號","OBJECTID":277193},"geometry":{"x":175363.61000000127,"y":2535029.2799999993}},{"attributes":{"ID":277199,"DIS_CODE":0,"TOWNNAME":"永康區","LI":"勝利里","LIN":"17鄰","STREET":"中華一路","SECT":" ","MAREA":" ","LANE":" ","ALLEY":" ","HOUSE_NO":"３１２號","E_COORD97":171239.19,"N_COORD97":2544997.75,"ADDRESS":"中華一路３１２號","OBJECTID":277194},"geometry":{"x":171239.19000000134,"y":2544997.75}},{"attributes":{"ID":277200,"DIS_CODE":0,"TOWNNAME":"學甲區","LI":"中洲里","LIN":"3鄰","STREET":" ","SECT":" ","MAREA":"中洲","LANE":" ","ALLEY":" ","HOUSE_NO":"３５號之１０","E_COORD97":163929.95999999999,"N_COORD97":2571367.96,"ADDRESS":"中洲３５號之１０","OBJECTID":277195},"geometry":{"x":163929.96000000089,"y":2571367.9600000009}},{"attributes":{"ID":277201,"DIS_CODE":0,"TOWNNAME":"學甲區","LI":"中洲里","LIN":"3鄰","STREET":" ","SECT":" ","MAREA":"中洲","LANE":" ","ALLEY":" ","HOUSE_NO":"３５號之１１","E_COORD97":163933.85000000001,"N_COORD97":2571368.0600000001,"ADDRESS":"中洲３５號之１１","OBJECTID":277196},"geometry":{"x":163933.85000000056,"y":2571368.0600000042}},{"attributes":{"ID":277202,"DIS_CODE":0,"TOWNNAME":"學甲區","LI":"中洲里","LIN":"3鄰","STREET":" ","SECT":" ","MAREA":"中洲","LANE":" ","ALLEY":" ","HOUSE_NO":"３５號之１２","E_COORD97":163938.59,"N_COORD97":2571368.2999999998,"ADDRESS":"中洲３５號之１２","OBJECTID":277197},"geometry":{"x":163938.58999999985,"y":2571368.3000000007}},{"attributes":{"ID":277203,"DIS_CODE":0,"TOWNNAME":"學甲區","LI":"中洲里","LIN":"3鄰","STREET":" ","SECT":" ","MAREA":"中洲","LANE":" ","ALLEY":" ","HOUSE_NO":"３５號之１３","E_COORD97":163942.48999999999,"N_COORD97":2571368.4900000002,"ADDRESS":"中洲３５號之１３","OBJECTID":277198},"geometry":{"x":163942.49000000115,"y":2571368.4900000021}},{"attributes":{"ID":277204,"DIS_CODE":0,"TOWNNAME":"學甲區","LI":"中洲里","LIN":"3鄰","STREET":" ","SECT":" ","MAREA":"中洲","LANE":" ","ALLEY":" ","HOUSE_NO":"３５號之１４","E_COORD97":163946.45999999999,"N_COORD97":2571368.46,"ADDRESS":"中洲３５號之１４","OBJECTID":277199},"geometry":{"x":163946.45999999996,"y":2571368.4600000009}},{"attributes":{"ID":277205,"DIS_CODE":0,"TOWNNAME":"學甲區","LI":"中洲里","LIN":"3鄰","STREET":" ","SECT":" ","MAREA":"中洲","LANE":" ","ALLEY":" ","HOUSE_NO":"３５號之１","E_COORD97":163923.79999999999,"N_COORD97":2571404.3399999999,"ADDRESS":"中洲３５號之１","OBJECTID":277200},"geometry":{"x":163923.79999999981,"y":2571404.3399999999}}]}