{"displayFieldName":"TOWNNAME","fieldAliases":{"ID":"ID","DIS_CODE":"DIS_CODE","TOWNNAME":"TOWNNAME","LI":"LI","LIN":"LIN","STREET":"STREET","SECT":"SECT","MAREA":"MAREA","LANE":"LANE","ALLEY":"ALLEY","HOUSE_NO":"HOUSE_NO","E_COORD97":"E_COORD97","N_COORD97":"N_COORD97","ADDRESS":"ADDRESS","OBJECTID":"OBJECTID"},"geometryType":"esriGeometryPoint","spatialReference":{"wkid":102443,"latestWkid":3826},"fields":[{"name":"ID","type":"esriFieldTypeDouble","alias":"ID"},{"name":"DIS_CODE","type":"esriFieldTypeInteger","alias":"DIS_CODE"},{"name":"TOWNNAME","type":"esriFieldTypeString","alias":"TOWNNAME","length":8},{"name":"LI","type":"esriFieldTypeString","alias":"LI","length":8},{"name":"LIN","type":"esriFieldTypeString","alias":"LIN","length":12},{"name":"STREET","type":"esriFieldTypeString","alias":"STREET","length":20},{"name":"SECT","type":"esriFieldTypeString","alias":"SECT","length":8},{"name":"MAREA","type":"esriFieldTypeString","alias":"MAREA","length":12},{"name":"LANE","type":"esriFieldTypeString","alias":"LANE","length":10},{"name":"ALLEY","type":"esriFieldTypeString","alias":"ALLEY","length":10},{"name":"HOUSE_NO","type":"esriFieldTypeString","alias":"HOUSE_NO","length":20},{"name":"E_COORD97","type":"esriFieldTypeDouble","alias":"E_COORD97"},{"name":"N_COORD97","type":"esriFieldTypeDouble","alias":"N_COORD97"},{"name":"ADDRESS","type":"esriFieldTypeString","alias":"ADDRESS","length":50},{"name":"OBJECTID","type":"esriFieldTypeOID","alias":"OBJECTID"}],"features":[{"attributes":{"ID":304609,"DIS_CODE":0,"TOWNNAME":"仁德區","LI":"仁義里","LIN":"17鄰","STREET":"義林九街","SECT":" ","MAREA":" ","LANE":" ","ALLEY":" ","HOUSE_NO":"８１號","E_COORD97":174209.89000000001,"N_COORD97":2541334.27,"ADDRESS":"義林九街８１號","OBJECTID":304601},"geometry":{"x":174209.8900000006,"y":2541334.2700000014}},{"attributes":{"ID":304610,"DIS_CODE":0,"TOWNNAME":"仁德區","LI":"仁義里","LIN":"17鄰","STREET":"義林十一街","SECT":" ","MAREA":" ","LANE":" ","ALLEY":" ","HOUSE_NO":"３９號","E_COORD97":174294.07000000001,"N_COORD97":2541432.0099999998,"ADDRESS":"義林十一街３９號","OBJECTID":304602},"geometry":{"x":174294.07000000123,"y":2541432.0099999998}},{"attributes":{"ID":304611,"DIS_CODE":0,"TOWNNAME":"仁德區","LI":"新田里","LIN":"18鄰","STREET":"德糖路","SECT":" ","MAREA":" ","LANE":" ","ALLEY":" ","HOUSE_NO":"３３３號","E_COORD97":173603.37,"N_COORD97":2539163.0699999998,"ADDRESS":"德糖路３３３號","OBJECTID":304603},"geometry":{"x":173603.37000000197,"y":2539163.0700000022}},{"attributes":{"ID":304612,"DIS_CODE":0,"TOWNNAME":"仁德區","LI":"成功里","LIN":"20鄰","STREET":"成功一街","SECT":" ","MAREA":" ","LANE":"１３１巷","ALLEY":" ","HOUSE_NO":"１０號","E_COORD97":170560.78773700001,"N_COORD97":2539871.9915100001,"ADDRESS":"成功一街１３１巷１０號","OBJECTID":304604},"geometry":{"x":170560.78773700073,"y":2539871.9915100001}},{"attributes":{"ID":304613,"DIS_CODE":0,"TOWNNAME":"新營區","LI":"南紙里","LIN":"8鄰","STREET":"太子路","SECT":" ","MAREA":" ","LANE":"１３９巷","ALLEY":" ","HOUSE_NO":"７２號","E_COORD97":177994.66,"N_COORD97":2577646.5299999998,"ADDRESS":"太子路１３９巷７２號","OBJECTID":304605},"geometry":{"x":177994.66000000015,"y":2577646.5300000012}},{"attributes":{"ID":304614,"DIS_CODE":0,"TOWNNAME":"新營區","LI":"南紙里","LIN":"8鄰","STREET":"太子路","SECT":" ","MAREA":" ","LANE":"１３９巷","ALLEY":" ","HOUSE_NO":"７８號","E_COORD97":177993.57999999999,"N_COORD97":2577634.3500000001,"ADDRESS":"太子路１３９巷７８號","OBJECTID":304606},"geometry":{"x":177993.58000000007,"y":2577634.3500000015}},{"attributes":{"ID":304615,"DIS_CODE":0,"TOWNNAME":"新營區","LI":"民權里","LIN":"8鄰","STREET":"博愛街","SECT":" ","MAREA":" ","LANE":"７５巷","ALLEY":" ","HOUSE_NO":"１５號","E_COORD97":179857.39000000001,"N_COORD97":2578083.8900000001,"ADDRESS":"博愛街７５巷１５號","OBJECTID":304607},"geometry":{"x":179857.38999999966,"y":2578083.8900000006}},{"attributes":{"ID":304616,"DIS_CODE":0,"TOWNNAME":"新營區","LI":"民權里","LIN":"8鄰","STREET":"博愛街","SECT":" ","MAREA":" ","LANE":"７５巷","ALLEY":" ","HOUSE_NO":"１４號","E_COORD97":179849.23000000001,"N_COORD97":2578088.3599999999,"ADDRESS":"博愛街７５巷１４號","OBJECTID":304608},"geometry":{"x":179849.23000000045,"y":2578088.3600000013}},{"attributes":{"ID":304617,"DIS_CODE":0,"TOWNNAME":"新營區","LI":"民權里","LIN":"8鄰","STREET":"博愛街","SECT":" ","MAREA":" ","LANE":"７５巷","ALLEY":" ","HOUSE_NO":"１號","E_COORD97":179843.01000000001,"N_COORD97":2578118.29,"ADDRESS":"博愛街７５巷１號","OBJECTID":304609},"geometry":{"x":179843.00999999978,"y":2578118.2900000028}},{"attributes":{"ID":304618,"DIS_CODE":0,"TOWNNAME":"新營區","LI":"興業里","LIN":"8鄰","STREET":"公誠街","SECT":" ","MAREA":" ","LANE":"９巷","ALLEY":" ","HOUSE_NO":"３之４號","E_COORD97":180312.57999999999,"N_COORD97":2578018.6800000002,"ADDRESS":"公誠街９巷３之４號","OBJECTID":304610},"geometry":{"x":180312.58000000007,"y":2578018.6800000016}},{"attributes":{"ID":304619,"DIS_CODE":0,"TOWNNAME":"歸仁區","LI":"武東里","LIN":"8鄰","STREET":"武東一街","SECT":" ","MAREA":" ","LANE":"６０巷","ALLEY":" ","HOUSE_NO":"２０號","E_COORD97":175678.79000000001,"N_COORD97":2535380.25,"ADDRESS":"武東一街６０巷２０號","OBJECTID":304611},"geometry":{"x":175678.7900000019,"y":2535380.2499999981}},{"attributes":{"ID":304620,"DIS_CODE":0,"TOWNNAME":"歸仁區","LI":"大潭里","LIN":"8鄰","STREET":"長榮路","SECT":"一段","MAREA":" ","LANE":"２００巷","ALLEY":" ","HOUSE_NO":"７號","E_COORD97":175065.26999999999,"N_COORD97":2534527.9700000002,"ADDRESS":"長榮路一段２００巷７號","OBJECTID":304612},"geometry":{"x":175065.27000000048,"y":2534527.9700000007}},{"attributes":{"ID":304621,"DIS_CODE":0,"TOWNNAME":"歸仁區","LI":"八甲里","LIN":"8鄰","STREET":"大光一街","SECT":" ","MAREA":" ","LANE":"６２巷","ALLEY":" ","HOUSE_NO":"２號","E_COORD97":177861.92000000001,"N_COORD97":2541790.6099999999,"ADDRESS":"大光一街６２巷２號","OBJECTID":304613},"geometry":{"x":177861.92000000086,"y":2541790.6099999994}},{"attributes":{"ID":304622,"DIS_CODE":0,"TOWNNAME":"歸仁區","LI":"大廟里","LIN":"8鄰","STREET":"大廟一街","SECT":" ","MAREA":" ","LANE":"８３巷","ALLEY":" ","HOUSE_NO":"２之１號","E_COORD97":175826.97,"N_COORD97":2543957.2999999998,"ADDRESS":"大廟一街８３巷２之１號","OBJECTID":304614},"geometry":{"x":175826.97000000067,"y":2543957.3000000007}},{"attributes":{"ID":304623,"DIS_CODE":0,"TOWNNAME":"歸仁區","LI":"歸南里","LIN":"8鄰","STREET":"中正十六街","SECT":" ","MAREA":" ","LANE":"１巷","ALLEY":" ","HOUSE_NO":"３號","E_COORD97":176530.95999999999,"N_COORD97":2539833.9500000002,"ADDRESS":"中正十六街１巷３號","OBJECTID":304615},"geometry":{"x":176530.96000000089,"y":2539833.9500000011}},{"attributes":{"ID":304624,"DIS_CODE":0,"TOWNNAME":"歸仁區","LI":"看東里","LIN":"8鄰","STREET":"成功路","SECT":"一段","MAREA":" ","LANE":"１０１巷","ALLEY":" ","HOUSE_NO":"９８號","E_COORD97":178677.28,"N_COORD97":2539968.25,"ADDRESS":"成功路一段１０１巷９８號","OBJECTID":304616},"geometry":{"x":178677.28000000026,"y":2539968.2500000019}},{"attributes":{"ID":304625,"DIS_CODE":0,"TOWNNAME":"仁德區","LI":"仁義里","LIN":"17鄰","STREET":"義林九街","SECT":" ","MAREA":" ","LANE":" ","ALLEY":" ","HOUSE_NO":"６７號","E_COORD97":174241.97,"N_COORD97":2541317.7599999998,"ADDRESS":"義林九街６７號","OBJECTID":304617},"geometry":{"x":174241.97000000067,"y":2541317.7600000016}},{"attributes":{"ID":304626,"DIS_CODE":0,"TOWNNAME":"仁德區","LI":"仁義里","LIN":"17鄰","STREET":"中山路","SECT":" ","MAREA":" ","LANE":" ","ALLEY":" ","HOUSE_NO":"２２２號","E_COORD97":174295.37,"N_COORD97":2541219.2400000002,"ADDRESS":"中山路２２２號","OBJECTID":304618},"geometry":{"x":174295.37000000104,"y":2541219.2400000039}},{"attributes":{"ID":304627,"DIS_CODE":0,"TOWNNAME":"仁德區","LI":"仁義里","LIN":"17鄰","STREET":"義林九街","SECT":" ","MAREA":" ","LANE":" ","ALLEY":" ","HOUSE_NO":"７９號","E_COORD97":174219.5,"N_COORD97":2541316.7599999998,"ADDRESS":"義林九街７９號","OBJECTID":304619},"geometry":{"x":174219.50000000093,"y":2541316.7600000035}},{"attributes":{"ID":304628,"DIS_CODE":0,"TOWNNAME":"永康區","LI":"西勢里","LIN":"31鄰","STREET":"富強路","SECT":"一段","MAREA":" ","LANE":"９３巷","ALLEY":" ","HOUSE_NO":"３５號","E_COORD97":175390.75,"N_COORD97":2546251.4100000001,"ADDRESS":"富強路一段９３巷３５號","OBJECTID":304620},"geometry":{"x":175390.75000000186,"y":2546251.4100000001}},{"attributes":{"ID":304629,"DIS_CODE":0,"TOWNNAME":"新營區","LI":"鐵線里","LIN":"14鄰","STREET":" ","SECT":" ","MAREA":"秀才","LANE":" ","ALLEY":" ","HOUSE_NO":"１９號","E_COORD97":174682.70000000001,"N_COORD97":2573940.3700000001,"ADDRESS":"秀才１９號","OBJECTID":304621},"geometry":{"x":174682.70000000205,"y":2573940.3700000029}},{"attributes":{"ID":304630,"DIS_CODE":0,"TOWNNAME":"永康區","LI":"西勢里","LIN":"18鄰","STREET":"富強路","SECT":"一段","MAREA":" ","LANE":"１３巷","ALLEY":" ","HOUSE_NO":"１號","E_COORD97":175370.07999999999,"N_COORD97":2546035.9700000002,"ADDRESS":"富強路一段１３巷１號","OBJECTID":304622},"geometry":{"x":175370.08000000101,"y":2546035.9700000025}},{"attributes":{"ID":304631,"DIS_CODE":0,"TOWNNAME":"永康區","LI":"西勢里","LIN":"18鄰","STREET":"富強路","SECT":"一段","MAREA":" ","LANE":"１巷","ALLEY":" ","HOUSE_NO":"２號","E_COORD97":175358.72,"N_COORD97":2546022.8700000001,"ADDRESS":"富強路一段１巷２號","OBJECTID":304623},"geometry":{"x":175358.72000000067,"y":2546022.870000001}},{"attributes":{"ID":304632,"DIS_CODE":0,"TOWNNAME":"歸仁區","LI":"媽廟里","LIN":"8鄰","STREET":"和順路","SECT":"一段","MAREA":" ","LANE":"６２巷","ALLEY":" ","HOUSE_NO":"６號","E_COORD97":177373.67000000001,"N_COORD97":2543750.7200000002,"ADDRESS":"和順路一段６２巷６號","OBJECTID":304624},"geometry":{"x":177373.67000000086,"y":2543750.7200000007}},{"attributes":{"ID":304633,"DIS_CODE":0,"TOWNNAME":"歸仁區","LI":"崙頂里","LIN":"8鄰","STREET":"崙頂五街","SECT":" ","MAREA":" ","LANE":"８５巷","ALLEY":" ","HOUSE_NO":"３３號","E_COORD97":178008.88,"N_COORD97":2539899.25,"ADDRESS":"崙頂五街８５巷３３號","OBJECTID":304625},"geometry":{"x":178008.88000000175,"y":2539899.25}},{"attributes":{"ID":304634,"DIS_CODE":0,"TOWNNAME":"歸仁區","LI":"歸南里","LIN":"8鄰","STREET":"中正十六街","SECT":" ","MAREA":" ","LANE":"２１巷","ALLEY":" ","HOUSE_NO":"１４號","E_COORD97":176532.85999999999,"N_COORD97":2539928.9500000002,"ADDRESS":"中正十六街２１巷１４號","OBJECTID":304626},"geometry":{"x":176532.8600000022,"y":2539928.9500000011}},{"attributes":{"ID":304635,"DIS_CODE":0,"TOWNNAME":"歸仁區","LI":"看西里","LIN":"8鄰","STREET":"信義南路","SECT":" ","MAREA":" ","LANE":"１８７巷","ALLEY":" ","HOUSE_NO":"２之５號","E_COORD97":178157.16,"N_COORD97":2540209.4900000002,"ADDRESS":"信義南路１８７巷２之５號","OBJECTID":304627},"geometry":{"x":178157.16000000108,"y":2540209.4900000002}},{"attributes":{"ID":304636,"DIS_CODE":0,"TOWNNAME":"關廟區","LI":"北花里","LIN":"8鄰","STREET":"四維街","SECT":" ","MAREA":" ","LANE":"３８８巷","ALLEY":" ","HOUSE_NO":"６號","E_COORD97":181899.85999999999,"N_COORD97":2540304.25,"ADDRESS":"四維街３８８巷６號","OBJECTID":304628},"geometry":{"x":181899.8600000022,"y":2540304.2500000019}},{"attributes":{"ID":304637,"DIS_CODE":0,"TOWNNAME":"關廟區","LI":"東勢里","LIN":"8鄰","STREET":"松安街","SECT":" ","MAREA":" ","LANE":"６３巷","ALLEY":" ","HOUSE_NO":"１０號","E_COORD97":181993.17000000001,"N_COORD97":2539586.3199999998,"ADDRESS":"松安街６３巷１０號","OBJECTID":304629},"geometry":{"x":181993.16999999993,"y":2539586.3200000003}},{"attributes":{"ID":304638,"DIS_CODE":0,"TOWNNAME":"關廟區","LI":"龜洞里","LIN":"8鄰","STREET":"官崙街","SECT":" ","MAREA":" ","LANE":"５６巷","ALLEY":" ","HOUSE_NO":"１７號","E_COORD97":183426.69,"N_COORD97":2533355.2999999998,"ADDRESS":"官崙街５６巷１７號","OBJECTID":304630},"geometry":{"x":183426.68999999948,"y":2533355.3000000007}},{"attributes":{"ID":304639,"DIS_CODE":0,"TOWNNAME":"關廟區","LI":"布袋里","LIN":"8鄰","STREET":"長文街","SECT":" ","MAREA":" ","LANE":"３５０巷","ALLEY":" ","HOUSE_NO":"１６號","E_COORD97":182087.29000000001,"N_COORD97":2534949.25,"ADDRESS":"長文街３５０巷１６號","OBJECTID":304631},"geometry":{"x":182087.29000000097,"y":2534949.25}},{"attributes":{"ID":304640,"DIS_CODE":0,"TOWNNAME":"關廟區","LI":"布袋里","LIN":"8鄰","STREET":"長文街","SECT":" ","MAREA":" ","LANE":"３２８巷","ALLEY":" ","HOUSE_NO":"７號","E_COORD97":182066.84,"N_COORD97":2534978.2999999998,"ADDRESS":"長文街３２８巷７號","OBJECTID":304632},"geometry":{"x":182066.83999999985,"y":2534978.3000000026}},{"attributes":{"ID":304641,"DIS_CODE":0,"TOWNNAME":"關廟區","LI":"布袋里","LIN":"8鄰","STREET":"長文街","SECT":" ","MAREA":" ","LANE":"３２６巷","ALLEY":" ","HOUSE_NO":"６９號","E_COORD97":181972.89000000001,"N_COORD97":2534881.25,"ADDRESS":"長文街３２６巷６９號","OBJECTID":304633},"geometry":{"x":181972.88999999966,"y":2534881.25}},{"attributes":{"ID":304642,"DIS_CODE":0,"TOWNNAME":"關廟區","LI":"東勢里","LIN":"8鄰","STREET":"四維街","SECT":" ","MAREA":" ","LANE":"１２巷","ALLEY":" ","HOUSE_NO":"３號","E_COORD97":181980.70999999999,"N_COORD97":2539500.25,"ADDRESS":"四維街１２巷３號","OBJECTID":304634},"geometry":{"x":181980.71000000089,"y":2539500.2500000019}},{"attributes":{"ID":304643,"DIS_CODE":0,"TOWNNAME":"關廟區","LI":"布袋里","LIN":"8鄰","STREET":"長文街","SECT":" ","MAREA":" ","LANE":"３２６巷","ALLEY":" ","HOUSE_NO":"３５號","E_COORD97":181992.73999999999,"N_COORD97":2534999.25,"ADDRESS":"長文街３２６巷３５號","OBJECTID":304635},"geometry":{"x":181992.74000000115,"y":2534999.25}},{"attributes":{"ID":304644,"DIS_CODE":0,"TOWNNAME":"關廟區","LI":"田中里","LIN":"8鄰","STREET":"南雄南路","SECT":" ","MAREA":" ","LANE":"６５９巷","ALLEY":" ","HOUSE_NO":"３號","E_COORD97":183477.04000000001,"N_COORD97":2533565.25,"ADDRESS":"南雄南路６５９巷３號","OBJECTID":304636},"geometry":{"x":183477.04000000097,"y":2533565.25}},{"attributes":{"ID":304645,"DIS_CODE":0,"TOWNNAME":"關廟區","LI":"東勢里","LIN":"8鄰","STREET":"四維街","SECT":" ","MAREA":" ","LANE":"１２巷","ALLEY":" ","HOUSE_NO":"１６號","E_COORD97":181996.16,"N_COORD97":2539496.25,"ADDRESS":"四維街１２巷１６號","OBJECTID":304637},"geometry":{"x":181996.16000000108,"y":2539496.2499999981}},{"attributes":{"ID":304646,"DIS_CODE":0,"TOWNNAME":"關廟區","LI":"松腳里","LIN":"8鄰","STREET":"四維街","SECT":" ","MAREA":" ","LANE":"１４５巷","ALLEY":" ","HOUSE_NO":"１號","E_COORD97":181838.35999999999,"N_COORD97":2539793.25,"ADDRESS":"四維街１４５巷１號","OBJECTID":304638},"geometry":{"x":181838.36000000034,"y":2539793.25}},{"attributes":{"ID":304647,"DIS_CODE":0,"TOWNNAME":"關廟區","LI":"新埔里","LIN":"8鄰","STREET":"新埔三街","SECT":" ","MAREA":" ","LANE":"１１９巷","ALLEY":" ","HOUSE_NO":"３號","E_COORD97":181204.12,"N_COORD97":2541129.25,"ADDRESS":"新埔三街１１９巷３號","OBJECTID":304639},"geometry":{"x":181204.12000000011,"y":2541129.25}},{"attributes":{"ID":304648,"DIS_CODE":0,"TOWNNAME":"關廟區","LI":"龜洞里","LIN":"8鄰","STREET":"官崙街","SECT":" ","MAREA":" ","LANE":"５６巷","ALLEY":" ","HOUSE_NO":"１６號","E_COORD97":183437.09,"N_COORD97":2533375.2999999998,"ADDRESS":"官崙街５６巷１６號","OBJECTID":304640},"geometry":{"x":183437.09000000171,"y":2533375.3000000026}},{"attributes":{"ID":304649,"DIS_CODE":0,"TOWNNAME":"關廟區","LI":"新埔里","LIN":"8鄰","STREET":"新埔三街","SECT":" ","MAREA":" ","LANE":"１０１巷","ALLEY":" ","HOUSE_NO":"１８號","E_COORD97":181163.87,"N_COORD97":2541144.25,"ADDRESS":"新埔三街１０１巷１８號","OBJECTID":304641},"geometry":{"x":181163.87000000197,"y":2541144.2500000037}},{"attributes":{"ID":304650,"DIS_CODE":0,"TOWNNAME":"關廟區","LI":"新埔里","LIN":"8鄰","STREET":"新埔三街","SECT":" ","MAREA":" ","LANE":"１３７巷","ALLEY":" ","HOUSE_NO":"２號","E_COORD97":181264.72,"N_COORD97":2541127.25,"ADDRESS":"新埔三街１３７巷２號","OBJECTID":304642},"geometry":{"x":181264.72000000067,"y":2541127.2500000037}},{"attributes":{"ID":304651,"DIS_CODE":0,"TOWNNAME":"關廟區","LI":"龜洞里","LIN":"8鄰","STREET":"南雄南路","SECT":" ","MAREA":" ","LANE":"７０１巷","ALLEY":" ","HOUSE_NO":"７號","E_COORD97":183395.73999999999,"N_COORD97":2533428.25,"ADDRESS":"南雄南路７０１巷７號","OBJECTID":304643},"geometry":{"x":183395.74000000209,"y":2533428.2500000019}},{"attributes":{"ID":304652,"DIS_CODE":0,"TOWNNAME":"關廟區","LI":"新埔里","LIN":"8鄰","STREET":"新埔三街","SECT":" ","MAREA":" ","LANE":"１０１巷","ALLEY":" ","HOUSE_NO":"１２號","E_COORD97":181168.47,"N_COORD97":2541135.25,"ADDRESS":"新埔三街１０１巷１２號","OBJECTID":304644},"geometry":{"x":181168.47000000067,"y":2541135.2500000019}},{"attributes":{"ID":304653,"DIS_CODE":0,"TOWNNAME":"仁德區","LI":"仁義里","LIN":"17鄰","STREET":"義林九街","SECT":" ","MAREA":" ","LANE":" ","ALLEY":" ","HOUSE_NO":"７３號","E_COORD97":174220.39000000001,"N_COORD97":2541329.27,"ADDRESS":"義林九街７３號","OBJECTID":304645},"geometry":{"x":174220.3900000006,"y":2541329.2699999996}},{"attributes":{"ID":304654,"DIS_CODE":0,"TOWNNAME":"仁德區","LI":"仁德里","LIN":"17鄰","STREET":"文華路","SECT":"三段","MAREA":" ","LANE":" ","ALLEY":" ","HOUSE_NO":"４７７號","E_COORD97":172420.45000000001,"N_COORD97":2541337.0800000001,"ADDRESS":"文華路三段４７７號","OBJECTID":304646},"geometry":{"x":172420.45000000112,"y":2541337.0800000001}},{"attributes":{"ID":304655,"DIS_CODE":0,"TOWNNAME":"仁德區","LI":"仁義里","LIN":"17鄰","STREET":"義林九街","SECT":" ","MAREA":" ","LANE":" ","ALLEY":" ","HOUSE_NO":"１號","E_COORD97":174316.89000000001,"N_COORD97":2541321.0099999998,"ADDRESS":"義林九街１號","OBJECTID":304647},"geometry":{"x":174316.8900000006,"y":2541321.0099999998}},{"attributes":{"ID":304656,"DIS_CODE":0,"TOWNNAME":"歸仁區","LI":"看西里","LIN":"2鄰","STREET":"仁愛三街","SECT":" ","MAREA":" ","LANE":" ","ALLEY":" ","HOUSE_NO":"４６號","E_COORD97":178370.720864,"N_COORD97":2540397.5060800002,"ADDRESS":"仁愛三街４６號","OBJECTID":304648},"geometry":{"x":178370.72086400073,"y":2540397.5060770009}},{"attributes":{"ID":304657,"DIS_CODE":0,"TOWNNAME":"永康區","LI":"復華里","LIN":"25鄰","STREET":"復華八街","SECT":" ","MAREA":" ","LANE":"５１巷","ALLEY":" ","HOUSE_NO":"５１號","E_COORD97":172636.01000000001,"N_COORD97":2546426.4399999999,"ADDRESS":"復華八街５１巷５１號","OBJECTID":304649},"geometry":{"x":172636.01000000071,"y":2546426.4399999995}},{"attributes":{"ID":304658,"DIS_CODE":0,"TOWNNAME":"永康區","LI":"復華里","LIN":"25鄰","STREET":"復華八街","SECT":" ","MAREA":" ","LANE":"５１巷","ALLEY":" ","HOUSE_NO":"５３號","E_COORD97":172631.97,"N_COORD97":2546426.7999999998,"ADDRESS":"復華八街５１巷５３號","OBJECTID":304650},"geometry":{"x":172631.96999999974,"y":2546426.8000000045}},{"attributes":{"ID":304659,"DIS_CODE":0,"TOWNNAME":"永康區","LI":"龍潭里","LIN":"30鄰","STREET":"龍國街","SECT":" ","MAREA":" ","LANE":"４２０巷","ALLEY":" ","HOUSE_NO":"１號","E_COORD97":174865.54000000001,"N_COORD97":2547960.0699999998,"ADDRESS":"龍國街４２０巷１號","OBJECTID":304651},"geometry":{"x":174865.54000000097,"y":2547960.0699999984}},{"attributes":{"ID":304660,"DIS_CODE":0,"TOWNNAME":"永康區","LI":"六合里","LIN":"25鄰","STREET":"中華二路","SECT":" ","MAREA":" ","LANE":"３４０巷","ALLEY":" ","HOUSE_NO":"２號","E_COORD97":171197.56,"N_COORD97":2545445.2400000002,"ADDRESS":"中華二路３４０巷２號","OBJECTID":304652},"geometry":{"x":171197.55999999866,"y":2545445.2400000002}},{"attributes":{"ID":304661,"DIS_CODE":0,"TOWNNAME":"永康區","LI":"六合里","LIN":"25鄰","STREET":"中華二路","SECT":" ","MAREA":" ","LANE":"３４０巷","ALLEY":" ","HOUSE_NO":"６號","E_COORD97":171195.72,"N_COORD97":2545454.2400000002,"ADDRESS":"中華二路３４０巷６號","OBJECTID":304653},"geometry":{"x":171195.72000000067,"y":2545454.2400000021}},{"attributes":{"ID":304662,"DIS_CODE":0,"TOWNNAME":"仁德區","LI":"仁義里","LIN":"17鄰","STREET":"義林十一街","SECT":" ","MAREA":" ","LANE":" ","ALLEY":" ","HOUSE_NO":"４１號","E_COORD97":174294.59,"N_COORD97":2541436.27,"ADDRESS":"義林十一街４１號","OBJECTID":304654},"geometry":{"x":174294.58999999985,"y":2541436.2700000014}},{"attributes":{"ID":304663,"DIS_CODE":0,"TOWNNAME":"仁德區","LI":"仁義里","LIN":"17鄰","STREET":"義林十一街","SECT":" ","MAREA":" ","LANE":" ","ALLEY":" ","HOUSE_NO":"１８號","E_COORD97":174305.28,"N_COORD97":2541378.02,"ADDRESS":"義林十一街１８號","OBJECTID":304655},"geometry":{"x":174305.28000000026,"y":2541378.0199999996}},{"attributes":{"ID":304664,"DIS_CODE":0,"TOWNNAME":"仁德區","LI":"仁義里","LIN":"17鄰","STREET":"義林九街","SECT":" ","MAREA":" ","LANE":" ","ALLEY":" ","HOUSE_NO":"６９號","E_COORD97":174241.51000000001,"N_COORD97":2541313.7599999998,"ADDRESS":"義林九街６９號","OBJECTID":304656},"geometry":{"x":174241.51000000071,"y":2541313.7600000016}},{"attributes":{"ID":304665,"DIS_CODE":0,"TOWNNAME":"仁德區","LI":"仁義里","LIN":"17鄰","STREET":"中山路","SECT":" ","MAREA":" ","LANE":" ","ALLEY":" ","HOUSE_NO":"２７２之１號","E_COORD97":174081.87,"N_COORD97":2541260.2999999998,"ADDRESS":"中山路２７２之１號","OBJECTID":304657},"geometry":{"x":174081.87000000104,"y":2541260.3000000026}},{"attributes":{"ID":304666,"DIS_CODE":0,"TOWNNAME":"仁德區","LI":"仁義里","LIN":"17鄰","STREET":"義林九街","SECT":" ","MAREA":" ","LANE":" ","ALLEY":" ","HOUSE_NO":"７６號","E_COORD97":174179.51000000001,"N_COORD97":2541365.52,"ADDRESS":"義林九街７６號","OBJECTID":304658},"geometry":{"x":174179.50999999978,"y":2541365.5200000033}},{"attributes":{"ID":304667,"DIS_CODE":0,"TOWNNAME":"歸仁區","LI":"看西里","LIN":"2鄰","STREET":"仁愛三街","SECT":" ","MAREA":" ","LANE":" ","ALLEY":" ","HOUSE_NO":"４２號","E_COORD97":178365.90088100001,"N_COORD97":2540397.5060800002,"ADDRESS":"仁愛三街４２號","OBJECTID":304659},"geometry":{"x":178365.90088099986,"y":2540397.5060770009}},{"attributes":{"ID":304668,"DIS_CODE":0,"TOWNNAME":"關廟區","LI":"新埔里","LIN":"8鄰","STREET":"新埔三街","SECT":" ","MAREA":" ","LANE":"１１９巷","ALLEY":" ","HOUSE_NO":"５號","E_COORD97":181204.12,"N_COORD97":2541133.25,"ADDRESS":"新埔三街１１９巷５號","OBJECTID":304660},"geometry":{"x":181204.12000000011,"y":2541133.25}},{"attributes":{"ID":304669,"DIS_CODE":0,"TOWNNAME":"關廟區","LI":"新埔里","LIN":"8鄰","STREET":"新埔三街","SECT":" ","MAREA":" ","LANE":"１０１巷","ALLEY":" ","HOUSE_NO":"６號","E_COORD97":181170.72,"N_COORD97":2541122.25,"ADDRESS":"新埔三街１０１巷６號","OBJECTID":304661},"geometry":{"x":181170.71999999974,"y":2541122.25}},{"attributes":{"ID":304670,"DIS_CODE":0,"TOWNNAME":"永康區","LI":"六合里","LIN":"5鄰","STREET":"六合路","SECT":" ","MAREA":" ","LANE":"８５巷","ALLEY":" ","HOUSE_NO":"４號","E_COORD97":171129.67000000001,"N_COORD97":2545781.9900000002,"ADDRESS":"六合路８５巷４號","OBJECTID":304662},"geometry":{"x":171129.67000000086,"y":2545781.9900000021}},{"attributes":{"ID":304671,"DIS_CODE":0,"TOWNNAME":"永康區","LI":"六合里","LIN":"5鄰","STREET":"六合路","SECT":" ","MAREA":" ","LANE":"８５巷","ALLEY":" ","HOUSE_NO":"８號","E_COORD97":171122.12,"N_COORD97":2545777.7400000002,"ADDRESS":"六合路８５巷８號","OBJECTID":304663},"geometry":{"x":171122.12000000104,"y":2545777.7400000002}},{"attributes":{"ID":304672,"DIS_CODE":0,"TOWNNAME":"永康區","LI":"六合里","LIN":"6鄰","STREET":"六合路","SECT":" ","MAREA":" ","LANE":"７１巷","ALLEY":" ","HOUSE_NO":"７號","E_COORD97":171134.14999999999,"N_COORD97":2545693.5,"ADDRESS":"六合路７１巷７號","OBJECTID":304664},"geometry":{"x":171134.1500000013,"y":2545693.5000000019}},{"attributes":{"ID":304673,"DIS_CODE":0,"TOWNNAME":"永康區","LI":"六合里","LIN":"6鄰","STREET":"六合路","SECT":" ","MAREA":" ","LANE":"７１巷","ALLEY":" ","HOUSE_NO":"９號","E_COORD97":171130.60999999999,"N_COORD97":2545688.25,"ADDRESS":"六合路７１巷９號","OBJECTID":304665},"geometry":{"x":171130.61000000127,"y":2545688.2500000019}},{"attributes":{"ID":304674,"DIS_CODE":0,"TOWNNAME":"永康區","LI":"六合里","LIN":"8鄰","STREET":"新興街","SECT":" ","MAREA":" ","LANE":"３４巷","ALLEY":" ","HOUSE_NO":"５２號","E_COORD97":171016.10000000001,"N_COORD97":2545641.2400000002,"ADDRESS":"新興街３４巷５２號","OBJECTID":304666},"geometry":{"x":171016.10000000149,"y":2545641.2400000021}},{"attributes":{"ID":304675,"DIS_CODE":0,"TOWNNAME":"永康區","LI":"六合里","LIN":"8鄰","STREET":"新興街","SECT":" ","MAREA":" ","LANE":"３４巷","ALLEY":" ","HOUSE_NO":"５４號","E_COORD97":171045.01000000001,"N_COORD97":2545652.9900000002,"ADDRESS":"新興街３４巷５４號","OBJECTID":304667},"geometry":{"x":171045.00999999978,"y":2545652.9900000021}},{"attributes":{"ID":304676,"DIS_CODE":0,"TOWNNAME":"永康區","LI":"六合里","LIN":"8鄰","STREET":"新興街","SECT":" ","MAREA":" ","LANE":"３４巷","ALLEY":" ","HOUSE_NO":"５６號","E_COORD97":171041.51000000001,"N_COORD97":2545641.4900000002,"ADDRESS":"新興街３４巷５６號","OBJECTID":304668},"geometry":{"x":171041.50999999978,"y":2545641.4899999984}},{"attributes":{"ID":304677,"DIS_CODE":0,"TOWNNAME":"永康區","LI":"六合里","LIN":"8鄰","STREET":"新興街","SECT":" ","MAREA":" ","LANE":"３４巷","ALLEY":" ","HOUSE_NO":"５８號","E_COORD97":171041.67000000001,"N_COORD97":2545637.9900000002,"ADDRESS":"新興街３４巷５８號","OBJECTID":304669},"geometry":{"x":171041.67000000086,"y":2545637.9900000002}},{"attributes":{"ID":304678,"DIS_CODE":0,"TOWNNAME":"龍崎區","LI":"楠坑里","LIN":"8鄰","STREET":" ","SECT":" ","MAREA":"楠坑","LANE":" ","ALLEY":" ","HOUSE_NO":"２７號","E_COORD97":184361.09,"N_COORD97":2534922.2799999998,"ADDRESS":"楠坑２７號","OBJECTID":304670},"geometry":{"x":184361.09000000078,"y":2534922.2800000012}},{"attributes":{"ID":304679,"DIS_CODE":0,"TOWNNAME":"永康區","LI":"六合里","LIN":"8鄰","STREET":"新興街","SECT":" ","MAREA":" ","LANE":"３４巷","ALLEY":" ","HOUSE_NO":"６２號","E_COORD97":171052.12,"N_COORD97":2545613,"ADDRESS":"新興街３４巷６２號","OBJECTID":304671},"geometry":{"x":171052.12000000197,"y":2545613}},{"attributes":{"ID":304680,"DIS_CODE":0,"TOWNNAME":"永康區","LI":"六合里","LIN":"8鄰","STREET":"新興街","SECT":" ","MAREA":" ","LANE":"３４巷","ALLEY":" ","HOUSE_NO":"６４號","E_COORD97":171052.75,"N_COORD97":2545607.5,"ADDRESS":"新興街３４巷６４號","OBJECTID":304672},"geometry":{"x":171052.75000000186,"y":2545607.5000000037}},{"attributes":{"ID":304681,"DIS_CODE":0,"TOWNNAME":"永康區","LI":"六合里","LIN":"4鄰","STREET":"新興街","SECT":" ","MAREA":" ","LANE":"３７巷","ALLEY":" ","HOUSE_NO":"１０號","E_COORD97":171011.69,"N_COORD97":2545804.8999999999,"ADDRESS":"新興街３７巷１０號","OBJECTID":304673},"geometry":{"x":171011.69000000134,"y":2545804.9000000004}},{"attributes":{"ID":304682,"DIS_CODE":0,"TOWNNAME":"永康區","LI":"六合里","LIN":"4鄰","STREET":"新興街","SECT":" ","MAREA":" ","LANE":"３７巷","ALLEY":" ","HOUSE_NO":"１１號","E_COORD97":171000.57999999999,"N_COORD97":2545810.5299999998,"ADDRESS":"新興街３７巷１１號","OBJECTID":304674},"geometry":{"x":171000.58000000007,"y":2545810.5300000012}},{"attributes":{"ID":304683,"DIS_CODE":0,"TOWNNAME":"關廟區","LI":"龜洞里","LIN":"8鄰","STREET":"官崙街","SECT":" ","MAREA":" ","LANE":"５６巷","ALLEY":" ","HOUSE_NO":"５號","E_COORD97":183450.48999999999,"N_COORD97":2533366.2999999998,"ADDRESS":"官崙街５６巷５號","OBJECTID":304675},"geometry":{"x":183450.49000000115,"y":2533366.3000000007}},{"attributes":{"ID":304684,"DIS_CODE":0,"TOWNNAME":"關廟區","LI":"龜洞里","LIN":"8鄰","STREET":"官崙街","SECT":" ","MAREA":" ","LANE":"５６巷","ALLEY":" ","HOUSE_NO":"１８號","E_COORD97":183432.89000000001,"N_COORD97":2533373.2999999998,"ADDRESS":"官崙街５６巷１８號","OBJECTID":304676},"geometry":{"x":183432.88999999966,"y":2533373.3000000007}},{"attributes":{"ID":304685,"DIS_CODE":0,"TOWNNAME":"關廟區","LI":"新埔里","LIN":"8鄰","STREET":"新埔三街","SECT":" ","MAREA":" ","LANE":"１０１巷","ALLEY":" ","HOUSE_NO":"１６號","E_COORD97":181164.26999999999,"N_COORD97":2541140.25,"ADDRESS":"新埔三街１０１巷１６號","OBJECTID":304677},"geometry":{"x":181164.27000000048,"y":2541140.25}},{"attributes":{"ID":304686,"DIS_CODE":0,"TOWNNAME":"關廟區","LI":"龜洞里","LIN":"8鄰","STREET":"官崙街","SECT":" ","MAREA":" ","LANE":"５６巷","ALLEY":" ","HOUSE_NO":"３號","E_COORD97":183454.39000000001,"N_COORD97":2533368.2999999998,"ADDRESS":"官崙街５６巷３號","OBJECTID":304678},"geometry":{"x":183454.38999999966,"y":2533368.3000000026}},{"attributes":{"ID":304687,"DIS_CODE":0,"TOWNNAME":"關廟區","LI":"新埔里","LIN":"8鄰","STREET":"新埔三街","SECT":" ","MAREA":" ","LANE":"１１９巷","ALLEY":" ","HOUSE_NO":"８號","E_COORD97":181213.72,"N_COORD97":2541137.25,"ADDRESS":"新埔三街１１９巷８號","OBJECTID":304679},"geometry":{"x":181213.7200000016,"y":2541137.2500000037}},{"attributes":{"ID":304688,"DIS_CODE":0,"TOWNNAME":"仁德區","LI":"仁義里","LIN":"17鄰","STREET":"義林九街","SECT":" ","MAREA":" ","LANE":" ","ALLEY":" ","HOUSE_NO":"９號","E_COORD97":174295.28,"N_COORD97":2541323.7599999998,"ADDRESS":"義林九街９號","OBJECTID":304680},"geometry":{"x":174295.28000000026,"y":2541323.7600000035}},{"attributes":{"ID":304689,"DIS_CODE":0,"TOWNNAME":"仁德區","LI":"仁義里","LIN":"17鄰","STREET":"義林九街","SECT":" ","MAREA":" ","LANE":" ","ALLEY":" ","HOUSE_NO":"８２號","E_COORD97":174166.98000000001,"N_COORD97":2541361.52,"ADDRESS":"義林九街８２號","OBJECTID":304681},"geometry":{"x":174166.98000000045,"y":2541361.5199999996}},{"attributes":{"ID":304690,"DIS_CODE":0,"TOWNNAME":"仁德區","LI":"仁義里","LIN":"17鄰","STREET":"義林九街","SECT":" ","MAREA":" ","LANE":" ","ALLEY":" ","HOUSE_NO":"６１號","E_COORD97":174243.56,"N_COORD97":2541330.02,"ADDRESS":"義林九街６１號","OBJECTID":304682},"geometry":{"x":174243.55999999959,"y":2541330.0199999996}},{"attributes":{"ID":304691,"DIS_CODE":0,"TOWNNAME":"仁德區","LI":"仁義里","LIN":"17鄰","STREET":"義林九街","SECT":" ","MAREA":" ","LANE":" ","ALLEY":" ","HOUSE_NO":"１０１號","E_COORD97":174172.85999999999,"N_COORD97":2541338.52,"ADDRESS":"義林九街１０１號","OBJECTID":304683},"geometry":{"x":174172.86000000034,"y":2541338.5200000033}},{"attributes":{"ID":304692,"DIS_CODE":0,"TOWNNAME":"仁德區","LI":"仁德里","LIN":"17鄰","STREET":"文華路","SECT":"三段","MAREA":" ","LANE":" ","ALLEY":" ","HOUSE_NO":"４７９號","E_COORD97":172418.48000000001,"N_COORD97":2541340.8300000001,"ADDRESS":"文華路三段４７９號","OBJECTID":304684},"geometry":{"x":172418.48000000138,"y":2541340.8300000019}},{"attributes":{"ID":304693,"DIS_CODE":0,"TOWNNAME":"仁德區","LI":"仁義里","LIN":"17鄰","STREET":"中山路","SECT":" ","MAREA":" ","LANE":" ","ALLEY":" ","HOUSE_NO":"２８０號","E_COORD97":174054.44,"N_COORD97":2541249.25,"ADDRESS":"中山路２８０號","OBJECTID":304685},"geometry":{"x":174054.44000000134,"y":2541249.2500000037}},{"attributes":{"ID":304694,"DIS_CODE":0,"TOWNNAME":"仁德區","LI":"仁義里","LIN":"17鄰","STREET":"中山路","SECT":" ","MAREA":" ","LANE":" ","ALLEY":" ","HOUSE_NO":"２５４號","E_COORD97":174164.23999999999,"N_COORD97":2541239.5,"ADDRESS":"中山路２５４號","OBJECTID":304686},"geometry":{"x":174164.24000000115,"y":2541239.5}},{"attributes":{"ID":304695,"DIS_CODE":0,"TOWNNAME":"仁德區","LI":"仁義里","LIN":"17鄰","STREET":"義林九街","SECT":" ","MAREA":" ","LANE":" ","ALLEY":" ","HOUSE_NO":"６６號","E_COORD97":174195.10999999999,"N_COORD97":2541363.27,"ADDRESS":"義林九街６６號","OBJECTID":304687},"geometry":{"x":174195.1099999994,"y":2541363.2699999996}},{"attributes":{"ID":304696,"DIS_CODE":0,"TOWNNAME":"仁德區","LI":"仁義里","LIN":"17鄰","STREET":"義林九街","SECT":" ","MAREA":" ","LANE":" ","ALLEY":" ","HOUSE_NO":"６５號","E_COORD97":174242.45999999999,"N_COORD97":2541321.7599999998,"ADDRESS":"義林九街６５號","OBJECTID":304688},"geometry":{"x":174242.46000000089,"y":2541321.7600000016}},{"attributes":{"ID":304697,"DIS_CODE":0,"TOWNNAME":"仁德區","LI":"仁義里","LIN":"17鄰","STREET":"義林九街","SECT":" ","MAREA":" ","LANE":" ","ALLEY":" ","HOUSE_NO":"８３號","E_COORD97":174203.97,"N_COORD97":2541335.27,"ADDRESS":"義林九街８３號","OBJECTID":304689},"geometry":{"x":174203.9700000016,"y":2541335.2699999996}},{"attributes":{"ID":304698,"DIS_CODE":0,"TOWNNAME":"仁德區","LI":"仁義里","LIN":"17鄰","STREET":"義林十二街","SECT":" ","MAREA":" ","LANE":" ","ALLEY":" ","HOUSE_NO":"１６６號","E_COORD97":174256.04999999999,"N_COORD97":2541480.02,"ADDRESS":"義林十二街１６６號","OBJECTID":304690},"geometry":{"x":174256.05000000168,"y":2541480.0199999996}},{"attributes":{"ID":304699,"DIS_CODE":0,"TOWNNAME":"仁德區","LI":"仁德里","LIN":"17鄰","STREET":"文華路","SECT":"三段","MAREA":" ","LANE":" ","ALLEY":" ","HOUSE_NO":"４５７號","E_COORD97":172408.04000000001,"N_COORD97":2541276.8199999998,"ADDRESS":"文華路三段４５７號","OBJECTID":304691},"geometry":{"x":172408.04000000004,"y":2541276.8200000022}},{"attributes":{"ID":304700,"DIS_CODE":0,"TOWNNAME":"仁德區","LI":"太子里","LIN":"17鄰","STREET":"太興路","SECT":" ","MAREA":" ","LANE":" ","ALLEY":" ","HOUSE_NO":"１２３號","E_COORD97":174081.89999999999,"N_COORD97":2543581.2400000002,"ADDRESS":"太興路１２３號","OBJECTID":304692},"geometry":{"x":174081.9000000013,"y":2543581.2400000002}},{"attributes":{"ID":304701,"DIS_CODE":0,"TOWNNAME":"將軍區","LI":"長榮里","LIN":"13鄰","STREET":" ","SECT":" ","MAREA":"長榮","LANE":" ","ALLEY":" ","HOUSE_NO":"２１５號","E_COORD97":163806.26999999999,"N_COORD97":2566084.4500000002,"ADDRESS":"長榮２１５號","OBJECTID":304693},"geometry":{"x":163806.26999999955,"y":2566084.4499999993}},{"attributes":{"ID":304702,"DIS_CODE":0,"TOWNNAME":"將軍區","LI":"長榮里","LIN":"4鄰","STREET":" ","SECT":" ","MAREA":"長榮","LANE":" ","ALLEY":" ","HOUSE_NO":"４６號","E_COORD97":163987.51000000001,"N_COORD97":2566414.25,"ADDRESS":"長榮４６號","OBJECTID":304694},"geometry":{"x":163987.51000000071,"y":2566414.2500000019}},{"attributes":{"ID":304703,"DIS_CODE":0,"TOWNNAME":"將軍區","LI":"長榮里","LIN":"4鄰","STREET":" ","SECT":" ","MAREA":"長榮","LANE":" ","ALLEY":" ","HOUSE_NO":"４７號","E_COORD97":163985.56,"N_COORD97":2566388.29,"ADDRESS":"長榮４７號","OBJECTID":304695},"geometry":{"x":163985.55999999959,"y":2566388.290000001}},{"attributes":{"ID":304704,"DIS_CODE":0,"TOWNNAME":"將軍區","LI":"長榮里","LIN":"4鄰","STREET":" ","SECT":" ","MAREA":"長榮","LANE":" ","ALLEY":" ","HOUSE_NO":"４８之１號","E_COORD97":163984.04000000001,"N_COORD97":2566338.8500000001,"ADDRESS":"長榮４８之１號","OBJECTID":304696},"geometry":{"x":163984.04000000097,"y":2566338.8499999996}},{"attributes":{"ID":304705,"DIS_CODE":0,"TOWNNAME":"將軍區","LI":"長榮里","LIN":"4鄰","STREET":" ","SECT":" ","MAREA":"長榮","LANE":" ","ALLEY":" ","HOUSE_NO":"４８之２號","E_COORD97":163989.39000000001,"N_COORD97":2566339.46,"ADDRESS":"長榮４８之２號","OBJECTID":304697},"geometry":{"x":163989.39000000153,"y":2566339.4600000009}},{"attributes":{"ID":304706,"DIS_CODE":0,"TOWNNAME":"將軍區","LI":"長榮里","LIN":"4鄰","STREET":" ","SECT":" ","MAREA":"長榮","LANE":" ","ALLEY":" ","HOUSE_NO":"４８號","E_COORD97":163979.20000000001,"N_COORD97":2566337.48,"ADDRESS":"長榮４８號","OBJECTID":304698},"geometry":{"x":163979.20000000205,"y":2566337.4800000023}},{"attributes":{"ID":304707,"DIS_CODE":0,"TOWNNAME":"歸仁區","LI":"媽廟里","LIN":"9鄰","STREET":"和順路","SECT":"一段","MAREA":" ","LANE":" ","ALLEY":" ","HOUSE_NO":"２９２號","E_COORD97":176795.68739199999,"N_COORD97":2543705.3688599998,"ADDRESS":"和順路一段２９２號","OBJECTID":304699},"geometry":{"x":176795.68739200011,"y":2543705.3688620012}},{"attributes":{"ID":304708,"DIS_CODE":0,"TOWNNAME":"永康區","LI":"六合里","LIN":"4鄰","STREET":"新興街","SECT":" ","MAREA":" ","LANE":"７７巷","ALLEY":" ","HOUSE_NO":"１０號","E_COORD97":171063.06,"N_COORD97":2545797.6400000001,"ADDRESS":"新興街７７巷１０號","OBJECTID":304700},"geometry":{"x":171063.05999999959,"y":2545797.6400000025}},{"attributes":{"ID":304709,"DIS_CODE":0,"TOWNNAME":"永康區","LI":"六合里","LIN":"4鄰","STREET":"新興街","SECT":" ","MAREA":" ","LANE":"７７巷","ALLEY":" ","HOUSE_NO":"１１號","E_COORD97":171065.76000000001,"N_COORD97":2545814.0899999999,"ADDRESS":"新興街７７巷１１號","OBJECTID":304701},"geometry":{"x":171065.75999999978,"y":2545814.0900000017}},{"attributes":{"ID":304710,"DIS_CODE":0,"TOWNNAME":"將軍區","LI":"長榮里","LIN":"4鄰","STREET":" ","SECT":" ","MAREA":"長榮","LANE":" ","ALLEY":" ","HOUSE_NO":"４９號","E_COORD97":164003.73000000001,"N_COORD97":2566381.2400000002,"ADDRESS":"長榮４９號","OBJECTID":304702},"geometry":{"x":164003.73000000138,"y":2566381.2400000002}},{"attributes":{"ID":304711,"DIS_CODE":0,"TOWNNAME":"將軍區","LI":"長榮里","LIN":"4鄰","STREET":" ","SECT":" ","MAREA":"長榮","LANE":" ","ALLEY":" ","HOUSE_NO":"５０號","E_COORD97":164007.64999999999,"N_COORD97":2566405.9300000002,"ADDRESS":"長榮５０號","OBJECTID":304703},"geometry":{"x":164007.6500000013,"y":2566405.9300000016}},{"attributes":{"ID":304712,"DIS_CODE":0,"TOWNNAME":"將軍區","LI":"長榮里","LIN":"4鄰","STREET":" ","SECT":" ","MAREA":"長榮","LANE":" ","ALLEY":" ","HOUSE_NO":"５１之４號","E_COORD97":164032.95999999999,"N_COORD97":2566321.46,"ADDRESS":"長榮５１之４號","OBJECTID":304704},"geometry":{"x":164032.95999999996,"y":2566321.4600000028}},{"attributes":{"ID":304713,"DIS_CODE":0,"TOWNNAME":"將軍區","LI":"長榮里","LIN":"4鄰","STREET":" ","SECT":" ","MAREA":"長榮","LANE":" ","ALLEY":" ","HOUSE_NO":"５１號","E_COORD97":164033.75,"N_COORD97":2566361.52,"ADDRESS":"長榮５１號","OBJECTID":304705},"geometry":{"x":164033.75000000093,"y":2566361.5199999996}},{"attributes":{"ID":304714,"DIS_CODE":0,"TOWNNAME":"將軍區","LI":"長榮里","LIN":"1鄰","STREET":" ","SECT":" ","MAREA":"長榮","LANE":" ","ALLEY":" ","HOUSE_NO":"５號","E_COORD97":163870.72,"N_COORD97":2566479.5800000001,"ADDRESS":"長榮５號","OBJECTID":304706},"geometry":{"x":163870.72000000067,"y":2566479.5800000019}},{"attributes":{"ID":304715,"DIS_CODE":0,"TOWNNAME":"關廟區","LI":"龜洞里","LIN":"8鄰","STREET":"官崙街","SECT":" ","MAREA":" ","LANE":"５６巷","ALLEY":" ","HOUSE_NO":"２６號","E_COORD97":183420.98999999999,"N_COORD97":2533368.2999999998,"ADDRESS":"官崙街５６巷２６號","OBJECTID":304707},"geometry":{"x":183420.99000000022,"y":2533368.3000000026}},{"attributes":{"ID":304716,"DIS_CODE":0,"TOWNNAME":"關廟區","LI":"南花里","LIN":"8鄰","STREET":"四維街","SECT":" ","MAREA":" ","LANE":"２３１巷","ALLEY":" ","HOUSE_NO":"２６號","E_COORD97":181799.31,"N_COORD97":2540231.25,"ADDRESS":"四維街２３１巷２６號","OBJECTID":304708},"geometry":{"x":181799.30999999866,"y":2540231.25}},{"attributes":{"ID":304717,"DIS_CODE":0,"TOWNNAME":"仁德區","LI":"仁德里","LIN":"17鄰","STREET":"文華路","SECT":"三段","MAREA":" ","LANE":" ","ALLEY":" ","HOUSE_NO":"４３３號","E_COORD97":172396.67000000001,"N_COORD97":2541227.3300000001,"ADDRESS":"文華路三段４３３號","OBJECTID":304709},"geometry":{"x":172396.66999999993,"y":2541227.3300000001}},{"attributes":{"ID":304718,"DIS_CODE":0,"TOWNNAME":"仁德區","LI":"太子里","LIN":"17鄰","STREET":"長興路","SECT":" ","MAREA":" ","LANE":" ","ALLEY":" ","HOUSE_NO":"１號","E_COORD97":174109.06,"N_COORD97":2543527.5099999998,"ADDRESS":"長興路１號","OBJECTID":304710},"geometry":{"x":174109.06000000052,"y":2543527.5099999998}},{"attributes":{"ID":304719,"DIS_CODE":0,"TOWNNAME":"仁德區","LI":"太子里","LIN":"17鄰","STREET":"太子路","SECT":" ","MAREA":" ","LANE":" ","ALLEY":" ","HOUSE_NO":"２６４號","E_COORD97":174104,"N_COORD97":2543517.5099999998,"ADDRESS":"太子路２６４號","OBJECTID":304711},"geometry":{"x":174103.99999999907,"y":2543517.5099999998}},{"attributes":{"ID":304720,"DIS_CODE":0,"TOWNNAME":"仁德區","LI":"仁愛里","LIN":"4鄰","STREET":" ","SECT":" ","MAREA":"仁愛","LANE":" ","ALLEY":" ","HOUSE_NO":"７７號","E_COORD97":170345.06849999999,"N_COORD97":2539938.8804199998,"ADDRESS":"仁愛７７號","OBJECTID":304712},"geometry":{"x":170345.06850000005,"y":2539938.880419001}},{"attributes":{"ID":304721,"DIS_CODE":0,"TOWNNAME":"將軍區","LI":"鯤鯓里","LIN":"14鄰","STREET":" ","SECT":" ","MAREA":"鯤鯓","LANE":" ","ALLEY":" ","HOUSE_NO":"２３４之９號","E_COORD97":156929,"N_COORD97":2565669.2400000002,"ADDRESS":"鯤鯓２３４之９號","OBJECTID":304713},"geometry":{"x":156929.00000000093,"y":2565669.2400000002}},{"attributes":{"ID":304722,"DIS_CODE":0,"TOWNNAME":"將軍區","LI":"鯤鯓里","LIN":"14鄰","STREET":" ","SECT":" ","MAREA":"鯤鯓","LANE":" ","ALLEY":" ","HOUSE_NO":"２３９號","E_COORD97":156949.07999999999,"N_COORD97":2565678.48,"ADDRESS":"鯤鯓２３９號","OBJECTID":304714},"geometry":{"x":156949.08000000101,"y":2565678.4800000004}},{"attributes":{"ID":304723,"DIS_CODE":0,"TOWNNAME":"將軍區","LI":"鯤鯓里","LIN":"14鄰","STREET":" ","SECT":" ","MAREA":"鯤鯓","LANE":" ","ALLEY":" ","HOUSE_NO":"２４１號","E_COORD97":156944.23999999999,"N_COORD97":2565693.77,"ADDRESS":"鯤鯓２４１號","OBJECTID":304715},"geometry":{"x":156944.24000000115,"y":2565693.7700000014}},{"attributes":{"ID":304724,"DIS_CODE":0,"TOWNNAME":"仁德區","LI":"成功里","LIN":"4鄰","STREET":"成功三街","SECT":" ","MAREA":" ","LANE":"９３巷","ALLEY":" ","HOUSE_NO":"２４號","E_COORD97":171232.34,"N_COORD97":2539808.02,"ADDRESS":"成功三街９３巷２４號","OBJECTID":304716},"geometry":{"x":171232.34000000078,"y":2539808.0199999996}},{"attributes":{"ID":304725,"DIS_CODE":0,"TOWNNAME":"將軍區","LI":"鯤鯓里","LIN":"14鄰","STREET":" ","SECT":" ","MAREA":"鯤鯓","LANE":" ","ALLEY":" ","HOUSE_NO":"２４３之３號","E_COORD97":156942.82000000001,"N_COORD97":2565712.8100000001,"ADDRESS":"鯤鯓２４３之３號","OBJECTID":304717},"geometry":{"x":156942.8200000003,"y":2565712.8100000005}},{"attributes":{"ID":304726,"DIS_CODE":0,"TOWNNAME":"仁德區","LI":"二行里","LIN":"18鄰","STREET":"行大街","SECT":" ","MAREA":" ","LANE":"１７２巷","ALLEY":" ","HOUSE_NO":"５３號","E_COORD97":169801.20000000001,"N_COORD97":2535224.25,"ADDRESS":"行大街１７２巷５３號","OBJECTID":304718},"geometry":{"x":169801.20000000112,"y":2535224.2499999981}},{"attributes":{"ID":304727,"DIS_CODE":0,"TOWNNAME":"將軍區","LI":"鯤鯓里","LIN":"15鄰","STREET":" ","SECT":" ","MAREA":"鯤鯓","LANE":" ","ALLEY":" ","HOUSE_NO":"２６５號","E_COORD97":156917.48000000001,"N_COORD97":2565946.48,"ADDRESS":"鯤鯓２６５號","OBJECTID":304719},"geometry":{"x":156917.48000000138,"y":2565946.4800000004}},{"attributes":{"ID":304728,"DIS_CODE":0,"TOWNNAME":"將軍區","LI":"鯤鯓里","LIN":"3鄰","STREET":" ","SECT":" ","MAREA":"鯤鯓","LANE":" ","ALLEY":" ","HOUSE_NO":"２３號","E_COORD97":156583.66,"N_COORD97":2565645.79,"ADDRESS":"鯤鯓２３號","OBJECTID":304720},"geometry":{"x":156583.66000000108,"y":2565645.790000001}},{"attributes":{"ID":304729,"DIS_CODE":0,"TOWNNAME":"仁德區","LI":"太子里","LIN":"17鄰","STREET":"長興路","SECT":" ","MAREA":" ","LANE":" ","ALLEY":" ","HOUSE_NO":"３號","E_COORD97":174109.57999999999,"N_COORD97":2543531.0099999998,"ADDRESS":"長興路３號","OBJECTID":304721},"geometry":{"x":174109.58000000007,"y":2543531.0099999998}},{"attributes":{"ID":304730,"DIS_CODE":0,"TOWNNAME":"東區","LI":"東明里","LIN":"17鄰","STREET":"東安路","SECT":" ","MAREA":" ","LANE":" ","ALLEY":" ","HOUSE_NO":"７２號","E_COORD97":170705.31,"N_COORD97":2543668.3999999999,"ADDRESS":"東安路７２號","OBJECTID":304722},"geometry":{"x":170705.30999999959,"y":2543668.4000000004}},{"attributes":{"ID":304731,"DIS_CODE":0,"TOWNNAME":"麻豆區","LI":"中興里","LIN":"17鄰","STREET":"三民路","SECT":" ","MAREA":" ","LANE":" ","ALLEY":" ","HOUSE_NO":"７４號","E_COORD97":172784.14999999999,"N_COORD97":2564383.23,"ADDRESS":"三民路７４號","OBJECTID":304723},"geometry":{"x":172784.15000000037,"y":2564383.2300000023}},{"attributes":{"ID":304732,"DIS_CODE":0,"TOWNNAME":"仁德區","LI":"仁愛里","LIN":"26鄰","STREET":"大同路","SECT":"三段","MAREA":" ","LANE":" ","ALLEY":" ","HOUSE_NO":"３３０號","E_COORD97":169752.161578,"N_COORD97":2539525.63772,"ADDRESS":"大同路三段３３０號","OBJECTID":304724},"geometry":{"x":169752.16157799866,"y":2539525.6377160009}},{"attributes":{"ID":304733,"DIS_CODE":0,"TOWNNAME":"仁德區","LI":"仁和里","LIN":"25鄰","STREET":" ","SECT":" ","MAREA":"仁和","LANE":" ","ALLEY":" ","HOUSE_NO":"５１２號","E_COORD97":170424.99945199999,"N_COORD97":2539772.25,"ADDRESS":"仁和５１２號","OBJECTID":304725},"geometry":{"x":170424.99945200048,"y":2539772.2500000019}},{"attributes":{"ID":304734,"DIS_CODE":0,"TOWNNAME":"仁德區","LI":"仁德里","LIN":"32鄰","STREET":"中山路","SECT":" ","MAREA":" ","LANE":"６４０巷","ALLEY":" ","HOUSE_NO":"２號","E_COORD97":173129.85999999999,"N_COORD97":2541419.9900000002,"ADDRESS":"中山路６４０巷２號","OBJECTID":304726},"geometry":{"x":173129.86000000034,"y":2541419.9900000002}},{"attributes":{"ID":304735,"DIS_CODE":0,"TOWNNAME":"仁德區","LI":"後壁里","LIN":"41鄰","STREET":"德善路","SECT":" ","MAREA":" ","LANE":"２５１巷","ALLEY":" ","HOUSE_NO":"１之８號","E_COORD97":173870.37,"N_COORD97":2538747.02,"ADDRESS":"德善路２５１巷１之８號","OBJECTID":304727},"geometry":{"x":173870.37000000011,"y":2538747.0199999996}},{"attributes":{"ID":304736,"DIS_CODE":0,"TOWNNAME":"仁德區","LI":"保安里","LIN":"13鄰","STREET":"二仁路","SECT":"一段","MAREA":" ","LANE":"１２２巷","ALLEY":" ","HOUSE_NO":"７號","E_COORD97":170470.54999999999,"N_COORD97":2535954.0299999998,"ADDRESS":"二仁路一段１２２巷７號","OBJECTID":304728},"geometry":{"x":170470.54999999981,"y":2535954.0299999975}},{"attributes":{"ID":304737,"DIS_CODE":0,"TOWNNAME":"仁德區","LI":"後壁里","LIN":"38鄰","STREET":"德安路","SECT":" ","MAREA":" ","LANE":"４８巷","ALLEY":" ","HOUSE_NO":"６號","E_COORD97":173387.64999999999,"N_COORD97":2539161.3199999998,"ADDRESS":"德安路４８巷６號","OBJECTID":304729},"geometry":{"x":173387.65000000037,"y":2539161.3200000022}},{"attributes":{"ID":304738,"DIS_CODE":0,"TOWNNAME":"關廟區","LI":"南花里","LIN":"8鄰","STREET":"四維街","SECT":" ","MAREA":" ","LANE":"２３１巷","ALLEY":" ","HOUSE_NO":"２號","E_COORD97":181847.56,"N_COORD97":2540223.25,"ADDRESS":"四維街２３１巷２號","OBJECTID":304730},"geometry":{"x":181847.56000000052,"y":2540223.2500000019}},{"attributes":{"ID":304739,"DIS_CODE":0,"TOWNNAME":"關廟區","LI":"埤頭里","LIN":"8鄰","STREET":"保東路","SECT":" ","MAREA":" ","LANE":"８８巷","ALLEY":" ","HOUSE_NO":"３０號","E_COORD97":178860.76999999999,"N_COORD97":2544112.2999999998,"ADDRESS":"保東路８８巷３０號","OBJECTID":304731},"geometry":{"x":178860.77000000048,"y":2544112.3000000026}},{"attributes":{"ID":304740,"DIS_CODE":0,"TOWNNAME":"關廟區","LI":"龜洞里","LIN":"8鄰","STREET":"官崙街","SECT":" ","MAREA":" ","LANE":"５６巷","ALLEY":" ","HOUSE_NO":"２２號","E_COORD97":183424.79000000001,"N_COORD97":2533369.2999999998,"ADDRESS":"官崙街５６巷２２號","OBJECTID":304732},"geometry":{"x":183424.79000000097,"y":2533369.3000000007}},{"attributes":{"ID":304741,"DIS_CODE":0,"TOWNNAME":"關廟區","LI":"龜洞里","LIN":"8鄰","STREET":"官崙街","SECT":" ","MAREA":" ","LANE":"５６巷","ALLEY":" ","HOUSE_NO":"６號","E_COORD97":183453.19,"N_COORD97":2533382.2999999998,"ADDRESS":"官崙街５６巷６號","OBJECTID":304733},"geometry":{"x":183453.19000000041,"y":2533382.3000000007}},{"attributes":{"ID":304742,"DIS_CODE":0,"TOWNNAME":"關廟區","LI":"南花里","LIN":"8鄰","STREET":"四維街","SECT":" ","MAREA":" ","LANE":"２３１巷","ALLEY":" ","HOUSE_NO":"３０號","E_COORD97":181785.91,"N_COORD97":2540230.25,"ADDRESS":"四維街２３１巷３０號","OBJECTID":304734},"geometry":{"x":181785.91000000108,"y":2540230.2500000019}},{"attributes":{"ID":304743,"DIS_CODE":0,"TOWNNAME":"關廟區","LI":"埤頭里","LIN":"8鄰","STREET":"保東路","SECT":" ","MAREA":" ","LANE":"８８巷","ALLEY":" ","HOUSE_NO":"２１號","E_COORD97":178844.07000000001,"N_COORD97":2544105.25,"ADDRESS":"保東路８８巷２１號","OBJECTID":304735},"geometry":{"x":178844.07000000123,"y":2544105.2500000019}},{"attributes":{"ID":304744,"DIS_CODE":0,"TOWNNAME":"麻豆區","LI":"中興里","LIN":"17鄰","STREET":"三民路","SECT":" ","MAREA":" ","LANE":" ","ALLEY":" ","HOUSE_NO":"８２號","E_COORD97":172786.25,"N_COORD97":2564376.96,"ADDRESS":"三民路８２號","OBJECTID":304736},"geometry":{"x":172786.25,"y":2564376.9600000009}},{"attributes":{"ID":304745,"DIS_CODE":0,"TOWNNAME":"麻豆區","LI":"中興里","LIN":"17鄰","STREET":"三民路","SECT":" ","MAREA":" ","LANE":" ","ALLEY":" ","HOUSE_NO":"８４號","E_COORD97":172786.66,"N_COORD97":2564372.9900000002,"ADDRESS":"三民路８４號","OBJECTID":304737},"geometry":{"x":172786.66000000108,"y":2564372.9900000002}},{"attributes":{"ID":304746,"DIS_CODE":0,"TOWNNAME":"麻豆區","LI":"中興里","LIN":"17鄰","STREET":"三民路","SECT":" ","MAREA":" ","LANE":" ","ALLEY":" ","HOUSE_NO":"８６號","E_COORD97":172787.51000000001,"N_COORD97":2564366.48,"ADDRESS":"三民路８６號","OBJECTID":304738},"geometry":{"x":172787.50999999978,"y":2564366.4800000004}},{"attributes":{"ID":304747,"DIS_CODE":0,"TOWNNAME":"麻豆區","LI":"中興里","LIN":"17鄰","STREET":"三民路","SECT":" ","MAREA":" ","LANE":" ","ALLEY":" ","HOUSE_NO":"６２號之６","E_COORD97":172695.79000000001,"N_COORD97":2564424.29,"ADDRESS":"三民路６２號之６","OBJECTID":304739},"geometry":{"x":172695.79000000097,"y":2564424.2899999991}},{"attributes":{"ID":304748,"DIS_CODE":0,"TOWNNAME":"麻豆區","LI":"中興里","LIN":"17鄰","STREET":"三民路","SECT":" ","MAREA":" ","LANE":" ","ALLEY":" ","HOUSE_NO":"６２號之７","E_COORD97":172692.37,"N_COORD97":2564423.3999999999,"ADDRESS":"三民路６２號之７","OBJECTID":304740},"geometry":{"x":172692.37000000011,"y":2564423.4000000022}},{"attributes":{"ID":304749,"DIS_CODE":0,"TOWNNAME":"麻豆區","LI":"中興里","LIN":"17鄰","STREET":"三民路","SECT":" ","MAREA":" ","LANE":" ","ALLEY":" ","HOUSE_NO":"７２號之２","E_COORD97":172783.01000000001,"N_COORD97":2564391.4900000002,"ADDRESS":"三民路７２號之２","OBJECTID":304741},"geometry":{"x":172783.00999999978,"y":2564391.4900000021}},{"attributes":{"ID":304750,"DIS_CODE":0,"TOWNNAME":"龍崎區","LI":"楠坑里","LIN":"4鄰","STREET":" ","SECT":" ","MAREA":"樹子林","LANE":" ","ALLEY":" ","HOUSE_NO":"１１號之１","E_COORD97":184877.78,"N_COORD97":2536972.2999999998,"ADDRESS":"樹子林１１號之１","OBJECTID":304742},"geometry":{"x":184877.78000000119,"y":2536972.3000000026}},{"attributes":{"ID":304751,"DIS_CODE":0,"TOWNNAME":"龍崎區","LI":"崎頂里","LIN":"13鄰","STREET":" ","SECT":" ","MAREA":"崎頂","LANE":" ","ALLEY":" ","HOUSE_NO":"１４之１號","E_COORD97":184879.20999999999,"N_COORD97":2540087.2999999998,"ADDRESS":"崎頂１４之１號","OBJECTID":304743},"geometry":{"x":184879.21000000089,"y":2540087.3000000026}},{"attributes":{"ID":304752,"DIS_CODE":0,"TOWNNAME":"龍崎區","LI":"崎頂里","LIN":"4鄰","STREET":" ","SECT":" ","MAREA":"新市子","LANE":" ","ALLEY":" ","HOUSE_NO":"１０４號","E_COORD97":184797.47,"N_COORD97":2540495.25,"ADDRESS":"新市子１０４號","OBJECTID":304744},"geometry":{"x":184797.47000000067,"y":2540495.25}},{"attributes":{"ID":304753,"DIS_CODE":0,"TOWNNAME":"龍崎區","LI":"崎頂里","LIN":"4鄰","STREET":" ","SECT":" ","MAREA":"新市子","LANE":" ","ALLEY":" ","HOUSE_NO":"１４５號","E_COORD97":184731.17000000001,"N_COORD97":2540604.25,"ADDRESS":"新市子１４５號","OBJECTID":304745},"geometry":{"x":184731.16999999993,"y":2540604.25}},{"attributes":{"ID":304754,"DIS_CODE":0,"TOWNNAME":"龍崎區","LI":"石\u25A0里","LIN":"4鄰","STREET":" ","SECT":" ","MAREA":"刺子崙","LANE":" ","ALLEY":" ","HOUSE_NO":"１３之１號","E_COORD97":188861.19,"N_COORD97":2539567.2999999998,"ADDRESS":"刺子崙１３之１號","OBJECTID":304746},"geometry":{"x":188861.19000000041,"y":2539567.3000000007}},{"attributes":{"ID":304755,"DIS_CODE":0,"TOWNNAME":"龍崎區","LI":"龍船里","LIN":"4鄰","STREET":" ","SECT":" ","MAREA":"苦苓湖","LANE":" ","ALLEY":" ","HOUSE_NO":"１６號之１","E_COORD97":190315.03,"N_COORD97":2538278.2999999998,"ADDRESS":"苦苓湖１６號之１","OBJECTID":304747},"geometry":{"x":190315.03000000026,"y":2538278.3000000007}},{"attributes":{"ID":304756,"DIS_CODE":0,"TOWNNAME":"龍崎區","LI":"大坪里","LIN":"5鄰","STREET":" ","SECT":" ","MAREA":"大坪","LANE":" ","ALLEY":" ","HOUSE_NO":"１號","E_COORD97":187737.51999999999,"N_COORD97":2537042.25,"ADDRESS":"大坪１號","OBJECTID":304748},"geometry":{"x":187737.51999999955,"y":2537042.2500000019}},{"attributes":{"ID":304757,"DIS_CODE":0,"TOWNNAME":"龍崎區","LI":"崎頂里","LIN":"17鄰","STREET":" ","SECT":" ","MAREA":"芋園","LANE":" ","ALLEY":" ","HOUSE_NO":"５號","E_COORD97":187398.32000000001,"N_COORD97":2541506.25,"ADDRESS":"芋園５號","OBJECTID":304749},"geometry":{"x":187398.32000000123,"y":2541506.25}},{"attributes":{"ID":304758,"DIS_CODE":0,"TOWNNAME":"龍崎區","LI":"崎頂里","LIN":"8鄰","STREET":" ","SECT":" ","MAREA":"新市子","LANE":" ","ALLEY":" ","HOUSE_NO":"２９１號","E_COORD97":184356.37,"N_COORD97":2540586.25,"ADDRESS":"新市子２９１號","OBJECTID":304750},"geometry":{"x":184356.37000000104,"y":2540586.2500000019}},{"attributes":{"ID":304759,"DIS_CODE":0,"TOWNNAME":"關廟區","LI":"南花里","LIN":"8鄰","STREET":"四維街","SECT":" ","MAREA":" ","LANE":"２３１巷","ALLEY":" ","HOUSE_NO":"１６號","E_COORD97":181817.81,"N_COORD97":2540227.25,"ADDRESS":"四維街２３１巷１６號","OBJECTID":304751},"geometry":{"x":181817.80999999959,"y":2540227.25}},{"attributes":{"ID":304760,"DIS_CODE":0,"TOWNNAME":"新化區","LI":"知義里","LIN":" ","STREET":" ","SECT":" ","MAREA":"新和庄","LANE":" ","ALLEY":" ","HOUSE_NO":"８號之２０","E_COORD97":181239.98000000001,"N_COORD97":2547005.2599999998,"ADDRESS":"新和庄８號之２０","OBJECTID":304752},"geometry":{"x":181239.98000000138,"y":2547005.2599999998}},{"attributes":{"ID":304761,"DIS_CODE":0,"TOWNNAME":"關廟區","LI":"龜洞里","LIN":"8鄰","STREET":"官崙街","SECT":" ","MAREA":" ","LANE":"３２巷","ALLEY":" ","HOUSE_NO":"６號","E_COORD97":183447.14000000001,"N_COORD97":2533434.25,"ADDRESS":"官崙街３２巷６號","OBJECTID":304753},"geometry":{"x":183447.1400000006,"y":2533434.2499999981}},{"attributes":{"ID":304762,"DIS_CODE":0,"TOWNNAME":"新化區","LI":"全興里","LIN":"4鄰","STREET":" ","SECT":" ","MAREA":"竹子\u25A0","LANE":" ","ALLEY":" ","HOUSE_NO":"５０號之２","E_COORD97":177671.14000000001,"N_COORD97":2547703.2599999998,"ADDRESS":"竹子\u25A0５０號之２","OBJECTID":304754},"geometry":{"x":177671.14000000153,"y":2547703.2599999998}},{"attributes":{"ID":304763,"DIS_CODE":0,"TOWNNAME":"新化區","LI":"知義里","LIN":"12鄰","STREET":" ","SECT":" ","MAREA":"口埤","LANE":" ","ALLEY":" ","HOUSE_NO":"８４號之１","E_COORD97":183533.53,"N_COORD97":2547083.2599999998,"ADDRESS":"口埤８４號之１","OBJECTID":304755},"geometry":{"x":183533.53000000119,"y":2547083.2599999998}},{"attributes":{"ID":304764,"DIS_CODE":0,"TOWNNAME":"關廟區","LI":"埤頭里","LIN":"8鄰","STREET":"保東路","SECT":" ","MAREA":" ","LANE":"８８巷","ALLEY":" ","HOUSE_NO":"１２號","E_COORD97":178884.97,"N_COORD97":2544069.2999999998,"ADDRESS":"保東路８８巷１２號","OBJECTID":304756},"geometry":{"x":178884.97000000067,"y":2544069.3000000007}},{"attributes":{"ID":304765,"DIS_CODE":0,"TOWNNAME":"關廟區","LI":"埤頭里","LIN":"8鄰","STREET":"保東路","SECT":" ","MAREA":" ","LANE":"８８巷","ALLEY":" ","HOUSE_NO":"２２號","E_COORD97":178889.97,"N_COORD97":2544101.2999999998,"ADDRESS":"保東路８８巷２２號","OBJECTID":304757},"geometry":{"x":178889.97000000067,"y":2544101.3000000026}},{"attributes":{"ID":304766,"DIS_CODE":0,"TOWNNAME":"新化區","LI":"崙頂里","LIN":" ","STREET":" ","SECT":" ","MAREA":"崙子頂","LANE":" ","ALLEY":" ","HOUSE_NO":"４０９號","E_COORD97":176999.63,"N_COORD97":2546869.25,"ADDRESS":"崙子頂４０９號","OBJECTID":304758},"geometry":{"x":176999.62999999989,"y":2546869.25}},{"attributes":{"ID":304767,"DIS_CODE":0,"TOWNNAME":"新化區","LI":"全興里","LIN":"20鄰","STREET":" ","SECT":" ","MAREA":"竹子\u25A0","LANE":" ","ALLEY":" ","HOUSE_NO":"２４７號之４５３","E_COORD97":178410.98000000001,"N_COORD97":2546660.2599999998,"ADDRESS":"竹子\u25A0２４７號之４５３","OBJECTID":304759},"geometry":{"x":178410.98000000138,"y":2546660.2600000016}},{"attributes":{"ID":304768,"DIS_CODE":0,"TOWNNAME":"新化區","LI":"全興里","LIN":"13鄰","STREET":" ","SECT":" ","MAREA":"竹子\u25A0","LANE":" ","ALLEY":" ","HOUSE_NO":"２４７號之２３９","E_COORD97":178240.98000000001,"N_COORD97":2546746.2599999998,"ADDRESS":"竹子\u25A0２４７號之２３９","OBJECTID":304760},"geometry":{"x":178240.98000000231,"y":2546746.2600000016}},{"attributes":{"ID":304769,"DIS_CODE":0,"TOWNNAME":"關廟區","LI":"埤頭里","LIN":"8鄰","STREET":"保東路","SECT":" ","MAREA":" ","LANE":"８８巷","ALLEY":" ","HOUSE_NO":"２６號","E_COORD97":178889.97,"N_COORD97":2544106.2999999998,"ADDRESS":"保東路８８巷２６號","OBJECTID":304761},"geometry":{"x":178889.97000000067,"y":2544106.3000000007}},{"attributes":{"ID":304770,"DIS_CODE":0,"TOWNNAME":"新化區","LI":"大坑里","LIN":"4鄰","STREET":" ","SECT":" ","MAREA":"大坑尾","LANE":" ","ALLEY":" ","HOUSE_NO":"１７３號之１","E_COORD97":187010.26000000001,"N_COORD97":2545550.2599999998,"ADDRESS":"大坑尾１７３號之１","OBJECTID":304762},"geometry":{"x":187010.25999999978,"y":2545550.2599999998}},{"attributes":{"ID":304771,"DIS_CODE":0,"TOWNNAME":"新化區","LI":"知義里","LIN":"4鄰","STREET":" ","SECT":" ","MAREA":"知母義","LANE":" ","ALLEY":" ","HOUSE_NO":"１１０號","E_COORD97":179867.51999999999,"N_COORD97":2547101.25,"ADDRESS":"知母義１１０號","OBJECTID":304763},"geometry":{"x":179867.52000000048,"y":2547101.2500000037}},{"attributes":{"ID":304772,"DIS_CODE":0,"TOWNNAME":"關廟區","LI":"松腳里","LIN":"8鄰","STREET":"四維街","SECT":" ","MAREA":" ","LANE":"１３５巷","ALLEY":" ","HOUSE_NO":"１６號","E_COORD97":181825.10999999999,"N_COORD97":2539780.25,"ADDRESS":"四維街１３５巷１６號","OBJECTID":304764},"geometry":{"x":181825.11000000034,"y":2539780.25}},{"attributes":{"ID":304773,"DIS_CODE":0,"TOWNNAME":"新化區","LI":"知義里","LIN":"4鄰","STREET":" ","SECT":" ","MAREA":"知母義","LANE":" ","ALLEY":" ","HOUSE_NO":"９９號之１","E_COORD97":179870.79999999999,"N_COORD97":2547216.2599999998,"ADDRESS":"知母義９９號之１","OBJECTID":304765},"geometry":{"x":179870.80000000075,"y":2547216.2600000016}},{"attributes":{"ID":304774,"DIS_CODE":0,"TOWNNAME":"新化區","LI":"全興里","LIN":"4鄰","STREET":" ","SECT":" ","MAREA":"竹子\u25A0","LANE":" ","ALLEY":" ","HOUSE_NO":"５７號","E_COORD97":177603.98000000001,"N_COORD97":2547752.25,"ADDRESS":"竹子\u25A0５７號","OBJECTID":304766},"geometry":{"x":177603.98000000138,"y":2547752.2500000019}},{"attributes":{"ID":304775,"DIS_CODE":0,"TOWNNAME":"新化區","LI":"知義里","LIN":"4鄰","STREET":" ","SECT":" ","MAREA":"知母義","LANE":" ","ALLEY":" ","HOUSE_NO":"１０２號之６","E_COORD97":179746.87,"N_COORD97":2547306.2599999998,"ADDRESS":"知母義１０２號之６","OBJECTID":304767},"geometry":{"x":179746.87000000104,"y":2547306.2599999998}},{"attributes":{"ID":304776,"DIS_CODE":0,"TOWNNAME":"新化區","LI":"知義里","LIN":"4鄰","STREET":" ","SECT":" ","MAREA":"知母義","LANE":" ","ALLEY":" ","HOUSE_NO":"９５號","E_COORD97":179884.26999999999,"N_COORD97":2547125.25,"ADDRESS":"知母義９５號","OBJECTID":304768},"geometry":{"x":179884.27000000048,"y":2547125.2500000019}},{"attributes":{"ID":304777,"DIS_CODE":0,"TOWNNAME":"關廟區","LI":"松腳里","LIN":"8鄰","STREET":"四維街","SECT":" ","MAREA":" ","LANE":"１３５巷","ALLEY":" ","HOUSE_NO":"２號","E_COORD97":181854.16,"N_COORD97":2539782.25,"ADDRESS":"四維街１３５巷２號","OBJECTID":304769},"geometry":{"x":181854.16000000108,"y":2539782.2500000019}},{"attributes":{"ID":304778,"DIS_CODE":0,"TOWNNAME":"新化區","LI":"全興里","LIN":"18鄰","STREET":" ","SECT":" ","MAREA":"竹子\u25A0","LANE":" ","ALLEY":" ","HOUSE_NO":"２４７號之１９９","E_COORD97":178434.88,"N_COORD97":2546741.2599999998,"ADDRESS":"竹子\u25A0２４７號之１９９","OBJECTID":304770},"geometry":{"x":178434.88000000082,"y":2546741.2600000035}},{"attributes":{"ID":304779,"DIS_CODE":0,"TOWNNAME":"新化區","LI":"北勢里","LIN":"4鄰","STREET":" ","SECT":" ","MAREA":"北勢","LANE":" ","ALLEY":" ","HOUSE_NO":"１３８號","E_COORD97":177227.28,"N_COORD97":2549488.2599999998,"ADDRESS":"北勢１３８號","OBJECTID":304771},"geometry":{"x":177227.28000000119,"y":2549488.2600000016}},{"attributes":{"ID":304780,"DIS_CODE":0,"TOWNNAME":"麻豆區","LI":"大埕里","LIN":"17鄰","STREET":"大同街","SECT":" ","MAREA":" ","LANE":" ","ALLEY":" ","HOUSE_NO":"１０號之６","E_COORD97":172913.64999999999,"N_COORD97":2565037.8199999998,"ADDRESS":"大同街１０號之６","OBJECTID":304772},"geometry":{"x":172913.6500000013,"y":2565037.8200000003}},{"attributes":{"ID":304781,"DIS_CODE":0,"TOWNNAME":"麻豆區","LI":"大埕里","LIN":"17鄰","STREET":"大同街","SECT":" ","MAREA":" ","LANE":" ","ALLEY":" ","HOUSE_NO":"１０號之７","E_COORD97":172918.26000000001,"N_COORD97":2565037.8999999999,"ADDRESS":"大同街１０號之７","OBJECTID":304773},"geometry":{"x":172918.25999999978,"y":2565037.9000000004}},{"attributes":{"ID":304782,"DIS_CODE":0,"TOWNNAME":"安定區","LI":"安定里","LIN":"4鄰","STREET":" ","SECT":" ","MAREA":"安定","LANE":" ","ALLEY":" ","HOUSE_NO":"１３之１１號","E_COORD97":172526.32000000001,"N_COORD97":2558138.3199999998,"ADDRESS":"安定１３之１１號","OBJECTID":304774},"geometry":{"x":172526.32000000123,"y":2558138.3200000003}},{"attributes":{"ID":304783,"DIS_CODE":0,"TOWNNAME":"安定區","LI":"港口里","LIN":"20鄰","STREET":" ","SECT":" ","MAREA":"港口","LANE":" ","ALLEY":" ","HOUSE_NO":"３９９之６３號","E_COORD97":171559.54000000001,"N_COORD97":2554936.2999999998,"ADDRESS":"港口３９９之６３號","OBJECTID":304775},"geometry":{"x":171559.54000000097,"y":2554936.3000000007}},{"attributes":{"ID":304784,"DIS_CODE":0,"TOWNNAME":"安定區","LI":"港尾里","LIN":"13鄰","STREET":" ","SECT":" ","MAREA":"港子尾","LANE":" ","ALLEY":" ","HOUSE_NO":"８１號","E_COORD97":171342.39000000001,"N_COORD97":2556030.2599999998,"ADDRESS":"港子尾８１號","OBJECTID":304776},"geometry":{"x":171342.38999999966,"y":2556030.2599999998}},{"attributes":{"ID":304785,"DIS_CODE":0,"TOWNNAME":"安定區","LI":"港口里","LIN":"13鄰","STREET":" ","SECT":" ","MAREA":"港口","LANE":" ","ALLEY":" ","HOUSE_NO":"３４６號","E_COORD97":171196.69,"N_COORD97":2554659.25,"ADDRESS":"港口３４６號","OBJECTID":304777},"geometry":{"x":171196.69000000134,"y":2554659.2500000019}},{"attributes":{"ID":304786,"DIS_CODE":0,"TOWNNAME":"安定區","LI":"安定里","LIN":"4鄰","STREET":" ","SECT":" ","MAREA":"安定","LANE":" ","ALLEY":" ","HOUSE_NO":"１１之７號","E_COORD97":172518.17000000001,"N_COORD97":2558017.3199999998,"ADDRESS":"安定１１之７號","OBJECTID":304778},"geometry":{"x":172518.17000000086,"y":2558017.3200000003}},{"attributes":{"ID":304787,"DIS_CODE":0,"TOWNNAME":"安定區","LI":"六嘉里","LIN":"4鄰","STREET":" ","SECT":" ","MAREA":"六塊寮","LANE":" ","ALLEY":" ","HOUSE_NO":"２７之８號","E_COORD97":169880.22,"N_COORD97":2553529.2999999998,"ADDRESS":"六塊寮２７之８號","OBJECTID":304779},"geometry":{"x":169880.22000000067,"y":2553529.3000000007}},{"attributes":{"ID":304788,"DIS_CODE":0,"TOWNNAME":"安定區","LI":"港口里","LIN":"18鄰","STREET":" ","SECT":" ","MAREA":"港口","LANE":" ","ALLEY":" ","HOUSE_NO":"３８０之４號","E_COORD97":171396.09,"N_COORD97":2555012.2999999998,"ADDRESS":"港口３８０之４號","OBJECTID":304780},"geometry":{"x":171396.09000000171,"y":2555012.3000000026}},{"attributes":{"ID":304789,"DIS_CODE":0,"TOWNNAME":"安定區","LI":"安加里","LIN":"7鄰","STREET":" ","SECT":" ","MAREA":"安定","LANE":" ","ALLEY":" ","HOUSE_NO":"２２３之３號","E_COORD97":171874.82000000001,"N_COORD97":2557452.3199999998,"ADDRESS":"安定２２３之３號","OBJECTID":304781},"geometry":{"x":171874.82000000216,"y":2557452.3200000022}},{"attributes":{"ID":304790,"DIS_CODE":0,"TOWNNAME":"佳里區","LI":"三協里","LIN":"8鄰","STREET":" ","SECT":" ","MAREA":"後庄","LANE":" ","ALLEY":" ","HOUSE_NO":"１號","E_COORD97":168299.98000000001,"N_COORD97":2564327.1899999999,"ADDRESS":"後庄１號","OBJECTID":304782},"geometry":{"x":168299.98000000045,"y":2564327.1899999976}},{"attributes":{"ID":304791,"DIS_CODE":0,"TOWNNAME":"佳里區","LI":"蚶寮里","LIN":"11鄰","STREET":" ","SECT":" ","MAREA":"蚶寮","LANE":" ","ALLEY":" ","HOUSE_NO":"１０４號之１","E_COORD97":162839.03,"N_COORD97":2558647.6600000001,"ADDRESS":"蚶寮１０４號之１","OBJECTID":304783},"geometry":{"x":162839.03000000026,"y":2558647.660000002}},{"attributes":{"ID":304792,"DIS_CODE":0,"TOWNNAME":"佳里區","LI":"蚶寮里","LIN":"11鄰","STREET":" ","SECT":" ","MAREA":"蚶寮","LANE":" ","ALLEY":" ","HOUSE_NO":"１０４號","E_COORD97":162835.12,"N_COORD97":2558657.6600000001,"ADDRESS":"蚶寮１０４號","OBJECTID":304784},"geometry":{"x":162835.12000000011,"y":2558657.660000002}},{"attributes":{"ID":304793,"DIS_CODE":0,"TOWNNAME":"佳里區","LI":"蚶寮里","LIN":"11鄰","STREET":" ","SECT":" ","MAREA":"蚶寮","LANE":" ","ALLEY":" ","HOUSE_NO":"１０６號之１０","E_COORD97":162871.42999999999,"N_COORD97":2558662.3599999999,"ADDRESS":"蚶寮１０６號之１０","OBJECTID":304785},"geometry":{"x":162871.4299999997,"y":2558662.3600000013}},{"attributes":{"ID":304794,"DIS_CODE":0,"TOWNNAME":"關廟區","LI":"北花里","LIN":"8鄰","STREET":"四維街","SECT":" ","MAREA":" ","LANE":"３８８巷","ALLEY":" ","HOUSE_NO":"１０號","E_COORD97":181919.10999999999,"N_COORD97":2540300.25,"ADDRESS":"四維街３８８巷１０號","OBJECTID":304786},"geometry":{"x":181919.11000000127,"y":2540300.2500000019}},{"attributes":{"ID":304795,"DIS_CODE":0,"TOWNNAME":"佳里區","LI":"蚶寮里","LIN":"11鄰","STREET":" ","SECT":" ","MAREA":"蚶寮","LANE":" ","ALLEY":" ","HOUSE_NO":"１０６號之１１","E_COORD97":162854.14999999999,"N_COORD97":2558671.3599999999,"ADDRESS":"蚶寮１０６號之１１","OBJECTID":304787},"geometry":{"x":162854.15000000224,"y":2558671.3600000013}},{"attributes":{"ID":304796,"DIS_CODE":0,"TOWNNAME":"關廟區","LI":"五甲里","LIN":"8鄰","STREET":"五慧街","SECT":" ","MAREA":" ","LANE":"７２巷","ALLEY":" ","HOUSE_NO":"８號","E_COORD97":181106.82000000001,"N_COORD97":2539278.25,"ADDRESS":"五慧街７２巷８號","OBJECTID":304788},"geometry":{"x":181106.82000000216,"y":2539278.25}},{"attributes":{"ID":304797,"DIS_CODE":0,"TOWNNAME":"關廟區","LI":"五甲里","LIN":"8鄰","STREET":"五慧街","SECT":" ","MAREA":" ","LANE":"７２巷","ALLEY":" ","HOUSE_NO":"１２號","E_COORD97":181104.57000000001,"N_COORD97":2539286.25,"ADDRESS":"五慧街７２巷１２號","OBJECTID":304789},"geometry":{"x":181104.5700000003,"y":2539286.2500000037}},{"attributes":{"ID":304798,"DIS_CODE":0,"TOWNNAME":"關廟區","LI":"五甲里","LIN":"8鄰","STREET":"五慧街","SECT":" ","MAREA":" ","LANE":"４０巷","ALLEY":" ","HOUSE_NO":"６號","E_COORD97":181173.92000000001,"N_COORD97":2539283.25,"ADDRESS":"五慧街４０巷６號","OBJECTID":304790},"geometry":{"x":181173.92000000086,"y":2539283.2500000019}},{"attributes":{"ID":304799,"DIS_CODE":0,"TOWNNAME":"佳里區","LI":"蚶寮里","LIN":"11鄰","STREET":" ","SECT":" ","MAREA":"蚶寮","LANE":" ","ALLEY":" ","HOUSE_NO":"１０６號之１２","E_COORD97":162871.38,"N_COORD97":2558666.4700000002,"ADDRESS":"蚶寮１０６號之１２","OBJECTID":304791},"geometry":{"x":162871.38000000082,"y":2558666.4700000025}},{"attributes":{"ID":304800,"DIS_CODE":0,"TOWNNAME":"關廟區","LI":"五甲里","LIN":"8鄰","STREET":"五慧街","SECT":" ","MAREA":" ","LANE":"４０巷","ALLEY":" ","HOUSE_NO":"１號","E_COORD97":181163.22,"N_COORD97":2539281.25,"ADDRESS":"五慧街４０巷１號","OBJECTID":304792},"geometry":{"x":181163.22000000067,"y":2539281.25}},{"attributes":{"ID":304801,"DIS_CODE":0,"TOWNNAME":"關廟區","LI":"龜洞里","LIN":"8鄰","STREET":"官崙街","SECT":" ","MAREA":" ","LANE":"５６巷","ALLEY":" ","HOUSE_NO":"８號","E_COORD97":183448.98999999999,"N_COORD97":2533380.2999999998,"ADDRESS":"官崙街５６巷８號","OBJECTID":304793},"geometry":{"x":183448.99000000115,"y":2533380.3000000007}},{"attributes":{"ID":304802,"DIS_CODE":0,"TOWNNAME":"關廟區","LI":"新埔里","LIN":"8鄰","STREET":"新埔三街","SECT":" ","MAREA":" ","LANE":"１３７巷","ALLEY":" ","HOUSE_NO":"６號","E_COORD97":181266.32000000001,"N_COORD97":2541132.25,"ADDRESS":"新埔三街１３７巷６號","OBJECTID":304794},"geometry":{"x":181266.32000000123,"y":2541132.2500000019}},{"attributes":{"ID":304803,"DIS_CODE":0,"TOWNNAME":"關廟區","LI":"五甲里","LIN":"8鄰","STREET":"五慧街","SECT":" ","MAREA":" ","LANE":"７２巷","ALLEY":" ","HOUSE_NO":"６號","E_COORD97":181108.32000000001,"N_COORD97":2539274.25,"ADDRESS":"五慧街７２巷６號","OBJECTID":304795},"geometry":{"x":181108.31999999937,"y":2539274.2500000019}},{"attributes":{"ID":304804,"DIS_CODE":0,"TOWNNAME":"佳里區","LI":"頂\u25A0里","LIN":"7鄰","STREET":" ","SECT":" ","MAREA":"頂\u25A0","LANE":" ","ALLEY":" ","HOUSE_NO":"６７號","E_COORD97":163085.78,"N_COORD97":2563785.3799999999,"ADDRESS":"頂\u25A0６７號","OBJECTID":304796},"geometry":{"x":163085.78000000119,"y":2563785.379999999}},{"attributes":{"ID":304805,"DIS_CODE":0,"TOWNNAME":"佳里區","LI":"頂\u25A0里","LIN":"7鄰","STREET":" ","SECT":" ","MAREA":"頂\u25A0","LANE":" ","ALLEY":" ","HOUSE_NO":"６８號","E_COORD97":163105.07000000001,"N_COORD97":2563775.71,"ADDRESS":"頂\u25A0６８號","OBJECTID":304797},"geometry":{"x":163105.0700000003,"y":2563775.7100000009}},{"attributes":{"ID":304806,"DIS_CODE":0,"TOWNNAME":"佳里區","LI":"頂\u25A0里","LIN":"7鄰","STREET":" ","SECT":" ","MAREA":"頂\u25A0","LANE":" ","ALLEY":" ","HOUSE_NO":"６９號","E_COORD97":163128.60000000001,"N_COORD97":2563782.9100000001,"ADDRESS":"頂\u25A0６９號","OBJECTID":304798},"geometry":{"x":163128.60000000056,"y":2563782.9100000001}},{"attributes":{"ID":304807,"DIS_CODE":0,"TOWNNAME":"佳里區","LI":"頂\u25A0里","LIN":"7鄰","STREET":" ","SECT":" ","MAREA":"頂\u25A0","LANE":" ","ALLEY":" ","HOUSE_NO":"７９號","E_COORD97":163098.39999999999,"N_COORD97":2563695.1600000001,"ADDRESS":"頂\u25A0７９號","OBJECTID":304799},"geometry":{"x":163098.40000000224,"y":2563695.160000002}},{"attributes":{"ID":304808,"DIS_CODE":0,"TOWNNAME":"佳里區","LI":"頂\u25A0里","LIN":"7鄰","STREET":" ","SECT":" ","MAREA":"頂\u25A0","LANE":" ","ALLEY":" ","HOUSE_NO":"７１號","E_COORD97":163097.39999999999,"N_COORD97":2563756.1299999999,"ADDRESS":"頂\u25A0７１號","OBJECTID":304800},"geometry":{"x":163097.4000000013,"y":2563756.129999999}}]}