{"displayFieldName":"TOWNNAME","fieldAliases":{"ID":"ID","DIS_CODE":"DIS_CODE","TOWNNAME":"TOWNNAME","LI":"LI","LIN":"LIN","STREET":"STREET","SECT":"SECT","MAREA":"MAREA","LANE":"LANE","ALLEY":"ALLEY","HOUSE_NO":"HOUSE_NO","E_COORD97":"E_COORD97","N_COORD97":"N_COORD97","ADDRESS":"ADDRESS","OBJECTID":"OBJECTID"},"geometryType":"esriGeometryPoint","spatialReference":{"wkid":102443,"latestWkid":3826},"fields":[{"name":"ID","type":"esriFieldTypeDouble","alias":"ID"},{"name":"DIS_CODE","type":"esriFieldTypeInteger","alias":"DIS_CODE"},{"name":"TOWNNAME","type":"esriFieldTypeString","alias":"TOWNNAME","length":8},{"name":"LI","type":"esriFieldTypeString","alias":"LI","length":8},{"name":"LIN","type":"esriFieldTypeString","alias":"LIN","length":12},{"name":"STREET","type":"esriFieldTypeString","alias":"STREET","length":20},{"name":"SECT","type":"esriFieldTypeString","alias":"SECT","length":8},{"name":"MAREA","type":"esriFieldTypeString","alias":"MAREA","length":12},{"name":"LANE","type":"esriFieldTypeString","alias":"LANE","length":10},{"name":"ALLEY","type":"esriFieldTypeString","alias":"ALLEY","length":10},{"name":"HOUSE_NO","type":"esriFieldTypeString","alias":"HOUSE_NO","length":20},{"name":"E_COORD97","type":"esriFieldTypeDouble","alias":"E_COORD97"},{"name":"N_COORD97","type":"esriFieldTypeDouble","alias":"N_COORD97"},{"name":"ADDRESS","type":"esriFieldTypeString","alias":"ADDRESS","length":50},{"name":"OBJECTID","type":"esriFieldTypeOID","alias":"OBJECTID"}],"features":[{"attributes":{"ID":518428,"DIS_CODE":0,"TOWNNAME":"西港區","LI":"南海里","LIN":"1鄰","STREET":"慶安路","SECT":" ","MAREA":" ","LANE":" ","ALLEY":" ","HOUSE_NO":"２０３號","E_COORD97":167852.73000000001,"N_COORD97":2557846.54,"ADDRESS":"慶安路２０３號","OBJECTID":518401},"geometry":{"x":167852.72999999952,"y":2557846.540000001}},{"attributes":{"ID":518429,"DIS_CODE":0,"TOWNNAME":"西港區","LI":"南海里","LIN":"1鄰","STREET":"慶安路","SECT":" ","MAREA":" ","LANE":" ","ALLEY":" ","HOUSE_NO":"２０４號","E_COORD97":167820.10999999999,"N_COORD97":2557858.8599999999,"ADDRESS":"慶安路２０４號","OBJECTID":518402},"geometry":{"x":167820.11000000127,"y":2557858.8600000013}},{"attributes":{"ID":518430,"DIS_CODE":0,"TOWNNAME":"西港區","LI":"南海里","LIN":"1鄰","STREET":"慶安路","SECT":" ","MAREA":" ","LANE":" ","ALLEY":" ","HOUSE_NO":"２０８號","E_COORD97":167803.98999999999,"N_COORD97":2557851.0899999999,"ADDRESS":"慶安路２０８號","OBJECTID":518403},"geometry":{"x":167803.99000000115,"y":2557851.0900000017}},{"attributes":{"ID":518431,"DIS_CODE":0,"TOWNNAME":"西港區","LI":"南海里","LIN":"1鄰","STREET":"慶安路","SECT":" ","MAREA":" ","LANE":" ","ALLEY":" ","HOUSE_NO":"２０９號","E_COORD97":167840.73999999999,"N_COORD97":2557841.04,"ADDRESS":"慶安路２０９號","OBJECTID":518404},"geometry":{"x":167840.74000000209,"y":2557841.0399999991}},{"attributes":{"ID":518432,"DIS_CODE":0,"TOWNNAME":"西港區","LI":"南海里","LIN":"1鄰","STREET":"慶安路","SECT":" ","MAREA":" ","LANE":" ","ALLEY":" ","HOUSE_NO":"２１０號","E_COORD97":167800.45999999999,"N_COORD97":2557849.54,"ADDRESS":"慶安路２１０號","OBJECTID":518405},"geometry":{"x":167800.46000000089,"y":2557849.540000001}},{"attributes":{"ID":518433,"DIS_CODE":0,"TOWNNAME":"西港區","LI":"南海里","LIN":"1鄰","STREET":"慶安路","SECT":" ","MAREA":" ","LANE":" ","ALLEY":" ","HOUSE_NO":"２１１號之１","E_COORD97":167823.98000000001,"N_COORD97":2557833.1699999999,"ADDRESS":"慶安路２１１號之１","OBJECTID":518406},"geometry":{"x":167823.98000000231,"y":2557833.1700000018}},{"attributes":{"ID":518434,"DIS_CODE":0,"TOWNNAME":"西港區","LI":"南海里","LIN":"1鄰","STREET":"慶安路","SECT":" ","MAREA":" ","LANE":" ","ALLEY":" ","HOUSE_NO":"２１１號","E_COORD97":167829.20999999999,"N_COORD97":2557834.4100000001,"ADDRESS":"慶安路２１１號","OBJECTID":518407},"geometry":{"x":167829.21000000089,"y":2557834.410000002}},{"attributes":{"ID":518435,"DIS_CODE":0,"TOWNNAME":"白河區","LI":"白河里","LIN":"1鄰","STREET":"十全街","SECT":" ","MAREA":" ","LANE":" ","ALLEY":" ","HOUSE_NO":"１６１號","E_COORD97":190010.82999999999,"N_COORD97":2582745.8900000001,"ADDRESS":"十全街１６１號","OBJECTID":518408},"geometry":{"x":190010.83000000007,"y":2582745.8900000006}},{"attributes":{"ID":518436,"DIS_CODE":0,"TOWNNAME":"白河區","LI":"永安里","LIN":"1鄰","STREET":"中山路","SECT":" ","MAREA":" ","LANE":" ","ALLEY":" ","HOUSE_NO":"１９號","E_COORD97":190152.26000000001,"N_COORD97":2583028.0499999998,"ADDRESS":"中山路１９號","OBJECTID":518409},"geometry":{"x":190152.26000000164,"y":2583028.0500000026}},{"attributes":{"ID":518437,"DIS_CODE":0,"TOWNNAME":"白河區","LI":"白河里","LIN":"1鄰","STREET":"中山路","SECT":" ","MAREA":" ","LANE":" ","ALLEY":" ","HOUSE_NO":"２之３３號","E_COORD97":190060.98999999999,"N_COORD97":2582849.4399999999,"ADDRESS":"中山路２之３３號","OBJECTID":518410},"geometry":{"x":190060.99000000022,"y":2582849.4399999995}},{"attributes":{"ID":518438,"DIS_CODE":0,"TOWNNAME":"白河區","LI":"白河里","LIN":"1鄰","STREET":"中山路","SECT":" ","MAREA":" ","LANE":" ","ALLEY":" ","HOUSE_NO":"２之３６號","E_COORD97":190068.98999999999,"N_COORD97":2582861.4900000002,"ADDRESS":"中山路２之３６號","OBJECTID":518411},"geometry":{"x":190068.99000000022,"y":2582861.4900000039}},{"attributes":{"ID":518439,"DIS_CODE":0,"TOWNNAME":"白河區","LI":"白河里","LIN":"1鄰","STREET":"中山路","SECT":" ","MAREA":" ","LANE":" ","ALLEY":" ","HOUSE_NO":"２之７號","E_COORD97":189960.87,"N_COORD97":2582704.3199999998,"ADDRESS":"中山路２之７號","OBJECTID":518412},"geometry":{"x":189960.87000000104,"y":2582704.3200000022}},{"attributes":{"ID":518440,"DIS_CODE":0,"TOWNNAME":"東區","LI":"大德里","LIN":"1鄰","STREET":"立德八路","SECT":" ","MAREA":" ","LANE":" ","ALLEY":" ","HOUSE_NO":"６３號","E_COORD97":169574.70000000001,"N_COORD97":2541951.7000000002,"ADDRESS":"立德八路６３號","OBJECTID":518413},"geometry":{"x":169574.70000000019,"y":2541951.7000000011}},{"attributes":{"ID":518441,"DIS_CODE":0,"TOWNNAME":"安南區","LI":"長安里","LIN":"1鄰","STREET":"長溪路","SECT":"三段","MAREA":" ","LANE":" ","ALLEY":" ","HOUSE_NO":"３７９號","E_COORD97":167670.97,"N_COORD97":2552013.4700000002,"ADDRESS":"長溪路三段３７９號","OBJECTID":518414},"geometry":{"x":167670.97000000067,"y":2552013.4700000025}},{"attributes":{"ID":518442,"DIS_CODE":0,"TOWNNAME":"安南區","LI":"長安里","LIN":"1鄰","STREET":"長溪路","SECT":"三段","MAREA":" ","LANE":" ","ALLEY":" ","HOUSE_NO":"３８１號","E_COORD97":167665.14000000001,"N_COORD97":2552016.3599999999,"ADDRESS":"長溪路三段３８１號","OBJECTID":518415},"geometry":{"x":167665.1400000006,"y":2552016.3600000013}},{"attributes":{"ID":518443,"DIS_CODE":0,"TOWNNAME":"安南區","LI":"長安里","LIN":"1鄰","STREET":"長溪路","SECT":"三段","MAREA":" ","LANE":" ","ALLEY":" ","HOUSE_NO":"３８３號","E_COORD97":167661.63,"N_COORD97":2552018.54,"ADDRESS":"長溪路三段３８３號","OBJECTID":518416},"geometry":{"x":167661.63000000082,"y":2552018.540000001}},{"attributes":{"ID":518444,"DIS_CODE":0,"TOWNNAME":"安南區","LI":"長安里","LIN":"1鄰","STREET":"長溪路","SECT":"三段","MAREA":" ","LANE":" ","ALLEY":" ","HOUSE_NO":"３８５號","E_COORD97":167660.03,"N_COORD97":2552024.1200000001,"ADDRESS":"長溪路三段３８５號","OBJECTID":518417},"geometry":{"x":167660.03000000026,"y":2552024.1200000029}},{"attributes":{"ID":518445,"DIS_CODE":0,"TOWNNAME":"安南區","LI":"長安里","LIN":"1鄰","STREET":"長溪路","SECT":"三段","MAREA":" ","LANE":" ","ALLEY":" ","HOUSE_NO":"３８７號","E_COORD97":167656.73999999999,"N_COORD97":2552026.8500000001,"ADDRESS":"長溪路三段３８７號","OBJECTID":518418},"geometry":{"x":167656.74000000022,"y":2552026.8500000015}},{"attributes":{"ID":518446,"DIS_CODE":0,"TOWNNAME":"安南區","LI":"長安里","LIN":"1鄰","STREET":"長溪路","SECT":"三段","MAREA":" ","LANE":" ","ALLEY":" ","HOUSE_NO":"３９７號","E_COORD97":167649.10000000001,"N_COORD97":2552039.0099999998,"ADDRESS":"長溪路三段３９７號","OBJECTID":518419},"geometry":{"x":167649.09999999963,"y":2552039.0100000035}},{"attributes":{"ID":518447,"DIS_CODE":0,"TOWNNAME":"安南區","LI":"長安里","LIN":"1鄰","STREET":"長溪路","SECT":"三段","MAREA":" ","LANE":" ","ALLEY":" ","HOUSE_NO":"３９９號","E_COORD97":167645.73999999999,"N_COORD97":2552042.79,"ADDRESS":"長溪路三段３９９號","OBJECTID":518420},"geometry":{"x":167645.74000000209,"y":2552042.7899999972}},{"attributes":{"ID":518448,"DIS_CODE":0,"TOWNNAME":"南區","LI":"竹溪里","LIN":"1鄰","STREET":"竹溪街","SECT":" ","MAREA":" ","LANE":" ","ALLEY":" ","HOUSE_NO":"６８號","E_COORD97":169011.01000000001,"N_COORD97":2542262.8999999999,"ADDRESS":"竹溪街６８號","OBJECTID":518421},"geometry":{"x":169011.00999999978,"y":2542262.9000000022}},{"attributes":{"ID":518449,"DIS_CODE":0,"TOWNNAME":"南區","LI":"竹溪里","LIN":"1鄰","STREET":"竹溪街","SECT":" ","MAREA":" ","LANE":" ","ALLEY":" ","HOUSE_NO":"１２６號","E_COORD97":168993.94,"N_COORD97":2542125.6099999999,"ADDRESS":"竹溪街１２６號","OBJECTID":518422},"geometry":{"x":168993.94000000227,"y":2542125.6100000013}},{"attributes":{"ID":518450,"DIS_CODE":0,"TOWNNAME":"南區","LI":"竹溪里","LIN":"1鄰","STREET":"竹溪街","SECT":" ","MAREA":" ","LANE":" ","ALLEY":" ","HOUSE_NO":"１２８號","E_COORD97":168998.38,"N_COORD97":2542121.6400000001,"ADDRESS":"竹溪街１２８號","OBJECTID":518423},"geometry":{"x":168998.37999999989,"y":2542121.6400000006}},{"attributes":{"ID":518451,"DIS_CODE":0,"TOWNNAME":"南區","LI":"竹溪里","LIN":"1鄰","STREET":"竹溪街","SECT":" ","MAREA":" ","LANE":" ","ALLEY":" ","HOUSE_NO":"１３０號","E_COORD97":169002.67000000001,"N_COORD97":2542119.1000000001,"ADDRESS":"竹溪街１３０號","OBJECTID":518424},"geometry":{"x":169002.67000000086,"y":2542119.1000000015}},{"attributes":{"ID":518452,"DIS_CODE":0,"TOWNNAME":"南區","LI":"竹溪里","LIN":"1鄰","STREET":"竹溪街","SECT":" ","MAREA":" ","LANE":" ","ALLEY":" ","HOUSE_NO":"１３２號","E_COORD97":169006,"N_COORD97":2542114.4900000002,"ADDRESS":"竹溪街１３２號","OBJECTID":518425},"geometry":{"x":169006,"y":2542114.4900000002}},{"attributes":{"ID":518453,"DIS_CODE":0,"TOWNNAME":"南區","LI":"竹溪里","LIN":"1鄰","STREET":"竹溪街","SECT":" ","MAREA":" ","LANE":" ","ALLEY":" ","HOUSE_NO":"１２２號","E_COORD97":168987.19,"N_COORD97":2542128.6200000001,"ADDRESS":"竹溪街１２２號","OBJECTID":518426},"geometry":{"x":168987.19000000227,"y":2542128.620000001}},{"attributes":{"ID":518454,"DIS_CODE":0,"TOWNNAME":"南區","LI":"廣州里","LIN":"1鄰","STREET":"福吉路","SECT":" ","MAREA":" ","LANE":" ","ALLEY":" ","HOUSE_NO":"３３號","E_COORD97":167359.60999999999,"N_COORD97":2542591.0800000001,"ADDRESS":"福吉路３３號","OBJECTID":518427},"geometry":{"x":167359.61000000034,"y":2542591.0800000019}},{"attributes":{"ID":518455,"DIS_CODE":0,"TOWNNAME":"南區","LI":"明亮里","LIN":"1鄰","STREET":"金華路","SECT":"一段","MAREA":" ","LANE":" ","ALLEY":" ","HOUSE_NO":"３００號","E_COORD97":166988.67999999999,"N_COORD97":2541063.8999999999,"ADDRESS":"金華路一段３００號","OBJECTID":518428},"geometry":{"x":166988.68000000063,"y":2541063.9000000004}},{"attributes":{"ID":518456,"DIS_CODE":0,"TOWNNAME":"南區","LI":"文華里","LIN":"1鄰","STREET":"永華路","SECT":"一段","MAREA":" ","LANE":" ","ALLEY":" ","HOUSE_NO":"２３５號","E_COORD97":167070.59,"N_COORD97":2543207.27,"ADDRESS":"永華路一段２３５號","OBJECTID":518429},"geometry":{"x":167070.59000000078,"y":2543207.2699999996}},{"attributes":{"ID":518457,"DIS_CODE":0,"TOWNNAME":"南區","LI":"大成里","LIN":"1鄰","STREET":"水交社路","SECT":" ","MAREA":" ","LANE":" ","ALLEY":" ","HOUSE_NO":"３６２號","E_COORD97":168055.51000000001,"N_COORD97":2542418.6099999999,"ADDRESS":"水交社路３６２號","OBJECTID":518430},"geometry":{"x":168055.51000000071,"y":2542418.6099999994}},{"attributes":{"ID":518458,"DIS_CODE":0,"TOWNNAME":"南區","LI":"竹溪里","LIN":"1鄰","STREET":"竹溪街","SECT":" ","MAREA":" ","LANE":" ","ALLEY":" ","HOUSE_NO":"９０號","E_COORD97":168975.5,"N_COORD97":2542162.9900000002,"ADDRESS":"竹溪街９０號","OBJECTID":518431},"geometry":{"x":168975.5,"y":2542162.9899999984}},{"attributes":{"ID":518459,"DIS_CODE":0,"TOWNNAME":"南區","LI":"竹溪里","LIN":"1鄰","STREET":"竹溪街","SECT":" ","MAREA":" ","LANE":" ","ALLEY":" ","HOUSE_NO":"８８號","E_COORD97":168975.97,"N_COORD97":2542176.0099999998,"ADDRESS":"竹溪街８８號","OBJECTID":518432},"geometry":{"x":168975.96999999881,"y":2542176.0099999979}},{"attributes":{"ID":518460,"DIS_CODE":0,"TOWNNAME":"南區","LI":"建南里","LIN":"1鄰","STREET":"興隆路","SECT":" ","MAREA":" ","LANE":" ","ALLEY":" ","HOUSE_NO":"２８號","E_COORD97":167430.45000000001,"N_COORD97":2539965.5099999998,"ADDRESS":"興隆路２８號","OBJECTID":518433},"geometry":{"x":167430.45000000019,"y":2539965.5099999979}},{"attributes":{"ID":518461,"DIS_CODE":0,"TOWNNAME":"東區","LI":"後甲里","LIN":"1鄰","STREET":"裕農路","SECT":" ","MAREA":" ","LANE":" ","ALLEY":" ","HOUSE_NO":"７９９號","E_COORD97":171958.23999999999,"N_COORD97":2543281.52,"ADDRESS":"裕農路７９９號","OBJECTID":518434},"geometry":{"x":171958.24000000209,"y":2543281.5200000014}},{"attributes":{"ID":518462,"DIS_CODE":0,"TOWNNAME":"東區","LI":"後甲里","LIN":"1鄰","STREET":"裕農路","SECT":" ","MAREA":" ","LANE":" ","ALLEY":" ","HOUSE_NO":"８０１號","E_COORD97":172001.48999999999,"N_COORD97":2543312.1000000001,"ADDRESS":"裕農路８０１號","OBJECTID":518435},"geometry":{"x":172001.49000000115,"y":2543312.1000000015}},{"attributes":{"ID":518463,"DIS_CODE":0,"TOWNNAME":"東區","LI":"裕農里","LIN":"1鄰","STREET":"裕農路","SECT":" ","MAREA":" ","LANE":" ","ALLEY":" ","HOUSE_NO":"１０９號","E_COORD97":170806.10000000001,"N_COORD97":2542972.27,"ADDRESS":"裕農路１０９號","OBJECTID":518436},"geometry":{"x":170806.10000000056,"y":2542972.2700000014}},{"attributes":{"ID":518464,"DIS_CODE":0,"TOWNNAME":"東區","LI":"裕農里","LIN":"1鄰","STREET":"裕農路","SECT":" ","MAREA":" ","LANE":" ","ALLEY":" ","HOUSE_NO":"１０１號","E_COORD97":170791.23999999999,"N_COORD97":2542964.54,"ADDRESS":"裕農路１０１號","OBJECTID":518437},"geometry":{"x":170791.24000000022,"y":2542964.5399999991}},{"attributes":{"ID":518465,"DIS_CODE":0,"TOWNNAME":"東區","LI":"裕農里","LIN":"1鄰","STREET":"裕農路","SECT":" ","MAREA":" ","LANE":" ","ALLEY":" ","HOUSE_NO":"１０５號","E_COORD97":170797.42999999999,"N_COORD97":2542970.73,"ADDRESS":"裕農路１０５號","OBJECTID":518438},"geometry":{"x":170797.43000000063,"y":2542970.7300000004}},{"attributes":{"ID":518466,"DIS_CODE":0,"TOWNNAME":"東區","LI":"裕農里","LIN":"1鄰","STREET":"裕農路","SECT":" ","MAREA":" ","LANE":" ","ALLEY":" ","HOUSE_NO":"１０７號","E_COORD97":170802.07000000001,"N_COORD97":2542970.4199999999,"ADDRESS":"裕農路１０７號","OBJECTID":518439},"geometry":{"x":170802.07000000123,"y":2542970.4200000037}},{"attributes":{"ID":518467,"DIS_CODE":0,"TOWNNAME":"東區","LI":"裕農里","LIN":"1鄰","STREET":"裕農路","SECT":" ","MAREA":" ","LANE":" ","ALLEY":" ","HOUSE_NO":"１１３號","E_COORD97":170813.84,"N_COORD97":2542974.4399999999,"ADDRESS":"裕農路１１３號","OBJECTID":518440},"geometry":{"x":170813.83999999985,"y":2542974.4400000013}},{"attributes":{"ID":518468,"DIS_CODE":0,"TOWNNAME":"東區","LI":"裕農里","LIN":"1鄰","STREET":"裕農路","SECT":" ","MAREA":" ","LANE":" ","ALLEY":" ","HOUSE_NO":"１１５號","E_COORD97":170817.85999999999,"N_COORD97":2542976.9100000001,"ADDRESS":"裕農路１１５號","OBJECTID":518441},"geometry":{"x":170817.86000000034,"y":2542976.9100000001}},{"attributes":{"ID":518469,"DIS_CODE":0,"TOWNNAME":"東區","LI":"裕農里","LIN":"1鄰","STREET":"裕農路","SECT":" ","MAREA":" ","LANE":" ","ALLEY":" ","HOUSE_NO":"１１７號","E_COORD97":170821.26000000001,"N_COORD97":2542980,"ADDRESS":"裕農路１１７號","OBJECTID":518442},"geometry":{"x":170821.25999999978,"y":2542980.0000000037}},{"attributes":{"ID":518470,"DIS_CODE":0,"TOWNNAME":"東區","LI":"裕農里","LIN":"1鄰","STREET":"裕農路","SECT":" ","MAREA":" ","LANE":" ","ALLEY":" ","HOUSE_NO":"１２５號","E_COORD97":170835.29999999999,"N_COORD97":2542986.9900000002,"ADDRESS":"裕農路１２５號","OBJECTID":518443},"geometry":{"x":170835.30000000168,"y":2542986.9900000039}},{"attributes":{"ID":518471,"DIS_CODE":0,"TOWNNAME":"東區","LI":"裕農里","LIN":"1鄰","STREET":"裕農路","SECT":" ","MAREA":" ","LANE":" ","ALLEY":" ","HOUSE_NO":"１２７號","E_COORD97":170839.73000000001,"N_COORD97":2542987.6499999999,"ADDRESS":"裕農路１２７號","OBJECTID":518444},"geometry":{"x":170839.73000000231,"y":2542987.6500000022}},{"attributes":{"ID":518472,"DIS_CODE":0,"TOWNNAME":"東區","LI":"裕農里","LIN":"1鄰","STREET":"裕農路","SECT":" ","MAREA":" ","LANE":" ","ALLEY":" ","HOUSE_NO":"１２９號","E_COORD97":170843.28,"N_COORD97":2542989.4199999999,"ADDRESS":"裕農路１２９號","OBJECTID":518445},"geometry":{"x":170843.28000000119,"y":2542989.4199999999}},{"attributes":{"ID":518473,"DIS_CODE":0,"TOWNNAME":"東區","LI":"裕農里","LIN":"1鄰","STREET":"裕農路","SECT":" ","MAREA":" ","LANE":" ","ALLEY":" ","HOUSE_NO":"１３５號","E_COORD97":170855.67999999999,"N_COORD97":2542994.73,"ADDRESS":"裕農路１３５號","OBJECTID":518446},"geometry":{"x":170855.6799999997,"y":2542994.7300000004}},{"attributes":{"ID":518474,"DIS_CODE":0,"TOWNNAME":"東區","LI":"裕農里","LIN":"1鄰","STREET":"裕農路","SECT":" ","MAREA":" ","LANE":" ","ALLEY":" ","HOUSE_NO":"９９號","E_COORD97":170787.22,"N_COORD97":2542961.7599999998,"ADDRESS":"裕農路９９號","OBJECTID":518447},"geometry":{"x":170787.22000000067,"y":2542961.7600000016}},{"attributes":{"ID":518475,"DIS_CODE":0,"TOWNNAME":"東區","LI":"裕農里","LIN":"1鄰","STREET":"裕農路","SECT":" ","MAREA":" ","LANE":" ","ALLEY":" ","HOUSE_NO":"１１９號","E_COORD97":170824.35999999999,"N_COORD97":2542981.8599999999,"ADDRESS":"裕農路１１９號","OBJECTID":518448},"geometry":{"x":170824.36000000034,"y":2542981.8600000013}},{"attributes":{"ID":518476,"DIS_CODE":0,"TOWNNAME":"東區","LI":"裕農里","LIN":"1鄰","STREET":"裕農路","SECT":" ","MAREA":" ","LANE":" ","ALLEY":" ","HOUSE_NO":"１１１號","E_COORD97":170809.5,"N_COORD97":2542972.27,"ADDRESS":"裕農路１１１號","OBJECTID":518449},"geometry":{"x":170809.5,"y":2542972.2700000014}},{"attributes":{"ID":518477,"DIS_CODE":0,"TOWNNAME":"東區","LI":"裕農里","LIN":"1鄰","STREET":"裕農路","SECT":" ","MAREA":" ","LANE":" ","ALLEY":" ","HOUSE_NO":"１２３號","E_COORD97":170831.76000000001,"N_COORD97":2542985.2200000002,"ADDRESS":"裕農路１２３號","OBJECTID":518450},"geometry":{"x":170831.75999999978,"y":2542985.2200000007}},{"attributes":{"ID":518478,"DIS_CODE":0,"TOWNNAME":"東區","LI":"大德里","LIN":"1鄰","STREET":"立德八路","SECT":" ","MAREA":" ","LANE":" ","ALLEY":" ","HOUSE_NO":"６５號","E_COORD97":169581.06,"N_COORD97":2541953.1699999999,"ADDRESS":"立德八路６５號","OBJECTID":518451},"geometry":{"x":169581.06000000052,"y":2541953.1700000018}},{"attributes":{"ID":518479,"DIS_CODE":0,"TOWNNAME":"東區","LI":"大德里","LIN":"1鄰","STREET":"立德八路","SECT":" ","MAREA":" ","LANE":" ","ALLEY":" ","HOUSE_NO":"５５號","E_COORD97":169557.09,"N_COORD97":2541947.3100000001,"ADDRESS":"立德八路５５號","OBJECTID":518452},"geometry":{"x":169557.09000000078,"y":2541947.3100000005}},{"attributes":{"ID":518480,"DIS_CODE":0,"TOWNNAME":"東區","LI":"大德里","LIN":"1鄰","STREET":"立德八路","SECT":" ","MAREA":" ","LANE":" ","ALLEY":" ","HOUSE_NO":"５７號","E_COORD97":169561.48999999999,"N_COORD97":2541948.77,"ADDRESS":"立德八路５７號","OBJECTID":518453},"geometry":{"x":169561.49000000115,"y":2541948.7699999996}},{"attributes":{"ID":518481,"DIS_CODE":0,"TOWNNAME":"東區","LI":"大德里","LIN":"1鄰","STREET":"立德八路","SECT":" ","MAREA":" ","LANE":" ","ALLEY":" ","HOUSE_NO":"５９號","E_COORD97":169566.63,"N_COORD97":2541949.5,"ADDRESS":"立德八路５９號","OBJECTID":518454},"geometry":{"x":169566.62999999896,"y":2541949.5000000037}},{"attributes":{"ID":518482,"DIS_CODE":0,"TOWNNAME":"東區","LI":"大德里","LIN":"1鄰","STREET":"立德八路","SECT":" ","MAREA":" ","LANE":" ","ALLEY":" ","HOUSE_NO":"６１號","E_COORD97":169570.29000000001,"N_COORD97":2541949.9900000002,"ADDRESS":"立德八路６１號","OBJECTID":518455},"geometry":{"x":169570.29000000004,"y":2541949.9900000021}},{"attributes":{"ID":518483,"DIS_CODE":0,"TOWNNAME":"東區","LI":"大德里","LIN":"1鄰","STREET":"立德八路","SECT":" ","MAREA":" ","LANE":" ","ALLEY":" ","HOUSE_NO":"６７號","E_COORD97":169585.20999999999,"N_COORD97":2541953.1699999999,"ADDRESS":"立德八路６７號","OBJECTID":518456},"geometry":{"x":169585.21000000089,"y":2541953.1700000018}},{"attributes":{"ID":518484,"DIS_CODE":0,"TOWNNAME":"東區","LI":"圍下里","LIN":"1鄰","STREET":"勝利路","SECT":" ","MAREA":" ","LANE":" ","ALLEY":" ","HOUSE_NO":"５１號","E_COORD97":169777.92000000001,"N_COORD97":2543408.54,"ADDRESS":"勝利路５１號","OBJECTID":518457},"geometry":{"x":169777.91999999993,"y":2543408.5399999991}},{"attributes":{"ID":518485,"DIS_CODE":0,"TOWNNAME":"新化區","LI":"清水里","LIN":"4鄰","STREET":"中山路","SECT":" ","MAREA":" ","LANE":" ","ALLEY":" ","HOUSE_NO":"４２０號","E_COORD97":178759.60999999999,"N_COORD97":2548418.25,"ADDRESS":"中山路４２０號","OBJECTID":518458},"geometry":{"x":178759.61000000034,"y":2548418.25}},{"attributes":{"ID":518486,"DIS_CODE":0,"TOWNNAME":"東區","LI":"後甲里","LIN":"1鄰","STREET":"裕農路","SECT":" ","MAREA":" ","LANE":" ","ALLEY":" ","HOUSE_NO":"７９７號","E_COORD97":171953.82000000001,"N_COORD97":2543279.3100000001,"ADDRESS":"裕農路７９７號","OBJECTID":518459},"geometry":{"x":171953.8200000003,"y":2543279.3100000005}},{"attributes":{"ID":518487,"DIS_CODE":0,"TOWNNAME":"新化區","LI":"東榮里","LIN":"25鄰","STREET":"中正路","SECT":" ","MAREA":" ","LANE":" ","ALLEY":" ","HOUSE_NO":"３１０號之７","E_COORD97":179215.95000000001,"N_COORD97":2548002.2599999998,"ADDRESS":"中正路３１０號之７","OBJECTID":518460},"geometry":{"x":179215.95000000112,"y":2548002.2599999998}},{"attributes":{"ID":518488,"DIS_CODE":0,"TOWNNAME":"新化區","LI":"護國里","LIN":"7鄰","STREET":"復興路","SECT":" ","MAREA":" ","LANE":" ","ALLEY":" ","HOUSE_NO":"３１１號","E_COORD97":179265.12,"N_COORD97":2548452.25,"ADDRESS":"復興路３１１號","OBJECTID":518461},"geometry":{"x":179265.11999999918,"y":2548452.25}},{"attributes":{"ID":518489,"DIS_CODE":0,"TOWNNAME":"東區","LI":"後甲里","LIN":"1鄰","STREET":"裕農路","SECT":" ","MAREA":" ","LANE":" ","ALLEY":" ","HOUSE_NO":"９８７號","E_COORD97":172845.72,"N_COORD97":2543472.1899999999,"ADDRESS":"裕農路９８７號","OBJECTID":518462},"geometry":{"x":172845.71999999974,"y":2543472.1899999995}},{"attributes":{"ID":518490,"DIS_CODE":0,"TOWNNAME":"東區","LI":"後甲里","LIN":"1鄰","STREET":"裕農路","SECT":" ","MAREA":" ","LANE":" ","ALLEY":" ","HOUSE_NO":"７９１號","E_COORD97":171941.82000000001,"N_COORD97":2543277.4199999999,"ADDRESS":"裕農路７９１號","OBJECTID":518463},"geometry":{"x":171941.8200000003,"y":2543277.4199999999}},{"attributes":{"ID":518491,"DIS_CODE":0,"TOWNNAME":"東區","LI":"裕農里","LIN":"1鄰","STREET":"裕農路","SECT":" ","MAREA":" ","LANE":" ","ALLEY":" ","HOUSE_NO":"１４１號","E_COORD97":170867.20000000001,"N_COORD97":2542999.3700000001,"ADDRESS":"裕農路１４１號","OBJECTID":518464},"geometry":{"x":170867.20000000112,"y":2542999.3700000029}},{"attributes":{"ID":518492,"DIS_CODE":0,"TOWNNAME":"東區","LI":"裕農里","LIN":"1鄰","STREET":"裕農路","SECT":" ","MAREA":" ","LANE":" ","ALLEY":" ","HOUSE_NO":"１４３號","E_COORD97":170871.41,"N_COORD97":2543000.9199999999,"ADDRESS":"裕農路１４３號","OBJECTID":518465},"geometry":{"x":170871.41000000015,"y":2543000.9200000037}},{"attributes":{"ID":518493,"DIS_CODE":0,"TOWNNAME":"東區","LI":"圍下里","LIN":"1鄰","STREET":"勝利路","SECT":" ","MAREA":" ","LANE":" ","ALLEY":" ","HOUSE_NO":"５９號","E_COORD97":169761.10000000001,"N_COORD97":2543427.7599999998,"ADDRESS":"勝利路５９號","OBJECTID":518466},"geometry":{"x":169761.09999999963,"y":2543427.7599999998}},{"attributes":{"ID":518494,"DIS_CODE":0,"TOWNNAME":"東區","LI":"圍下里","LIN":"1鄰","STREET":"勝利路","SECT":" ","MAREA":" ","LANE":" ","ALLEY":" ","HOUSE_NO":"５９號之１","E_COORD97":169762.57999999999,"N_COORD97":2543424,"ADDRESS":"勝利路５９號之１","OBJECTID":518467},"geometry":{"x":169762.58000000101,"y":2543423.9999999981}},{"attributes":{"ID":518495,"DIS_CODE":0,"TOWNNAME":"東區","LI":"裕農里","LIN":"1鄰","STREET":"裕農路","SECT":" ","MAREA":" ","LANE":" ","ALLEY":" ","HOUSE_NO":"８７號","E_COORD97":170758.73999999999,"N_COORD97":2542949.8999999999,"ADDRESS":"裕農路８７號","OBJECTID":518468},"geometry":{"x":170758.74000000115,"y":2542949.9000000004}},{"attributes":{"ID":518496,"DIS_CODE":0,"TOWNNAME":"東區","LI":"圍下里","LIN":"1鄰","STREET":"勝利路","SECT":" ","MAREA":" ","LANE":" ","ALLEY":" ","HOUSE_NO":"４５號之２","E_COORD97":169765.98000000001,"N_COORD97":2543376.1000000001,"ADDRESS":"勝利路４５號之２","OBJECTID":518469},"geometry":{"x":169765.98000000045,"y":2543376.1000000015}},{"attributes":{"ID":518497,"DIS_CODE":0,"TOWNNAME":"東區","LI":"圍下里","LIN":"1鄰","STREET":"勝利路","SECT":" ","MAREA":" ","LANE":" ","ALLEY":" ","HOUSE_NO":"４５號之１","E_COORD97":169782.12,"N_COORD97":2543374.2599999998,"ADDRESS":"勝利路４５號之１","OBJECTID":518470},"geometry":{"x":169782.12000000011,"y":2543374.2599999998}},{"attributes":{"ID":518498,"DIS_CODE":0,"TOWNNAME":"東區","LI":"南聖里","LIN":"1鄰","STREET":"裕農路","SECT":" ","MAREA":" ","LANE":" ","ALLEY":" ","HOUSE_NO":"７２０號","E_COORD97":171835.70000000001,"N_COORD97":2543230.0800000001,"ADDRESS":"裕農路７２０號","OBJECTID":518471},"geometry":{"x":171835.70000000019,"y":2543230.0800000001}},{"attributes":{"ID":518499,"DIS_CODE":0,"TOWNNAME":"東區","LI":"裕農里","LIN":"1鄰","STREET":"裕農路","SECT":" ","MAREA":" ","LANE":" ","ALLEY":" ","HOUSE_NO":"８５號","E_COORD97":170754.41,"N_COORD97":2542947.1200000001,"ADDRESS":"裕農路８５號","OBJECTID":518472},"geometry":{"x":170754.41000000015,"y":2542947.1200000029}},{"attributes":{"ID":518500,"DIS_CODE":0,"TOWNNAME":"安南區","LI":"新順里","LIN":"1鄰","STREET":"安豐五街","SECT":" ","MAREA":" ","LANE":" ","ALLEY":" ","HOUSE_NO":"７６號","E_COORD97":169556.89000000001,"N_COORD97":2549778.4700000002,"ADDRESS":"安豐五街７６號","OBJECTID":518473},"geometry":{"x":169556.8900000006,"y":2549778.4699999988}},{"attributes":{"ID":518501,"DIS_CODE":0,"TOWNNAME":"安南區","LI":"新順里","LIN":"1鄰","STREET":"安豐五街","SECT":" ","MAREA":" ","LANE":" ","ALLEY":" ","HOUSE_NO":"７０號","E_COORD97":169546.39999999999,"N_COORD97":2549771.98,"ADDRESS":"安豐五街７０號","OBJECTID":518474},"geometry":{"x":169546.40000000037,"y":2549771.9800000023}},{"attributes":{"ID":518502,"DIS_CODE":0,"TOWNNAME":"安南區","LI":"新順里","LIN":"1鄰","STREET":"安豐五街","SECT":" ","MAREA":" ","LANE":" ","ALLEY":" ","HOUSE_NO":"７２號","E_COORD97":169549.64999999999,"N_COORD97":2549774.2200000002,"ADDRESS":"安豐五街７２號","OBJECTID":518475},"geometry":{"x":169549.65000000037,"y":2549774.2200000025}},{"attributes":{"ID":518503,"DIS_CODE":0,"TOWNNAME":"安南區","LI":"新順里","LIN":"1鄰","STREET":"安豐五街","SECT":" ","MAREA":" ","LANE":" ","ALLEY":" ","HOUSE_NO":"７４號","E_COORD97":169553.39999999999,"N_COORD97":2549776.2200000002,"ADDRESS":"安豐五街７４號","OBJECTID":518476},"geometry":{"x":169553.40000000037,"y":2549776.2200000007}},{"attributes":{"ID":518504,"DIS_CODE":0,"TOWNNAME":"安南區","LI":"新順里","LIN":"1鄰","STREET":"安豐五街","SECT":" ","MAREA":" ","LANE":" ","ALLEY":" ","HOUSE_NO":"７８號","E_COORD97":169560.39000000001,"N_COORD97":2549780.46,"ADDRESS":"安豐五街７８號","OBJECTID":518477},"geometry":{"x":169560.3900000006,"y":2549780.4600000028}},{"attributes":{"ID":518505,"DIS_CODE":0,"TOWNNAME":"安南區","LI":"新順里","LIN":"1鄰","STREET":"安豐五街","SECT":" ","MAREA":" ","LANE":" ","ALLEY":" ","HOUSE_NO":"８０號","E_COORD97":169563.39000000001,"N_COORD97":2549782.96,"ADDRESS":"安豐五街８０號","OBJECTID":518478},"geometry":{"x":169563.3900000006,"y":2549782.9600000028}},{"attributes":{"ID":518506,"DIS_CODE":0,"TOWNNAME":"安南區","LI":"新順里","LIN":"1鄰","STREET":"安豐五街","SECT":" ","MAREA":" ","LANE":" ","ALLEY":" ","HOUSE_NO":"８２號","E_COORD97":169566.38,"N_COORD97":2549784.96,"ADDRESS":"安豐五街８２號","OBJECTID":518479},"geometry":{"x":169566.37999999989,"y":2549784.9600000009}},{"attributes":{"ID":518507,"DIS_CODE":0,"TOWNNAME":"安南區","LI":"新順里","LIN":"1鄰","STREET":"安豐五街","SECT":" ","MAREA":" ","LANE":" ","ALLEY":" ","HOUSE_NO":"８４號","E_COORD97":169569.63,"N_COORD97":2549786.9500000002,"ADDRESS":"安豐五街８４號","OBJECTID":518480},"geometry":{"x":169569.62999999989,"y":2549786.9499999993}},{"attributes":{"ID":518508,"DIS_CODE":0,"TOWNNAME":"安南區","LI":"總頭里","LIN":"1鄰","STREET":"長溪路","SECT":"二段","MAREA":" ","LANE":" ","ALLEY":" ","HOUSE_NO":"４７２號","E_COORD97":168270.57999999999,"N_COORD97":2550374.4100000001,"ADDRESS":"長溪路二段４７２號","OBJECTID":518481},"geometry":{"x":168270.58000000194,"y":2550374.4100000001}},{"attributes":{"ID":518509,"DIS_CODE":0,"TOWNNAME":"安南區","LI":"總頭里","LIN":"1鄰","STREET":"長溪路","SECT":"二段","MAREA":" ","LANE":" ","ALLEY":" ","HOUSE_NO":"４７６號","E_COORD97":168269.47,"N_COORD97":2550378.8100000001,"ADDRESS":"長溪路二段４７６號","OBJECTID":518482},"geometry":{"x":168269.47000000067,"y":2550378.8100000005}},{"attributes":{"ID":518510,"DIS_CODE":0,"TOWNNAME":"安南區","LI":"總頭里","LIN":"1鄰","STREET":"長溪路","SECT":"二段","MAREA":" ","LANE":" ","ALLEY":" ","HOUSE_NO":"４７８號","E_COORD97":168268.37,"N_COORD97":2550382.6600000001,"ADDRESS":"長溪路二段４７８號","OBJECTID":518483},"geometry":{"x":168268.37000000011,"y":2550382.6600000001}},{"attributes":{"ID":518511,"DIS_CODE":0,"TOWNNAME":"安南區","LI":"總頭里","LIN":"1鄰","STREET":"長溪路","SECT":"二段","MAREA":" ","LANE":" ","ALLEY":" ","HOUSE_NO":"４８０號","E_COORD97":168268.37,"N_COORD97":2550387.0699999998,"ADDRESS":"長溪路二段４８０號","OBJECTID":518484},"geometry":{"x":168268.37000000011,"y":2550387.0700000003}},{"attributes":{"ID":518512,"DIS_CODE":0,"TOWNNAME":"安南區","LI":"淵中里","LIN":"1鄰","STREET":"安中路","SECT":"三段","MAREA":" ","LANE":" ","ALLEY":" ","HOUSE_NO":"３３１號之２","E_COORD97":165623.85999999999,"N_COORD97":2549895.79,"ADDRESS":"安中路三段３３１號之２","OBJECTID":518485},"geometry":{"x":165623.86000000034,"y":2549895.7899999991}},{"attributes":{"ID":518513,"DIS_CODE":0,"TOWNNAME":"安南區","LI":"梅花里","LIN":"1鄰","STREET":"北安路","SECT":"二段","MAREA":" ","LANE":" ","ALLEY":" ","HOUSE_NO":"３５５號之２","E_COORD97":168353.56,"N_COORD97":2548409,"ADDRESS":"北安路二段３５５號之２","OBJECTID":518486},"geometry":{"x":168353.56000000052,"y":2548409.0000000019}},{"attributes":{"ID":518514,"DIS_CODE":0,"TOWNNAME":"安南區","LI":"城北里","LIN":"1鄰","STREET":"安中路","SECT":"六段","MAREA":" ","LANE":" ","ALLEY":" ","HOUSE_NO":"７１２號","E_COORD97":160690.85999999999,"N_COORD97":2551745.3399999999,"ADDRESS":"安中路六段７１２號","OBJECTID":518487},"geometry":{"x":160690.86000000034,"y":2551745.3400000036}},{"attributes":{"ID":518515,"DIS_CODE":0,"TOWNNAME":"安南區","LI":"城北里","LIN":"1鄰","STREET":"安中路","SECT":"六段","MAREA":" ","LANE":" ","ALLEY":" ","HOUSE_NO":"７１４號","E_COORD97":160688.82000000001,"N_COORD97":2551749.2799999998,"ADDRESS":"安中路六段７１４號","OBJECTID":518488},"geometry":{"x":160688.82000000123,"y":2551749.2800000012}},{"attributes":{"ID":518516,"DIS_CODE":0,"TOWNNAME":"安南區","LI":"城北里","LIN":"1鄰","STREET":"安中路","SECT":"六段","MAREA":" ","LANE":" ","ALLEY":" ","HOUSE_NO":"７１６號","E_COORD97":160687.35999999999,"N_COORD97":2551752.9199999999,"ADDRESS":"安中路六段７１６號","OBJECTID":518489},"geometry":{"x":160687.36000000034,"y":2551752.9200000018}},{"attributes":{"ID":518517,"DIS_CODE":0,"TOWNNAME":"安南區","LI":"城北里","LIN":"1鄰","STREET":"安中路","SECT":"六段","MAREA":" ","LANE":" ","ALLEY":" ","HOUSE_NO":"７１８號","E_COORD97":160685.32000000001,"N_COORD97":2551756.71,"ADDRESS":"安中路六段７１８號","OBJECTID":518490},"geometry":{"x":160685.32000000123,"y":2551756.7100000009}},{"attributes":{"ID":518518,"DIS_CODE":0,"TOWNNAME":"安南區","LI":"淵中里","LIN":"1鄰","STREET":"樂安二街","SECT":" ","MAREA":" ","LANE":" ","ALLEY":" ","HOUSE_NO":"１７６號","E_COORD97":165601.17000000001,"N_COORD97":2549806.4300000002,"ADDRESS":"樂安二街１７６號","OBJECTID":518491},"geometry":{"x":165601.16999999993,"y":2549806.4300000016}},{"attributes":{"ID":518519,"DIS_CODE":0,"TOWNNAME":"安南區","LI":"淵中里","LIN":"1鄰","STREET":"樂安二街","SECT":" ","MAREA":" ","LANE":" ","ALLEY":" ","HOUSE_NO":"１７８號","E_COORD97":165597.01000000001,"N_COORD97":2549807.6600000001,"ADDRESS":"樂安二街１７８號","OBJECTID":518492},"geometry":{"x":165597.00999999978,"y":2549807.660000002}},{"attributes":{"ID":518520,"DIS_CODE":0,"TOWNNAME":"安南區","LI":"淵中里","LIN":"1鄰","STREET":"樂安二街","SECT":" ","MAREA":" ","LANE":" ","ALLEY":" ","HOUSE_NO":"１８０號","E_COORD97":165592.63,"N_COORD97":2549808.73,"ADDRESS":"樂安二街１８０號","OBJECTID":518493},"geometry":{"x":165592.62999999989,"y":2549808.7300000023}},{"attributes":{"ID":518521,"DIS_CODE":0,"TOWNNAME":"安南區","LI":"淵中里","LIN":"1鄰","STREET":"樂安二街","SECT":" ","MAREA":" ","LANE":" ","ALLEY":" ","HOUSE_NO":"１８２號","E_COORD97":165588.78,"N_COORD97":2549810.5800000001,"ADDRESS":"樂安二街１８２號","OBJECTID":518494},"geometry":{"x":165588.78000000026,"y":2549810.5800000001}},{"attributes":{"ID":518522,"DIS_CODE":0,"TOWNNAME":"安南區","LI":"長安里","LIN":"1鄰","STREET":"長溪路","SECT":"三段","MAREA":" ","LANE":" ","ALLEY":" ","HOUSE_NO":"３９３號","E_COORD97":167653.79999999999,"N_COORD97":2552030.6600000001,"ADDRESS":"長溪路三段３９３號","OBJECTID":518495},"geometry":{"x":167653.80000000075,"y":2552030.6600000001}},{"attributes":{"ID":518523,"DIS_CODE":0,"TOWNNAME":"安南區","LI":"理想里","LIN":"1鄰","STREET":"同安路","SECT":" ","MAREA":" ","LANE":" ","ALLEY":" ","HOUSE_NO":"７０號","E_COORD97":166918.39000000001,"N_COORD97":2548903.6400000001,"ADDRESS":"同安路７０號","OBJECTID":518496},"geometry":{"x":166918.38999999966,"y":2548903.6400000025}},{"attributes":{"ID":518524,"DIS_CODE":0,"TOWNNAME":"善化區","LI":"坐駕里","LIN":"1鄰","STREET":"光明路","SECT":" ","MAREA":" ","LANE":" ","ALLEY":" ","HOUSE_NO":"３１號","E_COORD97":177870.91,"N_COORD97":2558994.75,"ADDRESS":"光明路３１號","OBJECTID":518497},"geometry":{"x":177870.91000000015,"y":2558994.7500000019}},{"attributes":{"ID":518525,"DIS_CODE":0,"TOWNNAME":"善化區","LI":"坐駕里","LIN":"1鄰","STREET":"中山路","SECT":" ","MAREA":" ","LANE":" ","ALLEY":" ","HOUSE_NO":"２８５號之４","E_COORD97":177861.26999999999,"N_COORD97":2559069.52,"ADDRESS":"中山路２８５號之４","OBJECTID":518498},"geometry":{"x":177861.26999999955,"y":2559069.5199999996}},{"attributes":{"ID":518526,"DIS_CODE":0,"TOWNNAME":"善化區","LI":"文昌里","LIN":"1鄰","STREET":"中興路","SECT":" ","MAREA":" ","LANE":" ","ALLEY":" ","HOUSE_NO":"１６３號","E_COORD97":177283.25,"N_COORD97":2559036.5,"ADDRESS":"中興路１６３號","OBJECTID":518499},"geometry":{"x":177283.25000000093,"y":2559036.5}},{"attributes":{"ID":518527,"DIS_CODE":0,"TOWNNAME":"善化區","LI":"坐駕里","LIN":"1鄰","STREET":"光明路","SECT":" ","MAREA":" ","LANE":" ","ALLEY":" ","HOUSE_NO":"７號","E_COORD97":177915.97,"N_COORD97":2559029.5,"ADDRESS":"光明路７號","OBJECTID":518500},"geometry":{"x":177915.96999999974,"y":2559029.5}},{"attributes":{"ID":518528,"DIS_CODE":0,"TOWNNAME":"善化區","LI":"小新里","LIN":"1鄰","STREET":"成功路","SECT":" ","MAREA":" ","LANE":" ","ALLEY":" ","HOUSE_NO":"３１號","E_COORD97":180071.48000000001,"N_COORD97":2558560.25,"ADDRESS":"成功路３１號","OBJECTID":518501},"geometry":{"x":180071.48000000045,"y":2558560.2499999981}},{"attributes":{"ID":518529,"DIS_CODE":0,"TOWNNAME":"善化區","LI":"坐駕里","LIN":"1鄰","STREET":"光明路","SECT":" ","MAREA":" ","LANE":" ","ALLEY":" ","HOUSE_NO":"３號","E_COORD97":177924.06,"N_COORD97":2559034.75,"ADDRESS":"光明路３號","OBJECTID":518502},"geometry":{"x":177924.05999999959,"y":2559034.75}},{"attributes":{"ID":518530,"DIS_CODE":0,"TOWNNAME":"善化區","LI":"東關里","LIN":"1鄰","STREET":"中山路","SECT":" ","MAREA":" ","LANE":" ","ALLEY":" ","HOUSE_NO":"３４６號","E_COORD97":177646.28,"N_COORD97":2559102.5,"ADDRESS":"中山路３４６號","OBJECTID":518503},"geometry":{"x":177646.28000000026,"y":2559102.5000000019}},{"attributes":{"ID":518531,"DIS_CODE":0,"TOWNNAME":"善化區","LI":"小新里","LIN":"1鄰","STREET":"成功路","SECT":" ","MAREA":" ","LANE":" ","ALLEY":" ","HOUSE_NO":"６１號","E_COORD97":180010.32000000001,"N_COORD97":2558578.5,"ADDRESS":"成功路６１號","OBJECTID":518504},"geometry":{"x":180010.32000000123,"y":2558578.5}},{"attributes":{"ID":518532,"DIS_CODE":0,"TOWNNAME":"善化區","LI":"坐駕里","LIN":"1鄰","STREET":"中山路","SECT":" ","MAREA":" ","LANE":" ","ALLEY":" ","HOUSE_NO":"２８１號之８","E_COORD97":177892.25,"N_COORD97":2559063.52,"ADDRESS":"中山路２８１號之８","OBJECTID":518505},"geometry":{"x":177892.25,"y":2559063.5200000033}},{"attributes":{"ID":518533,"DIS_CODE":0,"TOWNNAME":"善化區","LI":"坐駕里","LIN":"1鄰","STREET":"中山路","SECT":" ","MAREA":" ","LANE":" ","ALLEY":" ","HOUSE_NO":"２８５號之２","E_COORD97":177867.57999999999,"N_COORD97":2559067.2599999998,"ADDRESS":"中山路２８５號之２","OBJECTID":518506},"geometry":{"x":177867.58000000101,"y":2559067.2599999998}},{"attributes":{"ID":518534,"DIS_CODE":0,"TOWNNAME":"善化區","LI":"東關里","LIN":"1鄰","STREET":"中正路","SECT":" ","MAREA":" ","LANE":" ","ALLEY":" ","HOUSE_NO":"６４３號","E_COORD97":177637.95000000001,"N_COORD97":2559511.75,"ADDRESS":"中正路６４３號","OBJECTID":518507},"geometry":{"x":177637.95000000112,"y":2559511.75}},{"attributes":{"ID":518535,"DIS_CODE":0,"TOWNNAME":"善化區","LI":"南關里","LIN":"1鄰","STREET":"平等路","SECT":" ","MAREA":" ","LANE":" ","ALLEY":" ","HOUSE_NO":"８０號","E_COORD97":177122.17000000001,"N_COORD97":2558976.75,"ADDRESS":"平等路８０號","OBJECTID":518508},"geometry":{"x":177122.17000000086,"y":2558976.75}},{"attributes":{"ID":518536,"DIS_CODE":0,"TOWNNAME":"善化區","LI":"東關里","LIN":"1鄰","STREET":"中正路","SECT":" ","MAREA":" ","LANE":" ","ALLEY":" ","HOUSE_NO":"６１１號","E_COORD97":177641.87,"N_COORD97":2559443,"ADDRESS":"中正路６１１號","OBJECTID":518509},"geometry":{"x":177641.87000000104,"y":2559443}},{"attributes":{"ID":518537,"DIS_CODE":0,"TOWNNAME":"善化區","LI":"坐駕里","LIN":"1鄰","STREET":"中山路","SECT":" ","MAREA":" ","LANE":" ","ALLEY":" ","HOUSE_NO":"２７７號","E_COORD97":177912.92000000001,"N_COORD97":2559065.75,"ADDRESS":"中山路２７７號","OBJECTID":518510},"geometry":{"x":177912.91999999993,"y":2559065.7500000037}},{"attributes":{"ID":518538,"DIS_CODE":0,"TOWNNAME":"善化區","LI":"東關里","LIN":"1鄰","STREET":"中山路","SECT":" ","MAREA":" ","LANE":" ","ALLEY":" ","HOUSE_NO":"３４０號","E_COORD97":177660,"N_COORD97":2559101.75,"ADDRESS":"中山路３４０號","OBJECTID":518511},"geometry":{"x":177660,"y":2559101.75}},{"attributes":{"ID":518539,"DIS_CODE":0,"TOWNNAME":"善化區","LI":"文正里","LIN":"1鄰","STREET":"進學路","SECT":" ","MAREA":" ","LANE":" ","ALLEY":" ","HOUSE_NO":"６３號","E_COORD97":177162.76000000001,"N_COORD97":2559486,"ADDRESS":"進學路６３號","OBJECTID":518512},"geometry":{"x":177162.75999999978,"y":2559486.0000000019}},{"attributes":{"ID":518540,"DIS_CODE":0,"TOWNNAME":"善化區","LI":"坐駕里","LIN":"1鄰","STREET":"光明路","SECT":" ","MAREA":" ","LANE":" ","ALLEY":" ","HOUSE_NO":"４３號","E_COORD97":177849,"N_COORD97":2558977.5,"ADDRESS":"光明路４３號","OBJECTID":518513},"geometry":{"x":177849.00000000093,"y":2558977.5000000019}},{"attributes":{"ID":518541,"DIS_CODE":0,"TOWNNAME":"善化區","LI":"文昌里","LIN":"1鄰","STREET":"中興路","SECT":" ","MAREA":" ","LANE":" ","ALLEY":" ","HOUSE_NO":"１６１號","E_COORD97":177287.66,"N_COORD97":2559036,"ADDRESS":"中興路１６１號","OBJECTID":518514},"geometry":{"x":177287.66000000015,"y":2559036}},{"attributes":{"ID":518542,"DIS_CODE":0,"TOWNNAME":"善化區","LI":"小新里","LIN":"1鄰","STREET":"成功路","SECT":" ","MAREA":" ","LANE":" ","ALLEY":" ","HOUSE_NO":"５７號","E_COORD97":180018.57000000001,"N_COORD97":2558576.25,"ADDRESS":"成功路５７號","OBJECTID":518515},"geometry":{"x":180018.57000000216,"y":2558576.25}},{"attributes":{"ID":518543,"DIS_CODE":0,"TOWNNAME":"善化區","LI":"小新里","LIN":"1鄰","STREET":"成功路","SECT":" ","MAREA":" ","LANE":" ","ALLEY":" ","HOUSE_NO":"２１號之５","E_COORD97":180103.47,"N_COORD97":2558553.02,"ADDRESS":"成功路２１號之５","OBJECTID":518516},"geometry":{"x":180103.47000000067,"y":2558553.0200000014}},{"attributes":{"ID":518544,"DIS_CODE":0,"TOWNNAME":"安南區","LI":"新順里","LIN":"1鄰","STREET":"育安街","SECT":" ","MAREA":" ","LANE":" ","ALLEY":" ","HOUSE_NO":"５１號","E_COORD97":169598.10999999999,"N_COORD97":2549770.98,"ADDRESS":"育安街５１號","OBJECTID":518517},"geometry":{"x":169598.11000000127,"y":2549770.9800000004}},{"attributes":{"ID":518545,"DIS_CODE":0,"TOWNNAME":"善化區","LI":"小新里","LIN":"1鄰","STREET":"成功路","SECT":" ","MAREA":" ","LANE":" ","ALLEY":" ","HOUSE_NO":"２１之４號","E_COORD97":180113.41,"N_COORD97":2558547.77,"ADDRESS":"成功路２１之４號","OBJECTID":518518},"geometry":{"x":180113.41000000108,"y":2558547.7700000014}},{"attributes":{"ID":518546,"DIS_CODE":0,"TOWNNAME":"善化區","LI":"小新里","LIN":"1鄰","STREET":"成功路","SECT":" ","MAREA":" ","LANE":" ","ALLEY":" ","HOUSE_NO":"１７號","E_COORD97":180145.60999999999,"N_COORD97":2558538.25,"ADDRESS":"成功路１７號","OBJECTID":518519},"geometry":{"x":180145.61000000127,"y":2558538.2500000019}},{"attributes":{"ID":518547,"DIS_CODE":0,"TOWNNAME":"善化區","LI":"小新里","LIN":"1鄰","STREET":"成功路","SECT":" ","MAREA":" ","LANE":" ","ALLEY":" ","HOUSE_NO":"４５號","E_COORD97":180042.20999999999,"N_COORD97":2558568.75,"ADDRESS":"成功路４５號","OBJECTID":518520},"geometry":{"x":180042.20999999996,"y":2558568.7500000019}},{"attributes":{"ID":518548,"DIS_CODE":0,"TOWNNAME":"善化區","LI":"小新里","LIN":"1鄰","STREET":"成功路","SECT":" ","MAREA":" ","LANE":" ","ALLEY":" ","HOUSE_NO":"４７號","E_COORD97":180037.95999999999,"N_COORD97":2558570,"ADDRESS":"成功路４７號","OBJECTID":518521},"geometry":{"x":180037.96000000089,"y":2558570.0000000019}},{"attributes":{"ID":518549,"DIS_CODE":0,"TOWNNAME":"安南區","LI":"新順里","LIN":"1鄰","STREET":"育安街","SECT":" ","MAREA":" ","LANE":" ","ALLEY":" ","HOUSE_NO":"５３號","E_COORD97":169598.10999999999,"N_COORD97":2549775.4700000002,"ADDRESS":"育安街５３號","OBJECTID":518522},"geometry":{"x":169598.11000000127,"y":2549775.4700000044}},{"attributes":{"ID":518550,"DIS_CODE":0,"TOWNNAME":"新化區","LI":"太平里","LIN":"1鄰","STREET":"仁愛街","SECT":" ","MAREA":" ","LANE":" ","ALLEY":" ","HOUSE_NO":"１４號","E_COORD97":179179.98000000001,"N_COORD97":2548617.25,"ADDRESS":"仁愛街１４號","OBJECTID":518523},"geometry":{"x":179179.97999999952,"y":2548617.2500000019}},{"attributes":{"ID":518551,"DIS_CODE":0,"TOWNNAME":"善化區","LI":"小新里","LIN":"1鄰","STREET":"成功路","SECT":" ","MAREA":" ","LANE":" ","ALLEY":" ","HOUSE_NO":"２號","E_COORD97":180081.13,"N_COORD97":2558607.25,"ADDRESS":"成功路２號","OBJECTID":518524},"geometry":{"x":180081.13000000082,"y":2558607.25}},{"attributes":{"ID":518552,"DIS_CODE":0,"TOWNNAME":"善化區","LI":"坐駕里","LIN":"1鄰","STREET":"光明路","SECT":" ","MAREA":" ","LANE":" ","ALLEY":" ","HOUSE_NO":"１３號","E_COORD97":177904.56,"N_COORD97":2559021,"ADDRESS":"光明路１３號","OBJECTID":518525},"geometry":{"x":177904.56000000052,"y":2559021.0000000019}},{"attributes":{"ID":518553,"DIS_CODE":0,"TOWNNAME":"善化區","LI":"小新里","LIN":"1鄰","STREET":"成功路","SECT":" ","MAREA":" ","LANE":" ","ALLEY":" ","HOUSE_NO":"５５號","E_COORD97":180022.57000000001,"N_COORD97":2558574.7400000002,"ADDRESS":"成功路５５號","OBJECTID":518526},"geometry":{"x":180022.57000000123,"y":2558574.7400000021}},{"attributes":{"ID":518554,"DIS_CODE":0,"TOWNNAME":"善化區","LI":"小新里","LIN":"1鄰","STREET":"成功路","SECT":" ","MAREA":" ","LANE":" ","ALLEY":" ","HOUSE_NO":"５９號","E_COORD97":180014.45999999999,"N_COORD97":2558577.5,"ADDRESS":"成功路５９號","OBJECTID":518527},"geometry":{"x":180014.46000000089,"y":2558577.5}},{"attributes":{"ID":518555,"DIS_CODE":0,"TOWNNAME":"善化區","LI":"小新里","LIN":"1鄰","STREET":"成功路","SECT":" ","MAREA":" ","LANE":" ","ALLEY":" ","HOUSE_NO":"２１號之１","E_COORD97":180130.95999999999,"N_COORD97":2558543.02,"ADDRESS":"成功路２１號之１","OBJECTID":518528},"geometry":{"x":180130.96000000089,"y":2558543.0199999996}},{"attributes":{"ID":518556,"DIS_CODE":0,"TOWNNAME":"善化區","LI":"坐駕里","LIN":"1鄰","STREET":"光明路","SECT":" ","MAREA":" ","LANE":" ","ALLEY":" ","HOUSE_NO":"２９號","E_COORD97":177874.91,"N_COORD97":2558997.5,"ADDRESS":"光明路２９號","OBJECTID":518529},"geometry":{"x":177874.91000000201,"y":2558997.5000000019}},{"attributes":{"ID":518557,"DIS_CODE":0,"TOWNNAME":"善化區","LI":"小新里","LIN":"1鄰","STREET":"成功路","SECT":" ","MAREA":" ","LANE":" ","ALLEY":" ","HOUSE_NO":"３９號","E_COORD97":180053.95999999999,"N_COORD97":2558565.25,"ADDRESS":"成功路３９號","OBJECTID":518530},"geometry":{"x":180053.95999999996,"y":2558565.2500000019}},{"attributes":{"ID":518558,"DIS_CODE":0,"TOWNNAME":"善化區","LI":"小新里","LIN":"1鄰","STREET":"成功路","SECT":" ","MAREA":" ","LANE":" ","ALLEY":" ","HOUSE_NO":"４９號","E_COORD97":180034.28,"N_COORD97":2558571.25,"ADDRESS":"成功路４９號","OBJECTID":518531},"geometry":{"x":180034.28000000119,"y":2558571.2500000019}},{"attributes":{"ID":518559,"DIS_CODE":0,"TOWNNAME":"善化區","LI":"小新里","LIN":"1鄰","STREET":"成功路","SECT":" ","MAREA":" ","LANE":" ","ALLEY":" ","HOUSE_NO":"１９號","E_COORD97":180140.60999999999,"N_COORD97":2558539.75,"ADDRESS":"成功路１９號","OBJECTID":518532},"geometry":{"x":180140.61000000127,"y":2558539.75}},{"attributes":{"ID":518560,"DIS_CODE":0,"TOWNNAME":"善化區","LI":"小新里","LIN":"1鄰","STREET":"成功路","SECT":" ","MAREA":" ","LANE":" ","ALLEY":" ","HOUSE_NO":"２２號","E_COORD97":179935.26000000001,"N_COORD97":2558635.25,"ADDRESS":"成功路２２號","OBJECTID":518533},"geometry":{"x":179935.26000000164,"y":2558635.2500000037}},{"attributes":{"ID":518561,"DIS_CODE":0,"TOWNNAME":"善化區","LI":"小新里","LIN":"1鄰","STREET":"成功路","SECT":" ","MAREA":" ","LANE":" ","ALLEY":" ","HOUSE_NO":"４３號","E_COORD97":180046.16,"N_COORD97":2558567.7400000002,"ADDRESS":"成功路４３號","OBJECTID":518534},"geometry":{"x":180046.16000000015,"y":2558567.7400000039}},{"attributes":{"ID":518562,"DIS_CODE":0,"TOWNNAME":"安南區","LI":"新順里","LIN":"1鄰","STREET":"育安街","SECT":" ","MAREA":" ","LANE":" ","ALLEY":" ","HOUSE_NO":"５５號","E_COORD97":169598.60999999999,"N_COORD97":2549779.71,"ADDRESS":"育安街５５號","OBJECTID":518535},"geometry":{"x":169598.61000000127,"y":2549779.7100000009}},{"attributes":{"ID":518563,"DIS_CODE":0,"TOWNNAME":"安南區","LI":"新順里","LIN":"1鄰","STREET":"安豐五街","SECT":" ","MAREA":" ","LANE":" ","ALLEY":" ","HOUSE_NO":"８６號","E_COORD97":169577.62,"N_COORD97":2549787.7000000002,"ADDRESS":"安豐五街８６號","OBJECTID":518536},"geometry":{"x":169577.62000000104,"y":2549787.6999999993}},{"attributes":{"ID":518564,"DIS_CODE":0,"TOWNNAME":"安南區","LI":"新順里","LIN":"1鄰","STREET":"安豐五街","SECT":" ","MAREA":" ","LANE":" ","ALLEY":" ","HOUSE_NO":"８８號","E_COORD97":169582.37,"N_COORD97":2549786.9500000002,"ADDRESS":"安豐五街８８號","OBJECTID":518537},"geometry":{"x":169582.37000000197,"y":2549786.9499999993}},{"attributes":{"ID":518565,"DIS_CODE":0,"TOWNNAME":"安南區","LI":"新順里","LIN":"1鄰","STREET":"育安街","SECT":" ","MAREA":" ","LANE":" ","ALLEY":" ","HOUSE_NO":"４９號","E_COORD97":169598.10999999999,"N_COORD97":2549766.7400000002,"ADDRESS":"育安街４９號","OBJECTID":518538},"geometry":{"x":169598.11000000127,"y":2549766.7400000021}},{"attributes":{"ID":518566,"DIS_CODE":0,"TOWNNAME":"安南區","LI":"新順里","LIN":"1鄰","STREET":"育安街","SECT":" ","MAREA":" ","LANE":" ","ALLEY":" ","HOUSE_NO":"５７號","E_COORD97":169598.60999999999,"N_COORD97":2549783.46,"ADDRESS":"育安街５７號","OBJECTID":518539},"geometry":{"x":169598.61000000127,"y":2549783.4600000028}},{"attributes":{"ID":518567,"DIS_CODE":0,"TOWNNAME":"安南區","LI":"新順里","LIN":"1鄰","STREET":"育安街","SECT":" ","MAREA":" ","LANE":" ","ALLEY":" ","HOUSE_NO":"５９號","E_COORD97":169597.35999999999,"N_COORD97":2549787.9500000002,"ADDRESS":"育安街５９號","OBJECTID":518540},"geometry":{"x":169597.36000000034,"y":2549787.9500000011}},{"attributes":{"ID":518568,"DIS_CODE":0,"TOWNNAME":"安南區","LI":"新順里","LIN":"1鄰","STREET":"安豐五街","SECT":" ","MAREA":" ","LANE":" ","ALLEY":" ","HOUSE_NO":"３９號","E_COORD97":169532.66,"N_COORD97":2549782.46,"ADDRESS":"安豐五街３９號","OBJECTID":518541},"geometry":{"x":169532.66000000015,"y":2549782.4600000046}},{"attributes":{"ID":518569,"DIS_CODE":0,"TOWNNAME":"官田區","LI":"二鎮里","LIN":"1鄰","STREET":"成功街","SECT":" ","MAREA":" ","LANE":" ","ALLEY":" ","HOUSE_NO":"５０號","E_COORD97":181517.53,"N_COORD97":2567650.1099999999,"ADDRESS":"成功街５０號","OBJECTID":518542},"geometry":{"x":181517.53000000119,"y":2567650.1099999994}},{"attributes":{"ID":518570,"DIS_CODE":0,"TOWNNAME":"官田區","LI":"二鎮里","LIN":"1鄰","STREET":"成功街","SECT":" ","MAREA":" ","LANE":" ","ALLEY":" ","HOUSE_NO":"５１號","E_COORD97":181567.35999999999,"N_COORD97":2567604.2000000002,"ADDRESS":"成功街５１號","OBJECTID":518543},"geometry":{"x":181567.36000000034,"y":2567604.1999999993}},{"attributes":{"ID":518571,"DIS_CODE":0,"TOWNNAME":"官田區","LI":"二鎮里","LIN":"1鄰","STREET":"成功街","SECT":" ","MAREA":" ","LANE":" ","ALLEY":" ","HOUSE_NO":"５５號","E_COORD97":181546.10000000001,"N_COORD97":2567707.3900000001,"ADDRESS":"成功街５５號","OBJECTID":518544},"geometry":{"x":181546.09999999963,"y":2567707.3900000043}},{"attributes":{"ID":518572,"DIS_CODE":0,"TOWNNAME":"官田區","LI":"二鎮里","LIN":"1鄰","STREET":"成功街","SECT":" ","MAREA":" ","LANE":" ","ALLEY":" ","HOUSE_NO":"５６號","E_COORD97":181498.95000000001,"N_COORD97":2567670.9199999999,"ADDRESS":"成功街５６號","OBJECTID":518545},"geometry":{"x":181498.94999999925,"y":2567670.9199999999}},{"attributes":{"ID":518573,"DIS_CODE":0,"TOWNNAME":"官田區","LI":"二鎮里","LIN":"1鄰","STREET":"成功街","SECT":" ","MAREA":" ","LANE":" ","ALLEY":" ","HOUSE_NO":"５７號","E_COORD97":181566.34,"N_COORD97":2567735.3300000001,"ADDRESS":"成功街５７號","OBJECTID":518546},"geometry":{"x":181566.34000000078,"y":2567735.3300000019}},{"attributes":{"ID":518574,"DIS_CODE":0,"TOWNNAME":"官田區","LI":"二鎮里","LIN":"1鄰","STREET":"成功街","SECT":" ","MAREA":" ","LANE":" ","ALLEY":" ","HOUSE_NO":"５９號","E_COORD97":181560.01999999999,"N_COORD97":2567761.4399999999,"ADDRESS":"成功街５９號","OBJECTID":518547},"geometry":{"x":181560.01999999955,"y":2567761.4400000013}},{"attributes":{"ID":518575,"DIS_CODE":0,"TOWNNAME":"官田區","LI":"二鎮里","LIN":"1鄰","STREET":"成功街","SECT":" ","MAREA":" ","LANE":" ","ALLEY":" ","HOUSE_NO":"６０號","E_COORD97":181494.70999999999,"N_COORD97":2567793.52,"ADDRESS":"成功街６０號","OBJECTID":518548},"geometry":{"x":181494.70999999996,"y":2567793.5200000033}},{"attributes":{"ID":518576,"DIS_CODE":0,"TOWNNAME":"官田區","LI":"二鎮里","LIN":"1鄰","STREET":"成功街","SECT":" ","MAREA":" ","LANE":" ","ALLEY":" ","HOUSE_NO":"６１號","E_COORD97":181554.23999999999,"N_COORD97":2567795.71,"ADDRESS":"成功街６１號","OBJECTID":518549},"geometry":{"x":181554.24000000022,"y":2567795.7100000009}},{"attributes":{"ID":518577,"DIS_CODE":0,"TOWNNAME":"官田區","LI":"二鎮里","LIN":"1鄰","STREET":"成功街","SECT":" ","MAREA":" ","LANE":" ","ALLEY":" ","HOUSE_NO":"６２號","E_COORD97":181465.04999999999,"N_COORD97":2567767.75,"ADDRESS":"成功街６２號","OBJECTID":518550},"geometry":{"x":181465.04999999981,"y":2567767.75}},{"attributes":{"ID":518578,"DIS_CODE":0,"TOWNNAME":"官田區","LI":"二鎮里","LIN":"1鄰","STREET":"成功街","SECT":" ","MAREA":" ","LANE":" ","ALLEY":" ","HOUSE_NO":"６３號","E_COORD97":181550.17999999999,"N_COORD97":2567875.7200000002,"ADDRESS":"成功街６３號","OBJECTID":518551},"geometry":{"x":181550.18000000063,"y":2567875.7200000025}},{"attributes":{"ID":518579,"DIS_CODE":0,"TOWNNAME":"官田區","LI":"二鎮里","LIN":"1鄰","STREET":"成功街","SECT":" ","MAREA":" ","LANE":" ","ALLEY":" ","HOUSE_NO":"６７號","E_COORD97":181474.23999999999,"N_COORD97":2567876.9900000002,"ADDRESS":"成功街６７號","OBJECTID":518552},"geometry":{"x":181474.24000000022,"y":2567876.9900000021}},{"attributes":{"ID":518580,"DIS_CODE":0,"TOWNNAME":"官田區","LI":"二鎮里","LIN":"1鄰","STREET":"成功街","SECT":" ","MAREA":" ","LANE":" ","ALLEY":" ","HOUSE_NO":"６８號","E_COORD97":181384.64999999999,"N_COORD97":2567790.8999999999,"ADDRESS":"成功街６８號","OBJECTID":518553},"geometry":{"x":181384.6500000013,"y":2567790.9000000004}},{"attributes":{"ID":518581,"DIS_CODE":0,"TOWNNAME":"官田區","LI":"二鎮里","LIN":"1鄰","STREET":"成功街","SECT":" ","MAREA":" ","LANE":" ","ALLEY":" ","HOUSE_NO":"６９號","E_COORD97":181416.48000000001,"N_COORD97":2567861.7999999998,"ADDRESS":"成功街６９號","OBJECTID":518554},"geometry":{"x":181416.48000000138,"y":2567861.8000000026}},{"attributes":{"ID":518582,"DIS_CODE":0,"TOWNNAME":"官田區","LI":"二鎮里","LIN":"1鄰","STREET":"成功街","SECT":" ","MAREA":" ","LANE":" ","ALLEY":" ","HOUSE_NO":"７１號","E_COORD97":181367.20000000001,"N_COORD97":2567870.8500000001,"ADDRESS":"成功街７１號","OBJECTID":518555},"geometry":{"x":181367.20000000112,"y":2567870.8500000015}},{"attributes":{"ID":518583,"DIS_CODE":0,"TOWNNAME":"官田區","LI":"二鎮里","LIN":"1鄰","STREET":"成功街","SECT":" ","MAREA":" ","LANE":" ","ALLEY":" ","HOUSE_NO":"７２號","E_COORD97":181299.23999999999,"N_COORD97":2567749.3199999998,"ADDRESS":"成功街７２號","OBJECTID":518556},"geometry":{"x":181299.24000000115,"y":2567749.3200000022}},{"attributes":{"ID":518584,"DIS_CODE":0,"TOWNNAME":"官田區","LI":"二鎮里","LIN":"1鄰","STREET":"成功街","SECT":" ","MAREA":" ","LANE":" ","ALLEY":" ","HOUSE_NO":"７５號","E_COORD97":181320.67999999999,"N_COORD97":2567889.1400000001,"ADDRESS":"成功街７５號","OBJECTID":518557},"geometry":{"x":181320.68000000156,"y":2567889.1400000025}},{"attributes":{"ID":518585,"DIS_CODE":0,"TOWNNAME":"官田區","LI":"二鎮里","LIN":"1鄰","STREET":"成功街","SECT":" ","MAREA":" ","LANE":" ","ALLEY":" ","HOUSE_NO":"８１號","E_COORD97":181246.01999999999,"N_COORD97":2567820.21,"ADDRESS":"成功街８１號","OBJECTID":518558},"geometry":{"x":181246.02000000048,"y":2567820.2100000009}},{"attributes":{"ID":518586,"DIS_CODE":0,"TOWNNAME":"官田區","LI":"二鎮里","LIN":"1鄰","STREET":"成功街","SECT":" ","MAREA":" ","LANE":" ","ALLEY":" ","HOUSE_NO":"７８號","E_COORD97":181215.38,"N_COORD97":2567754.7400000002,"ADDRESS":"成功街７８號","OBJECTID":518559},"geometry":{"x":181215.37999999989,"y":2567754.7400000002}},{"attributes":{"ID":518587,"DIS_CODE":0,"TOWNNAME":"官田區","LI":"二鎮里","LIN":"1鄰","STREET":"成功街","SECT":" ","MAREA":" ","LANE":" ","ALLEY":" ","HOUSE_NO":"７號","E_COORD97":180834.17999999999,"N_COORD97":2567499.1200000001,"ADDRESS":"成功街７號","OBJECTID":518560},"geometry":{"x":180834.18000000156,"y":2567499.120000001}},{"attributes":{"ID":518588,"DIS_CODE":0,"TOWNNAME":"官田區","LI":"二鎮里","LIN":"1鄰","STREET":"成功街","SECT":" ","MAREA":" ","LANE":" ","ALLEY":" ","HOUSE_NO":"８１號","E_COORD97":181183.39999999999,"N_COORD97":2567807.4300000002,"ADDRESS":"成功街８１號","OBJECTID":518561},"geometry":{"x":181183.4000000013,"y":2567807.4299999997}},{"attributes":{"ID":518589,"DIS_CODE":0,"TOWNNAME":"官田區","LI":"二鎮里","LIN":"1鄰","STREET":"成功街","SECT":" ","MAREA":" ","LANE":" ","ALLEY":" ","HOUSE_NO":"８４號","E_COORD97":181079.42000000001,"N_COORD97":2567741.6499999999,"ADDRESS":"成功街８４號","OBJECTID":518562},"geometry":{"x":181079.41999999993,"y":2567741.6500000004}},{"attributes":{"ID":518590,"DIS_CODE":0,"TOWNNAME":"官田區","LI":"二鎮里","LIN":"1鄰","STREET":"成功街","SECT":" ","MAREA":" ","LANE":" ","ALLEY":" ","HOUSE_NO":"８５號","E_COORD97":181159.39999999999,"N_COORD97":2567818.8900000001,"ADDRESS":"成功街８５號","OBJECTID":518563},"geometry":{"x":181159.4000000013,"y":2567818.8900000006}},{"attributes":{"ID":518591,"DIS_CODE":0,"TOWNNAME":"官田區","LI":"二鎮里","LIN":"1鄰","STREET":"成功街","SECT":" ","MAREA":" ","LANE":" ","ALLEY":" ","HOUSE_NO":"８７號","E_COORD97":181125.13,"N_COORD97":2567857.1800000002,"ADDRESS":"成功街８７號","OBJECTID":518564},"geometry":{"x":181125.13000000082,"y":2567857.1800000034}},{"attributes":{"ID":518592,"DIS_CODE":0,"TOWNNAME":"官田區","LI":"二鎮里","LIN":"1鄰","STREET":"成功街","SECT":" ","MAREA":" ","LANE":" ","ALLEY":" ","HOUSE_NO":"８９號","E_COORD97":181096,"N_COORD97":2567823.3399999999,"ADDRESS":"成功街８９號","OBJECTID":518565},"geometry":{"x":181096,"y":2567823.3400000017}},{"attributes":{"ID":518593,"DIS_CODE":0,"TOWNNAME":"仁德區","LI":"上崙里","LIN":"1鄰","STREET":"德崙路","SECT":" ","MAREA":" ","LANE":" ","ALLEY":" ","HOUSE_NO":"１５５號","E_COORD97":173559.82000000001,"N_COORD97":2538379.0099999998,"ADDRESS":"德崙路１５５號","OBJECTID":518566},"geometry":{"x":173559.82000000216,"y":2538379.0100000035}},{"attributes":{"ID":518594,"DIS_CODE":0,"TOWNNAME":"仁德區","LI":"大甲里","LIN":"1鄰","STREET":"行大街","SECT":" ","MAREA":" ","LANE":" ","ALLEY":" ","HOUSE_NO":"２２３號","E_COORD97":169889.57000000001,"N_COORD97":2535088.7400000002,"ADDRESS":"行大街２２３號","OBJECTID":518567},"geometry":{"x":169889.56999999937,"y":2535088.7400000002}},{"attributes":{"ID":518595,"DIS_CODE":0,"TOWNNAME":"仁德區","LI":"土庫里","LIN":"1鄰","STREET":"大發路","SECT":" ","MAREA":" ","LANE":" ","ALLEY":" ","HOUSE_NO":"５８號","E_COORD97":173240.41,"N_COORD97":2542730.5099999998,"ADDRESS":"大發路５８號","OBJECTID":518568},"geometry":{"x":173240.41000000201,"y":2542730.5100000016}},{"attributes":{"ID":518596,"DIS_CODE":0,"TOWNNAME":"仁德區","LI":"一甲里","LIN":"1鄰","STREET":"中正路","SECT":"三段","MAREA":" ","LANE":" ","ALLEY":" ","HOUSE_NO":"１２１號","E_COORD97":173419.67999999999,"N_COORD97":2541708.02,"ADDRESS":"中正路三段１２１號","OBJECTID":518569},"geometry":{"x":173419.68000000063,"y":2541708.0200000033}},{"attributes":{"ID":518597,"DIS_CODE":0,"TOWNNAME":"仁德區","LI":"土庫里","LIN":"1鄰","STREET":"太乙十二街","SECT":" ","MAREA":" ","LANE":" ","ALLEY":" ","HOUSE_NO":"２１號","E_COORD97":173153.92999999999,"N_COORD97":2542776.5,"ADDRESS":"太乙十二街２１號","OBJECTID":518570},"geometry":{"x":173153.93000000063,"y":2542776.5000000037}},{"attributes":{"ID":518598,"DIS_CODE":0,"TOWNNAME":"仁德區","LI":"土庫里","LIN":"1鄰","STREET":"太乙十二街","SECT":" ","MAREA":" ","LANE":" ","ALLEY":" ","HOUSE_NO":"３８號","E_COORD97":173173,"N_COORD97":2542779.7599999998,"ADDRESS":"太乙十二街３８號","OBJECTID":518571},"geometry":{"x":173173,"y":2542779.7599999998}},{"attributes":{"ID":518599,"DIS_CODE":0,"TOWNNAME":"仁德區","LI":"土庫里","LIN":"1鄰","STREET":"大發路","SECT":" ","MAREA":" ","LANE":" ","ALLEY":" ","HOUSE_NO":"６３號","E_COORD97":173219.29000000001,"N_COORD97":2542768.2599999998,"ADDRESS":"大發路６３號","OBJECTID":518572},"geometry":{"x":173219.29000000097,"y":2542768.2600000016}},{"attributes":{"ID":518600,"DIS_CODE":0,"TOWNNAME":"仁德區","LI":"土庫里","LIN":"1鄰","STREET":"太乙十二街","SECT":" ","MAREA":" ","LANE":" ","ALLEY":" ","HOUSE_NO":"１２號","E_COORD97":173162.57000000001,"N_COORD97":2542670,"ADDRESS":"太乙十二街１２號","OBJECTID":518573},"geometry":{"x":173162.5700000003,"y":2542670}},{"attributes":{"ID":518601,"DIS_CODE":0,"TOWNNAME":"仁德區","LI":"土庫里","LIN":"1鄰","STREET":"大發路","SECT":" ","MAREA":" ","LANE":" ","ALLEY":" ","HOUSE_NO":"２０號","E_COORD97":173231.84,"N_COORD97":2542605.77,"ADDRESS":"大發路２０號","OBJECTID":518574},"geometry":{"x":173231.83999999985,"y":2542605.7700000014}},{"attributes":{"ID":518602,"DIS_CODE":0,"TOWNNAME":"仁德區","LI":"仁義里","LIN":"1鄰","STREET":"義林六街","SECT":" ","MAREA":" ","LANE":" ","ALLEY":" ","HOUSE_NO":"９５號","E_COORD97":174200.72,"N_COORD97":2541077.0099999998,"ADDRESS":"義林六街９５號","OBJECTID":518575},"geometry":{"x":174200.7200000016,"y":2541077.0099999998}},{"attributes":{"ID":518603,"DIS_CODE":0,"TOWNNAME":"仁德區","LI":"仁愛里","LIN":"1鄰","STREET":"二空路","SECT":" ","MAREA":" ","LANE":" ","ALLEY":" ","HOUSE_NO":"２３３號","E_COORD97":170346.56,"N_COORD97":2540251.04,"ADDRESS":"二空路２３３號","OBJECTID":518576},"geometry":{"x":170346.55999999959,"y":2540251.040000001}},{"attributes":{"ID":518604,"DIS_CODE":0,"TOWNNAME":"仁德區","LI":"土庫里","LIN":"1鄰","STREET":"太乙十二街","SECT":" ","MAREA":" ","LANE":" ","ALLEY":" ","HOUSE_NO":"６號","E_COORD97":173157.26000000001,"N_COORD97":2542608.7599999998,"ADDRESS":"太乙十二街６號","OBJECTID":518577},"geometry":{"x":173157.25999999978,"y":2542608.7600000016}},{"attributes":{"ID":518605,"DIS_CODE":0,"TOWNNAME":"仁德區","LI":"土庫里","LIN":"1鄰","STREET":"太乙十二街","SECT":" ","MAREA":" ","LANE":" ","ALLEY":" ","HOUSE_NO":"１號","E_COORD97":173139.37,"N_COORD97":2542594.2599999998,"ADDRESS":"太乙十二街１號","OBJECTID":518578},"geometry":{"x":173139.37000000104,"y":2542594.2599999998}},{"attributes":{"ID":518606,"DIS_CODE":0,"TOWNNAME":"仁德區","LI":"土庫里","LIN":"1鄰","STREET":"大發路","SECT":" ","MAREA":" ","LANE":" ","ALLEY":" ","HOUSE_NO":"３７號","E_COORD97":173217.37,"N_COORD97":2542680.52,"ADDRESS":"大發路３７號","OBJECTID":518579},"geometry":{"x":173217.37000000104,"y":2542680.5199999996}},{"attributes":{"ID":518607,"DIS_CODE":0,"TOWNNAME":"仁德區","LI":"土庫里","LIN":"1鄰","STREET":"太乙路","SECT":" ","MAREA":" ","LANE":" ","ALLEY":" ","HOUSE_NO":"１０１號","E_COORD97":173060.95000000001,"N_COORD97":2542668.75,"ADDRESS":"太乙路１０１號","OBJECTID":518580},"geometry":{"x":173060.95000000112,"y":2542668.75}},{"attributes":{"ID":518608,"DIS_CODE":0,"TOWNNAME":"仁德區","LI":"土庫里","LIN":"1鄰","STREET":"大發路","SECT":" ","MAREA":" ","LANE":" ","ALLEY":" ","HOUSE_NO":"１６２號","E_COORD97":173265.56,"N_COORD97":2543044.2599999998,"ADDRESS":"大發路１６２號","OBJECTID":518581},"geometry":{"x":173265.55999999959,"y":2543044.2599999998}},{"attributes":{"ID":518609,"DIS_CODE":0,"TOWNNAME":"仁德區","LI":"土庫里","LIN":"1鄰","STREET":"太乙十二街","SECT":" ","MAREA":" ","LANE":" ","ALLEY":" ","HOUSE_NO":"２０號","E_COORD97":173165.23999999999,"N_COORD97":2542702.0099999998,"ADDRESS":"太乙十二街２０號","OBJECTID":518582},"geometry":{"x":173165.24000000209,"y":2542702.0100000016}},{"attributes":{"ID":518610,"DIS_CODE":0,"TOWNNAME":"仁德區","LI":"土庫里","LIN":"1鄰","STREET":"太乙十二街","SECT":" ","MAREA":" ","LANE":" ","ALLEY":" ","HOUSE_NO":"３２號","E_COORD97":173172.29000000001,"N_COORD97":2542755,"ADDRESS":"太乙十二街３２號","OBJECTID":518583},"geometry":{"x":173172.29000000097,"y":2542755}},{"attributes":{"ID":518611,"DIS_CODE":0,"TOWNNAME":"仁德區","LI":"土庫里","LIN":"1鄰","STREET":"太乙十二街","SECT":" ","MAREA":" ","LANE":" ","ALLEY":" ","HOUSE_NO":"５號","E_COORD97":173140.92999999999,"N_COORD97":2542631.5,"ADDRESS":"太乙十二街５號","OBJECTID":518584},"geometry":{"x":173140.9299999997,"y":2542631.5000000019}},{"attributes":{"ID":518612,"DIS_CODE":0,"TOWNNAME":"仁德區","LI":"土庫里","LIN":"1鄰","STREET":"太乙十二街","SECT":" ","MAREA":" ","LANE":" ","ALLEY":" ","HOUSE_NO":"１７號","E_COORD97":173151.34,"N_COORD97":2542747.5,"ADDRESS":"太乙十二街１７號","OBJECTID":518585},"geometry":{"x":173151.34000000078,"y":2542747.5000000019}},{"attributes":{"ID":518613,"DIS_CODE":0,"TOWNNAME":"仁德區","LI":"仁義里","LIN":"1鄰","STREET":"義林路","SECT":" ","MAREA":" ","LANE":" ","ALLEY":" ","HOUSE_NO":"１４９之１號","E_COORD97":174424.51000000001,"N_COORD97":2540643.5499999998,"ADDRESS":"義林路１４９之１號","OBJECTID":518586},"geometry":{"x":174424.51000000071,"y":2540643.5500000007}},{"attributes":{"ID":518614,"DIS_CODE":0,"TOWNNAME":"仁德區","LI":"土庫里","LIN":"1鄰","STREET":"太乙十二街","SECT":" ","MAREA":" ","LANE":" ","ALLEY":" ","HOUSE_NO":"３３號","E_COORD97":173159.20000000001,"N_COORD97":2542869,"ADDRESS":"太乙十二街３３號","OBJECTID":518587},"geometry":{"x":173159.20000000112,"y":2542869.0000000019}},{"attributes":{"ID":518615,"DIS_CODE":0,"TOWNNAME":"仁德區","LI":"土庫里","LIN":"1鄰","STREET":"太乙路","SECT":" ","MAREA":" ","LANE":" ","ALLEY":" ","HOUSE_NO":"１０５號","E_COORD97":173063.70000000001,"N_COORD97":2542704.7599999998,"ADDRESS":"太乙路１０５號","OBJECTID":518588},"geometry":{"x":173063.69999999925,"y":2542704.7600000016}},{"attributes":{"ID":518616,"DIS_CODE":0,"TOWNNAME":"仁德區","LI":"仁義里","LIN":"1鄰","STREET":"義林路","SECT":" ","MAREA":" ","LANE":" ","ALLEY":" ","HOUSE_NO":"１５３號","E_COORD97":174420.29000000001,"N_COORD97":2540677.2599999998,"ADDRESS":"義林路１５３號","OBJECTID":518589},"geometry":{"x":174420.29000000004,"y":2540677.2600000016}},{"attributes":{"ID":518617,"DIS_CODE":0,"TOWNNAME":"仁德區","LI":"土庫里","LIN":"1鄰","STREET":"太乙十二街","SECT":" ","MAREA":" ","LANE":" ","ALLEY":" ","HOUSE_NO":"１４號","E_COORD97":173162.54999999999,"N_COORD97":2542678.0099999998,"ADDRESS":"太乙十二街１４號","OBJECTID":518590},"geometry":{"x":173162.54999999981,"y":2542678.0100000035}},{"attributes":{"ID":518618,"DIS_CODE":0,"TOWNNAME":"仁德區","LI":"土庫里","LIN":"1鄰","STREET":"太乙十二街","SECT":" ","MAREA":" ","LANE":" ","ALLEY":" ","HOUSE_NO":"１５號","E_COORD97":173151.34,"N_COORD97":2542747.5,"ADDRESS":"太乙十二街１５號","OBJECTID":518591},"geometry":{"x":173151.34000000078,"y":2542747.5000000019}},{"attributes":{"ID":518619,"DIS_CODE":0,"TOWNNAME":"仁德區","LI":"土庫里","LIN":"1鄰","STREET":"太乙路","SECT":" ","MAREA":" ","LANE":" ","ALLEY":" ","HOUSE_NO":"１１３號","E_COORD97":173064.20000000001,"N_COORD97":2542758.25,"ADDRESS":"太乙路１１３號","OBJECTID":518592},"geometry":{"x":173064.20000000112,"y":2542758.2500000019}},{"attributes":{"ID":518620,"DIS_CODE":0,"TOWNNAME":"仁德區","LI":"仁愛里","LIN":"1鄰","STREET":"二空路","SECT":" ","MAREA":" ","LANE":" ","ALLEY":" ","HOUSE_NO":"２２５號","E_COORD97":170343.54000000001,"N_COORD97":2540235.0499999998,"ADDRESS":"二空路２２５號","OBJECTID":518593},"geometry":{"x":170343.54000000004,"y":2540235.0500000026}},{"attributes":{"ID":518621,"DIS_CODE":0,"TOWNNAME":"仁德區","LI":"土庫里","LIN":"1鄰","STREET":"太乙十二街","SECT":" ","MAREA":" ","LANE":" ","ALLEY":" ","HOUSE_NO":"３０號","E_COORD97":173172.76999999999,"N_COORD97":2542746.25,"ADDRESS":"太乙十二街３０號","OBJECTID":518594},"geometry":{"x":173172.77000000142,"y":2542746.25}},{"attributes":{"ID":518622,"DIS_CODE":0,"TOWNNAME":"仁德區","LI":"土庫里","LIN":"1鄰","STREET":"太乙十二街","SECT":" ","MAREA":" ","LANE":" ","ALLEY":" ","HOUSE_NO":"２６號","E_COORD97":173167.25,"N_COORD97":2542726.0099999998,"ADDRESS":"太乙十二街２６號","OBJECTID":518595},"geometry":{"x":173167.25000000093,"y":2542726.0100000016}},{"attributes":{"ID":518623,"DIS_CODE":0,"TOWNNAME":"仁德區","LI":"仁義里","LIN":"1鄰","STREET":"義林六街","SECT":" ","MAREA":" ","LANE":" ","ALLEY":" ","HOUSE_NO":"８９號","E_COORD97":174217.32000000001,"N_COORD97":2541065.27,"ADDRESS":"義林六街８９號","OBJECTID":518596},"geometry":{"x":174217.3200000003,"y":2541065.2699999977}},{"attributes":{"ID":518624,"DIS_CODE":0,"TOWNNAME":"仁德區","LI":"土庫里","LIN":"1鄰","STREET":"太乙十二街","SECT":" ","MAREA":" ","LANE":" ","ALLEY":" ","HOUSE_NO":"７號","E_COORD97":173141.63,"N_COORD97":2542642,"ADDRESS":"太乙十二街７號","OBJECTID":518597},"geometry":{"x":173141.62999999989,"y":2542642.0000000019}},{"attributes":{"ID":518625,"DIS_CODE":0,"TOWNNAME":"仁德區","LI":"仁義里","LIN":"1鄰","STREET":"義林六街","SECT":" ","MAREA":" ","LANE":" ","ALLEY":" ","HOUSE_NO":"１０３號","E_COORD97":174190.42999999999,"N_COORD97":2541073.2599999998,"ADDRESS":"義林六街１０３號","OBJECTID":518598},"geometry":{"x":174190.4299999997,"y":2541073.2600000016}},{"attributes":{"ID":518626,"DIS_CODE":0,"TOWNNAME":"仁德區","LI":"仁義里","LIN":"1鄰","STREET":"義林三街","SECT":" ","MAREA":" ","LANE":" ","ALLEY":" ","HOUSE_NO":"３６號","E_COORD97":174401.22,"N_COORD97":2540967.2599999998,"ADDRESS":"義林三街３６號","OBJECTID":518599},"geometry":{"x":174401.22000000067,"y":2540967.2599999979}},{"attributes":{"ID":518627,"DIS_CODE":0,"TOWNNAME":"仁德區","LI":"土庫里","LIN":"1鄰","STREET":"太乙路","SECT":" ","MAREA":" ","LANE":" ","ALLEY":" ","HOUSE_NO":"１１９號","E_COORD97":173051.56,"N_COORD97":2542807.0099999998,"ADDRESS":"太乙路１１９號","OBJECTID":518600},"geometry":{"x":173051.55999999959,"y":2542807.0100000035}}]}