{"displayFieldName":"TOWNNAME","fieldAliases":{"ID":"ID","DIS_CODE":"DIS_CODE","TOWNNAME":"TOWNNAME","LI":"LI","LIN":"LIN","STREET":"STREET","SECT":"SECT","MAREA":"MAREA","LANE":"LANE","ALLEY":"ALLEY","HOUSE_NO":"HOUSE_NO","E_COORD97":"E_COORD97","N_COORD97":"N_COORD97","ADDRESS":"ADDRESS","OBJECTID":"OBJECTID"},"geometryType":"esriGeometryPoint","spatialReference":{"wkid":102443,"latestWkid":3826},"fields":[{"name":"ID","type":"esriFieldTypeDouble","alias":"ID"},{"name":"DIS_CODE","type":"esriFieldTypeInteger","alias":"DIS_CODE"},{"name":"TOWNNAME","type":"esriFieldTypeString","alias":"TOWNNAME","length":8},{"name":"LI","type":"esriFieldTypeString","alias":"LI","length":8},{"name":"LIN","type":"esriFieldTypeString","alias":"LIN","length":12},{"name":"STREET","type":"esriFieldTypeString","alias":"STREET","length":20},{"name":"SECT","type":"esriFieldTypeString","alias":"SECT","length":8},{"name":"MAREA","type":"esriFieldTypeString","alias":"MAREA","length":12},{"name":"LANE","type":"esriFieldTypeString","alias":"LANE","length":10},{"name":"ALLEY","type":"esriFieldTypeString","alias":"ALLEY","length":10},{"name":"HOUSE_NO","type":"esriFieldTypeString","alias":"HOUSE_NO","length":20},{"name":"E_COORD97","type":"esriFieldTypeDouble","alias":"E_COORD97"},{"name":"N_COORD97","type":"esriFieldTypeDouble","alias":"N_COORD97"},{"name":"ADDRESS","type":"esriFieldTypeString","alias":"ADDRESS","length":50},{"name":"OBJECTID","type":"esriFieldTypeOID","alias":"OBJECTID"}],"features":[{"attributes":{"ID":452826,"DIS_CODE":0,"TOWNNAME":"安南區","LI":"安富里","LIN":"26鄰","STREET":"郡安路","SECT":"五段","MAREA":" ","LANE":"１７８巷","ALLEY":" ","HOUSE_NO":"７號","E_COORD97":167531.44,"N_COORD97":2547717.5699999998,"ADDRESS":"郡安路五段１７８巷７號","OBJECTID":452801},"geometry":{"x":167531.44000000134,"y":2547717.5700000022}},{"attributes":{"ID":452827,"DIS_CODE":0,"TOWNNAME":"安南區","LI":"安富里","LIN":"26鄰","STREET":"郡安路","SECT":"五段","MAREA":" ","LANE":"１７８巷","ALLEY":" ","HOUSE_NO":"９號","E_COORD97":167532.13,"N_COORD97":2547714.1400000001,"ADDRESS":"郡安路五段１７８巷９號","OBJECTID":452802},"geometry":{"x":167532.12999999989,"y":2547714.1400000025}},{"attributes":{"ID":452828,"DIS_CODE":0,"TOWNNAME":"安南區","LI":"溪墘里","LIN":"26鄰","STREET":"安寧街","SECT":" ","MAREA":" ","LANE":"５１巷","ALLEY":" ","HOUSE_NO":"１０號","E_COORD97":167371.94,"N_COORD97":2547002.5499999998,"ADDRESS":"安寧街５１巷１０號","OBJECTID":452803},"geometry":{"x":167371.94000000134,"y":2547002.5500000026}},{"attributes":{"ID":452829,"DIS_CODE":0,"TOWNNAME":"安南區","LI":"溪墘里","LIN":"26鄰","STREET":"安寧街","SECT":" ","MAREA":" ","LANE":"５１巷","ALLEY":" ","HOUSE_NO":"１１號","E_COORD97":167371.06,"N_COORD97":2546978.0899999999,"ADDRESS":"安寧街５１巷１１號","OBJECTID":452804},"geometry":{"x":167371.05999999959,"y":2546978.0900000017}},{"attributes":{"ID":452830,"DIS_CODE":0,"TOWNNAME":"安南區","LI":"溪墘里","LIN":"26鄰","STREET":"安寧街","SECT":" ","MAREA":" ","LANE":"５１巷","ALLEY":" ","HOUSE_NO":"１２號","E_COORD97":167366.19,"N_COORD97":2547001.6499999999,"ADDRESS":"安寧街５１巷１２號","OBJECTID":452805},"geometry":{"x":167366.19000000041,"y":2547001.6500000022}},{"attributes":{"ID":452831,"DIS_CODE":0,"TOWNNAME":"安南區","LI":"溪墘里","LIN":"26鄰","STREET":"安寧街","SECT":" ","MAREA":" ","LANE":"６５巷","ALLEY":" ","HOUSE_NO":"５號","E_COORD97":167385.17000000001,"N_COORD97":2547019.6699999999,"ADDRESS":"安寧街６５巷５號","OBJECTID":452806},"geometry":{"x":167385.17000000086,"y":2547019.6699999999}},{"attributes":{"ID":452832,"DIS_CODE":0,"TOWNNAME":"安南區","LI":"溪墘里","LIN":"26鄰","STREET":"安寧街","SECT":" ","MAREA":" ","LANE":"５１巷","ALLEY":" ","HOUSE_NO":"１４號","E_COORD97":167360.75,"N_COORD97":2547000.6899999999,"ADDRESS":"安寧街５１巷１４號","OBJECTID":452807},"geometry":{"x":167360.75000000186,"y":2547000.6900000013}},{"attributes":{"ID":452833,"DIS_CODE":0,"TOWNNAME":"安南區","LI":"溪墘里","LIN":"26鄰","STREET":"安寧街","SECT":" ","MAREA":" ","LANE":"５１巷","ALLEY":" ","HOUSE_NO":"１５號","E_COORD97":167359.88,"N_COORD97":2546976.1499999999,"ADDRESS":"安寧街５１巷１５號","OBJECTID":452808},"geometry":{"x":167359.88000000082,"y":2546976.1500000004}},{"attributes":{"ID":452834,"DIS_CODE":0,"TOWNNAME":"安南區","LI":"溪墘里","LIN":"26鄰","STREET":"安寧街","SECT":" ","MAREA":" ","LANE":"５１巷","ALLEY":" ","HOUSE_NO":"１６號","E_COORD97":167355.60999999999,"N_COORD97":2547000.02,"ADDRESS":"安寧街５１巷１６號","OBJECTID":452809},"geometry":{"x":167355.61000000127,"y":2547000.0199999996}},{"attributes":{"ID":452835,"DIS_CODE":0,"TOWNNAME":"南區","LI":"廣州里","LIN":"17鄰","STREET":"福吉三街","SECT":" ","MAREA":" ","LANE":"８０巷","ALLEY":" ","HOUSE_NO":"８號","E_COORD97":167239.07999999999,"N_COORD97":2542791.3700000001,"ADDRESS":"福吉三街８０巷８號","OBJECTID":452810},"geometry":{"x":167239.08000000007,"y":2542791.370000001}},{"attributes":{"ID":452836,"DIS_CODE":0,"TOWNNAME":"安南區","LI":"溪墘里","LIN":"26鄰","STREET":"安寧街","SECT":" ","MAREA":" ","LANE":"５１巷","ALLEY":" ","HOUSE_NO":"１７號","E_COORD97":167354.57999999999,"N_COORD97":2546975.48,"ADDRESS":"安寧街５１巷１７號","OBJECTID":452811},"geometry":{"x":167354.58000000007,"y":2546975.4800000023}},{"attributes":{"ID":452837,"DIS_CODE":0,"TOWNNAME":"安南區","LI":"溪墘里","LIN":"26鄰","STREET":"安寧街","SECT":" ","MAREA":" ","LANE":"５１巷","ALLEY":" ","HOUSE_NO":"１８號","E_COORD97":167350.12,"N_COORD97":2546999.1200000001,"ADDRESS":"安寧街５１巷１８號","OBJECTID":452812},"geometry":{"x":167350.12000000104,"y":2546999.1200000029}},{"attributes":{"ID":452838,"DIS_CODE":0,"TOWNNAME":"安南區","LI":"溪墘里","LIN":"26鄰","STREET":"安寧街","SECT":" ","MAREA":" ","LANE":"５１巷","ALLEY":" ","HOUSE_NO":"１９號","E_COORD97":167349.51999999999,"N_COORD97":2546973.6800000002,"ADDRESS":"安寧街５１巷１９號","OBJECTID":452813},"geometry":{"x":167349.51999999955,"y":2546973.6800000016}},{"attributes":{"ID":452839,"DIS_CODE":0,"TOWNNAME":"安南區","LI":"溪墘里","LIN":"26鄰","STREET":"安寧街","SECT":" ","MAREA":" ","LANE":"５１巷","ALLEY":" ","HOUSE_NO":"１號","E_COORD97":167398.17999999999,"N_COORD97":2546984.1600000001,"ADDRESS":"安寧街５１巷１號","OBJECTID":452814},"geometry":{"x":167398.18000000156,"y":2546984.160000002}},{"attributes":{"ID":452840,"DIS_CODE":0,"TOWNNAME":"安南區","LI":"溪墘里","LIN":"26鄰","STREET":"安寧街","SECT":" ","MAREA":" ","LANE":"５１巷","ALLEY":" ","HOUSE_NO":"２１號","E_COORD97":167344.38,"N_COORD97":2546972.7200000002,"ADDRESS":"安寧街５１巷２１號","OBJECTID":452815},"geometry":{"x":167344.38000000175,"y":2546972.7200000007}},{"attributes":{"ID":452841,"DIS_CODE":0,"TOWNNAME":"安南區","LI":"溪墘里","LIN":"26鄰","STREET":"安寧街","SECT":" ","MAREA":" ","LANE":"５１巷","ALLEY":" ","HOUSE_NO":"２２號","E_COORD97":167339.53,"N_COORD97":2546996.2200000002,"ADDRESS":"安寧街５１巷２２號","OBJECTID":452816},"geometry":{"x":167339.53000000026,"y":2546996.2200000007}},{"attributes":{"ID":452842,"DIS_CODE":0,"TOWNNAME":"安南區","LI":"溪墘里","LIN":"26鄰","STREET":"安寧街","SECT":" ","MAREA":" ","LANE":"５１巷","ALLEY":" ","HOUSE_NO":"２３號","E_COORD97":167338.63,"N_COORD97":2546971.0899999999,"ADDRESS":"安寧街５１巷２３號","OBJECTID":452817},"geometry":{"x":167338.62999999989,"y":2546971.0900000017}},{"attributes":{"ID":452843,"DIS_CODE":0,"TOWNNAME":"安南區","LI":"溪墘里","LIN":"26鄰","STREET":"安寧街","SECT":" ","MAREA":" ","LANE":"５１巷","ALLEY":" ","HOUSE_NO":"２５號","E_COORD97":167332.67000000001,"N_COORD97":2546970.04,"ADDRESS":"安寧街５１巷２５號","OBJECTID":452818},"geometry":{"x":167332.67000000086,"y":2546970.040000001}},{"attributes":{"ID":452844,"DIS_CODE":0,"TOWNNAME":"安南區","LI":"溪墘里","LIN":"26鄰","STREET":"安寧街","SECT":" ","MAREA":" ","LANE":"５１巷","ALLEY":" ","HOUSE_NO":"２６號","E_COORD97":167328.64000000001,"N_COORD97":2546993.3100000001,"ADDRESS":"安寧街５１巷２６號","OBJECTID":452819},"geometry":{"x":167328.63999999966,"y":2546993.3100000024}},{"attributes":{"ID":452845,"DIS_CODE":0,"TOWNNAME":"安南區","LI":"溪墘里","LIN":"26鄰","STREET":"安寧街","SECT":" ","MAREA":" ","LANE":"５１巷","ALLEY":" ","HOUSE_NO":"２９號","E_COORD97":167321.22,"N_COORD97":2546967.5899999999,"ADDRESS":"安寧街５１巷２９號","OBJECTID":452820},"geometry":{"x":167321.21999999974,"y":2546967.5900000017}},{"attributes":{"ID":452846,"DIS_CODE":0,"TOWNNAME":"安南區","LI":"溪墘里","LIN":"26鄰","STREET":"安寧街","SECT":" ","MAREA":" ","LANE":"５１巷","ALLEY":" ","HOUSE_NO":"３１號","E_COORD97":167316.60000000001,"N_COORD97":2546966.1699999999,"ADDRESS":"安寧街５１巷３１號","OBJECTID":452821},"geometry":{"x":167316.59999999963,"y":2546966.1700000018}},{"attributes":{"ID":452847,"DIS_CODE":0,"TOWNNAME":"安南區","LI":"溪墘里","LIN":"26鄰","STREET":"安寧街","SECT":" ","MAREA":" ","LANE":"５１巷","ALLEY":" ","HOUSE_NO":"３３號","E_COORD97":167310.34,"N_COORD97":2546965.5,"ADDRESS":"安寧街５１巷３３號","OBJECTID":452822},"geometry":{"x":167310.33999999985,"y":2546965.5}},{"attributes":{"ID":452848,"DIS_CODE":0,"TOWNNAME":"安南區","LI":"溪墘里","LIN":"26鄰","STREET":"安寧街","SECT":" ","MAREA":" ","LANE":"５１巷","ALLEY":" ","HOUSE_NO":"３４號","E_COORD97":167307.13,"N_COORD97":2546988.8300000001,"ADDRESS":"安寧街５１巷３４號","OBJECTID":452823},"geometry":{"x":167307.13000000175,"y":2546988.8300000038}},{"attributes":{"ID":452849,"DIS_CODE":0,"TOWNNAME":"安南區","LI":"溪墘里","LIN":"26鄰","STREET":"安寧街","SECT":" ","MAREA":" ","LANE":"５１巷","ALLEY":" ","HOUSE_NO":"３５號","E_COORD97":167304.67000000001,"N_COORD97":2546964.8999999999,"ADDRESS":"安寧街５１巷３５號","OBJECTID":452824},"geometry":{"x":167304.66999999993,"y":2546964.9000000041}},{"attributes":{"ID":452850,"DIS_CODE":0,"TOWNNAME":"安南區","LI":"溪墘里","LIN":"26鄰","STREET":"安寧街","SECT":" ","MAREA":" ","LANE":"５１巷","ALLEY":" ","HOUSE_NO":"３６號","E_COORD97":167300.57000000001,"N_COORD97":2546987.6299999999,"ADDRESS":"安寧街５１巷３６號","OBJECTID":452825},"geometry":{"x":167300.5700000003,"y":2546987.629999999}},{"attributes":{"ID":452851,"DIS_CODE":0,"TOWNNAME":"安南區","LI":"溪墘里","LIN":"26鄰","STREET":"安寧街","SECT":" ","MAREA":" ","LANE":"５１巷","ALLEY":" ","HOUSE_NO":"４號","E_COORD97":167388.16,"N_COORD97":2547005.98,"ADDRESS":"安寧街５１巷４號","OBJECTID":452826},"geometry":{"x":167388.16000000015,"y":2547005.9800000023}},{"attributes":{"ID":452852,"DIS_CODE":0,"TOWNNAME":"安南區","LI":"溪墘里","LIN":"26鄰","STREET":"安寧街","SECT":" ","MAREA":" ","LANE":"５１巷","ALLEY":" ","HOUSE_NO":"５號","E_COORD97":167386.85000000001,"N_COORD97":2546981.6600000001,"ADDRESS":"安寧街５１巷５號","OBJECTID":452827},"geometry":{"x":167386.85000000056,"y":2546981.6600000001}},{"attributes":{"ID":452853,"DIS_CODE":0,"TOWNNAME":"安南區","LI":"溪墘里","LIN":"26鄰","STREET":"安寧街","SECT":" ","MAREA":" ","LANE":"５１巷","ALLEY":" ","HOUSE_NO":"６號","E_COORD97":167383.09,"N_COORD97":2547004.27,"ADDRESS":"安寧街５１巷６號","OBJECTID":452828},"geometry":{"x":167383.08999999985,"y":2547004.2699999996}},{"attributes":{"ID":452854,"DIS_CODE":0,"TOWNNAME":"安南區","LI":"溪墘里","LIN":"26鄰","STREET":"安寧街","SECT":" ","MAREA":" ","LANE":"５１巷","ALLEY":" ","HOUSE_NO":"７號","E_COORD97":167381.32999999999,"N_COORD97":2546980.54,"ADDRESS":"安寧街５１巷７號","OBJECTID":452829},"geometry":{"x":167381.33000000101,"y":2546980.540000001}},{"attributes":{"ID":452855,"DIS_CODE":0,"TOWNNAME":"安南區","LI":"溪墘里","LIN":"26鄰","STREET":"安寧街","SECT":" ","MAREA":" ","LANE":"５１巷","ALLEY":" ","HOUSE_NO":"８號","E_COORD97":167377.35000000001,"N_COORD97":2547003.0800000001,"ADDRESS":"安寧街５１巷８號","OBJECTID":452830},"geometry":{"x":167377.35000000056,"y":2547003.0800000001}},{"attributes":{"ID":452856,"DIS_CODE":0,"TOWNNAME":"安南區","LI":"溪墘里","LIN":"26鄰","STREET":"安寧街","SECT":" ","MAREA":" ","LANE":"６５巷","ALLEY":" ","HOUSE_NO":"１１號","E_COORD97":167363.69,"N_COORD97":2547015.7000000002,"ADDRESS":"安寧街６５巷１１號","OBJECTID":452831},"geometry":{"x":167363.69000000134,"y":2547015.700000003}},{"attributes":{"ID":452857,"DIS_CODE":0,"TOWNNAME":"安南區","LI":"溪墘里","LIN":"26鄰","STREET":"安寧街","SECT":" ","MAREA":" ","LANE":"６５巷","ALLEY":" ","HOUSE_NO":"１５號","E_COORD97":167352.98000000001,"N_COORD97":2547012.4700000002,"ADDRESS":"安寧街６５巷１５號","OBJECTID":452832},"geometry":{"x":167352.98000000138,"y":2547012.4700000025}},{"attributes":{"ID":452858,"DIS_CODE":0,"TOWNNAME":"安南區","LI":"溪墘里","LIN":"26鄰","STREET":"安寧街","SECT":" ","MAREA":" ","LANE":"６５巷","ALLEY":" ","HOUSE_NO":"１７號","E_COORD97":167348.06,"N_COORD97":2547010.98,"ADDRESS":"安寧街６５巷１７號","OBJECTID":452833},"geometry":{"x":167348.06000000052,"y":2547010.9800000004}},{"attributes":{"ID":452859,"DIS_CODE":0,"TOWNNAME":"安南區","LI":"溪墘里","LIN":"26鄰","STREET":"安寧街","SECT":" ","MAREA":" ","LANE":"６５巷","ALLEY":" ","HOUSE_NO":"１９號","E_COORD97":167341.79000000001,"N_COORD97":2547010.9100000001,"ADDRESS":"安寧街６５巷１９號","OBJECTID":452834},"geometry":{"x":167341.7900000019,"y":2547010.9100000001}},{"attributes":{"ID":452860,"DIS_CODE":0,"TOWNNAME":"安南區","LI":"溪墘里","LIN":"26鄰","STREET":"安寧街","SECT":" ","MAREA":" ","LANE":"６５巷","ALLEY":" ","HOUSE_NO":"２３號","E_COORD97":167330.75,"N_COORD97":2547009.5699999998,"ADDRESS":"安寧街６５巷２３號","OBJECTID":452835},"geometry":{"x":167330.75000000093,"y":2547009.5700000003}},{"attributes":{"ID":452861,"DIS_CODE":0,"TOWNNAME":"安南區","LI":"溪墘里","LIN":"26鄰","STREET":"安寧街","SECT":" ","MAREA":" ","LANE":"６５巷","ALLEY":" ","HOUSE_NO":"２５號","E_COORD97":167325.60000000001,"N_COORD97":2547008.1499999999,"ADDRESS":"安寧街６５巷２５號","OBJECTID":452836},"geometry":{"x":167325.60000000149,"y":2547008.1500000022}},{"attributes":{"ID":452862,"DIS_CODE":0,"TOWNNAME":"安南區","LI":"溪墘里","LIN":"26鄰","STREET":"安寧街","SECT":" ","MAREA":" ","LANE":"６５巷","ALLEY":" ","HOUSE_NO":"２９號","E_COORD97":167314.54999999999,"N_COORD97":2547004.21,"ADDRESS":"安寧街６５巷２９號","OBJECTID":452837},"geometry":{"x":167314.55000000075,"y":2547004.2100000028}},{"attributes":{"ID":452863,"DIS_CODE":0,"TOWNNAME":"安南區","LI":"溪墘里","LIN":"26鄰","STREET":"安寧街","SECT":" ","MAREA":" ","LANE":"６５巷","ALLEY":" ","HOUSE_NO":"３１號","E_COORD97":167309.26000000001,"N_COORD97":2547004.21,"ADDRESS":"安寧街６５巷３１號","OBJECTID":452838},"geometry":{"x":167309.25999999978,"y":2547004.2100000028}},{"attributes":{"ID":452864,"DIS_CODE":0,"TOWNNAME":"安南區","LI":"溪墘里","LIN":"26鄰","STREET":"安寧街","SECT":" ","MAREA":" ","LANE":"６５巷","ALLEY":" ","HOUSE_NO":"３３號","E_COORD97":167303.67000000001,"N_COORD97":2547003.6899999999,"ADDRESS":"安寧街６５巷３３號","OBJECTID":452839},"geometry":{"x":167303.67000000086,"y":2547003.6900000013}},{"attributes":{"ID":452865,"DIS_CODE":0,"TOWNNAME":"安南區","LI":"溪墘里","LIN":"26鄰","STREET":"安寧街","SECT":" ","MAREA":" ","LANE":"６５巷","ALLEY":" ","HOUSE_NO":"３５號","E_COORD97":167296.81,"N_COORD97":2547003.1699999999,"ADDRESS":"安寧街６５巷３５號","OBJECTID":452840},"geometry":{"x":167296.80999999959,"y":2547003.1700000037}},{"attributes":{"ID":452866,"DIS_CODE":0,"TOWNNAME":"永康區","LI":"東灣里","LIN":"26鄰","STREET":"民族路","SECT":" ","MAREA":" ","LANE":"７７巷","ALLEY":" ","HOUSE_NO":"９６號","E_COORD97":175197.45999999999,"N_COORD97":2544346.2400000002,"ADDRESS":"民族路７７巷９６號","OBJECTID":452841},"geometry":{"x":175197.45999999996,"y":2544346.2400000021}},{"attributes":{"ID":452867,"DIS_CODE":0,"TOWNNAME":"東區","LI":"崇文里","LIN":"40鄰","STREET":"生產路","SECT":" ","MAREA":" ","LANE":" ","ALLEY":" ","HOUSE_NO":"２７５號七樓","E_COORD97":170911.67999999999,"N_COORD97":2540618.3100000001,"ADDRESS":"生產路２７５號七樓","OBJECTID":452842},"geometry":{"x":170911.6799999997,"y":2540618.3100000005}},{"attributes":{"ID":452868,"DIS_CODE":0,"TOWNNAME":"永康區","LI":"崑山里","LIN":"26鄰","STREET":"大灣路","SECT":" ","MAREA":" ","LANE":"９４２巷","ALLEY":" ","HOUSE_NO":"１２７號","E_COORD97":173687.85000000001,"N_COORD97":2544699.4900000002,"ADDRESS":"大灣路９４２巷１２７號","OBJECTID":452843},"geometry":{"x":173687.85000000056,"y":2544699.4900000039}},{"attributes":{"ID":452869,"DIS_CODE":0,"TOWNNAME":"永康區","LI":"崑山里","LIN":"26鄰","STREET":"大灣路","SECT":" ","MAREA":" ","LANE":"９４２巷","ALLEY":" ","HOUSE_NO":"１２５號","E_COORD97":173686.53,"N_COORD97":2544695.7400000002,"ADDRESS":"大灣路９４２巷１２５號","OBJECTID":452844},"geometry":{"x":173686.53000000026,"y":2544695.7400000021}},{"attributes":{"ID":452870,"DIS_CODE":0,"TOWNNAME":"永康區","LI":"崑山里","LIN":"26鄰","STREET":"大灣路","SECT":" ","MAREA":" ","LANE":"９４２巷","ALLEY":" ","HOUSE_NO":"１３３號","E_COORD97":173691.70000000001,"N_COORD97":2544711.4900000002,"ADDRESS":"大灣路９４２巷１３３號","OBJECTID":452845},"geometry":{"x":173691.70000000112,"y":2544711.4900000002}},{"attributes":{"ID":452871,"DIS_CODE":0,"TOWNNAME":"南區","LI":"開南里","LIN":"24鄰","STREET":"新建路","SECT":" ","MAREA":" ","LANE":"４９巷","ALLEY":" ","HOUSE_NO":"６號","E_COORD97":166498.82000000001,"N_COORD97":2540812.6099999999,"ADDRESS":"新建路４９巷６號","OBJECTID":452846},"geometry":{"x":166498.8200000003,"y":2540812.6100000013}},{"attributes":{"ID":452872,"DIS_CODE":0,"TOWNNAME":"佳里區","LI":"建南里","LIN":"26鄰","STREET":"復興路","SECT":" ","MAREA":" ","LANE":"１９巷","ALLEY":" ","HOUSE_NO":"１０號","E_COORD97":165474.95999999999,"N_COORD97":2561662.52,"ADDRESS":"復興路１９巷１０號","OBJECTID":452847},"geometry":{"x":165474.95999999996,"y":2561662.5199999996}},{"attributes":{"ID":452873,"DIS_CODE":0,"TOWNNAME":"佳里區","LI":"建南里","LIN":"26鄰","STREET":"復興路","SECT":" ","MAREA":" ","LANE":"１９巷","ALLEY":" ","HOUSE_NO":"１１號","E_COORD97":165490.95999999999,"N_COORD97":2561653.0099999998,"ADDRESS":"復興路１９巷１１號","OBJECTID":452848},"geometry":{"x":165490.95999999903,"y":2561653.0099999998}},{"attributes":{"ID":452874,"DIS_CODE":0,"TOWNNAME":"佳里區","LI":"建南里","LIN":"26鄰","STREET":"復興路","SECT":" ","MAREA":" ","LANE":"１９巷","ALLEY":" ","HOUSE_NO":"１２號","E_COORD97":165475.32999999999,"N_COORD97":2561657.4700000002,"ADDRESS":"復興路１９巷１２號","OBJECTID":452849},"geometry":{"x":165475.33000000101,"y":2561657.4700000007}},{"attributes":{"ID":452875,"DIS_CODE":0,"TOWNNAME":"佳里區","LI":"建南里","LIN":"26鄰","STREET":"復興路","SECT":" ","MAREA":" ","LANE":"１９巷","ALLEY":" ","HOUSE_NO":"１３號","E_COORD97":165490.91,"N_COORD97":2561648.54,"ADDRESS":"復興路１９巷１３號","OBJECTID":452850},"geometry":{"x":165490.91000000015,"y":2561648.5399999991}},{"attributes":{"ID":452876,"DIS_CODE":0,"TOWNNAME":"佳里區","LI":"建南里","LIN":"26鄰","STREET":"復興路","SECT":" ","MAREA":" ","LANE":"１９巷","ALLEY":" ","HOUSE_NO":"１４號","E_COORD97":165475.04999999999,"N_COORD97":2561652.7200000002,"ADDRESS":"復興路１９巷１４號","OBJECTID":452851},"geometry":{"x":165475.05000000168,"y":2561652.7200000007}},{"attributes":{"ID":452877,"DIS_CODE":0,"TOWNNAME":"佳里區","LI":"建南里","LIN":"26鄰","STREET":"復興路","SECT":" ","MAREA":" ","LANE":"１９巷","ALLEY":" ","HOUSE_NO":"１５號","E_COORD97":165490.60999999999,"N_COORD97":2561643.2799999998,"ADDRESS":"復興路１９巷１５號","OBJECTID":452852},"geometry":{"x":165490.61000000127,"y":2561643.2799999993}},{"attributes":{"ID":452878,"DIS_CODE":0,"TOWNNAME":"佳里區","LI":"建南里","LIN":"26鄰","STREET":"復興路","SECT":" ","MAREA":" ","LANE":"１９巷","ALLEY":" ","HOUSE_NO":"１６號","E_COORD97":165475.26000000001,"N_COORD97":2561647.73,"ADDRESS":"復興路１９巷１６號","OBJECTID":452853},"geometry":{"x":165475.26000000164,"y":2561647.7300000023}},{"attributes":{"ID":452879,"DIS_CODE":0,"TOWNNAME":"佳里區","LI":"建南里","LIN":"26鄰","STREET":"復興路","SECT":" ","MAREA":" ","LANE":"１９巷","ALLEY":" ","HOUSE_NO":"１７號","E_COORD97":165490.92999999999,"N_COORD97":2561638.48,"ADDRESS":"復興路１９巷１７號","OBJECTID":452854},"geometry":{"x":165490.93000000156,"y":2561638.4800000023}},{"attributes":{"ID":452880,"DIS_CODE":0,"TOWNNAME":"佳里區","LI":"建南里","LIN":"26鄰","STREET":"復興路","SECT":" ","MAREA":" ","LANE":"１９巷","ALLEY":" ","HOUSE_NO":"１８號","E_COORD97":165475.57000000001,"N_COORD97":2561642.9900000002,"ADDRESS":"復興路１９巷１８號","OBJECTID":452855},"geometry":{"x":165475.57000000123,"y":2561642.9900000002}},{"attributes":{"ID":452881,"DIS_CODE":0,"TOWNNAME":"佳里區","LI":"建南里","LIN":"26鄰","STREET":"復興路","SECT":" ","MAREA":" ","LANE":"１９巷","ALLEY":" ","HOUSE_NO":"１號","E_COORD97":165490.84,"N_COORD97":2561679.1099999999,"ADDRESS":"復興路１９巷１號","OBJECTID":452856},"geometry":{"x":165490.84000000078,"y":2561679.1099999994}},{"attributes":{"ID":452882,"DIS_CODE":0,"TOWNNAME":"佳里區","LI":"建南里","LIN":"26鄰","STREET":"復興路","SECT":" ","MAREA":" ","LANE":"１９巷","ALLEY":" ","HOUSE_NO":"２０號","E_COORD97":165475.67999999999,"N_COORD97":2561638.5299999998,"ADDRESS":"復興路１９巷２０號","OBJECTID":452857},"geometry":{"x":165475.68000000156,"y":2561638.5299999993}},{"attributes":{"ID":452883,"DIS_CODE":0,"TOWNNAME":"佳里區","LI":"建南里","LIN":"26鄰","STREET":"復興路","SECT":" ","MAREA":" ","LANE":"１９巷","ALLEY":" ","HOUSE_NO":"２號","E_COORD97":165474.64000000001,"N_COORD97":2561677.3700000001,"ADDRESS":"復興路１９巷２號","OBJECTID":452858},"geometry":{"x":165474.6400000006,"y":2561677.3700000029}},{"attributes":{"ID":452884,"DIS_CODE":0,"TOWNNAME":"佳里區","LI":"建南里","LIN":"26鄰","STREET":"復興路","SECT":" ","MAREA":" ","LANE":"１９巷","ALLEY":" ","HOUSE_NO":"３號","E_COORD97":165490.76999999999,"N_COORD97":2561673.4900000002,"ADDRESS":"復興路１９巷３號","OBJECTID":452859},"geometry":{"x":165490.77000000048,"y":2561673.4900000002}},{"attributes":{"ID":452885,"DIS_CODE":0,"TOWNNAME":"佳里區","LI":"建南里","LIN":"26鄰","STREET":"復興路","SECT":" ","MAREA":" ","LANE":"１９巷","ALLEY":" ","HOUSE_NO":"５號","E_COORD97":165490.87,"N_COORD97":2561668.3999999999,"ADDRESS":"復興路１９巷５號","OBJECTID":452860},"geometry":{"x":165490.87000000104,"y":2561668.4000000004}},{"attributes":{"ID":452886,"DIS_CODE":0,"TOWNNAME":"佳里區","LI":"建南里","LIN":"26鄰","STREET":"復興路","SECT":" ","MAREA":" ","LANE":"１９巷","ALLEY":" ","HOUSE_NO":"６號","E_COORD97":165475.07999999999,"N_COORD97":2561672.5,"ADDRESS":"復興路１９巷６號","OBJECTID":452861},"geometry":{"x":165475.08000000194,"y":2561672.5000000019}},{"attributes":{"ID":452887,"DIS_CODE":0,"TOWNNAME":"佳里區","LI":"建南里","LIN":"26鄰","STREET":"復興路","SECT":" ","MAREA":" ","LANE":"１９巷","ALLEY":" ","HOUSE_NO":"７號","E_COORD97":165490.51000000001,"N_COORD97":2561663.0499999998,"ADDRESS":"復興路１９巷７號","OBJECTID":452862},"geometry":{"x":165490.51000000164,"y":2561663.0500000026}},{"attributes":{"ID":452888,"DIS_CODE":0,"TOWNNAME":"佳里區","LI":"建南里","LIN":"26鄰","STREET":"復興路","SECT":" ","MAREA":" ","LANE":"１９巷","ALLEY":" ","HOUSE_NO":"８號","E_COORD97":165474.98000000001,"N_COORD97":2561667.9199999999,"ADDRESS":"復興路１９巷８號","OBJECTID":452863},"geometry":{"x":165474.98000000138,"y":2561667.9199999999}},{"attributes":{"ID":452889,"DIS_CODE":0,"TOWNNAME":"佳里區","LI":"建南里","LIN":"26鄰","STREET":"復興路","SECT":" ","MAREA":" ","LANE":"１９巷","ALLEY":" ","HOUSE_NO":"９號","E_COORD97":165490.67000000001,"N_COORD97":2561658.2000000002,"ADDRESS":"復興路１９巷９號","OBJECTID":452864},"geometry":{"x":165490.66999999993,"y":2561658.1999999993}},{"attributes":{"ID":452890,"DIS_CODE":0,"TOWNNAME":"南區","LI":"開南里","LIN":"25鄰","STREET":"新建路","SECT":" ","MAREA":" ","LANE":"５１巷","ALLEY":" ","HOUSE_NO":"１０號","E_COORD97":166516.60999999999,"N_COORD97":2540766.8999999999,"ADDRESS":"新建路５１巷１０號","OBJECTID":452865},"geometry":{"x":166516.61000000127,"y":2540766.8999999985}},{"attributes":{"ID":452891,"DIS_CODE":0,"TOWNNAME":"南區","LI":"開南里","LIN":"25鄰","STREET":"新建路","SECT":" ","MAREA":" ","LANE":"５１巷","ALLEY":" ","HOUSE_NO":"１２號","E_COORD97":166521.35000000001,"N_COORD97":2540766.8999999999,"ADDRESS":"新建路５１巷１２號","OBJECTID":452866},"geometry":{"x":166521.34999999963,"y":2540766.8999999985}},{"attributes":{"ID":452892,"DIS_CODE":0,"TOWNNAME":"南區","LI":"開南里","LIN":"25鄰","STREET":"新建路","SECT":" ","MAREA":" ","LANE":"５１巷","ALLEY":" ","HOUSE_NO":"１號","E_COORD97":166480.45999999999,"N_COORD97":2540794.5899999999,"ADDRESS":"新建路５１巷１號","OBJECTID":452867},"geometry":{"x":166480.45999999996,"y":2540794.5899999999}},{"attributes":{"ID":452893,"DIS_CODE":0,"TOWNNAME":"南區","LI":"開南里","LIN":"25鄰","STREET":"新建路","SECT":" ","MAREA":" ","LANE":"５１巷","ALLEY":" ","HOUSE_NO":"２號","E_COORD97":166481.19,"N_COORD97":2540766.8999999999,"ADDRESS":"新建路５１巷２號","OBJECTID":452868},"geometry":{"x":166481.19000000041,"y":2540766.8999999985}},{"attributes":{"ID":452894,"DIS_CODE":0,"TOWNNAME":"南區","LI":"開南里","LIN":"25鄰","STREET":"新建路","SECT":" ","MAREA":" ","LANE":"５１巷","ALLEY":" ","HOUSE_NO":"３號","E_COORD97":166485.45000000001,"N_COORD97":2540794.75,"ADDRESS":"新建路５１巷３號","OBJECTID":452869},"geometry":{"x":166485.45000000112,"y":2540794.7499999981}},{"attributes":{"ID":452895,"DIS_CODE":0,"TOWNNAME":"南區","LI":"開南里","LIN":"25鄰","STREET":"新建路","SECT":" ","MAREA":" ","LANE":"５１巷","ALLEY":" ","HOUSE_NO":"４之３號","E_COORD97":166486.07000000001,"N_COORD97":2540766.8999999999,"ADDRESS":"新建路５１巷４之３號","OBJECTID":452870},"geometry":{"x":166486.07000000123,"y":2540766.8999999985}},{"attributes":{"ID":452896,"DIS_CODE":0,"TOWNNAME":"南區","LI":"開南里","LIN":"25鄰","STREET":"新建路","SECT":" ","MAREA":" ","LANE":"５１巷","ALLEY":" ","HOUSE_NO":"５號","E_COORD97":166497.85999999999,"N_COORD97":2540794.1099999999,"ADDRESS":"新建路５１巷５號","OBJECTID":452871},"geometry":{"x":166497.86000000127,"y":2540794.1099999994}},{"attributes":{"ID":452897,"DIS_CODE":0,"TOWNNAME":"安平區","LI":"華平里","LIN":"26鄰","STREET":"健康二街","SECT":" ","MAREA":" ","LANE":"４１９巷","ALLEY":" ","HOUSE_NO":"２５號","E_COORD97":165237.54999999999,"N_COORD97":2543714.2400000002,"ADDRESS":"健康二街４１９巷２５號","OBJECTID":452872},"geometry":{"x":165237.54999999981,"y":2543714.2400000039}},{"attributes":{"ID":452898,"DIS_CODE":0,"TOWNNAME":"安平區","LI":"華平里","LIN":"26鄰","STREET":"健康二街","SECT":" ","MAREA":" ","LANE":"４１９巷","ALLEY":" ","HOUSE_NO":"２７號","E_COORD97":165232.51999999999,"N_COORD97":2543714.79,"ADDRESS":"健康二街４１９巷２７號","OBJECTID":452873},"geometry":{"x":165232.52000000142,"y":2543714.7899999991}},{"attributes":{"ID":452899,"DIS_CODE":0,"TOWNNAME":"安平區","LI":"華平里","LIN":"26鄰","STREET":"健康二街","SECT":" ","MAREA":" ","LANE":"４１９巷","ALLEY":" ","HOUSE_NO":"２９號","E_COORD97":165228.04000000001,"N_COORD97":2543715.5800000001,"ADDRESS":"健康二街４１９巷２９號","OBJECTID":452874},"geometry":{"x":165228.04000000097,"y":2543715.5800000019}},{"attributes":{"ID":452900,"DIS_CODE":0,"TOWNNAME":"安平區","LI":"華平里","LIN":"26鄰","STREET":"健康二街","SECT":" ","MAREA":" ","LANE":"４１９巷","ALLEY":" ","HOUSE_NO":"３１號","E_COORD97":165224.01999999999,"N_COORD97":2543715.1400000001,"ADDRESS":"健康二街４１９巷３１號","OBJECTID":452875},"geometry":{"x":165224.02000000142,"y":2543715.1399999987}},{"attributes":{"ID":452901,"DIS_CODE":0,"TOWNNAME":"安平區","LI":"華平里","LIN":"26鄰","STREET":"健康二街","SECT":" ","MAREA":" ","LANE":"４１９巷","ALLEY":" ","HOUSE_NO":"３３號","E_COORD97":165219.01000000001,"N_COORD97":2543715.6600000001,"ADDRESS":"健康二街４１９巷３３號","OBJECTID":452876},"geometry":{"x":165219.00999999978,"y":2543715.660000002}},{"attributes":{"ID":452902,"DIS_CODE":0,"TOWNNAME":"安平區","LI":"華平里","LIN":"26鄰","STREET":"健康二街","SECT":" ","MAREA":" ","LANE":"４１９巷","ALLEY":" ","HOUSE_NO":"３７號","E_COORD97":165205.01999999999,"N_COORD97":2543717.8399999999,"ADDRESS":"健康二街４１９巷３７號","OBJECTID":452877},"geometry":{"x":165205.01999999955,"y":2543717.8400000017}},{"attributes":{"ID":452903,"DIS_CODE":0,"TOWNNAME":"安平區","LI":"華平里","LIN":"26鄰","STREET":"健康二街","SECT":" ","MAREA":" ","LANE":"４１９巷","ALLEY":" ","HOUSE_NO":"３９號","E_COORD97":165200.88,"N_COORD97":2543718.3599999999,"ADDRESS":"健康二街４１９巷３９號","OBJECTID":452878},"geometry":{"x":165200.87999999989,"y":2543718.3599999994}},{"attributes":{"ID":452904,"DIS_CODE":0,"TOWNNAME":"安平區","LI":"華平里","LIN":"26鄰","STREET":"健康二街","SECT":" ","MAREA":" ","LANE":"４１９巷","ALLEY":" ","HOUSE_NO":"３號","E_COORD97":165291.29999999999,"N_COORD97":2543705.8300000001,"ADDRESS":"健康二街４１９巷３號","OBJECTID":452879},"geometry":{"x":165291.29999999981,"y":2543705.8300000001}},{"attributes":{"ID":452905,"DIS_CODE":0,"TOWNNAME":"安平區","LI":"華平里","LIN":"26鄰","STREET":"健康二街","SECT":" ","MAREA":" ","LANE":"４１９巷","ALLEY":" ","HOUSE_NO":"４１號","E_COORD97":165196.04000000001,"N_COORD97":2543719.3900000001,"ADDRESS":"健康二街４１９巷４１號","OBJECTID":452880},"geometry":{"x":165196.04000000097,"y":2543719.3900000006}},{"attributes":{"ID":452906,"DIS_CODE":0,"TOWNNAME":"安平區","LI":"華平里","LIN":"26鄰","STREET":"健康二街","SECT":" ","MAREA":" ","LANE":"４１９巷","ALLEY":" ","HOUSE_NO":"４３號","E_COORD97":165191.03,"N_COORD97":2543720.0800000001,"ADDRESS":"健康二街４１９巷４３號","OBJECTID":452881},"geometry":{"x":165191.03000000119,"y":2543720.0800000019}},{"attributes":{"ID":452907,"DIS_CODE":0,"TOWNNAME":"安平區","LI":"華平里","LIN":"26鄰","STREET":"健康二街","SECT":" ","MAREA":" ","LANE":"４１９巷","ALLEY":" ","HOUSE_NO":"４５號","E_COORD97":165187.06,"N_COORD97":2543720.2599999998,"ADDRESS":"健康二街４１９巷４５號","OBJECTID":452882},"geometry":{"x":165187.06000000052,"y":2543720.2599999979}},{"attributes":{"ID":452908,"DIS_CODE":0,"TOWNNAME":"安平區","LI":"華平里","LIN":"26鄰","STREET":"健康二街","SECT":" ","MAREA":" ","LANE":"４１９巷","ALLEY":" ","HOUSE_NO":"４７號","E_COORD97":165182.91,"N_COORD97":2543720.9500000002,"ADDRESS":"健康二街４１９巷４７號","OBJECTID":452883},"geometry":{"x":165182.91000000015,"y":2543720.9499999993}},{"attributes":{"ID":452909,"DIS_CODE":0,"TOWNNAME":"安平區","LI":"華平里","LIN":"26鄰","STREET":"健康二街","SECT":" ","MAREA":" ","LANE":"４１９巷","ALLEY":" ","HOUSE_NO":"５號","E_COORD97":165284.03,"N_COORD97":2543706.9500000002,"ADDRESS":"健康二街４１９巷５號","OBJECTID":452884},"geometry":{"x":165284.03000000212,"y":2543706.9499999993}},{"attributes":{"ID":452910,"DIS_CODE":0,"TOWNNAME":"安平區","LI":"華平里","LIN":"26鄰","STREET":"健康二街","SECT":" ","MAREA":" ","LANE":"４１９巷","ALLEY":" ","HOUSE_NO":"９號","E_COORD97":165277.42999999999,"N_COORD97":2543707.5099999998,"ADDRESS":"健康二街４１９巷９號","OBJECTID":452885},"geometry":{"x":165277.43000000156,"y":2543707.5099999998}},{"attributes":{"ID":452911,"DIS_CODE":0,"TOWNNAME":"安平區","LI":"華平里","LIN":"26鄰","STREET":"健康二街","SECT":" ","MAREA":" ","LANE":"４１９巷","ALLEY":" ","HOUSE_NO":"１６號","E_COORD97":165264.63,"N_COORD97":2543724.1000000001,"ADDRESS":"健康二街４１９巷１６號","OBJECTID":452886},"geometry":{"x":165264.63000000082,"y":2543724.0999999996}},{"attributes":{"ID":452912,"DIS_CODE":0,"TOWNNAME":"安平區","LI":"華平里","LIN":"26鄰","STREET":"健康二街","SECT":" ","MAREA":" ","LANE":"４１９巷","ALLEY":" ","HOUSE_NO":"１８號","E_COORD97":165259.82000000001,"N_COORD97":2543724.6499999999,"ADDRESS":"健康二街４１９巷１８號","OBJECTID":452887},"geometry":{"x":165259.8200000003,"y":2543724.6500000004}},{"attributes":{"ID":452913,"DIS_CODE":0,"TOWNNAME":"安平區","LI":"華平里","LIN":"26鄰","STREET":"健康二街","SECT":" ","MAREA":" ","LANE":"４１９巷","ALLEY":" ","HOUSE_NO":"３０號","E_COORD97":165234.64999999999,"N_COORD97":2543727.7799999998,"ADDRESS":"健康二街４１９巷３０號","OBJECTID":452888},"geometry":{"x":165234.6500000013,"y":2543727.7800000012}},{"attributes":{"ID":452914,"DIS_CODE":0,"TOWNNAME":"安平區","LI":"華平里","LIN":"26鄰","STREET":"健康二街","SECT":" ","MAREA":" ","LANE":"４１９巷","ALLEY":" ","HOUSE_NO":"３２號","E_COORD97":165229.38,"N_COORD97":2543727.3399999999,"ADDRESS":"健康二街４１９巷３２號","OBJECTID":452889},"geometry":{"x":165229.38000000082,"y":2543727.3400000017}},{"attributes":{"ID":452915,"DIS_CODE":0,"TOWNNAME":"安平區","LI":"華平里","LIN":"26鄰","STREET":"健康二街","SECT":" ","MAREA":" ","LANE":"４１９巷","ALLEY":" ","HOUSE_NO":"３４號","E_COORD97":165226.45000000001,"N_COORD97":2543728.3700000001,"ADDRESS":"健康二街４１９巷３４號","OBJECTID":452890},"geometry":{"x":165226.45000000019,"y":2543728.3700000029}},{"attributes":{"ID":452916,"DIS_CODE":0,"TOWNNAME":"楠西區","LI":"楠西里","LIN":"26鄰","STREET":"博愛路","SECT":" ","MAREA":" ","LANE":"２３３巷","ALLEY":" ","HOUSE_NO":"２１號","E_COORD97":197067.72,"N_COORD97":2563618.2799999998,"ADDRESS":"博愛路２３３巷２１號","OBJECTID":452891},"geometry":{"x":197067.72000000067,"y":2563618.2800000031}},{"attributes":{"ID":452917,"DIS_CODE":0,"TOWNNAME":"楠西區","LI":"楠西里","LIN":"26鄰","STREET":"茄拔路","SECT":" ","MAREA":" ","LANE":"２巷","ALLEY":" ","HOUSE_NO":"１４１號","E_COORD97":197059.73999999999,"N_COORD97":2563489.2799999998,"ADDRESS":"茄拔路２巷１４１號","OBJECTID":452892},"geometry":{"x":197059.74000000115,"y":2563489.2800000031}},{"attributes":{"ID":452918,"DIS_CODE":0,"TOWNNAME":"楠西區","LI":"楠西里","LIN":"26鄰","STREET":"茄拔路","SECT":" ","MAREA":" ","LANE":"２巷","ALLEY":" ","HOUSE_NO":"１１７號","E_COORD97":197034.44,"N_COORD97":2563543.2799999998,"ADDRESS":"茄拔路２巷１１７號","OBJECTID":452893},"geometry":{"x":197034.44000000134,"y":2563543.2799999975}},{"attributes":{"ID":452919,"DIS_CODE":0,"TOWNNAME":"楠西區","LI":"楠西里","LIN":"26鄰","STREET":"博愛路","SECT":" ","MAREA":" ","LANE":"２０３巷","ALLEY":" ","HOUSE_NO":"３１號","E_COORD97":197039.51999999999,"N_COORD97":2563575.2799999998,"ADDRESS":"博愛路２０３巷３１號","OBJECTID":452894},"geometry":{"x":197039.52000000142,"y":2563575.2800000012}},{"attributes":{"ID":452920,"DIS_CODE":0,"TOWNNAME":"楠西區","LI":"楠西里","LIN":"26鄰","STREET":"博愛路","SECT":" ","MAREA":" ","LANE":"２０３巷","ALLEY":" ","HOUSE_NO":"２９號","E_COORD97":197045.62,"N_COORD97":2563576.2799999998,"ADDRESS":"博愛路２０３巷２９號","OBJECTID":452895},"geometry":{"x":197045.62000000011,"y":2563576.2799999993}},{"attributes":{"ID":452921,"DIS_CODE":0,"TOWNNAME":"楠西區","LI":"楠西里","LIN":"26鄰","STREET":"茄拔路","SECT":" ","MAREA":" ","LANE":"２巷","ALLEY":" ","HOUSE_NO":"１２７號","E_COORD97":197038.23999999999,"N_COORD97":2563527.2799999998,"ADDRESS":"茄拔路２巷１２７號","OBJECTID":452896},"geometry":{"x":197038.24000000022,"y":2563527.2800000012}},{"attributes":{"ID":452922,"DIS_CODE":0,"TOWNNAME":"楠西區","LI":"楠西里","LIN":"26鄰","STREET":"博愛路","SECT":" ","MAREA":" ","LANE":"２３３巷","ALLEY":" ","HOUSE_NO":"３５號","E_COORD97":197034.12,"N_COORD97":2563613.2799999998,"ADDRESS":"博愛路２３３巷３５號","OBJECTID":452897},"geometry":{"x":197034.11999999918,"y":2563613.2799999993}},{"attributes":{"ID":452923,"DIS_CODE":0,"TOWNNAME":"楠西區","LI":"楠西里","LIN":"26鄰","STREET":"茄拔路","SECT":" ","MAREA":" ","LANE":"２巷","ALLEY":" ","HOUSE_NO":"１１３號","E_COORD97":197031.94,"N_COORD97":2563551.2799999998,"ADDRESS":"茄拔路２巷１１３號","OBJECTID":452898},"geometry":{"x":197031.94000000041,"y":2563551.2800000012}},{"attributes":{"ID":452924,"DIS_CODE":0,"TOWNNAME":"楠西區","LI":"楠西里","LIN":"26鄰","STREET":"博愛路","SECT":" ","MAREA":" ","LANE":"２０３巷","ALLEY":" ","HOUSE_NO":"２１號","E_COORD97":197068.32000000001,"N_COORD97":2563578.2799999998,"ADDRESS":"博愛路２０３巷２１號","OBJECTID":452899},"geometry":{"x":197068.3200000003,"y":2563578.2800000012}},{"attributes":{"ID":452925,"DIS_CODE":0,"TOWNNAME":"楠西區","LI":"楠西里","LIN":"26鄰","STREET":"茄拔路","SECT":" ","MAREA":" ","LANE":"２巷","ALLEY":" ","HOUSE_NO":"１２３號","E_COORD97":197037.73999999999,"N_COORD97":2563534.2799999998,"ADDRESS":"茄拔路２巷１２３號","OBJECTID":452900},"geometry":{"x":197037.74000000115,"y":2563534.2800000012}},{"attributes":{"ID":452926,"DIS_CODE":0,"TOWNNAME":"楠西區","LI":"楠西里","LIN":"26鄰","STREET":"博愛路","SECT":" ","MAREA":" ","LANE":"２３３巷","ALLEY":" ","HOUSE_NO":"１９號","E_COORD97":197072.42000000001,"N_COORD97":2563618.2799999998,"ADDRESS":"博愛路２３３巷１９號","OBJECTID":452901},"geometry":{"x":197072.41999999993,"y":2563618.2800000031}},{"attributes":{"ID":452927,"DIS_CODE":0,"TOWNNAME":"楠西區","LI":"楠西里","LIN":"26鄰","STREET":"博愛路","SECT":" ","MAREA":" ","LANE":"１２９巷","ALLEY":" ","HOUSE_NO":"８８號","E_COORD97":197046.51999999999,"N_COORD97":2563453.2799999998,"ADDRESS":"博愛路１２９巷８８號","OBJECTID":452902},"geometry":{"x":197046.52000000048,"y":2563453.2800000012}},{"attributes":{"ID":452928,"DIS_CODE":0,"TOWNNAME":"楠西區","LI":"楠西里","LIN":"26鄰","STREET":"博愛路","SECT":" ","MAREA":" ","LANE":"１２９巷","ALLEY":" ","HOUSE_NO":"８０號","E_COORD97":197054.82000000001,"N_COORD97":2563453.2799999998,"ADDRESS":"博愛路１２９巷８０號","OBJECTID":452903},"geometry":{"x":197054.8200000003,"y":2563453.2800000012}},{"attributes":{"ID":452929,"DIS_CODE":0,"TOWNNAME":"柳營區","LI":"光福里","LIN":"26鄰","STREET":"十美街","SECT":" ","MAREA":" ","LANE":"５１８巷","ALLEY":" ","HOUSE_NO":"１０號","E_COORD97":179895.78,"N_COORD97":2575592.23,"ADDRESS":"十美街５１８巷１０號","OBJECTID":452904},"geometry":{"x":179895.78000000026,"y":2575592.2300000023}},{"attributes":{"ID":452930,"DIS_CODE":0,"TOWNNAME":"柳營區","LI":"光福里","LIN":"26鄰","STREET":"十美街","SECT":" ","MAREA":" ","LANE":"５１８巷","ALLEY":" ","HOUSE_NO":"１號","E_COORD97":179875.44,"N_COORD97":2575577.1499999999,"ADDRESS":"十美街５１８巷１號","OBJECTID":452905},"geometry":{"x":179875.44000000227,"y":2575577.1500000004}},{"attributes":{"ID":452931,"DIS_CODE":0,"TOWNNAME":"柳營區","LI":"光福里","LIN":"26鄰","STREET":"十美街","SECT":" ","MAREA":" ","LANE":"５１８巷","ALLEY":" ","HOUSE_NO":"２號","E_COORD97":179895.54000000001,"N_COORD97":2575573.9700000002,"ADDRESS":"十美街５１８巷２號","OBJECTID":452906},"geometry":{"x":179895.54000000004,"y":2575573.9700000025}},{"attributes":{"ID":452932,"DIS_CODE":0,"TOWNNAME":"柳營區","LI":"光福里","LIN":"26鄰","STREET":"十美街","SECT":" ","MAREA":" ","LANE":"５１８巷","ALLEY":" ","HOUSE_NO":"３號","E_COORD97":179875.63,"N_COORD97":2575585.6699999999,"ADDRESS":"十美街５１８巷３號","OBJECTID":452907},"geometry":{"x":179875.63000000082,"y":2575585.6700000018}},{"attributes":{"ID":452933,"DIS_CODE":0,"TOWNNAME":"柳營區","LI":"光福里","LIN":"26鄰","STREET":"十美街","SECT":" ","MAREA":" ","LANE":"５１８巷","ALLEY":" ","HOUSE_NO":"５號","E_COORD97":179875.81,"N_COORD97":2575594.1899999999,"ADDRESS":"十美街５１８巷５號","OBJECTID":452908},"geometry":{"x":179875.81000000052,"y":2575594.1900000013}},{"attributes":{"ID":452934,"DIS_CODE":0,"TOWNNAME":"柳營區","LI":"光福里","LIN":"26鄰","STREET":"十美街","SECT":" ","MAREA":" ","LANE":"５１８巷","ALLEY":" ","HOUSE_NO":"６號","E_COORD97":179895.62,"N_COORD97":2575580.0600000001,"ADDRESS":"十美街５１８巷６號","OBJECTID":452909},"geometry":{"x":179895.62000000011,"y":2575580.0600000024}},{"attributes":{"ID":452935,"DIS_CODE":0,"TOWNNAME":"柳營區","LI":"光福里","LIN":"26鄰","STREET":"十美街","SECT":" ","MAREA":" ","LANE":"５１８巷","ALLEY":" ","HOUSE_NO":"８號","E_COORD97":179895.70000000001,"N_COORD97":2575586.1400000001,"ADDRESS":"十美街５１８巷８號","OBJECTID":452910},"geometry":{"x":179895.70000000112,"y":2575586.1400000025}},{"attributes":{"ID":452936,"DIS_CODE":0,"TOWNNAME":"新營區","LI":"民榮里","LIN":"26鄰","STREET":"復興路","SECT":" ","MAREA":" ","LANE":"３０５巷","ALLEY":" ","HOUSE_NO":"２２號","E_COORD97":178501.14000000001,"N_COORD97":2578089.27,"ADDRESS":"復興路３０５巷２２號","OBJECTID":452911},"geometry":{"x":178501.13999999966,"y":2578089.2700000014}},{"attributes":{"ID":452937,"DIS_CODE":0,"TOWNNAME":"新營區","LI":"新東里","LIN":"26鄰","STREET":"東興五街","SECT":" ","MAREA":" ","LANE":"５１巷","ALLEY":" ","HOUSE_NO":"６號","E_COORD97":180588.56,"N_COORD97":2579505.96,"ADDRESS":"東興五街５１巷６號","OBJECTID":452912},"geometry":{"x":180588.55999999959,"y":2579505.9600000046}},{"attributes":{"ID":452938,"DIS_CODE":0,"TOWNNAME":"新營區","LI":"南興里","LIN":"26鄰","STREET":"和平路","SECT":" ","MAREA":" ","LANE":"１０４巷","ALLEY":" ","HOUSE_NO":"１３之１號","E_COORD97":179368.39999999999,"N_COORD97":2577549.1699999999,"ADDRESS":"和平路１０４巷１３之１號","OBJECTID":452913},"geometry":{"x":179368.40000000037,"y":2577549.1699999999}},{"attributes":{"ID":452939,"DIS_CODE":0,"TOWNNAME":"新營區","LI":"新北里","LIN":"26鄰","STREET":"民治路","SECT":" ","MAREA":" ","LANE":"１５６巷","ALLEY":" ","HOUSE_NO":"４０號","E_COORD97":179097.70999999999,"N_COORD97":2578776.3500000001,"ADDRESS":"民治路１５６巷４０號","OBJECTID":452914},"geometry":{"x":179097.70999999996,"y":2578776.3500000034}},{"attributes":{"ID":452940,"DIS_CODE":0,"TOWNNAME":"學甲區","LI":"慈福里","LIN":"26鄰","STREET":"華宗路","SECT":" ","MAREA":" ","LANE":"４２１巷","ALLEY":" ","HOUSE_NO":"２２號","E_COORD97":166266.19,"N_COORD97":2570431.1699999999,"ADDRESS":"華宗路４２１巷２２號","OBJECTID":452915},"geometry":{"x":166266.19000000041,"y":2570431.1700000018}},{"attributes":{"ID":452941,"DIS_CODE":0,"TOWNNAME":"學甲區","LI":"慈福里","LIN":"26鄰","STREET":"華宗路","SECT":" ","MAREA":" ","LANE":"４２１巷","ALLEY":" ","HOUSE_NO":"２４號","E_COORD97":166262.39999999999,"N_COORD97":2570431.5699999998,"ADDRESS":"華宗路４２１巷２４號","OBJECTID":452916},"geometry":{"x":166262.40000000037,"y":2570431.5699999984}},{"attributes":{"ID":452942,"DIS_CODE":0,"TOWNNAME":"學甲區","LI":"慈福里","LIN":"26鄰","STREET":"華宗路","SECT":" ","MAREA":" ","LANE":"４２１巷","ALLEY":" ","HOUSE_NO":"２６號","E_COORD97":166258.59,"N_COORD97":2570432.4399999999,"ADDRESS":"華宗路４２１巷２６號","OBJECTID":452917},"geometry":{"x":166258.59000000078,"y":2570432.4400000013}},{"attributes":{"ID":452943,"DIS_CODE":0,"TOWNNAME":"學甲區","LI":"慈福里","LIN":"26鄰","STREET":"華宗路","SECT":" ","MAREA":" ","LANE":"４２１巷","ALLEY":" ","HOUSE_NO":"２號","E_COORD97":166313.54000000001,"N_COORD97":2570417.5099999998,"ADDRESS":"華宗路４２１巷２號","OBJECTID":452918},"geometry":{"x":166313.54000000097,"y":2570417.5099999998}},{"attributes":{"ID":452944,"DIS_CODE":0,"TOWNNAME":"學甲區","LI":"慈福里","LIN":"26鄰","STREET":"華宗路","SECT":" ","MAREA":" ","LANE":"４２１巷","ALLEY":" ","HOUSE_NO":"３６號","E_COORD97":166235.92999999999,"N_COORD97":2570437,"ADDRESS":"華宗路４２１巷３６號","OBJECTID":452919},"geometry":{"x":166235.93000000063,"y":2570437}},{"attributes":{"ID":452945,"DIS_CODE":0,"TOWNNAME":"北區","LI":"文元里","LIN":"26鄰","STREET":"文賢二街","SECT":" ","MAREA":" ","LANE":"４６２巷","ALLEY":" ","HOUSE_NO":"１號","E_COORD97":167695.79000000001,"N_COORD97":2546130.9900000002,"ADDRESS":"文賢二街４６２巷１號","OBJECTID":452920},"geometry":{"x":167695.79000000004,"y":2546130.9900000021}},{"attributes":{"ID":452946,"DIS_CODE":0,"TOWNNAME":"北區","LI":"文元里","LIN":"26鄰","STREET":"文賢二街","SECT":" ","MAREA":" ","LANE":"４６２巷","ALLEY":" ","HOUSE_NO":"２號","E_COORD97":167696.04000000001,"N_COORD97":2546124.3900000001,"ADDRESS":"文賢二街４６２巷２號","OBJECTID":452921},"geometry":{"x":167696.0400000019,"y":2546124.3900000043}},{"attributes":{"ID":452947,"DIS_CODE":0,"TOWNNAME":"北區","LI":"文元里","LIN":"26鄰","STREET":"文賢二街","SECT":" ","MAREA":" ","LANE":"４６２巷","ALLEY":" ","HOUSE_NO":"３號","E_COORD97":167700.35999999999,"N_COORD97":2546130.9300000002,"ADDRESS":"文賢二街４６２巷３號","OBJECTID":452922},"geometry":{"x":167700.36000000034,"y":2546130.9300000016}},{"attributes":{"ID":452948,"DIS_CODE":0,"TOWNNAME":"北區","LI":"文元里","LIN":"26鄰","STREET":"文賢二街","SECT":" ","MAREA":" ","LANE":"４６２巷","ALLEY":" ","HOUSE_NO":"５號","E_COORD97":167705.06,"N_COORD97":2546130.9300000002,"ADDRESS":"文賢二街４６２巷５號","OBJECTID":452923},"geometry":{"x":167705.05999999959,"y":2546130.9300000016}},{"attributes":{"ID":452949,"DIS_CODE":0,"TOWNNAME":"北區","LI":"文元里","LIN":"26鄰","STREET":"文賢二街","SECT":" ","MAREA":" ","LANE":"４６２巷","ALLEY":" ","HOUSE_NO":"７號","E_COORD97":167709.38,"N_COORD97":2546130.9300000002,"ADDRESS":"文賢二街４６２巷７號","OBJECTID":452924},"geometry":{"x":167709.38000000082,"y":2546130.9300000016}},{"attributes":{"ID":452950,"DIS_CODE":0,"TOWNNAME":"北區","LI":"文元里","LIN":"26鄰","STREET":"文賢二街","SECT":" ","MAREA":" ","LANE":"４６２巷","ALLEY":" ","HOUSE_NO":"９號","E_COORD97":167713.95000000001,"N_COORD97":2546131.0600000001,"ADDRESS":"文賢二街４６２巷９號","OBJECTID":452925},"geometry":{"x":167713.95000000112,"y":2546131.0600000024}},{"attributes":{"ID":452951,"DIS_CODE":0,"TOWNNAME":"北區","LI":"文元里","LIN":"26鄰","STREET":"文賢二街","SECT":" ","MAREA":" ","LANE":"４６２巷","ALLEY":" ","HOUSE_NO":"１１號","E_COORD97":167718.39000000001,"N_COORD97":2546131.1800000002,"ADDRESS":"文賢二街４６２巷１１號","OBJECTID":452926},"geometry":{"x":167718.38999999966,"y":2546131.1799999997}},{"attributes":{"ID":452952,"DIS_CODE":0,"TOWNNAME":"北區","LI":"文元里","LIN":"26鄰","STREET":"文賢二街","SECT":" ","MAREA":" ","LANE":"４６２巷","ALLEY":" ","HOUSE_NO":"１３號","E_COORD97":167723.22,"N_COORD97":2546131.3100000001,"ADDRESS":"文賢二街４６２巷１３號","OBJECTID":452927},"geometry":{"x":167723.21999999881,"y":2546131.3099999987}},{"attributes":{"ID":452953,"DIS_CODE":0,"TOWNNAME":"北區","LI":"文元里","LIN":"26鄰","STREET":"文賢二街","SECT":" ","MAREA":" ","LANE":"４６２巷","ALLEY":" ","HOUSE_NO":"１５號","E_COORD97":167727.54000000001,"N_COORD97":2546131.3100000001,"ADDRESS":"文賢二街４６２巷１５號","OBJECTID":452928},"geometry":{"x":167727.54000000004,"y":2546131.3099999987}},{"attributes":{"ID":452954,"DIS_CODE":0,"TOWNNAME":"北區","LI":"文元里","LIN":"26鄰","STREET":"文賢二街","SECT":" ","MAREA":" ","LANE":"４６２巷","ALLEY":" ","HOUSE_NO":"１７號","E_COORD97":167731.60000000001,"N_COORD97":2546131.4399999999,"ADDRESS":"文賢二街４６２巷１７號","OBJECTID":452929},"geometry":{"x":167731.60000000056,"y":2546131.4399999995}},{"attributes":{"ID":452955,"DIS_CODE":0,"TOWNNAME":"北區","LI":"文元里","LIN":"26鄰","STREET":"文賢二街","SECT":" ","MAREA":" ","LANE":"４６２巷","ALLEY":" ","HOUSE_NO":"１９號","E_COORD97":167735.79000000001,"N_COORD97":2546131.5600000001,"ADDRESS":"文賢二街４６２巷１９號","OBJECTID":452930},"geometry":{"x":167735.79000000097,"y":2546131.5600000005}},{"attributes":{"ID":452956,"DIS_CODE":0,"TOWNNAME":"北區","LI":"文元里","LIN":"26鄰","STREET":"文賢二街","SECT":" ","MAREA":" ","LANE":"４６２巷","ALLEY":" ","HOUSE_NO":"２１號","E_COORD97":167739.98000000001,"N_COORD97":2546131.6899999999,"ADDRESS":"文賢二街４６２巷２１號","OBJECTID":452931},"geometry":{"x":167739.98000000138,"y":2546131.6900000013}},{"attributes":{"ID":452957,"DIS_CODE":0,"TOWNNAME":"北區","LI":"文元里","LIN":"26鄰","STREET":"文賢二街","SECT":" ","MAREA":" ","LANE":"４６２巷","ALLEY":" ","HOUSE_NO":"２３號","E_COORD97":167744.17999999999,"N_COORD97":2546131.8199999998,"ADDRESS":"文賢二街４６２巷２３號","OBJECTID":452932},"geometry":{"x":167744.18000000063,"y":2546131.8200000022}},{"attributes":{"ID":452958,"DIS_CODE":0,"TOWNNAME":"北區","LI":"文元里","LIN":"26鄰","STREET":"文賢二街","SECT":" ","MAREA":" ","LANE":"４６２巷","ALLEY":" ","HOUSE_NO":"６號","E_COORD97":167700.23000000001,"N_COORD97":2546124.5800000001,"ADDRESS":"文賢二街４６２巷６號","OBJECTID":452933},"geometry":{"x":167700.23000000231,"y":2546124.5800000001}},{"attributes":{"ID":452959,"DIS_CODE":0,"TOWNNAME":"北區","LI":"文元里","LIN":"26鄰","STREET":"文賢二街","SECT":" ","MAREA":" ","LANE":"４６２巷","ALLEY":" ","HOUSE_NO":"８號","E_COORD97":167704.92999999999,"N_COORD97":2546124.71,"ADDRESS":"文賢二街４６２巷８號","OBJECTID":452934},"geometry":{"x":167704.93000000156,"y":2546124.7100000009}},{"attributes":{"ID":452960,"DIS_CODE":0,"TOWNNAME":"北區","LI":"文元里","LIN":"26鄰","STREET":"文賢二街","SECT":" ","MAREA":" ","LANE":"４６２巷","ALLEY":" ","HOUSE_NO":"１０號","E_COORD97":167709.5,"N_COORD97":2546124.71,"ADDRESS":"文賢二街４６２巷１０號","OBJECTID":452935},"geometry":{"x":167709.5,"y":2546124.7100000009}},{"attributes":{"ID":452961,"DIS_CODE":0,"TOWNNAME":"北區","LI":"文元里","LIN":"26鄰","STREET":"文賢二街","SECT":" ","MAREA":" ","LANE":"４６２巷","ALLEY":" ","HOUSE_NO":"１２號","E_COORD97":167714.07999999999,"N_COORD97":2546124.8300000001,"ADDRESS":"文賢二街４６２巷１２號","OBJECTID":452936},"geometry":{"x":167714.08000000007,"y":2546124.8300000019}},{"attributes":{"ID":452962,"DIS_CODE":0,"TOWNNAME":"北區","LI":"文元里","LIN":"26鄰","STREET":"文賢二街","SECT":" ","MAREA":" ","LANE":"４６２巷","ALLEY":" ","HOUSE_NO":"１６號","E_COORD97":167718.51999999999,"N_COORD97":2546124.8300000001,"ADDRESS":"文賢二街４６２巷１６號","OBJECTID":452937},"geometry":{"x":167718.52000000048,"y":2546124.8300000019}},{"attributes":{"ID":452963,"DIS_CODE":0,"TOWNNAME":"北區","LI":"文元里","LIN":"26鄰","STREET":"文賢二街","SECT":" ","MAREA":" ","LANE":"４６２巷","ALLEY":" ","HOUSE_NO":"１８號","E_COORD97":167723.35000000001,"N_COORD97":2546124.8300000001,"ADDRESS":"文賢二街４６２巷１８號","OBJECTID":452938},"geometry":{"x":167723.34999999963,"y":2546124.8300000019}},{"attributes":{"ID":452964,"DIS_CODE":0,"TOWNNAME":"北區","LI":"文元里","LIN":"26鄰","STREET":"文賢二街","SECT":" ","MAREA":" ","LANE":"４６２巷","ALLEY":" ","HOUSE_NO":"２０號","E_COORD97":167727.92000000001,"N_COORD97":2546124.71,"ADDRESS":"文賢二街４６２巷２０號","OBJECTID":452939},"geometry":{"x":167727.92000000086,"y":2546124.7100000009}},{"attributes":{"ID":452965,"DIS_CODE":0,"TOWNNAME":"北區","LI":"文元里","LIN":"26鄰","STREET":"文賢二街","SECT":" ","MAREA":" ","LANE":"４６２巷","ALLEY":" ","HOUSE_NO":"２２號","E_COORD97":167731.98000000001,"N_COORD97":2546124.71,"ADDRESS":"文賢二街４６２巷２２號","OBJECTID":452940},"geometry":{"x":167731.98000000045,"y":2546124.7100000009}},{"attributes":{"ID":452966,"DIS_CODE":0,"TOWNNAME":"北區","LI":"文元里","LIN":"26鄰","STREET":"文賢二街","SECT":" ","MAREA":" ","LANE":"４６２巷","ALLEY":" ","HOUSE_NO":"２６號","E_COORD97":167736.04999999999,"N_COORD97":2546124.71,"ADDRESS":"文賢二街４６２巷２６號","OBJECTID":452941},"geometry":{"x":167736.04999999981,"y":2546124.7100000009}},{"attributes":{"ID":452967,"DIS_CODE":0,"TOWNNAME":"北區","LI":"文元里","LIN":"26鄰","STREET":"文賢二街","SECT":" ","MAREA":" ","LANE":"４６２巷","ALLEY":" ","HOUSE_NO":"２８號","E_COORD97":167740.37,"N_COORD97":2546124.8300000001,"ADDRESS":"文賢二街４６２巷２８號","OBJECTID":452942},"geometry":{"x":167740.37000000104,"y":2546124.8300000019}},{"attributes":{"ID":452968,"DIS_CODE":0,"TOWNNAME":"北區","LI":"大港里","LIN":"26鄰","STREET":"賢北街","SECT":" ","MAREA":" ","LANE":"１７０巷","ALLEY":" ","HOUSE_NO":"２３號","E_COORD97":166231.32999999999,"N_COORD97":2545716.75,"ADDRESS":"賢北街１７０巷２３號","OBJECTID":452943},"geometry":{"x":166231.33000000101,"y":2545716.75}},{"attributes":{"ID":452969,"DIS_CODE":0,"TOWNNAME":"北區","LI":"大港里","LIN":"26鄰","STREET":"賢北街","SECT":" ","MAREA":" ","LANE":"１７０巷","ALLEY":" ","HOUSE_NO":"２５號","E_COORD97":166235.06,"N_COORD97":2545720.23,"ADDRESS":"賢北街１７０巷２５號","OBJECTID":452944},"geometry":{"x":166235.05999999959,"y":2545720.2300000004}},{"attributes":{"ID":452970,"DIS_CODE":0,"TOWNNAME":"北區","LI":"大港里","LIN":"26鄰","STREET":"賢北街","SECT":" ","MAREA":" ","LANE":"１７０巷","ALLEY":" ","HOUSE_NO":"２７號","E_COORD97":166239.54000000001,"N_COORD97":2545722.7999999998,"ADDRESS":"賢北街１７０巷２７號","OBJECTID":452945},"geometry":{"x":166239.54000000004,"y":2545722.8000000026}},{"attributes":{"ID":452971,"DIS_CODE":0,"TOWNNAME":"北區","LI":"大港里","LIN":"26鄰","STREET":"賢北街","SECT":" ","MAREA":" ","LANE":"１７０巷","ALLEY":" ","HOUSE_NO":"２９號","E_COORD97":166243.41,"N_COORD97":2545725.98,"ADDRESS":"賢北街１７０巷２９號","OBJECTID":452946},"geometry":{"x":166243.41000000108,"y":2545725.9800000004}},{"attributes":{"ID":452972,"DIS_CODE":0,"TOWNNAME":"北區","LI":"大港里","LIN":"26鄰","STREET":"賢北街","SECT":" ","MAREA":" ","LANE":"１７０巷","ALLEY":" ","HOUSE_NO":"３１號","E_COORD97":166247.59,"N_COORD97":2545728.7000000002,"ADDRESS":"賢北街１７０巷３１號","OBJECTID":452947},"geometry":{"x":166247.58999999985,"y":2545728.7000000011}},{"attributes":{"ID":452973,"DIS_CODE":0,"TOWNNAME":"北區","LI":"大港里","LIN":"26鄰","STREET":"賢北街","SECT":" ","MAREA":" ","LANE":"１７０巷","ALLEY":" ","HOUSE_NO":"３３號","E_COORD97":166257.54000000001,"N_COORD97":2545737.5699999998,"ADDRESS":"賢北街１７０巷３３號","OBJECTID":452948},"geometry":{"x":166257.54000000097,"y":2545737.5700000022}},{"attributes":{"ID":452974,"DIS_CODE":0,"TOWNNAME":"北區","LI":"大港里","LIN":"26鄰","STREET":"賢北街","SECT":" ","MAREA":" ","LANE":"１７０巷","ALLEY":" ","HOUSE_NO":"３５號","E_COORD97":166255.26999999999,"N_COORD97":2545740.8999999999,"ADDRESS":"賢北街１７０巷３５號","OBJECTID":452949},"geometry":{"x":166255.27000000048,"y":2545740.9000000041}},{"attributes":{"ID":452975,"DIS_CODE":0,"TOWNNAME":"北區","LI":"大港里","LIN":"26鄰","STREET":"賢北街","SECT":" ","MAREA":" ","LANE":"１７０巷","ALLEY":" ","HOUSE_NO":"３７號","E_COORD97":166252.39000000001,"N_COORD97":2545744.0800000001,"ADDRESS":"賢北街１７０巷３７號","OBJECTID":452950},"geometry":{"x":166252.39000000153,"y":2545744.0800000019}},{"attributes":{"ID":452976,"DIS_CODE":0,"TOWNNAME":"北區","LI":"大港里","LIN":"26鄰","STREET":"賢北街","SECT":" ","MAREA":" ","LANE":"１７０巷","ALLEY":" ","HOUSE_NO":"３９號","E_COORD97":166248.89000000001,"N_COORD97":2545747.27,"ADDRESS":"賢北街１７０巷３９號","OBJECTID":452951},"geometry":{"x":166248.88999999873,"y":2545747.2699999996}},{"attributes":{"ID":452977,"DIS_CODE":0,"TOWNNAME":"北區","LI":"大港里","LIN":"26鄰","STREET":"賢北街","SECT":" ","MAREA":" ","LANE":"１７０巷","ALLEY":" ","HOUSE_NO":"３號","E_COORD97":166190.41,"N_COORD97":2545685.54,"ADDRESS":"賢北街１７０巷３號","OBJECTID":452952},"geometry":{"x":166190.41000000108,"y":2545685.540000001}},{"attributes":{"ID":452978,"DIS_CODE":0,"TOWNNAME":"北區","LI":"大港里","LIN":"26鄰","STREET":"賢北街","SECT":" ","MAREA":" ","LANE":"１７０巷","ALLEY":" ","HOUSE_NO":"４１號","E_COORD97":166246.92999999999,"N_COORD97":2545751.0499999998,"ADDRESS":"賢北街１７０巷４１號","OBJECTID":452953},"geometry":{"x":166246.92999999877,"y":2545751.0500000026}},{"attributes":{"ID":452979,"DIS_CODE":0,"TOWNNAME":"北區","LI":"大港里","LIN":"26鄰","STREET":"賢北街","SECT":" ","MAREA":" ","LANE":"１７０巷","ALLEY":" ","HOUSE_NO":"４３號","E_COORD97":166244.35000000001,"N_COORD97":2545754.23,"ADDRESS":"賢北街１７０巷４３號","OBJECTID":452954},"geometry":{"x":166244.35000000056,"y":2545754.2300000004}},{"attributes":{"ID":452980,"DIS_CODE":0,"TOWNNAME":"北區","LI":"大港里","LIN":"26鄰","STREET":"賢北街","SECT":" ","MAREA":" ","LANE":"１７０巷","ALLEY":" ","HOUSE_NO":"４５號","E_COORD97":166253.79999999999,"N_COORD97":2545761.79,"ADDRESS":"賢北街１７０巷４５號","OBJECTID":452955},"geometry":{"x":166253.80000000075,"y":2545761.790000001}},{"attributes":{"ID":452981,"DIS_CODE":0,"TOWNNAME":"北區","LI":"大港里","LIN":"26鄰","STREET":"賢北街","SECT":" ","MAREA":" ","LANE":"１７０巷","ALLEY":" ","HOUSE_NO":"４７號","E_COORD97":166256.53,"N_COORD97":2545758.0099999998,"ADDRESS":"賢北街１７０巷４７號","OBJECTID":452956},"geometry":{"x":166256.53000000026,"y":2545758.0100000016}},{"attributes":{"ID":452982,"DIS_CODE":0,"TOWNNAME":"北區","LI":"大港里","LIN":"26鄰","STREET":"賢北街","SECT":" ","MAREA":" ","LANE":"１７０巷","ALLEY":" ","HOUSE_NO":"５１號","E_COORD97":166262.14000000001,"N_COORD97":2545751.4900000002,"ADDRESS":"賢北街１７０巷５１號","OBJECTID":452957},"geometry":{"x":166262.13999999966,"y":2545751.4900000021}},{"attributes":{"ID":452983,"DIS_CODE":0,"TOWNNAME":"北區","LI":"大港里","LIN":"26鄰","STREET":"賢北街","SECT":" ","MAREA":" ","LANE":"１７０巷","ALLEY":" ","HOUSE_NO":"５３號","E_COORD97":166264.72,"N_COORD97":2545748.0099999998,"ADDRESS":"賢北街１７０巷５３號","OBJECTID":452958},"geometry":{"x":166264.71999999974,"y":2545748.0099999998}},{"attributes":{"ID":452984,"DIS_CODE":0,"TOWNNAME":"北區","LI":"大港里","LIN":"26鄰","STREET":"賢北街","SECT":" ","MAREA":" ","LANE":"１７０巷","ALLEY":" ","HOUSE_NO":"５５號","E_COORD97":166266.98999999999,"N_COORD97":2545744.8300000001,"ADDRESS":"賢北街１７０巷５５號","OBJECTID":452959},"geometry":{"x":166266.99000000022,"y":2545744.8300000019}},{"attributes":{"ID":452985,"DIS_CODE":0,"TOWNNAME":"北區","LI":"大港里","LIN":"26鄰","STREET":"賢北街","SECT":" ","MAREA":" ","LANE":"１７０巷","ALLEY":" ","HOUSE_NO":"５７號","E_COORD97":166283.60000000001,"N_COORD97":2545756.8300000001,"ADDRESS":"賢北街１７０巷５７號","OBJECTID":452960},"geometry":{"x":166283.60000000056,"y":2545756.8300000001}},{"attributes":{"ID":452986,"DIS_CODE":0,"TOWNNAME":"北區","LI":"大港里","LIN":"26鄰","STREET":"賢北街","SECT":" ","MAREA":" ","LANE":"１７０巷","ALLEY":" ","HOUSE_NO":"５９號","E_COORD97":166280.70999999999,"N_COORD97":2545760.1699999999,"ADDRESS":"賢北街１７０巷５９號","OBJECTID":452961},"geometry":{"x":166280.70999999996,"y":2545760.1700000018}},{"attributes":{"ID":452987,"DIS_CODE":0,"TOWNNAME":"北區","LI":"大港里","LIN":"26鄰","STREET":"賢北街","SECT":" ","MAREA":" ","LANE":"１７０巷","ALLEY":" ","HOUSE_NO":"５號","E_COORD97":166194.89999999999,"N_COORD97":2545689.02,"ADDRESS":"賢北街１７０巷５號","OBJECTID":452962},"geometry":{"x":166194.90000000037,"y":2545689.0200000014}},{"attributes":{"ID":452988,"DIS_CODE":0,"TOWNNAME":"北區","LI":"大港里","LIN":"26鄰","STREET":"賢北街","SECT":" ","MAREA":" ","LANE":"１７０巷","ALLEY":" ","HOUSE_NO":"６１號","E_COORD97":166277.98999999999,"N_COORD97":2545764.1000000001,"ADDRESS":"賢北街１７０巷６１號","OBJECTID":452963},"geometry":{"x":166277.99000000115,"y":2545764.1000000015}},{"attributes":{"ID":452989,"DIS_CODE":0,"TOWNNAME":"北區","LI":"大港里","LIN":"26鄰","STREET":"賢北街","SECT":" ","MAREA":" ","LANE":"１７０巷","ALLEY":" ","HOUSE_NO":"６３號","E_COORD97":166275.72,"N_COORD97":2545767.4300000002,"ADDRESS":"賢北街１７０巷６３號","OBJECTID":452964},"geometry":{"x":166275.7200000016,"y":2545767.4300000016}},{"attributes":{"ID":452990,"DIS_CODE":0,"TOWNNAME":"北區","LI":"大港里","LIN":"26鄰","STREET":"賢北街","SECT":" ","MAREA":" ","LANE":"１７０巷","ALLEY":" ","HOUSE_NO":"６５號","E_COORD97":166272.98999999999,"N_COORD97":2545770.46,"ADDRESS":"賢北街１７０巷６５號","OBJECTID":452965},"geometry":{"x":166272.99000000115,"y":2545770.4600000009}},{"attributes":{"ID":452991,"DIS_CODE":0,"TOWNNAME":"北區","LI":"大港里","LIN":"26鄰","STREET":"賢北街","SECT":" ","MAREA":" ","LANE":"１７０巷","ALLEY":" ","HOUSE_NO":"６７號","E_COORD97":166270.26000000001,"N_COORD97":2545773.9500000002,"ADDRESS":"賢北街１７０巷６７號","OBJECTID":452966},"geometry":{"x":166270.26000000164,"y":2545773.9500000011}},{"attributes":{"ID":452992,"DIS_CODE":0,"TOWNNAME":"北區","LI":"大港里","LIN":"26鄰","STREET":"賢北街","SECT":" ","MAREA":" ","LANE":"１７０巷","ALLEY":" ","HOUSE_NO":"６９號","E_COORD97":166279.54999999999,"N_COORD97":2545781.0499999998,"ADDRESS":"賢北街１７０巷６９號","OBJECTID":452967},"geometry":{"x":166279.54999999981,"y":2545781.0500000045}},{"attributes":{"ID":452993,"DIS_CODE":0,"TOWNNAME":"北區","LI":"大港里","LIN":"26鄰","STREET":"賢北街","SECT":" ","MAREA":" ","LANE":"１７０巷","ALLEY":" ","HOUSE_NO":"７１號","E_COORD97":166282.44,"N_COORD97":2545778.02,"ADDRESS":"賢北街１７０巷７１號","OBJECTID":452968},"geometry":{"x":166282.44000000134,"y":2545778.0200000014}},{"attributes":{"ID":452994,"DIS_CODE":0,"TOWNNAME":"北區","LI":"大港里","LIN":"26鄰","STREET":"賢北街","SECT":" ","MAREA":" ","LANE":"１７０巷","ALLEY":" ","HOUSE_NO":"７３號","E_COORD97":166284.70999999999,"N_COORD97":2545774.54,"ADDRESS":"賢北街１７０巷７３號","OBJECTID":452969},"geometry":{"x":166284.71000000089,"y":2545774.5399999991}},{"attributes":{"ID":452995,"DIS_CODE":0,"TOWNNAME":"北區","LI":"大港里","LIN":"26鄰","STREET":"賢北街","SECT":" ","MAREA":" ","LANE":"１７０巷","ALLEY":" ","HOUSE_NO":"７５號","E_COORD97":166287.59,"N_COORD97":2545771.3599999999,"ADDRESS":"賢北街１７０巷７５號","OBJECTID":452970},"geometry":{"x":166287.59000000078,"y":2545771.3600000013}},{"attributes":{"ID":452996,"DIS_CODE":0,"TOWNNAME":"北區","LI":"大港里","LIN":"26鄰","STREET":"賢北街","SECT":" ","MAREA":" ","LANE":"１７０巷","ALLEY":" ","HOUSE_NO":"７７號","E_COORD97":166290.32000000001,"N_COORD97":2545767.4199999999,"ADDRESS":"賢北街１７０巷７７號","OBJECTID":452971},"geometry":{"x":166290.3200000003,"y":2545767.4200000037}},{"attributes":{"ID":452997,"DIS_CODE":0,"TOWNNAME":"北區","LI":"大港里","LIN":"26鄰","STREET":"賢北街","SECT":" ","MAREA":" ","LANE":"１７０巷","ALLEY":" ","HOUSE_NO":"７９號","E_COORD97":166293.35000000001,"N_COORD97":2545763.6400000001,"ADDRESS":"賢北街１７０巷７９號","OBJECTID":452972},"geometry":{"x":166293.35000000149,"y":2545763.6400000025}},{"attributes":{"ID":452998,"DIS_CODE":0,"TOWNNAME":"北區","LI":"大港里","LIN":"26鄰","STREET":"賢北街","SECT":" ","MAREA":" ","LANE":"１７０巷","ALLEY":" ","HOUSE_NO":"８３號","E_COORD97":166307.03,"N_COORD97":2545779.52,"ADDRESS":"賢北街１７０巷８３號","OBJECTID":452973},"geometry":{"x":166307.03000000119,"y":2545779.5199999996}},{"attributes":{"ID":452999,"DIS_CODE":0,"TOWNNAME":"北區","LI":"大港里","LIN":"26鄰","STREET":"賢北街","SECT":" ","MAREA":" ","LANE":"１７０巷","ALLEY":" ","HOUSE_NO":"８５號","E_COORD97":166304.31,"N_COORD97":2545783.1499999999,"ADDRESS":"賢北街１７０巷８５號","OBJECTID":452974},"geometry":{"x":166304.31000000052,"y":2545783.1500000041}},{"attributes":{"ID":453000,"DIS_CODE":0,"TOWNNAME":"北區","LI":"大港里","LIN":"26鄰","STREET":"賢北街","SECT":" ","MAREA":" ","LANE":"１７０巷","ALLEY":" ","HOUSE_NO":"８７號","E_COORD97":166301.26999999999,"N_COORD97":2545786.79,"ADDRESS":"賢北街１７０巷８７號","OBJECTID":452975},"geometry":{"x":166301.27000000048,"y":2545786.7899999991}},{"attributes":{"ID":453001,"DIS_CODE":0,"TOWNNAME":"北區","LI":"大港里","LIN":"26鄰","STREET":"賢北街","SECT":" ","MAREA":" ","LANE":"１７０巷","ALLEY":" ","HOUSE_NO":"８９號","E_COORD97":166298.85000000001,"N_COORD97":2545789.9700000002,"ADDRESS":"賢北街１７０巷８９號","OBJECTID":452976},"geometry":{"x":166298.85000000056,"y":2545789.9700000007}},{"attributes":{"ID":453002,"DIS_CODE":0,"TOWNNAME":"北區","LI":"大港里","LIN":"26鄰","STREET":"賢北街","SECT":" ","MAREA":" ","LANE":"１７０巷","ALLEY":" ","HOUSE_NO":"９１號","E_COORD97":166295.81,"N_COORD97":2545793,"ADDRESS":"賢北街１７０巷９１號","OBJECTID":452977},"geometry":{"x":166295.81000000052,"y":2545793}},{"attributes":{"ID":453003,"DIS_CODE":0,"TOWNNAME":"北區","LI":"大港里","LIN":"26鄰","STREET":"賢北街","SECT":" ","MAREA":" ","LANE":"１７０巷","ALLEY":" ","HOUSE_NO":"９３號","E_COORD97":166305.41,"N_COORD97":2545800.5600000001,"ADDRESS":"賢北街１７０巷９３號","OBJECTID":452978},"geometry":{"x":166305.41000000201,"y":2545800.5600000005}},{"attributes":{"ID":453004,"DIS_CODE":0,"TOWNNAME":"北區","LI":"大港里","LIN":"26鄰","STREET":"賢北街","SECT":" ","MAREA":" ","LANE":"１７０巷","ALLEY":" ","HOUSE_NO":"９５號","E_COORD97":166307.98999999999,"N_COORD97":2545797.23,"ADDRESS":"賢北街１７０巷９５號","OBJECTID":452979},"geometry":{"x":166307.99000000022,"y":2545797.2300000023}},{"attributes":{"ID":453005,"DIS_CODE":0,"TOWNNAME":"北區","LI":"大港里","LIN":"26鄰","STREET":"賢北街","SECT":" ","MAREA":" ","LANE":"１７０巷","ALLEY":" ","HOUSE_NO":"９７號","E_COORD97":166310.41,"N_COORD97":2545793.5899999999,"ADDRESS":"賢北街１７０巷９７號","OBJECTID":452980},"geometry":{"x":166310.41000000201,"y":2545793.5900000017}},{"attributes":{"ID":453006,"DIS_CODE":0,"TOWNNAME":"北區","LI":"大港里","LIN":"26鄰","STREET":"賢北街","SECT":" ","MAREA":" ","LANE":"１７０巷","ALLEY":" ","HOUSE_NO":"９９號","E_COORD97":166312.82999999999,"N_COORD97":2545790.5600000001,"ADDRESS":"賢北街１７０巷９９號","OBJECTID":452981},"geometry":{"x":166312.83000000101,"y":2545790.5599999987}},{"attributes":{"ID":453007,"DIS_CODE":0,"TOWNNAME":"北區","LI":"大港里","LIN":"26鄰","STREET":"賢北街","SECT":" ","MAREA":" ","LANE":"１７０巷","ALLEY":" ","HOUSE_NO":"９號","E_COORD97":166202.34,"N_COORD97":2545695.2200000002,"ADDRESS":"賢北街１７０巷９號","OBJECTID":452982},"geometry":{"x":166202.34000000078,"y":2545695.2200000025}},{"attributes":{"ID":453008,"DIS_CODE":0,"TOWNNAME":"永康區","LI":"復華里","LIN":"26鄰","STREET":"復華八街","SECT":" ","MAREA":" ","LANE":"４７巷","ALLEY":" ","HOUSE_NO":"３６號四樓之１","E_COORD97":172690.28,"N_COORD97":2546385.6800000002,"ADDRESS":"復華八街４７巷３６號四樓之１","OBJECTID":452983},"geometry":{"x":172690.27999999933,"y":2546385.6800000034}},{"attributes":{"ID":453009,"DIS_CODE":0,"TOWNNAME":"永康區","LI":"復華里","LIN":"26鄰","STREET":"復華八街","SECT":" ","MAREA":" ","LANE":"４７巷","ALLEY":" ","HOUSE_NO":"３４號二樓之６","E_COORD97":172703.13,"N_COORD97":2546385.9500000002,"ADDRESS":"復華八街４７巷３４號二樓之６","OBJECTID":452984},"geometry":{"x":172703.13000000082,"y":2546385.9499999993}},{"attributes":{"ID":453010,"DIS_CODE":0,"TOWNNAME":"東區","LI":"中西里","LIN":"26鄰","STREET":"東寧路","SECT":" ","MAREA":" ","LANE":"１２０巷","ALLEY":" ","HOUSE_NO":"４５號二樓","E_COORD97":170265.22,"N_COORD97":2543501.54,"ADDRESS":"東寧路１２０巷４５號二樓","OBJECTID":452985},"geometry":{"x":170265.22000000067,"y":2543501.540000001}},{"attributes":{"ID":453011,"DIS_CODE":0,"TOWNNAME":"東區","LI":"中西里","LIN":"26鄰","STREET":"東寧路","SECT":" ","MAREA":" ","LANE":"１２０巷","ALLEY":" ","HOUSE_NO":"４５號二樓之１","E_COORD97":170265.22,"N_COORD97":2543501.54,"ADDRESS":"東寧路１２０巷４５號二樓之１","OBJECTID":452986},"geometry":{"x":170265.22000000067,"y":2543501.540000001}},{"attributes":{"ID":453012,"DIS_CODE":0,"TOWNNAME":"東區","LI":"中西里","LIN":"26鄰","STREET":"東寧路","SECT":" ","MAREA":" ","LANE":"１２０巷","ALLEY":" ","HOUSE_NO":"４５號二樓之２","E_COORD97":170265.22,"N_COORD97":2543501.54,"ADDRESS":"東寧路１２０巷４５號二樓之２","OBJECTID":452987},"geometry":{"x":170265.22000000067,"y":2543501.540000001}},{"attributes":{"ID":453013,"DIS_CODE":0,"TOWNNAME":"東區","LI":"中西里","LIN":"26鄰","STREET":"東寧路","SECT":" ","MAREA":" ","LANE":"１２０巷","ALLEY":" ","HOUSE_NO":"４５號三樓","E_COORD97":170265.22,"N_COORD97":2543501.54,"ADDRESS":"東寧路１２０巷４５號三樓","OBJECTID":452988},"geometry":{"x":170265.22000000067,"y":2543501.540000001}},{"attributes":{"ID":453014,"DIS_CODE":0,"TOWNNAME":"東區","LI":"中西里","LIN":"26鄰","STREET":"東寧路","SECT":" ","MAREA":" ","LANE":"１２０巷","ALLEY":" ","HOUSE_NO":"４５號三樓之１","E_COORD97":170265.22,"N_COORD97":2543501.54,"ADDRESS":"東寧路１２０巷４５號三樓之１","OBJECTID":452989},"geometry":{"x":170265.22000000067,"y":2543501.540000001}},{"attributes":{"ID":453015,"DIS_CODE":0,"TOWNNAME":"東區","LI":"中西里","LIN":"26鄰","STREET":"東寧路","SECT":" ","MAREA":" ","LANE":"１２０巷","ALLEY":" ","HOUSE_NO":"４５號三樓之２","E_COORD97":170265.22,"N_COORD97":2543501.54,"ADDRESS":"東寧路１２０巷４５號三樓之２","OBJECTID":452990},"geometry":{"x":170265.22000000067,"y":2543501.540000001}},{"attributes":{"ID":453016,"DIS_CODE":0,"TOWNNAME":"東區","LI":"中西里","LIN":"26鄰","STREET":"東寧路","SECT":" ","MAREA":" ","LANE":"１２０巷","ALLEY":" ","HOUSE_NO":"４５號四樓","E_COORD97":170265.22,"N_COORD97":2543501.54,"ADDRESS":"東寧路１２０巷４５號四樓","OBJECTID":452991},"geometry":{"x":170265.22000000067,"y":2543501.540000001}},{"attributes":{"ID":453017,"DIS_CODE":0,"TOWNNAME":"東區","LI":"中西里","LIN":"26鄰","STREET":"東寧路","SECT":" ","MAREA":" ","LANE":"１２０巷","ALLEY":" ","HOUSE_NO":"４５號三樓之３","E_COORD97":170265.22,"N_COORD97":2543501.54,"ADDRESS":"東寧路１２０巷４５號三樓之３","OBJECTID":452992},"geometry":{"x":170265.22000000067,"y":2543501.540000001}},{"attributes":{"ID":453018,"DIS_CODE":0,"TOWNNAME":"東區","LI":"中西里","LIN":"26鄰","STREET":"東寧路","SECT":" ","MAREA":" ","LANE":"１２０巷","ALLEY":" ","HOUSE_NO":"４５號五樓","E_COORD97":170265.22,"N_COORD97":2543501.54,"ADDRESS":"東寧路１２０巷４５號五樓","OBJECTID":452993},"geometry":{"x":170265.22000000067,"y":2543501.540000001}},{"attributes":{"ID":453019,"DIS_CODE":0,"TOWNNAME":"東區","LI":"中西里","LIN":"26鄰","STREET":"東寧路","SECT":" ","MAREA":" ","LANE":"１２０巷","ALLEY":" ","HOUSE_NO":"４５號五樓之１","E_COORD97":170265.22,"N_COORD97":2543501.54,"ADDRESS":"東寧路１２０巷４５號五樓之１","OBJECTID":452994},"geometry":{"x":170265.22000000067,"y":2543501.540000001}},{"attributes":{"ID":453020,"DIS_CODE":0,"TOWNNAME":"六甲區","LI":"二甲里","LIN":"26鄰","STREET":"中華路","SECT":" ","MAREA":" ","LANE":"１３４巷","ALLEY":" ","HOUSE_NO":"１號","E_COORD97":183129.82999999999,"N_COORD97":2569305.1499999999,"ADDRESS":"中華路１３４巷１號","OBJECTID":452995},"geometry":{"x":183129.83000000007,"y":2569305.1500000004}},{"attributes":{"ID":453021,"DIS_CODE":0,"TOWNNAME":"東區","LI":"中西里","LIN":"26鄰","STREET":"東寧路","SECT":" ","MAREA":" ","LANE":"１２０巷","ALLEY":" ","HOUSE_NO":"４５號五樓之２","E_COORD97":170265.22,"N_COORD97":2543501.54,"ADDRESS":"東寧路１２０巷４５號五樓之２","OBJECTID":452996},"geometry":{"x":170265.22000000067,"y":2543501.540000001}},{"attributes":{"ID":453022,"DIS_CODE":0,"TOWNNAME":"東區","LI":"中西里","LIN":"26鄰","STREET":"東寧路","SECT":" ","MAREA":" ","LANE":"１２０巷","ALLEY":" ","HOUSE_NO":"４５號六樓","E_COORD97":170265.22,"N_COORD97":2543501.54,"ADDRESS":"東寧路１２０巷４５號六樓","OBJECTID":452997},"geometry":{"x":170265.22000000067,"y":2543501.540000001}},{"attributes":{"ID":453023,"DIS_CODE":0,"TOWNNAME":"東區","LI":"中西里","LIN":"26鄰","STREET":"東寧路","SECT":" ","MAREA":" ","LANE":"１２０巷","ALLEY":" ","HOUSE_NO":"４５號六樓之１","E_COORD97":170265.22,"N_COORD97":2543501.54,"ADDRESS":"東寧路１２０巷４５號六樓之１","OBJECTID":452998},"geometry":{"x":170265.22000000067,"y":2543501.540000001}},{"attributes":{"ID":453024,"DIS_CODE":0,"TOWNNAME":"東區","LI":"中西里","LIN":"26鄰","STREET":"東寧路","SECT":" ","MAREA":" ","LANE":"１２０巷","ALLEY":" ","HOUSE_NO":"４５號六樓之２","E_COORD97":170265.22,"N_COORD97":2543501.54,"ADDRESS":"東寧路１２０巷４５號六樓之２","OBJECTID":452999},"geometry":{"x":170265.22000000067,"y":2543501.540000001}},{"attributes":{"ID":453025,"DIS_CODE":0,"TOWNNAME":"東區","LI":"中西里","LIN":"26鄰","STREET":"東寧路","SECT":" ","MAREA":" ","LANE":"１２０巷","ALLEY":" ","HOUSE_NO":"３７號二樓","E_COORD97":170240.57000000001,"N_COORD97":2543521.0699999998,"ADDRESS":"東寧路１２０巷３７號二樓","OBJECTID":453000},"geometry":{"x":170240.57000000216,"y":2543521.0700000003}}]}