{"displayFieldName":"TOWNNAME","fieldAliases":{"ID":"ID","DIS_CODE":"DIS_CODE","TOWNNAME":"TOWNNAME","LI":"LI","LIN":"LIN","STREET":"STREET","SECT":"SECT","MAREA":"MAREA","LANE":"LANE","ALLEY":"ALLEY","HOUSE_NO":"HOUSE_NO","E_COORD97":"E_COORD97","N_COORD97":"N_COORD97","ADDRESS":"ADDRESS","OBJECTID":"OBJECTID"},"geometryType":"esriGeometryPoint","spatialReference":{"wkid":102443,"latestWkid":3826},"fields":[{"name":"ID","type":"esriFieldTypeDouble","alias":"ID"},{"name":"DIS_CODE","type":"esriFieldTypeInteger","alias":"DIS_CODE"},{"name":"TOWNNAME","type":"esriFieldTypeString","alias":"TOWNNAME","length":8},{"name":"LI","type":"esriFieldTypeString","alias":"LI","length":8},{"name":"LIN","type":"esriFieldTypeString","alias":"LIN","length":12},{"name":"STREET","type":"esriFieldTypeString","alias":"STREET","length":20},{"name":"SECT","type":"esriFieldTypeString","alias":"SECT","length":8},{"name":"MAREA","type":"esriFieldTypeString","alias":"MAREA","length":12},{"name":"LANE","type":"esriFieldTypeString","alias":"LANE","length":10},{"name":"ALLEY","type":"esriFieldTypeString","alias":"ALLEY","length":10},{"name":"HOUSE_NO","type":"esriFieldTypeString","alias":"HOUSE_NO","length":20},{"name":"E_COORD97","type":"esriFieldTypeDouble","alias":"E_COORD97"},{"name":"N_COORD97","type":"esriFieldTypeDouble","alias":"N_COORD97"},{"name":"ADDRESS","type":"esriFieldTypeString","alias":"ADDRESS","length":50},{"name":"OBJECTID","type":"esriFieldTypeOID","alias":"OBJECTID"}],"features":[{"attributes":{"ID":287207,"DIS_CODE":0,"TOWNNAME":"安平區","LI":"華平里","LIN":"10鄰","STREET":"怡平路","SECT":" ","MAREA":" ","LANE":"４４２巷","ALLEY":" ","HOUSE_NO":"１６號之２","E_COORD97":165324.89999999999,"N_COORD97":2543888.7400000002,"ADDRESS":"怡平路４４２巷１６號之２","OBJECTID":287201},"geometry":{"x":165324.9000000013,"y":2543888.7400000021}},{"attributes":{"ID":287208,"DIS_CODE":0,"TOWNNAME":"北區","LI":"和順里","LIN":"10鄰","STREET":"民德路","SECT":" ","MAREA":" ","LANE":"１１５巷","ALLEY":" ","HOUSE_NO":"９號","E_COORD97":168119.73000000001,"N_COORD97":2545173.9199999999,"ADDRESS":"民德路１１５巷９號","OBJECTID":287202},"geometry":{"x":168119.73000000138,"y":2545173.9200000037}},{"attributes":{"ID":287209,"DIS_CODE":0,"TOWNNAME":"新市區","LI":"永就里","LIN":"2鄰","STREET":" ","SECT":" ","MAREA":"永就","LANE":" ","ALLEY":" ","HOUSE_NO":"１６之２號","E_COORD97":178373.37,"N_COORD97":2551345.2999999998,"ADDRESS":"永就１６之２號","OBJECTID":287203},"geometry":{"x":178373.37000000011,"y":2551345.3000000007}},{"attributes":{"ID":287210,"DIS_CODE":0,"TOWNNAME":"安南區","LI":"\u25A0南里","LIN":"2鄰","STREET":"安昌街","SECT":" ","MAREA":" ","LANE":" ","ALLEY":" ","HOUSE_NO":"１６７號","E_COORD97":170081.56,"N_COORD97":2552443.3700000001,"ADDRESS":"安昌街１６７號","OBJECTID":287204},"geometry":{"x":170081.55999999959,"y":2552443.370000001}},{"attributes":{"ID":287211,"DIS_CODE":0,"TOWNNAME":"安南區","LI":"\u25A0南里","LIN":"2鄰","STREET":"安昌街","SECT":" ","MAREA":" ","LANE":" ","ALLEY":" ","HOUSE_NO":"１６９號","E_COORD97":170084.32000000001,"N_COORD97":2552447.5,"ADDRESS":"安昌街１６９號","OBJECTID":287205},"geometry":{"x":170084.3200000003,"y":2552447.5000000019}},{"attributes":{"ID":287212,"DIS_CODE":0,"TOWNNAME":"安南區","LI":"淵中里","LIN":"4鄰","STREET":"安中路","SECT":"四段","MAREA":" ","LANE":" ","ALLEY":" ","HOUSE_NO":"６２號","E_COORD97":165189.88,"N_COORD97":2550057.9399999999,"ADDRESS":"安中路四段６２號","OBJECTID":287206},"geometry":{"x":165189.88000000175,"y":2550057.9399999995}},{"attributes":{"ID":287213,"DIS_CODE":0,"TOWNNAME":"安南區","LI":"淵中里","LIN":"4鄰","STREET":"安中路","SECT":"四段","MAREA":" ","LANE":" ","ALLEY":" ","HOUSE_NO":"７２號","E_COORD97":165181.07000000001,"N_COORD97":2550051.9900000002,"ADDRESS":"安中路四段７２號","OBJECTID":287207},"geometry":{"x":165181.07000000123,"y":2550051.9900000002}},{"attributes":{"ID":287214,"DIS_CODE":0,"TOWNNAME":"安南區","LI":"淵中里","LIN":"4鄰","STREET":"安中路","SECT":"四段","MAREA":" ","LANE":" ","ALLEY":" ","HOUSE_NO":"７８號","E_COORD97":165166.76999999999,"N_COORD97":2550042.6400000001,"ADDRESS":"安中路四段７８號","OBJECTID":287208},"geometry":{"x":165166.77000000048,"y":2550042.6400000025}},{"attributes":{"ID":287215,"DIS_CODE":0,"TOWNNAME":"安南區","LI":"淵中里","LIN":"4鄰","STREET":"安中路","SECT":"四段","MAREA":" ","LANE":" ","ALLEY":" ","HOUSE_NO":"７號","E_COORD97":165284.63,"N_COORD97":2550098.3500000001,"ADDRESS":"安中路四段７號","OBJECTID":287209},"geometry":{"x":165284.62999999896,"y":2550098.3500000015}},{"attributes":{"ID":287216,"DIS_CODE":0,"TOWNNAME":"安南區","LI":"淵中里","LIN":"4鄰","STREET":"安中路","SECT":"四段","MAREA":" ","LANE":" ","ALLEY":" ","HOUSE_NO":"８６號","E_COORD97":165155.89999999999,"N_COORD97":2550034.29,"ADDRESS":"安中路四段８６號","OBJECTID":287210},"geometry":{"x":165155.90000000037,"y":2550034.2899999991}},{"attributes":{"ID":287217,"DIS_CODE":0,"TOWNNAME":"安南區","LI":"淵中里","LIN":"4鄰","STREET":"安中路","SECT":"四段","MAREA":" ","LANE":" ","ALLEY":" ","HOUSE_NO":"８８號","E_COORD97":165148.70999999999,"N_COORD97":2550026.6600000001,"ADDRESS":"安中路四段８８號","OBJECTID":287211},"geometry":{"x":165148.71000000183,"y":2550026.6600000001}},{"attributes":{"ID":287218,"DIS_CODE":0,"TOWNNAME":"安南區","LI":"淵中里","LIN":"4鄰","STREET":"安中路","SECT":"四段","MAREA":" ","LANE":" ","ALLEY":" ","HOUSE_NO":"９號","E_COORD97":165281.66,"N_COORD97":2550095.7400000002,"ADDRESS":"安中路四段９號","OBJECTID":287212},"geometry":{"x":165281.66000000108,"y":2550095.7400000021}},{"attributes":{"ID":287219,"DIS_CODE":0,"TOWNNAME":"歸仁區","LI":"六甲里","LIN":"10鄰","STREET":"六甲路","SECT":" ","MAREA":" ","LANE":"１５１巷","ALLEY":" ","HOUSE_NO":"２２號","E_COORD97":176129.10999999999,"N_COORD97":2539134.25,"ADDRESS":"六甲路１５１巷２２號","OBJECTID":287213},"geometry":{"x":176129.11000000034,"y":2539134.2500000019}},{"attributes":{"ID":287220,"DIS_CODE":0,"TOWNNAME":"歸仁區","LI":"六甲里","LIN":"10鄰","STREET":"六甲路","SECT":" ","MAREA":" ","LANE":"１５１巷","ALLEY":" ","HOUSE_NO":"１７號","E_COORD97":176145.60999999999,"N_COORD97":2539154.25,"ADDRESS":"六甲路１５１巷１７號","OBJECTID":287214},"geometry":{"x":176145.61000000034,"y":2539154.2500000019}},{"attributes":{"ID":287221,"DIS_CODE":0,"TOWNNAME":"歸仁區","LI":"八甲里","LIN":"10鄰","STREET":"大明街","SECT":" ","MAREA":" ","LANE":"１９巷","ALLEY":" ","HOUSE_NO":"１８號","E_COORD97":177785.72,"N_COORD97":2541937.6099999999,"ADDRESS":"大明街１９巷１８號","OBJECTID":287215},"geometry":{"x":177785.71999999974,"y":2541937.6099999975}},{"attributes":{"ID":287222,"DIS_CODE":0,"TOWNNAME":"新營區","LI":"新南里","LIN":"10鄰","STREET":"新北五街","SECT":" ","MAREA":" ","LANE":"１４３巷","ALLEY":" ","HOUSE_NO":"４０之６號","E_COORD97":178468.70999999999,"N_COORD97":2579114.9900000002,"ADDRESS":"新北五街１４３巷４０之６號","OBJECTID":287216},"geometry":{"x":178468.70999999996,"y":2579114.9900000039}},{"attributes":{"ID":287223,"DIS_CODE":0,"TOWNNAME":"新營區","LI":"興業里","LIN":"10鄰","STREET":"公誠街","SECT":" ","MAREA":" ","LANE":"６巷","ALLEY":" ","HOUSE_NO":"３號","E_COORD97":180265,"N_COORD97":2578002.23,"ADDRESS":"公誠街６巷３號","OBJECTID":287217},"geometry":{"x":180265.00000000093,"y":2578002.2300000023}},{"attributes":{"ID":287224,"DIS_CODE":0,"TOWNNAME":"新營區","LI":"南興里","LIN":"10鄰","STREET":"和平路","SECT":" ","MAREA":" ","LANE":"１０２巷","ALLEY":" ","HOUSE_NO":"１９號","E_COORD97":179352.81,"N_COORD97":2577592.3700000001,"ADDRESS":"和平路１０２巷１９號","OBJECTID":287218},"geometry":{"x":179352.80999999959,"y":2577592.3700000029}},{"attributes":{"ID":287225,"DIS_CODE":0,"TOWNNAME":"安平區","LI":"國平里","LIN":"10鄰","STREET":"建平一街","SECT":" ","MAREA":" ","LANE":"２２４巷","ALLEY":" ","HOUSE_NO":"１５號","E_COORD97":165438.48000000001,"N_COORD97":2542868.7799999998,"ADDRESS":"建平一街２２４巷１５號","OBJECTID":287219},"geometry":{"x":165438.48000000045,"y":2542868.7800000031}},{"attributes":{"ID":287226,"DIS_CODE":0,"TOWNNAME":"安平區","LI":"國平里","LIN":"10鄰","STREET":"建平一街","SECT":" ","MAREA":" ","LANE":"２３８巷","ALLEY":" ","HOUSE_NO":"１１號","E_COORD97":165392.35000000001,"N_COORD97":2542847.6200000001,"ADDRESS":"建平一街２３８巷１１號","OBJECTID":287220},"geometry":{"x":165392.34999999963,"y":2542847.620000001}},{"attributes":{"ID":287227,"DIS_CODE":0,"TOWNNAME":"安平區","LI":"國平里","LIN":"10鄰","STREET":"建平一街","SECT":" ","MAREA":" ","LANE":"２３８巷","ALLEY":" ","HOUSE_NO":"７號","E_COORD97":165389.92999999999,"N_COORD97":2542835.7200000002,"ADDRESS":"建平一街２３８巷７號","OBJECTID":287221},"geometry":{"x":165389.93000000063,"y":2542835.7200000007}},{"attributes":{"ID":287228,"DIS_CODE":0,"TOWNNAME":"安平區","LI":"國平里","LIN":"10鄰","STREET":"建平一街","SECT":" ","MAREA":" ","LANE":"２３８巷","ALLEY":" ","HOUSE_NO":"９號","E_COORD97":165390.94,"N_COORD97":2542841.5699999998,"ADDRESS":"建平一街２３８巷９號","OBJECTID":287222},"geometry":{"x":165390.94000000041,"y":2542841.5700000022}},{"attributes":{"ID":287229,"DIS_CODE":0,"TOWNNAME":"南區","LI":"喜東里","LIN":"10鄰","STREET":"明興路","SECT":" ","MAREA":" ","LANE":"６１１巷","ALLEY":" ","HOUSE_NO":"１３５號","E_COORD97":166419.69,"N_COORD97":2538106.2599999998,"ADDRESS":"明興路６１１巷１３５號","OBJECTID":287223},"geometry":{"x":166419.69000000134,"y":2538106.2600000035}},{"attributes":{"ID":287230,"DIS_CODE":0,"TOWNNAME":"安南區","LI":"淵中里","LIN":"5鄰","STREET":"安中路","SECT":"四段","MAREA":" ","LANE":" ","ALLEY":" ","HOUSE_NO":"８號","E_COORD97":165283.26999999999,"N_COORD97":2550126.3900000001,"ADDRESS":"安中路四段８號","OBJECTID":287224},"geometry":{"x":165283.26999999955,"y":2550126.3900000025}},{"attributes":{"ID":287231,"DIS_CODE":0,"TOWNNAME":"安南區","LI":"\u25A0南里","LIN":"4鄰","STREET":"環福街","SECT":" ","MAREA":" ","LANE":" ","ALLEY":" ","HOUSE_NO":"１１號","E_COORD97":170167.38,"N_COORD97":2552494.4500000002,"ADDRESS":"環福街１１號","OBJECTID":287225},"geometry":{"x":170167.38000000082,"y":2552494.4500000011}},{"attributes":{"ID":287232,"DIS_CODE":0,"TOWNNAME":"七股區","LI":"十份里","LIN":"2鄰","STREET":" ","SECT":" ","MAREA":"十份","LANE":" ","ALLEY":" ","HOUSE_NO":"１６號之１","E_COORD97":158432.01999999999,"N_COORD97":2555137.5800000001,"ADDRESS":"十份１６號之１","OBJECTID":287226},"geometry":{"x":158432.02000000048,"y":2555137.5800000038}},{"attributes":{"ID":287233,"DIS_CODE":0,"TOWNNAME":"七股區","LI":"十份里","LIN":"2鄰","STREET":" ","SECT":" ","MAREA":"十份","LANE":" ","ALLEY":" ","HOUSE_NO":"１６號之３６","E_COORD97":158458.34,"N_COORD97":2555182.2999999998,"ADDRESS":"十份１６號之３６","OBJECTID":287227},"geometry":{"x":158458.33999999892,"y":2555182.3000000026}},{"attributes":{"ID":287234,"DIS_CODE":0,"TOWNNAME":"永康區","LI":"南灣里","LIN":"2鄰","STREET":"大灣路","SECT":" ","MAREA":" ","LANE":" ","ALLEY":" ","HOUSE_NO":"４３１號","E_COORD97":174701.72,"N_COORD97":2544789.9399999999,"ADDRESS":"大灣路４３１號","OBJECTID":287228},"geometry":{"x":174701.71999999974,"y":2544789.9399999995}},{"attributes":{"ID":287235,"DIS_CODE":0,"TOWNNAME":"永康區","LI":"南灣里","LIN":"2鄰","STREET":"大灣路","SECT":" ","MAREA":" ","LANE":" ","ALLEY":" ","HOUSE_NO":"４７５號","E_COORD97":174644.95000000001,"N_COORD97":2544670.1099999999,"ADDRESS":"大灣路４７５號","OBJECTID":287229},"geometry":{"x":174644.95000000019,"y":2544670.1099999994}},{"attributes":{"ID":287236,"DIS_CODE":0,"TOWNNAME":"永康區","LI":"尚頂里","LIN":"2鄰","STREET":"\u25A0信街","SECT":" ","MAREA":" ","LANE":" ","ALLEY":" ","HOUSE_NO":"１９７號","E_COORD97":171040.04000000001,"N_COORD97":2547810.9900000002,"ADDRESS":"\u25A0信街１９７號","OBJECTID":287230},"geometry":{"x":171040.04000000004,"y":2547810.9900000002}},{"attributes":{"ID":287237,"DIS_CODE":0,"TOWNNAME":"北區","LI":"仁愛里","LIN":"10鄰","STREET":"東豐路","SECT":" ","MAREA":" ","LANE":"２２７巷","ALLEY":" ","HOUSE_NO":"２６號","E_COORD97":170107.85000000001,"N_COORD97":2544976.1200000001,"ADDRESS":"東豐路２２７巷２６號","OBJECTID":287231},"geometry":{"x":170107.85000000056,"y":2544976.120000001}},{"attributes":{"ID":287238,"DIS_CODE":0,"TOWNNAME":"永康區","LI":"建國里","LIN":"2鄰","STREET":"復興路","SECT":" ","MAREA":" ","LANE":" ","ALLEY":" ","HOUSE_NO":"９６號","E_COORD97":172812.94,"N_COORD97":2544344.3900000001,"ADDRESS":"復興路９６號","OBJECTID":287232},"geometry":{"x":172812.94000000041,"y":2544344.3900000043}},{"attributes":{"ID":287239,"DIS_CODE":0,"TOWNNAME":"永康區","LI":"建國里","LIN":"2鄰","STREET":"復興路","SECT":" ","MAREA":" ","LANE":" ","ALLEY":" ","HOUSE_NO":"９８號","E_COORD97":172806.29999999999,"N_COORD97":2544344.3900000001,"ADDRESS":"復興路９８號","OBJECTID":287233},"geometry":{"x":172806.29999999981,"y":2544344.3900000043}},{"attributes":{"ID":287240,"DIS_CODE":0,"TOWNNAME":"永康區","LI":"南灣里","LIN":"2鄰","STREET":"大灣路","SECT":" ","MAREA":" ","LANE":" ","ALLEY":" ","HOUSE_NO":"４６９號","E_COORD97":174650.51999999999,"N_COORD97":2544684.02,"ADDRESS":"大灣路４６９號","OBJECTID":287234},"geometry":{"x":174650.51999999955,"y":2544684.0199999996}},{"attributes":{"ID":287241,"DIS_CODE":0,"TOWNNAME":"北區","LI":"仁愛里","LIN":"10鄰","STREET":"東豐路","SECT":" ","MAREA":" ","LANE":"２２７巷","ALLEY":" ","HOUSE_NO":"２８號","E_COORD97":170101.42000000001,"N_COORD97":2544998.1200000001,"ADDRESS":"東豐路２２７巷２８號","OBJECTID":287235},"geometry":{"x":170101.41999999993,"y":2544998.1200000029}},{"attributes":{"ID":287242,"DIS_CODE":0,"TOWNNAME":"北區","LI":"仁愛里","LIN":"10鄰","STREET":"東豐路","SECT":" ","MAREA":" ","LANE":"２２７巷","ALLEY":" ","HOUSE_NO":"３０號","E_COORD97":170100.92999999999,"N_COORD97":2545003.3799999999,"ADDRESS":"東豐路２２７巷３０號","OBJECTID":287236},"geometry":{"x":170100.93000000063,"y":2545003.379999999}},{"attributes":{"ID":287243,"DIS_CODE":0,"TOWNNAME":"北區","LI":"仁愛里","LIN":"10鄰","STREET":"東豐路","SECT":" ","MAREA":" ","LANE":"２２７巷","ALLEY":" ","HOUSE_NO":"３２號","E_COORD97":170100.44,"N_COORD97":2545007.4199999999,"ADDRESS":"東豐路２２７巷３２號","OBJECTID":287237},"geometry":{"x":170100.44000000041,"y":2545007.4199999999}},{"attributes":{"ID":287244,"DIS_CODE":0,"TOWNNAME":"南區","LI":"新生里","LIN":"10鄰","STREET":"大同路","SECT":"二段","MAREA":" ","LANE":"１３６巷","ALLEY":" ","HOUSE_NO":"１號","E_COORD97":169284.95999999999,"N_COORD97":2542151.9700000002,"ADDRESS":"大同路二段１３６巷１號","OBJECTID":287238},"geometry":{"x":169284.96000000183,"y":2542151.9700000025}},{"attributes":{"ID":287245,"DIS_CODE":0,"TOWNNAME":"南區","LI":"新生里","LIN":"10鄰","STREET":"大同路","SECT":"二段","MAREA":" ","LANE":"１３６巷","ALLEY":" ","HOUSE_NO":"３號","E_COORD97":169274.64000000001,"N_COORD97":2542148.2799999998,"ADDRESS":"大同路二段１３６巷３號","OBJECTID":287239},"geometry":{"x":169274.63999999966,"y":2542148.2800000012}},{"attributes":{"ID":287246,"DIS_CODE":0,"TOWNNAME":"北區","LI":"大道里","LIN":"10鄰","STREET":"北門路","SECT":"二段","MAREA":" ","LANE":"５２７巷","ALLEY":" ","HOUSE_NO":"３號","E_COORD97":169604.26000000001,"N_COORD97":2545622.4700000002,"ADDRESS":"北門路二段５２７巷３號","OBJECTID":287240},"geometry":{"x":169604.25999999978,"y":2545622.4700000025}},{"attributes":{"ID":287247,"DIS_CODE":0,"TOWNNAME":"北區","LI":"光武里","LIN":"10鄰","STREET":"北門路","SECT":"二段","MAREA":" ","LANE":"５４７巷","ALLEY":" ","HOUSE_NO":"３０號","E_COORD97":169605.69,"N_COORD97":2545721.2999999998,"ADDRESS":"北門路二段５４７巷３０號","OBJECTID":287241},"geometry":{"x":169605.69000000041,"y":2545721.3000000007}},{"attributes":{"ID":287248,"DIS_CODE":0,"TOWNNAME":"永康區","LI":"正強里","LIN":"2鄰","STREET":"中正路","SECT":" ","MAREA":" ","LANE":"１巷","ALLEY":" ","HOUSE_NO":"４號","E_COORD97":173695.5,"N_COORD97":2547665.3900000001,"ADDRESS":"中正路１巷４號","OBJECTID":287242},"geometry":{"x":173695.50000000186,"y":2547665.3900000006}},{"attributes":{"ID":287249,"DIS_CODE":0,"TOWNNAME":"七股區","LI":"三股里","LIN":"2鄰","STREET":" ","SECT":" ","MAREA":"三股","LANE":" ","ALLEY":" ","HOUSE_NO":"１７號之４","E_COORD97":159656.42000000001,"N_COORD97":2555485.71,"ADDRESS":"三股１７號之４","OBJECTID":287243},"geometry":{"x":159656.42000000179,"y":2555485.7100000009}},{"attributes":{"ID":287250,"DIS_CODE":0,"TOWNNAME":"永康區","LI":"建國里","LIN":"2鄰","STREET":"復興路","SECT":" ","MAREA":" ","LANE":" ","ALLEY":" ","HOUSE_NO":"９０號","E_COORD97":172825.79000000001,"N_COORD97":2544344.6400000001,"ADDRESS":"復興路９０號","OBJECTID":287244},"geometry":{"x":172825.7900000019,"y":2544344.6400000006}},{"attributes":{"ID":287251,"DIS_CODE":0,"TOWNNAME":"七股區","LI":"三股里","LIN":"2鄰","STREET":" ","SECT":" ","MAREA":"三股","LANE":" ","ALLEY":" ","HOUSE_NO":"１７號之５","E_COORD97":159656.85000000001,"N_COORD97":2555481.6499999999,"ADDRESS":"三股１７號之５","OBJECTID":287245},"geometry":{"x":159656.85000000056,"y":2555481.6500000004}},{"attributes":{"ID":287252,"DIS_CODE":0,"TOWNNAME":"七股區","LI":"三股里","LIN":"2鄰","STREET":" ","SECT":" ","MAREA":"三股","LANE":" ","ALLEY":" ","HOUSE_NO":"１７號之６","E_COORD97":159657.26999999999,"N_COORD97":2555477.5899999999,"ADDRESS":"三股１７號之６","OBJECTID":287246},"geometry":{"x":159657.27000000048,"y":2555477.5900000017}},{"attributes":{"ID":287253,"DIS_CODE":0,"TOWNNAME":"七股區","LI":"三股里","LIN":"2鄰","STREET":" ","SECT":" ","MAREA":"三股","LANE":" ","ALLEY":" ","HOUSE_NO":"１７號之７","E_COORD97":159657.70000000001,"N_COORD97":2555473.5299999998,"ADDRESS":"三股１７號之７","OBJECTID":287247},"geometry":{"x":159657.70000000019,"y":2555473.5300000012}},{"attributes":{"ID":287254,"DIS_CODE":0,"TOWNNAME":"七股區","LI":"三股里","LIN":"2鄰","STREET":" ","SECT":" ","MAREA":"三股","LANE":" ","ALLEY":" ","HOUSE_NO":"１７號之８","E_COORD97":159659.25,"N_COORD97":2555469.2400000002,"ADDRESS":"三股１７號之８","OBJECTID":287248},"geometry":{"x":159659.24999999907,"y":2555469.2400000021}},{"attributes":{"ID":287255,"DIS_CODE":0,"TOWNNAME":"七股區","LI":"玉成里","LIN":"2鄰","STREET":" ","SECT":" ","MAREA":"玉成","LANE":" ","ALLEY":" ","HOUSE_NO":"１０號","E_COORD97":161454.54999999999,"N_COORD97":2559947.6499999999,"ADDRESS":"玉成１０號","OBJECTID":287249},"geometry":{"x":161454.55000000075,"y":2559947.6500000004}},{"attributes":{"ID":287256,"DIS_CODE":0,"TOWNNAME":"七股區","LI":"三股里","LIN":"2鄰","STREET":" ","SECT":" ","MAREA":"三股","LANE":" ","ALLEY":" ","HOUSE_NO":"１７號之９","E_COORD97":159660.29999999999,"N_COORD97":2555464.6099999999,"ADDRESS":"三股１７號之９","OBJECTID":287250},"geometry":{"x":159660.29999999981,"y":2555464.6099999994}},{"attributes":{"ID":287257,"DIS_CODE":0,"TOWNNAME":"七股區","LI":"三股里","LIN":"2鄰","STREET":" ","SECT":" ","MAREA":"三股","LANE":" ","ALLEY":" ","HOUSE_NO":"１７號","E_COORD97":159685.54000000001,"N_COORD97":2555420.3700000001,"ADDRESS":"三股１７號","OBJECTID":287251},"geometry":{"x":159685.54000000004,"y":2555420.370000001}},{"attributes":{"ID":287258,"DIS_CODE":0,"TOWNNAME":"新營區","LI":"興業里","LIN":"10鄰","STREET":"公誠街","SECT":" ","MAREA":" ","LANE":"６巷","ALLEY":" ","HOUSE_NO":"３３號","E_COORD97":180174.13,"N_COORD97":2578010.2000000002,"ADDRESS":"公誠街６巷３３號","OBJECTID":287252},"geometry":{"x":180174.13000000082,"y":2578010.1999999993}},{"attributes":{"ID":287259,"DIS_CODE":0,"TOWNNAME":"新營區","LI":"南紙里","LIN":"10鄰","STREET":"南紙街","SECT":" ","MAREA":" ","LANE":"８２巷","ALLEY":" ","HOUSE_NO":"６號","E_COORD97":177746.62,"N_COORD97":2577595.6800000002,"ADDRESS":"南紙街８２巷６號","OBJECTID":287253},"geometry":{"x":177746.62000000104,"y":2577595.6800000016}},{"attributes":{"ID":287260,"DIS_CODE":0,"TOWNNAME":"北區","LI":"國姓里","LIN":"10鄰","STREET":"小北路","SECT":" ","MAREA":" ","LANE":"２７巷","ALLEY":" ","HOUSE_NO":"２０號之２","E_COORD97":168869.92999999999,"N_COORD97":2545344.8300000001,"ADDRESS":"小北路２７巷２０號之２","OBJECTID":287254},"geometry":{"x":168869.93000000063,"y":2545344.8300000019}},{"attributes":{"ID":287261,"DIS_CODE":0,"TOWNNAME":"永康區","LI":"南灣里","LIN":"2鄰","STREET":"大灣路","SECT":" ","MAREA":" ","LANE":" ","ALLEY":" ","HOUSE_NO":"４３７號之１","E_COORD97":174692.79999999999,"N_COORD97":2544768.04,"ADDRESS":"大灣路４３７號之１","OBJECTID":287255},"geometry":{"x":174692.79999999981,"y":2544768.0399999991}},{"attributes":{"ID":287262,"DIS_CODE":0,"TOWNNAME":"永康區","LI":"南灣里","LIN":"2鄰","STREET":"大灣路","SECT":" ","MAREA":" ","LANE":" ","ALLEY":" ","HOUSE_NO":"４５９號","E_COORD97":174674.38,"N_COORD97":2544692.4900000002,"ADDRESS":"大灣路４５９號","OBJECTID":287256},"geometry":{"x":174674.38000000175,"y":2544692.4900000039}},{"attributes":{"ID":287263,"DIS_CODE":0,"TOWNNAME":"新營區","LI":"南興里","LIN":"10鄰","STREET":"和平路","SECT":" ","MAREA":" ","LANE":"１０４巷","ALLEY":" ","HOUSE_NO":"１４之２號","E_COORD97":179368.48999999999,"N_COORD97":2577566.8799999999,"ADDRESS":"和平路１０４巷１４之２號","OBJECTID":287257},"geometry":{"x":179368.49000000115,"y":2577566.879999999}},{"attributes":{"ID":287264,"DIS_CODE":0,"TOWNNAME":"永康區","LI":"南灣里","LIN":"2鄰","STREET":"大灣路","SECT":" ","MAREA":" ","LANE":" ","ALLEY":" ","HOUSE_NO":"４４７號","E_COORD97":174675.13,"N_COORD97":2544731.98,"ADDRESS":"大灣路４４７號","OBJECTID":287258},"geometry":{"x":174675.13000000082,"y":2544731.9800000004}},{"attributes":{"ID":287265,"DIS_CODE":0,"TOWNNAME":"永康區","LI":"南灣里","LIN":"2鄰","STREET":"大灣路","SECT":" ","MAREA":" ","LANE":" ","ALLEY":" ","HOUSE_NO":"４３３號","E_COORD97":174694.39000000001,"N_COORD97":2544774.8900000001,"ADDRESS":"大灣路４３３號","OBJECTID":287259},"geometry":{"x":174694.39000000153,"y":2544774.8900000043}},{"attributes":{"ID":287266,"DIS_CODE":0,"TOWNNAME":"永康區","LI":"南灣里","LIN":"2鄰","STREET":"大灣路","SECT":" ","MAREA":" ","LANE":" ","ALLEY":" ","HOUSE_NO":"４４９號","E_COORD97":174672.82999999999,"N_COORD97":2544727.98,"ADDRESS":"大灣路４４９號","OBJECTID":287260},"geometry":{"x":174672.83000000007,"y":2544727.9800000023}},{"attributes":{"ID":287267,"DIS_CODE":0,"TOWNNAME":"佳里區","LI":"安西里","LIN":"2鄰","STREET":"民生街","SECT":" ","MAREA":" ","LANE":" ","ALLEY":" ","HOUSE_NO":"１８號","E_COORD97":165635.92000000001,"N_COORD97":2562623.1000000001,"ADDRESS":"民生街１８號","OBJECTID":287261},"geometry":{"x":165635.92000000086,"y":2562623.1000000015}},{"attributes":{"ID":287268,"DIS_CODE":0,"TOWNNAME":"歸仁區","LI":"七甲里","LIN":"10鄰","STREET":"七甲一街","SECT":" ","MAREA":" ","LANE":"３６巷","ALLEY":" ","HOUSE_NO":"８號","E_COORD97":177627.29000000001,"N_COORD97":2542406.6600000001,"ADDRESS":"七甲一街３６巷８號","OBJECTID":287262},"geometry":{"x":177627.29000000097,"y":2542406.660000002}},{"attributes":{"ID":287269,"DIS_CODE":0,"TOWNNAME":"歸仁區","LI":"六甲里","LIN":"10鄰","STREET":"六甲路","SECT":" ","MAREA":" ","LANE":"１５１巷","ALLEY":" ","HOUSE_NO":"２１號","E_COORD97":176142.41,"N_COORD97":2539139.25,"ADDRESS":"六甲路１５１巷２１號","OBJECTID":287263},"geometry":{"x":176142.41000000201,"y":2539139.25}},{"attributes":{"ID":287270,"DIS_CODE":0,"TOWNNAME":"安平區","LI":"石門里","LIN":"10鄰","STREET":"安北路","SECT":" ","MAREA":" ","LANE":"３１巷","ALLEY":" ","HOUSE_NO":"３號","E_COORD97":164595.47,"N_COORD97":2544519.9100000001,"ADDRESS":"安北路３１巷３號","OBJECTID":287264},"geometry":{"x":164595.46999999974,"y":2544519.9100000039}},{"attributes":{"ID":287271,"DIS_CODE":0,"TOWNNAME":"北區","LI":"勝安里","LIN":"10鄰","STREET":"開元路","SECT":" ","MAREA":" ","LANE":"２４９巷","ALLEY":" ","HOUSE_NO":"８３號","E_COORD97":169795.76000000001,"N_COORD97":2545559.0299999998,"ADDRESS":"開元路２４９巷８３號","OBJECTID":287265},"geometry":{"x":169795.75999999978,"y":2545559.0299999975}},{"attributes":{"ID":287272,"DIS_CODE":0,"TOWNNAME":"佳里區","LI":"安西里","LIN":"2鄰","STREET":"民生街","SECT":" ","MAREA":" ","LANE":" ","ALLEY":" ","HOUSE_NO":"２０號","E_COORD97":165637.01000000001,"N_COORD97":2562645.25,"ADDRESS":"民生街２０號","OBJECTID":287266},"geometry":{"x":165637.01000000071,"y":2562645.25}},{"attributes":{"ID":287273,"DIS_CODE":0,"TOWNNAME":"七股區","LI":"大寮里","LIN":"2鄰","STREET":" ","SECT":" ","MAREA":"大寮","LANE":" ","ALLEY":" ","HOUSE_NO":"１２號之１","E_COORD97":163030.41,"N_COORD97":2560921.1200000001,"ADDRESS":"大寮１２號之１","OBJECTID":287267},"geometry":{"x":163030.41000000108,"y":2560921.120000001}},{"attributes":{"ID":287274,"DIS_CODE":0,"TOWNNAME":"七股區","LI":"大寮里","LIN":"2鄰","STREET":" ","SECT":" ","MAREA":"大寮","LANE":" ","ALLEY":" ","HOUSE_NO":"１２號","E_COORD97":163039.98999999999,"N_COORD97":2560937.3900000001,"ADDRESS":"大寮１２號","OBJECTID":287268},"geometry":{"x":163039.99000000209,"y":2560937.3900000025}},{"attributes":{"ID":287275,"DIS_CODE":0,"TOWNNAME":"七股區","LI":"大寮里","LIN":"2鄰","STREET":" ","SECT":" ","MAREA":"大寮","LANE":" ","ALLEY":" ","HOUSE_NO":"１３號","E_COORD97":163048.98999999999,"N_COORD97":2560951.6499999999,"ADDRESS":"大寮１３號","OBJECTID":287269},"geometry":{"x":163048.99000000115,"y":2560951.6500000041}},{"attributes":{"ID":287276,"DIS_CODE":0,"TOWNNAME":"七股區","LI":"大寮里","LIN":"2鄰","STREET":" ","SECT":" ","MAREA":"大寮","LANE":" ","ALLEY":" ","HOUSE_NO":"１５號","E_COORD97":163022.95000000001,"N_COORD97":2560997.3599999999,"ADDRESS":"大寮１５號","OBJECTID":287270},"geometry":{"x":163022.95000000019,"y":2560997.3600000013}},{"attributes":{"ID":287277,"DIS_CODE":0,"TOWNNAME":"七股區","LI":"大寮里","LIN":"2鄰","STREET":" ","SECT":" ","MAREA":"大寮","LANE":" ","ALLEY":" ","HOUSE_NO":"１６號","E_COORD97":162993.85000000001,"N_COORD97":2561008.6200000001,"ADDRESS":"大寮１６號","OBJECTID":287271},"geometry":{"x":162993.84999999963,"y":2561008.6200000029}},{"attributes":{"ID":287278,"DIS_CODE":0,"TOWNNAME":"七股區","LI":"大寮里","LIN":"2鄰","STREET":" ","SECT":" ","MAREA":"大寮","LANE":" ","ALLEY":" ","HOUSE_NO":"１０號之１","E_COORD97":162989.92000000001,"N_COORD97":2560930.3700000001,"ADDRESS":"大寮１０號之１","OBJECTID":287272},"geometry":{"x":162989.92000000086,"y":2560930.370000001}},{"attributes":{"ID":287279,"DIS_CODE":0,"TOWNNAME":"南區","LI":"金華里","LIN":"10鄰","STREET":"金華路","SECT":"二段","MAREA":" ","LANE":"８１巷","ALLEY":" ","HOUSE_NO":"３８號","E_COORD97":166934.12,"N_COORD97":2542224.1099999999,"ADDRESS":"金華路二段８１巷３８號","OBJECTID":287273},"geometry":{"x":166934.12000000011,"y":2542224.1100000013}},{"attributes":{"ID":287280,"DIS_CODE":0,"TOWNNAME":"南區","LI":"金華里","LIN":"10鄰","STREET":"金華路","SECT":"二段","MAREA":" ","LANE":"８１巷","ALLEY":" ","HOUSE_NO":"４０號","E_COORD97":166930.26000000001,"N_COORD97":2542223.1499999999,"ADDRESS":"金華路二段８１巷４０號","OBJECTID":287274},"geometry":{"x":166930.26000000071,"y":2542223.1499999985}},{"attributes":{"ID":287281,"DIS_CODE":0,"TOWNNAME":"南區","LI":"金華里","LIN":"10鄰","STREET":"金華路","SECT":"二段","MAREA":" ","LANE":"８１巷","ALLEY":" ","HOUSE_NO":"４２號","E_COORD97":166924.47,"N_COORD97":2542224.1099999999,"ADDRESS":"金華路二段８１巷４２號","OBJECTID":287275},"geometry":{"x":166924.46999999974,"y":2542224.1100000013}},{"attributes":{"ID":287282,"DIS_CODE":0,"TOWNNAME":"安南區","LI":"城西里","LIN":"2鄰","STREET":"城西街","SECT":"三段","MAREA":" ","LANE":" ","ALLEY":" ","HOUSE_NO":"４２８號","E_COORD97":157321.29000000001,"N_COORD97":2550909.8900000001,"ADDRESS":"城西街三段４２８號","OBJECTID":287276},"geometry":{"x":157321.29000000004,"y":2550909.8900000006}},{"attributes":{"ID":287283,"DIS_CODE":0,"TOWNNAME":"南區","LI":"金華里","LIN":"10鄰","STREET":"金華路","SECT":"二段","MAREA":" ","LANE":"８１巷","ALLEY":" ","HOUSE_NO":"４２號之１","E_COORD97":166918.20000000001,"N_COORD97":2542224.1099999999,"ADDRESS":"金華路二段８１巷４２號之１","OBJECTID":287277},"geometry":{"x":166918.20000000019,"y":2542224.1100000013}},{"attributes":{"ID":287284,"DIS_CODE":0,"TOWNNAME":"南區","LI":"松安里","LIN":"10鄰","STREET":"興南街","SECT":" ","MAREA":" ","LANE":"２５２巷","ALLEY":" ","HOUSE_NO":"９６號","E_COORD97":165906.54000000001,"N_COORD97":2536022.6099999999,"ADDRESS":"興南街２５２巷９６號","OBJECTID":287278},"geometry":{"x":165906.54000000097,"y":2536022.6100000013}},{"attributes":{"ID":287285,"DIS_CODE":0,"TOWNNAME":"新市區","LI":"社內里","LIN":"2鄰","STREET":" ","SECT":" ","MAREA":"社內","LANE":" ","ALLEY":" ","HOUSE_NO":"２２號之３４","E_COORD97":176895.31,"N_COORD97":2552837.5499999998,"ADDRESS":"社內２２號之３４","OBJECTID":287279},"geometry":{"x":176895.31000000145,"y":2552837.5500000026}},{"attributes":{"ID":287286,"DIS_CODE":0,"TOWNNAME":"南區","LI":"松安里","LIN":"10鄰","STREET":"興南街","SECT":" ","MAREA":" ","LANE":"２５２巷","ALLEY":" ","HOUSE_NO":"９８號","E_COORD97":165913.20999999999,"N_COORD97":2536023.04,"ADDRESS":"興南街２５２巷９８號","OBJECTID":287280},"geometry":{"x":165913.21000000183,"y":2536023.040000001}},{"attributes":{"ID":287287,"DIS_CODE":0,"TOWNNAME":"新市區","LI":"永就里","LIN":"2鄰","STREET":" ","SECT":" ","MAREA":"永就","LANE":" ","ALLEY":" ","HOUSE_NO":"２２號","E_COORD97":178433.25,"N_COORD97":2551365.25,"ADDRESS":"永就２２號","OBJECTID":287281},"geometry":{"x":178433.25,"y":2551365.25}},{"attributes":{"ID":287288,"DIS_CODE":0,"TOWNNAME":"新營區","LI":"民生里","LIN":"10鄰","STREET":"復興路","SECT":" ","MAREA":" ","LANE":"１４８巷","ALLEY":" ","HOUSE_NO":"６號","E_COORD97":179246.57999999999,"N_COORD97":2578098.9700000002,"ADDRESS":"復興路１４８巷６號","OBJECTID":287282},"geometry":{"x":179246.58000000007,"y":2578098.9700000025}},{"attributes":{"ID":287289,"DIS_CODE":0,"TOWNNAME":"新市區","LI":"社內里","LIN":"2鄰","STREET":" ","SECT":" ","MAREA":"社內","LANE":" ","ALLEY":" ","HOUSE_NO":"２８之３７號","E_COORD97":176846.92000000001,"N_COORD97":2552841.7999999998,"ADDRESS":"社內２８之３７號","OBJECTID":287283},"geometry":{"x":176846.91999999993,"y":2552841.8000000026}},{"attributes":{"ID":287290,"DIS_CODE":0,"TOWNNAME":"新營區","LI":"延平里","LIN":"10鄰","STREET":"復興路","SECT":" ","MAREA":" ","LANE":"２９巷","ALLEY":" ","HOUSE_NO":"３０號","E_COORD97":179648.34618299999,"N_COORD97":2577931.65234,"ADDRESS":"復興路２９巷３０號","OBJECTID":287284},"geometry":{"x":179648.34618300013,"y":2577931.6523410007}},{"attributes":{"ID":287291,"DIS_CODE":0,"TOWNNAME":"新市區","LI":"社內里","LIN":"2鄰","STREET":" ","SECT":" ","MAREA":"社內","LANE":" ","ALLEY":" ","HOUSE_NO":"２２之３５號","E_COORD97":176885.31,"N_COORD97":2552837.2999999998,"ADDRESS":"社內２２之３５號","OBJECTID":287285},"geometry":{"x":176885.31000000052,"y":2552837.3000000007}},{"attributes":{"ID":287292,"DIS_CODE":0,"TOWNNAME":"新市區","LI":"社內里","LIN":"2鄰","STREET":" ","SECT":" ","MAREA":"社內","LANE":" ","ALLEY":" ","HOUSE_NO":"２９之１號","E_COORD97":176817.78,"N_COORD97":2552758.2999999998,"ADDRESS":"社內２９之１號","OBJECTID":287286},"geometry":{"x":176817.78000000026,"y":2552758.3000000026}},{"attributes":{"ID":287293,"DIS_CODE":0,"TOWNNAME":"新市區","LI":"社內里","LIN":"2鄰","STREET":" ","SECT":" ","MAREA":"社內","LANE":" ","ALLEY":" ","HOUSE_NO":"２９之４號","E_COORD97":176821.48000000001,"N_COORD97":2552743.7999999998,"ADDRESS":"社內２９之４號","OBJECTID":287287},"geometry":{"x":176821.48000000045,"y":2552743.8000000026}},{"attributes":{"ID":287294,"DIS_CODE":0,"TOWNNAME":"新營區","LI":"興業里","LIN":"10鄰","STREET":"公誠街","SECT":" ","MAREA":" ","LANE":"６巷","ALLEY":" ","HOUSE_NO":"２之２號","E_COORD97":180219.51999999999,"N_COORD97":2578025.7599999998,"ADDRESS":"公誠街６巷２之２號","OBJECTID":287288},"geometry":{"x":180219.51999999955,"y":2578025.7600000016}},{"attributes":{"ID":287295,"DIS_CODE":0,"TOWNNAME":"新營區","LI":"大宏里","LIN":"10鄰","STREET":"民治路","SECT":" ","MAREA":" ","LANE":"２９巷","ALLEY":" ","HOUSE_NO":"１３號","E_COORD97":180188.16,"N_COORD97":2578814.3599999999,"ADDRESS":"民治路２９巷１３號","OBJECTID":287289},"geometry":{"x":180188.16000000015,"y":2578814.3600000013}},{"attributes":{"ID":287296,"DIS_CODE":0,"TOWNNAME":"新營區","LI":"新南里","LIN":"10鄰","STREET":"新北五街","SECT":" ","MAREA":" ","LANE":"１４３巷","ALLEY":" ","HOUSE_NO":"２２號","E_COORD97":178517.35000000001,"N_COORD97":2579118.02,"ADDRESS":"新北五街１４３巷２２號","OBJECTID":287290},"geometry":{"x":178517.35000000149,"y":2579118.0200000014}},{"attributes":{"ID":287297,"DIS_CODE":0,"TOWNNAME":"北區","LI":"長德里","LIN":"10鄰","STREET":"長北街","SECT":" ","MAREA":" ","LANE":"１９４巷","ALLEY":" ","HOUSE_NO":"１０號","E_COORD97":168558.95999999999,"N_COORD97":2544926.0499999998,"ADDRESS":"長北街１９４巷１０號","OBJECTID":287291},"geometry":{"x":168558.95999999996,"y":2544926.0500000007}},{"attributes":{"ID":287298,"DIS_CODE":0,"TOWNNAME":"北區","LI":"長德里","LIN":"10鄰","STREET":"長北街","SECT":" ","MAREA":" ","LANE":"１９４巷","ALLEY":" ","HOUSE_NO":"１２號","E_COORD97":168565.20000000001,"N_COORD97":2544922.9300000002,"ADDRESS":"長北街１９４巷１２號","OBJECTID":287292},"geometry":{"x":168565.20000000112,"y":2544922.9300000034}},{"attributes":{"ID":287299,"DIS_CODE":0,"TOWNNAME":"北區","LI":"長德里","LIN":"10鄰","STREET":"長北街","SECT":" ","MAREA":" ","LANE":"１９４巷","ALLEY":" ","HOUSE_NO":"１４號","E_COORD97":168570.73999999999,"N_COORD97":2544919.8199999998,"ADDRESS":"長北街１９４巷１４號","OBJECTID":287293},"geometry":{"x":168570.74000000022,"y":2544919.8200000003}},{"attributes":{"ID":287300,"DIS_CODE":0,"TOWNNAME":"北區","LI":"長德里","LIN":"10鄰","STREET":"長北街","SECT":" ","MAREA":" ","LANE":"１９４巷","ALLEY":" ","HOUSE_NO":"２之１號","E_COORD97":168541.98999999999,"N_COORD97":2544936.0800000001,"ADDRESS":"長北街１９４巷２之１號","OBJECTID":287294},"geometry":{"x":168541.99000000022,"y":2544936.0800000019}},{"attributes":{"ID":287301,"DIS_CODE":0,"TOWNNAME":"北區","LI":"東興里","LIN":"10鄰","STREET":"小東路","SECT":" ","MAREA":" ","LANE":"４０１巷","ALLEY":" ","HOUSE_NO":"５號之３","E_COORD97":171296.85999999999,"N_COORD97":2544440.6400000001,"ADDRESS":"小東路４０１巷５號之３","OBJECTID":287295},"geometry":{"x":171296.86000000127,"y":2544440.6400000006}},{"attributes":{"ID":287302,"DIS_CODE":0,"TOWNNAME":"安平區","LI":"石門里","LIN":"10鄰","STREET":"安北路","SECT":" ","MAREA":" ","LANE":"３１巷","ALLEY":" ","HOUSE_NO":"１０號","E_COORD97":164580.76999999999,"N_COORD97":2544526.3500000001,"ADDRESS":"安北路３１巷１０號","OBJECTID":287296},"geometry":{"x":164580.76999999955,"y":2544526.3499999996}},{"attributes":{"ID":287303,"DIS_CODE":0,"TOWNNAME":"安平區","LI":"石門里","LIN":"10鄰","STREET":"安北路","SECT":" ","MAREA":" ","LANE":"３１巷","ALLEY":" ","HOUSE_NO":"１２號","E_COORD97":164577.41,"N_COORD97":2544521.2000000002,"ADDRESS":"安北路３１巷１２號","OBJECTID":287297},"geometry":{"x":164577.41000000015,"y":2544521.2000000011}},{"attributes":{"ID":287304,"DIS_CODE":0,"TOWNNAME":"安平區","LI":"石門里","LIN":"10鄰","STREET":"安北路","SECT":" ","MAREA":" ","LANE":"３１巷","ALLEY":" ","HOUSE_NO":"２號","E_COORD97":164592.89000000001,"N_COORD97":2544540.7799999998,"ADDRESS":"安北路３１巷２號","OBJECTID":287298},"geometry":{"x":164592.89000000153,"y":2544540.7800000012}},{"attributes":{"ID":287305,"DIS_CODE":0,"TOWNNAME":"安平區","LI":"石門里","LIN":"10鄰","STREET":"安北路","SECT":" ","MAREA":" ","LANE":"３１巷","ALLEY":" ","HOUSE_NO":"５號","E_COORD97":164589.54000000001,"N_COORD97":2544514.5,"ADDRESS":"安北路３１巷５號","OBJECTID":287299},"geometry":{"x":164589.54000000097,"y":2544514.5}},{"attributes":{"ID":287306,"DIS_CODE":0,"TOWNNAME":"安平區","LI":"石門里","LIN":"10鄰","STREET":"安北路","SECT":" ","MAREA":" ","LANE":"３１巷","ALLEY":" ","HOUSE_NO":"６號","E_COORD97":164587.20999999999,"N_COORD97":2544532.54,"ADDRESS":"安北路３１巷６號","OBJECTID":287300},"geometry":{"x":164587.20999999996,"y":2544532.540000001}},{"attributes":{"ID":287307,"DIS_CODE":0,"TOWNNAME":"安平區","LI":"石門里","LIN":"10鄰","STREET":"安北路","SECT":" ","MAREA":" ","LANE":"３１巷","ALLEY":" ","HOUSE_NO":"７號","E_COORD97":164582.31,"N_COORD97":2544509.6099999999,"ADDRESS":"安北路３１巷７號","OBJECTID":287301},"geometry":{"x":164582.30999999959,"y":2544509.6099999994}},{"attributes":{"ID":287308,"DIS_CODE":0,"TOWNNAME":"安平區","LI":"石門里","LIN":"10鄰","STREET":"安北路","SECT":" ","MAREA":" ","LANE":"３１巷","ALLEY":" ","HOUSE_NO":"８號","E_COORD97":164584.12,"N_COORD97":2544529.1899999999,"ADDRESS":"安北路３１巷８號","OBJECTID":287302},"geometry":{"x":164584.12000000011,"y":2544529.1900000013}},{"attributes":{"ID":287309,"DIS_CODE":0,"TOWNNAME":"麻豆區","LI":"磚井里","LIN":"2鄰","STREET":" ","SECT":" ","MAREA":"磚子井","LANE":" ","ALLEY":" ","HOUSE_NO":"１１號之１","E_COORD97":173173.04000000001,"N_COORD97":2563441.1000000001,"ADDRESS":"磚子井１１號之１","OBJECTID":287303},"geometry":{"x":173173.04000000004,"y":2563441.1000000015}},{"attributes":{"ID":287310,"DIS_CODE":0,"TOWNNAME":"麻豆區","LI":"興農里","LIN":"10鄰","STREET":"新生南路","SECT":" ","MAREA":" ","LANE":"１１４巷","ALLEY":" ","HOUSE_NO":"９５號","E_COORD97":172259.47,"N_COORD97":2564660.3399999999,"ADDRESS":"新生南路１１４巷９５號","OBJECTID":287304},"geometry":{"x":172259.46999999974,"y":2564660.3400000017}},{"attributes":{"ID":287311,"DIS_CODE":0,"TOWNNAME":"麻豆區","LI":"興農里","LIN":"10鄰","STREET":"新生南路","SECT":" ","MAREA":" ","LANE":"１１４巷","ALLEY":" ","HOUSE_NO":"９７號","E_COORD97":172269.20999999999,"N_COORD97":2564661.8999999999,"ADDRESS":"新生南路１１４巷９７號","OBJECTID":287305},"geometry":{"x":172269.21000000089,"y":2564661.9000000004}},{"attributes":{"ID":287312,"DIS_CODE":0,"TOWNNAME":"北區","LI":"裕民里","LIN":"10鄰","STREET":"成功路","SECT":" ","MAREA":" ","LANE":"６００巷","ALLEY":" ","HOUSE_NO":"９號","E_COORD97":167501.34,"N_COORD97":2544838.6800000002,"ADDRESS":"成功路６００巷９號","OBJECTID":287306},"geometry":{"x":167501.34000000078,"y":2544838.6799999997}},{"attributes":{"ID":287313,"DIS_CODE":0,"TOWNNAME":"北區","LI":"裕民里","LIN":"10鄰","STREET":"臨安路","SECT":"二段","MAREA":" ","LANE":"９１巷","ALLEY":" ","HOUSE_NO":"１號","E_COORD97":167643.88,"N_COORD97":2544870.1800000002,"ADDRESS":"臨安路二段９１巷１號","OBJECTID":287307},"geometry":{"x":167643.87999999989,"y":2544870.1800000034}},{"attributes":{"ID":287314,"DIS_CODE":0,"TOWNNAME":"北區","LI":"裕民里","LIN":"10鄰","STREET":"臨安路","SECT":"二段","MAREA":" ","LANE":"９１巷","ALLEY":" ","HOUSE_NO":"１號之１","E_COORD97":167641.32999999999,"N_COORD97":2544869.6699999999,"ADDRESS":"臨安路二段９１巷１號之１","OBJECTID":287308},"geometry":{"x":167641.33000000007,"y":2544869.6699999999}},{"attributes":{"ID":287315,"DIS_CODE":0,"TOWNNAME":"北區","LI":"裕民里","LIN":"10鄰","STREET":"臨安路","SECT":"二段","MAREA":" ","LANE":"９１巷","ALLEY":" ","HOUSE_NO":"１號之２","E_COORD97":167638.78,"N_COORD97":2544869.1699999999,"ADDRESS":"臨安路二段９１巷１號之２","OBJECTID":287309},"geometry":{"x":167638.78000000212,"y":2544869.1699999999}},{"attributes":{"ID":287316,"DIS_CODE":0,"TOWNNAME":"北區","LI":"裕民里","LIN":"10鄰","STREET":"臨安路","SECT":"二段","MAREA":" ","LANE":"９１巷","ALLEY":" ","HOUSE_NO":"１號之３","E_COORD97":167636.48999999999,"N_COORD97":2544867.8900000001,"ADDRESS":"臨安路二段９１巷１號之３","OBJECTID":287310},"geometry":{"x":167636.49000000022,"y":2544867.8900000025}},{"attributes":{"ID":287317,"DIS_CODE":0,"TOWNNAME":"北區","LI":"裕民里","LIN":"10鄰","STREET":"臨安路","SECT":"二段","MAREA":" ","LANE":"９１巷","ALLEY":" ","HOUSE_NO":"１號之４","E_COORD97":167641.07999999999,"N_COORD97":2544856.7000000002,"ADDRESS":"臨安路二段９１巷１號之４","OBJECTID":287311},"geometry":{"x":167641.08000000007,"y":2544856.7000000011}},{"attributes":{"ID":287318,"DIS_CODE":0,"TOWNNAME":"南區","LI":"田寮里","LIN":"10鄰","STREET":"新興路","SECT":" ","MAREA":" ","LANE":"１１３巷","ALLEY":" ","HOUSE_NO":"３７號","E_COORD97":167585.92999999999,"N_COORD97":2542068.3900000001,"ADDRESS":"新興路１１３巷３７號","OBJECTID":287312},"geometry":{"x":167585.9299999997,"y":2542068.3900000006}},{"attributes":{"ID":287319,"DIS_CODE":0,"TOWNNAME":"北區","LI":"成功里","LIN":"10鄰","STREET":"北成路","SECT":" ","MAREA":" ","LANE":"３８巷","ALLEY":" ","HOUSE_NO":"１０號","E_COORD97":169159.45999999999,"N_COORD97":2546624.5099999998,"ADDRESS":"北成路３８巷１０號","OBJECTID":287313},"geometry":{"x":169159.46000000183,"y":2546624.5100000035}},{"attributes":{"ID":287320,"DIS_CODE":0,"TOWNNAME":"麻豆區","LI":"磚井里","LIN":"2鄰","STREET":" ","SECT":" ","MAREA":"磚子井","LANE":" ","ALLEY":" ","HOUSE_NO":"１１號之２","E_COORD97":173182.17999999999,"N_COORD97":2563423.23,"ADDRESS":"磚子井１１號之２","OBJECTID":287314},"geometry":{"x":173182.18000000156,"y":2563423.2300000023}},{"attributes":{"ID":287321,"DIS_CODE":0,"TOWNNAME":"麻豆區","LI":"磚井里","LIN":"2鄰","STREET":" ","SECT":" ","MAREA":"磚子井","LANE":" ","ALLEY":" ","HOUSE_NO":"１１號之３","E_COORD97":173182.35000000001,"N_COORD97":2563398.3500000001,"ADDRESS":"磚子井１１號之３","OBJECTID":287315},"geometry":{"x":173182.34999999963,"y":2563398.3500000015}},{"attributes":{"ID":287322,"DIS_CODE":0,"TOWNNAME":"北門區","LI":"中樞里","LIN":"2鄰","STREET":" ","SECT":" ","MAREA":"溪底寮","LANE":" ","ALLEY":" ","HOUSE_NO":"１１之１號","E_COORD97":161253.75,"N_COORD97":2571210.2999999998,"ADDRESS":"溪底寮１１之１號","OBJECTID":287316},"geometry":{"x":161253.75,"y":2571210.2999999989}},{"attributes":{"ID":287323,"DIS_CODE":0,"TOWNNAME":"北門區","LI":"中樞里","LIN":"2鄰","STREET":" ","SECT":" ","MAREA":"溪底寮","LANE":" ","ALLEY":" ","HOUSE_NO":"１１號之１","E_COORD97":161253.75,"N_COORD97":2571210.2999999998,"ADDRESS":"溪底寮１１號之１","OBJECTID":287317},"geometry":{"x":161253.75,"y":2571210.2999999989}},{"attributes":{"ID":287324,"DIS_CODE":0,"TOWNNAME":"北門區","LI":"中樞里","LIN":"2鄰","STREET":" ","SECT":" ","MAREA":"溪底寮","LANE":" ","ALLEY":" ","HOUSE_NO":"１１號","E_COORD97":161247.25,"N_COORD97":2571212.9199999999,"ADDRESS":"溪底寮１１號","OBJECTID":287318},"geometry":{"x":161247.25,"y":2571212.9200000018}},{"attributes":{"ID":287325,"DIS_CODE":0,"TOWNNAME":"北門區","LI":"中樞里","LIN":"2鄰","STREET":" ","SECT":" ","MAREA":"溪底寮","LANE":" ","ALLEY":" ","HOUSE_NO":"１２號之１","E_COORD97":161273.67999999999,"N_COORD97":2571241.46,"ADDRESS":"溪底寮１２號之１","OBJECTID":287319},"geometry":{"x":161273.68000000063,"y":2571241.4600000028}},{"attributes":{"ID":287326,"DIS_CODE":0,"TOWNNAME":"北門區","LI":"中樞里","LIN":"2鄰","STREET":" ","SECT":" ","MAREA":"溪底寮","LANE":" ","ALLEY":" ","HOUSE_NO":"１２號之２","E_COORD97":161281.29000000001,"N_COORD97":2571205.1099999999,"ADDRESS":"溪底寮１２號之２","OBJECTID":287320},"geometry":{"x":161281.29000000004,"y":2571205.1100000013}},{"attributes":{"ID":287327,"DIS_CODE":0,"TOWNNAME":"北門區","LI":"中樞里","LIN":"2鄰","STREET":" ","SECT":" ","MAREA":"溪底寮","LANE":" ","ALLEY":" ","HOUSE_NO":"１２號之３","E_COORD97":161326.85000000001,"N_COORD97":2571018.3399999999,"ADDRESS":"溪底寮１２號之３","OBJECTID":287321},"geometry":{"x":161326.85000000056,"y":2571018.3399999999}},{"attributes":{"ID":287328,"DIS_CODE":0,"TOWNNAME":"北門區","LI":"中樞里","LIN":"2鄰","STREET":" ","SECT":" ","MAREA":"溪底寮","LANE":" ","ALLEY":" ","HOUSE_NO":"１２號","E_COORD97":161262.48000000001,"N_COORD97":2571208.0099999998,"ADDRESS":"溪底寮１２號","OBJECTID":287322},"geometry":{"x":161262.48000000138,"y":2571208.0100000035}},{"attributes":{"ID":287329,"DIS_CODE":0,"TOWNNAME":"官田區","LI":"二鎮里","LIN":"2鄰","STREET":" ","SECT":" ","MAREA":"二鎮","LANE":" ","ALLEY":" ","HOUSE_NO":"１４號","E_COORD97":181238.69,"N_COORD97":2568187.8500000001,"ADDRESS":"二鎮１４號","OBJECTID":287323},"geometry":{"x":181238.69000000134,"y":2568187.8499999978}},{"attributes":{"ID":287330,"DIS_CODE":0,"TOWNNAME":"官田區","LI":"二鎮里","LIN":"2鄰","STREET":" ","SECT":" ","MAREA":"二鎮","LANE":" ","ALLEY":" ","HOUSE_NO":"１５號","E_COORD97":181254.17999999999,"N_COORD97":2568168.27,"ADDRESS":"二鎮１５號","OBJECTID":287324},"geometry":{"x":181254.1799999997,"y":2568168.2700000033}},{"attributes":{"ID":287331,"DIS_CODE":0,"TOWNNAME":"官田區","LI":"二鎮里","LIN":"2鄰","STREET":" ","SECT":" ","MAREA":"二鎮","LANE":" ","ALLEY":" ","HOUSE_NO":"１６號之１","E_COORD97":181261.13,"N_COORD97":2568137.8399999999,"ADDRESS":"二鎮１６號之１","OBJECTID":287325},"geometry":{"x":181261.12999999989,"y":2568137.8400000017}},{"attributes":{"ID":287332,"DIS_CODE":0,"TOWNNAME":"官田區","LI":"二鎮里","LIN":"2鄰","STREET":" ","SECT":" ","MAREA":"二鎮","LANE":" ","ALLEY":" ","HOUSE_NO":"１６號","E_COORD97":181261.98999999999,"N_COORD97":2568150.1899999999,"ADDRESS":"二鎮１６號","OBJECTID":287326},"geometry":{"x":181261.99000000115,"y":2568150.1899999995}},{"attributes":{"ID":287333,"DIS_CODE":0,"TOWNNAME":"官田區","LI":"二鎮里","LIN":"2鄰","STREET":" ","SECT":" ","MAREA":"二鎮","LANE":" ","ALLEY":" ","HOUSE_NO":"９號之２","E_COORD97":181237.45999999999,"N_COORD97":2568148.3799999999,"ADDRESS":"二鎮９號之２","OBJECTID":287327},"geometry":{"x":181237.45999999996,"y":2568148.379999999}},{"attributes":{"ID":287334,"DIS_CODE":0,"TOWNNAME":"官田區","LI":"二鎮里","LIN":"2鄰","STREET":" ","SECT":" ","MAREA":"二鎮","LANE":" ","ALLEY":" ","HOUSE_NO":"８號之１","E_COORD97":181248.89999999999,"N_COORD97":2568123.46,"ADDRESS":"二鎮８號之１","OBJECTID":287328},"geometry":{"x":181248.9000000013,"y":2568123.4600000009}},{"attributes":{"ID":287335,"DIS_CODE":0,"TOWNNAME":"官田區","LI":"二鎮里","LIN":"2鄰","STREET":" ","SECT":" ","MAREA":"二鎮","LANE":" ","ALLEY":" ","HOUSE_NO":"８號之２","E_COORD97":181253.47,"N_COORD97":2568127.02,"ADDRESS":"二鎮８號之２","OBJECTID":287329},"geometry":{"x":181253.47000000067,"y":2568127.0200000014}},{"attributes":{"ID":287336,"DIS_CODE":0,"TOWNNAME":"北區","LI":"成功里","LIN":"10鄰","STREET":"北成路","SECT":" ","MAREA":" ","LANE":"３８巷","ALLEY":" ","HOUSE_NO":"１２號","E_COORD97":169164.39999999999,"N_COORD97":2546628.0899999999,"ADDRESS":"北成路３８巷１２號","OBJECTID":287330},"geometry":{"x":169164.4000000013,"y":2546628.0900000017}},{"attributes":{"ID":287337,"DIS_CODE":0,"TOWNNAME":"北區","LI":"成功里","LIN":"10鄰","STREET":"北成路","SECT":" ","MAREA":" ","LANE":"３８巷","ALLEY":" ","HOUSE_NO":"１４號","E_COORD97":169166.64000000001,"N_COORD97":2546633.4700000002,"ADDRESS":"北成路３８巷１４號","OBJECTID":287331},"geometry":{"x":169166.6400000006,"y":2546633.4700000025}},{"attributes":{"ID":287338,"DIS_CODE":0,"TOWNNAME":"北區","LI":"成功里","LIN":"10鄰","STREET":"北成路","SECT":" ","MAREA":" ","LANE":"３８巷","ALLEY":" ","HOUSE_NO":"１６號","E_COORD97":169172.01999999999,"N_COORD97":2546639.2999999998,"ADDRESS":"北成路３８巷１６號","OBJECTID":287332},"geometry":{"x":169172.01999999955,"y":2546639.3000000007}},{"attributes":{"ID":287339,"DIS_CODE":0,"TOWNNAME":"北區","LI":"成功里","LIN":"10鄰","STREET":"北成路","SECT":" ","MAREA":" ","LANE":"３８巷","ALLEY":" ","HOUSE_NO":"１８號","E_COORD97":169172.92000000001,"N_COORD97":2546644.6699999999,"ADDRESS":"北成路３８巷１８號","OBJECTID":287333},"geometry":{"x":169172.91999999993,"y":2546644.6700000018}},{"attributes":{"ID":287340,"DIS_CODE":0,"TOWNNAME":"北區","LI":"成功里","LIN":"10鄰","STREET":"北成路","SECT":" ","MAREA":" ","LANE":"３８巷","ALLEY":" ","HOUSE_NO":"２０號","E_COORD97":169176.95999999999,"N_COORD97":2546648.71,"ADDRESS":"北成路３８巷２０號","OBJECTID":287334},"geometry":{"x":169176.96000000089,"y":2546648.7100000028}},{"attributes":{"ID":287341,"DIS_CODE":0,"TOWNNAME":"官田區","LI":"二鎮里","LIN":"2鄰","STREET":" ","SECT":" ","MAREA":"二鎮","LANE":" ","ALLEY":" ","HOUSE_NO":"８號之４","E_COORD97":181259.17999999999,"N_COORD97":2568129.9500000002,"ADDRESS":"二鎮８號之４","OBJECTID":287335},"geometry":{"x":181259.1799999997,"y":2568129.9500000011}},{"attributes":{"ID":287342,"DIS_CODE":0,"TOWNNAME":"官田區","LI":"二鎮里","LIN":"2鄰","STREET":" ","SECT":" ","MAREA":"二鎮","LANE":" ","ALLEY":" ","HOUSE_NO":"９號之１","E_COORD97":181233.14999999999,"N_COORD97":2568155.5600000001,"ADDRESS":"二鎮９號之１","OBJECTID":287336},"geometry":{"x":181233.15000000037,"y":2568155.5600000005}},{"attributes":{"ID":287343,"DIS_CODE":0,"TOWNNAME":"官田區","LI":"二鎮里","LIN":"2鄰","STREET":" ","SECT":" ","MAREA":"二鎮","LANE":" ","ALLEY":" ","HOUSE_NO":"９號","E_COORD97":181230.53,"N_COORD97":2568159.1299999999,"ADDRESS":"二鎮９號","OBJECTID":287337},"geometry":{"x":181230.53000000026,"y":2568159.1300000008}},{"attributes":{"ID":287344,"DIS_CODE":0,"TOWNNAME":"下營區","LI":"開化里","LIN":"2鄰","STREET":" ","SECT":" ","MAREA":"中營","LANE":" ","ALLEY":" ","HOUSE_NO":"６１號","E_COORD97":175633.79000000001,"N_COORD97":2568126.2400000002,"ADDRESS":"中營６１號","OBJECTID":287338},"geometry":{"x":175633.79000000004,"y":2568126.2400000021}},{"attributes":{"ID":287345,"DIS_CODE":0,"TOWNNAME":"下營區","LI":"開化里","LIN":"2鄰","STREET":" ","SECT":" ","MAREA":"中營","LANE":" ","ALLEY":" ","HOUSE_NO":"６２號","E_COORD97":175624.47,"N_COORD97":2568125.3700000001,"ADDRESS":"中營６２號","OBJECTID":287339},"geometry":{"x":175624.46999999881,"y":2568125.3700000029}},{"attributes":{"ID":287346,"DIS_CODE":0,"TOWNNAME":"下營區","LI":"開化里","LIN":"2鄰","STREET":" ","SECT":" ","MAREA":"中營","LANE":" ","ALLEY":" ","HOUSE_NO":"６３號","E_COORD97":175620.89000000001,"N_COORD97":2568124.8300000001,"ADDRESS":"中營６３號","OBJECTID":287340},"geometry":{"x":175620.88999999966,"y":2568124.8300000019}},{"attributes":{"ID":287347,"DIS_CODE":0,"TOWNNAME":"北區","LI":"成功里","LIN":"10鄰","STREET":"北成路","SECT":" ","MAREA":" ","LANE":"３８巷","ALLEY":" ","HOUSE_NO":"２２號","E_COORD97":169182.34,"N_COORD97":2546654.0800000001,"ADDRESS":"北成路３８巷２２號","OBJECTID":287341},"geometry":{"x":169182.34000000078,"y":2546654.0800000001}},{"attributes":{"ID":287348,"DIS_CODE":0,"TOWNNAME":"下營區","LI":"開化里","LIN":"2鄰","STREET":" ","SECT":" ","MAREA":"中營","LANE":" ","ALLEY":" ","HOUSE_NO":"１００號","E_COORD97":175523.42999999999,"N_COORD97":2568218.23,"ADDRESS":"中營１００號","OBJECTID":287342},"geometry":{"x":175523.43000000063,"y":2568218.2300000023}},{"attributes":{"ID":287349,"DIS_CODE":0,"TOWNNAME":"永康區","LI":"南灣里","LIN":"2鄰","STREET":"大灣路","SECT":" ","MAREA":" ","LANE":" ","ALLEY":" ","HOUSE_NO":"４６１號","E_COORD97":174658.13,"N_COORD97":2544699.8199999998,"ADDRESS":"大灣路４６１號","OBJECTID":287343},"geometry":{"x":174658.13000000082,"y":2544699.8200000003}},{"attributes":{"ID":287350,"DIS_CODE":0,"TOWNNAME":"永康區","LI":"南灣里","LIN":"2鄰","STREET":"大灣路","SECT":" ","MAREA":" ","LANE":" ","ALLEY":" ","HOUSE_NO":"４３７號","E_COORD97":174685.76999999999,"N_COORD97":2544758,"ADDRESS":"大灣路４３７號","OBJECTID":287344},"geometry":{"x":174685.77000000048,"y":2544758.0000000019}},{"attributes":{"ID":287351,"DIS_CODE":0,"TOWNNAME":"北區","LI":"成功里","LIN":"10鄰","STREET":"北成路","SECT":" ","MAREA":" ","LANE":"３８巷","ALLEY":" ","HOUSE_NO":"２４號","E_COORD97":169188.62,"N_COORD97":2546661.25,"ADDRESS":"北成路３８巷２４號","OBJECTID":287345},"geometry":{"x":169188.62000000011,"y":2546661.2500000019}},{"attributes":{"ID":287352,"DIS_CODE":0,"TOWNNAME":"北區","LI":"成功里","LIN":"10鄰","STREET":"北成路","SECT":" ","MAREA":" ","LANE":"３８巷","ALLEY":" ","HOUSE_NO":"２６號","E_COORD97":169194.01000000001,"N_COORD97":2546668.4199999999,"ADDRESS":"北成路３８巷２６號","OBJECTID":287346},"geometry":{"x":169194.00999999978,"y":2546668.4199999999}},{"attributes":{"ID":287353,"DIS_CODE":0,"TOWNNAME":"西港區","LI":"慶安里","LIN":"8鄰","STREET":"新興街","SECT":" ","MAREA":" ","LANE":"１０７巷","ALLEY":" ","HOUSE_NO":"８號","E_COORD97":168159.85000000001,"N_COORD97":2558196.3199999998,"ADDRESS":"新興街１０７巷８號","OBJECTID":287347},"geometry":{"x":168159.85000000056,"y":2558196.3200000003}},{"attributes":{"ID":287354,"DIS_CODE":0,"TOWNNAME":"新營區","LI":"新南里","LIN":"10鄰","STREET":"新北五街","SECT":" ","MAREA":" ","LANE":"１４３巷","ALLEY":" ","HOUSE_NO":"２９號","E_COORD97":178517.16,"N_COORD97":2579078.1499999999,"ADDRESS":"新北五街１４３巷２９號","OBJECTID":287348},"geometry":{"x":178517.16000000015,"y":2579078.1500000022}},{"attributes":{"ID":287355,"DIS_CODE":0,"TOWNNAME":"下營區","LI":"甲中里","LIN":"2鄰","STREET":" ","SECT":" ","MAREA":"中庄子","LANE":" ","ALLEY":" ","HOUSE_NO":"１８號之６","E_COORD97":175279.07999999999,"N_COORD97":2572306.02,"ADDRESS":"中庄子１８號之６","OBJECTID":287349},"geometry":{"x":175279.08000000101,"y":2572306.0199999977}},{"attributes":{"ID":287356,"DIS_CODE":0,"TOWNNAME":"歸仁區","LI":"武東里","LIN":"10鄰","STREET":"武東三街","SECT":" ","MAREA":" ","LANE":"４６巷","ALLEY":" ","HOUSE_NO":"５號","E_COORD97":175172.34,"N_COORD97":2535265.25,"ADDRESS":"武東三街４６巷５號","OBJECTID":287350},"geometry":{"x":175172.33999999985,"y":2535265.2500000037}},{"attributes":{"ID":287357,"DIS_CODE":0,"TOWNNAME":"南區","LI":"興農里","LIN":"10鄰","STREET":"灣裡路","SECT":" ","MAREA":" ","LANE":"２６３巷","ALLEY":" ","HOUSE_NO":"４２號之１","E_COORD97":166327.67999999999,"N_COORD97":2536342.5600000001,"ADDRESS":"灣裡路２６３巷４２號之１","OBJECTID":287351},"geometry":{"x":166327.6799999997,"y":2536342.5600000024}},{"attributes":{"ID":287358,"DIS_CODE":0,"TOWNNAME":"南區","LI":"竹溪里","LIN":"10鄰","STREET":"體育路","SECT":" ","MAREA":" ","LANE":"４３巷","ALLEY":" ","HOUSE_NO":"１８號","E_COORD97":168770.73000000001,"N_COORD97":2542208.9300000002,"ADDRESS":"體育路４３巷１８號","OBJECTID":287352},"geometry":{"x":168770.73000000138,"y":2542208.9299999997}},{"attributes":{"ID":287359,"DIS_CODE":0,"TOWNNAME":"南區","LI":"竹溪里","LIN":"10鄰","STREET":"體育路","SECT":" ","MAREA":" ","LANE":"４３巷","ALLEY":" ","HOUSE_NO":"２６號","E_COORD97":168785.64999999999,"N_COORD97":2542209.2799999998,"ADDRESS":"體育路４３巷２６號","OBJECTID":287353},"geometry":{"x":168785.65000000224,"y":2542209.2800000012}},{"attributes":{"ID":287360,"DIS_CODE":0,"TOWNNAME":"永康區","LI":"建國里","LIN":"2鄰","STREET":"復興路","SECT":" ","MAREA":" ","LANE":" ","ALLEY":" ","HOUSE_NO":"１０２號","E_COORD97":172795.48999999999,"N_COORD97":2544344.3900000001,"ADDRESS":"復興路１０２號","OBJECTID":287354},"geometry":{"x":172795.49000000022,"y":2544344.3900000043}},{"attributes":{"ID":287361,"DIS_CODE":0,"TOWNNAME":"南區","LI":"竹溪里","LIN":"10鄰","STREET":"體育路","SECT":" ","MAREA":" ","LANE":"４３巷","ALLEY":" ","HOUSE_NO":"２８號","E_COORD97":168787.38,"N_COORD97":2542211.02,"ADDRESS":"體育路４３巷２８號","OBJECTID":287355},"geometry":{"x":168787.38000000082,"y":2542211.0200000014}},{"attributes":{"ID":287362,"DIS_CODE":0,"TOWNNAME":"南區","LI":"竹溪里","LIN":"10鄰","STREET":"體育路","SECT":" ","MAREA":" ","LANE":"４３巷","ALLEY":" ","HOUSE_NO":"３２號","E_COORD97":168785.64999999999,"N_COORD97":2542198.8900000001,"ADDRESS":"體育路４３巷３２號","OBJECTID":287356},"geometry":{"x":168785.65000000224,"y":2542198.8900000025}},{"attributes":{"ID":287363,"DIS_CODE":0,"TOWNNAME":"下營區","LI":"甲中里","LIN":"2鄰","STREET":" ","SECT":" ","MAREA":"中庄子","LANE":" ","ALLEY":" ","HOUSE_NO":"１８號之７","E_COORD97":175318.69,"N_COORD97":2572321.2400000002,"ADDRESS":"中庄子１８號之７","OBJECTID":287357},"geometry":{"x":175318.69000000227,"y":2572321.2400000002}},{"attributes":{"ID":287364,"DIS_CODE":0,"TOWNNAME":"下營區","LI":"甲中里","LIN":"2鄰","STREET":" ","SECT":" ","MAREA":"中庄子","LANE":" ","ALLEY":" ","HOUSE_NO":"１８號之８","E_COORD97":175318.26999999999,"N_COORD97":2572328.7200000002,"ADDRESS":"中庄子１８號之８","OBJECTID":287358},"geometry":{"x":175318.26999999955,"y":2572328.7200000007}},{"attributes":{"ID":287365,"DIS_CODE":0,"TOWNNAME":"下營區","LI":"甲中里","LIN":"2鄰","STREET":" ","SECT":" ","MAREA":"中庄子","LANE":" ","ALLEY":" ","HOUSE_NO":"１８號之９","E_COORD97":175288.48999999999,"N_COORD97":2572324.6400000001,"ADDRESS":"中庄子１８號之９","OBJECTID":287359},"geometry":{"x":175288.49000000022,"y":2572324.6400000025}},{"attributes":{"ID":287366,"DIS_CODE":0,"TOWNNAME":"下營區","LI":"甲中里","LIN":"2鄰","STREET":" ","SECT":" ","MAREA":"中庄子","LANE":" ","ALLEY":" ","HOUSE_NO":"１８號","E_COORD97":175318.79999999999,"N_COORD97":2572313.3999999999,"ADDRESS":"中庄子１８號","OBJECTID":287360},"geometry":{"x":175318.79999999981,"y":2572313.4000000004}},{"attributes":{"ID":287367,"DIS_CODE":0,"TOWNNAME":"南區","LI":"竹溪里","LIN":"10鄰","STREET":"體育路","SECT":" ","MAREA":" ","LANE":"４３巷","ALLEY":" ","HOUSE_NO":"３４號","E_COORD97":168786.69,"N_COORD97":2542196.1200000001,"ADDRESS":"體育路４３巷３４號","OBJECTID":287361},"geometry":{"x":168786.69000000041,"y":2542196.120000001}},{"attributes":{"ID":287368,"DIS_CODE":0,"TOWNNAME":"南區","LI":"竹溪里","LIN":"10鄰","STREET":"體育路","SECT":" ","MAREA":" ","LANE":"４３巷","ALLEY":" ","HOUSE_NO":"３６號","E_COORD97":168787.04000000001,"N_COORD97":2542191.6200000001,"ADDRESS":"體育路４３巷３６號","OBJECTID":287362},"geometry":{"x":168787.04000000004,"y":2542191.6200000029}},{"attributes":{"ID":287369,"DIS_CODE":0,"TOWNNAME":"安平區","LI":"平通里","LIN":"10鄰","STREET":"育平九街","SECT":" ","MAREA":" ","LANE":"２４６巷","ALLEY":" ","HOUSE_NO":"２２號","E_COORD97":164919.64000000001,"N_COORD97":2544075.5800000001,"ADDRESS":"育平九街２４６巷２２號","OBJECTID":287363},"geometry":{"x":164919.63999999966,"y":2544075.5800000019}},{"attributes":{"ID":287370,"DIS_CODE":0,"TOWNNAME":"安平區","LI":"平通里","LIN":"10鄰","STREET":"育平九街","SECT":" ","MAREA":" ","LANE":"２４６巷","ALLEY":" ","HOUSE_NO":"２６號","E_COORD97":164920.28,"N_COORD97":2544079.5499999998,"ADDRESS":"育平九街２４６巷２６號","OBJECTID":287364},"geometry":{"x":164920.28000000119,"y":2544079.5500000026}},{"attributes":{"ID":287371,"DIS_CODE":0,"TOWNNAME":"安平區","LI":"平通里","LIN":"10鄰","STREET":"育平九街","SECT":" ","MAREA":" ","LANE":"２４６巷","ALLEY":" ","HOUSE_NO":"３６號","E_COORD97":164922.01999999999,"N_COORD97":2544095.7400000002,"ADDRESS":"育平九街２４６巷３６號","OBJECTID":287365},"geometry":{"x":164922.01999999955,"y":2544095.7400000021}},{"attributes":{"ID":287372,"DIS_CODE":0,"TOWNNAME":"安南區","LI":"\u25A0南里","LIN":"4鄰","STREET":"環福街","SECT":" ","MAREA":" ","LANE":" ","ALLEY":" ","HOUSE_NO":"３９號","E_COORD97":170210.57999999999,"N_COORD97":2552469.8799999999,"ADDRESS":"環福街３９號","OBJECTID":287366},"geometry":{"x":170210.58000000101,"y":2552469.8800000008}},{"attributes":{"ID":287373,"DIS_CODE":0,"TOWNNAME":"安南區","LI":"淵中里","LIN":"4鄰","STREET":"安中路","SECT":"四段","MAREA":" ","LANE":" ","ALLEY":" ","HOUSE_NO":"２３號","E_COORD97":165255,"N_COORD97":2550076.23,"ADDRESS":"安中路四段２３號","OBJECTID":287367},"geometry":{"x":165255,"y":2550076.2300000023}},{"attributes":{"ID":287374,"DIS_CODE":0,"TOWNNAME":"新化區","LI":"豐榮里","LIN":"10鄰","STREET":"正新路","SECT":" ","MAREA":" ","LANE":"２１７巷","ALLEY":" ","HOUSE_NO":"１５號","E_COORD97":178502.47,"N_COORD97":2548345.25,"ADDRESS":"正新路２１７巷１５號","OBJECTID":287368},"geometry":{"x":178502.46999999974,"y":2548345.2500000037}},{"attributes":{"ID":287375,"DIS_CODE":0,"TOWNNAME":"新化區","LI":"豐榮里","LIN":"10鄰","STREET":"信義路","SECT":" ","MAREA":" ","LANE":"４８４巷","ALLEY":" ","HOUSE_NO":"１５號","E_COORD97":178396.48000000001,"N_COORD97":2548330.25,"ADDRESS":"信義路４８４巷１５號","OBJECTID":287369},"geometry":{"x":178396.48000000045,"y":2548330.25}},{"attributes":{"ID":287376,"DIS_CODE":0,"TOWNNAME":"新化區","LI":"協興里","LIN":"10鄰","STREET":"正新路","SECT":" ","MAREA":" ","LANE":"３６３巷","ALLEY":" ","HOUSE_NO":"８號","E_COORD97":178493.12,"N_COORD97":2548906.25,"ADDRESS":"正新路３６３巷８號","OBJECTID":287370},"geometry":{"x":178493.12000000011,"y":2548906.2500000019}},{"attributes":{"ID":287377,"DIS_CODE":0,"TOWNNAME":"新化區","LI":"協興里","LIN":"10鄰","STREET":"正新路","SECT":" ","MAREA":" ","LANE":"３６３巷","ALLEY":" ","HOUSE_NO":"３０號","E_COORD97":178451.67000000001,"N_COORD97":2548897.25,"ADDRESS":"正新路３６３巷３０號","OBJECTID":287371},"geometry":{"x":178451.67000000086,"y":2548897.25}},{"attributes":{"ID":287378,"DIS_CODE":0,"TOWNNAME":"永康區","LI":"安康里","LIN":"10鄰","STREET":"中華路","SECT":" ","MAREA":" ","LANE":"６１９巷","ALLEY":" ","HOUSE_NO":"４５號","E_COORD97":170895.10999999999,"N_COORD97":2546005.3799999999,"ADDRESS":"中華路６１９巷４５號","OBJECTID":287372},"geometry":{"x":170895.11000000127,"y":2546005.3800000008}},{"attributes":{"ID":287379,"DIS_CODE":0,"TOWNNAME":"南區","LI":"明亮里","LIN":"10鄰","STREET":"新都路","SECT":" ","MAREA":" ","LANE":"４６２巷","ALLEY":" ","HOUSE_NO":"２５號","E_COORD97":167264.25,"N_COORD97":2540934.02,"ADDRESS":"新都路４６２巷２５號","OBJECTID":287373},"geometry":{"x":167264.25000000093,"y":2540934.0199999996}},{"attributes":{"ID":287380,"DIS_CODE":0,"TOWNNAME":"南區","LI":"明亮里","LIN":"10鄰","STREET":"新都路","SECT":" ","MAREA":" ","LANE":"４６２巷","ALLEY":" ","HOUSE_NO":"２７號","E_COORD97":167246.06,"N_COORD97":2540939.6600000001,"ADDRESS":"新都路４６２巷２７號","OBJECTID":287374},"geometry":{"x":167246.05999999959,"y":2540939.660000002}},{"attributes":{"ID":287381,"DIS_CODE":0,"TOWNNAME":"安南區","LI":"淵中里","LIN":"4鄰","STREET":"安中路","SECT":"四段","MAREA":" ","LANE":" ","ALLEY":" ","HOUSE_NO":"２１號","E_COORD97":165259.82000000001,"N_COORD97":2550080.71,"ADDRESS":"安中路四段２１號","OBJECTID":287375},"geometry":{"x":165259.8200000003,"y":2550080.7100000009}},{"attributes":{"ID":287382,"DIS_CODE":0,"TOWNNAME":"安南區","LI":"佃東里","LIN":"14鄰","STREET":"公學路","SECT":"四段","MAREA":" ","LANE":" ","ALLEY":" ","HOUSE_NO":"２６號","E_COORD97":165870.34,"N_COORD97":2552064.0099999998,"ADDRESS":"公學路四段２６號","OBJECTID":287376},"geometry":{"x":165870.34000000078,"y":2552064.0100000016}},{"attributes":{"ID":287383,"DIS_CODE":0,"TOWNNAME":"南區","LI":"明亮里","LIN":"10鄰","STREET":"新都路","SECT":" ","MAREA":" ","LANE":"４６２巷","ALLEY":" ","HOUSE_NO":"２９號","E_COORD97":167247.94,"N_COORD97":2540949.0600000001,"ADDRESS":"新都路４６２巷２９號","OBJECTID":287377},"geometry":{"x":167247.94000000227,"y":2540949.0599999987}},{"attributes":{"ID":287384,"DIS_CODE":0,"TOWNNAME":"南區","LI":"明亮里","LIN":"10鄰","STREET":"新都路","SECT":" ","MAREA":" ","LANE":"４６２巷","ALLEY":" ","HOUSE_NO":"３１號","E_COORD97":167267.39000000001,"N_COORD97":2540944.0499999998,"ADDRESS":"新都路４６２巷３１號","OBJECTID":287378},"geometry":{"x":167267.38999999966,"y":2540944.0500000026}},{"attributes":{"ID":287385,"DIS_CODE":0,"TOWNNAME":"安南區","LI":"溪心里","LIN":"1鄰","STREET":"安中路","SECT":"三段","MAREA":" ","LANE":" ","ALLEY":" ","HOUSE_NO":"３號","E_COORD97":166345.32000000001,"N_COORD97":2549724.8700000001,"ADDRESS":"安中路三段３號","OBJECTID":287379},"geometry":{"x":166345.32000000123,"y":2549724.870000001}},{"attributes":{"ID":287386,"DIS_CODE":0,"TOWNNAME":"安南區","LI":"城南里","LIN":"10鄰","STREET":"城西街","SECT":"一段","MAREA":" ","LANE":" ","ALLEY":" ","HOUSE_NO":"２７０號","E_COORD97":160299.81,"N_COORD97":2551175.0899999999,"ADDRESS":"城西街一段２７０號","OBJECTID":287380},"geometry":{"x":160299.81000000052,"y":2551175.0900000017}},{"attributes":{"ID":287387,"DIS_CODE":0,"TOWNNAME":"安南區","LI":"淵中里","LIN":"4鄰","STREET":"安中路","SECT":"四段","MAREA":" ","LANE":" ","ALLEY":" ","HOUSE_NO":"１５號","E_COORD97":165271.75,"N_COORD97":2550088.3999999999,"ADDRESS":"安中路四段１５號","OBJECTID":287381},"geometry":{"x":165271.75,"y":2550088.4000000022}},{"attributes":{"ID":287388,"DIS_CODE":0,"TOWNNAME":"安南區","LI":"州北里","LIN":"17鄰","STREET":"安和路","SECT":"六段","MAREA":" ","LANE":" ","ALLEY":" ","HOUSE_NO":"６１號之５","E_COORD97":169529.98000000001,"N_COORD97":2552462.8999999999,"ADDRESS":"安和路六段６１號之５","OBJECTID":287382},"geometry":{"x":169529.98000000138,"y":2552462.9000000004}},{"attributes":{"ID":287389,"DIS_CODE":0,"TOWNNAME":"仁德區","LI":"保安里","LIN":"12鄰","STREET":"開發五路","SECT":" ","MAREA":" ","LANE":" ","ALLEY":" ","HOUSE_NO":"３５號","E_COORD97":173274.694024,"N_COORD97":2536129.43732,"ADDRESS":"開發五路３５號","OBJECTID":287383},"geometry":{"x":173274.69402400125,"y":2536129.4373230021}},{"attributes":{"ID":287390,"DIS_CODE":0,"TOWNNAME":"安南區","LI":"淵東里","LIN":"7鄰","STREET":"本原街","SECT":"三段","MAREA":" ","LANE":" ","ALLEY":" ","HOUSE_NO":"１３９號","E_COORD97":165554.04000000001,"N_COORD97":2550344.8799999999,"ADDRESS":"本原街三段１３９號","OBJECTID":287384},"geometry":{"x":165554.04000000097,"y":2550344.8800000008}},{"attributes":{"ID":287391,"DIS_CODE":0,"TOWNNAME":"佳里區","LI":"民安里","LIN":"2鄰","STREET":" ","SECT":" ","MAREA":"同安寮","LANE":" ","ALLEY":" ","HOUSE_NO":"２８號之６","E_COORD97":167096.48000000001,"N_COORD97":2562122.0699999998,"ADDRESS":"同安寮２８號之６","OBJECTID":287385},"geometry":{"x":167096.48000000045,"y":2562122.070000004}},{"attributes":{"ID":287392,"DIS_CODE":0,"TOWNNAME":"佳里區","LI":"民安里","LIN":"2鄰","STREET":" ","SECT":" ","MAREA":"同安寮","LANE":" ","ALLEY":" ","HOUSE_NO":"２８號","E_COORD97":167124.39000000001,"N_COORD97":2562267.9500000002,"ADDRESS":"同安寮２８號","OBJECTID":287386},"geometry":{"x":167124.3900000006,"y":2562267.9500000011}},{"attributes":{"ID":287393,"DIS_CODE":0,"TOWNNAME":"佳里區","LI":"民安里","LIN":"2鄰","STREET":" ","SECT":" ","MAREA":"同安寮","LANE":" ","ALLEY":" ","HOUSE_NO":"３０號","E_COORD97":167141.06,"N_COORD97":2562328.1299999999,"ADDRESS":"同安寮３０號","OBJECTID":287387},"geometry":{"x":167141.06000000145,"y":2562328.1300000008}},{"attributes":{"ID":287394,"DIS_CODE":0,"TOWNNAME":"安南區","LI":"顯宮里","LIN":"2鄰","STREET":"媽祖宮路","SECT":" ","MAREA":" ","LANE":" ","ALLEY":" ","HOUSE_NO":"９０號","E_COORD97":160726.91,"N_COORD97":2548921.1000000001,"ADDRESS":"媽祖宮路９０號","OBJECTID":287388},"geometry":{"x":160726.91000000108,"y":2548921.0999999996}},{"attributes":{"ID":287395,"DIS_CODE":0,"TOWNNAME":"東區","LI":"富強里","LIN":"10鄰","STREET":"中華東路","SECT":"二段","MAREA":" ","LANE":"２２６巷","ALLEY":" ","HOUSE_NO":"６５號","E_COORD97":171090.56,"N_COORD97":2542711.98,"ADDRESS":"中華東路二段２２６巷６５號","OBJECTID":287389},"geometry":{"x":171090.55999999959,"y":2542711.9800000004}},{"attributes":{"ID":287396,"DIS_CODE":0,"TOWNNAME":"東區","LI":"富強里","LIN":"10鄰","STREET":"中華東路","SECT":"二段","MAREA":" ","LANE":"２２６巷","ALLEY":" ","HOUSE_NO":"６０號","E_COORD97":171108.48000000001,"N_COORD97":2542702.8399999999,"ADDRESS":"中華東路二段２２６巷６０號","OBJECTID":287390},"geometry":{"x":171108.48000000045,"y":2542702.8400000036}},{"attributes":{"ID":287397,"DIS_CODE":0,"TOWNNAME":"東區","LI":"富強里","LIN":"10鄰","STREET":"中華東路","SECT":"二段","MAREA":" ","LANE":"２２６巷","ALLEY":" ","HOUSE_NO":"６２號","E_COORD97":171108.48000000001,"N_COORD97":2542708.5499999998,"ADDRESS":"中華東路二段２２６巷６２號","OBJECTID":287391},"geometry":{"x":171108.48000000045,"y":2542708.5500000007}},{"attributes":{"ID":287398,"DIS_CODE":0,"TOWNNAME":"東區","LI":"富強里","LIN":"10鄰","STREET":"中華東路","SECT":"二段","MAREA":" ","LANE":"２２６巷","ALLEY":" ","HOUSE_NO":"６４號","E_COORD97":171107.01000000001,"N_COORD97":2542712.96,"ADDRESS":"中華東路二段２２６巷６４號","OBJECTID":287392},"geometry":{"x":171107.01000000071,"y":2542712.9600000009}},{"attributes":{"ID":287399,"DIS_CODE":0,"TOWNNAME":"西港區","LI":"慶安里","LIN":"8鄰","STREET":"新興街","SECT":" ","MAREA":" ","LANE":"１０７巷","ALLEY":" ","HOUSE_NO":"６號","E_COORD97":168164.41,"N_COORD97":2558196.5600000001,"ADDRESS":"新興街１０７巷６號","OBJECTID":287393},"geometry":{"x":168164.41000000015,"y":2558196.5600000024}},{"attributes":{"ID":287400,"DIS_CODE":0,"TOWNNAME":"東區","LI":"富強里","LIN":"10鄰","STREET":"中華東路","SECT":"二段","MAREA":" ","LANE":"２２６巷","ALLEY":" ","HOUSE_NO":"３５號","E_COORD97":171096.63,"N_COORD97":2542633.7799999998,"ADDRESS":"中華東路二段２２６巷３５號","OBJECTID":287394},"geometry":{"x":171096.63000000082,"y":2542633.7799999993}},{"attributes":{"ID":287401,"DIS_CODE":0,"TOWNNAME":"東區","LI":"富強里","LIN":"10鄰","STREET":"中華東路","SECT":"二段","MAREA":" ","LANE":"２２６巷","ALLEY":" ","HOUSE_NO":"３７號","E_COORD97":171095.94,"N_COORD97":2542642.75,"ADDRESS":"中華東路二段２２６巷３７號","OBJECTID":287395},"geometry":{"x":171095.94000000227,"y":2542642.7500000037}},{"attributes":{"ID":287402,"DIS_CODE":0,"TOWNNAME":"東區","LI":"富強里","LIN":"10鄰","STREET":"中華東路","SECT":"二段","MAREA":" ","LANE":"２２６巷","ALLEY":" ","HOUSE_NO":"３９號","E_COORD97":171095.79000000001,"N_COORD97":2542646.9199999999,"ADDRESS":"中華東路二段２２６巷３９號","OBJECTID":287396},"geometry":{"x":171095.79000000004,"y":2542646.9199999999}},{"attributes":{"ID":287403,"DIS_CODE":0,"TOWNNAME":"東區","LI":"富強里","LIN":"10鄰","STREET":"中華東路","SECT":"二段","MAREA":" ","LANE":"２２６巷","ALLEY":" ","HOUSE_NO":"４１號","E_COORD97":171094.14999999999,"N_COORD97":2542652.1400000001,"ADDRESS":"中華東路二段２２６巷４１號","OBJECTID":287397},"geometry":{"x":171094.15000000037,"y":2542652.1400000025}},{"attributes":{"ID":287404,"DIS_CODE":0,"TOWNNAME":"永康區","LI":"網寮里","LIN":"10鄰","STREET":"永勝街","SECT":" ","MAREA":" ","LANE":"１３９巷","ALLEY":" ","HOUSE_NO":"８號","E_COORD97":173337.63,"N_COORD97":2546413.9300000002,"ADDRESS":"永勝街１３９巷８號","OBJECTID":287398},"geometry":{"x":173337.63000000082,"y":2546413.9299999997}},{"attributes":{"ID":287405,"DIS_CODE":0,"TOWNNAME":"佳里區","LI":"鎮山里","LIN":"2鄰","STREET":"自由街","SECT":" ","MAREA":" ","LANE":"７９巷","ALLEY":" ","HOUSE_NO":"１２號","E_COORD97":165842.60999999999,"N_COORD97":2561757.1400000001,"ADDRESS":"自由街７９巷１２號","OBJECTID":287399},"geometry":{"x":165842.61000000034,"y":2561757.1400000025}},{"attributes":{"ID":287406,"DIS_CODE":0,"TOWNNAME":"佳里區","LI":"安西里","LIN":"56鄰","STREET":"佳安北街","SECT":" ","MAREA":" ","LANE":" ","ALLEY":" ","HOUSE_NO":"７３號","E_COORD97":163975.39999999999,"N_COORD97":2562285.7599999998,"ADDRESS":"佳安北街７３號","OBJECTID":287400},"geometry":{"x":163975.4000000013,"y":2562285.7599999998}}]}