{"displayFieldName":"TOWNNAME","fieldAliases":{"ID":"ID","DIS_CODE":"DIS_CODE","TOWNNAME":"TOWNNAME","LI":"LI","LIN":"LIN","STREET":"STREET","SECT":"SECT","MAREA":"MAREA","LANE":"LANE","ALLEY":"ALLEY","HOUSE_NO":"HOUSE_NO","E_COORD97":"E_COORD97","N_COORD97":"N_COORD97","ADDRESS":"ADDRESS","OBJECTID":"OBJECTID"},"geometryType":"esriGeometryPoint","spatialReference":{"wkid":102443,"latestWkid":3826},"fields":[{"name":"ID","type":"esriFieldTypeDouble","alias":"ID"},{"name":"DIS_CODE","type":"esriFieldTypeInteger","alias":"DIS_CODE"},{"name":"TOWNNAME","type":"esriFieldTypeString","alias":"TOWNNAME","length":8},{"name":"LI","type":"esriFieldTypeString","alias":"LI","length":8},{"name":"LIN","type":"esriFieldTypeString","alias":"LIN","length":12},{"name":"STREET","type":"esriFieldTypeString","alias":"STREET","length":20},{"name":"SECT","type":"esriFieldTypeString","alias":"SECT","length":8},{"name":"MAREA","type":"esriFieldTypeString","alias":"MAREA","length":12},{"name":"LANE","type":"esriFieldTypeString","alias":"LANE","length":10},{"name":"ALLEY","type":"esriFieldTypeString","alias":"ALLEY","length":10},{"name":"HOUSE_NO","type":"esriFieldTypeString","alias":"HOUSE_NO","length":20},{"name":"E_COORD97","type":"esriFieldTypeDouble","alias":"E_COORD97"},{"name":"N_COORD97","type":"esriFieldTypeDouble","alias":"N_COORD97"},{"name":"ADDRESS","type":"esriFieldTypeString","alias":"ADDRESS","length":50},{"name":"OBJECTID","type":"esriFieldTypeOID","alias":"OBJECTID"}],"features":[{"attributes":{"ID":97801,"DIS_CODE":0,"TOWNNAME":"白河區","LI":"內角里","LIN":"10鄰","STREET":" ","SECT":" ","MAREA":"內角","LANE":" ","ALLEY":" ","HOUSE_NO":"１３８號","E_COORD97":192528.34,"N_COORD97":2589985.7400000002,"ADDRESS":"內角１３８號","OBJECTID":97801},"geometry":{"x":192528.34000000171,"y":2589985.7400000002}},{"attributes":{"ID":97802,"DIS_CODE":0,"TOWNNAME":"白河區","LI":"內角里","LIN":"10鄰","STREET":" ","SECT":" ","MAREA":"內角","LANE":" ","ALLEY":" ","HOUSE_NO":"１４１之３號","E_COORD97":192606.39999999999,"N_COORD97":2590000.9100000001,"ADDRESS":"內角１４１之３號","OBJECTID":97802},"geometry":{"x":192606.40000000224,"y":2590000.9100000001}},{"attributes":{"ID":97803,"DIS_CODE":0,"TOWNNAME":"白河區","LI":"內角里","LIN":"10鄰","STREET":" ","SECT":" ","MAREA":"內角","LANE":" ","ALLEY":" ","HOUSE_NO":"１４９號","E_COORD97":192740.62,"N_COORD97":2589922.48,"ADDRESS":"內角１４９號","OBJECTID":97803},"geometry":{"x":192740.62000000104,"y":2589922.4800000004}},{"attributes":{"ID":97804,"DIS_CODE":0,"TOWNNAME":"白河區","LI":"內角里","LIN":"10鄰","STREET":" ","SECT":" ","MAREA":"內角","LANE":" ","ALLEY":" ","HOUSE_NO":"１５０號","E_COORD97":192771.63,"N_COORD97":2589981.3399999999,"ADDRESS":"內角１５０號","OBJECTID":97804},"geometry":{"x":192771.62999999989,"y":2589981.3399999999}},{"attributes":{"ID":97805,"DIS_CODE":0,"TOWNNAME":"白河區","LI":"內角里","LIN":"10鄰","STREET":" ","SECT":" ","MAREA":"內角","LANE":" ","ALLEY":" ","HOUSE_NO":"１５２號","E_COORD97":192801.62,"N_COORD97":2589771.8399999999,"ADDRESS":"內角１５２號","OBJECTID":97805},"geometry":{"x":192801.62000000104,"y":2589771.8400000017}},{"attributes":{"ID":97806,"DIS_CODE":0,"TOWNNAME":"白河區","LI":"內角里","LIN":"10鄰","STREET":" ","SECT":" ","MAREA":"內角","LANE":" ","ALLEY":" ","HOUSE_NO":"１６０號","E_COORD97":192749.26999999999,"N_COORD97":2590025.96,"ADDRESS":"內角１６０號","OBJECTID":97806},"geometry":{"x":192749.27000000048,"y":2590025.959999999}},{"attributes":{"ID":97807,"DIS_CODE":0,"TOWNNAME":"將軍區","LI":"長榮里","LIN":"10鄰","STREET":" ","SECT":" ","MAREA":"長榮","LANE":" ","ALLEY":" ","HOUSE_NO":"８９之３０號","E_COORD97":163981.12,"N_COORD97":2566182.7799999998,"ADDRESS":"長榮８９之３０號","OBJECTID":97807},"geometry":{"x":163981.12000000011,"y":2566182.7800000012}},{"attributes":{"ID":97808,"DIS_CODE":0,"TOWNNAME":"將軍區","LI":"長榮里","LIN":"10鄰","STREET":" ","SECT":" ","MAREA":"長榮","LANE":" ","ALLEY":" ","HOUSE_NO":"８９之３１號","E_COORD97":163985.51999999999,"N_COORD97":2566182.1800000002,"ADDRESS":"長榮８９之３１號","OBJECTID":97808},"geometry":{"x":163985.52000000048,"y":2566182.1800000034}},{"attributes":{"ID":97809,"DIS_CODE":0,"TOWNNAME":"將軍區","LI":"長榮里","LIN":"10鄰","STREET":" ","SECT":" ","MAREA":"長榮","LANE":" ","ALLEY":" ","HOUSE_NO":"８９之３２號","E_COORD97":163989.92000000001,"N_COORD97":2566181.5899999999,"ADDRESS":"長榮８９之３２號","OBJECTID":97809},"geometry":{"x":163989.92000000086,"y":2566181.5899999999}},{"attributes":{"ID":97810,"DIS_CODE":0,"TOWNNAME":"將軍區","LI":"長榮里","LIN":"10鄰","STREET":" ","SECT":" ","MAREA":"長榮","LANE":" ","ALLEY":" ","HOUSE_NO":"８９之３３號","E_COORD97":163994.32000000001,"N_COORD97":2566180.9900000002,"ADDRESS":"長榮８９之３３號","OBJECTID":97810},"geometry":{"x":163994.32000000123,"y":2566180.9900000021}},{"attributes":{"ID":97811,"DIS_CODE":0,"TOWNNAME":"將軍區","LI":"長榮里","LIN":"10鄰","STREET":" ","SECT":" ","MAREA":"長榮","LANE":" ","ALLEY":" ","HOUSE_NO":"８９之３４號","E_COORD97":163998.70999999999,"N_COORD97":2566180.3999999999,"ADDRESS":"長榮８９之３４號","OBJECTID":97811},"geometry":{"x":163998.70999999996,"y":2566180.4000000004}},{"attributes":{"ID":97812,"DIS_CODE":0,"TOWNNAME":"將軍區","LI":"長榮里","LIN":"10鄰","STREET":" ","SECT":" ","MAREA":"長榮","LANE":" ","ALLEY":" ","HOUSE_NO":"８９之３５號","E_COORD97":164003.10999999999,"N_COORD97":2566179.8100000001,"ADDRESS":"長榮８９之３５號","OBJECTID":97812},"geometry":{"x":164003.11000000034,"y":2566179.8100000024}},{"attributes":{"ID":97813,"DIS_CODE":0,"TOWNNAME":"將軍區","LI":"長榮里","LIN":"10鄰","STREET":" ","SECT":" ","MAREA":"長榮","LANE":" ","ALLEY":" ","HOUSE_NO":"８９之３６號","E_COORD97":164007.51000000001,"N_COORD97":2566179.21,"ADDRESS":"長榮８９之３６號","OBJECTID":97813},"geometry":{"x":164007.51000000071,"y":2566179.2100000009}},{"attributes":{"ID":97814,"DIS_CODE":0,"TOWNNAME":"將軍區","LI":"長榮里","LIN":"10鄰","STREET":" ","SECT":" ","MAREA":"長榮","LANE":" ","ALLEY":" ","HOUSE_NO":"８９之３７號","E_COORD97":164011.91,"N_COORD97":2566178.6200000001,"ADDRESS":"長榮８９之３７號","OBJECTID":97814},"geometry":{"x":164011.91000000108,"y":2566178.6200000029}},{"attributes":{"ID":97815,"DIS_CODE":0,"TOWNNAME":"將軍區","LI":"長榮里","LIN":"10鄰","STREET":" ","SECT":" ","MAREA":"長榮","LANE":" ","ALLEY":" ","HOUSE_NO":"８９之３８號","E_COORD97":163968.69,"N_COORD97":2566163.8999999999,"ADDRESS":"長榮８９之３８號","OBJECTID":97815},"geometry":{"x":163968.69000000041,"y":2566163.9000000004}},{"attributes":{"ID":97816,"DIS_CODE":0,"TOWNNAME":"將軍區","LI":"長榮里","LIN":"10鄰","STREET":" ","SECT":" ","MAREA":"長榮","LANE":" ","ALLEY":" ","HOUSE_NO":"８９之３９號","E_COORD97":163973.26999999999,"N_COORD97":2566163.1899999999,"ADDRESS":"長榮８９之３９號","OBJECTID":97816},"geometry":{"x":163973.27000000048,"y":2566163.1900000013}},{"attributes":{"ID":97817,"DIS_CODE":0,"TOWNNAME":"將軍區","LI":"長榮里","LIN":"10鄰","STREET":" ","SECT":" ","MAREA":"長榮","LANE":" ","ALLEY":" ","HOUSE_NO":"８９之３號","E_COORD97":163995.39999999999,"N_COORD97":2566210.2999999998,"ADDRESS":"長榮８９之３號","OBJECTID":97817},"geometry":{"x":163995.4000000013,"y":2566210.3000000026}},{"attributes":{"ID":97818,"DIS_CODE":0,"TOWNNAME":"將軍區","LI":"長榮里","LIN":"10鄰","STREET":" ","SECT":" ","MAREA":"長榮","LANE":" ","ALLEY":" ","HOUSE_NO":"８９之４０號","E_COORD97":163977.85000000001,"N_COORD97":2566162.48,"ADDRESS":"長榮８９之４０號","OBJECTID":97818},"geometry":{"x":163977.85000000056,"y":2566162.4800000004}},{"attributes":{"ID":97819,"DIS_CODE":0,"TOWNNAME":"將軍區","LI":"長榮里","LIN":"10鄰","STREET":" ","SECT":" ","MAREA":"長榮","LANE":" ","ALLEY":" ","HOUSE_NO":"８９之４１號","E_COORD97":163982.44,"N_COORD97":2566161.77,"ADDRESS":"長榮８９之４１號","OBJECTID":97819},"geometry":{"x":163982.44000000041,"y":2566161.7700000014}},{"attributes":{"ID":97820,"DIS_CODE":0,"TOWNNAME":"將軍區","LI":"長榮里","LIN":"10鄰","STREET":" ","SECT":" ","MAREA":"長榮","LANE":" ","ALLEY":" ","HOUSE_NO":"８９之４２號","E_COORD97":163987.01999999999,"N_COORD97":2566161.0699999998,"ADDRESS":"長榮８９之４２號","OBJECTID":97820},"geometry":{"x":163987.02000000048,"y":2566161.0700000022}},{"attributes":{"ID":97821,"DIS_CODE":0,"TOWNNAME":"將軍區","LI":"長榮里","LIN":"10鄰","STREET":" ","SECT":" ","MAREA":"長榮","LANE":" ","ALLEY":" ","HOUSE_NO":"８９之４３號","E_COORD97":163991.60999999999,"N_COORD97":2566160.3599999999,"ADDRESS":"長榮８９之４３號","OBJECTID":97821},"geometry":{"x":163991.61000000034,"y":2566160.3600000031}},{"attributes":{"ID":97822,"DIS_CODE":0,"TOWNNAME":"將軍區","LI":"長榮里","LIN":"10鄰","STREET":" ","SECT":" ","MAREA":"長榮","LANE":" ","ALLEY":" ","HOUSE_NO":"８９之４４號","E_COORD97":163996.19,"N_COORD97":2566159.6499999999,"ADDRESS":"長榮８９之４４號","OBJECTID":97822},"geometry":{"x":163996.19000000041,"y":2566159.6500000041}},{"attributes":{"ID":97823,"DIS_CODE":0,"TOWNNAME":"將軍區","LI":"長榮里","LIN":"10鄰","STREET":" ","SECT":" ","MAREA":"長榮","LANE":" ","ALLEY":" ","HOUSE_NO":"８９之４５號","E_COORD97":164000.76999999999,"N_COORD97":2566158.9399999999,"ADDRESS":"長榮８９之４５號","OBJECTID":97823},"geometry":{"x":164000.77000000048,"y":2566158.9399999995}},{"attributes":{"ID":97824,"DIS_CODE":0,"TOWNNAME":"將軍區","LI":"長榮里","LIN":"10鄰","STREET":" ","SECT":" ","MAREA":"長榮","LANE":" ","ALLEY":" ","HOUSE_NO":"８９之４６號","E_COORD97":164005.64999999999,"N_COORD97":2566168.79,"ADDRESS":"長榮８９之４６號","OBJECTID":97824},"geometry":{"x":164005.6500000013,"y":2566168.790000001}},{"attributes":{"ID":97825,"DIS_CODE":0,"TOWNNAME":"佳里區","LI":"安西里","LIN":"56鄰","STREET":"佳安東路","SECT":" ","MAREA":" ","LANE":" ","ALLEY":" ","HOUSE_NO":"７２號","E_COORD97":163930.17000000001,"N_COORD97":2562338.04,"ADDRESS":"佳安東路７２號","OBJECTID":97825},"geometry":{"x":163930.17000000086,"y":2562338.0400000028}},{"attributes":{"ID":97826,"DIS_CODE":0,"TOWNNAME":"將軍區","LI":"長榮里","LIN":"10鄰","STREET":" ","SECT":" ","MAREA":"長榮","LANE":" ","ALLEY":" ","HOUSE_NO":"８９之４７號","E_COORD97":164004.89000000001,"N_COORD97":2566160.9300000002,"ADDRESS":"長榮８９之４７號","OBJECTID":97826},"geometry":{"x":164004.8900000006,"y":2566160.9300000016}},{"attributes":{"ID":97827,"DIS_CODE":0,"TOWNNAME":"將軍區","LI":"長榮里","LIN":"10鄰","STREET":" ","SECT":" ","MAREA":"長榮","LANE":" ","ALLEY":" ","HOUSE_NO":"８９之４８號","E_COORD97":163967.06,"N_COORD97":2566145.3399999999,"ADDRESS":"長榮８９之４８號","OBJECTID":97827},"geometry":{"x":163967.05999999959,"y":2566145.3400000017}},{"attributes":{"ID":97828,"DIS_CODE":0,"TOWNNAME":"將軍區","LI":"長榮里","LIN":"10鄰","STREET":" ","SECT":" ","MAREA":"長榮","LANE":" ","ALLEY":" ","HOUSE_NO":"８９之４９號","E_COORD97":163971.98999999999,"N_COORD97":2566145.4700000002,"ADDRESS":"長榮８９之４９號","OBJECTID":97828},"geometry":{"x":163971.99000000022,"y":2566145.4700000025}},{"attributes":{"ID":97829,"DIS_CODE":0,"TOWNNAME":"將軍區","LI":"長榮里","LIN":"10鄰","STREET":" ","SECT":" ","MAREA":"長榮","LANE":" ","ALLEY":" ","HOUSE_NO":"８９之４號","E_COORD97":163991.23999999999,"N_COORD97":2566210.9900000002,"ADDRESS":"長榮８９之４號","OBJECTID":97829},"geometry":{"x":163991.24000000115,"y":2566210.9899999984}},{"attributes":{"ID":97830,"DIS_CODE":0,"TOWNNAME":"將軍區","LI":"長榮里","LIN":"10鄰","STREET":" ","SECT":" ","MAREA":"長榮","LANE":" ","ALLEY":" ","HOUSE_NO":"８９之５０號","E_COORD97":163976.59,"N_COORD97":2566145.4100000001,"ADDRESS":"長榮８９之５０號","OBJECTID":97830},"geometry":{"x":163976.59000000078,"y":2566145.410000002}},{"attributes":{"ID":97831,"DIS_CODE":0,"TOWNNAME":"將軍區","LI":"長榮里","LIN":"10鄰","STREET":" ","SECT":" ","MAREA":"長榮","LANE":" ","ALLEY":" ","HOUSE_NO":"８９之５１號","E_COORD97":163980.75,"N_COORD97":2566144.8300000001,"ADDRESS":"長榮８９之５１號","OBJECTID":97831},"geometry":{"x":163980.75000000093,"y":2566144.8300000019}},{"attributes":{"ID":97832,"DIS_CODE":0,"TOWNNAME":"將軍區","LI":"長榮里","LIN":"10鄰","STREET":" ","SECT":" ","MAREA":"長榮","LANE":" ","ALLEY":" ","HOUSE_NO":"８９之５２號","E_COORD97":163985.56,"N_COORD97":2566144.5699999998,"ADDRESS":"長榮８９之５２號","OBJECTID":97832},"geometry":{"x":163985.55999999959,"y":2566144.5700000022}},{"attributes":{"ID":97833,"DIS_CODE":0,"TOWNNAME":"將軍區","LI":"長榮里","LIN":"10鄰","STREET":" ","SECT":" ","MAREA":"長榮","LANE":" ","ALLEY":" ","HOUSE_NO":"８９之５３號","E_COORD97":163990.10000000001,"N_COORD97":2566143.6099999999,"ADDRESS":"長榮８９之５３號","OBJECTID":97833},"geometry":{"x":163990.10000000056,"y":2566143.6099999994}},{"attributes":{"ID":97834,"DIS_CODE":0,"TOWNNAME":"將軍區","LI":"長榮里","LIN":"10鄰","STREET":" ","SECT":" ","MAREA":"長榮","LANE":" ","ALLEY":" ","HOUSE_NO":"８９之５４號","E_COORD97":163994.84,"N_COORD97":2566142.9100000001,"ADDRESS":"長榮８９之５４號","OBJECTID":97834},"geometry":{"x":163994.84000000171,"y":2566142.9100000001}},{"attributes":{"ID":97835,"DIS_CODE":0,"TOWNNAME":"將軍區","LI":"長榮里","LIN":"10鄰","STREET":" ","SECT":" ","MAREA":"長榮","LANE":" ","ALLEY":" ","HOUSE_NO":"９２之３號","E_COORD97":163933.29000000001,"N_COORD97":2566223.75,"ADDRESS":"長榮９２之３號","OBJECTID":97835},"geometry":{"x":163933.29000000097,"y":2566223.7500000019}},{"attributes":{"ID":97836,"DIS_CODE":0,"TOWNNAME":"將軍區","LI":"長榮里","LIN":"10鄰","STREET":" ","SECT":" ","MAREA":"長榮","LANE":" ","ALLEY":" ","HOUSE_NO":"９２號","E_COORD97":163942.19,"N_COORD97":2566230.29,"ADDRESS":"長榮９２號","OBJECTID":97836},"geometry":{"x":163942.18999999948,"y":2566230.2899999991}},{"attributes":{"ID":97837,"DIS_CODE":0,"TOWNNAME":"北區","LI":"大豐里","LIN":"21鄰","STREET":"大興街","SECT":" ","MAREA":" ","LANE":"２８５巷","ALLEY":"２６弄","HOUSE_NO":"３０號","E_COORD97":166636.26000000001,"N_COORD97":2545607.6800000002,"ADDRESS":"大興街２８５巷２６弄３０號","OBJECTID":97837},"geometry":{"x":166636.25999999978,"y":2545607.6800000016}},{"attributes":{"ID":97838,"DIS_CODE":0,"TOWNNAME":"北區","LI":"大豐里","LIN":"21鄰","STREET":"大興街","SECT":" ","MAREA":" ","LANE":"２８５巷","ALLEY":"２６弄","HOUSE_NO":"１０之１號","E_COORD97":166663.82000000001,"N_COORD97":2545610.2799999998,"ADDRESS":"大興街２８５巷２６弄１０之１號","OBJECTID":97838},"geometry":{"x":166663.82000000216,"y":2545610.2799999993}},{"attributes":{"ID":97839,"DIS_CODE":0,"TOWNNAME":"北區","LI":"大豐里","LIN":"21鄰","STREET":"大興街","SECT":" ","MAREA":" ","LANE":"２８５巷","ALLEY":"２６弄","HOUSE_NO":"１０之２號","E_COORD97":166663.44,"N_COORD97":2545615.7400000002,"ADDRESS":"大興街２８５巷２６弄１０之２號","OBJECTID":97839},"geometry":{"x":166663.44000000134,"y":2545615.7400000002}},{"attributes":{"ID":97840,"DIS_CODE":0,"TOWNNAME":"北區","LI":"大豐里","LIN":"21鄰","STREET":"大興街","SECT":" ","MAREA":" ","LANE":"２８５巷","ALLEY":"２６弄","HOUSE_NO":"１０之３號","E_COORD97":166663.69,"N_COORD97":2545620.1899999999,"ADDRESS":"大興街２８５巷２６弄１０之３號","OBJECTID":97840},"geometry":{"x":166663.69000000134,"y":2545620.1900000013}},{"attributes":{"ID":97841,"DIS_CODE":0,"TOWNNAME":"北區","LI":"大豐里","LIN":"21鄰","STREET":"大興街","SECT":" ","MAREA":" ","LANE":"２８５巷","ALLEY":"２６弄","HOUSE_NO":"１０之５號","E_COORD97":166664.07000000001,"N_COORD97":2545625.3900000001,"ADDRESS":"大興街２８５巷２６弄１０之５號","OBJECTID":97841},"geometry":{"x":166664.07000000123,"y":2545625.3900000006}},{"attributes":{"ID":97842,"DIS_CODE":0,"TOWNNAME":"北區","LI":"大豐里","LIN":"21鄰","STREET":"大興街","SECT":" ","MAREA":" ","LANE":"２８５巷","ALLEY":"２６弄","HOUSE_NO":"１０之６號","E_COORD97":166663.69,"N_COORD97":2545630.3500000001,"ADDRESS":"大興街２８５巷２６弄１０之６號","OBJECTID":97842},"geometry":{"x":166663.69000000134,"y":2545630.3499999996}},{"attributes":{"ID":97843,"DIS_CODE":0,"TOWNNAME":"北區","LI":"大豐里","LIN":"21鄰","STREET":"大興街","SECT":" ","MAREA":" ","LANE":"２８５巷","ALLEY":"２６弄","HOUSE_NO":"１０之７號","E_COORD97":166663.57000000001,"N_COORD97":2545635.04,"ADDRESS":"大興街２８５巷２６弄１０之７號","OBJECTID":97843},"geometry":{"x":166663.5700000003,"y":2545635.040000001}},{"attributes":{"ID":97844,"DIS_CODE":0,"TOWNNAME":"北區","LI":"大豐里","LIN":"21鄰","STREET":"大興街","SECT":" ","MAREA":" ","LANE":"２８５巷","ALLEY":"２６弄","HOUSE_NO":"１０之８號","E_COORD97":166663.31,"N_COORD97":2545640,"ADDRESS":"大興街２８５巷２６弄１０之８號","OBJECTID":97844},"geometry":{"x":166663.31000000052,"y":2545640}},{"attributes":{"ID":97845,"DIS_CODE":0,"TOWNNAME":"北區","LI":"大豐里","LIN":"21鄰","STREET":"大興街","SECT":" ","MAREA":" ","LANE":"２８５巷","ALLEY":"２６弄","HOUSE_NO":"１０之９號","E_COORD97":166663.31,"N_COORD97":2545644.8199999998,"ADDRESS":"大興街２８５巷２６弄１０之９號","OBJECTID":97845},"geometry":{"x":166663.31000000052,"y":2545644.8200000003}},{"attributes":{"ID":97846,"DIS_CODE":0,"TOWNNAME":"北區","LI":"大豐里","LIN":"21鄰","STREET":"大興街","SECT":" ","MAREA":" ","LANE":"２８５巷","ALLEY":"２６弄","HOUSE_NO":"１０之１０號","E_COORD97":166663.06,"N_COORD97":2545649.27,"ADDRESS":"大興街２８５巷２６弄１０之１０號","OBJECTID":97846},"geometry":{"x":166663.06000000145,"y":2545649.2700000033}},{"attributes":{"ID":97847,"DIS_CODE":0,"TOWNNAME":"北區","LI":"大豐里","LIN":"21鄰","STREET":"大興街","SECT":" ","MAREA":" ","LANE":"２８５巷","ALLEY":"２６弄","HOUSE_NO":"２０號","E_COORD97":166648.07000000001,"N_COORD97":2545604.5600000001,"ADDRESS":"大興街２８５巷２６弄２０號","OBJECTID":97847},"geometry":{"x":166648.0700000003,"y":2545604.5600000042}},{"attributes":{"ID":97848,"DIS_CODE":0,"TOWNNAME":"北區","LI":"大豐里","LIN":"21鄰","STREET":"大興街","SECT":" ","MAREA":" ","LANE":"２８５巷","ALLEY":"２６弄","HOUSE_NO":"２０之１號","E_COORD97":166647.82000000001,"N_COORD97":2545609.1400000001,"ADDRESS":"大興街２８５巷２６弄２０之１號","OBJECTID":97848},"geometry":{"x":166647.8200000003,"y":2545609.1400000006}},{"attributes":{"ID":97849,"DIS_CODE":0,"TOWNNAME":"北區","LI":"大豐里","LIN":"21鄰","STREET":"大興街","SECT":" ","MAREA":" ","LANE":"２８５巷","ALLEY":"２６弄","HOUSE_NO":"２０之２號","E_COORD97":166648.57999999999,"N_COORD97":2545614.7200000002,"ADDRESS":"大興街２８５巷２６弄２０之２號","OBJECTID":97849},"geometry":{"x":166648.58000000101,"y":2545614.7200000025}},{"attributes":{"ID":97850,"DIS_CODE":0,"TOWNNAME":"北區","LI":"大豐里","LIN":"21鄰","STREET":"大興街","SECT":" ","MAREA":" ","LANE":"２８５巷","ALLEY":"２６弄","HOUSE_NO":"２０之３號","E_COORD97":166648.20000000001,"N_COORD97":2545619.6800000002,"ADDRESS":"大興街２８５巷２６弄２０之３號","OBJECTID":97850},"geometry":{"x":166648.20000000112,"y":2545619.6800000034}},{"attributes":{"ID":97851,"DIS_CODE":0,"TOWNNAME":"北區","LI":"大豐里","LIN":"21鄰","STREET":"大興街","SECT":" ","MAREA":" ","LANE":"２８５巷","ALLEY":"２６弄","HOUSE_NO":"２０之５號","E_COORD97":166647.82000000001,"N_COORD97":2545624.8799999999,"ADDRESS":"大興街２８５巷２６弄２０之５號","OBJECTID":97851},"geometry":{"x":166647.8200000003,"y":2545624.8800000008}},{"attributes":{"ID":97852,"DIS_CODE":0,"TOWNNAME":"北區","LI":"大豐里","LIN":"21鄰","STREET":"大興街","SECT":" ","MAREA":" ","LANE":"２８５巷","ALLEY":"２６弄","HOUSE_NO":"２０之６號","E_COORD97":166648.95999999999,"N_COORD97":2545628.5699999998,"ADDRESS":"大興街２８５巷２６弄２０之６號","OBJECTID":97852},"geometry":{"x":166648.96000000183,"y":2545628.5700000022}},{"attributes":{"ID":97853,"DIS_CODE":0,"TOWNNAME":"北區","LI":"大豐里","LIN":"21鄰","STREET":"大興街","SECT":" ","MAREA":" ","LANE":"２８５巷","ALLEY":"２６弄","HOUSE_NO":"２０之７號","E_COORD97":166648.82999999999,"N_COORD97":2545634.4100000001,"ADDRESS":"大興街２８５巷２６弄２０之７號","OBJECTID":97853},"geometry":{"x":166648.83000000101,"y":2545634.4100000001}},{"attributes":{"ID":97854,"DIS_CODE":0,"TOWNNAME":"北區","LI":"大豐里","LIN":"21鄰","STREET":"大興街","SECT":" ","MAREA":" ","LANE":"２８５巷","ALLEY":"２６弄","HOUSE_NO":"２０之８號","E_COORD97":166648.95999999999,"N_COORD97":2545639.4900000002,"ADDRESS":"大興街２８５巷２６弄２０之８號","OBJECTID":97854},"geometry":{"x":166648.96000000183,"y":2545639.4900000021}},{"attributes":{"ID":97855,"DIS_CODE":0,"TOWNNAME":"北區","LI":"大豐里","LIN":"21鄰","STREET":"大興街","SECT":" ","MAREA":" ","LANE":"２８５巷","ALLEY":"２６弄","HOUSE_NO":"２０之９號","E_COORD97":166649.20999999999,"N_COORD97":2545644.4399999999,"ADDRESS":"大興街２８５巷２６弄２０之９號","OBJECTID":97855},"geometry":{"x":166649.21000000089,"y":2545644.4399999976}},{"attributes":{"ID":97856,"DIS_CODE":0,"TOWNNAME":"北區","LI":"大豐里","LIN":"21鄰","STREET":"大興街","SECT":" ","MAREA":" ","LANE":"２８５巷","ALLEY":"２６弄","HOUSE_NO":"２０之１０號","E_COORD97":166649.47,"N_COORD97":2545649.6499999999,"ADDRESS":"大興街２８５巷２６弄２０之１０號","OBJECTID":97856},"geometry":{"x":166649.46999999974,"y":2545649.6500000004}},{"attributes":{"ID":97857,"DIS_CODE":0,"TOWNNAME":"南區","LI":"郡南里","LIN":"21鄰","STREET":"新都路","SECT":" ","MAREA":" ","LANE":"３２９巷","ALLEY":"２弄","HOUSE_NO":"２號之１","E_COORD97":167612.64999999999,"N_COORD97":2540819.9900000002,"ADDRESS":"新都路３２９巷２弄２號之１","OBJECTID":97857},"geometry":{"x":167612.65000000224,"y":2540819.9900000002}},{"attributes":{"ID":97858,"DIS_CODE":0,"TOWNNAME":"北區","LI":"大和里","LIN":"21鄰","STREET":"大港街","SECT":" ","MAREA":" ","LANE":"３８巷","ALLEY":"１５弄","HOUSE_NO":"１７號","E_COORD97":167092.98999999999,"N_COORD97":2546106.8700000001,"ADDRESS":"大港街３８巷１５弄１７號","OBJECTID":97858},"geometry":{"x":167092.98999999929,"y":2546106.870000001}},{"attributes":{"ID":97859,"DIS_CODE":0,"TOWNNAME":"北區","LI":"大和里","LIN":"21鄰","STREET":"大港街","SECT":" ","MAREA":" ","LANE":"３８巷","ALLEY":"１５弄","HOUSE_NO":"１９號","E_COORD97":167088.95999999999,"N_COORD97":2546105.5699999998,"ADDRESS":"大港街３８巷１５弄１９號","OBJECTID":97859},"geometry":{"x":167088.95999999996,"y":2546105.5699999984}},{"attributes":{"ID":97860,"DIS_CODE":0,"TOWNNAME":"北區","LI":"大和里","LIN":"21鄰","STREET":"大港街","SECT":" ","MAREA":" ","LANE":"３８巷","ALLEY":"１５弄","HOUSE_NO":"２０號","E_COORD97":167096.04999999999,"N_COORD97":2546129.3500000001,"ADDRESS":"大港街３８巷１５弄２０號","OBJECTID":97860},"geometry":{"x":167096.05000000075,"y":2546129.3499999996}},{"attributes":{"ID":97861,"DIS_CODE":0,"TOWNNAME":"北區","LI":"大和里","LIN":"21鄰","STREET":"大港街","SECT":" ","MAREA":" ","LANE":"３８巷","ALLEY":"１５弄","HOUSE_NO":"２１號","E_COORD97":167084.67000000001,"N_COORD97":2546103.9399999999,"ADDRESS":"大港街３８巷１５弄２１號","OBJECTID":97861},"geometry":{"x":167084.66999999899,"y":2546103.9400000013}},{"attributes":{"ID":97862,"DIS_CODE":0,"TOWNNAME":"北區","LI":"大和里","LIN":"21鄰","STREET":"大港街","SECT":" ","MAREA":" ","LANE":"３８巷","ALLEY":"１５弄","HOUSE_NO":"２２號","E_COORD97":167091.88,"N_COORD97":2546127.4700000002,"ADDRESS":"大港街３８巷１５弄２２號","OBJECTID":97862},"geometry":{"x":167091.88000000175,"y":2546127.4700000025}},{"attributes":{"ID":97863,"DIS_CODE":0,"TOWNNAME":"北區","LI":"大和里","LIN":"21鄰","STREET":"大港街","SECT":" ","MAREA":" ","LANE":"３８巷","ALLEY":"１５弄","HOUSE_NO":"２３號","E_COORD97":167080.28,"N_COORD97":2546102.3799999999,"ADDRESS":"大港街３８巷１５弄２３號","OBJECTID":97863},"geometry":{"x":167080.28000000026,"y":2546102.3800000027}},{"attributes":{"ID":97864,"DIS_CODE":0,"TOWNNAME":"北區","LI":"大和里","LIN":"21鄰","STREET":"大港街","SECT":" ","MAREA":" ","LANE":"３８巷","ALLEY":"１５弄","HOUSE_NO":"２４號","E_COORD97":167087.91,"N_COORD97":2546126.1699999999,"ADDRESS":"大港街３８巷１５弄２４號","OBJECTID":97864},"geometry":{"x":167087.91000000015,"y":2546126.1700000018}},{"attributes":{"ID":97865,"DIS_CODE":0,"TOWNNAME":"北區","LI":"大和里","LIN":"21鄰","STREET":"大港街","SECT":" ","MAREA":" ","LANE":"３８巷","ALLEY":"１５弄","HOUSE_NO":"２５號","E_COORD97":167075.98999999999,"N_COORD97":2546101.4700000002,"ADDRESS":"大港街３８巷１５弄２５號","OBJECTID":97865},"geometry":{"x":167075.99000000022,"y":2546101.4700000025}},{"attributes":{"ID":97866,"DIS_CODE":0,"TOWNNAME":"北區","LI":"大和里","LIN":"21鄰","STREET":"大港街","SECT":" ","MAREA":" ","LANE":"３８巷","ALLEY":"１５弄","HOUSE_NO":"２６號","E_COORD97":167082.70999999999,"N_COORD97":2546124.2799999998,"ADDRESS":"大港街３８巷１５弄２６號","OBJECTID":97866},"geometry":{"x":167082.70999999903,"y":2546124.2800000012}},{"attributes":{"ID":97867,"DIS_CODE":0,"TOWNNAME":"北區","LI":"大和里","LIN":"21鄰","STREET":"大港街","SECT":" ","MAREA":" ","LANE":"３８巷","ALLEY":"１５弄","HOUSE_NO":"２７號","E_COORD97":167071.5,"N_COORD97":2546099.5800000001,"ADDRESS":"大港街３８巷１５弄２７號","OBJECTID":97867},"geometry":{"x":167071.50000000093,"y":2546099.5800000019}},{"attributes":{"ID":97868,"DIS_CODE":0,"TOWNNAME":"北區","LI":"大和里","LIN":"21鄰","STREET":"大港街","SECT":" ","MAREA":" ","LANE":"３８巷","ALLEY":"１５弄","HOUSE_NO":"２８號","E_COORD97":167079.25,"N_COORD97":2546120.1200000001,"ADDRESS":"大港街３８巷１５弄２８號","OBJECTID":97868},"geometry":{"x":167079.25000000186,"y":2546120.1200000029}},{"attributes":{"ID":97869,"DIS_CODE":0,"TOWNNAME":"將軍區","LI":"長榮里","LIN":"10鄰","STREET":" ","SECT":" ","MAREA":"長榮","LANE":" ","ALLEY":" ","HOUSE_NO":"９５號","E_COORD97":163875.35000000001,"N_COORD97":2566240.3500000001,"ADDRESS":"長榮９５號","OBJECTID":97869},"geometry":{"x":163875.34999999963,"y":2566240.3499999996}},{"attributes":{"ID":97870,"DIS_CODE":0,"TOWNNAME":"將軍區","LI":"長榮里","LIN":"10鄰","STREET":" ","SECT":" ","MAREA":"長榮","LANE":" ","ALLEY":" ","HOUSE_NO":"９６之１號","E_COORD97":163880.03,"N_COORD97":2566251.6699999999,"ADDRESS":"長榮９６之１號","OBJECTID":97870},"geometry":{"x":163880.03000000026,"y":2566251.6700000018}},{"attributes":{"ID":97871,"DIS_CODE":0,"TOWNNAME":"將軍區","LI":"長榮里","LIN":"10鄰","STREET":" ","SECT":" ","MAREA":"長榮","LANE":" ","ALLEY":" ","HOUSE_NO":"９６號","E_COORD97":163882.01999999999,"N_COORD97":2566263.1299999999,"ADDRESS":"長榮９６號","OBJECTID":97871},"geometry":{"x":163882.02000000048,"y":2566263.1300000027}},{"attributes":{"ID":97872,"DIS_CODE":0,"TOWNNAME":"將軍區","LI":"長榮里","LIN":"10鄰","STREET":" ","SECT":" ","MAREA":"長榮","LANE":" ","ALLEY":" ","HOUSE_NO":"９８號","E_COORD97":163884.14999999999,"N_COORD97":2566282.9100000001,"ADDRESS":"長榮９８號","OBJECTID":97872},"geometry":{"x":163884.15000000037,"y":2566282.9100000039}},{"attributes":{"ID":97873,"DIS_CODE":0,"TOWNNAME":"將軍區","LI":"苓和里","LIN":"10鄰","STREET":" ","SECT":" ","MAREA":"苓和","LANE":" ","ALLEY":" ","HOUSE_NO":"１０１之１號","E_COORD97":164445.98999999999,"N_COORD97":2568775.0299999998,"ADDRESS":"苓和１０１之１號","OBJECTID":97873},"geometry":{"x":164445.99000000115,"y":2568775.0299999993}},{"attributes":{"ID":97874,"DIS_CODE":0,"TOWNNAME":"將軍區","LI":"苓和里","LIN":"10鄰","STREET":" ","SECT":" ","MAREA":"苓和","LANE":" ","ALLEY":" ","HOUSE_NO":"１０１之２號","E_COORD97":164432.35999999999,"N_COORD97":2568778.04,"ADDRESS":"苓和１０１之２號","OBJECTID":97874},"geometry":{"x":164432.36000000034,"y":2568778.0399999991}},{"attributes":{"ID":97875,"DIS_CODE":0,"TOWNNAME":"將軍區","LI":"苓和里","LIN":"10鄰","STREET":" ","SECT":" ","MAREA":"苓和","LANE":" ","ALLEY":" ","HOUSE_NO":"１０１之３號","E_COORD97":164428.26999999999,"N_COORD97":2568777.8399999999,"ADDRESS":"苓和１０１之３號","OBJECTID":97875},"geometry":{"x":164428.26999999955,"y":2568777.8399999999}},{"attributes":{"ID":97876,"DIS_CODE":0,"TOWNNAME":"將軍區","LI":"苓和里","LIN":"10鄰","STREET":" ","SECT":" ","MAREA":"苓和","LANE":" ","ALLEY":" ","HOUSE_NO":"１０１之４號","E_COORD97":164423.51000000001,"N_COORD97":2568777.5,"ADDRESS":"苓和１０１之４號","OBJECTID":97876},"geometry":{"x":164423.50999999978,"y":2568777.5000000037}},{"attributes":{"ID":97877,"DIS_CODE":0,"TOWNNAME":"將軍區","LI":"苓和里","LIN":"10鄰","STREET":" ","SECT":" ","MAREA":"苓和","LANE":" ","ALLEY":" ","HOUSE_NO":"１０１之５號","E_COORD97":164419.54999999999,"N_COORD97":2568778.21,"ADDRESS":"苓和１０１之５號","OBJECTID":97877},"geometry":{"x":164419.55000000075,"y":2568778.2100000028}},{"attributes":{"ID":97878,"DIS_CODE":0,"TOWNNAME":"將軍區","LI":"苓和里","LIN":"10鄰","STREET":" ","SECT":" ","MAREA":"苓和","LANE":" ","ALLEY":" ","HOUSE_NO":"１０１之６號","E_COORD97":164415.29000000001,"N_COORD97":2568778.7000000002,"ADDRESS":"苓和１０１之６號","OBJECTID":97878},"geometry":{"x":164415.29000000004,"y":2568778.700000003}},{"attributes":{"ID":97879,"DIS_CODE":0,"TOWNNAME":"將軍區","LI":"苓和里","LIN":"10鄰","STREET":" ","SECT":" ","MAREA":"苓和","LANE":" ","ALLEY":" ","HOUSE_NO":"１０１號","E_COORD97":164439.19,"N_COORD97":2568779.5499999998,"ADDRESS":"苓和１０１號","OBJECTID":97879},"geometry":{"x":164439.19000000134,"y":2568779.5500000007}},{"attributes":{"ID":97880,"DIS_CODE":0,"TOWNNAME":"將軍區","LI":"苓和里","LIN":"10鄰","STREET":" ","SECT":" ","MAREA":"苓和","LANE":" ","ALLEY":" ","HOUSE_NO":"１０２號","E_COORD97":164446.35000000001,"N_COORD97":2568853.7599999998,"ADDRESS":"苓和１０２號","OBJECTID":97880},"geometry":{"x":164446.35000000056,"y":2568853.7600000016}},{"attributes":{"ID":97881,"DIS_CODE":0,"TOWNNAME":"將軍區","LI":"苓和里","LIN":"10鄰","STREET":" ","SECT":" ","MAREA":"苓和","LANE":" ","ALLEY":" ","HOUSE_NO":"１０３號","E_COORD97":164432.92000000001,"N_COORD97":2568874.5099999998,"ADDRESS":"苓和１０３號","OBJECTID":97881},"geometry":{"x":164432.91999999993,"y":2568874.5099999998}},{"attributes":{"ID":97882,"DIS_CODE":0,"TOWNNAME":"將軍區","LI":"苓和里","LIN":"10鄰","STREET":" ","SECT":" ","MAREA":"苓和","LANE":" ","ALLEY":" ","HOUSE_NO":"１０４號","E_COORD97":164443.70000000001,"N_COORD97":2568893.96,"ADDRESS":"苓和１０４號","OBJECTID":97882},"geometry":{"x":164443.70000000205,"y":2568893.9600000046}},{"attributes":{"ID":97883,"DIS_CODE":0,"TOWNNAME":"將軍區","LI":"苓和里","LIN":"10鄰","STREET":" ","SECT":" ","MAREA":"苓和","LANE":" ","ALLEY":" ","HOUSE_NO":"１０５號","E_COORD97":164435.92000000001,"N_COORD97":2568908.4900000002,"ADDRESS":"苓和１０５號","OBJECTID":97883},"geometry":{"x":164435.92000000086,"y":2568908.4900000002}},{"attributes":{"ID":97884,"DIS_CODE":0,"TOWNNAME":"將軍區","LI":"苓和里","LIN":"10鄰","STREET":" ","SECT":" ","MAREA":"苓和","LANE":" ","ALLEY":" ","HOUSE_NO":"１０６號","E_COORD97":164439.53,"N_COORD97":2568928.2400000002,"ADDRESS":"苓和１０６號","OBJECTID":97884},"geometry":{"x":164439.53000000026,"y":2568928.2400000002}},{"attributes":{"ID":97885,"DIS_CODE":0,"TOWNNAME":"將軍區","LI":"苓和里","LIN":"10鄰","STREET":" ","SECT":" ","MAREA":"苓和","LANE":" ","ALLEY":" ","HOUSE_NO":"１０７號","E_COORD97":164419.47,"N_COORD97":2568943.6299999999,"ADDRESS":"苓和１０７號","OBJECTID":97885},"geometry":{"x":164419.4700000016,"y":2568943.629999999}},{"attributes":{"ID":97886,"DIS_CODE":0,"TOWNNAME":"將軍區","LI":"保源里","LIN":"10鄰","STREET":" ","SECT":" ","MAREA":"苓保","LANE":" ","ALLEY":" ","HOUSE_NO":"１００號","E_COORD97":164470.62,"N_COORD97":2568748.2799999998,"ADDRESS":"苓保１００號","OBJECTID":97886},"geometry":{"x":164470.62000000011,"y":2568748.2800000012}},{"attributes":{"ID":97887,"DIS_CODE":0,"TOWNNAME":"將軍區","LI":"保源里","LIN":"10鄰","STREET":" ","SECT":" ","MAREA":"苓保","LANE":" ","ALLEY":" ","HOUSE_NO":"１０１號","E_COORD97":164450.73999999999,"N_COORD97":2568743.1499999999,"ADDRESS":"苓保１０１號","OBJECTID":97887},"geometry":{"x":164450.74000000115,"y":2568743.1500000022}},{"attributes":{"ID":97888,"DIS_CODE":0,"TOWNNAME":"將軍區","LI":"保源里","LIN":"10鄰","STREET":" ","SECT":" ","MAREA":"苓保","LANE":" ","ALLEY":" ","HOUSE_NO":"１０３之２號","E_COORD97":164411.70000000001,"N_COORD97":2568745.25,"ADDRESS":"苓保１０３之２號","OBJECTID":97888},"geometry":{"x":164411.70000000112,"y":2568745.2500000037}},{"attributes":{"ID":97889,"DIS_CODE":0,"TOWNNAME":"將軍區","LI":"保源里","LIN":"10鄰","STREET":" ","SECT":" ","MAREA":"苓保","LANE":" ","ALLEY":" ","HOUSE_NO":"１０３號","E_COORD97":164418.35000000001,"N_COORD97":2568745.2000000002,"ADDRESS":"苓保１０３號","OBJECTID":97889},"geometry":{"x":164418.35000000149,"y":2568745.2000000011}},{"attributes":{"ID":97890,"DIS_CODE":0,"TOWNNAME":"將軍區","LI":"保源里","LIN":"10鄰","STREET":" ","SECT":" ","MAREA":"苓保","LANE":" ","ALLEY":" ","HOUSE_NO":"１０４號","E_COORD97":164406.64000000001,"N_COORD97":2568749.8599999999,"ADDRESS":"苓保１０４號","OBJECTID":97890},"geometry":{"x":164406.6400000006,"y":2568749.8599999994}},{"attributes":{"ID":97891,"DIS_CODE":0,"TOWNNAME":"將軍區","LI":"保源里","LIN":"10鄰","STREET":" ","SECT":" ","MAREA":"苓保","LANE":" ","ALLEY":" ","HOUSE_NO":"１０５號","E_COORD97":164402.95000000001,"N_COORD97":2568749.8500000001,"ADDRESS":"苓保１０５號","OBJECTID":97891},"geometry":{"x":164402.94999999925,"y":2568749.8499999996}},{"attributes":{"ID":97892,"DIS_CODE":0,"TOWNNAME":"將軍區","LI":"保源里","LIN":"10鄰","STREET":" ","SECT":" ","MAREA":"苓保","LANE":" ","ALLEY":" ","HOUSE_NO":"１０６號","E_COORD97":164396.70999999999,"N_COORD97":2568751.1299999999,"ADDRESS":"苓保１０６號","OBJECTID":97892},"geometry":{"x":164396.71000000089,"y":2568751.129999999}},{"attributes":{"ID":97893,"DIS_CODE":0,"TOWNNAME":"楠西區","LI":"鹿田里","LIN":" ","STREET":" ","SECT":" ","MAREA":"油車","LANE":" ","ALLEY":" ","HOUSE_NO":"８４號","E_COORD97":197645.73999999999,"N_COORD97":2562637.25,"ADDRESS":"油車８４號","OBJECTID":97893},"geometry":{"x":197645.74000000115,"y":2562637.2500000019}},{"attributes":{"ID":97894,"DIS_CODE":0,"TOWNNAME":"將軍區","LI":"保源里","LIN":"10鄰","STREET":" ","SECT":" ","MAREA":"苓保","LANE":" ","ALLEY":" ","HOUSE_NO":"１０７號","E_COORD97":164391.13,"N_COORD97":2568751.3900000001,"ADDRESS":"苓保１０７號","OBJECTID":97894},"geometry":{"x":164391.12999999989,"y":2568751.3899999987}},{"attributes":{"ID":97895,"DIS_CODE":0,"TOWNNAME":"將軍區","LI":"保源里","LIN":"10鄰","STREET":" ","SECT":" ","MAREA":"苓保","LANE":" ","ALLEY":" ","HOUSE_NO":"１０８號","E_COORD97":164386.73999999999,"N_COORD97":2568749.5099999998,"ADDRESS":"苓保１０８號","OBJECTID":97895},"geometry":{"x":164386.74000000022,"y":2568749.5099999998}},{"attributes":{"ID":97896,"DIS_CODE":0,"TOWNNAME":"將軍區","LI":"保源里","LIN":"10鄰","STREET":" ","SECT":" ","MAREA":"苓保","LANE":" ","ALLEY":" ","HOUSE_NO":"１０９號","E_COORD97":164365.82999999999,"N_COORD97":2568745.3999999999,"ADDRESS":"苓保１０９號","OBJECTID":97896},"geometry":{"x":164365.83000000007,"y":2568745.4000000022}},{"attributes":{"ID":97897,"DIS_CODE":0,"TOWNNAME":"將軍區","LI":"保源里","LIN":"10鄰","STREET":" ","SECT":" ","MAREA":"苓保","LANE":" ","ALLEY":" ","HOUSE_NO":"１１０之１０號","E_COORD97":164328.04999999999,"N_COORD97":2568751.7400000002,"ADDRESS":"苓保１１０之１０號","OBJECTID":97897},"geometry":{"x":164328.05000000075,"y":2568751.7400000002}},{"attributes":{"ID":97898,"DIS_CODE":0,"TOWNNAME":"將軍區","LI":"保源里","LIN":"10鄰","STREET":" ","SECT":" ","MAREA":"苓保","LANE":" ","ALLEY":" ","HOUSE_NO":"１１０之１１號","E_COORD97":164310.70999999999,"N_COORD97":2568747.9500000002,"ADDRESS":"苓保１１０之１１號","OBJECTID":97898},"geometry":{"x":164310.70999999996,"y":2568747.9500000011}},{"attributes":{"ID":97899,"DIS_CODE":0,"TOWNNAME":"北區","LI":"大和里","LIN":"21鄰","STREET":"大港街","SECT":" ","MAREA":" ","LANE":"３８巷","ALLEY":"１５弄","HOUSE_NO":"２９號","E_COORD97":167067.45999999999,"N_COORD97":2546098.2799999998,"ADDRESS":"大港街３８巷１５弄２９號","OBJECTID":97899},"geometry":{"x":167067.45999999903,"y":2546098.2799999993}},{"attributes":{"ID":97900,"DIS_CODE":0,"TOWNNAME":"北區","LI":"大和里","LIN":"21鄰","STREET":"大港街","SECT":" ","MAREA":" ","LANE":"３８巷","ALLEY":"１５弄","HOUSE_NO":"２之２號","E_COORD97":167134.22,"N_COORD97":2546140.1000000001,"ADDRESS":"大港街３８巷１５弄２之２號","OBJECTID":97900},"geometry":{"x":167134.22000000067,"y":2546140.1000000015}},{"attributes":{"ID":97901,"DIS_CODE":0,"TOWNNAME":"北區","LI":"大和里","LIN":"21鄰","STREET":"大港街","SECT":" ","MAREA":" ","LANE":"３８巷","ALLEY":"１５弄","HOUSE_NO":"２號","E_COORD97":167138,"N_COORD97":2546141.3300000001,"ADDRESS":"大港街３８巷１５弄２號","OBJECTID":97901},"geometry":{"x":167138,"y":2546141.3300000038}},{"attributes":{"ID":97902,"DIS_CODE":0,"TOWNNAME":"北區","LI":"大和里","LIN":"21鄰","STREET":"大港街","SECT":" ","MAREA":" ","LANE":"３８巷","ALLEY":"１５弄","HOUSE_NO":"２號之１","E_COORD97":167143.39999999999,"N_COORD97":2546144.8999999999,"ADDRESS":"大港街３８巷１５弄２號之１","OBJECTID":97902},"geometry":{"x":167143.4000000013,"y":2546144.9000000022}},{"attributes":{"ID":97903,"DIS_CODE":0,"TOWNNAME":"北區","LI":"大和里","LIN":"21鄰","STREET":"大港街","SECT":" ","MAREA":" ","LANE":"３８巷","ALLEY":"１５弄","HOUSE_NO":"３０號","E_COORD97":167075.09,"N_COORD97":2546118.8799999999,"ADDRESS":"大港街３８巷１５弄３０號","OBJECTID":97903},"geometry":{"x":167075.09000000171,"y":2546118.879999999}},{"attributes":{"ID":97904,"DIS_CODE":0,"TOWNNAME":"北區","LI":"大和里","LIN":"21鄰","STREET":"大港街","SECT":" ","MAREA":" ","LANE":"３８巷","ALLEY":"１５弄","HOUSE_NO":"３１號","E_COORD97":167063.56,"N_COORD97":2546096.46,"ADDRESS":"大港街３８巷１５弄３１號","OBJECTID":97904},"geometry":{"x":167063.56000000052,"y":2546096.4600000009}},{"attributes":{"ID":97905,"DIS_CODE":0,"TOWNNAME":"北區","LI":"大和里","LIN":"21鄰","STREET":"大港街","SECT":" ","MAREA":" ","LANE":"３８巷","ALLEY":"１５弄","HOUSE_NO":"３２號","E_COORD97":167071.31,"N_COORD97":2546116.7400000002,"ADDRESS":"大港街３８巷１５弄３２號","OBJECTID":97905},"geometry":{"x":167071.30999999959,"y":2546116.7400000002}},{"attributes":{"ID":97906,"DIS_CODE":0,"TOWNNAME":"北區","LI":"大和里","LIN":"21鄰","STREET":"大港街","SECT":" ","MAREA":" ","LANE":"３８巷","ALLEY":"１５弄","HOUSE_NO":"３３號","E_COORD97":167059,"N_COORD97":2546095.29,"ADDRESS":"大港街３８巷１５弄３３號","OBJECTID":97906},"geometry":{"x":167059.00000000186,"y":2546095.2899999991}},{"attributes":{"ID":97907,"DIS_CODE":0,"TOWNNAME":"北區","LI":"大和里","LIN":"21鄰","STREET":"大港街","SECT":" ","MAREA":" ","LANE":"３８巷","ALLEY":"１５弄","HOUSE_NO":"３４號","E_COORD97":167066.42000000001,"N_COORD97":2546117.0600000001,"ADDRESS":"大港街３８巷１５弄３４號","OBJECTID":97907},"geometry":{"x":167066.42000000086,"y":2546117.0600000024}},{"attributes":{"ID":97908,"DIS_CODE":0,"TOWNNAME":"北區","LI":"大和里","LIN":"21鄰","STREET":"大港街","SECT":" ","MAREA":" ","LANE":"３８巷","ALLEY":"１５弄","HOUSE_NO":"３５號","E_COORD97":167054.76999999999,"N_COORD97":2546093.7200000002,"ADDRESS":"大港街３８巷１５弄３５號","OBJECTID":97908},"geometry":{"x":167054.76999999862,"y":2546093.7200000007}},{"attributes":{"ID":97909,"DIS_CODE":0,"TOWNNAME":"北區","LI":"大和里","LIN":"21鄰","STREET":"大港街","SECT":" ","MAREA":" ","LANE":"３８巷","ALLEY":"１５弄","HOUSE_NO":"３６號","E_COORD97":167062.57999999999,"N_COORD97":2546114.8500000001,"ADDRESS":"大港街３８巷１５弄３６號","OBJECTID":97909},"geometry":{"x":167062.58000000101,"y":2546114.8500000015}},{"attributes":{"ID":97910,"DIS_CODE":0,"TOWNNAME":"北區","LI":"大和里","LIN":"21鄰","STREET":"大港街","SECT":" ","MAREA":" ","LANE":"３８巷","ALLEY":"１５弄","HOUSE_NO":"３７號","E_COORD97":167050.34,"N_COORD97":2546091.8999999999,"ADDRESS":"大港街３８巷１５弄３７號","OBJECTID":97910},"geometry":{"x":167050.34000000078,"y":2546091.9000000004}},{"attributes":{"ID":97911,"DIS_CODE":0,"TOWNNAME":"北區","LI":"大和里","LIN":"21鄰","STREET":"大港街","SECT":" ","MAREA":" ","LANE":"３８巷","ALLEY":"１５弄","HOUSE_NO":"３８號","E_COORD97":167057.70000000001,"N_COORD97":2546114.9100000001,"ADDRESS":"大港街３８巷１５弄３８號","OBJECTID":97911},"geometry":{"x":167057.70000000205,"y":2546114.910000002}},{"attributes":{"ID":97912,"DIS_CODE":0,"TOWNNAME":"將軍區","LI":"保源里","LIN":"10鄰","STREET":" ","SECT":" ","MAREA":"苓保","LANE":" ","ALLEY":" ","HOUSE_NO":"１１０號","E_COORD97":164360.26999999999,"N_COORD97":2568745.96,"ADDRESS":"苓保１１０號","OBJECTID":97912},"geometry":{"x":164360.27000000048,"y":2568745.9600000028}},{"attributes":{"ID":97913,"DIS_CODE":0,"TOWNNAME":"北區","LI":"大和里","LIN":"21鄰","STREET":"大港街","SECT":" ","MAREA":" ","LANE":"３８巷","ALLEY":"１５弄","HOUSE_NO":"３９號","E_COORD97":167046.31,"N_COORD97":2546090.4100000001,"ADDRESS":"大港街３８巷１５弄３９號","OBJECTID":97913},"geometry":{"x":167046.31000000052,"y":2546090.410000002}},{"attributes":{"ID":97914,"DIS_CODE":0,"TOWNNAME":"北區","LI":"大和里","LIN":"21鄰","STREET":"大港街","SECT":" ","MAREA":" ","LANE":"３８巷","ALLEY":"１５弄","HOUSE_NO":"３號","E_COORD97":167132.92000000001,"N_COORD97":2546103.5099999998,"ADDRESS":"大港街３８巷１５弄３號","OBJECTID":97914},"geometry":{"x":167132.92000000086,"y":2546103.5100000016}},{"attributes":{"ID":97915,"DIS_CODE":0,"TOWNNAME":"北區","LI":"大和里","LIN":"21鄰","STREET":"大港街","SECT":" ","MAREA":" ","LANE":"３８巷","ALLEY":"１５弄","HOUSE_NO":"４０號","E_COORD97":167053.79999999999,"N_COORD97":2546112.04,"ADDRESS":"大港街３８巷１５弄４０號","OBJECTID":97915},"geometry":{"x":167053.80000000075,"y":2546112.040000001}},{"attributes":{"ID":97916,"DIS_CODE":0,"TOWNNAME":"北區","LI":"大和里","LIN":"21鄰","STREET":"大港街","SECT":" ","MAREA":" ","LANE":"３８巷","ALLEY":"１５弄","HOUSE_NO":"４２號","E_COORD97":167048.78,"N_COORD97":2546112.04,"ADDRESS":"大港街３８巷１５弄４２號","OBJECTID":97916},"geometry":{"x":167048.78000000212,"y":2546112.040000001}},{"attributes":{"ID":97917,"DIS_CODE":0,"TOWNNAME":"佳里區","LI":"安西里","LIN":"56鄰","STREET":"佳安東路","SECT":" ","MAREA":" ","LANE":" ","ALLEY":" ","HOUSE_NO":"６２號","E_COORD97":163907.84,"N_COORD97":2562340.75,"ADDRESS":"佳安東路６２號","OBJECTID":97917},"geometry":{"x":163907.83999999985,"y":2562340.7500000037}},{"attributes":{"ID":97918,"DIS_CODE":0,"TOWNNAME":"佳里區","LI":"安西里","LIN":"56鄰","STREET":"佳安東路","SECT":" ","MAREA":" ","LANE":" ","ALLEY":" ","HOUSE_NO":"６６號","E_COORD97":163912.07000000001,"N_COORD97":2562340.6800000002,"ADDRESS":"佳安東路６６號","OBJECTID":97918},"geometry":{"x":163912.0700000003,"y":2562340.6799999978}},{"attributes":{"ID":97919,"DIS_CODE":0,"TOWNNAME":"佳里區","LI":"安西里","LIN":"56鄰","STREET":"佳安東路","SECT":" ","MAREA":" ","LANE":" ","ALLEY":" ","HOUSE_NO":"６８號","E_COORD97":163916.19,"N_COORD97":2562340.6899999999,"ADDRESS":"佳安東路６８號","OBJECTID":97919},"geometry":{"x":163916.19000000041,"y":2562340.6900000032}},{"attributes":{"ID":97920,"DIS_CODE":0,"TOWNNAME":"佳里區","LI":"安西里","LIN":"56鄰","STREET":"佳安東路","SECT":" ","MAREA":" ","LANE":" ","ALLEY":" ","HOUSE_NO":"７０號","E_COORD97":163924.34,"N_COORD97":2562337.9900000002,"ADDRESS":"佳安東路７０號","OBJECTID":97920},"geometry":{"x":163924.34000000078,"y":2562337.9900000002}},{"attributes":{"ID":97921,"DIS_CODE":0,"TOWNNAME":"佳里區","LI":"安西里","LIN":"56鄰","STREET":"佳安東路","SECT":" ","MAREA":" ","LANE":" ","ALLEY":" ","HOUSE_NO":"７６號","E_COORD97":163941.29999999999,"N_COORD97":2562338.48,"ADDRESS":"佳安東路７６號","OBJECTID":97921},"geometry":{"x":163941.30000000075,"y":2562338.4800000004}},{"attributes":{"ID":97922,"DIS_CODE":0,"TOWNNAME":"佳里區","LI":"安西里","LIN":"56鄰","STREET":"佳安東路","SECT":" ","MAREA":" ","LANE":" ","ALLEY":" ","HOUSE_NO":"７８號","E_COORD97":163947.07999999999,"N_COORD97":2562338.23,"ADDRESS":"佳安東路７８號","OBJECTID":97922},"geometry":{"x":163947.08000000007,"y":2562338.2300000042}},{"attributes":{"ID":97923,"DIS_CODE":0,"TOWNNAME":"佳里區","LI":"安西里","LIN":"56鄰","STREET":"佳安東路","SECT":" ","MAREA":" ","LANE":" ","ALLEY":" ","HOUSE_NO":"８０號","E_COORD97":164023.03,"N_COORD97":2562327.77,"ADDRESS":"佳安東路８０號","OBJECTID":97923},"geometry":{"x":164023.03000000119,"y":2562327.7700000014}},{"attributes":{"ID":97924,"DIS_CODE":0,"TOWNNAME":"北區","LI":"大和里","LIN":"21鄰","STREET":"大港街","SECT":" ","MAREA":" ","LANE":"３８巷","ALLEY":"１５弄","HOUSE_NO":"４２號之１","E_COORD97":167044.60999999999,"N_COORD97":2546109.5,"ADDRESS":"大港街３８巷１５弄４２號之１","OBJECTID":97924},"geometry":{"x":167044.61000000034,"y":2546109.5000000037}},{"attributes":{"ID":97925,"DIS_CODE":0,"TOWNNAME":"北區","LI":"大和里","LIN":"21鄰","STREET":"大港街","SECT":" ","MAREA":" ","LANE":"３８巷","ALLEY":"１５弄","HOUSE_NO":"４６號","E_COORD97":167040.04999999999,"N_COORD97":2546110.02,"ADDRESS":"大港街３８巷１５弄４６號","OBJECTID":97925},"geometry":{"x":167040.05000000075,"y":2546110.0200000014}},{"attributes":{"ID":97926,"DIS_CODE":0,"TOWNNAME":"北區","LI":"大和里","LIN":"21鄰","STREET":"大港街","SECT":" ","MAREA":" ","LANE":"３８巷","ALLEY":"１５弄","HOUSE_NO":"４８號","E_COORD97":167035.42999999999,"N_COORD97":2546107.4199999999,"ADDRESS":"大港街３８巷１５弄４８號","OBJECTID":97926},"geometry":{"x":167035.43000000156,"y":2546107.4200000018}},{"attributes":{"ID":97927,"DIS_CODE":0,"TOWNNAME":"北區","LI":"大和里","LIN":"21鄰","STREET":"大港街","SECT":" ","MAREA":" ","LANE":"３８巷","ALLEY":"１５弄","HOUSE_NO":"５號","E_COORD97":167131.54999999999,"N_COORD97":2546107.9300000002,"ADDRESS":"大港街３８巷１５弄５號","OBJECTID":97927},"geometry":{"x":167131.55000000075,"y":2546107.9299999997}},{"attributes":{"ID":97928,"DIS_CODE":0,"TOWNNAME":"北區","LI":"大和里","LIN":"21鄰","STREET":"大港街","SECT":" ","MAREA":" ","LANE":"３８巷","ALLEY":"１５弄","HOUSE_NO":"６號","E_COORD97":167130.51999999999,"N_COORD97":2546138.4700000002,"ADDRESS":"大港街３８巷１５弄６號","OBJECTID":97928},"geometry":{"x":167130.51999999955,"y":2546138.4700000025}},{"attributes":{"ID":97929,"DIS_CODE":0,"TOWNNAME":"北區","LI":"大和里","LIN":"21鄰","STREET":"大港街","SECT":" ","MAREA":" ","LANE":"３８巷","ALLEY":"１５弄","HOUSE_NO":"７號","E_COORD97":167130.17999999999,"N_COORD97":2546112.0499999998,"ADDRESS":"大港街３８巷１５弄７號","OBJECTID":97929},"geometry":{"x":167130.18000000156,"y":2546112.0500000007}},{"attributes":{"ID":97930,"DIS_CODE":0,"TOWNNAME":"北區","LI":"大和里","LIN":"21鄰","STREET":"大港街","SECT":" ","MAREA":" ","LANE":"３８巷","ALLEY":"１５弄","HOUSE_NO":"８號","E_COORD97":167126.60999999999,"N_COORD97":2546136.8500000001,"ADDRESS":"大港街３８巷１５弄８號","OBJECTID":97930},"geometry":{"x":167126.61000000127,"y":2546136.8499999978}},{"attributes":{"ID":97931,"DIS_CODE":0,"TOWNNAME":"北區","LI":"大和里","LIN":"21鄰","STREET":"大港街","SECT":" ","MAREA":" ","LANE":"３８巷","ALLEY":"１５弄","HOUSE_NO":"９號","E_COORD97":167128.88,"N_COORD97":2546116.8599999999,"ADDRESS":"大港街３８巷１５弄９號","OBJECTID":97931},"geometry":{"x":167128.87999999989,"y":2546116.8600000013}},{"attributes":{"ID":97932,"DIS_CODE":0,"TOWNNAME":"新營區","LI":"南紙里","LIN":"21鄰","STREET":"建業路","SECT":" ","MAREA":" ","LANE":"２２７巷","ALLEY":"１６弄","HOUSE_NO":"２號","E_COORD97":178104.91,"N_COORD97":2577427.8199999998,"ADDRESS":"建業路２２７巷１６弄２號","OBJECTID":97932},"geometry":{"x":178104.91000000015,"y":2577427.820000004}},{"attributes":{"ID":97933,"DIS_CODE":0,"TOWNNAME":"安平區","LI":"平通里","LIN":"21鄰","STREET":"育平九街","SECT":" ","MAREA":" ","LANE":"３７２巷","ALLEY":"１６５弄","HOUSE_NO":"２之１號","E_COORD97":164585.59,"N_COORD97":2544160.1400000001,"ADDRESS":"育平九街３７２巷１６５弄２之１號","OBJECTID":97933},"geometry":{"x":164585.59000000078,"y":2544160.1400000025}},{"attributes":{"ID":97934,"DIS_CODE":0,"TOWNNAME":"安平區","LI":"平安里","LIN":"21鄰","STREET":"民權路","SECT":"四段","MAREA":" ","LANE":"３９１巷","ALLEY":"１弄","HOUSE_NO":"２號","E_COORD97":165428.22,"N_COORD97":2544407.0699999998,"ADDRESS":"民權路四段３９１巷１弄２號","OBJECTID":97934},"geometry":{"x":165428.22000000067,"y":2544407.070000004}},{"attributes":{"ID":97935,"DIS_CODE":0,"TOWNNAME":"安平區","LI":"平安里","LIN":"21鄰","STREET":"民權路","SECT":"四段","MAREA":" ","LANE":"３９１巷","ALLEY":"１弄","HOUSE_NO":"６號","E_COORD97":165432.98000000001,"N_COORD97":2544406.5899999999,"ADDRESS":"民權路四段３９１巷１弄６號","OBJECTID":97935},"geometry":{"x":165432.98000000045,"y":2544406.5900000036}},{"attributes":{"ID":97936,"DIS_CODE":0,"TOWNNAME":"安平區","LI":"平安里","LIN":"21鄰","STREET":"民權路","SECT":"四段","MAREA":" ","LANE":"３９１巷","ALLEY":"１弄","HOUSE_NO":"８號","E_COORD97":165437.10999999999,"N_COORD97":2544406.5899999999,"ADDRESS":"民權路四段３９１巷１弄８號","OBJECTID":97936},"geometry":{"x":165437.11000000034,"y":2544406.5900000036}},{"attributes":{"ID":97937,"DIS_CODE":0,"TOWNNAME":"安平區","LI":"平安里","LIN":"21鄰","STREET":"民權路","SECT":"四段","MAREA":" ","LANE":"３９１巷","ALLEY":"１弄","HOUSE_NO":"１０號","E_COORD97":165441.87,"N_COORD97":2544406.5899999999,"ADDRESS":"民權路四段３９１巷１弄１０號","OBJECTID":97937},"geometry":{"x":165441.87000000011,"y":2544406.5900000036}},{"attributes":{"ID":97938,"DIS_CODE":0,"TOWNNAME":"安平區","LI":"平安里","LIN":"21鄰","STREET":"民權路","SECT":"四段","MAREA":" ","LANE":"３９１巷","ALLEY":"１弄","HOUSE_NO":"１２號","E_COORD97":165446.79000000001,"N_COORD97":2544406.75,"ADDRESS":"民權路四段３９１巷１弄１２號","OBJECTID":97938},"geometry":{"x":165446.79000000097,"y":2544406.7500000019}},{"attributes":{"ID":97939,"DIS_CODE":0,"TOWNNAME":"安平區","LI":"平安里","LIN":"21鄰","STREET":"民權路","SECT":"四段","MAREA":" ","LANE":"３９１巷","ALLEY":"１弄","HOUSE_NO":"１６號","E_COORD97":165451.54999999999,"N_COORD97":2544406.5899999999,"ADDRESS":"民權路四段３９１巷１弄１６號","OBJECTID":97939},"geometry":{"x":165451.55000000075,"y":2544406.5900000036}},{"attributes":{"ID":97940,"DIS_CODE":0,"TOWNNAME":"安平區","LI":"平安里","LIN":"21鄰","STREET":"民權路","SECT":"四段","MAREA":" ","LANE":"３９１巷","ALLEY":"１弄","HOUSE_NO":"１８號","E_COORD97":165455.67999999999,"N_COORD97":2544406.75,"ADDRESS":"民權路四段３９１巷１弄１８號","OBJECTID":97940},"geometry":{"x":165455.68000000063,"y":2544406.7500000019}},{"attributes":{"ID":97941,"DIS_CODE":0,"TOWNNAME":"安平區","LI":"平安里","LIN":"21鄰","STREET":"民權路","SECT":"四段","MAREA":" ","LANE":"３９１巷","ALLEY":"１弄","HOUSE_NO":"２０號","E_COORD97":165461.07999999999,"N_COORD97":2544406.1200000001,"ADDRESS":"民權路四段３９１巷１弄２０號","OBJECTID":97941},"geometry":{"x":165461.08000000007,"y":2544406.120000001}},{"attributes":{"ID":97942,"DIS_CODE":0,"TOWNNAME":"安平區","LI":"平安里","LIN":"21鄰","STREET":"民權路","SECT":"四段","MAREA":" ","LANE":"３９１巷","ALLEY":"１弄","HOUSE_NO":"２２號","E_COORD97":165465.51999999999,"N_COORD97":2544405.96,"ADDRESS":"民權路四段３９１巷１弄２２號","OBJECTID":97942},"geometry":{"x":165465.52000000048,"y":2544405.9600000028}},{"attributes":{"ID":97943,"DIS_CODE":0,"TOWNNAME":"安平區","LI":"平通里","LIN":"21鄰","STREET":"育平九街","SECT":" ","MAREA":" ","LANE":"３７２巷","ALLEY":"１６５弄","HOUSE_NO":"２號","E_COORD97":164584.14000000001,"N_COORD97":2544157.0299999998,"ADDRESS":"育平九街３７２巷１６５弄２號","OBJECTID":97943},"geometry":{"x":164584.13999999966,"y":2544157.0300000012}},{"attributes":{"ID":97944,"DIS_CODE":0,"TOWNNAME":"南區","LI":"大恩里","LIN":"21鄰","STREET":"國民路","SECT":" ","MAREA":" ","LANE":"１５８巷","ALLEY":"５弄","HOUSE_NO":"１１號","E_COORD97":169172.47,"N_COORD97":2540937.6000000001,"ADDRESS":"國民路１５８巷５弄１１號","OBJECTID":97944},"geometry":{"x":169172.46999999974,"y":2540937.5999999996}},{"attributes":{"ID":97945,"DIS_CODE":0,"TOWNNAME":"仁德區","LI":"仁愛里","LIN":"28鄰","STREET":"機場路","SECT":" ","MAREA":" ","LANE":" ","ALLEY":" ","HOUSE_NO":"１２１２號","E_COORD97":169695.01999999999,"N_COORD97":2539125.25,"ADDRESS":"機場路１２１２號","OBJECTID":97945},"geometry":{"x":169695.02000000048,"y":2539125.25}},{"attributes":{"ID":97946,"DIS_CODE":0,"TOWNNAME":"永康區","LI":"永康里","LIN":"1鄰","STREET":"埔聖街","SECT":" ","MAREA":" ","LANE":" ","ALLEY":" ","HOUSE_NO":"７２號","E_COORD97":173946.17999999999,"N_COORD97":2547562.25,"ADDRESS":"埔聖街７２號","OBJECTID":97946},"geometry":{"x":173946.1799999997,"y":2547562.2500000037}},{"attributes":{"ID":97947,"DIS_CODE":0,"TOWNNAME":"龍崎區","LI":"牛埔里","LIN":"1鄰","STREET":" ","SECT":" ","MAREA":"牛埔","LANE":" ","ALLEY":" ","HOUSE_NO":"８號","E_COORD97":189828.82000000001,"N_COORD97":2537273.25,"ADDRESS":"牛埔８號","OBJECTID":97947},"geometry":{"x":189828.82000000123,"y":2537273.2500000019}},{"attributes":{"ID":97948,"DIS_CODE":0,"TOWNNAME":"安定區","LI":"南安里","LIN":"1鄰","STREET":" ","SECT":" ","MAREA":"油車","LANE":" ","ALLEY":" ","HOUSE_NO":"６號之１２","E_COORD97":170802.44,"N_COORD97":2555965.2999999998,"ADDRESS":"油車６之１２號","OBJECTID":97948},"geometry":{"x":170802.44000000041,"y":2555965.3000000026}},{"attributes":{"ID":97949,"DIS_CODE":0,"TOWNNAME":"將軍區","LI":"保源里","LIN":"10鄰","STREET":" ","SECT":" ","MAREA":"苓保","LANE":" ","ALLEY":" ","HOUSE_NO":"１１１之１０號","E_COORD97":164185.73999999999,"N_COORD97":2568733.1299999999,"ADDRESS":"苓保１１１之１０號","OBJECTID":97949},"geometry":{"x":164185.73999999929,"y":2568733.129999999}},{"attributes":{"ID":97950,"DIS_CODE":0,"TOWNNAME":"將軍區","LI":"保源里","LIN":"10鄰","STREET":" ","SECT":" ","MAREA":"苓保","LANE":" ","ALLEY":" ","HOUSE_NO":"１１１之６號","E_COORD97":164150.87,"N_COORD97":2568725.0499999998,"ADDRESS":"苓保１１１之６號","OBJECTID":97950},"geometry":{"x":164150.87000000197,"y":2568725.0500000026}},{"attributes":{"ID":97951,"DIS_CODE":0,"TOWNNAME":"永康區","LI":"永康里","LIN":"1鄰","STREET":"埔聖街","SECT":" ","MAREA":" ","LANE":" ","ALLEY":" ","HOUSE_NO":"７８號","E_COORD97":173959.01999999999,"N_COORD97":2547560.71,"ADDRESS":"埔聖街７８號","OBJECTID":97951},"geometry":{"x":173959.01999999955,"y":2547560.7100000028}},{"attributes":{"ID":97952,"DIS_CODE":0,"TOWNNAME":"學甲區","LI":"仁得里","LIN":"1鄰","STREET":"公園街","SECT":" ","MAREA":" ","LANE":" ","ALLEY":" ","HOUSE_NO":"１號","E_COORD97":166302.67999999999,"N_COORD97":2569640.4199999999,"ADDRESS":"公園街１號","OBJECTID":97952},"geometry":{"x":166302.6799999997,"y":2569640.4200000018}},{"attributes":{"ID":97953,"DIS_CODE":0,"TOWNNAME":"東區","LI":"路東里","LIN":"1鄰","STREET":"大同路","SECT":"二段","MAREA":" ","LANE":" ","ALLEY":" ","HOUSE_NO":"６３號","E_COORD97":169321.76000000001,"N_COORD97":2542223.9399999999,"ADDRESS":"大同路二段６３號","OBJECTID":97953},"geometry":{"x":169321.76000000164,"y":2542223.9400000032}},{"attributes":{"ID":97954,"DIS_CODE":0,"TOWNNAME":"東區","LI":"路東里","LIN":"1鄰","STREET":"大同路","SECT":"二段","MAREA":" ","LANE":" ","ALLEY":" ","HOUSE_NO":"６３號地下三層","E_COORD97":169325.60000000001,"N_COORD97":2542231.3199999998,"ADDRESS":"大同路二段６３號地下三層","OBJECTID":97954},"geometry":{"x":169325.59999999963,"y":2542231.3200000003}},{"attributes":{"ID":97955,"DIS_CODE":0,"TOWNNAME":"新營區","LI":"鐵線里","LIN":"1鄰","STREET":" ","SECT":" ","MAREA":"鐵線橋","LANE":" ","ALLEY":" ","HOUSE_NO":"６之５號","E_COORD97":176025.91,"N_COORD97":2573991.71,"ADDRESS":"鐵線橋６之５號","OBJECTID":97955},"geometry":{"x":176025.91000000108,"y":2573991.7100000028}},{"attributes":{"ID":97956,"DIS_CODE":0,"TOWNNAME":"將軍區","LI":"保源里","LIN":"10鄰","STREET":" ","SECT":" ","MAREA":"苓保","LANE":" ","ALLEY":" ","HOUSE_NO":"１１１號","E_COORD97":164120.22,"N_COORD97":2568690.0800000001,"ADDRESS":"苓保１１１號","OBJECTID":97956},"geometry":{"x":164120.21999999974,"y":2568690.0800000019}},{"attributes":{"ID":97957,"DIS_CODE":0,"TOWNNAME":"將軍區","LI":"保源里","LIN":"10鄰","STREET":" ","SECT":" ","MAREA":"苓保","LANE":" ","ALLEY":" ","HOUSE_NO":"９２號","E_COORD97":164459.12,"N_COORD97":2568643.5800000001,"ADDRESS":"苓保９２號","OBJECTID":97957},"geometry":{"x":164459.12000000011,"y":2568643.5800000001}},{"attributes":{"ID":97958,"DIS_CODE":0,"TOWNNAME":"將軍區","LI":"保源里","LIN":"10鄰","STREET":" ","SECT":" ","MAREA":"苓保","LANE":" ","ALLEY":" ","HOUSE_NO":"９３號","E_COORD97":164478.19,"N_COORD97":2568658.48,"ADDRESS":"苓保９３號","OBJECTID":97958},"geometry":{"x":164478.19000000134,"y":2568658.4800000004}},{"attributes":{"ID":97959,"DIS_CODE":0,"TOWNNAME":"將軍區","LI":"保源里","LIN":"10鄰","STREET":" ","SECT":" ","MAREA":"苓保","LANE":" ","ALLEY":" ","HOUSE_NO":"９４號","E_COORD97":164478.19,"N_COORD97":2568677.4500000002,"ADDRESS":"苓保９４號","OBJECTID":97959},"geometry":{"x":164478.19000000134,"y":2568677.4499999993}},{"attributes":{"ID":97960,"DIS_CODE":0,"TOWNNAME":"將軍區","LI":"保源里","LIN":"10鄰","STREET":" ","SECT":" ","MAREA":"苓保","LANE":" ","ALLEY":" ","HOUSE_NO":"９５號","E_COORD97":164465.53,"N_COORD97":2568696.6699999999,"ADDRESS":"苓保９５號","OBJECTID":97960},"geometry":{"x":164465.53000000119,"y":2568696.6699999999}},{"attributes":{"ID":97961,"DIS_CODE":0,"TOWNNAME":"將軍區","LI":"保源里","LIN":"10鄰","STREET":" ","SECT":" ","MAREA":"苓保","LANE":" ","ALLEY":" ","HOUSE_NO":"９６號","E_COORD97":164494.23999999999,"N_COORD97":2568695.1200000001,"ADDRESS":"苓保９６號","OBJECTID":97961},"geometry":{"x":164494.23999999929,"y":2568695.120000001}},{"attributes":{"ID":97962,"DIS_CODE":0,"TOWNNAME":"將軍區","LI":"保源里","LIN":"10鄰","STREET":" ","SECT":" ","MAREA":"苓保","LANE":" ","ALLEY":" ","HOUSE_NO":"９７號","E_COORD97":164504.38,"N_COORD97":2568737.4100000001,"ADDRESS":"苓保９７之１號","OBJECTID":97962},"geometry":{"x":164504.37999999989,"y":2568737.4100000039}},{"attributes":{"ID":97963,"DIS_CODE":0,"TOWNNAME":"將軍區","LI":"保源里","LIN":"10鄰","STREET":" ","SECT":" ","MAREA":"苓保","LANE":" ","ALLEY":" ","HOUSE_NO":"９８之１號","E_COORD97":164502.04999999999,"N_COORD97":2568744.1000000001,"ADDRESS":"苓保９８之１號","OBJECTID":97963},"geometry":{"x":164502.05000000168,"y":2568744.1000000015}},{"attributes":{"ID":97964,"DIS_CODE":0,"TOWNNAME":"將軍區","LI":"保源里","LIN":"10鄰","STREET":" ","SECT":" ","MAREA":"苓保","LANE":" ","ALLEY":" ","HOUSE_NO":"９８之２號","E_COORD97":164501.07000000001,"N_COORD97":2568747.5600000001,"ADDRESS":"苓保９８之２號","OBJECTID":97964},"geometry":{"x":164501.07000000123,"y":2568747.5600000024}},{"attributes":{"ID":97965,"DIS_CODE":0,"TOWNNAME":"將軍區","LI":"保源里","LIN":"10鄰","STREET":" ","SECT":" ","MAREA":"苓保","LANE":" ","ALLEY":" ","HOUSE_NO":"９８之３號","E_COORD97":164500.59,"N_COORD97":2568751.6800000002,"ADDRESS":"苓保９８之３號","OBJECTID":97965},"geometry":{"x":164500.59000000078,"y":2568751.6799999997}},{"attributes":{"ID":97966,"DIS_CODE":0,"TOWNNAME":"將軍區","LI":"保源里","LIN":"10鄰","STREET":" ","SECT":" ","MAREA":"苓保","LANE":" ","ALLEY":" ","HOUSE_NO":"９８之４號","E_COORD97":164500.12,"N_COORD97":2568754.8500000001,"ADDRESS":"苓保９８之４號","OBJECTID":97966},"geometry":{"x":164500.12000000197,"y":2568754.8500000015}},{"attributes":{"ID":97967,"DIS_CODE":0,"TOWNNAME":"將軍區","LI":"保源里","LIN":"10鄰","STREET":" ","SECT":" ","MAREA":"苓保","LANE":" ","ALLEY":" ","HOUSE_NO":"９８之７號","E_COORD97":164483.14999999999,"N_COORD97":2568753.79,"ADDRESS":"苓保９８之７號","OBJECTID":97967},"geometry":{"x":164483.14999999944,"y":2568753.7899999991}},{"attributes":{"ID":97968,"DIS_CODE":0,"TOWNNAME":"將軍區","LI":"將貴里","LIN":"10鄰","STREET":" ","SECT":" ","MAREA":"將貴","LANE":" ","ALLEY":" ","HOUSE_NO":"１００號","E_COORD97":162019.13,"N_COORD97":2567453.2400000002,"ADDRESS":"將貴１００號","OBJECTID":97968},"geometry":{"x":162019.12999999989,"y":2567453.2400000002}},{"attributes":{"ID":97969,"DIS_CODE":0,"TOWNNAME":"將軍區","LI":"將貴里","LIN":"10鄰","STREET":" ","SECT":" ","MAREA":"將貴","LANE":" ","ALLEY":" ","HOUSE_NO":"１０１號","E_COORD97":162072.57000000001,"N_COORD97":2567471.9199999999,"ADDRESS":"將貴１０１號","OBJECTID":97969},"geometry":{"x":162072.5700000003,"y":2567471.9199999999}},{"attributes":{"ID":97970,"DIS_CODE":0,"TOWNNAME":"將軍區","LI":"將貴里","LIN":"10鄰","STREET":" ","SECT":" ","MAREA":"將貴","LANE":" ","ALLEY":" ","HOUSE_NO":"９３號","E_COORD97":162067.89000000001,"N_COORD97":2567313.7400000002,"ADDRESS":"將貴９３號","OBJECTID":97970},"geometry":{"x":162067.88999999966,"y":2567313.7400000002}},{"attributes":{"ID":97971,"DIS_CODE":0,"TOWNNAME":"將軍區","LI":"將貴里","LIN":"10鄰","STREET":" ","SECT":" ","MAREA":"將貴","LANE":" ","ALLEY":" ","HOUSE_NO":"９４之１號","E_COORD97":162032.69,"N_COORD97":2567313.0299999998,"ADDRESS":"將貴９４之１號","OBJECTID":97971},"geometry":{"x":162032.69000000041,"y":2567313.0300000012}},{"attributes":{"ID":97972,"DIS_CODE":0,"TOWNNAME":"將軍區","LI":"將貴里","LIN":"10鄰","STREET":" ","SECT":" ","MAREA":"將貴","LANE":" ","ALLEY":" ","HOUSE_NO":"９６號","E_COORD97":162018.16,"N_COORD97":2567325.9700000002,"ADDRESS":"將貴９６號","OBJECTID":97972},"geometry":{"x":162018.16000000201,"y":2567325.9700000007}},{"attributes":{"ID":97973,"DIS_CODE":0,"TOWNNAME":"將軍區","LI":"將貴里","LIN":"10鄰","STREET":" ","SECT":" ","MAREA":"將貴","LANE":" ","ALLEY":" ","HOUSE_NO":"９７號","E_COORD97":161962.79999999999,"N_COORD97":2567449.96,"ADDRESS":"將貴９７號","OBJECTID":97973},"geometry":{"x":161962.80000000075,"y":2567449.9600000028}},{"attributes":{"ID":97974,"DIS_CODE":0,"TOWNNAME":"將軍區","LI":"將貴里","LIN":"10鄰","STREET":" ","SECT":" ","MAREA":"將貴","LANE":" ","ALLEY":" ","HOUSE_NO":"９８號","E_COORD97":161978.95000000001,"N_COORD97":2567467.1099999999,"ADDRESS":"將貴９８號","OBJECTID":97974},"geometry":{"x":161978.95000000205,"y":2567467.1099999975}},{"attributes":{"ID":97975,"DIS_CODE":0,"TOWNNAME":"將軍區","LI":"將貴里","LIN":"10鄰","STREET":" ","SECT":" ","MAREA":"將貴","LANE":" ","ALLEY":" ","HOUSE_NO":"９９號","E_COORD97":162004.22,"N_COORD97":2567468.9199999999,"ADDRESS":"將貴９９號","OBJECTID":97975},"geometry":{"x":162004.22000000067,"y":2567468.9199999981}},{"attributes":{"ID":97976,"DIS_CODE":0,"TOWNNAME":"將軍區","LI":"將富里","LIN":"10鄰","STREET":" ","SECT":" ","MAREA":"將榮","LANE":" ","ALLEY":" ","HOUSE_NO":"５２之１５號","E_COORD97":162062.01999999999,"N_COORD97":2568626.0899999999,"ADDRESS":"將榮５２之１５號","OBJECTID":97976},"geometry":{"x":162062.01999999955,"y":2568626.0899999999}},{"attributes":{"ID":97977,"DIS_CODE":0,"TOWNNAME":"將軍區","LI":"將富里","LIN":"10鄰","STREET":" ","SECT":" ","MAREA":"將榮","LANE":" ","ALLEY":" ","HOUSE_NO":"５２之１６號","E_COORD97":162060.76999999999,"N_COORD97":2568631.21,"ADDRESS":"將榮５２之１６號","OBJECTID":97977},"geometry":{"x":162060.76999999862,"y":2568631.2100000046}},{"attributes":{"ID":97978,"DIS_CODE":0,"TOWNNAME":"南區","LI":"大恩里","LIN":"21鄰","STREET":"國民路","SECT":" ","MAREA":" ","LANE":"１５８巷","ALLEY":"５弄","HOUSE_NO":"１３號","E_COORD97":169168.28,"N_COORD97":2540938.6800000002,"ADDRESS":"國民路１５８巷５弄１３號","OBJECTID":97978},"geometry":{"x":169168.28000000119,"y":2540938.6800000016}},{"attributes":{"ID":97979,"DIS_CODE":0,"TOWNNAME":"將軍區","LI":"將富里","LIN":"10鄰","STREET":" ","SECT":" ","MAREA":"將榮","LANE":" ","ALLEY":" ","HOUSE_NO":"５２之１號","E_COORD97":162066.87,"N_COORD97":2568606.1400000001,"ADDRESS":"將榮５２之１號","OBJECTID":97979},"geometry":{"x":162066.87000000011,"y":2568606.1400000006}},{"attributes":{"ID":97980,"DIS_CODE":0,"TOWNNAME":"將軍區","LI":"將富里","LIN":"10鄰","STREET":" ","SECT":" ","MAREA":"將榮","LANE":" ","ALLEY":" ","HOUSE_NO":"５２之２號","E_COORD97":162070.95000000001,"N_COORD97":2568606.5899999999,"ADDRESS":"將榮５２之２號","OBJECTID":97980},"geometry":{"x":162070.95000000112,"y":2568606.5899999999}},{"attributes":{"ID":97981,"DIS_CODE":0,"TOWNNAME":"南區","LI":"大恩里","LIN":"21鄰","STREET":"國民路","SECT":" ","MAREA":" ","LANE":"１５８巷","ALLEY":"５弄","HOUSE_NO":"１號","E_COORD97":169197.06,"N_COORD97":2540931.0600000001,"ADDRESS":"國民路１５８巷５弄１號","OBJECTID":97981},"geometry":{"x":169197.05999999959,"y":2540931.0600000005}},{"attributes":{"ID":97982,"DIS_CODE":0,"TOWNNAME":"南區","LI":"大恩里","LIN":"21鄰","STREET":"國民路","SECT":" ","MAREA":" ","LANE":"１５８巷","ALLEY":"５弄","HOUSE_NO":"３號","E_COORD97":169190.19,"N_COORD97":2540932.5600000001,"ADDRESS":"國民路１５８巷５弄３號","OBJECTID":97982},"geometry":{"x":169190.19000000041,"y":2540932.5600000042}},{"attributes":{"ID":97983,"DIS_CODE":0,"TOWNNAME":"南區","LI":"大恩里","LIN":"21鄰","STREET":"國民路","SECT":" ","MAREA":" ","LANE":"１５８巷","ALLEY":"５弄","HOUSE_NO":"５號","E_COORD97":169186,"N_COORD97":2540934.2799999998,"ADDRESS":"國民路１５８巷５弄５號","OBJECTID":97983},"geometry":{"x":169186,"y":2540934.2800000012}},{"attributes":{"ID":97984,"DIS_CODE":0,"TOWNNAME":"南區","LI":"大恩里","LIN":"21鄰","STREET":"國民路","SECT":" ","MAREA":" ","LANE":"１５８巷","ALLEY":"５弄","HOUSE_NO":"７號","E_COORD97":169181.38,"N_COORD97":2540935.2400000002,"ADDRESS":"國民路１５８巷５弄７號","OBJECTID":97984},"geometry":{"x":169181.37999999989,"y":2540935.2400000021}},{"attributes":{"ID":97985,"DIS_CODE":0,"TOWNNAME":"南區","LI":"大恩里","LIN":"21鄰","STREET":"國民路","SECT":" ","MAREA":" ","LANE":"１５８巷","ALLEY":"５弄","HOUSE_NO":"９號","E_COORD97":169177.19,"N_COORD97":2540936.3199999998,"ADDRESS":"國民路１５８巷５弄９號","OBJECTID":97985},"geometry":{"x":169177.19000000134,"y":2540936.3200000003}},{"attributes":{"ID":97986,"DIS_CODE":0,"TOWNNAME":"南區","LI":"大恩里","LIN":"21鄰","STREET":"國民路","SECT":" ","MAREA":" ","LANE":"１７６巷","ALLEY":"５弄","HOUSE_NO":"１７號","E_COORD97":169126.82999999999,"N_COORD97":2540957.96,"ADDRESS":"國民路１７６巷５弄１７號","OBJECTID":97986},"geometry":{"x":169126.83000000101,"y":2540957.9600000028}},{"attributes":{"ID":97987,"DIS_CODE":0,"TOWNNAME":"南區","LI":"大恩里","LIN":"21鄰","STREET":"國民路","SECT":" ","MAREA":" ","LANE":"１７６巷","ALLEY":"５弄","HOUSE_NO":"１號","E_COORD97":169158.51000000001,"N_COORD97":2540942.3300000001,"ADDRESS":"國民路１７６巷５弄１號","OBJECTID":97987},"geometry":{"x":169158.50999999978,"y":2540942.3300000001}},{"attributes":{"ID":97988,"DIS_CODE":0,"TOWNNAME":"將軍區","LI":"將富里","LIN":"10鄰","STREET":" ","SECT":" ","MAREA":"將榮","LANE":" ","ALLEY":" ","HOUSE_NO":"５３之１號","E_COORD97":162039.67999999999,"N_COORD97":2568630.4500000002,"ADDRESS":"將榮５３之１號","OBJECTID":97988},"geometry":{"x":162039.68000000156,"y":2568630.4499999993}},{"attributes":{"ID":97989,"DIS_CODE":0,"TOWNNAME":"南區","LI":"大恩里","LIN":"21鄰","STREET":"國民路","SECT":" ","MAREA":" ","LANE":"１７６巷","ALLEY":"５弄","HOUSE_NO":"３號","E_COORD97":169154.32000000001,"N_COORD97":2540943.3999999999,"ADDRESS":"國民路１７６巷５弄３號","OBJECTID":97989},"geometry":{"x":169154.32000000123,"y":2540943.4000000041}},{"attributes":{"ID":97990,"DIS_CODE":0,"TOWNNAME":"南區","LI":"大恩里","LIN":"21鄰","STREET":"國民路","SECT":" ","MAREA":" ","LANE":"１７６巷","ALLEY":"５弄","HOUSE_NO":"５號","E_COORD97":169149.92000000001,"N_COORD97":2540944.8999999999,"ADDRESS":"國民路１７６巷５弄５號","OBJECTID":97990},"geometry":{"x":169149.92000000086,"y":2540944.9000000022}},{"attributes":{"ID":97991,"DIS_CODE":0,"TOWNNAME":"南區","LI":"大恩里","LIN":"21鄰","STREET":"國民路","SECT":" ","MAREA":" ","LANE":"１７６巷","ALLEY":"５弄","HOUSE_NO":"７號","E_COORD97":169146.16,"N_COORD97":2540945.8700000001,"ADDRESS":"國民路１７６巷５弄７號","OBJECTID":97991},"geometry":{"x":169146.16000000015,"y":2540945.8700000029}},{"attributes":{"ID":97992,"DIS_CODE":0,"TOWNNAME":"南區","LI":"大恩里","LIN":"21鄰","STREET":"國民路","SECT":" ","MAREA":" ","LANE":"１７６巷","ALLEY":"５弄","HOUSE_NO":"９號","E_COORD97":169139.29000000001,"N_COORD97":2540949.9399999999,"ADDRESS":"國民路１７６巷５弄９號","OBJECTID":97992},"geometry":{"x":169139.29000000097,"y":2540949.9400000013}},{"attributes":{"ID":97993,"DIS_CODE":0,"TOWNNAME":"南區","LI":"府南里","LIN":"21鄰","STREET":"大成路","SECT":"二段","MAREA":" ","LANE":"１４３巷","ALLEY":"５弄","HOUSE_NO":"２號","E_COORD97":167320.14000000001,"N_COORD97":2541670.9100000001,"ADDRESS":"大成路二段１４３巷５弄２號","OBJECTID":97993},"geometry":{"x":167320.13999999966,"y":2541670.9100000001}},{"attributes":{"ID":97994,"DIS_CODE":0,"TOWNNAME":"南區","LI":"府南里","LIN":"21鄰","STREET":"大成路","SECT":"二段","MAREA":" ","LANE":"１４３巷","ALLEY":"５弄","HOUSE_NO":"２號之１","E_COORD97":167324.73999999999,"N_COORD97":2541670.0099999998,"ADDRESS":"大成路二段１４３巷５弄２號之１","OBJECTID":97994},"geometry":{"x":167324.74000000022,"y":2541670.0099999998}},{"attributes":{"ID":97995,"DIS_CODE":0,"TOWNNAME":"南區","LI":"府南里","LIN":"21鄰","STREET":"大成路","SECT":"二段","MAREA":" ","LANE":"１４３巷","ALLEY":"５弄","HOUSE_NO":"２號之２","E_COORD97":167332.5,"N_COORD97":2541666.54,"ADDRESS":"大成路二段１４３巷５弄２號之２","OBJECTID":97995},"geometry":{"x":167332.50000000093,"y":2541666.5399999972}},{"attributes":{"ID":97996,"DIS_CODE":0,"TOWNNAME":"南區","LI":"大忠里","LIN":"21鄰","STREET":"中華南路","SECT":"一段","MAREA":" ","LANE":"１２５巷","ALLEY":"２２弄","HOUSE_NO":"１０號","E_COORD97":169184.5,"N_COORD97":2541174.1699999999,"ADDRESS":"中華南路一段１２５巷２２弄１０號","OBJECTID":97996},"geometry":{"x":169184.5,"y":2541174.1699999999}},{"attributes":{"ID":97997,"DIS_CODE":0,"TOWNNAME":"南區","LI":"大忠里","LIN":"21鄰","STREET":"中華南路","SECT":"一段","MAREA":" ","LANE":"１２５巷","ALLEY":"２２弄","HOUSE_NO":"１１號","E_COORD97":169181.98999999999,"N_COORD97":2541154.1800000002,"ADDRESS":"中華南路一段１２５巷２２弄１１號","OBJECTID":97997},"geometry":{"x":169181.99000000115,"y":2541154.1799999978}},{"attributes":{"ID":97998,"DIS_CODE":0,"TOWNNAME":"新化區","LI":"全興里","LIN":"14鄰","STREET":" ","SECT":" ","MAREA":"竹子\u25A0","LANE":" ","ALLEY":" ","HOUSE_NO":"２４７號之３６５","E_COORD97":178229.89000000001,"N_COORD97":2546702.2599999998,"ADDRESS":"竹子\u25A0２４７號之３６５","OBJECTID":97998},"geometry":{"x":178229.88999999966,"y":2546702.2600000016}},{"attributes":{"ID":97999,"DIS_CODE":0,"TOWNNAME":"南區","LI":"大忠里","LIN":"21鄰","STREET":"中華南路","SECT":"一段","MAREA":" ","LANE":"１２５巷","ALLEY":"２２弄","HOUSE_NO":"１２號","E_COORD97":169179.79999999999,"N_COORD97":2541173.2200000002,"ADDRESS":"中華南路一段１２５巷２２弄１２號","OBJECTID":97999},"geometry":{"x":169179.80000000075,"y":2541173.2200000025}},{"attributes":{"ID":98000,"DIS_CODE":0,"TOWNNAME":"南區","LI":"大忠里","LIN":"21鄰","STREET":"中華南路","SECT":"一段","MAREA":" ","LANE":"１２５巷","ALLEY":"２２弄","HOUSE_NO":"１３號","E_COORD97":169177.29000000001,"N_COORD97":2541153.8599999999,"ADDRESS":"中華南路一段１２５巷２２弄１３號","OBJECTID":98000},"geometry":{"x":169177.29000000004,"y":2541153.8600000013}}]}