{"displayFieldName":"TOWNNAME","fieldAliases":{"ID":"ID","DIS_CODE":"DIS_CODE","TOWNNAME":"TOWNNAME","LI":"LI","LIN":"LIN","STREET":"STREET","SECT":"SECT","MAREA":"MAREA","LANE":"LANE","ALLEY":"ALLEY","HOUSE_NO":"HOUSE_NO","E_COORD97":"E_COORD97","N_COORD97":"N_COORD97","ADDRESS":"ADDRESS","OBJECTID":"OBJECTID"},"geometryType":"esriGeometryPoint","spatialReference":{"wkid":102443,"latestWkid":3826},"fields":[{"name":"ID","type":"esriFieldTypeDouble","alias":"ID"},{"name":"DIS_CODE","type":"esriFieldTypeInteger","alias":"DIS_CODE"},{"name":"TOWNNAME","type":"esriFieldTypeString","alias":"TOWNNAME","length":8},{"name":"LI","type":"esriFieldTypeString","alias":"LI","length":8},{"name":"LIN","type":"esriFieldTypeString","alias":"LIN","length":12},{"name":"STREET","type":"esriFieldTypeString","alias":"STREET","length":20},{"name":"SECT","type":"esriFieldTypeString","alias":"SECT","length":8},{"name":"MAREA","type":"esriFieldTypeString","alias":"MAREA","length":12},{"name":"LANE","type":"esriFieldTypeString","alias":"LANE","length":10},{"name":"ALLEY","type":"esriFieldTypeString","alias":"ALLEY","length":10},{"name":"HOUSE_NO","type":"esriFieldTypeString","alias":"HOUSE_NO","length":20},{"name":"E_COORD97","type":"esriFieldTypeDouble","alias":"E_COORD97"},{"name":"N_COORD97","type":"esriFieldTypeDouble","alias":"N_COORD97"},{"name":"ADDRESS","type":"esriFieldTypeString","alias":"ADDRESS","length":50},{"name":"OBJECTID","type":"esriFieldTypeOID","alias":"OBJECTID"}],"features":[{"attributes":{"ID":597628,"DIS_CODE":0,"TOWNNAME":"北區","LI":"正覺里","LIN":"27鄰","STREET":"公園路","SECT":" ","MAREA":" ","LANE":" ","ALLEY":" ","HOUSE_NO":"７５９號","E_COORD97":169592.22,"N_COORD97":2546501.1600000001,"ADDRESS":"公園路７５９號","OBJECTID":597601},"geometry":{"x":169592.22000000067,"y":2546501.1600000001}},{"attributes":{"ID":597629,"DIS_CODE":0,"TOWNNAME":"北區","LI":"正覺里","LIN":"27鄰","STREET":"公園路","SECT":" ","MAREA":" ","LANE":" ","ALLEY":" ","HOUSE_NO":"７５９號之１","E_COORD97":169592.97,"N_COORD97":2546506.3199999998,"ADDRESS":"公園路７５９號之１","OBJECTID":597602},"geometry":{"x":169592.96999999974,"y":2546506.3200000003}},{"attributes":{"ID":597630,"DIS_CODE":0,"TOWNNAME":"北區","LI":"正覺里","LIN":"27鄰","STREET":"公園路","SECT":" ","MAREA":" ","LANE":" ","ALLEY":" ","HOUSE_NO":"７５９號之２","E_COORD97":169595.04000000001,"N_COORD97":2546511.0299999998,"ADDRESS":"公園路７５９號之２","OBJECTID":597603},"geometry":{"x":169595.04000000097,"y":2546511.0299999993}},{"attributes":{"ID":597631,"DIS_CODE":0,"TOWNNAME":"北區","LI":"正覺里","LIN":"27鄰","STREET":"公園路","SECT":" ","MAREA":" ","LANE":" ","ALLEY":" ","HOUSE_NO":"７５９號之３","E_COORD97":169594.85000000001,"N_COORD97":2546514.6099999999,"ADDRESS":"公園路７５９號之３","OBJECTID":597604},"geometry":{"x":169594.84999999963,"y":2546514.6099999975}},{"attributes":{"ID":597632,"DIS_CODE":0,"TOWNNAME":"北區","LI":"正覺里","LIN":"27鄰","STREET":"公園路","SECT":" ","MAREA":" ","LANE":" ","ALLEY":" ","HOUSE_NO":"７６１號","E_COORD97":169596.45000000001,"N_COORD97":2546522.02,"ADDRESS":"公園路７６１號","OBJECTID":597605},"geometry":{"x":169596.45000000019,"y":2546522.0199999996}},{"attributes":{"ID":597633,"DIS_CODE":0,"TOWNNAME":"歸仁區","LI":"許厝里","LIN":"27鄰","STREET":"信義北路","SECT":" ","MAREA":" ","LANE":" ","ALLEY":" ","HOUSE_NO":"７號","E_COORD97":177981.25,"N_COORD97":2540775.04,"ADDRESS":"信義北路７號","OBJECTID":597606},"geometry":{"x":177981.25000000093,"y":2540775.0400000028}},{"attributes":{"ID":597634,"DIS_CODE":0,"TOWNNAME":"北區","LI":"正覺里","LIN":"27鄰","STREET":"公園路","SECT":" ","MAREA":" ","LANE":" ","ALLEY":" ","HOUSE_NO":"７６３號","E_COORD97":169597.39000000001,"N_COORD97":2546525.9900000002,"ADDRESS":"公園路７６３號","OBJECTID":597607},"geometry":{"x":169597.3900000006,"y":2546525.9900000002}},{"attributes":{"ID":597635,"DIS_CODE":0,"TOWNNAME":"北區","LI":"正覺里","LIN":"27鄰","STREET":"公園路","SECT":" ","MAREA":" ","LANE":" ","ALLEY":" ","HOUSE_NO":"７６３號之１","E_COORD97":169598.23999999999,"N_COORD97":2546530.6800000002,"ADDRESS":"公園路７６３號之１","OBJECTID":597608},"geometry":{"x":169598.24000000022,"y":2546530.6799999997}},{"attributes":{"ID":597636,"DIS_CODE":0,"TOWNNAME":"北區","LI":"正覺里","LIN":"27鄰","STREET":"公園路","SECT":" ","MAREA":" ","LANE":" ","ALLEY":" ","HOUSE_NO":"７６５號","E_COORD97":169598.51999999999,"N_COORD97":2546534.1499999999,"ADDRESS":"公園路７６５號","OBJECTID":597609},"geometry":{"x":169598.51999999955,"y":2546534.1500000022}},{"attributes":{"ID":597637,"DIS_CODE":0,"TOWNNAME":"北區","LI":"正覺里","LIN":"27鄰","STREET":"公園路","SECT":" ","MAREA":" ","LANE":" ","ALLEY":" ","HOUSE_NO":"７６７號","E_COORD97":169598.32999999999,"N_COORD97":2546536.8700000001,"ADDRESS":"公園路７６７號","OBJECTID":597610},"geometry":{"x":169598.33000000101,"y":2546536.870000001}},{"attributes":{"ID":597638,"DIS_CODE":0,"TOWNNAME":"北區","LI":"正覺里","LIN":"27鄰","STREET":"公園路","SECT":" ","MAREA":" ","LANE":" ","ALLEY":" ","HOUSE_NO":"７７１號","E_COORD97":169603.12,"N_COORD97":2546549.1200000001,"ADDRESS":"公園路７７１號","OBJECTID":597611},"geometry":{"x":169603.12000000104,"y":2546549.120000001}},{"attributes":{"ID":597639,"DIS_CODE":0,"TOWNNAME":"南區","LI":"金華里","LIN":"27鄰","STREET":"健康路","SECT":"二段","MAREA":" ","LANE":" ","ALLEY":" ","HOUSE_NO":"３６９號","E_COORD97":166678.60000000001,"N_COORD97":2542498.1099999999,"ADDRESS":"健康路二段３６９號","OBJECTID":597612},"geometry":{"x":166678.60000000056,"y":2542498.1100000013}},{"attributes":{"ID":597640,"DIS_CODE":0,"TOWNNAME":"安平區","LI":"平通里","LIN":"27鄰","STREET":"育平八街","SECT":" ","MAREA":" ","LANE":" ","ALLEY":" ","HOUSE_NO":"１０５號","E_COORD97":164344.84,"N_COORD97":2543891.48,"ADDRESS":"育平八街１０５號","OBJECTID":597613},"geometry":{"x":164344.84000000078,"y":2543891.4800000004}},{"attributes":{"ID":597641,"DIS_CODE":0,"TOWNNAME":"新營區","LI":"民榮里","LIN":"27鄰","STREET":"復興路","SECT":" ","MAREA":" ","LANE":" ","ALLEY":" ","HOUSE_NO":"３６１號","E_COORD97":178457.84,"N_COORD97":2578181.3999999999,"ADDRESS":"復興路３６１號","OBJECTID":597614},"geometry":{"x":178457.83999999985,"y":2578181.4000000022}},{"attributes":{"ID":597642,"DIS_CODE":0,"TOWNNAME":"新營區","LI":"民榮里","LIN":"27鄰","STREET":"復興路","SECT":" ","MAREA":" ","LANE":" ","ALLEY":" ","HOUSE_NO":"４０１號","E_COORD97":178324.04000000001,"N_COORD97":2578225.25,"ADDRESS":"復興路４０１號","OBJECTID":597615},"geometry":{"x":178324.04000000004,"y":2578225.2500000019}},{"attributes":{"ID":597643,"DIS_CODE":0,"TOWNNAME":"新營區","LI":"民榮里","LIN":"27鄰","STREET":"復興路","SECT":" ","MAREA":" ","LANE":" ","ALLEY":" ","HOUSE_NO":"３６３號","E_COORD97":178446.62,"N_COORD97":2578188.1000000001,"ADDRESS":"復興路３６３號","OBJECTID":597616},"geometry":{"x":178446.62000000104,"y":2578188.1000000034}},{"attributes":{"ID":597644,"DIS_CODE":0,"TOWNNAME":"新營區","LI":"南紙里","LIN":"27鄰","STREET":"復興路","SECT":" ","MAREA":" ","LANE":" ","ALLEY":" ","HOUSE_NO":"７０９之１號","E_COORD97":177709.35999999999,"N_COORD97":2578365.6200000001,"ADDRESS":"復興路７０９之１號","OBJECTID":597617},"geometry":{"x":177709.3600000022,"y":2578365.6200000048}},{"attributes":{"ID":597645,"DIS_CODE":0,"TOWNNAME":"新營區","LI":"民生里","LIN":"27鄰","STREET":"進修街","SECT":" ","MAREA":" ","LANE":" ","ALLEY":" ","HOUSE_NO":"３１之６號","E_COORD97":178935.29000000001,"N_COORD97":2578510.29,"ADDRESS":"進修街３１之６號","OBJECTID":597618},"geometry":{"x":178935.29000000097,"y":2578510.2899999991}},{"attributes":{"ID":597646,"DIS_CODE":0,"TOWNNAME":"新營區","LI":"南紙里","LIN":"27鄰","STREET":"嘉芳街","SECT":" ","MAREA":" ","LANE":" ","ALLEY":" ","HOUSE_NO":"２２５之１號","E_COORD97":177088.12,"N_COORD97":2577661,"ADDRESS":"嘉芳街２２５之１號","OBJECTID":597619},"geometry":{"x":177088.12000000011,"y":2577661.0000000019}},{"attributes":{"ID":597647,"DIS_CODE":0,"TOWNNAME":"新營區","LI":"民榮里","LIN":"27鄰","STREET":"復興路","SECT":" ","MAREA":" ","LANE":" ","ALLEY":" ","HOUSE_NO":"４１３號","E_COORD97":178288.29999999999,"N_COORD97":2578235.3900000001,"ADDRESS":"復興路４１３號","OBJECTID":597620},"geometry":{"x":178288.29999999981,"y":2578235.3900000025}},{"attributes":{"ID":597648,"DIS_CODE":0,"TOWNNAME":"關廟區","LI":"東勢里","LIN":"27鄰","STREET":"和平路","SECT":" ","MAREA":" ","LANE":" ","ALLEY":" ","HOUSE_NO":"５９號","E_COORD97":181703.09,"N_COORD97":2539435.25,"ADDRESS":"和平路５９號","OBJECTID":597621},"geometry":{"x":181703.09000000078,"y":2539435.2500000037}},{"attributes":{"ID":597649,"DIS_CODE":0,"TOWNNAME":"歸仁區","LI":"歸南里","LIN":"27鄰","STREET":"民生南街","SECT":"二段","MAREA":" ","LANE":" ","ALLEY":" ","HOUSE_NO":"２３６號","E_COORD97":176067.45999999999,"N_COORD97":2540088.25,"ADDRESS":"民生南街二段２３６號","OBJECTID":597622},"geometry":{"x":176067.46000000183,"y":2540088.25}},{"attributes":{"ID":597650,"DIS_CODE":0,"TOWNNAME":"歸仁區","LI":"新厝里","LIN":"27鄰","STREET":"中正五街","SECT":" ","MAREA":" ","LANE":" ","ALLEY":" ","HOUSE_NO":"８０號","E_COORD97":177069.26999999999,"N_COORD97":2540058.4300000002,"ADDRESS":"中正五街８０號","OBJECTID":597623},"geometry":{"x":177069.26999999955,"y":2540058.4300000016}},{"attributes":{"ID":597651,"DIS_CODE":0,"TOWNNAME":"歸仁區","LI":"新厝里","LIN":"27鄰","STREET":"中正五街","SECT":" ","MAREA":" ","LANE":" ","ALLEY":" ","HOUSE_NO":"９２號","E_COORD97":177095.97,"N_COORD97":2540073.4300000002,"ADDRESS":"中正五街９２號","OBJECTID":597624},"geometry":{"x":177095.9700000016,"y":2540073.4299999997}},{"attributes":{"ID":597652,"DIS_CODE":0,"TOWNNAME":"歸仁區","LI":"歸南里","LIN":"27鄰","STREET":"民生南街","SECT":"二段","MAREA":" ","LANE":" ","ALLEY":" ","HOUSE_NO":"２０２之１號","E_COORD97":176070.35999999999,"N_COORD97":2540157.2599999998,"ADDRESS":"民生南街二段２０２之１號","OBJECTID":597625},"geometry":{"x":176070.36000000127,"y":2540157.2600000035}},{"attributes":{"ID":597653,"DIS_CODE":0,"TOWNNAME":"歸仁區","LI":"歸仁里","LIN":"27鄰","STREET":"忠孝北路","SECT":" ","MAREA":" ","LANE":" ","ALLEY":" ","HOUSE_NO":"２２號","E_COORD97":178478.72,"N_COORD97":2540740.25,"ADDRESS":"忠孝北路２２號","OBJECTID":597626},"geometry":{"x":178478.71999999974,"y":2540740.25}},{"attributes":{"ID":597654,"DIS_CODE":0,"TOWNNAME":"新營區","LI":"新北里","LIN":"27鄰","STREET":"金華路","SECT":"二段","MAREA":" ","LANE":" ","ALLEY":" ","HOUSE_NO":"４８號","E_COORD97":178893.31,"N_COORD97":2579023.1800000002,"ADDRESS":"金華路二段４８號","OBJECTID":597627},"geometry":{"x":178893.30999999959,"y":2579023.1800000016}},{"attributes":{"ID":597655,"DIS_CODE":0,"TOWNNAME":"安平區","LI":"國平里","LIN":"27鄰","STREET":"郡平路","SECT":" ","MAREA":" ","LANE":" ","ALLEY":" ","HOUSE_NO":"１４３號","E_COORD97":164801.95000000001,"N_COORD97":2543298.6200000001,"ADDRESS":"郡平路１４３號","OBJECTID":597628},"geometry":{"x":164801.95000000112,"y":2543298.620000001}},{"attributes":{"ID":597656,"DIS_CODE":0,"TOWNNAME":"安平區","LI":"國平里","LIN":"27鄰","STREET":"郡平路","SECT":" ","MAREA":" ","LANE":" ","ALLEY":" ","HOUSE_NO":"１４５號","E_COORD97":164794.04000000001,"N_COORD97":2543299.73,"ADDRESS":"郡平路１４５號","OBJECTID":597629},"geometry":{"x":164794.04000000097,"y":2543299.7300000004}},{"attributes":{"ID":597657,"DIS_CODE":0,"TOWNNAME":"安平區","LI":"國平里","LIN":"27鄰","STREET":"郡平路","SECT":" ","MAREA":" ","LANE":" ","ALLEY":" ","HOUSE_NO":"１４９號","E_COORD97":164779.59,"N_COORD97":2543301.9500000002,"ADDRESS":"郡平路１４９號","OBJECTID":597630},"geometry":{"x":164779.58999999985,"y":2543301.9500000011}},{"attributes":{"ID":597658,"DIS_CODE":0,"TOWNNAME":"安平區","LI":"國平里","LIN":"27鄰","STREET":"郡平路","SECT":" ","MAREA":" ","LANE":" ","ALLEY":" ","HOUSE_NO":"１５１號","E_COORD97":164772.92000000001,"N_COORD97":2543303.0600000001,"ADDRESS":"郡平路１５１號","OBJECTID":597631},"geometry":{"x":164772.92000000086,"y":2543303.0600000024}},{"attributes":{"ID":597659,"DIS_CODE":0,"TOWNNAME":"安平區","LI":"國平里","LIN":"27鄰","STREET":"健康三街","SECT":" ","MAREA":" ","LANE":" ","ALLEY":" ","HOUSE_NO":"１８０號","E_COORD97":164763.66,"N_COORD97":2543271.3500000001,"ADDRESS":"健康三街１８０號","OBJECTID":597632},"geometry":{"x":164763.66000000015,"y":2543271.3499999996}},{"attributes":{"ID":597660,"DIS_CODE":0,"TOWNNAME":"安平區","LI":"國平里","LIN":"27鄰","STREET":"健康三街","SECT":" ","MAREA":" ","LANE":" ","ALLEY":" ","HOUSE_NO":"１８４號","E_COORD97":164764.76999999999,"N_COORD97":2543278.3900000001,"ADDRESS":"健康三街１８４號","OBJECTID":597633},"geometry":{"x":164764.77000000142,"y":2543278.3900000006}},{"attributes":{"ID":597661,"DIS_CODE":0,"TOWNNAME":"安平區","LI":"國平里","LIN":"27鄰","STREET":"健康三街","SECT":" ","MAREA":" ","LANE":" ","ALLEY":" ","HOUSE_NO":"１８６號","E_COORD97":164766.25,"N_COORD97":2543287.7599999998,"ADDRESS":"健康三街１８６號","OBJECTID":597634},"geometry":{"x":164766.25,"y":2543287.7600000016}},{"attributes":{"ID":597662,"DIS_CODE":0,"TOWNNAME":"南區","LI":"府南里","LIN":"27鄰","STREET":"大成路","SECT":"二段","MAREA":" ","LANE":" ","ALLEY":" ","HOUSE_NO":"１２３號","E_COORD97":167369.98000000001,"N_COORD97":2541719.8700000001,"ADDRESS":"大成路二段１２３號","OBJECTID":597635},"geometry":{"x":167369.98000000138,"y":2541719.870000001}},{"attributes":{"ID":597663,"DIS_CODE":0,"TOWNNAME":"南區","LI":"府南里","LIN":"27鄰","STREET":"大成路","SECT":"二段","MAREA":" ","LANE":" ","ALLEY":" ","HOUSE_NO":"１３５號","E_COORD97":167330.45000000001,"N_COORD97":2541722.5899999999,"ADDRESS":"大成路二段１３５號","OBJECTID":597636},"geometry":{"x":167330.45000000019,"y":2541722.5900000017}},{"attributes":{"ID":597664,"DIS_CODE":0,"TOWNNAME":"南區","LI":"府南里","LIN":"27鄰","STREET":"大成路","SECT":"二段","MAREA":" ","LANE":" ","ALLEY":" ","HOUSE_NO":"１３７號","E_COORD97":167327.38,"N_COORD97":2541723.9100000001,"ADDRESS":"大成路二段１３７號","OBJECTID":597637},"geometry":{"x":167327.38000000175,"y":2541723.910000002}},{"attributes":{"ID":597665,"DIS_CODE":0,"TOWNNAME":"北區","LI":"大豐里","LIN":"27鄰","STREET":"文賢路","SECT":" ","MAREA":" ","LANE":" ","ALLEY":" ","HOUSE_NO":"３４５號","E_COORD97":167328.18372199999,"N_COORD97":2545330.0824699998,"ADDRESS":"文賢路３４５號","OBJECTID":597638},"geometry":{"x":167328.18372200057,"y":2545330.0824670028}},{"attributes":{"ID":597666,"DIS_CODE":0,"TOWNNAME":"新營區","LI":"王公里","LIN":"27鄰","STREET":"大公街","SECT":" ","MAREA":" ","LANE":" ","ALLEY":" ","HOUSE_NO":"８６號","E_COORD97":180333.23999999999,"N_COORD97":2579634.2999999998,"ADDRESS":"大公街８６號","OBJECTID":597639},"geometry":{"x":180333.24000000115,"y":2579634.3000000007}},{"attributes":{"ID":597667,"DIS_CODE":0,"TOWNNAME":"新營區","LI":"新東里","LIN":"27鄰","STREET":"東興五街","SECT":" ","MAREA":" ","LANE":" ","ALLEY":" ","HOUSE_NO":"３８號","E_COORD97":180644.70000000001,"N_COORD97":2579526.52,"ADDRESS":"東興五街３８號","OBJECTID":597640},"geometry":{"x":180644.70000000205,"y":2579526.5199999996}},{"attributes":{"ID":597668,"DIS_CODE":0,"TOWNNAME":"新營區","LI":"王公里","LIN":"27鄰","STREET":"大公街","SECT":" ","MAREA":" ","LANE":" ","ALLEY":" ","HOUSE_NO":"８４號","E_COORD97":180329.14999999999,"N_COORD97":2579634.3100000001,"ADDRESS":"大公街８４號","OBJECTID":597641},"geometry":{"x":180329.15000000037,"y":2579634.3100000005}},{"attributes":{"ID":597669,"DIS_CODE":0,"TOWNNAME":"新營區","LI":"大宏里","LIN":"27鄰","STREET":"開元路","SECT":" ","MAREA":" ","LANE":" ","ALLEY":" ","HOUSE_NO":"６１之１８號","E_COORD97":180898.73999999999,"N_COORD97":2578823.27,"ADDRESS":"開元路６１之１８號","OBJECTID":597642},"geometry":{"x":180898.74000000209,"y":2578823.2699999996}},{"attributes":{"ID":597670,"DIS_CODE":0,"TOWNNAME":"新營區","LI":"南興里","LIN":"27鄰","STREET":"建業路","SECT":" ","MAREA":" ","LANE":" ","ALLEY":" ","HOUSE_NO":"７１號","E_COORD97":178604.42000000001,"N_COORD97":2577454.2000000002,"ADDRESS":"建業路７１號","OBJECTID":597643},"geometry":{"x":178604.42000000086,"y":2577454.1999999993}},{"attributes":{"ID":597671,"DIS_CODE":0,"TOWNNAME":"南區","LI":"廣州里","LIN":"27鄰","STREET":"夏林路","SECT":" ","MAREA":" ","LANE":" ","ALLEY":" ","HOUSE_NO":"５４號","E_COORD97":167440.48000000001,"N_COORD97":2542686.7999999998,"ADDRESS":"夏林路５４號","OBJECTID":597644},"geometry":{"x":167440.48000000045,"y":2542686.8000000007}},{"attributes":{"ID":597672,"DIS_CODE":0,"TOWNNAME":"南區","LI":"廣州里","LIN":"27鄰","STREET":"夏林路","SECT":" ","MAREA":" ","LANE":" ","ALLEY":" ","HOUSE_NO":"５６號","E_COORD97":167443.01000000001,"N_COORD97":2542683.4300000002,"ADDRESS":"夏林路５６號","OBJECTID":597645},"geometry":{"x":167443.00999999978,"y":2542683.4300000016}},{"attributes":{"ID":597673,"DIS_CODE":0,"TOWNNAME":"南區","LI":"廣州里","LIN":"27鄰","STREET":"夏林路","SECT":" ","MAREA":" ","LANE":" ","ALLEY":" ","HOUSE_NO":"５０號","E_COORD97":167439.20999999999,"N_COORD97":2542694.8100000001,"ADDRESS":"夏林路５０號","OBJECTID":597646},"geometry":{"x":167439.21000000089,"y":2542694.8100000024}},{"attributes":{"ID":597674,"DIS_CODE":0,"TOWNNAME":"南區","LI":"廣州里","LIN":"27鄰","STREET":"夏林路","SECT":" ","MAREA":" ","LANE":" ","ALLEY":" ","HOUSE_NO":"５２號","E_COORD97":167443.01000000001,"N_COORD97":2542689.75,"ADDRESS":"夏林路５２號","OBJECTID":597647},"geometry":{"x":167443.00999999978,"y":2542689.75}},{"attributes":{"ID":597675,"DIS_CODE":0,"TOWNNAME":"南區","LI":"文南里","LIN":"27鄰","STREET":"健康路","SECT":"二段","MAREA":" ","LANE":" ","ALLEY":" ","HOUSE_NO":"４９１號","E_COORD97":166319.39999999999,"N_COORD97":2542549.7200000002,"ADDRESS":"健康路二段４９１號","OBJECTID":597648},"geometry":{"x":166319.4000000013,"y":2542549.7200000025}},{"attributes":{"ID":597676,"DIS_CODE":0,"TOWNNAME":"南區","LI":"文南里","LIN":"27鄰","STREET":"健康路","SECT":"二段","MAREA":" ","LANE":" ","ALLEY":" ","HOUSE_NO":"４９３號","E_COORD97":166314.5,"N_COORD97":2542550.4399999999,"ADDRESS":"健康路二段４９３號","OBJECTID":597649},"geometry":{"x":166314.5,"y":2542550.4400000013}},{"attributes":{"ID":597677,"DIS_CODE":0,"TOWNNAME":"南區","LI":"文南里","LIN":"27鄰","STREET":"健康路","SECT":"二段","MAREA":" ","LANE":" ","ALLEY":" ","HOUSE_NO":"４９５號","E_COORD97":166310.23999999999,"N_COORD97":2542550.8799999999,"ADDRESS":"健康路二段４９５號","OBJECTID":597650},"geometry":{"x":166310.24000000115,"y":2542550.879999999}},{"attributes":{"ID":597678,"DIS_CODE":0,"TOWNNAME":"南區","LI":"文南里","LIN":"27鄰","STREET":"健康路","SECT":"二段","MAREA":" ","LANE":" ","ALLEY":" ","HOUSE_NO":"４９７號","E_COORD97":166305.60000000001,"N_COORD97":2542551.5099999998,"ADDRESS":"健康路二段４９７號","OBJECTID":597651},"geometry":{"x":166305.60000000056,"y":2542551.5099999998}},{"attributes":{"ID":597679,"DIS_CODE":0,"TOWNNAME":"南區","LI":"文南里","LIN":"27鄰","STREET":"健康路","SECT":"二段","MAREA":" ","LANE":" ","ALLEY":" ","HOUSE_NO":"４９９號","E_COORD97":166301.07000000001,"N_COORD97":2542551.9500000002,"ADDRESS":"健康路二段４９９號","OBJECTID":597652},"geometry":{"x":166301.07000000216,"y":2542551.9499999993}},{"attributes":{"ID":597680,"DIS_CODE":0,"TOWNNAME":"南區","LI":"文南里","LIN":"27鄰","STREET":"健康路","SECT":"二段","MAREA":" ","LANE":" ","ALLEY":" ","HOUSE_NO":"５０１號","E_COORD97":166294.57000000001,"N_COORD97":2542552.75,"ADDRESS":"健康路二段５０１號","OBJECTID":597653},"geometry":{"x":166294.57000000123,"y":2542552.7500000019}},{"attributes":{"ID":597681,"DIS_CODE":0,"TOWNNAME":"南區","LI":"文南里","LIN":"27鄰","STREET":"健康路","SECT":"二段","MAREA":" ","LANE":" ","ALLEY":" ","HOUSE_NO":"５０１號之１","E_COORD97":166283.32000000001,"N_COORD97":2542533.4500000002,"ADDRESS":"健康路二段５０１號之１","OBJECTID":597654},"geometry":{"x":166283.3200000003,"y":2542533.4500000011}},{"attributes":{"ID":597682,"DIS_CODE":0,"TOWNNAME":"南區","LI":"文南里","LIN":"27鄰","STREET":"健康路","SECT":"二段","MAREA":" ","LANE":" ","ALLEY":" ","HOUSE_NO":"５０１號之２","E_COORD97":166282.34,"N_COORD97":2542527.6699999999,"ADDRESS":"健康路二段５０１號之２","OBJECTID":597655},"geometry":{"x":166282.34000000078,"y":2542527.6699999981}},{"attributes":{"ID":597683,"DIS_CODE":0,"TOWNNAME":"南區","LI":"文南里","LIN":"27鄰","STREET":"健康路","SECT":"二段","MAREA":" ","LANE":" ","ALLEY":" ","HOUSE_NO":"５０１號之３","E_COORD97":166280.01999999999,"N_COORD97":2542523.5,"ADDRESS":"健康路二段５０１號之３","OBJECTID":597656},"geometry":{"x":166280.01999999955,"y":2542523.5000000019}},{"attributes":{"ID":597684,"DIS_CODE":0,"TOWNNAME":"南區","LI":"文南里","LIN":"27鄰","STREET":"健康路","SECT":"二段","MAREA":" ","LANE":" ","ALLEY":" ","HOUSE_NO":"５０３號","E_COORD97":166289.23000000001,"N_COORD97":2542553.2799999998,"ADDRESS":"健康路二段５０３號","OBJECTID":597657},"geometry":{"x":166289.23000000045,"y":2542553.2799999993}},{"attributes":{"ID":597685,"DIS_CODE":0,"TOWNNAME":"南區","LI":"文南里","LIN":"27鄰","STREET":"健康路","SECT":"二段","MAREA":" ","LANE":" ","ALLEY":" ","HOUSE_NO":"５０５號","E_COORD97":166284.51000000001,"N_COORD97":2542553.8999999999,"ADDRESS":"健康路二段５０５號","OBJECTID":597658},"geometry":{"x":166284.51000000071,"y":2542553.9000000041}},{"attributes":{"ID":597686,"DIS_CODE":0,"TOWNNAME":"南區","LI":"文南里","LIN":"27鄰","STREET":"健康路","SECT":"二段","MAREA":" ","LANE":" ","ALLEY":" ","HOUSE_NO":"５０７號","E_COORD97":166279.07999999999,"N_COORD97":2542554.5299999998,"ADDRESS":"健康路二段５０７號","OBJECTID":597659},"geometry":{"x":166279.08000000101,"y":2542554.5299999993}},{"attributes":{"ID":597687,"DIS_CODE":0,"TOWNNAME":"安南區","LI":"溪東里","LIN":"1鄰","STREET":"府安路","SECT":"五段","MAREA":" ","LANE":" ","ALLEY":" ","HOUSE_NO":"１２０號","E_COORD97":167971.19,"N_COORD97":2547102.5,"ADDRESS":"府安路五段１２０號","OBJECTID":597660},"geometry":{"x":167971.19000000041,"y":2547102.4999999981}},{"attributes":{"ID":597688,"DIS_CODE":0,"TOWNNAME":"安南區","LI":"溪東里","LIN":"1鄰","STREET":"府安路","SECT":"五段","MAREA":" ","LANE":" ","ALLEY":" ","HOUSE_NO":"１２１號","E_COORD97":167967.39999999999,"N_COORD97":2547100.6099999999,"ADDRESS":"府安路五段１２１號","OBJECTID":597661},"geometry":{"x":167967.4000000013,"y":2547100.6099999994}},{"attributes":{"ID":597689,"DIS_CODE":0,"TOWNNAME":"安南區","LI":"溪東里","LIN":"1鄰","STREET":"府安路","SECT":"五段","MAREA":" ","LANE":" ","ALLEY":" ","HOUSE_NO":"１２３號","E_COORD97":167958.72,"N_COORD97":2547097.4199999999,"ADDRESS":"府安路五段１２３號","OBJECTID":597662},"geometry":{"x":167958.71999999974,"y":2547097.4200000018}},{"attributes":{"ID":597690,"DIS_CODE":0,"TOWNNAME":"安南區","LI":"溪東里","LIN":"1鄰","STREET":"府安路","SECT":"五段","MAREA":" ","LANE":" ","ALLEY":" ","HOUSE_NO":"１２４號","E_COORD97":167954.34,"N_COORD97":2547095.5299999998,"ADDRESS":"府安路五段１２４號","OBJECTID":597663},"geometry":{"x":167954.33999999985,"y":2547095.5300000012}},{"attributes":{"ID":597691,"DIS_CODE":0,"TOWNNAME":"安南區","LI":"溪東里","LIN":"1鄰","STREET":"府安路","SECT":"五段","MAREA":" ","LANE":" ","ALLEY":" ","HOUSE_NO":"１２５號","E_COORD97":167949.85000000001,"N_COORD97":2547094.6299999999,"ADDRESS":"府安路五段１２５號","OBJECTID":597664},"geometry":{"x":167949.85000000056,"y":2547094.6300000008}},{"attributes":{"ID":597692,"DIS_CODE":0,"TOWNNAME":"安南區","LI":"溪東里","LIN":"1鄰","STREET":"府安路","SECT":"五段","MAREA":" ","LANE":" ","ALLEY":" ","HOUSE_NO":"１２６號","E_COORD97":167945.76000000001,"N_COORD97":2547092.7400000002,"ADDRESS":"府安路五段１２６號","OBJECTID":597665},"geometry":{"x":167945.76000000071,"y":2547092.7400000021}},{"attributes":{"ID":597693,"DIS_CODE":0,"TOWNNAME":"安南區","LI":"溪東里","LIN":"1鄰","STREET":"府安路","SECT":"五段","MAREA":" ","LANE":" ","ALLEY":" ","HOUSE_NO":"１２７號","E_COORD97":167941.37,"N_COORD97":2547091.04,"ADDRESS":"府安路五段１２７號","OBJECTID":597666},"geometry":{"x":167941.37000000197,"y":2547091.0399999991}},{"attributes":{"ID":597694,"DIS_CODE":0,"TOWNNAME":"安南區","LI":"溪東里","LIN":"1鄰","STREET":"府安路","SECT":"五段","MAREA":" ","LANE":" ","ALLEY":" ","HOUSE_NO":"１３４號","E_COORD97":167911.48999999999,"N_COORD97":2547086.9900000002,"ADDRESS":"府安路五段１３４號","OBJECTID":597667},"geometry":{"x":167911.49000000022,"y":2547086.9900000021}},{"attributes":{"ID":597695,"DIS_CODE":0,"TOWNNAME":"安南區","LI":"溪東里","LIN":"1鄰","STREET":"府安路","SECT":"五段","MAREA":" ","LANE":" ","ALLEY":" ","HOUSE_NO":"１３５號","E_COORD97":167906.88,"N_COORD97":2547086.7799999998,"ADDRESS":"府安路五段１３５號","OBJECTID":597668},"geometry":{"x":167906.87999999989,"y":2547086.7800000031}},{"attributes":{"ID":597696,"DIS_CODE":0,"TOWNNAME":"安南區","LI":"溪東里","LIN":"5鄰","STREET":"府安路","SECT":"五段","MAREA":" ","LANE":" ","ALLEY":" ","HOUSE_NO":"７１號","E_COORD97":168208.20999999999,"N_COORD97":2547172.98,"ADDRESS":"府安路五段７１號","OBJECTID":597669},"geometry":{"x":168208.20999999996,"y":2547172.9800000004}},{"attributes":{"ID":597697,"DIS_CODE":0,"TOWNNAME":"安南區","LI":"溪東里","LIN":"5鄰","STREET":"府安路","SECT":"五段","MAREA":" ","LANE":" ","ALLEY":" ","HOUSE_NO":"７２號","E_COORD97":168202.48999999999,"N_COORD97":2547175.1800000002,"ADDRESS":"府安路五段７２號","OBJECTID":597670},"geometry":{"x":168202.49000000115,"y":2547175.1799999997}},{"attributes":{"ID":597698,"DIS_CODE":0,"TOWNNAME":"安南區","LI":"溪東里","LIN":"5鄰","STREET":"府安路","SECT":"五段","MAREA":" ","LANE":" ","ALLEY":" ","HOUSE_NO":"７３號","E_COORD97":168199.42000000001,"N_COORD97":2547170.0499999998,"ADDRESS":"府安路五段７３號","OBJECTID":597671},"geometry":{"x":168199.41999999993,"y":2547170.0500000007}},{"attributes":{"ID":597699,"DIS_CODE":0,"TOWNNAME":"安南區","LI":"溪東里","LIN":"4鄰","STREET":"府安路","SECT":"五段","MAREA":" ","LANE":" ","ALLEY":" ","HOUSE_NO":"１００號","E_COORD97":168053.75,"N_COORD97":2547137.3700000001,"ADDRESS":"府安路五段１００號","OBJECTID":597672},"geometry":{"x":168053.75,"y":2547137.370000001}},{"attributes":{"ID":597700,"DIS_CODE":0,"TOWNNAME":"安南區","LI":"溪東里","LIN":"4鄰","STREET":"府安路","SECT":"五段","MAREA":" ","LANE":" ","ALLEY":" ","HOUSE_NO":"１０１號","E_COORD97":168050.07999999999,"N_COORD97":2547132.3999999999,"ADDRESS":"府安路五段１０１號","OBJECTID":597673},"geometry":{"x":168050.08000000194,"y":2547132.4000000022}},{"attributes":{"ID":597701,"DIS_CODE":0,"TOWNNAME":"安平區","LI":"文平里","LIN":"27鄰","STREET":"永華二街","SECT":" ","MAREA":" ","LANE":" ","ALLEY":" ","HOUSE_NO":"４３號","E_COORD97":166335.14999999999,"N_COORD97":2542956.4500000002,"ADDRESS":"永華二街４３號","OBJECTID":597674},"geometry":{"x":166335.1500000013,"y":2542956.4500000011}},{"attributes":{"ID":597702,"DIS_CODE":0,"TOWNNAME":"歸仁區","LI":"許厝里","LIN":"27鄰","STREET":"中山路","SECT":"一段","MAREA":" ","LANE":" ","ALLEY":" ","HOUSE_NO":"４７８號","E_COORD97":177950.07999999999,"N_COORD97":2540750.04,"ADDRESS":"中山路一段４７８號","OBJECTID":597675},"geometry":{"x":177950.08000000194,"y":2540750.0399999991}},{"attributes":{"ID":597703,"DIS_CODE":0,"TOWNNAME":"新化區","LI":"東榮里","LIN":"27鄰","STREET":"護安街","SECT":" ","MAREA":" ","LANE":" ","ALLEY":" ","HOUSE_NO":"７號之３","E_COORD97":179251.07999999999,"N_COORD97":2548209.2599999998,"ADDRESS":"護安街７號之３","OBJECTID":597676},"geometry":{"x":179251.08000000007,"y":2548209.2600000035}},{"attributes":{"ID":597704,"DIS_CODE":0,"TOWNNAME":"中西區","LI":"大涼里","LIN":"27鄰","STREET":"中華西路","SECT":"二段","MAREA":" ","LANE":" ","ALLEY":" ","HOUSE_NO":"２號","E_COORD97":166645.98999999999,"N_COORD97":2543090.7599999998,"ADDRESS":"中華西路二段２號","OBJECTID":597677},"geometry":{"x":166645.99000000115,"y":2543090.7600000016}},{"attributes":{"ID":597705,"DIS_CODE":0,"TOWNNAME":"中西區","LI":"大涼里","LIN":"27鄰","STREET":"永華一街","SECT":" ","MAREA":" ","LANE":" ","ALLEY":" ","HOUSE_NO":"３號","E_COORD97":166839.23999999999,"N_COORD97":2543315.23,"ADDRESS":"永華一街３號","OBJECTID":597678},"geometry":{"x":166839.24000000115,"y":2543315.2300000023}},{"attributes":{"ID":597706,"DIS_CODE":0,"TOWNNAME":"中西區","LI":"大涼里","LIN":"27鄰","STREET":"永華路","SECT":"一段","MAREA":" ","LANE":" ","ALLEY":" ","HOUSE_NO":"２８８號","E_COORD97":166855.45999999999,"N_COORD97":2543286.9399999999,"ADDRESS":"永華路一段２８８號","OBJECTID":597679},"geometry":{"x":166855.45999999996,"y":2543286.9399999995}},{"attributes":{"ID":597707,"DIS_CODE":0,"TOWNNAME":"中西區","LI":"大涼里","LIN":"27鄰","STREET":"永華路","SECT":"一段","MAREA":" ","LANE":" ","ALLEY":" ","HOUSE_NO":"２９２號","E_COORD97":166817.04000000001,"N_COORD97":2543295.1899999999,"ADDRESS":"永華路一段２９２號","OBJECTID":597680},"geometry":{"x":166817.04000000097,"y":2543295.1899999995}},{"attributes":{"ID":597708,"DIS_CODE":0,"TOWNNAME":"中西區","LI":"大涼里","LIN":"27鄰","STREET":"永華路","SECT":"一段","MAREA":" ","LANE":" ","ALLEY":" ","HOUSE_NO":"２９４號","E_COORD97":166810.59,"N_COORD97":2543296.5,"ADDRESS":"永華路一段２９４號","OBJECTID":597681},"geometry":{"x":166810.59000000171,"y":2543296.5000000019}},{"attributes":{"ID":597709,"DIS_CODE":0,"TOWNNAME":"中西區","LI":"大涼里","LIN":"27鄰","STREET":"永華路","SECT":"一段","MAREA":" ","LANE":" ","ALLEY":" ","HOUSE_NO":"２９６號","E_COORD97":166805.79000000001,"N_COORD97":2543297.1000000001,"ADDRESS":"永華路一段２９６號","OBJECTID":597682},"geometry":{"x":166805.79000000004,"y":2543297.0999999996}},{"attributes":{"ID":597710,"DIS_CODE":0,"TOWNNAME":"中西區","LI":"大涼里","LIN":"27鄰","STREET":"永華路","SECT":"一段","MAREA":" ","LANE":" ","ALLEY":" ","HOUSE_NO":"２９８號","E_COORD97":166798.39000000001,"N_COORD97":2543298.1000000001,"ADDRESS":"永華路一段２９８號","OBJECTID":597683},"geometry":{"x":166798.3900000006,"y":2543298.1000000015}},{"attributes":{"ID":597711,"DIS_CODE":0,"TOWNNAME":"中西區","LI":"大涼里","LIN":"27鄰","STREET":"永華路","SECT":"一段","MAREA":" ","LANE":" ","ALLEY":" ","HOUSE_NO":"３５０號","E_COORD97":166668.45000000001,"N_COORD97":2543328.21,"ADDRESS":"永華路一段３５０號","OBJECTID":597684},"geometry":{"x":166668.45000000112,"y":2543328.2100000009}},{"attributes":{"ID":597712,"DIS_CODE":0,"TOWNNAME":"南區","LI":"府南里","LIN":"27鄰","STREET":"大成路","SECT":"二段","MAREA":" ","LANE":" ","ALLEY":" ","HOUSE_NO":"８３號","E_COORD97":167440.59,"N_COORD97":2541723.1699999999,"ADDRESS":"大成路二段８３號","OBJECTID":597685},"geometry":{"x":167440.58999999985,"y":2541723.1699999999}},{"attributes":{"ID":597713,"DIS_CODE":0,"TOWNNAME":"南區","LI":"府南里","LIN":"27鄰","STREET":"大成路","SECT":"二段","MAREA":" ","LANE":" ","ALLEY":" ","HOUSE_NO":"８５號","E_COORD97":167436.78,"N_COORD97":2541724.7400000002,"ADDRESS":"大成路二段８５號","OBJECTID":597686},"geometry":{"x":167436.78000000026,"y":2541724.7400000021}},{"attributes":{"ID":597714,"DIS_CODE":0,"TOWNNAME":"南區","LI":"府南里","LIN":"27鄰","STREET":"大成路","SECT":"二段","MAREA":" ","LANE":" ","ALLEY":" ","HOUSE_NO":"８７號","E_COORD97":167433.06,"N_COORD97":2541722.6699999999,"ADDRESS":"大成路二段８７號","OBJECTID":597687},"geometry":{"x":167433.06000000052,"y":2541722.6699999999}},{"attributes":{"ID":597715,"DIS_CODE":0,"TOWNNAME":"南區","LI":"府南里","LIN":"27鄰","STREET":"大成路","SECT":"二段","MAREA":" ","LANE":" ","ALLEY":" ","HOUSE_NO":"８９號","E_COORD97":167428.26000000001,"N_COORD97":2541724.25,"ADDRESS":"大成路二段８９號","OBJECTID":597688},"geometry":{"x":167428.26000000164,"y":2541724.2500000019}},{"attributes":{"ID":597716,"DIS_CODE":0,"TOWNNAME":"南區","LI":"府南里","LIN":"27鄰","STREET":"大成路","SECT":"二段","MAREA":" ","LANE":" ","ALLEY":" ","HOUSE_NO":"９１號","E_COORD97":167423.54000000001,"N_COORD97":2541722.3399999999,"ADDRESS":"大成路二段９１號","OBJECTID":597689},"geometry":{"x":167423.54000000097,"y":2541722.3399999999}},{"attributes":{"ID":597717,"DIS_CODE":0,"TOWNNAME":"仁德區","LI":"上崙里","LIN":"27鄰","STREET":"上崙街","SECT":" ","MAREA":" ","LANE":" ","ALLEY":" ","HOUSE_NO":"４１３號","E_COORD97":173043.94,"N_COORD97":2537620.75,"ADDRESS":"上崙街４１３號","OBJECTID":597690},"geometry":{"x":173043.94000000134,"y":2537620.75}},{"attributes":{"ID":597718,"DIS_CODE":0,"TOWNNAME":"南區","LI":"府南里","LIN":"27鄰","STREET":"大成路","SECT":"二段","MAREA":" ","LANE":" ","ALLEY":" ","HOUSE_NO":"１３３號","E_COORD97":167336.42000000001,"N_COORD97":2541723.4300000002,"ADDRESS":"大成路二段１３３號","OBJECTID":597691},"geometry":{"x":167336.42000000086,"y":2541723.4300000016}},{"attributes":{"ID":597719,"DIS_CODE":0,"TOWNNAME":"永康區","LI":"東灣里","LIN":"27鄰","STREET":"大灣東路","SECT":" ","MAREA":" ","LANE":" ","ALLEY":" ","HOUSE_NO":"２８９號","E_COORD97":175073.70000000001,"N_COORD97":2544652.8300000001,"ADDRESS":"大灣東路２８９號","OBJECTID":597692},"geometry":{"x":175073.70000000019,"y":2544652.8300000038}},{"attributes":{"ID":597720,"DIS_CODE":0,"TOWNNAME":"永康區","LI":"南灣里","LIN":"27鄰","STREET":"立興街","SECT":" ","MAREA":" ","LANE":" ","ALLEY":" ","HOUSE_NO":"４８號","E_COORD97":174596.85000000001,"N_COORD97":2544863.8700000001,"ADDRESS":"立興街４８號","OBJECTID":597693},"geometry":{"x":174596.85000000056,"y":2544863.8700000048}},{"attributes":{"ID":597721,"DIS_CODE":0,"TOWNNAME":"永康區","LI":"南灣里","LIN":"27鄰","STREET":"立興街","SECT":" ","MAREA":" ","LANE":" ","ALLEY":" ","HOUSE_NO":"４０號","E_COORD97":174609.75,"N_COORD97":2544872.2999999998,"ADDRESS":"立興街４０號","OBJECTID":597694},"geometry":{"x":174609.75000000093,"y":2544872.3000000007}},{"attributes":{"ID":597722,"DIS_CODE":0,"TOWNNAME":"安南區","LI":"溪頂里","LIN":"27鄰","STREET":"郡安路","SECT":"四段","MAREA":" ","LANE":" ","ALLEY":" ","HOUSE_NO":"２６２號","E_COORD97":168648.53,"N_COORD97":2547633.98,"ADDRESS":"郡安路四段２６２號","OBJECTID":597695},"geometry":{"x":168648.53000000026,"y":2547633.9800000004}},{"attributes":{"ID":597723,"DIS_CODE":0,"TOWNNAME":"安南區","LI":"溪頂里","LIN":"27鄰","STREET":"郡安路","SECT":"四段","MAREA":" ","LANE":" ","ALLEY":" ","HOUSE_NO":"２５４號","E_COORD97":168682,"N_COORD97":2547631.2400000002,"ADDRESS":"郡安路四段２５４號","OBJECTID":597696},"geometry":{"x":168682.00000000093,"y":2547631.2400000021}},{"attributes":{"ID":597724,"DIS_CODE":0,"TOWNNAME":"安南區","LI":"溪頂里","LIN":"27鄰","STREET":"郡安路","SECT":"四段","MAREA":" ","LANE":" ","ALLEY":" ","HOUSE_NO":"２５５號","E_COORD97":168678.60000000001,"N_COORD97":2547631.3700000001,"ADDRESS":"郡安路四段２５５號","OBJECTID":597697},"geometry":{"x":168678.60000000056,"y":2547631.3700000029}},{"attributes":{"ID":597725,"DIS_CODE":0,"TOWNNAME":"安南區","LI":"溪頂里","LIN":"27鄰","STREET":"郡安路","SECT":"四段","MAREA":" ","LANE":" ","ALLEY":" ","HOUSE_NO":"２５６號","E_COORD97":168674.81,"N_COORD97":2547631.7599999998,"ADDRESS":"郡安路四段２５６號","OBJECTID":597698},"geometry":{"x":168674.80999999959,"y":2547631.7599999998}},{"attributes":{"ID":597726,"DIS_CODE":0,"TOWNNAME":"安南區","LI":"溪頂里","LIN":"27鄰","STREET":"郡安路","SECT":"四段","MAREA":" ","LANE":" ","ALLEY":" ","HOUSE_NO":"２５７號","E_COORD97":168670.63,"N_COORD97":2547632.4100000001,"ADDRESS":"郡安路四段２５７號","OBJECTID":597699},"geometry":{"x":168670.63000000082,"y":2547632.4100000039}},{"attributes":{"ID":597727,"DIS_CODE":0,"TOWNNAME":"安南區","LI":"溪頂里","LIN":"27鄰","STREET":"郡安路","SECT":"四段","MAREA":" ","LANE":" ","ALLEY":" ","HOUSE_NO":"２５８號","E_COORD97":168666.17999999999,"N_COORD97":2547632.54,"ADDRESS":"郡安路四段２５８號","OBJECTID":597700},"geometry":{"x":168666.18000000156,"y":2547632.5399999991}},{"attributes":{"ID":597728,"DIS_CODE":0,"TOWNNAME":"安南區","LI":"溪頂里","LIN":"27鄰","STREET":"郡安路","SECT":"四段","MAREA":" ","LANE":" ","ALLEY":" ","HOUSE_NO":"２５９號","E_COORD97":168661.73999999999,"N_COORD97":2547632.7999999998,"ADDRESS":"郡安路四段２５９號","OBJECTID":597701},"geometry":{"x":168661.74000000115,"y":2547632.8000000007}},{"attributes":{"ID":597729,"DIS_CODE":0,"TOWNNAME":"安南區","LI":"溪頂里","LIN":"27鄰","STREET":"郡安路","SECT":"四段","MAREA":" ","LANE":" ","ALLEY":" ","HOUSE_NO":"２６０號","E_COORD97":168657.29000000001,"N_COORD97":2547633.3300000001,"ADDRESS":"郡安路四段２６０號","OBJECTID":597702},"geometry":{"x":168657.2900000019,"y":2547633.3300000019}},{"attributes":{"ID":597730,"DIS_CODE":0,"TOWNNAME":"安南區","LI":"溪頂里","LIN":"27鄰","STREET":"郡安路","SECT":"四段","MAREA":" ","LANE":" ","ALLEY":" ","HOUSE_NO":"２６１號","E_COORD97":168652.85000000001,"N_COORD97":2547633.7200000002,"ADDRESS":"郡安路四段２６１號","OBJECTID":597703},"geometry":{"x":168652.8499999987,"y":2547633.7200000007}},{"attributes":{"ID":597731,"DIS_CODE":0,"TOWNNAME":"安南區","LI":"溪頂里","LIN":"27鄰","STREET":"郡安路","SECT":"四段","MAREA":" ","LANE":" ","ALLEY":" ","HOUSE_NO":"２６３號","E_COORD97":168644.22,"N_COORD97":2547634.5,"ADDRESS":"郡安路四段２６３號","OBJECTID":597704},"geometry":{"x":168644.22000000067,"y":2547634.5}},{"attributes":{"ID":597732,"DIS_CODE":0,"TOWNNAME":"安南區","LI":"溪頂里","LIN":"27鄰","STREET":"郡安路","SECT":"四段","MAREA":" ","LANE":" ","ALLEY":" ","HOUSE_NO":"２６４號","E_COORD97":168640.54999999999,"N_COORD97":2547634.2400000002,"ADDRESS":"郡安路四段２６４號","OBJECTID":597705},"geometry":{"x":168640.55000000075,"y":2547634.2400000021}},{"attributes":{"ID":597733,"DIS_CODE":0,"TOWNNAME":"安南區","LI":"溪頂里","LIN":"27鄰","STREET":"郡安路","SECT":"四段","MAREA":" ","LANE":" ","ALLEY":" ","HOUSE_NO":"２６５號","E_COORD97":168636.76000000001,"N_COORD97":2547634.8999999999,"ADDRESS":"郡安路四段２６５號","OBJECTID":597706},"geometry":{"x":168636.76000000164,"y":2547634.9000000004}},{"attributes":{"ID":597734,"DIS_CODE":0,"TOWNNAME":"東區","LI":"自強里","LIN":"27鄰","STREET":"中華東路","SECT":"二段","MAREA":" ","LANE":" ","ALLEY":" ","HOUSE_NO":"１５３號","E_COORD97":171384.45000000001,"N_COORD97":2542853.9300000002,"ADDRESS":"中華東路二段１５３號","OBJECTID":597707},"geometry":{"x":171384.45000000112,"y":2542853.9299999997}},{"attributes":{"ID":597735,"DIS_CODE":0,"TOWNNAME":"東區","LI":"自強里","LIN":"27鄰","STREET":"中華東路","SECT":"二段","MAREA":" ","LANE":" ","ALLEY":" ","HOUSE_NO":"１５５號","E_COORD97":171378.66,"N_COORD97":2542854.0899999999,"ADDRESS":"中華東路二段１５５號","OBJECTID":597708},"geometry":{"x":171378.66000000015,"y":2542854.0900000017}},{"attributes":{"ID":597736,"DIS_CODE":0,"TOWNNAME":"東區","LI":"自強里","LIN":"27鄰","STREET":"中華東路","SECT":"二段","MAREA":" ","LANE":" ","ALLEY":" ","HOUSE_NO":"１５７號","E_COORD97":171376.17999999999,"N_COORD97":2542850.46,"ADDRESS":"中華東路二段１５７號","OBJECTID":597709},"geometry":{"x":171376.1799999997,"y":2542850.4600000028}},{"attributes":{"ID":597737,"DIS_CODE":0,"TOWNNAME":"東區","LI":"自強里","LIN":"27鄰","STREET":"中華東路","SECT":"二段","MAREA":" ","LANE":" ","ALLEY":" ","HOUSE_NO":"１５９號","E_COORD97":171373.70000000001,"N_COORD97":2542846.8199999998,"ADDRESS":"中華東路二段１５９號","OBJECTID":597710},"geometry":{"x":171373.70000000205,"y":2542846.8200000022}},{"attributes":{"ID":597738,"DIS_CODE":0,"TOWNNAME":"東區","LI":"自強里","LIN":"27鄰","STREET":"中華東路","SECT":"二段","MAREA":" ","LANE":" ","ALLEY":" ","HOUSE_NO":"１６１號","E_COORD97":171371.38,"N_COORD97":2542843.02,"ADDRESS":"中華東路二段１６１號","OBJECTID":597711},"geometry":{"x":171371.37999999989,"y":2542843.0199999996}},{"attributes":{"ID":597739,"DIS_CODE":0,"TOWNNAME":"東區","LI":"自強里","LIN":"27鄰","STREET":"中華東路","SECT":"二段","MAREA":" ","LANE":" ","ALLEY":" ","HOUSE_NO":"１６３號","E_COORD97":171369.07000000001,"N_COORD97":2542840.2000000002,"ADDRESS":"中華東路二段１６３號","OBJECTID":597712},"geometry":{"x":171369.0700000003,"y":2542840.2000000011}},{"attributes":{"ID":597740,"DIS_CODE":0,"TOWNNAME":"東區","LI":"自強里","LIN":"27鄰","STREET":"中華東路","SECT":"二段","MAREA":" ","LANE":" ","ALLEY":" ","HOUSE_NO":"１６５號","E_COORD97":171366.75,"N_COORD97":2542836.73,"ADDRESS":"中華東路二段１６５號","OBJECTID":597713},"geometry":{"x":171366.75000000093,"y":2542836.7300000042}},{"attributes":{"ID":597741,"DIS_CODE":0,"TOWNNAME":"東區","LI":"自強里","LIN":"27鄰","STREET":"中華東路","SECT":"二段","MAREA":" ","LANE":" ","ALLEY":" ","HOUSE_NO":"１７３號","E_COORD97":171358.79000000001,"N_COORD97":2542823.5800000001,"ADDRESS":"中華東路二段１７３號","OBJECTID":597714},"geometry":{"x":171358.79000000004,"y":2542823.5800000038}},{"attributes":{"ID":597742,"DIS_CODE":0,"TOWNNAME":"東區","LI":"自強里","LIN":"27鄰","STREET":"中華東路","SECT":"二段","MAREA":" ","LANE":" ","ALLEY":" ","HOUSE_NO":"１７５號","E_COORD97":171355.51000000001,"N_COORD97":2542819.8100000001,"ADDRESS":"中華東路二段１７５號","OBJECTID":597715},"geometry":{"x":171355.50999999978,"y":2542819.8100000024}},{"attributes":{"ID":597743,"DIS_CODE":0,"TOWNNAME":"東區","LI":"自強里","LIN":"27鄰","STREET":"中華東路","SECT":"二段","MAREA":" ","LANE":" ","ALLEY":" ","HOUSE_NO":"１７７號","E_COORD97":171351.75,"N_COORD97":2542815.3900000001,"ADDRESS":"中華東路二段１７７號","OBJECTID":597716},"geometry":{"x":171351.75000000093,"y":2542815.3900000043}},{"attributes":{"ID":597744,"DIS_CODE":0,"TOWNNAME":"東區","LI":"自強里","LIN":"27鄰","STREET":"中華東路","SECT":"二段","MAREA":" ","LANE":" ","ALLEY":" ","HOUSE_NO":"１７９號","E_COORD97":171347.98000000001,"N_COORD97":2542811.1400000001,"ADDRESS":"中華東路二段１７９號","OBJECTID":597717},"geometry":{"x":171347.98000000045,"y":2542811.1400000025}},{"attributes":{"ID":597745,"DIS_CODE":0,"TOWNNAME":"東區","LI":"自強里","LIN":"27鄰","STREET":"中華東路","SECT":"二段","MAREA":" ","LANE":" ","ALLEY":" ","HOUSE_NO":"１８１號","E_COORD97":171346.01000000001,"N_COORD97":2542806.3900000001,"ADDRESS":"中華東路二段１８１號","OBJECTID":597718},"geometry":{"x":171346.01000000071,"y":2542806.3900000025}},{"attributes":{"ID":597746,"DIS_CODE":0,"TOWNNAME":"永康區","LI":"西灣里","LIN":"27鄰","STREET":"永大路","SECT":"二段","MAREA":" ","LANE":" ","ALLEY":" ","HOUSE_NO":"３９７號","E_COORD97":174481.07999999999,"N_COORD97":2545834.27,"ADDRESS":"永大路二段３９７號","OBJECTID":597719},"geometry":{"x":174481.08000000007,"y":2545834.2699999996}},{"attributes":{"ID":597747,"DIS_CODE":0,"TOWNNAME":"永康區","LI":"\u25A0行里","LIN":"27鄰","STREET":"中正南路","SECT":" ","MAREA":" ","LANE":" ","ALLEY":" ","HOUSE_NO":"３５８號","E_COORD97":170919.82999999999,"N_COORD97":2548119.4900000002,"ADDRESS":"中正南路３５８號","OBJECTID":597720},"geometry":{"x":170919.83000000007,"y":2548119.4900000002}},{"attributes":{"ID":597748,"DIS_CODE":0,"TOWNNAME":"仁德區","LI":"仁義里","LIN":"27鄰","STREET":"正義二街","SECT":" ","MAREA":" ","LANE":" ","ALLEY":" ","HOUSE_NO":"１４６號","E_COORD97":173783.84,"N_COORD97":2541558.27,"ADDRESS":"正義二街１４６號","OBJECTID":597721},"geometry":{"x":173783.83999999985,"y":2541558.2700000014}},{"attributes":{"ID":597749,"DIS_CODE":0,"TOWNNAME":"仁德區","LI":"太子里","LIN":"27鄰","STREET":"大吉路","SECT":" ","MAREA":" ","LANE":" ","ALLEY":" ","HOUSE_NO":"７７號","E_COORD97":173538.14999999999,"N_COORD97":2543328.25,"ADDRESS":"大吉路７７號","OBJECTID":597722},"geometry":{"x":173538.15000000037,"y":2543328.2500000019}},{"attributes":{"ID":597750,"DIS_CODE":0,"TOWNNAME":"仁德區","LI":"太子里","LIN":"27鄰","STREET":"太子四街","SECT":" ","MAREA":" ","LANE":" ","ALLEY":" ","HOUSE_NO":"１之２號","E_COORD97":173198.59,"N_COORD97":2543409.0499999998,"ADDRESS":"太子四街１之２號","OBJECTID":597723},"geometry":{"x":173198.59000000078,"y":2543409.0500000026}},{"attributes":{"ID":597751,"DIS_CODE":0,"TOWNNAME":"永康區","LI":"大灣里","LIN":"27鄰","STREET":"大灣六街","SECT":" ","MAREA":" ","LANE":" ","ALLEY":" ","HOUSE_NO":"３２號","E_COORD97":175256.91,"N_COORD97":2545225.3799999999,"ADDRESS":"大灣六街３２號","OBJECTID":597724},"geometry":{"x":175256.91000000015,"y":2545225.3800000008}},{"attributes":{"ID":597752,"DIS_CODE":0,"TOWNNAME":"永康區","LI":"大灣里","LIN":"27鄰","STREET":"中灣五街","SECT":" ","MAREA":" ","LANE":" ","ALLEY":" ","HOUSE_NO":"３６號","E_COORD97":175134.84,"N_COORD97":2545229.3900000001,"ADDRESS":"中灣五街３６號","OBJECTID":597725},"geometry":{"x":175134.84000000078,"y":2545229.3900000043}},{"attributes":{"ID":597753,"DIS_CODE":0,"TOWNNAME":"仁德區","LI":"太子里","LIN":"27鄰","STREET":"太子路","SECT":" ","MAREA":" ","LANE":" ","ALLEY":" ","HOUSE_NO":"７０７之４號","E_COORD97":173222.89999999999,"N_COORD97":2543493.79,"ADDRESS":"太子路７０７之４號","OBJECTID":597726},"geometry":{"x":173222.90000000037,"y":2543493.790000001}},{"attributes":{"ID":597754,"DIS_CODE":0,"TOWNNAME":"永康區","LI":"大橋里","LIN":"27鄰","STREET":"大橋一街","SECT":" ","MAREA":" ","LANE":" ","ALLEY":" ","HOUSE_NO":"２５９號","E_COORD97":171327.53,"N_COORD97":2546691.2400000002,"ADDRESS":"大橋一街２５９號","OBJECTID":597727},"geometry":{"x":171327.53000000212,"y":2546691.2400000039}},{"attributes":{"ID":597755,"DIS_CODE":0,"TOWNNAME":"東區","LI":"後甲里","LIN":"27鄰","STREET":"建東街","SECT":" ","MAREA":" ","LANE":" ","ALLEY":" ","HOUSE_NO":"３４號","E_COORD97":171791.62,"N_COORD97":2543379.7799999998,"ADDRESS":"建東街３４號","OBJECTID":597728},"geometry":{"x":171791.62000000104,"y":2543379.7799999993}},{"attributes":{"ID":597756,"DIS_CODE":0,"TOWNNAME":"仁德區","LI":"成功里","LIN":"27鄰","STREET":"成功一街","SECT":" ","MAREA":" ","LANE":" ","ALLEY":" ","HOUSE_NO":"２２號","E_COORD97":170528.60000000001,"N_COORD97":2540133.52,"ADDRESS":"成功一街２２號","OBJECTID":597729},"geometry":{"x":170528.60000000056,"y":2540133.5199999996}},{"attributes":{"ID":597757,"DIS_CODE":0,"TOWNNAME":"永康區","LI":"中興里","LIN":"27鄰","STREET":"中興街","SECT":" ","MAREA":" ","LANE":" ","ALLEY":" ","HOUSE_NO":"８７號","E_COORD97":172066.04000000001,"N_COORD97":2545337.7400000002,"ADDRESS":"中興街８７號","OBJECTID":597730},"geometry":{"x":172066.04000000004,"y":2545337.7400000002}},{"attributes":{"ID":597758,"DIS_CODE":0,"TOWNNAME":"永康區","LI":"中興里","LIN":"27鄰","STREET":"中山東路","SECT":" ","MAREA":" ","LANE":" ","ALLEY":" ","HOUSE_NO":"３３１號","E_COORD97":171907.26000000001,"N_COORD97":2545308.02,"ADDRESS":"中山東路３３１號","OBJECTID":597731},"geometry":{"x":171907.26000000071,"y":2545308.0199999996}},{"attributes":{"ID":597759,"DIS_CODE":0,"TOWNNAME":"安南區","LI":"安富里","LIN":"27鄰","STREET":"安寧街","SECT":" ","MAREA":" ","LANE":" ","ALLEY":" ","HOUSE_NO":"４號","E_COORD97":167433.38,"N_COORD97":2546878.6800000002,"ADDRESS":"安寧街４號","OBJECTID":597732},"geometry":{"x":167433.37999999989,"y":2546878.6800000016}},{"attributes":{"ID":597760,"DIS_CODE":0,"TOWNNAME":"永康區","LI":"\u25A0行里","LIN":"27鄰","STREET":"\u25A0信街","SECT":" ","MAREA":" ","LANE":" ","ALLEY":" ","HOUSE_NO":"２８９號","E_COORD97":171176.39000000001,"N_COORD97":2547997.5,"ADDRESS":"\u25A0信街２８９號","OBJECTID":597733},"geometry":{"x":171176.38999999966,"y":2547997.4999999981}},{"attributes":{"ID":597761,"DIS_CODE":0,"TOWNNAME":"安南區","LI":"安富里","LIN":"27鄰","STREET":"安寧街","SECT":" ","MAREA":" ","LANE":" ","ALLEY":" ","HOUSE_NO":"１０８號","E_COORD97":167382.39000000001,"N_COORD97":2547157.4199999999,"ADDRESS":"安寧街１０８號","OBJECTID":597734},"geometry":{"x":167382.38999999966,"y":2547157.4200000037}},{"attributes":{"ID":597762,"DIS_CODE":0,"TOWNNAME":"安南區","LI":"安富里","LIN":"27鄰","STREET":"安寧街","SECT":" ","MAREA":" ","LANE":" ","ALLEY":" ","HOUSE_NO":"９８號","E_COORD97":167387.78,"N_COORD97":2547130.4900000002,"ADDRESS":"安寧街９８號","OBJECTID":597735},"geometry":{"x":167387.78000000212,"y":2547130.4900000021}},{"attributes":{"ID":597763,"DIS_CODE":0,"TOWNNAME":"永康區","LI":"勝利里","LIN":"27鄰","STREET":"勝利街","SECT":" ","MAREA":" ","LANE":" ","ALLEY":" ","HOUSE_NO":"６４號","E_COORD97":171349.62,"N_COORD97":2544694.96,"ADDRESS":"勝利街６４號","OBJECTID":597736},"geometry":{"x":171349.62000000011,"y":2544694.9600000028}},{"attributes":{"ID":597764,"DIS_CODE":0,"TOWNNAME":"永康區","LI":"甲頂里","LIN":"27鄰","STREET":"小北路","SECT":" ","MAREA":" ","LANE":" ","ALLEY":" ","HOUSE_NO":"２６號","E_COORD97":169607.41,"N_COORD97":2546843.8399999999,"ADDRESS":"小北路２６號","OBJECTID":597737},"geometry":{"x":169607.40999999922,"y":2546843.8400000017}},{"attributes":{"ID":597765,"DIS_CODE":0,"TOWNNAME":"永康區","LI":"大橋里","LIN":"27鄰","STREET":"大橋一街","SECT":" ","MAREA":" ","LANE":" ","ALLEY":" ","HOUSE_NO":"２５７號","E_COORD97":171322.92999999999,"N_COORD97":2546688.4900000002,"ADDRESS":"大橋一街２５７號","OBJECTID":597738},"geometry":{"x":171322.93000000063,"y":2546688.4900000002}},{"attributes":{"ID":597766,"DIS_CODE":0,"TOWNNAME":"仁德區","LI":"仁義里","LIN":"27鄰","STREET":"正義二街","SECT":" ","MAREA":" ","LANE":" ","ALLEY":" ","HOUSE_NO":"１３２號","E_COORD97":173816.59,"N_COORD97":2541555.52,"ADDRESS":"正義二街１３２號","OBJECTID":597739},"geometry":{"x":173816.58999999985,"y":2541555.5200000033}},{"attributes":{"ID":597767,"DIS_CODE":0,"TOWNNAME":"仁德區","LI":"仁義里","LIN":"27鄰","STREET":"中清路","SECT":" ","MAREA":" ","LANE":" ","ALLEY":" ","HOUSE_NO":"１８２之１號","E_COORD97":173747.76999999999,"N_COORD97":2541548.0699999998,"ADDRESS":"中清路１８２之１號","OBJECTID":597740},"geometry":{"x":173747.77000000048,"y":2541548.0700000003}},{"attributes":{"ID":597768,"DIS_CODE":0,"TOWNNAME":"仁德區","LI":"仁義里","LIN":"27鄰","STREET":"中清路","SECT":" ","MAREA":" ","LANE":" ","ALLEY":" ","HOUSE_NO":"１７６之１號","E_COORD97":173742.14999999999,"N_COORD97":2541529.5600000001,"ADDRESS":"中清路１７６之１號","OBJECTID":597741},"geometry":{"x":173742.15000000037,"y":2541529.5600000024}},{"attributes":{"ID":597769,"DIS_CODE":0,"TOWNNAME":"仁德區","LI":"仁義里","LIN":"27鄰","STREET":"正義二街","SECT":" ","MAREA":" ","LANE":" ","ALLEY":" ","HOUSE_NO":"１３４號","E_COORD97":173811.70000000001,"N_COORD97":2541554.77,"ADDRESS":"正義二街１３４號","OBJECTID":597742},"geometry":{"x":173811.70000000112,"y":2541554.7700000014}},{"attributes":{"ID":597770,"DIS_CODE":0,"TOWNNAME":"仁德區","LI":"仁義里","LIN":"27鄰","STREET":"正義二街","SECT":" ","MAREA":" ","LANE":" ","ALLEY":" ","HOUSE_NO":"１１４號","E_COORD97":173781.63,"N_COORD97":2541548.77,"ADDRESS":"正義二街１１４號","OBJECTID":597743},"geometry":{"x":173781.63000000082,"y":2541548.7699999996}},{"attributes":{"ID":597771,"DIS_CODE":0,"TOWNNAME":"仁德區","LI":"仁義里","LIN":"27鄰","STREET":"中清路","SECT":" ","MAREA":" ","LANE":" ","ALLEY":" ","HOUSE_NO":"１８０號","E_COORD97":173744.51999999999,"N_COORD97":2541538.7999999998,"ADDRESS":"中清路１８０號","OBJECTID":597744},"geometry":{"x":173744.52000000048,"y":2541538.8000000026}},{"attributes":{"ID":597772,"DIS_CODE":0,"TOWNNAME":"仁德區","LI":"仁義里","LIN":"27鄰","STREET":"正義二街","SECT":" ","MAREA":" ","LANE":" ","ALLEY":" ","HOUSE_NO":"１４２號","E_COORD97":173793.37,"N_COORD97":2541557.02,"ADDRESS":"正義二街１４２號","OBJECTID":597745},"geometry":{"x":173793.37000000104,"y":2541557.0200000014}},{"attributes":{"ID":597773,"DIS_CODE":0,"TOWNNAME":"仁德區","LI":"仁義里","LIN":"27鄰","STREET":"正義二街","SECT":" ","MAREA":" ","LANE":" ","ALLEY":" ","HOUSE_NO":"１３８號","E_COORD97":173802.10999999999,"N_COORD97":2541555.77,"ADDRESS":"正義二街１３８號","OBJECTID":597746},"geometry":{"x":173802.11000000127,"y":2541555.7699999996}},{"attributes":{"ID":597774,"DIS_CODE":0,"TOWNNAME":"仁德區","LI":"仁義里","LIN":"27鄰","STREET":"中清路","SECT":" ","MAREA":" ","LANE":" ","ALLEY":" ","HOUSE_NO":"１９０號","E_COORD97":173745.89999999999,"N_COORD97":2541562.5499999998,"ADDRESS":"中清路１９０號","OBJECTID":597747},"geometry":{"x":173745.90000000224,"y":2541562.5500000007}},{"attributes":{"ID":597775,"DIS_CODE":0,"TOWNNAME":"仁德區","LI":"仁義里","LIN":"27鄰","STREET":"中清路","SECT":" ","MAREA":" ","LANE":" ","ALLEY":" ","HOUSE_NO":"１８６號","E_COORD97":173745.67999999999,"N_COORD97":2541552.7999999998,"ADDRESS":"中清路１８６號","OBJECTID":597748},"geometry":{"x":173745.68000000063,"y":2541552.8000000026}},{"attributes":{"ID":597776,"DIS_CODE":0,"TOWNNAME":"仁德區","LI":"仁義里","LIN":"27鄰","STREET":"正義二街","SECT":" ","MAREA":" ","LANE":" ","ALLEY":" ","HOUSE_NO":"１１８號","E_COORD97":173791.09,"N_COORD97":2541547.52,"ADDRESS":"正義二街１１８號","OBJECTID":597749},"geometry":{"x":173791.08999999985,"y":2541547.5199999996}},{"attributes":{"ID":597777,"DIS_CODE":0,"TOWNNAME":"仁德區","LI":"仁義里","LIN":"27鄰","STREET":"中清路","SECT":" ","MAREA":" ","LANE":" ","ALLEY":" ","HOUSE_NO":"１９６號","E_COORD97":173747.75,"N_COORD97":2541577.0499999998,"ADDRESS":"中清路１９６號","OBJECTID":597750},"geometry":{"x":173747.75,"y":2541577.0500000045}},{"attributes":{"ID":597778,"DIS_CODE":0,"TOWNNAME":"仁德區","LI":"仁義里","LIN":"27鄰","STREET":"中清路","SECT":" ","MAREA":" ","LANE":" ","ALLEY":" ","HOUSE_NO":"１９２之１號","E_COORD97":173749.48999999999,"N_COORD97":2541572.5699999998,"ADDRESS":"中清路１９２之１號","OBJECTID":597751},"geometry":{"x":173749.49000000022,"y":2541572.5700000003}},{"attributes":{"ID":597779,"DIS_CODE":0,"TOWNNAME":"仁德區","LI":"仁義里","LIN":"27鄰","STREET":"正義二街","SECT":" ","MAREA":" ","LANE":" ","ALLEY":" ","HOUSE_NO":"１０８號","E_COORD97":173767.89999999999,"N_COORD97":2541550.52,"ADDRESS":"正義二街１０８號","OBJECTID":597752},"geometry":{"x":173767.90000000224,"y":2541550.5199999996}},{"attributes":{"ID":597780,"DIS_CODE":0,"TOWNNAME":"仁德區","LI":"仁義里","LIN":"27鄰","STREET":"正義二街","SECT":" ","MAREA":" ","LANE":" ","ALLEY":" ","HOUSE_NO":"１０６號","E_COORD97":173763.09,"N_COORD97":2541550.77,"ADDRESS":"正義二街１０６號","OBJECTID":597753},"geometry":{"x":173763.09000000078,"y":2541550.7700000014}},{"attributes":{"ID":597781,"DIS_CODE":0,"TOWNNAME":"仁德區","LI":"仁義里","LIN":"27鄰","STREET":"正義二街","SECT":" ","MAREA":" ","LANE":" ","ALLEY":" ","HOUSE_NO":"１４８號","E_COORD97":173779.17000000001,"N_COORD97":2541558.77,"ADDRESS":"正義二街１４８號","OBJECTID":597754},"geometry":{"x":173779.17000000179,"y":2541558.7700000014}},{"attributes":{"ID":597782,"DIS_CODE":0,"TOWNNAME":"仁德區","LI":"仁義里","LIN":"27鄰","STREET":"正義二街","SECT":" ","MAREA":" ","LANE":" ","ALLEY":" ","HOUSE_NO":"１２４號","E_COORD97":173805.07999999999,"N_COORD97":2541545.27,"ADDRESS":"正義二街１２４號","OBJECTID":597755},"geometry":{"x":173805.08000000007,"y":2541545.2700000014}},{"attributes":{"ID":597783,"DIS_CODE":0,"TOWNNAME":"仁德區","LI":"仁義里","LIN":"27鄰","STREET":"正義二街","SECT":" ","MAREA":" ","LANE":" ","ALLEY":" ","HOUSE_NO":"１１０號","E_COORD97":173772.62,"N_COORD97":2541550.02,"ADDRESS":"正義二街１１０號","OBJECTID":597756},"geometry":{"x":173772.62000000011,"y":2541550.0200000014}},{"attributes":{"ID":597784,"DIS_CODE":0,"TOWNNAME":"仁德區","LI":"仁義里","LIN":"27鄰","STREET":"中清路","SECT":" ","MAREA":" ","LANE":" ","ALLEY":" ","HOUSE_NO":"１９２號","E_COORD97":173746.37,"N_COORD97":2541567.5499999998,"ADDRESS":"中清路１９２號","OBJECTID":597757},"geometry":{"x":173746.37000000104,"y":2541567.5500000026}},{"attributes":{"ID":597785,"DIS_CODE":0,"TOWNNAME":"仁德區","LI":"太子里","LIN":"27鄰","STREET":"大吉路","SECT":" ","MAREA":" ","LANE":" ","ALLEY":" ","HOUSE_NO":"１９６號","E_COORD97":173350.09,"N_COORD97":2543340.5,"ADDRESS":"大吉路１９６號","OBJECTID":597758},"geometry":{"x":173350.08999999985,"y":2543340.5000000019}},{"attributes":{"ID":597786,"DIS_CODE":0,"TOWNNAME":"仁德區","LI":"太子里","LIN":"27鄰","STREET":"大發路","SECT":" ","MAREA":" ","LANE":" ","ALLEY":" ","HOUSE_NO":"２７８號","E_COORD97":173287.57926599999,"N_COORD97":2543211.0561600002,"ADDRESS":"大發路２７８號","OBJECTID":597759},"geometry":{"x":173287.57926599961,"y":2543211.0561570004}},{"attributes":{"ID":597787,"DIS_CODE":0,"TOWNNAME":"官田區","LI":"隆本里","LIN":"27鄰","STREET":"勝利路","SECT":" ","MAREA":" ","LANE":" ","ALLEY":" ","HOUSE_NO":"４０號","E_COORD97":179904.35999999999,"N_COORD97":2565899.7599999998,"ADDRESS":"勝利路４０號","OBJECTID":597760},"geometry":{"x":179904.36000000034,"y":2565899.7599999998}},{"attributes":{"ID":597788,"DIS_CODE":0,"TOWNNAME":"善化區","LI":"光文里","LIN":"27鄰","STREET":"中山路","SECT":" ","MAREA":" ","LANE":" ","ALLEY":" ","HOUSE_NO":"２８６號之５","E_COORD97":177853.14000000001,"N_COORD97":2559087.02,"ADDRESS":"中山路２８６號之５","OBJECTID":597761},"geometry":{"x":177853.1400000006,"y":2559087.0200000033}},{"attributes":{"ID":597789,"DIS_CODE":0,"TOWNNAME":"善化區","LI":"光文里","LIN":"27鄰","STREET":"中山路","SECT":" ","MAREA":" ","LANE":" ","ALLEY":" ","HOUSE_NO":"２７０號之１","E_COORD97":177932.01000000001,"N_COORD97":2559096.52,"ADDRESS":"中山路２７０號之１","OBJECTID":597762},"geometry":{"x":177932.01000000071,"y":2559096.5199999996}},{"attributes":{"ID":597790,"DIS_CODE":0,"TOWNNAME":"善化區","LI":"光文里","LIN":"27鄰","STREET":"中山路","SECT":" ","MAREA":" ","LANE":" ","ALLEY":" ","HOUSE_NO":"２６２號","E_COORD97":177969.92000000001,"N_COORD97":2559161,"ADDRESS":"中山路２６２號","OBJECTID":597763},"geometry":{"x":177969.92000000086,"y":2559161}},{"attributes":{"ID":597791,"DIS_CODE":0,"TOWNNAME":"善化區","LI":"光文里","LIN":"27鄰","STREET":"中山路","SECT":" ","MAREA":" ","LANE":" ","ALLEY":" ","HOUSE_NO":"２８６號之４","E_COORD97":177857.39999999999,"N_COORD97":2559087.02,"ADDRESS":"中山路２８６號之４","OBJECTID":597764},"geometry":{"x":177857.4000000013,"y":2559087.0200000033}},{"attributes":{"ID":597792,"DIS_CODE":0,"TOWNNAME":"善化區","LI":"光文里","LIN":"27鄰","STREET":"中山路","SECT":" ","MAREA":" ","LANE":" ","ALLEY":" ","HOUSE_NO":"２４６號","E_COORD97":178022.12,"N_COORD97":2559110.25,"ADDRESS":"中山路２４６號","OBJECTID":597765},"geometry":{"x":178022.12000000011,"y":2559110.2500000019}},{"attributes":{"ID":597793,"DIS_CODE":0,"TOWNNAME":"善化區","LI":"光文里","LIN":"27鄰","STREET":"中山路","SECT":" ","MAREA":" ","LANE":" ","ALLEY":" ","HOUSE_NO":"３００號","E_COORD97":177818.57999999999,"N_COORD97":2559091.25,"ADDRESS":"中山路３００號","OBJECTID":597766},"geometry":{"x":177818.58000000101,"y":2559091.25}},{"attributes":{"ID":597794,"DIS_CODE":0,"TOWNNAME":"善化區","LI":"光文里","LIN":"27鄰","STREET":"中山路","SECT":" ","MAREA":" ","LANE":" ","ALLEY":" ","HOUSE_NO":"２９４號","E_COORD97":177834.39999999999,"N_COORD97":2559088.5800000001,"ADDRESS":"中山路２９４號","OBJECTID":597767},"geometry":{"x":177834.40000000037,"y":2559088.5800000019}},{"attributes":{"ID":597795,"DIS_CODE":0,"TOWNNAME":"善化區","LI":"光文里","LIN":"27鄰","STREET":"中山路","SECT":" ","MAREA":" ","LANE":" ","ALLEY":" ","HOUSE_NO":"２７０號之５","E_COORD97":177916.79000000001,"N_COORD97":2559089.27,"ADDRESS":"中山路２７０號之５","OBJECTID":597768},"geometry":{"x":177916.79000000097,"y":2559089.2700000014}},{"attributes":{"ID":597796,"DIS_CODE":0,"TOWNNAME":"善化區","LI":"光文里","LIN":"27鄰","STREET":"中山路","SECT":" ","MAREA":" ","LANE":" ","ALLEY":" ","HOUSE_NO":"２７０號之２","E_COORD97":177919.42000000001,"N_COORD97":2559129.02,"ADDRESS":"中山路２７０號之２","OBJECTID":597769},"geometry":{"x":177919.42000000086,"y":2559129.0200000014}},{"attributes":{"ID":597797,"DIS_CODE":0,"TOWNNAME":"新市區","LI":"新和里","LIN":"27鄰","STREET":"永福街","SECT":" ","MAREA":" ","LANE":" ","ALLEY":" ","HOUSE_NO":"４６號","E_COORD97":177733.78,"N_COORD97":2552700.75,"ADDRESS":"永福街４６號","OBJECTID":597770},"geometry":{"x":177733.78000000119,"y":2552700.75}},{"attributes":{"ID":597798,"DIS_CODE":0,"TOWNNAME":"新市區","LI":"港墘里","LIN":"27鄰","STREET":"華美街","SECT":" ","MAREA":" ","LANE":" ","ALLEY":" ","HOUSE_NO":"５５號","E_COORD97":178162.42999999999,"N_COORD97":2552994.0499999998,"ADDRESS":"華美街５５號","OBJECTID":597771},"geometry":{"x":178162.42999999877,"y":2552994.0500000007}},{"attributes":{"ID":597799,"DIS_CODE":0,"TOWNNAME":"新市區","LI":"新和里","LIN":"27鄰","STREET":"忠孝街","SECT":" ","MAREA":" ","LANE":" ","ALLEY":" ","HOUSE_NO":"１６５號","E_COORD97":177711.23000000001,"N_COORD97":2552743.5,"ADDRESS":"忠孝街１６５號","OBJECTID":597772},"geometry":{"x":177711.23000000045,"y":2552743.5}},{"attributes":{"ID":597800,"DIS_CODE":0,"TOWNNAME":"新市區","LI":"新和里","LIN":"27鄰","STREET":"永福街","SECT":" ","MAREA":" ","LANE":" ","ALLEY":" ","HOUSE_NO":"６２號","E_COORD97":177667.78,"N_COORD97":2552713.75,"ADDRESS":"永福街６２號","OBJECTID":597773},"geometry":{"x":177667.78000000119,"y":2552713.7500000019}},{"attributes":{"ID":597801,"DIS_CODE":0,"TOWNNAME":"仁德區","LI":"太子里","LIN":"27鄰","STREET":"太子路","SECT":" ","MAREA":" ","LANE":" ","ALLEY":" ","HOUSE_NO":"４６２號","E_COORD97":173394.28,"N_COORD97":2543556.75,"ADDRESS":"太子路４６２號","OBJECTID":597774},"geometry":{"x":173394.28000000119,"y":2543556.75}},{"attributes":{"ID":597802,"DIS_CODE":0,"TOWNNAME":"仁德區","LI":"太子里","LIN":"27鄰","STREET":"大發路","SECT":" ","MAREA":" ","LANE":" ","ALLEY":" ","HOUSE_NO":"３６３號","E_COORD97":173260.92000000001,"N_COORD97":2543489.5099999998,"ADDRESS":"大發路３６３號","OBJECTID":597775},"geometry":{"x":173260.92000000086,"y":2543489.5100000016}},{"attributes":{"ID":597803,"DIS_CODE":0,"TOWNNAME":"仁德區","LI":"後壁里","LIN":"27鄰","STREET":"中正路","SECT":"二段","MAREA":" ","LANE":" ","ALLEY":" ","HOUSE_NO":"２９９號之１","E_COORD97":173236.82999999999,"N_COORD97":2539094.0499999998,"ADDRESS":"中正路二段２９９號之１","OBJECTID":597776},"geometry":{"x":173236.83000000007,"y":2539094.0500000007}},{"attributes":{"ID":597804,"DIS_CODE":0,"TOWNNAME":"仁德區","LI":"太子里","LIN":"27鄰","STREET":"太子路","SECT":" ","MAREA":" ","LANE":" ","ALLEY":" ","HOUSE_NO":"４７２號","E_COORD97":173303.54000000001,"N_COORD97":2543537.7599999998,"ADDRESS":"太子路４７２號","OBJECTID":597777},"geometry":{"x":173303.54000000004,"y":2543537.7600000016}},{"attributes":{"ID":597805,"DIS_CODE":0,"TOWNNAME":"仁德區","LI":"太子里","LIN":"27鄰","STREET":"太子路","SECT":" ","MAREA":" ","LANE":" ","ALLEY":" ","HOUSE_NO":"４７６號","E_COORD97":173244.97,"N_COORD97":2543539.0099999998,"ADDRESS":"太子路４７６號","OBJECTID":597778},"geometry":{"x":173244.97000000067,"y":2543539.0100000035}},{"attributes":{"ID":597806,"DIS_CODE":0,"TOWNNAME":"仁德區","LI":"太子里","LIN":"27鄰","STREET":"太子四街","SECT":" ","MAREA":" ","LANE":" ","ALLEY":" ","HOUSE_NO":"１之４號","E_COORD97":173197.72,"N_COORD97":2543401.0499999998,"ADDRESS":"太子四街１之４號","OBJECTID":597779},"geometry":{"x":173197.72000000067,"y":2543401.0500000045}},{"attributes":{"ID":597807,"DIS_CODE":0,"TOWNNAME":"仁德區","LI":"太子里","LIN":"27鄰","STREET":"太子四街","SECT":" ","MAREA":" ","LANE":" ","ALLEY":" ","HOUSE_NO":"１之３號","E_COORD97":173168.28,"N_COORD97":2543396.04,"ADDRESS":"太子四街１之３號","OBJECTID":597780},"geometry":{"x":173168.27999999933,"y":2543396.0400000028}},{"attributes":{"ID":597808,"DIS_CODE":0,"TOWNNAME":"仁德區","LI":"太子里","LIN":"27鄰","STREET":"太子四街","SECT":" ","MAREA":" ","LANE":" ","ALLEY":" ","HOUSE_NO":"１之１號","E_COORD97":173170.95000000001,"N_COORD97":2543416.0499999998,"ADDRESS":"太子四街１之１號","OBJECTID":597781},"geometry":{"x":173170.95000000112,"y":2543416.0500000026}},{"attributes":{"ID":597809,"DIS_CODE":0,"TOWNNAME":"仁德區","LI":"太子里","LIN":"27鄰","STREET":"大發路","SECT":" ","MAREA":" ","LANE":" ","ALLEY":" ","HOUSE_NO":"３３１號","E_COORD97":173262.12,"N_COORD97":2543399.0099999998,"ADDRESS":"大發路３３１號","OBJECTID":597782},"geometry":{"x":173262.12000000011,"y":2543399.0099999998}},{"attributes":{"ID":597810,"DIS_CODE":0,"TOWNNAME":"永康區","LI":"甲頂里","LIN":"27鄰","STREET":"小北路","SECT":" ","MAREA":" ","LANE":" ","ALLEY":" ","HOUSE_NO":"１８號","E_COORD97":169511.19,"N_COORD97":2546765.8500000001,"ADDRESS":"小北路１８號","OBJECTID":597783},"geometry":{"x":169511.19000000134,"y":2546765.8500000015}},{"attributes":{"ID":597811,"DIS_CODE":0,"TOWNNAME":"永康區","LI":"甲頂里","LIN":"27鄰","STREET":"小北路","SECT":" ","MAREA":" ","LANE":" ","ALLEY":" ","HOUSE_NO":"１８之１號","E_COORD97":169536.48000000001,"N_COORD97":2546741.6200000001,"ADDRESS":"小北路１８之１號","OBJECTID":597784},"geometry":{"x":169536.48000000138,"y":2546741.6200000029}},{"attributes":{"ID":597812,"DIS_CODE":0,"TOWNNAME":"永康區","LI":"甲頂里","LIN":"27鄰","STREET":"小北路","SECT":" ","MAREA":" ","LANE":" ","ALLEY":" ","HOUSE_NO":"２０號","E_COORD97":169521.72,"N_COORD97":2546775.1200000001,"ADDRESS":"小北路２０號","OBJECTID":597785},"geometry":{"x":169521.71999999974,"y":2546775.1200000029}},{"attributes":{"ID":597813,"DIS_CODE":0,"TOWNNAME":"永康區","LI":"甲頂里","LIN":"27鄰","STREET":"小北路","SECT":" ","MAREA":" ","LANE":" ","ALLEY":" ","HOUSE_NO":"２０之１號","E_COORD97":169525.60000000001,"N_COORD97":2546781.71,"ADDRESS":"小北路２０之１號","OBJECTID":597786},"geometry":{"x":169525.59999999963,"y":2546781.7100000028}},{"attributes":{"ID":597814,"DIS_CODE":0,"TOWNNAME":"永康區","LI":"甲頂里","LIN":"27鄰","STREET":"小北路","SECT":" ","MAREA":" ","LANE":" ","ALLEY":" ","HOUSE_NO":"２２之１號","E_COORD97":169541.17000000001,"N_COORD97":2546782.7000000002,"ADDRESS":"小北路２２之１號","OBJECTID":597787},"geometry":{"x":169541.17000000179,"y":2546782.7000000011}},{"attributes":{"ID":597815,"DIS_CODE":0,"TOWNNAME":"仁德區","LI":"成功里","LIN":"27鄰","STREET":"成功一街","SECT":" ","MAREA":" ","LANE":" ","ALLEY":" ","HOUSE_NO":"２０號","E_COORD97":170529.01999999999,"N_COORD97":2540137.2599999998,"ADDRESS":"成功一街２０號","OBJECTID":597788},"geometry":{"x":170529.02000000048,"y":2540137.2600000016}},{"attributes":{"ID":597816,"DIS_CODE":0,"TOWNNAME":"仁德區","LI":"仁義里","LIN":"27鄰","STREET":"中清路","SECT":" ","MAREA":" ","LANE":" ","ALLEY":" ","HOUSE_NO":"１７８號","E_COORD97":173740.39999999999,"N_COORD97":2541535.29,"ADDRESS":"中清路１７８號","OBJECTID":597789},"geometry":{"x":173740.40000000037,"y":2541535.2899999991}},{"attributes":{"ID":597817,"DIS_CODE":0,"TOWNNAME":"官田區","LI":"隆本里","LIN":"27鄰","STREET":"勝利路","SECT":" ","MAREA":" ","LANE":" ","ALLEY":" ","HOUSE_NO":"２６號","E_COORD97":179885.98999999999,"N_COORD97":2565883.8700000001,"ADDRESS":"勝利路２６號","OBJECTID":597790},"geometry":{"x":179885.99000000022,"y":2565883.8700000048}},{"attributes":{"ID":597818,"DIS_CODE":0,"TOWNNAME":"官田區","LI":"隆本里","LIN":"27鄰","STREET":"勝利路","SECT":" ","MAREA":" ","LANE":" ","ALLEY":" ","HOUSE_NO":"２８號","E_COORD97":179888.63,"N_COORD97":2565886.6099999999,"ADDRESS":"勝利路２８號","OBJECTID":597791},"geometry":{"x":179888.62999999989,"y":2565886.6099999994}},{"attributes":{"ID":597819,"DIS_CODE":0,"TOWNNAME":"官田區","LI":"隆本里","LIN":"27鄰","STREET":"勝利路","SECT":" ","MAREA":" ","LANE":" ","ALLEY":" ","HOUSE_NO":"２號","E_COORD97":179834.47,"N_COORD97":2565845.2400000002,"ADDRESS":"勝利路２號","OBJECTID":597792},"geometry":{"x":179834.47000000067,"y":2565845.2400000002}},{"attributes":{"ID":597820,"DIS_CODE":0,"TOWNNAME":"官田區","LI":"隆本里","LIN":"27鄰","STREET":"勝利路","SECT":" ","MAREA":" ","LANE":" ","ALLEY":" ","HOUSE_NO":"３０號","E_COORD97":179891.04999999999,"N_COORD97":2565889.3300000001,"ADDRESS":"勝利路３０號","OBJECTID":597793},"geometry":{"x":179891.05000000168,"y":2565889.3300000001}},{"attributes":{"ID":597821,"DIS_CODE":0,"TOWNNAME":"官田區","LI":"隆本里","LIN":"27鄰","STREET":"勝利路","SECT":" ","MAREA":" ","LANE":" ","ALLEY":" ","HOUSE_NO":"３２號","E_COORD97":179894.97,"N_COORD97":2565893.0600000001,"ADDRESS":"勝利路３２號","OBJECTID":597794},"geometry":{"x":179894.97000000067,"y":2565893.0600000024}},{"attributes":{"ID":597822,"DIS_CODE":0,"TOWNNAME":"官田區","LI":"隆本里","LIN":"27鄰","STREET":"勝利路","SECT":" ","MAREA":" ","LANE":" ","ALLEY":" ","HOUSE_NO":"３６號","E_COORD97":179898.73999999999,"N_COORD97":2565896.96,"ADDRESS":"勝利路３６號","OBJECTID":597795},"geometry":{"x":179898.74000000115,"y":2565896.9600000046}},{"attributes":{"ID":597823,"DIS_CODE":0,"TOWNNAME":"官田區","LI":"隆本里","LIN":"27鄰","STREET":"勝利路","SECT":" ","MAREA":" ","LANE":" ","ALLEY":" ","HOUSE_NO":"４２號","E_COORD97":179907.17999999999,"N_COORD97":2565902.9399999999,"ADDRESS":"勝利路４２號","OBJECTID":597796},"geometry":{"x":179907.18000000063,"y":2565902.9400000013}},{"attributes":{"ID":597824,"DIS_CODE":0,"TOWNNAME":"官田區","LI":"隆本里","LIN":"27鄰","STREET":"勝利路","SECT":" ","MAREA":" ","LANE":" ","ALLEY":" ","HOUSE_NO":"６號","E_COORD97":179856.67000000001,"N_COORD97":2565865.0899999999,"ADDRESS":"勝利路６號","OBJECTID":597797},"geometry":{"x":179856.67000000086,"y":2565865.0900000017}},{"attributes":{"ID":597825,"DIS_CODE":0,"TOWNNAME":"新市區","LI":"港墘里","LIN":"27鄰","STREET":"南昌街","SECT":" ","MAREA":" ","LANE":" ","ALLEY":" ","HOUSE_NO":"５４號","E_COORD97":178021.62,"N_COORD97":2553015,"ADDRESS":"南昌街５４號","OBJECTID":597798},"geometry":{"x":178021.62000000104,"y":2553015}},{"attributes":{"ID":597826,"DIS_CODE":0,"TOWNNAME":"新市區","LI":"新和里","LIN":"27鄰","STREET":"忠孝街","SECT":" ","MAREA":" ","LANE":" ","ALLEY":" ","HOUSE_NO":"１５３號","E_COORD97":177706.32000000001,"N_COORD97":2552718,"ADDRESS":"忠孝街１５３號","OBJECTID":597799},"geometry":{"x":177706.32000000216,"y":2552718.0000000019}},{"attributes":{"ID":597827,"DIS_CODE":0,"TOWNNAME":"新市區","LI":"新和里","LIN":"27鄰","STREET":"永福街","SECT":" ","MAREA":" ","LANE":" ","ALLEY":" ","HOUSE_NO":"３６號","E_COORD97":177754.23000000001,"N_COORD97":2552696.75,"ADDRESS":"永福街３６號","OBJECTID":597800},"geometry":{"x":177754.23000000045,"y":2552696.7500000019}}]}