{"displayFieldName":"TOWNNAME","fieldAliases":{"ID":"ID","DIS_CODE":"DIS_CODE","TOWNNAME":"TOWNNAME","LI":"LI","LIN":"LIN","STREET":"STREET","SECT":"SECT","MAREA":"MAREA","LANE":"LANE","ALLEY":"ALLEY","HOUSE_NO":"HOUSE_NO","E_COORD97":"E_COORD97","N_COORD97":"N_COORD97","ADDRESS":"ADDRESS","OBJECTID":"OBJECTID"},"geometryType":"esriGeometryPoint","spatialReference":{"wkid":102443,"latestWkid":3826},"fields":[{"name":"ID","type":"esriFieldTypeDouble","alias":"ID"},{"name":"DIS_CODE","type":"esriFieldTypeInteger","alias":"DIS_CODE"},{"name":"TOWNNAME","type":"esriFieldTypeString","alias":"TOWNNAME","length":8},{"name":"LI","type":"esriFieldTypeString","alias":"LI","length":8},{"name":"LIN","type":"esriFieldTypeString","alias":"LIN","length":12},{"name":"STREET","type":"esriFieldTypeString","alias":"STREET","length":20},{"name":"SECT","type":"esriFieldTypeString","alias":"SECT","length":8},{"name":"MAREA","type":"esriFieldTypeString","alias":"MAREA","length":12},{"name":"LANE","type":"esriFieldTypeString","alias":"LANE","length":10},{"name":"ALLEY","type":"esriFieldTypeString","alias":"ALLEY","length":10},{"name":"HOUSE_NO","type":"esriFieldTypeString","alias":"HOUSE_NO","length":20},{"name":"E_COORD97","type":"esriFieldTypeDouble","alias":"E_COORD97"},{"name":"N_COORD97","type":"esriFieldTypeDouble","alias":"N_COORD97"},{"name":"ADDRESS","type":"esriFieldTypeString","alias":"ADDRESS","length":50},{"name":"OBJECTID","type":"esriFieldTypeOID","alias":"OBJECTID"}],"features":[{"attributes":{"ID":594428,"DIS_CODE":0,"TOWNNAME":"東區","LI":"東聖里","LIN":"16鄰","STREET":"中華東路","SECT":"二段","MAREA":" ","LANE":" ","ALLEY":" ","HOUSE_NO":"７５號地下貳層","E_COORD97":171422.31,"N_COORD97":2543002.3399999999,"ADDRESS":"中華東路二段７５號地下貳層","OBJECTID":594401},"geometry":{"x":171422.30999999959,"y":2543002.3400000017}},{"attributes":{"ID":594429,"DIS_CODE":0,"TOWNNAME":"麻豆區","LI":"中興里","LIN":"11鄰","STREET":"興國路","SECT":" ","MAREA":" ","LANE":" ","ALLEY":" ","HOUSE_NO":"５６號之１１九樓","E_COORD97":172947.67999999999,"N_COORD97":2564178.7200000002,"ADDRESS":"興國路５６號之１１九樓","OBJECTID":594402},"geometry":{"x":172947.6799999997,"y":2564178.7200000007}},{"attributes":{"ID":594430,"DIS_CODE":0,"TOWNNAME":"麻豆區","LI":"中興里","LIN":"11鄰","STREET":"興國路","SECT":" ","MAREA":" ","LANE":" ","ALLEY":" ","HOUSE_NO":"５６號之１１八樓","E_COORD97":172947.67999999999,"N_COORD97":2564178.7200000002,"ADDRESS":"興國路５６號之１１八樓","OBJECTID":594403},"geometry":{"x":172947.6799999997,"y":2564178.7200000007}},{"attributes":{"ID":594431,"DIS_CODE":0,"TOWNNAME":"麻豆區","LI":"中興里","LIN":"11鄰","STREET":"興國路","SECT":" ","MAREA":" ","LANE":" ","ALLEY":" ","HOUSE_NO":"５６號之１１十一樓","E_COORD97":172947.67999999999,"N_COORD97":2564178.7200000002,"ADDRESS":"興國路５６號之１１十一樓","OBJECTID":594404},"geometry":{"x":172947.6799999997,"y":2564178.7200000007}},{"attributes":{"ID":594432,"DIS_CODE":0,"TOWNNAME":"麻豆區","LI":"中興里","LIN":"11鄰","STREET":"興國路","SECT":" ","MAREA":" ","LANE":" ","ALLEY":" ","HOUSE_NO":"５６號之１１十樓","E_COORD97":172947.67999999999,"N_COORD97":2564178.7200000002,"ADDRESS":"興國路５６號之１１十樓","OBJECTID":594405},"geometry":{"x":172947.6799999997,"y":2564178.7200000007}},{"attributes":{"ID":594433,"DIS_CODE":0,"TOWNNAME":"麻豆區","LI":"中興里","LIN":"11鄰","STREET":"興國路","SECT":" ","MAREA":" ","LANE":" ","ALLEY":" ","HOUSE_NO":"５６號之１１五樓","E_COORD97":172947.67999999999,"N_COORD97":2564178.7200000002,"ADDRESS":"興國路５６號之１１五樓","OBJECTID":594406},"geometry":{"x":172947.6799999997,"y":2564178.7200000007}},{"attributes":{"ID":594434,"DIS_CODE":0,"TOWNNAME":"麻豆區","LI":"中興里","LIN":"11鄰","STREET":"興國路","SECT":" ","MAREA":" ","LANE":" ","ALLEY":" ","HOUSE_NO":"５６號之１１六樓","E_COORD97":172947.67999999999,"N_COORD97":2564178.7200000002,"ADDRESS":"興國路５６號之１１六樓","OBJECTID":594407},"geometry":{"x":172947.6799999997,"y":2564178.7200000007}},{"attributes":{"ID":594435,"DIS_CODE":0,"TOWNNAME":"麻豆區","LI":"中興里","LIN":"11鄰","STREET":"興國路","SECT":" ","MAREA":" ","LANE":" ","ALLEY":" ","HOUSE_NO":"５６號之１２七樓","E_COORD97":172929.20000000001,"N_COORD97":2564172.27,"ADDRESS":"興國路５６號之１２七樓","OBJECTID":594408},"geometry":{"x":172929.20000000019,"y":2564172.2700000014}},{"attributes":{"ID":594436,"DIS_CODE":0,"TOWNNAME":"麻豆區","LI":"中興里","LIN":"11鄰","STREET":"興國路","SECT":" ","MAREA":" ","LANE":" ","ALLEY":" ","HOUSE_NO":"５６號之１２九樓","E_COORD97":172929.20000000001,"N_COORD97":2564172.27,"ADDRESS":"興國路５６號之１２九樓","OBJECTID":594409},"geometry":{"x":172929.20000000019,"y":2564172.2700000014}},{"attributes":{"ID":594437,"DIS_CODE":0,"TOWNNAME":"麻豆區","LI":"中興里","LIN":"11鄰","STREET":"興國路","SECT":" ","MAREA":" ","LANE":" ","ALLEY":" ","HOUSE_NO":"５６號之１２二樓","E_COORD97":172929.20000000001,"N_COORD97":2564172.27,"ADDRESS":"興國路５６號之１２二樓","OBJECTID":594410},"geometry":{"x":172929.20000000019,"y":2564172.2700000014}},{"attributes":{"ID":594438,"DIS_CODE":0,"TOWNNAME":"麻豆區","LI":"中興里","LIN":"11鄰","STREET":"興國路","SECT":" ","MAREA":" ","LANE":" ","ALLEY":" ","HOUSE_NO":"５６號之１２八樓","E_COORD97":172929.20000000001,"N_COORD97":2564172.27,"ADDRESS":"興國路５６號之１２八樓","OBJECTID":594411},"geometry":{"x":172929.20000000019,"y":2564172.2700000014}},{"attributes":{"ID":594439,"DIS_CODE":0,"TOWNNAME":"麻豆區","LI":"中興里","LIN":"11鄰","STREET":"興國路","SECT":" ","MAREA":" ","LANE":" ","ALLEY":" ","HOUSE_NO":"５６號之１２十一樓","E_COORD97":172929.20000000001,"N_COORD97":2564172.27,"ADDRESS":"興國路５６號之１２十一樓","OBJECTID":594412},"geometry":{"x":172929.20000000019,"y":2564172.2700000014}},{"attributes":{"ID":594440,"DIS_CODE":0,"TOWNNAME":"麻豆區","LI":"中興里","LIN":"11鄰","STREET":"興國路","SECT":" ","MAREA":" ","LANE":" ","ALLEY":" ","HOUSE_NO":"５６號之１２十樓","E_COORD97":172929.20000000001,"N_COORD97":2564172.27,"ADDRESS":"興國路５６號之１２十樓","OBJECTID":594413},"geometry":{"x":172929.20000000019,"y":2564172.2700000014}},{"attributes":{"ID":594441,"DIS_CODE":0,"TOWNNAME":"麻豆區","LI":"中興里","LIN":"11鄰","STREET":"興國路","SECT":" ","MAREA":" ","LANE":" ","ALLEY":" ","HOUSE_NO":"５６號之１２三樓","E_COORD97":172929.20000000001,"N_COORD97":2564172.27,"ADDRESS":"興國路５６號之１２三樓","OBJECTID":594414},"geometry":{"x":172929.20000000019,"y":2564172.2700000014}},{"attributes":{"ID":594442,"DIS_CODE":0,"TOWNNAME":"麻豆區","LI":"中興里","LIN":"11鄰","STREET":"興國路","SECT":" ","MAREA":" ","LANE":" ","ALLEY":" ","HOUSE_NO":"５６號之１２五樓","E_COORD97":172929.20000000001,"N_COORD97":2564172.27,"ADDRESS":"興國路５６號之１２五樓","OBJECTID":594415},"geometry":{"x":172929.20000000019,"y":2564172.2700000014}},{"attributes":{"ID":594443,"DIS_CODE":0,"TOWNNAME":"麻豆區","LI":"中興里","LIN":"11鄰","STREET":"興國路","SECT":" ","MAREA":" ","LANE":" ","ALLEY":" ","HOUSE_NO":"５６號之１２六樓","E_COORD97":172929.20000000001,"N_COORD97":2564172.27,"ADDRESS":"興國路５６號之１２六樓","OBJECTID":594416},"geometry":{"x":172929.20000000019,"y":2564172.2700000014}},{"attributes":{"ID":594444,"DIS_CODE":0,"TOWNNAME":"麻豆區","LI":"中興里","LIN":"11鄰","STREET":"興國路","SECT":" ","MAREA":" ","LANE":" ","ALLEY":" ","HOUSE_NO":"５６號之１２四樓","E_COORD97":172929.20000000001,"N_COORD97":2564172.27,"ADDRESS":"興國路５６號之１２四樓","OBJECTID":594417},"geometry":{"x":172929.20000000019,"y":2564172.2700000014}},{"attributes":{"ID":594445,"DIS_CODE":0,"TOWNNAME":"東區","LI":"崇善里","LIN":"26鄰","STREET":"崇善十三街","SECT":" ","MAREA":" ","LANE":" ","ALLEY":" ","HOUSE_NO":"１８號","E_COORD97":171267.60000000001,"N_COORD97":2540992.3999999999,"ADDRESS":"崇善十三街１８號","OBJECTID":594418},"geometry":{"x":171267.60000000056,"y":2540992.4000000022}},{"attributes":{"ID":594446,"DIS_CODE":0,"TOWNNAME":"東區","LI":"中西里","LIN":"8鄰","STREET":"勝利路","SECT":" ","MAREA":" ","LANE":" ","ALLEY":" ","HOUSE_NO":"４２號","E_COORD97":169843.69,"N_COORD97":2543518.1099999999,"ADDRESS":"勝利路４２號","OBJECTID":594419},"geometry":{"x":169843.69000000134,"y":2543518.1100000013}},{"attributes":{"ID":594447,"DIS_CODE":0,"TOWNNAME":"東區","LI":"圍下里","LIN":"15鄰","STREET":"育樂街","SECT":" ","MAREA":" ","LANE":" ","ALLEY":" ","HOUSE_NO":"２６０號","E_COORD97":169459.32999999999,"N_COORD97":2543570.5,"ADDRESS":"育樂街２６０號","OBJECTID":594420},"geometry":{"x":169459.33000000101,"y":2543570.5000000019}},{"attributes":{"ID":594448,"DIS_CODE":0,"TOWNNAME":"東區","LI":"龍山里","LIN":"6鄰","STREET":"林森路","SECT":"一段","MAREA":" ","LANE":" ","ALLEY":" ","HOUSE_NO":"３４１號","E_COORD97":170102.62,"N_COORD97":2542774.2599999998,"ADDRESS":"林森路一段３４１號","OBJECTID":594421},"geometry":{"x":170102.61999999918,"y":2542774.2599999998}},{"attributes":{"ID":594449,"DIS_CODE":0,"TOWNNAME":"東區","LI":"龍山里","LIN":"21鄰","STREET":"富德街","SECT":" ","MAREA":" ","LANE":" ","ALLEY":" ","HOUSE_NO":"４６號","E_COORD97":170436.57999999999,"N_COORD97":2542788.0800000001,"ADDRESS":"富德街４６號","OBJECTID":594422},"geometry":{"x":170436.58000000007,"y":2542788.0800000001}},{"attributes":{"ID":594450,"DIS_CODE":0,"TOWNNAME":"麻豆區","LI":"中興里","LIN":"11鄰","STREET":"興國路","SECT":" ","MAREA":" ","LANE":" ","ALLEY":" ","HOUSE_NO":"５６號之１３七樓","E_COORD97":172931.95999999999,"N_COORD97":2564175.7599999998,"ADDRESS":"興國路５６號之１３七樓","OBJECTID":594423},"geometry":{"x":172931.96000000089,"y":2564175.7600000016}},{"attributes":{"ID":594451,"DIS_CODE":0,"TOWNNAME":"東區","LI":"東光里","LIN":"4鄰","STREET":"東興路","SECT":" ","MAREA":" ","LANE":" ","ALLEY":" ","HOUSE_NO":"３６號","E_COORD97":170946.29000000001,"N_COORD97":2543491.3599999999,"ADDRESS":"東興路３６號","OBJECTID":594424},"geometry":{"x":170946.29000000097,"y":2543491.3599999994}},{"attributes":{"ID":594452,"DIS_CODE":0,"TOWNNAME":"麻豆區","LI":"中興里","LIN":"11鄰","STREET":"興國路","SECT":" ","MAREA":" ","LANE":" ","ALLEY":" ","HOUSE_NO":"５６號之１３九樓","E_COORD97":172931.95999999999,"N_COORD97":2564175.7599999998,"ADDRESS":"興國路５６號之１３九樓","OBJECTID":594425},"geometry":{"x":172931.96000000089,"y":2564175.7600000016}},{"attributes":{"ID":594453,"DIS_CODE":0,"TOWNNAME":"麻豆區","LI":"中興里","LIN":"11鄰","STREET":"興國路","SECT":" ","MAREA":" ","LANE":" ","ALLEY":" ","HOUSE_NO":"５６號之１３二樓","E_COORD97":172931.95999999999,"N_COORD97":2564175.7599999998,"ADDRESS":"興國路５６號之１３二樓","OBJECTID":594426},"geometry":{"x":172931.96000000089,"y":2564175.7600000016}},{"attributes":{"ID":594454,"DIS_CODE":0,"TOWNNAME":"麻豆區","LI":"中興里","LIN":"11鄰","STREET":"興國路","SECT":" ","MAREA":" ","LANE":" ","ALLEY":" ","HOUSE_NO":"５６號之１３八樓","E_COORD97":172931.95999999999,"N_COORD97":2564175.7599999998,"ADDRESS":"興國路５６號之１３八樓","OBJECTID":594427},"geometry":{"x":172931.96000000089,"y":2564175.7600000016}},{"attributes":{"ID":594455,"DIS_CODE":0,"TOWNNAME":"麻豆區","LI":"中興里","LIN":"11鄰","STREET":"興國路","SECT":" ","MAREA":" ","LANE":" ","ALLEY":" ","HOUSE_NO":"５６號之１３十一樓","E_COORD97":172931.95999999999,"N_COORD97":2564175.7599999998,"ADDRESS":"興國路５６號之１３十一樓","OBJECTID":594428},"geometry":{"x":172931.96000000089,"y":2564175.7600000016}},{"attributes":{"ID":594456,"DIS_CODE":0,"TOWNNAME":"麻豆區","LI":"中興里","LIN":"11鄰","STREET":"興國路","SECT":" ","MAREA":" ","LANE":" ","ALLEY":" ","HOUSE_NO":"５６號之１３十樓","E_COORD97":172931.95999999999,"N_COORD97":2564175.7599999998,"ADDRESS":"興國路５６號之１３十樓","OBJECTID":594429},"geometry":{"x":172931.96000000089,"y":2564175.7600000016}},{"attributes":{"ID":594457,"DIS_CODE":0,"TOWNNAME":"麻豆區","LI":"中興里","LIN":"11鄰","STREET":"興國路","SECT":" ","MAREA":" ","LANE":" ","ALLEY":" ","HOUSE_NO":"５６號之１３三樓","E_COORD97":172931.95999999999,"N_COORD97":2564175.7599999998,"ADDRESS":"興國路５６號之１３三樓","OBJECTID":594430},"geometry":{"x":172931.96000000089,"y":2564175.7600000016}},{"attributes":{"ID":594458,"DIS_CODE":0,"TOWNNAME":"麻豆區","LI":"中興里","LIN":"11鄰","STREET":"興國路","SECT":" ","MAREA":" ","LANE":" ","ALLEY":" ","HOUSE_NO":"５６號之１３五樓","E_COORD97":172931.95999999999,"N_COORD97":2564175.7599999998,"ADDRESS":"興國路５６號之１３五樓","OBJECTID":594431},"geometry":{"x":172931.96000000089,"y":2564175.7600000016}},{"attributes":{"ID":594459,"DIS_CODE":0,"TOWNNAME":"麻豆區","LI":"中興里","LIN":"11鄰","STREET":"興國路","SECT":" ","MAREA":" ","LANE":" ","ALLEY":" ","HOUSE_NO":"５６號之１３六樓","E_COORD97":172931.95999999999,"N_COORD97":2564175.7599999998,"ADDRESS":"興國路５６號之１３六樓","OBJECTID":594432},"geometry":{"x":172931.96000000089,"y":2564175.7600000016}},{"attributes":{"ID":594460,"DIS_CODE":0,"TOWNNAME":"麻豆區","LI":"中興里","LIN":"11鄰","STREET":"興國路","SECT":" ","MAREA":" ","LANE":" ","ALLEY":" ","HOUSE_NO":"５６號之１３四樓","E_COORD97":172931.95999999999,"N_COORD97":2564175.7599999998,"ADDRESS":"興國路５６號之１３四樓","OBJECTID":594433},"geometry":{"x":172931.96000000089,"y":2564175.7600000016}},{"attributes":{"ID":594461,"DIS_CODE":0,"TOWNNAME":"麻豆區","LI":"中興里","LIN":"11鄰","STREET":"興國路","SECT":" ","MAREA":" ","LANE":" ","ALLEY":" ","HOUSE_NO":"５６號之１５七樓","E_COORD97":172934.39000000001,"N_COORD97":2564178.6699999999,"ADDRESS":"興國路５６號之１５七樓","OBJECTID":594434},"geometry":{"x":172934.38999999966,"y":2564178.6699999981}},{"attributes":{"ID":594462,"DIS_CODE":0,"TOWNNAME":"麻豆區","LI":"中興里","LIN":"11鄰","STREET":"興國路","SECT":" ","MAREA":" ","LANE":" ","ALLEY":" ","HOUSE_NO":"５６號之１５九樓","E_COORD97":172934.39000000001,"N_COORD97":2564178.6699999999,"ADDRESS":"興國路５６號之１５九樓","OBJECTID":594435},"geometry":{"x":172934.38999999966,"y":2564178.6699999981}},{"attributes":{"ID":594463,"DIS_CODE":0,"TOWNNAME":"東區","LI":"東光里","LIN":"4鄰","STREET":"東興路","SECT":" ","MAREA":" ","LANE":" ","ALLEY":" ","HOUSE_NO":"３８號","E_COORD97":170947.95000000001,"N_COORD97":2543498.8100000001,"ADDRESS":"東興路３８號","OBJECTID":594436},"geometry":{"x":170947.95000000019,"y":2543498.8100000024}},{"attributes":{"ID":594464,"DIS_CODE":0,"TOWNNAME":"麻豆區","LI":"中興里","LIN":"11鄰","STREET":"興國路","SECT":" ","MAREA":" ","LANE":" ","ALLEY":" ","HOUSE_NO":"５６號之１５八樓","E_COORD97":172934.39000000001,"N_COORD97":2564178.6699999999,"ADDRESS":"興國路５６號之１５八樓","OBJECTID":594437},"geometry":{"x":172934.38999999966,"y":2564178.6699999981}},{"attributes":{"ID":594465,"DIS_CODE":0,"TOWNNAME":"麻豆區","LI":"中興里","LIN":"11鄰","STREET":"興國路","SECT":" ","MAREA":" ","LANE":" ","ALLEY":" ","HOUSE_NO":"５６號之１５十一樓","E_COORD97":172934.39000000001,"N_COORD97":2564178.6699999999,"ADDRESS":"興國路５６號之１５十一樓","OBJECTID":594438},"geometry":{"x":172934.38999999966,"y":2564178.6699999981}},{"attributes":{"ID":594466,"DIS_CODE":0,"TOWNNAME":"麻豆區","LI":"中興里","LIN":"11鄰","STREET":"興國路","SECT":" ","MAREA":" ","LANE":" ","ALLEY":" ","HOUSE_NO":"５６號之１５十樓","E_COORD97":172934.39000000001,"N_COORD97":2564178.6699999999,"ADDRESS":"興國路５６號之１５十樓","OBJECTID":594439},"geometry":{"x":172934.38999999966,"y":2564178.6699999981}},{"attributes":{"ID":594467,"DIS_CODE":0,"TOWNNAME":"麻豆區","LI":"中興里","LIN":"11鄰","STREET":"興國路","SECT":" ","MAREA":" ","LANE":" ","ALLEY":" ","HOUSE_NO":"５６號之１６七樓","E_COORD97":172936.57999999999,"N_COORD97":2564181.3500000001,"ADDRESS":"興國路５６號之１６七樓","OBJECTID":594440},"geometry":{"x":172936.58000000007,"y":2564181.3500000015}},{"attributes":{"ID":594468,"DIS_CODE":0,"TOWNNAME":"麻豆區","LI":"中興里","LIN":"11鄰","STREET":"興國路","SECT":" ","MAREA":" ","LANE":" ","ALLEY":" ","HOUSE_NO":"５６號之１６九樓","E_COORD97":172936.57999999999,"N_COORD97":2564181.3500000001,"ADDRESS":"興國路５６號之１６九樓","OBJECTID":594441},"geometry":{"x":172936.58000000007,"y":2564181.3500000015}},{"attributes":{"ID":594469,"DIS_CODE":0,"TOWNNAME":"麻豆區","LI":"中興里","LIN":"11鄰","STREET":"興國路","SECT":" ","MAREA":" ","LANE":" ","ALLEY":" ","HOUSE_NO":"５６號之１６二樓","E_COORD97":172936.57999999999,"N_COORD97":2564181.3500000001,"ADDRESS":"興國路５６號之１６二樓","OBJECTID":594442},"geometry":{"x":172936.58000000007,"y":2564181.3500000015}},{"attributes":{"ID":594470,"DIS_CODE":0,"TOWNNAME":"麻豆區","LI":"中興里","LIN":"11鄰","STREET":"興國路","SECT":" ","MAREA":" ","LANE":" ","ALLEY":" ","HOUSE_NO":"５６號之１６八樓","E_COORD97":172936.57999999999,"N_COORD97":2564181.3500000001,"ADDRESS":"興國路５６號之１６八樓","OBJECTID":594443},"geometry":{"x":172936.58000000007,"y":2564181.3500000015}},{"attributes":{"ID":594471,"DIS_CODE":0,"TOWNNAME":"麻豆區","LI":"中興里","LIN":"11鄰","STREET":"興國路","SECT":" ","MAREA":" ","LANE":" ","ALLEY":" ","HOUSE_NO":"５６號之１６十一樓","E_COORD97":172936.57999999999,"N_COORD97":2564181.3500000001,"ADDRESS":"興國路５６號之１６十一樓","OBJECTID":594444},"geometry":{"x":172936.58000000007,"y":2564181.3500000015}},{"attributes":{"ID":594472,"DIS_CODE":0,"TOWNNAME":"麻豆區","LI":"中興里","LIN":"11鄰","STREET":"興國路","SECT":" ","MAREA":" ","LANE":" ","ALLEY":" ","HOUSE_NO":"５６號之１６十樓","E_COORD97":172936.57999999999,"N_COORD97":2564181.3500000001,"ADDRESS":"興國路５６號之１６十樓","OBJECTID":594445},"geometry":{"x":172936.58000000007,"y":2564181.3500000015}},{"attributes":{"ID":594473,"DIS_CODE":0,"TOWNNAME":"麻豆區","LI":"中興里","LIN":"11鄰","STREET":"興國路","SECT":" ","MAREA":" ","LANE":" ","ALLEY":" ","HOUSE_NO":"５６號之１６三樓","E_COORD97":172936.57999999999,"N_COORD97":2564181.3500000001,"ADDRESS":"興國路５６號之１６三樓","OBJECTID":594446},"geometry":{"x":172936.58000000007,"y":2564181.3500000015}},{"attributes":{"ID":594474,"DIS_CODE":0,"TOWNNAME":"麻豆區","LI":"中興里","LIN":"11鄰","STREET":"興國路","SECT":" ","MAREA":" ","LANE":" ","ALLEY":" ","HOUSE_NO":"５６號之１６五樓","E_COORD97":172936.57999999999,"N_COORD97":2564181.3500000001,"ADDRESS":"興國路５６號之１６五樓","OBJECTID":594447},"geometry":{"x":172936.58000000007,"y":2564181.3500000015}},{"attributes":{"ID":594475,"DIS_CODE":0,"TOWNNAME":"麻豆區","LI":"中興里","LIN":"11鄰","STREET":"興國路","SECT":" ","MAREA":" ","LANE":" ","ALLEY":" ","HOUSE_NO":"５６號之１６六樓","E_COORD97":172936.57999999999,"N_COORD97":2564181.3500000001,"ADDRESS":"興國路５６號之１６六樓","OBJECTID":594448},"geometry":{"x":172936.58000000007,"y":2564181.3500000015}},{"attributes":{"ID":594476,"DIS_CODE":0,"TOWNNAME":"麻豆區","LI":"中興里","LIN":"11鄰","STREET":"興國路","SECT":" ","MAREA":" ","LANE":" ","ALLEY":" ","HOUSE_NO":"５６號之１６四樓","E_COORD97":172936.57999999999,"N_COORD97":2564181.3500000001,"ADDRESS":"興國路５６號之１６四樓","OBJECTID":594449},"geometry":{"x":172936.58000000007,"y":2564181.3500000015}},{"attributes":{"ID":594477,"DIS_CODE":0,"TOWNNAME":"東區","LI":"和平里","LIN":"11鄰","STREET":"仁和路","SECT":" ","MAREA":" ","LANE":" ","ALLEY":" ","HOUSE_NO":"９５號之１","E_COORD97":171326.82000000001,"N_COORD97":2541409.9100000001,"ADDRESS":"仁和路９５號之１","OBJECTID":594450},"geometry":{"x":171326.8200000003,"y":2541409.9100000001}},{"attributes":{"ID":594478,"DIS_CODE":0,"TOWNNAME":"麻豆區","LI":"中興里","LIN":"11鄰","STREET":"興國路","SECT":" ","MAREA":" ","LANE":" ","ALLEY":" ","HOUSE_NO":"５６號之１７七樓","E_COORD97":172940.47,"N_COORD97":2564184.02,"ADDRESS":"興國路５６號之１７七樓","OBJECTID":594451},"geometry":{"x":172940.46999999974,"y":2564184.0200000014}},{"attributes":{"ID":594479,"DIS_CODE":0,"TOWNNAME":"麻豆區","LI":"中興里","LIN":"11鄰","STREET":"興國路","SECT":" ","MAREA":" ","LANE":" ","ALLEY":" ","HOUSE_NO":"５６號之１７九樓","E_COORD97":172940.47,"N_COORD97":2564184.02,"ADDRESS":"興國路５６號之１７九樓","OBJECTID":594452},"geometry":{"x":172940.46999999974,"y":2564184.0200000014}},{"attributes":{"ID":594480,"DIS_CODE":0,"TOWNNAME":"麻豆區","LI":"中興里","LIN":"11鄰","STREET":"興國路","SECT":" ","MAREA":" ","LANE":" ","ALLEY":" ","HOUSE_NO":"５６號之１７二樓","E_COORD97":172940.47,"N_COORD97":2564184.02,"ADDRESS":"興國路５６號之１７二樓","OBJECTID":594453},"geometry":{"x":172940.46999999974,"y":2564184.0200000014}},{"attributes":{"ID":594481,"DIS_CODE":0,"TOWNNAME":"麻豆區","LI":"中興里","LIN":"11鄰","STREET":"興國路","SECT":" ","MAREA":" ","LANE":" ","ALLEY":" ","HOUSE_NO":"５６號之１７八樓","E_COORD97":172940.47,"N_COORD97":2564184.02,"ADDRESS":"興國路５６號之１７八樓","OBJECTID":594454},"geometry":{"x":172940.46999999974,"y":2564184.0200000014}},{"attributes":{"ID":594482,"DIS_CODE":0,"TOWNNAME":"麻豆區","LI":"中興里","LIN":"11鄰","STREET":"興國路","SECT":" ","MAREA":" ","LANE":" ","ALLEY":" ","HOUSE_NO":"５６號之１７十一樓","E_COORD97":172940.47,"N_COORD97":2564184.02,"ADDRESS":"興國路５６號之１７十一樓","OBJECTID":594455},"geometry":{"x":172940.46999999974,"y":2564184.0200000014}},{"attributes":{"ID":594483,"DIS_CODE":0,"TOWNNAME":"麻豆區","LI":"中興里","LIN":"11鄰","STREET":"興國路","SECT":" ","MAREA":" ","LANE":" ","ALLEY":" ","HOUSE_NO":"５６號之１７十樓","E_COORD97":172940.47,"N_COORD97":2564184.02,"ADDRESS":"興國路５６號之１７十樓","OBJECTID":594456},"geometry":{"x":172940.46999999974,"y":2564184.0200000014}},{"attributes":{"ID":594484,"DIS_CODE":0,"TOWNNAME":"麻豆區","LI":"中興里","LIN":"11鄰","STREET":"興國路","SECT":" ","MAREA":" ","LANE":" ","ALLEY":" ","HOUSE_NO":"５６號之１７三樓","E_COORD97":172940.47,"N_COORD97":2564184.02,"ADDRESS":"興國路５６號之１７三樓","OBJECTID":594457},"geometry":{"x":172940.46999999974,"y":2564184.0200000014}},{"attributes":{"ID":594485,"DIS_CODE":0,"TOWNNAME":"麻豆區","LI":"中興里","LIN":"11鄰","STREET":"興國路","SECT":" ","MAREA":" ","LANE":" ","ALLEY":" ","HOUSE_NO":"５６號之１７五樓","E_COORD97":172940.47,"N_COORD97":2564184.02,"ADDRESS":"興國路５６號之１７五樓","OBJECTID":594458},"geometry":{"x":172940.46999999974,"y":2564184.0200000014}},{"attributes":{"ID":594486,"DIS_CODE":0,"TOWNNAME":"麻豆區","LI":"中興里","LIN":"11鄰","STREET":"興國路","SECT":" ","MAREA":" ","LANE":" ","ALLEY":" ","HOUSE_NO":"５６號之１７六樓","E_COORD97":172940.47,"N_COORD97":2564184.02,"ADDRESS":"興國路５６號之１７六樓","OBJECTID":594459},"geometry":{"x":172940.46999999974,"y":2564184.0200000014}},{"attributes":{"ID":594487,"DIS_CODE":0,"TOWNNAME":"麻豆區","LI":"中興里","LIN":"11鄰","STREET":"興國路","SECT":" ","MAREA":" ","LANE":" ","ALLEY":" ","HOUSE_NO":"５６號之１７四樓","E_COORD97":172940.47,"N_COORD97":2564184.02,"ADDRESS":"興國路５６號之１７四樓","OBJECTID":594460},"geometry":{"x":172940.46999999974,"y":2564184.0200000014}},{"attributes":{"ID":594488,"DIS_CODE":0,"TOWNNAME":"麻豆區","LI":"中興里","LIN":"11鄰","STREET":"興國路","SECT":" ","MAREA":" ","LANE":" ","ALLEY":" ","HOUSE_NO":"５６號之８七樓","E_COORD97":172939.07000000001,"N_COORD97":2564167.9199999999,"ADDRESS":"興國路５６號之８七樓","OBJECTID":594461},"geometry":{"x":172939.0700000003,"y":2564167.9200000018}},{"attributes":{"ID":594489,"DIS_CODE":0,"TOWNNAME":"麻豆區","LI":"中興里","LIN":"11鄰","STREET":"興國路","SECT":" ","MAREA":" ","LANE":" ","ALLEY":" ","HOUSE_NO":"５６號之８九樓","E_COORD97":172939.07000000001,"N_COORD97":2564167.9199999999,"ADDRESS":"興國路５６號之８九樓","OBJECTID":594462},"geometry":{"x":172939.0700000003,"y":2564167.9200000018}},{"attributes":{"ID":594490,"DIS_CODE":0,"TOWNNAME":"麻豆區","LI":"中興里","LIN":"11鄰","STREET":"興國路","SECT":" ","MAREA":" ","LANE":" ","ALLEY":" ","HOUSE_NO":"５６號之８八樓","E_COORD97":172939.07000000001,"N_COORD97":2564167.9199999999,"ADDRESS":"興國路５６號之８八樓","OBJECTID":594463},"geometry":{"x":172939.0700000003,"y":2564167.9200000018}},{"attributes":{"ID":594491,"DIS_CODE":0,"TOWNNAME":"麻豆區","LI":"中興里","LIN":"11鄰","STREET":"興國路","SECT":" ","MAREA":" ","LANE":" ","ALLEY":" ","HOUSE_NO":"５６號之８十一樓","E_COORD97":172939.07000000001,"N_COORD97":2564167.9199999999,"ADDRESS":"興國路５６號之８十一樓","OBJECTID":594464},"geometry":{"x":172939.0700000003,"y":2564167.9200000018}},{"attributes":{"ID":594492,"DIS_CODE":0,"TOWNNAME":"麻豆區","LI":"中興里","LIN":"11鄰","STREET":"興國路","SECT":" ","MAREA":" ","LANE":" ","ALLEY":" ","HOUSE_NO":"５６號之８十樓","E_COORD97":172939.07000000001,"N_COORD97":2564167.9199999999,"ADDRESS":"興國路５６號之８十樓","OBJECTID":594465},"geometry":{"x":172939.0700000003,"y":2564167.9200000018}},{"attributes":{"ID":594493,"DIS_CODE":0,"TOWNNAME":"麻豆區","LI":"中興里","LIN":"11鄰","STREET":"興國路","SECT":" ","MAREA":" ","LANE":" ","ALLEY":" ","HOUSE_NO":"５６號之８五樓","E_COORD97":172939.07000000001,"N_COORD97":2564167.9199999999,"ADDRESS":"興國路５６號之８五樓","OBJECTID":594466},"geometry":{"x":172939.0700000003,"y":2564167.9200000018}},{"attributes":{"ID":594494,"DIS_CODE":0,"TOWNNAME":"麻豆區","LI":"中興里","LIN":"11鄰","STREET":"興國路","SECT":" ","MAREA":" ","LANE":" ","ALLEY":" ","HOUSE_NO":"５６號之８六樓","E_COORD97":172939.07000000001,"N_COORD97":2564167.9199999999,"ADDRESS":"興國路５６號之８六樓","OBJECTID":594467},"geometry":{"x":172939.0700000003,"y":2564167.9200000018}},{"attributes":{"ID":594495,"DIS_CODE":0,"TOWNNAME":"麻豆區","LI":"中興里","LIN":"11鄰","STREET":"興國路","SECT":" ","MAREA":" ","LANE":" ","ALLEY":" ","HOUSE_NO":"５６號之８四樓","E_COORD97":172939.07000000001,"N_COORD97":2564167.9199999999,"ADDRESS":"興國路５６號之８四樓","OBJECTID":594468},"geometry":{"x":172939.0700000003,"y":2564167.9200000018}},{"attributes":{"ID":594496,"DIS_CODE":0,"TOWNNAME":"麻豆區","LI":"中興里","LIN":"11鄰","STREET":"興國路","SECT":" ","MAREA":" ","LANE":" ","ALLEY":" ","HOUSE_NO":"５６號之９七樓","E_COORD97":172941.78,"N_COORD97":2564171.3799999999,"ADDRESS":"興國路５６號之９七樓","OBJECTID":594469},"geometry":{"x":172941.78000000119,"y":2564171.379999999}},{"attributes":{"ID":594497,"DIS_CODE":0,"TOWNNAME":"麻豆區","LI":"中興里","LIN":"11鄰","STREET":"興國路","SECT":" ","MAREA":" ","LANE":" ","ALLEY":" ","HOUSE_NO":"５６號之９九樓","E_COORD97":172941.78,"N_COORD97":2564171.3799999999,"ADDRESS":"興國路５６號之９九樓","OBJECTID":594470},"geometry":{"x":172941.78000000119,"y":2564171.379999999}},{"attributes":{"ID":594498,"DIS_CODE":0,"TOWNNAME":"麻豆區","LI":"中興里","LIN":"11鄰","STREET":"興國路","SECT":" ","MAREA":" ","LANE":" ","ALLEY":" ","HOUSE_NO":"５６號之９八樓","E_COORD97":172941.78,"N_COORD97":2564171.3799999999,"ADDRESS":"興國路５６號之９八樓","OBJECTID":594471},"geometry":{"x":172941.78000000119,"y":2564171.379999999}},{"attributes":{"ID":594499,"DIS_CODE":0,"TOWNNAME":"麻豆區","LI":"中興里","LIN":"11鄰","STREET":"興國路","SECT":" ","MAREA":" ","LANE":" ","ALLEY":" ","HOUSE_NO":"５６號之９十一樓","E_COORD97":172941.78,"N_COORD97":2564171.3799999999,"ADDRESS":"興國路５６號之９十一樓","OBJECTID":594472},"geometry":{"x":172941.78000000119,"y":2564171.379999999}},{"attributes":{"ID":594500,"DIS_CODE":0,"TOWNNAME":"麻豆區","LI":"中興里","LIN":"11鄰","STREET":"興國路","SECT":" ","MAREA":" ","LANE":" ","ALLEY":" ","HOUSE_NO":"５６號之９十樓","E_COORD97":172941.78,"N_COORD97":2564171.3799999999,"ADDRESS":"興國路５６號之９十樓","OBJECTID":594473},"geometry":{"x":172941.78000000119,"y":2564171.379999999}},{"attributes":{"ID":594501,"DIS_CODE":0,"TOWNNAME":"麻豆區","LI":"中興里","LIN":"11鄰","STREET":"興國路","SECT":" ","MAREA":" ","LANE":" ","ALLEY":" ","HOUSE_NO":"５６號之９五樓","E_COORD97":172941.78,"N_COORD97":2564171.3799999999,"ADDRESS":"興國路５６號之９五樓","OBJECTID":594474},"geometry":{"x":172941.78000000119,"y":2564171.379999999}},{"attributes":{"ID":594502,"DIS_CODE":0,"TOWNNAME":"麻豆區","LI":"中興里","LIN":"11鄰","STREET":"興國路","SECT":" ","MAREA":" ","LANE":" ","ALLEY":" ","HOUSE_NO":"５６號之９六樓","E_COORD97":172941.78,"N_COORD97":2564171.3799999999,"ADDRESS":"興國路５６號之９六樓","OBJECTID":594475},"geometry":{"x":172941.78000000119,"y":2564171.379999999}},{"attributes":{"ID":594503,"DIS_CODE":0,"TOWNNAME":"麻豆區","LI":"中興里","LIN":"11鄰","STREET":"興國路","SECT":" ","MAREA":" ","LANE":" ","ALLEY":" ","HOUSE_NO":"５６號之９四樓","E_COORD97":172941.78,"N_COORD97":2564171.3799999999,"ADDRESS":"興國路５６號之９四樓","OBJECTID":594476},"geometry":{"x":172941.78000000119,"y":2564171.379999999}},{"attributes":{"ID":594504,"DIS_CODE":0,"TOWNNAME":"東區","LI":"崇學里","LIN":"11鄰","STREET":"崇明十街","SECT":" ","MAREA":" ","LANE":" ","ALLEY":" ","HOUSE_NO":"７２號三樓","E_COORD97":170229.85000000001,"N_COORD97":2541882.27,"ADDRESS":"崇明十街７２號三樓","OBJECTID":594477},"geometry":{"x":170229.85000000056,"y":2541882.2699999996}},{"attributes":{"ID":594505,"DIS_CODE":0,"TOWNNAME":"東區","LI":"崇學里","LIN":"11鄰","STREET":"崇明十街","SECT":" ","MAREA":" ","LANE":" ","ALLEY":" ","HOUSE_NO":"７２號三樓之１","E_COORD97":170229.85000000001,"N_COORD97":2541882.27,"ADDRESS":"崇明十街７２號三樓之１","OBJECTID":594478},"geometry":{"x":170229.85000000056,"y":2541882.2699999996}},{"attributes":{"ID":594506,"DIS_CODE":0,"TOWNNAME":"東區","LI":"崇學里","LIN":"11鄰","STREET":"崇明十街","SECT":" ","MAREA":" ","LANE":" ","ALLEY":" ","HOUSE_NO":"７２號三樓之２","E_COORD97":170229.85000000001,"N_COORD97":2541882.27,"ADDRESS":"崇明十街７２號三樓之２","OBJECTID":594479},"geometry":{"x":170229.85000000056,"y":2541882.2699999996}},{"attributes":{"ID":594507,"DIS_CODE":0,"TOWNNAME":"東區","LI":"後甲里","LIN":"16鄰","STREET":"裕農路","SECT":" ","MAREA":" ","LANE":" ","ALLEY":" ","HOUSE_NO":"５９９號之１","E_COORD97":171548.95999999999,"N_COORD97":2543236.7000000002,"ADDRESS":"裕農路５９９號之１","OBJECTID":594480},"geometry":{"x":171548.95999999996,"y":2543236.7000000011}},{"attributes":{"ID":594508,"DIS_CODE":0,"TOWNNAME":"東區","LI":"崇學里","LIN":"11鄰","STREET":"崇明十街","SECT":" ","MAREA":" ","LANE":" ","ALLEY":" ","HOUSE_NO":"７２號三樓之３","E_COORD97":170229.85000000001,"N_COORD97":2541882.27,"ADDRESS":"崇明十街７２號三樓之３","OBJECTID":594481},"geometry":{"x":170229.85000000056,"y":2541882.2699999996}},{"attributes":{"ID":594509,"DIS_CODE":0,"TOWNNAME":"東區","LI":"崇學里","LIN":"11鄰","STREET":"崇明十街","SECT":" ","MAREA":" ","LANE":" ","ALLEY":" ","HOUSE_NO":"７２號三樓之４","E_COORD97":170229.85000000001,"N_COORD97":2541882.27,"ADDRESS":"崇明十街７２號三樓之４","OBJECTID":594482},"geometry":{"x":170229.85000000056,"y":2541882.2699999996}},{"attributes":{"ID":594510,"DIS_CODE":0,"TOWNNAME":"東區","LI":"崇學里","LIN":"11鄰","STREET":"崇明十街","SECT":" ","MAREA":" ","LANE":" ","ALLEY":" ","HOUSE_NO":"７２號五樓","E_COORD97":170229.85000000001,"N_COORD97":2541882.27,"ADDRESS":"崇明十街７２號五樓","OBJECTID":594483},"geometry":{"x":170229.85000000056,"y":2541882.2699999996}},{"attributes":{"ID":594511,"DIS_CODE":0,"TOWNNAME":"東區","LI":"崇學里","LIN":"11鄰","STREET":"崇明十街","SECT":" ","MAREA":" ","LANE":" ","ALLEY":" ","HOUSE_NO":"７２號五樓之１","E_COORD97":170229.85000000001,"N_COORD97":2541882.27,"ADDRESS":"崇明十街７２號五樓之１","OBJECTID":594484},"geometry":{"x":170229.85000000056,"y":2541882.2699999996}},{"attributes":{"ID":594512,"DIS_CODE":0,"TOWNNAME":"東區","LI":"崇學里","LIN":"11鄰","STREET":"崇明十街","SECT":" ","MAREA":" ","LANE":" ","ALLEY":" ","HOUSE_NO":"７２號五樓之２","E_COORD97":170229.85000000001,"N_COORD97":2541882.27,"ADDRESS":"崇明十街７２號五樓之２","OBJECTID":594485},"geometry":{"x":170229.85000000056,"y":2541882.2699999996}},{"attributes":{"ID":594513,"DIS_CODE":0,"TOWNNAME":"東區","LI":"崇學里","LIN":"11鄰","STREET":"崇明十街","SECT":" ","MAREA":" ","LANE":" ","ALLEY":" ","HOUSE_NO":"７２號五樓之３","E_COORD97":170229.85000000001,"N_COORD97":2541882.27,"ADDRESS":"崇明十街７２號五樓之３","OBJECTID":594486},"geometry":{"x":170229.85000000056,"y":2541882.2699999996}},{"attributes":{"ID":594514,"DIS_CODE":0,"TOWNNAME":"東區","LI":"崇學里","LIN":"11鄰","STREET":"崇明十街","SECT":" ","MAREA":" ","LANE":" ","ALLEY":" ","HOUSE_NO":"７２號五樓之４","E_COORD97":170229.85000000001,"N_COORD97":2541882.27,"ADDRESS":"崇明十街７２號五樓之４","OBJECTID":594487},"geometry":{"x":170229.85000000056,"y":2541882.2699999996}},{"attributes":{"ID":594515,"DIS_CODE":0,"TOWNNAME":"東區","LI":"崇學里","LIN":"11鄰","STREET":"崇明十街","SECT":" ","MAREA":" ","LANE":" ","ALLEY":" ","HOUSE_NO":"７２號六樓","E_COORD97":170229.85000000001,"N_COORD97":2541882.27,"ADDRESS":"崇明十街７２號六樓","OBJECTID":594488},"geometry":{"x":170229.85000000056,"y":2541882.2699999996}},{"attributes":{"ID":594516,"DIS_CODE":0,"TOWNNAME":"東區","LI":"崇學里","LIN":"11鄰","STREET":"崇明十街","SECT":" ","MAREA":" ","LANE":" ","ALLEY":" ","HOUSE_NO":"７２號六樓之１","E_COORD97":170229.85000000001,"N_COORD97":2541882.27,"ADDRESS":"崇明十街７２號六樓之１","OBJECTID":594489},"geometry":{"x":170229.85000000056,"y":2541882.2699999996}},{"attributes":{"ID":594517,"DIS_CODE":0,"TOWNNAME":"東區","LI":"圍下里","LIN":"3鄰","STREET":"東榮街","SECT":" ","MAREA":" ","LANE":" ","ALLEY":" ","HOUSE_NO":"１３號","E_COORD97":169584.89000000001,"N_COORD97":2543470.5699999998,"ADDRESS":"東榮街１３號","OBJECTID":594490},"geometry":{"x":169584.88999999966,"y":2543470.5700000003}},{"attributes":{"ID":594518,"DIS_CODE":0,"TOWNNAME":"東區","LI":"和平里","LIN":"11鄰","STREET":"仁和路","SECT":" ","MAREA":" ","LANE":" ","ALLEY":" ","HOUSE_NO":"９３號之７","E_COORD97":171309.89999999999,"N_COORD97":2541418.5499999998,"ADDRESS":"仁和路９３號之７","OBJECTID":594491},"geometry":{"x":171309.90000000224,"y":2541418.5500000026}},{"attributes":{"ID":594519,"DIS_CODE":0,"TOWNNAME":"東區","LI":"崇學里","LIN":"11鄰","STREET":"崇明十街","SECT":" ","MAREA":" ","LANE":" ","ALLEY":" ","HOUSE_NO":"７２號六樓之２","E_COORD97":170229.85000000001,"N_COORD97":2541882.27,"ADDRESS":"崇明十街７２號六樓之２","OBJECTID":594492},"geometry":{"x":170229.85000000056,"y":2541882.2699999996}},{"attributes":{"ID":594520,"DIS_CODE":0,"TOWNNAME":"東區","LI":"崇學里","LIN":"11鄰","STREET":"崇明十街","SECT":" ","MAREA":" ","LANE":" ","ALLEY":" ","HOUSE_NO":"７２號六樓之３","E_COORD97":170229.85000000001,"N_COORD97":2541882.27,"ADDRESS":"崇明十街７２號六樓之３","OBJECTID":594493},"geometry":{"x":170229.85000000056,"y":2541882.2699999996}},{"attributes":{"ID":594521,"DIS_CODE":0,"TOWNNAME":"東區","LI":"崇學里","LIN":"11鄰","STREET":"崇明十街","SECT":" ","MAREA":" ","LANE":" ","ALLEY":" ","HOUSE_NO":"７２號六樓之４","E_COORD97":170229.85000000001,"N_COORD97":2541882.27,"ADDRESS":"崇明十街７２號六樓之４","OBJECTID":594494},"geometry":{"x":170229.85000000056,"y":2541882.2699999996}},{"attributes":{"ID":594522,"DIS_CODE":0,"TOWNNAME":"東區","LI":"崇學里","LIN":"11鄰","STREET":"崇明十街","SECT":" ","MAREA":" ","LANE":" ","ALLEY":" ","HOUSE_NO":"７２號四樓","E_COORD97":170229.85000000001,"N_COORD97":2541882.27,"ADDRESS":"崇明十街７２號四樓","OBJECTID":594495},"geometry":{"x":170229.85000000056,"y":2541882.2699999996}},{"attributes":{"ID":594523,"DIS_CODE":0,"TOWNNAME":"東區","LI":"崇學里","LIN":"11鄰","STREET":"崇明十街","SECT":" ","MAREA":" ","LANE":" ","ALLEY":" ","HOUSE_NO":"７２號四樓之１","E_COORD97":170229.85000000001,"N_COORD97":2541882.27,"ADDRESS":"崇明十街７２號四樓之１","OBJECTID":594496},"geometry":{"x":170229.85000000056,"y":2541882.2699999996}},{"attributes":{"ID":594524,"DIS_CODE":0,"TOWNNAME":"東區","LI":"崇學里","LIN":"11鄰","STREET":"崇明十街","SECT":" ","MAREA":" ","LANE":" ","ALLEY":" ","HOUSE_NO":"７２號四樓之２","E_COORD97":170229.85000000001,"N_COORD97":2541882.27,"ADDRESS":"崇明十街７２號四樓之２","OBJECTID":594497},"geometry":{"x":170229.85000000056,"y":2541882.2699999996}},{"attributes":{"ID":594525,"DIS_CODE":0,"TOWNNAME":"東區","LI":"崇學里","LIN":"11鄰","STREET":"崇明十街","SECT":" ","MAREA":" ","LANE":" ","ALLEY":" ","HOUSE_NO":"７２號四樓之３","E_COORD97":170229.85000000001,"N_COORD97":2541882.27,"ADDRESS":"崇明十街７２號四樓之３","OBJECTID":594498},"geometry":{"x":170229.85000000056,"y":2541882.2699999996}},{"attributes":{"ID":594526,"DIS_CODE":0,"TOWNNAME":"東區","LI":"崇學里","LIN":"11鄰","STREET":"崇明十街","SECT":" ","MAREA":" ","LANE":" ","ALLEY":" ","HOUSE_NO":"７２號四樓之４","E_COORD97":170229.85000000001,"N_COORD97":2541882.27,"ADDRESS":"崇明十街７２號四樓之４","OBJECTID":594499},"geometry":{"x":170229.85000000056,"y":2541882.2699999996}},{"attributes":{"ID":594527,"DIS_CODE":0,"TOWNNAME":"仁德區","LI":"新田里","LIN":"11鄰","STREET":"北保一街","SECT":" ","MAREA":" ","LANE":" ","ALLEY":" ","HOUSE_NO":"６７號七樓","E_COORD97":173112.42999999999,"N_COORD97":2539513.7599999998,"ADDRESS":"北保一街６７號七樓","OBJECTID":594500},"geometry":{"x":173112.42999999877,"y":2539513.7600000016}},{"attributes":{"ID":594528,"DIS_CODE":0,"TOWNNAME":"東區","LI":"莊敬里","LIN":"11鄰","STREET":"中華東路","SECT":"一段","MAREA":" ","LANE":" ","ALLEY":" ","HOUSE_NO":"１２號四樓之１","E_COORD97":171508.60000000001,"N_COORD97":2544229.4100000001,"ADDRESS":"中華東路一段１２號四樓之１","OBJECTID":594501},"geometry":{"x":171508.59999999963,"y":2544229.410000002}},{"attributes":{"ID":594529,"DIS_CODE":0,"TOWNNAME":"東區","LI":"莊敬里","LIN":"11鄰","STREET":"中華東路","SECT":"一段","MAREA":" ","LANE":" ","ALLEY":" ","HOUSE_NO":"１２號七樓之２","E_COORD97":171508.60000000001,"N_COORD97":2544229.4100000001,"ADDRESS":"中華東路一段１２號七樓之２","OBJECTID":594502},"geometry":{"x":171508.59999999963,"y":2544229.410000002}},{"attributes":{"ID":594530,"DIS_CODE":0,"TOWNNAME":"東區","LI":"莊敬里","LIN":"11鄰","STREET":"中華東路","SECT":"一段","MAREA":" ","LANE":" ","ALLEY":" ","HOUSE_NO":"１２號三樓之３","E_COORD97":171508.60000000001,"N_COORD97":2544229.4100000001,"ADDRESS":"中華東路一段１２號三樓之３","OBJECTID":594503},"geometry":{"x":171508.59999999963,"y":2544229.410000002}},{"attributes":{"ID":594531,"DIS_CODE":0,"TOWNNAME":"東區","LI":"莊敬里","LIN":"11鄰","STREET":"中華東路","SECT":"一段","MAREA":" ","LANE":" ","ALLEY":" ","HOUSE_NO":"１２號十二樓之６","E_COORD97":171508.60000000001,"N_COORD97":2544229.4100000001,"ADDRESS":"中華東路一段１２號十二樓之６","OBJECTID":594504},"geometry":{"x":171508.59999999963,"y":2544229.410000002}},{"attributes":{"ID":594532,"DIS_CODE":0,"TOWNNAME":"東區","LI":"莊敬里","LIN":"11鄰","STREET":"中華東路","SECT":"一段","MAREA":" ","LANE":" ","ALLEY":" ","HOUSE_NO":"１２號八樓之７","E_COORD97":171508.60000000001,"N_COORD97":2544229.4100000001,"ADDRESS":"中華東路一段１２號八樓之７","OBJECTID":594505},"geometry":{"x":171508.59999999963,"y":2544229.410000002}},{"attributes":{"ID":594533,"DIS_CODE":0,"TOWNNAME":"東區","LI":"莊敬里","LIN":"11鄰","STREET":"中華東路","SECT":"一段","MAREA":" ","LANE":" ","ALLEY":" ","HOUSE_NO":"１２號十四樓之７","E_COORD97":171508.60000000001,"N_COORD97":2544229.4100000001,"ADDRESS":"中華東路一段１２號十四樓之７","OBJECTID":594506},"geometry":{"x":171508.59999999963,"y":2544229.410000002}},{"attributes":{"ID":594534,"DIS_CODE":0,"TOWNNAME":"東區","LI":"莊敬里","LIN":"11鄰","STREET":"中華東路","SECT":"一段","MAREA":" ","LANE":" ","ALLEY":" ","HOUSE_NO":"１２號三樓之８","E_COORD97":171508.60000000001,"N_COORD97":2544229.4100000001,"ADDRESS":"中華東路一段１２號三樓之８","OBJECTID":594507},"geometry":{"x":171508.59999999963,"y":2544229.410000002}},{"attributes":{"ID":594535,"DIS_CODE":0,"TOWNNAME":"東區","LI":"莊敬里","LIN":"11鄰","STREET":"中華東路","SECT":"一段","MAREA":" ","LANE":" ","ALLEY":" ","HOUSE_NO":"１２號四樓之８","E_COORD97":171508.60000000001,"N_COORD97":2544229.4100000001,"ADDRESS":"中華東路一段１２號四樓之８","OBJECTID":594508},"geometry":{"x":171508.59999999963,"y":2544229.410000002}},{"attributes":{"ID":594536,"DIS_CODE":0,"TOWNNAME":"歸仁區","LI":"歸仁里","LIN":"11鄰","STREET":"信義北路","SECT":" ","MAREA":" ","LANE":" ","ALLEY":" ","HOUSE_NO":"７７號二樓","E_COORD97":177961.01000000001,"N_COORD97":2540972.48,"ADDRESS":"信義北路７７號二樓","OBJECTID":594509},"geometry":{"x":177961.01000000071,"y":2540972.4800000004}},{"attributes":{"ID":594537,"DIS_CODE":0,"TOWNNAME":"東區","LI":"和平里","LIN":"11鄰","STREET":"仁和路","SECT":" ","MAREA":" ","LANE":" ","ALLEY":" ","HOUSE_NO":"９３號之１","E_COORD97":171294.48999999999,"N_COORD97":2541448.75,"ADDRESS":"仁和路９３號之１","OBJECTID":594510},"geometry":{"x":171294.49000000115,"y":2541448.75}},{"attributes":{"ID":594538,"DIS_CODE":0,"TOWNNAME":"東區","LI":"和平里","LIN":"11鄰","STREET":"仁和路","SECT":" ","MAREA":" ","LANE":" ","ALLEY":" ","HOUSE_NO":"９３號之２","E_COORD97":171295.92999999999,"N_COORD97":2541446.4700000002,"ADDRESS":"仁和路９３號之２","OBJECTID":594511},"geometry":{"x":171295.93000000063,"y":2541446.4700000025}},{"attributes":{"ID":594539,"DIS_CODE":0,"TOWNNAME":"東區","LI":"和平里","LIN":"11鄰","STREET":"仁和路","SECT":" ","MAREA":" ","LANE":" ","ALLEY":" ","HOUSE_NO":"９３號之４","E_COORD97":171301.48000000001,"N_COORD97":2541435.0099999998,"ADDRESS":"仁和路９３號之４","OBJECTID":594512},"geometry":{"x":171301.48000000138,"y":2541435.0100000016}},{"attributes":{"ID":594540,"DIS_CODE":0,"TOWNNAME":"東區","LI":"和平里","LIN":"11鄰","STREET":"仁和路","SECT":" ","MAREA":" ","LANE":" ","ALLEY":" ","HOUSE_NO":"９３號之６","E_COORD97":171307.39999999999,"N_COORD97":2541423.5600000001,"ADDRESS":"仁和路９３號之６","OBJECTID":594513},"geometry":{"x":171307.40000000037,"y":2541423.5600000005}},{"attributes":{"ID":594541,"DIS_CODE":0,"TOWNNAME":"東區","LI":"和平里","LIN":"11鄰","STREET":"仁和路","SECT":" ","MAREA":" ","LANE":" ","ALLEY":" ","HOUSE_NO":"９３號之８","E_COORD97":171312.76999999999,"N_COORD97":2541413.3599999999,"ADDRESS":"仁和路９３號之８","OBJECTID":594514},"geometry":{"x":171312.76999999955,"y":2541413.3599999994}},{"attributes":{"ID":594542,"DIS_CODE":0,"TOWNNAME":"東區","LI":"和平里","LIN":"11鄰","STREET":"仁和路","SECT":" ","MAREA":" ","LANE":" ","ALLEY":" ","HOUSE_NO":"９３號之３","E_COORD97":171298.98000000001,"N_COORD97":2541440.3799999999,"ADDRESS":"仁和路９３號之３","OBJECTID":594515},"geometry":{"x":171298.98000000045,"y":2541440.3800000027}},{"attributes":{"ID":594543,"DIS_CODE":0,"TOWNNAME":"東區","LI":"和平里","LIN":"11鄰","STREET":"仁和路","SECT":" ","MAREA":" ","LANE":" ","ALLEY":" ","HOUSE_NO":"９３號之５","E_COORD97":171304.53,"N_COORD97":2541429.4700000002,"ADDRESS":"仁和路９３號之５","OBJECTID":594516},"geometry":{"x":171304.53000000119,"y":2541429.4700000025}},{"attributes":{"ID":594544,"DIS_CODE":0,"TOWNNAME":"安平區","LI":"育平里","LIN":"11鄰","STREET":"育平五街","SECT":" ","MAREA":" ","LANE":" ","ALLEY":" ","HOUSE_NO":"７７號三樓之１５","E_COORD97":164649.44,"N_COORD97":2543485.8900000001,"ADDRESS":"育平五街７７號三樓之１５","OBJECTID":594517},"geometry":{"x":164649.44000000134,"y":2543485.8900000006}},{"attributes":{"ID":594545,"DIS_CODE":0,"TOWNNAME":"安平區","LI":"育平里","LIN":"11鄰","STREET":"育平五街","SECT":" ","MAREA":" ","LANE":" ","ALLEY":" ","HOUSE_NO":"７７號六樓之１５","E_COORD97":164649.44,"N_COORD97":2543485.8900000001,"ADDRESS":"育平五街７７號六樓之１５","OBJECTID":594518},"geometry":{"x":164649.44000000134,"y":2543485.8900000006}},{"attributes":{"ID":594546,"DIS_CODE":0,"TOWNNAME":"安平區","LI":"平通里","LIN":"11鄰","STREET":"育平九街","SECT":" ","MAREA":" ","LANE":" ","ALLEY":" ","HOUSE_NO":"２４５號七樓之６","E_COORD97":164894.35000000001,"N_COORD97":2544007.5699999998,"ADDRESS":"育平九街２４５號七樓之６","OBJECTID":594519},"geometry":{"x":164894.34999999963,"y":2544007.5700000022}},{"attributes":{"ID":594547,"DIS_CODE":0,"TOWNNAME":"新營區","LI":"民權里","LIN":"11鄰","STREET":"中華路","SECT":" ","MAREA":" ","LANE":" ","ALLEY":" ","HOUSE_NO":"１８之５號五樓之１","E_COORD97":179848.88,"N_COORD97":2578234.6400000001,"ADDRESS":"中華路１８之５號五樓之１","OBJECTID":594520},"geometry":{"x":179848.88000000082,"y":2578234.6400000006}},{"attributes":{"ID":594548,"DIS_CODE":0,"TOWNNAME":"新營區","LI":"民權里","LIN":"11鄰","STREET":"中華路","SECT":" ","MAREA":" ","LANE":" ","ALLEY":" ","HOUSE_NO":"１８之５號八樓之２","E_COORD97":179849.01000000001,"N_COORD97":2578234.6400000001,"ADDRESS":"中華路１８之５號八樓之２","OBJECTID":594521},"geometry":{"x":179849.01000000071,"y":2578234.6400000006}},{"attributes":{"ID":594549,"DIS_CODE":0,"TOWNNAME":"新營區","LI":"民權里","LIN":"11鄰","STREET":"中華路","SECT":" ","MAREA":" ","LANE":" ","ALLEY":" ","HOUSE_NO":"１８之５號七樓之２","E_COORD97":179849.01000000001,"N_COORD97":2578234.6400000001,"ADDRESS":"中華路１８之５號七樓之２","OBJECTID":594522},"geometry":{"x":179849.01000000071,"y":2578234.6400000006}},{"attributes":{"ID":594550,"DIS_CODE":0,"TOWNNAME":"新營區","LI":"民權里","LIN":"11鄰","STREET":"中華路","SECT":" ","MAREA":" ","LANE":" ","ALLEY":" ","HOUSE_NO":"１８之５號四樓之１","E_COORD97":179848.88,"N_COORD97":2578234.6400000001,"ADDRESS":"中華路１８之５號四樓之１","OBJECTID":594523},"geometry":{"x":179848.88000000082,"y":2578234.6400000006}},{"attributes":{"ID":594551,"DIS_CODE":0,"TOWNNAME":"東區","LI":"大智里","LIN":"23鄰","STREET":"文東街","SECT":" ","MAREA":" ","LANE":" ","ALLEY":" ","HOUSE_NO":"４１號","E_COORD97":171296.14999999999,"N_COORD97":2540180.6099999999,"ADDRESS":"文東街４１號","OBJECTID":594524},"geometry":{"x":171296.14999999944,"y":2540180.6099999994}},{"attributes":{"ID":594552,"DIS_CODE":0,"TOWNNAME":"東區","LI":"和平里","LIN":"11鄰","STREET":"仁和路","SECT":" ","MAREA":" ","LANE":" ","ALLEY":" ","HOUSE_NO":"９５號之１１","E_COORD97":171337.89000000001,"N_COORD97":2541466.6299999999,"ADDRESS":"仁和路９５號之１１","OBJECTID":594525},"geometry":{"x":171337.89000000153,"y":2541466.6300000008}},{"attributes":{"ID":594553,"DIS_CODE":0,"TOWNNAME":"東區","LI":"和平里","LIN":"11鄰","STREET":"仁和路","SECT":" ","MAREA":" ","LANE":" ","ALLEY":" ","HOUSE_NO":"９５號之３","E_COORD97":171340.22,"N_COORD97":2541411.1299999999,"ADDRESS":"仁和路９５號之３","OBJECTID":594526},"geometry":{"x":171340.21999999974,"y":2541411.129999999}},{"attributes":{"ID":594554,"DIS_CODE":0,"TOWNNAME":"東區","LI":"和平里","LIN":"11鄰","STREET":"仁和路","SECT":" ","MAREA":" ","LANE":" ","ALLEY":" ","HOUSE_NO":"９５號之４","E_COORD97":171346.51000000001,"N_COORD97":2541411.54,"ADDRESS":"仁和路９５號之４","OBJECTID":594527},"geometry":{"x":171346.51000000071,"y":2541411.5399999991}},{"attributes":{"ID":594555,"DIS_CODE":0,"TOWNNAME":"東區","LI":"和平里","LIN":"11鄰","STREET":"仁和路","SECT":" ","MAREA":" ","LANE":" ","ALLEY":" ","HOUSE_NO":"９５號之５","E_COORD97":171349.32999999999,"N_COORD97":2541413.5,"ADDRESS":"仁和路９５號之５","OBJECTID":594528},"geometry":{"x":171349.33000000101,"y":2541413.4999999981}},{"attributes":{"ID":594556,"DIS_CODE":0,"TOWNNAME":"東區","LI":"和平里","LIN":"11鄰","STREET":"仁和路","SECT":" ","MAREA":" ","LANE":" ","ALLEY":" ","HOUSE_NO":"９５號之６","E_COORD97":171348.76000000001,"N_COORD97":2541420.0699999998,"ADDRESS":"仁和路９５號之６","OBJECTID":594529},"geometry":{"x":171348.75999999978,"y":2541420.0699999984}},{"attributes":{"ID":594557,"DIS_CODE":0,"TOWNNAME":"東區","LI":"和平里","LIN":"11鄰","STREET":"仁和路","SECT":" ","MAREA":" ","LANE":" ","ALLEY":" ","HOUSE_NO":"９５號之７","E_COORD97":171347.89999999999,"N_COORD97":2541426.3599999999,"ADDRESS":"仁和路９５號之７","OBJECTID":594530},"geometry":{"x":171347.9000000013,"y":2541426.3599999994}},{"attributes":{"ID":594558,"DIS_CODE":0,"TOWNNAME":"東區","LI":"泉南里","LIN":"10鄰","STREET":"樹林街","SECT":"一段","MAREA":" ","LANE":" ","ALLEY":" ","HOUSE_NO":"２０號","E_COORD97":169671.17000000001,"N_COORD97":2542919.73,"ADDRESS":"樹林街一段２０號","OBJECTID":594531},"geometry":{"x":169671.16999999993,"y":2542919.7300000004}},{"attributes":{"ID":594559,"DIS_CODE":0,"TOWNNAME":"東區","LI":"後甲里","LIN":"29鄰","STREET":"裕農路","SECT":" ","MAREA":" ","LANE":" ","ALLEY":" ","HOUSE_NO":"６９５號之１","E_COORD97":171837.19,"N_COORD97":2543260.0899999999,"ADDRESS":"裕農路６９５號之１","OBJECTID":594532},"geometry":{"x":171837.19000000134,"y":2543260.0899999999}},{"attributes":{"ID":594560,"DIS_CODE":0,"TOWNNAME":"東區","LI":"和平里","LIN":"11鄰","STREET":"仁和路","SECT":" ","MAREA":" ","LANE":" ","ALLEY":" ","HOUSE_NO":"９５號之８","E_COORD97":171347.04000000001,"N_COORD97":2541434.0699999998,"ADDRESS":"仁和路９５號之８","OBJECTID":594533},"geometry":{"x":171347.04000000004,"y":2541434.070000004}},{"attributes":{"ID":594561,"DIS_CODE":0,"TOWNNAME":"東區","LI":"和平里","LIN":"11鄰","STREET":"仁和路","SECT":" ","MAREA":" ","LANE":" ","ALLEY":" ","HOUSE_NO":"９５號之９","E_COORD97":171347.32999999999,"N_COORD97":2541438.0699999998,"ADDRESS":"仁和路９５號之９","OBJECTID":594534},"geometry":{"x":171347.33000000194,"y":2541438.0700000022}},{"attributes":{"ID":594562,"DIS_CODE":0,"TOWNNAME":"東區","LI":"和平里","LIN":"11鄰","STREET":"仁和路","SECT":" ","MAREA":" ","LANE":" ","ALLEY":" ","HOUSE_NO":"９５號之１０","E_COORD97":171346.47,"N_COORD97":2541443.4900000002,"ADDRESS":"仁和路９５號之１０","OBJECTID":594535},"geometry":{"x":171346.47000000067,"y":2541443.4900000002}},{"attributes":{"ID":594563,"DIS_CODE":0,"TOWNNAME":"東區","LI":"和平里","LIN":"11鄰","STREET":"仁和路","SECT":" ","MAREA":" ","LANE":" ","ALLEY":" ","HOUSE_NO":"９５號","E_COORD97":171315.45999999999,"N_COORD97":2541408.8900000001,"ADDRESS":"仁和路９５號","OBJECTID":594536},"geometry":{"x":171315.45999999996,"y":2541408.8900000025}},{"attributes":{"ID":594564,"DIS_CODE":0,"TOWNNAME":"佳里區","LI":"六安里","LIN":"11鄰","STREET":"佳北路","SECT":" ","MAREA":" ","LANE":" ","ALLEY":" ","HOUSE_NO":"９０號","E_COORD97":166152.14000000001,"N_COORD97":2563361.5,"ADDRESS":"佳北路９０號","OBJECTID":594537},"geometry":{"x":166152.13999999966,"y":2563361.5}},{"attributes":{"ID":594565,"DIS_CODE":0,"TOWNNAME":"北區","LI":"安民里","LIN":"11鄰","STREET":"國華街","SECT":"四段","MAREA":" ","LANE":" ","ALLEY":" ","HOUSE_NO":"１８號","E_COORD97":168028.85000000001,"N_COORD97":2544600.6200000001,"ADDRESS":"國華街四段１８號","OBJECTID":594538},"geometry":{"x":168028.84999999963,"y":2544600.620000001}},{"attributes":{"ID":594566,"DIS_CODE":0,"TOWNNAME":"東區","LI":"富裕里","LIN":"3鄰","STREET":"裕農路","SECT":" ","MAREA":" ","LANE":" ","ALLEY":" ","HOUSE_NO":"８號","E_COORD97":170519.17999999999,"N_COORD97":2542825.21,"ADDRESS":"裕農路８號","OBJECTID":594539},"geometry":{"x":170519.18000000063,"y":2542825.2100000028}},{"attributes":{"ID":594567,"DIS_CODE":0,"TOWNNAME":"東區","LI":"崇德里","LIN":"15鄰","STREET":"崇明十三街","SECT":" ","MAREA":" ","LANE":" ","ALLEY":" ","HOUSE_NO":"３５號","E_COORD97":170505.13,"N_COORD97":2541642.6000000001,"ADDRESS":"崇明十三街３５號","OBJECTID":594540},"geometry":{"x":170505.12999999989,"y":2541642.5999999996}},{"attributes":{"ID":594568,"DIS_CODE":0,"TOWNNAME":"東區","LI":"崇德里","LIN":"15鄰","STREET":"崇明十三街","SECT":" ","MAREA":" ","LANE":" ","ALLEY":" ","HOUSE_NO":"３５號之１","E_COORD97":170508.32999999999,"N_COORD97":2541645.1600000001,"ADDRESS":"崇明十三街３５號之１","OBJECTID":594541},"geometry":{"x":170508.33000000101,"y":2541645.1600000001}},{"attributes":{"ID":594569,"DIS_CODE":0,"TOWNNAME":"東區","LI":"龍山里","LIN":"10鄰","STREET":"東門路","SECT":"二段","MAREA":" ","LANE":" ","ALLEY":" ","HOUSE_NO":"９６號","E_COORD97":170037.01000000001,"N_COORD97":2542955.6000000001,"ADDRESS":"東門路二段９６號","OBJECTID":594542},"geometry":{"x":170037.01000000164,"y":2542955.6000000015}},{"attributes":{"ID":594570,"DIS_CODE":0,"TOWNNAME":"東區","LI":"裕農里","LIN":"11鄰","STREET":"東寧路","SECT":" ","MAREA":" ","LANE":" ","ALLEY":" ","HOUSE_NO":"５０８號地下層","E_COORD97":171122.14000000001,"N_COORD97":2543277.4500000002,"ADDRESS":"東寧路５０８號地下層","OBJECTID":594543},"geometry":{"x":171122.13999999966,"y":2543277.4499999993}},{"attributes":{"ID":594571,"DIS_CODE":0,"TOWNNAME":"東區","LI":"龍山里","LIN":"11鄰","STREET":"光華街","SECT":" ","MAREA":" ","LANE":" ","ALLEY":" ","HOUSE_NO":"１２號","E_COORD97":169955.89000000001,"N_COORD97":2542780.4100000001,"ADDRESS":"光華街１２號","OBJECTID":594544},"geometry":{"x":169955.88999999966,"y":2542780.4100000001}},{"attributes":{"ID":594572,"DIS_CODE":0,"TOWNNAME":"東區","LI":"龍山里","LIN":"11鄰","STREET":"光華街","SECT":" ","MAREA":" ","LANE":" ","ALLEY":" ","HOUSE_NO":"１４號","E_COORD97":169941.75,"N_COORD97":2542788.4300000002,"ADDRESS":"光華街１４號","OBJECTID":594545},"geometry":{"x":169941.75,"y":2542788.4300000016}},{"attributes":{"ID":594573,"DIS_CODE":0,"TOWNNAME":"東區","LI":"龍山里","LIN":"11鄰","STREET":"光華街","SECT":" ","MAREA":" ","LANE":" ","ALLEY":" ","HOUSE_NO":"１６號","E_COORD97":169935.84,"N_COORD97":2542791.02,"ADDRESS":"光華街１６號","OBJECTID":594546},"geometry":{"x":169935.83999999985,"y":2542791.0200000014}},{"attributes":{"ID":594574,"DIS_CODE":0,"TOWNNAME":"東區","LI":"龍山里","LIN":"11鄰","STREET":"光華街","SECT":" ","MAREA":" ","LANE":" ","ALLEY":" ","HOUSE_NO":"２２號","E_COORD97":169917.39000000001,"N_COORD97":2542802.6899999999,"ADDRESS":"光華街２２號","OBJECTID":594547},"geometry":{"x":169917.39000000153,"y":2542802.6900000013}},{"attributes":{"ID":594575,"DIS_CODE":0,"TOWNNAME":"東區","LI":"龍山里","LIN":"11鄰","STREET":"光華街","SECT":" ","MAREA":" ","LANE":" ","ALLEY":" ","HOUSE_NO":"２４號","E_COORD97":169911.04999999999,"N_COORD97":2542806.1499999999,"ADDRESS":"光華街２４號","OBJECTID":594548},"geometry":{"x":169911.04999999981,"y":2542806.1500000004}},{"attributes":{"ID":594576,"DIS_CODE":0,"TOWNNAME":"東區","LI":"龍山里","LIN":"11鄰","STREET":"光華街","SECT":" ","MAREA":" ","LANE":" ","ALLEY":" ","HOUSE_NO":"２６號","E_COORD97":169906.57999999999,"N_COORD97":2542810.1800000002,"ADDRESS":"光華街２６號","OBJECTID":594549},"geometry":{"x":169906.58000000101,"y":2542810.1800000016}},{"attributes":{"ID":594577,"DIS_CODE":0,"TOWNNAME":"東區","LI":"龍山里","LIN":"11鄰","STREET":"光華街","SECT":" ","MAREA":" ","LANE":" ","ALLEY":" ","HOUSE_NO":"２８號","E_COORD97":169901.82999999999,"N_COORD97":2542813.3500000001,"ADDRESS":"光華街２８號","OBJECTID":594550},"geometry":{"x":169901.83000000101,"y":2542813.3499999996}},{"attributes":{"ID":594578,"DIS_CODE":0,"TOWNNAME":"東區","LI":"龍山里","LIN":"11鄰","STREET":"光華街","SECT":" ","MAREA":" ","LANE":" ","ALLEY":" ","HOUSE_NO":"３２號","E_COORD97":169892.73999999999,"N_COORD97":2542818.5299999998,"ADDRESS":"光華街３２號","OBJECTID":594551},"geometry":{"x":169892.74000000022,"y":2542818.5299999993}},{"attributes":{"ID":594579,"DIS_CODE":0,"TOWNNAME":"東區","LI":"龍山里","LIN":"11鄰","STREET":"光華街","SECT":" ","MAREA":" ","LANE":" ","ALLEY":" ","HOUSE_NO":"３４號","E_COORD97":169877.60999999999,"N_COORD97":2542820.2599999998,"ADDRESS":"光華街３４號","OBJECTID":594552},"geometry":{"x":169877.6100000022,"y":2542820.2600000016}},{"attributes":{"ID":594580,"DIS_CODE":0,"TOWNNAME":"東區","LI":"龍山里","LIN":"11鄰","STREET":"光華街","SECT":" ","MAREA":" ","LANE":" ","ALLEY":" ","HOUSE_NO":"３６號","E_COORD97":169869.25,"N_COORD97":2542819.54,"ADDRESS":"光華街３６號","OBJECTID":594553},"geometry":{"x":169869.25,"y":2542819.5400000028}},{"attributes":{"ID":594581,"DIS_CODE":0,"TOWNNAME":"東區","LI":"後甲里","LIN":"18鄰","STREET":"建東街","SECT":" ","MAREA":" ","LANE":" ","ALLEY":" ","HOUSE_NO":"４０號","E_COORD97":171790.67999999999,"N_COORD97":2543391.77,"ADDRESS":"建東街４０號","OBJECTID":594554},"geometry":{"x":171790.68000000063,"y":2543391.7700000014}},{"attributes":{"ID":594582,"DIS_CODE":0,"TOWNNAME":"歸仁區","LI":"歸仁里","LIN":"11鄰","STREET":"信義北路","SECT":" ","MAREA":" ","LANE":" ","ALLEY":" ","HOUSE_NO":"７３號四樓","E_COORD97":177983.60999999999,"N_COORD97":2540971.48,"ADDRESS":"信義北路７３號四樓","OBJECTID":594555},"geometry":{"x":177983.61000000034,"y":2540971.4800000023}},{"attributes":{"ID":594583,"DIS_CODE":0,"TOWNNAME":"歸仁區","LI":"歸仁里","LIN":"11鄰","STREET":"信義北路","SECT":" ","MAREA":" ","LANE":" ","ALLEY":" ","HOUSE_NO":"７５號三樓","E_COORD97":177983.60999999999,"N_COORD97":2540974.48,"ADDRESS":"信義北路７５號三樓","OBJECTID":594556},"geometry":{"x":177983.61000000034,"y":2540974.4800000023}},{"attributes":{"ID":594584,"DIS_CODE":0,"TOWNNAME":"北區","LI":"六甲里","LIN":"11鄰","STREET":"西門路","SECT":"四段","MAREA":" ","LANE":" ","ALLEY":" ","HOUSE_NO":"２６２號二樓","E_COORD97":168930.45000000001,"N_COORD97":2545825.6899999999,"ADDRESS":"西門路四段２６２號二樓","OBJECTID":594557},"geometry":{"x":168930.45000000019,"y":2545825.6899999995}},{"attributes":{"ID":594585,"DIS_CODE":0,"TOWNNAME":"新營區","LI":"民權里","LIN":"11鄰","STREET":"中華路","SECT":" ","MAREA":" ","LANE":" ","ALLEY":" ","HOUSE_NO":"１８之５號八樓之１","E_COORD97":179848.88,"N_COORD97":2578234.6400000001,"ADDRESS":"中華路１８之５號八樓之１","OBJECTID":594558},"geometry":{"x":179848.88000000082,"y":2578234.6400000006}},{"attributes":{"ID":594586,"DIS_CODE":0,"TOWNNAME":"新營區","LI":"民權里","LIN":"11鄰","STREET":"中華路","SECT":" ","MAREA":" ","LANE":" ","ALLEY":" ","HOUSE_NO":"１８之５號二樓之１","E_COORD97":179848.88,"N_COORD97":2578234.6400000001,"ADDRESS":"中華路１８之５號二樓之１","OBJECTID":594559},"geometry":{"x":179848.88000000082,"y":2578234.6400000006}},{"attributes":{"ID":594587,"DIS_CODE":0,"TOWNNAME":"新營區","LI":"民權里","LIN":"11鄰","STREET":"中華路","SECT":" ","MAREA":" ","LANE":" ","ALLEY":" ","HOUSE_NO":"１８之５號六樓之２","E_COORD97":179849.01000000001,"N_COORD97":2578234.6400000001,"ADDRESS":"中華路１８之５號六樓之２","OBJECTID":594560},"geometry":{"x":179849.01000000071,"y":2578234.6400000006}},{"attributes":{"ID":594588,"DIS_CODE":0,"TOWNNAME":"新營區","LI":"民權里","LIN":"11鄰","STREET":"中華路","SECT":" ","MAREA":" ","LANE":" ","ALLEY":" ","HOUSE_NO":"１８之５號三樓之２","E_COORD97":179849.01000000001,"N_COORD97":2578234.6400000001,"ADDRESS":"中華路１８之５號三樓之２","OBJECTID":594561},"geometry":{"x":179849.01000000071,"y":2578234.6400000006}},{"attributes":{"ID":594589,"DIS_CODE":0,"TOWNNAME":"安平區","LI":"怡平里","LIN":"11鄰","STREET":"建平十二街","SECT":" ","MAREA":" ","LANE":" ","ALLEY":" ","HOUSE_NO":"１３５號二樓之６","E_COORD97":165720.42000000001,"N_COORD97":2544006.29,"ADDRESS":"建平十二街１３５號二樓之６","OBJECTID":594562},"geometry":{"x":165720.42000000086,"y":2544006.2899999991}},{"attributes":{"ID":594590,"DIS_CODE":0,"TOWNNAME":"安平區","LI":"怡平里","LIN":"11鄰","STREET":"建平十二街","SECT":" ","MAREA":" ","LANE":" ","ALLEY":" ","HOUSE_NO":"１３５號二樓之７","E_COORD97":165720.42000000001,"N_COORD97":2544006.29,"ADDRESS":"建平十二街１３５號二樓之７","OBJECTID":594563},"geometry":{"x":165720.42000000086,"y":2544006.2899999991}},{"attributes":{"ID":594591,"DIS_CODE":0,"TOWNNAME":"安平區","LI":"怡平里","LIN":"11鄰","STREET":"建平十二街","SECT":" ","MAREA":" ","LANE":" ","ALLEY":" ","HOUSE_NO":"１３５號二樓之８","E_COORD97":165720.42000000001,"N_COORD97":2544006.29,"ADDRESS":"建平十二街１３５號二樓之８","OBJECTID":594564},"geometry":{"x":165720.42000000086,"y":2544006.2899999991}},{"attributes":{"ID":594592,"DIS_CODE":0,"TOWNNAME":"安平區","LI":"怡平里","LIN":"11鄰","STREET":"建平十二街","SECT":" ","MAREA":" ","LANE":" ","ALLEY":" ","HOUSE_NO":"１３５號三樓之１","E_COORD97":165720.42000000001,"N_COORD97":2544006.29,"ADDRESS":"建平十二街１３５號三樓之１","OBJECTID":594565},"geometry":{"x":165720.42000000086,"y":2544006.2899999991}},{"attributes":{"ID":594593,"DIS_CODE":0,"TOWNNAME":"安平區","LI":"怡平里","LIN":"11鄰","STREET":"建平十二街","SECT":" ","MAREA":" ","LANE":" ","ALLEY":" ","HOUSE_NO":"１３５號三樓之２","E_COORD97":165720.42000000001,"N_COORD97":2544006.29,"ADDRESS":"建平十二街１３５號三樓之２","OBJECTID":594566},"geometry":{"x":165720.42000000086,"y":2544006.2899999991}},{"attributes":{"ID":594594,"DIS_CODE":0,"TOWNNAME":"安平區","LI":"怡平里","LIN":"11鄰","STREET":"建平十二街","SECT":" ","MAREA":" ","LANE":" ","ALLEY":" ","HOUSE_NO":"１３５號三樓之３","E_COORD97":165720.42000000001,"N_COORD97":2544006.29,"ADDRESS":"建平十二街１３５號三樓之３","OBJECTID":594567},"geometry":{"x":165720.42000000086,"y":2544006.2899999991}},{"attributes":{"ID":594595,"DIS_CODE":0,"TOWNNAME":"安平區","LI":"怡平里","LIN":"11鄰","STREET":"建平十二街","SECT":" ","MAREA":" ","LANE":" ","ALLEY":" ","HOUSE_NO":"１３５號三樓之４","E_COORD97":165720.42000000001,"N_COORD97":2544006.29,"ADDRESS":"建平十二街１３５號三樓之４","OBJECTID":594568},"geometry":{"x":165720.42000000086,"y":2544006.2899999991}},{"attributes":{"ID":594596,"DIS_CODE":0,"TOWNNAME":"安平區","LI":"怡平里","LIN":"11鄰","STREET":"建平十二街","SECT":" ","MAREA":" ","LANE":" ","ALLEY":" ","HOUSE_NO":"１３５號三樓之５","E_COORD97":165720.42000000001,"N_COORD97":2544006.29,"ADDRESS":"建平十二街１３５號三樓之５","OBJECTID":594569},"geometry":{"x":165720.42000000086,"y":2544006.2899999991}},{"attributes":{"ID":594597,"DIS_CODE":0,"TOWNNAME":"安平區","LI":"怡平里","LIN":"11鄰","STREET":"建平十二街","SECT":" ","MAREA":" ","LANE":" ","ALLEY":" ","HOUSE_NO":"１３５號三樓之６","E_COORD97":165720.42000000001,"N_COORD97":2544006.29,"ADDRESS":"建平十二街１３５號三樓之６","OBJECTID":594570},"geometry":{"x":165720.42000000086,"y":2544006.2899999991}},{"attributes":{"ID":594598,"DIS_CODE":0,"TOWNNAME":"安平區","LI":"怡平里","LIN":"11鄰","STREET":"建平十二街","SECT":" ","MAREA":" ","LANE":" ","ALLEY":" ","HOUSE_NO":"１３５號三樓之７","E_COORD97":165720.42000000001,"N_COORD97":2544006.29,"ADDRESS":"建平十二街１３５號三樓之７","OBJECTID":594571},"geometry":{"x":165720.42000000086,"y":2544006.2899999991}},{"attributes":{"ID":594599,"DIS_CODE":0,"TOWNNAME":"安平區","LI":"怡平里","LIN":"11鄰","STREET":"建平十二街","SECT":" ","MAREA":" ","LANE":" ","ALLEY":" ","HOUSE_NO":"１３５號三樓之８","E_COORD97":165720.42000000001,"N_COORD97":2544006.29,"ADDRESS":"建平十二街１３５號三樓之８","OBJECTID":594572},"geometry":{"x":165720.42000000086,"y":2544006.2899999991}},{"attributes":{"ID":594600,"DIS_CODE":0,"TOWNNAME":"安平區","LI":"怡平里","LIN":"11鄰","STREET":"建平十二街","SECT":" ","MAREA":" ","LANE":" ","ALLEY":" ","HOUSE_NO":"１３５號四樓之１","E_COORD97":165720.42000000001,"N_COORD97":2544006.29,"ADDRESS":"建平十二街１３５號四樓之１","OBJECTID":594573},"geometry":{"x":165720.42000000086,"y":2544006.2899999991}},{"attributes":{"ID":594601,"DIS_CODE":0,"TOWNNAME":"安平區","LI":"怡平里","LIN":"11鄰","STREET":"建平十二街","SECT":" ","MAREA":" ","LANE":" ","ALLEY":" ","HOUSE_NO":"１３５號四樓之２","E_COORD97":165720.42000000001,"N_COORD97":2544006.29,"ADDRESS":"建平十二街１３５號四樓之２","OBJECTID":594574},"geometry":{"x":165720.42000000086,"y":2544006.2899999991}},{"attributes":{"ID":594602,"DIS_CODE":0,"TOWNNAME":"安平區","LI":"怡平里","LIN":"11鄰","STREET":"建平十二街","SECT":" ","MAREA":" ","LANE":" ","ALLEY":" ","HOUSE_NO":"１３５號四樓之３","E_COORD97":165720.42000000001,"N_COORD97":2544006.29,"ADDRESS":"建平十二街１３５號四樓之３","OBJECTID":594575},"geometry":{"x":165720.42000000086,"y":2544006.2899999991}},{"attributes":{"ID":594603,"DIS_CODE":0,"TOWNNAME":"安平區","LI":"怡平里","LIN":"11鄰","STREET":"建平十二街","SECT":" ","MAREA":" ","LANE":" ","ALLEY":" ","HOUSE_NO":"１３５號四樓之５","E_COORD97":165720.42000000001,"N_COORD97":2544006.29,"ADDRESS":"建平十二街１３５號四樓之５","OBJECTID":594576},"geometry":{"x":165720.42000000086,"y":2544006.2899999991}},{"attributes":{"ID":594604,"DIS_CODE":0,"TOWNNAME":"安平區","LI":"怡平里","LIN":"11鄰","STREET":"建平十二街","SECT":" ","MAREA":" ","LANE":" ","ALLEY":" ","HOUSE_NO":"１３５號四樓之６","E_COORD97":165720.42000000001,"N_COORD97":2544006.29,"ADDRESS":"建平十二街１３５號四樓之６","OBJECTID":594577},"geometry":{"x":165720.42000000086,"y":2544006.2899999991}},{"attributes":{"ID":594605,"DIS_CODE":0,"TOWNNAME":"安平區","LI":"怡平里","LIN":"11鄰","STREET":"建平十二街","SECT":" ","MAREA":" ","LANE":" ","ALLEY":" ","HOUSE_NO":"１３５號四樓之７","E_COORD97":165720.42000000001,"N_COORD97":2544006.29,"ADDRESS":"建平十二街１３５號四樓之７","OBJECTID":594578},"geometry":{"x":165720.42000000086,"y":2544006.2899999991}},{"attributes":{"ID":594606,"DIS_CODE":0,"TOWNNAME":"安平區","LI":"怡平里","LIN":"11鄰","STREET":"建平十二街","SECT":" ","MAREA":" ","LANE":" ","ALLEY":" ","HOUSE_NO":"１３５號四樓之８","E_COORD97":165720.42000000001,"N_COORD97":2544006.29,"ADDRESS":"建平十二街１３５號四樓之８","OBJECTID":594579},"geometry":{"x":165720.42000000086,"y":2544006.2899999991}},{"attributes":{"ID":594607,"DIS_CODE":0,"TOWNNAME":"安平區","LI":"怡平里","LIN":"11鄰","STREET":"建平十二街","SECT":" ","MAREA":" ","LANE":" ","ALLEY":" ","HOUSE_NO":"１３５號五樓之１","E_COORD97":165720.42000000001,"N_COORD97":2544006.29,"ADDRESS":"建平十二街１３５號五樓之１","OBJECTID":594580},"geometry":{"x":165720.42000000086,"y":2544006.2899999991}},{"attributes":{"ID":594608,"DIS_CODE":0,"TOWNNAME":"安平區","LI":"怡平里","LIN":"11鄰","STREET":"建平十二街","SECT":" ","MAREA":" ","LANE":" ","ALLEY":" ","HOUSE_NO":"１３５號五樓之２","E_COORD97":165720.42000000001,"N_COORD97":2544006.29,"ADDRESS":"建平十二街１３５號五樓之２","OBJECTID":594581},"geometry":{"x":165720.42000000086,"y":2544006.2899999991}},{"attributes":{"ID":594609,"DIS_CODE":0,"TOWNNAME":"安平區","LI":"怡平里","LIN":"11鄰","STREET":"建平十二街","SECT":" ","MAREA":" ","LANE":" ","ALLEY":" ","HOUSE_NO":"１３５號五樓之３","E_COORD97":165720.42000000001,"N_COORD97":2544006.29,"ADDRESS":"建平十二街１３５號五樓之３","OBJECTID":594582},"geometry":{"x":165720.42000000086,"y":2544006.2899999991}},{"attributes":{"ID":594610,"DIS_CODE":0,"TOWNNAME":"安平區","LI":"怡平里","LIN":"11鄰","STREET":"建平十二街","SECT":" ","MAREA":" ","LANE":" ","ALLEY":" ","HOUSE_NO":"１３５號五樓之４","E_COORD97":165720.42000000001,"N_COORD97":2544006.29,"ADDRESS":"建平十二街１３５號五樓之４","OBJECTID":594583},"geometry":{"x":165720.42000000086,"y":2544006.2899999991}},{"attributes":{"ID":594611,"DIS_CODE":0,"TOWNNAME":"安平區","LI":"怡平里","LIN":"11鄰","STREET":"建平十二街","SECT":" ","MAREA":" ","LANE":" ","ALLEY":" ","HOUSE_NO":"１３５號五樓之５","E_COORD97":165720.42000000001,"N_COORD97":2544006.29,"ADDRESS":"建平十二街１３５號五樓之５","OBJECTID":594584},"geometry":{"x":165720.42000000086,"y":2544006.2899999991}},{"attributes":{"ID":594612,"DIS_CODE":0,"TOWNNAME":"安平區","LI":"怡平里","LIN":"11鄰","STREET":"建平十二街","SECT":" ","MAREA":" ","LANE":" ","ALLEY":" ","HOUSE_NO":"１３５號五樓之６","E_COORD97":165720.42000000001,"N_COORD97":2544006.29,"ADDRESS":"建平十二街１３５號五樓之６","OBJECTID":594585},"geometry":{"x":165720.42000000086,"y":2544006.2899999991}},{"attributes":{"ID":594613,"DIS_CODE":0,"TOWNNAME":"東區","LI":"後甲里","LIN":"10鄰","STREET":"建東街","SECT":" ","MAREA":" ","LANE":" ","ALLEY":" ","HOUSE_NO":"７０號","E_COORD97":171759.35999999999,"N_COORD97":2543467.8199999998,"ADDRESS":"建東街７０號","OBJECTID":594586},"geometry":{"x":171759.3600000022,"y":2543467.8200000022}},{"attributes":{"ID":594614,"DIS_CODE":0,"TOWNNAME":"安平區","LI":"怡平里","LIN":"11鄰","STREET":"建平十二街","SECT":" ","MAREA":" ","LANE":" ","ALLEY":" ","HOUSE_NO":"１３５號五樓之７","E_COORD97":165720.42000000001,"N_COORD97":2544006.29,"ADDRESS":"建平十二街１３５號五樓之７","OBJECTID":594587},"geometry":{"x":165720.42000000086,"y":2544006.2899999991}},{"attributes":{"ID":594615,"DIS_CODE":0,"TOWNNAME":"安平區","LI":"怡平里","LIN":"11鄰","STREET":"建平十二街","SECT":" ","MAREA":" ","LANE":" ","ALLEY":" ","HOUSE_NO":"１３５號五樓之８","E_COORD97":165720.42000000001,"N_COORD97":2544006.29,"ADDRESS":"建平十二街１３５號五樓之８","OBJECTID":594588},"geometry":{"x":165720.42000000086,"y":2544006.2899999991}},{"attributes":{"ID":594616,"DIS_CODE":0,"TOWNNAME":"安平區","LI":"怡平里","LIN":"11鄰","STREET":"建平十二街","SECT":" ","MAREA":" ","LANE":" ","ALLEY":" ","HOUSE_NO":"１３５號六樓之１","E_COORD97":165720.42000000001,"N_COORD97":2544006.29,"ADDRESS":"建平十二街１３５號六樓之１","OBJECTID":594589},"geometry":{"x":165720.42000000086,"y":2544006.2899999991}},{"attributes":{"ID":594617,"DIS_CODE":0,"TOWNNAME":"安平區","LI":"怡平里","LIN":"11鄰","STREET":"建平十二街","SECT":" ","MAREA":" ","LANE":" ","ALLEY":" ","HOUSE_NO":"１３５號六樓之３","E_COORD97":165720.42000000001,"N_COORD97":2544006.29,"ADDRESS":"建平十二街１３５號六樓之３","OBJECTID":594590},"geometry":{"x":165720.42000000086,"y":2544006.2899999991}},{"attributes":{"ID":594618,"DIS_CODE":0,"TOWNNAME":"安平區","LI":"怡平里","LIN":"11鄰","STREET":"建平十二街","SECT":" ","MAREA":" ","LANE":" ","ALLEY":" ","HOUSE_NO":"１３５號六樓之４","E_COORD97":165720.42000000001,"N_COORD97":2544006.29,"ADDRESS":"建平十二街１３５號六樓之４","OBJECTID":594591},"geometry":{"x":165720.42000000086,"y":2544006.2899999991}},{"attributes":{"ID":594619,"DIS_CODE":0,"TOWNNAME":"安平區","LI":"怡平里","LIN":"11鄰","STREET":"建平十二街","SECT":" ","MAREA":" ","LANE":" ","ALLEY":" ","HOUSE_NO":"１３５號六樓之５","E_COORD97":165720.42000000001,"N_COORD97":2544006.29,"ADDRESS":"建平十二街１３５號六樓之５","OBJECTID":594592},"geometry":{"x":165720.42000000086,"y":2544006.2899999991}},{"attributes":{"ID":594620,"DIS_CODE":0,"TOWNNAME":"安平區","LI":"怡平里","LIN":"11鄰","STREET":"建平十二街","SECT":" ","MAREA":" ","LANE":" ","ALLEY":" ","HOUSE_NO":"１３５號六樓之６","E_COORD97":165720.42000000001,"N_COORD97":2544006.29,"ADDRESS":"建平十二街１３５號六樓之６","OBJECTID":594593},"geometry":{"x":165720.42000000086,"y":2544006.2899999991}},{"attributes":{"ID":594621,"DIS_CODE":0,"TOWNNAME":"安平區","LI":"怡平里","LIN":"11鄰","STREET":"建平十二街","SECT":" ","MAREA":" ","LANE":" ","ALLEY":" ","HOUSE_NO":"１３５號六樓之７","E_COORD97":165720.42000000001,"N_COORD97":2544006.29,"ADDRESS":"建平十二街１３５號六樓之７","OBJECTID":594594},"geometry":{"x":165720.42000000086,"y":2544006.2899999991}},{"attributes":{"ID":594622,"DIS_CODE":0,"TOWNNAME":"安平區","LI":"怡平里","LIN":"11鄰","STREET":"建平十二街","SECT":" ","MAREA":" ","LANE":" ","ALLEY":" ","HOUSE_NO":"１３５號六樓之８","E_COORD97":165720.42000000001,"N_COORD97":2544006.29,"ADDRESS":"建平十二街１３５號六樓之８","OBJECTID":594595},"geometry":{"x":165720.42000000086,"y":2544006.2899999991}},{"attributes":{"ID":594623,"DIS_CODE":0,"TOWNNAME":"安平區","LI":"怡平里","LIN":"11鄰","STREET":"建平十二街","SECT":" ","MAREA":" ","LANE":" ","ALLEY":" ","HOUSE_NO":"１３５號六樓之２","E_COORD97":165720.42000000001,"N_COORD97":2544006.29,"ADDRESS":"建平十二街１３５號六樓之２","OBJECTID":594596},"geometry":{"x":165720.42000000086,"y":2544006.2899999991}},{"attributes":{"ID":594624,"DIS_CODE":0,"TOWNNAME":"東區","LI":"崇德里","LIN":"21鄰","STREET":"崇德路","SECT":" ","MAREA":" ","LANE":" ","ALLEY":" ","HOUSE_NO":"４６２號","E_COORD97":170711.39999999999,"N_COORD97":2541654.9900000002,"ADDRESS":"崇德路４６２號","OBJECTID":594597},"geometry":{"x":170711.40000000224,"y":2541654.9900000021}},{"attributes":{"ID":594625,"DIS_CODE":0,"TOWNNAME":"東區","LI":"大德里","LIN":"7鄰","STREET":"立德九路","SECT":" ","MAREA":" ","LANE":" ","ALLEY":" ","HOUSE_NO":"５９號","E_COORD97":169553.67999999999,"N_COORD97":2541985.75,"ADDRESS":"立德九路５９號","OBJECTID":594598},"geometry":{"x":169553.6799999997,"y":2541985.7500000019}},{"attributes":{"ID":594626,"DIS_CODE":0,"TOWNNAME":"東區","LI":"圍下里","LIN":"10鄰","STREET":"青年路","SECT":" ","MAREA":" ","LANE":" ","ALLEY":" ","HOUSE_NO":"３２７號","E_COORD97":169459.41,"N_COORD97":2543558.1299999999,"ADDRESS":"青年路３２７號","OBJECTID":594599},"geometry":{"x":169459.41000000015,"y":2543558.1300000008}},{"attributes":{"ID":594627,"DIS_CODE":0,"TOWNNAME":"東區","LI":"崇德里","LIN":"8鄰","STREET":"崇善路","SECT":" ","MAREA":" ","LANE":" ","ALLEY":" ","HOUSE_NO":"３６０號","E_COORD97":170906.29000000001,"N_COORD97":2541771.4900000002,"ADDRESS":"崇善路３６０號","OBJECTID":594600},"geometry":{"x":170906.29000000004,"y":2541771.4900000021}}]}