{"displayFieldName":"TOWNNAME","fieldAliases":{"ID":"ID","DIS_CODE":"DIS_CODE","TOWNNAME":"TOWNNAME","LI":"LI","LIN":"LIN","STREET":"STREET","SECT":"SECT","MAREA":"MAREA","LANE":"LANE","ALLEY":"ALLEY","HOUSE_NO":"HOUSE_NO","E_COORD97":"E_COORD97","N_COORD97":"N_COORD97","ADDRESS":"ADDRESS","OBJECTID":"OBJECTID"},"geometryType":"esriGeometryPoint","spatialReference":{"wkid":102443,"latestWkid":3826},"fields":[{"name":"ID","type":"esriFieldTypeDouble","alias":"ID"},{"name":"DIS_CODE","type":"esriFieldTypeInteger","alias":"DIS_CODE"},{"name":"TOWNNAME","type":"esriFieldTypeString","alias":"TOWNNAME","length":8},{"name":"LI","type":"esriFieldTypeString","alias":"LI","length":8},{"name":"LIN","type":"esriFieldTypeString","alias":"LIN","length":12},{"name":"STREET","type":"esriFieldTypeString","alias":"STREET","length":20},{"name":"SECT","type":"esriFieldTypeString","alias":"SECT","length":8},{"name":"MAREA","type":"esriFieldTypeString","alias":"MAREA","length":12},{"name":"LANE","type":"esriFieldTypeString","alias":"LANE","length":10},{"name":"ALLEY","type":"esriFieldTypeString","alias":"ALLEY","length":10},{"name":"HOUSE_NO","type":"esriFieldTypeString","alias":"HOUSE_NO","length":20},{"name":"E_COORD97","type":"esriFieldTypeDouble","alias":"E_COORD97"},{"name":"N_COORD97","type":"esriFieldTypeDouble","alias":"N_COORD97"},{"name":"ADDRESS","type":"esriFieldTypeString","alias":"ADDRESS","length":50},{"name":"OBJECTID","type":"esriFieldTypeOID","alias":"OBJECTID"}],"features":[{"attributes":{"ID":285607,"DIS_CODE":0,"TOWNNAME":"西港區","LI":"新復里","LIN":"2鄰","STREET":" ","SECT":" ","MAREA":"新港","LANE":" ","ALLEY":" ","HOUSE_NO":"１４號","E_COORD97":166538.94,"N_COORD97":2556445.1699999999,"ADDRESS":"新港１４號","OBJECTID":285601},"geometry":{"x":166538.94000000041,"y":2556445.1699999981}},{"attributes":{"ID":285608,"DIS_CODE":0,"TOWNNAME":"西港區","LI":"新復里","LIN":"2鄰","STREET":" ","SECT":" ","MAREA":"新港","LANE":" ","ALLEY":" ","HOUSE_NO":"１５號","E_COORD97":166560.20999999999,"N_COORD97":2556439.6899999999,"ADDRESS":"新港１５號","OBJECTID":285602},"geometry":{"x":166560.20999999996,"y":2556439.6899999995}},{"attributes":{"ID":285609,"DIS_CODE":0,"TOWNNAME":"西港區","LI":"新復里","LIN":"2鄰","STREET":" ","SECT":" ","MAREA":"新港","LANE":" ","ALLEY":" ","HOUSE_NO":"１６號","E_COORD97":166586.20000000001,"N_COORD97":2556465.3500000001,"ADDRESS":"新港１６號","OBJECTID":285603},"geometry":{"x":166586.20000000019,"y":2556465.3500000015}},{"attributes":{"ID":285610,"DIS_CODE":0,"TOWNNAME":"中西區","LI":"三民里","LIN":"2鄰","STREET":"民權路","SECT":"二段","MAREA":" ","LANE":" ","ALLEY":" ","HOUSE_NO":"１９號","E_COORD97":168622.09,"N_COORD97":2543824.8100000001,"ADDRESS":"民權路二段１９號","OBJECTID":285604},"geometry":{"x":168622.08999999985,"y":2543824.8100000005}},{"attributes":{"ID":285611,"DIS_CODE":0,"TOWNNAME":"安南區","LI":"淵東里","LIN":"12鄰","STREET":"海佃路","SECT":"四段","MAREA":" ","LANE":"５５巷","ALLEY":" ","HOUSE_NO":"１２號","E_COORD97":165642.35000000001,"N_COORD97":2550597.1099999999,"ADDRESS":"海佃路四段５５巷１２號","OBJECTID":285605},"geometry":{"x":165642.35000000149,"y":2550597.1100000013}},{"attributes":{"ID":285612,"DIS_CODE":0,"TOWNNAME":"西港區","LI":"劉厝里","LIN":"2鄰","STREET":" ","SECT":" ","MAREA":"劉厝","LANE":" ","ALLEY":" ","HOUSE_NO":"１０號","E_COORD97":165806.76999999999,"N_COORD97":2558546.8300000001,"ADDRESS":"劉厝１０號","OBJECTID":285606},"geometry":{"x":165806.76999999955,"y":2558546.8300000019}},{"attributes":{"ID":285613,"DIS_CODE":0,"TOWNNAME":"安南區","LI":"淵東里","LIN":"12鄰","STREET":"海佃路","SECT":"四段","MAREA":" ","LANE":"５５巷","ALLEY":" ","HOUSE_NO":"１４號","E_COORD97":165637.73999999999,"N_COORD97":2550595.5800000001,"ADDRESS":"海佃路四段５５巷１４號","OBJECTID":285607},"geometry":{"x":165637.74000000115,"y":2550595.5800000019}},{"attributes":{"ID":285614,"DIS_CODE":0,"TOWNNAME":"安南區","LI":"淵東里","LIN":"12鄰","STREET":"海佃路","SECT":"四段","MAREA":" ","LANE":"５５巷","ALLEY":" ","HOUSE_NO":"１６號","E_COORD97":165632.20999999999,"N_COORD97":2550593.7400000002,"ADDRESS":"海佃路四段５５巷１６號","OBJECTID":285608},"geometry":{"x":165632.21000000089,"y":2550593.7400000021}},{"attributes":{"ID":285615,"DIS_CODE":0,"TOWNNAME":"安南區","LI":"淵東里","LIN":"12鄰","STREET":"海佃路","SECT":"四段","MAREA":" ","LANE":"５５巷","ALLEY":" ","HOUSE_NO":"２２號","E_COORD97":165610.23999999999,"N_COORD97":2550586.5299999998,"ADDRESS":"海佃路四段５５巷２２號","OBJECTID":285609},"geometry":{"x":165610.24000000115,"y":2550586.5299999993}},{"attributes":{"ID":285616,"DIS_CODE":0,"TOWNNAME":"安南區","LI":"淵東里","LIN":"12鄰","STREET":"海佃路","SECT":"四段","MAREA":" ","LANE":"５５巷","ALLEY":" ","HOUSE_NO":"２４號","E_COORD97":165605.79999999999,"N_COORD97":2550585.1099999999,"ADDRESS":"海佃路四段５５巷２４號","OBJECTID":285610},"geometry":{"x":165605.80000000075,"y":2550585.1099999994}},{"attributes":{"ID":285617,"DIS_CODE":0,"TOWNNAME":"永康區","LI":"西勢里","LIN":"2鄰","STREET":"西勢路","SECT":" ","MAREA":" ","LANE":"２７０巷","ALLEY":" ","HOUSE_NO":"２號","E_COORD97":175601.06,"N_COORD97":2546824.6899999999,"ADDRESS":"西勢路２７０巷２號","OBJECTID":285611},"geometry":{"x":175601.05999999959,"y":2546824.6899999995}},{"attributes":{"ID":285618,"DIS_CODE":0,"TOWNNAME":"佳里區","LI":"安西里","LIN":"56鄰","STREET":"佳安中街","SECT":" ","MAREA":" ","LANE":" ","ALLEY":" ","HOUSE_NO":"２７號","E_COORD97":163898.5,"N_COORD97":2562280.96,"ADDRESS":"佳安中街２７號","OBJECTID":285612},"geometry":{"x":163898.5,"y":2562280.9600000009}},{"attributes":{"ID":285619,"DIS_CODE":0,"TOWNNAME":"佳里區","LI":"安西里","LIN":"56鄰","STREET":"佳安中街","SECT":" ","MAREA":" ","LANE":" ","ALLEY":" ","HOUSE_NO":"２８號","E_COORD97":163908.51999999999,"N_COORD97":2562296.4300000002,"ADDRESS":"佳安中街２８號","OBJECTID":285613},"geometry":{"x":163908.51999999862,"y":2562296.4300000016}},{"attributes":{"ID":285620,"DIS_CODE":0,"TOWNNAME":"佳里區","LI":"安西里","LIN":"56鄰","STREET":"佳安中街","SECT":" ","MAREA":" ","LANE":" ","ALLEY":" ","HOUSE_NO":"２９號","E_COORD97":163894.04999999999,"N_COORD97":2562280.3700000001,"ADDRESS":"佳安中街２９號","OBJECTID":285614},"geometry":{"x":163894.05000000075,"y":2562280.3700000029}},{"attributes":{"ID":285621,"DIS_CODE":0,"TOWNNAME":"佳里區","LI":"安西里","LIN":"56鄰","STREET":"佳安中街","SECT":" ","MAREA":" ","LANE":" ","ALLEY":" ","HOUSE_NO":"２號","E_COORD97":163960.06,"N_COORD97":2562295.27,"ADDRESS":"佳安中街２號","OBJECTID":285615},"geometry":{"x":163960.06000000052,"y":2562295.2699999996}},{"attributes":{"ID":285622,"DIS_CODE":0,"TOWNNAME":"佳里區","LI":"安西里","LIN":"56鄰","STREET":"佳安中街","SECT":" ","MAREA":" ","LANE":" ","ALLEY":" ","HOUSE_NO":"３０號","E_COORD97":163903.72,"N_COORD97":2562296.25,"ADDRESS":"佳安中街３０號","OBJECTID":285616},"geometry":{"x":163903.71999999974,"y":2562296.25}},{"attributes":{"ID":285623,"DIS_CODE":0,"TOWNNAME":"佳里區","LI":"安西里","LIN":"56鄰","STREET":"佳安中街","SECT":" ","MAREA":" ","LANE":" ","ALLEY":" ","HOUSE_NO":"３１號","E_COORD97":163889.63,"N_COORD97":2562280.79,"ADDRESS":"佳安中街３１號","OBJECTID":285617},"geometry":{"x":163889.63000000175,"y":2562280.7899999991}},{"attributes":{"ID":285624,"DIS_CODE":0,"TOWNNAME":"佳里區","LI":"安西里","LIN":"56鄰","STREET":"佳安中街","SECT":" ","MAREA":" ","LANE":" ","ALLEY":" ","HOUSE_NO":"３２號","E_COORD97":163899.04999999999,"N_COORD97":2562296.2799999998,"ADDRESS":"佳安中街３２號","OBJECTID":285618},"geometry":{"x":163899.05000000075,"y":2562296.2800000012}},{"attributes":{"ID":285625,"DIS_CODE":0,"TOWNNAME":"安南區","LI":"淵東里","LIN":"12鄰","STREET":"海佃路","SECT":"四段","MAREA":" ","LANE":"５５巷","ALLEY":" ","HOUSE_NO":"２６號","E_COORD97":165602.26999999999,"N_COORD97":2550583.7999999998,"ADDRESS":"海佃路四段５５巷２６號","OBJECTID":285619},"geometry":{"x":165602.27000000048,"y":2550583.8000000026}},{"attributes":{"ID":285626,"DIS_CODE":0,"TOWNNAME":"安南區","LI":"淵東里","LIN":"12鄰","STREET":"海佃路","SECT":"四段","MAREA":" ","LANE":"５５巷","ALLEY":" ","HOUSE_NO":"２８號","E_COORD97":165598.03,"N_COORD97":2550582.5600000001,"ADDRESS":"海佃路四段５５巷２８號","OBJECTID":285620},"geometry":{"x":165598.03000000119,"y":2550582.5600000024}},{"attributes":{"ID":285627,"DIS_CODE":0,"TOWNNAME":"安南區","LI":"淵東里","LIN":"12鄰","STREET":"海佃路","SECT":"四段","MAREA":" ","LANE":"５５巷","ALLEY":" ","HOUSE_NO":"２號","E_COORD97":165665.07999999999,"N_COORD97":2550605.3900000001,"ADDRESS":"海佃路四段５５巷２號","OBJECTID":285621},"geometry":{"x":165665.08000000194,"y":2550605.3900000006}},{"attributes":{"ID":285628,"DIS_CODE":0,"TOWNNAME":"安南區","LI":"淵東里","LIN":"12鄰","STREET":"海佃路","SECT":"四段","MAREA":" ","LANE":"５５巷","ALLEY":" ","HOUSE_NO":"３０號","E_COORD97":165593.98000000001,"N_COORD97":2550581.1099999999,"ADDRESS":"海佃路四段５５巷３０號","OBJECTID":285622},"geometry":{"x":165593.98000000138,"y":2550581.1100000013}},{"attributes":{"ID":285629,"DIS_CODE":0,"TOWNNAME":"安南區","LI":"淵東里","LIN":"12鄰","STREET":"海佃路","SECT":"四段","MAREA":" ","LANE":"５５巷","ALLEY":" ","HOUSE_NO":"３４號","E_COORD97":165586.20000000001,"N_COORD97":2550578.52,"ADDRESS":"海佃路四段５５巷３４號","OBJECTID":285623},"geometry":{"x":165586.19999999925,"y":2550578.5200000014}},{"attributes":{"ID":285630,"DIS_CODE":0,"TOWNNAME":"安南區","LI":"淵東里","LIN":"12鄰","STREET":"海佃路","SECT":"四段","MAREA":" ","LANE":"５５巷","ALLEY":" ","HOUSE_NO":"３６號","E_COORD97":165581.95000000001,"N_COORD97":2550576.8999999999,"ADDRESS":"海佃路四段５５巷３６號","OBJECTID":285624},"geometry":{"x":165581.95000000112,"y":2550576.9000000022}},{"attributes":{"ID":285631,"DIS_CODE":0,"TOWNNAME":"安南區","LI":"淵東里","LIN":"12鄰","STREET":"海佃路","SECT":"四段","MAREA":" ","LANE":"５５巷","ALLEY":" ","HOUSE_NO":"３８號","E_COORD97":165577.92999999999,"N_COORD97":2550575.8399999999,"ADDRESS":"海佃路四段５５巷３８號","OBJECTID":285625},"geometry":{"x":165577.93000000063,"y":2550575.8400000017}},{"attributes":{"ID":285632,"DIS_CODE":0,"TOWNNAME":"安南區","LI":"淵東里","LIN":"12鄰","STREET":"海佃路","SECT":"四段","MAREA":" ","LANE":"５５巷","ALLEY":" ","HOUSE_NO":"４０號","E_COORD97":165573.91,"N_COORD97":2550573.73,"ADDRESS":"海佃路四段５５巷４０號","OBJECTID":285626},"geometry":{"x":165573.91000000015,"y":2550573.7300000023}},{"attributes":{"ID":285633,"DIS_CODE":0,"TOWNNAME":"安南區","LI":"淵東里","LIN":"12鄰","STREET":"海佃路","SECT":"四段","MAREA":" ","LANE":"５５巷","ALLEY":" ","HOUSE_NO":"４２號","E_COORD97":165569.89000000001,"N_COORD97":2550572.25,"ADDRESS":"海佃路四段５５巷４２號","OBJECTID":285627},"geometry":{"x":165569.8900000006,"y":2550572.25}},{"attributes":{"ID":285634,"DIS_CODE":0,"TOWNNAME":"安南區","LI":"淵東里","LIN":"12鄰","STREET":"海佃路","SECT":"四段","MAREA":" ","LANE":"５５巷","ALLEY":" ","HOUSE_NO":"４４號","E_COORD97":165565.44,"N_COORD97":2550571.4100000001,"ADDRESS":"海佃路四段５５巷４４號","OBJECTID":285628},"geometry":{"x":165565.44000000041,"y":2550571.4100000001}},{"attributes":{"ID":285635,"DIS_CODE":0,"TOWNNAME":"安南區","LI":"淵東里","LIN":"12鄰","STREET":"海佃路","SECT":"四段","MAREA":" ","LANE":"５５巷","ALLEY":" ","HOUSE_NO":"４６號","E_COORD97":165562.26999999999,"N_COORD97":2550570.1400000001,"ADDRESS":"海佃路四段５５巷４６號","OBJECTID":285629},"geometry":{"x":165562.26999999955,"y":2550570.1400000006}},{"attributes":{"ID":285636,"DIS_CODE":0,"TOWNNAME":"安南區","LI":"淵東里","LIN":"12鄰","STREET":"海佃路","SECT":"四段","MAREA":" ","LANE":"５５巷","ALLEY":" ","HOUSE_NO":"４號","E_COORD97":165661.39000000001,"N_COORD97":2550603.25,"ADDRESS":"海佃路四段５５巷４號","OBJECTID":285630},"geometry":{"x":165661.3900000006,"y":2550603.2500000037}},{"attributes":{"ID":285637,"DIS_CODE":0,"TOWNNAME":"安南區","LI":"城東里","LIN":"12鄰","STREET":"城北路","SECT":" ","MAREA":" ","LANE":"１３８巷","ALLEY":" ","HOUSE_NO":"１９號","E_COORD97":161070.19,"N_COORD97":2551682.0600000001,"ADDRESS":"城北路１３８巷１９號","OBJECTID":285631},"geometry":{"x":161070.19000000041,"y":2551682.0600000005}},{"attributes":{"ID":285638,"DIS_CODE":0,"TOWNNAME":"仁德區","LI":"仁義里","LIN":"2鄰","STREET":"中山路","SECT":" ","MAREA":" ","LANE":" ","ALLEY":" ","HOUSE_NO":"３０３號","E_COORD97":174109.37,"N_COORD97":2541213.2400000002,"ADDRESS":"中山路３０３號","OBJECTID":285632},"geometry":{"x":174109.37000000011,"y":2541213.2400000021}},{"attributes":{"ID":285639,"DIS_CODE":0,"TOWNNAME":"安南區","LI":"城東里","LIN":"12鄰","STREET":"城北路","SECT":" ","MAREA":" ","LANE":"１３８巷","ALLEY":" ","HOUSE_NO":"２１號","E_COORD97":161074.32999999999,"N_COORD97":2551683.4399999999,"ADDRESS":"城北路１３８巷２１號","OBJECTID":285633},"geometry":{"x":161074.33000000194,"y":2551683.4400000013}},{"attributes":{"ID":285640,"DIS_CODE":0,"TOWNNAME":"善化區","LI":"胡家里","LIN":"2鄰","STREET":" ","SECT":" ","MAREA":"胡厝寮","LANE":" ","ALLEY":" ","HOUSE_NO":"１８號","E_COORD97":175492.89999999999,"N_COORD97":2560724.75,"ADDRESS":"胡厝寮１８號","OBJECTID":285634},"geometry":{"x":175492.90000000037,"y":2560724.7500000019}},{"attributes":{"ID":285641,"DIS_CODE":0,"TOWNNAME":"仁德區","LI":"土庫里","LIN":"2鄰","STREET":"中正路","SECT":"三段","MAREA":" ","LANE":" ","ALLEY":" ","HOUSE_NO":"５０７號","E_COORD97":173989.31,"N_COORD97":2542990.5299999998,"ADDRESS":"中正路三段５０７號","OBJECTID":285635},"geometry":{"x":173989.30999999959,"y":2542990.5300000012}},{"attributes":{"ID":285642,"DIS_CODE":0,"TOWNNAME":"仁德區","LI":"一甲里","LIN":"2鄰","STREET":"中正路","SECT":"三段","MAREA":" ","LANE":" ","ALLEY":" ","HOUSE_NO":"１６７號","E_COORD97":173469.45999999999,"N_COORD97":2541822.27,"ADDRESS":"中正路三段１６７號","OBJECTID":285636},"geometry":{"x":173469.46000000089,"y":2541822.2700000014}},{"attributes":{"ID":285643,"DIS_CODE":0,"TOWNNAME":"中西區","LI":"三民里","LIN":"2鄰","STREET":"民權路","SECT":"二段","MAREA":" ","LANE":" ","ALLEY":" ","HOUSE_NO":"１５號","E_COORD97":168630.14000000001,"N_COORD97":2543820.1400000001,"ADDRESS":"民權路二段１５號","OBJECTID":285637},"geometry":{"x":168630.13999999966,"y":2543820.1400000006}},{"attributes":{"ID":285644,"DIS_CODE":0,"TOWNNAME":"中西區","LI":"三民里","LIN":"2鄰","STREET":"民權路","SECT":"二段","MAREA":" ","LANE":" ","ALLEY":" ","HOUSE_NO":"１７號","E_COORD97":168626.23999999999,"N_COORD97":2543822.4700000002,"ADDRESS":"民權路二段１７號","OBJECTID":285638},"geometry":{"x":168626.24000000115,"y":2543822.4700000025}},{"attributes":{"ID":285645,"DIS_CODE":0,"TOWNNAME":"中西區","LI":"三民里","LIN":"2鄰","STREET":"民權路","SECT":"二段","MAREA":" ","LANE":" ","ALLEY":" ","HOUSE_NO":"２１號","E_COORD97":168618.70999999999,"N_COORD97":2543827.6600000001,"ADDRESS":"民權路二段２１號","OBJECTID":285639},"geometry":{"x":168618.71000000183,"y":2543827.660000002}},{"attributes":{"ID":285646,"DIS_CODE":0,"TOWNNAME":"永康區","LI":"永康里","LIN":"42鄰","STREET":"永大五路","SECT":" ","MAREA":" ","LANE":" ","ALLEY":" ","HOUSE_NO":"３１號","E_COORD97":174223.45999999999,"N_COORD97":2546726.5,"ADDRESS":"永大五路３１號","OBJECTID":285640},"geometry":{"x":174223.46000000089,"y":2546726.5000000037}},{"attributes":{"ID":285647,"DIS_CODE":0,"TOWNNAME":"永康區","LI":"永康里","LIN":"6鄰","STREET":"中山南路","SECT":" ","MAREA":" ","LANE":" ","ALLEY":" ","HOUSE_NO":"６３７號","E_COORD97":173760.54000000001,"N_COORD97":2547377.9399999999,"ADDRESS":"中山南路６３７號","OBJECTID":285641},"geometry":{"x":173760.54000000097,"y":2547377.9400000013}},{"attributes":{"ID":285648,"DIS_CODE":0,"TOWNNAME":"永康區","LI":"\u25A0行里","LIN":"2鄰","STREET":"中正路","SECT":" ","MAREA":" ","LANE":" ","ALLEY":" ","HOUSE_NO":"９５８號","E_COORD97":171954.69,"N_COORD97":2548949.7999999998,"ADDRESS":"中正路９５８號","OBJECTID":285642},"geometry":{"x":171954.69000000041,"y":2548949.8000000026}},{"attributes":{"ID":285649,"DIS_CODE":0,"TOWNNAME":"安南區","LI":"城東里","LIN":"12鄰","STREET":"城北路","SECT":" ","MAREA":" ","LANE":"１３８巷","ALLEY":" ","HOUSE_NO":"２５號","E_COORD97":161082.5,"N_COORD97":2551687.2799999998,"ADDRESS":"城北路１３８巷２５號","OBJECTID":285643},"geometry":{"x":161082.5,"y":2551687.2800000031}},{"attributes":{"ID":285650,"DIS_CODE":0,"TOWNNAME":"安南區","LI":"鳳凰里","LIN":"12鄰","STREET":"安中路","SECT":"一段","MAREA":" ","LANE":"７００巷","ALLEY":" ","HOUSE_NO":"９５號","E_COORD97":167938.32999999999,"N_COORD97":2549272.5600000001,"ADDRESS":"安中路一段７００巷９５號","OBJECTID":285644},"geometry":{"x":167938.33000000194,"y":2549272.5599999987}},{"attributes":{"ID":285651,"DIS_CODE":0,"TOWNNAME":"仁德區","LI":"成功里","LIN":"12鄰","STREET":"成功二街","SECT":" ","MAREA":" ","LANE":"６巷","ALLEY":" ","HOUSE_NO":"２２號","E_COORD97":170870.17999999999,"N_COORD97":2539994.27,"ADDRESS":"成功二街６巷２２號","OBJECTID":285645},"geometry":{"x":170870.18000000063,"y":2539994.2700000033}},{"attributes":{"ID":285652,"DIS_CODE":0,"TOWNNAME":"新化區","LI":"崙頂里","LIN":"2鄰","STREET":" ","SECT":" ","MAREA":"崙子頂","LANE":" ","ALLEY":" ","HOUSE_NO":"８０號之１","E_COORD97":176867.91,"N_COORD97":2546783.2599999998,"ADDRESS":"崙子頂８０號之１","OBJECTID":285646},"geometry":{"x":176867.90999999922,"y":2546783.2600000016}},{"attributes":{"ID":285653,"DIS_CODE":0,"TOWNNAME":"新化區","LI":"崙頂里","LIN":"2鄰","STREET":" ","SECT":" ","MAREA":"崙子頂","LANE":" ","ALLEY":" ","HOUSE_NO":"８７號","E_COORD97":176849.07999999999,"N_COORD97":2546619.25,"ADDRESS":"崙子頂８７號","OBJECTID":285647},"geometry":{"x":176849.08000000007,"y":2546619.25}},{"attributes":{"ID":285654,"DIS_CODE":0,"TOWNNAME":"新化區","LI":"崙頂里","LIN":"2鄰","STREET":" ","SECT":" ","MAREA":"崙子頂","LANE":" ","ALLEY":" ","HOUSE_NO":"８４號之１","E_COORD97":176887.20999999999,"N_COORD97":2546696.2599999998,"ADDRESS":"崙子頂８４號之１","OBJECTID":285648},"geometry":{"x":176887.20999999996,"y":2546696.2599999998}},{"attributes":{"ID":285655,"DIS_CODE":0,"TOWNNAME":"新化區","LI":"全興里","LIN":"2鄰","STREET":" ","SECT":" ","MAREA":"竹子\u25A0","LANE":" ","ALLEY":" ","HOUSE_NO":"２００號之４１","E_COORD97":178114.10999999999,"N_COORD97":2547562.2599999998,"ADDRESS":"竹子\u25A0２００號之４１","OBJECTID":285649},"geometry":{"x":178114.11000000034,"y":2547562.2600000016}},{"attributes":{"ID":285656,"DIS_CODE":0,"TOWNNAME":"仁德區","LI":"成功里","LIN":"12鄰","STREET":"成功二街","SECT":" ","MAREA":" ","LANE":"３２巷","ALLEY":" ","HOUSE_NO":"６號","E_COORD97":170880.70000000001,"N_COORD97":2539923.27,"ADDRESS":"成功二街３２巷６號","OBJECTID":285650},"geometry":{"x":170880.70000000112,"y":2539923.2700000014}},{"attributes":{"ID":285657,"DIS_CODE":0,"TOWNNAME":"仁德區","LI":"成功里","LIN":"12鄰","STREET":"成功二街","SECT":" ","MAREA":" ","LANE":"５６巷","ALLEY":" ","HOUSE_NO":"４號","E_COORD97":170883.67999999999,"N_COORD97":2539859.5099999998,"ADDRESS":"成功二街５６巷４號","OBJECTID":285651},"geometry":{"x":170883.68000000063,"y":2539859.5099999998}},{"attributes":{"ID":285658,"DIS_CODE":0,"TOWNNAME":"仁德區","LI":"後壁里","LIN":"12鄰","STREET":"德善路","SECT":" ","MAREA":" ","LANE":"２４０巷","ALLEY":" ","HOUSE_NO":"１６號","E_COORD97":173834.82000000001,"N_COORD97":2538632.7599999998,"ADDRESS":"德善路２４０巷１６號","OBJECTID":285652},"geometry":{"x":173834.82000000123,"y":2538632.7600000016}},{"attributes":{"ID":285659,"DIS_CODE":0,"TOWNNAME":"仁德區","LI":"後壁里","LIN":"12鄰","STREET":"德善路","SECT":" ","MAREA":" ","LANE":"２１２巷","ALLEY":" ","HOUSE_NO":"１７號","E_COORD97":173739.06,"N_COORD97":2538652.27,"ADDRESS":"德善路２１２巷１７號","OBJECTID":285653},"geometry":{"x":173739.06000000052,"y":2538652.2700000014}},{"attributes":{"ID":285660,"DIS_CODE":0,"TOWNNAME":"仁德區","LI":"成功里","LIN":"12鄰","STREET":"成功二街","SECT":" ","MAREA":" ","LANE":"６巷","ALLEY":" ","HOUSE_NO":"７號","E_COORD97":170875.67999999999,"N_COORD97":2539978.0099999998,"ADDRESS":"成功二街６巷７號","OBJECTID":285654},"geometry":{"x":170875.68000000063,"y":2539978.0099999998}},{"attributes":{"ID":285661,"DIS_CODE":0,"TOWNNAME":"仁德區","LI":"上崙里","LIN":"12鄰","STREET":"德崙路","SECT":" ","MAREA":" ","LANE":"５３９巷","ALLEY":" ","HOUSE_NO":"６５號","E_COORD97":174591.26000000001,"N_COORD97":2537836.75,"ADDRESS":"德崙路５３９巷６５號","OBJECTID":285655},"geometry":{"x":174591.25999999978,"y":2537836.7500000019}},{"attributes":{"ID":285662,"DIS_CODE":0,"TOWNNAME":"仁德區","LI":"成功里","LIN":"12鄰","STREET":"成功二街","SECT":" ","MAREA":" ","LANE":"５６巷","ALLEY":" ","HOUSE_NO":"２號","E_COORD97":170887.53,"N_COORD97":2539859.2599999998,"ADDRESS":"成功二街５６巷２號","OBJECTID":285656},"geometry":{"x":170887.53000000119,"y":2539859.2600000016}},{"attributes":{"ID":285663,"DIS_CODE":0,"TOWNNAME":"仁德區","LI":"成功里","LIN":"12鄰","STREET":"成功二街","SECT":" ","MAREA":" ","LANE":"６巷","ALLEY":" ","HOUSE_NO":"２６號","E_COORD97":170861.69,"N_COORD97":2539994.02,"ADDRESS":"成功二街６巷２６號","OBJECTID":285657},"geometry":{"x":170861.69000000041,"y":2539994.0200000014}},{"attributes":{"ID":285664,"DIS_CODE":0,"TOWNNAME":"新化區","LI":"崙頂里","LIN":"2鄰","STREET":" ","SECT":" ","MAREA":"崙子頂","LANE":" ","ALLEY":" ","HOUSE_NO":"８５號之２","E_COORD97":176888.92999999999,"N_COORD97":2546668.2599999998,"ADDRESS":"崙子頂８５號之２","OBJECTID":285658},"geometry":{"x":176888.9299999997,"y":2546668.2600000016}},{"attributes":{"ID":285665,"DIS_CODE":0,"TOWNNAME":"仁德區","LI":"後壁里","LIN":"12鄰","STREET":"德善路","SECT":" ","MAREA":" ","LANE":"２４０巷","ALLEY":" ","HOUSE_NO":"２５號","E_COORD97":173844.54000000001,"N_COORD97":2538609.5099999998,"ADDRESS":"德善路２４０巷２５號","OBJECTID":285659},"geometry":{"x":173844.5400000019,"y":2538609.5100000035}},{"attributes":{"ID":285666,"DIS_CODE":0,"TOWNNAME":"新化區","LI":"崙頂里","LIN":"2鄰","STREET":" ","SECT":" ","MAREA":"崙子頂","LANE":" ","ALLEY":" ","HOUSE_NO":"８５號之１","E_COORD97":176894.10999999999,"N_COORD97":2546668.2599999998,"ADDRESS":"崙子頂８５號之１","OBJECTID":285660},"geometry":{"x":176894.1100000022,"y":2546668.2600000016}},{"attributes":{"ID":285667,"DIS_CODE":0,"TOWNNAME":"仁德區","LI":"後壁里","LIN":"12鄰","STREET":"德善路","SECT":" ","MAREA":" ","LANE":"２８０巷","ALLEY":" ","HOUSE_NO":"１４號","E_COORD97":173923.19,"N_COORD97":2538476.77,"ADDRESS":"德善路２８０巷１４號","OBJECTID":285661},"geometry":{"x":173923.19000000041,"y":2538476.7700000014}},{"attributes":{"ID":285668,"DIS_CODE":0,"TOWNNAME":"新化區","LI":"山\u25A0里","LIN":"2鄰","STREET":" ","SECT":" ","MAREA":"頂山\u25A0","LANE":" ","ALLEY":" ","HOUSE_NO":"５４號之１４３","E_COORD97":179340.92999999999,"N_COORD97":2546129.2599999998,"ADDRESS":"頂山\u25A0５４號之１４３","OBJECTID":285662},"geometry":{"x":179340.93000000063,"y":2546129.2600000016}},{"attributes":{"ID":285669,"DIS_CODE":0,"TOWNNAME":"仁德區","LI":"成功里","LIN":"12鄰","STREET":"成功二街","SECT":" ","MAREA":" ","LANE":"３２巷","ALLEY":" ","HOUSE_NO":"３號","E_COORD97":170884.95000000001,"N_COORD97":2539909.52,"ADDRESS":"成功二街３２巷３號","OBJECTID":285663},"geometry":{"x":170884.95000000019,"y":2539909.5199999996}},{"attributes":{"ID":285670,"DIS_CODE":0,"TOWNNAME":"新化區","LI":"山\u25A0里","LIN":"2鄰","STREET":" ","SECT":" ","MAREA":"頂山\u25A0","LANE":" ","ALLEY":" ","HOUSE_NO":"５８號","E_COORD97":179393.28,"N_COORD97":2546635.25,"ADDRESS":"頂山\u25A0５８號","OBJECTID":285664},"geometry":{"x":179393.28000000212,"y":2546635.25}},{"attributes":{"ID":285671,"DIS_CODE":0,"TOWNNAME":"仁德區","LI":"成功里","LIN":"12鄰","STREET":"成功二街","SECT":" ","MAREA":" ","LANE":"５６巷","ALLEY":" ","HOUSE_NO":"８號","E_COORD97":170873.82000000001,"N_COORD97":2539859.7599999998,"ADDRESS":"成功二街５６巷８號","OBJECTID":285665},"geometry":{"x":170873.8200000003,"y":2539859.7600000016}},{"attributes":{"ID":285672,"DIS_CODE":0,"TOWNNAME":"仁德區","LI":"成功里","LIN":"12鄰","STREET":"成功二街","SECT":" ","MAREA":" ","LANE":"３２巷","ALLEY":" ","HOUSE_NO":"４號","E_COORD97":170885.42999999999,"N_COORD97":2539923.27,"ADDRESS":"成功二街３２巷４號","OBJECTID":285666},"geometry":{"x":170885.43000000063,"y":2539923.2700000014}},{"attributes":{"ID":285673,"DIS_CODE":0,"TOWNNAME":"仁德區","LI":"後壁里","LIN":"12鄰","STREET":"德南路","SECT":" ","MAREA":" ","LANE":"１９４巷","ALLEY":" ","HOUSE_NO":"１號","E_COORD97":173701.29999999999,"N_COORD97":2538467.77,"ADDRESS":"德南路１９４巷１號","OBJECTID":285667},"geometry":{"x":173701.29999999981,"y":2538467.7699999996}},{"attributes":{"ID":285674,"DIS_CODE":0,"TOWNNAME":"仁德區","LI":"後壁里","LIN":"12鄰","STREET":"德南路","SECT":" ","MAREA":" ","LANE":"１９４巷","ALLEY":" ","HOUSE_NO":"９號","E_COORD97":173712.26000000001,"N_COORD97":2538451.52,"ADDRESS":"德南路１９４巷９號","OBJECTID":285668},"geometry":{"x":173712.26000000164,"y":2538451.5200000014}},{"attributes":{"ID":285675,"DIS_CODE":0,"TOWNNAME":"新化區","LI":"崙頂里","LIN":"2鄰","STREET":" ","SECT":" ","MAREA":"崙子頂","LANE":" ","ALLEY":" ","HOUSE_NO":"８０號","E_COORD97":176867.28,"N_COORD97":2546788.25,"ADDRESS":"崙子頂８０號","OBJECTID":285669},"geometry":{"x":176867.28000000212,"y":2546788.25}},{"attributes":{"ID":285676,"DIS_CODE":0,"TOWNNAME":"新化區","LI":"崙頂里","LIN":"2鄰","STREET":" ","SECT":" ","MAREA":"崙子頂","LANE":" ","ALLEY":" ","HOUSE_NO":"８５號之６","E_COORD97":176895.13,"N_COORD97":2546649.2599999998,"ADDRESS":"崙子頂８５號之６","OBJECTID":285670},"geometry":{"x":176895.13000000175,"y":2546649.2599999998}},{"attributes":{"ID":285677,"DIS_CODE":0,"TOWNNAME":"仁德區","LI":"後壁里","LIN":"12鄰","STREET":"德南路","SECT":" ","MAREA":" ","LANE":"１９４巷","ALLEY":" ","HOUSE_NO":"１３號","E_COORD97":173702.98999999999,"N_COORD97":2538457.27,"ADDRESS":"德南路１９４巷１３號","OBJECTID":285671},"geometry":{"x":173702.99000000115,"y":2538457.2699999996}},{"attributes":{"ID":285678,"DIS_CODE":0,"TOWNNAME":"安南區","LI":"淵東里","LIN":"12鄰","STREET":"海佃路","SECT":"四段","MAREA":" ","LANE":"５５巷","ALLEY":" ","HOUSE_NO":"３２號","E_COORD97":165589.76000000001,"N_COORD97":2550579.6699999999,"ADDRESS":"海佃路四段５５巷３２號","OBJECTID":285672},"geometry":{"x":165589.75999999978,"y":2550579.6699999999}},{"attributes":{"ID":285679,"DIS_CODE":0,"TOWNNAME":"安南區","LI":"安東里","LIN":"12鄰","STREET":"安和路","SECT":"一段","MAREA":" ","LANE":"２８８巷","ALLEY":" ","HOUSE_NO":"１０４號","E_COORD97":169551.76999999999,"N_COORD97":2548170.0299999998,"ADDRESS":"安和路一段２８８巷１０４號","OBJECTID":285673},"geometry":{"x":169551.76999999862,"y":2548170.0300000031}},{"attributes":{"ID":285680,"DIS_CODE":0,"TOWNNAME":"永康區","LI":"王行里","LIN":"12鄰","STREET":"王行路","SECT":" ","MAREA":" ","LANE":"８９８巷","ALLEY":" ","HOUSE_NO":"４７號","E_COORD97":175944.01999999999,"N_COORD97":2550063.25,"ADDRESS":"王行路８９８巷４７號","OBJECTID":285674},"geometry":{"x":175944.01999999955,"y":2550063.25}},{"attributes":{"ID":285681,"DIS_CODE":0,"TOWNNAME":"新化區","LI":"崙頂里","LIN":"2鄰","STREET":" ","SECT":" ","MAREA":"崙子頂","LANE":" ","ALLEY":" ","HOUSE_NO":"７８號之３","E_COORD97":176878.53,"N_COORD97":2546812.2599999998,"ADDRESS":"崙子頂７８號之３","OBJECTID":285675},"geometry":{"x":176878.53000000026,"y":2546812.2599999979}},{"attributes":{"ID":285682,"DIS_CODE":0,"TOWNNAME":"新化區","LI":"崙頂里","LIN":"2鄰","STREET":" ","SECT":" ","MAREA":"崙子頂","LANE":" ","ALLEY":" ","HOUSE_NO":"８９號","E_COORD97":176840.48000000001,"N_COORD97":2546674.25,"ADDRESS":"崙子頂８９號","OBJECTID":285676},"geometry":{"x":176840.48000000045,"y":2546674.2500000019}},{"attributes":{"ID":285683,"DIS_CODE":0,"TOWNNAME":"永康區","LI":"中興里","LIN":"12鄰","STREET":"中興街","SECT":" ","MAREA":" ","LANE":"３５巷","ALLEY":" ","HOUSE_NO":"８號","E_COORD97":172066.60999999999,"N_COORD97":2545198.25,"ADDRESS":"中興街３５巷８號","OBJECTID":285677},"geometry":{"x":172066.61000000127,"y":2545198.25}},{"attributes":{"ID":285684,"DIS_CODE":0,"TOWNNAME":"永康區","LI":"五王里","LIN":"12鄰","STREET":"中山東路","SECT":" ","MAREA":" ","LANE":"２１８巷","ALLEY":" ","HOUSE_NO":"６號","E_COORD97":171755.85999999999,"N_COORD97":2545746.1499999999,"ADDRESS":"中山東路２１８巷６號","OBJECTID":285678},"geometry":{"x":171755.8600000022,"y":2545746.1500000041}},{"attributes":{"ID":285685,"DIS_CODE":0,"TOWNNAME":"永康區","LI":"中興里","LIN":"12鄰","STREET":"中興街","SECT":" ","MAREA":" ","LANE":"３５巷","ALLEY":" ","HOUSE_NO":"６號","E_COORD97":172059.78,"N_COORD97":2545196.75,"ADDRESS":"中興街３５巷６號","OBJECTID":285679},"geometry":{"x":172059.78000000212,"y":2545196.7500000019}},{"attributes":{"ID":285686,"DIS_CODE":0,"TOWNNAME":"永康區","LI":"中興里","LIN":"12鄰","STREET":"中興街","SECT":" ","MAREA":" ","LANE":"３５巷","ALLEY":" ","HOUSE_NO":"１０號","E_COORD97":172054.92999999999,"N_COORD97":2545195.75,"ADDRESS":"中興街３５巷１０號","OBJECTID":285680},"geometry":{"x":172054.93000000063,"y":2545195.7500000037}},{"attributes":{"ID":285687,"DIS_CODE":0,"TOWNNAME":"善化區","LI":"什乃里","LIN":"2鄰","STREET":" ","SECT":" ","MAREA":"什乃","LANE":" ","ALLEY":" ","HOUSE_NO":"１８號","E_COORD97":176197.51000000001,"N_COORD97":2560643.75,"ADDRESS":"什乃１８號","OBJECTID":285681},"geometry":{"x":176197.51000000071,"y":2560643.7500000019}},{"attributes":{"ID":285688,"DIS_CODE":0,"TOWNNAME":"大內區","LI":"大內里","LIN":"2鄰","STREET":" ","SECT":" ","MAREA":"內庄","LANE":" ","ALLEY":" ","HOUSE_NO":"１３號","E_COORD97":184481.03,"N_COORD97":2557501.25,"ADDRESS":"內庄１３號","OBJECTID":285682},"geometry":{"x":184481.03000000119,"y":2557501.25}},{"attributes":{"ID":285689,"DIS_CODE":0,"TOWNNAME":"麻豆區","LI":"小埤里","LIN":"2鄰","STREET":" ","SECT":" ","MAREA":"苓子林","LANE":" ","ALLEY":" ","HOUSE_NO":"１３號","E_COORD97":171562.25,"N_COORD97":2564868.3799999999,"ADDRESS":"苓子林１３號","OBJECTID":285683},"geometry":{"x":171562.25,"y":2564868.3800000008}},{"attributes":{"ID":285690,"DIS_CODE":0,"TOWNNAME":"永康區","LI":"中興里","LIN":"12鄰","STREET":"中興街","SECT":" ","MAREA":" ","LANE":"４５巷","ALLEY":" ","HOUSE_NO":"１１號","E_COORD97":172037.76999999999,"N_COORD97":2545208,"ADDRESS":"中興街４５巷１１號","OBJECTID":285684},"geometry":{"x":172037.77000000048,"y":2545208.0000000019}},{"attributes":{"ID":285691,"DIS_CODE":0,"TOWNNAME":"永康區","LI":"王行里","LIN":"12鄰","STREET":"王行路","SECT":" ","MAREA":" ","LANE":"８６６巷","ALLEY":" ","HOUSE_NO":"３３號","E_COORD97":176012.89000000001,"N_COORD97":2549893.6699999999,"ADDRESS":"王行路８６６巷３３號","OBJECTID":285685},"geometry":{"x":176012.88999999966,"y":2549893.6699999999}},{"attributes":{"ID":285692,"DIS_CODE":0,"TOWNNAME":"永康區","LI":"二王里","LIN":"12鄰","STREET":"永二街","SECT":" ","MAREA":" ","LANE":"４４７巷","ALLEY":" ","HOUSE_NO":"７０號","E_COORD97":172823.28,"N_COORD97":2546533.9199999999,"ADDRESS":"永二街４４７巷７０號","OBJECTID":285686},"geometry":{"x":172823.28000000119,"y":2546533.9200000018}},{"attributes":{"ID":285693,"DIS_CODE":0,"TOWNNAME":"永康區","LI":"安康里","LIN":"12鄰","STREET":"中華路","SECT":" ","MAREA":" ","LANE":"６１９巷","ALLEY":" ","HOUSE_NO":"２１號之３","E_COORD97":170989.16,"N_COORD97":2546060.79,"ADDRESS":"中華路６１９巷２１號之３","OBJECTID":285687},"geometry":{"x":170989.16000000201,"y":2546060.7899999991}},{"attributes":{"ID":285694,"DIS_CODE":0,"TOWNNAME":"永康區","LI":"中興里","LIN":"12鄰","STREET":"中興街","SECT":" ","MAREA":" ","LANE":"４５巷","ALLEY":" ","HOUSE_NO":"９號","E_COORD97":172045.79999999999,"N_COORD97":2545210,"ADDRESS":"中興街４５巷９號","OBJECTID":285688},"geometry":{"x":172045.80000000075,"y":2545210}},{"attributes":{"ID":285695,"DIS_CODE":0,"TOWNNAME":"永康區","LI":"大橋里","LIN":"12鄰","STREET":"大橋二街","SECT":" ","MAREA":" ","LANE":"１９９巷","ALLEY":" ","HOUSE_NO":"４號","E_COORD97":171014.20999999999,"N_COORD97":2546781.8799999999,"ADDRESS":"大橋二街１９９巷４號","OBJECTID":285689},"geometry":{"x":171014.21000000089,"y":2546781.8800000008}},{"attributes":{"ID":285696,"DIS_CODE":0,"TOWNNAME":"永康區","LI":"三民里","LIN":"12鄰","STREET":"和平路","SECT":" ","MAREA":" ","LANE":"２３７巷","ALLEY":" ","HOUSE_NO":"６號","E_COORD97":174695.29000000001,"N_COORD97":2550719.7400000002,"ADDRESS":"和平路２３７巷６號","OBJECTID":285690},"geometry":{"x":174695.29000000004,"y":2550719.7400000021}},{"attributes":{"ID":285697,"DIS_CODE":0,"TOWNNAME":"永康區","LI":"中興里","LIN":"12鄰","STREET":"中興街","SECT":" ","MAREA":" ","LANE":"４５巷","ALLEY":" ","HOUSE_NO":"４號","E_COORD97":172062.79000000001,"N_COORD97":2545222.3900000001,"ADDRESS":"中興街４５巷４號","OBJECTID":285691},"geometry":{"x":172062.7900000019,"y":2545222.3900000043}},{"attributes":{"ID":285698,"DIS_CODE":0,"TOWNNAME":"永康區","LI":"五王里","LIN":"12鄰","STREET":"中山東路","SECT":" ","MAREA":" ","LANE":"２１８巷","ALLEY":" ","HOUSE_NO":"２０號","E_COORD97":171725.87,"N_COORD97":2545741.3999999999,"ADDRESS":"中山東路２１８巷２０號","OBJECTID":285692},"geometry":{"x":171725.87000000104,"y":2545741.4000000022}},{"attributes":{"ID":285699,"DIS_CODE":0,"TOWNNAME":"永康區","LI":"崑山里","LIN":"12鄰","STREET":"大灣路","SECT":" ","MAREA":" ","LANE":"１１０２巷","ALLEY":" ","HOUSE_NO":"４號之２","E_COORD97":173192.59,"N_COORD97":2544414.0499999998,"ADDRESS":"大灣路１１０２巷４號之２","OBJECTID":285693},"geometry":{"x":173192.58999999985,"y":2544414.0500000007}},{"attributes":{"ID":285700,"DIS_CODE":0,"TOWNNAME":"永康區","LI":"崑山里","LIN":"12鄰","STREET":"大灣路","SECT":" ","MAREA":" ","LANE":"１１０２巷","ALLEY":" ","HOUSE_NO":"２號","E_COORD97":173252.03,"N_COORD97":2544702.73,"ADDRESS":"大灣路１１０２巷２號","OBJECTID":285694},"geometry":{"x":173252.03000000119,"y":2544702.7300000023}},{"attributes":{"ID":285701,"DIS_CODE":0,"TOWNNAME":"安南區","LI":"溪東里","LIN":"12鄰","STREET":"北安路","SECT":"二段","MAREA":" ","LANE":"６３巷","ALLEY":" ","HOUSE_NO":"４８號","E_COORD97":168311.89000000001,"N_COORD97":2547371.6699999999,"ADDRESS":"北安路二段６３巷４８號","OBJECTID":285695},"geometry":{"x":168311.88999999873,"y":2547371.6699999999}},{"attributes":{"ID":285702,"DIS_CODE":0,"TOWNNAME":"安南區","LI":"溪東里","LIN":"12鄰","STREET":"北安路","SECT":"二段","MAREA":" ","LANE":"６３巷","ALLEY":" ","HOUSE_NO":"１１號","E_COORD97":168438.92999999999,"N_COORD97":2547364.0600000001,"ADDRESS":"北安路二段６３巷１１號","OBJECTID":285696},"geometry":{"x":168438.93000000156,"y":2547364.0600000042}},{"attributes":{"ID":285703,"DIS_CODE":0,"TOWNNAME":"安南區","LI":"溪東里","LIN":"12鄰","STREET":"北安路","SECT":"二段","MAREA":" ","LANE":"６３巷","ALLEY":" ","HOUSE_NO":"１２號","E_COORD97":168436.60000000001,"N_COORD97":2547386.5600000001,"ADDRESS":"北安路二段６３巷１２號","OBJECTID":285697},"geometry":{"x":168436.60000000056,"y":2547386.5600000005}},{"attributes":{"ID":285704,"DIS_CODE":0,"TOWNNAME":"安南區","LI":"溪東里","LIN":"12鄰","STREET":"北安路","SECT":"二段","MAREA":" ","LANE":"６３巷","ALLEY":" ","HOUSE_NO":"１７號","E_COORD97":168419.82000000001,"N_COORD97":2547362.46,"ADDRESS":"北安路二段６３巷１７號","OBJECTID":285698},"geometry":{"x":168419.81999999937,"y":2547362.4600000028}},{"attributes":{"ID":285705,"DIS_CODE":0,"TOWNNAME":"安南區","LI":"溪東里","LIN":"12鄰","STREET":"北安路","SECT":"二段","MAREA":" ","LANE":"６３巷","ALLEY":" ","HOUSE_NO":"１９號","E_COORD97":168412.98000000001,"N_COORD97":2547360.6899999999,"ADDRESS":"北安路二段６３巷１９號","OBJECTID":285699},"geometry":{"x":168412.98000000138,"y":2547360.6899999995}},{"attributes":{"ID":285706,"DIS_CODE":0,"TOWNNAME":"安南區","LI":"溪東里","LIN":"12鄰","STREET":"北安路","SECT":"二段","MAREA":" ","LANE":"６３巷","ALLEY":" ","HOUSE_NO":"２號","E_COORD97":168475.76000000001,"N_COORD97":2547387.6400000001,"ADDRESS":"北安路二段６３巷２號","OBJECTID":285700},"geometry":{"x":168475.76000000164,"y":2547387.6400000025}},{"attributes":{"ID":285707,"DIS_CODE":0,"TOWNNAME":"安南區","LI":"溪東里","LIN":"12鄰","STREET":"北安路","SECT":"二段","MAREA":" ","LANE":"６３巷","ALLEY":" ","HOUSE_NO":"６１號","E_COORD97":168265.63,"N_COORD97":2547343.1800000002,"ADDRESS":"北安路二段６３巷６１號","OBJECTID":285701},"geometry":{"x":168265.63000000082,"y":2547343.1800000016}},{"attributes":{"ID":285708,"DIS_CODE":0,"TOWNNAME":"安南區","LI":"溪東里","LIN":"12鄰","STREET":"北安路","SECT":"二段","MAREA":" ","LANE":"６３巷","ALLEY":" ","HOUSE_NO":"６３號","E_COORD97":168258.97,"N_COORD97":2547341,"ADDRESS":"北安路二段６３巷６３號","OBJECTID":285702},"geometry":{"x":168258.9700000016,"y":2547341.0000000019}},{"attributes":{"ID":285709,"DIS_CODE":0,"TOWNNAME":"安南區","LI":"溪東里","LIN":"12鄰","STREET":"北安路","SECT":"二段","MAREA":" ","LANE":"６３巷","ALLEY":" ","HOUSE_NO":"６５號","E_COORD97":168252.53,"N_COORD97":2547343.29,"ADDRESS":"北安路二段６３巷６５號","OBJECTID":285703},"geometry":{"x":168252.53000000119,"y":2547343.2899999991}},{"attributes":{"ID":285710,"DIS_CODE":0,"TOWNNAME":"永康區","LI":"埔園里","LIN":"6鄰","STREET":"中山路","SECT":" ","MAREA":" ","LANE":"１５８巷","ALLEY":" ","HOUSE_NO":"３號","E_COORD97":173827.13,"N_COORD97":2547856.25,"ADDRESS":"中山路１５８巷３號","OBJECTID":285704},"geometry":{"x":173827.13000000082,"y":2547856.25}},{"attributes":{"ID":285711,"DIS_CODE":0,"TOWNNAME":"佳里區","LI":"安西里","LIN":"56鄰","STREET":"佳安中街","SECT":" ","MAREA":" ","LANE":" ","ALLEY":" ","HOUSE_NO":"３３號","E_COORD97":163884.72,"N_COORD97":2562281.1400000001,"ADDRESS":"佳安中街３３號","OBJECTID":285705},"geometry":{"x":163884.71999999974,"y":2562281.1400000043}},{"attributes":{"ID":285712,"DIS_CODE":0,"TOWNNAME":"佳里區","LI":"安西里","LIN":"56鄰","STREET":"佳安中街","SECT":" ","MAREA":" ","LANE":" ","ALLEY":" ","HOUSE_NO":"３５號","E_COORD97":163880.29999999999,"N_COORD97":2562281.1099999999,"ADDRESS":"佳安中街３５號","OBJECTID":285706},"geometry":{"x":163880.30000000075,"y":2562281.1100000013}},{"attributes":{"ID":285713,"DIS_CODE":0,"TOWNNAME":"永康區","LI":"\u25A0洲里","LIN":"2鄰","STREET":"\u25A0行路","SECT":" ","MAREA":" ","LANE":" ","ALLEY":" ","HOUSE_NO":"４號","E_COORD97":171745.73999999999,"N_COORD97":2549136.71,"ADDRESS":"\u25A0行路４號","OBJECTID":285707},"geometry":{"x":171745.74000000022,"y":2549136.7100000046}},{"attributes":{"ID":285714,"DIS_CODE":0,"TOWNNAME":"善化區","LI":"坐駕里","LIN":"2鄰","STREET":"中山路","SECT":" ","MAREA":" ","LANE":" ","ALLEY":" ","HOUSE_NO":"３３３號之１","E_COORD97":177757.64000000001,"N_COORD97":2559066.27,"ADDRESS":"中山路３３３號之１","OBJECTID":285708},"geometry":{"x":177757.64000000153,"y":2559066.2700000014}},{"attributes":{"ID":285715,"DIS_CODE":0,"TOWNNAME":"永康區","LI":"龍潭里","LIN":"2鄰","STREET":"龍潭街","SECT":" ","MAREA":" ","LANE":" ","ALLEY":" ","HOUSE_NO":"７７號","E_COORD97":174811.70999999999,"N_COORD97":2548047.9399999999,"ADDRESS":"龍潭街７７號","OBJECTID":285709},"geometry":{"x":174811.71000000089,"y":2548047.9399999995}},{"attributes":{"ID":285716,"DIS_CODE":0,"TOWNNAME":"安南區","LI":"溪東里","LIN":"12鄰","STREET":"北安路","SECT":"二段","MAREA":" ","LANE":"６３巷","ALLEY":" ","HOUSE_NO":"６７號","E_COORD97":168245.54999999999,"N_COORD97":2547339.5899999999,"ADDRESS":"北安路二段６３巷６７號","OBJECTID":285710},"geometry":{"x":168245.55000000075,"y":2547339.5900000017}},{"attributes":{"ID":285717,"DIS_CODE":0,"TOWNNAME":"安南區","LI":"溪東里","LIN":"12鄰","STREET":"北安路","SECT":"二段","MAREA":" ","LANE":"６３巷","ALLEY":" ","HOUSE_NO":"７２號","E_COORD97":168235.04999999999,"N_COORD97":2547377.2200000002,"ADDRESS":"北安路二段６３巷７２號","OBJECTID":285711},"geometry":{"x":168235.05000000075,"y":2547377.2200000025}},{"attributes":{"ID":285718,"DIS_CODE":0,"TOWNNAME":"東區","LI":"和平里","LIN":"2鄰","STREET":"東門路","SECT":"三段","MAREA":" ","LANE":" ","ALLEY":" ","HOUSE_NO":"２１６號","E_COORD97":171489.14999999999,"N_COORD97":2541979.6600000001,"ADDRESS":"東門路三段２１６號","OBJECTID":285712},"geometry":{"x":171489.15000000037,"y":2541979.660000002}},{"attributes":{"ID":285719,"DIS_CODE":0,"TOWNNAME":"永康區","LI":"復國里","LIN":"12鄰","STREET":"復國二路","SECT":" ","MAREA":" ","LANE":"１０４巷","ALLEY":" ","HOUSE_NO":"１號","E_COORD97":172864.85000000001,"N_COORD97":2545316.52,"ADDRESS":"復國二路１０４巷１號","OBJECTID":285713},"geometry":{"x":172864.84999999963,"y":2545316.5200000014}},{"attributes":{"ID":285720,"DIS_CODE":0,"TOWNNAME":"永康區","LI":"復國里","LIN":"12鄰","STREET":"復國二路","SECT":" ","MAREA":" ","LANE":"１１４巷","ALLEY":" ","HOUSE_NO":"１１號","E_COORD97":172905.47,"N_COORD97":2545447.7799999998,"ADDRESS":"復國二路１１４巷１１號","OBJECTID":285714},"geometry":{"x":172905.4700000016,"y":2545447.7799999993}},{"attributes":{"ID":285721,"DIS_CODE":0,"TOWNNAME":"永康區","LI":"復國里","LIN":"12鄰","STREET":"復國二路","SECT":" ","MAREA":" ","LANE":"１０８巷","ALLEY":" ","HOUSE_NO":"６號","E_COORD97":172878.62,"N_COORD97":2545372.2799999998,"ADDRESS":"復國二路１０８巷６號","OBJECTID":285715},"geometry":{"x":172878.62000000011,"y":2545372.2800000012}},{"attributes":{"ID":285722,"DIS_CODE":0,"TOWNNAME":"東區","LI":"富裕里","LIN":"2鄰","STREET":"東門路","SECT":"二段","MAREA":" ","LANE":" ","ALLEY":" ","HOUSE_NO":"２４１號","E_COORD97":170583.95000000001,"N_COORD97":2542747.52,"ADDRESS":"東門路二段２４１號","OBJECTID":285716},"geometry":{"x":170583.95000000112,"y":2542747.5199999996}},{"attributes":{"ID":285723,"DIS_CODE":0,"TOWNNAME":"永康區","LI":"復國里","LIN":"12鄰","STREET":"復國二路","SECT":" ","MAREA":" ","LANE":"１１８巷","ALLEY":" ","HOUSE_NO":"１０號","E_COORD97":172906.57999999999,"N_COORD97":2545463.0499999998,"ADDRESS":"復國二路１１８巷１０號","OBJECTID":285717},"geometry":{"x":172906.58000000007,"y":2545463.0500000026}},{"attributes":{"ID":285724,"DIS_CODE":0,"TOWNNAME":"永康區","LI":"復國里","LIN":"12鄰","STREET":"復國二路","SECT":" ","MAREA":" ","LANE":"１０４巷","ALLEY":" ","HOUSE_NO":"３號","E_COORD97":172870.20000000001,"N_COORD97":2545316.52,"ADDRESS":"復國二路１０４巷３號","OBJECTID":285718},"geometry":{"x":172870.20000000019,"y":2545316.5200000014}},{"attributes":{"ID":285725,"DIS_CODE":0,"TOWNNAME":"東區","LI":"富裕里","LIN":"2鄰","STREET":"東門路","SECT":"二段","MAREA":" ","LANE":" ","ALLEY":" ","HOUSE_NO":"２４３號","E_COORD97":170587.78,"N_COORD97":2542745.48,"ADDRESS":"東門路二段２４３號","OBJECTID":285719},"geometry":{"x":170587.78000000026,"y":2542745.4800000004}},{"attributes":{"ID":285726,"DIS_CODE":0,"TOWNNAME":"永康區","LI":"復國里","LIN":"12鄰","STREET":"復國二路","SECT":" ","MAREA":" ","LANE":"１０６巷","ALLEY":" ","HOUSE_NO":"７號","E_COORD97":172884.19,"N_COORD97":2545347.27,"ADDRESS":"復國二路１０６巷７號","OBJECTID":285720},"geometry":{"x":172884.19000000041,"y":2545347.2699999996}},{"attributes":{"ID":285727,"DIS_CODE":0,"TOWNNAME":"永康區","LI":"崑山里","LIN":"12鄰","STREET":"大灣路","SECT":" ","MAREA":" ","LANE":"１０２０巷","ALLEY":" ","HOUSE_NO":"１６號","E_COORD97":173373.95999999999,"N_COORD97":2544500.23,"ADDRESS":"大灣路１０２０巷１６號","OBJECTID":285721},"geometry":{"x":173373.96000000089,"y":2544500.2300000004}},{"attributes":{"ID":285728,"DIS_CODE":0,"TOWNNAME":"永康區","LI":"崑山里","LIN":"12鄰","STREET":"大灣路","SECT":" ","MAREA":" ","LANE":"１０２０巷","ALLEY":" ","HOUSE_NO":"１０號","E_COORD97":173401.45999999999,"N_COORD97":2544497.1200000001,"ADDRESS":"大灣路１０２０巷１０號","OBJECTID":285722},"geometry":{"x":173401.46000000089,"y":2544497.1200000029}},{"attributes":{"ID":285729,"DIS_CODE":0,"TOWNNAME":"永康區","LI":"復國里","LIN":"12鄰","STREET":"復國二路","SECT":" ","MAREA":" ","LANE":"１０８巷","ALLEY":" ","HOUSE_NO":"３號","E_COORD97":172873.73000000001,"N_COORD97":2545385.2799999998,"ADDRESS":"復國二路１０８巷３號","OBJECTID":285723},"geometry":{"x":172873.73000000045,"y":2545385.2800000012}},{"attributes":{"ID":285730,"DIS_CODE":0,"TOWNNAME":"永康區","LI":"復國里","LIN":"12鄰","STREET":"復國二路","SECT":" ","MAREA":" ","LANE":"１０８巷","ALLEY":" ","HOUSE_NO":"７號","E_COORD97":172888.85000000001,"N_COORD97":2545382.2799999998,"ADDRESS":"復國二路１０８巷７號","OBJECTID":285724},"geometry":{"x":172888.84999999963,"y":2545382.2800000012}},{"attributes":{"ID":285731,"DIS_CODE":0,"TOWNNAME":"永康區","LI":"復國里","LIN":"12鄰","STREET":"復國二路","SECT":" ","MAREA":" ","LANE":"１０８巷","ALLEY":" ","HOUSE_NO":"１號","E_COORD97":172869.42999999999,"N_COORD97":2545386.0299999998,"ADDRESS":"復國二路１０８巷１號","OBJECTID":285725},"geometry":{"x":172869.4299999997,"y":2545386.0299999975}},{"attributes":{"ID":285732,"DIS_CODE":0,"TOWNNAME":"永康區","LI":"崑山里","LIN":"12鄰","STREET":"大灣路","SECT":" ","MAREA":" ","LANE":"１１０２巷","ALLEY":" ","HOUSE_NO":"１６號","E_COORD97":173190.78,"N_COORD97":2544727.8999999999,"ADDRESS":"大灣路１１０２巷１６號","OBJECTID":285726},"geometry":{"x":173190.78000000119,"y":2544727.9000000022}},{"attributes":{"ID":285733,"DIS_CODE":0,"TOWNNAME":"永康區","LI":"埔園里","LIN":"12鄰","STREET":"中山路","SECT":" ","MAREA":" ","LANE":"１８５巷","ALLEY":" ","HOUSE_NO":"２５號","E_COORD97":173641.95000000001,"N_COORD97":2548049.3399999999,"ADDRESS":"中山路１８５巷２５號","OBJECTID":285727},"geometry":{"x":173641.95000000205,"y":2548049.339999998}},{"attributes":{"ID":285734,"DIS_CODE":0,"TOWNNAME":"永康區","LI":"埔園里","LIN":"12鄰","STREET":"中山路","SECT":" ","MAREA":" ","LANE":"１８５巷","ALLEY":" ","HOUSE_NO":"２７號","E_COORD97":173636.45000000001,"N_COORD97":2548053.1899999999,"ADDRESS":"中山路１８５巷２７號","OBJECTID":285728},"geometry":{"x":173636.45000000019,"y":2548053.1899999995}},{"attributes":{"ID":285735,"DIS_CODE":0,"TOWNNAME":"麻豆區","LI":"小埤里","LIN":"2鄰","STREET":" ","SECT":" ","MAREA":"苓子林","LANE":" ","ALLEY":" ","HOUSE_NO":"８號","E_COORD97":171541.09,"N_COORD97":2564940.4500000002,"ADDRESS":"苓子林８號","OBJECTID":285729},"geometry":{"x":171541.08999999985,"y":2564940.4500000011}},{"attributes":{"ID":285736,"DIS_CODE":0,"TOWNNAME":"麻豆區","LI":"小埤里","LIN":"2鄰","STREET":" ","SECT":" ","MAREA":"苓子林","LANE":" ","ALLEY":" ","HOUSE_NO":"９號","E_COORD97":171546.89000000001,"N_COORD97":2564912.1000000001,"ADDRESS":"苓子林９號","OBJECTID":285730},"geometry":{"x":171546.8900000006,"y":2564912.1000000015}},{"attributes":{"ID":285737,"DIS_CODE":0,"TOWNNAME":"麻豆區","LI":"海埔里","LIN":"2鄰","STREET":" ","SECT":" ","MAREA":"埤子尾","LANE":" ","ALLEY":" ","HOUSE_NO":"２３號之２７","E_COORD97":169708.47,"N_COORD97":2566552.71,"ADDRESS":"埤子尾２３號之２７","OBJECTID":285731},"geometry":{"x":169708.4700000016,"y":2566552.7100000046}},{"attributes":{"ID":285738,"DIS_CODE":0,"TOWNNAME":"麻豆區","LI":"海埔里","LIN":"2鄰","STREET":" ","SECT":" ","MAREA":"埤子尾","LANE":" ","ALLEY":" ","HOUSE_NO":"２３號之２８","E_COORD97":169709.88,"N_COORD97":2566557.8900000001,"ADDRESS":"埤子尾２３號之２８","OBJECTID":285732},"geometry":{"x":169709.88000000082,"y":2566557.8899999987}},{"attributes":{"ID":285739,"DIS_CODE":0,"TOWNNAME":"麻豆區","LI":"海埔里","LIN":"2鄰","STREET":" ","SECT":" ","MAREA":"埤子尾","LANE":" ","ALLEY":" ","HOUSE_NO":"２３號之２９","E_COORD97":169711.29999999999,"N_COORD97":2566563.0600000001,"ADDRESS":"埤子尾２３號之２９","OBJECTID":285733},"geometry":{"x":169711.30000000168,"y":2566563.0600000005}},{"attributes":{"ID":285740,"DIS_CODE":0,"TOWNNAME":"永康區","LI":"埔園里","LIN":"12鄰","STREET":"中山路","SECT":" ","MAREA":" ","LANE":"１８５巷","ALLEY":" ","HOUSE_NO":"２９號","E_COORD97":173631.01000000001,"N_COORD97":2548057.3599999999,"ADDRESS":"中山路１８５巷２９號","OBJECTID":285734},"geometry":{"x":173631.01000000071,"y":2548057.3600000013}},{"attributes":{"ID":285741,"DIS_CODE":0,"TOWNNAME":"永康區","LI":"埔園里","LIN":"12鄰","STREET":"中山路","SECT":" ","MAREA":" ","LANE":"１８５巷","ALLEY":" ","HOUSE_NO":"３９號","E_COORD97":173601.57000000001,"N_COORD97":2548076.46,"ADDRESS":"中山路１８５巷３９號","OBJECTID":285735},"geometry":{"x":173601.5700000003,"y":2548076.4600000009}},{"attributes":{"ID":285742,"DIS_CODE":0,"TOWNNAME":"東區","LI":"富裕里","LIN":"2鄰","STREET":"東門路","SECT":"二段","MAREA":" ","LANE":" ","ALLEY":" ","HOUSE_NO":"２６５號","E_COORD97":170638.37,"N_COORD97":2542704.04,"ADDRESS":"東門路二段２６５號","OBJECTID":285736},"geometry":{"x":170638.37000000197,"y":2542704.0400000028}},{"attributes":{"ID":285743,"DIS_CODE":0,"TOWNNAME":"東區","LI":"富裕里","LIN":"2鄰","STREET":"東門路","SECT":"二段","MAREA":" ","LANE":" ","ALLEY":" ","HOUSE_NO":"２５９號","E_COORD97":170624.70000000001,"N_COORD97":2542713.4500000002,"ADDRESS":"東門路二段２５９號","OBJECTID":285737},"geometry":{"x":170624.70000000112,"y":2542713.4499999993}},{"attributes":{"ID":285744,"DIS_CODE":0,"TOWNNAME":"東區","LI":"富裕里","LIN":"2鄰","STREET":"東門路","SECT":"二段","MAREA":" ","LANE":" ","ALLEY":" ","HOUSE_NO":"２６１號","E_COORD97":170630.81,"N_COORD97":2542709.0099999998,"ADDRESS":"東門路二段２６１號","OBJECTID":285738},"geometry":{"x":170630.80999999959,"y":2542709.0100000016}},{"attributes":{"ID":285745,"DIS_CODE":0,"TOWNNAME":"永康區","LI":"埔園里","LIN":"12鄰","STREET":"中山路","SECT":" ","MAREA":" ","LANE":"１８５巷","ALLEY":" ","HOUSE_NO":"４１號","E_COORD97":173596.01000000001,"N_COORD97":2548080.3700000001,"ADDRESS":"中山路１８５巷４１號","OBJECTID":285739},"geometry":{"x":173596.01000000071,"y":2548080.370000001}},{"attributes":{"ID":285746,"DIS_CODE":0,"TOWNNAME":"永康區","LI":"尚頂里","LIN":"7鄰","STREET":"尚頂路","SECT":" ","MAREA":" ","LANE":" ","ALLEY":" ","HOUSE_NO":"１０２號","E_COORD97":171038.32000000001,"N_COORD97":2547654.2200000002,"ADDRESS":"尚頂路１０２號","OBJECTID":285740},"geometry":{"x":171038.3200000003,"y":2547654.2200000007}},{"attributes":{"ID":285747,"DIS_CODE":0,"TOWNNAME":"安南區","LI":"城北里","LIN":"2鄰","STREET":"城北路","SECT":" ","MAREA":" ","LANE":" ","ALLEY":" ","HOUSE_NO":"８６號","E_COORD97":160993.45000000001,"N_COORD97":2551565.4199999999,"ADDRESS":"城北路８６號","OBJECTID":285741},"geometry":{"x":160993.45000000019,"y":2551565.4200000018}},{"attributes":{"ID":285748,"DIS_CODE":0,"TOWNNAME":"永康區","LI":"埔園里","LIN":"12鄰","STREET":"中山路","SECT":" ","MAREA":" ","LANE":"１８５巷","ALLEY":" ","HOUSE_NO":"４３號","E_COORD97":173589.88,"N_COORD97":2548084.0699999998,"ADDRESS":"中山路１８５巷４３號","OBJECTID":285742},"geometry":{"x":173589.88000000082,"y":2548084.0700000003}},{"attributes":{"ID":285749,"DIS_CODE":0,"TOWNNAME":"安南區","LI":"城北里","LIN":"2鄰","STREET":"城北路","SECT":" ","MAREA":" ","LANE":" ","ALLEY":" ","HOUSE_NO":"８８號","E_COORD97":160995.39000000001,"N_COORD97":2551568.0600000001,"ADDRESS":"城北路８８號","OBJECTID":285743},"geometry":{"x":160995.38999999966,"y":2551568.0600000042}},{"attributes":{"ID":285750,"DIS_CODE":0,"TOWNNAME":"永康區","LI":"埔園里","LIN":"12鄰","STREET":"中山路","SECT":" ","MAREA":" ","LANE":"１８５巷","ALLEY":" ","HOUSE_NO":"４５號","E_COORD97":173583.75,"N_COORD97":2548088,"ADDRESS":"中山路１８５巷４５號","OBJECTID":285744},"geometry":{"x":173583.75000000186,"y":2548088}},{"attributes":{"ID":285751,"DIS_CODE":0,"TOWNNAME":"永康區","LI":"埔園里","LIN":"12鄰","STREET":"中山路","SECT":" ","MAREA":" ","LANE":"１８５巷","ALLEY":" ","HOUSE_NO":"４７號","E_COORD97":173578.35999999999,"N_COORD97":2548091.9700000002,"ADDRESS":"中山路１８５巷４７號","OBJECTID":285745},"geometry":{"x":173578.36000000127,"y":2548091.9700000007}},{"attributes":{"ID":285752,"DIS_CODE":0,"TOWNNAME":"永康區","LI":"埔園里","LIN":"12鄰","STREET":"中山路","SECT":" ","MAREA":" ","LANE":"１８５巷","ALLEY":" ","HOUSE_NO":"４９號","E_COORD97":173572.56,"N_COORD97":2548095.54,"ADDRESS":"中山路１８５巷４９號","OBJECTID":285746},"geometry":{"x":173572.55999999866,"y":2548095.540000001}},{"attributes":{"ID":285753,"DIS_CODE":0,"TOWNNAME":"永康區","LI":"埔園里","LIN":"12鄰","STREET":"中山路","SECT":" ","MAREA":" ","LANE":"１８５巷","ALLEY":" ","HOUSE_NO":"５１號","E_COORD97":173567.17000000001,"N_COORD97":2548099.3100000001,"ADDRESS":"中山路１８５巷５１號","OBJECTID":285747},"geometry":{"x":173567.17000000179,"y":2548099.3100000024}},{"attributes":{"ID":285754,"DIS_CODE":0,"TOWNNAME":"永康區","LI":"埔園里","LIN":"12鄰","STREET":"中山路","SECT":" ","MAREA":" ","LANE":"１８５巷","ALLEY":" ","HOUSE_NO":"５３號","E_COORD97":173551.97,"N_COORD97":2548102.6099999999,"ADDRESS":"中山路１８５巷５３號","OBJECTID":285748},"geometry":{"x":173551.97000000067,"y":2548102.6100000013}},{"attributes":{"ID":285755,"DIS_CODE":0,"TOWNNAME":"永康區","LI":"埔園里","LIN":"12鄰","STREET":"中山路","SECT":" ","MAREA":" ","LANE":"１８５巷","ALLEY":" ","HOUSE_NO":"５５號","E_COORD97":173545.95000000001,"N_COORD97":2548100.3999999999,"ADDRESS":"中山路１８５巷５５號","OBJECTID":285749},"geometry":{"x":173545.95000000112,"y":2548100.3999999985}},{"attributes":{"ID":285756,"DIS_CODE":0,"TOWNNAME":"大內區","LI":"大內里","LIN":"2鄰","STREET":" ","SECT":" ","MAREA":"內庄","LANE":" ","ALLEY":" ","HOUSE_NO":"２０號","E_COORD97":184548.63,"N_COORD97":2557497.25,"ADDRESS":"內庄２０號","OBJECTID":285750},"geometry":{"x":184548.62999999989,"y":2557497.2500000019}},{"attributes":{"ID":285757,"DIS_CODE":0,"TOWNNAME":"永康區","LI":"埔園里","LIN":"12鄰","STREET":"中山路","SECT":" ","MAREA":" ","LANE":"１８５巷","ALLEY":" ","HOUSE_NO":"５７號","E_COORD97":173540.17000000001,"N_COORD97":2548098.2799999998,"ADDRESS":"中山路１８５巷５７號","OBJECTID":285751},"geometry":{"x":173540.17000000179,"y":2548098.2800000012}},{"attributes":{"ID":285758,"DIS_CODE":0,"TOWNNAME":"永康區","LI":"埔園里","LIN":"12鄰","STREET":"中山路","SECT":" ","MAREA":" ","LANE":"１８５巷","ALLEY":" ","HOUSE_NO":"５９號","E_COORD97":173536.92000000001,"N_COORD97":2548096.8999999999,"ADDRESS":"中山路１８５巷５９號","OBJECTID":285752},"geometry":{"x":173536.92000000086,"y":2548096.8999999985}},{"attributes":{"ID":285759,"DIS_CODE":0,"TOWNNAME":"永康區","LI":"中華里","LIN":"2鄰","STREET":"忠孝路","SECT":" ","MAREA":" ","LANE":" ","ALLEY":" ","HOUSE_NO":"３５號","E_COORD97":172071.64000000001,"N_COORD97":2544442.52,"ADDRESS":"忠孝路３５號","OBJECTID":285753},"geometry":{"x":172071.63999999966,"y":2544442.5199999996}},{"attributes":{"ID":285760,"DIS_CODE":0,"TOWNNAME":"永康區","LI":"中華里","LIN":"2鄰","STREET":"忠孝路","SECT":" ","MAREA":" ","LANE":" ","ALLEY":" ","HOUSE_NO":"３９號","E_COORD97":172071.5,"N_COORD97":2544451.4199999999,"ADDRESS":"忠孝路３９號","OBJECTID":285754},"geometry":{"x":172071.50000000186,"y":2544451.4199999999}},{"attributes":{"ID":285761,"DIS_CODE":0,"TOWNNAME":"永康區","LI":"二王里","LIN":"2鄰","STREET":"永二街","SECT":" ","MAREA":" ","LANE":" ","ALLEY":" ","HOUSE_NO":"２８６號","E_COORD97":173060.14000000001,"N_COORD97":2546532.5299999998,"ADDRESS":"永二街２８６號","OBJECTID":285755},"geometry":{"x":173060.13999999873,"y":2546532.5300000012}},{"attributes":{"ID":285762,"DIS_CODE":0,"TOWNNAME":"仁德區","LI":"大甲里","LIN":"2鄰","STREET":"行大一街","SECT":" ","MAREA":" ","LANE":" ","ALLEY":" ","HOUSE_NO":"１１０號","E_COORD97":169957.76000000001,"N_COORD97":2535013.5,"ADDRESS":"行大一街１１０號","OBJECTID":285756},"geometry":{"x":169957.76000000071,"y":2535013.5000000019}},{"attributes":{"ID":285763,"DIS_CODE":0,"TOWNNAME":"永康區","LI":"甲頂里","LIN":"12鄰","STREET":"中正南路","SECT":" ","MAREA":" ","LANE":"５２巷","ALLEY":" ","HOUSE_NO":"９６號","E_COORD97":170132.38,"N_COORD97":2546782.3100000001,"ADDRESS":"中正南路５２巷９６號","OBJECTID":285757},"geometry":{"x":170132.37999999989,"y":2546782.3099999987}},{"attributes":{"ID":285764,"DIS_CODE":0,"TOWNNAME":"永康區","LI":"甲頂里","LIN":"12鄰","STREET":"中正南路","SECT":" ","MAREA":" ","LANE":"５２巷","ALLEY":" ","HOUSE_NO":"９６號","E_COORD97":170141.95999999999,"N_COORD97":2546782.6800000002,"ADDRESS":"中正南路５２巷９６號","OBJECTID":285758},"geometry":{"x":170141.95999999996,"y":2546782.6800000034}},{"attributes":{"ID":285765,"DIS_CODE":0,"TOWNNAME":"善化區","LI":"嘉南里","LIN":"2鄰","STREET":" ","SECT":" ","MAREA":"茄拔","LANE":" ","ALLEY":" ","HOUSE_NO":"６４之１號","E_COORD97":181046.62,"N_COORD97":2559343.27,"ADDRESS":"茄拔６４之１號","OBJECTID":285759},"geometry":{"x":181046.62000000011,"y":2559343.2700000033}},{"attributes":{"ID":285766,"DIS_CODE":0,"TOWNNAME":"中西區","LI":"公正里","LIN":"12鄰","STREET":"衛民街","SECT":" ","MAREA":" ","LANE":"９６巷","ALLEY":" ","HOUSE_NO":"７號","E_COORD97":168960.04000000001,"N_COORD97":2543754.02,"ADDRESS":"衛民街９６巷７號","OBJECTID":285760},"geometry":{"x":168960.04000000004,"y":2543754.0200000014}},{"attributes":{"ID":285767,"DIS_CODE":0,"TOWNNAME":"中西區","LI":"公正里","LIN":"12鄰","STREET":"衛民街","SECT":" ","MAREA":" ","LANE":"９６巷","ALLEY":" ","HOUSE_NO":"９號","E_COORD97":168959.78,"N_COORD97":2543756.5699999998,"ADDRESS":"衛民街９６巷９號","OBJECTID":285761},"geometry":{"x":168959.78000000119,"y":2543756.5700000022}},{"attributes":{"ID":285768,"DIS_CODE":0,"TOWNNAME":"中西區","LI":"福安里","LIN":"12鄰","STREET":"府前路","SECT":"一段","MAREA":" ","LANE":"２７２巷","ALLEY":" ","HOUSE_NO":"１０號","E_COORD97":167980.44,"N_COORD97":2543439.54,"ADDRESS":"府前路一段２７２巷１０號","OBJECTID":285762},"geometry":{"x":167980.44000000134,"y":2543439.5399999991}},{"attributes":{"ID":285769,"DIS_CODE":0,"TOWNNAME":"中西區","LI":"福安里","LIN":"12鄰","STREET":"府前路","SECT":"一段","MAREA":" ","LANE":"２７２巷","ALLEY":" ","HOUSE_NO":"１２號","E_COORD97":167969.32999999999,"N_COORD97":2543443.2999999998,"ADDRESS":"府前路一段２７２巷１２號","OBJECTID":285763},"geometry":{"x":167969.33000000101,"y":2543443.3000000045}},{"attributes":{"ID":285770,"DIS_CODE":0,"TOWNNAME":"中西區","LI":"福安里","LIN":"12鄰","STREET":"府前路","SECT":"一段","MAREA":" ","LANE":"２７２巷","ALLEY":" ","HOUSE_NO":"１４號","E_COORD97":167964.14000000001,"N_COORD97":2543444.3799999999,"ADDRESS":"府前路一段２７２巷１４號","OBJECTID":285764},"geometry":{"x":167964.13999999966,"y":2543444.3800000027}},{"attributes":{"ID":285771,"DIS_CODE":0,"TOWNNAME":"善化區","LI":"嘉南里","LIN":"2鄰","STREET":" ","SECT":" ","MAREA":"茄拔","LANE":" ","ALLEY":" ","HOUSE_NO":"６９號","E_COORD97":181001.42000000001,"N_COORD97":2559338.5099999998,"ADDRESS":"茄拔６９號","OBJECTID":285765},"geometry":{"x":181001.42000000086,"y":2559338.5100000035}},{"attributes":{"ID":285772,"DIS_CODE":0,"TOWNNAME":"中西區","LI":"福安里","LIN":"12鄰","STREET":"府前路","SECT":"一段","MAREA":" ","LANE":"２７２巷","ALLEY":" ","HOUSE_NO":"１號","E_COORD97":167975.79000000001,"N_COORD97":2543428.0899999999,"ADDRESS":"府前路一段２７２巷１號","OBJECTID":285766},"geometry":{"x":167975.7900000019,"y":2543428.0900000017}},{"attributes":{"ID":285773,"DIS_CODE":0,"TOWNNAME":"善化區","LI":"嘉南里","LIN":"2鄰","STREET":" ","SECT":" ","MAREA":"茄拔","LANE":" ","ALLEY":" ","HOUSE_NO":"７０號之２","E_COORD97":180886.04000000001,"N_COORD97":2559358.27,"ADDRESS":"茄拔７０號之２","OBJECTID":285767},"geometry":{"x":180886.04000000004,"y":2559358.2700000014}},{"attributes":{"ID":285774,"DIS_CODE":0,"TOWNNAME":"中西區","LI":"福安里","LIN":"12鄰","STREET":"府前路","SECT":"一段","MAREA":" ","LANE":"２７２巷","ALLEY":" ","HOUSE_NO":"３號","E_COORD97":167977.04000000001,"N_COORD97":2543433.1000000001,"ADDRESS":"府前路一段２７２巷３號","OBJECTID":285768},"geometry":{"x":167977.04000000004,"y":2543433.0999999978}},{"attributes":{"ID":285775,"DIS_CODE":0,"TOWNNAME":"中西區","LI":"銀同里","LIN":"12鄰","STREET":"開山路","SECT":" ","MAREA":" ","LANE":"３巷","ALLEY":" ","HOUSE_NO":"４６號","E_COORD97":168649.26999999999,"N_COORD97":2543591.77,"ADDRESS":"開山路３巷４６號","OBJECTID":285769},"geometry":{"x":168649.26999999955,"y":2543591.7700000014}},{"attributes":{"ID":285776,"DIS_CODE":0,"TOWNNAME":"善化區","LI":"嘉南里","LIN":"2鄰","STREET":" ","SECT":" ","MAREA":"茄拔","LANE":" ","ALLEY":" ","HOUSE_NO":"３５６號之３","E_COORD97":181290.32000000001,"N_COORD97":2558230.02,"ADDRESS":"茄拔３５６號之３","OBJECTID":285770},"geometry":{"x":181290.32000000123,"y":2558230.0200000014}},{"attributes":{"ID":285777,"DIS_CODE":0,"TOWNNAME":"中西區","LI":"銀同里","LIN":"12鄰","STREET":"開山路","SECT":" ","MAREA":" ","LANE":"３巷","ALLEY":" ","HOUSE_NO":"４８號","E_COORD97":168653.51999999999,"N_COORD97":2543592.5600000001,"ADDRESS":"開山路３巷４８號","OBJECTID":285771},"geometry":{"x":168653.52000000142,"y":2543592.5600000005}},{"attributes":{"ID":285778,"DIS_CODE":0,"TOWNNAME":"中西區","LI":"銀同里","LIN":"12鄰","STREET":"開山路","SECT":" ","MAREA":" ","LANE":"３巷","ALLEY":" ","HOUSE_NO":"５０號","E_COORD97":168656.39000000001,"N_COORD97":2543592.7599999998,"ADDRESS":"開山路３巷５０號","OBJECTID":285772},"geometry":{"x":168656.3900000006,"y":2543592.7600000016}},{"attributes":{"ID":285779,"DIS_CODE":0,"TOWNNAME":"中西區","LI":"銀同里","LIN":"12鄰","STREET":"開山路","SECT":" ","MAREA":" ","LANE":"３巷","ALLEY":" ","HOUSE_NO":"５２號","E_COORD97":168659.75,"N_COORD97":2543592.8599999999,"ADDRESS":"開山路３巷５２號","OBJECTID":285773},"geometry":{"x":168659.75000000093,"y":2543592.8599999994}},{"attributes":{"ID":285780,"DIS_CODE":0,"TOWNNAME":"中西區","LI":"銀同里","LIN":"12鄰","STREET":"開山路","SECT":" ","MAREA":" ","LANE":"３巷","ALLEY":" ","HOUSE_NO":"５４號","E_COORD97":168663.32999999999,"N_COORD97":2543591.48,"ADDRESS":"開山路３巷５４號","OBJECTID":285774},"geometry":{"x":168663.33000000007,"y":2543591.4800000023}},{"attributes":{"ID":285781,"DIS_CODE":0,"TOWNNAME":"善化區","LI":"嘉南里","LIN":"2鄰","STREET":" ","SECT":" ","MAREA":"茄拔","LANE":" ","ALLEY":" ","HOUSE_NO":"３５８號之２","E_COORD97":181159.25,"N_COORD97":2558234.27,"ADDRESS":"茄拔３５８號之２","OBJECTID":285775},"geometry":{"x":181159.25,"y":2558234.2699999977}},{"attributes":{"ID":285782,"DIS_CODE":0,"TOWNNAME":"關廟區","LI":"香洋里","LIN":"3鄰","STREET":"成功路","SECT":" ","MAREA":" ","LANE":" ","ALLEY":" ","HOUSE_NO":"３９９號","E_COORD97":181133.74320999999,"N_COORD97":2540486.9613199998,"ADDRESS":"成功路３９９號","OBJECTID":285776},"geometry":{"x":181133.74321000185,"y":2540486.9613160007}},{"attributes":{"ID":285783,"DIS_CODE":0,"TOWNNAME":"善化區","LI":"嘉南里","LIN":"2鄰","STREET":" ","SECT":" ","MAREA":"茄拔","LANE":" ","ALLEY":" ","HOUSE_NO":"６４號之７","E_COORD97":181173.53,"N_COORD97":2559145.27,"ADDRESS":"茄拔６４號之７","OBJECTID":285777},"geometry":{"x":181173.53000000119,"y":2559145.2699999996}},{"attributes":{"ID":285784,"DIS_CODE":0,"TOWNNAME":"善化區","LI":"嘉南里","LIN":"2鄰","STREET":" ","SECT":" ","MAREA":"茄拔","LANE":" ","ALLEY":" ","HOUSE_NO":"７０號之１","E_COORD97":180860.67000000001,"N_COORD97":2559356.77,"ADDRESS":"茄拔７０號之１","OBJECTID":285778},"geometry":{"x":180860.67000000086,"y":2559356.7700000033}},{"attributes":{"ID":285785,"DIS_CODE":0,"TOWNNAME":"永康區","LI":"中華里","LIN":"12鄰","STREET":"小東路","SECT":" ","MAREA":" ","LANE":"５９１巷","ALLEY":" ","HOUSE_NO":"２號","E_COORD97":171840.85999999999,"N_COORD97":2544383.2999999998,"ADDRESS":"小東路５９１巷２號","OBJECTID":285779},"geometry":{"x":171840.86000000127,"y":2544383.3000000026}},{"attributes":{"ID":285786,"DIS_CODE":0,"TOWNNAME":"永康區","LI":"中華里","LIN":"12鄰","STREET":"忠義街","SECT":" ","MAREA":" ","LANE":"４４巷","ALLEY":" ","HOUSE_NO":"４８號","E_COORD97":171859.35999999999,"N_COORD97":2544463.7000000002,"ADDRESS":"忠義街４４巷４８號","OBJECTID":285780},"geometry":{"x":171859.3600000022,"y":2544463.7000000011}},{"attributes":{"ID":285787,"DIS_CODE":0,"TOWNNAME":"善化區","LI":"嘉南里","LIN":"2鄰","STREET":" ","SECT":" ","MAREA":"茄拔","LANE":" ","ALLEY":" ","HOUSE_NO":"６２號","E_COORD97":181082.5,"N_COORD97":2559290.5099999998,"ADDRESS":"茄拔６２號","OBJECTID":285781},"geometry":{"x":181082.5,"y":2559290.5099999998}},{"attributes":{"ID":285788,"DIS_CODE":0,"TOWNNAME":"善化區","LI":"嘉南里","LIN":"2鄰","STREET":" ","SECT":" ","MAREA":"茄拔","LANE":" ","ALLEY":" ","HOUSE_NO":"６３號之５","E_COORD97":181069.92999999999,"N_COORD97":2559321.52,"ADDRESS":"茄拔６３號之５","OBJECTID":285782},"geometry":{"x":181069.93000000063,"y":2559321.5200000014}},{"attributes":{"ID":285789,"DIS_CODE":0,"TOWNNAME":"永康區","LI":"王行里","LIN":"12鄰","STREET":"王行路","SECT":" ","MAREA":" ","LANE":"８９８巷","ALLEY":" ","HOUSE_NO":"３９號","E_COORD97":175944.01999999999,"N_COORD97":2550089.0299999998,"ADDRESS":"王行路８９８巷３９號","OBJECTID":285783},"geometry":{"x":175944.01999999955,"y":2550089.0300000012}},{"attributes":{"ID":285790,"DIS_CODE":0,"TOWNNAME":"善化區","LI":"嘉南里","LIN":"2鄰","STREET":" ","SECT":" ","MAREA":"茄拔","LANE":" ","ALLEY":" ","HOUSE_NO":"４９０號之２０","E_COORD97":180965.37,"N_COORD97":2557833.77,"ADDRESS":"茄拔４９０號之２０","OBJECTID":285784},"geometry":{"x":180965.37000000011,"y":2557833.7699999996}},{"attributes":{"ID":285791,"DIS_CODE":0,"TOWNNAME":"善化區","LI":"嘉南里","LIN":"2鄰","STREET":" ","SECT":" ","MAREA":"茄拔","LANE":" ","ALLEY":" ","HOUSE_NO":"６８號之１","E_COORD97":180991.69,"N_COORD97":2559369.52,"ADDRESS":"茄拔６８號之１","OBJECTID":285785},"geometry":{"x":180991.69000000041,"y":2559369.5200000014}},{"attributes":{"ID":285792,"DIS_CODE":0,"TOWNNAME":"善化區","LI":"嘉南里","LIN":"2鄰","STREET":" ","SECT":" ","MAREA":"茄拔","LANE":" ","ALLEY":" ","HOUSE_NO":"７０號之８","E_COORD97":180939.67999999999,"N_COORD97":2559353.27,"ADDRESS":"茄拔７０號之８","OBJECTID":285786},"geometry":{"x":180939.68000000063,"y":2559353.2700000033}},{"attributes":{"ID":285793,"DIS_CODE":0,"TOWNNAME":"善化區","LI":"嘉南里","LIN":"2鄰","STREET":" ","SECT":" ","MAREA":"茄拔","LANE":" ","ALLEY":" ","HOUSE_NO":"６７號之１","E_COORD97":181021.51000000001,"N_COORD97":2559370.02,"ADDRESS":"茄拔６７號之１","OBJECTID":285787},"geometry":{"x":181021.50999999978,"y":2559370.0200000014}},{"attributes":{"ID":285794,"DIS_CODE":0,"TOWNNAME":"永康區","LI":"大橋里","LIN":"12鄰","STREET":"大橋二街","SECT":" ","MAREA":" ","LANE":"１９９巷","ALLEY":" ","HOUSE_NO":"８號","E_COORD97":171006.95999999999,"N_COORD97":2546791.6299999999,"ADDRESS":"大橋二街１９９巷８號","OBJECTID":285788},"geometry":{"x":171006.95999999996,"y":2546791.629999999}},{"attributes":{"ID":285795,"DIS_CODE":0,"TOWNNAME":"永康區","LI":"尚頂里","LIN":"12鄰","STREET":"尚頂路","SECT":" ","MAREA":" ","LANE":"５２巷","ALLEY":" ","HOUSE_NO":"１３號","E_COORD97":171255.20000000001,"N_COORD97":2547552.5699999998,"ADDRESS":"尚頂路５２巷１３號","OBJECTID":285789},"geometry":{"x":171255.20000000112,"y":2547552.5700000003}},{"attributes":{"ID":285796,"DIS_CODE":0,"TOWNNAME":"永康區","LI":"崑山里","LIN":"12鄰","STREET":"大灣路","SECT":" ","MAREA":" ","LANE":"１１０２巷","ALLEY":" ","HOUSE_NO":"４號之３","E_COORD97":173192.95000000001,"N_COORD97":2544447.0600000001,"ADDRESS":"大灣路１１０２巷４號之３","OBJECTID":285790},"geometry":{"x":173192.95000000112,"y":2544447.0600000005}},{"attributes":{"ID":285797,"DIS_CODE":0,"TOWNNAME":"永康區","LI":"埔園里","LIN":"35鄰","STREET":"八德街","SECT":" ","MAREA":" ","LANE":"２７巷","ALLEY":" ","HOUSE_NO":"６號","E_COORD97":174272.29000000001,"N_COORD97":2548490.3500000001,"ADDRESS":"八德街２７巷６號","OBJECTID":285791},"geometry":{"x":174272.29000000097,"y":2548490.3500000015}},{"attributes":{"ID":285798,"DIS_CODE":0,"TOWNNAME":"佳里區","LI":"安西里","LIN":"56鄰","STREET":"佳安中街","SECT":" ","MAREA":" ","LANE":" ","ALLEY":" ","HOUSE_NO":"３６號","E_COORD97":163894.94,"N_COORD97":2562296.3399999999,"ADDRESS":"佳安中街３６號","OBJECTID":285792},"geometry":{"x":163894.94000000134,"y":2562296.3400000017}},{"attributes":{"ID":285799,"DIS_CODE":0,"TOWNNAME":"佳里區","LI":"安西里","LIN":"56鄰","STREET":"佳安中街","SECT":" ","MAREA":" ","LANE":" ","ALLEY":" ","HOUSE_NO":"３７號","E_COORD97":163875.85999999999,"N_COORD97":2562281.1600000001,"ADDRESS":"佳安中街３７號","OBJECTID":285793},"geometry":{"x":163875.86000000034,"y":2562281.160000002}},{"attributes":{"ID":285800,"DIS_CODE":0,"TOWNNAME":"佳里區","LI":"安西里","LIN":"56鄰","STREET":"佳安北街","SECT":" ","MAREA":" ","LANE":" ","ALLEY":" ","HOUSE_NO":"１號","E_COORD97":164004.14999999999,"N_COORD97":2562381.77,"ADDRESS":"佳安北街１號","OBJECTID":285794},"geometry":{"x":164004.1500000013,"y":2562381.7700000014}},{"attributes":{"ID":285801,"DIS_CODE":0,"TOWNNAME":"佳里區","LI":"安西里","LIN":"56鄰","STREET":"佳安北街","SECT":" ","MAREA":" ","LANE":" ","ALLEY":" ","HOUSE_NO":"２１號","E_COORD97":164001.22,"N_COORD97":2562425.8500000001,"ADDRESS":"佳安北街２１號","OBJECTID":285795},"geometry":{"x":164001.22000000067,"y":2562425.8500000015}},{"attributes":{"ID":285802,"DIS_CODE":0,"TOWNNAME":"佳里區","LI":"安西里","LIN":"56鄰","STREET":"佳安北街","SECT":" ","MAREA":" ","LANE":" ","ALLEY":" ","HOUSE_NO":"２３號","E_COORD97":164000.16,"N_COORD97":2562430.27,"ADDRESS":"佳安北街２３號","OBJECTID":285796},"geometry":{"x":164000.16000000108,"y":2562430.2699999996}},{"attributes":{"ID":285803,"DIS_CODE":0,"TOWNNAME":"佳里區","LI":"安西里","LIN":"56鄰","STREET":"佳安北街","SECT":" ","MAREA":" ","LANE":" ","ALLEY":" ","HOUSE_NO":"２５號","E_COORD97":164000.28,"N_COORD97":2562434.8100000001,"ADDRESS":"佳安北街２５號","OBJECTID":285797},"geometry":{"x":164000.28000000026,"y":2562434.8100000005}},{"attributes":{"ID":285804,"DIS_CODE":0,"TOWNNAME":"永康區","LI":"西勢里","LIN":"21鄰","STREET":"富強路","SECT":"一段","MAREA":" ","LANE":" ","ALLEY":" ","HOUSE_NO":"４２之１號","E_COORD97":175434.62,"N_COORD97":2546064.6299999999,"ADDRESS":"富強路一段４２之１號","OBJECTID":285798},"geometry":{"x":175434.62000000104,"y":2546064.6300000008}},{"attributes":{"ID":285805,"DIS_CODE":0,"TOWNNAME":"永康區","LI":"二王里","LIN":"2鄰","STREET":"永二街","SECT":" ","MAREA":" ","LANE":" ","ALLEY":" ","HOUSE_NO":"２８４號","E_COORD97":173063.25,"N_COORD97":2546529.8700000001,"ADDRESS":"永二街２８４號","OBJECTID":285799},"geometry":{"x":173063.25000000186,"y":2546529.8700000029}},{"attributes":{"ID":285806,"DIS_CODE":0,"TOWNNAME":"永康區","LI":"崑山里","LIN":"12鄰","STREET":"大灣路","SECT":" ","MAREA":" ","LANE":"１１０２巷","ALLEY":" ","HOUSE_NO":"４號之４","E_COORD97":173192.54000000001,"N_COORD97":2544458.5600000001,"ADDRESS":"大灣路１１０２巷４號之４","OBJECTID":285800},"geometry":{"x":173192.54000000097,"y":2544458.5600000042}}]}