{"displayFieldName":"TOWNNAME","fieldAliases":{"ID":"ID","DIS_CODE":"DIS_CODE","TOWNNAME":"TOWNNAME","LI":"LI","LIN":"LIN","STREET":"STREET","SECT":"SECT","MAREA":"MAREA","LANE":"LANE","ALLEY":"ALLEY","HOUSE_NO":"HOUSE_NO","E_COORD97":"E_COORD97","N_COORD97":"N_COORD97","ADDRESS":"ADDRESS","OBJECTID":"OBJECTID"},"geometryType":"esriGeometryPoint","spatialReference":{"wkid":102443,"latestWkid":3826},"fields":[{"name":"ID","type":"esriFieldTypeDouble","alias":"ID"},{"name":"DIS_CODE","type":"esriFieldTypeInteger","alias":"DIS_CODE"},{"name":"TOWNNAME","type":"esriFieldTypeString","alias":"TOWNNAME","length":8},{"name":"LI","type":"esriFieldTypeString","alias":"LI","length":8},{"name":"LIN","type":"esriFieldTypeString","alias":"LIN","length":12},{"name":"STREET","type":"esriFieldTypeString","alias":"STREET","length":20},{"name":"SECT","type":"esriFieldTypeString","alias":"SECT","length":8},{"name":"MAREA","type":"esriFieldTypeString","alias":"MAREA","length":12},{"name":"LANE","type":"esriFieldTypeString","alias":"LANE","length":10},{"name":"ALLEY","type":"esriFieldTypeString","alias":"ALLEY","length":10},{"name":"HOUSE_NO","type":"esriFieldTypeString","alias":"HOUSE_NO","length":20},{"name":"E_COORD97","type":"esriFieldTypeDouble","alias":"E_COORD97"},{"name":"N_COORD97","type":"esriFieldTypeDouble","alias":"N_COORD97"},{"name":"ADDRESS","type":"esriFieldTypeString","alias":"ADDRESS","length":50},{"name":"OBJECTID","type":"esriFieldTypeOID","alias":"OBJECTID"}],"features":[{"attributes":{"ID":330810,"DIS_CODE":0,"TOWNNAME":"善化區","LI":"胡家里","LIN":" ","STREET":" ","SECT":" ","MAREA":"胡厝寮","LANE":" ","ALLEY":" ","HOUSE_NO":"２１１之１號","E_COORD97":175270.88,"N_COORD97":2560385.77,"ADDRESS":"胡厝寮２１１之１號","OBJECTID":330801},"geometry":{"x":175270.87999999989,"y":2560385.7699999996}},{"attributes":{"ID":330811,"DIS_CODE":0,"TOWNNAME":"善化區","LI":"胡家里","LIN":"4鄰","STREET":" ","SECT":" ","MAREA":"胡厝寮","LANE":" ","ALLEY":" ","HOUSE_NO":"３０６號","E_COORD97":175521.54999999999,"N_COORD97":2560402.75,"ADDRESS":"胡厝寮３０６號","OBJECTID":330802},"geometry":{"x":175521.55000000075,"y":2560402.7500000019}},{"attributes":{"ID":330812,"DIS_CODE":0,"TOWNNAME":"善化區","LI":"胡厝里","LIN":"25鄰","STREET":" ","SECT":" ","MAREA":"烏橋","LANE":" ","ALLEY":" ","HOUSE_NO":"２１號","E_COORD97":175379.95999999999,"N_COORD97":2558894.25,"ADDRESS":"烏橋２１號","OBJECTID":330803},"geometry":{"x":175379.95999999996,"y":2558894.2500000019}},{"attributes":{"ID":330813,"DIS_CODE":0,"TOWNNAME":"南區","LI":"建南里","LIN":"17鄰","STREET":"明興路","SECT":" ","MAREA":" ","LANE":" ","ALLEY":" ","HOUSE_NO":"４１號","E_COORD97":166794.64000000001,"N_COORD97":2540096.3799999999,"ADDRESS":"明興路４１號","OBJECTID":330804},"geometry":{"x":166794.63999999966,"y":2540096.379999999}},{"attributes":{"ID":330814,"DIS_CODE":0,"TOWNNAME":"善化區","LI":"胡厝里","LIN":"4鄰","STREET":" ","SECT":" ","MAREA":"胡厝寮","LANE":" ","ALLEY":" ","HOUSE_NO":"１７９之２號","E_COORD97":175200.72,"N_COORD97":2560549.52,"ADDRESS":"胡厝寮１７９之２號","OBJECTID":330805},"geometry":{"x":175200.71999999881,"y":2560549.5200000014}},{"attributes":{"ID":330815,"DIS_CODE":0,"TOWNNAME":"北區","LI":"大港里","LIN":"15鄰","STREET":"大興街","SECT":" ","MAREA":" ","LANE":"２４６巷","ALLEY":" ","HOUSE_NO":"７４號","E_COORD97":166611.44,"N_COORD97":2545868.2400000002,"ADDRESS":"大興街２４６巷７４號","OBJECTID":330806},"geometry":{"x":166611.44000000041,"y":2545868.2400000021}},{"attributes":{"ID":330816,"DIS_CODE":0,"TOWNNAME":"善化區","LI":"胡厝里","LIN":"20鄰","STREET":" ","SECT":" ","MAREA":"西衛","LANE":" ","ALLEY":" ","HOUSE_NO":"３７號之２","E_COORD97":174049.70999999999,"N_COORD97":2559198.77,"ADDRESS":"西衛３７號之２","OBJECTID":330807},"geometry":{"x":174049.70999999996,"y":2559198.7700000014}},{"attributes":{"ID":330817,"DIS_CODE":0,"TOWNNAME":"北區","LI":"大港里","LIN":"15鄰","STREET":"大興街","SECT":" ","MAREA":" ","LANE":"２４６巷","ALLEY":" ","HOUSE_NO":"７６號","E_COORD97":166610.38,"N_COORD97":2545872.1699999999,"ADDRESS":"大興街２４６巷７６號","OBJECTID":330808},"geometry":{"x":166610.38000000175,"y":2545872.1700000018}},{"attributes":{"ID":330818,"DIS_CODE":0,"TOWNNAME":"善化區","LI":"胡家里","LIN":"13鄰","STREET":" ","SECT":" ","MAREA":"胡厝寮","LANE":" ","ALLEY":" ","HOUSE_NO":"６７號之２","E_COORD97":175323.54999999999,"N_COORD97":2560726.02,"ADDRESS":"胡厝寮６７號之２","OBJECTID":330809},"geometry":{"x":175323.54999999981,"y":2560726.0200000014}},{"attributes":{"ID":330819,"DIS_CODE":0,"TOWNNAME":"新營區","LI":"忠政里","LIN":"15鄰","STREET":"府西路","SECT":" ","MAREA":" ","LANE":"２３０巷","ALLEY":" ","HOUSE_NO":"５３號","E_COORD97":179947.5,"N_COORD97":2579611.75,"ADDRESS":"府西路２３０巷５３號","OBJECTID":330810},"geometry":{"x":179947.50000000186,"y":2579611.7500000019}},{"attributes":{"ID":330820,"DIS_CODE":0,"TOWNNAME":"新營區","LI":"忠政里","LIN":"15鄰","STREET":"府西路","SECT":" ","MAREA":" ","LANE":"２３０巷","ALLEY":" ","HOUSE_NO":"４６號","E_COORD97":179941.35000000001,"N_COORD97":2579597.3900000001,"ADDRESS":"府西路２３０巷４６號","OBJECTID":330811},"geometry":{"x":179941.35000000149,"y":2579597.3900000043}},{"attributes":{"ID":330821,"DIS_CODE":0,"TOWNNAME":"新營區","LI":"忠政里","LIN":"15鄰","STREET":"府西路","SECT":" ","MAREA":" ","LANE":"２３０巷","ALLEY":" ","HOUSE_NO":"１７號","E_COORD97":179868.70999999999,"N_COORD97":2579611.02,"ADDRESS":"府西路２３０巷１７號","OBJECTID":330812},"geometry":{"x":179868.71000000089,"y":2579611.0199999996}},{"attributes":{"ID":330822,"DIS_CODE":0,"TOWNNAME":"善化區","LI":"胡家里","LIN":"18鄰","STREET":" ","SECT":" ","MAREA":"胡厝寮","LANE":" ","ALLEY":" ","HOUSE_NO":"１２１號","E_COORD97":175241.85000000001,"N_COORD97":2560662.75,"ADDRESS":"胡厝寮１２１號","OBJECTID":330813},"geometry":{"x":175241.84999999963,"y":2560662.7500000037}},{"attributes":{"ID":330823,"DIS_CODE":0,"TOWNNAME":"新營區","LI":"忠政里","LIN":"15鄰","STREET":"府西路","SECT":" ","MAREA":" ","LANE":"２３０巷","ALLEY":" ","HOUSE_NO":"５５號","E_COORD97":179952.60999999999,"N_COORD97":2579611.73,"ADDRESS":"府西路２３０巷５５號","OBJECTID":330814},"geometry":{"x":179952.61000000127,"y":2579611.7299999986}},{"attributes":{"ID":330824,"DIS_CODE":0,"TOWNNAME":"善化區","LI":"溪美里","LIN":"14鄰","STREET":" ","SECT":" ","MAREA":"溪尾","LANE":" ","ALLEY":" ","HOUSE_NO":"１３２之２號","E_COORD97":176964.10999999999,"N_COORD97":2561467.27,"ADDRESS":"溪尾１３２之２號","OBJECTID":330815},"geometry":{"x":176964.11000000127,"y":2561467.2699999996}},{"attributes":{"ID":330825,"DIS_CODE":0,"TOWNNAME":"善化區","LI":"胡家里","LIN":"17鄰","STREET":" ","SECT":" ","MAREA":"胡厝寮","LANE":" ","ALLEY":" ","HOUSE_NO":"１６４號","E_COORD97":175192.41,"N_COORD97":2560659.5,"ADDRESS":"胡厝寮１６４號","OBJECTID":330816},"geometry":{"x":175192.41000000015,"y":2560659.5}},{"attributes":{"ID":330826,"DIS_CODE":0,"TOWNNAME":"善化區","LI":"胡家里","LIN":"4鄰","STREET":" ","SECT":" ","MAREA":"胡厝寮","LANE":" ","ALLEY":" ","HOUSE_NO":"３０４號之３","E_COORD97":175497.35999999999,"N_COORD97":2560387.77,"ADDRESS":"胡厝寮３０４號之３","OBJECTID":330817},"geometry":{"x":175497.36000000127,"y":2560387.7700000014}},{"attributes":{"ID":330827,"DIS_CODE":0,"TOWNNAME":"新營區","LI":"興業里","LIN":"15鄰","STREET":"中興路","SECT":" ","MAREA":" ","LANE":"１５巷","ALLEY":" ","HOUSE_NO":"１３號","E_COORD97":180207.54999999999,"N_COORD97":2577937.1699999999,"ADDRESS":"中興路１５巷１３號","OBJECTID":330818},"geometry":{"x":180207.54999999981,"y":2577937.1700000037}},{"attributes":{"ID":330828,"DIS_CODE":0,"TOWNNAME":"善化區","LI":"溪美里","LIN":"17鄰","STREET":" ","SECT":" ","MAREA":"溪尾","LANE":" ","ALLEY":" ","HOUSE_NO":"１６６號之１","E_COORD97":176956.54999999999,"N_COORD97":2561281.27,"ADDRESS":"溪尾１６６號之１","OBJECTID":330819},"geometry":{"x":176956.55000000168,"y":2561281.2699999996}},{"attributes":{"ID":330829,"DIS_CODE":0,"TOWNNAME":"善化區","LI":"溪美里","LIN":" ","STREET":" ","SECT":" ","MAREA":"溪尾","LANE":" ","ALLEY":" ","HOUSE_NO":"２２７之２號","E_COORD97":177301.26000000001,"N_COORD97":2561489.52,"ADDRESS":"溪尾２２７之２號","OBJECTID":330820},"geometry":{"x":177301.26000000071,"y":2561489.5199999996}},{"attributes":{"ID":330830,"DIS_CODE":0,"TOWNNAME":"善化區","LI":"胡厝里","LIN":"14鄰","STREET":" ","SECT":" ","MAREA":"胡厝寮","LANE":" ","ALLEY":" ","HOUSE_NO":"２３４號","E_COORD97":174961.66,"N_COORD97":2560221,"ADDRESS":"胡厝寮２３４號","OBJECTID":330821},"geometry":{"x":174961.66000000108,"y":2560221.0000000019}},{"attributes":{"ID":330831,"DIS_CODE":0,"TOWNNAME":"善化區","LI":"胡家里","LIN":" ","STREET":" ","SECT":" ","MAREA":"胡厝寮","LANE":" ","ALLEY":" ","HOUSE_NO":"２４之３號","E_COORD97":175508.01999999999,"N_COORD97":2560527.52,"ADDRESS":"胡厝寮２４之３號","OBJECTID":330822},"geometry":{"x":175508.01999999955,"y":2560527.5199999996}},{"attributes":{"ID":330832,"DIS_CODE":0,"TOWNNAME":"新營區","LI":"王公里","LIN":"15鄰","STREET":"大勇街","SECT":" ","MAREA":" ","LANE":"４巷","ALLEY":" ","HOUSE_NO":"３號","E_COORD97":180189.82000000001,"N_COORD97":2579411.2599999998,"ADDRESS":"大勇街４巷３號","OBJECTID":330823},"geometry":{"x":180189.82000000123,"y":2579411.2600000035}},{"attributes":{"ID":330833,"DIS_CODE":0,"TOWNNAME":"新市區","LI":"三舍里","LIN":"7鄰","STREET":" ","SECT":" ","MAREA":"三舍","LANE":" ","ALLEY":" ","HOUSE_NO":"１６６之２０號","E_COORD97":177545.92525999999,"N_COORD97":2554821.4256500001,"ADDRESS":"三舍１６６之２０號","OBJECTID":330824},"geometry":{"x":177545.925259999,"y":2554821.425648002}},{"attributes":{"ID":330834,"DIS_CODE":0,"TOWNNAME":"善化區","LI":"胡家里","LIN":"18鄰","STREET":" ","SECT":" ","MAREA":"胡厝寮","LANE":" ","ALLEY":" ","HOUSE_NO":"１２３之６號","E_COORD97":175261.94,"N_COORD97":2560664.52,"ADDRESS":"胡厝寮１２３之６號","OBJECTID":330825},"geometry":{"x":175261.94000000041,"y":2560664.5200000014}},{"attributes":{"ID":330835,"DIS_CODE":0,"TOWNNAME":"善化區","LI":"胡厝里","LIN":"20鄰","STREET":" ","SECT":" ","MAREA":"西衛","LANE":" ","ALLEY":" ","HOUSE_NO":"３６號之１０","E_COORD97":174053.44,"N_COORD97":2559231.77,"ADDRESS":"西衛３６號之１０","OBJECTID":330826},"geometry":{"x":174053.44000000041,"y":2559231.7700000014}},{"attributes":{"ID":330836,"DIS_CODE":0,"TOWNNAME":"善化區","LI":"溪美里","LIN":"17鄰","STREET":" ","SECT":" ","MAREA":"溪尾","LANE":" ","ALLEY":" ","HOUSE_NO":"１５９號","E_COORD97":176932.82000000001,"N_COORD97":2561294.27,"ADDRESS":"溪尾１５９號","OBJECTID":330827},"geometry":{"x":176932.8200000003,"y":2561294.2699999996}},{"attributes":{"ID":330837,"DIS_CODE":0,"TOWNNAME":"新化區","LI":"東榮里","LIN":"15鄰","STREET":"中興路","SECT":" ","MAREA":" ","LANE":"６５２巷","ALLEY":" ","HOUSE_NO":"２９號","E_COORD97":179699.06,"N_COORD97":2548198.25,"ADDRESS":"中興路６５２巷２９號","OBJECTID":330828},"geometry":{"x":179699.06000000145,"y":2548198.25}},{"attributes":{"ID":330838,"DIS_CODE":0,"TOWNNAME":"善化區","LI":"嘉北里","LIN":"4鄰","STREET":" ","SECT":" ","MAREA":"茄拔","LANE":" ","ALLEY":" ","HOUSE_NO":"３８號之２４","E_COORD97":181165.19,"N_COORD97":2559668.27,"ADDRESS":"茄拔３８號之２４","OBJECTID":330829},"geometry":{"x":181165.19000000041,"y":2559668.2699999977}},{"attributes":{"ID":330839,"DIS_CODE":0,"TOWNNAME":"善化區","LI":"胡家里","LIN":"14鄰","STREET":" ","SECT":" ","MAREA":"胡厝寮","LANE":" ","ALLEY":" ","HOUSE_NO":"１２４之４號","E_COORD97":175447.84,"N_COORD97":2560764.77,"ADDRESS":"胡厝寮１２４之４號","OBJECTID":330830},"geometry":{"x":175447.84000000078,"y":2560764.7700000014}},{"attributes":{"ID":330840,"DIS_CODE":0,"TOWNNAME":"善化區","LI":"牛庄里","LIN":"14鄰","STREET":" ","SECT":" ","MAREA":"牛庄","LANE":" ","ALLEY":" ","HOUSE_NO":"１４１號之９","E_COORD97":179948.20999999999,"N_COORD97":2559852.27,"ADDRESS":"牛庄１４１號之９","OBJECTID":330831},"geometry":{"x":179948.21000000089,"y":2559852.2700000014}},{"attributes":{"ID":330841,"DIS_CODE":0,"TOWNNAME":"新化區","LI":"東榮里","LIN":"15鄰","STREET":"中興路","SECT":" ","MAREA":" ","LANE":"７２０巷","ALLEY":" ","HOUSE_NO":"３６號","E_COORD97":179661.56,"N_COORD97":2548193.25,"ADDRESS":"中興路７２０巷３６號","OBJECTID":330832},"geometry":{"x":179661.55999999959,"y":2548193.2500000019}},{"attributes":{"ID":330842,"DIS_CODE":0,"TOWNNAME":"新化區","LI":"東榮里","LIN":"15鄰","STREET":"中興路","SECT":" ","MAREA":" ","LANE":"６５２巷","ALLEY":" ","HOUSE_NO":"２４號之４","E_COORD97":179696.09,"N_COORD97":2548160.2599999998,"ADDRESS":"中興路６５２巷２４號之４","OBJECTID":330833},"geometry":{"x":179696.09000000078,"y":2548160.2599999998}},{"attributes":{"ID":330843,"DIS_CODE":0,"TOWNNAME":"善化區","LI":"溪美里","LIN":"17鄰","STREET":" ","SECT":" ","MAREA":"溪尾","LANE":" ","ALLEY":" ","HOUSE_NO":"１６４號","E_COORD97":176927.85000000001,"N_COORD97":2561276.52,"ADDRESS":"溪尾１６４號","OBJECTID":330834},"geometry":{"x":176927.85000000056,"y":2561276.5199999996}},{"attributes":{"ID":330844,"DIS_CODE":0,"TOWNNAME":"善化區","LI":"小新里","LIN":"20鄰","STREET":" ","SECT":" ","MAREA":"小新營","LANE":" ","ALLEY":" ","HOUSE_NO":"３７０號","E_COORD97":180213.53,"N_COORD97":2557113,"ADDRESS":"小新營３７０號","OBJECTID":330835},"geometry":{"x":180213.52999999933,"y":2557113}},{"attributes":{"ID":330845,"DIS_CODE":0,"TOWNNAME":"新化區","LI":"東榮里","LIN":"15鄰","STREET":"中興路","SECT":" ","MAREA":" ","LANE":"６５２巷","ALLEY":" ","HOUSE_NO":"２３號","E_COORD97":179679.35999999999,"N_COORD97":2548174.25,"ADDRESS":"中興路６５２巷２３號","OBJECTID":330836},"geometry":{"x":179679.36000000127,"y":2548174.25}},{"attributes":{"ID":330846,"DIS_CODE":0,"TOWNNAME":"善化區","LI":"牛庄里","LIN":"14鄰","STREET":" ","SECT":" ","MAREA":"牛庄","LANE":" ","ALLEY":" ","HOUSE_NO":"１４６之４號","E_COORD97":180011.01999999999,"N_COORD97":2559757.27,"ADDRESS":"牛庄１４６之４號","OBJECTID":330837},"geometry":{"x":180011.01999999955,"y":2559757.2700000014}},{"attributes":{"ID":330847,"DIS_CODE":0,"TOWNNAME":"善化區","LI":"牛庄里","LIN":"14鄰","STREET":" ","SECT":" ","MAREA":"牛庄","LANE":" ","ALLEY":" ","HOUSE_NO":"１４６之１５號","E_COORD97":180050.42999999999,"N_COORD97":2559767.52,"ADDRESS":"牛庄１４６之１５號","OBJECTID":330838},"geometry":{"x":180050.4299999997,"y":2559767.5199999996}},{"attributes":{"ID":330848,"DIS_CODE":0,"TOWNNAME":"善化區","LI":"田寮里","LIN":"4鄰","STREET":" ","SECT":" ","MAREA":"六分寮","LANE":" ","ALLEY":" ","HOUSE_NO":"５３號之２","E_COORD97":178423.04999999999,"N_COORD97":2561071.02,"ADDRESS":"六分寮５３號之２","OBJECTID":330839},"geometry":{"x":178423.05000000075,"y":2561071.0200000014}},{"attributes":{"ID":330849,"DIS_CODE":0,"TOWNNAME":"新化區","LI":"東榮里","LIN":"15鄰","STREET":"中興路","SECT":" ","MAREA":" ","LANE":"６５２巷","ALLEY":" ","HOUSE_NO":"１０號","E_COORD97":179692.35999999999,"N_COORD97":2548111.25,"ADDRESS":"中興路６５２巷１０號","OBJECTID":330840},"geometry":{"x":179692.36000000034,"y":2548111.2500000037}},{"attributes":{"ID":330850,"DIS_CODE":0,"TOWNNAME":"善化區","LI":"光文里","LIN":" ","STREET":" ","SECT":" ","MAREA":"北子店","LANE":" ","ALLEY":" ","HOUSE_NO":"８２號","E_COORD97":179632.85000000001,"N_COORD97":2559657.5,"ADDRESS":"北子店８２號","OBJECTID":330841},"geometry":{"x":179632.85000000149,"y":2559657.5000000037}},{"attributes":{"ID":330851,"DIS_CODE":0,"TOWNNAME":"善化區","LI":"東昌里","LIN":"4鄰","STREET":" ","SECT":" ","MAREA":"東勢寮","LANE":" ","ALLEY":" ","HOUSE_NO":"４４號之３","E_COORD97":180712.94,"N_COORD97":2561950.02,"ADDRESS":"東勢寮４４號之３","OBJECTID":330842},"geometry":{"x":180712.94000000134,"y":2561950.0200000014}},{"attributes":{"ID":330852,"DIS_CODE":0,"TOWNNAME":"善化區","LI":"田寮里","LIN":"4鄰","STREET":" ","SECT":" ","MAREA":"六分寮","LANE":" ","ALLEY":" ","HOUSE_NO":"５３號之１８","E_COORD97":178405.32999999999,"N_COORD97":2561033.02,"ADDRESS":"六分寮５３號之１８","OBJECTID":330843},"geometry":{"x":178405.33000000007,"y":2561033.0199999977}},{"attributes":{"ID":330853,"DIS_CODE":0,"TOWNNAME":"善化區","LI":"牛庄里","LIN":" ","STREET":" ","SECT":" ","MAREA":"牛庄","LANE":" ","ALLEY":" ","HOUSE_NO":"３７之１號","E_COORD97":180273.26999999999,"N_COORD97":2560049.27,"ADDRESS":"牛庄３７之１號","OBJECTID":330844},"geometry":{"x":180273.26999999955,"y":2560049.2700000014}},{"attributes":{"ID":330854,"DIS_CODE":0,"TOWNNAME":"善化區","LI":"坐駕里","LIN":"20鄰","STREET":" ","SECT":" ","MAREA":"坐駕","LANE":" ","ALLEY":" ","HOUSE_NO":"１１３之３號","E_COORD97":178332.41,"N_COORD97":2558346.52,"ADDRESS":"坐駕１１３之３號","OBJECTID":330845},"geometry":{"x":178332.41000000015,"y":2558346.5199999996}},{"attributes":{"ID":330855,"DIS_CODE":0,"TOWNNAME":"善化區","LI":"坐駕里","LIN":"24鄰","STREET":" ","SECT":" ","MAREA":"坐駕","LANE":" ","ALLEY":" ","HOUSE_NO":"２９號","E_COORD97":178706.04999999999,"N_COORD97":2558043.75,"ADDRESS":"坐駕２９號","OBJECTID":330846},"geometry":{"x":178706.05000000168,"y":2558043.75}},{"attributes":{"ID":330856,"DIS_CODE":0,"TOWNNAME":"新化區","LI":"協興里","LIN":"15鄰","STREET":"中山路","SECT":" ","MAREA":" ","LANE":"６６０巷","ALLEY":" ","HOUSE_NO":"５１號","E_COORD97":178026.35999999999,"N_COORD97":2548651.25,"ADDRESS":"中山路６６０巷５１號","OBJECTID":330847},"geometry":{"x":178026.3600000022,"y":2548651.2500000019}},{"attributes":{"ID":330857,"DIS_CODE":0,"TOWNNAME":"善化區","LI":"坐駕里","LIN":"24鄰","STREET":" ","SECT":" ","MAREA":"坐駕","LANE":" ","ALLEY":" ","HOUSE_NO":"２４號","E_COORD97":178763.29999999999,"N_COORD97":2558056,"ADDRESS":"坐駕２４號","OBJECTID":330848},"geometry":{"x":178763.29999999981,"y":2558056}},{"attributes":{"ID":330858,"DIS_CODE":0,"TOWNNAME":"新化區","LI":"東榮里","LIN":"15鄰","STREET":"中興路","SECT":" ","MAREA":" ","LANE":"６５２巷","ALLEY":" ","HOUSE_NO":"１５號","E_COORD97":179678.45999999999,"N_COORD97":2548145.25,"ADDRESS":"中興路６５２巷１５號","OBJECTID":330849},"geometry":{"x":179678.46000000089,"y":2548145.2500000037}},{"attributes":{"ID":330859,"DIS_CODE":0,"TOWNNAME":"新化區","LI":"知義里","LIN":"15鄰","STREET":"中興路","SECT":" ","MAREA":" ","LANE":"４１５巷","ALLEY":" ","HOUSE_NO":"２３號","E_COORD97":180636.95999999999,"N_COORD97":2547404.25,"ADDRESS":"中興路４１５巷２３號","OBJECTID":330850},"geometry":{"x":180636.95999999996,"y":2547404.2500000019}},{"attributes":{"ID":330860,"DIS_CODE":0,"TOWNNAME":"善化區","LI":"光文里","LIN":"4鄰","STREET":" ","SECT":" ","MAREA":"北子店","LANE":"１６０巷","ALLEY":" ","HOUSE_NO":"１６號","E_COORD97":179434.64999999999,"N_COORD97":2559577.25,"ADDRESS":"北子店１６０巷１６號","OBJECTID":330851},"geometry":{"x":179434.65000000037,"y":2559577.25}},{"attributes":{"ID":330861,"DIS_CODE":0,"TOWNNAME":"善化區","LI":"東昌里","LIN":"4鄰","STREET":" ","SECT":" ","MAREA":"東勢寮","LANE":" ","ALLEY":" ","HOUSE_NO":"４４號","E_COORD97":180677.35000000001,"N_COORD97":2561931.7599999998,"ADDRESS":"東勢寮４４號","OBJECTID":330852},"geometry":{"x":180677.35000000056,"y":2561931.7600000016}},{"attributes":{"ID":330862,"DIS_CODE":0,"TOWNNAME":"善化區","LI":"光文里","LIN":"4鄰","STREET":" ","SECT":" ","MAREA":"北子店","LANE":"１６０巷","ALLEY":" ","HOUSE_NO":"３２號","E_COORD97":179448.14000000001,"N_COORD97":2559548.75,"ADDRESS":"北子店１６０巷３２號","OBJECTID":330853},"geometry":{"x":179448.1400000006,"y":2559548.7500000019}},{"attributes":{"ID":330863,"DIS_CODE":0,"TOWNNAME":"善化區","LI":"光文里","LIN":"4鄰","STREET":" ","SECT":" ","MAREA":"北子店","LANE":"１６０巷","ALLEY":" ","HOUSE_NO":"６號","E_COORD97":179422.20000000001,"N_COORD97":2559610.4900000002,"ADDRESS":"北子店１６０巷６號","OBJECTID":330854},"geometry":{"x":179422.20000000019,"y":2559610.4900000021}},{"attributes":{"ID":330864,"DIS_CODE":0,"TOWNNAME":"善化區","LI":"牛庄里","LIN":"4鄰","STREET":" ","SECT":" ","MAREA":"牛庄","LANE":" ","ALLEY":" ","HOUSE_NO":"６０號","E_COORD97":180224.57000000001,"N_COORD97":2559965,"ADDRESS":"牛庄６０號","OBJECTID":330855},"geometry":{"x":180224.5700000003,"y":2559965}},{"attributes":{"ID":330865,"DIS_CODE":0,"TOWNNAME":"新化區","LI":"知義里","LIN":"15鄰","STREET":"中興路","SECT":" ","MAREA":" ","LANE":"４１５巷","ALLEY":" ","HOUSE_NO":"１０號","E_COORD97":180618.45999999999,"N_COORD97":2547461.25,"ADDRESS":"中興路４１５巷１０號","OBJECTID":330856},"geometry":{"x":180618.45999999996,"y":2547461.2500000019}},{"attributes":{"ID":330866,"DIS_CODE":0,"TOWNNAME":"善化區","LI":"田寮里","LIN":"10鄰","STREET":" ","SECT":" ","MAREA":"六分寮","LANE":" ","ALLEY":" ","HOUSE_NO":"１１２號","E_COORD97":178624.91,"N_COORD97":2561421.02,"ADDRESS":"六分寮１１２號","OBJECTID":330857},"geometry":{"x":178624.91000000108,"y":2561421.0200000014}},{"attributes":{"ID":330867,"DIS_CODE":0,"TOWNNAME":"新化區","LI":"知義里","LIN":"15鄰","STREET":"中興路","SECT":" ","MAREA":" ","LANE":"４１５巷","ALLEY":" ","HOUSE_NO":"３號","E_COORD97":180627.70999999999,"N_COORD97":2547468.25,"ADDRESS":"中興路４１５巷３號","OBJECTID":330858},"geometry":{"x":180627.71000000089,"y":2547468.2500000019}},{"attributes":{"ID":330868,"DIS_CODE":0,"TOWNNAME":"新化區","LI":"知義里","LIN":"15鄰","STREET":"中興路","SECT":" ","MAREA":" ","LANE":"４１５巷","ALLEY":" ","HOUSE_NO":"２８號","E_COORD97":180626.66,"N_COORD97":2547403.25,"ADDRESS":"中興路４１５巷２８號","OBJECTID":330859},"geometry":{"x":180626.66000000108,"y":2547403.2500000019}},{"attributes":{"ID":330869,"DIS_CODE":0,"TOWNNAME":"善化區","LI":"牛庄里","LIN":" ","STREET":" ","SECT":" ","MAREA":"牛庄","LANE":" ","ALLEY":" ","HOUSE_NO":"３９之２號","E_COORD97":180304.67999999999,"N_COORD97":2559993.02,"ADDRESS":"牛庄３９之２號","OBJECTID":330860},"geometry":{"x":180304.6799999997,"y":2559993.0200000014}},{"attributes":{"ID":330870,"DIS_CODE":0,"TOWNNAME":"新化區","LI":"太平里","LIN":"15鄰","STREET":"太平街","SECT":" ","MAREA":" ","LANE":"６３巷","ALLEY":" ","HOUSE_NO":"９號","E_COORD97":178834.67000000001,"N_COORD97":2548760.25,"ADDRESS":"太平街６３巷９號","OBJECTID":330861},"geometry":{"x":178834.67000000086,"y":2548760.2500000019}},{"attributes":{"ID":330871,"DIS_CODE":0,"TOWNNAME":"善化區","LI":"坐駕里","LIN":"20鄰","STREET":" ","SECT":" ","MAREA":"坐駕","LANE":" ","ALLEY":" ","HOUSE_NO":"１１３之４號","E_COORD97":178333.16,"N_COORD97":2558351.02,"ADDRESS":"坐駕１１３之４號","OBJECTID":330862},"geometry":{"x":178333.16000000108,"y":2558351.0199999996}},{"attributes":{"ID":330872,"DIS_CODE":0,"TOWNNAME":"善化區","LI":"田寮里","LIN":"4鄰","STREET":" ","SECT":" ","MAREA":"六分寮","LANE":" ","ALLEY":" ","HOUSE_NO":"５３號之２５","E_COORD97":178401.14999999999,"N_COORD97":2561073.27,"ADDRESS":"六分寮５３號之２５","OBJECTID":330863},"geometry":{"x":178401.1500000013,"y":2561073.2700000014}},{"attributes":{"ID":330873,"DIS_CODE":0,"TOWNNAME":"善化區","LI":"坐駕里","LIN":"24鄰","STREET":" ","SECT":" ","MAREA":"坐駕","LANE":" ","ALLEY":" ","HOUSE_NO":"２３號","E_COORD97":178727.75,"N_COORD97":2558084.75,"ADDRESS":"坐駕２３號","OBJECTID":330864},"geometry":{"x":178727.75,"y":2558084.75}},{"attributes":{"ID":330874,"DIS_CODE":0,"TOWNNAME":"善化區","LI":"牛庄里","LIN":"15鄰","STREET":" ","SECT":" ","MAREA":"牛庄","LANE":" ","ALLEY":" ","HOUSE_NO":"５３７號之１","E_COORD97":179582.73000000001,"N_COORD97":2560255.52,"ADDRESS":"牛庄５３７號之１","OBJECTID":330865},"geometry":{"x":179582.73000000045,"y":2560255.5199999996}},{"attributes":{"ID":330875,"DIS_CODE":0,"TOWNNAME":"新化區","LI":"太平里","LIN":"15鄰","STREET":"太平街","SECT":" ","MAREA":" ","LANE":"６３巷","ALLEY":" ","HOUSE_NO":"１１號之３","E_COORD97":178866.87,"N_COORD97":2548739.2599999998,"ADDRESS":"太平街６３巷１１號之３","OBJECTID":330866},"geometry":{"x":178866.87000000197,"y":2548739.2600000016}},{"attributes":{"ID":330876,"DIS_CODE":0,"TOWNNAME":"新化區","LI":"知義里","LIN":"15鄰","STREET":"中興路","SECT":" ","MAREA":" ","LANE":"４１５巷","ALLEY":" ","HOUSE_NO":"９號","E_COORD97":180630.41,"N_COORD97":2547449.25,"ADDRESS":"中興路４１５巷９號","OBJECTID":330867},"geometry":{"x":180630.41000000108,"y":2547449.25}},{"attributes":{"ID":330877,"DIS_CODE":0,"TOWNNAME":"新化區","LI":"協興里","LIN":"15鄰","STREET":"大新路","SECT":" ","MAREA":" ","LANE":"１１１巷","ALLEY":" ","HOUSE_NO":"５２號","E_COORD97":177986.98000000001,"N_COORD97":2548642.25,"ADDRESS":"大新路１１１巷５２號","OBJECTID":330868},"geometry":{"x":177986.98000000138,"y":2548642.25}},{"attributes":{"ID":330878,"DIS_CODE":0,"TOWNNAME":"新化區","LI":"知義里","LIN":"15鄰","STREET":"中興路","SECT":" ","MAREA":" ","LANE":"４１５巷","ALLEY":" ","HOUSE_NO":"１號","E_COORD97":180626.81,"N_COORD97":2547474.25,"ADDRESS":"中興路４１５巷１號","OBJECTID":330869},"geometry":{"x":180626.81000000052,"y":2547474.2500000019}},{"attributes":{"ID":330879,"DIS_CODE":0,"TOWNNAME":"善化區","LI":"田寮里","LIN":"1鄰","STREET":" ","SECT":" ","MAREA":"六分寮","LANE":" ","ALLEY":" ","HOUSE_NO":"１７之５號","E_COORD97":178354.09,"N_COORD97":2561323.27,"ADDRESS":"六分寮１７之５號","OBJECTID":330870},"geometry":{"x":178354.08999999985,"y":2561323.2700000033}},{"attributes":{"ID":330880,"DIS_CODE":0,"TOWNNAME":"善化區","LI":"坐駕里","LIN":"13鄰","STREET":"自強路","SECT":" ","MAREA":" ","LANE":" ","ALLEY":" ","HOUSE_NO":"５３號","E_COORD97":178203.04999999999,"N_COORD97":2558732,"ADDRESS":"自強路５３號","OBJECTID":330871},"geometry":{"x":178203.05000000075,"y":2558732.0000000019}},{"attributes":{"ID":330881,"DIS_CODE":0,"TOWNNAME":"善化區","LI":"田寮里","LIN":"4鄰","STREET":" ","SECT":" ","MAREA":"六分寮","LANE":" ","ALLEY":" ","HOUSE_NO":"５３號之２７","E_COORD97":178398.53,"N_COORD97":2561084.77,"ADDRESS":"六分寮５３號之２７","OBJECTID":330872},"geometry":{"x":178398.53000000119,"y":2561084.7699999996}},{"attributes":{"ID":330882,"DIS_CODE":0,"TOWNNAME":"善化區","LI":"坐駕里","LIN":"20鄰","STREET":" ","SECT":" ","MAREA":"坐駕","LANE":" ","ALLEY":" ","HOUSE_NO":"１０７號","E_COORD97":178302.35000000001,"N_COORD97":2558325.25,"ADDRESS":"坐駕１０７號","OBJECTID":330873},"geometry":{"x":178302.35000000056,"y":2558325.25}},{"attributes":{"ID":330883,"DIS_CODE":0,"TOWNNAME":"善化區","LI":"光文里","LIN":"4鄰","STREET":" ","SECT":" ","MAREA":"北子店","LANE":"１６０巷","ALLEY":" ","HOUSE_NO":"４０號","E_COORD97":179454.32999999999,"N_COORD97":2559529,"ADDRESS":"北子店１６０巷４０號","OBJECTID":330874},"geometry":{"x":179454.33000000101,"y":2559529.0000000019}},{"attributes":{"ID":330884,"DIS_CODE":0,"TOWNNAME":"歸仁區","LI":"武東里","LIN":"6鄰","STREET":"高鐵七路","SECT":" ","MAREA":" ","LANE":"１１０巷","ALLEY":" ","HOUSE_NO":"８８號","E_COORD97":175806.52806000001,"N_COORD97":2535717.22958,"ADDRESS":"高鐵七路１１０巷８８號","OBJECTID":330875},"geometry":{"x":175806.52806000225,"y":2535717.2295830026}},{"attributes":{"ID":330885,"DIS_CODE":0,"TOWNNAME":"善化區","LI":"牛庄里","LIN":"14鄰","STREET":" ","SECT":" ","MAREA":"牛庄","LANE":" ","ALLEY":" ","HOUSE_NO":"１４７之１７號","E_COORD97":179959.41,"N_COORD97":2559754.02,"ADDRESS":"牛庄１４７之１７號","OBJECTID":330876},"geometry":{"x":179959.41000000015,"y":2559754.0199999996}},{"attributes":{"ID":330886,"DIS_CODE":0,"TOWNNAME":"善化區","LI":"牛庄里","LIN":"14鄰","STREET":" ","SECT":" ","MAREA":"牛庄","LANE":" ","ALLEY":" ","HOUSE_NO":"１４７之２１號","E_COORD97":179958.63,"N_COORD97":2559771.52,"ADDRESS":"牛庄１４７之２１號","OBJECTID":330877},"geometry":{"x":179958.63000000082,"y":2559771.5199999996}},{"attributes":{"ID":330887,"DIS_CODE":0,"TOWNNAME":"善化區","LI":"牛庄里","LIN":"4鄰","STREET":" ","SECT":" ","MAREA":"牛庄","LANE":" ","ALLEY":" ","HOUSE_NO":"４０號之２","E_COORD97":180251.42999999999,"N_COORD97":2560043.52,"ADDRESS":"牛庄４０號之２","OBJECTID":330878},"geometry":{"x":180251.43000000063,"y":2560043.5200000014}},{"attributes":{"ID":330888,"DIS_CODE":0,"TOWNNAME":"善化區","LI":"坐駕里","LIN":"20鄰","STREET":" ","SECT":" ","MAREA":"坐駕","LANE":" ","ALLEY":" ","HOUSE_NO":"９０號","E_COORD97":178308.20999999999,"N_COORD97":2558363.75,"ADDRESS":"坐駕９０號","OBJECTID":330879},"geometry":{"x":178308.20999999996,"y":2558363.7500000037}},{"attributes":{"ID":330889,"DIS_CODE":0,"TOWNNAME":"善化區","LI":"牛庄里","LIN":"14鄰","STREET":" ","SECT":" ","MAREA":"牛庄","LANE":" ","ALLEY":" ","HOUSE_NO":"１４６號之９","E_COORD97":180046.35000000001,"N_COORD97":2559712.52,"ADDRESS":"牛庄１４６號之９","OBJECTID":330880},"geometry":{"x":180046.35000000149,"y":2559712.5200000014}},{"attributes":{"ID":330890,"DIS_CODE":0,"TOWNNAME":"善化區","LI":"胡厝里","LIN":"25鄰","STREET":" ","SECT":" ","MAREA":"烏橋","LANE":" ","ALLEY":" ","HOUSE_NO":"１９號","E_COORD97":175380.70000000001,"N_COORD97":2558876.25,"ADDRESS":"烏橋１９號","OBJECTID":330881},"geometry":{"x":175380.70000000019,"y":2558876.2500000019}},{"attributes":{"ID":330891,"DIS_CODE":0,"TOWNNAME":"善化區","LI":"田寮里","LIN":"13鄰","STREET":" ","SECT":" ","MAREA":"六分寮","LANE":" ","ALLEY":" ","HOUSE_NO":"１４０號之１","E_COORD97":178656.48000000001,"N_COORD97":2561317.77,"ADDRESS":"六分寮１４０號之１","OBJECTID":330882},"geometry":{"x":178656.48000000138,"y":2561317.7700000014}},{"attributes":{"ID":330892,"DIS_CODE":0,"TOWNNAME":"新化區","LI":"協興里","LIN":"15鄰","STREET":"大新路","SECT":" ","MAREA":" ","LANE":"１１１巷","ALLEY":" ","HOUSE_NO":"３４號","E_COORD97":177994.38,"N_COORD97":2548669.25,"ADDRESS":"大新路１１１巷３４號","OBJECTID":330883},"geometry":{"x":177994.38000000082,"y":2548669.25}},{"attributes":{"ID":330893,"DIS_CODE":0,"TOWNNAME":"善化區","LI":"田寮里","LIN":"13鄰","STREET":" ","SECT":" ","MAREA":"六分寮","LANE":" ","ALLEY":" ","HOUSE_NO":"１４０號之２","E_COORD97":178658.01999999999,"N_COORD97":2561311.77,"ADDRESS":"六分寮１４０號之２","OBJECTID":330884},"geometry":{"x":178658.01999999955,"y":2561311.7699999996}},{"attributes":{"ID":330894,"DIS_CODE":0,"TOWNNAME":"善化區","LI":"胡家里","LIN":"4鄰","STREET":" ","SECT":" ","MAREA":"胡厝寮","LANE":" ","ALLEY":" ","HOUSE_NO":"３４號","E_COORD97":175391.25,"N_COORD97":2560451.5,"ADDRESS":"胡厝寮３４號","OBJECTID":330885},"geometry":{"x":175391.25000000093,"y":2560451.5000000019}},{"attributes":{"ID":330895,"DIS_CODE":0,"TOWNNAME":"新化區","LI":"知義里","LIN":"15鄰","STREET":"中興路","SECT":" ","MAREA":" ","LANE":"４１５巷","ALLEY":" ","HOUSE_NO":"１５號","E_COORD97":180633.35999999999,"N_COORD97":2547430.25,"ADDRESS":"中興路４１５巷１５號","OBJECTID":330886},"geometry":{"x":180633.36000000034,"y":2547430.2500000019}},{"attributes":{"ID":330896,"DIS_CODE":0,"TOWNNAME":"善化區","LI":"田寮里","LIN":"4鄰","STREET":" ","SECT":" ","MAREA":"六分寮","LANE":" ","ALLEY":" ","HOUSE_NO":"５３號之２６","E_COORD97":178400.63,"N_COORD97":2561078.77,"ADDRESS":"六分寮５３號之２６","OBJECTID":330887},"geometry":{"x":178400.63000000082,"y":2561078.7699999977}},{"attributes":{"ID":330897,"DIS_CODE":0,"TOWNNAME":"善化區","LI":"光文里","LIN":" ","STREET":" ","SECT":" ","MAREA":"北子店","LANE":" ","ALLEY":" ","HOUSE_NO":"９６號","E_COORD97":179610.28,"N_COORD97":2559655.5,"ADDRESS":"北子店９６號","OBJECTID":330888},"geometry":{"x":179610.28000000119,"y":2559655.5000000019}},{"attributes":{"ID":330898,"DIS_CODE":0,"TOWNNAME":"善化區","LI":"光文里","LIN":"4鄰","STREET":" ","SECT":" ","MAREA":"北子店","LANE":"１６０巷","ALLEY":" ","HOUSE_NO":"１３號","E_COORD97":179449.31,"N_COORD97":2559577.75,"ADDRESS":"北子店１６０巷１３號","OBJECTID":330889},"geometry":{"x":179449.30999999959,"y":2559577.7500000037}},{"attributes":{"ID":330899,"DIS_CODE":0,"TOWNNAME":"善化區","LI":"牛庄里","LIN":"4鄰","STREET":" ","SECT":" ","MAREA":"牛庄","LANE":" ","ALLEY":" ","HOUSE_NO":"４２號","E_COORD97":180270.67999999999,"N_COORD97":2559970.5,"ADDRESS":"牛庄４２號","OBJECTID":330890},"geometry":{"x":180270.6799999997,"y":2559970.5000000019}},{"attributes":{"ID":330900,"DIS_CODE":0,"TOWNNAME":"善化區","LI":"光文里","LIN":"4鄰","STREET":" ","SECT":" ","MAREA":"北子店","LANE":"１６０巷","ALLEY":" ","HOUSE_NO":"１２號","E_COORD97":179428.34,"N_COORD97":2559594.75,"ADDRESS":"北子店１６０巷１２號","OBJECTID":330891},"geometry":{"x":179428.34000000078,"y":2559594.7500000037}},{"attributes":{"ID":330901,"DIS_CODE":0,"TOWNNAME":"善化區","LI":"光文里","LIN":"4鄰","STREET":" ","SECT":" ","MAREA":"北子店","LANE":"１６０巷","ALLEY":" ","HOUSE_NO":"２８號","E_COORD97":179444.79999999999,"N_COORD97":2559555.75,"ADDRESS":"北子店１６０巷２８號","OBJECTID":330892},"geometry":{"x":179444.79999999981,"y":2559555.75}},{"attributes":{"ID":330902,"DIS_CODE":0,"TOWNNAME":"善化區","LI":"牛庄里","LIN":" ","STREET":" ","SECT":" ","MAREA":"牛庄","LANE":" ","ALLEY":" ","HOUSE_NO":"３９之３號","E_COORD97":180275.51000000001,"N_COORD97":2560016.27,"ADDRESS":"牛庄３９之３號","OBJECTID":330893},"geometry":{"x":180275.50999999978,"y":2560016.2699999996}},{"attributes":{"ID":330903,"DIS_CODE":0,"TOWNNAME":"新化區","LI":"協興里","LIN":"15鄰","STREET":"大新路","SECT":" ","MAREA":" ","LANE":"１１１巷","ALLEY":" ","HOUSE_NO":"２０號","E_COORD97":177959.38,"N_COORD97":2548677.25,"ADDRESS":"大新路１１１巷２０號","OBJECTID":330894},"geometry":{"x":177959.37999999989,"y":2548677.25}},{"attributes":{"ID":330904,"DIS_CODE":0,"TOWNNAME":"善化區","LI":"東昌里","LIN":"4鄰","STREET":" ","SECT":" ","MAREA":"東勢寮","LANE":" ","ALLEY":" ","HOUSE_NO":"４１之２號","E_COORD97":180725.64000000001,"N_COORD97":2561886.52,"ADDRESS":"東勢寮４１之２號","OBJECTID":330895},"geometry":{"x":180725.63999999966,"y":2561886.5199999996}},{"attributes":{"ID":330905,"DIS_CODE":0,"TOWNNAME":"善化區","LI":"牛庄里","LIN":"8鄰","STREET":" ","SECT":" ","MAREA":"牛庄","LANE":" ","ALLEY":" ","HOUSE_NO":"９６號","E_COORD97":180034.32999999999,"N_COORD97":2560159.75,"ADDRESS":"牛庄９６號","OBJECTID":330896},"geometry":{"x":180034.33000000007,"y":2560159.75}},{"attributes":{"ID":330906,"DIS_CODE":0,"TOWNNAME":"新化區","LI":"協興里","LIN":"15鄰","STREET":"大新路","SECT":" ","MAREA":" ","LANE":"１３１巷","ALLEY":" ","HOUSE_NO":"１５號","E_COORD97":177986.07999999999,"N_COORD97":2548741.25,"ADDRESS":"大新路１３１巷１５號","OBJECTID":330897},"geometry":{"x":177986.08000000101,"y":2548741.25}},{"attributes":{"ID":330907,"DIS_CODE":0,"TOWNNAME":"善化區","LI":"牛庄里","LIN":"4鄰","STREET":" ","SECT":" ","MAREA":"牛庄","LANE":" ","ALLEY":" ","HOUSE_NO":"５９號","E_COORD97":180206.16,"N_COORD97":2559967.25,"ADDRESS":"牛庄５９號","OBJECTID":330898},"geometry":{"x":180206.16000000108,"y":2559967.2499999981}},{"attributes":{"ID":330908,"DIS_CODE":0,"TOWNNAME":"善化區","LI":"坐駕里","LIN":"20鄰","STREET":" ","SECT":" ","MAREA":"坐駕","LANE":" ","ALLEY":" ","HOUSE_NO":"８１號","E_COORD97":178263.70000000001,"N_COORD97":2558352.25,"ADDRESS":"坐駕８１號","OBJECTID":330899},"geometry":{"x":178263.70000000112,"y":2558352.25}},{"attributes":{"ID":330909,"DIS_CODE":0,"TOWNNAME":"新化區","LI":"太平里","LIN":"15鄰","STREET":"中正路","SECT":" ","MAREA":" ","LANE":"５８５巷","ALLEY":" ","HOUSE_NO":"７號","E_COORD97":178903.51000000001,"N_COORD97":2548741.25,"ADDRESS":"中正路５８５巷７號","OBJECTID":330900},"geometry":{"x":178903.51000000071,"y":2548741.25}},{"attributes":{"ID":330910,"DIS_CODE":0,"TOWNNAME":"新化區","LI":"知義里","LIN":"15鄰","STREET":"中興路","SECT":" ","MAREA":" ","LANE":"４１５巷","ALLEY":" ","HOUSE_NO":"１４號","E_COORD97":180620.16,"N_COORD97":2547448.25,"ADDRESS":"中興路４１５巷１４號","OBJECTID":330901},"geometry":{"x":180620.16000000108,"y":2547448.2500000019}},{"attributes":{"ID":330911,"DIS_CODE":0,"TOWNNAME":"新化區","LI":"東榮里","LIN":"15鄰","STREET":"信義路","SECT":" ","MAREA":" ","LANE":"１３１巷","ALLEY":" ","HOUSE_NO":"６９號","E_COORD97":179680.17999999999,"N_COORD97":2548198.25,"ADDRESS":"信義路１３１巷６９號","OBJECTID":330902},"geometry":{"x":179680.18000000063,"y":2548198.25}},{"attributes":{"ID":330912,"DIS_CODE":0,"TOWNNAME":"善化區","LI":"田寮里","LIN":"13鄰","STREET":" ","SECT":" ","MAREA":"六分寮","LANE":" ","ALLEY":" ","HOUSE_NO":"１３９號","E_COORD97":178670.63,"N_COORD97":2561329.5,"ADDRESS":"六分寮１３９號","OBJECTID":330903},"geometry":{"x":178670.63000000082,"y":2561329.5000000019}},{"attributes":{"ID":330913,"DIS_CODE":0,"TOWNNAME":"善化區","LI":"坐駕里","LIN":"20鄰","STREET":" ","SECT":" ","MAREA":"坐駕","LANE":" ","ALLEY":" ","HOUSE_NO":"８６號","E_COORD97":178253.88,"N_COORD97":2558334.75,"ADDRESS":"坐駕８６號","OBJECTID":330904},"geometry":{"x":178253.87999999989,"y":2558334.7500000019}},{"attributes":{"ID":330914,"DIS_CODE":0,"TOWNNAME":"新化區","LI":"東榮里","LIN":"15鄰","STREET":"中興路","SECT":" ","MAREA":" ","LANE":"６５２巷","ALLEY":" ","HOUSE_NO":"２６號","E_COORD97":179765.76000000001,"N_COORD97":2548172.25,"ADDRESS":"中興路６５２巷２６號","OBJECTID":330905},"geometry":{"x":179765.76000000164,"y":2548172.2500000037}},{"attributes":{"ID":330915,"DIS_CODE":0,"TOWNNAME":"善化區","LI":"嘉北里","LIN":"4鄰","STREET":" ","SECT":" ","MAREA":"茄拔","LANE":" ","ALLEY":" ","HOUSE_NO":"３８號之１９","E_COORD97":181144.79999999999,"N_COORD97":2559669.27,"ADDRESS":"茄拔３８號之１９","OBJECTID":330906},"geometry":{"x":181144.79999999981,"y":2559669.2700000014}},{"attributes":{"ID":330916,"DIS_CODE":0,"TOWNNAME":"新化區","LI":"知義里","LIN":"15鄰","STREET":"中興路","SECT":" ","MAREA":" ","LANE":"４１５巷","ALLEY":" ","HOUSE_NO":"８號","E_COORD97":180617.51000000001,"N_COORD97":2547467.25,"ADDRESS":"中興路４１５巷８號","OBJECTID":330907},"geometry":{"x":180617.51000000071,"y":2547467.2500000037}},{"attributes":{"ID":330917,"DIS_CODE":0,"TOWNNAME":"新化區","LI":"東榮里","LIN":"15鄰","STREET":"中興路","SECT":" ","MAREA":" ","LANE":"６５２巷","ALLEY":" ","HOUSE_NO":"２號","E_COORD97":179690.41,"N_COORD97":2548093.25,"ADDRESS":"中興路６５２巷２號","OBJECTID":330908},"geometry":{"x":179690.40999999922,"y":2548093.25}},{"attributes":{"ID":330918,"DIS_CODE":0,"TOWNNAME":"善化區","LI":"坐駕里","LIN":"20鄰","STREET":" ","SECT":" ","MAREA":"坐駕","LANE":" ","ALLEY":" ","HOUSE_NO":"１１７號","E_COORD97":178238.88,"N_COORD97":2558318.75,"ADDRESS":"坐駕１１７號","OBJECTID":330909},"geometry":{"x":178238.87999999989,"y":2558318.75}},{"attributes":{"ID":330919,"DIS_CODE":0,"TOWNNAME":"善化區","LI":"田寮里","LIN":"4鄰","STREET":" ","SECT":" ","MAREA":"六分寮","LANE":" ","ALLEY":" ","HOUSE_NO":"４８號","E_COORD97":178421.60000000001,"N_COORD97":2561268.2400000002,"ADDRESS":"六分寮４８號","OBJECTID":330910},"geometry":{"x":178421.59999999963,"y":2561268.2400000002}},{"attributes":{"ID":330920,"DIS_CODE":0,"TOWNNAME":"善化區","LI":"坐駕里","LIN":" ","STREET":" ","SECT":" ","MAREA":"坐駕","LANE":" ","ALLEY":" ","HOUSE_NO":"２２之１２號","E_COORD97":178107.5,"N_COORD97":2558440.77,"ADDRESS":"坐駕２２之１２號","OBJECTID":330911},"geometry":{"x":178107.5,"y":2558440.7699999996}},{"attributes":{"ID":330921,"DIS_CODE":0,"TOWNNAME":"新化區","LI":"東榮里","LIN":"15鄰","STREET":"中興路","SECT":" ","MAREA":" ","LANE":"６５２巷","ALLEY":" ","HOUSE_NO":"２４號之１","E_COORD97":179695.79000000001,"N_COORD97":2548147.2599999998,"ADDRESS":"中興路６５２巷２４號之１","OBJECTID":330912},"geometry":{"x":179695.79000000004,"y":2548147.2599999998}},{"attributes":{"ID":330922,"DIS_CODE":0,"TOWNNAME":"新化區","LI":"東榮里","LIN":"15鄰","STREET":"中興路","SECT":" ","MAREA":" ","LANE":"６５２巷","ALLEY":" ","HOUSE_NO":"１３號","E_COORD97":179678.16,"N_COORD97":2548141.25,"ADDRESS":"中興路６５２巷１３號","OBJECTID":330913},"geometry":{"x":179678.16000000015,"y":2548141.25}},{"attributes":{"ID":330923,"DIS_CODE":0,"TOWNNAME":"善化區","LI":"光文里","LIN":"4鄰","STREET":" ","SECT":" ","MAREA":"北子店","LANE":"１６０巷","ALLEY":" ","HOUSE_NO":"４號","E_COORD97":179420.35000000001,"N_COORD97":2559615.75,"ADDRESS":"北子店１６０巷４號","OBJECTID":330914},"geometry":{"x":179420.34999999963,"y":2559615.7500000019}},{"attributes":{"ID":330924,"DIS_CODE":0,"TOWNNAME":"善化區","LI":"光文里","LIN":" ","STREET":" ","SECT":" ","MAREA":"北子店","LANE":"２２８巷","ALLEY":" ","HOUSE_NO":"１０之１號","E_COORD97":179211.20000000001,"N_COORD97":2559569.77,"ADDRESS":"北子店２２８巷１０之１號","OBJECTID":330915},"geometry":{"x":179211.20000000112,"y":2559569.7699999996}},{"attributes":{"ID":330925,"DIS_CODE":0,"TOWNNAME":"善化區","LI":"光文里","LIN":"26鄰","STREET":"中山路","SECT":" ","MAREA":" ","LANE":"２４０巷","ALLEY":" ","HOUSE_NO":"１號之２４","E_COORD97":178094.60999999999,"N_COORD97":2559230.77,"ADDRESS":"中山路２４０巷１號之２４","OBJECTID":330916},"geometry":{"x":178094.61000000127,"y":2559230.7699999996}},{"attributes":{"ID":330926,"DIS_CODE":0,"TOWNNAME":"善化區","LI":"牛庄里","LIN":"4鄰","STREET":" ","SECT":" ","MAREA":"牛庄","LANE":" ","ALLEY":" ","HOUSE_NO":"４１號","E_COORD97":180251.17999999999,"N_COORD97":2559981.75,"ADDRESS":"牛庄４１號","OBJECTID":330917},"geometry":{"x":180251.18000000063,"y":2559981.7500000019}},{"attributes":{"ID":330927,"DIS_CODE":0,"TOWNNAME":"善化區","LI":"坐駕里","LIN":"17鄰","STREET":"文化路","SECT":" ","MAREA":" ","LANE":"８２巷","ALLEY":" ","HOUSE_NO":"２號","E_COORD97":177929.56,"N_COORD97":2558423.5299999998,"ADDRESS":"文化路８２巷２號","OBJECTID":330918},"geometry":{"x":177929.56000000052,"y":2558423.5300000012}},{"attributes":{"ID":330928,"DIS_CODE":0,"TOWNNAME":"新化區","LI":"協興里","LIN":"15鄰","STREET":"大新路","SECT":" ","MAREA":" ","LANE":"１１１巷","ALLEY":" ","HOUSE_NO":"３６號","E_COORD97":177996.07999999999,"N_COORD97":2548664.25,"ADDRESS":"大新路１１１巷３６號","OBJECTID":330919},"geometry":{"x":177996.08000000101,"y":2548664.2500000037}},{"attributes":{"ID":330929,"DIS_CODE":0,"TOWNNAME":"新化區","LI":"東榮里","LIN":"15鄰","STREET":"中興路","SECT":" ","MAREA":" ","LANE":"６５２巷","ALLEY":" ","HOUSE_NO":"２４號之６","E_COORD97":179696.31,"N_COORD97":2548169.2599999998,"ADDRESS":"中興路６５２巷２４號之６","OBJECTID":330920},"geometry":{"x":179696.31000000052,"y":2548169.2600000016}},{"attributes":{"ID":330930,"DIS_CODE":0,"TOWNNAME":"善化區","LI":"坐駕里","LIN":"20鄰","STREET":" ","SECT":" ","MAREA":"坐駕","LANE":" ","ALLEY":" ","HOUSE_NO":"９３號","E_COORD97":178302.31,"N_COORD97":2558353.75,"ADDRESS":"坐駕９３號","OBJECTID":330921},"geometry":{"x":178302.31000000145,"y":2558353.7500000037}},{"attributes":{"ID":330931,"DIS_CODE":0,"TOWNNAME":"善化區","LI":"牛庄里","LIN":"14鄰","STREET":" ","SECT":" ","MAREA":"牛庄","LANE":" ","ALLEY":" ","HOUSE_NO":"１４５號之１５","E_COORD97":179890.97743299999,"N_COORD97":2559699.4819899998,"ADDRESS":"牛庄１４５號之１５","OBJECTID":330922},"geometry":{"x":179890.97743300069,"y":2559699.4819870014}},{"attributes":{"ID":330932,"DIS_CODE":0,"TOWNNAME":"新化區","LI":"協興里","LIN":"15鄰","STREET":"大新路","SECT":" ","MAREA":" ","LANE":"１１１巷","ALLEY":" ","HOUSE_NO":"６號","E_COORD97":177986.32999999999,"N_COORD97":2548702.25,"ADDRESS":"大新路１１１巷６號","OBJECTID":330923},"geometry":{"x":177986.33000000101,"y":2548702.2500000019}},{"attributes":{"ID":330933,"DIS_CODE":0,"TOWNNAME":"新化區","LI":"東榮里","LIN":"15鄰","STREET":"中興路","SECT":" ","MAREA":" ","LANE":"７２０巷","ALLEY":" ","HOUSE_NO":"２６號","E_COORD97":179640.35999999999,"N_COORD97":2548163.25,"ADDRESS":"中興路７２０巷２６號","OBJECTID":330924},"geometry":{"x":179640.36000000127,"y":2548163.2500000019}},{"attributes":{"ID":330934,"DIS_CODE":0,"TOWNNAME":"善化區","LI":"田寮里","LIN":"4鄰","STREET":" ","SECT":" ","MAREA":"六分寮","LANE":" ","ALLEY":" ","HOUSE_NO":"５４號之７","E_COORD97":178437.95000000001,"N_COORD97":2561081.77,"ADDRESS":"六分寮５４號之７","OBJECTID":330925},"geometry":{"x":178437.95000000112,"y":2561081.7699999996}},{"attributes":{"ID":330935,"DIS_CODE":0,"TOWNNAME":"善化區","LI":"坐駕里","LIN":"20鄰","STREET":" ","SECT":" ","MAREA":"坐駕","LANE":" ","ALLEY":" ","HOUSE_NO":"６１號","E_COORD97":178291.25,"N_COORD97":2558374.5,"ADDRESS":"坐駕６１號","OBJECTID":330926},"geometry":{"x":178291.25000000186,"y":2558374.5}},{"attributes":{"ID":330936,"DIS_CODE":0,"TOWNNAME":"善化區","LI":"牛庄里","LIN":"14鄰","STREET":" ","SECT":" ","MAREA":"牛庄","LANE":" ","ALLEY":" ","HOUSE_NO":"１４６號之８","E_COORD97":180042.14999999999,"N_COORD97":2559712.52,"ADDRESS":"牛庄１４６號之８","OBJECTID":330927},"geometry":{"x":180042.1500000013,"y":2559712.5200000014}},{"attributes":{"ID":330937,"DIS_CODE":0,"TOWNNAME":"新化區","LI":"東榮里","LIN":"15鄰","STREET":"中興路","SECT":" ","MAREA":" ","LANE":"６５２巷","ALLEY":" ","HOUSE_NO":"１４號","E_COORD97":179693.16,"N_COORD97":2548120.25,"ADDRESS":"中興路６５２巷１４號","OBJECTID":330928},"geometry":{"x":179693.16000000015,"y":2548120.25}},{"attributes":{"ID":330938,"DIS_CODE":0,"TOWNNAME":"善化區","LI":"胡家里","LIN":"4鄰","STREET":" ","SECT":" ","MAREA":"胡厝寮","LANE":" ","ALLEY":" ","HOUSE_NO":"３９號之１","E_COORD97":175485.48000000001,"N_COORD97":2560487.52,"ADDRESS":"胡厝寮３９號之１","OBJECTID":330929},"geometry":{"x":175485.48000000045,"y":2560487.5200000033}},{"attributes":{"ID":330939,"DIS_CODE":0,"TOWNNAME":"新化區","LI":"東榮里","LIN":"15鄰","STREET":"中興路","SECT":" ","MAREA":" ","LANE":"７２０巷","ALLEY":" ","HOUSE_NO":"２號","E_COORD97":179639.91,"N_COORD97":2548151.25,"ADDRESS":"中興路７２０巷２號","OBJECTID":330930},"geometry":{"x":179639.91000000108,"y":2548151.25}},{"attributes":{"ID":330940,"DIS_CODE":0,"TOWNNAME":"善化區","LI":"胡家里","LIN":"4鄰","STREET":" ","SECT":" ","MAREA":"胡厝寮","LANE":" ","ALLEY":" ","HOUSE_NO":"３９號","E_COORD97":175459.85999999999,"N_COORD97":2560485.25,"ADDRESS":"胡厝寮３９號","OBJECTID":330931},"geometry":{"x":175459.8600000022,"y":2560485.25}},{"attributes":{"ID":330941,"DIS_CODE":0,"TOWNNAME":"善化區","LI":"胡家里","LIN":"3鄰","STREET":" ","SECT":" ","MAREA":"胡厝寮","LANE":" ","ALLEY":" ","HOUSE_NO":"２９號","E_COORD97":175508.82999999999,"N_COORD97":2560477,"ADDRESS":"胡厝寮２９號","OBJECTID":330932},"geometry":{"x":175508.82999999914,"y":2560477}},{"attributes":{"ID":330942,"DIS_CODE":0,"TOWNNAME":"南區","LI":"建南里","LIN":"17鄰","STREET":"明興路","SECT":" ","MAREA":" ","LANE":" ","ALLEY":" ","HOUSE_NO":"４３號","E_COORD97":166788.45000000001,"N_COORD97":2540095.8399999999,"ADDRESS":"明興路４３號","OBJECTID":330933},"geometry":{"x":166788.45000000112,"y":2540095.8400000036}},{"attributes":{"ID":330943,"DIS_CODE":0,"TOWNNAME":"東區","LI":"大學里","LIN":"17鄰","STREET":"東寧路","SECT":" ","MAREA":" ","LANE":" ","ALLEY":" ","HOUSE_NO":"１０３號","E_COORD97":170381.12,"N_COORD97":2543569.52,"ADDRESS":"東寧路１０３號","OBJECTID":330934},"geometry":{"x":170381.12000000104,"y":2543569.5200000033}},{"attributes":{"ID":330944,"DIS_CODE":0,"TOWNNAME":"善化區","LI":"光文里","LIN":"4鄰","STREET":" ","SECT":" ","MAREA":"北子店","LANE":"１６０巷","ALLEY":" ","HOUSE_NO":"２１號","E_COORD97":179456.82000000001,"N_COORD97":2559562.75,"ADDRESS":"北子店１６０巷２１號","OBJECTID":330935},"geometry":{"x":179456.8200000003,"y":2559562.75}},{"attributes":{"ID":330945,"DIS_CODE":0,"TOWNNAME":"善化區","LI":"光文里","LIN":"4鄰","STREET":" ","SECT":" ","MAREA":"北子店","LANE":"１６０巷","ALLEY":" ","HOUSE_NO":"２７號","E_COORD97":179462.41,"N_COORD97":2559551.5,"ADDRESS":"北子店１６０巷２７號","OBJECTID":330936},"geometry":{"x":179462.41000000108,"y":2559551.5}},{"attributes":{"ID":330946,"DIS_CODE":0,"TOWNNAME":"善化區","LI":"光文里","LIN":"4鄰","STREET":" ","SECT":" ","MAREA":"北子店","LANE":"１６０巷","ALLEY":" ","HOUSE_NO":"３４號","E_COORD97":179449.89000000001,"N_COORD97":2559545.25,"ADDRESS":"北子店１６０巷３４號","OBJECTID":330937},"geometry":{"x":179449.8900000006,"y":2559545.2500000019}},{"attributes":{"ID":330947,"DIS_CODE":0,"TOWNNAME":"善化區","LI":"胡家里","LIN":"3鄰","STREET":" ","SECT":" ","MAREA":"胡厝寮","LANE":" ","ALLEY":" ","HOUSE_NO":"２８號之２","E_COORD97":175508,"N_COORD97":2560502.02,"ADDRESS":"胡厝寮２８號之２","OBJECTID":330938},"geometry":{"x":175508.00000000093,"y":2560502.0200000014}},{"attributes":{"ID":330948,"DIS_CODE":0,"TOWNNAME":"中西區","LI":"三民里","LIN":"22鄰","STREET":"忠義路","SECT":"二段","MAREA":" ","LANE":"１５８巷","ALLEY":" ","HOUSE_NO":"１３號之１","E_COORD97":168464.39000000001,"N_COORD97":2544033.5499999998,"ADDRESS":"忠義路二段１５８巷１３號之１","OBJECTID":330939},"geometry":{"x":168464.38999999966,"y":2544033.5500000007}},{"attributes":{"ID":330949,"DIS_CODE":0,"TOWNNAME":"中西區","LI":"三民里","LIN":"22鄰","STREET":"忠義路","SECT":"二段","MAREA":" ","LANE":"１５８巷","ALLEY":" ","HOUSE_NO":"１５號","E_COORD97":168467.70999999999,"N_COORD97":2544031.6600000001,"ADDRESS":"忠義路二段１５８巷１５號","OBJECTID":330940},"geometry":{"x":168467.70999999903,"y":2544031.660000002}},{"attributes":{"ID":330950,"DIS_CODE":0,"TOWNNAME":"中西區","LI":"三民里","LIN":"22鄰","STREET":"忠義路","SECT":"二段","MAREA":" ","LANE":"１５８巷","ALLEY":" ","HOUSE_NO":"１７號","E_COORD97":168471.97,"N_COORD97":2544030.71,"ADDRESS":"忠義路二段１５８巷１７號","OBJECTID":330941},"geometry":{"x":168471.96999999974,"y":2544030.7100000046}},{"attributes":{"ID":330951,"DIS_CODE":0,"TOWNNAME":"中西區","LI":"三民里","LIN":"22鄰","STREET":"忠義路","SECT":"二段","MAREA":" ","LANE":"１５８巷","ALLEY":" ","HOUSE_NO":"１９號","E_COORD97":168474.34,"N_COORD97":2544028.3500000001,"ADDRESS":"忠義路二段１５８巷１９號","OBJECTID":330942},"geometry":{"x":168474.34000000078,"y":2544028.3500000034}},{"attributes":{"ID":330952,"DIS_CODE":0,"TOWNNAME":"中西區","LI":"三民里","LIN":"19鄰","STREET":"忠義路","SECT":"二段","MAREA":" ","LANE":"１５８巷","ALLEY":" ","HOUSE_NO":"３２號","E_COORD97":168463.44,"N_COORD97":2544022.4300000002,"ADDRESS":"忠義路二段１５８巷３２號","OBJECTID":330943},"geometry":{"x":168463.44000000227,"y":2544022.4300000016}},{"attributes":{"ID":330953,"DIS_CODE":0,"TOWNNAME":"東區","LI":"大學里","LIN":"17鄰","STREET":"東寧路","SECT":" ","MAREA":" ","LANE":" ","ALLEY":" ","HOUSE_NO":"１０５號","E_COORD97":170390.81,"N_COORD97":2543566.3700000001,"ADDRESS":"東寧路１０５號","OBJECTID":330944},"geometry":{"x":170390.81000000145,"y":2543566.3700000029}},{"attributes":{"ID":330954,"DIS_CODE":0,"TOWNNAME":"東區","LI":"大學里","LIN":"17鄰","STREET":"東寧路","SECT":" ","MAREA":" ","LANE":" ","ALLEY":" ","HOUSE_NO":"７１號","E_COORD97":170264.79999999999,"N_COORD97":2543620.48,"ADDRESS":"東寧路７１號","OBJECTID":330945},"geometry":{"x":170264.79999999981,"y":2543620.4800000004}},{"attributes":{"ID":330955,"DIS_CODE":0,"TOWNNAME":"東區","LI":"大學里","LIN":"17鄰","STREET":"東寧路","SECT":" ","MAREA":" ","LANE":" ","ALLEY":" ","HOUSE_NO":"７９號","E_COORD97":170290.85000000001,"N_COORD97":2543619.3199999998,"ADDRESS":"東寧路７９號","OBJECTID":330946},"geometry":{"x":170290.85000000056,"y":2543619.3200000022}},{"attributes":{"ID":330956,"DIS_CODE":0,"TOWNNAME":"東區","LI":"大學里","LIN":"17鄰","STREET":"東寧路","SECT":" ","MAREA":" ","LANE":" ","ALLEY":" ","HOUSE_NO":"９１號","E_COORD97":170327.64999999999,"N_COORD97":2543607.3900000001,"ADDRESS":"東寧路９１號","OBJECTID":330947},"geometry":{"x":170327.65000000037,"y":2543607.3900000006}},{"attributes":{"ID":330957,"DIS_CODE":0,"TOWNNAME":"東區","LI":"大學里","LIN":"17鄰","STREET":"東寧路","SECT":" ","MAREA":" ","LANE":" ","ALLEY":" ","HOUSE_NO":"１０１號","E_COORD97":170369.5,"N_COORD97":2543574.1800000002,"ADDRESS":"東寧路１０１號","OBJECTID":330948},"geometry":{"x":170369.49999999907,"y":2543574.1799999997}},{"attributes":{"ID":330958,"DIS_CODE":0,"TOWNNAME":"東區","LI":"大福里","LIN":"17鄰","STREET":"立德七路","SECT":" ","MAREA":" ","LANE":" ","ALLEY":" ","HOUSE_NO":"１０號","E_COORD97":169513.35999999999,"N_COORD97":2541887.1000000001,"ADDRESS":"立德七路１０號","OBJECTID":330949},"geometry":{"x":169513.36000000127,"y":2541887.0999999978}},{"attributes":{"ID":330959,"DIS_CODE":0,"TOWNNAME":"東區","LI":"大福里","LIN":"17鄰","STREET":"立德七路","SECT":" ","MAREA":" ","LANE":" ","ALLEY":" ","HOUSE_NO":"１２號","E_COORD97":169517.17000000001,"N_COORD97":2541887.48,"ADDRESS":"立德七路１２號","OBJECTID":330950},"geometry":{"x":169517.16999999993,"y":2541887.4800000004}},{"attributes":{"ID":330960,"DIS_CODE":0,"TOWNNAME":"中西區","LI":"永福里","LIN":"19鄰","STREET":"民族路","SECT":"二段","MAREA":" ","LANE":"３１７巷","ALLEY":" ","HOUSE_NO":"４６號","E_COORD97":168269.98999999999,"N_COORD97":2544069.04,"ADDRESS":"民族路二段３１７巷４６號","OBJECTID":330951},"geometry":{"x":168269.99000000115,"y":2544069.0399999991}},{"attributes":{"ID":330961,"DIS_CODE":0,"TOWNNAME":"中西區","LI":"永福里","LIN":"19鄰","STREET":"忠義路","SECT":"二段","MAREA":" ","LANE":"１４７巷","ALLEY":" ","HOUSE_NO":"１１號","E_COORD97":168314.42000000001,"N_COORD97":2544061.5899999999,"ADDRESS":"忠義路二段１４７巷１１號","OBJECTID":330952},"geometry":{"x":168314.42000000086,"y":2544061.5900000017}},{"attributes":{"ID":330962,"DIS_CODE":0,"TOWNNAME":"中西區","LI":"永福里","LIN":"19鄰","STREET":"忠義路","SECT":"二段","MAREA":" ","LANE":"１４７巷","ALLEY":" ","HOUSE_NO":"１３號","E_COORD97":168315.79999999999,"N_COORD97":2544049.4500000002,"ADDRESS":"忠義路二段１４７巷１３號","OBJECTID":330953},"geometry":{"x":168315.79999999981,"y":2544049.4499999993}},{"attributes":{"ID":330963,"DIS_CODE":0,"TOWNNAME":"新化區","LI":"協興里","LIN":"15鄰","STREET":"大新路","SECT":" ","MAREA":" ","LANE":"１１１巷","ALLEY":" ","HOUSE_NO":"２２號","E_COORD97":177963.98000000001,"N_COORD97":2548679.25,"ADDRESS":"大新路１１１巷２２號","OBJECTID":330954},"geometry":{"x":177963.98000000045,"y":2548679.25}},{"attributes":{"ID":330964,"DIS_CODE":0,"TOWNNAME":"新化區","LI":"協興里","LIN":"15鄰","STREET":"大新路","SECT":" ","MAREA":" ","LANE":"１１１巷","ALLEY":" ","HOUSE_NO":"９號","E_COORD97":177997.53,"N_COORD97":2548699.25,"ADDRESS":"大新路１１１巷９號","OBJECTID":330955},"geometry":{"x":177997.53000000026,"y":2548699.2500000019}},{"attributes":{"ID":330965,"DIS_CODE":0,"TOWNNAME":"新化區","LI":"協興里","LIN":"15鄰","STREET":"大新路","SECT":" ","MAREA":" ","LANE":"１１１巷","ALLEY":" ","HOUSE_NO":"１１號","E_COORD97":177999.67999999999,"N_COORD97":2548693.25,"ADDRESS":"大新路１１１巷１１號","OBJECTID":330956},"geometry":{"x":177999.67999999877,"y":2548693.25}},{"attributes":{"ID":330966,"DIS_CODE":0,"TOWNNAME":"新化區","LI":"協興里","LIN":"15鄰","STREET":"大新路","SECT":" ","MAREA":" ","LANE":"１１１巷","ALLEY":" ","HOUSE_NO":"４號","E_COORD97":177985.03,"N_COORD97":2548706.25,"ADDRESS":"大新路１１１巷４號","OBJECTID":330957},"geometry":{"x":177985.03000000119,"y":2548706.2500000019}},{"attributes":{"ID":330967,"DIS_CODE":0,"TOWNNAME":"東區","LI":"大福里","LIN":"17鄰","STREET":"立德七路","SECT":" ","MAREA":" ","LANE":" ","ALLEY":" ","HOUSE_NO":"１４號","E_COORD97":169525.56,"N_COORD97":2541889,"ADDRESS":"立德七路１４號","OBJECTID":330958},"geometry":{"x":169525.55999999959,"y":2541889.0000000019}},{"attributes":{"ID":330968,"DIS_CODE":0,"TOWNNAME":"東區","LI":"大福里","LIN":"17鄰","STREET":"立德七路","SECT":" ","MAREA":" ","LANE":" ","ALLEY":" ","HOUSE_NO":"１６號","E_COORD97":169530.14000000001,"N_COORD97":2541889.3799999999,"ADDRESS":"立德七路１６號","OBJECTID":330959},"geometry":{"x":169530.13999999966,"y":2541889.3800000008}},{"attributes":{"ID":330969,"DIS_CODE":0,"TOWNNAME":"東區","LI":"大福里","LIN":"17鄰","STREET":"立德七路","SECT":" ","MAREA":" ","LANE":" ","ALLEY":" ","HOUSE_NO":"１８號","E_COORD97":169532.81,"N_COORD97":2541890.1400000001,"ADDRESS":"立德七路１８號","OBJECTID":330960},"geometry":{"x":169532.80999999959,"y":2541890.1400000006}},{"attributes":{"ID":330970,"DIS_CODE":0,"TOWNNAME":"東區","LI":"大福里","LIN":"17鄰","STREET":"立德七路","SECT":" ","MAREA":" ","LANE":" ","ALLEY":" ","HOUSE_NO":"２號","E_COORD97":169491.98999999999,"N_COORD97":2541883.29,"ADDRESS":"立德七路２號","OBJECTID":330961},"geometry":{"x":169491.99000000115,"y":2541883.290000001}},{"attributes":{"ID":330971,"DIS_CODE":0,"TOWNNAME":"永康區","LI":"網寮里","LIN":"24鄰","STREET":"永春街","SECT":" ","MAREA":" ","LANE":"３８巷","ALLEY":" ","HOUSE_NO":"３號","E_COORD97":173747.12,"N_COORD97":2546440.1099999999,"ADDRESS":"永春街３８巷３號","OBJECTID":330962},"geometry":{"x":173747.12000000011,"y":2546440.1100000031}},{"attributes":{"ID":330972,"DIS_CODE":0,"TOWNNAME":"中西區","LI":"永福里","LIN":"19鄰","STREET":"忠義路","SECT":"二段","MAREA":" ","LANE":"１４７巷","ALLEY":" ","HOUSE_NO":"２４號","E_COORD97":168313.88,"N_COORD97":2544065.2999999998,"ADDRESS":"忠義路二段１４７巷２４號","OBJECTID":330963},"geometry":{"x":168313.87999999896,"y":2544065.3000000026}},{"attributes":{"ID":330973,"DIS_CODE":0,"TOWNNAME":"中西區","LI":"永福里","LIN":"19鄰","STREET":"忠義路","SECT":"二段","MAREA":" ","LANE":"１４７巷","ALLEY":" ","HOUSE_NO":"２６號","E_COORD97":168309.64000000001,"N_COORD97":2544066.9199999999,"ADDRESS":"忠義路二段１４７巷２６號","OBJECTID":330964},"geometry":{"x":168309.63999999966,"y":2544066.9200000018}},{"attributes":{"ID":330974,"DIS_CODE":0,"TOWNNAME":"中西區","LI":"永福里","LIN":"19鄰","STREET":"忠義路","SECT":"二段","MAREA":" ","LANE":"１４７巷","ALLEY":" ","HOUSE_NO":"３之１號","E_COORD97":168333.60999999999,"N_COORD97":2544048.3599999999,"ADDRESS":"忠義路二段１４７巷３之１號","OBJECTID":330965},"geometry":{"x":168333.61000000127,"y":2544048.3600000031}},{"attributes":{"ID":330975,"DIS_CODE":0,"TOWNNAME":"新化區","LI":"東榮里","LIN":"15鄰","STREET":"中興路","SECT":" ","MAREA":" ","LANE":"６５２巷","ALLEY":" ","HOUSE_NO":"２４號之８","E_COORD97":179696.72,"N_COORD97":2548177.2599999998,"ADDRESS":"中興路６５２巷２４號之８","OBJECTID":330966},"geometry":{"x":179696.72000000067,"y":2548177.2599999998}},{"attributes":{"ID":330976,"DIS_CODE":0,"TOWNNAME":"新化區","LI":"東榮里","LIN":"15鄰","STREET":"中興路","SECT":" ","MAREA":" ","LANE":"６５２巷","ALLEY":" ","HOUSE_NO":"２４號之７","E_COORD97":179696.89999999999,"N_COORD97":2548173.2599999998,"ADDRESS":"中興路６５２巷２４號之７","OBJECTID":330967},"geometry":{"x":179696.90000000037,"y":2548173.2600000016}},{"attributes":{"ID":330977,"DIS_CODE":0,"TOWNNAME":"新化區","LI":"東榮里","LIN":"15鄰","STREET":"中興路","SECT":" ","MAREA":" ","LANE":"７２０巷","ALLEY":" ","HOUSE_NO":"４６號","E_COORD97":179664.76000000001,"N_COORD97":2548209.25,"ADDRESS":"中興路７２０巷４６號","OBJECTID":330968},"geometry":{"x":179664.76000000071,"y":2548209.25}},{"attributes":{"ID":330978,"DIS_CODE":0,"TOWNNAME":"新化區","LI":"東榮里","LIN":"15鄰","STREET":"中興路","SECT":" ","MAREA":" ","LANE":"６５２巷","ALLEY":" ","HOUSE_NO":"２７號","E_COORD97":179694.16,"N_COORD97":2548198.25,"ADDRESS":"中興路６５２巷２７號","OBJECTID":330969},"geometry":{"x":179694.16000000108,"y":2548198.25}},{"attributes":{"ID":330979,"DIS_CODE":0,"TOWNNAME":"新化區","LI":"協興里","LIN":"15鄰","STREET":"大新路","SECT":" ","MAREA":" ","LANE":"１３１巷","ALLEY":" ","HOUSE_NO":"３號","E_COORD97":177987.82999999999,"N_COORD97":2548773.25,"ADDRESS":"大新路１３１巷３號","OBJECTID":330970},"geometry":{"x":177987.83000000101,"y":2548773.2500000019}},{"attributes":{"ID":330980,"DIS_CODE":0,"TOWNNAME":"新化區","LI":"協興里","LIN":"15鄰","STREET":"大新路","SECT":" ","MAREA":" ","LANE":"１３１巷","ALLEY":" ","HOUSE_NO":"１７號","E_COORD97":177980.17999999999,"N_COORD97":2548738.25,"ADDRESS":"大新路１３１巷１７號","OBJECTID":330971},"geometry":{"x":177980.18000000063,"y":2548738.25}},{"attributes":{"ID":330981,"DIS_CODE":0,"TOWNNAME":"新化區","LI":"協興里","LIN":"15鄰","STREET":"大新路","SECT":" ","MAREA":" ","LANE":"１３１巷","ALLEY":" ","HOUSE_NO":"２５號","E_COORD97":177981.98000000001,"N_COORD97":2548758.25,"ADDRESS":"大新路１３１巷２５號","OBJECTID":330972},"geometry":{"x":177981.98000000138,"y":2548758.25}},{"attributes":{"ID":330982,"DIS_CODE":0,"TOWNNAME":"新化區","LI":"知義里","LIN":"15鄰","STREET":"中興路","SECT":" ","MAREA":" ","LANE":"４１５巷","ALLEY":" ","HOUSE_NO":"７號","E_COORD97":180629.51000000001,"N_COORD97":2547455.25,"ADDRESS":"中興路４１５巷７號","OBJECTID":330973},"geometry":{"x":180629.50999999978,"y":2547455.2500000019}},{"attributes":{"ID":330983,"DIS_CODE":0,"TOWNNAME":"新化區","LI":"知義里","LIN":"15鄰","STREET":"中興路","SECT":" ","MAREA":" ","LANE":"４１５巷","ALLEY":" ","HOUSE_NO":"１２號","E_COORD97":180619.26000000001,"N_COORD97":2547454.25,"ADDRESS":"中興路４１５巷１２號","OBJECTID":330974},"geometry":{"x":180619.25999999978,"y":2547454.2500000019}},{"attributes":{"ID":330984,"DIS_CODE":0,"TOWNNAME":"新化區","LI":"知義里","LIN":"15鄰","STREET":"中興路","SECT":" ","MAREA":" ","LANE":"４１５巷","ALLEY":" ","HOUSE_NO":"１８號","E_COORD97":180622.56,"N_COORD97":2547435.25,"ADDRESS":"中興路４１５巷１８號","OBJECTID":330975},"geometry":{"x":180622.55999999959,"y":2547435.25}},{"attributes":{"ID":330985,"DIS_CODE":0,"TOWNNAME":"新化區","LI":"太平里","LIN":"15鄰","STREET":"太平街","SECT":" ","MAREA":" ","LANE":"６３巷","ALLEY":" ","HOUSE_NO":"８號之１","E_COORD97":178827,"N_COORD97":2548738.2599999998,"ADDRESS":"太平街６３巷８號之１","OBJECTID":330976},"geometry":{"x":178827.00000000186,"y":2548738.2600000035}},{"attributes":{"ID":330986,"DIS_CODE":0,"TOWNNAME":"新化區","LI":"協興里","LIN":"15鄰","STREET":"大新路","SECT":" ","MAREA":" ","LANE":"１３１巷","ALLEY":" ","HOUSE_NO":"１１號","E_COORD97":178000.88,"N_COORD97":2548749.25,"ADDRESS":"大新路１３１巷１１號","OBJECTID":330977},"geometry":{"x":178000.88000000082,"y":2548749.2500000019}},{"attributes":{"ID":330987,"DIS_CODE":0,"TOWNNAME":"新化區","LI":"知義里","LIN":"15鄰","STREET":"中興路","SECT":" ","MAREA":" ","LANE":"４１５巷","ALLEY":" ","HOUSE_NO":"２１號","E_COORD97":180636.06,"N_COORD97":2547411.25,"ADDRESS":"中興路４１５巷２１號","OBJECTID":330978},"geometry":{"x":180636.05999999959,"y":2547411.25}},{"attributes":{"ID":330988,"DIS_CODE":0,"TOWNNAME":"東區","LI":"大福里","LIN":"17鄰","STREET":"立德七路","SECT":" ","MAREA":" ","LANE":" ","ALLEY":" ","HOUSE_NO":"４號","E_COORD97":169496.57000000001,"N_COORD97":2541883.29,"ADDRESS":"立德七路４號","OBJECTID":330979},"geometry":{"x":169496.57000000123,"y":2541883.290000001}},{"attributes":{"ID":330989,"DIS_CODE":0,"TOWNNAME":"東區","LI":"大福里","LIN":"17鄰","STREET":"立德七路","SECT":" ","MAREA":" ","LANE":" ","ALLEY":" ","HOUSE_NO":"６號","E_COORD97":169506.48999999999,"N_COORD97":2541884.8100000001,"ADDRESS":"立德七路６號","OBJECTID":330980},"geometry":{"x":169506.49000000022,"y":2541884.8100000024}},{"attributes":{"ID":330990,"DIS_CODE":0,"TOWNNAME":"東區","LI":"大福里","LIN":"17鄰","STREET":"立德六路","SECT":" ","MAREA":" ","LANE":" ","ALLEY":" ","HOUSE_NO":"１１號","E_COORD97":169527.85000000001,"N_COORD97":2541874.52,"ADDRESS":"立德六路１１號","OBJECTID":330981},"geometry":{"x":169527.85000000056,"y":2541874.5200000014}},{"attributes":{"ID":330991,"DIS_CODE":0,"TOWNNAME":"東區","LI":"大福里","LIN":"17鄰","STREET":"立德六路","SECT":" ","MAREA":" ","LANE":" ","ALLEY":" ","HOUSE_NO":"１３號","E_COORD97":169532.42999999999,"N_COORD97":2541874.8999999999,"ADDRESS":"立德六路１３號","OBJECTID":330982},"geometry":{"x":169532.43000000156,"y":2541874.9000000004}},{"attributes":{"ID":330992,"DIS_CODE":0,"TOWNNAME":"東區","LI":"大福里","LIN":"17鄰","STREET":"立德六路","SECT":" ","MAREA":" ","LANE":" ","ALLEY":" ","HOUSE_NO":"１５號","E_COORD97":169535.48000000001,"N_COORD97":2541876.8100000001,"ADDRESS":"立德六路１５號","OBJECTID":330983},"geometry":{"x":169535.48000000045,"y":2541876.8100000042}},{"attributes":{"ID":330993,"DIS_CODE":0,"TOWNNAME":"永康區","LI":"蔦松里","LIN":"5鄰","STREET":"蔦松一街","SECT":" ","MAREA":" ","LANE":"３０１巷","ALLEY":" ","HOUSE_NO":"１１號","E_COORD97":173103.70999999999,"N_COORD97":2549939.8599999999,"ADDRESS":"蔦松一街３０１巷１１號","OBJECTID":330984},"geometry":{"x":173103.70999999996,"y":2549939.8599999994}},{"attributes":{"ID":330994,"DIS_CODE":0,"TOWNNAME":"永康區","LI":"龍潭里","LIN":"38鄰","STREET":"中山北路","SECT":" ","MAREA":" ","LANE":"１６４巷","ALLEY":" ","HOUSE_NO":"６０之１號","E_COORD97":174362.98000000001,"N_COORD97":2547390.5800000001,"ADDRESS":"中山北路１６４巷６０之１號","OBJECTID":330985},"geometry":{"x":174362.98000000138,"y":2547390.5800000038}},{"attributes":{"ID":330995,"DIS_CODE":0,"TOWNNAME":"永康區","LI":"網寮里","LIN":"24鄰","STREET":"永春街","SECT":" ","MAREA":" ","LANE":"３８巷","ALLEY":" ","HOUSE_NO":"１１之１號","E_COORD97":173770.28,"N_COORD97":2546445.6600000001,"ADDRESS":"永春街３８巷１１之１號","OBJECTID":330986},"geometry":{"x":173770.28000000212,"y":2546445.660000002}},{"attributes":{"ID":330996,"DIS_CODE":0,"TOWNNAME":"永康區","LI":"網寮里","LIN":"24鄰","STREET":"永春街","SECT":" ","MAREA":" ","LANE":"３６巷","ALLEY":" ","HOUSE_NO":"１５號","E_COORD97":173782.09,"N_COORD97":2546405.1000000001,"ADDRESS":"永春街３６巷１５號","OBJECTID":330987},"geometry":{"x":173782.08999999985,"y":2546405.0999999996}},{"attributes":{"ID":330997,"DIS_CODE":0,"TOWNNAME":"永康區","LI":"龍潭里","LIN":"38鄰","STREET":"中山北路","SECT":" ","MAREA":" ","LANE":"１６４巷","ALLEY":" ","HOUSE_NO":"１００號","E_COORD97":174496.42999999999,"N_COORD97":2547394.9100000001,"ADDRESS":"中山北路１６４巷１００號","OBJECTID":330988},"geometry":{"x":174496.43000000063,"y":2547394.9099999983}},{"attributes":{"ID":330998,"DIS_CODE":0,"TOWNNAME":"永康區","LI":"網寮里","LIN":"24鄰","STREET":"永春街","SECT":" ","MAREA":" ","LANE":"３６巷","ALLEY":" ","HOUSE_NO":"３３號","E_COORD97":173817.57999999999,"N_COORD97":2546411.4100000001,"ADDRESS":"永春街３６巷３３號","OBJECTID":330989},"geometry":{"x":173817.58000000101,"y":2546411.4100000001}},{"attributes":{"ID":330999,"DIS_CODE":0,"TOWNNAME":"永康區","LI":"網寮里","LIN":"24鄰","STREET":"永春街","SECT":" ","MAREA":" ","LANE":"３６巷","ALLEY":" ","HOUSE_NO":"３０號","E_COORD97":173820.10000000001,"N_COORD97":2546393.04,"ADDRESS":"永春街３６巷３０號","OBJECTID":330990},"geometry":{"x":173820.10000000056,"y":2546393.0400000028}},{"attributes":{"ID":331000,"DIS_CODE":0,"TOWNNAME":"永康區","LI":"網寮里","LIN":"5鄰","STREET":"永勝街","SECT":" ","MAREA":" ","LANE":"１０６巷","ALLEY":" ","HOUSE_NO":"３號","E_COORD97":173561,"N_COORD97":2546343.9399999999,"ADDRESS":"永勝街１０６巷３號","OBJECTID":330991},"geometry":{"x":173561,"y":2546343.9400000013}},{"attributes":{"ID":331001,"DIS_CODE":0,"TOWNNAME":"新化區","LI":"協興里","LIN":"15鄰","STREET":"大新路","SECT":" ","MAREA":" ","LANE":"１３１巷","ALLEY":" ","HOUSE_NO":"３１號","E_COORD97":177962.78,"N_COORD97":2548764.25,"ADDRESS":"大新路１３１巷３１號","OBJECTID":330992},"geometry":{"x":177962.78000000119,"y":2548764.25}},{"attributes":{"ID":331002,"DIS_CODE":0,"TOWNNAME":"新化區","LI":"東榮里","LIN":"15鄰","STREET":"中興路","SECT":" ","MAREA":" ","LANE":"６５２巷","ALLEY":" ","HOUSE_NO":"３３號","E_COORD97":179708.95999999999,"N_COORD97":2548198.25,"ADDRESS":"中興路６５２巷３３號","OBJECTID":330993},"geometry":{"x":179708.96000000089,"y":2548198.25}},{"attributes":{"ID":331003,"DIS_CODE":0,"TOWNNAME":"新化區","LI":"知義里","LIN":"15鄰","STREET":"中興路","SECT":" ","MAREA":" ","LANE":"４１５巷","ALLEY":" ","HOUSE_NO":"１３號","E_COORD97":180632.45999999999,"N_COORD97":2547436.25,"ADDRESS":"中興路４１５巷１３號","OBJECTID":330994},"geometry":{"x":180632.46000000183,"y":2547436.25}},{"attributes":{"ID":331004,"DIS_CODE":0,"TOWNNAME":"新化區","LI":"知義里","LIN":"15鄰","STREET":"中興路","SECT":" ","MAREA":" ","LANE":"４１５巷","ALLEY":" ","HOUSE_NO":"１９號","E_COORD97":180635.16,"N_COORD97":2547417.25,"ADDRESS":"中興路４１５巷１９號","OBJECTID":330995},"geometry":{"x":180635.16000000108,"y":2547417.2500000019}},{"attributes":{"ID":331005,"DIS_CODE":0,"TOWNNAME":"新化區","LI":"知義里","LIN":"15鄰","STREET":"中興路","SECT":" ","MAREA":" ","LANE":"４１５巷","ALLEY":" ","HOUSE_NO":"１７號","E_COORD97":180634.26000000001,"N_COORD97":2547423.25,"ADDRESS":"中興路４１５巷１７號","OBJECTID":330996},"geometry":{"x":180634.26000000071,"y":2547423.2500000037}},{"attributes":{"ID":331006,"DIS_CODE":0,"TOWNNAME":"新化區","LI":"知義里","LIN":"15鄰","STREET":"中興路","SECT":" ","MAREA":" ","LANE":"４１５巷","ALLEY":" ","HOUSE_NO":"５號","E_COORD97":180628.60999999999,"N_COORD97":2547461.25,"ADDRESS":"中興路４１５巷５號","OBJECTID":330997},"geometry":{"x":180628.6100000022,"y":2547461.2500000019}},{"attributes":{"ID":331007,"DIS_CODE":0,"TOWNNAME":"新化區","LI":"東榮里","LIN":"15鄰","STREET":"信義路","SECT":" ","MAREA":" ","LANE":"１３１巷","ALLEY":" ","HOUSE_NO":"７３號","E_COORD97":179679.88,"N_COORD97":2548189.25,"ADDRESS":"信義路１３１巷７３號","OBJECTID":330998},"geometry":{"x":179679.87999999989,"y":2548189.2500000037}},{"attributes":{"ID":331008,"DIS_CODE":0,"TOWNNAME":"新化區","LI":"太平里","LIN":"15鄰","STREET":"中正路","SECT":" ","MAREA":" ","LANE":"５８５巷","ALLEY":" ","HOUSE_NO":"２號","E_COORD97":178915.81,"N_COORD97":2548746.25,"ADDRESS":"中正路５８５巷２號","OBJECTID":330999},"geometry":{"x":178915.80999999866,"y":2548746.2500000019}},{"attributes":{"ID":331009,"DIS_CODE":0,"TOWNNAME":"東區","LI":"大福里","LIN":"17鄰","STREET":"立德六路","SECT":" ","MAREA":" ","LANE":" ","ALLEY":" ","HOUSE_NO":"１７號","E_COORD97":169540.44,"N_COORD97":2541877.5699999998,"ADDRESS":"立德六路１７號","OBJECTID":331000},"geometry":{"x":169540.44000000134,"y":2541877.5700000003}}]}