{"displayFieldName":"TOWNNAME","fieldAliases":{"ID":"ID","DIS_CODE":"DIS_CODE","TOWNNAME":"TOWNNAME","LI":"LI","LIN":"LIN","STREET":"STREET","SECT":"SECT","MAREA":"MAREA","LANE":"LANE","ALLEY":"ALLEY","HOUSE_NO":"HOUSE_NO","E_COORD97":"E_COORD97","N_COORD97":"N_COORD97","ADDRESS":"ADDRESS","OBJECTID":"OBJECTID"},"geometryType":"esriGeometryPoint","spatialReference":{"wkid":102443,"latestWkid":3826},"fields":[{"name":"ID","type":"esriFieldTypeDouble","alias":"ID"},{"name":"DIS_CODE","type":"esriFieldTypeInteger","alias":"DIS_CODE"},{"name":"TOWNNAME","type":"esriFieldTypeString","alias":"TOWNNAME","length":8},{"name":"LI","type":"esriFieldTypeString","alias":"LI","length":8},{"name":"LIN","type":"esriFieldTypeString","alias":"LIN","length":12},{"name":"STREET","type":"esriFieldTypeString","alias":"STREET","length":20},{"name":"SECT","type":"esriFieldTypeString","alias":"SECT","length":8},{"name":"MAREA","type":"esriFieldTypeString","alias":"MAREA","length":12},{"name":"LANE","type":"esriFieldTypeString","alias":"LANE","length":10},{"name":"ALLEY","type":"esriFieldTypeString","alias":"ALLEY","length":10},{"name":"HOUSE_NO","type":"esriFieldTypeString","alias":"HOUSE_NO","length":20},{"name":"E_COORD97","type":"esriFieldTypeDouble","alias":"E_COORD97"},{"name":"N_COORD97","type":"esriFieldTypeDouble","alias":"N_COORD97"},{"name":"ADDRESS","type":"esriFieldTypeString","alias":"ADDRESS","length":50},{"name":"OBJECTID","type":"esriFieldTypeOID","alias":"OBJECTID"}],"features":[{"attributes":{"ID":523428,"DIS_CODE":0,"TOWNNAME":"東區","LI":"德光里","LIN":"1鄰","STREET":"林森路","SECT":"一段","MAREA":" ","LANE":" ","ALLEY":" ","HOUSE_NO":"１８４號","E_COORD97":169656.28,"N_COORD97":2542511.1600000001,"ADDRESS":"林森路一段１８４號","OBJECTID":523401},"geometry":{"x":169656.28000000119,"y":2542511.1600000039}},{"attributes":{"ID":523429,"DIS_CODE":0,"TOWNNAME":"東區","LI":"德光里","LIN":"1鄰","STREET":"林森路","SECT":"一段","MAREA":" ","LANE":" ","ALLEY":" ","HOUSE_NO":"１８６號","E_COORD97":169660.20999999999,"N_COORD97":2542512.3599999999,"ADDRESS":"林森路一段１８６號","OBJECTID":523402},"geometry":{"x":169660.21000000089,"y":2542512.3600000031}},{"attributes":{"ID":523430,"DIS_CODE":0,"TOWNNAME":"東區","LI":"德光里","LIN":"1鄰","STREET":"林森路","SECT":"一段","MAREA":" ","LANE":" ","ALLEY":" ","HOUSE_NO":"１８８號","E_COORD97":169665.34,"N_COORD97":2542513.7200000002,"ADDRESS":"林森路一段１８８號","OBJECTID":523403},"geometry":{"x":169665.34000000171,"y":2542513.7200000007}},{"attributes":{"ID":523431,"DIS_CODE":0,"TOWNNAME":"東區","LI":"德光里","LIN":"1鄰","STREET":"林森路","SECT":"一段","MAREA":" ","LANE":" ","ALLEY":" ","HOUSE_NO":"１９０號","E_COORD97":169671.23000000001,"N_COORD97":2542516.29,"ADDRESS":"林森路一段１９０號","OBJECTID":523404},"geometry":{"x":169671.23000000045,"y":2542516.290000001}},{"attributes":{"ID":523432,"DIS_CODE":0,"TOWNNAME":"東區","LI":"德光里","LIN":"1鄰","STREET":"林森路","SECT":"一段","MAREA":" ","LANE":" ","ALLEY":" ","HOUSE_NO":"１９２號","E_COORD97":169676.51999999999,"N_COORD97":2542517.79,"ADDRESS":"林森路一段１９２號","OBJECTID":523405},"geometry":{"x":169676.51999999955,"y":2542517.7899999991}},{"attributes":{"ID":523433,"DIS_CODE":0,"TOWNNAME":"東區","LI":"德光里","LIN":"1鄰","STREET":"林森路","SECT":"一段","MAREA":" ","LANE":" ","ALLEY":" ","HOUSE_NO":"１９４號","E_COORD97":169680.14000000001,"N_COORD97":2542518.8500000001,"ADDRESS":"林森路一段１９４號","OBJECTID":523406},"geometry":{"x":169680.14000000153,"y":2542518.8499999996}},{"attributes":{"ID":523434,"DIS_CODE":0,"TOWNNAME":"東區","LI":"德光里","LIN":"1鄰","STREET":"林森路","SECT":"一段","MAREA":" ","LANE":" ","ALLEY":" ","HOUSE_NO":"１９６號","E_COORD97":169684.07000000001,"N_COORD97":2542520.6600000001,"ADDRESS":"林森路一段１９６號","OBJECTID":523407},"geometry":{"x":169684.0700000003,"y":2542520.6600000001}},{"attributes":{"ID":523435,"DIS_CODE":0,"TOWNNAME":"東區","LI":"德光里","LIN":"1鄰","STREET":"林森路","SECT":"一段","MAREA":" ","LANE":" ","ALLEY":" ","HOUSE_NO":"１９８號","E_COORD97":169688.14999999999,"N_COORD97":2542522.6200000001,"ADDRESS":"林森路一段１９８號","OBJECTID":523408},"geometry":{"x":169688.1500000013,"y":2542522.6200000048}},{"attributes":{"ID":523436,"DIS_CODE":0,"TOWNNAME":"東區","LI":"德光里","LIN":"1鄰","STREET":"林森路","SECT":"一段","MAREA":" ","LANE":" ","ALLEY":" ","HOUSE_NO":"２００號","E_COORD97":169692.98000000001,"N_COORD97":2542523.6800000002,"ADDRESS":"林森路一段２００號","OBJECTID":523409},"geometry":{"x":169692.98000000045,"y":2542523.6799999997}},{"attributes":{"ID":523437,"DIS_CODE":0,"TOWNNAME":"東區","LI":"德光里","LIN":"1鄰","STREET":"林森路","SECT":"一段","MAREA":" ","LANE":" ","ALLEY":" ","HOUSE_NO":"２０２號","E_COORD97":169696.14999999999,"N_COORD97":2542524.8799999999,"ADDRESS":"林森路一段２０２號","OBJECTID":523410},"geometry":{"x":169696.1500000013,"y":2542524.879999999}},{"attributes":{"ID":523438,"DIS_CODE":0,"TOWNNAME":"東區","LI":"德光里","LIN":"1鄰","STREET":"林森路","SECT":"一段","MAREA":" ","LANE":" ","ALLEY":" ","HOUSE_NO":"２０４號","E_COORD97":169700.38,"N_COORD97":2542526.54,"ADDRESS":"林森路一段２０４號","OBJECTID":523411},"geometry":{"x":169700.37999999989,"y":2542526.5399999991}},{"attributes":{"ID":523439,"DIS_CODE":0,"TOWNNAME":"東區","LI":"德光里","LIN":"1鄰","STREET":"林森路","SECT":"一段","MAREA":" ","LANE":" ","ALLEY":" ","HOUSE_NO":"２０６號","E_COORD97":169704.60999999999,"N_COORD97":2542528.3500000001,"ADDRESS":"林森路一段２０６號","OBJECTID":523412},"geometry":{"x":169704.6100000022,"y":2542528.3499999996}},{"attributes":{"ID":523440,"DIS_CODE":0,"TOWNNAME":"東區","LI":"德光里","LIN":"1鄰","STREET":"林森路","SECT":"一段","MAREA":" ","LANE":" ","ALLEY":" ","HOUSE_NO":"２０８號","E_COORD97":169708.23000000001,"N_COORD97":2542529.5600000001,"ADDRESS":"林森路一段２０８號","OBJECTID":523413},"geometry":{"x":169708.23000000045,"y":2542529.5600000024}},{"attributes":{"ID":523441,"DIS_CODE":0,"TOWNNAME":"東區","LI":"德光里","LIN":"1鄰","STREET":"林森路","SECT":"一段","MAREA":" ","LANE":" ","ALLEY":" ","HOUSE_NO":"２１０號","E_COORD97":169712.16,"N_COORD97":2542530.7599999998,"ADDRESS":"林森路一段２１０號","OBJECTID":523414},"geometry":{"x":169712.16000000015,"y":2542530.7600000016}},{"attributes":{"ID":523442,"DIS_CODE":0,"TOWNNAME":"東區","LI":"德光里","LIN":"1鄰","STREET":"林森路","SECT":"一段","MAREA":" ","LANE":" ","ALLEY":" ","HOUSE_NO":"２１２號","E_COORD97":169715.92999999999,"N_COORD97":2542532.4199999999,"ADDRESS":"林森路一段２１２號","OBJECTID":523415},"geometry":{"x":169715.93000000063,"y":2542532.4199999999}},{"attributes":{"ID":523443,"DIS_CODE":0,"TOWNNAME":"東區","LI":"德光里","LIN":"1鄰","STREET":"崇明一街","SECT":" ","MAREA":" ","LANE":" ","ALLEY":" ","HOUSE_NO":"４５號","E_COORD97":169667.45000000001,"N_COORD97":2542486.6499999999,"ADDRESS":"崇明一街４５號","OBJECTID":523416},"geometry":{"x":169667.45000000112,"y":2542486.6500000004}},{"attributes":{"ID":523444,"DIS_CODE":0,"TOWNNAME":"東區","LI":"德光里","LIN":"1鄰","STREET":"崇明一街","SECT":" ","MAREA":" ","LANE":" ","ALLEY":" ","HOUSE_NO":"４７號","E_COORD97":169670.76999999999,"N_COORD97":2542488,"ADDRESS":"崇明一街４７號","OBJECTID":523417},"geometry":{"x":169670.77000000048,"y":2542488}},{"attributes":{"ID":523445,"DIS_CODE":0,"TOWNNAME":"東區","LI":"龍山里","LIN":"6鄰","STREET":"林森路","SECT":"一段","MAREA":" ","LANE":" ","ALLEY":" ","HOUSE_NO":"３９５號七樓","E_COORD97":170196.82999999999,"N_COORD97":2542891.3300000001,"ADDRESS":"林森路一段３９５號七樓","OBJECTID":523418},"geometry":{"x":170196.83000000101,"y":2542891.3300000019}},{"attributes":{"ID":523446,"DIS_CODE":0,"TOWNNAME":"東區","LI":"龍山里","LIN":"6鄰","STREET":"林森路","SECT":"一段","MAREA":" ","LANE":" ","ALLEY":" ","HOUSE_NO":"３９５號七樓之１","E_COORD97":170196.82999999999,"N_COORD97":2542891.3300000001,"ADDRESS":"林森路一段３９５號七樓之１","OBJECTID":523419},"geometry":{"x":170196.83000000101,"y":2542891.3300000019}},{"attributes":{"ID":523447,"DIS_CODE":0,"TOWNNAME":"東區","LI":"龍山里","LIN":"6鄰","STREET":"林森路","SECT":"一段","MAREA":" ","LANE":" ","ALLEY":" ","HOUSE_NO":"３９５號七樓之１０","E_COORD97":170196.82999999999,"N_COORD97":2542891.3300000001,"ADDRESS":"林森路一段３９５號七樓之１０","OBJECTID":523420},"geometry":{"x":170196.83000000101,"y":2542891.3300000019}},{"attributes":{"ID":523448,"DIS_CODE":0,"TOWNNAME":"東區","LI":"龍山里","LIN":"6鄰","STREET":"林森路","SECT":"一段","MAREA":" ","LANE":" ","ALLEY":" ","HOUSE_NO":"３９５號七樓之１１","E_COORD97":170196.82999999999,"N_COORD97":2542891.3300000001,"ADDRESS":"林森路一段３９５號七樓之１１","OBJECTID":523421},"geometry":{"x":170196.83000000101,"y":2542891.3300000019}},{"attributes":{"ID":523449,"DIS_CODE":0,"TOWNNAME":"東區","LI":"龍山里","LIN":"6鄰","STREET":"林森路","SECT":"一段","MAREA":" ","LANE":" ","ALLEY":" ","HOUSE_NO":"３９５號七樓之２","E_COORD97":170196.82999999999,"N_COORD97":2542891.3300000001,"ADDRESS":"林森路一段３９５號七樓之２","OBJECTID":523422},"geometry":{"x":170196.83000000101,"y":2542891.3300000019}},{"attributes":{"ID":523450,"DIS_CODE":0,"TOWNNAME":"東區","LI":"龍山里","LIN":"6鄰","STREET":"林森路","SECT":"一段","MAREA":" ","LANE":" ","ALLEY":" ","HOUSE_NO":"３９５號七樓之３","E_COORD97":170196.82999999999,"N_COORD97":2542891.3300000001,"ADDRESS":"林森路一段３９５號七樓之３","OBJECTID":523423},"geometry":{"x":170196.83000000101,"y":2542891.3300000019}},{"attributes":{"ID":523451,"DIS_CODE":0,"TOWNNAME":"東區","LI":"龍山里","LIN":"6鄰","STREET":"林森路","SECT":"一段","MAREA":" ","LANE":" ","ALLEY":" ","HOUSE_NO":"３９５號七樓之５","E_COORD97":170196.82999999999,"N_COORD97":2542891.3300000001,"ADDRESS":"林森路一段３９５號七樓之５","OBJECTID":523424},"geometry":{"x":170196.83000000101,"y":2542891.3300000019}},{"attributes":{"ID":523452,"DIS_CODE":0,"TOWNNAME":"東區","LI":"龍山里","LIN":"6鄰","STREET":"林森路","SECT":"一段","MAREA":" ","LANE":" ","ALLEY":" ","HOUSE_NO":"３９５號七樓之６","E_COORD97":170196.82999999999,"N_COORD97":2542891.3300000001,"ADDRESS":"林森路一段３９５號七樓之６","OBJECTID":523425},"geometry":{"x":170196.83000000101,"y":2542891.3300000019}},{"attributes":{"ID":523453,"DIS_CODE":0,"TOWNNAME":"東區","LI":"龍山里","LIN":"6鄰","STREET":"林森路","SECT":"一段","MAREA":" ","LANE":" ","ALLEY":" ","HOUSE_NO":"３９５號七樓之７","E_COORD97":170196.82999999999,"N_COORD97":2542891.3300000001,"ADDRESS":"林森路一段３９５號七樓之７","OBJECTID":523426},"geometry":{"x":170196.83000000101,"y":2542891.3300000019}},{"attributes":{"ID":523454,"DIS_CODE":0,"TOWNNAME":"東區","LI":"龍山里","LIN":"6鄰","STREET":"林森路","SECT":"一段","MAREA":" ","LANE":" ","ALLEY":" ","HOUSE_NO":"３９５號七樓之８","E_COORD97":170196.82999999999,"N_COORD97":2542891.3300000001,"ADDRESS":"林森路一段３９５號七樓之８","OBJECTID":523427},"geometry":{"x":170196.83000000101,"y":2542891.3300000019}},{"attributes":{"ID":523455,"DIS_CODE":0,"TOWNNAME":"南區","LI":"文華里","LIN":"18鄰","STREET":"德南街","SECT":" ","MAREA":" ","LANE":" ","ALLEY":" ","HOUSE_NO":"４３號","E_COORD97":166848.98000000001,"N_COORD97":2543104.9199999999,"ADDRESS":"德南街４３號","OBJECTID":523428},"geometry":{"x":166848.98000000045,"y":2543104.9199999999}},{"attributes":{"ID":523456,"DIS_CODE":0,"TOWNNAME":"東區","LI":"龍山里","LIN":"6鄰","STREET":"林森路","SECT":"一段","MAREA":" ","LANE":" ","ALLEY":" ","HOUSE_NO":"３９５號七樓之９","E_COORD97":170196.82999999999,"N_COORD97":2542891.3300000001,"ADDRESS":"林森路一段３９５號七樓之９","OBJECTID":523429},"geometry":{"x":170196.83000000101,"y":2542891.3300000019}},{"attributes":{"ID":523457,"DIS_CODE":0,"TOWNNAME":"東區","LI":"龍山里","LIN":"6鄰","STREET":"林森路","SECT":"一段","MAREA":" ","LANE":" ","ALLEY":" ","HOUSE_NO":"３９５號九樓","E_COORD97":170196.82999999999,"N_COORD97":2542891.3300000001,"ADDRESS":"林森路一段３９５號九樓","OBJECTID":523430},"geometry":{"x":170196.83000000101,"y":2542891.3300000019}},{"attributes":{"ID":523458,"DIS_CODE":0,"TOWNNAME":"東區","LI":"龍山里","LIN":"6鄰","STREET":"林森路","SECT":"一段","MAREA":" ","LANE":" ","ALLEY":" ","HOUSE_NO":"３９５號九樓之１","E_COORD97":170196.82999999999,"N_COORD97":2542891.3300000001,"ADDRESS":"林森路一段３９５號九樓之１","OBJECTID":523431},"geometry":{"x":170196.83000000101,"y":2542891.3300000019}},{"attributes":{"ID":523459,"DIS_CODE":0,"TOWNNAME":"東區","LI":"龍山里","LIN":"6鄰","STREET":"林森路","SECT":"一段","MAREA":" ","LANE":" ","ALLEY":" ","HOUSE_NO":"３９５號九樓之１０","E_COORD97":170196.82999999999,"N_COORD97":2542891.3300000001,"ADDRESS":"林森路一段３９５號九樓之１０","OBJECTID":523432},"geometry":{"x":170196.83000000101,"y":2542891.3300000019}},{"attributes":{"ID":523460,"DIS_CODE":0,"TOWNNAME":"東區","LI":"龍山里","LIN":"6鄰","STREET":"林森路","SECT":"一段","MAREA":" ","LANE":" ","ALLEY":" ","HOUSE_NO":"３９５號九樓之１１","E_COORD97":170196.82999999999,"N_COORD97":2542891.3300000001,"ADDRESS":"林森路一段３９５號九樓之１１","OBJECTID":523433},"geometry":{"x":170196.83000000101,"y":2542891.3300000019}},{"attributes":{"ID":523461,"DIS_CODE":0,"TOWNNAME":"東區","LI":"龍山里","LIN":"6鄰","STREET":"林森路","SECT":"一段","MAREA":" ","LANE":" ","ALLEY":" ","HOUSE_NO":"３９５號九樓之１２","E_COORD97":170196.82999999999,"N_COORD97":2542891.3300000001,"ADDRESS":"林森路一段３９５號九樓之１２","OBJECTID":523434},"geometry":{"x":170196.83000000101,"y":2542891.3300000019}},{"attributes":{"ID":523462,"DIS_CODE":0,"TOWNNAME":"東區","LI":"龍山里","LIN":"6鄰","STREET":"林森路","SECT":"一段","MAREA":" ","LANE":" ","ALLEY":" ","HOUSE_NO":"３９５號九樓之２","E_COORD97":170196.82999999999,"N_COORD97":2542891.3300000001,"ADDRESS":"林森路一段３９５號九樓之２","OBJECTID":523435},"geometry":{"x":170196.83000000101,"y":2542891.3300000019}},{"attributes":{"ID":523463,"DIS_CODE":0,"TOWNNAME":"東區","LI":"龍山里","LIN":"6鄰","STREET":"林森路","SECT":"一段","MAREA":" ","LANE":" ","ALLEY":" ","HOUSE_NO":"３９５號九樓之３","E_COORD97":170196.82999999999,"N_COORD97":2542891.3300000001,"ADDRESS":"林森路一段３９５號九樓之３","OBJECTID":523436},"geometry":{"x":170196.83000000101,"y":2542891.3300000019}},{"attributes":{"ID":523464,"DIS_CODE":0,"TOWNNAME":"東區","LI":"龍山里","LIN":"6鄰","STREET":"林森路","SECT":"一段","MAREA":" ","LANE":" ","ALLEY":" ","HOUSE_NO":"３９５號九樓之５","E_COORD97":170196.82999999999,"N_COORD97":2542891.3300000001,"ADDRESS":"林森路一段３９５號九樓之５","OBJECTID":523437},"geometry":{"x":170196.83000000101,"y":2542891.3300000019}},{"attributes":{"ID":523465,"DIS_CODE":0,"TOWNNAME":"東區","LI":"龍山里","LIN":"6鄰","STREET":"林森路","SECT":"一段","MAREA":" ","LANE":" ","ALLEY":" ","HOUSE_NO":"３９５號九樓之６","E_COORD97":170196.82999999999,"N_COORD97":2542891.3300000001,"ADDRESS":"林森路一段３９５號九樓之６","OBJECTID":523438},"geometry":{"x":170196.83000000101,"y":2542891.3300000019}},{"attributes":{"ID":523466,"DIS_CODE":0,"TOWNNAME":"東區","LI":"龍山里","LIN":"6鄰","STREET":"林森路","SECT":"一段","MAREA":" ","LANE":" ","ALLEY":" ","HOUSE_NO":"３９５號九樓之７","E_COORD97":170196.82999999999,"N_COORD97":2542891.3300000001,"ADDRESS":"林森路一段３９５號九樓之７","OBJECTID":523439},"geometry":{"x":170196.83000000101,"y":2542891.3300000019}},{"attributes":{"ID":523467,"DIS_CODE":0,"TOWNNAME":"東區","LI":"龍山里","LIN":"6鄰","STREET":"林森路","SECT":"一段","MAREA":" ","LANE":" ","ALLEY":" ","HOUSE_NO":"３９５號九樓之８","E_COORD97":170196.82999999999,"N_COORD97":2542891.3300000001,"ADDRESS":"林森路一段３９５號九樓之８","OBJECTID":523440},"geometry":{"x":170196.83000000101,"y":2542891.3300000019}},{"attributes":{"ID":523468,"DIS_CODE":0,"TOWNNAME":"東區","LI":"龍山里","LIN":"6鄰","STREET":"林森路","SECT":"一段","MAREA":" ","LANE":" ","ALLEY":" ","HOUSE_NO":"３９５號九樓之９","E_COORD97":170196.82999999999,"N_COORD97":2542891.3300000001,"ADDRESS":"林森路一段３９５號九樓之９","OBJECTID":523441},"geometry":{"x":170196.83000000101,"y":2542891.3300000019}},{"attributes":{"ID":523469,"DIS_CODE":0,"TOWNNAME":"東區","LI":"龍山里","LIN":"18鄰","STREET":"府連路","SECT":" ","MAREA":" ","LANE":" ","ALLEY":" ","HOUSE_NO":"４５３號","E_COORD97":169740.14000000001,"N_COORD97":2543019.9199999999,"ADDRESS":"府連路４５３號","OBJECTID":523442},"geometry":{"x":169740.1400000006,"y":2543019.9199999999}},{"attributes":{"ID":523470,"DIS_CODE":0,"TOWNNAME":"東區","LI":"龍山里","LIN":"18鄰","STREET":"東門路","SECT":"一段","MAREA":" ","LANE":" ","ALLEY":" ","HOUSE_NO":"３２２號","E_COORD97":169741.44,"N_COORD97":2543030.6600000001,"ADDRESS":"東門路一段３２２號","OBJECTID":523443},"geometry":{"x":169741.43999999948,"y":2543030.660000002}},{"attributes":{"ID":523471,"DIS_CODE":0,"TOWNNAME":"東區","LI":"龍山里","LIN":"18鄰","STREET":"東門路","SECT":"一段","MAREA":" ","LANE":" ","ALLEY":" ","HOUSE_NO":"３２４號","E_COORD97":169745.91,"N_COORD97":2543028.6000000001,"ADDRESS":"東門路一段３２４號","OBJECTID":523444},"geometry":{"x":169745.91000000015,"y":2543028.5999999996}},{"attributes":{"ID":523472,"DIS_CODE":0,"TOWNNAME":"東區","LI":"龍山里","LIN":"6鄰","STREET":"林森路","SECT":"一段","MAREA":" ","LANE":" ","ALLEY":" ","HOUSE_NO":"３９５號八樓","E_COORD97":170196.82999999999,"N_COORD97":2542891.3300000001,"ADDRESS":"林森路一段３９５號八樓","OBJECTID":523445},"geometry":{"x":170196.83000000101,"y":2542891.3300000019}},{"attributes":{"ID":523473,"DIS_CODE":0,"TOWNNAME":"東區","LI":"龍山里","LIN":"6鄰","STREET":"林森路","SECT":"一段","MAREA":" ","LANE":" ","ALLEY":" ","HOUSE_NO":"３９５號八樓之１","E_COORD97":170196.82999999999,"N_COORD97":2542891.3300000001,"ADDRESS":"林森路一段３９５號八樓之１","OBJECTID":523446},"geometry":{"x":170196.83000000101,"y":2542891.3300000019}},{"attributes":{"ID":523474,"DIS_CODE":0,"TOWNNAME":"東區","LI":"龍山里","LIN":"6鄰","STREET":"林森路","SECT":"一段","MAREA":" ","LANE":" ","ALLEY":" ","HOUSE_NO":"３９５號八樓之１０","E_COORD97":170196.82999999999,"N_COORD97":2542891.3300000001,"ADDRESS":"林森路一段３９５號八樓之１０","OBJECTID":523447},"geometry":{"x":170196.83000000101,"y":2542891.3300000019}},{"attributes":{"ID":523475,"DIS_CODE":0,"TOWNNAME":"東區","LI":"龍山里","LIN":"6鄰","STREET":"林森路","SECT":"一段","MAREA":" ","LANE":" ","ALLEY":" ","HOUSE_NO":"３９５號八樓之１１","E_COORD97":170196.82999999999,"N_COORD97":2542891.3300000001,"ADDRESS":"林森路一段３９５號八樓之１１","OBJECTID":523448},"geometry":{"x":170196.83000000101,"y":2542891.3300000019}},{"attributes":{"ID":523476,"DIS_CODE":0,"TOWNNAME":"東區","LI":"龍山里","LIN":"6鄰","STREET":"林森路","SECT":"一段","MAREA":" ","LANE":" ","ALLEY":" ","HOUSE_NO":"３９５號八樓之１２","E_COORD97":170196.82999999999,"N_COORD97":2542891.3300000001,"ADDRESS":"林森路一段３９５號八樓之１２","OBJECTID":523449},"geometry":{"x":170196.83000000101,"y":2542891.3300000019}},{"attributes":{"ID":523477,"DIS_CODE":0,"TOWNNAME":"東區","LI":"龍山里","LIN":"6鄰","STREET":"林森路","SECT":"一段","MAREA":" ","LANE":" ","ALLEY":" ","HOUSE_NO":"３９５號八樓之１３","E_COORD97":170196.82999999999,"N_COORD97":2542891.3300000001,"ADDRESS":"林森路一段３９５號八樓之１３","OBJECTID":523450},"geometry":{"x":170196.83000000101,"y":2542891.3300000019}},{"attributes":{"ID":523478,"DIS_CODE":0,"TOWNNAME":"東區","LI":"龍山里","LIN":"6鄰","STREET":"林森路","SECT":"一段","MAREA":" ","LANE":" ","ALLEY":" ","HOUSE_NO":"３９５號八樓之２","E_COORD97":170196.82999999999,"N_COORD97":2542891.3300000001,"ADDRESS":"林森路一段３９５號八樓之２","OBJECTID":523451},"geometry":{"x":170196.83000000101,"y":2542891.3300000019}},{"attributes":{"ID":523479,"DIS_CODE":0,"TOWNNAME":"東區","LI":"龍山里","LIN":"6鄰","STREET":"林森路","SECT":"一段","MAREA":" ","LANE":" ","ALLEY":" ","HOUSE_NO":"３９５號八樓之３","E_COORD97":170196.82999999999,"N_COORD97":2542891.3300000001,"ADDRESS":"林森路一段３９５號八樓之３","OBJECTID":523452},"geometry":{"x":170196.83000000101,"y":2542891.3300000019}},{"attributes":{"ID":523480,"DIS_CODE":0,"TOWNNAME":"東區","LI":"龍山里","LIN":"6鄰","STREET":"林森路","SECT":"一段","MAREA":" ","LANE":" ","ALLEY":" ","HOUSE_NO":"３９５號八樓之５","E_COORD97":170196.82999999999,"N_COORD97":2542891.3300000001,"ADDRESS":"林森路一段３９５號八樓之５","OBJECTID":523453},"geometry":{"x":170196.83000000101,"y":2542891.3300000019}},{"attributes":{"ID":523481,"DIS_CODE":0,"TOWNNAME":"東區","LI":"龍山里","LIN":"6鄰","STREET":"林森路","SECT":"一段","MAREA":" ","LANE":" ","ALLEY":" ","HOUSE_NO":"３９５號八樓之６","E_COORD97":170196.82999999999,"N_COORD97":2542891.3300000001,"ADDRESS":"林森路一段３９５號八樓之６","OBJECTID":523454},"geometry":{"x":170196.83000000101,"y":2542891.3300000019}},{"attributes":{"ID":523482,"DIS_CODE":0,"TOWNNAME":"東區","LI":"龍山里","LIN":"6鄰","STREET":"林森路","SECT":"一段","MAREA":" ","LANE":" ","ALLEY":" ","HOUSE_NO":"３９５號八樓之７","E_COORD97":170196.82999999999,"N_COORD97":2542891.3300000001,"ADDRESS":"林森路一段３９５號八樓之７","OBJECTID":523455},"geometry":{"x":170196.83000000101,"y":2542891.3300000019}},{"attributes":{"ID":523483,"DIS_CODE":0,"TOWNNAME":"東區","LI":"龍山里","LIN":"6鄰","STREET":"林森路","SECT":"一段","MAREA":" ","LANE":" ","ALLEY":" ","HOUSE_NO":"３９５號八樓之８","E_COORD97":170196.82999999999,"N_COORD97":2542891.3300000001,"ADDRESS":"林森路一段３９５號八樓之８","OBJECTID":523456},"geometry":{"x":170196.83000000101,"y":2542891.3300000019}},{"attributes":{"ID":523484,"DIS_CODE":0,"TOWNNAME":"東區","LI":"龍山里","LIN":"6鄰","STREET":"林森路","SECT":"一段","MAREA":" ","LANE":" ","ALLEY":" ","HOUSE_NO":"３９５號八樓之９","E_COORD97":170196.82999999999,"N_COORD97":2542891.3300000001,"ADDRESS":"林森路一段３９５號八樓之９","OBJECTID":523457},"geometry":{"x":170196.83000000101,"y":2542891.3300000019}},{"attributes":{"ID":523485,"DIS_CODE":0,"TOWNNAME":"東區","LI":"龍山里","LIN":"6鄰","STREET":"林森路","SECT":"一段","MAREA":" ","LANE":" ","ALLEY":" ","HOUSE_NO":"３９５號十一樓","E_COORD97":170196.82999999999,"N_COORD97":2542891.3300000001,"ADDRESS":"林森路一段３９５號十一樓","OBJECTID":523458},"geometry":{"x":170196.83000000101,"y":2542891.3300000019}},{"attributes":{"ID":523486,"DIS_CODE":0,"TOWNNAME":"東區","LI":"龍山里","LIN":"6鄰","STREET":"林森路","SECT":"一段","MAREA":" ","LANE":" ","ALLEY":" ","HOUSE_NO":"３９５號十一樓之１","E_COORD97":170196.82999999999,"N_COORD97":2542891.3300000001,"ADDRESS":"林森路一段３９５號十一樓之１","OBJECTID":523459},"geometry":{"x":170196.83000000101,"y":2542891.3300000019}},{"attributes":{"ID":523487,"DIS_CODE":0,"TOWNNAME":"東區","LI":"龍山里","LIN":"6鄰","STREET":"林森路","SECT":"一段","MAREA":" ","LANE":" ","ALLEY":" ","HOUSE_NO":"３９５號十一樓之２","E_COORD97":170196.82999999999,"N_COORD97":2542891.3300000001,"ADDRESS":"林森路一段３９５號十一樓之２","OBJECTID":523460},"geometry":{"x":170196.83000000101,"y":2542891.3300000019}},{"attributes":{"ID":523488,"DIS_CODE":0,"TOWNNAME":"東區","LI":"龍山里","LIN":"6鄰","STREET":"林森路","SECT":"一段","MAREA":" ","LANE":" ","ALLEY":" ","HOUSE_NO":"３９５號十一樓之３","E_COORD97":170196.82999999999,"N_COORD97":2542891.3300000001,"ADDRESS":"林森路一段３９５號十一樓之３","OBJECTID":523461},"geometry":{"x":170196.83000000101,"y":2542891.3300000019}},{"attributes":{"ID":523489,"DIS_CODE":0,"TOWNNAME":"東區","LI":"龍山里","LIN":"6鄰","STREET":"林森路","SECT":"一段","MAREA":" ","LANE":" ","ALLEY":" ","HOUSE_NO":"３９５號十一樓之５","E_COORD97":170196.82999999999,"N_COORD97":2542891.3300000001,"ADDRESS":"林森路一段３９５號十一樓之５","OBJECTID":523462},"geometry":{"x":170196.83000000101,"y":2542891.3300000019}},{"attributes":{"ID":523490,"DIS_CODE":0,"TOWNNAME":"東區","LI":"龍山里","LIN":"6鄰","STREET":"林森路","SECT":"一段","MAREA":" ","LANE":" ","ALLEY":" ","HOUSE_NO":"３９５號十一樓之６","E_COORD97":170196.82999999999,"N_COORD97":2542891.3300000001,"ADDRESS":"林森路一段３９５號十一樓之６","OBJECTID":523463},"geometry":{"x":170196.83000000101,"y":2542891.3300000019}},{"attributes":{"ID":523491,"DIS_CODE":0,"TOWNNAME":"東區","LI":"龍山里","LIN":"6鄰","STREET":"林森路","SECT":"一段","MAREA":" ","LANE":" ","ALLEY":" ","HOUSE_NO":"３９５號十一樓之７","E_COORD97":170196.82999999999,"N_COORD97":2542891.3300000001,"ADDRESS":"林森路一段３９５號十一樓之７","OBJECTID":523464},"geometry":{"x":170196.83000000101,"y":2542891.3300000019}},{"attributes":{"ID":523492,"DIS_CODE":0,"TOWNNAME":"東區","LI":"龍山里","LIN":"6鄰","STREET":"林森路","SECT":"一段","MAREA":" ","LANE":" ","ALLEY":" ","HOUSE_NO":"３９５號十二樓","E_COORD97":170196.82999999999,"N_COORD97":2542891.3300000001,"ADDRESS":"林森路一段３９５號十二樓","OBJECTID":523465},"geometry":{"x":170196.83000000101,"y":2542891.3300000019}},{"attributes":{"ID":523493,"DIS_CODE":0,"TOWNNAME":"東區","LI":"龍山里","LIN":"6鄰","STREET":"林森路","SECT":"一段","MAREA":" ","LANE":" ","ALLEY":" ","HOUSE_NO":"３９５號十二樓之１","E_COORD97":170196.82999999999,"N_COORD97":2542891.3300000001,"ADDRESS":"林森路一段３９５號十二樓之１","OBJECTID":523466},"geometry":{"x":170196.83000000101,"y":2542891.3300000019}},{"attributes":{"ID":523494,"DIS_CODE":0,"TOWNNAME":"東區","LI":"龍山里","LIN":"6鄰","STREET":"林森路","SECT":"一段","MAREA":" ","LANE":" ","ALLEY":" ","HOUSE_NO":"３９５號十二樓之２","E_COORD97":170196.82999999999,"N_COORD97":2542891.3300000001,"ADDRESS":"林森路一段３９５號十二樓之２","OBJECTID":523467},"geometry":{"x":170196.83000000101,"y":2542891.3300000019}},{"attributes":{"ID":523495,"DIS_CODE":0,"TOWNNAME":"東區","LI":"龍山里","LIN":"6鄰","STREET":"林森路","SECT":"一段","MAREA":" ","LANE":" ","ALLEY":" ","HOUSE_NO":"３９５號十三樓","E_COORD97":170196.82999999999,"N_COORD97":2542891.3300000001,"ADDRESS":"林森路一段３９５號十三樓","OBJECTID":523468},"geometry":{"x":170196.83000000101,"y":2542891.3300000019}},{"attributes":{"ID":523496,"DIS_CODE":0,"TOWNNAME":"東區","LI":"龍山里","LIN":"6鄰","STREET":"林森路","SECT":"一段","MAREA":" ","LANE":" ","ALLEY":" ","HOUSE_NO":"３９５號十三樓之１","E_COORD97":170196.82999999999,"N_COORD97":2542891.3300000001,"ADDRESS":"林森路一段３９５號十三樓之１","OBJECTID":523469},"geometry":{"x":170196.83000000101,"y":2542891.3300000019}},{"attributes":{"ID":523497,"DIS_CODE":0,"TOWNNAME":"東區","LI":"龍山里","LIN":"6鄰","STREET":"林森路","SECT":"一段","MAREA":" ","LANE":" ","ALLEY":" ","HOUSE_NO":"３９５號十三樓之１０","E_COORD97":170196.82999999999,"N_COORD97":2542891.3300000001,"ADDRESS":"林森路一段３９５號十三樓之１０","OBJECTID":523470},"geometry":{"x":170196.83000000101,"y":2542891.3300000019}},{"attributes":{"ID":523498,"DIS_CODE":0,"TOWNNAME":"東區","LI":"龍山里","LIN":"6鄰","STREET":"林森路","SECT":"一段","MAREA":" ","LANE":" ","ALLEY":" ","HOUSE_NO":"３９５號十三樓之１１","E_COORD97":170196.82999999999,"N_COORD97":2542891.3300000001,"ADDRESS":"林森路一段３９５號十三樓之１１","OBJECTID":523471},"geometry":{"x":170196.83000000101,"y":2542891.3300000019}},{"attributes":{"ID":523499,"DIS_CODE":0,"TOWNNAME":"東區","LI":"龍山里","LIN":"6鄰","STREET":"林森路","SECT":"一段","MAREA":" ","LANE":" ","ALLEY":" ","HOUSE_NO":"３９５號十三樓之１２","E_COORD97":170196.82999999999,"N_COORD97":2542891.3300000001,"ADDRESS":"林森路一段３９５號十三樓之１２","OBJECTID":523472},"geometry":{"x":170196.83000000101,"y":2542891.3300000019}},{"attributes":{"ID":523500,"DIS_CODE":0,"TOWNNAME":"東區","LI":"龍山里","LIN":"6鄰","STREET":"林森路","SECT":"一段","MAREA":" ","LANE":" ","ALLEY":" ","HOUSE_NO":"３９５號十三樓之１３","E_COORD97":170196.82999999999,"N_COORD97":2542891.3300000001,"ADDRESS":"林森路一段３９５號十三樓之１３","OBJECTID":523473},"geometry":{"x":170196.83000000101,"y":2542891.3300000019}},{"attributes":{"ID":523501,"DIS_CODE":0,"TOWNNAME":"東區","LI":"龍山里","LIN":"6鄰","STREET":"林森路","SECT":"一段","MAREA":" ","LANE":" ","ALLEY":" ","HOUSE_NO":"３９５號十三樓之２","E_COORD97":170196.82999999999,"N_COORD97":2542891.3300000001,"ADDRESS":"林森路一段３９５號十三樓之２","OBJECTID":523474},"geometry":{"x":170196.83000000101,"y":2542891.3300000019}},{"attributes":{"ID":523502,"DIS_CODE":0,"TOWNNAME":"東區","LI":"龍山里","LIN":"6鄰","STREET":"林森路","SECT":"一段","MAREA":" ","LANE":" ","ALLEY":" ","HOUSE_NO":"３９５號十三樓之３","E_COORD97":170196.82999999999,"N_COORD97":2542891.3300000001,"ADDRESS":"林森路一段３９５號十三樓之３","OBJECTID":523475},"geometry":{"x":170196.83000000101,"y":2542891.3300000019}},{"attributes":{"ID":523503,"DIS_CODE":0,"TOWNNAME":"東區","LI":"龍山里","LIN":"6鄰","STREET":"林森路","SECT":"一段","MAREA":" ","LANE":" ","ALLEY":" ","HOUSE_NO":"３９５號十三樓之５","E_COORD97":170196.82999999999,"N_COORD97":2542891.3300000001,"ADDRESS":"林森路一段３９５號十三樓之５","OBJECTID":523476},"geometry":{"x":170196.83000000101,"y":2542891.3300000019}},{"attributes":{"ID":523504,"DIS_CODE":0,"TOWNNAME":"東區","LI":"龍山里","LIN":"6鄰","STREET":"林森路","SECT":"一段","MAREA":" ","LANE":" ","ALLEY":" ","HOUSE_NO":"３９５號十三樓之６","E_COORD97":170196.82999999999,"N_COORD97":2542891.3300000001,"ADDRESS":"林森路一段３９５號十三樓之６","OBJECTID":523477},"geometry":{"x":170196.83000000101,"y":2542891.3300000019}},{"attributes":{"ID":523505,"DIS_CODE":0,"TOWNNAME":"東區","LI":"龍山里","LIN":"6鄰","STREET":"林森路","SECT":"一段","MAREA":" ","LANE":" ","ALLEY":" ","HOUSE_NO":"３９５號十三樓之７","E_COORD97":170196.82999999999,"N_COORD97":2542891.3300000001,"ADDRESS":"林森路一段３９５號十三樓之７","OBJECTID":523478},"geometry":{"x":170196.83000000101,"y":2542891.3300000019}},{"attributes":{"ID":523506,"DIS_CODE":0,"TOWNNAME":"東區","LI":"龍山里","LIN":"6鄰","STREET":"林森路","SECT":"一段","MAREA":" ","LANE":" ","ALLEY":" ","HOUSE_NO":"３９５號十三樓之８","E_COORD97":170196.82999999999,"N_COORD97":2542891.3300000001,"ADDRESS":"林森路一段３９５號十三樓之８","OBJECTID":523479},"geometry":{"x":170196.83000000101,"y":2542891.3300000019}},{"attributes":{"ID":523507,"DIS_CODE":0,"TOWNNAME":"東區","LI":"龍山里","LIN":"6鄰","STREET":"林森路","SECT":"一段","MAREA":" ","LANE":" ","ALLEY":" ","HOUSE_NO":"３９５號十三樓之９","E_COORD97":170196.82999999999,"N_COORD97":2542891.3300000001,"ADDRESS":"林森路一段３９５號十三樓之９","OBJECTID":523480},"geometry":{"x":170196.83000000101,"y":2542891.3300000019}},{"attributes":{"ID":523508,"DIS_CODE":0,"TOWNNAME":"東區","LI":"龍山里","LIN":"6鄰","STREET":"林森路","SECT":"一段","MAREA":" ","LANE":" ","ALLEY":" ","HOUSE_NO":"３９５號十四樓","E_COORD97":170196.82999999999,"N_COORD97":2542891.3300000001,"ADDRESS":"林森路一段３９５號十四樓","OBJECTID":523481},"geometry":{"x":170196.83000000101,"y":2542891.3300000019}},{"attributes":{"ID":523509,"DIS_CODE":0,"TOWNNAME":"東區","LI":"龍山里","LIN":"6鄰","STREET":"林森路","SECT":"一段","MAREA":" ","LANE":" ","ALLEY":" ","HOUSE_NO":"３９５號十樓","E_COORD97":170196.82999999999,"N_COORD97":2542891.3300000001,"ADDRESS":"林森路一段３９５號十樓","OBJECTID":523482},"geometry":{"x":170196.83000000101,"y":2542891.3300000019}},{"attributes":{"ID":523510,"DIS_CODE":0,"TOWNNAME":"東區","LI":"龍山里","LIN":"6鄰","STREET":"林森路","SECT":"一段","MAREA":" ","LANE":" ","ALLEY":" ","HOUSE_NO":"３９５號十樓之１","E_COORD97":170196.82999999999,"N_COORD97":2542891.3300000001,"ADDRESS":"林森路一段３９５號十樓之１","OBJECTID":523483},"geometry":{"x":170196.83000000101,"y":2542891.3300000019}},{"attributes":{"ID":523511,"DIS_CODE":0,"TOWNNAME":"東區","LI":"龍山里","LIN":"6鄰","STREET":"林森路","SECT":"一段","MAREA":" ","LANE":" ","ALLEY":" ","HOUSE_NO":"３９５號十樓之２","E_COORD97":170196.82999999999,"N_COORD97":2542891.3300000001,"ADDRESS":"林森路一段３９５號十樓之２","OBJECTID":523484},"geometry":{"x":170196.83000000101,"y":2542891.3300000019}},{"attributes":{"ID":523512,"DIS_CODE":0,"TOWNNAME":"東區","LI":"龍山里","LIN":"6鄰","STREET":"林森路","SECT":"一段","MAREA":" ","LANE":" ","ALLEY":" ","HOUSE_NO":"３９５號十樓之３","E_COORD97":170196.82999999999,"N_COORD97":2542891.3300000001,"ADDRESS":"林森路一段３９５號十樓之３","OBJECTID":523485},"geometry":{"x":170196.83000000101,"y":2542891.3300000019}},{"attributes":{"ID":523513,"DIS_CODE":0,"TOWNNAME":"東區","LI":"龍山里","LIN":"6鄰","STREET":"林森路","SECT":"一段","MAREA":" ","LANE":" ","ALLEY":" ","HOUSE_NO":"３９５號十樓之５","E_COORD97":170196.82999999999,"N_COORD97":2542891.3300000001,"ADDRESS":"林森路一段３９５號十樓之５","OBJECTID":523486},"geometry":{"x":170196.83000000101,"y":2542891.3300000019}},{"attributes":{"ID":523514,"DIS_CODE":0,"TOWNNAME":"東區","LI":"龍山里","LIN":"6鄰","STREET":"林森路","SECT":"一段","MAREA":" ","LANE":" ","ALLEY":" ","HOUSE_NO":"３９５號十樓之６","E_COORD97":170196.82999999999,"N_COORD97":2542891.3300000001,"ADDRESS":"林森路一段３９５號十樓之６","OBJECTID":523487},"geometry":{"x":170196.83000000101,"y":2542891.3300000019}},{"attributes":{"ID":523515,"DIS_CODE":0,"TOWNNAME":"東區","LI":"龍山里","LIN":"6鄰","STREET":"林森路","SECT":"一段","MAREA":" ","LANE":" ","ALLEY":" ","HOUSE_NO":"３９５號十樓之７","E_COORD97":170196.82999999999,"N_COORD97":2542891.3300000001,"ADDRESS":"林森路一段３９５號十樓之７","OBJECTID":523488},"geometry":{"x":170196.83000000101,"y":2542891.3300000019}},{"attributes":{"ID":523516,"DIS_CODE":0,"TOWNNAME":"東區","LI":"龍山里","LIN":"6鄰","STREET":"林森路","SECT":"一段","MAREA":" ","LANE":" ","ALLEY":" ","HOUSE_NO":"３９５號十樓之８","E_COORD97":170196.82999999999,"N_COORD97":2542891.3300000001,"ADDRESS":"林森路一段３９５號十樓之８","OBJECTID":523489},"geometry":{"x":170196.83000000101,"y":2542891.3300000019}},{"attributes":{"ID":523517,"DIS_CODE":0,"TOWNNAME":"東區","LI":"龍山里","LIN":"6鄰","STREET":"林森路","SECT":"一段","MAREA":" ","LANE":" ","ALLEY":" ","HOUSE_NO":"３９５號三樓","E_COORD97":170196.82999999999,"N_COORD97":2542891.3300000001,"ADDRESS":"林森路一段３９５號三樓","OBJECTID":523490},"geometry":{"x":170196.83000000101,"y":2542891.3300000019}},{"attributes":{"ID":523518,"DIS_CODE":0,"TOWNNAME":"東區","LI":"龍山里","LIN":"6鄰","STREET":"林森路","SECT":"一段","MAREA":" ","LANE":" ","ALLEY":" ","HOUSE_NO":"３９５號五樓","E_COORD97":170196.82999999999,"N_COORD97":2542891.3300000001,"ADDRESS":"林森路一段３９５號五樓","OBJECTID":523491},"geometry":{"x":170196.83000000101,"y":2542891.3300000019}},{"attributes":{"ID":523519,"DIS_CODE":0,"TOWNNAME":"東區","LI":"龍山里","LIN":"6鄰","STREET":"林森路","SECT":"一段","MAREA":" ","LANE":" ","ALLEY":" ","HOUSE_NO":"３９５號五樓之１","E_COORD97":170196.82999999999,"N_COORD97":2542891.3300000001,"ADDRESS":"林森路一段３９５號五樓之１","OBJECTID":523492},"geometry":{"x":170196.83000000101,"y":2542891.3300000019}},{"attributes":{"ID":523520,"DIS_CODE":0,"TOWNNAME":"東區","LI":"龍山里","LIN":"6鄰","STREET":"林森路","SECT":"一段","MAREA":" ","LANE":" ","ALLEY":" ","HOUSE_NO":"３９５號五樓之２","E_COORD97":170196.82999999999,"N_COORD97":2542891.3300000001,"ADDRESS":"林森路一段３９５號五樓之２","OBJECTID":523493},"geometry":{"x":170196.83000000101,"y":2542891.3300000019}},{"attributes":{"ID":523521,"DIS_CODE":0,"TOWNNAME":"東區","LI":"龍山里","LIN":"6鄰","STREET":"林森路","SECT":"一段","MAREA":" ","LANE":" ","ALLEY":" ","HOUSE_NO":"３９５號五樓之３","E_COORD97":170196.82999999999,"N_COORD97":2542891.3300000001,"ADDRESS":"林森路一段３９５號五樓之３","OBJECTID":523494},"geometry":{"x":170196.83000000101,"y":2542891.3300000019}},{"attributes":{"ID":523522,"DIS_CODE":0,"TOWNNAME":"東區","LI":"龍山里","LIN":"6鄰","STREET":"林森路","SECT":"一段","MAREA":" ","LANE":" ","ALLEY":" ","HOUSE_NO":"３９５號六樓","E_COORD97":170196.82999999999,"N_COORD97":2542891.3300000001,"ADDRESS":"林森路一段３９５號六樓","OBJECTID":523495},"geometry":{"x":170196.83000000101,"y":2542891.3300000019}},{"attributes":{"ID":523523,"DIS_CODE":0,"TOWNNAME":"東區","LI":"龍山里","LIN":"6鄰","STREET":"林森路","SECT":"一段","MAREA":" ","LANE":" ","ALLEY":" ","HOUSE_NO":"３９５號六樓之１","E_COORD97":170196.82999999999,"N_COORD97":2542891.3300000001,"ADDRESS":"林森路一段３９５號六樓之１","OBJECTID":523496},"geometry":{"x":170196.83000000101,"y":2542891.3300000019}},{"attributes":{"ID":523524,"DIS_CODE":0,"TOWNNAME":"東區","LI":"龍山里","LIN":"6鄰","STREET":"林森路","SECT":"一段","MAREA":" ","LANE":" ","ALLEY":" ","HOUSE_NO":"３９５號六樓之１０","E_COORD97":170196.82999999999,"N_COORD97":2542891.3300000001,"ADDRESS":"林森路一段３９５號六樓之１０","OBJECTID":523497},"geometry":{"x":170196.83000000101,"y":2542891.3300000019}},{"attributes":{"ID":523525,"DIS_CODE":0,"TOWNNAME":"東區","LI":"龍山里","LIN":"6鄰","STREET":"林森路","SECT":"一段","MAREA":" ","LANE":" ","ALLEY":" ","HOUSE_NO":"３９５號六樓之１１","E_COORD97":170196.82999999999,"N_COORD97":2542891.3300000001,"ADDRESS":"林森路一段３９５號六樓之１１","OBJECTID":523498},"geometry":{"x":170196.83000000101,"y":2542891.3300000019}},{"attributes":{"ID":523526,"DIS_CODE":0,"TOWNNAME":"東區","LI":"龍山里","LIN":"6鄰","STREET":"林森路","SECT":"一段","MAREA":" ","LANE":" ","ALLEY":" ","HOUSE_NO":"３９５號六樓之１２","E_COORD97":170196.82999999999,"N_COORD97":2542891.3300000001,"ADDRESS":"林森路一段３９５號六樓之１２","OBJECTID":523499},"geometry":{"x":170196.83000000101,"y":2542891.3300000019}},{"attributes":{"ID":523527,"DIS_CODE":0,"TOWNNAME":"東區","LI":"龍山里","LIN":"6鄰","STREET":"林森路","SECT":"一段","MAREA":" ","LANE":" ","ALLEY":" ","HOUSE_NO":"３９５號六樓之２","E_COORD97":170196.82999999999,"N_COORD97":2542891.3300000001,"ADDRESS":"林森路一段３９５號六樓之２","OBJECTID":523500},"geometry":{"x":170196.83000000101,"y":2542891.3300000019}},{"attributes":{"ID":523528,"DIS_CODE":0,"TOWNNAME":"東區","LI":"龍山里","LIN":"6鄰","STREET":"林森路","SECT":"一段","MAREA":" ","LANE":" ","ALLEY":" ","HOUSE_NO":"３９５號六樓之３","E_COORD97":170196.82999999999,"N_COORD97":2542891.3300000001,"ADDRESS":"林森路一段３９５號六樓之３","OBJECTID":523501},"geometry":{"x":170196.83000000101,"y":2542891.3300000019}},{"attributes":{"ID":523529,"DIS_CODE":0,"TOWNNAME":"東區","LI":"龍山里","LIN":"6鄰","STREET":"林森路","SECT":"一段","MAREA":" ","LANE":" ","ALLEY":" ","HOUSE_NO":"３９５號六樓之５","E_COORD97":170196.82999999999,"N_COORD97":2542891.3300000001,"ADDRESS":"林森路一段３９５號六樓之５","OBJECTID":523502},"geometry":{"x":170196.83000000101,"y":2542891.3300000019}},{"attributes":{"ID":523530,"DIS_CODE":0,"TOWNNAME":"南區","LI":"文南里","LIN":"15鄰","STREET":"智南街","SECT":" ","MAREA":" ","LANE":" ","ALLEY":" ","HOUSE_NO":"１號","E_COORD97":166659.32000000001,"N_COORD97":2542803.73,"ADDRESS":"智南街１號","OBJECTID":523503},"geometry":{"x":166659.32000000123,"y":2542803.7300000023}},{"attributes":{"ID":523531,"DIS_CODE":0,"TOWNNAME":"東區","LI":"龍山里","LIN":"6鄰","STREET":"林森路","SECT":"一段","MAREA":" ","LANE":" ","ALLEY":" ","HOUSE_NO":"３９５號六樓之６","E_COORD97":170196.82999999999,"N_COORD97":2542891.3300000001,"ADDRESS":"林森路一段３９５號六樓之６","OBJECTID":523504},"geometry":{"x":170196.83000000101,"y":2542891.3300000019}},{"attributes":{"ID":523532,"DIS_CODE":0,"TOWNNAME":"東區","LI":"德光里","LIN":"6鄰","STREET":"崇明路","SECT":" ","MAREA":" ","LANE":" ","ALLEY":" ","HOUSE_NO":"１３９號八樓","E_COORD97":169868.14999999999,"N_COORD97":2542224.8999999999,"ADDRESS":"崇明路１３９號八樓","OBJECTID":523505},"geometry":{"x":169868.15000000037,"y":2542224.9000000041}},{"attributes":{"ID":523533,"DIS_CODE":0,"TOWNNAME":"東區","LI":"德光里","LIN":"6鄰","STREET":"崇明路","SECT":" ","MAREA":" ","LANE":" ","ALLEY":" ","HOUSE_NO":"１３９號八樓之１","E_COORD97":169868.14999999999,"N_COORD97":2542224.8999999999,"ADDRESS":"崇明路１３９號八樓之１","OBJECTID":523506},"geometry":{"x":169868.15000000037,"y":2542224.9000000041}},{"attributes":{"ID":523534,"DIS_CODE":0,"TOWNNAME":"東區","LI":"德光里","LIN":"6鄰","STREET":"崇明路","SECT":" ","MAREA":" ","LANE":" ","ALLEY":" ","HOUSE_NO":"１３９號八樓之２","E_COORD97":169868.14999999999,"N_COORD97":2542224.8999999999,"ADDRESS":"崇明路１３９號八樓之２","OBJECTID":523507},"geometry":{"x":169868.15000000037,"y":2542224.9000000041}},{"attributes":{"ID":523535,"DIS_CODE":0,"TOWNNAME":"東區","LI":"德光里","LIN":"6鄰","STREET":"崇明路","SECT":" ","MAREA":" ","LANE":" ","ALLEY":" ","HOUSE_NO":"１３９號八樓之３","E_COORD97":169868.14999999999,"N_COORD97":2542224.8999999999,"ADDRESS":"崇明路１３９號八樓之３","OBJECTID":523508},"geometry":{"x":169868.15000000037,"y":2542224.9000000041}},{"attributes":{"ID":523536,"DIS_CODE":0,"TOWNNAME":"東區","LI":"德光里","LIN":"6鄰","STREET":"崇明路","SECT":" ","MAREA":" ","LANE":" ","ALLEY":" ","HOUSE_NO":"１３９號八樓之５","E_COORD97":169868.14999999999,"N_COORD97":2542224.8999999999,"ADDRESS":"崇明路１３９號八樓之５","OBJECTID":523509},"geometry":{"x":169868.15000000037,"y":2542224.9000000041}},{"attributes":{"ID":523537,"DIS_CODE":0,"TOWNNAME":"東區","LI":"德光里","LIN":"6鄰","STREET":"崇明路","SECT":" ","MAREA":" ","LANE":" ","ALLEY":" ","HOUSE_NO":"１３９號十一樓","E_COORD97":169868.14999999999,"N_COORD97":2542224.8999999999,"ADDRESS":"崇明路１３９號十一樓","OBJECTID":523510},"geometry":{"x":169868.15000000037,"y":2542224.9000000041}},{"attributes":{"ID":523538,"DIS_CODE":0,"TOWNNAME":"東區","LI":"德光里","LIN":"6鄰","STREET":"崇明路","SECT":" ","MAREA":" ","LANE":" ","ALLEY":" ","HOUSE_NO":"１３９號十一樓之１","E_COORD97":169868.14999999999,"N_COORD97":2542224.8999999999,"ADDRESS":"崇明路１３９號十一樓之１","OBJECTID":523511},"geometry":{"x":169868.15000000037,"y":2542224.9000000041}},{"attributes":{"ID":523539,"DIS_CODE":0,"TOWNNAME":"東區","LI":"德光里","LIN":"6鄰","STREET":"崇明路","SECT":" ","MAREA":" ","LANE":" ","ALLEY":" ","HOUSE_NO":"１３９號十一樓之２","E_COORD97":169868.14999999999,"N_COORD97":2542224.8999999999,"ADDRESS":"崇明路１３９號十一樓之２","OBJECTID":523512},"geometry":{"x":169868.15000000037,"y":2542224.9000000041}},{"attributes":{"ID":523540,"DIS_CODE":0,"TOWNNAME":"東區","LI":"德光里","LIN":"6鄰","STREET":"崇明路","SECT":" ","MAREA":" ","LANE":" ","ALLEY":" ","HOUSE_NO":"１３９號十一樓之３","E_COORD97":169868.14999999999,"N_COORD97":2542224.8999999999,"ADDRESS":"崇明路１３９號十一樓之３","OBJECTID":523513},"geometry":{"x":169868.15000000037,"y":2542224.9000000041}},{"attributes":{"ID":523541,"DIS_CODE":0,"TOWNNAME":"東區","LI":"德光里","LIN":"6鄰","STREET":"崇明路","SECT":" ","MAREA":" ","LANE":" ","ALLEY":" ","HOUSE_NO":"１３９號十一樓之５","E_COORD97":169868.14999999999,"N_COORD97":2542224.8999999999,"ADDRESS":"崇明路１３９號十一樓之５","OBJECTID":523514},"geometry":{"x":169868.15000000037,"y":2542224.9000000041}},{"attributes":{"ID":523542,"DIS_CODE":0,"TOWNNAME":"東區","LI":"德光里","LIN":"6鄰","STREET":"崇明路","SECT":" ","MAREA":" ","LANE":" ","ALLEY":" ","HOUSE_NO":"１３９號十二樓","E_COORD97":169868.14999999999,"N_COORD97":2542224.8999999999,"ADDRESS":"崇明路１３９號十二樓","OBJECTID":523515},"geometry":{"x":169868.15000000037,"y":2542224.9000000041}},{"attributes":{"ID":523543,"DIS_CODE":0,"TOWNNAME":"南區","LI":"文華里","LIN":"18鄰","STREET":"德南街","SECT":" ","MAREA":" ","LANE":" ","ALLEY":" ","HOUSE_NO":"４５號","E_COORD97":166844.67999999999,"N_COORD97":2543099,"ADDRESS":"德南街４５號","OBJECTID":523516},"geometry":{"x":166844.6799999997,"y":2543099.0000000019}},{"attributes":{"ID":523544,"DIS_CODE":0,"TOWNNAME":"東區","LI":"德光里","LIN":"6鄰","STREET":"崇明路","SECT":" ","MAREA":" ","LANE":" ","ALLEY":" ","HOUSE_NO":"１３９號十二樓之１","E_COORD97":169868.14999999999,"N_COORD97":2542224.8999999999,"ADDRESS":"崇明路１３９號十二樓之１","OBJECTID":523517},"geometry":{"x":169868.15000000037,"y":2542224.9000000041}},{"attributes":{"ID":523545,"DIS_CODE":0,"TOWNNAME":"東區","LI":"德光里","LIN":"6鄰","STREET":"崇明路","SECT":" ","MAREA":" ","LANE":" ","ALLEY":" ","HOUSE_NO":"１３９號十二樓之２","E_COORD97":169868.14999999999,"N_COORD97":2542224.8999999999,"ADDRESS":"崇明路１３９號十二樓之２","OBJECTID":523518},"geometry":{"x":169868.15000000037,"y":2542224.9000000041}},{"attributes":{"ID":523546,"DIS_CODE":0,"TOWNNAME":"東區","LI":"德光里","LIN":"6鄰","STREET":"崇明路","SECT":" ","MAREA":" ","LANE":" ","ALLEY":" ","HOUSE_NO":"１３９號十二樓之３","E_COORD97":169868.14999999999,"N_COORD97":2542224.8999999999,"ADDRESS":"崇明路１３９號十二樓之３","OBJECTID":523519},"geometry":{"x":169868.15000000037,"y":2542224.9000000041}},{"attributes":{"ID":523547,"DIS_CODE":0,"TOWNNAME":"東區","LI":"德光里","LIN":"6鄰","STREET":"崇明路","SECT":" ","MAREA":" ","LANE":" ","ALLEY":" ","HOUSE_NO":"１３９號十二樓之５","E_COORD97":169868.14999999999,"N_COORD97":2542224.8999999999,"ADDRESS":"崇明路１３９號十二樓之５","OBJECTID":523520},"geometry":{"x":169868.15000000037,"y":2542224.9000000041}},{"attributes":{"ID":523548,"DIS_CODE":0,"TOWNNAME":"東區","LI":"德光里","LIN":"6鄰","STREET":"崇明路","SECT":" ","MAREA":" ","LANE":" ","ALLEY":" ","HOUSE_NO":"１３９號十二樓之６","E_COORD97":169868.14999999999,"N_COORD97":2542224.8999999999,"ADDRESS":"崇明路１３９號十二樓之６","OBJECTID":523521},"geometry":{"x":169868.15000000037,"y":2542224.9000000041}},{"attributes":{"ID":523549,"DIS_CODE":0,"TOWNNAME":"東區","LI":"德光里","LIN":"6鄰","STREET":"崇明路","SECT":" ","MAREA":" ","LANE":" ","ALLEY":" ","HOUSE_NO":"１３９號十三樓","E_COORD97":169868.14999999999,"N_COORD97":2542224.8999999999,"ADDRESS":"崇明路１３９號十三樓","OBJECTID":523522},"geometry":{"x":169868.15000000037,"y":2542224.9000000041}},{"attributes":{"ID":523550,"DIS_CODE":0,"TOWNNAME":"東區","LI":"德光里","LIN":"6鄰","STREET":"崇明路","SECT":" ","MAREA":" ","LANE":" ","ALLEY":" ","HOUSE_NO":"１３９號十三樓之１","E_COORD97":169868.14999999999,"N_COORD97":2542224.8999999999,"ADDRESS":"崇明路１３９號十三樓之１","OBJECTID":523523},"geometry":{"x":169868.15000000037,"y":2542224.9000000041}},{"attributes":{"ID":523551,"DIS_CODE":0,"TOWNNAME":"東區","LI":"德光里","LIN":"6鄰","STREET":"崇明路","SECT":" ","MAREA":" ","LANE":" ","ALLEY":" ","HOUSE_NO":"１３９號十三樓之２","E_COORD97":169868.14999999999,"N_COORD97":2542224.8999999999,"ADDRESS":"崇明路１３９號十三樓之２","OBJECTID":523524},"geometry":{"x":169868.15000000037,"y":2542224.9000000041}},{"attributes":{"ID":523552,"DIS_CODE":0,"TOWNNAME":"東區","LI":"德光里","LIN":"6鄰","STREET":"崇明路","SECT":" ","MAREA":" ","LANE":" ","ALLEY":" ","HOUSE_NO":"１３９號十三樓之３","E_COORD97":169868.14999999999,"N_COORD97":2542224.8999999999,"ADDRESS":"崇明路１３９號十三樓之３","OBJECTID":523525},"geometry":{"x":169868.15000000037,"y":2542224.9000000041}},{"attributes":{"ID":523553,"DIS_CODE":0,"TOWNNAME":"東區","LI":"德光里","LIN":"6鄰","STREET":"崇明路","SECT":" ","MAREA":" ","LANE":" ","ALLEY":" ","HOUSE_NO":"１３９號十三樓之５","E_COORD97":169868.14999999999,"N_COORD97":2542224.8999999999,"ADDRESS":"崇明路１３９號十三樓之５","OBJECTID":523526},"geometry":{"x":169868.15000000037,"y":2542224.9000000041}},{"attributes":{"ID":523554,"DIS_CODE":0,"TOWNNAME":"東區","LI":"德光里","LIN":"6鄰","STREET":"崇明路","SECT":" ","MAREA":" ","LANE":" ","ALLEY":" ","HOUSE_NO":"１３９號十五樓","E_COORD97":169868.14999999999,"N_COORD97":2542224.8999999999,"ADDRESS":"崇明路１３９號十五樓","OBJECTID":523527},"geometry":{"x":169868.15000000037,"y":2542224.9000000041}},{"attributes":{"ID":523555,"DIS_CODE":0,"TOWNNAME":"東區","LI":"德光里","LIN":"6鄰","STREET":"崇明路","SECT":" ","MAREA":" ","LANE":" ","ALLEY":" ","HOUSE_NO":"１３９號十五樓之１","E_COORD97":169868.14999999999,"N_COORD97":2542224.8999999999,"ADDRESS":"崇明路１３９號十五樓之１","OBJECTID":523528},"geometry":{"x":169868.15000000037,"y":2542224.9000000041}},{"attributes":{"ID":523556,"DIS_CODE":0,"TOWNNAME":"東區","LI":"德光里","LIN":"6鄰","STREET":"崇明路","SECT":" ","MAREA":" ","LANE":" ","ALLEY":" ","HOUSE_NO":"１３９號十五樓之２","E_COORD97":169868.14999999999,"N_COORD97":2542224.8999999999,"ADDRESS":"崇明路１３９號十五樓之２","OBJECTID":523529},"geometry":{"x":169868.15000000037,"y":2542224.9000000041}},{"attributes":{"ID":523557,"DIS_CODE":0,"TOWNNAME":"東區","LI":"德光里","LIN":"6鄰","STREET":"崇明路","SECT":" ","MAREA":" ","LANE":" ","ALLEY":" ","HOUSE_NO":"１３９號十五樓之３","E_COORD97":169868.14999999999,"N_COORD97":2542224.8999999999,"ADDRESS":"崇明路１３９號十五樓之３","OBJECTID":523530},"geometry":{"x":169868.15000000037,"y":2542224.9000000041}},{"attributes":{"ID":523558,"DIS_CODE":0,"TOWNNAME":"東區","LI":"德光里","LIN":"6鄰","STREET":"崇明路","SECT":" ","MAREA":" ","LANE":" ","ALLEY":" ","HOUSE_NO":"１３９號十五樓之５","E_COORD97":169868.14999999999,"N_COORD97":2542224.8999999999,"ADDRESS":"崇明路１３９號十五樓之５","OBJECTID":523531},"geometry":{"x":169868.15000000037,"y":2542224.9000000041}},{"attributes":{"ID":523559,"DIS_CODE":0,"TOWNNAME":"東區","LI":"德光里","LIN":"6鄰","STREET":"崇明路","SECT":" ","MAREA":" ","LANE":" ","ALLEY":" ","HOUSE_NO":"１３９號十六樓","E_COORD97":169868.14999999999,"N_COORD97":2542224.8999999999,"ADDRESS":"崇明路１３９號十六樓","OBJECTID":523532},"geometry":{"x":169868.15000000037,"y":2542224.9000000041}},{"attributes":{"ID":523560,"DIS_CODE":0,"TOWNNAME":"東區","LI":"德光里","LIN":"6鄰","STREET":"崇明路","SECT":" ","MAREA":" ","LANE":" ","ALLEY":" ","HOUSE_NO":"１３９號十六樓之１","E_COORD97":169868.14999999999,"N_COORD97":2542224.8999999999,"ADDRESS":"崇明路１３９號十六樓之１","OBJECTID":523533},"geometry":{"x":169868.15000000037,"y":2542224.9000000041}},{"attributes":{"ID":523561,"DIS_CODE":0,"TOWNNAME":"東區","LI":"德光里","LIN":"6鄰","STREET":"崇明路","SECT":" ","MAREA":" ","LANE":" ","ALLEY":" ","HOUSE_NO":"１３９號十四樓","E_COORD97":169868.14999999999,"N_COORD97":2542224.8999999999,"ADDRESS":"崇明路１３９號十四樓","OBJECTID":523534},"geometry":{"x":169868.15000000037,"y":2542224.9000000041}},{"attributes":{"ID":523562,"DIS_CODE":0,"TOWNNAME":"東區","LI":"德光里","LIN":"6鄰","STREET":"崇明路","SECT":" ","MAREA":" ","LANE":" ","ALLEY":" ","HOUSE_NO":"１３９號十四樓之１","E_COORD97":169868.14999999999,"N_COORD97":2542224.8999999999,"ADDRESS":"崇明路１３９號十四樓之１","OBJECTID":523535},"geometry":{"x":169868.15000000037,"y":2542224.9000000041}},{"attributes":{"ID":523563,"DIS_CODE":0,"TOWNNAME":"東區","LI":"德光里","LIN":"6鄰","STREET":"崇明路","SECT":" ","MAREA":" ","LANE":" ","ALLEY":" ","HOUSE_NO":"１３９號十四樓之２","E_COORD97":169868.14999999999,"N_COORD97":2542224.8999999999,"ADDRESS":"崇明路１３９號十四樓之２","OBJECTID":523536},"geometry":{"x":169868.15000000037,"y":2542224.9000000041}},{"attributes":{"ID":523564,"DIS_CODE":0,"TOWNNAME":"永康區","LI":"復國里","LIN":"6鄰","STREET":"復國一路","SECT":" ","MAREA":" ","LANE":" ","ALLEY":" ","HOUSE_NO":"１０４號","E_COORD97":172720.88,"N_COORD97":2544962.4700000002,"ADDRESS":"復國一路１０４號","OBJECTID":523537},"geometry":{"x":172720.87999999989,"y":2544962.4700000025}},{"attributes":{"ID":523565,"DIS_CODE":0,"TOWNNAME":"東區","LI":"德光里","LIN":"6鄰","STREET":"崇明路","SECT":" ","MAREA":" ","LANE":" ","ALLEY":" ","HOUSE_NO":"１３９號十四樓之３","E_COORD97":169868.14999999999,"N_COORD97":2542224.8999999999,"ADDRESS":"崇明路１３９號十四樓之３","OBJECTID":523538},"geometry":{"x":169868.15000000037,"y":2542224.9000000041}},{"attributes":{"ID":523566,"DIS_CODE":0,"TOWNNAME":"東區","LI":"德光里","LIN":"6鄰","STREET":"崇明路","SECT":" ","MAREA":" ","LANE":" ","ALLEY":" ","HOUSE_NO":"１３９號十四樓之５","E_COORD97":169868.14999999999,"N_COORD97":2542224.8999999999,"ADDRESS":"崇明路１３９號十四樓之５","OBJECTID":523539},"geometry":{"x":169868.15000000037,"y":2542224.9000000041}},{"attributes":{"ID":523567,"DIS_CODE":0,"TOWNNAME":"東區","LI":"德光里","LIN":"13鄰","STREET":"崇德三街","SECT":" ","MAREA":" ","LANE":" ","ALLEY":" ","HOUSE_NO":"８１號","E_COORD97":170310.34,"N_COORD97":2542340.52,"ADDRESS":"崇德三街８１號","OBJECTID":523540},"geometry":{"x":170310.33999999985,"y":2542340.5199999996}},{"attributes":{"ID":523568,"DIS_CODE":0,"TOWNNAME":"東區","LI":"德光里","LIN":"13鄰","STREET":"崇德三街","SECT":" ","MAREA":" ","LANE":" ","ALLEY":" ","HOUSE_NO":"８３號","E_COORD97":170314.28,"N_COORD97":2542345.5600000001,"ADDRESS":"崇德三街８３號","OBJECTID":523541},"geometry":{"x":170314.28000000119,"y":2542345.5600000005}},{"attributes":{"ID":523569,"DIS_CODE":0,"TOWNNAME":"東區","LI":"德光里","LIN":"13鄰","STREET":"德光街","SECT":" ","MAREA":" ","LANE":" ","ALLEY":" ","HOUSE_NO":"１０１號","E_COORD97":170206.75,"N_COORD97":2542280.2400000002,"ADDRESS":"德光街１０１號","OBJECTID":523542},"geometry":{"x":170206.74999999907,"y":2542280.2400000039}},{"attributes":{"ID":523570,"DIS_CODE":0,"TOWNNAME":"東區","LI":"德光里","LIN":"6鄰","STREET":"崇明路","SECT":" ","MAREA":" ","LANE":" ","ALLEY":" ","HOUSE_NO":"１３９號十樓","E_COORD97":169868.14999999999,"N_COORD97":2542224.8999999999,"ADDRESS":"崇明路１３９號十樓","OBJECTID":523543},"geometry":{"x":169868.15000000037,"y":2542224.9000000041}},{"attributes":{"ID":523571,"DIS_CODE":0,"TOWNNAME":"東區","LI":"德光里","LIN":"6鄰","STREET":"崇明路","SECT":" ","MAREA":" ","LANE":" ","ALLEY":" ","HOUSE_NO":"１３９號十樓之１","E_COORD97":169868.14999999999,"N_COORD97":2542224.8999999999,"ADDRESS":"崇明路１３９號十樓之１","OBJECTID":523544},"geometry":{"x":169868.15000000037,"y":2542224.9000000041}},{"attributes":{"ID":523572,"DIS_CODE":0,"TOWNNAME":"東區","LI":"德光里","LIN":"6鄰","STREET":"崇明路","SECT":" ","MAREA":" ","LANE":" ","ALLEY":" ","HOUSE_NO":"１３９號十樓之２","E_COORD97":169868.14999999999,"N_COORD97":2542224.8999999999,"ADDRESS":"崇明路１３９號十樓之２","OBJECTID":523545},"geometry":{"x":169868.15000000037,"y":2542224.9000000041}},{"attributes":{"ID":523573,"DIS_CODE":0,"TOWNNAME":"東區","LI":"德光里","LIN":"6鄰","STREET":"崇明路","SECT":" ","MAREA":" ","LANE":" ","ALLEY":" ","HOUSE_NO":"１３９號十樓之３","E_COORD97":169868.14999999999,"N_COORD97":2542224.8999999999,"ADDRESS":"崇明路１３９號十樓之３","OBJECTID":523546},"geometry":{"x":169868.15000000037,"y":2542224.9000000041}},{"attributes":{"ID":523574,"DIS_CODE":0,"TOWNNAME":"東區","LI":"德光里","LIN":"6鄰","STREET":"崇明路","SECT":" ","MAREA":" ","LANE":" ","ALLEY":" ","HOUSE_NO":"１３９號十樓之５","E_COORD97":169868.14999999999,"N_COORD97":2542224.8999999999,"ADDRESS":"崇明路１３９號十樓之５","OBJECTID":523547},"geometry":{"x":169868.15000000037,"y":2542224.9000000041}},{"attributes":{"ID":523575,"DIS_CODE":0,"TOWNNAME":"東區","LI":"德光里","LIN":"6鄰","STREET":"崇明路","SECT":" ","MAREA":" ","LANE":" ","ALLEY":" ","HOUSE_NO":"１３９號三樓","E_COORD97":169868.14999999999,"N_COORD97":2542224.8999999999,"ADDRESS":"崇明路１３９號三樓","OBJECTID":523548},"geometry":{"x":169868.15000000037,"y":2542224.9000000041}},{"attributes":{"ID":523576,"DIS_CODE":0,"TOWNNAME":"東區","LI":"德光里","LIN":"6鄰","STREET":"崇明路","SECT":" ","MAREA":" ","LANE":" ","ALLEY":" ","HOUSE_NO":"１３９號三樓之１","E_COORD97":169868.14999999999,"N_COORD97":2542224.8999999999,"ADDRESS":"崇明路１３９號三樓之１","OBJECTID":523549},"geometry":{"x":169868.15000000037,"y":2542224.9000000041}},{"attributes":{"ID":523577,"DIS_CODE":0,"TOWNNAME":"東區","LI":"德光里","LIN":"6鄰","STREET":"崇明路","SECT":" ","MAREA":" ","LANE":" ","ALLEY":" ","HOUSE_NO":"１３９號三樓之２","E_COORD97":169868.14999999999,"N_COORD97":2542224.8999999999,"ADDRESS":"崇明路１３９號三樓之２","OBJECTID":523550},"geometry":{"x":169868.15000000037,"y":2542224.9000000041}},{"attributes":{"ID":523578,"DIS_CODE":0,"TOWNNAME":"東區","LI":"德光里","LIN":"6鄰","STREET":"崇明路","SECT":" ","MAREA":" ","LANE":" ","ALLEY":" ","HOUSE_NO":"１３９號三樓之３","E_COORD97":169868.14999999999,"N_COORD97":2542224.8999999999,"ADDRESS":"崇明路１３９號三樓之３","OBJECTID":523551},"geometry":{"x":169868.15000000037,"y":2542224.9000000041}},{"attributes":{"ID":523579,"DIS_CODE":0,"TOWNNAME":"東區","LI":"德光里","LIN":"6鄰","STREET":"崇明路","SECT":" ","MAREA":" ","LANE":" ","ALLEY":" ","HOUSE_NO":"１３９號三樓之５","E_COORD97":169868.14999999999,"N_COORD97":2542224.8999999999,"ADDRESS":"崇明路１３９號三樓之５","OBJECTID":523552},"geometry":{"x":169868.15000000037,"y":2542224.9000000041}},{"attributes":{"ID":523580,"DIS_CODE":0,"TOWNNAME":"東區","LI":"德光里","LIN":"6鄰","STREET":"崇明路","SECT":" ","MAREA":" ","LANE":" ","ALLEY":" ","HOUSE_NO":"１３９號五樓","E_COORD97":169868.14999999999,"N_COORD97":2542224.8999999999,"ADDRESS":"崇明路１３９號五樓","OBJECTID":523553},"geometry":{"x":169868.15000000037,"y":2542224.9000000041}},{"attributes":{"ID":523581,"DIS_CODE":0,"TOWNNAME":"東區","LI":"德光里","LIN":"6鄰","STREET":"崇明路","SECT":" ","MAREA":" ","LANE":" ","ALLEY":" ","HOUSE_NO":"１３９號五樓之１","E_COORD97":169868.14999999999,"N_COORD97":2542224.8999999999,"ADDRESS":"崇明路１３９號五樓之１","OBJECTID":523554},"geometry":{"x":169868.15000000037,"y":2542224.9000000041}},{"attributes":{"ID":523582,"DIS_CODE":0,"TOWNNAME":"東區","LI":"德光里","LIN":"6鄰","STREET":"崇明路","SECT":" ","MAREA":" ","LANE":" ","ALLEY":" ","HOUSE_NO":"１３９號五樓之２","E_COORD97":169868.14999999999,"N_COORD97":2542224.8999999999,"ADDRESS":"崇明路１３９號五樓之２","OBJECTID":523555},"geometry":{"x":169868.15000000037,"y":2542224.9000000041}},{"attributes":{"ID":523583,"DIS_CODE":0,"TOWNNAME":"東區","LI":"德光里","LIN":"6鄰","STREET":"崇明路","SECT":" ","MAREA":" ","LANE":" ","ALLEY":" ","HOUSE_NO":"１３９號五樓之３","E_COORD97":169868.14999999999,"N_COORD97":2542224.8999999999,"ADDRESS":"崇明路１３９號五樓之３","OBJECTID":523556},"geometry":{"x":169868.15000000037,"y":2542224.9000000041}},{"attributes":{"ID":523584,"DIS_CODE":0,"TOWNNAME":"東區","LI":"德光里","LIN":"6鄰","STREET":"崇明路","SECT":" ","MAREA":" ","LANE":" ","ALLEY":" ","HOUSE_NO":"１３９號六樓","E_COORD97":169868.14999999999,"N_COORD97":2542224.8999999999,"ADDRESS":"崇明路１３９號六樓","OBJECTID":523557},"geometry":{"x":169868.15000000037,"y":2542224.9000000041}},{"attributes":{"ID":523585,"DIS_CODE":0,"TOWNNAME":"東區","LI":"德光里","LIN":"6鄰","STREET":"崇明路","SECT":" ","MAREA":" ","LANE":" ","ALLEY":" ","HOUSE_NO":"１３９號六樓之１","E_COORD97":169868.14999999999,"N_COORD97":2542224.8999999999,"ADDRESS":"崇明路１３９號六樓之１","OBJECTID":523558},"geometry":{"x":169868.15000000037,"y":2542224.9000000041}},{"attributes":{"ID":523586,"DIS_CODE":0,"TOWNNAME":"東區","LI":"德光里","LIN":"6鄰","STREET":"崇明路","SECT":" ","MAREA":" ","LANE":" ","ALLEY":" ","HOUSE_NO":"１３９號六樓之２","E_COORD97":169868.14999999999,"N_COORD97":2542224.8999999999,"ADDRESS":"崇明路１３９號六樓之２","OBJECTID":523559},"geometry":{"x":169868.15000000037,"y":2542224.9000000041}},{"attributes":{"ID":523587,"DIS_CODE":0,"TOWNNAME":"東區","LI":"德光里","LIN":"6鄰","STREET":"崇明路","SECT":" ","MAREA":" ","LANE":" ","ALLEY":" ","HOUSE_NO":"１３９號六樓之３","E_COORD97":169868.14999999999,"N_COORD97":2542224.8999999999,"ADDRESS":"崇明路１３９號六樓之３","OBJECTID":523560},"geometry":{"x":169868.15000000037,"y":2542224.9000000041}},{"attributes":{"ID":523588,"DIS_CODE":0,"TOWNNAME":"東區","LI":"德光里","LIN":"6鄰","STREET":"崇明路","SECT":" ","MAREA":" ","LANE":" ","ALLEY":" ","HOUSE_NO":"１３９號六樓之５","E_COORD97":169868.14999999999,"N_COORD97":2542224.8999999999,"ADDRESS":"崇明路１３９號六樓之５","OBJECTID":523561},"geometry":{"x":169868.15000000037,"y":2542224.9000000041}},{"attributes":{"ID":523589,"DIS_CODE":0,"TOWNNAME":"東區","LI":"德光里","LIN":"6鄰","STREET":"崇明路","SECT":" ","MAREA":" ","LANE":" ","ALLEY":" ","HOUSE_NO":"１３９號六樓之６","E_COORD97":169868.14999999999,"N_COORD97":2542224.8999999999,"ADDRESS":"崇明路１３９號六樓之６","OBJECTID":523562},"geometry":{"x":169868.15000000037,"y":2542224.9000000041}},{"attributes":{"ID":523590,"DIS_CODE":0,"TOWNNAME":"東區","LI":"德光里","LIN":"6鄰","STREET":"崇明路","SECT":" ","MAREA":" ","LANE":" ","ALLEY":" ","HOUSE_NO":"１３９號四樓","E_COORD97":169868.14999999999,"N_COORD97":2542224.8999999999,"ADDRESS":"崇明路１３９號四樓","OBJECTID":523563},"geometry":{"x":169868.15000000037,"y":2542224.9000000041}},{"attributes":{"ID":523591,"DIS_CODE":0,"TOWNNAME":"東區","LI":"德光里","LIN":"6鄰","STREET":"崇明路","SECT":" ","MAREA":" ","LANE":" ","ALLEY":" ","HOUSE_NO":"１３９號四樓之１","E_COORD97":169868.14999999999,"N_COORD97":2542224.8999999999,"ADDRESS":"崇明路１３９號四樓之１","OBJECTID":523564},"geometry":{"x":169868.15000000037,"y":2542224.9000000041}},{"attributes":{"ID":523592,"DIS_CODE":0,"TOWNNAME":"東區","LI":"德光里","LIN":"6鄰","STREET":"崇明路","SECT":" ","MAREA":" ","LANE":" ","ALLEY":" ","HOUSE_NO":"１３９號四樓之２","E_COORD97":169868.14999999999,"N_COORD97":2542224.8999999999,"ADDRESS":"崇明路１３９號四樓之２","OBJECTID":523565},"geometry":{"x":169868.15000000037,"y":2542224.9000000041}},{"attributes":{"ID":523593,"DIS_CODE":0,"TOWNNAME":"東區","LI":"德光里","LIN":"6鄰","STREET":"崇明路","SECT":" ","MAREA":" ","LANE":" ","ALLEY":" ","HOUSE_NO":"１３９號四樓之３","E_COORD97":169868.14999999999,"N_COORD97":2542224.8999999999,"ADDRESS":"崇明路１３９號四樓之３","OBJECTID":523566},"geometry":{"x":169868.15000000037,"y":2542224.9000000041}},{"attributes":{"ID":523594,"DIS_CODE":0,"TOWNNAME":"東區","LI":"德光里","LIN":"6鄰","STREET":"崇明路","SECT":" ","MAREA":" ","LANE":" ","ALLEY":" ","HOUSE_NO":"１３９號四樓之５","E_COORD97":169868.14999999999,"N_COORD97":2542224.8999999999,"ADDRESS":"崇明路１３９號四樓之５","OBJECTID":523567},"geometry":{"x":169868.15000000037,"y":2542224.9000000041}},{"attributes":{"ID":523595,"DIS_CODE":0,"TOWNNAME":"東區","LI":"德光里","LIN":"6鄰","STREET":"崇明路","SECT":" ","MAREA":" ","LANE":" ","ALLEY":" ","HOUSE_NO":"１４７號七樓","E_COORD97":169886,"N_COORD97":2542231.0800000001,"ADDRESS":"崇明路１４７號七樓","OBJECTID":523568},"geometry":{"x":169886,"y":2542231.0800000019}},{"attributes":{"ID":523596,"DIS_CODE":0,"TOWNNAME":"東區","LI":"德光里","LIN":"6鄰","STREET":"崇明路","SECT":" ","MAREA":" ","LANE":" ","ALLEY":" ","HOUSE_NO":"１４７號七樓之１","E_COORD97":169886,"N_COORD97":2542231.0800000001,"ADDRESS":"崇明路１４７號七樓之１","OBJECTID":523569},"geometry":{"x":169886,"y":2542231.0800000019}},{"attributes":{"ID":523597,"DIS_CODE":0,"TOWNNAME":"東區","LI":"德光里","LIN":"6鄰","STREET":"崇明路","SECT":" ","MAREA":" ","LANE":" ","ALLEY":" ","HOUSE_NO":"１４７號七樓之２","E_COORD97":169886,"N_COORD97":2542231.0800000001,"ADDRESS":"崇明路１４７號七樓之２","OBJECTID":523570},"geometry":{"x":169886,"y":2542231.0800000019}},{"attributes":{"ID":523598,"DIS_CODE":0,"TOWNNAME":"東區","LI":"德光里","LIN":"6鄰","STREET":"崇明路","SECT":" ","MAREA":" ","LANE":" ","ALLEY":" ","HOUSE_NO":"１４７號七樓之３","E_COORD97":169886,"N_COORD97":2542231.0800000001,"ADDRESS":"崇明路１４７號七樓之３","OBJECTID":523571},"geometry":{"x":169886,"y":2542231.0800000019}},{"attributes":{"ID":523599,"DIS_CODE":0,"TOWNNAME":"東區","LI":"德光里","LIN":"6鄰","STREET":"崇明路","SECT":" ","MAREA":" ","LANE":" ","ALLEY":" ","HOUSE_NO":"１４７號九樓","E_COORD97":169886,"N_COORD97":2542231.0800000001,"ADDRESS":"崇明路１４７號九樓","OBJECTID":523572},"geometry":{"x":169886,"y":2542231.0800000019}},{"attributes":{"ID":523600,"DIS_CODE":0,"TOWNNAME":"東區","LI":"德光里","LIN":"6鄰","STREET":"崇明路","SECT":" ","MAREA":" ","LANE":" ","ALLEY":" ","HOUSE_NO":"１４７號九樓之１","E_COORD97":169886,"N_COORD97":2542231.0800000001,"ADDRESS":"崇明路１４７號九樓之１","OBJECTID":523573},"geometry":{"x":169886,"y":2542231.0800000019}},{"attributes":{"ID":523601,"DIS_CODE":0,"TOWNNAME":"東區","LI":"德光里","LIN":"6鄰","STREET":"崇明路","SECT":" ","MAREA":" ","LANE":" ","ALLEY":" ","HOUSE_NO":"１４７號九樓之２","E_COORD97":169886,"N_COORD97":2542231.0800000001,"ADDRESS":"崇明路１４７號九樓之２","OBJECTID":523574},"geometry":{"x":169886,"y":2542231.0800000019}},{"attributes":{"ID":523602,"DIS_CODE":0,"TOWNNAME":"東區","LI":"德光里","LIN":"6鄰","STREET":"崇明路","SECT":" ","MAREA":" ","LANE":" ","ALLEY":" ","HOUSE_NO":"１４７號八樓","E_COORD97":169886,"N_COORD97":2542231.0800000001,"ADDRESS":"崇明路１４７號八樓","OBJECTID":523575},"geometry":{"x":169886,"y":2542231.0800000019}},{"attributes":{"ID":523603,"DIS_CODE":0,"TOWNNAME":"東區","LI":"德光里","LIN":"6鄰","STREET":"崇明路","SECT":" ","MAREA":" ","LANE":" ","ALLEY":" ","HOUSE_NO":"１４７號八樓之１","E_COORD97":169886,"N_COORD97":2542231.0800000001,"ADDRESS":"崇明路１４７號八樓之１","OBJECTID":523576},"geometry":{"x":169886,"y":2542231.0800000019}},{"attributes":{"ID":523604,"DIS_CODE":0,"TOWNNAME":"東區","LI":"德光里","LIN":"6鄰","STREET":"崇明路","SECT":" ","MAREA":" ","LANE":" ","ALLEY":" ","HOUSE_NO":"１４７號八樓之２","E_COORD97":169886,"N_COORD97":2542231.0800000001,"ADDRESS":"崇明路１４７號八樓之２","OBJECTID":523577},"geometry":{"x":169886,"y":2542231.0800000019}},{"attributes":{"ID":523605,"DIS_CODE":0,"TOWNNAME":"東區","LI":"德光里","LIN":"6鄰","STREET":"崇明路","SECT":" ","MAREA":" ","LANE":" ","ALLEY":" ","HOUSE_NO":"１４７號八樓之３","E_COORD97":169886,"N_COORD97":2542231.0800000001,"ADDRESS":"崇明路１４７號八樓之３","OBJECTID":523578},"geometry":{"x":169886,"y":2542231.0800000019}},{"attributes":{"ID":523606,"DIS_CODE":0,"TOWNNAME":"東區","LI":"德光里","LIN":"6鄰","STREET":"崇明路","SECT":" ","MAREA":" ","LANE":" ","ALLEY":" ","HOUSE_NO":"１４７號十一樓","E_COORD97":169886,"N_COORD97":2542231.0800000001,"ADDRESS":"崇明路１４７號十一樓","OBJECTID":523579},"geometry":{"x":169886,"y":2542231.0800000019}},{"attributes":{"ID":523607,"DIS_CODE":0,"TOWNNAME":"東區","LI":"德光里","LIN":"6鄰","STREET":"崇明路","SECT":" ","MAREA":" ","LANE":" ","ALLEY":" ","HOUSE_NO":"１４７號十一樓之１","E_COORD97":169886,"N_COORD97":2542231.0800000001,"ADDRESS":"崇明路１４７號十一樓之１","OBJECTID":523580},"geometry":{"x":169886,"y":2542231.0800000019}},{"attributes":{"ID":523608,"DIS_CODE":0,"TOWNNAME":"東區","LI":"德光里","LIN":"6鄰","STREET":"崇明路","SECT":" ","MAREA":" ","LANE":" ","ALLEY":" ","HOUSE_NO":"１４７號十一樓之２","E_COORD97":169886,"N_COORD97":2542231.0800000001,"ADDRESS":"崇明路１４７號十一樓之２","OBJECTID":523581},"geometry":{"x":169886,"y":2542231.0800000019}},{"attributes":{"ID":523609,"DIS_CODE":0,"TOWNNAME":"東區","LI":"德光里","LIN":"6鄰","STREET":"崇明路","SECT":" ","MAREA":" ","LANE":" ","ALLEY":" ","HOUSE_NO":"１４７號十一樓之３","E_COORD97":169886,"N_COORD97":2542231.0800000001,"ADDRESS":"崇明路１４７號十一樓之３","OBJECTID":523582},"geometry":{"x":169886,"y":2542231.0800000019}},{"attributes":{"ID":523610,"DIS_CODE":0,"TOWNNAME":"東區","LI":"德光里","LIN":"6鄰","STREET":"崇明路","SECT":" ","MAREA":" ","LANE":" ","ALLEY":" ","HOUSE_NO":"１４７號十二樓","E_COORD97":169886,"N_COORD97":2542231.0800000001,"ADDRESS":"崇明路１４７號十二樓","OBJECTID":523583},"geometry":{"x":169886,"y":2542231.0800000019}},{"attributes":{"ID":523611,"DIS_CODE":0,"TOWNNAME":"東區","LI":"德光里","LIN":"6鄰","STREET":"崇明路","SECT":" ","MAREA":" ","LANE":" ","ALLEY":" ","HOUSE_NO":"１４７號十二樓之１","E_COORD97":169886,"N_COORD97":2542231.0800000001,"ADDRESS":"崇明路１４７號十二樓之１","OBJECTID":523584},"geometry":{"x":169886,"y":2542231.0800000019}},{"attributes":{"ID":523612,"DIS_CODE":0,"TOWNNAME":"東區","LI":"德光里","LIN":"6鄰","STREET":"崇明路","SECT":" ","MAREA":" ","LANE":" ","ALLEY":" ","HOUSE_NO":"１４７號十二樓之２","E_COORD97":169886,"N_COORD97":2542231.0800000001,"ADDRESS":"崇明路１４７號十二樓之２","OBJECTID":523585},"geometry":{"x":169886,"y":2542231.0800000019}},{"attributes":{"ID":523613,"DIS_CODE":0,"TOWNNAME":"東區","LI":"德光里","LIN":"6鄰","STREET":"崇明路","SECT":" ","MAREA":" ","LANE":" ","ALLEY":" ","HOUSE_NO":"１４７號十二樓之３","E_COORD97":169886,"N_COORD97":2542231.0800000001,"ADDRESS":"崇明路１４７號十二樓之３","OBJECTID":523586},"geometry":{"x":169886,"y":2542231.0800000019}},{"attributes":{"ID":523614,"DIS_CODE":0,"TOWNNAME":"東區","LI":"德光里","LIN":"6鄰","STREET":"崇明路","SECT":" ","MAREA":" ","LANE":" ","ALLEY":" ","HOUSE_NO":"１４７號十三樓","E_COORD97":169886,"N_COORD97":2542231.0800000001,"ADDRESS":"崇明路１４７號十三樓","OBJECTID":523587},"geometry":{"x":169886,"y":2542231.0800000019}},{"attributes":{"ID":523615,"DIS_CODE":0,"TOWNNAME":"東區","LI":"德光里","LIN":"6鄰","STREET":"崇明路","SECT":" ","MAREA":" ","LANE":" ","ALLEY":" ","HOUSE_NO":"１４７號十三樓之１","E_COORD97":169886,"N_COORD97":2542231.0800000001,"ADDRESS":"崇明路１４７號十三樓之１","OBJECTID":523588},"geometry":{"x":169886,"y":2542231.0800000019}},{"attributes":{"ID":523616,"DIS_CODE":0,"TOWNNAME":"東區","LI":"德光里","LIN":"6鄰","STREET":"崇明路","SECT":" ","MAREA":" ","LANE":" ","ALLEY":" ","HOUSE_NO":"１４７號十三樓之２","E_COORD97":169886,"N_COORD97":2542231.0800000001,"ADDRESS":"崇明路１４７號十三樓之２","OBJECTID":523589},"geometry":{"x":169886,"y":2542231.0800000019}},{"attributes":{"ID":523617,"DIS_CODE":0,"TOWNNAME":"東區","LI":"德光里","LIN":"6鄰","STREET":"崇明路","SECT":" ","MAREA":" ","LANE":" ","ALLEY":" ","HOUSE_NO":"１４７號十三樓之３","E_COORD97":169886,"N_COORD97":2542231.0800000001,"ADDRESS":"崇明路１４７號十三樓之３","OBJECTID":523590},"geometry":{"x":169886,"y":2542231.0800000019}},{"attributes":{"ID":523618,"DIS_CODE":0,"TOWNNAME":"東區","LI":"德光里","LIN":"6鄰","STREET":"崇明路","SECT":" ","MAREA":" ","LANE":" ","ALLEY":" ","HOUSE_NO":"１４７號十五樓","E_COORD97":169886,"N_COORD97":2542231.0800000001,"ADDRESS":"崇明路１４７號十五樓","OBJECTID":523591},"geometry":{"x":169886,"y":2542231.0800000019}},{"attributes":{"ID":523619,"DIS_CODE":0,"TOWNNAME":"東區","LI":"德光里","LIN":"6鄰","STREET":"崇明路","SECT":" ","MAREA":" ","LANE":" ","ALLEY":" ","HOUSE_NO":"１４７號十五樓之１","E_COORD97":169886,"N_COORD97":2542231.0800000001,"ADDRESS":"崇明路１４７號十五樓之１","OBJECTID":523592},"geometry":{"x":169886,"y":2542231.0800000019}},{"attributes":{"ID":523620,"DIS_CODE":0,"TOWNNAME":"東區","LI":"德光里","LIN":"6鄰","STREET":"崇明路","SECT":" ","MAREA":" ","LANE":" ","ALLEY":" ","HOUSE_NO":"１４７號十五樓之２","E_COORD97":169886,"N_COORD97":2542231.0800000001,"ADDRESS":"崇明路１４７號十五樓之２","OBJECTID":523593},"geometry":{"x":169886,"y":2542231.0800000019}},{"attributes":{"ID":523621,"DIS_CODE":0,"TOWNNAME":"東區","LI":"德光里","LIN":"6鄰","STREET":"崇明路","SECT":" ","MAREA":" ","LANE":" ","ALLEY":" ","HOUSE_NO":"１４７號十四樓","E_COORD97":169886,"N_COORD97":2542231.0800000001,"ADDRESS":"崇明路１４７號十四樓","OBJECTID":523594},"geometry":{"x":169886,"y":2542231.0800000019}},{"attributes":{"ID":523622,"DIS_CODE":0,"TOWNNAME":"東區","LI":"德光里","LIN":"6鄰","STREET":"崇明路","SECT":" ","MAREA":" ","LANE":" ","ALLEY":" ","HOUSE_NO":"１４７號十四樓之１","E_COORD97":169886,"N_COORD97":2542231.0800000001,"ADDRESS":"崇明路１４７號十四樓之１","OBJECTID":523595},"geometry":{"x":169886,"y":2542231.0800000019}},{"attributes":{"ID":523623,"DIS_CODE":0,"TOWNNAME":"東區","LI":"德光里","LIN":"6鄰","STREET":"崇明路","SECT":" ","MAREA":" ","LANE":" ","ALLEY":" ","HOUSE_NO":"１４７號十四樓之２","E_COORD97":169886,"N_COORD97":2542231.0800000001,"ADDRESS":"崇明路１４７號十四樓之２","OBJECTID":523596},"geometry":{"x":169886,"y":2542231.0800000019}},{"attributes":{"ID":523624,"DIS_CODE":0,"TOWNNAME":"東區","LI":"德光里","LIN":"6鄰","STREET":"崇明路","SECT":" ","MAREA":" ","LANE":" ","ALLEY":" ","HOUSE_NO":"１４７號十四樓之３","E_COORD97":169886,"N_COORD97":2542231.0800000001,"ADDRESS":"崇明路１４７號十四樓之３","OBJECTID":523597},"geometry":{"x":169886,"y":2542231.0800000019}},{"attributes":{"ID":523625,"DIS_CODE":0,"TOWNNAME":"東區","LI":"德光里","LIN":"6鄰","STREET":"崇明路","SECT":" ","MAREA":" ","LANE":" ","ALLEY":" ","HOUSE_NO":"１４７號十樓","E_COORD97":169886,"N_COORD97":2542231.0800000001,"ADDRESS":"崇明路１４７號十樓","OBJECTID":523598},"geometry":{"x":169886,"y":2542231.0800000019}},{"attributes":{"ID":523626,"DIS_CODE":0,"TOWNNAME":"東區","LI":"德光里","LIN":"6鄰","STREET":"崇明路","SECT":" ","MAREA":" ","LANE":" ","ALLEY":" ","HOUSE_NO":"１４７號十樓之１","E_COORD97":169886,"N_COORD97":2542231.0800000001,"ADDRESS":"崇明路１４７號十樓之１","OBJECTID":523599},"geometry":{"x":169886,"y":2542231.0800000019}},{"attributes":{"ID":523627,"DIS_CODE":0,"TOWNNAME":"東區","LI":"德光里","LIN":"6鄰","STREET":"崇明路","SECT":" ","MAREA":" ","LANE":" ","ALLEY":" ","HOUSE_NO":"１４７號十樓之２","E_COORD97":169886,"N_COORD97":2542231.0800000001,"ADDRESS":"崇明路１４７號十樓之２","OBJECTID":523600},"geometry":{"x":169886,"y":2542231.0800000019}}]}