{"displayFieldName":"TOWNNAME","fieldAliases":{"ID":"ID","DIS_CODE":"DIS_CODE","TOWNNAME":"TOWNNAME","LI":"LI","LIN":"LIN","STREET":"STREET","SECT":"SECT","MAREA":"MAREA","LANE":"LANE","ALLEY":"ALLEY","HOUSE_NO":"HOUSE_NO","E_COORD97":"E_COORD97","N_COORD97":"N_COORD97","ADDRESS":"ADDRESS","OBJECTID":"OBJECTID"},"geometryType":"esriGeometryPoint","spatialReference":{"wkid":102443,"latestWkid":3826},"fields":[{"name":"ID","type":"esriFieldTypeDouble","alias":"ID"},{"name":"DIS_CODE","type":"esriFieldTypeInteger","alias":"DIS_CODE"},{"name":"TOWNNAME","type":"esriFieldTypeString","alias":"TOWNNAME","length":8},{"name":"LI","type":"esriFieldTypeString","alias":"LI","length":8},{"name":"LIN","type":"esriFieldTypeString","alias":"LIN","length":12},{"name":"STREET","type":"esriFieldTypeString","alias":"STREET","length":20},{"name":"SECT","type":"esriFieldTypeString","alias":"SECT","length":8},{"name":"MAREA","type":"esriFieldTypeString","alias":"MAREA","length":12},{"name":"LANE","type":"esriFieldTypeString","alias":"LANE","length":10},{"name":"ALLEY","type":"esriFieldTypeString","alias":"ALLEY","length":10},{"name":"HOUSE_NO","type":"esriFieldTypeString","alias":"HOUSE_NO","length":20},{"name":"E_COORD97","type":"esriFieldTypeDouble","alias":"E_COORD97"},{"name":"N_COORD97","type":"esriFieldTypeDouble","alias":"N_COORD97"},{"name":"ADDRESS","type":"esriFieldTypeString","alias":"ADDRESS","length":50},{"name":"OBJECTID","type":"esriFieldTypeOID","alias":"OBJECTID"}],"features":[{"attributes":{"ID":534428,"DIS_CODE":0,"TOWNNAME":"永康區","LI":"烏竹里","LIN":"19鄰","STREET":"自強路","SECT":" ","MAREA":" ","LANE":" ","ALLEY":" ","HOUSE_NO":"７２７號","E_COORD97":174396.92000000001,"N_COORD97":2548505.5600000001,"ADDRESS":"自強路７２７號","OBJECTID":534401},"geometry":{"x":174396.92000000086,"y":2548505.5600000005}},{"attributes":{"ID":534429,"DIS_CODE":0,"TOWNNAME":"永康區","LI":"勝利里","LIN":"19鄰","STREET":"中華一路","SECT":" ","MAREA":" ","LANE":" ","ALLEY":" ","HOUSE_NO":"２７２號","E_COORD97":171320.67000000001,"N_COORD97":2544991.29,"ADDRESS":"中華一路２７２號","OBJECTID":534402},"geometry":{"x":171320.66999999993,"y":2544991.290000001}},{"attributes":{"ID":534430,"DIS_CODE":0,"TOWNNAME":"永康區","LI":"烏竹里","LIN":"19鄰","STREET":"自強路","SECT":" ","MAREA":" ","LANE":" ","ALLEY":" ","HOUSE_NO":"７６５號","E_COORD97":174462.28,"N_COORD97":2548555.2999999998,"ADDRESS":"自強路７６５號","OBJECTID":534403},"geometry":{"x":174462.28000000119,"y":2548555.3000000007}},{"attributes":{"ID":534431,"DIS_CODE":0,"TOWNNAME":"永康區","LI":"烏竹里","LIN":"19鄰","STREET":"自強路","SECT":" ","MAREA":" ","LANE":" ","ALLEY":" ","HOUSE_NO":"７３５號","E_COORD97":174410.14000000001,"N_COORD97":2548516.0600000001,"ADDRESS":"自強路７３５號","OBJECTID":534404},"geometry":{"x":174410.1400000006,"y":2548516.0600000005}},{"attributes":{"ID":534432,"DIS_CODE":0,"TOWNNAME":"永康區","LI":"烏竹里","LIN":"19鄰","STREET":"自強路","SECT":" ","MAREA":" ","LANE":" ","ALLEY":" ","HOUSE_NO":"７４９號","E_COORD97":174435.92999999999,"N_COORD97":2548534.5499999998,"ADDRESS":"自強路７４９號","OBJECTID":534405},"geometry":{"x":174435.9299999997,"y":2548534.5500000026}},{"attributes":{"ID":534433,"DIS_CODE":0,"TOWNNAME":"永康區","LI":"中華里","LIN":"19鄰","STREET":"華興街","SECT":" ","MAREA":" ","LANE":" ","ALLEY":" ","HOUSE_NO":"１３５號","E_COORD97":171653.32999999999,"N_COORD97":2544559.9900000002,"ADDRESS":"華興街１３５號","OBJECTID":534406},"geometry":{"x":171653.33000000007,"y":2544559.9899999984}},{"attributes":{"ID":534434,"DIS_CODE":0,"TOWNNAME":"永康區","LI":"烏竹里","LIN":"19鄰","STREET":"自強路","SECT":" ","MAREA":" ","LANE":" ","ALLEY":" ","HOUSE_NO":"７６１號","E_COORD97":174452.06,"N_COORD97":2548547.48,"ADDRESS":"自強路７６１號","OBJECTID":534407},"geometry":{"x":174452.05999999959,"y":2548547.4799999986}},{"attributes":{"ID":534435,"DIS_CODE":0,"TOWNNAME":"永康區","LI":"崑山里","LIN":"19鄰","STREET":"大灣路","SECT":" ","MAREA":" ","LANE":" ","ALLEY":" ","HOUSE_NO":"８８２號","E_COORD97":173770.01000000001,"N_COORD97":2544459.5800000001,"ADDRESS":"大灣路８８２號","OBJECTID":534408},"geometry":{"x":173770.01000000071,"y":2544459.5800000001}},{"attributes":{"ID":534436,"DIS_CODE":0,"TOWNNAME":"永康區","LI":"崑山里","LIN":"19鄰","STREET":"國光一街","SECT":" ","MAREA":" ","LANE":" ","ALLEY":" ","HOUSE_NO":"２５號","E_COORD97":173951.84,"N_COORD97":2544592.3799999999,"ADDRESS":"國光一街２５號","OBJECTID":534409},"geometry":{"x":173951.83999999985,"y":2544592.379999999}},{"attributes":{"ID":534437,"DIS_CODE":0,"TOWNNAME":"永康區","LI":"崑山里","LIN":"19鄰","STREET":"崑山街","SECT":" ","MAREA":" ","LANE":" ","ALLEY":" ","HOUSE_NO":"２２號","E_COORD97":173933.42000000001,"N_COORD97":2544580.6400000001,"ADDRESS":"崑山街２２號","OBJECTID":534410},"geometry":{"x":173933.42000000179,"y":2544580.6400000025}},{"attributes":{"ID":534438,"DIS_CODE":0,"TOWNNAME":"永康區","LI":"烏竹里","LIN":"19鄰","STREET":"自強路","SECT":" ","MAREA":" ","LANE":" ","ALLEY":" ","HOUSE_NO":"７３３號","E_COORD97":174407.09,"N_COORD97":2548513.3100000001,"ADDRESS":"自強路７３３號","OBJECTID":534411},"geometry":{"x":174407.09000000078,"y":2548513.3100000005}},{"attributes":{"ID":534439,"DIS_CODE":0,"TOWNNAME":"永康區","LI":"烏竹里","LIN":"19鄰","STREET":"自強路","SECT":" ","MAREA":" ","LANE":" ","ALLEY":" ","HOUSE_NO":"７７１號","E_COORD97":174471.98999999999,"N_COORD97":2548563.5499999998,"ADDRESS":"自強路７７１號","OBJECTID":534412},"geometry":{"x":174471.99000000022,"y":2548563.5500000007}},{"attributes":{"ID":534440,"DIS_CODE":0,"TOWNNAME":"永康區","LI":"勝利里","LIN":"19鄰","STREET":"中華一路","SECT":" ","MAREA":" ","LANE":" ","ALLEY":" ","HOUSE_NO":"２７４號","E_COORD97":171315.79000000001,"N_COORD97":2544991.5,"ADDRESS":"中華一路２７４號","OBJECTID":534413},"geometry":{"x":171315.79000000097,"y":2544991.5000000019}},{"attributes":{"ID":534441,"DIS_CODE":0,"TOWNNAME":"永康區","LI":"勝利里","LIN":"19鄰","STREET":"中華一路","SECT":" ","MAREA":" ","LANE":" ","ALLEY":" ","HOUSE_NO":"２７６號","E_COORD97":171311.19,"N_COORD97":2544991.75,"ADDRESS":"中華一路２７６號","OBJECTID":534414},"geometry":{"x":171311.19000000227,"y":2544991.75}},{"attributes":{"ID":534442,"DIS_CODE":0,"TOWNNAME":"永康區","LI":"烏竹里","LIN":"19鄰","STREET":"自強路","SECT":" ","MAREA":" ","LANE":" ","ALLEY":" ","HOUSE_NO":"７３７號","E_COORD97":174413.73999999999,"N_COORD97":2548518.8100000001,"ADDRESS":"自強路７３７號","OBJECTID":534415},"geometry":{"x":174413.74000000115,"y":2548518.8100000024}},{"attributes":{"ID":534443,"DIS_CODE":0,"TOWNNAME":"永康區","LI":"崑山里","LIN":"19鄰","STREET":"國光一街","SECT":" ","MAREA":" ","LANE":" ","ALLEY":" ","HOUSE_NO":"２７號","E_COORD97":173947.31,"N_COORD97":2544594.1299999999,"ADDRESS":"國光一街２７號","OBJECTID":534416},"geometry":{"x":173947.31000000145,"y":2544594.129999999}},{"attributes":{"ID":534444,"DIS_CODE":0,"TOWNNAME":"永康區","LI":"崑山里","LIN":"19鄰","STREET":"大仁街","SECT":" ","MAREA":" ","LANE":" ","ALLEY":" ","HOUSE_NO":"９之２號","E_COORD97":173802.57000000001,"N_COORD97":2544518.71,"ADDRESS":"大仁街９之２號","OBJECTID":534417},"geometry":{"x":173802.57000000123,"y":2544518.7100000046}},{"attributes":{"ID":534445,"DIS_CODE":0,"TOWNNAME":"永康區","LI":"勝利里","LIN":"19鄰","STREET":"中華一路","SECT":" ","MAREA":" ","LANE":" ","ALLEY":" ","HOUSE_NO":"２８２號","E_COORD97":171300.67000000001,"N_COORD97":2544992.75,"ADDRESS":"中華一路２８２號","OBJECTID":534418},"geometry":{"x":171300.67000000179,"y":2544992.7500000019}},{"attributes":{"ID":534446,"DIS_CODE":0,"TOWNNAME":"永康區","LI":"崑山里","LIN":"19鄰","STREET":"大仁街","SECT":" ","MAREA":" ","LANE":" ","ALLEY":" ","HOUSE_NO":"９之５號","E_COORD97":173799.45000000001,"N_COORD97":2544527.6400000001,"ADDRESS":"大仁街９之５號","OBJECTID":534419},"geometry":{"x":173799.45000000205,"y":2544527.6400000006}},{"attributes":{"ID":534447,"DIS_CODE":0,"TOWNNAME":"永康區","LI":"烏竹里","LIN":"19鄰","STREET":"自強路","SECT":" ","MAREA":" ","LANE":" ","ALLEY":" ","HOUSE_NO":"７２９號","E_COORD97":174400.39000000001,"N_COORD97":2548508.5600000001,"ADDRESS":"自強路７２９號","OBJECTID":534420},"geometry":{"x":174400.38999999966,"y":2548508.5600000005}},{"attributes":{"ID":534448,"DIS_CODE":0,"TOWNNAME":"永康區","LI":"烏竹里","LIN":"19鄰","STREET":"自強路","SECT":" ","MAREA":" ","LANE":" ","ALLEY":" ","HOUSE_NO":"７４１號","E_COORD97":174421.72,"N_COORD97":2548524.0600000001,"ADDRESS":"自強路７４１號","OBJECTID":534421},"geometry":{"x":174421.72000000067,"y":2548524.0600000024}},{"attributes":{"ID":534449,"DIS_CODE":0,"TOWNNAME":"永康區","LI":"勝利里","LIN":"19鄰","STREET":"中華一路","SECT":" ","MAREA":" ","LANE":" ","ALLEY":" ","HOUSE_NO":"２７０號","E_COORD97":171326.95000000001,"N_COORD97":2544990.8999999999,"ADDRESS":"中華一路２７０號","OBJECTID":534422},"geometry":{"x":171326.95000000112,"y":2544990.9000000004}},{"attributes":{"ID":534450,"DIS_CODE":0,"TOWNNAME":"永康區","LI":"烏竹里","LIN":"19鄰","STREET":"自強路","SECT":" ","MAREA":" ","LANE":" ","ALLEY":" ","HOUSE_NO":"７４３號","E_COORD97":174425.29000000001,"N_COORD97":2548526.3100000001,"ADDRESS":"自強路７４３號","OBJECTID":534423},"geometry":{"x":174425.29000000004,"y":2548526.3100000024}},{"attributes":{"ID":534451,"DIS_CODE":0,"TOWNNAME":"永康區","LI":"烏竹里","LIN":"19鄰","STREET":"自強路","SECT":" ","MAREA":" ","LANE":" ","ALLEY":" ","HOUSE_NO":"７６９號","E_COORD97":174469.19,"N_COORD97":2548561.0499999998,"ADDRESS":"自強路７６９號","OBJECTID":534424},"geometry":{"x":174469.19000000041,"y":2548561.0500000045}},{"attributes":{"ID":534452,"DIS_CODE":0,"TOWNNAME":"安南區","LI":"溪東里","LIN":"19鄰","STREET":"郡安路","SECT":"五段","MAREA":" ","LANE":" ","ALLEY":" ","HOUSE_NO":"３之１號","E_COORD97":168426.75,"N_COORD97":2547654.7000000002,"ADDRESS":"郡安路五段３之１號","OBJECTID":534425},"geometry":{"x":168426.75,"y":2547654.7000000011}},{"attributes":{"ID":534453,"DIS_CODE":0,"TOWNNAME":"仁德區","LI":"成功里","LIN":"19鄰","STREET":"保生路","SECT":" ","MAREA":" ","LANE":" ","ALLEY":" ","HOUSE_NO":"２１號","E_COORD97":170852.29999999999,"N_COORD97":2539769.2400000002,"ADDRESS":"保生路２１號","OBJECTID":534426},"geometry":{"x":170852.30000000168,"y":2539769.2400000021}},{"attributes":{"ID":534454,"DIS_CODE":0,"TOWNNAME":"仁德區","LI":"保安里","LIN":"19鄰","STREET":"中正路","SECT":"一段","MAREA":" ","LANE":" ","ALLEY":" ","HOUSE_NO":"３３６號","E_COORD97":171965.09,"N_COORD97":2536063.2799999998,"ADDRESS":"中正路一段３３６號","OBJECTID":534427},"geometry":{"x":171965.08999999985,"y":2536063.2799999993}},{"attributes":{"ID":534455,"DIS_CODE":0,"TOWNNAME":"仁德區","LI":"保安里","LIN":"19鄰","STREET":"中正路","SECT":"一段","MAREA":" ","LANE":" ","ALLEY":" ","HOUSE_NO":"３３２號","E_COORD97":171877.42999999999,"N_COORD97":2536001.77,"ADDRESS":"中正路一段３３２號","OBJECTID":534428},"geometry":{"x":171877.43000000063,"y":2536001.7700000014}},{"attributes":{"ID":534456,"DIS_CODE":0,"TOWNNAME":"仁德區","LI":"後壁里","LIN":"19鄰","STREET":"中正路","SECT":"二段","MAREA":" ","LANE":" ","ALLEY":" ","HOUSE_NO":"１８４號","E_COORD97":173228.14999999999,"N_COORD97":2538704.02,"ADDRESS":"中正路二段１８４號","OBJECTID":534429},"geometry":{"x":173228.15000000037,"y":2538704.0200000033}},{"attributes":{"ID":534457,"DIS_CODE":0,"TOWNNAME":"仁德區","LI":"保安里","LIN":"19鄰","STREET":"中正路","SECT":"一段","MAREA":" ","LANE":" ","ALLEY":" ","HOUSE_NO":"２８２號","E_COORD97":171841.63,"N_COORD97":2535977.2799999998,"ADDRESS":"中正路一段２８２號","OBJECTID":534430},"geometry":{"x":171841.62999999896,"y":2535977.2800000012}},{"attributes":{"ID":534458,"DIS_CODE":0,"TOWNNAME":"仁德區","LI":"保安里","LIN":"19鄰","STREET":"中正路","SECT":"一段","MAREA":" ","LANE":" ","ALLEY":" ","HOUSE_NO":"２５２號","E_COORD97":171719.39000000001,"N_COORD97":2535892.52,"ADDRESS":"中正路一段２５２號","OBJECTID":534431},"geometry":{"x":171719.39000000153,"y":2535892.5199999996}},{"attributes":{"ID":534459,"DIS_CODE":0,"TOWNNAME":"仁德區","LI":"後壁里","LIN":"19鄰","STREET":"中正路","SECT":"二段","MAREA":" ","LANE":" ","ALLEY":" ","HOUSE_NO":"１７２號","E_COORD97":173226.25,"N_COORD97":2538675.0299999998,"ADDRESS":"中正路二段１７２號","OBJECTID":534432},"geometry":{"x":173226.25000000093,"y":2538675.0299999993}},{"attributes":{"ID":534460,"DIS_CODE":0,"TOWNNAME":"仁德區","LI":"保安里","LIN":"19鄰","STREET":"中正路","SECT":"一段","MAREA":" ","LANE":" ","ALLEY":" ","HOUSE_NO":"２５８之２號","E_COORD97":171739.59,"N_COORD97":2535903.79,"ADDRESS":"中正路一段２５８之２號","OBJECTID":534433},"geometry":{"x":171739.58999999985,"y":2535903.7899999991}},{"attributes":{"ID":534461,"DIS_CODE":0,"TOWNNAME":"仁德區","LI":"太子里","LIN":"19鄰","STREET":"長興四街","SECT":" ","MAREA":" ","LANE":" ","ALLEY":" ","HOUSE_NO":"６３號","E_COORD97":173932.16,"N_COORD97":2543553.5099999998,"ADDRESS":"長興四街６３號","OBJECTID":534434},"geometry":{"x":173932.16000000108,"y":2543553.5100000016}},{"attributes":{"ID":534462,"DIS_CODE":0,"TOWNNAME":"仁德區","LI":"後壁里","LIN":"19鄰","STREET":"中正路","SECT":"二段","MAREA":" ","LANE":" ","ALLEY":" ","HOUSE_NO":"１７８號","E_COORD97":173226.95000000001,"N_COORD97":2538688.52,"ADDRESS":"中正路二段１７８號","OBJECTID":534435},"geometry":{"x":173226.95000000112,"y":2538688.5200000014}},{"attributes":{"ID":534463,"DIS_CODE":0,"TOWNNAME":"仁德區","LI":"保安里","LIN":"19鄰","STREET":"中正路","SECT":"一段","MAREA":" ","LANE":" ","ALLEY":" ","HOUSE_NO":"３４０號","E_COORD97":172042.64999999999,"N_COORD97":2536131.27,"ADDRESS":"中正路一段３４０號","OBJECTID":534436},"geometry":{"x":172042.6500000013,"y":2536131.2699999996}},{"attributes":{"ID":534464,"DIS_CODE":0,"TOWNNAME":"永康區","LI":"崑山里","LIN":"19鄰","STREET":"崑山街","SECT":" ","MAREA":" ","LANE":" ","ALLEY":" ","HOUSE_NO":"１號","E_COORD97":173912.14000000001,"N_COORD97":2544513.3799999999,"ADDRESS":"崑山街１號","OBJECTID":534437},"geometry":{"x":173912.13999999966,"y":2544513.3800000008}},{"attributes":{"ID":534465,"DIS_CODE":0,"TOWNNAME":"仁德區","LI":"二行里","LIN":"19鄰","STREET":"行大街","SECT":" ","MAREA":" ","LANE":" ","ALLEY":" ","HOUSE_NO":"２６２號","E_COORD97":169792.23000000001,"N_COORD97":2535163.5,"ADDRESS":"行大街２６２號","OBJECTID":534438},"geometry":{"x":169792.23000000231,"y":2535163.5}},{"attributes":{"ID":534466,"DIS_CODE":0,"TOWNNAME":"仁德區","LI":"一甲里","LIN":"19鄰","STREET":"太乙二街","SECT":" ","MAREA":" ","LANE":" ","ALLEY":" ","HOUSE_NO":"９號","E_COORD97":173496.10999999999,"N_COORD97":2542362.5,"ADDRESS":"太乙二街９號","OBJECTID":534439},"geometry":{"x":173496.11000000034,"y":2542362.5}},{"attributes":{"ID":534467,"DIS_CODE":0,"TOWNNAME":"仁德區","LI":"一甲里","LIN":"19鄰","STREET":"太乙一街","SECT":" ","MAREA":" ","LANE":" ","ALLEY":" ","HOUSE_NO":"３６號","E_COORD97":173580.23999999999,"N_COORD97":2542348.25,"ADDRESS":"太乙一街３６號","OBJECTID":534440},"geometry":{"x":173580.24000000022,"y":2542348.2500000019}},{"attributes":{"ID":534468,"DIS_CODE":0,"TOWNNAME":"下營區","LI":"新興里","LIN":"19鄰","STREET":"慈惠街","SECT":" ","MAREA":" ","LANE":" ","ALLEY":" ","HOUSE_NO":"９８號","E_COORD97":175005.53,"N_COORD97":2570651.7599999998,"ADDRESS":"慈惠街９８號","OBJECTID":534441},"geometry":{"x":175005.53000000026,"y":2570651.7600000016}},{"attributes":{"ID":534469,"DIS_CODE":0,"TOWNNAME":"下營區","LI":"新興里","LIN":"19鄰","STREET":"新興街","SECT":" ","MAREA":" ","LANE":" ","ALLEY":" ","HOUSE_NO":"１２號","E_COORD97":175083.57000000001,"N_COORD97":2570714.6400000001,"ADDRESS":"新興街１２號","OBJECTID":534442},"geometry":{"x":175083.5700000003,"y":2570714.6400000025}},{"attributes":{"ID":534470,"DIS_CODE":0,"TOWNNAME":"下營區","LI":"新興里","LIN":"19鄰","STREET":"新興街","SECT":" ","MAREA":" ","LANE":" ","ALLEY":" ","HOUSE_NO":"１８號","E_COORD97":175075.48000000001,"N_COORD97":2570714.4399999999,"ADDRESS":"新興街１８號","OBJECTID":534443},"geometry":{"x":175075.48000000045,"y":2570714.4400000013}},{"attributes":{"ID":534471,"DIS_CODE":0,"TOWNNAME":"下營區","LI":"新興里","LIN":"19鄰","STREET":"新興街","SECT":" ","MAREA":" ","LANE":" ","ALLEY":" ","HOUSE_NO":"４８號","E_COORD97":175042.20999999999,"N_COORD97":2570625.1800000002,"ADDRESS":"新興街４８號","OBJECTID":534444},"geometry":{"x":175042.21000000089,"y":2570625.1800000016}},{"attributes":{"ID":534472,"DIS_CODE":0,"TOWNNAME":"下營區","LI":"新興里","LIN":"19鄰","STREET":"新興街","SECT":" ","MAREA":" ","LANE":" ","ALLEY":" ","HOUSE_NO":"５０號","E_COORD97":175042.34,"N_COORD97":2570629.2999999998,"ADDRESS":"新興街５０號","OBJECTID":534445},"geometry":{"x":175042.33999999892,"y":2570629.3000000007}},{"attributes":{"ID":534473,"DIS_CODE":0,"TOWNNAME":"下營區","LI":"新興里","LIN":"19鄰","STREET":"新興街","SECT":" ","MAREA":" ","LANE":" ","ALLEY":" ","HOUSE_NO":"５２號","E_COORD97":175042.45999999999,"N_COORD97":2570633.4199999999,"ADDRESS":"新興街５２號","OBJECTID":534446},"geometry":{"x":175042.46000000089,"y":2570633.4200000018}},{"attributes":{"ID":534474,"DIS_CODE":0,"TOWNNAME":"下營區","LI":"新興里","LIN":"19鄰","STREET":"新興街","SECT":" ","MAREA":" ","LANE":" ","ALLEY":" ","HOUSE_NO":"５６號","E_COORD97":175042.57999999999,"N_COORD97":2570637.54,"ADDRESS":"新興街５６號","OBJECTID":534447},"geometry":{"x":175042.58000000007,"y":2570637.5400000028}},{"attributes":{"ID":534475,"DIS_CODE":0,"TOWNNAME":"下營區","LI":"新興里","LIN":"19鄰","STREET":"新興街","SECT":" ","MAREA":" ","LANE":" ","ALLEY":" ","HOUSE_NO":"５８號","E_COORD97":175042.70999999999,"N_COORD97":2570641.6600000001,"ADDRESS":"新興街５８號","OBJECTID":534448},"geometry":{"x":175042.70999999996,"y":2570641.660000002}},{"attributes":{"ID":534476,"DIS_CODE":0,"TOWNNAME":"下營區","LI":"新興里","LIN":"19鄰","STREET":"新興街","SECT":" ","MAREA":" ","LANE":" ","ALLEY":" ","HOUSE_NO":"６０號","E_COORD97":175042.82999999999,"N_COORD97":2570645.7799999998,"ADDRESS":"新興街６０號","OBJECTID":534449},"geometry":{"x":175042.83000000194,"y":2570645.7799999993}},{"attributes":{"ID":534477,"DIS_CODE":0,"TOWNNAME":"下營區","LI":"新興里","LIN":"19鄰","STREET":"新興街","SECT":" ","MAREA":" ","LANE":" ","ALLEY":" ","HOUSE_NO":"６２號","E_COORD97":175042.95999999999,"N_COORD97":2570649.8999999999,"ADDRESS":"新興街６２號","OBJECTID":534450},"geometry":{"x":175042.95999999996,"y":2570649.9000000041}},{"attributes":{"ID":534478,"DIS_CODE":0,"TOWNNAME":"下營區","LI":"新興里","LIN":"19鄰","STREET":"新興街","SECT":" ","MAREA":" ","LANE":" ","ALLEY":" ","HOUSE_NO":"６６號","E_COORD97":175043.07999999999,"N_COORD97":2570654.02,"ADDRESS":"新興街６６號","OBJECTID":534451},"geometry":{"x":175043.08000000101,"y":2570654.0199999996}},{"attributes":{"ID":534479,"DIS_CODE":0,"TOWNNAME":"下營區","LI":"新興里","LIN":"19鄰","STREET":"新興街","SECT":" ","MAREA":" ","LANE":" ","ALLEY":" ","HOUSE_NO":"６８號","E_COORD97":175043.20999999999,"N_COORD97":2570658.1400000001,"ADDRESS":"新興街６８號","OBJECTID":534452},"geometry":{"x":175043.20999999996,"y":2570658.1400000006}},{"attributes":{"ID":534480,"DIS_CODE":0,"TOWNNAME":"下營區","LI":"新興里","LIN":"19鄰","STREET":"新興街","SECT":" ","MAREA":" ","LANE":" ","ALLEY":" ","HOUSE_NO":"６號","E_COORD97":175095.82999999999,"N_COORD97":2570715.2599999998,"ADDRESS":"新興街６號","OBJECTID":534453},"geometry":{"x":175095.83000000101,"y":2570715.2600000016}},{"attributes":{"ID":534481,"DIS_CODE":0,"TOWNNAME":"下營區","LI":"新興里","LIN":"19鄰","STREET":"新興街","SECT":" ","MAREA":" ","LANE":" ","ALLEY":" ","HOUSE_NO":"７０號","E_COORD97":175043.32999999999,"N_COORD97":2570662.2599999998,"ADDRESS":"新興街７０號","OBJECTID":534454},"geometry":{"x":175043.33000000101,"y":2570662.2599999998}},{"attributes":{"ID":534482,"DIS_CODE":0,"TOWNNAME":"佳里區","LI":"忠仁里","LIN":"19鄰","STREET":"博愛街","SECT":" ","MAREA":" ","LANE":" ","ALLEY":" ","HOUSE_NO":"１０號","E_COORD97":166145.41,"N_COORD97":2562038.3999999999,"ADDRESS":"博愛街１０號","OBJECTID":534455},"geometry":{"x":166145.41000000015,"y":2562038.4000000041}},{"attributes":{"ID":534483,"DIS_CODE":0,"TOWNNAME":"佳里區","LI":"忠仁里","LIN":"19鄰","STREET":"博愛街","SECT":" ","MAREA":" ","LANE":" ","ALLEY":" ","HOUSE_NO":"２號","E_COORD97":166164.01999999999,"N_COORD97":2562040.4399999999,"ADDRESS":"博愛街２號","OBJECTID":534456},"geometry":{"x":166164.02000000048,"y":2562040.4400000032}},{"attributes":{"ID":534484,"DIS_CODE":0,"TOWNNAME":"佳里區","LI":"忠仁里","LIN":"19鄰","STREET":"博愛街","SECT":" ","MAREA":" ","LANE":" ","ALLEY":" ","HOUSE_NO":"３２號","E_COORD97":166095.70999999999,"N_COORD97":2562032.3500000001,"ADDRESS":"博愛街３２號","OBJECTID":534457},"geometry":{"x":166095.70999999996,"y":2562032.3500000015}},{"attributes":{"ID":534485,"DIS_CODE":0,"TOWNNAME":"佳里區","LI":"忠仁里","LIN":"19鄰","STREET":"博愛街","SECT":" ","MAREA":" ","LANE":" ","ALLEY":" ","HOUSE_NO":"３６號","E_COORD97":166086.84,"N_COORD97":2562030.9300000002,"ADDRESS":"博愛街３６號","OBJECTID":534458},"geometry":{"x":166086.84000000171,"y":2562030.9300000034}},{"attributes":{"ID":534486,"DIS_CODE":0,"TOWNNAME":"佳里區","LI":"忠仁里","LIN":"19鄰","STREET":"博愛街","SECT":" ","MAREA":" ","LANE":" ","ALLEY":" ","HOUSE_NO":"４０號","E_COORD97":166079.26000000001,"N_COORD97":2562029.4900000002,"ADDRESS":"博愛街４０號","OBJECTID":534459},"geometry":{"x":166079.26000000071,"y":2562029.4900000002}},{"attributes":{"ID":534487,"DIS_CODE":0,"TOWNNAME":"佳里區","LI":"忠仁里","LIN":"19鄰","STREET":"博愛街","SECT":" ","MAREA":" ","LANE":" ","ALLEY":" ","HOUSE_NO":"４２號","E_COORD97":166075.66,"N_COORD97":2562029.0499999998,"ADDRESS":"博愛街４２號","OBJECTID":534460},"geometry":{"x":166075.66000000015,"y":2562029.0500000026}},{"attributes":{"ID":534488,"DIS_CODE":0,"TOWNNAME":"佳里區","LI":"忠仁里","LIN":"19鄰","STREET":"博愛街","SECT":" ","MAREA":" ","LANE":" ","ALLEY":" ","HOUSE_NO":"４４號","E_COORD97":166071.73000000001,"N_COORD97":2562028.7400000002,"ADDRESS":"博愛街４４號","OBJECTID":534461},"geometry":{"x":166071.73000000138,"y":2562028.7400000002}},{"attributes":{"ID":534489,"DIS_CODE":0,"TOWNNAME":"佳里區","LI":"忠仁里","LIN":"19鄰","STREET":"博愛街","SECT":" ","MAREA":" ","LANE":" ","ALLEY":" ","HOUSE_NO":"４６號","E_COORD97":166063.85000000001,"N_COORD97":2562027.3999999999,"ADDRESS":"博愛街４６號","OBJECTID":534462},"geometry":{"x":166063.84999999963,"y":2562027.4000000004}},{"attributes":{"ID":534490,"DIS_CODE":0,"TOWNNAME":"佳里區","LI":"忠仁里","LIN":"19鄰","STREET":"博愛街","SECT":" ","MAREA":" ","LANE":" ","ALLEY":" ","HOUSE_NO":"４號","E_COORD97":166158.12,"N_COORD97":2562039.6899999999,"ADDRESS":"博愛街４號","OBJECTID":534463},"geometry":{"x":166158.12000000197,"y":2562039.6900000013}},{"attributes":{"ID":534491,"DIS_CODE":0,"TOWNNAME":"佳里區","LI":"忠仁里","LIN":"19鄰","STREET":"博愛街","SECT":" ","MAREA":" ","LANE":" ","ALLEY":" ","HOUSE_NO":"６號","E_COORD97":166154,"N_COORD97":2562039.1499999999,"ADDRESS":"博愛街６號","OBJECTID":534464},"geometry":{"x":166154.00000000093,"y":2562039.1500000004}},{"attributes":{"ID":534492,"DIS_CODE":0,"TOWNNAME":"學甲區","LI":"明宜里","LIN":"19鄰","STREET":"中山路","SECT":" ","MAREA":" ","LANE":" ","ALLEY":" ","HOUSE_NO":"１５８號之１","E_COORD97":166004.53,"N_COORD97":2570543.02,"ADDRESS":"中山路１５８號之１","OBJECTID":534465},"geometry":{"x":166004.53000000212,"y":2570543.0199999977}},{"attributes":{"ID":534493,"DIS_CODE":0,"TOWNNAME":"學甲區","LI":"明宜里","LIN":"19鄰","STREET":"中山路","SECT":" ","MAREA":" ","LANE":" ","ALLEY":" ","HOUSE_NO":"１５８號","E_COORD97":166010.85000000001,"N_COORD97":2570540.3900000001,"ADDRESS":"中山路１５８號","OBJECTID":534466},"geometry":{"x":166010.85000000056,"y":2570540.3900000006}},{"attributes":{"ID":534494,"DIS_CODE":0,"TOWNNAME":"歸仁區","LI":"南保里","LIN":"19鄰","STREET":"文化街","SECT":"三段","MAREA":" ","LANE":" ","ALLEY":" ","HOUSE_NO":"５３號","E_COORD97":176907.26999999999,"N_COORD97":2541233.2599999998,"ADDRESS":"文化街三段５３號","OBJECTID":534467},"geometry":{"x":176907.27000000142,"y":2541233.2600000016}},{"attributes":{"ID":534495,"DIS_CODE":0,"TOWNNAME":"歸仁區","LI":"許厝里","LIN":"19鄰","STREET":"忠孝北路","SECT":" ","MAREA":" ","LANE":" ","ALLEY":" ","HOUSE_NO":"８９號","E_COORD97":178335.12,"N_COORD97":2540876.25,"ADDRESS":"忠孝北路８９號","OBJECTID":534468},"geometry":{"x":178335.12000000104,"y":2540876.2500000037}},{"attributes":{"ID":534496,"DIS_CODE":0,"TOWNNAME":"北區","LI":"永祥里","LIN":"19鄰","STREET":"大武街","SECT":" ","MAREA":" ","LANE":" ","ALLEY":" ","HOUSE_NO":"５２８號","E_COORD97":170186.45000000001,"N_COORD97":2546414.2400000002,"ADDRESS":"大武街５２８號","OBJECTID":534469},"geometry":{"x":170186.45000000019,"y":2546414.2400000021}},{"attributes":{"ID":534497,"DIS_CODE":0,"TOWNNAME":"北區","LI":"永祥里","LIN":"19鄰","STREET":"大武街","SECT":" ","MAREA":" ","LANE":" ","ALLEY":" ","HOUSE_NO":"５３０號","E_COORD97":170190.91,"N_COORD97":2546415.3999999999,"ADDRESS":"大武街５３０號","OBJECTID":534470},"geometry":{"x":170190.91000000108,"y":2546415.4000000041}},{"attributes":{"ID":534498,"DIS_CODE":0,"TOWNNAME":"北區","LI":"永祥里","LIN":"19鄰","STREET":"大武街","SECT":" ","MAREA":" ","LANE":" ","ALLEY":" ","HOUSE_NO":"５３２號","E_COORD97":170194.69,"N_COORD97":2546414.3599999999,"ADDRESS":"大武街５３２號","OBJECTID":534471},"geometry":{"x":170194.69000000134,"y":2546414.3599999994}},{"attributes":{"ID":534499,"DIS_CODE":0,"TOWNNAME":"北區","LI":"永祥里","LIN":"19鄰","STREET":"大武街","SECT":" ","MAREA":" ","LANE":" ","ALLEY":" ","HOUSE_NO":"５３４號","E_COORD97":170199.28,"N_COORD97":2546415.2200000002,"ADDRESS":"大武街５３４號","OBJECTID":534472},"geometry":{"x":170199.28000000119,"y":2546415.2200000025}},{"attributes":{"ID":534500,"DIS_CODE":0,"TOWNNAME":"北區","LI":"永祥里","LIN":"19鄰","STREET":"大武街","SECT":" ","MAREA":" ","LANE":" ","ALLEY":" ","HOUSE_NO":"５３６號","E_COORD97":170203.37,"N_COORD97":2546414.1800000002,"ADDRESS":"大武街５３６號","OBJECTID":534473},"geometry":{"x":170203.37000000104,"y":2546414.1800000016}},{"attributes":{"ID":534501,"DIS_CODE":0,"TOWNNAME":"北區","LI":"永祥里","LIN":"19鄰","STREET":"大武街","SECT":" ","MAREA":" ","LANE":" ","ALLEY":" ","HOUSE_NO":"５３８號","E_COORD97":170207.59,"N_COORD97":2546415.2200000002,"ADDRESS":"大武街５３８號","OBJECTID":534474},"geometry":{"x":170207.58999999985,"y":2546415.2200000025}},{"attributes":{"ID":534502,"DIS_CODE":0,"TOWNNAME":"北區","LI":"永祥里","LIN":"19鄰","STREET":"大武街","SECT":" ","MAREA":" ","LANE":" ","ALLEY":" ","HOUSE_NO":"５４０號","E_COORD97":170211.25,"N_COORD97":2546413.6400000001,"ADDRESS":"大武街５４０號","OBJECTID":534475},"geometry":{"x":170211.25,"y":2546413.6400000006}},{"attributes":{"ID":534503,"DIS_CODE":0,"TOWNNAME":"北區","LI":"永祥里","LIN":"19鄰","STREET":"大武街","SECT":" ","MAREA":" ","LANE":" ","ALLEY":" ","HOUSE_NO":"５４５號","E_COORD97":170105.42000000001,"N_COORD97":2546428.6800000002,"ADDRESS":"大武街５４５號","OBJECTID":534476},"geometry":{"x":170105.41999999993,"y":2546428.6799999997}},{"attributes":{"ID":534504,"DIS_CODE":0,"TOWNNAME":"北區","LI":"永祥里","LIN":"19鄰","STREET":"大武街","SECT":" ","MAREA":" ","LANE":" ","ALLEY":" ","HOUSE_NO":"５４７號","E_COORD97":170110.42999999999,"N_COORD97":2546429.0499999998,"ADDRESS":"大武街５４７號","OBJECTID":534477},"geometry":{"x":170110.43000000156,"y":2546429.0500000026}},{"attributes":{"ID":534505,"DIS_CODE":0,"TOWNNAME":"北區","LI":"永祥里","LIN":"19鄰","STREET":"大武街","SECT":" ","MAREA":" ","LANE":" ","ALLEY":" ","HOUSE_NO":"５４９號","E_COORD97":170115.85999999999,"N_COORD97":2546428.9300000002,"ADDRESS":"大武街５４９號","OBJECTID":534478},"geometry":{"x":170115.86000000034,"y":2546428.9300000016}},{"attributes":{"ID":534506,"DIS_CODE":0,"TOWNNAME":"北區","LI":"永祥里","LIN":"19鄰","STREET":"大武街","SECT":" ","MAREA":" ","LANE":" ","ALLEY":" ","HOUSE_NO":"５５１號","E_COORD97":170121.32000000001,"N_COORD97":2546429.8999999999,"ADDRESS":"大武街５５１號","OBJECTID":534479},"geometry":{"x":170121.3200000003,"y":2546429.9000000022}},{"attributes":{"ID":534507,"DIS_CODE":0,"TOWNNAME":"北區","LI":"永祥里","LIN":"19鄰","STREET":"大武街","SECT":" ","MAREA":" ","LANE":" ","ALLEY":" ","HOUSE_NO":"５５３號","E_COORD97":170126.07999999999,"N_COORD97":2546430.21,"ADDRESS":"大武街５５３號","OBJECTID":534480},"geometry":{"x":170126.08000000007,"y":2546430.2100000009}},{"attributes":{"ID":534508,"DIS_CODE":0,"TOWNNAME":"北區","LI":"永祥里","LIN":"19鄰","STREET":"大武街","SECT":" ","MAREA":" ","LANE":" ","ALLEY":" ","HOUSE_NO":"５５５號","E_COORD97":170130.41,"N_COORD97":2546429.8999999999,"ADDRESS":"大武街５５５號","OBJECTID":534481},"geometry":{"x":170130.41000000108,"y":2546429.9000000022}},{"attributes":{"ID":534509,"DIS_CODE":0,"TOWNNAME":"北區","LI":"永祥里","LIN":"19鄰","STREET":"大武街","SECT":" ","MAREA":" ","LANE":" ","ALLEY":" ","HOUSE_NO":"５５７號","E_COORD97":170134.20000000001,"N_COORD97":2546428.3799999999,"ADDRESS":"大武街５５７號","OBJECTID":534482},"geometry":{"x":170134.20000000019,"y":2546428.3800000008}},{"attributes":{"ID":534510,"DIS_CODE":0,"TOWNNAME":"北區","LI":"永祥里","LIN":"19鄰","STREET":"大武街","SECT":" ","MAREA":" ","LANE":" ","ALLEY":" ","HOUSE_NO":"５５９號","E_COORD97":170138.47,"N_COORD97":2546430.1499999999,"ADDRESS":"大武街５５９號","OBJECTID":534483},"geometry":{"x":170138.46999999974,"y":2546430.1500000004}},{"attributes":{"ID":534511,"DIS_CODE":0,"TOWNNAME":"北區","LI":"永祥里","LIN":"19鄰","STREET":"大武街","SECT":" ","MAREA":" ","LANE":" ","ALLEY":" ","HOUSE_NO":"５６１號","E_COORD97":170142.89000000001,"N_COORD97":2546428.7999999998,"ADDRESS":"大武街５６１號","OBJECTID":534484},"geometry":{"x":170142.89000000153,"y":2546428.8000000007}},{"attributes":{"ID":534512,"DIS_CODE":0,"TOWNNAME":"北區","LI":"永祥里","LIN":"19鄰","STREET":"大武街","SECT":" ","MAREA":" ","LANE":" ","ALLEY":" ","HOUSE_NO":"５６３號","E_COORD97":170147.16,"N_COORD97":2546428.2599999998,"ADDRESS":"大武街５６３號","OBJECTID":534485},"geometry":{"x":170147.16000000108,"y":2546428.2599999998}},{"attributes":{"ID":534513,"DIS_CODE":0,"TOWNNAME":"北區","LI":"永祥里","LIN":"19鄰","STREET":"大武街","SECT":" ","MAREA":" ","LANE":" ","ALLEY":" ","HOUSE_NO":"５６５號","E_COORD97":170151.25,"N_COORD97":2546429.0499999998,"ADDRESS":"大武街５６５號","OBJECTID":534486},"geometry":{"x":170151.25000000093,"y":2546429.0500000026}},{"attributes":{"ID":534514,"DIS_CODE":0,"TOWNNAME":"北區","LI":"永祥里","LIN":"19鄰","STREET":"大武街","SECT":" ","MAREA":" ","LANE":" ","ALLEY":" ","HOUSE_NO":"５６７號","E_COORD97":170155.22,"N_COORD97":2546428.1899999999,"ADDRESS":"大武街５６７號","OBJECTID":534487},"geometry":{"x":170155.21999999974,"y":2546428.1899999995}},{"attributes":{"ID":534515,"DIS_CODE":0,"TOWNNAME":"北區","LI":"永祥里","LIN":"19鄰","STREET":"大武街","SECT":" ","MAREA":" ","LANE":" ","ALLEY":" ","HOUSE_NO":"５６９號","E_COORD97":170158.51999999999,"N_COORD97":2546429.8999999999,"ADDRESS":"大武街５６９號","OBJECTID":534488},"geometry":{"x":170158.51999999955,"y":2546429.9000000022}},{"attributes":{"ID":534516,"DIS_CODE":0,"TOWNNAME":"北區","LI":"永祥里","LIN":"19鄰","STREET":"大武街","SECT":" ","MAREA":" ","LANE":" ","ALLEY":" ","HOUSE_NO":"５７１號","E_COORD97":170162.48999999999,"N_COORD97":2546428.0699999998,"ADDRESS":"大武街５７１號","OBJECTID":534489},"geometry":{"x":170162.49000000022,"y":2546428.070000004}},{"attributes":{"ID":534517,"DIS_CODE":0,"TOWNNAME":"北區","LI":"永祥里","LIN":"19鄰","STREET":"大武街","SECT":" ","MAREA":" ","LANE":" ","ALLEY":" ","HOUSE_NO":"５７３號","E_COORD97":170166.60999999999,"N_COORD97":2546428.9300000002,"ADDRESS":"大武街５７３號","OBJECTID":534490},"geometry":{"x":170166.61000000127,"y":2546428.9300000016}},{"attributes":{"ID":534518,"DIS_CODE":0,"TOWNNAME":"北區","LI":"永祥里","LIN":"19鄰","STREET":"大武街","SECT":" ","MAREA":" ","LANE":" ","ALLEY":" ","HOUSE_NO":"５７５號","E_COORD97":170171.06,"N_COORD97":2546427.9500000002,"ADDRESS":"大武街５７５號","OBJECTID":534491},"geometry":{"x":170171.06000000052,"y":2546427.9500000011}},{"attributes":{"ID":534519,"DIS_CODE":0,"TOWNNAME":"北區","LI":"永祥里","LIN":"19鄰","STREET":"大武街","SECT":" ","MAREA":" ","LANE":" ","ALLEY":" ","HOUSE_NO":"５７７號","E_COORD97":170174.66,"N_COORD97":2546429.6600000001,"ADDRESS":"大武街５７７號","OBJECTID":534492},"geometry":{"x":170174.66000000015,"y":2546429.6600000001}},{"attributes":{"ID":534520,"DIS_CODE":0,"TOWNNAME":"北區","LI":"永祥里","LIN":"19鄰","STREET":"大武街","SECT":" ","MAREA":" ","LANE":" ","ALLEY":" ","HOUSE_NO":"５７９號","E_COORD97":170179.60999999999,"N_COORD97":2546427.71,"ADDRESS":"大武街５７９號","OBJECTID":534493},"geometry":{"x":170179.61000000127,"y":2546427.7100000046}},{"attributes":{"ID":534521,"DIS_CODE":0,"TOWNNAME":"北區","LI":"永祥里","LIN":"19鄰","STREET":"大武街","SECT":" ","MAREA":" ","LANE":" ","ALLEY":" ","HOUSE_NO":"５８１號","E_COORD97":170183.88,"N_COORD97":2546428.9900000002,"ADDRESS":"大武街５８１號","OBJECTID":534494},"geometry":{"x":170183.88000000175,"y":2546428.9900000021}},{"attributes":{"ID":534522,"DIS_CODE":0,"TOWNNAME":"北區","LI":"永祥里","LIN":"19鄰","STREET":"大武街","SECT":" ","MAREA":" ","LANE":" ","ALLEY":" ","HOUSE_NO":"５８３號","E_COORD97":170187.17999999999,"N_COORD97":2546427.77,"ADDRESS":"大武街５８３號","OBJECTID":534495},"geometry":{"x":170187.18000000063,"y":2546427.7699999996}},{"attributes":{"ID":534523,"DIS_CODE":0,"TOWNNAME":"北區","LI":"永祥里","LIN":"19鄰","STREET":"大武街","SECT":" ","MAREA":" ","LANE":" ","ALLEY":" ","HOUSE_NO":"５８５號","E_COORD97":170191.72,"N_COORD97":2546427.8199999998,"ADDRESS":"大武街５８５號","OBJECTID":534496},"geometry":{"x":170191.72000000067,"y":2546427.8200000022}},{"attributes":{"ID":534524,"DIS_CODE":0,"TOWNNAME":"北區","LI":"永祥里","LIN":"19鄰","STREET":"大武街","SECT":" ","MAREA":" ","LANE":" ","ALLEY":" ","HOUSE_NO":"５８７號","E_COORD97":170196,"N_COORD97":2546428.98,"ADDRESS":"大武街５８７號","OBJECTID":534497},"geometry":{"x":170196,"y":2546428.9800000023}},{"attributes":{"ID":534525,"DIS_CODE":0,"TOWNNAME":"北區","LI":"永祥里","LIN":"19鄰","STREET":"大武街","SECT":" ","MAREA":" ","LANE":" ","ALLEY":" ","HOUSE_NO":"５８９號","E_COORD97":170200.01999999999,"N_COORD97":2546427.6400000001,"ADDRESS":"大武街５８９號","OBJECTID":534498},"geometry":{"x":170200.02000000048,"y":2546427.6400000043}},{"attributes":{"ID":534526,"DIS_CODE":0,"TOWNNAME":"北區","LI":"永祥里","LIN":"19鄰","STREET":"大武街","SECT":" ","MAREA":" ","LANE":" ","ALLEY":" ","HOUSE_NO":"５９１號","E_COORD97":170203.69,"N_COORD97":2546428.7999999998,"ADDRESS":"大武街５９１號","OBJECTID":534499},"geometry":{"x":170203.69000000041,"y":2546428.8000000007}},{"attributes":{"ID":534527,"DIS_CODE":0,"TOWNNAME":"楠西區","LI":"東勢里","LIN":"19鄰","STREET":"水庫路","SECT":" ","MAREA":" ","LANE":" ","ALLEY":" ","HOUSE_NO":"５１２號","E_COORD97":197630.57000000001,"N_COORD97":2563503.25,"ADDRESS":"水庫路５１２號","OBJECTID":534500},"geometry":{"x":197630.57000000123,"y":2563503.25}},{"attributes":{"ID":534528,"DIS_CODE":0,"TOWNNAME":"北區","LI":"永祥里","LIN":"19鄰","STREET":"大武街","SECT":" ","MAREA":" ","LANE":" ","ALLEY":" ","HOUSE_NO":"５９５號","E_COORD97":170212.04999999999,"N_COORD97":2546429.7799999998,"ADDRESS":"大武街５９５號","OBJECTID":534501},"geometry":{"x":170212.05000000075,"y":2546429.7800000012}},{"attributes":{"ID":534529,"DIS_CODE":0,"TOWNNAME":"安平區","LI":"平通里","LIN":"19鄰","STREET":"育平路","SECT":" ","MAREA":" ","LANE":" ","ALLEY":" ","HOUSE_NO":"４３９之１號","E_COORD97":164637.82999999999,"N_COORD97":2544078.7400000002,"ADDRESS":"育平路４３９之１號","OBJECTID":534502},"geometry":{"x":164637.83000000101,"y":2544078.7400000021}},{"attributes":{"ID":534530,"DIS_CODE":0,"TOWNNAME":"安平區","LI":"平通里","LIN":"19鄰","STREET":"慶平路","SECT":" ","MAREA":" ","LANE":" ","ALLEY":" ","HOUSE_NO":"７１３號","E_COORD97":164568.85000000001,"N_COORD97":2544262.9399999999,"ADDRESS":"慶平路７１３號","OBJECTID":534503},"geometry":{"x":164568.84999999963,"y":2544262.9400000013}},{"attributes":{"ID":534531,"DIS_CODE":0,"TOWNNAME":"安平區","LI":"平通里","LIN":"19鄰","STREET":"慶平路","SECT":" ","MAREA":" ","LANE":" ","ALLEY":" ","HOUSE_NO":"７４５號","E_COORD97":164498.64999999999,"N_COORD97":2544260.4199999999,"ADDRESS":"慶平路７４５號","OBJECTID":534504},"geometry":{"x":164498.65000000224,"y":2544260.4199999999}},{"attributes":{"ID":534532,"DIS_CODE":0,"TOWNNAME":"安平區","LI":"平通里","LIN":"19鄰","STREET":"慶平路","SECT":" ","MAREA":" ","LANE":" ","ALLEY":" ","HOUSE_NO":"７５５號","E_COORD97":164468.04000000001,"N_COORD97":2544247.4900000002,"ADDRESS":"慶平路７５５號","OBJECTID":534505},"geometry":{"x":164468.04000000004,"y":2544247.4900000002}},{"attributes":{"ID":534533,"DIS_CODE":0,"TOWNNAME":"新營區","LI":"大宏里","LIN":"19鄰","STREET":"三民路","SECT":" ","MAREA":" ","LANE":" ","ALLEY":" ","HOUSE_NO":"３６之１號","E_COORD97":180419.42000000001,"N_COORD97":2578502.1400000001,"ADDRESS":"三民路３６之１號","OBJECTID":534506},"geometry":{"x":180419.42000000086,"y":2578502.1400000025}},{"attributes":{"ID":534534,"DIS_CODE":0,"TOWNNAME":"新營區","LI":"南紙里","LIN":"19鄰","STREET":"太子路","SECT":" ","MAREA":" ","LANE":" ","ALLEY":" ","HOUSE_NO":"２４４號","E_COORD97":177791.14999999999,"N_COORD97":2577813.6499999999,"ADDRESS":"太子路２４４號","OBJECTID":534507},"geometry":{"x":177791.1500000013,"y":2577813.6500000022}},{"attributes":{"ID":534535,"DIS_CODE":0,"TOWNNAME":"新營區","LI":"三仙里","LIN":"19鄰","STREET":"三民路","SECT":" ","MAREA":" ","LANE":" ","ALLEY":" ","HOUSE_NO":"１４０號之２７","E_COORD97":179536.67999999999,"N_COORD97":2578484.1699999999,"ADDRESS":"三民路１４０號之２７","OBJECTID":534508},"geometry":{"x":179536.6799999997,"y":2578484.1700000018}},{"attributes":{"ID":534536,"DIS_CODE":0,"TOWNNAME":"新營區","LI":"三仙里","LIN":"19鄰","STREET":"三民路","SECT":" ","MAREA":" ","LANE":" ","ALLEY":" ","HOUSE_NO":"１３８號之１７","E_COORD97":179580.70999999999,"N_COORD97":2578492.8199999998,"ADDRESS":"三民路１３８號之１７","OBJECTID":534509},"geometry":{"x":179580.70999999996,"y":2578492.8200000022}},{"attributes":{"ID":534537,"DIS_CODE":0,"TOWNNAME":"新營區","LI":"民權里","LIN":"19鄰","STREET":"仁愛街","SECT":" ","MAREA":" ","LANE":" ","ALLEY":" ","HOUSE_NO":"１９號","E_COORD97":179813.91,"N_COORD97":2578190.4100000001,"ADDRESS":"仁愛街１９號","OBJECTID":534510},"geometry":{"x":179813.91000000015,"y":2578190.410000002}},{"attributes":{"ID":534538,"DIS_CODE":0,"TOWNNAME":"新營區","LI":"三仙里","LIN":"19鄰","STREET":"三民路","SECT":" ","MAREA":" ","LANE":" ","ALLEY":" ","HOUSE_NO":"１３８之３號","E_COORD97":179586.56,"N_COORD97":2578420.8100000001,"ADDRESS":"三民路１３８之３號","OBJECTID":534511},"geometry":{"x":179586.55999999959,"y":2578420.8100000005}},{"attributes":{"ID":534539,"DIS_CODE":0,"TOWNNAME":"新營區","LI":"三仙里","LIN":"19鄰","STREET":"三民路","SECT":" ","MAREA":" ","LANE":" ","ALLEY":" ","HOUSE_NO":"１４０之２９號","E_COORD97":179548.23999999999,"N_COORD97":2578487.4399999999,"ADDRESS":"三民路１４０之２９號","OBJECTID":534512},"geometry":{"x":179548.24000000115,"y":2578487.4400000032}},{"attributes":{"ID":534540,"DIS_CODE":0,"TOWNNAME":"新營區","LI":"三仙里","LIN":"19鄰","STREET":"三民路","SECT":" ","MAREA":" ","LANE":" ","ALLEY":" ","HOUSE_NO":"１３８號之１１","E_COORD97":179586.66,"N_COORD97":2578468.4300000002,"ADDRESS":"三民路１３８號之１１","OBJECTID":534513},"geometry":{"x":179586.66000000015,"y":2578468.4300000016}},{"attributes":{"ID":534541,"DIS_CODE":0,"TOWNNAME":"新營區","LI":"南紙里","LIN":"19鄰","STREET":"太子路","SECT":" ","MAREA":" ","LANE":" ","ALLEY":" ","HOUSE_NO":"４５２號","E_COORD97":176777.17000000001,"N_COORD97":2577341.2999999998,"ADDRESS":"太子路４５２號","OBJECTID":534514},"geometry":{"x":176777.16999999993,"y":2577341.3000000026}},{"attributes":{"ID":534542,"DIS_CODE":0,"TOWNNAME":"新營區","LI":"大宏里","LIN":"19鄰","STREET":"三民路","SECT":" ","MAREA":" ","LANE":" ","ALLEY":" ","HOUSE_NO":"３６之４１號","E_COORD97":180386.04999999999,"N_COORD97":2578536.6400000001,"ADDRESS":"三民路３６之４１號","OBJECTID":534515},"geometry":{"x":180386.05000000168,"y":2578536.6400000006}},{"attributes":{"ID":534543,"DIS_CODE":0,"TOWNNAME":"新營區","LI":"大宏里","LIN":"19鄰","STREET":"三民路","SECT":" ","MAREA":" ","LANE":" ","ALLEY":" ","HOUSE_NO":"３６之９號","E_COORD97":180402.03,"N_COORD97":2578502.2200000002,"ADDRESS":"三民路３６之９號","OBJECTID":534516},"geometry":{"x":180402.03000000119,"y":2578502.2200000007}},{"attributes":{"ID":534544,"DIS_CODE":0,"TOWNNAME":"新營區","LI":"興業里","LIN":"19鄰","STREET":"中山路","SECT":" ","MAREA":" ","LANE":" ","ALLEY":" ","HOUSE_NO":"１０３號","E_COORD97":180422.20000000001,"N_COORD97":2578289.4399999999,"ADDRESS":"中山路１０３號","OBJECTID":534517},"geometry":{"x":180422.20000000019,"y":2578289.4399999995}},{"attributes":{"ID":534545,"DIS_CODE":0,"TOWNNAME":"歸仁區","LI":"歸仁里","LIN":"19鄰","STREET":"大仁街","SECT":" ","MAREA":" ","LANE":" ","ALLEY":" ","HOUSE_NO":"１３７號","E_COORD97":178200.37,"N_COORD97":2541044.1099999999,"ADDRESS":"大仁街１３７號","OBJECTID":534518},"geometry":{"x":178200.37000000011,"y":2541044.1100000013}},{"attributes":{"ID":534546,"DIS_CODE":0,"TOWNNAME":"歸仁區","LI":"崙頂里","LIN":"19鄰","STREET":"大成一街","SECT":" ","MAREA":" ","LANE":" ","ALLEY":" ","HOUSE_NO":"２７號","E_COORD97":177838.07999999999,"N_COORD97":2540220.98,"ADDRESS":"大成一街２７號","OBJECTID":534519},"geometry":{"x":177838.08000000194,"y":2540220.9800000042}},{"attributes":{"ID":534547,"DIS_CODE":0,"TOWNNAME":"歸仁區","LI":"歸仁里","LIN":"19鄰","STREET":"大仁二街","SECT":" ","MAREA":" ","LANE":" ","ALLEY":" ","HOUSE_NO":"８號","E_COORD97":178163.22,"N_COORD97":2541046.1099999999,"ADDRESS":"大仁二街８號","OBJECTID":534520},"geometry":{"x":178163.21999999974,"y":2541046.1100000031}},{"attributes":{"ID":534548,"DIS_CODE":0,"TOWNNAME":"歸仁區","LI":"許厝里","LIN":"19鄰","STREET":"忠孝北路","SECT":" ","MAREA":" ","LANE":" ","ALLEY":" ","HOUSE_NO":"９１號","E_COORD97":178332.72,"N_COORD97":2540881.25,"ADDRESS":"忠孝北路９１號","OBJECTID":534521},"geometry":{"x":178332.71999999974,"y":2540881.2500000019}},{"attributes":{"ID":534549,"DIS_CODE":0,"TOWNNAME":"歸仁區","LI":"歸仁里","LIN":"19鄰","STREET":"忠孝北路","SECT":" ","MAREA":" ","LANE":" ","ALLEY":" ","HOUSE_NO":"１４５號","E_COORD97":178192.19,"N_COORD97":2541086.1099999999,"ADDRESS":"忠孝北路１４５號","OBJECTID":534522},"geometry":{"x":178192.19000000134,"y":2541086.1099999994}},{"attributes":{"ID":534550,"DIS_CODE":0,"TOWNNAME":"歸仁區","LI":"大潭里","LIN":"19鄰","STREET":"中正南路","SECT":"三段","MAREA":" ","LANE":" ","ALLEY":" ","HOUSE_NO":"２２０之１０號","E_COORD97":175158.45000000001,"N_COORD97":2534804.2999999998,"ADDRESS":"中正南路三段２２０之１０號","OBJECTID":534523},"geometry":{"x":175158.45000000019,"y":2534804.2999999989}},{"attributes":{"ID":534551,"DIS_CODE":0,"TOWNNAME":"歸仁區","LI":"新厝里","LIN":"19鄰","STREET":"大成二街","SECT":" ","MAREA":" ","LANE":" ","ALLEY":" ","HOUSE_NO":"９號","E_COORD97":177601.59,"N_COORD97":2540350.1800000002,"ADDRESS":"大成二街９號","OBJECTID":534524},"geometry":{"x":177601.58999999985,"y":2540350.1799999997}},{"attributes":{"ID":534552,"DIS_CODE":0,"TOWNNAME":"歸仁區","LI":"歸仁里","LIN":"19鄰","STREET":"大仁二街","SECT":" ","MAREA":" ","LANE":" ","ALLEY":" ","HOUSE_NO":"２０號","E_COORD97":178149.17000000001,"N_COORD97":2541069.1099999999,"ADDRESS":"大仁二街２０號","OBJECTID":534525},"geometry":{"x":178149.16999999899,"y":2541069.1099999994}},{"attributes":{"ID":534553,"DIS_CODE":0,"TOWNNAME":"歸仁區","LI":"新厝里","LIN":"19鄰","STREET":"大成二街","SECT":" ","MAREA":" ","LANE":" ","ALLEY":" ","HOUSE_NO":"２７號","E_COORD97":177566.94,"N_COORD97":2540329.1800000002,"ADDRESS":"大成二街２７號","OBJECTID":534526},"geometry":{"x":177566.94000000134,"y":2540329.1799999997}},{"attributes":{"ID":534554,"DIS_CODE":0,"TOWNNAME":"歸仁區","LI":"新厝里","LIN":"19鄰","STREET":"大成六街","SECT":" ","MAREA":" ","LANE":" ","ALLEY":" ","HOUSE_NO":"３２號","E_COORD97":177594.44,"N_COORD97":2540298.1800000002,"ADDRESS":"大成六街３２號","OBJECTID":534527},"geometry":{"x":177594.44000000134,"y":2540298.1800000016}},{"attributes":{"ID":534555,"DIS_CODE":0,"TOWNNAME":"歸仁區","LI":"後市里","LIN":"19鄰","STREET":"大通路","SECT":" ","MAREA":" ","LANE":" ","ALLEY":" ","HOUSE_NO":"１２３號","E_COORD97":177550.70000000001,"N_COORD97":2540900.25,"ADDRESS":"大通路１２３號","OBJECTID":534528},"geometry":{"x":177550.70000000019,"y":2540900.2500000037}},{"attributes":{"ID":534556,"DIS_CODE":0,"TOWNNAME":"歸仁區","LI":"南保里","LIN":"19鄰","STREET":"文化街","SECT":"三段","MAREA":" ","LANE":" ","ALLEY":" ","HOUSE_NO":"５１號","E_COORD97":176920.29000000001,"N_COORD97":2541234.3300000001,"ADDRESS":"文化街三段５１號","OBJECTID":534529},"geometry":{"x":176920.29000000097,"y":2541234.3300000001}},{"attributes":{"ID":534557,"DIS_CODE":0,"TOWNNAME":"歸仁區","LI":"歸仁里","LIN":"19鄰","STREET":"大仁二街","SECT":" ","MAREA":" ","LANE":" ","ALLEY":" ","HOUSE_NO":"１８號","E_COORD97":178151.26999999999,"N_COORD97":2541065.1099999999,"ADDRESS":"大仁二街１８號","OBJECTID":534530},"geometry":{"x":178151.26999999955,"y":2541065.1099999994}},{"attributes":{"ID":534558,"DIS_CODE":0,"TOWNNAME":"歸仁區","LI":"後市里","LIN":"19鄰","STREET":"大通路","SECT":" ","MAREA":" ","LANE":" ","ALLEY":" ","HOUSE_NO":"１２１號","E_COORD97":177554.79999999999,"N_COORD97":2540899.25,"ADDRESS":"大通路１２１號","OBJECTID":534531},"geometry":{"x":177554.79999999981,"y":2540899.25}},{"attributes":{"ID":534559,"DIS_CODE":0,"TOWNNAME":"玉井區","LI":"玉田里","LIN":"19鄰","STREET":"民主街","SECT":" ","MAREA":" ","LANE":" ","ALLEY":" ","HOUSE_NO":"８４號","E_COORD97":195088.04000000001,"N_COORD97":2558069.2799999998,"ADDRESS":"民主街８４號","OBJECTID":534532},"geometry":{"x":195088.04000000004,"y":2558069.2800000012}},{"attributes":{"ID":534560,"DIS_CODE":0,"TOWNNAME":"玉井區","LI":"玉田里","LIN":"19鄰","STREET":"民主街","SECT":" ","MAREA":" ","LANE":" ","ALLEY":" ","HOUSE_NO":"８２號","E_COORD97":195088.54000000001,"N_COORD97":2558072.2799999998,"ADDRESS":"民主街８２號","OBJECTID":534533},"geometry":{"x":195088.5400000019,"y":2558072.2800000012}},{"attributes":{"ID":534561,"DIS_CODE":0,"TOWNNAME":"玉井區","LI":"玉田里","LIN":"19鄰","STREET":"民主街","SECT":" ","MAREA":" ","LANE":" ","ALLEY":" ","HOUSE_NO":"８６號","E_COORD97":195088.04000000001,"N_COORD97":2558064.2799999998,"ADDRESS":"民主街８６號","OBJECTID":534534},"geometry":{"x":195088.04000000004,"y":2558064.2799999993}},{"attributes":{"ID":534562,"DIS_CODE":0,"TOWNNAME":"玉井區","LI":"玉田里","LIN":"19鄰","STREET":"民主街","SECT":" ","MAREA":" ","LANE":" ","ALLEY":" ","HOUSE_NO":"７４號","E_COORD97":195061.13,"N_COORD97":2558083.2799999998,"ADDRESS":"民主街７４號","OBJECTID":534535},"geometry":{"x":195061.13000000082,"y":2558083.2799999993}},{"attributes":{"ID":534563,"DIS_CODE":0,"TOWNNAME":"學甲區","LI":"慈福里","LIN":"19鄰","STREET":"成功路","SECT":" ","MAREA":" ","LANE":" ","ALLEY":" ","HOUSE_NO":"３７號","E_COORD97":166168.56,"N_COORD97":2570341.8199999998,"ADDRESS":"成功路３７號","OBJECTID":534536},"geometry":{"x":166168.56000000052,"y":2570341.820000004}},{"attributes":{"ID":534564,"DIS_CODE":0,"TOWNNAME":"學甲區","LI":"慈福里","LIN":"19鄰","STREET":"成功路","SECT":" ","MAREA":" ","LANE":" ","ALLEY":" ","HOUSE_NO":"４２號","E_COORD97":166205.82999999999,"N_COORD97":2570373.7400000002,"ADDRESS":"成功路４２號","OBJECTID":534537},"geometry":{"x":166205.83000000194,"y":2570373.7400000021}},{"attributes":{"ID":534565,"DIS_CODE":0,"TOWNNAME":"學甲區","LI":"明宜里","LIN":"19鄰","STREET":"和平路","SECT":" ","MAREA":" ","LANE":" ","ALLEY":" ","HOUSE_NO":"３１１號","E_COORD97":166012.22,"N_COORD97":2570553.2400000002,"ADDRESS":"和平路３１１號","OBJECTID":534538},"geometry":{"x":166012.21999999974,"y":2570553.2400000021}},{"attributes":{"ID":534566,"DIS_CODE":0,"TOWNNAME":"學甲區","LI":"明宜里","LIN":"19鄰","STREET":"和平路","SECT":" ","MAREA":" ","LANE":" ","ALLEY":" ","HOUSE_NO":"３１３號","E_COORD97":166009.14000000001,"N_COORD97":2570561.7400000002,"ADDRESS":"和平路３１３號","OBJECTID":534539},"geometry":{"x":166009.13999999966,"y":2570561.7400000002}},{"attributes":{"ID":534567,"DIS_CODE":0,"TOWNNAME":"學甲區","LI":"明宜里","LIN":"19鄰","STREET":"和平路","SECT":" ","MAREA":" ","LANE":" ","ALLEY":" ","HOUSE_NO":"３１５號之１","E_COORD97":166007.23000000001,"N_COORD97":2570569.4700000002,"ADDRESS":"和平路３１５號之１","OBJECTID":534540},"geometry":{"x":166007.23000000138,"y":2570569.4700000025}},{"attributes":{"ID":534568,"DIS_CODE":0,"TOWNNAME":"學甲區","LI":"明宜里","LIN":"19鄰","STREET":"和平路","SECT":" ","MAREA":" ","LANE":" ","ALLEY":" ","HOUSE_NO":"３１５號之２","E_COORD97":166002.62,"N_COORD97":2570570.6299999999,"ADDRESS":"和平路３１５號之２","OBJECTID":534541},"geometry":{"x":166002.62000000104,"y":2570570.629999999}},{"attributes":{"ID":534569,"DIS_CODE":0,"TOWNNAME":"學甲區","LI":"明宜里","LIN":"19鄰","STREET":"和平路","SECT":" ","MAREA":" ","LANE":" ","ALLEY":" ","HOUSE_NO":"３１５號之３","E_COORD97":165998.12,"N_COORD97":2570571.8199999998,"ADDRESS":"和平路３１５號之３","OBJECTID":534542},"geometry":{"x":165998.12000000011,"y":2570571.8200000003}},{"attributes":{"ID":534570,"DIS_CODE":0,"TOWNNAME":"學甲區","LI":"明宜里","LIN":"19鄰","STREET":"和平路","SECT":" ","MAREA":" ","LANE":" ","ALLEY":" ","HOUSE_NO":"３１５號","E_COORD97":166015.16,"N_COORD97":2570568.7999999998,"ADDRESS":"和平路３１５號","OBJECTID":534543},"geometry":{"x":166015.16000000015,"y":2570568.8000000007}},{"attributes":{"ID":534571,"DIS_CODE":0,"TOWNNAME":"學甲區","LI":"明宜里","LIN":"19鄰","STREET":"和平路","SECT":" ","MAREA":" ","LANE":" ","ALLEY":" ","HOUSE_NO":"３１７號","E_COORD97":166015.67999999999,"N_COORD97":2570572.8399999999,"ADDRESS":"和平路３１７號","OBJECTID":534544},"geometry":{"x":166015.6799999997,"y":2570572.8400000017}},{"attributes":{"ID":534572,"DIS_CODE":0,"TOWNNAME":"學甲區","LI":"明宜里","LIN":"19鄰","STREET":"和平路","SECT":" ","MAREA":" ","LANE":" ","ALLEY":" ","HOUSE_NO":"３３７號","E_COORD97":165997.32999999999,"N_COORD97":2570651.7000000002,"ADDRESS":"和平路３３７號","OBJECTID":534545},"geometry":{"x":165997.33000000194,"y":2570651.7000000011}},{"attributes":{"ID":534573,"DIS_CODE":0,"TOWNNAME":"學甲區","LI":"明宜里","LIN":"19鄰","STREET":"和平路","SECT":" ","MAREA":" ","LANE":" ","ALLEY":" ","HOUSE_NO":"３３９號","E_COORD97":166030.73999999999,"N_COORD97":2570649.1899999999,"ADDRESS":"和平路３３９號","OBJECTID":534546},"geometry":{"x":166030.74000000115,"y":2570649.1899999995}},{"attributes":{"ID":534574,"DIS_CODE":0,"TOWNNAME":"歸仁區","LI":"六甲里","LIN":"19鄰","STREET":"六甲路","SECT":" ","MAREA":" ","LANE":" ","ALLEY":" ","HOUSE_NO":"４６７號","E_COORD97":175349.76999999999,"N_COORD97":2539279.25,"ADDRESS":"六甲路４６７號","OBJECTID":534547},"geometry":{"x":175349.77000000048,"y":2539279.2499999981}},{"attributes":{"ID":534575,"DIS_CODE":0,"TOWNNAME":"歸仁區","LI":"大潭里","LIN":"19鄰","STREET":"中正南路","SECT":"三段","MAREA":" ","LANE":" ","ALLEY":" ","HOUSE_NO":"４８號","E_COORD97":175294.45999999999,"N_COORD97":2535098.2799999998,"ADDRESS":"中正南路三段４８號","OBJECTID":534548},"geometry":{"x":175294.46000000183,"y":2535098.2800000031}},{"attributes":{"ID":534576,"DIS_CODE":0,"TOWNNAME":"歸仁區","LI":"大潭里","LIN":"19鄰","STREET":"中正南路","SECT":"三段","MAREA":" ","LANE":" ","ALLEY":" ","HOUSE_NO":"３０號","E_COORD97":175307.95999999999,"N_COORD97":2535129.2799999998,"ADDRESS":"中正南路三段３０號","OBJECTID":534549},"geometry":{"x":175307.96000000183,"y":2535129.2800000012}},{"attributes":{"ID":534577,"DIS_CODE":0,"TOWNNAME":"歸仁區","LI":"大潭里","LIN":"19鄰","STREET":"中正南路","SECT":"三段","MAREA":" ","LANE":" ","ALLEY":" ","HOUSE_NO":"３６號","E_COORD97":175304.85999999999,"N_COORD97":2535116.2799999998,"ADDRESS":"中正南路三段３６號","OBJECTID":534550},"geometry":{"x":175304.86000000034,"y":2535116.2800000012}},{"attributes":{"ID":534578,"DIS_CODE":0,"TOWNNAME":"楠西區","LI":"東勢里","LIN":"19鄰","STREET":"水庫路","SECT":" ","MAREA":" ","LANE":" ","ALLEY":" ","HOUSE_NO":"４６２號","E_COORD97":197649.67000000001,"N_COORD97":2563605.25,"ADDRESS":"水庫路４６２號","OBJECTID":534551},"geometry":{"x":197649.67000000086,"y":2563605.2500000037}},{"attributes":{"ID":534579,"DIS_CODE":0,"TOWNNAME":"楠西區","LI":"楠西里","LIN":"19鄰","STREET":"中正路","SECT":" ","MAREA":" ","LANE":" ","ALLEY":" ","HOUSE_NO":"１１０號","E_COORD97":197279.66,"N_COORD97":2563958.25,"ADDRESS":"中正路１１０號","OBJECTID":534552},"geometry":{"x":197279.65999999922,"y":2563958.2500000037}},{"attributes":{"ID":534580,"DIS_CODE":0,"TOWNNAME":"楠西區","LI":"楠西里","LIN":"19鄰","STREET":"中正路","SECT":" ","MAREA":" ","LANE":" ","ALLEY":" ","HOUSE_NO":"１０８號","E_COORD97":197277.06,"N_COORD97":2563961.2400000002,"ADDRESS":"中正路１０８號","OBJECTID":534553},"geometry":{"x":197277.06000000052,"y":2563961.2400000002}},{"attributes":{"ID":534581,"DIS_CODE":0,"TOWNNAME":"楠西區","LI":"東勢里","LIN":"19鄰","STREET":"水庫路","SECT":" ","MAREA":" ","LANE":" ","ALLEY":" ","HOUSE_NO":"４４２號","E_COORD97":197657.67000000001,"N_COORD97":2563648.25,"ADDRESS":"水庫路４４２號","OBJECTID":534554},"geometry":{"x":197657.67000000086,"y":2563648.25}},{"attributes":{"ID":534582,"DIS_CODE":0,"TOWNNAME":"楠西區","LI":"東勢里","LIN":"19鄰","STREET":"水庫路","SECT":" ","MAREA":" ","LANE":" ","ALLEY":" ","HOUSE_NO":"６００號","E_COORD97":197596.67000000001,"N_COORD97":2563309.25,"ADDRESS":"水庫路６００號","OBJECTID":534555},"geometry":{"x":197596.67000000086,"y":2563309.25}},{"attributes":{"ID":534583,"DIS_CODE":0,"TOWNNAME":"楠西區","LI":"東勢里","LIN":"19鄰","STREET":"水庫路","SECT":" ","MAREA":" ","LANE":" ","ALLEY":" ","HOUSE_NO":"４３８號","E_COORD97":197659.26999999999,"N_COORD97":2563656.25,"ADDRESS":"水庫路４３８號","OBJECTID":534556},"geometry":{"x":197659.26999999955,"y":2563656.2500000037}},{"attributes":{"ID":534584,"DIS_CODE":0,"TOWNNAME":"楠西區","LI":"楠西里","LIN":"19鄰","STREET":"中正路","SECT":" ","MAREA":" ","LANE":" ","ALLEY":" ","HOUSE_NO":"１０６號","E_COORD97":197273.26000000001,"N_COORD97":2563984.25,"ADDRESS":"中正路１０６號","OBJECTID":534557},"geometry":{"x":197273.25999999978,"y":2563984.25}},{"attributes":{"ID":534585,"DIS_CODE":0,"TOWNNAME":"楠西區","LI":"東勢里","LIN":"19鄰","STREET":"水庫路","SECT":" ","MAREA":" ","LANE":" ","ALLEY":" ","HOUSE_NO":"４４４號","E_COORD97":197656.97,"N_COORD97":2563644.25,"ADDRESS":"水庫路４４４號","OBJECTID":534558},"geometry":{"x":197656.9700000016,"y":2563644.2500000019}},{"attributes":{"ID":534586,"DIS_CODE":0,"TOWNNAME":"楠西區","LI":"東勢里","LIN":"19鄰","STREET":"水庫路","SECT":" ","MAREA":" ","LANE":" ","ALLEY":" ","HOUSE_NO":"６０２號","E_COORD97":197596.26999999999,"N_COORD97":2563305.25,"ADDRESS":"水庫路６０２號","OBJECTID":534559},"geometry":{"x":197596.26999999955,"y":2563305.2500000019}},{"attributes":{"ID":534587,"DIS_CODE":0,"TOWNNAME":"楠西區","LI":"東勢里","LIN":"19鄰","STREET":"茄拔路","SECT":" ","MAREA":" ","LANE":" ","ALLEY":" ","HOUSE_NO":"３０６號","E_COORD97":197937.73999999999,"N_COORD97":2563654.2799999998,"ADDRESS":"茄拔路３０６號","OBJECTID":534560},"geometry":{"x":197937.74000000115,"y":2563654.2799999993}},{"attributes":{"ID":534588,"DIS_CODE":0,"TOWNNAME":"楠西區","LI":"東勢里","LIN":"19鄰","STREET":"水庫路","SECT":" ","MAREA":" ","LANE":" ","ALLEY":" ","HOUSE_NO":"４４０號","E_COORD97":197658.26999999999,"N_COORD97":2563652.25,"ADDRESS":"水庫路４４０號","OBJECTID":534561},"geometry":{"x":197658.27000000142,"y":2563652.25}},{"attributes":{"ID":534589,"DIS_CODE":0,"TOWNNAME":"楠西區","LI":"東勢里","LIN":"19鄰","STREET":"水庫路","SECT":" ","MAREA":" ","LANE":" ","ALLEY":" ","HOUSE_NO":"５１４號","E_COORD97":197629.57000000001,"N_COORD97":2563500.25,"ADDRESS":"水庫路５１４號","OBJECTID":534562},"geometry":{"x":197629.5700000003,"y":2563500.2500000037}},{"attributes":{"ID":534590,"DIS_CODE":0,"TOWNNAME":"楠西區","LI":"東勢里","LIN":"19鄰","STREET":"水庫路","SECT":" ","MAREA":" ","LANE":" ","ALLEY":" ","HOUSE_NO":"４５２號","E_COORD97":197653.67000000001,"N_COORD97":2563628.25,"ADDRESS":"水庫路４５２號","OBJECTID":534563},"geometry":{"x":197653.66999999993,"y":2563628.25}},{"attributes":{"ID":534591,"DIS_CODE":0,"TOWNNAME":"楠西區","LI":"楠西里","LIN":"19鄰","STREET":"中正路","SECT":" ","MAREA":" ","LANE":" ","ALLEY":" ","HOUSE_NO":"９８號","E_COORD97":197260.81,"N_COORD97":2563999.25,"ADDRESS":"中正路９８號","OBJECTID":534564},"geometry":{"x":197260.80999999959,"y":2563999.2500000019}},{"attributes":{"ID":534592,"DIS_CODE":0,"TOWNNAME":"楠西區","LI":"楠西里","LIN":"19鄰","STREET":"中正路","SECT":" ","MAREA":" ","LANE":" ","ALLEY":" ","HOUSE_NO":"９２號","E_COORD97":197247.31,"N_COORD97":2564017.25,"ADDRESS":"中正路９２號","OBJECTID":534565},"geometry":{"x":197247.30999999959,"y":2564017.2500000019}},{"attributes":{"ID":534593,"DIS_CODE":0,"TOWNNAME":"楠西區","LI":"東勢里","LIN":"19鄰","STREET":"水庫路","SECT":" ","MAREA":" ","LANE":" ","ALLEY":" ","HOUSE_NO":"１１１號之１","E_COORD97":197699,"N_COORD97":2563661.2999999998,"ADDRESS":"水庫路１１１號之１","OBJECTID":534566},"geometry":{"x":197699,"y":2563661.3000000026}},{"attributes":{"ID":534594,"DIS_CODE":0,"TOWNNAME":"楠西區","LI":"楠西里","LIN":"19鄰","STREET":"中正路","SECT":" ","MAREA":" ","LANE":" ","ALLEY":" ","HOUSE_NO":"９４號","E_COORD97":197255.31,"N_COORD97":2563983.25,"ADDRESS":"中正路９４號","OBJECTID":534567},"geometry":{"x":197255.30999999959,"y":2563983.2500000019}},{"attributes":{"ID":534595,"DIS_CODE":0,"TOWNNAME":"楠西區","LI":"東勢里","LIN":"19鄰","STREET":"水庫路","SECT":" ","MAREA":" ","LANE":" ","ALLEY":" ","HOUSE_NO":"１１３號","E_COORD97":197684.67000000001,"N_COORD97":2563561.25,"ADDRESS":"水庫路１１３號","OBJECTID":534568},"geometry":{"x":197684.67000000179,"y":2563561.2500000037}},{"attributes":{"ID":534596,"DIS_CODE":0,"TOWNNAME":"楠西區","LI":"東勢里","LIN":"19鄰","STREET":"水庫路","SECT":" ","MAREA":" ","LANE":" ","ALLEY":" ","HOUSE_NO":"２７３號之６","E_COORD97":197981.91,"N_COORD97":2563341.2999999998,"ADDRESS":"水庫路２７３號之６","OBJECTID":534569},"geometry":{"x":197981.91000000108,"y":2563341.3000000045}},{"attributes":{"ID":534597,"DIS_CODE":0,"TOWNNAME":"楠西區","LI":"東勢里","LIN":"19鄰","STREET":"茄拔路","SECT":" ","MAREA":" ","LANE":" ","ALLEY":" ","HOUSE_NO":"２６６號","E_COORD97":197708.64000000001,"N_COORD97":2563688.2799999998,"ADDRESS":"茄拔路２６６號","OBJECTID":534570},"geometry":{"x":197708.6400000006,"y":2563688.2799999993}},{"attributes":{"ID":534598,"DIS_CODE":0,"TOWNNAME":"楠西區","LI":"東勢里","LIN":"19鄰","STREET":"水庫路","SECT":" ","MAREA":" ","LANE":" ","ALLEY":" ","HOUSE_NO":"５２０號","E_COORD97":197626.76999999999,"N_COORD97":2563488.25,"ADDRESS":"水庫路５２０號","OBJECTID":534571},"geometry":{"x":197626.77000000048,"y":2563488.2500000019}},{"attributes":{"ID":534599,"DIS_CODE":0,"TOWNNAME":"楠西區","LI":"楠西里","LIN":"19鄰","STREET":"中正路","SECT":" ","MAREA":" ","LANE":" ","ALLEY":" ","HOUSE_NO":"１１８號","E_COORD97":197287.45999999999,"N_COORD97":2564001.25,"ADDRESS":"中正路１１８號","OBJECTID":534572},"geometry":{"x":197287.45999999996,"y":2564001.25}},{"attributes":{"ID":534600,"DIS_CODE":0,"TOWNNAME":"楠西區","LI":"東勢里","LIN":"19鄰","STREET":"水庫路","SECT":" ","MAREA":" ","LANE":" ","ALLEY":" ","HOUSE_NO":"５２２號","E_COORD97":197626.07000000001,"N_COORD97":2563484.25,"ADDRESS":"水庫路５２２號","OBJECTID":534573},"geometry":{"x":197626.0700000003,"y":2563484.2500000019}},{"attributes":{"ID":534601,"DIS_CODE":0,"TOWNNAME":"楠西區","LI":"東勢里","LIN":"19鄰","STREET":"水庫路","SECT":" ","MAREA":" ","LANE":" ","ALLEY":" ","HOUSE_NO":"４６４號","E_COORD97":197649.26999999999,"N_COORD97":2563601.25,"ADDRESS":"水庫路４６４號","OBJECTID":534574},"geometry":{"x":197649.26999999955,"y":2563601.25}},{"attributes":{"ID":534602,"DIS_CODE":0,"TOWNNAME":"楠西區","LI":"東勢里","LIN":"19鄰","STREET":"水庫路","SECT":" ","MAREA":" ","LANE":" ","ALLEY":" ","HOUSE_NO":"４５２號之１","E_COORD97":197652.76999999999,"N_COORD97":2563623.25,"ADDRESS":"水庫路４５２號之１","OBJECTID":534575},"geometry":{"x":197652.76999999955,"y":2563623.2500000019}},{"attributes":{"ID":534603,"DIS_CODE":0,"TOWNNAME":"楠西區","LI":"東勢里","LIN":"19鄰","STREET":"茄拔路","SECT":" ","MAREA":" ","LANE":" ","ALLEY":" ","HOUSE_NO":"２７６號之２","E_COORD97":197774.70999999999,"N_COORD97":2563680.2999999998,"ADDRESS":"茄拔路２７６號之２","OBJECTID":534576},"geometry":{"x":197774.71000000089,"y":2563680.3000000045}},{"attributes":{"ID":534604,"DIS_CODE":0,"TOWNNAME":"楠西區","LI":"東勢里","LIN":"19鄰","STREET":"水庫路","SECT":" ","MAREA":" ","LANE":" ","ALLEY":" ","HOUSE_NO":"４６８號","E_COORD97":197647.76999999999,"N_COORD97":2563593.25,"ADDRESS":"水庫路４６８號","OBJECTID":534577},"geometry":{"x":197647.76999999955,"y":2563593.2500000019}},{"attributes":{"ID":534605,"DIS_CODE":0,"TOWNNAME":"楠西區","LI":"東勢里","LIN":"19鄰","STREET":"水庫路","SECT":" ","MAREA":" ","LANE":" ","ALLEY":" ","HOUSE_NO":"５４２號","E_COORD97":197621.17000000001,"N_COORD97":2563442.25,"ADDRESS":"水庫路５４２號","OBJECTID":534578},"geometry":{"x":197621.16999999993,"y":2563442.25}},{"attributes":{"ID":534606,"DIS_CODE":0,"TOWNNAME":"楠西區","LI":"東勢里","LIN":"19鄰","STREET":"水庫路","SECT":" ","MAREA":" ","LANE":" ","ALLEY":" ","HOUSE_NO":"４３６號","E_COORD97":197659.97,"N_COORD97":2563662.25,"ADDRESS":"水庫路４３６號","OBJECTID":534579},"geometry":{"x":197659.96999999974,"y":2563662.25}},{"attributes":{"ID":534607,"DIS_CODE":0,"TOWNNAME":"楠西區","LI":"東勢里","LIN":"19鄰","STREET":"水庫路","SECT":" ","MAREA":" ","LANE":" ","ALLEY":" ","HOUSE_NO":"４２８號","E_COORD97":197664.17000000001,"N_COORD97":2563683.25,"ADDRESS":"水庫路４２８號","OBJECTID":534580},"geometry":{"x":197664.16999999899,"y":2563683.2500000037}},{"attributes":{"ID":534608,"DIS_CODE":0,"TOWNNAME":"楠西區","LI":"東勢里","LIN":"19鄰","STREET":"水庫路","SECT":" ","MAREA":" ","LANE":" ","ALLEY":" ","HOUSE_NO":"５１６號","E_COORD97":197628.97,"N_COORD97":2563496.25,"ADDRESS":"水庫路５１６號","OBJECTID":534581},"geometry":{"x":197628.97000000067,"y":2563496.25}},{"attributes":{"ID":534609,"DIS_CODE":0,"TOWNNAME":"楠西區","LI":"東勢里","LIN":"19鄰","STREET":"水庫路","SECT":" ","MAREA":" ","LANE":" ","ALLEY":" ","HOUSE_NO":"４５０號","E_COORD97":197654.67000000001,"N_COORD97":2563633.25,"ADDRESS":"水庫路４５０號","OBJECTID":534582},"geometry":{"x":197654.67000000086,"y":2563633.2500000019}},{"attributes":{"ID":534610,"DIS_CODE":0,"TOWNNAME":"楠西區","LI":"東勢里","LIN":"19鄰","STREET":"水庫路","SECT":" ","MAREA":" ","LANE":" ","ALLEY":" ","HOUSE_NO":"４３２號","E_COORD97":197661.37,"N_COORD97":2563672.25,"ADDRESS":"水庫路４３２號","OBJECTID":534583},"geometry":{"x":197661.37000000197,"y":2563672.25}},{"attributes":{"ID":534611,"DIS_CODE":0,"TOWNNAME":"楠西區","LI":"楠西里","LIN":"19鄰","STREET":"中正路","SECT":" ","MAREA":" ","LANE":" ","ALLEY":" ","HOUSE_NO":"１０２號","E_COORD97":197267.95999999999,"N_COORD97":2563992.25,"ADDRESS":"中正路１０２號","OBJECTID":534584},"geometry":{"x":197267.96000000089,"y":2563992.2500000019}},{"attributes":{"ID":534612,"DIS_CODE":0,"TOWNNAME":"楠西區","LI":"東勢里","LIN":"19鄰","STREET":"水庫路","SECT":" ","MAREA":" ","LANE":" ","ALLEY":" ","HOUSE_NO":"５３０號","E_COORD97":197628.57000000001,"N_COORD97":2563465.25,"ADDRESS":"水庫路５３０號","OBJECTID":534585},"geometry":{"x":197628.57000000123,"y":2563465.25}},{"attributes":{"ID":534613,"DIS_CODE":0,"TOWNNAME":"楠西區","LI":"東勢里","LIN":"19鄰","STREET":"水庫路","SECT":" ","MAREA":" ","LANE":" ","ALLEY":" ","HOUSE_NO":"４７２號","E_COORD97":197646.26999999999,"N_COORD97":2563585.25,"ADDRESS":"水庫路４７２號","OBJECTID":534586},"geometry":{"x":197646.27000000142,"y":2563585.2500000037}},{"attributes":{"ID":534614,"DIS_CODE":0,"TOWNNAME":"楠西區","LI":"楠西里","LIN":"19鄰","STREET":"中正路","SECT":" ","MAREA":" ","LANE":" ","ALLEY":" ","HOUSE_NO":"１２０號","E_COORD97":197289.35999999999,"N_COORD97":2563992.25,"ADDRESS":"中正路１２０號","OBJECTID":534587},"geometry":{"x":197289.36000000127,"y":2563992.2500000019}},{"attributes":{"ID":534615,"DIS_CODE":0,"TOWNNAME":"楠西區","LI":"東勢里","LIN":"19鄰","STREET":"水庫路","SECT":" ","MAREA":" ","LANE":" ","ALLEY":" ","HOUSE_NO":"５９６號","E_COORD97":197597.76999999999,"N_COORD97":2563320.25,"ADDRESS":"水庫路５９６號","OBJECTID":534588},"geometry":{"x":197597.77000000048,"y":2563320.25}},{"attributes":{"ID":534616,"DIS_CODE":0,"TOWNNAME":"楠西區","LI":"東勢里","LIN":"19鄰","STREET":"水庫路","SECT":" ","MAREA":" ","LANE":" ","ALLEY":" ","HOUSE_NO":"４４８號","E_COORD97":197655.76999999999,"N_COORD97":2563636.25,"ADDRESS":"水庫路４４８號","OBJECTID":534589},"geometry":{"x":197655.76999999955,"y":2563636.2500000019}},{"attributes":{"ID":534617,"DIS_CODE":0,"TOWNNAME":"楠西區","LI":"楠西里","LIN":"19鄰","STREET":"中正路","SECT":" ","MAREA":" ","LANE":" ","ALLEY":" ","HOUSE_NO":"１１２號","E_COORD97":197285.95999999999,"N_COORD97":2564010.25,"ADDRESS":"中正路１１２號","OBJECTID":534590},"geometry":{"x":197285.95999999903,"y":2564010.2500000019}},{"attributes":{"ID":534618,"DIS_CODE":0,"TOWNNAME":"楠西區","LI":"東勢里","LIN":"19鄰","STREET":"水庫路","SECT":" ","MAREA":" ","LANE":" ","ALLEY":" ","HOUSE_NO":"４７４號","E_COORD97":197645.67000000001,"N_COORD97":2563581.25,"ADDRESS":"水庫路４７４號","OBJECTID":534591},"geometry":{"x":197645.67000000179,"y":2563581.25}},{"attributes":{"ID":534619,"DIS_CODE":0,"TOWNNAME":"楠西區","LI":"東勢里","LIN":"19鄰","STREET":"水庫路","SECT":" ","MAREA":" ","LANE":" ","ALLEY":" ","HOUSE_NO":"４５６號","E_COORD97":197651.76999999999,"N_COORD97":2563618.25,"ADDRESS":"水庫路４５６號","OBJECTID":534592},"geometry":{"x":197651.77000000048,"y":2563618.25}},{"attributes":{"ID":534620,"DIS_CODE":0,"TOWNNAME":"楠西區","LI":"東勢里","LIN":"19鄰","STREET":"茄拔路","SECT":" ","MAREA":" ","LANE":" ","ALLEY":" ","HOUSE_NO":"２６４號","E_COORD97":197701.54000000001,"N_COORD97":2563688.2799999998,"ADDRESS":"茄拔路２６４號","OBJECTID":534593},"geometry":{"x":197701.54000000097,"y":2563688.2799999993}},{"attributes":{"ID":534621,"DIS_CODE":0,"TOWNNAME":"楠西區","LI":"東勢里","LIN":"19鄰","STREET":"水庫路","SECT":" ","MAREA":" ","LANE":" ","ALLEY":" ","HOUSE_NO":"４３４號","E_COORD97":197660.17000000001,"N_COORD97":2563667.25,"ADDRESS":"水庫路４３４號","OBJECTID":534594},"geometry":{"x":197660.16999999993,"y":2563667.2500000019}},{"attributes":{"ID":534622,"DIS_CODE":0,"TOWNNAME":"楠西區","LI":"東勢里","LIN":"19鄰","STREET":"茄拔路","SECT":" ","MAREA":" ","LANE":" ","ALLEY":" ","HOUSE_NO":"２７６號","E_COORD97":197765.73999999999,"N_COORD97":2563680.2799999998,"ADDRESS":"茄拔路２７６號","OBJECTID":534595},"geometry":{"x":197765.73999999929,"y":2563680.2800000012}},{"attributes":{"ID":534623,"DIS_CODE":0,"TOWNNAME":"楠西區","LI":"東勢里","LIN":"19鄰","STREET":"水庫路","SECT":" ","MAREA":" ","LANE":" ","ALLEY":" ","HOUSE_NO":"５２４號","E_COORD97":197625.47,"N_COORD97":2563479.25,"ADDRESS":"水庫路５２４號","OBJECTID":534596},"geometry":{"x":197625.47000000067,"y":2563479.25}},{"attributes":{"ID":534624,"DIS_CODE":0,"TOWNNAME":"楠西區","LI":"東勢里","LIN":"19鄰","STREET":"茄拔路","SECT":" ","MAREA":" ","LANE":" ","ALLEY":" ","HOUSE_NO":"２７８號","E_COORD97":197785.04000000001,"N_COORD97":2563679.2799999998,"ADDRESS":"茄拔路２７８號","OBJECTID":534597},"geometry":{"x":197785.04000000004,"y":2563679.2800000031}},{"attributes":{"ID":534625,"DIS_CODE":0,"TOWNNAME":"楠西區","LI":"楠西里","LIN":"19鄰","STREET":"中正路","SECT":" ","MAREA":" ","LANE":" ","ALLEY":" ","HOUSE_NO":"１００號","E_COORD97":197265.56,"N_COORD97":2563995.25,"ADDRESS":"中正路１００號","OBJECTID":534598},"geometry":{"x":197265.55999999959,"y":2563995.2500000037}},{"attributes":{"ID":534626,"DIS_CODE":0,"TOWNNAME":"楠西區","LI":"東勢里","LIN":"19鄰","STREET":"水庫路","SECT":" ","MAREA":" ","LANE":" ","ALLEY":" ","HOUSE_NO":"４４６號","E_COORD97":197656.17000000001,"N_COORD97":2563640.25,"ADDRESS":"水庫路４４６號","OBJECTID":534599},"geometry":{"x":197656.17000000086,"y":2563640.2500000019}},{"attributes":{"ID":534627,"DIS_CODE":0,"TOWNNAME":"新營區","LI":"新東里","LIN":"19鄰","STREET":"東學路","SECT":" ","MAREA":" ","LANE":" ","ALLEY":" ","HOUSE_NO":"１００號","E_COORD97":180940.64999999999,"N_COORD97":2579354.6000000001,"ADDRESS":"東學路１００號","OBJECTID":534600},"geometry":{"x":180940.6500000013,"y":2579354.6000000015}}]}