{"displayFieldName":"TOWNNAME","fieldAliases":{"ID":"ID","DIS_CODE":"DIS_CODE","TOWNNAME":"TOWNNAME","LI":"LI","LIN":"LIN","STREET":"STREET","SECT":"SECT","MAREA":"MAREA","LANE":"LANE","ALLEY":"ALLEY","HOUSE_NO":"HOUSE_NO","E_COORD97":"E_COORD97","N_COORD97":"N_COORD97","ADDRESS":"ADDRESS","OBJECTID":"OBJECTID"},"geometryType":"esriGeometryPoint","spatialReference":{"wkid":102443,"latestWkid":3826},"fields":[{"name":"ID","type":"esriFieldTypeDouble","alias":"ID"},{"name":"DIS_CODE","type":"esriFieldTypeInteger","alias":"DIS_CODE"},{"name":"TOWNNAME","type":"esriFieldTypeString","alias":"TOWNNAME","length":8},{"name":"LI","type":"esriFieldTypeString","alias":"LI","length":8},{"name":"LIN","type":"esriFieldTypeString","alias":"LIN","length":12},{"name":"STREET","type":"esriFieldTypeString","alias":"STREET","length":20},{"name":"SECT","type":"esriFieldTypeString","alias":"SECT","length":8},{"name":"MAREA","type":"esriFieldTypeString","alias":"MAREA","length":12},{"name":"LANE","type":"esriFieldTypeString","alias":"LANE","length":10},{"name":"ALLEY","type":"esriFieldTypeString","alias":"ALLEY","length":10},{"name":"HOUSE_NO","type":"esriFieldTypeString","alias":"HOUSE_NO","length":20},{"name":"E_COORD97","type":"esriFieldTypeDouble","alias":"E_COORD97"},{"name":"N_COORD97","type":"esriFieldTypeDouble","alias":"N_COORD97"},{"name":"ADDRESS","type":"esriFieldTypeString","alias":"ADDRESS","length":50},{"name":"OBJECTID","type":"esriFieldTypeOID","alias":"OBJECTID"}],"features":[{"attributes":{"ID":429826,"DIS_CODE":0,"TOWNNAME":"楠西區","LI":"東勢里","LIN":"14鄰","STREET":"茄拔路","SECT":" ","MAREA":" ","LANE":"１７７巷","ALLEY":" ","HOUSE_NO":"１７號","E_COORD97":197441.42999999999,"N_COORD97":2563815.2000000002,"ADDRESS":"茄拔路１７７巷１７號","OBJECTID":429801},"geometry":{"x":197441.4299999997,"y":2563815.200000003}},{"attributes":{"ID":429827,"DIS_CODE":0,"TOWNNAME":"楠西區","LI":"東勢里","LIN":"8鄰","STREET":"東勢路","SECT":" ","MAREA":" ","LANE":"１２６巷","ALLEY":" ","HOUSE_NO":"１３號","E_COORD97":197523.22,"N_COORD97":2564081.29,"ADDRESS":"東勢路１２６巷１３號","OBJECTID":429802},"geometry":{"x":197523.22000000067,"y":2564081.2899999991}},{"attributes":{"ID":429828,"DIS_CODE":0,"TOWNNAME":"柳營區","LI":"東昇里","LIN":"26鄰","STREET":"十美街","SECT":" ","MAREA":" ","LANE":"１５６巷","ALLEY":" ","HOUSE_NO":"２號","E_COORD97":180560.51000000001,"N_COORD97":2575570.1600000001,"ADDRESS":"十美街１５６巷２號","OBJECTID":429803},"geometry":{"x":180560.50999999978,"y":2575570.1600000001}},{"attributes":{"ID":429829,"DIS_CODE":0,"TOWNNAME":"柳營區","LI":"東昇里","LIN":"20鄰","STREET":"十美街","SECT":" ","MAREA":" ","LANE":"２３２巷","ALLEY":" ","HOUSE_NO":"１號","E_COORD97":180383.10000000001,"N_COORD97":2575564.7999999998,"ADDRESS":"十美街２３２巷１號","OBJECTID":429804},"geometry":{"x":180383.09999999963,"y":2575564.8000000026}},{"attributes":{"ID":429830,"DIS_CODE":0,"TOWNNAME":"柳營區","LI":"東昇里","LIN":"23鄰","STREET":"十美街","SECT":" ","MAREA":" ","LANE":"２１１巷","ALLEY":" ","HOUSE_NO":"１號","E_COORD97":180317.51000000001,"N_COORD97":2575504.4300000002,"ADDRESS":"十美街２１１巷１號","OBJECTID":429805},"geometry":{"x":180317.50999999978,"y":2575504.4300000016}},{"attributes":{"ID":429831,"DIS_CODE":0,"TOWNNAME":"柳營區","LI":"東昇里","LIN":"23鄰","STREET":"十美街","SECT":" ","MAREA":" ","LANE":"２１１巷","ALLEY":" ","HOUSE_NO":"３號","E_COORD97":180329.57999999999,"N_COORD97":2575495.71,"ADDRESS":"十美街２１１巷３號","OBJECTID":429806},"geometry":{"x":180329.58000000007,"y":2575495.7100000009}},{"attributes":{"ID":429832,"DIS_CODE":0,"TOWNNAME":"柳營區","LI":"東昇里","LIN":"23鄰","STREET":"十美街","SECT":" ","MAREA":" ","LANE":"２１５巷","ALLEY":" ","HOUSE_NO":"１０號","E_COORD97":180279.35999999999,"N_COORD97":2575494.0299999998,"ADDRESS":"十美街２１５巷１０號","OBJECTID":429807},"geometry":{"x":180279.3600000022,"y":2575494.0300000012}},{"attributes":{"ID":429833,"DIS_CODE":0,"TOWNNAME":"柳營區","LI":"東昇里","LIN":"23鄰","STREET":"十美街","SECT":" ","MAREA":" ","LANE":"２１５巷","ALLEY":" ","HOUSE_NO":"１１號","E_COORD97":180303.12,"N_COORD97":2575477.9700000002,"ADDRESS":"十美街２１５巷１１號","OBJECTID":429808},"geometry":{"x":180303.12000000104,"y":2575477.9700000044}},{"attributes":{"ID":429834,"DIS_CODE":0,"TOWNNAME":"柳營區","LI":"東昇里","LIN":"23鄰","STREET":"十美街","SECT":" ","MAREA":" ","LANE":"２１５巷","ALLEY":" ","HOUSE_NO":"１２號","E_COORD97":180280.34,"N_COORD97":2575484.9199999999,"ADDRESS":"十美街２１５巷１２號","OBJECTID":429809},"geometry":{"x":180280.33999999985,"y":2575484.9200000018}},{"attributes":{"ID":429835,"DIS_CODE":0,"TOWNNAME":"柳營區","LI":"東昇里","LIN":"23鄰","STREET":"十美街","SECT":" ","MAREA":" ","LANE":"２１５巷","ALLEY":" ","HOUSE_NO":"１６號","E_COORD97":180281.32999999999,"N_COORD97":2575475.8199999998,"ADDRESS":"十美街２１５巷１６號","OBJECTID":429810},"geometry":{"x":180281.33000000101,"y":2575475.8200000022}},{"attributes":{"ID":429836,"DIS_CODE":0,"TOWNNAME":"柳營區","LI":"東昇里","LIN":"20鄰","STREET":"十美街","SECT":" ","MAREA":" ","LANE":"２３２巷","ALLEY":" ","HOUSE_NO":"３號","E_COORD97":180383.16,"N_COORD97":2575568.9399999999,"ADDRESS":"十美街２３２巷３號","OBJECTID":429811},"geometry":{"x":180383.16000000015,"y":2575568.9400000013}},{"attributes":{"ID":429837,"DIS_CODE":0,"TOWNNAME":"南區","LI":"大恩里","LIN":"7鄰","STREET":"大同路","SECT":"二段","MAREA":" ","LANE":"７０４巷","ALLEY":" ","HOUSE_NO":"４２號","E_COORD97":169403.04000000001,"N_COORD97":2540846.6800000002,"ADDRESS":"大同路二段７０４巷４２號","OBJECTID":429812},"geometry":{"x":169403.0400000019,"y":2540846.6800000016}},{"attributes":{"ID":429838,"DIS_CODE":0,"TOWNNAME":"南區","LI":"大恩里","LIN":"7鄰","STREET":"大同路","SECT":"二段","MAREA":" ","LANE":"７０４巷","ALLEY":" ","HOUSE_NO":"４６號","E_COORD97":169399.28,"N_COORD97":2540846.25,"ADDRESS":"大同路二段７０４巷４６號","OBJECTID":429813},"geometry":{"x":169399.28000000026,"y":2540846.2500000019}},{"attributes":{"ID":429839,"DIS_CODE":0,"TOWNNAME":"南區","LI":"大恩里","LIN":"7鄰","STREET":"大同路","SECT":"二段","MAREA":" ","LANE":"７０４巷","ALLEY":" ","HOUSE_NO":"８２號","E_COORD97":169324.35999999999,"N_COORD97":2540845.3900000001,"ADDRESS":"大同路二段７０４巷８２號","OBJECTID":429814},"geometry":{"x":169324.36000000034,"y":2540845.3900000043}},{"attributes":{"ID":429840,"DIS_CODE":0,"TOWNNAME":"南區","LI":"大恩里","LIN":"7鄰","STREET":"大同路","SECT":"二段","MAREA":" ","LANE":"７０４巷","ALLEY":" ","HOUSE_NO":"８４號","E_COORD97":169319.95999999999,"N_COORD97":2540845.8199999998,"ADDRESS":"大同路二段７０４巷８４號","OBJECTID":429815},"geometry":{"x":169319.95999999996,"y":2540845.820000004}},{"attributes":{"ID":429841,"DIS_CODE":0,"TOWNNAME":"南區","LI":"大恩里","LIN":"7鄰","STREET":"大同路","SECT":"二段","MAREA":" ","LANE":"７０４巷","ALLEY":" ","HOUSE_NO":"８６號","E_COORD97":169315.45000000001,"N_COORD97":2540846.5699999998,"ADDRESS":"大同路二段７０４巷８６號","OBJECTID":429816},"geometry":{"x":169315.45000000019,"y":2540846.5700000003}},{"attributes":{"ID":429842,"DIS_CODE":0,"TOWNNAME":"南區","LI":"大恩里","LIN":"7鄰","STREET":"大同路","SECT":"二段","MAREA":" ","LANE":"７０４巷","ALLEY":" ","HOUSE_NO":"８８號","E_COORD97":169311.79999999999,"N_COORD97":2540847,"ADDRESS":"大同路二段７０４巷８８號","OBJECTID":429817},"geometry":{"x":169311.80000000075,"y":2540847}},{"attributes":{"ID":429843,"DIS_CODE":0,"TOWNNAME":"南區","LI":"大恩里","LIN":"7鄰","STREET":"大同路","SECT":"二段","MAREA":" ","LANE":"７０４巷","ALLEY":" ","HOUSE_NO":"９０號","E_COORD97":169307.82999999999,"N_COORD97":2540847.21,"ADDRESS":"大同路二段７０４巷９０號","OBJECTID":429818},"geometry":{"x":169307.82999999914,"y":2540847.2100000046}},{"attributes":{"ID":429844,"DIS_CODE":0,"TOWNNAME":"南區","LI":"大恩里","LIN":"7鄰","STREET":"大同路","SECT":"二段","MAREA":" ","LANE":"７０４巷","ALLEY":" ","HOUSE_NO":"９２號","E_COORD97":169303.53,"N_COORD97":2540847.6400000001,"ADDRESS":"大同路二段７０４巷９２號","OBJECTID":429819},"geometry":{"x":169303.53000000119,"y":2540847.6400000025}},{"attributes":{"ID":429845,"DIS_CODE":0,"TOWNNAME":"南區","LI":"大恩里","LIN":"6鄰","STREET":"大同路","SECT":"二段","MAREA":" ","LANE":"７０４巷","ALLEY":" ","HOUSE_NO":"８３號","E_COORD97":169291.94,"N_COORD97":2540838.8399999999,"ADDRESS":"大同路二段７０４巷８３號","OBJECTID":429820},"geometry":{"x":169291.94000000041,"y":2540838.8400000017}},{"attributes":{"ID":429846,"DIS_CODE":0,"TOWNNAME":"南區","LI":"大恩里","LIN":"6鄰","STREET":"大同路","SECT":"二段","MAREA":" ","LANE":"７０４巷","ALLEY":" ","HOUSE_NO":"８５號","E_COORD97":169282.38,"N_COORD97":2540843.46,"ADDRESS":"大同路二段７０４巷８５號","OBJECTID":429821},"geometry":{"x":169282.38000000082,"y":2540843.4600000028}},{"attributes":{"ID":429847,"DIS_CODE":0,"TOWNNAME":"南區","LI":"大恩里","LIN":"6鄰","STREET":"大同路","SECT":"二段","MAREA":" ","LANE":"７０４巷","ALLEY":" ","HOUSE_NO":"８７號","E_COORD97":169282.70000000001,"N_COORD97":2540846.6800000002,"ADDRESS":"大同路二段７０４巷８７號","OBJECTID":429822},"geometry":{"x":169282.70000000019,"y":2540846.6800000016}},{"attributes":{"ID":429848,"DIS_CODE":0,"TOWNNAME":"東山區","LI":"南溪里","LIN":"1鄰","STREET":" ","SECT":" ","MAREA":"二重溪","LANE":" ","ALLEY":" ","HOUSE_NO":"１０號之５","E_COORD97":189059.861649,"N_COORD97":2575349.2156500001,"ADDRESS":"二重溪１０號之５","OBJECTID":429823},"geometry":{"x":189059.86164900102,"y":2575349.2156490032}},{"attributes":{"ID":429849,"DIS_CODE":0,"TOWNNAME":"南區","LI":"大恩里","LIN":"6鄰","STREET":"大同路","SECT":"二段","MAREA":" ","LANE":"７０４巷","ALLEY":" ","HOUSE_NO":"８９號","E_COORD97":169282.48999999999,"N_COORD97":2540850.9700000002,"ADDRESS":"大同路二段７０４巷８９號","OBJECTID":429824},"geometry":{"x":169282.49000000022,"y":2540850.9700000007}},{"attributes":{"ID":429850,"DIS_CODE":0,"TOWNNAME":"南區","LI":"大恩里","LIN":"6鄰","STREET":"大同路","SECT":"二段","MAREA":" ","LANE":"７０４巷","ALLEY":" ","HOUSE_NO":"９１號","E_COORD97":169282.06,"N_COORD97":2540855.1499999999,"ADDRESS":"大同路二段７０４巷９１號","OBJECTID":429825},"geometry":{"x":169282.06000000145,"y":2540855.1500000022}},{"attributes":{"ID":429851,"DIS_CODE":0,"TOWNNAME":"南區","LI":"大恩里","LIN":"11鄰","STREET":"大同路","SECT":"二段","MAREA":" ","LANE":"７５０巷","ALLEY":" ","HOUSE_NO":"１００號","E_COORD97":169255.97,"N_COORD97":2540717.3500000001,"ADDRESS":"大同路二段７５０巷１００號","OBJECTID":429826},"geometry":{"x":169255.97000000067,"y":2540717.3500000015}},{"attributes":{"ID":429852,"DIS_CODE":0,"TOWNNAME":"南區","LI":"大恩里","LIN":"11鄰","STREET":"大同路","SECT":"二段","MAREA":" ","LANE":"７５０巷","ALLEY":" ","HOUSE_NO":"１０２號","E_COORD97":169251.57000000001,"N_COORD97":2540717.46,"ADDRESS":"大同路二段７５０巷１０２號","OBJECTID":429827},"geometry":{"x":169251.5700000003,"y":2540717.4600000028}},{"attributes":{"ID":429853,"DIS_CODE":0,"TOWNNAME":"南區","LI":"大恩里","LIN":"11鄰","STREET":"大同路","SECT":"二段","MAREA":" ","LANE":"７５０巷","ALLEY":" ","HOUSE_NO":"１０４號","E_COORD97":169246.63,"N_COORD97":2540717.5699999998,"ADDRESS":"大同路二段７５０巷１０４號","OBJECTID":429828},"geometry":{"x":169246.63000000082,"y":2540717.5700000003}},{"attributes":{"ID":429854,"DIS_CODE":0,"TOWNNAME":"南區","LI":"大恩里","LIN":"4鄰","STREET":"國民路","SECT":" ","MAREA":" ","LANE":"１４０巷","ALLEY":" ","HOUSE_NO":"１７號","E_COORD97":169243.26000000001,"N_COORD97":2540970.0099999998,"ADDRESS":"國民路１４０巷１７號","OBJECTID":429829},"geometry":{"x":169243.25999999978,"y":2540970.0100000016}},{"attributes":{"ID":429855,"DIS_CODE":0,"TOWNNAME":"南區","LI":"大恩里","LIN":"4鄰","STREET":"國民路","SECT":" ","MAREA":" ","LANE":"１４０巷","ALLEY":" ","HOUSE_NO":"１９號","E_COORD97":169243.59,"N_COORD97":2540974.0899999999,"ADDRESS":"國民路１４０巷１９號","OBJECTID":429830},"geometry":{"x":169243.59000000078,"y":2540974.0899999999}},{"attributes":{"ID":429856,"DIS_CODE":0,"TOWNNAME":"南區","LI":"大恩里","LIN":"4鄰","STREET":"國民路","SECT":" ","MAREA":" ","LANE":"１４０巷","ALLEY":" ","HOUSE_NO":"１號","E_COORD97":169226.94,"N_COORD97":2540925.7400000002,"ADDRESS":"國民路１４０巷１號","OBJECTID":429831},"geometry":{"x":169226.94000000134,"y":2540925.7400000021}},{"attributes":{"ID":429857,"DIS_CODE":0,"TOWNNAME":"南區","LI":"大恩里","LIN":"4鄰","STREET":"國民路","SECT":" ","MAREA":" ","LANE":"１４０巷","ALLEY":" ","HOUSE_NO":"２１號","E_COORD97":169245.16,"N_COORD97":2540977.6600000001,"ADDRESS":"國民路１４０巷２１號","OBJECTID":429832},"geometry":{"x":169245.16000000108,"y":2540977.6600000001}},{"attributes":{"ID":429858,"DIS_CODE":0,"TOWNNAME":"南區","LI":"大恩里","LIN":"4鄰","STREET":"國民路","SECT":" ","MAREA":" ","LANE":"１４０巷","ALLEY":" ","HOUSE_NO":"２３號","E_COORD97":169245.72,"N_COORD97":2540983.1800000002,"ADDRESS":"國民路１４０巷２３號","OBJECTID":429833},"geometry":{"x":169245.7200000016,"y":2540983.1800000016}},{"attributes":{"ID":429859,"DIS_CODE":0,"TOWNNAME":"南區","LI":"大恩里","LIN":"4鄰","STREET":"國民路","SECT":" ","MAREA":" ","LANE":"１４０巷","ALLEY":" ","HOUSE_NO":"２５號","E_COORD97":169247.07999999999,"N_COORD97":2540987.6899999999,"ADDRESS":"國民路１４０巷２５號","OBJECTID":429834},"geometry":{"x":169247.08000000101,"y":2540987.6899999995}},{"attributes":{"ID":429860,"DIS_CODE":0,"TOWNNAME":"南區","LI":"大恩里","LIN":"4鄰","STREET":"國民路","SECT":" ","MAREA":" ","LANE":"１４０巷","ALLEY":" ","HOUSE_NO":"２７號","E_COORD97":169247.76000000001,"N_COORD97":2540991.9700000002,"ADDRESS":"國民路１４０巷２７號","OBJECTID":429835},"geometry":{"x":169247.76000000071,"y":2540991.9700000025}},{"attributes":{"ID":429861,"DIS_CODE":0,"TOWNNAME":"南區","LI":"大恩里","LIN":"4鄰","STREET":"國民路","SECT":" ","MAREA":" ","LANE":"１４０巷","ALLEY":" ","HOUSE_NO":"２９號","E_COORD97":169249.45000000001,"N_COORD97":2540996.3700000001,"ADDRESS":"國民路１４０巷２９號","OBJECTID":429836},"geometry":{"x":169249.45000000019,"y":2540996.3700000029}},{"attributes":{"ID":429862,"DIS_CODE":0,"TOWNNAME":"南區","LI":"大恩里","LIN":"4鄰","STREET":"國民路","SECT":" ","MAREA":" ","LANE":"１４０巷","ALLEY":" ","HOUSE_NO":"３號","E_COORD97":169233.92000000001,"N_COORD97":2540923.4900000002,"ADDRESS":"國民路１４０巷３號","OBJECTID":429837},"geometry":{"x":169233.91999999993,"y":2540923.4900000021}},{"attributes":{"ID":429863,"DIS_CODE":0,"TOWNNAME":"南區","LI":"大恩里","LIN":"4鄰","STREET":"國民路","SECT":" ","MAREA":" ","LANE":"１４０巷","ALLEY":" ","HOUSE_NO":"５號","E_COORD97":169235.10000000001,"N_COORD97":2540941.48,"ADDRESS":"國民路１４０巷５號","OBJECTID":429838},"geometry":{"x":169235.10000000056,"y":2540941.4800000004}},{"attributes":{"ID":429864,"DIS_CODE":0,"TOWNNAME":"南區","LI":"大恩里","LIN":"4鄰","STREET":"國民路","SECT":" ","MAREA":" ","LANE":"１４０巷","ALLEY":" ","HOUSE_NO":"７號","E_COORD97":169236.81,"N_COORD97":2540947.5600000001,"ADDRESS":"國民路１４０巷７號","OBJECTID":429839},"geometry":{"x":169236.81000000052,"y":2540947.5600000024}},{"attributes":{"ID":429865,"DIS_CODE":0,"TOWNNAME":"南區","LI":"大恩里","LIN":"4鄰","STREET":"國民路","SECT":" ","MAREA":" ","LANE":"１４０巷","ALLEY":" ","HOUSE_NO":"９號","E_COORD97":169236.82000000001,"N_COORD97":2540951.9900000002,"ADDRESS":"國民路１４０巷９號","OBJECTID":429840},"geometry":{"x":169236.8200000003,"y":2540951.9900000002}},{"attributes":{"ID":429866,"DIS_CODE":0,"TOWNNAME":"南區","LI":"大恩里","LIN":"4鄰","STREET":"國民路","SECT":" ","MAREA":" ","LANE":"１５８巷","ALLEY":" ","HOUSE_NO":"１０號","E_COORD97":169214.92000000001,"N_COORD97":2540925.8300000001,"ADDRESS":"國民路１５８巷１０號","OBJECTID":429841},"geometry":{"x":169214.91999999993,"y":2540925.8300000001}},{"attributes":{"ID":429867,"DIS_CODE":0,"TOWNNAME":"南區","LI":"大恩里","LIN":"4鄰","STREET":"國民路","SECT":" ","MAREA":" ","LANE":"１５８巷","ALLEY":" ","HOUSE_NO":"１２號","E_COORD97":169215.45999999999,"N_COORD97":2540929.7999999998,"ADDRESS":"國民路１５８巷１２號","OBJECTID":429842},"geometry":{"x":169215.46000000183,"y":2540929.8000000007}},{"attributes":{"ID":429868,"DIS_CODE":0,"TOWNNAME":"南區","LI":"大恩里","LIN":"4鄰","STREET":"國民路","SECT":" ","MAREA":" ","LANE":"１５８巷","ALLEY":" ","HOUSE_NO":"１４號","E_COORD97":169216.53,"N_COORD97":2540933.77,"ADDRESS":"國民路１５８巷１４號","OBJECTID":429843},"geometry":{"x":169216.53000000026,"y":2540933.7700000014}},{"attributes":{"ID":429869,"DIS_CODE":0,"TOWNNAME":"南區","LI":"大恩里","LIN":"4鄰","STREET":"國民路","SECT":" ","MAREA":" ","LANE":"１５８巷","ALLEY":" ","HOUSE_NO":"１８號","E_COORD97":169221.14000000001,"N_COORD97":2540943.9500000002,"ADDRESS":"國民路１５８巷１８號","OBJECTID":429844},"geometry":{"x":169221.1400000006,"y":2540943.9499999993}},{"attributes":{"ID":429870,"DIS_CODE":0,"TOWNNAME":"南區","LI":"大恩里","LIN":"4鄰","STREET":"國民路","SECT":" ","MAREA":" ","LANE":"１５８巷","ALLEY":" ","HOUSE_NO":"２０號","E_COORD97":169221.14000000001,"N_COORD97":2540948.7799999998,"ADDRESS":"國民路１５８巷２０號","OBJECTID":429845},"geometry":{"x":169221.1400000006,"y":2540948.7799999993}},{"attributes":{"ID":429871,"DIS_CODE":0,"TOWNNAME":"南區","LI":"大恩里","LIN":"4鄰","STREET":"國民路","SECT":" ","MAREA":" ","LANE":"１５８巷","ALLEY":" ","HOUSE_NO":"２２號","E_COORD97":169222.95999999999,"N_COORD97":2540952.8500000001,"ADDRESS":"國民路１５８巷２２號","OBJECTID":429846},"geometry":{"x":169222.96000000089,"y":2540952.8499999996}},{"attributes":{"ID":429872,"DIS_CODE":0,"TOWNNAME":"南區","LI":"大恩里","LIN":"4鄰","STREET":"國民路","SECT":" ","MAREA":" ","LANE":"１５８巷","ALLEY":" ","HOUSE_NO":"２４號","E_COORD97":169224.25,"N_COORD97":2540956.8199999998,"ADDRESS":"國民路１５８巷２４號","OBJECTID":429847},"geometry":{"x":169224.25000000093,"y":2540956.8200000003}},{"attributes":{"ID":429873,"DIS_CODE":0,"TOWNNAME":"南區","LI":"大恩里","LIN":"4鄰","STREET":"國民路","SECT":" ","MAREA":" ","LANE":"１５８巷","ALLEY":" ","HOUSE_NO":"２６號","E_COORD97":169225.64999999999,"N_COORD97":2540961.0800000001,"ADDRESS":"國民路１５８巷２６號","OBJECTID":429848},"geometry":{"x":169225.65000000037,"y":2540961.0800000001}},{"attributes":{"ID":429874,"DIS_CODE":0,"TOWNNAME":"南區","LI":"大恩里","LIN":"17鄰","STREET":"國民路","SECT":" ","MAREA":" ","LANE":"１６５巷","ALLEY":" ","HOUSE_NO":"１１號","E_COORD97":169188.01000000001,"N_COORD97":2540836.8999999999,"ADDRESS":"國民路１６５巷１１號","OBJECTID":429849},"geometry":{"x":169188.01000000071,"y":2540836.9000000004}},{"attributes":{"ID":429875,"DIS_CODE":0,"TOWNNAME":"南區","LI":"大恩里","LIN":"17鄰","STREET":"國民路","SECT":" ","MAREA":" ","LANE":"１６５巷","ALLEY":" ","HOUSE_NO":"１３號","E_COORD97":169186.39000000001,"N_COORD97":2540832.29,"ADDRESS":"國民路１６５巷１３號","OBJECTID":429850},"geometry":{"x":169186.38999999966,"y":2540832.290000001}},{"attributes":{"ID":429876,"DIS_CODE":0,"TOWNNAME":"南區","LI":"大恩里","LIN":"17鄰","STREET":"國民路","SECT":" ","MAREA":" ","LANE":"１６５巷","ALLEY":" ","HOUSE_NO":"１５號","E_COORD97":169184.25,"N_COORD97":2540828.5299999998,"ADDRESS":"國民路１６５巷１５號","OBJECTID":429851},"geometry":{"x":169184.25,"y":2540828.5299999993}},{"attributes":{"ID":429877,"DIS_CODE":0,"TOWNNAME":"南區","LI":"大恩里","LIN":"4鄰","STREET":"國民路","SECT":" ","MAREA":" ","LANE":"１５８巷","ALLEY":" ","HOUSE_NO":"２８號","E_COORD97":169227.04000000001,"N_COORD97":2540965.1600000001,"ADDRESS":"國民路１５８巷２８號","OBJECTID":429852},"geometry":{"x":169227.04000000097,"y":2540965.1600000039}},{"attributes":{"ID":429878,"DIS_CODE":0,"TOWNNAME":"新營區","LI":"興業里","LIN":" ","STREET":"公誠街","SECT":" ","MAREA":" ","LANE":"１１巷","ALLEY":" ","HOUSE_NO":"５之３號","E_COORD97":180321.51000000001,"N_COORD97":2577974.3399999999,"ADDRESS":"公誠街１１巷５之３號","OBJECTID":429853},"geometry":{"x":180321.50999999978,"y":2577974.3400000017}},{"attributes":{"ID":429879,"DIS_CODE":0,"TOWNNAME":"新營區","LI":"忠政里","LIN":"32鄰","STREET":"府西路","SECT":" ","MAREA":" ","LANE":"１７巷","ALLEY":" ","HOUSE_NO":"３４號","E_COORD97":179734.64000000001,"N_COORD97":2578927.2400000002,"ADDRESS":"府西路１７巷３４號","OBJECTID":429854},"geometry":{"x":179734.6400000006,"y":2578927.2400000021}},{"attributes":{"ID":429880,"DIS_CODE":0,"TOWNNAME":"新營區","LI":"新東里","LIN":"24鄰","STREET":"民治路","SECT":" ","MAREA":" ","LANE":" ","ALLEY":" ","HOUSE_NO":"６之５７號","E_COORD97":180605.82999999999,"N_COORD97":2579054.9900000002,"ADDRESS":"民治路６之５７號","OBJECTID":429855},"geometry":{"x":180605.83000000007,"y":2579054.9900000021}},{"attributes":{"ID":429881,"DIS_CODE":0,"TOWNNAME":"新營區","LI":"興業里","LIN":"5鄰","STREET":"公誠街","SECT":" ","MAREA":" ","LANE":"１１巷","ALLEY":" ","HOUSE_NO":"２號","E_COORD97":180300.59,"N_COORD97":2577959.98,"ADDRESS":"公誠街１１巷２號","OBJECTID":429856},"geometry":{"x":180300.58999999985,"y":2577959.9800000023}},{"attributes":{"ID":429882,"DIS_CODE":0,"TOWNNAME":"新營區","LI":"民生里","LIN":"20鄰","STREET":"進修街","SECT":" ","MAREA":" ","LANE":"２９巷","ALLEY":" ","HOUSE_NO":"４６之５號","E_COORD97":178899.48000000001,"N_COORD97":2578509.3500000001,"ADDRESS":"進修街２９巷４６之５號","OBJECTID":429857},"geometry":{"x":178899.48000000138,"y":2578509.3500000015}},{"attributes":{"ID":429883,"DIS_CODE":0,"TOWNNAME":"新營區","LI":"忠政里","LIN":"32鄰","STREET":"府西路","SECT":" ","MAREA":" ","LANE":"１７巷","ALLEY":" ","HOUSE_NO":"２８號","E_COORD97":179748.92000000001,"N_COORD97":2578921.6400000001,"ADDRESS":"府西路１７巷２８號","OBJECTID":429858},"geometry":{"x":179748.91999999993,"y":2578921.6400000025}},{"attributes":{"ID":429884,"DIS_CODE":0,"TOWNNAME":"新營區","LI":"埤寮里","LIN":"13鄰","STREET":"中正路","SECT":" ","MAREA":" ","LANE":"３３５巷","ALLEY":" ","HOUSE_NO":"２號之１","E_COORD97":180003.10000000001,"N_COORD97":2580065.6000000001,"ADDRESS":"中正路３３５巷２號之１","OBJECTID":429859},"geometry":{"x":180003.10000000056,"y":2580065.5999999996}},{"attributes":{"ID":429885,"DIS_CODE":0,"TOWNNAME":"新營區","LI":"新東里","LIN":"24鄰","STREET":"民治路","SECT":" ","MAREA":" ","LANE":" ","ALLEY":" ","HOUSE_NO":"６之６２號","E_COORD97":180605.14999999999,"N_COORD97":2579077.1400000001,"ADDRESS":"民治路６之６２號","OBJECTID":429860},"geometry":{"x":180605.1500000013,"y":2579077.1400000043}},{"attributes":{"ID":429886,"DIS_CODE":0,"TOWNNAME":"新營區","LI":"興業里","LIN":" ","STREET":"中興路","SECT":" ","MAREA":" ","LANE":"１５巷","ALLEY":" ","HOUSE_NO":"１１之２號","E_COORD97":180199.82999999999,"N_COORD97":2577937.27,"ADDRESS":"中興路１５巷１１之２號","OBJECTID":429861},"geometry":{"x":180199.83000000101,"y":2577937.2700000014}},{"attributes":{"ID":429887,"DIS_CODE":0,"TOWNNAME":"東區","LI":"大同里","LIN":"14鄰","STREET":"府連路","SECT":" ","MAREA":" ","LANE":"１７５巷","ALLEY":" ","HOUSE_NO":"７號","E_COORD97":169225.29999999999,"N_COORD97":2542876.3999999999,"ADDRESS":"府連路１７５巷７號","OBJECTID":429862},"geometry":{"x":169225.30000000075,"y":2542876.4000000022}},{"attributes":{"ID":429888,"DIS_CODE":0,"TOWNNAME":"新營區","LI":"民榮里","LIN":" ","STREET":"裕民路","SECT":" ","MAREA":" ","LANE":"５８巷","ALLEY":" ","HOUSE_NO":"２８之１號","E_COORD97":179052.75,"N_COORD97":2577838.6099999999,"ADDRESS":"裕民路５８巷２８之１號","OBJECTID":429863},"geometry":{"x":179052.75000000093,"y":2577838.6100000031}},{"attributes":{"ID":429889,"DIS_CODE":0,"TOWNNAME":"新營區","LI":"民榮里","LIN":" ","STREET":"裕民路","SECT":" ","MAREA":" ","LANE":"５８巷","ALLEY":" ","HOUSE_NO":"３２之２號","E_COORD97":179049.70999999999,"N_COORD97":2577838.6299999999,"ADDRESS":"裕民路５８巷３２之２號","OBJECTID":429864},"geometry":{"x":179049.71000000089,"y":2577838.6300000008}},{"attributes":{"ID":429890,"DIS_CODE":0,"TOWNNAME":"新營區","LI":"南興里","LIN":"25鄰","STREET":"和平路","SECT":" ","MAREA":" ","LANE":"９５巷","ALLEY":" ","HOUSE_NO":"４０號之２","E_COORD97":179555.64999999999,"N_COORD97":2577591.4700000002,"ADDRESS":"和平路９５巷４０號之２","OBJECTID":429865},"geometry":{"x":179555.6500000013,"y":2577591.4700000025}},{"attributes":{"ID":429891,"DIS_CODE":0,"TOWNNAME":"新營區","LI":"南興里","LIN":"4鄰","STREET":"和平路","SECT":" ","MAREA":" ","LANE":"９７巷","ALLEY":" ","HOUSE_NO":"３３號","E_COORD97":179516.48000000001,"N_COORD97":2577573.8700000001,"ADDRESS":"和平路９７巷３３號","OBJECTID":429866},"geometry":{"x":179516.48000000138,"y":2577573.8699999992}},{"attributes":{"ID":429892,"DIS_CODE":0,"TOWNNAME":"新營區","LI":"興業里","LIN":" ","STREET":"中興路","SECT":" ","MAREA":" ","LANE":"１５巷","ALLEY":" ","HOUSE_NO":"１０之１號","E_COORD97":180189.51000000001,"N_COORD97":2577918.4900000002,"ADDRESS":"中興路１５巷１０之１號","OBJECTID":429867},"geometry":{"x":180189.51000000164,"y":2577918.4900000021}},{"attributes":{"ID":429893,"DIS_CODE":0,"TOWNNAME":"新營區","LI":"民生里","LIN":"26鄰","STREET":"民生路","SECT":" ","MAREA":" ","LANE":"１６３巷","ALLEY":" ","HOUSE_NO":"３５號","E_COORD97":179115.45000000001,"N_COORD97":2578633.4100000001,"ADDRESS":"民生路１６３巷３５號","OBJECTID":429868},"geometry":{"x":179115.45000000019,"y":2578633.4100000001}},{"attributes":{"ID":429894,"DIS_CODE":0,"TOWNNAME":"新營區","LI":"民生里","LIN":" ","STREET":"復興路","SECT":" ","MAREA":" ","LANE":"１４８巷","ALLEY":" ","HOUSE_NO":"１之２號","E_COORD97":179265.26000000001,"N_COORD97":2578062.3999999999,"ADDRESS":"復興路１４８巷１之２號","OBJECTID":429869},"geometry":{"x":179265.25999999978,"y":2578062.4000000022}},{"attributes":{"ID":429895,"DIS_CODE":0,"TOWNNAME":"新營區","LI":"南興里","LIN":"4鄰","STREET":"和平路","SECT":" ","MAREA":" ","LANE":"９５巷","ALLEY":" ","HOUSE_NO":"３６號之２","E_COORD97":179533.39000000001,"N_COORD97":2577592.6800000002,"ADDRESS":"和平路９５巷３６之２號","OBJECTID":429870},"geometry":{"x":179533.38999999966,"y":2577592.6799999997}},{"attributes":{"ID":429896,"DIS_CODE":0,"TOWNNAME":"新營區","LI":"延平里","LIN":"18鄰","STREET":"長春街","SECT":" ","MAREA":" ","LANE":"１３４巷","ALLEY":" ","HOUSE_NO":"４號","E_COORD97":179568.409763,"N_COORD97":2577842.7111200001,"ADDRESS":"長春街１３４巷４號","OBJECTID":429871},"geometry":{"x":179568.40976300091,"y":2577842.7111170031}},{"attributes":{"ID":429897,"DIS_CODE":0,"TOWNNAME":"新營區","LI":"忠政里","LIN":"13鄰","STREET":"中正路","SECT":" ","MAREA":" ","LANE":"７７巷","ALLEY":" ","HOUSE_NO":"１號","E_COORD97":180037.17999999999,"N_COORD97":2579596.9300000002,"ADDRESS":"中正路７７巷１號","OBJECTID":429872},"geometry":{"x":180037.1799999997,"y":2579596.9300000016}},{"attributes":{"ID":429898,"DIS_CODE":0,"TOWNNAME":"新營區","LI":"埤寮里","LIN":" ","STREET":"中正路","SECT":" ","MAREA":" ","LANE":"４０３巷","ALLEY":" ","HOUSE_NO":"７號","E_COORD97":179952.57999999999,"N_COORD97":2580084.6099999999,"ADDRESS":"中正路４０３巷７號","OBJECTID":429873},"geometry":{"x":179952.58000000101,"y":2580084.6100000013}},{"attributes":{"ID":429899,"DIS_CODE":0,"TOWNNAME":"新營區","LI":"民生里","LIN":" ","STREET":"進修街","SECT":" ","MAREA":" ","LANE":"２９巷","ALLEY":" ","HOUSE_NO":"１６之４號","E_COORD97":178958.54999999999,"N_COORD97":2578473.6299999999,"ADDRESS":"進修街２９巷１６之４號","OBJECTID":429874},"geometry":{"x":178958.55000000168,"y":2578473.629999999}},{"attributes":{"ID":429900,"DIS_CODE":0,"TOWNNAME":"新營區","LI":"南興里","LIN":"6鄰","STREET":"和平路","SECT":" ","MAREA":" ","LANE":"９７巷","ALLEY":" ","HOUSE_NO":"２９號之１","E_COORD97":179496.5,"N_COORD97":2577584,"ADDRESS":"和平路９７巷２９之１號","OBJECTID":429875},"geometry":{"x":179496.50000000186,"y":2577584}},{"attributes":{"ID":429901,"DIS_CODE":0,"TOWNNAME":"新營區","LI":"興業里","LIN":" ","STREET":"中興路","SECT":" ","MAREA":" ","LANE":"１３巷","ALLEY":" ","HOUSE_NO":"２１之４號","E_COORD97":180238.95000000001,"N_COORD97":2577978.0499999998,"ADDRESS":"中興路１３巷２１之４號","OBJECTID":429876},"geometry":{"x":180238.95000000019,"y":2577978.0500000007}},{"attributes":{"ID":429902,"DIS_CODE":0,"TOWNNAME":"新營區","LI":"南興里","LIN":"25鄰","STREET":"和平路","SECT":" ","MAREA":" ","LANE":"９７巷","ALLEY":" ","HOUSE_NO":"４５號","E_COORD97":179567.59,"N_COORD97":2577568.0899999999,"ADDRESS":"和平路９７巷４５號","OBJECTID":429877},"geometry":{"x":179567.59000000078,"y":2577568.0900000036}},{"attributes":{"ID":429903,"DIS_CODE":0,"TOWNNAME":"新營區","LI":"南興里","LIN":"4鄰","STREET":"和平路","SECT":" ","MAREA":" ","LANE":"９５巷","ALLEY":" ","HOUSE_NO":"５３號","E_COORD97":179567.70999999999,"N_COORD97":2577605.75,"ADDRESS":"和平路９５巷５３號","OBJECTID":429878},"geometry":{"x":179567.70999999996,"y":2577605.7500000019}},{"attributes":{"ID":429904,"DIS_CODE":0,"TOWNNAME":"新營區","LI":"埤寮里","LIN":"13鄰","STREET":"中正路","SECT":" ","MAREA":" ","LANE":"３３５巷","ALLEY":" ","HOUSE_NO":"１號之１","E_COORD97":180001.95000000001,"N_COORD97":2580053.4199999999,"ADDRESS":"中正路３３５巷１號之１","OBJECTID":429879},"geometry":{"x":180001.95000000019,"y":2580053.4199999999}},{"attributes":{"ID":429905,"DIS_CODE":0,"TOWNNAME":"新營區","LI":"興業里","LIN":"13鄰","STREET":"中興路","SECT":" ","MAREA":" ","LANE":"１３巷","ALLEY":" ","HOUSE_NO":"２２號","E_COORD97":180236.38,"N_COORD97":2577961.3900000001,"ADDRESS":"中興路１３巷２２號","OBJECTID":429880},"geometry":{"x":180236.38000000175,"y":2577961.3900000025}},{"attributes":{"ID":429906,"DIS_CODE":0,"TOWNNAME":"新營區","LI":"民生里","LIN":"25鄰","STREET":"民生路","SECT":" ","MAREA":" ","LANE":"１３９巷","ALLEY":" ","HOUSE_NO":"２８之３號","E_COORD97":179153.64999999999,"N_COORD97":2578616.6699999999,"ADDRESS":"民生路１３９巷２８之３號","OBJECTID":429881},"geometry":{"x":179153.6500000013,"y":2578616.6700000018}},{"attributes":{"ID":429907,"DIS_CODE":0,"TOWNNAME":"新營區","LI":"興業里","LIN":" ","STREET":"中興路","SECT":" ","MAREA":" ","LANE":"１５巷","ALLEY":" ","HOUSE_NO":"２４之１號","E_COORD97":180260.14000000001,"N_COORD97":2577915.9399999999,"ADDRESS":"中興路１５巷２４之１號","OBJECTID":429882},"geometry":{"x":180260.1400000006,"y":2577915.9400000013}},{"attributes":{"ID":429908,"DIS_CODE":0,"TOWNNAME":"新營區","LI":"民榮里","LIN":" ","STREET":"復興路","SECT":" ","MAREA":" ","LANE":"２２５巷","ALLEY":" ","HOUSE_NO":"３號","E_COORD97":178875.98999999999,"N_COORD97":2578018.7999999998,"ADDRESS":"復興路２２５巷３號","OBJECTID":429883},"geometry":{"x":178875.99000000022,"y":2578018.8000000026}},{"attributes":{"ID":429909,"DIS_CODE":0,"TOWNNAME":"新營區","LI":"新東里","LIN":"26鄰","STREET":"東興三街","SECT":" ","MAREA":" ","LANE":"２２巷","ALLEY":" ","HOUSE_NO":"５８號","E_COORD97":180644.12,"N_COORD97":2579415.7799999998,"ADDRESS":"東興三街２２巷５８號","OBJECTID":429884},"geometry":{"x":180644.12000000104,"y":2579415.7799999993}},{"attributes":{"ID":429910,"DIS_CODE":0,"TOWNNAME":"新營區","LI":"大宏里","LIN":"25鄰","STREET":"同濟街","SECT":" ","MAREA":" ","LANE":"１３６巷","ALLEY":" ","HOUSE_NO":"４２號","E_COORD97":180574.54999999999,"N_COORD97":2578747.21,"ADDRESS":"同濟街１３６巷４２號","OBJECTID":429885},"geometry":{"x":180574.55000000075,"y":2578747.2100000009}},{"attributes":{"ID":429911,"DIS_CODE":0,"TOWNNAME":"新營區","LI":"南興里","LIN":" ","STREET":"興農街","SECT":" ","MAREA":" ","LANE":"１３８巷","ALLEY":" ","HOUSE_NO":"２４之２號","E_COORD97":179153.76000000001,"N_COORD97":2577571.23,"ADDRESS":"興農街１３８巷２４之２號","OBJECTID":429886},"geometry":{"x":179153.76000000164,"y":2577571.2300000042}},{"attributes":{"ID":429912,"DIS_CODE":0,"TOWNNAME":"新營區","LI":"民生里","LIN":"25鄰","STREET":"民生路","SECT":" ","MAREA":" ","LANE":"１６３巷","ALLEY":" ","HOUSE_NO":"１３號","E_COORD97":179173.73999999999,"N_COORD97":2578650.8399999999,"ADDRESS":"民生路１６３巷１３號","OBJECTID":429887},"geometry":{"x":179173.74000000115,"y":2578650.839999998}},{"attributes":{"ID":429913,"DIS_CODE":0,"TOWNNAME":"新營區","LI":"土庫里","LIN":"18鄰","STREET":"開元路","SECT":" ","MAREA":" ","LANE":"２８３巷","ALLEY":" ","HOUSE_NO":"１０號","E_COORD97":181923.67999999999,"N_COORD97":2579874.9700000002,"ADDRESS":"開元路２８３巷１０號","OBJECTID":429888},"geometry":{"x":181923.6799999997,"y":2579874.9700000044}},{"attributes":{"ID":429914,"DIS_CODE":0,"TOWNNAME":"新營區","LI":"民榮里","LIN":"24鄰","STREET":"裕民路","SECT":" ","MAREA":" ","LANE":"１２巷","ALLEY":" ","HOUSE_NO":"６號","E_COORD97":179104.78,"N_COORD97":2577963.4399999999,"ADDRESS":"裕民路１２巷６號","OBJECTID":429889},"geometry":{"x":179104.78000000026,"y":2577963.4400000013}},{"attributes":{"ID":429915,"DIS_CODE":0,"TOWNNAME":"新營區","LI":"新北里","LIN":"4鄰","STREET":"周武街","SECT":" ","MAREA":" ","LANE":"１３０巷","ALLEY":" ","HOUSE_NO":"１７號","E_COORD97":179358.17000000001,"N_COORD97":2579145,"ADDRESS":"周武街１３０巷１７號","OBJECTID":429890},"geometry":{"x":179358.17000000086,"y":2579144.9999999981}},{"attributes":{"ID":429916,"DIS_CODE":0,"TOWNNAME":"歸仁區","LI":"後市里","LIN":"40鄰","STREET":"中山路","SECT":"二段","MAREA":" ","LANE":" ","ALLEY":" ","HOUSE_NO":"２０２號","E_COORD97":177088.82999999999,"N_COORD97":2540859.7400000002,"ADDRESS":"中山路二段２０２號","OBJECTID":429891},"geometry":{"x":177088.83000000194,"y":2540859.7400000039}},{"attributes":{"ID":429917,"DIS_CODE":0,"TOWNNAME":"新營區","LI":"永生里","LIN":" ","STREET":"中山路","SECT":" ","MAREA":" ","LANE":"２２１巷","ALLEY":" ","HOUSE_NO":"６號","E_COORD97":179917.95999999999,"N_COORD97":2577959.5699999998,"ADDRESS":"中山路２２１巷６號","OBJECTID":429892},"geometry":{"x":179917.96000000089,"y":2577959.5700000022}},{"attributes":{"ID":429918,"DIS_CODE":0,"TOWNNAME":"新營區","LI":"民生里","LIN":"26鄰","STREET":"民生路","SECT":" ","MAREA":" ","LANE":"１３９巷","ALLEY":" ","HOUSE_NO":"３８號","E_COORD97":179134.64999999999,"N_COORD97":2578584.5800000001,"ADDRESS":"民生路１３９巷３８號","OBJECTID":429893},"geometry":{"x":179134.64999999944,"y":2578584.5800000001}},{"attributes":{"ID":429919,"DIS_CODE":0,"TOWNNAME":"新營區","LI":"興業里","LIN":" ","STREET":"中興路","SECT":" ","MAREA":" ","LANE":"１３巷","ALLEY":" ","HOUSE_NO":"１６之３號","E_COORD97":180211.19,"N_COORD97":2577962.6800000002,"ADDRESS":"中興路１３巷１６之３號","OBJECTID":429894},"geometry":{"x":180211.19000000134,"y":2577962.6799999997}},{"attributes":{"ID":429920,"DIS_CODE":0,"TOWNNAME":"新營區","LI":"民榮里","LIN":" ","STREET":"裕民路","SECT":" ","MAREA":" ","LANE":"３４巷","ALLEY":" ","HOUSE_NO":"２６之３號","E_COORD97":179053,"N_COORD97":2577890.6600000001,"ADDRESS":"裕民路３４巷２６之３號","OBJECTID":429895},"geometry":{"x":179053.00000000093,"y":2577890.660000002}},{"attributes":{"ID":429921,"DIS_CODE":0,"TOWNNAME":"新營區","LI":"王公里","LIN":"19鄰","STREET":"民族路","SECT":" ","MAREA":" ","LANE":"１１４巷","ALLEY":" ","HOUSE_NO":"１１號之１","E_COORD97":180403.37,"N_COORD97":2579240.8900000001,"ADDRESS":"民族路１１４巷１１號之１","OBJECTID":429896},"geometry":{"x":180403.37000000104,"y":2579240.8900000006}},{"attributes":{"ID":429922,"DIS_CODE":0,"TOWNNAME":"新營區","LI":"民生里","LIN":"24鄰","STREET":"民生路","SECT":" ","MAREA":" ","LANE":"１３９巷","ALLEY":" ","HOUSE_NO":"３號","E_COORD97":179211.20000000001,"N_COORD97":2578598.6000000001,"ADDRESS":"民生路１３９巷３號","OBJECTID":429897},"geometry":{"x":179211.20000000112,"y":2578598.6000000015}},{"attributes":{"ID":429923,"DIS_CODE":0,"TOWNNAME":"新營區","LI":"興業里","LIN":"4鄰","STREET":"公誠街","SECT":" ","MAREA":" ","LANE":"７巷","ALLEY":" ","HOUSE_NO":"１６號","E_COORD97":180355.39000000001,"N_COORD97":2578052.75,"ADDRESS":"公誠街７巷１６號","OBJECTID":429898},"geometry":{"x":180355.3900000006,"y":2578052.7500000019}},{"attributes":{"ID":429924,"DIS_CODE":0,"TOWNNAME":"新營區","LI":"好平里","LIN":"4鄰","STREET":"長春街","SECT":" ","MAREA":" ","LANE":"７７巷","ALLEY":" ","HOUSE_NO":"６號","E_COORD97":179545.79000000001,"N_COORD97":2577778.6000000001,"ADDRESS":"長春街７７巷６號","OBJECTID":429899},"geometry":{"x":179545.79000000097,"y":2577778.6000000015}},{"attributes":{"ID":429925,"DIS_CODE":0,"TOWNNAME":"新營區","LI":"南興里","LIN":"12鄰","STREET":"和平路","SECT":" ","MAREA":" ","LANE":"１０４巷","ALLEY":" ","HOUSE_NO":"４３號之１","E_COORD97":179284.62,"N_COORD97":2577551.7799999998,"ADDRESS":"和平路１０４巷４３之１號","OBJECTID":429900},"geometry":{"x":179284.62000000104,"y":2577551.7799999993}},{"attributes":{"ID":429926,"DIS_CODE":0,"TOWNNAME":"新營區","LI":"興業里","LIN":" ","STREET":"公誠街","SECT":" ","MAREA":" ","LANE":"９巷","ALLEY":" ","HOUSE_NO":"２之３號","E_COORD97":180305.32999999999,"N_COORD97":2578003.21,"ADDRESS":"公誠街９巷２之３號","OBJECTID":429901},"geometry":{"x":180305.33000000101,"y":2578003.2100000028}},{"attributes":{"ID":429927,"DIS_CODE":0,"TOWNNAME":"新營區","LI":"新東里","LIN":"23鄰","STREET":"大同路","SECT":" ","MAREA":" ","LANE":"７２巷","ALLEY":" ","HOUSE_NO":"１６號","E_COORD97":180736.60999999999,"N_COORD97":2578965.7799999998,"ADDRESS":"大同路７２巷１６號","OBJECTID":429902},"geometry":{"x":180736.61000000034,"y":2578965.7799999993}},{"attributes":{"ID":429928,"DIS_CODE":0,"TOWNNAME":"新營區","LI":"新南里","LIN":"14鄰","STREET":"民治路","SECT":" ","MAREA":" ","LANE":"３００巷","ALLEY":" ","HOUSE_NO":"５０號","E_COORD97":178654.98999999999,"N_COORD97":2578610.1400000001,"ADDRESS":"民治路３００巷５０號","OBJECTID":429903},"geometry":{"x":178654.99000000115,"y":2578610.1400000025}},{"attributes":{"ID":429929,"DIS_CODE":0,"TOWNNAME":"新營區","LI":"南興里","LIN":"11鄰","STREET":"和平路","SECT":" ","MAREA":" ","LANE":"１０４巷","ALLEY":" ","HOUSE_NO":"４４號之１","E_COORD97":179285.72,"N_COORD97":2577569.4900000002,"ADDRESS":"和平路１０４巷４４之１號","OBJECTID":429904},"geometry":{"x":179285.71999999974,"y":2577569.4900000021}},{"attributes":{"ID":429930,"DIS_CODE":0,"TOWNNAME":"新營區","LI":"民生里","LIN":"26鄰","STREET":"民生路","SECT":" ","MAREA":" ","LANE":"１３９巷","ALLEY":" ","HOUSE_NO":"３０之６號","E_COORD97":179137.34,"N_COORD97":2578624.5,"ADDRESS":"民生路１３９巷３０之６號","OBJECTID":429905},"geometry":{"x":179137.33999999985,"y":2578624.5000000019}},{"attributes":{"ID":429931,"DIS_CODE":0,"TOWNNAME":"新營區","LI":"南興里","LIN":"20鄰","STREET":"建業路","SECT":" ","MAREA":" ","LANE":"７８巷","ALLEY":" ","HOUSE_NO":"６號","E_COORD97":179339,"N_COORD97":2577531.52,"ADDRESS":"建業路７８巷６號","OBJECTID":429906},"geometry":{"x":179339.00000000093,"y":2577531.5200000014}},{"attributes":{"ID":429932,"DIS_CODE":0,"TOWNNAME":"新營區","LI":"南興里","LIN":"26鄰","STREET":"和平路","SECT":" ","MAREA":" ","LANE":"１０４巷","ALLEY":" ","HOUSE_NO":"１９之１號","E_COORD97":179352.03,"N_COORD97":2577549.2400000002,"ADDRESS":"和平路１０４巷１９之１號","OBJECTID":429907},"geometry":{"x":179352.03000000026,"y":2577549.2400000002}},{"attributes":{"ID":429933,"DIS_CODE":0,"TOWNNAME":"新營區","LI":"興業里","LIN":" ","STREET":"中興路","SECT":" ","MAREA":" ","LANE":"１３巷","ALLEY":" ","HOUSE_NO":"２９之１號","E_COORD97":180274.76000000001,"N_COORD97":2577977.8799999999,"ADDRESS":"中興路１３巷２９之１號","OBJECTID":429908},"geometry":{"x":180274.76000000071,"y":2577977.879999999}},{"attributes":{"ID":429934,"DIS_CODE":0,"TOWNNAME":"新營區","LI":"興業里","LIN":" ","STREET":"中興路","SECT":" ","MAREA":" ","LANE":"１５巷","ALLEY":" ","HOUSE_NO":"１之４號","E_COORD97":180147.44,"N_COORD97":2577938.6099999999,"ADDRESS":"中興路１５巷１之４號","OBJECTID":429909},"geometry":{"x":180147.44000000041,"y":2577938.6099999994}},{"attributes":{"ID":429935,"DIS_CODE":0,"TOWNNAME":"新營區","LI":"民生里","LIN":" ","STREET":"民生路","SECT":" ","MAREA":" ","LANE":"１６３巷","ALLEY":" ","HOUSE_NO":"１１０之３號","E_COORD97":179090.82999999999,"N_COORD97":2578495.1499999999,"ADDRESS":"民生路１６３巷１１０之３號","OBJECTID":429910},"geometry":{"x":179090.83000000194,"y":2578495.1500000022}},{"attributes":{"ID":429936,"DIS_CODE":0,"TOWNNAME":"新營區","LI":"新東里","LIN":"26鄰","STREET":"東興三街","SECT":" ","MAREA":" ","LANE":"２２巷","ALLEY":" ","HOUSE_NO":"６２號","E_COORD97":180619.56,"N_COORD97":2579415.8900000001,"ADDRESS":"東興三街２２巷６２號","OBJECTID":429911},"geometry":{"x":180619.56000000145,"y":2579415.8900000025}},{"attributes":{"ID":429937,"DIS_CODE":0,"TOWNNAME":"新營區","LI":"王公里","LIN":"32鄰","STREET":"大德街","SECT":" ","MAREA":" ","LANE":"１８巷","ALLEY":" ","HOUSE_NO":"５號","E_COORD97":180217.81,"N_COORD97":2579508.5899999999,"ADDRESS":"大德街１８巷５號","OBJECTID":429912},"geometry":{"x":180217.81000000145,"y":2579508.5900000017}},{"attributes":{"ID":429938,"DIS_CODE":0,"TOWNNAME":"新營區","LI":"民生里","LIN":" ","STREET":"民生路","SECT":" ","MAREA":" ","LANE":"１６３巷","ALLEY":" ","HOUSE_NO":"１１０之４號","E_COORD97":179086.73000000001,"N_COORD97":2578494.0699999998,"ADDRESS":"民生路１６３巷１１０之４號","OBJECTID":429913},"geometry":{"x":179086.72999999952,"y":2578494.070000004}},{"attributes":{"ID":429939,"DIS_CODE":0,"TOWNNAME":"新營區","LI":"新南里","LIN":"25鄰","STREET":"復興路","SECT":" ","MAREA":" ","LANE":"６２０巷","ALLEY":" ","HOUSE_NO":"４８號","E_COORD97":178081.70999999999,"N_COORD97":2578501.0600000001,"ADDRESS":"復興路６２０巷４８號","OBJECTID":429914},"geometry":{"x":178081.71000000089,"y":2578501.0600000042}},{"attributes":{"ID":429940,"DIS_CODE":0,"TOWNNAME":"新營區","LI":"大宏里","LIN":"25鄰","STREET":"同濟街","SECT":" ","MAREA":" ","LANE":"１３６巷","ALLEY":" ","HOUSE_NO":"２６號","E_COORD97":180530.54999999999,"N_COORD97":2578745.2000000002,"ADDRESS":"同濟街１３６巷２６號","OBJECTID":429915},"geometry":{"x":180530.55000000075,"y":2578745.1999999993}},{"attributes":{"ID":429941,"DIS_CODE":0,"TOWNNAME":"新營區","LI":"新東里","LIN":" ","STREET":"民族路","SECT":" ","MAREA":" ","LANE":"１０２巷","ALLEY":" ","HOUSE_NO":"２號","E_COORD97":180346.07999999999,"N_COORD97":2579151.3900000001,"ADDRESS":"民族路１０２巷２號","OBJECTID":429916},"geometry":{"x":180346.08000000101,"y":2579151.3900000025}},{"attributes":{"ID":429942,"DIS_CODE":0,"TOWNNAME":"新營區","LI":"民榮里","LIN":"18鄰","STREET":"裕民路","SECT":" ","MAREA":" ","LANE":"５８巷","ALLEY":" ","HOUSE_NO":"３６之２號","E_COORD97":179036.39999999999,"N_COORD97":2577838.6899999999,"ADDRESS":"裕民路５８巷３６之２號","OBJECTID":429917},"geometry":{"x":179036.40000000224,"y":2577838.6900000013}},{"attributes":{"ID":429943,"DIS_CODE":0,"TOWNNAME":"新營區","LI":"新東里","LIN":"26鄰","STREET":"東興三街","SECT":" ","MAREA":" ","LANE":"２２巷","ALLEY":" ","HOUSE_NO":"６８號","E_COORD97":180602.16,"N_COORD97":2579414.8599999999,"ADDRESS":"東興三街２２巷６８號","OBJECTID":429918},"geometry":{"x":180602.16000000015,"y":2579414.8600000013}},{"attributes":{"ID":429944,"DIS_CODE":0,"TOWNNAME":"新營區","LI":"新東里","LIN":"25鄰","STREET":"民族路","SECT":" ","MAREA":" ","LANE":"１５０巷","ALLEY":" ","HOUSE_NO":"４２號","E_COORD97":180629.54000000001,"N_COORD97":2579348.2999999998,"ADDRESS":"民族路１５０巷４２號","OBJECTID":429919},"geometry":{"x":180629.54000000004,"y":2579348.3000000026}},{"attributes":{"ID":429945,"DIS_CODE":0,"TOWNNAME":"新營區","LI":"民權里","LIN":"4鄰","STREET":"中正路","SECT":" ","MAREA":" ","LANE":"９巷","ALLEY":" ","HOUSE_NO":"１６號之２","E_COORD97":179948.16,"N_COORD97":2578413.5499999998,"ADDRESS":"中正路９巷１６號之２","OBJECTID":429920},"geometry":{"x":179948.16000000201,"y":2578413.5500000045}},{"attributes":{"ID":429946,"DIS_CODE":0,"TOWNNAME":"新營區","LI":"興業里","LIN":" ","STREET":"公誠街","SECT":" ","MAREA":" ","LANE":"１１巷","ALLEY":" ","HOUSE_NO":"１５之１號","E_COORD97":180365.70000000001,"N_COORD97":2577973.0299999998,"ADDRESS":"公誠街１１巷１５之１號","OBJECTID":429921},"geometry":{"x":180365.70000000112,"y":2577973.0299999993}},{"attributes":{"ID":429947,"DIS_CODE":0,"TOWNNAME":"新營區","LI":"大宏里","LIN":"25鄰","STREET":"同濟街","SECT":" ","MAREA":" ","LANE":"１３６巷","ALLEY":" ","HOUSE_NO":"１５之２號","E_COORD97":180498.37,"N_COORD97":2578780.8399999999,"ADDRESS":"同濟街１３６巷１５之２號","OBJECTID":429922},"geometry":{"x":180498.37000000104,"y":2578780.8400000017}},{"attributes":{"ID":429948,"DIS_CODE":0,"TOWNNAME":"新營區","LI":"興業里","LIN":" ","STREET":"公誠街","SECT":" ","MAREA":" ","LANE":"９巷","ALLEY":" ","HOUSE_NO":"１２之４號","E_COORD97":180348.45000000001,"N_COORD97":2578003.02,"ADDRESS":"公誠街９巷１２之４號","OBJECTID":429923},"geometry":{"x":180348.45000000112,"y":2578003.0200000014}},{"attributes":{"ID":429949,"DIS_CODE":0,"TOWNNAME":"新營區","LI":"民權里","LIN":" ","STREET":"博愛街","SECT":" ","MAREA":" ","LANE":"６１巷","ALLEY":" ","HOUSE_NO":"２１號","E_COORD97":179918.89999999999,"N_COORD97":2578096.8900000001,"ADDRESS":"博愛街６１巷２１號","OBJECTID":429924},"geometry":{"x":179918.90000000037,"y":2578096.8900000025}},{"attributes":{"ID":429950,"DIS_CODE":0,"TOWNNAME":"新營區","LI":"民榮里","LIN":"20鄰","STREET":"裕民路","SECT":" ","MAREA":" ","LANE":"１２巷","ALLEY":" ","HOUSE_NO":"３號","E_COORD97":179087.39999999999,"N_COORD97":2577950.23,"ADDRESS":"裕民路１２巷３號","OBJECTID":429925},"geometry":{"x":179087.40000000224,"y":2577950.2300000004}},{"attributes":{"ID":429951,"DIS_CODE":0,"TOWNNAME":"新營區","LI":"民生里","LIN":"26鄰","STREET":"民生路","SECT":" ","MAREA":" ","LANE":"１３９巷","ALLEY":" ","HOUSE_NO":"３０號","E_COORD97":179150.01999999999,"N_COORD97":2578590.04,"ADDRESS":"民生路１３９巷３０號","OBJECTID":429926},"geometry":{"x":179150.02000000142,"y":2578590.0399999991}},{"attributes":{"ID":429952,"DIS_CODE":0,"TOWNNAME":"新營區","LI":"王公里","LIN":"9鄰","STREET":"民治路","SECT":" ","MAREA":" ","LANE":"１８巷","ALLEY":" ","HOUSE_NO":"１４號之１","E_COORD97":180412.44,"N_COORD97":2578994.9900000002,"ADDRESS":"民治路１８巷１４號之１","OBJECTID":429927},"geometry":{"x":180412.44000000041,"y":2578994.9900000002}},{"attributes":{"ID":429953,"DIS_CODE":0,"TOWNNAME":"新營區","LI":"永生里","LIN":"18鄰","STREET":"新進路","SECT":" ","MAREA":" ","LANE":"３１８巷","ALLEY":" ","HOUSE_NO":"１６號","E_COORD97":179950.45000000001,"N_COORD97":2577863.0699999998,"ADDRESS":"新進路３１８巷１６號","OBJECTID":429928},"geometry":{"x":179950.45000000112,"y":2577863.0700000003}},{"attributes":{"ID":429954,"DIS_CODE":0,"TOWNNAME":"新營區","LI":"民生里","LIN":"20鄰","STREET":"進修街","SECT":" ","MAREA":" ","LANE":"２９巷","ALLEY":" ","HOUSE_NO":"４０號","E_COORD97":178904.07999999999,"N_COORD97":2578498.2000000002,"ADDRESS":"進修街２９巷４０號","OBJECTID":429929},"geometry":{"x":178904.08000000007,"y":2578498.1999999993}},{"attributes":{"ID":429955,"DIS_CODE":0,"TOWNNAME":"新營區","LI":"忠政里","LIN":"25鄰","STREET":"府西路","SECT":" ","MAREA":" ","LANE":"１２８巷","ALLEY":" ","HOUSE_NO":"５號","E_COORD97":179842.10999999999,"N_COORD97":2579436.1600000001,"ADDRESS":"府西路１２８巷５號","OBJECTID":429930},"geometry":{"x":179842.11000000127,"y":2579436.160000002}},{"attributes":{"ID":429956,"DIS_CODE":0,"TOWNNAME":"新營區","LI":"南興里","LIN":"10鄰","STREET":"和平路","SECT":" ","MAREA":" ","LANE":"１０２巷","ALLEY":" ","HOUSE_NO":"３號之２","E_COORD97":179389.94,"N_COORD97":2577591.1499999999,"ADDRESS":"和平路１０２巷３之２號","OBJECTID":429931},"geometry":{"x":179389.94000000041,"y":2577591.1500000004}},{"attributes":{"ID":429957,"DIS_CODE":0,"TOWNNAME":"新營區","LI":"新南里","LIN":"18鄰","STREET":"隋唐街","SECT":" ","MAREA":" ","LANE":"３１巷","ALLEY":" ","HOUSE_NO":"１６號","E_COORD97":178691.85999999999,"N_COORD97":2578412.8399999999,"ADDRESS":"隋唐街３１巷１６號","OBJECTID":429932},"geometry":{"x":178691.86000000034,"y":2578412.8399999999}},{"attributes":{"ID":429958,"DIS_CODE":0,"TOWNNAME":"新營區","LI":"新南里","LIN":"14鄰","STREET":"民治路","SECT":" ","MAREA":" ","LANE":"３００巷","ALLEY":" ","HOUSE_NO":"７０之６號","E_COORD97":178610.79000000001,"N_COORD97":2578683.5099999998,"ADDRESS":"民治路３００巷７０之６號","OBJECTID":429933},"geometry":{"x":178610.79000000004,"y":2578683.5099999998}},{"attributes":{"ID":429959,"DIS_CODE":0,"TOWNNAME":"新營區","LI":"南興里","LIN":" ","STREET":"延平路","SECT":" ","MAREA":" ","LANE":"１４０巷","ALLEY":" ","HOUSE_NO":"３０之１號","E_COORD97":179675.98000000001,"N_COORD97":2577461.3199999998,"ADDRESS":"延平路１４０巷３０之１號","OBJECTID":429934},"geometry":{"x":179675.98000000045,"y":2577461.3200000003}},{"attributes":{"ID":429960,"DIS_CODE":0,"TOWNNAME":"新營區","LI":"新東里","LIN":"26鄰","STREET":"東興五街","SECT":" ","MAREA":" ","LANE":"２１巷","ALLEY":" ","HOUSE_NO":"３９號","E_COORD97":180643.32999999999,"N_COORD97":2579452.3300000001,"ADDRESS":"東興五街２１巷３９號","OBJECTID":429935},"geometry":{"x":180643.33000000007,"y":2579452.3300000019}},{"attributes":{"ID":429961,"DIS_CODE":0,"TOWNNAME":"新營區","LI":"民生里","LIN":" ","STREET":"三民路","SECT":" ","MAREA":" ","LANE":"２０８巷","ALLEY":" ","HOUSE_NO":"４之１號","E_COORD97":179154.19,"N_COORD97":2578132.71,"ADDRESS":"三民路２０８巷４之１號","OBJECTID":429936},"geometry":{"x":179154.19000000041,"y":2578132.7100000009}},{"attributes":{"ID":429962,"DIS_CODE":0,"TOWNNAME":"新營區","LI":"南興里","LIN":"18鄰","STREET":"建業路","SECT":" ","MAREA":" ","LANE":"１６７巷","ALLEY":" ","HOUSE_NO":"１８號","E_COORD97":178333.35999999999,"N_COORD97":2577463.2599999998,"ADDRESS":"建業路１６７巷１８號","OBJECTID":429937},"geometry":{"x":178333.36000000127,"y":2577463.2599999998}},{"attributes":{"ID":429963,"DIS_CODE":0,"TOWNNAME":"新營區","LI":"民生里","LIN":"20鄰","STREET":"進修街","SECT":" ","MAREA":" ","LANE":"４１巷","ALLEY":" ","HOUSE_NO":"１０號","E_COORD97":178926.48000000001,"N_COORD97":2578491.4399999999,"ADDRESS":"進修街４１巷１０號","OBJECTID":429938},"geometry":{"x":178926.48000000138,"y":2578491.4400000013}},{"attributes":{"ID":429964,"DIS_CODE":0,"TOWNNAME":"新營區","LI":"民榮里","LIN":" ","STREET":"復興路","SECT":" ","MAREA":" ","LANE":"３０５巷","ALLEY":" ","HOUSE_NO":"２１之３號","E_COORD97":178578.19,"N_COORD97":2578064.6000000001,"ADDRESS":"復興路３０５巷２１之３號","OBJECTID":429939},"geometry":{"x":178578.19000000041,"y":2578064.5999999996}},{"attributes":{"ID":429965,"DIS_CODE":0,"TOWNNAME":"新營區","LI":"民生里","LIN":"20鄰","STREET":"進修街","SECT":" ","MAREA":" ","LANE":"２９巷","ALLEY":" ","HOUSE_NO":"３４號","E_COORD97":178896.87,"N_COORD97":2578486.0499999998,"ADDRESS":"進修街２９巷３４號","OBJECTID":429940},"geometry":{"x":178896.87000000011,"y":2578486.0500000026}},{"attributes":{"ID":429966,"DIS_CODE":0,"TOWNNAME":"新營區","LI":"新東里","LIN":"26鄰","STREET":"東興五街","SECT":" ","MAREA":" ","LANE":"５１巷","ALLEY":" ","HOUSE_NO":"９號","E_COORD97":180603.56554800001,"N_COORD97":2579479.6231,"ADDRESS":"東興五街５１巷９號","OBJECTID":429941},"geometry":{"x":180603.56554800179,"y":2579479.6231000014}},{"attributes":{"ID":429967,"DIS_CODE":0,"TOWNNAME":"新營區","LI":"三仙里","LIN":"32鄰","STREET":"三興街","SECT":" ","MAREA":" ","LANE":"１４４巷","ALLEY":" ","HOUSE_NO":"３５號","E_COORD97":179526.76999999999,"N_COORD97":2579306.9900000002,"ADDRESS":"三興街１４４巷３５號","OBJECTID":429942},"geometry":{"x":179526.77000000048,"y":2579306.9900000002}},{"attributes":{"ID":429968,"DIS_CODE":0,"TOWNNAME":"新營區","LI":"民榮里","LIN":"24鄰","STREET":"裕民路","SECT":" ","MAREA":" ","LANE":"１２巷","ALLEY":" ","HOUSE_NO":"８號","E_COORD97":179100.75,"N_COORD97":2577963.46,"ADDRESS":"裕民路１２巷８號","OBJECTID":429943},"geometry":{"x":179100.75,"y":2577963.4600000028}},{"attributes":{"ID":429969,"DIS_CODE":0,"TOWNNAME":"新營區","LI":"新東里","LIN":"25鄰","STREET":"東興三街","SECT":" ","MAREA":" ","LANE":"２２巷","ALLEY":" ","HOUSE_NO":"７號","E_COORD97":180700.04999999999,"N_COORD97":2579395.5800000001,"ADDRESS":"東興三街２２巷７號","OBJECTID":429944},"geometry":{"x":180700.05000000075,"y":2579395.5800000038}},{"attributes":{"ID":429970,"DIS_CODE":0,"TOWNNAME":"新營區","LI":"忠政里","LIN":"13鄰","STREET":"中正路","SECT":" ","MAREA":" ","LANE":"７７巷","ALLEY":" ","HOUSE_NO":"５號","E_COORD97":180037.28,"N_COORD97":2579614.6400000001,"ADDRESS":"中正路７７巷５號","OBJECTID":429945},"geometry":{"x":180037.28000000212,"y":2579614.6400000006}},{"attributes":{"ID":429971,"DIS_CODE":0,"TOWNNAME":"新營區","LI":"新東里","LIN":"26鄰","STREET":"東興五街","SECT":" ","MAREA":" ","LANE":"５１巷","ALLEY":" ","HOUSE_NO":"１６號","E_COORD97":180590.38,"N_COORD97":2579476.8300000001,"ADDRESS":"東興五街５１巷１６號","OBJECTID":429946},"geometry":{"x":180590.37999999989,"y":2579476.8300000019}},{"attributes":{"ID":429972,"DIS_CODE":0,"TOWNNAME":"新營區","LI":"新東里","LIN":"26鄰","STREET":"東興五街","SECT":" ","MAREA":" ","LANE":"２１巷","ALLEY":" ","HOUSE_NO":"１４號","E_COORD97":180700.67999999999,"N_COORD97":2579487.5,"ADDRESS":"東興五街２１巷１４號","OBJECTID":429947},"geometry":{"x":180700.68000000063,"y":2579487.5000000037}},{"attributes":{"ID":429973,"DIS_CODE":0,"TOWNNAME":"新營區","LI":"王公里","LIN":"32鄰","STREET":"大德街","SECT":" ","MAREA":" ","LANE":"５０巷","ALLEY":" ","HOUSE_NO":"１１號","E_COORD97":180297.73999999999,"N_COORD97":2579494.9300000002,"ADDRESS":"大德街５０巷１１號","OBJECTID":429948},"geometry":{"x":180297.74000000115,"y":2579494.9300000016}},{"attributes":{"ID":429974,"DIS_CODE":0,"TOWNNAME":"新營區","LI":"興業里","LIN":" ","STREET":"公誠街","SECT":" ","MAREA":" ","LANE":"１７巷","ALLEY":" ","HOUSE_NO":"６之４號","E_COORD97":180316.14000000001,"N_COORD97":2577921.21,"ADDRESS":"公誠街１７巷６之４號","OBJECTID":429949},"geometry":{"x":180316.1400000006,"y":2577921.2100000028}},{"attributes":{"ID":429975,"DIS_CODE":0,"TOWNNAME":"新營區","LI":"興業里","LIN":" ","STREET":"公誠街","SECT":" ","MAREA":" ","LANE":"９巷","ALLEY":" ","HOUSE_NO":"１６之１號","E_COORD97":180366.85999999999,"N_COORD97":2578001.8199999998,"ADDRESS":"公誠街９巷１６之１號","OBJECTID":429950},"geometry":{"x":180366.86000000034,"y":2578001.8200000022}},{"attributes":{"ID":429976,"DIS_CODE":0,"TOWNNAME":"新營區","LI":"民榮里","LIN":" ","STREET":"裕民路","SECT":" ","MAREA":" ","LANE":"１６巷","ALLEY":" ","HOUSE_NO":"１６之２號","E_COORD97":179053.10999999999,"N_COORD97":2577928.3199999998,"ADDRESS":"裕民路１６巷１６之２號","OBJECTID":429951},"geometry":{"x":179053.11000000034,"y":2577928.3200000003}},{"attributes":{"ID":429977,"DIS_CODE":0,"TOWNNAME":"新營區","LI":"埤寮里","LIN":" ","STREET":"中正路","SECT":" ","MAREA":" ","LANE":"４３０巷","ALLEY":" ","HOUSE_NO":"１００號","E_COORD97":180416.14999999999,"N_COORD97":2580267.3700000001,"ADDRESS":"中正路４３０巷１００號","OBJECTID":429952},"geometry":{"x":180416.15000000037,"y":2580267.3700000029}},{"attributes":{"ID":429978,"DIS_CODE":0,"TOWNNAME":"新營區","LI":"新北里","LIN":"24鄰","STREET":"民生路","SECT":" ","MAREA":" ","LANE":"４２０巷","ALLEY":" ","HOUSE_NO":"４２號","E_COORD97":178920.54999999999,"N_COORD97":2579371.8999999999,"ADDRESS":"民生路４２０巷４２號","OBJECTID":429953},"geometry":{"x":178920.54999999981,"y":2579371.9000000004}},{"attributes":{"ID":429979,"DIS_CODE":0,"TOWNNAME":"新營區","LI":"民榮里","LIN":" ","STREET":"和平路","SECT":" ","MAREA":" ","LANE":"３２巷","ALLEY":" ","HOUSE_NO":"７之３號","E_COORD97":179344.87,"N_COORD97":2577803.9900000002,"ADDRESS":"和平路３２巷７之３號","OBJECTID":429954},"geometry":{"x":179344.87000000197,"y":2577803.9900000021}},{"attributes":{"ID":429980,"DIS_CODE":0,"TOWNNAME":"東區","LI":"大同里","LIN":"14鄰","STREET":"府連路","SECT":" ","MAREA":" ","LANE":"１７５巷","ALLEY":" ","HOUSE_NO":"９號","E_COORD97":169223.98000000001,"N_COORD97":2542881.1000000001,"ADDRESS":"府連路１７５巷９號","OBJECTID":429955},"geometry":{"x":169223.98000000045,"y":2542881.1000000015}},{"attributes":{"ID":429981,"DIS_CODE":0,"TOWNNAME":"新營區","LI":"民榮里","LIN":"18鄰","STREET":"裕民路","SECT":" ","MAREA":" ","LANE":"５８巷","ALLEY":" ","HOUSE_NO":"３３號","E_COORD97":179090.10000000001,"N_COORD97":2577825.0800000001,"ADDRESS":"裕民路５８巷３３號","OBJECTID":429956},"geometry":{"x":179090.09999999963,"y":2577825.0800000001}},{"attributes":{"ID":429982,"DIS_CODE":0,"TOWNNAME":"新營區","LI":"王公里","LIN":"13鄰","STREET":"義和街","SECT":" ","MAREA":" ","LANE":"８巷","ALLEY":" ","HOUSE_NO":"２１號","E_COORD97":180466,"N_COORD97":2579155.2599999998,"ADDRESS":"義和街８巷２１號","OBJECTID":429957},"geometry":{"x":180465.99999999907,"y":2579155.2599999998}},{"attributes":{"ID":429983,"DIS_CODE":0,"TOWNNAME":"新營區","LI":"民榮里","LIN":"32鄰","STREET":"太子路","SECT":" ","MAREA":" ","LANE":"５３巷","ALLEY":" ","HOUSE_NO":"２號","E_COORD97":178324.59,"N_COORD97":2578009.2799999998,"ADDRESS":"太子路５３巷２號","OBJECTID":429958},"geometry":{"x":178324.59000000078,"y":2578009.2799999993}},{"attributes":{"ID":429984,"DIS_CODE":0,"TOWNNAME":"新營區","LI":"王公里","LIN":"7鄰","STREET":"民治路","SECT":" ","MAREA":" ","LANE":"２６巷","ALLEY":" ","HOUSE_NO":"１９號之２","E_COORD97":180202.57000000001,"N_COORD97":2578955,"ADDRESS":"民治路２６巷１９號之２","OBJECTID":429959},"geometry":{"x":180202.5700000003,"y":2578955}},{"attributes":{"ID":429985,"DIS_CODE":0,"TOWNNAME":"新營區","LI":"南紙里","LIN":"4鄰","STREET":"南紙街","SECT":" ","MAREA":" ","LANE":"２９巷","ALLEY":" ","HOUSE_NO":"３號","E_COORD97":177863.98999999999,"N_COORD97":2577734.6499999999,"ADDRESS":"南紙街２９巷３號","OBJECTID":429960},"geometry":{"x":177863.99000000022,"y":2577734.6500000022}},{"attributes":{"ID":429986,"DIS_CODE":0,"TOWNNAME":"新營區","LI":"民生里","LIN":"18鄰","STREET":"民治路","SECT":" ","MAREA":" ","LANE":"１８３巷","ALLEY":" ","HOUSE_NO":"３０號","E_COORD97":178881.98999999999,"N_COORD97":2578368.73,"ADDRESS":"民治路１８３巷３０號","OBJECTID":429961},"geometry":{"x":178881.99000000115,"y":2578368.7300000023}},{"attributes":{"ID":429987,"DIS_CODE":0,"TOWNNAME":"新營區","LI":"南興里","LIN":"18鄰","STREET":"建業路","SECT":" ","MAREA":" ","LANE":"１６７巷","ALLEY":" ","HOUSE_NO":"２０號","E_COORD97":178328.31,"N_COORD97":2577464.3900000001,"ADDRESS":"建業路１６７巷２０號","OBJECTID":429962},"geometry":{"x":178328.31000000052,"y":2577464.3900000006}},{"attributes":{"ID":429988,"DIS_CODE":0,"TOWNNAME":"新營區","LI":"新北里","LIN":"26鄰","STREET":"民治路","SECT":" ","MAREA":" ","LANE":"１５６巷","ALLEY":" ","HOUSE_NO":"２號","E_COORD97":179142.26000000001,"N_COORD97":2578730.73,"ADDRESS":"民治路１５６巷２號","OBJECTID":429963},"geometry":{"x":179142.26000000071,"y":2578730.7300000042}},{"attributes":{"ID":429989,"DIS_CODE":0,"TOWNNAME":"新營區","LI":"忠政里","LIN":"32鄰","STREET":"府西路","SECT":" ","MAREA":" ","LANE":"１７巷","ALLEY":" ","HOUSE_NO":"５號","E_COORD97":179795.64000000001,"N_COORD97":2578911.4500000002,"ADDRESS":"府西路１７巷５號","OBJECTID":429964},"geometry":{"x":179795.6400000006,"y":2578911.4500000011}},{"attributes":{"ID":429990,"DIS_CODE":0,"TOWNNAME":"新營區","LI":"新北里","LIN":"4鄰","STREET":"周武街","SECT":" ","MAREA":" ","LANE":"１３０巷","ALLEY":" ","HOUSE_NO":"７號","E_COORD97":179336.45000000001,"N_COORD97":2579136.2400000002,"ADDRESS":"周武街１３０巷７號","OBJECTID":429965},"geometry":{"x":179336.45000000112,"y":2579136.2400000002}},{"attributes":{"ID":429991,"DIS_CODE":0,"TOWNNAME":"新營區","LI":"民榮里","LIN":" ","STREET":"裕民路","SECT":" ","MAREA":" ","LANE":"１６巷","ALLEY":" ","HOUSE_NO":"１８之１號","E_COORD97":179048,"N_COORD97":2577928.3399999999,"ADDRESS":"裕民路１６巷１８之１號","OBJECTID":429966},"geometry":{"x":179048.00000000093,"y":2577928.3399999999}},{"attributes":{"ID":429992,"DIS_CODE":0,"TOWNNAME":"新營區","LI":"新東里","LIN":"26鄰","STREET":"東興五街","SECT":" ","MAREA":" ","LANE":"２１巷","ALLEY":" ","HOUSE_NO":"４３號","E_COORD97":180617.75,"N_COORD97":2579451.3399999999,"ADDRESS":"東興五街２１巷４３號","OBJECTID":429967},"geometry":{"x":180617.75000000093,"y":2579451.3400000036}},{"attributes":{"ID":429993,"DIS_CODE":0,"TOWNNAME":"新營區","LI":"忠政里","LIN":"26鄰","STREET":"府西路","SECT":" ","MAREA":" ","LANE":"１５９巷","ALLEY":" ","HOUSE_NO":"６號","E_COORD97":179771.35999999999,"N_COORD97":2579402.1699999999,"ADDRESS":"府西路１５９巷６號","OBJECTID":429968},"geometry":{"x":179771.36000000127,"y":2579402.1700000018}},{"attributes":{"ID":429994,"DIS_CODE":0,"TOWNNAME":"新營區","LI":"延平里","LIN":"17鄰","STREET":"長春街","SECT":" ","MAREA":" ","LANE":"１３４巷","ALLEY":" ","HOUSE_NO":"４２號","E_COORD97":179525.23999999999,"N_COORD97":2577913.8199999998,"ADDRESS":"長春街１３４巷４２號","OBJECTID":429969},"geometry":{"x":179525.24000000022,"y":2577913.8200000022}},{"attributes":{"ID":429995,"DIS_CODE":0,"TOWNNAME":"新營區","LI":"民榮里","LIN":"17鄰","STREET":"裕民路","SECT":" ","MAREA":" ","LANE":"５８巷","ALLEY":" ","HOUSE_NO":"９號","E_COORD97":179100.79000000001,"N_COORD97":2577779.6200000001,"ADDRESS":"裕民路５８巷９號","OBJECTID":429970},"geometry":{"x":179100.79000000004,"y":2577779.6200000029}},{"attributes":{"ID":429996,"DIS_CODE":0,"TOWNNAME":"新營區","LI":"民權里","LIN":" ","STREET":"中正路","SECT":" ","MAREA":" ","LANE":"９巷","ALLEY":" ","HOUSE_NO":"１４之１號","E_COORD97":179962.69,"N_COORD97":2578407.9399999999,"ADDRESS":"中正路９巷１４之１號","OBJECTID":429971},"geometry":{"x":179962.69000000041,"y":2578407.9399999995}},{"attributes":{"ID":429997,"DIS_CODE":0,"TOWNNAME":"新營區","LI":"興業里","LIN":" ","STREET":"中興路","SECT":" ","MAREA":" ","LANE":"１５巷","ALLEY":" ","HOUSE_NO":"４之２號","E_COORD97":180155.62,"N_COORD97":2577920.8599999999,"ADDRESS":"中興路１５巷４之２號","OBJECTID":429972},"geometry":{"x":180155.62000000104,"y":2577920.8599999994}},{"attributes":{"ID":429998,"DIS_CODE":0,"TOWNNAME":"新營區","LI":"南興里","LIN":"20鄰","STREET":"和平路","SECT":" ","MAREA":" ","LANE":"１０４巷","ALLEY":" ","HOUSE_NO":"６號之１","E_COORD97":179386.67999999999,"N_COORD97":2577565.6800000002,"ADDRESS":"和平路１０４巷６之１號","OBJECTID":429973},"geometry":{"x":179386.68000000063,"y":2577565.6799999997}},{"attributes":{"ID":429999,"DIS_CODE":0,"TOWNNAME":"新營區","LI":"民榮里","LIN":"26鄰","STREET":"復興路","SECT":" ","MAREA":" ","LANE":"３０５巷","ALLEY":" ","HOUSE_NO":"５８號","E_COORD97":178497.75,"N_COORD97":2578032.8100000001,"ADDRESS":"復興路３０５巷５８號","OBJECTID":429974},"geometry":{"x":178497.75,"y":2578032.8100000024}},{"attributes":{"ID":430000,"DIS_CODE":0,"TOWNNAME":"新營區","LI":"新東里","LIN":"25鄰","STREET":"民族路","SECT":" ","MAREA":" ","LANE":"１５０巷","ALLEY":" ","HOUSE_NO":"９０號","E_COORD97":180703.07999999999,"N_COORD97":2579350.1699999999,"ADDRESS":"民族路１５０巷９０號","OBJECTID":429975},"geometry":{"x":180703.08000000194,"y":2579350.1699999999}},{"attributes":{"ID":430001,"DIS_CODE":0,"TOWNNAME":"新營區","LI":"興業里","LIN":" ","STREET":"中興路","SECT":" ","MAREA":" ","LANE":"１３巷","ALLEY":" ","HOUSE_NO":"２０之３號","E_COORD97":180228.64999999999,"N_COORD97":2577962.6000000001,"ADDRESS":"中興路１３巷２０之３號","OBJECTID":429976},"geometry":{"x":180228.6500000013,"y":2577962.5999999996}},{"attributes":{"ID":430002,"DIS_CODE":0,"TOWNNAME":"新營區","LI":"忠政里","LIN":"14鄰","STREET":"府西路","SECT":" ","MAREA":" ","LANE":"２３０巷","ALLEY":" ","HOUSE_NO":"１３號","E_COORD97":179858.48999999999,"N_COORD97":2579611.0699999998,"ADDRESS":"府西路２３０巷１３號","OBJECTID":429977},"geometry":{"x":179858.49000000115,"y":2579611.0700000022}},{"attributes":{"ID":430003,"DIS_CODE":0,"TOWNNAME":"新營區","LI":"嘉芳里","LIN":" ","STREET":"復興路","SECT":" ","MAREA":" ","LANE":"１０７４巷","ALLEY":" ","HOUSE_NO":"１２號","E_COORD97":176137.20999999999,"N_COORD97":2578918.1800000002,"ADDRESS":"復興路１０７４巷１２號","OBJECTID":429978},"geometry":{"x":176137.21000000089,"y":2578918.1800000016}},{"attributes":{"ID":430004,"DIS_CODE":0,"TOWNNAME":"新營區","LI":"興業里","LIN":" ","STREET":"中興路","SECT":" ","MAREA":" ","LANE":"１３巷","ALLEY":" ","HOUSE_NO":"１之４號","E_COORD97":180148.66,"N_COORD97":2577981.79,"ADDRESS":"中興路１３巷１之４號","OBJECTID":429979},"geometry":{"x":180148.66000000108,"y":2577981.7899999991}},{"attributes":{"ID":430005,"DIS_CODE":0,"TOWNNAME":"新營區","LI":"新北里","LIN":"20鄰","STREET":"民生路","SECT":" ","MAREA":" ","LANE":"３３６巷","ALLEY":" ","HOUSE_NO":"３８號","E_COORD97":179007.64999999999,"N_COORD97":2579188.75,"ADDRESS":"民生路３３６巷３８號","OBJECTID":429980},"geometry":{"x":179007.65000000224,"y":2579188.7500000019}},{"attributes":{"ID":430006,"DIS_CODE":0,"TOWNNAME":"新營區","LI":"新南里","LIN":"14鄰","STREET":"民治路","SECT":" ","MAREA":" ","LANE":"２３０巷","ALLEY":" ","HOUSE_NO":"２７號","E_COORD97":178745.98000000001,"N_COORD97":2578591.98,"ADDRESS":"民治路２３０巷２７號","OBJECTID":429981},"geometry":{"x":178745.98000000045,"y":2578591.9800000004}},{"attributes":{"ID":430007,"DIS_CODE":0,"TOWNNAME":"新營區","LI":"大宏里","LIN":" ","STREET":"三民路","SECT":" ","MAREA":" ","LANE":"８巷","ALLEY":" ","HOUSE_NO":"１４號","E_COORD97":180621.92999999999,"N_COORD97":2578615.1899999999,"ADDRESS":"三民路８巷１４號","OBJECTID":429982},"geometry":{"x":180621.9299999997,"y":2578615.1900000013}},{"attributes":{"ID":430008,"DIS_CODE":0,"TOWNNAME":"新營區","LI":"忠政里","LIN":"26鄰","STREET":"府西路","SECT":" ","MAREA":" ","LANE":"１３７巷","ALLEY":" ","HOUSE_NO":"９號","E_COORD97":179761.76000000001,"N_COORD97":2579326.8999999999,"ADDRESS":"府西路１３７巷９號","OBJECTID":429983},"geometry":{"x":179761.75999999978,"y":2579326.9000000022}},{"attributes":{"ID":430009,"DIS_CODE":0,"TOWNNAME":"新營區","LI":"民生里","LIN":"24鄰","STREET":"民生路","SECT":" ","MAREA":" ","LANE":"１３９巷","ALLEY":" ","HOUSE_NO":"１１號","E_COORD97":179155.98999999999,"N_COORD97":2578574.5099999998,"ADDRESS":"民生路１３９巷１１號","OBJECTID":429984},"geometry":{"x":179155.99000000209,"y":2578574.5099999998}},{"attributes":{"ID":430010,"DIS_CODE":0,"TOWNNAME":"新營區","LI":"新北里","LIN":"20鄰","STREET":"民生路","SECT":" ","MAREA":" ","LANE":"３３６巷","ALLEY":" ","HOUSE_NO":"１６號","E_COORD97":178975.98000000001,"N_COORD97":2579216.5899999999,"ADDRESS":"民生路３３６巷１６號","OBJECTID":429985},"geometry":{"x":178975.98000000045,"y":2579216.5900000017}},{"attributes":{"ID":430011,"DIS_CODE":0,"TOWNNAME":"新營區","LI":"興業里","LIN":" ","STREET":"中興路","SECT":" ","MAREA":" ","LANE":"１３巷","ALLEY":" ","HOUSE_NO":"１２之３號","E_COORD97":180192.78,"N_COORD97":2577962.77,"ADDRESS":"中興路１３巷１２之３號","OBJECTID":429986},"geometry":{"x":180192.78000000026,"y":2577962.7699999977}},{"attributes":{"ID":430012,"DIS_CODE":0,"TOWNNAME":"新營區","LI":"忠政里","LIN":"5鄰","STREET":"安和街","SECT":" ","MAREA":" ","LANE":"２５巷","ALLEY":" ","HOUSE_NO":"１１號","E_COORD97":180026.39999999999,"N_COORD97":2579213.7999999998,"ADDRESS":"安和街２５巷１１號","OBJECTID":429987},"geometry":{"x":180026.40000000224,"y":2579213.8000000007}},{"attributes":{"ID":430013,"DIS_CODE":0,"TOWNNAME":"東區","LI":"崇文里","LIN":"40鄰","STREET":"生產路","SECT":" ","MAREA":" ","LANE":" ","ALLEY":" ","HOUSE_NO":"２７９號五樓","E_COORD97":170928.70000000001,"N_COORD97":2540618.5099999998,"ADDRESS":"生產路２７９號五樓","OBJECTID":429988},"geometry":{"x":170928.70000000019,"y":2540618.5099999998}},{"attributes":{"ID":430014,"DIS_CODE":0,"TOWNNAME":"新營區","LI":"興業里","LIN":" ","STREET":"公誠街","SECT":" ","MAREA":" ","LANE":"９巷","ALLEY":" ","HOUSE_NO":"１６之２號","E_COORD97":180366.85999999999,"N_COORD97":2578001.8199999998,"ADDRESS":"公誠街９巷１６之２號","OBJECTID":429989},"geometry":{"x":180366.86000000034,"y":2578001.8200000022}},{"attributes":{"ID":430015,"DIS_CODE":0,"TOWNNAME":"新營區","LI":"民權里","LIN":" ","STREET":"信義街","SECT":" ","MAREA":" ","LANE":"５３巷","ALLEY":" ","HOUSE_NO":"３之１號","E_COORD97":179903.67000000001,"N_COORD97":2578285.29,"ADDRESS":"信義街５３巷３之１號","OBJECTID":429990},"geometry":{"x":179903.66999999899,"y":2578285.290000001}},{"attributes":{"ID":430016,"DIS_CODE":0,"TOWNNAME":"新營區","LI":"新北里","LIN":"25鄰","STREET":"民生路","SECT":" ","MAREA":" ","LANE":"１７５巷","ALLEY":" ","HOUSE_NO":"６０號","E_COORD97":179063,"N_COORD97":2578805.3100000001,"ADDRESS":"民生路１７５巷６０號","OBJECTID":429991},"geometry":{"x":179063.00000000093,"y":2578805.3100000024}},{"attributes":{"ID":430017,"DIS_CODE":0,"TOWNNAME":"安平區","LI":"華平里","LIN":"4鄰","STREET":"怡平路","SECT":" ","MAREA":" ","LANE":"４６８巷","ALLEY":" ","HOUSE_NO":"２５號","E_COORD97":165231.31,"N_COORD97":2543899.1800000002,"ADDRESS":"怡平路４６８巷２５號","OBJECTID":429992},"geometry":{"x":165231.31000000052,"y":2543899.1799999997}},{"attributes":{"ID":430018,"DIS_CODE":0,"TOWNNAME":"安平區","LI":"金城里","LIN":"7鄰","STREET":"同平路","SECT":" ","MAREA":" ","LANE":"９０巷","ALLEY":" ","HOUSE_NO":"６號","E_COORD97":163149.23999999999,"N_COORD97":2544220.4199999999,"ADDRESS":"同平路９０巷６號","OBJECTID":429993},"geometry":{"x":163149.24000000022,"y":2544220.4199999999}},{"attributes":{"ID":430019,"DIS_CODE":0,"TOWNNAME":"安平區","LI":"華平里","LIN":"20鄰","STREET":"永華八街","SECT":" ","MAREA":" ","LANE":"１９３巷","ALLEY":" ","HOUSE_NO":"２號","E_COORD97":165141.14000000001,"N_COORD97":2543745.21,"ADDRESS":"永華八街１９３巷２號","OBJECTID":429994},"geometry":{"x":165141.1400000006,"y":2543745.2100000009}},{"attributes":{"ID":430020,"DIS_CODE":0,"TOWNNAME":"安平區","LI":"華平里","LIN":"17鄰","STREET":"永華八街","SECT":" ","MAREA":" ","LANE":"１９３巷","ALLEY":" ","HOUSE_NO":"２０之３號","E_COORD97":165110.09,"N_COORD97":2543764.8900000001,"ADDRESS":"永華八街１９３巷２０之３號","OBJECTID":429995},"geometry":{"x":165110.08999999985,"y":2543764.8900000025}},{"attributes":{"ID":430021,"DIS_CODE":0,"TOWNNAME":"安平區","LI":"華平里","LIN":"17鄰","STREET":"永華八街","SECT":" ","MAREA":" ","LANE":"１９３巷","ALLEY":" ","HOUSE_NO":"２６號","E_COORD97":165089.64999999999,"N_COORD97":2543768.9300000002,"ADDRESS":"永華八街１９３巷２６號","OBJECTID":429996},"geometry":{"x":165089.65000000037,"y":2543768.9299999997}},{"attributes":{"ID":430022,"DIS_CODE":0,"TOWNNAME":"安平區","LI":"怡平里","LIN":"23鄰","STREET":"平通路","SECT":" ","MAREA":" ","LANE":"３６５巷","ALLEY":" ","HOUSE_NO":"４９號","E_COORD97":165667.97,"N_COORD97":2543604.3100000001,"ADDRESS":"平通路３６５巷４９號","OBJECTID":429997},"geometry":{"x":165667.96999999974,"y":2543604.3100000005}},{"attributes":{"ID":430023,"DIS_CODE":0,"TOWNNAME":"安平區","LI":"怡平里","LIN":"23鄰","STREET":"平通路","SECT":" ","MAREA":" ","LANE":"３６５巷","ALLEY":" ","HOUSE_NO":"５１號","E_COORD97":165667.26000000001,"N_COORD97":2543598.25,"ADDRESS":"平通路３６５巷５１號","OBJECTID":429998},"geometry":{"x":165667.26000000071,"y":2543598.25}},{"attributes":{"ID":430024,"DIS_CODE":0,"TOWNNAME":"安平區","LI":"怡平里","LIN":"23鄰","STREET":"平通路","SECT":" ","MAREA":" ","LANE":"３６５巷","ALLEY":" ","HOUSE_NO":"５３號","E_COORD97":165665.82999999999,"N_COORD97":2543590.7599999998,"ADDRESS":"平通路３６５巷５３號","OBJECTID":429999},"geometry":{"x":165665.83000000007,"y":2543590.7599999998}},{"attributes":{"ID":430025,"DIS_CODE":0,"TOWNNAME":"安平區","LI":"怡平里","LIN":"16鄰","STREET":"永華六街","SECT":" ","MAREA":" ","LANE":"１５４巷","ALLEY":" ","HOUSE_NO":"１３號","E_COORD97":165710.63,"N_COORD97":2543910.2999999998,"ADDRESS":"永華六街１５４巷１３號","OBJECTID":430000},"geometry":{"x":165710.63000000082,"y":2543910.3000000007}}]}