{"displayFieldName":"TOWNNAME","fieldAliases":{"ID":"ID","DIS_CODE":"DIS_CODE","TOWNNAME":"TOWNNAME","LI":"LI","LIN":"LIN","STREET":"STREET","SECT":"SECT","MAREA":"MAREA","LANE":"LANE","ALLEY":"ALLEY","HOUSE_NO":"HOUSE_NO","E_COORD97":"E_COORD97","N_COORD97":"N_COORD97","ADDRESS":"ADDRESS","OBJECTID":"OBJECTID"},"geometryType":"esriGeometryPoint","spatialReference":{"wkid":102443,"latestWkid":3826},"fields":[{"name":"ID","type":"esriFieldTypeDouble","alias":"ID"},{"name":"DIS_CODE","type":"esriFieldTypeInteger","alias":"DIS_CODE"},{"name":"TOWNNAME","type":"esriFieldTypeString","alias":"TOWNNAME","length":8},{"name":"LI","type":"esriFieldTypeString","alias":"LI","length":8},{"name":"LIN","type":"esriFieldTypeString","alias":"LIN","length":12},{"name":"STREET","type":"esriFieldTypeString","alias":"STREET","length":20},{"name":"SECT","type":"esriFieldTypeString","alias":"SECT","length":8},{"name":"MAREA","type":"esriFieldTypeString","alias":"MAREA","length":12},{"name":"LANE","type":"esriFieldTypeString","alias":"LANE","length":10},{"name":"ALLEY","type":"esriFieldTypeString","alias":"ALLEY","length":10},{"name":"HOUSE_NO","type":"esriFieldTypeString","alias":"HOUSE_NO","length":20},{"name":"E_COORD97","type":"esriFieldTypeDouble","alias":"E_COORD97"},{"name":"N_COORD97","type":"esriFieldTypeDouble","alias":"N_COORD97"},{"name":"ADDRESS","type":"esriFieldTypeString","alias":"ADDRESS","length":50},{"name":"OBJECTID","type":"esriFieldTypeOID","alias":"OBJECTID"}],"features":[{"attributes":{"ID":598028,"DIS_CODE":0,"TOWNNAME":"佳里區","LI":"建南里","LIN":"27鄰","STREET":"安南路","SECT":" ","MAREA":" ","LANE":" ","ALLEY":" ","HOUSE_NO":"１２５號","E_COORD97":165735.38,"N_COORD97":2561321.23,"ADDRESS":"安南路１２５號","OBJECTID":598001},"geometry":{"x":165735.37999999989,"y":2561321.2300000023}},{"attributes":{"ID":598029,"DIS_CODE":0,"TOWNNAME":"佳里區","LI":"建南里","LIN":"27鄰","STREET":"安南路","SECT":" ","MAREA":" ","LANE":" ","ALLEY":" ","HOUSE_NO":"１２７號","E_COORD97":165728.29000000001,"N_COORD97":2561321.1000000001,"ADDRESS":"安南路１２７號","OBJECTID":598002},"geometry":{"x":165728.29000000097,"y":2561321.1000000034}},{"attributes":{"ID":598030,"DIS_CODE":0,"TOWNNAME":"佳里區","LI":"建南里","LIN":"27鄰","STREET":"安南路","SECT":" ","MAREA":" ","LANE":" ","ALLEY":" ","HOUSE_NO":"１２８號","E_COORD97":165759.41,"N_COORD97":2561363.25,"ADDRESS":"安南路１２８號","OBJECTID":598003},"geometry":{"x":165759.41000000201,"y":2561363.25}},{"attributes":{"ID":598031,"DIS_CODE":0,"TOWNNAME":"佳里區","LI":"建南里","LIN":"27鄰","STREET":"安南路","SECT":" ","MAREA":" ","LANE":" ","ALLEY":" ","HOUSE_NO":"１２９號","E_COORD97":165720.73000000001,"N_COORD97":2561321.1000000001,"ADDRESS":"安南路１２９號","OBJECTID":598004},"geometry":{"x":165720.73000000138,"y":2561321.1000000034}},{"attributes":{"ID":598032,"DIS_CODE":0,"TOWNNAME":"佳里區","LI":"建南里","LIN":"27鄰","STREET":"安南路","SECT":" ","MAREA":" ","LANE":" ","ALLEY":" ","HOUSE_NO":"１３６號","E_COORD97":165720.78,"N_COORD97":2561344.7400000002,"ADDRESS":"安南路１３６號","OBJECTID":598005},"geometry":{"x":165720.78000000026,"y":2561344.7400000021}},{"attributes":{"ID":598033,"DIS_CODE":0,"TOWNNAME":"佳里區","LI":"建南里","LIN":"27鄰","STREET":"安南路","SECT":" ","MAREA":" ","LANE":" ","ALLEY":" ","HOUSE_NO":"１３８號","E_COORD97":165715.85000000001,"N_COORD97":2561344.7000000002,"ADDRESS":"安南路１３８號","OBJECTID":598006},"geometry":{"x":165715.85000000056,"y":2561344.7000000011}},{"attributes":{"ID":598034,"DIS_CODE":0,"TOWNNAME":"佳里區","LI":"建南里","LIN":"27鄰","STREET":"安南路","SECT":" ","MAREA":" ","LANE":" ","ALLEY":" ","HOUSE_NO":"１４０號","E_COORD97":165710.82999999999,"N_COORD97":2561345.1400000001,"ADDRESS":"安南路１４０號","OBJECTID":598007},"geometry":{"x":165710.83000000194,"y":2561345.1399999987}},{"attributes":{"ID":598035,"DIS_CODE":0,"TOWNNAME":"佳里區","LI":"建南里","LIN":"27鄰","STREET":"安南路","SECT":" ","MAREA":" ","LANE":" ","ALLEY":" ","HOUSE_NO":"１４２號","E_COORD97":165706.10000000001,"N_COORD97":2561345.2200000002,"ADDRESS":"安南路１４２號","OBJECTID":598008},"geometry":{"x":165706.09999999963,"y":2561345.2200000025}},{"attributes":{"ID":598036,"DIS_CODE":0,"TOWNNAME":"佳里區","LI":"建南里","LIN":"27鄰","STREET":"安南路","SECT":" ","MAREA":" ","LANE":" ","ALLEY":" ","HOUSE_NO":"１５９號","E_COORD97":165689.67000000001,"N_COORD97":2561323.0899999999,"ADDRESS":"安南路１５９號","OBJECTID":598009},"geometry":{"x":165689.67000000179,"y":2561323.0899999999}},{"attributes":{"ID":598037,"DIS_CODE":0,"TOWNNAME":"佳里區","LI":"建南里","LIN":"27鄰","STREET":"安南路","SECT":" ","MAREA":" ","LANE":" ","ALLEY":" ","HOUSE_NO":"７７號","E_COORD97":165873.75,"N_COORD97":2561316,"ADDRESS":"安南路７７號","OBJECTID":598010},"geometry":{"x":165873.75,"y":2561316.0000000019}},{"attributes":{"ID":598038,"DIS_CODE":0,"TOWNNAME":"佳里區","LI":"建南里","LIN":"27鄰","STREET":"安南路","SECT":" ","MAREA":" ","LANE":" ","ALLEY":" ","HOUSE_NO":"７９號","E_COORD97":165870.14000000001,"N_COORD97":2561318.5,"ADDRESS":"安南路７９號","OBJECTID":598011},"geometry":{"x":165870.13999999966,"y":2561318.5000000037}},{"attributes":{"ID":598039,"DIS_CODE":0,"TOWNNAME":"佳里區","LI":"建南里","LIN":"27鄰","STREET":"安南路","SECT":" ","MAREA":" ","LANE":" ","ALLEY":" ","HOUSE_NO":"８０號","E_COORD97":165855.69,"N_COORD97":2561341.6200000001,"ADDRESS":"安南路８０號","OBJECTID":598012},"geometry":{"x":165855.69000000041,"y":2561341.620000001}},{"attributes":{"ID":598040,"DIS_CODE":0,"TOWNNAME":"佳里區","LI":"建南里","LIN":"27鄰","STREET":"安南路","SECT":" ","MAREA":" ","LANE":" ","ALLEY":" ","HOUSE_NO":"８１號","E_COORD97":165865.98000000001,"N_COORD97":2561318.8399999999,"ADDRESS":"安南路８１號","OBJECTID":598013},"geometry":{"x":165865.97999999952,"y":2561318.8399999999}},{"attributes":{"ID":598041,"DIS_CODE":0,"TOWNNAME":"佳里區","LI":"建南里","LIN":"27鄰","STREET":"安南路","SECT":" ","MAREA":" ","LANE":" ","ALLEY":" ","HOUSE_NO":"８２號","E_COORD97":165851.23999999999,"N_COORD97":2561341.46,"ADDRESS":"安南路８２號","OBJECTID":598014},"geometry":{"x":165851.24000000115,"y":2561341.4600000028}},{"attributes":{"ID":598042,"DIS_CODE":0,"TOWNNAME":"佳里區","LI":"建南里","LIN":"27鄰","STREET":"安南路","SECT":" ","MAREA":" ","LANE":" ","ALLEY":" ","HOUSE_NO":"８３號","E_COORD97":165861.39000000001,"N_COORD97":2561319.2200000002,"ADDRESS":"安南路８３號","OBJECTID":598015},"geometry":{"x":165861.3900000006,"y":2561319.2200000025}},{"attributes":{"ID":598043,"DIS_CODE":0,"TOWNNAME":"佳里區","LI":"建南里","LIN":"27鄰","STREET":"安南路","SECT":" ","MAREA":" ","LANE":" ","ALLEY":" ","HOUSE_NO":"８４號","E_COORD97":165846.66,"N_COORD97":2561342.02,"ADDRESS":"安南路８４號","OBJECTID":598016},"geometry":{"x":165846.66000000108,"y":2561342.0200000014}},{"attributes":{"ID":598044,"DIS_CODE":0,"TOWNNAME":"佳里區","LI":"建南里","LIN":"27鄰","STREET":"安南路","SECT":" ","MAREA":" ","LANE":" ","ALLEY":" ","HOUSE_NO":"８５號","E_COORD97":165855.48000000001,"N_COORD97":2561318.3700000001,"ADDRESS":"安南路８５號","OBJECTID":598017},"geometry":{"x":165855.48000000045,"y":2561318.3700000029}},{"attributes":{"ID":598045,"DIS_CODE":0,"TOWNNAME":"佳里區","LI":"建南里","LIN":"27鄰","STREET":"安南路","SECT":" ","MAREA":" ","LANE":" ","ALLEY":" ","HOUSE_NO":"８９號","E_COORD97":165847.76999999999,"N_COORD97":2561318.6299999999,"ADDRESS":"安南路８９號","OBJECTID":598018},"geometry":{"x":165847.76999999862,"y":2561318.629999999}},{"attributes":{"ID":598046,"DIS_CODE":0,"TOWNNAME":"佳里區","LI":"建南里","LIN":"27鄰","STREET":"安南路","SECT":" ","MAREA":" ","LANE":" ","ALLEY":" ","HOUSE_NO":"９０號","E_COORD97":165832.54999999999,"N_COORD97":2561341.9300000002,"ADDRESS":"安南路９０號","OBJECTID":598019},"geometry":{"x":165832.54999999981,"y":2561341.9299999997}},{"attributes":{"ID":598047,"DIS_CODE":0,"TOWNNAME":"佳里區","LI":"建南里","LIN":"27鄰","STREET":"安南路","SECT":" ","MAREA":" ","LANE":" ","ALLEY":" ","HOUSE_NO":"９１號","E_COORD97":165843.60999999999,"N_COORD97":2561319.0499999998,"ADDRESS":"安南路９１號","OBJECTID":598020},"geometry":{"x":165843.61000000127,"y":2561319.0500000045}},{"attributes":{"ID":598048,"DIS_CODE":0,"TOWNNAME":"佳里區","LI":"建南里","LIN":"27鄰","STREET":"安南路","SECT":" ","MAREA":" ","LANE":" ","ALLEY":" ","HOUSE_NO":"９２號","E_COORD97":165827.22,"N_COORD97":2561342.3100000001,"ADDRESS":"安南路９２號","OBJECTID":598021},"geometry":{"x":165827.22000000067,"y":2561342.3100000024}},{"attributes":{"ID":598049,"DIS_CODE":0,"TOWNNAME":"佳里區","LI":"建南里","LIN":"27鄰","STREET":"安南路","SECT":" ","MAREA":" ","LANE":" ","ALLEY":" ","HOUSE_NO":"９３號","E_COORD97":165839.54000000001,"N_COORD97":2561319.1600000001,"ADDRESS":"安南路９３號","OBJECTID":598022},"geometry":{"x":165839.54000000004,"y":2561319.160000002}},{"attributes":{"ID":598050,"DIS_CODE":0,"TOWNNAME":"佳里區","LI":"建南里","LIN":"27鄰","STREET":"安南路","SECT":" ","MAREA":" ","LANE":" ","ALLEY":" ","HOUSE_NO":"９４號","E_COORD97":165822.38,"N_COORD97":2561342.04,"ADDRESS":"安南路９４號","OBJECTID":598023},"geometry":{"x":165822.38000000082,"y":2561342.040000001}},{"attributes":{"ID":598051,"DIS_CODE":0,"TOWNNAME":"佳里區","LI":"建南里","LIN":"27鄰","STREET":"安南路","SECT":" ","MAREA":" ","LANE":" ","ALLEY":" ","HOUSE_NO":"９５號","E_COORD97":165835.79999999999,"N_COORD97":2561319.6000000001,"ADDRESS":"安南路９５號","OBJECTID":598024},"geometry":{"x":165835.79999999981,"y":2561319.5999999996}},{"attributes":{"ID":598052,"DIS_CODE":0,"TOWNNAME":"佳里區","LI":"建南里","LIN":"27鄰","STREET":"安南路","SECT":" ","MAREA":" ","LANE":" ","ALLEY":" ","HOUSE_NO":"９６號","E_COORD97":165817.20000000001,"N_COORD97":2561342.4300000002,"ADDRESS":"安南路９６號","OBJECTID":598025},"geometry":{"x":165817.20000000112,"y":2561342.4300000034}},{"attributes":{"ID":598053,"DIS_CODE":0,"TOWNNAME":"佳里區","LI":"建南里","LIN":"27鄰","STREET":"安南路","SECT":" ","MAREA":" ","LANE":" ","ALLEY":" ","HOUSE_NO":"９７號","E_COORD97":165831.42999999999,"N_COORD97":2561319.25,"ADDRESS":"安南路９７號","OBJECTID":598026},"geometry":{"x":165831.4299999997,"y":2561319.25}},{"attributes":{"ID":598054,"DIS_CODE":0,"TOWNNAME":"佳里區","LI":"建南里","LIN":"27鄰","STREET":"安南路","SECT":" ","MAREA":" ","LANE":" ","ALLEY":" ","HOUSE_NO":"９８號","E_COORD97":165812.29000000001,"N_COORD97":2561342.71,"ADDRESS":"安南路９８號","OBJECTID":598027},"geometry":{"x":165812.29000000004,"y":2561342.7100000028}},{"attributes":{"ID":598055,"DIS_CODE":0,"TOWNNAME":"安南區","LI":"安富里","LIN":"27鄰","STREET":"府安路","SECT":"五段","MAREA":" ","LANE":" ","ALLEY":" ","HOUSE_NO":"２３６號","E_COORD97":167436.67999999999,"N_COORD97":2546874.8700000001,"ADDRESS":"府安路五段２３６號","OBJECTID":598028},"geometry":{"x":167436.6799999997,"y":2546874.8700000029}},{"attributes":{"ID":598056,"DIS_CODE":0,"TOWNNAME":"安南區","LI":"州南里","LIN":"27鄰","STREET":"長和路","SECT":"二段","MAREA":" ","LANE":" ","ALLEY":" ","HOUSE_NO":"１４１號","E_COORD97":170096.41,"N_COORD97":2551503.7799999998,"ADDRESS":"長和路二段１４１號","OBJECTID":598029},"geometry":{"x":170096.41000000108,"y":2551503.7799999993}},{"attributes":{"ID":598057,"DIS_CODE":0,"TOWNNAME":"安南區","LI":"州南里","LIN":"27鄰","STREET":"長和路","SECT":"二段","MAREA":" ","LANE":" ","ALLEY":" ","HOUSE_NO":"１３之２１號","E_COORD97":170462.04999999999,"N_COORD97":2551586.3300000001,"ADDRESS":"長和路二段１３之２１號","OBJECTID":598030},"geometry":{"x":170462.04999999981,"y":2551586.3300000019}},{"attributes":{"ID":598058,"DIS_CODE":0,"TOWNNAME":"安南區","LI":"州南里","LIN":"27鄰","STREET":"長和路","SECT":"二段","MAREA":" ","LANE":" ","ALLEY":" ","HOUSE_NO":"１１５號","E_COORD97":170228.67999999999,"N_COORD97":2551530.1499999999,"ADDRESS":"長和路二段１１５號","OBJECTID":598031},"geometry":{"x":170228.6799999997,"y":2551530.1500000041}},{"attributes":{"ID":598059,"DIS_CODE":0,"TOWNNAME":"安南區","LI":"州南里","LIN":"27鄰","STREET":"長和路","SECT":"二段","MAREA":" ","LANE":" ","ALLEY":" ","HOUSE_NO":"１１７號","E_COORD97":170224.87,"N_COORD97":2551529.04,"ADDRESS":"長和路二段１１７號","OBJECTID":598032},"geometry":{"x":170224.87000000197,"y":2551529.0399999991}},{"attributes":{"ID":598060,"DIS_CODE":0,"TOWNNAME":"中西區","LI":"藥王里","LIN":"14鄰","STREET":"和真街","SECT":" ","MAREA":" ","LANE":" ","ALLEY":" ","HOUSE_NO":"１７號","E_COORD97":166975.73999999999,"N_COORD97":2544477.48,"ADDRESS":"和真街１７號","OBJECTID":598033},"geometry":{"x":166975.74000000022,"y":2544477.4800000004}},{"attributes":{"ID":598061,"DIS_CODE":0,"TOWNNAME":"中西區","LI":"大涼里","LIN":"27鄰","STREET":"永華路","SECT":"一段","MAREA":" ","LANE":" ","ALLEY":" ","HOUSE_NO":"２９０之１號","E_COORD97":166823.07000000001,"N_COORD97":2543288.73,"ADDRESS":"永華路一段２９０之１號","OBJECTID":598034},"geometry":{"x":166823.07000000216,"y":2543288.7300000023}},{"attributes":{"ID":598062,"DIS_CODE":0,"TOWNNAME":"中西區","LI":"大涼里","LIN":"27鄰","STREET":"永華路","SECT":"一段","MAREA":" ","LANE":" ","ALLEY":" ","HOUSE_NO":"３４６號","E_COORD97":166731.20000000001,"N_COORD97":2543307.4199999999,"ADDRESS":"永華路一段３４６號","OBJECTID":598035},"geometry":{"x":166731.20000000112,"y":2543307.4200000018}},{"attributes":{"ID":598063,"DIS_CODE":0,"TOWNNAME":"永康區","LI":"永康里","LIN":"27鄰","STREET":"永大路","SECT":"二段","MAREA":" ","LANE":" ","ALLEY":" ","HOUSE_NO":"８８５號","E_COORD97":174253.59,"N_COORD97":2546986.7000000002,"ADDRESS":"永大路二段８８５號","OBJECTID":598036},"geometry":{"x":174253.58999999985,"y":2546986.7000000011}},{"attributes":{"ID":598064,"DIS_CODE":0,"TOWNNAME":"永康區","LI":"永康里","LIN":"27鄰","STREET":"永大路","SECT":"二段","MAREA":" ","LANE":" ","ALLEY":" ","HOUSE_NO":"８７５號","E_COORD97":174256.34,"N_COORD97":2546965.71,"ADDRESS":"永大路二段８７５號","OBJECTID":598037},"geometry":{"x":174256.34000000078,"y":2546965.7100000009}},{"attributes":{"ID":598065,"DIS_CODE":0,"TOWNNAME":"永康區","LI":"永康里","LIN":"27鄰","STREET":"永大路","SECT":"二段","MAREA":" ","LANE":" ","ALLEY":" ","HOUSE_NO":"８３７號","E_COORD97":174253.20000000001,"N_COORD97":2546932.7799999998,"ADDRESS":"永大路二段８３７號","OBJECTID":598038},"geometry":{"x":174253.20000000019,"y":2546932.7799999993}},{"attributes":{"ID":598066,"DIS_CODE":0,"TOWNNAME":"新營區","LI":"新東里","LIN":"27鄰","STREET":"東興路","SECT":" ","MAREA":" ","LANE":" ","ALLEY":" ","HOUSE_NO":"２３３號十一樓","E_COORD97":180728.98000000001,"N_COORD97":2579641.3300000001,"ADDRESS":"東興路２３３號十一樓","OBJECTID":598039},"geometry":{"x":180728.98000000045,"y":2579641.3300000038}},{"attributes":{"ID":598067,"DIS_CODE":0,"TOWNNAME":"新營區","LI":"新南里","LIN":"27鄰","STREET":"隋唐街","SECT":" ","MAREA":" ","LANE":" ","ALLEY":" ","HOUSE_NO":"３９５號二樓之１","E_COORD97":177925.44,"N_COORD97":2578597.1400000001,"ADDRESS":"隋唐街３９５號二樓之１","OBJECTID":598040},"geometry":{"x":177925.44000000041,"y":2578597.1400000025}},{"attributes":{"ID":598068,"DIS_CODE":0,"TOWNNAME":"新營區","LI":"新東里","LIN":"27鄰","STREET":"東興路","SECT":" ","MAREA":" ","LANE":" ","ALLEY":" ","HOUSE_NO":"２２９號五樓","E_COORD97":180727.73000000001,"N_COORD97":2579641.3300000001,"ADDRESS":"東興路２２９號五樓","OBJECTID":598041},"geometry":{"x":180727.72999999952,"y":2579641.3300000038}},{"attributes":{"ID":598069,"DIS_CODE":0,"TOWNNAME":"新營區","LI":"新南里","LIN":"27鄰","STREET":"隋唐街","SECT":" ","MAREA":" ","LANE":" ","ALLEY":" ","HOUSE_NO":"３９５號五樓之５","E_COORD97":177925.59,"N_COORD97":2578597.1400000001,"ADDRESS":"隋唐街３９５號五樓之５","OBJECTID":598042},"geometry":{"x":177925.58999999985,"y":2578597.1400000025}},{"attributes":{"ID":598070,"DIS_CODE":0,"TOWNNAME":"新營區","LI":"民生里","LIN":"27鄰","STREET":"進修街","SECT":" ","MAREA":" ","LANE":" ","ALLEY":" ","HOUSE_NO":"４９號六樓之８","E_COORD97":178965.37,"N_COORD97":2578550.0299999998,"ADDRESS":"進修街４９號六樓之８","OBJECTID":598043},"geometry":{"x":178965.37000000104,"y":2578550.0299999993}},{"attributes":{"ID":598071,"DIS_CODE":0,"TOWNNAME":"新營區","LI":"民生里","LIN":"27鄰","STREET":"進修街","SECT":" ","MAREA":" ","LANE":" ","ALLEY":" ","HOUSE_NO":"４９號四樓之８","E_COORD97":178965.37,"N_COORD97":2578550.0299999998,"ADDRESS":"進修街４９號四樓之８","OBJECTID":598044},"geometry":{"x":178965.37000000104,"y":2578550.0299999993}},{"attributes":{"ID":598072,"DIS_CODE":0,"TOWNNAME":"新營區","LI":"新南里","LIN":"27鄰","STREET":"隋唐街","SECT":" ","MAREA":" ","LANE":" ","ALLEY":" ","HOUSE_NO":"３９５號三樓之５","E_COORD97":177925.59,"N_COORD97":2578597.1400000001,"ADDRESS":"隋唐街３９５號三樓之５","OBJECTID":598045},"geometry":{"x":177925.58999999985,"y":2578597.1400000025}},{"attributes":{"ID":598073,"DIS_CODE":0,"TOWNNAME":"新營區","LI":"民生里","LIN":"27鄰","STREET":"進修街","SECT":" ","MAREA":" ","LANE":" ","ALLEY":" ","HOUSE_NO":"５５號六樓之３","E_COORD97":178989.79000000001,"N_COORD97":2578546.5899999999,"ADDRESS":"進修街５５號六樓之３","OBJECTID":598046},"geometry":{"x":178989.79000000097,"y":2578546.5899999999}},{"attributes":{"ID":598074,"DIS_CODE":0,"TOWNNAME":"中西區","LI":"藥王里","LIN":"14鄰","STREET":"和真街","SECT":" ","MAREA":" ","LANE":" ","ALLEY":" ","HOUSE_NO":"１９號","E_COORD97":166972.75,"N_COORD97":2544481.1099999999,"ADDRESS":"和真街１９號","OBJECTID":598047},"geometry":{"x":166972.75000000093,"y":2544481.1100000013}},{"attributes":{"ID":598075,"DIS_CODE":0,"TOWNNAME":"新營區","LI":"新東里","LIN":"27鄰","STREET":"東興路","SECT":" ","MAREA":" ","LANE":" ","ALLEY":" ","HOUSE_NO":"２２１號八樓","E_COORD97":180748.70999999999,"N_COORD97":2579537.1299999999,"ADDRESS":"東興路２２１號八樓","OBJECTID":598048},"geometry":{"x":180748.70999999996,"y":2579537.1300000008}},{"attributes":{"ID":598076,"DIS_CODE":0,"TOWNNAME":"新營區","LI":"新東里","LIN":"27鄰","STREET":"東興路","SECT":" ","MAREA":" ","LANE":" ","ALLEY":" ","HOUSE_NO":"２１３號六樓","E_COORD97":180748.70999999999,"N_COORD97":2579537.1299999999,"ADDRESS":"東興路２１３號六樓","OBJECTID":598049},"geometry":{"x":180748.70999999996,"y":2579537.1300000008}},{"attributes":{"ID":598077,"DIS_CODE":0,"TOWNNAME":"新營區","LI":"民生里","LIN":"27鄰","STREET":"進修街","SECT":" ","MAREA":" ","LANE":" ","ALLEY":" ","HOUSE_NO":"５５號六樓之５","E_COORD97":178989.85000000001,"N_COORD97":2578546.5899999999,"ADDRESS":"進修街５５號六樓之５","OBJECTID":598050},"geometry":{"x":178989.84999999963,"y":2578546.5899999999}},{"attributes":{"ID":598078,"DIS_CODE":0,"TOWNNAME":"新營區","LI":"民生里","LIN":"27鄰","STREET":"進修街","SECT":" ","MAREA":" ","LANE":" ","ALLEY":" ","HOUSE_NO":"５９號四樓之２","E_COORD97":178985.81,"N_COORD97":2578561.0099999998,"ADDRESS":"進修街５９號四樓之２","OBJECTID":598051},"geometry":{"x":178985.81000000052,"y":2578561.0099999998}},{"attributes":{"ID":598079,"DIS_CODE":0,"TOWNNAME":"新營區","LI":"民生里","LIN":"27鄰","STREET":"進修街","SECT":" ","MAREA":" ","LANE":" ","ALLEY":" ","HOUSE_NO":"５９號三樓之４","E_COORD97":178985.70000000001,"N_COORD97":2578561.0099999998,"ADDRESS":"進修街５９號三樓之４","OBJECTID":598052},"geometry":{"x":178985.70000000112,"y":2578561.0099999998}},{"attributes":{"ID":598080,"DIS_CODE":0,"TOWNNAME":"新營區","LI":"民生里","LIN":"27鄰","STREET":"進修街","SECT":" ","MAREA":" ","LANE":" ","ALLEY":" ","HOUSE_NO":"５９號六樓之３","E_COORD97":178985.76999999999,"N_COORD97":2578561.0099999998,"ADDRESS":"進修街５９號六樓之３","OBJECTID":598053},"geometry":{"x":178985.77000000048,"y":2578561.0099999998}},{"attributes":{"ID":598081,"DIS_CODE":0,"TOWNNAME":"新營區","LI":"民生里","LIN":"27鄰","STREET":"進修街","SECT":" ","MAREA":" ","LANE":" ","ALLEY":" ","HOUSE_NO":"５９號四樓之６","E_COORD97":178985.78,"N_COORD97":2578561.0099999998,"ADDRESS":"進修街５９號四樓之６","OBJECTID":598054},"geometry":{"x":178985.78000000026,"y":2578561.0099999998}},{"attributes":{"ID":598082,"DIS_CODE":0,"TOWNNAME":"新營區","LI":"大宏里","LIN":"27鄰","STREET":"開元路","SECT":" ","MAREA":" ","LANE":" ","ALLEY":" ","HOUSE_NO":"６１之１７號五樓","E_COORD97":180901.23999999999,"N_COORD97":2578823.27,"ADDRESS":"開元路６１之１７號五樓","OBJECTID":598055},"geometry":{"x":180901.24000000115,"y":2578823.2699999996}},{"attributes":{"ID":598083,"DIS_CODE":0,"TOWNNAME":"新營區","LI":"大宏里","LIN":"27鄰","STREET":"開元路","SECT":" ","MAREA":" ","LANE":" ","ALLEY":" ","HOUSE_NO":"６１之１７號五樓之１","E_COORD97":180903.37,"N_COORD97":2578823.27,"ADDRESS":"開元路６１之１７號五樓之１","OBJECTID":598056},"geometry":{"x":180903.37000000104,"y":2578823.2699999996}},{"attributes":{"ID":598084,"DIS_CODE":0,"TOWNNAME":"新營區","LI":"大宏里","LIN":"27鄰","STREET":"開元路","SECT":" ","MAREA":" ","LANE":" ","ALLEY":" ","HOUSE_NO":"６１之１７號六樓","E_COORD97":180901.23999999999,"N_COORD97":2578823.27,"ADDRESS":"開元路６１之１７號六樓","OBJECTID":598057},"geometry":{"x":180901.24000000115,"y":2578823.2699999996}},{"attributes":{"ID":598085,"DIS_CODE":0,"TOWNNAME":"新營區","LI":"大宏里","LIN":"27鄰","STREET":"開元路","SECT":" ","MAREA":" ","LANE":" ","ALLEY":" ","HOUSE_NO":"６１之１７號十樓之２","E_COORD97":180903.5,"N_COORD97":2578823.27,"ADDRESS":"開元路６１之１７號十樓之２","OBJECTID":598058},"geometry":{"x":180903.50000000186,"y":2578823.2699999996}},{"attributes":{"ID":598086,"DIS_CODE":0,"TOWNNAME":"新營區","LI":"大宏里","LIN":"27鄰","STREET":"開元路","SECT":" ","MAREA":" ","LANE":" ","ALLEY":" ","HOUSE_NO":"６１之１７號十樓","E_COORD97":180901.23999999999,"N_COORD97":2578823.27,"ADDRESS":"開元路６１之１７號十樓","OBJECTID":598059},"geometry":{"x":180901.24000000115,"y":2578823.2699999996}},{"attributes":{"ID":598087,"DIS_CODE":0,"TOWNNAME":"北區","LI":"大豐里","LIN":"27鄰","STREET":"文賢路","SECT":" ","MAREA":" ","LANE":" ","ALLEY":" ","HOUSE_NO":"３６３號七樓之１","E_COORD97":167318.09,"N_COORD97":2545345.1099999999,"ADDRESS":"文賢路３６３號七樓之１","OBJECTID":598060},"geometry":{"x":167318.09000000078,"y":2545345.1100000031}},{"attributes":{"ID":598088,"DIS_CODE":0,"TOWNNAME":"北區","LI":"大豐里","LIN":"27鄰","STREET":"文賢路","SECT":" ","MAREA":" ","LANE":" ","ALLEY":" ","HOUSE_NO":"３６３號七樓之２","E_COORD97":167318.09,"N_COORD97":2545345.1099999999,"ADDRESS":"文賢路３６３號七樓之２","OBJECTID":598061},"geometry":{"x":167318.09000000078,"y":2545345.1100000031}},{"attributes":{"ID":598089,"DIS_CODE":0,"TOWNNAME":"北區","LI":"大豐里","LIN":"27鄰","STREET":"文賢路","SECT":" ","MAREA":" ","LANE":" ","ALLEY":" ","HOUSE_NO":"３６３號七樓之３","E_COORD97":167318.09,"N_COORD97":2545345.1099999999,"ADDRESS":"文賢路３６３號七樓之３","OBJECTID":598062},"geometry":{"x":167318.09000000078,"y":2545345.1100000031}},{"attributes":{"ID":598090,"DIS_CODE":0,"TOWNNAME":"北區","LI":"大豐里","LIN":"27鄰","STREET":"文賢路","SECT":" ","MAREA":" ","LANE":" ","ALLEY":" ","HOUSE_NO":"３６３號七樓之４","E_COORD97":167318.09,"N_COORD97":2545345.1099999999,"ADDRESS":"文賢路３６３號七樓之４","OBJECTID":598063},"geometry":{"x":167318.09000000078,"y":2545345.1100000031}},{"attributes":{"ID":598091,"DIS_CODE":0,"TOWNNAME":"北區","LI":"大豐里","LIN":"27鄰","STREET":"文賢路","SECT":" ","MAREA":" ","LANE":" ","ALLEY":" ","HOUSE_NO":"３６３號七樓之５","E_COORD97":167318.09,"N_COORD97":2545345.1099999999,"ADDRESS":"文賢路３６３號七樓之５","OBJECTID":598064},"geometry":{"x":167318.09000000078,"y":2545345.1100000031}},{"attributes":{"ID":598092,"DIS_CODE":0,"TOWNNAME":"北區","LI":"大豐里","LIN":"27鄰","STREET":"文賢路","SECT":" ","MAREA":" ","LANE":" ","ALLEY":" ","HOUSE_NO":"３６３號七樓之６","E_COORD97":167318.09,"N_COORD97":2545345.1099999999,"ADDRESS":"文賢路３６３號七樓之６","OBJECTID":598065},"geometry":{"x":167318.09000000078,"y":2545345.1100000031}},{"attributes":{"ID":598093,"DIS_CODE":0,"TOWNNAME":"北區","LI":"大豐里","LIN":"27鄰","STREET":"文賢路","SECT":" ","MAREA":" ","LANE":" ","ALLEY":" ","HOUSE_NO":"３６３號七樓之７","E_COORD97":167318.09,"N_COORD97":2545345.1099999999,"ADDRESS":"文賢路３６３號七樓之７","OBJECTID":598066},"geometry":{"x":167318.09000000078,"y":2545345.1100000031}},{"attributes":{"ID":598094,"DIS_CODE":0,"TOWNNAME":"北區","LI":"大豐里","LIN":"27鄰","STREET":"文賢路","SECT":" ","MAREA":" ","LANE":" ","ALLEY":" ","HOUSE_NO":"３６３號七樓之８","E_COORD97":167318.09,"N_COORD97":2545345.1099999999,"ADDRESS":"文賢路３６３號七樓之８","OBJECTID":598067},"geometry":{"x":167318.09000000078,"y":2545345.1100000031}},{"attributes":{"ID":598095,"DIS_CODE":0,"TOWNNAME":"北區","LI":"大豐里","LIN":"27鄰","STREET":"文賢路","SECT":" ","MAREA":" ","LANE":" ","ALLEY":" ","HOUSE_NO":"３６３號三樓之１","E_COORD97":167318.09,"N_COORD97":2545345.1099999999,"ADDRESS":"文賢路３６３號三樓之１","OBJECTID":598068},"geometry":{"x":167318.09000000078,"y":2545345.1100000031}},{"attributes":{"ID":598096,"DIS_CODE":0,"TOWNNAME":"北區","LI":"大豐里","LIN":"27鄰","STREET":"文賢路","SECT":" ","MAREA":" ","LANE":" ","ALLEY":" ","HOUSE_NO":"３６３號三樓之２","E_COORD97":167318.09,"N_COORD97":2545345.1099999999,"ADDRESS":"文賢路３６３號三樓之２","OBJECTID":598069},"geometry":{"x":167318.09000000078,"y":2545345.1100000031}},{"attributes":{"ID":598097,"DIS_CODE":0,"TOWNNAME":"北區","LI":"大豐里","LIN":"27鄰","STREET":"文賢路","SECT":" ","MAREA":" ","LANE":" ","ALLEY":" ","HOUSE_NO":"３６３號三樓之３","E_COORD97":167318.09,"N_COORD97":2545345.1099999999,"ADDRESS":"文賢路３６３號三樓之３","OBJECTID":598070},"geometry":{"x":167318.09000000078,"y":2545345.1100000031}},{"attributes":{"ID":598098,"DIS_CODE":0,"TOWNNAME":"北區","LI":"大豐里","LIN":"27鄰","STREET":"文賢路","SECT":" ","MAREA":" ","LANE":" ","ALLEY":" ","HOUSE_NO":"３６３號三樓之４","E_COORD97":167318.09,"N_COORD97":2545345.1099999999,"ADDRESS":"文賢路３６３號三樓之４","OBJECTID":598071},"geometry":{"x":167318.09000000078,"y":2545345.1100000031}},{"attributes":{"ID":598099,"DIS_CODE":0,"TOWNNAME":"北區","LI":"大豐里","LIN":"27鄰","STREET":"文賢路","SECT":" ","MAREA":" ","LANE":" ","ALLEY":" ","HOUSE_NO":"３６３號三樓之５","E_COORD97":167318.09,"N_COORD97":2545345.1099999999,"ADDRESS":"文賢路３６３號三樓之５","OBJECTID":598072},"geometry":{"x":167318.09000000078,"y":2545345.1100000031}},{"attributes":{"ID":598100,"DIS_CODE":0,"TOWNNAME":"北區","LI":"大豐里","LIN":"27鄰","STREET":"文賢路","SECT":" ","MAREA":" ","LANE":" ","ALLEY":" ","HOUSE_NO":"３６３號三樓之６","E_COORD97":167318.09,"N_COORD97":2545345.1099999999,"ADDRESS":"文賢路３６３號三樓之６","OBJECTID":598073},"geometry":{"x":167318.09000000078,"y":2545345.1100000031}},{"attributes":{"ID":598101,"DIS_CODE":0,"TOWNNAME":"北區","LI":"大豐里","LIN":"27鄰","STREET":"文賢路","SECT":" ","MAREA":" ","LANE":" ","ALLEY":" ","HOUSE_NO":"３６３號三樓之７","E_COORD97":167318.09,"N_COORD97":2545345.1099999999,"ADDRESS":"文賢路３６３號三樓之７","OBJECTID":598074},"geometry":{"x":167318.09000000078,"y":2545345.1100000031}},{"attributes":{"ID":598102,"DIS_CODE":0,"TOWNNAME":"北區","LI":"大豐里","LIN":"27鄰","STREET":"文賢路","SECT":" ","MAREA":" ","LANE":" ","ALLEY":" ","HOUSE_NO":"３６３號五樓之１","E_COORD97":167318.09,"N_COORD97":2545345.1099999999,"ADDRESS":"文賢路３６３號五樓之１","OBJECTID":598075},"geometry":{"x":167318.09000000078,"y":2545345.1100000031}},{"attributes":{"ID":598103,"DIS_CODE":0,"TOWNNAME":"北區","LI":"大豐里","LIN":"27鄰","STREET":"文賢路","SECT":" ","MAREA":" ","LANE":" ","ALLEY":" ","HOUSE_NO":"３６３號五樓之２","E_COORD97":167318.09,"N_COORD97":2545345.1099999999,"ADDRESS":"文賢路３６３號五樓之２","OBJECTID":598076},"geometry":{"x":167318.09000000078,"y":2545345.1100000031}},{"attributes":{"ID":598104,"DIS_CODE":0,"TOWNNAME":"北區","LI":"大豐里","LIN":"27鄰","STREET":"文賢路","SECT":" ","MAREA":" ","LANE":" ","ALLEY":" ","HOUSE_NO":"３６３號五樓之３","E_COORD97":167318.09,"N_COORD97":2545345.1099999999,"ADDRESS":"文賢路３６３號五樓之３","OBJECTID":598077},"geometry":{"x":167318.09000000078,"y":2545345.1100000031}},{"attributes":{"ID":598105,"DIS_CODE":0,"TOWNNAME":"北區","LI":"大豐里","LIN":"27鄰","STREET":"文賢路","SECT":" ","MAREA":" ","LANE":" ","ALLEY":" ","HOUSE_NO":"３６３號五樓之４","E_COORD97":167318.09,"N_COORD97":2545345.1099999999,"ADDRESS":"文賢路３６３號五樓之４","OBJECTID":598078},"geometry":{"x":167318.09000000078,"y":2545345.1100000031}},{"attributes":{"ID":598106,"DIS_CODE":0,"TOWNNAME":"北區","LI":"大豐里","LIN":"27鄰","STREET":"文賢路","SECT":" ","MAREA":" ","LANE":" ","ALLEY":" ","HOUSE_NO":"３６３號五樓之５","E_COORD97":167318.09,"N_COORD97":2545345.1099999999,"ADDRESS":"文賢路３６３號五樓之５","OBJECTID":598079},"geometry":{"x":167318.09000000078,"y":2545345.1100000031}},{"attributes":{"ID":598107,"DIS_CODE":0,"TOWNNAME":"北區","LI":"大豐里","LIN":"27鄰","STREET":"文賢路","SECT":" ","MAREA":" ","LANE":" ","ALLEY":" ","HOUSE_NO":"３６３號五樓之６","E_COORD97":167318.09,"N_COORD97":2545345.1099999999,"ADDRESS":"文賢路３６３號五樓之６","OBJECTID":598080},"geometry":{"x":167318.09000000078,"y":2545345.1100000031}},{"attributes":{"ID":598108,"DIS_CODE":0,"TOWNNAME":"北區","LI":"大豐里","LIN":"27鄰","STREET":"文賢路","SECT":" ","MAREA":" ","LANE":" ","ALLEY":" ","HOUSE_NO":"３６３號五樓之７","E_COORD97":167318.09,"N_COORD97":2545345.1099999999,"ADDRESS":"文賢路３６３號五樓之７","OBJECTID":598081},"geometry":{"x":167318.09000000078,"y":2545345.1100000031}},{"attributes":{"ID":598109,"DIS_CODE":0,"TOWNNAME":"北區","LI":"大豐里","LIN":"27鄰","STREET":"文賢路","SECT":" ","MAREA":" ","LANE":" ","ALLEY":" ","HOUSE_NO":"３６３號五樓之８","E_COORD97":167318.09,"N_COORD97":2545345.1099999999,"ADDRESS":"文賢路３６３號五樓之８","OBJECTID":598082},"geometry":{"x":167318.09000000078,"y":2545345.1100000031}},{"attributes":{"ID":598110,"DIS_CODE":0,"TOWNNAME":"北區","LI":"大豐里","LIN":"27鄰","STREET":"文賢路","SECT":" ","MAREA":" ","LANE":" ","ALLEY":" ","HOUSE_NO":"３６３號五樓之９","E_COORD97":167318.09,"N_COORD97":2545345.1099999999,"ADDRESS":"文賢路３６３號五樓之９","OBJECTID":598083},"geometry":{"x":167318.09000000078,"y":2545345.1100000031}},{"attributes":{"ID":598111,"DIS_CODE":0,"TOWNNAME":"北區","LI":"大豐里","LIN":"27鄰","STREET":"文賢路","SECT":" ","MAREA":" ","LANE":" ","ALLEY":" ","HOUSE_NO":"３６３號六樓之１","E_COORD97":167318.09,"N_COORD97":2545345.1099999999,"ADDRESS":"文賢路３６３號六樓之１","OBJECTID":598084},"geometry":{"x":167318.09000000078,"y":2545345.1100000031}},{"attributes":{"ID":598112,"DIS_CODE":0,"TOWNNAME":"北區","LI":"大豐里","LIN":"27鄰","STREET":"文賢路","SECT":" ","MAREA":" ","LANE":" ","ALLEY":" ","HOUSE_NO":"３６３號六樓之２","E_COORD97":167318.09,"N_COORD97":2545345.1099999999,"ADDRESS":"文賢路３６３號六樓之２","OBJECTID":598085},"geometry":{"x":167318.09000000078,"y":2545345.1100000031}},{"attributes":{"ID":598113,"DIS_CODE":0,"TOWNNAME":"北區","LI":"大豐里","LIN":"27鄰","STREET":"文賢路","SECT":" ","MAREA":" ","LANE":" ","ALLEY":" ","HOUSE_NO":"３６３號六樓之３","E_COORD97":167318.09,"N_COORD97":2545345.1099999999,"ADDRESS":"文賢路３６３號六樓之３","OBJECTID":598086},"geometry":{"x":167318.09000000078,"y":2545345.1100000031}},{"attributes":{"ID":598114,"DIS_CODE":0,"TOWNNAME":"北區","LI":"大豐里","LIN":"27鄰","STREET":"文賢路","SECT":" ","MAREA":" ","LANE":" ","ALLEY":" ","HOUSE_NO":"３６３號六樓之４","E_COORD97":167318.09,"N_COORD97":2545345.1099999999,"ADDRESS":"文賢路３６３號六樓之４","OBJECTID":598087},"geometry":{"x":167318.09000000078,"y":2545345.1100000031}},{"attributes":{"ID":598115,"DIS_CODE":0,"TOWNNAME":"北區","LI":"大豐里","LIN":"27鄰","STREET":"文賢路","SECT":" ","MAREA":" ","LANE":" ","ALLEY":" ","HOUSE_NO":"３６３號六樓之５","E_COORD97":167318.09,"N_COORD97":2545345.1099999999,"ADDRESS":"文賢路３６３號六樓之５","OBJECTID":598088},"geometry":{"x":167318.09000000078,"y":2545345.1100000031}},{"attributes":{"ID":598116,"DIS_CODE":0,"TOWNNAME":"北區","LI":"大豐里","LIN":"27鄰","STREET":"文賢路","SECT":" ","MAREA":" ","LANE":" ","ALLEY":" ","HOUSE_NO":"３６３號六樓之６","E_COORD97":167318.09,"N_COORD97":2545345.1099999999,"ADDRESS":"文賢路３６３號六樓之６","OBJECTID":598089},"geometry":{"x":167318.09000000078,"y":2545345.1100000031}},{"attributes":{"ID":598117,"DIS_CODE":0,"TOWNNAME":"北區","LI":"大豐里","LIN":"27鄰","STREET":"文賢路","SECT":" ","MAREA":" ","LANE":" ","ALLEY":" ","HOUSE_NO":"３６３號六樓之７","E_COORD97":167318.09,"N_COORD97":2545345.1099999999,"ADDRESS":"文賢路３６３號六樓之７","OBJECTID":598090},"geometry":{"x":167318.09000000078,"y":2545345.1100000031}},{"attributes":{"ID":598118,"DIS_CODE":0,"TOWNNAME":"北區","LI":"大豐里","LIN":"27鄰","STREET":"文賢路","SECT":" ","MAREA":" ","LANE":" ","ALLEY":" ","HOUSE_NO":"３６３號六樓之８","E_COORD97":167318.09,"N_COORD97":2545345.1099999999,"ADDRESS":"文賢路３６３號六樓之８","OBJECTID":598091},"geometry":{"x":167318.09000000078,"y":2545345.1100000031}},{"attributes":{"ID":598119,"DIS_CODE":0,"TOWNNAME":"北區","LI":"大豐里","LIN":"27鄰","STREET":"文賢路","SECT":" ","MAREA":" ","LANE":" ","ALLEY":" ","HOUSE_NO":"３６３號四樓之１","E_COORD97":167318.09,"N_COORD97":2545345.1099999999,"ADDRESS":"文賢路３６３號四樓之１","OBJECTID":598092},"geometry":{"x":167318.09000000078,"y":2545345.1100000031}},{"attributes":{"ID":598120,"DIS_CODE":0,"TOWNNAME":"北區","LI":"大豐里","LIN":"27鄰","STREET":"文賢路","SECT":" ","MAREA":" ","LANE":" ","ALLEY":" ","HOUSE_NO":"３６３號四樓之２","E_COORD97":167318.09,"N_COORD97":2545345.1099999999,"ADDRESS":"文賢路３６３號四樓之２","OBJECTID":598093},"geometry":{"x":167318.09000000078,"y":2545345.1100000031}},{"attributes":{"ID":598121,"DIS_CODE":0,"TOWNNAME":"北區","LI":"大豐里","LIN":"27鄰","STREET":"文賢路","SECT":" ","MAREA":" ","LANE":" ","ALLEY":" ","HOUSE_NO":"３６３號四樓之３","E_COORD97":167318.09,"N_COORD97":2545345.1099999999,"ADDRESS":"文賢路３６３號四樓之３","OBJECTID":598094},"geometry":{"x":167318.09000000078,"y":2545345.1100000031}},{"attributes":{"ID":598122,"DIS_CODE":0,"TOWNNAME":"北區","LI":"大豐里","LIN":"27鄰","STREET":"文賢路","SECT":" ","MAREA":" ","LANE":" ","ALLEY":" ","HOUSE_NO":"３６３號四樓之４","E_COORD97":167318.09,"N_COORD97":2545345.1099999999,"ADDRESS":"文賢路３６３號四樓之４","OBJECTID":598095},"geometry":{"x":167318.09000000078,"y":2545345.1100000031}},{"attributes":{"ID":598123,"DIS_CODE":0,"TOWNNAME":"北區","LI":"大豐里","LIN":"27鄰","STREET":"文賢路","SECT":" ","MAREA":" ","LANE":" ","ALLEY":" ","HOUSE_NO":"３６３號四樓之５","E_COORD97":167318.09,"N_COORD97":2545345.1099999999,"ADDRESS":"文賢路３６３號四樓之５","OBJECTID":598096},"geometry":{"x":167318.09000000078,"y":2545345.1100000031}},{"attributes":{"ID":598124,"DIS_CODE":0,"TOWNNAME":"北區","LI":"大豐里","LIN":"27鄰","STREET":"文賢路","SECT":" ","MAREA":" ","LANE":" ","ALLEY":" ","HOUSE_NO":"３６３號四樓之６","E_COORD97":167318.09,"N_COORD97":2545345.1099999999,"ADDRESS":"文賢路３６３號四樓之６","OBJECTID":598097},"geometry":{"x":167318.09000000078,"y":2545345.1100000031}},{"attributes":{"ID":598125,"DIS_CODE":0,"TOWNNAME":"北區","LI":"大豐里","LIN":"27鄰","STREET":"文賢路","SECT":" ","MAREA":" ","LANE":" ","ALLEY":" ","HOUSE_NO":"３６３號四樓之７","E_COORD97":167318.09,"N_COORD97":2545345.1099999999,"ADDRESS":"文賢路３６３號四樓之７","OBJECTID":598098},"geometry":{"x":167318.09000000078,"y":2545345.1100000031}},{"attributes":{"ID":598126,"DIS_CODE":0,"TOWNNAME":"北區","LI":"大豐里","LIN":"27鄰","STREET":"文賢路","SECT":" ","MAREA":" ","LANE":" ","ALLEY":" ","HOUSE_NO":"３６３號四樓之８","E_COORD97":167318.09,"N_COORD97":2545345.1099999999,"ADDRESS":"文賢路３６３號四樓之８","OBJECTID":598099},"geometry":{"x":167318.09000000078,"y":2545345.1100000031}},{"attributes":{"ID":598127,"DIS_CODE":0,"TOWNNAME":"北區","LI":"大豐里","LIN":"27鄰","STREET":"文賢路","SECT":" ","MAREA":" ","LANE":" ","ALLEY":" ","HOUSE_NO":"３６３號四樓之９","E_COORD97":167318.09,"N_COORD97":2545345.1099999999,"ADDRESS":"文賢路３６３號四樓之９","OBJECTID":598100},"geometry":{"x":167318.09000000078,"y":2545345.1100000031}},{"attributes":{"ID":598128,"DIS_CODE":0,"TOWNNAME":"新營區","LI":"大宏里","LIN":"27鄰","STREET":"開元路","SECT":" ","MAREA":" ","LANE":" ","ALLEY":" ","HOUSE_NO":"６１之１７號四樓","E_COORD97":180901.23999999999,"N_COORD97":2578823.27,"ADDRESS":"開元路６１之１７號四樓","OBJECTID":598101},"geometry":{"x":180901.24000000115,"y":2578823.2699999996}},{"attributes":{"ID":598129,"DIS_CODE":0,"TOWNNAME":"新營區","LI":"大宏里","LIN":"27鄰","STREET":"開元路","SECT":" ","MAREA":" ","LANE":" ","ALLEY":" ","HOUSE_NO":"６１之１７號五樓之２","E_COORD97":180903.5,"N_COORD97":2578823.27,"ADDRESS":"開元路６１之１７號五樓之２","OBJECTID":598102},"geometry":{"x":180903.50000000186,"y":2578823.2699999996}},{"attributes":{"ID":598130,"DIS_CODE":0,"TOWNNAME":"新營區","LI":"新東里","LIN":"27鄰","STREET":"東興路","SECT":" ","MAREA":" ","LANE":" ","ALLEY":" ","HOUSE_NO":"２４１號六樓","E_COORD97":180727.73000000001,"N_COORD97":2579641.3300000001,"ADDRESS":"東興路２４１號六樓","OBJECTID":598103},"geometry":{"x":180727.72999999952,"y":2579641.3300000038}},{"attributes":{"ID":598131,"DIS_CODE":0,"TOWNNAME":"新營區","LI":"新東里","LIN":"27鄰","STREET":"東興路","SECT":" ","MAREA":" ","LANE":" ","ALLEY":" ","HOUSE_NO":"２１７號七樓","E_COORD97":180748.70999999999,"N_COORD97":2579537.1299999999,"ADDRESS":"東興路２１７號七樓","OBJECTID":598104},"geometry":{"x":180748.70999999996,"y":2579537.1300000008}},{"attributes":{"ID":598132,"DIS_CODE":0,"TOWNNAME":"新營區","LI":"民生里","LIN":"27鄰","STREET":"進修街","SECT":" ","MAREA":" ","LANE":" ","ALLEY":" ","HOUSE_NO":"５５號四樓之３","E_COORD97":178989.79000000001,"N_COORD97":2578546.5899999999,"ADDRESS":"進修街５５號四樓之３","OBJECTID":598105},"geometry":{"x":178989.79000000097,"y":2578546.5899999999}},{"attributes":{"ID":598133,"DIS_CODE":0,"TOWNNAME":"新營區","LI":"新東里","LIN":"27鄰","STREET":"東興路","SECT":" ","MAREA":" ","LANE":" ","ALLEY":" ","HOUSE_NO":"２４１號二樓","E_COORD97":180727.73000000001,"N_COORD97":2579641.3300000001,"ADDRESS":"東興路２４１號二樓","OBJECTID":598106},"geometry":{"x":180727.72999999952,"y":2579641.3300000038}},{"attributes":{"ID":598134,"DIS_CODE":0,"TOWNNAME":"新營區","LI":"新東里","LIN":"27鄰","STREET":"東興路","SECT":" ","MAREA":" ","LANE":" ","ALLEY":" ","HOUSE_NO":"２１３號八樓","E_COORD97":180748.70999999999,"N_COORD97":2579537.1299999999,"ADDRESS":"東興路２１３號八樓","OBJECTID":598107},"geometry":{"x":180748.70999999996,"y":2579537.1300000008}},{"attributes":{"ID":598135,"DIS_CODE":0,"TOWNNAME":"新營區","LI":"新東里","LIN":"27鄰","STREET":"東興路","SECT":" ","MAREA":" ","LANE":" ","ALLEY":" ","HOUSE_NO":"２１３號五樓","E_COORD97":180748.70999999999,"N_COORD97":2579537.1299999999,"ADDRESS":"東興路２１３號五樓","OBJECTID":598108},"geometry":{"x":180748.70999999996,"y":2579537.1300000008}},{"attributes":{"ID":598136,"DIS_CODE":0,"TOWNNAME":"中西區","LI":"藥王里","LIN":"8鄰","STREET":"民權路","SECT":"三段","MAREA":" ","LANE":" ","ALLEY":" ","HOUSE_NO":"２８８號","E_COORD97":167130.67000000001,"N_COORD97":2544297.0600000001,"ADDRESS":"民權路三段２８８號","OBJECTID":598109},"geometry":{"x":167130.67000000179,"y":2544297.0600000024}},{"attributes":{"ID":598137,"DIS_CODE":0,"TOWNNAME":"中西區","LI":"藥王里","LIN":"9鄰","STREET":"民權路","SECT":"三段","MAREA":" ","LANE":" ","ALLEY":" ","HOUSE_NO":"３２２號","E_COORD97":167052.98999999999,"N_COORD97":2544320.7599999998,"ADDRESS":"民權路三段３２２號","OBJECTID":598110},"geometry":{"x":167052.99000000115,"y":2544320.7600000035}},{"attributes":{"ID":598138,"DIS_CODE":0,"TOWNNAME":"中西區","LI":"藥王里","LIN":"9鄰","STREET":"民權路","SECT":"三段","MAREA":" ","LANE":" ","ALLEY":" ","HOUSE_NO":"３３０號","E_COORD97":167026.91,"N_COORD97":2544328.4399999999,"ADDRESS":"民權路三段３３０號","OBJECTID":598111},"geometry":{"x":167026.91000000015,"y":2544328.4399999995}},{"attributes":{"ID":598139,"DIS_CODE":0,"TOWNNAME":"中西區","LI":"藥王里","LIN":"9鄰","STREET":"民權路","SECT":"三段","MAREA":" ","LANE":" ","ALLEY":" ","HOUSE_NO":"３３２之１號","E_COORD97":167017.31,"N_COORD97":2544331.1800000002,"ADDRESS":"民權路三段３３２之１號","OBJECTID":598112},"geometry":{"x":167017.31000000145,"y":2544331.1800000034}},{"attributes":{"ID":598140,"DIS_CODE":0,"TOWNNAME":"中西區","LI":"藥王里","LIN":"9鄰","STREET":"民權路","SECT":"三段","MAREA":" ","LANE":" ","ALLEY":" ","HOUSE_NO":"３３２號","E_COORD97":167021.70000000001,"N_COORD97":2544330.0800000001,"ADDRESS":"民權路三段３３２號","OBJECTID":598113},"geometry":{"x":167021.70000000019,"y":2544330.0800000019}},{"attributes":{"ID":598141,"DIS_CODE":0,"TOWNNAME":"中西區","LI":"藥王里","LIN":"9鄰","STREET":"民權路","SECT":"三段","MAREA":" ","LANE":" ","ALLEY":" ","HOUSE_NO":"３３６號","E_COORD97":167012.35999999999,"N_COORD97":2544333.1000000001,"ADDRESS":"民權路三段３３６號","OBJECTID":598114},"geometry":{"x":167012.36000000034,"y":2544333.1000000015}},{"attributes":{"ID":598142,"DIS_CODE":0,"TOWNNAME":"新營區","LI":"新東里","LIN":"27鄰","STREET":"東興路","SECT":" ","MAREA":" ","LANE":" ","ALLEY":" ","HOUSE_NO":"２１７號八樓","E_COORD97":180748.70999999999,"N_COORD97":2579537.1299999999,"ADDRESS":"東興路２１７號八樓","OBJECTID":598115},"geometry":{"x":180748.70999999996,"y":2579537.1300000008}},{"attributes":{"ID":598143,"DIS_CODE":0,"TOWNNAME":"新營區","LI":"新東里","LIN":"27鄰","STREET":"東興路","SECT":" ","MAREA":" ","LANE":" ","ALLEY":" ","HOUSE_NO":"２２５號八樓","E_COORD97":180727.73000000001,"N_COORD97":2579641.3300000001,"ADDRESS":"東興路２２５號八樓","OBJECTID":598116},"geometry":{"x":180727.72999999952,"y":2579641.3300000038}},{"attributes":{"ID":598144,"DIS_CODE":0,"TOWNNAME":"新營區","LI":"新東里","LIN":"27鄰","STREET":"東興路","SECT":" ","MAREA":" ","LANE":" ","ALLEY":" ","HOUSE_NO":"２１７號十二樓","E_COORD97":180749.95999999999,"N_COORD97":2579537.1299999999,"ADDRESS":"東興路２１７號十二樓","OBJECTID":598117},"geometry":{"x":180749.96000000089,"y":2579537.1300000008}},{"attributes":{"ID":598145,"DIS_CODE":0,"TOWNNAME":"新營區","LI":"新東里","LIN":"27鄰","STREET":"東興路","SECT":" ","MAREA":" ","LANE":" ","ALLEY":" ","HOUSE_NO":"２１３號十三樓","E_COORD97":180749.95999999999,"N_COORD97":2579537.1299999999,"ADDRESS":"東興路２１３號十三樓","OBJECTID":598118},"geometry":{"x":180749.96000000089,"y":2579537.1300000008}},{"attributes":{"ID":598146,"DIS_CODE":0,"TOWNNAME":"新營區","LI":"新東里","LIN":"27鄰","STREET":"東興路","SECT":" ","MAREA":" ","LANE":" ","ALLEY":" ","HOUSE_NO":"２２１號九樓","E_COORD97":180748.70999999999,"N_COORD97":2579537.1299999999,"ADDRESS":"東興路２２１號九樓","OBJECTID":598119},"geometry":{"x":180748.70999999996,"y":2579537.1300000008}},{"attributes":{"ID":598147,"DIS_CODE":0,"TOWNNAME":"新營區","LI":"新東里","LIN":"27鄰","STREET":"東興路","SECT":" ","MAREA":" ","LANE":" ","ALLEY":" ","HOUSE_NO":"２２１號四樓","E_COORD97":180748.70999999999,"N_COORD97":2579537.1299999999,"ADDRESS":"東興路２２１號四樓","OBJECTID":598120},"geometry":{"x":180748.70999999996,"y":2579537.1300000008}},{"attributes":{"ID":598148,"DIS_CODE":0,"TOWNNAME":"新營區","LI":"新東里","LIN":"27鄰","STREET":"東興路","SECT":" ","MAREA":" ","LANE":" ","ALLEY":" ","HOUSE_NO":"２２５號七樓","E_COORD97":180727.73000000001,"N_COORD97":2579641.3300000001,"ADDRESS":"東興路２２５號七樓","OBJECTID":598121},"geometry":{"x":180727.72999999952,"y":2579641.3300000038}},{"attributes":{"ID":598149,"DIS_CODE":0,"TOWNNAME":"新營區","LI":"新東里","LIN":"27鄰","STREET":"東興路","SECT":" ","MAREA":" ","LANE":" ","ALLEY":" ","HOUSE_NO":"２２１號六樓","E_COORD97":180748.70999999999,"N_COORD97":2579537.1299999999,"ADDRESS":"東興路２２１號六樓","OBJECTID":598122},"geometry":{"x":180748.70999999996,"y":2579537.1300000008}},{"attributes":{"ID":598150,"DIS_CODE":0,"TOWNNAME":"新營區","LI":"三仙里","LIN":"27鄰","STREET":"健康路","SECT":" ","MAREA":" ","LANE":" ","ALLEY":" ","HOUSE_NO":"１０３號五樓","E_COORD97":179643.37,"N_COORD97":2579182.4300000002,"ADDRESS":"健康路１０３號五樓","OBJECTID":598123},"geometry":{"x":179643.37000000197,"y":2579182.4299999978}},{"attributes":{"ID":598151,"DIS_CODE":0,"TOWNNAME":"新營區","LI":"新東里","LIN":"27鄰","STREET":"東興路","SECT":" ","MAREA":" ","LANE":" ","ALLEY":" ","HOUSE_NO":"２１７號十三樓","E_COORD97":180749.95999999999,"N_COORD97":2579537.1299999999,"ADDRESS":"東興路２１７號十三樓","OBJECTID":598124},"geometry":{"x":180749.96000000089,"y":2579537.1300000008}},{"attributes":{"ID":598152,"DIS_CODE":0,"TOWNNAME":"新營區","LI":"新東里","LIN":"27鄰","STREET":"東興路","SECT":" ","MAREA":" ","LANE":" ","ALLEY":" ","HOUSE_NO":"２２１號十四樓","E_COORD97":180749.95999999999,"N_COORD97":2579537.1299999999,"ADDRESS":"東興路２２１號十四樓","OBJECTID":598125},"geometry":{"x":180749.96000000089,"y":2579537.1300000008}},{"attributes":{"ID":598153,"DIS_CODE":0,"TOWNNAME":"新營區","LI":"民生里","LIN":"27鄰","STREET":"進修街","SECT":" ","MAREA":" ","LANE":" ","ALLEY":" ","HOUSE_NO":"５９號五樓之４","E_COORD97":178985.70000000001,"N_COORD97":2578561.0099999998,"ADDRESS":"進修街５９號五樓之４","OBJECTID":598126},"geometry":{"x":178985.70000000112,"y":2578561.0099999998}},{"attributes":{"ID":598154,"DIS_CODE":0,"TOWNNAME":"新營區","LI":"新東里","LIN":"27鄰","STREET":"東興路","SECT":" ","MAREA":" ","LANE":" ","ALLEY":" ","HOUSE_NO":"２１７號五樓","E_COORD97":180748.70999999999,"N_COORD97":2579537.1299999999,"ADDRESS":"東興路２１７號五樓","OBJECTID":598127},"geometry":{"x":180748.70999999996,"y":2579537.1300000008}},{"attributes":{"ID":598155,"DIS_CODE":0,"TOWNNAME":"新營區","LI":"新東里","LIN":"27鄰","STREET":"東興路","SECT":" ","MAREA":" ","LANE":" ","ALLEY":" ","HOUSE_NO":"２２１號十二樓","E_COORD97":180749.95999999999,"N_COORD97":2579537.1299999999,"ADDRESS":"東興路２２１號十二樓","OBJECTID":598128},"geometry":{"x":180749.96000000089,"y":2579537.1300000008}},{"attributes":{"ID":598156,"DIS_CODE":0,"TOWNNAME":"新營區","LI":"新東里","LIN":"27鄰","STREET":"東興路","SECT":" ","MAREA":" ","LANE":" ","ALLEY":" ","HOUSE_NO":"２１７號六樓","E_COORD97":180748.70999999999,"N_COORD97":2579537.1299999999,"ADDRESS":"東興路２１７號六樓","OBJECTID":598129},"geometry":{"x":180748.70999999996,"y":2579537.1300000008}},{"attributes":{"ID":598157,"DIS_CODE":0,"TOWNNAME":"新營區","LI":"新東里","LIN":"27鄰","STREET":"東興路","SECT":" ","MAREA":" ","LANE":" ","ALLEY":" ","HOUSE_NO":"２１３號四樓","E_COORD97":180748.70999999999,"N_COORD97":2579537.1299999999,"ADDRESS":"東興路２１３號四樓","OBJECTID":598130},"geometry":{"x":180748.70999999996,"y":2579537.1300000008}},{"attributes":{"ID":598158,"DIS_CODE":0,"TOWNNAME":"中西區","LI":"藥王里","LIN":"9鄰","STREET":"臨安路","SECT":"一段","MAREA":" ","LANE":" ","ALLEY":" ","HOUSE_NO":"４０號","E_COORD97":166972.01000000001,"N_COORD97":2544348.46,"ADDRESS":"臨安路一段４０號","OBJECTID":598131},"geometry":{"x":166972.00999999885,"y":2544348.4600000028}},{"attributes":{"ID":598159,"DIS_CODE":0,"TOWNNAME":"中西區","LI":"藥王里","LIN":"9鄰","STREET":"民權路","SECT":"三段","MAREA":" ","LANE":" ","ALLEY":" ","HOUSE_NO":"３３６號底層","E_COORD97":167012.35999999999,"N_COORD97":2544333.1000000001,"ADDRESS":"民權路三段３３６號底層","OBJECTID":598132},"geometry":{"x":167012.36000000034,"y":2544333.1000000015}},{"attributes":{"ID":598160,"DIS_CODE":0,"TOWNNAME":"中西區","LI":"藥王里","LIN":"9鄰","STREET":"民權路","SECT":"三段","MAREA":" ","LANE":" ","ALLEY":" ","HOUSE_NO":"３３８號","E_COORD97":167006.87,"N_COORD97":2544334.75,"ADDRESS":"民權路三段３３８號","OBJECTID":598133},"geometry":{"x":167006.87000000011,"y":2544334.7500000019}},{"attributes":{"ID":598161,"DIS_CODE":0,"TOWNNAME":"新營區","LI":"新東里","LIN":"27鄰","STREET":"東興路","SECT":" ","MAREA":" ","LANE":" ","ALLEY":" ","HOUSE_NO":"２１３號三樓","E_COORD97":180748.70999999999,"N_COORD97":2579537.1299999999,"ADDRESS":"東興路２１３號三樓","OBJECTID":598134},"geometry":{"x":180748.70999999996,"y":2579537.1300000008}},{"attributes":{"ID":598162,"DIS_CODE":0,"TOWNNAME":"新營區","LI":"新東里","LIN":"27鄰","STREET":"東興路","SECT":" ","MAREA":" ","LANE":" ","ALLEY":" ","HOUSE_NO":"２１７號九樓","E_COORD97":180748.70999999999,"N_COORD97":2579537.1299999999,"ADDRESS":"東興路２１７號九樓","OBJECTID":598135},"geometry":{"x":180748.70999999996,"y":2579537.1300000008}},{"attributes":{"ID":598163,"DIS_CODE":0,"TOWNNAME":"新營區","LI":"三仙里","LIN":"27鄰","STREET":"健康路","SECT":" ","MAREA":" ","LANE":" ","ALLEY":" ","HOUSE_NO":"１０３號八樓","E_COORD97":179643.37,"N_COORD97":2579182.4300000002,"ADDRESS":"健康路１０３號八樓","OBJECTID":598136},"geometry":{"x":179643.37000000197,"y":2579182.4299999978}},{"attributes":{"ID":598164,"DIS_CODE":0,"TOWNNAME":"新營區","LI":"民生里","LIN":"27鄰","STREET":"進修街","SECT":" ","MAREA":" ","LANE":" ","ALLEY":" ","HOUSE_NO":"５５號六樓之２","E_COORD97":178989.82999999999,"N_COORD97":2578546.5899999999,"ADDRESS":"進修街５５號六樓之２","OBJECTID":598137},"geometry":{"x":178989.83000000101,"y":2578546.5899999999}},{"attributes":{"ID":598165,"DIS_CODE":0,"TOWNNAME":"新營區","LI":"新東里","LIN":"27鄰","STREET":"東興路","SECT":" ","MAREA":" ","LANE":" ","ALLEY":" ","HOUSE_NO":"２１７號十四樓","E_COORD97":180749.95999999999,"N_COORD97":2579537.1299999999,"ADDRESS":"東興路２１７號十四樓","OBJECTID":598138},"geometry":{"x":180749.96000000089,"y":2579537.1300000008}},{"attributes":{"ID":598166,"DIS_CODE":0,"TOWNNAME":"新營區","LI":"新東里","LIN":"27鄰","STREET":"東興路","SECT":" ","MAREA":" ","LANE":" ","ALLEY":" ","HOUSE_NO":"２１７號三樓","E_COORD97":180748.70999999999,"N_COORD97":2579537.1299999999,"ADDRESS":"東興路２１７號三樓","OBJECTID":598139},"geometry":{"x":180748.70999999996,"y":2579537.1300000008}},{"attributes":{"ID":598167,"DIS_CODE":0,"TOWNNAME":"新營區","LI":"三仙里","LIN":"27鄰","STREET":"健康路","SECT":" ","MAREA":" ","LANE":" ","ALLEY":" ","HOUSE_NO":"１０７號六樓","E_COORD97":179643.37,"N_COORD97":2579182.4300000002,"ADDRESS":"健康路１０７號六樓","OBJECTID":598140},"geometry":{"x":179643.37000000197,"y":2579182.4299999978}},{"attributes":{"ID":598168,"DIS_CODE":0,"TOWNNAME":"新營區","LI":"新東里","LIN":"27鄰","STREET":"東興路","SECT":" ","MAREA":" ","LANE":" ","ALLEY":" ","HOUSE_NO":"２２１號三樓","E_COORD97":180748.70999999999,"N_COORD97":2579537.1299999999,"ADDRESS":"東興路２２１號三樓","OBJECTID":598141},"geometry":{"x":180748.70999999996,"y":2579537.1300000008}},{"attributes":{"ID":598169,"DIS_CODE":0,"TOWNNAME":"新營區","LI":"大宏里","LIN":"27鄰","STREET":"開元路","SECT":" ","MAREA":" ","LANE":" ","ALLEY":" ","HOUSE_NO":"６１之１７號三樓","E_COORD97":180901.23999999999,"N_COORD97":2578823.27,"ADDRESS":"開元路６１之１７號三樓","OBJECTID":598142},"geometry":{"x":180901.24000000115,"y":2578823.2699999996}},{"attributes":{"ID":598170,"DIS_CODE":0,"TOWNNAME":"新營區","LI":"大宏里","LIN":"27鄰","STREET":"開元路","SECT":" ","MAREA":" ","LANE":" ","ALLEY":" ","HOUSE_NO":"６１之１７號四樓之１","E_COORD97":180903.37,"N_COORD97":2578823.27,"ADDRESS":"開元路６１之１７號四樓之１","OBJECTID":598143},"geometry":{"x":180903.37000000104,"y":2578823.2699999996}},{"attributes":{"ID":598171,"DIS_CODE":0,"TOWNNAME":"新營區","LI":"大宏里","LIN":"27鄰","STREET":"開元路","SECT":" ","MAREA":" ","LANE":" ","ALLEY":" ","HOUSE_NO":"６１之１７號三樓之１","E_COORD97":180903.37,"N_COORD97":2578823.27,"ADDRESS":"開元路６１之１７號三樓之１","OBJECTID":598144},"geometry":{"x":180903.37000000104,"y":2578823.2699999996}},{"attributes":{"ID":598172,"DIS_CODE":0,"TOWNNAME":"中西區","LI":"藥王里","LIN":"9鄰","STREET":"民權路","SECT":"三段","MAREA":" ","LANE":" ","ALLEY":" ","HOUSE_NO":"３４０號","E_COORD97":167001.10999999999,"N_COORD97":2544336.1200000001,"ADDRESS":"民權路三段３４０號","OBJECTID":598145},"geometry":{"x":167001.11000000127,"y":2544336.120000001}},{"attributes":{"ID":598173,"DIS_CODE":0,"TOWNNAME":"中西區","LI":"藥王里","LIN":"9鄰","STREET":"民權路","SECT":"三段","MAREA":" ","LANE":" ","ALLEY":" ","HOUSE_NO":"３４２號","E_COORD97":166995.35000000001,"N_COORD97":2544337.2200000002,"ADDRESS":"民權路三段３４２號","OBJECTID":598146},"geometry":{"x":166995.35000000056,"y":2544337.2200000007}},{"attributes":{"ID":598174,"DIS_CODE":0,"TOWNNAME":"中西區","LI":"藥王里","LIN":"9鄰","STREET":"民權路","SECT":"三段","MAREA":" ","LANE":" ","ALLEY":" ","HOUSE_NO":"３４４號","E_COORD97":166990.13,"N_COORD97":2544338.3100000001,"ADDRESS":"民權路三段３４４號","OBJECTID":598147},"geometry":{"x":166990.13000000175,"y":2544338.3100000024}},{"attributes":{"ID":598175,"DIS_CODE":0,"TOWNNAME":"中西區","LI":"藥王里","LIN":"9鄰","STREET":"臨安路","SECT":"一段","MAREA":" ","LANE":" ","ALLEY":" ","HOUSE_NO":"３８號","E_COORD97":166968.98999999999,"N_COORD97":2544344.3500000001,"ADDRESS":"臨安路一段３８號","OBJECTID":598148},"geometry":{"x":166968.99000000022,"y":2544344.3500000015}},{"attributes":{"ID":598176,"DIS_CODE":0,"TOWNNAME":"中西區","LI":"藥王里","LIN":"9鄰","STREET":"臨安路","SECT":"一段","MAREA":" ","LANE":" ","ALLEY":" ","HOUSE_NO":"４２號","E_COORD97":166976.95000000001,"N_COORD97":2544352.8500000001,"ADDRESS":"臨安路一段４２號","OBJECTID":598149},"geometry":{"x":166976.95000000112,"y":2544352.8499999996}},{"attributes":{"ID":598177,"DIS_CODE":0,"TOWNNAME":"中西區","LI":"藥王里","LIN":"9鄰","STREET":"臨安路","SECT":"一段","MAREA":" ","LANE":" ","ALLEY":" ","HOUSE_NO":"４４號","E_COORD97":166980.79999999999,"N_COORD97":2544357.52,"ADDRESS":"臨安路一段４４號","OBJECTID":598150},"geometry":{"x":166980.80000000075,"y":2544357.5200000014}},{"attributes":{"ID":598178,"DIS_CODE":0,"TOWNNAME":"中西區","LI":"藥王里","LIN":"9鄰","STREET":"臨安路","SECT":"一段","MAREA":" ","LANE":" ","ALLEY":" ","HOUSE_NO":"４６號","E_COORD97":166986.56,"N_COORD97":2544361.3599999999,"ADDRESS":"臨安路一段４６號","OBJECTID":598151},"geometry":{"x":166986.55999999959,"y":2544361.3600000013}},{"attributes":{"ID":598179,"DIS_CODE":0,"TOWNNAME":"中西區","LI":"藥王里","LIN":"9鄰","STREET":"臨安路","SECT":"一段","MAREA":" ","LANE":" ","ALLEY":" ","HOUSE_NO":"５２號","E_COORD97":167007.14999999999,"N_COORD97":2544371.23,"ADDRESS":"臨安路一段５２號","OBJECTID":598152},"geometry":{"x":167007.15000000037,"y":2544371.2300000004}},{"attributes":{"ID":598180,"DIS_CODE":0,"TOWNNAME":"中西區","LI":"藥王里","LIN":"8鄰","STREET":"大新街","SECT":" ","MAREA":" ","LANE":" ","ALLEY":" ","HOUSE_NO":"１１號","E_COORD97":167122.44,"N_COORD97":2544337.6600000001,"ADDRESS":"大新街１１號","OBJECTID":598153},"geometry":{"x":167122.44000000227,"y":2544337.6600000001}},{"attributes":{"ID":598181,"DIS_CODE":0,"TOWNNAME":"安平區","LI":"國平里","LIN":"27鄰","STREET":"健康三街","SECT":" ","MAREA":" ","LANE":" ","ALLEY":" ","HOUSE_NO":"１４２號十一樓之１","E_COORD97":164749.67999999999,"N_COORD97":2543112.8599999999,"ADDRESS":"健康三街１４２號十一樓之１","OBJECTID":598154},"geometry":{"x":164749.6799999997,"y":2543112.8600000013}},{"attributes":{"ID":598182,"DIS_CODE":0,"TOWNNAME":"安平區","LI":"國平里","LIN":"27鄰","STREET":"健康三街","SECT":" ","MAREA":" ","LANE":" ","ALLEY":" ","HOUSE_NO":"１４２號十三樓之２","E_COORD97":164749.67999999999,"N_COORD97":2543112.8599999999,"ADDRESS":"健康三街１４２號十三樓之２","OBJECTID":598155},"geometry":{"x":164749.6799999997,"y":2543112.8600000013}},{"attributes":{"ID":598183,"DIS_CODE":0,"TOWNNAME":"安平區","LI":"國平里","LIN":"27鄰","STREET":"健康三街","SECT":" ","MAREA":" ","LANE":" ","ALLEY":" ","HOUSE_NO":"１４０號八樓之２","E_COORD97":164752.78,"N_COORD97":2543131.3599999999,"ADDRESS":"健康三街１４０號八樓之２","OBJECTID":598156},"geometry":{"x":164752.78000000026,"y":2543131.3599999994}},{"attributes":{"ID":598184,"DIS_CODE":0,"TOWNNAME":"安平區","LI":"國平里","LIN":"27鄰","STREET":"健康三街","SECT":" ","MAREA":" ","LANE":" ","ALLEY":" ","HOUSE_NO":"１４０號十二樓之２","E_COORD97":164752.78,"N_COORD97":2543131.3599999999,"ADDRESS":"健康三街１４０號十二樓之２","OBJECTID":598157},"geometry":{"x":164752.78000000026,"y":2543131.3599999994}},{"attributes":{"ID":598185,"DIS_CODE":0,"TOWNNAME":"安平區","LI":"國平里","LIN":"27鄰","STREET":"健康三街","SECT":" ","MAREA":" ","LANE":" ","ALLEY":" ","HOUSE_NO":"１４２號三樓之２","E_COORD97":164749.67999999999,"N_COORD97":2543112.8599999999,"ADDRESS":"健康三街１４２號三樓之２","OBJECTID":598158},"geometry":{"x":164749.6799999997,"y":2543112.8600000013}},{"attributes":{"ID":598186,"DIS_CODE":0,"TOWNNAME":"安平區","LI":"國平里","LIN":"27鄰","STREET":"健康三街","SECT":" ","MAREA":" ","LANE":" ","ALLEY":" ","HOUSE_NO":"１４２號二樓之１","E_COORD97":164749.67999999999,"N_COORD97":2543112.8599999999,"ADDRESS":"健康三街１４２號二樓之１","OBJECTID":598159},"geometry":{"x":164749.6799999997,"y":2543112.8600000013}},{"attributes":{"ID":598187,"DIS_CODE":0,"TOWNNAME":"安平區","LI":"國平里","LIN":"27鄰","STREET":"健康三街","SECT":" ","MAREA":" ","LANE":" ","ALLEY":" ","HOUSE_NO":"１４２號八樓之１","E_COORD97":164749.67999999999,"N_COORD97":2543112.8599999999,"ADDRESS":"健康三街１４２號八樓之１","OBJECTID":598160},"geometry":{"x":164749.6799999997,"y":2543112.8600000013}},{"attributes":{"ID":598188,"DIS_CODE":0,"TOWNNAME":"安平區","LI":"國平里","LIN":"27鄰","STREET":"健康三街","SECT":" ","MAREA":" ","LANE":" ","ALLEY":" ","HOUSE_NO":"１４２號九樓之２","E_COORD97":164749.67999999999,"N_COORD97":2543112.8599999999,"ADDRESS":"健康三街１４２號九樓之２","OBJECTID":598161},"geometry":{"x":164749.6799999997,"y":2543112.8600000013}},{"attributes":{"ID":598189,"DIS_CODE":0,"TOWNNAME":"安平區","LI":"國平里","LIN":"27鄰","STREET":"健康三街","SECT":" ","MAREA":" ","LANE":" ","ALLEY":" ","HOUSE_NO":"１４２號十四樓之１","E_COORD97":164749.67999999999,"N_COORD97":2543112.8599999999,"ADDRESS":"健康三街１４２號十四樓之１","OBJECTID":598162},"geometry":{"x":164749.6799999997,"y":2543112.8600000013}},{"attributes":{"ID":598190,"DIS_CODE":0,"TOWNNAME":"安平區","LI":"國平里","LIN":"27鄰","STREET":"健康三街","SECT":" ","MAREA":" ","LANE":" ","ALLEY":" ","HOUSE_NO":"１４２號十四樓之２","E_COORD97":164749.67999999999,"N_COORD97":2543112.8599999999,"ADDRESS":"健康三街１４２號十四樓之２","OBJECTID":598163},"geometry":{"x":164749.6799999997,"y":2543112.8600000013}},{"attributes":{"ID":598191,"DIS_CODE":0,"TOWNNAME":"安平區","LI":"國平里","LIN":"27鄰","STREET":"健康三街","SECT":" ","MAREA":" ","LANE":" ","ALLEY":" ","HOUSE_NO":"１４２號五樓之２","E_COORD97":164749.67999999999,"N_COORD97":2543112.8599999999,"ADDRESS":"健康三街１４２號五樓之２","OBJECTID":598164},"geometry":{"x":164749.6799999997,"y":2543112.8600000013}},{"attributes":{"ID":598192,"DIS_CODE":0,"TOWNNAME":"安平區","LI":"國平里","LIN":"27鄰","STREET":"健康三街","SECT":" ","MAREA":" ","LANE":" ","ALLEY":" ","HOUSE_NO":"１４２號六樓之１","E_COORD97":164749.67999999999,"N_COORD97":2543112.8599999999,"ADDRESS":"健康三街１４２號六樓之１","OBJECTID":598165},"geometry":{"x":164749.6799999997,"y":2543112.8600000013}},{"attributes":{"ID":598193,"DIS_CODE":0,"TOWNNAME":"安平區","LI":"國平里","LIN":"27鄰","STREET":"健康三街","SECT":" ","MAREA":" ","LANE":" ","ALLEY":" ","HOUSE_NO":"１４６號二樓之２","E_COORD97":164773.32999999999,"N_COORD97":2543110.3399999999,"ADDRESS":"健康三街１４６號二樓之２","OBJECTID":598166},"geometry":{"x":164773.33000000194,"y":2543110.3400000017}},{"attributes":{"ID":598194,"DIS_CODE":0,"TOWNNAME":"安平區","LI":"國平里","LIN":"27鄰","STREET":"健康三街","SECT":" ","MAREA":" ","LANE":" ","ALLEY":" ","HOUSE_NO":"１４６號十樓之１","E_COORD97":164773.32999999999,"N_COORD97":2543110.3399999999,"ADDRESS":"健康三街１４６號十樓之１","OBJECTID":598167},"geometry":{"x":164773.33000000194,"y":2543110.3400000017}},{"attributes":{"ID":598195,"DIS_CODE":0,"TOWNNAME":"安平區","LI":"國平里","LIN":"27鄰","STREET":"健康三街","SECT":" ","MAREA":" ","LANE":" ","ALLEY":" ","HOUSE_NO":"１４６號七樓之２","E_COORD97":164773.32999999999,"N_COORD97":2543110.3399999999,"ADDRESS":"健康三街１４６號七樓之２","OBJECTID":598168},"geometry":{"x":164773.33000000194,"y":2543110.3400000017}},{"attributes":{"ID":598196,"DIS_CODE":0,"TOWNNAME":"安平區","LI":"國平里","LIN":"27鄰","STREET":"健康三街","SECT":" ","MAREA":" ","LANE":" ","ALLEY":" ","HOUSE_NO":"１４６號十二樓之１","E_COORD97":164773.32999999999,"N_COORD97":2543110.3399999999,"ADDRESS":"健康三街１４６號十二樓之１","OBJECTID":598169},"geometry":{"x":164773.33000000194,"y":2543110.3400000017}},{"attributes":{"ID":598197,"DIS_CODE":0,"TOWNNAME":"安平區","LI":"國平里","LIN":"27鄰","STREET":"健康三街","SECT":" ","MAREA":" ","LANE":" ","ALLEY":" ","HOUSE_NO":"１４８號十樓之３","E_COORD97":164775.39000000001,"N_COORD97":2543128.9300000002,"ADDRESS":"健康三街１４８號十樓之３","OBJECTID":598170},"geometry":{"x":164775.38999999966,"y":2543128.9299999997}},{"attributes":{"ID":598198,"DIS_CODE":0,"TOWNNAME":"安平區","LI":"國平里","LIN":"27鄰","STREET":"健康三街","SECT":" ","MAREA":" ","LANE":" ","ALLEY":" ","HOUSE_NO":"１５６號七樓之３","E_COORD97":164781.04999999999,"N_COORD97":2543182.1099999999,"ADDRESS":"健康三街１５６號七樓之３","OBJECTID":598171},"geometry":{"x":164781.04999999981,"y":2543182.1100000031}},{"attributes":{"ID":598199,"DIS_CODE":0,"TOWNNAME":"安平區","LI":"國平里","LIN":"27鄰","STREET":"健康三街","SECT":" ","MAREA":" ","LANE":" ","ALLEY":" ","HOUSE_NO":"１５６號五樓之３","E_COORD97":164781.04999999999,"N_COORD97":2543182.1099999999,"ADDRESS":"健康三街１５６號五樓之３","OBJECTID":598172},"geometry":{"x":164781.04999999981,"y":2543182.1100000031}},{"attributes":{"ID":598200,"DIS_CODE":0,"TOWNNAME":"安平區","LI":"國平里","LIN":"27鄰","STREET":"健康三街","SECT":" ","MAREA":" ","LANE":" ","ALLEY":" ","HOUSE_NO":"１５６號九樓之１","E_COORD97":164781.04999999999,"N_COORD97":2543182.1099999999,"ADDRESS":"健康三街１５６號九樓之１","OBJECTID":598173},"geometry":{"x":164781.04999999981,"y":2543182.1100000031}},{"attributes":{"ID":598201,"DIS_CODE":0,"TOWNNAME":"安平區","LI":"國平里","LIN":"27鄰","STREET":"健康三街","SECT":" ","MAREA":" ","LANE":" ","ALLEY":" ","HOUSE_NO":"１５６號十樓之２","E_COORD97":164781.04999999999,"N_COORD97":2543182.1099999999,"ADDRESS":"健康三街１５６號十樓之２","OBJECTID":598174},"geometry":{"x":164781.04999999981,"y":2543182.1100000031}},{"attributes":{"ID":598202,"DIS_CODE":0,"TOWNNAME":"安平區","LI":"國平里","LIN":"27鄰","STREET":"健康三街","SECT":" ","MAREA":" ","LANE":" ","ALLEY":" ","HOUSE_NO":"１５６號十三樓之２","E_COORD97":164781.04999999999,"N_COORD97":2543182.1099999999,"ADDRESS":"健康三街１５６號十三樓之２","OBJECTID":598175},"geometry":{"x":164781.04999999981,"y":2543182.1100000031}},{"attributes":{"ID":598203,"DIS_CODE":0,"TOWNNAME":"安平區","LI":"國平里","LIN":"27鄰","STREET":"健康三街","SECT":" ","MAREA":" ","LANE":" ","ALLEY":" ","HOUSE_NO":"１５６號十四樓之１","E_COORD97":164781.04999999999,"N_COORD97":2543182.1099999999,"ADDRESS":"健康三街１５６號十四樓之１","OBJECTID":598176},"geometry":{"x":164781.04999999981,"y":2543182.1100000031}},{"attributes":{"ID":598204,"DIS_CODE":0,"TOWNNAME":"安平區","LI":"國平里","LIN":"27鄰","STREET":"健康三街","SECT":" ","MAREA":" ","LANE":" ","ALLEY":" ","HOUSE_NO":"１５８號七樓之２","E_COORD97":164763,"N_COORD97":2543187.6800000002,"ADDRESS":"健康三街１５８號七樓之２","OBJECTID":598177},"geometry":{"x":164763,"y":2543187.6799999997}},{"attributes":{"ID":598205,"DIS_CODE":0,"TOWNNAME":"安平區","LI":"國平里","LIN":"27鄰","STREET":"健康三街","SECT":" ","MAREA":" ","LANE":" ","ALLEY":" ","HOUSE_NO":"１５８號二樓之３","E_COORD97":164763,"N_COORD97":2543187.6800000002,"ADDRESS":"健康三街１５８號二樓之３","OBJECTID":598178},"geometry":{"x":164763,"y":2543187.6799999997}},{"attributes":{"ID":598206,"DIS_CODE":0,"TOWNNAME":"安平區","LI":"國平里","LIN":"27鄰","STREET":"健康三街","SECT":" ","MAREA":" ","LANE":" ","ALLEY":" ","HOUSE_NO":"１５８號三樓之２","E_COORD97":164763,"N_COORD97":2543187.6800000002,"ADDRESS":"健康三街１５８號三樓之２","OBJECTID":598179},"geometry":{"x":164763,"y":2543187.6799999997}},{"attributes":{"ID":598207,"DIS_CODE":0,"TOWNNAME":"安平區","LI":"國平里","LIN":"27鄰","STREET":"健康三街","SECT":" ","MAREA":" ","LANE":" ","ALLEY":" ","HOUSE_NO":"１５８號九樓之２","E_COORD97":164763,"N_COORD97":2543187.6800000002,"ADDRESS":"健康三街１５８號九樓之２","OBJECTID":598180},"geometry":{"x":164763,"y":2543187.6799999997}},{"attributes":{"ID":598208,"DIS_CODE":0,"TOWNNAME":"安平區","LI":"國平里","LIN":"27鄰","STREET":"健康三街","SECT":" ","MAREA":" ","LANE":" ","ALLEY":" ","HOUSE_NO":"１５８號十三樓之３","E_COORD97":164763,"N_COORD97":2543187.6800000002,"ADDRESS":"健康三街１５８號十三樓之３","OBJECTID":598181},"geometry":{"x":164763,"y":2543187.6799999997}},{"attributes":{"ID":598209,"DIS_CODE":0,"TOWNNAME":"安平區","LI":"國平里","LIN":"27鄰","STREET":"健康三街","SECT":" ","MAREA":" ","LANE":" ","ALLEY":" ","HOUSE_NO":"１６０號十樓之２","E_COORD97":164759.67000000001,"N_COORD97":2543164.5099999998,"ADDRESS":"健康三街１６０號十樓之２","OBJECTID":598182},"geometry":{"x":164759.67000000086,"y":2543164.5099999998}},{"attributes":{"ID":598210,"DIS_CODE":0,"TOWNNAME":"安平區","LI":"國平里","LIN":"27鄰","STREET":"健康三街","SECT":" ","MAREA":" ","LANE":" ","ALLEY":" ","HOUSE_NO":"１６０號九樓之１","E_COORD97":164759.67000000001,"N_COORD97":2543164.5099999998,"ADDRESS":"健康三街１６０號九樓之１","OBJECTID":598183},"geometry":{"x":164759.67000000086,"y":2543164.5099999998}},{"attributes":{"ID":598211,"DIS_CODE":0,"TOWNNAME":"安平區","LI":"國平里","LIN":"27鄰","STREET":"健康三街","SECT":" ","MAREA":" ","LANE":" ","ALLEY":" ","HOUSE_NO":"１５６號四樓之２","E_COORD97":164781.04999999999,"N_COORD97":2543182.1099999999,"ADDRESS":"健康三街１５６號四樓之２","OBJECTID":598184},"geometry":{"x":164781.04999999981,"y":2543182.1100000031}},{"attributes":{"ID":598212,"DIS_CODE":0,"TOWNNAME":"安平區","LI":"國平里","LIN":"27鄰","STREET":"健康三街","SECT":" ","MAREA":" ","LANE":" ","ALLEY":" ","HOUSE_NO":"１５６號五樓之２","E_COORD97":164781.04999999999,"N_COORD97":2543182.1099999999,"ADDRESS":"健康三街１５６號五樓之２","OBJECTID":598185},"geometry":{"x":164781.04999999981,"y":2543182.1100000031}},{"attributes":{"ID":598213,"DIS_CODE":0,"TOWNNAME":"安平區","LI":"國平里","LIN":"27鄰","STREET":"健康三街","SECT":" ","MAREA":" ","LANE":" ","ALLEY":" ","HOUSE_NO":"１５８號六樓之３","E_COORD97":164763,"N_COORD97":2543187.6800000002,"ADDRESS":"健康三街１５８號六樓之３","OBJECTID":598186},"geometry":{"x":164763,"y":2543187.6799999997}},{"attributes":{"ID":598214,"DIS_CODE":0,"TOWNNAME":"安平區","LI":"國平里","LIN":"27鄰","STREET":"健康三街","SECT":" ","MAREA":" ","LANE":" ","ALLEY":" ","HOUSE_NO":"１５８號七樓之１","E_COORD97":164763,"N_COORD97":2543187.6800000002,"ADDRESS":"健康三街１５８號七樓之１","OBJECTID":598187},"geometry":{"x":164763,"y":2543187.6799999997}},{"attributes":{"ID":598215,"DIS_CODE":0,"TOWNNAME":"安平區","LI":"國平里","LIN":"27鄰","STREET":"健康三街","SECT":" ","MAREA":" ","LANE":" ","ALLEY":" ","HOUSE_NO":"１５８號六樓之２","E_COORD97":164763,"N_COORD97":2543187.6800000002,"ADDRESS":"健康三街１５８號六樓之２","OBJECTID":598188},"geometry":{"x":164763,"y":2543187.6799999997}},{"attributes":{"ID":598216,"DIS_CODE":0,"TOWNNAME":"安平區","LI":"國平里","LIN":"27鄰","STREET":"健康三街","SECT":" ","MAREA":" ","LANE":" ","ALLEY":" ","HOUSE_NO":"１５８號九樓之１","E_COORD97":164763,"N_COORD97":2543187.6800000002,"ADDRESS":"健康三街１５８號九樓之１","OBJECTID":598189},"geometry":{"x":164763,"y":2543187.6799999997}},{"attributes":{"ID":598217,"DIS_CODE":0,"TOWNNAME":"安平區","LI":"國平里","LIN":"27鄰","STREET":"健康三街","SECT":" ","MAREA":" ","LANE":" ","ALLEY":" ","HOUSE_NO":"１５８號九樓之３","E_COORD97":164763,"N_COORD97":2543187.6800000002,"ADDRESS":"健康三街１５８號九樓之３","OBJECTID":598190},"geometry":{"x":164763,"y":2543187.6799999997}},{"attributes":{"ID":598218,"DIS_CODE":0,"TOWNNAME":"安平區","LI":"國平里","LIN":"27鄰","STREET":"健康三街","SECT":" ","MAREA":" ","LANE":" ","ALLEY":" ","HOUSE_NO":"１５８號十二樓之１","E_COORD97":164763,"N_COORD97":2543187.6800000002,"ADDRESS":"健康三街１５８號十二樓之１","OBJECTID":598191},"geometry":{"x":164763,"y":2543187.6799999997}},{"attributes":{"ID":598219,"DIS_CODE":0,"TOWNNAME":"安平區","LI":"國平里","LIN":"27鄰","STREET":"健康三街","SECT":" ","MAREA":" ","LANE":" ","ALLEY":" ","HOUSE_NO":"１５８號十二樓之２","E_COORD97":164763,"N_COORD97":2543187.6800000002,"ADDRESS":"健康三街１５８號十二樓之２","OBJECTID":598192},"geometry":{"x":164763,"y":2543187.6799999997}},{"attributes":{"ID":598220,"DIS_CODE":0,"TOWNNAME":"安平區","LI":"國平里","LIN":"27鄰","STREET":"健康三街","SECT":" ","MAREA":" ","LANE":" ","ALLEY":" ","HOUSE_NO":"１５８號十三樓之１","E_COORD97":164763,"N_COORD97":2543187.6800000002,"ADDRESS":"健康三街１５８號十三樓之１","OBJECTID":598193},"geometry":{"x":164763,"y":2543187.6799999997}},{"attributes":{"ID":598221,"DIS_CODE":0,"TOWNNAME":"安平區","LI":"國平里","LIN":"27鄰","STREET":"健康三街","SECT":" ","MAREA":" ","LANE":" ","ALLEY":" ","HOUSE_NO":"１５８號二樓之１","E_COORD97":164763,"N_COORD97":2543187.6800000002,"ADDRESS":"健康三街１５８號二樓之１","OBJECTID":598194},"geometry":{"x":164763,"y":2543187.6799999997}},{"attributes":{"ID":598222,"DIS_CODE":0,"TOWNNAME":"安平區","LI":"國平里","LIN":"27鄰","STREET":"健康三街","SECT":" ","MAREA":" ","LANE":" ","ALLEY":" ","HOUSE_NO":"１５８號十樓之１","E_COORD97":164763,"N_COORD97":2543187.6800000002,"ADDRESS":"健康三街１５８號十樓之１","OBJECTID":598195},"geometry":{"x":164763,"y":2543187.6799999997}},{"attributes":{"ID":598223,"DIS_CODE":0,"TOWNNAME":"安平區","LI":"國平里","LIN":"27鄰","STREET":"健康三街","SECT":" ","MAREA":" ","LANE":" ","ALLEY":" ","HOUSE_NO":"１５８號十一樓之２","E_COORD97":164763,"N_COORD97":2543187.6800000002,"ADDRESS":"健康三街１５８號十一樓之２","OBJECTID":598196},"geometry":{"x":164763,"y":2543187.6799999997}},{"attributes":{"ID":598224,"DIS_CODE":0,"TOWNNAME":"安平區","LI":"國平里","LIN":"27鄰","STREET":"健康三街","SECT":" ","MAREA":" ","LANE":" ","ALLEY":" ","HOUSE_NO":"１５８號十一樓之３","E_COORD97":164763,"N_COORD97":2543187.6800000002,"ADDRESS":"健康三街１５８號十一樓之３","OBJECTID":598197},"geometry":{"x":164763,"y":2543187.6799999997}},{"attributes":{"ID":598225,"DIS_CODE":0,"TOWNNAME":"安平區","LI":"國平里","LIN":"27鄰","STREET":"健康三街","SECT":" ","MAREA":" ","LANE":" ","ALLEY":" ","HOUSE_NO":"１５８號五樓之３","E_COORD97":164763,"N_COORD97":2543187.6800000002,"ADDRESS":"健康三街１５８號五樓之３","OBJECTID":598198},"geometry":{"x":164763,"y":2543187.6799999997}},{"attributes":{"ID":598226,"DIS_CODE":0,"TOWNNAME":"安平區","LI":"國平里","LIN":"27鄰","STREET":"健康三街","SECT":" ","MAREA":" ","LANE":" ","ALLEY":" ","HOUSE_NO":"１５８號八樓之２","E_COORD97":164763,"N_COORD97":2543187.6800000002,"ADDRESS":"健康三街１５８號八樓之２","OBJECTID":598199},"geometry":{"x":164763,"y":2543187.6799999997}},{"attributes":{"ID":598227,"DIS_CODE":0,"TOWNNAME":"安平區","LI":"國平里","LIN":"27鄰","STREET":"健康三街","SECT":" ","MAREA":" ","LANE":" ","ALLEY":" ","HOUSE_NO":"１５８號十樓之３","E_COORD97":164763,"N_COORD97":2543187.6800000002,"ADDRESS":"健康三街１５８號十樓之３","OBJECTID":598200},"geometry":{"x":164763,"y":2543187.6799999997}}]}