{"displayFieldName":"TOWNNAME","fieldAliases":{"ID":"ID","DIS_CODE":"DIS_CODE","TOWNNAME":"TOWNNAME","LI":"LI","LIN":"LIN","STREET":"STREET","SECT":"SECT","MAREA":"MAREA","LANE":"LANE","ALLEY":"ALLEY","HOUSE_NO":"HOUSE_NO","E_COORD97":"E_COORD97","N_COORD97":"N_COORD97","ADDRESS":"ADDRESS","OBJECTID":"OBJECTID"},"geometryType":"esriGeometryPoint","spatialReference":{"wkid":102443,"latestWkid":3826},"fields":[{"name":"ID","type":"esriFieldTypeDouble","alias":"ID"},{"name":"DIS_CODE","type":"esriFieldTypeInteger","alias":"DIS_CODE"},{"name":"TOWNNAME","type":"esriFieldTypeString","alias":"TOWNNAME","length":8},{"name":"LI","type":"esriFieldTypeString","alias":"LI","length":8},{"name":"LIN","type":"esriFieldTypeString","alias":"LIN","length":12},{"name":"STREET","type":"esriFieldTypeString","alias":"STREET","length":20},{"name":"SECT","type":"esriFieldTypeString","alias":"SECT","length":8},{"name":"MAREA","type":"esriFieldTypeString","alias":"MAREA","length":12},{"name":"LANE","type":"esriFieldTypeString","alias":"LANE","length":10},{"name":"ALLEY","type":"esriFieldTypeString","alias":"ALLEY","length":10},{"name":"HOUSE_NO","type":"esriFieldTypeString","alias":"HOUSE_NO","length":20},{"name":"E_COORD97","type":"esriFieldTypeDouble","alias":"E_COORD97"},{"name":"N_COORD97","type":"esriFieldTypeDouble","alias":"N_COORD97"},{"name":"ADDRESS","type":"esriFieldTypeString","alias":"ADDRESS","length":50},{"name":"OBJECTID","type":"esriFieldTypeOID","alias":"OBJECTID"}],"features":[{"attributes":{"ID":334410,"DIS_CODE":0,"TOWNNAME":"麻豆區","LI":"大埕里","LIN":"18鄰","STREET":"振興街","SECT":" ","MAREA":" ","LANE":" ","ALLEY":" ","HOUSE_NO":"２２號之４","E_COORD97":172926.79000000001,"N_COORD97":2564964.8599999999,"ADDRESS":"振興街２２號之４","OBJECTID":334401},"geometry":{"x":172926.79000000004,"y":2564964.8600000013}},{"attributes":{"ID":334411,"DIS_CODE":0,"TOWNNAME":"麻豆區","LI":"大埕里","LIN":"18鄰","STREET":"振興街","SECT":" ","MAREA":" ","LANE":" ","ALLEY":" ","HOUSE_NO":"２２號之５","E_COORD97":172923.37,"N_COORD97":2564966.3700000001,"ADDRESS":"振興街２２號之５","OBJECTID":334402},"geometry":{"x":172923.37000000011,"y":2564966.3700000029}},{"attributes":{"ID":334412,"DIS_CODE":0,"TOWNNAME":"麻豆區","LI":"大埕里","LIN":"18鄰","STREET":"振興街","SECT":" ","MAREA":" ","LANE":" ","ALLEY":" ","HOUSE_NO":"２２號之６","E_COORD97":172919.42000000001,"N_COORD97":2564967.6800000002,"ADDRESS":"振興街２２號之６","OBJECTID":334403},"geometry":{"x":172919.41999999993,"y":2564967.6799999997}},{"attributes":{"ID":334413,"DIS_CODE":0,"TOWNNAME":"麻豆區","LI":"大埕里","LIN":"18鄰","STREET":"振興街","SECT":" ","MAREA":" ","LANE":" ","ALLEY":" ","HOUSE_NO":"２２號之７","E_COORD97":172938.69,"N_COORD97":2564978.2000000002,"ADDRESS":"振興街２２號之７","OBJECTID":334404},"geometry":{"x":172938.69000000227,"y":2564978.200000003}},{"attributes":{"ID":334414,"DIS_CODE":0,"TOWNNAME":"麻豆區","LI":"大埕里","LIN":"18鄰","STREET":"振興街","SECT":" ","MAREA":" ","LANE":" ","ALLEY":" ","HOUSE_NO":"２２號之８","E_COORD97":172935.20000000001,"N_COORD97":2564978.8599999999,"ADDRESS":"振興街２２號之８","OBJECTID":334405},"geometry":{"x":172935.20000000112,"y":2564978.8599999994}},{"attributes":{"ID":334415,"DIS_CODE":0,"TOWNNAME":"麻豆區","LI":"大埕里","LIN":"18鄰","STREET":"振興街","SECT":" ","MAREA":" ","LANE":" ","ALLEY":" ","HOUSE_NO":"２２號之９","E_COORD97":172931.14999999999,"N_COORD97":2564979.6400000001,"ADDRESS":"振興街２２號之９","OBJECTID":334406},"geometry":{"x":172931.1500000013,"y":2564979.6399999987}},{"attributes":{"ID":334416,"DIS_CODE":0,"TOWNNAME":"麻豆區","LI":"大埕里","LIN":"18鄰","STREET":"振興街","SECT":" ","MAREA":" ","LANE":" ","ALLEY":" ","HOUSE_NO":"２４號","E_COORD97":172912.42000000001,"N_COORD97":2564983.4399999999,"ADDRESS":"振興街２４號","OBJECTID":334407},"geometry":{"x":172912.41999999993,"y":2564983.4400000032}},{"attributes":{"ID":334417,"DIS_CODE":0,"TOWNNAME":"麻豆區","LI":"大埕里","LIN":"18鄰","STREET":"振興街","SECT":" ","MAREA":" ","LANE":" ","ALLEY":" ","HOUSE_NO":"２之１號","E_COORD97":173005.14999999999,"N_COORD97":2564933.3500000001,"ADDRESS":"振興街２之１號","OBJECTID":334408},"geometry":{"x":173005.1500000013,"y":2564933.3500000034}},{"attributes":{"ID":334418,"DIS_CODE":0,"TOWNNAME":"關廟區","LI":"北花里","LIN":"20鄰","STREET":"中正路","SECT":" ","MAREA":" ","LANE":"１１３巷","ALLEY":" ","HOUSE_NO":"３９號","E_COORD97":183606.85999999999,"N_COORD97":2540814.6200000001,"ADDRESS":"中正路１１３巷３９號","OBJECTID":334409},"geometry":{"x":183606.8600000022,"y":2540814.6200000029}},{"attributes":{"ID":334419,"DIS_CODE":0,"TOWNNAME":"麻豆區","LI":"大埕里","LIN":"18鄰","STREET":"振興街","SECT":" ","MAREA":" ","LANE":" ","ALLEY":" ","HOUSE_NO":"２號之１","E_COORD97":173005.14999999999,"N_COORD97":2564933.3500000001,"ADDRESS":"振興街２號之１","OBJECTID":334410},"geometry":{"x":173005.1500000013,"y":2564933.3500000034}},{"attributes":{"ID":334420,"DIS_CODE":0,"TOWNNAME":"麻豆區","LI":"大埕里","LIN":"18鄰","STREET":"振興街","SECT":" ","MAREA":" ","LANE":" ","ALLEY":" ","HOUSE_NO":"２號","E_COORD97":172998.41,"N_COORD97":2564934.5800000001,"ADDRESS":"振興街２號","OBJECTID":334411},"geometry":{"x":172998.41000000108,"y":2564934.5800000001}},{"attributes":{"ID":334421,"DIS_CODE":0,"TOWNNAME":"麻豆區","LI":"大埕里","LIN":"18鄰","STREET":"振興街","SECT":" ","MAREA":" ","LANE":" ","ALLEY":" ","HOUSE_NO":"６號之１","E_COORD97":172992.10000000001,"N_COORD97":2564935.27,"ADDRESS":"振興街６號之１","OBJECTID":334412},"geometry":{"x":172992.09999999963,"y":2564935.2700000014}},{"attributes":{"ID":334422,"DIS_CODE":0,"TOWNNAME":"麻豆區","LI":"大埕里","LIN":"18鄰","STREET":"振興街","SECT":" ","MAREA":" ","LANE":" ","ALLEY":" ","HOUSE_NO":"６號","E_COORD97":172989.25,"N_COORD97":2564951.52,"ADDRESS":"振興街６號","OBJECTID":334413},"geometry":{"x":172989.25000000093,"y":2564951.5199999996}},{"attributes":{"ID":334423,"DIS_CODE":0,"TOWNNAME":"永康區","LI":"西勢里","LIN":" ","STREET":"西勢路","SECT":" ","MAREA":" ","LANE":" ","ALLEY":" ","HOUSE_NO":"２３號","E_COORD97":176186.85999999999,"N_COORD97":2546788.9500000002,"ADDRESS":"西勢路２３號","OBJECTID":334414},"geometry":{"x":176186.86000000034,"y":2546788.9499999993}},{"attributes":{"ID":334424,"DIS_CODE":0,"TOWNNAME":"白河區","LI":"關嶺里","LIN":"14鄰","STREET":" ","SECT":" ","MAREA":"關子嶺","LANE":" ","ALLEY":" ","HOUSE_NO":"１之２號","E_COORD97":201774.452556,"N_COORD97":2581742.8869400001,"ADDRESS":"關子嶺１之２號","OBJECTID":334415},"geometry":{"x":201774.45255600195,"y":2581742.8869419992}},{"attributes":{"ID":334425,"DIS_CODE":0,"TOWNNAME":"新營區","LI":"太北里","LIN":"20鄰","STREET":" ","SECT":" ","MAREA":"太子宮","LANE":" ","ALLEY":" ","HOUSE_NO":"１４０之２３號","E_COORD97":175550.69,"N_COORD97":2576821.4399999999,"ADDRESS":"太子宮１４０之２３號","OBJECTID":334416},"geometry":{"x":175550.69000000041,"y":2576821.4399999995}},{"attributes":{"ID":334426,"DIS_CODE":0,"TOWNNAME":"新營區","LI":"太北里","LIN":"20鄰","STREET":" ","SECT":" ","MAREA":"太子宮","LANE":" ","ALLEY":" ","HOUSE_NO":"１４０之７２號","E_COORD97":175176.34,"N_COORD97":2576429.0699999998,"ADDRESS":"太子宮１４０之７２號","OBJECTID":334417},"geometry":{"x":175176.34000000171,"y":2576429.0699999984}},{"attributes":{"ID":334427,"DIS_CODE":0,"TOWNNAME":"安南區","LI":"頂安里","LIN":"7鄰","STREET":"頂安街","SECT":" ","MAREA":" ","LANE":"４７９巷","ALLEY":" ","HOUSE_NO":"１０號之１","E_COORD97":168762.65998900001,"N_COORD97":2549279.3497799998,"ADDRESS":"頂安街４７９巷１０號之１","OBJECTID":334418},"geometry":{"x":168762.65998900123,"y":2549279.3497819975}},{"attributes":{"ID":334428,"DIS_CODE":0,"TOWNNAME":"仁德區","LI":"仁愛里","LIN":"26鄰","STREET":"大同路","SECT":"三段","MAREA":" ","LANE":" ","ALLEY":" ","HOUSE_NO":"４０８號","E_COORD97":169767.87346,"N_COORD97":2539375.4300000002,"ADDRESS":"大同路三段４０８號","OBJECTID":334419},"geometry":{"x":169767.87346000038,"y":2539375.4299999997}},{"attributes":{"ID":334429,"DIS_CODE":0,"TOWNNAME":"仁德區","LI":"仁愛里","LIN":"26鄰","STREET":"大同路","SECT":"三段","MAREA":" ","LANE":" ","ALLEY":" ","HOUSE_NO":"４２０號","E_COORD97":169774.17000000001,"N_COORD97":2539352.1505200001,"ADDRESS":"大同路三段４２０號","OBJECTID":334420},"geometry":{"x":169774.17000000086,"y":2539352.1505200006}},{"attributes":{"ID":334430,"DIS_CODE":0,"TOWNNAME":"仁德區","LI":"仁愛里","LIN":"26鄰","STREET":"大同路","SECT":"三段","MAREA":" ","LANE":" ","ALLEY":" ","HOUSE_NO":"４３２號","E_COORD97":169776.57000000001,"N_COORD97":2539329.90386,"ADDRESS":"大同路三段４３２號","OBJECTID":334421},"geometry":{"x":169776.57000000123,"y":2539329.903859999}},{"attributes":{"ID":334431,"DIS_CODE":0,"TOWNNAME":"仁德區","LI":"仁愛里","LIN":"28鄰","STREET":"大同路","SECT":"三段","MAREA":" ","LANE":" ","ALLEY":" ","HOUSE_NO":"４３０號","E_COORD97":169776.07000000001,"N_COORD97":2539333.6571900002,"ADDRESS":"大同路三段４３０號","OBJECTID":334422},"geometry":{"x":169776.07000000216,"y":2539333.6571900006}},{"attributes":{"ID":334432,"DIS_CODE":0,"TOWNNAME":"仁德區","LI":"仁愛里","LIN":"26鄰","STREET":"大同路","SECT":"三段","MAREA":" ","LANE":" ","ALLEY":" ","HOUSE_NO":"４４６號","E_COORD97":169779.01999999999,"N_COORD97":2539310.4522000002,"ADDRESS":"大同路三段４４６號","OBJECTID":334423},"geometry":{"x":169779.02000000142,"y":2539310.4522000011}},{"attributes":{"ID":334433,"DIS_CODE":0,"TOWNNAME":"仁德區","LI":"仁愛里","LIN":"26鄰","STREET":"大同路","SECT":"三段","MAREA":" ","LANE":" ","ALLEY":" ","HOUSE_NO":"４４８號","E_COORD97":169779.51999999999,"N_COORD97":2539304.94888,"ADDRESS":"大同路三段４４８號","OBJECTID":334424},"geometry":{"x":169779.52000000048,"y":2539304.9488780014}},{"attributes":{"ID":334434,"DIS_CODE":0,"TOWNNAME":"安南區","LI":"頂安里","LIN":"18鄰","STREET":"長溪路","SECT":"一段","MAREA":" ","LANE":" ","ALLEY":" ","HOUSE_NO":"５１０號","E_COORD97":168457.86931099999,"N_COORD97":2549124.5156999999,"ADDRESS":"長溪路一段５１０號","OBJECTID":334425},"geometry":{"x":168457.86931100022,"y":2549124.5156989992}},{"attributes":{"ID":334435,"DIS_CODE":0,"TOWNNAME":"仁德區","LI":"仁愛里","LIN":"26鄰","STREET":"大同路","SECT":"三段","MAREA":" ","LANE":" ","ALLEY":" ","HOUSE_NO":"４１６號","E_COORD97":169773.17000000001,"N_COORD97":2539362.73385,"ADDRESS":"大同路三段４１６號","OBJECTID":334426},"geometry":{"x":169773.16999999993,"y":2539362.7338470016}},{"attributes":{"ID":334436,"DIS_CODE":0,"TOWNNAME":"仁德區","LI":"仁愛里","LIN":"26鄰","STREET":"大同路","SECT":"三段","MAREA":" ","LANE":" ","ALLEY":" ","HOUSE_NO":"４１８號","E_COORD97":169773.67000000001,"N_COORD97":2539357.2305200002,"ADDRESS":"大同路三段４１８號","OBJECTID":334427},"geometry":{"x":169773.67000000086,"y":2539357.230517}},{"attributes":{"ID":334437,"DIS_CODE":0,"TOWNNAME":"安南區","LI":"總頭里","LIN":"1鄰","STREET":"北安路","SECT":"三段","MAREA":" ","LANE":" ","ALLEY":" ","HOUSE_NO":"２９９之８號","E_COORD97":168756.91377099999,"N_COORD97":2549686.2198899998,"ADDRESS":"北安路三段２９９之８號","OBJECTID":334428},"geometry":{"x":168756.91377099976,"y":2549686.2198870014}},{"attributes":{"ID":334438,"DIS_CODE":0,"TOWNNAME":"關廟區","LI":"北花里","LIN":"20鄰","STREET":"中正路","SECT":" ","MAREA":" ","LANE":"１２７巷","ALLEY":" ","HOUSE_NO":"３５號","E_COORD97":183573.45999999999,"N_COORD97":2540805.6200000001,"ADDRESS":"中正路１２７巷３５號","OBJECTID":334429},"geometry":{"x":183573.45999999996,"y":2540805.620000001}},{"attributes":{"ID":334439,"DIS_CODE":0,"TOWNNAME":"永康區","LI":"五王里","LIN":" ","STREET":"中華路","SECT":" ","MAREA":" ","LANE":" ","ALLEY":" ","HOUSE_NO":"４００號","E_COORD97":171407.88,"N_COORD97":2545575.4900000002,"ADDRESS":"中華路４００號","OBJECTID":334430},"geometry":{"x":171407.88000000082,"y":2545575.4900000021}},{"attributes":{"ID":334440,"DIS_CODE":0,"TOWNNAME":"永康區","LI":"崑山里","LIN":" ","STREET":"永大路","SECT":"一段","MAREA":" ","LANE":" ","ALLEY":" ","HOUSE_NO":"２５７之３號","E_COORD97":173936.62,"N_COORD97":2544293.6000000001,"ADDRESS":"永大路一段２５７之３號","OBJECTID":334431},"geometry":{"x":173936.62000000011,"y":2544293.5999999996}},{"attributes":{"ID":334441,"DIS_CODE":0,"TOWNNAME":"新營區","LI":"太北里","LIN":"20鄰","STREET":" ","SECT":" ","MAREA":"太子宮","LANE":" ","ALLEY":" ","HOUSE_NO":"１４０之１８號","E_COORD97":175593.31,"N_COORD97":2576752.5600000001,"ADDRESS":"太子宮１４０之１８號","OBJECTID":334432},"geometry":{"x":175593.31000000145,"y":2576752.5600000024}},{"attributes":{"ID":334442,"DIS_CODE":0,"TOWNNAME":"新營區","LI":"太北里","LIN":"20鄰","STREET":" ","SECT":" ","MAREA":"太子宮","LANE":" ","ALLEY":" ","HOUSE_NO":"１４０之７１號","E_COORD97":175172.26999999999,"N_COORD97":2576433.52,"ADDRESS":"太子宮１４０之７１號","OBJECTID":334433},"geometry":{"x":175172.27000000048,"y":2576433.5200000014}},{"attributes":{"ID":334443,"DIS_CODE":0,"TOWNNAME":"關廟區","LI":"北花里","LIN":"20鄰","STREET":"中正路","SECT":" ","MAREA":" ","LANE":"１１３巷","ALLEY":" ","HOUSE_NO":"４１號","E_COORD97":183607.26000000001,"N_COORD97":2540808.6200000001,"ADDRESS":"中正路１１３巷４１號","OBJECTID":334434},"geometry":{"x":183607.26000000071,"y":2540808.6200000029}},{"attributes":{"ID":334444,"DIS_CODE":0,"TOWNNAME":"佳里區","LI":"安西里","LIN":"56鄰","STREET":"佳安北街","SECT":" ","MAREA":" ","LANE":"６６巷","ALLEY":" ","HOUSE_NO":"４１號","E_COORD97":163864.07000000001,"N_COORD97":2562309.9900000002,"ADDRESS":"佳安北街６６巷４１號","OBJECTID":334435},"geometry":{"x":163864.07000000123,"y":2562309.9900000021}},{"attributes":{"ID":334445,"DIS_CODE":0,"TOWNNAME":"佳里區","LI":"安西里","LIN":"56鄰","STREET":"佳安北街","SECT":" ","MAREA":" ","LANE":"６６巷","ALLEY":" ","HOUSE_NO":"４２號","E_COORD97":163886.04000000001,"N_COORD97":2562325.5099999998,"ADDRESS":"佳安北街６６巷４２號","OBJECTID":334436},"geometry":{"x":163886.04000000097,"y":2562325.5100000016}},{"attributes":{"ID":334446,"DIS_CODE":0,"TOWNNAME":"佳里區","LI":"安西里","LIN":"56鄰","STREET":"佳安北街","SECT":" ","MAREA":" ","LANE":"６６巷","ALLEY":" ","HOUSE_NO":"４３號","E_COORD97":163859.29999999999,"N_COORD97":2562310.04,"ADDRESS":"佳安北街６６巷４３號","OBJECTID":334437},"geometry":{"x":163859.29999999981,"y":2562310.0399999991}},{"attributes":{"ID":334447,"DIS_CODE":0,"TOWNNAME":"佳里區","LI":"安西里","LIN":"56鄰","STREET":"佳安北街","SECT":" ","MAREA":" ","LANE":"６６巷","ALLEY":" ","HOUSE_NO":"４６號","E_COORD97":163881.06,"N_COORD97":2562325.77,"ADDRESS":"佳安北街６６巷４６號","OBJECTID":334438},"geometry":{"x":163881.05999999959,"y":2562325.7699999996}},{"attributes":{"ID":334448,"DIS_CODE":0,"TOWNNAME":"佳里區","LI":"安西里","LIN":"56鄰","STREET":"佳安北街","SECT":" ","MAREA":" ","LANE":"６６巷","ALLEY":" ","HOUSE_NO":"４８號","E_COORD97":163876.64000000001,"N_COORD97":2562325.77,"ADDRESS":"佳安北街６６巷４８號","OBJECTID":334439},"geometry":{"x":163876.63999999966,"y":2562325.7699999996}},{"attributes":{"ID":334449,"DIS_CODE":0,"TOWNNAME":"佳里區","LI":"安西里","LIN":"56鄰","STREET":"佳安北街","SECT":" ","MAREA":" ","LANE":"６６巷","ALLEY":" ","HOUSE_NO":"５０號","E_COORD97":163872.42000000001,"N_COORD97":2562325.6299999999,"ADDRESS":"佳安北街６６巷５０號","OBJECTID":334440},"geometry":{"x":163872.42000000179,"y":2562325.629999999}},{"attributes":{"ID":334450,"DIS_CODE":0,"TOWNNAME":"佳里區","LI":"安西里","LIN":"56鄰","STREET":"佳安北街","SECT":" ","MAREA":" ","LANE":"６６巷","ALLEY":" ","HOUSE_NO":"５２號","E_COORD97":163868.07000000001,"N_COORD97":2562325.4900000002,"ADDRESS":"佳安北街６６巷５２號","OBJECTID":334441},"geometry":{"x":163868.0700000003,"y":2562325.4900000002}},{"attributes":{"ID":334451,"DIS_CODE":0,"TOWNNAME":"佳里區","LI":"安西里","LIN":"56鄰","STREET":"佳安北街","SECT":" ","MAREA":" ","LANE":"６６巷","ALLEY":" ","HOUSE_NO":"５６號","E_COORD97":163863.47,"N_COORD97":2562325.7200000002,"ADDRESS":"佳安北街６６巷５６號","OBJECTID":334442},"geometry":{"x":163863.4700000016,"y":2562325.7200000025}},{"attributes":{"ID":334452,"DIS_CODE":0,"TOWNNAME":"佳里區","LI":"安西里","LIN":"56鄰","STREET":"佳安北街","SECT":" ","MAREA":" ","LANE":"６６巷","ALLEY":" ","HOUSE_NO":"５８號","E_COORD97":163859.14999999999,"N_COORD97":2562325.8900000001,"ADDRESS":"佳安北街６６巷５８號","OBJECTID":334443},"geometry":{"x":163859.15000000037,"y":2562325.8900000006}},{"attributes":{"ID":334453,"DIS_CODE":0,"TOWNNAME":"新市區","LI":"豐華里","LIN":"5鄰","STREET":" ","SECT":" ","MAREA":"豐華","LANE":" ","ALLEY":" ","HOUSE_NO":"３８之８０號","E_COORD97":173107.95864900001,"N_COORD97":2555129.19147,"ADDRESS":"豐華３８之８０號","OBJECTID":334444},"geometry":{"x":173107.95864899922,"y":2555129.1914670002}},{"attributes":{"ID":334454,"DIS_CODE":0,"TOWNNAME":"安南區","LI":"淵中里","LIN":"4鄰","STREET":"安中路","SECT":"三段","MAREA":" ","LANE":"４３９巷","ALLEY":" ","HOUSE_NO":"６號","E_COORD97":165284.456022,"N_COORD97":2550071.9193899999,"ADDRESS":"安中路三段４３９巷６號","OBJECTID":334445},"geometry":{"x":165284.45602200087,"y":2550071.9193879999}},{"attributes":{"ID":334455,"DIS_CODE":0,"TOWNNAME":"中西區","LI":"藥王里","LIN":"3鄰","STREET":"大福街","SECT":" ","MAREA":" ","LANE":"３９巷","ALLEY":" ","HOUSE_NO":"９號","E_COORD97":167292.05804100001,"N_COORD97":2544417.4567800001,"ADDRESS":"大福街３９巷９號","OBJECTID":334446},"geometry":{"x":167292.05804100167,"y":2544417.4567830022}},{"attributes":{"ID":334456,"DIS_CODE":0,"TOWNNAME":"中西區","LI":"藥王里","LIN":"3鄰","STREET":"大福街","SECT":" ","MAREA":" ","LANE":"３９巷","ALLEY":" ","HOUSE_NO":"１１號","E_COORD97":167288.03242100001,"N_COORD97":2544420.4201099998,"ADDRESS":"大福街３９巷１１號","OBJECTID":334447},"geometry":{"x":167288.0324210003,"y":2544420.4201140013}},{"attributes":{"ID":334457,"DIS_CODE":0,"TOWNNAME":"安南區","LI":"淵中里","LIN":"5鄰","STREET":"安中路","SECT":"四段","MAREA":" ","LANE":"４巷","ALLEY":" ","HOUSE_NO":"６７號","E_COORD97":165142.91201500001,"N_COORD97":2550189.7118199999,"ADDRESS":"安中路四段４巷６７號","OBJECTID":334448},"geometry":{"x":165142.91201500036,"y":2550189.7118239999}},{"attributes":{"ID":334458,"DIS_CODE":0,"TOWNNAME":"安南區","LI":"淵中里","LIN":"15鄰","STREET":"安中路","SECT":"四段","MAREA":" ","LANE":"１５４巷","ALLEY":" ","HOUSE_NO":"９５號","E_COORD97":165088.77355099999,"N_COORD97":2550188.1772400001,"ADDRESS":"安中路四段１５４巷９５號","OBJECTID":334449},"geometry":{"x":165088.77355100028,"y":2550188.1772420015}},{"attributes":{"ID":334459,"DIS_CODE":0,"TOWNNAME":"安南區","LI":"淵中里","LIN":"6鄰","STREET":"安中路","SECT":"四段","MAREA":" ","LANE":"１９７巷","ALLEY":" ","HOUSE_NO":"２３號","E_COORD97":164772.94818800001,"N_COORD97":2550009.1602599998,"ADDRESS":"安中路四段１９７巷２３號","OBJECTID":334450},"geometry":{"x":164772.94818800036,"y":2550009.1602550019}},{"attributes":{"ID":334460,"DIS_CODE":0,"TOWNNAME":"安南區","LI":"淵中里","LIN":"5鄰","STREET":"安中路","SECT":"四段","MAREA":" ","LANE":"９４巷","ALLEY":" ","HOUSE_NO":"１８號","E_COORD97":165125.27198699999,"N_COORD97":2550089.1834399998,"ADDRESS":"安中路四段９４巷１８號","OBJECTID":334451},"geometry":{"x":165125.27198699955,"y":2550089.1834410019}},{"attributes":{"ID":334461,"DIS_CODE":0,"TOWNNAME":"永康區","LI":"\u25A0洲里","LIN":"4鄰","STREET":"\u25A0洲二街","SECT":" ","MAREA":" ","LANE":" ","ALLEY":" ","HOUSE_NO":"１０３號","E_COORD97":171597.89999999999,"N_COORD97":2549290.2400000002,"ADDRESS":"\u25A0洲二街１０３號","OBJECTID":334452},"geometry":{"x":171597.89999999944,"y":2549290.2400000002}},{"attributes":{"ID":334462,"DIS_CODE":0,"TOWNNAME":"永康區","LI":"\u25A0洲里","LIN":"4鄰","STREET":"\u25A0洲二街","SECT":" ","MAREA":" ","LANE":" ","ALLEY":" ","HOUSE_NO":"８７號","E_COORD97":171573.76000000001,"N_COORD97":2549266.7400000002,"ADDRESS":"\u25A0洲二街８７號","OBJECTID":334453},"geometry":{"x":171573.75999999978,"y":2549266.7400000002}},{"attributes":{"ID":334463,"DIS_CODE":0,"TOWNNAME":"新營區","LI":"新東里","LIN":"14鄰","STREET":"東學路","SECT":" ","MAREA":" ","LANE":" ","ALLEY":" ","HOUSE_NO":"１３８號","E_COORD97":181118.01213399999,"N_COORD97":2579362.5858900002,"ADDRESS":"東學路１３８號","OBJECTID":334454},"geometry":{"x":181118.01213400066,"y":2579362.5858929995}},{"attributes":{"ID":334464,"DIS_CODE":0,"TOWNNAME":"仁德區","LI":"上崙里","LIN":"23鄰","STREET":"德崙路","SECT":" ","MAREA":" ","LANE":" ","ALLEY":" ","HOUSE_NO":"１２６號","E_COORD97":173507.95999999999,"N_COORD97":2538394.2599999998,"ADDRESS":"德崙路１２６號","OBJECTID":334455},"geometry":{"x":173507.96000000089,"y":2538394.2600000035}},{"attributes":{"ID":334465,"DIS_CODE":0,"TOWNNAME":"中西區","LI":"藥王里","LIN":"7鄰","STREET":"大新街","SECT":" ","MAREA":" ","LANE":" ","ALLEY":" ","HOUSE_NO":"２號","E_COORD97":167177.787167,"N_COORD97":2544372.3014699998,"ADDRESS":"大新街２號","OBJECTID":334456},"geometry":{"x":167177.78716699965,"y":2544372.301473001}},{"attributes":{"ID":334466,"DIS_CODE":0,"TOWNNAME":"中西區","LI":"藥王里","LIN":"9鄰","STREET":"民權路","SECT":"三段","MAREA":" ","LANE":" ","ALLEY":" ","HOUSE_NO":"３１８號","E_COORD97":167076.72292900001,"N_COORD97":2544312.2940099998,"ADDRESS":"民權路三段３１８號","OBJECTID":334457},"geometry":{"x":167076.72292899992,"y":2544312.294005001}},{"attributes":{"ID":334467,"DIS_CODE":0,"TOWNNAME":"仁德區","LI":"新田里","LIN":"3鄰","STREET":"新田二街","SECT":" ","MAREA":" ","LANE":" ","ALLEY":" ","HOUSE_NO":"３０號","E_COORD97":174641.529435,"N_COORD97":2539767.0695199999,"ADDRESS":"新田二街３０號","OBJECTID":334458},"geometry":{"x":174641.52943500038,"y":2539767.0695180018}},{"attributes":{"ID":334468,"DIS_CODE":0,"TOWNNAME":"安南區","LI":"淵中里","LIN":"5鄰","STREET":"安中路","SECT":"四段","MAREA":" ","LANE":" ","ALLEY":" ","HOUSE_NO":"１４號","E_COORD97":165272.06032700001,"N_COORD97":2550119.7031100001,"ADDRESS":"安中路四段１４號","OBJECTID":334459},"geometry":{"x":165272.06032700092,"y":2550119.7031120006}},{"attributes":{"ID":334469,"DIS_CODE":0,"TOWNNAME":"永康區","LI":"復華里","LIN":" ","STREET":"復國二路","SECT":" ","MAREA":" ","LANE":" ","ALLEY":" ","HOUSE_NO":"１５３號","E_COORD97":172905.82999999999,"N_COORD97":2545688.8100000001,"ADDRESS":"復國二路１５３號","OBJECTID":334460},"geometry":{"x":172905.83000000101,"y":2545688.8100000024}},{"attributes":{"ID":334470,"DIS_CODE":0,"TOWNNAME":"中西區","LI":"保安里","LIN":"1鄰","STREET":"友愛街","SECT":" ","MAREA":" ","LANE":"２０１巷","ALLEY":" ","HOUSE_NO":"５號","E_COORD97":167713.42999999999,"N_COORD97":2543589.77,"ADDRESS":"友愛街２０１巷５號","OBJECTID":334461},"geometry":{"x":167713.43000000156,"y":2543589.7699999996}},{"attributes":{"ID":334471,"DIS_CODE":0,"TOWNNAME":"安南區","LI":"淵中里","LIN":"13鄰","STREET":"安中路","SECT":"四段","MAREA":" ","LANE":"１６４巷","ALLEY":" ","HOUSE_NO":"１１號","E_COORD97":164935.20465999999,"N_COORD97":2550117.6525900001,"ADDRESS":"安中路四段１６４巷１１號","OBJECTID":334462},"geometry":{"x":164935.20466000028,"y":2550117.6525929999}},{"attributes":{"ID":334472,"DIS_CODE":0,"TOWNNAME":"南區","LI":"永寧里","LIN":"20鄰","STREET":"灣裡路","SECT":" ","MAREA":" ","LANE":"２６３巷","ALLEY":" ","HOUSE_NO":"１０號","E_COORD97":166173.51000000001,"N_COORD97":2536403.3999999999,"ADDRESS":"灣裡路２６３巷１０號","OBJECTID":334463},"geometry":{"x":166173.50999999978,"y":2536403.4000000004}},{"attributes":{"ID":334473,"DIS_CODE":0,"TOWNNAME":"佳里區","LI":"安西里","LIN":"56鄰","STREET":"佳安北街","SECT":" ","MAREA":" ","LANE":"６６巷","ALLEY":" ","HOUSE_NO":"５號","E_COORD97":163950.98999999999,"N_COORD97":2562307.8500000001,"ADDRESS":"佳安北街６６巷５號","OBJECTID":334464},"geometry":{"x":163950.99000000115,"y":2562307.8499999996}},{"attributes":{"ID":334474,"DIS_CODE":0,"TOWNNAME":"佳里區","LI":"安西里","LIN":"56鄰","STREET":"佳安北街","SECT":" ","MAREA":" ","LANE":"６６巷","ALLEY":" ","HOUSE_NO":"６號","E_COORD97":163955.72,"N_COORD97":2562323.8900000001,"ADDRESS":"佳安北街６６巷６號","OBJECTID":334465},"geometry":{"x":163955.72000000067,"y":2562323.8900000025}},{"attributes":{"ID":334475,"DIS_CODE":0,"TOWNNAME":"佳里區","LI":"安西里","LIN":"56鄰","STREET":"佳安北街","SECT":" ","MAREA":" ","LANE":"６６巷","ALLEY":" ","HOUSE_NO":"７號","E_COORD97":163947.79000000001,"N_COORD97":2562308.0899999999,"ADDRESS":"佳安北街６６巷７號","OBJECTID":334466},"geometry":{"x":163947.79000000004,"y":2562308.0900000017}},{"attributes":{"ID":334476,"DIS_CODE":0,"TOWNNAME":"佳里區","LI":"安西里","LIN":"56鄰","STREET":"佳安北街","SECT":" ","MAREA":" ","LANE":"６６巷","ALLEY":" ","HOUSE_NO":"８號","E_COORD97":163951.34,"N_COORD97":2562323.9100000001,"ADDRESS":"佳安北街６６巷８號","OBJECTID":334467},"geometry":{"x":163951.34000000078,"y":2562323.910000002}},{"attributes":{"ID":334477,"DIS_CODE":0,"TOWNNAME":"安南區","LI":"淵中里","LIN":"5鄰","STREET":"安中路","SECT":"四段","MAREA":" ","LANE":" ","ALLEY":" ","HOUSE_NO":"１６號","E_COORD97":165270.68302699999,"N_COORD97":2550118.53895,"ADDRESS":"安中路四段１６號","OBJECTID":334468},"geometry":{"x":165270.68302700017,"y":2550118.5389460009}},{"attributes":{"ID":334478,"DIS_CODE":0,"TOWNNAME":"安南區","LI":"淵中里","LIN":"17鄰","STREET":"海中街","SECT":" ","MAREA":" ","LANE":" ","ALLEY":" ","HOUSE_NO":"７８５號","E_COORD97":165821.81470799999,"N_COORD97":2549854.74951,"ADDRESS":"海中街７８５號","OBJECTID":334469},"geometry":{"x":165821.81470800098,"y":2549854.7495050021}},{"attributes":{"ID":334479,"DIS_CODE":0,"TOWNNAME":"佳里區","LI":"安西里","LIN":"56鄰","STREET":"佳安北街","SECT":" ","MAREA":" ","LANE":"６６巷","ALLEY":" ","HOUSE_NO":"９號","E_COORD97":163942.48999999999,"N_COORD97":2562308.4300000002,"ADDRESS":"佳安北街６６巷９號","OBJECTID":334470},"geometry":{"x":163942.49000000115,"y":2562308.4299999997}},{"attributes":{"ID":334480,"DIS_CODE":0,"TOWNNAME":"歸仁區","LI":"南保里","LIN":"1鄰","STREET":"民權北路","SECT":" ","MAREA":" ","LANE":"２６７巷","ALLEY":" ","HOUSE_NO":"１１號","E_COORD97":176968.70999999999,"N_COORD97":2541496.25,"ADDRESS":"民權北路２６７巷１１號","OBJECTID":334471},"geometry":{"x":176968.70999999996,"y":2541496.25}},{"attributes":{"ID":334481,"DIS_CODE":0,"TOWNNAME":"北區","LI":"和順里","LIN":"36鄰","STREET":"公園南路","SECT":" ","MAREA":" ","LANE":"３７０巷","ALLEY":" ","HOUSE_NO":"１０號","E_COORD97":168203.44,"N_COORD97":2544901.3199999998,"ADDRESS":"公園南路３７０巷１０號","OBJECTID":334472},"geometry":{"x":168203.44000000041,"y":2544901.3200000022}},{"attributes":{"ID":334482,"DIS_CODE":0,"TOWNNAME":"北區","LI":"和順里","LIN":"36鄰","STREET":"公園南路","SECT":" ","MAREA":" ","LANE":"３７０巷","ALLEY":" ","HOUSE_NO":"１２號","E_COORD97":168204.98000000001,"N_COORD97":2544906.1200000001,"ADDRESS":"公園南路３７０巷１２號","OBJECTID":334473},"geometry":{"x":168204.98000000045,"y":2544906.1200000048}},{"attributes":{"ID":334483,"DIS_CODE":0,"TOWNNAME":"南區","LI":"永寧里","LIN":"20鄰","STREET":"灣裡路","SECT":" ","MAREA":" ","LANE":"２６３巷","ALLEY":" ","HOUSE_NO":"４號","E_COORD97":166150.45999999999,"N_COORD97":2536397.04,"ADDRESS":"灣裡路２６３巷４號","OBJECTID":334474},"geometry":{"x":166150.46000000183,"y":2536397.0399999991}},{"attributes":{"ID":334484,"DIS_CODE":0,"TOWNNAME":"南區","LI":"永寧里","LIN":"20鄰","STREET":"灣裡路","SECT":" ","MAREA":" ","LANE":"２６３巷","ALLEY":" ","HOUSE_NO":"４號之１","E_COORD97":166159.26000000001,"N_COORD97":2536398.1299999999,"ADDRESS":"灣裡路２６３巷４號之１","OBJECTID":334475},"geometry":{"x":166159.26000000071,"y":2536398.1300000008}},{"attributes":{"ID":334485,"DIS_CODE":0,"TOWNNAME":"將軍區","LI":"廣山里","LIN":"18鄰","STREET":" ","SECT":" ","MAREA":"廣山","LANE":" ","ALLEY":" ","HOUSE_NO":"１７６之１號","E_COORD97":159732.170583,"N_COORD97":2568897.3113600002,"ADDRESS":"廣山１７６之１號","OBJECTID":334476},"geometry":{"x":159732.17058300041,"y":2568897.3113609981}},{"attributes":{"ID":334486,"DIS_CODE":0,"TOWNNAME":"南區","LI":"永寧里","LIN":"20鄰","STREET":"灣裡路","SECT":" ","MAREA":" ","LANE":"２６３巷","ALLEY":" ","HOUSE_NO":"６號","E_COORD97":166167.22,"N_COORD97":2536402.1499999999,"ADDRESS":"灣裡路２６３巷６號","OBJECTID":334477},"geometry":{"x":166167.2200000016,"y":2536402.1500000041}},{"attributes":{"ID":334487,"DIS_CODE":0,"TOWNNAME":"南區","LI":"永寧里","LIN":"20鄰","STREET":"灣裡路","SECT":" ","MAREA":" ","LANE":"２６３巷","ALLEY":" ","HOUSE_NO":"８號","E_COORD97":166170.23999999999,"N_COORD97":2536402.73,"ADDRESS":"灣裡路２６３巷８號","OBJECTID":334478},"geometry":{"x":166170.24000000022,"y":2536402.7300000023}},{"attributes":{"ID":334488,"DIS_CODE":0,"TOWNNAME":"南區","LI":"永寧里","LIN":"20鄰","STREET":"灣裡路","SECT":" ","MAREA":" ","LANE":"３０１巷","ALLEY":" ","HOUSE_NO":"１１號","E_COORD97":166205.19,"N_COORD97":2536323.9300000002,"ADDRESS":"灣裡路３０１巷１１號","OBJECTID":334479},"geometry":{"x":166205.19000000041,"y":2536323.9299999997}},{"attributes":{"ID":334489,"DIS_CODE":0,"TOWNNAME":"南區","LI":"永寧里","LIN":"20鄰","STREET":"灣裡路","SECT":" ","MAREA":" ","LANE":"３０１巷","ALLEY":" ","HOUSE_NO":"１３號","E_COORD97":166200.89000000001,"N_COORD97":2536332.2400000002,"ADDRESS":"灣裡路３０１巷１３號","OBJECTID":334480},"geometry":{"x":166200.88999999966,"y":2536332.2400000002}},{"attributes":{"ID":334490,"DIS_CODE":0,"TOWNNAME":"南區","LI":"永寧里","LIN":"20鄰","STREET":"灣裡路","SECT":" ","MAREA":" ","LANE":"３０１巷","ALLEY":" ","HOUSE_NO":"１３號之１","E_COORD97":166197.37,"N_COORD97":2536337.3700000001,"ADDRESS":"灣裡路３０１巷１３號之１","OBJECTID":334481},"geometry":{"x":166197.37000000104,"y":2536337.3700000029}},{"attributes":{"ID":334491,"DIS_CODE":0,"TOWNNAME":"南區","LI":"永寧里","LIN":"20鄰","STREET":"灣裡路","SECT":" ","MAREA":" ","LANE":"３０１巷","ALLEY":" ","HOUSE_NO":"１５號","E_COORD97":166197.95999999999,"N_COORD97":2536340.4399999999,"ADDRESS":"灣裡路３０１巷１５號","OBJECTID":334482},"geometry":{"x":166197.96000000183,"y":2536340.4399999995}},{"attributes":{"ID":334492,"DIS_CODE":0,"TOWNNAME":"南區","LI":"永寧里","LIN":"20鄰","STREET":"灣裡路","SECT":" ","MAREA":" ","LANE":"３０１巷","ALLEY":" ","HOUSE_NO":"１７號","E_COORD97":166193.56,"N_COORD97":2536346,"ADDRESS":"灣裡路３０１巷１７號","OBJECTID":334483},"geometry":{"x":166193.56000000145,"y":2536346.0000000019}},{"attributes":{"ID":334493,"DIS_CODE":0,"TOWNNAME":"北區","LI":"和順里","LIN":"36鄰","STREET":"公園南路","SECT":" ","MAREA":" ","LANE":"３７０巷","ALLEY":" ","HOUSE_NO":"１３號","E_COORD97":168188.47,"N_COORD97":2544913.25,"ADDRESS":"公園南路３７０巷１３號","OBJECTID":334484},"geometry":{"x":168188.47000000067,"y":2544913.25}},{"attributes":{"ID":334494,"DIS_CODE":0,"TOWNNAME":"善化區","LI":"坐駕里","LIN":"17鄰","STREET":"興華路","SECT":" ","MAREA":" ","LANE":" ","ALLEY":" ","HOUSE_NO":"２４９號","E_COORD97":177931.42999999999,"N_COORD97":2558518.25,"ADDRESS":"興華路２４９號","OBJECTID":334485},"geometry":{"x":177931.4299999997,"y":2558518.25}},{"attributes":{"ID":334495,"DIS_CODE":0,"TOWNNAME":"善化區","LI":"坐駕里","LIN":"17鄰","STREET":"興華路","SECT":" ","MAREA":" ","LANE":" ","ALLEY":" ","HOUSE_NO":"２５６號","E_COORD97":177994.35000000001,"N_COORD97":2558556.25,"ADDRESS":"興華路２５６號","OBJECTID":334486},"geometry":{"x":177994.34999999963,"y":2558556.25}},{"attributes":{"ID":334496,"DIS_CODE":0,"TOWNNAME":"善化區","LI":"坐駕里","LIN":"17鄰","STREET":"興華路","SECT":" ","MAREA":" ","LANE":" ","ALLEY":" ","HOUSE_NO":"２６５號","E_COORD97":177891.39999999999,"N_COORD97":2558512,"ADDRESS":"興華路２６５號","OBJECTID":334487},"geometry":{"x":177891.40000000037,"y":2558512.0000000019}},{"attributes":{"ID":334497,"DIS_CODE":0,"TOWNNAME":"善化區","LI":"光文里","LIN":"17鄰","STREET":"和平路","SECT":" ","MAREA":" ","LANE":" ","ALLEY":" ","HOUSE_NO":"１３８號","E_COORD97":178127.28,"N_COORD97":2558952.5,"ADDRESS":"和平路１３８號","OBJECTID":334488},"geometry":{"x":178127.28000000119,"y":2558952.5000000019}},{"attributes":{"ID":334498,"DIS_CODE":0,"TOWNNAME":"善化區","LI":"坐駕里","LIN":"17鄰","STREET":"興華路","SECT":" ","MAREA":" ","LANE":" ","ALLEY":" ","HOUSE_NO":"２６２號","E_COORD97":177916.48000000001,"N_COORD97":2558543,"ADDRESS":"興華路２６２號","OBJECTID":334489},"geometry":{"x":177916.48000000045,"y":2558543.0000000019}},{"attributes":{"ID":334499,"DIS_CODE":0,"TOWNNAME":"善化區","LI":"坐駕里","LIN":"17鄰","STREET":"興華路","SECT":" ","MAREA":" ","LANE":" ","ALLEY":" ","HOUSE_NO":"２５１號","E_COORD97":177926.64999999999,"N_COORD97":2558517.5,"ADDRESS":"興華路２５１號","OBJECTID":334490},"geometry":{"x":177926.6500000013,"y":2558517.5}},{"attributes":{"ID":334500,"DIS_CODE":0,"TOWNNAME":"善化區","LI":"坐駕里","LIN":"17鄰","STREET":"興華路","SECT":" ","MAREA":" ","LANE":" ","ALLEY":" ","HOUSE_NO":"３０１號","E_COORD97":177788.04999999999,"N_COORD97":2558498.25,"ADDRESS":"興華路３０１號","OBJECTID":334491},"geometry":{"x":177788.04999999981,"y":2558498.25}},{"attributes":{"ID":334501,"DIS_CODE":0,"TOWNNAME":"善化區","LI":"坐駕里","LIN":"17鄰","STREET":"興華路","SECT":" ","MAREA":" ","LANE":" ","ALLEY":" ","HOUSE_NO":"２７４號","E_COORD97":177852.63,"N_COORD97":2558530,"ADDRESS":"興華路２７４號","OBJECTID":334492},"geometry":{"x":177852.62999999989,"y":2558530}},{"attributes":{"ID":334502,"DIS_CODE":0,"TOWNNAME":"善化區","LI":"東關里","LIN":"17鄰","STREET":"新興街","SECT":" ","MAREA":" ","LANE":" ","ALLEY":" ","HOUSE_NO":"３０號","E_COORD97":177547.85000000001,"N_COORD97":2558959,"ADDRESS":"新興街３０號","OBJECTID":334493},"geometry":{"x":177547.85000000056,"y":2558959.0000000037}},{"attributes":{"ID":334503,"DIS_CODE":0,"TOWNNAME":"善化區","LI":"坐駕里","LIN":"17鄰","STREET":"興華路","SECT":" ","MAREA":" ","LANE":" ","ALLEY":" ","HOUSE_NO":"２７６號之１","E_COORD97":177844.06,"N_COORD97":2558531.27,"ADDRESS":"興華路２７６號之１","OBJECTID":334494},"geometry":{"x":177844.05999999959,"y":2558531.2699999996}},{"attributes":{"ID":334504,"DIS_CODE":0,"TOWNNAME":"安南區","LI":"淵中里","LIN":"5鄰","STREET":"安中路","SECT":"四段","MAREA":" ","LANE":"９８巷","ALLEY":" ","HOUSE_NO":"３６號","E_COORD97":165099.05032400001,"N_COORD97":2550042.91121,"ADDRESS":"安中路四段９８巷３６號","OBJECTID":334495},"geometry":{"x":165099.05032400228,"y":2550042.9112120029}},{"attributes":{"ID":334505,"DIS_CODE":0,"TOWNNAME":"仁德區","LI":"一甲里","LIN":"5鄰","STREET":"中正路","SECT":"三段","MAREA":" ","LANE":"１６２巷","ALLEY":" ","HOUSE_NO":"９２號","E_COORD97":173691.213838,"N_COORD97":2541703.9043000001,"ADDRESS":"中正路三段１６２巷９２號","OBJECTID":334496},"geometry":{"x":173691.21383799985,"y":2541703.9043040015}},{"attributes":{"ID":334506,"DIS_CODE":0,"TOWNNAME":"安南區","LI":"東和里","LIN":"7鄰","STREET":"長和路","SECT":"一段","MAREA":" ","LANE":"１巷","ALLEY":" ","HOUSE_NO":"２５號","E_COORD97":171893.14000000001,"N_COORD97":2550267.2999999998,"ADDRESS":"長和路一段１巷２５號","OBJECTID":334497},"geometry":{"x":171893.13999999966,"y":2550267.3000000007}},{"attributes":{"ID":334507,"DIS_CODE":0,"TOWNNAME":"仁德區","LI":"一甲里","LIN":"5鄰","STREET":"中正路","SECT":"三段","MAREA":" ","LANE":" ","ALLEY":" ","HOUSE_NO":"９４號","E_COORD97":173695.875818,"N_COORD97":2541701.7876400002,"ADDRESS":"中正路三段９４號","OBJECTID":334498},"geometry":{"x":173695.87581800018,"y":2541701.7876380011}},{"attributes":{"ID":334508,"DIS_CODE":0,"TOWNNAME":"仁德區","LI":"一甲里","LIN":"3鄰","STREET":"中正路","SECT":"三段","MAREA":" ","LANE":" ","ALLEY":" ","HOUSE_NO":"１２６號","E_COORD97":173433.321597,"N_COORD97":2541684.3251499999,"ADDRESS":"中正路三段１２６號","OBJECTID":334499},"geometry":{"x":173433.32159699965,"y":2541684.3251480013}},{"attributes":{"ID":334509,"DIS_CODE":0,"TOWNNAME":"安南區","LI":"東和里","LIN":"7鄰","STREET":"長和路","SECT":"一段","MAREA":" ","LANE":" ","ALLEY":" ","HOUSE_NO":"８５之１號","E_COORD97":171823.64000000001,"N_COORD97":2550448.2000000002,"ADDRESS":"長和路一段８５之１號","OBJECTID":334500},"geometry":{"x":171823.63999999966,"y":2550448.2000000011}},{"attributes":{"ID":334510,"DIS_CODE":0,"TOWNNAME":"南區","LI":"郡南里","LIN":"8鄰","STREET":"永成路","SECT":"三段","MAREA":" ","LANE":" ","ALLEY":" ","HOUSE_NO":"１３５號","E_COORD97":167481.98679299999,"N_COORD97":2540735.2110000001,"ADDRESS":"永成路三段１３５號","OBJECTID":334501},"geometry":{"x":167481.98679300025,"y":2540735.2109980006}},{"attributes":{"ID":334511,"DIS_CODE":0,"TOWNNAME":"南區","LI":"府南里","LIN":"20鄰","STREET":"大成路","SECT":"二段","MAREA":" ","LANE":"８１巷","ALLEY":" ","HOUSE_NO":"３５號","E_COORD97":167392.63,"N_COORD97":2541620.5600000001,"ADDRESS":"大成路二段８１巷３５號","OBJECTID":334502},"geometry":{"x":167392.63000000082,"y":2541620.5600000042}},{"attributes":{"ID":334512,"DIS_CODE":0,"TOWNNAME":"南區","LI":"府南里","LIN":"20鄰","STREET":"大成路","SECT":"二段","MAREA":" ","LANE":"８１巷","ALLEY":" ","HOUSE_NO":"３７號","E_COORD97":167389.91,"N_COORD97":2541617.75,"ADDRESS":"大成路二段８１巷３７號","OBJECTID":334503},"geometry":{"x":167389.91000000015,"y":2541617.75}},{"attributes":{"ID":334513,"DIS_CODE":0,"TOWNNAME":"南區","LI":"府南里","LIN":"20鄰","STREET":"大成路","SECT":"二段","MAREA":" ","LANE":"８１巷","ALLEY":" ","HOUSE_NO":"３９號","E_COORD97":167389.35999999999,"N_COORD97":2541611.9100000001,"ADDRESS":"大成路二段８１巷３９號","OBJECTID":334504},"geometry":{"x":167389.36000000127,"y":2541611.910000002}},{"attributes":{"ID":334514,"DIS_CODE":0,"TOWNNAME":"南區","LI":"府南里","LIN":"20鄰","STREET":"大成路","SECT":"二段","MAREA":" ","LANE":"８１巷","ALLEY":" ","HOUSE_NO":"４１號","E_COORD97":167387.14999999999,"N_COORD97":2541608.2799999998,"ADDRESS":"大成路二段８１巷４１號","OBJECTID":334505},"geometry":{"x":167387.15000000224,"y":2541608.2800000012}},{"attributes":{"ID":334515,"DIS_CODE":0,"TOWNNAME":"北區","LI":"和順里","LIN":"36鄰","STREET":"公園南路","SECT":" ","MAREA":" ","LANE":"３７０巷","ALLEY":" ","HOUSE_NO":"１５號","E_COORD97":168191.32999999999,"N_COORD97":2544923.5600000001,"ADDRESS":"公園南路３７０巷１５號","OBJECTID":334506},"geometry":{"x":168191.33000000101,"y":2544923.5600000024}},{"attributes":{"ID":334516,"DIS_CODE":0,"TOWNNAME":"北區","LI":"和順里","LIN":"36鄰","STREET":"公園南路","SECT":" ","MAREA":" ","LANE":"３７０巷","ALLEY":" ","HOUSE_NO":"１８號","E_COORD97":168207.73000000001,"N_COORD97":2544915.8799999999,"ADDRESS":"公園南路３７０巷１８號","OBJECTID":334507},"geometry":{"x":168207.73000000138,"y":2544915.8800000027}},{"attributes":{"ID":334517,"DIS_CODE":0,"TOWNNAME":"安平區","LI":"億載里","LIN":"1鄰","STREET":"平豐路","SECT":" ","MAREA":" ","LANE":"３９１巷","ALLEY":" ","HOUSE_NO":"３２號","E_COORD97":164176.70999999999,"N_COORD97":2543816.5299999998,"ADDRESS":"平豐路３９１巷３２號","OBJECTID":334508},"geometry":{"x":164176.70999999996,"y":2543816.5300000031}},{"attributes":{"ID":334518,"DIS_CODE":0,"TOWNNAME":"北區","LI":"仁愛里","LIN":"1鄰","STREET":"勝利路","SECT":" ","MAREA":" ","LANE":"１９０巷","ALLEY":" ","HOUSE_NO":"１０號之２","E_COORD97":169979.07000000001,"N_COORD97":2544922.6000000001,"ADDRESS":"勝利路１９０巷１０號之２","OBJECTID":334509},"geometry":{"x":169979.0700000003,"y":2544922.6000000015}},{"attributes":{"ID":334519,"DIS_CODE":0,"TOWNNAME":"北區","LI":"仁愛里","LIN":"1鄰","STREET":"勝利路","SECT":" ","MAREA":" ","LANE":"１９０巷","ALLEY":" ","HOUSE_NO":"１０號之３","E_COORD97":169987.22,"N_COORD97":2544921.8100000001,"ADDRESS":"勝利路１９０巷１０號之３","OBJECTID":334510},"geometry":{"x":169987.22000000067,"y":2544921.8100000024}},{"attributes":{"ID":334520,"DIS_CODE":0,"TOWNNAME":"北區","LI":"仁愛里","LIN":"1鄰","STREET":"勝利路","SECT":" ","MAREA":" ","LANE":"１９０巷","ALLEY":" ","HOUSE_NO":"１２號","E_COORD97":169979.16,"N_COORD97":2544938.9100000001,"ADDRESS":"勝利路１９０巷１２號","OBJECTID":334511},"geometry":{"x":169979.16000000108,"y":2544938.9100000001}},{"attributes":{"ID":334521,"DIS_CODE":0,"TOWNNAME":"善化區","LI":"東關里","LIN":"17鄰","STREET":"新興街","SECT":" ","MAREA":" ","LANE":" ","ALLEY":" ","HOUSE_NO":"３４號","E_COORD97":177540.17000000001,"N_COORD97":2558955.5,"ADDRESS":"新興街３４號","OBJECTID":334512},"geometry":{"x":177540.16999999993,"y":2558955.5000000037}},{"attributes":{"ID":334522,"DIS_CODE":0,"TOWNNAME":"善化區","LI":"坐駕里","LIN":"17鄰","STREET":"興華路","SECT":" ","MAREA":" ","LANE":" ","ALLEY":" ","HOUSE_NO":"２９５號","E_COORD97":177801.5,"N_COORD97":2558498,"ADDRESS":"興華路２９５號","OBJECTID":334513},"geometry":{"x":177801.50000000093,"y":2558498.0000000037}},{"attributes":{"ID":334523,"DIS_CODE":0,"TOWNNAME":"善化區","LI":"東關里","LIN":"17鄰","STREET":"新興街","SECT":" ","MAREA":" ","LANE":" ","ALLEY":" ","HOUSE_NO":"２２號","E_COORD97":177579.20999999999,"N_COORD97":2558966,"ADDRESS":"新興街２２號","OBJECTID":334514},"geometry":{"x":177579.20999999996,"y":2558966.0000000019}},{"attributes":{"ID":334524,"DIS_CODE":0,"TOWNNAME":"善化區","LI":"東關里","LIN":"17鄰","STREET":"新興街","SECT":" ","MAREA":" ","LANE":" ","ALLEY":" ","HOUSE_NO":"２０號","E_COORD97":177584.62,"N_COORD97":2558967.4900000002,"ADDRESS":"新興街２０號","OBJECTID":334515},"geometry":{"x":177584.62000000011,"y":2558967.4900000021}},{"attributes":{"ID":334525,"DIS_CODE":0,"TOWNNAME":"善化區","LI":"坐駕里","LIN":"17鄰","STREET":"興華路","SECT":" ","MAREA":" ","LANE":" ","ALLEY":" ","HOUSE_NO":"２８０號","E_COORD97":177832.95999999999,"N_COORD97":2558527,"ADDRESS":"興華路２８０號","OBJECTID":334516},"geometry":{"x":177832.95999999996,"y":2558527}},{"attributes":{"ID":334526,"DIS_CODE":0,"TOWNNAME":"善化區","LI":"坐駕里","LIN":"17鄰","STREET":"興華路","SECT":" ","MAREA":" ","LANE":" ","ALLEY":" ","HOUSE_NO":"３０３號","E_COORD97":177784.06,"N_COORD97":2558497.75,"ADDRESS":"興華路３０３號","OBJECTID":334517},"geometry":{"x":177784.06000000052,"y":2558497.7500000019}},{"attributes":{"ID":334527,"DIS_CODE":0,"TOWNNAME":"善化區","LI":"東關里","LIN":"17鄰","STREET":"新興街","SECT":" ","MAREA":" ","LANE":" ","ALLEY":" ","HOUSE_NO":"２６號","E_COORD97":177557.03,"N_COORD97":2558960.25,"ADDRESS":"新興街２６號","OBJECTID":334518},"geometry":{"x":177557.03000000026,"y":2558960.25}},{"attributes":{"ID":334528,"DIS_CODE":0,"TOWNNAME":"善化區","LI":"坐駕里","LIN":"17鄰","STREET":"興華路","SECT":" ","MAREA":" ","LANE":" ","ALLEY":" ","HOUSE_NO":"２９９號","E_COORD97":177793.20999999999,"N_COORD97":2558496.75,"ADDRESS":"興華路２９９號","OBJECTID":334519},"geometry":{"x":177793.21000000089,"y":2558496.7500000019}},{"attributes":{"ID":334529,"DIS_CODE":0,"TOWNNAME":"善化區","LI":"光文里","LIN":"17鄰","STREET":"民權路","SECT":" ","MAREA":" ","LANE":" ","ALLEY":" ","HOUSE_NO":"２２１號","E_COORD97":178137.84,"N_COORD97":2558984.2599999998,"ADDRESS":"民權路２２１號","OBJECTID":334520},"geometry":{"x":178137.84000000171,"y":2558984.2600000035}},{"attributes":{"ID":334530,"DIS_CODE":0,"TOWNNAME":"善化區","LI":"光文里","LIN":"17鄰","STREET":"民權路","SECT":" ","MAREA":" ","LANE":" ","ALLEY":" ","HOUSE_NO":"２２５號","E_COORD97":178130.59,"N_COORD97":2558983.2599999998,"ADDRESS":"民權路２２５號","OBJECTID":334521},"geometry":{"x":178130.58999999985,"y":2558983.2599999998}},{"attributes":{"ID":334531,"DIS_CODE":0,"TOWNNAME":"善化區","LI":"光文里","LIN":"17鄰","STREET":"民權路","SECT":" ","MAREA":" ","LANE":" ","ALLEY":" ","HOUSE_NO":"１８７號","E_COORD97":178210.14000000001,"N_COORD97":2558995.5099999998,"ADDRESS":"民權路１８７號","OBJECTID":334522},"geometry":{"x":178210.13999999873,"y":2558995.5099999998}},{"attributes":{"ID":334532,"DIS_CODE":0,"TOWNNAME":"安南區","LI":"東和里","LIN":"7鄰","STREET":"長和路","SECT":"一段","MAREA":" ","LANE":"２１７巷","ALLEY":" ","HOUSE_NO":"５７號","E_COORD97":171585.89000000001,"N_COORD97":2550501.3900000001,"ADDRESS":"長和路一段２１７巷５７號","OBJECTID":334523},"geometry":{"x":171585.8900000006,"y":2550501.3900000043}},{"attributes":{"ID":334533,"DIS_CODE":0,"TOWNNAME":"關廟區","LI":"田中里","LIN":"4鄰","STREET":"中大街","SECT":" ","MAREA":" ","LANE":"９７巷","ALLEY":" ","HOUSE_NO":"９號","E_COORD97":184258.026988,"N_COORD97":2533716.75697,"ADDRESS":"中大街９７巷９號","OBJECTID":334524},"geometry":{"x":184258.02698799968,"y":2533716.7569700032}},{"attributes":{"ID":334534,"DIS_CODE":0,"TOWNNAME":"關廟區","LI":"田中里","LIN":"2鄰","STREET":"中大街","SECT":" ","MAREA":" ","LANE":"９７巷","ALLEY":" ","HOUSE_NO":"８號","E_COORD97":184253.78954299999,"N_COORD97":2533703.21031,"ADDRESS":"中大街９７巷８號","OBJECTID":334525},"geometry":{"x":184253.78954300005,"y":2533703.2103109993}},{"attributes":{"ID":334535,"DIS_CODE":0,"TOWNNAME":"南區","LI":"郡南里","LIN":"10鄰","STREET":"永成路","SECT":"三段","MAREA":" ","LANE":"１２１巷","ALLEY":" ","HOUSE_NO":"６２號","E_COORD97":167354.609635,"N_COORD97":2540703.41658,"ADDRESS":"永成路三段１２１巷６２號","OBJECTID":334526},"geometry":{"x":167354.60963500105,"y":2540703.4165840019}},{"attributes":{"ID":334536,"DIS_CODE":0,"TOWNNAME":"南區","LI":"國宅里","LIN":"10鄰","STREET":"永成路","SECT":"三段","MAREA":" ","LANE":"１２１巷","ALLEY":" ","HOUSE_NO":"６６號","E_COORD97":167353.127217,"N_COORD97":2540698.4424200002,"ADDRESS":"永成路三段１２１巷６６號","OBJECTID":334527},"geometry":{"x":167353.12721700128,"y":2540698.4424200002}},{"attributes":{"ID":334537,"DIS_CODE":0,"TOWNNAME":"關廟區","LI":"田中里","LIN":"4鄰","STREET":"中大街","SECT":" ","MAREA":" ","LANE":" ","ALLEY":" ","HOUSE_NO":"７９號","E_COORD97":184178.03170200001,"N_COORD97":2533748.1892599999,"ADDRESS":"中大街７９號","OBJECTID":334528},"geometry":{"x":184178.03170199972,"y":2533748.1892630011}},{"attributes":{"ID":334538,"DIS_CODE":0,"TOWNNAME":"關廟區","LI":"田中里","LIN":"4鄰","STREET":"中大街","SECT":" ","MAREA":" ","LANE":" ","ALLEY":" ","HOUSE_NO":"９５號","E_COORD97":184208.025135,"N_COORD97":2533734.2194599998,"ADDRESS":"中大街９５號","OBJECTID":334529},"geometry":{"x":184208.0251350021,"y":2533734.2194610015}},{"attributes":{"ID":334539,"DIS_CODE":0,"TOWNNAME":"關廟區","LI":"田中里","LIN":"4鄰","STREET":"中大街","SECT":" ","MAREA":" ","LANE":" ","ALLEY":" ","HOUSE_NO":"１０５號","E_COORD97":184186.83790899999,"N_COORD97":2533633.8895100001,"ADDRESS":"中大街１０５號","OBJECTID":334530},"geometry":{"x":184186.83790900093,"y":2533633.8895150013}},{"attributes":{"ID":334540,"DIS_CODE":0,"TOWNNAME":"新市區","LI":"豐華里","LIN":"9鄰","STREET":"南科七路","SECT":" ","MAREA":" ","LANE":" ","ALLEY":" ","HOUSE_NO":"１號","E_COORD97":176196.40988799999,"N_COORD97":2556155.1050200001,"ADDRESS":"南科七路１號","OBJECTID":334531},"geometry":{"x":176196.40988800116,"y":2556155.1050250009}},{"attributes":{"ID":334541,"DIS_CODE":0,"TOWNNAME":"新市區","LI":"豐華里","LIN":"9鄰","STREET":"南科二路","SECT":" ","MAREA":" ","LANE":" ","ALLEY":" ","HOUSE_NO":"１０號","E_COORD97":176773.68637000001,"N_COORD97":2555146.7255699998,"ADDRESS":"南科二路１０號","OBJECTID":334532},"geometry":{"x":176773.68637000117,"y":2555146.7255690023}},{"attributes":{"ID":334542,"DIS_CODE":0,"TOWNNAME":"新市區","LI":"豐華里","LIN":"9鄰","STREET":"南科二路","SECT":" ","MAREA":" ","LANE":" ","ALLEY":" ","HOUSE_NO":"１號","E_COORD97":177027.285148,"N_COORD97":2555164.0822299998,"ADDRESS":"南科二路１號","OBJECTID":334533},"geometry":{"x":177027.28514800128,"y":2555164.0822260007}},{"attributes":{"ID":334543,"DIS_CODE":0,"TOWNNAME":"新市區","LI":"豐華里","LIN":"9鄰","STREET":"南科二路","SECT":" ","MAREA":" ","LANE":" ","ALLEY":" ","HOUSE_NO":"３號","E_COORD97":176957.31224100001,"N_COORD97":2555127.67558,"ADDRESS":"南科二路３號","OBJECTID":334534},"geometry":{"x":176957.31224100012,"y":2555127.6755790021}},{"attributes":{"ID":334544,"DIS_CODE":0,"TOWNNAME":"新市區","LI":"豐華里","LIN":"9鄰","STREET":"南科三路","SECT":" ","MAREA":" ","LANE":" ","ALLEY":" ","HOUSE_NO":"５０號","E_COORD97":175862.66032600001,"N_COORD97":2555397.1271000002,"ADDRESS":"南科三路５０號","OBJECTID":334535},"geometry":{"x":175862.66032600123,"y":2555397.1271010023}},{"attributes":{"ID":334545,"DIS_CODE":0,"TOWNNAME":"新市區","LI":"豐華里","LIN":"9鄰","STREET":"南科三路","SECT":" ","MAREA":" ","LANE":" ","ALLEY":" ","HOUSE_NO":"６號","E_COORD97":176694.70624500001,"N_COORD97":2555510.1912600002,"ADDRESS":"南科三路６號","OBJECTID":334536},"geometry":{"x":176694.70624500047,"y":2555510.1912610028}},{"attributes":{"ID":334546,"DIS_CODE":0,"TOWNNAME":"北區","LI":"仁愛里","LIN":"1鄰","STREET":"勝利路","SECT":" ","MAREA":" ","LANE":"１９０巷","ALLEY":" ","HOUSE_NO":"１６號","E_COORD97":169985.60999999999,"N_COORD97":2544937.6699999999,"ADDRESS":"勝利路１９０巷１６號","OBJECTID":334537},"geometry":{"x":169985.61000000034,"y":2544937.6699999999}},{"attributes":{"ID":334547,"DIS_CODE":0,"TOWNNAME":"北區","LI":"仁愛里","LIN":"1鄰","STREET":"勝利路","SECT":" ","MAREA":" ","LANE":"１９０巷","ALLEY":" ","HOUSE_NO":"１６號之１","E_COORD97":169990.01999999999,"N_COORD97":2544935.0699999998,"ADDRESS":"勝利路１９０巷１６號之１","OBJECTID":334538},"geometry":{"x":169990.02000000048,"y":2544935.0700000003}},{"attributes":{"ID":334548,"DIS_CODE":0,"TOWNNAME":"北區","LI":"仁愛里","LIN":"1鄰","STREET":"勝利路","SECT":" ","MAREA":" ","LANE":"１９０巷","ALLEY":" ","HOUSE_NO":"１８號","E_COORD97":169994.54000000001,"N_COORD97":2544941.6200000001,"ADDRESS":"勝利路１９０巷１８號","OBJECTID":334539},"geometry":{"x":169994.54000000004,"y":2544941.6200000029}},{"attributes":{"ID":334549,"DIS_CODE":0,"TOWNNAME":"北區","LI":"仁愛里","LIN":"1鄰","STREET":"勝利路","SECT":" ","MAREA":" ","LANE":"１９０巷","ALLEY":" ","HOUSE_NO":"１８號之１","E_COORD97":169999.73999999999,"N_COORD97":2544939.7000000002,"ADDRESS":"勝利路１９０巷１８號之１","OBJECTID":334540},"geometry":{"x":169999.74000000022,"y":2544939.6999999993}},{"attributes":{"ID":334550,"DIS_CODE":0,"TOWNNAME":"北區","LI":"仁愛里","LIN":"1鄰","STREET":"勝利路","SECT":" ","MAREA":" ","LANE":"１９０巷","ALLEY":" ","HOUSE_NO":"２０號","E_COORD97":170006.53,"N_COORD97":2544944.3399999999,"ADDRESS":"勝利路１９０巷２０號","OBJECTID":334541},"geometry":{"x":170006.53000000026,"y":2544944.3400000017}},{"attributes":{"ID":334551,"DIS_CODE":0,"TOWNNAME":"北區","LI":"仁愛里","LIN":"1鄰","STREET":"勝利路","SECT":" ","MAREA":" ","LANE":"１９０巷","ALLEY":" ","HOUSE_NO":"２號","E_COORD97":169947.32000000001,"N_COORD97":2544923.3900000001,"ADDRESS":"勝利路１９０巷２號","OBJECTID":334542},"geometry":{"x":169947.32000000216,"y":2544923.3900000006}},{"attributes":{"ID":334552,"DIS_CODE":0,"TOWNNAME":"北區","LI":"仁愛里","LIN":"1鄰","STREET":"勝利路","SECT":" ","MAREA":" ","LANE":"１９０巷","ALLEY":" ","HOUSE_NO":"４號","E_COORD97":169951.16,"N_COORD97":2544926.4500000002,"ADDRESS":"勝利路１９０巷４號","OBJECTID":334543},"geometry":{"x":169951.16000000015,"y":2544926.4500000011}},{"attributes":{"ID":334553,"DIS_CODE":0,"TOWNNAME":"北區","LI":"仁愛里","LIN":"1鄰","STREET":"勝利路","SECT":" ","MAREA":" ","LANE":"１９０巷","ALLEY":" ","HOUSE_NO":"６號","E_COORD97":169957.5,"N_COORD97":2544929.27,"ADDRESS":"勝利路１９０巷６號","OBJECTID":334544},"geometry":{"x":169957.5,"y":2544929.2699999996}},{"attributes":{"ID":334554,"DIS_CODE":0,"TOWNNAME":"北區","LI":"延平里","LIN":"1鄰","STREET":"公園路","SECT":" ","MAREA":" ","LANE":"６３４巷","ALLEY":" ","HOUSE_NO":"１１號","E_COORD97":169079.42999999999,"N_COORD97":2545392.4399999999,"ADDRESS":"公園路６３４巷１１號","OBJECTID":334545},"geometry":{"x":169079.4299999997,"y":2545392.4399999995}},{"attributes":{"ID":334555,"DIS_CODE":0,"TOWNNAME":"北區","LI":"延平里","LIN":"1鄰","STREET":"公園路","SECT":" ","MAREA":" ","LANE":"６３４巷","ALLEY":" ","HOUSE_NO":"１１號之１","E_COORD97":169075.07999999999,"N_COORD97":2545394.3999999999,"ADDRESS":"公園路６３４巷１１號之１","OBJECTID":334546},"geometry":{"x":169075.08000000007,"y":2545394.4000000004}},{"attributes":{"ID":334556,"DIS_CODE":0,"TOWNNAME":"北區","LI":"延平里","LIN":"1鄰","STREET":"公園路","SECT":" ","MAREA":" ","LANE":"６３４巷","ALLEY":" ","HOUSE_NO":"１３號","E_COORD97":169083.64000000001,"N_COORD97":2545393.8399999999,"ADDRESS":"公園路６３４巷１３號","OBJECTID":334547},"geometry":{"x":169083.6400000006,"y":2545393.8399999999}},{"attributes":{"ID":334557,"DIS_CODE":0,"TOWNNAME":"安南區","LI":"東和里","LIN":"4鄰","STREET":"長和路","SECT":"一段","MAREA":" ","LANE":"８２３巷","ALLEY":" ","HOUSE_NO":"８２號","E_COORD97":170835.10105500001,"N_COORD97":2551222.5847700001,"ADDRESS":"長和路一段８２３巷８２號","OBJECTID":334548},"geometry":{"x":170835.10105499998,"y":2551222.5847720038}},{"attributes":{"ID":334558,"DIS_CODE":0,"TOWNNAME":"南區","LI":"郡南里","LIN":"10鄰","STREET":"永成路","SECT":"三段","MAREA":" ","LANE":"１２１巷","ALLEY":" ","HOUSE_NO":"１００號","E_COORD97":167350.263328,"N_COORD97":2540642.8714600001,"ADDRESS":"永成路三段１２１巷１００號","OBJECTID":334549},"geometry":{"x":167350.2633280009,"y":2540642.8714650013}},{"attributes":{"ID":334559,"DIS_CODE":0,"TOWNNAME":"南區","LI":"郡南里","LIN":"10鄰","STREET":"永成路","SECT":"三段","MAREA":" ","LANE":"１２１巷","ALLEY":" ","HOUSE_NO":"１０２號","E_COORD97":167349.94566699999,"N_COORD97":2540636.7331300001,"ADDRESS":"永成路三段１２１巷１０２號","OBJECTID":334550},"geometry":{"x":167349.94566700142,"y":2540636.7331349999}},{"attributes":{"ID":334560,"DIS_CODE":0,"TOWNNAME":"南區","LI":"郡南里","LIN":"10鄰","STREET":"永成路","SECT":"三段","MAREA":" ","LANE":"１２１巷","ALLEY":" ","HOUSE_NO":"１０６號","E_COORD97":167356.35183199999,"N_COORD97":2540637.1035500001,"ADDRESS":"永成路三段１２１巷１０６號","OBJECTID":334551},"geometry":{"x":167356.35183199961,"y":2540637.1035510004}},{"attributes":{"ID":334561,"DIS_CODE":0,"TOWNNAME":"南區","LI":"郡南里","LIN":"8鄰","STREET":"永成路","SECT":"三段","MAREA":" ","LANE":" ","ALLEY":" ","HOUSE_NO":"１３９號","E_COORD97":167483.36332400001,"N_COORD97":2540746.37641,"ADDRESS":"永成路三段１３９號","OBJECTID":334552},"geometry":{"x":167483.3633240005,"y":2540746.3764090016}},{"attributes":{"ID":334562,"DIS_CODE":0,"TOWNNAME":"北區","LI":"延平里","LIN":"1鄰","STREET":"公園路","SECT":" ","MAREA":" ","LANE":"６３４巷","ALLEY":" ","HOUSE_NO":"１３號之１","E_COORD97":169087.98999999999,"N_COORD97":2545391.8799999999,"ADDRESS":"公園路６３４巷１３號之１","OBJECTID":334553},"geometry":{"x":169087.99000000022,"y":2545391.8800000008}},{"attributes":{"ID":334563,"DIS_CODE":0,"TOWNNAME":"北區","LI":"延平里","LIN":"1鄰","STREET":"公園路","SECT":" ","MAREA":" ","LANE":"６３４巷","ALLEY":" ","HOUSE_NO":"１５號","E_COORD97":169092.89999999999,"N_COORD97":2545389.5,"ADDRESS":"公園路６３４巷１５號","OBJECTID":334554},"geometry":{"x":169092.9000000013,"y":2545389.5}},{"attributes":{"ID":334564,"DIS_CODE":0,"TOWNNAME":"北區","LI":"延平里","LIN":"1鄰","STREET":"公園路","SECT":" ","MAREA":" ","LANE":"６３４巷","ALLEY":" ","HOUSE_NO":"１５號之１","E_COORD97":169100.89999999999,"N_COORD97":2545389.0800000001,"ADDRESS":"公園路６３４巷１５號之１","OBJECTID":334555},"geometry":{"x":169100.90000000224,"y":2545389.0800000001}},{"attributes":{"ID":334565,"DIS_CODE":0,"TOWNNAME":"北區","LI":"延平里","LIN":"1鄰","STREET":"公園路","SECT":" ","MAREA":" ","LANE":"６３４巷","ALLEY":" ","HOUSE_NO":"１７號","E_COORD97":169104.54000000001,"N_COORD97":2545385.29,"ADDRESS":"公園路６３４巷１７號","OBJECTID":334556},"geometry":{"x":169104.54000000004,"y":2545385.290000001}},{"attributes":{"ID":334566,"DIS_CODE":0,"TOWNNAME":"北區","LI":"賢北里","LIN":"1鄰","STREET":"賢北街","SECT":" ","MAREA":" ","LANE":"１６巷","ALLEY":" ","HOUSE_NO":"２號","E_COORD97":166376.48000000001,"N_COORD97":2545245.1299999999,"ADDRESS":"賢北街１６巷２號","OBJECTID":334557},"geometry":{"x":166376.48000000138,"y":2545245.129999999}},{"attributes":{"ID":334567,"DIS_CODE":0,"TOWNNAME":"北區","LI":"延平里","LIN":"1鄰","STREET":"公園路","SECT":" ","MAREA":" ","LANE":"６３４巷","ALLEY":" ","HOUSE_NO":"１９號","E_COORD97":169113.51999999999,"N_COORD97":2545382.9100000001,"ADDRESS":"公園路６３４巷１９號","OBJECTID":334558},"geometry":{"x":169113.52000000048,"y":2545382.9100000001}},{"attributes":{"ID":334568,"DIS_CODE":0,"TOWNNAME":"北區","LI":"延平里","LIN":"1鄰","STREET":"公園路","SECT":" ","MAREA":" ","LANE":"６３４巷","ALLEY":" ","HOUSE_NO":"２１號","E_COORD97":169117.03,"N_COORD97":2545381.23,"ADDRESS":"公園路６３４巷２１號","OBJECTID":334559},"geometry":{"x":169117.03000000212,"y":2545381.2300000004}},{"attributes":{"ID":334569,"DIS_CODE":0,"TOWNNAME":"北區","LI":"延平里","LIN":"1鄰","STREET":"公園路","SECT":" ","MAREA":" ","LANE":"６３４巷","ALLEY":" ","HOUSE_NO":"２３號","E_COORD97":169123.89999999999,"N_COORD97":2545385.1499999999,"ADDRESS":"公園路６３４巷２３號","OBJECTID":334560},"geometry":{"x":169123.90000000037,"y":2545385.1500000004}},{"attributes":{"ID":334570,"DIS_CODE":0,"TOWNNAME":"新化區","LI":"協興里","LIN":"13鄰","STREET":"太平街","SECT":" ","MAREA":" ","LANE":"１５０巷","ALLEY":" ","HOUSE_NO":"９９號","E_COORD97":178266.67000000001,"N_COORD97":2548810.25,"ADDRESS":"太平街１５０巷９９號","OBJECTID":334561},"geometry":{"x":178266.67000000086,"y":2548810.2500000019}},{"attributes":{"ID":334571,"DIS_CODE":0,"TOWNNAME":"新化區","LI":"豐榮里","LIN":"8鄰","STREET":"大智路","SECT":" ","MAREA":" ","LANE":"７７巷","ALLEY":" ","HOUSE_NO":"２０號","E_COORD97":178284.73000000001,"N_COORD97":2548276.2400000002,"ADDRESS":"大智路７７巷２０號","OBJECTID":334562},"geometry":{"x":178284.73000000045,"y":2548276.2400000002}},{"attributes":{"ID":334572,"DIS_CODE":0,"TOWNNAME":"新化區","LI":"知義里","LIN":"15鄰","STREET":"中興路","SECT":" ","MAREA":" ","LANE":"４１５巷","ALLEY":" ","HOUSE_NO":"２２號","E_COORD97":180624.16,"N_COORD97":2547422.25,"ADDRESS":"中興路４１５巷２２號","OBJECTID":334563},"geometry":{"x":180624.16000000015,"y":2547422.25}},{"attributes":{"ID":334573,"DIS_CODE":0,"TOWNNAME":"北區","LI":"延平里","LIN":"1鄰","STREET":"公園路","SECT":" ","MAREA":" ","LANE":"６３４巷","ALLEY":" ","HOUSE_NO":"２５號","E_COORD97":169116.03,"N_COORD97":2545375.27,"ADDRESS":"公園路６３４巷２５號","OBJECTID":334564},"geometry":{"x":169116.03000000119,"y":2545375.2700000014}},{"attributes":{"ID":334574,"DIS_CODE":0,"TOWNNAME":"北區","LI":"延平里","LIN":"1鄰","STREET":"公園路","SECT":" ","MAREA":" ","LANE":"６３４巷","ALLEY":" ","HOUSE_NO":"２７號","E_COORD97":169120.79999999999,"N_COORD97":2545374.71,"ADDRESS":"公園路６３４巷２７號","OBJECTID":334565},"geometry":{"x":169120.79999999981,"y":2545374.7100000028}},{"attributes":{"ID":334575,"DIS_CODE":0,"TOWNNAME":"北區","LI":"延平里","LIN":"1鄰","STREET":"公園路","SECT":" ","MAREA":" ","LANE":"６３４巷","ALLEY":" ","HOUSE_NO":"３１號","E_COORD97":169131.32000000001,"N_COORD97":2545360.8300000001,"ADDRESS":"公園路６３４巷３１號","OBJECTID":334566},"geometry":{"x":169131.3200000003,"y":2545360.8300000001}},{"attributes":{"ID":334576,"DIS_CODE":0,"TOWNNAME":"北區","LI":"延平里","LIN":"1鄰","STREET":"公園路","SECT":" ","MAREA":" ","LANE":"６３４巷","ALLEY":" ","HOUSE_NO":"３３號","E_COORD97":169141.28,"N_COORD97":2545357.3300000001,"ADDRESS":"公園路６３４巷３３號","OBJECTID":334567},"geometry":{"x":169141.28000000119,"y":2545357.3300000001}},{"attributes":{"ID":334577,"DIS_CODE":0,"TOWNNAME":"北區","LI":"延平里","LIN":"1鄰","STREET":"公園路","SECT":" ","MAREA":" ","LANE":"６３４巷","ALLEY":" ","HOUSE_NO":"３３號之１","E_COORD97":169141.84,"N_COORD97":2545374.21,"ADDRESS":"公園路６３４巷３３號之１","OBJECTID":334568},"geometry":{"x":169141.84000000078,"y":2545374.2100000028}},{"attributes":{"ID":334578,"DIS_CODE":0,"TOWNNAME":"北區","LI":"延平里","LIN":"1鄰","STREET":"公園路","SECT":" ","MAREA":" ","LANE":"６３４巷","ALLEY":" ","HOUSE_NO":"３７號","E_COORD97":169154.34,"N_COORD97":2545357.2200000002,"ADDRESS":"公園路６３４巷３７號","OBJECTID":334569},"geometry":{"x":169154.33999999985,"y":2545357.2200000025}},{"attributes":{"ID":334579,"DIS_CODE":0,"TOWNNAME":"北區","LI":"延平里","LIN":"1鄰","STREET":"公園路","SECT":" ","MAREA":" ","LANE":"６３４巷","ALLEY":" ","HOUSE_NO":"３７號之１","E_COORD97":169157.98999999999,"N_COORD97":2545357.7799999998,"ADDRESS":"公園路６３４巷３７號之１","OBJECTID":334570},"geometry":{"x":169157.99000000115,"y":2545357.7800000012}},{"attributes":{"ID":334580,"DIS_CODE":0,"TOWNNAME":"北區","LI":"中樓里","LIN":"1鄰","STREET":"前鋒路","SECT":" ","MAREA":" ","LANE":"１７５巷","ALLEY":" ","HOUSE_NO":"１６號","E_COORD97":169431.97,"N_COORD97":2544720.3399999999,"ADDRESS":"前鋒路１７５巷１６號","OBJECTID":334571},"geometry":{"x":169431.96999999881,"y":2544720.3400000036}},{"attributes":{"ID":334581,"DIS_CODE":0,"TOWNNAME":"北區","LI":"中樓里","LIN":"1鄰","STREET":"前鋒路","SECT":" ","MAREA":" ","LANE":"１７５巷","ALLEY":" ","HOUSE_NO":"１８號","E_COORD97":169431.26999999999,"N_COORD97":2544717.02,"ADDRESS":"前鋒路１７５巷１８號","OBJECTID":334572},"geometry":{"x":169431.26999999955,"y":2544717.0199999996}},{"attributes":{"ID":334582,"DIS_CODE":0,"TOWNNAME":"北區","LI":"中樓里","LIN":"1鄰","STREET":"前鋒路","SECT":" ","MAREA":" ","LANE":"１７５巷","ALLEY":" ","HOUSE_NO":"１９號","E_COORD97":169435.70999999999,"N_COORD97":2544713.9100000001,"ADDRESS":"前鋒路１７５巷１９號","OBJECTID":334573},"geometry":{"x":169435.71000000183,"y":2544713.910000002}},{"attributes":{"ID":334583,"DIS_CODE":0,"TOWNNAME":"北區","LI":"中樓里","LIN":"1鄰","STREET":"前鋒路","SECT":" ","MAREA":" ","LANE":"１７５巷","ALLEY":" ","HOUSE_NO":"１號","E_COORD97":169475.63,"N_COORD97":2544712.7999999998,"ADDRESS":"前鋒路１７５巷１號","OBJECTID":334574},"geometry":{"x":169475.63000000082,"y":2544712.8000000026}},{"attributes":{"ID":334584,"DIS_CODE":0,"TOWNNAME":"北區","LI":"中樓里","LIN":"1鄰","STREET":"前鋒路","SECT":" ","MAREA":" ","LANE":"１７５巷","ALLEY":" ","HOUSE_NO":"２０號","E_COORD97":169430.06,"N_COORD97":2544709.8900000001,"ADDRESS":"前鋒路１７５巷２０號","OBJECTID":334575},"geometry":{"x":169430.06000000052,"y":2544709.8900000006}},{"attributes":{"ID":334585,"DIS_CODE":0,"TOWNNAME":"北區","LI":"中樓里","LIN":"1鄰","STREET":"前鋒路","SECT":" ","MAREA":" ","LANE":"１７５巷","ALLEY":" ","HOUSE_NO":"２１號","E_COORD97":169434.70000000001,"N_COORD97":2544709.29,"ADDRESS":"前鋒路１７５巷２１號","OBJECTID":334576},"geometry":{"x":169434.70000000112,"y":2544709.2899999991}},{"attributes":{"ID":334586,"DIS_CODE":0,"TOWNNAME":"歸仁區","LI":"看西里","LIN":"1鄰","STREET":"仁愛南街","SECT":" ","MAREA":" ","LANE":"８７巷","ALLEY":" ","HOUSE_NO":"２號","E_COORD97":178308.32000000001,"N_COORD97":2540451.1499999999,"ADDRESS":"仁愛南街８７巷２號","OBJECTID":334577},"geometry":{"x":178308.32000000123,"y":2540451.1500000022}},{"attributes":{"ID":334587,"DIS_CODE":0,"TOWNNAME":"北區","LI":"賢北里","LIN":"1鄰","STREET":"賢北街","SECT":" ","MAREA":" ","LANE":"１６巷","ALLEY":" ","HOUSE_NO":"３９號","E_COORD97":166442.31,"N_COORD97":2545292.02,"ADDRESS":"賢北街１６巷３９號","OBJECTID":334578},"geometry":{"x":166442.30999999959,"y":2545292.0200000014}},{"attributes":{"ID":334588,"DIS_CODE":0,"TOWNNAME":"善化區","LI":"光文里","LIN":"17鄰","STREET":"民權路","SECT":" ","MAREA":" ","LANE":" ","ALLEY":" ","HOUSE_NO":"２１５號","E_COORD97":178152.29000000001,"N_COORD97":2558986.5099999998,"ADDRESS":"民權路２１５號","OBJECTID":334579},"geometry":{"x":178152.29000000097,"y":2558986.5100000016}},{"attributes":{"ID":334589,"DIS_CODE":0,"TOWNNAME":"善化區","LI":"光文里","LIN":"17鄰","STREET":"民權路","SECT":" ","MAREA":" ","LANE":" ","ALLEY":" ","HOUSE_NO":"２２７號","E_COORD97":178124.41,"N_COORD97":2558981.7599999998,"ADDRESS":"民權路２２７號","OBJECTID":334580},"geometry":{"x":178124.41000000108,"y":2558981.7600000016}},{"attributes":{"ID":334590,"DIS_CODE":0,"TOWNNAME":"善化區","LI":"坐駕里","LIN":"17鄰","STREET":"興華路","SECT":" ","MAREA":" ","LANE":" ","ALLEY":" ","HOUSE_NO":"２３７之４號","E_COORD97":177992.98999999999,"N_COORD97":2558491.77,"ADDRESS":"興華路２３７之４號","OBJECTID":334581},"geometry":{"x":177992.99000000022,"y":2558491.7699999996}},{"attributes":{"ID":334591,"DIS_CODE":0,"TOWNNAME":"善化區","LI":"光文里","LIN":"17鄰","STREET":"民權路","SECT":" ","MAREA":" ","LANE":" ","ALLEY":" ","HOUSE_NO":"１９７號","E_COORD97":178188.42000000001,"N_COORD97":2558992.2599999998,"ADDRESS":"民權路１９７號","OBJECTID":334582},"geometry":{"x":178188.42000000086,"y":2558992.2600000016}},{"attributes":{"ID":334592,"DIS_CODE":0,"TOWNNAME":"南區","LI":"郡南里","LIN":"9鄰","STREET":"永成路","SECT":"三段","MAREA":" ","LANE":"１３７巷","ALLEY":" ","HOUSE_NO":"８號","E_COORD97":167459.96229,"N_COORD97":2540752.51474,"ADDRESS":"永成路三段１３７巷８號","OBJECTID":334583},"geometry":{"x":167459.9622900011,"y":2540752.5147389993}},{"attributes":{"ID":334593,"DIS_CODE":0,"TOWNNAME":"佳里區","LI":"鎮山里","LIN":"23鄰","STREET":"佳南路","SECT":" ","MAREA":" ","LANE":" ","ALLEY":" ","HOUSE_NO":"６３號","E_COORD97":166389.23934900001,"N_COORD97":2561222.4430900002,"ADDRESS":"佳南路６３號","OBJECTID":334584},"geometry":{"x":166389.23934900016,"y":2561222.4430860002}},{"attributes":{"ID":334594,"DIS_CODE":0,"TOWNNAME":"南區","LI":"郡南里","LIN":"8鄰","STREET":"永成路","SECT":"三段","MAREA":" ","LANE":" ","ALLEY":" ","HOUSE_NO":"１４１號","E_COORD97":167482.833889,"N_COORD97":2540751.1389100002,"ADDRESS":"永成路三段１４１號","OBJECTID":334585},"geometry":{"x":167482.83388900012,"y":2540751.1389060002}},{"attributes":{"ID":334595,"DIS_CODE":0,"TOWNNAME":"南區","LI":"郡南里","LIN":"8鄰","STREET":"永成路","SECT":"三段","MAREA":" ","LANE":" ","ALLEY":" ","HOUSE_NO":"１４５號","E_COORD97":167482.72800199999,"N_COORD97":2540760.6639,"ADDRESS":"永成路三段１４５號","OBJECTID":334586},"geometry":{"x":167482.7280020006,"y":2540760.6639010031}},{"attributes":{"ID":334596,"DIS_CODE":0,"TOWNNAME":"南區","LI":"郡南里","LIN":"8鄰","STREET":"永成路","SECT":"三段","MAREA":" ","LANE":" ","ALLEY":" ","HOUSE_NO":"１４７號","E_COORD97":167482.304454,"N_COORD97":2540764.7914,"ADDRESS":"永成路三段１４７號","OBJECTID":334587},"geometry":{"x":167482.30445399974,"y":2540764.7913990002}},{"attributes":{"ID":334597,"DIS_CODE":0,"TOWNNAME":"南區","LI":"郡南里","LIN":"8鄰","STREET":"永成路","SECT":"三段","MAREA":" ","LANE":" ","ALLEY":" ","HOUSE_NO":"１４９號","E_COORD97":167482.62211500001,"N_COORD97":2540768.3897299999,"ADDRESS":"永成路三段１４９號","OBJECTID":334588},"geometry":{"x":167482.62211499922,"y":2540768.3897300027}},{"attributes":{"ID":334598,"DIS_CODE":0,"TOWNNAME":"南區","LI":"郡南里","LIN":"8鄰","STREET":"永成路","SECT":"三段","MAREA":" ","LANE":" ","ALLEY":" ","HOUSE_NO":"１５３號","E_COORD97":167482.51622799999,"N_COORD97":2540779.5022200001,"ADDRESS":"永成路三段１５３號","OBJECTID":334589},"geometry":{"x":167482.51622800063,"y":2540779.502224002}},{"attributes":{"ID":334599,"DIS_CODE":0,"TOWNNAME":"南區","LI":"郡南里","LIN":"8鄰","STREET":"永成路","SECT":"三段","MAREA":" ","LANE":" ","ALLEY":" ","HOUSE_NO":"１５５號","E_COORD97":167481.98679299999,"N_COORD97":2540788.3922199998,"ADDRESS":"永成路三段１５５號","OBJECTID":334590},"geometry":{"x":167481.98679300025,"y":2540788.3922199998}},{"attributes":{"ID":334600,"DIS_CODE":0,"TOWNNAME":"佳里區","LI":"鎮山里","LIN":"23鄰","STREET":"佳南路","SECT":" ","MAREA":" ","LANE":" ","ALLEY":" ","HOUSE_NO":"６５號","E_COORD97":166385.848356,"N_COORD97":2561219.4797499999,"ADDRESS":"佳南路６５號","OBJECTID":334591},"geometry":{"x":166385.84835600108,"y":2561219.4797540009}},{"attributes":{"ID":334601,"DIS_CODE":0,"TOWNNAME":"南區","LI":"郡南里","LIN":"11鄰","STREET":"永成路","SECT":"三段","MAREA":" ","LANE":" ","ALLEY":" ","HOUSE_NO":"１１９號","E_COORD97":167483.25743699999,"N_COORD97":2540692.4543599999,"ADDRESS":"永成路三段１１９號","OBJECTID":334592},"geometry":{"x":167483.25743700191,"y":2540692.4543550014}},{"attributes":{"ID":334602,"DIS_CODE":0,"TOWNNAME":"北區","LI":"東興里","LIN":"1鄰","STREET":"小東路","SECT":" ","MAREA":" ","LANE":"１４７巷","ALLEY":" ","HOUSE_NO":"２０號","E_COORD97":170739.17999999999,"N_COORD97":2544560.3199999998,"ADDRESS":"小東路１４７巷２０號","OBJECTID":334593},"geometry":{"x":170739.17999999877,"y":2544560.3200000003}},{"attributes":{"ID":334603,"DIS_CODE":0,"TOWNNAME":"安南區","LI":"顯宮里","LIN":"3鄰","STREET":"北汕尾三路","SECT":" ","MAREA":" ","LANE":" ","ALLEY":" ","HOUSE_NO":"２０５號","E_COORD97":161619.65983700001,"N_COORD97":2550211.3143500001,"ADDRESS":"北汕尾三路２０５號","OBJECTID":334594},"geometry":{"x":161619.659837001,"y":2550211.3143480029}},{"attributes":{"ID":334604,"DIS_CODE":0,"TOWNNAME":"學甲區","LI":"仁得里","LIN":"1鄰","STREET":"自強路","SECT":" ","MAREA":" ","LANE":"７巷","ALLEY":" ","HOUSE_NO":"４號","E_COORD97":166327.45999999999,"N_COORD97":2569800,"ADDRESS":"自強路７巷４號","OBJECTID":334595},"geometry":{"x":166327.46000000089,"y":2569800}},{"attributes":{"ID":334605,"DIS_CODE":0,"TOWNNAME":"北區","LI":"正覺里","LIN":"1鄰","STREET":"公園路","SECT":" ","MAREA":" ","LANE":"５９３巷","ALLEY":" ","HOUSE_NO":"１４之１號","E_COORD97":169125.53,"N_COORD97":2546016.8399999999,"ADDRESS":"公園路５９３巷１４之１號","OBJECTID":334596},"geometry":{"x":169125.53000000119,"y":2546016.8400000017}},{"attributes":{"ID":334606,"DIS_CODE":0,"TOWNNAME":"北區","LI":"正風里","LIN":"1鄰","STREET":"公園路","SECT":" ","MAREA":" ","LANE":"８６２巷","ALLEY":" ","HOUSE_NO":"３號","E_COORD97":169308.67000000001,"N_COORD97":2546032.29,"ADDRESS":"公園路８６２巷３號","OBJECTID":334597},"geometry":{"x":169308.66999999993,"y":2546032.290000001}},{"attributes":{"ID":334607,"DIS_CODE":0,"TOWNNAME":"北區","LI":"正風里","LIN":"1鄰","STREET":"公園路","SECT":" ","MAREA":" ","LANE":"８６２巷","ALLEY":" ","HOUSE_NO":"３號地下層之１","E_COORD97":169323.79000000001,"N_COORD97":2546044.8700000001,"ADDRESS":"公園路８６２巷３號地下層之１","OBJECTID":334598},"geometry":{"x":169323.79000000097,"y":2546044.8700000029}},{"attributes":{"ID":334608,"DIS_CODE":0,"TOWNNAME":"北區","LI":"正風里","LIN":"1鄰","STREET":"公園路","SECT":" ","MAREA":" ","LANE":"８６２巷","ALLEY":" ","HOUSE_NO":"３號地下層之２","E_COORD97":169323.79000000001,"N_COORD97":2546044.8700000001,"ADDRESS":"公園路８６２巷３號地下層之２","OBJECTID":334599},"geometry":{"x":169323.79000000097,"y":2546044.8700000029}},{"attributes":{"ID":334609,"DIS_CODE":0,"TOWNNAME":"歸仁區","LI":"七甲里","LIN":"1鄰","STREET":"七甲五街","SECT":" ","MAREA":" ","LANE":"９１巷","ALLEY":" ","HOUSE_NO":"１０１號","E_COORD97":177071.94,"N_COORD97":2542533.27,"ADDRESS":"七甲五街９１巷１０１號","OBJECTID":334600},"geometry":{"x":177071.94000000134,"y":2542533.2699999996}}]}