{"displayFieldName":"TOWNNAME","fieldAliases":{"ID":"ID","DIS_CODE":"DIS_CODE","TOWNNAME":"TOWNNAME","LI":"LI","LIN":"LIN","STREET":"STREET","SECT":"SECT","MAREA":"MAREA","LANE":"LANE","ALLEY":"ALLEY","HOUSE_NO":"HOUSE_NO","E_COORD97":"E_COORD97","N_COORD97":"N_COORD97","ADDRESS":"ADDRESS","OBJECTID":"OBJECTID"},"geometryType":"esriGeometryPoint","spatialReference":{"wkid":102443,"latestWkid":3826},"fields":[{"name":"ID","type":"esriFieldTypeDouble","alias":"ID"},{"name":"DIS_CODE","type":"esriFieldTypeInteger","alias":"DIS_CODE"},{"name":"TOWNNAME","type":"esriFieldTypeString","alias":"TOWNNAME","length":8},{"name":"LI","type":"esriFieldTypeString","alias":"LI","length":8},{"name":"LIN","type":"esriFieldTypeString","alias":"LIN","length":12},{"name":"STREET","type":"esriFieldTypeString","alias":"STREET","length":20},{"name":"SECT","type":"esriFieldTypeString","alias":"SECT","length":8},{"name":"MAREA","type":"esriFieldTypeString","alias":"MAREA","length":12},{"name":"LANE","type":"esriFieldTypeString","alias":"LANE","length":10},{"name":"ALLEY","type":"esriFieldTypeString","alias":"ALLEY","length":10},{"name":"HOUSE_NO","type":"esriFieldTypeString","alias":"HOUSE_NO","length":20},{"name":"E_COORD97","type":"esriFieldTypeDouble","alias":"E_COORD97"},{"name":"N_COORD97","type":"esriFieldTypeDouble","alias":"N_COORD97"},{"name":"ADDRESS","type":"esriFieldTypeString","alias":"ADDRESS","length":50},{"name":"OBJECTID","type":"esriFieldTypeOID","alias":"OBJECTID"}],"features":[{"attributes":{"ID":50801,"DIS_CODE":0,"TOWNNAME":"安定區","LI":"海寮里","LIN":"1鄰","STREET":" ","SECT":" ","MAREA":"海寮","LANE":" ","ALLEY":" ","HOUSE_NO":"１４之３號","E_COORD97":169195.39000000001,"N_COORD97":2555034.2999999998,"ADDRESS":"海寮１４之３號","OBJECTID":50801},"geometry":{"x":169195.3900000006,"y":2555034.3000000007}},{"attributes":{"ID":50802,"DIS_CODE":0,"TOWNNAME":"安定區","LI":"南安里","LIN":"1鄰","STREET":" ","SECT":" ","MAREA":"油車","LANE":" ","ALLEY":" ","HOUSE_NO":"６之２０號","E_COORD97":170779.14000000001,"N_COORD97":2555963.2999999998,"ADDRESS":"油車６之２０號","OBJECTID":50802},"geometry":{"x":170779.1400000006,"y":2555963.3000000007}},{"attributes":{"ID":50803,"DIS_CODE":0,"TOWNNAME":"南區","LI":"喜南里","LIN":"15鄰","STREET":"喜樹路","SECT":" ","MAREA":" ","LANE":"２２２巷","ALLEY":"３７弄","HOUSE_NO":"５號","E_COORD97":165546.94,"N_COORD97":2538011.2999999998,"ADDRESS":"喜樹路２２２巷３７弄５號","OBJECTID":50803},"geometry":{"x":165546.94000000041,"y":2538011.3000000007}},{"attributes":{"ID":50804,"DIS_CODE":0,"TOWNNAME":"南區","LI":"喜南里","LIN":"15鄰","STREET":"喜樹路","SECT":" ","MAREA":" ","LANE":"２２２巷","ALLEY":"３７弄","HOUSE_NO":"６號","E_COORD97":165532.20000000001,"N_COORD97":2538022.2599999998,"ADDRESS":"喜樹路２２２巷３７弄６號","OBJECTID":50804},"geometry":{"x":165532.20000000112,"y":2538022.2600000016}},{"attributes":{"ID":50805,"DIS_CODE":0,"TOWNNAME":"南區","LI":"喜南里","LIN":"15鄰","STREET":"喜樹路","SECT":" ","MAREA":" ","LANE":"２２２巷","ALLEY":"３７弄","HOUSE_NO":"７號","E_COORD97":165548.57000000001,"N_COORD97":2537993.9700000002,"ADDRESS":"喜樹路２２２巷３７弄７號","OBJECTID":50805},"geometry":{"x":165548.57000000123,"y":2537993.9700000025}},{"attributes":{"ID":50806,"DIS_CODE":0,"TOWNNAME":"南區","LI":"喜南里","LIN":"15鄰","STREET":"喜樹路","SECT":" ","MAREA":" ","LANE":"２２２巷","ALLEY":"３７弄","HOUSE_NO":"９號","E_COORD97":165540.29000000001,"N_COORD97":2537988.3999999999,"ADDRESS":"喜樹路２２２巷３７弄９號","OBJECTID":50806},"geometry":{"x":165540.29000000097,"y":2537988.4000000022}},{"attributes":{"ID":50807,"DIS_CODE":0,"TOWNNAME":"歸仁區","LI":"南保里","LIN":"15鄰","STREET":"文化十街","SECT":" ","MAREA":" ","LANE":"１０巷","ALLEY":"１９弄","HOUSE_NO":"２號","E_COORD97":176692.07000000001,"N_COORD97":2541272.2599999998,"ADDRESS":"文化十街１０巷１９弄２號","OBJECTID":50807},"geometry":{"x":176692.0700000003,"y":2541272.2599999998}},{"attributes":{"ID":50808,"DIS_CODE":0,"TOWNNAME":"歸仁區","LI":"南興里","LIN":"15鄰","STREET":"文化街","SECT":"三段","MAREA":" ","LANE":"５５０巷","ALLEY":"２４弄","HOUSE_NO":"８號","E_COORD97":175773.76999999999,"N_COORD97":2541269.2599999998,"ADDRESS":"文化街三段５５０巷２４弄８號","OBJECTID":50808},"geometry":{"x":175773.77000000048,"y":2541269.2600000035}},{"attributes":{"ID":50809,"DIS_CODE":0,"TOWNNAME":"歸仁區","LI":"南興里","LIN":"15鄰","STREET":"文化街","SECT":"三段","MAREA":" ","LANE":"５５０巷","ALLEY":"２４弄","HOUSE_NO":"６號","E_COORD97":175769.67000000001,"N_COORD97":2541269.2599999998,"ADDRESS":"文化街三段５５０巷２４弄６號","OBJECTID":50809},"geometry":{"x":175769.67000000086,"y":2541269.2600000035}},{"attributes":{"ID":50810,"DIS_CODE":0,"TOWNNAME":"北區","LI":"賢北里","LIN":"15鄰","STREET":"大興街","SECT":" ","MAREA":" ","LANE":"５８５巷","ALLEY":"１５弄","HOUSE_NO":"２號","E_COORD97":165998.57999999999,"N_COORD97":2545351.0499999998,"ADDRESS":"大興街５８５巷１５弄２號","OBJECTID":50810},"geometry":{"x":165998.58000000007,"y":2545351.0500000026}},{"attributes":{"ID":50811,"DIS_CODE":0,"TOWNNAME":"北區","LI":"賢北里","LIN":"15鄰","STREET":"大興街","SECT":" ","MAREA":" ","LANE":"５８５巷","ALLEY":"１５弄","HOUSE_NO":"６號","E_COORD97":166003,"N_COORD97":2545352.6800000002,"ADDRESS":"大興街５８５巷１５弄６號","OBJECTID":50811},"geometry":{"x":166003.00000000093,"y":2545352.6800000016}},{"attributes":{"ID":50812,"DIS_CODE":0,"TOWNNAME":"北區","LI":"賢北里","LIN":"15鄰","STREET":"大興街","SECT":" ","MAREA":" ","LANE":"５８５巷","ALLEY":"１５弄","HOUSE_NO":"８號","E_COORD97":166007.09,"N_COORD97":2545354.48,"ADDRESS":"大興街５８５巷１５弄８號","OBJECTID":50812},"geometry":{"x":166007.09000000171,"y":2545354.4800000023}},{"attributes":{"ID":50813,"DIS_CODE":0,"TOWNNAME":"北區","LI":"賢北里","LIN":"15鄰","STREET":"大興街","SECT":" ","MAREA":" ","LANE":"５８５巷","ALLEY":"１５弄","HOUSE_NO":"１０號","E_COORD97":166011.67999999999,"N_COORD97":2545356.29,"ADDRESS":"大興街５８５巷１５弄１０號","OBJECTID":50813},"geometry":{"x":166011.68000000063,"y":2545356.2899999991}},{"attributes":{"ID":50814,"DIS_CODE":0,"TOWNNAME":"北區","LI":"賢北里","LIN":"15鄰","STREET":"大興街","SECT":" ","MAREA":" ","LANE":"５８５巷","ALLEY":"１５弄","HOUSE_NO":"１２號","E_COORD97":166016.42999999999,"N_COORD97":2545358.7400000002,"ADDRESS":"大興街５８５巷１５弄１２號","OBJECTID":50814},"geometry":{"x":166016.43000000156,"y":2545358.7400000039}},{"attributes":{"ID":50815,"DIS_CODE":0,"TOWNNAME":"北區","LI":"賢北里","LIN":"15鄰","STREET":"大興街","SECT":" ","MAREA":" ","LANE":"５８５巷","ALLEY":"１５弄","HOUSE_NO":"１６號","E_COORD97":166020.19,"N_COORD97":2545360.71,"ADDRESS":"大興街５８５巷１５弄１６號","OBJECTID":50815},"geometry":{"x":166020.19000000041,"y":2545360.7100000028}},{"attributes":{"ID":50816,"DIS_CODE":0,"TOWNNAME":"北區","LI":"賢北里","LIN":"15鄰","STREET":"大興街","SECT":" ","MAREA":" ","LANE":"５８５巷","ALLEY":"１５弄","HOUSE_NO":"１８號","E_COORD97":166024.60999999999,"N_COORD97":2545363,"ADDRESS":"大興街５８５巷１５弄１８號","OBJECTID":50816},"geometry":{"x":166024.61000000127,"y":2545363}},{"attributes":{"ID":50817,"DIS_CODE":0,"TOWNNAME":"北區","LI":"賢北里","LIN":"15鄰","STREET":"大興街","SECT":" ","MAREA":" ","LANE":"５８５巷","ALLEY":"１５弄","HOUSE_NO":"２０號","E_COORD97":166029.53,"N_COORD97":2545365.29,"ADDRESS":"大興街５８５巷１５弄２０號","OBJECTID":50817},"geometry":{"x":166029.53000000026,"y":2545365.290000001}},{"attributes":{"ID":50818,"DIS_CODE":0,"TOWNNAME":"北區","LI":"賢北里","LIN":"15鄰","STREET":"大興街","SECT":" ","MAREA":" ","LANE":"５８５巷","ALLEY":"１５弄","HOUSE_NO":"２２號","E_COORD97":166033.45000000001,"N_COORD97":2545366.7599999998,"ADDRESS":"大興街５８５巷１５弄２２號","OBJECTID":50818},"geometry":{"x":166033.45000000019,"y":2545366.7599999998}},{"attributes":{"ID":50819,"DIS_CODE":0,"TOWNNAME":"安定區","LI":"安加里","LIN":"1鄰","STREET":" ","SECT":" ","MAREA":"安定","LANE":" ","ALLEY":" ","HOUSE_NO":"１５９之１６號","E_COORD97":171986.26999999999,"N_COORD97":2557571.3199999998,"ADDRESS":"安定１５９之１６號","OBJECTID":50819},"geometry":{"x":171986.27000000142,"y":2557571.3200000022}},{"attributes":{"ID":50820,"DIS_CODE":0,"TOWNNAME":"北區","LI":"賢北里","LIN":"15鄰","STREET":"大興街","SECT":" ","MAREA":" ","LANE":"５８５巷","ALLEY":"１５弄","HOUSE_NO":"２６號","E_COORD97":166037.88,"N_COORD97":2545368.5600000001,"ADDRESS":"大興街５８５巷１５弄２６號","OBJECTID":50820},"geometry":{"x":166037.88000000082,"y":2545368.5600000024}},{"attributes":{"ID":50821,"DIS_CODE":0,"TOWNNAME":"北區","LI":"賢北里","LIN":"15鄰","STREET":"大興街","SECT":" ","MAREA":" ","LANE":"５８５巷","ALLEY":"１５弄","HOUSE_NO":"２８號","E_COORD97":166042.62,"N_COORD97":2545370.3700000001,"ADDRESS":"大興街５８５巷１５弄２８號","OBJECTID":50821},"geometry":{"x":166042.62000000011,"y":2545370.3700000029}},{"attributes":{"ID":50822,"DIS_CODE":0,"TOWNNAME":"安定區","LI":"安加里","LIN":"1鄰","STREET":" ","SECT":" ","MAREA":"安定","LANE":" ","ALLEY":" ","HOUSE_NO":"１５８號之６","E_COORD97":172057.66,"N_COORD97":2557585.3199999998,"ADDRESS":"安定１５８號之６","OBJECTID":50822},"geometry":{"x":172057.66000000108,"y":2557585.3200000022}},{"attributes":{"ID":50823,"DIS_CODE":0,"TOWNNAME":"新市區","LI":"新市里","LIN":" ","STREET":"仁愛街","SECT":" ","MAREA":" ","LANE":" ","ALLEY":" ","HOUSE_NO":"３０６之２號","E_COORD97":177663.34,"N_COORD97":2553013.5499999998,"ADDRESS":"仁愛街３０６之２號","OBJECTID":50823},"geometry":{"x":177663.34000000171,"y":2553013.5500000026}},{"attributes":{"ID":50824,"DIS_CODE":0,"TOWNNAME":"安定區","LI":"南安里","LIN":"1鄰","STREET":" ","SECT":" ","MAREA":"油車","LANE":" ","ALLEY":" ","HOUSE_NO":"８號之２","E_COORD97":170814.06,"N_COORD97":2555927.2999999998,"ADDRESS":"油車８號之２","OBJECTID":50824},"geometry":{"x":170814.05999999959,"y":2555927.3000000026}},{"attributes":{"ID":50825,"DIS_CODE":0,"TOWNNAME":"安定區","LI":"海寮里","LIN":"1鄰","STREET":" ","SECT":" ","MAREA":"海寮","LANE":" ","ALLEY":" ","HOUSE_NO":"１２之１５號","E_COORD97":169124.14000000001,"N_COORD97":2555168.2999999998,"ADDRESS":"海寮１２之１５號","OBJECTID":50825},"geometry":{"x":169124.14000000153,"y":2555168.3000000026}},{"attributes":{"ID":50826,"DIS_CODE":0,"TOWNNAME":"安定區","LI":"南安里","LIN":"1鄰","STREET":" ","SECT":" ","MAREA":"油車","LANE":" ","ALLEY":" ","HOUSE_NO":"８號之４","E_COORD97":170805.64999999999,"N_COORD97":2555929.2999999998,"ADDRESS":"油車８號之４","OBJECTID":50826},"geometry":{"x":170805.65000000037,"y":2555929.3000000007}},{"attributes":{"ID":50827,"DIS_CODE":0,"TOWNNAME":"安定區","LI":"南安里","LIN":"1鄰","STREET":" ","SECT":" ","MAREA":"油車","LANE":" ","ALLEY":" ","HOUSE_NO":"４號之３","E_COORD97":170878.32000000001,"N_COORD97":2555880.2999999998,"ADDRESS":"油車４號之３","OBJECTID":50827},"geometry":{"x":170878.32000000123,"y":2555880.3000000026}},{"attributes":{"ID":50828,"DIS_CODE":0,"TOWNNAME":"北區","LI":"賢北里","LIN":"15鄰","STREET":"大興街","SECT":" ","MAREA":" ","LANE":"５８５巷","ALLEY":"１５弄","HOUSE_NO":"３０號","E_COORD97":166047.04000000001,"N_COORD97":2545372.3300000001,"ADDRESS":"大興街５８５巷１５弄３０號","OBJECTID":50828},"geometry":{"x":166047.04000000097,"y":2545372.3300000019}},{"attributes":{"ID":50829,"DIS_CODE":0,"TOWNNAME":"北區","LI":"賢北里","LIN":"15鄰","STREET":"大興街","SECT":" ","MAREA":" ","LANE":"５８５巷","ALLEY":"１７弄","HOUSE_NO":"１號","E_COORD97":166004.14999999999,"N_COORD97":2545338.6000000001,"ADDRESS":"大興街５８５巷１７弄１號","OBJECTID":50829},"geometry":{"x":166004.1500000013,"y":2545338.6000000034}},{"attributes":{"ID":50830,"DIS_CODE":0,"TOWNNAME":"北區","LI":"賢北里","LIN":"15鄰","STREET":"大興街","SECT":" ","MAREA":" ","LANE":"５８５巷","ALLEY":"１７弄","HOUSE_NO":"３號","E_COORD97":166009.70999999999,"N_COORD97":2545340.8999999999,"ADDRESS":"大興街５８５巷１７弄３號","OBJECTID":50830},"geometry":{"x":166009.70999999903,"y":2545340.9000000041}},{"attributes":{"ID":50831,"DIS_CODE":0,"TOWNNAME":"北區","LI":"賢北里","LIN":"15鄰","STREET":"大興街","SECT":" ","MAREA":" ","LANE":"５８５巷","ALLEY":"１７弄","HOUSE_NO":"５號","E_COORD97":166015.28,"N_COORD97":2545343.5099999998,"ADDRESS":"大興街５８５巷１７弄５號","OBJECTID":50831},"geometry":{"x":166015.28000000119,"y":2545343.5100000016}},{"attributes":{"ID":50832,"DIS_CODE":0,"TOWNNAME":"北區","LI":"賢北里","LIN":"15鄰","STREET":"大興街","SECT":" ","MAREA":" ","LANE":"５８５巷","ALLEY":"１７弄","HOUSE_NO":"７號","E_COORD97":166020.35999999999,"N_COORD97":2545345.6400000001,"ADDRESS":"大興街５８５巷１７弄７號","OBJECTID":50832},"geometry":{"x":166020.36000000034,"y":2545345.6400000006}},{"attributes":{"ID":50833,"DIS_CODE":0,"TOWNNAME":"北區","LI":"賢北里","LIN":"15鄰","STREET":"大興街","SECT":" ","MAREA":" ","LANE":"５８５巷","ALLEY":"１７弄","HOUSE_NO":"９號","E_COORD97":166025.60000000001,"N_COORD97":2545348.1000000001,"ADDRESS":"大興街５８５巷１７弄９號","OBJECTID":50833},"geometry":{"x":166025.60000000056,"y":2545348.0999999996}},{"attributes":{"ID":50834,"DIS_CODE":0,"TOWNNAME":"北區","LI":"賢北里","LIN":"15鄰","STREET":"大興街","SECT":" ","MAREA":" ","LANE":"５８５巷","ALLEY":"１７弄","HOUSE_NO":"１１號","E_COORD97":166031,"N_COORD97":2545350.3900000001,"ADDRESS":"大興街５８５巷１７弄１１號","OBJECTID":50834},"geometry":{"x":166031,"y":2545350.3900000006}},{"attributes":{"ID":50835,"DIS_CODE":0,"TOWNNAME":"北區","LI":"賢北里","LIN":"15鄰","STREET":"大興街","SECT":" ","MAREA":" ","LANE":"５８５巷","ALLEY":"１７弄","HOUSE_NO":"１３號","E_COORD97":166036.39999999999,"N_COORD97":2545353.3399999999,"ADDRESS":"大興街５８５巷１７弄１３號","OBJECTID":50835},"geometry":{"x":166036.4000000013,"y":2545353.3399999999}},{"attributes":{"ID":50836,"DIS_CODE":0,"TOWNNAME":"北區","LI":"賢北里","LIN":"15鄰","STREET":"大興街","SECT":" ","MAREA":" ","LANE":"５８５巷","ALLEY":"１７弄","HOUSE_NO":"１５號","E_COORD97":166041.97,"N_COORD97":2545355.6299999999,"ADDRESS":"大興街５８５巷１７弄１５號","OBJECTID":50836},"geometry":{"x":166041.97000000067,"y":2545355.6300000008}},{"attributes":{"ID":50837,"DIS_CODE":0,"TOWNNAME":"北區","LI":"賢北里","LIN":"15鄰","STREET":"大興街","SECT":" ","MAREA":" ","LANE":"５８５巷","ALLEY":"１７弄","HOUSE_NO":"１７號","E_COORD97":166047.04000000001,"N_COORD97":2545357.6000000001,"ADDRESS":"大興街５８５巷１７弄１７號","OBJECTID":50837},"geometry":{"x":166047.04000000097,"y":2545357.5999999996}},{"attributes":{"ID":50838,"DIS_CODE":0,"TOWNNAME":"歸仁區","LI":"武東里","LIN":"11鄰","STREET":"中正南路","SECT":"二段","MAREA":" ","LANE":"２巷","ALLEY":"５０１弄","HOUSE_NO":"２５１號","E_COORD97":174660.91399999999,"N_COORD97":2536244.6935800002,"ADDRESS":"中正南路二段２巷５０１弄２５１號","OBJECTID":50838},"geometry":{"x":174660.91399999987,"y":2536244.693581}},{"attributes":{"ID":50839,"DIS_CODE":0,"TOWNNAME":"北區","LI":"賢北里","LIN":"15鄰","STREET":"大興街","SECT":" ","MAREA":" ","LANE":"５８５巷","ALLEY":"１７弄","HOUSE_NO":"１９號","E_COORD97":166051.79000000001,"N_COORD97":2545359.7200000002,"ADDRESS":"大興街５８５巷１７弄１９號","OBJECTID":50839},"geometry":{"x":166051.7900000019,"y":2545359.7200000025}},{"attributes":{"ID":50840,"DIS_CODE":0,"TOWNNAME":"北區","LI":"賢北里","LIN":"15鄰","STREET":"大興街","SECT":" ","MAREA":" ","LANE":"５８５巷","ALLEY":"１７弄","HOUSE_NO":"２號","E_COORD97":166007.42000000001,"N_COORD97":2545331.2400000002,"ADDRESS":"大興街５８５巷１７弄２號","OBJECTID":50840},"geometry":{"x":166007.42000000086,"y":2545331.2400000002}},{"attributes":{"ID":50841,"DIS_CODE":0,"TOWNNAME":"北區","LI":"賢北里","LIN":"15鄰","STREET":"大興街","SECT":" ","MAREA":" ","LANE":"５８５巷","ALLEY":"１７弄","HOUSE_NO":"６號","E_COORD97":166012.5,"N_COORD97":2545333.6899999999,"ADDRESS":"大興街５８５巷１７弄６號","OBJECTID":50841},"geometry":{"x":166012.5,"y":2545333.6899999995}},{"attributes":{"ID":50842,"DIS_CODE":0,"TOWNNAME":"安定區","LI":"海寮里","LIN":"1鄰","STREET":" ","SECT":" ","MAREA":"海寮","LANE":" ","ALLEY":" ","HOUSE_NO":"３之３號","E_COORD97":168992.64000000001,"N_COORD97":2555188.2999999998,"ADDRESS":"海寮３之３號","OBJECTID":50842},"geometry":{"x":168992.63999999966,"y":2555188.3000000026}},{"attributes":{"ID":50843,"DIS_CODE":0,"TOWNNAME":"安定區","LI":"南安里","LIN":"1鄰","STREET":" ","SECT":" ","MAREA":"油車","LANE":" ","ALLEY":" ","HOUSE_NO":"６之１６號","E_COORD97":170775.23999999999,"N_COORD97":2555948.2999999998,"ADDRESS":"油車６之１６號","OBJECTID":50843},"geometry":{"x":170775.24000000115,"y":2555948.3000000026}},{"attributes":{"ID":50844,"DIS_CODE":0,"TOWNNAME":"北區","LI":"賢北里","LIN":"15鄰","STREET":"大興街","SECT":" ","MAREA":" ","LANE":"５８５巷","ALLEY":"１７弄","HOUSE_NO":"８號","E_COORD97":166017.25,"N_COORD97":2545335.4900000002,"ADDRESS":"大興街５８５巷１７弄８號","OBJECTID":50844},"geometry":{"x":166017.25,"y":2545335.4900000002}},{"attributes":{"ID":50845,"DIS_CODE":0,"TOWNNAME":"北區","LI":"賢北里","LIN":"15鄰","STREET":"大興街","SECT":" ","MAREA":" ","LANE":"５８５巷","ALLEY":"１７弄","HOUSE_NO":"１０號","E_COORD97":166022.81,"N_COORD97":2545337.9500000002,"ADDRESS":"大興街５８５巷１７弄１０號","OBJECTID":50845},"geometry":{"x":166022.81000000052,"y":2545337.9499999993}},{"attributes":{"ID":50846,"DIS_CODE":0,"TOWNNAME":"北區","LI":"賢北里","LIN":"15鄰","STREET":"大興街","SECT":" ","MAREA":" ","LANE":"５８５巷","ALLEY":"１７弄","HOUSE_NO":"１２號","E_COORD97":166028.54000000001,"N_COORD97":2545340.5699999998,"ADDRESS":"大興街５８５巷１７弄１２號","OBJECTID":50846},"geometry":{"x":166028.54000000097,"y":2545340.5700000022}},{"attributes":{"ID":50847,"DIS_CODE":0,"TOWNNAME":"北區","LI":"賢北里","LIN":"15鄰","STREET":"大興街","SECT":" ","MAREA":" ","LANE":"５８５巷","ALLEY":"１７弄","HOUSE_NO":"１６號","E_COORD97":166034.26999999999,"N_COORD97":2545342.8599999999,"ADDRESS":"大興街５８５巷１７弄１６號","OBJECTID":50847},"geometry":{"x":166034.26999999862,"y":2545342.8599999994}},{"attributes":{"ID":50848,"DIS_CODE":0,"TOWNNAME":"北區","LI":"賢北里","LIN":"15鄰","STREET":"大興街","SECT":" ","MAREA":" ","LANE":"５８５巷","ALLEY":"１７弄","HOUSE_NO":"１８號","E_COORD97":166039.51000000001,"N_COORD97":2545345.48,"ADDRESS":"大興街５８５巷１７弄１８號","OBJECTID":50848},"geometry":{"x":166039.50999999978,"y":2545345.4800000004}},{"attributes":{"ID":50849,"DIS_CODE":0,"TOWNNAME":"南區","LI":"再興里","LIN":"17鄰","STREET":"金華路","SECT":"二段","MAREA":" ","LANE":" ","ALLEY":" ","HOUSE_NO":"２３４號","E_COORD97":167112.60000000001,"N_COORD97":2542393.5800000001,"ADDRESS":"金華路二段２３４號","OBJECTID":50849},"geometry":{"x":167112.60000000056,"y":2542393.5800000019}},{"attributes":{"ID":50850,"DIS_CODE":0,"TOWNNAME":"南區","LI":"再興里","LIN":"17鄰","STREET":"金華路","SECT":"二段","MAREA":" ","LANE":" ","ALLEY":" ","HOUSE_NO":"２３６號","E_COORD97":167112.75,"N_COORD97":2542398.4199999999,"ADDRESS":"金華路二段２３６號","OBJECTID":50850},"geometry":{"x":167112.75,"y":2542398.4200000018}},{"attributes":{"ID":50851,"DIS_CODE":0,"TOWNNAME":"南區","LI":"再興里","LIN":"17鄰","STREET":"金華路","SECT":"二段","MAREA":" ","LANE":" ","ALLEY":" ","HOUSE_NO":"２４６號","E_COORD97":167115.82999999999,"N_COORD97":2542433.0800000001,"ADDRESS":"金華路二段２４６號","OBJECTID":50851},"geometry":{"x":167115.83000000007,"y":2542433.0800000001}},{"attributes":{"ID":50852,"DIS_CODE":0,"TOWNNAME":"南區","LI":"再興里","LIN":"17鄰","STREET":"金華路","SECT":"二段","MAREA":" ","LANE":" ","ALLEY":" ","HOUSE_NO":"２４８號","E_COORD97":167115.98000000001,"N_COORD97":2542437.1800000002,"ADDRESS":"金華路二段２４８號","OBJECTID":50852},"geometry":{"x":167115.98000000138,"y":2542437.1800000016}},{"attributes":{"ID":50853,"DIS_CODE":0,"TOWNNAME":"南區","LI":"再興里","LIN":"17鄰","STREET":"金華路","SECT":"二段","MAREA":" ","LANE":" ","ALLEY":" ","HOUSE_NO":"２５０號","E_COORD97":167116.72,"N_COORD97":2542448.9199999999,"ADDRESS":"金華路二段２５０號","OBJECTID":50853},"geometry":{"x":167116.72000000067,"y":2542448.9200000018}},{"attributes":{"ID":50854,"DIS_CODE":0,"TOWNNAME":"歸仁區","LI":"八甲里","LIN":"18鄰","STREET":"大仁六街","SECT":" ","MAREA":" ","LANE":" ","ALLEY":" ","HOUSE_NO":"３６號","E_COORD97":178030.09,"N_COORD97":2541478.25,"ADDRESS":"大仁六街３６號","OBJECTID":50854},"geometry":{"x":178030.09000000078,"y":2541478.25}},{"attributes":{"ID":50855,"DIS_CODE":0,"TOWNNAME":"北區","LI":"賢北里","LIN":"15鄰","STREET":"大興街","SECT":" ","MAREA":" ","LANE":"５８５巷","ALLEY":"１７弄","HOUSE_NO":"２０號","E_COORD97":166044.92000000001,"N_COORD97":2545348.1000000001,"ADDRESS":"大興街５８５巷１７弄２０號","OBJECTID":50855},"geometry":{"x":166044.91999999993,"y":2545348.0999999996}},{"attributes":{"ID":50856,"DIS_CODE":0,"TOWNNAME":"北區","LI":"賢北里","LIN":"15鄰","STREET":"大興街","SECT":" ","MAREA":" ","LANE":"５８５巷","ALLEY":"１７弄","HOUSE_NO":"２２號","E_COORD97":166050.14999999999,"N_COORD97":2545350.3900000001,"ADDRESS":"大興街５８５巷１７弄２２號","OBJECTID":50856},"geometry":{"x":166050.1500000013,"y":2545350.3900000006}},{"attributes":{"ID":50857,"DIS_CODE":0,"TOWNNAME":"北區","LI":"賢北里","LIN":"15鄰","STREET":"大興街","SECT":" ","MAREA":" ","LANE":"５８５巷","ALLEY":"１７弄","HOUSE_NO":"２６號","E_COORD97":166055.23000000001,"N_COORD97":2545352.3599999999,"ADDRESS":"大興街５８５巷１７弄２６號","OBJECTID":50857},"geometry":{"x":166055.23000000045,"y":2545352.3599999994}},{"attributes":{"ID":50858,"DIS_CODE":0,"TOWNNAME":"安定區","LI":"海寮里","LIN":"1鄰","STREET":" ","SECT":" ","MAREA":"海寮","LANE":" ","ALLEY":" ","HOUSE_NO":"１９號之１０","E_COORD97":169286.13,"N_COORD97":2555154.2999999998,"ADDRESS":"海寮１９號之１０","OBJECTID":50858},"geometry":{"x":169286.13000000082,"y":2555154.3000000026}},{"attributes":{"ID":50859,"DIS_CODE":0,"TOWNNAME":"安南區","LI":"海佃里","LIN":"15鄰","STREET":"國安街","SECT":" ","MAREA":" ","LANE":"５６巷","ALLEY":"１４１弄","HOUSE_NO":"４２號之１","E_COORD97":166819.48999999999,"N_COORD97":2547467.6699999999,"ADDRESS":"國安街５６巷１４１弄４２號之１","OBJECTID":50859},"geometry":{"x":166819.49000000022,"y":2547467.6700000037}},{"attributes":{"ID":50860,"DIS_CODE":0,"TOWNNAME":"安定區","LI":"安定里","LIN":"1鄰","STREET":" ","SECT":" ","MAREA":"領寄","LANE":" ","ALLEY":" ","HOUSE_NO":"１２號","E_COORD97":173466.98999999999,"N_COORD97":2557060.25,"ADDRESS":"領寄１２號","OBJECTID":50860},"geometry":{"x":173466.99000000209,"y":2557060.2500000019}},{"attributes":{"ID":50861,"DIS_CODE":0,"TOWNNAME":"安定區","LI":"海寮里","LIN":"1鄰","STREET":" ","SECT":" ","MAREA":"海寮","LANE":" ","ALLEY":" ","HOUSE_NO":"１２之１１號","E_COORD97":169126.34,"N_COORD97":2555148.2999999998,"ADDRESS":"海寮１２之１１號","OBJECTID":50861},"geometry":{"x":169126.34000000171,"y":2555148.3000000026}},{"attributes":{"ID":50862,"DIS_CODE":0,"TOWNNAME":"安定區","LI":"港南里","LIN":"1鄰","STREET":" ","SECT":" ","MAREA":"港口","LANE":" ","ALLEY":" ","HOUSE_NO":"１之７２號","E_COORD97":170039.14000000001,"N_COORD97":2554522.2999999998,"ADDRESS":"港口１之７２號","OBJECTID":50862},"geometry":{"x":170039.13999999966,"y":2554522.3000000007}},{"attributes":{"ID":50863,"DIS_CODE":0,"TOWNNAME":"安定區","LI":"蘇林里","LIN":"1鄰","STREET":" ","SECT":" ","MAREA":"蘇厝","LANE":" ","ALLEY":" ","HOUSE_NO":"１號之２３","E_COORD97":174302.29999999999,"N_COORD97":2558632.2999999998,"ADDRESS":"蘇厝１號之２３","OBJECTID":50863},"geometry":{"x":174302.30000000075,"y":2558632.3000000045}},{"attributes":{"ID":50864,"DIS_CODE":0,"TOWNNAME":"安定區","LI":"港南里","LIN":"1鄰","STREET":" ","SECT":" ","MAREA":"港口","LANE":" ","ALLEY":" ","HOUSE_NO":"１之１７號","E_COORD97":170942.73999999999,"N_COORD97":2554139.2999999998,"ADDRESS":"港口１之１７號","OBJECTID":50864},"geometry":{"x":170942.73999999929,"y":2554139.3000000007}},{"attributes":{"ID":50865,"DIS_CODE":0,"TOWNNAME":"安定區","LI":"六嘉里","LIN":"1鄰","STREET":" ","SECT":" ","MAREA":"六塊寮","LANE":" ","ALLEY":" ","HOUSE_NO":"４號","E_COORD97":170472.47,"N_COORD97":2553620.27,"ADDRESS":"六塊寮４號","OBJECTID":50865},"geometry":{"x":170472.46999999974,"y":2553620.2700000033}},{"attributes":{"ID":50866,"DIS_CODE":0,"TOWNNAME":"安定區","LI":"蘇林里","LIN":"1鄰","STREET":" ","SECT":" ","MAREA":"蘇厝","LANE":" ","ALLEY":" ","HOUSE_NO":"１號之１１","E_COORD97":174124.10000000001,"N_COORD97":2558586.2999999998,"ADDRESS":"蘇厝１號之１１","OBJECTID":50866},"geometry":{"x":174124.10000000056,"y":2558586.3000000026}},{"attributes":{"ID":50867,"DIS_CODE":0,"TOWNNAME":"安定區","LI":"蘇林里","LIN":"1鄰","STREET":" ","SECT":" ","MAREA":"蘇厝","LANE":" ","ALLEY":" ","HOUSE_NO":"７之９號","E_COORD97":173562.12,"N_COORD97":2558424.2999999998,"ADDRESS":"蘇厝７之９號","OBJECTID":50867},"geometry":{"x":173562.12000000011,"y":2558424.3000000007}},{"attributes":{"ID":50868,"DIS_CODE":0,"TOWNNAME":"永康區","LI":"安康里","LIN":"15鄰","STREET":"中華路","SECT":" ","MAREA":" ","LANE":"６１９巷","ALLEY":"８８弄","HOUSE_NO":"６６之３號","E_COORD97":170958.79999999999,"N_COORD97":2546105.5899999999,"ADDRESS":"中華路６１９巷８８弄６６之３號","OBJECTID":50868},"geometry":{"x":170958.79999999981,"y":2546105.5900000017}},{"attributes":{"ID":50869,"DIS_CODE":0,"TOWNNAME":"永康區","LI":"安康里","LIN":"15鄰","STREET":"中華路","SECT":" ","MAREA":" ","LANE":"６１９巷","ALLEY":"８８弄","HOUSE_NO":"６６之１號","E_COORD97":170950.23999999999,"N_COORD97":2546101.2599999998,"ADDRESS":"中華路６１９巷８８弄６６之１號","OBJECTID":50869},"geometry":{"x":170950.24000000115,"y":2546101.2600000016}},{"attributes":{"ID":50870,"DIS_CODE":0,"TOWNNAME":"永康區","LI":"安康里","LIN":"15鄰","STREET":"中華路","SECT":" ","MAREA":" ","LANE":"６１９巷","ALLEY":"８８弄","HOUSE_NO":"６６之２號","E_COORD97":170956.95999999999,"N_COORD97":2546099.4199999999,"ADDRESS":"中華路６１９巷８８弄６６之２號","OBJECTID":50870},"geometry":{"x":170956.96000000089,"y":2546099.4199999981}},{"attributes":{"ID":50871,"DIS_CODE":0,"TOWNNAME":"南區","LI":"日新里","LIN":"15鄰","STREET":"新興路","SECT":" ","MAREA":" ","LANE":"４６１巷","ALLEY":"１０弄","HOUSE_NO":"１０號","E_COORD97":166844.51000000001,"N_COORD97":2541626.2999999998,"ADDRESS":"新興路４６１巷１０弄１０號","OBJECTID":50871},"geometry":{"x":166844.50999999978,"y":2541626.3000000026}},{"attributes":{"ID":50872,"DIS_CODE":0,"TOWNNAME":"南區","LI":"府南里","LIN":"17鄰","STREET":"大成路","SECT":"二段","MAREA":" ","LANE":" ","ALLEY":" ","HOUSE_NO":"１５５號","E_COORD97":167285.62,"N_COORD97":2541720.96,"ADDRESS":"大成路二段１５５號","OBJECTID":50872},"geometry":{"x":167285.62000000104,"y":2541720.9600000028}},{"attributes":{"ID":50873,"DIS_CODE":0,"TOWNNAME":"南區","LI":"府南里","LIN":"17鄰","STREET":"大成路","SECT":"二段","MAREA":" ","LANE":" ","ALLEY":" ","HOUSE_NO":"１５７號","E_COORD97":167281.23000000001,"N_COORD97":2541721.0899999999,"ADDRESS":"大成路二段１５７號","OBJECTID":50873},"geometry":{"x":167281.23000000045,"y":2541721.0899999999}},{"attributes":{"ID":50874,"DIS_CODE":0,"TOWNNAME":"南區","LI":"府南里","LIN":"17鄰","STREET":"大成路","SECT":"二段","MAREA":" ","LANE":" ","ALLEY":" ","HOUSE_NO":"１５９號","E_COORD97":167276.23000000001,"N_COORD97":2541721.0899999999,"ADDRESS":"大成路二段１５９號","OBJECTID":50874},"geometry":{"x":167276.23000000045,"y":2541721.0899999999}},{"attributes":{"ID":50875,"DIS_CODE":0,"TOWNNAME":"安定區","LI":"管寮里","LIN":"1鄰","STREET":" ","SECT":" ","MAREA":"管寮","LANE":" ","ALLEY":" ","HOUSE_NO":"１１號之１","E_COORD97":169990.78,"N_COORD97":2556191.2999999998,"ADDRESS":"管寮１１號之１","OBJECTID":50875},"geometry":{"x":169990.78000000119,"y":2556191.3000000045}},{"attributes":{"ID":50876,"DIS_CODE":0,"TOWNNAME":"安定區","LI":"中榮里","LIN":"1鄰","STREET":" ","SECT":" ","MAREA":"許中營","LANE":" ","ALLEY":" ","HOUSE_NO":"１１號之１１","E_COORD97":172138.53,"N_COORD97":2554426.2999999998,"ADDRESS":"許中營１１號之１１","OBJECTID":50876},"geometry":{"x":172138.53000000119,"y":2554426.3000000026}},{"attributes":{"ID":50877,"DIS_CODE":0,"TOWNNAME":"安定區","LI":"南安里","LIN":"1鄰","STREET":" ","SECT":" ","MAREA":"油車","LANE":" ","ALLEY":" ","HOUSE_NO":"１０號","E_COORD97":170787.94,"N_COORD97":2555883.25,"ADDRESS":"油車１０號","OBJECTID":50877},"geometry":{"x":170787.94000000134,"y":2555883.2500000019}},{"attributes":{"ID":50878,"DIS_CODE":0,"TOWNNAME":"安定區","LI":"蘇厝里","LIN":"1鄰","STREET":" ","SECT":" ","MAREA":"蘇厝","LANE":" ","ALLEY":" ","HOUSE_NO":"２７５號","E_COORD97":173387.12,"N_COORD97":2558535.25,"ADDRESS":"蘇厝２７５號","OBJECTID":50878},"geometry":{"x":173387.12000000104,"y":2558535.25}},{"attributes":{"ID":50879,"DIS_CODE":0,"TOWNNAME":"安定區","LI":"六嘉里","LIN":"1鄰","STREET":" ","SECT":" ","MAREA":"六塊寮","LANE":" ","ALLEY":" ","HOUSE_NO":"１０之１２號","E_COORD97":170315.87,"N_COORD97":2553596.2999999998,"ADDRESS":"六塊寮１０之１２號","OBJECTID":50879},"geometry":{"x":170315.87000000011,"y":2553596.3000000007}},{"attributes":{"ID":50880,"DIS_CODE":0,"TOWNNAME":"安定區","LI":"南安里","LIN":"1鄰","STREET":" ","SECT":" ","MAREA":"油車","LANE":" ","ALLEY":" ","HOUSE_NO":"８號之３","E_COORD97":170809.82000000001,"N_COORD97":2555929.2999999998,"ADDRESS":"油車８號之３","OBJECTID":50880},"geometry":{"x":170809.8200000003,"y":2555929.3000000007}},{"attributes":{"ID":50881,"DIS_CODE":0,"TOWNNAME":"安定區","LI":"南安里","LIN":"1鄰","STREET":" ","SECT":" ","MAREA":"油車","LANE":" ","ALLEY":" ","HOUSE_NO":"６之２３號","E_COORD97":170779.44,"N_COORD97":2555976.2999999998,"ADDRESS":"油車６之２３號","OBJECTID":50881},"geometry":{"x":170779.44000000134,"y":2555976.3000000007}},{"attributes":{"ID":50882,"DIS_CODE":0,"TOWNNAME":"安定區","LI":"蘇林里","LIN":"1鄰","STREET":" ","SECT":" ","MAREA":"蘇厝","LANE":" ","ALLEY":" ","HOUSE_NO":"１號之１０","E_COORD97":174055.25,"N_COORD97":2558446.2999999998,"ADDRESS":"蘇厝１號之１０","OBJECTID":50882},"geometry":{"x":174055.25000000093,"y":2558446.3000000026}},{"attributes":{"ID":50883,"DIS_CODE":0,"TOWNNAME":"安定區","LI":"蘇厝里","LIN":"1鄰","STREET":" ","SECT":" ","MAREA":"蘇厝","LANE":" ","ALLEY":" ","HOUSE_NO":"２７６號","E_COORD97":173387.62,"N_COORD97":2558520.25,"ADDRESS":"蘇厝２７６號","OBJECTID":50883},"geometry":{"x":173387.62000000011,"y":2558520.2500000019}},{"attributes":{"ID":50884,"DIS_CODE":0,"TOWNNAME":"安定區","LI":"海寮里","LIN":"1鄰","STREET":" ","SECT":" ","MAREA":"海寮","LANE":" ","ALLEY":" ","HOUSE_NO":"１１號之３","E_COORD97":169098.63,"N_COORD97":2555085.2999999998,"ADDRESS":"海寮１１號之３","OBJECTID":50884},"geometry":{"x":169098.62999999989,"y":2555085.3000000007}},{"attributes":{"ID":50885,"DIS_CODE":0,"TOWNNAME":"歸仁區","LI":"大廟里","LIN":"18鄰","STREET":"大廟五街","SECT":" ","MAREA":" ","LANE":" ","ALLEY":" ","HOUSE_NO":"６１號","E_COORD97":175967.07999999999,"N_COORD97":2544308.0899999999,"ADDRESS":"大廟五街６１號","OBJECTID":50885},"geometry":{"x":175967.08000000101,"y":2544308.089999998}},{"attributes":{"ID":50886,"DIS_CODE":0,"TOWNNAME":"東區","LI":"關聖里","LIN":"17鄰","STREET":"裕平一街","SECT":" ","MAREA":" ","LANE":" ","ALLEY":" ","HOUSE_NO":"６１號","E_COORD97":172368.87,"N_COORD97":2542940.21,"ADDRESS":"裕平一街６１號","OBJECTID":50886},"geometry":{"x":172368.87000000011,"y":2542940.2100000028}},{"attributes":{"ID":50887,"DIS_CODE":0,"TOWNNAME":"安定區","LI":"海寮里","LIN":"1鄰","STREET":" ","SECT":" ","MAREA":"海寮","LANE":" ","ALLEY":" ","HOUSE_NO":"１８之１２號","E_COORD97":169287.84,"N_COORD97":2555106.2999999998,"ADDRESS":"海寮１８之１２號","OBJECTID":50887},"geometry":{"x":169287.84000000078,"y":2555106.3000000045}},{"attributes":{"ID":50888,"DIS_CODE":0,"TOWNNAME":"安定區","LI":"安加里","LIN":"1鄰","STREET":" ","SECT":" ","MAREA":"安定","LANE":" ","ALLEY":" ","HOUSE_NO":"１５６號之５","E_COORD97":172047.41,"N_COORD97":2557625.3199999998,"ADDRESS":"安定１５６號之５","OBJECTID":50888},"geometry":{"x":172047.41000000108,"y":2557625.3200000022}},{"attributes":{"ID":50889,"DIS_CODE":0,"TOWNNAME":"安定區","LI":"海寮里","LIN":"1鄰","STREET":" ","SECT":" ","MAREA":"海寮","LANE":" ","ALLEY":" ","HOUSE_NO":"１２之１８號","E_COORD97":169122.44,"N_COORD97":2555183.2999999998,"ADDRESS":"海寮１２之１８號","OBJECTID":50889},"geometry":{"x":169122.44000000041,"y":2555183.3000000007}},{"attributes":{"ID":50890,"DIS_CODE":0,"TOWNNAME":"安定區","LI":"南安里","LIN":"1鄰","STREET":" ","SECT":" ","MAREA":"油車","LANE":" ","ALLEY":" ","HOUSE_NO":"６號之６","E_COORD97":170795.03,"N_COORD97":2555956.2999999998,"ADDRESS":"油車６號之６","OBJECTID":50890},"geometry":{"x":170795.02999999933,"y":2555956.3000000007}},{"attributes":{"ID":50891,"DIS_CODE":0,"TOWNNAME":"南區","LI":"日新里","LIN":"15鄰","STREET":"新興路","SECT":" ","MAREA":" ","LANE":"４６１巷","ALLEY":"１０弄","HOUSE_NO":"１１號","E_COORD97":166829.01999999999,"N_COORD97":2541618.8500000001,"ADDRESS":"新興路４６１巷１０弄１１號","OBJECTID":50891},"geometry":{"x":166829.01999999955,"y":2541618.8500000015}},{"attributes":{"ID":50892,"DIS_CODE":0,"TOWNNAME":"南區","LI":"日新里","LIN":"15鄰","STREET":"新興路","SECT":" ","MAREA":" ","LANE":"４６１巷","ALLEY":"１０弄","HOUSE_NO":"１３號","E_COORD97":166825.07999999999,"N_COORD97":2541621.21,"ADDRESS":"新興路４６１巷１０弄１３號","OBJECTID":50892},"geometry":{"x":166825.08000000101,"y":2541621.2100000028}},{"attributes":{"ID":50893,"DIS_CODE":0,"TOWNNAME":"安定區","LI":"蘇林里","LIN":"1鄰","STREET":" ","SECT":" ","MAREA":"蘇厝","LANE":" ","ALLEY":" ","HOUSE_NO":"７之１０號","E_COORD97":173589.47,"N_COORD97":2558402.2999999998,"ADDRESS":"蘇厝７之１０號","OBJECTID":50893},"geometry":{"x":173589.47000000067,"y":2558402.3000000026}},{"attributes":{"ID":50894,"DIS_CODE":0,"TOWNNAME":"安定區","LI":"海寮里","LIN":"1鄰","STREET":" ","SECT":" ","MAREA":"海寮","LANE":" ","ALLEY":" ","HOUSE_NO":"１５號之１","E_COORD97":169139.42999999999,"N_COORD97":2555214.2999999998,"ADDRESS":"海寮１５號之１","OBJECTID":50894},"geometry":{"x":169139.43000000063,"y":2555214.3000000007}},{"attributes":{"ID":50895,"DIS_CODE":0,"TOWNNAME":"安定區","LI":"六嘉里","LIN":"1鄰","STREET":" ","SECT":" ","MAREA":"六塊寮","LANE":" ","ALLEY":" ","HOUSE_NO":"２之２號","E_COORD97":170466.57000000001,"N_COORD97":2553658.2999999998,"ADDRESS":"六塊寮２之２號","OBJECTID":50895},"geometry":{"x":170466.57000000123,"y":2553658.2999999989}},{"attributes":{"ID":50896,"DIS_CODE":0,"TOWNNAME":"安定區","LI":"六嘉里","LIN":"1鄰","STREET":" ","SECT":" ","MAREA":"六塊寮","LANE":" ","ALLEY":" ","HOUSE_NO":"１之８號","E_COORD97":170450.97,"N_COORD97":2553669.2999999998,"ADDRESS":"六塊寮１之８號","OBJECTID":50896},"geometry":{"x":170450.9700000016,"y":2553669.3000000026}},{"attributes":{"ID":50897,"DIS_CODE":0,"TOWNNAME":"安定區","LI":"海寮里","LIN":"1鄰","STREET":" ","SECT":" ","MAREA":"海寮","LANE":" ","ALLEY":" ","HOUSE_NO":"１８號之７","E_COORD97":169294.91,"N_COORD97":2555086.2999999998,"ADDRESS":"海寮１８號之７","OBJECTID":50897},"geometry":{"x":169294.91000000015,"y":2555086.3000000026}},{"attributes":{"ID":50898,"DIS_CODE":0,"TOWNNAME":"安定區","LI":"蘇林里","LIN":"1鄰","STREET":" ","SECT":" ","MAREA":"蘇厝","LANE":" ","ALLEY":" ","HOUSE_NO":"１號","E_COORD97":174242.62391200001,"N_COORD97":2558608.7845200002,"ADDRESS":"蘇厝１號","OBJECTID":50898},"geometry":{"x":174242.6239120001,"y":2558608.7845179997}},{"attributes":{"ID":50899,"DIS_CODE":0,"TOWNNAME":"安定區","LI":"蘇林里","LIN":"1鄰","STREET":" ","SECT":" ","MAREA":"蘇厝","LANE":" ","ALLEY":" ","HOUSE_NO":"１之２０號","E_COORD97":174368.37,"N_COORD97":2558559.2999999998,"ADDRESS":"蘇厝１之２０號","OBJECTID":50899},"geometry":{"x":174368.37000000104,"y":2558559.3000000007}},{"attributes":{"ID":50900,"DIS_CODE":0,"TOWNNAME":"安定區","LI":"蘇林里","LIN":"1鄰","STREET":" ","SECT":" ","MAREA":"蘇厝","LANE":" ","ALLEY":" ","HOUSE_NO":"１之４０號","E_COORD97":174331.67000000001,"N_COORD97":2558737.2999999998,"ADDRESS":"蘇厝１之４０號","OBJECTID":50900},"geometry":{"x":174331.67000000179,"y":2558737.3000000045}},{"attributes":{"ID":50901,"DIS_CODE":0,"TOWNNAME":"安定區","LI":"蘇林里","LIN":"1鄰","STREET":" ","SECT":" ","MAREA":"蘇厝","LANE":" ","ALLEY":" ","HOUSE_NO":"１之３７號","E_COORD97":174353.97,"N_COORD97":2558703.2999999998,"ADDRESS":"蘇厝１之３７號","OBJECTID":50901},"geometry":{"x":174353.97000000067,"y":2558703.3000000045}},{"attributes":{"ID":50902,"DIS_CODE":0,"TOWNNAME":"安定區","LI":"蘇林里","LIN":"1鄰","STREET":" ","SECT":" ","MAREA":"蘇厝","LANE":" ","ALLEY":" ","HOUSE_NO":"１之４１號","E_COORD97":174318.57000000001,"N_COORD97":2558821.2999999998,"ADDRESS":"蘇厝１之４１號","OBJECTID":50902},"geometry":{"x":174318.5700000003,"y":2558821.3000000007}},{"attributes":{"ID":50903,"DIS_CODE":0,"TOWNNAME":"安定區","LI":"海寮里","LIN":"1鄰","STREET":" ","SECT":" ","MAREA":"海寮","LANE":" ","ALLEY":" ","HOUSE_NO":"１９號之１","E_COORD97":169272.32999999999,"N_COORD97":2555216.2999999998,"ADDRESS":"海寮１９號之１","OBJECTID":50903},"geometry":{"x":169272.33000000194,"y":2555216.3000000026}},{"attributes":{"ID":50904,"DIS_CODE":0,"TOWNNAME":"安定區","LI":"南安里","LIN":"1鄰","STREET":" ","SECT":" ","MAREA":"油車","LANE":" ","ALLEY":" ","HOUSE_NO":"６之９號","E_COORD97":170818.79000000001,"N_COORD97":2555961.2999999998,"ADDRESS":"油車６之９號","OBJECTID":50904},"geometry":{"x":170818.79000000097,"y":2555961.3000000026}},{"attributes":{"ID":50905,"DIS_CODE":0,"TOWNNAME":"安定區","LI":"安加里","LIN":"1鄰","STREET":" ","SECT":" ","MAREA":"安定","LANE":" ","ALLEY":" ","HOUSE_NO":"１５６之１７號","E_COORD97":172026.67000000001,"N_COORD97":2557614.3199999998,"ADDRESS":"安定１５６之１７號","OBJECTID":50905},"geometry":{"x":172026.67000000086,"y":2557614.320000004}},{"attributes":{"ID":50906,"DIS_CODE":0,"TOWNNAME":"安定區","LI":"安加里","LIN":"1鄰","STREET":" ","SECT":" ","MAREA":"安定","LANE":" ","ALLEY":" ","HOUSE_NO":"１５９之１７號","E_COORD97":171966.47,"N_COORD97":2557567.3199999998,"ADDRESS":"安定１５９之１７號","OBJECTID":50906},"geometry":{"x":171966.4700000016,"y":2557567.3200000022}},{"attributes":{"ID":50907,"DIS_CODE":0,"TOWNNAME":"安定區","LI":"南安里","LIN":"1鄰","STREET":" ","SECT":" ","MAREA":"油車","LANE":" ","ALLEY":" ","HOUSE_NO":"６之４號","E_COORD97":170804.39000000001,"N_COORD97":2555955.2999999998,"ADDRESS":"油車６之４號","OBJECTID":50907},"geometry":{"x":170804.3900000006,"y":2555955.3000000026}},{"attributes":{"ID":50908,"DIS_CODE":0,"TOWNNAME":"安定區","LI":"安加里","LIN":"1鄰","STREET":" ","SECT":" ","MAREA":"安定","LANE":" ","ALLEY":" ","HOUSE_NO":"１５７之３號","E_COORD97":172089.32000000001,"N_COORD97":2557541.3199999998,"ADDRESS":"安定１５７之３號","OBJECTID":50908},"geometry":{"x":172089.3200000003,"y":2557541.3200000022}},{"attributes":{"ID":50909,"DIS_CODE":0,"TOWNNAME":"安定區","LI":"安定里","LIN":"1鄰","STREET":" ","SECT":" ","MAREA":"領寄","LANE":" ","ALLEY":" ","HOUSE_NO":"７號之１","E_COORD97":173612.54000000001,"N_COORD97":2557106.2999999998,"ADDRESS":"領寄７之１號","OBJECTID":50909},"geometry":{"x":173612.54000000097,"y":2557106.2999999989}},{"attributes":{"ID":50910,"DIS_CODE":0,"TOWNNAME":"安定區","LI":"六嘉里","LIN":"1鄰","STREET":" ","SECT":" ","MAREA":"六塊寮","LANE":" ","ALLEY":" ","HOUSE_NO":"１０號之５","E_COORD97":170428.40307,"N_COORD97":2553674.8467299999,"ADDRESS":"六塊寮１０號之５","OBJECTID":50910},"geometry":{"x":170428.40307,"y":2553674.8467309996}},{"attributes":{"ID":50911,"DIS_CODE":0,"TOWNNAME":"安定區","LI":"南安里","LIN":"1鄰","STREET":" ","SECT":" ","MAREA":"油車","LANE":" ","ALLEY":" ","HOUSE_NO":"８之５號","E_COORD97":170801.69,"N_COORD97":2555930.2999999998,"ADDRESS":"油車８之５號","OBJECTID":50911},"geometry":{"x":170801.69000000134,"y":2555930.3000000026}},{"attributes":{"ID":50912,"DIS_CODE":0,"TOWNNAME":"白河區","LI":"仙草里","LIN":"1鄰","STREET":" ","SECT":" ","MAREA":"仙草","LANE":" ","ALLEY":" ","HOUSE_NO":"６之３０號","E_COORD97":196031,"N_COORD97":2582805.3700000001,"ADDRESS":"仙草６之３０號","OBJECTID":50912},"geometry":{"x":196031,"y":2582805.3700000048}},{"attributes":{"ID":50913,"DIS_CODE":0,"TOWNNAME":"南區","LI":"日新里","LIN":"15鄰","STREET":"新興路","SECT":" ","MAREA":" ","LANE":"４６１巷","ALLEY":"１０弄","HOUSE_NO":"１４號","E_COORD97":166837.98999999999,"N_COORD97":2541632.9100000001,"ADDRESS":"新興路４６１巷１０弄１４號","OBJECTID":50913},"geometry":{"x":166837.99000000022,"y":2541632.910000002}},{"attributes":{"ID":50914,"DIS_CODE":0,"TOWNNAME":"南區","LI":"日新里","LIN":"15鄰","STREET":"新興路","SECT":" ","MAREA":" ","LANE":"４６１巷","ALLEY":"１０弄","HOUSE_NO":"１６號","E_COORD97":166835.59,"N_COORD97":2541635.3900000001,"ADDRESS":"新興路４６１巷１０弄１６號","OBJECTID":50914},"geometry":{"x":166835.58999999985,"y":2541635.3900000043}},{"attributes":{"ID":50915,"DIS_CODE":0,"TOWNNAME":"南區","LI":"日新里","LIN":"15鄰","STREET":"新興路","SECT":" ","MAREA":" ","LANE":"４６１巷","ALLEY":"１０弄","HOUSE_NO":"１８號","E_COORD97":166832.64999999999,"N_COORD97":2541638.1699999999,"ADDRESS":"新興路４６１巷１０弄１８號","OBJECTID":50915},"geometry":{"x":166832.65000000037,"y":2541638.1699999999}},{"attributes":{"ID":50916,"DIS_CODE":0,"TOWNNAME":"南區","LI":"日新里","LIN":"15鄰","STREET":"新興路","SECT":" ","MAREA":" ","LANE":"４６１巷","ALLEY":"１０弄","HOUSE_NO":"１號","E_COORD97":166848.85000000001,"N_COORD97":2541603.3700000001,"ADDRESS":"新興路４６１巷１０弄１號","OBJECTID":50916},"geometry":{"x":166848.84999999963,"y":2541603.3700000029}},{"attributes":{"ID":50917,"DIS_CODE":0,"TOWNNAME":"東區","LI":"關聖里","LIN":"17鄰","STREET":"裕平路","SECT":" ","MAREA":" ","LANE":" ","ALLEY":" ","HOUSE_NO":"１０７號","E_COORD97":172308.89999999999,"N_COORD97":2542866.52,"ADDRESS":"裕平路１０７號","OBJECTID":50917},"geometry":{"x":172308.9000000013,"y":2542866.5199999996}},{"attributes":{"ID":50918,"DIS_CODE":0,"TOWNNAME":"白河區","LI":"仙草里","LIN":"1鄰","STREET":" ","SECT":" ","MAREA":"仙草","LANE":" ","ALLEY":" ","HOUSE_NO":"６之３號","E_COORD97":196294.22,"N_COORD97":2583056.1099999999,"ADDRESS":"仙草６之３號","OBJECTID":50918},"geometry":{"x":196294.22000000067,"y":2583056.1099999975}},{"attributes":{"ID":50919,"DIS_CODE":0,"TOWNNAME":"白河區","LI":"仙草里","LIN":"1鄰","STREET":" ","SECT":" ","MAREA":"仙草","LANE":" ","ALLEY":" ","HOUSE_NO":"６之６號","E_COORD97":196084.39000000001,"N_COORD97":2583087.3900000001,"ADDRESS":"仙草６之６號","OBJECTID":50919},"geometry":{"x":196084.39000000153,"y":2583087.3900000025}},{"attributes":{"ID":50920,"DIS_CODE":0,"TOWNNAME":"白河區","LI":"仙草里","LIN":"1鄰","STREET":" ","SECT":" ","MAREA":"仙草","LANE":" ","ALLEY":" ","HOUSE_NO":"６號","E_COORD97":196248.45000000001,"N_COORD97":2583209.8300000001,"ADDRESS":"仙草６號","OBJECTID":50920},"geometry":{"x":196248.45000000019,"y":2583209.8300000001}},{"attributes":{"ID":50921,"DIS_CODE":0,"TOWNNAME":"白河區","LI":"崎內里","LIN":"1鄰","STREET":" ","SECT":" ","MAREA":"外崎內","LANE":" ","ALLEY":" ","HOUSE_NO":"１１之１號","E_COORD97":194198.19,"N_COORD97":2586457.4199999999,"ADDRESS":"外崎內１１之１號","OBJECTID":50921},"geometry":{"x":194198.19000000134,"y":2586457.4199999999}},{"attributes":{"ID":50922,"DIS_CODE":0,"TOWNNAME":"白河區","LI":"崎內里","LIN":"1鄰","STREET":" ","SECT":" ","MAREA":"外崎內","LANE":" ","ALLEY":" ","HOUSE_NO":"１１號","E_COORD97":194223.44,"N_COORD97":2586460.2599999998,"ADDRESS":"外崎內１１號","OBJECTID":50922},"geometry":{"x":194223.44000000227,"y":2586460.2600000016}},{"attributes":{"ID":50923,"DIS_CODE":0,"TOWNNAME":"白河區","LI":"崎內里","LIN":"1鄰","STREET":" ","SECT":" ","MAREA":"外崎內","LANE":" ","ALLEY":" ","HOUSE_NO":"１２之１號","E_COORD97":194238.64999999999,"N_COORD97":2586452.8700000001,"ADDRESS":"外崎內１２之１號","OBJECTID":50923},"geometry":{"x":194238.65000000037,"y":2586452.870000001}},{"attributes":{"ID":50924,"DIS_CODE":0,"TOWNNAME":"南區","LI":"日新里","LIN":"15鄰","STREET":"新興路","SECT":" ","MAREA":" ","LANE":"４６１巷","ALLEY":"１０弄","HOUSE_NO":"２８號","E_COORD97":166823.20000000001,"N_COORD97":2541661.6299999999,"ADDRESS":"新興路４６１巷１０弄２８號","OBJECTID":50924},"geometry":{"x":166823.20000000019,"y":2541661.629999999}},{"attributes":{"ID":50925,"DIS_CODE":0,"TOWNNAME":"南區","LI":"日新里","LIN":"15鄰","STREET":"新興路","SECT":" ","MAREA":" ","LANE":"４６１巷","ALLEY":"１０弄","HOUSE_NO":"３號","E_COORD97":166844.28,"N_COORD97":2541607.48,"ADDRESS":"新興路４６１巷１０弄３號","OBJECTID":50925},"geometry":{"x":166844.28000000119,"y":2541607.4800000042}},{"attributes":{"ID":50926,"DIS_CODE":0,"TOWNNAME":"南區","LI":"日新里","LIN":"15鄰","STREET":"新興路","SECT":" ","MAREA":" ","LANE":"４６１巷","ALLEY":"１０弄","HOUSE_NO":"４號","E_COORD97":166856.59,"N_COORD97":2541616.3999999999,"ADDRESS":"新興路４６１巷１０弄４號","OBJECTID":50926},"geometry":{"x":166856.59000000078,"y":2541616.4000000022}},{"attributes":{"ID":50927,"DIS_CODE":0,"TOWNNAME":"白河區","LI":"崎內里","LIN":"1鄰","STREET":" ","SECT":" ","MAREA":"外崎內","LANE":" ","ALLEY":" ","HOUSE_NO":"１２號","E_COORD97":194239.35999999999,"N_COORD97":2586472.9700000002,"ADDRESS":"外崎內１２號","OBJECTID":50927},"geometry":{"x":194239.36000000127,"y":2586472.9700000044}},{"attributes":{"ID":50928,"DIS_CODE":0,"TOWNNAME":"南區","LI":"日新里","LIN":"15鄰","STREET":"新興路","SECT":" ","MAREA":" ","LANE":"４６１巷","ALLEY":"１０弄","HOUSE_NO":"５號","E_COORD97":166840.41,"N_COORD97":2541610.6499999999,"ADDRESS":"新興路４６１巷１０弄５號","OBJECTID":50928},"geometry":{"x":166840.41000000015,"y":2541610.6500000022}},{"attributes":{"ID":50929,"DIS_CODE":0,"TOWNNAME":"白河區","LI":"崎內里","LIN":"1鄰","STREET":" ","SECT":" ","MAREA":"外崎內","LANE":" ","ALLEY":" ","HOUSE_NO":"１３號","E_COORD97":194222.76999999999,"N_COORD97":2586481.2200000002,"ADDRESS":"外崎內１３號","OBJECTID":50929},"geometry":{"x":194222.77000000048,"y":2586481.2200000044}},{"attributes":{"ID":50930,"DIS_CODE":0,"TOWNNAME":"白河區","LI":"崎內里","LIN":"1鄰","STREET":" ","SECT":" ","MAREA":"外崎內","LANE":" ","ALLEY":" ","HOUSE_NO":"１５號","E_COORD97":194254.37,"N_COORD97":2586540.7599999998,"ADDRESS":"外崎內１５號","OBJECTID":50930},"geometry":{"x":194254.37000000104,"y":2586540.7599999979}},{"attributes":{"ID":50931,"DIS_CODE":0,"TOWNNAME":"白河區","LI":"崎內里","LIN":"1鄰","STREET":" ","SECT":" ","MAREA":"外崎內","LANE":" ","ALLEY":" ","HOUSE_NO":"１６號","E_COORD97":194268.87,"N_COORD97":2586512.3399999999,"ADDRESS":"外崎內１６號","OBJECTID":50931},"geometry":{"x":194268.87000000011,"y":2586512.3399999999}},{"attributes":{"ID":50932,"DIS_CODE":0,"TOWNNAME":"南區","LI":"日新里","LIN":"15鄰","STREET":"新興路","SECT":" ","MAREA":" ","LANE":"４６１巷","ALLEY":"１０弄","HOUSE_NO":"６號","E_COORD97":166852.64000000001,"N_COORD97":2541619.6499999999,"ADDRESS":"新興路４６１巷１０弄６號","OBJECTID":50932},"geometry":{"x":166852.6400000006,"y":2541619.6499999985}},{"attributes":{"ID":50933,"DIS_CODE":0,"TOWNNAME":"白河區","LI":"崎內里","LIN":"1鄰","STREET":" ","SECT":" ","MAREA":"外崎內","LANE":" ","ALLEY":" ","HOUSE_NO":"１７號","E_COORD97":194278.42000000001,"N_COORD97":2586505.4100000001,"ADDRESS":"外崎內１７號","OBJECTID":50933},"geometry":{"x":194278.41999999993,"y":2586505.4100000001}},{"attributes":{"ID":50934,"DIS_CODE":0,"TOWNNAME":"白河區","LI":"崎內里","LIN":"1鄰","STREET":" ","SECT":" ","MAREA":"外崎內","LANE":" ","ALLEY":" ","HOUSE_NO":"１８號","E_COORD97":194267,"N_COORD97":2586492.3700000001,"ADDRESS":"外崎內１８號","OBJECTID":50934},"geometry":{"x":194267.00000000093,"y":2586492.3700000029}},{"attributes":{"ID":50935,"DIS_CODE":0,"TOWNNAME":"白河區","LI":"崎內里","LIN":"1鄰","STREET":" ","SECT":" ","MAREA":"外崎內","LANE":" ","ALLEY":" ","HOUSE_NO":"１９號","E_COORD97":194281.72,"N_COORD97":2586461.02,"ADDRESS":"外崎內１９號","OBJECTID":50935},"geometry":{"x":194281.71999999881,"y":2586461.0200000033}},{"attributes":{"ID":50936,"DIS_CODE":0,"TOWNNAME":"白河區","LI":"崎內里","LIN":"1鄰","STREET":" ","SECT":" ","MAREA":"外崎內","LANE":" ","ALLEY":" ","HOUSE_NO":"１之１號","E_COORD97":194121.17000000001,"N_COORD97":2586444.2200000002,"ADDRESS":"外崎內１之１號","OBJECTID":50936},"geometry":{"x":194121.16999999993,"y":2586444.2200000025}},{"attributes":{"ID":50937,"DIS_CODE":0,"TOWNNAME":"白河區","LI":"崎內里","LIN":"1鄰","STREET":" ","SECT":" ","MAREA":"外崎內","LANE":" ","ALLEY":" ","HOUSE_NO":"１之３號","E_COORD97":193930.42000000001,"N_COORD97":2586530.75,"ADDRESS":"外崎內１之３號","OBJECTID":50937},"geometry":{"x":193930.42000000086,"y":2586530.75}},{"attributes":{"ID":50938,"DIS_CODE":0,"TOWNNAME":"白河區","LI":"崎內里","LIN":"1鄰","STREET":" ","SECT":" ","MAREA":"外崎內","LANE":" ","ALLEY":" ","HOUSE_NO":"２１號","E_COORD97":194251.59,"N_COORD97":2586439.6600000001,"ADDRESS":"外崎內２１號","OBJECTID":50938},"geometry":{"x":194251.58999999985,"y":2586439.6600000001}},{"attributes":{"ID":50939,"DIS_CODE":0,"TOWNNAME":"白河區","LI":"崎內里","LIN":"1鄰","STREET":" ","SECT":" ","MAREA":"外崎內","LANE":" ","ALLEY":" ","HOUSE_NO":"２２之３號","E_COORD97":194440.32999999999,"N_COORD97":2586438.48,"ADDRESS":"外崎內２２之３號","OBJECTID":50939},"geometry":{"x":194440.33000000007,"y":2586438.4800000042}},{"attributes":{"ID":50940,"DIS_CODE":0,"TOWNNAME":"白河區","LI":"崎內里","LIN":"1鄰","STREET":" ","SECT":" ","MAREA":"外崎內","LANE":" ","ALLEY":" ","HOUSE_NO":"２２之６號","E_COORD97":194596.95000000001,"N_COORD97":2586270.4500000002,"ADDRESS":"外崎內２２之６號","OBJECTID":50940},"geometry":{"x":194596.95000000019,"y":2586270.4499999993}},{"attributes":{"ID":50941,"DIS_CODE":0,"TOWNNAME":"官田區","LI":"渡頭里","LIN":"1鄰","STREET":" ","SECT":" ","MAREA":"渡子頭","LANE":" ","ALLEY":" ","HOUSE_NO":"１０號之１","E_COORD97":181442.10000000001,"N_COORD97":2563175.8399999999,"ADDRESS":"渡子頭１０號之１","OBJECTID":50941},"geometry":{"x":181442.10000000056,"y":2563175.8399999999}},{"attributes":{"ID":50942,"DIS_CODE":0,"TOWNNAME":"官田區","LI":"渡頭里","LIN":"1鄰","STREET":" ","SECT":" ","MAREA":"渡子頭","LANE":" ","ALLEY":" ","HOUSE_NO":"１０號","E_COORD97":181434.51999999999,"N_COORD97":2563161.6600000001,"ADDRESS":"渡子頭１０號","OBJECTID":50942},"geometry":{"x":181434.51999999955,"y":2563161.6600000001}},{"attributes":{"ID":50943,"DIS_CODE":0,"TOWNNAME":"官田區","LI":"渡頭里","LIN":"1鄰","STREET":" ","SECT":" ","MAREA":"渡子頭","LANE":" ","ALLEY":" ","HOUSE_NO":"１１號之８","E_COORD97":181440.39999999999,"N_COORD97":2563125.46,"ADDRESS":"渡子頭１１號之８","OBJECTID":50943},"geometry":{"x":181440.4000000013,"y":2563125.4600000009}},{"attributes":{"ID":50944,"DIS_CODE":0,"TOWNNAME":"官田區","LI":"渡頭里","LIN":"1鄰","STREET":" ","SECT":" ","MAREA":"渡子頭","LANE":" ","ALLEY":" ","HOUSE_NO":"１１號","E_COORD97":181443.48999999999,"N_COORD97":2563152.0800000001,"ADDRESS":"渡子頭１１號","OBJECTID":50944},"geometry":{"x":181443.49000000115,"y":2563152.0799999982}},{"attributes":{"ID":50945,"DIS_CODE":0,"TOWNNAME":"歸仁區","LI":"後市里","LIN":"9鄰","STREET":"大順六街","SECT":" ","MAREA":" ","LANE":" ","ALLEY":" ","HOUSE_NO":"２４號","E_COORD97":177046.10999999999,"N_COORD97":2540659.25,"ADDRESS":"大順六街２４號","OBJECTID":50945},"geometry":{"x":177046.11000000034,"y":2540659.2500000037}},{"attributes":{"ID":50946,"DIS_CODE":0,"TOWNNAME":"官田區","LI":"渡頭里","LIN":"1鄰","STREET":" ","SECT":" ","MAREA":"渡子頭","LANE":" ","ALLEY":" ","HOUSE_NO":"１號之１１","E_COORD97":181592.91,"N_COORD97":2563302.6699999999,"ADDRESS":"渡子頭１號之１１","OBJECTID":50946},"geometry":{"x":181592.91000000108,"y":2563302.6699999999}},{"attributes":{"ID":50947,"DIS_CODE":0,"TOWNNAME":"官田區","LI":"嘉南里","LIN":"1鄰","STREET":" ","SECT":" ","MAREA":"嘉南","LANE":" ","ALLEY":" ","HOUSE_NO":"７號","E_COORD97":184648.54999999999,"N_COORD97":2568065.3599999999,"ADDRESS":"嘉南７號","OBJECTID":50947},"geometry":{"x":184648.54999999981,"y":2568065.3599999994}},{"attributes":{"ID":50948,"DIS_CODE":0,"TOWNNAME":"安南區","LI":"學東里","LIN":"17鄰","STREET":"安明路","SECT":"四段","MAREA":" ","LANE":" ","ALLEY":" ","HOUSE_NO":"１２５９之７６號","E_COORD97":161400.89999999999,"N_COORD97":2553313.5699999998,"ADDRESS":"安明路四段１２５９之７６號","OBJECTID":50948},"geometry":{"x":161400.90000000037,"y":2553313.5699999984}},{"attributes":{"ID":50949,"DIS_CODE":0,"TOWNNAME":"官田區","LI":"嘉南里","LIN":"1鄰","STREET":" ","SECT":" ","MAREA":"嘉南","LANE":" ","ALLEY":" ","HOUSE_NO":"１號之１","E_COORD97":184312.92999999999,"N_COORD97":2568044.7000000002,"ADDRESS":"嘉南１號之１","OBJECTID":50949},"geometry":{"x":184312.93000000063,"y":2568044.6999999993}},{"attributes":{"ID":50950,"DIS_CODE":0,"TOWNNAME":"官田區","LI":"嘉南里","LIN":"1鄰","STREET":" ","SECT":" ","MAREA":"嘉南","LANE":" ","ALLEY":" ","HOUSE_NO":"１號之２","E_COORD97":184343.41,"N_COORD97":2567995.9100000001,"ADDRESS":"嘉南１號之２","OBJECTID":50950},"geometry":{"x":184343.41000000015,"y":2567995.910000002}},{"attributes":{"ID":50951,"DIS_CODE":0,"TOWNNAME":"官田區","LI":"嘉南里","LIN":"1鄰","STREET":" ","SECT":" ","MAREA":"嘉南","LANE":" ","ALLEY":" ","HOUSE_NO":"１號之３０","E_COORD97":183805.51000000001,"N_COORD97":2568150.3199999998,"ADDRESS":"嘉南１號之３０","OBJECTID":50951},"geometry":{"x":183805.51000000071,"y":2568150.3200000003}},{"attributes":{"ID":50952,"DIS_CODE":0,"TOWNNAME":"官田區","LI":"嘉南里","LIN":"1鄰","STREET":" ","SECT":" ","MAREA":"嘉南","LANE":" ","ALLEY":" ","HOUSE_NO":"１號之３","E_COORD97":184308.01999999999,"N_COORD97":2567946.9700000002,"ADDRESS":"嘉南１號之３","OBJECTID":50952},"geometry":{"x":184308.01999999955,"y":2567946.9700000007}},{"attributes":{"ID":50953,"DIS_CODE":0,"TOWNNAME":"官田區","LI":"嘉南里","LIN":"1鄰","STREET":" ","SECT":" ","MAREA":"嘉南","LANE":" ","ALLEY":" ","HOUSE_NO":"１號","E_COORD97":184566.73999999999,"N_COORD97":2567994.8199999998,"ADDRESS":"嘉南１號","OBJECTID":50953},"geometry":{"x":184566.74000000022,"y":2567994.8200000003}},{"attributes":{"ID":50954,"DIS_CODE":0,"TOWNNAME":"官田區","LI":"嘉南里","LIN":"1鄰","STREET":" ","SECT":" ","MAREA":"嘉南","LANE":" ","ALLEY":" ","HOUSE_NO":"３號","E_COORD97":184572.64999999999,"N_COORD97":2568008.02,"ADDRESS":"嘉南３號","OBJECTID":50954},"geometry":{"x":184572.65000000037,"y":2568008.0200000014}},{"attributes":{"ID":50955,"DIS_CODE":0,"TOWNNAME":"仁德區","LI":"二行里","LIN":"17鄰","STREET":"行大街","SECT":" ","MAREA":" ","LANE":" ","ALLEY":" ","HOUSE_NO":"２９６號","E_COORD97":169718.79000000001,"N_COORD97":2535177.7400000002,"ADDRESS":"行大街２９６號","OBJECTID":50955},"geometry":{"x":169718.79000000097,"y":2535177.7400000021}},{"attributes":{"ID":50956,"DIS_CODE":0,"TOWNNAME":"仁德區","LI":"二行里","LIN":"17鄰","STREET":"行大街","SECT":" ","MAREA":" ","LANE":" ","ALLEY":" ","HOUSE_NO":"２８８號","E_COORD97":169732.63,"N_COORD97":2535170.9900000002,"ADDRESS":"行大街２８８號","OBJECTID":50956},"geometry":{"x":169732.62999999989,"y":2535170.9900000002}},{"attributes":{"ID":50957,"DIS_CODE":0,"TOWNNAME":"仁德區","LI":"大甲里","LIN":"17鄰","STREET":"行大街","SECT":" ","MAREA":" ","LANE":" ","ALLEY":" ","HOUSE_NO":"４２９號","E_COORD97":169459.41,"N_COORD97":2535269.7400000002,"ADDRESS":"行大街４２９號","OBJECTID":50957},"geometry":{"x":169459.41000000015,"y":2535269.7400000021}},{"attributes":{"ID":50958,"DIS_CODE":0,"TOWNNAME":"仁德區","LI":"仁和里","LIN":"17鄰","STREET":" ","SECT":" ","MAREA":"仁和","LANE":" ","ALLEY":" ","HOUSE_NO":"３５１號","E_COORD97":170483.93140100001,"N_COORD97":2539884.7543199998,"ADDRESS":"仁和３５１號","OBJECTID":50958},"geometry":{"x":170483.93140100036,"y":2539884.7543190029}},{"attributes":{"ID":50959,"DIS_CODE":0,"TOWNNAME":"仁德區","LI":"仁和里","LIN":"17鄰","STREET":" ","SECT":" ","MAREA":"仁和","LANE":" ","ALLEY":" ","HOUSE_NO":"３３１號","E_COORD97":170482.876693,"N_COORD97":2539953.7350599999,"ADDRESS":"仁和３３１號","OBJECTID":50959},"geometry":{"x":170482.87669299915,"y":2539953.7350620013}},{"attributes":{"ID":50960,"DIS_CODE":0,"TOWNNAME":"仁德區","LI":"仁和里","LIN":"17鄰","STREET":" ","SECT":" ","MAREA":"仁和","LANE":" ","ALLEY":" ","HOUSE_NO":"３５０號之３","E_COORD97":170471.91,"N_COORD97":2539886.2999999998,"ADDRESS":"仁和３５０號之３","OBJECTID":50960},"geometry":{"x":170471.91000000015,"y":2539886.3000000007}},{"attributes":{"ID":50961,"DIS_CODE":0,"TOWNNAME":"官田區","LI":"嘉南里","LIN":"1鄰","STREET":" ","SECT":" ","MAREA":"嘉南","LANE":" ","ALLEY":" ","HOUSE_NO":"４號之２","E_COORD97":184564.16,"N_COORD97":2568034.48,"ADDRESS":"嘉南４號之２","OBJECTID":50961},"geometry":{"x":184564.16000000201,"y":2568034.4800000004}},{"attributes":{"ID":50962,"DIS_CODE":0,"TOWNNAME":"南區","LI":"日新里","LIN":"15鄰","STREET":"新興路","SECT":" ","MAREA":" ","LANE":"４６１巷","ALLEY":"１０弄","HOUSE_NO":"７號","E_COORD97":166837,"N_COORD97":2541614.1299999999,"ADDRESS":"新興路４６１巷１０弄７號","OBJECTID":50962},"geometry":{"x":166837.00000000093,"y":2541614.129999999}},{"attributes":{"ID":50963,"DIS_CODE":0,"TOWNNAME":"南區","LI":"日新里","LIN":"15鄰","STREET":"新興路","SECT":" ","MAREA":" ","LANE":"４６１巷","ALLEY":"１０弄","HOUSE_NO":"８號","E_COORD97":166848.38,"N_COORD97":2541623.0499999998,"ADDRESS":"新興路４６１巷１０弄８號","OBJECTID":50963},"geometry":{"x":166848.38000000082,"y":2541623.0500000007}},{"attributes":{"ID":50964,"DIS_CODE":0,"TOWNNAME":"官田區","LI":"嘉南里","LIN":"1鄰","STREET":" ","SECT":" ","MAREA":"嘉南","LANE":" ","ALLEY":" ","HOUSE_NO":"４號","E_COORD97":184577.48000000001,"N_COORD97":2568023.1000000001,"ADDRESS":"嘉南４號","OBJECTID":50964},"geometry":{"x":184577.47999999952,"y":2568023.0999999996}},{"attributes":{"ID":50965,"DIS_CODE":0,"TOWNNAME":"官田區","LI":"嘉南里","LIN":"1鄰","STREET":" ","SECT":" ","MAREA":"嘉南","LANE":" ","ALLEY":" ","HOUSE_NO":"６號","E_COORD97":184602.98000000001,"N_COORD97":2568063.21,"ADDRESS":"嘉南６號","OBJECTID":50965},"geometry":{"x":184602.98000000231,"y":2568063.2100000028}},{"attributes":{"ID":50966,"DIS_CODE":0,"TOWNNAME":"安定區","LI":"管寮里","LIN":"1鄰","STREET":" ","SECT":" ","MAREA":"管寮","LANE":" ","ALLEY":" ","HOUSE_NO":"１號","E_COORD97":169830.86424900001,"N_COORD97":2556090.2342599998,"ADDRESS":"管寮１號","OBJECTID":50966},"geometry":{"x":169830.86424900126,"y":2556090.2342550009}},{"attributes":{"ID":50967,"DIS_CODE":0,"TOWNNAME":"官田區","LI":"社子里","LIN":"1鄰","STREET":" ","SECT":" ","MAREA":"舊社","LANE":" ","ALLEY":" ","HOUSE_NO":"１０號","E_COORD97":184715.89999999999,"N_COORD97":2564918.0499999998,"ADDRESS":"舊社１０號","OBJECTID":50967},"geometry":{"x":184715.9000000013,"y":2564918.0500000007}},{"attributes":{"ID":50968,"DIS_CODE":0,"TOWNNAME":"南區","LI":"日新里","LIN":"15鄰","STREET":"新興路","SECT":" ","MAREA":" ","LANE":"４６１巷","ALLEY":"１０弄","HOUSE_NO":"１２號","E_COORD97":166842.32999999999,"N_COORD97":2541630.98,"ADDRESS":"新興路４６１巷１０弄１２號","OBJECTID":50968},"geometry":{"x":166842.33000000007,"y":2541630.9799999986}},{"attributes":{"ID":50969,"DIS_CODE":0,"TOWNNAME":"永康區","LI":"安康里","LIN":"15鄰","STREET":"中華路","SECT":" ","MAREA":" ","LANE":"６１９巷","ALLEY":"８８弄","HOUSE_NO":"７０號","E_COORD97":170962.42000000001,"N_COORD97":2546122.75,"ADDRESS":"中華路６１９巷８８弄７０號","OBJECTID":50969},"geometry":{"x":170962.42000000086,"y":2546122.7500000019}},{"attributes":{"ID":50970,"DIS_CODE":0,"TOWNNAME":"官田區","LI":"社子里","LIN":"1鄰","STREET":" ","SECT":" ","MAREA":"舊社","LANE":" ","ALLEY":" ","HOUSE_NO":"１１號之２","E_COORD97":184717.73999999999,"N_COORD97":2564816.98,"ADDRESS":"舊社１１號之２","OBJECTID":50970},"geometry":{"x":184717.74000000022,"y":2564816.9800000004}},{"attributes":{"ID":50971,"DIS_CODE":0,"TOWNNAME":"官田區","LI":"社子里","LIN":"1鄰","STREET":" ","SECT":" ","MAREA":"舊社","LANE":" ","ALLEY":" ","HOUSE_NO":"１１號","E_COORD97":184716.44,"N_COORD97":2564844.3300000001,"ADDRESS":"舊社１１號","OBJECTID":50971},"geometry":{"x":184716.44000000041,"y":2564844.3300000001}},{"attributes":{"ID":50972,"DIS_CODE":0,"TOWNNAME":"官田區","LI":"社子里","LIN":"1鄰","STREET":" ","SECT":" ","MAREA":"舊社","LANE":" ","ALLEY":" ","HOUSE_NO":"１２號","E_COORD97":184742.73000000001,"N_COORD97":2564787.96,"ADDRESS":"舊社１２號","OBJECTID":50972},"geometry":{"x":184742.73000000138,"y":2564787.959999999}},{"attributes":{"ID":50973,"DIS_CODE":0,"TOWNNAME":"官田區","LI":"社子里","LIN":"1鄰","STREET":" ","SECT":" ","MAREA":"舊社","LANE":" ","ALLEY":" ","HOUSE_NO":"１３號","E_COORD97":184803.45999999999,"N_COORD97":2564832.7599999998,"ADDRESS":"舊社１３號","OBJECTID":50973},"geometry":{"x":184803.46000000089,"y":2564832.7600000016}},{"attributes":{"ID":50974,"DIS_CODE":0,"TOWNNAME":"官田區","LI":"社子里","LIN":"1鄰","STREET":" ","SECT":" ","MAREA":"舊社","LANE":" ","ALLEY":" ","HOUSE_NO":"１號","E_COORD97":184700.56,"N_COORD97":2564781.2599999998,"ADDRESS":"舊社１號","OBJECTID":50974},"geometry":{"x":184700.56000000052,"y":2564781.2599999998}},{"attributes":{"ID":50975,"DIS_CODE":0,"TOWNNAME":"官田區","LI":"社子里","LIN":"1鄰","STREET":" ","SECT":" ","MAREA":"舊社","LANE":" ","ALLEY":" ","HOUSE_NO":"２號","E_COORD97":184697.25,"N_COORD97":2564798.3599999999,"ADDRESS":"舊社２號","OBJECTID":50975},"geometry":{"x":184697.24999999907,"y":2564798.3600000013}},{"attributes":{"ID":50976,"DIS_CODE":0,"TOWNNAME":"永康區","LI":"安康里","LIN":"15鄰","STREET":"中華路","SECT":" ","MAREA":" ","LANE":"６１９巷","ALLEY":"２２弄","HOUSE_NO":"１號","E_COORD97":170997.85999999999,"N_COORD97":2546083.2400000002,"ADDRESS":"中華路６１９巷２２弄１號","OBJECTID":50976},"geometry":{"x":170997.86000000034,"y":2546083.2400000002}},{"attributes":{"ID":50977,"DIS_CODE":0,"TOWNNAME":"官田區","LI":"社子里","LIN":"1鄰","STREET":" ","SECT":" ","MAREA":"舊社","LANE":" ","ALLEY":" ","HOUSE_NO":"３號之５","E_COORD97":184646.34,"N_COORD97":2564798.2200000002,"ADDRESS":"舊社３號之５","OBJECTID":50977},"geometry":{"x":184646.34000000078,"y":2564798.2200000007}},{"attributes":{"ID":50978,"DIS_CODE":0,"TOWNNAME":"安南區","LI":"佃西里","LIN":"15鄰","STREET":"海佃路","SECT":"四段","MAREA":" ","LANE":"３８８巷","ALLEY":"４３弄","HOUSE_NO":"８號","E_COORD97":165563.07000000001,"N_COORD97":2551681.0699999998,"ADDRESS":"海佃路四段３８８巷４３弄８號","OBJECTID":50978},"geometry":{"x":165563.0700000003,"y":2551681.0700000022}},{"attributes":{"ID":50979,"DIS_CODE":0,"TOWNNAME":"官田區","LI":"社子里","LIN":"1鄰","STREET":" ","SECT":" ","MAREA":"舊社","LANE":" ","ALLEY":" ","HOUSE_NO":"３號","E_COORD97":184658.51000000001,"N_COORD97":2564816.6600000001,"ADDRESS":"舊社３號","OBJECTID":50979},"geometry":{"x":184658.51000000071,"y":2564816.6600000039}},{"attributes":{"ID":50980,"DIS_CODE":0,"TOWNNAME":"安南區","LI":"頂安里","LIN":"15鄰","STREET":"長溪路","SECT":"一段","MAREA":" ","LANE":"３４１巷","ALLEY":"６弄","HOUSE_NO":"２７號","E_COORD97":168623.39000000001,"N_COORD97":2548807.8599999999,"ADDRESS":"長溪路一段３４１巷６弄２７號","OBJECTID":50980},"geometry":{"x":168623.38999999966,"y":2548807.8599999994}},{"attributes":{"ID":50981,"DIS_CODE":0,"TOWNNAME":"歸仁區","LI":"六甲里","LIN":"13鄰","STREET":"中正二十街","SECT":" ","MAREA":" ","LANE":" ","ALLEY":" ","HOUSE_NO":"２９號","E_COORD97":175903.79999999999,"N_COORD97":2539107.25,"ADDRESS":"中正二十街２９號","OBJECTID":50981},"geometry":{"x":175903.80000000168,"y":2539107.2500000019}},{"attributes":{"ID":50982,"DIS_CODE":0,"TOWNNAME":"官田區","LI":"社子里","LIN":"1鄰","STREET":" ","SECT":" ","MAREA":"舊社","LANE":" ","ALLEY":" ","HOUSE_NO":"４號之２","E_COORD97":184647.35999999999,"N_COORD97":2564829.0499999998,"ADDRESS":"舊社４號之２","OBJECTID":50982},"geometry":{"x":184647.36000000034,"y":2564829.0500000026}},{"attributes":{"ID":50983,"DIS_CODE":0,"TOWNNAME":"仁德區","LI":"仁義里","LIN":"17鄰","STREET":"義林十一街","SECT":" ","MAREA":" ","LANE":" ","ALLEY":" ","HOUSE_NO":"２７號","E_COORD97":174280.89999999999,"N_COORD97":2541376.77,"ADDRESS":"義林十一街２７號","OBJECTID":50983},"geometry":{"x":174280.90000000037,"y":2541376.7699999996}},{"attributes":{"ID":50984,"DIS_CODE":0,"TOWNNAME":"官田區","LI":"社子里","LIN":"1鄰","STREET":" ","SECT":" ","MAREA":"舊社","LANE":" ","ALLEY":" ","HOUSE_NO":"４號之６","E_COORD97":184661.95000000001,"N_COORD97":2564860.8999999999,"ADDRESS":"舊社４號之６","OBJECTID":50984},"geometry":{"x":184661.95000000019,"y":2564860.9000000004}},{"attributes":{"ID":50985,"DIS_CODE":0,"TOWNNAME":"官田區","LI":"社子里","LIN":"1鄰","STREET":" ","SECT":" ","MAREA":"舊社","LANE":" ","ALLEY":" ","HOUSE_NO":"４號","E_COORD97":184672.01000000001,"N_COORD97":2564851.6099999999,"ADDRESS":"舊社４號","OBJECTID":50985},"geometry":{"x":184672.01000000071,"y":2564851.6100000013}},{"attributes":{"ID":50986,"DIS_CODE":0,"TOWNNAME":"官田區","LI":"社子里","LIN":"1鄰","STREET":" ","SECT":" ","MAREA":"舊社","LANE":" ","ALLEY":" ","HOUSE_NO":"５號之２","E_COORD97":184678.57999999999,"N_COORD97":2564834.6299999999,"ADDRESS":"舊社５號之２","OBJECTID":50986},"geometry":{"x":184678.58000000101,"y":2564834.629999999}},{"attributes":{"ID":50987,"DIS_CODE":0,"TOWNNAME":"仁德區","LI":"仁德里","LIN":"17鄰","STREET":"文華路","SECT":"三段","MAREA":" ","LANE":" ","ALLEY":" ","HOUSE_NO":"５０１號","E_COORD97":172430.57000000001,"N_COORD97":2541391.5699999998,"ADDRESS":"文華路三段５０１號","OBJECTID":50987},"geometry":{"x":172430.5700000003,"y":2541391.5700000003}},{"attributes":{"ID":50988,"DIS_CODE":0,"TOWNNAME":"官田區","LI":"社子里","LIN":"1鄰","STREET":" ","SECT":" ","MAREA":"舊社","LANE":" ","ALLEY":" ","HOUSE_NO":"６號","E_COORD97":184699.66,"N_COORD97":2564861.96,"ADDRESS":"舊社６號","OBJECTID":50988},"geometry":{"x":184699.65999999922,"y":2564861.9600000009}},{"attributes":{"ID":50989,"DIS_CODE":0,"TOWNNAME":"仁德區","LI":"保安里","LIN":"17鄰","STREET":"中正路","SECT":"一段","MAREA":" ","LANE":" ","ALLEY":" ","HOUSE_NO":"７２號","E_COORD97":170922.67000000001,"N_COORD97":2535523.02,"ADDRESS":"中正路一段７２號","OBJECTID":50989},"geometry":{"x":170922.67000000179,"y":2535523.0199999996}},{"attributes":{"ID":50990,"DIS_CODE":0,"TOWNNAME":"官田區","LI":"社子里","LIN":"1鄰","STREET":" ","SECT":" ","MAREA":"舊社","LANE":" ","ALLEY":" ","HOUSE_NO":"７號之６０","E_COORD97":184449.41,"N_COORD97":2564929.3599999999,"ADDRESS":"舊社７號之６０","OBJECTID":50990},"geometry":{"x":184449.41000000108,"y":2564929.3599999994}},{"attributes":{"ID":50991,"DIS_CODE":0,"TOWNNAME":"官田區","LI":"社子里","LIN":"1鄰","STREET":" ","SECT":" ","MAREA":"舊社","LANE":" ","ALLEY":" ","HOUSE_NO":"７號之６","E_COORD97":184644.25,"N_COORD97":2564957.1099999999,"ADDRESS":"舊社７號之６","OBJECTID":50991},"geometry":{"x":184644.25,"y":2564957.1099999994}},{"attributes":{"ID":50992,"DIS_CODE":0,"TOWNNAME":"官田區","LI":"社子里","LIN":"1鄰","STREET":" ","SECT":" ","MAREA":"舊社","LANE":" ","ALLEY":" ","HOUSE_NO":"８號之１","E_COORD97":184873.34,"N_COORD97":2565187.0899999999,"ADDRESS":"舊社８號之１","OBJECTID":50992},"geometry":{"x":184873.34000000078,"y":2565187.0900000017}},{"attributes":{"ID":50993,"DIS_CODE":0,"TOWNNAME":"官田區","LI":"社子里","LIN":"1鄰","STREET":" ","SECT":" ","MAREA":"舊社","LANE":" ","ALLEY":" ","HOUSE_NO":"８號","E_COORD97":184720.72,"N_COORD97":2564873.8700000001,"ADDRESS":"舊社８號","OBJECTID":50993},"geometry":{"x":184720.71999999974,"y":2564873.8700000048}},{"attributes":{"ID":50994,"DIS_CODE":0,"TOWNNAME":"仁德區","LI":"太子里","LIN":"15鄰","STREET":"長興路","SECT":" ","MAREA":" ","LANE":"８７巷","ALLEY":"３７弄","HOUSE_NO":"１３號","E_COORD97":174007.88,"N_COORD97":2543722.5099999998,"ADDRESS":"長興路８７巷３７弄１３號","OBJECTID":50994},"geometry":{"x":174007.87999999989,"y":2543722.5100000016}},{"attributes":{"ID":50995,"DIS_CODE":0,"TOWNNAME":"官田區","LI":"社子里","LIN":"1鄰","STREET":" ","SECT":" ","MAREA":"舊社","LANE":" ","ALLEY":" ","HOUSE_NO":"９號","E_COORD97":184737.26000000001,"N_COORD97":2564848.7200000002,"ADDRESS":"舊社９號","OBJECTID":50995},"geometry":{"x":184737.25999999978,"y":2564848.7200000025}},{"attributes":{"ID":50996,"DIS_CODE":0,"TOWNNAME":"新市區","LI":"豐華里","LIN":"1鄰","STREET":" ","SECT":" ","MAREA":"豐華","LANE":" ","ALLEY":" ","HOUSE_NO":"８號","E_COORD97":173817.57000000001,"N_COORD97":2553988.25,"ADDRESS":"豐華８號","OBJECTID":50996},"geometry":{"x":173817.57000000216,"y":2553988.2500000019}},{"attributes":{"ID":50997,"DIS_CODE":0,"TOWNNAME":"新市區","LI":"豐華里","LIN":"1鄰","STREET":" ","SECT":" ","MAREA":"豐華","LANE":" ","ALLEY":" ","HOUSE_NO":"１之１號","E_COORD97":173914.17999999999,"N_COORD97":2554128.7999999998,"ADDRESS":"豐華１之１號","OBJECTID":50997},"geometry":{"x":173914.1799999997,"y":2554128.8000000007}},{"attributes":{"ID":50998,"DIS_CODE":0,"TOWNNAME":"新市區","LI":"潭頂里","LIN":"1鄰","STREET":" ","SECT":" ","MAREA":"潭頂","LANE":" ","ALLEY":" ","HOUSE_NO":"１６之１號","E_COORD97":181321.73000000001,"N_COORD97":2552633.7999999998,"ADDRESS":"潭頂１６之１號","OBJECTID":50998},"geometry":{"x":181321.73000000138,"y":2552633.8000000007}},{"attributes":{"ID":50999,"DIS_CODE":0,"TOWNNAME":"新市區","LI":"豐華里","LIN":"1鄰","STREET":" ","SECT":" ","MAREA":"豐華","LANE":" ","ALLEY":" ","HOUSE_NO":"２號","E_COORD97":173901.84,"N_COORD97":2554083.25,"ADDRESS":"豐華２號","OBJECTID":50999},"geometry":{"x":173901.84000000078,"y":2554083.2500000019}},{"attributes":{"ID":51000,"DIS_CODE":0,"TOWNNAME":"仁德區","LI":"成功里","LIN":"15鄰","STREET":"全福路","SECT":" ","MAREA":" ","LANE":"８０巷","ALLEY":"１４弄","HOUSE_NO":"２９號","E_COORD97":170945.70999999999,"N_COORD97":2539263,"ADDRESS":"全福路８０巷１４弄２９號","OBJECTID":51000},"geometry":{"x":170945.70999999996,"y":2539263}}]}