{"displayFieldName":"TOWNNAME","fieldAliases":{"ID":"ID","DIS_CODE":"DIS_CODE","TOWNNAME":"TOWNNAME","LI":"LI","LIN":"LIN","STREET":"STREET","SECT":"SECT","MAREA":"MAREA","LANE":"LANE","ALLEY":"ALLEY","HOUSE_NO":"HOUSE_NO","E_COORD97":"E_COORD97","N_COORD97":"N_COORD97","ADDRESS":"ADDRESS","OBJECTID":"OBJECTID"},"geometryType":"esriGeometryPoint","spatialReference":{"wkid":102443,"latestWkid":3826},"fields":[{"name":"ID","type":"esriFieldTypeDouble","alias":"ID"},{"name":"DIS_CODE","type":"esriFieldTypeInteger","alias":"DIS_CODE"},{"name":"TOWNNAME","type":"esriFieldTypeString","alias":"TOWNNAME","length":8},{"name":"LI","type":"esriFieldTypeString","alias":"LI","length":8},{"name":"LIN","type":"esriFieldTypeString","alias":"LIN","length":12},{"name":"STREET","type":"esriFieldTypeString","alias":"STREET","length":20},{"name":"SECT","type":"esriFieldTypeString","alias":"SECT","length":8},{"name":"MAREA","type":"esriFieldTypeString","alias":"MAREA","length":12},{"name":"LANE","type":"esriFieldTypeString","alias":"LANE","length":10},{"name":"ALLEY","type":"esriFieldTypeString","alias":"ALLEY","length":10},{"name":"HOUSE_NO","type":"esriFieldTypeString","alias":"HOUSE_NO","length":20},{"name":"E_COORD97","type":"esriFieldTypeDouble","alias":"E_COORD97"},{"name":"N_COORD97","type":"esriFieldTypeDouble","alias":"N_COORD97"},{"name":"ADDRESS","type":"esriFieldTypeString","alias":"ADDRESS","length":50},{"name":"OBJECTID","type":"esriFieldTypeOID","alias":"OBJECTID"}],"features":[{"attributes":{"ID":30801,"DIS_CODE":0,"TOWNNAME":"佳里區","LI":"營頂里","LIN":"8鄰","STREET":" ","SECT":" ","MAREA":"營頂","LANE":" ","ALLEY":" ","HOUSE_NO":"８６號之２","E_COORD97":167139.51999999999,"N_COORD97":2566520.9500000002,"ADDRESS":"營頂８６號之２","OBJECTID":30801},"geometry":{"x":167139.51999999862,"y":2566520.9499999993}},{"attributes":{"ID":30802,"DIS_CODE":0,"TOWNNAME":"佳里區","LI":"營頂里","LIN":"8鄰","STREET":" ","SECT":" ","MAREA":"營頂","LANE":" ","ALLEY":" ","HOUSE_NO":"８７號之１","E_COORD97":167073.57000000001,"N_COORD97":2566557.1099999999,"ADDRESS":"營頂８７號之１","OBJECTID":30802},"geometry":{"x":167073.5700000003,"y":2566557.1099999994}},{"attributes":{"ID":30803,"DIS_CODE":0,"TOWNNAME":"仁德區","LI":"保安里","LIN":"14鄰","STREET":"文賢路","SECT":"一段","MAREA":" ","LANE":" ","ALLEY":" ","HOUSE_NO":"５８９號","E_COORD97":171142.5,"N_COORD97":2536789.8300000001,"ADDRESS":"文賢路一段５８９號","OBJECTID":30803},"geometry":{"x":171142.49999999907,"y":2536789.8300000001}},{"attributes":{"ID":30804,"DIS_CODE":0,"TOWNNAME":"新市區","LI":"潭頂里","LIN":"14鄰","STREET":" ","SECT":" ","MAREA":"潭頂","LANE":" ","ALLEY":" ","HOUSE_NO":"５１１之４號","E_COORD97":180433.5,"N_COORD97":2552960.2999999998,"ADDRESS":"潭頂５１１之４號","OBJECTID":30804},"geometry":{"x":180433.5,"y":2552960.3000000045}},{"attributes":{"ID":30805,"DIS_CODE":0,"TOWNNAME":"新市區","LI":"潭頂里","LIN":"14鄰","STREET":" ","SECT":" ","MAREA":"潭頂","LANE":" ","ALLEY":" ","HOUSE_NO":"５１１號","E_COORD97":180453.95000000001,"N_COORD97":2552967.25,"ADDRESS":"潭頂５１１號","OBJECTID":30805},"geometry":{"x":180453.95000000112,"y":2552967.2500000019}},{"attributes":{"ID":30806,"DIS_CODE":0,"TOWNNAME":"北門區","LI":"三光里","LIN":"14鄰","STREET":" ","SECT":" ","MAREA":"蘆竹溝","LANE":" ","ALLEY":" ","HOUSE_NO":"２９０號","E_COORD97":157760.20999999999,"N_COORD97":2570508.4100000001,"ADDRESS":"蘆竹溝２９０號","OBJECTID":30806},"geometry":{"x":157760.20999999996,"y":2570508.410000002}},{"attributes":{"ID":30807,"DIS_CODE":0,"TOWNNAME":"北門區","LI":"三光里","LIN":"14鄰","STREET":" ","SECT":" ","MAREA":"蘆竹溝","LANE":" ","ALLEY":" ","HOUSE_NO":"２９１號","E_COORD97":157727.13,"N_COORD97":2570494.3300000001,"ADDRESS":"蘆竹溝２９１號","OBJECTID":30807},"geometry":{"x":157727.12999999989,"y":2570494.3300000038}},{"attributes":{"ID":30808,"DIS_CODE":0,"TOWNNAME":"北門區","LI":"三光里","LIN":"14鄰","STREET":" ","SECT":" ","MAREA":"蘆竹溝","LANE":" ","ALLEY":" ","HOUSE_NO":"２９２號","E_COORD97":157720.20000000001,"N_COORD97":2570468.25,"ADDRESS":"蘆竹溝２９２號","OBJECTID":30808},"geometry":{"x":157720.20000000019,"y":2570468.2500000019}},{"attributes":{"ID":30809,"DIS_CODE":0,"TOWNNAME":"北門區","LI":"三光里","LIN":"14鄰","STREET":" ","SECT":" ","MAREA":"蘆竹溝","LANE":" ","ALLEY":" ","HOUSE_NO":"２９３號","E_COORD97":157723.14999999999,"N_COORD97":2570464.3399999999,"ADDRESS":"蘆竹溝２９３號","OBJECTID":30809},"geometry":{"x":157723.1500000013,"y":2570464.3400000017}},{"attributes":{"ID":30810,"DIS_CODE":0,"TOWNNAME":"北門區","LI":"三光里","LIN":"14鄰","STREET":" ","SECT":" ","MAREA":"蘆竹溝","LANE":" ","ALLEY":" ","HOUSE_NO":"２９４號","E_COORD97":157715.51000000001,"N_COORD97":2570452.8300000001,"ADDRESS":"蘆竹溝２９４號","OBJECTID":30810},"geometry":{"x":157715.51000000071,"y":2570452.8300000001}},{"attributes":{"ID":30811,"DIS_CODE":0,"TOWNNAME":"北門區","LI":"三光里","LIN":"14鄰","STREET":" ","SECT":" ","MAREA":"蘆竹溝","LANE":" ","ALLEY":" ","HOUSE_NO":"２９５號","E_COORD97":157699.42999999999,"N_COORD97":2570468.4700000002,"ADDRESS":"蘆竹溝２９５號","OBJECTID":30811},"geometry":{"x":157699.4299999997,"y":2570468.4700000007}},{"attributes":{"ID":30812,"DIS_CODE":0,"TOWNNAME":"北門區","LI":"三光里","LIN":"14鄰","STREET":" ","SECT":" ","MAREA":"蘆竹溝","LANE":" ","ALLEY":" ","HOUSE_NO":"２９６號","E_COORD97":157693.57000000001,"N_COORD97":2570485.3900000001,"ADDRESS":"蘆竹溝２９６號","OBJECTID":30812},"geometry":{"x":157693.57000000123,"y":2570485.3900000025}},{"attributes":{"ID":30813,"DIS_CODE":0,"TOWNNAME":"北門區","LI":"三光里","LIN":"14鄰","STREET":" ","SECT":" ","MAREA":"蘆竹溝","LANE":" ","ALLEY":" ","HOUSE_NO":"２９７號","E_COORD97":157677.51999999999,"N_COORD97":2570472.21,"ADDRESS":"蘆竹溝２９７號","OBJECTID":30813},"geometry":{"x":157677.52000000048,"y":2570472.2100000046}},{"attributes":{"ID":30814,"DIS_CODE":0,"TOWNNAME":"北門區","LI":"三光里","LIN":"14鄰","STREET":" ","SECT":" ","MAREA":"蘆竹溝","LANE":" ","ALLEY":" ","HOUSE_NO":"２９８號","E_COORD97":157686.39000000001,"N_COORD97":2570459.8900000001,"ADDRESS":"蘆竹溝２９８號","OBJECTID":30814},"geometry":{"x":157686.38999999966,"y":2570459.8900000006}},{"attributes":{"ID":30815,"DIS_CODE":0,"TOWNNAME":"北門區","LI":"三光里","LIN":"14鄰","STREET":" ","SECT":" ","MAREA":"蘆竹溝","LANE":" ","ALLEY":" ","HOUSE_NO":"２９９號","E_COORD97":157710.91,"N_COORD97":2570376.5899999999,"ADDRESS":"蘆竹溝２９９號","OBJECTID":30815},"geometry":{"x":157710.91000000108,"y":2570376.5899999999}},{"attributes":{"ID":30816,"DIS_CODE":0,"TOWNNAME":"佳里區","LI":"營頂里","LIN":"8鄰","STREET":" ","SECT":" ","MAREA":"營頂","LANE":" ","ALLEY":" ","HOUSE_NO":"８７號之２","E_COORD97":167063.48000000001,"N_COORD97":2566553.9199999999,"ADDRESS":"營頂８７號之２","OBJECTID":30816},"geometry":{"x":167063.48000000138,"y":2566553.9200000037}},{"attributes":{"ID":30817,"DIS_CODE":0,"TOWNNAME":"佳里區","LI":"營頂里","LIN":"8鄰","STREET":" ","SECT":" ","MAREA":"營頂","LANE":" ","ALLEY":" ","HOUSE_NO":"８７號","E_COORD97":167069.01999999999,"N_COORD97":2566552.77,"ADDRESS":"營頂８７號","OBJECTID":30817},"geometry":{"x":167069.02000000048,"y":2566552.7699999996}},{"attributes":{"ID":30818,"DIS_CODE":0,"TOWNNAME":"佳里區","LI":"營頂里","LIN":"8鄰","STREET":" ","SECT":" ","MAREA":"營頂","LANE":" ","ALLEY":" ","HOUSE_NO":"８８號","E_COORD97":167049.73999999999,"N_COORD97":2566555.4700000002,"ADDRESS":"營頂８８號","OBJECTID":30818},"geometry":{"x":167049.74000000115,"y":2566555.4700000025}},{"attributes":{"ID":30819,"DIS_CODE":0,"TOWNNAME":"佳里區","LI":"營頂里","LIN":"8鄰","STREET":" ","SECT":" ","MAREA":"營頂","LANE":" ","ALLEY":" ","HOUSE_NO":"８９號之２","E_COORD97":167126.95999999999,"N_COORD97":2566576.04,"ADDRESS":"營頂８９號之２","OBJECTID":30819},"geometry":{"x":167126.96000000183,"y":2566576.0400000028}},{"attributes":{"ID":30820,"DIS_CODE":0,"TOWNNAME":"佳里區","LI":"營頂里","LIN":"8鄰","STREET":" ","SECT":" ","MAREA":"營頂","LANE":" ","ALLEY":" ","HOUSE_NO":"８９號","E_COORD97":167098.12,"N_COORD97":2566596.8999999999,"ADDRESS":"營頂８９號","OBJECTID":30820},"geometry":{"x":167098.12000000011,"y":2566596.9000000004}},{"attributes":{"ID":30821,"DIS_CODE":0,"TOWNNAME":"佳里區","LI":"鎮山里","LIN":"8鄰","STREET":" ","SECT":" ","MAREA":"鎮山","LANE":" ","ALLEY":" ","HOUSE_NO":"７２號之２３","E_COORD97":166291.35999999999,"N_COORD97":2561491.3900000001,"ADDRESS":"鎮山７２號之２３","OBJECTID":30821},"geometry":{"x":166291.36000000127,"y":2561491.3900000006}},{"attributes":{"ID":30822,"DIS_CODE":0,"TOWNNAME":"佳里區","LI":"鎮山里","LIN":"8鄰","STREET":" ","SECT":" ","MAREA":"鎮山","LANE":" ","ALLEY":" ","HOUSE_NO":"６９號之２７","E_COORD97":166324.07000000001,"N_COORD97":2561554.0299999998,"ADDRESS":"鎮山６９號之２７","OBJECTID":30822},"geometry":{"x":166324.0700000003,"y":2561554.0299999993}},{"attributes":{"ID":30823,"DIS_CODE":0,"TOWNNAME":"佳里區","LI":"鎮山里","LIN":"8鄰","STREET":" ","SECT":" ","MAREA":"鎮山","LANE":" ","ALLEY":" ","HOUSE_NO":"６９號之２８","E_COORD97":166323.82999999999,"N_COORD97":2561558.9900000002,"ADDRESS":"鎮山６９號之２８","OBJECTID":30823},"geometry":{"x":166323.83000000007,"y":2561558.9900000002}},{"attributes":{"ID":30824,"DIS_CODE":0,"TOWNNAME":"佳里區","LI":"鎮山里","LIN":"8鄰","STREET":" ","SECT":" ","MAREA":"鎮山","LANE":" ","ALLEY":" ","HOUSE_NO":"６９號之２","E_COORD97":166736.03,"N_COORD97":2561381.8900000001,"ADDRESS":"鎮山６９號之２","OBJECTID":30824},"geometry":{"x":166736.03000000026,"y":2561381.8900000025}},{"attributes":{"ID":30825,"DIS_CODE":0,"TOWNNAME":"佳里區","LI":"鎮山里","LIN":"8鄰","STREET":" ","SECT":" ","MAREA":"鎮山","LANE":" ","ALLEY":" ","HOUSE_NO":"６９號之３","E_COORD97":166374.14999999999,"N_COORD97":2561532.4199999999,"ADDRESS":"鎮山６９號之３","OBJECTID":30825},"geometry":{"x":166374.1500000013,"y":2561532.4199999981}},{"attributes":{"ID":30826,"DIS_CODE":0,"TOWNNAME":"佳里區","LI":"鎮山里","LIN":"8鄰","STREET":" ","SECT":" ","MAREA":"鎮山","LANE":" ","ALLEY":" ","HOUSE_NO":"６９號","E_COORD97":166358.75,"N_COORD97":2561540.2400000002,"ADDRESS":"鎮山６９號","OBJECTID":30826},"geometry":{"x":166358.75000000186,"y":2561540.2400000002}},{"attributes":{"ID":30827,"DIS_CODE":0,"TOWNNAME":"永康區","LI":"東橋里","LIN":"17鄰","STREET":"東橋十街","SECT":" ","MAREA":" ","LANE":"８８巷","ALLEY":"１弄","HOUSE_NO":"７號","E_COORD97":171395.04000000001,"N_COORD97":2546935.6200000001,"ADDRESS":"東橋十街８８巷１弄７號","OBJECTID":30827},"geometry":{"x":171395.0400000019,"y":2546935.620000001}},{"attributes":{"ID":30828,"DIS_CODE":0,"TOWNNAME":"佳里區","LI":"鎮山里","LIN":"8鄰","STREET":" ","SECT":" ","MAREA":"鎮山","LANE":" ","ALLEY":" ","HOUSE_NO":"７２號之１０","E_COORD97":166274.64000000001,"N_COORD97":2561484.7400000002,"ADDRESS":"鎮山７２號之１０","OBJECTID":30828},"geometry":{"x":166274.6400000006,"y":2561484.7400000021}},{"attributes":{"ID":30829,"DIS_CODE":0,"TOWNNAME":"永康區","LI":"西勢里","LIN":"17鄰","STREET":"富強路","SECT":"一段","MAREA":" ","LANE":"１６８巷","ALLEY":"１２８弄","HOUSE_NO":"６號","E_COORD97":175743.04999999999,"N_COORD97":2546276.6200000001,"ADDRESS":"富強路一段１６８巷１２８弄６號","OBJECTID":30829},"geometry":{"x":175743.05000000075,"y":2546276.6200000029}},{"attributes":{"ID":30830,"DIS_CODE":0,"TOWNNAME":"永康區","LI":"烏竹里","LIN":"17鄰","STREET":"竹南街","SECT":" ","MAREA":" ","LANE":"５６巷","ALLEY":"１５弄","HOUSE_NO":"１０號","E_COORD97":174425.17999999999,"N_COORD97":2548866.3500000001,"ADDRESS":"竹南街５６巷１５弄１０號","OBJECTID":30830},"geometry":{"x":174425.18000000063,"y":2548866.3500000034}},{"attributes":{"ID":30831,"DIS_CODE":0,"TOWNNAME":"永康區","LI":"烏竹里","LIN":"17鄰","STREET":"竹南街","SECT":" ","MAREA":" ","LANE":"５６巷","ALLEY":"１５弄","HOUSE_NO":"２８號","E_COORD97":174407.67000000001,"N_COORD97":2548871.96,"ADDRESS":"竹南街５６巷１５弄２８號","OBJECTID":30831},"geometry":{"x":174407.66999999993,"y":2548871.9600000028}},{"attributes":{"ID":30832,"DIS_CODE":0,"TOWNNAME":"北門區","LI":"保吉里","LIN":"14鄰","STREET":" ","SECT":" ","MAREA":"蚵寮","LANE":" ","ALLEY":" ","HOUSE_NO":"３６４號之５１","E_COORD97":159905.20999999999,"N_COORD97":2576656.9100000001,"ADDRESS":"蚵寮３６４號之５１","OBJECTID":30832},"geometry":{"x":159905.20999999996,"y":2576656.9100000001}},{"attributes":{"ID":30833,"DIS_CODE":0,"TOWNNAME":"永康區","LI":"東橋里","LIN":"17鄰","STREET":"東橋十街","SECT":" ","MAREA":" ","LANE":"８８巷","ALLEY":"２弄","HOUSE_NO":"１７號","E_COORD97":171341.14999999999,"N_COORD97":2546880.2799999998,"ADDRESS":"東橋十街８８巷２弄１７號","OBJECTID":30833},"geometry":{"x":171341.1500000013,"y":2546880.2800000012}},{"attributes":{"ID":30834,"DIS_CODE":0,"TOWNNAME":"永康區","LI":"烏竹里","LIN":"17鄰","STREET":"竹南街","SECT":" ","MAREA":" ","LANE":"５６巷","ALLEY":"１５弄","HOUSE_NO":"１３號","E_COORD97":174416.12,"N_COORD97":2548829.0499999998,"ADDRESS":"竹南街５６巷１５弄１３號","OBJECTID":30834},"geometry":{"x":174416.12000000104,"y":2548829.0500000045}},{"attributes":{"ID":30835,"DIS_CODE":0,"TOWNNAME":"永康區","LI":"烏竹里","LIN":"17鄰","STREET":"竹南街","SECT":" ","MAREA":" ","LANE":"５６巷","ALLEY":"１５弄","HOUSE_NO":"７號","E_COORD97":174432.94,"N_COORD97":2548835.54,"ADDRESS":"竹南街５６巷１５弄７號","OBJECTID":30835},"geometry":{"x":174432.94000000134,"y":2548835.540000001}},{"attributes":{"ID":30836,"DIS_CODE":0,"TOWNNAME":"北門區","LI":"錦湖里","LIN":"14鄰","STREET":" ","SECT":" ","MAREA":"渡子頭","LANE":" ","ALLEY":" ","HOUSE_NO":"１４０之６號","E_COORD97":163688.44,"N_COORD97":2578434.4500000002,"ADDRESS":"渡子頭１４０之６號","OBJECTID":30836},"geometry":{"x":163688.44000000134,"y":2578434.4499999993}},{"attributes":{"ID":30837,"DIS_CODE":0,"TOWNNAME":"新市區","LI":"新和里","LIN":"14鄰","STREET":"忠孝街","SECT":" ","MAREA":" ","LANE":" ","ALLEY":" ","HOUSE_NO":"１０６號","E_COORD97":177697.82000000001,"N_COORD97":2552597.25,"ADDRESS":"忠孝街１０６號","OBJECTID":30837},"geometry":{"x":177697.82000000216,"y":2552597.2500000019}},{"attributes":{"ID":30838,"DIS_CODE":0,"TOWNNAME":"永康區","LI":"烏竹里","LIN":"17鄰","STREET":"竹南街","SECT":" ","MAREA":" ","LANE":"５６巷","ALLEY":"１５弄","HOUSE_NO":"１號","E_COORD97":174450.26000000001,"N_COORD97":2548841.71,"ADDRESS":"竹南街５６巷１５弄１號","OBJECTID":30838},"geometry":{"x":174450.26000000071,"y":2548841.7100000046}},{"attributes":{"ID":30839,"DIS_CODE":0,"TOWNNAME":"新市區","LI":"大營里","LIN":"14鄰","STREET":" ","SECT":" ","MAREA":"大營","LANE":" ","ALLEY":" ","HOUSE_NO":"２６８號","E_COORD97":179242.85000000001,"N_COORD97":2555519.75,"ADDRESS":"大營２６８號","OBJECTID":30839},"geometry":{"x":179242.85000000149,"y":2555519.7500000019}},{"attributes":{"ID":30840,"DIS_CODE":0,"TOWNNAME":"佳里區","LI":"鎮山里","LIN":"8鄰","STREET":" ","SECT":" ","MAREA":"鎮山","LANE":" ","ALLEY":" ","HOUSE_NO":"７２號之１３","E_COORD97":166273.31,"N_COORD97":2561472.5600000001,"ADDRESS":"鎮山７２號之１３","OBJECTID":30840},"geometry":{"x":166273.31000000052,"y":2561472.5600000024}},{"attributes":{"ID":30841,"DIS_CODE":0,"TOWNNAME":"新市區","LI":"大社里","LIN":"14鄰","STREET":" ","SECT":" ","MAREA":"大社","LANE":" ","ALLEY":" ","HOUSE_NO":"５３０號之１３","E_COORD97":179881.82000000001,"N_COORD97":2554745.7999999998,"ADDRESS":"大社５３０號之１３","OBJECTID":30841},"geometry":{"x":179881.82000000123,"y":2554745.8000000007}},{"attributes":{"ID":30842,"DIS_CODE":0,"TOWNNAME":"永康區","LI":"烏竹里","LIN":"17鄰","STREET":"竹南街","SECT":" ","MAREA":" ","LANE":"５６巷","ALLEY":"１５弄","HOUSE_NO":"３０號","E_COORD97":174403.92000000001,"N_COORD97":2548876.5499999998,"ADDRESS":"竹南街５６巷１５弄３０號","OBJECTID":30842},"geometry":{"x":174403.91999999993,"y":2548876.5500000045}},{"attributes":{"ID":30843,"DIS_CODE":0,"TOWNNAME":"歸仁區","LI":"大廟里","LIN":"18鄰","STREET":"大廟五街","SECT":" ","MAREA":" ","LANE":"２７巷","ALLEY":"６弄","HOUSE_NO":"７號","E_COORD97":175879.48000000001,"N_COORD97":2544253.0899999999,"ADDRESS":"大廟五街２７巷６弄７號","OBJECTID":30843},"geometry":{"x":175879.47999999952,"y":2544253.0899999999}},{"attributes":{"ID":30844,"DIS_CODE":0,"TOWNNAME":"歸仁區","LI":"大廟里","LIN":"13鄰","STREET":"大廟六街","SECT":" ","MAREA":" ","LANE":"１１０巷","ALLEY":"２０弄","HOUSE_NO":"８號","E_COORD97":176213.17000000001,"N_COORD97":2544210.25,"ADDRESS":"大廟六街１１０巷２０弄８號","OBJECTID":30844},"geometry":{"x":176213.16999999993,"y":2544210.2500000019}},{"attributes":{"ID":30845,"DIS_CODE":0,"TOWNNAME":"東區","LI":"路東里","LIN":"17鄰","STREET":"大同路","SECT":"二段","MAREA":" ","LANE":"６１巷","ALLEY":"１３６弄","HOUSE_NO":"１１號","E_COORD97":169460.22,"N_COORD97":2542296.0099999998,"ADDRESS":"大同路二段６１巷１３６弄１１號","OBJECTID":30845},"geometry":{"x":169460.21999999974,"y":2542296.0100000016}},{"attributes":{"ID":30846,"DIS_CODE":0,"TOWNNAME":"東區","LI":"路東里","LIN":"17鄰","STREET":"大同路","SECT":"二段","MAREA":" ","LANE":"６１巷","ALLEY":"１３６弄","HOUSE_NO":"１３號","E_COORD97":169464.57000000001,"N_COORD97":2542295.2000000002,"ADDRESS":"大同路二段６１巷１３６弄１３號","OBJECTID":30846},"geometry":{"x":169464.57000000123,"y":2542295.1999999993}},{"attributes":{"ID":30847,"DIS_CODE":0,"TOWNNAME":"東區","LI":"路東里","LIN":"17鄰","STREET":"大同路","SECT":"二段","MAREA":" ","LANE":"６１巷","ALLEY":"１３６弄","HOUSE_NO":"１５號","E_COORD97":169467.82999999999,"N_COORD97":2542297.1000000001,"ADDRESS":"大同路二段６１巷１３６弄１５號","OBJECTID":30847},"geometry":{"x":169467.83000000101,"y":2542297.0999999996}},{"attributes":{"ID":30848,"DIS_CODE":0,"TOWNNAME":"東區","LI":"路東里","LIN":"17鄰","STREET":"大同路","SECT":"二段","MAREA":" ","LANE":"６１巷","ALLEY":"１３６弄","HOUSE_NO":"１７號","E_COORD97":169471.35999999999,"N_COORD97":2542297.9100000001,"ADDRESS":"大同路二段６１巷１３６弄１７號","OBJECTID":30848},"geometry":{"x":169471.36000000127,"y":2542297.9100000001}},{"attributes":{"ID":30849,"DIS_CODE":0,"TOWNNAME":"東區","LI":"路東里","LIN":"17鄰","STREET":"大同路","SECT":"二段","MAREA":" ","LANE":"６１巷","ALLEY":"１３６弄","HOUSE_NO":"４１號","E_COORD97":169512.67000000001,"N_COORD97":2542309.3100000001,"ADDRESS":"大同路二段６１巷１３６弄４１號","OBJECTID":30849},"geometry":{"x":169512.67000000086,"y":2542309.3100000005}},{"attributes":{"ID":30850,"DIS_CODE":0,"TOWNNAME":"東區","LI":"路東里","LIN":"17鄰","STREET":"大同路","SECT":"二段","MAREA":" ","LANE":"６１巷","ALLEY":"１３６弄","HOUSE_NO":"５號","E_COORD97":169450.44,"N_COORD97":2542293.8399999999,"ADDRESS":"大同路二段６１巷１３６弄５號","OBJECTID":30850},"geometry":{"x":169450.44000000134,"y":2542293.8400000017}},{"attributes":{"ID":30851,"DIS_CODE":0,"TOWNNAME":"東區","LI":"路東里","LIN":"17鄰","STREET":"大同路","SECT":"二段","MAREA":" ","LANE":"６１巷","ALLEY":"１３６弄","HOUSE_NO":"７號","E_COORD97":169454.51999999999,"N_COORD97":2542292.75,"ADDRESS":"大同路二段６１巷１３６弄７號","OBJECTID":30851},"geometry":{"x":169454.51999999955,"y":2542292.75}},{"attributes":{"ID":30852,"DIS_CODE":0,"TOWNNAME":"東區","LI":"路東里","LIN":"17鄰","STREET":"大同路","SECT":"二段","MAREA":" ","LANE":"６１巷","ALLEY":"１３６弄","HOUSE_NO":"９號","E_COORD97":169457.23000000001,"N_COORD97":2542294.9300000002,"ADDRESS":"大同路二段６１巷１３６弄９號","OBJECTID":30852},"geometry":{"x":169457.23000000138,"y":2542294.9299999997}},{"attributes":{"ID":30853,"DIS_CODE":0,"TOWNNAME":"歸仁區","LI":"六甲里","LIN":"41鄰","STREET":"民生十二街","SECT":" ","MAREA":" ","LANE":"２７巷","ALLEY":"１０弄","HOUSE_NO":"９號","E_COORD97":176014.51000000001,"N_COORD97":2539386.77,"ADDRESS":"民生十二街２７巷１０弄９號","OBJECTID":30853},"geometry":{"x":176014.51000000071,"y":2539386.7699999996}},{"attributes":{"ID":30854,"DIS_CODE":0,"TOWNNAME":"永康區","LI":"復華里","LIN":"31鄰","STREET":"復華八街","SECT":" ","MAREA":" ","LANE":"５１巷","ALLEY":"６１弄","HOUSE_NO":"６號","E_COORD97":172592.78943199999,"N_COORD97":2546424.12561,"ADDRESS":"復華八街５１巷６１弄６號","OBJECTID":30854},"geometry":{"x":172592.7894320013,"y":2546424.1256100014}},{"attributes":{"ID":30855,"DIS_CODE":0,"TOWNNAME":"歸仁區","LI":"大廟里","LIN":"13鄰","STREET":"大廟六街","SECT":" ","MAREA":" ","LANE":"１１０巷","ALLEY":"２０弄","HOUSE_NO":"３號","E_COORD97":176223.37,"N_COORD97":2544202.25,"ADDRESS":"大廟六街１１０巷２０弄３號","OBJECTID":30855},"geometry":{"x":176223.37000000011,"y":2544202.2500000037}},{"attributes":{"ID":30856,"DIS_CODE":0,"TOWNNAME":"歸仁區","LI":"七甲里","LIN":"18鄰","STREET":"南潭三街","SECT":" ","MAREA":" ","LANE":"１６２巷","ALLEY":"８弄","HOUSE_NO":"１１號","E_COORD97":176409.63,"N_COORD97":2543141.02,"ADDRESS":"南潭三街１６２巷８弄１１號","OBJECTID":30856},"geometry":{"x":176409.62999999989,"y":2543141.0199999996}},{"attributes":{"ID":30857,"DIS_CODE":0,"TOWNNAME":"永康區","LI":"安康里","LIN":"17鄰","STREET":"中華路","SECT":" ","MAREA":" ","LANE":"６１９巷","ALLEY":"２２弄","HOUSE_NO":"２４號","E_COORD97":170984.37,"N_COORD97":2546132.25,"ADDRESS":"中華路６１９巷２２弄２４號","OBJECTID":30857},"geometry":{"x":170984.37000000197,"y":2546132.2500000019}},{"attributes":{"ID":30858,"DIS_CODE":0,"TOWNNAME":"永康區","LI":"安康里","LIN":"17鄰","STREET":"中華路","SECT":" ","MAREA":" ","LANE":"６１９巷","ALLEY":"２２弄","HOUSE_NO":"４６號","E_COORD97":170952.04000000001,"N_COORD97":2546188.4900000002,"ADDRESS":"中華路６１９巷２２弄４６號","OBJECTID":30858},"geometry":{"x":170952.04000000004,"y":2546188.4900000021}},{"attributes":{"ID":30859,"DIS_CODE":0,"TOWNNAME":"永康區","LI":"甲頂里","LIN":"17鄰","STREET":"中正南路","SECT":" ","MAREA":" ","LANE":"５２巷","ALLEY":"４６弄","HOUSE_NO":"３５號","E_COORD97":169861.42999999999,"N_COORD97":2546672.96,"ADDRESS":"中正南路５２巷４６弄３５號","OBJECTID":30859},"geometry":{"x":169861.43000000063,"y":2546672.9600000009}},{"attributes":{"ID":30860,"DIS_CODE":0,"TOWNNAME":"永康區","LI":"安康里","LIN":"17鄰","STREET":"中華路","SECT":" ","MAREA":" ","LANE":"６１９巷","ALLEY":"２２弄","HOUSE_NO":"４０號","E_COORD97":170958.63,"N_COORD97":2546177.7400000002,"ADDRESS":"中華路６１９巷２２弄４０號","OBJECTID":30860},"geometry":{"x":170958.63000000175,"y":2546177.7400000002}},{"attributes":{"ID":30861,"DIS_CODE":0,"TOWNNAME":"永康區","LI":"安康里","LIN":"17鄰","STREET":"中華路","SECT":" ","MAREA":" ","LANE":"６１９巷","ALLEY":"２２弄","HOUSE_NO":"２０號","E_COORD97":171006.91,"N_COORD97":2546143.46,"ADDRESS":"中華路６１９巷２２弄２０號","OBJECTID":30861},"geometry":{"x":171006.91000000015,"y":2546143.4600000009}},{"attributes":{"ID":30862,"DIS_CODE":0,"TOWNNAME":"永康區","LI":"甲頂里","LIN":"17鄰","STREET":"中正南路","SECT":" ","MAREA":" ","LANE":"５２巷","ALLEY":"４６弄","HOUSE_NO":"２９號","E_COORD97":169885.59,"N_COORD97":2546675.0299999998,"ADDRESS":"中正南路５２巷４６弄２９號","OBJECTID":30862},"geometry":{"x":169885.58999999892,"y":2546675.0300000012}},{"attributes":{"ID":30863,"DIS_CODE":0,"TOWNNAME":"永康區","LI":"安康里","LIN":"17鄰","STREET":"中華路","SECT":" ","MAREA":" ","LANE":"６１９巷","ALLEY":"２２弄","HOUSE_NO":"３４號","E_COORD97":170968.17000000001,"N_COORD97":2546159.7400000002,"ADDRESS":"中華路６１９巷２２弄３４號","OBJECTID":30863},"geometry":{"x":170968.16999999993,"y":2546159.7400000021}},{"attributes":{"ID":30864,"DIS_CODE":0,"TOWNNAME":"永康區","LI":"甲頂里","LIN":"17鄰","STREET":"中正南路","SECT":" ","MAREA":" ","LANE":"５２巷","ALLEY":"４６弄","HOUSE_NO":"２７號","E_COORD97":169893.66,"N_COORD97":2546676.8100000001,"ADDRESS":"中正南路５２巷４６弄２７號","OBJECTID":30864},"geometry":{"x":169893.66000000015,"y":2546676.8100000005}},{"attributes":{"ID":30865,"DIS_CODE":0,"TOWNNAME":"永康區","LI":"甲頂里","LIN":"17鄰","STREET":"中正南路","SECT":" ","MAREA":" ","LANE":"５２巷","ALLEY":"４６弄","HOUSE_NO":"１５號","E_COORD97":169858.76000000001,"N_COORD97":2546693.5499999998,"ADDRESS":"中正南路５２巷４６弄１５號","OBJECTID":30865},"geometry":{"x":169858.75999999978,"y":2546693.5500000026}},{"attributes":{"ID":30866,"DIS_CODE":0,"TOWNNAME":"永康區","LI":"安康里","LIN":"17鄰","STREET":"中華路","SECT":" ","MAREA":" ","LANE":"６１９巷","ALLEY":"２２弄","HOUSE_NO":"３８號","E_COORD97":170960.22,"N_COORD97":2546174.4900000002,"ADDRESS":"中華路６１９巷２２弄３８號","OBJECTID":30866},"geometry":{"x":170960.22000000067,"y":2546174.4900000021}},{"attributes":{"ID":30867,"DIS_CODE":0,"TOWNNAME":"永康區","LI":"安康里","LIN":"17鄰","STREET":"中華路","SECT":" ","MAREA":" ","LANE":"６１９巷","ALLEY":"２２弄","HOUSE_NO":"２６號","E_COORD97":170982.20000000001,"N_COORD97":2546136,"ADDRESS":"中華路６１９巷２２弄２６號","OBJECTID":30867},"geometry":{"x":170982.20000000205,"y":2546136}},{"attributes":{"ID":30868,"DIS_CODE":0,"TOWNNAME":"永康區","LI":"甲頂里","LIN":"17鄰","STREET":"中正南路","SECT":" ","MAREA":" ","LANE":"５２巷","ALLEY":"４６弄","HOUSE_NO":"３３號","E_COORD97":169869.34,"N_COORD97":2546674,"ADDRESS":"中正南路５２巷４６弄３３號","OBJECTID":30868},"geometry":{"x":169869.34000000078,"y":2546674}},{"attributes":{"ID":30869,"DIS_CODE":0,"TOWNNAME":"永康區","LI":"安康里","LIN":"17鄰","STREET":"中華路","SECT":" ","MAREA":" ","LANE":"６１９巷","ALLEY":"２２弄","HOUSE_NO":"２８號","E_COORD97":170980.07000000001,"N_COORD97":2546139.25,"ADDRESS":"中華路６１９巷２２弄２８號","OBJECTID":30869},"geometry":{"x":170980.07000000123,"y":2546139.2500000019}},{"attributes":{"ID":30870,"DIS_CODE":0,"TOWNNAME":"永康區","LI":"甲頂里","LIN":"17鄰","STREET":"中正南路","SECT":" ","MAREA":" ","LANE":"５２巷","ALLEY":"４６弄","HOUSE_NO":"３號","E_COORD97":169833.85000000001,"N_COORD97":2546746.8100000001,"ADDRESS":"中正南路５２巷４６弄３號","OBJECTID":30870},"geometry":{"x":169833.84999999963,"y":2546746.8100000024}},{"attributes":{"ID":30871,"DIS_CODE":0,"TOWNNAME":"永康區","LI":"甲頂里","LIN":"17鄰","STREET":"中正南路","SECT":" ","MAREA":" ","LANE":"５２巷","ALLEY":"４６弄","HOUSE_NO":"３２號","E_COORD97":169873.35000000001,"N_COORD97":2546674.2999999998,"ADDRESS":"中正南路５２巷４６弄３２號","OBJECTID":30871},"geometry":{"x":169873.34999999963,"y":2546674.3000000045}},{"attributes":{"ID":30872,"DIS_CODE":0,"TOWNNAME":"永康區","LI":"正強里","LIN":"17鄰","STREET":"自強路","SECT":" ","MAREA":" ","LANE":"１８８巷","ALLEY":"３０弄","HOUSE_NO":"２號","E_COORD97":173196.01999999999,"N_COORD97":2547379.5800000001,"ADDRESS":"自強路１８８巷３０弄２號","OBJECTID":30872},"geometry":{"x":173196.01999999955,"y":2547379.5800000001}},{"attributes":{"ID":30873,"DIS_CODE":0,"TOWNNAME":"永康區","LI":"正強里","LIN":"17鄰","STREET":"自強路","SECT":" ","MAREA":" ","LANE":"１８８巷","ALLEY":"３０弄","HOUSE_NO":"６號","E_COORD97":173187.79999999999,"N_COORD97":2547378.5800000001,"ADDRESS":"自強路１８８巷３０弄６號","OBJECTID":30873},"geometry":{"x":173187.79999999981,"y":2547378.5800000001}},{"attributes":{"ID":30874,"DIS_CODE":0,"TOWNNAME":"永康區","LI":"正強里","LIN":"17鄰","STREET":"自強路","SECT":" ","MAREA":" ","LANE":"１８８巷","ALLEY":"４６弄","HOUSE_NO":"２１號","E_COORD97":173176.28,"N_COORD97":2547294.4900000002,"ADDRESS":"自強路１８８巷４６弄２１號","OBJECTID":30874},"geometry":{"x":173176.28000000026,"y":2547294.4900000021}},{"attributes":{"ID":30875,"DIS_CODE":0,"TOWNNAME":"佳里區","LI":"鎮山里","LIN":"8鄰","STREET":" ","SECT":" ","MAREA":"鎮山","LANE":" ","ALLEY":" ","HOUSE_NO":"７２號之１１","E_COORD97":166274.19,"N_COORD97":2561480.6800000002,"ADDRESS":"鎮山７２號之１１","OBJECTID":30875},"geometry":{"x":166274.19000000041,"y":2561480.6800000016}},{"attributes":{"ID":30876,"DIS_CODE":0,"TOWNNAME":"永康區","LI":"安康里","LIN":"17鄰","STREET":"中華路","SECT":" ","MAREA":" ","LANE":"６１９巷","ALLEY":"２２弄","HOUSE_NO":"２２號","E_COORD97":170986.67999999999,"N_COORD97":2546128.5,"ADDRESS":"中華路６１９巷２２弄２２號","OBJECTID":30876},"geometry":{"x":170986.67999999877,"y":2546128.5}},{"attributes":{"ID":30877,"DIS_CODE":0,"TOWNNAME":"永康區","LI":"正強里","LIN":"17鄰","STREET":"自強路","SECT":" ","MAREA":" ","LANE":"１８８巷","ALLEY":"３０弄","HOUSE_NO":"１號","E_COORD97":173190.23999999999,"N_COORD97":2547365.8300000001,"ADDRESS":"自強路１８８巷３０弄１號","OBJECTID":30877},"geometry":{"x":173190.24000000022,"y":2547365.8300000019}},{"attributes":{"ID":30878,"DIS_CODE":0,"TOWNNAME":"南區","LI":"同安里","LIN":"17鄰","STREET":"明興路","SECT":" ","MAREA":" ","LANE":"１４２５巷","ALLEY":"８弄","HOUSE_NO":"２號","E_COORD97":166370.91,"N_COORD97":2535746.0600000001,"ADDRESS":"明興路１４２５巷８弄２號","OBJECTID":30878},"geometry":{"x":166370.91000000015,"y":2535746.0600000024}},{"attributes":{"ID":30879,"DIS_CODE":0,"TOWNNAME":"南區","LI":"同安里","LIN":"17鄰","STREET":"明興路","SECT":" ","MAREA":" ","LANE":"１４２５巷","ALLEY":"８弄","HOUSE_NO":"３號","E_COORD97":166387.89999999999,"N_COORD97":2535736,"ADDRESS":"明興路１４２５巷８弄３號","OBJECTID":30879},"geometry":{"x":166387.90000000037,"y":2535736.0000000019}},{"attributes":{"ID":30880,"DIS_CODE":0,"TOWNNAME":"南區","LI":"同安里","LIN":"17鄰","STREET":"明興路","SECT":" ","MAREA":" ","LANE":"１４２５巷","ALLEY":"８弄","HOUSE_NO":"４號","E_COORD97":166370.04000000001,"N_COORD97":2535740.7799999998,"ADDRESS":"明興路１４２５巷８弄４號","OBJECTID":30880},"geometry":{"x":166370.04000000004,"y":2535740.7799999993}},{"attributes":{"ID":30881,"DIS_CODE":0,"TOWNNAME":"南區","LI":"同安里","LIN":"17鄰","STREET":"明興路","SECT":" ","MAREA":" ","LANE":"１４２５巷","ALLEY":"８弄","HOUSE_NO":"５號","E_COORD97":166384.60999999999,"N_COORD97":2535729.8999999999,"ADDRESS":"明興路１４２５巷８弄５號","OBJECTID":30881},"geometry":{"x":166384.61000000127,"y":2535729.9000000022}},{"attributes":{"ID":30882,"DIS_CODE":0,"TOWNNAME":"南區","LI":"同安里","LIN":"17鄰","STREET":"明興路","SECT":" ","MAREA":" ","LANE":"１４２５巷","ALLEY":"８弄","HOUSE_NO":"６號","E_COORD97":166369,"N_COORD97":2535734.8300000001,"ADDRESS":"明興路１４２５巷８弄６號","OBJECTID":30882},"geometry":{"x":166369.00000000186,"y":2535734.8300000001}},{"attributes":{"ID":30883,"DIS_CODE":0,"TOWNNAME":"南區","LI":"同安里","LIN":"17鄰","STREET":"明興路","SECT":" ","MAREA":" ","LANE":"１４２５巷","ALLEY":"８弄","HOUSE_NO":"７號","E_COORD97":166384.35000000001,"N_COORD97":2535725.8399999999,"ADDRESS":"明興路１４２５巷８弄７號","OBJECTID":30883},"geometry":{"x":166384.34999999963,"y":2535725.8400000017}},{"attributes":{"ID":30884,"DIS_CODE":0,"TOWNNAME":"南區","LI":"同安里","LIN":"17鄰","STREET":"明興路","SECT":" ","MAREA":" ","LANE":"１４２５巷","ALLEY":"８弄","HOUSE_NO":"８號","E_COORD97":166365.19,"N_COORD97":2535730.4199999999,"ADDRESS":"明興路１４２５巷８弄８號","OBJECTID":30884},"geometry":{"x":166365.19000000134,"y":2535730.4199999999}},{"attributes":{"ID":30885,"DIS_CODE":0,"TOWNNAME":"南區","LI":"同安里","LIN":"17鄰","STREET":"明興路","SECT":" ","MAREA":" ","LANE":"１４２５巷","ALLEY":"８弄","HOUSE_NO":"９號","E_COORD97":166381.84,"N_COORD97":2535719.0099999998,"ADDRESS":"明興路１４２５巷８弄９號","OBJECTID":30885},"geometry":{"x":166381.84000000171,"y":2535719.0100000016}},{"attributes":{"ID":30886,"DIS_CODE":0,"TOWNNAME":"仁德區","LI":"保安里","LIN":"17鄰","STREET":"中正路","SECT":"一段","MAREA":" ","LANE":"１１６巷","ALLEY":"２弄","HOUSE_NO":"３號","E_COORD97":171375.85000000001,"N_COORD97":2535498.02,"ADDRESS":"中正路一段１１６巷２弄３號","OBJECTID":30886},"geometry":{"x":171375.85000000056,"y":2535498.0200000014}},{"attributes":{"ID":30887,"DIS_CODE":0,"TOWNNAME":"南區","LI":"同安里","LIN":"17鄰","STREET":"明興路","SECT":" ","MAREA":" ","LANE":"１４２５巷","ALLEY":"８弄","HOUSE_NO":"１０號","E_COORD97":166364.92999999999,"N_COORD97":2535724.8900000001,"ADDRESS":"明興路１４２５巷８弄１０號","OBJECTID":30887},"geometry":{"x":166364.9299999997,"y":2535724.8900000006}},{"attributes":{"ID":30888,"DIS_CODE":0,"TOWNNAME":"南區","LI":"同安里","LIN":"17鄰","STREET":"明興路","SECT":" ","MAREA":" ","LANE":"１４２５巷","ALLEY":"８弄","HOUSE_NO":"１１號","E_COORD97":166380.45000000001,"N_COORD97":2535714.9300000002,"ADDRESS":"明興路１４２５巷８弄１１號","OBJECTID":30888},"geometry":{"x":166380.45000000112,"y":2535714.9300000016}},{"attributes":{"ID":30889,"DIS_CODE":0,"TOWNNAME":"南區","LI":"同安里","LIN":"17鄰","STREET":"明興路","SECT":" ","MAREA":" ","LANE":"１４２５巷","ALLEY":"８弄","HOUSE_NO":"１２號","E_COORD97":166363.54999999999,"N_COORD97":2535719.27,"ADDRESS":"明興路１４２５巷８弄１２號","OBJECTID":30889},"geometry":{"x":166363.55000000075,"y":2535719.2700000014}},{"attributes":{"ID":30890,"DIS_CODE":0,"TOWNNAME":"南區","LI":"同安里","LIN":"17鄰","STREET":"明興路","SECT":" ","MAREA":" ","LANE":"１４２５巷","ALLEY":"８弄","HOUSE_NO":"１３號","E_COORD97":166379.92999999999,"N_COORD97":2535707.52,"ADDRESS":"明興路１４２５巷８弄１３號","OBJECTID":30890},"geometry":{"x":166379.93000000063,"y":2535707.5200000014}},{"attributes":{"ID":30891,"DIS_CODE":0,"TOWNNAME":"南區","LI":"同安里","LIN":"17鄰","STREET":"明興路","SECT":" ","MAREA":" ","LANE":"１４２５巷","ALLEY":"８弄","HOUSE_NO":"１４號","E_COORD97":166361.12,"N_COORD97":2535713.96,"ADDRESS":"明興路１４２５巷８弄１４號","OBJECTID":30891},"geometry":{"x":166361.12000000011,"y":2535713.9600000009}},{"attributes":{"ID":30892,"DIS_CODE":0,"TOWNNAME":"南區","LI":"同安里","LIN":"17鄰","STREET":"明興路","SECT":" ","MAREA":" ","LANE":"１４２５巷","ALLEY":"８弄","HOUSE_NO":"１５號","E_COORD97":166377.67999999999,"N_COORD97":2535701.5600000001,"ADDRESS":"明興路１４２５巷８弄１５號","OBJECTID":30892},"geometry":{"x":166377.68000000156,"y":2535701.5600000024}},{"attributes":{"ID":30893,"DIS_CODE":0,"TOWNNAME":"南區","LI":"同安里","LIN":"17鄰","STREET":"明興路","SECT":" ","MAREA":" ","LANE":"１４２５巷","ALLEY":"１４弄","HOUSE_NO":"２號","E_COORD97":166399.84,"N_COORD97":2535750.29,"ADDRESS":"明興路１４２５巷１４弄２號","OBJECTID":30893},"geometry":{"x":166399.83999999985,"y":2535750.290000001}},{"attributes":{"ID":30894,"DIS_CODE":0,"TOWNNAME":"南區","LI":"同安里","LIN":"17鄰","STREET":"明興路","SECT":" ","MAREA":" ","LANE":"１４２５巷","ALLEY":"１４弄","HOUSE_NO":"４號","E_COORD97":166400.88,"N_COORD97":2535745.7999999998,"ADDRESS":"明興路１４２５巷１４弄４號","OBJECTID":30894},"geometry":{"x":166400.88000000082,"y":2535745.8000000007}},{"attributes":{"ID":30895,"DIS_CODE":0,"TOWNNAME":"南區","LI":"同安里","LIN":"17鄰","STREET":"明興路","SECT":" ","MAREA":" ","LANE":"１４２５巷","ALLEY":"１４弄","HOUSE_NO":"６號","E_COORD97":166399.57999999999,"N_COORD97":2535741.73,"ADDRESS":"明興路１４２５巷１４弄６號","OBJECTID":30895},"geometry":{"x":166399.58000000101,"y":2535741.7300000023}},{"attributes":{"ID":30896,"DIS_CODE":0,"TOWNNAME":"南區","LI":"同安里","LIN":"17鄰","STREET":"明興路","SECT":" ","MAREA":" ","LANE":"１４２５巷","ALLEY":"１４弄","HOUSE_NO":"８號","E_COORD97":166399.67000000001,"N_COORD97":2535738.3500000001,"ADDRESS":"明興路１４２５巷１４弄８號","OBJECTID":30896},"geometry":{"x":166399.66999999993,"y":2535738.3499999996}},{"attributes":{"ID":30897,"DIS_CODE":0,"TOWNNAME":"南區","LI":"同安里","LIN":"17鄰","STREET":"明興路","SECT":" ","MAREA":" ","LANE":"１４２５巷","ALLEY":"１４弄","HOUSE_NO":"１０號","E_COORD97":166397.42000000001,"N_COORD97":2535734.5499999998,"ADDRESS":"明興路１４２５巷１４弄１０號","OBJECTID":30897},"geometry":{"x":166397.41999999993,"y":2535734.5500000007}},{"attributes":{"ID":30898,"DIS_CODE":0,"TOWNNAME":"南區","LI":"同安里","LIN":"17鄰","STREET":"明興路","SECT":" ","MAREA":" ","LANE":"１４２５巷","ALLEY":"１４弄","HOUSE_NO":"１４號","E_COORD97":166395.51999999999,"N_COORD97":2535726.4100000001,"ADDRESS":"明興路１４２５巷１４弄１４號","OBJECTID":30898},"geometry":{"x":166395.52000000142,"y":2535726.410000002}},{"attributes":{"ID":30899,"DIS_CODE":0,"TOWNNAME":"歸仁區","LI":"後市里","LIN":"45鄰","STREET":"國光街","SECT":" ","MAREA":" ","LANE":" ","ALLEY":" ","HOUSE_NO":"３１號","E_COORD97":177083.39000000001,"N_COORD97":2540962.7400000002,"ADDRESS":"國光街３１號","OBJECTID":30899},"geometry":{"x":177083.3900000006,"y":2540962.7400000021}},{"attributes":{"ID":30900,"DIS_CODE":0,"TOWNNAME":"新市區","LI":"大社里","LIN":"14鄰","STREET":" ","SECT":" ","MAREA":"大社","LANE":" ","ALLEY":" ","HOUSE_NO":"５４６號","E_COORD97":179984.62,"N_COORD97":2554617.5,"ADDRESS":"大社５４６號","OBJECTID":30900},"geometry":{"x":179984.62000000104,"y":2554617.5}},{"attributes":{"ID":30901,"DIS_CODE":0,"TOWNNAME":"佳里區","LI":"鎮山里","LIN":"8鄰","STREET":" ","SECT":" ","MAREA":"鎮山","LANE":" ","ALLEY":" ","HOUSE_NO":"７２號之１２","E_COORD97":166273.75,"N_COORD97":2561476.6200000001,"ADDRESS":"鎮山７２號之１２","OBJECTID":30901},"geometry":{"x":166273.75,"y":2561476.620000001}},{"attributes":{"ID":30902,"DIS_CODE":0,"TOWNNAME":"佳里區","LI":"鎮山里","LIN":"8鄰","STREET":" ","SECT":" ","MAREA":"鎮山","LANE":" ","ALLEY":" ","HOUSE_NO":"７２號之１４","E_COORD97":166272.87,"N_COORD97":2561468.5,"ADDRESS":"鎮山７２號之１４","OBJECTID":30902},"geometry":{"x":166272.87000000011,"y":2561468.5000000019}},{"attributes":{"ID":30903,"DIS_CODE":0,"TOWNNAME":"佳里區","LI":"鎮山里","LIN":"8鄰","STREET":" ","SECT":" ","MAREA":"鎮山","LANE":" ","ALLEY":" ","HOUSE_NO":"７２號之１５","E_COORD97":166272.63,"N_COORD97":2561464.3599999999,"ADDRESS":"鎮山７２號之１５","OBJECTID":30903},"geometry":{"x":166272.62999999989,"y":2561464.3599999994}},{"attributes":{"ID":30904,"DIS_CODE":0,"TOWNNAME":"佳里區","LI":"鎮山里","LIN":"8鄰","STREET":" ","SECT":" ","MAREA":"鎮山","LANE":" ","ALLEY":" ","HOUSE_NO":"７２號之１６","E_COORD97":166289.32999999999,"N_COORD97":2561463.1299999999,"ADDRESS":"鎮山７２號之１６","OBJECTID":30904},"geometry":{"x":166289.33000000101,"y":2561463.1300000008}},{"attributes":{"ID":30905,"DIS_CODE":0,"TOWNNAME":"佳里區","LI":"鎮山里","LIN":"8鄰","STREET":" ","SECT":" ","MAREA":"鎮山","LANE":" ","ALLEY":" ","HOUSE_NO":"７２號之１７","E_COORD97":166289.56,"N_COORD97":2561467.1800000002,"ADDRESS":"鎮山７２號之１７","OBJECTID":30905},"geometry":{"x":166289.55999999959,"y":2561467.1800000016}},{"attributes":{"ID":30906,"DIS_CODE":0,"TOWNNAME":"佳里區","LI":"鎮山里","LIN":"8鄰","STREET":" ","SECT":" ","MAREA":"鎮山","LANE":" ","ALLEY":" ","HOUSE_NO":"７２號之１８","E_COORD97":166289.79999999999,"N_COORD97":2561471.23,"ADDRESS":"鎮山７２號之１８","OBJECTID":30906},"geometry":{"x":166289.79999999981,"y":2561471.2300000023}},{"attributes":{"ID":30907,"DIS_CODE":0,"TOWNNAME":"佳里區","LI":"鎮山里","LIN":"8鄰","STREET":" ","SECT":" ","MAREA":"鎮山","LANE":" ","ALLEY":" ","HOUSE_NO":"７２號之１９","E_COORD97":166290.04000000001,"N_COORD97":2561475.29,"ADDRESS":"鎮山７２號之１９","OBJECTID":30907},"geometry":{"x":166290.04000000004,"y":2561475.290000001}},{"attributes":{"ID":30908,"DIS_CODE":0,"TOWNNAME":"佳里區","LI":"鎮山里","LIN":"8鄰","STREET":" ","SECT":" ","MAREA":"鎮山","LANE":" ","ALLEY":" ","HOUSE_NO":"７２號之１","E_COORD97":166269.60999999999,"N_COORD97":2561516.75,"ADDRESS":"鎮山７２號之１","OBJECTID":30908},"geometry":{"x":166269.61000000034,"y":2561516.7499999981}},{"attributes":{"ID":30909,"DIS_CODE":0,"TOWNNAME":"佳里區","LI":"鎮山里","LIN":"8鄰","STREET":" ","SECT":" ","MAREA":"鎮山","LANE":" ","ALLEY":" ","HOUSE_NO":"７２號之２０","E_COORD97":166290.26999999999,"N_COORD97":2561479.3399999999,"ADDRESS":"鎮山７２號之２０","OBJECTID":30909},"geometry":{"x":166290.26999999862,"y":2561479.3400000017}},{"attributes":{"ID":30910,"DIS_CODE":0,"TOWNNAME":"佳里區","LI":"鎮山里","LIN":"8鄰","STREET":" ","SECT":" ","MAREA":"鎮山","LANE":" ","ALLEY":" ","HOUSE_NO":"７２號之２１","E_COORD97":166290.51000000001,"N_COORD97":2561483.3900000001,"ADDRESS":"鎮山７２號之２１","OBJECTID":30910},"geometry":{"x":166290.50999999978,"y":2561483.3900000025}},{"attributes":{"ID":30911,"DIS_CODE":0,"TOWNNAME":"佳里區","LI":"鎮山里","LIN":"8鄰","STREET":" ","SECT":" ","MAREA":"鎮山","LANE":" ","ALLEY":" ","HOUSE_NO":"７２號之２２","E_COORD97":166290.81,"N_COORD97":2561487.3300000001,"ADDRESS":"鎮山７２號之２２","OBJECTID":30911},"geometry":{"x":166290.81000000052,"y":2561487.3300000019}},{"attributes":{"ID":30912,"DIS_CODE":0,"TOWNNAME":"佳里區","LI":"鎮山里","LIN":"8鄰","STREET":" ","SECT":" ","MAREA":"鎮山","LANE":" ","ALLEY":" ","HOUSE_NO":"７２號之２４","E_COORD97":166291.85999999999,"N_COORD97":2561495.1400000001,"ADDRESS":"鎮山７２號之２４","OBJECTID":30912},"geometry":{"x":166291.86000000034,"y":2561495.1400000025}},{"attributes":{"ID":30913,"DIS_CODE":0,"TOWNNAME":"佳里區","LI":"鎮山里","LIN":"8鄰","STREET":" ","SECT":" ","MAREA":"鎮山","LANE":" ","ALLEY":" ","HOUSE_NO":"７２號之２５","E_COORD97":166292.10000000001,"N_COORD97":2561499.1899999999,"ADDRESS":"鎮山７２號之２５","OBJECTID":30913},"geometry":{"x":166292.10000000056,"y":2561499.1899999995}},{"attributes":{"ID":30914,"DIS_CODE":0,"TOWNNAME":"佳里區","LI":"鎮山里","LIN":"8鄰","STREET":" ","SECT":" ","MAREA":"鎮山","LANE":" ","ALLEY":" ","HOUSE_NO":"７２號之２６","E_COORD97":166292.32999999999,"N_COORD97":2561503.25,"ADDRESS":"鎮山７２號之２６","OBJECTID":30914},"geometry":{"x":166292.33000000101,"y":2561503.2500000037}},{"attributes":{"ID":30915,"DIS_CODE":0,"TOWNNAME":"佳里區","LI":"鎮山里","LIN":"8鄰","STREET":" ","SECT":" ","MAREA":"鎮山","LANE":" ","ALLEY":" ","HOUSE_NO":"７２號之２７","E_COORD97":166291.82999999999,"N_COORD97":2561512.0499999998,"ADDRESS":"鎮山７２號之２７","OBJECTID":30915},"geometry":{"x":166291.83000000007,"y":2561512.0499999989}},{"attributes":{"ID":30916,"DIS_CODE":0,"TOWNNAME":"佳里區","LI":"鎮山里","LIN":"8鄰","STREET":" ","SECT":" ","MAREA":"鎮山","LANE":" ","ALLEY":" ","HOUSE_NO":"７２號之２８","E_COORD97":166295.57000000001,"N_COORD97":2561511.5299999998,"ADDRESS":"鎮山７２號之２８","OBJECTID":30916},"geometry":{"x":166295.5700000003,"y":2561511.5300000012}},{"attributes":{"ID":30917,"DIS_CODE":0,"TOWNNAME":"佳里區","LI":"鎮山里","LIN":"8鄰","STREET":" ","SECT":" ","MAREA":"鎮山","LANE":" ","ALLEY":" ","HOUSE_NO":"７２號之２９","E_COORD97":166299.75,"N_COORD97":2561511.0299999998,"ADDRESS":"鎮山７２號之２９","OBJECTID":30917},"geometry":{"x":166299.75000000093,"y":2561511.0300000031}},{"attributes":{"ID":30918,"DIS_CODE":0,"TOWNNAME":"佳里區","LI":"鎮山里","LIN":"8鄰","STREET":" ","SECT":" ","MAREA":"鎮山","LANE":" ","ALLEY":" ","HOUSE_NO":"７２號之２","E_COORD97":166274.32000000001,"N_COORD97":2561516.02,"ADDRESS":"鎮山７２號之２","OBJECTID":30918},"geometry":{"x":166274.32000000123,"y":2561516.0200000014}},{"attributes":{"ID":30919,"DIS_CODE":0,"TOWNNAME":"佳里區","LI":"鎮山里","LIN":"8鄰","STREET":" ","SECT":" ","MAREA":"鎮山","LANE":" ","ALLEY":" ","HOUSE_NO":"７２號之３０","E_COORD97":166303.92999999999,"N_COORD97":2561510.54,"ADDRESS":"鎮山７２號之３０","OBJECTID":30919},"geometry":{"x":166303.9299999997,"y":2561510.5400000028}},{"attributes":{"ID":30920,"DIS_CODE":0,"TOWNNAME":"佳里區","LI":"鎮山里","LIN":"8鄰","STREET":" ","SECT":" ","MAREA":"鎮山","LANE":" ","ALLEY":" ","HOUSE_NO":"７２號之３１","E_COORD97":166308.10000000001,"N_COORD97":2561510.04,"ADDRESS":"鎮山７２號之３１","OBJECTID":30920},"geometry":{"x":166308.09999999963,"y":2561510.0399999991}},{"attributes":{"ID":30921,"DIS_CODE":0,"TOWNNAME":"佳里區","LI":"鎮山里","LIN":"8鄰","STREET":" ","SECT":" ","MAREA":"鎮山","LANE":" ","ALLEY":" ","HOUSE_NO":"７２號之３２","E_COORD97":166277.98999999999,"N_COORD97":2561539.9500000002,"ADDRESS":"鎮山７２號之３２","OBJECTID":30921},"geometry":{"x":166277.99000000115,"y":2561539.9500000011}},{"attributes":{"ID":30922,"DIS_CODE":0,"TOWNNAME":"佳里區","LI":"鎮山里","LIN":"8鄰","STREET":" ","SECT":" ","MAREA":"鎮山","LANE":" ","ALLEY":" ","HOUSE_NO":"７２號之３３","E_COORD97":166282.14000000001,"N_COORD97":2561539.23,"ADDRESS":"鎮山７２號之３３","OBJECTID":30922},"geometry":{"x":166282.13999999966,"y":2561539.2300000023}},{"attributes":{"ID":30923,"DIS_CODE":0,"TOWNNAME":"南區","LI":"同安里","LIN":"17鄰","STREET":"明興路","SECT":" ","MAREA":" ","LANE":"１４２５巷","ALLEY":"１４弄","HOUSE_NO":"１６號","E_COORD97":166393.87,"N_COORD97":2535722.9500000002,"ADDRESS":"明興路１４２５巷１４弄１６號","OBJECTID":30923},"geometry":{"x":166393.87000000104,"y":2535722.9499999993}},{"attributes":{"ID":30924,"DIS_CODE":0,"TOWNNAME":"南區","LI":"同安里","LIN":"17鄰","STREET":"明興路","SECT":" ","MAREA":" ","LANE":"１４２５巷","ALLEY":"１４弄","HOUSE_NO":"１８號","E_COORD97":166392.23000000001,"N_COORD97":2535719.2400000002,"ADDRESS":"明興路１４２５巷１４弄１８號","OBJECTID":30924},"geometry":{"x":166392.23000000138,"y":2535719.2400000002}},{"attributes":{"ID":30925,"DIS_CODE":0,"TOWNNAME":"佳里區","LI":"鎮山里","LIN":"8鄰","STREET":" ","SECT":" ","MAREA":"鎮山","LANE":" ","ALLEY":" ","HOUSE_NO":"７２號之３４","E_COORD97":166286.29000000001,"N_COORD97":2561538.5099999998,"ADDRESS":"鎮山７２號之３４","OBJECTID":30925},"geometry":{"x":166286.29000000097,"y":2561538.5100000035}},{"attributes":{"ID":30926,"DIS_CODE":0,"TOWNNAME":"南區","LI":"同安里","LIN":"17鄰","STREET":"明興路","SECT":" ","MAREA":" ","LANE":"１４２５巷","ALLEY":"１４弄","HOUSE_NO":"２０號","E_COORD97":166392.92000000001,"N_COORD97":2535713.7000000002,"ADDRESS":"明興路１４２５巷１４弄２０號","OBJECTID":30926},"geometry":{"x":166392.91999999993,"y":2535713.7000000011}},{"attributes":{"ID":30927,"DIS_CODE":0,"TOWNNAME":"南區","LI":"同安里","LIN":"17鄰","STREET":"明興路","SECT":" ","MAREA":" ","LANE":"１４２５巷","ALLEY":"１４弄","HOUSE_NO":"２２號","E_COORD97":166392.31,"N_COORD97":2535710.5499999998,"ADDRESS":"明興路１４２５巷１４弄２２號","OBJECTID":30927},"geometry":{"x":166392.31000000052,"y":2535710.5500000007}},{"attributes":{"ID":30928,"DIS_CODE":0,"TOWNNAME":"南區","LI":"同安里","LIN":"17鄰","STREET":"明興路","SECT":" ","MAREA":" ","LANE":"１４２５巷","ALLEY":"１４弄","HOUSE_NO":"２４號","E_COORD97":166391.97,"N_COORD97":2535706.9199999999,"ADDRESS":"明興路１４２５巷１４弄２４號","OBJECTID":30928},"geometry":{"x":166391.96999999974,"y":2535706.9199999999}},{"attributes":{"ID":30929,"DIS_CODE":0,"TOWNNAME":"南區","LI":"同安里","LIN":"17鄰","STREET":"明興路","SECT":" ","MAREA":" ","LANE":"１４２５巷","ALLEY":"１４弄","HOUSE_NO":"２６號","E_COORD97":166387.12,"N_COORD97":2535701.21,"ADDRESS":"明興路１４２５巷１４弄２６號","OBJECTID":30929},"geometry":{"x":166387.12000000104,"y":2535701.2100000028}},{"attributes":{"ID":30930,"DIS_CODE":0,"TOWNNAME":"永康區","LI":"大橋里","LIN":"14鄰","STREET":"大橋一街","SECT":" ","MAREA":" ","LANE":" ","ALLEY":" ","HOUSE_NO":"６９號","E_COORD97":170922.64000000001,"N_COORD97":2546428.25,"ADDRESS":"大橋一街６９號","OBJECTID":30930},"geometry":{"x":170922.64000000153,"y":2546428.25}},{"attributes":{"ID":30931,"DIS_CODE":0,"TOWNNAME":"佳里區","LI":"鎮山里","LIN":"8鄰","STREET":" ","SECT":" ","MAREA":"鎮山","LANE":" ","ALLEY":" ","HOUSE_NO":"７２號之３５","E_COORD97":166290.44,"N_COORD97":2561537.7999999998,"ADDRESS":"鎮山７２號之３５","OBJECTID":30931},"geometry":{"x":166290.44000000134,"y":2561537.8000000045}},{"attributes":{"ID":30932,"DIS_CODE":0,"TOWNNAME":"佳里區","LI":"鎮山里","LIN":"8鄰","STREET":" ","SECT":" ","MAREA":"鎮山","LANE":" ","ALLEY":" ","HOUSE_NO":"７２號之３６","E_COORD97":166294.59,"N_COORD97":2561537.0800000001,"ADDRESS":"鎮山７２號之３６","OBJECTID":30932},"geometry":{"x":166294.58999999985,"y":2561537.0800000001}},{"attributes":{"ID":30933,"DIS_CODE":0,"TOWNNAME":"佳里區","LI":"鎮山里","LIN":"8鄰","STREET":" ","SECT":" ","MAREA":"鎮山","LANE":" ","ALLEY":" ","HOUSE_NO":"７２號之３７","E_COORD97":166303.06,"N_COORD97":2561535.8199999998,"ADDRESS":"鎮山７２號之３７","OBJECTID":30933},"geometry":{"x":166303.05999999959,"y":2561535.8200000003}},{"attributes":{"ID":30934,"DIS_CODE":0,"TOWNNAME":"佳里區","LI":"鎮山里","LIN":"8鄰","STREET":" ","SECT":" ","MAREA":"鎮山","LANE":" ","ALLEY":" ","HOUSE_NO":"７２號之３８","E_COORD97":166307.35999999999,"N_COORD97":2561535.1200000001,"ADDRESS":"鎮山７２號之３８","OBJECTID":30934},"geometry":{"x":166307.36000000034,"y":2561535.120000001}},{"attributes":{"ID":30935,"DIS_CODE":0,"TOWNNAME":"佳里區","LI":"鎮山里","LIN":"8鄰","STREET":" ","SECT":" ","MAREA":"鎮山","LANE":" ","ALLEY":" ","HOUSE_NO":"７２號之３９","E_COORD97":166311.64999999999,"N_COORD97":2561534.4100000001,"ADDRESS":"鎮山７２號之３９","OBJECTID":30935},"geometry":{"x":166311.65000000037,"y":2561534.410000002}},{"attributes":{"ID":30936,"DIS_CODE":0,"TOWNNAME":"佳里區","LI":"鎮山里","LIN":"8鄰","STREET":" ","SECT":" ","MAREA":"鎮山","LANE":" ","ALLEY":" ","HOUSE_NO":"７２號之４０","E_COORD97":166315.95000000001,"N_COORD97":2561533.71,"ADDRESS":"鎮山７２號之４０","OBJECTID":30936},"geometry":{"x":166315.95000000112,"y":2561533.7100000009}},{"attributes":{"ID":30937,"DIS_CODE":0,"TOWNNAME":"永康區","LI":"三民里","LIN":"14鄰","STREET":"中正北路","SECT":" ","MAREA":" ","LANE":" ","ALLEY":" ","HOUSE_NO":"９５０號之２","E_COORD97":175620,"N_COORD97":2550631.79,"ADDRESS":"中正北路９５０號之２","OBJECTID":30937},"geometry":{"x":175620.00000000093,"y":2550631.7899999991}},{"attributes":{"ID":30938,"DIS_CODE":0,"TOWNNAME":"永康區","LI":"三合里","LIN":"14鄰","STREET":"南工街","SECT":" ","MAREA":" ","LANE":" ","ALLEY":" ","HOUSE_NO":"１９７號","E_COORD97":172020.23999999999,"N_COORD97":2545865.7400000002,"ADDRESS":"南工街１９７號","OBJECTID":30938},"geometry":{"x":172020.24000000022,"y":2545865.7400000002}},{"attributes":{"ID":30939,"DIS_CODE":0,"TOWNNAME":"永康區","LI":"三合里","LIN":"14鄰","STREET":"南工街","SECT":" ","MAREA":" ","LANE":" ","ALLEY":" ","HOUSE_NO":"２１３號","E_COORD97":172022.12,"N_COORD97":2545899.75,"ADDRESS":"南工街２１３號","OBJECTID":30939},"geometry":{"x":172022.12000000104,"y":2545899.75}},{"attributes":{"ID":30940,"DIS_CODE":0,"TOWNNAME":"永康區","LI":"王行里","LIN":"14鄰","STREET":"興工路","SECT":" ","MAREA":" ","LANE":" ","ALLEY":" ","HOUSE_NO":"１０號","E_COORD97":175439.73000000001,"N_COORD97":2549633.9100000001,"ADDRESS":"興工路１０號","OBJECTID":30940},"geometry":{"x":175439.73000000045,"y":2549633.910000002}},{"attributes":{"ID":30941,"DIS_CODE":0,"TOWNNAME":"南區","LI":"同安里","LIN":"17鄰","STREET":"明興路","SECT":" ","MAREA":" ","LANE":"１４２５巷","ALLEY":"８弄","HOUSE_NO":"１號","E_COORD97":166387.54999999999,"N_COORD97":2535740.4900000002,"ADDRESS":"明興路１４２５巷８弄１號","OBJECTID":30941},"geometry":{"x":166387.55000000075,"y":2535740.4900000002}},{"attributes":{"ID":30942,"DIS_CODE":0,"TOWNNAME":"佳里區","LI":"鎮山里","LIN":"8鄰","STREET":" ","SECT":" ","MAREA":"鎮山","LANE":" ","ALLEY":" ","HOUSE_NO":"７２號之４１","E_COORD97":166320.23999999999,"N_COORD97":2561533.0099999998,"ADDRESS":"鎮山７２號之４１","OBJECTID":30942},"geometry":{"x":166320.24000000115,"y":2561533.0100000016}},{"attributes":{"ID":30943,"DIS_CODE":0,"TOWNNAME":"歸仁區","LI":"大廟里","LIN":"5鄰","STREET":"和順路","SECT":"二段","MAREA":" ","LANE":"１５１巷","ALLEY":"２２弄","HOUSE_NO":"５號","E_COORD97":176136.75,"N_COORD97":2543523.98,"ADDRESS":"和順路二段１５１巷２２弄５號","OBJECTID":30943},"geometry":{"x":176136.75000000186,"y":2543523.9800000023}},{"attributes":{"ID":30944,"DIS_CODE":0,"TOWNNAME":"佳里區","LI":"鎮山里","LIN":"8鄰","STREET":" ","SECT":" ","MAREA":"鎮山","LANE":" ","ALLEY":" ","HOUSE_NO":"７２號之４２","E_COORD97":166324.54000000001,"N_COORD97":2561532.3100000001,"ADDRESS":"鎮山７２號之４２","OBJECTID":30944},"geometry":{"x":166324.53999999911,"y":2561532.3100000005}},{"attributes":{"ID":30945,"DIS_CODE":0,"TOWNNAME":"仁德區","LI":"二行里","LIN":"17鄰","STREET":"行大街","SECT":" ","MAREA":" ","LANE":"１７２巷","ALLEY":"６１弄","HOUSE_NO":"６號","E_COORD97":169753.54000000001,"N_COORD97":2535219.75,"ADDRESS":"行大街１７２巷６１弄６號","OBJECTID":30945},"geometry":{"x":169753.54000000004,"y":2535219.75}},{"attributes":{"ID":30946,"DIS_CODE":0,"TOWNNAME":"佳里區","LI":"鎮山里","LIN":"8鄰","STREET":" ","SECT":" ","MAREA":"鎮山","LANE":" ","ALLEY":" ","HOUSE_NO":"７２號之４３","E_COORD97":166328.82999999999,"N_COORD97":2561531.6000000001,"ADDRESS":"鎮山７２號之４３","OBJECTID":30946},"geometry":{"x":166328.83000000007,"y":2561531.6000000015}},{"attributes":{"ID":30947,"DIS_CODE":0,"TOWNNAME":"仁德區","LI":"土庫里","LIN":"17鄰","STREET":"土庫一街","SECT":" ","MAREA":" ","LANE":"２２巷","ALLEY":"２３弄","HOUSE_NO":"６號","E_COORD97":174508.62,"N_COORD97":2543011.75,"ADDRESS":"土庫一街２２巷２３弄６號","OBJECTID":30947},"geometry":{"x":174508.62000000197,"y":2543011.75}},{"attributes":{"ID":30948,"DIS_CODE":0,"TOWNNAME":"仁德區","LI":"土庫里","LIN":"17鄰","STREET":"土庫一街","SECT":" ","MAREA":" ","LANE":"２２巷","ALLEY":"１３弄","HOUSE_NO":"１５號","E_COORD97":174570.92999999999,"N_COORD97":2543072.9900000002,"ADDRESS":"土庫一街２２巷１３弄１５號","OBJECTID":30948},"geometry":{"x":174570.93000000063,"y":2543072.9900000021}},{"attributes":{"ID":30949,"DIS_CODE":0,"TOWNNAME":"仁德區","LI":"保安里","LIN":"17鄰","STREET":"中正路","SECT":"一段","MAREA":" ","LANE":"１１６巷","ALLEY":"２弄","HOUSE_NO":"１１號","E_COORD97":171368.19,"N_COORD97":2535483.02,"ADDRESS":"中正路一段１１６巷２弄１１號","OBJECTID":30949},"geometry":{"x":171368.19000000041,"y":2535483.0199999977}},{"attributes":{"ID":30950,"DIS_CODE":0,"TOWNNAME":"佳里區","LI":"鎮山里","LIN":"8鄰","STREET":" ","SECT":" ","MAREA":"鎮山","LANE":" ","ALLEY":" ","HOUSE_NO":"７２號之５１","E_COORD97":166333.13,"N_COORD97":2561530.8999999999,"ADDRESS":"鎮山７２號之５１","OBJECTID":30950},"geometry":{"x":166333.13000000082,"y":2561530.9000000022}},{"attributes":{"ID":30951,"DIS_CODE":0,"TOWNNAME":"佳里區","LI":"鎮山里","LIN":"8鄰","STREET":" ","SECT":" ","MAREA":"鎮山","LANE":" ","ALLEY":" ","HOUSE_NO":"７２號之４５","E_COORD97":166312.28,"N_COORD97":2561509.5499999998,"ADDRESS":"鎮山７２號之４５","OBJECTID":30951},"geometry":{"x":166312.28000000026,"y":2561509.5500000026}},{"attributes":{"ID":30952,"DIS_CODE":0,"TOWNNAME":"佳里區","LI":"鎮山里","LIN":"8鄰","STREET":" ","SECT":" ","MAREA":"鎮山","LANE":" ","ALLEY":" ","HOUSE_NO":"７２號之４６","E_COORD97":166316.45999999999,"N_COORD97":2561509.0600000001,"ADDRESS":"鎮山７２號之４６","OBJECTID":30952},"geometry":{"x":166316.45999999996,"y":2561509.0600000024}},{"attributes":{"ID":30953,"DIS_CODE":0,"TOWNNAME":"仁德區","LI":"保安里","LIN":"17鄰","STREET":"中正路","SECT":"一段","MAREA":" ","LANE":"１１６巷","ALLEY":"２弄","HOUSE_NO":"１６號","E_COORD97":171357.01000000001,"N_COORD97":2535484.27,"ADDRESS":"中正路一段１１６巷２弄１６號","OBJECTID":30953},"geometry":{"x":171357.00999999978,"y":2535484.2699999996}},{"attributes":{"ID":30954,"DIS_CODE":0,"TOWNNAME":"仁德區","LI":"新田里","LIN":"17鄰","STREET":"北保東路","SECT":" ","MAREA":" ","LANE":"４６巷","ALLEY":"２弄","HOUSE_NO":"１１號","E_COORD97":173454.31,"N_COORD97":2539307.75,"ADDRESS":"北保東路４６巷２弄１１號","OBJECTID":30954},"geometry":{"x":173454.31000000052,"y":2539307.7500000019}},{"attributes":{"ID":30955,"DIS_CODE":0,"TOWNNAME":"佳里區","LI":"鎮山里","LIN":"8鄰","STREET":" ","SECT":" ","MAREA":"鎮山","LANE":" ","ALLEY":" ","HOUSE_NO":"７２號之４７","E_COORD97":166320.64000000001,"N_COORD97":2561508.5600000001,"ADDRESS":"鎮山７２號之４７","OBJECTID":30955},"geometry":{"x":166320.6400000006,"y":2561508.5600000042}},{"attributes":{"ID":30956,"DIS_CODE":0,"TOWNNAME":"仁德區","LI":"土庫里","LIN":"17鄰","STREET":"土庫一街","SECT":" ","MAREA":" ","LANE":"２２巷","ALLEY":"１３弄","HOUSE_NO":"３號","E_COORD97":174497.44,"N_COORD97":2543052.7400000002,"ADDRESS":"土庫一街２２巷１３弄３號","OBJECTID":30956},"geometry":{"x":174497.44000000041,"y":2543052.7400000002}},{"attributes":{"ID":30957,"DIS_CODE":0,"TOWNNAME":"仁德區","LI":"保安里","LIN":"17鄰","STREET":"中正路","SECT":"一段","MAREA":" ","LANE":"１１６巷","ALLEY":"２弄","HOUSE_NO":"６號","E_COORD97":171366.04000000001,"N_COORD97":2535502.77,"ADDRESS":"中正路一段１１６巷２弄６號","OBJECTID":30957},"geometry":{"x":171366.03999999911,"y":2535502.7700000014}},{"attributes":{"ID":30958,"DIS_CODE":0,"TOWNNAME":"仁德區","LI":"土庫里","LIN":"17鄰","STREET":"土庫一街","SECT":" ","MAREA":" ","LANE":"２２巷","ALLEY":"１３弄","HOUSE_NO":"１７號","E_COORD97":174578.35999999999,"N_COORD97":2543072.9900000002,"ADDRESS":"土庫一街２２巷１３弄１７號","OBJECTID":30958},"geometry":{"x":174578.3600000022,"y":2543072.9900000021}},{"attributes":{"ID":30959,"DIS_CODE":0,"TOWNNAME":"仁德區","LI":"保安里","LIN":"17鄰","STREET":"中正路","SECT":"一段","MAREA":" ","LANE":"１１６巷","ALLEY":"２弄","HOUSE_NO":"２０號","E_COORD97":171353.01000000001,"N_COORD97":2535476.52,"ADDRESS":"中正路一段１１６巷２弄２０號","OBJECTID":30959},"geometry":{"x":171353.01000000071,"y":2535476.5200000033}},{"attributes":{"ID":30960,"DIS_CODE":0,"TOWNNAME":"佳里區","LI":"鎮山里","LIN":"8鄰","STREET":" ","SECT":" ","MAREA":"鎮山","LANE":" ","ALLEY":" ","HOUSE_NO":"７２號之４８","E_COORD97":166324.81,"N_COORD97":2561508.0699999998,"ADDRESS":"鎮山７２號之４８","OBJECTID":30960},"geometry":{"x":166324.81000000052,"y":2561508.0699999984}},{"attributes":{"ID":30961,"DIS_CODE":0,"TOWNNAME":"佳里區","LI":"鎮山里","LIN":"8鄰","STREET":" ","SECT":" ","MAREA":"鎮山","LANE":" ","ALLEY":" ","HOUSE_NO":"７２號之４９","E_COORD97":166328.98999999999,"N_COORD97":2561507.5699999998,"ADDRESS":"鎮山７２號之４９","OBJECTID":30961},"geometry":{"x":166328.99000000115,"y":2561507.5700000003}},{"attributes":{"ID":30962,"DIS_CODE":0,"TOWNNAME":"仁德區","LI":"成功里","LIN":"17鄰","STREET":"全福路","SECT":" ","MAREA":" ","LANE":"８０巷","ALLEY":"１３弄","HOUSE_NO":"１４號","E_COORD97":171056.29000000001,"N_COORD97":2539231.2400000002,"ADDRESS":"全福路８０巷１３弄１４號","OBJECTID":30962},"geometry":{"x":171056.29000000097,"y":2539231.2400000002}},{"attributes":{"ID":30963,"DIS_CODE":0,"TOWNNAME":"永康區","LI":"崑山里","LIN":"17鄰","STREET":"大灣路","SECT":" ","MAREA":" ","LANE":"９４２巷","ALLEY":"７１弄","HOUSE_NO":"３號","E_COORD97":173628.51999999999,"N_COORD97":2544581.5,"ADDRESS":"大灣路９４２巷７１弄３號","OBJECTID":30963},"geometry":{"x":173628.51999999955,"y":2544581.5000000019}},{"attributes":{"ID":30964,"DIS_CODE":0,"TOWNNAME":"永康區","LI":"正強里","LIN":"17鄰","STREET":"自強路","SECT":" ","MAREA":" ","LANE":"１８８巷","ALLEY":"３０弄","HOUSE_NO":"５號","E_COORD97":173182.04000000001,"N_COORD97":2547364.5800000001,"ADDRESS":"自強路１８８巷３０弄５號","OBJECTID":30964},"geometry":{"x":173182.04000000097,"y":2547364.5800000019}},{"attributes":{"ID":30965,"DIS_CODE":0,"TOWNNAME":"佳里區","LI":"鎮山里","LIN":"8鄰","STREET":" ","SECT":" ","MAREA":"鎮山","LANE":" ","ALLEY":" ","HOUSE_NO":"７２號之４","E_COORD97":166284.19,"N_COORD97":2561514.9100000001,"ADDRESS":"鎮山７２號之４","OBJECTID":30965},"geometry":{"x":166284.19000000041,"y":2561514.9100000001}},{"attributes":{"ID":30966,"DIS_CODE":0,"TOWNNAME":"永康區","LI":"埔園里","LIN":"17鄰","STREET":"龍埔街","SECT":" ","MAREA":" ","LANE":"５６２巷","ALLEY":"４３弄","HOUSE_NO":"１號","E_COORD97":173418.12,"N_COORD97":2548495.6400000001,"ADDRESS":"龍埔街５６２巷４３弄１號","OBJECTID":30966},"geometry":{"x":173418.12000000011,"y":2548495.6399999987}},{"attributes":{"ID":30967,"DIS_CODE":0,"TOWNNAME":"佳里區","LI":"鎮山里","LIN":"8鄰","STREET":" ","SECT":" ","MAREA":"鎮山","LANE":" ","ALLEY":" ","HOUSE_NO":"７２號之５０","E_COORD97":166333.17000000001,"N_COORD97":2561507.0800000001,"ADDRESS":"鎮山７２號之５０","OBJECTID":30967},"geometry":{"x":166333.16999999993,"y":2561507.0800000001}},{"attributes":{"ID":30968,"DIS_CODE":0,"TOWNNAME":"佳里區","LI":"鎮山里","LIN":"8鄰","STREET":" ","SECT":" ","MAREA":"鎮山","LANE":" ","ALLEY":" ","HOUSE_NO":"７２號之５","E_COORD97":166276.72,"N_COORD97":2561504.9900000002,"ADDRESS":"鎮山７２號之５","OBJECTID":30968},"geometry":{"x":166276.71999999974,"y":2561504.9900000002}},{"attributes":{"ID":30969,"DIS_CODE":0,"TOWNNAME":"永康區","LI":"正強里","LIN":"17鄰","STREET":"自強路","SECT":" ","MAREA":" ","LANE":"１８８巷","ALLEY":"１６弄","HOUSE_NO":"５號","E_COORD97":173183.31,"N_COORD97":2547413.6400000001,"ADDRESS":"自強路１８８巷１６弄５號","OBJECTID":30969},"geometry":{"x":173183.31000000052,"y":2547413.6400000006}},{"attributes":{"ID":30970,"DIS_CODE":0,"TOWNNAME":"永康區","LI":"正強里","LIN":"17鄰","STREET":"自強路","SECT":" ","MAREA":" ","LANE":"１８８巷","ALLEY":"４６弄","HOUSE_NO":"１７號","E_COORD97":173170.97,"N_COORD97":2547316.8300000001,"ADDRESS":"自強路１８８巷４６弄１７號","OBJECTID":30970},"geometry":{"x":173170.96999999974,"y":2547316.8300000001}},{"attributes":{"ID":30971,"DIS_CODE":0,"TOWNNAME":"永康區","LI":"西橋里","LIN":"17鄰","STREET":"大橋一街","SECT":" ","MAREA":" ","LANE":"３１巷","ALLEY":"５５弄","HOUSE_NO":"４號","E_COORD97":170585.82000000001,"N_COORD97":2546432.75,"ADDRESS":"大橋一街３１巷５５弄４號","OBJECTID":30971},"geometry":{"x":170585.8200000003,"y":2546432.75}},{"attributes":{"ID":30972,"DIS_CODE":0,"TOWNNAME":"佳里區","LI":"鎮山里","LIN":"8鄰","STREET":" ","SECT":" ","MAREA":"鎮山","LANE":" ","ALLEY":" ","HOUSE_NO":"７２號之６","E_COORD97":166276.28,"N_COORD97":2561500.9300000002,"ADDRESS":"鎮山７２號之６","OBJECTID":30972},"geometry":{"x":166276.28000000119,"y":2561500.9299999997}},{"attributes":{"ID":30973,"DIS_CODE":0,"TOWNNAME":"永康區","LI":"網寮里","LIN":"17鄰","STREET":"永興路","SECT":" ","MAREA":" ","LANE":"４２７巷","ALLEY":"２弄","HOUSE_NO":"２８號","E_COORD97":173219.42000000001,"N_COORD97":2546863.3300000001,"ADDRESS":"永興路４２７巷２弄２８號","OBJECTID":30973},"geometry":{"x":173219.41999999993,"y":2546863.3300000038}},{"attributes":{"ID":30974,"DIS_CODE":0,"TOWNNAME":"官田區","LI":"湖山里","LIN":"14鄰","STREET":" ","SECT":" ","MAREA":"烏山頭","LANE":" ","ALLEY":" ","HOUSE_NO":"８３號之１","E_COORD97":183529.37,"N_COORD97":2567917.23,"ADDRESS":"烏山頭８３號之１","OBJECTID":30974},"geometry":{"x":183529.37000000104,"y":2567917.2300000004}},{"attributes":{"ID":30975,"DIS_CODE":0,"TOWNNAME":"官田區","LI":"湖山里","LIN":"14鄰","STREET":" ","SECT":" ","MAREA":"烏山頭","LANE":" ","ALLEY":" ","HOUSE_NO":"８３號之２","E_COORD97":183519.79000000001,"N_COORD97":2567914.3599999999,"ADDRESS":"烏山頭８３號之２","OBJECTID":30975},"geometry":{"x":183519.79000000004,"y":2567914.3600000013}},{"attributes":{"ID":30976,"DIS_CODE":0,"TOWNNAME":"官田區","LI":"湖山里","LIN":"14鄰","STREET":" ","SECT":" ","MAREA":"烏山頭","LANE":" ","ALLEY":" ","HOUSE_NO":"８３號","E_COORD97":183509.95999999999,"N_COORD97":2567922.7400000002,"ADDRESS":"烏山頭８３號","OBJECTID":30976},"geometry":{"x":183509.96000000089,"y":2567922.7400000021}},{"attributes":{"ID":30977,"DIS_CODE":0,"TOWNNAME":"官田區","LI":"湖山里","LIN":"14鄰","STREET":" ","SECT":" ","MAREA":"烏山頭","LANE":" ","ALLEY":" ","HOUSE_NO":"８５號","E_COORD97":183480.37,"N_COORD97":2567915.77,"ADDRESS":"烏山頭８５號","OBJECTID":30977},"geometry":{"x":183480.37000000011,"y":2567915.7699999996}},{"attributes":{"ID":30978,"DIS_CODE":0,"TOWNNAME":"官田區","LI":"湖山里","LIN":"14鄰","STREET":" ","SECT":" ","MAREA":"烏山頭","LANE":" ","ALLEY":" ","HOUSE_NO":"８６號之１","E_COORD97":183409.06,"N_COORD97":2567860.9500000002,"ADDRESS":"烏山頭８６號之１","OBJECTID":30978},"geometry":{"x":183409.05999999959,"y":2567860.9499999993}},{"attributes":{"ID":30979,"DIS_CODE":0,"TOWNNAME":"官田區","LI":"湖山里","LIN":"14鄰","STREET":" ","SECT":" ","MAREA":"烏山頭","LANE":" ","ALLEY":" ","HOUSE_NO":"８６號之３","E_COORD97":183418.51000000001,"N_COORD97":2567884.3700000001,"ADDRESS":"烏山頭８６號之３","OBJECTID":30979},"geometry":{"x":183418.50999999978,"y":2567884.3700000048}},{"attributes":{"ID":30980,"DIS_CODE":0,"TOWNNAME":"官田區","LI":"湖山里","LIN":"14鄰","STREET":" ","SECT":" ","MAREA":"烏山頭","LANE":" ","ALLEY":" ","HOUSE_NO":"８６號","E_COORD97":183446.78,"N_COORD97":2567918.6899999999,"ADDRESS":"烏山頭８６號","OBJECTID":30980},"geometry":{"x":183446.78000000119,"y":2567918.6900000013}},{"attributes":{"ID":30981,"DIS_CODE":0,"TOWNNAME":"永康區","LI":"二王里","LIN":"17鄰","STREET":"忠孝路","SECT":" ","MAREA":" ","LANE":"４１０巷","ALLEY":"７０弄","HOUSE_NO":"１８號","E_COORD97":172644.25,"N_COORD97":2546480.9500000002,"ADDRESS":"忠孝路４１０巷７０弄１８號","OBJECTID":30981},"geometry":{"x":172644.25,"y":2546480.9499999993}},{"attributes":{"ID":30982,"DIS_CODE":0,"TOWNNAME":"歸仁區","LI":"七甲里","LIN":"18鄰","STREET":"南潭三街","SECT":" ","MAREA":" ","LANE":"１６２巷","ALLEY":"７弄","HOUSE_NO":"１號","E_COORD97":176448.38,"N_COORD97":2543152.0299999998,"ADDRESS":"南潭三街１６２巷７弄１號","OBJECTID":30982},"geometry":{"x":176448.38000000082,"y":2543152.0300000031}},{"attributes":{"ID":30983,"DIS_CODE":0,"TOWNNAME":"永康區","LI":"甲頂里","LIN":"17鄰","STREET":"中正南路","SECT":" ","MAREA":" ","LANE":"５２巷","ALLEY":"４６弄","HOUSE_NO":"２２號","E_COORD97":169887.88,"N_COORD97":2546697.5499999998,"ADDRESS":"中正南路５２巷４６弄２２號","OBJECTID":30983},"geometry":{"x":169887.88000000082,"y":2546697.5500000026}},{"attributes":{"ID":30984,"DIS_CODE":0,"TOWNNAME":"永康區","LI":"尚頂里","LIN":"17鄰","STREET":"中正南路","SECT":" ","MAREA":" ","LANE":"２２０巷","ALLEY":"３０弄","HOUSE_NO":"１號","E_COORD97":170241.69,"N_COORD97":2547298.0499999998,"ADDRESS":"中正南路２２０巷３０弄１號","OBJECTID":30984},"geometry":{"x":170241.69000000227,"y":2547298.0500000026}},{"attributes":{"ID":30985,"DIS_CODE":0,"TOWNNAME":"永康區","LI":"埔園里","LIN":"17鄰","STREET":"龍埔街","SECT":" ","MAREA":" ","LANE":"５６２巷","ALLEY":"２０弄","HOUSE_NO":"５號","E_COORD97":173468.92000000001,"N_COORD97":2548451.4900000002,"ADDRESS":"龍埔街５６２巷２０弄５號","OBJECTID":30985},"geometry":{"x":173468.92000000179,"y":2548451.4900000002}},{"attributes":{"ID":30986,"DIS_CODE":0,"TOWNNAME":"永康區","LI":"埔園里","LIN":"17鄰","STREET":"龍埔街","SECT":" ","MAREA":" ","LANE":"５６２巷","ALLEY":"４３弄","HOUSE_NO":"４號","E_COORD97":173421.95000000001,"N_COORD97":2548513.25,"ADDRESS":"龍埔街５６２巷４３弄４號","OBJECTID":30986},"geometry":{"x":173421.95000000112,"y":2548513.25}},{"attributes":{"ID":30987,"DIS_CODE":0,"TOWNNAME":"南區","LI":"明亮里","LIN":"17鄰","STREET":"金華路","SECT":"一段","MAREA":" ","LANE":"３５２巷","ALLEY":"９７弄","HOUSE_NO":"１號","E_COORD97":167239.85000000001,"N_COORD97":2541105.0600000001,"ADDRESS":"金華路一段３５２巷９７弄１號","OBJECTID":30987},"geometry":{"x":167239.85000000056,"y":2541105.0599999987}},{"attributes":{"ID":30988,"DIS_CODE":0,"TOWNNAME":"永康區","LI":"復國里","LIN":"14鄰","STREET":"復國二路","SECT":" ","MAREA":" ","LANE":" ","ALLEY":" ","HOUSE_NO":"１６０號","E_COORD97":172919.73999999999,"N_COORD97":2545665.02,"ADDRESS":"復國二路１６０號","OBJECTID":30988},"geometry":{"x":172919.74000000115,"y":2545665.0200000014}},{"attributes":{"ID":30989,"DIS_CODE":0,"TOWNNAME":"永康區","LI":"復興里","LIN":"14鄰","STREET":"復興路","SECT":" ","MAREA":" ","LANE":" ","ALLEY":" ","HOUSE_NO":"２６２號","E_COORD97":172409.42999999999,"N_COORD97":2544346.7799999998,"ADDRESS":"復興路２６２號","OBJECTID":30989},"geometry":{"x":172409.43000000063,"y":2544346.7799999993}},{"attributes":{"ID":30990,"DIS_CODE":0,"TOWNNAME":"官田區","LI":"湖山里","LIN":"14鄰","STREET":" ","SECT":" ","MAREA":"烏山頭","LANE":" ","ALLEY":" ","HOUSE_NO":"８７號之１","E_COORD97":183463.79999999999,"N_COORD97":2567978.52,"ADDRESS":"烏山頭８７號之１","OBJECTID":30990},"geometry":{"x":183463.79999999981,"y":2567978.5199999996}},{"attributes":{"ID":30991,"DIS_CODE":0,"TOWNNAME":"官田區","LI":"湖山里","LIN":"14鄰","STREET":" ","SECT":" ","MAREA":"烏山頭","LANE":" ","ALLEY":" ","HOUSE_NO":"８７號之２","E_COORD97":183392.87,"N_COORD97":2568033.2599999998,"ADDRESS":"烏山頭８７號之２","OBJECTID":30991},"geometry":{"x":183392.87000000011,"y":2568033.2600000016}},{"attributes":{"ID":30992,"DIS_CODE":0,"TOWNNAME":"官田區","LI":"湖山里","LIN":"14鄰","STREET":" ","SECT":" ","MAREA":"烏山頭","LANE":" ","ALLEY":" ","HOUSE_NO":"８８號之１","E_COORD97":183501.51000000001,"N_COORD97":2567938.6499999999,"ADDRESS":"烏山頭８８號之１","OBJECTID":30992},"geometry":{"x":183501.50999999978,"y":2567938.6500000004}},{"attributes":{"ID":30993,"DIS_CODE":0,"TOWNNAME":"官田區","LI":"湖山里","LIN":"14鄰","STREET":" ","SECT":" ","MAREA":"烏山頭","LANE":" ","ALLEY":" ","HOUSE_NO":"８９號","E_COORD97":183532.10999999999,"N_COORD97":2567929.5800000001,"ADDRESS":"烏山頭８９號","OBJECTID":30993},"geometry":{"x":183532.11000000034,"y":2567929.5800000038}},{"attributes":{"ID":30994,"DIS_CODE":0,"TOWNNAME":"佳里區","LI":"鎮山里","LIN":"8鄰","STREET":" ","SECT":" ","MAREA":"鎮山","LANE":" ","ALLEY":" ","HOUSE_NO":"７２號之７","E_COORD97":166275.82999999999,"N_COORD97":2561496.8700000001,"ADDRESS":"鎮山７２號之７","OBJECTID":30994},"geometry":{"x":166275.83000000101,"y":2561496.8700000048}},{"attributes":{"ID":30995,"DIS_CODE":0,"TOWNNAME":"永康區","LI":"復華里","LIN":"14鄰","STREET":"復華六街","SECT":" ","MAREA":" ","LANE":" ","ALLEY":" ","HOUSE_NO":"１６號","E_COORD97":172902.04000000001,"N_COORD97":2545852.3599999999,"ADDRESS":"復華六街１６號","OBJECTID":30995},"geometry":{"x":172902.0400000019,"y":2545852.3600000013}},{"attributes":{"ID":30996,"DIS_CODE":0,"TOWNNAME":"歸仁區","LI":"許厝里","LIN":"21鄰","STREET":"仁愛北街","SECT":" ","MAREA":" ","LANE":" ","ALLEY":" ","HOUSE_NO":"５７號","E_COORD97":178233.03,"N_COORD97":2540838.25,"ADDRESS":"仁愛北街５７號","OBJECTID":30996},"geometry":{"x":178233.03000000026,"y":2540838.25}},{"attributes":{"ID":30997,"DIS_CODE":0,"TOWNNAME":"歸仁區","LI":"後市里","LIN":"41鄰","STREET":"國光街","SECT":" ","MAREA":" ","LANE":" ","ALLEY":" ","HOUSE_NO":"５４號","E_COORD97":177117.19,"N_COORD97":2540945.7400000002,"ADDRESS":"國光街５４號","OBJECTID":30997},"geometry":{"x":177117.18999999948,"y":2540945.7400000021}},{"attributes":{"ID":30998,"DIS_CODE":0,"TOWNNAME":"歸仁區","LI":"崙頂里","LIN":"13鄰","STREET":"崙頂五街","SECT":" ","MAREA":" ","LANE":" ","ALLEY":" ","HOUSE_NO":"１２號","E_COORD97":177913.14000000001,"N_COORD97":2539815.25,"ADDRESS":"崙頂五街１２號","OBJECTID":30998},"geometry":{"x":177913.13999999966,"y":2539815.2500000037}},{"attributes":{"ID":30999,"DIS_CODE":0,"TOWNNAME":"官田區","LI":"隆田里","LIN":"14鄰","STREET":"勝利路","SECT":" ","MAREA":" ","LANE":" ","ALLEY":" ","HOUSE_NO":"１１７號","E_COORD97":180120.16,"N_COORD97":2566062.4700000002,"ADDRESS":"勝利路１１７號","OBJECTID":30999},"geometry":{"x":180120.16000000108,"y":2566062.4699999988}},{"attributes":{"ID":31000,"DIS_CODE":0,"TOWNNAME":"將軍區","LI":"嘉昌里","LIN":"7鄰","STREET":" ","SECT":" ","MAREA":"北嘉","LANE":" ","ALLEY":" ","HOUSE_NO":"５３號","E_COORD97":163449.39999999999,"N_COORD97":2567888.4199999999,"ADDRESS":"北嘉５３號","OBJECTID":31000},"geometry":{"x":163449.4000000013,"y":2567888.4199999999}}]}