{"displayFieldName":"TOWNNAME","fieldAliases":{"ID":"ID","DIS_CODE":"DIS_CODE","TOWNNAME":"TOWNNAME","LI":"LI","LIN":"LIN","STREET":"STREET","SECT":"SECT","MAREA":"MAREA","LANE":"LANE","ALLEY":"ALLEY","HOUSE_NO":"HOUSE_NO","E_COORD97":"E_COORD97","N_COORD97":"N_COORD97","ADDRESS":"ADDRESS","OBJECTID":"OBJECTID"},"geometryType":"esriGeometryPoint","spatialReference":{"wkid":102443,"latestWkid":3826},"fields":[{"name":"ID","type":"esriFieldTypeDouble","alias":"ID"},{"name":"DIS_CODE","type":"esriFieldTypeInteger","alias":"DIS_CODE"},{"name":"TOWNNAME","type":"esriFieldTypeString","alias":"TOWNNAME","length":8},{"name":"LI","type":"esriFieldTypeString","alias":"LI","length":8},{"name":"LIN","type":"esriFieldTypeString","alias":"LIN","length":12},{"name":"STREET","type":"esriFieldTypeString","alias":"STREET","length":20},{"name":"SECT","type":"esriFieldTypeString","alias":"SECT","length":8},{"name":"MAREA","type":"esriFieldTypeString","alias":"MAREA","length":12},{"name":"LANE","type":"esriFieldTypeString","alias":"LANE","length":10},{"name":"ALLEY","type":"esriFieldTypeString","alias":"ALLEY","length":10},{"name":"HOUSE_NO","type":"esriFieldTypeString","alias":"HOUSE_NO","length":20},{"name":"E_COORD97","type":"esriFieldTypeDouble","alias":"E_COORD97"},{"name":"N_COORD97","type":"esriFieldTypeDouble","alias":"N_COORD97"},{"name":"ADDRESS","type":"esriFieldTypeString","alias":"ADDRESS","length":50},{"name":"OBJECTID","type":"esriFieldTypeOID","alias":"OBJECTID"}],"features":[{"attributes":{"ID":57201,"DIS_CODE":0,"TOWNNAME":"北區","LI":"六甲里","LIN":"1鄰","STREET":"公園路","SECT":" ","MAREA":" ","LANE":"４５１巷","ALLEY":"２４弄","HOUSE_NO":"８號","E_COORD97":168978.89000000001,"N_COORD97":2545483.3599999999,"ADDRESS":"公園路４５１巷２４弄８號","OBJECTID":57201},"geometry":{"x":168978.8900000006,"y":2545483.3600000013}},{"attributes":{"ID":57202,"DIS_CODE":0,"TOWNNAME":"北區","LI":"六甲里","LIN":"1鄰","STREET":"公園路","SECT":" ","MAREA":" ","LANE":"４５１巷","ALLEY":"２４弄","HOUSE_NO":"１０號","E_COORD97":168981.64000000001,"N_COORD97":2545484.9300000002,"ADDRESS":"公園路４５１巷２４弄１０號","OBJECTID":57202},"geometry":{"x":168981.64000000153,"y":2545484.9299999997}},{"attributes":{"ID":57203,"DIS_CODE":0,"TOWNNAME":"北區","LI":"六甲里","LIN":"1鄰","STREET":"公園路","SECT":" ","MAREA":" ","LANE":"４５１巷","ALLEY":"２４弄","HOUSE_NO":"１２號","E_COORD97":168984.78,"N_COORD97":2545486.2999999998,"ADDRESS":"公園路４５１巷２４弄１２號","OBJECTID":57203},"geometry":{"x":168984.78000000212,"y":2545486.3000000007}},{"attributes":{"ID":57204,"DIS_CODE":0,"TOWNNAME":"北區","LI":"六甲里","LIN":"1鄰","STREET":"公園路","SECT":" ","MAREA":" ","LANE":"４５１巷","ALLEY":"２４弄","HOUSE_NO":"１４號","E_COORD97":168987.13,"N_COORD97":2545487.8700000001,"ADDRESS":"公園路４５１巷２４弄１４號","OBJECTID":57204},"geometry":{"x":168987.13000000175,"y":2545487.8700000029}},{"attributes":{"ID":57205,"DIS_CODE":0,"TOWNNAME":"北區","LI":"六甲里","LIN":"1鄰","STREET":"公園路","SECT":" ","MAREA":" ","LANE":"４５１巷","ALLEY":"２４弄","HOUSE_NO":"１６號","E_COORD97":168989.88,"N_COORD97":2545489.4399999999,"ADDRESS":"公園路４５１巷２４弄１６號","OBJECTID":57205},"geometry":{"x":168989.87999999989,"y":2545489.4400000013}},{"attributes":{"ID":57206,"DIS_CODE":0,"TOWNNAME":"北區","LI":"六甲里","LIN":"1鄰","STREET":"公園路","SECT":" ","MAREA":" ","LANE":"４５１巷","ALLEY":"２４弄","HOUSE_NO":"１號","E_COORD97":168974.76000000001,"N_COORD97":2545491.79,"ADDRESS":"公園路４５１巷２４弄１號","OBJECTID":57206},"geometry":{"x":168974.76000000071,"y":2545491.7899999991}},{"attributes":{"ID":57207,"DIS_CODE":0,"TOWNNAME":"北區","LI":"六甲里","LIN":"1鄰","STREET":"公園路","SECT":" ","MAREA":" ","LANE":"４５１巷","ALLEY":"２４弄","HOUSE_NO":"３號","E_COORD97":168978.48999999999,"N_COORD97":2545491.79,"ADDRESS":"公園路４５１巷２４弄３號","OBJECTID":57207},"geometry":{"x":168978.49000000115,"y":2545491.7899999991}},{"attributes":{"ID":57208,"DIS_CODE":0,"TOWNNAME":"北區","LI":"六甲里","LIN":"1鄰","STREET":"公園路","SECT":" ","MAREA":" ","LANE":"４５１巷","ALLEY":"２４弄","HOUSE_NO":"５號","E_COORD97":168981.82999999999,"N_COORD97":2545491.6000000001,"ADDRESS":"公園路４５１巷２４弄５號","OBJECTID":57208},"geometry":{"x":168981.83000000007,"y":2545491.6000000015}},{"attributes":{"ID":57209,"DIS_CODE":0,"TOWNNAME":"北區","LI":"六甲里","LIN":"1鄰","STREET":"公園路","SECT":" ","MAREA":" ","LANE":"４５１巷","ALLEY":"２４弄","HOUSE_NO":"７號","E_COORD97":168984.57999999999,"N_COORD97":2545491.3999999999,"ADDRESS":"公園路４５１巷２４弄７號","OBJECTID":57209},"geometry":{"x":168984.58000000101,"y":2545491.4000000022}},{"attributes":{"ID":57210,"DIS_CODE":0,"TOWNNAME":"北區","LI":"六甲里","LIN":"1鄰","STREET":"公園路","SECT":" ","MAREA":" ","LANE":"４５１巷","ALLEY":"２４弄","HOUSE_NO":"９號","E_COORD97":168988.31,"N_COORD97":2545491.3999999999,"ADDRESS":"公園路４５１巷２４弄９號","OBJECTID":57210},"geometry":{"x":168988.30999999959,"y":2545491.4000000022}},{"attributes":{"ID":57211,"DIS_CODE":0,"TOWNNAME":"楠西區","LI":"鹿田里","LIN":"8鄰","STREET":" ","SECT":" ","MAREA":"油車","LANE":" ","ALLEY":" ","HOUSE_NO":"２２號","E_COORD97":198046.44,"N_COORD97":2562087.25,"ADDRESS":"油車２２號","OBJECTID":57211},"geometry":{"x":198046.44000000134,"y":2562087.2500000019}},{"attributes":{"ID":57212,"DIS_CODE":0,"TOWNNAME":"北區","LI":"六甲里","LIN":"1鄰","STREET":"公園路","SECT":" ","MAREA":" ","LANE":"４５１巷","ALLEY":"２４弄","HOUSE_NO":"１１號","E_COORD97":168992.04000000001,"N_COORD97":2545491.3999999999,"ADDRESS":"公園路４５１巷２４弄１１號","OBJECTID":57212},"geometry":{"x":168992.04000000004,"y":2545491.4000000022}},{"attributes":{"ID":57213,"DIS_CODE":0,"TOWNNAME":"北區","LI":"六甲里","LIN":"1鄰","STREET":"公園路","SECT":" ","MAREA":" ","LANE":"４５１巷","ALLEY":"２４弄","HOUSE_NO":"１３號","E_COORD97":168996.17000000001,"N_COORD97":2545491.3999999999,"ADDRESS":"公園路４５１巷２４弄１３號","OBJECTID":57213},"geometry":{"x":168996.16999999993,"y":2545491.4000000022}},{"attributes":{"ID":57214,"DIS_CODE":0,"TOWNNAME":"將軍區","LI":"西華里","LIN":"1鄰","STREET":" ","SECT":" ","MAREA":"西華","LANE":" ","ALLEY":" ","HOUSE_NO":"１之５１號","E_COORD97":163621.42999999999,"N_COORD97":2566608.6899999999,"ADDRESS":"西華１之５１號","OBJECTID":57214},"geometry":{"x":163621.43000000063,"y":2566608.6899999995}},{"attributes":{"ID":57215,"DIS_CODE":0,"TOWNNAME":"北區","LI":"六甲里","LIN":"1鄰","STREET":"公園路","SECT":" ","MAREA":" ","LANE":"４５１巷","ALLEY":"２４弄","HOUSE_NO":"１５號","E_COORD97":168999.70000000001,"N_COORD97":2545491.2000000002,"ADDRESS":"公園路４５１巷２４弄１５號","OBJECTID":57215},"geometry":{"x":168999.70000000019,"y":2545491.2000000011}},{"attributes":{"ID":57216,"DIS_CODE":0,"TOWNNAME":"北區","LI":"六甲里","LIN":"1鄰","STREET":"公園路","SECT":" ","MAREA":" ","LANE":"４５１巷","ALLEY":"１０弄","HOUSE_NO":"１號","E_COORD97":168990.87,"N_COORD97":2545463.5499999998,"ADDRESS":"公園路４５１巷１０弄１號","OBJECTID":57216},"geometry":{"x":168990.87000000104,"y":2545463.5500000026}},{"attributes":{"ID":57217,"DIS_CODE":0,"TOWNNAME":"北區","LI":"正風里","LIN":"1鄰","STREET":"公園路","SECT":" ","MAREA":" ","LANE":"８６２巷","ALLEY":"１９弄","HOUSE_NO":"１號","E_COORD97":169348.47629300001,"N_COORD97":2545996.00514,"ADDRESS":"公園路８６２巷１９弄１號","OBJECTID":57217},"geometry":{"x":169348.47629300039,"y":2545996.0051429998}},{"attributes":{"ID":57218,"DIS_CODE":0,"TOWNNAME":"北區","LI":"正風里","LIN":"1鄰","STREET":"公園路","SECT":" ","MAREA":" ","LANE":"８６２巷","ALLEY":"１９弄","HOUSE_NO":"３號","E_COORD97":169350.38257700001,"N_COORD97":2545998.33348,"ADDRESS":"公園路８６２巷１９弄３號","OBJECTID":57218},"geometry":{"x":169350.38257700112,"y":2545998.3334750012}},{"attributes":{"ID":57219,"DIS_CODE":0,"TOWNNAME":"北區","LI":"正風里","LIN":"1鄰","STREET":"公園路","SECT":" ","MAREA":" ","LANE":"８６２巷","ALLEY":"１９弄","HOUSE_NO":"４號","E_COORD97":169362.85999999999,"N_COORD97":2545995.9300000002,"ADDRESS":"公園路８６２巷１９弄４號","OBJECTID":57219},"geometry":{"x":169362.86000000127,"y":2545995.9299999997}},{"attributes":{"ID":57220,"DIS_CODE":0,"TOWNNAME":"北區","LI":"正風里","LIN":"1鄰","STREET":"公園路","SECT":" ","MAREA":" ","LANE":"８６２巷","ALLEY":"１９弄","HOUSE_NO":"１４號","E_COORD97":169372.16,"N_COORD97":2546011.1000000001,"ADDRESS":"公園路８６２巷１９弄１４號","OBJECTID":57220},"geometry":{"x":169372.16000000108,"y":2546011.1000000015}},{"attributes":{"ID":57221,"DIS_CODE":0,"TOWNNAME":"北區","LI":"正風里","LIN":"1鄰","STREET":"公園路","SECT":" ","MAREA":" ","LANE":"８６２巷","ALLEY":"１９弄","HOUSE_NO":"１５號","E_COORD97":169366.73000000001,"N_COORD97":2546022.73,"ADDRESS":"公園路８６２巷１９弄１５號","OBJECTID":57221},"geometry":{"x":169366.73000000231,"y":2546022.7300000004}},{"attributes":{"ID":57222,"DIS_CODE":0,"TOWNNAME":"北區","LI":"正風里","LIN":"1鄰","STREET":"公園路","SECT":" ","MAREA":" ","LANE":"８６２巷","ALLEY":"１９弄","HOUSE_NO":"１６號","E_COORD97":169374.87,"N_COORD97":2546014.0800000001,"ADDRESS":"公園路８６２巷１９弄１６號","OBJECTID":57222},"geometry":{"x":169374.87000000011,"y":2546014.0800000038}},{"attributes":{"ID":57223,"DIS_CODE":0,"TOWNNAME":"北區","LI":"正風里","LIN":"1鄰","STREET":"公園路","SECT":" ","MAREA":" ","LANE":"８６２巷","ALLEY":"１９弄","HOUSE_NO":"１８號","E_COORD97":169377.32000000001,"N_COORD97":2546017.8799999999,"ADDRESS":"公園路８６２巷１９弄１８號","OBJECTID":57223},"geometry":{"x":169377.3200000003,"y":2546017.8800000008}},{"attributes":{"ID":57224,"DIS_CODE":0,"TOWNNAME":"北區","LI":"正風里","LIN":"1鄰","STREET":"公園路","SECT":" ","MAREA":" ","LANE":"８６２巷","ALLEY":"１９弄","HOUSE_NO":"２２號","E_COORD97":169383,"N_COORD97":2546022.27,"ADDRESS":"公園路８６２巷１９弄２２號","OBJECTID":57224},"geometry":{"x":169383.00000000186,"y":2546022.2700000033}},{"attributes":{"ID":57225,"DIS_CODE":0,"TOWNNAME":"將軍區","LI":"西華里","LIN":"1鄰","STREET":" ","SECT":" ","MAREA":"西華","LANE":" ","ALLEY":" ","HOUSE_NO":"１之７號","E_COORD97":163694.66,"N_COORD97":2566637.2000000002,"ADDRESS":"西華１之７號","OBJECTID":57225},"geometry":{"x":163694.66000000201,"y":2566637.2000000011}},{"attributes":{"ID":57226,"DIS_CODE":0,"TOWNNAME":"將軍區","LI":"西華里","LIN":"1鄰","STREET":" ","SECT":" ","MAREA":"西華","LANE":" ","ALLEY":" ","HOUSE_NO":"１５號","E_COORD97":163828.82000000001,"N_COORD97":2566494.7999999998,"ADDRESS":"西華１５號","OBJECTID":57226},"geometry":{"x":163828.8200000003,"y":2566494.8000000026}},{"attributes":{"ID":57227,"DIS_CODE":0,"TOWNNAME":"將軍區","LI":"西華里","LIN":"1鄰","STREET":" ","SECT":" ","MAREA":"西華","LANE":" ","ALLEY":" ","HOUSE_NO":"１７號","E_COORD97":163817.66,"N_COORD97":2566494.6699999999,"ADDRESS":"西華１７號","OBJECTID":57227},"geometry":{"x":163817.66000000015,"y":2566494.6700000037}},{"attributes":{"ID":57228,"DIS_CODE":0,"TOWNNAME":"將軍區","LI":"西華里","LIN":"1鄰","STREET":" ","SECT":" ","MAREA":"西華","LANE":" ","ALLEY":" ","HOUSE_NO":"１之１５號","E_COORD97":163676.69,"N_COORD97":2566669.46,"ADDRESS":"西華１之１５號","OBJECTID":57228},"geometry":{"x":163676.69000000134,"y":2566669.4600000009}},{"attributes":{"ID":57229,"DIS_CODE":0,"TOWNNAME":"將軍區","LI":"西華里","LIN":"1鄰","STREET":" ","SECT":" ","MAREA":"西華","LANE":" ","ALLEY":" ","HOUSE_NO":"１之１６號","E_COORD97":163680.07999999999,"N_COORD97":2566628.5499999998,"ADDRESS":"西華１之１６號","OBJECTID":57229},"geometry":{"x":163680.08000000101,"y":2566628.5500000045}},{"attributes":{"ID":57230,"DIS_CODE":0,"TOWNNAME":"將軍區","LI":"西華里","LIN":"1鄰","STREET":" ","SECT":" ","MAREA":"西華","LANE":" ","ALLEY":" ","HOUSE_NO":"１之１９號","E_COORD97":163615.98000000001,"N_COORD97":2566730.5800000001,"ADDRESS":"西華１之１９號","OBJECTID":57230},"geometry":{"x":163615.98000000045,"y":2566730.5800000019}},{"attributes":{"ID":57231,"DIS_CODE":0,"TOWNNAME":"將軍區","LI":"西華里","LIN":"1鄰","STREET":" ","SECT":" ","MAREA":"西華","LANE":" ","ALLEY":" ","HOUSE_NO":"１之１號","E_COORD97":163725.64999999999,"N_COORD97":2566612.6099999999,"ADDRESS":"西華１之１號","OBJECTID":57231},"geometry":{"x":163725.65000000224,"y":2566612.6099999994}},{"attributes":{"ID":57232,"DIS_CODE":0,"TOWNNAME":"將軍區","LI":"西華里","LIN":"1鄰","STREET":" ","SECT":" ","MAREA":"西華","LANE":" ","ALLEY":" ","HOUSE_NO":"１之２１號","E_COORD97":163573.29999999999,"N_COORD97":2566786.3199999998,"ADDRESS":"西華１之２１號","OBJECTID":57232},"geometry":{"x":163573.30000000075,"y":2566786.3200000022}},{"attributes":{"ID":57233,"DIS_CODE":0,"TOWNNAME":"將軍區","LI":"西華里","LIN":"1鄰","STREET":" ","SECT":" ","MAREA":"西華","LANE":" ","ALLEY":" ","HOUSE_NO":"１之２２號","E_COORD97":163568.34,"N_COORD97":2566792.0499999998,"ADDRESS":"西華１之２２號","OBJECTID":57233},"geometry":{"x":163568.34000000078,"y":2566792.0500000026}},{"attributes":{"ID":57234,"DIS_CODE":0,"TOWNNAME":"將軍區","LI":"西華里","LIN":"1鄰","STREET":" ","SECT":" ","MAREA":"西華","LANE":" ","ALLEY":" ","HOUSE_NO":"１之２３號","E_COORD97":163563.38,"N_COORD97":2566798.4700000002,"ADDRESS":"西華１之２３號","OBJECTID":57234},"geometry":{"x":163563.37999999989,"y":2566798.4700000044}},{"attributes":{"ID":57235,"DIS_CODE":0,"TOWNNAME":"將軍區","LI":"西華里","LIN":"1鄰","STREET":" ","SECT":" ","MAREA":"西華","LANE":" ","ALLEY":" ","HOUSE_NO":"１之２４號","E_COORD97":163558.70000000001,"N_COORD97":2566802.21,"ADDRESS":"西華１之２４號","OBJECTID":57235},"geometry":{"x":163558.70000000019,"y":2566802.2100000009}},{"attributes":{"ID":57236,"DIS_CODE":0,"TOWNNAME":"將軍區","LI":"西華里","LIN":"1鄰","STREET":" ","SECT":" ","MAREA":"西華","LANE":" ","ALLEY":" ","HOUSE_NO":"１之２５號","E_COORD97":163556.03,"N_COORD97":2566805.2400000002,"ADDRESS":"西華１之２５號","OBJECTID":57236},"geometry":{"x":163556.03000000026,"y":2566805.2400000002}},{"attributes":{"ID":57237,"DIS_CODE":0,"TOWNNAME":"將軍區","LI":"西華里","LIN":"1鄰","STREET":" ","SECT":" ","MAREA":"西華","LANE":" ","ALLEY":" ","HOUSE_NO":"１之２６號","E_COORD97":163553.91,"N_COORD97":2566811.1299999999,"ADDRESS":"西華１之２６號","OBJECTID":57237},"geometry":{"x":163553.90999999922,"y":2566811.129999999}},{"attributes":{"ID":57238,"DIS_CODE":0,"TOWNNAME":"將軍區","LI":"西華里","LIN":"1鄰","STREET":" ","SECT":" ","MAREA":"西華","LANE":" ","ALLEY":" ","HOUSE_NO":"１之３１號","E_COORD97":163594.32000000001,"N_COORD97":2566701.75,"ADDRESS":"西華１之３１號","OBJECTID":57238},"geometry":{"x":163594.32000000123,"y":2566701.7500000019}},{"attributes":{"ID":57239,"DIS_CODE":0,"TOWNNAME":"將軍區","LI":"西華里","LIN":"1鄰","STREET":" ","SECT":" ","MAREA":"西華","LANE":" ","ALLEY":" ","HOUSE_NO":"１之３２號","E_COORD97":163595.13,"N_COORD97":2566693.21,"ADDRESS":"西華１之３２號","OBJECTID":57239},"geometry":{"x":163595.13000000082,"y":2566693.2100000028}},{"attributes":{"ID":57240,"DIS_CODE":0,"TOWNNAME":"將軍區","LI":"西華里","LIN":"1鄰","STREET":" ","SECT":" ","MAREA":"西華","LANE":" ","ALLEY":" ","HOUSE_NO":"１之３６號","E_COORD97":163585.64000000001,"N_COORD97":2566665.0099999998,"ADDRESS":"西華１之３６號","OBJECTID":57240},"geometry":{"x":163585.63999999966,"y":2566665.0100000035}},{"attributes":{"ID":57241,"DIS_CODE":0,"TOWNNAME":"將軍區","LI":"西華里","LIN":"1鄰","STREET":" ","SECT":" ","MAREA":"西華","LANE":" ","ALLEY":" ","HOUSE_NO":"１之３７號","E_COORD97":163597.26999999999,"N_COORD97":2566663.02,"ADDRESS":"西華１之３７號","OBJECTID":57241},"geometry":{"x":163597.27000000048,"y":2566663.0199999996}},{"attributes":{"ID":57242,"DIS_CODE":0,"TOWNNAME":"將軍區","LI":"西華里","LIN":"1鄰","STREET":" ","SECT":" ","MAREA":"西華","LANE":" ","ALLEY":" ","HOUSE_NO":"１之３８號","E_COORD97":163580.47,"N_COORD97":2566644.4500000002,"ADDRESS":"西華１之３８號","OBJECTID":57242},"geometry":{"x":163580.47000000067,"y":2566644.450000003}},{"attributes":{"ID":57243,"DIS_CODE":0,"TOWNNAME":"將軍區","LI":"西華里","LIN":"1鄰","STREET":" ","SECT":" ","MAREA":"西華","LANE":" ","ALLEY":" ","HOUSE_NO":"１之３號","E_COORD97":163708.01000000001,"N_COORD97":2566621.9199999999,"ADDRESS":"西華１之３號","OBJECTID":57243},"geometry":{"x":163708.01000000071,"y":2566621.9200000018}},{"attributes":{"ID":57244,"DIS_CODE":0,"TOWNNAME":"新營區","LI":"鐵線里","LIN":"8鄰","STREET":" ","SECT":" ","MAREA":"鐵線橋","LANE":" ","ALLEY":" ","HOUSE_NO":"９３號","E_COORD97":175982.06,"N_COORD97":2573868.9399999999,"ADDRESS":"鐵線橋９３號","OBJECTID":57244},"geometry":{"x":175982.06000000052,"y":2573868.9399999995}},{"attributes":{"ID":57245,"DIS_CODE":0,"TOWNNAME":"新營區","LI":"舊部里","LIN":"8鄰","STREET":" ","SECT":" ","MAREA":"舊部","LANE":" ","ALLEY":" ","HOUSE_NO":"９９號","E_COORD97":177027.20999999999,"N_COORD97":2575629.0499999998,"ADDRESS":"舊部９９號","OBJECTID":57245},"geometry":{"x":177027.21000000089,"y":2575629.0500000007}},{"attributes":{"ID":57246,"DIS_CODE":0,"TOWNNAME":"將軍區","LI":"西華里","LIN":"1鄰","STREET":" ","SECT":" ","MAREA":"西華","LANE":" ","ALLEY":" ","HOUSE_NO":"１之４６號","E_COORD97":163613.70999999999,"N_COORD97":2566667.5,"ADDRESS":"西華１之４６號","OBJECTID":57246},"geometry":{"x":163613.70999999996,"y":2566667.5}},{"attributes":{"ID":57247,"DIS_CODE":0,"TOWNNAME":"將軍區","LI":"西華里","LIN":"1鄰","STREET":" ","SECT":" ","MAREA":"西華","LANE":" ","ALLEY":" ","HOUSE_NO":"１之４７號","E_COORD97":163616.89999999999,"N_COORD97":2566650.73,"ADDRESS":"西華１之４７號","OBJECTID":57247},"geometry":{"x":163616.89999999944,"y":2566650.7300000042}},{"attributes":{"ID":57248,"DIS_CODE":0,"TOWNNAME":"將軍區","LI":"西華里","LIN":"1鄰","STREET":" ","SECT":" ","MAREA":"西華","LANE":" ","ALLEY":" ","HOUSE_NO":"１之４號","E_COORD97":163704.32000000001,"N_COORD97":2566626.1499999999,"ADDRESS":"西華１之４號","OBJECTID":57248},"geometry":{"x":163704.32000000123,"y":2566626.1500000004}},{"attributes":{"ID":57249,"DIS_CODE":0,"TOWNNAME":"新營區","LI":"護鎮里","LIN":"8鄰","STREET":" ","SECT":" ","MAREA":"後鎮","LANE":" ","ALLEY":" ","HOUSE_NO":"８８號","E_COORD97":179200.29000000001,"N_COORD97":2580977.48,"ADDRESS":"後鎮８８號","OBJECTID":57249},"geometry":{"x":179200.29000000097,"y":2580977.4800000023}},{"attributes":{"ID":57250,"DIS_CODE":0,"TOWNNAME":"將軍區","LI":"西華里","LIN":"1鄰","STREET":" ","SECT":" ","MAREA":"西華","LANE":" ","ALLEY":" ","HOUSE_NO":"１之５７號","E_COORD97":163639.54999999999,"N_COORD97":2566690.96,"ADDRESS":"西華１之５７號","OBJECTID":57250},"geometry":{"x":163639.55000000075,"y":2566690.9600000028}},{"attributes":{"ID":57251,"DIS_CODE":0,"TOWNNAME":"將軍區","LI":"西華里","LIN":"1鄰","STREET":" ","SECT":" ","MAREA":"西華","LANE":" ","ALLEY":" ","HOUSE_NO":"１之５號","E_COORD97":163701.38,"N_COORD97":2566630.0099999998,"ADDRESS":"西華１之５號","OBJECTID":57251},"geometry":{"x":163701.38000000175,"y":2566630.0099999998}},{"attributes":{"ID":57252,"DIS_CODE":0,"TOWNNAME":"將軍區","LI":"西華里","LIN":"1鄰","STREET":" ","SECT":" ","MAREA":"西華","LANE":" ","ALLEY":" ","HOUSE_NO":"１之６１號","E_COORD97":163640.35000000001,"N_COORD97":2566673.2999999998,"ADDRESS":"西華１之６１號","OBJECTID":57252},"geometry":{"x":163640.35000000149,"y":2566673.3000000007}},{"attributes":{"ID":57253,"DIS_CODE":0,"TOWNNAME":"將軍區","LI":"西華里","LIN":"1鄰","STREET":" ","SECT":" ","MAREA":"西華","LANE":" ","ALLEY":" ","HOUSE_NO":"１之６２號","E_COORD97":163640.29999999999,"N_COORD97":2566668.6600000001,"ADDRESS":"西華１之６２號","OBJECTID":57253},"geometry":{"x":163640.29999999981,"y":2566668.660000002}},{"attributes":{"ID":57254,"DIS_CODE":0,"TOWNNAME":"將軍區","LI":"西華里","LIN":"1鄰","STREET":" ","SECT":" ","MAREA":"西華","LANE":" ","ALLEY":" ","HOUSE_NO":"１之６３號","E_COORD97":163640.25,"N_COORD97":2566664.0099999998,"ADDRESS":"西華１之６３號","OBJECTID":57254},"geometry":{"x":163640.25000000093,"y":2566664.0099999998}},{"attributes":{"ID":57255,"DIS_CODE":0,"TOWNNAME":"將軍區","LI":"西華里","LIN":"1鄰","STREET":" ","SECT":" ","MAREA":"西華","LANE":" ","ALLEY":" ","HOUSE_NO":"１之６４號","E_COORD97":163640.19,"N_COORD97":2566659.3700000001,"ADDRESS":"西華１之６４號","OBJECTID":57255},"geometry":{"x":163640.19000000041,"y":2566659.370000001}},{"attributes":{"ID":57256,"DIS_CODE":0,"TOWNNAME":"北區","LI":"新勝里","LIN":"1鄰","STREET":"開元路","SECT":" ","MAREA":" ","LANE":"３５７巷","ALLEY":"７弄","HOUSE_NO":"１號","E_COORD97":170287.81,"N_COORD97":2545506.5,"ADDRESS":"開元路３５７巷７弄１號","OBJECTID":57256},"geometry":{"x":170287.81000000052,"y":2545506.5000000019}},{"attributes":{"ID":57257,"DIS_CODE":0,"TOWNNAME":"北區","LI":"新勝里","LIN":"1鄰","STREET":"開元路","SECT":" ","MAREA":" ","LANE":"３５７巷","ALLEY":"７弄","HOUSE_NO":"３號","E_COORD97":170284.48000000001,"N_COORD97":2545504.0499999998,"ADDRESS":"開元路３５７巷７弄３號","OBJECTID":57257},"geometry":{"x":170284.48000000138,"y":2545504.0500000026}},{"attributes":{"ID":57258,"DIS_CODE":0,"TOWNNAME":"北區","LI":"新勝里","LIN":"1鄰","STREET":"開元路","SECT":" ","MAREA":" ","LANE":"３５７巷","ALLEY":"７弄","HOUSE_NO":"５號","E_COORD97":170280.37,"N_COORD97":2545501.9900000002,"ADDRESS":"開元路３５７巷７弄５號","OBJECTID":57258},"geometry":{"x":170280.37000000011,"y":2545501.9900000002}},{"attributes":{"ID":57259,"DIS_CODE":0,"TOWNNAME":"北區","LI":"新勝里","LIN":"1鄰","STREET":"開元路","SECT":" ","MAREA":" ","LANE":"３５７巷","ALLEY":"７弄","HOUSE_NO":"７號","E_COORD97":170277.04000000001,"N_COORD97":2545499.4399999999,"ADDRESS":"開元路３５７巷７弄７號","OBJECTID":57259},"geometry":{"x":170277.04000000004,"y":2545499.4400000013}},{"attributes":{"ID":57260,"DIS_CODE":0,"TOWNNAME":"將軍區","LI":"西華里","LIN":"1鄰","STREET":" ","SECT":" ","MAREA":"西華","LANE":" ","ALLEY":" ","HOUSE_NO":"１之６５號","E_COORD97":163640.14000000001,"N_COORD97":2566654.7200000002,"ADDRESS":"西華１之６５號","OBJECTID":57260},"geometry":{"x":163640.14000000153,"y":2566654.7200000025}},{"attributes":{"ID":57261,"DIS_CODE":0,"TOWNNAME":"將軍區","LI":"西華里","LIN":"1鄰","STREET":" ","SECT":" ","MAREA":"西華","LANE":" ","ALLEY":" ","HOUSE_NO":"１之６６號","E_COORD97":163640.07999999999,"N_COORD97":2566650.0699999998,"ADDRESS":"西華１之６６號","OBJECTID":57261},"geometry":{"x":163640.08000000007,"y":2566650.0700000003}},{"attributes":{"ID":57262,"DIS_CODE":0,"TOWNNAME":"將軍區","LI":"西華里","LIN":"1鄰","STREET":" ","SECT":" ","MAREA":"西華","LANE":" ","ALLEY":" ","HOUSE_NO":"１之６７號","E_COORD97":163640.03,"N_COORD97":2566645.4300000002,"ADDRESS":"西華１之６７號","OBJECTID":57262},"geometry":{"x":163640.03000000119,"y":2566645.4300000016}},{"attributes":{"ID":57263,"DIS_CODE":0,"TOWNNAME":"將軍區","LI":"西華里","LIN":"1鄰","STREET":" ","SECT":" ","MAREA":"西華","LANE":" ","ALLEY":" ","HOUSE_NO":"１之６８號","E_COORD97":163639.98000000001,"N_COORD97":2566640.7799999998,"ADDRESS":"西華１之６８號","OBJECTID":57263},"geometry":{"x":163639.98000000045,"y":2566640.7799999993}},{"attributes":{"ID":57264,"DIS_CODE":0,"TOWNNAME":"將軍區","LI":"西華里","LIN":"1鄰","STREET":" ","SECT":" ","MAREA":"西華","LANE":" ","ALLEY":" ","HOUSE_NO":"１之６號","E_COORD97":163697.76000000001,"N_COORD97":2566634.2400000002,"ADDRESS":"西華１之６號","OBJECTID":57264},"geometry":{"x":163697.76000000071,"y":2566634.2400000021}},{"attributes":{"ID":57265,"DIS_CODE":0,"TOWNNAME":"北區","LI":"新勝里","LIN":"1鄰","STREET":"開元路","SECT":" ","MAREA":" ","LANE":"３５７巷","ALLEY":"７弄","HOUSE_NO":"９號","E_COORD97":170273.25,"N_COORD97":2545497.3100000001,"ADDRESS":"開元路３５７巷７弄９號","OBJECTID":57265},"geometry":{"x":170273.25000000093,"y":2545497.3099999987}},{"attributes":{"ID":57266,"DIS_CODE":0,"TOWNNAME":"將軍區","LI":"西華里","LIN":"1鄰","STREET":" ","SECT":" ","MAREA":"西華","LANE":" ","ALLEY":" ","HOUSE_NO":"１之８號","E_COORD97":163691.42999999999,"N_COORD97":2566641.02,"ADDRESS":"西華１之８號","OBJECTID":57266},"geometry":{"x":163691.43000000063,"y":2566641.0200000033}},{"attributes":{"ID":57267,"DIS_CODE":0,"TOWNNAME":"將軍區","LI":"西華里","LIN":"1鄰","STREET":" ","SECT":" ","MAREA":"西華","LANE":" ","ALLEY":" ","HOUSE_NO":"１號","E_COORD97":163736.42000000001,"N_COORD97":2566585.9300000002,"ADDRESS":"西華１號","OBJECTID":57267},"geometry":{"x":163736.41999999993,"y":2566585.9299999997}},{"attributes":{"ID":57268,"DIS_CODE":0,"TOWNNAME":"將軍區","LI":"西華里","LIN":"1鄰","STREET":" ","SECT":" ","MAREA":"西華","LANE":" ","ALLEY":" ","HOUSE_NO":"２之１號","E_COORD97":163792.64999999999,"N_COORD97":2566539.8700000001,"ADDRESS":"西華２之１號","OBJECTID":57268},"geometry":{"x":163792.65000000037,"y":2566539.8700000029}},{"attributes":{"ID":57269,"DIS_CODE":0,"TOWNNAME":"將軍區","LI":"西華里","LIN":"1鄰","STREET":" ","SECT":" ","MAREA":"西華","LANE":" ","ALLEY":" ","HOUSE_NO":"２之２號","E_COORD97":163789.44,"N_COORD97":2566543.0800000001,"ADDRESS":"西華２之２號","OBJECTID":57269},"geometry":{"x":163789.44000000041,"y":2566543.0800000019}},{"attributes":{"ID":57270,"DIS_CODE":0,"TOWNNAME":"將軍區","LI":"西華里","LIN":"1鄰","STREET":" ","SECT":" ","MAREA":"西華","LANE":" ","ALLEY":" ","HOUSE_NO":"２之３號","E_COORD97":163786.07000000001,"N_COORD97":2566546.9700000002,"ADDRESS":"西華２之３號","OBJECTID":57270},"geometry":{"x":163786.07000000123,"y":2566546.9700000007}},{"attributes":{"ID":57271,"DIS_CODE":0,"TOWNNAME":"將軍區","LI":"西華里","LIN":"1鄰","STREET":" ","SECT":" ","MAREA":"西華","LANE":" ","ALLEY":" ","HOUSE_NO":"２之５號","E_COORD97":163779.10999999999,"N_COORD97":2566553.1200000001,"ADDRESS":"西華２之５號","OBJECTID":57271},"geometry":{"x":163779.11000000127,"y":2566553.120000001}},{"attributes":{"ID":57272,"DIS_CODE":0,"TOWNNAME":"北區","LI":"新勝里","LIN":"1鄰","STREET":"開元路","SECT":" ","MAREA":" ","LANE":"３５７巷","ALLEY":"７弄","HOUSE_NO":"１１號","E_COORD97":170269.69,"N_COORD97":2545495.02,"ADDRESS":"開元路３５７巷７弄１１號","OBJECTID":57272},"geometry":{"x":170269.69000000041,"y":2545495.0200000033}},{"attributes":{"ID":57273,"DIS_CODE":0,"TOWNNAME":"北區","LI":"新勝里","LIN":"1鄰","STREET":"開元路","SECT":" ","MAREA":" ","LANE":"３５７巷","ALLEY":"７弄","HOUSE_NO":"１３號","E_COORD97":170265.57999999999,"N_COORD97":2545491.4700000002,"ADDRESS":"開元路３５７巷７弄１３號","OBJECTID":57273},"geometry":{"x":170265.57999999914,"y":2545491.4700000025}},{"attributes":{"ID":57274,"DIS_CODE":0,"TOWNNAME":"北區","LI":"裕民里","LIN":"1鄰","STREET":"成功路","SECT":" ","MAREA":" ","LANE":"６００巷","ALLEY":"３９弄","HOUSE_NO":"１號","E_COORD97":167557.13,"N_COORD97":2544872.1200000001,"ADDRESS":"成功路６００巷３９弄１號","OBJECTID":57274},"geometry":{"x":167557.12999999989,"y":2544872.1200000048}},{"attributes":{"ID":57275,"DIS_CODE":0,"TOWNNAME":"安平區","LI":"建平里","LIN":"8鄰","STREET":"中華西路","SECT":"二段","MAREA":" ","LANE":" ","ALLEY":" ","HOUSE_NO":"４１３號","E_COORD97":166578.57999999999,"N_COORD97":2543891.4399999999,"ADDRESS":"中華西路二段４１３號","OBJECTID":57275},"geometry":{"x":166578.57999999914,"y":2543891.4399999995}},{"attributes":{"ID":57276,"DIS_CODE":0,"TOWNNAME":"安平區","LI":"建平里","LIN":"8鄰","STREET":"中華西路","SECT":"二段","MAREA":" ","LANE":" ","ALLEY":" ","HOUSE_NO":"４１５號","E_COORD97":166577.59,"N_COORD97":2543894.8399999999,"ADDRESS":"中華西路二段４１５號","OBJECTID":57276},"geometry":{"x":166577.58999999985,"y":2543894.8399999999}},{"attributes":{"ID":57277,"DIS_CODE":0,"TOWNNAME":"北區","LI":"裕民里","LIN":"1鄰","STREET":"成功路","SECT":" ","MAREA":" ","LANE":"６００巷","ALLEY":"３９弄","HOUSE_NO":"３號","E_COORD97":167555.28,"N_COORD97":2544876.5499999998,"ADDRESS":"成功路６００巷３９弄３號","OBJECTID":57277},"geometry":{"x":167555.28000000026,"y":2544876.5500000026}},{"attributes":{"ID":57278,"DIS_CODE":0,"TOWNNAME":"新營區","LI":"土庫里","LIN":"8鄰","STREET":" ","SECT":" ","MAREA":"土庫","LANE":" ","ALLEY":" ","HOUSE_NO":"７１之１９號","E_COORD97":182637.79999999999,"N_COORD97":2579996.9100000001,"ADDRESS":"土庫７１之１９號","OBJECTID":57278},"geometry":{"x":182637.80000000075,"y":2579996.9100000039}},{"attributes":{"ID":57279,"DIS_CODE":0,"TOWNNAME":"新營區","LI":"五興里","LIN":"8鄰","STREET":" ","SECT":" ","MAREA":"五間厝","LANE":" ","ALLEY":" ","HOUSE_NO":"９１號","E_COORD97":175684.5,"N_COORD97":2574928.0499999998,"ADDRESS":"五間厝９１號","OBJECTID":57279},"geometry":{"x":175684.50000000093,"y":2574928.0500000045}},{"attributes":{"ID":57280,"DIS_CODE":0,"TOWNNAME":"新營區","LI":"五興里","LIN":"8鄰","STREET":" ","SECT":" ","MAREA":"五間厝","LANE":" ","ALLEY":" ","HOUSE_NO":"９０號之５","E_COORD97":175729.82999999999,"N_COORD97":2574940.0600000001,"ADDRESS":"五間厝９０號之５","OBJECTID":57280},"geometry":{"x":175729.83000000101,"y":2574940.0600000005}},{"attributes":{"ID":57281,"DIS_CODE":0,"TOWNNAME":"新營區","LI":"嘉芳里","LIN":"8鄰","STREET":" ","SECT":" ","MAREA":"茄苳腳","LANE":" ","ALLEY":" ","HOUSE_NO":"７９之２號","E_COORD97":176791.41,"N_COORD97":2578531.8100000001,"ADDRESS":"茄苳腳７９之２號","OBJECTID":57281},"geometry":{"x":176791.41000000015,"y":2578531.8100000005}},{"attributes":{"ID":57282,"DIS_CODE":0,"TOWNNAME":"新營區","LI":"護鎮里","LIN":"8鄰","STREET":" ","SECT":" ","MAREA":"後鎮","LANE":" ","ALLEY":" ","HOUSE_NO":"９１之３號","E_COORD97":179158.63,"N_COORD97":2580960.02,"ADDRESS":"後鎮９１之３號","OBJECTID":57282},"geometry":{"x":179158.63000000082,"y":2580960.0200000014}},{"attributes":{"ID":57283,"DIS_CODE":0,"TOWNNAME":"北區","LI":"裕民里","LIN":"1鄰","STREET":"成功路","SECT":" ","MAREA":" ","LANE":"６００巷","ALLEY":"３９弄","HOUSE_NO":"５號","E_COORD97":167553.06,"N_COORD97":2544880.6099999999,"ADDRESS":"成功路６００巷３９弄５號","OBJECTID":57283},"geometry":{"x":167553.06000000145,"y":2544880.6100000031}},{"attributes":{"ID":57284,"DIS_CODE":0,"TOWNNAME":"歸仁區","LI":"沙崙里","LIN":"8鄰","STREET":" ","SECT":" ","MAREA":"沙崙","LANE":" ","ALLEY":" ","HOUSE_NO":"２２１號","E_COORD97":179415.29999999999,"N_COORD97":2537635.25,"ADDRESS":"沙崙２２１號","OBJECTID":57284},"geometry":{"x":179415.30000000075,"y":2537635.2500000037}},{"attributes":{"ID":57285,"DIS_CODE":0,"TOWNNAME":"將軍區","LI":"西華里","LIN":"1鄰","STREET":" ","SECT":" ","MAREA":"西華","LANE":" ","ALLEY":" ","HOUSE_NO":"２之７號","E_COORD97":163771.57000000001,"N_COORD97":2566561.0800000001,"ADDRESS":"西華２之７號","OBJECTID":57285},"geometry":{"x":163771.5700000003,"y":2566561.0800000019}},{"attributes":{"ID":57286,"DIS_CODE":0,"TOWNNAME":"將軍區","LI":"西華里","LIN":"1鄰","STREET":" ","SECT":" ","MAREA":"西華","LANE":" ","ALLEY":" ","HOUSE_NO":"２之８號","E_COORD97":163769.29000000001,"N_COORD97":2566563.23,"ADDRESS":"西華２之８號","OBJECTID":57286},"geometry":{"x":163769.29000000004,"y":2566563.2300000023}},{"attributes":{"ID":57287,"DIS_CODE":0,"TOWNNAME":"北區","LI":"裕民里","LIN":"1鄰","STREET":"成功路","SECT":" ","MAREA":" ","LANE":"６００巷","ALLEY":"３９弄","HOUSE_NO":"７號","E_COORD97":167552.69,"N_COORD97":2544885.77,"ADDRESS":"成功路６００巷３９弄７號","OBJECTID":57287},"geometry":{"x":167552.69000000041,"y":2544885.7699999996}},{"attributes":{"ID":57288,"DIS_CODE":0,"TOWNNAME":"北區","LI":"裕民里","LIN":"1鄰","STREET":"成功路","SECT":" ","MAREA":" ","LANE":"６００巷","ALLEY":"３９弄","HOUSE_NO":"２號","E_COORD97":167588.53,"N_COORD97":2544884.2999999998,"ADDRESS":"成功路６００巷３９弄２號","OBJECTID":57288},"geometry":{"x":167588.53000000119,"y":2544884.3000000045}},{"attributes":{"ID":57289,"DIS_CODE":0,"TOWNNAME":"北區","LI":"裕民里","LIN":"1鄰","STREET":"成功路","SECT":" ","MAREA":" ","LANE":"６００巷","ALLEY":"３９弄","HOUSE_NO":"４號","E_COORD97":167584.47,"N_COORD97":2544888.3599999999,"ADDRESS":"成功路６００巷３９弄４號","OBJECTID":57289},"geometry":{"x":167584.47000000067,"y":2544888.3599999994}},{"attributes":{"ID":57290,"DIS_CODE":0,"TOWNNAME":"北區","LI":"裕民里","LIN":"1鄰","STREET":"成功路","SECT":" ","MAREA":" ","LANE":"６００巷","ALLEY":"３９弄","HOUSE_NO":"６號","E_COORD97":167579.29000000001,"N_COORD97":2544886.8799999999,"ADDRESS":"成功路６００巷３９弄６號","OBJECTID":57290},"geometry":{"x":167579.29000000097,"y":2544886.879999999}},{"attributes":{"ID":57291,"DIS_CODE":0,"TOWNNAME":"北區","LI":"裕民里","LIN":"1鄰","STREET":"成功路","SECT":" ","MAREA":" ","LANE":"６００巷","ALLEY":"３９弄","HOUSE_NO":"８號","E_COORD97":167574.48999999999,"N_COORD97":2544886.1400000001,"ADDRESS":"成功路６００巷３９弄８號","OBJECTID":57291},"geometry":{"x":167574.49000000209,"y":2544886.1400000025}},{"attributes":{"ID":57292,"DIS_CODE":0,"TOWNNAME":"北區","LI":"裕民里","LIN":"1鄰","STREET":"成功路","SECT":" ","MAREA":" ","LANE":"６００巷","ALLEY":"３９弄","HOUSE_NO":"１０號","E_COORD97":167571.54000000001,"N_COORD97":2544883.5600000001,"ADDRESS":"成功路６００巷３９弄１０號","OBJECTID":57292},"geometry":{"x":167571.54000000004,"y":2544883.5600000024}},{"attributes":{"ID":57293,"DIS_CODE":0,"TOWNNAME":"北區","LI":"裕民里","LIN":"1鄰","STREET":"成功路","SECT":" ","MAREA":" ","LANE":"６００巷","ALLEY":"３９弄","HOUSE_NO":"１２號","E_COORD97":167568.95000000001,"N_COORD97":2544882.0800000001,"ADDRESS":"成功路６００巷３９弄１２號","OBJECTID":57293},"geometry":{"x":167568.95000000019,"y":2544882.0800000019}},{"attributes":{"ID":57294,"DIS_CODE":0,"TOWNNAME":"北區","LI":"裕民里","LIN":"1鄰","STREET":"成功路","SECT":" ","MAREA":" ","LANE":"６００巷","ALLEY":"３９弄","HOUSE_NO":"１４號","E_COORD97":167564.14999999999,"N_COORD97":2544880.98,"ADDRESS":"成功路６００巷３９弄１４號","OBJECTID":57294},"geometry":{"x":167564.1500000013,"y":2544880.9800000004}},{"attributes":{"ID":57295,"DIS_CODE":0,"TOWNNAME":"北區","LI":"裕民里","LIN":"1鄰","STREET":"成功路","SECT":" ","MAREA":" ","LANE":"６００巷","ALLEY":"３９弄","HOUSE_NO":"１６號","E_COORD97":167562.67000000001,"N_COORD97":2544884.6699999999,"ADDRESS":"成功路６００巷３９弄１６號","OBJECTID":57295},"geometry":{"x":167562.66999999993,"y":2544884.6700000018}},{"attributes":{"ID":57296,"DIS_CODE":0,"TOWNNAME":"北區","LI":"大和里","LIN":"1鄰","STREET":"大港街","SECT":" ","MAREA":" ","LANE":"１５巷","ALLEY":"２１弄","HOUSE_NO":"８號","E_COORD97":167313.48000000001,"N_COORD97":2546035.9500000002,"ADDRESS":"大港街１５巷２１弄８號","OBJECTID":57296},"geometry":{"x":167313.48000000045,"y":2546035.9500000011}},{"attributes":{"ID":57297,"DIS_CODE":0,"TOWNNAME":"北區","LI":"大和里","LIN":"1鄰","STREET":"大港街","SECT":" ","MAREA":" ","LANE":"１５巷","ALLEY":"２１弄","HOUSE_NO":"１０號","E_COORD97":167319.70000000001,"N_COORD97":2546036.2000000002,"ADDRESS":"大港街１５巷２１弄１０號","OBJECTID":57297},"geometry":{"x":167319.70000000019,"y":2546036.200000003}},{"attributes":{"ID":57298,"DIS_CODE":0,"TOWNNAME":"北區","LI":"大和里","LIN":"1鄰","STREET":"大港街","SECT":" ","MAREA":" ","LANE":"１５巷","ALLEY":"２１弄","HOUSE_NO":"１２號","E_COORD97":167326.17999999999,"N_COORD97":2546036.2000000002,"ADDRESS":"大港街１５巷２１弄１２號","OBJECTID":57298},"geometry":{"x":167326.1799999997,"y":2546036.200000003}},{"attributes":{"ID":57299,"DIS_CODE":0,"TOWNNAME":"北區","LI":"大和里","LIN":"1鄰","STREET":"大港街","SECT":" ","MAREA":" ","LANE":"１５巷","ALLEY":"２１弄","HOUSE_NO":"１６號","E_COORD97":167332.26999999999,"N_COORD97":2546036.3300000001,"ADDRESS":"大港街１５巷２１弄１６號","OBJECTID":57299},"geometry":{"x":167332.26999999955,"y":2546036.3300000019}},{"attributes":{"ID":57300,"DIS_CODE":0,"TOWNNAME":"北區","LI":"大和里","LIN":"1鄰","STREET":"大港街","SECT":" ","MAREA":" ","LANE":"１５巷","ALLEY":"２１弄","HOUSE_NO":"１號","E_COORD97":167301.16,"N_COORD97":2546046.4900000002,"ADDRESS":"大港街１５巷２１弄１號","OBJECTID":57300},"geometry":{"x":167301.16000000108,"y":2546046.4900000021}},{"attributes":{"ID":57301,"DIS_CODE":0,"TOWNNAME":"北區","LI":"大和里","LIN":"1鄰","STREET":"大港街","SECT":" ","MAREA":" ","LANE":"１５巷","ALLEY":"２１弄","HOUSE_NO":"２號","E_COORD97":167301.79000000001,"N_COORD97":2546035.6899999999,"ADDRESS":"大港街１５巷２１弄２號","OBJECTID":57301},"geometry":{"x":167301.79000000097,"y":2546035.6899999995}},{"attributes":{"ID":57302,"DIS_CODE":0,"TOWNNAME":"新營區","LI":"新南里","LIN":"8鄰","STREET":"新北五街","SECT":" ","MAREA":" ","LANE":" ","ALLEY":" ","HOUSE_NO":"９６號","E_COORD97":178614.01999999999,"N_COORD97":2579035.6099999999,"ADDRESS":"新北五街９６號","OBJECTID":57302},"geometry":{"x":178614.01999999955,"y":2579035.6100000013}},{"attributes":{"ID":57303,"DIS_CODE":0,"TOWNNAME":"將軍區","LI":"西華里","LIN":"1鄰","STREET":" ","SECT":" ","MAREA":"西華","LANE":" ","ALLEY":" ","HOUSE_NO":"２之９號","E_COORD97":163766.38,"N_COORD97":2566566.73,"ADDRESS":"西華２之９號","OBJECTID":57303},"geometry":{"x":163766.38000000082,"y":2566566.7300000023}},{"attributes":{"ID":57304,"DIS_CODE":0,"TOWNNAME":"將軍區","LI":"西華里","LIN":"1鄰","STREET":" ","SECT":" ","MAREA":"西華","LANE":" ","ALLEY":" ","HOUSE_NO":"３號","E_COORD97":163753.23000000001,"N_COORD97":2566521.0299999998,"ADDRESS":"西華３號","OBJECTID":57304},"geometry":{"x":163753.23000000045,"y":2566521.0299999993}},{"attributes":{"ID":57305,"DIS_CODE":0,"TOWNNAME":"將軍區","LI":"西華里","LIN":"1鄰","STREET":" ","SECT":" ","MAREA":"西華","LANE":" ","ALLEY":" ","HOUSE_NO":"４之３號","E_COORD97":163803.45000000001,"N_COORD97":2566527.4399999999,"ADDRESS":"西華４之３號","OBJECTID":57305},"geometry":{"x":163803.45000000112,"y":2566527.4400000013}},{"attributes":{"ID":57306,"DIS_CODE":0,"TOWNNAME":"將軍區","LI":"西華里","LIN":"1鄰","STREET":" ","SECT":" ","MAREA":"西華","LANE":" ","ALLEY":" ","HOUSE_NO":"４號","E_COORD97":163782.82999999999,"N_COORD97":2566527.0699999998,"ADDRESS":"西華４號","OBJECTID":57306},"geometry":{"x":163782.83000000007,"y":2566527.0700000022}},{"attributes":{"ID":57307,"DIS_CODE":0,"TOWNNAME":"將軍區","LI":"西華里","LIN":"1鄰","STREET":" ","SECT":" ","MAREA":"西華","LANE":" ","ALLEY":" ","HOUSE_NO":"５號","E_COORD97":163790.39000000001,"N_COORD97":2566501.9300000002,"ADDRESS":"西華５號","OBJECTID":57307},"geometry":{"x":163790.38999999966,"y":2566501.9299999997}},{"attributes":{"ID":57308,"DIS_CODE":0,"TOWNNAME":"將軍區","LI":"西華里","LIN":"1鄰","STREET":" ","SECT":" ","MAREA":"西華","LANE":" ","ALLEY":" ","HOUSE_NO":"６２之１０號","E_COORD97":163731.79000000001,"N_COORD97":2566507.9300000002,"ADDRESS":"西華６２之１０號","OBJECTID":57308},"geometry":{"x":163731.79000000097,"y":2566507.9299999997}},{"attributes":{"ID":57309,"DIS_CODE":0,"TOWNNAME":"將軍區","LI":"西華里","LIN":"1鄰","STREET":" ","SECT":" ","MAREA":"西華","LANE":" ","ALLEY":" ","HOUSE_NO":"６２之３１號","E_COORD97":163712.64000000001,"N_COORD97":2566558.5499999998,"ADDRESS":"西華６２之３１號","OBJECTID":57309},"geometry":{"x":163712.63999999966,"y":2566558.5500000026}},{"attributes":{"ID":57310,"DIS_CODE":0,"TOWNNAME":"將軍區","LI":"西華里","LIN":"1鄰","STREET":" ","SECT":" ","MAREA":"西華","LANE":" ","ALLEY":" ","HOUSE_NO":"６２之３２號","E_COORD97":163706.79999999999,"N_COORD97":2566556.3300000001,"ADDRESS":"西華６２之３２號","OBJECTID":57310},"geometry":{"x":163706.79999999981,"y":2566556.3300000001}},{"attributes":{"ID":57311,"DIS_CODE":0,"TOWNNAME":"將軍區","LI":"西華里","LIN":"1鄰","STREET":" ","SECT":" ","MAREA":"西華","LANE":" ","ALLEY":" ","HOUSE_NO":"６２之３３號","E_COORD97":163701.70999999999,"N_COORD97":2566555.1000000001,"ADDRESS":"西華６２之３３號","OBJECTID":57311},"geometry":{"x":163701.71000000089,"y":2566555.0999999996}},{"attributes":{"ID":57312,"DIS_CODE":0,"TOWNNAME":"將軍區","LI":"西華里","LIN":"1鄰","STREET":" ","SECT":" ","MAREA":"西華","LANE":" ","ALLEY":" ","HOUSE_NO":"６２之３４號","E_COORD97":163696.28,"N_COORD97":2566553.9500000002,"ADDRESS":"西華６２之３４號","OBJECTID":57312},"geometry":{"x":163696.28000000119,"y":2566553.9500000011}},{"attributes":{"ID":57313,"DIS_CODE":0,"TOWNNAME":"將軍區","LI":"西華里","LIN":"1鄰","STREET":" ","SECT":" ","MAREA":"西華","LANE":" ","ALLEY":" ","HOUSE_NO":"６２之３５號","E_COORD97":163690.85000000001,"N_COORD97":2566552.8700000001,"ADDRESS":"西華６２之３５號","OBJECTID":57313},"geometry":{"x":163690.84999999963,"y":2566552.8700000029}},{"attributes":{"ID":57314,"DIS_CODE":0,"TOWNNAME":"將軍區","LI":"西華里","LIN":"1鄰","STREET":" ","SECT":" ","MAREA":"西華","LANE":" ","ALLEY":" ","HOUSE_NO":"６２之３６號","E_COORD97":163673.54999999999,"N_COORD97":2566541.21,"ADDRESS":"西華６２之３６號","OBJECTID":57314},"geometry":{"x":163673.55000000075,"y":2566541.2100000009}},{"attributes":{"ID":57315,"DIS_CODE":0,"TOWNNAME":"將軍區","LI":"西華里","LIN":"1鄰","STREET":" ","SECT":" ","MAREA":"西華","LANE":" ","ALLEY":" ","HOUSE_NO":"６２之３７號","E_COORD97":163671.10999999999,"N_COORD97":2566548.4100000001,"ADDRESS":"西華６２之３７號","OBJECTID":57315},"geometry":{"x":163671.11000000034,"y":2566548.410000002}},{"attributes":{"ID":57316,"DIS_CODE":0,"TOWNNAME":"將軍區","LI":"西華里","LIN":"1鄰","STREET":" ","SECT":" ","MAREA":"西華","LANE":" ","ALLEY":" ","HOUSE_NO":"６２之３８號","E_COORD97":163671.45000000001,"N_COORD97":2566553.25,"ADDRESS":"西華６２之３８號","OBJECTID":57316},"geometry":{"x":163671.45000000112,"y":2566553.2500000019}},{"attributes":{"ID":57317,"DIS_CODE":0,"TOWNNAME":"將軍區","LI":"西華里","LIN":"1鄰","STREET":" ","SECT":" ","MAREA":"西華","LANE":" ","ALLEY":" ","HOUSE_NO":"６２之３９號","E_COORD97":163671.34,"N_COORD97":2566558.0800000001,"ADDRESS":"西華６２之３９號","OBJECTID":57317},"geometry":{"x":163671.34000000078,"y":2566558.0800000001}},{"attributes":{"ID":57318,"DIS_CODE":0,"TOWNNAME":"將軍區","LI":"西華里","LIN":"1鄰","STREET":" ","SECT":" ","MAREA":"西華","LANE":" ","ALLEY":" ","HOUSE_NO":"６２之４０號","E_COORD97":163671.14000000001,"N_COORD97":2566562.75,"ADDRESS":"西華６２之４０號","OBJECTID":57318},"geometry":{"x":163671.1400000006,"y":2566562.7500000019}},{"attributes":{"ID":57319,"DIS_CODE":0,"TOWNNAME":"將軍區","LI":"西華里","LIN":"1鄰","STREET":" ","SECT":" ","MAREA":"西華","LANE":" ","ALLEY":" ","HOUSE_NO":"６２之４１號","E_COORD97":163671.29000000001,"N_COORD97":2566567.6299999999,"ADDRESS":"西華６２之４１號","OBJECTID":57319},"geometry":{"x":163671.29000000004,"y":2566567.629999999}},{"attributes":{"ID":57320,"DIS_CODE":0,"TOWNNAME":"將軍區","LI":"西華里","LIN":"1鄰","STREET":" ","SECT":" ","MAREA":"西華","LANE":" ","ALLEY":" ","HOUSE_NO":"６２之４２號","E_COORD97":163671.48000000001,"N_COORD97":2566572.02,"ADDRESS":"西華６２之４２號","OBJECTID":57320},"geometry":{"x":163671.48000000138,"y":2566572.0199999996}},{"attributes":{"ID":57321,"DIS_CODE":0,"TOWNNAME":"將軍區","LI":"西華里","LIN":"1鄰","STREET":" ","SECT":" ","MAREA":"西華","LANE":" ","ALLEY":" ","HOUSE_NO":"６２之４３號","E_COORD97":163671.23999999999,"N_COORD97":2566576.2400000002,"ADDRESS":"西華６２之４３號","OBJECTID":57321},"geometry":{"x":163671.24000000115,"y":2566576.2400000021}},{"attributes":{"ID":57322,"DIS_CODE":0,"TOWNNAME":"將軍區","LI":"西華里","LIN":"1鄰","STREET":" ","SECT":" ","MAREA":"西華","LANE":" ","ALLEY":" ","HOUSE_NO":"６２之４４號","E_COORD97":163711.23000000001,"N_COORD97":2566581.2400000002,"ADDRESS":"西華６２之４４號","OBJECTID":57322},"geometry":{"x":163711.23000000045,"y":2566581.2400000002}},{"attributes":{"ID":57323,"DIS_CODE":0,"TOWNNAME":"將軍區","LI":"西華里","LIN":"1鄰","STREET":" ","SECT":" ","MAREA":"西華","LANE":" ","ALLEY":" ","HOUSE_NO":"６２之４５號","E_COORD97":163704.76000000001,"N_COORD97":2566580.6000000001,"ADDRESS":"西華６２之４５號","OBJECTID":57323},"geometry":{"x":163704.75999999978,"y":2566580.6000000015}},{"attributes":{"ID":57324,"DIS_CODE":0,"TOWNNAME":"將軍區","LI":"西華里","LIN":"1鄰","STREET":" ","SECT":" ","MAREA":"西華","LANE":" ","ALLEY":" ","HOUSE_NO":"６２之４６號","E_COORD97":163697.70999999999,"N_COORD97":2566579.7000000002,"ADDRESS":"西華６２之４６號","OBJECTID":57324},"geometry":{"x":163697.71000000089,"y":2566579.7000000011}},{"attributes":{"ID":57325,"DIS_CODE":0,"TOWNNAME":"將軍區","LI":"西華里","LIN":"1鄰","STREET":" ","SECT":" ","MAREA":"西華","LANE":" ","ALLEY":" ","HOUSE_NO":"６２之４７號","E_COORD97":163690.07000000001,"N_COORD97":2566579.54,"ADDRESS":"西華６２之４７號","OBJECTID":57325},"geometry":{"x":163690.0700000003,"y":2566579.540000001}},{"attributes":{"ID":57326,"DIS_CODE":0,"TOWNNAME":"將軍區","LI":"西華里","LIN":"1鄰","STREET":" ","SECT":" ","MAREA":"西華","LANE":" ","ALLEY":" ","HOUSE_NO":"７號","E_COORD97":163811.29000000001,"N_COORD97":2566513.8900000001,"ADDRESS":"西華７號","OBJECTID":57326},"geometry":{"x":163811.29000000097,"y":2566513.8900000043}},{"attributes":{"ID":57327,"DIS_CODE":0,"TOWNNAME":"將軍區","LI":"西華里","LIN":"1鄰","STREET":" ","SECT":" ","MAREA":"西華","LANE":" ","ALLEY":" ","HOUSE_NO":"８號","E_COORD97":163819.97,"N_COORD97":2566509.5899999999,"ADDRESS":"西華８號","OBJECTID":57327},"geometry":{"x":163819.97000000067,"y":2566509.5900000017}},{"attributes":{"ID":57328,"DIS_CODE":0,"TOWNNAME":"將軍區","LI":"西華里","LIN":"1鄰","STREET":" ","SECT":" ","MAREA":"西華","LANE":" ","ALLEY":" ","HOUSE_NO":"９號","E_COORD97":163824.56,"N_COORD97":2566507.5600000001,"ADDRESS":"西華９號","OBJECTID":57328},"geometry":{"x":163824.55999999959,"y":2566507.5600000024}},{"attributes":{"ID":57329,"DIS_CODE":0,"TOWNNAME":"將軍區","LI":"忠興里","LIN":"1鄰","STREET":" ","SECT":" ","MAREA":"忠興","LANE":" ","ALLEY":" ","HOUSE_NO":"１０號","E_COORD97":163797.14000000001,"N_COORD97":2566601.4500000002,"ADDRESS":"忠興１０號","OBJECTID":57329},"geometry":{"x":163797.13999999966,"y":2566601.4500000011}},{"attributes":{"ID":57330,"DIS_CODE":0,"TOWNNAME":"將軍區","LI":"忠興里","LIN":"1鄰","STREET":" ","SECT":" ","MAREA":"忠興","LANE":" ","ALLEY":" ","HOUSE_NO":"１１之１號","E_COORD97":163785.97,"N_COORD97":2566600.02,"ADDRESS":"忠興１１之１號","OBJECTID":57330},"geometry":{"x":163785.97000000067,"y":2566600.0199999977}},{"attributes":{"ID":57331,"DIS_CODE":0,"TOWNNAME":"將軍區","LI":"忠興里","LIN":"1鄰","STREET":" ","SECT":" ","MAREA":"忠興","LANE":" ","ALLEY":" ","HOUSE_NO":"１１號","E_COORD97":163791.78,"N_COORD97":2566600.4700000002,"ADDRESS":"忠興１１號","OBJECTID":57331},"geometry":{"x":163791.78000000026,"y":2566600.4700000007}},{"attributes":{"ID":57332,"DIS_CODE":0,"TOWNNAME":"將軍區","LI":"忠興里","LIN":"1鄰","STREET":" ","SECT":" ","MAREA":"忠興","LANE":" ","ALLEY":" ","HOUSE_NO":"１２之１號","E_COORD97":163747.10000000001,"N_COORD97":2566628.2400000002,"ADDRESS":"忠興１２之１號","OBJECTID":57332},"geometry":{"x":163747.10000000149,"y":2566628.2400000002}},{"attributes":{"ID":57333,"DIS_CODE":0,"TOWNNAME":"將軍區","LI":"忠興里","LIN":"1鄰","STREET":" ","SECT":" ","MAREA":"忠興","LANE":" ","ALLEY":" ","HOUSE_NO":"１２之２號","E_COORD97":163709.22,"N_COORD97":2566665.1400000001,"ADDRESS":"忠興１２之２號","OBJECTID":57333},"geometry":{"x":163709.2200000016,"y":2566665.1400000043}},{"attributes":{"ID":57334,"DIS_CODE":0,"TOWNNAME":"將軍區","LI":"忠興里","LIN":"1鄰","STREET":" ","SECT":" ","MAREA":"忠興","LANE":" ","ALLEY":" ","HOUSE_NO":"１２之３號","E_COORD97":163706.37,"N_COORD97":2566674.4900000002,"ADDRESS":"忠興１２之３號","OBJECTID":57334},"geometry":{"x":163706.37000000011,"y":2566674.4900000002}},{"attributes":{"ID":57335,"DIS_CODE":0,"TOWNNAME":"北區","LI":"大和里","LIN":"1鄰","STREET":"大港街","SECT":" ","MAREA":" ","LANE":"１５巷","ALLEY":"２１弄","HOUSE_NO":"３號","E_COORD97":167307.13,"N_COORD97":2546046.6200000001,"ADDRESS":"大港街１５巷２１弄３號","OBJECTID":57335},"geometry":{"x":167307.13000000175,"y":2546046.6200000029}},{"attributes":{"ID":57336,"DIS_CODE":0,"TOWNNAME":"北區","LI":"大和里","LIN":"1鄰","STREET":"大港街","SECT":" ","MAREA":" ","LANE":"１５巷","ALLEY":"２１弄","HOUSE_NO":"５號","E_COORD97":167312.84,"N_COORD97":2546047,"ADDRESS":"大港街１５巷２１弄５號","OBJECTID":57336},"geometry":{"x":167312.84000000078,"y":2546047}},{"attributes":{"ID":57337,"DIS_CODE":0,"TOWNNAME":"北區","LI":"大和里","LIN":"1鄰","STREET":"大港街","SECT":" ","MAREA":" ","LANE":"１５巷","ALLEY":"２１弄","HOUSE_NO":"７號","E_COORD97":167319.06,"N_COORD97":2546047.1200000001,"ADDRESS":"大港街１５巷２１弄７號","OBJECTID":57337},"geometry":{"x":167319.06000000145,"y":2546047.120000001}},{"attributes":{"ID":57338,"DIS_CODE":0,"TOWNNAME":"北區","LI":"大和里","LIN":"1鄰","STREET":"大港街","SECT":" ","MAREA":" ","LANE":"１５巷","ALLEY":"２１弄","HOUSE_NO":"９號","E_COORD97":167325.79999999999,"N_COORD97":2546047.5,"ADDRESS":"大港街１５巷２１弄９號","OBJECTID":57338},"geometry":{"x":167325.79999999981,"y":2546047.5}},{"attributes":{"ID":57339,"DIS_CODE":0,"TOWNNAME":"北區","LI":"大和里","LIN":"1鄰","STREET":"大港街","SECT":" ","MAREA":" ","LANE":"１５巷","ALLEY":"２１弄","HOUSE_NO":"１１號","E_COORD97":167331.64000000001,"N_COORD97":2546047.8900000001,"ADDRESS":"大港街１５巷２１弄１１號","OBJECTID":57339},"geometry":{"x":167331.63999999966,"y":2546047.8900000025}},{"attributes":{"ID":57340,"DIS_CODE":0,"TOWNNAME":"北區","LI":"大和里","LIN":"1鄰","STREET":"大港街","SECT":" ","MAREA":" ","LANE":"１５巷","ALLEY":"２１弄","HOUSE_NO":"６號","E_COORD97":167308.01000000001,"N_COORD97":2546035.6899999999,"ADDRESS":"大港街１５巷２１弄６號","OBJECTID":57340},"geometry":{"x":167308.01000000071,"y":2546035.6899999995}},{"attributes":{"ID":57341,"DIS_CODE":0,"TOWNNAME":"北區","LI":"東興里","LIN":"1鄰","STREET":"小東路","SECT":" ","MAREA":" ","LANE":"１４７巷","ALLEY":"２２弄","HOUSE_NO":"３２之１號","E_COORD97":170764.07000000001,"N_COORD97":2544570.1600000001,"ADDRESS":"小東路１４７巷２２弄３２之１號","OBJECTID":57341},"geometry":{"x":170764.0700000003,"y":2544570.160000002}},{"attributes":{"ID":57342,"DIS_CODE":0,"TOWNNAME":"新營區","LI":"南紙里","LIN":"1鄰","STREET":"建業路","SECT":" ","MAREA":" ","LANE":"１９３巷","ALLEY":"２２弄","HOUSE_NO":"１６號","E_COORD97":178156.95999999999,"N_COORD97":2577371.0899999999,"ADDRESS":"建業路１９３巷２２弄１６號","OBJECTID":57342},"geometry":{"x":178156.95999999996,"y":2577371.089999998}},{"attributes":{"ID":57343,"DIS_CODE":0,"TOWNNAME":"新營區","LI":"南紙里","LIN":"1鄰","STREET":"建業路","SECT":" ","MAREA":" ","LANE":"１９３巷","ALLEY":"２２弄","HOUSE_NO":"２２號","E_COORD97":178141.69,"N_COORD97":2577372.27,"ADDRESS":"建業路１９３巷２２弄２２號","OBJECTID":57343},"geometry":{"x":178141.69000000134,"y":2577372.2699999996}},{"attributes":{"ID":57344,"DIS_CODE":0,"TOWNNAME":"歸仁區","LI":"歸南里","LIN":"1鄰","STREET":"民權南路","SECT":" ","MAREA":" ","LANE":"１９６巷","ALLEY":"３８弄","HOUSE_NO":"２０號","E_COORD97":176791.97,"N_COORD97":2540344.3799999999,"ADDRESS":"民權南路１９６巷３８弄２０號","OBJECTID":57344},"geometry":{"x":176791.96999999974,"y":2540344.379999999}},{"attributes":{"ID":57345,"DIS_CODE":0,"TOWNNAME":"永康區","LI":"西橋里","LIN":"1鄰","STREET":"中山南路","SECT":" ","MAREA":" ","LANE":"４３巷","ALLEY":"７弄","HOUSE_NO":"７號","E_COORD97":170733.97,"N_COORD97":2545849.2599999998,"ADDRESS":"中山南路４３巷７弄７號","OBJECTID":57345},"geometry":{"x":170733.9700000016,"y":2545849.2599999998}},{"attributes":{"ID":57346,"DIS_CODE":0,"TOWNNAME":"東區","LI":"文聖里","LIN":"1鄰","STREET":"裕農路","SECT":" ","MAREA":" ","LANE":"６６８巷","ALLEY":"７５弄","HOUSE_NO":"２３號之１","E_COORD97":171823.44,"N_COORD97":2542786.6299999999,"ADDRESS":"裕農路６６８巷７５弄２３號之１","OBJECTID":57346},"geometry":{"x":171823.44000000134,"y":2542786.629999999}},{"attributes":{"ID":57347,"DIS_CODE":0,"TOWNNAME":"佳里區","LI":"六安里","LIN":"1鄰","STREET":"進學路","SECT":" ","MAREA":" ","LANE":"１４８巷","ALLEY":"１５弄","HOUSE_NO":"１號","E_COORD97":166046.25,"N_COORD97":2562703.8599999999,"ADDRESS":"進學路１４８巷１５弄１號","OBJECTID":57347},"geometry":{"x":166046.25,"y":2562703.8599999994}},{"attributes":{"ID":57348,"DIS_CODE":0,"TOWNNAME":"佳里區","LI":"六安里","LIN":"1鄰","STREET":"進學路","SECT":" ","MAREA":" ","LANE":"１４８巷","ALLEY":"１５弄","HOUSE_NO":"２號","E_COORD97":166053.59,"N_COORD97":2562703.77,"ADDRESS":"進學路１４８巷１５弄２號","OBJECTID":57348},"geometry":{"x":166053.59000000078,"y":2562703.7700000014}},{"attributes":{"ID":57349,"DIS_CODE":0,"TOWNNAME":"永康區","LI":"甲頂里","LIN":"1鄰","STREET":"南台街","SECT":" ","MAREA":" ","LANE":"１３５巷","ALLEY":"３弄","HOUSE_NO":"２號","E_COORD97":170016.82000000001,"N_COORD97":2546943.25,"ADDRESS":"南台街１３５巷３弄２號","OBJECTID":57349},"geometry":{"x":170016.82000000216,"y":2546943.2500000019}},{"attributes":{"ID":57350,"DIS_CODE":0,"TOWNNAME":"永康區","LI":"永康里","LIN":"1鄰","STREET":"中山北路","SECT":" ","MAREA":" ","LANE":"３５巷","ALLEY":"３６弄","HOUSE_NO":"２號","E_COORD97":173912.59,"N_COORD97":2547530.4900000002,"ADDRESS":"中山北路３５巷３６弄２號","OBJECTID":57350},"geometry":{"x":173912.59000000078,"y":2547530.4900000021}},{"attributes":{"ID":57351,"DIS_CODE":0,"TOWNNAME":"安南區","LI":"州北里","LIN":"1鄰","STREET":"安和路","SECT":"五段","MAREA":" ","LANE":"８１巷","ALLEY":"４０弄","HOUSE_NO":"３２號之１３","E_COORD97":169820.04999999999,"N_COORD97":2551673,"ADDRESS":"安和路五段８１巷４０弄３２號之１３","OBJECTID":57351},"geometry":{"x":169820.05000000075,"y":2551673.0000000037}},{"attributes":{"ID":57352,"DIS_CODE":0,"TOWNNAME":"安南區","LI":"新順里","LIN":"1鄰","STREET":"安生街","SECT":" ","MAREA":" ","LANE":"１２２巷","ALLEY":"６弄","HOUSE_NO":"１６號","E_COORD97":169446.20999999999,"N_COORD97":2549618.6099999999,"ADDRESS":"安生街１２２巷６弄１６號","OBJECTID":57352},"geometry":{"x":169446.21000000089,"y":2549618.6100000013}},{"attributes":{"ID":57353,"DIS_CODE":0,"TOWNNAME":"安南區","LI":"淵中里","LIN":"1鄰","STREET":"安中路","SECT":"三段","MAREA":" ","LANE":"３７５巷","ALLEY":"５弄","HOUSE_NO":"１１號","E_COORD97":165552.45000000001,"N_COORD97":2549890.21,"ADDRESS":"安中路三段３７５巷５弄１１號","OBJECTID":57353},"geometry":{"x":165552.45000000205,"y":2549890.2100000028}},{"attributes":{"ID":57354,"DIS_CODE":0,"TOWNNAME":"安南區","LI":"淵中里","LIN":"1鄰","STREET":"安中路","SECT":"三段","MAREA":" ","LANE":"３７５巷","ALLEY":"５弄","HOUSE_NO":"１３號","E_COORD97":165556.29999999999,"N_COORD97":2549889.0800000001,"ADDRESS":"安中路三段３７５巷５弄１３號","OBJECTID":57354},"geometry":{"x":165556.29999999888,"y":2549889.0800000038}},{"attributes":{"ID":57355,"DIS_CODE":0,"TOWNNAME":"安南區","LI":"淵中里","LIN":"1鄰","STREET":"安中路","SECT":"三段","MAREA":" ","LANE":"３７５巷","ALLEY":"５弄","HOUSE_NO":"１５號","E_COORD97":165560.82999999999,"N_COORD97":2549887.5699999998,"ADDRESS":"安中路三段３７５巷５弄１５號","OBJECTID":57355},"geometry":{"x":165560.83000000007,"y":2549887.5700000022}},{"attributes":{"ID":57356,"DIS_CODE":0,"TOWNNAME":"安南區","LI":"淵中里","LIN":"1鄰","STREET":"安中路","SECT":"三段","MAREA":" ","LANE":"３７５巷","ALLEY":"５弄","HOUSE_NO":"１７號","E_COORD97":165564.76000000001,"N_COORD97":2549886.8100000001,"ADDRESS":"安中路三段３７５巷５弄１７號","OBJECTID":57356},"geometry":{"x":165564.75999999978,"y":2549886.8100000005}},{"attributes":{"ID":57357,"DIS_CODE":0,"TOWNNAME":"安南區","LI":"淵中里","LIN":"1鄰","STREET":"安中路","SECT":"三段","MAREA":" ","LANE":"３７５巷","ALLEY":"５弄","HOUSE_NO":"１９號","E_COORD97":165568.53,"N_COORD97":2549884.8500000001,"ADDRESS":"安中路三段３７５巷５弄１９號","OBJECTID":57357},"geometry":{"x":165568.53000000026,"y":2549884.8500000015}},{"attributes":{"ID":57358,"DIS_CODE":0,"TOWNNAME":"安南區","LI":"淵中里","LIN":"1鄰","STREET":"安中路","SECT":"三段","MAREA":" ","LANE":"３７５巷","ALLEY":"５弄","HOUSE_NO":"３號","E_COORD97":165535.84,"N_COORD97":2549894.73,"ADDRESS":"安中路三段３７５巷５弄３號","OBJECTID":57358},"geometry":{"x":165535.84000000171,"y":2549894.7300000004}},{"attributes":{"ID":57359,"DIS_CODE":0,"TOWNNAME":"安南區","LI":"淵中里","LIN":"1鄰","STREET":"安中路","SECT":"三段","MAREA":" ","LANE":"３７５巷","ALLEY":"５弄","HOUSE_NO":"５號","E_COORD97":165540.97,"N_COORD97":2549893.23,"ADDRESS":"安中路三段３７５巷５弄５號","OBJECTID":57359},"geometry":{"x":165540.96999999974,"y":2549893.2300000023}},{"attributes":{"ID":57360,"DIS_CODE":0,"TOWNNAME":"安南區","LI":"淵中里","LIN":"1鄰","STREET":"安中路","SECT":"三段","MAREA":" ","LANE":"３７５巷","ALLEY":"５弄","HOUSE_NO":"７號","E_COORD97":165544.51999999999,"N_COORD97":2549892.1699999999,"ADDRESS":"安中路三段３７５巷５弄７號","OBJECTID":57360},"geometry":{"x":165544.52000000142,"y":2549892.1700000018}},{"attributes":{"ID":57361,"DIS_CODE":0,"TOWNNAME":"安南區","LI":"淵中里","LIN":"1鄰","STREET":"安中路","SECT":"三段","MAREA":" ","LANE":"３７５巷","ALLEY":"５弄","HOUSE_NO":"９號","E_COORD97":165548.14999999999,"N_COORD97":2549891.3399999999,"ADDRESS":"安中路三段３７５巷５弄９號","OBJECTID":57361},"geometry":{"x":165548.1500000013,"y":2549891.3400000017}},{"attributes":{"ID":57362,"DIS_CODE":0,"TOWNNAME":"將軍區","LI":"忠興里","LIN":"1鄰","STREET":" ","SECT":" ","MAREA":"忠興","LANE":" ","ALLEY":" ","HOUSE_NO":"１２之５號","E_COORD97":163705.04999999999,"N_COORD97":2566680.6200000001,"ADDRESS":"忠興１２之５號","OBJECTID":57362},"geometry":{"x":163705.04999999981,"y":2566680.6200000029}},{"attributes":{"ID":57363,"DIS_CODE":0,"TOWNNAME":"將軍區","LI":"忠興里","LIN":"1鄰","STREET":" ","SECT":" ","MAREA":"忠興","LANE":" ","ALLEY":" ","HOUSE_NO":"５之２號","E_COORD97":163796.20000000001,"N_COORD97":2566565.7000000002,"ADDRESS":"忠興５之２號","OBJECTID":57363},"geometry":{"x":163796.20000000205,"y":2566565.7000000011}},{"attributes":{"ID":57364,"DIS_CODE":0,"TOWNNAME":"將軍區","LI":"忠興里","LIN":"1鄰","STREET":" ","SECT":" ","MAREA":"忠興","LANE":" ","ALLEY":" ","HOUSE_NO":"５之５號","E_COORD97":163800.54000000001,"N_COORD97":2566560.1800000002,"ADDRESS":"忠興５之５號","OBJECTID":57364},"geometry":{"x":163800.5400000019,"y":2566560.1800000016}},{"attributes":{"ID":57365,"DIS_CODE":0,"TOWNNAME":"將軍區","LI":"忠興里","LIN":"1鄰","STREET":" ","SECT":" ","MAREA":"忠興","LANE":" ","ALLEY":" ","HOUSE_NO":"５之６號","E_COORD97":163802.72,"N_COORD97":2566557.2200000002,"ADDRESS":"忠興５之６號","OBJECTID":57365},"geometry":{"x":163802.72000000067,"y":2566557.2200000025}},{"attributes":{"ID":57366,"DIS_CODE":0,"TOWNNAME":"將軍區","LI":"忠興里","LIN":"1鄰","STREET":" ","SECT":" ","MAREA":"忠興","LANE":" ","ALLEY":" ","HOUSE_NO":"５之７號","E_COORD97":163805.19,"N_COORD97":2566554.5899999999,"ADDRESS":"忠興５之７號","OBJECTID":57366},"geometry":{"x":163805.19000000134,"y":2566554.5899999999}},{"attributes":{"ID":57367,"DIS_CODE":0,"TOWNNAME":"將軍區","LI":"忠興里","LIN":"1鄰","STREET":" ","SECT":" ","MAREA":"忠興","LANE":" ","ALLEY":" ","HOUSE_NO":"５號","E_COORD97":163832.07999999999,"N_COORD97":2566573.9300000002,"ADDRESS":"忠興５號","OBJECTID":57367},"geometry":{"x":163832.08000000007,"y":2566573.9300000034}},{"attributes":{"ID":57368,"DIS_CODE":0,"TOWNNAME":"將軍區","LI":"忠興里","LIN":"1鄰","STREET":" ","SECT":" ","MAREA":"忠興","LANE":" ","ALLEY":" ","HOUSE_NO":"６號","E_COORD97":163834.87,"N_COORD97":2566607.54,"ADDRESS":"忠興６號","OBJECTID":57368},"geometry":{"x":163834.87000000011,"y":2566607.540000001}},{"attributes":{"ID":57369,"DIS_CODE":0,"TOWNNAME":"將軍區","LI":"忠興里","LIN":"1鄰","STREET":" ","SECT":" ","MAREA":"忠興","LANE":" ","ALLEY":" ","HOUSE_NO":"７之１號","E_COORD97":163819.85000000001,"N_COORD97":2566604.9100000001,"ADDRESS":"忠興７之１號","OBJECTID":57369},"geometry":{"x":163819.84999999963,"y":2566604.9100000039}},{"attributes":{"ID":57370,"DIS_CODE":0,"TOWNNAME":"安南區","LI":"佃西里","LIN":"1鄰","STREET":"海佃路","SECT":"四段","MAREA":" ","LANE":"３８８巷","ALLEY":"６７弄","HOUSE_NO":"２３號","E_COORD97":165533.39000000001,"N_COORD97":2551740.2999999998,"ADDRESS":"海佃路四段３８８巷６７弄２３號","OBJECTID":57370},"geometry":{"x":165533.38999999966,"y":2551740.3000000026}},{"attributes":{"ID":57371,"DIS_CODE":0,"TOWNNAME":"安南區","LI":"佃西里","LIN":"1鄰","STREET":"海佃路","SECT":"四段","MAREA":" ","LANE":"３８８巷","ALLEY":"６７弄","HOUSE_NO":"２１號","E_COORD97":165532.64999999999,"N_COORD97":2551724.1099999999,"ADDRESS":"海佃路四段３８８巷６７弄２１號","OBJECTID":57371},"geometry":{"x":165532.65000000224,"y":2551724.1100000013}},{"attributes":{"ID":57372,"DIS_CODE":0,"TOWNNAME":"安南區","LI":"佃西里","LIN":"1鄰","STREET":"海佃路","SECT":"四段","MAREA":" ","LANE":"３８８巷","ALLEY":"６７弄","HOUSE_NO":"２１號之１","E_COORD97":165526.70999999999,"N_COORD97":2551725.4700000002,"ADDRESS":"海佃路四段３８８巷６７弄２１號之１","OBJECTID":57372},"geometry":{"x":165526.71000000183,"y":2551725.4700000025}},{"attributes":{"ID":57373,"DIS_CODE":0,"TOWNNAME":"將軍區","LI":"忠興里","LIN":"1鄰","STREET":" ","SECT":" ","MAREA":"忠興","LANE":" ","ALLEY":" ","HOUSE_NO":"７之２號","E_COORD97":163815.67000000001,"N_COORD97":2566604.52,"ADDRESS":"忠興７之２號","OBJECTID":57373},"geometry":{"x":163815.66999999993,"y":2566604.5200000014}},{"attributes":{"ID":57374,"DIS_CODE":0,"TOWNNAME":"將軍區","LI":"忠興里","LIN":"1鄰","STREET":" ","SECT":" ","MAREA":"忠興","LANE":" ","ALLEY":" ","HOUSE_NO":"７號","E_COORD97":163825.66,"N_COORD97":2566605.6899999999,"ADDRESS":"忠興７號","OBJECTID":57374},"geometry":{"x":163825.66000000108,"y":2566605.6900000032}},{"attributes":{"ID":57375,"DIS_CODE":0,"TOWNNAME":"將軍區","LI":"忠興里","LIN":"1鄰","STREET":" ","SECT":" ","MAREA":"忠興","LANE":" ","ALLEY":" ","HOUSE_NO":"８之１號","E_COORD97":163806.73000000001,"N_COORD97":2566602.8900000001,"ADDRESS":"忠興８之１號","OBJECTID":57375},"geometry":{"x":163806.73000000138,"y":2566602.8900000025}},{"attributes":{"ID":57376,"DIS_CODE":0,"TOWNNAME":"將軍區","LI":"忠興里","LIN":"1鄰","STREET":" ","SECT":" ","MAREA":"忠興","LANE":" ","ALLEY":" ","HOUSE_NO":"８號","E_COORD97":163810.84,"N_COORD97":2566603.7400000002,"ADDRESS":"忠興８號","OBJECTID":57376},"geometry":{"x":163810.84000000078,"y":2566603.7400000021}},{"attributes":{"ID":57377,"DIS_CODE":0,"TOWNNAME":"將軍區","LI":"忠興里","LIN":"1鄰","STREET":" ","SECT":" ","MAREA":"忠興","LANE":" ","ALLEY":" ","HOUSE_NO":"９號","E_COORD97":163802.42000000001,"N_COORD97":2566602.4300000002,"ADDRESS":"忠興９號","OBJECTID":57377},"geometry":{"x":163802.41999999993,"y":2566602.4300000016}},{"attributes":{"ID":57378,"DIS_CODE":0,"TOWNNAME":"白河區","LI":"汴頭里","LIN":"1鄰","STREET":" ","SECT":" ","MAREA":"林子內","LANE":" ","ALLEY":" ","HOUSE_NO":"１２號","E_COORD97":194688.35999999999,"N_COORD97":2584686.2000000002,"ADDRESS":"林子內１２號","OBJECTID":57378},"geometry":{"x":194688.3600000022,"y":2584686.200000003}},{"attributes":{"ID":57379,"DIS_CODE":0,"TOWNNAME":"白河區","LI":"汴頭里","LIN":"1鄰","STREET":" ","SECT":" ","MAREA":"林子內","LANE":" ","ALLEY":" ","HOUSE_NO":"１３之１號","E_COORD97":194733.38,"N_COORD97":2584754.4300000002,"ADDRESS":"林子內１３之１號","OBJECTID":57379},"geometry":{"x":194733.37999999989,"y":2584754.4300000016}},{"attributes":{"ID":57380,"DIS_CODE":0,"TOWNNAME":"白河區","LI":"汴頭里","LIN":"1鄰","STREET":" ","SECT":" ","MAREA":"林子內","LANE":" ","ALLEY":" ","HOUSE_NO":"１３之６號","E_COORD97":194787.28,"N_COORD97":2584698.1000000001,"ADDRESS":"林子內１３之６號","OBJECTID":57380},"geometry":{"x":194787.28000000212,"y":2584698.1000000015}},{"attributes":{"ID":57381,"DIS_CODE":0,"TOWNNAME":"白河區","LI":"汴頭里","LIN":"1鄰","STREET":" ","SECT":" ","MAREA":"林子內","LANE":" ","ALLEY":" ","HOUSE_NO":"１３號","E_COORD97":194727.47,"N_COORD97":2584730.5800000001,"ADDRESS":"林子內１３號","OBJECTID":57381},"geometry":{"x":194727.46999999974,"y":2584730.5800000001}},{"attributes":{"ID":57382,"DIS_CODE":0,"TOWNNAME":"白河區","LI":"庄內里","LIN":"1鄰","STREET":" ","SECT":" ","MAREA":"客庄內","LANE":" ","ALLEY":" ","HOUSE_NO":"１３９號","E_COORD97":191013.60000000001,"N_COORD97":2583576.2000000002,"ADDRESS":"客庄內１３９號","OBJECTID":57382},"geometry":{"x":191013.59999999963,"y":2583576.1999999993}},{"attributes":{"ID":57383,"DIS_CODE":0,"TOWNNAME":"白河區","LI":"庄內里","LIN":"1鄰","STREET":" ","SECT":" ","MAREA":"客庄內","LANE":" ","ALLEY":" ","HOUSE_NO":"１４１號","E_COORD97":191018.45999999999,"N_COORD97":2583598.7000000002,"ADDRESS":"客庄內１４１號","OBJECTID":57383},"geometry":{"x":191018.45999999996,"y":2583598.7000000011}},{"attributes":{"ID":57384,"DIS_CODE":0,"TOWNNAME":"安南區","LI":"佃西里","LIN":"1鄰","STREET":"海佃路","SECT":"四段","MAREA":" ","LANE":"３８８巷","ALLEY":"６７弄","HOUSE_NO":"２１號之１０","E_COORD97":165483.26000000001,"N_COORD97":2551729.96,"ADDRESS":"海佃路四段３８８巷６７弄２１號之１０","OBJECTID":57384},"geometry":{"x":165483.25999999978,"y":2551729.9600000028}},{"attributes":{"ID":57385,"DIS_CODE":0,"TOWNNAME":"安南區","LI":"佃西里","LIN":"1鄰","STREET":"海佃路","SECT":"四段","MAREA":" ","LANE":"３８８巷","ALLEY":"６７弄","HOUSE_NO":"２１號之２","E_COORD97":165522.20999999999,"N_COORD97":2551726.23,"ADDRESS":"海佃路四段３８８巷６７弄２１號之２","OBJECTID":57385},"geometry":{"x":165522.21000000089,"y":2551726.2300000042}},{"attributes":{"ID":57386,"DIS_CODE":0,"TOWNNAME":"安南區","LI":"佃西里","LIN":"1鄰","STREET":"海佃路","SECT":"四段","MAREA":" ","LANE":"３８８巷","ALLEY":"６７弄","HOUSE_NO":"２１號之３","E_COORD97":165517.29000000001,"N_COORD97":2551727.8399999999,"ADDRESS":"海佃路四段３８８巷６７弄２１號之３","OBJECTID":57386},"geometry":{"x":165517.29000000004,"y":2551727.8399999999}},{"attributes":{"ID":57387,"DIS_CODE":0,"TOWNNAME":"安南區","LI":"佃西里","LIN":"1鄰","STREET":"海佃路","SECT":"四段","MAREA":" ","LANE":"３８８巷","ALLEY":"６７弄","HOUSE_NO":"２１號之４","E_COORD97":165512.47,"N_COORD97":2551726.4399999999,"ADDRESS":"海佃路四段３８８巷６７弄２１號之４","OBJECTID":57387},"geometry":{"x":165512.46999999974,"y":2551726.4399999995}},{"attributes":{"ID":57388,"DIS_CODE":0,"TOWNNAME":"安南區","LI":"佃西里","LIN":"1鄰","STREET":"海佃路","SECT":"四段","MAREA":" ","LANE":"３８８巷","ALLEY":"６７弄","HOUSE_NO":"２１號之５","E_COORD97":165508.64000000001,"N_COORD97":2551728.1000000001,"ADDRESS":"海佃路四段３８８巷６７弄２１號之５","OBJECTID":57388},"geometry":{"x":165508.6400000006,"y":2551728.0999999996}},{"attributes":{"ID":57389,"DIS_CODE":0,"TOWNNAME":"安南區","LI":"佃西里","LIN":"1鄰","STREET":"海佃路","SECT":"四段","MAREA":" ","LANE":"３８８巷","ALLEY":"６７弄","HOUSE_NO":"２１號之６","E_COORD97":165503.14999999999,"N_COORD97":2551728.5099999998,"ADDRESS":"海佃路四段３８８巷６７弄２１號之６","OBJECTID":57389},"geometry":{"x":165503.15000000037,"y":2551728.5100000016}},{"attributes":{"ID":57390,"DIS_CODE":0,"TOWNNAME":"安南區","LI":"佃西里","LIN":"1鄰","STREET":"海佃路","SECT":"四段","MAREA":" ","LANE":"３８８巷","ALLEY":"６７弄","HOUSE_NO":"２１號之７","E_COORD97":165498.98999999999,"N_COORD97":2551728.4399999999,"ADDRESS":"海佃路四段３８８巷６７弄２１號之７","OBJECTID":57390},"geometry":{"x":165498.99000000022,"y":2551728.4400000013}},{"attributes":{"ID":57391,"DIS_CODE":0,"TOWNNAME":"安南區","LI":"佃西里","LIN":"1鄰","STREET":"海佃路","SECT":"四段","MAREA":" ","LANE":"３８８巷","ALLEY":"６７弄","HOUSE_NO":"２１號之８","E_COORD97":165493.62,"N_COORD97":2551730.3700000001,"ADDRESS":"海佃路四段３８８巷６７弄２１號之８","OBJECTID":57391},"geometry":{"x":165493.62000000197,"y":2551730.3700000029}},{"attributes":{"ID":57392,"DIS_CODE":0,"TOWNNAME":"安南區","LI":"佃西里","LIN":"1鄰","STREET":"海佃路","SECT":"四段","MAREA":" ","LANE":"３８８巷","ALLEY":"６７弄","HOUSE_NO":"２１號之９","E_COORD97":165488.44,"N_COORD97":2551728.9199999999,"ADDRESS":"海佃路四段３８８巷６７弄２１號之９","OBJECTID":57392},"geometry":{"x":165488.44000000134,"y":2551728.9200000018}},{"attributes":{"ID":57393,"DIS_CODE":0,"TOWNNAME":"安南區","LI":"佃西里","LIN":"1鄰","STREET":"海佃路","SECT":"四段","MAREA":" ","LANE":"３８８巷","ALLEY":"６７弄","HOUSE_NO":"２３號之１","E_COORD97":165529.25,"N_COORD97":2551745.0699999998,"ADDRESS":"海佃路四段３８８巷６７弄２３號之１","OBJECTID":57393},"geometry":{"x":165529.25,"y":2551745.0700000022}},{"attributes":{"ID":57394,"DIS_CODE":0,"TOWNNAME":"安南區","LI":"佃西里","LIN":"1鄰","STREET":"海佃路","SECT":"四段","MAREA":" ","LANE":"３８８巷","ALLEY":"６７弄","HOUSE_NO":"２３號之２","E_COORD97":165523.45000000001,"N_COORD97":2551742.79,"ADDRESS":"海佃路四段３８８巷６７弄２３號之２","OBJECTID":57394},"geometry":{"x":165523.44999999925,"y":2551742.790000001}},{"attributes":{"ID":57395,"DIS_CODE":0,"TOWNNAME":"安南區","LI":"佃西里","LIN":"1鄰","STREET":"海佃路","SECT":"四段","MAREA":" ","LANE":"３８８巷","ALLEY":"６７弄","HOUSE_NO":"２３號之３","E_COORD97":165518.26999999999,"N_COORD97":2551746.3100000001,"ADDRESS":"海佃路四段３８８巷６７弄２３號之３","OBJECTID":57395},"geometry":{"x":165518.26999999955,"y":2551746.3100000024}},{"attributes":{"ID":57396,"DIS_CODE":0,"TOWNNAME":"安南區","LI":"佃西里","LIN":"1鄰","STREET":"海佃路","SECT":"四段","MAREA":" ","LANE":"３８８巷","ALLEY":"６７弄","HOUSE_NO":"２３號之４","E_COORD97":165513.70999999999,"N_COORD97":2551742.5800000001,"ADDRESS":"海佃路四段３８８巷６７弄２３號之４","OBJECTID":57396},"geometry":{"x":165513.71000000089,"y":2551742.5800000001}},{"attributes":{"ID":57397,"DIS_CODE":0,"TOWNNAME":"安南區","LI":"佃西里","LIN":"1鄰","STREET":"海佃路","SECT":"四段","MAREA":" ","LANE":"３８８巷","ALLEY":"６７弄","HOUSE_NO":"２３號之５","E_COORD97":165509.57000000001,"N_COORD97":2551748.1699999999,"ADDRESS":"海佃路四段３８８巷６７弄２３號之５","OBJECTID":57397},"geometry":{"x":165509.57000000123,"y":2551748.1699999999}},{"attributes":{"ID":57398,"DIS_CODE":0,"TOWNNAME":"安南區","LI":"佃西里","LIN":"1鄰","STREET":"海佃路","SECT":"四段","MAREA":" ","LANE":"３８８巷","ALLEY":"６７弄","HOUSE_NO":"２３號之６","E_COORD97":165504.39000000001,"N_COORD97":2551744.8599999999,"ADDRESS":"海佃路四段３８８巷６７弄２３號之６","OBJECTID":57398},"geometry":{"x":165504.38999999966,"y":2551744.8600000013}},{"attributes":{"ID":57399,"DIS_CODE":0,"TOWNNAME":"安南區","LI":"佃西里","LIN":"1鄰","STREET":"海佃路","SECT":"四段","MAREA":" ","LANE":"３８８巷","ALLEY":"６７弄","HOUSE_NO":"２３號之７","E_COORD97":165499.42000000001,"N_COORD97":2551747.1400000001,"ADDRESS":"海佃路四段３８８巷６７弄２３號之７","OBJECTID":57399},"geometry":{"x":165499.41999999993,"y":2551747.1400000043}},{"attributes":{"ID":57400,"DIS_CODE":0,"TOWNNAME":"安南區","LI":"佃西里","LIN":"1鄰","STREET":"海佃路","SECT":"四段","MAREA":" ","LANE":"３８８巷","ALLEY":"６７弄","HOUSE_NO":"２３號之８","E_COORD97":165494.85999999999,"N_COORD97":2551744.2400000002,"ADDRESS":"海佃路四段３８８巷６７弄２３號之８","OBJECTID":57400},"geometry":{"x":165494.86000000034,"y":2551744.2400000021}}]}