{"displayFieldName":"TOWNNAME","fieldAliases":{"ID":"ID","DIS_CODE":"DIS_CODE","TOWNNAME":"TOWNNAME","LI":"LI","LIN":"LIN","STREET":"STREET","SECT":"SECT","MAREA":"MAREA","LANE":"LANE","ALLEY":"ALLEY","HOUSE_NO":"HOUSE_NO","E_COORD97":"E_COORD97","N_COORD97":"N_COORD97","ADDRESS":"ADDRESS","OBJECTID":"OBJECTID"},"geometryType":"esriGeometryPoint","spatialReference":{"wkid":102443,"latestWkid":3826},"fields":[{"name":"ID","type":"esriFieldTypeDouble","alias":"ID"},{"name":"DIS_CODE","type":"esriFieldTypeInteger","alias":"DIS_CODE"},{"name":"TOWNNAME","type":"esriFieldTypeString","alias":"TOWNNAME","length":8},{"name":"LI","type":"esriFieldTypeString","alias":"LI","length":8},{"name":"LIN","type":"esriFieldTypeString","alias":"LIN","length":12},{"name":"STREET","type":"esriFieldTypeString","alias":"STREET","length":20},{"name":"SECT","type":"esriFieldTypeString","alias":"SECT","length":8},{"name":"MAREA","type":"esriFieldTypeString","alias":"MAREA","length":12},{"name":"LANE","type":"esriFieldTypeString","alias":"LANE","length":10},{"name":"ALLEY","type":"esriFieldTypeString","alias":"ALLEY","length":10},{"name":"HOUSE_NO","type":"esriFieldTypeString","alias":"HOUSE_NO","length":20},{"name":"E_COORD97","type":"esriFieldTypeDouble","alias":"E_COORD97"},{"name":"N_COORD97","type":"esriFieldTypeDouble","alias":"N_COORD97"},{"name":"ADDRESS","type":"esriFieldTypeString","alias":"ADDRESS","length":50},{"name":"OBJECTID","type":"esriFieldTypeOID","alias":"OBJECTID"}],"features":[{"attributes":{"ID":239805,"DIS_CODE":0,"TOWNNAME":"官田區","LI":"湖山里","LIN":"16鄰","STREET":" ","SECT":" ","MAREA":"烏山頭","LANE":" ","ALLEY":" ","HOUSE_NO":"９８號之４","E_COORD97":183570.32000000001,"N_COORD97":2567938.8599999999,"ADDRESS":"烏山頭９８號之４","OBJECTID":239801},"geometry":{"x":183570.32000000123,"y":2567938.8599999994}},{"attributes":{"ID":239806,"DIS_CODE":0,"TOWNNAME":"官田區","LI":"湖山里","LIN":"16鄰","STREET":" ","SECT":" ","MAREA":"烏山頭","LANE":" ","ALLEY":" ","HOUSE_NO":"９８號之５","E_COORD97":183571.59,"N_COORD97":2567933.5899999999,"ADDRESS":"烏山頭９８號之５","OBJECTID":239802},"geometry":{"x":183571.59000000078,"y":2567933.5900000017}},{"attributes":{"ID":239807,"DIS_CODE":0,"TOWNNAME":"官田區","LI":"湖山里","LIN":"16鄰","STREET":" ","SECT":" ","MAREA":"烏山頭","LANE":" ","ALLEY":" ","HOUSE_NO":"９８號","E_COORD97":183611.85999999999,"N_COORD97":2567946.7400000002,"ADDRESS":"烏山頭９８號","OBJECTID":239803},"geometry":{"x":183611.86000000034,"y":2567946.7400000021}},{"attributes":{"ID":239808,"DIS_CODE":0,"TOWNNAME":"永康區","LI":"大灣里","LIN":"27鄰","STREET":"大灣六街","SECT":" ","MAREA":" ","LANE":"８０巷","ALLEY":" ","HOUSE_NO":"６２號","E_COORD97":175306.85999999999,"N_COORD97":2545304.1299999999,"ADDRESS":"大灣六街８０巷６２號","OBJECTID":239804},"geometry":{"x":175306.86000000034,"y":2545304.1300000008}},{"attributes":{"ID":239809,"DIS_CODE":0,"TOWNNAME":"官田區","LI":"湖山里","LIN":"16鄰","STREET":" ","SECT":" ","MAREA":"烏山頭","LANE":" ","ALLEY":" ","HOUSE_NO":"９９號之１０","E_COORD97":183561.26999999999,"N_COORD97":2567876.2599999998,"ADDRESS":"烏山頭９９號之１０","OBJECTID":239805},"geometry":{"x":183561.27000000048,"y":2567876.2599999998}},{"attributes":{"ID":239810,"DIS_CODE":0,"TOWNNAME":"官田區","LI":"湖山里","LIN":"16鄰","STREET":" ","SECT":" ","MAREA":"烏山頭","LANE":" ","ALLEY":" ","HOUSE_NO":"９９號之１１","E_COORD97":183600.84,"N_COORD97":2567880.21,"ADDRESS":"烏山頭９９號之１１","OBJECTID":239806},"geometry":{"x":183600.83999999985,"y":2567880.2100000009}},{"attributes":{"ID":239811,"DIS_CODE":0,"TOWNNAME":"永康區","LI":"大橋里","LIN":"1鄰","STREET":"大橋一街","SECT":" ","MAREA":" ","LANE":"７３巷","ALLEY":" ","HOUSE_NO":"１５５號","E_COORD97":170615.34,"N_COORD97":2546684.9900000002,"ADDRESS":"大橋一街７３巷１５５號","OBJECTID":239807},"geometry":{"x":170615.34000000078,"y":2546684.9900000002}},{"attributes":{"ID":239812,"DIS_CODE":0,"TOWNNAME":"永康區","LI":"大橋里","LIN":"9鄰","STREET":"大橋一街","SECT":" ","MAREA":" ","LANE":"２４７巷","ALLEY":" ","HOUSE_NO":"１３４號","E_COORD97":171067.95000000001,"N_COORD97":2547017.2400000002,"ADDRESS":"大橋一街２４７巷１３４號","OBJECTID":239808},"geometry":{"x":171067.95000000019,"y":2547017.2400000021}},{"attributes":{"ID":239813,"DIS_CODE":0,"TOWNNAME":"仁德區","LI":"土庫里","LIN":"13鄰","STREET":"土庫路","SECT":" ","MAREA":" ","LANE":"２４５巷","ALLEY":" ","HOUSE_NO":"５號","E_COORD97":174267.95000000001,"N_COORD97":2542836.9900000002,"ADDRESS":"土庫路２４５巷５號","OBJECTID":239809},"geometry":{"x":174267.95000000112,"y":2542836.9900000002}},{"attributes":{"ID":239814,"DIS_CODE":0,"TOWNNAME":"官田區","LI":"湖山里","LIN":"16鄰","STREET":" ","SECT":" ","MAREA":"烏山頭","LANE":" ","ALLEY":" ","HOUSE_NO":"９９號之１","E_COORD97":183647.45000000001,"N_COORD97":2567917.5699999998,"ADDRESS":"烏山頭９９號之１","OBJECTID":239810},"geometry":{"x":183647.45000000112,"y":2567917.5700000022}},{"attributes":{"ID":239815,"DIS_CODE":0,"TOWNNAME":"官田區","LI":"湖山里","LIN":"16鄰","STREET":" ","SECT":" ","MAREA":"烏山頭","LANE":" ","ALLEY":" ","HOUSE_NO":"９９號之２","E_COORD97":183561.44,"N_COORD97":2567887.1899999999,"ADDRESS":"烏山頭９９號之２","OBJECTID":239811},"geometry":{"x":183561.44000000134,"y":2567887.1900000032}},{"attributes":{"ID":239816,"DIS_CODE":0,"TOWNNAME":"官田區","LI":"湖山里","LIN":"16鄰","STREET":" ","SECT":" ","MAREA":"烏山頭","LANE":" ","ALLEY":" ","HOUSE_NO":"９９號之４","E_COORD97":183565.06,"N_COORD97":2567896.2599999998,"ADDRESS":"烏山頭９９號之４","OBJECTID":239812},"geometry":{"x":183565.05999999959,"y":2567896.2599999998}},{"attributes":{"ID":239817,"DIS_CODE":0,"TOWNNAME":"官田區","LI":"湖山里","LIN":"16鄰","STREET":" ","SECT":" ","MAREA":"烏山頭","LANE":" ","ALLEY":" ","HOUSE_NO":"９９號之５","E_COORD97":183568.70999999999,"N_COORD97":2567908.8100000001,"ADDRESS":"烏山頭９９號之５","OBJECTID":239813},"geometry":{"x":183568.71000000089,"y":2567908.8100000024}},{"attributes":{"ID":239818,"DIS_CODE":0,"TOWNNAME":"官田區","LI":"湖山里","LIN":"16鄰","STREET":" ","SECT":" ","MAREA":"烏山頭","LANE":" ","ALLEY":" ","HOUSE_NO":"９９號之６","E_COORD97":183586.07999999999,"N_COORD97":2567909.3399999999,"ADDRESS":"烏山頭９９號之６","OBJECTID":239814},"geometry":{"x":183586.08000000007,"y":2567909.3399999999}},{"attributes":{"ID":239819,"DIS_CODE":0,"TOWNNAME":"安平區","LI":"金城里","LIN":"14鄰","STREET":"世平二街","SECT":" ","MAREA":" ","LANE":" ","ALLEY":" ","HOUSE_NO":"１１號","E_COORD97":162955.23999999999,"N_COORD97":2544055.4100000001,"ADDRESS":"世平二街１１號","OBJECTID":239815},"geometry":{"x":162955.24000000209,"y":2544055.4100000039}},{"attributes":{"ID":239820,"DIS_CODE":0,"TOWNNAME":"官田區","LI":"湖山里","LIN":"16鄰","STREET":" ","SECT":" ","MAREA":"烏山頭","LANE":" ","ALLEY":" ","HOUSE_NO":"９９號之８","E_COORD97":183601.17000000001,"N_COORD97":2567907.73,"ADDRESS":"烏山頭９９號之８","OBJECTID":239816},"geometry":{"x":183601.17000000086,"y":2567907.7300000004}},{"attributes":{"ID":239821,"DIS_CODE":0,"TOWNNAME":"安平區","LI":"金城里","LIN":"14鄰","STREET":"世平二街","SECT":" ","MAREA":" ","LANE":" ","ALLEY":" ","HOUSE_NO":"１３號","E_COORD97":162950.95999999999,"N_COORD97":2544053.98,"ADDRESS":"世平二街１３號","OBJECTID":239817},"geometry":{"x":162950.95999999996,"y":2544053.9800000004}},{"attributes":{"ID":239822,"DIS_CODE":0,"TOWNNAME":"安平區","LI":"金城里","LIN":"14鄰","STREET":"世平二街","SECT":" ","MAREA":" ","LANE":" ","ALLEY":" ","HOUSE_NO":"１５號","E_COORD97":162946.67999999999,"N_COORD97":2544053.1899999999,"ADDRESS":"世平二街１５號","OBJECTID":239818},"geometry":{"x":162946.68000000063,"y":2544053.1900000032}},{"attributes":{"ID":239823,"DIS_CODE":0,"TOWNNAME":"安南區","LI":"鳳凰里","LIN":"16鄰","STREET":"安中路","SECT":"一段","MAREA":" ","LANE":"７０２巷","ALLEY":" ","HOUSE_NO":"６４號","E_COORD97":167713.32000000001,"N_COORD97":2549310.6200000001,"ADDRESS":"安中路一段７０２巷６４號","OBJECTID":239819},"geometry":{"x":167713.32000000123,"y":2549310.6200000029}},{"attributes":{"ID":239824,"DIS_CODE":0,"TOWNNAME":"安南區","LI":"理想里","LIN":"16鄰","STREET":"大安街","SECT":" ","MAREA":" ","LANE":"１７３巷","ALLEY":" ","HOUSE_NO":"８號","E_COORD97":167318.06,"N_COORD97":2548281.29,"ADDRESS":"大安街１７３巷８號","OBJECTID":239820},"geometry":{"x":167318.06000000052,"y":2548281.290000001}},{"attributes":{"ID":239825,"DIS_CODE":0,"TOWNNAME":"永康區","LI":"三民里","LIN":"4鄰","STREET":"三民街","SECT":" ","MAREA":" ","LANE":"１１２巷","ALLEY":" ","HOUSE_NO":"１２號","E_COORD97":172891.12,"N_COORD97":2550341.4399999999,"ADDRESS":"三民街１１２巷１２號","OBJECTID":239821},"geometry":{"x":172891.12000000011,"y":2550341.4400000013}},{"attributes":{"ID":239826,"DIS_CODE":0,"TOWNNAME":"永康區","LI":"大橋里","LIN":"7鄰","STREET":"大橋三街","SECT":" ","MAREA":" ","LANE":"１９９巷","ALLEY":" ","HOUSE_NO":"９９號","E_COORD97":170969.13,"N_COORD97":2546937.9700000002,"ADDRESS":"大橋三街１９９巷９９號","OBJECTID":239822},"geometry":{"x":170969.13000000082,"y":2546937.9700000025}},{"attributes":{"ID":239827,"DIS_CODE":0,"TOWNNAME":"永康區","LI":"大橋里","LIN":"1鄰","STREET":"大橋一街","SECT":" ","MAREA":" ","LANE":"７３巷","ALLEY":" ","HOUSE_NO":"１３９號","E_COORD97":170632.26999999999,"N_COORD97":2546649.25,"ADDRESS":"大橋一街７３巷１３９號","OBJECTID":239823},"geometry":{"x":170632.27000000048,"y":2546649.25}},{"attributes":{"ID":239828,"DIS_CODE":0,"TOWNNAME":"安南區","LI":"海東里","LIN":"16鄰","STREET":"海環街","SECT":" ","MAREA":" ","LANE":"３１巷","ALLEY":" ","HOUSE_NO":"４２號","E_COORD97":166660.37,"N_COORD97":2548827.8300000001,"ADDRESS":"海環街３１巷４２號","OBJECTID":239824},"geometry":{"x":166660.37000000104,"y":2548827.8300000019}},{"attributes":{"ID":239829,"DIS_CODE":0,"TOWNNAME":"後壁區","LI":"新嘉里","LIN":"16鄰","STREET":" ","SECT":" ","MAREA":"白沙屯","LANE":" ","ALLEY":" ","HOUSE_NO":"１７６號","E_COORD97":179556.17999999999,"N_COORD97":2585621.3999999999,"ADDRESS":"白沙屯１７６號","OBJECTID":239825},"geometry":{"x":179556.18000000063,"y":2585621.4000000004}},{"attributes":{"ID":239830,"DIS_CODE":0,"TOWNNAME":"中西區","LI":"開山里","LIN":"13鄰","STREET":"開山路","SECT":" ","MAREA":" ","LANE":"１２７巷","ALLEY":" ","HOUSE_NO":"７５號","E_COORD97":168999.17999999999,"N_COORD97":2543117.8399999999,"ADDRESS":"開山路１２７巷７５號","OBJECTID":239826},"geometry":{"x":168999.18000000063,"y":2543117.8400000017}},{"attributes":{"ID":239831,"DIS_CODE":0,"TOWNNAME":"中西區","LI":"開山里","LIN":"13鄰","STREET":"開山路","SECT":" ","MAREA":" ","LANE":"１２７巷","ALLEY":" ","HOUSE_NO":"７７號","E_COORD97":169004.48999999999,"N_COORD97":2543114.1200000001,"ADDRESS":"開山路１２７巷７７號","OBJECTID":239827},"geometry":{"x":169004.49000000022,"y":2543114.1200000029}},{"attributes":{"ID":239832,"DIS_CODE":0,"TOWNNAME":"安平區","LI":"金城里","LIN":"14鄰","STREET":"世平二街","SECT":" ","MAREA":" ","LANE":" ","ALLEY":" ","HOUSE_NO":"９號","E_COORD97":162958.73000000001,"N_COORD97":2544057.1499999999,"ADDRESS":"世平二街９號","OBJECTID":239828},"geometry":{"x":162958.72999999952,"y":2544057.1500000004}},{"attributes":{"ID":239833,"DIS_CODE":0,"TOWNNAME":"歸仁區","LI":"後市里","LIN":"4鄰","STREET":"大吉街","SECT":" ","MAREA":" ","LANE":" ","ALLEY":" ","HOUSE_NO":"３９號","E_COORD97":177219.35999999999,"N_COORD97":2540710.25,"ADDRESS":"大吉街３９號","OBJECTID":239829},"geometry":{"x":177219.3599999994,"y":2540710.2500000037}},{"attributes":{"ID":239834,"DIS_CODE":0,"TOWNNAME":"歸仁區","LI":"南保里","LIN":"18鄰","STREET":"文化十街","SECT":" ","MAREA":" ","LANE":" ","ALLEY":" ","HOUSE_NO":"３１號","E_COORD97":176539.04000000001,"N_COORD97":2541308.3300000001,"ADDRESS":"文化十街３１號","OBJECTID":239830},"geometry":{"x":176539.04000000004,"y":2541308.3300000001}},{"attributes":{"ID":239835,"DIS_CODE":0,"TOWNNAME":"歸仁區","LI":"南保里","LIN":"18鄰","STREET":"文化十街","SECT":" ","MAREA":" ","LANE":" ","ALLEY":" ","HOUSE_NO":"１３號","E_COORD97":176537.64000000001,"N_COORD97":2541242.3300000001,"ADDRESS":"文化十街１３號","OBJECTID":239831},"geometry":{"x":176537.6400000006,"y":2541242.3300000019}},{"attributes":{"ID":239836,"DIS_CODE":0,"TOWNNAME":"歸仁區","LI":"後市里","LIN":"20鄰","STREET":"大通路","SECT":" ","MAREA":" ","LANE":" ","ALLEY":" ","HOUSE_NO":"１３１號","E_COORD97":177488.20000000001,"N_COORD97":2540908.25,"ADDRESS":"大通路１３１號","OBJECTID":239832},"geometry":{"x":177488.20000000205,"y":2540908.2500000019}},{"attributes":{"ID":239837,"DIS_CODE":0,"TOWNNAME":"南區","LI":"省躬里","LIN":"14鄰","STREET":"萬年路","SECT":" ","MAREA":" ","LANE":" ","ALLEY":" ","HOUSE_NO":"６６０號","E_COORD97":167574.92999999999,"N_COORD97":2537770.3700000001,"ADDRESS":"萬年路６６０號","OBJECTID":239833},"geometry":{"x":167574.93000000063,"y":2537770.370000001}},{"attributes":{"ID":239838,"DIS_CODE":0,"TOWNNAME":"南區","LI":"永寧里","LIN":"14鄰","STREET":"灣裡路","SECT":" ","MAREA":" ","LANE":" ","ALLEY":" ","HOUSE_NO":"２０４號","E_COORD97":166043.12,"N_COORD97":2536559.1499999999,"ADDRESS":"灣裡路２０４號","OBJECTID":239834},"geometry":{"x":166043.12000000104,"y":2536559.1500000022}},{"attributes":{"ID":239839,"DIS_CODE":0,"TOWNNAME":"善化區","LI":"溪美里","LIN":"1鄰","STREET":" ","SECT":" ","MAREA":"溪尾","LANE":" ","ALLEY":" ","HOUSE_NO":"７３６號","E_COORD97":176860.10000000001,"N_COORD97":2560505.2200000002,"ADDRESS":"溪尾７３６號","OBJECTID":239835},"geometry":{"x":176860.10000000056,"y":2560505.2200000025}},{"attributes":{"ID":239840,"DIS_CODE":0,"TOWNNAME":"善化區","LI":"溪美里","LIN":"1鄰","STREET":" ","SECT":" ","MAREA":"溪尾","LANE":" ","ALLEY":" ","HOUSE_NO":"９９３號","E_COORD97":177129.39999999999,"N_COORD97":2560037.6200000001,"ADDRESS":"溪尾９９３號","OBJECTID":239836},"geometry":{"x":177129.40000000224,"y":2560037.6200000029}},{"attributes":{"ID":239841,"DIS_CODE":0,"TOWNNAME":"安南區","LI":"海東里","LIN":"16鄰","STREET":"海尾路","SECT":" ","MAREA":" ","LANE":" ","ALLEY":" ","HOUSE_NO":"１６０號","E_COORD97":166642.32479899999,"N_COORD97":2548767.2420800002,"ADDRESS":"海尾路１６０號","OBJECTID":239837},"geometry":{"x":166642.32479900122,"y":2548767.2420790028}},{"attributes":{"ID":239842,"DIS_CODE":0,"TOWNNAME":"永康區","LI":"三民里","LIN":"4鄰","STREET":"三民街","SECT":" ","MAREA":" ","LANE":"９０巷","ALLEY":" ","HOUSE_NO":"１９號","E_COORD97":172961.14999999999,"N_COORD97":2550387.5099999998,"ADDRESS":"三民街９０巷１９號","OBJECTID":239838},"geometry":{"x":172961.1500000013,"y":2550387.5099999979}},{"attributes":{"ID":239843,"DIS_CODE":0,"TOWNNAME":"永康區","LI":"二王里","LIN":"36鄰","STREET":"中山南路","SECT":" ","MAREA":" ","LANE":"４９０巷","ALLEY":" ","HOUSE_NO":"４９號","E_COORD97":172249.23000000001,"N_COORD97":2546354.4700000002,"ADDRESS":"中山南路４９０巷４９號","OBJECTID":239839},"geometry":{"x":172249.23000000138,"y":2546354.4700000044}},{"attributes":{"ID":239844,"DIS_CODE":0,"TOWNNAME":"永康區","LI":"二王里","LIN":"32鄰","STREET":"中山南路","SECT":" ","MAREA":" ","LANE":"４９０巷","ALLEY":" ","HOUSE_NO":"２９號","E_COORD97":172203.26999999999,"N_COORD97":2546354.0800000001,"ADDRESS":"中山南路４９０巷２９號","OBJECTID":239840},"geometry":{"x":172203.27000000142,"y":2546354.0800000019}},{"attributes":{"ID":239845,"DIS_CODE":0,"TOWNNAME":"永康區","LI":"大橋里","LIN":"15鄰","STREET":"大橋一街","SECT":" ","MAREA":" ","LANE":"７３巷","ALLEY":" ","HOUSE_NO":"２０號","E_COORD97":170916.89000000001,"N_COORD97":2546491.3599999999,"ADDRESS":"大橋一街７３巷２０號","OBJECTID":239841},"geometry":{"x":170916.88999999966,"y":2546491.3599999994}},{"attributes":{"ID":239846,"DIS_CODE":0,"TOWNNAME":"中西區","LI":"開山里","LIN":"13鄰","STREET":"開山路","SECT":" ","MAREA":" ","LANE":"１２７巷","ALLEY":" ","HOUSE_NO":"７９號","E_COORD97":169011.19,"N_COORD97":2543109.4500000002,"ADDRESS":"開山路１２７巷７９號","OBJECTID":239842},"geometry":{"x":169011.19000000134,"y":2543109.4500000011}},{"attributes":{"ID":239847,"DIS_CODE":0,"TOWNNAME":"中西區","LI":"開山里","LIN":"13鄰","STREET":"開山路","SECT":" ","MAREA":" ","LANE":"１２７巷","ALLEY":" ","HOUSE_NO":"８１號","E_COORD97":169015.23000000001,"N_COORD97":2543104.6699999999,"ADDRESS":"開山路１２７巷８１號","OBJECTID":239843},"geometry":{"x":169015.23000000045,"y":2543104.6700000018}},{"attributes":{"ID":239848,"DIS_CODE":0,"TOWNNAME":"中西區","LI":"開山里","LIN":"13鄰","STREET":"開山路","SECT":" ","MAREA":" ","LANE":"１２７巷","ALLEY":" ","HOUSE_NO":"８１號之１","E_COORD97":169018.95000000001,"N_COORD97":2543101.7999999998,"ADDRESS":"開山路１２７巷８１號之１","OBJECTID":239844},"geometry":{"x":169018.94999999925,"y":2543101.8000000026}},{"attributes":{"ID":239849,"DIS_CODE":0,"TOWNNAME":"中西區","LI":"開山里","LIN":"13鄰","STREET":"大同路","SECT":"一段","MAREA":" ","LANE":"４６巷","ALLEY":" ","HOUSE_NO":"３５號","E_COORD97":169013.64000000001,"N_COORD97":2543166.1299999999,"ADDRESS":"大同路一段４６巷３５號","OBJECTID":239845},"geometry":{"x":169013.63999999966,"y":2543166.1300000008}},{"attributes":{"ID":239850,"DIS_CODE":0,"TOWNNAME":"中西區","LI":"開山里","LIN":"13鄰","STREET":"大同路","SECT":"一段","MAREA":" ","LANE":"４６巷","ALLEY":" ","HOUSE_NO":"８６號","E_COORD97":168991.34,"N_COORD97":2543185.0499999998,"ADDRESS":"大同路一段４６巷８６號","OBJECTID":239846},"geometry":{"x":168991.34000000078,"y":2543185.0500000026}},{"attributes":{"ID":239851,"DIS_CODE":0,"TOWNNAME":"中西區","LI":"開山里","LIN":"13鄰","STREET":"大同路","SECT":"一段","MAREA":" ","LANE":"４６巷","ALLEY":" ","HOUSE_NO":"８８號","E_COORD97":168988.10999999999,"N_COORD97":2543187.2000000002,"ADDRESS":"大同路一段４６巷８８號","OBJECTID":239847},"geometry":{"x":168988.11000000127,"y":2543187.1999999993}},{"attributes":{"ID":239852,"DIS_CODE":0,"TOWNNAME":"中西區","LI":"開山里","LIN":"13鄰","STREET":"府前路","SECT":"一段","MAREA":" ","LANE":"４９巷","ALLEY":" ","HOUSE_NO":"２０號","E_COORD97":168998.06,"N_COORD97":2543204.1000000001,"ADDRESS":"府前路一段４９巷２０號","OBJECTID":239848},"geometry":{"x":168998.06000000052,"y":2543204.1000000015}},{"attributes":{"ID":239853,"DIS_CODE":0,"TOWNNAME":"中西區","LI":"開山里","LIN":"13鄰","STREET":"府前路","SECT":"一段","MAREA":" ","LANE":"４９巷","ALLEY":" ","HOUSE_NO":"２２號","E_COORD97":169002.95000000001,"N_COORD97":2543204.98,"ADDRESS":"府前路一段４９巷２２號","OBJECTID":239849},"geometry":{"x":169002.95000000019,"y":2543204.9800000023}},{"attributes":{"ID":239854,"DIS_CODE":0,"TOWNNAME":"中西區","LI":"開山里","LIN":"13鄰","STREET":"府前路","SECT":"一段","MAREA":" ","LANE":"４９巷","ALLEY":" ","HOUSE_NO":"２４號","E_COORD97":169006.70999999999,"N_COORD97":2543201.3500000001,"ADDRESS":"府前路一段４９巷２４號","OBJECTID":239850},"geometry":{"x":169006.70999999996,"y":2543201.3500000015}},{"attributes":{"ID":239855,"DIS_CODE":0,"TOWNNAME":"中西區","LI":"開山里","LIN":"13鄰","STREET":"府前路","SECT":"一段","MAREA":" ","LANE":"４９巷","ALLEY":" ","HOUSE_NO":"２８號","E_COORD97":169011.67000000001,"N_COORD97":2543194.2400000002,"ADDRESS":"府前路一段４９巷２８號","OBJECTID":239851},"geometry":{"x":169011.66999999993,"y":2543194.2400000002}},{"attributes":{"ID":239856,"DIS_CODE":0,"TOWNNAME":"南區","LI":"永寧里","LIN":"14鄰","STREET":"灣裡路","SECT":" ","MAREA":" ","LANE":" ","ALLEY":" ","HOUSE_NO":"２０８號","E_COORD97":166043.88,"N_COORD97":2536553.3100000001,"ADDRESS":"灣裡路２０８號","OBJECTID":239852},"geometry":{"x":166043.87999999989,"y":2536553.3100000005}},{"attributes":{"ID":239857,"DIS_CODE":0,"TOWNNAME":"南區","LI":"永寧里","LIN":"14鄰","STREET":"灣裡路","SECT":" ","MAREA":" ","LANE":" ","ALLEY":" ","HOUSE_NO":"２１０號","E_COORD97":166043.88,"N_COORD97":2536550.2599999998,"ADDRESS":"灣裡路２１０號","OBJECTID":239853},"geometry":{"x":166043.87999999989,"y":2536550.2600000016}},{"attributes":{"ID":239858,"DIS_CODE":0,"TOWNNAME":"南區","LI":"永寧里","LIN":"14鄰","STREET":"灣裡路","SECT":" ","MAREA":" ","LANE":" ","ALLEY":" ","HOUSE_NO":"２１２號","E_COORD97":166044.39000000001,"N_COORD97":2536545.5600000001,"ADDRESS":"灣裡路２１２號","OBJECTID":239854},"geometry":{"x":166044.3900000006,"y":2536545.5600000024}},{"attributes":{"ID":239859,"DIS_CODE":0,"TOWNNAME":"南區","LI":"永寧里","LIN":"14鄰","STREET":"灣裡路","SECT":" ","MAREA":" ","LANE":" ","ALLEY":" ","HOUSE_NO":"２１４號","E_COORD97":166044.39000000001,"N_COORD97":2536542,"ADDRESS":"灣裡路２１４號","OBJECTID":239855},"geometry":{"x":166044.3900000006,"y":2536542.0000000019}},{"attributes":{"ID":239860,"DIS_CODE":0,"TOWNNAME":"南區","LI":"永寧里","LIN":"14鄰","STREET":"灣裡路","SECT":" ","MAREA":" ","LANE":" ","ALLEY":" ","HOUSE_NO":"２１６號","E_COORD97":166044.64999999999,"N_COORD97":2536538.9500000002,"ADDRESS":"灣裡路２１６號","OBJECTID":239856},"geometry":{"x":166044.65000000224,"y":2536538.9500000011}},{"attributes":{"ID":239861,"DIS_CODE":0,"TOWNNAME":"學甲區","LI":"慈福里","LIN":"14鄰","STREET":"綿和路","SECT":" ","MAREA":" ","LANE":" ","ALLEY":" ","HOUSE_NO":"１４號之２","E_COORD97":166481.39999999999,"N_COORD97":2570336.4399999999,"ADDRESS":"綿和路１４號之２","OBJECTID":239857},"geometry":{"x":166481.40000000037,"y":2570336.4399999995}},{"attributes":{"ID":239862,"DIS_CODE":0,"TOWNNAME":"安南區","LI":"鳳凰里","LIN":"16鄰","STREET":"安中路","SECT":"一段","MAREA":" ","LANE":"７０２巷","ALLEY":" ","HOUSE_NO":"７１號","E_COORD97":167766.88,"N_COORD97":2549306.7400000002,"ADDRESS":"安中路一段７０２巷７１號","OBJECTID":239858},"geometry":{"x":167766.88000000082,"y":2549306.7400000021}},{"attributes":{"ID":239863,"DIS_CODE":0,"TOWNNAME":"安南區","LI":"鳳凰里","LIN":"16鄰","STREET":"安中路","SECT":"一段","MAREA":" ","LANE":"７０２巷","ALLEY":" ","HOUSE_NO":"７２號","E_COORD97":167775.48000000001,"N_COORD97":2549305.5699999998,"ADDRESS":"安中路一段７０２巷７２號","OBJECTID":239859},"geometry":{"x":167775.48000000138,"y":2549305.5700000003}},{"attributes":{"ID":239864,"DIS_CODE":0,"TOWNNAME":"安南區","LI":"鳳凰里","LIN":"16鄰","STREET":"安中路","SECT":"一段","MAREA":" ","LANE":"７０２巷","ALLEY":" ","HOUSE_NO":"７３號","E_COORD97":167783.01999999999,"N_COORD97":2549305.3300000001,"ADDRESS":"安中路一段７０２巷７３號","OBJECTID":239860},"geometry":{"x":167783.01999999955,"y":2549305.3300000019}},{"attributes":{"ID":239865,"DIS_CODE":0,"TOWNNAME":"東區","LI":"東聖里","LIN":"16鄰","STREET":"中華東路","SECT":"二段","MAREA":" ","LANE":"７３巷","ALLEY":" ","HOUSE_NO":"８號","E_COORD97":171470.88,"N_COORD97":2542977.1899999999,"ADDRESS":"中華東路二段７３巷８號","OBJECTID":239861},"geometry":{"x":171470.88000000082,"y":2542977.1899999995}},{"attributes":{"ID":239866,"DIS_CODE":0,"TOWNNAME":"東區","LI":"大智里","LIN":"16鄰","STREET":"德東街","SECT":" ","MAREA":" ","LANE":"１５１巷","ALLEY":" ","HOUSE_NO":"８０號","E_COORD97":171201.13,"N_COORD97":2540465.7599999998,"ADDRESS":"德東街１５１巷８０號","OBJECTID":239862},"geometry":{"x":171201.13000000082,"y":2540465.7600000035}},{"attributes":{"ID":239867,"DIS_CODE":0,"TOWNNAME":"東區","LI":"大智里","LIN":"16鄰","STREET":"德東街","SECT":" ","MAREA":" ","LANE":"１５１巷","ALLEY":" ","HOUSE_NO":"８１號","E_COORD97":171180.01000000001,"N_COORD97":2540474.7599999998,"ADDRESS":"德東街１５１巷８１號","OBJECTID":239863},"geometry":{"x":171180.01000000071,"y":2540474.7599999998}},{"attributes":{"ID":239868,"DIS_CODE":0,"TOWNNAME":"後壁區","LI":"新嘉里","LIN":"16鄰","STREET":" ","SECT":" ","MAREA":"白沙屯","LANE":" ","ALLEY":" ","HOUSE_NO":"１７０號","E_COORD97":179544.26000000001,"N_COORD97":2585553.4399999999,"ADDRESS":"白沙屯１７０號","OBJECTID":239864},"geometry":{"x":179544.26000000071,"y":2585553.4400000013}},{"attributes":{"ID":239869,"DIS_CODE":0,"TOWNNAME":"後壁區","LI":"新嘉里","LIN":"16鄰","STREET":" ","SECT":" ","MAREA":"白沙屯","LANE":" ","ALLEY":" ","HOUSE_NO":"１７３號","E_COORD97":179556.82999999999,"N_COORD97":2585597.8399999999,"ADDRESS":"白沙屯１７３號","OBJECTID":239865},"geometry":{"x":179556.83000000007,"y":2585597.839999998}},{"attributes":{"ID":239870,"DIS_CODE":0,"TOWNNAME":"東區","LI":"大智里","LIN":"16鄰","STREET":"德東街","SECT":" ","MAREA":" ","LANE":"１５１巷","ALLEY":" ","HOUSE_NO":"８２號","E_COORD97":171200.63,"N_COORD97":2540469.1699999999,"ADDRESS":"德東街１５１巷８２號","OBJECTID":239866},"geometry":{"x":171200.62999999989,"y":2540469.1699999999}},{"attributes":{"ID":239871,"DIS_CODE":0,"TOWNNAME":"東區","LI":"大智里","LIN":"16鄰","STREET":"德東街","SECT":" ","MAREA":" ","LANE":"１５１巷","ALLEY":" ","HOUSE_NO":"８３號","E_COORD97":171180.01000000001,"N_COORD97":2540478.5499999998,"ADDRESS":"德東街１５１巷８３號","OBJECTID":239867},"geometry":{"x":171180.01000000071,"y":2540478.5500000045}},{"attributes":{"ID":239872,"DIS_CODE":0,"TOWNNAME":"東區","LI":"大智里","LIN":"16鄰","STREET":"德東街","SECT":" ","MAREA":" ","LANE":"１５１巷","ALLEY":" ","HOUSE_NO":"８４號","E_COORD97":171200.5,"N_COORD97":2540473.5899999999,"ADDRESS":"德東街１５１巷８４號","OBJECTID":239868},"geometry":{"x":171200.50000000093,"y":2540473.589999998}},{"attributes":{"ID":239873,"DIS_CODE":0,"TOWNNAME":"東區","LI":"德高里","LIN":"16鄰","STREET":"城東街","SECT":" ","MAREA":" ","LANE":"１２巷","ALLEY":" ","HOUSE_NO":"６號","E_COORD97":171533.94,"N_COORD97":2540624.1899999999,"ADDRESS":"城東街１２巷６號","OBJECTID":239869},"geometry":{"x":171533.94000000134,"y":2540624.1899999995}},{"attributes":{"ID":239874,"DIS_CODE":0,"TOWNNAME":"後壁區","LI":"新嘉里","LIN":"16鄰","STREET":" ","SECT":" ","MAREA":"白沙屯","LANE":" ","ALLEY":" ","HOUSE_NO":"１７４號之１","E_COORD97":179514.84,"N_COORD97":2585600.7000000002,"ADDRESS":"白沙屯１７４號之１","OBJECTID":239870},"geometry":{"x":179514.84000000078,"y":2585600.6999999993}},{"attributes":{"ID":239875,"DIS_CODE":0,"TOWNNAME":"中西區","LI":"開山里","LIN":"13鄰","STREET":"府前路","SECT":"一段","MAREA":" ","LANE":"４９巷","ALLEY":" ","HOUSE_NO":"３０號","E_COORD97":169013.54000000001,"N_COORD97":2543197.8599999999,"ADDRESS":"府前路一段４９巷３０號","OBJECTID":239871},"geometry":{"x":169013.54000000097,"y":2543197.8600000013}},{"attributes":{"ID":239876,"DIS_CODE":0,"TOWNNAME":"中西區","LI":"開山里","LIN":"13鄰","STREET":"府前路","SECT":"一段","MAREA":" ","LANE":"４９巷","ALLEY":" ","HOUSE_NO":"３２號","E_COORD97":169014.92000000001,"N_COORD97":2543200.98,"ADDRESS":"府前路一段４９巷３２號","OBJECTID":239872},"geometry":{"x":169014.91999999993,"y":2543200.9800000042}},{"attributes":{"ID":239877,"DIS_CODE":0,"TOWNNAME":"中西區","LI":"開山里","LIN":"13鄰","STREET":"府前路","SECT":"一段","MAREA":" ","LANE":"４９巷","ALLEY":" ","HOUSE_NO":"３４號","E_COORD97":169019.41,"N_COORD97":2543194.6099999999,"ADDRESS":"府前路一段４９巷３４號","OBJECTID":239873},"geometry":{"x":169019.41000000201,"y":2543194.6099999994}},{"attributes":{"ID":239878,"DIS_CODE":0,"TOWNNAME":"中西區","LI":"開山里","LIN":"13鄰","STREET":"府前路","SECT":"一段","MAREA":" ","LANE":"６１巷","ALLEY":" ","HOUSE_NO":"１９號","E_COORD97":168995.06,"N_COORD97":2543208.6800000002,"ADDRESS":"府前路一段６１巷１９號","OBJECTID":239874},"geometry":{"x":168995.05999999959,"y":2543208.6799999997}},{"attributes":{"ID":239879,"DIS_CODE":0,"TOWNNAME":"學甲區","LI":"慈福里","LIN":"14鄰","STREET":"綿和路","SECT":" ","MAREA":" ","LANE":" ","ALLEY":" ","HOUSE_NO":"１４號","E_COORD97":166493.67000000001,"N_COORD97":2570335.9500000002,"ADDRESS":"綿和路１４號","OBJECTID":239875},"geometry":{"x":166493.67000000086,"y":2570335.9499999993}},{"attributes":{"ID":239880,"DIS_CODE":0,"TOWNNAME":"學甲區","LI":"慈福里","LIN":"14鄰","STREET":"綿和路","SECT":" ","MAREA":" ","LANE":" ","ALLEY":" ","HOUSE_NO":"１６號","E_COORD97":166471.42000000001,"N_COORD97":2570348.6899999999,"ADDRESS":"綿和路１６號","OBJECTID":239876},"geometry":{"x":166471.42000000086,"y":2570348.6900000032}},{"attributes":{"ID":239881,"DIS_CODE":0,"TOWNNAME":"學甲區","LI":"慈福里","LIN":"14鄰","STREET":"綿和路","SECT":" ","MAREA":" ","LANE":" ","ALLEY":" ","HOUSE_NO":"２１號","E_COORD97":166438.73999999999,"N_COORD97":2570323.6299999999,"ADDRESS":"綿和路２１號","OBJECTID":239877},"geometry":{"x":166438.74000000209,"y":2570323.629999999}},{"attributes":{"ID":239882,"DIS_CODE":0,"TOWNNAME":"學甲區","LI":"慈福里","LIN":"14鄰","STREET":"綿和路","SECT":" ","MAREA":" ","LANE":" ","ALLEY":" ","HOUSE_NO":"２５號","E_COORD97":166421.73999999999,"N_COORD97":2570324.1499999999,"ADDRESS":"綿和路２５號","OBJECTID":239878},"geometry":{"x":166421.74000000209,"y":2570324.1500000022}},{"attributes":{"ID":239883,"DIS_CODE":0,"TOWNNAME":"學甲區","LI":"仁得里","LIN":"14鄰","STREET":"濟生路","SECT":" ","MAREA":" ","LANE":" ","ALLEY":" ","HOUSE_NO":"１６９號","E_COORD97":166065.67000000001,"N_COORD97":2570311.2000000002,"ADDRESS":"濟生路１６９號","OBJECTID":239879},"geometry":{"x":166065.66999999993,"y":2570311.200000003}},{"attributes":{"ID":239884,"DIS_CODE":0,"TOWNNAME":"學甲區","LI":"仁得里","LIN":"14鄰","STREET":"濟生路","SECT":" ","MAREA":" ","LANE":" ","ALLEY":" ","HOUSE_NO":"１７１號","E_COORD97":166060.87,"N_COORD97":2570309.1899999999,"ADDRESS":"濟生路１７１號","OBJECTID":239880},"geometry":{"x":166060.87000000011,"y":2570309.1900000013}},{"attributes":{"ID":239885,"DIS_CODE":0,"TOWNNAME":"學甲區","LI":"仁得里","LIN":"14鄰","STREET":"濟生路","SECT":" ","MAREA":" ","LANE":" ","ALLEY":" ","HOUSE_NO":"１７９號","E_COORD97":166055.59,"N_COORD97":2570306.96,"ADDRESS":"濟生路１７９號","OBJECTID":239881},"geometry":{"x":166055.58999999985,"y":2570306.9600000009}},{"attributes":{"ID":239886,"DIS_CODE":0,"TOWNNAME":"學甲區","LI":"仁得里","LIN":"14鄰","STREET":"濟生路","SECT":" ","MAREA":" ","LANE":" ","ALLEY":" ","HOUSE_NO":"１８１號","E_COORD97":166050.25,"N_COORD97":2570307.98,"ADDRESS":"濟生路１８１號","OBJECTID":239882},"geometry":{"x":166050.25000000186,"y":2570307.9800000023}},{"attributes":{"ID":239887,"DIS_CODE":0,"TOWNNAME":"學甲區","LI":"仁得里","LIN":"14鄰","STREET":"濟生路","SECT":" ","MAREA":" ","LANE":" ","ALLEY":" ","HOUSE_NO":"１８３號之１","E_COORD97":166041.31,"N_COORD97":2570310.1699999999,"ADDRESS":"濟生路１８３號之１","OBJECTID":239883},"geometry":{"x":166041.31000000052,"y":2570310.1700000018}},{"attributes":{"ID":239888,"DIS_CODE":0,"TOWNNAME":"學甲區","LI":"仁得里","LIN":"14鄰","STREET":"濟生路","SECT":" ","MAREA":" ","LANE":" ","ALLEY":" ","HOUSE_NO":"１８３號","E_COORD97":166046,"N_COORD97":2570309.04,"ADDRESS":"濟生路１８３號","OBJECTID":239884},"geometry":{"x":166046.00000000093,"y":2570309.040000001}},{"attributes":{"ID":239889,"DIS_CODE":0,"TOWNNAME":"學甲區","LI":"仁得里","LIN":"14鄰","STREET":"濟生路","SECT":" ","MAREA":" ","LANE":" ","ALLEY":" ","HOUSE_NO":"１８７號之１","E_COORD97":166024.91,"N_COORD97":2570313.8799999999,"ADDRESS":"濟生路１８７號之１","OBJECTID":239885},"geometry":{"x":166024.91000000015,"y":2570313.8800000008}},{"attributes":{"ID":239890,"DIS_CODE":0,"TOWNNAME":"仁德區","LI":"成功里","LIN":"16鄰","STREET":"全福路","SECT":" ","MAREA":" ","LANE":"７５巷","ALLEY":" ","HOUSE_NO":"１８號","E_COORD97":171041.73000000001,"N_COORD97":2539365,"ADDRESS":"全福路７５巷１８號","OBJECTID":239886},"geometry":{"x":171041.73000000138,"y":2539365}},{"attributes":{"ID":239891,"DIS_CODE":0,"TOWNNAME":"後壁區","LI":"新嘉里","LIN":"16鄰","STREET":" ","SECT":" ","MAREA":"白沙屯","LANE":" ","ALLEY":" ","HOUSE_NO":"１７７號","E_COORD97":179557.35999999999,"N_COORD97":2585644.1400000001,"ADDRESS":"白沙屯１７７號","OBJECTID":239887},"geometry":{"x":179557.36000000127,"y":2585644.1400000043}},{"attributes":{"ID":239892,"DIS_CODE":0,"TOWNNAME":"仁德區","LI":"保安里","LIN":"16鄰","STREET":"中正路","SECT":"一段","MAREA":" ","LANE":"１６４巷","ALLEY":" ","HOUSE_NO":"１７號","E_COORD97":171576.69,"N_COORD97":2535685.52,"ADDRESS":"中正路一段１６４巷１７號","OBJECTID":239888},"geometry":{"x":171576.69000000041,"y":2535685.5199999996}},{"attributes":{"ID":239893,"DIS_CODE":0,"TOWNNAME":"仁德區","LI":"保安里","LIN":"16鄰","STREET":"中正路","SECT":"一段","MAREA":" ","LANE":"１８２巷","ALLEY":" ","HOUSE_NO":"１８號","E_COORD97":171593.54000000001,"N_COORD97":2535704.77,"ADDRESS":"中正路一段１８２巷１８號","OBJECTID":239889},"geometry":{"x":171593.54000000097,"y":2535704.7699999996}},{"attributes":{"ID":239894,"DIS_CODE":0,"TOWNNAME":"仁德區","LI":"保安里","LIN":"16鄰","STREET":"中正路","SECT":"一段","MAREA":" ","LANE":"１６４巷","ALLEY":" ","HOUSE_NO":"１２號","E_COORD97":171562.89999999999,"N_COORD97":2535683.77,"ADDRESS":"中正路一段１６４巷１２號","OBJECTID":239890},"geometry":{"x":171562.9000000013,"y":2535683.7699999996}},{"attributes":{"ID":239895,"DIS_CODE":0,"TOWNNAME":"仁德區","LI":"成功里","LIN":"16鄰","STREET":"全福路","SECT":" ","MAREA":" ","LANE":"７５巷","ALLEY":" ","HOUSE_NO":"１７號","E_COORD97":171024.67999999999,"N_COORD97":2539366.25,"ADDRESS":"全福路７５巷１７號","OBJECTID":239891},"geometry":{"x":171024.68000000063,"y":2539366.25}},{"attributes":{"ID":239896,"DIS_CODE":0,"TOWNNAME":"仁德區","LI":"保安里","LIN":"16鄰","STREET":"中正路","SECT":"一段","MAREA":" ","LANE":"１６４巷","ALLEY":" ","HOUSE_NO":"９號","E_COORD97":171563.92999999999,"N_COORD97":2535695.77,"ADDRESS":"中正路一段１６４巷９號","OBJECTID":239892},"geometry":{"x":171563.93000000063,"y":2535695.7700000014}},{"attributes":{"ID":239897,"DIS_CODE":0,"TOWNNAME":"仁德區","LI":"保安里","LIN":"16鄰","STREET":"中正路","SECT":"一段","MAREA":" ","LANE":"１６４巷","ALLEY":" ","HOUSE_NO":"８號","E_COORD97":171552.48999999999,"N_COORD97":2535690.52,"ADDRESS":"中正路一段１６４巷８號","OBJECTID":239893},"geometry":{"x":171552.49000000022,"y":2535690.5200000014}},{"attributes":{"ID":239898,"DIS_CODE":0,"TOWNNAME":"永康區","LI":"三民里","LIN":"5鄰","STREET":"三民街","SECT":" ","MAREA":" ","LANE":"９０巷","ALLEY":" ","HOUSE_NO":"３７號","E_COORD97":172998.59,"N_COORD97":2550364.3100000001,"ADDRESS":"三民街９０巷３７號","OBJECTID":239894},"geometry":{"x":172998.59000000078,"y":2550364.3100000024}},{"attributes":{"ID":239899,"DIS_CODE":0,"TOWNNAME":"中西區","LI":"開山里","LIN":"13鄰","STREET":"府前路","SECT":"一段","MAREA":" ","LANE":"６１巷","ALLEY":" ","HOUSE_NO":"２１號","E_COORD97":168991.79999999999,"N_COORD97":2543197.1000000001,"ADDRESS":"府前路一段６１巷２１號","OBJECTID":239895},"geometry":{"x":168991.79999999981,"y":2543197.1000000015}},{"attributes":{"ID":239900,"DIS_CODE":0,"TOWNNAME":"東區","LI":"後甲里","LIN":"13鄰","STREET":"裕農路","SECT":" ","MAREA":" ","LANE":"６２１巷","ALLEY":" ","HOUSE_NO":"１５號","E_COORD97":171614.22,"N_COORD97":2543266.71,"ADDRESS":"裕農路６２１巷１５號","OBJECTID":239896},"geometry":{"x":171614.22000000067,"y":2543266.7100000009}},{"attributes":{"ID":239901,"DIS_CODE":0,"TOWNNAME":"東區","LI":"後甲里","LIN":"13鄰","STREET":"裕農路","SECT":" ","MAREA":" ","LANE":"６０５巷","ALLEY":" ","HOUSE_NO":"２８號","E_COORD97":171572.73000000001,"N_COORD97":2543305.0099999998,"ADDRESS":"裕農路６０５巷２８號","OBJECTID":239897},"geometry":{"x":171572.73000000138,"y":2543305.0099999979}},{"attributes":{"ID":239902,"DIS_CODE":0,"TOWNNAME":"東區","LI":"後甲里","LIN":"13鄰","STREET":"裕農路","SECT":" ","MAREA":" ","LANE":"６０５巷","ALLEY":" ","HOUSE_NO":"３０號","E_COORD97":171571.76999999999,"N_COORD97":2543310.0699999998,"ADDRESS":"裕農路６０５巷３０號","OBJECTID":239898},"geometry":{"x":171571.76999999955,"y":2543310.0700000022}},{"attributes":{"ID":239903,"DIS_CODE":0,"TOWNNAME":"東區","LI":"後甲里","LIN":"13鄰","STREET":"裕農路","SECT":" ","MAREA":" ","LANE":"６２１巷","ALLEY":" ","HOUSE_NO":"２５號之１","E_COORD97":171605.54000000001,"N_COORD97":2543309.8300000001,"ADDRESS":"裕農路６２１巷２５號之１","OBJECTID":239899},"geometry":{"x":171605.54000000097,"y":2543309.8300000001}},{"attributes":{"ID":239904,"DIS_CODE":0,"TOWNNAME":"學甲區","LI":"仁得里","LIN":"14鄰","STREET":"濟生路","SECT":" ","MAREA":" ","LANE":" ","ALLEY":" ","HOUSE_NO":"１８７號","E_COORD97":166028.79999999999,"N_COORD97":2570312.5,"ADDRESS":"濟生路１８７號","OBJECTID":239900},"geometry":{"x":166028.79999999981,"y":2570312.5}},{"attributes":{"ID":239905,"DIS_CODE":0,"TOWNNAME":"學甲區","LI":"仁得里","LIN":"14鄰","STREET":"濟生路","SECT":" ","MAREA":" ","LANE":" ","ALLEY":" ","HOUSE_NO":"１８９號","E_COORD97":166020.37,"N_COORD97":2570314.6499999999,"ADDRESS":"濟生路１８９號","OBJECTID":239901},"geometry":{"x":166020.37000000011,"y":2570314.6500000004}},{"attributes":{"ID":239906,"DIS_CODE":0,"TOWNNAME":"學甲區","LI":"仁得里","LIN":"14鄰","STREET":"濟生路","SECT":" ","MAREA":" ","LANE":" ","ALLEY":" ","HOUSE_NO":"１９１號","E_COORD97":166014.88,"N_COORD97":2570316.0299999998,"ADDRESS":"濟生路１９１號","OBJECTID":239902},"geometry":{"x":166014.87999999989,"y":2570316.0300000012}},{"attributes":{"ID":239907,"DIS_CODE":0,"TOWNNAME":"學甲區","LI":"仁得里","LIN":"14鄰","STREET":"濟生路","SECT":" ","MAREA":" ","LANE":" ","ALLEY":" ","HOUSE_NO":"１９５號","E_COORD97":166000.59,"N_COORD97":2570305.5899999999,"ADDRESS":"濟生路１９５號","OBJECTID":239903},"geometry":{"x":166000.59000000078,"y":2570305.5900000036}},{"attributes":{"ID":239908,"DIS_CODE":0,"TOWNNAME":"學甲區","LI":"仁得里","LIN":"14鄰","STREET":"濟生路","SECT":" ","MAREA":" ","LANE":" ","ALLEY":" ","HOUSE_NO":"１９７號","E_COORD97":165992.89000000001,"N_COORD97":2570323.54,"ADDRESS":"濟生路１９７號","OBJECTID":239904},"geometry":{"x":165992.88999999873,"y":2570323.540000001}},{"attributes":{"ID":239909,"DIS_CODE":0,"TOWNNAME":"學甲區","LI":"仁得里","LIN":"14鄰","STREET":"濟生路","SECT":" ","MAREA":" ","LANE":" ","ALLEY":" ","HOUSE_NO":"１９９號之１","E_COORD97":165980.81,"N_COORD97":2570324.8799999999,"ADDRESS":"濟生路１９９號之１","OBJECTID":239905},"geometry":{"x":165980.80999999959,"y":2570324.879999999}},{"attributes":{"ID":239910,"DIS_CODE":0,"TOWNNAME":"學甲區","LI":"仁得里","LIN":"14鄰","STREET":"濟生路","SECT":" ","MAREA":" ","LANE":" ","ALLEY":" ","HOUSE_NO":"１９９號","E_COORD97":165985.45999999999,"N_COORD97":2570327.0899999999,"ADDRESS":"濟生路１９９號","OBJECTID":239906},"geometry":{"x":165985.45999999996,"y":2570327.0900000017}},{"attributes":{"ID":239911,"DIS_CODE":0,"TOWNNAME":"南區","LI":"明興里","LIN":"14鄰","STREET":"金華路","SECT":"一段","MAREA":" ","LANE":" ","ALLEY":" ","HOUSE_NO":"２４號","E_COORD97":166884.92999999999,"N_COORD97":2540295.8900000001,"ADDRESS":"金華路一段２４號","OBJECTID":239907},"geometry":{"x":166884.93000000063,"y":2540295.8900000006}},{"attributes":{"ID":239912,"DIS_CODE":0,"TOWNNAME":"南區","LI":"明興里","LIN":"14鄰","STREET":"金華路","SECT":"一段","MAREA":" ","LANE":" ","ALLEY":" ","HOUSE_NO":"２２號","E_COORD97":166884.48000000001,"N_COORD97":2540292.52,"ADDRESS":"金華路一段２２號","OBJECTID":239908},"geometry":{"x":166884.48000000045,"y":2540292.5200000014}},{"attributes":{"ID":239913,"DIS_CODE":0,"TOWNNAME":"永康區","LI":"二王里","LIN":"36鄰","STREET":"中山南路","SECT":" ","MAREA":" ","LANE":"４９０巷","ALLEY":" ","HOUSE_NO":"３９號","E_COORD97":172225.79999999999,"N_COORD97":2546355.8300000001,"ADDRESS":"中山南路４９０巷３９號","OBJECTID":239909},"geometry":{"x":172225.80000000075,"y":2546355.8300000019}},{"attributes":{"ID":239914,"DIS_CODE":0,"TOWNNAME":"永康區","LI":"中興里","LIN":"19鄰","STREET":"中山東路","SECT":" ","MAREA":" ","LANE":"３６６巷","ALLEY":" ","HOUSE_NO":"３９號","E_COORD97":171789.37,"N_COORD97":2545286.75,"ADDRESS":"中山東路３６６巷３９號","OBJECTID":239910},"geometry":{"x":171789.36999999918,"y":2545286.75}},{"attributes":{"ID":239915,"DIS_CODE":0,"TOWNNAME":"永康區","LI":"中興里","LIN":"19鄰","STREET":"中山東路","SECT":" ","MAREA":" ","LANE":"３６６巷","ALLEY":" ","HOUSE_NO":"３７號","E_COORD97":171793.48999999999,"N_COORD97":2545287.25,"ADDRESS":"中山東路３６６巷３７號","OBJECTID":239911},"geometry":{"x":171793.49000000022,"y":2545287.2500000037}},{"attributes":{"ID":239916,"DIS_CODE":0,"TOWNNAME":"永康區","LI":"大灣里","LIN":"12鄰","STREET":"大民街","SECT":" ","MAREA":" ","LANE":"５８巷","ALLEY":" ","HOUSE_NO":"８號","E_COORD97":174877.32000000001,"N_COORD97":2545366.21,"ADDRESS":"大民街５８巷８號","OBJECTID":239912},"geometry":{"x":174877.32000000123,"y":2545366.209999999}},{"attributes":{"ID":239917,"DIS_CODE":0,"TOWNNAME":"永康區","LI":"五王里","LIN":"37鄰","STREET":"中華路","SECT":" ","MAREA":" ","LANE":"５７８巷","ALLEY":" ","HOUSE_NO":"１５號之６２","E_COORD97":171276.07999999999,"N_COORD97":2545965.79,"ADDRESS":"中華路５７８巷１５號之６２","OBJECTID":239913},"geometry":{"x":171276.08000000194,"y":2545965.7899999991}},{"attributes":{"ID":239918,"DIS_CODE":0,"TOWNNAME":"東區","LI":"後甲里","LIN":"13鄰","STREET":"裕農路","SECT":" ","MAREA":" ","LANE":"６２１巷","ALLEY":" ","HOUSE_NO":"２１號之１","E_COORD97":171613.01999999999,"N_COORD97":2543286.46,"ADDRESS":"裕農路６２１巷２１號之１","OBJECTID":239914},"geometry":{"x":171613.01999999955,"y":2543286.4600000046}},{"attributes":{"ID":239919,"DIS_CODE":0,"TOWNNAME":"東區","LI":"後甲里","LIN":"13鄰","STREET":"裕農路","SECT":" ","MAREA":" ","LANE":"６２１巷","ALLEY":" ","HOUSE_NO":"２１號之３","E_COORD97":171612.53,"N_COORD97":2543293.6899999999,"ADDRESS":"裕農路６２１巷２１號之３","OBJECTID":239915},"geometry":{"x":171612.53000000119,"y":2543293.6900000032}},{"attributes":{"ID":239920,"DIS_CODE":0,"TOWNNAME":"東區","LI":"後甲里","LIN":"13鄰","STREET":"裕農路","SECT":" ","MAREA":" ","LANE":"６０５巷","ALLEY":" ","HOUSE_NO":"４號","E_COORD97":171577.07000000001,"N_COORD97":2543254.8999999999,"ADDRESS":"裕農路６０５巷４號","OBJECTID":239916},"geometry":{"x":171577.07000000123,"y":2543254.9000000004}},{"attributes":{"ID":239921,"DIS_CODE":0,"TOWNNAME":"東區","LI":"後甲里","LIN":"13鄰","STREET":"裕農路","SECT":" ","MAREA":" ","LANE":"６０５巷","ALLEY":" ","HOUSE_NO":"１８號","E_COORD97":171574.42000000001,"N_COORD97":2543284.77,"ADDRESS":"裕農路６０５巷１８號","OBJECTID":239917},"geometry":{"x":171574.42000000086,"y":2543284.7699999996}},{"attributes":{"ID":239922,"DIS_CODE":0,"TOWNNAME":"東區","LI":"後甲里","LIN":"13鄰","STREET":"裕農路","SECT":" ","MAREA":" ","LANE":"６０５巷","ALLEY":" ","HOUSE_NO":"２０號","E_COORD97":171574.66,"N_COORD97":2543289.1099999999,"ADDRESS":"裕農路６０５巷２０號","OBJECTID":239918},"geometry":{"x":171574.66000000108,"y":2543289.1099999994}},{"attributes":{"ID":239923,"DIS_CODE":0,"TOWNNAME":"東區","LI":"泉南里","LIN":"13鄰","STREET":"光華街","SECT":" ","MAREA":" ","LANE":"２２９巷","ALLEY":" ","HOUSE_NO":"１４號","E_COORD97":169472.54000000001,"N_COORD97":2543013.04,"ADDRESS":"光華街２２９巷１４號","OBJECTID":239919},"geometry":{"x":169472.5400000019,"y":2543013.040000001}},{"attributes":{"ID":239924,"DIS_CODE":0,"TOWNNAME":"東區","LI":"泉南里","LIN":"13鄰","STREET":"光華街","SECT":" ","MAREA":" ","LANE":"２２９巷","ALLEY":" ","HOUSE_NO":"２號","E_COORD97":169483.98000000001,"N_COORD97":2543042.21,"ADDRESS":"光華街２２９巷２號","OBJECTID":239920},"geometry":{"x":169483.98000000138,"y":2543042.2100000028}},{"attributes":{"ID":239925,"DIS_CODE":0,"TOWNNAME":"東區","LI":"泉南里","LIN":"13鄰","STREET":"光華街","SECT":" ","MAREA":" ","LANE":"２２９巷","ALLEY":" ","HOUSE_NO":"６號","E_COORD97":169483.07999999999,"N_COORD97":2543036.4199999999,"ADDRESS":"光華街２２９巷６號","OBJECTID":239921},"geometry":{"x":169483.08000000101,"y":2543036.4199999999}},{"attributes":{"ID":239926,"DIS_CODE":0,"TOWNNAME":"東區","LI":"泉南里","LIN":"13鄰","STREET":"光華街","SECT":" ","MAREA":" ","LANE":"２２９巷","ALLEY":" ","HOUSE_NO":"８號","E_COORD97":169481.79999999999,"N_COORD97":2543031.2799999998,"ADDRESS":"光華街２２９巷８號","OBJECTID":239922},"geometry":{"x":169481.79999999981,"y":2543031.2799999993}},{"attributes":{"ID":239927,"DIS_CODE":0,"TOWNNAME":"東區","LI":"泉南里","LIN":"13鄰","STREET":"光華街","SECT":" ","MAREA":" ","LANE":"２２９巷","ALLEY":" ","HOUSE_NO":"８號之１","E_COORD97":169481.66,"N_COORD97":2543030.0299999998,"ADDRESS":"光華街２２９巷８號之１","OBJECTID":239923},"geometry":{"x":169481.66000000015,"y":2543030.0300000031}},{"attributes":{"ID":239928,"DIS_CODE":0,"TOWNNAME":"新化區","LI":"豐榮里","LIN":"13鄰","STREET":"民治路","SECT":" ","MAREA":" ","LANE":"３３巷","ALLEY":" ","HOUSE_NO":"２號","E_COORD97":178708.45999999999,"N_COORD97":2548057.25,"ADDRESS":"民治路３３巷２號","OBJECTID":239924},"geometry":{"x":178708.46000000183,"y":2548057.2500000037}},{"attributes":{"ID":239929,"DIS_CODE":0,"TOWNNAME":"東區","LI":"大德里","LIN":"13鄰","STREET":"立德十路","SECT":" ","MAREA":" ","LANE":"８０巷","ALLEY":" ","HOUSE_NO":"３號","E_COORD97":169584.35999999999,"N_COORD97":2542056.6200000001,"ADDRESS":"立德十路８０巷３號","OBJECTID":239925},"geometry":{"x":169584.3600000022,"y":2542056.620000001}},{"attributes":{"ID":239930,"DIS_CODE":0,"TOWNNAME":"東區","LI":"大德里","LIN":"13鄰","STREET":"立德十路","SECT":" ","MAREA":" ","LANE":"８０巷","ALLEY":" ","HOUSE_NO":"４１號","E_COORD97":169604.53,"N_COORD97":2541988.7599999998,"ADDRESS":"立德十路８０巷４１號","OBJECTID":239926},"geometry":{"x":169604.53000000026,"y":2541988.7600000016}},{"attributes":{"ID":239931,"DIS_CODE":0,"TOWNNAME":"南區","LI":"明興里","LIN":"14鄰","STREET":"金華路","SECT":"一段","MAREA":" ","LANE":" ","ALLEY":" ","HOUSE_NO":"２６號","E_COORD97":166885.26000000001,"N_COORD97":2540299.4399999999,"ADDRESS":"金華路一段２６號","OBJECTID":239927},"geometry":{"x":166885.25999999978,"y":2540299.4400000013}},{"attributes":{"ID":239932,"DIS_CODE":0,"TOWNNAME":"南區","LI":"明興里","LIN":"14鄰","STREET":"金華路","SECT":"一段","MAREA":" ","LANE":" ","ALLEY":" ","HOUSE_NO":"２８號","E_COORD97":166886.59,"N_COORD97":2540303.54,"ADDRESS":"金華路一段２８號","OBJECTID":239928},"geometry":{"x":166886.58999999985,"y":2540303.5399999972}},{"attributes":{"ID":239933,"DIS_CODE":0,"TOWNNAME":"南區","LI":"新生里","LIN":"14鄰","STREET":"大同路","SECT":"二段","MAREA":" ","LANE":" ","ALLEY":" ","HOUSE_NO":"１１８號","E_COORD97":169270.51000000001,"N_COORD97":2542248.8700000001,"ADDRESS":"大同路二段１１８號","OBJECTID":239929},"geometry":{"x":169270.50999999978,"y":2542248.870000001}},{"attributes":{"ID":239934,"DIS_CODE":0,"TOWNNAME":"南區","LI":"新生里","LIN":"14鄰","STREET":"大同路","SECT":"二段","MAREA":" ","LANE":" ","ALLEY":" ","HOUSE_NO":"１２０號","E_COORD97":169271.37,"N_COORD97":2542243.9300000002,"ADDRESS":"大同路二段１２０號","OBJECTID":239930},"geometry":{"x":169271.37000000011,"y":2542243.9299999997}},{"attributes":{"ID":239935,"DIS_CODE":0,"TOWNNAME":"南區","LI":"新生里","LIN":"14鄰","STREET":"大同路","SECT":"二段","MAREA":" ","LANE":" ","ALLEY":" ","HOUSE_NO":"１２２號","E_COORD97":169273.60000000001,"N_COORD97":2542238.3700000001,"ADDRESS":"大同路二段１２２號","OBJECTID":239931},"geometry":{"x":169273.60000000056,"y":2542238.370000001}},{"attributes":{"ID":239936,"DIS_CODE":0,"TOWNNAME":"北區","LI":"仁愛里","LIN":"14鄰","STREET":"東豐路","SECT":" ","MAREA":" ","LANE":" ","ALLEY":" ","HOUSE_NO":"２３７號","E_COORD97":170145.91,"N_COORD97":2544856.9399999999,"ADDRESS":"東豐路２３７號","OBJECTID":239932},"geometry":{"x":170145.91000000015,"y":2544856.9399999995}},{"attributes":{"ID":239937,"DIS_CODE":0,"TOWNNAME":"安南區","LI":"理想里","LIN":"16鄰","STREET":"大安街","SECT":" ","MAREA":" ","LANE":"１７３巷","ALLEY":" ","HOUSE_NO":"２號","E_COORD97":167335.79999999999,"N_COORD97":2548270.6499999999,"ADDRESS":"大安街１７３巷２號","OBJECTID":239933},"geometry":{"x":167335.79999999981,"y":2548270.6500000004}},{"attributes":{"ID":239938,"DIS_CODE":0,"TOWNNAME":"安南區","LI":"理想里","LIN":"16鄰","STREET":"大安街","SECT":" ","MAREA":" ","LANE":"１７３巷","ALLEY":" ","HOUSE_NO":"３號","E_COORD97":167319.48999999999,"N_COORD97":2548257.96,"ADDRESS":"大安街１７３巷３號","OBJECTID":239934},"geometry":{"x":167319.49000000022,"y":2548257.9600000028}},{"attributes":{"ID":239939,"DIS_CODE":0,"TOWNNAME":"安南區","LI":"理想里","LIN":"16鄰","STREET":"大安街","SECT":" ","MAREA":" ","LANE":"１７３巷","ALLEY":" ","HOUSE_NO":"４號","E_COORD97":167330.28,"N_COORD97":2548273.96,"ADDRESS":"大安街１７３巷４號","OBJECTID":239935},"geometry":{"x":167330.28000000212,"y":2548273.9600000028}},{"attributes":{"ID":239940,"DIS_CODE":0,"TOWNNAME":"安南區","LI":"理想里","LIN":"16鄰","STREET":"大安街","SECT":" ","MAREA":" ","LANE":"１７３巷","ALLEY":" ","HOUSE_NO":"５號","E_COORD97":167311.91,"N_COORD97":2548262.73,"ADDRESS":"大安街１７３巷５號","OBJECTID":239936},"geometry":{"x":167311.91000000015,"y":2548262.7300000023}},{"attributes":{"ID":239941,"DIS_CODE":0,"TOWNNAME":"安南區","LI":"理想里","LIN":"16鄰","STREET":"大安街","SECT":" ","MAREA":" ","LANE":"１７３巷","ALLEY":" ","HOUSE_NO":"６號","E_COORD97":167323.64999999999,"N_COORD97":2548278.6899999999,"ADDRESS":"大安街１７３巷６號","OBJECTID":239937},"geometry":{"x":167323.65000000037,"y":2548278.6900000013}},{"attributes":{"ID":239942,"DIS_CODE":0,"TOWNNAME":"東區","LI":"大德里","LIN":"13鄰","STREET":"立德十路","SECT":" ","MAREA":" ","LANE":"８０巷","ALLEY":" ","HOUSE_NO":"４３號","E_COORD97":169605.01999999999,"N_COORD97":2541986.0699999998,"ADDRESS":"立德十路８０巷４３號","OBJECTID":239938},"geometry":{"x":169605.02000000048,"y":2541986.0700000003}},{"attributes":{"ID":239943,"DIS_CODE":0,"TOWNNAME":"東區","LI":"大德里","LIN":"13鄰","STREET":"立德十路","SECT":" ","MAREA":" ","LANE":"８０巷","ALLEY":" ","HOUSE_NO":"５號","E_COORD97":169585.17999999999,"N_COORD97":2542052.52,"ADDRESS":"立德十路８０巷５號","OBJECTID":239939},"geometry":{"x":169585.18000000063,"y":2542052.5199999996}},{"attributes":{"ID":239944,"DIS_CODE":0,"TOWNNAME":"東區","LI":"大德里","LIN":"13鄰","STREET":"立德十路","SECT":" ","MAREA":" ","LANE":"８０巷","ALLEY":" ","HOUSE_NO":"７號","E_COORD97":169585.79999999999,"N_COORD97":2542048.8399999999,"ADDRESS":"立德十路８０巷７號","OBJECTID":239940},"geometry":{"x":169585.79999999888,"y":2542048.8400000036}},{"attributes":{"ID":239945,"DIS_CODE":0,"TOWNNAME":"東區","LI":"大德里","LIN":"13鄰","STREET":"立德十路","SECT":" ","MAREA":" ","LANE":"８０巷","ALLEY":" ","HOUSE_NO":"９號","E_COORD97":169587.85000000001,"N_COORD97":2542045.9700000002,"ADDRESS":"立德十路８０巷９號","OBJECTID":239941},"geometry":{"x":169587.85000000056,"y":2542045.9700000025}},{"attributes":{"ID":239946,"DIS_CODE":0,"TOWNNAME":"東區","LI":"泉南里","LIN":"13鄰","STREET":"光華街","SECT":" ","MAREA":" ","LANE":"２２９巷","ALLEY":" ","HOUSE_NO":"１４號之１","E_COORD97":169470.48000000001,"N_COORD97":2543009.4399999999,"ADDRESS":"光華街２２９巷１４號之１","OBJECTID":239942},"geometry":{"x":169470.48000000138,"y":2543009.4399999995}},{"attributes":{"ID":239947,"DIS_CODE":0,"TOWNNAME":"東區","LI":"大德里","LIN":"13鄰","STREET":"立德十路","SECT":" ","MAREA":" ","LANE":"８０巷","ALLEY":" ","HOUSE_NO":"１４號","E_COORD97":169580.80342800001,"N_COORD97":2542010.3713600002,"ADDRESS":"立德十路８０巷１４號","OBJECTID":239943},"geometry":{"x":169580.80342800077,"y":2542010.3713600021}},{"attributes":{"ID":239948,"DIS_CODE":0,"TOWNNAME":"東區","LI":"衛國里","LIN":"13鄰","STREET":"衛國街","SECT":" ","MAREA":" ","LANE":"１１４巷","ALLEY":" ","HOUSE_NO":"２４號","E_COORD97":170524.79999999999,"N_COORD97":2543139.6800000002,"ADDRESS":"衛國街１１４巷２４號","OBJECTID":239944},"geometry":{"x":170524.79999999981,"y":2543139.6799999997}},{"attributes":{"ID":239949,"DIS_CODE":0,"TOWNNAME":"東區","LI":"東安里","LIN":"13鄰","STREET":"長榮路","SECT":"二段","MAREA":" ","LANE":"３２巷","ALLEY":" ","HOUSE_NO":"１９９號","E_COORD97":170192.42999999999,"N_COORD97":2543179.3500000001,"ADDRESS":"長榮路二段３２巷１９９號","OBJECTID":239945},"geometry":{"x":170192.43000000063,"y":2543179.3499999996}},{"attributes":{"ID":239950,"DIS_CODE":0,"TOWNNAME":"東區","LI":"東安里","LIN":"13鄰","STREET":"長榮路","SECT":"二段","MAREA":" ","LANE":"３２巷","ALLEY":" ","HOUSE_NO":"２１７號","E_COORD97":170211.79000000001,"N_COORD97":2543141.8999999999,"ADDRESS":"長榮路二段３２巷２１７號","OBJECTID":239946},"geometry":{"x":170211.7900000019,"y":2543141.9000000022}},{"attributes":{"ID":239951,"DIS_CODE":0,"TOWNNAME":"東區","LI":"東安里","LIN":"13鄰","STREET":"長榮路","SECT":"二段","MAREA":" ","LANE":"３２巷","ALLEY":" ","HOUSE_NO":"１７５號","E_COORD97":170143.64000000001,"N_COORD97":2543222.1099999999,"ADDRESS":"長榮路二段３２巷１７５號","OBJECTID":239947},"geometry":{"x":170143.6400000006,"y":2543222.1099999994}},{"attributes":{"ID":239952,"DIS_CODE":0,"TOWNNAME":"東區","LI":"東安里","LIN":"13鄰","STREET":"長榮路","SECT":"二段","MAREA":" ","LANE":"３２巷","ALLEY":" ","HOUSE_NO":"１８１號","E_COORD97":170165.13,"N_COORD97":2543208.1299999999,"ADDRESS":"長榮路二段３２巷１８１號","OBJECTID":239948},"geometry":{"x":170165.13000000175,"y":2543208.129999999}},{"attributes":{"ID":239953,"DIS_CODE":0,"TOWNNAME":"東區","LI":"東安里","LIN":"13鄰","STREET":"長榮路","SECT":"二段","MAREA":" ","LANE":"３２巷","ALLEY":" ","HOUSE_NO":"１８３號","E_COORD97":170169.53,"N_COORD97":2543204.8999999999,"ADDRESS":"長榮路二段３２巷１８３號","OBJECTID":239949},"geometry":{"x":170169.52999999933,"y":2543204.9000000041}},{"attributes":{"ID":239954,"DIS_CODE":0,"TOWNNAME":"東區","LI":"東安里","LIN":"13鄰","STREET":"長榮路","SECT":"二段","MAREA":" ","LANE":"３２巷","ALLEY":" ","HOUSE_NO":"１８５號","E_COORD97":170172.85999999999,"N_COORD97":2543201.0899999999,"ADDRESS":"長榮路二段３２巷１８５號","OBJECTID":239950},"geometry":{"x":170172.86000000127,"y":2543201.0900000017}},{"attributes":{"ID":239955,"DIS_CODE":0,"TOWNNAME":"北區","LI":"仁愛里","LIN":"14鄰","STREET":"東豐路","SECT":" ","MAREA":" ","LANE":" ","ALLEY":" ","HOUSE_NO":"２３９號","E_COORD97":170157.54999999999,"N_COORD97":2544854.8999999999,"ADDRESS":"東豐路２３９號","OBJECTID":239951},"geometry":{"x":170157.55000000075,"y":2544854.9000000004}},{"attributes":{"ID":239956,"DIS_CODE":0,"TOWNNAME":"關廟區","LI":"五甲里","LIN":"10鄰","STREET":"五甲路","SECT":" ","MAREA":" ","LANE":"５５７巷","ALLEY":" ","HOUSE_NO":"８號","E_COORD97":181047.06387799999,"N_COORD97":2538137.2782399999,"ADDRESS":"五甲路５５７巷８號","OBJECTID":239952},"geometry":{"x":181047.06387800071,"y":2538137.2782359999}},{"attributes":{"ID":239957,"DIS_CODE":0,"TOWNNAME":"歸仁區","LI":"西埔里","LIN":"15鄰","STREET":"大埔路","SECT":"二段","MAREA":" ","LANE":"２５０巷","ALLEY":" ","HOUSE_NO":"２００號","E_COORD97":175793.141925,"N_COORD97":2545584.9423600002,"ADDRESS":"大埔路二段２５０巷２００號","OBJECTID":239953},"geometry":{"x":175793.14192499965,"y":2545584.9423580002}},{"attributes":{"ID":239958,"DIS_CODE":0,"TOWNNAME":"北區","LI":"仁愛里","LIN":"14鄰","STREET":"東豐路","SECT":" ","MAREA":" ","LANE":" ","ALLEY":" ","HOUSE_NO":"２２９號","E_COORD97":170125.35000000001,"N_COORD97":2544866.0899999999,"ADDRESS":"東豐路２２９號","OBJECTID":239954},"geometry":{"x":170125.34999999963,"y":2544866.0899999999}},{"attributes":{"ID":239959,"DIS_CODE":0,"TOWNNAME":"北區","LI":"仁愛里","LIN":"14鄰","STREET":"東豐路","SECT":" ","MAREA":" ","LANE":" ","ALLEY":" ","HOUSE_NO":"２３１號","E_COORD97":170130.92000000001,"N_COORD97":2544863.96,"ADDRESS":"東豐路２３１號","OBJECTID":239955},"geometry":{"x":170130.91999999899,"y":2544863.9600000028}},{"attributes":{"ID":239960,"DIS_CODE":0,"TOWNNAME":"北區","LI":"仁愛里","LIN":"14鄰","STREET":"東豐路","SECT":" ","MAREA":" ","LANE":" ","ALLEY":" ","HOUSE_NO":"２３３號","E_COORD97":170134.82999999999,"N_COORD97":2544861.3599999999,"ADDRESS":"東豐路２３３號","OBJECTID":239956},"geometry":{"x":170134.83000000007,"y":2544861.3599999994}},{"attributes":{"ID":239961,"DIS_CODE":0,"TOWNNAME":"北區","LI":"仁愛里","LIN":"14鄰","STREET":"東豐路","SECT":" ","MAREA":" ","LANE":" ","ALLEY":" ","HOUSE_NO":"２３５號","E_COORD97":170139.92000000001,"N_COORD97":2544862.8900000001,"ADDRESS":"東豐路２３５號","OBJECTID":239957},"geometry":{"x":170139.92000000086,"y":2544862.8899999987}},{"attributes":{"ID":239962,"DIS_CODE":0,"TOWNNAME":"善化區","LI":"溪美里","LIN":"1鄰","STREET":" ","SECT":" ","MAREA":"溪尾","LANE":" ","ALLEY":" ","HOUSE_NO":"７３８號","E_COORD97":176879.06,"N_COORD97":2560457.9700000002,"ADDRESS":"溪尾７３８號","OBJECTID":239958},"geometry":{"x":176879.06000000052,"y":2560457.9700000007}},{"attributes":{"ID":239963,"DIS_CODE":0,"TOWNNAME":"永康區","LI":"大橋里","LIN":"16鄰","STREET":"大橋一街","SECT":" ","MAREA":" ","LANE":"１３９巷","ALLEY":" ","HOUSE_NO":"４５號","E_COORD97":170951.70999999999,"N_COORD97":2546610.4900000002,"ADDRESS":"大橋一街１３９巷４５號","OBJECTID":239959},"geometry":{"x":170951.71000000089,"y":2546610.4900000002}},{"attributes":{"ID":239964,"DIS_CODE":0,"TOWNNAME":"永康區","LI":"王行里","LIN":"16鄰","STREET":"王行路","SECT":" ","MAREA":" ","LANE":"６８巷","ALLEY":" ","HOUSE_NO":"８號","E_COORD97":175737.76000000001,"N_COORD97":2548043.9100000001,"ADDRESS":"王行路６８巷８號","OBJECTID":239960},"geometry":{"x":175737.75999999978,"y":2548043.910000002}},{"attributes":{"ID":239965,"DIS_CODE":0,"TOWNNAME":"永康區","LI":"王行里","LIN":"16鄰","STREET":"王行路","SECT":" ","MAREA":" ","LANE":"６８巷","ALLEY":" ","HOUSE_NO":"１４０號","E_COORD97":176105.70999999999,"N_COORD97":2548133.0899999999,"ADDRESS":"王行路６８巷１４０號","OBJECTID":239961},"geometry":{"x":176105.70999999996,"y":2548133.0900000017}},{"attributes":{"ID":239966,"DIS_CODE":0,"TOWNNAME":"永康區","LI":"大橋里","LIN":"22鄰","STREET":"大橋一街","SECT":" ","MAREA":" ","LANE":"１８１巷","ALLEY":" ","HOUSE_NO":"１７號","E_COORD97":171122.48000000001,"N_COORD97":2546588.4900000002,"ADDRESS":"大橋一街１８１巷１７號","OBJECTID":239962},"geometry":{"x":171122.48000000045,"y":2546588.4900000021}},{"attributes":{"ID":239967,"DIS_CODE":0,"TOWNNAME":"永康區","LI":"大橋里","LIN":"4鄰","STREET":"大橋一街","SECT":" ","MAREA":" ","LANE":"１０３巷","ALLEY":" ","HOUSE_NO":"２３２號","E_COORD97":170748.26000000001,"N_COORD97":2546863.5099999998,"ADDRESS":"大橋一街１０３巷２３２號","OBJECTID":239963},"geometry":{"x":170748.25999999978,"y":2546863.5099999998}},{"attributes":{"ID":239968,"DIS_CODE":0,"TOWNNAME":"永康區","LI":"中興里","LIN":"18鄰","STREET":"中華路","SECT":" ","MAREA":" ","LANE":"２８６巷","ALLEY":" ","HOUSE_NO":"２２號之１","E_COORD97":171650.66,"N_COORD97":2545311.2999999998,"ADDRESS":"中華路２８６巷２２號之１","OBJECTID":239964},"geometry":{"x":171650.66000000108,"y":2545311.3000000045}},{"attributes":{"ID":239969,"DIS_CODE":0,"TOWNNAME":"永康區","LI":"五王里","LIN":"39鄰","STREET":"中華路","SECT":" ","MAREA":" ","LANE":"５７８巷","ALLEY":" ","HOUSE_NO":"１７號之１１８","E_COORD97":171334.97,"N_COORD97":2545989.54,"ADDRESS":"中華路５７８巷１７號之１１８","OBJECTID":239965},"geometry":{"x":171334.96999999974,"y":2545989.5400000028}},{"attributes":{"ID":239970,"DIS_CODE":0,"TOWNNAME":"永康區","LI":"大橋里","LIN":"12鄰","STREET":"大橋二街","SECT":" ","MAREA":" ","LANE":"２３９巷","ALLEY":" ","HOUSE_NO":"１號","E_COORD97":171099.59,"N_COORD97":2546817.21,"ADDRESS":"大橋二街２３９巷１號","OBJECTID":239966},"geometry":{"x":171099.59000000078,"y":2546817.209999999}},{"attributes":{"ID":239971,"DIS_CODE":0,"TOWNNAME":"永康區","LI":"中興里","LIN":"9鄰","STREET":"忠孝路","SECT":" ","MAREA":" ","LANE":"２３９巷","ALLEY":" ","HOUSE_NO":"２６號","E_COORD97":172018.48999999999,"N_COORD97":2545047.2400000002,"ADDRESS":"忠孝路２３９巷２６號","OBJECTID":239967},"geometry":{"x":172018.49000000022,"y":2545047.2400000021}},{"attributes":{"ID":239972,"DIS_CODE":0,"TOWNNAME":"永康區","LI":"大橋里","LIN":"9鄰","STREET":"大橋一街","SECT":" ","MAREA":" ","LANE":"２４７巷","ALLEY":" ","HOUSE_NO":"１３９號","E_COORD97":171069.32999999999,"N_COORD97":2546966.8900000001,"ADDRESS":"大橋一街２４７巷１３９號","OBJECTID":239968},"geometry":{"x":171069.33000000194,"y":2546966.8900000006}},{"attributes":{"ID":239973,"DIS_CODE":0,"TOWNNAME":"永康區","LI":"五王里","LIN":"37鄰","STREET":"中華路","SECT":" ","MAREA":" ","LANE":"５７８巷","ALLEY":" ","HOUSE_NO":"１５號之５７","E_COORD97":171276.03,"N_COORD97":2545965.79,"ADDRESS":"中華路５７８巷１５號之５７","OBJECTID":239969},"geometry":{"x":171276.03000000026,"y":2545965.7899999991}},{"attributes":{"ID":239974,"DIS_CODE":0,"TOWNNAME":"永康區","LI":"勝利里","LIN":"16鄰","STREET":"勝利街","SECT":" ","MAREA":" ","LANE":"１０７巷","ALLEY":" ","HOUSE_NO":"６２號","E_COORD97":171196.63,"N_COORD97":2544939.75,"ADDRESS":"勝利街１０７巷６２號","OBJECTID":239970},"geometry":{"x":171196.63000000082,"y":2544939.75}},{"attributes":{"ID":239975,"DIS_CODE":0,"TOWNNAME":"南區","LI":"明興里","LIN":"14鄰","STREET":"金華路","SECT":"一段","MAREA":" ","LANE":" ","ALLEY":" ","HOUSE_NO":"４號","E_COORD97":166877.22,"N_COORD97":2540247.0800000001,"ADDRESS":"金華路一段４號","OBJECTID":239971},"geometry":{"x":166877.21999999974,"y":2540247.0800000038}},{"attributes":{"ID":239976,"DIS_CODE":0,"TOWNNAME":"南區","LI":"明興里","LIN":"14鄰","STREET":"金華路","SECT":"一段","MAREA":" ","LANE":" ","ALLEY":" ","HOUSE_NO":"５６號","E_COORD97":166893.98999999999,"N_COORD97":2540360.5299999998,"ADDRESS":"金華路一段５６號","OBJECTID":239972},"geometry":{"x":166893.99000000022,"y":2540360.5299999993}},{"attributes":{"ID":239977,"DIS_CODE":0,"TOWNNAME":"南區","LI":"明興里","LIN":"14鄰","STREET":"金華路","SECT":"一段","MAREA":" ","LANE":" ","ALLEY":" ","HOUSE_NO":"５８號","E_COORD97":166895.56,"N_COORD97":2540365.73,"ADDRESS":"金華路一段５８號","OBJECTID":239973},"geometry":{"x":166895.56000000052,"y":2540365.7300000023}},{"attributes":{"ID":239978,"DIS_CODE":0,"TOWNNAME":"南區","LI":"明興里","LIN":"14鄰","STREET":"金華路","SECT":"一段","MAREA":" ","LANE":" ","ALLEY":" ","HOUSE_NO":"６號","E_COORD97":166877.47,"N_COORD97":2540254.0099999998,"ADDRESS":"金華路一段６號","OBJECTID":239974},"geometry":{"x":166877.4700000016,"y":2540254.0100000035}},{"attributes":{"ID":239979,"DIS_CODE":0,"TOWNNAME":"北區","LI":"文元里","LIN":"14鄰","STREET":"文賢路","SECT":" ","MAREA":" ","LANE":" ","ALLEY":" ","HOUSE_NO":"１０６８號","E_COORD97":167364.95000000001,"N_COORD97":2546159.6000000001,"ADDRESS":"文賢路１０６８號","OBJECTID":239975},"geometry":{"x":167364.95000000112,"y":2546159.6000000015}},{"attributes":{"ID":239980,"DIS_CODE":0,"TOWNNAME":"北區","LI":"實踐里","LIN":"14鄰","STREET":"長榮路","SECT":"五段","MAREA":" ","LANE":" ","ALLEY":" ","HOUSE_NO":"３５６號之１","E_COORD97":169608.81,"N_COORD97":2545943.3300000001,"ADDRESS":"長榮路五段３５６號之１","OBJECTID":239976},"geometry":{"x":169608.80999999959,"y":2545943.3300000001}},{"attributes":{"ID":239981,"DIS_CODE":0,"TOWNNAME":"佳里區","LI":"忠仁里","LIN":"14鄰","STREET":"佳東路","SECT":" ","MAREA":" ","LANE":" ","ALLEY":" ","HOUSE_NO":"２４５號","E_COORD97":166374.97,"N_COORD97":2562010.7000000002,"ADDRESS":"佳東路２４５號","OBJECTID":239977},"geometry":{"x":166374.96999999974,"y":2562010.6999999993}},{"attributes":{"ID":239982,"DIS_CODE":0,"TOWNNAME":"北區","LI":"大豐里","LIN":"14鄰","STREET":"和緯路","SECT":"四段","MAREA":" ","LANE":" ","ALLEY":" ","HOUSE_NO":"１６３號","E_COORD97":166972.85999999999,"N_COORD97":2545426.8199999998,"ADDRESS":"和緯路四段１６３號","OBJECTID":239978},"geometry":{"x":166972.86000000127,"y":2545426.8200000022}},{"attributes":{"ID":239983,"DIS_CODE":0,"TOWNNAME":"北區","LI":"大豐里","LIN":"14鄰","STREET":"和緯路","SECT":"四段","MAREA":" ","LANE":" ","ALLEY":" ","HOUSE_NO":"１７３號","E_COORD97":166949.79000000001,"N_COORD97":2545416.5099999998,"ADDRESS":"和緯路四段１７３號","OBJECTID":239979},"geometry":{"x":166949.79000000004,"y":2545416.5099999998}},{"attributes":{"ID":239984,"DIS_CODE":0,"TOWNNAME":"北區","LI":"大豐里","LIN":"14鄰","STREET":"和緯路","SECT":"四段","MAREA":" ","LANE":" ","ALLEY":" ","HOUSE_NO":"１７５號","E_COORD97":166945.48999999999,"N_COORD97":2545413.3599999999,"ADDRESS":"和緯路四段１７５號","OBJECTID":239980},"geometry":{"x":166945.48999999929,"y":2545413.3599999994}},{"attributes":{"ID":239985,"DIS_CODE":0,"TOWNNAME":"北區","LI":"大豐里","LIN":"14鄰","STREET":"和緯路","SECT":"四段","MAREA":" ","LANE":" ","ALLEY":" ","HOUSE_NO":"１７７號","E_COORD97":166940.98000000001,"N_COORD97":2545410.9900000002,"ADDRESS":"和緯路四段１７７號","OBJECTID":239981},"geometry":{"x":166940.98000000138,"y":2545410.9899999984}},{"attributes":{"ID":239986,"DIS_CODE":0,"TOWNNAME":"永康區","LI":"大橋里","LIN":"14鄰","STREET":"大橋一街","SECT":" ","MAREA":" ","LANE":" ","ALLEY":" ","HOUSE_NO":"６１號十二樓之３","E_COORD97":170897.04999999999,"N_COORD97":2546426.5499999998,"ADDRESS":"大橋一街６１號十二樓之３","OBJECTID":239982},"geometry":{"x":170897.05000000075,"y":2546426.5500000026}},{"attributes":{"ID":239987,"DIS_CODE":0,"TOWNNAME":"永康區","LI":"大橋里","LIN":"14鄰","STREET":"大橋一街","SECT":" ","MAREA":" ","LANE":" ","ALLEY":" ","HOUSE_NO":"６３號二樓","E_COORD97":170896.64999999999,"N_COORD97":2546429.5099999998,"ADDRESS":"大橋一街６３號二樓","OBJECTID":239983},"geometry":{"x":170896.6500000013,"y":2546429.5099999998}},{"attributes":{"ID":239988,"DIS_CODE":0,"TOWNNAME":"永康區","LI":"五王里","LIN":"2鄰","STREET":"成功路","SECT":" ","MAREA":" ","LANE":"１３０巷","ALLEY":" ","HOUSE_NO":"２０號","E_COORD97":171514.54000000001,"N_COORD97":2545546.9300000002,"ADDRESS":"成功路１３０巷２０號","OBJECTID":239984},"geometry":{"x":171514.54000000004,"y":2545546.9300000034}},{"attributes":{"ID":239989,"DIS_CODE":0,"TOWNNAME":"永康區","LI":"中興里","LIN":"18鄰","STREET":"中華路","SECT":" ","MAREA":" ","LANE":"２８６巷","ALLEY":" ","HOUSE_NO":"４９號","E_COORD97":171670.67999999999,"N_COORD97":2545342.4900000002,"ADDRESS":"中華路２８６巷４９號","OBJECTID":239985},"geometry":{"x":171670.68000000063,"y":2545342.4900000002}},{"attributes":{"ID":239990,"DIS_CODE":0,"TOWNNAME":"南區","LI":"府南里","LIN":"11鄰","STREET":"永成路","SECT":"三段","MAREA":" ","LANE":"４３２巷","ALLEY":" ","HOUSE_NO":"６號","E_COORD97":167532.53023599999,"N_COORD97":2541093.3393600001,"ADDRESS":"永成路三段４３２巷６號","OBJECTID":239986},"geometry":{"x":167532.5302360002,"y":2541093.3393590003}},{"attributes":{"ID":239991,"DIS_CODE":0,"TOWNNAME":"永康區","LI":"大橋里","LIN":"15鄰","STREET":"大橋一街","SECT":" ","MAREA":" ","LANE":"７３巷","ALLEY":" ","HOUSE_NO":"２６號","E_COORD97":170893.42999999999,"N_COORD97":2546490.4900000002,"ADDRESS":"大橋一街７３巷２６號","OBJECTID":239987},"geometry":{"x":170893.42999999877,"y":2546490.4900000021}},{"attributes":{"ID":239992,"DIS_CODE":0,"TOWNNAME":"新營區","LI":"王公里","LIN":"33鄰","STREET":"長榮路","SECT":"一段","MAREA":" ","LANE":"５１５巷","ALLEY":" ","HOUSE_NO":"１１號","E_COORD97":180301.980645,"N_COORD97":2579812.2541399999,"ADDRESS":"長榮路一段５１５巷１１號","OBJECTID":239988},"geometry":{"x":180301.980645,"y":2579812.2541380003}},{"attributes":{"ID":239993,"DIS_CODE":0,"TOWNNAME":"永康區","LI":"大灣里","LIN":"12鄰","STREET":"大民街","SECT":" ","MAREA":" ","LANE":"５８巷","ALLEY":" ","HOUSE_NO":"２０號","E_COORD97":174897.73000000001,"N_COORD97":2545356.8199999998,"ADDRESS":"大民街５８巷２０號","OBJECTID":239989},"geometry":{"x":174897.73000000045,"y":2545356.8200000003}},{"attributes":{"ID":239994,"DIS_CODE":0,"TOWNNAME":"永康區","LI":"五王里","LIN":"27鄰","STREET":"五福街","SECT":" ","MAREA":" ","LANE":"１１０巷","ALLEY":" ","HOUSE_NO":"３８號","E_COORD97":171561.85000000001,"N_COORD97":2545933.71,"ADDRESS":"五福街１１０巷３８號","OBJECTID":239990},"geometry":{"x":171561.8499999987,"y":2545933.7100000028}},{"attributes":{"ID":239995,"DIS_CODE":0,"TOWNNAME":"永康區","LI":"五王里","LIN":"39鄰","STREET":"中華路","SECT":" ","MAREA":" ","LANE":"５７８巷","ALLEY":" ","HOUSE_NO":"１７號之１２０","E_COORD97":171334.87,"N_COORD97":2545989.54,"ADDRESS":"中華路５７８巷１７號之１２０","OBJECTID":239991},"geometry":{"x":171334.87000000011,"y":2545989.5400000028}},{"attributes":{"ID":239996,"DIS_CODE":0,"TOWNNAME":"永康區","LI":"大灣里","LIN":"13鄰","STREET":"大灣路","SECT":" ","MAREA":" ","LANE":"２１５巷","ALLEY":" ","HOUSE_NO":"１８號","E_COORD97":175021.44,"N_COORD97":2545304.75,"ADDRESS":"大灣路２１５巷１８號","OBJECTID":239992},"geometry":{"x":175021.44000000041,"y":2545304.7500000019}},{"attributes":{"ID":239997,"DIS_CODE":0,"TOWNNAME":"永康區","LI":"五王里","LIN":"1鄰","STREET":"成功路","SECT":" ","MAREA":" ","LANE":"１３０巷","ALLEY":" ","HOUSE_NO":"２２號","E_COORD97":171519.51999999999,"N_COORD97":2545533.27,"ADDRESS":"成功路１３０巷２２號","OBJECTID":239993},"geometry":{"x":171519.51999999955,"y":2545533.2699999996}},{"attributes":{"ID":239998,"DIS_CODE":0,"TOWNNAME":"東區","LI":"東安里","LIN":"13鄰","STREET":"長榮路","SECT":"二段","MAREA":" ","LANE":"３２巷","ALLEY":" ","HOUSE_NO":"１８９號","E_COORD97":170179.51000000001,"N_COORD97":2543196,"ADDRESS":"長榮路二段３２巷１８９號","OBJECTID":239994},"geometry":{"x":170179.51000000164,"y":2543196}},{"attributes":{"ID":239999,"DIS_CODE":0,"TOWNNAME":"東區","LI":"東安里","LIN":"13鄰","STREET":"長榮路","SECT":"二段","MAREA":" ","LANE":"３２巷","ALLEY":" ","HOUSE_NO":"１９１號","E_COORD97":170181.57000000001,"N_COORD97":2543193.0699999998,"ADDRESS":"長榮路二段３２巷１９１號","OBJECTID":239995},"geometry":{"x":170181.57000000123,"y":2543193.0700000003}},{"attributes":{"ID":240000,"DIS_CODE":0,"TOWNNAME":"東區","LI":"東安里","LIN":"13鄰","STREET":"長榮路","SECT":"二段","MAREA":" ","LANE":"３２巷","ALLEY":" ","HOUSE_NO":"１９３號","E_COORD97":170183.42999999999,"N_COORD97":2543189.3199999998,"ADDRESS":"長榮路二段３２巷１９３號","OBJECTID":239996},"geometry":{"x":170183.43000000063,"y":2543189.3200000022}},{"attributes":{"ID":240001,"DIS_CODE":0,"TOWNNAME":"東區","LI":"東安里","LIN":"13鄰","STREET":"長榮路","SECT":"二段","MAREA":" ","LANE":"３２巷","ALLEY":" ","HOUSE_NO":"１９５號","E_COORD97":170185.88,"N_COORD97":2543185.1200000001,"ADDRESS":"長榮路二段３２巷１９５號","OBJECTID":239997},"geometry":{"x":170185.88000000082,"y":2543185.1200000029}},{"attributes":{"ID":240002,"DIS_CODE":0,"TOWNNAME":"東區","LI":"東安里","LIN":"13鄰","STREET":"長榮路","SECT":"二段","MAREA":" ","LANE":"３２巷","ALLEY":" ","HOUSE_NO":"１９７號","E_COORD97":170187.73999999999,"N_COORD97":2543181.6000000001,"ADDRESS":"長榮路二段３２巷１９７號","OBJECTID":239998},"geometry":{"x":170187.74000000022,"y":2543181.5999999996}},{"attributes":{"ID":240003,"DIS_CODE":0,"TOWNNAME":"東區","LI":"東安里","LIN":"13鄰","STREET":"長榮路","SECT":"二段","MAREA":" ","LANE":"３２巷","ALLEY":" ","HOUSE_NO":"２０１號","E_COORD97":170190.97,"N_COORD97":2543174.5600000001,"ADDRESS":"長榮路二段３２巷２０１號","OBJECTID":239999},"geometry":{"x":170190.96999999974,"y":2543174.5600000024}},{"attributes":{"ID":240004,"DIS_CODE":0,"TOWNNAME":"東區","LI":"東安里","LIN":"13鄰","STREET":"長榮路","SECT":"二段","MAREA":" ","LANE":"３２巷","ALLEY":" ","HOUSE_NO":"２０３號","E_COORD97":170194.16,"N_COORD97":2543171.3300000001,"ADDRESS":"長榮路二段３２巷２０３號","OBJECTID":240000},"geometry":{"x":170194.16000000201,"y":2543171.3300000038}}]}