{"displayFieldName":"TOWNNAME","fieldAliases":{"ID":"ID","DIS_CODE":"DIS_CODE","TOWNNAME":"TOWNNAME","LI":"LI","LIN":"LIN","STREET":"STREET","SECT":"SECT","MAREA":"MAREA","LANE":"LANE","ALLEY":"ALLEY","HOUSE_NO":"HOUSE_NO","E_COORD97":"E_COORD97","N_COORD97":"N_COORD97","ADDRESS":"ADDRESS","OBJECTID":"OBJECTID"},"geometryType":"esriGeometryPoint","spatialReference":{"wkid":102443,"latestWkid":3826},"fields":[{"name":"ID","type":"esriFieldTypeDouble","alias":"ID"},{"name":"DIS_CODE","type":"esriFieldTypeInteger","alias":"DIS_CODE"},{"name":"TOWNNAME","type":"esriFieldTypeString","alias":"TOWNNAME","length":8},{"name":"LI","type":"esriFieldTypeString","alias":"LI","length":8},{"name":"LIN","type":"esriFieldTypeString","alias":"LIN","length":12},{"name":"STREET","type":"esriFieldTypeString","alias":"STREET","length":20},{"name":"SECT","type":"esriFieldTypeString","alias":"SECT","length":8},{"name":"MAREA","type":"esriFieldTypeString","alias":"MAREA","length":12},{"name":"LANE","type":"esriFieldTypeString","alias":"LANE","length":10},{"name":"ALLEY","type":"esriFieldTypeString","alias":"ALLEY","length":10},{"name":"HOUSE_NO","type":"esriFieldTypeString","alias":"HOUSE_NO","length":20},{"name":"E_COORD97","type":"esriFieldTypeDouble","alias":"E_COORD97"},{"name":"N_COORD97","type":"esriFieldTypeDouble","alias":"N_COORD97"},{"name":"ADDRESS","type":"esriFieldTypeString","alias":"ADDRESS","length":50},{"name":"OBJECTID","type":"esriFieldTypeOID","alias":"OBJECTID"}],"features":[{"attributes":{"ID":650428,"DIS_CODE":0,"TOWNNAME":"安平區","LI":"育平里","LIN":"32鄰","STREET":"育平路","SECT":" ","MAREA":" ","LANE":" ","ALLEY":" ","HOUSE_NO":"７０號六樓之２","E_COORD97":164565.14919699999,"N_COORD97":2543081.29287,"ADDRESS":"育平路７０號六樓之２","OBJECTID":650401},"geometry":{"x":164565.14919700008,"y":2543081.2928700019}},{"attributes":{"ID":650429,"DIS_CODE":0,"TOWNNAME":"安平區","LI":"育平里","LIN":"32鄰","STREET":"育平路","SECT":" ","MAREA":" ","LANE":" ","ALLEY":" ","HOUSE_NO":"７０號六樓之３","E_COORD97":164565.14919699999,"N_COORD97":2543081.29287,"ADDRESS":"育平路７０號六樓之３","OBJECTID":650402},"geometry":{"x":164565.14919700008,"y":2543081.2928700019}},{"attributes":{"ID":650430,"DIS_CODE":0,"TOWNNAME":"安平區","LI":"育平里","LIN":"32鄰","STREET":"育平路","SECT":" ","MAREA":" ","LANE":" ","ALLEY":" ","HOUSE_NO":"７０號六樓之５","E_COORD97":164565.14919699999,"N_COORD97":2543081.29287,"ADDRESS":"育平路７０號六樓之５","OBJECTID":650403},"geometry":{"x":164565.14919700008,"y":2543081.2928700019}},{"attributes":{"ID":650431,"DIS_CODE":0,"TOWNNAME":"安平區","LI":"育平里","LIN":"32鄰","STREET":"育平路","SECT":" ","MAREA":" ","LANE":" ","ALLEY":" ","HOUSE_NO":"７０號六樓之６","E_COORD97":164565.14919699999,"N_COORD97":2543081.29287,"ADDRESS":"育平路７０號六樓之６","OBJECTID":650404},"geometry":{"x":164565.14919700008,"y":2543081.2928700019}},{"attributes":{"ID":650432,"DIS_CODE":0,"TOWNNAME":"安平區","LI":"育平里","LIN":"32鄰","STREET":"育平路","SECT":" ","MAREA":" ","LANE":" ","ALLEY":" ","HOUSE_NO":"７０號六樓之７","E_COORD97":164565.14919699999,"N_COORD97":2543081.29287,"ADDRESS":"育平路７０號六樓之７","OBJECTID":650405},"geometry":{"x":164565.14919700008,"y":2543081.2928700019}},{"attributes":{"ID":650433,"DIS_CODE":0,"TOWNNAME":"安平區","LI":"育平里","LIN":"32鄰","STREET":"育平路","SECT":" ","MAREA":" ","LANE":" ","ALLEY":" ","HOUSE_NO":"７０號六樓之８","E_COORD97":164565.14919699999,"N_COORD97":2543081.29287,"ADDRESS":"育平路７０號六樓之８","OBJECTID":650406},"geometry":{"x":164565.14919700008,"y":2543081.2928700019}},{"attributes":{"ID":650434,"DIS_CODE":0,"TOWNNAME":"六甲區","LI":"中社里","LIN":"17鄰","STREET":" ","SECT":" ","MAREA":"林鳳營","LANE":" ","ALLEY":" ","HOUSE_NO":"１０７號之１","E_COORD97":180002.90221299999,"N_COORD97":2571777.62647,"ADDRESS":"林鳳營１０７號之１","OBJECTID":650407},"geometry":{"x":180002.90221299976,"y":2571777.6264670007}},{"attributes":{"ID":650435,"DIS_CODE":0,"TOWNNAME":"仁德區","LI":"二行里","LIN":"11鄰","STREET":"行大街","SECT":" ","MAREA":" ","LANE":" ","ALLEY":" ","HOUSE_NO":"１６４號","E_COORD97":170058.10250499999,"N_COORD97":2535106.76621,"ADDRESS":"行大街１６４號","OBJECTID":650408},"geometry":{"x":170058.10250500031,"y":2535106.766206}},{"attributes":{"ID":650436,"DIS_CODE":0,"TOWNNAME":"新化區","LI":"知義里","LIN":"5鄰","STREET":" ","SECT":" ","MAREA":"知母義","LANE":" ","ALLEY":" ","HOUSE_NO":"７２號之７（農業資材","E_COORD97":180219.81427,"N_COORD97":2547232.6329399999,"ADDRESS":"知母義７２號之７（農業資材室）","OBJECTID":650409},"geometry":{"x":180219.81426999997,"y":2547232.6329400018}},{"attributes":{"ID":650437,"DIS_CODE":0,"TOWNNAME":"安平區","LI":"育平里","LIN":"32鄰","STREET":"育平路","SECT":" ","MAREA":" ","LANE":" ","ALLEY":" ","HOUSE_NO":"７０號七樓之１","E_COORD97":164564.725382,"N_COORD97":2543080.5667500002,"ADDRESS":"育平路７０號七樓之１","OBJECTID":650410},"geometry":{"x":164564.72538200021,"y":2543080.5667450018}},{"attributes":{"ID":650438,"DIS_CODE":0,"TOWNNAME":"安平區","LI":"育平里","LIN":"32鄰","STREET":"育平路","SECT":" ","MAREA":" ","LANE":" ","ALLEY":" ","HOUSE_NO":"７０號七樓之２","E_COORD97":164564.725382,"N_COORD97":2543080.5667500002,"ADDRESS":"育平路７０號七樓之２","OBJECTID":650411},"geometry":{"x":164564.72538200021,"y":2543080.5667450018}},{"attributes":{"ID":650439,"DIS_CODE":0,"TOWNNAME":"新營區","LI":"新南里","LIN":"14鄰","STREET":"民治路","SECT":" ","MAREA":" ","LANE":"２３０巷","ALLEY":" ","HOUSE_NO":"５１號","E_COORD97":178672.31526100001,"N_COORD97":2578631.5446199998,"ADDRESS":"民治路２３０巷５１號","OBJECTID":650412},"geometry":{"x":178672.31526099984,"y":2578631.5446239989}},{"attributes":{"ID":650440,"DIS_CODE":0,"TOWNNAME":"安平區","LI":"育平里","LIN":"32鄰","STREET":"育平路","SECT":" ","MAREA":" ","LANE":" ","ALLEY":" ","HOUSE_NO":"７０號七樓之３","E_COORD97":164564.725382,"N_COORD97":2543080.5667500002,"ADDRESS":"育平路７０號七樓之３","OBJECTID":650413},"geometry":{"x":164564.72538200021,"y":2543080.5667450018}},{"attributes":{"ID":650441,"DIS_CODE":0,"TOWNNAME":"安平區","LI":"育平里","LIN":"32鄰","STREET":"育平路","SECT":" ","MAREA":" ","LANE":" ","ALLEY":" ","HOUSE_NO":"７０號七樓之５","E_COORD97":164564.725382,"N_COORD97":2543080.5667500002,"ADDRESS":"育平路７０號七樓之５","OBJECTID":650414},"geometry":{"x":164564.72538200021,"y":2543080.5667450018}},{"attributes":{"ID":650442,"DIS_CODE":0,"TOWNNAME":"安平區","LI":"育平里","LIN":"32鄰","STREET":"育平路","SECT":" ","MAREA":" ","LANE":" ","ALLEY":" ","HOUSE_NO":"７０號七樓之６","E_COORD97":164564.725382,"N_COORD97":2543080.5667500002,"ADDRESS":"育平路７０號七樓之６","OBJECTID":650415},"geometry":{"x":164564.72538200021,"y":2543080.5667450018}},{"attributes":{"ID":650443,"DIS_CODE":0,"TOWNNAME":"安平區","LI":"育平里","LIN":"32鄰","STREET":"育平路","SECT":" ","MAREA":" ","LANE":" ","ALLEY":" ","HOUSE_NO":"７０號七樓之７","E_COORD97":164564.725382,"N_COORD97":2543080.5667500002,"ADDRESS":"育平路７０號七樓之７","OBJECTID":650416},"geometry":{"x":164564.72538200021,"y":2543080.5667450018}},{"attributes":{"ID":650444,"DIS_CODE":0,"TOWNNAME":"新化區","LI":"知義里","LIN":"1鄰","STREET":" ","SECT":" ","MAREA":"知母義","LANE":" ","ALLEY":" ","HOUSE_NO":"７號","E_COORD97":179592.88517200001,"N_COORD97":2547139.923,"ADDRESS":"知母義７號","OBJECTID":650417},"geometry":{"x":179592.88517200109,"y":2547139.9229980018}},{"attributes":{"ID":650445,"DIS_CODE":0,"TOWNNAME":"安平區","LI":"育平里","LIN":"32鄰","STREET":"育平路","SECT":" ","MAREA":" ","LANE":" ","ALLEY":" ","HOUSE_NO":"７０號七樓之８","E_COORD97":164564.725382,"N_COORD97":2543080.5667500002,"ADDRESS":"育平路７０號七樓之８","OBJECTID":650418},"geometry":{"x":164564.72538200021,"y":2543080.5667450018}},{"attributes":{"ID":650446,"DIS_CODE":0,"TOWNNAME":"安平區","LI":"育平里","LIN":"32鄰","STREET":"育平路","SECT":" ","MAREA":" ","LANE":" ","ALLEY":" ","HOUSE_NO":"７０號八樓之１","E_COORD97":164564.725382,"N_COORD97":2543080.5667500002,"ADDRESS":"育平路７０號八樓之１","OBJECTID":650419},"geometry":{"x":164564.72538200021,"y":2543080.5667450018}},{"attributes":{"ID":650447,"DIS_CODE":0,"TOWNNAME":"安平區","LI":"育平里","LIN":"32鄰","STREET":"育平路","SECT":" ","MAREA":" ","LANE":" ","ALLEY":" ","HOUSE_NO":"７０號八樓之２","E_COORD97":164564.725382,"N_COORD97":2543080.5667500002,"ADDRESS":"育平路７０號八樓之２","OBJECTID":650420},"geometry":{"x":164564.72538200021,"y":2543080.5667450018}},{"attributes":{"ID":650448,"DIS_CODE":0,"TOWNNAME":"安平區","LI":"育平里","LIN":"32鄰","STREET":"育平路","SECT":" ","MAREA":" ","LANE":" ","ALLEY":" ","HOUSE_NO":"７０號八樓之３","E_COORD97":164564.725382,"N_COORD97":2543080.5667500002,"ADDRESS":"育平路７０號八樓之３","OBJECTID":650421},"geometry":{"x":164564.72538200021,"y":2543080.5667450018}},{"attributes":{"ID":650449,"DIS_CODE":0,"TOWNNAME":"新化區","LI":"知義里","LIN":"1鄰","STREET":" ","SECT":" ","MAREA":"知母義","LANE":" ","ALLEY":" ","HOUSE_NO":"６號之１","E_COORD97":179581.86783,"N_COORD97":2547133.3613300002,"ADDRESS":"知母義６號之１","OBJECTID":650422},"geometry":{"x":179581.86783000175,"y":2547133.3613340016}},{"attributes":{"ID":650450,"DIS_CODE":0,"TOWNNAME":"安平區","LI":"育平里","LIN":"32鄰","STREET":"育平路","SECT":" ","MAREA":" ","LANE":" ","ALLEY":" ","HOUSE_NO":"７０號八樓之５","E_COORD97":164564.725382,"N_COORD97":2543080.5667500002,"ADDRESS":"育平路７０號八樓之５","OBJECTID":650423},"geometry":{"x":164564.72538200021,"y":2543080.5667450018}},{"attributes":{"ID":650451,"DIS_CODE":0,"TOWNNAME":"安平區","LI":"育平里","LIN":"32鄰","STREET":"育平路","SECT":" ","MAREA":" ","LANE":" ","ALLEY":" ","HOUSE_NO":"７０號八樓之６","E_COORD97":164564.725382,"N_COORD97":2543080.5667500002,"ADDRESS":"育平路７０號八樓之６","OBJECTID":650424},"geometry":{"x":164564.72538200021,"y":2543080.5667450018}},{"attributes":{"ID":650452,"DIS_CODE":0,"TOWNNAME":"安平區","LI":"育平里","LIN":"32鄰","STREET":"育平路","SECT":" ","MAREA":" ","LANE":" ","ALLEY":" ","HOUSE_NO":"７０號八樓之７","E_COORD97":164564.725382,"N_COORD97":2543080.5667500002,"ADDRESS":"育平路７０號八樓之７","OBJECTID":650425},"geometry":{"x":164564.72538200021,"y":2543080.5667450018}},{"attributes":{"ID":650453,"DIS_CODE":0,"TOWNNAME":"安平區","LI":"育平里","LIN":"32鄰","STREET":"育平路","SECT":" ","MAREA":" ","LANE":" ","ALLEY":" ","HOUSE_NO":"７０號八樓之８","E_COORD97":164564.725382,"N_COORD97":2543080.5667500002,"ADDRESS":"育平路７０號八樓之８","OBJECTID":650426},"geometry":{"x":164564.72538200021,"y":2543080.5667450018}},{"attributes":{"ID":650454,"DIS_CODE":0,"TOWNNAME":"新化區","LI":"知義里","LIN":"1鄰","STREET":" ","SECT":" ","MAREA":"知母義","LANE":" ","ALLEY":" ","HOUSE_NO":"６號","E_COORD97":179592.46142800001,"N_COORD97":2547128.7046699999,"ADDRESS":"知母義６號","OBJECTID":650427},"geometry":{"x":179592.46142799966,"y":2547128.7046700008}},{"attributes":{"ID":650455,"DIS_CODE":0,"TOWNNAME":"安平區","LI":"育平里","LIN":"32鄰","STREET":"育平路","SECT":" ","MAREA":" ","LANE":" ","ALLEY":" ","HOUSE_NO":"７０號九樓之１","E_COORD97":164564.725382,"N_COORD97":2543080.5667500002,"ADDRESS":"育平路７０號九樓之１","OBJECTID":650428},"geometry":{"x":164564.72538200021,"y":2543080.5667450018}},{"attributes":{"ID":650456,"DIS_CODE":0,"TOWNNAME":"新營區","LI":"新南里","LIN":"115鄰","STREET":"民治路","SECT":" ","MAREA":" ","LANE":"３００巷","ALLEY":" ","HOUSE_NO":"１５號","E_COORD97":178762.78896000001,"N_COORD97":2578535.3421700001,"ADDRESS":"民治路３００巷１５號","OBJECTID":650429},"geometry":{"x":178762.7889600005,"y":2578535.3421700001}},{"attributes":{"ID":650457,"DIS_CODE":0,"TOWNNAME":"安平區","LI":"育平里","LIN":"32鄰","STREET":"育平路","SECT":" ","MAREA":" ","LANE":" ","ALLEY":" ","HOUSE_NO":"７０號九樓之２","E_COORD97":164564.725382,"N_COORD97":2543080.5667500002,"ADDRESS":"育平路７０號九樓之２","OBJECTID":650430},"geometry":{"x":164564.72538200021,"y":2543080.5667450018}},{"attributes":{"ID":650458,"DIS_CODE":0,"TOWNNAME":"安平區","LI":"育平里","LIN":"32鄰","STREET":"育平路","SECT":" ","MAREA":" ","LANE":" ","ALLEY":" ","HOUSE_NO":"７０號九樓之３","E_COORD97":164564.725382,"N_COORD97":2543080.5667500002,"ADDRESS":"育平路７０號九樓之３","OBJECTID":650431},"geometry":{"x":164564.72538200021,"y":2543080.5667450018}},{"attributes":{"ID":650459,"DIS_CODE":0,"TOWNNAME":"安平區","LI":"育平里","LIN":"32鄰","STREET":"育平路","SECT":" ","MAREA":" ","LANE":" ","ALLEY":" ","HOUSE_NO":"７０號九樓之５","E_COORD97":164564.725382,"N_COORD97":2543080.5667500002,"ADDRESS":"育平路７０號九樓之５","OBJECTID":650432},"geometry":{"x":164564.72538200021,"y":2543080.5667450018}},{"attributes":{"ID":650460,"DIS_CODE":0,"TOWNNAME":"安平區","LI":"育平里","LIN":"32鄰","STREET":"育平路","SECT":" ","MAREA":" ","LANE":" ","ALLEY":" ","HOUSE_NO":"７０號九樓之６","E_COORD97":164564.725382,"N_COORD97":2543080.5667500002,"ADDRESS":"育平路７０號九樓之６","OBJECTID":650433},"geometry":{"x":164564.72538200021,"y":2543080.5667450018}},{"attributes":{"ID":650461,"DIS_CODE":0,"TOWNNAME":"安平區","LI":"育平里","LIN":"32鄰","STREET":"育平路","SECT":" ","MAREA":" ","LANE":" ","ALLEY":" ","HOUSE_NO":"７０號九樓之７","E_COORD97":164564.725382,"N_COORD97":2543080.5667500002,"ADDRESS":"育平路７０號九樓之７","OBJECTID":650434},"geometry":{"x":164564.72538200021,"y":2543080.5667450018}},{"attributes":{"ID":650462,"DIS_CODE":0,"TOWNNAME":"山上區","LI":"平陽里","LIN":"2鄰","STREET":" ","SECT":" ","MAREA":"石子崎","LANE":" ","ALLEY":" ","HOUSE_NO":"１６號","E_COORD97":186415.66182400001,"N_COORD97":2553934.9690399999,"ADDRESS":"石子崎１６號","OBJECTID":650435},"geometry":{"x":186415.661824001,"y":2553934.9690430015}},{"attributes":{"ID":650463,"DIS_CODE":0,"TOWNNAME":"安平區","LI":"育平里","LIN":"32鄰","STREET":"育平路","SECT":" ","MAREA":" ","LANE":" ","ALLEY":" ","HOUSE_NO":"７０號九樓之８","E_COORD97":164564.725382,"N_COORD97":2543080.5667500002,"ADDRESS":"育平路７０號九樓之８","OBJECTID":650436},"geometry":{"x":164564.72538200021,"y":2543080.5667450018}},{"attributes":{"ID":650464,"DIS_CODE":0,"TOWNNAME":"山上區","LI":"平陽里","LIN":"2鄰","STREET":" ","SECT":" ","MAREA":"石子崎","LANE":" ","ALLEY":" ","HOUSE_NO":"１６號之２","E_COORD97":186377.39606900001,"N_COORD97":2553941.0279999999,"ADDRESS":"石子崎１６號之２","OBJECTID":650437},"geometry":{"x":186377.39606899954,"y":2553941.0279980004}},{"attributes":{"ID":650465,"DIS_CODE":0,"TOWNNAME":"安平區","LI":"育平里","LIN":"32鄰","STREET":"育平路","SECT":" ","MAREA":" ","LANE":" ","ALLEY":" ","HOUSE_NO":"７０號十樓之１","E_COORD97":164564.725382,"N_COORD97":2543080.5667500002,"ADDRESS":"育平路７０號十樓之１","OBJECTID":650438},"geometry":{"x":164564.72538200021,"y":2543080.5667450018}},{"attributes":{"ID":650466,"DIS_CODE":0,"TOWNNAME":"安平區","LI":"育平里","LIN":"32鄰","STREET":"育平路","SECT":" ","MAREA":" ","LANE":" ","ALLEY":" ","HOUSE_NO":"７０號十樓之２","E_COORD97":164564.725382,"N_COORD97":2543080.5667500002,"ADDRESS":"育平路７０號十樓之２","OBJECTID":650439},"geometry":{"x":164564.72538200021,"y":2543080.5667450018}},{"attributes":{"ID":650467,"DIS_CODE":0,"TOWNNAME":"安平區","LI":"育平里","LIN":"32鄰","STREET":"育平路","SECT":" ","MAREA":" ","LANE":" ","ALLEY":" ","HOUSE_NO":"７０號十樓之３","E_COORD97":164564.725382,"N_COORD97":2543080.5667500002,"ADDRESS":"育平路７０號十樓之３","OBJECTID":650440},"geometry":{"x":164564.72538200021,"y":2543080.5667450018}},{"attributes":{"ID":650468,"DIS_CODE":0,"TOWNNAME":"安平區","LI":"育平里","LIN":"32鄰","STREET":"育平路","SECT":" ","MAREA":" ","LANE":" ","ALLEY":" ","HOUSE_NO":"７０號十樓之５","E_COORD97":164564.725382,"N_COORD97":2543080.5667500002,"ADDRESS":"育平路７０號十樓之５","OBJECTID":650441},"geometry":{"x":164564.72538200021,"y":2543080.5667450018}},{"attributes":{"ID":650469,"DIS_CODE":0,"TOWNNAME":"安平區","LI":"育平里","LIN":"32鄰","STREET":"育平路","SECT":" ","MAREA":" ","LANE":" ","ALLEY":" ","HOUSE_NO":"７０號十樓之６","E_COORD97":164564.725382,"N_COORD97":2543080.5667500002,"ADDRESS":"育平路７０號十樓之６","OBJECTID":650442},"geometry":{"x":164564.72538200021,"y":2543080.5667450018}},{"attributes":{"ID":650470,"DIS_CODE":0,"TOWNNAME":"安平區","LI":"育平里","LIN":"32鄰","STREET":"育平路","SECT":" ","MAREA":" ","LANE":" ","ALLEY":" ","HOUSE_NO":"７０號十樓之７","E_COORD97":164564.725382,"N_COORD97":2543080.5667500002,"ADDRESS":"育平路７０號十樓之７","OBJECTID":650443},"geometry":{"x":164564.72538200021,"y":2543080.5667450018}},{"attributes":{"ID":650471,"DIS_CODE":0,"TOWNNAME":"安平區","LI":"育平里","LIN":"32鄰","STREET":"育平路","SECT":" ","MAREA":" ","LANE":" ","ALLEY":" ","HOUSE_NO":"７０號十樓之８","E_COORD97":164564.725382,"N_COORD97":2543080.5667500002,"ADDRESS":"育平路７０號十樓之８","OBJECTID":650444},"geometry":{"x":164564.72538200021,"y":2543080.5667450018}},{"attributes":{"ID":650472,"DIS_CODE":0,"TOWNNAME":"安平區","LI":"育平里","LIN":"32鄰","STREET":"育平路","SECT":" ","MAREA":" ","LANE":" ","ALLEY":" ","HOUSE_NO":"７０號十一樓之１","E_COORD97":164564.725382,"N_COORD97":2543080.5667500002,"ADDRESS":"育平路７０號十一樓之１","OBJECTID":650445},"geometry":{"x":164564.72538200021,"y":2543080.5667450018}},{"attributes":{"ID":650473,"DIS_CODE":0,"TOWNNAME":"安平區","LI":"育平里","LIN":"32鄰","STREET":"育平路","SECT":" ","MAREA":" ","LANE":" ","ALLEY":" ","HOUSE_NO":"７０號十一樓之２","E_COORD97":164564.725382,"N_COORD97":2543080.5667500002,"ADDRESS":"育平路７０號十一樓之２","OBJECTID":650446},"geometry":{"x":164564.72538200021,"y":2543080.5667450018}},{"attributes":{"ID":650474,"DIS_CODE":0,"TOWNNAME":"安平區","LI":"育平里","LIN":"32鄰","STREET":"育平路","SECT":" ","MAREA":" ","LANE":" ","ALLEY":" ","HOUSE_NO":"７０號十一樓之３","E_COORD97":164564.725382,"N_COORD97":2543080.5667500002,"ADDRESS":"育平路７０號十一樓之３","OBJECTID":650447},"geometry":{"x":164564.72538200021,"y":2543080.5667450018}},{"attributes":{"ID":650475,"DIS_CODE":0,"TOWNNAME":"安平區","LI":"育平里","LIN":"32鄰","STREET":"育平路","SECT":" ","MAREA":" ","LANE":" ","ALLEY":" ","HOUSE_NO":"７０號十一樓之５","E_COORD97":164564.725382,"N_COORD97":2543080.5667500002,"ADDRESS":"育平路７０號十一樓之５","OBJECTID":650448},"geometry":{"x":164564.72538200021,"y":2543080.5667450018}},{"attributes":{"ID":650476,"DIS_CODE":0,"TOWNNAME":"安平區","LI":"育平里","LIN":"32鄰","STREET":"育平路","SECT":" ","MAREA":" ","LANE":" ","ALLEY":" ","HOUSE_NO":"７０號十一樓之６","E_COORD97":164564.725382,"N_COORD97":2543080.5667500002,"ADDRESS":"育平路７０號十一樓之６","OBJECTID":650449},"geometry":{"x":164564.72538200021,"y":2543080.5667450018}},{"attributes":{"ID":650477,"DIS_CODE":0,"TOWNNAME":"安平區","LI":"育平里","LIN":"32鄰","STREET":"育平路","SECT":" ","MAREA":" ","LANE":" ","ALLEY":" ","HOUSE_NO":"７０號十一樓之７","E_COORD97":164564.725382,"N_COORD97":2543080.5667500002,"ADDRESS":"育平路７０號十一樓之７","OBJECTID":650450},"geometry":{"x":164564.72538200021,"y":2543080.5667450018}},{"attributes":{"ID":650478,"DIS_CODE":0,"TOWNNAME":"安平區","LI":"育平里","LIN":"32鄰","STREET":"育平路","SECT":" ","MAREA":" ","LANE":" ","ALLEY":" ","HOUSE_NO":"７０號十一樓之８","E_COORD97":164564.725382,"N_COORD97":2543080.5667500002,"ADDRESS":"育平路７０號十一樓之８","OBJECTID":650451},"geometry":{"x":164564.72538200021,"y":2543080.5667450018}},{"attributes":{"ID":650479,"DIS_CODE":0,"TOWNNAME":"安平區","LI":"育平里","LIN":"32鄰","STREET":"育平路","SECT":" ","MAREA":" ","LANE":" ","ALLEY":" ","HOUSE_NO":"７０號十二樓之１","E_COORD97":164564.725382,"N_COORD97":2543080.5667500002,"ADDRESS":"育平路７０號十二樓之１","OBJECTID":650452},"geometry":{"x":164564.72538200021,"y":2543080.5667450018}},{"attributes":{"ID":650480,"DIS_CODE":0,"TOWNNAME":"安平區","LI":"育平里","LIN":"32鄰","STREET":"育平路","SECT":" ","MAREA":" ","LANE":" ","ALLEY":" ","HOUSE_NO":"７０號十二樓之２","E_COORD97":164564.725382,"N_COORD97":2543080.5667500002,"ADDRESS":"育平路７０號十二樓之２","OBJECTID":650453},"geometry":{"x":164564.72538200021,"y":2543080.5667450018}},{"attributes":{"ID":650481,"DIS_CODE":0,"TOWNNAME":"新營區","LI":"新南里","LIN":"15鄰","STREET":"民治路","SECT":" ","MAREA":" ","LANE":" ","ALLEY":" ","HOUSE_NO":"３１０號","E_COORD97":178802.83470000001,"N_COORD97":2578489.7280299999,"ADDRESS":"民治路３１０號","OBJECTID":650454},"geometry":{"x":178802.83469999954,"y":2578489.7280300017}},{"attributes":{"ID":650482,"DIS_CODE":0,"TOWNNAME":"安平區","LI":"育平里","LIN":"32鄰","STREET":"育平路","SECT":" ","MAREA":" ","LANE":" ","ALLEY":" ","HOUSE_NO":"７０號十二樓之３","E_COORD97":164564.725382,"N_COORD97":2543080.5667500002,"ADDRESS":"育平路７０號十二樓之３","OBJECTID":650455},"geometry":{"x":164564.72538200021,"y":2543080.5667450018}},{"attributes":{"ID":650483,"DIS_CODE":0,"TOWNNAME":"安平區","LI":"育平里","LIN":"32鄰","STREET":"育平路","SECT":" ","MAREA":" ","LANE":" ","ALLEY":" ","HOUSE_NO":"７０號十二樓之５","E_COORD97":164564.725382,"N_COORD97":2543080.5667500002,"ADDRESS":"育平路７０號十二樓之５","OBJECTID":650456},"geometry":{"x":164564.72538200021,"y":2543080.5667450018}},{"attributes":{"ID":650484,"DIS_CODE":0,"TOWNNAME":"安平區","LI":"育平里","LIN":"32鄰","STREET":"育平路","SECT":" ","MAREA":" ","LANE":" ","ALLEY":" ","HOUSE_NO":"７０號十二樓之６","E_COORD97":164564.725382,"N_COORD97":2543080.5667500002,"ADDRESS":"育平路７０號十二樓之６","OBJECTID":650457},"geometry":{"x":164564.72538200021,"y":2543080.5667450018}},{"attributes":{"ID":650485,"DIS_CODE":0,"TOWNNAME":"新化區","LI":"護國里","LIN":"8鄰","STREET":"信義路","SECT":" ","MAREA":" ","LANE":" ","ALLEY":" ","HOUSE_NO":"２號之３１（農業資材","E_COORD97":181478.92802699999,"N_COORD97":2548846.0080800001,"ADDRESS":"信義路２號之３１（農業資材室）","OBJECTID":650458},"geometry":{"x":181478.92802700121,"y":2548846.008076001}},{"attributes":{"ID":650486,"DIS_CODE":0,"TOWNNAME":"安平區","LI":"育平里","LIN":"32鄰","STREET":"育平路","SECT":" ","MAREA":" ","LANE":" ","ALLEY":" ","HOUSE_NO":"７０號十二樓之７","E_COORD97":164564.725382,"N_COORD97":2543080.5667500002,"ADDRESS":"育平路７０號十二樓之７","OBJECTID":650459},"geometry":{"x":164564.72538200021,"y":2543080.5667450018}},{"attributes":{"ID":650487,"DIS_CODE":0,"TOWNNAME":"安平區","LI":"育平里","LIN":"32鄰","STREET":"育平路","SECT":" ","MAREA":" ","LANE":" ","ALLEY":" ","HOUSE_NO":"７０號十二樓之８","E_COORD97":164564.725382,"N_COORD97":2543080.5667500002,"ADDRESS":"育平路７０號十二樓之８","OBJECTID":650460},"geometry":{"x":164564.72538200021,"y":2543080.5667450018}},{"attributes":{"ID":650488,"DIS_CODE":0,"TOWNNAME":"安平區","LI":"育平里","LIN":"32鄰","STREET":"育平路","SECT":" ","MAREA":" ","LANE":" ","ALLEY":" ","HOUSE_NO":"７０號十三樓之１","E_COORD97":164564.725382,"N_COORD97":2543080.5667500002,"ADDRESS":"育平路７０號十三樓之１","OBJECTID":650461},"geometry":{"x":164564.72538200021,"y":2543080.5667450018}},{"attributes":{"ID":650489,"DIS_CODE":0,"TOWNNAME":"安平區","LI":"育平里","LIN":"32鄰","STREET":"育平路","SECT":" ","MAREA":" ","LANE":" ","ALLEY":" ","HOUSE_NO":"７０號十三樓之２","E_COORD97":164564.725382,"N_COORD97":2543080.5667500002,"ADDRESS":"育平路７０號十三樓之２","OBJECTID":650462},"geometry":{"x":164564.72538200021,"y":2543080.5667450018}},{"attributes":{"ID":650490,"DIS_CODE":0,"TOWNNAME":"安平區","LI":"育平里","LIN":"32鄰","STREET":"育平路","SECT":" ","MAREA":" ","LANE":" ","ALLEY":" ","HOUSE_NO":"７０號十三樓之３","E_COORD97":164564.725382,"N_COORD97":2543080.5667500002,"ADDRESS":"育平路７０號十三樓之３","OBJECTID":650463},"geometry":{"x":164564.72538200021,"y":2543080.5667450018}},{"attributes":{"ID":650491,"DIS_CODE":0,"TOWNNAME":"安平區","LI":"育平里","LIN":"32鄰","STREET":"育平路","SECT":" ","MAREA":" ","LANE":" ","ALLEY":" ","HOUSE_NO":"７０號十三樓之５","E_COORD97":164564.725382,"N_COORD97":2543080.5667500002,"ADDRESS":"育平路７０號十三樓之５","OBJECTID":650464},"geometry":{"x":164564.72538200021,"y":2543080.5667450018}},{"attributes":{"ID":650492,"DIS_CODE":0,"TOWNNAME":"安平區","LI":"育平里","LIN":"32鄰","STREET":"育平路","SECT":" ","MAREA":" ","LANE":" ","ALLEY":" ","HOUSE_NO":"７０號十三樓之６","E_COORD97":164564.725382,"N_COORD97":2543080.5667500002,"ADDRESS":"育平路７０號十三樓之６","OBJECTID":650465},"geometry":{"x":164564.72538200021,"y":2543080.5667450018}},{"attributes":{"ID":650493,"DIS_CODE":0,"TOWNNAME":"安平區","LI":"育平里","LIN":"32鄰","STREET":"育平路","SECT":" ","MAREA":" ","LANE":" ","ALLEY":" ","HOUSE_NO":"７０號十三樓之７","E_COORD97":164564.725382,"N_COORD97":2543080.5667500002,"ADDRESS":"育平路７０號十三樓之７","OBJECTID":650466},"geometry":{"x":164564.72538200021,"y":2543080.5667450018}},{"attributes":{"ID":650494,"DIS_CODE":0,"TOWNNAME":"安平區","LI":"育平里","LIN":"32鄰","STREET":"育平路","SECT":" ","MAREA":" ","LANE":" ","ALLEY":" ","HOUSE_NO":"７０號十三樓之８","E_COORD97":164564.725382,"N_COORD97":2543080.5667500002,"ADDRESS":"育平路７０號十三樓之８","OBJECTID":650467},"geometry":{"x":164564.72538200021,"y":2543080.5667450018}},{"attributes":{"ID":650495,"DIS_CODE":0,"TOWNNAME":"新營區","LI":"延平里","LIN":"2鄰","STREET":"延平路","SECT":" ","MAREA":" ","LANE":" ","ALLEY":" ","HOUSE_NO":"３６號","E_COORD97":179781.26343699999,"N_COORD97":2577848.0027800002,"ADDRESS":"延平路３６號","OBJECTID":650468},"geometry":{"x":179781.26343700103,"y":2577848.0027799997}},{"attributes":{"ID":650496,"DIS_CODE":0,"TOWNNAME":"仁德區","LI":"二行里","LIN":"11鄰","STREET":"行大街","SECT":" ","MAREA":" ","LANE":"１７２巷","ALLEY":"２８弄","HOUSE_NO":"２之１號","E_COORD97":169959.93906100001,"N_COORD97":2535160.8999299998,"ADDRESS":"行大街１７２巷２８弄２之１號","OBJECTID":650469},"geometry":{"x":169959.93906100094,"y":2535160.8999269996}},{"attributes":{"ID":650497,"DIS_CODE":0,"TOWNNAME":"仁德區","LI":"二行里","LIN":"11鄰","STREET":"行大街","SECT":" ","MAREA":" ","LANE":"１７２巷","ALLEY":"２８弄","HOUSE_NO":"１２號","E_COORD97":169958.349369,"N_COORD97":2535193.8140799999,"ADDRESS":"行大街１７２巷２８弄１２號","OBJECTID":650470},"geometry":{"x":169958.34936900064,"y":2535193.8140760008}},{"attributes":{"ID":650498,"DIS_CODE":0,"TOWNNAME":"新營區","LI":"延平里","LIN":"2鄰","STREET":"延平路","SECT":" ","MAREA":" ","LANE":" ","ALLEY":" ","HOUSE_NO":"４０號","E_COORD97":179779.779974,"N_COORD97":2577840.2769499999,"ADDRESS":"延平路４０號","OBJECTID":650471},"geometry":{"x":179779.7799739996,"y":2577840.2769510001}},{"attributes":{"ID":650499,"DIS_CODE":0,"TOWNNAME":"仁德區","LI":"二行里","LIN":"12鄰","STREET":"行大街","SECT":" ","MAREA":" ","LANE":"１７２巷","ALLEY":"２８弄","HOUSE_NO":"１２號","E_COORD97":169958.349369,"N_COORD97":2535193.8140799999,"ADDRESS":"行大街１７２巷２８弄１２號","OBJECTID":650472},"geometry":{"x":169958.34936900064,"y":2535193.8140760008}},{"attributes":{"ID":650500,"DIS_CODE":0,"TOWNNAME":"中西區","LI":"小西里","LIN":"10鄰","STREET":"西門路","SECT":"一段","MAREA":" ","LANE":"７０２巷","ALLEY":"３弄","HOUSE_NO":"３號","E_COORD97":167772.41422400001,"N_COORD97":2543375.9034299999,"ADDRESS":"西門路一段７０２巷３弄３號","OBJECTID":650473},"geometry":{"x":167772.41422399972,"y":2543375.9034270011}},{"attributes":{"ID":650501,"DIS_CODE":0,"TOWNNAME":"中西區","LI":"小西里","LIN":"10鄰","STREET":"西門路","SECT":"一段","MAREA":" ","LANE":"７０２巷","ALLEY":"３弄","HOUSE_NO":"７號","E_COORD97":167777.28966000001,"N_COORD97":2543390.72009,"ADDRESS":"西門路一段７０２巷３弄７號","OBJECTID":650474},"geometry":{"x":167777.28966000117,"y":2543390.7200860009}},{"attributes":{"ID":650502,"DIS_CODE":0,"TOWNNAME":"新市區","LI":"大社里","LIN":"16鄰","STREET":" ","SECT":" ","MAREA":"大社","LANE":" ","ALLEY":" ","HOUSE_NO":"７１０號","E_COORD97":180092.91679300001,"N_COORD97":2554332.7861000001,"ADDRESS":"大社７１０號","OBJECTID":650475},"geometry":{"x":180092.91679300182,"y":2554332.7860979997}},{"attributes":{"ID":650503,"DIS_CODE":0,"TOWNNAME":"新營區","LI":"延平里","LIN":"2鄰","STREET":"延平路","SECT":" ","MAREA":" ","LANE":" ","ALLEY":" ","HOUSE_NO":"４２號","E_COORD97":179777.87266399999,"N_COORD97":2577824.8252900001,"ADDRESS":"延平路４２號","OBJECTID":650476},"geometry":{"x":179777.87266400084,"y":2577824.8252930008}},{"attributes":{"ID":650504,"DIS_CODE":0,"TOWNNAME":"中西區","LI":"小西里","LIN":"10鄰","STREET":"西門路","SECT":"一段","MAREA":" ","LANE":"７０２巷","ALLEY":"３弄","HOUSE_NO":"９號","E_COORD97":167780.893243,"N_COORD97":2543396.8584199999,"ADDRESS":"西門路一段７０２巷３弄９號","OBJECTID":650477},"geometry":{"x":167780.89324299991,"y":2543396.8584160022}},{"attributes":{"ID":650505,"DIS_CODE":0,"TOWNNAME":"新營區","LI":"新南里","LIN":"16鄰","STREET":"民治路","SECT":" ","MAREA":" ","LANE":" ","ALLEY":" ","HOUSE_NO":"３１６號","E_COORD97":178800.927769,"N_COORD97":2578483.9071999998,"ADDRESS":"民治路３１６號","OBJECTID":650478},"geometry":{"x":178800.92776900157,"y":2578483.9072040003}},{"attributes":{"ID":650506,"DIS_CODE":0,"TOWNNAME":"中西區","LI":"小西里","LIN":"10鄰","STREET":"西門路","SECT":"一段","MAREA":" ","LANE":"７０２巷","ALLEY":"３弄","HOUSE_NO":"６號","E_COORD97":167781.52916899999,"N_COORD97":2543368.0717699998,"ADDRESS":"西門路一段７０２巷３弄６號","OBJECTID":650479},"geometry":{"x":167781.52916900162,"y":2543368.0717650019}},{"attributes":{"ID":650507,"DIS_CODE":0,"TOWNNAME":"中西區","LI":"小西里","LIN":"10鄰","STREET":"西門路","SECT":"一段","MAREA":" ","LANE":"７０２巷","ALLEY":"３弄","HOUSE_NO":"８號","E_COORD97":167791.06806399999,"N_COORD97":2543394.5300799999,"ADDRESS":"西門路一段７０２巷３弄８號","OBJECTID":650480},"geometry":{"x":167791.06806400139,"y":2543394.530083999}},{"attributes":{"ID":650508,"DIS_CODE":0,"TOWNNAME":"仁德區","LI":"二行里","LIN":"12鄰","STREET":"行大街","SECT":" ","MAREA":" ","LANE":"１７２巷","ALLEY":" ","HOUSE_NO":"３２號","E_COORD97":169933.179255,"N_COORD97":2535147.5649299999,"ADDRESS":"行大街１７２巷３２號","OBJECTID":650481},"geometry":{"x":169933.17925500125,"y":2535147.5649340004}},{"attributes":{"ID":650509,"DIS_CODE":0,"TOWNNAME":"後壁區","LI":"頂長里","LIN":"7鄰","STREET":" ","SECT":" ","MAREA":"長短樹","LANE":" ","ALLEY":" ","HOUSE_NO":"１０１號","E_COORD97":181506.62965700001,"N_COORD97":2584367.14696,"ADDRESS":"長短樹１０１號","OBJECTID":650482},"geometry":{"x":181506.62965700123,"y":2584367.146963004}},{"attributes":{"ID":650510,"DIS_CODE":0,"TOWNNAME":"仁德區","LI":"二行里","LIN":"12鄰","STREET":"行大街","SECT":" ","MAREA":" ","LANE":"１７２巷","ALLEY":"４８弄","HOUSE_NO":"５號","E_COORD97":169886.65428700001,"N_COORD97":2535222.0715600001,"ADDRESS":"行大街１７２巷４８弄５號","OBJECTID":650483},"geometry":{"x":169886.65428700112,"y":2535222.0715609994}},{"attributes":{"ID":650511,"DIS_CODE":0,"TOWNNAME":"佳里區","LI":"鎮山里","LIN":"5鄰","STREET":"自由街","SECT":" ","MAREA":" ","LANE":" ","ALLEY":" ","HOUSE_NO":"５１號","E_COORD97":165996.379304,"N_COORD97":2561798.1155099999,"ADDRESS":"自由街５１號","OBJECTID":650484},"geometry":{"x":165996.37930400018,"y":2561798.1155130006}},{"attributes":{"ID":650512,"DIS_CODE":0,"TOWNNAME":"麻豆區","LI":"\u25A0江里","LIN":"12鄰","STREET":"建南街","SECT":" ","MAREA":" ","LANE":" ","ALLEY":" ","HOUSE_NO":"２７１號之１","E_COORD97":173695.870398,"N_COORD97":2564395.1793,"ADDRESS":"建南街２７１號之１","OBJECTID":650485},"geometry":{"x":173695.87039800175,"y":2564395.1792950016}},{"attributes":{"ID":650513,"DIS_CODE":0,"TOWNNAME":"麻豆區","LI":"\u25A0江里","LIN":"12鄰","STREET":"建南街","SECT":" ","MAREA":" ","LANE":" ","ALLEY":" ","HOUSE_NO":"２７１號之２","E_COORD97":173690.78546399999,"N_COORD97":2564393.6976299998,"ADDRESS":"建南街２７１號之２","OBJECTID":650486},"geometry":{"x":173690.78546400089,"y":2564393.6976290047}},{"attributes":{"ID":650514,"DIS_CODE":0,"TOWNNAME":"仁德區","LI":"二行里","LIN":"12鄰","STREET":"行大街","SECT":" ","MAREA":" ","LANE":" ","ALLEY":" ","HOUSE_NO":"１８２號","E_COORD97":169988.05010399999,"N_COORD97":2535101.8449599999,"ADDRESS":"行大街１８２號","OBJECTID":650487},"geometry":{"x":169988.05010400061,"y":2535101.8449590001}},{"attributes":{"ID":650515,"DIS_CODE":0,"TOWNNAME":"麻豆區","LI":"\u25A0江里","LIN":"12鄰","STREET":"建南街","SECT":" ","MAREA":" ","LANE":" ","ALLEY":" ","HOUSE_NO":"２７１號之３","E_COORD97":173686.124274,"N_COORD97":2564392.4276299998,"ADDRESS":"建南街２７１號之３","OBJECTID":650488},"geometry":{"x":173686.12427400053,"y":2564392.4276299998}},{"attributes":{"ID":650516,"DIS_CODE":0,"TOWNNAME":"新化區","LI":"崙頂里","LIN":"7鄰","STREET":" ","SECT":" ","MAREA":"崙子頂","LANE":" ","ALLEY":" ","HOUSE_NO":"２８７號之６８（農業","E_COORD97":176707.94895399999,"N_COORD97":2547396.6073099999,"ADDRESS":"崙子頂２８７號之６８（農業資材室）","OBJECTID":650489},"geometry":{"x":176707.948954002,"y":2547396.6073140018}},{"attributes":{"ID":650517,"DIS_CODE":0,"TOWNNAME":"新市區","LI":"大社里","LIN":"13鄰","STREET":" ","SECT":" ","MAREA":"大社","LANE":" ","ALLEY":" ","HOUSE_NO":"４７３號","E_COORD97":180314.71689000001,"N_COORD97":2555196.8089600001,"ADDRESS":"大社４７３號","OBJECTID":650490},"geometry":{"x":180314.71689000074,"y":2555196.8089649975}},{"attributes":{"ID":650518,"DIS_CODE":0,"TOWNNAME":"新化區","LI":"崙頂里","LIN":"11鄰","STREET":" ","SECT":" ","MAREA":"崙子頂","LANE":" ","ALLEY":" ","HOUSE_NO":"３８３號之５","E_COORD97":176882.21388699999,"N_COORD97":2546885.8030099999,"ADDRESS":"崙子頂３８３號之５","OBJECTID":650491},"geometry":{"x":176882.21388700046,"y":2546885.8030060045}},{"attributes":{"ID":650519,"DIS_CODE":0,"TOWNNAME":"佳里區","LI":"鎮山里","LIN":"6鄰","STREET":" ","SECT":" ","MAREA":"鎮山","LANE":" ","ALLEY":" ","HOUSE_NO":"４６號","E_COORD97":166172.682137,"N_COORD97":2561807.3230099999,"ADDRESS":"鎮山４６號","OBJECTID":650492},"geometry":{"x":166172.68213700037,"y":2561807.3230080009}},{"attributes":{"ID":650520,"DIS_CODE":0,"TOWNNAME":"佳里區","LI":"鎮山里","LIN":"6鄰","STREET":" ","SECT":" ","MAREA":"鎮山","LANE":" ","ALLEY":" ","HOUSE_NO":"４８號","E_COORD97":166178.82730800001,"N_COORD97":2561808.80467,"ADDRESS":"鎮山４８號","OBJECTID":650493},"geometry":{"x":166178.827308001,"y":2561808.8046740014}},{"attributes":{"ID":650521,"DIS_CODE":0,"TOWNNAME":"麻豆區","LI":"\u25A0江里","LIN":"12鄰","STREET":"建南街","SECT":" ","MAREA":" ","LANE":" ","ALLEY":" ","HOUSE_NO":"２７１號之５","E_COORD97":173681.98463600001,"N_COORD97":2564390.8702600002,"ADDRESS":"建南街２７１號之５","OBJECTID":650494},"geometry":{"x":173681.98463600036,"y":2564390.8702559974}},{"attributes":{"ID":650522,"DIS_CODE":0,"TOWNNAME":"新化區","LI":"崙頂里","LIN":"7鄰","STREET":" ","SECT":" ","MAREA":"崙子頂","LANE":" ","ALLEY":" ","HOUSE_NO":"２８６號之１","E_COORD97":176762.50606099999,"N_COORD97":2547128.2670399998,"ADDRESS":"崙子頂２８６號之１","OBJECTID":650495},"geometry":{"x":176762.50606099982,"y":2547128.2670420017}},{"attributes":{"ID":650523,"DIS_CODE":0,"TOWNNAME":"中西區","LI":"小西里","LIN":"16鄰","STREET":"西門路","SECT":"一段","MAREA":" ","LANE":" ","ALLEY":" ","HOUSE_NO":"５９２號","E_COORD97":167744.05895000001,"N_COORD97":2542987.1724,"ADDRESS":"西門路一段５９２號","OBJECTID":650496},"geometry":{"x":167744.05895000137,"y":2542987.1723999996}},{"attributes":{"ID":650524,"DIS_CODE":0,"TOWNNAME":"仁德區","LI":"二行里","LIN":"13鄰","STREET":"行大街","SECT":" ","MAREA":" ","LANE":"１７２巷","ALLEY":"７０弄","HOUSE_NO":"２０號","E_COORD97":169855.257881,"N_COORD97":2535244.61405,"ADDRESS":"行大街１７２巷７０弄２０號","OBJECTID":650497},"geometry":{"x":169855.25788099878,"y":2535244.6140480023}},{"attributes":{"ID":650525,"DIS_CODE":0,"TOWNNAME":"麻豆區","LI":"\u25A0江里","LIN":"12鄰","STREET":"建南街","SECT":" ","MAREA":" ","LANE":" ","ALLEY":" ","HOUSE_NO":"２７１號之６","E_COORD97":173677.95906299999,"N_COORD97":2564390.0235899999,"ADDRESS":"建南街２７１號之６","OBJECTID":650498},"geometry":{"x":173677.95906300005,"y":2564390.0235900003}},{"attributes":{"ID":650526,"DIS_CODE":0,"TOWNNAME":"中西區","LI":"小西里","LIN":"16鄰","STREET":"西門路","SECT":"一段","MAREA":" ","LANE":" ","ALLEY":" ","HOUSE_NO":"５９４號","E_COORD97":167745.753921,"N_COORD97":2542989.9240700002,"ADDRESS":"西門路一段５９４號","OBJECTID":650499},"geometry":{"x":167745.75392100029,"y":2542989.9240659997}},{"attributes":{"ID":650527,"DIS_CODE":0,"TOWNNAME":"麻豆區","LI":"\u25A0江里","LIN":"12鄰","STREET":"建南街","SECT":" ","MAREA":" ","LANE":" ","ALLEY":" ","HOUSE_NO":"２７１號之７","E_COORD97":173673.93349,"N_COORD97":2564388.96526,"ADDRESS":"建南街２７１號之７","OBJECTID":650500},"geometry":{"x":173673.93348999973,"y":2564388.9652570039}},{"attributes":{"ID":650528,"DIS_CODE":0,"TOWNNAME":"麻豆區","LI":"\u25A0江里","LIN":"12鄰","STREET":"建南街","SECT":" ","MAREA":" ","LANE":" ","ALLEY":" ","HOUSE_NO":"２７１號之８","E_COORD97":173673.08600099999,"N_COORD97":2564394.7860900001,"ADDRESS":"建南街２７１號之８","OBJECTID":650501},"geometry":{"x":173673.08600100223,"y":2564394.7860869989}},{"attributes":{"ID":650529,"DIS_CODE":0,"TOWNNAME":"中西區","LI":"小西里","LIN":"16鄰","STREET":"西門路","SECT":"一段","MAREA":" ","LANE":" ","ALLEY":" ","HOUSE_NO":"５９６號","E_COORD97":167756.98308999999,"N_COORD97":2542989.50073,"ADDRESS":"西門路一段５９６號","OBJECTID":650502},"geometry":{"x":167756.98309000023,"y":2542989.5007320009}},{"attributes":{"ID":650530,"DIS_CODE":0,"TOWNNAME":"新市區","LI":"大社里","LIN":"31鄰","STREET":" ","SECT":" ","MAREA":"大社","LANE":" ","ALLEY":" ","HOUSE_NO":"７９之９８號","E_COORD97":180577.826462,"N_COORD97":2553842.1430299999,"ADDRESS":"大社７９之９８號","OBJECTID":650503},"geometry":{"x":180577.82646199968,"y":2553842.1430290043}},{"attributes":{"ID":650531,"DIS_CODE":0,"TOWNNAME":"仁德區","LI":"二行里","LIN":"13鄰","STREET":"行大街","SECT":" ","MAREA":" ","LANE":"１７２巷","ALLEY":" ","HOUSE_NO":"７６號","E_COORD97":169806.348375,"N_COORD97":2535233.9248899999,"ADDRESS":"行大街１７２巷７６號","OBJECTID":650504},"geometry":{"x":169806.34837500099,"y":2535233.9248879999}},{"attributes":{"ID":650532,"DIS_CODE":0,"TOWNNAME":"麻豆區","LI":"\u25A0江里","LIN":"12鄰","STREET":"建南街","SECT":" ","MAREA":" ","LANE":" ","ALLEY":" ","HOUSE_NO":"２７１號之９","E_COORD97":173676.47595699999,"N_COORD97":2564396.6910899999,"ADDRESS":"建南街２７１號之９","OBJECTID":650505},"geometry":{"x":173676.47595700156,"y":2564396.6910860017}},{"attributes":{"ID":650533,"DIS_CODE":0,"TOWNNAME":"麻豆區","LI":"\u25A0江里","LIN":"12鄰","STREET":"建南街","SECT":" ","MAREA":" ","LANE":" ","ALLEY":" ","HOUSE_NO":"２７１號之１０","E_COORD97":173680.07778600001,"N_COORD97":2564397.3260900001,"ADDRESS":"建南街２７１號之１０","OBJECTID":650506},"geometry":{"x":173680.07778600231,"y":2564397.3260860015}},{"attributes":{"ID":650534,"DIS_CODE":0,"TOWNNAME":"新化區","LI":"知義里","LIN":"12鄰","STREET":" ","SECT":" ","MAREA":"口埤","LANE":" ","ALLEY":" ","HOUSE_NO":"１３９號","E_COORD97":182435.89256899999,"N_COORD97":2547258.2445999999,"ADDRESS":"口埤１３９號","OBJECTID":650507},"geometry":{"x":182435.89256900083,"y":2547258.2446000017}},{"attributes":{"ID":650535,"DIS_CODE":0,"TOWNNAME":"麻豆區","LI":"\u25A0江里","LIN":"12鄰","STREET":"建南街","SECT":" ","MAREA":" ","LANE":" ","ALLEY":" ","HOUSE_NO":"２７１號之１１","E_COORD97":173683.46774200001,"N_COORD97":2564399.65442,"ADDRESS":"建南街２７１號之１１","OBJECTID":650508},"geometry":{"x":173683.46774200164,"y":2564399.654418001}},{"attributes":{"ID":650536,"DIS_CODE":0,"TOWNNAME":"佳里區","LI":"鎮山里","LIN":"6鄰","STREET":" ","SECT":" ","MAREA":"鎮山","LANE":" ","ALLEY":" ","HOUSE_NO":"４０號之１","E_COORD97":166151.70379500001,"N_COORD97":2561909.8754500002,"ADDRESS":"鎮山４０號之１","OBJECTID":650509},"geometry":{"x":166151.70379499998,"y":2561909.875452999}},{"attributes":{"ID":650537,"DIS_CODE":0,"TOWNNAME":"麻豆區","LI":"\u25A0江里","LIN":"12鄰","STREET":"建南街","SECT":" ","MAREA":" ","LANE":" ","ALLEY":" ","HOUSE_NO":"２７１號之１２","E_COORD97":173687.917059,"N_COORD97":2564400.9244200001,"ADDRESS":"建南街２７１號之１２","OBJECTID":650510},"geometry":{"x":173687.91705900058,"y":2564400.9244170003}},{"attributes":{"ID":650538,"DIS_CODE":0,"TOWNNAME":"麻豆區","LI":"\u25A0江里","LIN":"12鄰","STREET":"建南街","SECT":" ","MAREA":" ","LANE":" ","ALLEY":" ","HOUSE_NO":"２７１號之１３","E_COORD97":173692.57824900001,"N_COORD97":2564401.7710799999,"ADDRESS":"建南街２７１號之１３","OBJECTID":650511},"geometry":{"x":173692.57824899908,"y":2564401.7710840013}},{"attributes":{"ID":650539,"DIS_CODE":0,"TOWNNAME":"麻豆區","LI":"\u25A0江里","LIN":"12鄰","STREET":"建南街","SECT":" ","MAREA":" ","LANE":" ","ALLEY":" ","HOUSE_NO":"２７１號之１５","E_COORD97":173697.87505599999,"N_COORD97":2564402.8294199998,"ADDRESS":"建南街２７１號之１５","OBJECTID":650512},"geometry":{"x":173697.87505600136,"y":2564402.8294159994}},{"attributes":{"ID":650540,"DIS_CODE":0,"TOWNNAME":"麻豆區","LI":"\u25A0江里","LIN":"12鄰","STREET":"建南街","SECT":" ","MAREA":" ","LANE":" ","ALLEY":" ","HOUSE_NO":"２７１號之１６","E_COORD97":173704.23122300001,"N_COORD97":2564403.8877500002,"ADDRESS":"建南街２７１號之１６","OBJECTID":650513},"geometry":{"x":173704.23122300114,"y":2564403.8877490032}},{"attributes":{"ID":650541,"DIS_CODE":0,"TOWNNAME":"後壁區","LI":"平安里","LIN":"4鄰","STREET":" ","SECT":" ","MAREA":"葯店口","LANE":" ","ALLEY":" ","HOUSE_NO":"５５之２００號","E_COORD97":183470.20101799999,"N_COORD97":2584020.3776500002,"ADDRESS":"葯店口５５之２００號","OBJECTID":650514},"geometry":{"x":183470.20101800002,"y":2584020.3776490018}},{"attributes":{"ID":650542,"DIS_CODE":0,"TOWNNAME":"後壁區","LI":"土溝里","LIN":"4鄰","STREET":" ","SECT":" ","MAREA":"土溝","LANE":" ","ALLEY":" ","HOUSE_NO":"３４號之３","E_COORD97":187203.68146699999,"N_COORD97":2585729.8613,"ADDRESS":"土溝３４號之３","OBJECTID":650515},"geometry":{"x":187203.68146700133,"y":2585729.8612980004}},{"attributes":{"ID":650543,"DIS_CODE":0,"TOWNNAME":"後壁區","LI":"土溝里","LIN":"4鄰","STREET":" ","SECT":" ","MAREA":"土溝","LANE":" ","ALLEY":" ","HOUSE_NO":"３４號之２","E_COORD97":187216.60445799999,"N_COORD97":2585745.3129599998,"ADDRESS":"土溝３４號之２","OBJECTID":650516},"geometry":{"x":187216.60445799958,"y":2585745.3129559997}},{"attributes":{"ID":650544,"DIS_CODE":0,"TOWNNAME":"玉井區","LI":"玉田里","LIN":"7鄰","STREET":"民族路","SECT":" ","MAREA":" ","LANE":" ","ALLEY":" ","HOUSE_NO":"２６號","E_COORD97":195000.095676,"N_COORD97":2558095.8593899999,"ADDRESS":"民族路２６號","OBJECTID":650517},"geometry":{"x":195000.09567600116,"y":2558095.8593880013}},{"attributes":{"ID":650545,"DIS_CODE":0,"TOWNNAME":"新市區","LI":"大社里","LIN":"31鄰","STREET":" ","SECT":" ","MAREA":"大社","LANE":" ","ALLEY":" ","HOUSE_NO":"７９之１００號","E_COORD97":180587.147574,"N_COORD97":2553841.29636,"ADDRESS":"大社７９之１００號","OBJECTID":650518},"geometry":{"x":180587.14757400006,"y":2553841.2963630017}},{"attributes":{"ID":650546,"DIS_CODE":0,"TOWNNAME":"玉井區","LI":"玉田里","LIN":"6鄰","STREET":"民族路","SECT":" ","MAREA":" ","LANE":" ","ALLEY":" ","HOUSE_NO":"３１號","E_COORD97":195013.44683999999,"N_COORD97":2558110.4643799998,"ADDRESS":"民族路３１號","OBJECTID":650519},"geometry":{"x":195013.44684000127,"y":2558110.4643800035}},{"attributes":{"ID":650547,"DIS_CODE":0,"TOWNNAME":"新營區","LI":"埤寮里","LIN":"2鄰","STREET":" ","SECT":" ","MAREA":"許丑","LANE":" ","ALLEY":" ","HOUSE_NO":"１８號","E_COORD97":179956.54228200001,"N_COORD97":2581045.7764699999,"ADDRESS":"許丑１８號","OBJECTID":650520},"geometry":{"x":179956.54228200205,"y":2581045.7764710002}},{"attributes":{"ID":650548,"DIS_CODE":0,"TOWNNAME":"山上區","LI":"山上里","LIN":"1鄰","STREET":" ","SECT":" ","MAREA":"山上","LANE":" ","ALLEY":" ","HOUSE_NO":"３８號","E_COORD97":184204.59936399999,"N_COORD97":2555409.1573899998,"ADDRESS":"山上３８號","OBJECTID":650521},"geometry":{"x":184204.59936400037,"y":2555409.157385001}},{"attributes":{"ID":650549,"DIS_CODE":0,"TOWNNAME":"新營區","LI":"埤寮里","LIN":"2鄰","STREET":" ","SECT":" ","MAREA":"許丑","LANE":" ","ALLEY":" ","HOUSE_NO":"１７號","E_COORD97":179968.197744,"N_COORD97":2581037.30981,"ADDRESS":"許丑１７號","OBJECTID":650522},"geometry":{"x":179968.1977440007,"y":2581037.3098089993}},{"attributes":{"ID":650550,"DIS_CODE":0,"TOWNNAME":"新營區","LI":"埤寮里","LIN":"2鄰","STREET":" ","SECT":" ","MAREA":"許丑","LANE":" ","ALLEY":" ","HOUSE_NO":"１７之１號","E_COORD97":179967.98582599999,"N_COORD97":2581033.0764799998,"ADDRESS":"許丑１７之１號","OBJECTID":650523},"geometry":{"x":179967.9858260015,"y":2581033.0764780026}},{"attributes":{"ID":650551,"DIS_CODE":0,"TOWNNAME":"新營區","LI":"埤寮里","LIN":"2鄰","STREET":" ","SECT":" ","MAREA":"許丑","LANE":" ","ALLEY":" ","HOUSE_NO":"１７之２號","E_COORD97":179967.77390900001,"N_COORD97":2581028.8431500001,"ADDRESS":"許丑１７之２號","OBJECTID":650524},"geometry":{"x":179967.77390899882,"y":2581028.8431470003}},{"attributes":{"ID":650552,"DIS_CODE":0,"TOWNNAME":"山上區","LI":"平陽里","LIN":"2鄰","STREET":" ","SECT":" ","MAREA":"石子崎","LANE":" ","ALLEY":" ","HOUSE_NO":"２２號之１","E_COORD97":186534.83997,"N_COORD97":2553920.9196799998,"ADDRESS":"石子崎２２號之１","OBJECTID":650525},"geometry":{"x":186534.83997000102,"y":2553920.9196750019}},{"attributes":{"ID":650553,"DIS_CODE":0,"TOWNNAME":"玉井區","LI":"玉田里","LIN":"35鄰","STREET":"民族路","SECT":" ","MAREA":" ","LANE":"１７９巷","ALLEY":" ","HOUSE_NO":"２２號","E_COORD97":195452.675965,"N_COORD97":2558159.0831300002,"ADDRESS":"民族路１７９巷２２號","OBJECTID":650526},"geometry":{"x":195452.67596500181,"y":2558159.0831260011}},{"attributes":{"ID":650554,"DIS_CODE":0,"TOWNNAME":"新化區","LI":"崙頂里","LIN":"1鄰","STREET":" ","SECT":" ","MAREA":"崙子頂","LANE":" ","ALLEY":" ","HOUSE_NO":"１號之４８","E_COORD97":177434.94953799999,"N_COORD97":2546863.7697700001,"ADDRESS":"崙子頂１號之４８","OBJECTID":650527},"geometry":{"x":177434.94953800179,"y":2546863.7697750013}},{"attributes":{"ID":650555,"DIS_CODE":0,"TOWNNAME":"新化區","LI":"崙頂里","LIN":"1鄰","STREET":" ","SECT":" ","MAREA":"崙子頂","LANE":" ","ALLEY":" ","HOUSE_NO":"３５號之１","E_COORD97":177021.73019500001,"N_COORD97":2546555.2201899998,"ADDRESS":"崙子頂３５號之１","OBJECTID":650528},"geometry":{"x":177021.7301950017,"y":2546555.2201930005}},{"attributes":{"ID":650556,"DIS_CODE":0,"TOWNNAME":"新市區","LI":"大社里","LIN":"1鄰","STREET":" ","SECT":" ","MAREA":"大社","LANE":" ","ALLEY":" ","HOUSE_NO":"７５號","E_COORD97":180529.32466300001,"N_COORD97":2554322.9939299999,"ADDRESS":"大社７５號","OBJECTID":650529},"geometry":{"x":180529.32466300018,"y":2554322.9939340018}},{"attributes":{"ID":650557,"DIS_CODE":0,"TOWNNAME":"山上區","LI":"山上里","LIN":"2鄰","STREET":" ","SECT":" ","MAREA":"山上","LANE":" ","ALLEY":" ","HOUSE_NO":"１８號","E_COORD97":184239.769356,"N_COORD97":2555250.24865,"ADDRESS":"山上１８號","OBJECTID":650530},"geometry":{"x":184239.76935600024,"y":2555250.2486460004}},{"attributes":{"ID":650558,"DIS_CODE":0,"TOWNNAME":"新化區","LI":"崙頂里","LIN":"5鄰","STREET":" ","SECT":" ","MAREA":"崙子頂","LANE":" ","ALLEY":" ","HOUSE_NO":"１８８號之１（農業資","E_COORD97":176562.11082,"N_COORD97":2546903.1625399999,"ADDRESS":"崙子頂１８８號之１","OBJECTID":650531},"geometry":{"x":176562.11082000006,"y":2546903.1625399999}},{"attributes":{"ID":650559,"DIS_CODE":0,"TOWNNAME":"新化區","LI":"崙頂里","LIN":"1鄰","STREET":" ","SECT":" ","MAREA":"崙子頂","LANE":" ","ALLEY":" ","HOUSE_NO":"１號之１３０","E_COORD97":177345.751318,"N_COORD97":2546787.99315,"ADDRESS":"崙子頂１號之１３０","OBJECTID":650532},"geometry":{"x":177345.75131800026,"y":2546787.9931490049}},{"attributes":{"ID":650560,"DIS_CODE":0,"TOWNNAME":"山上區","LI":"山上里","LIN":"2鄰","STREET":" ","SECT":" ","MAREA":"山上","LANE":" ","ALLEY":" ","HOUSE_NO":"３４號","E_COORD97":184223.243697,"N_COORD97":2555276.7069600001,"ADDRESS":"山上３４號","OBJECTID":650533},"geometry":{"x":184223.24369699974,"y":2555276.7069649994}},{"attributes":{"ID":650561,"DIS_CODE":0,"TOWNNAME":"新市區","LI":"大社里","LIN":"19鄰","STREET":" ","SECT":" ","MAREA":"大社","LANE":" ","ALLEY":" ","HOUSE_NO":"７６５號","E_COORD97":179964.539659,"N_COORD97":2554150.6418599999,"ADDRESS":"大社７６５號","OBJECTID":650534},"geometry":{"x":179964.53965900093,"y":2554150.6418580022}},{"attributes":{"ID":650562,"DIS_CODE":0,"TOWNNAME":"新化區","LI":"知義里","LIN":"11鄰","STREET":"中興路","SECT":" ","MAREA":" ","LANE":" ","ALLEY":" ","HOUSE_NO":"１２１號２８","E_COORD97":181781.25036800001,"N_COORD97":2547302.6885600002,"ADDRESS":"中興路１２１號２８","OBJECTID":650535},"geometry":{"x":181781.25036800187,"y":2547302.6885640007}},{"attributes":{"ID":650563,"DIS_CODE":0,"TOWNNAME":"新化區","LI":"崙頂里","LIN":"7鄰","STREET":" ","SECT":" ","MAREA":"崙子頂","LANE":" ","ALLEY":" ","HOUSE_NO":"２９５號之１","E_COORD97":176793.52095999999,"N_COORD97":2547104.7977300002,"ADDRESS":"崙子頂２９５號之１","OBJECTID":650536},"geometry":{"x":176793.52096000127,"y":2547104.7977270037}},{"attributes":{"ID":650564,"DIS_CODE":0,"TOWNNAME":"新市區","LI":"大社里","LIN":"22鄰","STREET":" ","SECT":" ","MAREA":"大社","LANE":" ","ALLEY":" ","HOUSE_NO":"８２５號","E_COORD97":179778.96479200001,"N_COORD97":2554196.1501699998,"ADDRESS":"大社８２５號","OBJECTID":650537},"geometry":{"x":179778.96479200106,"y":2554196.1501659974}},{"attributes":{"ID":650565,"DIS_CODE":0,"TOWNNAME":"玉井區","LI":"玉田里","LIN":"39鄰","STREET":"中山路","SECT":" ","MAREA":" ","LANE":" ","ALLEY":" ","HOUSE_NO":"１２號","E_COORD97":194646.52490700001,"N_COORD97":2557625.1479099998,"ADDRESS":"中山路１２號","OBJECTID":650538},"geometry":{"x":194646.52490700223,"y":2557625.1479090024}},{"attributes":{"ID":650566,"DIS_CODE":0,"TOWNNAME":"官田區","LI":"隆田里","LIN":"7鄰","STREET":"勝利路","SECT":" ","MAREA":" ","LANE":" ","ALLEY":" ","HOUSE_NO":"１５號","E_COORD97":179911.47453599999,"N_COORD97":2565870.4648899999,"ADDRESS":"勝利路１５號","OBJECTID":650539},"geometry":{"x":179911.47453600168,"y":2565870.4648860022}},{"attributes":{"ID":650567,"DIS_CODE":0,"TOWNNAME":"七股區","LI":"大埕里","LIN":"6鄰","STREET":" ","SECT":" ","MAREA":"大埕","LANE":" ","ALLEY":" ","HOUSE_NO":"２６７號","E_COORD97":162130.167285,"N_COORD97":2560545.1707799998,"ADDRESS":"大埕２６７號","OBJECTID":650540},"geometry":{"x":162130.16728500091,"y":2560545.170784004}},{"attributes":{"ID":650568,"DIS_CODE":0,"TOWNNAME":"新市區","LI":"大社里","LIN":"21鄰","STREET":" ","SECT":" ","MAREA":"大社","LANE":" ","ALLEY":" ","HOUSE_NO":"８３３號","E_COORD97":179780.65953899999,"N_COORD97":2554149.79519,"ADDRESS":"大社８３３號","OBJECTID":650541},"geometry":{"x":179780.65953900199,"y":2554149.7951910011}},{"attributes":{"ID":650569,"DIS_CODE":0,"TOWNNAME":"七股區","LI":"大埕里","LIN":"6鄰","STREET":" ","SECT":" ","MAREA":"大埕","LANE":" ","ALLEY":" ","HOUSE_NO":"２６４號","E_COORD97":162153.644225,"N_COORD97":2560532.8941199998,"ADDRESS":"大埕２６４號","OBJECTID":650542},"geometry":{"x":162153.64422500227,"y":2560532.8941239994}},{"attributes":{"ID":650570,"DIS_CODE":0,"TOWNNAME":"官田區","LI":"隆田里","LIN":"7鄰","STREET":"勝利路","SECT":" ","MAREA":" ","LANE":" ","ALLEY":" ","HOUSE_NO":"１７號","E_COORD97":179912.11013799999,"N_COORD97":2565871.5496800002,"ADDRESS":"勝利路１７號","OBJECTID":650543},"geometry":{"x":179912.11013800092,"y":2565871.5496770013}},{"attributes":{"ID":650571,"DIS_CODE":0,"TOWNNAME":"新市區","LI":"大社里","LIN":"22鄰","STREET":" ","SECT":" ","MAREA":"大社","LANE":" ","ALLEY":" ","HOUSE_NO":"８３９號","E_COORD97":179754.39095100001,"N_COORD97":2554160.5901899999,"ADDRESS":"大社８３９號","OBJECTID":650544},"geometry":{"x":179754.39095100109,"y":2554160.5901859999}},{"attributes":{"ID":650572,"DIS_CODE":0,"TOWNNAME":"佳里區","LI":"鎮山里","LIN":"7鄰","STREET":" ","SECT":" ","MAREA":"鎮山","LANE":" ","ALLEY":" ","HOUSE_NO":"５８號","E_COORD97":166229.78320000001,"N_COORD97":2561694.21263,"ADDRESS":"鎮山５８號","OBJECTID":650545},"geometry":{"x":166229.78320000134,"y":2561694.2126340009}},{"attributes":{"ID":650573,"DIS_CODE":0,"TOWNNAME":"新市區","LI":"大社里","LIN":"23鄰","STREET":" ","SECT":" ","MAREA":"大社","LANE":" ","ALLEY":" ","HOUSE_NO":"８４３號","E_COORD97":179727.27498799999,"N_COORD97":2554204.8284999998,"ADDRESS":"大社８４３號","OBJECTID":650546},"geometry":{"x":179727.27498800121,"y":2554204.8284949996}},{"attributes":{"ID":650574,"DIS_CODE":0,"TOWNNAME":"玉井區","LI":"玉田里","LIN":"6鄰","STREET":"民生路","SECT":" ","MAREA":" ","LANE":" ","ALLEY":" ","HOUSE_NO":"３６２號","E_COORD97":195139.45858599999,"N_COORD97":2558147.0117899999,"ADDRESS":"民生路３６２號","OBJECTID":650547},"geometry":{"x":195139.45858599991,"y":2558147.0117940027}},{"attributes":{"ID":650575,"DIS_CODE":0,"TOWNNAME":"新市區","LI":"大社里","LIN":"23鄰","STREET":" ","SECT":" ","MAREA":"大社","LANE":" ","ALLEY":" ","HOUSE_NO":"８４９號","E_COORD97":179674.359321,"N_COORD97":2554193.2423399999,"ADDRESS":"大社８４９號","OBJECTID":650548},"geometry":{"x":179674.35932100099,"y":2554193.2423370015}},{"attributes":{"ID":650576,"DIS_CODE":0,"TOWNNAME":"新市區","LI":"大社里","LIN":"23鄰","STREET":" ","SECT":" ","MAREA":"大社","LANE":" ","ALLEY":" ","HOUSE_NO":"８６４號","E_COORD97":179745.962409,"N_COORD97":2554094.81739,"ADDRESS":"大社８６４號","OBJECTID":650549},"geometry":{"x":179745.96240899991,"y":2554094.8173900004}},{"attributes":{"ID":650577,"DIS_CODE":0,"TOWNNAME":"新化區","LI":"崙頂里","LIN":"7鄰","STREET":" ","SECT":" ","MAREA":"崙子頂","LANE":" ","ALLEY":" ","HOUSE_NO":"２９５號之２","E_COORD97":176798.182149,"N_COORD97":2547105.1152300001,"ADDRESS":"崙子頂２９５號之２","OBJECTID":650550},"geometry":{"x":176798.18214900047,"y":2547105.1152270008}},{"attributes":{"ID":650578,"DIS_CODE":0,"TOWNNAME":"後壁區","LI":"新嘉里","LIN":"21鄰","STREET":" ","SECT":" ","MAREA":"白沙屯","LANE":" ","ALLEY":" ","HOUSE_NO":"２３３號之２","E_COORD97":179457.171462,"N_COORD97":2585545.8728299998,"ADDRESS":"白沙屯２３３號之２","OBJECTID":650551},"geometry":{"x":179457.17146200035,"y":2585545.8728310019}},{"attributes":{"ID":650579,"DIS_CODE":0,"TOWNNAME":"後壁區","LI":"土溝里","LIN":"11鄰","STREET":" ","SECT":" ","MAREA":"土溝","LANE":" ","ALLEY":" ","HOUSE_NO":"１０７號之２","E_COORD97":187547.72961899999,"N_COORD97":2585764.7862800001,"ADDRESS":"土溝１０７號之２","OBJECTID":650552},"geometry":{"x":187547.72961900011,"y":2585764.7862790041}},{"attributes":{"ID":650580,"DIS_CODE":0,"TOWNNAME":"後壁區","LI":"土溝里","LIN":"11鄰","STREET":" ","SECT":" ","MAREA":"土溝","LANE":" ","ALLEY":" ","HOUSE_NO":"１０３號之２","E_COORD97":187579.29561299999,"N_COORD97":2585724.99297,"ADDRESS":"土溝１０３號之２","OBJECTID":650553},"geometry":{"x":187579.29561300017,"y":2585724.9929670021}},{"attributes":{"ID":650581,"DIS_CODE":0,"TOWNNAME":"新市區","LI":"大社里","LIN":"24鄰","STREET":" ","SECT":" ","MAREA":"大社","LANE":" ","ALLEY":" ","HOUSE_NO":"８７５號","E_COORD97":179622.98728299999,"N_COORD97":2554044.75825,"ADDRESS":"大社８７５號","OBJECTID":650554},"geometry":{"x":179622.98728299979,"y":2554044.7582510002}},{"attributes":{"ID":650582,"DIS_CODE":0,"TOWNNAME":"佳里區","LI":"鎮山里","LIN":"7鄰","STREET":" ","SECT":" ","MAREA":"鎮山","LANE":" ","ALLEY":" ","HOUSE_NO":"６０號","E_COORD97":166121.863912,"N_COORD97":2561736.3705500001,"ADDRESS":"鎮山６０號","OBJECTID":650555},"geometry":{"x":166121.86391200032,"y":2561736.3705550004}},{"attributes":{"ID":650583,"DIS_CODE":0,"TOWNNAME":"官田區","LI":"隆田里","LIN":"9鄰","STREET":"大同街","SECT":" ","MAREA":" ","LANE":" ","ALLEY":" ","HOUSE_NO":"５５號","E_COORD97":180072.229016,"N_COORD97":2565908.7236199998,"ADDRESS":"大同街５５號","OBJECTID":650556},"geometry":{"x":180072.2290160004,"y":2565908.7236160021}},{"attributes":{"ID":650584,"DIS_CODE":0,"TOWNNAME":"新市區","LI":"大社里","LIN":"24鄰","STREET":" ","SECT":" ","MAREA":"大社","LANE":" ","ALLEY":" ","HOUSE_NO":"８７７號","E_COORD97":179642.90056800001,"N_COORD97":2553945.9099699999,"ADDRESS":"大社８７７號","OBJECTID":650557},"geometry":{"x":179642.90056800004,"y":2553945.9099710006}},{"attributes":{"ID":650585,"DIS_CODE":0,"TOWNNAME":"新市區","LI":"大社里","LIN":"24鄰","STREET":" ","SECT":" ","MAREA":"大社","LANE":" ","ALLEY":" ","HOUSE_NO":"８８４之５號","E_COORD97":179766.617146,"N_COORD97":2554000.51994,"ADDRESS":"大社８８４之５號","OBJECTID":650558},"geometry":{"x":179766.61714600027,"y":2554000.5199410003}},{"attributes":{"ID":650586,"DIS_CODE":0,"TOWNNAME":"新市區","LI":"大社里","LIN":"25鄰","STREET":" ","SECT":" ","MAREA":"大社","LANE":" ","ALLEY":" ","HOUSE_NO":"９０４號","E_COORD97":179877.19943000001,"N_COORD97":2554072.2749000001,"ADDRESS":"大社９０４號","OBJECTID":650559},"geometry":{"x":179877.19943000097,"y":2554072.2749030013}},{"attributes":{"ID":650587,"DIS_CODE":0,"TOWNNAME":"新市區","LI":"大社里","LIN":"25鄰","STREET":" ","SECT":" ","MAREA":"大社","LANE":" ","ALLEY":" ","HOUSE_NO":"９０８號","E_COORD97":179889.48634999999,"N_COORD97":2554120.5348800002,"ADDRESS":"大社９０８號","OBJECTID":650560},"geometry":{"x":179889.48635000084,"y":2554120.534876002}},{"attributes":{"ID":650588,"DIS_CODE":0,"TOWNNAME":"新市區","LI":"大社里","LIN":"25鄰","STREET":" ","SECT":" ","MAREA":"大社","LANE":" ","ALLEY":" ","HOUSE_NO":"９１２號","E_COORD97":179954.310448,"N_COORD97":2554122.43988,"ADDRESS":"大社９１２號","OBJECTID":650561},"geometry":{"x":179954.31044799928,"y":2554122.439875003}},{"attributes":{"ID":650589,"DIS_CODE":0,"TOWNNAME":"新市區","LI":"大社里","LIN":"30鄰","STREET":" ","SECT":" ","MAREA":"大社","LANE":" ","ALLEY":" ","HOUSE_NO":"９２４之３號","E_COORD97":179953.52379899999,"N_COORD97":2553874.51767,"ADDRESS":"大社９２４之３號","OBJECTID":650562},"geometry":{"x":179953.52379900031,"y":2553874.5176679995}},{"attributes":{"ID":650590,"DIS_CODE":0,"TOWNNAME":"新市區","LI":"大社里","LIN":"30鄰","STREET":" ","SECT":" ","MAREA":"大社","LANE":" ","ALLEY":" ","HOUSE_NO":"９２４之５號","E_COORD97":179929.16180100001,"N_COORD97":2553872.18934,"ADDRESS":"大社９２４之５號","OBJECTID":650563},"geometry":{"x":179929.16180100013,"y":2553872.1893360019}},{"attributes":{"ID":650591,"DIS_CODE":0,"TOWNNAME":"新市區","LI":"大社里","LIN":"30鄰","STREET":" ","SECT":" ","MAREA":"大社","LANE":" ","ALLEY":" ","HOUSE_NO":"９２４之１０號","E_COORD97":179854.96104299999,"N_COORD97":2553864.1460099998,"ADDRESS":"大社９２４之１０號","OBJECTID":650564},"geometry":{"x":179854.96104300115,"y":2553864.1460069995}},{"attributes":{"ID":650592,"DIS_CODE":0,"TOWNNAME":"新市區","LI":"大社里","LIN":"30鄰","STREET":" ","SECT":" ","MAREA":"大社","LANE":" ","ALLEY":" ","HOUSE_NO":"９２４之９號","E_COORD97":179861.31634700001,"N_COORD97":2553870.91934,"ADDRESS":"大社９２４之９號","OBJECTID":650565},"geometry":{"x":179861.31634700112,"y":2553870.9193370026}},{"attributes":{"ID":650593,"DIS_CODE":0,"TOWNNAME":"中西區","LI":"普濟里","LIN":"13鄰","STREET":"郡緯街","SECT":" ","MAREA":" ","LANE":" ","ALLEY":" ","HOUSE_NO":"８２號","E_COORD97":167876.339431,"N_COORD97":2544423.3927799999,"ADDRESS":"郡緯街８２號","OBJECTID":650566},"geometry":{"x":167876.33943100087,"y":2544423.3927830029}},{"attributes":{"ID":650594,"DIS_CODE":0,"TOWNNAME":"新市區","LI":"大社里","LIN":"28鄰","STREET":" ","SECT":" ","MAREA":"大社","LANE":" ","ALLEY":" ","HOUSE_NO":"９２６之１號","E_COORD97":180035.66351099999,"N_COORD97":2554096.76755,"ADDRESS":"大社９２６之１號","OBJECTID":650567},"geometry":{"x":180035.66351100057,"y":2554096.7675480023}},{"attributes":{"ID":650595,"DIS_CODE":0,"TOWNNAME":"新市區","LI":"大社里","LIN":"30鄰","STREET":" ","SECT":" ","MAREA":"大社","LANE":" ","ALLEY":" ","HOUSE_NO":"９７９號","E_COORD97":180220.17916,"N_COORD97":2553903.5159900002,"ADDRESS":"大社９７９號","OBJECTID":650568},"geometry":{"x":180220.17916000076,"y":2553903.515986003}},{"attributes":{"ID":650596,"DIS_CODE":0,"TOWNNAME":"新市區","LI":"大社里","LIN":"3鄰","STREET":" ","SECT":" ","MAREA":"大社","LANE":" ","ALLEY":" ","HOUSE_NO":"９７號","E_COORD97":180290.511188,"N_COORD97":2554395.0057199998,"ADDRESS":"大社９７號","OBJECTID":650569},"geometry":{"x":180290.51118800044,"y":2554395.0057209991}},{"attributes":{"ID":650597,"DIS_CODE":0,"TOWNNAME":"仁德區","LI":"後壁里","LIN":"1鄰","STREET":"民安路","SECT":"二段","MAREA":" ","LANE":" ","ALLEY":" ","HOUSE_NO":"８號","E_COORD97":173329.22049499999,"N_COORD97":2539279.65472,"ADDRESS":"民安路二段８號","OBJECTID":650570},"geometry":{"x":173329.22049499955,"y":2539279.6547250021}},{"attributes":{"ID":650598,"DIS_CODE":0,"TOWNNAME":"仁德區","LI":"後壁里","LIN":"1鄰","STREET":"民安路","SECT":"二段","MAREA":" ","LANE":" ","ALLEY":" ","HOUSE_NO":"８之１號","E_COORD97":173332.29164700001,"N_COORD97":2539274.57473,"ADDRESS":"民安路二段８之１號","OBJECTID":650571},"geometry":{"x":173332.29164700117,"y":2539274.5747280028}},{"attributes":{"ID":650599,"DIS_CODE":0,"TOWNNAME":"仁德區","LI":"後壁里","LIN":"1鄰","STREET":"民安路","SECT":"二段","MAREA":" ","LANE":" ","ALLEY":" ","HOUSE_NO":"８之２號","E_COORD97":173315.66506500001,"N_COORD97":2539259.75807,"ADDRESS":"民安路二段８之２號","OBJECTID":650572},"geometry":{"x":173315.66506499983,"y":2539259.7580690011}},{"attributes":{"ID":650600,"DIS_CODE":0,"TOWNNAME":"新市區","LI":"大社里","LIN":"3鄰","STREET":" ","SECT":" ","MAREA":"大社","LANE":" ","ALLEY":" ","HOUSE_NO":"１０５號","E_COORD97":180273.987398,"N_COORD97":2554375.5323999999,"ADDRESS":"大社１０５號","OBJECTID":650573},"geometry":{"x":180273.98739800043,"y":2554375.5323980004}},{"attributes":{"ID":650601,"DIS_CODE":0,"TOWNNAME":"仁德區","LI":"後壁里","LIN":"1鄰","STREET":"民安路","SECT":"二段","MAREA":" ","LANE":" ","ALLEY":" ","HOUSE_NO":"８之３號","E_COORD97":173309.31095700001,"N_COORD97":2539254.88974,"ADDRESS":"民安路二段８之３號","OBJECTID":650574},"geometry":{"x":173309.31095699966,"y":2539254.889739003}},{"attributes":{"ID":650602,"DIS_CODE":0,"TOWNNAME":"仁德區","LI":"後壁里","LIN":"1鄰","STREET":"民安路","SECT":"二段","MAREA":" ","LANE":" ","ALLEY":" ","HOUSE_NO":"８之５號","E_COORD97":173316.72408300001,"N_COORD97":2539247.2697399999,"ADDRESS":"民安路二段８之５號","OBJECTID":650575},"geometry":{"x":173316.72408300079,"y":2539247.2697429992}},{"attributes":{"ID":650603,"DIS_CODE":0,"TOWNNAME":"新市區","LI":"大社里","LIN":"2鄰","STREET":" ","SECT":" ","MAREA":"大社","LANE":" ","ALLEY":" ","HOUSE_NO":"１１３號","E_COORD97":180356.18265900001,"N_COORD97":2554346.9574099998,"ADDRESS":"大社１１３號","OBJECTID":650576},"geometry":{"x":180356.18265900016,"y":2554346.957413001}},{"attributes":{"ID":650604,"DIS_CODE":0,"TOWNNAME":"仁德區","LI":"後壁里","LIN":"1鄰","STREET":"民安路","SECT":"二段","MAREA":" ","LANE":" ","ALLEY":" ","HOUSE_NO":"８之６號","E_COORD97":173322.44278000001,"N_COORD97":2539252.1380699999,"ADDRESS":"民安路二段８之６號","OBJECTID":650577},"geometry":{"x":173322.44278000109,"y":2539252.1380740013}},{"attributes":{"ID":650605,"DIS_CODE":0,"TOWNNAME":"仁德區","LI":"後壁里","LIN":"1鄰","STREET":"民安路","SECT":"二段","MAREA":" ","LANE":" ","ALLEY":" ","HOUSE_NO":"８之７號","E_COORD97":173339.916577,"N_COORD97":2539265.6847299999,"ADDRESS":"民安路二段８之７號","OBJECTID":650578},"geometry":{"x":173339.9165770011,"y":2539265.6847329997}},{"attributes":{"ID":650606,"DIS_CODE":0,"TOWNNAME":"仁德區","LI":"後壁里","LIN":"1鄰","STREET":"民安路","SECT":"二段","MAREA":" ","LANE":" ","ALLEY":" ","HOUSE_NO":"８之８號","E_COORD97":173341.50510400001,"N_COORD97":2539264.09723,"ADDRESS":"民安路二段８之８號","OBJECTID":650579},"geometry":{"x":173341.50510400068,"y":2539264.0972339977}},{"attributes":{"ID":650607,"DIS_CODE":0,"TOWNNAME":"東山區","LI":"南勢里","LIN":"20鄰","STREET":" ","SECT":" ","MAREA":"大洋","LANE":" ","ALLEY":" ","HOUSE_NO":"４１號之１４","E_COORD97":199811.10417000001,"N_COORD97":2573211.8449400002,"ADDRESS":"大洋４１號之１４","OBJECTID":650580},"geometry":{"x":199811.10417000204,"y":2573211.8449400011}},{"attributes":{"ID":650608,"DIS_CODE":0,"TOWNNAME":"東山區","LI":"南勢里","LIN":"20鄰","STREET":" ","SECT":" ","MAREA":"大洋","LANE":" ","ALLEY":" ","HOUSE_NO":"４１號之１５","E_COORD97":199819.04723,"N_COORD97":2573173.9566299999,"ADDRESS":"大洋４１號之１５","OBJECTID":650581},"geometry":{"x":199819.04722999968,"y":2573173.956629999}},{"attributes":{"ID":650609,"DIS_CODE":0,"TOWNNAME":"東山區","LI":"南勢里","LIN":"20鄰","STREET":" ","SECT":" ","MAREA":"大洋","LANE":" ","ALLEY":" ","HOUSE_NO":"４１號之１６","E_COORD97":199870.09463000001,"N_COORD97":2573208.0349499998,"ADDRESS":"大洋４１號之１６","OBJECTID":650582},"geometry":{"x":199870.09463000111,"y":2573208.0349500012}},{"attributes":{"ID":650610,"DIS_CODE":0,"TOWNNAME":"東山區","LI":"南勢里","LIN":"20鄰","STREET":" ","SECT":" ","MAREA":"大洋","LANE":" ","ALLEY":" ","HOUSE_NO":"４１號之１７","E_COORD97":199859.60978999999,"N_COORD97":2573193.8889199998,"ADDRESS":"大洋４１號之１７","OBJECTID":650583},"geometry":{"x":199859.60979000106,"y":2573193.8889200017}},{"attributes":{"ID":650611,"DIS_CODE":0,"TOWNNAME":"東山區","LI":"南勢里","LIN":"20鄰","STREET":" ","SECT":" ","MAREA":"大洋","LANE":" ","ALLEY":" ","HOUSE_NO":"４１號之１８","E_COORD97":199855.37349,"N_COORD97":2573183.30559,"ADDRESS":"大洋４１號之１８","OBJECTID":650584},"geometry":{"x":199855.37349000014,"y":2573183.3055900019}},{"attributes":{"ID":650612,"DIS_CODE":0,"TOWNNAME":"東山區","LI":"南勢里","LIN":"20鄰","STREET":" ","SECT":" ","MAREA":"大洋","LANE":" ","ALLEY":" ","HOUSE_NO":"４１號之１９","E_COORD97":199838.85191999999,"N_COORD97":2573195.79391,"ADDRESS":"大洋４１號之１９","OBJECTID":650585},"geometry":{"x":199838.85192000214,"y":2573195.7939100023}},{"attributes":{"ID":650613,"DIS_CODE":0,"TOWNNAME":"東山區","LI":"南勢里","LIN":"20鄰","STREET":" ","SECT":" ","MAREA":"大洋","LANE":" ","ALLEY":" ","HOUSE_NO":"４１號之２１","E_COORD97":199739.61661999999,"N_COORD97":2573382.9071499999,"ADDRESS":"大洋４１號之２１","OBJECTID":650586},"geometry":{"x":199739.61662000045,"y":2573382.9071500003}},{"attributes":{"ID":650614,"DIS_CODE":0,"TOWNNAME":"東山區","LI":"南勢里","LIN":"20鄰","STREET":" ","SECT":" ","MAREA":"大洋","LANE":" ","ALLEY":" ","HOUSE_NO":"４１號之２８","E_COORD97":199767.78800999999,"N_COORD97":2573370.4188199998,"ADDRESS":"大洋４１號之２８","OBJECTID":650587},"geometry":{"x":199767.78801000025,"y":2573370.4188200012}},{"attributes":{"ID":650615,"DIS_CODE":0,"TOWNNAME":"六甲區","LI":"龜港里","LIN":"9鄰","STREET":" ","SECT":" ","MAREA":"龜子港","LANE":"２８１巷","ALLEY":" ","HOUSE_NO":"１０２號","E_COORD97":179310.83009999999,"N_COORD97":2572230.0956799998,"ADDRESS":"龜子港２８１巷１０２號","OBJECTID":650588},"geometry":{"x":179310.8300999999,"y":2572230.0956750009}},{"attributes":{"ID":650616,"DIS_CODE":0,"TOWNNAME":"新營區","LI":"新東里","LIN":"15鄰","STREET":"東泰路","SECT":" ","MAREA":" ","LANE":" ","ALLEY":" ","HOUSE_NO":"１７號","E_COORD97":181118.139757,"N_COORD97":2579591.1068899999,"ADDRESS":"東泰路１７號","OBJECTID":650589},"geometry":{"x":181118.13975700177,"y":2579591.106889002}},{"attributes":{"ID":650617,"DIS_CODE":0,"TOWNNAME":"東山區","LI":"南勢里","LIN":"20鄰","STREET":" ","SECT":" ","MAREA":"大洋","LANE":" ","ALLEY":" ","HOUSE_NO":"４１號之３１","E_COORD97":198955.90132,"N_COORD97":2569772.9341000002,"ADDRESS":"大洋４１號之３１","OBJECTID":650590},"geometry":{"x":198955.90132000111,"y":2569772.9341000039}},{"attributes":{"ID":650618,"DIS_CODE":0,"TOWNNAME":"新營區","LI":"新東里","LIN":"15鄰","STREET":"東泰五街","SECT":" ","MAREA":" ","LANE":" ","ALLEY":" ","HOUSE_NO":"３７號","E_COORD97":181039.95521700001,"N_COORD97":2579646.3518599998,"ADDRESS":"東泰五街３７號","OBJECTID":650591},"geometry":{"x":181039.9552170001,"y":2579646.3518590014}},{"attributes":{"ID":650619,"DIS_CODE":0,"TOWNNAME":"新營區","LI":"新東里","LIN":"15鄰","STREET":"東泰五街","SECT":" ","MAREA":" ","LANE":" ","ALLEY":" ","HOUSE_NO":"３９號","E_COORD97":181036.14133700001,"N_COORD97":2579646.3518599998,"ADDRESS":"東泰五街３９號","OBJECTID":650592},"geometry":{"x":181036.14133700076,"y":2579646.3518590014}},{"attributes":{"ID":650620,"DIS_CODE":0,"TOWNNAME":"楠西區","LI":"灣丘里","LIN":"15鄰","STREET":" ","SECT":" ","MAREA":"鳳興","LANE":" ","ALLEY":" ","HOUSE_NO":"４５號","E_COORD97":199013.37098400001,"N_COORD97":2562509.8336100001,"ADDRESS":"鳳興４５號","OBJECTID":650593},"geometry":{"x":199013.37098400202,"y":2562509.8336149976}},{"attributes":{"ID":650621,"DIS_CODE":0,"TOWNNAME":"新營區","LI":"新東里","LIN":"15鄰","STREET":"東泰路","SECT":" ","MAREA":" ","LANE":" ","ALLEY":" ","HOUSE_NO":"１１號","E_COORD97":181118.77540300001,"N_COORD97":2579575.0202299999,"ADDRESS":"東泰路１１號","OBJECTID":650594},"geometry":{"x":181118.77540300228,"y":2579575.0202310029}},{"attributes":{"ID":650622,"DIS_CODE":0,"TOWNNAME":"佳里區","LI":"蚶寮里","LIN":"1鄰","STREET":" ","SECT":" ","MAREA":"蚶寮","LANE":" ","ALLEY":" ","HOUSE_NO":"１號","E_COORD97":164053.87822700001,"N_COORD97":2558399.9015899999,"ADDRESS":"蚶寮１號","OBJECTID":650595},"geometry":{"x":164053.87822700012,"y":2558399.9015940018}},{"attributes":{"ID":650623,"DIS_CODE":0,"TOWNNAME":"新市區","LI":"大社里","LIN":"13鄰","STREET":" ","SECT":" ","MAREA":"大社","LANE":" ","ALLEY":" ","HOUSE_NO":"４９９之２０號","E_COORD97":179960.62573100001,"N_COORD97":2555039.0270699998,"ADDRESS":"大社４９９之２０號","OBJECTID":650596},"geometry":{"x":179960.62573100068,"y":2555039.0270649996}},{"attributes":{"ID":650624,"DIS_CODE":0,"TOWNNAME":"佳里區","LI":"蚶寮里","LIN":"1鄰","STREET":" ","SECT":" ","MAREA":"蚶寮","LANE":" ","ALLEY":" ","HOUSE_NO":"２號","E_COORD97":164066.80214000001,"N_COORD97":2558462.3432300002,"ADDRESS":"蚶寮２號","OBJECTID":650597},"geometry":{"x":164066.80214000028,"y":2558462.3432270028}},{"attributes":{"ID":650625,"DIS_CODE":0,"TOWNNAME":"新化區","LI":"山\u25A0里","LIN":"8鄰","STREET":" ","SECT":" ","MAREA":"頂山\u25A0","LANE":" ","ALLEY":" ","HOUSE_NO":"１７９號之２３（網室","E_COORD97":179892.86431999999,"N_COORD97":2546950.3224999998,"ADDRESS":"頂山\u25A0１７９號之２３（網室）","OBJECTID":650598},"geometry":{"x":179892.8643199997,"y":2546950.3224999998}},{"attributes":{"ID":650626,"DIS_CODE":0,"TOWNNAME":"佳里區","LI":"蚶寮里","LIN":"1鄰","STREET":" ","SECT":" ","MAREA":"蚶寮","LANE":" ","ALLEY":" ","HOUSE_NO":"１０號","E_COORD97":164081.84472600001,"N_COORD97":2558528.1715299999,"ADDRESS":"蚶寮１０號","OBJECTID":650599},"geometry":{"x":164081.84472600091,"y":2558528.1715250034}},{"attributes":{"ID":650627,"DIS_CODE":0,"TOWNNAME":"新營區","LI":"新東里","LIN":"15鄰","STREET":"東學路","SECT":" ","MAREA":" ","LANE":" ","ALLEY":" ","HOUSE_NO":"７７號","E_COORD97":181088.68812800001,"N_COORD97":2579389.0711699999,"ADDRESS":"東學路７７號","OBJECTID":650600},"geometry":{"x":181088.68812800013,"y":2579389.0711649992}}]}