{"displayFieldName":"TOWNNAME","fieldAliases":{"ID":"ID","DIS_CODE":"DIS_CODE","TOWNNAME":"TOWNNAME","LI":"LI","LIN":"LIN","STREET":"STREET","SECT":"SECT","MAREA":"MAREA","LANE":"LANE","ALLEY":"ALLEY","HOUSE_NO":"HOUSE_NO","E_COORD97":"E_COORD97","N_COORD97":"N_COORD97","ADDRESS":"ADDRESS","OBJECTID":"OBJECTID"},"geometryType":"esriGeometryPoint","spatialReference":{"wkid":102443,"latestWkid":3826},"fields":[{"name":"ID","type":"esriFieldTypeDouble","alias":"ID"},{"name":"DIS_CODE","type":"esriFieldTypeInteger","alias":"DIS_CODE"},{"name":"TOWNNAME","type":"esriFieldTypeString","alias":"TOWNNAME","length":8},{"name":"LI","type":"esriFieldTypeString","alias":"LI","length":8},{"name":"LIN","type":"esriFieldTypeString","alias":"LIN","length":12},{"name":"STREET","type":"esriFieldTypeString","alias":"STREET","length":20},{"name":"SECT","type":"esriFieldTypeString","alias":"SECT","length":8},{"name":"MAREA","type":"esriFieldTypeString","alias":"MAREA","length":12},{"name":"LANE","type":"esriFieldTypeString","alias":"LANE","length":10},{"name":"ALLEY","type":"esriFieldTypeString","alias":"ALLEY","length":10},{"name":"HOUSE_NO","type":"esriFieldTypeString","alias":"HOUSE_NO","length":20},{"name":"E_COORD97","type":"esriFieldTypeDouble","alias":"E_COORD97"},{"name":"N_COORD97","type":"esriFieldTypeDouble","alias":"N_COORD97"},{"name":"ADDRESS","type":"esriFieldTypeString","alias":"ADDRESS","length":50},{"name":"OBJECTID","type":"esriFieldTypeOID","alias":"OBJECTID"}],"features":[{"attributes":{"ID":37201,"DIS_CODE":0,"TOWNNAME":"楠西區","LI":"密枝里","LIN":"7鄰","STREET":" ","SECT":" ","MAREA":"密枝","LANE":" ","ALLEY":" ","HOUSE_NO":"７１號三樓之１７","E_COORD97":198801.63,"N_COORD97":2568901.2999999998,"ADDRESS":"密枝７１號三樓之１７","OBJECTID":37201},"geometry":{"x":198801.62999999989,"y":2568901.3000000007}},{"attributes":{"ID":37202,"DIS_CODE":0,"TOWNNAME":"楠西區","LI":"密枝里","LIN":"7鄰","STREET":" ","SECT":" ","MAREA":"密枝","LANE":" ","ALLEY":" ","HOUSE_NO":"７１號四樓之２０","E_COORD97":198801.60000000001,"N_COORD97":2568901.2999999998,"ADDRESS":"密枝７１號四樓之２０","OBJECTID":37202},"geometry":{"x":198801.59999999963,"y":2568901.3000000007}},{"attributes":{"ID":37203,"DIS_CODE":0,"TOWNNAME":"東區","LI":"新東里","LIN":"8鄰","STREET":"衛國街","SECT":" ","MAREA":" ","LANE":"１０６巷","ALLEY":"１７弄","HOUSE_NO":"３８號","E_COORD97":170509.59,"N_COORD97":2543017.0699999998,"ADDRESS":"衛國街１０６巷１７弄３８號","OBJECTID":37203},"geometry":{"x":170509.59000000171,"y":2543017.070000004}},{"attributes":{"ID":37204,"DIS_CODE":0,"TOWNNAME":"楠西區","LI":"密枝里","LIN":"7鄰","STREET":" ","SECT":" ","MAREA":"密枝","LANE":" ","ALLEY":" ","HOUSE_NO":"７１號四樓之１５","E_COORD97":198801.70999999999,"N_COORD97":2568901.2999999998,"ADDRESS":"密枝７１號四樓之１５","OBJECTID":37204},"geometry":{"x":198801.71000000089,"y":2568901.3000000007}},{"attributes":{"ID":37205,"DIS_CODE":0,"TOWNNAME":"楠西區","LI":"密枝里","LIN":"7鄰","STREET":" ","SECT":" ","MAREA":"密枝","LANE":" ","ALLEY":" ","HOUSE_NO":"７１號三樓之１６","E_COORD97":198801.66,"N_COORD97":2568901.2999999998,"ADDRESS":"密枝７１號三樓之１６","OBJECTID":37205},"geometry":{"x":198801.66000000015,"y":2568901.3000000007}},{"attributes":{"ID":37206,"DIS_CODE":0,"TOWNNAME":"楠西區","LI":"密枝里","LIN":"7鄰","STREET":" ","SECT":" ","MAREA":"密枝","LANE":" ","ALLEY":" ","HOUSE_NO":"７１號三樓之９","E_COORD97":198800.39000000001,"N_COORD97":2568901.2999999998,"ADDRESS":"密枝７１號三樓之９","OBJECTID":37206},"geometry":{"x":198800.3900000006,"y":2568901.3000000007}},{"attributes":{"ID":37207,"DIS_CODE":0,"TOWNNAME":"東區","LI":"新東里","LIN":"8鄰","STREET":"衛國街","SECT":" ","MAREA":" ","LANE":"１０６巷","ALLEY":"１７弄","HOUSE_NO":"３８號之１","E_COORD97":170514.16,"N_COORD97":2543017.29,"ADDRESS":"衛國街１０６巷１７弄３８號之１","OBJECTID":37207},"geometry":{"x":170514.16000000015,"y":2543017.2899999991}},{"attributes":{"ID":37208,"DIS_CODE":0,"TOWNNAME":"楠西區","LI":"密枝里","LIN":"7鄰","STREET":" ","SECT":" ","MAREA":"密枝","LANE":" ","ALLEY":" ","HOUSE_NO":"７１號三樓之３","E_COORD97":198800.39999999999,"N_COORD97":2568901.2999999998,"ADDRESS":"密枝７１號三樓之３","OBJECTID":37208},"geometry":{"x":198800.40000000037,"y":2568901.3000000007}},{"attributes":{"ID":37209,"DIS_CODE":0,"TOWNNAME":"佳里區","LI":"佳化里","LIN":"7鄰","STREET":" ","SECT":" ","MAREA":"佳里興","LANE":" ","ALLEY":" ","HOUSE_NO":"６３號之２","E_COORD97":167502.37,"N_COORD97":2565147.7599999998,"ADDRESS":"佳里興６３號之２","OBJECTID":37209},"geometry":{"x":167502.37000000197,"y":2565147.7600000035}},{"attributes":{"ID":37210,"DIS_CODE":0,"TOWNNAME":"東區","LI":"新東里","LIN":"8鄰","STREET":"衛國街","SECT":" ","MAREA":" ","LANE":"１０６巷","ALLEY":"１７弄","HOUSE_NO":"４０號","E_COORD97":170518.85000000001,"N_COORD97":2543017.7400000002,"ADDRESS":"衛國街１０６巷１７弄４０號","OBJECTID":37210},"geometry":{"x":170518.84999999963,"y":2543017.7400000002}},{"attributes":{"ID":37211,"DIS_CODE":0,"TOWNNAME":"楠西區","LI":"密枝里","LIN":"7鄰","STREET":" ","SECT":" ","MAREA":"密枝","LANE":" ","ALLEY":" ","HOUSE_NO":"７１號三樓之５","E_COORD97":198800.45999999999,"N_COORD97":2568901.2999999998,"ADDRESS":"密枝７１號三樓之５","OBJECTID":37211},"geometry":{"x":198800.46000000089,"y":2568901.3000000007}},{"attributes":{"ID":37212,"DIS_CODE":0,"TOWNNAME":"楠西區","LI":"密枝里","LIN":"7鄰","STREET":" ","SECT":" ","MAREA":"密枝","LANE":" ","ALLEY":" ","HOUSE_NO":"７１號三樓之１１","E_COORD97":198801.54999999999,"N_COORD97":2568901.2999999998,"ADDRESS":"密枝７１號三樓之１１","OBJECTID":37212},"geometry":{"x":198801.55000000075,"y":2568901.3000000007}},{"attributes":{"ID":37213,"DIS_CODE":0,"TOWNNAME":"楠西區","LI":"密枝里","LIN":"7鄰","STREET":" ","SECT":" ","MAREA":"密枝","LANE":" ","ALLEY":" ","HOUSE_NO":"７１號五樓之２","E_COORD97":198800.44,"N_COORD97":2568901.2999999998,"ADDRESS":"密枝７１號五樓之２","OBJECTID":37213},"geometry":{"x":198800.44000000227,"y":2568901.3000000007}},{"attributes":{"ID":37214,"DIS_CODE":0,"TOWNNAME":"楠西區","LI":"密枝里","LIN":"7鄰","STREET":" ","SECT":" ","MAREA":"密枝","LANE":" ","ALLEY":" ","HOUSE_NO":"７１號三樓之１","E_COORD97":198800.29999999999,"N_COORD97":2568901.2999999998,"ADDRESS":"密枝７１號三樓之１","OBJECTID":37214},"geometry":{"x":198800.29999999981,"y":2568901.3000000007}},{"attributes":{"ID":37215,"DIS_CODE":0,"TOWNNAME":"楠西區","LI":"密枝里","LIN":"7鄰","STREET":" ","SECT":" ","MAREA":"密枝","LANE":" ","ALLEY":" ","HOUSE_NO":"７１號四樓之６","E_COORD97":198800.41,"N_COORD97":2568901.2999999998,"ADDRESS":"密枝７１號四樓之６","OBJECTID":37215},"geometry":{"x":198800.41000000201,"y":2568901.3000000007}},{"attributes":{"ID":37216,"DIS_CODE":0,"TOWNNAME":"楠西區","LI":"密枝里","LIN":"7鄰","STREET":" ","SECT":" ","MAREA":"密枝","LANE":" ","ALLEY":" ","HOUSE_NO":"７１號四樓之１","E_COORD97":198800.29999999999,"N_COORD97":2568901.2999999998,"ADDRESS":"密枝７１號四樓之１","OBJECTID":37216},"geometry":{"x":198800.29999999981,"y":2568901.3000000007}},{"attributes":{"ID":37217,"DIS_CODE":0,"TOWNNAME":"東區","LI":"新東里","LIN":"8鄰","STREET":"衛國街","SECT":" ","MAREA":" ","LANE":"１０６巷","ALLEY":"１７弄","HOUSE_NO":"４２號","E_COORD97":170523.76999999999,"N_COORD97":2543017.96,"ADDRESS":"衛國街１０６巷１７弄４２號","OBJECTID":37217},"geometry":{"x":170523.77000000048,"y":2543017.9600000009}},{"attributes":{"ID":37218,"DIS_CODE":0,"TOWNNAME":"楠西區","LI":"密枝里","LIN":"7鄰","STREET":" ","SECT":" ","MAREA":"密枝","LANE":" ","ALLEY":" ","HOUSE_NO":"７１號三樓之１２","E_COORD97":198801.69,"N_COORD97":2568901.2999999998,"ADDRESS":"密枝７１號三樓之１２","OBJECTID":37218},"geometry":{"x":198801.69000000041,"y":2568901.3000000007}},{"attributes":{"ID":37219,"DIS_CODE":0,"TOWNNAME":"楠西區","LI":"密枝里","LIN":"7鄰","STREET":" ","SECT":" ","MAREA":"密枝","LANE":" ","ALLEY":" ","HOUSE_NO":"７１號四樓之１８","E_COORD97":198801.70000000001,"N_COORD97":2568901.2999999998,"ADDRESS":"密枝７１號四樓之１８","OBJECTID":37219},"geometry":{"x":198801.69999999925,"y":2568901.3000000007}},{"attributes":{"ID":37220,"DIS_CODE":0,"TOWNNAME":"東區","LI":"新東里","LIN":"8鄰","STREET":"衛國街","SECT":" ","MAREA":" ","LANE":"１０６巷","ALLEY":"１７弄","HOUSE_NO":"４８號","E_COORD97":170544.98000000001,"N_COORD97":2543019.9700000002,"ADDRESS":"衛國街１０６巷１７弄４８號","OBJECTID":37220},"geometry":{"x":170544.98000000138,"y":2543019.9700000007}},{"attributes":{"ID":37221,"DIS_CODE":0,"TOWNNAME":"楠西區","LI":"密枝里","LIN":"7鄰","STREET":" ","SECT":" ","MAREA":"密枝","LANE":" ","ALLEY":" ","HOUSE_NO":"７１號四樓之９","E_COORD97":198800.39000000001,"N_COORD97":2568901.2999999998,"ADDRESS":"密枝７１號四樓之９","OBJECTID":37221},"geometry":{"x":198800.3900000006,"y":2568901.3000000007}},{"attributes":{"ID":37222,"DIS_CODE":0,"TOWNNAME":"楠西區","LI":"密枝里","LIN":"7鄰","STREET":" ","SECT":" ","MAREA":"密枝","LANE":" ","ALLEY":" ","HOUSE_NO":"７１號五樓之３","E_COORD97":198800.39999999999,"N_COORD97":2568901.2999999998,"ADDRESS":"密枝７１號五樓之３","OBJECTID":37222},"geometry":{"x":198800.40000000037,"y":2568901.3000000007}},{"attributes":{"ID":37223,"DIS_CODE":0,"TOWNNAME":"歸仁區","LI":"新厝里","LIN":"14鄰","STREET":"公園十街","SECT":" ","MAREA":" ","LANE":" ","ALLEY":" ","HOUSE_NO":"１３號","E_COORD97":177666.51999999999,"N_COORD97":2540451.5899999999,"ADDRESS":"公園十街１３號","OBJECTID":37223},"geometry":{"x":177666.51999999955,"y":2540451.5900000017}},{"attributes":{"ID":37224,"DIS_CODE":0,"TOWNNAME":"楠西區","LI":"密枝里","LIN":"7鄰","STREET":" ","SECT":" ","MAREA":"密枝","LANE":" ","ALLEY":" ","HOUSE_NO":"７１號一樓","E_COORD97":198798.17000000001,"N_COORD97":2568901.2799999998,"ADDRESS":"密枝７１號一樓","OBJECTID":37224},"geometry":{"x":198798.16999999993,"y":2568901.2800000012}},{"attributes":{"ID":37225,"DIS_CODE":0,"TOWNNAME":"楠西區","LI":"密枝里","LIN":"7鄰","STREET":" ","SECT":" ","MAREA":"密枝","LANE":" ","ALLEY":" ","HOUSE_NO":"７１號三樓之１８","E_COORD97":198801.70000000001,"N_COORD97":2568901.2999999998,"ADDRESS":"密枝７１號三樓之１８","OBJECTID":37225},"geometry":{"x":198801.69999999925,"y":2568901.3000000007}},{"attributes":{"ID":37226,"DIS_CODE":0,"TOWNNAME":"楠西區","LI":"密枝里","LIN":"7鄰","STREET":" ","SECT":" ","MAREA":"密枝","LANE":" ","ALLEY":" ","HOUSE_NO":"７１號四樓之２","E_COORD97":198800.44,"N_COORD97":2568901.2999999998,"ADDRESS":"密枝７１號四樓之２","OBJECTID":37226},"geometry":{"x":198800.44000000227,"y":2568901.3000000007}},{"attributes":{"ID":37227,"DIS_CODE":0,"TOWNNAME":"楠西區","LI":"密枝里","LIN":"7鄰","STREET":" ","SECT":" ","MAREA":"密枝","LANE":" ","ALLEY":" ","HOUSE_NO":"７１號三樓之６","E_COORD97":198800.41,"N_COORD97":2568901.2999999998,"ADDRESS":"密枝７１號三樓之６","OBJECTID":37227},"geometry":{"x":198800.41000000201,"y":2568901.3000000007}},{"attributes":{"ID":37228,"DIS_CODE":0,"TOWNNAME":"楠西區","LI":"密枝里","LIN":"7鄰","STREET":" ","SECT":" ","MAREA":"密枝","LANE":" ","ALLEY":" ","HOUSE_NO":"７１號四樓之１１","E_COORD97":198801.54999999999,"N_COORD97":2568901.2999999998,"ADDRESS":"密枝７１號四樓之１１","OBJECTID":37228},"geometry":{"x":198801.55000000075,"y":2568901.3000000007}},{"attributes":{"ID":37229,"DIS_CODE":0,"TOWNNAME":"關廟區","LI":"北花里","LIN":"14鄰","STREET":"北安一街","SECT":" ","MAREA":" ","LANE":" ","ALLEY":" ","HOUSE_NO":"３０號","E_COORD97":182101.29000000001,"N_COORD97":2540459.3199999998,"ADDRESS":"北安一街３０號","OBJECTID":37229},"geometry":{"x":182101.29000000004,"y":2540459.320000004}},{"attributes":{"ID":37230,"DIS_CODE":0,"TOWNNAME":"歸仁區","LI":"看西里","LIN":"14鄰","STREET":"信義南路","SECT":" ","MAREA":" ","LANE":" ","ALLEY":" ","HOUSE_NO":"２１５號","E_COORD97":178160.5,"N_COORD97":2540082.6800000002,"ADDRESS":"信義南路２１５號","OBJECTID":37230},"geometry":{"x":178160.5,"y":2540082.6799999997}},{"attributes":{"ID":37231,"DIS_CODE":0,"TOWNNAME":"歸仁區","LI":"看西里","LIN":"14鄰","STREET":"信義南路","SECT":" ","MAREA":" ","LANE":" ","ALLEY":" ","HOUSE_NO":"２００號","E_COORD97":178137.79999999999,"N_COORD97":2540060.6800000002,"ADDRESS":"信義南路２００號","OBJECTID":37231},"geometry":{"x":178137.79999999981,"y":2540060.6800000016}},{"attributes":{"ID":37232,"DIS_CODE":0,"TOWNNAME":"歸仁區","LI":"許厝里","LIN":"14鄰","STREET":"中山路","SECT":"一段","MAREA":" ","LANE":" ","ALLEY":" ","HOUSE_NO":"４１６號","E_COORD97":178144.54000000001,"N_COORD97":2540723.6499999999,"ADDRESS":"中山路一段４１６號","OBJECTID":37232},"geometry":{"x":178144.54000000004,"y":2540723.6500000004}},{"attributes":{"ID":37233,"DIS_CODE":0,"TOWNNAME":"歸仁區","LI":"看西里","LIN":"14鄰","STREET":"仁愛十二街","SECT":" ","MAREA":" ","LANE":" ","ALLEY":" ","HOUSE_NO":"２０號","E_COORD97":178193.5,"N_COORD97":2540117.6899999999,"ADDRESS":"仁愛十二街２０號","OBJECTID":37233},"geometry":{"x":178193.50000000093,"y":2540117.6900000013}},{"attributes":{"ID":37234,"DIS_CODE":0,"TOWNNAME":"歸仁區","LI":"南興里","LIN":"14鄰","STREET":"文化街","SECT":"三段","MAREA":" ","LANE":" ","ALLEY":" ","HOUSE_NO":"５２０號","E_COORD97":175808.94,"N_COORD97":2541216.3300000001,"ADDRESS":"文化街三段５２０號","OBJECTID":37234},"geometry":{"x":175808.94000000134,"y":2541216.3300000019}},{"attributes":{"ID":37235,"DIS_CODE":0,"TOWNNAME":"楠西區","LI":"密枝里","LIN":"7鄰","STREET":" ","SECT":" ","MAREA":"密枝","LANE":" ","ALLEY":" ","HOUSE_NO":"７１號四樓之７","E_COORD97":198800.38,"N_COORD97":2568901.2999999998,"ADDRESS":"密枝７１號四樓之７","OBJECTID":37235},"geometry":{"x":198800.38000000175,"y":2568901.3000000007}},{"attributes":{"ID":37236,"DIS_CODE":0,"TOWNNAME":"楠西區","LI":"密枝里","LIN":"7鄰","STREET":" ","SECT":" ","MAREA":"密枝","LANE":" ","ALLEY":" ","HOUSE_NO":"７１號四樓之１３","E_COORD97":198801.64999999999,"N_COORD97":2568901.2999999998,"ADDRESS":"密枝７１號四樓之１３","OBJECTID":37236},"geometry":{"x":198801.65000000037,"y":2568901.3000000007}},{"attributes":{"ID":37237,"DIS_CODE":0,"TOWNNAME":"東區","LI":"新東里","LIN":"8鄰","STREET":"衛國街","SECT":" ","MAREA":" ","LANE":"１０６巷","ALLEY":"１７弄","HOUSE_NO":"４號","E_COORD97":170418.14999999999,"N_COORD97":2543007,"ADDRESS":"衛國街１０６巷１７弄４號","OBJECTID":37237},"geometry":{"x":170418.15000000224,"y":2543007.0000000037}},{"attributes":{"ID":37238,"DIS_CODE":0,"TOWNNAME":"麻豆區","LI":"寮\u25A0里","LIN":"20鄰","STREET":" ","SECT":" ","MAREA":"寮子\u25A0","LANE":" ","ALLEY":" ","HOUSE_NO":"１６１號","E_COORD97":176337.89000000001,"N_COORD97":2565373.3900000001,"ADDRESS":"寮子\u25A0１６１號","OBJECTID":37238},"geometry":{"x":176337.88999999966,"y":2565373.3900000006}},{"attributes":{"ID":37239,"DIS_CODE":0,"TOWNNAME":"麻豆區","LI":"寮\u25A0里","LIN":"20鄰","STREET":" ","SECT":" ","MAREA":"寮子\u25A0","LANE":" ","ALLEY":" ","HOUSE_NO":"１６３號","E_COORD97":176340.51999999999,"N_COORD97":2565397.6400000001,"ADDRESS":"寮子\u25A0１６３號","OBJECTID":37239},"geometry":{"x":176340.51999999955,"y":2565397.6400000025}},{"attributes":{"ID":37240,"DIS_CODE":0,"TOWNNAME":"後壁區","LI":"侯伯里","LIN":"15鄰","STREET":" ","SECT":" ","MAREA":"後壁寮","LANE":" ","ALLEY":" ","HOUSE_NO":"１３０號","E_COORD97":185228.31,"N_COORD97":2585535.5299999998,"ADDRESS":"後壁寮１３０號","OBJECTID":37240},"geometry":{"x":185228.30999999959,"y":2585535.5300000012}},{"attributes":{"ID":37241,"DIS_CODE":0,"TOWNNAME":"後壁區","LI":"侯伯里","LIN":"15鄰","STREET":" ","SECT":" ","MAREA":"後壁寮","LANE":" ","ALLEY":" ","HOUSE_NO":"１３１號之１","E_COORD97":185178.81,"N_COORD97":2585514.8199999998,"ADDRESS":"後壁寮１３１號之１","OBJECTID":37241},"geometry":{"x":185178.80999999959,"y":2585514.8200000022}},{"attributes":{"ID":37242,"DIS_CODE":0,"TOWNNAME":"東區","LI":"新東里","LIN":"8鄰","STREET":"衛國街","SECT":" ","MAREA":" ","LANE":"１０６巷","ALLEY":"１７弄","HOUSE_NO":"５０號","E_COORD97":170551.91,"N_COORD97":2543020.6400000001,"ADDRESS":"衛國街１０６巷１７弄５０號","OBJECTID":37242},"geometry":{"x":170551.91000000108,"y":2543020.6400000043}},{"attributes":{"ID":37243,"DIS_CODE":0,"TOWNNAME":"東區","LI":"新東里","LIN":"8鄰","STREET":"衛國街","SECT":" ","MAREA":" ","LANE":"１０６巷","ALLEY":"１７弄","HOUSE_NO":"５２號","E_COORD97":170559.04999999999,"N_COORD97":2543020.9700000002,"ADDRESS":"衛國街１０６巷１７弄５２號","OBJECTID":37243},"geometry":{"x":170559.05000000075,"y":2543020.9700000007}},{"attributes":{"ID":37244,"DIS_CODE":0,"TOWNNAME":"佳里區","LI":"禮化里","LIN":"7鄰","STREET":" ","SECT":" ","MAREA":"佳里興","LANE":" ","ALLEY":" ","HOUSE_NO":"２９２號之１","E_COORD97":166593.75,"N_COORD97":2565746.2999999998,"ADDRESS":"佳里興２９２號之１","OBJECTID":37244},"geometry":{"x":166593.75,"y":2565746.3000000026}},{"attributes":{"ID":37245,"DIS_CODE":0,"TOWNNAME":"佳里區","LI":"禮化里","LIN":"7鄰","STREET":" ","SECT":" ","MAREA":"佳里興","LANE":" ","ALLEY":" ","HOUSE_NO":"２９２號之３","E_COORD97":166602.01000000001,"N_COORD97":2565745.3100000001,"ADDRESS":"佳里興２９２號之３","OBJECTID":37245},"geometry":{"x":166602.00999999978,"y":2565745.3100000024}},{"attributes":{"ID":37246,"DIS_CODE":0,"TOWNNAME":"佳里區","LI":"禮化里","LIN":"7鄰","STREET":" ","SECT":" ","MAREA":"佳里興","LANE":" ","ALLEY":" ","HOUSE_NO":"２９２號","E_COORD97":166609.60000000001,"N_COORD97":2565745.5,"ADDRESS":"佳里興２９２號","OBJECTID":37246},"geometry":{"x":166609.59999999963,"y":2565745.5}},{"attributes":{"ID":37247,"DIS_CODE":0,"TOWNNAME":"東區","LI":"新東里","LIN":"8鄰","STREET":"衛國街","SECT":" ","MAREA":" ","LANE":"１０６巷","ALLEY":"１７弄","HOUSE_NO":"５４號","E_COORD97":170566.31,"N_COORD97":2543021.5299999998,"ADDRESS":"衛國街１０６巷１７弄５４號","OBJECTID":37247},"geometry":{"x":170566.30999999959,"y":2543021.5299999993}},{"attributes":{"ID":37248,"DIS_CODE":0,"TOWNNAME":"東區","LI":"新東里","LIN":"8鄰","STREET":"衛國街","SECT":" ","MAREA":" ","LANE":"１０６巷","ALLEY":"１７弄","HOUSE_NO":"５６號","E_COORD97":170575.41,"N_COORD97":2543021.9700000002,"ADDRESS":"衛國街１０６巷１７弄５６號","OBJECTID":37248},"geometry":{"x":170575.41000000201,"y":2543021.9700000025}},{"attributes":{"ID":37249,"DIS_CODE":0,"TOWNNAME":"佳里區","LI":"禮化里","LIN":"7鄰","STREET":" ","SECT":" ","MAREA":"佳里興","LANE":" ","ALLEY":" ","HOUSE_NO":"２９４號","E_COORD97":166660.35999999999,"N_COORD97":2565785.6800000002,"ADDRESS":"佳里興２９４號","OBJECTID":37249},"geometry":{"x":166660.36000000127,"y":2565785.6800000034}},{"attributes":{"ID":37250,"DIS_CODE":0,"TOWNNAME":"佳里區","LI":"禮化里","LIN":"7鄰","STREET":" ","SECT":" ","MAREA":"佳里興","LANE":" ","ALLEY":" ","HOUSE_NO":"２９５號之１","E_COORD97":166639.64000000001,"N_COORD97":2565765.9700000002,"ADDRESS":"佳里興２９５號之１","OBJECTID":37250},"geometry":{"x":166639.6400000006,"y":2565765.9700000007}},{"attributes":{"ID":37251,"DIS_CODE":0,"TOWNNAME":"東區","LI":"新東里","LIN":"8鄰","STREET":"衛國街","SECT":" ","MAREA":" ","LANE":"１０６巷","ALLEY":"１７弄","HOUSE_NO":"５８號","E_COORD97":170582.34,"N_COORD97":2543022.2000000002,"ADDRESS":"衛國街１０６巷１７弄５８號","OBJECTID":37251},"geometry":{"x":170582.33999999892,"y":2543022.200000003}},{"attributes":{"ID":37252,"DIS_CODE":0,"TOWNNAME":"東區","LI":"新東里","LIN":"8鄰","STREET":"衛國街","SECT":" ","MAREA":" ","LANE":"１０６巷","ALLEY":"１７弄","HOUSE_NO":"６０號","E_COORD97":170589.37,"N_COORD97":2543022.4199999999,"ADDRESS":"衛國街１０６巷１７弄６０號","OBJECTID":37252},"geometry":{"x":170589.37000000197,"y":2543022.4200000018}},{"attributes":{"ID":37253,"DIS_CODE":0,"TOWNNAME":"東區","LI":"新東里","LIN":"8鄰","STREET":"衛國街","SECT":" ","MAREA":" ","LANE":"１０６巷","ALLEY":"１７弄","HOUSE_NO":"６２號","E_COORD97":170596.29999999999,"N_COORD97":2543022.98,"ADDRESS":"衛國街１０６巷１７弄６２號","OBJECTID":37253},"geometry":{"x":170596.30000000168,"y":2543022.9800000023}},{"attributes":{"ID":37254,"DIS_CODE":0,"TOWNNAME":"東區","LI":"新東里","LIN":"8鄰","STREET":"衛國街","SECT":" ","MAREA":" ","LANE":"１０６巷","ALLEY":"１７弄","HOUSE_NO":"６４號","E_COORD97":170603,"N_COORD97":2543023.4300000002,"ADDRESS":"衛國街１０６巷１７弄６４號","OBJECTID":37254},"geometry":{"x":170603,"y":2543023.4299999997}},{"attributes":{"ID":37255,"DIS_CODE":0,"TOWNNAME":"歸仁區","LI":"六甲里","LIN":"14鄰","STREET":"六甲一街","SECT":" ","MAREA":" ","LANE":" ","ALLEY":" ","HOUSE_NO":"９號","E_COORD97":175850.51999999999,"N_COORD97":2539175.25,"ADDRESS":"六甲一街９號","OBJECTID":37255},"geometry":{"x":175850.51999999955,"y":2539175.2500000019}},{"attributes":{"ID":37256,"DIS_CODE":0,"TOWNNAME":"佳里區","LI":"禮化里","LIN":"7鄰","STREET":" ","SECT":" ","MAREA":"佳里興","LANE":" ","ALLEY":" ","HOUSE_NO":"２９５號","E_COORD97":166663.57000000001,"N_COORD97":2565809.46,"ADDRESS":"佳里興２９５號","OBJECTID":37256},"geometry":{"x":166663.5700000003,"y":2565809.4600000028}},{"attributes":{"ID":37257,"DIS_CODE":0,"TOWNNAME":"佳里區","LI":"禮化里","LIN":"7鄰","STREET":" ","SECT":" ","MAREA":"佳里興","LANE":" ","ALLEY":" ","HOUSE_NO":"２９６號之１","E_COORD97":166687.35999999999,"N_COORD97":2565838.1299999999,"ADDRESS":"佳里興２９６號之１","OBJECTID":37257},"geometry":{"x":166687.3600000022,"y":2565838.129999999}},{"attributes":{"ID":37258,"DIS_CODE":0,"TOWNNAME":"歸仁區","LI":"看東里","LIN":"14鄰","STREET":"中山路","SECT":"一段","MAREA":" ","LANE":" ","ALLEY":" ","HOUSE_NO":"２７３號","E_COORD97":178590.14000000001,"N_COORD97":2540617.6499999999,"ADDRESS":"中山路一段２７３號","OBJECTID":37258},"geometry":{"x":178590.1400000006,"y":2540617.6500000022}},{"attributes":{"ID":37259,"DIS_CODE":0,"TOWNNAME":"佳里區","LI":"禮化里","LIN":"7鄰","STREET":" ","SECT":" ","MAREA":"佳里興","LANE":" ","ALLEY":" ","HOUSE_NO":"２９６號之３","E_COORD97":166690.12,"N_COORD97":2565796.73,"ADDRESS":"佳里興２９６號之３","OBJECTID":37259},"geometry":{"x":166690.12000000011,"y":2565796.7300000023}},{"attributes":{"ID":37260,"DIS_CODE":0,"TOWNNAME":"歸仁區","LI":"六甲里","LIN":"14鄰","STREET":"六甲一街","SECT":" ","MAREA":" ","LANE":" ","ALLEY":" ","HOUSE_NO":"１９號","E_COORD97":175851.67000000001,"N_COORD97":2539155.25,"ADDRESS":"六甲一街１９號","OBJECTID":37260},"geometry":{"x":175851.66999999993,"y":2539155.2500000019}},{"attributes":{"ID":37261,"DIS_CODE":0,"TOWNNAME":"歸仁區","LI":"六甲里","LIN":"14鄰","STREET":"六甲一街","SECT":" ","MAREA":" ","LANE":" ","ALLEY":" ","HOUSE_NO":"２７號","E_COORD97":175851.57000000001,"N_COORD97":2539138.25,"ADDRESS":"六甲一街２７號","OBJECTID":37261},"geometry":{"x":175851.56999999937,"y":2539138.2500000019}},{"attributes":{"ID":37262,"DIS_CODE":0,"TOWNNAME":"歸仁區","LI":"六甲里","LIN":"14鄰","STREET":"六甲一街","SECT":" ","MAREA":" ","LANE":" ","ALLEY":" ","HOUSE_NO":"４１號","E_COORD97":175851.47,"N_COORD97":2539111.25,"ADDRESS":"六甲一街４１號","OBJECTID":37262},"geometry":{"x":175851.46999999974,"y":2539111.2500000019}},{"attributes":{"ID":37263,"DIS_CODE":0,"TOWNNAME":"歸仁區","LI":"西埔里","LIN":"14鄰","STREET":"西埔二街","SECT":" ","MAREA":" ","LANE":" ","ALLEY":" ","HOUSE_NO":"２１號","E_COORD97":176917.73999999999,"N_COORD97":2544758.25,"ADDRESS":"西埔二街２１號","OBJECTID":37263},"geometry":{"x":176917.74000000022,"y":2544758.2500000037}},{"attributes":{"ID":37264,"DIS_CODE":0,"TOWNNAME":"歸仁區","LI":"六甲里","LIN":"14鄰","STREET":"六甲一街","SECT":" ","MAREA":" ","LANE":" ","ALLEY":" ","HOUSE_NO":"２９號","E_COORD97":175851.57000000001,"N_COORD97":2539134.25,"ADDRESS":"六甲一街２９號","OBJECTID":37264},"geometry":{"x":175851.56999999937,"y":2539134.2500000019}},{"attributes":{"ID":37265,"DIS_CODE":0,"TOWNNAME":"歸仁區","LI":"六甲里","LIN":"14鄰","STREET":"六甲一街","SECT":" ","MAREA":" ","LANE":" ","ALLEY":" ","HOUSE_NO":"３７號","E_COORD97":175851.47,"N_COORD97":2539120.25,"ADDRESS":"六甲一街３７號","OBJECTID":37265},"geometry":{"x":175851.46999999974,"y":2539120.2500000037}},{"attributes":{"ID":37266,"DIS_CODE":0,"TOWNNAME":"歸仁區","LI":"武東里","LIN":"14鄰","STREET":"明德路","SECT":" ","MAREA":" ","LANE":" ","ALLEY":" ","HOUSE_NO":"６６號","E_COORD97":175370.34,"N_COORD97":2536254.27,"ADDRESS":"明德路６６號","OBJECTID":37266},"geometry":{"x":175370.34000000078,"y":2536254.2699999996}},{"attributes":{"ID":37267,"DIS_CODE":0,"TOWNNAME":"歸仁區","LI":"崙頂里","LIN":"14鄰","STREET":"崙頂三街","SECT":" ","MAREA":" ","LANE":" ","ALLEY":" ","HOUSE_NO":"２６號","E_COORD97":177911.20999999999,"N_COORD97":2539883.1099999999,"ADDRESS":"崙頂三街２６號","OBJECTID":37267},"geometry":{"x":177911.20999999996,"y":2539883.1100000031}},{"attributes":{"ID":37268,"DIS_CODE":0,"TOWNNAME":"歸仁區","LI":"後市里","LIN":"14鄰","STREET":"中山路","SECT":"二段","MAREA":" ","LANE":" ","ALLEY":" ","HOUSE_NO":"２１９號","E_COORD97":177110.98999999999,"N_COORD97":2540822.25,"ADDRESS":"中山路二段２１９號","OBJECTID":37268},"geometry":{"x":177110.99000000022,"y":2540822.2500000037}},{"attributes":{"ID":37269,"DIS_CODE":0,"TOWNNAME":"新營區","LI":"鐵線里","LIN":"14鄰","STREET":" ","SECT":" ","MAREA":"秀才","LANE":" ","ALLEY":" ","HOUSE_NO":"１６之３號","E_COORD97":174723.97,"N_COORD97":2573859.8300000001,"ADDRESS":"秀才１６之３號","OBJECTID":37269},"geometry":{"x":174723.96999999974,"y":2573859.8300000001}},{"attributes":{"ID":37270,"DIS_CODE":0,"TOWNNAME":"新營區","LI":"鐵線里","LIN":"14鄰","STREET":" ","SECT":" ","MAREA":"秀才","LANE":" ","ALLEY":" ","HOUSE_NO":"１６之５號","E_COORD97":174718.85000000001,"N_COORD97":2573857.6400000001,"ADDRESS":"秀才１６之５號","OBJECTID":37270},"geometry":{"x":174718.85000000056,"y":2573857.6400000006}},{"attributes":{"ID":37271,"DIS_CODE":0,"TOWNNAME":"東區","LI":"新東里","LIN":"8鄰","STREET":"衛國街","SECT":" ","MAREA":" ","LANE":"１０６巷","ALLEY":"１７弄","HOUSE_NO":"６６號","E_COORD97":170610.03,"N_COORD97":2543023.8700000001,"ADDRESS":"衛國街１０６巷１７弄６６號","OBJECTID":37271},"geometry":{"x":170610.03000000026,"y":2543023.8700000029}},{"attributes":{"ID":37272,"DIS_CODE":0,"TOWNNAME":"新營區","LI":"鐵線里","LIN":"14鄰","STREET":" ","SECT":" ","MAREA":"秀才","LANE":" ","ALLEY":" ","HOUSE_NO":"１３號","E_COORD97":174794.20000000001,"N_COORD97":2573874.9199999999,"ADDRESS":"秀才１３號","OBJECTID":37272},"geometry":{"x":174794.20000000019,"y":2573874.9200000018}},{"attributes":{"ID":37273,"DIS_CODE":0,"TOWNNAME":"東區","LI":"新東里","LIN":"8鄰","STREET":"衛國街","SECT":" ","MAREA":" ","LANE":"１０６巷","ALLEY":"１７弄","HOUSE_NO":"６號","E_COORD97":170422.39999999999,"N_COORD97":2543006.52,"ADDRESS":"衛國街１０６巷１７弄６號","OBJECTID":37273},"geometry":{"x":170422.40000000037,"y":2543006.5200000033}},{"attributes":{"ID":37274,"DIS_CODE":0,"TOWNNAME":"新營區","LI":"鐵線里","LIN":"14鄰","STREET":" ","SECT":" ","MAREA":"秀才","LANE":" ","ALLEY":" ","HOUSE_NO":"１５號","E_COORD97":174749.25,"N_COORD97":2573889.54,"ADDRESS":"秀才１５號","OBJECTID":37274},"geometry":{"x":174749.25,"y":2573889.540000001}},{"attributes":{"ID":37275,"DIS_CODE":0,"TOWNNAME":"佳里區","LI":"禮化里","LIN":"7鄰","STREET":" ","SECT":" ","MAREA":"佳里興","LANE":" ","ALLEY":" ","HOUSE_NO":"２９６號","E_COORD97":166664.64000000001,"N_COORD97":2565839.5499999998,"ADDRESS":"佳里興２９６號","OBJECTID":37275},"geometry":{"x":166664.6400000006,"y":2565839.5500000026}},{"attributes":{"ID":37276,"DIS_CODE":0,"TOWNNAME":"佳里區","LI":"禮化里","LIN":"7鄰","STREET":" ","SECT":" ","MAREA":"佳里興","LANE":" ","ALLEY":" ","HOUSE_NO":"２９７號","E_COORD97":166682.38,"N_COORD97":2565787.79,"ADDRESS":"佳里興２９７號","OBJECTID":37276},"geometry":{"x":166682.38000000082,"y":2565787.7900000028}},{"attributes":{"ID":37277,"DIS_CODE":0,"TOWNNAME":"佳里區","LI":"興化里","LIN":"7鄰","STREET":" ","SECT":" ","MAREA":"佳里興","LANE":" ","ALLEY":" ","HOUSE_NO":"４４６號之１","E_COORD97":166946.64000000001,"N_COORD97":2565533.7999999998,"ADDRESS":"佳里興４４６號之１","OBJECTID":37277},"geometry":{"x":166946.63999999966,"y":2565533.8000000007}},{"attributes":{"ID":37278,"DIS_CODE":0,"TOWNNAME":"下營區","LI":"西連里","LIN":"7鄰","STREET":" ","SECT":" ","MAREA":"西寮","LANE":" ","ALLEY":" ","HOUSE_NO":"２５號","E_COORD97":174653.89000000001,"N_COORD97":2567484.5600000001,"ADDRESS":"西寮２５號","OBJECTID":37278},"geometry":{"x":174653.8900000006,"y":2567484.5600000005}},{"attributes":{"ID":37279,"DIS_CODE":0,"TOWNNAME":"東區","LI":"新東里","LIN":"8鄰","STREET":"衛國街","SECT":" ","MAREA":" ","LANE":"１０６巷","ALLEY":"１７弄","HOUSE_NO":"８號","E_COORD97":170426.26999999999,"N_COORD97":2543007,"ADDRESS":"衛國街１０６巷１７弄８號","OBJECTID":37279},"geometry":{"x":170426.26999999955,"y":2543007.0000000037}},{"attributes":{"ID":37280,"DIS_CODE":0,"TOWNNAME":"佳里區","LI":"興化里","LIN":"7鄰","STREET":" ","SECT":" ","MAREA":"佳里興","LANE":" ","ALLEY":" ","HOUSE_NO":"４４６號之２","E_COORD97":166941.54999999999,"N_COORD97":2565534.5299999998,"ADDRESS":"佳里興４４６號之２","OBJECTID":37280},"geometry":{"x":166941.55000000075,"y":2565534.5299999993}},{"attributes":{"ID":37281,"DIS_CODE":0,"TOWNNAME":"永康區","LI":"龍潭里","LIN":"8鄰","STREET":"龍橋街","SECT":" ","MAREA":" ","LANE":"５３巷","ALLEY":"２１弄","HOUSE_NO":"９號","E_COORD97":174772.78,"N_COORD97":2548297.5800000001,"ADDRESS":"龍橋街５３巷２１弄９號","OBJECTID":37281},"geometry":{"x":174772.78000000119,"y":2548297.5800000001}},{"attributes":{"ID":37282,"DIS_CODE":0,"TOWNNAME":"佳里區","LI":"興化里","LIN":"7鄰","STREET":" ","SECT":" ","MAREA":"佳里興","LANE":" ","ALLEY":" ","HOUSE_NO":"４４６號","E_COORD97":166955.89999999999,"N_COORD97":2565549.8100000001,"ADDRESS":"佳里興４４６號","OBJECTID":37282},"geometry":{"x":166955.90000000037,"y":2565549.8100000024}},{"attributes":{"ID":37283,"DIS_CODE":0,"TOWNNAME":"永康區","LI":"網寮里","LIN":"8鄰","STREET":"永二街","SECT":" ","MAREA":" ","LANE":"２４４巷","ALLEY":"６弄","HOUSE_NO":"２６號","E_COORD97":173327.12,"N_COORD97":2546347.5899999999,"ADDRESS":"永二街２４４巷６弄２６號","OBJECTID":37283},"geometry":{"x":173327.12000000197,"y":2546347.5899999999}},{"attributes":{"ID":37284,"DIS_CODE":0,"TOWNNAME":"佳里區","LI":"興化里","LIN":"7鄰","STREET":" ","SECT":" ","MAREA":"佳里興","LANE":" ","ALLEY":" ","HOUSE_NO":"４４７號","E_COORD97":166952.04000000001,"N_COORD97":2565550.46,"ADDRESS":"佳里興４４７號","OBJECTID":37284},"geometry":{"x":166952.04000000097,"y":2565550.4600000009}},{"attributes":{"ID":37285,"DIS_CODE":0,"TOWNNAME":"永康區","LI":"網寮里","LIN":"8鄰","STREET":"永二街","SECT":" ","MAREA":" ","LANE":"２４４巷","ALLEY":"４弄","HOUSE_NO":"１號","E_COORD97":173267.32000000001,"N_COORD97":2546364.8900000001,"ADDRESS":"永二街２４４巷４弄１號","OBJECTID":37285},"geometry":{"x":173267.32000000123,"y":2546364.8900000043}},{"attributes":{"ID":37286,"DIS_CODE":0,"TOWNNAME":"佳里區","LI":"興化里","LIN":"7鄰","STREET":" ","SECT":" ","MAREA":"佳里興","LANE":" ","ALLEY":" ","HOUSE_NO":"４４８號","E_COORD97":166947.89000000001,"N_COORD97":2565552,"ADDRESS":"佳里興４４８號","OBJECTID":37286},"geometry":{"x":166947.8900000006,"y":2565552}},{"attributes":{"ID":37287,"DIS_CODE":0,"TOWNNAME":"佳里區","LI":"興化里","LIN":"7鄰","STREET":" ","SECT":" ","MAREA":"佳里興","LANE":" ","ALLEY":" ","HOUSE_NO":"４４９號","E_COORD97":166943.88,"N_COORD97":2565553.1899999999,"ADDRESS":"佳里興４４９號","OBJECTID":37287},"geometry":{"x":166943.87999999989,"y":2565553.1899999995}},{"attributes":{"ID":37288,"DIS_CODE":0,"TOWNNAME":"永康區","LI":"網寮里","LIN":"8鄰","STREET":"永二街","SECT":" ","MAREA":" ","LANE":"２４４巷","ALLEY":"６弄","HOUSE_NO":"１８號","E_COORD97":173309.47,"N_COORD97":2546358.8300000001,"ADDRESS":"永二街２４４巷６弄１８號","OBJECTID":37288},"geometry":{"x":173309.47000000067,"y":2546358.8300000019}},{"attributes":{"ID":37289,"DIS_CODE":0,"TOWNNAME":"佳里區","LI":"興化里","LIN":"7鄰","STREET":" ","SECT":" ","MAREA":"佳里興","LANE":" ","ALLEY":" ","HOUSE_NO":"４５６號之１","E_COORD97":166918.39999999999,"N_COORD97":2565560.2200000002,"ADDRESS":"佳里興４５６號之１","OBJECTID":37289},"geometry":{"x":166918.4000000013,"y":2565560.2200000025}},{"attributes":{"ID":37290,"DIS_CODE":0,"TOWNNAME":"永康區","LI":"蔦松里","LIN":"8鄰","STREET":"中正北路","SECT":" ","MAREA":" ","LANE":"４０１巷","ALLEY":"３１弄","HOUSE_NO":"７號","E_COORD97":173398.85999999999,"N_COORD97":2549300.98,"ADDRESS":"中正北路４０１巷３１弄７號","OBJECTID":37290},"geometry":{"x":173398.86000000127,"y":2549300.9800000023}},{"attributes":{"ID":37291,"DIS_CODE":0,"TOWNNAME":"仁德區","LI":"上崙里","LIN":"8鄰","STREET":"德南路","SECT":" ","MAREA":" ","LANE":"３７３巷","ALLEY":"２１弄","HOUSE_NO":"２０號","E_COORD97":173924.67000000001,"N_COORD97":2538385.7599999998,"ADDRESS":"德南路３７３巷２１弄２０號","OBJECTID":37291},"geometry":{"x":173924.66999999993,"y":2538385.7599999998}},{"attributes":{"ID":37292,"DIS_CODE":0,"TOWNNAME":"仁德區","LI":"土庫里","LIN":"8鄰","STREET":"土庫三街","SECT":" ","MAREA":" ","LANE":"３９巷","ALLEY":"２３弄","HOUSE_NO":"５號","E_COORD97":174196.76000000001,"N_COORD97":2543222.6200000001,"ADDRESS":"土庫三街３９巷２３弄５號","OBJECTID":37292},"geometry":{"x":174196.75999999978,"y":2543222.6200000029}},{"attributes":{"ID":37293,"DIS_CODE":0,"TOWNNAME":"仁德區","LI":"土庫里","LIN":"8鄰","STREET":"土庫三街","SECT":" ","MAREA":" ","LANE":"３９巷","ALLEY":"２３弄","HOUSE_NO":"７號","E_COORD97":174187.62,"N_COORD97":2543226.3700000001,"ADDRESS":"土庫三街３９巷２３弄７號","OBJECTID":37293},"geometry":{"x":174187.62000000011,"y":2543226.3700000048}},{"attributes":{"ID":37294,"DIS_CODE":0,"TOWNNAME":"仁德區","LI":"上崙里","LIN":"8鄰","STREET":"德善路","SECT":" ","MAREA":" ","LANE":"２９０巷","ALLEY":"９弄","HOUSE_NO":"３號","E_COORD97":173944.17000000001,"N_COORD97":2538395.0099999998,"ADDRESS":"德善路２９０巷９弄３號","OBJECTID":37294},"geometry":{"x":173944.17000000086,"y":2538395.0099999998}},{"attributes":{"ID":37295,"DIS_CODE":0,"TOWNNAME":"仁德區","LI":"上崙里","LIN":"8鄰","STREET":"德善路","SECT":" ","MAREA":" ","LANE":"２９０巷","ALLEY":"９弄","HOUSE_NO":"１號","E_COORD97":173949.41,"N_COORD97":2538398.2599999998,"ADDRESS":"德善路２９０巷９弄１號","OBJECTID":37295},"geometry":{"x":173949.41000000108,"y":2538398.2600000016}},{"attributes":{"ID":37296,"DIS_CODE":0,"TOWNNAME":"仁德區","LI":"仁義里","LIN":"8鄰","STREET":"中山路","SECT":" ","MAREA":" ","LANE":"５０９巷","ALLEY":"３弄","HOUSE_NO":"６號","E_COORD97":173571.79999999999,"N_COORD97":2541245.75,"ADDRESS":"中山路５０９巷３弄６號","OBJECTID":37296},"geometry":{"x":173571.80000000075,"y":2541245.7500000037}},{"attributes":{"ID":37297,"DIS_CODE":0,"TOWNNAME":"東區","LI":"崇誨里","LIN":"28鄰","STREET":"裕豐街","SECT":" ","MAREA":" ","LANE":"１８５巷","ALLEY":"１２弄","HOUSE_NO":"１９號三樓","E_COORD97":170723.67000000001,"N_COORD97":2543256.0299999998,"ADDRESS":"裕豐街１８５巷１２弄１９號三樓","OBJECTID":37297},"geometry":{"x":170723.66999999993,"y":2543256.0299999993}},{"attributes":{"ID":37298,"DIS_CODE":0,"TOWNNAME":"新營區","LI":"民權里","LIN":"14鄰","STREET":"三民路","SECT":" ","MAREA":" ","LANE":" ","ALLEY":" ","HOUSE_NO":"７９之２號","E_COORD97":179894.35999999999,"N_COORD97":2578442.6000000001,"ADDRESS":"三民路７９之２號","OBJECTID":37298},"geometry":{"x":179894.3599999994,"y":2578442.6000000015}},{"attributes":{"ID":37299,"DIS_CODE":0,"TOWNNAME":"新營區","LI":"民權里","LIN":"14鄰","STREET":"三民路","SECT":" ","MAREA":" ","LANE":" ","ALLEY":" ","HOUSE_NO":"８５之２號","E_COORD97":179835.04000000001,"N_COORD97":2578437.3399999999,"ADDRESS":"三民路８５之２號","OBJECTID":37299},"geometry":{"x":179835.04000000004,"y":2578437.339999998}},{"attributes":{"ID":37300,"DIS_CODE":0,"TOWNNAME":"新營區","LI":"五興里","LIN":"14鄰","STREET":" ","SECT":" ","MAREA":"五間厝","LANE":" ","ALLEY":" ","HOUSE_NO":"１４９號","E_COORD97":175402.51000000001,"N_COORD97":2574343.6200000001,"ADDRESS":"五間厝１４９號","OBJECTID":37300},"geometry":{"x":175402.51000000071,"y":2574343.620000001}},{"attributes":{"ID":37301,"DIS_CODE":0,"TOWNNAME":"安南區","LI":"理想里","LIN":"8鄰","STREET":"海佃路","SECT":"二段","MAREA":" ","LANE":"１５０巷","ALLEY":"１１２弄","HOUSE_NO":"１之５８號","E_COORD97":167304.14999999999,"N_COORD97":2548407.5800000001,"ADDRESS":"海佃路二段１５０巷１１２弄１之５８號","OBJECTID":37301},"geometry":{"x":167304.15000000224,"y":2548407.5800000038}},{"attributes":{"ID":37302,"DIS_CODE":0,"TOWNNAME":"安南區","LI":"理想里","LIN":"8鄰","STREET":"海佃路","SECT":"二段","MAREA":" ","LANE":"１５０巷","ALLEY":"１１２弄","HOUSE_NO":"１之５９號","E_COORD97":167299.01999999999,"N_COORD97":2548407.4300000002,"ADDRESS":"海佃路二段１５０巷１１２弄１之５９號","OBJECTID":37302},"geometry":{"x":167299.02000000142,"y":2548407.4299999997}},{"attributes":{"ID":37303,"DIS_CODE":0,"TOWNNAME":"安南區","LI":"理想里","LIN":"8鄰","STREET":"海佃路","SECT":"二段","MAREA":" ","LANE":"１５０巷","ALLEY":"１１２弄","HOUSE_NO":"１之６０號","E_COORD97":167297.10999999999,"N_COORD97":2548412.02,"ADDRESS":"海佃路二段１５０巷１１２弄１之６０號","OBJECTID":37303},"geometry":{"x":167297.11000000034,"y":2548412.0200000014}},{"attributes":{"ID":37304,"DIS_CODE":0,"TOWNNAME":"東山區","LI":"東原里","LIN":"14鄰","STREET":" ","SECT":" ","MAREA":"班芝花坑","LANE":" ","ALLEY":" ","HOUSE_NO":"３０號之１","E_COORD97":192997.76999999999,"N_COORD97":2575926.5899999999,"ADDRESS":"班芝花坑３０號之１","OBJECTID":37304},"geometry":{"x":192997.76999999955,"y":2575926.5899999999}},{"attributes":{"ID":37305,"DIS_CODE":0,"TOWNNAME":"新營區","LI":"新南里","LIN":"14鄰","STREET":"民治路","SECT":" ","MAREA":" ","LANE":"３００巷","ALLEY":" ","HOUSE_NO":"５６號","E_COORD97":178645.79999999999,"N_COORD97":2578614.6099999999,"ADDRESS":"民治路３００巷５６號","OBJECTID":37305},"geometry":{"x":178645.80000000075,"y":2578614.6099999994}},{"attributes":{"ID":37306,"DIS_CODE":0,"TOWNNAME":"東山區","LI":"東原里","LIN":"14鄰","STREET":" ","SECT":" ","MAREA":"班芝花坑","LANE":" ","ALLEY":" ","HOUSE_NO":"３０之５號","E_COORD97":193085.53,"N_COORD97":2575887.5800000001,"ADDRESS":"班芝花坑３０之５號","OBJECTID":37306},"geometry":{"x":193085.53000000119,"y":2575887.5800000019}},{"attributes":{"ID":37307,"DIS_CODE":0,"TOWNNAME":"東山區","LI":"東原里","LIN":"14鄰","STREET":" ","SECT":" ","MAREA":"班芝花坑","LANE":" ","ALLEY":" ","HOUSE_NO":"３０號","E_COORD97":192808.14999999999,"N_COORD97":2575782.4399999999,"ADDRESS":"班芝花坑３０號","OBJECTID":37307},"geometry":{"x":192808.15000000224,"y":2575782.4400000013}},{"attributes":{"ID":37308,"DIS_CODE":0,"TOWNNAME":"東山區","LI":"東原里","LIN":"14鄰","STREET":" ","SECT":" ","MAREA":"班芝花坑","LANE":" ","ALLEY":" ","HOUSE_NO":"３１號之１","E_COORD97":192780.04000000001,"N_COORD97":2575760.7000000002,"ADDRESS":"班芝花坑３１號之１","OBJECTID":37308},"geometry":{"x":192780.04000000097,"y":2575760.7000000011}},{"attributes":{"ID":37309,"DIS_CODE":0,"TOWNNAME":"東山區","LI":"東原里","LIN":"14鄰","STREET":" ","SECT":" ","MAREA":"班芝花坑","LANE":" ","ALLEY":" ","HOUSE_NO":"３１號","E_COORD97":192789.54000000001,"N_COORD97":2575782.75,"ADDRESS":"班芝花坑３１號","OBJECTID":37309},"geometry":{"x":192789.54000000004,"y":2575782.75}},{"attributes":{"ID":37310,"DIS_CODE":0,"TOWNNAME":"東山區","LI":"東原里","LIN":"14鄰","STREET":" ","SECT":" ","MAREA":"班芝花坑","LANE":" ","ALLEY":" ","HOUSE_NO":"３２號","E_COORD97":192773.45999999999,"N_COORD97":2575779.2799999998,"ADDRESS":"班芝花坑３２號","OBJECTID":37310},"geometry":{"x":192773.46000000183,"y":2575779.2800000031}},{"attributes":{"ID":37311,"DIS_CODE":0,"TOWNNAME":"東山區","LI":"東原里","LIN":"14鄰","STREET":" ","SECT":" ","MAREA":"班芝花坑","LANE":" ","ALLEY":" ","HOUSE_NO":"３３號之１","E_COORD97":192780.42000000001,"N_COORD97":2575828.77,"ADDRESS":"班芝花坑３３號之１","OBJECTID":37311},"geometry":{"x":192780.42000000179,"y":2575828.7700000014}},{"attributes":{"ID":37312,"DIS_CODE":0,"TOWNNAME":"東山區","LI":"東原里","LIN":"14鄰","STREET":" ","SECT":" ","MAREA":"班芝花坑","LANE":" ","ALLEY":" ","HOUSE_NO":"３３號之２","E_COORD97":192746.45000000001,"N_COORD97":2575826.7799999998,"ADDRESS":"班芝花坑３３號之２","OBJECTID":37312},"geometry":{"x":192746.45000000019,"y":2575826.7800000031}},{"attributes":{"ID":37313,"DIS_CODE":0,"TOWNNAME":"新營區","LI":"三仙里","LIN":"14鄰","STREET":"中華路","SECT":" ","MAREA":" ","LANE":" ","ALLEY":" ","HOUSE_NO":"６２號之１","E_COORD97":179554.23000000001,"N_COORD97":2578196.1400000001,"ADDRESS":"中華路６２號之１","OBJECTID":37313},"geometry":{"x":179554.23000000045,"y":2578196.1400000025}},{"attributes":{"ID":37314,"DIS_CODE":0,"TOWNNAME":"東山區","LI":"東原里","LIN":"14鄰","STREET":" ","SECT":" ","MAREA":"班芝花坑","LANE":" ","ALLEY":" ","HOUSE_NO":"３３號","E_COORD97":192774.44,"N_COORD97":2575807.1099999999,"ADDRESS":"班芝花坑３３號","OBJECTID":37314},"geometry":{"x":192774.44000000134,"y":2575807.1099999994}},{"attributes":{"ID":37315,"DIS_CODE":0,"TOWNNAME":"東山區","LI":"東原里","LIN":"14鄰","STREET":" ","SECT":" ","MAREA":"班芝花坑","LANE":" ","ALLEY":" ","HOUSE_NO":"３４號","E_COORD97":192734.35000000001,"N_COORD97":2575796.0099999998,"ADDRESS":"班芝花坑３４號","OBJECTID":37315},"geometry":{"x":192734.34999999963,"y":2575796.0100000016}},{"attributes":{"ID":37316,"DIS_CODE":0,"TOWNNAME":"歸仁區","LI":"看西里","LIN":"14鄰","STREET":"仁愛十二街","SECT":" ","MAREA":" ","LANE":" ","ALLEY":" ","HOUSE_NO":"２７號","E_COORD97":178195.29999999999,"N_COORD97":2540083.6899999999,"ADDRESS":"仁愛十二街２７號","OBJECTID":37316},"geometry":{"x":178195.29999999981,"y":2540083.6900000013}},{"attributes":{"ID":37317,"DIS_CODE":0,"TOWNNAME":"東山區","LI":"東原里","LIN":"14鄰","STREET":" ","SECT":" ","MAREA":"班芝花坑","LANE":" ","ALLEY":" ","HOUSE_NO":"３５號","E_COORD97":192759.78,"N_COORD97":2575788.6699999999,"ADDRESS":"班芝花坑３５號","OBJECTID":37317},"geometry":{"x":192759.78000000212,"y":2575788.6700000018}},{"attributes":{"ID":37318,"DIS_CODE":0,"TOWNNAME":"東山區","LI":"東原里","LIN":"14鄰","STREET":" ","SECT":" ","MAREA":"班芝花坑","LANE":" ","ALLEY":" ","HOUSE_NO":"３６號","E_COORD97":192716.26000000001,"N_COORD97":2575831.4700000002,"ADDRESS":"班芝花坑３６號","OBJECTID":37318},"geometry":{"x":192716.25999999978,"y":2575831.4700000025}},{"attributes":{"ID":37319,"DIS_CODE":0,"TOWNNAME":"東山區","LI":"東原里","LIN":"14鄰","STREET":" ","SECT":" ","MAREA":"班芝花坑","LANE":" ","ALLEY":" ","HOUSE_NO":"３９號","E_COORD97":193672.91,"N_COORD97":2576139.9100000001,"ADDRESS":"班芝花坑３９號","OBJECTID":37319},"geometry":{"x":193672.91000000108,"y":2576139.910000002}},{"attributes":{"ID":37320,"DIS_CODE":0,"TOWNNAME":"歸仁區","LI":"六甲里","LIN":"14鄰","STREET":"六甲路","SECT":" ","MAREA":" ","LANE":" ","ALLEY":" ","HOUSE_NO":"２７３號","E_COORD97":175850.87,"N_COORD97":2539207.25,"ADDRESS":"六甲路２７３號","OBJECTID":37320},"geometry":{"x":175850.87000000011,"y":2539207.25}},{"attributes":{"ID":37321,"DIS_CODE":0,"TOWNNAME":"佳里區","LI":"興化里","LIN":"7鄰","STREET":" ","SECT":" ","MAREA":"佳里興","LANE":" ","ALLEY":" ","HOUSE_NO":"４５６號之２","E_COORD97":166920.67999999999,"N_COORD97":2565566.4100000001,"ADDRESS":"佳里興４５６號之２","OBJECTID":37321},"geometry":{"x":166920.68000000063,"y":2565566.4100000001}},{"attributes":{"ID":37322,"DIS_CODE":0,"TOWNNAME":"佳里區","LI":"興化里","LIN":"7鄰","STREET":" ","SECT":" ","MAREA":"佳里興","LANE":" ","ALLEY":" ","HOUSE_NO":"４５６號之３","E_COORD97":166928.07000000001,"N_COORD97":2565557.2999999998,"ADDRESS":"佳里興４５６號之３","OBJECTID":37322},"geometry":{"x":166928.06999999937,"y":2565557.3000000007}},{"attributes":{"ID":37323,"DIS_CODE":0,"TOWNNAME":"安南區","LI":"理想里","LIN":"8鄰","STREET":"海佃路","SECT":"二段","MAREA":" ","LANE":"１５０巷","ALLEY":"１１２弄","HOUSE_NO":"１之６１號","E_COORD97":167293.63,"N_COORD97":2548414.2200000002,"ADDRESS":"海佃路二段１５０巷１１２弄１之６１號","OBJECTID":37323},"geometry":{"x":167293.63000000175,"y":2548414.2200000044}},{"attributes":{"ID":37324,"DIS_CODE":0,"TOWNNAME":"安南區","LI":"理想里","LIN":"8鄰","STREET":"海佃路","SECT":"二段","MAREA":" ","LANE":"１５０巷","ALLEY":"１１２弄","HOUSE_NO":"１之６２號","E_COORD97":167290.14999999999,"N_COORD97":2548416.4199999999,"ADDRESS":"海佃路二段１５０巷１１２弄１之６２號","OBJECTID":37324},"geometry":{"x":167290.15000000037,"y":2548416.4200000018}},{"attributes":{"ID":37325,"DIS_CODE":0,"TOWNNAME":"佳里區","LI":"興化里","LIN":"7鄰","STREET":" ","SECT":" ","MAREA":"佳里興","LANE":" ","ALLEY":" ","HOUSE_NO":"４５６號之４","E_COORD97":166931.89000000001,"N_COORD97":2565556.4199999999,"ADDRESS":"佳里興４５６號之４","OBJECTID":37325},"geometry":{"x":166931.88999999966,"y":2565556.4199999999}},{"attributes":{"ID":37326,"DIS_CODE":0,"TOWNNAME":"佳里區","LI":"興化里","LIN":"7鄰","STREET":" ","SECT":" ","MAREA":"佳里興","LANE":" ","ALLEY":" ","HOUSE_NO":"４５６號之５","E_COORD97":166935.51999999999,"N_COORD97":2565555.6099999999,"ADDRESS":"佳里興４５６號之５","OBJECTID":37326},"geometry":{"x":166935.51999999955,"y":2565555.6100000013}},{"attributes":{"ID":37327,"DIS_CODE":0,"TOWNNAME":"佳里區","LI":"興化里","LIN":"7鄰","STREET":" ","SECT":" ","MAREA":"佳里興","LANE":" ","ALLEY":" ","HOUSE_NO":"４５６號之６","E_COORD97":166939.39000000001,"N_COORD97":2565555.1699999999,"ADDRESS":"佳里興４５６號之６","OBJECTID":37327},"geometry":{"x":166939.3900000006,"y":2565555.1699999981}},{"attributes":{"ID":37328,"DIS_CODE":0,"TOWNNAME":"佳里區","LI":"興化里","LIN":"7鄰","STREET":" ","SECT":" ","MAREA":"佳里興","LANE":" ","ALLEY":" ","HOUSE_NO":"４５８號","E_COORD97":166937.14999999999,"N_COORD97":2565598.4100000001,"ADDRESS":"佳里興４５８號","OBJECTID":37328},"geometry":{"x":166937.15000000037,"y":2565598.410000002}},{"attributes":{"ID":37329,"DIS_CODE":0,"TOWNNAME":"佳里區","LI":"興化里","LIN":"7鄰","STREET":" ","SECT":" ","MAREA":"佳里興","LANE":" ","ALLEY":" ","HOUSE_NO":"４６２號之２","E_COORD97":166966.78,"N_COORD97":2565605.25,"ADDRESS":"佳里興４６２號之２","OBJECTID":37329},"geometry":{"x":166966.78000000026,"y":2565605.25}},{"attributes":{"ID":37330,"DIS_CODE":0,"TOWNNAME":"佳里區","LI":"興化里","LIN":"7鄰","STREET":" ","SECT":" ","MAREA":"佳里興","LANE":" ","ALLEY":" ","HOUSE_NO":"４６２號之３","E_COORD97":166970.07999999999,"N_COORD97":2565603.54,"ADDRESS":"佳里興４６２號之３","OBJECTID":37330},"geometry":{"x":166970.08000000007,"y":2565603.540000001}},{"attributes":{"ID":37331,"DIS_CODE":0,"TOWNNAME":"安南區","LI":"理想里","LIN":"8鄰","STREET":"海佃路","SECT":"二段","MAREA":" ","LANE":"１５０巷","ALLEY":"１１２弄","HOUSE_NO":"１之６３號","E_COORD97":167285.97,"N_COORD97":2548418.2599999998,"ADDRESS":"海佃路二段１５０巷１１２弄１之６３號","OBJECTID":37331},"geometry":{"x":167285.9700000016,"y":2548418.2599999998}},{"attributes":{"ID":37332,"DIS_CODE":0,"TOWNNAME":"安南區","LI":"理想里","LIN":"8鄰","STREET":"海佃路","SECT":"二段","MAREA":" ","LANE":"１５０巷","ALLEY":"１１２弄","HOUSE_NO":"１之７３號","E_COORD97":167279.53,"N_COORD97":2548438.6099999999,"ADDRESS":"海佃路二段１５０巷１１２弄１之７３號","OBJECTID":37332},"geometry":{"x":167279.53000000119,"y":2548438.6100000013}},{"attributes":{"ID":37333,"DIS_CODE":0,"TOWNNAME":"佳里區","LI":"興化里","LIN":"7鄰","STREET":" ","SECT":" ","MAREA":"佳里興","LANE":" ","ALLEY":" ","HOUSE_NO":"４６２號之４","E_COORD97":166973.28,"N_COORD97":2565601.8799999999,"ADDRESS":"佳里興４６２號之４","OBJECTID":37333},"geometry":{"x":166973.28000000119,"y":2565601.8800000008}},{"attributes":{"ID":37334,"DIS_CODE":0,"TOWNNAME":"佳里區","LI":"興化里","LIN":"7鄰","STREET":" ","SECT":" ","MAREA":"佳里興","LANE":" ","ALLEY":" ","HOUSE_NO":"４６２號之５","E_COORD97":166976.79000000001,"N_COORD97":2565600.3199999998,"ADDRESS":"佳里興４６２號之５","OBJECTID":37334},"geometry":{"x":166976.79000000004,"y":2565600.3200000022}},{"attributes":{"ID":37335,"DIS_CODE":0,"TOWNNAME":"安南區","LI":"理想里","LIN":"8鄰","STREET":"海佃路","SECT":"二段","MAREA":" ","LANE":"１５０巷","ALLEY":"１１２弄","HOUSE_NO":"１之７５號","E_COORD97":167283.82999999999,"N_COORD97":2548442.21,"ADDRESS":"海佃路二段１５０巷１１２弄１之７５號","OBJECTID":37335},"geometry":{"x":167283.83000000194,"y":2548442.2100000028}},{"attributes":{"ID":37336,"DIS_CODE":0,"TOWNNAME":"安南區","LI":"新順里","LIN":"8鄰","STREET":"總安街","SECT":"一段","MAREA":" ","LANE":"３６２巷","ALLEY":"４６弄","HOUSE_NO":"２號","E_COORD97":169236.19,"N_COORD97":2550505.6099999999,"ADDRESS":"總安街一段３６２巷４６弄２號","OBJECTID":37336},"geometry":{"x":169236.19000000041,"y":2550505.6100000013}},{"attributes":{"ID":37337,"DIS_CODE":0,"TOWNNAME":"佳里區","LI":"興化里","LIN":"7鄰","STREET":" ","SECT":" ","MAREA":"佳里興","LANE":" ","ALLEY":" ","HOUSE_NO":"４６２號","E_COORD97":166947.57999999999,"N_COORD97":2565613.25,"ADDRESS":"佳里興４６２號","OBJECTID":37337},"geometry":{"x":166947.58000000007,"y":2565613.2500000019}},{"attributes":{"ID":37338,"DIS_CODE":0,"TOWNNAME":"安南區","LI":"新順里","LIN":"8鄰","STREET":"總安街","SECT":"一段","MAREA":" ","LANE":"３６２巷","ALLEY":"４６弄","HOUSE_NO":"２之１號","E_COORD97":169242.45999999999,"N_COORD97":2550502.6800000002,"ADDRESS":"總安街一段３６２巷４６弄２之１號","OBJECTID":37338},"geometry":{"x":169242.46000000183,"y":2550502.6800000016}},{"attributes":{"ID":37339,"DIS_CODE":0,"TOWNNAME":"安南區","LI":"新順里","LIN":"8鄰","STREET":"總安街","SECT":"一段","MAREA":" ","LANE":"３６２巷","ALLEY":"４６弄","HOUSE_NO":"２之２號","E_COORD97":169245.81,"N_COORD97":2550498.9100000001,"ADDRESS":"總安街一段３６２巷４６弄２之２號","OBJECTID":37339},"geometry":{"x":169245.80999999959,"y":2550498.910000002}},{"attributes":{"ID":37340,"DIS_CODE":0,"TOWNNAME":"安南區","LI":"新順里","LIN":"8鄰","STREET":"總安街","SECT":"一段","MAREA":" ","LANE":"３６２巷","ALLEY":"４６弄","HOUSE_NO":"２之３號","E_COORD97":169250.29000000001,"N_COORD97":2550499.4399999999,"ADDRESS":"總安街一段３６２巷４６弄２之３號","OBJECTID":37340},"geometry":{"x":169250.29000000004,"y":2550499.4399999995}},{"attributes":{"ID":37341,"DIS_CODE":0,"TOWNNAME":"佳里區","LI":"興化里","LIN":"7鄰","STREET":" ","SECT":" ","MAREA":"佳里興","LANE":" ","ALLEY":" ","HOUSE_NO":"４６３號","E_COORD97":166948.72,"N_COORD97":2565602.4300000002,"ADDRESS":"佳里興４６３號","OBJECTID":37341},"geometry":{"x":166948.7200000016,"y":2565602.4300000016}},{"attributes":{"ID":37342,"DIS_CODE":0,"TOWNNAME":"安南區","LI":"\u25A0南里","LIN":"8鄰","STREET":"安昌街","SECT":" ","MAREA":" ","LANE":"２１９巷","ALLEY":"１２弄","HOUSE_NO":"８號","E_COORD97":170063.67000000001,"N_COORD97":2552533.6499999999,"ADDRESS":"安昌街２１９巷１２弄８號","OBJECTID":37342},"geometry":{"x":170063.67000000086,"y":2552533.6500000041}},{"attributes":{"ID":37343,"DIS_CODE":0,"TOWNNAME":"佳里區","LI":"興化里","LIN":"7鄰","STREET":" ","SECT":" ","MAREA":"佳里興","LANE":" ","ALLEY":" ","HOUSE_NO":"４６４號之１","E_COORD97":166959.89999999999,"N_COORD97":2565591.7999999998,"ADDRESS":"佳里興４６４號之１","OBJECTID":37343},"geometry":{"x":166959.90000000224,"y":2565591.8000000007}},{"attributes":{"ID":37344,"DIS_CODE":0,"TOWNNAME":"安南區","LI":"新順里","LIN":"8鄰","STREET":"總安街","SECT":"一段","MAREA":" ","LANE":"３６２巷","ALLEY":"４６弄","HOUSE_NO":"２之５號","E_COORD97":169254.73999999999,"N_COORD97":2550500.3900000001,"ADDRESS":"總安街一段３６２巷４６弄２之５號","OBJECTID":37344},"geometry":{"x":169254.74000000115,"y":2550500.3900000006}},{"attributes":{"ID":37345,"DIS_CODE":0,"TOWNNAME":"佳里區","LI":"興化里","LIN":"7鄰","STREET":" ","SECT":" ","MAREA":"佳里興","LANE":" ","ALLEY":" ","HOUSE_NO":"４６４號之２","E_COORD97":166963.70000000001,"N_COORD97":2565591.0499999998,"ADDRESS":"佳里興４６４號之２","OBJECTID":37345},"geometry":{"x":166963.70000000019,"y":2565591.0500000045}},{"attributes":{"ID":37346,"DIS_CODE":0,"TOWNNAME":"安南區","LI":"新順里","LIN":"8鄰","STREET":"總安街","SECT":"一段","MAREA":" ","LANE":"３６２巷","ALLEY":"４６弄","HOUSE_NO":"２之６號","E_COORD97":169262.23999999999,"N_COORD97":2550499.8100000001,"ADDRESS":"總安街一段３６２巷４６弄２之６號","OBJECTID":37346},"geometry":{"x":169262.24000000022,"y":2550499.8100000024}},{"attributes":{"ID":37347,"DIS_CODE":0,"TOWNNAME":"關廟區","LI":"北勢里","LIN":"14鄰","STREET":"北安三街","SECT":" ","MAREA":" ","LANE":" ","ALLEY":" ","HOUSE_NO":"１６５號","E_COORD97":181382.44,"N_COORD97":2540615.3199999998,"ADDRESS":"北安三街１６５號","OBJECTID":37347},"geometry":{"x":181382.44000000227,"y":2540615.320000004}},{"attributes":{"ID":37348,"DIS_CODE":0,"TOWNNAME":"關廟區","LI":"東勢里","LIN":"14鄰","STREET":"東榮街","SECT":" ","MAREA":" ","LANE":" ","ALLEY":" ","HOUSE_NO":"１４２號","E_COORD97":182167.67000000001,"N_COORD97":2539348.25,"ADDRESS":"東榮街１４２號","OBJECTID":37348},"geometry":{"x":182167.67000000086,"y":2539348.2500000019}},{"attributes":{"ID":37349,"DIS_CODE":0,"TOWNNAME":"佳里區","LI":"興化里","LIN":"7鄰","STREET":" ","SECT":" ","MAREA":"佳里興","LANE":" ","ALLEY":" ","HOUSE_NO":"４６４號","E_COORD97":166948.07999999999,"N_COORD97":2565596.3199999998,"ADDRESS":"佳里興４６４號","OBJECTID":37349},"geometry":{"x":166948.08000000007,"y":2565596.3200000022}},{"attributes":{"ID":37350,"DIS_CODE":0,"TOWNNAME":"佳里區","LI":"興化里","LIN":"7鄰","STREET":" ","SECT":" ","MAREA":"佳里興","LANE":" ","ALLEY":" ","HOUSE_NO":"４６５號之１","E_COORD97":166974.01999999999,"N_COORD97":2565581.8300000001,"ADDRESS":"佳里興４６５號之１","OBJECTID":37350},"geometry":{"x":166974.02000000048,"y":2565581.8300000019}},{"attributes":{"ID":37351,"DIS_CODE":0,"TOWNNAME":"佳里區","LI":"興化里","LIN":"7鄰","STREET":" ","SECT":" ","MAREA":"佳里興","LANE":" ","ALLEY":" ","HOUSE_NO":"４６５號之２","E_COORD97":166972.88,"N_COORD97":2565577.8599999999,"ADDRESS":"佳里興４６５號之２","OBJECTID":37351},"geometry":{"x":166972.87999999989,"y":2565577.8600000013}},{"attributes":{"ID":37352,"DIS_CODE":0,"TOWNNAME":"佳里區","LI":"興化里","LIN":"7鄰","STREET":" ","SECT":" ","MAREA":"佳里興","LANE":" ","ALLEY":" ","HOUSE_NO":"４６５號之３","E_COORD97":166972.10000000001,"N_COORD97":2565573.6400000001,"ADDRESS":"佳里興４６５號之３","OBJECTID":37352},"geometry":{"x":166972.10000000056,"y":2565573.6400000025}},{"attributes":{"ID":37353,"DIS_CODE":0,"TOWNNAME":"佳里區","LI":"興化里","LIN":"7鄰","STREET":" ","SECT":" ","MAREA":"佳里興","LANE":" ","ALLEY":" ","HOUSE_NO":"４６５號之４","E_COORD97":166971.09,"N_COORD97":2565569.6099999999,"ADDRESS":"佳里興４６５號之４","OBJECTID":37353},"geometry":{"x":166971.08999999985,"y":2565569.6100000013}},{"attributes":{"ID":37354,"DIS_CODE":0,"TOWNNAME":"東區","LI":"新東里","LIN":"8鄰","STREET":"衛國街","SECT":" ","MAREA":" ","LANE":"１０６巷","ALLEY":"１７弄","HOUSE_NO":"２號","E_COORD97":170414.09,"N_COORD97":2543007.1000000001,"ADDRESS":"衛國街１０６巷１７弄２號","OBJECTID":37354},"geometry":{"x":170414.08999999985,"y":2543007.1000000015}},{"attributes":{"ID":37355,"DIS_CODE":0,"TOWNNAME":"東區","LI":"新東里","LIN":"8鄰","STREET":"衛國街","SECT":" ","MAREA":" ","LANE":"１０６巷","ALLEY":"１７弄","HOUSE_NO":"３６號","E_COORD97":170499.59,"N_COORD97":2543016.5099999998,"ADDRESS":"衛國街１０６巷１７弄３６號","OBJECTID":37355},"geometry":{"x":170499.59000000078,"y":2543016.5099999998}},{"attributes":{"ID":37356,"DIS_CODE":0,"TOWNNAME":"東區","LI":"南聖里","LIN":"8鄰","STREET":"裕農路","SECT":" ","MAREA":" ","LANE":"７２６巷","ALLEY":"３弄","HOUSE_NO":"１號","E_COORD97":171865.57000000001,"N_COORD97":2543202.4100000001,"ADDRESS":"裕農路７２６巷３弄１號","OBJECTID":37356},"geometry":{"x":171865.5700000003,"y":2543202.410000002}},{"attributes":{"ID":37357,"DIS_CODE":0,"TOWNNAME":"東區","LI":"南聖里","LIN":"8鄰","STREET":"裕農路","SECT":" ","MAREA":" ","LANE":"７２６巷","ALLEY":"３弄","HOUSE_NO":"２號","E_COORD97":171869.29000000001,"N_COORD97":2543185.4100000001,"ADDRESS":"裕農路７２６巷３弄２號","OBJECTID":37357},"geometry":{"x":171869.29000000004,"y":2543185.410000002}},{"attributes":{"ID":37358,"DIS_CODE":0,"TOWNNAME":"東區","LI":"南聖里","LIN":"8鄰","STREET":"裕農路","SECT":" ","MAREA":" ","LANE":"７２６巷","ALLEY":"３弄","HOUSE_NO":"３號","E_COORD97":171873.91,"N_COORD97":2543204.1899999999,"ADDRESS":"裕農路７２６巷３弄３號","OBJECTID":37358},"geometry":{"x":171873.90999999922,"y":2543204.1899999995}},{"attributes":{"ID":37359,"DIS_CODE":0,"TOWNNAME":"東區","LI":"南聖里","LIN":"8鄰","STREET":"裕農路","SECT":" ","MAREA":" ","LANE":"７２６巷","ALLEY":"３弄","HOUSE_NO":"４號","E_COORD97":171879.20000000001,"N_COORD97":2543186.3500000001,"ADDRESS":"裕農路７２６巷３弄４號","OBJECTID":37359},"geometry":{"x":171879.20000000112,"y":2543186.3499999996}},{"attributes":{"ID":37360,"DIS_CODE":0,"TOWNNAME":"佳里區","LI":"興化里","LIN":"7鄰","STREET":" ","SECT":" ","MAREA":"佳里興","LANE":" ","ALLEY":" ","HOUSE_NO":"４６５號之５","E_COORD97":166970.26000000001,"N_COORD97":2565565.9399999999,"ADDRESS":"佳里興４６５號之５","OBJECTID":37360},"geometry":{"x":166970.25999999978,"y":2565565.9399999995}},{"attributes":{"ID":37361,"DIS_CODE":0,"TOWNNAME":"東區","LI":"南聖里","LIN":"8鄰","STREET":"裕農路","SECT":" ","MAREA":" ","LANE":"７２６巷","ALLEY":"３弄","HOUSE_NO":"５號","E_COORD97":171885.22,"N_COORD97":2543205.0299999998,"ADDRESS":"裕農路７２６巷３弄５號","OBJECTID":37361},"geometry":{"x":171885.22000000067,"y":2543205.0299999993}},{"attributes":{"ID":37362,"DIS_CODE":0,"TOWNNAME":"佳里區","LI":"興化里","LIN":"7鄰","STREET":" ","SECT":" ","MAREA":"佳里興","LANE":" ","ALLEY":" ","HOUSE_NO":"４６５號之６","E_COORD97":166969.5,"N_COORD97":2565561.8700000001,"ADDRESS":"佳里興４６５號之６","OBJECTID":37362},"geometry":{"x":166969.50000000093,"y":2565561.8700000048}},{"attributes":{"ID":37363,"DIS_CODE":0,"TOWNNAME":"佳里區","LI":"興化里","LIN":"7鄰","STREET":" ","SECT":" ","MAREA":"佳里興","LANE":" ","ALLEY":" ","HOUSE_NO":"４６５號","E_COORD97":166962.51999999999,"N_COORD97":2565586.7599999998,"ADDRESS":"佳里興４６５號","OBJECTID":37363},"geometry":{"x":166962.51999999955,"y":2565586.7599999998}},{"attributes":{"ID":37364,"DIS_CODE":0,"TOWNNAME":"東區","LI":"南聖里","LIN":"8鄰","STREET":"裕農路","SECT":" ","MAREA":" ","LANE":"７２６巷","ALLEY":"３弄","HOUSE_NO":"６號","E_COORD97":171890.04000000001,"N_COORD97":2543187.96,"ADDRESS":"裕農路７２６巷３弄６號","OBJECTID":37364},"geometry":{"x":171890.0400000019,"y":2543187.9600000046}},{"attributes":{"ID":37365,"DIS_CODE":0,"TOWNNAME":"佳里區","LI":"興化里","LIN":"7鄰","STREET":" ","SECT":" ","MAREA":"佳里興","LANE":" ","ALLEY":" ","HOUSE_NO":"４６６號","E_COORD97":166961.39000000001,"N_COORD97":2565582.8799999999,"ADDRESS":"佳里興４６６號","OBJECTID":37365},"geometry":{"x":166961.3900000006,"y":2565582.879999999}},{"attributes":{"ID":37366,"DIS_CODE":0,"TOWNNAME":"佳里區","LI":"興化里","LIN":"7鄰","STREET":" ","SECT":" ","MAREA":"佳里興","LANE":" ","ALLEY":" ","HOUSE_NO":"４６７號","E_COORD97":166960.32999999999,"N_COORD97":2565578.6899999999,"ADDRESS":"佳里興４６７號","OBJECTID":37366},"geometry":{"x":166960.33000000101,"y":2565578.6900000032}},{"attributes":{"ID":37367,"DIS_CODE":0,"TOWNNAME":"佳里區","LI":"興化里","LIN":"7鄰","STREET":" ","SECT":" ","MAREA":"佳里興","LANE":" ","ALLEY":" ","HOUSE_NO":"４６８號","E_COORD97":166959.28,"N_COORD97":2565574.6200000001,"ADDRESS":"佳里興４６８號","OBJECTID":37367},"geometry":{"x":166959.28000000119,"y":2565574.6200000029}},{"attributes":{"ID":37368,"DIS_CODE":0,"TOWNNAME":"佳里區","LI":"興化里","LIN":"7鄰","STREET":" ","SECT":" ","MAREA":"佳里興","LANE":" ","ALLEY":" ","HOUSE_NO":"４６９號","E_COORD97":166957.79000000001,"N_COORD97":2565570.52,"ADDRESS":"佳里興４６９號","OBJECTID":37368},"geometry":{"x":166957.79000000004,"y":2565570.5200000014}},{"attributes":{"ID":37369,"DIS_CODE":0,"TOWNNAME":"安南區","LI":"\u25A0南里","LIN":"8鄰","STREET":"安昌街","SECT":" ","MAREA":" ","LANE":"２１９巷","ALLEY":"１０弄","HOUSE_NO":"２號","E_COORD97":170091.51999999999,"N_COORD97":2552546.3199999998,"ADDRESS":"安昌街２１９巷１０弄２號","OBJECTID":37369},"geometry":{"x":170091.52000000048,"y":2552546.3200000022}},{"attributes":{"ID":37370,"DIS_CODE":0,"TOWNNAME":"佳里區","LI":"興化里","LIN":"7鄰","STREET":" ","SECT":" ","MAREA":"佳里興","LANE":" ","ALLEY":" ","HOUSE_NO":"４７０號","E_COORD97":166957.17999999999,"N_COORD97":2565566.8199999998,"ADDRESS":"佳里興４７０號","OBJECTID":37370},"geometry":{"x":166957.1799999997,"y":2565566.8200000003}},{"attributes":{"ID":37371,"DIS_CODE":0,"TOWNNAME":"佳里區","LI":"興化里","LIN":"7鄰","STREET":" ","SECT":" ","MAREA":"佳里興","LANE":" ","ALLEY":" ","HOUSE_NO":"４７５號之１","E_COORD97":166981.79999999999,"N_COORD97":2565590.7200000002,"ADDRESS":"佳里興４７５號之１","OBJECTID":37371},"geometry":{"x":166981.79999999981,"y":2565590.7200000025}},{"attributes":{"ID":37372,"DIS_CODE":0,"TOWNNAME":"佳里區","LI":"興化里","LIN":"7鄰","STREET":" ","SECT":" ","MAREA":"佳里興","LANE":" ","ALLEY":" ","HOUSE_NO":"４７５號之２","E_COORD97":166986.23000000001,"N_COORD97":2565588.21,"ADDRESS":"佳里興４７５號之２","OBJECTID":37372},"geometry":{"x":166986.23000000045,"y":2565588.2100000028}},{"attributes":{"ID":37373,"DIS_CODE":0,"TOWNNAME":"安南區","LI":"\u25A0南里","LIN":"8鄰","STREET":"安昌街","SECT":" ","MAREA":" ","LANE":"２１９巷","ALLEY":"１０弄","HOUSE_NO":"３號","E_COORD97":170084.38,"N_COORD97":2552526.0899999999,"ADDRESS":"安昌街２１９巷１０弄３號","OBJECTID":37373},"geometry":{"x":170084.38000000082,"y":2552526.0899999999}},{"attributes":{"ID":37374,"DIS_CODE":0,"TOWNNAME":"佳里區","LI":"興化里","LIN":"7鄰","STREET":" ","SECT":" ","MAREA":"佳里興","LANE":" ","ALLEY":" ","HOUSE_NO":"４７５號","E_COORD97":166980.85000000001,"N_COORD97":2565598.7000000002,"ADDRESS":"佳里興４７５號","OBJECTID":37374},"geometry":{"x":166980.84999999963,"y":2565598.700000003}},{"attributes":{"ID":37375,"DIS_CODE":0,"TOWNNAME":"安南區","LI":"\u25A0南里","LIN":"8鄰","STREET":"安昌街","SECT":" ","MAREA":" ","LANE":"２１９巷","ALLEY":"１０弄","HOUSE_NO":"４號","E_COORD97":170087.75,"N_COORD97":2552547.7400000002,"ADDRESS":"安昌街２１９巷１０弄４號","OBJECTID":37375},"geometry":{"x":170087.75,"y":2552547.7400000021}},{"attributes":{"ID":37376,"DIS_CODE":0,"TOWNNAME":"安南區","LI":"\u25A0南里","LIN":"8鄰","STREET":"安昌街","SECT":" ","MAREA":" ","LANE":"２１９巷","ALLEY":"１０弄","HOUSE_NO":"５號","E_COORD97":170080.22,"N_COORD97":2552527.1299999999,"ADDRESS":"安昌街２１９巷１０弄５號","OBJECTID":37376},"geometry":{"x":170080.22000000067,"y":2552527.129999999}},{"attributes":{"ID":37377,"DIS_CODE":0,"TOWNNAME":"佳里區","LI":"佳化里","LIN":"7鄰","STREET":" ","SECT":" ","MAREA":"佳里興","LANE":" ","ALLEY":" ","HOUSE_NO":"６３號之３","E_COORD97":167502.73999999999,"N_COORD97":2565177.3100000001,"ADDRESS":"佳里興６３號之３","OBJECTID":37377},"geometry":{"x":167502.74000000022,"y":2565177.3100000005}},{"attributes":{"ID":37378,"DIS_CODE":0,"TOWNNAME":"安南區","LI":"\u25A0南里","LIN":"8鄰","STREET":"安昌街","SECT":" ","MAREA":" ","LANE":"２１９巷","ALLEY":"１０弄","HOUSE_NO":"６號","E_COORD97":170083.98999999999,"N_COORD97":2552549.04,"ADDRESS":"安昌街２１９巷１０弄６號","OBJECTID":37378},"geometry":{"x":170083.99000000115,"y":2552549.0399999991}},{"attributes":{"ID":37379,"DIS_CODE":0,"TOWNNAME":"關廟區","LI":"松腳里","LIN":"14鄰","STREET":"松安街","SECT":" ","MAREA":" ","LANE":" ","ALLEY":" ","HOUSE_NO":"１０８號","E_COORD97":181914.67000000001,"N_COORD97":2539629.3199999998,"ADDRESS":"松安街１０８號","OBJECTID":37379},"geometry":{"x":181914.67000000086,"y":2539629.3200000022}},{"attributes":{"ID":37380,"DIS_CODE":0,"TOWNNAME":"關廟區","LI":"松腳里","LIN":"14鄰","STREET":"松安街","SECT":" ","MAREA":" ","LANE":" ","ALLEY":" ","HOUSE_NO":"８６號","E_COORD97":181958.72,"N_COORD97":2539644.3199999998,"ADDRESS":"松安街８６號","OBJECTID":37380},"geometry":{"x":181958.71999999974,"y":2539644.3200000003}},{"attributes":{"ID":37381,"DIS_CODE":0,"TOWNNAME":"關廟區","LI":"關廟里","LIN":"14鄰","STREET":"民生街","SECT":" ","MAREA":" ","LANE":" ","ALLEY":" ","HOUSE_NO":"１０７號","E_COORD97":180851.69,"N_COORD97":2539741.29,"ADDRESS":"民生街１０７號","OBJECTID":37381},"geometry":{"x":180851.68999999948,"y":2539741.2899999991}},{"attributes":{"ID":37382,"DIS_CODE":0,"TOWNNAME":"佳里區","LI":"佳化里","LIN":"7鄰","STREET":" ","SECT":" ","MAREA":"佳里興","LANE":" ","ALLEY":" ","HOUSE_NO":"６３號","E_COORD97":167506.75,"N_COORD97":2565164.6099999999,"ADDRESS":"佳里興６３號","OBJECTID":37382},"geometry":{"x":167506.75000000093,"y":2565164.6099999994}},{"attributes":{"ID":37383,"DIS_CODE":0,"TOWNNAME":"佳里區","LI":"佳化里","LIN":"7鄰","STREET":" ","SECT":" ","MAREA":"佳里興","LANE":" ","ALLEY":" ","HOUSE_NO":"６４號之１","E_COORD97":167503.47,"N_COORD97":2565125.52,"ADDRESS":"佳里興６４號之１","OBJECTID":37383},"geometry":{"x":167503.47000000067,"y":2565125.5200000033}},{"attributes":{"ID":37384,"DIS_CODE":0,"TOWNNAME":"新化區","LI":"全興里","LIN":"14鄰","STREET":" ","SECT":" ","MAREA":"竹子\u25A0","LANE":" ","ALLEY":" ","HOUSE_NO":"２４７號之２５８","E_COORD97":178239.69,"N_COORD97":2546721.2599999998,"ADDRESS":"竹子\u25A0２４７號之２５８","OBJECTID":37384},"geometry":{"x":178239.69000000134,"y":2546721.2600000035}},{"attributes":{"ID":37385,"DIS_CODE":0,"TOWNNAME":"新化區","LI":"全興里","LIN":"14鄰","STREET":" ","SECT":" ","MAREA":"竹子\u25A0","LANE":" ","ALLEY":" ","HOUSE_NO":"２４７號之２９８","E_COORD97":178125.79000000001,"N_COORD97":2546724.2599999998,"ADDRESS":"竹子\u25A0２４７號之２９８","OBJECTID":37385},"geometry":{"x":178125.79000000004,"y":2546724.2600000035}},{"attributes":{"ID":37386,"DIS_CODE":0,"TOWNNAME":"安南區","LI":"\u25A0南里","LIN":"8鄰","STREET":"安昌街","SECT":" ","MAREA":" ","LANE":"２１９巷","ALLEY":"１０弄","HOUSE_NO":"７號","E_COORD97":170075.42000000001,"N_COORD97":2552528.8100000001,"ADDRESS":"安昌街２１９巷１０弄７號","OBJECTID":37386},"geometry":{"x":170075.42000000086,"y":2552528.8100000005}},{"attributes":{"ID":37387,"DIS_CODE":0,"TOWNNAME":"安南區","LI":"\u25A0南里","LIN":"8鄰","STREET":"安昌街","SECT":" ","MAREA":" ","LANE":"２１９巷","ALLEY":"１０弄","HOUSE_NO":"８號","E_COORD97":170080.22,"N_COORD97":2552550.8599999999,"ADDRESS":"安昌街２１９巷１０弄８號","OBJECTID":37387},"geometry":{"x":170080.22000000067,"y":2552550.8599999994}},{"attributes":{"ID":37388,"DIS_CODE":0,"TOWNNAME":"安南區","LI":"\u25A0南里","LIN":"8鄰","STREET":"安昌街","SECT":" ","MAREA":" ","LANE":"２１９巷","ALLEY":"１２弄","HOUSE_NO":"１０號","E_COORD97":170064.42000000001,"N_COORD97":2552539.4900000002,"ADDRESS":"安昌街２１９巷１２弄１０號","OBJECTID":37388},"geometry":{"x":170064.41999999993,"y":2552539.4900000002}},{"attributes":{"ID":37389,"DIS_CODE":0,"TOWNNAME":"佳里區","LI":"佳化里","LIN":"7鄰","STREET":" ","SECT":" ","MAREA":"佳里興","LANE":" ","ALLEY":" ","HOUSE_NO":"６４號","E_COORD97":167524.01999999999,"N_COORD97":2565130.3900000001,"ADDRESS":"佳里興６４號","OBJECTID":37389},"geometry":{"x":167524.01999999955,"y":2565130.3900000006}},{"attributes":{"ID":37390,"DIS_CODE":0,"TOWNNAME":"安南區","LI":"\u25A0南里","LIN":"8鄰","STREET":"安昌街","SECT":" ","MAREA":" ","LANE":"２１９巷","ALLEY":"１２弄","HOUSE_NO":"１１號","E_COORD97":170049.14000000001,"N_COORD97":2552545.6600000001,"ADDRESS":"安昌街２１９巷１２弄１１號","OBJECTID":37390},"geometry":{"x":170049.13999999966,"y":2552545.6600000001}},{"attributes":{"ID":37391,"DIS_CODE":0,"TOWNNAME":"安南區","LI":"\u25A0南里","LIN":"8鄰","STREET":"安昌街","SECT":" ","MAREA":" ","LANE":"２１９巷","ALLEY":"１２弄","HOUSE_NO":"１２號","E_COORD97":170065.01999999999,"N_COORD97":2552545.7799999998,"ADDRESS":"安昌街２１９巷１２弄１２號","OBJECTID":37391},"geometry":{"x":170065.01999999955,"y":2552545.7800000012}},{"attributes":{"ID":37392,"DIS_CODE":0,"TOWNNAME":"安南區","LI":"\u25A0南里","LIN":"8鄰","STREET":"安昌街","SECT":" ","MAREA":" ","LANE":"２１９巷","ALLEY":"１２弄","HOUSE_NO":"１３號","E_COORD97":170049.32000000001,"N_COORD97":2552551.6000000001,"ADDRESS":"安昌街２１９巷１２弄１３號","OBJECTID":37392},"geometry":{"x":170049.32000000123,"y":2552551.6000000015}},{"attributes":{"ID":37393,"DIS_CODE":0,"TOWNNAME":"安南區","LI":"\u25A0南里","LIN":"8鄰","STREET":"安昌街","SECT":" ","MAREA":" ","LANE":"２１９巷","ALLEY":"１２弄","HOUSE_NO":"１４號","E_COORD97":170065.76999999999,"N_COORD97":2552552.0699999998,"ADDRESS":"安昌街２１９巷１２弄１４號","OBJECTID":37393},"geometry":{"x":170065.77000000048,"y":2552552.0700000022}},{"attributes":{"ID":37394,"DIS_CODE":0,"TOWNNAME":"安南區","LI":"\u25A0南里","LIN":"8鄰","STREET":"安昌街","SECT":" ","MAREA":" ","LANE":"２１９巷","ALLEY":"１２弄","HOUSE_NO":"１５號","E_COORD97":170049.32000000001,"N_COORD97":2552557.5299999998,"ADDRESS":"安昌街２１９巷１２弄１５號","OBJECTID":37394},"geometry":{"x":170049.32000000123,"y":2552557.5300000012}},{"attributes":{"ID":37395,"DIS_CODE":0,"TOWNNAME":"安南區","LI":"\u25A0南里","LIN":"8鄰","STREET":"安昌街","SECT":" ","MAREA":" ","LANE":"２１９巷","ALLEY":"１２弄","HOUSE_NO":"１６號","E_COORD97":170065.76999999999,"N_COORD97":2552557.3100000001,"ADDRESS":"安昌街２１９巷１２弄１６號","OBJECTID":37395},"geometry":{"x":170065.77000000048,"y":2552557.3100000024}},{"attributes":{"ID":37396,"DIS_CODE":0,"TOWNNAME":"安南區","LI":"\u25A0南里","LIN":"8鄰","STREET":"安昌街","SECT":" ","MAREA":" ","LANE":"２１９巷","ALLEY":"１２弄","HOUSE_NO":"１號","E_COORD97":170046.57000000001,"N_COORD97":2552516.8700000001,"ADDRESS":"安昌街２１９巷１２弄１號","OBJECTID":37396},"geometry":{"x":170046.5700000003,"y":2552516.8700000029}},{"attributes":{"ID":37397,"DIS_CODE":0,"TOWNNAME":"安南區","LI":"\u25A0南里","LIN":"8鄰","STREET":"安昌街","SECT":" ","MAREA":" ","LANE":"２１９巷","ALLEY":"１２弄","HOUSE_NO":"２號","E_COORD97":170061.87,"N_COORD97":2552516.5699999998,"ADDRESS":"安昌街２１９巷１２弄２號","OBJECTID":37397},"geometry":{"x":170061.87000000011,"y":2552516.5700000003}},{"attributes":{"ID":37398,"DIS_CODE":0,"TOWNNAME":"安南區","LI":"\u25A0南里","LIN":"8鄰","STREET":"安昌街","SECT":" ","MAREA":" ","LANE":"２１９巷","ALLEY":"１２弄","HOUSE_NO":"３號","E_COORD97":170046.60999999999,"N_COORD97":2552523.0099999998,"ADDRESS":"安昌街２１９巷１２弄３號","OBJECTID":37398},"geometry":{"x":170046.61000000034,"y":2552523.0099999998}},{"attributes":{"ID":37399,"DIS_CODE":0,"TOWNNAME":"安南區","LI":"\u25A0南里","LIN":"8鄰","STREET":"安昌街","SECT":" ","MAREA":" ","LANE":"２１９巷","ALLEY":"１２弄","HOUSE_NO":"４號","E_COORD97":170062.17000000001,"N_COORD97":2552522.1099999999,"ADDRESS":"安昌街２１９巷１２弄４號","OBJECTID":37399},"geometry":{"x":170062.17000000086,"y":2552522.1099999994}},{"attributes":{"ID":37400,"DIS_CODE":0,"TOWNNAME":"佳里區","LI":"佳化里","LIN":"7鄰","STREET":" ","SECT":" ","MAREA":"佳里興","LANE":" ","ALLEY":" ","HOUSE_NO":"６５號之１３","E_COORD97":167496.95000000001,"N_COORD97":2565031.3399999999,"ADDRESS":"佳里興６５號之１３","OBJECTID":37400},"geometry":{"x":167496.95000000112,"y":2565031.3399999999}}]}