{"displayFieldName":"TOWNNAME","fieldAliases":{"ID":"ID","DIS_CODE":"DIS_CODE","TOWNNAME":"TOWNNAME","LI":"LI","LIN":"LIN","STREET":"STREET","SECT":"SECT","MAREA":"MAREA","LANE":"LANE","ALLEY":"ALLEY","HOUSE_NO":"HOUSE_NO","E_COORD97":"E_COORD97","N_COORD97":"N_COORD97","ADDRESS":"ADDRESS","OBJECTID":"OBJECTID"},"geometryType":"esriGeometryPoint","spatialReference":{"wkid":102443,"latestWkid":3826},"fields":[{"name":"ID","type":"esriFieldTypeDouble","alias":"ID"},{"name":"DIS_CODE","type":"esriFieldTypeInteger","alias":"DIS_CODE"},{"name":"TOWNNAME","type":"esriFieldTypeString","alias":"TOWNNAME","length":8},{"name":"LI","type":"esriFieldTypeString","alias":"LI","length":8},{"name":"LIN","type":"esriFieldTypeString","alias":"LIN","length":12},{"name":"STREET","type":"esriFieldTypeString","alias":"STREET","length":20},{"name":"SECT","type":"esriFieldTypeString","alias":"SECT","length":8},{"name":"MAREA","type":"esriFieldTypeString","alias":"MAREA","length":12},{"name":"LANE","type":"esriFieldTypeString","alias":"LANE","length":10},{"name":"ALLEY","type":"esriFieldTypeString","alias":"ALLEY","length":10},{"name":"HOUSE_NO","type":"esriFieldTypeString","alias":"HOUSE_NO","length":20},{"name":"E_COORD97","type":"esriFieldTypeDouble","alias":"E_COORD97"},{"name":"N_COORD97","type":"esriFieldTypeDouble","alias":"N_COORD97"},{"name":"ADDRESS","type":"esriFieldTypeString","alias":"ADDRESS","length":50},{"name":"OBJECTID","type":"esriFieldTypeOID","alias":"OBJECTID"}],"features":[{"attributes":{"ID":98601,"DIS_CODE":0,"TOWNNAME":"大內區","LI":"大內里","LIN":"1鄰","STREET":" ","SECT":" ","MAREA":"內庄","LANE":" ","ALLEY":" ","HOUSE_NO":"６號之１","E_COORD97":184415.20999999999,"N_COORD97":2557622.2999999998,"ADDRESS":"內庄６號之１","OBJECTID":98601},"geometry":{"x":184415.21000000089,"y":2557622.3000000026}},{"attributes":{"ID":98602,"DIS_CODE":0,"TOWNNAME":"下營區","LI":"西連里","LIN":"10鄰","STREET":" ","SECT":" ","MAREA":"西寮","LANE":" ","ALLEY":" ","HOUSE_NO":"５７號之６","E_COORD97":174490.20999999999,"N_COORD97":2567230.6600000001,"ADDRESS":"西寮５７號之６","OBJECTID":98602},"geometry":{"x":174490.20999999996,"y":2567230.6600000039}},{"attributes":{"ID":98603,"DIS_CODE":0,"TOWNNAME":"下營區","LI":"西連里","LIN":"10鄰","STREET":" ","SECT":" ","MAREA":"西寮","LANE":" ","ALLEY":" ","HOUSE_NO":"５７號","E_COORD97":174542.82999999999,"N_COORD97":2567307.9700000002,"ADDRESS":"西寮５７號","OBJECTID":98603},"geometry":{"x":174542.83000000101,"y":2567307.9700000025}},{"attributes":{"ID":98604,"DIS_CODE":0,"TOWNNAME":"下營區","LI":"西連里","LIN":"10鄰","STREET":" ","SECT":" ","MAREA":"西寮","LANE":" ","ALLEY":" ","HOUSE_NO":"５８號之１","E_COORD97":174566.89999999999,"N_COORD97":2567316.0099999998,"ADDRESS":"西寮５８號之１","OBJECTID":98604},"geometry":{"x":174566.9000000013,"y":2567316.0100000035}},{"attributes":{"ID":98605,"DIS_CODE":0,"TOWNNAME":"下營區","LI":"西連里","LIN":"10鄰","STREET":" ","SECT":" ","MAREA":"西寮","LANE":" ","ALLEY":" ","HOUSE_NO":"５８號之２","E_COORD97":174577.66,"N_COORD97":2567316.9500000002,"ADDRESS":"西寮５８號之２","OBJECTID":98605},"geometry":{"x":174577.66000000015,"y":2567316.9500000011}},{"attributes":{"ID":98606,"DIS_CODE":0,"TOWNNAME":"下營區","LI":"西連里","LIN":"10鄰","STREET":" ","SECT":" ","MAREA":"西寮","LANE":" ","ALLEY":" ","HOUSE_NO":"５８之３號","E_COORD97":174556.39000000001,"N_COORD97":2567307.25,"ADDRESS":"西寮５８之３號","OBJECTID":98606},"geometry":{"x":174556.38999999966,"y":2567307.25}},{"attributes":{"ID":98607,"DIS_CODE":0,"TOWNNAME":"下營區","LI":"西連里","LIN":"10鄰","STREET":" ","SECT":" ","MAREA":"西寮","LANE":" ","ALLEY":" ","HOUSE_NO":"５８號","E_COORD97":174588.79999999999,"N_COORD97":2567310.3999999999,"ADDRESS":"西寮５８號","OBJECTID":98607},"geometry":{"x":174588.80000000075,"y":2567310.4000000041}},{"attributes":{"ID":98608,"DIS_CODE":0,"TOWNNAME":"下營區","LI":"西連里","LIN":"10鄰","STREET":" ","SECT":" ","MAREA":"西寮","LANE":" ","ALLEY":" ","HOUSE_NO":"５９號之１","E_COORD97":174596.37,"N_COORD97":2567304.0299999998,"ADDRESS":"西寮５９號之１","OBJECTID":98608},"geometry":{"x":174596.37000000011,"y":2567304.0299999993}},{"attributes":{"ID":98609,"DIS_CODE":0,"TOWNNAME":"下營區","LI":"西連里","LIN":"10鄰","STREET":" ","SECT":" ","MAREA":"西寮","LANE":" ","ALLEY":" ","HOUSE_NO":"５９號之２","E_COORD97":174593.09,"N_COORD97":2567304.5699999998,"ADDRESS":"西寮５９號之２","OBJECTID":98609},"geometry":{"x":174593.08999999985,"y":2567304.5700000003}},{"attributes":{"ID":98610,"DIS_CODE":0,"TOWNNAME":"下營區","LI":"西連里","LIN":"10鄰","STREET":" ","SECT":" ","MAREA":"西寮","LANE":" ","ALLEY":" ","HOUSE_NO":"５９號","E_COORD97":174603.88,"N_COORD97":2567306.4500000002,"ADDRESS":"西寮５９號","OBJECTID":98610},"geometry":{"x":174603.88000000082,"y":2567306.4500000011}},{"attributes":{"ID":98611,"DIS_CODE":0,"TOWNNAME":"永康區","LI":"神洲里","LIN":"21鄰","STREET":"忠孝路","SECT":" ","MAREA":" ","LANE":"７６巷","ALLEY":"４７弄","HOUSE_NO":"６號","E_COORD97":172171.92000000001,"N_COORD97":2544954.5,"ADDRESS":"忠孝路７６巷４７弄６號","OBJECTID":98611},"geometry":{"x":172171.91999999899,"y":2544954.5000000019}},{"attributes":{"ID":98612,"DIS_CODE":0,"TOWNNAME":"永康區","LI":"烏竹里","LIN":"21鄰","STREET":"自強路","SECT":" ","MAREA":" ","LANE":"７７３巷","ALLEY":"２弄","HOUSE_NO":"４號","E_COORD97":174494.20999999999,"N_COORD97":2548606.71,"ADDRESS":"自強路７７３巷２弄４號","OBJECTID":98612},"geometry":{"x":174494.21000000183,"y":2548606.7100000009}},{"attributes":{"ID":98613,"DIS_CODE":0,"TOWNNAME":"安南區","LI":"安順里","LIN":"1鄰","STREET":"總安街","SECT":"一段","MAREA":" ","LANE":" ","ALLEY":" ","HOUSE_NO":"１０號","E_COORD97":169918.98000000001,"N_COORD97":2550111.25,"ADDRESS":"總安街一段１０號","OBJECTID":98613},"geometry":{"x":169918.98000000045,"y":2550111.25}},{"attributes":{"ID":98614,"DIS_CODE":0,"TOWNNAME":"下營區","LI":"西連里","LIN":"10鄰","STREET":" ","SECT":" ","MAREA":"西寮","LANE":" ","ALLEY":" ","HOUSE_NO":"６０之１３號","E_COORD97":174524.53,"N_COORD97":2567256.23,"ADDRESS":"西寮６０之１３號","OBJECTID":98614},"geometry":{"x":174524.53000000212,"y":2567256.2300000004}},{"attributes":{"ID":98615,"DIS_CODE":0,"TOWNNAME":"下營區","LI":"西連里","LIN":"10鄰","STREET":" ","SECT":" ","MAREA":"西寮","LANE":" ","ALLEY":" ","HOUSE_NO":"６０號之２","E_COORD97":174592.98000000001,"N_COORD97":2567157.4700000002,"ADDRESS":"西寮６０號之２","OBJECTID":98615},"geometry":{"x":174592.98000000231,"y":2567157.4699999988}},{"attributes":{"ID":98616,"DIS_CODE":0,"TOWNNAME":"下營區","LI":"西連里","LIN":"10鄰","STREET":" ","SECT":" ","MAREA":"西寮","LANE":" ","ALLEY":" ","HOUSE_NO":"６０號之５","E_COORD97":174632.57999999999,"N_COORD97":2567266.98,"ADDRESS":"西寮６０號之５","OBJECTID":98616},"geometry":{"x":174632.58000000194,"y":2567266.9800000023}},{"attributes":{"ID":98617,"DIS_CODE":0,"TOWNNAME":"下營區","LI":"西連里","LIN":"10鄰","STREET":" ","SECT":" ","MAREA":"西寮","LANE":" ","ALLEY":" ","HOUSE_NO":"６０號之６","E_COORD97":174627.38,"N_COORD97":2567232.6400000001,"ADDRESS":"西寮６０號之６","OBJECTID":98617},"geometry":{"x":174627.38000000082,"y":2567232.6400000025}},{"attributes":{"ID":98618,"DIS_CODE":0,"TOWNNAME":"安南區","LI":"新順里","LIN":"1鄰","STREET":"安豐五街","SECT":" ","MAREA":" ","LANE":" ","ALLEY":" ","HOUSE_NO":"３９號","E_COORD97":169531.67999999999,"N_COORD97":2549790.3300000001,"ADDRESS":"安豐五街３９號","OBJECTID":98618},"geometry":{"x":169531.6799999997,"y":2549790.3300000019}},{"attributes":{"ID":98619,"DIS_CODE":0,"TOWNNAME":"安南區","LI":"新順里","LIN":"1鄰","STREET":"安豐五街","SECT":" ","MAREA":" ","LANE":" ","ALLEY":" ","HOUSE_NO":"４１號","E_COORD97":169528.67999999999,"N_COORD97":2549788.6499999999,"ADDRESS":"安豐五街４１號","OBJECTID":98619},"geometry":{"x":169528.6799999997,"y":2549788.6500000022}},{"attributes":{"ID":98620,"DIS_CODE":0,"TOWNNAME":"安定區","LI":"安定里","LIN":"10鄰","STREET":" ","SECT":" ","MAREA":"安定","LANE":" ","ALLEY":" ","HOUSE_NO":"９５號","E_COORD97":172110.57000000001,"N_COORD97":2557765.3199999998,"ADDRESS":"安定９５號","OBJECTID":98620},"geometry":{"x":172110.57000000123,"y":2557765.3200000003}},{"attributes":{"ID":98621,"DIS_CODE":0,"TOWNNAME":"安南區","LI":"州南里","LIN":"1鄰","STREET":"安和路","SECT":"四段","MAREA":" ","LANE":" ","ALLEY":" ","HOUSE_NO":"３００號","E_COORD97":169948.28,"N_COORD97":2550820.5299999998,"ADDRESS":"安和路四段３００號","OBJECTID":98621},"geometry":{"x":169948.28000000119,"y":2550820.5299999993}},{"attributes":{"ID":98622,"DIS_CODE":0,"TOWNNAME":"大內區","LI":"大內里","LIN":"1鄰","STREET":" ","SECT":" ","MAREA":"內庄","LANE":" ","ALLEY":" ","HOUSE_NO":"１號之３１","E_COORD97":184262.56,"N_COORD97":2557648.2999999998,"ADDRESS":"內庄１號之３１","OBJECTID":98622},"geometry":{"x":184262.56000000145,"y":2557648.3000000007}},{"attributes":{"ID":98623,"DIS_CODE":0,"TOWNNAME":"大內區","LI":"大內里","LIN":"1鄰","STREET":" ","SECT":" ","MAREA":"內庄","LANE":" ","ALLEY":" ","HOUSE_NO":"４號","E_COORD97":184390.48000000001,"N_COORD97":2557540.25,"ADDRESS":"內庄４號","OBJECTID":98623},"geometry":{"x":184390.48000000045,"y":2557540.2500000037}},{"attributes":{"ID":98624,"DIS_CODE":0,"TOWNNAME":"下營區","LI":"西連里","LIN":"10鄰","STREET":" ","SECT":" ","MAREA":"西寮","LANE":" ","ALLEY":" ","HOUSE_NO":"６０號之７","E_COORD97":174613.09,"N_COORD97":2567273.1600000001,"ADDRESS":"西寮６０號之７","OBJECTID":98624},"geometry":{"x":174613.08999999985,"y":2567273.1600000001}},{"attributes":{"ID":98625,"DIS_CODE":0,"TOWNNAME":"永康區","LI":"烏竹里","LIN":"21鄰","STREET":"自強路","SECT":" ","MAREA":" ","LANE":"７７３巷","ALLEY":"２弄","HOUSE_NO":"８號","E_COORD97":174506.32000000001,"N_COORD97":2548616.71,"ADDRESS":"自強路７７３巷２弄８號","OBJECTID":98625},"geometry":{"x":174506.32000000123,"y":2548616.7100000009}},{"attributes":{"ID":98626,"DIS_CODE":0,"TOWNNAME":"下營區","LI":"西連里","LIN":"10鄰","STREET":" ","SECT":" ","MAREA":"西寮","LANE":" ","ALLEY":" ","HOUSE_NO":"６０之８號","E_COORD97":174586.07999999999,"N_COORD97":2567272.73,"ADDRESS":"西寮６０之８號","OBJECTID":98626},"geometry":{"x":174586.08000000007,"y":2567272.7300000004}},{"attributes":{"ID":98627,"DIS_CODE":0,"TOWNNAME":"下營區","LI":"西連里","LIN":"10鄰","STREET":" ","SECT":" ","MAREA":"西寮","LANE":" ","ALLEY":" ","HOUSE_NO":"６０號之９","E_COORD97":174572.37,"N_COORD97":2567279.1800000002,"ADDRESS":"西寮６０號之９","OBJECTID":98627},"geometry":{"x":174572.37000000011,"y":2567279.1799999997}},{"attributes":{"ID":98628,"DIS_CODE":0,"TOWNNAME":"下營區","LI":"西連里","LIN":"10鄰","STREET":" ","SECT":" ","MAREA":"西寮","LANE":" ","ALLEY":" ","HOUSE_NO":"６１號之１","E_COORD97":174643.51999999999,"N_COORD97":2567294.0699999998,"ADDRESS":"西寮６１號之１","OBJECTID":98628},"geometry":{"x":174643.51999999955,"y":2567294.0700000003}},{"attributes":{"ID":98629,"DIS_CODE":0,"TOWNNAME":"下營區","LI":"西連里","LIN":"10鄰","STREET":" ","SECT":" ","MAREA":"西寮","LANE":" ","ALLEY":" ","HOUSE_NO":"６４號","E_COORD97":174684.45999999999,"N_COORD97":2567267.8599999999,"ADDRESS":"西寮６４號","OBJECTID":98629},"geometry":{"x":174684.46000000089,"y":2567267.8599999994}},{"attributes":{"ID":98630,"DIS_CODE":0,"TOWNNAME":"下營區","LI":"西連里","LIN":"10鄰","STREET":" ","SECT":" ","MAREA":"西寮","LANE":" ","ALLEY":" ","HOUSE_NO":"６５號","E_COORD97":174681.09,"N_COORD97":2567270.3900000001,"ADDRESS":"西寮６５號","OBJECTID":98630},"geometry":{"x":174681.08999999985,"y":2567270.3900000025}},{"attributes":{"ID":98631,"DIS_CODE":0,"TOWNNAME":"下營區","LI":"西連里","LIN":"10鄰","STREET":" ","SECT":" ","MAREA":"西寮","LANE":" ","ALLEY":" ","HOUSE_NO":"６６號","E_COORD97":174737.28,"N_COORD97":2567286.1299999999,"ADDRESS":"西寮６６號","OBJECTID":98631},"geometry":{"x":174737.28000000119,"y":2567286.129999999}},{"attributes":{"ID":98632,"DIS_CODE":0,"TOWNNAME":"下營區","LI":"紅厝里","LIN":"10鄰","STREET":" ","SECT":" ","MAREA":"紅毛厝","LANE":" ","ALLEY":" ","HOUSE_NO":"６７號","E_COORD97":175012.35000000001,"N_COORD97":2571760.1000000001,"ADDRESS":"紅毛厝６７號","OBJECTID":98632},"geometry":{"x":175012.35000000056,"y":2571760.1000000034}},{"attributes":{"ID":98633,"DIS_CODE":0,"TOWNNAME":"下營區","LI":"紅厝里","LIN":"10鄰","STREET":" ","SECT":" ","MAREA":"紅毛厝","LANE":" ","ALLEY":" ","HOUSE_NO":"６９號","E_COORD97":175018.13,"N_COORD97":2571785.4199999999,"ADDRESS":"紅毛厝６９號","OBJECTID":98633},"geometry":{"x":175018.12999999989,"y":2571785.4200000018}},{"attributes":{"ID":98634,"DIS_CODE":0,"TOWNNAME":"下營區","LI":"紅厝里","LIN":"10鄰","STREET":" ","SECT":" ","MAREA":"紅毛厝","LANE":" ","ALLEY":" ","HOUSE_NO":"７０號之３","E_COORD97":175066.82999999999,"N_COORD97":2571888.0699999998,"ADDRESS":"紅毛厝７０號之３","OBJECTID":98634},"geometry":{"x":175066.83000000101,"y":2571888.0700000003}},{"attributes":{"ID":98635,"DIS_CODE":0,"TOWNNAME":"下營區","LI":"茅港里","LIN":"10鄰","STREET":" ","SECT":" ","MAREA":"茅港尾","LANE":" ","ALLEY":" ","HOUSE_NO":"３１６號","E_COORD97":176606.32000000001,"N_COORD97":2568585.4900000002,"ADDRESS":"茅港尾３１６號","OBJECTID":98635},"geometry":{"x":176606.32000000123,"y":2568585.4900000021}},{"attributes":{"ID":98636,"DIS_CODE":0,"TOWNNAME":"下營區","LI":"茅港里","LIN":"10鄰","STREET":" ","SECT":" ","MAREA":"茅港尾","LANE":" ","ALLEY":" ","HOUSE_NO":"３１７號","E_COORD97":176595.45999999999,"N_COORD97":2568588.1400000001,"ADDRESS":"茅港尾３１７號","OBJECTID":98636},"geometry":{"x":176595.45999999996,"y":2568588.1400000025}},{"attributes":{"ID":98637,"DIS_CODE":0,"TOWNNAME":"下營區","LI":"茅港里","LIN":"10鄰","STREET":" ","SECT":" ","MAREA":"茅港尾","LANE":" ","ALLEY":" ","HOUSE_NO":"３１８號","E_COORD97":176591.26999999999,"N_COORD97":2568589.1299999999,"ADDRESS":"茅港尾３１８號","OBJECTID":98637},"geometry":{"x":176591.26999999955,"y":2568589.1300000027}},{"attributes":{"ID":98638,"DIS_CODE":0,"TOWNNAME":"下營區","LI":"茅港里","LIN":"10鄰","STREET":" ","SECT":" ","MAREA":"茅港尾","LANE":" ","ALLEY":" ","HOUSE_NO":"３２０號","E_COORD97":176586.03,"N_COORD97":2568598.1499999999,"ADDRESS":"茅港尾３２０號","OBJECTID":98638},"geometry":{"x":176586.03000000212,"y":2568598.1500000022}},{"attributes":{"ID":98639,"DIS_CODE":0,"TOWNNAME":"永康區","LI":"神洲里","LIN":"21鄰","STREET":"忠孝路","SECT":" ","MAREA":" ","LANE":"７６巷","ALLEY":"４７弄","HOUSE_NO":"８號","E_COORD97":172158.17000000001,"N_COORD97":2544955.75,"ADDRESS":"忠孝路７６巷４７弄８號","OBJECTID":98639},"geometry":{"x":172158.16999999993,"y":2544955.7500000019}},{"attributes":{"ID":98640,"DIS_CODE":0,"TOWNNAME":"下營區","LI":"茅港里","LIN":"10鄰","STREET":" ","SECT":" ","MAREA":"茅港尾","LANE":" ","ALLEY":" ","HOUSE_NO":"３２１號","E_COORD97":176576.73999999999,"N_COORD97":2568598.75,"ADDRESS":"茅港尾３２１號","OBJECTID":98640},"geometry":{"x":176576.74000000115,"y":2568598.75}},{"attributes":{"ID":98641,"DIS_CODE":0,"TOWNNAME":"永康區","LI":"烏竹里","LIN":"21鄰","STREET":"自強路","SECT":" ","MAREA":" ","LANE":"７７３巷","ALLEY":"２弄","HOUSE_NO":"２號","E_COORD97":174488.62,"N_COORD97":2548601.96,"ADDRESS":"自強路７７３巷２弄２號","OBJECTID":98641},"geometry":{"x":174488.62000000104,"y":2548601.9600000009}},{"attributes":{"ID":98642,"DIS_CODE":0,"TOWNNAME":"永康區","LI":"烏竹里","LIN":"21鄰","STREET":"自強路","SECT":" ","MAREA":" ","LANE":"７７３巷","ALLEY":"２弄","HOUSE_NO":"１６號","E_COORD97":174532.26000000001,"N_COORD97":2548636.4500000002,"ADDRESS":"自強路７７３巷２弄１６號","OBJECTID":98642},"geometry":{"x":174532.25999999978,"y":2548636.4499999993}},{"attributes":{"ID":98643,"DIS_CODE":0,"TOWNNAME":"永康區","LI":"神洲里","LIN":"21鄰","STREET":"忠孝路","SECT":" ","MAREA":" ","LANE":"７６巷","ALLEY":"４７弄","HOUSE_NO":"４號","E_COORD97":172182.92000000001,"N_COORD97":2544952.7400000002,"ADDRESS":"忠孝路７６巷４７弄４號","OBJECTID":98643},"geometry":{"x":172182.92000000086,"y":2544952.7400000021}},{"attributes":{"ID":98644,"DIS_CODE":0,"TOWNNAME":"南區","LI":"廣州里","LIN":"21鄰","STREET":"福吉四街","SECT":" ","MAREA":" ","LANE":"４７巷","ALLEY":"１弄","HOUSE_NO":"８號","E_COORD97":167225.32000000001,"N_COORD97":2542617.0499999998,"ADDRESS":"福吉四街４７巷１弄８號","OBJECTID":98644},"geometry":{"x":167225.32000000123,"y":2542617.0500000007}},{"attributes":{"ID":98645,"DIS_CODE":0,"TOWNNAME":"南區","LI":"廣州里","LIN":"21鄰","STREET":"福吉四街","SECT":" ","MAREA":" ","LANE":"４７巷","ALLEY":"１弄","HOUSE_NO":"１０號","E_COORD97":167225.32000000001,"N_COORD97":2542612.8300000001,"ADDRESS":"福吉四街４７巷１弄１０號","OBJECTID":98645},"geometry":{"x":167225.32000000123,"y":2542612.8300000019}},{"attributes":{"ID":98646,"DIS_CODE":0,"TOWNNAME":"安南區","LI":"城東里","LIN":"1鄰","STREET":"城北路","SECT":" ","MAREA":" ","LANE":"９８巷","ALLEY":" ","HOUSE_NO":"１９８號","E_COORD97":161235.09,"N_COORD97":2551726.8900000001,"ADDRESS":"城北路９８巷１９８號","OBJECTID":98646},"geometry":{"x":161235.09000000171,"y":2551726.8900000006}},{"attributes":{"ID":98647,"DIS_CODE":0,"TOWNNAME":"關廟區","LI":"北花里","LIN":"8鄰","STREET":"花園二街","SECT":" ","MAREA":" ","LANE":" ","ALLEY":" ","HOUSE_NO":"１４０號","E_COORD97":181901.29000000001,"N_COORD97":2540342.25,"ADDRESS":"花園二街１４０號","OBJECTID":98647},"geometry":{"x":181901.29000000004,"y":2540342.2500000019}},{"attributes":{"ID":98648,"DIS_CODE":0,"TOWNNAME":"關廟區","LI":"北花里","LIN":"8鄰","STREET":"四維街","SECT":" ","MAREA":" ","LANE":" ","ALLEY":" ","HOUSE_NO":"３９２號","E_COORD97":181888.45999999999,"N_COORD97":2540319.25,"ADDRESS":"四維街３９２號","OBJECTID":98648},"geometry":{"x":181888.45999999996,"y":2540319.25}},{"attributes":{"ID":98649,"DIS_CODE":0,"TOWNNAME":"關廟區","LI":"北花里","LIN":"8鄰","STREET":"花園二街","SECT":" ","MAREA":" ","LANE":" ","ALLEY":" ","HOUSE_NO":"１３０號","E_COORD97":181923.59,"N_COORD97":2540338.25,"ADDRESS":"花園二街１３０號","OBJECTID":98649},"geometry":{"x":181923.59000000078,"y":2540338.2500000019}},{"attributes":{"ID":98650,"DIS_CODE":0,"TOWNNAME":"關廟區","LI":"山西里","LIN":"8鄰","STREET":"文衡路","SECT":" ","MAREA":" ","LANE":" ","ALLEY":" ","HOUSE_NO":"１９７號","E_COORD97":180884.26000000001,"N_COORD97":2540688.3300000001,"ADDRESS":"文衡路１９７號","OBJECTID":98650},"geometry":{"x":180884.25999999978,"y":2540688.3300000001}},{"attributes":{"ID":98651,"DIS_CODE":0,"TOWNNAME":"關廟區","LI":"五甲里","LIN":"8鄰","STREET":"大富街","SECT":" ","MAREA":" ","LANE":" ","ALLEY":" ","HOUSE_NO":"１５１號","E_COORD97":181065.67000000001,"N_COORD97":2539276.25,"ADDRESS":"大富街１５１號","OBJECTID":98651},"geometry":{"x":181065.67000000086,"y":2539276.2500000037}},{"attributes":{"ID":98652,"DIS_CODE":0,"TOWNNAME":"關廟區","LI":"五甲里","LIN":"8鄰","STREET":"大富街","SECT":" ","MAREA":" ","LANE":" ","ALLEY":" ","HOUSE_NO":"１１３號","E_COORD97":181073.67000000001,"N_COORD97":2539223.25,"ADDRESS":"大富街１１３號","OBJECTID":98652},"geometry":{"x":181073.67000000086,"y":2539223.2500000019}},{"attributes":{"ID":98653,"DIS_CODE":0,"TOWNNAME":"關廟區","LI":"山西里","LIN":"8鄰","STREET":"崇善街","SECT":" ","MAREA":" ","LANE":" ","ALLEY":" ","HOUSE_NO":"５２號","E_COORD97":180796.01999999999,"N_COORD97":2540720.25,"ADDRESS":"崇善街５２號","OBJECTID":98653},"geometry":{"x":180796.02000000142,"y":2540720.2500000037}},{"attributes":{"ID":98654,"DIS_CODE":0,"TOWNNAME":"關廟區","LI":"五甲里","LIN":"8鄰","STREET":"大富街","SECT":" ","MAREA":" ","LANE":" ","ALLEY":" ","HOUSE_NO":"１５７號","E_COORD97":181059.47,"N_COORD97":2539292.25,"ADDRESS":"大富街１５７號","OBJECTID":98654},"geometry":{"x":181059.4700000016,"y":2539292.25}},{"attributes":{"ID":98655,"DIS_CODE":0,"TOWNNAME":"關廟區","LI":"五甲里","LIN":"8鄰","STREET":"大富街","SECT":" ","MAREA":" ","LANE":" ","ALLEY":" ","HOUSE_NO":"１１５號","E_COORD97":181072.57000000001,"N_COORD97":2539228.25,"ADDRESS":"大富街１１５號","OBJECTID":98655},"geometry":{"x":181072.5700000003,"y":2539228.25}},{"attributes":{"ID":98656,"DIS_CODE":0,"TOWNNAME":"關廟區","LI":"山西里","LIN":"8鄰","STREET":"崇善街","SECT":" ","MAREA":" ","LANE":" ","ALLEY":" ","HOUSE_NO":"５０號","E_COORD97":180796.45999999999,"N_COORD97":2540713.3700000001,"ADDRESS":"崇善街５０號","OBJECTID":98656},"geometry":{"x":180796.45999999996,"y":2540713.370000001}},{"attributes":{"ID":98657,"DIS_CODE":0,"TOWNNAME":"大內區","LI":"內江里","LIN":"1鄰","STREET":" ","SECT":" ","MAREA":"內庄","LANE":" ","ALLEY":" ","HOUSE_NO":"２２０號","E_COORD97":184670.98000000001,"N_COORD97":2557272.25,"ADDRESS":"內庄２２０號","OBJECTID":98657},"geometry":{"x":184670.98000000138,"y":2557272.2500000037}},{"attributes":{"ID":98658,"DIS_CODE":0,"TOWNNAME":"南區","LI":"廣州里","LIN":"21鄰","STREET":"福吉四街","SECT":" ","MAREA":" ","LANE":"４７巷","ALLEY":"１弄","HOUSE_NO":"１２號","E_COORD97":167230.39000000001,"N_COORD97":2542611.9900000002,"ADDRESS":"福吉四街４７巷１弄１２號","OBJECTID":98658},"geometry":{"x":167230.38999999873,"y":2542611.9900000021}},{"attributes":{"ID":98659,"DIS_CODE":0,"TOWNNAME":"南區","LI":"廣州里","LIN":"21鄰","STREET":"福吉四街","SECT":" ","MAREA":" ","LANE":"４７巷","ALLEY":"１弄","HOUSE_NO":"１４號","E_COORD97":167232.92000000001,"N_COORD97":2542608.1899999999,"ADDRESS":"福吉四街４７巷１弄１４號","OBJECTID":98659},"geometry":{"x":167232.92000000086,"y":2542608.1899999995}},{"attributes":{"ID":98660,"DIS_CODE":0,"TOWNNAME":"大內區","LI":"內郭里","LIN":"1鄰","STREET":" ","SECT":" ","MAREA":"內庄","LANE":" ","ALLEY":" ","HOUSE_NO":"１５３號之９","E_COORD97":184947.10000000001,"N_COORD97":2557474.2999999998,"ADDRESS":"內庄１５３號之９","OBJECTID":98660},"geometry":{"x":184947.10000000149,"y":2557474.3000000026}},{"attributes":{"ID":98661,"DIS_CODE":0,"TOWNNAME":"大內區","LI":"大內里","LIN":"1鄰","STREET":" ","SECT":" ","MAREA":"內庄","LANE":" ","ALLEY":" ","HOUSE_NO":"８號之１","E_COORD97":184489.91,"N_COORD97":2557562.2999999998,"ADDRESS":"內庄８號之１","OBJECTID":98661},"geometry":{"x":184489.91000000108,"y":2557562.3000000026}},{"attributes":{"ID":98662,"DIS_CODE":0,"TOWNNAME":"大內區","LI":"內郭里","LIN":"1鄰","STREET":" ","SECT":" ","MAREA":"內庄","LANE":" ","ALLEY":" ","HOUSE_NO":"１６０號之６","E_COORD97":184889.42000000001,"N_COORD97":2557364.2999999998,"ADDRESS":"內庄１６０號之６","OBJECTID":98662},"geometry":{"x":184889.42000000179,"y":2557364.3000000045}},{"attributes":{"ID":98663,"DIS_CODE":0,"TOWNNAME":"安南區","LI":"理想里","LIN":"21鄰","STREET":"大安街","SECT":" ","MAREA":" ","LANE":"４６１巷","ALLEY":"３７弄","HOUSE_NO":"３８號","E_COORD97":167231.09,"N_COORD97":2548671.7000000002,"ADDRESS":"大安街４６１巷３７弄３８號","OBJECTID":98663},"geometry":{"x":167231.09000000171,"y":2548671.7000000011}},{"attributes":{"ID":98664,"DIS_CODE":0,"TOWNNAME":"大內區","LI":"內郭里","LIN":"1鄰","STREET":" ","SECT":" ","MAREA":"內庄","LANE":" ","ALLEY":" ","HOUSE_NO":"１５４號之２","E_COORD97":184905.25,"N_COORD97":2557416.2999999998,"ADDRESS":"內庄１５４號之２","OBJECTID":98664},"geometry":{"x":184905.25,"y":2557416.3000000026}},{"attributes":{"ID":98665,"DIS_CODE":0,"TOWNNAME":"安南區","LI":"理想里","LIN":"21鄰","STREET":"大安街","SECT":" ","MAREA":" ","LANE":"４６１巷","ALLEY":"３７弄","HOUSE_NO":"４０號","E_COORD97":167232.32999999999,"N_COORD97":2548677.1099999999,"ADDRESS":"大安街４６１巷３７弄４０號","OBJECTID":98665},"geometry":{"x":167232.33000000007,"y":2548677.1099999994}},{"attributes":{"ID":98666,"DIS_CODE":0,"TOWNNAME":"大內區","LI":"內郭里","LIN":"1鄰","STREET":" ","SECT":" ","MAREA":"內庄","LANE":" ","ALLEY":" ","HOUSE_NO":"１５６號","E_COORD97":184870.07999999999,"N_COORD97":2557375.25,"ADDRESS":"內庄１５６號","OBJECTID":98666},"geometry":{"x":184870.08000000101,"y":2557375.2500000019}},{"attributes":{"ID":98667,"DIS_CODE":0,"TOWNNAME":"下營區","LI":"茅港里","LIN":"10鄰","STREET":" ","SECT":" ","MAREA":"茅港尾","LANE":" ","ALLEY":" ","HOUSE_NO":"３２２號","E_COORD97":176597.17000000001,"N_COORD97":2568646.5299999998,"ADDRESS":"茅港尾３２２號","OBJECTID":98667},"geometry":{"x":176597.17000000086,"y":2568646.5299999993}},{"attributes":{"ID":98668,"DIS_CODE":0,"TOWNNAME":"下營區","LI":"茅港里","LIN":"10鄰","STREET":" ","SECT":" ","MAREA":"茅港尾","LANE":" ","ALLEY":" ","HOUSE_NO":"３２４號","E_COORD97":176541.82999999999,"N_COORD97":2568686.4700000002,"ADDRESS":"茅港尾３２４號","OBJECTID":98668},"geometry":{"x":176541.83000000101,"y":2568686.4700000007}},{"attributes":{"ID":98669,"DIS_CODE":0,"TOWNNAME":"安南區","LI":"理想里","LIN":"21鄰","STREET":"大安街","SECT":" ","MAREA":" ","LANE":"４６１巷","ALLEY":"３７弄","HOUSE_NO":"４號","E_COORD97":167219.23999999999,"N_COORD97":2548680.7000000002,"ADDRESS":"大安街４６１巷３７弄４號","OBJECTID":98669},"geometry":{"x":167219.24000000115,"y":2548680.700000003}},{"attributes":{"ID":98670,"DIS_CODE":0,"TOWNNAME":"安南區","LI":"理想里","LIN":"21鄰","STREET":"大安街","SECT":" ","MAREA":" ","LANE":"４６１巷","ALLEY":"３７弄","HOUSE_NO":"６號","E_COORD97":167217.67000000001,"N_COORD97":2548675.6499999999,"ADDRESS":"大安街４６１巷３７弄６號","OBJECTID":98670},"geometry":{"x":167217.67000000086,"y":2548675.6500000022}},{"attributes":{"ID":98671,"DIS_CODE":0,"TOWNNAME":"安南區","LI":"理想里","LIN":"21鄰","STREET":"大安街","SECT":" ","MAREA":" ","LANE":"４６１巷","ALLEY":"３７弄","HOUSE_NO":"８號","E_COORD97":167216.28,"N_COORD97":2548672.52,"ADDRESS":"大安街４６１巷３７弄８號","OBJECTID":98671},"geometry":{"x":167216.28000000026,"y":2548672.5200000014}},{"attributes":{"ID":98672,"DIS_CODE":0,"TOWNNAME":"永康區","LI":"西勢里","LIN":"21鄰","STREET":"富強路","SECT":"一段","MAREA":" ","LANE":"９８巷","ALLEY":"６２弄","HOUSE_NO":"８號","E_COORD97":175612.31,"N_COORD97":2546031.8999999999,"ADDRESS":"富強路一段９８巷６２弄８號","OBJECTID":98672},"geometry":{"x":175612.31000000052,"y":2546031.9000000004}},{"attributes":{"ID":98673,"DIS_CODE":0,"TOWNNAME":"下營區","LI":"茅港里","LIN":"10鄰","STREET":" ","SECT":" ","MAREA":"茅港尾","LANE":" ","ALLEY":" ","HOUSE_NO":"３２５號","E_COORD97":176603.29999999999,"N_COORD97":2568612.7000000002,"ADDRESS":"茅港尾３２５號","OBJECTID":98673},"geometry":{"x":176603.29999999981,"y":2568612.700000003}},{"attributes":{"ID":98674,"DIS_CODE":0,"TOWNNAME":"下營區","LI":"茅港里","LIN":"10鄰","STREET":" ","SECT":" ","MAREA":"茅港尾","LANE":" ","ALLEY":" ","HOUSE_NO":"３２６號","E_COORD97":176613.97,"N_COORD97":2568606.3900000001,"ADDRESS":"茅港尾３２６號","OBJECTID":98674},"geometry":{"x":176613.96999999974,"y":2568606.3900000025}},{"attributes":{"ID":98675,"DIS_CODE":0,"TOWNNAME":"下營區","LI":"茅港里","LIN":"10鄰","STREET":" ","SECT":" ","MAREA":"茅港尾","LANE":" ","ALLEY":" ","HOUSE_NO":"３２７號","E_COORD97":176614.98999999999,"N_COORD97":2568611.8100000001,"ADDRESS":"茅港尾３２７號","OBJECTID":98675},"geometry":{"x":176614.99000000209,"y":2568611.8100000005}},{"attributes":{"ID":98676,"DIS_CODE":0,"TOWNNAME":"下營區","LI":"茅港里","LIN":"10鄰","STREET":" ","SECT":" ","MAREA":"茅港尾","LANE":" ","ALLEY":" ","HOUSE_NO":"３２８號","E_COORD97":176619.76999999999,"N_COORD97":2568620.8100000001,"ADDRESS":"茅港尾３２８號","OBJECTID":98676},"geometry":{"x":176619.77000000048,"y":2568620.8100000024}},{"attributes":{"ID":98677,"DIS_CODE":0,"TOWNNAME":"下營區","LI":"茅港里","LIN":"10鄰","STREET":" ","SECT":" ","MAREA":"茅港尾","LANE":" ","ALLEY":" ","HOUSE_NO":"３３０號","E_COORD97":176620.51999999999,"N_COORD97":2568652.1899999999,"ADDRESS":"茅港尾３３０號","OBJECTID":98677},"geometry":{"x":176620.51999999955,"y":2568652.1899999995}},{"attributes":{"ID":98678,"DIS_CODE":0,"TOWNNAME":"下營區","LI":"茅港里","LIN":"10鄰","STREET":" ","SECT":" ","MAREA":"茅港尾","LANE":" ","ALLEY":" ","HOUSE_NO":"３３１號","E_COORD97":176625.29000000001,"N_COORD97":2568674.9100000001,"ADDRESS":"茅港尾３３１號","OBJECTID":98678},"geometry":{"x":176625.29000000097,"y":2568674.9100000001}},{"attributes":{"ID":98679,"DIS_CODE":0,"TOWNNAME":"安南區","LI":"\u25A0南里","LIN":"1鄰","STREET":"環福街","SECT":" ","MAREA":" ","LANE":" ","ALLEY":" ","HOUSE_NO":"２號之１","E_COORD97":170121.54999999999,"N_COORD97":2552449.73,"ADDRESS":"環福街２號之１","OBJECTID":98679},"geometry":{"x":170121.55000000168,"y":2552449.7300000023}},{"attributes":{"ID":98680,"DIS_CODE":0,"TOWNNAME":"下營區","LI":"茅港里","LIN":"10鄰","STREET":" ","SECT":" ","MAREA":"茅港尾","LANE":" ","ALLEY":" ","HOUSE_NO":"３３２號","E_COORD97":176603.89000000001,"N_COORD97":2568688.8100000001,"ADDRESS":"茅港尾３３２號","OBJECTID":98680},"geometry":{"x":176603.8900000006,"y":2568688.8100000024}},{"attributes":{"ID":98681,"DIS_CODE":0,"TOWNNAME":"下營區","LI":"茅港里","LIN":"10鄰","STREET":" ","SECT":" ","MAREA":"茅港尾","LANE":" ","ALLEY":" ","HOUSE_NO":"３３６號","E_COORD97":176649.04999999999,"N_COORD97":2568713.46,"ADDRESS":"茅港尾３３６號","OBJECTID":98681},"geometry":{"x":176649.04999999981,"y":2568713.4600000009}},{"attributes":{"ID":98682,"DIS_CODE":0,"TOWNNAME":"下營區","LI":"茅港里","LIN":"10鄰","STREET":" ","SECT":" ","MAREA":"茅港尾","LANE":" ","ALLEY":" ","HOUSE_NO":"３４１號之１","E_COORD97":176663.57000000001,"N_COORD97":2568757.2599999998,"ADDRESS":"茅港尾３４１號之１","OBJECTID":98682},"geometry":{"x":176663.56999999937,"y":2568757.2599999998}},{"attributes":{"ID":98683,"DIS_CODE":0,"TOWNNAME":"下營區","LI":"茅港里","LIN":"10鄰","STREET":" ","SECT":" ","MAREA":"茅港尾","LANE":" ","ALLEY":" ","HOUSE_NO":"３４２號","E_COORD97":176662.14999999999,"N_COORD97":2568776.04,"ADDRESS":"茅港尾３４２號","OBJECTID":98683},"geometry":{"x":176662.1500000013,"y":2568776.0399999972}},{"attributes":{"ID":98684,"DIS_CODE":0,"TOWNNAME":"下營區","LI":"茅港里","LIN":"10鄰","STREET":" ","SECT":" ","MAREA":"茅港尾","LANE":" ","ALLEY":" ","HOUSE_NO":"３４７號","E_COORD97":176460.38933000001,"N_COORD97":2568882.8690999998,"ADDRESS":"茅港尾３４７號","OBJECTID":98684},"geometry":{"x":176460.38932999969,"y":2568882.8690959997}},{"attributes":{"ID":98685,"DIS_CODE":0,"TOWNNAME":"將軍區","LI":"北埔里","LIN":"10鄰","STREET":" ","SECT":" ","MAREA":"北埔","LANE":" ","ALLEY":" ","HOUSE_NO":"９０號","E_COORD97":162989.88,"N_COORD97":2569241.7000000002,"ADDRESS":"北埔９０號","OBJECTID":98685},"geometry":{"x":162989.88000000082,"y":2569241.6999999993}},{"attributes":{"ID":98686,"DIS_CODE":0,"TOWNNAME":"將軍區","LI":"北埔里","LIN":"10鄰","STREET":" ","SECT":" ","MAREA":"北埔","LANE":" ","ALLEY":" ","HOUSE_NO":"９１號","E_COORD97":162939.25,"N_COORD97":2569238.54,"ADDRESS":"北埔９１號","OBJECTID":98686},"geometry":{"x":162939.25,"y":2569238.540000001}},{"attributes":{"ID":98687,"DIS_CODE":0,"TOWNNAME":"大內區","LI":"大內里","LIN":"1鄰","STREET":" ","SECT":" ","MAREA":"內庄","LANE":" ","ALLEY":" ","HOUSE_NO":"７號之３１","E_COORD97":184449.45999999999,"N_COORD97":2557549.2999999998,"ADDRESS":"內庄７號之３１","OBJECTID":98687},"geometry":{"x":184449.45999999996,"y":2557549.3000000007}},{"attributes":{"ID":98688,"DIS_CODE":0,"TOWNNAME":"大內區","LI":"大內里","LIN":"1鄰","STREET":" ","SECT":" ","MAREA":"內庄","LANE":" ","ALLEY":" ","HOUSE_NO":"１號之３０","E_COORD97":184258.51999999999,"N_COORD97":2557646.2999999998,"ADDRESS":"內庄１號之３０","OBJECTID":98688},"geometry":{"x":184258.51999999955,"y":2557646.3000000026}},{"attributes":{"ID":98689,"DIS_CODE":0,"TOWNNAME":"大內區","LI":"大內里","LIN":"1鄰","STREET":" ","SECT":" ","MAREA":"內庄","LANE":" ","ALLEY":" ","HOUSE_NO":"２號之９","E_COORD97":184338.89999999999,"N_COORD97":2557673.2999999998,"ADDRESS":"內庄２號之９","OBJECTID":98689},"geometry":{"x":184338.89999999944,"y":2557673.3000000026}},{"attributes":{"ID":98690,"DIS_CODE":0,"TOWNNAME":"大內區","LI":"大內里","LIN":"1鄰","STREET":" ","SECT":" ","MAREA":"內庄","LANE":" ","ALLEY":" ","HOUSE_NO":"１號之４４","E_COORD97":184280.79000000001,"N_COORD97":2557621.2999999998,"ADDRESS":"內庄１號之４４","OBJECTID":98690},"geometry":{"x":184280.79000000097,"y":2557621.3000000007}},{"attributes":{"ID":98691,"DIS_CODE":0,"TOWNNAME":"大內區","LI":"大內里","LIN":"1鄰","STREET":" ","SECT":" ","MAREA":"內庄","LANE":" ","ALLEY":" ","HOUSE_NO":"１號","E_COORD97":184111.57999999999,"N_COORD97":2557621.25,"ADDRESS":"內庄１號","OBJECTID":98691},"geometry":{"x":184111.58000000007,"y":2557621.2500000037}},{"attributes":{"ID":98692,"DIS_CODE":0,"TOWNNAME":"大內區","LI":"大內里","LIN":"1鄰","STREET":" ","SECT":" ","MAREA":"內庄","LANE":" ","ALLEY":" ","HOUSE_NO":"２號之２","E_COORD97":184251.35000000001,"N_COORD97":2557716.2999999998,"ADDRESS":"內庄２號之２","OBJECTID":98692},"geometry":{"x":184251.34999999963,"y":2557716.3000000007}},{"attributes":{"ID":98693,"DIS_CODE":0,"TOWNNAME":"大內區","LI":"大內里","LIN":"1鄰","STREET":" ","SECT":" ","MAREA":"內庄","LANE":" ","ALLEY":" ","HOUSE_NO":"１０之３號","E_COORD97":184456.92999999999,"N_COORD97":2557510.0800000001,"ADDRESS":"內庄１０之３號","OBJECTID":98693},"geometry":{"x":184456.93000000063,"y":2557510.0800000001}},{"attributes":{"ID":98694,"DIS_CODE":0,"TOWNNAME":"將軍區","LI":"北埔里","LIN":"10鄰","STREET":" ","SECT":" ","MAREA":"北埔","LANE":" ","ALLEY":" ","HOUSE_NO":"９３之１號","E_COORD97":162878.22,"N_COORD97":2569228.1200000001,"ADDRESS":"北埔９３之１號","OBJECTID":98694},"geometry":{"x":162878.21999999974,"y":2569228.120000001}},{"attributes":{"ID":98695,"DIS_CODE":0,"TOWNNAME":"將軍區","LI":"北埔里","LIN":"10鄰","STREET":" ","SECT":" ","MAREA":"北埔","LANE":" ","ALLEY":" ","HOUSE_NO":"９３之６０號","E_COORD97":161964.70000000001,"N_COORD97":2569351.8199999998,"ADDRESS":"北埔９３之６０號","OBJECTID":98695},"geometry":{"x":161964.70000000019,"y":2569351.820000004}},{"attributes":{"ID":98696,"DIS_CODE":0,"TOWNNAME":"善化區","LI":"什乃里","LIN":"1鄰","STREET":" ","SECT":" ","MAREA":"什乃","LANE":" ","ALLEY":" ","HOUSE_NO":"１５之３３號","E_COORD97":176242.14999999999,"N_COORD97":2560518.02,"ADDRESS":"什乃１５之３３號","OBJECTID":98696},"geometry":{"x":176242.15000000037,"y":2560518.0200000033}},{"attributes":{"ID":98697,"DIS_CODE":0,"TOWNNAME":"將軍區","LI":"北埔里","LIN":"10鄰","STREET":" ","SECT":" ","MAREA":"北埔","LANE":" ","ALLEY":" ","HOUSE_NO":"９３號","E_COORD97":162912.79999999999,"N_COORD97":2569228.8300000001,"ADDRESS":"北埔９３號","OBJECTID":98697},"geometry":{"x":162912.79999999981,"y":2569228.8300000001}},{"attributes":{"ID":98698,"DIS_CODE":0,"TOWNNAME":"將軍區","LI":"北埔里","LIN":"10鄰","STREET":" ","SECT":" ","MAREA":"北埔","LANE":" ","ALLEY":" ","HOUSE_NO":"９４之１６號","E_COORD97":162850.64999999999,"N_COORD97":2569034.4700000002,"ADDRESS":"北埔９４之１６號","OBJECTID":98698},"geometry":{"x":162850.65000000037,"y":2569034.4700000007}},{"attributes":{"ID":98699,"DIS_CODE":0,"TOWNNAME":"將軍區","LI":"北埔里","LIN":"10鄰","STREET":" ","SECT":" ","MAREA":"北埔","LANE":" ","ALLEY":" ","HOUSE_NO":"９４之１號","E_COORD97":162947.32999999999,"N_COORD97":2569169.0600000001,"ADDRESS":"北埔９４之１號","OBJECTID":98699},"geometry":{"x":162947.33000000007,"y":2569169.0600000024}},{"attributes":{"ID":98700,"DIS_CODE":0,"TOWNNAME":"將軍區","LI":"北埔里","LIN":"10鄰","STREET":" ","SECT":" ","MAREA":"北埔","LANE":" ","ALLEY":" ","HOUSE_NO":"９４號","E_COORD97":162914.35000000001,"N_COORD97":2569195.0499999998,"ADDRESS":"北埔９４號","OBJECTID":98700},"geometry":{"x":162914.34999999963,"y":2569195.0500000045}},{"attributes":{"ID":98701,"DIS_CODE":0,"TOWNNAME":"將軍區","LI":"北埔里","LIN":"10鄰","STREET":" ","SECT":" ","MAREA":"北埔","LANE":" ","ALLEY":" ","HOUSE_NO":"９５之２號","E_COORD97":162941.37,"N_COORD97":2569212.3399999999,"ADDRESS":"北埔９５之２號","OBJECTID":98701},"geometry":{"x":162941.37000000104,"y":2569212.3400000036}},{"attributes":{"ID":98702,"DIS_CODE":0,"TOWNNAME":"將軍區","LI":"北埔里","LIN":"10鄰","STREET":" ","SECT":" ","MAREA":"北埔","LANE":" ","ALLEY":" ","HOUSE_NO":"９５號","E_COORD97":162969.97,"N_COORD97":2569175.3900000001,"ADDRESS":"北埔９５號","OBJECTID":98702},"geometry":{"x":162969.9700000016,"y":2569175.3900000043}},{"attributes":{"ID":98703,"DIS_CODE":0,"TOWNNAME":"永康區","LI":"西勢里","LIN":"21鄰","STREET":"富強路","SECT":"一段","MAREA":" ","LANE":"９８巷","ALLEY":"２０弄","HOUSE_NO":"１０號","E_COORD97":175504.42000000001,"N_COORD97":2546122.27,"ADDRESS":"富強路一段９８巷２０弄１０號","OBJECTID":98703},"geometry":{"x":175504.41999999993,"y":2546122.2700000014}},{"attributes":{"ID":98704,"DIS_CODE":0,"TOWNNAME":"永康區","LI":"西勢里","LIN":"21鄰","STREET":"富強路","SECT":"一段","MAREA":" ","LANE":"９８巷","ALLEY":"６２弄","HOUSE_NO":"３１號","E_COORD97":175582.17000000001,"N_COORD97":2545981.3900000001,"ADDRESS":"富強路一段９８巷６２弄３１號","OBJECTID":98704},"geometry":{"x":175582.16999999993,"y":2545981.3900000006}},{"attributes":{"ID":98705,"DIS_CODE":0,"TOWNNAME":"永康區","LI":"西橋里","LIN":"21鄰","STREET":"大橋三街","SECT":" ","MAREA":" ","LANE":"５７巷","ALLEY":"７弄","HOUSE_NO":"８２號","E_COORD97":170449.39000000001,"N_COORD97":2546410.3799999999,"ADDRESS":"大橋三街５７巷７弄８２號","OBJECTID":98705},"geometry":{"x":170449.38999999966,"y":2546410.379999999}},{"attributes":{"ID":98706,"DIS_CODE":0,"TOWNNAME":"將軍區","LI":"北埔里","LIN":"10鄰","STREET":" ","SECT":" ","MAREA":"北埔","LANE":" ","ALLEY":" ","HOUSE_NO":"９６號","E_COORD97":162983.17000000001,"N_COORD97":2569146.6600000001,"ADDRESS":"北埔９６號","OBJECTID":98706},"geometry":{"x":162983.17000000086,"y":2569146.660000002}},{"attributes":{"ID":98707,"DIS_CODE":0,"TOWNNAME":"將軍區","LI":"嘉昌里","LIN":"10鄰","STREET":" ","SECT":" ","MAREA":"北嘉","LANE":" ","ALLEY":" ","HOUSE_NO":"７９之１號","E_COORD97":163228.95000000001,"N_COORD97":2568105.1200000001,"ADDRESS":"北嘉７９之１號","OBJECTID":98707},"geometry":{"x":163228.95000000112,"y":2568105.120000001}},{"attributes":{"ID":98708,"DIS_CODE":0,"TOWNNAME":"將軍區","LI":"嘉昌里","LIN":"10鄰","STREET":" ","SECT":" ","MAREA":"北嘉","LANE":" ","ALLEY":" ","HOUSE_NO":"７９號","E_COORD97":163254.92999999999,"N_COORD97":2568094.9300000002,"ADDRESS":"北嘉７９號","OBJECTID":98708},"geometry":{"x":163254.92999999877,"y":2568094.9299999997}},{"attributes":{"ID":98709,"DIS_CODE":0,"TOWNNAME":"將軍區","LI":"嘉昌里","LIN":"10鄰","STREET":" ","SECT":" ","MAREA":"北嘉","LANE":" ","ALLEY":" ","HOUSE_NO":"８０號","E_COORD97":163227.76000000001,"N_COORD97":2568078.3799999999,"ADDRESS":"北嘉８０號","OBJECTID":98709},"geometry":{"x":163227.76000000071,"y":2568078.379999999}},{"attributes":{"ID":98710,"DIS_CODE":0,"TOWNNAME":"將軍區","LI":"嘉昌里","LIN":"10鄰","STREET":" ","SECT":" ","MAREA":"北嘉","LANE":" ","ALLEY":" ","HOUSE_NO":"８１號","E_COORD97":163254.32999999999,"N_COORD97":2568016.02,"ADDRESS":"北嘉８１號","OBJECTID":98710},"geometry":{"x":163254.32999999914,"y":2568016.0199999996}},{"attributes":{"ID":98711,"DIS_CODE":0,"TOWNNAME":"將軍區","LI":"嘉昌里","LIN":"10鄰","STREET":" ","SECT":" ","MAREA":"北嘉","LANE":" ","ALLEY":" ","HOUSE_NO":"８２號","E_COORD97":163255.42999999999,"N_COORD97":2567996.8100000001,"ADDRESS":"北嘉８２號","OBJECTID":98711},"geometry":{"x":163255.43000000063,"y":2567996.8100000024}},{"attributes":{"ID":98712,"DIS_CODE":0,"TOWNNAME":"將軍區","LI":"嘉昌里","LIN":"10鄰","STREET":" ","SECT":" ","MAREA":"北嘉","LANE":" ","ALLEY":" ","HOUSE_NO":"８４號","E_COORD97":163256.60999999999,"N_COORD97":2567963.5,"ADDRESS":"北嘉８４號","OBJECTID":98712},"geometry":{"x":163256.61000000127,"y":2567963.4999999981}},{"attributes":{"ID":98713,"DIS_CODE":0,"TOWNNAME":"永康區","LI":"西勢里","LIN":"21鄰","STREET":"富強路","SECT":"一段","MAREA":" ","LANE":"９８巷","ALLEY":"６２弄","HOUSE_NO":"１３號","E_COORD97":175610.17000000001,"N_COORD97":2546010.6499999999,"ADDRESS":"富強路一段９８巷６２弄１３號","OBJECTID":98713},"geometry":{"x":175610.17000000086,"y":2546010.6500000041}},{"attributes":{"ID":98714,"DIS_CODE":0,"TOWNNAME":"永康區","LI":"西勢里","LIN":"21鄰","STREET":"富強路","SECT":"一段","MAREA":" ","LANE":"９８巷","ALLEY":"３４弄","HOUSE_NO":"３號","E_COORD97":175554.63,"N_COORD97":2546088.6400000001,"ADDRESS":"富強路一段９８巷３４弄３號","OBJECTID":98714},"geometry":{"x":175554.63000000082,"y":2546088.6400000043}},{"attributes":{"ID":98715,"DIS_CODE":0,"TOWNNAME":"將軍區","LI":"嘉昌里","LIN":"10鄰","STREET":" ","SECT":" ","MAREA":"北嘉","LANE":" ","ALLEY":" ","HOUSE_NO":"８５號","E_COORD97":163257.87,"N_COORD97":2567931.04,"ADDRESS":"北嘉８５號","OBJECTID":98715},"geometry":{"x":163257.87000000104,"y":2567931.0399999991}},{"attributes":{"ID":98716,"DIS_CODE":0,"TOWNNAME":"將軍區","LI":"嘉昌里","LIN":"10鄰","STREET":" ","SECT":" ","MAREA":"北嘉","LANE":" ","ALLEY":" ","HOUSE_NO":"８６號","E_COORD97":163262.20000000001,"N_COORD97":2567913.7599999998,"ADDRESS":"北嘉８６號","OBJECTID":98716},"geometry":{"x":163262.20000000205,"y":2567913.7599999998}},{"attributes":{"ID":98717,"DIS_CODE":0,"TOWNNAME":"將軍區","LI":"嘉昌里","LIN":"10鄰","STREET":" ","SECT":" ","MAREA":"北嘉","LANE":" ","ALLEY":" ","HOUSE_NO":"８７號","E_COORD97":163269.45999999999,"N_COORD97":2567896.9399999999,"ADDRESS":"北嘉８７號","OBJECTID":98717},"geometry":{"x":163269.46000000089,"y":2567896.9400000013}},{"attributes":{"ID":98718,"DIS_CODE":0,"TOWNNAME":"將軍區","LI":"嘉昌里","LIN":"10鄰","STREET":" ","SECT":" ","MAREA":"北嘉","LANE":" ","ALLEY":" ","HOUSE_NO":"８８號","E_COORD97":163271.51000000001,"N_COORD97":2567872.9300000002,"ADDRESS":"北嘉８８號","OBJECTID":98718},"geometry":{"x":163271.51000000164,"y":2567872.9300000016}},{"attributes":{"ID":98719,"DIS_CODE":0,"TOWNNAME":"將軍區","LI":"平沙里","LIN":"10鄰","STREET":" ","SECT":" ","MAREA":"平沙","LANE":" ","ALLEY":" ","HOUSE_NO":"７７號","E_COORD97":157294.23000000001,"N_COORD97":2568517.6400000001,"ADDRESS":"平沙７７號","OBJECTID":98719},"geometry":{"x":157294.23000000138,"y":2568517.6400000025}},{"attributes":{"ID":98720,"DIS_CODE":0,"TOWNNAME":"將軍區","LI":"平沙里","LIN":"10鄰","STREET":" ","SECT":" ","MAREA":"平沙","LANE":" ","ALLEY":" ","HOUSE_NO":"７８號","E_COORD97":157296.97,"N_COORD97":2568503.2999999998,"ADDRESS":"平沙７８號","OBJECTID":98720},"geometry":{"x":157296.97000000067,"y":2568503.3000000007}},{"attributes":{"ID":98721,"DIS_CODE":0,"TOWNNAME":"將軍區","LI":"平沙里","LIN":"10鄰","STREET":" ","SECT":" ","MAREA":"平沙","LANE":" ","ALLEY":" ","HOUSE_NO":"８０號","E_COORD97":157277.59,"N_COORD97":2568495.2999999998,"ADDRESS":"平沙８０號","OBJECTID":98721},"geometry":{"x":157277.59000000078,"y":2568495.3000000026}},{"attributes":{"ID":98722,"DIS_CODE":0,"TOWNNAME":"將軍區","LI":"平沙里","LIN":"10鄰","STREET":" ","SECT":" ","MAREA":"平沙","LANE":" ","ALLEY":" ","HOUSE_NO":"８１之１號","E_COORD97":157267.01000000001,"N_COORD97":2568478.5,"ADDRESS":"平沙８１之１號","OBJECTID":98722},"geometry":{"x":157267.00999999978,"y":2568478.5}},{"attributes":{"ID":98723,"DIS_CODE":0,"TOWNNAME":"將軍區","LI":"平沙里","LIN":"10鄰","STREET":" ","SECT":" ","MAREA":"平沙","LANE":" ","ALLEY":" ","HOUSE_NO":"８１號","E_COORD97":157262.67000000001,"N_COORD97":2568477.5699999998,"ADDRESS":"平沙８１號","OBJECTID":98723},"geometry":{"x":157262.66999999993,"y":2568477.5700000003}},{"attributes":{"ID":98724,"DIS_CODE":0,"TOWNNAME":"將軍區","LI":"平沙里","LIN":"10鄰","STREET":" ","SECT":" ","MAREA":"平沙","LANE":" ","ALLEY":" ","HOUSE_NO":"８２之１號","E_COORD97":157253.39000000001,"N_COORD97":2568479.8700000001,"ADDRESS":"平沙８２之１號","OBJECTID":98724},"geometry":{"x":157253.3900000006,"y":2568479.870000001}},{"attributes":{"ID":98725,"DIS_CODE":0,"TOWNNAME":"將軍區","LI":"平沙里","LIN":"10鄰","STREET":" ","SECT":" ","MAREA":"平沙","LANE":" ","ALLEY":" ","HOUSE_NO":"８２之２號","E_COORD97":157249.23000000001,"N_COORD97":2568479.9900000002,"ADDRESS":"平沙８２之２號","OBJECTID":98725},"geometry":{"x":157249.23000000045,"y":2568479.9900000021}},{"attributes":{"ID":98726,"DIS_CODE":0,"TOWNNAME":"將軍區","LI":"平沙里","LIN":"10鄰","STREET":" ","SECT":" ","MAREA":"平沙","LANE":" ","ALLEY":" ","HOUSE_NO":"８２號","E_COORD97":157258.48000000001,"N_COORD97":2568474.5,"ADDRESS":"平沙８２號","OBJECTID":98726},"geometry":{"x":157258.48000000138,"y":2568474.5}},{"attributes":{"ID":98727,"DIS_CODE":0,"TOWNNAME":"將軍區","LI":"平沙里","LIN":"10鄰","STREET":" ","SECT":" ","MAREA":"平沙","LANE":" ","ALLEY":" ","HOUSE_NO":"８３號","E_COORD97":157245.12,"N_COORD97":2568485.5800000001,"ADDRESS":"平沙８３號","OBJECTID":98727},"geometry":{"x":157245.12000000104,"y":2568485.5800000038}},{"attributes":{"ID":98728,"DIS_CODE":0,"TOWNNAME":"將軍區","LI":"平沙里","LIN":"10鄰","STREET":" ","SECT":" ","MAREA":"平沙","LANE":" ","ALLEY":" ","HOUSE_NO":"８４號","E_COORD97":157240.16,"N_COORD97":2568485.8799999999,"ADDRESS":"平沙８４號","OBJECTID":98728},"geometry":{"x":157240.16000000108,"y":2568485.8800000008}},{"attributes":{"ID":98729,"DIS_CODE":0,"TOWNNAME":"將軍區","LI":"平沙里","LIN":"10鄰","STREET":" ","SECT":" ","MAREA":"平沙","LANE":" ","ALLEY":" ","HOUSE_NO":"８６號","E_COORD97":157210.54000000001,"N_COORD97":2568475.2599999998,"ADDRESS":"平沙８６號","OBJECTID":98729},"geometry":{"x":157210.54000000004,"y":2568475.2600000016}},{"attributes":{"ID":98730,"DIS_CODE":0,"TOWNNAME":"將軍區","LI":"平沙里","LIN":"10鄰","STREET":" ","SECT":" ","MAREA":"平沙","LANE":" ","ALLEY":" ","HOUSE_NO":"８７之１０號","E_COORD97":157213.67999999999,"N_COORD97":2568406.52,"ADDRESS":"平沙８７之１０號","OBJECTID":98730},"geometry":{"x":157213.68000000063,"y":2568406.5199999996}},{"attributes":{"ID":98731,"DIS_CODE":0,"TOWNNAME":"將軍區","LI":"平沙里","LIN":"10鄰","STREET":" ","SECT":" ","MAREA":"平沙","LANE":" ","ALLEY":" ","HOUSE_NO":"８７之１１號","E_COORD97":157215.04000000001,"N_COORD97":2568423.9399999999,"ADDRESS":"平沙８７之１１號","OBJECTID":98731},"geometry":{"x":157215.04000000097,"y":2568423.9399999995}},{"attributes":{"ID":98732,"DIS_CODE":0,"TOWNNAME":"永康區","LI":"西勢里","LIN":"21鄰","STREET":"富強路","SECT":"一段","MAREA":" ","LANE":"９８巷","ALLEY":"６２弄","HOUSE_NO":"２１號","E_COORD97":175597.76000000001,"N_COORD97":2545997.6499999999,"ADDRESS":"富強路一段９８巷６２弄２１號","OBJECTID":98732},"geometry":{"x":175597.76000000071,"y":2545997.6500000022}},{"attributes":{"ID":98733,"DIS_CODE":0,"TOWNNAME":"永康區","LI":"西勢里","LIN":"21鄰","STREET":"富強路","SECT":"一段","MAREA":" ","LANE":"９８巷","ALLEY":"３４弄","HOUSE_NO":"２號","E_COORD97":175551.04999999999,"N_COORD97":2546103.1299999999,"ADDRESS":"富強路一段９８巷３４弄２號","OBJECTID":98733},"geometry":{"x":175551.04999999981,"y":2546103.129999999}},{"attributes":{"ID":98734,"DIS_CODE":0,"TOWNNAME":"永康區","LI":"西橋里","LIN":"21鄰","STREET":"大橋三街","SECT":" ","MAREA":" ","LANE":"５７巷","ALLEY":"７弄","HOUSE_NO":"５６號","E_COORD97":170483.72,"N_COORD97":2546461.7000000002,"ADDRESS":"大橋三街５７巷７弄５６號","OBJECTID":98734},"geometry":{"x":170483.72000000067,"y":2546461.6999999993}},{"attributes":{"ID":98735,"DIS_CODE":0,"TOWNNAME":"永康區","LI":"西橋里","LIN":"21鄰","STREET":"大橋三街","SECT":" ","MAREA":" ","LANE":"５７巷","ALLEY":"１９弄","HOUSE_NO":"７５號","E_COORD97":170422.10000000001,"N_COORD97":2546447.1200000001,"ADDRESS":"大橋三街５７巷１９弄７５號","OBJECTID":98735},"geometry":{"x":170422.09999999963,"y":2546447.120000001}},{"attributes":{"ID":98736,"DIS_CODE":0,"TOWNNAME":"永康區","LI":"西橋里","LIN":"21鄰","STREET":"大橋三街","SECT":" ","MAREA":" ","LANE":"５７巷","ALLEY":"１９弄","HOUSE_NO":"３５號","E_COORD97":170482.09,"N_COORD97":2546500.7000000002,"ADDRESS":"大橋三街５７巷１９弄３５號","OBJECTID":98736},"geometry":{"x":170482.08999999985,"y":2546500.700000003}},{"attributes":{"ID":98737,"DIS_CODE":0,"TOWNNAME":"永康區","LI":"西勢里","LIN":"21鄰","STREET":"富強路","SECT":"一段","MAREA":" ","LANE":"９８巷","ALLEY":"２０弄","HOUSE_NO":"３６號","E_COORD97":175483.91,"N_COORD97":2546087.2599999998,"ADDRESS":"富強路一段９８巷２０弄３６號","OBJECTID":98737},"geometry":{"x":175483.91000000015,"y":2546087.2600000035}},{"attributes":{"ID":98738,"DIS_CODE":0,"TOWNNAME":"永康區","LI":"西橋里","LIN":"21鄰","STREET":"大橋三街","SECT":" ","MAREA":" ","LANE":"５７巷","ALLEY":"７弄","HOUSE_NO":"９２號","E_COORD97":170438.84,"N_COORD97":2546394.1200000001,"ADDRESS":"大橋三街５７巷７弄９２號","OBJECTID":98738},"geometry":{"x":170438.84000000078,"y":2546394.120000001}},{"attributes":{"ID":98739,"DIS_CODE":0,"TOWNNAME":"永康區","LI":"西勢里","LIN":"21鄰","STREET":"富強路","SECT":"一段","MAREA":" ","LANE":"９８巷","ALLEY":"３８弄","HOUSE_NO":"２號","E_COORD97":175569.89999999999,"N_COORD97":2546076.5099999998,"ADDRESS":"富強路一段９８巷３８弄２號","OBJECTID":98739},"geometry":{"x":175569.90000000224,"y":2546076.5100000016}},{"attributes":{"ID":98740,"DIS_CODE":0,"TOWNNAME":"永康區","LI":"西勢里","LIN":"21鄰","STREET":"富強路","SECT":"一段","MAREA":" ","LANE":"９８巷","ALLEY":"３４弄","HOUSE_NO":"７號","E_COORD97":175540.73000000001,"N_COORD97":2546073.8900000001,"ADDRESS":"富強路一段９８巷３４弄７號","OBJECTID":98740},"geometry":{"x":175540.73000000138,"y":2546073.8900000025}},{"attributes":{"ID":98741,"DIS_CODE":0,"TOWNNAME":"永康區","LI":"西勢里","LIN":"21鄰","STREET":"富強路","SECT":"一段","MAREA":" ","LANE":"９８巷","ALLEY":"３４弄","HOUSE_NO":"１０號","E_COORD97":175537.64999999999,"N_COORD97":2546087.6200000001,"ADDRESS":"富強路一段９８巷３４弄１０號","OBJECTID":98741},"geometry":{"x":175537.65000000224,"y":2546087.620000001}},{"attributes":{"ID":98742,"DIS_CODE":0,"TOWNNAME":"永康區","LI":"西勢里","LIN":"21鄰","STREET":"富強路","SECT":"一段","MAREA":" ","LANE":"９８巷","ALLEY":"２０弄","HOUSE_NO":"１８號","E_COORD97":175495.28,"N_COORD97":2546106.52,"ADDRESS":"富強路一段９８巷２０弄１８號","OBJECTID":98742},"geometry":{"x":175495.28000000026,"y":2546106.5200000014}},{"attributes":{"ID":98743,"DIS_CODE":0,"TOWNNAME":"永康區","LI":"西勢里","LIN":"21鄰","STREET":"富強路","SECT":"一段","MAREA":" ","LANE":"９８巷","ALLEY":"３４弄","HOUSE_NO":"２８號","E_COORD97":175497.23999999999,"N_COORD97":2546044.3700000001,"ADDRESS":"富強路一段９８巷３４弄２８號","OBJECTID":98743},"geometry":{"x":175497.24000000022,"y":2546044.3700000029}},{"attributes":{"ID":98744,"DIS_CODE":0,"TOWNNAME":"永康區","LI":"西勢里","LIN":"21鄰","STREET":"富強路","SECT":"一段","MAREA":" ","LANE":"９８巷","ALLEY":"２０弄","HOUSE_NO":"７號","E_COORD97":175528.57999999999,"N_COORD97":2546097.8599999999,"ADDRESS":"富強路一段９８巷２０弄７號","OBJECTID":98744},"geometry":{"x":175528.58000000007,"y":2546097.8599999994}},{"attributes":{"ID":98745,"DIS_CODE":0,"TOWNNAME":"永康區","LI":"西勢里","LIN":"21鄰","STREET":"富強路","SECT":"一段","MAREA":" ","LANE":"９８巷","ALLEY":"２０弄","HOUSE_NO":"２２號","E_COORD97":175490.67000000001,"N_COORD97":2546098.27,"ADDRESS":"富強路一段９８巷２０弄２２號","OBJECTID":98745},"geometry":{"x":175490.66999999993,"y":2546098.2700000014}},{"attributes":{"ID":98746,"DIS_CODE":0,"TOWNNAME":"中西區","LI":"光賢里","LIN":"1鄰","STREET":"武聖路","SECT":" ","MAREA":" ","LANE":"２７巷","ALLEY":" ","HOUSE_NO":"３號","E_COORD97":167242.07000000001,"N_COORD97":2545045.6899999999,"ADDRESS":"武聖路２７巷３號","OBJECTID":98746},"geometry":{"x":167242.07000000123,"y":2545045.6899999995}},{"attributes":{"ID":98747,"DIS_CODE":0,"TOWNNAME":"中西區","LI":"文賢里","LIN":"1鄰","STREET":"文賢路","SECT":" ","MAREA":" ","LANE":" ","ALLEY":" ","HOUSE_NO":"２２７號","E_COORD97":167329.89999999999,"N_COORD97":2544993.5,"ADDRESS":"文賢路２２７號","OBJECTID":98747},"geometry":{"x":167329.9000000013,"y":2544993.5}},{"attributes":{"ID":98748,"DIS_CODE":0,"TOWNNAME":"將軍區","LI":"平沙里","LIN":"10鄰","STREET":" ","SECT":" ","MAREA":"平沙","LANE":" ","ALLEY":" ","HOUSE_NO":"８７之１３號","E_COORD97":157217.95000000001,"N_COORD97":2568438.7400000002,"ADDRESS":"平沙８７之１３號","OBJECTID":98748},"geometry":{"x":157217.95000000112,"y":2568438.7400000002}},{"attributes":{"ID":98749,"DIS_CODE":0,"TOWNNAME":"將軍區","LI":"平沙里","LIN":"10鄰","STREET":" ","SECT":" ","MAREA":"平沙","LANE":" ","ALLEY":" ","HOUSE_NO":"８７之１５號","E_COORD97":157199.60000000001,"N_COORD97":2568386.0800000001,"ADDRESS":"平沙８７之１５號","OBJECTID":98749},"geometry":{"x":157199.59999999963,"y":2568386.0800000001}},{"attributes":{"ID":98750,"DIS_CODE":0,"TOWNNAME":"將軍區","LI":"平沙里","LIN":"10鄰","STREET":" ","SECT":" ","MAREA":"平沙","LANE":" ","ALLEY":" ","HOUSE_NO":"８７之１６號","E_COORD97":157192.45999999999,"N_COORD97":2568421.8500000001,"ADDRESS":"平沙８７之１６號","OBJECTID":98750},"geometry":{"x":157192.45999999996,"y":2568421.8499999978}},{"attributes":{"ID":98751,"DIS_CODE":0,"TOWNNAME":"將軍區","LI":"平沙里","LIN":"10鄰","STREET":" ","SECT":" ","MAREA":"平沙","LANE":" ","ALLEY":" ","HOUSE_NO":"８７之１９號","E_COORD97":157181.95999999999,"N_COORD97":2568382.1400000001,"ADDRESS":"平沙８７之１９號","OBJECTID":98751},"geometry":{"x":157181.96000000089,"y":2568382.1400000006}},{"attributes":{"ID":98752,"DIS_CODE":0,"TOWNNAME":"中西區","LI":"文賢里","LIN":"1鄰","STREET":"文賢路","SECT":" ","MAREA":" ","LANE":" ","ALLEY":" ","HOUSE_NO":"２２９號","E_COORD97":167319.82000000001,"N_COORD97":2545012.25,"ADDRESS":"文賢路２２９號","OBJECTID":98752},"geometry":{"x":167319.82000000216,"y":2545012.25}},{"attributes":{"ID":98753,"DIS_CODE":0,"TOWNNAME":"將軍區","LI":"平沙里","LIN":"10鄰","STREET":" ","SECT":" ","MAREA":"平沙","LANE":" ","ALLEY":" ","HOUSE_NO":"８７之１號","E_COORD97":157198.01000000001,"N_COORD97":2568444.1400000001,"ADDRESS":"平沙８７之１號","OBJECTID":98753},"geometry":{"x":157198.01000000071,"y":2568444.1400000006}},{"attributes":{"ID":98754,"DIS_CODE":0,"TOWNNAME":"將軍區","LI":"平沙里","LIN":"10鄰","STREET":" ","SECT":" ","MAREA":"平沙","LANE":" ","ALLEY":" ","HOUSE_NO":"８７之２３號","E_COORD97":157194.84,"N_COORD97":2568385.52,"ADDRESS":"平沙８７之２３號","OBJECTID":98754},"geometry":{"x":157194.83999999985,"y":2568385.5199999996}},{"attributes":{"ID":98755,"DIS_CODE":0,"TOWNNAME":"將軍區","LI":"平沙里","LIN":"10鄰","STREET":" ","SECT":" ","MAREA":"平沙","LANE":" ","ALLEY":" ","HOUSE_NO":"８７之２４號","E_COORD97":157218.54000000001,"N_COORD97":2568387.2799999998,"ADDRESS":"平沙８７之２４號","OBJECTID":98755},"geometry":{"x":157218.54000000097,"y":2568387.2799999993}},{"attributes":{"ID":98756,"DIS_CODE":0,"TOWNNAME":"將軍區","LI":"平沙里","LIN":"10鄰","STREET":" ","SECT":" ","MAREA":"平沙","LANE":" ","ALLEY":" ","HOUSE_NO":"８７之２５號","E_COORD97":157214.84,"N_COORD97":2568355.5499999998,"ADDRESS":"平沙８７之２５號","OBJECTID":98756},"geometry":{"x":157214.84000000078,"y":2568355.5500000026}},{"attributes":{"ID":98757,"DIS_CODE":0,"TOWNNAME":"將軍區","LI":"平沙里","LIN":"10鄰","STREET":" ","SECT":" ","MAREA":"平沙","LANE":" ","ALLEY":" ","HOUSE_NO":"８７之２８號","E_COORD97":157224.35999999999,"N_COORD97":2568425.6299999999,"ADDRESS":"平沙８７之２８號","OBJECTID":98757},"geometry":{"x":157224.36000000034,"y":2568425.629999999}},{"attributes":{"ID":98758,"DIS_CODE":0,"TOWNNAME":"善化區","LI":"東昌里","LIN":"6鄰","STREET":" ","SECT":" ","MAREA":"東勢寮","LANE":" ","ALLEY":" ","HOUSE_NO":"６２號","E_COORD97":180511.56,"N_COORD97":2561920.7599999998,"ADDRESS":"東勢寮６２號","OBJECTID":98758},"geometry":{"x":180511.56000000052,"y":2561920.7600000016}},{"attributes":{"ID":98759,"DIS_CODE":0,"TOWNNAME":"將軍區","LI":"平沙里","LIN":"10鄰","STREET":" ","SECT":" ","MAREA":"平沙","LANE":" ","ALLEY":" ","HOUSE_NO":"８７之２９號","E_COORD97":157198.72,"N_COORD97":2568362.8599999999,"ADDRESS":"平沙８７之２９號","OBJECTID":98759},"geometry":{"x":157198.72000000067,"y":2568362.8599999994}},{"attributes":{"ID":98760,"DIS_CODE":0,"TOWNNAME":"將軍區","LI":"平沙里","LIN":"10鄰","STREET":" ","SECT":" ","MAREA":"平沙","LANE":" ","ALLEY":" ","HOUSE_NO":"８７之２號","E_COORD97":157212.98999999999,"N_COORD97":2568454.23,"ADDRESS":"平沙８７之２號","OBJECTID":98760},"geometry":{"x":157212.99000000022,"y":2568454.2300000042}},{"attributes":{"ID":98761,"DIS_CODE":0,"TOWNNAME":"將軍區","LI":"平沙里","LIN":"10鄰","STREET":" ","SECT":" ","MAREA":"平沙","LANE":" ","ALLEY":" ","HOUSE_NO":"８７之３號","E_COORD97":157183.19,"N_COORD97":2568421.02,"ADDRESS":"平沙８７之３號","OBJECTID":98761},"geometry":{"x":157183.19000000041,"y":2568421.0200000033}},{"attributes":{"ID":98762,"DIS_CODE":0,"TOWNNAME":"將軍區","LI":"平沙里","LIN":"10鄰","STREET":" ","SECT":" ","MAREA":"平沙","LANE":" ","ALLEY":" ","HOUSE_NO":"８７之４號","E_COORD97":157178.17000000001,"N_COORD97":2568398.5699999998,"ADDRESS":"平沙８７之４號","OBJECTID":98762},"geometry":{"x":157178.17000000179,"y":2568398.5700000022}},{"attributes":{"ID":98763,"DIS_CODE":0,"TOWNNAME":"將軍區","LI":"平沙里","LIN":"10鄰","STREET":" ","SECT":" ","MAREA":"平沙","LANE":" ","ALLEY":" ","HOUSE_NO":"８７之５號","E_COORD97":157218.04000000001,"N_COORD97":2568406.5800000001,"ADDRESS":"平沙８７之５號","OBJECTID":98763},"geometry":{"x":157218.0400000019,"y":2568406.5800000001}},{"attributes":{"ID":98764,"DIS_CODE":0,"TOWNNAME":"將軍區","LI":"平沙里","LIN":"10鄰","STREET":" ","SECT":" ","MAREA":"平沙","LANE":" ","ALLEY":" ","HOUSE_NO":"８７之６號","E_COORD97":157210.23999999999,"N_COORD97":2568423.1899999999,"ADDRESS":"平沙８７之６號","OBJECTID":98764},"geometry":{"x":157210.24000000209,"y":2568423.1900000032}},{"attributes":{"ID":98765,"DIS_CODE":0,"TOWNNAME":"將軍區","LI":"平沙里","LIN":"10鄰","STREET":" ","SECT":" ","MAREA":"平沙","LANE":" ","ALLEY":" ","HOUSE_NO":"８７之７號","E_COORD97":157199.67999999999,"N_COORD97":2568403.2000000002,"ADDRESS":"平沙８７之７號","OBJECTID":98765},"geometry":{"x":157199.6799999997,"y":2568403.2000000011}},{"attributes":{"ID":98766,"DIS_CODE":0,"TOWNNAME":"將軍區","LI":"平沙里","LIN":"10鄰","STREET":" ","SECT":" ","MAREA":"平沙","LANE":" ","ALLEY":" ","HOUSE_NO":"８７之８號","E_COORD97":157208.97,"N_COORD97":2568386.5899999999,"ADDRESS":"平沙８７之８號","OBJECTID":98766},"geometry":{"x":157208.96999999974,"y":2568386.589999998}},{"attributes":{"ID":98767,"DIS_CODE":0,"TOWNNAME":"永康區","LI":"西勢里","LIN":"21鄰","STREET":"富強路","SECT":"一段","MAREA":" ","LANE":"９８巷","ALLEY":"５６弄","HOUSE_NO":"３８號","E_COORD97":175550.23000000001,"N_COORD97":2546009.6499999999,"ADDRESS":"富強路一段９８巷５６弄３８號","OBJECTID":98767},"geometry":{"x":175550.23000000045,"y":2546009.6500000004}},{"attributes":{"ID":98768,"DIS_CODE":0,"TOWNNAME":"將軍區","LI":"平沙里","LIN":"10鄰","STREET":" ","SECT":" ","MAREA":"平沙","LANE":" ","ALLEY":" ","HOUSE_NO":"８７之９號","E_COORD97":157136.78,"N_COORD97":2568530.3300000001,"ADDRESS":"平沙８７之９號","OBJECTID":98768},"geometry":{"x":157136.78000000026,"y":2568530.3300000001}},{"attributes":{"ID":98769,"DIS_CODE":0,"TOWNNAME":"將軍區","LI":"平沙里","LIN":"10鄰","STREET":" ","SECT":" ","MAREA":"平沙","LANE":" ","ALLEY":" ","HOUSE_NO":"８７號","E_COORD97":157206.64000000001,"N_COORD97":2568454.8900000001,"ADDRESS":"平沙８７號","OBJECTID":98769},"geometry":{"x":157206.63999999966,"y":2568454.8900000025}},{"attributes":{"ID":98770,"DIS_CODE":0,"TOWNNAME":"將軍區","LI":"玉山里","LIN":"10鄰","STREET":" ","SECT":" ","MAREA":"玉山","LANE":" ","ALLEY":" ","HOUSE_NO":"７９號","E_COORD97":160256.01999999999,"N_COORD97":2567841.1099999999,"ADDRESS":"玉山７９號","OBJECTID":98770},"geometry":{"x":160256.02000000048,"y":2567841.1100000013}},{"attributes":{"ID":98771,"DIS_CODE":0,"TOWNNAME":"將軍區","LI":"玉山里","LIN":"10鄰","STREET":" ","SECT":" ","MAREA":"玉山","LANE":" ","ALLEY":" ","HOUSE_NO":"８１號","E_COORD97":160315.56,"N_COORD97":2567800.9399999999,"ADDRESS":"玉山８１號","OBJECTID":98771},"geometry":{"x":160315.55999999959,"y":2567800.9400000032}},{"attributes":{"ID":98772,"DIS_CODE":0,"TOWNNAME":"將軍區","LI":"玉山里","LIN":"10鄰","STREET":" ","SECT":" ","MAREA":"玉山","LANE":" ","ALLEY":" ","HOUSE_NO":"８２號","E_COORD97":160296.78,"N_COORD97":2567788.48,"ADDRESS":"玉山８２號","OBJECTID":98772},"geometry":{"x":160296.78000000212,"y":2567788.4800000023}},{"attributes":{"ID":98773,"DIS_CODE":0,"TOWNNAME":"將軍區","LI":"玉山里","LIN":"10鄰","STREET":" ","SECT":" ","MAREA":"玉山","LANE":" ","ALLEY":" ","HOUSE_NO":"８３號","E_COORD97":160316.76000000001,"N_COORD97":2567770.5600000001,"ADDRESS":"玉山８３號","OBJECTID":98773},"geometry":{"x":160316.76000000164,"y":2567770.5600000042}},{"attributes":{"ID":98774,"DIS_CODE":0,"TOWNNAME":"將軍區","LI":"玉山里","LIN":"10鄰","STREET":" ","SECT":" ","MAREA":"玉山","LANE":" ","ALLEY":" ","HOUSE_NO":"８４號","E_COORD97":160333.79999999999,"N_COORD97":2567771.3999999999,"ADDRESS":"玉山８４號","OBJECTID":98774},"geometry":{"x":160333.80000000075,"y":2567771.4000000041}},{"attributes":{"ID":98775,"DIS_CODE":0,"TOWNNAME":"將軍區","LI":"玉山里","LIN":"10鄰","STREET":" ","SECT":" ","MAREA":"玉山","LANE":" ","ALLEY":" ","HOUSE_NO":"８５之１號","E_COORD97":160338.22,"N_COORD97":2567794.8999999999,"ADDRESS":"玉山８５之１號","OBJECTID":98775},"geometry":{"x":160338.22000000067,"y":2567794.9000000004}},{"attributes":{"ID":98776,"DIS_CODE":0,"TOWNNAME":"將軍區","LI":"玉山里","LIN":"10鄰","STREET":" ","SECT":" ","MAREA":"玉山","LANE":" ","ALLEY":" ","HOUSE_NO":"８６之１０號","E_COORD97":160314.67000000001,"N_COORD97":2567856.2799999998,"ADDRESS":"玉山８６之１０號","OBJECTID":98776},"geometry":{"x":160314.67000000086,"y":2567856.2800000012}},{"attributes":{"ID":98777,"DIS_CODE":0,"TOWNNAME":"將軍區","LI":"玉山里","LIN":"10鄰","STREET":" ","SECT":" ","MAREA":"玉山","LANE":" ","ALLEY":" ","HOUSE_NO":"８６之１號","E_COORD97":160368.64000000001,"N_COORD97":2567875.5899999999,"ADDRESS":"玉山８６之１號","OBJECTID":98777},"geometry":{"x":160368.6400000006,"y":2567875.5900000017}},{"attributes":{"ID":98778,"DIS_CODE":0,"TOWNNAME":"將軍區","LI":"玉山里","LIN":"10鄰","STREET":" ","SECT":" ","MAREA":"玉山","LANE":" ","ALLEY":" ","HOUSE_NO":"８６之２號","E_COORD97":160360.64000000001,"N_COORD97":2567886.7999999998,"ADDRESS":"玉山８６之２號","OBJECTID":98778},"geometry":{"x":160360.6400000006,"y":2567886.8000000007}},{"attributes":{"ID":98779,"DIS_CODE":0,"TOWNNAME":"將軍區","LI":"玉山里","LIN":"10鄰","STREET":" ","SECT":" ","MAREA":"玉山","LANE":" ","ALLEY":" ","HOUSE_NO":"８６之３號","E_COORD97":160341.54000000001,"N_COORD97":2567863.1099999999,"ADDRESS":"玉山８６之３號","OBJECTID":98779},"geometry":{"x":160341.54000000004,"y":2567863.1099999994}},{"attributes":{"ID":98780,"DIS_CODE":0,"TOWNNAME":"將軍區","LI":"玉山里","LIN":"10鄰","STREET":" ","SECT":" ","MAREA":"玉山","LANE":" ","ALLEY":" ","HOUSE_NO":"８６之４號","E_COORD97":160363.69,"N_COORD97":2567898.4100000001,"ADDRESS":"玉山８６之４號","OBJECTID":98780},"geometry":{"x":160363.69000000227,"y":2567898.4100000001}},{"attributes":{"ID":98781,"DIS_CODE":0,"TOWNNAME":"將軍區","LI":"玉山里","LIN":"10鄰","STREET":" ","SECT":" ","MAREA":"玉山","LANE":" ","ALLEY":" ","HOUSE_NO":"８６之５號","E_COORD97":160341.23000000001,"N_COORD97":2567895.0699999998,"ADDRESS":"玉山８６之５號","OBJECTID":98781},"geometry":{"x":160341.23000000045,"y":2567895.0700000003}},{"attributes":{"ID":98782,"DIS_CODE":0,"TOWNNAME":"將軍區","LI":"玉山里","LIN":"10鄰","STREET":" ","SECT":" ","MAREA":"玉山","LANE":" ","ALLEY":" ","HOUSE_NO":"８６之６號","E_COORD97":160367.20000000001,"N_COORD97":2567860.6200000001,"ADDRESS":"玉山８６之６號","OBJECTID":98782},"geometry":{"x":160367.20000000112,"y":2567860.620000001}},{"attributes":{"ID":98783,"DIS_CODE":0,"TOWNNAME":"將軍區","LI":"玉山里","LIN":"10鄰","STREET":" ","SECT":" ","MAREA":"玉山","LANE":" ","ALLEY":" ","HOUSE_NO":"８６之７號","E_COORD97":160366.66,"N_COORD97":2567915.52,"ADDRESS":"玉山８６之７號","OBJECTID":98783},"geometry":{"x":160366.66000000015,"y":2567915.5200000033}},{"attributes":{"ID":98784,"DIS_CODE":0,"TOWNNAME":"將軍區","LI":"玉山里","LIN":"10鄰","STREET":" ","SECT":" ","MAREA":"玉山","LANE":" ","ALLEY":" ","HOUSE_NO":"８６之８號","E_COORD97":160354.03,"N_COORD97":2567932.6600000001,"ADDRESS":"玉山８６之８號","OBJECTID":98784},"geometry":{"x":160354.03000000026,"y":2567932.660000002}},{"attributes":{"ID":98785,"DIS_CODE":0,"TOWNNAME":"將軍區","LI":"玉山里","LIN":"10鄰","STREET":" ","SECT":" ","MAREA":"玉山","LANE":" ","ALLEY":" ","HOUSE_NO":"８６號","E_COORD97":160334.20999999999,"N_COORD97":2567824.7599999998,"ADDRESS":"玉山８６號","OBJECTID":98785},"geometry":{"x":160334.20999999903,"y":2567824.7599999998}},{"attributes":{"ID":98786,"DIS_CODE":0,"TOWNNAME":"將軍區","LI":"玉山里","LIN":"10鄰","STREET":" ","SECT":" ","MAREA":"玉山","LANE":" ","ALLEY":" ","HOUSE_NO":"８７之９號","E_COORD97":160335.39999999999,"N_COORD97":2567926.3199999998,"ADDRESS":"玉山８７之９號","OBJECTID":98786},"geometry":{"x":160335.4000000013,"y":2567926.3200000003}},{"attributes":{"ID":98787,"DIS_CODE":0,"TOWNNAME":"將軍區","LI":"玉山里","LIN":"10鄰","STREET":" ","SECT":" ","MAREA":"玉山","LANE":" ","ALLEY":" ","HOUSE_NO":"８７號","E_COORD97":160368.76000000001,"N_COORD97":2567824.5,"ADDRESS":"玉山８７號","OBJECTID":98787},"geometry":{"x":160368.75999999978,"y":2567824.4999999981}},{"attributes":{"ID":98788,"DIS_CODE":0,"TOWNNAME":"將軍區","LI":"西和里","LIN":"10鄰","STREET":" ","SECT":" ","MAREA":"西和","LANE":" ","ALLEY":" ","HOUSE_NO":"８０之１號","E_COORD97":163035.60999999999,"N_COORD97":2566401.8300000001,"ADDRESS":"西和８０之１號","OBJECTID":98788},"geometry":{"x":163035.61000000034,"y":2566401.8299999982}},{"attributes":{"ID":98789,"DIS_CODE":0,"TOWNNAME":"將軍區","LI":"西和里","LIN":"10鄰","STREET":" ","SECT":" ","MAREA":"西和","LANE":" ","ALLEY":" ","HOUSE_NO":"８１號","E_COORD97":163074.67999999999,"N_COORD97":2566395.6400000001,"ADDRESS":"西和８１號","OBJECTID":98789},"geometry":{"x":163074.6799999997,"y":2566395.6400000006}},{"attributes":{"ID":98790,"DIS_CODE":0,"TOWNNAME":"將軍區","LI":"西和里","LIN":"10鄰","STREET":" ","SECT":" ","MAREA":"西和","LANE":" ","ALLEY":" ","HOUSE_NO":"８３號","E_COORD97":163067.48999999999,"N_COORD97":2566367.8900000001,"ADDRESS":"西和８３號","OBJECTID":98790},"geometry":{"x":163067.49000000115,"y":2566367.8900000006}},{"attributes":{"ID":98791,"DIS_CODE":0,"TOWNNAME":"將軍區","LI":"西和里","LIN":"10鄰","STREET":" ","SECT":" ","MAREA":"西和","LANE":" ","ALLEY":" ","HOUSE_NO":"８４號","E_COORD97":163080.88,"N_COORD97":2566390.1000000001,"ADDRESS":"西和８４號","OBJECTID":98791},"geometry":{"x":163080.87999999896,"y":2566390.1000000015}},{"attributes":{"ID":98792,"DIS_CODE":0,"TOWNNAME":"將軍區","LI":"西和里","LIN":"10鄰","STREET":" ","SECT":" ","MAREA":"西和","LANE":" ","ALLEY":" ","HOUSE_NO":"８５之２號","E_COORD97":163086.64999999999,"N_COORD97":2566376.6499999999,"ADDRESS":"西和８５之２號","OBJECTID":98792},"geometry":{"x":163086.6500000013,"y":2566376.6500000041}},{"attributes":{"ID":98793,"DIS_CODE":0,"TOWNNAME":"將軍區","LI":"西和里","LIN":"10鄰","STREET":" ","SECT":" ","MAREA":"西和","LANE":" ","ALLEY":" ","HOUSE_NO":"８５之３號","E_COORD97":163082.53,"N_COORD97":2566380.7799999998,"ADDRESS":"西和８５之３號","OBJECTID":98793},"geometry":{"x":163082.53000000119,"y":2566380.7799999993}},{"attributes":{"ID":98794,"DIS_CODE":0,"TOWNNAME":"將軍區","LI":"西和里","LIN":"10鄰","STREET":" ","SECT":" ","MAREA":"西和","LANE":" ","ALLEY":" ","HOUSE_NO":"８５號","E_COORD97":163103.38,"N_COORD97":2566368.04,"ADDRESS":"西和８５號","OBJECTID":98794},"geometry":{"x":163103.38000000082,"y":2566368.0399999991}},{"attributes":{"ID":98795,"DIS_CODE":0,"TOWNNAME":"永康區","LI":"西勢里","LIN":"21鄰","STREET":"富強路","SECT":"一段","MAREA":" ","LANE":"９８巷","ALLEY":"３８弄","HOUSE_NO":"１５號","E_COORD97":175557.75,"N_COORD97":2546045.6400000001,"ADDRESS":"富強路一段９８巷３８弄１５號","OBJECTID":98795},"geometry":{"x":175557.75,"y":2546045.6400000025}},{"attributes":{"ID":98796,"DIS_CODE":0,"TOWNNAME":"永康區","LI":"西勢里","LIN":"21鄰","STREET":"富強路","SECT":"一段","MAREA":" ","LANE":"９８巷","ALLEY":"２０弄","HOUSE_NO":"１號","E_COORD97":175517.88,"N_COORD97":2546107.1099999999,"ADDRESS":"富強路一段９８巷２０弄１號","OBJECTID":98796},"geometry":{"x":175517.87999999989,"y":2546107.1099999994}},{"attributes":{"ID":98797,"DIS_CODE":0,"TOWNNAME":"學甲區","LI":"豐和里","LIN":"1鄰","STREET":" ","SECT":" ","MAREA":"美豐","LANE":" ","ALLEY":" ","HOUSE_NO":"５號","E_COORD97":168020.79999999999,"N_COORD97":2569030.7599999998,"ADDRESS":"美豐５號","OBJECTID":98797},"geometry":{"x":168020.79999999981,"y":2569030.7600000016}},{"attributes":{"ID":98798,"DIS_CODE":0,"TOWNNAME":"永康區","LI":"西橋里","LIN":"21鄰","STREET":"大橋三街","SECT":" ","MAREA":" ","LANE":"５７巷","ALLEY":"７弄","HOUSE_NO":"５８號","E_COORD97":170480.57000000001,"N_COORD97":2546457.4500000002,"ADDRESS":"大橋三街５７巷７弄５８號","OBJECTID":98798},"geometry":{"x":170480.5700000003,"y":2546457.4499999993}},{"attributes":{"ID":98799,"DIS_CODE":0,"TOWNNAME":"永康區","LI":"西勢里","LIN":"21鄰","STREET":"富強路","SECT":"一段","MAREA":" ","LANE":"９８巷","ALLEY":"２０弄","HOUSE_NO":"９號","E_COORD97":175531.79000000001,"N_COORD97":2546095.1099999999,"ADDRESS":"富強路一段９８巷２０弄９號","OBJECTID":98799},"geometry":{"x":175531.79000000097,"y":2546095.1100000013}},{"attributes":{"ID":98800,"DIS_CODE":0,"TOWNNAME":"永康區","LI":"西勢里","LIN":"21鄰","STREET":"富強路","SECT":"一段","MAREA":" ","LANE":"９８巷","ALLEY":"３４弄","HOUSE_NO":"２６號","E_COORD97":175500.94,"N_COORD97":2546047.4900000002,"ADDRESS":"富強路一段９８巷３４弄２６號","OBJECTID":98800},"geometry":{"x":175500.94000000041,"y":2546047.4900000002}}]}