{"displayFieldName":"TOWNNAME","fieldAliases":{"ID":"ID","DIS_CODE":"DIS_CODE","TOWNNAME":"TOWNNAME","LI":"LI","LIN":"LIN","STREET":"STREET","SECT":"SECT","MAREA":"MAREA","LANE":"LANE","ALLEY":"ALLEY","HOUSE_NO":"HOUSE_NO","E_COORD97":"E_COORD97","N_COORD97":"N_COORD97","ADDRESS":"ADDRESS","OBJECTID":"OBJECTID"},"geometryType":"esriGeometryPoint","spatialReference":{"wkid":102443,"latestWkid":3826},"fields":[{"name":"ID","type":"esriFieldTypeDouble","alias":"ID"},{"name":"DIS_CODE","type":"esriFieldTypeInteger","alias":"DIS_CODE"},{"name":"TOWNNAME","type":"esriFieldTypeString","alias":"TOWNNAME","length":8},{"name":"LI","type":"esriFieldTypeString","alias":"LI","length":8},{"name":"LIN","type":"esriFieldTypeString","alias":"LIN","length":12},{"name":"STREET","type":"esriFieldTypeString","alias":"STREET","length":20},{"name":"SECT","type":"esriFieldTypeString","alias":"SECT","length":8},{"name":"MAREA","type":"esriFieldTypeString","alias":"MAREA","length":12},{"name":"LANE","type":"esriFieldTypeString","alias":"LANE","length":10},{"name":"ALLEY","type":"esriFieldTypeString","alias":"ALLEY","length":10},{"name":"HOUSE_NO","type":"esriFieldTypeString","alias":"HOUSE_NO","length":20},{"name":"E_COORD97","type":"esriFieldTypeDouble","alias":"E_COORD97"},{"name":"N_COORD97","type":"esriFieldTypeDouble","alias":"N_COORD97"},{"name":"ADDRESS","type":"esriFieldTypeString","alias":"ADDRESS","length":50},{"name":"OBJECTID","type":"esriFieldTypeOID","alias":"OBJECTID"}],"features":[{"attributes":{"ID":560428,"DIS_CODE":0,"TOWNNAME":"東區","LI":"東智里","LIN":"9鄰","STREET":"崇德路","SECT":" ","MAREA":" ","LANE":" ","ALLEY":" ","HOUSE_NO":"９８１號","E_COORD97":170797.04999999999,"N_COORD97":2540217.1899999999,"ADDRESS":"崇德路９８１號","OBJECTID":560401},"geometry":{"x":170797.05000000075,"y":2540217.1899999995}},{"attributes":{"ID":560429,"DIS_CODE":0,"TOWNNAME":"東區","LI":"東智里","LIN":"9鄰","STREET":"崇德路","SECT":" ","MAREA":" ","LANE":" ","ALLEY":" ","HOUSE_NO":"９８３號","E_COORD97":170795.72030399999,"N_COORD97":2540215.9484100002,"ADDRESS":"崇德路９８３號","OBJECTID":560402},"geometry":{"x":170795.72030400205,"y":2540215.9484110009}},{"attributes":{"ID":560430,"DIS_CODE":0,"TOWNNAME":"東區","LI":"東智里","LIN":"9鄰","STREET":"崇德路","SECT":" ","MAREA":" ","LANE":" ","ALLEY":" ","HOUSE_NO":"９８５號","E_COORD97":170795.402493,"N_COORD97":2540212.7734099999,"ADDRESS":"崇德路９８５號","OBJECTID":560403},"geometry":{"x":170795.40249300096,"y":2540212.7734130025}},{"attributes":{"ID":560431,"DIS_CODE":0,"TOWNNAME":"東區","LI":"東智里","LIN":"9鄰","STREET":"崇德路","SECT":" ","MAREA":" ","LANE":" ","ALLEY":" ","HOUSE_NO":"９９１號","E_COORD97":170799.851841,"N_COORD97":2540202.13717,"ADDRESS":"崇德路９９１號","OBJECTID":560404},"geometry":{"x":170799.85184100177,"y":2540202.1371679977}},{"attributes":{"ID":560432,"DIS_CODE":0,"TOWNNAME":"東區","LI":"東智里","LIN":"9鄰","STREET":"崇德路","SECT":" ","MAREA":" ","LANE":" ","ALLEY":" ","HOUSE_NO":"９９３號","E_COORD97":170801.33495700001,"N_COORD97":2540198.1154999998,"ADDRESS":"崇德路９９３號","OBJECTID":560405},"geometry":{"x":170801.33495699987,"y":2540198.1155040022}},{"attributes":{"ID":560433,"DIS_CODE":0,"TOWNNAME":"新市區","LI":"三舍里","LIN":"9鄰","STREET":"大順一路","SECT":" ","MAREA":" ","LANE":" ","ALLEY":" ","HOUSE_NO":"２１號","E_COORD97":177117.45999999999,"N_COORD97":2555421.25,"ADDRESS":"大順一路２１號","OBJECTID":560406},"geometry":{"x":177117.46000000089,"y":2555421.2500000037}},{"attributes":{"ID":560434,"DIS_CODE":0,"TOWNNAME":"新市區","LI":"三舍里","LIN":"9鄰","STREET":"大順一路","SECT":" ","MAREA":" ","LANE":" ","ALLEY":" ","HOUSE_NO":"１１號","E_COORD97":177149.45999999999,"N_COORD97":2555460.75,"ADDRESS":"大順一路１１號","OBJECTID":560407},"geometry":{"x":177149.46000000089,"y":2555460.75}},{"attributes":{"ID":560435,"DIS_CODE":0,"TOWNNAME":"新市區","LI":"三舍里","LIN":"9鄰","STREET":"大順一路","SECT":" ","MAREA":" ","LANE":" ","ALLEY":" ","HOUSE_NO":"１９號","E_COORD97":177121.01000000001,"N_COORD97":2555451.75,"ADDRESS":"大順一路１９號","OBJECTID":560408},"geometry":{"x":177121.00999999978,"y":2555451.7500000037}},{"attributes":{"ID":560436,"DIS_CODE":0,"TOWNNAME":"新市區","LI":"新和里","LIN":"9鄰","STREET":"可口街","SECT":" ","MAREA":" ","LANE":" ","ALLEY":" ","HOUSE_NO":"４５號","E_COORD97":177588.62,"N_COORD97":2552464.75,"ADDRESS":"可口街４５號","OBJECTID":560409},"geometry":{"x":177588.61999999918,"y":2552464.7500000037}},{"attributes":{"ID":560437,"DIS_CODE":0,"TOWNNAME":"新市區","LI":"豐華里","LIN":"9鄰","STREET":"環西路","SECT":"二段","MAREA":" ","LANE":" ","ALLEY":" ","HOUSE_NO":"１０號","E_COORD97":175660.57000000001,"N_COORD97":2556220.0299999998,"ADDRESS":"環西路二段１０號","OBJECTID":560410},"geometry":{"x":175660.57000000123,"y":2556220.0300000012}},{"attributes":{"ID":560438,"DIS_CODE":0,"TOWNNAME":"新市區","LI":"新和里","LIN":"9鄰","STREET":"可口街","SECT":" ","MAREA":" ","LANE":" ","ALLEY":" ","HOUSE_NO":"４３號","E_COORD97":177587.76000000001,"N_COORD97":2552461,"ADDRESS":"可口街４３號","OBJECTID":560411},"geometry":{"x":177587.76000000071,"y":2552461.0000000019}},{"attributes":{"ID":560439,"DIS_CODE":0,"TOWNNAME":"新市區","LI":"新和里","LIN":"9鄰","STREET":"可口街","SECT":" ","MAREA":" ","LANE":" ","ALLEY":" ","HOUSE_NO":"４１號","E_COORD97":177587.01000000001,"N_COORD97":2552457,"ADDRESS":"可口街４１號","OBJECTID":560412},"geometry":{"x":177587.00999999978,"y":2552457.0000000019}},{"attributes":{"ID":560440,"DIS_CODE":0,"TOWNNAME":"新市區","LI":"新和里","LIN":"9鄰","STREET":"可口街","SECT":" ","MAREA":" ","LANE":" ","ALLEY":" ","HOUSE_NO":"２３號","E_COORD97":177581.03,"N_COORD97":2552420,"ADDRESS":"可口街２３號","OBJECTID":560413},"geometry":{"x":177581.03000000212,"y":2552420.0000000019}},{"attributes":{"ID":560441,"DIS_CODE":0,"TOWNNAME":"新市區","LI":"永就里","LIN":"9鄰","STREET":"中山路","SECT":" ","MAREA":" ","LANE":" ","ALLEY":" ","HOUSE_NO":"２０２之１８號","E_COORD97":177747.41,"N_COORD97":2552279.2999999998,"ADDRESS":"中山路２０２之１８號","OBJECTID":560414},"geometry":{"x":177747.41000000015,"y":2552279.3000000026}},{"attributes":{"ID":560442,"DIS_CODE":0,"TOWNNAME":"永康區","LI":"復興里","LIN":"9鄰","STREET":"復興路","SECT":" ","MAREA":" ","LANE":" ","ALLEY":" ","HOUSE_NO":"２８９號","E_COORD97":172320.63,"N_COORD97":2544315.77,"ADDRESS":"復興路２８９號","OBJECTID":560415},"geometry":{"x":172320.62999999989,"y":2544315.7699999996}},{"attributes":{"ID":560443,"DIS_CODE":0,"TOWNNAME":"永康區","LI":"復興里","LIN":"9鄰","STREET":"復興路","SECT":" ","MAREA":" ","LANE":" ","ALLEY":" ","HOUSE_NO":"２９９號","E_COORD97":172299.14999999999,"N_COORD97":2544315.3100000001,"ADDRESS":"復興路２９９號","OBJECTID":560416},"geometry":{"x":172299.15000000037,"y":2544315.3100000024}},{"attributes":{"ID":560444,"DIS_CODE":0,"TOWNNAME":"永康區","LI":"復興里","LIN":"9鄰","STREET":"復興路","SECT":" ","MAREA":" ","LANE":" ","ALLEY":" ","HOUSE_NO":"２９１號","E_COORD97":172316.04000000001,"N_COORD97":2544315.3100000001,"ADDRESS":"復興路２９１號","OBJECTID":560417},"geometry":{"x":172316.04000000097,"y":2544315.3100000024}},{"attributes":{"ID":560445,"DIS_CODE":0,"TOWNNAME":"永康區","LI":"復興里","LIN":"9鄰","STREET":"復興路","SECT":" ","MAREA":" ","LANE":" ","ALLEY":" ","HOUSE_NO":"２９５號","E_COORD97":172306.14000000001,"N_COORD97":2544315.0600000001,"ADDRESS":"復興路２９５號","OBJECTID":560418},"geometry":{"x":172306.1400000006,"y":2544315.0600000005}},{"attributes":{"ID":560446,"DIS_CODE":0,"TOWNNAME":"永康區","LI":"復興里","LIN":"9鄰","STREET":"復興路","SECT":" ","MAREA":" ","LANE":" ","ALLEY":" ","HOUSE_NO":"２８３號","E_COORD97":172338.59,"N_COORD97":2544318.52,"ADDRESS":"復興路２８３號","OBJECTID":560419},"geometry":{"x":172338.59000000171,"y":2544318.5200000033}},{"attributes":{"ID":560447,"DIS_CODE":0,"TOWNNAME":"安南區","LI":"安富里","LIN":"9鄰","STREET":"安富街","SECT":" ","MAREA":" ","LANE":" ","ALLEY":" ","HOUSE_NO":"２６２號","E_COORD97":167495.25,"N_COORD97":2547451.5600000001,"ADDRESS":"安富街２６２號","OBJECTID":560420},"geometry":{"x":167495.25000000093,"y":2547451.5600000005}},{"attributes":{"ID":560448,"DIS_CODE":0,"TOWNNAME":"安南區","LI":"安富里","LIN":"9鄰","STREET":"安富街","SECT":" ","MAREA":" ","LANE":" ","ALLEY":" ","HOUSE_NO":"２７０號","E_COORD97":167479.85999999999,"N_COORD97":2547447.23,"ADDRESS":"安富街２７０號","OBJECTID":560421},"geometry":{"x":167479.86000000034,"y":2547447.2299999986}},{"attributes":{"ID":560449,"DIS_CODE":0,"TOWNNAME":"安南區","LI":"安富里","LIN":"9鄰","STREET":"安富街","SECT":" ","MAREA":" ","LANE":" ","ALLEY":" ","HOUSE_NO":"２７２號","E_COORD97":167476.82999999999,"N_COORD97":2547444.6400000001,"ADDRESS":"安富街２７２號","OBJECTID":560422},"geometry":{"x":167476.83000000007,"y":2547444.6399999987}},{"attributes":{"ID":560450,"DIS_CODE":0,"TOWNNAME":"安南區","LI":"安富里","LIN":"9鄰","STREET":"安富街","SECT":" ","MAREA":" ","LANE":" ","ALLEY":" ","HOUSE_NO":"２７６號","E_COORD97":167468.16,"N_COORD97":2547445.0699999998,"ADDRESS":"安富街２７６號","OBJECTID":560423},"geometry":{"x":167468.16000000201,"y":2547445.070000004}},{"attributes":{"ID":560451,"DIS_CODE":0,"TOWNNAME":"仁德區","LI":"仁德里","LIN":"9鄰","STREET":"仁德二街","SECT":" ","MAREA":" ","LANE":" ","ALLEY":" ","HOUSE_NO":"１７號","E_COORD97":173266.64999999999,"N_COORD97":2541073.2599999998,"ADDRESS":"仁德二街１７號","OBJECTID":560424},"geometry":{"x":173266.6500000013,"y":2541073.2600000016}},{"attributes":{"ID":560452,"DIS_CODE":0,"TOWNNAME":"仁德區","LI":"成功里","LIN":"9鄰","STREET":"保華路","SECT":" ","MAREA":" ","LANE":" ","ALLEY":" ","HOUSE_NO":"１８１號","E_COORD97":170976.98000000001,"N_COORD97":2540021,"ADDRESS":"保華路１８１號","OBJECTID":560425},"geometry":{"x":170976.97999999952,"y":2540021.0000000019}},{"attributes":{"ID":560453,"DIS_CODE":0,"TOWNNAME":"仁德區","LI":"仁德里","LIN":"9鄰","STREET":"仁德二街","SECT":" ","MAREA":" ","LANE":" ","ALLEY":" ","HOUSE_NO":"１９號","E_COORD97":173262.76999999999,"N_COORD97":2541072.0099999998,"ADDRESS":"仁德二街１９號","OBJECTID":560426},"geometry":{"x":173262.77000000142,"y":2541072.0100000016}},{"attributes":{"ID":560454,"DIS_CODE":0,"TOWNNAME":"仁德區","LI":"仁德里","LIN":"9鄰","STREET":"中正路","SECT":"二段","MAREA":" ","LANE":" ","ALLEY":" ","HOUSE_NO":"１１９９號","E_COORD97":173285.91,"N_COORD97":2541171.2799999998,"ADDRESS":"中正路二段１１９９號","OBJECTID":560427},"geometry":{"x":173285.91000000015,"y":2541171.2800000012}},{"attributes":{"ID":560455,"DIS_CODE":0,"TOWNNAME":"仁德區","LI":"太子里","LIN":"9鄰","STREET":"太子路","SECT":" ","MAREA":" ","LANE":" ","ALLEY":" ","HOUSE_NO":"１２４號","E_COORD97":174710.81,"N_COORD97":2543535.7599999998,"ADDRESS":"太子路１２４號","OBJECTID":560428},"geometry":{"x":174710.81000000052,"y":2543535.7599999998}},{"attributes":{"ID":560456,"DIS_CODE":0,"TOWNNAME":"仁德區","LI":"成功里","LIN":"9鄰","STREET":"保華路","SECT":" ","MAREA":" ","LANE":" ","ALLEY":" ","HOUSE_NO":"２０３號","E_COORD97":170930.42000000001,"N_COORD97":2540016.25,"ADDRESS":"保華路２０３號","OBJECTID":560429},"geometry":{"x":170930.41999999993,"y":2540016.2500000019}},{"attributes":{"ID":560457,"DIS_CODE":0,"TOWNNAME":"仁德區","LI":"成功里","LIN":"9鄰","STREET":"保華路","SECT":" ","MAREA":" ","LANE":" ","ALLEY":" ","HOUSE_NO":"１９７號","E_COORD97":170943.12,"N_COORD97":2540016.75,"ADDRESS":"保華路１９７號","OBJECTID":560430},"geometry":{"x":170943.12000000011,"y":2540016.7500000019}},{"attributes":{"ID":560458,"DIS_CODE":0,"TOWNNAME":"仁德區","LI":"成功里","LIN":"9鄰","STREET":"保華路","SECT":" ","MAREA":" ","LANE":" ","ALLEY":" ","HOUSE_NO":"１９５號","E_COORD97":170947.44,"N_COORD97":2540017,"ADDRESS":"保華路１９５號","OBJECTID":560431},"geometry":{"x":170947.44000000134,"y":2540017.0000000037}},{"attributes":{"ID":560459,"DIS_CODE":0,"TOWNNAME":"仁德區","LI":"仁德里","LIN":"9鄰","STREET":"仁德二街","SECT":" ","MAREA":" ","LANE":" ","ALLEY":" ","HOUSE_NO":"１３號","E_COORD97":173274.67000000001,"N_COORD97":2541075.7599999998,"ADDRESS":"仁德二街１３號","OBJECTID":560432},"geometry":{"x":173274.67000000086,"y":2541075.7599999979}},{"attributes":{"ID":560460,"DIS_CODE":0,"TOWNNAME":"仁德區","LI":"成功里","LIN":"9鄰","STREET":"保華路","SECT":" ","MAREA":" ","LANE":" ","ALLEY":" ","HOUSE_NO":"１８９號","E_COORD97":170961.89000000001,"N_COORD97":2540020.25,"ADDRESS":"保華路１８９號","OBJECTID":560433},"geometry":{"x":170961.8900000006,"y":2540020.25}},{"attributes":{"ID":560461,"DIS_CODE":0,"TOWNNAME":"麻豆區","LI":"\u25A0江里","LIN":"21鄰","STREET":"信義路","SECT":" ","MAREA":" ","LANE":" ","ALLEY":" ","HOUSE_NO":"３６號之２２","E_COORD97":173574.07000000001,"N_COORD97":2564555,"ADDRESS":"信義路３６號之２２","OBJECTID":560434},"geometry":{"x":173574.07000000123,"y":2564555}},{"attributes":{"ID":560462,"DIS_CODE":0,"TOWNNAME":"麻豆區","LI":"\u25A0江里","LIN":"21鄰","STREET":"信義路","SECT":" ","MAREA":" ","LANE":" ","ALLEY":" ","HOUSE_NO":"３６號之２３","E_COORD97":173553.03,"N_COORD97":2564554.1600000001,"ADDRESS":"信義路３６號之２３","OBJECTID":560435},"geometry":{"x":173553.03000000026,"y":2564554.1600000001}},{"attributes":{"ID":560463,"DIS_CODE":0,"TOWNNAME":"麻豆區","LI":"\u25A0江里","LIN":"21鄰","STREET":"信義路","SECT":" ","MAREA":" ","LANE":" ","ALLEY":" ","HOUSE_NO":"３６號之２４","E_COORD97":173552.87,"N_COORD97":2564558.4500000002,"ADDRESS":"信義路３６號之２４","OBJECTID":560436},"geometry":{"x":173552.87000000104,"y":2564558.4499999993}},{"attributes":{"ID":560464,"DIS_CODE":0,"TOWNNAME":"麻豆區","LI":"\u25A0江里","LIN":"21鄰","STREET":"信義路","SECT":" ","MAREA":" ","LANE":" ","ALLEY":" ","HOUSE_NO":"３６號之２５","E_COORD97":173552.51999999999,"N_COORD97":2564562.3399999999,"ADDRESS":"信義路３６號之２５","OBJECTID":560437},"geometry":{"x":173552.52000000142,"y":2564562.3400000017}},{"attributes":{"ID":560465,"DIS_CODE":0,"TOWNNAME":"麻豆區","LI":"\u25A0江里","LIN":"21鄰","STREET":"信義路","SECT":" ","MAREA":" ","LANE":" ","ALLEY":" ","HOUSE_NO":"３６號之２６","E_COORD97":173552.13,"N_COORD97":2564566.3700000001,"ADDRESS":"信義路３６號之２６","OBJECTID":560438},"geometry":{"x":173552.13000000175,"y":2564566.3700000029}},{"attributes":{"ID":560466,"DIS_CODE":0,"TOWNNAME":"永康區","LI":"\u25A0行里","LIN":"40鄰","STREET":"永安一街","SECT":" ","MAREA":" ","LANE":" ","ALLEY":" ","HOUSE_NO":"１３號","E_COORD97":172637.14999999999,"N_COORD97":2549385.8100000001,"ADDRESS":"永安一街１３號","OBJECTID":560439},"geometry":{"x":172637.15000000224,"y":2549385.8100000005}},{"attributes":{"ID":560467,"DIS_CODE":0,"TOWNNAME":"永康區","LI":"\u25A0行里","LIN":"14鄰","STREET":"中正六街","SECT":" ","MAREA":" ","LANE":" ","ALLEY":" ","HOUSE_NO":"１９３號","E_COORD97":171892.13,"N_COORD97":2548889.1699999999,"ADDRESS":"中正六街１９３號","OBJECTID":560440},"geometry":{"x":171892.12999999989,"y":2548889.1700000018}},{"attributes":{"ID":560468,"DIS_CODE":0,"TOWNNAME":"永康區","LI":"\u25A0行里","LIN":"44鄰","STREET":"\u25A0和街","SECT":" ","MAREA":" ","LANE":" ","ALLEY":" ","HOUSE_NO":"１７２號","E_COORD97":171909.73999999999,"N_COORD97":2547966.75,"ADDRESS":"\u25A0和街１７２號","OBJECTID":560441},"geometry":{"x":171909.74000000115,"y":2547966.7500000019}},{"attributes":{"ID":560469,"DIS_CODE":0,"TOWNNAME":"東區","LI":"德高里","LIN":"9鄰","STREET":"崇善東路","SECT":" ","MAREA":" ","LANE":" ","ALLEY":" ","HOUSE_NO":"６６號","E_COORD97":171371.98999999999,"N_COORD97":2540970.4199999999,"ADDRESS":"崇善東路６６號","OBJECTID":560442},"geometry":{"x":171371.99000000115,"y":2540970.4200000018}},{"attributes":{"ID":560470,"DIS_CODE":0,"TOWNNAME":"東區","LI":"崇善里","LIN":"9鄰","STREET":"仁和路","SECT":" ","MAREA":" ","LANE":" ","ALLEY":" ","HOUSE_NO":"９８號","E_COORD97":171231.79000000001,"N_COORD97":2541513.5099999998,"ADDRESS":"仁和路９８號","OBJECTID":560443},"geometry":{"x":171231.79000000004,"y":2541513.5099999998}},{"attributes":{"ID":560471,"DIS_CODE":0,"TOWNNAME":"東區","LI":"崇善里","LIN":"9鄰","STREET":"仁和路","SECT":" ","MAREA":" ","LANE":" ","ALLEY":" ","HOUSE_NO":"１００號之５","E_COORD97":171246.07999999999,"N_COORD97":2541488.3399999999,"ADDRESS":"仁和路１００號之５","OBJECTID":560444},"geometry":{"x":171246.08000000101,"y":2541488.3399999999}},{"attributes":{"ID":560472,"DIS_CODE":0,"TOWNNAME":"東區","LI":"崇善里","LIN":"9鄰","STREET":"仁和路","SECT":" ","MAREA":" ","LANE":" ","ALLEY":" ","HOUSE_NO":"１０２號","E_COORD97":171260.17000000001,"N_COORD97":2541459.4100000001,"ADDRESS":"仁和路１０２號","OBJECTID":560445},"geometry":{"x":171260.17000000086,"y":2541459.410000002}},{"attributes":{"ID":560473,"DIS_CODE":0,"TOWNNAME":"仁德區","LI":"仁德里","LIN":"8鄰","STREET":"仁德三街","SECT":" ","MAREA":" ","LANE":"５０巷","ALLEY":" ","HOUSE_NO":"３４號","E_COORD97":173209.87,"N_COORD97":2541083.5099999998,"ADDRESS":"仁德三街５０巷３４號","OBJECTID":560446},"geometry":{"x":173209.87000000011,"y":2541083.5099999998}},{"attributes":{"ID":560474,"DIS_CODE":0,"TOWNNAME":"仁德區","LI":"仁德里","LIN":"9鄰","STREET":"仁德二街","SECT":" ","MAREA":" ","LANE":" ","ALLEY":" ","HOUSE_NO":"２４號","E_COORD97":173244.01000000001,"N_COORD97":2541078.2599999998,"ADDRESS":"仁德二街２４號","OBJECTID":560447},"geometry":{"x":173244.00999999978,"y":2541078.2599999998}},{"attributes":{"ID":560475,"DIS_CODE":0,"TOWNNAME":"仁德區","LI":"保安里","LIN":"9鄰","STREET":"文賢路","SECT":"一段","MAREA":" ","LANE":" ","ALLEY":" ","HOUSE_NO":"８０１號","E_COORD97":171544.36111699999,"N_COORD97":2536078.3207299998,"ADDRESS":"文賢路一段８０１號","OBJECTID":560448},"geometry":{"x":171544.36111699976,"y":2536078.3207310028}},{"attributes":{"ID":560476,"DIS_CODE":0,"TOWNNAME":"仁德區","LI":"保安里","LIN":"9鄰","STREET":"文賢路","SECT":"一段","MAREA":" ","LANE":" ","ALLEY":" ","HOUSE_NO":"８０９號","E_COORD97":171566.20999999999,"N_COORD97":2536061.8300000001,"ADDRESS":"文賢路一段８０９號","OBJECTID":560449},"geometry":{"x":171566.20999999996,"y":2536061.8300000019}},{"attributes":{"ID":560477,"DIS_CODE":0,"TOWNNAME":"仁德區","LI":"後壁里","LIN":"9鄰","STREET":"德善二街","SECT":" ","MAREA":" ","LANE":" ","ALLEY":" ","HOUSE_NO":"５０號","E_COORD97":173664.19,"N_COORD97":2538978.27,"ADDRESS":"德善二街５０號","OBJECTID":560450},"geometry":{"x":173664.19000000227,"y":2538978.2700000014}},{"attributes":{"ID":560478,"DIS_CODE":0,"TOWNNAME":"仁德區","LI":"後壁里","LIN":"9鄰","STREET":"德善二街","SECT":" ","MAREA":" ","LANE":" ","ALLEY":" ","HOUSE_NO":"５６號","E_COORD97":173687.84,"N_COORD97":2538978.52,"ADDRESS":"德善二街５６號","OBJECTID":560451},"geometry":{"x":173687.83999999985,"y":2538978.5199999977}},{"attributes":{"ID":560479,"DIS_CODE":0,"TOWNNAME":"仁德區","LI":"後壁里","LIN":"9鄰","STREET":"民安路","SECT":"二段","MAREA":" ","LANE":" ","ALLEY":" ","HOUSE_NO":"１６８號","E_COORD97":173763.89999999999,"N_COORD97":2538967.5699999998,"ADDRESS":"民安路二段１６８號","OBJECTID":560452},"geometry":{"x":173763.90000000037,"y":2538967.5700000003}},{"attributes":{"ID":560480,"DIS_CODE":0,"TOWNNAME":"仁德區","LI":"後壁里","LIN":"9鄰","STREET":"德善二街","SECT":" ","MAREA":" ","LANE":" ","ALLEY":" ","HOUSE_NO":"５８號","E_COORD97":173690.95000000001,"N_COORD97":2538980.52,"ADDRESS":"德善二街５８號","OBJECTID":560453},"geometry":{"x":173690.95000000205,"y":2538980.5199999996}},{"attributes":{"ID":560481,"DIS_CODE":0,"TOWNNAME":"仁德區","LI":"後壁里","LIN":"9鄰","STREET":"民安路","SECT":"二段","MAREA":" ","LANE":" ","ALLEY":" ","HOUSE_NO":"１７２號","E_COORD97":173759.04999999999,"N_COORD97":2538948.0699999998,"ADDRESS":"民安路二段１７２號","OBJECTID":560454},"geometry":{"x":173759.04999999981,"y":2538948.0700000003}},{"attributes":{"ID":560482,"DIS_CODE":0,"TOWNNAME":"東區","LI":"德高里","LIN":"9鄰","STREET":"德高街","SECT":" ","MAREA":" ","LANE":" ","ALLEY":" ","HOUSE_NO":"２１號","E_COORD97":171409.31,"N_COORD97":2540911.8999999999,"ADDRESS":"德高街２１號","OBJECTID":560455},"geometry":{"x":171409.30999999959,"y":2540911.9000000004}},{"attributes":{"ID":560483,"DIS_CODE":0,"TOWNNAME":"東區","LI":"德高里","LIN":"9鄰","STREET":"德高街","SECT":" ","MAREA":" ","LANE":" ","ALLEY":" ","HOUSE_NO":"１３號","E_COORD97":171391.97,"N_COORD97":2540930.1299999999,"ADDRESS":"德高街１３號","OBJECTID":560456},"geometry":{"x":171391.97000000067,"y":2540930.1300000027}},{"attributes":{"ID":560484,"DIS_CODE":0,"TOWNNAME":"東區","LI":"德高里","LIN":"9鄰","STREET":"德高街","SECT":" ","MAREA":" ","LANE":" ","ALLEY":" ","HOUSE_NO":"１５號","E_COORD97":171393.63,"N_COORD97":2540922.4900000002,"ADDRESS":"德高街１５號","OBJECTID":560457},"geometry":{"x":171393.62999999989,"y":2540922.4900000039}},{"attributes":{"ID":560485,"DIS_CODE":0,"TOWNNAME":"仁德區","LI":"新田里","LIN":"9鄰","STREET":"北保路","SECT":" ","MAREA":" ","LANE":" ","ALLEY":" ","HOUSE_NO":"１６３號","E_COORD97":173451.76000000001,"N_COORD97":2539463.2400000002,"ADDRESS":"北保路１６３號","OBJECTID":560458},"geometry":{"x":173451.76000000071,"y":2539463.2400000021}},{"attributes":{"ID":560486,"DIS_CODE":0,"TOWNNAME":"仁德區","LI":"新田里","LIN":"9鄰","STREET":"中正路","SECT":"二段","MAREA":" ","LANE":" ","ALLEY":" ","HOUSE_NO":"５３８號","E_COORD97":173376.41,"N_COORD97":2539580.5299999998,"ADDRESS":"中正路二段５３８號","OBJECTID":560459},"geometry":{"x":173376.41000000108,"y":2539580.5299999993}},{"attributes":{"ID":560487,"DIS_CODE":0,"TOWNNAME":"仁德區","LI":"後壁里","LIN":"9鄰","STREET":"民安路","SECT":"二段","MAREA":" ","LANE":" ","ALLEY":" ","HOUSE_NO":"１７８號","E_COORD97":173776.73000000001,"N_COORD97":2538938.8100000001,"ADDRESS":"民安路二段１７８號","OBJECTID":560460},"geometry":{"x":173776.73000000045,"y":2538938.8100000024}},{"attributes":{"ID":560488,"DIS_CODE":0,"TOWNNAME":"東區","LI":"德高里","LIN":"9鄰","STREET":"德高街","SECT":" ","MAREA":" ","LANE":" ","ALLEY":" ","HOUSE_NO":"１９號","E_COORD97":171406.38,"N_COORD97":2540914.21,"ADDRESS":"德高街１９號","OBJECTID":560461},"geometry":{"x":171406.38000000082,"y":2540914.2100000009}},{"attributes":{"ID":560489,"DIS_CODE":0,"TOWNNAME":"東區","LI":"德高里","LIN":"9鄰","STREET":"德高街","SECT":" ","MAREA":" ","LANE":" ","ALLEY":" ","HOUSE_NO":"２３號","E_COORD97":171412.75,"N_COORD97":2540908.8399999999,"ADDRESS":"德高街２３號","OBJECTID":560462},"geometry":{"x":171412.75000000093,"y":2540908.8399999999}},{"attributes":{"ID":560490,"DIS_CODE":0,"TOWNNAME":"東區","LI":"德高里","LIN":"9鄰","STREET":"崇善東路","SECT":" ","MAREA":" ","LANE":" ","ALLEY":" ","HOUSE_NO":"８２號","E_COORD97":171391.57999999999,"N_COORD97":2541002.52,"ADDRESS":"崇善東路８２號","OBJECTID":560463},"geometry":{"x":171391.58000000101,"y":2541002.5199999996}},{"attributes":{"ID":560491,"DIS_CODE":0,"TOWNNAME":"安南區","LI":"溪東里","LIN":"9鄰","STREET":"府安路","SECT":"五段","MAREA":" ","LANE":" ","ALLEY":" ","HOUSE_NO":"１２號","E_COORD97":168472.29999999999,"N_COORD97":2547227.1800000002,"ADDRESS":"府安路五段１２號","OBJECTID":560464},"geometry":{"x":168472.30000000075,"y":2547227.1800000016}},{"attributes":{"ID":560492,"DIS_CODE":0,"TOWNNAME":"安南區","LI":"溪東里","LIN":"9鄰","STREET":"府安路","SECT":"五段","MAREA":" ","LANE":" ","ALLEY":" ","HOUSE_NO":"１３號","E_COORD97":168469.01999999999,"N_COORD97":2547221.3999999999,"ADDRESS":"府安路五段１３號","OBJECTID":560465},"geometry":{"x":168469.02000000048,"y":2547221.4000000004}},{"attributes":{"ID":560493,"DIS_CODE":0,"TOWNNAME":"安南區","LI":"溪東里","LIN":"9鄰","STREET":"府安路","SECT":"五段","MAREA":" ","LANE":" ","ALLEY":" ","HOUSE_NO":"１４號","E_COORD97":168463.62,"N_COORD97":2547225.8399999999,"ADDRESS":"府安路五段１４號","OBJECTID":560466},"geometry":{"x":168463.62000000197,"y":2547225.8400000036}},{"attributes":{"ID":560494,"DIS_CODE":0,"TOWNNAME":"安南區","LI":"溪東里","LIN":"9鄰","STREET":"府安路","SECT":"五段","MAREA":" ","LANE":" ","ALLEY":" ","HOUSE_NO":"１５號","E_COORD97":168460.14999999999,"N_COORD97":2547222.75,"ADDRESS":"府安路五段１５號","OBJECTID":560467},"geometry":{"x":168460.15000000224,"y":2547222.75}},{"attributes":{"ID":560495,"DIS_CODE":0,"TOWNNAME":"安南區","LI":"溪東里","LIN":"9鄰","STREET":"府安路","SECT":"五段","MAREA":" ","LANE":" ","ALLEY":" ","HOUSE_NO":"１６號","E_COORD97":168451.42999999999,"N_COORD97":2547231.21,"ADDRESS":"府安路五段１６號","OBJECTID":560468},"geometry":{"x":168451.43000000063,"y":2547231.2100000046}},{"attributes":{"ID":560496,"DIS_CODE":0,"TOWNNAME":"安南區","LI":"溪東里","LIN":"9鄰","STREET":"府安路","SECT":"五段","MAREA":" ","LANE":" ","ALLEY":" ","HOUSE_NO":"１７號","E_COORD97":168446.22,"N_COORD97":2547222.54,"ADDRESS":"府安路五段１７號","OBJECTID":560469},"geometry":{"x":168446.22000000067,"y":2547222.5399999991}},{"attributes":{"ID":560497,"DIS_CODE":0,"TOWNNAME":"安南區","LI":"溪東里","LIN":"9鄰","STREET":"府安路","SECT":"五段","MAREA":" ","LANE":" ","ALLEY":" ","HOUSE_NO":"１８號","E_COORD97":168438.70000000001,"N_COORD97":2547229.0899999999,"ADDRESS":"府安路五段１８號","OBJECTID":560470},"geometry":{"x":168438.70000000019,"y":2547229.0899999999}},{"attributes":{"ID":560498,"DIS_CODE":0,"TOWNNAME":"安南區","LI":"溪東里","LIN":"9鄰","STREET":"府安路","SECT":"五段","MAREA":" ","LANE":" ","ALLEY":" ","HOUSE_NO":"７號","E_COORD97":168494.85999999999,"N_COORD97":2547230.0699999998,"ADDRESS":"府安路五段７號","OBJECTID":560471},"geometry":{"x":168494.86000000127,"y":2547230.0700000003}},{"attributes":{"ID":560499,"DIS_CODE":0,"TOWNNAME":"安南區","LI":"溪東里","LIN":"9鄰","STREET":"府安路","SECT":"五段","MAREA":" ","LANE":" ","ALLEY":" ","HOUSE_NO":"８號","E_COORD97":168491.01000000001,"N_COORD97":2547225.4500000002,"ADDRESS":"府安路五段８號","OBJECTID":560472},"geometry":{"x":168491.01000000164,"y":2547225.4500000011}},{"attributes":{"ID":560500,"DIS_CODE":0,"TOWNNAME":"永康區","LI":"南灣里","LIN":"9鄰","STREET":"大灣路","SECT":" ","MAREA":" ","LANE":" ","ALLEY":" ","HOUSE_NO":"６０７號","E_COORD97":174232.44,"N_COORD97":2544523.1400000001,"ADDRESS":"大灣路６０７號","OBJECTID":560473},"geometry":{"x":174232.44000000134,"y":2544523.1400000025}},{"attributes":{"ID":560501,"DIS_CODE":0,"TOWNNAME":"永康區","LI":"蔦松里","LIN":"9鄰","STREET":"中正北路","SECT":" ","MAREA":" ","LANE":" ","ALLEY":" ","HOUSE_NO":"６９８號","E_COORD97":174583.20999999999,"N_COORD97":2549731.9700000002,"ADDRESS":"中正北路６９８號","OBJECTID":560474},"geometry":{"x":174583.20999999996,"y":2549731.9700000025}},{"attributes":{"ID":560502,"DIS_CODE":0,"TOWNNAME":"永康區","LI":"蔦松里","LIN":"9鄰","STREET":"中正北路","SECT":" ","MAREA":" ","LANE":" ","ALLEY":" ","HOUSE_NO":"７００號","E_COORD97":174591.32000000001,"N_COORD97":2549738.1299999999,"ADDRESS":"中正北路７００號","OBJECTID":560475},"geometry":{"x":174591.3200000003,"y":2549738.129999999}},{"attributes":{"ID":560503,"DIS_CODE":0,"TOWNNAME":"永康區","LI":"蔦松里","LIN":"9鄰","STREET":"中正北路","SECT":" ","MAREA":" ","LANE":" ","ALLEY":" ","HOUSE_NO":"７０６號","E_COORD97":174606.09,"N_COORD97":2549750.7999999998,"ADDRESS":"中正北路７０６號","OBJECTID":560476},"geometry":{"x":174606.08999999985,"y":2549750.8000000026}},{"attributes":{"ID":560504,"DIS_CODE":0,"TOWNNAME":"永康區","LI":"蔦松里","LIN":"9鄰","STREET":"中正北路","SECT":" ","MAREA":" ","LANE":" ","ALLEY":" ","HOUSE_NO":"７０８號","E_COORD97":174613.41,"N_COORD97":2549756.7799999998,"ADDRESS":"中正北路７０８號","OBJECTID":560477},"geometry":{"x":174613.41000000201,"y":2549756.7799999993}},{"attributes":{"ID":560505,"DIS_CODE":0,"TOWNNAME":"永康區","LI":"蔦松里","LIN":"9鄰","STREET":"中正北路","SECT":" ","MAREA":" ","LANE":" ","ALLEY":" ","HOUSE_NO":"７１０號","E_COORD97":174620.66,"N_COORD97":2549762.9399999999,"ADDRESS":"中正北路７１０號","OBJECTID":560478},"geometry":{"x":174620.66000000108,"y":2549762.9399999995}},{"attributes":{"ID":560506,"DIS_CODE":0,"TOWNNAME":"永康區","LI":"蔦松里","LIN":"9鄰","STREET":"中正北路","SECT":" ","MAREA":" ","LANE":" ","ALLEY":" ","HOUSE_NO":"７１２號","E_COORD97":174628.38,"N_COORD97":2549769.0499999998,"ADDRESS":"中正北路７１２號","OBJECTID":560479},"geometry":{"x":174628.37999999989,"y":2549769.0500000026}},{"attributes":{"ID":560507,"DIS_CODE":0,"TOWNNAME":"永康區","LI":"蔦松里","LIN":"9鄰","STREET":"中正北路","SECT":" ","MAREA":" ","LANE":" ","ALLEY":" ","HOUSE_NO":"７１６號","E_COORD97":174635.29999999999,"N_COORD97":2549775.8999999999,"ADDRESS":"中正北路７１６號","OBJECTID":560480},"geometry":{"x":174635.29999999981,"y":2549775.9000000022}},{"attributes":{"ID":560508,"DIS_CODE":0,"TOWNNAME":"永康區","LI":"蔦松里","LIN":"9鄰","STREET":"中正北路","SECT":" ","MAREA":" ","LANE":" ","ALLEY":" ","HOUSE_NO":"７１８號","E_COORD97":174642.51000000001,"N_COORD97":2549782.27,"ADDRESS":"中正北路７１８號","OBJECTID":560481},"geometry":{"x":174642.50999999978,"y":2549782.2700000033}},{"attributes":{"ID":560509,"DIS_CODE":0,"TOWNNAME":"永康區","LI":"蔦松里","LIN":"9鄰","STREET":"中正北路","SECT":" ","MAREA":" ","LANE":" ","ALLEY":" ","HOUSE_NO":"７２０號","E_COORD97":174650.35999999999,"N_COORD97":2549787.8100000001,"ADDRESS":"中正北路７２０號","OBJECTID":560482},"geometry":{"x":174650.36000000127,"y":2549787.8100000024}},{"attributes":{"ID":560510,"DIS_CODE":0,"TOWNNAME":"永康區","LI":"蔦松里","LIN":"9鄰","STREET":"中正北路","SECT":" ","MAREA":" ","LANE":" ","ALLEY":" ","HOUSE_NO":"７２２號","E_COORD97":174657.92999999999,"N_COORD97":2549794.1499999999,"ADDRESS":"中正北路７２２號","OBJECTID":560483},"geometry":{"x":174657.9299999997,"y":2549794.1500000041}},{"attributes":{"ID":560511,"DIS_CODE":0,"TOWNNAME":"永康區","LI":"蔦松里","LIN":"9鄰","STREET":"中正北路","SECT":" ","MAREA":" ","LANE":" ","ALLEY":" ","HOUSE_NO":"７２６號","E_COORD97":174664.64000000001,"N_COORD97":2549800.77,"ADDRESS":"中正北路７２６號","OBJECTID":560484},"geometry":{"x":174664.6400000006,"y":2549800.7700000014}},{"attributes":{"ID":560512,"DIS_CODE":0,"TOWNNAME":"永康區","LI":"蔦松里","LIN":"9鄰","STREET":"中正北路","SECT":" ","MAREA":" ","LANE":" ","ALLEY":" ","HOUSE_NO":"７２８號","E_COORD97":174672.73000000001,"N_COORD97":2549806.3799999999,"ADDRESS":"中正北路７２８號","OBJECTID":560485},"geometry":{"x":174672.73000000138,"y":2549806.379999999}},{"attributes":{"ID":560513,"DIS_CODE":0,"TOWNNAME":"永康區","LI":"蔦松里","LIN":"9鄰","STREET":"中正北路","SECT":" ","MAREA":" ","LANE":" ","ALLEY":" ","HOUSE_NO":"７３０號","E_COORD97":174679.39999999999,"N_COORD97":2549812.3900000001,"ADDRESS":"中正北路７３０號","OBJECTID":560486},"geometry":{"x":174679.40000000037,"y":2549812.3900000006}},{"attributes":{"ID":560514,"DIS_CODE":0,"TOWNNAME":"永康區","LI":"蔦松里","LIN":"9鄰","STREET":"中正北路","SECT":" ","MAREA":" ","LANE":" ","ALLEY":" ","HOUSE_NO":"７３２號","E_COORD97":174686.85999999999,"N_COORD97":2549818.5,"ADDRESS":"中正北路７３２號","OBJECTID":560487},"geometry":{"x":174686.8600000022,"y":2549818.5000000037}},{"attributes":{"ID":560515,"DIS_CODE":0,"TOWNNAME":"永康區","LI":"蔦松里","LIN":"9鄰","STREET":"中正北路","SECT":" ","MAREA":" ","LANE":" ","ALLEY":" ","HOUSE_NO":"７３６號","E_COORD97":174694.20000000001,"N_COORD97":2549824.3999999999,"ADDRESS":"中正北路７３６號","OBJECTID":560488},"geometry":{"x":174694.20000000019,"y":2549824.4000000022}},{"attributes":{"ID":560516,"DIS_CODE":0,"TOWNNAME":"永康區","LI":"蔦松里","LIN":"9鄰","STREET":"中正北路","SECT":" ","MAREA":" ","LANE":" ","ALLEY":" ","HOUSE_NO":"７３８號","E_COORD97":174700.19,"N_COORD97":2549832.52,"ADDRESS":"中正北路７３８號","OBJECTID":560489},"geometry":{"x":174700.19000000134,"y":2549832.5200000014}},{"attributes":{"ID":560517,"DIS_CODE":0,"TOWNNAME":"永康區","LI":"蔦松里","LIN":"9鄰","STREET":"正北五路","SECT":" ","MAREA":" ","LANE":" ","ALLEY":" ","HOUSE_NO":"１０５號","E_COORD97":174561.70000000001,"N_COORD97":2550124.8999999999,"ADDRESS":"正北五路１０５號","OBJECTID":560490},"geometry":{"x":174561.70000000019,"y":2550124.9000000022}},{"attributes":{"ID":560518,"DIS_CODE":0,"TOWNNAME":"永康區","LI":"蔦松里","LIN":"9鄰","STREET":"正北五路","SECT":" ","MAREA":" ","LANE":" ","ALLEY":" ","HOUSE_NO":"１０７號","E_COORD97":174556.07999999999,"N_COORD97":2550131.79,"ADDRESS":"正北五路１０７號","OBJECTID":560491},"geometry":{"x":174556.08000000007,"y":2550131.790000001}},{"attributes":{"ID":560519,"DIS_CODE":0,"TOWNNAME":"東區","LI":"崇善里","LIN":"9鄰","STREET":"仁和路","SECT":" ","MAREA":" ","LANE":" ","ALLEY":" ","HOUSE_NO":"６８號","E_COORD97":171093.54000000001,"N_COORD97":2541819.6600000001,"ADDRESS":"仁和路６８號","OBJECTID":560492},"geometry":{"x":171093.54000000097,"y":2541819.6600000039}},{"attributes":{"ID":560520,"DIS_CODE":0,"TOWNNAME":"東區","LI":"崇善里","LIN":"9鄰","STREET":"仁和路","SECT":" ","MAREA":" ","LANE":" ","ALLEY":" ","HOUSE_NO":"６８之２號","E_COORD97":171097.47,"N_COORD97":2541810.4900000002,"ADDRESS":"仁和路６８之２號","OBJECTID":560493},"geometry":{"x":171097.47000000067,"y":2541810.4899999984}},{"attributes":{"ID":560521,"DIS_CODE":0,"TOWNNAME":"東區","LI":"崇善里","LIN":"9鄰","STREET":"仁和路","SECT":" ","MAREA":" ","LANE":" ","ALLEY":" ","HOUSE_NO":"６８之３號","E_COORD97":171099.60000000001,"N_COORD97":2541806.23,"ADDRESS":"仁和路６８之３號","OBJECTID":560494},"geometry":{"x":171099.60000000056,"y":2541806.2300000023}},{"attributes":{"ID":560522,"DIS_CODE":0,"TOWNNAME":"東區","LI":"大學里","LIN":"9鄰","STREET":"東寧路","SECT":" ","MAREA":" ","LANE":" ","ALLEY":" ","HOUSE_NO":"２９號之１","E_COORD97":170122.29999999999,"N_COORD97":2543657.9700000002,"ADDRESS":"東寧路２９號之１","OBJECTID":560495},"geometry":{"x":170122.30000000075,"y":2543657.9700000007}},{"attributes":{"ID":560523,"DIS_CODE":0,"TOWNNAME":"東區","LI":"德高里","LIN":"9鄰","STREET":"崇善東路","SECT":" ","MAREA":" ","LANE":" ","ALLEY":" ","HOUSE_NO":"７２號","E_COORD97":171423.39999999999,"N_COORD97":2540945.6099999999,"ADDRESS":"崇善東路７２號","OBJECTID":560496},"geometry":{"x":171423.40000000224,"y":2540945.6100000013}},{"attributes":{"ID":560524,"DIS_CODE":0,"TOWNNAME":"東區","LI":"德高里","LIN":"9鄰","STREET":"崇善東路","SECT":" ","MAREA":" ","LANE":" ","ALLEY":" ","HOUSE_NO":"７６號","E_COORD97":171415.60000000001,"N_COORD97":2540966.3799999999,"ADDRESS":"崇善東路７６號","OBJECTID":560497},"geometry":{"x":171415.59999999963,"y":2540966.3800000008}},{"attributes":{"ID":560525,"DIS_CODE":0,"TOWNNAME":"東區","LI":"德高里","LIN":"9鄰","STREET":"崇善東路","SECT":" ","MAREA":" ","LANE":" ","ALLEY":" ","HOUSE_NO":"８６號","E_COORD97":171399.20000000001,"N_COORD97":2541008.5800000001,"ADDRESS":"崇善東路８６號","OBJECTID":560498},"geometry":{"x":171399.20000000205,"y":2541008.5800000001}},{"attributes":{"ID":560526,"DIS_CODE":0,"TOWNNAME":"東區","LI":"德高里","LIN":"9鄰","STREET":"崇善東路","SECT":" ","MAREA":" ","LANE":" ","ALLEY":" ","HOUSE_NO":"８８號","E_COORD97":171402.42999999999,"N_COORD97":2541013.8700000001,"ADDRESS":"崇善東路８８號","OBJECTID":560499},"geometry":{"x":171402.43000000063,"y":2541013.8700000029}},{"attributes":{"ID":560527,"DIS_CODE":0,"TOWNNAME":"東區","LI":"德高里","LIN":"9鄰","STREET":"崇善東路","SECT":" ","MAREA":" ","LANE":" ","ALLEY":" ","HOUSE_NO":"９２號","E_COORD97":171406.17999999999,"N_COORD97":2541021.1000000001,"ADDRESS":"崇善東路９２號","OBJECTID":560500},"geometry":{"x":171406.18000000063,"y":2541021.0999999996}},{"attributes":{"ID":560528,"DIS_CODE":0,"TOWNNAME":"東區","LI":"德高里","LIN":"9鄰","STREET":"崇善東路","SECT":" ","MAREA":" ","LANE":" ","ALLEY":" ","HOUSE_NO":"９８號","E_COORD97":171414.95999999999,"N_COORD97":2541030.9100000001,"ADDRESS":"崇善東路９８號","OBJECTID":560501},"geometry":{"x":171414.95999999996,"y":2541030.9100000001}},{"attributes":{"ID":560529,"DIS_CODE":0,"TOWNNAME":"東區","LI":"德高里","LIN":"9鄰","STREET":"崇善東路","SECT":" ","MAREA":" ","LANE":" ","ALLEY":" ","HOUSE_NO":"６０號","E_COORD97":171365.67000000001,"N_COORD97":2540959.6099999999,"ADDRESS":"崇善東路６０號","OBJECTID":560502},"geometry":{"x":171365.67000000086,"y":2540959.6100000013}},{"attributes":{"ID":560530,"DIS_CODE":0,"TOWNNAME":"東區","LI":"德高里","LIN":"9鄰","STREET":"崇善東路","SECT":" ","MAREA":" ","LANE":" ","ALLEY":" ","HOUSE_NO":"６２號","E_COORD97":171368.06,"N_COORD97":2540963.8199999998,"ADDRESS":"崇善東路６２號","OBJECTID":560503},"geometry":{"x":171368.05999999959,"y":2540963.8200000003}},{"attributes":{"ID":560531,"DIS_CODE":0,"TOWNNAME":"東區","LI":"德高里","LIN":"9鄰","STREET":"崇善東路","SECT":" ","MAREA":" ","LANE":" ","ALLEY":" ","HOUSE_NO":"６４號","E_COORD97":171370.17000000001,"N_COORD97":2540967.4700000002,"ADDRESS":"崇善東路６４號","OBJECTID":560504},"geometry":{"x":171370.17000000179,"y":2540967.4700000025}},{"attributes":{"ID":560532,"DIS_CODE":0,"TOWNNAME":"東區","LI":"德高里","LIN":"9鄰","STREET":"崇善東路","SECT":" ","MAREA":" ","LANE":" ","ALLEY":" ","HOUSE_NO":"７４號","E_COORD97":171416.39000000001,"N_COORD97":2540955.29,"ADDRESS":"崇善東路７４號","OBJECTID":560505},"geometry":{"x":171416.3900000006,"y":2540955.2899999991}},{"attributes":{"ID":560533,"DIS_CODE":0,"TOWNNAME":"東區","LI":"德高里","LIN":"9鄰","STREET":"崇善東路","SECT":" ","MAREA":" ","LANE":" ","ALLEY":" ","HOUSE_NO":"９６號","E_COORD97":171411.98999999999,"N_COORD97":2541027.9399999999,"ADDRESS":"崇善東路９６號","OBJECTID":560506},"geometry":{"x":171411.99000000022,"y":2541027.9400000013}},{"attributes":{"ID":560534,"DIS_CODE":0,"TOWNNAME":"東區","LI":"大學里","LIN":"9鄰","STREET":"東寧路","SECT":" ","MAREA":" ","LANE":" ","ALLEY":" ","HOUSE_NO":"３３號","E_COORD97":170117.38,"N_COORD97":2543638.0600000001,"ADDRESS":"東寧路３３號","OBJECTID":560507},"geometry":{"x":170117.37999999989,"y":2543638.0600000042}},{"attributes":{"ID":560535,"DIS_CODE":0,"TOWNNAME":"東區","LI":"大學里","LIN":"9鄰","STREET":"東寧路","SECT":" ","MAREA":" ","LANE":" ","ALLEY":" ","HOUSE_NO":"３９號","E_COORD97":170143.95000000001,"N_COORD97":2543642.9199999999,"ADDRESS":"東寧路３９號","OBJECTID":560508},"geometry":{"x":170143.95000000019,"y":2543642.9200000018}},{"attributes":{"ID":560536,"DIS_CODE":0,"TOWNNAME":"東區","LI":"圍下里","LIN":"9鄰","STREET":"慶東街","SECT":" ","MAREA":" ","LANE":" ","ALLEY":" ","HOUSE_NO":"２０６號","E_COORD97":169688.98999999999,"N_COORD97":2543590.8199999998,"ADDRESS":"慶東街２０６號","OBJECTID":560509},"geometry":{"x":169688.99000000115,"y":2543590.8200000003}},{"attributes":{"ID":560537,"DIS_CODE":0,"TOWNNAME":"東區","LI":"圍下里","LIN":"9鄰","STREET":"慶東街","SECT":" ","MAREA":" ","LANE":" ","ALLEY":" ","HOUSE_NO":"２０８號","E_COORD97":169689.64000000001,"N_COORD97":2543594.0499999998,"ADDRESS":"慶東街２０８號","OBJECTID":560510},"geometry":{"x":169689.63999999966,"y":2543594.0500000045}},{"attributes":{"ID":560538,"DIS_CODE":0,"TOWNNAME":"東區","LI":"圍下里","LIN":"9鄰","STREET":"慶東街","SECT":" ","MAREA":" ","LANE":" ","ALLEY":" ","HOUSE_NO":"２１０號","E_COORD97":169689.95999999999,"N_COORD97":2543598.0899999999,"ADDRESS":"慶東街２１０號","OBJECTID":560511},"geometry":{"x":169689.95999999903,"y":2543598.0899999999}},{"attributes":{"ID":560539,"DIS_CODE":0,"TOWNNAME":"東區","LI":"圍下里","LIN":"9鄰","STREET":"慶東街","SECT":" ","MAREA":" ","LANE":" ","ALLEY":" ","HOUSE_NO":"２１２號","E_COORD97":169690.45000000001,"N_COORD97":2543602.2999999998,"ADDRESS":"慶東街２１２號","OBJECTID":560512},"geometry":{"x":169690.45000000205,"y":2543602.3000000007}},{"attributes":{"ID":560540,"DIS_CODE":0,"TOWNNAME":"東區","LI":"圍下里","LIN":"9鄰","STREET":"慶東街","SECT":" ","MAREA":" ","LANE":" ","ALLEY":" ","HOUSE_NO":"２１４號","E_COORD97":169690.92999999999,"N_COORD97":2543606.5,"ADDRESS":"慶東街２１４號","OBJECTID":560513},"geometry":{"x":169690.9299999997,"y":2543606.5}},{"attributes":{"ID":560541,"DIS_CODE":0,"TOWNNAME":"東區","LI":"崇德里","LIN":"9鄰","STREET":"崇善路","SECT":" ","MAREA":" ","LANE":" ","ALLEY":" ","HOUSE_NO":"４１８號","E_COORD97":170952.64999999999,"N_COORD97":2541626.1299999999,"ADDRESS":"崇善路４１８號","OBJECTID":560514},"geometry":{"x":170952.6500000013,"y":2541626.1300000008}},{"attributes":{"ID":560542,"DIS_CODE":0,"TOWNNAME":"東區","LI":"崇德里","LIN":"9鄰","STREET":"崇善路","SECT":" ","MAREA":" ","LANE":" ","ALLEY":" ","HOUSE_NO":"４２０號","E_COORD97":170953.89000000001,"N_COORD97":2541621.8599999999,"ADDRESS":"崇善路４２０號","OBJECTID":560515},"geometry":{"x":170953.8900000006,"y":2541621.8600000013}},{"attributes":{"ID":560543,"DIS_CODE":0,"TOWNNAME":"東區","LI":"崇德里","LIN":"9鄰","STREET":"崇善路","SECT":" ","MAREA":" ","LANE":" ","ALLEY":" ","HOUSE_NO":"４２２號","E_COORD97":170955.97,"N_COORD97":2541618.0600000001,"ADDRESS":"崇善路４２２號","OBJECTID":560516},"geometry":{"x":170955.96999999881,"y":2541618.0600000024}},{"attributes":{"ID":560544,"DIS_CODE":0,"TOWNNAME":"東區","LI":"崇德里","LIN":"9鄰","STREET":"崇善路","SECT":" ","MAREA":" ","LANE":" ","ALLEY":" ","HOUSE_NO":"４２４號","E_COORD97":170957.20999999999,"N_COORD97":2541614.27,"ADDRESS":"崇善路４２４號","OBJECTID":560517},"geometry":{"x":170957.20999999996,"y":2541614.2699999996}},{"attributes":{"ID":560545,"DIS_CODE":0,"TOWNNAME":"東區","LI":"崇德里","LIN":"9鄰","STREET":"崇善路","SECT":" ","MAREA":" ","LANE":" ","ALLEY":" ","HOUSE_NO":"４２６號","E_COORD97":170957.62,"N_COORD97":2541609.8900000001,"ADDRESS":"崇善路４２６號","OBJECTID":560518},"geometry":{"x":170957.62000000104,"y":2541609.8900000025}},{"attributes":{"ID":560546,"DIS_CODE":0,"TOWNNAME":"東區","LI":"崇德里","LIN":"9鄰","STREET":"崇善路","SECT":" ","MAREA":" ","LANE":" ","ALLEY":" ","HOUSE_NO":"４２８號","E_COORD97":170958.53,"N_COORD97":2541605.6600000001,"ADDRESS":"崇善路４２８號","OBJECTID":560519},"geometry":{"x":170958.53000000119,"y":2541605.6600000001}},{"attributes":{"ID":560547,"DIS_CODE":0,"TOWNNAME":"東區","LI":"崇德里","LIN":"9鄰","STREET":"崇善路","SECT":" ","MAREA":" ","LANE":" ","ALLEY":" ","HOUSE_NO":"４３０號","E_COORD97":170960.56,"N_COORD97":2541601.6299999999,"ADDRESS":"崇善路４３０號","OBJECTID":560520},"geometry":{"x":170960.56000000052,"y":2541601.6300000027}},{"attributes":{"ID":560548,"DIS_CODE":0,"TOWNNAME":"東區","LI":"崇德里","LIN":"9鄰","STREET":"崇善路","SECT":" ","MAREA":" ","LANE":" ","ALLEY":" ","HOUSE_NO":"４３２號","E_COORD97":170961.41,"N_COORD97":2541596.9700000002,"ADDRESS":"崇善路４３２號","OBJECTID":560521},"geometry":{"x":170961.41000000015,"y":2541596.9700000007}},{"attributes":{"ID":560549,"DIS_CODE":0,"TOWNNAME":"東區","LI":"崇德里","LIN":"9鄰","STREET":"崇善路","SECT":" ","MAREA":" ","LANE":" ","ALLEY":" ","HOUSE_NO":"４３４號","E_COORD97":170962.42000000001,"N_COORD97":2541593.25,"ADDRESS":"崇善路４３４號","OBJECTID":560522},"geometry":{"x":170962.42000000086,"y":2541593.2500000019}},{"attributes":{"ID":560550,"DIS_CODE":0,"TOWNNAME":"東區","LI":"崇德里","LIN":"9鄰","STREET":"崇善路","SECT":" ","MAREA":" ","LANE":" ","ALLEY":" ","HOUSE_NO":"４３６號","E_COORD97":170963.53,"N_COORD97":2541589.1800000002,"ADDRESS":"崇善路４３６號","OBJECTID":560523},"geometry":{"x":170963.53000000119,"y":2541589.1800000016}},{"attributes":{"ID":560551,"DIS_CODE":0,"TOWNNAME":"東區","LI":"崇德里","LIN":"9鄰","STREET":"崇善路","SECT":" ","MAREA":" ","LANE":" ","ALLEY":" ","HOUSE_NO":"４３８號","E_COORD97":170964.54000000001,"N_COORD97":2541584.6899999999,"ADDRESS":"崇善路４３８號","OBJECTID":560524},"geometry":{"x":170964.54000000097,"y":2541584.6900000032}},{"attributes":{"ID":560552,"DIS_CODE":0,"TOWNNAME":"東區","LI":"崇德里","LIN":"9鄰","STREET":"崇善路","SECT":" ","MAREA":" ","LANE":" ","ALLEY":" ","HOUSE_NO":"４３８號之１","E_COORD97":170965.22,"N_COORD97":2541580.71,"ADDRESS":"崇善路４３８號之１","OBJECTID":560525},"geometry":{"x":170965.22000000067,"y":2541580.7100000028}},{"attributes":{"ID":560553,"DIS_CODE":0,"TOWNNAME":"永康區","LI":"\u25A0行里","LIN":"1鄰","STREET":"中正路","SECT":" ","MAREA":" ","LANE":" ","ALLEY":" ","HOUSE_NO":"９７６號","E_COORD97":171927.34,"N_COORD97":2548975.0699999998,"ADDRESS":"中正路９７６號","OBJECTID":560526},"geometry":{"x":171927.34000000078,"y":2548975.0700000022}},{"attributes":{"ID":560554,"DIS_CODE":0,"TOWNNAME":"中西區","LI":"福安里","LIN":"9鄰","STREET":"友愛街","SECT":" ","MAREA":" ","LANE":" ","ALLEY":" ","HOUSE_NO":"９１號","E_COORD97":168018.48999999999,"N_COORD97":2543537.1299999999,"ADDRESS":"友愛街９１號","OBJECTID":560527},"geometry":{"x":168018.49000000022,"y":2543537.129999999}},{"attributes":{"ID":560555,"DIS_CODE":0,"TOWNNAME":"安南區","LI":"城北里","LIN":"9鄰","STREET":"尊安街","SECT":" ","MAREA":" ","LANE":" ","ALLEY":" ","HOUSE_NO":"１７號","E_COORD97":160833.12,"N_COORD97":2551567.4900000002,"ADDRESS":"尊安街１７號","OBJECTID":560528},"geometry":{"x":160833.12000000011,"y":2551567.4900000002}},{"attributes":{"ID":560556,"DIS_CODE":0,"TOWNNAME":"安南區","LI":"佃西里","LIN":"9鄰","STREET":"公學路","SECT":"四段","MAREA":" ","LANE":" ","ALLEY":" ","HOUSE_NO":"３７５號","E_COORD97":165089.79000000001,"N_COORD97":2551685.21,"ADDRESS":"公學路四段３７５號","OBJECTID":560529},"geometry":{"x":165089.79000000004,"y":2551685.2100000009}},{"attributes":{"ID":560557,"DIS_CODE":0,"TOWNNAME":"安南區","LI":"佃西里","LIN":"9鄰","STREET":"公學路","SECT":"四段","MAREA":" ","LANE":" ","ALLEY":" ","HOUSE_NO":"３７７號","E_COORD97":165084.79999999999,"N_COORD97":2551687.1099999999,"ADDRESS":"公學路四段３７７號","OBJECTID":560530},"geometry":{"x":165084.79999999981,"y":2551687.1099999994}},{"attributes":{"ID":560558,"DIS_CODE":0,"TOWNNAME":"安南區","LI":"佃西里","LIN":"9鄰","STREET":"公學路","SECT":"四段","MAREA":" ","LANE":" ","ALLEY":" ","HOUSE_NO":"３７９號","E_COORD97":165080.94,"N_COORD97":2551688.7999999998,"ADDRESS":"公學路四段３７９號","OBJECTID":560531},"geometry":{"x":165080.94000000041,"y":2551688.8000000045}},{"attributes":{"ID":560559,"DIS_CODE":0,"TOWNNAME":"安南區","LI":"佃西里","LIN":"9鄰","STREET":"公學路","SECT":"四段","MAREA":" ","LANE":" ","ALLEY":" ","HOUSE_NO":"３８１號","E_COORD97":165075.62,"N_COORD97":2551688.3100000001,"ADDRESS":"公學路四段３８１號","OBJECTID":560532},"geometry":{"x":165075.62000000104,"y":2551688.3100000042}},{"attributes":{"ID":560560,"DIS_CODE":0,"TOWNNAME":"安南區","LI":"佃西里","LIN":"9鄰","STREET":"公學路","SECT":"四段","MAREA":" ","LANE":" ","ALLEY":" ","HOUSE_NO":"３８３號","E_COORD97":165071.75,"N_COORD97":2551690.4900000002,"ADDRESS":"公學路四段３８３號","OBJECTID":560533},"geometry":{"x":165071.75,"y":2551690.4900000021}},{"attributes":{"ID":560561,"DIS_CODE":0,"TOWNNAME":"安南區","LI":"佃西里","LIN":"9鄰","STREET":"公學路","SECT":"四段","MAREA":" ","LANE":" ","ALLEY":" ","HOUSE_NO":"３８５號","E_COORD97":165067.88,"N_COORD97":2551693.3900000001,"ADDRESS":"公學路四段３８５號","OBJECTID":560534},"geometry":{"x":165067.88000000082,"y":2551693.3900000006}},{"attributes":{"ID":560562,"DIS_CODE":0,"TOWNNAME":"中西區","LI":"永福里","LIN":"9鄰","STREET":"永福路","SECT":"二段","MAREA":" ","LANE":" ","ALLEY":" ","HOUSE_NO":"７８號","E_COORD97":168087.14999999999,"N_COORD97":2543682.3500000001,"ADDRESS":"永福路二段７８號","OBJECTID":560535},"geometry":{"x":168087.14999999944,"y":2543682.3500000034}},{"attributes":{"ID":560563,"DIS_CODE":0,"TOWNNAME":"中西區","LI":"永福里","LIN":"9鄰","STREET":"永福路","SECT":"二段","MAREA":" ","LANE":" ","ALLEY":" ","HOUSE_NO":"８４號","E_COORD97":168107.39000000001,"N_COORD97":2543679.5800000001,"ADDRESS":"永福路二段８４號","OBJECTID":560536},"geometry":{"x":168107.3900000006,"y":2543679.5800000019}},{"attributes":{"ID":560564,"DIS_CODE":0,"TOWNNAME":"中西區","LI":"永福里","LIN":"9鄰","STREET":"永福路","SECT":"二段","MAREA":" ","LANE":" ","ALLEY":" ","HOUSE_NO":"８４號之１５","E_COORD97":168179.92999999999,"N_COORD97":2543662.23,"ADDRESS":"永福路二段８４號之１５","OBJECTID":560537},"geometry":{"x":168179.93000000063,"y":2543662.2300000004}},{"attributes":{"ID":560565,"DIS_CODE":0,"TOWNNAME":"中西區","LI":"永福里","LIN":"9鄰","STREET":"永福路","SECT":"二段","MAREA":" ","LANE":" ","ALLEY":" ","HOUSE_NO":"８６號","E_COORD97":168112.12,"N_COORD97":2543702.7999999998,"ADDRESS":"永福路二段８６號","OBJECTID":560538},"geometry":{"x":168112.12000000011,"y":2543702.8000000007}},{"attributes":{"ID":560566,"DIS_CODE":0,"TOWNNAME":"中西區","LI":"永福里","LIN":"9鄰","STREET":"永福路","SECT":"二段","MAREA":" ","LANE":" ","ALLEY":" ","HOUSE_NO":"９６號","E_COORD97":168098.82000000001,"N_COORD97":2543734.7999999998,"ADDRESS":"永福路二段９６號","OBJECTID":560539},"geometry":{"x":168098.8200000003,"y":2543734.8000000045}},{"attributes":{"ID":560567,"DIS_CODE":0,"TOWNNAME":"中西區","LI":"永福里","LIN":"9鄰","STREET":"永福路","SECT":"二段","MAREA":" ","LANE":" ","ALLEY":" ","HOUSE_NO":"９８號","E_COORD97":168100.20999999999,"N_COORD97":2543738.8100000001,"ADDRESS":"永福路二段９８號","OBJECTID":560540},"geometry":{"x":168100.21000000089,"y":2543738.8100000024}},{"attributes":{"ID":560568,"DIS_CODE":0,"TOWNNAME":"中西區","LI":"福安里","LIN":"9鄰","STREET":"友愛街","SECT":" ","MAREA":" ","LANE":" ","ALLEY":" ","HOUSE_NO":"９７號","E_COORD97":167997.88,"N_COORD97":2543540.0600000001,"ADDRESS":"友愛街９７號","OBJECTID":560541},"geometry":{"x":167997.87999999989,"y":2543540.0600000024}},{"attributes":{"ID":560569,"DIS_CODE":0,"TOWNNAME":"中西區","LI":"福安里","LIN":"9鄰","STREET":"友愛街","SECT":" ","MAREA":" ","LANE":" ","ALLEY":" ","HOUSE_NO":"９９號","E_COORD97":167992.03,"N_COORD97":2543544.5699999998,"ADDRESS":"友愛街９９號","OBJECTID":560542},"geometry":{"x":167992.03000000119,"y":2543544.5700000003}},{"attributes":{"ID":560570,"DIS_CODE":0,"TOWNNAME":"中西區","LI":"福安里","LIN":"9鄰","STREET":"友愛街","SECT":" ","MAREA":" ","LANE":" ","ALLEY":" ","HOUSE_NO":"１０１號","E_COORD97":167988.04999999999,"N_COORD97":2543545.3700000001,"ADDRESS":"友愛街１０１號","OBJECTID":560543},"geometry":{"x":167988.05000000075,"y":2543545.3700000029}},{"attributes":{"ID":560571,"DIS_CODE":0,"TOWNNAME":"中西區","LI":"福安里","LIN":"9鄰","STREET":"友愛街","SECT":" ","MAREA":" ","LANE":" ","ALLEY":" ","HOUSE_NO":"１０３號","E_COORD97":167983.66,"N_COORD97":2543546.0299999998,"ADDRESS":"友愛街１０３號","OBJECTID":560544},"geometry":{"x":167983.66000000201,"y":2543546.0300000012}},{"attributes":{"ID":560572,"DIS_CODE":0,"TOWNNAME":"中西區","LI":"福安里","LIN":"9鄰","STREET":"友愛街","SECT":" ","MAREA":" ","LANE":" ","ALLEY":" ","HOUSE_NO":"１０５號","E_COORD97":167978.34,"N_COORD97":2543546.8300000001,"ADDRESS":"友愛街１０５號","OBJECTID":560545},"geometry":{"x":167978.33999999985,"y":2543546.8300000001}},{"attributes":{"ID":560573,"DIS_CODE":0,"TOWNNAME":"中西區","LI":"福安里","LIN":"9鄰","STREET":"友愛街","SECT":" ","MAREA":" ","LANE":" ","ALLEY":" ","HOUSE_NO":"１０７號","E_COORD97":167971.16,"N_COORD97":2543549.8799999999,"ADDRESS":"友愛街１０７號","OBJECTID":560546},"geometry":{"x":167971.16000000015,"y":2543549.8800000008}},{"attributes":{"ID":560574,"DIS_CODE":0,"TOWNNAME":"中西區","LI":"福安里","LIN":"9鄰","STREET":"友愛街","SECT":" ","MAREA":" ","LANE":" ","ALLEY":" ","HOUSE_NO":"１０９號","E_COORD97":167966.64000000001,"N_COORD97":2543550.5499999998,"ADDRESS":"友愛街１０９號","OBJECTID":560547},"geometry":{"x":167966.6400000006,"y":2543550.5500000026}},{"attributes":{"ID":560575,"DIS_CODE":0,"TOWNNAME":"中西區","LI":"福安里","LIN":"9鄰","STREET":"友愛街","SECT":" ","MAREA":" ","LANE":" ","ALLEY":" ","HOUSE_NO":"１１１號","E_COORD97":167961.45999999999,"N_COORD97":2543551.0800000001,"ADDRESS":"友愛街１１１號","OBJECTID":560548},"geometry":{"x":167961.46000000089,"y":2543551.0800000001}},{"attributes":{"ID":560576,"DIS_CODE":0,"TOWNNAME":"中西區","LI":"福安里","LIN":"9鄰","STREET":"友愛街","SECT":" ","MAREA":" ","LANE":" ","ALLEY":" ","HOUSE_NO":"１１３號","E_COORD97":167956.94,"N_COORD97":2543551.3399999999,"ADDRESS":"友愛街１１３號","OBJECTID":560549},"geometry":{"x":167956.94000000134,"y":2543551.3400000017}},{"attributes":{"ID":560577,"DIS_CODE":0,"TOWNNAME":"中西區","LI":"福安里","LIN":"9鄰","STREET":"友愛街","SECT":" ","MAREA":" ","LANE":" ","ALLEY":" ","HOUSE_NO":"８７號","E_COORD97":168027.42000000001,"N_COORD97":2543536.6499999999,"ADDRESS":"友愛街８７號","OBJECTID":560550},"geometry":{"x":168027.42000000179,"y":2543536.6500000022}},{"attributes":{"ID":560578,"DIS_CODE":0,"TOWNNAME":"中西區","LI":"福安里","LIN":"9鄰","STREET":"友愛街","SECT":" ","MAREA":" ","LANE":" ","ALLEY":" ","HOUSE_NO":"８９號","E_COORD97":168023.41,"N_COORD97":2543537,"ADDRESS":"友愛街８９號","OBJECTID":560551},"geometry":{"x":168023.41000000015,"y":2543537.0000000019}},{"attributes":{"ID":560579,"DIS_CODE":0,"TOWNNAME":"中西區","LI":"福安里","LIN":"9鄰","STREET":"友愛街","SECT":" ","MAREA":" ","LANE":" ","ALLEY":" ","HOUSE_NO":"９３號","E_COORD97":168013.97,"N_COORD97":2543538.46,"ADDRESS":"友愛街９３號","OBJECTID":560552},"geometry":{"x":168013.97000000067,"y":2543538.4600000028}},{"attributes":{"ID":560580,"DIS_CODE":0,"TOWNNAME":"中西區","LI":"福安里","LIN":"9鄰","STREET":"友愛街","SECT":" ","MAREA":" ","LANE":" ","ALLEY":" ","HOUSE_NO":"９５號","E_COORD97":168009.57999999999,"N_COORD97":2543539.52,"ADDRESS":"友愛街９５號","OBJECTID":560553},"geometry":{"x":168009.58000000101,"y":2543539.5200000014}},{"attributes":{"ID":560581,"DIS_CODE":0,"TOWNNAME":"中西區","LI":"福安里","LIN":"9鄰","STREET":"友愛街","SECT":" ","MAREA":" ","LANE":" ","ALLEY":" ","HOUSE_NO":"９５號之１","E_COORD97":168005.98999999999,"N_COORD97":2543540.4500000002,"ADDRESS":"友愛街９５號之１","OBJECTID":560554},"geometry":{"x":168005.99000000022,"y":2543540.4500000011}},{"attributes":{"ID":560582,"DIS_CODE":0,"TOWNNAME":"中西區","LI":"福安里","LIN":"9鄰","STREET":"永福路","SECT":"二段","MAREA":" ","LANE":" ","ALLEY":" ","HOUSE_NO":"３７號","E_COORD97":168027.45000000001,"N_COORD97":2543516.3399999999,"ADDRESS":"永福路二段３７號","OBJECTID":560555},"geometry":{"x":168027.45000000205,"y":2543516.3399999999}},{"attributes":{"ID":560583,"DIS_CODE":0,"TOWNNAME":"白河區","LI":"永安里","LIN":"9鄰","STREET":"中正路","SECT":" ","MAREA":" ","LANE":" ","ALLEY":" ","HOUSE_NO":"５６號","E_COORD97":190137.54000000001,"N_COORD97":2583137.71,"ADDRESS":"中正路５６號","OBJECTID":560556},"geometry":{"x":190137.54000000097,"y":2583137.7100000009}},{"attributes":{"ID":560584,"DIS_CODE":0,"TOWNNAME":"白河區","LI":"永安里","LIN":"9鄰","STREET":"中正路","SECT":" ","MAREA":" ","LANE":" ","ALLEY":" ","HOUSE_NO":"５８號","E_COORD97":190133.45999999999,"N_COORD97":2583137.9199999999,"ADDRESS":"中正路５８號","OBJECTID":560557},"geometry":{"x":190133.45999999996,"y":2583137.9199999999}},{"attributes":{"ID":560585,"DIS_CODE":0,"TOWNNAME":"白河區","LI":"永安里","LIN":"9鄰","STREET":"中正路","SECT":" ","MAREA":" ","LANE":" ","ALLEY":" ","HOUSE_NO":"６０號","E_COORD97":190128.31,"N_COORD97":2583139.2999999998,"ADDRESS":"中正路６０號","OBJECTID":560558},"geometry":{"x":190128.31000000052,"y":2583139.3000000026}},{"attributes":{"ID":560586,"DIS_CODE":0,"TOWNNAME":"白河區","LI":"永安里","LIN":"9鄰","STREET":"中正路","SECT":" ","MAREA":" ","LANE":" ","ALLEY":" ","HOUSE_NO":"７０之２號","E_COORD97":190105.73000000001,"N_COORD97":2583158.2000000002,"ADDRESS":"中正路７０之２號","OBJECTID":560559},"geometry":{"x":190105.73000000138,"y":2583158.2000000011}},{"attributes":{"ID":560587,"DIS_CODE":0,"TOWNNAME":"白河區","LI":"永安里","LIN":"9鄰","STREET":"中正路","SECT":" ","MAREA":" ","LANE":" ","ALLEY":" ","HOUSE_NO":"７０號","E_COORD97":190108.76999999999,"N_COORD97":2583146.1499999999,"ADDRESS":"中正路７０號","OBJECTID":560560},"geometry":{"x":190108.76999999955,"y":2583146.1500000022}},{"attributes":{"ID":560588,"DIS_CODE":0,"TOWNNAME":"安南區","LI":"海東里","LIN":"9鄰","STREET":"海佃路","SECT":"二段","MAREA":" ","LANE":" ","ALLEY":" ","HOUSE_NO":"４９７號","E_COORD97":166681.95000000001,"N_COORD97":2549190.04,"ADDRESS":"海佃路二段４９７號","OBJECTID":560561},"geometry":{"x":166681.95000000112,"y":2549190.0400000028}},{"attributes":{"ID":560589,"DIS_CODE":0,"TOWNNAME":"安南區","LI":"海東里","LIN":"9鄰","STREET":"海佃路","SECT":"二段","MAREA":" ","LANE":" ","ALLEY":" ","HOUSE_NO":"６０６號","E_COORD97":166692.63,"N_COORD97":2549271.7400000002,"ADDRESS":"海佃路二段６０６號","OBJECTID":560562},"geometry":{"x":166692.62999999989,"y":2549271.7400000021}},{"attributes":{"ID":560590,"DIS_CODE":0,"TOWNNAME":"安南區","LI":"海東里","LIN":"9鄰","STREET":"海佃路","SECT":"二段","MAREA":" ","LANE":" ","ALLEY":" ","HOUSE_NO":"５８０號","E_COORD97":166713.85999999999,"N_COORD97":2549208.1400000001,"ADDRESS":"海佃路二段５８０號","OBJECTID":560563},"geometry":{"x":166713.86000000034,"y":2549208.1400000025}},{"attributes":{"ID":560591,"DIS_CODE":0,"TOWNNAME":"永康區","LI":"\u25A0行里","LIN":"36鄰","STREET":"三村一街","SECT":" ","MAREA":" ","LANE":" ","ALLEY":" ","HOUSE_NO":"９２號","E_COORD97":172127.06,"N_COORD97":2549252.7400000002,"ADDRESS":"三村一街９２號","OBJECTID":560564},"geometry":{"x":172127.06000000052,"y":2549252.7400000002}},{"attributes":{"ID":560592,"DIS_CODE":0,"TOWNNAME":"永康區","LI":"\u25A0行里","LIN":"42鄰","STREET":"永安二街","SECT":" ","MAREA":" ","LANE":" ","ALLEY":" ","HOUSE_NO":"１１號","E_COORD97":172467.45000000001,"N_COORD97":2549597.0800000001,"ADDRESS":"永安二街１１號","OBJECTID":560565},"geometry":{"x":172467.45000000112,"y":2549597.0800000001}},{"attributes":{"ID":560593,"DIS_CODE":0,"TOWNNAME":"永康區","LI":"龍潭里","LIN":"1鄰","STREET":"龍國街","SECT":" ","MAREA":" ","LANE":" ","ALLEY":" ","HOUSE_NO":"３４９號","E_COORD97":174759.39999999999,"N_COORD97":2548020.04,"ADDRESS":"龍國街３４９號","OBJECTID":560566},"geometry":{"x":174759.39999999944,"y":2548020.0399999972}},{"attributes":{"ID":560594,"DIS_CODE":0,"TOWNNAME":"安南區","LI":"淵東里","LIN":"9鄰","STREET":"本原街","SECT":"三段","MAREA":" ","LANE":" ","ALLEY":" ","HOUSE_NO":"２５５號","E_COORD97":165363.17999999999,"N_COORD97":2550260.96,"ADDRESS":"本原街三段２５５號","OBJECTID":560567},"geometry":{"x":165363.1799999997,"y":2550260.9600000028}},{"attributes":{"ID":560595,"DIS_CODE":0,"TOWNNAME":"安南區","LI":"淵東里","LIN":"9鄰","STREET":"本原街","SECT":"三段","MAREA":" ","LANE":" ","ALLEY":" ","HOUSE_NO":"２５７號","E_COORD97":165361.54000000001,"N_COORD97":2550256.3700000001,"ADDRESS":"本原街三段２５７號","OBJECTID":560568},"geometry":{"x":165361.54000000004,"y":2550256.370000001}},{"attributes":{"ID":560596,"DIS_CODE":0,"TOWNNAME":"安南區","LI":"淵東里","LIN":"9鄰","STREET":"本原街","SECT":"三段","MAREA":" ","LANE":" ","ALLEY":" ","HOUSE_NO":"２７１號","E_COORD97":165349.47,"N_COORD97":2550237.3799999999,"ADDRESS":"本原街三段２７１號","OBJECTID":560569},"geometry":{"x":165349.46999999974,"y":2550237.379999999}},{"attributes":{"ID":560597,"DIS_CODE":0,"TOWNNAME":"安南區","LI":"淵東里","LIN":"9鄰","STREET":"本原街","SECT":"三段","MAREA":" ","LANE":" ","ALLEY":" ","HOUSE_NO":"２７３號","E_COORD97":165349.23999999999,"N_COORD97":2550233.8399999999,"ADDRESS":"本原街三段２７３號","OBJECTID":560570},"geometry":{"x":165349.24000000115,"y":2550233.8400000017}},{"attributes":{"ID":560598,"DIS_CODE":0,"TOWNNAME":"安南區","LI":"淵東里","LIN":"9鄰","STREET":"本原街","SECT":"三段","MAREA":" ","LANE":" ","ALLEY":" ","HOUSE_NO":"２９９號","E_COORD97":165336.92999999999,"N_COORD97":2550182.7000000002,"ADDRESS":"本原街三段２９９號","OBJECTID":560571},"geometry":{"x":165336.93000000063,"y":2550182.7000000011}},{"attributes":{"ID":560599,"DIS_CODE":0,"TOWNNAME":"東區","LI":"東智里","LIN":"9鄰","STREET":"崇德三十街","SECT":" ","MAREA":" ","LANE":" ","ALLEY":" ","HOUSE_NO":"３號","E_COORD97":170812.53,"N_COORD97":2540201.6200000001,"ADDRESS":"崇德三十街３號","OBJECTID":560572},"geometry":{"x":170812.53000000119,"y":2540201.6200000029}},{"attributes":{"ID":560600,"DIS_CODE":0,"TOWNNAME":"安南區","LI":"淵東里","LIN":"9鄰","STREET":"安中路","SECT":"三段","MAREA":" ","LANE":" ","ALLEY":" ","HOUSE_NO":"４６０號","E_COORD97":165322.5,"N_COORD97":2550122.0899999999,"ADDRESS":"安中路三段４６０號","OBJECTID":560573},"geometry":{"x":165322.5,"y":2550122.0899999999}},{"attributes":{"ID":560601,"DIS_CODE":0,"TOWNNAME":"安南區","LI":"淵東里","LIN":"9鄰","STREET":"安中路","SECT":"三段","MAREA":" ","LANE":" ","ALLEY":" ","HOUSE_NO":"４０６號","E_COORD97":165380.44,"N_COORD97":2550039.23,"ADDRESS":"安中路三段４０６號","OBJECTID":560574},"geometry":{"x":165380.44000000134,"y":2550039.2300000023}},{"attributes":{"ID":560602,"DIS_CODE":0,"TOWNNAME":"永康區","LI":"龍潭里","LIN":"5鄰","STREET":"龍埔街","SECT":" ","MAREA":" ","LANE":" ","ALLEY":" ","HOUSE_NO":"３５號","E_COORD97":174783.89000000001,"N_COORD97":2548195.9399999999,"ADDRESS":"龍埔街３５號","OBJECTID":560575},"geometry":{"x":174783.88999999966,"y":2548195.9400000013}},{"attributes":{"ID":560603,"DIS_CODE":0,"TOWNNAME":"永康區","LI":"蔦松里","LIN":"8鄰","STREET":"蔦松二街","SECT":" ","MAREA":" ","LANE":" ","ALLEY":" ","HOUSE_NO":"１８號之１","E_COORD97":173503.66,"N_COORD97":2548859.54,"ADDRESS":"蔦松二街１８號之１","OBJECTID":560576},"geometry":{"x":173503.66000000108,"y":2548859.5399999991}},{"attributes":{"ID":560604,"DIS_CODE":0,"TOWNNAME":"永康區","LI":"龍潭里","LIN":"30鄰","STREET":"龍國街","SECT":" ","MAREA":" ","LANE":" ","ALLEY":" ","HOUSE_NO":"５６０號","E_COORD97":175190.67999999999,"N_COORD97":2548005.9500000002,"ADDRESS":"龍國街５６０號","OBJECTID":560577},"geometry":{"x":175190.6799999997,"y":2548005.9499999993}},{"attributes":{"ID":560605,"DIS_CODE":0,"TOWNNAME":"永康區","LI":"\u25A0行里","LIN":"41鄰","STREET":"永安一街","SECT":" ","MAREA":" ","LANE":" ","ALLEY":" ","HOUSE_NO":"７２號","E_COORD97":172477.35000000001,"N_COORD97":2549398.0600000001,"ADDRESS":"永安一街７２號","OBJECTID":560578},"geometry":{"x":172477.35000000149,"y":2549398.0600000042}},{"attributes":{"ID":560606,"DIS_CODE":0,"TOWNNAME":"永康區","LI":"龍潭里","LIN":"9鄰","STREET":"龍埔街","SECT":" ","MAREA":" ","LANE":" ","ALLEY":" ","HOUSE_NO":"５４號","E_COORD97":174689.23000000001,"N_COORD97":2548261.9300000002,"ADDRESS":"龍埔街５４號","OBJECTID":560579},"geometry":{"x":174689.23000000045,"y":2548261.9299999997}},{"attributes":{"ID":560607,"DIS_CODE":0,"TOWNNAME":"永康區","LI":"蔦松里","LIN":"9鄰","STREET":"中正北路","SECT":" ","MAREA":" ","LANE":" ","ALLEY":" ","HOUSE_NO":"６００號","E_COORD97":174425.13,"N_COORD97":2549597.1699999999,"ADDRESS":"中正北路６００號","OBJECTID":560580},"geometry":{"x":174425.13000000175,"y":2549597.1700000018}},{"attributes":{"ID":560608,"DIS_CODE":0,"TOWNNAME":"永康區","LI":"\u25A0行里","LIN":"9鄰","STREET":"中正路","SECT":" ","MAREA":" ","LANE":" ","ALLEY":" ","HOUSE_NO":"３８７號","E_COORD97":172421.73999999999,"N_COORD97":2548452.02,"ADDRESS":"中正路３８７號","OBJECTID":560581},"geometry":{"x":172421.74000000115,"y":2548452.0200000014}},{"attributes":{"ID":560609,"DIS_CODE":0,"TOWNNAME":"永康區","LI":"中華里","LIN":"9鄰","STREET":"忠勇街","SECT":" ","MAREA":" ","LANE":" ","ALLEY":" ","HOUSE_NO":"７４號","E_COORD97":171899.51000000001,"N_COORD97":2544524.6499999999,"ADDRESS":"忠勇街７４號","OBJECTID":560582},"geometry":{"x":171899.50999999978,"y":2544524.6500000004}},{"attributes":{"ID":560610,"DIS_CODE":0,"TOWNNAME":"永康區","LI":"二王里","LIN":"9鄰","STREET":"中山南路","SECT":" ","MAREA":" ","LANE":" ","ALLEY":" ","HOUSE_NO":"７３６號","E_COORD97":172663.20999999999,"N_COORD97":2546747.5299999998,"ADDRESS":"中山南路７３６號","OBJECTID":560583},"geometry":{"x":172663.20999999996,"y":2546747.5299999993}},{"attributes":{"ID":560611,"DIS_CODE":0,"TOWNNAME":"永康區","LI":"\u25A0洲里","LIN":"9鄰","STREET":"\u25A0行路","SECT":" ","MAREA":" ","LANE":" ","ALLEY":" ","HOUSE_NO":"５３號","E_COORD97":171631.29999999999,"N_COORD97":2549190.8300000001,"ADDRESS":"\u25A0行路５３號","OBJECTID":560584},"geometry":{"x":171631.29999999981,"y":2549190.8300000001}},{"attributes":{"ID":560612,"DIS_CODE":0,"TOWNNAME":"永康區","LI":"龍潭里","LIN":"42鄰","STREET":"永平街","SECT":" ","MAREA":" ","LANE":" ","ALLEY":" ","HOUSE_NO":"７６１之２０號","E_COORD97":174633.25,"N_COORD97":2547074.2999999998,"ADDRESS":"永平街７６１之２０號","OBJECTID":560585},"geometry":{"x":174633.25000000093,"y":2547074.3000000045}},{"attributes":{"ID":560613,"DIS_CODE":0,"TOWNNAME":"永康區","LI":"\u25A0洲里","LIN":"40鄰","STREET":"正南六街","SECT":" ","MAREA":" ","LANE":" ","ALLEY":" ","HOUSE_NO":"６９號","E_COORD97":170926.70000000001,"N_COORD97":2548563.2400000002,"ADDRESS":"正南六街６９號","OBJECTID":560586},"geometry":{"x":170926.70000000112,"y":2548563.2400000021}},{"attributes":{"ID":560614,"DIS_CODE":0,"TOWNNAME":"永康區","LI":"\u25A0行里","LIN":"40鄰","STREET":"永安一街","SECT":" ","MAREA":" ","LANE":" ","ALLEY":" ","HOUSE_NO":"５號","E_COORD97":172653.89999999999,"N_COORD97":2549386.0600000001,"ADDRESS":"永安一街５號","OBJECTID":560587},"geometry":{"x":172653.90000000037,"y":2549386.0600000024}},{"attributes":{"ID":560615,"DIS_CODE":0,"TOWNNAME":"永康區","LI":"蔦松里","LIN":"8鄰","STREET":"蔦松二街","SECT":" ","MAREA":" ","LANE":" ","ALLEY":" ","HOUSE_NO":"２１號","E_COORD97":173641.81,"N_COORD97":2549182.0699999998,"ADDRESS":"蔦松二街２１號","OBJECTID":560588},"geometry":{"x":173641.80999999959,"y":2549182.0700000022}},{"attributes":{"ID":560616,"DIS_CODE":0,"TOWNNAME":"永康區","LI":"龍潭里","LIN":"1鄰","STREET":"龍國街","SECT":" ","MAREA":" ","LANE":" ","ALLEY":" ","HOUSE_NO":"３２９號","E_COORD97":174712.16,"N_COORD97":2548041.0099999998,"ADDRESS":"龍國街３２９號","OBJECTID":560589},"geometry":{"x":174712.16000000108,"y":2548041.0099999998}},{"attributes":{"ID":560617,"DIS_CODE":0,"TOWNNAME":"永康區","LI":"勝利里","LIN":"9鄰","STREET":"勝利街","SECT":" ","MAREA":" ","LANE":" ","ALLEY":" ","HOUSE_NO":"６７號","E_COORD97":171331.95000000001,"N_COORD97":2544691.2599999998,"ADDRESS":"勝利街６７號","OBJECTID":560590},"geometry":{"x":171331.95000000112,"y":2544691.2600000016}},{"attributes":{"ID":560618,"DIS_CODE":0,"TOWNNAME":"永康區","LI":"烏竹里","LIN":"9鄰","STREET":"龍橋街","SECT":" ","MAREA":" ","LANE":" ","ALLEY":" ","HOUSE_NO":"３９２號","E_COORD97":174475.22,"N_COORD97":2549155.8399999999,"ADDRESS":"龍橋街３９２號","OBJECTID":560591},"geometry":{"x":174475.2200000016,"y":2549155.8400000017}},{"attributes":{"ID":560619,"DIS_CODE":0,"TOWNNAME":"永康區","LI":"\u25A0行里","LIN":"25鄰","STREET":"\u25A0和街","SECT":" ","MAREA":" ","LANE":" ","ALLEY":" ","HOUSE_NO":"２３６號","E_COORD97":171734.09,"N_COORD97":2548226.4900000002,"ADDRESS":"\u25A0和街２３６號","OBJECTID":560592},"geometry":{"x":171734.09000000078,"y":2548226.4900000021}},{"attributes":{"ID":560620,"DIS_CODE":0,"TOWNNAME":"永康區","LI":"\u25A0洲里","LIN":"25鄰","STREET":"洲工街","SECT":" ","MAREA":" ","LANE":" ","ALLEY":" ","HOUSE_NO":"８號","E_COORD97":170659.10999999999,"N_COORD97":2548062.6600000001,"ADDRESS":"洲工街８號","OBJECTID":560593},"geometry":{"x":170659.1100000022,"y":2548062.660000002}},{"attributes":{"ID":560621,"DIS_CODE":0,"TOWNNAME":"永康區","LI":"龍潭里","LIN":"33鄰","STREET":"龍國街","SECT":" ","MAREA":" ","LANE":" ","ALLEY":" ","HOUSE_NO":"２４２號","E_COORD97":174485.92999999999,"N_COORD97":2548028.4700000002,"ADDRESS":"龍國街２４２號","OBJECTID":560594},"geometry":{"x":174485.93000000063,"y":2548028.4700000007}},{"attributes":{"ID":560622,"DIS_CODE":0,"TOWNNAME":"永康區","LI":"\u25A0行里","LIN":"41鄰","STREET":"永安一街","SECT":" ","MAREA":" ","LANE":" ","ALLEY":" ","HOUSE_NO":"１００號","E_COORD97":172430.70999999999,"N_COORD97":2549396.3100000001,"ADDRESS":"永安一街１００號","OBJECTID":560595},"geometry":{"x":172430.70999999996,"y":2549396.3100000042}},{"attributes":{"ID":560623,"DIS_CODE":0,"TOWNNAME":"永康區","LI":"\u25A0行里","LIN":"43鄰","STREET":"正南三路","SECT":" ","MAREA":" ","LANE":" ","ALLEY":" ","HOUSE_NO":"１５５號","E_COORD97":171641.60000000001,"N_COORD97":2547792.25,"ADDRESS":"正南三路１５５號","OBJECTID":560596},"geometry":{"x":171641.60000000149,"y":2547792.25}},{"attributes":{"ID":560624,"DIS_CODE":0,"TOWNNAME":"東區","LI":"東智里","LIN":"9鄰","STREET":"崇德三十街","SECT":" ","MAREA":" ","LANE":" ","ALLEY":" ","HOUSE_NO":"４９號","E_COORD97":170931.63,"N_COORD97":2540168.27,"ADDRESS":"崇德三十街４９號","OBJECTID":560597},"geometry":{"x":170931.63000000082,"y":2540168.2700000014}},{"attributes":{"ID":560625,"DIS_CODE":0,"TOWNNAME":"東區","LI":"東智里","LIN":"9鄰","STREET":"崇德三十街","SECT":" ","MAREA":" ","LANE":" ","ALLEY":" ","HOUSE_NO":"４７號","E_COORD97":170928.01000000001,"N_COORD97":2540168.27,"ADDRESS":"崇德三十街４７號","OBJECTID":560598},"geometry":{"x":170928.00999999978,"y":2540168.2700000014}},{"attributes":{"ID":560626,"DIS_CODE":0,"TOWNNAME":"東區","LI":"東智里","LIN":"9鄰","STREET":"崇德三十街","SECT":" ","MAREA":" ","LANE":" ","ALLEY":" ","HOUSE_NO":"４５號","E_COORD97":170924.57999999999,"N_COORD97":2540168.6499999999,"ADDRESS":"崇德三十街４５號","OBJECTID":560599},"geometry":{"x":170924.58000000007,"y":2540168.6500000041}},{"attributes":{"ID":560627,"DIS_CODE":0,"TOWNNAME":"東區","LI":"東智里","LIN":"9鄰","STREET":"崇德三十街","SECT":" ","MAREA":" ","LANE":" ","ALLEY":" ","HOUSE_NO":"４３號","E_COORD97":170920.76000000001,"N_COORD97":2540169.4100000001,"ADDRESS":"崇德三十街４３號","OBJECTID":560600},"geometry":{"x":170920.76000000071,"y":2540169.4100000001}}]}