{"displayFieldName":"TOWNNAME","fieldAliases":{"ID":"ID","DIS_CODE":"DIS_CODE","TOWNNAME":"TOWNNAME","LI":"LI","LIN":"LIN","STREET":"STREET","SECT":"SECT","MAREA":"MAREA","LANE":"LANE","ALLEY":"ALLEY","HOUSE_NO":"HOUSE_NO","E_COORD97":"E_COORD97","N_COORD97":"N_COORD97","ADDRESS":"ADDRESS","OBJECTID":"OBJECTID"},"geometryType":"esriGeometryPoint","spatialReference":{"wkid":102443,"latestWkid":3826},"fields":[{"name":"ID","type":"esriFieldTypeDouble","alias":"ID"},{"name":"DIS_CODE","type":"esriFieldTypeInteger","alias":"DIS_CODE"},{"name":"TOWNNAME","type":"esriFieldTypeString","alias":"TOWNNAME","length":8},{"name":"LI","type":"esriFieldTypeString","alias":"LI","length":8},{"name":"LIN","type":"esriFieldTypeString","alias":"LIN","length":12},{"name":"STREET","type":"esriFieldTypeString","alias":"STREET","length":20},{"name":"SECT","type":"esriFieldTypeString","alias":"SECT","length":8},{"name":"MAREA","type":"esriFieldTypeString","alias":"MAREA","length":12},{"name":"LANE","type":"esriFieldTypeString","alias":"LANE","length":10},{"name":"ALLEY","type":"esriFieldTypeString","alias":"ALLEY","length":10},{"name":"HOUSE_NO","type":"esriFieldTypeString","alias":"HOUSE_NO","length":20},{"name":"E_COORD97","type":"esriFieldTypeDouble","alias":"E_COORD97"},{"name":"N_COORD97","type":"esriFieldTypeDouble","alias":"N_COORD97"},{"name":"ADDRESS","type":"esriFieldTypeString","alias":"ADDRESS","length":50},{"name":"OBJECTID","type":"esriFieldTypeOID","alias":"OBJECTID"}],"features":[{"attributes":{"ID":198002,"DIS_CODE":0,"TOWNNAME":"南區","LI":"新昌里","LIN":"9鄰","STREET":"府緯街","SECT":" ","MAREA":" ","LANE":" ","ALLEY":" ","HOUSE_NO":"６９號","E_COORD97":167684.69,"N_COORD97":2542710.0800000001,"ADDRESS":"府緯街６９號","OBJECTID":198001},"geometry":{"x":167684.69000000041,"y":2542710.0800000001}},{"attributes":{"ID":198003,"DIS_CODE":0,"TOWNNAME":"南區","LI":"新昌里","LIN":"9鄰","STREET":"府緯街","SECT":" ","MAREA":" ","LANE":" ","ALLEY":" ","HOUSE_NO":"７１號","E_COORD97":167679.22,"N_COORD97":2542710.7200000002,"ADDRESS":"府緯街７１號","OBJECTID":198002},"geometry":{"x":167679.2200000016,"y":2542710.7200000007}},{"attributes":{"ID":198004,"DIS_CODE":0,"TOWNNAME":"南區","LI":"新昌里","LIN":" ","STREET":"南寧街","SECT":" ","MAREA":" ","LANE":" ","ALLEY":" ","HOUSE_NO":"１４３號","E_COORD97":167586.13,"N_COORD97":2542858.4100000001,"ADDRESS":"南寧街１４３號","OBJECTID":198003},"geometry":{"x":167586.12999999989,"y":2542858.4100000001}},{"attributes":{"ID":198005,"DIS_CODE":0,"TOWNNAME":"南區","LI":"彰南里","LIN":"17鄰","STREET":"新和路","SECT":" ","MAREA":" ","LANE":" ","ALLEY":" ","HOUSE_NO":"４８號","E_COORD97":165441.37,"N_COORD97":2540939.9300000002,"ADDRESS":"新和路４８號","OBJECTID":198004},"geometry":{"x":165441.37000000104,"y":2540939.9300000016}},{"attributes":{"ID":198006,"DIS_CODE":0,"TOWNNAME":"南區","LI":"新昌里","LIN":"19鄰","STREET":"西門路","SECT":"一段","MAREA":" ","LANE":" ","ALLEY":" ","HOUSE_NO":"６６９號","E_COORD97":167710.42000000001,"N_COORD97":2543023.0699999998,"ADDRESS":"西門路一段６６９號","OBJECTID":198005},"geometry":{"x":167710.42000000179,"y":2543023.0700000003}},{"attributes":{"ID":198007,"DIS_CODE":0,"TOWNNAME":"南區","LI":"新昌里","LIN":"19鄰","STREET":"西門路","SECT":"一段","MAREA":" ","LANE":" ","ALLEY":" ","HOUSE_NO":"６７１號","E_COORD97":167704.95000000001,"N_COORD97":2543023.3900000001,"ADDRESS":"西門路一段６７１號","OBJECTID":198006},"geometry":{"x":167704.95000000019,"y":2543023.3900000025}},{"attributes":{"ID":198008,"DIS_CODE":0,"TOWNNAME":"南區","LI":"新昌里","LIN":"19鄰","STREET":"西門路","SECT":"一段","MAREA":" ","LANE":" ","ALLEY":" ","HOUSE_NO":"６７３號","E_COORD97":167700.13,"N_COORD97":2543023.3900000001,"ADDRESS":"西門路一段６７３號","OBJECTID":198007},"geometry":{"x":167700.12999999989,"y":2543023.3900000025}},{"attributes":{"ID":198009,"DIS_CODE":0,"TOWNNAME":"安平區","LI":"平安里","LIN":"18鄰","STREET":"安平路","SECT":" ","MAREA":" ","LANE":"６０６巷","ALLEY":"１７弄","HOUSE_NO":"４號","E_COORD97":164838.04000000001,"N_COORD97":2544488.2400000002,"ADDRESS":"安平路６０６巷１７弄４號","OBJECTID":198008},"geometry":{"x":164838.0400000019,"y":2544488.2400000021}},{"attributes":{"ID":198010,"DIS_CODE":0,"TOWNNAME":"安平區","LI":"平安里","LIN":"18鄰","STREET":"安平路","SECT":" ","MAREA":" ","LANE":"６０６巷","ALLEY":"１７弄","HOUSE_NO":"４號之１","E_COORD97":164833.03,"N_COORD97":2544489.3999999999,"ADDRESS":"安平路６０６巷１７弄４號之１","OBJECTID":198009},"geometry":{"x":164833.03000000026,"y":2544489.4000000004}},{"attributes":{"ID":198011,"DIS_CODE":0,"TOWNNAME":"安平區","LI":"平安里","LIN":"18鄰","STREET":"安平路","SECT":" ","MAREA":" ","LANE":"６０６巷","ALLEY":"１７弄","HOUSE_NO":"６號","E_COORD97":164828.14999999999,"N_COORD97":2544490.6800000002,"ADDRESS":"安平路６０６巷１７弄６號","OBJECTID":198010},"geometry":{"x":164828.1500000013,"y":2544490.6800000034}},{"attributes":{"ID":198012,"DIS_CODE":0,"TOWNNAME":"安平區","LI":"平安里","LIN":"18鄰","STREET":"安平路","SECT":" ","MAREA":" ","LANE":"６０６巷","ALLEY":"１７弄","HOUSE_NO":"７號","E_COORD97":164826.92000000001,"N_COORD97":2544478.1000000001,"ADDRESS":"安平路６０６巷１７弄７號","OBJECTID":198011},"geometry":{"x":164826.92000000086,"y":2544478.1000000015}},{"attributes":{"ID":198013,"DIS_CODE":0,"TOWNNAME":"安平區","LI":"平安里","LIN":"18鄰","STREET":"安平路","SECT":" ","MAREA":" ","LANE":"６０６巷","ALLEY":"１７弄","HOUSE_NO":"８號","E_COORD97":164819.75,"N_COORD97":2544494.6899999999,"ADDRESS":"安平路６０６巷１７弄８號","OBJECTID":198012},"geometry":{"x":164819.75000000093,"y":2544494.6900000013}},{"attributes":{"ID":198014,"DIS_CODE":0,"TOWNNAME":"安平區","LI":"平安里","LIN":"18鄰","STREET":"安平路","SECT":" ","MAREA":" ","LANE":"６０６巷","ALLEY":"１７弄","HOUSE_NO":"９號","E_COORD97":164817.64000000001,"N_COORD97":2544479.3500000001,"ADDRESS":"安平路６０６巷１７弄９號","OBJECTID":198013},"geometry":{"x":164817.63999999966,"y":2544479.3500000034}},{"attributes":{"ID":198015,"DIS_CODE":0,"TOWNNAME":"安平區","LI":"平安里","LIN":"18鄰","STREET":"安平路","SECT":" ","MAREA":" ","LANE":"６０６巷","ALLEY":"１７弄","HOUSE_NO":"９號之１","E_COORD97":164809.38,"N_COORD97":2544451.4199999999,"ADDRESS":"安平路６０６巷１７弄９號之１","OBJECTID":198014},"geometry":{"x":164809.37999999989,"y":2544451.4199999999}},{"attributes":{"ID":198016,"DIS_CODE":0,"TOWNNAME":"歸仁區","LI":"七甲里","LIN":"18鄰","STREET":"南潭三街","SECT":" ","MAREA":" ","LANE":"１６２巷","ALLEY":"７弄","HOUSE_NO":"９號","E_COORD97":176467.88,"N_COORD97":2543152.0299999998,"ADDRESS":"南潭三街１６２巷７弄９號","OBJECTID":198015},"geometry":{"x":176467.88000000175,"y":2543152.0300000031}},{"attributes":{"ID":198017,"DIS_CODE":0,"TOWNNAME":"新營區","LI":"新北里","LIN":"18鄰","STREET":"金華路","SECT":"二段","MAREA":" ","LANE":"１巷","ALLEY":"２弄","HOUSE_NO":"２０號","E_COORD97":178962.72,"N_COORD97":2578997.3799999999,"ADDRESS":"金華路二段１巷２弄２０號","OBJECTID":198016},"geometry":{"x":178962.72000000067,"y":2578997.3800000008}},{"attributes":{"ID":198018,"DIS_CODE":0,"TOWNNAME":"新營區","LI":"新北里","LIN":"18鄰","STREET":"金華路","SECT":"二段","MAREA":" ","LANE":"１巷","ALLEY":"２弄","HOUSE_NO":"３號","E_COORD97":178996.26999999999,"N_COORD97":2578996.1000000001,"ADDRESS":"金華路二段１巷２弄３號","OBJECTID":198017},"geometry":{"x":178996.27000000048,"y":2578996.1000000015}},{"attributes":{"ID":198019,"DIS_CODE":0,"TOWNNAME":"歸仁區","LI":"七甲里","LIN":"18鄰","STREET":"南潭三街","SECT":" ","MAREA":" ","LANE":"１６２巷","ALLEY":"７弄","HOUSE_NO":"１９號","E_COORD97":176494.73000000001,"N_COORD97":2543153.0299999998,"ADDRESS":"南潭三街１６２巷７弄１９號","OBJECTID":198018},"geometry":{"x":176494.73000000045,"y":2543153.0300000012}},{"attributes":{"ID":198020,"DIS_CODE":0,"TOWNNAME":"關廟區","LI":"松腳里","LIN":"18鄰","STREET":"中山路","SECT":"一段","MAREA":" ","LANE":"８９巷","ALLEY":"３７弄","HOUSE_NO":"１７號","E_COORD97":181959.41,"N_COORD97":2539888.2799999998,"ADDRESS":"中山路一段８９巷３７弄１７號","OBJECTID":198019},"geometry":{"x":181959.41000000108,"y":2539888.2799999993}},{"attributes":{"ID":198021,"DIS_CODE":0,"TOWNNAME":"北區","LI":"成功里","LIN":"18鄰","STREET":"北成路","SECT":" ","MAREA":" ","LANE":"１２８巷","ALLEY":"４５弄","HOUSE_NO":"３１號","E_COORD97":168876.89000000001,"N_COORD97":2546841.27,"ADDRESS":"北成路１２８巷４５弄３１號","OBJECTID":198020},"geometry":{"x":168876.8900000006,"y":2546841.2699999996}},{"attributes":{"ID":198022,"DIS_CODE":0,"TOWNNAME":"北區","LI":"文成里","LIN":"18鄰","STREET":"文賢路","SECT":" ","MAREA":" ","LANE":"２１８巷","ALLEY":"２８弄","HOUSE_NO":"６號","E_COORD97":167448.56,"N_COORD97":2544936.4300000002,"ADDRESS":"文賢路２１８巷２８弄６號","OBJECTID":198021},"geometry":{"x":167448.56000000052,"y":2544936.4300000034}},{"attributes":{"ID":198023,"DIS_CODE":0,"TOWNNAME":"北區","LI":"文成里","LIN":"18鄰","STREET":"文賢路","SECT":" ","MAREA":" ","LANE":"２１８巷","ALLEY":"２８弄","HOUSE_NO":"６之１號","E_COORD97":167450.79000000001,"N_COORD97":2544931.6699999999,"ADDRESS":"文賢路２１８巷２８弄６之１號","OBJECTID":198022},"geometry":{"x":167450.79000000097,"y":2544931.6700000037}},{"attributes":{"ID":198024,"DIS_CODE":0,"TOWNNAME":"北區","LI":"大港里","LIN":"18鄰","STREET":"中華北路","SECT":"一段","MAREA":" ","LANE":"３６２巷","ALLEY":"３弄","HOUSE_NO":"１０號","E_COORD97":166698.70999999999,"N_COORD97":2546024.6699999999,"ADDRESS":"中華北路一段３６２巷３弄１０號","OBJECTID":198023},"geometry":{"x":166698.71000000089,"y":2546024.6700000018}},{"attributes":{"ID":198025,"DIS_CODE":0,"TOWNNAME":"北區","LI":"大港里","LIN":"18鄰","STREET":"中華北路","SECT":"一段","MAREA":" ","LANE":"３６２巷","ALLEY":"３弄","HOUSE_NO":"１２號","E_COORD97":166702.38,"N_COORD97":2546026.1699999999,"ADDRESS":"中華北路一段３６２巷３弄１２號","OBJECTID":198024},"geometry":{"x":166702.38000000082,"y":2546026.1699999999}},{"attributes":{"ID":198026,"DIS_CODE":0,"TOWNNAME":"北區","LI":"大港里","LIN":"18鄰","STREET":"中華北路","SECT":"一段","MAREA":" ","LANE":"３６２巷","ALLEY":"３弄","HOUSE_NO":"２號","E_COORD97":166682.5,"N_COORD97":2546017.5,"ADDRESS":"中華北路一段３６２巷３弄２號","OBJECTID":198025},"geometry":{"x":166682.50000000186,"y":2546017.5}},{"attributes":{"ID":198027,"DIS_CODE":0,"TOWNNAME":"北區","LI":"大港里","LIN":"18鄰","STREET":"中華北路","SECT":"一段","MAREA":" ","LANE":"３６２巷","ALLEY":"３弄","HOUSE_NO":"４號","E_COORD97":166686.51000000001,"N_COORD97":2546019.6699999999,"ADDRESS":"中華北路一段３６２巷３弄４號","OBJECTID":198026},"geometry":{"x":166686.50999999978,"y":2546019.6699999999}},{"attributes":{"ID":198028,"DIS_CODE":0,"TOWNNAME":"北區","LI":"大港里","LIN":"18鄰","STREET":"中華北路","SECT":"一段","MAREA":" ","LANE":"３６２巷","ALLEY":"３弄","HOUSE_NO":"６號","E_COORD97":166690.01999999999,"N_COORD97":2546021,"ADDRESS":"中華北路一段３６２巷３弄６號","OBJECTID":198027},"geometry":{"x":166690.01999999955,"y":2546020.9999999981}},{"attributes":{"ID":198029,"DIS_CODE":0,"TOWNNAME":"北區","LI":"大港里","LIN":"18鄰","STREET":"中華北路","SECT":"一段","MAREA":" ","LANE":"３６２巷","ALLEY":"３弄","HOUSE_NO":"８號","E_COORD97":166694.20000000001,"N_COORD97":2546022.3399999999,"ADDRESS":"中華北路一段３６２巷３弄８號","OBJECTID":198028},"geometry":{"x":166694.20000000019,"y":2546022.3400000036}},{"attributes":{"ID":198030,"DIS_CODE":0,"TOWNNAME":"北區","LI":"大和里","LIN":"18鄰","STREET":"文賢路","SECT":" ","MAREA":" ","LANE":"８３３巷","ALLEY":"４０弄","HOUSE_NO":"１０號","E_COORD97":167185.67000000001,"N_COORD97":2546402.4500000002,"ADDRESS":"文賢路８３３巷４０弄１０號","OBJECTID":198029},"geometry":{"x":167185.66999999993,"y":2546402.4499999993}},{"attributes":{"ID":198031,"DIS_CODE":0,"TOWNNAME":"北區","LI":"大和里","LIN":"18鄰","STREET":"文賢路","SECT":" ","MAREA":" ","LANE":"８３３巷","ALLEY":"４０弄","HOUSE_NO":"１１號","E_COORD97":167165.17999999999,"N_COORD97":2546402.46,"ADDRESS":"文賢路８３３巷４０弄１１號","OBJECTID":198030},"geometry":{"x":167165.1799999997,"y":2546402.4600000028}},{"attributes":{"ID":198032,"DIS_CODE":0,"TOWNNAME":"北區","LI":"大和里","LIN":"18鄰","STREET":"文賢路","SECT":" ","MAREA":" ","LANE":"８３３巷","ALLEY":"４０弄","HOUSE_NO":"１２號","E_COORD97":167184.79000000001,"N_COORD97":2546406.5699999998,"ADDRESS":"文賢路８３３巷４０弄１２號","OBJECTID":198031},"geometry":{"x":167184.79000000097,"y":2546406.5700000003}},{"attributes":{"ID":198033,"DIS_CODE":0,"TOWNNAME":"北區","LI":"大和里","LIN":"18鄰","STREET":"文賢路","SECT":" ","MAREA":" ","LANE":"８３３巷","ALLEY":"４０弄","HOUSE_NO":"１３號","E_COORD97":167164.37,"N_COORD97":2546406.21,"ADDRESS":"文賢路８３３巷４０弄１３號","OBJECTID":198032},"geometry":{"x":167164.37000000011,"y":2546406.2100000009}},{"attributes":{"ID":198034,"DIS_CODE":0,"TOWNNAME":"北區","LI":"大和里","LIN":"18鄰","STREET":"文賢路","SECT":" ","MAREA":" ","LANE":"８３３巷","ALLEY":"４０弄","HOUSE_NO":"１４號","E_COORD97":167184.12,"N_COORD97":2546410.3199999998,"ADDRESS":"文賢路８３３巷４０弄１４號","OBJECTID":198033},"geometry":{"x":167184.12000000104,"y":2546410.3200000022}},{"attributes":{"ID":198035,"DIS_CODE":0,"TOWNNAME":"北區","LI":"大和里","LIN":"18鄰","STREET":"文賢路","SECT":" ","MAREA":" ","LANE":"８３３巷","ALLEY":"４０弄","HOUSE_NO":"１５號","E_COORD97":167163.63,"N_COORD97":2546410.4100000001,"ADDRESS":"文賢路８３３巷４０弄１５號","OBJECTID":198034},"geometry":{"x":167163.63000000082,"y":2546410.4100000001}},{"attributes":{"ID":198036,"DIS_CODE":0,"TOWNNAME":"北區","LI":"大和里","LIN":"18鄰","STREET":"文賢路","SECT":" ","MAREA":" ","LANE":"８３３巷","ALLEY":"４０弄","HOUSE_NO":"１６號","E_COORD97":167183.45999999999,"N_COORD97":2546414.4500000002,"ADDRESS":"文賢路８３３巷４０弄１６號","OBJECTID":198035},"geometry":{"x":167183.46000000089,"y":2546414.4500000011}},{"attributes":{"ID":198037,"DIS_CODE":0,"TOWNNAME":"北區","LI":"大和里","LIN":"18鄰","STREET":"文賢路","SECT":" ","MAREA":" ","LANE":"８３３巷","ALLEY":"４０弄","HOUSE_NO":"１號","E_COORD97":167170.04000000001,"N_COORD97":2546382.27,"ADDRESS":"文賢路８３３巷４０弄１號","OBJECTID":198036},"geometry":{"x":167170.04000000004,"y":2546382.2700000014}},{"attributes":{"ID":198038,"DIS_CODE":0,"TOWNNAME":"大內區","LI":"內郭里","LIN":"7鄰","STREET":" ","SECT":" ","MAREA":"後堀","LANE":" ","ALLEY":" ","HOUSE_NO":"１號","E_COORD97":185555.20999999999,"N_COORD97":2557384.3199999998,"ADDRESS":"後堀１號","OBJECTID":198037},"geometry":{"x":185555.20999999903,"y":2557384.3200000022}},{"attributes":{"ID":198039,"DIS_CODE":0,"TOWNNAME":"北區","LI":"大和里","LIN":"18鄰","STREET":"文賢路","SECT":" ","MAREA":" ","LANE":"８３３巷","ALLEY":"４０弄","HOUSE_NO":"２號","E_COORD97":167189.5,"N_COORD97":2546386.25,"ADDRESS":"文賢路８３３巷４０弄２號","OBJECTID":198038},"geometry":{"x":167189.50000000186,"y":2546386.2500000019}},{"attributes":{"ID":198040,"DIS_CODE":0,"TOWNNAME":"北區","LI":"大和里","LIN":"18鄰","STREET":"文賢路","SECT":" ","MAREA":" ","LANE":"８３３巷","ALLEY":"４０弄","HOUSE_NO":"３號","E_COORD97":167169.16,"N_COORD97":2546386.54,"ADDRESS":"文賢路８３３巷４０弄３號","OBJECTID":198039},"geometry":{"x":167169.16000000015,"y":2546386.540000001}},{"attributes":{"ID":198041,"DIS_CODE":0,"TOWNNAME":"北區","LI":"大和里","LIN":"18鄰","STREET":"文賢路","SECT":" ","MAREA":" ","LANE":"８３３巷","ALLEY":"４０弄","HOUSE_NO":"４號","E_COORD97":167188.76000000001,"N_COORD97":2546389.9300000002,"ADDRESS":"文賢路８３３巷４０弄４號","OBJECTID":198040},"geometry":{"x":167188.75999999978,"y":2546389.9299999997}},{"attributes":{"ID":198042,"DIS_CODE":0,"TOWNNAME":"善化區","LI":"小新里","LIN":"21鄰","STREET":" ","SECT":" ","MAREA":"小新營","LANE":" ","ALLEY":" ","HOUSE_NO":"３０８號","E_COORD97":180304.87,"N_COORD97":2558329.75,"ADDRESS":"小新營３０８號","OBJECTID":198041},"geometry":{"x":180304.87000000104,"y":2558329.7499999981}},{"attributes":{"ID":198043,"DIS_CODE":0,"TOWNNAME":"善化區","LI":"小新里","LIN":"21鄰","STREET":" ","SECT":" ","MAREA":"小新營","LANE":" ","ALLEY":" ","HOUSE_NO":"３５１號","E_COORD97":180189.44,"N_COORD97":2558326.5,"ADDRESS":"小新營３５１號","OBJECTID":198042},"geometry":{"x":180189.44000000134,"y":2558326.5000000019}},{"attributes":{"ID":198044,"DIS_CODE":0,"TOWNNAME":"北區","LI":"大和里","LIN":"18鄰","STREET":"文賢路","SECT":" ","MAREA":" ","LANE":"８３３巷","ALLEY":"４０弄","HOUSE_NO":"５號","E_COORD97":167168.13,"N_COORD97":2546389.48,"ADDRESS":"文賢路８３３巷４０弄５號","OBJECTID":198043},"geometry":{"x":167168.13000000175,"y":2546389.4800000023}},{"attributes":{"ID":198045,"DIS_CODE":0,"TOWNNAME":"北區","LI":"大和里","LIN":"18鄰","STREET":"文賢路","SECT":" ","MAREA":" ","LANE":"８３３巷","ALLEY":"４０弄","HOUSE_NO":"６號","E_COORD97":167187.59,"N_COORD97":2546393.9700000002,"ADDRESS":"文賢路８３３巷４０弄６號","OBJECTID":198044},"geometry":{"x":167187.59000000078,"y":2546393.9700000007}},{"attributes":{"ID":198046,"DIS_CODE":0,"TOWNNAME":"北區","LI":"大和里","LIN":"18鄰","STREET":"文賢路","SECT":" ","MAREA":" ","LANE":"８３３巷","ALLEY":"４０弄","HOUSE_NO":"７號","E_COORD97":167167.47,"N_COORD97":2546394.3399999999,"ADDRESS":"文賢路８３３巷４０弄７號","OBJECTID":198045},"geometry":{"x":167167.47000000067,"y":2546394.3399999999}},{"attributes":{"ID":198047,"DIS_CODE":0,"TOWNNAME":"北區","LI":"大和里","LIN":"18鄰","STREET":"文賢路","SECT":" ","MAREA":" ","LANE":"８３３巷","ALLEY":"４０弄","HOUSE_NO":"８號","E_COORD97":167186.54999999999,"N_COORD97":2546398.3100000001,"ADDRESS":"文賢路８３３巷４０弄８號","OBJECTID":198046},"geometry":{"x":167186.54999999981,"y":2546398.3100000005}},{"attributes":{"ID":198048,"DIS_CODE":0,"TOWNNAME":"善化區","LI":"小新里","LIN":"21鄰","STREET":" ","SECT":" ","MAREA":"小新營","LANE":" ","ALLEY":" ","HOUSE_NO":"３１５號","E_COORD97":180197.60999999999,"N_COORD97":2558494,"ADDRESS":"小新營３１５號","OBJECTID":198047},"geometry":{"x":180197.61000000034,"y":2558494}},{"attributes":{"ID":198049,"DIS_CODE":0,"TOWNNAME":"善化區","LI":"小新里","LIN":"21鄰","STREET":" ","SECT":" ","MAREA":"小新營","LANE":" ","ALLEY":" ","HOUSE_NO":"３００號","E_COORD97":180268.98000000001,"N_COORD97":2558383.5,"ADDRESS":"小新營３００號","OBJECTID":198048},"geometry":{"x":180268.98000000138,"y":2558383.5000000019}},{"attributes":{"ID":198050,"DIS_CODE":0,"TOWNNAME":"北區","LI":"大和里","LIN":"18鄰","STREET":"文賢路","SECT":" ","MAREA":" ","LANE":"８３３巷","ALLEY":"４０弄","HOUSE_NO":"９號","E_COORD97":167166.14000000001,"N_COORD97":2546398.1200000001,"ADDRESS":"文賢路８３３巷４０弄９號","OBJECTID":198049},"geometry":{"x":167166.14000000153,"y":2546398.1200000029}},{"attributes":{"ID":198051,"DIS_CODE":0,"TOWNNAME":"大內區","LI":"曲溪里","LIN":"3鄰","STREET":" ","SECT":" ","MAREA":"二重溪","LANE":" ","ALLEY":" ","HOUSE_NO":"２７號","E_COORD97":187445.39000000001,"N_COORD97":2557602.3100000001,"ADDRESS":"二重溪２７號","OBJECTID":198050},"geometry":{"x":187445.38999999966,"y":2557602.3100000024}},{"attributes":{"ID":198052,"DIS_CODE":0,"TOWNNAME":"大內區","LI":"頭社里","LIN":"3鄰","STREET":" ","SECT":" ","MAREA":"頭社","LANE":" ","ALLEY":" ","HOUSE_NO":"３２號之１","E_COORD97":187082.57999999999,"N_COORD97":2560280.2999999998,"ADDRESS":"頭社３２號之１","OBJECTID":198051},"geometry":{"x":187082.58000000101,"y":2560280.3000000026}},{"attributes":{"ID":198053,"DIS_CODE":0,"TOWNNAME":"大內區","LI":"曲溪里","LIN":"3鄰","STREET":" ","SECT":" ","MAREA":"二重溪","LANE":" ","ALLEY":" ","HOUSE_NO":"２６號","E_COORD97":187425.69,"N_COORD97":2557600.3100000001,"ADDRESS":"二重溪２６號","OBJECTID":198052},"geometry":{"x":187425.69000000227,"y":2557600.3100000005}},{"attributes":{"ID":198054,"DIS_CODE":0,"TOWNNAME":"大內區","LI":"頭社里","LIN":"3鄰","STREET":" ","SECT":" ","MAREA":"頭社","LANE":" ","ALLEY":" ","HOUSE_NO":"３９號","E_COORD97":187136.54000000001,"N_COORD97":2560301.25,"ADDRESS":"頭社３９號","OBJECTID":198053},"geometry":{"x":187136.5400000019,"y":2560301.2500000019}},{"attributes":{"ID":198055,"DIS_CODE":0,"TOWNNAME":"大內區","LI":"石林里","LIN":"3鄰","STREET":" ","SECT":" ","MAREA":"石子瀨","LANE":" ","ALLEY":" ","HOUSE_NO":"１４５號","E_COORD97":184070.76999999999,"N_COORD97":2558064.25,"ADDRESS":"石子瀨１４５號","OBJECTID":198054},"geometry":{"x":184070.76999999955,"y":2558064.25}},{"attributes":{"ID":198056,"DIS_CODE":0,"TOWNNAME":"大內區","LI":"石城里","LIN":"3鄰","STREET":" ","SECT":" ","MAREA":"石子瀨","LANE":" ","ALLEY":" ","HOUSE_NO":"２４號","E_COORD97":184271.92000000001,"N_COORD97":2557941.25,"ADDRESS":"石子瀨２４號","OBJECTID":198055},"geometry":{"x":184271.91999999993,"y":2557941.2500000019}},{"attributes":{"ID":198057,"DIS_CODE":0,"TOWNNAME":"大內區","LI":"環湖里","LIN":"3鄰","STREET":" ","SECT":" ","MAREA":"環湖","LANE":" ","ALLEY":" ","HOUSE_NO":"３５號","E_COORD97":190543.64000000001,"N_COORD97":2560715.25,"ADDRESS":"環湖３５號","OBJECTID":198056},"geometry":{"x":190543.63999999966,"y":2560715.25}},{"attributes":{"ID":198058,"DIS_CODE":0,"TOWNNAME":"大內區","LI":"環湖里","LIN":"3鄰","STREET":" ","SECT":" ","MAREA":"環湖","LANE":" ","ALLEY":" ","HOUSE_NO":"２３號之９","E_COORD97":190687.56,"N_COORD97":2560553.2999999998,"ADDRESS":"環湖２３號之９","OBJECTID":198057},"geometry":{"x":190687.56000000052,"y":2560553.3000000007}},{"attributes":{"ID":198059,"DIS_CODE":0,"TOWNNAME":"關廟區","LI":"松腳里","LIN":"18鄰","STREET":"中山路","SECT":"一段","MAREA":" ","LANE":"８９巷","ALLEY":"３７弄","HOUSE_NO":"４０號","E_COORD97":181989.01000000001,"N_COORD97":2539929.2799999998,"ADDRESS":"中山路一段８９巷３７弄４０號","OBJECTID":198058},"geometry":{"x":181989.00999999978,"y":2539929.2799999975}},{"attributes":{"ID":198060,"DIS_CODE":0,"TOWNNAME":"大內區","LI":"石城里","LIN":"3鄰","STREET":" ","SECT":" ","MAREA":"石子瀨","LANE":" ","ALLEY":" ","HOUSE_NO":"２６號之３","E_COORD97":184380.95000000001,"N_COORD97":2558003.2999999998,"ADDRESS":"石子瀨２６號之３","OBJECTID":198059},"geometry":{"x":184380.95000000205,"y":2558003.3000000007}},{"attributes":{"ID":198061,"DIS_CODE":0,"TOWNNAME":"關廟區","LI":"松腳里","LIN":"18鄰","STREET":"中山路","SECT":"一段","MAREA":" ","LANE":"８９巷","ALLEY":"３７弄","HOUSE_NO":"３６號","E_COORD97":181988.20999999999,"N_COORD97":2539876.2799999998,"ADDRESS":"中山路一段８９巷３７弄３６號","OBJECTID":198060},"geometry":{"x":181988.20999999996,"y":2539876.2800000012}},{"attributes":{"ID":198062,"DIS_CODE":0,"TOWNNAME":"大內區","LI":"環湖里","LIN":"3鄰","STREET":" ","SECT":" ","MAREA":"環湖","LANE":" ","ALLEY":" ","HOUSE_NO":"２９號","E_COORD97":190517.44,"N_COORD97":2560689.25,"ADDRESS":"環湖２９號","OBJECTID":198061},"geometry":{"x":190517.44000000041,"y":2560689.25}},{"attributes":{"ID":198063,"DIS_CODE":0,"TOWNNAME":"大內區","LI":"環湖里","LIN":"3鄰","STREET":" ","SECT":" ","MAREA":"環湖","LANE":" ","ALLEY":" ","HOUSE_NO":"２３號之７","E_COORD97":190691.85000000001,"N_COORD97":2560544.2999999998,"ADDRESS":"環湖２３號之７","OBJECTID":198062},"geometry":{"x":190691.84999999963,"y":2560544.3000000045}},{"attributes":{"ID":198064,"DIS_CODE":0,"TOWNNAME":"永康區","LI":"\u25A0行里","LIN":"40鄰","STREET":"永安一街","SECT":" ","MAREA":" ","LANE":" ","ALLEY":" ","HOUSE_NO":"１１號","E_COORD97":172641.85999999999,"N_COORD97":2549385.8100000001,"ADDRESS":"永安一街１１號","OBJECTID":198063},"geometry":{"x":172641.86000000034,"y":2549385.8100000005}},{"attributes":{"ID":198065,"DIS_CODE":0,"TOWNNAME":"大內區","LI":"環湖里","LIN":"3鄰","STREET":" ","SECT":" ","MAREA":"環湖","LANE":" ","ALLEY":" ","HOUSE_NO":"２５號之２","E_COORD97":190613.51000000001,"N_COORD97":2560664.2999999998,"ADDRESS":"環湖２５號之２","OBJECTID":198064},"geometry":{"x":190613.51000000071,"y":2560664.3000000026}},{"attributes":{"ID":198066,"DIS_CODE":0,"TOWNNAME":"善化區","LI":"文昌里","LIN":"21鄰","STREET":"中正路","SECT":" ","MAREA":" ","LANE":" ","ALLEY":" ","HOUSE_NO":"１８０號","E_COORD97":177717.35000000001,"N_COORD97":2558182.5,"ADDRESS":"中正路１８０號","OBJECTID":198065},"geometry":{"x":177717.35000000056,"y":2558182.5000000037}},{"attributes":{"ID":198067,"DIS_CODE":0,"TOWNNAME":"善化區","LI":"坐駕里","LIN":"21鄰","STREET":" ","SECT":" ","MAREA":"坐駕","LANE":" ","ALLEY":" ","HOUSE_NO":"１５之３號","E_COORD97":178237.67999999999,"N_COORD97":2558367.5099999998,"ADDRESS":"坐駕１５之３號","OBJECTID":198066},"geometry":{"x":178237.68000000063,"y":2558367.5099999998}},{"attributes":{"ID":198068,"DIS_CODE":0,"TOWNNAME":"善化區","LI":"坐駕里","LIN":"21鄰","STREET":" ","SECT":" ","MAREA":"坐駕","LANE":" ","ALLEY":" ","HOUSE_NO":"１４號之３","E_COORD97":178204.04999999999,"N_COORD97":2558332.27,"ADDRESS":"坐駕１４號之３","OBJECTID":198067},"geometry":{"x":178204.04999999981,"y":2558332.2699999996}},{"attributes":{"ID":198069,"DIS_CODE":0,"TOWNNAME":"善化區","LI":"坐駕里","LIN":"21鄰","STREET":" ","SECT":" ","MAREA":"坐駕","LANE":" ","ALLEY":" ","HOUSE_NO":"１４號之４","E_COORD97":178200.64999999999,"N_COORD97":2558329.02,"ADDRESS":"坐駕１４號之４","OBJECTID":198068},"geometry":{"x":178200.64999999944,"y":2558329.0200000014}},{"attributes":{"ID":198070,"DIS_CODE":0,"TOWNNAME":"善化區","LI":"坐駕里","LIN":"21鄰","STREET":" ","SECT":" ","MAREA":"坐駕","LANE":" ","ALLEY":" ","HOUSE_NO":"１５之１號","E_COORD97":178237.39000000001,"N_COORD97":2558371.77,"ADDRESS":"坐駕１５之１號","OBJECTID":198069},"geometry":{"x":178237.39000000153,"y":2558371.7699999996}},{"attributes":{"ID":198071,"DIS_CODE":0,"TOWNNAME":"善化區","LI":"坐駕里","LIN":"21鄰","STREET":" ","SECT":" ","MAREA":"坐駕","LANE":" ","ALLEY":" ","HOUSE_NO":"１０號","E_COORD97":178189.81,"N_COORD97":2558436,"ADDRESS":"坐駕１０號","OBJECTID":198070},"geometry":{"x":178189.80999999959,"y":2558436}},{"attributes":{"ID":198072,"DIS_CODE":0,"TOWNNAME":"善化區","LI":"光文里","LIN":"21鄰","STREET":"和平路","SECT":" ","MAREA":" ","LANE":" ","ALLEY":" ","HOUSE_NO":"１６５號","E_COORD97":178099.45999999999,"N_COORD97":2559023.75,"ADDRESS":"和平路１６５號","OBJECTID":198071},"geometry":{"x":178099.45999999996,"y":2559023.75}},{"attributes":{"ID":198073,"DIS_CODE":0,"TOWNNAME":"善化區","LI":"坐駕里","LIN":"21鄰","STREET":" ","SECT":" ","MAREA":"坐駕","LANE":" ","ALLEY":" ","HOUSE_NO":"７號","E_COORD97":178198.45000000001,"N_COORD97":2558380.75,"ADDRESS":"坐駕７號","OBJECTID":198072},"geometry":{"x":178198.45000000205,"y":2558380.7500000037}},{"attributes":{"ID":198074,"DIS_CODE":0,"TOWNNAME":"關廟區","LI":"松腳里","LIN":"18鄰","STREET":"中山路","SECT":"一段","MAREA":" ","LANE":"８９巷","ALLEY":"３７弄","HOUSE_NO":"２６號","E_COORD97":181975.91,"N_COORD97":2539860.2799999998,"ADDRESS":"中山路一段８９巷３７弄２６號","OBJECTID":198073},"geometry":{"x":181975.91000000108,"y":2539860.2799999993}},{"attributes":{"ID":198075,"DIS_CODE":0,"TOWNNAME":"善化區","LI":"坐駕里","LIN":"21鄰","STREET":" ","SECT":" ","MAREA":"坐駕","LANE":" ","ALLEY":" ","HOUSE_NO":"１６號","E_COORD97":178228.70999999999,"N_COORD97":2558397.75,"ADDRESS":"坐駕１６號","OBJECTID":198074},"geometry":{"x":178228.71000000183,"y":2558397.7500000037}},{"attributes":{"ID":198076,"DIS_CODE":0,"TOWNNAME":"關廟區","LI":"北花里","LIN":"18鄰","STREET":"中正路","SECT":" ","MAREA":" ","LANE":"５６７巷","ALLEY":"８弄","HOUSE_NO":"７號","E_COORD97":182336.60999999999,"N_COORD97":2540399.0699999998,"ADDRESS":"中正路５６７巷８弄７號","OBJECTID":198075},"geometry":{"x":182336.61000000034,"y":2540399.0700000003}},{"attributes":{"ID":198077,"DIS_CODE":0,"TOWNNAME":"西港區","LI":"西港里","LIN":"21鄰","STREET":"中山路","SECT":" ","MAREA":" ","LANE":" ","ALLEY":" ","HOUSE_NO":"８６號","E_COORD97":168480.81,"N_COORD97":2557474.2000000002,"ADDRESS":"中山路８６號","OBJECTID":198076},"geometry":{"x":168480.81000000052,"y":2557474.1999999993}},{"attributes":{"ID":198078,"DIS_CODE":0,"TOWNNAME":"東區","LI":"龍山里","LIN":"21鄰","STREET":"富德街","SECT":" ","MAREA":" ","LANE":" ","ALLEY":" ","HOUSE_NO":"２２號","E_COORD97":170499.41,"N_COORD97":2542757.6099999999,"ADDRESS":"富德街２２號","OBJECTID":198077},"geometry":{"x":170499.41000000108,"y":2542757.6099999994}},{"attributes":{"ID":198079,"DIS_CODE":0,"TOWNNAME":"新營區","LI":"新北里","LIN":"18鄰","STREET":"金華路","SECT":"二段","MAREA":" ","LANE":"１巷","ALLEY":"２弄","HOUSE_NO":"５號","E_COORD97":178993.10999999999,"N_COORD97":2578992.7999999998,"ADDRESS":"金華路二段１巷２弄５號","OBJECTID":198078},"geometry":{"x":178993.11000000127,"y":2578992.8000000026}},{"attributes":{"ID":198080,"DIS_CODE":0,"TOWNNAME":"新營區","LI":"新北里","LIN":"18鄰","STREET":"金華路","SECT":"二段","MAREA":" ","LANE":"１巷","ALLEY":"２弄","HOUSE_NO":"９號","E_COORD97":178987.91,"N_COORD97":2578985.0699999998,"ADDRESS":"金華路二段１巷２弄９號","OBJECTID":198079},"geometry":{"x":178987.91000000015,"y":2578985.0700000003}},{"attributes":{"ID":198081,"DIS_CODE":0,"TOWNNAME":"新營區","LI":"新東里","LIN":"18鄰","STREET":"東興四街","SECT":" ","MAREA":" ","LANE":"３２巷","ALLEY":"１２弄","HOUSE_NO":"１８號","E_COORD97":180843.26000000001,"N_COORD97":2579136.8799999999,"ADDRESS":"東興四街３２巷１２弄１８號","OBJECTID":198080},"geometry":{"x":180843.25999999978,"y":2579136.879999999}},{"attributes":{"ID":198082,"DIS_CODE":0,"TOWNNAME":"新營區","LI":"新南里","LIN":"18鄰","STREET":"隋唐街","SECT":" ","MAREA":" ","LANE":"３１巷","ALLEY":"２８弄","HOUSE_NO":"８號","E_COORD97":178659.91,"N_COORD97":2578395.2599999998,"ADDRESS":"隋唐街３１巷２８弄８號","OBJECTID":198081},"geometry":{"x":178659.91000000201,"y":2578395.2600000016}},{"attributes":{"ID":198083,"DIS_CODE":0,"TOWNNAME":"大內區","LI":"環湖里","LIN":"3鄰","STREET":" ","SECT":" ","MAREA":"環湖","LANE":" ","ALLEY":" ","HOUSE_NO":"２２號","E_COORD97":190734.14000000001,"N_COORD97":2560524.25,"ADDRESS":"環湖２２號","OBJECTID":198082},"geometry":{"x":190734.13999999966,"y":2560524.2500000019}},{"attributes":{"ID":198084,"DIS_CODE":0,"TOWNNAME":"東區","LI":"龍山里","LIN":"21鄰","STREET":"富德街","SECT":" ","MAREA":" ","LANE":" ","ALLEY":" ","HOUSE_NO":"３０號","E_COORD97":170482.87,"N_COORD97":2542763.3100000001,"ADDRESS":"富德街３０號","OBJECTID":198083},"geometry":{"x":170482.87000000104,"y":2542763.3100000005}},{"attributes":{"ID":198085,"DIS_CODE":0,"TOWNNAME":"東區","LI":"龍山里","LIN":"21鄰","STREET":"富德街","SECT":" ","MAREA":" ","LANE":" ","ALLEY":" ","HOUSE_NO":"３２號","E_COORD97":170476.26000000001,"N_COORD97":2542761.8100000001,"ADDRESS":"富德街３２號","OBJECTID":198084},"geometry":{"x":170476.26000000071,"y":2542761.8100000024}},{"attributes":{"ID":198086,"DIS_CODE":0,"TOWNNAME":"東區","LI":"東安里","LIN":"21鄰","STREET":"林森路","SECT":"二段","MAREA":" ","LANE":" ","ALLEY":" ","HOUSE_NO":"４９號","E_COORD97":170292.45999999999,"N_COORD97":2542998.6899999999,"ADDRESS":"林森路二段４９號","OBJECTID":198085},"geometry":{"x":170292.46000000089,"y":2542998.6900000032}},{"attributes":{"ID":198087,"DIS_CODE":0,"TOWNNAME":"東區","LI":"東安里","LIN":"21鄰","STREET":"林森路","SECT":"二段","MAREA":" ","LANE":" ","ALLEY":" ","HOUSE_NO":"５５號","E_COORD97":170297.35999999999,"N_COORD97":2543013.8500000001,"ADDRESS":"林森路二段５５號","OBJECTID":198086},"geometry":{"x":170297.36000000034,"y":2543013.8499999996}},{"attributes":{"ID":198088,"DIS_CODE":0,"TOWNNAME":"東區","LI":"龍山里","LIN":"21鄰","STREET":"富德街","SECT":" ","MAREA":" ","LANE":" ","ALLEY":" ","HOUSE_NO":"２４號","E_COORD97":170495.5,"N_COORD97":2542759.71,"ADDRESS":"富德街２４號","OBJECTID":198087},"geometry":{"x":170495.50000000093,"y":2542759.7100000028}},{"attributes":{"ID":198089,"DIS_CODE":0,"TOWNNAME":"大內區","LI":"環湖里","LIN":"3鄰","STREET":" ","SECT":" ","MAREA":"環湖","LANE":" ","ALLEY":" ","HOUSE_NO":"２３號之１１","E_COORD97":190684.92999999999,"N_COORD97":2560561.2999999998,"ADDRESS":"環湖２３號之１１","OBJECTID":198088},"geometry":{"x":190684.93000000156,"y":2560561.3000000045}},{"attributes":{"ID":198090,"DIS_CODE":0,"TOWNNAME":"大內區","LI":"環湖里","LIN":"3鄰","STREET":" ","SECT":" ","MAREA":"環湖","LANE":" ","ALLEY":" ","HOUSE_NO":"２９號之２","E_COORD97":190511.81,"N_COORD97":2560686.2999999998,"ADDRESS":"環湖２９號之２","OBJECTID":198089},"geometry":{"x":190511.81000000052,"y":2560686.3000000007}},{"attributes":{"ID":198091,"DIS_CODE":0,"TOWNNAME":"大內區","LI":"環湖里","LIN":"3鄰","STREET":" ","SECT":" ","MAREA":"環湖","LANE":" ","ALLEY":" ","HOUSE_NO":"３２號之３","E_COORD97":190496.07000000001,"N_COORD97":2560670.2999999998,"ADDRESS":"環湖３２號之３","OBJECTID":198090},"geometry":{"x":190496.0700000003,"y":2560670.3000000026}},{"attributes":{"ID":198092,"DIS_CODE":0,"TOWNNAME":"大內區","LI":"環湖里","LIN":"3鄰","STREET":" ","SECT":" ","MAREA":"環湖","LANE":" ","ALLEY":" ","HOUSE_NO":"２３號之１０","E_COORD97":190686.88,"N_COORD97":2560557.2999999998,"ADDRESS":"環湖２３號之１０","OBJECTID":198091},"geometry":{"x":190686.87999999989,"y":2560557.3000000007}},{"attributes":{"ID":198093,"DIS_CODE":0,"TOWNNAME":"大內區","LI":"環湖里","LIN":"3鄰","STREET":" ","SECT":" ","MAREA":"環湖","LANE":" ","ALLEY":" ","HOUSE_NO":"２３號之４","E_COORD97":190628.89999999999,"N_COORD97":2560583.2999999998,"ADDRESS":"環湖２３號之４","OBJECTID":198092},"geometry":{"x":190628.9000000013,"y":2560583.3000000026}},{"attributes":{"ID":198094,"DIS_CODE":0,"TOWNNAME":"大內區","LI":"環湖里","LIN":"3鄰","STREET":" ","SECT":" ","MAREA":"環湖","LANE":" ","ALLEY":" ","HOUSE_NO":"２８號之１","E_COORD97":190552.78,"N_COORD97":2560671.2999999998,"ADDRESS":"環湖２８號之１","OBJECTID":198093},"geometry":{"x":190552.78000000119,"y":2560671.3000000026}},{"attributes":{"ID":198095,"DIS_CODE":0,"TOWNNAME":"大內區","LI":"環湖里","LIN":"3鄰","STREET":" ","SECT":" ","MAREA":"環湖","LANE":" ","ALLEY":" ","HOUSE_NO":"３２號之４","E_COORD97":190503.60000000001,"N_COORD97":2560666.2999999998,"ADDRESS":"環湖３２號之４","OBJECTID":198094},"geometry":{"x":190503.59999999963,"y":2560666.3000000045}},{"attributes":{"ID":198096,"DIS_CODE":0,"TOWNNAME":"麻豆區","LI":"\u25A0江里","LIN":"21鄰","STREET":"信義路","SECT":" ","MAREA":" ","LANE":" ","ALLEY":" ","HOUSE_NO":"３６號","E_COORD97":173579.70000000001,"N_COORD97":2564601.5099999998,"ADDRESS":"信義路３６號","OBJECTID":198095},"geometry":{"x":173579.70000000112,"y":2564601.5100000016}},{"attributes":{"ID":198097,"DIS_CODE":0,"TOWNNAME":"麻豆區","LI":"\u25A0江里","LIN":"21鄰","STREET":"信義路","SECT":" ","MAREA":" ","LANE":" ","ALLEY":" ","HOUSE_NO":"３４號之１２","E_COORD97":173559.67999999999,"N_COORD97":2564608.4199999999,"ADDRESS":"信義路３４號之１２","OBJECTID":198096},"geometry":{"x":173559.6799999997,"y":2564608.4200000018}},{"attributes":{"ID":198098,"DIS_CODE":0,"TOWNNAME":"新營區","LI":"新南里","LIN":"18鄰","STREET":"隋唐街","SECT":" ","MAREA":" ","LANE":"３１巷","ALLEY":"１０弄","HOUSE_NO":"２１號","E_COORD97":178637.79999999999,"N_COORD97":2578429.71,"ADDRESS":"隋唐街３１巷１０弄２１號","OBJECTID":198097},"geometry":{"x":178637.79999999981,"y":2578429.7100000028}},{"attributes":{"ID":198099,"DIS_CODE":0,"TOWNNAME":"麻豆區","LI":"\u25A0江里","LIN":"21鄰","STREET":"信義路","SECT":" ","MAREA":" ","LANE":" ","ALLEY":" ","HOUSE_NO":"３４號之１３","E_COORD97":173563.79000000001,"N_COORD97":2564608.8599999999,"ADDRESS":"信義路３４號之１３","OBJECTID":198098},"geometry":{"x":173563.79000000097,"y":2564608.8600000013}},{"attributes":{"ID":198100,"DIS_CODE":0,"TOWNNAME":"南區","LI":"大恩里","LIN":"18鄰","STREET":"國民路","SECT":" ","MAREA":" ","LANE":"１６５巷","ALLEY":"２１弄","HOUSE_NO":"２之１號","E_COORD97":169195.19,"N_COORD97":2540799.1699999999,"ADDRESS":"國民路１６５巷２１弄２之１號","OBJECTID":198099},"geometry":{"x":169195.19000000041,"y":2540799.1700000018}},{"attributes":{"ID":198101,"DIS_CODE":0,"TOWNNAME":"麻豆區","LI":"\u25A0江里","LIN":"21鄰","STREET":"信義路","SECT":" ","MAREA":" ","LANE":" ","ALLEY":" ","HOUSE_NO":"３６號之１１","E_COORD97":173590.48000000001,"N_COORD97":2564556.1699999999,"ADDRESS":"信義路３６號之１１","OBJECTID":198100},"geometry":{"x":173590.48000000045,"y":2564556.1700000018}},{"attributes":{"ID":198102,"DIS_CODE":0,"TOWNNAME":"麻豆區","LI":"\u25A0江里","LIN":"21鄰","STREET":"信義路","SECT":" ","MAREA":" ","LANE":" ","ALLEY":" ","HOUSE_NO":"３６號之１２","E_COORD97":173590.23999999999,"N_COORD97":2564560.4500000002,"ADDRESS":"信義路３６號之１２","OBJECTID":198101},"geometry":{"x":173590.24000000022,"y":2564560.4500000011}},{"attributes":{"ID":198103,"DIS_CODE":0,"TOWNNAME":"麻豆區","LI":"\u25A0江里","LIN":"21鄰","STREET":"信義路","SECT":" ","MAREA":" ","LANE":" ","ALLEY":" ","HOUSE_NO":"３６號之１３","E_COORD97":173590.16,"N_COORD97":2564564.2799999998,"ADDRESS":"信義路３６號之１３","OBJECTID":198102},"geometry":{"x":173590.16000000108,"y":2564564.2800000012}},{"attributes":{"ID":198104,"DIS_CODE":0,"TOWNNAME":"歸仁區","LI":"七甲里","LIN":"18鄰","STREET":"南潭三街","SECT":" ","MAREA":" ","LANE":"１６２巷","ALLEY":"７弄","HOUSE_NO":"１３號","E_COORD97":176479.42999999999,"N_COORD97":2543153.0299999998,"ADDRESS":"南潭三街１６２巷７弄１３號","OBJECTID":198103},"geometry":{"x":176479.43000000063,"y":2543153.0300000012}},{"attributes":{"ID":198105,"DIS_CODE":0,"TOWNNAME":"歸仁區","LI":"七甲里","LIN":"18鄰","STREET":"南潭三街","SECT":" ","MAREA":" ","LANE":"１６２巷","ALLEY":"７弄","HOUSE_NO":"５號","E_COORD97":176457.57999999999,"N_COORD97":2543152.0299999998,"ADDRESS":"南潭三街１６２巷７弄５號","OBJECTID":198104},"geometry":{"x":176457.58000000007,"y":2543152.0300000031}},{"attributes":{"ID":198106,"DIS_CODE":0,"TOWNNAME":"歸仁區","LI":"七甲里","LIN":"18鄰","STREET":"南潭三街","SECT":" ","MAREA":" ","LANE":"１６２巷","ALLEY":"７弄","HOUSE_NO":"２０號","E_COORD97":176488.53,"N_COORD97":2543143.0299999998,"ADDRESS":"南潭三街１６２巷７弄２０號","OBJECTID":198105},"geometry":{"x":176488.53000000026,"y":2543143.0300000012}},{"attributes":{"ID":198107,"DIS_CODE":0,"TOWNNAME":"麻豆區","LI":"\u25A0江里","LIN":"21鄰","STREET":"信義路","SECT":" ","MAREA":" ","LANE":" ","ALLEY":" ","HOUSE_NO":"３６號之１４","E_COORD97":173589.76999999999,"N_COORD97":2564568.2200000002,"ADDRESS":"信義路３６號之１４","OBJECTID":198106},"geometry":{"x":173589.77000000142,"y":2564568.2200000007}},{"attributes":{"ID":198108,"DIS_CODE":0,"TOWNNAME":"南區","LI":"國宅里","LIN":"18鄰","STREET":"新興路","SECT":" ","MAREA":" ","LANE":"４１８巷","ALLEY":"１弄","HOUSE_NO":"３０號","E_COORD97":166609.01000000001,"N_COORD97":2541814.6000000001,"ADDRESS":"新興路４１８巷１弄３０號","OBJECTID":198107},"geometry":{"x":166609.00999999978,"y":2541814.5999999996}},{"attributes":{"ID":198109,"DIS_CODE":0,"TOWNNAME":"南區","LI":"國宅里","LIN":"18鄰","STREET":"新興路","SECT":" ","MAREA":" ","LANE":"４１８巷","ALLEY":"１弄","HOUSE_NO":"３２號","E_COORD97":166601.84,"N_COORD97":2541814.1099999999,"ADDRESS":"新興路４１８巷１弄３２號","OBJECTID":198108},"geometry":{"x":166601.83999999985,"y":2541814.1099999994}},{"attributes":{"ID":198110,"DIS_CODE":0,"TOWNNAME":"永康區","LI":"尚頂里","LIN":"21鄰","STREET":"南台街","SECT":" ","MAREA":" ","LANE":"１３巷","ALLEY":" ","HOUSE_NO":"８號","E_COORD97":170401.73999999999,"N_COORD97":2546914.9900000002,"ADDRESS":"南台街１３巷８號","OBJECTID":198109},"geometry":{"x":170401.74000000022,"y":2546914.9900000002}},{"attributes":{"ID":198111,"DIS_CODE":0,"TOWNNAME":"麻豆區","LI":"\u25A0江里","LIN":"21鄰","STREET":"信義路","SECT":" ","MAREA":" ","LANE":" ","ALLEY":" ","HOUSE_NO":"３６號之１５","E_COORD97":173589.89999999999,"N_COORD97":2564572.3500000001,"ADDRESS":"信義路３６號之１５","OBJECTID":198110},"geometry":{"x":173589.90000000224,"y":2564572.3499999996}},{"attributes":{"ID":198112,"DIS_CODE":0,"TOWNNAME":"麻豆區","LI":"\u25A0江里","LIN":"21鄰","STREET":"信義路","SECT":" ","MAREA":" ","LANE":" ","ALLEY":" ","HOUSE_NO":"３６號之１６","E_COORD97":173589.63,"N_COORD97":2564576.3199999998,"ADDRESS":"信義路３６號之１６","OBJECTID":198111},"geometry":{"x":173589.63000000082,"y":2564576.3200000022}},{"attributes":{"ID":198113,"DIS_CODE":0,"TOWNNAME":"大內區","LI":"環湖里","LIN":"3鄰","STREET":" ","SECT":" ","MAREA":"環湖","LANE":" ","ALLEY":" ","HOUSE_NO":"２１號之１","E_COORD97":190734.78,"N_COORD97":2560276.2999999998,"ADDRESS":"環湖２１號之１","OBJECTID":198112},"geometry":{"x":190734.78000000119,"y":2560276.2999999989}},{"attributes":{"ID":198114,"DIS_CODE":0,"TOWNNAME":"大內區","LI":"環湖里","LIN":"3鄰","STREET":" ","SECT":" ","MAREA":"環湖","LANE":" ","ALLEY":" ","HOUSE_NO":"２６號","E_COORD97":190536.94,"N_COORD97":2560636.25,"ADDRESS":"環湖２６號","OBJECTID":198113},"geometry":{"x":190536.94000000134,"y":2560636.2500000019}},{"attributes":{"ID":198115,"DIS_CODE":0,"TOWNNAME":"大內區","LI":"環湖里","LIN":"3鄰","STREET":" ","SECT":" ","MAREA":"環湖","LANE":" ","ALLEY":" ","HOUSE_NO":"２４號之５","E_COORD97":190575.73000000001,"N_COORD97":2560620.2999999998,"ADDRESS":"環湖２４號之５","OBJECTID":198114},"geometry":{"x":190575.73000000138,"y":2560620.3000000026}},{"attributes":{"ID":198116,"DIS_CODE":0,"TOWNNAME":"大內區","LI":"環湖里","LIN":"3鄰","STREET":" ","SECT":" ","MAREA":"環湖","LANE":" ","ALLEY":" ","HOUSE_NO":"３２號之５","E_COORD97":190494.23000000001,"N_COORD97":2560679.2999999998,"ADDRESS":"環湖３２號之５","OBJECTID":198115},"geometry":{"x":190494.23000000138,"y":2560679.3000000007}},{"attributes":{"ID":198117,"DIS_CODE":0,"TOWNNAME":"大內區","LI":"環湖里","LIN":"3鄰","STREET":" ","SECT":" ","MAREA":"環湖","LANE":" ","ALLEY":" ","HOUSE_NO":"２２號之１","E_COORD97":190721.78,"N_COORD97":2560489.2999999998,"ADDRESS":"環湖２２號之１","OBJECTID":198116},"geometry":{"x":190721.78000000026,"y":2560489.3000000007}},{"attributes":{"ID":198118,"DIS_CODE":0,"TOWNNAME":"大內區","LI":"二溪里","LIN":"3鄰","STREET":" ","SECT":" ","MAREA":"二重溪","LANE":" ","ALLEY":" ","HOUSE_NO":"１６５號","E_COORD97":187740.23999999999,"N_COORD97":2558096.3100000001,"ADDRESS":"二重溪１６５號","OBJECTID":198117},"geometry":{"x":187740.24000000022,"y":2558096.3100000042}},{"attributes":{"ID":198119,"DIS_CODE":0,"TOWNNAME":"大內區","LI":"環湖里","LIN":"3鄰","STREET":" ","SECT":" ","MAREA":"環湖","LANE":" ","ALLEY":" ","HOUSE_NO":"２４號","E_COORD97":190583.04000000001,"N_COORD97":2560610.25,"ADDRESS":"環湖２４號","OBJECTID":198118},"geometry":{"x":190583.04000000097,"y":2560610.25}},{"attributes":{"ID":198120,"DIS_CODE":0,"TOWNNAME":"大內區","LI":"二溪里","LIN":"3鄰","STREET":" ","SECT":" ","MAREA":"二重溪","LANE":" ","ALLEY":" ","HOUSE_NO":"１５５號之５","E_COORD97":187743.73000000001,"N_COORD97":2557976.3100000001,"ADDRESS":"二重溪１５５號之５","OBJECTID":198119},"geometry":{"x":187743.73000000045,"y":2557976.3100000005}},{"attributes":{"ID":198121,"DIS_CODE":0,"TOWNNAME":"大內區","LI":"二溪里","LIN":"3鄰","STREET":" ","SECT":" ","MAREA":"二重溪","LANE":" ","ALLEY":" ","HOUSE_NO":"１５４之１０１號","E_COORD97":188829.14000000001,"N_COORD97":2557832.3100000001,"ADDRESS":"二重溪１５４之１０１號","OBJECTID":198120},"geometry":{"x":188829.1400000006,"y":2557832.3100000024}},{"attributes":{"ID":198122,"DIS_CODE":0,"TOWNNAME":"大內區","LI":"二溪里","LIN":"3鄰","STREET":" ","SECT":" ","MAREA":"二重溪","LANE":" ","ALLEY":" ","HOUSE_NO":"１５４號之７","E_COORD97":188024.506528,"N_COORD97":2558028.8331399998,"ADDRESS":"二重溪１５４號之７","OBJECTID":198121},"geometry":{"x":188024.50652800128,"y":2558028.8331409991}},{"attributes":{"ID":198123,"DIS_CODE":0,"TOWNNAME":"大內區","LI":"二溪里","LIN":"3鄰","STREET":" ","SECT":" ","MAREA":"二重溪","LANE":" ","ALLEY":" ","HOUSE_NO":"１６１號之３","E_COORD97":187747.26999999999,"N_COORD97":2558055.3100000001,"ADDRESS":"二重溪１６１號之３","OBJECTID":198122},"geometry":{"x":187747.26999999955,"y":2558055.3099999987}},{"attributes":{"ID":198124,"DIS_CODE":0,"TOWNNAME":"大內區","LI":"曲溪里","LIN":"3鄰","STREET":" ","SECT":" ","MAREA":"二重溪","LANE":" ","ALLEY":" ","HOUSE_NO":"２８號","E_COORD97":187442.09,"N_COORD97":2557569.3100000001,"ADDRESS":"二重溪２８號","OBJECTID":198123},"geometry":{"x":187442.08999999985,"y":2557569.3100000005}},{"attributes":{"ID":198125,"DIS_CODE":0,"TOWNNAME":"大內區","LI":"頭社里","LIN":"3鄰","STREET":" ","SECT":" ","MAREA":"頭社","LANE":" ","ALLEY":" ","HOUSE_NO":"４０號","E_COORD97":187140.64000000001,"N_COORD97":2560326.25,"ADDRESS":"頭社４０號","OBJECTID":198124},"geometry":{"x":187140.6400000006,"y":2560326.25}},{"attributes":{"ID":198126,"DIS_CODE":0,"TOWNNAME":"大內區","LI":"頭社里","LIN":"3鄰","STREET":" ","SECT":" ","MAREA":"頭社","LANE":" ","ALLEY":" ","HOUSE_NO":"３３號","E_COORD97":187089.54000000001,"N_COORD97":2560276.25,"ADDRESS":"頭社３３號","OBJECTID":198125},"geometry":{"x":187089.54000000097,"y":2560276.2500000037}},{"attributes":{"ID":198127,"DIS_CODE":0,"TOWNNAME":"大內區","LI":"石林里","LIN":"3鄰","STREET":" ","SECT":" ","MAREA":"石子瀨","LANE":" ","ALLEY":" ","HOUSE_NO":"１４６號","E_COORD97":184077.17000000001,"N_COORD97":2558066.25,"ADDRESS":"石子瀨１４６號","OBJECTID":198126},"geometry":{"x":184077.16999999993,"y":2558066.2500000019}},{"attributes":{"ID":198128,"DIS_CODE":0,"TOWNNAME":"大內區","LI":"石城里","LIN":"3鄰","STREET":" ","SECT":" ","MAREA":"石子瀨","LANE":" ","ALLEY":" ","HOUSE_NO":"２７號","E_COORD97":184327.82000000001,"N_COORD97":2557942.25,"ADDRESS":"石子瀨２７號","OBJECTID":198127},"geometry":{"x":184327.82000000123,"y":2557942.25}},{"attributes":{"ID":198129,"DIS_CODE":0,"TOWNNAME":"大內區","LI":"頭社里","LIN":"3鄰","STREET":" ","SECT":" ","MAREA":"頭社","LANE":" ","ALLEY":" ","HOUSE_NO":"４２號之２","E_COORD97":187183.60999999999,"N_COORD97":2560348.2999999998,"ADDRESS":"頭社４２號之２","OBJECTID":198128},"geometry":{"x":187183.61000000034,"y":2560348.3000000026}},{"attributes":{"ID":198130,"DIS_CODE":0,"TOWNNAME":"麻豆區","LI":"南勢里","LIN":"21鄰","STREET":" ","SECT":" ","MAREA":"南勢","LANE":" ","ALLEY":" ","HOUSE_NO":"４４號","E_COORD97":174473.95000000001,"N_COORD97":2564957.98,"ADDRESS":"南勢４４號","OBJECTID":198129},"geometry":{"x":174473.95000000019,"y":2564957.9800000023}},{"attributes":{"ID":198131,"DIS_CODE":0,"TOWNNAME":"仁德區","LI":"仁愛里","LIN":"21鄰","STREET":" ","SECT":" ","MAREA":"仁愛","LANE":" ","ALLEY":" ","HOUSE_NO":"４４２號","E_COORD97":170155.37740299999,"N_COORD97":2540107.8500000001,"ADDRESS":"仁愛４４２號","OBJECTID":198130},"geometry":{"x":170155.3774030013,"y":2540107.8499999996}},{"attributes":{"ID":198132,"DIS_CODE":0,"TOWNNAME":"仁德區","LI":"仁愛里","LIN":"21鄰","STREET":" ","SECT":" ","MAREA":"仁愛","LANE":" ","ALLEY":" ","HOUSE_NO":"４４１號","E_COORD97":170158.55552200001,"N_COORD97":2540107.8500000001,"ADDRESS":"仁愛４４１號","OBJECTID":198131},"geometry":{"x":170158.55552200135,"y":2540107.8499999996}},{"attributes":{"ID":198133,"DIS_CODE":0,"TOWNNAME":"南區","LI":"國宅里","LIN":"18鄰","STREET":"新興路","SECT":" ","MAREA":" ","LANE":"４１８巷","ALLEY":"１弄","HOUSE_NO":"３４號","E_COORD97":166593.67000000001,"N_COORD97":2541814.8500000001,"ADDRESS":"新興路４１８巷１弄３４號","OBJECTID":198132},"geometry":{"x":166593.67000000086,"y":2541814.8500000015}},{"attributes":{"ID":198134,"DIS_CODE":0,"TOWNNAME":"仁德區","LI":"仁愛里","LIN":"21鄰","STREET":" ","SECT":" ","MAREA":"仁愛","LANE":" ","ALLEY":" ","HOUSE_NO":"４３１號","E_COORD97":170117.781219,"N_COORD97":2540132.7967500002,"ADDRESS":"仁愛４３１號","OBJECTID":198133},"geometry":{"x":170117.781219,"y":2540132.7967510018}},{"attributes":{"ID":198135,"DIS_CODE":0,"TOWNNAME":"安平區","LI":"建平里","LIN":"18鄰","STREET":"怡平路","SECT":" ","MAREA":" ","LANE":"１４０巷","ALLEY":"３７弄","HOUSE_NO":"６號","E_COORD97":165895.26999999999,"N_COORD97":2543911.0800000001,"ADDRESS":"怡平路１４０巷３７弄６號","OBJECTID":198134},"geometry":{"x":165895.26999999862,"y":2543911.0800000001}},{"attributes":{"ID":198136,"DIS_CODE":0,"TOWNNAME":"安平區","LI":"建平里","LIN":"18鄰","STREET":"怡平路","SECT":" ","MAREA":" ","LANE":"１４０巷","ALLEY":"３７弄","HOUSE_NO":"８號","E_COORD97":165890.35000000001,"N_COORD97":2543911.8799999999,"ADDRESS":"怡平路１４０巷３７弄８號","OBJECTID":198135},"geometry":{"x":165890.35000000056,"y":2543911.8799999971}},{"attributes":{"ID":198137,"DIS_CODE":0,"TOWNNAME":"麻豆區","LI":"\u25A0江里","LIN":"21鄰","STREET":"信義路","SECT":" ","MAREA":" ","LANE":" ","ALLEY":" ","HOUSE_NO":"３６號之６","E_COORD97":173614.53,"N_COORD97":2564583.3999999999,"ADDRESS":"信義路３６號之６","OBJECTID":198136},"geometry":{"x":173614.53000000119,"y":2564583.4000000004}},{"attributes":{"ID":198138,"DIS_CODE":0,"TOWNNAME":"仁德區","LI":"仁愛里","LIN":"21鄰","STREET":" ","SECT":" ","MAREA":"仁愛","LANE":" ","ALLEY":" ","HOUSE_NO":"４４５號","E_COORD97":170146.37273,"N_COORD97":2540107.8500000001,"ADDRESS":"仁愛４４５號","OBJECTID":198137},"geometry":{"x":170146.37273000088,"y":2540107.8499999996}},{"attributes":{"ID":198139,"DIS_CODE":0,"TOWNNAME":"大內區","LI":"石林里","LIN":"3鄰","STREET":" ","SECT":" ","MAREA":"石子瀨","LANE":" ","ALLEY":" ","HOUSE_NO":"１５４號","E_COORD97":184088.07000000001,"N_COORD97":2558098.25,"ADDRESS":"石子瀨１５４號","OBJECTID":198138},"geometry":{"x":184088.0700000003,"y":2558098.25}},{"attributes":{"ID":198140,"DIS_CODE":0,"TOWNNAME":"麻豆區","LI":"\u25A0江里","LIN":"21鄰","STREET":"信義路","SECT":" ","MAREA":" ","LANE":" ","ALLEY":" ","HOUSE_NO":"３６號之７","E_COORD97":173610.04999999999,"N_COORD97":2564581.5,"ADDRESS":"信義路３６號之７","OBJECTID":198139},"geometry":{"x":173610.04999999981,"y":2564581.5000000019}},{"attributes":{"ID":198141,"DIS_CODE":0,"TOWNNAME":"安平區","LI":"建平里","LIN":"18鄰","STREET":"怡平路","SECT":" ","MAREA":" ","LANE":"１４０巷","ALLEY":"３７弄","HOUSE_NO":"１０號","E_COORD97":165885.75,"N_COORD97":2543912.6699999999,"ADDRESS":"怡平路１４０巷３７弄１０號","OBJECTID":198140},"geometry":{"x":165885.75000000186,"y":2543912.6700000018}},{"attributes":{"ID":198142,"DIS_CODE":0,"TOWNNAME":"麻豆區","LI":"\u25A0江里","LIN":"21鄰","STREET":"信義路","SECT":" ","MAREA":" ","LANE":" ","ALLEY":" ","HOUSE_NO":"３６號之８","E_COORD97":173605.73000000001,"N_COORD97":2564579.8100000001,"ADDRESS":"信義路３６號之８","OBJECTID":198141},"geometry":{"x":173605.73000000045,"y":2564579.8100000024}},{"attributes":{"ID":198143,"DIS_CODE":0,"TOWNNAME":"大內區","LI":"石林里","LIN":"3鄰","STREET":" ","SECT":" ","MAREA":"石子瀨","LANE":" ","ALLEY":" ","HOUSE_NO":"１５２號","E_COORD97":184123.37,"N_COORD97":2558090.25,"ADDRESS":"石子瀨１５２號","OBJECTID":198142},"geometry":{"x":184123.37000000011,"y":2558090.2500000019}},{"attributes":{"ID":198144,"DIS_CODE":0,"TOWNNAME":"麻豆區","LI":"\u25A0江里","LIN":"21鄰","STREET":"信義路","SECT":" ","MAREA":" ","LANE":" ","ALLEY":" ","HOUSE_NO":"３８號","E_COORD97":173596.17000000001,"N_COORD97":2564606.8799999999,"ADDRESS":"信義路３８號","OBJECTID":198143},"geometry":{"x":173596.17000000086,"y":2564606.8800000027}},{"attributes":{"ID":198145,"DIS_CODE":0,"TOWNNAME":"大內區","LI":"環湖里","LIN":"3鄰","STREET":" ","SECT":" ","MAREA":"環湖","LANE":" ","ALLEY":" ","HOUSE_NO":"２７號之１","E_COORD97":190584.98000000001,"N_COORD97":2560671.2999999998,"ADDRESS":"環湖２７號之１","OBJECTID":198144},"geometry":{"x":190584.98000000045,"y":2560671.3000000026}},{"attributes":{"ID":198146,"DIS_CODE":0,"TOWNNAME":"大內區","LI":"曲溪里","LIN":"3鄰","STREET":" ","SECT":" ","MAREA":"二重溪","LANE":" ","ALLEY":" ","HOUSE_NO":"３０號","E_COORD97":187412.59,"N_COORD97":2557562.3100000001,"ADDRESS":"二重溪３０號","OBJECTID":198145},"geometry":{"x":187412.59000000078,"y":2557562.3100000005}},{"attributes":{"ID":198147,"DIS_CODE":0,"TOWNNAME":"大內區","LI":"頭社里","LIN":"3鄰","STREET":" ","SECT":" ","MAREA":"頭社","LANE":" ","ALLEY":" ","HOUSE_NO":"４０號之２","E_COORD97":187137.91,"N_COORD97":2560322.2999999998,"ADDRESS":"頭社４０號之２","OBJECTID":198146},"geometry":{"x":187137.91000000108,"y":2560322.3000000007}},{"attributes":{"ID":198148,"DIS_CODE":0,"TOWNNAME":"大內區","LI":"曲溪里","LIN":"3鄰","STREET":" ","SECT":" ","MAREA":"二重溪","LANE":" ","ALLEY":" ","HOUSE_NO":"２７號之２","E_COORD97":187440.95999999999,"N_COORD97":2557630.3100000001,"ADDRESS":"二重溪２７號之２","OBJECTID":198147},"geometry":{"x":187440.96000000089,"y":2557630.3100000005}},{"attributes":{"ID":198149,"DIS_CODE":0,"TOWNNAME":"北區","LI":"大豐里","LIN":"18鄰","STREET":"大興街","SECT":" ","MAREA":" ","LANE":"２３３巷","ALLEY":"６弄","HOUSE_NO":"８號","E_COORD97":166815.22,"N_COORD97":2545660.98,"ADDRESS":"大興街２３３巷６弄８號","OBJECTID":198148},"geometry":{"x":166815.22000000067,"y":2545660.9800000004}},{"attributes":{"ID":198150,"DIS_CODE":0,"TOWNNAME":"安平區","LI":"建平里","LIN":"18鄰","STREET":"怡平路","SECT":" ","MAREA":" ","LANE":"１４０巷","ALLEY":"３７弄","HOUSE_NO":"１２號","E_COORD97":165882.10000000001,"N_COORD97":2543913.6200000001,"ADDRESS":"怡平路１４０巷３７弄１２號","OBJECTID":198149},"geometry":{"x":165882.10000000056,"y":2543913.6200000029}},{"attributes":{"ID":198151,"DIS_CODE":0,"TOWNNAME":"大內區","LI":"石城里","LIN":"3鄰","STREET":" ","SECT":" ","MAREA":"石子瀨","LANE":" ","ALLEY":" ","HOUSE_NO":"２２號","E_COORD97":184250.22,"N_COORD97":2557927.25,"ADDRESS":"石子瀨２２號","OBJECTID":198150},"geometry":{"x":184250.22000000067,"y":2557927.2500000019}},{"attributes":{"ID":198152,"DIS_CODE":0,"TOWNNAME":"大內區","LI":"曲溪里","LIN":"3鄰","STREET":" ","SECT":" ","MAREA":"二重溪","LANE":" ","ALLEY":" ","HOUSE_NO":"２５號","E_COORD97":187420.59,"N_COORD97":2557570.3100000001,"ADDRESS":"二重溪２５號","OBJECTID":198151},"geometry":{"x":187420.58999999892,"y":2557570.3100000005}},{"attributes":{"ID":198153,"DIS_CODE":0,"TOWNNAME":"安平區","LI":"建平里","LIN":"18鄰","STREET":"怡平路","SECT":" ","MAREA":" ","LANE":"１４０巷","ALLEY":"３７弄","HOUSE_NO":"１６號","E_COORD97":165877.32999999999,"N_COORD97":2543914.1000000001,"ADDRESS":"怡平路１４０巷３７弄１６號","OBJECTID":198152},"geometry":{"x":165877.33000000101,"y":2543914.0999999996}},{"attributes":{"ID":198154,"DIS_CODE":0,"TOWNNAME":"安平區","LI":"建平里","LIN":"18鄰","STREET":"怡平路","SECT":" ","MAREA":" ","LANE":"１４０巷","ALLEY":"３７弄","HOUSE_NO":"１８號","E_COORD97":165873.20999999999,"N_COORD97":2543914.8900000001,"ADDRESS":"怡平路１４０巷３７弄１８號","OBJECTID":198153},"geometry":{"x":165873.21000000089,"y":2543914.8900000025}},{"attributes":{"ID":198155,"DIS_CODE":0,"TOWNNAME":"大內區","LI":"頭社里","LIN":"3鄰","STREET":" ","SECT":" ","MAREA":"頭社","LANE":" ","ALLEY":" ","HOUSE_NO":"４１號之７","E_COORD97":187172.14999999999,"N_COORD97":2560427.2999999998,"ADDRESS":"頭社４１號之７","OBJECTID":198154},"geometry":{"x":187172.1500000013,"y":2560427.3000000026}},{"attributes":{"ID":198156,"DIS_CODE":0,"TOWNNAME":"安平區","LI":"建平里","LIN":"18鄰","STREET":"怡平路","SECT":" ","MAREA":" ","LANE":"１４０巷","ALLEY":"３７弄","HOUSE_NO":"２８號","E_COORD97":165855.73999999999,"N_COORD97":2543918.0699999998,"ADDRESS":"怡平路１４０巷３７弄２８號","OBJECTID":198155},"geometry":{"x":165855.74000000115,"y":2543918.0700000003}},{"attributes":{"ID":198157,"DIS_CODE":0,"TOWNNAME":"大內區","LI":"曲溪里","LIN":"3鄰","STREET":" ","SECT":" ","MAREA":"二重溪","LANE":" ","ALLEY":" ","HOUSE_NO":"２８之１號","E_COORD97":187421.19,"N_COORD97":2557508.3100000001,"ADDRESS":"二重溪２８之１號","OBJECTID":198156},"geometry":{"x":187421.19000000134,"y":2557508.3100000005}},{"attributes":{"ID":198158,"DIS_CODE":0,"TOWNNAME":"大內區","LI":"頭社里","LIN":"3鄰","STREET":" ","SECT":" ","MAREA":"頭社","LANE":" ","ALLEY":" ","HOUSE_NO":"３８號之１","E_COORD97":187123.48000000001,"N_COORD97":2560286.2999999998,"ADDRESS":"頭社３８號之１","OBJECTID":198157},"geometry":{"x":187123.48000000045,"y":2560286.3000000007}},{"attributes":{"ID":198159,"DIS_CODE":0,"TOWNNAME":"大內區","LI":"石林里","LIN":"3鄰","STREET":" ","SECT":" ","MAREA":"石子瀨","LANE":" ","ALLEY":" ","HOUSE_NO":"１４８號","E_COORD97":184090.17000000001,"N_COORD97":2558064.25,"ADDRESS":"石子瀨１４８號","OBJECTID":198158},"geometry":{"x":184090.16999999993,"y":2558064.25}},{"attributes":{"ID":198160,"DIS_CODE":0,"TOWNNAME":"仁德區","LI":"土庫里","LIN":"21鄰","STREET":"太子二街","SECT":" ","MAREA":" ","LANE":" ","ALLEY":" ","HOUSE_NO":"１２８號","E_COORD97":174466.45999999999,"N_COORD97":2543275.25,"ADDRESS":"太子二街１２８號","OBJECTID":198159},"geometry":{"x":174466.45999999996,"y":2543275.25}},{"attributes":{"ID":198161,"DIS_CODE":0,"TOWNNAME":"仁德區","LI":"大甲里","LIN":"21鄰","STREET":"行大街","SECT":" ","MAREA":" ","LANE":" ","ALLEY":" ","HOUSE_NO":"４０８號","E_COORD97":169470.60000000001,"N_COORD97":2535279.7400000002,"ADDRESS":"行大街４０８號","OBJECTID":198160},"geometry":{"x":169470.60000000056,"y":2535279.7400000021}},{"attributes":{"ID":198162,"DIS_CODE":0,"TOWNNAME":"仁德區","LI":"土庫里","LIN":"21鄰","STREET":"太子二街","SECT":" ","MAREA":" ","LANE":" ","ALLEY":" ","HOUSE_NO":"１６５號","E_COORD97":174518.48999999999,"N_COORD97":2543258,"ADDRESS":"太子二街１６５號","OBJECTID":198161},"geometry":{"x":174518.49000000115,"y":2543258.0000000037}},{"attributes":{"ID":198163,"DIS_CODE":0,"TOWNNAME":"仁德區","LI":"大甲里","LIN":"21鄰","STREET":"行大街","SECT":" ","MAREA":" ","LANE":" ","ALLEY":" ","HOUSE_NO":"４０８之５號","E_COORD97":169452.84,"N_COORD97":2535291.04,"ADDRESS":"行大街４０８之５號","OBJECTID":198162},"geometry":{"x":169452.83999999985,"y":2535291.040000001}},{"attributes":{"ID":198164,"DIS_CODE":0,"TOWNNAME":"仁德區","LI":"大甲里","LIN":"21鄰","STREET":"行大街","SECT":" ","MAREA":" ","LANE":" ","ALLEY":" ","HOUSE_NO":"４０８之３號","E_COORD97":169462.45999999999,"N_COORD97":2535287.29,"ADDRESS":"行大街４０８之３號","OBJECTID":198163},"geometry":{"x":169462.45999999996,"y":2535287.2899999991}},{"attributes":{"ID":198165,"DIS_CODE":0,"TOWNNAME":"仁德區","LI":"土庫里","LIN":"21鄰","STREET":"太子二街","SECT":" ","MAREA":" ","LANE":" ","ALLEY":" ","HOUSE_NO":"１３０號","E_COORD97":174485.89999999999,"N_COORD97":2543271.75,"ADDRESS":"太子二街１３０號","OBJECTID":198164},"geometry":{"x":174485.90000000037,"y":2543271.75}},{"attributes":{"ID":198166,"DIS_CODE":0,"TOWNNAME":"仁德區","LI":"仁義里","LIN":"21鄰","STREET":"中山路","SECT":" ","MAREA":" ","LANE":" ","ALLEY":" ","HOUSE_NO":"３５４號","E_COORD97":173883.03,"N_COORD97":2541272.25,"ADDRESS":"中山路３５４號","OBJECTID":198165},"geometry":{"x":173883.03000000026,"y":2541272.25}},{"attributes":{"ID":198167,"DIS_CODE":0,"TOWNNAME":"安平區","LI":"建平里","LIN":"18鄰","STREET":"怡平路","SECT":" ","MAREA":" ","LANE":"１４０巷","ALLEY":"３７弄","HOUSE_NO":"２０號","E_COORD97":165869.07999999999,"N_COORD97":2543916,"ADDRESS":"怡平路１４０巷３７弄２０號","OBJECTID":198166},"geometry":{"x":165869.08000000101,"y":2543916.0000000037}},{"attributes":{"ID":198168,"DIS_CODE":0,"TOWNNAME":"安平區","LI":"建平里","LIN":"18鄰","STREET":"怡平路","SECT":" ","MAREA":" ","LANE":"１４０巷","ALLEY":"３７弄","HOUSE_NO":"２２號","E_COORD97":165864.16,"N_COORD97":2543916.6400000001,"ADDRESS":"怡平路１４０巷３７弄２２號","OBJECTID":198167},"geometry":{"x":165864.16000000015,"y":2543916.6400000025}},{"attributes":{"ID":198169,"DIS_CODE":0,"TOWNNAME":"安平區","LI":"建平里","LIN":"18鄰","STREET":"怡平路","SECT":" ","MAREA":" ","LANE":"１４０巷","ALLEY":"３７弄","HOUSE_NO":"２６號","E_COORD97":165859.70999999999,"N_COORD97":2543916.6400000001,"ADDRESS":"怡平路１４０巷３７弄２６號","OBJECTID":198168},"geometry":{"x":165859.71000000089,"y":2543916.6400000025}},{"attributes":{"ID":198170,"DIS_CODE":0,"TOWNNAME":"南區","LI":"大忠里","LIN":"18鄰","STREET":"大同路","SECT":"二段","MAREA":" ","LANE":"６４０巷","ALLEY":"５６弄","HOUSE_NO":"２號","E_COORD97":169358.44,"N_COORD97":2541042.46,"ADDRESS":"大同路二段６４０巷５６弄２號","OBJECTID":198169},"geometry":{"x":169358.44000000227,"y":2541042.4600000028}},{"attributes":{"ID":198171,"DIS_CODE":0,"TOWNNAME":"南區","LI":"大忠里","LIN":"18鄰","STREET":"大同路","SECT":"二段","MAREA":" ","LANE":"６４０巷","ALLEY":"５６弄","HOUSE_NO":"３號","E_COORD97":169333.79999999999,"N_COORD97":2541041.6299999999,"ADDRESS":"大同路二段６４０巷５６弄３號","OBJECTID":198170},"geometry":{"x":169333.80000000075,"y":2541041.629999999}},{"attributes":{"ID":198172,"DIS_CODE":0,"TOWNNAME":"仁德區","LI":"仁愛里","LIN":"21鄰","STREET":" ","SECT":" ","MAREA":"仁愛","LANE":" ","ALLEY":" ","HOUSE_NO":"４２９號","E_COORD97":170113.64966299999,"N_COORD97":2540149.2009100001,"ADDRESS":"仁愛４２９號","OBJECTID":198171},"geometry":{"x":170113.64966300037,"y":2540149.2009079996}},{"attributes":{"ID":198173,"DIS_CODE":0,"TOWNNAME":"南區","LI":"大忠里","LIN":"18鄰","STREET":"大同路","SECT":"二段","MAREA":" ","LANE":"６４０巷","ALLEY":"５６弄","HOUSE_NO":"６號","E_COORD97":169358.72,"N_COORD97":2541050.2799999998,"ADDRESS":"大同路二段６４０巷５６弄６號","OBJECTID":198172},"geometry":{"x":169358.71999999974,"y":2541050.2799999993}},{"attributes":{"ID":198174,"DIS_CODE":0,"TOWNNAME":"南區","LI":"大忠里","LIN":"18鄰","STREET":"大同路","SECT":"二段","MAREA":" ","LANE":"６４０巷","ALLEY":"５６弄","HOUSE_NO":"７號","E_COORD97":169332.12,"N_COORD97":2541054.7400000002,"ADDRESS":"大同路二段６４０巷５６弄７號","OBJECTID":198173},"geometry":{"x":169332.12000000104,"y":2541054.7400000002}},{"attributes":{"ID":198175,"DIS_CODE":0,"TOWNNAME":"南區","LI":"大忠里","LIN":"18鄰","STREET":"大同路","SECT":"二段","MAREA":" ","LANE":"６４０巷","ALLEY":"５６弄","HOUSE_NO":"８號","E_COORD97":169360.39999999999,"N_COORD97":2541067.02,"ADDRESS":"大同路二段６４０巷５６弄８號","OBJECTID":198174},"geometry":{"x":169360.40000000224,"y":2541067.0199999977}},{"attributes":{"ID":198176,"DIS_CODE":0,"TOWNNAME":"南區","LI":"大忠里","LIN":"18鄰","STREET":"大同路","SECT":"二段","MAREA":" ","LANE":"６４０巷","ALLEY":"５６弄","HOUSE_NO":"９號","E_COORD97":169334.64000000001,"N_COORD97":2541065.3500000001,"ADDRESS":"大同路二段６４０巷５６弄９號","OBJECTID":198175},"geometry":{"x":169334.6400000006,"y":2541065.3500000015}},{"attributes":{"ID":198177,"DIS_CODE":0,"TOWNNAME":"仁德區","LI":"仁愛里","LIN":"21鄰","STREET":" ","SECT":" ","MAREA":"仁愛","LANE":" ","ALLEY":" ","HOUSE_NO":"４３６號","E_COORD97":170122.97214699999,"N_COORD97":2540124.1184200002,"ADDRESS":"仁愛４３６號","OBJECTID":198176},"geometry":{"x":170122.97214700095,"y":2540124.1184220016}},{"attributes":{"ID":198178,"DIS_CODE":0,"TOWNNAME":"南區","LI":"大忠里","LIN":"18鄰","STREET":"大同路","SECT":"二段","MAREA":" ","LANE":"６４０巷","ALLEY":"６８弄","HOUSE_NO":"１０號","E_COORD97":169319.81,"N_COORD97":2541067.02,"ADDRESS":"大同路二段６４０巷６８弄１０號","OBJECTID":198177},"geometry":{"x":169319.81000000052,"y":2541067.0199999977}},{"attributes":{"ID":198179,"DIS_CODE":0,"TOWNNAME":"仁德區","LI":"仁愛里","LIN":"21鄰","STREET":" ","SECT":" ","MAREA":"仁愛","LANE":" ","ALLEY":" ","HOUSE_NO":"４４０號","E_COORD97":170157.93146399999,"N_COORD97":2540142.63925,"ADDRESS":"仁愛４４０號","OBJECTID":198178},"geometry":{"x":170157.93146399967,"y":2540142.6392449997}},{"attributes":{"ID":198180,"DIS_CODE":0,"TOWNNAME":"南區","LI":"大忠里","LIN":"18鄰","STREET":"大同路","SECT":"二段","MAREA":" ","LANE":"６４０巷","ALLEY":"６８弄","HOUSE_NO":"１１號","E_COORD97":169304.13,"N_COORD97":2541075.1200000001,"ADDRESS":"大同路二段６４０巷６８弄１１號","OBJECTID":198179},"geometry":{"x":169304.13000000175,"y":2541075.1200000048}},{"attributes":{"ID":198181,"DIS_CODE":0,"TOWNNAME":"南區","LI":"大忠里","LIN":"18鄰","STREET":"大同路","SECT":"二段","MAREA":" ","LANE":"６４０巷","ALLEY":"６８弄","HOUSE_NO":"１２號","E_COORD97":169317.85000000001,"N_COORD97":2541076.5099999998,"ADDRESS":"大同路二段６４０巷６８弄１２號","OBJECTID":198180},"geometry":{"x":169317.85000000056,"y":2541076.5099999998}},{"attributes":{"ID":198182,"DIS_CODE":0,"TOWNNAME":"仁德區","LI":"仁愛里","LIN":"21鄰","STREET":" ","SECT":" ","MAREA":"仁愛","LANE":" ","ALLEY":" ","HOUSE_NO":"４４７號","E_COORD97":170140.281334,"N_COORD97":2540107.8500000001,"ADDRESS":"仁愛４４７號","OBJECTID":198181},"geometry":{"x":170140.28133399971,"y":2540107.8499999996}},{"attributes":{"ID":198183,"DIS_CODE":0,"TOWNNAME":"大內區","LI":"石城里","LIN":"3鄰","STREET":" ","SECT":" ","MAREA":"石子瀨","LANE":" ","ALLEY":" ","HOUSE_NO":"２５號之２","E_COORD97":184294.79000000001,"N_COORD97":2557952.2999999998,"ADDRESS":"石子瀨２５號之２","OBJECTID":198182},"geometry":{"x":184294.79000000004,"y":2557952.3000000026}},{"attributes":{"ID":198184,"DIS_CODE":0,"TOWNNAME":"大內區","LI":"石城里","LIN":"3鄰","STREET":" ","SECT":" ","MAREA":"石子瀨","LANE":" ","ALLEY":" ","HOUSE_NO":"３１號之１","E_COORD97":184243.45000000001,"N_COORD97":2557956.2999999998,"ADDRESS":"石子瀨３１號之１","OBJECTID":198183},"geometry":{"x":184243.44999999925,"y":2557956.3000000007}},{"attributes":{"ID":198185,"DIS_CODE":0,"TOWNNAME":"大內區","LI":"頭社里","LIN":"3鄰","STREET":" ","SECT":" ","MAREA":"頭社","LANE":" ","ALLEY":" ","HOUSE_NO":"４１號之２","E_COORD97":187180.31,"N_COORD97":2560362.2999999998,"ADDRESS":"頭社４１號之２","OBJECTID":198184},"geometry":{"x":187180.31000000052,"y":2560362.3000000026}},{"attributes":{"ID":198186,"DIS_CODE":0,"TOWNNAME":"大內區","LI":"石城里","LIN":"3鄰","STREET":" ","SECT":" ","MAREA":"石子瀨","LANE":" ","ALLEY":" ","HOUSE_NO":"３２號","E_COORD97":184319.72,"N_COORD97":2558009.25,"ADDRESS":"石子瀨３２號","OBJECTID":198185},"geometry":{"x":184319.72000000067,"y":2558009.2500000019}},{"attributes":{"ID":198187,"DIS_CODE":0,"TOWNNAME":"大內區","LI":"頭社里","LIN":"3鄰","STREET":" ","SECT":" ","MAREA":"頭社","LANE":" ","ALLEY":" ","HOUSE_NO":"４１號","E_COORD97":187167.54000000001,"N_COORD97":2560305.25,"ADDRESS":"頭社４１號","OBJECTID":198186},"geometry":{"x":187167.54000000097,"y":2560305.25}},{"attributes":{"ID":198188,"DIS_CODE":0,"TOWNNAME":"大內區","LI":"石林里","LIN":"3鄰","STREET":" ","SECT":" ","MAREA":"石子瀨","LANE":" ","ALLEY":" ","HOUSE_NO":"１５３號","E_COORD97":184096.57000000001,"N_COORD97":2558095.25,"ADDRESS":"石子瀨１５３號","OBJECTID":198187},"geometry":{"x":184096.5700000003,"y":2558095.25}},{"attributes":{"ID":198189,"DIS_CODE":0,"TOWNNAME":"大內區","LI":"頭社里","LIN":"3鄰","STREET":" ","SECT":" ","MAREA":"頭社","LANE":" ","ALLEY":" ","HOUSE_NO":"４２號","E_COORD97":187178.84,"N_COORD97":2560308.25,"ADDRESS":"頭社４２號","OBJECTID":198188},"geometry":{"x":187178.84000000078,"y":2560308.25}},{"attributes":{"ID":198190,"DIS_CODE":0,"TOWNNAME":"南區","LI":"大忠里","LIN":"18鄰","STREET":"大同路","SECT":"二段","MAREA":" ","LANE":"６４０巷","ALLEY":"６８弄","HOUSE_NO":"１號","E_COORD97":169297.69,"N_COORD97":2541039.9500000002,"ADDRESS":"大同路二段６４０巷６８弄１號","OBJECTID":198189},"geometry":{"x":169297.69000000134,"y":2541039.9499999993}},{"attributes":{"ID":198191,"DIS_CODE":0,"TOWNNAME":"南區","LI":"大忠里","LIN":"18鄰","STREET":"大同路","SECT":"二段","MAREA":" ","LANE":"６４０巷","ALLEY":"６８弄","HOUSE_NO":"２號","E_COORD97":169316.17000000001,"N_COORD97":2541039.1099999999,"ADDRESS":"大同路二段６４０巷６８弄２號","OBJECTID":198190},"geometry":{"x":169316.17000000086,"y":2541039.1099999975}},{"attributes":{"ID":198192,"DIS_CODE":0,"TOWNNAME":"南區","LI":"大忠里","LIN":"18鄰","STREET":"大同路","SECT":"二段","MAREA":" ","LANE":"６４０巷","ALLEY":"６８弄","HOUSE_NO":"３號","E_COORD97":169298.81,"N_COORD97":2541047.4900000002,"ADDRESS":"大同路二段６４０巷６８弄３號","OBJECTID":198191},"geometry":{"x":169298.80999999959,"y":2541047.4900000002}},{"attributes":{"ID":198193,"DIS_CODE":0,"TOWNNAME":"南區","LI":"大忠里","LIN":"18鄰","STREET":"大同路","SECT":"二段","MAREA":" ","LANE":"６４０巷","ALLEY":"６８弄","HOUSE_NO":"４號","E_COORD97":169316.73000000001,"N_COORD97":2541046.3700000001,"ADDRESS":"大同路二段６４０巷６８弄４號","OBJECTID":198192},"geometry":{"x":169316.73000000045,"y":2541046.3700000029}},{"attributes":{"ID":198194,"DIS_CODE":0,"TOWNNAME":"南區","LI":"大忠里","LIN":"18鄰","STREET":"大同路","SECT":"二段","MAREA":" ","LANE":"６４０巷","ALLEY":"６８弄","HOUSE_NO":"５號","E_COORD97":169299.64999999999,"N_COORD97":2541054.1899999999,"ADDRESS":"大同路二段６４０巷６８弄５號","OBJECTID":198193},"geometry":{"x":169299.6500000013,"y":2541054.1899999995}},{"attributes":{"ID":198195,"DIS_CODE":0,"TOWNNAME":"東區","LI":"中西里","LIN":"21鄰","STREET":"長榮路","SECT":"二段","MAREA":" ","LANE":" ","ALLEY":" ","HOUSE_NO":"６６號","E_COORD97":169981.70000000001,"N_COORD97":2543182.6099999999,"ADDRESS":"長榮路二段６６號","OBJECTID":198194},"geometry":{"x":169981.70000000019,"y":2543182.6100000013}},{"attributes":{"ID":198196,"DIS_CODE":0,"TOWNNAME":"東區","LI":"中西里","LIN":"21鄰","STREET":"長榮路","SECT":"二段","MAREA":" ","LANE":" ","ALLEY":" ","HOUSE_NO":"８０號","E_COORD97":169988.26999999999,"N_COORD97":2543205.04,"ADDRESS":"長榮路二段８０號","OBJECTID":198195},"geometry":{"x":169988.27000000048,"y":2543205.0399999991}},{"attributes":{"ID":198197,"DIS_CODE":0,"TOWNNAME":"大內區","LI":"頭社里","LIN":"3鄰","STREET":" ","SECT":" ","MAREA":"頭社","LANE":" ","ALLEY":" ","HOUSE_NO":"４３號","E_COORD97":187176.23999999999,"N_COORD97":2560307.25,"ADDRESS":"頭社４３號","OBJECTID":198196},"geometry":{"x":187176.24000000115,"y":2560307.2500000019}},{"attributes":{"ID":198198,"DIS_CODE":0,"TOWNNAME":"東區","LI":"中西里","LIN":"21鄰","STREET":"長榮路","SECT":"二段","MAREA":" ","LANE":" ","ALLEY":" ","HOUSE_NO":"８２號","E_COORD97":169992.17000000001,"N_COORD97":2543212.4700000002,"ADDRESS":"長榮路二段８２號","OBJECTID":198197},"geometry":{"x":169992.17000000086,"y":2543212.4700000025}},{"attributes":{"ID":198199,"DIS_CODE":0,"TOWNNAME":"東區","LI":"中西里","LIN":"21鄰","STREET":"長榮路","SECT":"二段","MAREA":" ","LANE":" ","ALLEY":" ","HOUSE_NO":"８８號","E_COORD97":170000.16,"N_COORD97":2543237.8199999998,"ADDRESS":"長榮路二段８８號","OBJECTID":198198},"geometry":{"x":170000.16000000015,"y":2543237.8200000003}},{"attributes":{"ID":198200,"DIS_CODE":0,"TOWNNAME":"南區","LI":"大忠里","LIN":"18鄰","STREET":"大同路","SECT":"二段","MAREA":" ","LANE":"６４０巷","ALLEY":"６８弄","HOUSE_NO":"６號","E_COORD97":169317.85000000001,"N_COORD97":2541053.6299999999,"ADDRESS":"大同路二段６４０巷６８弄６號","OBJECTID":198199},"geometry":{"x":169317.85000000056,"y":2541053.6300000008}},{"attributes":{"ID":198201,"DIS_CODE":0,"TOWNNAME":"南區","LI":"大忠里","LIN":"18鄰","STREET":"大同路","SECT":"二段","MAREA":" ","LANE":"６４０巷","ALLEY":"６８弄","HOUSE_NO":"７號","E_COORD97":169301.04999999999,"N_COORD97":2541061.4399999999,"ADDRESS":"大同路二段６４０巷６８弄７號","OBJECTID":198200},"geometry":{"x":169301.05000000168,"y":2541061.4400000013}}]}