{"displayFieldName":"TOWNNAME","fieldAliases":{"ID":"ID","DIS_CODE":"DIS_CODE","TOWNNAME":"TOWNNAME","LI":"LI","LIN":"LIN","STREET":"STREET","SECT":"SECT","MAREA":"MAREA","LANE":"LANE","ALLEY":"ALLEY","HOUSE_NO":"HOUSE_NO","E_COORD97":"E_COORD97","N_COORD97":"N_COORD97","ADDRESS":"ADDRESS","OBJECTID":"OBJECTID"},"geometryType":"esriGeometryPoint","spatialReference":{"wkid":102443,"latestWkid":3826},"fields":[{"name":"ID","type":"esriFieldTypeDouble","alias":"ID"},{"name":"DIS_CODE","type":"esriFieldTypeInteger","alias":"DIS_CODE"},{"name":"TOWNNAME","type":"esriFieldTypeString","alias":"TOWNNAME","length":8},{"name":"LI","type":"esriFieldTypeString","alias":"LI","length":8},{"name":"LIN","type":"esriFieldTypeString","alias":"LIN","length":12},{"name":"STREET","type":"esriFieldTypeString","alias":"STREET","length":20},{"name":"SECT","type":"esriFieldTypeString","alias":"SECT","length":8},{"name":"MAREA","type":"esriFieldTypeString","alias":"MAREA","length":12},{"name":"LANE","type":"esriFieldTypeString","alias":"LANE","length":10},{"name":"ALLEY","type":"esriFieldTypeString","alias":"ALLEY","length":10},{"name":"HOUSE_NO","type":"esriFieldTypeString","alias":"HOUSE_NO","length":20},{"name":"E_COORD97","type":"esriFieldTypeDouble","alias":"E_COORD97"},{"name":"N_COORD97","type":"esriFieldTypeDouble","alias":"N_COORD97"},{"name":"ADDRESS","type":"esriFieldTypeString","alias":"ADDRESS","length":50},{"name":"OBJECTID","type":"esriFieldTypeOID","alias":"OBJECTID"}],"features":[{"attributes":{"ID":5401,"DIS_CODE":0,"TOWNNAME":"安南區","LI":"安順里","LIN":"11鄰","STREET":"安和路","SECT":"四段","MAREA":" ","LANE":"９４巷","ALLEY":"４３弄","HOUSE_NO":"３３號","E_COORD97":170246.18520400001,"N_COORD97":2550297.87323,"ADDRESS":"安和路四段９４巷４３弄３３號","OBJECTID":5401},"geometry":{"x":170246.18520400021,"y":2550297.8732270002}},{"attributes":{"ID":5402,"DIS_CODE":0,"TOWNNAME":"安南區","LI":"安順里","LIN":"11鄰","STREET":"安和路","SECT":"四段","MAREA":" ","LANE":"９４巷","ALLEY":"４３弄","HOUSE_NO":"３５號","E_COORD97":170256.64639899999,"N_COORD97":2550297.85824,"ADDRESS":"安和路四段９４巷４３弄３５號","OBJECTID":5402},"geometry":{"x":170256.64639899973,"y":2550297.8582429998}},{"attributes":{"ID":5403,"DIS_CODE":0,"TOWNNAME":"安南區","LI":"新順里","LIN":"9鄰","STREET":"育安街","SECT":" ","MAREA":" ","LANE":" ","ALLEY":" ","HOUSE_NO":"２之６號","E_COORD97":169623.170155,"N_COORD97":2549535.6666299999,"ADDRESS":"育安街２之６號","OBJECTID":5403},"geometry":{"x":169623.17015499994,"y":2549535.6666340008}},{"attributes":{"ID":5404,"DIS_CODE":0,"TOWNNAME":"安南區","LI":"新順里","LIN":"9鄰","STREET":"育安街","SECT":" ","MAREA":" ","LANE":" ","ALLEY":" ","HOUSE_NO":"２號","E_COORD97":169620.62865599999,"N_COORD97":2549532.80914,"ADDRESS":"育安街２號","OBJECTID":5404},"geometry":{"x":169620.6286559999,"y":2549532.8091359995}},{"attributes":{"ID":5405,"DIS_CODE":0,"TOWNNAME":"安南區","LI":"新順里","LIN":"13鄰","STREET":"開安一街","SECT":" ","MAREA":" ","LANE":" ","ALLEY":" ","HOUSE_NO":"２１號","E_COORD97":170544.13101400001,"N_COORD97":2549665.4585199999,"ADDRESS":"開安一街２１號","OBJECTID":5405},"geometry":{"x":170544.13101400062,"y":2549665.4585219994}},{"attributes":{"ID":5406,"DIS_CODE":0,"TOWNNAME":"安南區","LI":"新順里","LIN":"12鄰","STREET":"安豐六街","SECT":" ","MAREA":" ","LANE":" ","ALLEY":" ","HOUSE_NO":"１８２號","E_COORD97":169829.45517900001,"N_COORD97":2549793.5823300001,"ADDRESS":"安豐六街１８２號","OBJECTID":5406},"geometry":{"x":169829.45517900027,"y":2549793.5823279973}},{"attributes":{"ID":5407,"DIS_CODE":0,"TOWNNAME":"安南區","LI":"安順里","LIN":"13鄰","STREET":"開安路","SECT":" ","MAREA":" ","LANE":"３２巷","ALLEY":" ","HOUSE_NO":"３１號","E_COORD97":170562.828648,"N_COORD97":2549480.7644699998,"ADDRESS":"開安路３２巷３１號","OBJECTID":5407},"geometry":{"x":170562.82864800002,"y":2549480.7644710038}},{"attributes":{"ID":5408,"DIS_CODE":0,"TOWNNAME":"安南區","LI":"新順里","LIN":"13鄰","STREET":"開安路","SECT":" ","MAREA":" ","LANE":"３２巷","ALLEY":" ","HOUSE_NO":"３１號","E_COORD97":170565.19678200001,"N_COORD97":2549488.7319399999,"ADDRESS":"開安路３２巷３１號","OBJECTID":5408},"geometry":{"x":170565.19678200129,"y":2549488.7319350019}},{"attributes":{"ID":5409,"DIS_CODE":0,"TOWNNAME":"安南區","LI":"安順里","LIN":"13鄰","STREET":"開安路","SECT":" ","MAREA":" ","LANE":"３２巷","ALLEY":" ","HOUSE_NO":"３３號","E_COORD97":170569.22082300001,"N_COORD97":2549477.7252699998,"ADDRESS":"開安路３２巷３３號","OBJECTID":5409},"geometry":{"x":170569.22082300112,"y":2549477.7252740022}},{"attributes":{"ID":5410,"DIS_CODE":0,"TOWNNAME":"安南區","LI":"海西里","LIN":"8鄰","STREET":"海中街","SECT":" ","MAREA":" ","LANE":"７７巷","ALLEY":" ","HOUSE_NO":"６２號","E_COORD97":166257.843746,"N_COORD97":2548878.8672099998,"ADDRESS":"海中街７７巷６２號","OBJECTID":5410},"geometry":{"x":166257.84374599997,"y":2548878.8672090042}},{"attributes":{"ID":5411,"DIS_CODE":0,"TOWNNAME":"安南區","LI":"安順里","LIN":"10鄰","STREET":"政安路","SECT":" ","MAREA":" ","LANE":" ","ALLEY":" ","HOUSE_NO":"８之１號","E_COORD97":169717.036039,"N_COORD97":2549090.6395999999,"ADDRESS":"政安路８之１號","OBJECTID":5411},"geometry":{"x":169717.03603900038,"y":2549090.6395950019}},{"attributes":{"ID":5412,"DIS_CODE":0,"TOWNNAME":"安南區","LI":"安順里","LIN":"13鄰","STREET":"開安路","SECT":" ","MAREA":" ","LANE":"３２巷","ALLEY":" ","HOUSE_NO":"２０號","E_COORD97":170504.836175,"N_COORD97":2549481.5352699999,"ADDRESS":"開安路３２巷２０號","OBJECTID":5412},"geometry":{"x":170504.83617500216,"y":2549481.5352720022}},{"attributes":{"ID":5413,"DIS_CODE":0,"TOWNNAME":"安南區","LI":"安順里","LIN":"13鄰","STREET":"開安路","SECT":" ","MAREA":" ","LANE":"３２巷","ALLEY":" ","HOUSE_NO":"２號","E_COORD97":170359.872317,"N_COORD97":2549553.2902299999,"ADDRESS":"開安路３２巷２號","OBJECTID":5413},"geometry":{"x":170359.87231700215,"y":2549553.290233003}},{"attributes":{"ID":5414,"DIS_CODE":0,"TOWNNAME":"安南區","LI":"安順里","LIN":"13鄰","STREET":"開安路","SECT":" ","MAREA":" ","LANE":"３２巷","ALLEY":" ","HOUSE_NO":"８號","E_COORD97":170375.65828800001,"N_COORD97":2549547.25024,"ADDRESS":"開安路３２巷８號","OBJECTID":5414},"geometry":{"x":170375.65828800015,"y":2549547.2502440009}},{"attributes":{"ID":5415,"DIS_CODE":0,"TOWNNAME":"安南區","LI":"海西里","LIN":"16鄰","STREET":"海環街","SECT":" ","MAREA":" ","LANE":" ","ALLEY":" ","HOUSE_NO":"１８７之６號","E_COORD97":166375.98125000001,"N_COORD97":2548649.7362700002,"ADDRESS":"海環街１８７之６號","OBJECTID":5415},"geometry":{"x":166375.98125000019,"y":2548649.7362699993}},{"attributes":{"ID":5416,"DIS_CODE":0,"TOWNNAME":"安南區","LI":"鹿耳里","LIN":"7鄰","STREET":"北汕尾二路","SECT":" ","MAREA":" ","LANE":" ","ALLEY":" ","HOUSE_NO":"４２１號","E_COORD97":160156.17283699999,"N_COORD97":2547881.1990399999,"ADDRESS":"北汕尾二路４２１號","OBJECTID":5416},"geometry":{"x":160156.17283700034,"y":2547881.1990430001}},{"attributes":{"ID":5417,"DIS_CODE":0,"TOWNNAME":"安南區","LI":"新順里","LIN":"16鄰","STREET":"安生街","SECT":" ","MAREA":" ","LANE":" ","ALLEY":" ","HOUSE_NO":"１５號","E_COORD97":169691.77475000001,"N_COORD97":2549455.79531,"ADDRESS":"安生街１５號","OBJECTID":5417},"geometry":{"x":169691.7747500008,"y":2549455.7953100018}},{"attributes":{"ID":5418,"DIS_CODE":0,"TOWNNAME":"安南區","LI":"新順里","LIN":"1鄰","STREET":"安生街","SECT":" ","MAREA":" ","LANE":" ","ALLEY":" ","HOUSE_NO":"１２０號","E_COORD97":169460.27153599999,"N_COORD97":2549569.26357,"ADDRESS":"安生街１２０號","OBJECTID":5418},"geometry":{"x":169460.27153600194,"y":2549569.2635660004}},{"attributes":{"ID":5419,"DIS_CODE":0,"TOWNNAME":"安南區","LI":"新順里","LIN":"1鄰","STREET":"安生街","SECT":" ","MAREA":" ","LANE":"１０６巷","ALLEY":"５弄","HOUSE_NO":"１５號","E_COORD97":169484.20398699999,"N_COORD97":2549620.2752,"ADDRESS":"安生街１０６巷５弄１５號","OBJECTID":5419},"geometry":{"x":169484.20398699958,"y":2549620.2752050012}},{"attributes":{"ID":5420,"DIS_CODE":0,"TOWNNAME":"安南區","LI":"新順里","LIN":"1鄰","STREET":"安生街","SECT":" ","MAREA":" ","LANE":"１０６巷","ALLEY":"５弄","HOUSE_NO":"１７號","E_COORD97":169476.579489,"N_COORD97":2549622.49021,"ADDRESS":"安生街１０６巷５弄１７號","OBJECTID":5420},"geometry":{"x":169476.57948900014,"y":2549622.4902120028}},{"attributes":{"ID":5421,"DIS_CODE":0,"TOWNNAME":"安南區","LI":"四草里","LIN":"4鄰","STREET":"大眾一街","SECT":" ","MAREA":" ","LANE":" ","ALLEY":" ","HOUSE_NO":"６９號","E_COORD97":161032.25137899999,"N_COORD97":2546361.0715600001,"ADDRESS":"大眾一街６９號","OBJECTID":5421},"geometry":{"x":161032.25137899909,"y":2546361.0715640038}},{"attributes":{"ID":5422,"DIS_CODE":0,"TOWNNAME":"安南區","LI":"四草里","LIN":"3鄰","STREET":"大眾路","SECT":" ","MAREA":" ","LANE":" ","ALLEY":" ","HOUSE_NO":"４８１號","E_COORD97":161035.83773200001,"N_COORD97":2546556.7699199999,"ADDRESS":"大眾路４８１號","OBJECTID":5422},"geometry":{"x":161035.83773200028,"y":2546556.7699170001}},{"attributes":{"ID":5423,"DIS_CODE":0,"TOWNNAME":"安南區","LI":"鹿耳里","LIN":"7鄰","STREET":"媽祖宮一街","SECT":" ","MAREA":" ","LANE":" ","ALLEY":" ","HOUSE_NO":"２５５號","E_COORD97":160152.22936100001,"N_COORD97":2548605.1547099999,"ADDRESS":"媽祖宮一街２５５號","OBJECTID":5423},"geometry":{"x":160152.22936099954,"y":2548605.1547080036}},{"attributes":{"ID":5424,"DIS_CODE":0,"TOWNNAME":"安南區","LI":"鹿耳里","LIN":"7鄰","STREET":"媽祖宮一街","SECT":" ","MAREA":" ","LANE":"３４５巷","ALLEY":" ","HOUSE_NO":"１號","E_COORD97":159944.86823600001,"N_COORD97":2548647.6996800001,"ADDRESS":"媽祖宮一街３４５巷１號","OBJECTID":5424},"geometry":{"x":159944.86823600158,"y":2548647.6996849999}},{"attributes":{"ID":5425,"DIS_CODE":0,"TOWNNAME":"安南區","LI":"幸福里","LIN":"13鄰","STREET":"府安路","SECT":"六段","MAREA":" ","LANE":"７１巷","ALLEY":" ","HOUSE_NO":"５１號","E_COORD97":166816.701821,"N_COORD97":2546722.9206699999,"ADDRESS":"府安路六段７１巷５１號","OBJECTID":5425},"geometry":{"x":166816.70182100125,"y":2546722.9206690006}},{"attributes":{"ID":5426,"DIS_CODE":0,"TOWNNAME":"安南區","LI":"鹿耳里","LIN":"7鄰","STREET":"媽祖宮一街","SECT":" ","MAREA":" ","LANE":"３４５巷","ALLEY":" ","HOUSE_NO":"１４５號","E_COORD97":159875.959886,"N_COORD97":2548552.6715899999,"ADDRESS":"媽祖宮一街３４５巷１４５號","OBJECTID":5426},"geometry":{"x":159875.95988600142,"y":2548552.6715879999}},{"attributes":{"ID":5427,"DIS_CODE":0,"TOWNNAME":"安南區","LI":"鹿耳里","LIN":"7鄰","STREET":"媽祖宮一街","SECT":" ","MAREA":" ","LANE":"３４５巷","ALLEY":" ","HOUSE_NO":"２１８號","E_COORD97":159864.298473,"N_COORD97":2548530.0232699998,"ADDRESS":"媽祖宮一街３４５巷２１８號","OBJECTID":5427},"geometry":{"x":159864.29847300146,"y":2548530.0232670009}},{"attributes":{"ID":5428,"DIS_CODE":0,"TOWNNAME":"安南區","LI":"鹿耳里","LIN":"7鄰","STREET":"媽祖宮一街","SECT":" ","MAREA":" ","LANE":"３４５巷","ALLEY":" ","HOUSE_NO":"２５５號","E_COORD97":159802.386971,"N_COORD97":2548437.1016500001,"ADDRESS":"媽祖宮一街３４５巷２５５號","OBJECTID":5428},"geometry":{"x":159802.38697099965,"y":2548437.1016510017}},{"attributes":{"ID":5429,"DIS_CODE":0,"TOWNNAME":"安南區","LI":"鹿耳里","LIN":"7鄰","STREET":"媽祖宮一街","SECT":" ","MAREA":" ","LANE":"３４５巷","ALLEY":" ","HOUSE_NO":"２７８號","E_COORD97":159731.78241700001,"N_COORD97":2548328.30504,"ADDRESS":"媽祖宮一街３４５巷２７８號","OBJECTID":5429},"geometry":{"x":159731.78241700213,"y":2548328.3050430007}},{"attributes":{"ID":5430,"DIS_CODE":0,"TOWNNAME":"安南區","LI":"幸福里","LIN":"15鄰","STREET":"府安路","SECT":"六段","MAREA":" ","LANE":"４５巷","ALLEY":"５７弄","HOUSE_NO":"９號","E_COORD97":166887.76540100001,"N_COORD97":2546792.8764599999,"ADDRESS":"府安路六段４５巷５７弄９號","OBJECTID":5430},"geometry":{"x":166887.76540100202,"y":2546792.8764640018}},{"attributes":{"ID":5431,"DIS_CODE":0,"TOWNNAME":"安南區","LI":"四草里","LIN":"7鄰","STREET":"四草大道","SECT":" ","MAREA":" ","LANE":" ","ALLEY":" ","HOUSE_NO":"１２７之３號","E_COORD97":161222.62293499999,"N_COORD97":2544998.3056100002,"ADDRESS":"四草大道１２７之３號","OBJECTID":5431},"geometry":{"x":161222.62293499988,"y":2544998.305608999}},{"attributes":{"ID":5432,"DIS_CODE":0,"TOWNNAME":"安南區","LI":"四草里","LIN":"7鄰","STREET":"四草大道","SECT":" ","MAREA":" ","LANE":" ","ALLEY":" ","HOUSE_NO":"１２７之６號","E_COORD97":161213.93947899999,"N_COORD97":2545015.8739299998,"ADDRESS":"四草大道１２７之６號","OBJECTID":5432},"geometry":{"x":161213.93947899994,"y":2545015.8739330024}},{"attributes":{"ID":5433,"DIS_CODE":0,"TOWNNAME":"安南區","LI":"四草里","LIN":"7鄰","STREET":"四草大道","SECT":" ","MAREA":" ","LANE":" ","ALLEY":" ","HOUSE_NO":"１２７之８號","E_COORD97":161210.339022,"N_COORD97":2545032.6939300001,"ADDRESS":"四草大道１２７之８號","OBJECTID":5433},"geometry":{"x":161210.33902200218,"y":2545032.6939320005}},{"attributes":{"ID":5434,"DIS_CODE":0,"TOWNNAME":"安南區","LI":"鹿耳里","LIN":"8鄰","STREET":"北汕尾二路","SECT":" ","MAREA":" ","LANE":"５５０巷","ALLEY":" ","HOUSE_NO":"３號","E_COORD97":160542.21801700001,"N_COORD97":2548040.8740400001,"ADDRESS":"北汕尾二路５５０巷３號","OBJECTID":5434},"geometry":{"x":160542.21801700071,"y":2548040.8740410022}},{"attributes":{"ID":5435,"DIS_CODE":0,"TOWNNAME":"安南區","LI":"四草里","LIN":"7鄰","STREET":"四草大道","SECT":" ","MAREA":" ","LANE":" ","ALLEY":" ","HOUSE_NO":"１６１號","E_COORD97":161210.452414,"N_COORD97":2545208.5738499998,"ADDRESS":"四草大道１６１號","OBJECTID":5435},"geometry":{"x":161210.45241400134,"y":2545208.573853001}},{"attributes":{"ID":5436,"DIS_CODE":0,"TOWNNAME":"安南區","LI":"鹿耳里","LIN":"8鄰","STREET":"北汕尾二路","SECT":" ","MAREA":" ","LANE":"５５０巷","ALLEY":" ","HOUSE_NO":"１號","E_COORD97":160540.83984999999,"N_COORD97":2548041.7736200001,"ADDRESS":"北汕尾二路５５０巷１號","OBJECTID":5436},"geometry":{"x":160540.83985000197,"y":2548041.7736200001}},{"attributes":{"ID":5437,"DIS_CODE":0,"TOWNNAME":"安南區","LI":"鹿耳里","LIN":"9鄰","STREET":"北汕尾二路","SECT":" ","MAREA":" ","LANE":"５５０巷","ALLEY":" ","HOUSE_NO":"２號","E_COORD97":160533.95000000001,"N_COORD97":2548031.5299999998,"ADDRESS":"北汕尾二路５５０巷２號","OBJECTID":5437},"geometry":{"x":160533.95000000019,"y":2548031.5300000012}},{"attributes":{"ID":5438,"DIS_CODE":0,"TOWNNAME":"安南區","LI":"鹿耳里","LIN":"9鄰","STREET":"北汕尾二路","SECT":" ","MAREA":" ","LANE":"５５０巷","ALLEY":" ","HOUSE_NO":"８號","E_COORD97":160541.44,"N_COORD97":2548026.4300000002,"ADDRESS":"北汕尾二路５５０巷８號","OBJECTID":5438},"geometry":{"x":160541.44000000041,"y":2548026.4300000016}},{"attributes":{"ID":5439,"DIS_CODE":0,"TOWNNAME":"安南區","LI":"鹿耳里","LIN":"9鄰","STREET":"北汕尾二路","SECT":" ","MAREA":" ","LANE":"５５０巷","ALLEY":" ","HOUSE_NO":"１０號","E_COORD97":160543.14999999999,"N_COORD97":2548024.3900000001,"ADDRESS":"北汕尾二路５５０巷１０號","OBJECTID":5439},"geometry":{"x":160543.15000000037,"y":2548024.3900000025}},{"attributes":{"ID":5440,"DIS_CODE":0,"TOWNNAME":"安南區","LI":"四草里","LIN":"10鄰","STREET":"北汕尾一路","SECT":" ","MAREA":" ","LANE":"４３９巷","ALLEY":" ","HOUSE_NO":"１５號","E_COORD97":159989.57876,"N_COORD97":2546497.5182699999,"ADDRESS":"北汕尾一路４３９巷１５號","OBJECTID":5440},"geometry":{"x":159989.57876000181,"y":2546497.5182670001}},{"attributes":{"ID":5441,"DIS_CODE":0,"TOWNNAME":"安南區","LI":"四草里","LIN":"10鄰","STREET":"北汕尾一路","SECT":" ","MAREA":" ","LANE":"４３９巷","ALLEY":"９弄","HOUSE_NO":"２號","E_COORD97":160016.052711,"N_COORD97":2546513.8091000002,"ADDRESS":"北汕尾一路４３９巷９弄２號","OBJECTID":5441},"geometry":{"x":160016.05271100067,"y":2546513.8090989999}},{"attributes":{"ID":5442,"DIS_CODE":0,"TOWNNAME":"安南區","LI":"四草里","LIN":"9鄰","STREET":"大眾路","SECT":" ","MAREA":" ","LANE":"９１２巷","ALLEY":" ","HOUSE_NO":"６０號","E_COORD97":160201.65057,"N_COORD97":2546088.8201199998,"ADDRESS":"大眾路９１２巷６０號","OBJECTID":5442},"geometry":{"x":160201.65056999959,"y":2546088.8201230001}},{"attributes":{"ID":5443,"DIS_CODE":0,"TOWNNAME":"安南區","LI":"四草里","LIN":"9鄰","STREET":"大眾路","SECT":" ","MAREA":" ","LANE":"９１２巷","ALLEY":" ","HOUSE_NO":"６２號","E_COORD97":160196.06058200001,"N_COORD97":2546098.9876100002,"ADDRESS":"大眾路９１２巷６２號","OBJECTID":5443},"geometry":{"x":160196.06058199983,"y":2546098.9876090009}},{"attributes":{"ID":5444,"DIS_CODE":0,"TOWNNAME":"安南區","LI":"四草里","LIN":"9鄰","STREET":"大眾路","SECT":" ","MAREA":" ","LANE":"９１２巷","ALLEY":" ","HOUSE_NO":"９６號","E_COORD97":160186.204776,"N_COORD97":2546167.3484100001,"ADDRESS":"大眾路９１２巷９６號","OBJECTID":5444},"geometry":{"x":160186.20477600116,"y":2546167.3484140001}},{"attributes":{"ID":5445,"DIS_CODE":0,"TOWNNAME":"安南區","LI":"四草里","LIN":"9鄰","STREET":"大眾路","SECT":" ","MAREA":" ","LANE":"９６３巷","ALLEY":" ","HOUSE_NO":"１號","E_COORD97":160255.55903,"N_COORD97":2545977.58935,"ADDRESS":"大眾路９６３巷１號","OBJECTID":5445},"geometry":{"x":160255.55903000105,"y":2545977.58935}},{"attributes":{"ID":5446,"DIS_CODE":0,"TOWNNAME":"安南區","LI":"四草里","LIN":"9鄰","STREET":"大眾路","SECT":" ","MAREA":" ","LANE":"９１２巷","ALLEY":"３６弄","HOUSE_NO":"３號","E_COORD97":160225.174432,"N_COORD97":2546061.5151399998,"ADDRESS":"大眾路９１２巷３６弄３號","OBJECTID":5446},"geometry":{"x":160225.17443200108,"y":2546061.5151380002}},{"attributes":{"ID":5447,"DIS_CODE":0,"TOWNNAME":"安南區","LI":"幸福里","LIN":"22鄰","STREET":"府安路","SECT":"六段","MAREA":" ","LANE":"６２巷","ALLEY":" ","HOUSE_NO":"５０號","E_COORD97":166882.24091299999,"N_COORD97":2546727.88766,"ADDRESS":"府安路六段６２巷５０號","OBJECTID":5447},"geometry":{"x":166882.24091299903,"y":2546727.8876630031}},{"attributes":{"ID":5448,"DIS_CODE":0,"TOWNNAME":"安南區","LI":"四草里","LIN":"9鄰","STREET":"大眾路","SECT":" ","MAREA":" ","LANE":"９６３巷","ALLEY":" ","HOUSE_NO":"１之６號","E_COORD97":160269.11369299999,"N_COORD97":2545971.1410099999,"ADDRESS":"大眾路９６３巷１之６號","OBJECTID":5448},"geometry":{"x":160269.11369300075,"y":2545971.1410120018}},{"attributes":{"ID":5449,"DIS_CODE":0,"TOWNNAME":"安南區","LI":"四草里","LIN":"9鄰","STREET":"大眾路","SECT":" ","MAREA":" ","LANE":"９６３巷","ALLEY":" ","HOUSE_NO":"１２號","E_COORD97":160267.32096099999,"N_COORD97":2545895.2585499999,"ADDRESS":"大眾路９６３巷１２號","OBJECTID":5449},"geometry":{"x":160267.32096100133,"y":2545895.2585529983}},{"attributes":{"ID":5450,"DIS_CODE":0,"TOWNNAME":"安南區","LI":"四草里","LIN":"9鄰","STREET":"大眾路","SECT":" ","MAREA":" ","LANE":"９１２巷","ALLEY":"３６弄","HOUSE_NO":"１號","E_COORD97":160231.52817999999,"N_COORD97":2546056.2234700001,"ADDRESS":"大眾路９１２巷３６弄１號","OBJECTID":5450},"geometry":{"x":160231.52818000037,"y":2546056.2234739996}},{"attributes":{"ID":5451,"DIS_CODE":0,"TOWNNAME":"安南區","LI":"幸福里","LIN":"22鄰","STREET":"府安路","SECT":"六段","MAREA":" ","LANE":"６２巷","ALLEY":" ","HOUSE_NO":"５１號","E_COORD97":166861.69721099999,"N_COORD97":2546723.01933,"ADDRESS":"府安路六段６２巷５１號","OBJECTID":5451},"geometry":{"x":166861.69721100014,"y":2546723.019332001}},{"attributes":{"ID":5452,"DIS_CODE":0,"TOWNNAME":"安南區","LI":"幸福里","LIN":"22鄰","STREET":"府安路","SECT":"六段","MAREA":" ","LANE":"６２巷","ALLEY":" ","HOUSE_NO":"５２號","E_COORD97":166881.72184400001,"N_COORD97":2546733.179,"ADDRESS":"府安路六段６２巷５２號","OBJECTID":5452},"geometry":{"x":166881.72184400167,"y":2546733.1790040042}},{"attributes":{"ID":5453,"DIS_CODE":0,"TOWNNAME":"安南區","LI":"幸福里","LIN":"22鄰","STREET":"府安路","SECT":"六段","MAREA":" ","LANE":"６２巷","ALLEY":" ","HOUSE_NO":"５７號","E_COORD97":166858.73214000001,"N_COORD97":2546737.2009899998,"ADDRESS":"府安路六段６２巷５７號","OBJECTID":5453},"geometry":{"x":166858.73213999998,"y":2546737.2009910047}},{"attributes":{"ID":5454,"DIS_CODE":0,"TOWNNAME":"安南區","LI":"幸福里","LIN":"22鄰","STREET":"府安路","SECT":"六段","MAREA":" ","LANE":"６２巷","ALLEY":" ","HOUSE_NO":"５６號","E_COORD97":166880.66288600001,"N_COORD97":2546737.7448200001,"ADDRESS":"府安路六段６２巷５６號","OBJECTID":5454},"geometry":{"x":166880.66288600117,"y":2546737.7448200043}},{"attributes":{"ID":5455,"DIS_CODE":0,"TOWNNAME":"安南區","LI":"四草里","LIN":"9鄰","STREET":"大眾路","SECT":" ","MAREA":" ","LANE":"９６３巷","ALLEY":" ","HOUSE_NO":"５６號","E_COORD97":160299.808483,"N_COORD97":2545872.5268799998,"ADDRESS":"大眾路９６３巷５６號","OBJECTID":5455},"geometry":{"x":160299.80848299991,"y":2545872.5268750004}},{"attributes":{"ID":5456,"DIS_CODE":0,"TOWNNAME":"安南區","LI":"四草里","LIN":"9鄰","STREET":"大眾路","SECT":" ","MAREA":" ","LANE":"９６３巷","ALLEY":"１６３弄","HOUSE_NO":"８６號","E_COORD97":160409.53152799999,"N_COORD97":2545887.3285500002,"ADDRESS":"大眾路９６３巷１６３弄８６號","OBJECTID":5456},"geometry":{"x":160409.53152799979,"y":2545887.3285489995}},{"attributes":{"ID":5457,"DIS_CODE":0,"TOWNNAME":"安南區","LI":"幸福里","LIN":"22鄰","STREET":"府安路","SECT":"六段","MAREA":" ","LANE":"６２巷","ALLEY":" ","HOUSE_NO":"６３號","E_COORD97":166856.614233,"N_COORD97":2546750.0068199998,"ADDRESS":"府安路六段６２巷６３號","OBJECTID":5457},"geometry":{"x":166856.6142330002,"y":2546750.0068180021}},{"attributes":{"ID":5458,"DIS_CODE":0,"TOWNNAME":"安南區","LI":"鹿耳里","LIN":"6鄰","STREET":"北汕尾二路","SECT":" ","MAREA":" ","LANE":"６６１巷","ALLEY":"３弄","HOUSE_NO":"１５號","E_COORD97":160335.79000000001,"N_COORD97":2548369,"ADDRESS":"北汕尾二路６６１巷３弄１５號","OBJECTID":5458},"geometry":{"x":160335.79000000097,"y":2548369.0000000019}},{"attributes":{"ID":5459,"DIS_CODE":0,"TOWNNAME":"安南區","LI":"幸福里","LIN":"22鄰","STREET":"府安路","SECT":"六段","MAREA":" ","LANE":"６２巷","ALLEY":" ","HOUSE_NO":"６１號","E_COORD97":166857.461396,"N_COORD97":2546746.83182,"ADDRESS":"府安路六段６２巷６１號","OBJECTID":5459},"geometry":{"x":166857.46139600035,"y":2546746.8318189979}},{"attributes":{"ID":5460,"DIS_CODE":0,"TOWNNAME":"安南區","LI":"四草里","LIN":"9鄰","STREET":"大眾路","SECT":" ","MAREA":" ","LANE":"９１２巷","ALLEY":" ","HOUSE_NO":"６６之１８號","E_COORD97":160179.851028,"N_COORD97":2546147.12677,"ADDRESS":"大眾路９１２巷６６之１８號","OBJECTID":5460},"geometry":{"x":160179.85102799907,"y":2546147.1267660037}},{"attributes":{"ID":5461,"DIS_CODE":0,"TOWNNAME":"安南區","LI":"新順里","LIN":"13鄰","STREET":"開安路","SECT":" ","MAREA":" ","LANE":" ","ALLEY":" ","HOUSE_NO":"５１號","E_COORD97":170343.09480200001,"N_COORD97":2549682.9106899998,"ADDRESS":"開安路５１號","OBJECTID":5461},"geometry":{"x":170343.09480200056,"y":2549682.9106899984}},{"attributes":{"ID":5462,"DIS_CODE":0,"TOWNNAME":"安南區","LI":"新順里","LIN":"13鄰","STREET":"開安路","SECT":" ","MAREA":" ","LANE":" ","ALLEY":" ","HOUSE_NO":"５１之１號","E_COORD97":170346.695259,"N_COORD97":2549692.8590199999,"ADDRESS":"開安路５１之１號","OBJECTID":5462},"geometry":{"x":170346.69525900111,"y":2549692.8590179998}},{"attributes":{"ID":5463,"DIS_CODE":0,"TOWNNAME":"山上區","LI":"明和里","LIN":"22鄰","STREET":" ","SECT":" ","MAREA":"北勢洲","LANE":" ","ALLEY":" ","HOUSE_NO":"３７號","E_COORD97":181865.32169800001,"N_COORD97":2556558.0007500001,"ADDRESS":"北勢洲３７號","OBJECTID":5463},"geometry":{"x":181865.32169800065,"y":2556558.0007510018}},{"attributes":{"ID":5464,"DIS_CODE":0,"TOWNNAME":"安南區","LI":"四草里","LIN":"9鄰","STREET":"北汕尾一路","SECT":" ","MAREA":" ","LANE":"３５１巷","ALLEY":" ","HOUSE_NO":"６６號","E_COORD97":160201.14358100001,"N_COORD97":2546285.6475399998,"ADDRESS":"北汕尾一路３５１巷６６號","OBJECTID":5464},"geometry":{"x":160201.14358100109,"y":2546285.6475400012}},{"attributes":{"ID":5465,"DIS_CODE":0,"TOWNNAME":"安南區","LI":"幸福里","LIN":"22鄰","STREET":"府安路","SECT":"六段","MAREA":" ","LANE":"６２巷","ALLEY":" ","HOUSE_NO":"５３號","E_COORD97":166860.85004799999,"N_COORD97":2546726.61766,"ADDRESS":"府安路六段６２巷５３號","OBJECTID":5465},"geometry":{"x":166860.85004799999,"y":2546726.6176640019}},{"attributes":{"ID":5466,"DIS_CODE":0,"TOWNNAME":"安南區","LI":"鹿耳里","LIN":"8鄰","STREET":"北汕尾二路","SECT":" ","MAREA":" ","LANE":"５５０巷","ALLEY":" ","HOUSE_NO":"３７號","E_COORD97":160590.48000000001,"N_COORD97":2548001.9300000002,"ADDRESS":"北汕尾二路５５０巷３７號","OBJECTID":5466},"geometry":{"x":160590.48000000045,"y":2548001.9300000016}},{"attributes":{"ID":5467,"DIS_CODE":0,"TOWNNAME":"安南區","LI":"四草里","LIN":"9鄰","STREET":"北汕尾一路","SECT":" ","MAREA":" ","LANE":"３５１巷","ALLEY":" ","HOUSE_NO":"６６之１６號","E_COORD97":160212.466935,"N_COORD97":2546187.97841,"ADDRESS":"北汕尾一路３５１巷６６之１６號","OBJECTID":5467},"geometry":{"x":160212.46693500131,"y":2546187.9784100018}},{"attributes":{"ID":5468,"DIS_CODE":0,"TOWNNAME":"安南區","LI":"海西里","LIN":"6鄰","STREET":"海中街","SECT":" ","MAREA":" ","LANE":"１２１巷","ALLEY":" ","HOUSE_NO":"８９號","E_COORD97":166201.71897099999,"N_COORD97":2548938.4438499999,"ADDRESS":"海中街１２１巷８９號","OBJECTID":5468},"geometry":{"x":166201.71897100098,"y":2548938.4438510016}},{"attributes":{"ID":5469,"DIS_CODE":0,"TOWNNAME":"安南區","LI":"新順里","LIN":" ","STREET":"政安路","SECT":" ","MAREA":" ","LANE":" ","ALLEY":" ","HOUSE_NO":"５３之３號","E_COORD97":169882.69738900001,"N_COORD97":2549111.0963300001,"ADDRESS":"政安路５３之３號","OBJECTID":5469},"geometry":{"x":169882.6973890001,"y":2549111.096328998}},{"attributes":{"ID":5470,"DIS_CODE":0,"TOWNNAME":"安南區","LI":"新順里","LIN":"22鄰","STREET":"培安路","SECT":" ","MAREA":" ","LANE":" ","ALLEY":" ","HOUSE_NO":"４３號","E_COORD97":169254.11489699999,"N_COORD97":2549769.1601499999,"ADDRESS":"培安路４３號","OBJECTID":5470},"geometry":{"x":169254.11489700153,"y":2549769.1601480003}},{"attributes":{"ID":5471,"DIS_CODE":0,"TOWNNAME":"安南區","LI":"新順里","LIN":"22鄰","STREET":"培安路","SECT":" ","MAREA":" ","LANE":" ","ALLEY":" ","HOUSE_NO":"４５號","E_COORD97":169255.90762899999,"N_COORD97":2549764.8284800001,"ADDRESS":"培安路４５號","OBJECTID":5471},"geometry":{"x":169255.90762900002,"y":2549764.8284760024}},{"attributes":{"ID":5472,"DIS_CODE":0,"TOWNNAME":"安南區","LI":"新順里","LIN":"22鄰","STREET":"培安路","SECT":" ","MAREA":" ","LANE":" ","ALLEY":" ","HOUSE_NO":"４７號","E_COORD97":169258.02554500001,"N_COORD97":2549759.53681,"ADDRESS":"培安路４７號","OBJECTID":5472},"geometry":{"x":169258.02554500103,"y":2549759.5368120018}},{"attributes":{"ID":5473,"DIS_CODE":0,"TOWNNAME":"安南區","LI":"新順里","LIN":"22鄰","STREET":"培安路","SECT":" ","MAREA":" ","LANE":" ","ALLEY":" ","HOUSE_NO":"４７之１號","E_COORD97":169259.08450299999,"N_COORD97":2549756.7851499999,"ADDRESS":"培安路４７之１號","OBJECTID":5473},"geometry":{"x":169259.08450299967,"y":2549756.7851470001}},{"attributes":{"ID":5474,"DIS_CODE":0,"TOWNNAME":"安南區","LI":"新順里","LIN":"22鄰","STREET":"培安路","SECT":" ","MAREA":" ","LANE":" ","ALLEY":" ","HOUSE_NO":"４７之３號","E_COORD97":169268.61512599999,"N_COORD97":2549762.7118099998,"ADDRESS":"培安路４７之３號","OBJECTID":5474},"geometry":{"x":169268.61512599979,"y":2549762.7118100002}},{"attributes":{"ID":5475,"DIS_CODE":0,"TOWNNAME":"安南區","LI":"新順里","LIN":"22鄰","STREET":"培安路","SECT":" ","MAREA":" ","LANE":" ","ALLEY":" ","HOUSE_NO":"４７之５號","E_COORD97":169270.73304200001,"N_COORD97":2549764.61681,"ADDRESS":"培安路４７之５號","OBJECTID":5475},"geometry":{"x":169270.73304200079,"y":2549764.6168090012}},{"attributes":{"ID":5476,"DIS_CODE":0,"TOWNNAME":"山上區","LI":"豐德里","LIN":"1鄰","STREET":" ","SECT":" ","MAREA":"隙子口","LANE":" ","ALLEY":" ","HOUSE_NO":"５之１號","E_COORD97":184738.17606999999,"N_COORD97":2552772.97438,"ADDRESS":"隙子口５之１號","OBJECTID":5476},"geometry":{"x":184738.17607000098,"y":2552772.9743760023}},{"attributes":{"ID":5477,"DIS_CODE":0,"TOWNNAME":"仁德區","LI":"後壁里","LIN":"31鄰","STREET":"德洋路","SECT":" ","MAREA":" ","LANE":" ","ALLEY":" ","HOUSE_NO":"１２４號","E_COORD97":172753.514773,"N_COORD97":2539268.4951300002,"ADDRESS":"德洋路１２４號","OBJECTID":5477},"geometry":{"x":172753.51477300096,"y":2539268.4951259997}},{"attributes":{"ID":5478,"DIS_CODE":0,"TOWNNAME":"安南區","LI":"鹿耳里","LIN":"9鄰","STREET":"北汕尾二路","SECT":" ","MAREA":" ","LANE":"５５０巷","ALLEY":" ","HOUSE_NO":"５０號","E_COORD97":160605.79999999999,"N_COORD97":2547972.3300000001,"ADDRESS":"北汕尾二路５５０巷５０號","OBJECTID":5478},"geometry":{"x":160605.79999999981,"y":2547972.3300000019}},{"attributes":{"ID":5479,"DIS_CODE":0,"TOWNNAME":"安南區","LI":"幸福里","LIN":"22鄰","STREET":"府安路","SECT":"六段","MAREA":" ","LANE":"６２巷","ALLEY":" ","HOUSE_NO":"６６號","E_COORD97":166878.23477899999,"N_COORD97":2546752.49358,"ADDRESS":"府安路六段６２巷６６號","OBJECTID":5479},"geometry":{"x":166878.23477900028,"y":2546752.4935769998}},{"attributes":{"ID":5480,"DIS_CODE":0,"TOWNNAME":"安南區","LI":"幸福里","LIN":"22鄰","STREET":"府安路","SECT":"六段","MAREA":" ","LANE":"６２巷","ALLEY":" ","HOUSE_NO":"６２號","E_COORD97":166878.54496999999,"N_COORD97":2546748.1014999999,"ADDRESS":"府安路六段６２巷６２號","OBJECTID":5480},"geometry":{"x":166878.54497000016,"y":2546748.1014960036}},{"attributes":{"ID":5481,"DIS_CODE":0,"TOWNNAME":"仁德區","LI":"後壁里","LIN":"33鄰","STREET":"文華路","SECT":"二段","MAREA":" ","LANE":" ","ALLEY":" ","HOUSE_NO":"１３８０號","E_COORD97":172103.37661899999,"N_COORD97":2539816.2507000002,"ADDRESS":"文華路二段１３８０號","OBJECTID":5481},"geometry":{"x":172103.37661899999,"y":2539816.2507030014}},{"attributes":{"ID":5482,"DIS_CODE":0,"TOWNNAME":"安南區","LI":"幸福里","LIN":"22鄰","STREET":"府安路","SECT":"六段","MAREA":" ","LANE":"６２巷","ALLEY":" ","HOUSE_NO":"６０號","E_COORD97":166878.55246599999,"N_COORD97":2546745.29691,"ADDRESS":"府安路六段６２巷６０號","OBJECTID":5482},"geometry":{"x":166878.55246600043,"y":2546745.296915004}},{"attributes":{"ID":5483,"DIS_CODE":0,"TOWNNAME":"安南區","LI":"幸福里","LIN":"22鄰","STREET":"府安路","SECT":"六段","MAREA":" ","LANE":"６２巷","ALLEY":" ","HOUSE_NO":"６８號","E_COORD97":166877.062428,"N_COORD97":2546757.1502399999,"ADDRESS":"府安路六段６２巷６８號","OBJECTID":5483},"geometry":{"x":166877.06242800131,"y":2546757.150241999}},{"attributes":{"ID":5484,"DIS_CODE":0,"TOWNNAME":"安南區","LI":"四草里","LIN":"8鄰","STREET":"四草大道","SECT":" ","MAREA":" ","LANE":"８１巷","ALLEY":" ","HOUSE_NO":"３９５號","E_COORD97":160844.816697,"N_COORD97":2545079.0489099999,"ADDRESS":"四草大道８１巷３９５號","OBJECTID":5484},"geometry":{"x":160844.81669699959,"y":2545079.0489070024}},{"attributes":{"ID":5485,"DIS_CODE":0,"TOWNNAME":"安南區","LI":"新順里","LIN":"21鄰","STREET":"北安路","SECT":"三段","MAREA":" ","LANE":" ","ALLEY":" ","HOUSE_NO":"４１２號","E_COORD97":169201.46030599999,"N_COORD97":2549870.3723300002,"ADDRESS":"北安路三段４１２號","OBJECTID":5485},"geometry":{"x":169201.46030599996,"y":2549870.3723339997}},{"attributes":{"ID":5486,"DIS_CODE":0,"TOWNNAME":"安南區","LI":"鹿耳里","LIN":"6鄰","STREET":"北汕尾二路","SECT":" ","MAREA":" ","LANE":"６６１巷","ALLEY":"１５弄","HOUSE_NO":"５４號","E_COORD97":160199.06,"N_COORD97":2548498.9300000002,"ADDRESS":"北汕尾二路６６１巷１５弄５４號","OBJECTID":5486},"geometry":{"x":160199.05999999959,"y":2548498.9299999997}},{"attributes":{"ID":5487,"DIS_CODE":0,"TOWNNAME":"安南區","LI":"鹿耳里","LIN":"6鄰","STREET":"北汕尾二路","SECT":" ","MAREA":" ","LANE":"６６１巷","ALLEY":"１５弄","HOUSE_NO":"５８號","E_COORD97":160185.54000000001,"N_COORD97":2548498.9300000002,"ADDRESS":"北汕尾二路６６１巷１５弄５８號","OBJECTID":5487},"geometry":{"x":160185.54000000004,"y":2548498.9299999997}},{"attributes":{"ID":5488,"DIS_CODE":0,"TOWNNAME":"安南區","LI":"四草里","LIN":"8鄰","STREET":"四草大道","SECT":" ","MAREA":" ","LANE":"８１巷","ALLEY":" ","HOUSE_NO":"３９９號","E_COORD97":160822.903762,"N_COORD97":2545099.8905699998,"ADDRESS":"四草大道８１巷３９９號","OBJECTID":5488},"geometry":{"x":160822.90376200061,"y":2545099.8905700017}},{"attributes":{"ID":5489,"DIS_CODE":0,"TOWNNAME":"安南區","LI":"四草里","LIN":"8鄰","STREET":"四草大道","SECT":" ","MAREA":" ","LANE":"８１巷","ALLEY":" ","HOUSE_NO":"３９７號","E_COORD97":160832.74457499999,"N_COORD97":2545088.5739000002,"ADDRESS":"四草大道８１巷３９７號","OBJECTID":5489},"geometry":{"x":160832.7445750013,"y":2545088.5739020016}},{"attributes":{"ID":5490,"DIS_CODE":0,"TOWNNAME":"安南區","LI":"鹿耳里","LIN":"9鄰","STREET":"北汕尾二路","SECT":" ","MAREA":" ","LANE":"６６１巷","ALLEY":"１５弄","HOUSE_NO":"２１之１００號","E_COORD97":160271.84577000001,"N_COORD97":2548472.4269900001,"ADDRESS":"北汕尾二路６６１巷１５弄２１之１００號","OBJECTID":5490},"geometry":{"x":160271.84576999955,"y":2548472.4269899987}},{"attributes":{"ID":5491,"DIS_CODE":0,"TOWNNAME":"安南區","LI":"鹿耳里","LIN":"2鄰","STREET":"北汕尾二路","SECT":" ","MAREA":" ","LANE":"８００巷","ALLEY":"９弄","HOUSE_NO":"１０號","E_COORD97":160720.44,"N_COORD97":2548554.4700000002,"ADDRESS":"北汕尾二路８００巷９弄１０號","OBJECTID":5491},"geometry":{"x":160720.44000000134,"y":2548554.4699999988}},{"attributes":{"ID":5492,"DIS_CODE":0,"TOWNNAME":"安南區","LI":"鹿耳里","LIN":"1鄰","STREET":"北汕尾二路","SECT":" ","MAREA":" ","LANE":"８００巷","ALLEY":"９弄","HOUSE_NO":"１１號","E_COORD97":160706.84,"N_COORD97":2548574.29,"ADDRESS":"北汕尾二路８００巷９弄１１號","OBJECTID":5492},"geometry":{"x":160706.84000000078,"y":2548574.2899999991}},{"attributes":{"ID":5493,"DIS_CODE":0,"TOWNNAME":"安南區","LI":"新順里","LIN":"22鄰","STREET":"培安路","SECT":" ","MAREA":" ","LANE":" ","ALLEY":" ","HOUSE_NO":"４７之２號","E_COORD97":169261.414211,"N_COORD97":2549757.6318100002,"ADDRESS":"培安路４７之２號","OBJECTID":5493},"geometry":{"x":169261.41421100125,"y":2549757.6318130028}},{"attributes":{"ID":5494,"DIS_CODE":0,"TOWNNAME":"安南區","LI":"四草里","LIN":"3鄰","STREET":"四草大道","SECT":" ","MAREA":" ","LANE":" ","ALLEY":" ","HOUSE_NO":"９２９號","E_COORD97":161021.64019800001,"N_COORD97":2546795.1762399999,"ADDRESS":"四草大道９２９號","OBJECTID":5494},"geometry":{"x":161021.64019799978,"y":2546795.1762429997}},{"attributes":{"ID":5495,"DIS_CODE":0,"TOWNNAME":"安南區","LI":"鹿耳里","LIN":"1鄰","STREET":"北汕尾二路","SECT":" ","MAREA":" ","LANE":"８００巷","ALLEY":"９弄","HOUSE_NO":"２１號","E_COORD97":160703.51999999999,"N_COORD97":2548597.2599999998,"ADDRESS":"北汕尾二路８００巷９弄２１號","OBJECTID":5495},"geometry":{"x":160703.52000000048,"y":2548597.2600000016}},{"attributes":{"ID":5496,"DIS_CODE":0,"TOWNNAME":"安南區","LI":"四草里","LIN":"3鄰","STREET":"四草大道","SECT":" ","MAREA":" ","LANE":" ","ALLEY":" ","HOUSE_NO":"９４７號","E_COORD97":160916.81085000001,"N_COORD97":2546783.2306499998,"ADDRESS":"四草大道９４７號","OBJECTID":5496},"geometry":{"x":160916.81085000094,"y":2546783.2306520026}},{"attributes":{"ID":5497,"DIS_CODE":0,"TOWNNAME":"安南區","LI":"鹿耳里","LIN":"1鄰","STREET":"北汕尾二路","SECT":" ","MAREA":" ","LANE":"８００巷","ALLEY":"９弄","HOUSE_NO":"２５號","E_COORD97":160713.64000000001,"N_COORD97":2548582.79,"ADDRESS":"北汕尾二路８００巷９弄２５號","OBJECTID":5497},"geometry":{"x":160713.63999999966,"y":2548582.790000001}},{"attributes":{"ID":5498,"DIS_CODE":0,"TOWNNAME":"安南區","LI":"鹿耳里","LIN":"2鄰","STREET":"北汕尾二路","SECT":" ","MAREA":" ","LANE":"８００巷","ALLEY":"９弄","HOUSE_NO":"２８號","E_COORD97":160756.72,"N_COORD97":2548596.1499999999,"ADDRESS":"北汕尾二路８００巷９弄２８號","OBJECTID":5498},"geometry":{"x":160756.72000000067,"y":2548596.1500000004}},{"attributes":{"ID":5499,"DIS_CODE":0,"TOWNNAME":"安南區","LI":"四草里","LIN":"3鄰","STREET":"四草大道","SECT":" ","MAREA":" ","LANE":" ","ALLEY":" ","HOUSE_NO":"９６９號","E_COORD97":160968.601394,"N_COORD97":2546894.6730900002,"ADDRESS":"四草大道９６９號","OBJECTID":5499},"geometry":{"x":160968.60139399953,"y":2546894.6730920039}},{"attributes":{"ID":5500,"DIS_CODE":0,"TOWNNAME":"安南區","LI":"鹿耳里","LIN":"2鄰","STREET":"北汕尾二路","SECT":" ","MAREA":" ","LANE":"８００巷","ALLEY":"９弄","HOUSE_NO":"３０號","E_COORD97":160760.64000000001,"N_COORD97":2548601.75,"ADDRESS":"北汕尾二路８００巷９弄３０號","OBJECTID":5500},"geometry":{"x":160760.6400000006,"y":2548601.75}},{"attributes":{"ID":5501,"DIS_CODE":0,"TOWNNAME":"安南區","LI":"四草里","LIN":"3鄰","STREET":"四草大道","SECT":" ","MAREA":" ","LANE":" ","ALLEY":" ","HOUSE_NO":"９９９號","E_COORD97":160972.837226,"N_COORD97":2546911.9164200001,"ADDRESS":"四草大道９９９號","OBJECTID":5501},"geometry":{"x":160972.83722600155,"y":2546911.9164240006}},{"attributes":{"ID":5502,"DIS_CODE":0,"TOWNNAME":"安南區","LI":"四草里","LIN":"1鄰","STREET":"四草大道","SECT":" ","MAREA":" ","LANE":" ","ALLEY":" ","HOUSE_NO":"１１１９號","E_COORD97":160971.14289300001,"N_COORD97":2546955.0964000002,"ADDRESS":"四草大道１１１９號","OBJECTID":5502},"geometry":{"x":160971.14289299957,"y":2546955.096400002}},{"attributes":{"ID":5503,"DIS_CODE":0,"TOWNNAME":"安南區","LI":"鹿耳里","LIN":"1鄰","STREET":"北汕尾二路","SECT":" ","MAREA":" ","LANE":"８００巷","ALLEY":"９弄","HOUSE_NO":"３５號","E_COORD97":160732.44,"N_COORD97":2548604.48,"ADDRESS":"北汕尾二路８００巷９弄３５號","OBJECTID":5503},"geometry":{"x":160732.44000000041,"y":2548604.4800000004}},{"attributes":{"ID":5504,"DIS_CODE":0,"TOWNNAME":"安南區","LI":"鹿耳里","LIN":"2鄰","STREET":"北汕尾二路","SECT":" ","MAREA":" ","LANE":"８００巷","ALLEY":"９弄","HOUSE_NO":"４號","E_COORD97":160711.37,"N_COORD97":2548540.8799999999,"ADDRESS":"北汕尾二路８００巷９弄４號","OBJECTID":5504},"geometry":{"x":160711.37000000197,"y":2548540.8800000008}},{"attributes":{"ID":5505,"DIS_CODE":0,"TOWNNAME":"安南區","LI":"鹿耳里","LIN":"2鄰","STREET":"北汕尾二路","SECT":" ","MAREA":" ","LANE":"８００巷","ALLEY":"９弄","HOUSE_NO":"５４號","E_COORD97":160813.32999999999,"N_COORD97":2548663.9199999999,"ADDRESS":"北汕尾二路８００巷９弄５４號","OBJECTID":5505},"geometry":{"x":160813.33000000194,"y":2548663.9200000018}},{"attributes":{"ID":5506,"DIS_CODE":0,"TOWNNAME":"安南區","LI":"鹿耳里","LIN":"2鄰","STREET":"北汕尾二路","SECT":" ","MAREA":" ","LANE":"８００巷","ALLEY":"９弄","HOUSE_NO":"６０號","E_COORD97":160822.85999999999,"N_COORD97":2548676.25,"ADDRESS":"北汕尾二路８００巷９弄６０號","OBJECTID":5506},"geometry":{"x":160822.86000000034,"y":2548676.25}},{"attributes":{"ID":5507,"DIS_CODE":0,"TOWNNAME":"善化區","LI":"小新里","LIN":"21鄰","STREET":"成功路","SECT":" ","MAREA":" ","LANE":"３巷","ALLEY":"６９弄","HOUSE_NO":"２５號","E_COORD97":180111.26485899999,"N_COORD97":2558353.3488699999,"ADDRESS":"成功路３巷６９弄２５號","OBJECTID":5507},"geometry":{"x":180111.26485900115,"y":2558353.3488699999}},{"attributes":{"ID":5508,"DIS_CODE":0,"TOWNNAME":"安南區","LI":"四草里","LIN":"10鄰","STREET":"北汕尾二路","SECT":" ","MAREA":" ","LANE":" ","ALLEY":" ","HOUSE_NO":"１８７號","E_COORD97":160003.02003099999,"N_COORD97":2547192.8813,"ADDRESS":"北汕尾二路１８７號","OBJECTID":5508},"geometry":{"x":160003.02003099956,"y":2547192.8812960032}},{"attributes":{"ID":5509,"DIS_CODE":0,"TOWNNAME":"安南區","LI":"鹿耳里","LIN":"1鄰","STREET":"北汕尾二路","SECT":" ","MAREA":" ","LANE":"８００巷","ALLEY":"９弄","HOUSE_NO":"６５號","E_COORD97":160761.45243999999,"N_COORD97":2548658.4666900001,"ADDRESS":"北汕尾二路８００巷９弄６５號","OBJECTID":5509},"geometry":{"x":160761.45244000107,"y":2548658.4666900001}},{"attributes":{"ID":5510,"DIS_CODE":0,"TOWNNAME":"安南區","LI":"四草里","LIN":"10鄰","STREET":"北汕尾二路","SECT":" ","MAREA":" ","LANE":" ","ALLEY":" ","HOUSE_NO":"１３５號","E_COORD97":159974.42816400001,"N_COORD97":2547134.7788300002,"ADDRESS":"北汕尾二路１３５號","OBJECTID":5510},"geometry":{"x":159974.42816399969,"y":2547134.7788270023}},{"attributes":{"ID":5511,"DIS_CODE":0,"TOWNNAME":"善化區","LI":"小新里","LIN":"21鄰","STREET":"成功路","SECT":" ","MAREA":" ","LANE":"３巷","ALLEY":"６９弄","HOUSE_NO":"１５號","E_COORD97":180132.23433000001,"N_COORD97":2558352.3963700002,"ADDRESS":"成功路３巷６９弄１５號","OBJECTID":5511},"geometry":{"x":180132.23433000036,"y":2558352.3963710014}},{"attributes":{"ID":5512,"DIS_CODE":0,"TOWNNAME":"安南區","LI":"鹿耳里","LIN":"1鄰","STREET":"北汕尾二路","SECT":" ","MAREA":" ","LANE":"８００巷","ALLEY":"９弄","HOUSE_NO":"７９號","E_COORD97":160799.57999999999,"N_COORD97":2548689.6299999999,"ADDRESS":"北汕尾二路８００巷９弄７９號","OBJECTID":5512},"geometry":{"x":160799.58000000007,"y":2548689.629999999}},{"attributes":{"ID":5513,"DIS_CODE":0,"TOWNNAME":"安南區","LI":"四草里","LIN":"10鄰","STREET":"北汕尾二路","SECT":" ","MAREA":" ","LANE":" ","ALLEY":" ","HOUSE_NO":"１４８之１號","E_COORD97":160163.346276,"N_COORD97":2547074.8697000002,"ADDRESS":"北汕尾二路１４８之１號","OBJECTID":5513},"geometry":{"x":160163.34627600107,"y":2547074.8697000016}},{"attributes":{"ID":5514,"DIS_CODE":0,"TOWNNAME":"安南區","LI":"鹿耳里","LIN":"1鄰","STREET":"北汕尾二路","SECT":" ","MAREA":" ","LANE":"８００巷","ALLEY":"９弄","HOUSE_NO":"８５號","E_COORD97":160813.51999999999,"N_COORD97":2548706.1400000001,"ADDRESS":"北汕尾二路８００巷９弄８５號","OBJECTID":5514},"geometry":{"x":160813.52000000048,"y":2548706.1400000043}},{"attributes":{"ID":5515,"DIS_CODE":0,"TOWNNAME":"安南區","LI":"四草里","LIN":"10鄰","STREET":"北汕尾二路","SECT":" ","MAREA":" ","LANE":" ","ALLEY":" ","HOUSE_NO":"１４８號","E_COORD97":160182.619312,"N_COORD97":2547055.3963799998,"ADDRESS":"北汕尾二路１４８號","OBJECTID":5515},"geometry":{"x":160182.61931200046,"y":2547055.3963780012}},{"attributes":{"ID":5516,"DIS_CODE":0,"TOWNNAME":"安南區","LI":"鹿耳里","LIN":"1鄰","STREET":"北汕尾二路","SECT":" ","MAREA":" ","LANE":"８００巷","ALLEY":"９弄","HOUSE_NO":"９５號","E_COORD97":160832.39000000001,"N_COORD97":2548734.9300000002,"ADDRESS":"北汕尾二路８００巷９弄９５號","OBJECTID":5516},"geometry":{"x":160832.38999999966,"y":2548734.9300000016}},{"attributes":{"ID":5517,"DIS_CODE":0,"TOWNNAME":"安南區","LI":"鹿耳里","LIN":"1鄰","STREET":"北汕尾二路","SECT":" ","MAREA":" ","LANE":"８００巷","ALLEY":" ","HOUSE_NO":"１號","E_COORD97":160666.59,"N_COORD97":2548570.8900000001,"ADDRESS":"北汕尾二路８００巷１號","OBJECTID":5517},"geometry":{"x":160666.58999999985,"y":2548570.8900000006}},{"attributes":{"ID":5518,"DIS_CODE":0,"TOWNNAME":"安南區","LI":"鹿耳里","LIN":"1鄰","STREET":"北汕尾二路","SECT":" ","MAREA":" ","LANE":"８００巷","ALLEY":" ","HOUSE_NO":"３號","E_COORD97":160672.26000000001,"N_COORD97":2548568.0600000001,"ADDRESS":"北汕尾二路８００巷３號","OBJECTID":5518},"geometry":{"x":160672.25999999978,"y":2548568.0600000024}},{"attributes":{"ID":5519,"DIS_CODE":0,"TOWNNAME":"安南區","LI":"鹿耳里","LIN":"5鄰","STREET":"北汕尾二路","SECT":" ","MAREA":" ","LANE":"６６１巷","ALLEY":"１９弄","HOUSE_NO":"２８號","E_COORD97":160348.21309,"N_COORD97":2548539.2703499999,"ADDRESS":"北汕尾二路６６１巷１９弄２８號","OBJECTID":5519},"geometry":{"x":160348.21309000067,"y":2548539.2703499999}},{"attributes":{"ID":5520,"DIS_CODE":0,"TOWNNAME":"善化區","LI":"小新里","LIN":"21鄰","STREET":"成功路","SECT":" ","MAREA":" ","LANE":"３巷","ALLEY":" ","HOUSE_NO":"７３號","E_COORD97":180081.50515499999,"N_COORD97":2558351.3380399998,"ADDRESS":"成功路３巷７３號","OBJECTID":5520},"geometry":{"x":180081.50515500084,"y":2558351.3380379993}},{"attributes":{"ID":5521,"DIS_CODE":0,"TOWNNAME":"善化區","LI":"小新里","LIN":"21鄰","STREET":"成功路","SECT":" ","MAREA":" ","LANE":"３巷","ALLEY":"６９弄","HOUSE_NO":"３１號","E_COORD97":180098.450182,"N_COORD97":2558354.1955400002,"ADDRESS":"成功路３巷６９弄３１號","OBJECTID":5521},"geometry":{"x":180098.45018200111,"y":2558354.195536999}},{"attributes":{"ID":5522,"DIS_CODE":0,"TOWNNAME":"善化區","LI":"小新里","LIN":"21鄰","STREET":"成功路","SECT":" ","MAREA":" ","LANE":"３巷","ALLEY":"６９弄","HOUSE_NO":"１１號","E_COORD97":180150.34432800001,"N_COORD97":2558351.9730400001,"ADDRESS":"成功路３巷６９弄１１號","OBJECTID":5522},"geometry":{"x":180150.34432800021,"y":2558351.9730379991}},{"attributes":{"ID":5523,"DIS_CODE":0,"TOWNNAME":"善化區","LI":"小新里","LIN":"21鄰","STREET":" ","SECT":" ","MAREA":"小新營","LANE":" ","ALLEY":" ","HOUSE_NO":"３４７號","E_COORD97":180187.41157600001,"N_COORD97":2558343.0830399999,"ADDRESS":"小新營３４７號","OBJECTID":5523},"geometry":{"x":180187.41157600097,"y":2558343.0830429997}},{"attributes":{"ID":5524,"DIS_CODE":0,"TOWNNAME":"善化區","LI":"小新里","LIN":"21鄰","STREET":" ","SECT":" ","MAREA":"小新營","LANE":" ","ALLEY":" ","HOUSE_NO":"３４９號","E_COORD97":180186.882044,"N_COORD97":2558338.1088800002,"ADDRESS":"小新營３４９號","OBJECTID":5524},"geometry":{"x":180186.88204400055,"y":2558338.1088790018}},{"attributes":{"ID":5525,"DIS_CODE":0,"TOWNNAME":"安南區","LI":"鹿耳里","LIN":"3鄰","STREET":"北汕尾二路","SECT":" ","MAREA":" ","LANE":"６６１巷","ALLEY":"２３弄","HOUSE_NO":"３２號","E_COORD97":160338.61014500001,"N_COORD97":2548566.4197300002,"ADDRESS":"北汕尾二路６６１巷２３弄３２號","OBJECTID":5525},"geometry":{"x":160338.61014499981,"y":2548566.419729}},{"attributes":{"ID":5526,"DIS_CODE":0,"TOWNNAME":"善化區","LI":"小新里","LIN":"21鄰","STREET":" ","SECT":" ","MAREA":"小新營","LANE":" ","ALLEY":" ","HOUSE_NO":"３４３號","E_COORD97":180187.729295,"N_COORD97":2558353.03137,"ADDRESS":"小新營３４３號","OBJECTID":5526},"geometry":{"x":180187.72929500043,"y":2558353.0313710012}},{"attributes":{"ID":5527,"DIS_CODE":0,"TOWNNAME":"善化區","LI":"小新里","LIN":"20鄰","STREET":" ","SECT":" ","MAREA":"小新營","LANE":" ","ALLEY":" ","HOUSE_NO":"３９２號","E_COORD97":180283.4687,"N_COORD97":2556969.68462,"ADDRESS":"小新營３９２號","OBJECTID":5527},"geometry":{"x":180283.46870000008,"y":2556969.6846179999}},{"attributes":{"ID":5528,"DIS_CODE":0,"TOWNNAME":"善化區","LI":"小新里","LIN":"2鄰","STREET":" ","SECT":" ","MAREA":"小新營","LANE":" ","ALLEY":" ","HOUSE_NO":"１１之３號","E_COORD97":179887.166872,"N_COORD97":2558418.1188300001,"ADDRESS":"小新營１１之３號","OBJECTID":5528},"geometry":{"x":179887.16687200125,"y":2558418.1188350022}},{"attributes":{"ID":5529,"DIS_CODE":0,"TOWNNAME":"善化區","LI":"小新里","LIN":"11鄰","STREET":"陽光三路","SECT":" ","MAREA":" ","LANE":" ","ALLEY":" ","HOUSE_NO":"３００號","E_COORD97":179302.80809000001,"N_COORD97":2557415.3276800001,"ADDRESS":"陽光三路３００號","OBJECTID":5529},"geometry":{"x":179302.80809000041,"y":2557415.3276850022}},{"attributes":{"ID":5530,"DIS_CODE":0,"TOWNNAME":"善化區","LI":"小新里","LIN":"11鄰","STREET":"陽光三路","SECT":" ","MAREA":" ","LANE":"３０２巷","ALLEY":" ","HOUSE_NO":"６號","E_COORD97":179324.73071900001,"N_COORD97":2557416.91518,"ADDRESS":"陽光三路３０２巷６號","OBJECTID":5530},"geometry":{"x":179324.73071900103,"y":2557416.9151840005}},{"attributes":{"ID":5531,"DIS_CODE":0,"TOWNNAME":"善化區","LI":"小新里","LIN":"11鄰","STREET":"陽光三路","SECT":" ","MAREA":" ","LANE":"３０２巷","ALLEY":" ","HOUSE_NO":"１６號","E_COORD97":179345.488377,"N_COORD97":2557417.1268500001,"ADDRESS":"陽光三路３０２巷１６號","OBJECTID":5531},"geometry":{"x":179345.48837700021,"y":2557417.1268500034}},{"attributes":{"ID":5532,"DIS_CODE":0,"TOWNNAME":"善化區","LI":"小新里","LIN":"11鄰","STREET":"陽光三路","SECT":" ","MAREA":" ","LANE":"３１６巷","ALLEY":" ","HOUSE_NO":"６號","E_COORD97":179325.57797000001,"N_COORD97":2557446.33684,"ADDRESS":"陽光三路３１６巷６號","OBJECTID":5532},"geometry":{"x":179325.57797000092,"y":2557446.3368350007}},{"attributes":{"ID":5533,"DIS_CODE":0,"TOWNNAME":"善化區","LI":"小新里","LIN":"11鄰","STREET":"陽光三路","SECT":" ","MAREA":" ","LANE":"３１６巷","ALLEY":" ","HOUSE_NO":"８號","E_COORD97":179330.44966499999,"N_COORD97":2557446.6543299998,"ADDRESS":"陽光三路３１６巷８號","OBJECTID":5533},"geometry":{"x":179330.44966499973,"y":2557446.6543339994}},{"attributes":{"ID":5534,"DIS_CODE":0,"TOWNNAME":"善化區","LI":"小新里","LIN":"11鄰","STREET":"陽光三路","SECT":" ","MAREA":" ","LANE":"３１６巷","ALLEY":" ","HOUSE_NO":"１０號","E_COORD97":179335.850893,"N_COORD97":2557446.33684,"ADDRESS":"陽光三路３１６巷１０號","OBJECTID":5534},"geometry":{"x":179335.85089300107,"y":2557446.3368350007}},{"attributes":{"ID":5535,"DIS_CODE":0,"TOWNNAME":"善化區","LI":"小新里","LIN":"11鄰","STREET":"陽光三路","SECT":" ","MAREA":" ","LANE":"３１６巷","ALLEY":" ","HOUSE_NO":"９號","E_COORD97":179341.25211999999,"N_COORD97":2557451.7343299999,"ADDRESS":"陽光三路３１６巷９號","OBJECTID":5535},"geometry":{"x":179341.25212000031,"y":2557451.734331999}},{"attributes":{"ID":5536,"DIS_CODE":0,"TOWNNAME":"善化區","LI":"小新里","LIN":"11鄰","STREET":"陽光三路","SECT":" ","MAREA":" ","LANE":"３１６巷","ALLEY":" ","HOUSE_NO":"３號","E_COORD97":179325.472064,"N_COORD97":2557452.0518299998,"ADDRESS":"陽光三路３１６巷３號","OBJECTID":5536},"geometry":{"x":179325.47206399962,"y":2557452.0518310014}},{"attributes":{"ID":5537,"DIS_CODE":0,"TOWNNAME":"善化區","LI":"小新里","LIN":"11鄰","STREET":"陽光三路","SECT":" ","MAREA":" ","LANE":" ","ALLEY":" ","HOUSE_NO":"３１８號","E_COORD97":179303.97305999999,"N_COORD97":2557455.8618299998,"ADDRESS":"陽光三路３１８號","OBJECTID":5537},"geometry":{"x":179303.97306000069,"y":2557455.8618289996}},{"attributes":{"ID":5538,"DIS_CODE":0,"TOWNNAME":"善化區","LI":"小新里","LIN":"11鄰","STREET":"陽光三路","SECT":" ","MAREA":" ","LANE":"３２８巷","ALLEY":" ","HOUSE_NO":"１６號","E_COORD97":179347.28878599999,"N_COORD97":2557475.1234900001,"ADDRESS":"陽光三路３２８巷１６號","OBJECTID":5538},"geometry":{"x":179347.28878600057,"y":2557475.1234860029}},{"attributes":{"ID":5539,"DIS_CODE":0,"TOWNNAME":"善化區","LI":"小新里","LIN":"11鄰","STREET":"陽光三路","SECT":" ","MAREA":" ","LANE":"３２８巷","ALLEY":" ","HOUSE_NO":"１０號","E_COORD97":179336.69814399999,"N_COORD97":2557475.44099,"ADDRESS":"陽光三路３２８巷１０號","OBJECTID":5539},"geometry":{"x":179336.69814400095,"y":2557475.4409850016}},{"attributes":{"ID":5540,"DIS_CODE":0,"TOWNNAME":"善化區","LI":"小新里","LIN":"11鄰","STREET":"陽光三路","SECT":" ","MAREA":" ","LANE":"３２８巷","ALLEY":" ","HOUSE_NO":"８號","E_COORD97":179331.19101000001,"N_COORD97":2557475.3351500002,"ADDRESS":"陽光三路３２８巷８號","OBJECTID":5540},"geometry":{"x":179331.19101000112,"y":2557475.3351520002}},{"attributes":{"ID":5541,"DIS_CODE":0,"TOWNNAME":"善化區","LI":"小新里","LIN":"11鄰","STREET":"陽光三路","SECT":" ","MAREA":" ","LANE":"３２８巷","ALLEY":" ","HOUSE_NO":"６號","E_COORD97":179326.107502,"N_COORD97":2557475.5468199998,"ADDRESS":"陽光三路３２８巷６號","OBJECTID":5541},"geometry":{"x":179326.10750200134,"y":2557475.5468190014}},{"attributes":{"ID":5542,"DIS_CODE":0,"TOWNNAME":"善化區","LI":"小新里","LIN":"11鄰","STREET":"陽光三路","SECT":" ","MAREA":" ","LANE":"３２８巷","ALLEY":" ","HOUSE_NO":"１３號","E_COORD97":179352.584107,"N_COORD97":2557480.2034800001,"ADDRESS":"陽光三路３２８巷１３號","OBJECTID":5542},"geometry":{"x":179352.58410700131,"y":2557480.2034830023}},{"attributes":{"ID":5543,"DIS_CODE":0,"TOWNNAME":"善化區","LI":"小新里","LIN":"11鄰","STREET":"蓮潭北一街","SECT":" ","MAREA":" ","LANE":" ","ALLEY":" ","HOUSE_NO":"３８號一樓之１","E_COORD97":179336.48633099999,"N_COORD97":2557221.3352899998,"ADDRESS":"蓮潭北一街３８號一樓之１","OBJECTID":5543},"geometry":{"x":179336.48633100092,"y":2557221.3352890033}},{"attributes":{"ID":5544,"DIS_CODE":0,"TOWNNAME":"善化區","LI":"小新里","LIN":"11鄰","STREET":"蓮潭北一街","SECT":" ","MAREA":" ","LANE":" ","ALLEY":" ","HOUSE_NO":"３８號二樓之１","E_COORD97":179336.48633099999,"N_COORD97":2557221.3352899998,"ADDRESS":"蓮潭北一街３８號二樓之１","OBJECTID":5544},"geometry":{"x":179336.48633100092,"y":2557221.3352890033}},{"attributes":{"ID":5545,"DIS_CODE":0,"TOWNNAME":"善化區","LI":"小新里","LIN":"11鄰","STREET":"蓮潭北一街","SECT":" ","MAREA":" ","LANE":" ","ALLEY":" ","HOUSE_NO":"３８號二樓之２","E_COORD97":179336.48633099999,"N_COORD97":2557221.3352899998,"ADDRESS":"蓮潭北一街３８號二樓之２","OBJECTID":5545},"geometry":{"x":179336.48633100092,"y":2557221.3352890033}},{"attributes":{"ID":5546,"DIS_CODE":0,"TOWNNAME":"善化區","LI":"小新里","LIN":"11鄰","STREET":"蓮潭北一街","SECT":" ","MAREA":" ","LANE":" ","ALLEY":" ","HOUSE_NO":"３８號三樓之１","E_COORD97":179336.48633099999,"N_COORD97":2557221.3352899998,"ADDRESS":"蓮潭北一街３８號三樓之１","OBJECTID":5546},"geometry":{"x":179336.48633100092,"y":2557221.3352890033}},{"attributes":{"ID":5547,"DIS_CODE":0,"TOWNNAME":"善化區","LI":"小新里","LIN":"11鄰","STREET":"蓮潭北一街","SECT":" ","MAREA":" ","LANE":" ","ALLEY":" ","HOUSE_NO":"３８號三樓之２","E_COORD97":179336.48633099999,"N_COORD97":2557221.3352899998,"ADDRESS":"蓮潭北一街３８號三樓之２","OBJECTID":5547},"geometry":{"x":179336.48633100092,"y":2557221.3352890033}},{"attributes":{"ID":5548,"DIS_CODE":0,"TOWNNAME":"善化區","LI":"小新里","LIN":"11鄰","STREET":"蓮潭北一街","SECT":" ","MAREA":" ","LANE":" ","ALLEY":" ","HOUSE_NO":"３８號四樓之１","E_COORD97":179336.48633099999,"N_COORD97":2557221.3352899998,"ADDRESS":"蓮潭北一街３８號四樓之１","OBJECTID":5548},"geometry":{"x":179336.48633100092,"y":2557221.3352890033}},{"attributes":{"ID":5549,"DIS_CODE":0,"TOWNNAME":"善化區","LI":"小新里","LIN":"11鄰","STREET":"蓮潭北一街","SECT":" ","MAREA":" ","LANE":" ","ALLEY":" ","HOUSE_NO":"３８號四樓之２","E_COORD97":179336.48633099999,"N_COORD97":2557221.3352899998,"ADDRESS":"蓮潭北一街３８號四樓之２","OBJECTID":5549},"geometry":{"x":179336.48633100092,"y":2557221.3352890033}},{"attributes":{"ID":5550,"DIS_CODE":0,"TOWNNAME":"善化區","LI":"小新里","LIN":"11鄰","STREET":"蓮潭北一街","SECT":" ","MAREA":" ","LANE":" ","ALLEY":" ","HOUSE_NO":"３８號五樓之１","E_COORD97":179336.48633099999,"N_COORD97":2557221.3352899998,"ADDRESS":"蓮潭北一街３８號五樓之１","OBJECTID":5550},"geometry":{"x":179336.48633100092,"y":2557221.3352890033}},{"attributes":{"ID":5551,"DIS_CODE":0,"TOWNNAME":"善化區","LI":"小新里","LIN":"11鄰","STREET":"蓮潭北一街","SECT":" ","MAREA":" ","LANE":" ","ALLEY":" ","HOUSE_NO":"３８號五樓之２","E_COORD97":179336.48633099999,"N_COORD97":2557221.3352899998,"ADDRESS":"蓮潭北一街３８號五樓之２","OBJECTID":5551},"geometry":{"x":179336.48633100092,"y":2557221.3352890033}},{"attributes":{"ID":5552,"DIS_CODE":0,"TOWNNAME":"善化區","LI":"小新里","LIN":"21鄰","STREET":"成功路","SECT":" ","MAREA":" ","LANE":" ","ALLEY":" ","HOUSE_NO":"１之１９號","E_COORD97":180687.42864,"N_COORD97":2558360.3130100002,"ADDRESS":"成功路１之１９號","OBJECTID":5552},"geometry":{"x":180687.42864000052,"y":2558360.3130079992}},{"attributes":{"ID":5553,"DIS_CODE":0,"TOWNNAME":"善化區","LI":"小新里","LIN":"1鄰","STREET":"成功路","SECT":" ","MAREA":" ","LANE":"３巷","ALLEY":"３６弄","HOUSE_NO":"４６號","E_COORD97":180022.33631499999,"N_COORD97":2558437.9946300001,"ADDRESS":"成功路３巷３６弄４６號","OBJECTID":5553},"geometry":{"x":180022.33631500229,"y":2558437.994632002}},{"attributes":{"ID":5554,"DIS_CODE":0,"TOWNNAME":"善化區","LI":"小新里","LIN":"1鄰","STREET":"成功路","SECT":" ","MAREA":" ","LANE":"３巷","ALLEY":"３６弄","HOUSE_NO":"４０號","E_COORD97":180031.973799,"N_COORD97":2558435.0312999999,"ADDRESS":"成功路３巷３６弄４０號","OBJECTID":5554},"geometry":{"x":180031.97379900049,"y":2558435.0313009992}},{"attributes":{"ID":5555,"DIS_CODE":0,"TOWNNAME":"善化區","LI":"小新里","LIN":"1鄰","STREET":"成功路","SECT":" ","MAREA":" ","LANE":"３巷","ALLEY":"３６弄","HOUSE_NO":"３６號","E_COORD97":180040.97584500001,"N_COORD97":2558432.1738,"ADDRESS":"成功路３巷３６弄３６號","OBJECTID":5555},"geometry":{"x":180040.97584499978,"y":2558432.1738020033}},{"attributes":{"ID":5556,"DIS_CODE":0,"TOWNNAME":"善化區","LI":"小新里","LIN":"1鄰","STREET":"成功路","SECT":" ","MAREA":" ","LANE":"３巷","ALLEY":"３６弄","HOUSE_NO":"２號","E_COORD97":180096.57671600001,"N_COORD97":2558416.1929799998,"ADDRESS":"成功路３巷３６弄２號","OBJECTID":5556},"geometry":{"x":180096.57671600021,"y":2558416.192977}},{"attributes":{"ID":5557,"DIS_CODE":0,"TOWNNAME":"仁德區","LI":"仁德里","LIN":"34鄰","STREET":"中山路","SECT":" ","MAREA":" ","LANE":" ","ALLEY":" ","HOUSE_NO":"７４４號","E_COORD97":172712.56541499999,"N_COORD97":2541529.6841099998,"ADDRESS":"中山路７４４號","OBJECTID":5557},"geometry":{"x":172712.56541499961,"y":2541529.6841100007}},{"attributes":{"ID":5558,"DIS_CODE":0,"TOWNNAME":"南區","LI":"文南里","LIN":"20鄰","STREET":"仁南二街","SECT":" ","MAREA":" ","LANE":" ","ALLEY":" ","HOUSE_NO":"１５號","E_COORD97":166422.362678,"N_COORD97":2542677.2036000001,"ADDRESS":"仁南二街１５號","OBJECTID":5558},"geometry":{"x":166422.36267799977,"y":2542677.2035969999}},{"attributes":{"ID":5559,"DIS_CODE":0,"TOWNNAME":"山上區","LI":"平陽里","LIN":"2鄰","STREET":" ","SECT":" ","MAREA":"石子崎","LANE":" ","ALLEY":" ","HOUSE_NO":"１８號之９","E_COORD97":185611.12910399999,"N_COORD97":2553464.3923800001,"ADDRESS":"石子崎１８號之９","OBJECTID":5559},"geometry":{"x":185611.12910400052,"y":2553464.3923820015}},{"attributes":{"ID":5560,"DIS_CODE":0,"TOWNNAME":"山上區","LI":"平陽里","LIN":"2鄰","STREET":" ","SECT":" ","MAREA":"石子崎","LANE":" ","ALLEY":" ","HOUSE_NO":"１８之１５號","E_COORD97":185596.72179000001,"N_COORD97":2553451.3748900001,"ADDRESS":"石子崎１８之１５號","OBJECTID":5560},"geometry":{"x":185596.7217900008,"y":2553451.3748890013}},{"attributes":{"ID":5561,"DIS_CODE":0,"TOWNNAME":"山上區","LI":"平陽里","LIN":"2鄰","STREET":" ","SECT":" ","MAREA":"石子崎","LANE":" ","ALLEY":" ","HOUSE_NO":"１８號之４","E_COORD97":185597.14553499999,"N_COORD97":2553464.6040500002,"ADDRESS":"石子崎１８號之４","OBJECTID":5561},"geometry":{"x":185597.14553499967,"y":2553464.6040490009}},{"attributes":{"ID":5562,"DIS_CODE":0,"TOWNNAME":"山上區","LI":"平陽里","LIN":"2鄰","STREET":" ","SECT":" ","MAREA":"石子崎","LANE":" ","ALLEY":" ","HOUSE_NO":"１８號","E_COORD97":185413.66415900001,"N_COORD97":2553418.2490699999,"ADDRESS":"石子崎１８號","OBJECTID":5562},"geometry":{"x":185413.66415900085,"y":2553418.2490740009}},{"attributes":{"ID":5563,"DIS_CODE":0,"TOWNNAME":"南區","LI":"日新里","LIN":"7鄰","STREET":"\u25A0埕路","SECT":" ","MAREA":" ","LANE":" ","ALLEY":" ","HOUSE_NO":"２７３號","E_COORD97":166930.832195,"N_COORD97":2541277.1351899998,"ADDRESS":"\u25A0埕路２７３號","OBJECTID":5563},"geometry":{"x":166930.83219500165,"y":2541277.1351860017}},{"attributes":{"ID":5564,"DIS_CODE":0,"TOWNNAME":"安南區","LI":"顯宮里","LIN":"3鄰","STREET":"媽祖宮二街","SECT":" ","MAREA":" ","LANE":"１６８巷","ALLEY":" ","HOUSE_NO":"２號","E_COORD97":160356.53492000001,"N_COORD97":2548782.60983,"ADDRESS":"媽祖宮二街１６８巷２號","OBJECTID":5564},"geometry":{"x":160356.53492000047,"y":2548782.6098280009}},{"attributes":{"ID":5565,"DIS_CODE":0,"TOWNNAME":"安南區","LI":"顯宮里","LIN":"10鄰","STREET":"媽祖宮二街","SECT":" ","MAREA":" ","LANE":" ","ALLEY":" ","HOUSE_NO":"１５９號","E_COORD97":160362.67624599999,"N_COORD97":2548753.3998400001,"ADDRESS":"媽祖宮二街１５９號","OBJECTID":5565},"geometry":{"x":160362.67624600045,"y":2548753.399844002}},{"attributes":{"ID":5566,"DIS_CODE":0,"TOWNNAME":"仁德區","LI":"仁德里","LIN":"41鄰","STREET":"中山路","SECT":" ","MAREA":" ","LANE":"８７０巷","ALLEY":" ","HOUSE_NO":"２１５號","E_COORD97":172042.21307999999,"N_COORD97":2542244.1354800002,"ADDRESS":"中山路８７０巷２１５號","OBJECTID":5566},"geometry":{"x":172042.21308000013,"y":2542244.1354800016}},{"attributes":{"ID":5567,"DIS_CODE":0,"TOWNNAME":"安南區","LI":"顯宮里","LIN":"10鄰","STREET":"媽祖宮二街","SECT":" ","MAREA":" ","LANE":" ","ALLEY":" ","HOUSE_NO":"１５９號","E_COORD97":160362.67624599999,"N_COORD97":2548753.3998400001,"ADDRESS":"媽祖宮二街１５９號","OBJECTID":5567},"geometry":{"x":160362.67624600045,"y":2548753.399844002}},{"attributes":{"ID":5568,"DIS_CODE":0,"TOWNNAME":"安南區","LI":"顯宮里","LIN":"10鄰","STREET":"媽祖宮二街","SECT":" ","MAREA":" ","LANE":" ","ALLEY":" ","HOUSE_NO":"１６１號","E_COORD97":160359.07615899999,"N_COORD97":2548750.2248499999,"ADDRESS":"媽祖宮二街１６１號","OBJECTID":5568},"geometry":{"x":160359.0761590004,"y":2548750.2248460017}},{"attributes":{"ID":5569,"DIS_CODE":0,"TOWNNAME":"安南區","LI":"顯宮里","LIN":"10鄰","STREET":"媽祖宮二街","SECT":" ","MAREA":" ","LANE":" ","ALLEY":" ","HOUSE_NO":"１６３號","E_COORD97":160354.840761,"N_COORD97":2548746.2031800002,"ADDRESS":"媽祖宮二街１６３號","OBJECTID":5569},"geometry":{"x":160354.84076100122,"y":2548746.2031810023}},{"attributes":{"ID":5570,"DIS_CODE":0,"TOWNNAME":"仁德區","LI":"仁德里","LIN":"41鄰","STREET":"中山路","SECT":" ","MAREA":" ","LANE":"８７０巷","ALLEY":" ","HOUSE_NO":"２０１號","E_COORD97":172206.80194400001,"N_COORD97":2542051.5189200002,"ADDRESS":"中山路８７０巷２０１號","OBJECTID":5570},"geometry":{"x":172206.80194399972,"y":2542051.5189170018}},{"attributes":{"ID":5571,"DIS_CODE":0,"TOWNNAME":"安南區","LI":"顯宮里","LIN":"10鄰","STREET":"顯宮二街","SECT":" ","MAREA":" ","LANE":" ","ALLEY":" ","HOUSE_NO":"３號","E_COORD97":160524.68019000001,"N_COORD97":2548635.71324,"ADDRESS":"顯宮二街３號","OBJECTID":5571},"geometry":{"x":160524.68019000068,"y":2548635.7132410016}},{"attributes":{"ID":5572,"DIS_CODE":0,"TOWNNAME":"安南區","LI":"顯宮里","LIN":"10鄰","STREET":"顯宮二街","SECT":" ","MAREA":" ","LANE":" ","ALLEY":" ","HOUSE_NO":"７號","E_COORD97":160523.40956999999,"N_COORD97":2548640.1582300002,"ADDRESS":"顯宮二街７號","OBJECTID":5572},"geometry":{"x":160523.40957000013,"y":2548640.1582299992}},{"attributes":{"ID":5573,"DIS_CODE":0,"TOWNNAME":"安南區","LI":"顯宮里","LIN":"10鄰","STREET":"顯宮二街","SECT":" ","MAREA":" ","LANE":" ","ALLEY":" ","HOUSE_NO":"９號","E_COORD97":160521.291872,"N_COORD97":2548643.3332400001,"ADDRESS":"顯宮二街９號","OBJECTID":5573},"geometry":{"x":160521.29187200032,"y":2548643.3332370017}},{"attributes":{"ID":5574,"DIS_CODE":0,"TOWNNAME":"南區","LI":"文華里","LIN":"1鄰","STREET":"永華路","SECT":"一段","MAREA":" ","LANE":" ","ALLEY":" ","HOUSE_NO":"２５９號","E_COORD97":167012.38142399999,"N_COORD97":2543220.6531799999,"ADDRESS":"永華路一段２５９號","OBJECTID":5574},"geometry":{"x":167012.38142400142,"y":2543220.6531760022}},{"attributes":{"ID":5575,"DIS_CODE":0,"TOWNNAME":"南區","LI":"金華里","LIN":"8鄰","STREET":"金華路","SECT":"二段","MAREA":" ","LANE":"６３巷","ALLEY":" ","HOUSE_NO":"４５號","E_COORD97":166876.21070299999,"N_COORD97":2542149.7262599999,"ADDRESS":"金華路二段６３巷４５號","OBJECTID":5575},"geometry":{"x":166876.21070300043,"y":2542149.7262550034}},{"attributes":{"ID":5576,"DIS_CODE":0,"TOWNNAME":"安南區","LI":"顯宮里","LIN":"9鄰","STREET":"媽祖宮路","SECT":" ","MAREA":" ","LANE":" ","ALLEY":" ","HOUSE_NO":"２１５號","E_COORD97":160410.17000000001,"N_COORD97":2548686.5099999998,"ADDRESS":"媽祖宮路２１５號","OBJECTID":5576},"geometry":{"x":160410.16999999993,"y":2548686.5100000016}},{"attributes":{"ID":5577,"DIS_CODE":0,"TOWNNAME":"山上區","LI":"平陽里","LIN":"2鄰","STREET":" ","SECT":" ","MAREA":"石子崎","LANE":" ","ALLEY":" ","HOUSE_NO":"１８之１０號","E_COORD97":185606.233229,"N_COORD97":2553538.4528899998,"ADDRESS":"石子崎１８之１０號","OBJECTID":5577},"geometry":{"x":185606.23322900198,"y":2553538.4528850019}},{"attributes":{"ID":5578,"DIS_CODE":0,"TOWNNAME":"南區","LI":"大忠里","LIN":"31鄰","STREET":"中華南路","SECT":"一段","MAREA":" ","LANE":"１８６巷","ALLEY":" ","HOUSE_NO":"５８號","E_COORD97":169021.23707599999,"N_COORD97":2541360.65576,"ADDRESS":"中華南路一段１８６巷５８號","OBJECTID":5578},"geometry":{"x":169021.23707600031,"y":2541360.655763004}},{"attributes":{"ID":5579,"DIS_CODE":0,"TOWNNAME":"南區","LI":"明德里","LIN":"7鄰","STREET":"新都路","SECT":" ","MAREA":" ","LANE":" ","ALLEY":" ","HOUSE_NO":"２２１之１號","E_COORD97":168008.109975,"N_COORD97":2541146.1317099999,"ADDRESS":"新都路２２１之１號","OBJECTID":5579},"geometry":{"x":168008.10997500084,"y":2541146.1317129992}},{"attributes":{"ID":5580,"DIS_CODE":0,"TOWNNAME":"南區","LI":"文南里","LIN":"14鄰","STREET":"永南街","SECT":" ","MAREA":" ","LANE":" ","ALLEY":" ","HOUSE_NO":"２９號","E_COORD97":166810.527668,"N_COORD97":2542646.5300699999,"ADDRESS":"永南街２９號","OBJECTID":5580},"geometry":{"x":166810.5276680002,"y":2542646.5300690047}},{"attributes":{"ID":5581,"DIS_CODE":0,"TOWNNAME":"南區","LI":"松安里","LIN":"7鄰","STREET":"灣裡路","SECT":" ","MAREA":" ","LANE":"２８２巷","ALLEY":"３６弄","HOUSE_NO":"２號","E_COORD97":166016.16317000001,"N_COORD97":2536346.5926399999,"ADDRESS":"灣裡路２８２巷３６弄２號","OBJECTID":5581},"geometry":{"x":166016.16317000054,"y":2536346.5926380027}},{"attributes":{"ID":5582,"DIS_CODE":0,"TOWNNAME":"南區","LI":"再興里","LIN":"10鄰","STREET":"新城街","SECT":" ","MAREA":" ","LANE":" ","ALLEY":" ","HOUSE_NO":"６２號","E_COORD97":167170.33179500001,"N_COORD97":2542303.4185899999,"ADDRESS":"新城街６２號","OBJECTID":5582},"geometry":{"x":167170.3317950014,"y":2542303.4185880031}},{"attributes":{"ID":5583,"DIS_CODE":0,"TOWNNAME":"南區","LI":"再興里","LIN":"10鄰","STREET":"新城街","SECT":" ","MAREA":" ","LANE":" ","ALLEY":" ","HOUSE_NO":"６６號","E_COORD97":167170.755343,"N_COORD97":2542310.4035800002,"ADDRESS":"新城街６６號","OBJECTID":5583},"geometry":{"x":167170.7553430004,"y":2542310.4035840016}},{"attributes":{"ID":5584,"DIS_CODE":0,"TOWNNAME":"南區","LI":"再興里","LIN":"10鄰","STREET":"新城街","SECT":" ","MAREA":" ","LANE":" ","ALLEY":" ","HOUSE_NO":"６８號","E_COORD97":167170.96711699999,"N_COORD97":2542317.1769099999,"ADDRESS":"新城街６８號","OBJECTID":5584},"geometry":{"x":167170.9671170013,"y":2542317.176913999}},{"attributes":{"ID":5585,"DIS_CODE":0,"TOWNNAME":"南區","LI":"再興里","LIN":"10鄰","STREET":"新城街","SECT":" ","MAREA":" ","LANE":" ","ALLEY":" ","HOUSE_NO":"７０號","E_COORD97":167170.96711699999,"N_COORD97":2542323.52691,"ADDRESS":"新城街７０號","OBJECTID":5585},"geometry":{"x":167170.9671170013,"y":2542323.5269100033}},{"attributes":{"ID":5586,"DIS_CODE":0,"TOWNNAME":"南區","LI":"同安里","LIN":"3鄰","STREET":"灣裡路","SECT":" ","MAREA":" ","LANE":" ","ALLEY":" ","HOUSE_NO":"３８１號","E_COORD97":166221.795782,"N_COORD97":2536108.67943,"ADDRESS":"灣裡路３８１號","OBJECTID":5586},"geometry":{"x":166221.79578200076,"y":2536108.6794329993}},{"attributes":{"ID":5587,"DIS_CODE":0,"TOWNNAME":"南區","LI":"同安里","LIN":"6鄰","STREET":"明興路","SECT":" ","MAREA":" ","LANE":"１１８１巷","ALLEY":" ","HOUSE_NO":"３８之５號","E_COORD97":166646.614546,"N_COORD97":2536345.6401399998,"ADDRESS":"明興路１１８１巷３８之５號","OBJECTID":5587},"geometry":{"x":166646.61454600096,"y":2536345.6401380002}},{"attributes":{"ID":5588,"DIS_CODE":0,"TOWNNAME":"南區","LI":"府南里","LIN":"10鄰","STREET":"永成路","SECT":"三段","MAREA":" ","LANE":"３４７巷","ALLEY":" ","HOUSE_NO":"８號","E_COORD97":167469.25088000001,"N_COORD97":2541259.10873,"ADDRESS":"永成路三段３４７巷８號","OBJECTID":5588},"geometry":{"x":167469.25088000111,"y":2541259.1087350007}},{"attributes":{"ID":5589,"DIS_CODE":0,"TOWNNAME":"南區","LI":"光明里","LIN":"5鄰","STREET":"新興路","SECT":" ","MAREA":" ","LANE":"５３３巷","ALLEY":"４３弄","HOUSE_NO":"４２號","E_COORD97":166779.50276800001,"N_COORD97":2541505.1181899998,"ADDRESS":"新興路５３３巷４３弄４２號","OBJECTID":5589},"geometry":{"x":166779.50276800059,"y":2541505.1181850042}},{"attributes":{"ID":5590,"DIS_CODE":0,"TOWNNAME":"南區","LI":"佛壇里","LIN":"15鄰","STREET":"灣裡路","SECT":" ","MAREA":" ","LANE":" ","ALLEY":" ","HOUSE_NO":"６４２號","E_COORD97":166081.389581,"N_COORD97":2535606.3947000001,"ADDRESS":"灣裡路６４２號","OBJECTID":5590},"geometry":{"x":166081.38958100136,"y":2535606.3947039992}},{"attributes":{"ID":5591,"DIS_CODE":0,"TOWNNAME":"南區","LI":"佛壇里","LIN":"15鄰","STREET":"灣裡路","SECT":" ","MAREA":" ","LANE":" ","ALLEY":" ","HOUSE_NO":"６４２之１號","E_COORD97":166076.095229,"N_COORD97":2535605.1776200002,"ADDRESS":"灣裡路６４２之１號","OBJECTID":5591},"geometry":{"x":166076.09522899892,"y":2535605.1776220016}},{"attributes":{"ID":5592,"DIS_CODE":0,"TOWNNAME":"南區","LI":"喜東里","LIN":"10鄰","STREET":"明興路","SECT":" ","MAREA":" ","LANE":"６１１巷","ALLEY":"１３９弄","HOUSE_NO":"６６之１號","E_COORD97":166387.29720999999,"N_COORD97":2538067.2565000001,"ADDRESS":"明興路６１１巷１３９弄６６之１號","OBJECTID":5592},"geometry":{"x":166387.29721000139,"y":2538067.256500002}},{"attributes":{"ID":5593,"DIS_CODE":0,"TOWNNAME":"南區","LI":"同安里","LIN":"6鄰","STREET":"明興路","SECT":" ","MAREA":" ","LANE":"１１８１巷","ALLEY":" ","HOUSE_NO":"１９８之８號","E_COORD97":167019.01923000001,"N_COORD97":2536234.9649899998,"ADDRESS":"明興路１１８１巷１９８之８號","OBJECTID":5593},"geometry":{"x":167019.01922999974,"y":2536234.9649900012}},{"attributes":{"ID":5594,"DIS_CODE":0,"TOWNNAME":"仁德區","LI":"仁德里","LIN":"40鄰","STREET":"中山路","SECT":" ","MAREA":" ","LANE":" ","ALLEY":" ","HOUSE_NO":"８５８號","E_COORD97":172349.51491500001,"N_COORD97":2541747.1040400001,"ADDRESS":"中山路８５８號","OBJECTID":5594},"geometry":{"x":172349.51491499972,"y":2541747.1040370017}},{"attributes":{"ID":5595,"DIS_CODE":0,"TOWNNAME":"仁德區","LI":"仁德里","LIN":"40鄰","STREET":"中山路","SECT":" ","MAREA":" ","LANE":" ","ALLEY":" ","HOUSE_NO":"８６０號","E_COORD97":172353.32778399999,"N_COORD97":2541775.25569,"ADDRESS":"中山路８６０號","OBJECTID":5595},"geometry":{"x":172353.32778399996,"y":2541775.2556889988}},{"attributes":{"ID":5596,"DIS_CODE":0,"TOWNNAME":"仁德區","LI":"仁德里","LIN":"43鄰","STREET":"中山路","SECT":" ","MAREA":" ","LANE":" ","ALLEY":" ","HOUSE_NO":"９３４號","E_COORD97":171960.390407,"N_COORD97":2541901.6206200002,"ADDRESS":"中山路９３４號","OBJECTID":5596},"geometry":{"x":171960.39040699974,"y":2541901.620620003}},{"attributes":{"ID":5597,"DIS_CODE":0,"TOWNNAME":"仁德區","LI":"太子里","LIN":"32鄰","STREET":"太子南路","SECT":" ","MAREA":" ","LANE":" ","ALLEY":" ","HOUSE_NO":"５６號","E_COORD97":173944.17858000001,"N_COORD97":2543319.2574800001,"ADDRESS":"太子南路５６號","OBJECTID":5597},"geometry":{"x":173944.17857999913,"y":2543319.2574830037}},{"attributes":{"ID":5598,"DIS_CODE":0,"TOWNNAME":"仁德區","LI":"太子里","LIN":"38鄰","STREET":"長興一街","SECT":" ","MAREA":" ","LANE":" ","ALLEY":" ","HOUSE_NO":"４３之１號","E_COORD97":174529.304604,"N_COORD97":2543794.2372300001,"ADDRESS":"長興一街４３之１號","OBJECTID":5598},"geometry":{"x":174529.30460400041,"y":2543794.2372260038}},{"attributes":{"ID":5599,"DIS_CODE":0,"TOWNNAME":"南區","LI":"佛壇里","LIN":"15鄰","STREET":"灣裡路","SECT":" ","MAREA":" ","LANE":"６４０巷","ALLEY":" ","HOUSE_NO":"１３號","E_COORD97":166059.04741699999,"N_COORD97":2535650.4478099998,"ADDRESS":"灣裡路６４０巷１３號","OBJECTID":5599},"geometry":{"x":166059.04741699994,"y":2535650.4478050005}},{"attributes":{"ID":5600,"DIS_CODE":0,"TOWNNAME":"仁德區","LI":"太子里","LIN":"38鄰","STREET":"長興一街","SECT":" ","MAREA":" ","LANE":" ","ALLEY":" ","HOUSE_NO":"４３號","E_COORD97":174538.62257199999,"N_COORD97":2543795.9305599998,"ADDRESS":"長興一街４３號","OBJECTID":5600},"geometry":{"x":174538.62257200107,"y":2543795.9305580016}}]}