{"displayFieldName":"TOWNNAME","fieldAliases":{"ID":"ID","DIS_CODE":"DIS_CODE","TOWNNAME":"TOWNNAME","LI":"LI","LIN":"LIN","STREET":"STREET","SECT":"SECT","MAREA":"MAREA","LANE":"LANE","ALLEY":"ALLEY","HOUSE_NO":"HOUSE_NO","E_COORD97":"E_COORD97","N_COORD97":"N_COORD97","ADDRESS":"ADDRESS","OBJECTID":"OBJECTID"},"geometryType":"esriGeometryPoint","spatialReference":{"wkid":102443,"latestWkid":3826},"fields":[{"name":"ID","type":"esriFieldTypeDouble","alias":"ID"},{"name":"DIS_CODE","type":"esriFieldTypeInteger","alias":"DIS_CODE"},{"name":"TOWNNAME","type":"esriFieldTypeString","alias":"TOWNNAME","length":8},{"name":"LI","type":"esriFieldTypeString","alias":"LI","length":8},{"name":"LIN","type":"esriFieldTypeString","alias":"LIN","length":12},{"name":"STREET","type":"esriFieldTypeString","alias":"STREET","length":20},{"name":"SECT","type":"esriFieldTypeString","alias":"SECT","length":8},{"name":"MAREA","type":"esriFieldTypeString","alias":"MAREA","length":12},{"name":"LANE","type":"esriFieldTypeString","alias":"LANE","length":10},{"name":"ALLEY","type":"esriFieldTypeString","alias":"ALLEY","length":10},{"name":"HOUSE_NO","type":"esriFieldTypeString","alias":"HOUSE_NO","length":20},{"name":"E_COORD97","type":"esriFieldTypeDouble","alias":"E_COORD97"},{"name":"N_COORD97","type":"esriFieldTypeDouble","alias":"N_COORD97"},{"name":"ADDRESS","type":"esriFieldTypeString","alias":"ADDRESS","length":50},{"name":"OBJECTID","type":"esriFieldTypeOID","alias":"OBJECTID"}],"features":[{"attributes":{"ID":255005,"DIS_CODE":0,"TOWNNAME":"安南區","LI":"\u25A0南里","LIN":"27鄰","STREET":"環福街","SECT":" ","MAREA":" ","LANE":"２２０巷","ALLEY":" ","HOUSE_NO":"３號","E_COORD97":170263.10999999999,"N_COORD97":2552690.4100000001,"ADDRESS":"環福街２２０巷３號","OBJECTID":255001},"geometry":{"x":170263.11000000127,"y":2552690.4100000001}},{"attributes":{"ID":255006,"DIS_CODE":0,"TOWNNAME":"安南區","LI":"\u25A0南里","LIN":"27鄰","STREET":"環福街","SECT":" ","MAREA":" ","LANE":"２２０巷","ALLEY":" ","HOUSE_NO":"５號","E_COORD97":170263.41,"N_COORD97":2552696.21,"ADDRESS":"環福街２２０巷５號","OBJECTID":255002},"geometry":{"x":170263.41000000015,"y":2552696.209999999}},{"attributes":{"ID":255007,"DIS_CODE":0,"TOWNNAME":"安南區","LI":"\u25A0南里","LIN":"27鄰","STREET":"環福街","SECT":" ","MAREA":" ","LANE":"２２０巷","ALLEY":" ","HOUSE_NO":"７號","E_COORD97":170264.01999999999,"N_COORD97":2552701.0899999999,"ADDRESS":"環福街２２０巷７號","OBJECTID":255003},"geometry":{"x":170264.02000000048,"y":2552701.0900000017}},{"attributes":{"ID":255008,"DIS_CODE":0,"TOWNNAME":"永康區","LI":"勝利里","LIN":"14鄰","STREET":"勝利街","SECT":" ","MAREA":" ","LANE":"７７巷","ALLEY":" ","HOUSE_NO":"２５號","E_COORD97":171259.37,"N_COORD97":2544774.2599999998,"ADDRESS":"勝利街７７巷２５號","OBJECTID":255004},"geometry":{"x":171259.37000000104,"y":2544774.2599999998}},{"attributes":{"ID":255009,"DIS_CODE":0,"TOWNNAME":"永康區","LI":"甲頂里","LIN":"14鄰","STREET":"大武街","SECT":" ","MAREA":" ","LANE":"１８巷","ALLEY":" ","HOUSE_NO":"１號","E_COORD97":170316.07999999999,"N_COORD97":2546665.8999999999,"ADDRESS":"大武街１８巷１號","OBJECTID":255005},"geometry":{"x":170316.08000000007,"y":2546665.9000000004}},{"attributes":{"ID":255010,"DIS_CODE":0,"TOWNNAME":"新化區","LI":"東榮里","LIN":"14鄰","STREET":"中興路","SECT":" ","MAREA":" ","LANE":"５９５巷","ALLEY":" ","HOUSE_NO":"３５號","E_COORD97":179842.26000000001,"N_COORD97":2547835.25,"ADDRESS":"中興路５９５巷３５號","OBJECTID":255006},"geometry":{"x":179842.26000000071,"y":2547835.25}},{"attributes":{"ID":255011,"DIS_CODE":0,"TOWNNAME":"南區","LI":"鯤鯓里","LIN":"14鄰","STREET":"鯤鯓路","SECT":" ","MAREA":" ","LANE":"１９４巷","ALLEY":" ","HOUSE_NO":"４２號","E_COORD97":165038.92000000001,"N_COORD97":2540308.2799999998,"ADDRESS":"鯤鯓路１９４巷４２號","OBJECTID":255007},"geometry":{"x":165038.92000000086,"y":2540308.2799999993}},{"attributes":{"ID":255012,"DIS_CODE":0,"TOWNNAME":"歸仁區","LI":"八甲里","LIN":"14鄰","STREET":"大明街","SECT":" ","MAREA":" ","LANE":"１３９巷","ALLEY":" ","HOUSE_NO":"１號","E_COORD97":178116.62,"N_COORD97":2541873.6099999999,"ADDRESS":"大明街１３９巷１號","OBJECTID":255008},"geometry":{"x":178116.62000000104,"y":2541873.6100000031}},{"attributes":{"ID":255013,"DIS_CODE":0,"TOWNNAME":"楠西區","LI":"東勢里","LIN":"14鄰","STREET":"茄拔路","SECT":" ","MAREA":" ","LANE":"１７７巷","ALLEY":" ","HOUSE_NO":"７號","E_COORD97":197434.48000000001,"N_COORD97":2563796.2000000002,"ADDRESS":"茄拔路１７７巷７號","OBJECTID":255009},"geometry":{"x":197434.48000000138,"y":2563796.2000000011}},{"attributes":{"ID":255014,"DIS_CODE":0,"TOWNNAME":"北區","LI":"振興里","LIN":"14鄰","STREET":"開元路","SECT":" ","MAREA":" ","LANE":"２１２巷","ALLEY":" ","HOUSE_NO":"５６號之１","E_COORD97":170300.87,"N_COORD97":2545171.9199999999,"ADDRESS":"開元路２１２巷５６號之１","OBJECTID":255010},"geometry":{"x":170300.87000000011,"y":2545171.9200000018}},{"attributes":{"ID":255015,"DIS_CODE":0,"TOWNNAME":"北區","LI":"振興里","LIN":"14鄰","STREET":"開元路","SECT":" ","MAREA":" ","LANE":"２１２巷","ALLEY":" ","HOUSE_NO":"５８號","E_COORD97":170305.56,"N_COORD97":2545169.8500000001,"ADDRESS":"開元路２１２巷５８號","OBJECTID":255011},"geometry":{"x":170305.55999999959,"y":2545169.8499999996}},{"attributes":{"ID":255016,"DIS_CODE":0,"TOWNNAME":"新營區","LI":"中營里","LIN":"14鄰","STREET":"東山路","SECT":" ","MAREA":" ","LANE":"１９巷","ALLEY":" ","HOUSE_NO":"６５號","E_COORD97":181338.19,"N_COORD97":2578801.0099999998,"ADDRESS":"東山路１９巷６５號","OBJECTID":255012},"geometry":{"x":181338.18999999948,"y":2578801.0099999998}},{"attributes":{"ID":255017,"DIS_CODE":0,"TOWNNAME":"新營區","LI":"新北里","LIN":"14鄰","STREET":"南新街","SECT":" ","MAREA":" ","LANE":"１３巷","ALLEY":" ","HOUSE_NO":"１４號","E_COORD97":179321.87,"N_COORD97":2578826.23,"ADDRESS":"南新街１３巷１４號","OBJECTID":255013},"geometry":{"x":179321.87000000104,"y":2578826.2300000023}},{"attributes":{"ID":255018,"DIS_CODE":0,"TOWNNAME":"新營區","LI":"新北里","LIN":"14鄰","STREET":"南新街","SECT":" ","MAREA":" ","LANE":"１３巷","ALLEY":" ","HOUSE_NO":"４３號","E_COORD97":179247.07000000001,"N_COORD97":2578781.1699999999,"ADDRESS":"南新街１３巷４３號","OBJECTID":255014},"geometry":{"x":179247.07000000216,"y":2578781.1700000037}},{"attributes":{"ID":255019,"DIS_CODE":0,"TOWNNAME":"南區","LI":"文華里","LIN":"14鄰","STREET":"金華路","SECT":"二段","MAREA":" ","LANE":"３８５巷","ALLEY":" ","HOUSE_NO":"１８號","E_COORD97":167069.25,"N_COORD97":2543027.1699999999,"ADDRESS":"金華路二段３８５巷１８號","OBJECTID":255015},"geometry":{"x":167069.25000000093,"y":2543027.1700000018}},{"attributes":{"ID":255020,"DIS_CODE":0,"TOWNNAME":"永康區","LI":"龍潭里","LIN":"24鄰","STREET":"中山北路","SECT":" ","MAREA":" ","LANE":" ","ALLEY":" ","HOUSE_NO":"３４２之１號","E_COORD97":175096.06,"N_COORD97":2547698.2999999998,"ADDRESS":"中山北路３４２之１號","OBJECTID":255016},"geometry":{"x":175096.05999999959,"y":2547698.3000000045}},{"attributes":{"ID":255021,"DIS_CODE":0,"TOWNNAME":"永康區","LI":"網寮里","LIN":"24鄰","STREET":"永華路","SECT":" ","MAREA":" ","LANE":" ","ALLEY":" ","HOUSE_NO":"３９１號","E_COORD97":173886.23000000001,"N_COORD97":2546425.8599999999,"ADDRESS":"永華路３９１號","OBJECTID":255017},"geometry":{"x":173886.23000000138,"y":2546425.8600000013}},{"attributes":{"ID":255022,"DIS_CODE":0,"TOWNNAME":"新營區","LI":"新東里","LIN":"13鄰","STREET":"東興六街","SECT":" ","MAREA":" ","LANE":" ","ALLEY":" ","HOUSE_NO":"１０１號","E_COORD97":181001.48000000001,"N_COORD97":2579239.1400000001,"ADDRESS":"東興六街１０１號","OBJECTID":255018},"geometry":{"x":181001.48000000138,"y":2579239.1400000006}},{"attributes":{"ID":255023,"DIS_CODE":0,"TOWNNAME":"新營區","LI":"民生里","LIN":"24鄰","STREET":"民生路","SECT":" ","MAREA":" ","LANE":" ","ALLEY":" ","HOUSE_NO":"１１１號","E_COORD97":179235.76000000001,"N_COORD97":2578523.2000000002,"ADDRESS":"民生路１１１號","OBJECTID":255019},"geometry":{"x":179235.76000000071,"y":2578523.2000000011}},{"attributes":{"ID":255024,"DIS_CODE":0,"TOWNNAME":"南區","LI":"文華里","LIN":"14鄰","STREET":"金華路","SECT":"二段","MAREA":" ","LANE":"３８５巷","ALLEY":" ","HOUSE_NO":"２０號","E_COORD97":167064.53,"N_COORD97":2543027.7000000002,"ADDRESS":"金華路二段３８５巷２０號","OBJECTID":255020},"geometry":{"x":167064.53000000119,"y":2543027.6999999993}},{"attributes":{"ID":255025,"DIS_CODE":0,"TOWNNAME":"永康區","LI":"中興里","LIN":"5鄰","STREET":"中華路","SECT":" ","MAREA":" ","LANE":"２１４巷","ALLEY":" ","HOUSE_NO":"５０號","E_COORD97":171819.39999999999,"N_COORD97":2545056.9900000002,"ADDRESS":"中華路２１４巷５０號","OBJECTID":255021},"geometry":{"x":171819.40000000037,"y":2545056.9900000002}},{"attributes":{"ID":255026,"DIS_CODE":0,"TOWNNAME":"佳里區","LI":"建南里","LIN":"19鄰","STREET":"自由街","SECT":" ","MAREA":" ","LANE":"１３６巷","ALLEY":" ","HOUSE_NO":"１０號","E_COORD97":165730.09439799999,"N_COORD97":2561823.8008300001,"ADDRESS":"自由街１３６巷１０號","OBJECTID":255022},"geometry":{"x":165730.09439800214,"y":2561823.8008280005}},{"attributes":{"ID":255027,"DIS_CODE":0,"TOWNNAME":"永康區","LI":"中興里","LIN":"5鄰","STREET":"中華路","SECT":" ","MAREA":" ","LANE":"２１４巷","ALLEY":" ","HOUSE_NO":"２２號","E_COORD97":171753.39000000001,"N_COORD97":2545050.7400000002,"ADDRESS":"中華路２１４巷２２號","OBJECTID":255023},"geometry":{"x":171753.3900000006,"y":2545050.7400000021}},{"attributes":{"ID":255028,"DIS_CODE":0,"TOWNNAME":"永康區","LI":"中興里","LIN":"5鄰","STREET":"中華路","SECT":" ","MAREA":" ","LANE":"２１４巷","ALLEY":" ","HOUSE_NO":"７３號","E_COORD97":171882.39000000001,"N_COORD97":2545094.9300000002,"ADDRESS":"中華路２１４巷７３號","OBJECTID":255024},"geometry":{"x":171882.3900000006,"y":2545094.9299999997}},{"attributes":{"ID":255029,"DIS_CODE":0,"TOWNNAME":"南區","LI":"文華里","LIN":"14鄰","STREET":"金華路","SECT":"二段","MAREA":" ","LANE":"３８５巷","ALLEY":" ","HOUSE_NO":"２２號","E_COORD97":167059.32000000001,"N_COORD97":2543027.79,"ADDRESS":"金華路二段３８５巷２２號","OBJECTID":255025},"geometry":{"x":167059.32000000123,"y":2543027.7899999972}},{"attributes":{"ID":255030,"DIS_CODE":0,"TOWNNAME":"南區","LI":"再興里","LIN":"14鄰","STREET":"金華路","SECT":"二段","MAREA":" ","LANE":"１００巷","ALLEY":" ","HOUSE_NO":"３５號","E_COORD97":167196.16,"N_COORD97":2542096.0800000001,"ADDRESS":"金華路二段１００巷３５號","OBJECTID":255026},"geometry":{"x":167196.16000000015,"y":2542096.0800000019}},{"attributes":{"ID":255031,"DIS_CODE":0,"TOWNNAME":"南區","LI":"再興里","LIN":"14鄰","STREET":"金華路","SECT":"二段","MAREA":" ","LANE":"１００巷","ALLEY":" ","HOUSE_NO":"３５號地下室","E_COORD97":167195.64000000001,"N_COORD97":2542106.3300000001,"ADDRESS":"金華路二段１００巷３５號地下室","OBJECTID":255027},"geometry":{"x":167195.6400000006,"y":2542106.3299999982}},{"attributes":{"ID":255032,"DIS_CODE":0,"TOWNNAME":"歸仁區","LI":"新厝里","LIN":"14鄰","STREET":"公園十街","SECT":" ","MAREA":" ","LANE":"１１巷","ALLEY":" ","HOUSE_NO":"７號","E_COORD97":177651.32000000001,"N_COORD97":2540429.3399999999,"ADDRESS":"公園十街１１巷７號","OBJECTID":255028},"geometry":{"x":177651.3200000003,"y":2540429.3400000017}},{"attributes":{"ID":255033,"DIS_CODE":0,"TOWNNAME":"歸仁區","LI":"歸南里","LIN":"14鄰","STREET":"民生南街","SECT":"二段","MAREA":" ","LANE":"２７７巷","ALLEY":" ","HOUSE_NO":"４６號","E_COORD97":176205.10999999999,"N_COORD97":2539991.25,"ADDRESS":"民生南街二段２７７巷４６號","OBJECTID":255029},"geometry":{"x":176205.11000000034,"y":2539991.2499999981}},{"attributes":{"ID":255034,"DIS_CODE":0,"TOWNNAME":"仁德區","LI":"仁義里","LIN":"24鄰","STREET":"中清路","SECT":" ","MAREA":" ","LANE":" ","ALLEY":" ","HOUSE_NO":"１３５號","E_COORD97":173716.01000000001,"N_COORD97":2541457.7999999998,"ADDRESS":"中清路１３５號","OBJECTID":255030},"geometry":{"x":173716.01000000071,"y":2541457.8000000026}},{"attributes":{"ID":255035,"DIS_CODE":0,"TOWNNAME":"仁德區","LI":"仁德里","LIN":"24鄰","STREET":"文忠路","SECT":" ","MAREA":" ","LANE":" ","ALLEY":" ","HOUSE_NO":"６９號","E_COORD97":171938.63,"N_COORD97":2541525.3199999998,"ADDRESS":"文忠路６９號","OBJECTID":255031},"geometry":{"x":171938.63000000082,"y":2541525.3200000022}},{"attributes":{"ID":255036,"DIS_CODE":0,"TOWNNAME":"仁德區","LI":"仁義里","LIN":"24鄰","STREET":"中清路","SECT":" ","MAREA":" ","LANE":" ","ALLEY":" ","HOUSE_NO":"１４３號","E_COORD97":173717,"N_COORD97":2541474.7999999998,"ADDRESS":"中清路１４３號","OBJECTID":255032},"geometry":{"x":173717,"y":2541474.8000000026}},{"attributes":{"ID":255037,"DIS_CODE":0,"TOWNNAME":"仁德區","LI":"仁義里","LIN":"24鄰","STREET":"正義路","SECT":" ","MAREA":" ","LANE":" ","ALLEY":" ","HOUSE_NO":"１２９號","E_COORD97":173689.95000000001,"N_COORD97":2541432.0099999998,"ADDRESS":"正義路１２９號","OBJECTID":255033},"geometry":{"x":173689.95000000112,"y":2541432.0099999998}},{"attributes":{"ID":255038,"DIS_CODE":0,"TOWNNAME":"永康區","LI":"勝利里","LIN":"27鄰","STREET":"勝利街","SECT":" ","MAREA":" ","LANE":"５８巷","ALLEY":" ","HOUSE_NO":"６號","E_COORD97":171362.10999999999,"N_COORD97":2544667.6699999999,"ADDRESS":"勝利街５８巷６號","OBJECTID":255034},"geometry":{"x":171362.11000000034,"y":2544667.6700000018}},{"attributes":{"ID":255039,"DIS_CODE":0,"TOWNNAME":"永康區","LI":"龍潭里","LIN":"27鄰","STREET":"中山北路","SECT":" ","MAREA":" ","LANE":"４６１巷","ALLEY":" ","HOUSE_NO":"１３號","E_COORD97":175102.14000000001,"N_COORD97":2547825.23,"ADDRESS":"中山北路４６１巷１３號","OBJECTID":255035},"geometry":{"x":175102.13999999966,"y":2547825.2300000023}},{"attributes":{"ID":255040,"DIS_CODE":0,"TOWNNAME":"永康區","LI":"大橋里","LIN":"3鄰","STREET":"大橋三街","SECT":" ","MAREA":" ","LANE":"１２４巷","ALLEY":" ","HOUSE_NO":"５號","E_COORD97":170795.07000000001,"N_COORD97":2546684.2400000002,"ADDRESS":"大橋三街１２４巷５號","OBJECTID":255036},"geometry":{"x":170795.07000000123,"y":2546684.2400000039}},{"attributes":{"ID":255041,"DIS_CODE":0,"TOWNNAME":"永康區","LI":"中興里","LIN":"5鄰","STREET":"中華路","SECT":" ","MAREA":" ","LANE":"２１４巷","ALLEY":" ","HOUSE_NO":"１１號","E_COORD97":171733.51999999999,"N_COORD97":2545063.6699999999,"ADDRESS":"中華路２１４巷１１號","OBJECTID":255037},"geometry":{"x":171733.51999999862,"y":2545063.6699999981}},{"attributes":{"ID":255042,"DIS_CODE":0,"TOWNNAME":"永康區","LI":"中興里","LIN":"5鄰","STREET":"中華路","SECT":" ","MAREA":" ","LANE":"２１４巷","ALLEY":" ","HOUSE_NO":"２７號","E_COORD97":171770.57999999999,"N_COORD97":2545066.7200000002,"ADDRESS":"中華路２１４巷２７號","OBJECTID":255038},"geometry":{"x":171770.58000000007,"y":2545066.7200000007}},{"attributes":{"ID":255043,"DIS_CODE":0,"TOWNNAME":"永康區","LI":"大橋里","LIN":"15鄰","STREET":"大橋一街","SECT":" ","MAREA":" ","LANE":"１０３巷","ALLEY":" ","HOUSE_NO":"６３號","E_COORD97":170919.29999999999,"N_COORD97":2546559.5,"ADDRESS":"大橋一街１０３巷６３號","OBJECTID":255039},"geometry":{"x":170919.29999999981,"y":2546559.5}},{"attributes":{"ID":255044,"DIS_CODE":0,"TOWNNAME":"永康區","LI":"五王里","LIN":"31鄰","STREET":"五福街","SECT":" ","MAREA":" ","LANE":"９巷","ALLEY":" ","HOUSE_NO":"１８號","E_COORD97":171264.56,"N_COORD97":2545909.5,"ADDRESS":"五福街９巷１８號","OBJECTID":255040},"geometry":{"x":171264.56000000052,"y":2545909.5000000037}},{"attributes":{"ID":255045,"DIS_CODE":0,"TOWNNAME":"永康區","LI":"大橋里","LIN":"10鄰","STREET":"大橋一街","SECT":" ","MAREA":" ","LANE":"１０３巷","ALLEY":" ","HOUSE_NO":"１７８號","E_COORD97":170847.20999999999,"N_COORD97":2546724.5,"ADDRESS":"大橋一街１０３巷１７８號","OBJECTID":255041},"geometry":{"x":170847.20999999996,"y":2546724.5000000019}},{"attributes":{"ID":255046,"DIS_CODE":0,"TOWNNAME":"永康區","LI":"五王里","LIN":"37鄰","STREET":"中華路","SECT":" ","MAREA":" ","LANE":"５７８巷","ALLEY":" ","HOUSE_NO":"１５號之７９","E_COORD97":171276.03,"N_COORD97":2545965.79,"ADDRESS":"中華路５７８巷１５號之７９","OBJECTID":255042},"geometry":{"x":171276.03000000026,"y":2545965.7899999991}},{"attributes":{"ID":255047,"DIS_CODE":0,"TOWNNAME":"東區","LI":"崇信里","LIN":"27鄰","STREET":"崇學路","SECT":" ","MAREA":" ","LANE":"１４２巷","ALLEY":" ","HOUSE_NO":"６號","E_COORD97":170513.64000000001,"N_COORD97":2542368.71,"ADDRESS":"崇學路１４２巷６號","OBJECTID":255043},"geometry":{"x":170513.63999999966,"y":2542368.7100000009}},{"attributes":{"ID":255048,"DIS_CODE":0,"TOWNNAME":"東區","LI":"崇信里","LIN":"27鄰","STREET":"崇學路","SECT":" ","MAREA":" ","LANE":"１４２巷","ALLEY":" ","HOUSE_NO":"８號","E_COORD97":170521.16,"N_COORD97":2542362.4500000002,"ADDRESS":"崇學路１４２巷８號","OBJECTID":255044},"geometry":{"x":170521.16000000201,"y":2542362.450000003}},{"attributes":{"ID":255049,"DIS_CODE":0,"TOWNNAME":"永康區","LI":"五王里","LIN":"3鄰","STREET":"成功路","SECT":" ","MAREA":" ","LANE":"１７２巷","ALLEY":" ","HOUSE_NO":"１６號","E_COORD97":171506.28,"N_COORD97":2545648.71,"ADDRESS":"成功路１７２巷１６號","OBJECTID":255045},"geometry":{"x":171506.28000000119,"y":2545648.7100000028}},{"attributes":{"ID":255050,"DIS_CODE":0,"TOWNNAME":"安平區","LI":"港仔里","LIN":"14鄰","STREET":"運河路","SECT":" ","MAREA":" ","LANE":"２３巷","ALLEY":" ","HOUSE_NO":"３號","E_COORD97":164065.69,"N_COORD97":2544437.4399999999,"ADDRESS":"運河路２３巷３號","OBJECTID":255046},"geometry":{"x":164065.69000000041,"y":2544437.4399999995}},{"attributes":{"ID":255051,"DIS_CODE":0,"TOWNNAME":"仁德區","LI":"仁德里","LIN":"24鄰","STREET":"文孝路","SECT":" ","MAREA":" ","LANE":" ","ALLEY":" ","HOUSE_NO":"４１號","E_COORD97":172049.98999999999,"N_COORD97":2541404.3199999998,"ADDRESS":"文孝路４１號","OBJECTID":255047},"geometry":{"x":172049.99000000115,"y":2541404.3200000003}},{"attributes":{"ID":255052,"DIS_CODE":0,"TOWNNAME":"仁德區","LI":"仁義里","LIN":"24鄰","STREET":"中清路","SECT":" ","MAREA":" ","LANE":" ","ALLEY":" ","HOUSE_NO":"１２７號","E_COORD97":173711.60000000001,"N_COORD97":2541427.79,"ADDRESS":"中清路１２７號","OBJECTID":255048},"geometry":{"x":173711.60000000056,"y":2541427.7900000028}},{"attributes":{"ID":255053,"DIS_CODE":0,"TOWNNAME":"仁德區","LI":"仁義里","LIN":"24鄰","STREET":"中清路","SECT":" ","MAREA":" ","LANE":" ","ALLEY":" ","HOUSE_NO":"１４１號","E_COORD97":173716.88,"N_COORD97":2541470.2999999998,"ADDRESS":"中清路１４１號","OBJECTID":255049},"geometry":{"x":173716.88000000082,"y":2541470.3000000045}},{"attributes":{"ID":255054,"DIS_CODE":0,"TOWNNAME":"仁德區","LI":"仁義里","LIN":"24鄰","STREET":"中清路","SECT":" ","MAREA":" ","LANE":" ","ALLEY":" ","HOUSE_NO":"１３７號","E_COORD97":173716.38,"N_COORD97":2541462.0499999998,"ADDRESS":"中清路１３７號","OBJECTID":255050},"geometry":{"x":173716.37999999989,"y":2541462.0500000026}},{"attributes":{"ID":255055,"DIS_CODE":0,"TOWNNAME":"仁德區","LI":"仁義里","LIN":"24鄰","STREET":"正義路","SECT":" ","MAREA":" ","LANE":" ","ALLEY":" ","HOUSE_NO":"１１９號","E_COORD97":173667.70999999999,"N_COORD97":2541434.02,"ADDRESS":"正義路１１９號","OBJECTID":255051},"geometry":{"x":173667.71000000089,"y":2541434.0200000014}},{"attributes":{"ID":255056,"DIS_CODE":0,"TOWNNAME":"仁德區","LI":"仁義里","LIN":"24鄰","STREET":"正義路","SECT":" ","MAREA":" ","LANE":" ","ALLEY":" ","HOUSE_NO":"１１３號","E_COORD97":173652.75,"N_COORD97":2541436.52,"ADDRESS":"正義路１１３號","OBJECTID":255052},"geometry":{"x":173652.75,"y":2541436.5199999977}},{"attributes":{"ID":255057,"DIS_CODE":0,"TOWNNAME":"仁德區","LI":"仁德里","LIN":"24鄰","STREET":"文孝路","SECT":" ","MAREA":" ","LANE":" ","ALLEY":" ","HOUSE_NO":"２３號","E_COORD97":172081.98000000001,"N_COORD97":2541387.3199999998,"ADDRESS":"文孝路２３號","OBJECTID":255053},"geometry":{"x":172081.98000000045,"y":2541387.3200000003}},{"attributes":{"ID":255058,"DIS_CODE":0,"TOWNNAME":"仁德區","LI":"仁德里","LIN":"24鄰","STREET":"文孝路","SECT":" ","MAREA":" ","LANE":" ","ALLEY":" ","HOUSE_NO":"１７號","E_COORD97":172098.48999999999,"N_COORD97":2541378.8300000001,"ADDRESS":"文孝路１７號","OBJECTID":255054},"geometry":{"x":172098.49000000022,"y":2541378.8300000019}},{"attributes":{"ID":255059,"DIS_CODE":0,"TOWNNAME":"仁德區","LI":"仁德里","LIN":"24鄰","STREET":"文孝路","SECT":" ","MAREA":" ","LANE":" ","ALLEY":" ","HOUSE_NO":"５號","E_COORD97":172123.60999999999,"N_COORD97":2541364.8300000001,"ADDRESS":"文孝路５號","OBJECTID":255055},"geometry":{"x":172123.6099999994,"y":2541364.8300000019}},{"attributes":{"ID":255060,"DIS_CODE":0,"TOWNNAME":"仁德區","LI":"仁義里","LIN":"24鄰","STREET":"正義路","SECT":" ","MAREA":" ","LANE":" ","ALLEY":" ","HOUSE_NO":"１３１號","E_COORD97":173694.16,"N_COORD97":2541431.0099999998,"ADDRESS":"正義路１３１號","OBJECTID":255056},"geometry":{"x":173694.16000000015,"y":2541431.0100000016}},{"attributes":{"ID":255061,"DIS_CODE":0,"TOWNNAME":"佳里區","LI":"建南里","LIN":"19鄰","STREET":"自由街","SECT":" ","MAREA":" ","LANE":"１３６巷","ALLEY":" ","HOUSE_NO":"９號","E_COORD97":165732.84867400001,"N_COORD97":2561824.0124900001,"ADDRESS":"自由街１３６巷９號","OBJECTID":255057},"geometry":{"x":165732.8486740021,"y":2561824.0124950018}},{"attributes":{"ID":255062,"DIS_CODE":0,"TOWNNAME":"仁德區","LI":"仁義里","LIN":"24鄰","STREET":"正義路","SECT":" ","MAREA":" ","LANE":" ","ALLEY":" ","HOUSE_NO":"１３３號","E_COORD97":173697.92999999999,"N_COORD97":2541430.5099999998,"ADDRESS":"正義路１３３號","OBJECTID":255058},"geometry":{"x":173697.93000000063,"y":2541430.5100000035}},{"attributes":{"ID":255063,"DIS_CODE":0,"TOWNNAME":"仁德區","LI":"仁義里","LIN":"24鄰","STREET":"正義路","SECT":" ","MAREA":" ","LANE":" ","ALLEY":" ","HOUSE_NO":"１２３號","E_COORD97":173676.06,"N_COORD97":2541432.77,"ADDRESS":"正義路１２３號","OBJECTID":255059},"geometry":{"x":173676.06000000145,"y":2541432.7700000014}},{"attributes":{"ID":255064,"DIS_CODE":0,"TOWNNAME":"仁德區","LI":"仁義里","LIN":"24鄰","STREET":"正義路","SECT":" ","MAREA":" ","LANE":" ","ALLEY":" ","HOUSE_NO":"１１７號","E_COORD97":173662.79999999999,"N_COORD97":2541434.77,"ADDRESS":"正義路１１７號","OBJECTID":255060},"geometry":{"x":173662.80000000168,"y":2541434.7699999996}},{"attributes":{"ID":255065,"DIS_CODE":0,"TOWNNAME":"永康區","LI":"五王里","LIN":"17鄰","STREET":"成功路","SECT":" ","MAREA":" ","LANE":"２０４巷","ALLEY":" ","HOUSE_NO":"１７號","E_COORD97":171438.29000000001,"N_COORD97":2545734.1299999999,"ADDRESS":"成功路２０４巷１７號","OBJECTID":255061},"geometry":{"x":171438.29000000004,"y":2545734.129999999}},{"attributes":{"ID":255066,"DIS_CODE":0,"TOWNNAME":"佳里區","LI":"安西里","LIN":"27鄰","STREET":"忠孝路","SECT":" ","MAREA":" ","LANE":"２２９巷","ALLEY":" ","HOUSE_NO":"２號","E_COORD97":165225.01999999999,"N_COORD97":2563136.1400000001,"ADDRESS":"忠孝路２２９巷２號","OBJECTID":255062},"geometry":{"x":165225.01999999955,"y":2563136.1400000025}},{"attributes":{"ID":255067,"DIS_CODE":0,"TOWNNAME":"安平區","LI":"港仔里","LIN":"14鄰","STREET":"運河路","SECT":" ","MAREA":" ","LANE":"２３巷","ALLEY":" ","HOUSE_NO":"５號","E_COORD97":164064.89000000001,"N_COORD97":2544443.5800000001,"ADDRESS":"運河路２３巷５號","OBJECTID":255063},"geometry":{"x":164064.88999999966,"y":2544443.5800000001}},{"attributes":{"ID":255068,"DIS_CODE":0,"TOWNNAME":"安平區","LI":"港仔里","LIN":"14鄰","STREET":"運河路","SECT":" ","MAREA":" ","LANE":"２３巷","ALLEY":" ","HOUSE_NO":"７號","E_COORD97":164073.85999999999,"N_COORD97":2544441.3700000001,"ADDRESS":"運河路２３巷７號","OBJECTID":255064},"geometry":{"x":164073.86000000127,"y":2544441.3700000029}},{"attributes":{"ID":255069,"DIS_CODE":0,"TOWNNAME":"安平區","LI":"港仔里","LIN":"14鄰","STREET":"運河路","SECT":" ","MAREA":" ","LANE":"２３巷","ALLEY":" ","HOUSE_NO":"９號","E_COORD97":164090.91,"N_COORD97":2544438.1400000001,"ADDRESS":"運河路２３巷９號","OBJECTID":255065},"geometry":{"x":164090.91000000015,"y":2544438.1400000025}},{"attributes":{"ID":255070,"DIS_CODE":0,"TOWNNAME":"仁德區","LI":"仁義里","LIN":"55鄰","STREET":"中正路","SECT":"二段","MAREA":" ","LANE":"１１６０巷","ALLEY":" ","HOUSE_NO":"２３號","E_COORD97":173329.60000000001,"N_COORD97":2541281.52,"ADDRESS":"中正路二段１１６０巷２３號","OBJECTID":255066},"geometry":{"x":173329.59999999963,"y":2541281.5200000014}},{"attributes":{"ID":255071,"DIS_CODE":0,"TOWNNAME":"關廟區","LI":"五甲里","LIN":"3鄰","STREET":"旺萊路","SECT":" ","MAREA":" ","LANE":"５７巷","ALLEY":" ","HOUSE_NO":"１２號","E_COORD97":181560.80783500001,"N_COORD97":2539240.3441300001,"ADDRESS":"旺萊路５７巷１２號","OBJECTID":255067},"geometry":{"x":181560.80783500057,"y":2539240.3441320024}},{"attributes":{"ID":255072,"DIS_CODE":0,"TOWNNAME":"仁德區","LI":"仁義里","LIN":"55鄰","STREET":"中正路","SECT":"二段","MAREA":" ","LANE":"１１６０巷","ALLEY":" ","HOUSE_NO":"１１號","E_COORD97":173309.51999999999,"N_COORD97":2541267.5299999998,"ADDRESS":"中正路二段１１６０巷１１號","OBJECTID":255068},"geometry":{"x":173309.51999999955,"y":2541267.5300000012}},{"attributes":{"ID":255073,"DIS_CODE":0,"TOWNNAME":"仁德區","LI":"仁義里","LIN":"55鄰","STREET":"中正路","SECT":"二段","MAREA":" ","LANE":"１１６０巷","ALLEY":" ","HOUSE_NO":"１５號","E_COORD97":173309.03,"N_COORD97":2541275.5299999998,"ADDRESS":"中正路二段１１６０巷１５號","OBJECTID":255069},"geometry":{"x":173309.02999999933,"y":2541275.5299999993}},{"attributes":{"ID":255074,"DIS_CODE":0,"TOWNNAME":"仁德區","LI":"仁義里","LIN":"55鄰","STREET":"中正路","SECT":"二段","MAREA":" ","LANE":"１１６０巷","ALLEY":" ","HOUSE_NO":"２５號","E_COORD97":173329.87,"N_COORD97":2541277.77,"ADDRESS":"中正路二段１１６０巷２５號","OBJECTID":255070},"geometry":{"x":173329.87000000011,"y":2541277.7699999996}},{"attributes":{"ID":255075,"DIS_CODE":0,"TOWNNAME":"仁德區","LI":"仁義里","LIN":"55鄰","STREET":"中正路","SECT":"二段","MAREA":" ","LANE":"１１６０巷","ALLEY":" ","HOUSE_NO":"３號","E_COORD97":173310.45999999999,"N_COORD97":2541250.7799999998,"ADDRESS":"中正路二段１１６０巷３號","OBJECTID":255071},"geometry":{"x":173310.45999999996,"y":2541250.7799999993}},{"attributes":{"ID":255076,"DIS_CODE":0,"TOWNNAME":"仁德區","LI":"仁義里","LIN":"55鄰","STREET":"中正路","SECT":"二段","MAREA":" ","LANE":"１１６０巷","ALLEY":" ","HOUSE_NO":"１７號","E_COORD97":173307.39999999999,"N_COORD97":2541279.27,"ADDRESS":"中正路二段１１６０巷１７號","OBJECTID":255072},"geometry":{"x":173307.4000000013,"y":2541279.2700000033}},{"attributes":{"ID":255077,"DIS_CODE":0,"TOWNNAME":"歸仁區","LI":"南保里","LIN":"55鄰","STREET":"民權南路","SECT":" ","MAREA":" ","LANE":"１９６巷","ALLEY":" ","HOUSE_NO":"１２號","E_COORD97":176922.67999999999,"N_COORD97":2540368.2599999998,"ADDRESS":"民權南路１９６巷１２號","OBJECTID":255073},"geometry":{"x":176922.6799999997,"y":2540368.2600000016}},{"attributes":{"ID":255078,"DIS_CODE":0,"TOWNNAME":"歸仁區","LI":"南保里","LIN":"55鄰","STREET":"民權南路","SECT":" ","MAREA":" ","LANE":"１９６巷","ALLEY":" ","HOUSE_NO":"１６號","E_COORD97":176919.39999999999,"N_COORD97":2540367.6600000001,"ADDRESS":"民權南路１９６巷１６號","OBJECTID":255074},"geometry":{"x":176919.4000000013,"y":2540367.6600000001}},{"attributes":{"ID":255079,"DIS_CODE":0,"TOWNNAME":"歸仁區","LI":"南保里","LIN":"55鄰","STREET":"民權南路","SECT":" ","MAREA":" ","LANE":"１９６巷","ALLEY":" ","HOUSE_NO":"２０號","E_COORD97":176905.28,"N_COORD97":2540369.2599999998,"ADDRESS":"民權南路１９６巷２０號","OBJECTID":255075},"geometry":{"x":176905.28000000119,"y":2540369.2599999998}},{"attributes":{"ID":255080,"DIS_CODE":0,"TOWNNAME":"歸仁區","LI":"南保里","LIN":"55鄰","STREET":"民權南路","SECT":" ","MAREA":" ","LANE":"１９６巷","ALLEY":" ","HOUSE_NO":"１８號","E_COORD97":176915.29999999999,"N_COORD97":2540367.6600000001,"ADDRESS":"民權南路１９６巷１８號","OBJECTID":255076},"geometry":{"x":176915.29999999981,"y":2540367.6600000001}},{"attributes":{"ID":255081,"DIS_CODE":0,"TOWNNAME":"歸仁區","LI":"南保里","LIN":"55鄰","STREET":"民權南路","SECT":" ","MAREA":" ","LANE":"１９６巷","ALLEY":" ","HOUSE_NO":"２６號","E_COORD97":176869.85999999999,"N_COORD97":2540367.2999999998,"ADDRESS":"民權南路１９６巷２６號","OBJECTID":255077},"geometry":{"x":176869.86000000034,"y":2540367.3000000007}},{"attributes":{"ID":255082,"DIS_CODE":0,"TOWNNAME":"仁德區","LI":"仁義里","LIN":"55鄰","STREET":"中正路","SECT":"二段","MAREA":" ","LANE":"１１６０巷","ALLEY":" ","HOUSE_NO":"３３號","E_COORD97":173332.92999999999,"N_COORD97":2541262.2799999998,"ADDRESS":"中正路二段１１６０巷３３號","OBJECTID":255078},"geometry":{"x":173332.93000000156,"y":2541262.2800000012}},{"attributes":{"ID":255083,"DIS_CODE":0,"TOWNNAME":"仁德區","LI":"仁德里","LIN":"24鄰","STREET":"文孝路","SECT":" ","MAREA":" ","LANE":" ","ALLEY":" ","HOUSE_NO":"１１號","E_COORD97":172111.67999999999,"N_COORD97":2541372.0800000001,"ADDRESS":"文孝路１１號","OBJECTID":255079},"geometry":{"x":172111.6799999997,"y":2541372.0800000001}},{"attributes":{"ID":255084,"DIS_CODE":0,"TOWNNAME":"仁德區","LI":"仁德里","LIN":"24鄰","STREET":"文孝路","SECT":" ","MAREA":" ","LANE":" ","ALLEY":" ","HOUSE_NO":"８５號","E_COORD97":172020.14000000001,"N_COORD97":2541396.0699999998,"ADDRESS":"文孝路８５號","OBJECTID":255080},"geometry":{"x":172020.1400000006,"y":2541396.0700000003}},{"attributes":{"ID":255085,"DIS_CODE":0,"TOWNNAME":"佳里區","LI":"安西里","LIN":"27鄰","STREET":"忠孝路","SECT":" ","MAREA":" ","LANE":"２２９巷","ALLEY":" ","HOUSE_NO":"７號","E_COORD97":165230.92000000001,"N_COORD97":2563113.5600000001,"ADDRESS":"忠孝路２２９巷７號","OBJECTID":255081},"geometry":{"x":165230.92000000086,"y":2563113.5600000024}},{"attributes":{"ID":255086,"DIS_CODE":0,"TOWNNAME":"仁德區","LI":"仁義里","LIN":"55鄰","STREET":"中正路","SECT":"二段","MAREA":" ","LANE":"１１６０巷","ALLEY":" ","HOUSE_NO":"９號","E_COORD97":173308.87,"N_COORD97":2541263.5299999998,"ADDRESS":"中正路二段１１６０巷９號","OBJECTID":255082},"geometry":{"x":173308.87000000104,"y":2541263.5300000031}},{"attributes":{"ID":255087,"DIS_CODE":0,"TOWNNAME":"仁德區","LI":"仁義里","LIN":"55鄰","STREET":"中正路","SECT":"二段","MAREA":" ","LANE":"１１６０巷","ALLEY":" ","HOUSE_NO":"２１號","E_COORD97":173305.85000000001,"N_COORD97":2541287.52,"ADDRESS":"中正路二段１１６０巷２１號","OBJECTID":255083},"geometry":{"x":173305.84999999963,"y":2541287.5200000033}},{"attributes":{"ID":255088,"DIS_CODE":0,"TOWNNAME":"仁德區","LI":"仁義里","LIN":"55鄰","STREET":"中正路","SECT":"二段","MAREA":" ","LANE":"１１６０巷","ALLEY":" ","HOUSE_NO":"３９號","E_COORD97":173346.26000000001,"N_COORD97":2541256.2799999998,"ADDRESS":"中正路二段１１６０巷３９號","OBJECTID":255084},"geometry":{"x":173346.26000000071,"y":2541256.2800000012}},{"attributes":{"ID":255089,"DIS_CODE":0,"TOWNNAME":"仁德區","LI":"仁義里","LIN":"55鄰","STREET":"中正路","SECT":"二段","MAREA":" ","LANE":"１１６０巷","ALLEY":" ","HOUSE_NO":"５號","E_COORD97":173309.64999999999,"N_COORD97":2541255.5299999998,"ADDRESS":"中正路二段１１６０巷５號","OBJECTID":255085},"geometry":{"x":173309.65000000037,"y":2541255.5299999993}},{"attributes":{"ID":255090,"DIS_CODE":0,"TOWNNAME":"仁德區","LI":"仁義里","LIN":"55鄰","STREET":"中正路","SECT":"二段","MAREA":" ","LANE":"１１６０巷","ALLEY":" ","HOUSE_NO":"１號","E_COORD97":173300.82000000001,"N_COORD97":2541248.7799999998,"ADDRESS":"中正路二段１１６０巷１號","OBJECTID":255086},"geometry":{"x":173300.82000000123,"y":2541248.7800000012}},{"attributes":{"ID":255091,"DIS_CODE":0,"TOWNNAME":"仁德區","LI":"仁義里","LIN":"55鄰","STREET":"中正路","SECT":"二段","MAREA":" ","LANE":"１１６０巷","ALLEY":" ","HOUSE_NO":"４５號","E_COORD97":173321.04000000001,"N_COORD97":2541251.7799999998,"ADDRESS":"中正路二段１１６０巷４５號","OBJECTID":255087},"geometry":{"x":173321.04000000097,"y":2541251.7800000031}},{"attributes":{"ID":255092,"DIS_CODE":0,"TOWNNAME":"仁德區","LI":"仁義里","LIN":"55鄰","STREET":"中正路","SECT":"二段","MAREA":" ","LANE":"１１６０巷","ALLEY":" ","HOUSE_NO":"３７號","E_COORD97":173333.89999999999,"N_COORD97":2541254.2799999998,"ADDRESS":"中正路二段１１６０巷３７號","OBJECTID":255088},"geometry":{"x":173333.90000000224,"y":2541254.2799999993}},{"attributes":{"ID":255093,"DIS_CODE":0,"TOWNNAME":"仁德區","LI":"仁義里","LIN":"55鄰","STREET":"中正路","SECT":"二段","MAREA":" ","LANE":"１１６０巷","ALLEY":" ","HOUSE_NO":"１９號","E_COORD97":173306.64000000001,"N_COORD97":2541283.27,"ADDRESS":"中正路二段１１６０巷１９號","OBJECTID":255089},"geometry":{"x":173306.6400000006,"y":2541283.2700000014}},{"attributes":{"ID":255094,"DIS_CODE":0,"TOWNNAME":"仁德區","LI":"仁德里","LIN":"24鄰","STREET":"文孝路","SECT":" ","MAREA":" ","LANE":" ","ALLEY":" ","HOUSE_NO":"５１號","E_COORD97":172058.09,"N_COORD97":2541375.5800000001,"ADDRESS":"文孝路５１號","OBJECTID":255090},"geometry":{"x":172058.08999999985,"y":2541375.5800000001}},{"attributes":{"ID":255095,"DIS_CODE":0,"TOWNNAME":"新市區","LI":"港墘里","LIN":"27鄰","STREET":"華美街","SECT":" ","MAREA":" ","LANE":"４９巷","ALLEY":" ","HOUSE_NO":"９號","E_COORD97":178094.39999999999,"N_COORD97":2552948.2999999998,"ADDRESS":"華美街４９巷９號","OBJECTID":255091},"geometry":{"x":178094.4000000013,"y":2552948.3000000007}},{"attributes":{"ID":255096,"DIS_CODE":0,"TOWNNAME":"永康區","LI":"大灣里","LIN":"13鄰","STREET":"大灣六街","SECT":" ","MAREA":" ","LANE":"５９巷","ALLEY":" ","HOUSE_NO":"３號","E_COORD97":175099.31,"N_COORD97":2545285.2400000002,"ADDRESS":"大灣六街５９巷３號","OBJECTID":255092},"geometry":{"x":175099.30999999959,"y":2545285.2400000021}},{"attributes":{"ID":255097,"DIS_CODE":0,"TOWNNAME":"新市區","LI":"新和里","LIN":"27鄰","STREET":"永福街","SECT":" ","MAREA":" ","LANE":"１６巷","ALLEY":" ","HOUSE_NO":"６５號","E_COORD97":177788.79000000001,"N_COORD97":2552856.5,"ADDRESS":"永福街１６巷６５號","OBJECTID":255093},"geometry":{"x":177788.79000000004,"y":2552856.5000000019}},{"attributes":{"ID":255098,"DIS_CODE":0,"TOWNNAME":"新市區","LI":"港墘里","LIN":"27鄰","STREET":"華美街","SECT":" ","MAREA":" ","LANE":"４９巷","ALLEY":" ","HOUSE_NO":"１６號","E_COORD97":178082.84,"N_COORD97":2552978.5499999998,"ADDRESS":"華美街４９巷１６號","OBJECTID":255094},"geometry":{"x":178082.83999999985,"y":2552978.5500000045}},{"attributes":{"ID":255099,"DIS_CODE":0,"TOWNNAME":"永康區","LI":"永康里","LIN":"27鄰","STREET":"永康街","SECT":" ","MAREA":" ","LANE":"３１０巷","ALLEY":" ","HOUSE_NO":"２９號","E_COORD97":174228.14999999999,"N_COORD97":2546952.7999999998,"ADDRESS":"永康街３１０巷２９號","OBJECTID":255095},"geometry":{"x":174228.15000000037,"y":2546952.8000000026}},{"attributes":{"ID":255100,"DIS_CODE":0,"TOWNNAME":"仁德區","LI":"仁義里","LIN":"24鄰","STREET":"正義路","SECT":" ","MAREA":" ","LANE":" ","ALLEY":" ","HOUSE_NO":"１３５號","E_COORD97":173702.34,"N_COORD97":2541429.7599999998,"ADDRESS":"正義路１３５號","OBJECTID":255096},"geometry":{"x":173702.34000000078,"y":2541429.7600000016}},{"attributes":{"ID":255101,"DIS_CODE":0,"TOWNNAME":"仁德區","LI":"仁德里","LIN":"24鄰","STREET":"文孝路","SECT":" ","MAREA":" ","LANE":" ","ALLEY":" ","HOUSE_NO":"７７號","E_COORD97":172010.42000000001,"N_COORD97":2541390.0699999998,"ADDRESS":"文孝路７７號","OBJECTID":255097},"geometry":{"x":172010.41999999993,"y":2541390.0700000022}},{"attributes":{"ID":255102,"DIS_CODE":0,"TOWNNAME":"東區","LI":"中西里","LIN":"24鄰","STREET":"長榮路","SECT":"二段","MAREA":" ","LANE":" ","ALLEY":" ","HOUSE_NO":"２５０號","E_COORD97":170176.14999999999,"N_COORD97":2543441.4199999999,"ADDRESS":"長榮路二段２５０號","OBJECTID":255098},"geometry":{"x":170176.1500000013,"y":2543441.4199999981}},{"attributes":{"ID":255103,"DIS_CODE":0,"TOWNNAME":"永康區","LI":"\u25A0洲里","LIN":"24鄰","STREET":"正南二街","SECT":" ","MAREA":" ","LANE":" ","ALLEY":" ","HOUSE_NO":"１１６號","E_COORD97":170673.35999999999,"N_COORD97":2548439.8399999999,"ADDRESS":"正南二街１１６號","OBJECTID":255099},"geometry":{"x":170673.36000000127,"y":2548439.8400000017}},{"attributes":{"ID":255104,"DIS_CODE":0,"TOWNNAME":"永康區","LI":"中華里","LIN":"24鄰","STREET":"華興街","SECT":" ","MAREA":" ","LANE":" ","ALLEY":" ","HOUSE_NO":"１２２號","E_COORD97":171780.82000000001,"N_COORD97":2544583.5299999998,"ADDRESS":"華興街１２２號","OBJECTID":255100},"geometry":{"x":171780.8200000003,"y":2544583.5300000012}},{"attributes":{"ID":255105,"DIS_CODE":0,"TOWNNAME":"永康區","LI":"中華里","LIN":"24鄰","STREET":"華興街","SECT":" ","MAREA":" ","LANE":" ","ALLEY":" ","HOUSE_NO":"１２８號","E_COORD97":171767.07999999999,"N_COORD97":2544582.4100000001,"ADDRESS":"華興街１２８號","OBJECTID":255101},"geometry":{"x":171767.08000000007,"y":2544582.410000002}},{"attributes":{"ID":255106,"DIS_CODE":0,"TOWNNAME":"安南區","LI":"布袋里","LIN":"7鄰","STREET":"長和路","SECT":"四段","MAREA":" ","LANE":"２００巷","ALLEY":" ","HOUSE_NO":"１１號","E_COORD97":168786.88,"N_COORD97":2551736.1400000001,"ADDRESS":"長和路四段２００巷１１號","OBJECTID":255102},"geometry":{"x":168786.87999999896,"y":2551736.1400000006}},{"attributes":{"ID":255107,"DIS_CODE":0,"TOWNNAME":"中西區","LI":"普濟里","LIN":"7鄰","STREET":"海安路","SECT":" ","MAREA":" ","LANE":"４３６巷","ALLEY":" ","HOUSE_NO":"１９號","E_COORD97":167845.79000000001,"N_COORD97":2544386.5699999998,"ADDRESS":"海安路４３６巷１９號","OBJECTID":255103},"geometry":{"x":167845.79000000097,"y":2544386.5700000003}},{"attributes":{"ID":255108,"DIS_CODE":0,"TOWNNAME":"中西區","LI":"普濟里","LIN":"7鄰","STREET":"海安路","SECT":" ","MAREA":" ","LANE":"４３６巷","ALLEY":" ","HOUSE_NO":"２１號","E_COORD97":167851.73000000001,"N_COORD97":2544387.6899999999,"ADDRESS":"海安路４３６巷２１號","OBJECTID":255104},"geometry":{"x":167851.73000000138,"y":2544387.6899999995}},{"attributes":{"ID":255109,"DIS_CODE":0,"TOWNNAME":"中西區","LI":"普濟里","LIN":"7鄰","STREET":"海安路","SECT":" ","MAREA":" ","LANE":"４３６巷","ALLEY":" ","HOUSE_NO":"２３號","E_COORD97":167859.59,"N_COORD97":2544388.48,"ADDRESS":"海安路４３６巷２３號","OBJECTID":255105},"geometry":{"x":167859.58999999985,"y":2544388.4800000023}},{"attributes":{"ID":255110,"DIS_CODE":0,"TOWNNAME":"北區","LI":"實踐里","LIN":"7鄰","STREET":"長榮路","SECT":"五段","MAREA":" ","LANE":"２９８巷","ALLEY":" ","HOUSE_NO":"５８號","E_COORD97":169783.10000000001,"N_COORD97":2546068.6899999999,"ADDRESS":"長榮路五段２９８巷５８號","OBJECTID":255106},"geometry":{"x":169783.09999999963,"y":2546068.6899999995}},{"attributes":{"ID":255111,"DIS_CODE":0,"TOWNNAME":"北區","LI":"實踐里","LIN":"7鄰","STREET":"長榮路","SECT":"五段","MAREA":" ","LANE":"２９８巷","ALLEY":" ","HOUSE_NO":"６０號","E_COORD97":169784.84,"N_COORD97":2546073.8999999999,"ADDRESS":"長榮路五段２９８巷６０號","OBJECTID":255107},"geometry":{"x":169784.83999999985,"y":2546073.9000000022}},{"attributes":{"ID":255112,"DIS_CODE":0,"TOWNNAME":"北區","LI":"實踐里","LIN":"7鄰","STREET":"長榮路","SECT":"五段","MAREA":" ","LANE":"２９８巷","ALLEY":" ","HOUSE_NO":"６２號","E_COORD97":169785.54000000001,"N_COORD97":2546078.4100000001,"ADDRESS":"長榮路五段２９８巷６２號","OBJECTID":255108},"geometry":{"x":169785.54000000004,"y":2546078.4100000001}},{"attributes":{"ID":255113,"DIS_CODE":0,"TOWNNAME":"南區","LI":"佛壇里","LIN":"7鄰","STREET":"興南街","SECT":" ","MAREA":" ","LANE":"５５巷","ALLEY":" ","HOUSE_NO":"５６號","E_COORD97":166307.37,"N_COORD97":2535954.8599999999,"ADDRESS":"興南街５５巷５６號","OBJECTID":255109},"geometry":{"x":166307.37000000104,"y":2535954.8599999994}},{"attributes":{"ID":255114,"DIS_CODE":0,"TOWNNAME":"東區","LI":"路東里","LIN":"7鄰","STREET":"大同路","SECT":"二段","MAREA":" ","LANE":"６１巷","ALLEY":" ","HOUSE_NO":"５號","E_COORD97":169349.29000000001,"N_COORD97":2542248.8100000001,"ADDRESS":"大同路二段六一巷５號","OBJECTID":255110},"geometry":{"x":169349.29000000097,"y":2542248.8100000005}},{"attributes":{"ID":255115,"DIS_CODE":0,"TOWNNAME":"新營區","LI":"王公里","LIN":"27鄰","STREET":"民族路","SECT":" ","MAREA":" ","LANE":"３０６巷","ALLEY":" ","HOUSE_NO":"９號","E_COORD97":180433.54000000001,"N_COORD97":2579717.9900000002,"ADDRESS":"民族路３０６巷９號","OBJECTID":255111},"geometry":{"x":180433.54000000004,"y":2579717.9900000002}},{"attributes":{"ID":255116,"DIS_CODE":0,"TOWNNAME":"新營區","LI":"王公里","LIN":"27鄰","STREET":"民族路","SECT":" ","MAREA":" ","LANE":"３０６巷","ALLEY":" ","HOUSE_NO":"８號","E_COORD97":180428.53,"N_COORD97":2579718.0099999998,"ADDRESS":"民族路３０６巷８號","OBJECTID":255112},"geometry":{"x":180428.53000000026,"y":2579718.0100000035}},{"attributes":{"ID":255117,"DIS_CODE":0,"TOWNNAME":"新營區","LI":"王公里","LIN":"27鄰","STREET":"民族路","SECT":" ","MAREA":" ","LANE":"３０２巷","ALLEY":" ","HOUSE_NO":"３號","E_COORD97":180407.97,"N_COORD97":2579692.6400000001,"ADDRESS":"民族路３０２巷３號","OBJECTID":255113},"geometry":{"x":180407.96999999974,"y":2579692.6400000006}},{"attributes":{"ID":255118,"DIS_CODE":0,"TOWNNAME":"新營區","LI":"王公里","LIN":"27鄰","STREET":"民族路","SECT":" ","MAREA":" ","LANE":"３０８巷","ALLEY":" ","HOUSE_NO":"３２號","E_COORD97":180463.14999999999,"N_COORD97":2579731.77,"ADDRESS":"民族路３０８巷３２號","OBJECTID":255114},"geometry":{"x":180463.15000000037,"y":2579731.7699999996}},{"attributes":{"ID":255119,"DIS_CODE":0,"TOWNNAME":"安南區","LI":"南興里","LIN":"6鄰","STREET":"公學路","SECT":"五段","MAREA":" ","LANE":"６９７巷","ALLEY":" ","HOUSE_NO":"６３號","E_COORD97":163857.13,"N_COORD97":2552694.8399999999,"ADDRESS":"公學路五段６９７巷６３號","OBJECTID":255115},"geometry":{"x":163857.12999999989,"y":2552694.8400000017}},{"attributes":{"ID":255120,"DIS_CODE":0,"TOWNNAME":"安南區","LI":"南興里","LIN":"6鄰","STREET":"公學路","SECT":"五段","MAREA":" ","LANE":"６９７巷","ALLEY":" ","HOUSE_NO":"６５號","E_COORD97":163856.37,"N_COORD97":2552690.5299999998,"ADDRESS":"公學路五段６９７巷６５號","OBJECTID":255116},"geometry":{"x":163856.37000000104,"y":2552690.5300000012}},{"attributes":{"ID":255121,"DIS_CODE":0,"TOWNNAME":"安南區","LI":"南興里","LIN":"6鄰","STREET":"公學路","SECT":"五段","MAREA":" ","LANE":"６９７巷","ALLEY":" ","HOUSE_NO":"６７號","E_COORD97":163856.12,"N_COORD97":2552687.48,"ADDRESS":"公學路五段６９７巷６７號","OBJECTID":255117},"geometry":{"x":163856.12000000104,"y":2552687.4800000042}},{"attributes":{"ID":255122,"DIS_CODE":0,"TOWNNAME":"永康區","LI":"中華里","LIN":"24鄰","STREET":"華興街","SECT":" ","MAREA":" ","LANE":" ","ALLEY":" ","HOUSE_NO":"１４６號","E_COORD97":171731.54000000001,"N_COORD97":2544582.7999999998,"ADDRESS":"華興街１４６號","OBJECTID":255118},"geometry":{"x":171731.54000000004,"y":2544582.8000000026}},{"attributes":{"ID":255123,"DIS_CODE":0,"TOWNNAME":"永康區","LI":"\u25A0洲里","LIN":"24鄰","STREET":"正南二街","SECT":" ","MAREA":" ","LANE":" ","ALLEY":" ","HOUSE_NO":"６８號","E_COORD97":170791.98000000001,"N_COORD97":2548339.73,"ADDRESS":"正南二街６８號","OBJECTID":255119},"geometry":{"x":170791.98000000045,"y":2548339.7300000023}},{"attributes":{"ID":255124,"DIS_CODE":0,"TOWNNAME":"安南區","LI":"東和里","LIN":"6鄰","STREET":"長和路","SECT":"一段","MAREA":" ","LANE":"８４５巷","ALLEY":" ","HOUSE_NO":"１７號之５","E_COORD97":170817.76000000001,"N_COORD97":2551357.2000000002,"ADDRESS":"長和路一段８４５巷１７號之５","OBJECTID":255120},"geometry":{"x":170817.75999999978,"y":2551357.1999999993}},{"attributes":{"ID":255125,"DIS_CODE":0,"TOWNNAME":"中西區","LI":"普濟里","LIN":"7鄰","STREET":"海安路","SECT":"二段","MAREA":" ","LANE":"２９６巷","ALLEY":" ","HOUSE_NO":"３１號","E_COORD97":167869.22,"N_COORD97":2544393.1899999999,"ADDRESS":"海安路二段２９６巷３１號","OBJECTID":255121},"geometry":{"x":167869.2200000016,"y":2544393.1900000013}},{"attributes":{"ID":255126,"DIS_CODE":0,"TOWNNAME":"安南區","LI":"布袋里","LIN":"7鄰","STREET":"長和路","SECT":"四段","MAREA":" ","LANE":"２００巷","ALLEY":" ","HOUSE_NO":"８號","E_COORD97":168813.22,"N_COORD97":2551729.9100000001,"ADDRESS":"長和路四段２００巷８號","OBJECTID":255122},"geometry":{"x":168813.21999999881,"y":2551729.9100000001}},{"attributes":{"ID":255127,"DIS_CODE":0,"TOWNNAME":"安南區","LI":"布袋里","LIN":"7鄰","STREET":"長和路","SECT":"四段","MAREA":" ","LANE":"２００巷","ALLEY":" ","HOUSE_NO":"１０號","E_COORD97":168808.76000000001,"N_COORD97":2551737.4700000002,"ADDRESS":"長和路四段２００巷１０號","OBJECTID":255123},"geometry":{"x":168808.76000000071,"y":2551737.4700000007}},{"attributes":{"ID":255128,"DIS_CODE":0,"TOWNNAME":"安南區","LI":"布袋里","LIN":"7鄰","STREET":"長和路","SECT":"四段","MAREA":" ","LANE":"２００巷","ALLEY":" ","HOUSE_NO":"２１號","E_COORD97":168764.53,"N_COORD97":2551771.0800000001,"ADDRESS":"長和路四段２００巷２１號","OBJECTID":255124},"geometry":{"x":168764.53000000119,"y":2551771.0800000019}},{"attributes":{"ID":255129,"DIS_CODE":0,"TOWNNAME":"安南區","LI":"布袋里","LIN":"7鄰","STREET":"長和路","SECT":"四段","MAREA":" ","LANE":"２００巷","ALLEY":" ","HOUSE_NO":"２３號","E_COORD97":168760.92000000001,"N_COORD97":2551777.0899999999,"ADDRESS":"長和路四段２００巷２３號","OBJECTID":255125},"geometry":{"x":168760.91999999993,"y":2551777.089999998}},{"attributes":{"ID":255130,"DIS_CODE":0,"TOWNNAME":"安南區","LI":"州南里","LIN":"7鄰","STREET":"長和一街","SECT":" ","MAREA":" ","LANE":"２９巷","ALLEY":" ","HOUSE_NO":"２號","E_COORD97":169527.67343699999,"N_COORD97":2551472.4768400001,"ADDRESS":"長和一街２９巷２號","OBJECTID":255126},"geometry":{"x":169527.67343700118,"y":2551472.4768410027}},{"attributes":{"ID":255131,"DIS_CODE":0,"TOWNNAME":"中西區","LI":"普濟里","LIN":"7鄰","STREET":"海安路","SECT":"二段","MAREA":" ","LANE":"２９６巷","ALLEY":" ","HOUSE_NO":"３５號","E_COORD97":167874.89000000001,"N_COORD97":2544396.6099999999,"ADDRESS":"海安路二段２９６巷３５號","OBJECTID":255127},"geometry":{"x":167874.8900000006,"y":2544396.6100000013}},{"attributes":{"ID":255132,"DIS_CODE":0,"TOWNNAME":"中西區","LI":"普濟里","LIN":"7鄰","STREET":"海安路","SECT":"二段","MAREA":" ","LANE":"２９６巷","ALLEY":" ","HOUSE_NO":"３３號","E_COORD97":167871.26999999999,"N_COORD97":2544394.6600000001,"ADDRESS":"海安路二段２９６巷３３號","OBJECTID":255128},"geometry":{"x":167871.26999999955,"y":2544394.6600000001}},{"attributes":{"ID":255133,"DIS_CODE":0,"TOWNNAME":"中西區","LI":"普濟里","LIN":"7鄰","STREET":"海安路","SECT":"二段","MAREA":" ","LANE":"２９６巷","ALLEY":" ","HOUSE_NO":"２９號","E_COORD97":167864.92000000001,"N_COORD97":2544391.0499999998,"ADDRESS":"海安路二段２９６巷２９號","OBJECTID":255129},"geometry":{"x":167864.92000000086,"y":2544391.0500000045}},{"attributes":{"ID":255134,"DIS_CODE":0,"TOWNNAME":"永康區","LI":"\u25A0洲里","LIN":"24鄰","STREET":"正南二街","SECT":" ","MAREA":" ","LANE":" ","ALLEY":" ","HOUSE_NO":"４１號","E_COORD97":170818.29000000001,"N_COORD97":2548286.75,"ADDRESS":"正南二街４１號","OBJECTID":255130},"geometry":{"x":170818.29000000004,"y":2548286.75}},{"attributes":{"ID":255135,"DIS_CODE":0,"TOWNNAME":"永康區","LI":"\u25A0洲里","LIN":"24鄰","STREET":"國聖街","SECT":" ","MAREA":" ","LANE":" ","ALLEY":" ","HOUSE_NO":"２３８號","E_COORD97":170720.67000000001,"N_COORD97":2548289.77,"ADDRESS":"國聖街２３８號","OBJECTID":255131},"geometry":{"x":170720.66999999993,"y":2548289.7699999996}},{"attributes":{"ID":255136,"DIS_CODE":0,"TOWNNAME":"永康區","LI":"\u25A0洲里","LIN":"24鄰","STREET":"國聖街","SECT":" ","MAREA":" ","LANE":" ","ALLEY":" ","HOUSE_NO":"２８２號","E_COORD97":170809.72,"N_COORD97":2548379.5800000001,"ADDRESS":"國聖街２８２號","OBJECTID":255132},"geometry":{"x":170809.71999999974,"y":2548379.5800000001}},{"attributes":{"ID":255137,"DIS_CODE":0,"TOWNNAME":"新營區","LI":"南紙里","LIN":"27鄰","STREET":" ","SECT":" ","MAREA":"茄苳腳","LANE":" ","ALLEY":" ","HOUSE_NO":"４號之１","E_COORD97":177339.48000000001,"N_COORD97":2578186.8999999999,"ADDRESS":"茄苳腳４號之１","OBJECTID":255133},"geometry":{"x":177339.48000000138,"y":2578186.9000000041}},{"attributes":{"ID":255138,"DIS_CODE":0,"TOWNNAME":"永康區","LI":"五王里","LIN":"27鄰","STREET":"五福街","SECT":" ","MAREA":" ","LANE":"１１０巷","ALLEY":" ","HOUSE_NO":"２號","E_COORD97":171548.23999999999,"N_COORD97":2545963.5699999998,"ADDRESS":"五福街１１０巷２號","OBJECTID":255134},"geometry":{"x":171548.24000000115,"y":2545963.570000004}},{"attributes":{"ID":255139,"DIS_CODE":0,"TOWNNAME":"永康區","LI":"五王里","LIN":"1鄰","STREET":"中華二路","SECT":" ","MAREA":" ","LANE":"２０６巷","ALLEY":" ","HOUSE_NO":"２９號","E_COORD97":171575.82000000001,"N_COORD97":2545541.4900000002,"ADDRESS":"中華二路２０６巷２９號","OBJECTID":255135},"geometry":{"x":171575.8200000003,"y":2545541.4900000021}},{"attributes":{"ID":255140,"DIS_CODE":0,"TOWNNAME":"永康區","LI":"五王里","LIN":"1鄰","STREET":"中華二路","SECT":" ","MAREA":" ","LANE":"２０６巷","ALLEY":" ","HOUSE_NO":"１１號","E_COORD97":171582.14999999999,"N_COORD97":2545501.0600000001,"ADDRESS":"中華二路２０６巷１１號","OBJECTID":255136},"geometry":{"x":171582.15000000037,"y":2545501.0600000005}},{"attributes":{"ID":255141,"DIS_CODE":0,"TOWNNAME":"永康區","LI":"大橋里","LIN":"10鄰","STREET":"大橋三街","SECT":" ","MAREA":" ","LANE":"２６６巷","ALLEY":" ","HOUSE_NO":"１１４號","E_COORD97":170910.34,"N_COORD97":2546740.75,"ADDRESS":"大橋三街２６６巷１１４號","OBJECTID":255137},"geometry":{"x":170910.34000000078,"y":2546740.75}},{"attributes":{"ID":255142,"DIS_CODE":0,"TOWNNAME":"東區","LI":"大學里","LIN":"6鄰","STREET":"大學路","SECT":" ","MAREA":" ","LANE":"１２巷","ALLEY":" ","HOUSE_NO":"６號之５二樓之４","E_COORD97":170055.14999999999,"N_COORD97":2543970.8900000001,"ADDRESS":"大學路１２巷６號之５二樓之４","OBJECTID":255138},"geometry":{"x":170055.15000000037,"y":2543970.8900000006}},{"attributes":{"ID":255143,"DIS_CODE":0,"TOWNNAME":"北區","LI":"華興里","LIN":"6鄰","STREET":"林森路","SECT":"三段","MAREA":" ","LANE":"２４０巷","ALLEY":" ","HOUSE_NO":"１３之５號","E_COORD97":170580.07000000001,"N_COORD97":2545286,"ADDRESS":"林森路三段２４０巷１３之５號","OBJECTID":255139},"geometry":{"x":170580.07000000123,"y":2545286.0000000019}},{"attributes":{"ID":255144,"DIS_CODE":0,"TOWNNAME":"北區","LI":"華興里","LIN":"6鄰","STREET":"林森路","SECT":"三段","MAREA":" ","LANE":"２４０巷","ALLEY":" ","HOUSE_NO":"１３之７號","E_COORD97":170585.47,"N_COORD97":2545304.1000000001,"ADDRESS":"林森路三段２４０巷１３之７號","OBJECTID":255140},"geometry":{"x":170585.47000000067,"y":2545304.0999999996}},{"attributes":{"ID":255145,"DIS_CODE":0,"TOWNNAME":"北區","LI":"華興里","LIN":"6鄰","STREET":"林森路","SECT":"三段","MAREA":" ","LANE":"２４０巷","ALLEY":" ","HOUSE_NO":"１３之８號","E_COORD97":170575.95000000001,"N_COORD97":2545302.98,"ADDRESS":"林森路三段２４０巷１３之８號","OBJECTID":255141},"geometry":{"x":170575.95000000112,"y":2545302.9800000042}},{"attributes":{"ID":255146,"DIS_CODE":0,"TOWNNAME":"北區","LI":"華興里","LIN":"6鄰","STREET":"林森路","SECT":"三段","MAREA":" ","LANE":"２４０巷","ALLEY":" ","HOUSE_NO":"１３之９號","E_COORD97":170569.60000000001,"N_COORD97":2545301.8700000001,"ADDRESS":"林森路三段２４０巷１３之９號","OBJECTID":255142},"geometry":{"x":170569.59999999963,"y":2545301.8700000029}},{"attributes":{"ID":255147,"DIS_CODE":0,"TOWNNAME":"北區","LI":"長榮里","LIN":"20鄰","STREET":"開元路","SECT":" ","MAREA":" ","LANE":"３３３巷","ALLEY":" ","HOUSE_NO":"１號八樓之１","E_COORD97":170211.48999999999,"N_COORD97":2545431.4300000002,"ADDRESS":"開元路３３３巷１號八樓之１","OBJECTID":255143},"geometry":{"x":170211.49000000022,"y":2545431.4300000034}},{"attributes":{"ID":255148,"DIS_CODE":0,"TOWNNAME":"北區","LI":"華興里","LIN":"6鄰","STREET":"林森路","SECT":"三段","MAREA":" ","LANE":"２４０巷","ALLEY":" ","HOUSE_NO":"１３之１０號","E_COORD97":170562.29000000001,"N_COORD97":2545301.2400000002,"ADDRESS":"林森路三段２４０巷１３之１０號","OBJECTID":255144},"geometry":{"x":170562.29000000004,"y":2545301.2400000039}},{"attributes":{"ID":255149,"DIS_CODE":0,"TOWNNAME":"永康區","LI":"\u25A0洲里","LIN":"24鄰","STREET":"國聖街","SECT":" ","MAREA":" ","LANE":" ","ALLEY":" ","HOUSE_NO":"２３９號","E_COORD97":170862.29000000001,"N_COORD97":2548473.7400000002,"ADDRESS":"國聖街２３９號","OBJECTID":255145},"geometry":{"x":170862.29000000004,"y":2548473.7400000002}},{"attributes":{"ID":255150,"DIS_CODE":0,"TOWNNAME":"永康區","LI":"中華里","LIN":"24鄰","STREET":"華興街","SECT":" ","MAREA":" ","LANE":" ","ALLEY":" ","HOUSE_NO":"１４２號","E_COORD97":171739.32999999999,"N_COORD97":2544582.1299999999,"ADDRESS":"華興街１４２號","OBJECTID":255146},"geometry":{"x":171739.33000000101,"y":2544582.1300000008}},{"attributes":{"ID":255151,"DIS_CODE":0,"TOWNNAME":"永康區","LI":"\u25A0洲里","LIN":"24鄰","STREET":"國聖街","SECT":" ","MAREA":" ","LANE":" ","ALLEY":" ","HOUSE_NO":"２３２號","E_COORD97":170712.94,"N_COORD97":2548282.79,"ADDRESS":"國聖街２３２號","OBJECTID":255147},"geometry":{"x":170712.94000000227,"y":2548282.7899999972}},{"attributes":{"ID":255152,"DIS_CODE":0,"TOWNNAME":"永康區","LI":"\u25A0洲里","LIN":"24鄰","STREET":"正南二街","SECT":" ","MAREA":" ","LANE":" ","ALLEY":" ","HOUSE_NO":"６２號","E_COORD97":170800.03,"N_COORD97":2548332.23,"ADDRESS":"正南二街６２號","OBJECTID":255148},"geometry":{"x":170800.03000000026,"y":2548332.2300000042}},{"attributes":{"ID":255153,"DIS_CODE":0,"TOWNNAME":"永康區","LI":"五王里","LIN":"1鄰","STREET":"中華二路","SECT":" ","MAREA":" ","LANE":"２０６巷","ALLEY":" ","HOUSE_NO":"２７號","E_COORD97":171576.48000000001,"N_COORD97":2545537.4900000002,"ADDRESS":"中華二路２０６巷２７號","OBJECTID":255149},"geometry":{"x":171576.48000000045,"y":2545537.4900000021}},{"attributes":{"ID":255154,"DIS_CODE":0,"TOWNNAME":"永康區","LI":"中興里","LIN":"12鄰","STREET":"中興街","SECT":" ","MAREA":" ","LANE":"４５巷","ALLEY":" ","HOUSE_NO":"１０號","E_COORD97":172044.22,"N_COORD97":2545218.8900000001,"ADDRESS":"中興街４５巷１０號","OBJECTID":255150},"geometry":{"x":172044.21999999974,"y":2545218.8899999987}},{"attributes":{"ID":255155,"DIS_CODE":0,"TOWNNAME":"南區","LI":"文華里","LIN":"27鄰","STREET":"南樂街","SECT":" ","MAREA":" ","LANE":"１０３巷","ALLEY":" ","HOUSE_NO":"６號","E_COORD97":166645.51999999999,"N_COORD97":2542964.9900000002,"ADDRESS":"南樂街１０３巷６號","OBJECTID":255151},"geometry":{"x":166645.51999999955,"y":2542964.9900000021}},{"attributes":{"ID":255156,"DIS_CODE":0,"TOWNNAME":"南區","LI":"明亮里","LIN":"27鄰","STREET":"金華路","SECT":"一段","MAREA":" ","LANE":"４８４巷","ALLEY":" ","HOUSE_NO":"８８號","E_COORD97":167204.23999999999,"N_COORD97":2541408.8500000001,"ADDRESS":"金華路一段４８４巷８８號","OBJECTID":255152},"geometry":{"x":167204.24000000022,"y":2541408.8500000015}},{"attributes":{"ID":255157,"DIS_CODE":0,"TOWNNAME":"南區","LI":"明亮里","LIN":"27鄰","STREET":"金華路","SECT":"一段","MAREA":" ","LANE":"４８４巷","ALLEY":" ","HOUSE_NO":"９０號","E_COORD97":167207.85999999999,"N_COORD97":2541405.2400000002,"ADDRESS":"金華路一段４８４巷９０號","OBJECTID":255153},"geometry":{"x":167207.86000000127,"y":2541405.2399999984}},{"attributes":{"ID":255158,"DIS_CODE":0,"TOWNNAME":"南區","LI":"明亮里","LIN":"27鄰","STREET":"金華路","SECT":"一段","MAREA":" ","LANE":"４８４巷","ALLEY":" ","HOUSE_NO":"９２號","E_COORD97":167210.38,"N_COORD97":2541400.1899999999,"ADDRESS":"金華路一段４８４巷９２號","OBJECTID":255154},"geometry":{"x":167210.38000000175,"y":2541400.1899999995}},{"attributes":{"ID":255159,"DIS_CODE":0,"TOWNNAME":"北區","LI":"華興里","LIN":"6鄰","STREET":"林森路","SECT":"三段","MAREA":" ","LANE":"２４０巷","ALLEY":" ","HOUSE_NO":"１３之１號","E_COORD97":170561.66,"N_COORD97":2545282.98,"ADDRESS":"林森路三段２４０巷１３之１號","OBJECTID":255155},"geometry":{"x":170561.66000000015,"y":2545282.9800000023}},{"attributes":{"ID":255160,"DIS_CODE":0,"TOWNNAME":"永康區","LI":"中華里","LIN":"24鄰","STREET":"華興街","SECT":" ","MAREA":" ","LANE":" ","ALLEY":" ","HOUSE_NO":"１２４號","E_COORD97":171774.79000000001,"N_COORD97":2544582.8300000001,"ADDRESS":"華興街１２４號","OBJECTID":255156},"geometry":{"x":171774.7900000019,"y":2544582.8300000019}},{"attributes":{"ID":255161,"DIS_CODE":0,"TOWNNAME":"安南區","LI":"州南里","LIN":"6鄰","STREET":"長和路","SECT":"三段","MAREA":" ","LANE":"１５１巷","ALLEY":" ","HOUSE_NO":"５８號","E_COORD97":169663.69849099999,"N_COORD97":2551458.64598,"ADDRESS":"長和路三段１５１巷５８號","OBJECTID":255157},"geometry":{"x":169663.69849099964,"y":2551458.6459809989}},{"attributes":{"ID":255162,"DIS_CODE":0,"TOWNNAME":"北區","LI":"華興里","LIN":"6鄰","STREET":"林森路","SECT":"三段","MAREA":" ","LANE":"２４０巷","ALLEY":" ","HOUSE_NO":"１３之６號","E_COORD97":170587.85000000001,"N_COORD97":2545286.3199999998,"ADDRESS":"林森路三段２４０巷１３之６號","OBJECTID":255158},"geometry":{"x":170587.85000000056,"y":2545286.3200000003}},{"attributes":{"ID":255163,"DIS_CODE":0,"TOWNNAME":"永康區","LI":"中華里","LIN":"24鄰","STREET":"華興街","SECT":" ","MAREA":" ","LANE":" ","ALLEY":" ","HOUSE_NO":"１６４號","E_COORD97":171676.87,"N_COORD97":2544580.7999999998,"ADDRESS":"華興街１６４號","OBJECTID":255159},"geometry":{"x":171676.87000000011,"y":2544580.8000000007}},{"attributes":{"ID":255164,"DIS_CODE":0,"TOWNNAME":"永康區","LI":"\u25A0洲里","LIN":"24鄰","STREET":"國聖街","SECT":" ","MAREA":" ","LANE":" ","ALLEY":" ","HOUSE_NO":"２８８號","E_COORD97":170821.38,"N_COORD97":2548393.0800000001,"ADDRESS":"國聖街２８８號","OBJECTID":255160},"geometry":{"x":170821.38000000082,"y":2548393.0800000001}},{"attributes":{"ID":255165,"DIS_CODE":0,"TOWNNAME":"永康區","LI":"\u25A0洲里","LIN":"24鄰","STREET":"國聖街","SECT":" ","MAREA":" ","LANE":" ","ALLEY":" ","HOUSE_NO":"２７８號","E_COORD97":170803.03,"N_COORD97":2548371.8199999998,"ADDRESS":"國聖街２７８號","OBJECTID":255161},"geometry":{"x":170803.03000000026,"y":2548371.8200000003}},{"attributes":{"ID":255166,"DIS_CODE":0,"TOWNNAME":"善化區","LI":"光文里","LIN":"24鄰","STREET":"公園路","SECT":" ","MAREA":" ","LANE":" ","ALLEY":" ","HOUSE_NO":"５號","E_COORD97":178338,"N_COORD97":2559196.7400000002,"ADDRESS":"公園路５號","OBJECTID":255162},"geometry":{"x":178338,"y":2559196.7400000002}},{"attributes":{"ID":255167,"DIS_CODE":0,"TOWNNAME":"善化區","LI":"光文里","LIN":"24鄰","STREET":"中山路","SECT":" ","MAREA":" ","LANE":" ","ALLEY":" ","HOUSE_NO":"２１２號","E_COORD97":178243.19,"N_COORD97":2559140.25,"ADDRESS":"中山路２１２號","OBJECTID":255163},"geometry":{"x":178243.19000000134,"y":2559140.2500000037}},{"attributes":{"ID":255168,"DIS_CODE":0,"TOWNNAME":"善化區","LI":"光文里","LIN":"24鄰","STREET":"信義路","SECT":" ","MAREA":" ","LANE":" ","ALLEY":" ","HOUSE_NO":"１８８號","E_COORD97":178222.17999999999,"N_COORD97":2559191.25,"ADDRESS":"信義路１８８號","OBJECTID":255164},"geometry":{"x":178222.18000000063,"y":2559191.2500000037}},{"attributes":{"ID":255169,"DIS_CODE":0,"TOWNNAME":"善化區","LI":"光文里","LIN":"24鄰","STREET":"中山路","SECT":" ","MAREA":" ","LANE":" ","ALLEY":" ","HOUSE_NO":"２１４號之５","E_COORD97":178203.92000000001,"N_COORD97":2559131.27,"ADDRESS":"中山路２１４號之５","OBJECTID":255165},"geometry":{"x":178203.92000000086,"y":2559131.2699999996}},{"attributes":{"ID":255170,"DIS_CODE":0,"TOWNNAME":"南區","LI":"文華里","LIN":"27鄰","STREET":"南樂街","SECT":" ","MAREA":" ","LANE":"１０３巷","ALLEY":" ","HOUSE_NO":"１０號","E_COORD97":166643.95000000001,"N_COORD97":2542947.75,"ADDRESS":"南樂街１０３巷１０號","OBJECTID":255166},"geometry":{"x":166643.95000000019,"y":2542947.7500000037}},{"attributes":{"ID":255171,"DIS_CODE":0,"TOWNNAME":"永康區","LI":"網寮里","LIN":"24鄰","STREET":"永大一路","SECT":" ","MAREA":" ","LANE":" ","ALLEY":" ","HOUSE_NO":"１５６號","E_COORD97":173873.29000000001,"N_COORD97":2546376.71,"ADDRESS":"永大一路１５６號","OBJECTID":255167},"geometry":{"x":173873.2900000019,"y":2546376.7100000046}},{"attributes":{"ID":255172,"DIS_CODE":0,"TOWNNAME":"北區","LI":"華興里","LIN":"6鄰","STREET":"林森路","SECT":"三段","MAREA":" ","LANE":"２４０巷","ALLEY":" ","HOUSE_NO":"１３之２號","E_COORD97":170567.37,"N_COORD97":2545284.25,"ADDRESS":"林森路三段２４０巷１３之２號","OBJECTID":255168},"geometry":{"x":170567.37000000104,"y":2545284.2500000019}},{"attributes":{"ID":255173,"DIS_CODE":0,"TOWNNAME":"北區","LI":"華興里","LIN":"6鄰","STREET":"林森路","SECT":"三段","MAREA":" ","LANE":"２４０巷","ALLEY":" ","HOUSE_NO":"１３之３號","E_COORD97":170574.20000000001,"N_COORD97":2545285.6800000002,"ADDRESS":"林森路三段２４０巷１３之３號","OBJECTID":255169},"geometry":{"x":170574.20000000112,"y":2545285.6799999997}},{"attributes":{"ID":255174,"DIS_CODE":0,"TOWNNAME":"中西區","LI":"民生里","LIN":"6鄰","STREET":"永華路","SECT":" ","MAREA":" ","LANE":"２５０巷","ALLEY":" ","HOUSE_NO":"２號三樓之４","E_COORD97":167025.42000000001,"N_COORD97":2543276,"ADDRESS":"永華路２５０巷２號三樓之４","OBJECTID":255170},"geometry":{"x":167025.42000000179,"y":2543276.0000000019}},{"attributes":{"ID":255175,"DIS_CODE":0,"TOWNNAME":"北區","LI":"實踐里","LIN":"6鄰","STREET":"長榮路","SECT":"五段","MAREA":" ","LANE":"２９８巷","ALLEY":" ","HOUSE_NO":"３２號三樓之１","E_COORD97":169771.17000000001,"N_COORD97":2546012.3900000001,"ADDRESS":"長榮路五段２９８巷３２號三樓之１","OBJECTID":255171},"geometry":{"x":169771.16999999993,"y":2546012.3900000043}},{"attributes":{"ID":255176,"DIS_CODE":0,"TOWNNAME":"北區","LI":"實踐里","LIN":"6鄰","STREET":"長榮路","SECT":"五段","MAREA":" ","LANE":"２９８巷","ALLEY":" ","HOUSE_NO":"３２號三樓之２","E_COORD97":169771.17000000001,"N_COORD97":2546012.3900000001,"ADDRESS":"長榮路五段２９８巷３２號三樓之２","OBJECTID":255172},"geometry":{"x":169771.16999999993,"y":2546012.3900000043}},{"attributes":{"ID":255177,"DIS_CODE":0,"TOWNNAME":"北區","LI":"實踐里","LIN":"6鄰","STREET":"長榮路","SECT":"五段","MAREA":" ","LANE":"２９８巷","ALLEY":" ","HOUSE_NO":"３２號三樓之３","E_COORD97":169771.17000000001,"N_COORD97":2546012.3900000001,"ADDRESS":"長榮路五段２９８巷３２號三樓之３","OBJECTID":255173},"geometry":{"x":169771.16999999993,"y":2546012.3900000043}},{"attributes":{"ID":255178,"DIS_CODE":0,"TOWNNAME":"北區","LI":"實踐里","LIN":"6鄰","STREET":"長榮路","SECT":"五段","MAREA":" ","LANE":"２９８巷","ALLEY":" ","HOUSE_NO":"３２號三樓之５","E_COORD97":169771.17000000001,"N_COORD97":2546012.3900000001,"ADDRESS":"長榮路五段２９８巷３２號三樓之５","OBJECTID":255174},"geometry":{"x":169771.16999999993,"y":2546012.3900000043}},{"attributes":{"ID":255179,"DIS_CODE":0,"TOWNNAME":"北區","LI":"實踐里","LIN":"6鄰","STREET":"長榮路","SECT":"五段","MAREA":" ","LANE":"２９８巷","ALLEY":" ","HOUSE_NO":"３２號四樓之１","E_COORD97":169771.17000000001,"N_COORD97":2546012.3900000001,"ADDRESS":"長榮路五段２９８巷３２號四樓之１","OBJECTID":255175},"geometry":{"x":169771.16999999993,"y":2546012.3900000043}},{"attributes":{"ID":255180,"DIS_CODE":0,"TOWNNAME":"北區","LI":"實踐里","LIN":"6鄰","STREET":"長榮路","SECT":"五段","MAREA":" ","LANE":"２９８巷","ALLEY":" ","HOUSE_NO":"３２號四樓之２","E_COORD97":169771.17000000001,"N_COORD97":2546012.3900000001,"ADDRESS":"長榮路五段２９８巷３２號四樓之２","OBJECTID":255176},"geometry":{"x":169771.16999999993,"y":2546012.3900000043}},{"attributes":{"ID":255181,"DIS_CODE":0,"TOWNNAME":"北區","LI":"實踐里","LIN":"6鄰","STREET":"長榮路","SECT":"五段","MAREA":" ","LANE":"２９８巷","ALLEY":" ","HOUSE_NO":"３２號四樓之３","E_COORD97":169771.17000000001,"N_COORD97":2546012.3900000001,"ADDRESS":"長榮路五段２９８巷３２號四樓之３","OBJECTID":255177},"geometry":{"x":169771.16999999993,"y":2546012.3900000043}},{"attributes":{"ID":255182,"DIS_CODE":0,"TOWNNAME":"北區","LI":"實踐里","LIN":"6鄰","STREET":"長榮路","SECT":"五段","MAREA":" ","LANE":"２９８巷","ALLEY":" ","HOUSE_NO":"３２號四樓之５","E_COORD97":169771.17000000001,"N_COORD97":2546012.3900000001,"ADDRESS":"長榮路五段２９８巷３２號四樓之５","OBJECTID":255178},"geometry":{"x":169771.16999999993,"y":2546012.3900000043}},{"attributes":{"ID":255183,"DIS_CODE":0,"TOWNNAME":"北區","LI":"實踐里","LIN":"6鄰","STREET":"長榮路","SECT":"五段","MAREA":" ","LANE":"２９８巷","ALLEY":" ","HOUSE_NO":"３２號五樓之１","E_COORD97":169771.17000000001,"N_COORD97":2546012.3900000001,"ADDRESS":"長榮路五段２９８巷３２號五樓之１","OBJECTID":255179},"geometry":{"x":169771.16999999993,"y":2546012.3900000043}},{"attributes":{"ID":255184,"DIS_CODE":0,"TOWNNAME":"北區","LI":"實踐里","LIN":"6鄰","STREET":"長榮路","SECT":"五段","MAREA":" ","LANE":"２９８巷","ALLEY":" ","HOUSE_NO":"３２號五樓之２","E_COORD97":169771.17000000001,"N_COORD97":2546012.3900000001,"ADDRESS":"長榮路五段２９８巷３２號五樓之２","OBJECTID":255180},"geometry":{"x":169771.16999999993,"y":2546012.3900000043}},{"attributes":{"ID":255185,"DIS_CODE":0,"TOWNNAME":"北區","LI":"中樓里","LIN":"18鄰","STREET":"東豐路","SECT":" ","MAREA":" ","LANE":" ","ALLEY":" ","HOUSE_NO":"１６１號","E_COORD97":169896.47,"N_COORD97":2544897.73,"ADDRESS":"東豐路１６１號","OBJECTID":255181},"geometry":{"x":169896.46999999881,"y":2544897.7299999986}},{"attributes":{"ID":255186,"DIS_CODE":0,"TOWNNAME":"永康區","LI":"五王里","LIN":"18鄰","STREET":"成功路","SECT":" ","MAREA":" ","LANE":"１７２巷","ALLEY":" ","HOUSE_NO":"５１號","E_COORD97":171561.35000000001,"N_COORD97":2545708.1400000001,"ADDRESS":"成功路１７２巷５１號","OBJECTID":255182},"geometry":{"x":171561.34999999963,"y":2545708.1400000006}},{"attributes":{"ID":255187,"DIS_CODE":0,"TOWNNAME":"永康區","LI":"五王里","LIN":"18鄰","STREET":"成功路","SECT":" ","MAREA":" ","LANE":"１７２巷","ALLEY":" ","HOUSE_NO":"７９號","E_COORD97":171545.17000000001,"N_COORD97":2545769.3799999999,"ADDRESS":"成功路１７２巷７９號","OBJECTID":255183},"geometry":{"x":171545.17000000086,"y":2545769.379999999}},{"attributes":{"ID":255188,"DIS_CODE":0,"TOWNNAME":"永康區","LI":"中興里","LIN":"25鄰","STREET":"中華路","SECT":" ","MAREA":" ","LANE":"２８０巷","ALLEY":" ","HOUSE_NO":"１０號","E_COORD97":171668.76999999999,"N_COORD97":2545176.25,"ADDRESS":"中華路２８０巷１０號","OBJECTID":255184},"geometry":{"x":171668.76999999955,"y":2545176.2500000019}},{"attributes":{"ID":255189,"DIS_CODE":0,"TOWNNAME":"永康區","LI":"三合里","LIN":"24鄰","STREET":"南工街","SECT":" ","MAREA":" ","LANE":"２６７巷","ALLEY":" ","HOUSE_NO":"５８號","E_COORD97":171825.87,"N_COORD97":2545838.4900000002,"ADDRESS":"南工街２６７巷５８號","OBJECTID":255185},"geometry":{"x":171825.87000000104,"y":2545838.4900000039}},{"attributes":{"ID":255190,"DIS_CODE":0,"TOWNNAME":"永康區","LI":"大灣里","LIN":"24鄰","STREET":"大灣路","SECT":" ","MAREA":" ","LANE":"２７９巷","ALLEY":" ","HOUSE_NO":"８號","E_COORD97":174958.62,"N_COORD97":2545154.0899999999,"ADDRESS":"大灣路２７９巷８號","OBJECTID":255186},"geometry":{"x":174958.62000000011,"y":2545154.0900000017}},{"attributes":{"ID":255191,"DIS_CODE":0,"TOWNNAME":"永康區","LI":"大灣里","LIN":"17鄰","STREET":"大灣路","SECT":" ","MAREA":" ","LANE":"３５６巷","ALLEY":" ","HOUSE_NO":"１８號","E_COORD97":174799.13,"N_COORD97":2545132.8100000001,"ADDRESS":"大灣路３５６巷１８號","OBJECTID":255187},"geometry":{"x":174799.12999999989,"y":2545132.8100000024}},{"attributes":{"ID":255192,"DIS_CODE":0,"TOWNNAME":"永康區","LI":"大灣里","LIN":"15鄰","STREET":"大灣路","SECT":" ","MAREA":" ","LANE":"２８８巷","ALLEY":" ","HOUSE_NO":"３３號","E_COORD97":174830.60000000001,"N_COORD97":2545280.8300000001,"ADDRESS":"大灣路２８８巷３３號","OBJECTID":255188},"geometry":{"x":174830.60000000056,"y":2545280.8300000019}},{"attributes":{"ID":255193,"DIS_CODE":0,"TOWNNAME":"永康區","LI":"大灣里","LIN":"30鄰","STREET":"民族路","SECT":" ","MAREA":" ","LANE":"１２６巷","ALLEY":" ","HOUSE_NO":"６４號","E_COORD97":175431.23000000001,"N_COORD97":2544869.23,"ADDRESS":"民族路１２６巷６４號","OBJECTID":255189},"geometry":{"x":175431.23000000045,"y":2544869.2300000004}},{"attributes":{"ID":255194,"DIS_CODE":0,"TOWNNAME":"北區","LI":"實踐里","LIN":"6鄰","STREET":"長榮路","SECT":"五段","MAREA":" ","LANE":"２９８巷","ALLEY":" ","HOUSE_NO":"３２號五樓之３","E_COORD97":169771.17000000001,"N_COORD97":2546012.3900000001,"ADDRESS":"長榮路五段２９８巷３２號五樓之３","OBJECTID":255190},"geometry":{"x":169771.16999999993,"y":2546012.3900000043}},{"attributes":{"ID":255195,"DIS_CODE":0,"TOWNNAME":"北區","LI":"實踐里","LIN":"6鄰","STREET":"長榮路","SECT":"五段","MAREA":" ","LANE":"２９８巷","ALLEY":" ","HOUSE_NO":"３２號五樓之５","E_COORD97":169771.17000000001,"N_COORD97":2546012.3900000001,"ADDRESS":"長榮路五段２９８巷３２號五樓之５","OBJECTID":255191},"geometry":{"x":169771.16999999993,"y":2546012.3900000043}},{"attributes":{"ID":255196,"DIS_CODE":0,"TOWNNAME":"善化區","LI":"光文里","LIN":"24鄰","STREET":"中山路","SECT":" ","MAREA":" ","LANE":" ","ALLEY":" ","HOUSE_NO":"２１６號之１","E_COORD97":178189.87,"N_COORD97":2559131.27,"ADDRESS":"中山路２１６號之１","OBJECTID":255192},"geometry":{"x":178189.87000000011,"y":2559131.2699999996}},{"attributes":{"ID":255197,"DIS_CODE":0,"TOWNNAME":"善化區","LI":"光文里","LIN":"24鄰","STREET":"中山路","SECT":" ","MAREA":" ","LANE":" ","ALLEY":" ","HOUSE_NO":"２１４號之３","E_COORD97":178208.45000000001,"N_COORD97":2559132.27,"ADDRESS":"中山路２１４號之３","OBJECTID":255193},"geometry":{"x":178208.45000000019,"y":2559132.2699999996}},{"attributes":{"ID":255198,"DIS_CODE":0,"TOWNNAME":"善化區","LI":"光文里","LIN":"24鄰","STREET":"公園路","SECT":" ","MAREA":" ","LANE":" ","ALLEY":" ","HOUSE_NO":"５５號","E_COORD97":178260.19,"N_COORD97":2559211.5,"ADDRESS":"公園路５５號","OBJECTID":255194},"geometry":{"x":178260.19000000134,"y":2559211.5}},{"attributes":{"ID":255199,"DIS_CODE":0,"TOWNNAME":"善化區","LI":"光文里","LIN":"24鄰","STREET":"中山路","SECT":" ","MAREA":" ","LANE":" ","ALLEY":" ","HOUSE_NO":"１９２號","E_COORD97":178342.03,"N_COORD97":2559157.25,"ADDRESS":"中山路１９２號","OBJECTID":255195},"geometry":{"x":178342.02999999933,"y":2559157.2500000037}},{"attributes":{"ID":255200,"DIS_CODE":0,"TOWNNAME":"永康區","LI":"龍潭里","LIN":"24鄰","STREET":"中山北路","SECT":" ","MAREA":" ","LANE":" ","ALLEY":" ","HOUSE_NO":"３９６號","E_COORD97":175316.62,"N_COORD97":2547704.7799999998,"ADDRESS":"中山北路３９６號","OBJECTID":255196},"geometry":{"x":175316.62000000011,"y":2547704.7800000012}},{"attributes":{"ID":255201,"DIS_CODE":0,"TOWNNAME":"永康區","LI":"龍潭里","LIN":"24鄰","STREET":"中山北路","SECT":" ","MAREA":" ","LANE":" ","ALLEY":" ","HOUSE_NO":"４５０號","E_COORD97":175358.26000000001,"N_COORD97":2547727.0299999998,"ADDRESS":"中山北路４５０號","OBJECTID":255197},"geometry":{"x":175358.26000000164,"y":2547727.0300000012}},{"attributes":{"ID":255202,"DIS_CODE":0,"TOWNNAME":"永康區","LI":"中興里","LIN":"20鄰","STREET":"中華路","SECT":" ","MAREA":" ","LANE":"２１６巷","ALLEY":" ","HOUSE_NO":"９號","E_COORD97":171793.16,"N_COORD97":2545156.79,"ADDRESS":"中華路２１６巷９號","OBJECTID":255198},"geometry":{"x":171793.16000000108,"y":2545156.7899999991}},{"attributes":{"ID":255203,"DIS_CODE":0,"TOWNNAME":"永康區","LI":"中興里","LIN":"13鄰","STREET":"中興街","SECT":" ","MAREA":" ","LANE":"５５巷","ALLEY":" ","HOUSE_NO":"５號","E_COORD97":172052.03,"N_COORD97":2545238.6400000001,"ADDRESS":"中興街５５巷５號","OBJECTID":255199},"geometry":{"x":172052.03000000119,"y":2545238.6400000025}},{"attributes":{"ID":255204,"DIS_CODE":0,"TOWNNAME":"永康區","LI":"大橋里","LIN":"24鄰","STREET":"大橋一街","SECT":" ","MAREA":" ","LANE":"２２３巷","ALLEY":" ","HOUSE_NO":"９０號","E_COORD97":171168.45000000001,"N_COORD97":2546773.0600000001,"ADDRESS":"大橋一街２２３巷９０號","OBJECTID":255200},"geometry":{"x":171168.44999999925,"y":2546773.0600000005}}]}