{"displayFieldName":"TOWNNAME","fieldAliases":{"ID":"ID","DIS_CODE":"DIS_CODE","TOWNNAME":"TOWNNAME","LI":"LI","LIN":"LIN","STREET":"STREET","SECT":"SECT","MAREA":"MAREA","LANE":"LANE","ALLEY":"ALLEY","HOUSE_NO":"HOUSE_NO","E_COORD97":"E_COORD97","N_COORD97":"N_COORD97","ADDRESS":"ADDRESS","OBJECTID":"OBJECTID"},"geometryType":"esriGeometryPoint","spatialReference":{"wkid":102443,"latestWkid":3826},"fields":[{"name":"ID","type":"esriFieldTypeDouble","alias":"ID"},{"name":"DIS_CODE","type":"esriFieldTypeInteger","alias":"DIS_CODE"},{"name":"TOWNNAME","type":"esriFieldTypeString","alias":"TOWNNAME","length":8},{"name":"LI","type":"esriFieldTypeString","alias":"LI","length":8},{"name":"LIN","type":"esriFieldTypeString","alias":"LIN","length":12},{"name":"STREET","type":"esriFieldTypeString","alias":"STREET","length":20},{"name":"SECT","type":"esriFieldTypeString","alias":"SECT","length":8},{"name":"MAREA","type":"esriFieldTypeString","alias":"MAREA","length":12},{"name":"LANE","type":"esriFieldTypeString","alias":"LANE","length":10},{"name":"ALLEY","type":"esriFieldTypeString","alias":"ALLEY","length":10},{"name":"HOUSE_NO","type":"esriFieldTypeString","alias":"HOUSE_NO","length":20},{"name":"E_COORD97","type":"esriFieldTypeDouble","alias":"E_COORD97"},{"name":"N_COORD97","type":"esriFieldTypeDouble","alias":"N_COORD97"},{"name":"ADDRESS","type":"esriFieldTypeString","alias":"ADDRESS","length":50},{"name":"OBJECTID","type":"esriFieldTypeOID","alias":"OBJECTID"}],"features":[{"attributes":{"ID":428626,"DIS_CODE":0,"TOWNNAME":"中西區","LI":"西賢里","LIN":"17鄰","STREET":"西賢一街","SECT":" ","MAREA":" ","LANE":"６７巷","ALLEY":" ","HOUSE_NO":"９號","E_COORD97":165650.39000000001,"N_COORD97":2544602.5800000001,"ADDRESS":"西賢一街６７巷９號","OBJECTID":428601},"geometry":{"x":165650.38999999966,"y":2544602.5800000001}},{"attributes":{"ID":428627,"DIS_CODE":0,"TOWNNAME":"中西區","LI":"西賢里","LIN":"19鄰","STREET":"西賢一街","SECT":" ","MAREA":" ","LANE":"１０９巷","ALLEY":" ","HOUSE_NO":"１１號","E_COORD97":165650.41,"N_COORD97":2544731.4100000001,"ADDRESS":"西賢一街１０９巷１１號","OBJECTID":428602},"geometry":{"x":165650.41000000015,"y":2544731.410000002}},{"attributes":{"ID":428628,"DIS_CODE":0,"TOWNNAME":"中西區","LI":"西賢里","LIN":"19鄰","STREET":"西賢一街","SECT":" ","MAREA":" ","LANE":"９５巷","ALLEY":" ","HOUSE_NO":"４８號","E_COORD97":165595.82999999999,"N_COORD97":2544715.5099999998,"ADDRESS":"西賢一街９５巷４８號","OBJECTID":428603},"geometry":{"x":165595.83000000101,"y":2544715.5100000035}},{"attributes":{"ID":428629,"DIS_CODE":0,"TOWNNAME":"中西區","LI":"西賢里","LIN":"19鄰","STREET":"西賢一街","SECT":" ","MAREA":" ","LANE":"９５巷","ALLEY":" ","HOUSE_NO":"５２號","E_COORD97":165587.13,"N_COORD97":2544715.1099999999,"ADDRESS":"西賢一街９５巷５２號","OBJECTID":428604},"geometry":{"x":165587.13000000082,"y":2544715.1100000013}},{"attributes":{"ID":428630,"DIS_CODE":0,"TOWNNAME":"中西區","LI":"西賢里","LIN":"19鄰","STREET":"西賢一街","SECT":" ","MAREA":" ","LANE":"９５巷","ALLEY":" ","HOUSE_NO":"６號","E_COORD97":165667.76999999999,"N_COORD97":2544716.9300000002,"ADDRESS":"西賢一街９５巷６號","OBJECTID":428605},"geometry":{"x":165667.76999999955,"y":2544716.9300000016}},{"attributes":{"ID":428631,"DIS_CODE":0,"TOWNNAME":"中西區","LI":"西賢里","LIN":"19鄰","STREET":"西賢一街","SECT":" ","MAREA":" ","LANE":"９５巷","ALLEY":" ","HOUSE_NO":"８號","E_COORD97":165663.47,"N_COORD97":2544716.9300000002,"ADDRESS":"西賢一街９５巷８號","OBJECTID":428606},"geometry":{"x":165663.46999999974,"y":2544716.9300000016}},{"attributes":{"ID":428632,"DIS_CODE":0,"TOWNNAME":"東區","LI":"和平里","LIN":"1鄰","STREET":"文化二街","SECT":" ","MAREA":" ","LANE":" ","ALLEY":" ","HOUSE_NO":"１號八樓","E_COORD97":171099.45000000001,"N_COORD97":2542097.2200000002,"ADDRESS":"文化二街１號八樓","OBJECTID":428607},"geometry":{"x":171099.45000000112,"y":2542097.2200000007}},{"attributes":{"ID":428633,"DIS_CODE":0,"TOWNNAME":"中西區","LI":"西賢里","LIN":"21鄰","STREET":"西賢一街","SECT":" ","MAREA":" ","LANE":"１８７巷","ALLEY":" ","HOUSE_NO":"１００號","E_COORD97":165600.23999999999,"N_COORD97":2544985.0099999998,"ADDRESS":"西賢一街１８７巷１００號","OBJECTID":428608},"geometry":{"x":165600.24000000115,"y":2544985.0100000016}},{"attributes":{"ID":428634,"DIS_CODE":0,"TOWNNAME":"中西區","LI":"西賢里","LIN":"21鄰","STREET":"西賢一街","SECT":" ","MAREA":" ","LANE":"１８７巷","ALLEY":" ","HOUSE_NO":"１０２號","E_COORD97":165604.31,"N_COORD97":2544984.8900000001,"ADDRESS":"西賢一街１８７巷１０２號","OBJECTID":428609},"geometry":{"x":165604.31000000052,"y":2544984.8899999987}},{"attributes":{"ID":428635,"DIS_CODE":0,"TOWNNAME":"中西區","LI":"西賢里","LIN":"21鄰","STREET":"西賢一街","SECT":" ","MAREA":" ","LANE":"１８７巷","ALLEY":" ","HOUSE_NO":"１０６號","E_COORD97":165609.60999999999,"N_COORD97":2544984.6400000001,"ADDRESS":"西賢一街１８７巷１０６號","OBJECTID":428610},"geometry":{"x":165609.61000000127,"y":2544984.6400000025}},{"attributes":{"ID":428636,"DIS_CODE":0,"TOWNNAME":"中西區","LI":"西賢里","LIN":"21鄰","STREET":"西賢一街","SECT":" ","MAREA":" ","LANE":"１８７巷","ALLEY":" ","HOUSE_NO":"１０８號","E_COORD97":165615.64999999999,"N_COORD97":2544984.52,"ADDRESS":"西賢一街１８７巷１０８號","OBJECTID":428611},"geometry":{"x":165615.65000000224,"y":2544984.5200000014}},{"attributes":{"ID":428637,"DIS_CODE":0,"TOWNNAME":"中西區","LI":"西賢里","LIN":"21鄰","STREET":"西賢一街","SECT":" ","MAREA":" ","LANE":"１８７巷","ALLEY":" ","HOUSE_NO":"１１０號","E_COORD97":165619.47,"N_COORD97":2544984.52,"ADDRESS":"西賢一街１８７巷１１０號","OBJECTID":428612},"geometry":{"x":165619.46999999881,"y":2544984.5200000014}},{"attributes":{"ID":428638,"DIS_CODE":0,"TOWNNAME":"中西區","LI":"西賢里","LIN":"21鄰","STREET":"西賢一街","SECT":" ","MAREA":" ","LANE":"１８７巷","ALLEY":" ","HOUSE_NO":"１１２號","E_COORD97":165623.91,"N_COORD97":2544984.52,"ADDRESS":"西賢一街１８７巷１１２號","OBJECTID":428613},"geometry":{"x":165623.91000000201,"y":2544984.5200000014}},{"attributes":{"ID":428639,"DIS_CODE":0,"TOWNNAME":"中西區","LI":"西賢里","LIN":"21鄰","STREET":"西賢一街","SECT":" ","MAREA":" ","LANE":"１８７巷","ALLEY":" ","HOUSE_NO":"１１６號","E_COORD97":165627.38,"N_COORD97":2544985.3100000001,"ADDRESS":"西賢一街１８７巷１１６號","OBJECTID":428614},"geometry":{"x":165627.38000000082,"y":2544985.3099999987}},{"attributes":{"ID":428640,"DIS_CODE":0,"TOWNNAME":"東區","LI":"大智里","LIN":"24鄰","STREET":"文東街","SECT":" ","MAREA":" ","LANE":"３０巷","ALLEY":" ","HOUSE_NO":"２２號","E_COORD97":171382.63,"N_COORD97":2540152.0699999998,"ADDRESS":"文東街３０巷２２號","OBJECTID":428615},"geometry":{"x":171382.63000000082,"y":2540152.0699999984}},{"attributes":{"ID":428641,"DIS_CODE":0,"TOWNNAME":"東區","LI":"大智里","LIN":"34鄰","STREET":"崇善十五街","SECT":" ","MAREA":" ","LANE":"３３巷","ALLEY":" ","HOUSE_NO":"４２號","E_COORD97":171293.42999999999,"N_COORD97":2540497.8700000001,"ADDRESS":"崇善十五街３３巷４２號","OBJECTID":428616},"geometry":{"x":171293.4299999997,"y":2540497.8700000029}},{"attributes":{"ID":428642,"DIS_CODE":0,"TOWNNAME":"東區","LI":"大智里","LIN":"34鄰","STREET":"崇善十五街","SECT":" ","MAREA":" ","LANE":"３３巷","ALLEY":" ","HOUSE_NO":"１８號","E_COORD97":171291.60000000001,"N_COORD97":2540527.6600000001,"ADDRESS":"崇善十五街３３巷１８號","OBJECTID":428617},"geometry":{"x":171291.59999999963,"y":2540527.6599999983}},{"attributes":{"ID":428643,"DIS_CODE":0,"TOWNNAME":"東區","LI":"中西里","LIN":"26鄰","STREET":"東寧路","SECT":" ","MAREA":" ","LANE":"１２０巷","ALLEY":" ","HOUSE_NO":"３７號","E_COORD97":170240.57000000001,"N_COORD97":2543521.0699999998,"ADDRESS":"東寧路１２０巷３７號","OBJECTID":428618},"geometry":{"x":170240.57000000216,"y":2543521.0700000003}},{"attributes":{"ID":428644,"DIS_CODE":0,"TOWNNAME":"東區","LI":"崇誨里","LIN":"25鄰","STREET":"東寧路","SECT":" ","MAREA":" ","LANE":"２７２巷","ALLEY":" ","HOUSE_NO":"１０號","E_COORD97":170634.31,"N_COORD97":2543400.98,"ADDRESS":"東寧路２７２巷１０號","OBJECTID":428619},"geometry":{"x":170634.30999999959,"y":2543400.9800000042}},{"attributes":{"ID":428645,"DIS_CODE":0,"TOWNNAME":"東區","LI":"德高里","LIN":"7鄰","STREET":"仁和路","SECT":" ","MAREA":" ","LANE":"２０８巷","ALLEY":" ","HOUSE_NO":"１１號","E_COORD97":171514.09,"N_COORD97":2540968.0099999998,"ADDRESS":"仁和路２０８巷１１號","OBJECTID":428620},"geometry":{"x":171514.08999999985,"y":2540968.0099999998}},{"attributes":{"ID":428646,"DIS_CODE":0,"TOWNNAME":"東區","LI":"德高里","LIN":"7鄰","STREET":"仁和路","SECT":" ","MAREA":" ","LANE":"２０８巷","ALLEY":" ","HOUSE_NO":"１３號","E_COORD97":171511.04000000001,"N_COORD97":2540965.2400000002,"ADDRESS":"仁和路２０８巷１３號","OBJECTID":428621},"geometry":{"x":171511.04000000097,"y":2540965.2400000021}},{"attributes":{"ID":428647,"DIS_CODE":0,"TOWNNAME":"東區","LI":"德高里","LIN":"7鄰","STREET":"仁和路","SECT":" ","MAREA":" ","LANE":"２０８巷","ALLEY":" ","HOUSE_NO":"１５號","E_COORD97":171508.5,"N_COORD97":2540962.6400000001,"ADDRESS":"仁和路２０８巷１５號","OBJECTID":428622},"geometry":{"x":171508.5,"y":2540962.6400000043}},{"attributes":{"ID":428648,"DIS_CODE":0,"TOWNNAME":"東區","LI":"德高里","LIN":"7鄰","STREET":"仁和路","SECT":" ","MAREA":" ","LANE":"２０８巷","ALLEY":" ","HOUSE_NO":"１７號","E_COORD97":171505.45000000001,"N_COORD97":2540959.21,"ADDRESS":"仁和路２０８巷１７號","OBJECTID":428623},"geometry":{"x":171505.45000000019,"y":2540959.2100000028}},{"attributes":{"ID":428649,"DIS_CODE":0,"TOWNNAME":"東區","LI":"德高里","LIN":"7鄰","STREET":"仁和路","SECT":" ","MAREA":" ","LANE":"２０８巷","ALLEY":" ","HOUSE_NO":"１９號","E_COORD97":171502.35999999999,"N_COORD97":2540956.2799999998,"ADDRESS":"仁和路２０８巷１９號","OBJECTID":428624},"geometry":{"x":171502.36000000127,"y":2540956.2799999993}},{"attributes":{"ID":428650,"DIS_CODE":0,"TOWNNAME":"東區","LI":"德高里","LIN":"7鄰","STREET":"仁和路","SECT":" ","MAREA":" ","LANE":"２０８巷","ALLEY":" ","HOUSE_NO":"２１號","E_COORD97":171499.53,"N_COORD97":2540953.2999999998,"ADDRESS":"仁和路２０８巷２１號","OBJECTID":428625},"geometry":{"x":171499.53000000026,"y":2540953.3000000007}},{"attributes":{"ID":428651,"DIS_CODE":0,"TOWNNAME":"東區","LI":"德高里","LIN":"7鄰","STREET":"仁和路","SECT":" ","MAREA":" ","LANE":"２０８巷","ALLEY":" ","HOUSE_NO":"３號","E_COORD97":171525.39000000001,"N_COORD97":2540980.4500000002,"ADDRESS":"仁和路２０８巷３號","OBJECTID":428626},"geometry":{"x":171525.38999999966,"y":2540980.4500000011}},{"attributes":{"ID":428652,"DIS_CODE":0,"TOWNNAME":"東區","LI":"德高里","LIN":"17鄰","STREET":"城東街","SECT":" ","MAREA":" ","LANE":"１２巷","ALLEY":" ","HOUSE_NO":"３３號","E_COORD97":171625.85999999999,"N_COORD97":2540643.5099999998,"ADDRESS":"城東街１２巷３３號","OBJECTID":428627},"geometry":{"x":171625.86000000127,"y":2540643.5099999979}},{"attributes":{"ID":428653,"DIS_CODE":0,"TOWNNAME":"東區","LI":"德高里","LIN":"17鄰","STREET":"崇善路","SECT":" ","MAREA":" ","LANE":"１０８９巷","ALLEY":" ","HOUSE_NO":"５７號","E_COORD97":171673.79999999999,"N_COORD97":2540592.3300000001,"ADDRESS":"崇善路１０８９巷５７號","OBJECTID":428628},"geometry":{"x":171673.79999999981,"y":2540592.3300000019}},{"attributes":{"ID":428654,"DIS_CODE":0,"TOWNNAME":"東區","LI":"德高里","LIN":"16鄰","STREET":"崇善路","SECT":" ","MAREA":" ","LANE":"１０７３巷","ALLEY":" ","HOUSE_NO":"２０號","E_COORD97":171536.94,"N_COORD97":2540592.7200000002,"ADDRESS":"崇善路１０７３巷２０號","OBJECTID":428629},"geometry":{"x":171536.94000000134,"y":2540592.7200000025}},{"attributes":{"ID":428655,"DIS_CODE":0,"TOWNNAME":"東區","LI":"德高里","LIN":"16鄰","STREET":"崇善路","SECT":" ","MAREA":" ","LANE":"１０７３巷","ALLEY":" ","HOUSE_NO":"２１號","E_COORD97":171509.28,"N_COORD97":2540600.6699999999,"ADDRESS":"崇善路１０７３巷２１號","OBJECTID":428630},"geometry":{"x":171509.28000000119,"y":2540600.6699999999}},{"attributes":{"ID":428656,"DIS_CODE":0,"TOWNNAME":"東區","LI":"德高里","LIN":"16鄰","STREET":"崇善路","SECT":" ","MAREA":" ","LANE":"１０７３巷","ALLEY":" ","HOUSE_NO":"２２號","E_COORD97":171536.37,"N_COORD97":2540596.7200000002,"ADDRESS":"崇善路１０７３巷２２號","OBJECTID":428631},"geometry":{"x":171536.37000000011,"y":2540596.7200000025}},{"attributes":{"ID":428657,"DIS_CODE":0,"TOWNNAME":"東區","LI":"德高里","LIN":"16鄰","STREET":"崇善路","SECT":" ","MAREA":" ","LANE":"１０７３巷","ALLEY":" ","HOUSE_NO":"２３號","E_COORD97":171507.59,"N_COORD97":2540603.6600000001,"ADDRESS":"崇善路１０７３巷２３號","OBJECTID":428632},"geometry":{"x":171507.58999999985,"y":2540603.660000002}},{"attributes":{"ID":428658,"DIS_CODE":0,"TOWNNAME":"東區","LI":"德高里","LIN":"16鄰","STREET":"崇善路","SECT":" ","MAREA":" ","LANE":"１０７３巷","ALLEY":" ","HOUSE_NO":"２４號","E_COORD97":171547.23999999999,"N_COORD97":2540592.4300000002,"ADDRESS":"崇善路１０７３巷２４號","OBJECTID":428633},"geometry":{"x":171547.24000000022,"y":2540592.4299999997}},{"attributes":{"ID":428659,"DIS_CODE":0,"TOWNNAME":"東區","LI":"德高里","LIN":"16鄰","STREET":"崇善路","SECT":" ","MAREA":" ","LANE":"１０７３巷","ALLEY":" ","HOUSE_NO":"２５號","E_COORD97":171506.42000000001,"N_COORD97":2540607.8199999998,"ADDRESS":"崇善路１０７３巷２５號","OBJECTID":428634},"geometry":{"x":171506.42000000086,"y":2540607.8200000003}},{"attributes":{"ID":428660,"DIS_CODE":0,"TOWNNAME":"東區","LI":"德高里","LIN":"16鄰","STREET":"崇善路","SECT":" ","MAREA":" ","LANE":"１０７３巷","ALLEY":" ","HOUSE_NO":"２６號","E_COORD97":171550.82000000001,"N_COORD97":2540594.1499999999,"ADDRESS":"崇善路１０７３巷２６號","OBJECTID":428635},"geometry":{"x":171550.8200000003,"y":2540594.1500000022}},{"attributes":{"ID":428661,"DIS_CODE":0,"TOWNNAME":"東區","LI":"德高里","LIN":"16鄰","STREET":"崇善路","SECT":" ","MAREA":" ","LANE":"１０７３巷","ALLEY":" ","HOUSE_NO":"２７號","E_COORD97":171504.98999999999,"N_COORD97":2540612.1099999999,"ADDRESS":"崇善路１０７３巷２７號","OBJECTID":428636},"geometry":{"x":171504.99000000022,"y":2540612.1100000031}},{"attributes":{"ID":428662,"DIS_CODE":0,"TOWNNAME":"東區","LI":"德高里","LIN":"16鄰","STREET":"崇善路","SECT":" ","MAREA":" ","LANE":"１０７３巷","ALLEY":" ","HOUSE_NO":"２９號","E_COORD97":171504.60000000001,"N_COORD97":2540616.2599999998,"ADDRESS":"崇善路１０７３巷２９號","OBJECTID":428637},"geometry":{"x":171504.60000000056,"y":2540616.2600000016}},{"attributes":{"ID":428663,"DIS_CODE":0,"TOWNNAME":"東區","LI":"德高里","LIN":"16鄰","STREET":"崇善路","SECT":" ","MAREA":" ","LANE":"１０７３巷","ALLEY":" ","HOUSE_NO":"３０號","E_COORD97":171548.67000000001,"N_COORD97":2540616.7599999998,"ADDRESS":"崇善路１０７３巷３０號","OBJECTID":428638},"geometry":{"x":171548.67000000086,"y":2540616.7599999998}},{"attributes":{"ID":428664,"DIS_CODE":0,"TOWNNAME":"東區","LI":"德高里","LIN":"19鄰","STREET":"仁和路","SECT":" ","MAREA":" ","LANE":"１９９巷","ALLEY":" ","HOUSE_NO":"１１號","E_COORD97":171707.14999999999,"N_COORD97":2540884.1099999999,"ADDRESS":"仁和路１９９巷１１號","OBJECTID":428639},"geometry":{"x":171707.1500000013,"y":2540884.1100000013}},{"attributes":{"ID":428665,"DIS_CODE":0,"TOWNNAME":"東區","LI":"德高里","LIN":"19鄰","STREET":"仁和路","SECT":" ","MAREA":" ","LANE":"１９９巷","ALLEY":" ","HOUSE_NO":"１５號","E_COORD97":171714.67999999999,"N_COORD97":2540887.8700000001,"ADDRESS":"仁和路１９９巷１５號","OBJECTID":428640},"geometry":{"x":171714.68000000063,"y":2540887.8700000029}},{"attributes":{"ID":428666,"DIS_CODE":0,"TOWNNAME":"東區","LI":"德高里","LIN":"19鄰","STREET":"仁和路","SECT":" ","MAREA":" ","LANE":"１９９巷","ALLEY":" ","HOUSE_NO":"１６號","E_COORD97":171709.32999999999,"N_COORD97":2540855.9300000002,"ADDRESS":"仁和路１９９巷１６號","OBJECTID":428641},"geometry":{"x":171709.33000000007,"y":2540855.9300000016}},{"attributes":{"ID":428667,"DIS_CODE":0,"TOWNNAME":"東區","LI":"德高里","LIN":"19鄰","STREET":"仁和路","SECT":" ","MAREA":" ","LANE":"１９９巷","ALLEY":" ","HOUSE_NO":"１７號","E_COORD97":171717.75,"N_COORD97":2540889.2599999998,"ADDRESS":"仁和路１９９巷１７號","OBJECTID":428642},"geometry":{"x":171717.75000000093,"y":2540889.2599999998}},{"attributes":{"ID":428668,"DIS_CODE":0,"TOWNNAME":"東區","LI":"德高里","LIN":"19鄰","STREET":"仁和路","SECT":" ","MAREA":" ","LANE":"１９９巷","ALLEY":" ","HOUSE_NO":"１８號","E_COORD97":171713.51000000001,"N_COORD97":2540857.3199999998,"ADDRESS":"仁和路１９９巷１８號","OBJECTID":428643},"geometry":{"x":171713.51000000164,"y":2540857.3200000022}},{"attributes":{"ID":428669,"DIS_CODE":0,"TOWNNAME":"東區","LI":"德高里","LIN":"19鄰","STREET":"仁和路","SECT":" ","MAREA":" ","LANE":"１９９巷","ALLEY":" ","HOUSE_NO":"１９號","E_COORD97":171721.51000000001,"N_COORD97":2540891.77,"ADDRESS":"仁和路１９９巷１９號","OBJECTID":428644},"geometry":{"x":171721.50999999978,"y":2540891.7699999996}},{"attributes":{"ID":428670,"DIS_CODE":0,"TOWNNAME":"東區","LI":"德高里","LIN":"19鄰","STREET":"仁和路","SECT":" ","MAREA":" ","LANE":"１９９巷","ALLEY":" ","HOUSE_NO":"２０號","E_COORD97":171717,"N_COORD97":2540859.5499999998,"ADDRESS":"仁和路１９９巷２０號","OBJECTID":428645},"geometry":{"x":171717,"y":2540859.5500000026}},{"attributes":{"ID":428671,"DIS_CODE":0,"TOWNNAME":"東區","LI":"德高里","LIN":"19鄰","STREET":"仁和路","SECT":" ","MAREA":" ","LANE":"１９９巷","ALLEY":" ","HOUSE_NO":"２１號","E_COORD97":171725,"N_COORD97":2540893.2999999998,"ADDRESS":"仁和路１９９巷２１號","OBJECTID":428646},"geometry":{"x":171725,"y":2540893.3000000007}},{"attributes":{"ID":428672,"DIS_CODE":0,"TOWNNAME":"東區","LI":"德高里","LIN":"19鄰","STREET":"仁和路","SECT":" ","MAREA":" ","LANE":"１９９巷","ALLEY":" ","HOUSE_NO":"２２號","E_COORD97":171720.76000000001,"N_COORD97":2540860.9399999999,"ADDRESS":"仁和路１９９巷２２號","OBJECTID":428647},"geometry":{"x":171720.76000000071,"y":2540860.9400000032}},{"attributes":{"ID":428673,"DIS_CODE":0,"TOWNNAME":"東區","LI":"德高里","LIN":"19鄰","STREET":"仁和路","SECT":" ","MAREA":" ","LANE":"１９９巷","ALLEY":" ","HOUSE_NO":"２６號","E_COORD97":171728.34,"N_COORD97":2540865.3300000001,"ADDRESS":"仁和路１９９巷２６號","OBJECTID":428648},"geometry":{"x":171728.34000000171,"y":2540865.3300000001}},{"attributes":{"ID":428674,"DIS_CODE":0,"TOWNNAME":"東區","LI":"德高里","LIN":"19鄰","STREET":"仁和路","SECT":" ","MAREA":" ","LANE":"１９９巷","ALLEY":" ","HOUSE_NO":"２８號","E_COORD97":171730.57000000001,"N_COORD97":2540867.1400000001,"ADDRESS":"仁和路１９９巷２８號","OBJECTID":428649},"geometry":{"x":171730.56999999937,"y":2540867.1400000006}},{"attributes":{"ID":428675,"DIS_CODE":0,"TOWNNAME":"東區","LI":"德高里","LIN":"17鄰","STREET":"城東街","SECT":" ","MAREA":" ","LANE":"１２巷","ALLEY":" ","HOUSE_NO":"３８號","E_COORD97":171665.25,"N_COORD97":2540615.3500000001,"ADDRESS":"城東街１２巷３８號","OBJECTID":428650},"geometry":{"x":171665.25000000093,"y":2540615.3500000015}},{"attributes":{"ID":428676,"DIS_CODE":0,"TOWNNAME":"東區","LI":"德高里","LIN":"8鄰","STREET":"仁和路","SECT":" ","MAREA":" ","LANE":"２０８巷","ALLEY":" ","HOUSE_NO":"４６號","E_COORD97":171448.51999999999,"N_COORD97":2540935.1600000001,"ADDRESS":"仁和路２０８巷４６號","OBJECTID":428651},"geometry":{"x":171448.51999999955,"y":2540935.160000002}},{"attributes":{"ID":428677,"DIS_CODE":0,"TOWNNAME":"東區","LI":"德高里","LIN":"8鄰","STREET":"仁和路","SECT":" ","MAREA":" ","LANE":"２０８巷","ALLEY":" ","HOUSE_NO":"３６號","E_COORD97":171460.63,"N_COORD97":2540947.1800000002,"ADDRESS":"仁和路２０８巷３６號","OBJECTID":428652},"geometry":{"x":171460.63000000082,"y":2540947.1799999997}},{"attributes":{"ID":428678,"DIS_CODE":0,"TOWNNAME":"東區","LI":"德高里","LIN":"7鄰","STREET":"仁和路","SECT":" ","MAREA":" ","LANE":"２１８巷","ALLEY":" ","HOUSE_NO":"１號","E_COORD97":171543.10999999999,"N_COORD97":2540950.8300000001,"ADDRESS":"仁和路２１８巷１號","OBJECTID":428653},"geometry":{"x":171543.11000000127,"y":2540950.8300000019}},{"attributes":{"ID":428679,"DIS_CODE":0,"TOWNNAME":"東區","LI":"德高里","LIN":"7鄰","STREET":"仁和路","SECT":" ","MAREA":" ","LANE":"２１８巷","ALLEY":" ","HOUSE_NO":"８號","E_COORD97":171517.94,"N_COORD97":2540951.3300000001,"ADDRESS":"仁和路２１８巷８號","OBJECTID":428654},"geometry":{"x":171517.93999999948,"y":2540951.3300000019}},{"attributes":{"ID":428680,"DIS_CODE":0,"TOWNNAME":"東區","LI":"德高里","LIN":"15鄰","STREET":"崇善路","SECT":" ","MAREA":" ","LANE":"８３５巷","ALLEY":" ","HOUSE_NO":"３號","E_COORD97":171332.73000000001,"N_COORD97":2540882.2599999998,"ADDRESS":"崇善路８３５巷３號","OBJECTID":428655},"geometry":{"x":171332.73000000045,"y":2540882.2599999998}},{"attributes":{"ID":428681,"DIS_CODE":0,"TOWNNAME":"東區","LI":"崇德里","LIN":"25鄰","STREET":"崇道路","SECT":" ","MAREA":" ","LANE":"１９巷","ALLEY":" ","HOUSE_NO":"６號","E_COORD97":170638.62,"N_COORD97":2541436.8300000001,"ADDRESS":"崇道路１９巷６號","OBJECTID":428656},"geometry":{"x":170638.62000000104,"y":2541436.8300000019}},{"attributes":{"ID":428682,"DIS_CODE":0,"TOWNNAME":"東區","LI":"小東里","LIN":"18鄰","STREET":"東和路","SECT":" ","MAREA":" ","LANE":"５７巷","ALLEY":" ","HOUSE_NO":"１６號","E_COORD97":170944.37,"N_COORD97":2544269.3399999999,"ADDRESS":"東和路５７巷１６號","OBJECTID":428657},"geometry":{"x":170944.37000000104,"y":2544269.3400000036}},{"attributes":{"ID":428683,"DIS_CODE":0,"TOWNNAME":"東區","LI":"忠孝里","LIN":"20鄰","STREET":"崇明路","SECT":" ","MAREA":" ","LANE":"２６６巷","ALLEY":" ","HOUSE_NO":"４２號之１","E_COORD97":169932.04000000001,"N_COORD97":2541990.6000000001,"ADDRESS":"崇明路２６６巷４２號之１","OBJECTID":428658},"geometry":{"x":169932.0400000019,"y":2541990.6000000015}},{"attributes":{"ID":428684,"DIS_CODE":0,"TOWNNAME":"東區","LI":"虎尾里","LIN":"13鄰","STREET":"東成街","SECT":" ","MAREA":" ","LANE":"１３１巷","ALLEY":" ","HOUSE_NO":"７號之１","E_COORD97":171679.53,"N_COORD97":2542356.6600000001,"ADDRESS":"東成街１３１巷７號之１","OBJECTID":428659},"geometry":{"x":171679.53000000026,"y":2542356.660000002}},{"attributes":{"ID":428685,"DIS_CODE":0,"TOWNNAME":"東區","LI":"莊敬里","LIN":"4鄰","STREET":"小東路","SECT":" ","MAREA":" ","LANE":"２５４巷","ALLEY":" ","HOUSE_NO":"３號","E_COORD97":171147.20000000001,"N_COORD97":2544306.0299999998,"ADDRESS":"小東路２５４巷３號","OBJECTID":428660},"geometry":{"x":171147.20000000112,"y":2544306.0300000012}},{"attributes":{"ID":428686,"DIS_CODE":0,"TOWNNAME":"東區","LI":"莊敬里","LIN":"4鄰","STREET":"小東路","SECT":" ","MAREA":" ","LANE":"２５４巷","ALLEY":" ","HOUSE_NO":"３之１號","E_COORD97":171150.60999999999,"N_COORD97":2544302.3300000001,"ADDRESS":"小東路２５４巷３之１號","OBJECTID":428661},"geometry":{"x":171150.6100000022,"y":2544302.3300000001}},{"attributes":{"ID":428687,"DIS_CODE":0,"TOWNNAME":"東區","LI":"德高里","LIN":"17鄰","STREET":"崇善路","SECT":" ","MAREA":" ","LANE":"１０８９巷","ALLEY":" ","HOUSE_NO":"５７之１號","E_COORD97":171695.95000000001,"N_COORD97":2540578.48,"ADDRESS":"崇善路１０８９巷５７之１號","OBJECTID":428662},"geometry":{"x":171695.95000000112,"y":2540578.4800000023}},{"attributes":{"ID":428688,"DIS_CODE":0,"TOWNNAME":"東區","LI":"大福里","LIN":"4鄰","STREET":"立德二路","SECT":" ","MAREA":" ","LANE":"８巷","ALLEY":" ","HOUSE_NO":"１號","E_COORD97":169480.54999999999,"N_COORD97":2541698.8500000001,"ADDRESS":"立德二路８巷１號","OBJECTID":428663},"geometry":{"x":169480.54999999981,"y":2541698.8499999978}},{"attributes":{"ID":428689,"DIS_CODE":0,"TOWNNAME":"東區","LI":"南聖里","LIN":"8鄰","STREET":"裕農路","SECT":" ","MAREA":" ","LANE":"７２６巷","ALLEY":" ","HOUSE_NO":"１３號","E_COORD97":171882.70000000001,"N_COORD97":2543118.96,"ADDRESS":"裕農路７２６巷１３號","OBJECTID":428664},"geometry":{"x":171882.70000000112,"y":2543118.9600000009}},{"attributes":{"ID":428690,"DIS_CODE":0,"TOWNNAME":"東區","LI":"關聖里","LIN":"10鄰","STREET":"裕農路","SECT":" ","MAREA":" ","LANE":"７２６巷","ALLEY":" ","HOUSE_NO":"１５號","E_COORD97":171890.04000000001,"N_COORD97":2543095.3100000001,"ADDRESS":"裕農路７２６巷１５號","OBJECTID":428665},"geometry":{"x":171890.0400000019,"y":2543095.3100000024}},{"attributes":{"ID":428691,"DIS_CODE":0,"TOWNNAME":"東區","LI":"關聖里","LIN":"9鄰","STREET":"裕農路","SECT":" ","MAREA":" ","LANE":"７２６巷","ALLEY":" ","HOUSE_NO":"８０號","E_COORD97":171866.07000000001,"N_COORD97":2543023.9700000002,"ADDRESS":"裕農路７２６巷８０號","OBJECTID":428666},"geometry":{"x":171866.0700000003,"y":2543023.9700000007}},{"attributes":{"ID":428692,"DIS_CODE":0,"TOWNNAME":"中西區","LI":"西賢里","LIN":"21鄰","STREET":"西賢一街","SECT":" ","MAREA":" ","LANE":"１８７巷","ALLEY":" ","HOUSE_NO":"８２號","E_COORD97":165569.17000000001,"N_COORD97":2544986.8599999999,"ADDRESS":"西賢一街１８７巷８２號","OBJECTID":428667},"geometry":{"x":165569.16999999899,"y":2544986.8599999994}},{"attributes":{"ID":428693,"DIS_CODE":0,"TOWNNAME":"中西區","LI":"西賢里","LIN":"21鄰","STREET":"西賢一街","SECT":" ","MAREA":" ","LANE":"１８７巷","ALLEY":" ","HOUSE_NO":"８６號","E_COORD97":165573.60999999999,"N_COORD97":2544986.6099999999,"ADDRESS":"西賢一街１８７巷８６號","OBJECTID":428668},"geometry":{"x":165573.6100000022,"y":2544986.6100000013}},{"attributes":{"ID":428694,"DIS_CODE":0,"TOWNNAME":"中西區","LI":"西賢里","LIN":"21鄰","STREET":"西賢一街","SECT":" ","MAREA":" ","LANE":"１８７巷","ALLEY":" ","HOUSE_NO":"８８號","E_COORD97":165577.79999999999,"N_COORD97":2544986,"ADDRESS":"西賢一街１８７巷８８號","OBJECTID":428669},"geometry":{"x":165577.79999999981,"y":2544986}},{"attributes":{"ID":428695,"DIS_CODE":0,"TOWNNAME":"中西區","LI":"西賢里","LIN":"21鄰","STREET":"西賢一街","SECT":" ","MAREA":" ","LANE":"１８７巷","ALLEY":" ","HOUSE_NO":"９０號","E_COORD97":165582.35999999999,"N_COORD97":2544985.5,"ADDRESS":"西賢一街１８７巷９０號","OBJECTID":428670},"geometry":{"x":165582.36000000127,"y":2544985.5}},{"attributes":{"ID":428696,"DIS_CODE":0,"TOWNNAME":"中西區","LI":"西賢里","LIN":"21鄰","STREET":"西賢一街","SECT":" ","MAREA":" ","LANE":"１８７巷","ALLEY":" ","HOUSE_NO":"９２號","E_COORD97":165587.04999999999,"N_COORD97":2544985.5,"ADDRESS":"西賢一街１８７巷９２號","OBJECTID":428671},"geometry":{"x":165587.05000000168,"y":2544985.5}},{"attributes":{"ID":428697,"DIS_CODE":0,"TOWNNAME":"中西區","LI":"西賢里","LIN":"21鄰","STREET":"西賢一街","SECT":" ","MAREA":" ","LANE":"１８７巷","ALLEY":" ","HOUSE_NO":"９６號","E_COORD97":165591.73000000001,"N_COORD97":2544985.3799999999,"ADDRESS":"西賢一街１８７巷９６號","OBJECTID":428672},"geometry":{"x":165591.73000000138,"y":2544985.379999999}},{"attributes":{"ID":428698,"DIS_CODE":0,"TOWNNAME":"中西區","LI":"西賢里","LIN":"21鄰","STREET":"西賢一街","SECT":" ","MAREA":" ","LANE":"１８７巷","ALLEY":" ","HOUSE_NO":"９８號","E_COORD97":165596.54000000001,"N_COORD97":2544985.5,"ADDRESS":"西賢一街１８７巷９８號","OBJECTID":428673},"geometry":{"x":165596.54000000097,"y":2544985.5}},{"attributes":{"ID":428699,"DIS_CODE":0,"TOWNNAME":"中西區","LI":"水仙里","LIN":"17鄰","STREET":"神農街","SECT":" ","MAREA":" ","LANE":"２巷","ALLEY":" ","HOUSE_NO":"２７號","E_COORD97":167833.34,"N_COORD97":2544228.5,"ADDRESS":"神農街２巷２７號","OBJECTID":428674},"geometry":{"x":167833.34000000078,"y":2544228.5000000019}},{"attributes":{"ID":428700,"DIS_CODE":0,"TOWNNAME":"中西區","LI":"水仙里","LIN":"17鄰","STREET":"神農街","SECT":" ","MAREA":" ","LANE":"２巷","ALLEY":" ","HOUSE_NO":"２８號","E_COORD97":167834.17000000001,"N_COORD97":2544231.7000000002,"ADDRESS":"神農街２巷２８號","OBJECTID":428675},"geometry":{"x":167834.17000000179,"y":2544231.6999999993}},{"attributes":{"ID":428701,"DIS_CODE":0,"TOWNNAME":"中西區","LI":"水仙里","LIN":"17鄰","STREET":"神農街","SECT":" ","MAREA":" ","LANE":"２巷","ALLEY":" ","HOUSE_NO":"３０號","E_COORD97":167837.64999999999,"N_COORD97":2544237.54,"ADDRESS":"神農街２巷３０號","OBJECTID":428676},"geometry":{"x":167837.65000000037,"y":2544237.540000001}},{"attributes":{"ID":428702,"DIS_CODE":0,"TOWNNAME":"中西區","LI":"水仙里","LIN":"17鄰","STREET":"神農街","SECT":" ","MAREA":" ","LANE":"２巷","ALLEY":" ","HOUSE_NO":"３１號","E_COORD97":167839.04000000001,"N_COORD97":2544240.3199999998,"ADDRESS":"神農街２巷３１號","OBJECTID":428677},"geometry":{"x":167839.04000000097,"y":2544240.3200000022}},{"attributes":{"ID":428703,"DIS_CODE":0,"TOWNNAME":"中西區","LI":"水仙里","LIN":"17鄰","STREET":"神農街","SECT":" ","MAREA":" ","LANE":"２巷","ALLEY":" ","HOUSE_NO":"３２號","E_COORD97":167840.16,"N_COORD97":2544244.3500000001,"ADDRESS":"神農街２巷３２號","OBJECTID":428678},"geometry":{"x":167840.16000000108,"y":2544244.3499999996}},{"attributes":{"ID":428704,"DIS_CODE":0,"TOWNNAME":"中西區","LI":"水仙里","LIN":"17鄰","STREET":"神農街","SECT":" ","MAREA":" ","LANE":"２巷","ALLEY":" ","HOUSE_NO":"３３號","E_COORD97":167841.41,"N_COORD97":2544248.5299999998,"ADDRESS":"神農街２巷３３號","OBJECTID":428679},"geometry":{"x":167841.41000000108,"y":2544248.5300000012}},{"attributes":{"ID":428705,"DIS_CODE":0,"TOWNNAME":"中西區","LI":"水仙里","LIN":"17鄰","STREET":"神農街","SECT":" ","MAREA":" ","LANE":"２巷","ALLEY":" ","HOUSE_NO":"３４號","E_COORD97":167842.94,"N_COORD97":2544252.8399999999,"ADDRESS":"神農街２巷３４號","OBJECTID":428680},"geometry":{"x":167842.94000000227,"y":2544252.8400000017}},{"attributes":{"ID":428706,"DIS_CODE":0,"TOWNNAME":"安南區","LI":"溪頂里","LIN":"25鄰","STREET":"郡安路","SECT":"四段","MAREA":" ","LANE":"１２０巷","ALLEY":" ","HOUSE_NO":"１０號","E_COORD97":168854.85999999999,"N_COORD97":2547580.0499999998,"ADDRESS":"郡安路四段１２０巷１０號","OBJECTID":428681},"geometry":{"x":168854.86000000034,"y":2547580.0500000007}},{"attributes":{"ID":428707,"DIS_CODE":0,"TOWNNAME":"安南區","LI":"溪墘里","LIN":"25鄰","STREET":"安寧街","SECT":" ","MAREA":" ","LANE":"９巷","ALLEY":" ","HOUSE_NO":"２１號","E_COORD97":167365.98000000001,"N_COORD97":2546865.7400000002,"ADDRESS":"安寧街９巷２１號","OBJECTID":428682},"geometry":{"x":167365.98000000045,"y":2546865.7400000002}},{"attributes":{"ID":428708,"DIS_CODE":0,"TOWNNAME":"安南區","LI":"溪墘里","LIN":"25鄰","STREET":"安寧街","SECT":" ","MAREA":" ","LANE":"９巷","ALLEY":" ","HOUSE_NO":"２２號","E_COORD97":167362.14000000001,"N_COORD97":2546886.3999999999,"ADDRESS":"安寧街９巷２２號","OBJECTID":428683},"geometry":{"x":167362.13999999966,"y":2546886.4000000004}},{"attributes":{"ID":428709,"DIS_CODE":0,"TOWNNAME":"安南區","LI":"溪墘里","LIN":"25鄰","STREET":"安寧街","SECT":" ","MAREA":" ","LANE":"９巷","ALLEY":" ","HOUSE_NO":"２３號","E_COORD97":167360.06,"N_COORD97":2546864.4199999999,"ADDRESS":"安寧街９巷２３號","OBJECTID":428684},"geometry":{"x":167360.06000000052,"y":2546864.4199999999}},{"attributes":{"ID":428710,"DIS_CODE":0,"TOWNNAME":"安南區","LI":"溪墘里","LIN":"25鄰","STREET":"安寧街","SECT":" ","MAREA":" ","LANE":"９巷","ALLEY":" ","HOUSE_NO":"２４號","E_COORD97":167356.76999999999,"N_COORD97":2546884.6099999999,"ADDRESS":"安寧街９巷２４號","OBJECTID":428685},"geometry":{"x":167356.77000000048,"y":2546884.6100000031}},{"attributes":{"ID":428711,"DIS_CODE":0,"TOWNNAME":"安南區","LI":"溪墘里","LIN":"25鄰","STREET":"安寧街","SECT":" ","MAREA":" ","LANE":"９巷","ALLEY":" ","HOUSE_NO":"２５號","E_COORD97":167354.85000000001,"N_COORD97":2546863.3799999999,"ADDRESS":"安寧街９巷２５號","OBJECTID":428686},"geometry":{"x":167354.85000000056,"y":2546863.3800000008}},{"attributes":{"ID":428712,"DIS_CODE":0,"TOWNNAME":"安南區","LI":"溪墘里","LIN":"25鄰","STREET":"安寧街","SECT":" ","MAREA":" ","LANE":"９巷","ALLEY":" ","HOUSE_NO":"２９號","E_COORD97":167343.66,"N_COORD97":2546859.8399999999,"ADDRESS":"安寧街９巷２９號","OBJECTID":428687},"geometry":{"x":167343.66000000015,"y":2546859.8400000017}},{"attributes":{"ID":428713,"DIS_CODE":0,"TOWNNAME":"安南區","LI":"溪墘里","LIN":"27鄰","STREET":"安寧街","SECT":" ","MAREA":" ","LANE":"１０３巷","ALLEY":" ","HOUSE_NO":"２０號","E_COORD97":167314.70999999999,"N_COORD97":2547143.1600000001,"ADDRESS":"安寧街１０３巷２０號","OBJECTID":428688},"geometry":{"x":167314.70999999996,"y":2547143.160000002}},{"attributes":{"ID":428714,"DIS_CODE":0,"TOWNNAME":"中西區","LI":"水仙里","LIN":"18鄰","STREET":"海安路","SECT":"二段","MAREA":" ","LANE":"２７０巷","ALLEY":" ","HOUSE_NO":"９號","E_COORD97":167776.82000000001,"N_COORD97":2544278.54,"ADDRESS":"海安路二段２７０巷９號","OBJECTID":428689},"geometry":{"x":167776.8200000003,"y":2544278.540000001}},{"attributes":{"ID":428715,"DIS_CODE":0,"TOWNNAME":"安南區","LI":"溪墘里","LIN":"27鄰","STREET":"安寧街","SECT":" ","MAREA":" ","LANE":"１０３巷","ALLEY":" ","HOUSE_NO":"２６號","E_COORD97":167298.72,"N_COORD97":2547139.3799999999,"ADDRESS":"安寧街１０３巷２６號","OBJECTID":428690},"geometry":{"x":167298.71999999974,"y":2547139.379999999}},{"attributes":{"ID":428716,"DIS_CODE":0,"TOWNNAME":"安南區","LI":"溪墘里","LIN":"27鄰","STREET":"安寧街","SECT":" ","MAREA":" ","LANE":"１２１巷","ALLEY":" ","HOUSE_NO":"１５號","E_COORD97":167321.60999999999,"N_COORD97":2547161.9500000002,"ADDRESS":"安寧街１２１巷１５號","OBJECTID":428691},"geometry":{"x":167321.61000000127,"y":2547161.9499999993}},{"attributes":{"ID":428717,"DIS_CODE":0,"TOWNNAME":"安南區","LI":"溪墘里","LIN":"27鄰","STREET":"安寧街","SECT":" ","MAREA":" ","LANE":"１２１巷","ALLEY":" ","HOUSE_NO":"１７號","E_COORD97":167316.42000000001,"N_COORD97":2547160.8500000001,"ADDRESS":"安寧街１２１巷１７號","OBJECTID":428692},"geometry":{"x":167316.41999999993,"y":2547160.8500000034}},{"attributes":{"ID":428718,"DIS_CODE":0,"TOWNNAME":"安南區","LI":"溪墘里","LIN":"27鄰","STREET":"安寧街","SECT":" ","MAREA":" ","LANE":"１２１巷","ALLEY":" ","HOUSE_NO":"２０號","E_COORD97":167307.54999999999,"N_COORD97":2547178.79,"ADDRESS":"安寧街１２１巷２０號","OBJECTID":428693},"geometry":{"x":167307.55000000168,"y":2547178.790000001}},{"attributes":{"ID":428719,"DIS_CODE":0,"TOWNNAME":"安南區","LI":"溪墘里","LIN":"27鄰","STREET":"安寧街","SECT":" ","MAREA":" ","LANE":"１２１巷","ALLEY":" ","HOUSE_NO":"２１號","E_COORD97":167306.73000000001,"N_COORD97":2547157.9300000002,"ADDRESS":"安寧街１２１巷２１號","OBJECTID":428694},"geometry":{"x":167306.73000000045,"y":2547157.9300000016}},{"attributes":{"ID":428720,"DIS_CODE":0,"TOWNNAME":"中西區","LI":"建國里","LIN":"22鄰","STREET":"西門路","SECT":"二段","MAREA":" ","LANE":"２２８巷","ALLEY":" ","HOUSE_NO":"１８號","E_COORD97":167964.70999999999,"N_COORD97":2543953.4300000002,"ADDRESS":"西門路二段２２８巷１８號","OBJECTID":428695},"geometry":{"x":167964.71000000089,"y":2543953.4300000034}},{"attributes":{"ID":428721,"DIS_CODE":0,"TOWNNAME":"中西區","LI":"建國里","LIN":"22鄰","STREET":"西門路","SECT":"二段","MAREA":" ","LANE":"２２８巷","ALLEY":" ","HOUSE_NO":"２８號","E_COORD97":167970.10999999999,"N_COORD97":2543948.8300000001,"ADDRESS":"西門路二段２２８巷２８號","OBJECTID":428696},"geometry":{"x":167970.11000000034,"y":2543948.8300000019}},{"attributes":{"ID":428722,"DIS_CODE":0,"TOWNNAME":"中西區","LI":"建國里","LIN":"22鄰","STREET":"西門路","SECT":"二段","MAREA":" ","LANE":"２２８巷","ALLEY":" ","HOUSE_NO":"２８號之１","E_COORD97":167974.5,"N_COORD97":2543947.6400000001,"ADDRESS":"西門路二段２２８巷２８號之１","OBJECTID":428697},"geometry":{"x":167974.50000000093,"y":2543947.6400000025}},{"attributes":{"ID":428723,"DIS_CODE":0,"TOWNNAME":"中西區","LI":"萬昌里","LIN":"19鄰","STREET":"青年路","SECT":" ","MAREA":" ","LANE":"１６４巷","ALLEY":" ","HOUSE_NO":"１１號","E_COORD97":168995.12,"N_COORD97":2543561.6800000002,"ADDRESS":"青年路１６４巷１１號","OBJECTID":428698},"geometry":{"x":168995.12000000011,"y":2543561.6800000034}},{"attributes":{"ID":428724,"DIS_CODE":0,"TOWNNAME":"永康區","LI":"尚頂里","LIN":" ","STREET":"中正南路","SECT":" ","MAREA":" ","LANE":"２３５巷","ALLEY":" ","HOUSE_NO":"１號","E_COORD97":170047.06,"N_COORD97":2547340.02,"ADDRESS":"中正南路２３５巷１號","OBJECTID":428699},"geometry":{"x":170047.06000000052,"y":2547340.0200000014}},{"attributes":{"ID":428725,"DIS_CODE":0,"TOWNNAME":"中西區","LI":"萬昌里","LIN":"19鄰","STREET":"青年路","SECT":" ","MAREA":" ","LANE":"１６４巷","ALLEY":" ","HOUSE_NO":"１３號","E_COORD97":168987.98000000001,"N_COORD97":2543538.25,"ADDRESS":"青年路１６４巷１３號","OBJECTID":428700},"geometry":{"x":168987.98000000045,"y":2543538.2500000019}},{"attributes":{"ID":428726,"DIS_CODE":0,"TOWNNAME":"中西區","LI":"公正里","LIN":"14鄰","STREET":"西華南街","SECT":" ","MAREA":" ","LANE":"４５巷","ALLEY":" ","HOUSE_NO":"１０號","E_COORD97":168930.47,"N_COORD97":2543847.8399999999,"ADDRESS":"西華南街４５巷１０號","OBJECTID":428701},"geometry":{"x":168930.47000000067,"y":2543847.8399999999}},{"attributes":{"ID":428727,"DIS_CODE":0,"TOWNNAME":"中西區","LI":"公正里","LIN":"8鄰","STREET":"西華南街","SECT":" ","MAREA":" ","LANE":"３６巷","ALLEY":" ","HOUSE_NO":"１號","E_COORD97":168981.92000000001,"N_COORD97":2543836.3500000001,"ADDRESS":"西華南街３６巷１號","OBJECTID":428702},"geometry":{"x":168981.92000000086,"y":2543836.3500000015}},{"attributes":{"ID":428728,"DIS_CODE":0,"TOWNNAME":"中西區","LI":"公正里","LIN":"17鄰","STREET":"中山路","SECT":" ","MAREA":" ","LANE":"８２巷","ALLEY":" ","HOUSE_NO":"２０號","E_COORD97":168772.97,"N_COORD97":2543785.6099999999,"ADDRESS":"中山路８２巷２０號","OBJECTID":428703},"geometry":{"x":168772.97000000067,"y":2543785.6100000031}},{"attributes":{"ID":428729,"DIS_CODE":0,"TOWNNAME":"中西區","LI":"公正里","LIN":"17鄰","STREET":"中山路","SECT":" ","MAREA":" ","LANE":"８２巷","ALLEY":" ","HOUSE_NO":"２２號","E_COORD97":168774.75,"N_COORD97":2543790.1299999999,"ADDRESS":"中山路８２巷２２號","OBJECTID":428704},"geometry":{"x":168774.75000000093,"y":2543790.129999999}},{"attributes":{"ID":428730,"DIS_CODE":0,"TOWNNAME":"中西區","LI":"公正里","LIN":"17鄰","STREET":"中山路","SECT":" ","MAREA":" ","LANE":"８２巷","ALLEY":" ","HOUSE_NO":"２４號","E_COORD97":168779.10999999999,"N_COORD97":2543793.9199999999,"ADDRESS":"中山路８２巷２４號","OBJECTID":428705},"geometry":{"x":168779.1100000022,"y":2543793.9199999981}},{"attributes":{"ID":428731,"DIS_CODE":0,"TOWNNAME":"中西區","LI":"公正里","LIN":"17鄰","STREET":"中山路","SECT":" ","MAREA":" ","LANE":"８２巷","ALLEY":" ","HOUSE_NO":"２６號","E_COORD97":168779.92000000001,"N_COORD97":2543788.1899999999,"ADDRESS":"中山路８２巷２６號","OBJECTID":428706},"geometry":{"x":168779.92000000179,"y":2543788.1899999995}},{"attributes":{"ID":428732,"DIS_CODE":0,"TOWNNAME":"中西區","LI":"公正里","LIN":"17鄰","STREET":"中山路","SECT":" ","MAREA":" ","LANE":"８２巷","ALLEY":" ","HOUSE_NO":"２８號","E_COORD97":168783.31,"N_COORD97":2543784.4900000002,"ADDRESS":"中山路８２巷２８號","OBJECTID":428707},"geometry":{"x":168783.30999999959,"y":2543784.4900000021}},{"attributes":{"ID":428733,"DIS_CODE":0,"TOWNNAME":"中西區","LI":"公正里","LIN":"17鄰","STREET":"中山路","SECT":" ","MAREA":" ","LANE":"８２巷","ALLEY":" ","HOUSE_NO":"３０號","E_COORD97":168787.01999999999,"N_COORD97":2543782.8700000001,"ADDRESS":"中山路８２巷３０號","OBJECTID":428708},"geometry":{"x":168787.01999999955,"y":2543782.8700000029}},{"attributes":{"ID":428734,"DIS_CODE":0,"TOWNNAME":"中西區","LI":"公正里","LIN":"17鄰","STREET":"衛民街","SECT":" ","MAREA":" ","LANE":"１０８巷","ALLEY":" ","HOUSE_NO":"１號","E_COORD97":168854.5,"N_COORD97":2543770.9300000002,"ADDRESS":"衛民街１０８巷１號","OBJECTID":428709},"geometry":{"x":168854.50000000093,"y":2543770.9300000016}},{"attributes":{"ID":428735,"DIS_CODE":0,"TOWNNAME":"中西區","LI":"公正里","LIN":"17鄰","STREET":"衛民街","SECT":" ","MAREA":" ","LANE":"１０８巷","ALLEY":" ","HOUSE_NO":"２號","E_COORD97":168855.14999999999,"N_COORD97":2543780.0600000001,"ADDRESS":"衛民街１０８巷２號","OBJECTID":428710},"geometry":{"x":168855.15000000224,"y":2543780.0599999987}},{"attributes":{"ID":428736,"DIS_CODE":0,"TOWNNAME":"中西區","LI":"公正里","LIN":"17鄰","STREET":"衛民街","SECT":" ","MAREA":" ","LANE":"１０８巷","ALLEY":" ","HOUSE_NO":"２號之１","E_COORD97":168856.32999999999,"N_COORD97":2543785.1000000001,"ADDRESS":"衛民街１０８巷２號之１","OBJECTID":428711},"geometry":{"x":168856.33000000007,"y":2543785.0999999996}},{"attributes":{"ID":428737,"DIS_CODE":0,"TOWNNAME":"中西區","LI":"公正里","LIN":"17鄰","STREET":"衛民街","SECT":" ","MAREA":" ","LANE":"１０８巷","ALLEY":" ","HOUSE_NO":"３號","E_COORD97":168856.32999999999,"N_COORD97":2543789.8199999998,"ADDRESS":"衛民街１０８巷３號","OBJECTID":428712},"geometry":{"x":168856.33000000007,"y":2543789.8200000022}},{"attributes":{"ID":428738,"DIS_CODE":0,"TOWNNAME":"中西區","LI":"福安里","LIN":"4鄰","STREET":"府前路","SECT":"一段","MAREA":" ","LANE":"３０４巷","ALLEY":" ","HOUSE_NO":"１８號","E_COORD97":167882.26999999999,"N_COORD97":2543482.1499999999,"ADDRESS":"府前路一段３０４巷１８號","OBJECTID":428713},"geometry":{"x":167882.27000000048,"y":2543482.1500000022}},{"attributes":{"ID":428739,"DIS_CODE":0,"TOWNNAME":"中西區","LI":"福安里","LIN":"4鄰","STREET":"府前路","SECT":"一段","MAREA":" ","LANE":"３０４巷","ALLEY":" ","HOUSE_NO":"２０號","E_COORD97":167882.98999999999,"N_COORD97":2543487.1600000001,"ADDRESS":"府前路一段３０４巷２０號","OBJECTID":428714},"geometry":{"x":167882.99000000209,"y":2543487.1600000001}},{"attributes":{"ID":428740,"DIS_CODE":0,"TOWNNAME":"中西區","LI":"福安里","LIN":"4鄰","STREET":"府前路","SECT":"一段","MAREA":" ","LANE":"３０４巷","ALLEY":" ","HOUSE_NO":"２２號","E_COORD97":167894.64000000001,"N_COORD97":2543490.0299999998,"ADDRESS":"府前路一段３０４巷２２號","OBJECTID":428715},"geometry":{"x":167894.63999999966,"y":2543490.0299999993}},{"attributes":{"ID":428741,"DIS_CODE":0,"TOWNNAME":"中西區","LI":"福安里","LIN":"4鄰","STREET":"府前路","SECT":"一段","MAREA":" ","LANE":"３０４巷","ALLEY":" ","HOUSE_NO":"２４號","E_COORD97":167885.32000000001,"N_COORD97":2543492.8900000001,"ADDRESS":"府前路一段３０４巷２４號","OBJECTID":428716},"geometry":{"x":167885.3200000003,"y":2543492.8900000006}},{"attributes":{"ID":428742,"DIS_CODE":0,"TOWNNAME":"中西區","LI":"福安里","LIN":"4鄰","STREET":"府前路","SECT":"一段","MAREA":" ","LANE":"３０４巷","ALLEY":" ","HOUSE_NO":"４０號","E_COORD97":167889.26000000001,"N_COORD97":2543513.75,"ADDRESS":"府前路一段３０４巷４０號","OBJECTID":428717},"geometry":{"x":167889.26000000164,"y":2543513.7499999981}},{"attributes":{"ID":428743,"DIS_CODE":0,"TOWNNAME":"中西區","LI":"福安里","LIN":"4鄰","STREET":"府前路","SECT":"一段","MAREA":" ","LANE":"３０４巷","ALLEY":" ","HOUSE_NO":"４２號","E_COORD97":167890.19,"N_COORD97":2543521.0600000001,"ADDRESS":"府前路一段３０４巷４２號","OBJECTID":428718},"geometry":{"x":167890.19000000041,"y":2543521.0600000005}},{"attributes":{"ID":428744,"DIS_CODE":0,"TOWNNAME":"中西區","LI":"銀同里","LIN":"3鄰","STREET":"開山路","SECT":" ","MAREA":" ","LANE":"１０９巷","ALLEY":" ","HOUSE_NO":"１１號","E_COORD97":168791.19,"N_COORD97":2543355.8100000001,"ADDRESS":"開山路１０９巷１１號","OBJECTID":428719},"geometry":{"x":168791.19000000134,"y":2543355.8100000024}},{"attributes":{"ID":428745,"DIS_CODE":0,"TOWNNAME":"中西區","LI":"銀同里","LIN":"3鄰","STREET":"開山路","SECT":" ","MAREA":" ","LANE":"１０９巷","ALLEY":" ","HOUSE_NO":"１３號","E_COORD97":168794.04000000001,"N_COORD97":2543355.0899999999,"ADDRESS":"開山路１０９巷１３號","OBJECTID":428720},"geometry":{"x":168794.04000000004,"y":2543355.0899999999}},{"attributes":{"ID":428746,"DIS_CODE":0,"TOWNNAME":"中西區","LI":"銀同里","LIN":"3鄰","STREET":"開山路","SECT":" ","MAREA":" ","LANE":"１０９巷","ALLEY":" ","HOUSE_NO":"１號","E_COORD97":168753.06,"N_COORD97":2543348.9100000001,"ADDRESS":"開山路１０９巷１號","OBJECTID":428721},"geometry":{"x":168753.05999999959,"y":2543348.9100000001}},{"attributes":{"ID":428747,"DIS_CODE":0,"TOWNNAME":"中西區","LI":"銀同里","LIN":"3鄰","STREET":"開山路","SECT":" ","MAREA":" ","LANE":"１０９巷","ALLEY":" ","HOUSE_NO":"３號","E_COORD97":168757.10000000001,"N_COORD97":2543349.1600000001,"ADDRESS":"開山路１０９巷３號","OBJECTID":428722},"geometry":{"x":168757.10000000056,"y":2543349.160000002}},{"attributes":{"ID":428748,"DIS_CODE":0,"TOWNNAME":"中西區","LI":"銀同里","LIN":"3鄰","STREET":"開山路","SECT":" ","MAREA":" ","LANE":"１０９巷","ALLEY":" ","HOUSE_NO":"５號","E_COORD97":168759.91,"N_COORD97":2543350.0099999998,"ADDRESS":"開山路１０９巷５號","OBJECTID":428723},"geometry":{"x":168759.91000000201,"y":2543350.0100000016}},{"attributes":{"ID":428749,"DIS_CODE":0,"TOWNNAME":"中西區","LI":"銀同里","LIN":"3鄰","STREET":"開山路","SECT":" ","MAREA":" ","LANE":"１０９巷","ALLEY":" ","HOUSE_NO":"７號","E_COORD97":168762.97,"N_COORD97":2543349.77,"ADDRESS":"開山路１０９巷７號","OBJECTID":428724},"geometry":{"x":168762.97000000067,"y":2543349.7699999996}},{"attributes":{"ID":428750,"DIS_CODE":0,"TOWNNAME":"白河區","LI":"永安里","LIN":"20鄰","STREET":"中正路","SECT":" ","MAREA":" ","LANE":"１２４巷","ALLEY":" ","HOUSE_NO":"２３號","E_COORD97":189846.67000000001,"N_COORD97":2583209.0699999998,"ADDRESS":"中正路１２４巷２３號","OBJECTID":428725},"geometry":{"x":189846.67000000086,"y":2583209.0700000003}},{"attributes":{"ID":428751,"DIS_CODE":0,"TOWNNAME":"白河區","LI":"永安里","LIN":"20鄰","STREET":"中正路","SECT":" ","MAREA":" ","LANE":"１２４巷","ALLEY":" ","HOUSE_NO":"２４號","E_COORD97":189852.04999999999,"N_COORD97":2583195.75,"ADDRESS":"中正路１２４巷２４號","OBJECTID":428726},"geometry":{"x":189852.05000000075,"y":2583195.7500000019}},{"attributes":{"ID":428752,"DIS_CODE":0,"TOWNNAME":"白河區","LI":"永安里","LIN":"20鄰","STREET":"中正路","SECT":" ","MAREA":" ","LANE":"１２４巷","ALLEY":" ","HOUSE_NO":"２５號","E_COORD97":189851.26000000001,"N_COORD97":2583210.4199999999,"ADDRESS":"中正路１２４巷２５號","OBJECTID":428727},"geometry":{"x":189851.25999999978,"y":2583210.4199999999}},{"attributes":{"ID":428753,"DIS_CODE":0,"TOWNNAME":"白河區","LI":"永安里","LIN":"20鄰","STREET":"中正路","SECT":" ","MAREA":" ","LANE":"１２４巷","ALLEY":" ","HOUSE_NO":"２６號","E_COORD97":189856.35000000001,"N_COORD97":2583197.29,"ADDRESS":"中正路１２４巷２６號","OBJECTID":428728},"geometry":{"x":189856.35000000149,"y":2583197.2900000028}},{"attributes":{"ID":428754,"DIS_CODE":0,"TOWNNAME":"白河區","LI":"永安里","LIN":"20鄰","STREET":"中正路","SECT":" ","MAREA":" ","LANE":"１２４巷","ALLEY":" ","HOUSE_NO":"２７號","E_COORD97":189854.92000000001,"N_COORD97":2583212.0899999999,"ADDRESS":"中正路１２４巷２７號","OBJECTID":428729},"geometry":{"x":189854.92000000086,"y":2583212.0899999999}},{"attributes":{"ID":428755,"DIS_CODE":0,"TOWNNAME":"白河區","LI":"永安里","LIN":"20鄰","STREET":"中正路","SECT":" ","MAREA":" ","LANE":"１２４巷","ALLEY":" ","HOUSE_NO":"２８號","E_COORD97":189860.22,"N_COORD97":2583198.7400000002,"ADDRESS":"中正路１２４巷２８號","OBJECTID":428730},"geometry":{"x":189860.21999999974,"y":2583198.7400000039}},{"attributes":{"ID":428756,"DIS_CODE":0,"TOWNNAME":"白河區","LI":"永安里","LIN":"20鄰","STREET":"中正路","SECT":" ","MAREA":" ","LANE":"１２４巷","ALLEY":" ","HOUSE_NO":"２之１號","E_COORD97":189856.66,"N_COORD97":2583151.5600000001,"ADDRESS":"中正路１２４巷２之１號","OBJECTID":428731},"geometry":{"x":189856.66000000201,"y":2583151.5600000005}},{"attributes":{"ID":428757,"DIS_CODE":0,"TOWNNAME":"白河區","LI":"秀祐里","LIN":"6鄰","STREET":"中正路","SECT":" ","MAREA":" ","LANE":"７３１巷","ALLEY":" ","HOUSE_NO":"１６號","E_COORD97":188668.22,"N_COORD97":2582895.3399999999,"ADDRESS":"中正路７３１巷１６號","OBJECTID":428732},"geometry":{"x":188668.22000000067,"y":2582895.3399999999}},{"attributes":{"ID":428758,"DIS_CODE":0,"TOWNNAME":"白河區","LI":"秀祐里","LIN":"6鄰","STREET":"中正路","SECT":" ","MAREA":" ","LANE":"７３１巷","ALLEY":" ","HOUSE_NO":"１８號","E_COORD97":188669.54000000001,"N_COORD97":2582889.23,"ADDRESS":"中正路７３１巷１８號","OBJECTID":428733},"geometry":{"x":188669.54000000097,"y":2582889.2300000004}},{"attributes":{"ID":428759,"DIS_CODE":0,"TOWNNAME":"白河區","LI":"秀祐里","LIN":"6鄰","STREET":"中正路","SECT":" ","MAREA":" ","LANE":"７３１巷","ALLEY":" ","HOUSE_NO":"２０號","E_COORD97":188670.85999999999,"N_COORD97":2582883.1200000001,"ADDRESS":"中正路７３１巷２０號","OBJECTID":428734},"geometry":{"x":188670.86000000127,"y":2582883.1200000029}},{"attributes":{"ID":428760,"DIS_CODE":0,"TOWNNAME":"白河區","LI":"秀祐里","LIN":"6鄰","STREET":"中正路","SECT":" ","MAREA":" ","LANE":"７３１巷","ALLEY":" ","HOUSE_NO":"２２號","E_COORD97":188672.17000000001,"N_COORD97":2582877,"ADDRESS":"中正路７３１巷２２號","OBJECTID":428735},"geometry":{"x":188672.16999999993,"y":2582877}},{"attributes":{"ID":428761,"DIS_CODE":0,"TOWNNAME":"白河區","LI":"秀祐里","LIN":"6鄰","STREET":"中正路","SECT":" ","MAREA":" ","LANE":"７５５巷","ALLEY":" ","HOUSE_NO":"１５號","E_COORD97":188651.85000000001,"N_COORD97":2582903.1800000002,"ADDRESS":"中正路７５５巷１５號","OBJECTID":428736},"geometry":{"x":188651.85000000056,"y":2582903.1799999997}},{"attributes":{"ID":428762,"DIS_CODE":0,"TOWNNAME":"白河區","LI":"秀祐里","LIN":"6鄰","STREET":"中正路","SECT":" ","MAREA":" ","LANE":"７５５巷","ALLEY":" ","HOUSE_NO":"１７號","E_COORD97":188652.91,"N_COORD97":2582897.3599999999,"ADDRESS":"中正路７５５巷１７號","OBJECTID":428737},"geometry":{"x":188652.91000000201,"y":2582897.3599999994}},{"attributes":{"ID":428763,"DIS_CODE":0,"TOWNNAME":"白河區","LI":"秀祐里","LIN":"6鄰","STREET":"中正路","SECT":" ","MAREA":" ","LANE":"７５５巷","ALLEY":" ","HOUSE_NO":"１８號","E_COORD97":188625.25,"N_COORD97":2582891.0499999998,"ADDRESS":"中正路７５５巷１８號","OBJECTID":428738},"geometry":{"x":188625.25000000093,"y":2582891.0500000007}},{"attributes":{"ID":428764,"DIS_CODE":0,"TOWNNAME":"白河區","LI":"秀祐里","LIN":"6鄰","STREET":"中正路","SECT":" ","MAREA":" ","LANE":"７５５巷","ALLEY":" ","HOUSE_NO":"１９號","E_COORD97":188653.97,"N_COORD97":2582891.54,"ADDRESS":"中正路７５５巷１９號","OBJECTID":428739},"geometry":{"x":188653.97000000067,"y":2582891.540000001}},{"attributes":{"ID":428765,"DIS_CODE":0,"TOWNNAME":"白河區","LI":"秀祐里","LIN":"6鄰","STREET":"中正路","SECT":" ","MAREA":" ","LANE":"７５５巷","ALLEY":" ","HOUSE_NO":"２０號","E_COORD97":188626.76999999999,"N_COORD97":2582885.4399999999,"ADDRESS":"中正路７５５巷２０號","OBJECTID":428740},"geometry":{"x":188626.77000000048,"y":2582885.4400000013}},{"attributes":{"ID":428766,"DIS_CODE":0,"TOWNNAME":"白河區","LI":"秀祐里","LIN":"6鄰","STREET":"中正路","SECT":" ","MAREA":" ","LANE":"７５５巷","ALLEY":" ","HOUSE_NO":"２１號","E_COORD97":188655.03,"N_COORD97":2582885.7200000002,"ADDRESS":"中正路７５５巷２１號","OBJECTID":428741},"geometry":{"x":188655.03000000026,"y":2582885.7200000007}},{"attributes":{"ID":428767,"DIS_CODE":0,"TOWNNAME":"白河區","LI":"秀祐里","LIN":"6鄰","STREET":"中正路","SECT":" ","MAREA":" ","LANE":"７５５巷","ALLEY":" ","HOUSE_NO":"２２號","E_COORD97":188628.14999999999,"N_COORD97":2582876.5600000001,"ADDRESS":"中正路７５５巷２２號","OBJECTID":428742},"geometry":{"x":188628.1500000013,"y":2582876.5600000005}},{"attributes":{"ID":428768,"DIS_CODE":0,"TOWNNAME":"白河區","LI":"秀祐里","LIN":"6鄰","STREET":"中正路","SECT":" ","MAREA":" ","LANE":"７５５巷","ALLEY":" ","HOUSE_NO":"２３號","E_COORD97":188656.09,"N_COORD97":2582879.8999999999,"ADDRESS":"中正路７５５巷２３號","OBJECTID":428743},"geometry":{"x":188656.08999999985,"y":2582879.9000000022}},{"attributes":{"ID":428769,"DIS_CODE":0,"TOWNNAME":"安南區","LI":"海西里","LIN":" ","STREET":"海中街","SECT":" ","MAREA":" ","LANE":"１６９巷","ALLEY":" ","HOUSE_NO":"２０號","E_COORD97":166302.29999999999,"N_COORD97":2549140.5299999998,"ADDRESS":"海中街１６９巷２０號","OBJECTID":428744},"geometry":{"x":166302.30000000168,"y":2549140.5300000012}},{"attributes":{"ID":428770,"DIS_CODE":0,"TOWNNAME":"安南區","LI":"海西里","LIN":" ","STREET":"海中街","SECT":" ","MAREA":" ","LANE":"１０１巷","ALLEY":" ","HOUSE_NO":"１００號之２","E_COORD97":166166.95000000001,"N_COORD97":2548833.04,"ADDRESS":"海中街１０１巷１００號之２","OBJECTID":428745},"geometry":{"x":166166.95000000019,"y":2548833.0399999991}},{"attributes":{"ID":428771,"DIS_CODE":0,"TOWNNAME":"安南區","LI":"海東里","LIN":" ","STREET":"海佃路","SECT":"二段","MAREA":" ","LANE":"４６１巷","ALLEY":" ","HOUSE_NO":"５０號","E_COORD97":166593.97,"N_COORD97":2549025.4500000002,"ADDRESS":"海佃路二段４６１巷５０號","OBJECTID":428746},"geometry":{"x":166593.96999999974,"y":2549025.4500000011}},{"attributes":{"ID":428772,"DIS_CODE":0,"TOWNNAME":"安南區","LI":"海東里","LIN":" ","STREET":"海佃路","SECT":"二段","MAREA":" ","LANE":"４８３巷","ALLEY":" ","HOUSE_NO":"９９號","E_COORD97":166426.95000000001,"N_COORD97":2548999.8599999999,"ADDRESS":"海佃路二段４８３巷９９號","OBJECTID":428747},"geometry":{"x":166426.95000000019,"y":2548999.8600000013}},{"attributes":{"ID":428773,"DIS_CODE":0,"TOWNNAME":"安南區","LI":"海東里","LIN":" ","STREET":"海佃路","SECT":"二段","MAREA":" ","LANE":"４８３巷","ALLEY":" ","HOUSE_NO":"１０１號","E_COORD97":166426.14000000001,"N_COORD97":2548995.4300000002,"ADDRESS":"海佃路二段４８３巷１０１號","OBJECTID":428748},"geometry":{"x":166426.13999999966,"y":2548995.4300000016}},{"attributes":{"ID":428774,"DIS_CODE":0,"TOWNNAME":"安南區","LI":"海東里","LIN":" ","STREET":"海中街","SECT":" ","MAREA":" ","LANE":"１８巷","ALLEY":" ","HOUSE_NO":"４號","E_COORD97":166564.38,"N_COORD97":2548836.4900000002,"ADDRESS":"海中街１８巷４號","OBJECTID":428749},"geometry":{"x":166564.37999999989,"y":2548836.4900000021}},{"attributes":{"ID":428775,"DIS_CODE":0,"TOWNNAME":"安南區","LI":"海東里","LIN":" ","STREET":"海中街","SECT":" ","MAREA":" ","LANE":"１８巷","ALLEY":" ","HOUSE_NO":"２８號","E_COORD97":166605.39999999999,"N_COORD97":2548857.21,"ADDRESS":"海中街１８巷２８號","OBJECTID":428750},"geometry":{"x":166605.40000000037,"y":2548857.2100000009}},{"attributes":{"ID":428776,"DIS_CODE":0,"TOWNNAME":"安南區","LI":"海東里","LIN":" ","STREET":"同安路","SECT":" ","MAREA":" ","LANE":"２２５巷","ALLEY":" ","HOUSE_NO":"４號","E_COORD97":167238.84,"N_COORD97":2549313.8700000001,"ADDRESS":"同安路２２５巷４號","OBJECTID":428751},"geometry":{"x":167238.83999999985,"y":2549313.870000001}},{"attributes":{"ID":428777,"DIS_CODE":0,"TOWNNAME":"安南區","LI":"海東里","LIN":" ","STREET":"同安路","SECT":" ","MAREA":" ","LANE":"２２５巷","ALLEY":" ","HOUSE_NO":"６號","E_COORD97":167235.29000000001,"N_COORD97":2549316.6400000001,"ADDRESS":"同安路２２５巷６號","OBJECTID":428752},"geometry":{"x":167235.29000000097,"y":2549316.6400000025}},{"attributes":{"ID":428778,"DIS_CODE":0,"TOWNNAME":"安南區","LI":"海東里","LIN":" ","STREET":"同安路","SECT":" ","MAREA":" ","LANE":"２２５巷","ALLEY":" ","HOUSE_NO":"８號","E_COORD97":167231.09,"N_COORD97":2549318.98,"ADDRESS":"同安路２２５巷８號","OBJECTID":428753},"geometry":{"x":167231.09000000171,"y":2549318.9800000004}},{"attributes":{"ID":428779,"DIS_CODE":0,"TOWNNAME":"安南區","LI":"海南里","LIN":" ","STREET":"府安路","SECT":"七段","MAREA":" ","LANE":"５９巷","ALLEY":" ","HOUSE_NO":"１７號","E_COORD97":165901.62,"N_COORD97":2545968.8500000001,"ADDRESS":"府安路七段５９巷１７號","OBJECTID":428754},"geometry":{"x":165901.62000000011,"y":2545968.8500000015}},{"attributes":{"ID":428780,"DIS_CODE":0,"TOWNNAME":"安南區","LI":"海南里","LIN":" ","STREET":"府安路","SECT":"七段","MAREA":" ","LANE":"１０巷","ALLEY":" ","HOUSE_NO":"１６號","E_COORD97":166081.39000000001,"N_COORD97":2546108.5600000001,"ADDRESS":"府安路七段１０巷１６號","OBJECTID":428755},"geometry":{"x":166081.3900000006,"y":2546108.5600000005}},{"attributes":{"ID":428781,"DIS_CODE":0,"TOWNNAME":"安南區","LI":"梅花里","LIN":" ","STREET":"安中路","SECT":"一段","MAREA":" ","LANE":"６１９巷","ALLEY":" ","HOUSE_NO":"７６號","E_COORD97":167744.75,"N_COORD97":2548935.0499999998,"ADDRESS":"安中路一段６１９巷７６號","OBJECTID":428756},"geometry":{"x":167744.75,"y":2548935.0500000026}},{"attributes":{"ID":428782,"DIS_CODE":0,"TOWNNAME":"安南區","LI":"海南里","LIN":"10鄰","STREET":"府安路","SECT":"七段","MAREA":" ","LANE":"１０巷","ALLEY":" ","HOUSE_NO":"１２號","E_COORD97":166094.14000000001,"N_COORD97":2546092.9399999999,"ADDRESS":"府安路七段１０巷１２號","OBJECTID":428757},"geometry":{"x":166094.13999999966,"y":2546092.9400000013}},{"attributes":{"ID":428783,"DIS_CODE":0,"TOWNNAME":"安南區","LI":"海南里","LIN":"10鄰","STREET":"府安路","SECT":"七段","MAREA":" ","LANE":"１０巷","ALLEY":" ","HOUSE_NO":"１４號","E_COORD97":166088.57999999999,"N_COORD97":2546100.27,"ADDRESS":"府安路七段１０巷１４號","OBJECTID":428758},"geometry":{"x":166088.58000000007,"y":2546100.2700000033}},{"attributes":{"ID":428784,"DIS_CODE":0,"TOWNNAME":"安南區","LI":"海南里","LIN":"10鄰","STREET":"府安路","SECT":"七段","MAREA":" ","LANE":"１０巷","ALLEY":" ","HOUSE_NO":"１８號","E_COORD97":166076.5,"N_COORD97":2546115.9700000002,"ADDRESS":"府安路七段１０巷１８號","OBJECTID":428759},"geometry":{"x":166076.50000000093,"y":2546115.9700000007}},{"attributes":{"ID":428785,"DIS_CODE":0,"TOWNNAME":"安南區","LI":"國安里","LIN":"4鄰","STREET":"國安街","SECT":" ","MAREA":" ","LANE":"１５６巷","ALLEY":" ","HOUSE_NO":"１５３號","E_COORD97":166645.41,"N_COORD97":2547376.3700000001,"ADDRESS":"國安街１５６巷１５３號","OBJECTID":428760},"geometry":{"x":166645.41000000015,"y":2547376.3700000029}},{"attributes":{"ID":428786,"DIS_CODE":0,"TOWNNAME":"永康區","LI":"六合里","LIN":"5鄰","STREET":"六合路","SECT":" ","MAREA":" ","LANE":"８５巷","ALLEY":" ","HOUSE_NO":"２號","E_COORD97":171133.39999999999,"N_COORD97":2545784,"ADDRESS":"六合路８５巷２號","OBJECTID":428761},"geometry":{"x":171133.39999999944,"y":2545784.0000000037}},{"attributes":{"ID":428787,"DIS_CODE":0,"TOWNNAME":"安南區","LI":"國安里","LIN":" ","STREET":"郡安路","SECT":"六段","MAREA":" ","LANE":"１１１巷","ALLEY":" ","HOUSE_NO":"３６號","E_COORD97":166477.09,"N_COORD97":2547222.1000000001,"ADDRESS":"郡安路六段１１１巷３６號","OBJECTID":428762},"geometry":{"x":166477.09000000078,"y":2547222.0999999996}},{"attributes":{"ID":428788,"DIS_CODE":0,"TOWNNAME":"安南區","LI":"國安里","LIN":" ","STREET":"國安街","SECT":" ","MAREA":" ","LANE":"１５６巷","ALLEY":" ","HOUSE_NO":"４９號","E_COORD97":166702.94,"N_COORD97":2547107.54,"ADDRESS":"國安街１５６巷４９號","OBJECTID":428763},"geometry":{"x":166702.94000000041,"y":2547107.5399999991}},{"attributes":{"ID":428789,"DIS_CODE":0,"TOWNNAME":"安南區","LI":"國安里","LIN":"2鄰","STREET":"國安街","SECT":" ","MAREA":" ","LANE":"１５６巷","ALLEY":" ","HOUSE_NO":"３９號","E_COORD97":166707.70999999999,"N_COORD97":2547084.3399999999,"ADDRESS":"國安街１５６巷３９號","OBJECTID":428764},"geometry":{"x":166707.70999999996,"y":2547084.3400000017}},{"attributes":{"ID":428790,"DIS_CODE":0,"TOWNNAME":"安南區","LI":"國安里","LIN":"2鄰","STREET":"國安街","SECT":" ","MAREA":" ","LANE":"１５６巷","ALLEY":" ","HOUSE_NO":"４１號","E_COORD97":166706.67000000001,"N_COORD97":2547088.5600000001,"ADDRESS":"國安街１５６巷４１號","OBJECTID":428765},"geometry":{"x":166706.66999999899,"y":2547088.5600000005}},{"attributes":{"ID":428791,"DIS_CODE":0,"TOWNNAME":"安南區","LI":"國安里","LIN":"4鄰","STREET":"國安街","SECT":" ","MAREA":" ","LANE":"１５６巷","ALLEY":" ","HOUSE_NO":"１４５號","E_COORD97":166648.42000000001,"N_COORD97":2547358.4700000002,"ADDRESS":"國安街１５６巷１４５號","OBJECTID":428766},"geometry":{"x":166648.41999999993,"y":2547358.4700000025}},{"attributes":{"ID":428792,"DIS_CODE":0,"TOWNNAME":"安南區","LI":"梅花里","LIN":" ","STREET":"安中路","SECT":"一段","MAREA":" ","LANE":"３４４巷","ALLEY":" ","HOUSE_NO":"２４號","E_COORD97":167332.91,"N_COORD97":2549224.6299999999,"ADDRESS":"安中路一段３４４巷２４號","OBJECTID":428767},"geometry":{"x":167332.91000000108,"y":2549224.6300000008}},{"attributes":{"ID":428793,"DIS_CODE":0,"TOWNNAME":"安南區","LI":"梅花里","LIN":" ","STREET":"安中路","SECT":"一段","MAREA":" ","LANE":"３４４巷","ALLEY":" ","HOUSE_NO":"１０號","E_COORD97":167294.39999999999,"N_COORD97":2549246.5299999998,"ADDRESS":"安中路一段３４４巷１０號","OBJECTID":428768},"geometry":{"x":167294.4000000013,"y":2549246.5299999993}},{"attributes":{"ID":428794,"DIS_CODE":0,"TOWNNAME":"安南區","LI":"梅花里","LIN":" ","STREET":"安中路","SECT":"一段","MAREA":" ","LANE":"２６２巷","ALLEY":" ","HOUSE_NO":"１１號","E_COORD97":167209.39999999999,"N_COORD97":2549119.2000000002,"ADDRESS":"安中路一段２６２巷１１號","OBJECTID":428769},"geometry":{"x":167209.4000000013,"y":2549119.2000000011}},{"attributes":{"ID":428795,"DIS_CODE":0,"TOWNNAME":"安南區","LI":"梅花里","LIN":" ","STREET":"安中路","SECT":"一段","MAREA":" ","LANE":"２６２巷","ALLEY":" ","HOUSE_NO":"３３號","E_COORD97":167247.51000000001,"N_COORD97":2549079.1600000001,"ADDRESS":"安中路一段２６２巷３３號","OBJECTID":428770},"geometry":{"x":167247.51000000071,"y":2549079.160000002}},{"attributes":{"ID":428796,"DIS_CODE":0,"TOWNNAME":"安南區","LI":"淵西里","LIN":"4鄰","STREET":"安中路","SECT":"四段","MAREA":" ","LANE":"２９０巷","ALLEY":" ","HOUSE_NO":"１６１號","E_COORD97":164851.60999999999,"N_COORD97":2550266.5600000001,"ADDRESS":"安中路四段２９０巷１６１號","OBJECTID":428771},"geometry":{"x":164851.61000000127,"y":2550266.5600000024}},{"attributes":{"ID":428797,"DIS_CODE":0,"TOWNNAME":"安南區","LI":"淵西里","LIN":"4鄰","STREET":"安中路","SECT":"四段","MAREA":" ","LANE":"２９０巷","ALLEY":" ","HOUSE_NO":"１６３號","E_COORD97":164855.73999999999,"N_COORD97":2550267.6899999999,"ADDRESS":"安中路四段２９０巷１６３號","OBJECTID":428772},"geometry":{"x":164855.74000000115,"y":2550267.6900000032}},{"attributes":{"ID":428798,"DIS_CODE":0,"TOWNNAME":"安南區","LI":"淵西里","LIN":"4鄰","STREET":"安中路","SECT":"四段","MAREA":" ","LANE":"２９０巷","ALLEY":" ","HOUSE_NO":"１６９號","E_COORD97":164866.62,"N_COORD97":2550270.3100000001,"ADDRESS":"安中路四段２９０巷１６９號","OBJECTID":428773},"geometry":{"x":164866.62000000104,"y":2550270.3100000005}},{"attributes":{"ID":428799,"DIS_CODE":0,"TOWNNAME":"安南區","LI":"淵西里","LIN":"4鄰","STREET":"安中路","SECT":"四段","MAREA":" ","LANE":"２９０巷","ALLEY":" ","HOUSE_NO":"１７１號","E_COORD97":164869.63,"N_COORD97":2550272.5600000001,"ADDRESS":"安中路四段２９０巷１７１號","OBJECTID":428774},"geometry":{"x":164869.63000000082,"y":2550272.5600000005}},{"attributes":{"ID":428800,"DIS_CODE":0,"TOWNNAME":"安南區","LI":"淵西里","LIN":"4鄰","STREET":"安中路","SECT":"四段","MAREA":" ","LANE":"２９０巷","ALLEY":" ","HOUSE_NO":"１７５號","E_COORD97":164879.38,"N_COORD97":2550268.0600000001,"ADDRESS":"安中路四段２９０巷１７５號","OBJECTID":428775},"geometry":{"x":164879.37999999989,"y":2550268.0600000005}},{"attributes":{"ID":428801,"DIS_CODE":0,"TOWNNAME":"安南區","LI":"淵西里","LIN":" ","STREET":"安中路","SECT":"四段","MAREA":" ","LANE":"２９０巷","ALLEY":" ","HOUSE_NO":"１６５號","E_COORD97":164859.48999999999,"N_COORD97":2550268.0600000001,"ADDRESS":"安中路四段２９０巷１６５號","OBJECTID":428776},"geometry":{"x":164859.49000000115,"y":2550268.0600000005}},{"attributes":{"ID":428802,"DIS_CODE":0,"TOWNNAME":"安南區","LI":"淵西里","LIN":"4鄰","STREET":"安中路","SECT":"四段","MAREA":" ","LANE":"２９０巷","ALLEY":" ","HOUSE_NO":"１８３號","E_COORD97":164890.64000000001,"N_COORD97":2550265.4399999999,"ADDRESS":"安中路四段２９０巷１８３號","OBJECTID":428777},"geometry":{"x":164890.63999999966,"y":2550265.4399999995}},{"attributes":{"ID":428803,"DIS_CODE":0,"TOWNNAME":"安南區","LI":"淵西里","LIN":"4鄰","STREET":"安中路","SECT":"四段","MAREA":" ","LANE":"２９０巷","ALLEY":" ","HOUSE_NO":"１９１號","E_COORD97":164910.14999999999,"N_COORD97":2550264.3100000001,"ADDRESS":"安中路四段２９０巷１９１號","OBJECTID":428778},"geometry":{"x":164910.15000000037,"y":2550264.3100000042}},{"attributes":{"ID":428804,"DIS_CODE":0,"TOWNNAME":"安南區","LI":"淵西里","LIN":"4鄰","STREET":"安中路","SECT":"四段","MAREA":" ","LANE":"２９０巷","ALLEY":" ","HOUSE_NO":"１９９號","E_COORD97":164929.29000000001,"N_COORD97":2550265.0600000001,"ADDRESS":"安中路四段２９０巷１９９號","OBJECTID":428779},"geometry":{"x":164929.29000000004,"y":2550265.0600000005}},{"attributes":{"ID":428805,"DIS_CODE":0,"TOWNNAME":"安南區","LI":"淵西里","LIN":" ","STREET":"安中路","SECT":"四段","MAREA":" ","LANE":"２９０巷","ALLEY":" ","HOUSE_NO":"１８０號","E_COORD97":164935.67000000001,"N_COORD97":2550247.0699999998,"ADDRESS":"安中路四段２９０巷１８０號","OBJECTID":428780},"geometry":{"x":164935.67000000086,"y":2550247.0700000022}},{"attributes":{"ID":428806,"DIS_CODE":0,"TOWNNAME":"安南區","LI":"淵西里","LIN":"7鄰","STREET":"安中路","SECT":"四段","MAREA":" ","LANE":"３２０巷","ALLEY":" ","HOUSE_NO":"１３５號","E_COORD97":164737.79000000001,"N_COORD97":2550379.1600000001,"ADDRESS":"安中路四段３２０巷１３５號","OBJECTID":428781},"geometry":{"x":164737.79000000004,"y":2550379.1600000001}},{"attributes":{"ID":428807,"DIS_CODE":0,"TOWNNAME":"安南區","LI":"理想里","LIN":"14鄰","STREET":"大安街","SECT":" ","MAREA":" ","LANE":"１０３巷","ALLEY":" ","HOUSE_NO":"１４號","E_COORD97":167206.85000000001,"N_COORD97":2548136.1000000001,"ADDRESS":"大安街１０３巷１４號","OBJECTID":428782},"geometry":{"x":167206.8499999987,"y":2548136.1000000015}},{"attributes":{"ID":428808,"DIS_CODE":0,"TOWNNAME":"安南區","LI":"理想里","LIN":"17鄰","STREET":"大安街","SECT":" ","MAREA":" ","LANE":"２２９巷","ALLEY":" ","HOUSE_NO":"２號","E_COORD97":167416.03,"N_COORD97":2548396.21,"ADDRESS":"大安街２２９巷２號","OBJECTID":428783},"geometry":{"x":167416.03000000026,"y":2548396.2100000009}},{"attributes":{"ID":428809,"DIS_CODE":0,"TOWNNAME":"安南區","LI":"理想里","LIN":"17鄰","STREET":"大安街","SECT":" ","MAREA":" ","LANE":"２２９巷","ALLEY":" ","HOUSE_NO":"４號","E_COORD97":167412,"N_COORD97":2548399.6800000002,"ADDRESS":"大安街２２９巷４號","OBJECTID":428784},"geometry":{"x":167412.00000000093,"y":2548399.6800000034}},{"attributes":{"ID":428810,"DIS_CODE":0,"TOWNNAME":"安南區","LI":"理想里","LIN":"17鄰","STREET":"大安街","SECT":" ","MAREA":" ","LANE":"２２９巷","ALLEY":" ","HOUSE_NO":"６號","E_COORD97":167404.82999999999,"N_COORD97":2548405.5600000001,"ADDRESS":"大安街２２９巷６號","OBJECTID":428785},"geometry":{"x":167404.83000000101,"y":2548405.5600000024}},{"attributes":{"ID":428811,"DIS_CODE":0,"TOWNNAME":"安南區","LI":"理想里","LIN":"17鄰","STREET":"大安街","SECT":" ","MAREA":" ","LANE":"２２９巷","ALLEY":" ","HOUSE_NO":"１２號","E_COORD97":167388.48999999999,"N_COORD97":2548416.2200000002,"ADDRESS":"大安街２２９巷１２號","OBJECTID":428786},"geometry":{"x":167388.49000000115,"y":2548416.2200000007}},{"attributes":{"ID":428812,"DIS_CODE":0,"TOWNNAME":"安南區","LI":"理想里","LIN":" ","STREET":"同安路","SECT":" ","MAREA":" ","LANE":"８０巷","ALLEY":" ","HOUSE_NO":"１８７號","E_COORD97":167170.73999999999,"N_COORD97":2548752.0899999999,"ADDRESS":"同安路８０巷１８７號","OBJECTID":428787},"geometry":{"x":167170.74000000022,"y":2548752.0899999999}},{"attributes":{"ID":428813,"DIS_CODE":0,"TOWNNAME":"安南區","LI":"頂安里","LIN":"4鄰","STREET":"長溪路","SECT":"一段","MAREA":" ","LANE":"４９０巷","ALLEY":" ","HOUSE_NO":"１５號","E_COORD97":168522.91,"N_COORD97":2549109.8199999998,"ADDRESS":"長溪路一段４９０巷１５號","OBJECTID":428788},"geometry":{"x":168522.91000000108,"y":2549109.8200000003}},{"attributes":{"ID":428814,"DIS_CODE":0,"TOWNNAME":"安南區","LI":"溪東里","LIN":"4鄰","STREET":"府安路","SECT":"五段","MAREA":" ","LANE":"９８巷","ALLEY":" ","HOUSE_NO":"４２號","E_COORD97":168057.45999999999,"N_COORD97":2547263.6499999999,"ADDRESS":"府安路五段９８巷４２號","OBJECTID":428789},"geometry":{"x":168057.45999999903,"y":2547263.6500000004}},{"attributes":{"ID":428815,"DIS_CODE":0,"TOWNNAME":"安南區","LI":"溪頂里","LIN":" ","STREET":"文安街","SECT":" ","MAREA":" ","LANE":"１４５巷","ALLEY":" ","HOUSE_NO":"４１號","E_COORD97":168910.64999999999,"N_COORD97":2547402.2599999998,"ADDRESS":"文安街１４５巷４１號","OBJECTID":428790},"geometry":{"x":168910.65000000037,"y":2547402.2599999979}},{"attributes":{"ID":428816,"DIS_CODE":0,"TOWNNAME":"安南區","LI":"溪頂里","LIN":"25鄰","STREET":"郡安路","SECT":"四段","MAREA":" ","LANE":"１２０巷","ALLEY":" ","HOUSE_NO":"１２號","E_COORD97":168854.98000000001,"N_COORD97":2547575.5099999998,"ADDRESS":"郡安路四段１２０巷１２號","OBJECTID":428791},"geometry":{"x":168854.98000000138,"y":2547575.5099999998}},{"attributes":{"ID":428817,"DIS_CODE":0,"TOWNNAME":"安南區","LI":"溪頂里","LIN":"25鄰","STREET":"郡安路","SECT":"四段","MAREA":" ","LANE":"１２０巷","ALLEY":" ","HOUSE_NO":"２６號","E_COORD97":168854.69,"N_COORD97":2547530.6600000001,"ADDRESS":"郡安路四段１２０巷２６號","OBJECTID":428792},"geometry":{"x":168854.69000000041,"y":2547530.660000002}},{"attributes":{"ID":428818,"DIS_CODE":0,"TOWNNAME":"安南區","LI":"溪頂里","LIN":"25鄰","STREET":"郡安路","SECT":"四段","MAREA":" ","LANE":"１２０巷","ALLEY":" ","HOUSE_NO":"３０號","E_COORD97":168854.76000000001,"N_COORD97":2547521.54,"ADDRESS":"郡安路四段１２０巷３０號","OBJECTID":428793},"geometry":{"x":168854.75999999978,"y":2547521.5399999991}},{"attributes":{"ID":428819,"DIS_CODE":0,"TOWNNAME":"安南區","LI":"溪頂里","LIN":"4鄰","STREET":"府安路","SECT":"四段","MAREA":" ","LANE":"１２１巷","ALLEY":" ","HOUSE_NO":"２號","E_COORD97":168992.32000000001,"N_COORD97":2547288.73,"ADDRESS":"府安路四段１２１巷２號","OBJECTID":428794},"geometry":{"x":168992.3200000003,"y":2547288.7300000023}},{"attributes":{"ID":428820,"DIS_CODE":0,"TOWNNAME":"安南區","LI":"溪頂里","LIN":" ","STREET":"府安路","SECT":"四段","MAREA":" ","LANE":"９７巷","ALLEY":" ","HOUSE_NO":"１８號","E_COORD97":169088.63,"N_COORD97":2547325.96,"ADDRESS":"府安路四段９７巷１８號","OBJECTID":428795},"geometry":{"x":169088.62999999896,"y":2547325.9600000028}},{"attributes":{"ID":428821,"DIS_CODE":0,"TOWNNAME":"安南區","LI":"鳳凰里","LIN":" ","STREET":"安中路","SECT":"一段","MAREA":" ","LANE":"６２２巷","ALLEY":" ","HOUSE_NO":"８９號","E_COORD97":168041.92999999999,"N_COORD97":2549195.1299999999,"ADDRESS":"安中路一段６２２巷８９號","OBJECTID":428796},"geometry":{"x":168041.9299999997,"y":2549195.129999999}},{"attributes":{"ID":428822,"DIS_CODE":0,"TOWNNAME":"安南區","LI":"鳳凰里","LIN":" ","STREET":"安中路","SECT":"一段","MAREA":" ","LANE":"６２２巷","ALLEY":" ","HOUSE_NO":"１３３之１號","E_COORD97":168187.62093800001,"N_COORD97":2549224.0285,"ADDRESS":"安中路一段６２２巷１３３之１號","OBJECTID":428797},"geometry":{"x":168187.62093800027,"y":2549224.0284979995}},{"attributes":{"ID":428823,"DIS_CODE":0,"TOWNNAME":"安南區","LI":"鳳凰里","LIN":" ","STREET":"安中路","SECT":"一段","MAREA":" ","LANE":"６２２巷","ALLEY":" ","HOUSE_NO":"１３３之２號","E_COORD97":168195.45506099999,"N_COORD97":2549226.1451599998,"ADDRESS":"安中路一段６２２巷１３３之２號","OBJECTID":428798},"geometry":{"x":168195.4550610017,"y":2549226.1451629996}},{"attributes":{"ID":428824,"DIS_CODE":0,"TOWNNAME":"東區","LI":"和平里","LIN":"1鄰","STREET":"文化二街","SECT":" ","MAREA":" ","LANE":" ","ALLEY":" ","HOUSE_NO":"１號九樓","E_COORD97":171099.45000000001,"N_COORD97":2542097.2200000002,"ADDRESS":"文化二街１號九樓","OBJECTID":428799},"geometry":{"x":171099.45000000112,"y":2542097.2200000007}},{"attributes":{"ID":428825,"DIS_CODE":0,"TOWNNAME":"安南區","LI":"鳳凰里","LIN":" ","STREET":"安中路","SECT":"一段","MAREA":" ","LANE":"６２２巷","ALLEY":" ","HOUSE_NO":"１３３之３號","E_COORD97":168203.71265,"N_COORD97":2549228.4734999998,"ADDRESS":"安中路一段６２２巷１３３之３號","OBJECTID":428800},"geometry":{"x":168203.71265000012,"y":2549228.4734949991}}]}