{"displayFieldName":"TOWNNAME","fieldAliases":{"ID":"ID","DIS_CODE":"DIS_CODE","TOWNNAME":"TOWNNAME","LI":"LI","LIN":"LIN","STREET":"STREET","SECT":"SECT","MAREA":"MAREA","LANE":"LANE","ALLEY":"ALLEY","HOUSE_NO":"HOUSE_NO","E_COORD97":"E_COORD97","N_COORD97":"N_COORD97","ADDRESS":"ADDRESS","OBJECTID":"OBJECTID"},"geometryType":"esriGeometryPoint","spatialReference":{"wkid":102443,"latestWkid":3826},"fields":[{"name":"ID","type":"esriFieldTypeDouble","alias":"ID"},{"name":"DIS_CODE","type":"esriFieldTypeInteger","alias":"DIS_CODE"},{"name":"TOWNNAME","type":"esriFieldTypeString","alias":"TOWNNAME","length":8},{"name":"LI","type":"esriFieldTypeString","alias":"LI","length":8},{"name":"LIN","type":"esriFieldTypeString","alias":"LIN","length":12},{"name":"STREET","type":"esriFieldTypeString","alias":"STREET","length":20},{"name":"SECT","type":"esriFieldTypeString","alias":"SECT","length":8},{"name":"MAREA","type":"esriFieldTypeString","alias":"MAREA","length":12},{"name":"LANE","type":"esriFieldTypeString","alias":"LANE","length":10},{"name":"ALLEY","type":"esriFieldTypeString","alias":"ALLEY","length":10},{"name":"HOUSE_NO","type":"esriFieldTypeString","alias":"HOUSE_NO","length":20},{"name":"E_COORD97","type":"esriFieldTypeDouble","alias":"E_COORD97"},{"name":"N_COORD97","type":"esriFieldTypeDouble","alias":"N_COORD97"},{"name":"ADDRESS","type":"esriFieldTypeString","alias":"ADDRESS","length":50},{"name":"OBJECTID","type":"esriFieldTypeOID","alias":"OBJECTID"}],"features":[{"attributes":{"ID":339410,"DIS_CODE":0,"TOWNNAME":"北門區","LI":"鯤江里","LIN":"5鄰","STREET":" ","SECT":" ","MAREA":"蚵寮","LANE":" ","ALLEY":" ","HOUSE_NO":"９９４號","E_COORD97":162145.14000000001,"N_COORD97":2576347.3999999999,"ADDRESS":"蚵寮９９４號","OBJECTID":339401},"geometry":{"x":162145.1400000006,"y":2576347.4000000022}},{"attributes":{"ID":339411,"DIS_CODE":0,"TOWNNAME":"永康區","LI":"蔦松里","LIN":"4鄰","STREET":"蔦松二街","SECT":" ","MAREA":" ","LANE":"１６２巷","ALLEY":" ","HOUSE_NO":"２號","E_COORD97":173875.22,"N_COORD97":2549414.75,"ADDRESS":"蔦松二街１６２巷２號","OBJECTID":339402},"geometry":{"x":173875.2200000016,"y":2549414.7500000019}},{"attributes":{"ID":339412,"DIS_CODE":0,"TOWNNAME":"東區","LI":"崇善里","LIN":"5鄰","STREET":"崇善五街","SECT":" ","MAREA":" ","LANE":"４６巷","ALLEY":" ","HOUSE_NO":"６號","E_COORD97":171099.07000000001,"N_COORD97":2541562.7000000002,"ADDRESS":"崇善五街４６巷６號","OBJECTID":339403},"geometry":{"x":171099.07000000123,"y":2541562.6999999993}},{"attributes":{"ID":339413,"DIS_CODE":0,"TOWNNAME":"北區","LI":"元寶里","LIN":"1鄰","STREET":"北園街","SECT":" ","MAREA":" ","LANE":"１２２巷","ALLEY":" ","HOUSE_NO":"１６號","E_COORD97":170395.14999999999,"N_COORD97":2545961.1000000001,"ADDRESS":"北園街１２２巷１６號","OBJECTID":339404},"geometry":{"x":170395.1500000013,"y":2545961.0999999996}},{"attributes":{"ID":339414,"DIS_CODE":0,"TOWNNAME":"北區","LI":"元寶里","LIN":"1鄰","STREET":"北園街","SECT":" ","MAREA":" ","LANE":"１１４巷","ALLEY":" ","HOUSE_NO":"１７號","E_COORD97":170406.28,"N_COORD97":2545978.71,"ADDRESS":"北園街１２２巷１７號","OBJECTID":339405},"geometry":{"x":170406.28000000026,"y":2545978.7100000009}},{"attributes":{"ID":339415,"DIS_CODE":0,"TOWNNAME":"北區","LI":"元寶里","LIN":"1鄰","STREET":"北園街","SECT":" ","MAREA":" ","LANE":"１２２巷","ALLEY":" ","HOUSE_NO":"１８號","E_COORD97":170398.54999999999,"N_COORD97":2545959.8599999999,"ADDRESS":"北園街１２２巷１８號","OBJECTID":339406},"geometry":{"x":170398.55000000075,"y":2545959.8599999994}},{"attributes":{"ID":339416,"DIS_CODE":0,"TOWNNAME":"北區","LI":"元寶里","LIN":"1鄰","STREET":"北園街","SECT":" ","MAREA":" ","LANE":"１１４巷","ALLEY":" ","HOUSE_NO":"１９號","E_COORD97":170411.84,"N_COORD97":2545978.0899999999,"ADDRESS":"北園街１２２巷１９號","OBJECTID":339407},"geometry":{"x":170411.84000000078,"y":2545978.0899999999}},{"attributes":{"ID":339417,"DIS_CODE":0,"TOWNNAME":"北區","LI":"元寶里","LIN":"1鄰","STREET":"北園街","SECT":" ","MAREA":" ","LANE":"１２２巷","ALLEY":" ","HOUSE_NO":"１號","E_COORD97":170360.82999999999,"N_COORD97":2545976.54,"ADDRESS":"北園街１２２巷１號","OBJECTID":339408},"geometry":{"x":170360.83000000101,"y":2545976.540000001}},{"attributes":{"ID":339418,"DIS_CODE":0,"TOWNNAME":"北區","LI":"元寶里","LIN":"1鄰","STREET":"北園街","SECT":" ","MAREA":" ","LANE":"１２２巷","ALLEY":" ","HOUSE_NO":"１號之１","E_COORD97":170354.64999999999,"N_COORD97":2545975.3100000001,"ADDRESS":"北園街１２２巷１號之１","OBJECTID":339409},"geometry":{"x":170354.65000000037,"y":2545975.3099999987}},{"attributes":{"ID":339419,"DIS_CODE":0,"TOWNNAME":"北區","LI":"元寶里","LIN":"1鄰","STREET":"北園街","SECT":" ","MAREA":" ","LANE":"１２２巷","ALLEY":" ","HOUSE_NO":"２０號","E_COORD97":170404.10999999999,"N_COORD97":2545960.48,"ADDRESS":"北園街１２２巷２０號","OBJECTID":339410},"geometry":{"x":170404.11000000034,"y":2545960.4800000004}},{"attributes":{"ID":339420,"DIS_CODE":0,"TOWNNAME":"北區","LI":"元寶里","LIN":"1鄰","STREET":"北園街","SECT":" ","MAREA":" ","LANE":"１１４巷","ALLEY":" ","HOUSE_NO":"２１號","E_COORD97":170423.28,"N_COORD97":2545979.9399999999,"ADDRESS":"北園街１２２巷２１號","OBJECTID":339411},"geometry":{"x":170423.28000000026,"y":2545979.9399999995}},{"attributes":{"ID":339421,"DIS_CODE":0,"TOWNNAME":"北區","LI":"元寶里","LIN":"1鄰","STREET":"北園街","SECT":" ","MAREA":" ","LANE":"１２２巷","ALLEY":" ","HOUSE_NO":"２２號","E_COORD97":170408.44,"N_COORD97":2545960.79,"ADDRESS":"北園街１２２巷２２號","OBJECTID":339412},"geometry":{"x":170408.44000000134,"y":2545960.7900000028}},{"attributes":{"ID":339422,"DIS_CODE":0,"TOWNNAME":"北區","LI":"元寶里","LIN":"1鄰","STREET":"北園街","SECT":" ","MAREA":" ","LANE":"１１４巷","ALLEY":" ","HOUSE_NO":"２３號","E_COORD97":170423.59,"N_COORD97":2545976.54,"ADDRESS":"北園街１２２巷２３號","OBJECTID":339413},"geometry":{"x":170423.59000000078,"y":2545976.540000001}},{"attributes":{"ID":339423,"DIS_CODE":0,"TOWNNAME":"北區","LI":"元寶里","LIN":"1鄰","STREET":"北園街","SECT":" ","MAREA":" ","LANE":"１２２巷","ALLEY":" ","HOUSE_NO":"２４號","E_COORD97":170412.14999999999,"N_COORD97":2545962.6400000001,"ADDRESS":"北園街１２２巷２４號","OBJECTID":339414},"geometry":{"x":170412.1500000013,"y":2545962.6400000006}},{"attributes":{"ID":339424,"DIS_CODE":0,"TOWNNAME":"北區","LI":"元寶里","LIN":"1鄰","STREET":"北園街","SECT":" ","MAREA":" ","LANE":"１２２巷","ALLEY":" ","HOUSE_NO":"２５號","E_COORD97":170422.67000000001,"N_COORD97":2545972.2200000002,"ADDRESS":"北園街１２２巷２５號","OBJECTID":339415},"geometry":{"x":170422.67000000179,"y":2545972.2200000007}},{"attributes":{"ID":339425,"DIS_CODE":0,"TOWNNAME":"北區","LI":"元寶里","LIN":"1鄰","STREET":"北園街","SECT":" ","MAREA":" ","LANE":"１２２巷","ALLEY":" ","HOUSE_NO":"２號","E_COORD97":170365.16,"N_COORD97":2545960.1699999999,"ADDRESS":"北園街１２２巷２號","OBJECTID":339416},"geometry":{"x":170365.15999999922,"y":2545960.1700000018}},{"attributes":{"ID":339426,"DIS_CODE":0,"TOWNNAME":"仁德區","LI":"新田里","LIN":"8鄰","STREET":"北保路","SECT":" ","MAREA":" ","LANE":" ","ALLEY":" ","HOUSE_NO":"２０３號","E_COORD97":173537.16,"N_COORD97":2539422.9900000002,"ADDRESS":"北保路２０３號","OBJECTID":339417},"geometry":{"x":173537.16000000108,"y":2539422.9900000002}},{"attributes":{"ID":339427,"DIS_CODE":0,"TOWNNAME":"仁德區","LI":"新田里","LIN":"8鄰","STREET":"北保路","SECT":" ","MAREA":" ","LANE":" ","ALLEY":" ","HOUSE_NO":"２２３號","E_COORD97":173567.98000000001,"N_COORD97":2539395.75,"ADDRESS":"北保路２２３號","OBJECTID":339418},"geometry":{"x":173567.98000000138,"y":2539395.7500000019}},{"attributes":{"ID":339428,"DIS_CODE":0,"TOWNNAME":"東區","LI":"大智里","LIN":"5鄰","STREET":"長東街","SECT":" ","MAREA":" ","LANE":"４１巷","ALLEY":" ","HOUSE_NO":"４號","E_COORD97":171061.19,"N_COORD97":2540488.1499999999,"ADDRESS":"長東街４１巷４號","OBJECTID":339419},"geometry":{"x":171061.19000000134,"y":2540488.1500000022}},{"attributes":{"ID":339429,"DIS_CODE":0,"TOWNNAME":"永康區","LI":"西勢里","LIN":"26鄰","STREET":"廣興街","SECT":" ","MAREA":" ","LANE":"２６巷","ALLEY":" ","HOUSE_NO":"１３號","E_COORD97":175934.12,"N_COORD97":2546468.4900000002,"ADDRESS":"廣興街２６巷１３號","OBJECTID":339420},"geometry":{"x":175934.11999999918,"y":2546468.4900000002}},{"attributes":{"ID":339430,"DIS_CODE":0,"TOWNNAME":"東區","LI":"崇善里","LIN":"5鄰","STREET":"崇善五街","SECT":" ","MAREA":" ","LANE":"４６巷","ALLEY":" ","HOUSE_NO":"１０號","E_COORD97":171102.57999999999,"N_COORD97":2541555.3599999999,"ADDRESS":"崇善五街４６巷１０號","OBJECTID":339421},"geometry":{"x":171102.58000000007,"y":2541555.3599999994}},{"attributes":{"ID":339431,"DIS_CODE":0,"TOWNNAME":"東區","LI":"崇善里","LIN":"5鄰","STREET":"崇善五街","SECT":" ","MAREA":" ","LANE":"４６巷","ALLEY":" ","HOUSE_NO":"１１號","E_COORD97":171129.29000000001,"N_COORD97":2541564.7000000002,"ADDRESS":"崇善五街４６巷１１號","OBJECTID":339422},"geometry":{"x":171129.29000000097,"y":2541564.7000000011}},{"attributes":{"ID":339432,"DIS_CODE":0,"TOWNNAME":"東區","LI":"崇善里","LIN":"5鄰","STREET":"崇善五街","SECT":" ","MAREA":" ","LANE":"４６巷","ALLEY":" ","HOUSE_NO":"１３號","E_COORD97":171130.63,"N_COORD97":2541560.8700000001,"ADDRESS":"崇善五街４６巷１３號","OBJECTID":339423},"geometry":{"x":171130.62999999989,"y":2541560.870000001}},{"attributes":{"ID":339433,"DIS_CODE":0,"TOWNNAME":"東區","LI":"崇善里","LIN":"5鄰","STREET":"崇善五街","SECT":" ","MAREA":" ","LANE":"４６巷","ALLEY":" ","HOUSE_NO":"１４號","E_COORD97":171106.42000000001,"N_COORD97":2541547.02,"ADDRESS":"崇善五街４６巷１４號","OBJECTID":339424},"geometry":{"x":171106.42000000086,"y":2541547.0199999996}},{"attributes":{"ID":339434,"DIS_CODE":0,"TOWNNAME":"東區","LI":"崇善里","LIN":"5鄰","STREET":"崇善五街","SECT":" ","MAREA":" ","LANE":"４６巷","ALLEY":" ","HOUSE_NO":"１號","E_COORD97":171121.10999999999,"N_COORD97":2541583.3799999999,"ADDRESS":"崇善五街４６巷１號","OBJECTID":339425},"geometry":{"x":171121.11000000034,"y":2541583.3800000008}},{"attributes":{"ID":339435,"DIS_CODE":0,"TOWNNAME":"東區","LI":"崇善里","LIN":"5鄰","STREET":"崇善五街","SECT":" ","MAREA":" ","LANE":"４６巷","ALLEY":" ","HOUSE_NO":"２號","E_COORD97":171094.73000000001,"N_COORD97":2541569.3700000001,"ADDRESS":"崇善五街４６巷２號","OBJECTID":339426},"geometry":{"x":171094.73000000138,"y":2541569.3700000029}},{"attributes":{"ID":339436,"DIS_CODE":0,"TOWNNAME":"東區","LI":"崇善里","LIN":"5鄰","STREET":"崇善五街","SECT":" ","MAREA":" ","LANE":"４６巷","ALLEY":" ","HOUSE_NO":"３號","E_COORD97":171122.95000000001,"N_COORD97":2541579.5499999998,"ADDRESS":"崇善五街４６巷３號","OBJECTID":339427},"geometry":{"x":171122.95000000112,"y":2541579.5500000007}},{"attributes":{"ID":339437,"DIS_CODE":0,"TOWNNAME":"東區","LI":"崇善里","LIN":"5鄰","STREET":"崇善五街","SECT":" ","MAREA":" ","LANE":"４６巷","ALLEY":" ","HOUSE_NO":"４號","E_COORD97":171096.89999999999,"N_COORD97":2541566.54,"ADDRESS":"崇善五街４６巷４號","OBJECTID":339428},"geometry":{"x":171096.9000000013,"y":2541566.540000001}},{"attributes":{"ID":339438,"DIS_CODE":0,"TOWNNAME":"東區","LI":"崇善里","LIN":"5鄰","STREET":"崇善五街","SECT":" ","MAREA":" ","LANE":"４６巷","ALLEY":" ","HOUSE_NO":"５號","E_COORD97":171124.95000000001,"N_COORD97":2541575.8799999999,"ADDRESS":"崇善五街４６巷５號","OBJECTID":339429},"geometry":{"x":171124.95000000112,"y":2541575.8799999971}},{"attributes":{"ID":339439,"DIS_CODE":0,"TOWNNAME":"北區","LI":"元寶里","LIN":"1鄰","STREET":"北園街","SECT":" ","MAREA":" ","LANE":"１２２巷","ALLEY":" ","HOUSE_NO":"３號","E_COORD97":170367.32000000001,"N_COORD97":2545976.8500000001,"ADDRESS":"北園街１２２巷３號","OBJECTID":339430},"geometry":{"x":170367.3200000003,"y":2545976.8499999996}},{"attributes":{"ID":339440,"DIS_CODE":0,"TOWNNAME":"北區","LI":"元寶里","LIN":"1鄰","STREET":"北園街","SECT":" ","MAREA":" ","LANE":"１２２巷","ALLEY":" ","HOUSE_NO":"５號","E_COORD97":170372.57999999999,"N_COORD97":2545978.0899999999,"ADDRESS":"北園街１２２巷５號","OBJECTID":339431},"geometry":{"x":170372.58000000194,"y":2545978.0899999999}},{"attributes":{"ID":339441,"DIS_CODE":0,"TOWNNAME":"北區","LI":"元寶里","LIN":"1鄰","STREET":"北園街","SECT":" ","MAREA":" ","LANE":"１２２巷","ALLEY":" ","HOUSE_NO":"６號","E_COORD97":170373.82000000001,"N_COORD97":2545960.48,"ADDRESS":"北園街１２２巷６號","OBJECTID":339432},"geometry":{"x":170373.8200000003,"y":2545960.4800000004}},{"attributes":{"ID":339442,"DIS_CODE":0,"TOWNNAME":"北區","LI":"元寶里","LIN":"1鄰","STREET":"北園街","SECT":" ","MAREA":" ","LANE":"１２２巷","ALLEY":" ","HOUSE_NO":"７號","E_COORD97":170377.53,"N_COORD97":2545978.71,"ADDRESS":"北園街１２２巷７號","OBJECTID":339433},"geometry":{"x":170377.53000000026,"y":2545978.7100000009}},{"attributes":{"ID":339443,"DIS_CODE":0,"TOWNNAME":"北區","LI":"元寶里","LIN":"1鄰","STREET":"北園街","SECT":" ","MAREA":" ","LANE":"１２２巷","ALLEY":" ","HOUSE_NO":"８號","E_COORD97":170378.45000000001,"N_COORD97":2545960.79,"ADDRESS":"北園街１２２巷８號","OBJECTID":339434},"geometry":{"x":170378.45000000019,"y":2545960.7900000028}},{"attributes":{"ID":339444,"DIS_CODE":0,"TOWNNAME":"北區","LI":"元寶里","LIN":"1鄰","STREET":"北園街","SECT":" ","MAREA":" ","LANE":"１２２巷","ALLEY":" ","HOUSE_NO":"９號","E_COORD97":170384.01999999999,"N_COORD97":2545978.3999999999,"ADDRESS":"北園街１２２巷９號","OBJECTID":339435},"geometry":{"x":170384.01999999955,"y":2545978.4000000041}},{"attributes":{"ID":339445,"DIS_CODE":0,"TOWNNAME":"安平區","LI":"平安里","LIN":"1鄰","STREET":"安平路","SECT":" ","MAREA":" ","LANE":"４０巷","ALLEY":" ","HOUSE_NO":"９號","E_COORD97":166540.53,"N_COORD97":2544374.1499999999,"ADDRESS":"安平路４０巷９號","OBJECTID":339436},"geometry":{"x":166540.53000000119,"y":2544374.1500000022}},{"attributes":{"ID":339446,"DIS_CODE":0,"TOWNNAME":"北區","LI":"振興里","LIN":"1鄰","STREET":"勝利路","SECT":" ","MAREA":" ","LANE":"２７６巷","ALLEY":" ","HOUSE_NO":"１９號","E_COORD97":169985.54000000001,"N_COORD97":2545169.9199999999,"ADDRESS":"勝利路２７６巷１９號","OBJECTID":339437},"geometry":{"x":169985.54000000004,"y":2545169.9199999999}},{"attributes":{"ID":339447,"DIS_CODE":0,"TOWNNAME":"北區","LI":"振興里","LIN":"1鄰","STREET":"勝利路","SECT":" ","MAREA":" ","LANE":"２７６巷","ALLEY":" ","HOUSE_NO":"１７號","E_COORD97":169979.98999999999,"N_COORD97":2545168.96,"ADDRESS":"勝利路２７６巷１７號","OBJECTID":339438},"geometry":{"x":169979.99000000209,"y":2545168.9600000028}},{"attributes":{"ID":339448,"DIS_CODE":0,"TOWNNAME":"仁德區","LI":"新田里","LIN":"8鄰","STREET":"北保路","SECT":" ","MAREA":" ","LANE":" ","ALLEY":" ","HOUSE_NO":"２２２號","E_COORD97":173551.42999999999,"N_COORD97":2539381.25,"ADDRESS":"北保路２２２號","OBJECTID":339439},"geometry":{"x":173551.4299999997,"y":2539381.2500000037}},{"attributes":{"ID":339449,"DIS_CODE":0,"TOWNNAME":"仁德區","LI":"新田里","LIN":"8鄰","STREET":"北保路","SECT":" ","MAREA":" ","LANE":" ","ALLEY":" ","HOUSE_NO":"１９９號","E_COORD97":173529.10000000001,"N_COORD97":2539426.9900000002,"ADDRESS":"北保路１９９號","OBJECTID":339440},"geometry":{"x":173529.10000000056,"y":2539426.9899999984}},{"attributes":{"ID":339450,"DIS_CODE":0,"TOWNNAME":"仁德區","LI":"新田里","LIN":"8鄰","STREET":"北保路","SECT":" ","MAREA":" ","LANE":" ","ALLEY":" ","HOUSE_NO":"２１６號","E_COORD97":173548.39000000001,"N_COORD97":2539399.75,"ADDRESS":"北保路２１６號","OBJECTID":339441},"geometry":{"x":173548.39000000153,"y":2539399.7500000019}},{"attributes":{"ID":339451,"DIS_CODE":0,"TOWNNAME":"仁德區","LI":"新田里","LIN":"8鄰","STREET":"北保路","SECT":" ","MAREA":" ","LANE":" ","ALLEY":" ","HOUSE_NO":"２１２號","E_COORD97":173540.45000000001,"N_COORD97":2539403.75,"ADDRESS":"北保路２１２號","OBJECTID":339442},"geometry":{"x":173540.45000000112,"y":2539403.75}},{"attributes":{"ID":339452,"DIS_CODE":0,"TOWNNAME":"仁德區","LI":"新田里","LIN":"8鄰","STREET":"北保路","SECT":" ","MAREA":" ","LANE":" ","ALLEY":" ","HOUSE_NO":"２３７號","E_COORD97":173566.47,"N_COORD97":2539366.75,"ADDRESS":"北保路２３７號","OBJECTID":339443},"geometry":{"x":173566.46999999974,"y":2539366.75}},{"attributes":{"ID":339453,"DIS_CODE":0,"TOWNNAME":"仁德區","LI":"新田里","LIN":"8鄰","STREET":"北保路","SECT":" ","MAREA":" ","LANE":" ","ALLEY":" ","HOUSE_NO":"２２７號","E_COORD97":173567.66,"N_COORD97":2539387.5,"ADDRESS":"北保路２２７號","OBJECTID":339444},"geometry":{"x":173567.66000000108,"y":2539387.5000000019}},{"attributes":{"ID":339454,"DIS_CODE":0,"TOWNNAME":"仁德區","LI":"新田里","LIN":"8鄰","STREET":"北保路","SECT":" ","MAREA":" ","LANE":" ","ALLEY":" ","HOUSE_NO":"２０９號","E_COORD97":173548.85999999999,"N_COORD97":2539416.9900000002,"ADDRESS":"北保路２０９號","OBJECTID":339445},"geometry":{"x":173548.86000000034,"y":2539416.9900000039}},{"attributes":{"ID":339455,"DIS_CODE":0,"TOWNNAME":"仁德區","LI":"新田里","LIN":"8鄰","STREET":"北保路","SECT":" ","MAREA":" ","LANE":" ","ALLEY":" ","HOUSE_NO":"２３５號","E_COORD97":173566.91,"N_COORD97":2539371,"ADDRESS":"北保路２３５號","OBJECTID":339446},"geometry":{"x":173566.91000000015,"y":2539371}},{"attributes":{"ID":339456,"DIS_CODE":0,"TOWNNAME":"仁德區","LI":"新田里","LIN":"8鄰","STREET":"北保路","SECT":" ","MAREA":" ","LANE":" ","ALLEY":" ","HOUSE_NO":"１９７號","E_COORD97":173525.26000000001,"N_COORD97":2539429.2400000002,"ADDRESS":"北保路１９７號","OBJECTID":339447},"geometry":{"x":173525.25999999978,"y":2539429.2400000021}},{"attributes":{"ID":339457,"DIS_CODE":0,"TOWNNAME":"仁德區","LI":"新田里","LIN":"8鄰","STREET":"北保路","SECT":" ","MAREA":" ","LANE":" ","ALLEY":" ","HOUSE_NO":"２２５號","E_COORD97":173567.75,"N_COORD97":2539391.5,"ADDRESS":"北保路２２５號","OBJECTID":339448},"geometry":{"x":173567.75,"y":2539391.5}},{"attributes":{"ID":339458,"DIS_CODE":0,"TOWNNAME":"下營區","LI":"宅內里","LIN":"8鄰","STREET":"人和三街","SECT":" ","MAREA":" ","LANE":" ","ALLEY":" ","HOUSE_NO":"７８號之１","E_COORD97":174263.85000000001,"N_COORD97":2570727.2200000002,"ADDRESS":"人和三街７８號之１","OBJECTID":339449},"geometry":{"x":174263.84999999963,"y":2570727.2200000025}},{"attributes":{"ID":339459,"DIS_CODE":0,"TOWNNAME":"下營區","LI":"宅內里","LIN":"8鄰","STREET":"人和三街","SECT":" ","MAREA":" ","LANE":" ","ALLEY":" ","HOUSE_NO":"８０號","E_COORD97":174253.82999999999,"N_COORD97":2570725.8599999999,"ADDRESS":"人和三街８０號","OBJECTID":339450},"geometry":{"x":174253.83000000007,"y":2570725.8599999994}},{"attributes":{"ID":339460,"DIS_CODE":0,"TOWNNAME":"東區","LI":"崇善里","LIN":"5鄰","STREET":"崇善五街","SECT":" ","MAREA":" ","LANE":"４６巷","ALLEY":" ","HOUSE_NO":"７號","E_COORD97":171126.62,"N_COORD97":2541572.71,"ADDRESS":"崇善五街４６巷７號","OBJECTID":339451},"geometry":{"x":171126.62000000197,"y":2541572.7100000046}},{"attributes":{"ID":339461,"DIS_CODE":0,"TOWNNAME":"新市區","LI":"三舍里","LIN":"5鄰","STREET":" ","SECT":" ","MAREA":"三舍","LANE":" ","ALLEY":" ","HOUSE_NO":"１１０號","E_COORD97":177980.70999999999,"N_COORD97":2554563.5,"ADDRESS":"三舍１１０號","OBJECTID":339452},"geometry":{"x":177980.70999999996,"y":2554563.5}},{"attributes":{"ID":339462,"DIS_CODE":0,"TOWNNAME":"東區","LI":"崇善里","LIN":"5鄰","STREET":"崇善五街","SECT":" ","MAREA":" ","LANE":"４６巷","ALLEY":" ","HOUSE_NO":"８號","E_COORD97":171100.57999999999,"N_COORD97":2541559.2000000002,"ADDRESS":"崇善五街４６巷８號","OBJECTID":339453},"geometry":{"x":171100.58000000101,"y":2541559.1999999993}},{"attributes":{"ID":339463,"DIS_CODE":0,"TOWNNAME":"北區","LI":"振興里","LIN":"1鄰","STREET":"勝利路","SECT":" ","MAREA":" ","LANE":"２７６巷","ALLEY":" ","HOUSE_NO":"１１號","E_COORD97":169963.16,"N_COORD97":2545164.8399999999,"ADDRESS":"勝利路２７６巷１１號","OBJECTID":339454},"geometry":{"x":169963.16000000015,"y":2545164.8400000017}},{"attributes":{"ID":339464,"DIS_CODE":0,"TOWNNAME":"北區","LI":"重興里","LIN":"1鄰","STREET":"林森路","SECT":"三段","MAREA":" ","LANE":"７５巷","ALLEY":" ","HOUSE_NO":"８號","E_COORD97":170487.10999999999,"N_COORD97":2544832.5499999998,"ADDRESS":"林森路三段７５巷８號","OBJECTID":339455},"geometry":{"x":170487.11000000034,"y":2544832.5500000026}},{"attributes":{"ID":339465,"DIS_CODE":0,"TOWNNAME":"北區","LI":"重興里","LIN":"1鄰","STREET":"林森路","SECT":"三段","MAREA":" ","LANE":"７５巷","ALLEY":" ","HOUSE_NO":"９號","E_COORD97":170473.45000000001,"N_COORD97":2544817.9500000002,"ADDRESS":"林森路三段７５巷９號","OBJECTID":339456},"geometry":{"x":170473.44999999925,"y":2544817.9500000011}},{"attributes":{"ID":339466,"DIS_CODE":0,"TOWNNAME":"北區","LI":"重興里","LIN":"1鄰","STREET":"林森路","SECT":"三段","MAREA":" ","LANE":"７５巷","ALLEY":" ","HOUSE_NO":"６號","E_COORD97":170492.34,"N_COORD97":2544832.0800000001,"ADDRESS":"林森路三段７５巷６號","OBJECTID":339457},"geometry":{"x":170492.33999999985,"y":2544832.0800000019}},{"attributes":{"ID":339467,"DIS_CODE":0,"TOWNNAME":"北區","LI":"重興里","LIN":"1鄰","STREET":"林森路","SECT":"三段","MAREA":" ","LANE":"７５巷","ALLEY":" ","HOUSE_NO":"１１號","E_COORD97":170468.06,"N_COORD97":2544819.54,"ADDRESS":"林森路三段７５巷１１號","OBJECTID":339458},"geometry":{"x":170468.05999999959,"y":2544819.5399999972}},{"attributes":{"ID":339468,"DIS_CODE":0,"TOWNNAME":"北區","LI":"重興里","LIN":"1鄰","STREET":"林森路","SECT":"三段","MAREA":" ","LANE":"７５巷","ALLEY":" ","HOUSE_NO":"１３號","E_COORD97":170460.91,"N_COORD97":2544821.1200000001,"ADDRESS":"林森路三段７５巷１３號","OBJECTID":339459},"geometry":{"x":170460.91000000108,"y":2544821.1199999992}},{"attributes":{"ID":339469,"DIS_CODE":0,"TOWNNAME":"北區","LI":"重興里","LIN":"1鄰","STREET":"林森路","SECT":"三段","MAREA":" ","LANE":"７５巷","ALLEY":" ","HOUSE_NO":"１５號","E_COORD97":170454.09,"N_COORD97":2544822.5499999998,"ADDRESS":"林森路三段７５巷１５號","OBJECTID":339460},"geometry":{"x":170454.09000000078,"y":2544822.5500000026}},{"attributes":{"ID":339470,"DIS_CODE":0,"TOWNNAME":"北區","LI":"重興里","LIN":"1鄰","STREET":"林森路","SECT":"三段","MAREA":" ","LANE":"７５巷","ALLEY":" ","HOUSE_NO":"１７號","E_COORD97":170446.94,"N_COORD97":2544823.6600000001,"ADDRESS":"林森路三段７５巷１７號","OBJECTID":339461},"geometry":{"x":170446.94000000134,"y":2544823.6600000039}},{"attributes":{"ID":339471,"DIS_CODE":0,"TOWNNAME":"北區","LI":"重興里","LIN":"1鄰","STREET":"林森路","SECT":"三段","MAREA":" ","LANE":"７５巷","ALLEY":" ","HOUSE_NO":"１９號","E_COORD97":170439.79999999999,"N_COORD97":2544824.9300000002,"ADDRESS":"林森路三段７５巷１９號","OBJECTID":339462},"geometry":{"x":170439.79999999981,"y":2544824.9300000016}},{"attributes":{"ID":339472,"DIS_CODE":0,"TOWNNAME":"北區","LI":"重興里","LIN":"1鄰","STREET":"林森路","SECT":"三段","MAREA":" ","LANE":"７５巷","ALLEY":" ","HOUSE_NO":"２號","E_COORD97":170497.10999999999,"N_COORD97":2544831.2799999998,"ADDRESS":"林森路三段７５巷２號","OBJECTID":339463},"geometry":{"x":170497.11000000127,"y":2544831.2799999993}},{"attributes":{"ID":339473,"DIS_CODE":0,"TOWNNAME":"北區","LI":"重興里","LIN":"1鄰","STREET":"林森路","SECT":"三段","MAREA":" ","LANE":"７５巷","ALLEY":" ","HOUSE_NO":"１０號","E_COORD97":170481.39000000001,"N_COORD97":2544834.7799999998,"ADDRESS":"林森路三段７５巷１０號","OBJECTID":339464},"geometry":{"x":170481.38999999966,"y":2544834.7799999993}},{"attributes":{"ID":339474,"DIS_CODE":0,"TOWNNAME":"新市區","LI":"新和里","LIN":"8鄰","STREET":"仁愛街","SECT":" ","MAREA":" ","LANE":" ","ALLEY":" ","HOUSE_NO":"１０３號","E_COORD97":177543.14000000001,"N_COORD97":2552544.2799999998,"ADDRESS":"仁愛街１０３號","OBJECTID":339465},"geometry":{"x":177543.1400000006,"y":2552544.2799999993}},{"attributes":{"ID":339475,"DIS_CODE":0,"TOWNNAME":"北區","LI":"重興里","LIN":"1鄰","STREET":"林森路","SECT":"三段","MAREA":" ","LANE":"７５巷","ALLEY":" ","HOUSE_NO":"１２號","E_COORD97":170475.98999999999,"N_COORD97":2544836.2000000002,"ADDRESS":"林森路三段７５巷１２號","OBJECTID":339466},"geometry":{"x":170475.99000000022,"y":2544836.2000000011}},{"attributes":{"ID":339476,"DIS_CODE":0,"TOWNNAME":"北區","LI":"重興里","LIN":"1鄰","STREET":"林森路","SECT":"三段","MAREA":" ","LANE":"７５巷","ALLEY":" ","HOUSE_NO":"１６號","E_COORD97":170469.95999999999,"N_COORD97":2544837.9500000002,"ADDRESS":"林森路三段７５巷１６號","OBJECTID":339467},"geometry":{"x":170469.96000000183,"y":2544837.9500000011}},{"attributes":{"ID":339477,"DIS_CODE":0,"TOWNNAME":"北區","LI":"重興里","LIN":"1鄰","STREET":"林森路","SECT":"三段","MAREA":" ","LANE":"７５巷","ALLEY":" ","HOUSE_NO":"１８號","E_COORD97":170463.76999999999,"N_COORD97":2544839.1400000001,"ADDRESS":"林森路三段７５巷１８號","OBJECTID":339468},"geometry":{"x":170463.76999999862,"y":2544839.1400000025}},{"attributes":{"ID":339478,"DIS_CODE":0,"TOWNNAME":"北區","LI":"重興里","LIN":"1鄰","STREET":"林森路","SECT":"三段","MAREA":" ","LANE":"７５巷","ALLEY":" ","HOUSE_NO":"２０號","E_COORD97":170457.89999999999,"N_COORD97":2544841.0499999998,"ADDRESS":"林森路三段７５巷２０號","OBJECTID":339469},"geometry":{"x":170457.9000000013,"y":2544841.0500000007}},{"attributes":{"ID":339479,"DIS_CODE":0,"TOWNNAME":"北區","LI":"重興里","LIN":"1鄰","STREET":"林森路","SECT":"三段","MAREA":" ","LANE":"７５巷","ALLEY":" ","HOUSE_NO":"２２號","E_COORD97":170451.85999999999,"N_COORD97":2544843.4300000002,"ADDRESS":"林森路三段７５巷２２號","OBJECTID":339470},"geometry":{"x":170451.86000000034,"y":2544843.4299999997}},{"attributes":{"ID":339480,"DIS_CODE":0,"TOWNNAME":"中西區","LI":"仙草里","LIN":"8鄰","STREET":"永福路","SECT":"一段","MAREA":" ","LANE":" ","ALLEY":" ","HOUSE_NO":"６７號","E_COORD97":167981,"N_COORD97":2542656.8100000001,"ADDRESS":"永福路一段６７號","OBJECTID":339471},"geometry":{"x":167981.00000000186,"y":2542656.8100000024}},{"attributes":{"ID":339481,"DIS_CODE":0,"TOWNNAME":"安南區","LI":"海西里","LIN":"8鄰","STREET":"海環街","SECT":" ","MAREA":" ","LANE":" ","ALLEY":" ","HOUSE_NO":"２６０號之１０","E_COORD97":166124.97,"N_COORD97":2548801.5600000001,"ADDRESS":"海環街２６０號之１０","OBJECTID":339472},"geometry":{"x":166124.97000000067,"y":2548801.5600000042}},{"attributes":{"ID":339482,"DIS_CODE":0,"TOWNNAME":"新市區","LI":"三舍里","LIN":"5鄰","STREET":" ","SECT":" ","MAREA":"三舍","LANE":" ","ALLEY":" ","HOUSE_NO":"１１３之３號","E_COORD97":177971.31,"N_COORD97":2554621.0499999998,"ADDRESS":"三舍１１３之３號","OBJECTID":339473},"geometry":{"x":177971.30999999959,"y":2554621.0500000026}},{"attributes":{"ID":339483,"DIS_CODE":0,"TOWNNAME":"新市區","LI":"潭頂里","LIN":"5鄰","STREET":" ","SECT":" ","MAREA":"潭頂","LANE":" ","ALLEY":" ","HOUSE_NO":"２１３號","E_COORD97":180851.78,"N_COORD97":2553003.75,"ADDRESS":"潭頂２１３號","OBJECTID":339474},"geometry":{"x":180851.78000000119,"y":2553003.7500000037}},{"attributes":{"ID":339484,"DIS_CODE":0,"TOWNNAME":"新市區","LI":"潭頂里","LIN":"5鄰","STREET":" ","SECT":" ","MAREA":"潭頂","LANE":" ","ALLEY":" ","HOUSE_NO":"２１８號","E_COORD97":180783.54000000001,"N_COORD97":2553002.5,"ADDRESS":"潭頂２１８號","OBJECTID":339475},"geometry":{"x":180783.54000000097,"y":2553002.5000000019}},{"attributes":{"ID":339485,"DIS_CODE":0,"TOWNNAME":"新市區","LI":"潭頂里","LIN":"5鄰","STREET":" ","SECT":" ","MAREA":"潭頂","LANE":" ","ALLEY":" ","HOUSE_NO":"２１９號","E_COORD97":180755.70000000001,"N_COORD97":2552998,"ADDRESS":"潭頂２１９號","OBJECTID":339476},"geometry":{"x":180755.70000000019,"y":2552998}},{"attributes":{"ID":339486,"DIS_CODE":0,"TOWNNAME":"東區","LI":"東聖里","LIN":"5鄰","STREET":"富農街","SECT":"二段","MAREA":" ","LANE":"７９巷","ALLEY":" ","HOUSE_NO":"７號之１","E_COORD97":171580.84,"N_COORD97":2543058.2000000002,"ADDRESS":"富農街二段７９巷７號之１","OBJECTID":339477},"geometry":{"x":171580.84000000171,"y":2543058.1999999993}},{"attributes":{"ID":339487,"DIS_CODE":0,"TOWNNAME":"東區","LI":"東聖里","LIN":"5鄰","STREET":"富農街","SECT":"二段","MAREA":" ","LANE":"７９巷","ALLEY":" ","HOUSE_NO":"９號","E_COORD97":171568.92000000001,"N_COORD97":2543058.8199999998,"ADDRESS":"富農街二段７９巷９號","OBJECTID":339478},"geometry":{"x":171568.92000000086,"y":2543058.8200000003}},{"attributes":{"ID":339488,"DIS_CODE":0,"TOWNNAME":"永康區","LI":"三合里","LIN":"5鄰","STREET":"南工街","SECT":" ","MAREA":" ","LANE":"８２巷","ALLEY":" ","HOUSE_NO":"１１號","E_COORD97":172140.59,"N_COORD97":2545694.25,"ADDRESS":"南工街８２巷１１號","OBJECTID":339479},"geometry":{"x":172140.59000000078,"y":2545694.2500000037}},{"attributes":{"ID":339489,"DIS_CODE":0,"TOWNNAME":"新市區","LI":"豐華里","LIN":"5鄰","STREET":" ","SECT":" ","MAREA":"豐華","LANE":" ","ALLEY":" ","HOUSE_NO":"３６之１號","E_COORD97":173780.29000000001,"N_COORD97":2554341.0499999998,"ADDRESS":"豐華３６之１號","OBJECTID":339480},"geometry":{"x":173780.29000000097,"y":2554341.0500000007}},{"attributes":{"ID":339490,"DIS_CODE":0,"TOWNNAME":"北區","LI":"重興里","LIN":"1鄰","STREET":"林森路","SECT":"三段","MAREA":" ","LANE":"７５巷","ALLEY":" ","HOUSE_NO":"２６號","E_COORD97":170443.45000000001,"N_COORD97":2544845.6499999999,"ADDRESS":"林森路三段７５巷２６號","OBJECTID":339481},"geometry":{"x":170443.45000000112,"y":2544845.6500000022}},{"attributes":{"ID":339491,"DIS_CODE":0,"TOWNNAME":"北區","LI":"重興里","LIN":"1鄰","STREET":"東豐路","SECT":" ","MAREA":" ","LANE":"３０５巷","ALLEY":" ","HOUSE_NO":"１０號","E_COORD97":170430.73999999999,"N_COORD97":2544838.73,"ADDRESS":"東豐路３０５巷１０號","OBJECTID":339482},"geometry":{"x":170430.74000000022,"y":2544838.7300000004}},{"attributes":{"ID":339492,"DIS_CODE":0,"TOWNNAME":"北區","LI":"重興里","LIN":"1鄰","STREET":"東豐路","SECT":" ","MAREA":" ","LANE":"３０５巷","ALLEY":" ","HOUSE_NO":"１２號","E_COORD97":170431.85999999999,"N_COORD97":2544844.6000000001,"ADDRESS":"東豐路３０５巷１２號","OBJECTID":339483},"geometry":{"x":170431.8600000022,"y":2544844.6000000015}},{"attributes":{"ID":339493,"DIS_CODE":0,"TOWNNAME":"北區","LI":"重興里","LIN":"1鄰","STREET":"東豐路","SECT":" ","MAREA":" ","LANE":"３０５巷","ALLEY":" ","HOUSE_NO":"１６號","E_COORD97":170433.60000000001,"N_COORD97":2544851.4300000002,"ADDRESS":"東豐路３０５巷１６號","OBJECTID":339484},"geometry":{"x":170433.60000000056,"y":2544851.4299999978}},{"attributes":{"ID":339494,"DIS_CODE":0,"TOWNNAME":"北區","LI":"成德里","LIN":"1鄰","STREET":"民德路","SECT":" ","MAREA":" ","LANE":"５８巷","ALLEY":" ","HOUSE_NO":"３３號","E_COORD97":168300.45999999999,"N_COORD97":2545370.9199999999,"ADDRESS":"民德路５８巷３３號","OBJECTID":339485},"geometry":{"x":168300.46000000089,"y":2545370.9200000037}},{"attributes":{"ID":339495,"DIS_CODE":0,"TOWNNAME":"北區","LI":"國興里","LIN":" ","STREET":"開元路","SECT":" ","MAREA":" ","LANE":"３４２巷","ALLEY":" ","HOUSE_NO":"１２號","E_COORD97":170481.72,"N_COORD97":2545500.1000000001,"ADDRESS":"開元路３４２巷１２號","OBJECTID":339486},"geometry":{"x":170481.72000000067,"y":2545500.0999999996}},{"attributes":{"ID":339496,"DIS_CODE":0,"TOWNNAME":"北區","LI":"華興里","LIN":"1鄰","STREET":"開南街","SECT":" ","MAREA":" ","LANE":"３３巷","ALLEY":" ","HOUSE_NO":"１號","E_COORD97":170328.87,"N_COORD97":2545378.73,"ADDRESS":"開南街３３巷１號","OBJECTID":339487},"geometry":{"x":170328.87000000104,"y":2545378.7300000004}},{"attributes":{"ID":339497,"DIS_CODE":0,"TOWNNAME":"北區","LI":"華興里","LIN":"1鄰","STREET":"開南街","SECT":" ","MAREA":" ","LANE":"３３巷","ALLEY":" ","HOUSE_NO":"３號","E_COORD97":170331.70999999999,"N_COORD97":2545380.4700000002,"ADDRESS":"開南街３３巷３號","OBJECTID":339488},"geometry":{"x":170331.70999999996,"y":2545380.4700000007}},{"attributes":{"ID":339498,"DIS_CODE":0,"TOWNNAME":"北區","LI":"華興里","LIN":"1鄰","STREET":"開南街","SECT":" ","MAREA":" ","LANE":"３３巷","ALLEY":" ","HOUSE_NO":"５號","E_COORD97":170335.19,"N_COORD97":2545383.1200000001,"ADDRESS":"開南街３３巷５號","OBJECTID":339489},"geometry":{"x":170335.19000000134,"y":2545383.120000001}},{"attributes":{"ID":339499,"DIS_CODE":0,"TOWNNAME":"北區","LI":"華興里","LIN":"1鄰","STREET":"開南街","SECT":" ","MAREA":" ","LANE":"３３巷","ALLEY":" ","HOUSE_NO":"７號","E_COORD97":170338.12,"N_COORD97":2545385.8700000001,"ADDRESS":"開南街３３巷７號","OBJECTID":339490},"geometry":{"x":170338.12000000011,"y":2545385.8700000048}},{"attributes":{"ID":339500,"DIS_CODE":0,"TOWNNAME":"北區","LI":"華興里","LIN":"1鄰","STREET":"開南街","SECT":" ","MAREA":" ","LANE":"３３巷","ALLEY":" ","HOUSE_NO":"９號","E_COORD97":170341.04999999999,"N_COORD97":2545388.8900000001,"ADDRESS":"開南街３３巷９號","OBJECTID":339491},"geometry":{"x":170341.05000000075,"y":2545388.8900000025}},{"attributes":{"ID":339501,"DIS_CODE":0,"TOWNNAME":"新營區","LI":"新南里","LIN":"1鄰","STREET":"民治路","SECT":" ","MAREA":" ","LANE":"２３０巷","ALLEY":" ","HOUSE_NO":"４４號","E_COORD97":178755.44,"N_COORD97":2578643.9900000002,"ADDRESS":"民治路２３０巷４４號","OBJECTID":339492},"geometry":{"x":178755.44000000134,"y":2578643.9900000021}},{"attributes":{"ID":339502,"DIS_CODE":0,"TOWNNAME":"新營區","LI":"興業里","LIN":"1鄰","STREET":"公誠街","SECT":" ","MAREA":" ","LANE":"１７巷","ALLEY":" ","HOUSE_NO":"１８之４號","E_COORD97":180366.54999999999,"N_COORD97":2577935.3700000001,"ADDRESS":"公誠街１７巷１８之４號","OBJECTID":339493},"geometry":{"x":180366.54999999981,"y":2577935.370000001}},{"attributes":{"ID":339503,"DIS_CODE":0,"TOWNNAME":"新營區","LI":"忠政里","LIN":"1鄰","STREET":"中正路","SECT":" ","MAREA":" ","LANE":"３１巷","ALLEY":" ","HOUSE_NO":"５８號","E_COORD97":180058.98999999999,"N_COORD97":2578964.48,"ADDRESS":"中正路３１巷５８號","OBJECTID":339494},"geometry":{"x":180058.99000000022,"y":2578964.4800000004}},{"attributes":{"ID":339504,"DIS_CODE":0,"TOWNNAME":"新營區","LI":"王公里","LIN":"1鄰","STREET":"民治路","SECT":" ","MAREA":" ","LANE":"２６巷","ALLEY":" ","HOUSE_NO":"１號","E_COORD97":180207.82000000001,"N_COORD97":2578910.6099999999,"ADDRESS":"民治路２６巷１號","OBJECTID":339495},"geometry":{"x":180207.8200000003,"y":2578910.6100000013}},{"attributes":{"ID":339505,"DIS_CODE":0,"TOWNNAME":"新營區","LI":"忠政里","LIN":"1鄰","STREET":"中正路","SECT":" ","MAREA":" ","LANE":"３１巷","ALLEY":" ","HOUSE_NO":"４２之１號","E_COORD97":180049.92000000001,"N_COORD97":2578981.1299999999,"ADDRESS":"中正路３１巷４２之１號","OBJECTID":339496},"geometry":{"x":180049.92000000086,"y":2578981.1300000008}},{"attributes":{"ID":339506,"DIS_CODE":0,"TOWNNAME":"新市區","LI":"新和里","LIN":"8鄰","STREET":"仁愛街","SECT":" ","MAREA":" ","LANE":" ","ALLEY":" ","HOUSE_NO":"１０１號","E_COORD97":177541.59,"N_COORD97":2552540.0299999998,"ADDRESS":"仁愛街１０１號","OBJECTID":339497},"geometry":{"x":177541.59000000078,"y":2552540.0300000031}},{"attributes":{"ID":339507,"DIS_CODE":0,"TOWNNAME":"新市區","LI":"新和里","LIN":"8鄰","STREET":"仁愛街","SECT":" ","MAREA":" ","LANE":" ","ALLEY":" ","HOUSE_NO":"９４號","E_COORD97":177540.54000000001,"N_COORD97":2552457.5299999998,"ADDRESS":"仁愛街９４號","OBJECTID":339498},"geometry":{"x":177540.54000000097,"y":2552457.5299999993}},{"attributes":{"ID":339508,"DIS_CODE":0,"TOWNNAME":"新市區","LI":"新和里","LIN":"8鄰","STREET":"仁愛街","SECT":" ","MAREA":" ","LANE":" ","ALLEY":" ","HOUSE_NO":"７９之８號","E_COORD97":177528.95000000001,"N_COORD97":2552466.7999999998,"ADDRESS":"仁愛街７９之８號","OBJECTID":339499},"geometry":{"x":177528.95000000205,"y":2552466.8000000007}},{"attributes":{"ID":339509,"DIS_CODE":0,"TOWNNAME":"永康區","LI":"復國里","LIN":"5鄰","STREET":"復國一路","SECT":" ","MAREA":" ","LANE":"９０巷","ALLEY":" ","HOUSE_NO":"３８號","E_COORD97":172789.95000000001,"N_COORD97":2544906.52,"ADDRESS":"復國一路９０巷３８號","OBJECTID":339500},"geometry":{"x":172789.95000000112,"y":2544906.5200000014}},{"attributes":{"ID":339510,"DIS_CODE":0,"TOWNNAME":"官田區","LI":"南\u25A0里","LIN":"5鄰","STREET":" ","SECT":" ","MAREA":"南\u25A0","LANE":" ","ALLEY":" ","HOUSE_NO":"６２號之１","E_COORD97":178896.39000000001,"N_COORD97":2567991.27,"ADDRESS":"南\u25A0６２號之１","OBJECTID":339501},"geometry":{"x":178896.38999999966,"y":2567991.2699999996}},{"attributes":{"ID":339511,"DIS_CODE":0,"TOWNNAME":"官田區","LI":"南\u25A0里","LIN":"5鄰","STREET":" ","SECT":" ","MAREA":"南\u25A0","LANE":" ","ALLEY":" ","HOUSE_NO":"６２號之２","E_COORD97":178897.91,"N_COORD97":2567974.7999999998,"ADDRESS":"南\u25A0６２號之２","OBJECTID":339502},"geometry":{"x":178897.91000000108,"y":2567974.8000000007}},{"attributes":{"ID":339512,"DIS_CODE":0,"TOWNNAME":"新營區","LI":"忠政里","LIN":"1鄰","STREET":"中正路","SECT":" ","MAREA":" ","LANE":"３１巷","ALLEY":" ","HOUSE_NO":"３０號","E_COORD97":180065.29999999999,"N_COORD97":2578987.7000000002,"ADDRESS":"中正路３１巷３０號","OBJECTID":339503},"geometry":{"x":180065.29999999981,"y":2578987.7000000011}},{"attributes":{"ID":339513,"DIS_CODE":0,"TOWNNAME":"新營區","LI":"忠政里","LIN":"1鄰","STREET":"中正路","SECT":" ","MAREA":" ","LANE":"３１巷","ALLEY":" ","HOUSE_NO":"２號","E_COORD97":180067.17999999999,"N_COORD97":2579004.2999999998,"ADDRESS":"中正路３１巷２號","OBJECTID":339504},"geometry":{"x":180067.1799999997,"y":2579004.3000000007}},{"attributes":{"ID":339514,"DIS_CODE":0,"TOWNNAME":"新營區","LI":"忠政里","LIN":"1鄰","STREET":"中正路","SECT":" ","MAREA":" ","LANE":"３１巷","ALLEY":" ","HOUSE_NO":"２４號","E_COORD97":180053.01000000001,"N_COORD97":2578986.6499999999,"ADDRESS":"中正路３１巷２４號","OBJECTID":339505},"geometry":{"x":180053.01000000071,"y":2578986.6500000022}},{"attributes":{"ID":339515,"DIS_CODE":0,"TOWNNAME":"新營區","LI":"忠政里","LIN":"1鄰","STREET":"中正路","SECT":" ","MAREA":" ","LANE":"３１巷","ALLEY":" ","HOUSE_NO":"４０號","E_COORD97":180058.10999999999,"N_COORD97":2578982.2000000002,"ADDRESS":"中正路３１巷４０號","OBJECTID":339506},"geometry":{"x":180058.11000000034,"y":2578982.1999999993}},{"attributes":{"ID":339516,"DIS_CODE":0,"TOWNNAME":"新營區","LI":"新南里","LIN":"1鄰","STREET":"民治路","SECT":" ","MAREA":" ","LANE":"２３０巷","ALLEY":" ","HOUSE_NO":"６４號","E_COORD97":178670.62,"N_COORD97":2578673.1899999999,"ADDRESS":"民治路２３０巷６４號","OBJECTID":339507},"geometry":{"x":178670.62000000104,"y":2578673.1900000013}},{"attributes":{"ID":339517,"DIS_CODE":0,"TOWNNAME":"新市區","LI":"新和里","LIN":"8鄰","STREET":"仁愛街","SECT":" ","MAREA":" ","LANE":" ","ALLEY":" ","HOUSE_NO":"８６號","E_COORD97":177536.89000000001,"N_COORD97":2552439.5299999998,"ADDRESS":"仁愛街８６號","OBJECTID":339508},"geometry":{"x":177536.88999999966,"y":2552439.5300000012}},{"attributes":{"ID":339518,"DIS_CODE":0,"TOWNNAME":"新營區","LI":"忠政里","LIN":"1鄰","STREET":"中正路","SECT":" ","MAREA":" ","LANE":"３１巷","ALLEY":" ","HOUSE_NO":"６０號","E_COORD97":180063.07000000001,"N_COORD97":2578965.5600000001,"ADDRESS":"中正路３１巷６０號","OBJECTID":339509},"geometry":{"x":180063.07000000123,"y":2578965.5600000042}},{"attributes":{"ID":339519,"DIS_CODE":0,"TOWNNAME":"新營區","LI":"忠政里","LIN":"1鄰","STREET":"中正路","SECT":" ","MAREA":" ","LANE":"３１巷","ALLEY":" ","HOUSE_NO":"３８號","E_COORD97":180062.20999999999,"N_COORD97":2578982.1800000002,"ADDRESS":"中正路３１巷３８號","OBJECTID":339510},"geometry":{"x":180062.20999999996,"y":2578982.1800000016}},{"attributes":{"ID":339520,"DIS_CODE":0,"TOWNNAME":"新營區","LI":"忠政里","LIN":"1鄰","STREET":"中正路","SECT":" ","MAREA":" ","LANE":"３１巷","ALLEY":" ","HOUSE_NO":"４８號","E_COORD97":180041.73999999999,"N_COORD97":2578981.1699999999,"ADDRESS":"中正路３１巷４８號","OBJECTID":339511},"geometry":{"x":180041.74000000115,"y":2578981.1700000037}},{"attributes":{"ID":339521,"DIS_CODE":0,"TOWNNAME":"官田區","LI":"湖山里","LIN":"5鄰","STREET":" ","SECT":" ","MAREA":"烏山頭","LANE":" ","ALLEY":" ","HOUSE_NO":"２８號之１７","E_COORD97":183192.32000000001,"N_COORD97":2567641.2400000002,"ADDRESS":"烏山頭２８號之１７","OBJECTID":339512},"geometry":{"x":183192.32000000123,"y":2567641.2400000021}},{"attributes":{"ID":339522,"DIS_CODE":0,"TOWNNAME":"新市區","LI":"新和里","LIN":"8鄰","STREET":"仁愛街","SECT":" ","MAREA":" ","LANE":" ","ALLEY":" ","HOUSE_NO":"８７號","E_COORD97":177531.20000000001,"N_COORD97":2552492.2799999998,"ADDRESS":"仁愛街８７號","OBJECTID":339513},"geometry":{"x":177531.20000000112,"y":2552492.2800000012}},{"attributes":{"ID":339523,"DIS_CODE":0,"TOWNNAME":"官田區","LI":"湖山里","LIN":"5鄰","STREET":" ","SECT":" ","MAREA":"烏山頭","LANE":" ","ALLEY":" ","HOUSE_NO":"２８號之１８","E_COORD97":183191,"N_COORD97":2567646.48,"ADDRESS":"烏山頭２８號之１８","OBJECTID":339514},"geometry":{"x":183191.00000000093,"y":2567646.4800000023}},{"attributes":{"ID":339524,"DIS_CODE":0,"TOWNNAME":"白河區","LI":"昇安里","LIN":"5鄰","STREET":" ","SECT":" ","MAREA":"三間厝","LANE":" ","ALLEY":" ","HOUSE_NO":"６０號","E_COORD97":191868.98999999999,"N_COORD97":2584744.2999999998,"ADDRESS":"三間厝６０號","OBJECTID":339515},"geometry":{"x":191868.99000000115,"y":2584744.3000000007}},{"attributes":{"ID":339525,"DIS_CODE":0,"TOWNNAME":"永康區","LI":"尚頂里","LIN":" ","STREET":"國聖街","SECT":" ","MAREA":" ","LANE":"４３巷","ALLEY":" ","HOUSE_NO":"６７號","E_COORD97":170257.64000000001,"N_COORD97":2547636.98,"ADDRESS":"國聖街４３巷６７號","OBJECTID":339516},"geometry":{"x":170257.63999999966,"y":2547636.9800000023}},{"attributes":{"ID":339526,"DIS_CODE":0,"TOWNNAME":"新市區","LI":"永就里","LIN":"8鄰","STREET":"中華路","SECT":" ","MAREA":" ","LANE":" ","ALLEY":" ","HOUSE_NO":"７２號","E_COORD97":177603.95000000001,"N_COORD97":2551658.25,"ADDRESS":"中華路７２號","OBJECTID":339517},"geometry":{"x":177603.95000000112,"y":2551658.2500000019}},{"attributes":{"ID":339527,"DIS_CODE":0,"TOWNNAME":"安南區","LI":"安富里","LIN":"5鄰","STREET":"郡安路","SECT":"五段","MAREA":" ","LANE":"１８４巷","ALLEY":" ","HOUSE_NO":"４８號","E_COORD97":167482.41,"N_COORD97":2547625.6600000001,"ADDRESS":"郡安路五段１８４巷４８號","OBJECTID":339518},"geometry":{"x":167482.41000000108,"y":2547625.6600000001}},{"attributes":{"ID":339528,"DIS_CODE":0,"TOWNNAME":"新營區","LI":"忠政里","LIN":"1鄰","STREET":"中正路","SECT":" ","MAREA":" ","LANE":"３１巷","ALLEY":" ","HOUSE_NO":"４２號","E_COORD97":180054.01999999999,"N_COORD97":2578982.2200000002,"ADDRESS":"中正路３１巷４２號","OBJECTID":339519},"geometry":{"x":180054.02000000048,"y":2578982.2200000025}},{"attributes":{"ID":339529,"DIS_CODE":0,"TOWNNAME":"新營區","LI":"忠政里","LIN":"1鄰","STREET":"中正路","SECT":" ","MAREA":" ","LANE":"３１巷","ALLEY":" ","HOUSE_NO":"５６號","E_COORD97":180054.89999999999,"N_COORD97":2578964.5,"ADDRESS":"中正路３１巷５６號","OBJECTID":339520},"geometry":{"x":180054.90000000037,"y":2578964.5}},{"attributes":{"ID":339530,"DIS_CODE":0,"TOWNNAME":"新營區","LI":"忠政里","LIN":"1鄰","STREET":"中正路","SECT":" ","MAREA":" ","LANE":"３１巷","ALLEY":" ","HOUSE_NO":"１２號","E_COORD97":180047.89999999999,"N_COORD97":2579003.29,"ADDRESS":"中正路３１巷１２號","OBJECTID":339521},"geometry":{"x":180047.90000000037,"y":2579003.2900000028}},{"attributes":{"ID":339531,"DIS_CODE":0,"TOWNNAME":"東山區","LI":"東中里","LIN":"1鄰","STREET":"信義街","SECT":" ","MAREA":" ","LANE":"６巷","ALLEY":" ","HOUSE_NO":"１０號","E_COORD97":188910.89000000001,"N_COORD97":2579974.21,"ADDRESS":"信義街６巷１０號","OBJECTID":339522},"geometry":{"x":188910.8900000006,"y":2579974.2100000009}},{"attributes":{"ID":339532,"DIS_CODE":0,"TOWNNAME":"東山區","LI":"東中里","LIN":"1鄰","STREET":"信義街","SECT":" ","MAREA":" ","LANE":"６巷","ALLEY":" ","HOUSE_NO":"１１號","E_COORD97":188887.98999999999,"N_COORD97":2579986.1200000001,"ADDRESS":"信義街６巷１１號","OBJECTID":339523},"geometry":{"x":188887.99000000022,"y":2579986.1199999992}},{"attributes":{"ID":339533,"DIS_CODE":0,"TOWNNAME":"東山區","LI":"東中里","LIN":"1鄰","STREET":"信義街","SECT":" ","MAREA":" ","LANE":"６巷","ALLEY":" ","HOUSE_NO":"１２號","E_COORD97":188911.82999999999,"N_COORD97":2579979.1800000002,"ADDRESS":"信義街６巷１２號","OBJECTID":339524},"geometry":{"x":188911.83000000101,"y":2579979.1800000016}},{"attributes":{"ID":339534,"DIS_CODE":0,"TOWNNAME":"東山區","LI":"東中里","LIN":"1鄰","STREET":"信義街","SECT":" ","MAREA":" ","LANE":"６巷","ALLEY":" ","HOUSE_NO":"１６號","E_COORD97":188912.29999999999,"N_COORD97":2579984.25,"ADDRESS":"信義街６巷１６號","OBJECTID":339525},"geometry":{"x":188912.29999999981,"y":2579984.2500000037}},{"attributes":{"ID":339535,"DIS_CODE":0,"TOWNNAME":"新市區","LI":"新和里","LIN":"8鄰","STREET":"仁愛街","SECT":" ","MAREA":" ","LANE":" ","ALLEY":" ","HOUSE_NO":"７９之９號","E_COORD97":177527.79000000001,"N_COORD97":2552471.5499999998,"ADDRESS":"仁愛街７９之９號","OBJECTID":339526},"geometry":{"x":177527.79000000004,"y":2552471.5500000026}},{"attributes":{"ID":339536,"DIS_CODE":0,"TOWNNAME":"新市區","LI":"新和里","LIN":"8鄰","STREET":"仁愛街","SECT":" ","MAREA":" ","LANE":" ","ALLEY":" ","HOUSE_NO":"１００號","E_COORD97":177544.09,"N_COORD97":2552469.0299999998,"ADDRESS":"仁愛街１００號","OBJECTID":339527},"geometry":{"x":177544.08999999985,"y":2552469.0300000031}},{"attributes":{"ID":339537,"DIS_CODE":0,"TOWNNAME":"永康區","LI":"大橋里","LIN":" ","STREET":"大橋一街","SECT":" ","MAREA":" ","LANE":"１３７巷","ALLEY":" ","HOUSE_NO":"２１號","E_COORD97":170999.85000000001,"N_COORD97":2546534.5,"ADDRESS":"大橋一街１３７巷２１號","OBJECTID":339528},"geometry":{"x":170999.85000000056,"y":2546534.5000000019}},{"attributes":{"ID":339538,"DIS_CODE":0,"TOWNNAME":"安南區","LI":"佃西里","LIN":"5鄰","STREET":"公學路","SECT":"四段","MAREA":" ","LANE":"１２６巷","ALLEY":" ","HOUSE_NO":"１０５號","E_COORD97":165345.42000000001,"N_COORD97":2551897.6699999999,"ADDRESS":"公學路四段１２６巷１０５號","OBJECTID":339529},"geometry":{"x":165345.41999999899,"y":2551897.6699999999}},{"attributes":{"ID":339539,"DIS_CODE":0,"TOWNNAME":"安南區","LI":"梅花里","LIN":"5鄰","STREET":"安中路","SECT":"一段","MAREA":" ","LANE":"６９９巷","ALLEY":" ","HOUSE_NO":"４４號","E_COORD97":167599.81,"N_COORD97":2549087.6200000001,"ADDRESS":"安中路一段６９９巷４４號","OBJECTID":339530},"geometry":{"x":167599.80999999959,"y":2549087.6200000029}},{"attributes":{"ID":339540,"DIS_CODE":0,"TOWNNAME":"安南區","LI":"鳳凰里","LIN":"5鄰","STREET":"安中路","SECT":"一段","MAREA":" ","LANE":"６９８巷","ALLEY":" ","HOUSE_NO":"３８號","E_COORD97":167805.98999999999,"N_COORD97":2549174.8900000001,"ADDRESS":"安中路一段６９８巷３８號","OBJECTID":339531},"geometry":{"x":167805.99000000022,"y":2549174.8900000006}},{"attributes":{"ID":339541,"DIS_CODE":0,"TOWNNAME":"東山區","LI":"東中里","LIN":"1鄰","STREET":"信義街","SECT":" ","MAREA":" ","LANE":"６巷","ALLEY":" ","HOUSE_NO":"１號","E_COORD97":188884.98000000001,"N_COORD97":2579961.6400000001,"ADDRESS":"信義街６巷１號","OBJECTID":339532},"geometry":{"x":188884.97999999952,"y":2579961.6400000006}},{"attributes":{"ID":339542,"DIS_CODE":0,"TOWNNAME":"東山區","LI":"東中里","LIN":"1鄰","STREET":"信義街","SECT":" ","MAREA":" ","LANE":"６巷","ALLEY":" ","HOUSE_NO":"２號","E_COORD97":188909.20000000001,"N_COORD97":2579959.6699999999,"ADDRESS":"信義街６巷２號","OBJECTID":339533},"geometry":{"x":188909.20000000112,"y":2579959.6699999999}},{"attributes":{"ID":339543,"DIS_CODE":0,"TOWNNAME":"東山區","LI":"東中里","LIN":"1鄰","STREET":"信義街","SECT":" ","MAREA":" ","LANE":"６巷","ALLEY":" ","HOUSE_NO":"３號","E_COORD97":188885.54999999999,"N_COORD97":2579966.1400000001,"ADDRESS":"信義街６巷３號","OBJECTID":339534},"geometry":{"x":188885.55000000168,"y":2579966.1400000025}},{"attributes":{"ID":339544,"DIS_CODE":0,"TOWNNAME":"東山區","LI":"東中里","LIN":"1鄰","STREET":"信義街","SECT":" ","MAREA":" ","LANE":"６巷","ALLEY":" ","HOUSE_NO":"５號","E_COORD97":188885.64000000001,"N_COORD97":2579970.7400000002,"ADDRESS":"信義街６巷５號","OBJECTID":339535},"geometry":{"x":188885.6400000006,"y":2579970.7400000002}},{"attributes":{"ID":339545,"DIS_CODE":0,"TOWNNAME":"東山區","LI":"東中里","LIN":"1鄰","STREET":"信義街","SECT":" ","MAREA":" ","LANE":"６巷","ALLEY":" ","HOUSE_NO":"６號","E_COORD97":188909.95000000001,"N_COORD97":2579964.5499999998,"ADDRESS":"信義街６巷６號","OBJECTID":339536},"geometry":{"x":188909.95000000019,"y":2579964.5500000007}},{"attributes":{"ID":339546,"DIS_CODE":0,"TOWNNAME":"東山區","LI":"東中里","LIN":"1鄰","STREET":"信義街","SECT":" ","MAREA":" ","LANE":"６巷","ALLEY":" ","HOUSE_NO":"７號","E_COORD97":188886.48999999999,"N_COORD97":2579975.7999999998,"ADDRESS":"信義街６巷７號","OBJECTID":339537},"geometry":{"x":188886.49000000209,"y":2579975.8000000026}},{"attributes":{"ID":339547,"DIS_CODE":0,"TOWNNAME":"東山區","LI":"東中里","LIN":"1鄰","STREET":"信義街","SECT":" ","MAREA":" ","LANE":"６巷","ALLEY":" ","HOUSE_NO":"８號","E_COORD97":188910.51000000001,"N_COORD97":2579969.52,"ADDRESS":"信義街６巷８號","OBJECTID":339538},"geometry":{"x":188910.50999999978,"y":2579969.5200000014}},{"attributes":{"ID":339548,"DIS_CODE":0,"TOWNNAME":"後壁區","LI":"土溝里","LIN":"5鄰","STREET":" ","SECT":" ","MAREA":"土溝","LANE":" ","ALLEY":" ","HOUSE_NO":"４４號","E_COORD97":186883.38,"N_COORD97":2585609.2400000002,"ADDRESS":"土溝４４號","OBJECTID":339539},"geometry":{"x":186883.38000000082,"y":2585609.2400000039}},{"attributes":{"ID":339549,"DIS_CODE":0,"TOWNNAME":"東山區","LI":"東中里","LIN":"1鄰","STREET":"信義街","SECT":" ","MAREA":" ","LANE":"６巷","ALLEY":" ","HOUSE_NO":"９號","E_COORD97":188887.23999999999,"N_COORD97":2579980.96,"ADDRESS":"信義街６巷９號","OBJECTID":339540},"geometry":{"x":188887.24000000115,"y":2579980.9600000028}},{"attributes":{"ID":339550,"DIS_CODE":0,"TOWNNAME":"北區","LI":"實踐里","LIN":"14鄰","STREET":"大武街","SECT":" ","MAREA":" ","LANE":"１９９巷","ALLEY":" ","HOUSE_NO":"３號","E_COORD97":169599.79999999999,"N_COORD97":2546058.4399999999,"ADDRESS":"大武街１９９巷３號","OBJECTID":339541},"geometry":{"x":169599.80000000075,"y":2546058.4400000032}},{"attributes":{"ID":339551,"DIS_CODE":0,"TOWNNAME":"北區","LI":"實踐里","LIN":"14鄰","STREET":"大武街","SECT":" ","MAREA":" ","LANE":"１９９巷","ALLEY":" ","HOUSE_NO":"８號","E_COORD97":169591.14999999999,"N_COORD97":2546063.9399999999,"ADDRESS":"大武街１９９巷８號","OBJECTID":339542},"geometry":{"x":169591.1500000013,"y":2546063.9399999995}},{"attributes":{"ID":339552,"DIS_CODE":0,"TOWNNAME":"北區","LI":"長德里","LIN":"1鄰","STREET":"公園南路","SECT":" ","MAREA":" ","LANE":"１５２巷","ALLEY":" ","HOUSE_NO":"１６號","E_COORD97":168672.31,"N_COORD97":2544724.2400000002,"ADDRESS":"公園南路１５２巷１６號","OBJECTID":339543},"geometry":{"x":168672.31000000052,"y":2544724.2400000002}},{"attributes":{"ID":339553,"DIS_CODE":0,"TOWNNAME":"北區","LI":"三德里","LIN":"1鄰","STREET":"北華街","SECT":" ","MAREA":" ","LANE":"１７０巷","ALLEY":" ","HOUSE_NO":"４號之１３","E_COORD97":168548.57999999999,"N_COORD97":2544661.4300000002,"ADDRESS":"北華街１７０巷４號之１３","OBJECTID":339544},"geometry":{"x":168548.58000000194,"y":2544661.4299999997}},{"attributes":{"ID":339554,"DIS_CODE":0,"TOWNNAME":"北區","LI":"三德里","LIN":"1鄰","STREET":"北華街","SECT":" ","MAREA":" ","LANE":"１７０巷","ALLEY":" ","HOUSE_NO":"４號之１４","E_COORD97":168539.60999999999,"N_COORD97":2544662.71,"ADDRESS":"北華街１７０巷４號之１４","OBJECTID":339545},"geometry":{"x":168539.61000000034,"y":2544662.7100000028}},{"attributes":{"ID":339555,"DIS_CODE":0,"TOWNNAME":"北區","LI":"三德里","LIN":"1鄰","STREET":"北華街","SECT":" ","MAREA":" ","LANE":"１７０巷","ALLEY":" ","HOUSE_NO":"４號之１５","E_COORD97":168539.13,"N_COORD97":2544670.7000000002,"ADDRESS":"北華街１７０巷４號之１５","OBJECTID":339546},"geometry":{"x":168539.12999999989,"y":2544670.7000000011}},{"attributes":{"ID":339556,"DIS_CODE":0,"TOWNNAME":"北區","LI":"三德里","LIN":"1鄰","STREET":"北華街","SECT":" ","MAREA":" ","LANE":"１７０巷","ALLEY":" ","HOUSE_NO":"４號之１６","E_COORD97":168539.92999999999,"N_COORD97":2544677.5800000001,"ADDRESS":"北華街１７０巷４號之１６","OBJECTID":339547},"geometry":{"x":168539.9299999997,"y":2544677.5800000001}},{"attributes":{"ID":339557,"DIS_CODE":0,"TOWNNAME":"北區","LI":"三德里","LIN":"1鄰","STREET":"北華街","SECT":" ","MAREA":" ","LANE":"１７０巷","ALLEY":" ","HOUSE_NO":"４號之１７","E_COORD97":168541.53,"N_COORD97":2544682.8500000001,"ADDRESS":"北華街１７０巷４號之１７","OBJECTID":339548},"geometry":{"x":168541.53000000026,"y":2544682.8500000034}},{"attributes":{"ID":339558,"DIS_CODE":0,"TOWNNAME":"北區","LI":"三德里","LIN":"1鄰","STREET":"北華街","SECT":" ","MAREA":" ","LANE":"１７０巷","ALLEY":" ","HOUSE_NO":"４號之１８","E_COORD97":168544.10000000001,"N_COORD97":2544687.4900000002,"ADDRESS":"北華街１７０巷４號之１８","OBJECTID":339549},"geometry":{"x":168544.09999999963,"y":2544687.4900000002}},{"attributes":{"ID":339559,"DIS_CODE":0,"TOWNNAME":"北區","LI":"三德里","LIN":"1鄰","STREET":"北華街","SECT":" ","MAREA":" ","LANE":"１７０巷","ALLEY":" ","HOUSE_NO":"４號之１９","E_COORD97":168546.34,"N_COORD97":2544690.8500000001,"ADDRESS":"北華街１７０巷４號之１９","OBJECTID":339550},"geometry":{"x":168546.33999999985,"y":2544690.8500000015}},{"attributes":{"ID":339560,"DIS_CODE":0,"TOWNNAME":"北區","LI":"三德里","LIN":"1鄰","STREET":"北華街","SECT":" ","MAREA":" ","LANE":"１７０巷","ALLEY":" ","HOUSE_NO":"４號之２０","E_COORD97":168549.67999999999,"N_COORD97":2544696.8900000001,"ADDRESS":"北華街１７０巷４號之２０","OBJECTID":339551},"geometry":{"x":168549.68000000063,"y":2544696.8900000043}},{"attributes":{"ID":339561,"DIS_CODE":0,"TOWNNAME":"北區","LI":"長德里","LIN":"1鄰","STREET":"公園南路","SECT":" ","MAREA":" ","LANE":"１３０巷","ALLEY":" ","HOUSE_NO":"１１號","E_COORD97":168731.42999999999,"N_COORD97":2544689.9700000002,"ADDRESS":"公園南路１３０巷１１號","OBJECTID":339552},"geometry":{"x":168731.4299999997,"y":2544689.9700000025}},{"attributes":{"ID":339562,"DIS_CODE":0,"TOWNNAME":"新市區","LI":"新和里","LIN":"8鄰","STREET":"仁愛街","SECT":" ","MAREA":" ","LANE":" ","ALLEY":" ","HOUSE_NO":"８１號","E_COORD97":177528.09,"N_COORD97":2552475.7799999998,"ADDRESS":"仁愛街８１號","OBJECTID":339553},"geometry":{"x":177528.09000000078,"y":2552475.7799999993}},{"attributes":{"ID":339563,"DIS_CODE":0,"TOWNNAME":"新市區","LI":"新和里","LIN":"8鄰","STREET":"仁愛街","SECT":" ","MAREA":" ","LANE":" ","ALLEY":" ","HOUSE_NO":"９０號","E_COORD97":177539,"N_COORD97":2552449.5299999998,"ADDRESS":"仁愛街９０號","OBJECTID":339554},"geometry":{"x":177539.00000000093,"y":2552449.5300000012}},{"attributes":{"ID":339564,"DIS_CODE":0,"TOWNNAME":"新市區","LI":"新市里","LIN":"8鄰","STREET":"中正路","SECT":" ","MAREA":" ","LANE":" ","ALLEY":" ","HOUSE_NO":"２４９號","E_COORD97":177470.79000000001,"N_COORD97":2553190.5,"ADDRESS":"中正路２４９號","OBJECTID":339555},"geometry":{"x":177470.79000000097,"y":2553190.5}},{"attributes":{"ID":339565,"DIS_CODE":0,"TOWNNAME":"新市區","LI":"新市里","LIN":"8鄰","STREET":"中正路","SECT":" ","MAREA":" ","LANE":" ","ALLEY":" ","HOUSE_NO":"２４５號","E_COORD97":177465.10000000001,"N_COORD97":2553184.25,"ADDRESS":"中正路２４５號","OBJECTID":339556},"geometry":{"x":177465.10000000056,"y":2553184.2500000019}},{"attributes":{"ID":339566,"DIS_CODE":0,"TOWNNAME":"新市區","LI":"永就里","LIN":"8鄰","STREET":"中華路","SECT":" ","MAREA":" ","LANE":" ","ALLEY":" ","HOUSE_NO":"５６號","E_COORD97":177557.04000000001,"N_COORD97":2551684.25,"ADDRESS":"中華路５６號","OBJECTID":339557},"geometry":{"x":177557.0400000019,"y":2551684.25}},{"attributes":{"ID":339567,"DIS_CODE":0,"TOWNNAME":"歸仁區","LI":"媽廟里","LIN":"5鄰","STREET":"和順路","SECT":"一段","MAREA":" ","LANE":" ","ALLEY":" ","HOUSE_NO":"６號","E_COORD97":177546.12,"N_COORD97":2543727.7200000002,"ADDRESS":"和順路一段６號","OBJECTID":339558},"geometry":{"x":177546.12000000011,"y":2543727.7200000007}},{"attributes":{"ID":339568,"DIS_CODE":0,"TOWNNAME":"後壁區","LI":"嘉苳里","LIN":"5鄰","STREET":" ","SECT":" ","MAREA":"下茄苳","LANE":" ","ALLEY":" ","HOUSE_NO":"６２號","E_COORD97":184997.95999999999,"N_COORD97":2583304.21,"ADDRESS":"下茄苳６２號","OBJECTID":339559},"geometry":{"x":184997.96000000089,"y":2583304.2100000009}},{"attributes":{"ID":339569,"DIS_CODE":0,"TOWNNAME":"安南區","LI":"梅花里","LIN":"5鄰","STREET":"安中路","SECT":"一段","MAREA":" ","LANE":"６９９巷","ALLEY":" ","HOUSE_NO":"４７號之２","E_COORD97":167574.70000000001,"N_COORD97":2549091.23,"ADDRESS":"安中路一段６９９巷４７號之２","OBJECTID":339560},"geometry":{"x":167574.70000000205,"y":2549091.2300000004}},{"attributes":{"ID":339570,"DIS_CODE":0,"TOWNNAME":"後壁區","LI":"嘉苳里","LIN":"5鄰","STREET":" ","SECT":" ","MAREA":"下茄苳","LANE":" ","ALLEY":" ","HOUSE_NO":"６３號","E_COORD97":185021.13,"N_COORD97":2583309.2200000002,"ADDRESS":"下茄苳６３號","OBJECTID":339561},"geometry":{"x":185021.12999999989,"y":2583309.2200000025}},{"attributes":{"ID":339571,"DIS_CODE":0,"TOWNNAME":"永康區","LI":"網寮里","LIN":"5鄰","STREET":"永勝街","SECT":" ","MAREA":" ","LANE":"１０６巷","ALLEY":" ","HOUSE_NO":"１３號","E_COORD97":173572.63,"N_COORD97":2546385.2599999998,"ADDRESS":"永勝街１０６巷１３號","OBJECTID":339562},"geometry":{"x":173572.63000000082,"y":2546385.2600000035}},{"attributes":{"ID":339572,"DIS_CODE":0,"TOWNNAME":"北區","LI":"長德里","LIN":"1鄰","STREET":"公園南路","SECT":" ","MAREA":" ","LANE":"１３０巷","ALLEY":" ","HOUSE_NO":"１號","E_COORD97":168713.76000000001,"N_COORD97":2544684.4300000002,"ADDRESS":"公園南路１３０巷１號","OBJECTID":339563},"geometry":{"x":168713.76000000071,"y":2544684.4299999997}},{"attributes":{"ID":339573,"DIS_CODE":0,"TOWNNAME":"北區","LI":"長德里","LIN":"1鄰","STREET":"公園南路","SECT":" ","MAREA":" ","LANE":"１３０巷","ALLEY":" ","HOUSE_NO":"３號","E_COORD97":168718.26000000001,"N_COORD97":2544685.1299999999,"ADDRESS":"公園南路１３０巷３號","OBJECTID":339564},"geometry":{"x":168718.26000000164,"y":2544685.129999999}},{"attributes":{"ID":339574,"DIS_CODE":0,"TOWNNAME":"北區","LI":"長德里","LIN":"1鄰","STREET":"公園南路","SECT":" ","MAREA":" ","LANE":"１３０巷","ALLEY":" ","HOUSE_NO":"５號","E_COORD97":168722.07000000001,"N_COORD97":2544686.1600000001,"ADDRESS":"公園南路１３０巷５號","OBJECTID":339565},"geometry":{"x":168722.07000000123,"y":2544686.1600000001}},{"attributes":{"ID":339575,"DIS_CODE":0,"TOWNNAME":"北區","LI":"長德里","LIN":"1鄰","STREET":"公園南路","SECT":" ","MAREA":" ","LANE":"１３０巷","ALLEY":" ","HOUSE_NO":"７號","E_COORD97":168724.84,"N_COORD97":2544686.8599999999,"ADDRESS":"公園南路１３０巷７號","OBJECTID":339566},"geometry":{"x":168724.84000000078,"y":2544686.8600000013}},{"attributes":{"ID":339576,"DIS_CODE":0,"TOWNNAME":"北區","LI":"長德里","LIN":"1鄰","STREET":"公園南路","SECT":" ","MAREA":" ","LANE":"１３０巷","ALLEY":" ","HOUSE_NO":"９號","E_COORD97":168728.31,"N_COORD97":2544687.5499999998,"ADDRESS":"公園南路１３０巷９號","OBJECTID":339567},"geometry":{"x":168728.31000000052,"y":2544687.5500000007}},{"attributes":{"ID":339577,"DIS_CODE":0,"TOWNNAME":"北區","LI":"長德里","LIN":"1鄰","STREET":"公園南路","SECT":" ","MAREA":" ","LANE":"１５２巷","ALLEY":" ","HOUSE_NO":"１號","E_COORD97":168667.64000000001,"N_COORD97":2544701.2400000002,"ADDRESS":"公園南路１５２巷１號","OBJECTID":339568},"geometry":{"x":168667.63999999966,"y":2544701.2400000021}},{"attributes":{"ID":339578,"DIS_CODE":0,"TOWNNAME":"北區","LI":"長德里","LIN":"1鄰","STREET":"公園南路","SECT":" ","MAREA":" ","LANE":"１５２巷","ALLEY":" ","HOUSE_NO":"５之３號","E_COORD97":168646.16,"N_COORD97":2544720.9700000002,"ADDRESS":"公園南路１５２巷５之３號","OBJECTID":339569},"geometry":{"x":168646.16000000015,"y":2544720.9700000025}},{"attributes":{"ID":339579,"DIS_CODE":0,"TOWNNAME":"北區","LI":"長德里","LIN":"1鄰","STREET":"公園南路","SECT":" ","MAREA":" ","LANE":"１５２巷","ALLEY":" ","HOUSE_NO":"５號","E_COORD97":168662.79000000001,"N_COORD97":2544710.5899999999,"ADDRESS":"公園南路１５２巷５號","OBJECTID":339570},"geometry":{"x":168662.79000000097,"y":2544710.5899999999}},{"attributes":{"ID":339580,"DIS_CODE":0,"TOWNNAME":"北區","LI":"長德里","LIN":"1鄰","STREET":"公園南路","SECT":" ","MAREA":" ","LANE":"９６巷","ALLEY":" ","HOUSE_NO":"１１號","E_COORD97":168751.17000000001,"N_COORD97":2544680.2799999998,"ADDRESS":"公園南路９６巷１１號","OBJECTID":339571},"geometry":{"x":168751.17000000179,"y":2544680.2800000012}},{"attributes":{"ID":339581,"DIS_CODE":0,"TOWNNAME":"北區","LI":"長德里","LIN":"1鄰","STREET":"公園南路","SECT":" ","MAREA":" ","LANE":"９６巷","ALLEY":" ","HOUSE_NO":"１３號","E_COORD97":168752.20999999999,"N_COORD97":2544686.1600000001,"ADDRESS":"公園南路９６巷１３號","OBJECTID":339572},"geometry":{"x":168752.20999999996,"y":2544686.1600000001}},{"attributes":{"ID":339582,"DIS_CODE":0,"TOWNNAME":"北區","LI":"長德里","LIN":"1鄰","STREET":"公園南路","SECT":" ","MAREA":" ","LANE":"９６巷","ALLEY":" ","HOUSE_NO":"１５號","E_COORD97":168744.59,"N_COORD97":2544696.8900000001,"ADDRESS":"公園南路９６巷１５號","OBJECTID":339573},"geometry":{"x":168744.58999999985,"y":2544696.8900000043}},{"attributes":{"ID":339583,"DIS_CODE":0,"TOWNNAME":"北區","LI":"長德里","LIN":"1鄰","STREET":"公園南路","SECT":" ","MAREA":" ","LANE":"９６巷","ALLEY":" ","HOUSE_NO":"１９號","E_COORD97":168750.48000000001,"N_COORD97":2544699.3100000001,"ADDRESS":"公園南路９６巷１９號","OBJECTID":339574},"geometry":{"x":168750.48000000045,"y":2544699.3100000005}},{"attributes":{"ID":339584,"DIS_CODE":0,"TOWNNAME":"北區","LI":"長德里","LIN":"1鄰","STREET":"公園南路","SECT":" ","MAREA":" ","LANE":"９６巷","ALLEY":" ","HOUSE_NO":"１號","E_COORD97":168729,"N_COORD97":2544697.9300000002,"ADDRESS":"公園南路９６巷１號","OBJECTID":339575},"geometry":{"x":168729.00000000093,"y":2544697.9299999997}},{"attributes":{"ID":339585,"DIS_CODE":0,"TOWNNAME":"北區","LI":"長德里","LIN":"1鄰","STREET":"公園南路","SECT":" ","MAREA":" ","LANE":"９６巷","ALLEY":" ","HOUSE_NO":"２０號","E_COORD97":168758.45000000001,"N_COORD97":2544686.8599999999,"ADDRESS":"公園南路９６巷２０號","OBJECTID":339576},"geometry":{"x":168758.45000000112,"y":2544686.8600000013}},{"attributes":{"ID":339586,"DIS_CODE":0,"TOWNNAME":"北區","LI":"長德里","LIN":"1鄰","STREET":"公園南路","SECT":" ","MAREA":" ","LANE":"９６巷","ALLEY":" ","HOUSE_NO":"２２號","E_COORD97":168757.41,"N_COORD97":2544695.1499999999,"ADDRESS":"公園南路９６巷２２號","OBJECTID":339577},"geometry":{"x":168757.41000000015,"y":2544695.1500000041}},{"attributes":{"ID":339587,"DIS_CODE":0,"TOWNNAME":"北區","LI":"長德里","LIN":"1鄰","STREET":"公園南路","SECT":" ","MAREA":" ","LANE":"９６巷","ALLEY":" ","HOUSE_NO":"２６號","E_COORD97":168756.37,"N_COORD97":2544697.9300000002,"ADDRESS":"公園南路９６巷２６號","OBJECTID":339578},"geometry":{"x":168756.37000000011,"y":2544697.9299999997}},{"attributes":{"ID":339588,"DIS_CODE":0,"TOWNNAME":"北區","LI":"長德里","LIN":"1鄰","STREET":"公園南路","SECT":" ","MAREA":" ","LANE":"９６巷","ALLEY":" ","HOUSE_NO":"３０號","E_COORD97":168757.41,"N_COORD97":2544702.77,"ADDRESS":"公園南路９６巷３０號","OBJECTID":339579},"geometry":{"x":168757.41000000015,"y":2544702.7699999996}},{"attributes":{"ID":339589,"DIS_CODE":0,"TOWNNAME":"北區","LI":"長德里","LIN":"1鄰","STREET":"公園南路","SECT":" ","MAREA":" ","LANE":"９６巷","ALLEY":" ","HOUSE_NO":"３號","E_COORD97":168732.81,"N_COORD97":2544700.3500000001,"ADDRESS":"公園南路９６巷３號","OBJECTID":339580},"geometry":{"x":168732.80999999866,"y":2544700.3500000015}},{"attributes":{"ID":339590,"DIS_CODE":0,"TOWNNAME":"北區","LI":"長德里","LIN":"1鄰","STREET":"公園南路","SECT":" ","MAREA":" ","LANE":"９６巷","ALLEY":" ","HOUSE_NO":"７號","E_COORD97":168736.62,"N_COORD97":2544701.04,"ADDRESS":"公園南路９６巷７號","OBJECTID":339581},"geometry":{"x":168736.62000000104,"y":2544701.0400000028}},{"attributes":{"ID":339591,"DIS_CODE":0,"TOWNNAME":"北區","LI":"長德里","LIN":"1鄰","STREET":"公園南路","SECT":" ","MAREA":" ","LANE":"９６巷","ALLEY":" ","HOUSE_NO":"９號","E_COORD97":168736.28,"N_COORD97":2544695.8500000001,"ADDRESS":"公園南路９６巷９號","OBJECTID":339582},"geometry":{"x":168736.28000000119,"y":2544695.8499999996}},{"attributes":{"ID":339592,"DIS_CODE":0,"TOWNNAME":"北區","LI":"成功里","LIN":"1鄰","STREET":"北安路","SECT":"一段","MAREA":" ","LANE":"９４巷","ALLEY":" ","HOUSE_NO":"１０號","E_COORD97":169100.72,"N_COORD97":2546378.3199999998,"ADDRESS":"北安路一段９４巷１０號","OBJECTID":339583},"geometry":{"x":169100.71999999974,"y":2546378.3200000003}},{"attributes":{"ID":339593,"DIS_CODE":0,"TOWNNAME":"北區","LI":"成功里","LIN":"1鄰","STREET":"北安路","SECT":"一段","MAREA":" ","LANE":"９４巷","ALLEY":" ","HOUSE_NO":"１２號","E_COORD97":169104.09,"N_COORD97":2546385.0600000001,"ADDRESS":"北安路一段９４巷１２號","OBJECTID":339584},"geometry":{"x":169104.08999999892,"y":2546385.0600000024}},{"attributes":{"ID":339594,"DIS_CODE":0,"TOWNNAME":"北區","LI":"成功里","LIN":"1鄰","STREET":"北安路","SECT":"一段","MAREA":" ","LANE":"９４巷","ALLEY":" ","HOUSE_NO":"１４號","E_COORD97":169111.31,"N_COORD97":2546393.23,"ADDRESS":"北安路一段９４巷１４號","OBJECTID":339585},"geometry":{"x":169111.31000000052,"y":2546393.2300000042}},{"attributes":{"ID":339595,"DIS_CODE":0,"TOWNNAME":"新市區","LI":"永就里","LIN":"8鄰","STREET":"中華路","SECT":" ","MAREA":" ","LANE":" ","ALLEY":" ","HOUSE_NO":"９２號","E_COORD97":177635.70999999999,"N_COORD97":2551628.75,"ADDRESS":"中華路９２號","OBJECTID":339586},"geometry":{"x":177635.71000000089,"y":2551628.7500000019}},{"attributes":{"ID":339596,"DIS_CODE":0,"TOWNNAME":"新市區","LI":"新市里","LIN":"8鄰","STREET":"中正路","SECT":" ","MAREA":" ","LANE":" ","ALLEY":" ","HOUSE_NO":"２８３號","E_COORD97":177554.95000000001,"N_COORD97":2553230.75,"ADDRESS":"中正路２８３號","OBJECTID":339587},"geometry":{"x":177554.95000000112,"y":2553230.7500000037}},{"attributes":{"ID":339597,"DIS_CODE":0,"TOWNNAME":"新市區","LI":"新市里","LIN":"8鄰","STREET":"中正路","SECT":" ","MAREA":" ","LANE":" ","ALLEY":" ","HOUSE_NO":"２７１號","E_COORD97":177531.59,"N_COORD97":2553221.25,"ADDRESS":"中正路２７１號","OBJECTID":339588},"geometry":{"x":177531.59000000078,"y":2553221.2500000019}},{"attributes":{"ID":339598,"DIS_CODE":0,"TOWNNAME":"安南區","LI":"梅花里","LIN":"5鄰","STREET":"安中路","SECT":"一段","MAREA":" ","LANE":"６９９巷","ALLEY":" ","HOUSE_NO":"５１號","E_COORD97":167555.60000000001,"N_COORD97":2549122.5499999998,"ADDRESS":"安中路一段６９９巷５１號","OBJECTID":339589},"geometry":{"x":167555.59999999963,"y":2549122.5500000007}},{"attributes":{"ID":339599,"DIS_CODE":0,"TOWNNAME":"北區","LI":"成功里","LIN":"1鄰","STREET":"北安路","SECT":"一段","MAREA":" ","LANE":"９４巷","ALLEY":" ","HOUSE_NO":"１６號","E_COORD97":169114.69,"N_COORD97":2546398.0499999998,"ADDRESS":"北安路一段９４巷１６號","OBJECTID":339590},"geometry":{"x":169114.69000000134,"y":2546398.0500000045}},{"attributes":{"ID":339600,"DIS_CODE":0,"TOWNNAME":"後壁區","LI":"福安里","LIN":"5鄰","STREET":" ","SECT":" ","MAREA":"下寮","LANE":" ","ALLEY":" ","HOUSE_NO":"４５號之１","E_COORD97":184446.09,"N_COORD97":2580846.4399999999,"ADDRESS":"下寮４５號之１","OBJECTID":339591},"geometry":{"x":184446.09000000078,"y":2580846.4399999995}},{"attributes":{"ID":339601,"DIS_CODE":0,"TOWNNAME":"後壁區","LI":"福安里","LIN":"5鄰","STREET":" ","SECT":" ","MAREA":"下寮","LANE":" ","ALLEY":" ","HOUSE_NO":"４５號","E_COORD97":184458.79999999999,"N_COORD97":2580845.5699999998,"ADDRESS":"下寮４５號","OBJECTID":339592},"geometry":{"x":184458.79999999981,"y":2580845.5700000003}},{"attributes":{"ID":339602,"DIS_CODE":0,"TOWNNAME":"北區","LI":"成功里","LIN":"1鄰","STREET":"北安路","SECT":"一段","MAREA":" ","LANE":"９４巷","ALLEY":" ","HOUSE_NO":"１８號","E_COORD97":169118.54000000001,"N_COORD97":2546403.3399999999,"ADDRESS":"北安路一段９４巷１８號","OBJECTID":339593},"geometry":{"x":169118.54000000097,"y":2546403.3400000017}},{"attributes":{"ID":339603,"DIS_CODE":0,"TOWNNAME":"北區","LI":"成功里","LIN":"1鄰","STREET":"北安路","SECT":"一段","MAREA":" ","LANE":"９４巷","ALLEY":" ","HOUSE_NO":"２０號","E_COORD97":169122.39000000001,"N_COORD97":2546407.6699999999,"ADDRESS":"北安路一段９４巷２０號","OBJECTID":339594},"geometry":{"x":169122.39000000153,"y":2546407.6700000018}},{"attributes":{"ID":339604,"DIS_CODE":0,"TOWNNAME":"北區","LI":"成功里","LIN":"1鄰","STREET":"北安路","SECT":"一段","MAREA":" ","LANE":"９４巷","ALLEY":" ","HOUSE_NO":"２２號","E_COORD97":169127.20999999999,"N_COORD97":2546412.48,"ADDRESS":"北安路一段９４巷２２號","OBJECTID":339595},"geometry":{"x":169127.21000000183,"y":2546412.4800000023}},{"attributes":{"ID":339605,"DIS_CODE":0,"TOWNNAME":"後壁區","LI":"福安里","LIN":"5鄰","STREET":" ","SECT":" ","MAREA":"下寮","LANE":" ","ALLEY":" ","HOUSE_NO":"４６號之１","E_COORD97":184498.31,"N_COORD97":2580833,"ADDRESS":"下寮４６號之１","OBJECTID":339596},"geometry":{"x":184498.31000000052,"y":2580833}},{"attributes":{"ID":339606,"DIS_CODE":0,"TOWNNAME":"後壁區","LI":"福安里","LIN":"5鄰","STREET":" ","SECT":" ","MAREA":"下寮","LANE":" ","ALLEY":" ","HOUSE_NO":"４６號","E_COORD97":184477.42000000001,"N_COORD97":2580836.46,"ADDRESS":"下寮４６號","OBJECTID":339597},"geometry":{"x":184477.42000000179,"y":2580836.4600000028}},{"attributes":{"ID":339607,"DIS_CODE":0,"TOWNNAME":"北區","LI":"成功里","LIN":"1鄰","STREET":"北安路","SECT":"一段","MAREA":" ","LANE":"９４巷","ALLEY":" ","HOUSE_NO":"２４號","E_COORD97":169131.54000000001,"N_COORD97":2546416.8100000001,"ADDRESS":"北安路一段９４巷２４號","OBJECTID":339598},"geometry":{"x":169131.54000000004,"y":2546416.8100000024}},{"attributes":{"ID":339608,"DIS_CODE":0,"TOWNNAME":"北區","LI":"成功里","LIN":"1鄰","STREET":"北安路","SECT":"一段","MAREA":" ","LANE":"９４巷","ALLEY":" ","HOUSE_NO":"２６號","E_COORD97":169132.98999999999,"N_COORD97":2546422.1000000001,"ADDRESS":"北安路一段９４巷２６號","OBJECTID":339599},"geometry":{"x":169132.99000000115,"y":2546422.0999999996}},{"attributes":{"ID":339609,"DIS_CODE":0,"TOWNNAME":"後壁區","LI":"福安里","LIN":"5鄰","STREET":" ","SECT":" ","MAREA":"下寮","LANE":" ","ALLEY":" ","HOUSE_NO":"４７號之２","E_COORD97":184530.87,"N_COORD97":2580814.5299999998,"ADDRESS":"下寮４７號之２","OBJECTID":339600},"geometry":{"x":184530.87000000104,"y":2580814.5299999993}}]}