{"displayFieldName":"TOWNNAME","fieldAliases":{"ID":"ID","DIS_CODE":"DIS_CODE","TOWNNAME":"TOWNNAME","LI":"LI","LIN":"LIN","STREET":"STREET","SECT":"SECT","MAREA":"MAREA","LANE":"LANE","ALLEY":"ALLEY","HOUSE_NO":"HOUSE_NO","E_COORD97":"E_COORD97","N_COORD97":"N_COORD97","ADDRESS":"ADDRESS","OBJECTID":"OBJECTID"},"geometryType":"esriGeometryPoint","spatialReference":{"wkid":102443,"latestWkid":3826},"fields":[{"name":"ID","type":"esriFieldTypeDouble","alias":"ID"},{"name":"DIS_CODE","type":"esriFieldTypeInteger","alias":"DIS_CODE"},{"name":"TOWNNAME","type":"esriFieldTypeString","alias":"TOWNNAME","length":8},{"name":"LI","type":"esriFieldTypeString","alias":"LI","length":8},{"name":"LIN","type":"esriFieldTypeString","alias":"LIN","length":12},{"name":"STREET","type":"esriFieldTypeString","alias":"STREET","length":20},{"name":"SECT","type":"esriFieldTypeString","alias":"SECT","length":8},{"name":"MAREA","type":"esriFieldTypeString","alias":"MAREA","length":12},{"name":"LANE","type":"esriFieldTypeString","alias":"LANE","length":10},{"name":"ALLEY","type":"esriFieldTypeString","alias":"ALLEY","length":10},{"name":"HOUSE_NO","type":"esriFieldTypeString","alias":"HOUSE_NO","length":20},{"name":"E_COORD97","type":"esriFieldTypeDouble","alias":"E_COORD97"},{"name":"N_COORD97","type":"esriFieldTypeDouble","alias":"N_COORD97"},{"name":"ADDRESS","type":"esriFieldTypeString","alias":"ADDRESS","length":50},{"name":"OBJECTID","type":"esriFieldTypeOID","alias":"OBJECTID"}],"features":[{"attributes":{"ID":66801,"DIS_CODE":0,"TOWNNAME":"白河區","LI":"昇安里","LIN":"1鄰","STREET":" ","SECT":" ","MAREA":"三間厝","LANE":" ","ALLEY":" ","HOUSE_NO":"３９２號","E_COORD97":191606.07999999999,"N_COORD97":2585751.3500000001,"ADDRESS":"三間厝３９２號","OBJECTID":66801},"geometry":{"x":191606.08000000007,"y":2585751.3500000015}},{"attributes":{"ID":66802,"DIS_CODE":0,"TOWNNAME":"白河區","LI":"昇安里","LIN":"1鄰","STREET":" ","SECT":" ","MAREA":"三間厝","LANE":" ","ALLEY":" ","HOUSE_NO":"３９３號","E_COORD97":191608.95999999999,"N_COORD97":2585759.8700000001,"ADDRESS":"三間厝３９３號","OBJECTID":66802},"geometry":{"x":191608.96000000183,"y":2585759.8700000029}},{"attributes":{"ID":66803,"DIS_CODE":0,"TOWNNAME":"白河區","LI":"昇安里","LIN":"1鄰","STREET":" ","SECT":" ","MAREA":"三間厝","LANE":" ","ALLEY":" ","HOUSE_NO":"３９４號","E_COORD97":191610.34,"N_COORD97":2585764.27,"ADDRESS":"三間厝３９４號","OBJECTID":66803},"geometry":{"x":191610.34000000078,"y":2585764.2700000033}},{"attributes":{"ID":66804,"DIS_CODE":0,"TOWNNAME":"白河區","LI":"昇安里","LIN":"1鄰","STREET":" ","SECT":" ","MAREA":"三間厝","LANE":" ","ALLEY":" ","HOUSE_NO":"３９５號","E_COORD97":191611.70999999999,"N_COORD97":2585768.6600000001,"ADDRESS":"三間厝３９５號","OBJECTID":66804},"geometry":{"x":191611.70999999996,"y":2585768.6600000001}},{"attributes":{"ID":66805,"DIS_CODE":0,"TOWNNAME":"白河區","LI":"昇安里","LIN":"1鄰","STREET":" ","SECT":" ","MAREA":"三間厝","LANE":" ","ALLEY":" ","HOUSE_NO":"３９６號","E_COORD97":191613.07999999999,"N_COORD97":2585773.0600000001,"ADDRESS":"三間厝３９６號","OBJECTID":66805},"geometry":{"x":191613.08000000007,"y":2585773.0600000005}},{"attributes":{"ID":66806,"DIS_CODE":0,"TOWNNAME":"白河區","LI":"昇安里","LIN":"1鄰","STREET":" ","SECT":" ","MAREA":"三間厝","LANE":" ","ALLEY":" ","HOUSE_NO":"３９７號","E_COORD97":191614.45999999999,"N_COORD97":2585777.4500000002,"ADDRESS":"三間厝３９７號","OBJECTID":66806},"geometry":{"x":191614.46000000089,"y":2585777.4500000011}},{"attributes":{"ID":66807,"DIS_CODE":0,"TOWNNAME":"白河區","LI":"昇安里","LIN":"1鄰","STREET":" ","SECT":" ","MAREA":"三間厝","LANE":" ","ALLEY":" ","HOUSE_NO":"３９８號","E_COORD97":191615.82999999999,"N_COORD97":2585781.8500000001,"ADDRESS":"三間厝３９８號","OBJECTID":66807},"geometry":{"x":191615.83000000007,"y":2585781.8500000015}},{"attributes":{"ID":66808,"DIS_CODE":0,"TOWNNAME":"白河區","LI":"昇安里","LIN":"1鄰","STREET":" ","SECT":" ","MAREA":"三間厝","LANE":" ","ALLEY":" ","HOUSE_NO":"３９９號","E_COORD97":191617.20000000001,"N_COORD97":2585786.2400000002,"ADDRESS":"三間厝３９９號","OBJECTID":66808},"geometry":{"x":191617.20000000019,"y":2585786.2400000021}},{"attributes":{"ID":66809,"DIS_CODE":0,"TOWNNAME":"永康區","LI":"成功里","LIN":"36鄰","STREET":"中華路","SECT":" ","MAREA":" ","LANE":"１５４巷","ALLEY":"８７弄","HOUSE_NO":"１２號","E_COORD97":171823.29999999999,"N_COORD97":2544942.7400000002,"ADDRESS":"中華路１５４巷８７弄１２號","OBJECTID":66809},"geometry":{"x":171823.29999999981,"y":2544942.7400000021}},{"attributes":{"ID":66810,"DIS_CODE":0,"TOWNNAME":"南區","LI":"南都里","LIN":"6鄰","STREET":"中華南路","SECT":"二段","MAREA":" ","LANE":"３１５巷","ALLEY":"１２弄","HOUSE_NO":"２０號二樓","E_COORD97":166385.44,"N_COORD97":2540089.02,"ADDRESS":"中華南路二段３１５巷１２弄２０號二樓","OBJECTID":66810},"geometry":{"x":166385.44000000134,"y":2540089.0200000014}},{"attributes":{"ID":66811,"DIS_CODE":0,"TOWNNAME":"南區","LI":"南都里","LIN":"6鄰","STREET":"中華南路","SECT":"二段","MAREA":" ","LANE":"３１５巷","ALLEY":"１２弄","HOUSE_NO":"２０號三樓","E_COORD97":166385.44,"N_COORD97":2540089.02,"ADDRESS":"中華南路二段３１５巷１２弄２０號三樓","OBJECTID":66811},"geometry":{"x":166385.44000000134,"y":2540089.0200000014}},{"attributes":{"ID":66812,"DIS_CODE":0,"TOWNNAME":"南區","LI":"南都里","LIN":"6鄰","STREET":"中華南路","SECT":"二段","MAREA":" ","LANE":"３１５巷","ALLEY":"１２弄","HOUSE_NO":"２０號五樓","E_COORD97":166385.44,"N_COORD97":2540089.02,"ADDRESS":"中華南路二段３１５巷１２弄２０號五樓","OBJECTID":66812},"geometry":{"x":166385.44000000134,"y":2540089.0200000014}},{"attributes":{"ID":66813,"DIS_CODE":0,"TOWNNAME":"白河區","LI":"昇安里","LIN":"1鄰","STREET":" ","SECT":" ","MAREA":"三間厝","LANE":" ","ALLEY":" ","HOUSE_NO":"３之１號","E_COORD97":191425.44,"N_COORD97":2584691.1299999999,"ADDRESS":"三間厝３之１號","OBJECTID":66813},"geometry":{"x":191425.44000000134,"y":2584691.1300000008}},{"attributes":{"ID":66814,"DIS_CODE":0,"TOWNNAME":"白河區","LI":"昇安里","LIN":"1鄰","STREET":" ","SECT":" ","MAREA":"三間厝","LANE":" ","ALLEY":" ","HOUSE_NO":"３之２號","E_COORD97":191429.87,"N_COORD97":2584692.3599999999,"ADDRESS":"三間厝３之２號","OBJECTID":66814},"geometry":{"x":191429.87000000197,"y":2584692.3600000031}},{"attributes":{"ID":66815,"DIS_CODE":0,"TOWNNAME":"龍崎區","LI":"石\u25A0里","LIN":"8鄰","STREET":" ","SECT":" ","MAREA":"石子坑","LANE":" ","ALLEY":" ","HOUSE_NO":"８號","E_COORD97":189161.67000000001,"N_COORD97":2541134.2799999998,"ADDRESS":"石子坑８號","OBJECTID":66815},"geometry":{"x":189161.67000000086,"y":2541134.2800000012}},{"attributes":{"ID":66816,"DIS_CODE":0,"TOWNNAME":"白河區","LI":"昇安里","LIN":"1鄰","STREET":" ","SECT":" ","MAREA":"三間厝","LANE":" ","ALLEY":" ","HOUSE_NO":"３號","E_COORD97":191415.82000000001,"N_COORD97":2584688.96,"ADDRESS":"三間厝３號","OBJECTID":66816},"geometry":{"x":191415.82000000123,"y":2584688.9600000009}},{"attributes":{"ID":66817,"DIS_CODE":0,"TOWNNAME":"白河區","LI":"昇安里","LIN":"1鄰","STREET":" ","SECT":" ","MAREA":"三間厝","LANE":" ","ALLEY":" ","HOUSE_NO":"４００號","E_COORD97":191618.57000000001,"N_COORD97":2585790.6400000001,"ADDRESS":"三間厝４００號","OBJECTID":66817},"geometry":{"x":191618.57000000216,"y":2585790.6400000025}},{"attributes":{"ID":66818,"DIS_CODE":0,"TOWNNAME":"永康區","LI":"正強里","LIN":"18鄰","STREET":"自強路","SECT":" ","MAREA":" ","LANE":"１８８巷","ALLEY":"７６弄","HOUSE_NO":"８號","E_COORD97":173183.03,"N_COORD97":2547240.25,"ADDRESS":"自強路１８８巷７６弄８號","OBJECTID":66818},"geometry":{"x":173183.03000000026,"y":2547240.2500000037}},{"attributes":{"ID":66819,"DIS_CODE":0,"TOWNNAME":"南區","LI":"南都里","LIN":"6鄰","STREET":"中華南路","SECT":"二段","MAREA":" ","LANE":"３１５巷","ALLEY":"１２弄","HOUSE_NO":"２０號四樓","E_COORD97":166385.44,"N_COORD97":2540089.02,"ADDRESS":"中華南路二段３１５巷１２弄２０號四樓","OBJECTID":66819},"geometry":{"x":166385.44000000134,"y":2540089.0200000014}},{"attributes":{"ID":66820,"DIS_CODE":0,"TOWNNAME":"南區","LI":"南都里","LIN":"6鄰","STREET":"中華南路","SECT":"二段","MAREA":" ","LANE":"３１５巷","ALLEY":"１２弄","HOUSE_NO":"２號二樓","E_COORD97":166464.64000000001,"N_COORD97":2540088.3799999999,"ADDRESS":"中華南路二段３１５巷１２弄２號二樓","OBJECTID":66820},"geometry":{"x":166464.6400000006,"y":2540088.3800000008}},{"attributes":{"ID":66821,"DIS_CODE":0,"TOWNNAME":"南區","LI":"南都里","LIN":"6鄰","STREET":"中華南路","SECT":"二段","MAREA":" ","LANE":"３１５巷","ALLEY":"１２弄","HOUSE_NO":"２號三樓","E_COORD97":166464.64000000001,"N_COORD97":2540088.3799999999,"ADDRESS":"中華南路二段３１５巷１２弄２號三樓","OBJECTID":66821},"geometry":{"x":166464.6400000006,"y":2540088.3800000008}},{"attributes":{"ID":66822,"DIS_CODE":0,"TOWNNAME":"白河區","LI":"昇安里","LIN":"1鄰","STREET":" ","SECT":" ","MAREA":"三間厝","LANE":" ","ALLEY":" ","HOUSE_NO":"４０１號","E_COORD97":191619.95000000001,"N_COORD97":2585795.0299999998,"ADDRESS":"三間厝４０１號","OBJECTID":66822},"geometry":{"x":191619.95000000112,"y":2585795.0299999993}},{"attributes":{"ID":66823,"DIS_CODE":0,"TOWNNAME":"白河區","LI":"昇安里","LIN":"1鄰","STREET":" ","SECT":" ","MAREA":"三間厝","LANE":" ","ALLEY":" ","HOUSE_NO":"４０２號","E_COORD97":191621.32000000001,"N_COORD97":2585799.4300000002,"ADDRESS":"三間厝４０２號","OBJECTID":66823},"geometry":{"x":191621.3200000003,"y":2585799.4299999997}},{"attributes":{"ID":66824,"DIS_CODE":0,"TOWNNAME":"白河區","LI":"昇安里","LIN":"1鄰","STREET":" ","SECT":" ","MAREA":"三間厝","LANE":" ","ALLEY":" ","HOUSE_NO":"４０３之１號","E_COORD97":191623.63,"N_COORD97":2585808.0299999998,"ADDRESS":"三間厝４０３之１號","OBJECTID":66824},"geometry":{"x":191623.63000000082,"y":2585808.0300000012}},{"attributes":{"ID":66825,"DIS_CODE":0,"TOWNNAME":"白河區","LI":"昇安里","LIN":"1鄰","STREET":" ","SECT":" ","MAREA":"三間厝","LANE":" ","ALLEY":" ","HOUSE_NO":"４０３號","E_COORD97":191622.69,"N_COORD97":2585803.8300000001,"ADDRESS":"三間厝４０３號","OBJECTID":66825},"geometry":{"x":191622.69000000041,"y":2585803.8300000001}},{"attributes":{"ID":66826,"DIS_CODE":0,"TOWNNAME":"白河區","LI":"昇安里","LIN":"1鄰","STREET":" ","SECT":" ","MAREA":"三間厝","LANE":" ","ALLEY":" ","HOUSE_NO":"４０５號","E_COORD97":191584.01000000001,"N_COORD97":2585704.7599999998,"ADDRESS":"三間厝４０５號","OBJECTID":66826},"geometry":{"x":191584.00999999978,"y":2585704.7600000016}},{"attributes":{"ID":66827,"DIS_CODE":0,"TOWNNAME":"白河區","LI":"昇安里","LIN":"1鄰","STREET":" ","SECT":" ","MAREA":"三間厝","LANE":" ","ALLEY":" ","HOUSE_NO":"４０６號","E_COORD97":191578.23999999999,"N_COORD97":2585706.54,"ADDRESS":"三間厝４０６號","OBJECTID":66827},"geometry":{"x":191578.24000000022,"y":2585706.5399999991}},{"attributes":{"ID":66828,"DIS_CODE":0,"TOWNNAME":"白河區","LI":"昇安里","LIN":"1鄰","STREET":" ","SECT":" ","MAREA":"三間厝","LANE":" ","ALLEY":" ","HOUSE_NO":"４０７號","E_COORD97":191591.12,"N_COORD97":2585725.7999999998,"ADDRESS":"三間厝４０７號","OBJECTID":66828},"geometry":{"x":191591.12000000104,"y":2585725.8000000026}},{"attributes":{"ID":66829,"DIS_CODE":0,"TOWNNAME":"白河區","LI":"昇安里","LIN":"1鄰","STREET":" ","SECT":" ","MAREA":"三間厝","LANE":" ","ALLEY":" ","HOUSE_NO":"４０８號","E_COORD97":191585.29999999999,"N_COORD97":2585727.3199999998,"ADDRESS":"三間厝４０８號","OBJECTID":66829},"geometry":{"x":191585.29999999981,"y":2585727.320000004}},{"attributes":{"ID":66830,"DIS_CODE":0,"TOWNNAME":"白河區","LI":"昇安里","LIN":"1鄰","STREET":" ","SECT":" ","MAREA":"三間厝","LANE":" ","ALLEY":" ","HOUSE_NO":"４０９號","E_COORD97":191589.92000000001,"N_COORD97":2585742.23,"ADDRESS":"三間厝４０９號","OBJECTID":66830},"geometry":{"x":191589.91999999993,"y":2585742.2300000023}},{"attributes":{"ID":66831,"DIS_CODE":0,"TOWNNAME":"南區","LI":"南都里","LIN":"6鄰","STREET":"中華南路","SECT":"二段","MAREA":" ","LANE":"３１５巷","ALLEY":"１２弄","HOUSE_NO":"２號五樓","E_COORD97":166464.64000000001,"N_COORD97":2540088.3799999999,"ADDRESS":"中華南路二段３１５巷１２弄２號五樓","OBJECTID":66831},"geometry":{"x":166464.6400000006,"y":2540088.3800000008}},{"attributes":{"ID":66832,"DIS_CODE":0,"TOWNNAME":"白河區","LI":"昇安里","LIN":"1鄰","STREET":" ","SECT":" ","MAREA":"三間厝","LANE":" ","ALLEY":" ","HOUSE_NO":"４１２號","E_COORD97":191596.39999999999,"N_COORD97":2585764.29,"ADDRESS":"三間厝４１２號","OBJECTID":66832},"geometry":{"x":191596.4000000013,"y":2585764.290000001}},{"attributes":{"ID":66833,"DIS_CODE":0,"TOWNNAME":"南區","LI":"南都里","LIN":"6鄰","STREET":"中華南路","SECT":"二段","MAREA":" ","LANE":"３１５巷","ALLEY":"１２弄","HOUSE_NO":"２號四樓","E_COORD97":166464.64000000001,"N_COORD97":2540088.3799999999,"ADDRESS":"中華南路二段３１５巷１２弄２號四樓","OBJECTID":66833},"geometry":{"x":166464.6400000006,"y":2540088.3800000008}},{"attributes":{"ID":66834,"DIS_CODE":0,"TOWNNAME":"白河區","LI":"昇安里","LIN":"1鄰","STREET":" ","SECT":" ","MAREA":"三間厝","LANE":" ","ALLEY":" ","HOUSE_NO":"４１３號","E_COORD97":191601.56,"N_COORD97":2585780.6499999999,"ADDRESS":"三間厝４１３號","OBJECTID":66834},"geometry":{"x":191601.56000000052,"y":2585780.6500000022}},{"attributes":{"ID":66835,"DIS_CODE":0,"TOWNNAME":"白河區","LI":"昇安里","LIN":"1鄰","STREET":" ","SECT":" ","MAREA":"三間厝","LANE":" ","ALLEY":" ","HOUSE_NO":"４１４號","E_COORD97":191607.45999999999,"N_COORD97":2585779.2599999998,"ADDRESS":"三間厝４１４號","OBJECTID":66835},"geometry":{"x":191607.46000000089,"y":2585779.2600000016}},{"attributes":{"ID":66836,"DIS_CODE":0,"TOWNNAME":"南區","LI":"南都里","LIN":"6鄰","STREET":"中華南路","SECT":"二段","MAREA":" ","LANE":"３１５巷","ALLEY":"１２弄","HOUSE_NO":"４號二樓","E_COORD97":166455.92999999999,"N_COORD97":2540088.73,"ADDRESS":"中華南路二段３１５巷１２弄４號二樓","OBJECTID":66836},"geometry":{"x":166455.93000000063,"y":2540088.7300000004}},{"attributes":{"ID":66837,"DIS_CODE":0,"TOWNNAME":"白河區","LI":"昇安里","LIN":"1鄰","STREET":" ","SECT":" ","MAREA":"三間厝","LANE":" ","ALLEY":" ","HOUSE_NO":"４１５號","E_COORD97":191613.16,"N_COORD97":2585799.3799999999,"ADDRESS":"三間厝４１５號","OBJECTID":66837},"geometry":{"x":191613.16000000108,"y":2585799.379999999}},{"attributes":{"ID":66838,"DIS_CODE":0,"TOWNNAME":"白河區","LI":"昇安里","LIN":"1鄰","STREET":" ","SECT":" ","MAREA":"三間厝","LANE":" ","ALLEY":" ","HOUSE_NO":"４１６號","E_COORD97":191604.81,"N_COORD97":2585801.4100000001,"ADDRESS":"三間厝４１６號","OBJECTID":66838},"geometry":{"x":191604.81000000052,"y":2585801.4100000039}},{"attributes":{"ID":66839,"DIS_CODE":0,"TOWNNAME":"南區","LI":"南都里","LIN":"6鄰","STREET":"中華南路","SECT":"二段","MAREA":" ","LANE":"３１５巷","ALLEY":"１２弄","HOUSE_NO":"４號三樓","E_COORD97":166455.92999999999,"N_COORD97":2540088.73,"ADDRESS":"中華南路二段３１５巷１２弄４號三樓","OBJECTID":66839},"geometry":{"x":166455.93000000063,"y":2540088.7300000004}},{"attributes":{"ID":66840,"DIS_CODE":0,"TOWNNAME":"南區","LI":"南都里","LIN":"6鄰","STREET":"中華南路","SECT":"二段","MAREA":" ","LANE":"３１５巷","ALLEY":"１２弄","HOUSE_NO":"４號五樓","E_COORD97":166455.92999999999,"N_COORD97":2540088.73,"ADDRESS":"中華南路二段３１５巷１２弄４號五樓","OBJECTID":66840},"geometry":{"x":166455.93000000063,"y":2540088.7300000004}},{"attributes":{"ID":66841,"DIS_CODE":0,"TOWNNAME":"南區","LI":"南都里","LIN":"6鄰","STREET":"中華南路","SECT":"二段","MAREA":" ","LANE":"３１５巷","ALLEY":"１２弄","HOUSE_NO":"４號四樓","E_COORD97":166455.92999999999,"N_COORD97":2540088.73,"ADDRESS":"中華南路二段３１５巷１２弄４號四樓","OBJECTID":66841},"geometry":{"x":166455.93000000063,"y":2540088.7300000004}},{"attributes":{"ID":66842,"DIS_CODE":0,"TOWNNAME":"南區","LI":"南都里","LIN":"6鄰","STREET":"中華南路","SECT":"二段","MAREA":" ","LANE":"３１５巷","ALLEY":"１２弄","HOUSE_NO":"６號二樓","E_COORD97":166447.56,"N_COORD97":2540088.73,"ADDRESS":"中華南路二段３１５巷１２弄６號二樓","OBJECTID":66842},"geometry":{"x":166447.55999999959,"y":2540088.7300000004}},{"attributes":{"ID":66843,"DIS_CODE":0,"TOWNNAME":"麻豆區","LI":"小埤里","LIN":"1鄰","STREET":" ","SECT":" ","MAREA":"苓子林","LANE":" ","ALLEY":" ","HOUSE_NO":"１號之１５","E_COORD97":171952.32000000001,"N_COORD97":2564780.3300000001,"ADDRESS":"苓子林１號之１５","OBJECTID":66843},"geometry":{"x":171952.3200000003,"y":2564780.3300000001}},{"attributes":{"ID":66844,"DIS_CODE":0,"TOWNNAME":"麻豆區","LI":"小埤里","LIN":"1鄰","STREET":" ","SECT":" ","MAREA":"苓子林","LANE":" ","ALLEY":" ","HOUSE_NO":"１號之１８","E_COORD97":171935.19,"N_COORD97":2564747.1299999999,"ADDRESS":"苓子林１號之１８","OBJECTID":66844},"geometry":{"x":171935.19000000227,"y":2564747.129999999}},{"attributes":{"ID":66845,"DIS_CODE":0,"TOWNNAME":"麻豆區","LI":"小埤里","LIN":"1鄰","STREET":" ","SECT":" ","MAREA":"苓子林","LANE":" ","ALLEY":" ","HOUSE_NO":"１號之１","E_COORD97":171985.22,"N_COORD97":2564860.3900000001,"ADDRESS":"苓子林１號之１","OBJECTID":66845},"geometry":{"x":171985.22000000067,"y":2564860.3900000025}},{"attributes":{"ID":66846,"DIS_CODE":0,"TOWNNAME":"永康區","LI":"永康里","LIN":"8鄰","STREET":"永康街","SECT":" ","MAREA":" ","LANE":" ","ALLEY":" ","HOUSE_NO":"５９號","E_COORD97":173805.44,"N_COORD97":2547201.1899999999,"ADDRESS":"永康街５９號","OBJECTID":66846},"geometry":{"x":173805.44000000134,"y":2547201.1899999995}},{"attributes":{"ID":66847,"DIS_CODE":0,"TOWNNAME":"南區","LI":"南都里","LIN":"6鄰","STREET":"中華南路","SECT":"二段","MAREA":" ","LANE":"３１５巷","ALLEY":"１２弄","HOUSE_NO":"６號三樓","E_COORD97":166447.56,"N_COORD97":2540088.73,"ADDRESS":"中華南路二段３１５巷１２弄６號三樓","OBJECTID":66847},"geometry":{"x":166447.55999999959,"y":2540088.7300000004}},{"attributes":{"ID":66848,"DIS_CODE":0,"TOWNNAME":"南區","LI":"南都里","LIN":"6鄰","STREET":"中華南路","SECT":"二段","MAREA":" ","LANE":"３１５巷","ALLEY":"１２弄","HOUSE_NO":"６號五樓","E_COORD97":166447.56,"N_COORD97":2540088.73,"ADDRESS":"中華南路二段３１５巷１２弄６號五樓","OBJECTID":66848},"geometry":{"x":166447.55999999959,"y":2540088.7300000004}},{"attributes":{"ID":66849,"DIS_CODE":0,"TOWNNAME":"麻豆區","LI":"小埤里","LIN":"1鄰","STREET":" ","SECT":" ","MAREA":"苓子林","LANE":" ","ALLEY":" ","HOUSE_NO":"１號之２０","E_COORD97":171879.72,"N_COORD97":2564717.1600000001,"ADDRESS":"苓子林１號之２０","OBJECTID":66849},"geometry":{"x":171879.71999999974,"y":2564717.1600000001}},{"attributes":{"ID":66850,"DIS_CODE":0,"TOWNNAME":"麻豆區","LI":"小埤里","LIN":"1鄰","STREET":" ","SECT":" ","MAREA":"苓子林","LANE":" ","ALLEY":" ","HOUSE_NO":"１號之２","E_COORD97":171970.72,"N_COORD97":2564859.6800000002,"ADDRESS":"苓子林１號之２","OBJECTID":66850},"geometry":{"x":171970.71999999974,"y":2564859.6799999997}},{"attributes":{"ID":66851,"DIS_CODE":0,"TOWNNAME":"南區","LI":"南都里","LIN":"6鄰","STREET":"中華南路","SECT":"二段","MAREA":" ","LANE":"３１５巷","ALLEY":"１２弄","HOUSE_NO":"６號四樓","E_COORD97":166447.56,"N_COORD97":2540088.73,"ADDRESS":"中華南路二段３１５巷１２弄６號四樓","OBJECTID":66851},"geometry":{"x":166447.55999999959,"y":2540088.7300000004}},{"attributes":{"ID":66852,"DIS_CODE":0,"TOWNNAME":"麻豆區","LI":"小埤里","LIN":"1鄰","STREET":" ","SECT":" ","MAREA":"苓子林","LANE":" ","ALLEY":" ","HOUSE_NO":"１號之３０","E_COORD97":171845.28,"N_COORD97":2564616.9300000002,"ADDRESS":"苓子林１號之３０","OBJECTID":66852},"geometry":{"x":171845.28000000119,"y":2564616.9299999997}},{"attributes":{"ID":66853,"DIS_CODE":0,"TOWNNAME":"麻豆區","LI":"小埤里","LIN":"1鄰","STREET":" ","SECT":" ","MAREA":"苓子林","LANE":" ","ALLEY":" ","HOUSE_NO":"１號之３２","E_COORD97":171886.25,"N_COORD97":2564583.2200000002,"ADDRESS":"苓子林１號之３２","OBJECTID":66853},"geometry":{"x":171886.25,"y":2564583.2200000025}},{"attributes":{"ID":66854,"DIS_CODE":0,"TOWNNAME":"麻豆區","LI":"小埤里","LIN":"1鄰","STREET":" ","SECT":" ","MAREA":"苓子林","LANE":" ","ALLEY":" ","HOUSE_NO":"１號之３","E_COORD97":171852.56,"N_COORD97":2564952.0499999998,"ADDRESS":"苓子林１號之３","OBJECTID":66854},"geometry":{"x":171852.56000000052,"y":2564952.0500000007}},{"attributes":{"ID":66855,"DIS_CODE":0,"TOWNNAME":"麻豆區","LI":"小埤里","LIN":"1鄰","STREET":" ","SECT":" ","MAREA":"苓子林","LANE":" ","ALLEY":" ","HOUSE_NO":"１號之５","E_COORD97":171925.63,"N_COORD97":2564803.8300000001,"ADDRESS":"苓子林１號之５","OBJECTID":66855},"geometry":{"x":171925.62999999989,"y":2564803.8300000001}},{"attributes":{"ID":66856,"DIS_CODE":0,"TOWNNAME":"麻豆區","LI":"小埤里","LIN":"1鄰","STREET":" ","SECT":" ","MAREA":"苓子林","LANE":" ","ALLEY":" ","HOUSE_NO":"１號之７","E_COORD97":171915.76999999999,"N_COORD97":2564800.0699999998,"ADDRESS":"苓子林１號之７","OBJECTID":66856},"geometry":{"x":171915.77000000048,"y":2564800.0699999984}},{"attributes":{"ID":66857,"DIS_CODE":0,"TOWNNAME":"麻豆區","LI":"小埤里","LIN":"1鄰","STREET":" ","SECT":" ","MAREA":"苓子林","LANE":" ","ALLEY":" ","HOUSE_NO":"１號之８","E_COORD97":171907.73999999999,"N_COORD97":2564752.3399999999,"ADDRESS":"苓子林１號之８","OBJECTID":66857},"geometry":{"x":171907.74000000115,"y":2564752.3399999999}},{"attributes":{"ID":66858,"DIS_CODE":0,"TOWNNAME":"麻豆區","LI":"小埤里","LIN":"1鄰","STREET":" ","SECT":" ","MAREA":"苓子林","LANE":" ","ALLEY":" ","HOUSE_NO":"１號之９","E_COORD97":171885.39999999999,"N_COORD97":2564784,"ADDRESS":"苓子林１號之９","OBJECTID":66858},"geometry":{"x":171885.40000000037,"y":2564784.0000000019}},{"attributes":{"ID":66859,"DIS_CODE":0,"TOWNNAME":"麻豆區","LI":"小埤里","LIN":"1鄰","STREET":" ","SECT":" ","MAREA":"苓子林","LANE":" ","ALLEY":" ","HOUSE_NO":"１號","E_COORD97":171719.60000000001,"N_COORD97":2564972.5299999998,"ADDRESS":"苓子林１號","OBJECTID":66859},"geometry":{"x":171719.60000000149,"y":2564972.5300000031}},{"attributes":{"ID":66860,"DIS_CODE":0,"TOWNNAME":"麻豆區","LI":"小埤里","LIN":"1鄰","STREET":" ","SECT":" ","MAREA":"苓子林","LANE":" ","ALLEY":" ","HOUSE_NO":"２號之１０","E_COORD97":171850.64999999999,"N_COORD97":2565209.6200000001,"ADDRESS":"苓子林２號之１０","OBJECTID":66860},"geometry":{"x":171850.65000000224,"y":2565209.620000001}},{"attributes":{"ID":66861,"DIS_CODE":0,"TOWNNAME":"麻豆區","LI":"小埤里","LIN":"1鄰","STREET":" ","SECT":" ","MAREA":"苓子林","LANE":" ","ALLEY":" ","HOUSE_NO":"２號","E_COORD97":171697.29999999999,"N_COORD97":2564965.8799999999,"ADDRESS":"苓子林２號","OBJECTID":66861},"geometry":{"x":171697.29999999981,"y":2564965.879999999}},{"attributes":{"ID":66862,"DIS_CODE":0,"TOWNNAME":"麻豆區","LI":"小埤里","LIN":"1鄰","STREET":" ","SECT":" ","MAREA":"苓子林","LANE":" ","ALLEY":" ","HOUSE_NO":"３號之１","E_COORD97":171676.66,"N_COORD97":2564982.29,"ADDRESS":"苓子林３號之１","OBJECTID":66862},"geometry":{"x":171676.66000000015,"y":2564982.290000001}},{"attributes":{"ID":66863,"DIS_CODE":0,"TOWNNAME":"麻豆區","LI":"小埤里","LIN":"1鄰","STREET":" ","SECT":" ","MAREA":"苓子林","LANE":" ","ALLEY":" ","HOUSE_NO":"３號","E_COORD97":171694.14999999999,"N_COORD97":2564984.1499999999,"ADDRESS":"苓子林３號","OBJECTID":66863},"geometry":{"x":171694.15000000037,"y":2564984.1500000022}},{"attributes":{"ID":66864,"DIS_CODE":0,"TOWNNAME":"麻豆區","LI":"小埤里","LIN":"1鄰","STREET":" ","SECT":" ","MAREA":"苓子林","LANE":" ","ALLEY":" ","HOUSE_NO":"４號","E_COORD97":171668.67999999999,"N_COORD97":2564981.6200000001,"ADDRESS":"苓子林４號","OBJECTID":66864},"geometry":{"x":171668.68000000063,"y":2564981.6200000029}},{"attributes":{"ID":66865,"DIS_CODE":0,"TOWNNAME":"麻豆區","LI":"小埤里","LIN":"1鄰","STREET":" ","SECT":" ","MAREA":"苓子林","LANE":" ","ALLEY":" ","HOUSE_NO":"６號之１３","E_COORD97":171680.04000000001,"N_COORD97":2564742.1400000001,"ADDRESS":"苓子林６號之１３","OBJECTID":66865},"geometry":{"x":171680.04000000097,"y":2564742.1400000006}},{"attributes":{"ID":66866,"DIS_CODE":0,"TOWNNAME":"麻豆區","LI":"小埤里","LIN":"1鄰","STREET":" ","SECT":" ","MAREA":"苓子林","LANE":" ","ALLEY":" ","HOUSE_NO":"６號之１６","E_COORD97":171676.82999999999,"N_COORD97":2564726.8599999999,"ADDRESS":"苓子林６號之１６","OBJECTID":66866},"geometry":{"x":171676.83000000101,"y":2564726.8600000013}},{"attributes":{"ID":66867,"DIS_CODE":0,"TOWNNAME":"麻豆區","LI":"小埤里","LIN":"1鄰","STREET":" ","SECT":" ","MAREA":"苓子林","LANE":" ","ALLEY":" ","HOUSE_NO":"６號之１７","E_COORD97":171676.17000000001,"N_COORD97":2564722.6800000002,"ADDRESS":"苓子林６號之１７","OBJECTID":66867},"geometry":{"x":171676.17000000086,"y":2564722.6799999997}},{"attributes":{"ID":66868,"DIS_CODE":0,"TOWNNAME":"麻豆區","LI":"小埤里","LIN":"1鄰","STREET":" ","SECT":" ","MAREA":"苓子林","LANE":" ","ALLEY":" ","HOUSE_NO":"６號之１９","E_COORD97":171691.32000000001,"N_COORD97":2564711.3500000001,"ADDRESS":"苓子林６號之１９","OBJECTID":66868},"geometry":{"x":171691.3200000003,"y":2564711.3499999996}},{"attributes":{"ID":66869,"DIS_CODE":0,"TOWNNAME":"麻豆區","LI":"小埤里","LIN":"1鄰","STREET":" ","SECT":" ","MAREA":"苓子林","LANE":" ","ALLEY":" ","HOUSE_NO":"６號之１","E_COORD97":171712.76000000001,"N_COORD97":2564886.6699999999,"ADDRESS":"苓子林６號之１","OBJECTID":66869},"geometry":{"x":171712.75999999978,"y":2564886.6699999999}},{"attributes":{"ID":66870,"DIS_CODE":0,"TOWNNAME":"麻豆區","LI":"小埤里","LIN":"1鄰","STREET":" ","SECT":" ","MAREA":"苓子林","LANE":" ","ALLEY":" ","HOUSE_NO":"６號之２","E_COORD97":171707.20999999999,"N_COORD97":2564874.3300000001,"ADDRESS":"苓子林６號之２","OBJECTID":66870},"geometry":{"x":171707.20999999903,"y":2564874.3300000019}},{"attributes":{"ID":66871,"DIS_CODE":0,"TOWNNAME":"麻豆區","LI":"小埤里","LIN":"1鄰","STREET":" ","SECT":" ","MAREA":"苓子林","LANE":" ","ALLEY":" ","HOUSE_NO":"６號之３","E_COORD97":171691.23000000001,"N_COORD97":2564820.0499999998,"ADDRESS":"苓子林６號之３","OBJECTID":66871},"geometry":{"x":171691.23000000138,"y":2564820.0500000007}},{"attributes":{"ID":66872,"DIS_CODE":0,"TOWNNAME":"麻豆區","LI":"小埤里","LIN":"1鄰","STREET":" ","SECT":" ","MAREA":"苓子林","LANE":" ","ALLEY":" ","HOUSE_NO":"６號之５","E_COORD97":171701.48999999999,"N_COORD97":2564799.1600000001,"ADDRESS":"苓子林６號之５","OBJECTID":66872},"geometry":{"x":171701.49000000022,"y":2564799.1600000001}},{"attributes":{"ID":66873,"DIS_CODE":0,"TOWNNAME":"麻豆區","LI":"小埤里","LIN":"1鄰","STREET":" ","SECT":" ","MAREA":"苓子林","LANE":" ","ALLEY":" ","HOUSE_NO":"６號之８","E_COORD97":171686.60000000001,"N_COORD97":2564772.1600000001,"ADDRESS":"苓子林６號之８","OBJECTID":66873},"geometry":{"x":171686.59999999963,"y":2564772.1600000001}},{"attributes":{"ID":66874,"DIS_CODE":0,"TOWNNAME":"麻豆區","LI":"小埤里","LIN":"1鄰","STREET":" ","SECT":" ","MAREA":"苓子林","LANE":" ","ALLEY":" ","HOUSE_NO":"６號之９","E_COORD97":171684.56,"N_COORD97":2564764.3799999999,"ADDRESS":"苓子林６號之９","OBJECTID":66874},"geometry":{"x":171684.56000000052,"y":2564764.3800000008}},{"attributes":{"ID":66875,"DIS_CODE":0,"TOWNNAME":"麻豆區","LI":"小埤里","LIN":"1鄰","STREET":" ","SECT":" ","MAREA":"苓子林","LANE":" ","ALLEY":" ","HOUSE_NO":"７號之１０","E_COORD97":171665.59,"N_COORD97":2565035.73,"ADDRESS":"苓子林７號之１０","OBJECTID":66875},"geometry":{"x":171665.59000000171,"y":2565035.7300000004}},{"attributes":{"ID":66876,"DIS_CODE":0,"TOWNNAME":"麻豆區","LI":"小埤里","LIN":"1鄰","STREET":" ","SECT":" ","MAREA":"苓子林","LANE":" ","ALLEY":" ","HOUSE_NO":"７號之１","E_COORD97":171659.73000000001,"N_COORD97":2564956.1499999999,"ADDRESS":"苓子林７號之１","OBJECTID":66876},"geometry":{"x":171659.73000000045,"y":2564956.1500000022}},{"attributes":{"ID":66877,"DIS_CODE":0,"TOWNNAME":"麻豆區","LI":"小埤里","LIN":"1鄰","STREET":" ","SECT":" ","MAREA":"苓子林","LANE":" ","ALLEY":" ","HOUSE_NO":"７號之４","E_COORD97":171686.14999999999,"N_COORD97":2565034.9100000001,"ADDRESS":"苓子林７號之４","OBJECTID":66877},"geometry":{"x":171686.15000000224,"y":2565034.9100000001}},{"attributes":{"ID":66878,"DIS_CODE":0,"TOWNNAME":"麻豆區","LI":"海埔里","LIN":"1鄰","STREET":" ","SECT":" ","MAREA":"埤子尾","LANE":" ","ALLEY":" ","HOUSE_NO":"１２號之９","E_COORD97":169740.51999999999,"N_COORD97":2566410.4100000001,"ADDRESS":"埤子尾１２號之９","OBJECTID":66878},"geometry":{"x":169740.52000000048,"y":2566410.4100000001}},{"attributes":{"ID":66879,"DIS_CODE":0,"TOWNNAME":"麻豆區","LI":"海埔里","LIN":"1鄰","STREET":" ","SECT":" ","MAREA":"埤子尾","LANE":" ","ALLEY":" ","HOUSE_NO":"１３號之１","E_COORD97":169784.95000000001,"N_COORD97":2566500.5699999998,"ADDRESS":"埤子尾１３號之１","OBJECTID":66879},"geometry":{"x":169784.95000000019,"y":2566500.5700000022}},{"attributes":{"ID":66880,"DIS_CODE":0,"TOWNNAME":"麻豆區","LI":"海埔里","LIN":"1鄰","STREET":" ","SECT":" ","MAREA":"埤子尾","LANE":" ","ALLEY":" ","HOUSE_NO":"１３號之２","E_COORD97":169781.23999999999,"N_COORD97":2566483.5800000001,"ADDRESS":"埤子尾１３號之２","OBJECTID":66880},"geometry":{"x":169781.24000000022,"y":2566483.5800000001}},{"attributes":{"ID":66881,"DIS_CODE":0,"TOWNNAME":"麻豆區","LI":"海埔里","LIN":"1鄰","STREET":" ","SECT":" ","MAREA":"埤子尾","LANE":" ","ALLEY":" ","HOUSE_NO":"１３號之３","E_COORD97":169716.26999999999,"N_COORD97":2566501.5499999998,"ADDRESS":"埤子尾１３號之３","OBJECTID":66881},"geometry":{"x":169716.27000000142,"y":2566501.5500000007}},{"attributes":{"ID":66882,"DIS_CODE":0,"TOWNNAME":"麻豆區","LI":"海埔里","LIN":"1鄰","STREET":" ","SECT":" ","MAREA":"埤子尾","LANE":" ","ALLEY":" ","HOUSE_NO":"１３號之４","E_COORD97":169601.56,"N_COORD97":2566447.9199999999,"ADDRESS":"埤子尾１３號之４","OBJECTID":66882},"geometry":{"x":169601.56000000052,"y":2566447.9199999999}},{"attributes":{"ID":66883,"DIS_CODE":0,"TOWNNAME":"北區","LI":"正風里","LIN":"8鄰","STREET":"公園路","SECT":" ","MAREA":" ","LANE":" ","ALLEY":" ","HOUSE_NO":"１０１６號","E_COORD97":169567.20000000001,"N_COORD97":2546406.54,"ADDRESS":"公園路１０１６號","OBJECTID":66883},"geometry":{"x":169567.20000000112,"y":2546406.5400000028}},{"attributes":{"ID":66884,"DIS_CODE":0,"TOWNNAME":"麻豆區","LI":"海埔里","LIN":"1鄰","STREET":" ","SECT":" ","MAREA":"埤子尾","LANE":" ","ALLEY":" ","HOUSE_NO":"１３號之５","E_COORD97":169770.84029600001,"N_COORD97":2566504.38075,"ADDRESS":"埤子尾１３號之５","OBJECTID":66884},"geometry":{"x":169770.84029600117,"y":2566504.3807510007}},{"attributes":{"ID":66885,"DIS_CODE":0,"TOWNNAME":"新化區","LI":"崙頂里","LIN":"1鄰","STREET":" ","SECT":" ","MAREA":"崙子頂","LANE":" ","ALLEY":" ","HOUSE_NO":"１號之３０","E_COORD97":177282.72,"N_COORD97":2546973.2599999998,"ADDRESS":"崙子頂１號之３０","OBJECTID":66885},"geometry":{"x":177282.72000000067,"y":2546973.2600000016}},{"attributes":{"ID":66886,"DIS_CODE":0,"TOWNNAME":"麻豆區","LI":"海埔里","LIN":"1鄰","STREET":" ","SECT":" ","MAREA":"埤子尾","LANE":" ","ALLEY":" ","HOUSE_NO":"１號之６","E_COORD97":169877.41,"N_COORD97":2566627.5499999998,"ADDRESS":"埤子尾１號之６","OBJECTID":66886},"geometry":{"x":169877.41000000108,"y":2566627.5500000007}},{"attributes":{"ID":66887,"DIS_CODE":0,"TOWNNAME":"麻豆區","LI":"海埔里","LIN":"1鄰","STREET":" ","SECT":" ","MAREA":"埤子尾","LANE":" ","ALLEY":" ","HOUSE_NO":"２號","E_COORD97":169859.09,"N_COORD97":2566636.4399999999,"ADDRESS":"埤子尾２號","OBJECTID":66887},"geometry":{"x":169859.09000000078,"y":2566636.4399999995}},{"attributes":{"ID":66888,"DIS_CODE":0,"TOWNNAME":"南區","LI":"南都里","LIN":"6鄰","STREET":"中華南路","SECT":"二段","MAREA":" ","LANE":"３１５巷","ALLEY":"１２弄","HOUSE_NO":"８號三樓","E_COORD97":166440.23999999999,"N_COORD97":2540089.0800000001,"ADDRESS":"中華南路二段３１５巷１２弄８號三樓","OBJECTID":66888},"geometry":{"x":166440.24000000022,"y":2540089.0800000019}},{"attributes":{"ID":66889,"DIS_CODE":0,"TOWNNAME":"新化區","LI":"崙頂里","LIN":"5鄰","STREET":" ","SECT":" ","MAREA":"崙子頂","LANE":" ","ALLEY":" ","HOUSE_NO":"２４０號之２","E_COORD97":176694.88,"N_COORD97":2546961.2599999998,"ADDRESS":"崙子頂２４０號之２","OBJECTID":66889},"geometry":{"x":176694.87999999989,"y":2546961.2599999998}},{"attributes":{"ID":66890,"DIS_CODE":0,"TOWNNAME":"新化區","LI":"北勢里","LIN":"1鄰","STREET":" ","SECT":" ","MAREA":"北勢","LANE":" ","ALLEY":" ","HOUSE_NO":"１６５號之２","E_COORD97":177312.64000000001,"N_COORD97":2549370.2599999998,"ADDRESS":"北勢１６５號之２","OBJECTID":66890},"geometry":{"x":177312.63999999966,"y":2549370.2600000016}},{"attributes":{"ID":66891,"DIS_CODE":0,"TOWNNAME":"新化區","LI":"崙頂里","LIN":"4鄰","STREET":" ","SECT":" ","MAREA":"崙子頂","LANE":" ","ALLEY":" ","HOUSE_NO":"２１３號","E_COORD97":176678.92999999999,"N_COORD97":2546888.25,"ADDRESS":"崙子頂２１３號","OBJECTID":66891},"geometry":{"x":176678.9299999997,"y":2546888.2500000019}},{"attributes":{"ID":66892,"DIS_CODE":0,"TOWNNAME":"善化區","LI":"溪美里","LIN":"1鄰","STREET":" ","SECT":" ","MAREA":"溪尾","LANE":" ","ALLEY":" ","HOUSE_NO":"６６３號","E_COORD97":177077.34,"N_COORD97":2560990.52,"ADDRESS":"溪尾６６３號","OBJECTID":66892},"geometry":{"x":177077.34000000078,"y":2560990.5200000014}},{"attributes":{"ID":66893,"DIS_CODE":0,"TOWNNAME":"善化區","LI":"溪美里","LIN":"1鄰","STREET":" ","SECT":" ","MAREA":"溪尾","LANE":" ","ALLEY":" ","HOUSE_NO":"８１８號","E_COORD97":176873.63,"N_COORD97":2560312.27,"ADDRESS":"溪尾８１８號","OBJECTID":66893},"geometry":{"x":176873.63000000082,"y":2560312.2699999996}},{"attributes":{"ID":66894,"DIS_CODE":0,"TOWNNAME":"善化區","LI":"溪美里","LIN":"1鄰","STREET":" ","SECT":" ","MAREA":"溪尾","LANE":" ","ALLEY":" ","HOUSE_NO":"６８１號之９","E_COORD97":177116.62,"N_COORD97":2560818.27,"ADDRESS":"溪尾６８１號之９","OBJECTID":66894},"geometry":{"x":177116.62000000011,"y":2560818.2700000014}},{"attributes":{"ID":66895,"DIS_CODE":0,"TOWNNAME":"南區","LI":"南都里","LIN":"6鄰","STREET":"中華南路","SECT":"二段","MAREA":" ","LANE":"３１５巷","ALLEY":"１２弄","HOUSE_NO":"８號五樓","E_COORD97":166440.23999999999,"N_COORD97":2540089.0800000001,"ADDRESS":"中華南路二段３１５巷１２弄８號五樓","OBJECTID":66895},"geometry":{"x":166440.24000000022,"y":2540089.0800000019}},{"attributes":{"ID":66896,"DIS_CODE":0,"TOWNNAME":"南區","LI":"南都里","LIN":"6鄰","STREET":"中華南路","SECT":"二段","MAREA":" ","LANE":"３１５巷","ALLEY":"１２弄","HOUSE_NO":"８號四樓","E_COORD97":166440.23999999999,"N_COORD97":2540089.0800000001,"ADDRESS":"中華南路二段３１５巷１２弄８號四樓","OBJECTID":66896},"geometry":{"x":166440.24000000022,"y":2540089.0800000019}},{"attributes":{"ID":66897,"DIS_CODE":0,"TOWNNAME":"善化區","LI":"嘉北里","LIN":"1鄰","STREET":" ","SECT":" ","MAREA":"茄拔","LANE":" ","ALLEY":" ","HOUSE_NO":"３之２８號","E_COORD97":181227.23000000001,"N_COORD97":2560132.52,"ADDRESS":"茄拔３之２８號","OBJECTID":66897},"geometry":{"x":181227.23000000045,"y":2560132.5200000014}},{"attributes":{"ID":66898,"DIS_CODE":0,"TOWNNAME":"善化區","LI":"嘉北里","LIN":"1鄰","STREET":" ","SECT":" ","MAREA":"茄拔","LANE":" ","ALLEY":" ","HOUSE_NO":"３號","E_COORD97":181234.39000000001,"N_COORD97":2560099.2599999998,"ADDRESS":"茄拔３號","OBJECTID":66898},"geometry":{"x":181234.39000000153,"y":2560099.2599999979}},{"attributes":{"ID":66899,"DIS_CODE":0,"TOWNNAME":"善化區","LI":"溪美里","LIN":"1鄰","STREET":" ","SECT":" ","MAREA":"溪尾","LANE":" ","ALLEY":" ","HOUSE_NO":"６７７號之３","E_COORD97":177145.10000000001,"N_COORD97":2560883.77,"ADDRESS":"溪尾６７７號之３","OBJECTID":66899},"geometry":{"x":177145.09999999963,"y":2560883.7700000014}},{"attributes":{"ID":66900,"DIS_CODE":0,"TOWNNAME":"善化區","LI":"溪美里","LIN":"1鄰","STREET":" ","SECT":" ","MAREA":"溪尾","LANE":" ","ALLEY":" ","HOUSE_NO":"６７９號之５","E_COORD97":177131.79999999999,"N_COORD97":2560821.02,"ADDRESS":"溪尾６７９號之５","OBJECTID":66900},"geometry":{"x":177131.80000000075,"y":2560821.0200000014}},{"attributes":{"ID":66901,"DIS_CODE":0,"TOWNNAME":"南區","LI":"南都里","LIN":"6鄰","STREET":"中華南路","SECT":"二段","MAREA":" ","LANE":"３１５巷","ALLEY":"１２弄","HOUSE_NO":"８號二樓","E_COORD97":166440.23999999999,"N_COORD97":2540089.0800000001,"ADDRESS":"中華南路二段３１５巷１２弄８號二樓","OBJECTID":66901},"geometry":{"x":166440.24000000022,"y":2540089.0800000019}},{"attributes":{"ID":66902,"DIS_CODE":0,"TOWNNAME":"永康區","LI":"永康里","LIN":"38鄰","STREET":"大同街","SECT":" ","MAREA":" ","LANE":"７１５巷","ALLEY":"２弄","HOUSE_NO":"８號","E_COORD97":174492.87,"N_COORD97":2546700.21,"ADDRESS":"大同街７１５巷２弄８號","OBJECTID":66902},"geometry":{"x":174492.87000000011,"y":2546700.2100000028}},{"attributes":{"ID":66903,"DIS_CODE":0,"TOWNNAME":"善化區","LI":"溪美里","LIN":"1鄰","STREET":" ","SECT":" ","MAREA":"溪尾","LANE":" ","ALLEY":" ","HOUSE_NO":"８５８號","E_COORD97":177072.12,"N_COORD97":2560328.27,"ADDRESS":"溪尾８５８號","OBJECTID":66903},"geometry":{"x":177072.12000000104,"y":2560328.2699999996}},{"attributes":{"ID":66904,"DIS_CODE":0,"TOWNNAME":"善化區","LI":"嘉北里","LIN":"1鄰","STREET":" ","SECT":" ","MAREA":"茄拔","LANE":" ","ALLEY":" ","HOUSE_NO":"２之４３號","E_COORD97":181201.98999999999,"N_COORD97":2560216.27,"ADDRESS":"茄拔２之４３號","OBJECTID":66904},"geometry":{"x":181201.99000000022,"y":2560216.2699999996}},{"attributes":{"ID":66905,"DIS_CODE":0,"TOWNNAME":"善化區","LI":"東昌里","LIN":"1鄰","STREET":" ","SECT":" ","MAREA":"東勢寮","LANE":" ","ALLEY":" ","HOUSE_NO":"１１號","E_COORD97":181022.42999999999,"N_COORD97":2561860.2599999998,"ADDRESS":"東勢寮１１號","OBJECTID":66905},"geometry":{"x":181022.43000000156,"y":2561860.2600000016}},{"attributes":{"ID":66906,"DIS_CODE":0,"TOWNNAME":"善化區","LI":"溪美里","LIN":"1鄰","STREET":" ","SECT":" ","MAREA":"溪尾","LANE":" ","ALLEY":" ","HOUSE_NO":"８４８號","E_COORD97":177076.26999999999,"N_COORD97":2560416.27,"ADDRESS":"溪尾８４８號","OBJECTID":66906},"geometry":{"x":177076.26999999955,"y":2560416.2699999996}},{"attributes":{"ID":66907,"DIS_CODE":0,"TOWNNAME":"善化區","LI":"溪美里","LIN":"1鄰","STREET":" ","SECT":" ","MAREA":"溪尾","LANE":" ","ALLEY":" ","HOUSE_NO":"６７７號","E_COORD97":177102.10000000001,"N_COORD97":2560876.77,"ADDRESS":"溪尾６７７號","OBJECTID":66907},"geometry":{"x":177102.10000000056,"y":2560876.7700000014}},{"attributes":{"ID":66908,"DIS_CODE":0,"TOWNNAME":"善化區","LI":"嘉北里","LIN":"1鄰","STREET":" ","SECT":" ","MAREA":"茄拔","LANE":" ","ALLEY":" ","HOUSE_NO":"３之１７號","E_COORD97":181179.84,"N_COORD97":2560132.02,"ADDRESS":"茄拔３之１７號","OBJECTID":66908},"geometry":{"x":181179.84000000078,"y":2560132.0200000014}},{"attributes":{"ID":66909,"DIS_CODE":0,"TOWNNAME":"善化區","LI":"溪美里","LIN":"1鄰","STREET":" ","SECT":" ","MAREA":"溪尾","LANE":" ","ALLEY":" ","HOUSE_NO":"６５３號","E_COORD97":177125.23000000001,"N_COORD97":2560990.02,"ADDRESS":"溪尾６５３號","OBJECTID":66909},"geometry":{"x":177125.23000000045,"y":2560990.0200000014}},{"attributes":{"ID":66910,"DIS_CODE":0,"TOWNNAME":"善化區","LI":"嘉北里","LIN":"1鄰","STREET":" ","SECT":" ","MAREA":"茄拔","LANE":" ","ALLEY":" ","HOUSE_NO":"３之２５號","E_COORD97":181214.89000000001,"N_COORD97":2560135.02,"ADDRESS":"茄拔３之２５號","OBJECTID":66910},"geometry":{"x":181214.8900000006,"y":2560135.0200000014}},{"attributes":{"ID":66911,"DIS_CODE":0,"TOWNNAME":"永康區","LI":"成功里","LIN":"30鄰","STREET":"中華路","SECT":" ","MAREA":" ","LANE":"１３４巷","ALLEY":"５８弄","HOUSE_NO":"２１號","E_COORD97":171794.32000000001,"N_COORD97":2544784,"ADDRESS":"中華路１３４巷５８弄２１號","OBJECTID":66911},"geometry":{"x":171794.3200000003,"y":2544784.0000000019}},{"attributes":{"ID":66912,"DIS_CODE":0,"TOWNNAME":"永康區","LI":"甲頂里","LIN":"20鄰","STREET":"中正南路","SECT":" ","MAREA":" ","LANE":"５２巷","ALLEY":"５８弄","HOUSE_NO":"１４號","E_COORD97":169862.67000000001,"N_COORD97":2546723.5600000001,"ADDRESS":"中正南路５２巷５８弄１４號","OBJECTID":66912},"geometry":{"x":169862.66999999993,"y":2546723.5600000024}},{"attributes":{"ID":66913,"DIS_CODE":0,"TOWNNAME":"北區","LI":"三德里","LIN":"8鄰","STREET":"北華街","SECT":" ","MAREA":" ","LANE":" ","ALLEY":" ","HOUSE_NO":"１７６號","E_COORD97":168489.44,"N_COORD97":2544606.2999999998,"ADDRESS":"北華街１７６號","OBJECTID":66913},"geometry":{"x":168489.44000000134,"y":2544606.3000000045}},{"attributes":{"ID":66914,"DIS_CODE":0,"TOWNNAME":"北區","LI":"長德里","LIN":"8鄰","STREET":"西門路","SECT":"三段","MAREA":" ","LANE":" ","ALLEY":" ","HOUSE_NO":"２０６號","E_COORD97":168415.10000000001,"N_COORD97":2544856.0499999998,"ADDRESS":"西門路三段２０６號","OBJECTID":66914},"geometry":{"x":168415.09999999963,"y":2544856.0500000026}},{"attributes":{"ID":66915,"DIS_CODE":0,"TOWNNAME":"北區","LI":"長德里","LIN":"8鄰","STREET":"西門路","SECT":"三段","MAREA":" ","LANE":" ","ALLEY":" ","HOUSE_NO":"２０８號","E_COORD97":168417.89999999999,"N_COORD97":2544860.9500000002,"ADDRESS":"西門路三段２０８號","OBJECTID":66915},"geometry":{"x":168417.90000000224,"y":2544860.9499999974}},{"attributes":{"ID":66916,"DIS_CODE":0,"TOWNNAME":"北區","LI":"長德里","LIN":"8鄰","STREET":"西門路","SECT":"三段","MAREA":" ","LANE":" ","ALLEY":" ","HOUSE_NO":"２１０號","E_COORD97":168419.64999999999,"N_COORD97":2544863.0499999998,"ADDRESS":"西門路三段２１０號","OBJECTID":66916},"geometry":{"x":168419.6500000013,"y":2544863.0500000026}},{"attributes":{"ID":66917,"DIS_CODE":0,"TOWNNAME":"玉井區","LI":"竹圍里","LIN":"8鄰","STREET":"武成街","SECT":" ","MAREA":" ","LANE":" ","ALLEY":" ","HOUSE_NO":"２號","E_COORD97":195912.73000000001,"N_COORD97":2559022.79,"ADDRESS":"武成街２號","OBJECTID":66917},"geometry":{"x":195912.73000000045,"y":2559022.7899999991}},{"attributes":{"ID":66918,"DIS_CODE":0,"TOWNNAME":"南區","LI":"南華里","LIN":"6鄰","STREET":"中華南路","SECT":"二段","MAREA":" ","LANE":"４００巷","ALLEY":"２弄","HOUSE_NO":"１３號五樓","E_COORD97":166469.29000000001,"N_COORD97":2540334.3399999999,"ADDRESS":"中華南路二段４００巷２弄１３號五樓","OBJECTID":66918},"geometry":{"x":166469.29000000097,"y":2540334.3400000017}},{"attributes":{"ID":66919,"DIS_CODE":0,"TOWNNAME":"南區","LI":"南華里","LIN":"6鄰","STREET":"中華南路","SECT":"二段","MAREA":" ","LANE":"４００巷","ALLEY":"２弄","HOUSE_NO":"１３號四樓","E_COORD97":166469.29000000001,"N_COORD97":2540334.3399999999,"ADDRESS":"中華南路二段４００巷２弄１３號四樓","OBJECTID":66919},"geometry":{"x":166469.29000000097,"y":2540334.3400000017}},{"attributes":{"ID":66920,"DIS_CODE":0,"TOWNNAME":"南區","LI":"南華里","LIN":"6鄰","STREET":"中華南路","SECT":"二段","MAREA":" ","LANE":"４００巷","ALLEY":"２弄","HOUSE_NO":"１５號二樓","E_COORD97":166478.31,"N_COORD97":2540333.7599999998,"ADDRESS":"中華南路二段４００巷２弄１５號二樓","OBJECTID":66920},"geometry":{"x":166478.31000000145,"y":2540333.7600000035}},{"attributes":{"ID":66921,"DIS_CODE":0,"TOWNNAME":"南區","LI":"南華里","LIN":"6鄰","STREET":"中華南路","SECT":"二段","MAREA":" ","LANE":"４００巷","ALLEY":"２弄","HOUSE_NO":"１５號三樓","E_COORD97":166478.31,"N_COORD97":2540333.7599999998,"ADDRESS":"中華南路二段４００巷２弄１５號三樓","OBJECTID":66921},"geometry":{"x":166478.31000000145,"y":2540333.7600000035}},{"attributes":{"ID":66922,"DIS_CODE":0,"TOWNNAME":"南區","LI":"南華里","LIN":"6鄰","STREET":"中華南路","SECT":"二段","MAREA":" ","LANE":"４００巷","ALLEY":"２弄","HOUSE_NO":"１５號五樓","E_COORD97":166478.31,"N_COORD97":2540333.7599999998,"ADDRESS":"中華南路二段４００巷２弄１５號五樓","OBJECTID":66922},"geometry":{"x":166478.31000000145,"y":2540333.7600000035}},{"attributes":{"ID":66923,"DIS_CODE":0,"TOWNNAME":"南區","LI":"南華里","LIN":"6鄰","STREET":"中華南路","SECT":"二段","MAREA":" ","LANE":"４００巷","ALLEY":"２弄","HOUSE_NO":"１５號四樓","E_COORD97":166478.31,"N_COORD97":2540333.7599999998,"ADDRESS":"中華南路二段４００巷２弄１５號四樓","OBJECTID":66923},"geometry":{"x":166478.31000000145,"y":2540333.7600000035}},{"attributes":{"ID":66924,"DIS_CODE":0,"TOWNNAME":"南區","LI":"南華里","LIN":"6鄰","STREET":"中華南路","SECT":"二段","MAREA":" ","LANE":"４００巷","ALLEY":"２弄","HOUSE_NO":"１號二樓","E_COORD97":166418.32999999999,"N_COORD97":2540333.9900000002,"ADDRESS":"中華南路二段４００巷２弄１號二樓","OBJECTID":66924},"geometry":{"x":166418.33000000101,"y":2540333.9900000021}},{"attributes":{"ID":66925,"DIS_CODE":0,"TOWNNAME":"仁德區","LI":"上崙里","LIN":" ","STREET":"上崙街","SECT":" ","MAREA":" ","LANE":" ","ALLEY":" ","HOUSE_NO":"６號","E_COORD97":173786.09,"N_COORD97":2538136.5,"ADDRESS":"上崙街６號","OBJECTID":66925},"geometry":{"x":173786.08999999985,"y":2538136.5000000019}},{"attributes":{"ID":66926,"DIS_CODE":0,"TOWNNAME":"仁德區","LI":"保安里","LIN":" ","STREET":"保安路","SECT":"一段","MAREA":" ","LANE":" ","ALLEY":" ","HOUSE_NO":"２６號","E_COORD97":170472.95999999999,"N_COORD97":2536009.8100000001,"ADDRESS":"保安路一段２６號","OBJECTID":66926},"geometry":{"x":170472.95999999996,"y":2536009.8100000005}},{"attributes":{"ID":66927,"DIS_CODE":0,"TOWNNAME":"仁德區","LI":"保安里","LIN":" ","STREET":"保安路","SECT":"一段","MAREA":" ","LANE":" ","ALLEY":" ","HOUSE_NO":"９０之１２號","E_COORD97":170940.29999999999,"N_COORD97":2536447.8100000001,"ADDRESS":"保安路一段９０之１２號","OBJECTID":66927},"geometry":{"x":170940.30000000168,"y":2536447.8100000005}},{"attributes":{"ID":66928,"DIS_CODE":0,"TOWNNAME":"仁德區","LI":"保安里","LIN":" ","STREET":"保安路","SECT":"一段","MAREA":" ","LANE":" ","ALLEY":" ","HOUSE_NO":"５９之８號","E_COORD97":170829.23999999999,"N_COORD97":2536703.8199999998,"ADDRESS":"保安路一段５９之８號","OBJECTID":66928},"geometry":{"x":170829.24000000209,"y":2536703.8200000022}},{"attributes":{"ID":66929,"DIS_CODE":0,"TOWNNAME":"仁德區","LI":"成功里","LIN":" ","STREET":"成功二街","SECT":" ","MAREA":" ","LANE":" ","ALLEY":" ","HOUSE_NO":"１５２之２號","E_COORD97":170879.75,"N_COORD97":2539674.7999999998,"ADDRESS":"成功二街１５２之２號","OBJECTID":66929},"geometry":{"x":170879.74999999907,"y":2539674.8000000026}},{"attributes":{"ID":66930,"DIS_CODE":0,"TOWNNAME":"新營區","LI":"土庫里","LIN":"8鄰","STREET":" ","SECT":" ","MAREA":"土庫","LANE":" ","ALLEY":" ","HOUSE_NO":"７１之１８號","E_COORD97":182647,"N_COORD97":2579994.6499999999,"ADDRESS":"土庫７１之１８號","OBJECTID":66930},"geometry":{"x":182647,"y":2579994.6500000004}},{"attributes":{"ID":66931,"DIS_CODE":0,"TOWNNAME":"新營區","LI":"南紙里","LIN":"8鄰","STREET":" ","SECT":" ","MAREA":"紙廠","LANE":" ","ALLEY":" ","HOUSE_NO":"１６３之２號","E_COORD97":178028.67999999999,"N_COORD97":2577565.5800000001,"ADDRESS":"紙廠１６３之２號","OBJECTID":66931},"geometry":{"x":178028.68000000156,"y":2577565.5800000019}},{"attributes":{"ID":66932,"DIS_CODE":0,"TOWNNAME":"新營區","LI":"嘉芳里","LIN":"8鄰","STREET":" ","SECT":" ","MAREA":"茄苳腳","LANE":" ","ALLEY":" ","HOUSE_NO":"７８之２４號","E_COORD97":176836.89999999999,"N_COORD97":2578582.5299999998,"ADDRESS":"茄苳腳７８之２４號","OBJECTID":66932},"geometry":{"x":176836.9000000013,"y":2578582.5300000012}},{"attributes":{"ID":66933,"DIS_CODE":0,"TOWNNAME":"新營區","LI":"五興里","LIN":"8鄰","STREET":" ","SECT":" ","MAREA":"五間厝","LANE":" ","ALLEY":" ","HOUSE_NO":"９０號之２","E_COORD97":175716.48999999999,"N_COORD97":2574936.8100000001,"ADDRESS":"五間厝９０號之２","OBJECTID":66933},"geometry":{"x":175716.49000000209,"y":2574936.8100000024}},{"attributes":{"ID":66934,"DIS_CODE":0,"TOWNNAME":"南區","LI":"南華里","LIN":"6鄰","STREET":"中華南路","SECT":"二段","MAREA":" ","LANE":"４００巷","ALLEY":"２弄","HOUSE_NO":"１號三樓","E_COORD97":166418.32999999999,"N_COORD97":2540333.9900000002,"ADDRESS":"中華南路二段４００巷２弄１號三樓","OBJECTID":66934},"geometry":{"x":166418.33000000101,"y":2540333.9900000021}},{"attributes":{"ID":66935,"DIS_CODE":0,"TOWNNAME":"南區","LI":"南華里","LIN":"6鄰","STREET":"中華南路","SECT":"二段","MAREA":" ","LANE":"４００巷","ALLEY":"２弄","HOUSE_NO":"１號五樓","E_COORD97":166418.32999999999,"N_COORD97":2540333.9900000002,"ADDRESS":"中華南路二段４００巷２弄１號五樓","OBJECTID":66935},"geometry":{"x":166418.33000000101,"y":2540333.9900000021}},{"attributes":{"ID":66936,"DIS_CODE":0,"TOWNNAME":"南區","LI":"南華里","LIN":"6鄰","STREET":"中華南路","SECT":"二段","MAREA":" ","LANE":"４００巷","ALLEY":"２弄","HOUSE_NO":"１號四樓","E_COORD97":166418.32999999999,"N_COORD97":2540333.9900000002,"ADDRESS":"中華南路二段４００巷２弄１號四樓","OBJECTID":66936},"geometry":{"x":166418.33000000101,"y":2540333.9900000021}},{"attributes":{"ID":66937,"DIS_CODE":0,"TOWNNAME":"南區","LI":"南華里","LIN":"6鄰","STREET":"中華南路","SECT":"二段","MAREA":" ","LANE":"４００巷","ALLEY":"２弄","HOUSE_NO":"３號二樓","E_COORD97":166426.42000000001,"N_COORD97":2540333.9900000002,"ADDRESS":"中華南路二段４００巷２弄３號二樓","OBJECTID":66937},"geometry":{"x":166426.41999999993,"y":2540333.9900000021}},{"attributes":{"ID":66938,"DIS_CODE":0,"TOWNNAME":"北區","LI":"大豐里","LIN":"8鄰","STREET":"文賢路","SECT":" ","MAREA":" ","LANE":"３６５巷","ALLEY":" ","HOUSE_NO":"２９號","E_COORD97":167247.23000000001,"N_COORD97":2545373.5,"ADDRESS":"文賢路３６５巷２９號","OBJECTID":66938},"geometry":{"x":167247.23000000045,"y":2545373.5000000037}},{"attributes":{"ID":66939,"DIS_CODE":0,"TOWNNAME":"楠西區","LI":"楠西里","LIN":"8鄰","STREET":"民權路","SECT":" ","MAREA":" ","LANE":" ","ALLEY":" ","HOUSE_NO":"３０號","E_COORD97":197289.54000000001,"N_COORD97":2564255.29,"ADDRESS":"民權路３０號","OBJECTID":66939},"geometry":{"x":197289.54000000097,"y":2564255.2900000028}},{"attributes":{"ID":66940,"DIS_CODE":0,"TOWNNAME":"新營區","LI":"三仙里","LIN":"8鄰","STREET":"正義街","SECT":" ","MAREA":" ","LANE":" ","ALLEY":" ","HOUSE_NO":"２２之１號","E_COORD97":179662.82999999999,"N_COORD97":2578144.6800000002,"ADDRESS":"正義街２２之１號","OBJECTID":66940},"geometry":{"x":179662.83000000101,"y":2578144.6800000016}},{"attributes":{"ID":66941,"DIS_CODE":0,"TOWNNAME":"新營區","LI":"民生里","LIN":"8鄰","STREET":"復興路","SECT":" ","MAREA":" ","LANE":" ","ALLEY":" ","HOUSE_NO":"１３８之２號","E_COORD97":179340.34,"N_COORD97":2578052.0899999999,"ADDRESS":"復興路１３８之２號","OBJECTID":66941},"geometry":{"x":179340.34000000078,"y":2578052.0899999999}},{"attributes":{"ID":66942,"DIS_CODE":0,"TOWNNAME":"學甲區","LI":"新達里","LIN":"8鄰","STREET":"新生路","SECT":" ","MAREA":" ","LANE":" ","ALLEY":" ","HOUSE_NO":"１５號","E_COORD97":166524.38,"N_COORD97":2570526.0099999998,"ADDRESS":"新生路１５號","OBJECTID":66942},"geometry":{"x":166524.38000000082,"y":2570526.0099999998}},{"attributes":{"ID":66943,"DIS_CODE":0,"TOWNNAME":"學甲區","LI":"新達里","LIN":"8鄰","STREET":"新生路","SECT":" ","MAREA":" ","LANE":" ","ALLEY":" ","HOUSE_NO":"２５號","E_COORD97":166502.42999999999,"N_COORD97":2570536.8599999999,"ADDRESS":"新生路２５號","OBJECTID":66943},"geometry":{"x":166502.4299999997,"y":2570536.8599999994}},{"attributes":{"ID":66944,"DIS_CODE":0,"TOWNNAME":"六甲區","LI":"中社里","LIN":"8鄰","STREET":" ","SECT":" ","MAREA":"中社","LANE":" ","ALLEY":" ","HOUSE_NO":"３４２號","E_COORD97":180852.16,"N_COORD97":2570876.9300000002,"ADDRESS":"中社３４２號","OBJECTID":66944},"geometry":{"x":180852.16000000108,"y":2570876.9300000016}},{"attributes":{"ID":66945,"DIS_CODE":0,"TOWNNAME":"六甲區","LI":"中社里","LIN":"8鄰","STREET":" ","SECT":" ","MAREA":"中社","LANE":" ","ALLEY":" ","HOUSE_NO":"３４８號","E_COORD97":180878.19,"N_COORD97":2570851.3900000001,"ADDRESS":"中社３４８號","OBJECTID":66945},"geometry":{"x":180878.19000000041,"y":2570851.3900000025}},{"attributes":{"ID":66946,"DIS_CODE":0,"TOWNNAME":"善化區","LI":"胡家里","LIN":"1鄰","STREET":" ","SECT":" ","MAREA":"胡厝寮","LANE":" ","ALLEY":" ","HOUSE_NO":"６號","E_COORD97":175526.60999999999,"N_COORD97":2560804,"ADDRESS":"胡厝寮６號","OBJECTID":66946},"geometry":{"x":175526.61000000127,"y":2560804.0000000019}},{"attributes":{"ID":66947,"DIS_CODE":0,"TOWNNAME":"麻豆區","LI":"北勢里","LIN":"1鄰","STREET":" ","SECT":" ","MAREA":"加輦邦","LANE":" ","ALLEY":" ","HOUSE_NO":"７號","E_COORD97":173538.22,"N_COORD97":2566178.6600000001,"ADDRESS":"加輦邦７號","OBJECTID":66947},"geometry":{"x":173538.22000000067,"y":2566178.6600000001}},{"attributes":{"ID":66948,"DIS_CODE":0,"TOWNNAME":"善化區","LI":"胡厝里","LIN":"1鄰","STREET":" ","SECT":" ","MAREA":"胡厝寮","LANE":" ","ALLEY":" ","HOUSE_NO":"１６７號","E_COORD97":175159.60000000001,"N_COORD97":2560621.75,"ADDRESS":"胡厝寮１６７號","OBJECTID":66948},"geometry":{"x":175159.60000000056,"y":2560621.7500000037}},{"attributes":{"ID":66949,"DIS_CODE":0,"TOWNNAME":"新化區","LI":"礁坑里","LIN":"13鄰","STREET":" ","SECT":" ","MAREA":"礁坑子","LANE":" ","ALLEY":" ","HOUSE_NO":"２９號","E_COORD97":183235.57999999999,"N_COORD97":2547941.25,"ADDRESS":"礁坑子２９號","OBJECTID":66949},"geometry":{"x":183235.58000000194,"y":2547941.25}},{"attributes":{"ID":66950,"DIS_CODE":0,"TOWNNAME":"新化區","LI":"\u25A0拔里","LIN":"8鄰","STREET":" ","SECT":" ","MAREA":"\u25A0拔林","LANE":" ","ALLEY":" ","HOUSE_NO":"３２１號之５","E_COORD97":183443.98000000001,"N_COORD97":2551846.2599999998,"ADDRESS":"\u25A0拔林３２１號之５","OBJECTID":66950},"geometry":{"x":183443.98000000138,"y":2551846.2599999998}},{"attributes":{"ID":66951,"DIS_CODE":0,"TOWNNAME":"善化區","LI":"溪美里","LIN":"1鄰","STREET":" ","SECT":" ","MAREA":"溪尾","LANE":" ","ALLEY":" ","HOUSE_NO":"６７９號","E_COORD97":177102.17999999999,"N_COORD97":2560864.52,"ADDRESS":"溪尾６７９號","OBJECTID":66951},"geometry":{"x":177102.18000000063,"y":2560864.5200000014}},{"attributes":{"ID":66952,"DIS_CODE":0,"TOWNNAME":"善化區","LI":"東昌里","LIN":"1鄰","STREET":" ","SECT":" ","MAREA":"東勢寮","LANE":" ","ALLEY":" ","HOUSE_NO":"８號","E_COORD97":180971.85000000001,"N_COORD97":2561867.0099999998,"ADDRESS":"東勢寮８號","OBJECTID":66952},"geometry":{"x":180971.8499999987,"y":2561867.0099999998}},{"attributes":{"ID":66953,"DIS_CODE":0,"TOWNNAME":"善化區","LI":"嘉北里","LIN":"1鄰","STREET":" ","SECT":" ","MAREA":"茄拔","LANE":" ","ALLEY":" ","HOUSE_NO":"２號之６","E_COORD97":181221.09,"N_COORD97":2560260.27,"ADDRESS":"茄拔２號之６","OBJECTID":66953},"geometry":{"x":181221.08999999985,"y":2560260.2699999996}},{"attributes":{"ID":66954,"DIS_CODE":0,"TOWNNAME":"善化區","LI":"溪美里","LIN":"1鄰","STREET":" ","SECT":" ","MAREA":"溪尾","LANE":" ","ALLEY":" ","HOUSE_NO":"８３８號","E_COORD97":177088.01000000001,"N_COORD97":2560451.77,"ADDRESS":"溪尾８３８號","OBJECTID":66954},"geometry":{"x":177088.01000000071,"y":2560451.7700000033}},{"attributes":{"ID":66955,"DIS_CODE":0,"TOWNNAME":"善化區","LI":"溪美里","LIN":"1鄰","STREET":" ","SECT":" ","MAREA":"溪尾","LANE":" ","ALLEY":" ","HOUSE_NO":"６８３號","E_COORD97":177127.54999999999,"N_COORD97":2560759.02,"ADDRESS":"溪尾６８３號","OBJECTID":66955},"geometry":{"x":177127.54999999981,"y":2560759.0200000014}},{"attributes":{"ID":66956,"DIS_CODE":0,"TOWNNAME":"善化區","LI":"東昌里","LIN":"1鄰","STREET":" ","SECT":" ","MAREA":"東勢寮","LANE":" ","ALLEY":" ","HOUSE_NO":"１之６９號","E_COORD97":181744.57999999999,"N_COORD97":2561020.77,"ADDRESS":"東勢寮１之６９號","OBJECTID":66956},"geometry":{"x":181744.58000000101,"y":2561020.7699999996}},{"attributes":{"ID":66957,"DIS_CODE":0,"TOWNNAME":"新化區","LI":"崙頂里","LIN":"11鄰","STREET":" ","SECT":" ","MAREA":"崙子頂","LANE":" ","ALLEY":" ","HOUSE_NO":"３９５號之１","E_COORD97":176942.66,"N_COORD97":2546919.2599999998,"ADDRESS":"崙子頂３９５號之１","OBJECTID":66957},"geometry":{"x":176942.66000000201,"y":2546919.2600000016}},{"attributes":{"ID":66958,"DIS_CODE":0,"TOWNNAME":"善化區","LI":"胡家里","LIN":"1鄰","STREET":" ","SECT":" ","MAREA":"胡厝寮","LANE":" ","ALLEY":" ","HOUSE_NO":"７號","E_COORD97":175508.22,"N_COORD97":2560796,"ADDRESS":"胡厝寮７號","OBJECTID":66958},"geometry":{"x":175508.22000000067,"y":2560796}},{"attributes":{"ID":66959,"DIS_CODE":0,"TOWNNAME":"善化區","LI":"溪美里","LIN":"1鄰","STREET":" ","SECT":" ","MAREA":"溪尾","LANE":" ","ALLEY":" ","HOUSE_NO":"６８１號","E_COORD97":177112.42000000001,"N_COORD97":2560791.02,"ADDRESS":"溪尾６８１號","OBJECTID":66959},"geometry":{"x":177112.42000000086,"y":2560791.0199999996}},{"attributes":{"ID":66960,"DIS_CODE":0,"TOWNNAME":"善化區","LI":"胡家里","LIN":"1鄰","STREET":" ","SECT":" ","MAREA":"胡厝寮","LANE":" ","ALLEY":" ","HOUSE_NO":"１之１號","E_COORD97":175484.42000000001,"N_COORD97":2560839.52,"ADDRESS":"胡厝寮１之１號","OBJECTID":66960},"geometry":{"x":175484.42000000179,"y":2560839.5199999996}},{"attributes":{"ID":66961,"DIS_CODE":0,"TOWNNAME":"南區","LI":"南華里","LIN":"6鄰","STREET":"中華南路","SECT":"二段","MAREA":" ","LANE":"４００巷","ALLEY":"２弄","HOUSE_NO":"３號三樓","E_COORD97":166426.42000000001,"N_COORD97":2540333.9900000002,"ADDRESS":"中華南路二段４００巷２弄３號三樓","OBJECTID":66961},"geometry":{"x":166426.41999999993,"y":2540333.9900000021}},{"attributes":{"ID":66962,"DIS_CODE":0,"TOWNNAME":"南區","LI":"南華里","LIN":"6鄰","STREET":"中華南路","SECT":"二段","MAREA":" ","LANE":"４００巷","ALLEY":"２弄","HOUSE_NO":"３號五樓","E_COORD97":166426.42000000001,"N_COORD97":2540333.9900000002,"ADDRESS":"中華南路二段４００巷２弄３號五樓","OBJECTID":66962},"geometry":{"x":166426.41999999993,"y":2540333.9900000021}},{"attributes":{"ID":66963,"DIS_CODE":0,"TOWNNAME":"南區","LI":"南華里","LIN":"6鄰","STREET":"中華南路","SECT":"二段","MAREA":" ","LANE":"４００巷","ALLEY":"２弄","HOUSE_NO":"３號四樓","E_COORD97":166426.42000000001,"N_COORD97":2540333.9900000002,"ADDRESS":"中華南路二段４００巷２弄３號四樓","OBJECTID":66963},"geometry":{"x":166426.41999999993,"y":2540333.9900000021}},{"attributes":{"ID":66964,"DIS_CODE":0,"TOWNNAME":"南區","LI":"南華里","LIN":"6鄰","STREET":"中華南路","SECT":"二段","MAREA":" ","LANE":"４００巷","ALLEY":"２弄","HOUSE_NO":"５號二樓","E_COORD97":166434.14999999999,"N_COORD97":2540333.8799999999,"ADDRESS":"中華南路二段４００巷２弄５號二樓","OBJECTID":66964},"geometry":{"x":166434.15000000037,"y":2540333.879999999}},{"attributes":{"ID":66965,"DIS_CODE":0,"TOWNNAME":"善化區","LI":"田寮里","LIN":"1鄰","STREET":" ","SECT":" ","MAREA":"六分寮","LANE":" ","ALLEY":" ","HOUSE_NO":"１６號","E_COORD97":178338.73000000001,"N_COORD97":2561293.75,"ADDRESS":"六分寮１６號","OBJECTID":66965},"geometry":{"x":178338.73000000045,"y":2561293.7500000019}},{"attributes":{"ID":66966,"DIS_CODE":0,"TOWNNAME":"南區","LI":"南華里","LIN":"6鄰","STREET":"中華南路","SECT":"二段","MAREA":" ","LANE":"４００巷","ALLEY":"２弄","HOUSE_NO":"５號三樓","E_COORD97":166434.14999999999,"N_COORD97":2540333.8799999999,"ADDRESS":"中華南路二段４００巷２弄５號三樓","OBJECTID":66966},"geometry":{"x":166434.15000000037,"y":2540333.879999999}},{"attributes":{"ID":66967,"DIS_CODE":0,"TOWNNAME":"南區","LI":"南華里","LIN":"6鄰","STREET":"中華南路","SECT":"二段","MAREA":" ","LANE":"４００巷","ALLEY":"２弄","HOUSE_NO":"５號五樓","E_COORD97":166434.14999999999,"N_COORD97":2540333.8799999999,"ADDRESS":"中華南路二段４００巷２弄５號五樓","OBJECTID":66967},"geometry":{"x":166434.15000000037,"y":2540333.879999999}},{"attributes":{"ID":66968,"DIS_CODE":0,"TOWNNAME":"南區","LI":"南都里","LIN":"8鄰","STREET":"中華南路","SECT":"二段","MAREA":" ","LANE":" ","ALLEY":" ","HOUSE_NO":"２８３號","E_COORD97":166540.47,"N_COORD97":2540259.7000000002,"ADDRESS":"中華南路二段２８３號","OBJECTID":66968},"geometry":{"x":166540.47000000067,"y":2540259.7000000011}},{"attributes":{"ID":66969,"DIS_CODE":0,"TOWNNAME":"善化區","LI":"田寮里","LIN":"1鄰","STREET":" ","SECT":" ","MAREA":"六分寮","LANE":" ","ALLEY":" ","HOUSE_NO":"１７號","E_COORD97":178357.98000000001,"N_COORD97":2561303.25,"ADDRESS":"六分寮１７號","OBJECTID":66969},"geometry":{"x":178357.98000000231,"y":2561303.2500000037}},{"attributes":{"ID":66970,"DIS_CODE":0,"TOWNNAME":"善化區","LI":"嘉北里","LIN":"1鄰","STREET":" ","SECT":" ","MAREA":"茄拔","LANE":" ","ALLEY":" ","HOUSE_NO":"１之３７號","E_COORD97":181160.17000000001,"N_COORD97":2560215.02,"ADDRESS":"茄拔１之３７號","OBJECTID":66970},"geometry":{"x":181160.17000000086,"y":2560215.0199999996}},{"attributes":{"ID":66971,"DIS_CODE":0,"TOWNNAME":"新化區","LI":"山\u25A0里","LIN":"8鄰","STREET":" ","SECT":" ","MAREA":"頂山\u25A0","LANE":" ","ALLEY":" ","HOUSE_NO":"１６６號之８","E_COORD97":179874.48999999999,"N_COORD97":2546754.2599999998,"ADDRESS":"頂山\u25A0１６６號之８","OBJECTID":66971},"geometry":{"x":179874.49000000022,"y":2546754.2599999998}},{"attributes":{"ID":66972,"DIS_CODE":0,"TOWNNAME":"南區","LI":"南都里","LIN":"8鄰","STREET":"中華南路","SECT":"二段","MAREA":" ","LANE":" ","ALLEY":" ","HOUSE_NO":"２８５號","E_COORD97":166536.23000000001,"N_COORD97":2540257.4399999999,"ADDRESS":"中華南路二段２８５號","OBJECTID":66972},"geometry":{"x":166536.23000000138,"y":2540257.4400000032}},{"attributes":{"ID":66973,"DIS_CODE":0,"TOWNNAME":"新化區","LI":"\u25A0拔里","LIN":"1鄰","STREET":" ","SECT":" ","MAREA":"\u25A0拔林","LANE":" ","ALLEY":" ","HOUSE_NO":"３６號之２０","E_COORD97":183048.66,"N_COORD97":2552017.2599999998,"ADDRESS":"\u25A0拔林３６號之２０","OBJECTID":66973},"geometry":{"x":183048.66000000201,"y":2552017.2600000016}},{"attributes":{"ID":66974,"DIS_CODE":0,"TOWNNAME":"新化區","LI":"崙頂里","LIN":"1鄰","STREET":" ","SECT":" ","MAREA":"崙子頂","LANE":" ","ALLEY":" ","HOUSE_NO":"１８號","E_COORD97":176971.38,"N_COORD97":2546769.25,"ADDRESS":"崙子頂１８號","OBJECTID":66974},"geometry":{"x":176971.38000000175,"y":2546769.2500000019}},{"attributes":{"ID":66975,"DIS_CODE":0,"TOWNNAME":"南區","LI":"南都里","LIN":"8鄰","STREET":"中華南路","SECT":"二段","MAREA":" ","LANE":" ","ALLEY":" ","HOUSE_NO":"２８７號","E_COORD97":166531.70999999999,"N_COORD97":2540259.7000000002,"ADDRESS":"中華南路二段２８７號","OBJECTID":66975},"geometry":{"x":166531.70999999996,"y":2540259.7000000011}},{"attributes":{"ID":66976,"DIS_CODE":0,"TOWNNAME":"南區","LI":"南都里","LIN":"8鄰","STREET":"中華南路","SECT":"二段","MAREA":" ","LANE":" ","ALLEY":" ","HOUSE_NO":"２８９號","E_COORD97":166527.17999999999,"N_COORD97":2540256.8799999999,"ADDRESS":"中華南路二段２８９號","OBJECTID":66976},"geometry":{"x":166527.18000000063,"y":2540256.879999999}},{"attributes":{"ID":66977,"DIS_CODE":0,"TOWNNAME":"南區","LI":"南華里","LIN":"6鄰","STREET":"中華南路","SECT":"二段","MAREA":" ","LANE":"４００巷","ALLEY":"２弄","HOUSE_NO":"５號四樓","E_COORD97":166434.14999999999,"N_COORD97":2540333.8799999999,"ADDRESS":"中華南路二段４００巷２弄５號四樓","OBJECTID":66977},"geometry":{"x":166434.15000000037,"y":2540333.879999999}},{"attributes":{"ID":66978,"DIS_CODE":0,"TOWNNAME":"新營區","LI":"五興里","LIN":"8鄰","STREET":" ","SECT":" ","MAREA":"五間厝","LANE":" ","ALLEY":" ","HOUSE_NO":"８４號","E_COORD97":175682.26000000001,"N_COORD97":2574868.2599999998,"ADDRESS":"五間厝８４號","OBJECTID":66978},"geometry":{"x":175682.26000000071,"y":2574868.2600000016}},{"attributes":{"ID":66979,"DIS_CODE":0,"TOWNNAME":"六甲區","LI":"中社里","LIN":"8鄰","STREET":" ","SECT":" ","MAREA":"中社","LANE":" ","ALLEY":" ","HOUSE_NO":"３２８號","E_COORD97":180897.13,"N_COORD97":2570938.6699999999,"ADDRESS":"中社３２８號","OBJECTID":66979},"geometry":{"x":180897.12999999989,"y":2570938.6699999999}},{"attributes":{"ID":66980,"DIS_CODE":0,"TOWNNAME":"六甲區","LI":"中社里","LIN":"8鄰","STREET":" ","SECT":" ","MAREA":"中社","LANE":" ","ALLEY":" ","HOUSE_NO":"３３２號","E_COORD97":180867.12,"N_COORD97":2570960.9199999999,"ADDRESS":"中社３３２號","OBJECTID":66980},"geometry":{"x":180867.11999999918,"y":2570960.9199999999}},{"attributes":{"ID":66981,"DIS_CODE":0,"TOWNNAME":"六甲區","LI":"中社里","LIN":"8鄰","STREET":" ","SECT":" ","MAREA":"中社","LANE":" ","ALLEY":" ","HOUSE_NO":"３３６號","E_COORD97":180874.70000000001,"N_COORD97":2570909.48,"ADDRESS":"中社３３６號","OBJECTID":66981},"geometry":{"x":180874.70000000019,"y":2570909.4800000004}},{"attributes":{"ID":66982,"DIS_CODE":0,"TOWNNAME":"六甲區","LI":"中社里","LIN":"8鄰","STREET":" ","SECT":" ","MAREA":"中社","LANE":" ","ALLEY":" ","HOUSE_NO":"３４０號","E_COORD97":180873.03,"N_COORD97":2570880.8799999999,"ADDRESS":"中社３４０號","OBJECTID":66982},"geometry":{"x":180873.03000000212,"y":2570880.879999999}},{"attributes":{"ID":66983,"DIS_CODE":0,"TOWNNAME":"南區","LI":"南華里","LIN":"6鄰","STREET":"中華南路","SECT":"二段","MAREA":" ","LANE":"４００巷","ALLEY":"２弄","HOUSE_NO":"７號二樓","E_COORD97":166443.39999999999,"N_COORD97":2540333.6400000001,"ADDRESS":"中華南路二段４００巷２弄７號二樓","OBJECTID":66983},"geometry":{"x":166443.4000000013,"y":2540333.6400000006}},{"attributes":{"ID":66984,"DIS_CODE":0,"TOWNNAME":"南區","LI":"南華里","LIN":"6鄰","STREET":"中華南路","SECT":"二段","MAREA":" ","LANE":"４００巷","ALLEY":"２弄","HOUSE_NO":"７號三樓","E_COORD97":166443.39999999999,"N_COORD97":2540333.6400000001,"ADDRESS":"中華南路二段４００巷２弄７號三樓","OBJECTID":66984},"geometry":{"x":166443.4000000013,"y":2540333.6400000006}},{"attributes":{"ID":66985,"DIS_CODE":0,"TOWNNAME":"南區","LI":"南華里","LIN":"6鄰","STREET":"中華南路","SECT":"二段","MAREA":" ","LANE":"４００巷","ALLEY":"２弄","HOUSE_NO":"７號五樓","E_COORD97":166443.39999999999,"N_COORD97":2540333.6400000001,"ADDRESS":"中華南路二段４００巷２弄７號五樓","OBJECTID":66985},"geometry":{"x":166443.4000000013,"y":2540333.6400000006}},{"attributes":{"ID":66986,"DIS_CODE":0,"TOWNNAME":"東山區","LI":"大客里","LIN":"17鄰","STREET":" ","SECT":" ","MAREA":"凹子\u25A0","LANE":" ","ALLEY":" ","HOUSE_NO":"２９號之６","E_COORD97":190784.92999999999,"N_COORD97":2579350.7200000002,"ADDRESS":"凹子\u25A0２９號之６","OBJECTID":66986},"geometry":{"x":190784.93000000156,"y":2579350.7200000007}},{"attributes":{"ID":66987,"DIS_CODE":0,"TOWNNAME":"南區","LI":"南華里","LIN":"6鄰","STREET":"中華南路","SECT":"二段","MAREA":" ","LANE":"４００巷","ALLEY":"２弄","HOUSE_NO":"７號四樓","E_COORD97":166443.39999999999,"N_COORD97":2540333.6400000001,"ADDRESS":"中華南路二段４００巷２弄７號四樓","OBJECTID":66987},"geometry":{"x":166443.4000000013,"y":2540333.6400000006}},{"attributes":{"ID":66988,"DIS_CODE":0,"TOWNNAME":"南區","LI":"南華里","LIN":"6鄰","STREET":"中華南路","SECT":"二段","MAREA":" ","LANE":"４００巷","ALLEY":"２弄","HOUSE_NO":"９號二樓","E_COORD97":166451.84,"N_COORD97":2540333.9900000002,"ADDRESS":"中華南路二段４００巷２弄９號二樓","OBJECTID":66988},"geometry":{"x":166451.84000000078,"y":2540333.9900000021}},{"attributes":{"ID":66989,"DIS_CODE":0,"TOWNNAME":"南區","LI":"南華里","LIN":"6鄰","STREET":"中華南路","SECT":"二段","MAREA":" ","LANE":"４００巷","ALLEY":"２弄","HOUSE_NO":"９號三樓","E_COORD97":166451.84,"N_COORD97":2540333.9900000002,"ADDRESS":"中華南路二段４００巷２弄９號三樓","OBJECTID":66989},"geometry":{"x":166451.84000000078,"y":2540333.9900000021}},{"attributes":{"ID":66990,"DIS_CODE":0,"TOWNNAME":"新化區","LI":"山\u25A0里","LIN":"5鄰","STREET":" ","SECT":" ","MAREA":"頂山\u25A0","LANE":" ","ALLEY":" ","HOUSE_NO":"２１號之２","E_COORD97":179552.88877799999,"N_COORD97":2546807.0770200002,"ADDRESS":"頂山\u25A0２１號之２","OBJECTID":66990},"geometry":{"x":179552.88877800014,"y":2546807.077018002}},{"attributes":{"ID":66991,"DIS_CODE":0,"TOWNNAME":"新化區","LI":"\u25A0拔里","LIN":"1鄰","STREET":" ","SECT":" ","MAREA":"\u25A0拔林","LANE":" ","ALLEY":" ","HOUSE_NO":"３２號之６","E_COORD97":182952.72,"N_COORD97":2552023.2599999998,"ADDRESS":"\u25A0拔林３２號之６","OBJECTID":66991},"geometry":{"x":182952.71999999974,"y":2552023.2599999998}},{"attributes":{"ID":66992,"DIS_CODE":0,"TOWNNAME":"柳營區","LI":"重溪里","LIN":"17鄰","STREET":" ","SECT":" ","MAREA":"小腳腿","LANE":" ","ALLEY":" ","HOUSE_NO":"１６４號","E_COORD97":185196,"N_COORD97":2576872.9399999999,"ADDRESS":"小腳腿１６４號","OBJECTID":66992},"geometry":{"x":185196.00000000093,"y":2576872.9399999995}},{"attributes":{"ID":66993,"DIS_CODE":0,"TOWNNAME":"柳營區","LI":"重溪里","LIN":"17鄰","STREET":" ","SECT":" ","MAREA":"小腳腿","LANE":" ","ALLEY":" ","HOUSE_NO":"１６６號","E_COORD97":185196.67999999999,"N_COORD97":2576830.8300000001,"ADDRESS":"小腳腿１６６號","OBJECTID":66993},"geometry":{"x":185196.68000000063,"y":2576830.8300000038}},{"attributes":{"ID":66994,"DIS_CODE":0,"TOWNNAME":"柳營區","LI":"重溪里","LIN":"17鄰","STREET":" ","SECT":" ","MAREA":"小腳腿","LANE":" ","ALLEY":" ","HOUSE_NO":"１６７號之１","E_COORD97":185235.20000000001,"N_COORD97":2576826.9300000002,"ADDRESS":"小腳腿１６７號之１","OBJECTID":66994},"geometry":{"x":185235.20000000205,"y":2576826.9300000016}},{"attributes":{"ID":66995,"DIS_CODE":0,"TOWNNAME":"柳營區","LI":"重溪里","LIN":"17鄰","STREET":" ","SECT":" ","MAREA":"小腳腿","LANE":" ","ALLEY":" ","HOUSE_NO":"１６７號","E_COORD97":185225.92000000001,"N_COORD97":2576821.4199999999,"ADDRESS":"小腳腿１６７號","OBJECTID":66995},"geometry":{"x":185225.91999999993,"y":2576821.4200000018}},{"attributes":{"ID":66996,"DIS_CODE":0,"TOWNNAME":"柳營區","LI":"重溪里","LIN":"17鄰","STREET":" ","SECT":" ","MAREA":"小腳腿","LANE":" ","ALLEY":" ","HOUSE_NO":"１６８號","E_COORD97":185221.38,"N_COORD97":2576849.6899999999,"ADDRESS":"小腳腿１６８號","OBJECTID":66996},"geometry":{"x":185221.37999999989,"y":2576849.6900000013}},{"attributes":{"ID":66997,"DIS_CODE":0,"TOWNNAME":"柳營區","LI":"重溪里","LIN":"17鄰","STREET":" ","SECT":" ","MAREA":"小腳腿","LANE":" ","ALLEY":" ","HOUSE_NO":"１６９號","E_COORD97":185235.09,"N_COORD97":2576853.7599999998,"ADDRESS":"小腳腿１６９號","OBJECTID":66997},"geometry":{"x":185235.08999999985,"y":2576853.7599999998}},{"attributes":{"ID":66998,"DIS_CODE":0,"TOWNNAME":"柳營區","LI":"重溪里","LIN":"17鄰","STREET":" ","SECT":" ","MAREA":"小腳腿","LANE":" ","ALLEY":" ","HOUSE_NO":"１７０號之１","E_COORD97":185261.70999999999,"N_COORD97":2576854.4900000002,"ADDRESS":"小腳腿１７０號之１","OBJECTID":66998},"geometry":{"x":185261.70999999996,"y":2576854.4900000021}},{"attributes":{"ID":66999,"DIS_CODE":0,"TOWNNAME":"柳營區","LI":"重溪里","LIN":"17鄰","STREET":" ","SECT":" ","MAREA":"小腳腿","LANE":" ","ALLEY":" ","HOUSE_NO":"１７０號之２","E_COORD97":185254.72,"N_COORD97":2576854.5299999998,"ADDRESS":"小腳腿１７０號之２","OBJECTID":66999},"geometry":{"x":185254.71999999974,"y":2576854.5299999993}},{"attributes":{"ID":67000,"DIS_CODE":0,"TOWNNAME":"柳營區","LI":"重溪里","LIN":"17鄰","STREET":" ","SECT":" ","MAREA":"小腳腿","LANE":" ","ALLEY":" ","HOUSE_NO":"１７０號","E_COORD97":185262.12,"N_COORD97":2576816.8700000001,"ADDRESS":"小腳腿１７０號","OBJECTID":67000},"geometry":{"x":185262.12000000011,"y":2576816.870000001}}]}