{"displayFieldName":"TOWNNAME","fieldAliases":{"ID":"ID","DIS_CODE":"DIS_CODE","TOWNNAME":"TOWNNAME","LI":"LI","LIN":"LIN","STREET":"STREET","SECT":"SECT","MAREA":"MAREA","LANE":"LANE","ALLEY":"ALLEY","HOUSE_NO":"HOUSE_NO","E_COORD97":"E_COORD97","N_COORD97":"N_COORD97","ADDRESS":"ADDRESS","OBJECTID":"OBJECTID"},"geometryType":"esriGeometryPoint","spatialReference":{"wkid":102443,"latestWkid":3826},"fields":[{"name":"ID","type":"esriFieldTypeDouble","alias":"ID"},{"name":"DIS_CODE","type":"esriFieldTypeInteger","alias":"DIS_CODE"},{"name":"TOWNNAME","type":"esriFieldTypeString","alias":"TOWNNAME","length":8},{"name":"LI","type":"esriFieldTypeString","alias":"LI","length":8},{"name":"LIN","type":"esriFieldTypeString","alias":"LIN","length":12},{"name":"STREET","type":"esriFieldTypeString","alias":"STREET","length":20},{"name":"SECT","type":"esriFieldTypeString","alias":"SECT","length":8},{"name":"MAREA","type":"esriFieldTypeString","alias":"MAREA","length":12},{"name":"LANE","type":"esriFieldTypeString","alias":"LANE","length":10},{"name":"ALLEY","type":"esriFieldTypeString","alias":"ALLEY","length":10},{"name":"HOUSE_NO","type":"esriFieldTypeString","alias":"HOUSE_NO","length":20},{"name":"E_COORD97","type":"esriFieldTypeDouble","alias":"E_COORD97"},{"name":"N_COORD97","type":"esriFieldTypeDouble","alias":"N_COORD97"},{"name":"ADDRESS","type":"esriFieldTypeString","alias":"ADDRESS","length":50},{"name":"OBJECTID","type":"esriFieldTypeOID","alias":"OBJECTID"}],"features":[{"attributes":{"ID":234005,"DIS_CODE":0,"TOWNNAME":"佳里區","LI":"安西里","LIN":"14鄰","STREET":"光復路","SECT":" ","MAREA":" ","LANE":" ","ALLEY":" ","HOUSE_NO":"３０９號","E_COORD97":165485.64000000001,"N_COORD97":2562548.4399999999,"ADDRESS":"光復路３０９號","OBJECTID":234001},"geometry":{"x":165485.63999999966,"y":2562548.4399999995}},{"attributes":{"ID":234006,"DIS_CODE":0,"TOWNNAME":"東區","LI":"東明里","LIN":"18鄰","STREET":"東安路","SECT":" ","MAREA":" ","LANE":"４８巷","ALLEY":" ","HOUSE_NO":"４９號","E_COORD97":170797.75,"N_COORD97":2543642.71,"ADDRESS":"東安路４８巷４９號","OBJECTID":234002},"geometry":{"x":170797.75,"y":2543642.7100000009}},{"attributes":{"ID":234007,"DIS_CODE":0,"TOWNNAME":"東區","LI":"東明里","LIN":"18鄰","STREET":"東安路","SECT":" ","MAREA":" ","LANE":"４８巷","ALLEY":" ","HOUSE_NO":"５３號","E_COORD97":170812.89000000001,"N_COORD97":2543625.6099999999,"ADDRESS":"東安路４８巷５３號","OBJECTID":234003},"geometry":{"x":170812.8900000006,"y":2543625.6099999994}},{"attributes":{"ID":234008,"DIS_CODE":0,"TOWNNAME":"東區","LI":"東明里","LIN":"17鄰","STREET":"東安路","SECT":" ","MAREA":" ","LANE":"７６巷","ALLEY":" ","HOUSE_NO":"４號","E_COORD97":170729.45000000001,"N_COORD97":2543657.9500000002,"ADDRESS":"東安路７６巷４號","OBJECTID":234004},"geometry":{"x":170729.45000000205,"y":2543657.9500000011}},{"attributes":{"ID":234009,"DIS_CODE":0,"TOWNNAME":"東區","LI":"泉南里","LIN":"32鄰","STREET":"林森路","SECT":"一段","MAREA":" ","LANE":"１５３巷","ALLEY":" ","HOUSE_NO":"５８號","E_COORD97":169536.92000000001,"N_COORD97":2542676.1299999999,"ADDRESS":"林森路一段１５３巷５８號","OBJECTID":234005},"geometry":{"x":169536.91999999993,"y":2542676.1299999971}},{"attributes":{"ID":234010,"DIS_CODE":0,"TOWNNAME":"永康區","LI":"正強里","LIN":"36鄰","STREET":"正強街","SECT":" ","MAREA":" ","LANE":"３１１巷","ALLEY":" ","HOUSE_NO":"１９號","E_COORD97":173192.92999999999,"N_COORD97":2548192.8500000001,"ADDRESS":"正強街３１１巷１９號","OBJECTID":234006},"geometry":{"x":173192.93000000063,"y":2548192.8500000015}},{"attributes":{"ID":234011,"DIS_CODE":0,"TOWNNAME":"永康區","LI":"正強里","LIN":"38鄰","STREET":"正強街","SECT":" ","MAREA":" ","LANE":"３０３巷","ALLEY":" ","HOUSE_NO":"１０號","E_COORD97":173234.07000000001,"N_COORD97":2548032.1699999999,"ADDRESS":"正強街３０３巷１０號","OBJECTID":234007},"geometry":{"x":173234.0700000003,"y":2548032.1699999999}},{"attributes":{"ID":234012,"DIS_CODE":0,"TOWNNAME":"永康區","LI":"正強里","LIN":"15鄰","STREET":"自強路","SECT":" ","MAREA":" ","LANE":"１８８巷","ALLEY":" ","HOUSE_NO":"８５號","E_COORD97":173248.03,"N_COORD97":2547248,"ADDRESS":"自強路１８８巷８５號","OBJECTID":234008},"geometry":{"x":173248.03000000212,"y":2547248}},{"attributes":{"ID":234013,"DIS_CODE":0,"TOWNNAME":"永康區","LI":"正強里","LIN":"6鄰","STREET":"自強路","SECT":" ","MAREA":" ","LANE":"３６８巷","ALLEY":" ","HOUSE_NO":"８號","E_COORD97":173517.92999999999,"N_COORD97":2547691.5,"ADDRESS":"自強路３６８巷８號","OBJECTID":234009},"geometry":{"x":173517.93000000063,"y":2547691.5}},{"attributes":{"ID":234014,"DIS_CODE":0,"TOWNNAME":"佳里區","LI":"安西里","LIN":"14鄰","STREET":"光復路","SECT":" ","MAREA":" ","LANE":" ","ALLEY":" ","HOUSE_NO":"３１３號","E_COORD97":165485.85000000001,"N_COORD97":2562554.5,"ADDRESS":"光復路３１３號","OBJECTID":234010},"geometry":{"x":165485.84999999963,"y":2562554.5}},{"attributes":{"ID":234015,"DIS_CODE":0,"TOWNNAME":"佳里區","LI":"安西里","LIN":"14鄰","STREET":"光復路","SECT":" ","MAREA":" ","LANE":" ","ALLEY":" ","HOUSE_NO":"３１５號","E_COORD97":165485.67999999999,"N_COORD97":2562560.1699999999,"ADDRESS":"光復路３１５號","OBJECTID":234011},"geometry":{"x":165485.6799999997,"y":2562560.1699999999}},{"attributes":{"ID":234016,"DIS_CODE":0,"TOWNNAME":"佳里區","LI":"安西里","LIN":"14鄰","STREET":"光復路","SECT":" ","MAREA":" ","LANE":" ","ALLEY":" ","HOUSE_NO":"３１９號","E_COORD97":165485.64999999999,"N_COORD97":2562565.6400000001,"ADDRESS":"光復路３１９號","OBJECTID":234012},"geometry":{"x":165485.6500000013,"y":2562565.6399999987}},{"attributes":{"ID":234017,"DIS_CODE":0,"TOWNNAME":"安南區","LI":"淵東里","LIN":"14鄰","STREET":"仁安一街","SECT":" ","MAREA":" ","LANE":" ","ALLEY":" ","HOUSE_NO":"５０號","E_COORD97":165693.76000000001,"N_COORD97":2550262.4199999999,"ADDRESS":"仁安一街５０號","OBJECTID":234013},"geometry":{"x":165693.75999999978,"y":2550262.4199999999}},{"attributes":{"ID":234018,"DIS_CODE":0,"TOWNNAME":"新市區","LI":"新市里","LIN":"14鄰","STREET":"中正路","SECT":" ","MAREA":" ","LANE":" ","ALLEY":" ","HOUSE_NO":"３２１之３號","E_COORD97":177686.56,"N_COORD97":2553285.7999999998,"ADDRESS":"中正路３２１之３號","OBJECTID":234014},"geometry":{"x":177686.55999999959,"y":2553285.8000000026}},{"attributes":{"ID":234019,"DIS_CODE":0,"TOWNNAME":"永康區","LI":"正強里","LIN":"45鄰","STREET":"中正路","SECT":" ","MAREA":" ","LANE":"２５６巷","ALLEY":" ","HOUSE_NO":"７號之４０","E_COORD97":173182.95999999999,"N_COORD97":2547985.3100000001,"ADDRESS":"中正路２５６巷７號之４０","OBJECTID":234015},"geometry":{"x":173182.96000000089,"y":2547985.3100000005}},{"attributes":{"ID":234020,"DIS_CODE":0,"TOWNNAME":"永康區","LI":"正強里","LIN":"38鄰","STREET":"正強街","SECT":" ","MAREA":" ","LANE":"３０３巷","ALLEY":" ","HOUSE_NO":"２２號","E_COORD97":173208.73999999999,"N_COORD97":2548025.1699999999,"ADDRESS":"正強街３０３巷２２號","OBJECTID":234016},"geometry":{"x":173208.74000000022,"y":2548025.1700000018}},{"attributes":{"ID":234021,"DIS_CODE":0,"TOWNNAME":"永康區","LI":"永康里","LIN":"24鄰","STREET":"中山南路","SECT":" ","MAREA":" ","LANE":"５９７巷","ALLEY":" ","HOUSE_NO":"２４號之３","E_COORD97":173531.10999999999,"N_COORD97":2547281.0499999998,"ADDRESS":"中山南路５９７巷２４號之３","OBJECTID":234017},"geometry":{"x":173531.11000000127,"y":2547281.0500000026}},{"attributes":{"ID":234022,"DIS_CODE":0,"TOWNNAME":"永康區","LI":"正強里","LIN":"22鄰","STREET":"自強路","SECT":" ","MAREA":" ","LANE":"３２１巷","ALLEY":" ","HOUSE_NO":"１９號","E_COORD97":173427.47,"N_COORD97":2547787.5,"ADDRESS":"自強路３２１巷１９號","OBJECTID":234018},"geometry":{"x":173427.46999999974,"y":2547787.5000000037}},{"attributes":{"ID":234023,"DIS_CODE":0,"TOWNNAME":"永康區","LI":"正強里","LIN":"36鄰","STREET":"正強街","SECT":" ","MAREA":" ","LANE":"３０７巷","ALLEY":" ","HOUSE_NO":"１８號","E_COORD97":173210.62,"N_COORD97":2548121.6899999999,"ADDRESS":"正強街３０７巷１８號","OBJECTID":234019},"geometry":{"x":173210.62000000104,"y":2548121.6900000013}},{"attributes":{"ID":234024,"DIS_CODE":0,"TOWNNAME":"永康區","LI":"永康里","LIN":"2鄰","STREET":"中山北路","SECT":" ","MAREA":" ","LANE":"３５巷","ALLEY":" ","HOUSE_NO":"９號","E_COORD97":173929.54000000001,"N_COORD97":2547416.4900000002,"ADDRESS":"中山北路３５巷９號","OBJECTID":234020},"geometry":{"x":173929.54000000097,"y":2547416.4900000021}},{"attributes":{"ID":234025,"DIS_CODE":0,"TOWNNAME":"永康區","LI":"正強里","LIN":"46鄰","STREET":"中正路","SECT":" ","MAREA":" ","LANE":"２５６巷","ALLEY":" ","HOUSE_NO":"９號之１８","E_COORD97":173207.20999999999,"N_COORD97":2547991.8799999999,"ADDRESS":"中正路２５６巷９號之１８","OBJECTID":234021},"geometry":{"x":173207.20999999996,"y":2547991.8800000008}},{"attributes":{"ID":234026,"DIS_CODE":0,"TOWNNAME":"永康區","LI":"正強里","LIN":"21鄰","STREET":"自強路","SECT":" ","MAREA":" ","LANE":"３５３巷","ALLEY":" ","HOUSE_NO":"７號之２","E_COORD97":173478.26999999999,"N_COORD97":2547816.79,"ADDRESS":"自強路３５３巷７號之２","OBJECTID":234022},"geometry":{"x":173478.27000000048,"y":2547816.790000001}},{"attributes":{"ID":234027,"DIS_CODE":0,"TOWNNAME":"永康區","LI":"北灣里","LIN":"23鄰","STREET":"大灣路","SECT":" ","MAREA":" ","LANE":"４０巷","ALLEY":" ","HOUSE_NO":"６號","E_COORD97":175280.23000000001,"N_COORD97":2545920.9700000002,"ADDRESS":"大灣路４０巷６號","OBJECTID":234023},"geometry":{"x":175280.23000000138,"y":2545920.9700000025}},{"attributes":{"ID":234028,"DIS_CODE":0,"TOWNNAME":"東區","LI":"東明里","LIN":"20鄰","STREET":"東安路","SECT":" ","MAREA":" ","LANE":" ","ALLEY":" ","HOUSE_NO":"５０號","E_COORD97":170696.03,"N_COORD97":2543616.6800000002,"ADDRESS":"東安路５０號","OBJECTID":234024},"geometry":{"x":170696.03000000026,"y":2543616.6800000016}},{"attributes":{"ID":234029,"DIS_CODE":0,"TOWNNAME":"永康區","LI":"安康里","LIN":"23鄰","STREET":"中華西街","SECT":" ","MAREA":" ","LANE":"１２２巷","ALLEY":" ","HOUSE_NO":"１７號","E_COORD97":170784.39999999999,"N_COORD97":2546189.2400000002,"ADDRESS":"中華西街１２２巷１７號","OBJECTID":234025},"geometry":{"x":170784.40000000224,"y":2546189.2400000039}},{"attributes":{"ID":234030,"DIS_CODE":0,"TOWNNAME":"永康區","LI":"正強里","LIN":"35鄰","STREET":"正強街","SECT":" ","MAREA":" ","LANE":"３１３巷","ALLEY":" ","HOUSE_NO":"１１號","E_COORD97":173215.95000000001,"N_COORD97":2548246.1499999999,"ADDRESS":"正強街３１３巷１１號","OBJECTID":234026},"geometry":{"x":173215.95000000019,"y":2548246.1500000022}},{"attributes":{"ID":234031,"DIS_CODE":0,"TOWNNAME":"永康區","LI":"永康里","LIN":"33鄰","STREET":"永大路","SECT":"二段","MAREA":" ","LANE":"１３１０巷","ALLEY":" ","HOUSE_NO":"３９號","E_COORD97":174326.37,"N_COORD97":2547002.2999999998,"ADDRESS":"永大路二段１３１０巷３９號","OBJECTID":234027},"geometry":{"x":174326.37000000011,"y":2547002.3000000007}},{"attributes":{"ID":234032,"DIS_CODE":0,"TOWNNAME":"永康區","LI":"安康里","LIN":"19鄰","STREET":"中華西街","SECT":" ","MAREA":" ","LANE":"１２２巷","ALLEY":" ","HOUSE_NO":"３４號","E_COORD97":170793.98999999999,"N_COORD97":2546177.2400000002,"ADDRESS":"中華西街１２２巷３４號","OBJECTID":234028},"geometry":{"x":170793.99000000115,"y":2546177.2400000021}},{"attributes":{"ID":234033,"DIS_CODE":0,"TOWNNAME":"永康區","LI":"正強里","LIN":"45鄰","STREET":"中正路","SECT":" ","MAREA":" ","LANE":"２５６巷","ALLEY":" ","HOUSE_NO":"７號之１３","E_COORD97":173183.01000000001,"N_COORD97":2547985.3100000001,"ADDRESS":"中正路２５６巷７號之１３","OBJECTID":234029},"geometry":{"x":173183.00999999978,"y":2547985.3100000005}},{"attributes":{"ID":234034,"DIS_CODE":0,"TOWNNAME":"永康區","LI":"安康里","LIN":"13鄰","STREET":"中華路","SECT":" ","MAREA":" ","LANE":"６６１巷","ALLEY":" ","HOUSE_NO":"１２１號","E_COORD97":170772.20999999999,"N_COORD97":2546088.4900000002,"ADDRESS":"中華路６６１巷１２１號","OBJECTID":234030},"geometry":{"x":170772.21000000089,"y":2546088.4900000002}},{"attributes":{"ID":234035,"DIS_CODE":0,"TOWNNAME":"永康區","LI":"安康里","LIN":"23鄰","STREET":"中華路","SECT":" ","MAREA":" ","LANE":"７０３巷","ALLEY":" ","HOUSE_NO":"１１號","E_COORD97":170832.85000000001,"N_COORD97":2546277.4900000002,"ADDRESS":"中華路７０３巷１１號","OBJECTID":234031},"geometry":{"x":170832.84999999963,"y":2546277.4900000002}},{"attributes":{"ID":234036,"DIS_CODE":0,"TOWNNAME":"永康區","LI":"永康里","LIN":"24鄰","STREET":"中山南路","SECT":" ","MAREA":" ","LANE":"５９７巷","ALLEY":" ","HOUSE_NO":"３２號之２","E_COORD97":173517.23000000001,"N_COORD97":2547288.54,"ADDRESS":"中山南路５９７巷３２號之２","OBJECTID":234032},"geometry":{"x":173517.23000000138,"y":2547288.540000001}},{"attributes":{"ID":234037,"DIS_CODE":0,"TOWNNAME":"新營區","LI":"三仙里","LIN":"16鄰","STREET":"三興街","SECT":" ","MAREA":" ","LANE":"３２巷","ALLEY":" ","HOUSE_NO":"９號","E_COORD97":179527.97,"N_COORD97":2578343.4900000002,"ADDRESS":"三興街３２巷９號","OBJECTID":234033},"geometry":{"x":179527.96999999974,"y":2578343.4900000021}},{"attributes":{"ID":234038,"DIS_CODE":0,"TOWNNAME":"永康區","LI":"永康里","LIN":"24鄰","STREET":"中山南路","SECT":" ","MAREA":" ","LANE":"５９７巷","ALLEY":" ","HOUSE_NO":"２８號之３","E_COORD97":173524.75,"N_COORD97":2547300.04,"ADDRESS":"中山南路５９７巷２８號之３","OBJECTID":234034},"geometry":{"x":173524.75000000093,"y":2547300.0399999991}},{"attributes":{"ID":234039,"DIS_CODE":0,"TOWNNAME":"永康區","LI":"正強里","LIN":"12鄰","STREET":"正強街","SECT":" ","MAREA":" ","LANE":"１２２巷","ALLEY":" ","HOUSE_NO":"２號","E_COORD97":173364.92999999999,"N_COORD97":2547411.4900000002,"ADDRESS":"正強街１２２巷２號","OBJECTID":234035},"geometry":{"x":173364.9299999997,"y":2547411.4900000039}},{"attributes":{"ID":234040,"DIS_CODE":0,"TOWNNAME":"永康區","LI":"正強里","LIN":"21鄰","STREET":"自強路","SECT":" ","MAREA":" ","LANE":"３３３巷","ALLEY":" ","HOUSE_NO":"１號","E_COORD97":173473.22,"N_COORD97":2547778.98,"ADDRESS":"自強路３３３巷１號","OBJECTID":234036},"geometry":{"x":173473.21999999974,"y":2547778.9800000023}},{"attributes":{"ID":234041,"DIS_CODE":0,"TOWNNAME":"永康區","LI":"正強里","LIN":"11鄰","STREET":"正強街","SECT":" ","MAREA":" ","LANE":"１２２巷","ALLEY":" ","HOUSE_NO":"９號","E_COORD97":173378.37,"N_COORD97":2547428.2400000002,"ADDRESS":"正強街１２２巷９號","OBJECTID":234037},"geometry":{"x":173378.37000000104,"y":2547428.2400000021}},{"attributes":{"ID":234042,"DIS_CODE":0,"TOWNNAME":"永康區","LI":"正強里","LIN":"36鄰","STREET":"正強街","SECT":" ","MAREA":" ","LANE":"３０９巷","ALLEY":" ","HOUSE_NO":"３８號","E_COORD97":173169.94,"N_COORD97":2548157.8199999998,"ADDRESS":"正強街３０９巷３８號","OBJECTID":234038},"geometry":{"x":173169.94000000134,"y":2548157.8200000003}},{"attributes":{"ID":234043,"DIS_CODE":0,"TOWNNAME":"永康區","LI":"正強里","LIN":"21鄰","STREET":"自強路","SECT":" ","MAREA":" ","LANE":"３５３巷","ALLEY":" ","HOUSE_NO":"９號之１","E_COORD97":173480.45999999999,"N_COORD97":2547807.54,"ADDRESS":"自強路３５３巷９號之１","OBJECTID":234039},"geometry":{"x":173480.46000000183,"y":2547807.540000001}},{"attributes":{"ID":234044,"DIS_CODE":0,"TOWNNAME":"永康區","LI":"永康里","LIN":"24鄰","STREET":"中山南路","SECT":" ","MAREA":" ","LANE":"５９７巷","ALLEY":" ","HOUSE_NO":"２８號之１","E_COORD97":173524.64999999999,"N_COORD97":2547300.04,"ADDRESS":"中山南路５９７巷２８號之１","OBJECTID":234040},"geometry":{"x":173524.65000000037,"y":2547300.0399999991}},{"attributes":{"ID":234045,"DIS_CODE":0,"TOWNNAME":"安平區","LI":"海頭里","LIN":"16鄰","STREET":"古堡街","SECT":" ","MAREA":" ","LANE":"９０巷","ALLEY":" ","HOUSE_NO":"２１號","E_COORD97":163922.62,"N_COORD97":2544959.04,"ADDRESS":"古堡街９０巷２１號","OBJECTID":234041},"geometry":{"x":163922.62000000104,"y":2544959.0400000028}},{"attributes":{"ID":234046,"DIS_CODE":0,"TOWNNAME":"永康區","LI":"安康里","LIN":"17鄰","STREET":"中華路","SECT":" ","MAREA":" ","LANE":"６１９巷","ALLEY":" ","HOUSE_NO":"１４號","E_COORD97":171021.45999999999,"N_COORD97":2546095.25,"ADDRESS":"中華路６１９巷１４號","OBJECTID":234042},"geometry":{"x":171021.46000000089,"y":2546095.2500000019}},{"attributes":{"ID":234047,"DIS_CODE":0,"TOWNNAME":"永康區","LI":"永康里","LIN":"15鄰","STREET":"永中街","SECT":" ","MAREA":" ","LANE":"６０巷","ALLEY":" ","HOUSE_NO":"１７號","E_COORD97":173970.81,"N_COORD97":2547128.9900000002,"ADDRESS":"永中街６０巷１７號","OBJECTID":234043},"geometry":{"x":173970.80999999959,"y":2547128.9900000002}},{"attributes":{"ID":234048,"DIS_CODE":0,"TOWNNAME":"永康區","LI":"正強里","LIN":"6鄰","STREET":"自強路","SECT":" ","MAREA":" ","LANE":"３６８巷","ALLEY":" ","HOUSE_NO":"７號","E_COORD97":173524.88,"N_COORD97":2547709.4900000002,"ADDRESS":"自強路３６８巷７號","OBJECTID":234044},"geometry":{"x":173524.87999999989,"y":2547709.4900000002}},{"attributes":{"ID":234049,"DIS_CODE":0,"TOWNNAME":"永康區","LI":"正強里","LIN":"6鄰","STREET":"自強路","SECT":" ","MAREA":" ","LANE":"３６８巷","ALLEY":" ","HOUSE_NO":"５號","E_COORD97":173521.85999999999,"N_COORD97":2547713.2400000002,"ADDRESS":"自強路３６８巷５號","OBJECTID":234045},"geometry":{"x":173521.86000000034,"y":2547713.2400000021}},{"attributes":{"ID":234050,"DIS_CODE":0,"TOWNNAME":"永康區","LI":"永康里","LIN":"33鄰","STREET":"永大路","SECT":"二段","MAREA":" ","LANE":"１３１０巷","ALLEY":" ","HOUSE_NO":"４７號","E_COORD97":174324.70999999999,"N_COORD97":2547019.7999999998,"ADDRESS":"永大路二段１３１０巷４７號","OBJECTID":234046},"geometry":{"x":174324.71000000183,"y":2547019.8000000007}},{"attributes":{"ID":234051,"DIS_CODE":0,"TOWNNAME":"永康區","LI":"永康里","LIN":"24鄰","STREET":"中山南路","SECT":" ","MAREA":" ","LANE":"５９７巷","ALLEY":" ","HOUSE_NO":"３０號之３","E_COORD97":173515.20000000001,"N_COORD97":2547297.29,"ADDRESS":"中山南路５９７巷３０號之３","OBJECTID":234047},"geometry":{"x":173515.20000000112,"y":2547297.290000001}},{"attributes":{"ID":234052,"DIS_CODE":0,"TOWNNAME":"永康區","LI":"正強里","LIN":"35鄰","STREET":"正強街","SECT":" ","MAREA":" ","LANE":"３１１巷","ALLEY":" ","HOUSE_NO":"２６號","E_COORD97":173197.88,"N_COORD97":2548214.29,"ADDRESS":"正強街３１１巷２６號","OBJECTID":234048},"geometry":{"x":173197.88000000175,"y":2548214.2899999991}},{"attributes":{"ID":234053,"DIS_CODE":0,"TOWNNAME":"永康區","LI":"正強里","LIN":"21鄰","STREET":"自強路","SECT":" ","MAREA":" ","LANE":"３３３巷","ALLEY":" ","HOUSE_NO":"４號","E_COORD97":173465.85999999999,"N_COORD97":2547788.48,"ADDRESS":"自強路３３３巷４號","OBJECTID":234049},"geometry":{"x":173465.86000000034,"y":2547788.4800000023}},{"attributes":{"ID":234054,"DIS_CODE":0,"TOWNNAME":"永康區","LI":"正強里","LIN":"11鄰","STREET":"正強街","SECT":" ","MAREA":" ","LANE":"１２２巷","ALLEY":" ","HOUSE_NO":"３號","E_COORD97":173365.32999999999,"N_COORD97":2547426.4900000002,"ADDRESS":"正強街１２２巷３號","OBJECTID":234050},"geometry":{"x":173365.33000000101,"y":2547426.4900000021}},{"attributes":{"ID":234055,"DIS_CODE":0,"TOWNNAME":"永康區","LI":"正強里","LIN":"35鄰","STREET":"正強街","SECT":" ","MAREA":" ","LANE":"３１３巷","ALLEY":" ","HOUSE_NO":"１６號","E_COORD97":173215.64999999999,"N_COORD97":2548266.8900000001,"ADDRESS":"正強街３１３巷１６號","OBJECTID":234051},"geometry":{"x":173215.6500000013,"y":2548266.8900000043}},{"attributes":{"ID":234056,"DIS_CODE":0,"TOWNNAME":"永康區","LI":"正強里","LIN":"12鄰","STREET":"正強街","SECT":" ","MAREA":" ","LANE":"１２２巷","ALLEY":" ","HOUSE_NO":"２１號","E_COORD97":173419.07000000001,"N_COORD97":2547432.71,"ADDRESS":"正強街１２２巷２１號","OBJECTID":234052},"geometry":{"x":173419.07000000216,"y":2547432.7100000028}},{"attributes":{"ID":234057,"DIS_CODE":0,"TOWNNAME":"永康區","LI":"永康里","LIN":"22鄰","STREET":"中山南路","SECT":" ","MAREA":" ","LANE":"４７１巷","ALLEY":" ","HOUSE_NO":"４８號","E_COORD97":173189.95000000001,"N_COORD97":2547157.25,"ADDRESS":"中山南路４７１巷４８號","OBJECTID":234053},"geometry":{"x":173189.95000000112,"y":2547157.25}},{"attributes":{"ID":234058,"DIS_CODE":0,"TOWNNAME":"永康區","LI":"永康里","LIN":"26鄰","STREET":"永明街","SECT":" ","MAREA":" ","LANE":"５３巷","ALLEY":" ","HOUSE_NO":"１７號","E_COORD97":174127.23999999999,"N_COORD97":2547362.1200000001,"ADDRESS":"永明街５３巷１７號","OBJECTID":234054},"geometry":{"x":174127.24000000115,"y":2547362.1200000029}},{"attributes":{"ID":234059,"DIS_CODE":0,"TOWNNAME":"永康區","LI":"正強里","LIN":"3鄰","STREET":"中正路","SECT":" ","MAREA":" ","LANE":"１巷","ALLEY":" ","HOUSE_NO":"３２號","E_COORD97":173664.01999999999,"N_COORD97":2547600.2599999998,"ADDRESS":"中正路１巷３２號","OBJECTID":234055},"geometry":{"x":173664.01999999955,"y":2547600.2600000016}},{"attributes":{"ID":234060,"DIS_CODE":0,"TOWNNAME":"永康區","LI":"永康里","LIN":"41鄰","STREET":"永大路","SECT":"二段","MAREA":" ","LANE":"７２３巷","ALLEY":" ","HOUSE_NO":"３０號","E_COORD97":174297.87,"N_COORD97":2546638.2799999998,"ADDRESS":"永大路二段７２３巷３０號","OBJECTID":234056},"geometry":{"x":174297.87000000011,"y":2546638.2799999993}},{"attributes":{"ID":234061,"DIS_CODE":0,"TOWNNAME":"永康區","LI":"永康里","LIN":"26鄰","STREET":"中山北路","SECT":" ","MAREA":" ","LANE":"１０４巷","ALLEY":" ","HOUSE_NO":"６號","E_COORD97":174155.09,"N_COORD97":2547430.3100000001,"ADDRESS":"中山北路１０４巷６號","OBJECTID":234057},"geometry":{"x":174155.08999999985,"y":2547430.3100000024}},{"attributes":{"ID":234062,"DIS_CODE":0,"TOWNNAME":"永康區","LI":"永康里","LIN":"32鄰","STREET":"大同街","SECT":" ","MAREA":" ","LANE":"８３９巷","ALLEY":" ","HOUSE_NO":"１０號","E_COORD97":174355.09,"N_COORD97":2547099.2400000002,"ADDRESS":"大同街８３９巷１０號","OBJECTID":234058},"geometry":{"x":174355.08999999985,"y":2547099.2400000021}},{"attributes":{"ID":234063,"DIS_CODE":0,"TOWNNAME":"永康區","LI":"正強里","LIN":"14鄰","STREET":"正強街","SECT":" ","MAREA":" ","LANE":"１１１巷","ALLEY":" ","HOUSE_NO":"３號","E_COORD97":173310.84,"N_COORD97":2547402.3300000001,"ADDRESS":"正強街１１１巷３號","OBJECTID":234059},"geometry":{"x":173310.83999999985,"y":2547402.3300000038}},{"attributes":{"ID":234064,"DIS_CODE":0,"TOWNNAME":"新市區","LI":"永就里","LIN":"14鄰","STREET":"永華二街","SECT":" ","MAREA":" ","LANE":" ","ALLEY":" ","HOUSE_NO":"４１號","E_COORD97":177709.62,"N_COORD97":2551097.75,"ADDRESS":"永華二街４１號","OBJECTID":234060},"geometry":{"x":177709.62000000104,"y":2551097.75}},{"attributes":{"ID":234065,"DIS_CODE":0,"TOWNNAME":"新市區","LI":"新和里","LIN":"14鄰","STREET":"忠孝街","SECT":" ","MAREA":" ","LANE":" ","ALLEY":" ","HOUSE_NO":"１０２號","E_COORD97":177696.23000000001,"N_COORD97":2552589.25,"ADDRESS":"忠孝街１０２號","OBJECTID":234061},"geometry":{"x":177696.23000000045,"y":2552589.25}},{"attributes":{"ID":234066,"DIS_CODE":0,"TOWNNAME":"新營區","LI":"太北里","LIN":"16鄰","STREET":" ","SECT":" ","MAREA":"太子宮","LANE":" ","ALLEY":" ","HOUSE_NO":"１３２號","E_COORD97":175924.07336000001,"N_COORD97":2576902.3464899999,"ADDRESS":"太子宮１３２號","OBJECTID":234062},"geometry":{"x":175924.07335999981,"y":2576902.3464919999}},{"attributes":{"ID":234067,"DIS_CODE":0,"TOWNNAME":"東山區","LI":"東中里","LIN":"16鄰","STREET":" ","SECT":" ","MAREA":"北馬","LANE":" ","ALLEY":" ","HOUSE_NO":"２０號","E_COORD97":188411.53,"N_COORD97":2578357.8700000001,"ADDRESS":"北馬２０號","OBJECTID":234063},"geometry":{"x":188411.53000000212,"y":2578357.8700000029}},{"attributes":{"ID":234068,"DIS_CODE":0,"TOWNNAME":"東區","LI":"東明里","LIN":"29鄰","STREET":"東寧路","SECT":" ","MAREA":" ","LANE":"２０１巷","ALLEY":" ","HOUSE_NO":"３０號之５","E_COORD97":170634.29999999999,"N_COORD97":2543603.2599999998,"ADDRESS":"東寧路２０１巷３０號之５","OBJECTID":234064},"geometry":{"x":170634.30000000075,"y":2543603.2600000016}},{"attributes":{"ID":234069,"DIS_CODE":0,"TOWNNAME":"新營區","LI":"三仙里","LIN":"16鄰","STREET":"三興街","SECT":" ","MAREA":" ","LANE":"３２巷","ALLEY":" ","HOUSE_NO":"１２號","E_COORD97":179547.67999999999,"N_COORD97":2578346.73,"ADDRESS":"三興街３２巷１２號","OBJECTID":234065},"geometry":{"x":179547.68000000063,"y":2578346.7300000004}},{"attributes":{"ID":234070,"DIS_CODE":0,"TOWNNAME":"新營區","LI":"三仙里","LIN":"16鄰","STREET":"三興街","SECT":" ","MAREA":" ","LANE":"３２巷","ALLEY":" ","HOUSE_NO":"６號","E_COORD97":179515.70999999999,"N_COORD97":2578336.9100000001,"ADDRESS":"三興街３２巷６號","OBJECTID":234066},"geometry":{"x":179515.71000000089,"y":2578336.910000002}},{"attributes":{"ID":234071,"DIS_CODE":0,"TOWNNAME":"新營區","LI":"三仙里","LIN":"16鄰","STREET":"三興街","SECT":" ","MAREA":" ","LANE":"３２巷","ALLEY":" ","HOUSE_NO":"３號","E_COORD97":179504.51000000001,"N_COORD97":2578330.3199999998,"ADDRESS":"三興街３２巷３號","OBJECTID":234067},"geometry":{"x":179504.50999999978,"y":2578330.3200000022}},{"attributes":{"ID":234072,"DIS_CODE":0,"TOWNNAME":"東區","LI":"東安里","LIN":"22鄰","STREET":"衛國街","SECT":" ","MAREA":" ","LANE":"４巷","ALLEY":" ","HOUSE_NO":"１號之１","E_COORD97":170249.76999999999,"N_COORD97":2542939.7000000002,"ADDRESS":"衛國街４巷１號之１","OBJECTID":234068},"geometry":{"x":170249.76999999955,"y":2542939.6999999993}},{"attributes":{"ID":234073,"DIS_CODE":0,"TOWNNAME":"新營區","LI":"三仙里","LIN":"16鄰","STREET":"三興街","SECT":" ","MAREA":" ","LANE":"３２巷","ALLEY":" ","HOUSE_NO":"１號","E_COORD97":179493.14999999999,"N_COORD97":2578325.9399999999,"ADDRESS":"三興街３２巷１號","OBJECTID":234069},"geometry":{"x":179493.1500000013,"y":2578325.9400000013}},{"attributes":{"ID":234074,"DIS_CODE":0,"TOWNNAME":"永康區","LI":"正強里","LIN":"30鄰","STREET":"正強街","SECT":" ","MAREA":" ","LANE":"２１５巷","ALLEY":" ","HOUSE_NO":"９２號","E_COORD97":173152.51000000001,"N_COORD97":2547697.75,"ADDRESS":"正強街２１５巷９２號","OBJECTID":234070},"geometry":{"x":173152.50999999978,"y":2547697.7500000037}},{"attributes":{"ID":234075,"DIS_CODE":0,"TOWNNAME":"永康區","LI":"永康里","LIN":"11鄰","STREET":"中山南路","SECT":" ","MAREA":" ","LANE":"１０５４巷","ALLEY":" ","HOUSE_NO":"３０號","E_COORD97":173733.54000000001,"N_COORD97":2547180.75,"ADDRESS":"中山南路１０５４巷３０號","OBJECTID":234071},"geometry":{"x":173733.54000000004,"y":2547180.75}},{"attributes":{"ID":234076,"DIS_CODE":0,"TOWNNAME":"永康區","LI":"正強里","LIN":"13鄰","STREET":"正強街","SECT":" ","MAREA":" ","LANE":"１１１巷","ALLEY":" ","HOUSE_NO":"８號","E_COORD97":173300.75,"N_COORD97":2547416.9900000002,"ADDRESS":"正強街１１１巷８號","OBJECTID":234072},"geometry":{"x":173300.75000000093,"y":2547416.9900000002}},{"attributes":{"ID":234077,"DIS_CODE":0,"TOWNNAME":"永康區","LI":"正強里","LIN":"30鄰","STREET":"正強街","SECT":" ","MAREA":" ","LANE":"２１５巷","ALLEY":" ","HOUSE_NO":"６６號","E_COORD97":173200.04000000001,"N_COORD97":2547705.9399999999,"ADDRESS":"正強街２１５巷６６號","OBJECTID":234073},"geometry":{"x":173200.04000000004,"y":2547705.9400000032}},{"attributes":{"ID":234078,"DIS_CODE":0,"TOWNNAME":"永康區","LI":"北灣里","LIN":"39鄰","STREET":"大同街","SECT":" ","MAREA":" ","LANE":"４２５巷","ALLEY":" ","HOUSE_NO":"１６號","E_COORD97":174574.92000000001,"N_COORD97":2546340.7400000002,"ADDRESS":"大同街４２５巷１６號","OBJECTID":234074},"geometry":{"x":174574.92000000086,"y":2546340.7400000002}},{"attributes":{"ID":234079,"DIS_CODE":0,"TOWNNAME":"新市區","LI":"新和里","LIN":"14鄰","STREET":"忠孝街","SECT":" ","MAREA":" ","LANE":" ","ALLEY":" ","HOUSE_NO":"１１２之１號","E_COORD97":177705.26000000001,"N_COORD97":2552614.5499999998,"ADDRESS":"忠孝街１１２之１號","OBJECTID":234075},"geometry":{"x":177705.25999999978,"y":2552614.5500000007}},{"attributes":{"ID":234080,"DIS_CODE":0,"TOWNNAME":"中西區","LI":"永華里","LIN":"14鄰","STREET":"開山路","SECT":" ","MAREA":" ","LANE":" ","ALLEY":" ","HOUSE_NO":"６２號","E_COORD97":168635.54000000001,"N_COORD97":2543457.4300000002,"ADDRESS":"開山路６２號","OBJECTID":234076},"geometry":{"x":168635.54000000097,"y":2543457.4299999997}},{"attributes":{"ID":234081,"DIS_CODE":0,"TOWNNAME":"中西區","LI":"永華里","LIN":"14鄰","STREET":"開山路","SECT":" ","MAREA":" ","LANE":" ","ALLEY":" ","HOUSE_NO":"６４號","E_COORD97":168637.62,"N_COORD97":2543452.5099999998,"ADDRESS":"開山路６４號","OBJECTID":234077},"geometry":{"x":168637.62000000011,"y":2543452.5100000016}},{"attributes":{"ID":234082,"DIS_CODE":0,"TOWNNAME":"中西區","LI":"三合里","LIN":"14鄰","STREET":"金華路","SECT":"四段","MAREA":" ","LANE":" ","ALLEY":" ","HOUSE_NO":"１７９號","E_COORD97":167563.95999999999,"N_COORD97":2544649.98,"ADDRESS":"金華路四段１７９號","OBJECTID":234078},"geometry":{"x":167563.95999999996,"y":2544649.9800000023}},{"attributes":{"ID":234083,"DIS_CODE":0,"TOWNNAME":"中西區","LI":"三合里","LIN":"14鄰","STREET":"金華路","SECT":"四段","MAREA":" ","LANE":" ","ALLEY":" ","HOUSE_NO":"１８１號","E_COORD97":167567.82000000001,"N_COORD97":2544658.7999999998,"ADDRESS":"金華路四段１８１號","OBJECTID":234079},"geometry":{"x":167567.82000000123,"y":2544658.8000000007}},{"attributes":{"ID":234084,"DIS_CODE":0,"TOWNNAME":"中西區","LI":"永華里","LIN":"14鄰","STREET":"開山路","SECT":" ","MAREA":" ","LANE":" ","ALLEY":" ","HOUSE_NO":"６６號","E_COORD97":168640.35999999999,"N_COORD97":2543447.25,"ADDRESS":"開山路６６號","OBJECTID":234080},"geometry":{"x":168640.36000000127,"y":2543447.2500000019}},{"attributes":{"ID":234085,"DIS_CODE":0,"TOWNNAME":"中西區","LI":"永華里","LIN":"14鄰","STREET":"開山路","SECT":" ","MAREA":" ","LANE":" ","ALLEY":" ","HOUSE_NO":"７０號","E_COORD97":168647.48999999999,"N_COORD97":2543435.9900000002,"ADDRESS":"開山路７０號","OBJECTID":234081},"geometry":{"x":168647.48999999929,"y":2543435.9900000021}},{"attributes":{"ID":234086,"DIS_CODE":0,"TOWNNAME":"東山區","LI":"東原里","LIN":"16鄰","STREET":" ","SECT":" ","MAREA":"瓦厝子","LANE":" ","ALLEY":" ","HOUSE_NO":"１０號之１","E_COORD97":193607.84,"N_COORD97":2574348.98,"ADDRESS":"瓦厝子１０號之１","OBJECTID":234082},"geometry":{"x":193607.83999999985,"y":2574348.9800000023}},{"attributes":{"ID":234087,"DIS_CODE":0,"TOWNNAME":"東山區","LI":"東原里","LIN":"16鄰","STREET":" ","SECT":" ","MAREA":"瓦厝子","LANE":" ","ALLEY":" ","HOUSE_NO":"１０號","E_COORD97":193628.64999999999,"N_COORD97":2574383.9900000002,"ADDRESS":"瓦厝子１０號","OBJECTID":234083},"geometry":{"x":193628.65000000224,"y":2574383.9900000002}},{"attributes":{"ID":234088,"DIS_CODE":0,"TOWNNAME":"東山區","LI":"東原里","LIN":"16鄰","STREET":" ","SECT":" ","MAREA":"瓦厝子","LANE":" ","ALLEY":" ","HOUSE_NO":"１４號","E_COORD97":193641.67000000001,"N_COORD97":2574400.8300000001,"ADDRESS":"瓦厝子１４號","OBJECTID":234084},"geometry":{"x":193641.67000000179,"y":2574400.8300000019}},{"attributes":{"ID":234089,"DIS_CODE":0,"TOWNNAME":"東山區","LI":"東原里","LIN":"16鄰","STREET":" ","SECT":" ","MAREA":"瓦厝子","LANE":" ","ALLEY":" ","HOUSE_NO":"１６號","E_COORD97":193656.04000000001,"N_COORD97":2574305.4700000002,"ADDRESS":"瓦厝子１６號","OBJECTID":234085},"geometry":{"x":193656.03999999911,"y":2574305.4700000025}},{"attributes":{"ID":234090,"DIS_CODE":0,"TOWNNAME":"東山區","LI":"東原里","LIN":"16鄰","STREET":" ","SECT":" ","MAREA":"瓦厝子","LANE":" ","ALLEY":" ","HOUSE_NO":"１７號之１０","E_COORD97":193672.29000000001,"N_COORD97":2574322.0800000001,"ADDRESS":"瓦厝子１７號之１０","OBJECTID":234086},"geometry":{"x":193672.29000000004,"y":2574322.0800000001}},{"attributes":{"ID":234091,"DIS_CODE":0,"TOWNNAME":"新營區","LI":"三仙里","LIN":"16鄰","STREET":"三興街","SECT":" ","MAREA":" ","LANE":"３２巷","ALLEY":" ","HOUSE_NO":"２號","E_COORD97":179499.35999999999,"N_COORD97":2578328.1299999999,"ADDRESS":"三興街３２巷２號","OBJECTID":234087},"geometry":{"x":179499.3599999994,"y":2578328.129999999}},{"attributes":{"ID":234092,"DIS_CODE":0,"TOWNNAME":"新營區","LI":"新東里","LIN":"16鄰","STREET":"東泰七街","SECT":" ","MAREA":" ","LANE":"１３巷","ALLEY":" ","HOUSE_NO":"１２號","E_COORD97":181069.82999999999,"N_COORD97":2579689.5499999998,"ADDRESS":"東泰七街１３巷１２號","OBJECTID":234088},"geometry":{"x":181069.83000000101,"y":2579689.5500000026}},{"attributes":{"ID":234093,"DIS_CODE":0,"TOWNNAME":"新營區","LI":"三仙里","LIN":"16鄰","STREET":"三興街","SECT":" ","MAREA":" ","LANE":"３２巷","ALLEY":" ","HOUSE_NO":"１６號","E_COORD97":179560.92000000001,"N_COORD97":2578333.3700000001,"ADDRESS":"三興街３２巷１６號","OBJECTID":234089},"geometry":{"x":179560.91999999993,"y":2578333.3700000048}},{"attributes":{"ID":234094,"DIS_CODE":0,"TOWNNAME":"新營區","LI":"新東里","LIN":"16鄰","STREET":"東智街","SECT":" ","MAREA":" ","LANE":"４６巷","ALLEY":" ","HOUSE_NO":"２２號","E_COORD97":181043.34,"N_COORD97":2579696.3100000001,"ADDRESS":"東智街４６巷２２號","OBJECTID":234090},"geometry":{"x":181043.33999999892,"y":2579696.3100000042}},{"attributes":{"ID":234095,"DIS_CODE":0,"TOWNNAME":"東山區","LI":"東原里","LIN":"16鄰","STREET":" ","SECT":" ","MAREA":"瓦厝子","LANE":" ","ALLEY":" ","HOUSE_NO":"１７號之１１","E_COORD97":193664.42999999999,"N_COORD97":2574316.9700000002,"ADDRESS":"瓦厝子１７號之１１","OBJECTID":234091},"geometry":{"x":193664.4299999997,"y":2574316.9700000007}},{"attributes":{"ID":234096,"DIS_CODE":0,"TOWNNAME":"新營區","LI":"南紙里","LIN":"16鄰","STREET":"南紙街","SECT":" ","MAREA":" ","LANE":"１６２巷","ALLEY":" ","HOUSE_NO":"１８號","E_COORD97":177793.48999999999,"N_COORD97":2577304.2000000002,"ADDRESS":"南紙街１６２巷１８號","OBJECTID":234092},"geometry":{"x":177793.49000000115,"y":2577304.1999999993}},{"attributes":{"ID":234097,"DIS_CODE":0,"TOWNNAME":"麻豆區","LI":"保安里","LIN":"14鄰","STREET":"興中路","SECT":" ","MAREA":" ","LANE":" ","ALLEY":" ","HOUSE_NO":"１００號","E_COORD97":173323.10999999999,"N_COORD97":2564803.6000000001,"ADDRESS":"興中路１００號","OBJECTID":234093},"geometry":{"x":173323.11000000034,"y":2564803.6000000015}},{"attributes":{"ID":234098,"DIS_CODE":0,"TOWNNAME":"麻豆區","LI":"保安里","LIN":"14鄰","STREET":"興中路","SECT":" ","MAREA":" ","LANE":" ","ALLEY":" ","HOUSE_NO":"１０２號之１","E_COORD97":173330.17999999999,"N_COORD97":2564802.4700000002,"ADDRESS":"興中路１０２號之１","OBJECTID":234094},"geometry":{"x":173330.18000000063,"y":2564802.4700000025}},{"attributes":{"ID":234099,"DIS_CODE":0,"TOWNNAME":"麻豆區","LI":"保安里","LIN":"14鄰","STREET":"興中路","SECT":" ","MAREA":" ","LANE":" ","ALLEY":" ","HOUSE_NO":"１０２號之２","E_COORD97":173330.10999999999,"N_COORD97":2564797.9199999999,"ADDRESS":"興中路１０２號之２","OBJECTID":234095},"geometry":{"x":173330.11000000034,"y":2564797.9200000018}},{"attributes":{"ID":234100,"DIS_CODE":0,"TOWNNAME":"麻豆區","LI":"保安里","LIN":"14鄰","STREET":"興中路","SECT":" ","MAREA":" ","LANE":" ","ALLEY":" ","HOUSE_NO":"１０２號之３","E_COORD97":173329.82999999999,"N_COORD97":2564793.6000000001,"ADDRESS":"興中路１０２號之３","OBJECTID":234096},"geometry":{"x":173329.83000000007,"y":2564793.6000000015}},{"attributes":{"ID":234101,"DIS_CODE":0,"TOWNNAME":"麻豆區","LI":"保安里","LIN":"14鄰","STREET":"興中路","SECT":" ","MAREA":" ","LANE":" ","ALLEY":" ","HOUSE_NO":"１０２號之４","E_COORD97":173329.64000000001,"N_COORD97":2564789,"ADDRESS":"興中路１０２號之４","OBJECTID":234097},"geometry":{"x":173329.63999999873,"y":2564789}},{"attributes":{"ID":234102,"DIS_CODE":0,"TOWNNAME":"東區","LI":"裕農里","LIN":"26鄰","STREET":"東寧路","SECT":" ","MAREA":" ","LANE":"５１０巷","ALLEY":" ","HOUSE_NO":"５９號","E_COORD97":171017.09,"N_COORD97":2543239.9399999999,"ADDRESS":"東寧路５１０巷５９號","OBJECTID":234098},"geometry":{"x":171017.09000000078,"y":2543239.9399999995}},{"attributes":{"ID":234103,"DIS_CODE":0,"TOWNNAME":"東區","LI":"東明里","LIN":"31鄰","STREET":"東寧路","SECT":" ","MAREA":" ","LANE":"２０１巷","ALLEY":" ","HOUSE_NO":"６８號","E_COORD97":170660.35999999999,"N_COORD97":2543701.0099999998,"ADDRESS":"東寧路２０１巷６８號","OBJECTID":234099},"geometry":{"x":170660.36000000034,"y":2543701.0099999998}},{"attributes":{"ID":234104,"DIS_CODE":0,"TOWNNAME":"東區","LI":"東明里","LIN":"31鄰","STREET":"東寧路","SECT":" ","MAREA":" ","LANE":"２０１巷","ALLEY":" ","HOUSE_NO":"７０號","E_COORD97":170661.54000000001,"N_COORD97":2543705.73,"ADDRESS":"東寧路２０１巷７０號","OBJECTID":234100},"geometry":{"x":170661.54000000097,"y":2543705.7300000023}},{"attributes":{"ID":234105,"DIS_CODE":0,"TOWNNAME":"東區","LI":"東明里","LIN":"31鄰","STREET":"東寧路","SECT":" ","MAREA":" ","LANE":"２０１巷","ALLEY":" ","HOUSE_NO":"７２號","E_COORD97":170661.54000000001,"N_COORD97":2543710.9199999999,"ADDRESS":"東寧路２０１巷７２號","OBJECTID":234101},"geometry":{"x":170661.54000000097,"y":2543710.9200000018}},{"attributes":{"ID":234106,"DIS_CODE":0,"TOWNNAME":"永康區","LI":"正強里","LIN":"32鄰","STREET":"四維街","SECT":" ","MAREA":" ","LANE":"２９巷","ALLEY":" ","HOUSE_NO":"１９號","E_COORD97":173362.66,"N_COORD97":2547990.25,"ADDRESS":"四維街２９巷１９號","OBJECTID":234102},"geometry":{"x":173362.66000000108,"y":2547990.2500000019}},{"attributes":{"ID":234107,"DIS_CODE":0,"TOWNNAME":"永康區","LI":"正強里","LIN":"42鄰","STREET":"中正路","SECT":" ","MAREA":" ","LANE":"２５６巷","ALLEY":" ","HOUSE_NO":"１號之３６","E_COORD97":173178.16,"N_COORD97":2547946.8999999999,"ADDRESS":"中正路２５６巷１號之３６","OBJECTID":234103},"geometry":{"x":173178.16000000108,"y":2547946.9000000004}},{"attributes":{"ID":234108,"DIS_CODE":0,"TOWNNAME":"永康區","LI":"正強里","LIN":"43鄰","STREET":"中正路","SECT":" ","MAREA":" ","LANE":"２５６巷","ALLEY":" ","HOUSE_NO":"３號之２３","E_COORD97":173149.23999999999,"N_COORD97":2547954.29,"ADDRESS":"中正路２５６巷３號之２３","OBJECTID":234104},"geometry":{"x":173149.24000000022,"y":2547954.2900000028}},{"attributes":{"ID":234109,"DIS_CODE":0,"TOWNNAME":"永康區","LI":"正強里","LIN":"13鄰","STREET":"正強街","SECT":" ","MAREA":" ","LANE":"１１１巷","ALLEY":" ","HOUSE_NO":"１８號","E_COORD97":173246.64000000001,"N_COORD97":2547412.4900000002,"ADDRESS":"正強街１１１巷１８號","OBJECTID":234105},"geometry":{"x":173246.63999999873,"y":2547412.4900000021}},{"attributes":{"ID":234110,"DIS_CODE":0,"TOWNNAME":"麻豆區","LI":"保安里","LIN":"14鄰","STREET":"興中路","SECT":" ","MAREA":" ","LANE":" ","ALLEY":" ","HOUSE_NO":"１０２號之５","E_COORD97":173329.32000000001,"N_COORD97":2564784.46,"ADDRESS":"興中路１０２號之５","OBJECTID":234106},"geometry":{"x":173329.32000000216,"y":2564784.4600000009}},{"attributes":{"ID":234111,"DIS_CODE":0,"TOWNNAME":"東山區","LI":"東中里","LIN":"16鄰","STREET":" ","SECT":" ","MAREA":"北馬","LANE":" ","ALLEY":" ","HOUSE_NO":"２４號之１","E_COORD97":188426.19,"N_COORD97":2578278.1899999999,"ADDRESS":"北馬２４號之１","OBJECTID":234107},"geometry":{"x":188426.19000000134,"y":2578278.1899999995}},{"attributes":{"ID":234112,"DIS_CODE":0,"TOWNNAME":"麻豆區","LI":"保安里","LIN":"14鄰","STREET":"興中路","SECT":" ","MAREA":" ","LANE":" ","ALLEY":" ","HOUSE_NO":"１０２號之６","E_COORD97":173329.54999999999,"N_COORD97":2564779.3700000001,"ADDRESS":"興中路１０２號之６","OBJECTID":234108},"geometry":{"x":173329.55000000075,"y":2564779.3700000029}},{"attributes":{"ID":234113,"DIS_CODE":0,"TOWNNAME":"麻豆區","LI":"保安里","LIN":"14鄰","STREET":"興中路","SECT":" ","MAREA":" ","LANE":" ","ALLEY":" ","HOUSE_NO":"１０２號","E_COORD97":173330.48000000001,"N_COORD97":2564810.2599999998,"ADDRESS":"興中路１０２號","OBJECTID":234109},"geometry":{"x":173330.48000000138,"y":2564810.2600000016}},{"attributes":{"ID":234114,"DIS_CODE":0,"TOWNNAME":"麻豆區","LI":"保安里","LIN":"14鄰","STREET":"興中路","SECT":" ","MAREA":" ","LANE":" ","ALLEY":" ","HOUSE_NO":"１０４號","E_COORD97":173336.17000000001,"N_COORD97":2564809.8500000001,"ADDRESS":"興中路１０４號","OBJECTID":234110},"geometry":{"x":173336.16999999993,"y":2564809.8499999996}},{"attributes":{"ID":234115,"DIS_CODE":0,"TOWNNAME":"東山區","LI":"東河里","LIN":"16鄰","STREET":" ","SECT":" ","MAREA":"吉貝耍","LANE":" ","ALLEY":" ","HOUSE_NO":"１６３號之２","E_COORD97":186740.23999999999,"N_COORD97":2577312.1600000001,"ADDRESS":"吉貝耍１６３號之２","OBJECTID":234111},"geometry":{"x":186740.23999999929,"y":2577312.1600000001}},{"attributes":{"ID":234116,"DIS_CODE":0,"TOWNNAME":"東山區","LI":"東河里","LIN":"16鄰","STREET":" ","SECT":" ","MAREA":"吉貝耍","LANE":" ","ALLEY":" ","HOUSE_NO":"１６３號","E_COORD97":186802.97,"N_COORD97":2577302.5600000001,"ADDRESS":"吉貝耍１６３號","OBJECTID":234112},"geometry":{"x":186802.97000000067,"y":2577302.5600000024}},{"attributes":{"ID":234117,"DIS_CODE":0,"TOWNNAME":"東山區","LI":"東河里","LIN":"16鄰","STREET":" ","SECT":" ","MAREA":"吉貝耍","LANE":" ","ALLEY":" ","HOUSE_NO":"１７５號之１","E_COORD97":186204.23999999999,"N_COORD97":2577885.3599999999,"ADDRESS":"吉貝耍１７５號之１","OBJECTID":234113},"geometry":{"x":186204.24000000022,"y":2577885.3600000013}},{"attributes":{"ID":234118,"DIS_CODE":0,"TOWNNAME":"永康區","LI":"正強里","LIN":"40鄰","STREET":"四維街","SECT":" ","MAREA":" ","LANE":"１８１巷","ALLEY":" ","HOUSE_NO":"９號","E_COORD97":173242.09,"N_COORD97":2548424.2400000002,"ADDRESS":"四維街１８１巷９號","OBJECTID":234114},"geometry":{"x":173242.08999999892,"y":2548424.2400000021}},{"attributes":{"ID":234119,"DIS_CODE":0,"TOWNNAME":"東山區","LI":"東河里","LIN":"16鄰","STREET":" ","SECT":" ","MAREA":"吉貝耍","LANE":" ","ALLEY":" ","HOUSE_NO":"１７５號之２","E_COORD97":186212.98000000001,"N_COORD97":2577973.1800000002,"ADDRESS":"吉貝耍１７５號之２","OBJECTID":234115},"geometry":{"x":186212.98000000045,"y":2577973.1799999997}},{"attributes":{"ID":234120,"DIS_CODE":0,"TOWNNAME":"麻豆區","LI":"埤頭里","LIN":"16鄰","STREET":" ","SECT":" ","MAREA":"埤頭","LANE":" ","ALLEY":" ","HOUSE_NO":"１４４號之１","E_COORD97":170808.17999999999,"N_COORD97":2567205.7200000002,"ADDRESS":"埤頭１４４號之１","OBJECTID":234116},"geometry":{"x":170808.1799999997,"y":2567205.7200000007}},{"attributes":{"ID":234121,"DIS_CODE":0,"TOWNNAME":"麻豆區","LI":"埤頭里","LIN":"16鄰","STREET":" ","SECT":" ","MAREA":"埤頭","LANE":" ","ALLEY":" ","HOUSE_NO":"１４５號","E_COORD97":170813.26999999999,"N_COORD97":2567254.8300000001,"ADDRESS":"埤頭１４５號","OBJECTID":234117},"geometry":{"x":170813.27000000048,"y":2567254.8300000001}},{"attributes":{"ID":234122,"DIS_CODE":0,"TOWNNAME":"麻豆區","LI":"埤頭里","LIN":"16鄰","STREET":" ","SECT":" ","MAREA":"埤頭","LANE":" ","ALLEY":" ","HOUSE_NO":"１４８號之１","E_COORD97":170837.06,"N_COORD97":2567241.7999999998,"ADDRESS":"埤頭１４８號之１","OBJECTID":234118},"geometry":{"x":170837.06000000052,"y":2567241.8000000026}},{"attributes":{"ID":234123,"DIS_CODE":0,"TOWNNAME":"麻豆區","LI":"埤頭里","LIN":"16鄰","STREET":" ","SECT":" ","MAREA":"埤頭","LANE":" ","ALLEY":" ","HOUSE_NO":"１４８號之２","E_COORD97":170851.88,"N_COORD97":2567249.4199999999,"ADDRESS":"埤頭１４８號之２","OBJECTID":234119},"geometry":{"x":170851.88000000082,"y":2567249.4200000018}},{"attributes":{"ID":234124,"DIS_CODE":0,"TOWNNAME":"麻豆區","LI":"埤頭里","LIN":"16鄰","STREET":" ","SECT":" ","MAREA":"埤頭","LANE":" ","ALLEY":" ","HOUSE_NO":"１４９號之１","E_COORD97":170831.75,"N_COORD97":2567206.4399999999,"ADDRESS":"埤頭１４９號之１","OBJECTID":234120},"geometry":{"x":170831.75,"y":2567206.4399999995}},{"attributes":{"ID":234125,"DIS_CODE":0,"TOWNNAME":"麻豆區","LI":"埤頭里","LIN":"16鄰","STREET":" ","SECT":" ","MAREA":"埤頭","LANE":" ","ALLEY":" ","HOUSE_NO":"１４９號","E_COORD97":170830.60999999999,"N_COORD97":2567220.98,"ADDRESS":"埤頭１４９號","OBJECTID":234121},"geometry":{"x":170830.61000000127,"y":2567220.9800000004}},{"attributes":{"ID":234126,"DIS_CODE":0,"TOWNNAME":"麻豆區","LI":"埤頭里","LIN":"16鄰","STREET":" ","SECT":" ","MAREA":"埤頭","LANE":" ","ALLEY":" ","HOUSE_NO":"１５０號之８","E_COORD97":170844.42999999999,"N_COORD97":2567720.9900000002,"ADDRESS":"埤頭１５０號之８","OBJECTID":234122},"geometry":{"x":170844.43000000156,"y":2567720.9900000021}},{"attributes":{"ID":234127,"DIS_CODE":0,"TOWNNAME":"永康區","LI":"永康里","LIN":"7鄰","STREET":"中山南路","SECT":" ","MAREA":" ","LANE":"１１１６巷","ALLEY":" ","HOUSE_NO":"３１號","E_COORD97":173931.70999999999,"N_COORD97":2547277,"ADDRESS":"中山南路１１１６巷３１號","OBJECTID":234123},"geometry":{"x":173931.71000000089,"y":2547277.0000000019}},{"attributes":{"ID":234128,"DIS_CODE":0,"TOWNNAME":"永康區","LI":"正強里","LIN":"15鄰","STREET":"中山南路","SECT":" ","MAREA":" ","LANE":"４７１巷","ALLEY":" ","HOUSE_NO":"７９之２號","E_COORD97":173287.51000000001,"N_COORD97":2547197.79,"ADDRESS":"中山南路４７１巷７９之２號","OBJECTID":234124},"geometry":{"x":173287.51000000071,"y":2547197.7899999991}},{"attributes":{"ID":234129,"DIS_CODE":0,"TOWNNAME":"永康區","LI":"正強里","LIN":"44鄰","STREET":"中正路","SECT":" ","MAREA":" ","LANE":"２５６巷","ALLEY":" ","HOUSE_NO":"５號之３９","E_COORD97":173155.17000000001,"N_COORD97":2547982.8799999999,"ADDRESS":"中正路２５６巷５號之３９","OBJECTID":234125},"geometry":{"x":173155.16999999899,"y":2547982.879999999}},{"attributes":{"ID":234130,"DIS_CODE":0,"TOWNNAME":"永康區","LI":"正強里","LIN":"37鄰","STREET":"正強街","SECT":" ","MAREA":" ","LANE":"３３２巷","ALLEY":" ","HOUSE_NO":"３號","E_COORD97":173256.79999999999,"N_COORD97":2548260.3799999999,"ADDRESS":"正強街３３２巷３號","OBJECTID":234126},"geometry":{"x":173256.80000000075,"y":2548260.379999999}},{"attributes":{"ID":234131,"DIS_CODE":0,"TOWNNAME":"永康區","LI":"正強里","LIN":"2鄰","STREET":"中正路","SECT":" ","MAREA":" ","LANE":"１巷","ALLEY":" ","HOUSE_NO":"２號","E_COORD97":173699.06,"N_COORD97":2547667.8900000001,"ADDRESS":"中正路１巷２號","OBJECTID":234127},"geometry":{"x":173699.05999999959,"y":2547667.8900000025}},{"attributes":{"ID":234132,"DIS_CODE":0,"TOWNNAME":"東區","LI":"東安里","LIN":"4鄰","STREET":"東門路","SECT":"二段","MAREA":" ","LANE":"３巷","ALLEY":" ","HOUSE_NO":"４號","E_COORD97":169941.62,"N_COORD97":2543032.0299999998,"ADDRESS":"東門路二段３巷４號","OBJECTID":234128},"geometry":{"x":169941.61999999918,"y":2543032.0299999993}},{"attributes":{"ID":234133,"DIS_CODE":0,"TOWNNAME":"東區","LI":"東安里","LIN":"4鄰","STREET":"東門路","SECT":"二段","MAREA":" ","LANE":"３巷","ALLEY":" ","HOUSE_NO":"５號","E_COORD97":169938.70000000001,"N_COORD97":2543033.6000000001,"ADDRESS":"東門路二段３巷５號","OBJECTID":234129},"geometry":{"x":169938.70000000019,"y":2543033.6000000015}},{"attributes":{"ID":234134,"DIS_CODE":0,"TOWNNAME":"東區","LI":"東安里","LIN":"4鄰","STREET":"東門路","SECT":"二段","MAREA":" ","LANE":"３巷","ALLEY":" ","HOUSE_NO":"６號","E_COORD97":169942.85000000001,"N_COORD97":2543034.5699999998,"ADDRESS":"東門路二段３巷６號","OBJECTID":234130},"geometry":{"x":169942.84999999963,"y":2543034.5700000022}},{"attributes":{"ID":234135,"DIS_CODE":0,"TOWNNAME":"東區","LI":"富強里","LIN":"13鄰","STREET":"裕農路","SECT":" ","MAREA":" ","LANE":"２８８巷","ALLEY":" ","HOUSE_NO":"２０６號","E_COORD97":171055.59,"N_COORD97":2542818.7000000002,"ADDRESS":"裕農路２８８巷２０６號","OBJECTID":234131},"geometry":{"x":171055.59000000078,"y":2542818.700000003}},{"attributes":{"ID":234136,"DIS_CODE":0,"TOWNNAME":"東區","LI":"富強里","LIN":"13鄰","STREET":"裕農路","SECT":" ","MAREA":" ","LANE":"２８８巷","ALLEY":" ","HOUSE_NO":"２０４號","E_COORD97":171061.88,"N_COORD97":2542819.3100000001,"ADDRESS":"裕農路２８８巷２０４號","OBJECTID":234132},"geometry":{"x":171061.88000000175,"y":2542819.3100000042}},{"attributes":{"ID":234137,"DIS_CODE":0,"TOWNNAME":"東區","LI":"富強里","LIN":"13鄰","STREET":"裕農路","SECT":" ","MAREA":" ","LANE":"２８８巷","ALLEY":" ","HOUSE_NO":"２０８號","E_COORD97":171073.63,"N_COORD97":2542807.1400000001,"ADDRESS":"裕農路２８８巷２０８號","OBJECTID":234133},"geometry":{"x":171073.62999999989,"y":2542807.1400000025}},{"attributes":{"ID":234138,"DIS_CODE":0,"TOWNNAME":"東區","LI":"富強里","LIN":"13鄰","STREET":"裕農路","SECT":" ","MAREA":" ","LANE":"２８８巷","ALLEY":" ","HOUSE_NO":"２４４號","E_COORD97":171059.98000000001,"N_COORD97":2542770.1400000001,"ADDRESS":"裕農路２８８巷２４４號","OBJECTID":234134},"geometry":{"x":171059.98000000045,"y":2542770.1400000025}},{"attributes":{"ID":234139,"DIS_CODE":0,"TOWNNAME":"東區","LI":"富裕里","LIN":"15鄰","STREET":"東門路","SECT":"二段","MAREA":" ","LANE":"３０１巷","ALLEY":" ","HOUSE_NO":"６９號","E_COORD97":170899.01000000001,"N_COORD97":2542736.2400000002,"ADDRESS":"東門路二段３０１巷６９號","OBJECTID":234135},"geometry":{"x":170899.01000000071,"y":2542736.2400000002}},{"attributes":{"ID":234140,"DIS_CODE":0,"TOWNNAME":"永康區","LI":"\u25A0行里","LIN":"41鄰","STREET":"永安二街","SECT":" ","MAREA":" ","LANE":"２５巷","ALLEY":" ","HOUSE_NO":"５１號","E_COORD97":172448.79000000001,"N_COORD97":2549534.3199999998,"ADDRESS":"永安二街２５巷５１號","OBJECTID":234136},"geometry":{"x":172448.79000000004,"y":2549534.3200000003}},{"attributes":{"ID":234141,"DIS_CODE":0,"TOWNNAME":"東區","LI":"中西里","LIN":"9鄰","STREET":"勝利路","SECT":" ","MAREA":" ","LANE":"５２巷","ALLEY":" ","HOUSE_NO":"１號之４","E_COORD97":169852.66,"N_COORD97":2543569.4700000002,"ADDRESS":"勝利路５２巷１號之４","OBJECTID":234137},"geometry":{"x":169852.66000000015,"y":2543569.4700000007}},{"attributes":{"ID":234142,"DIS_CODE":0,"TOWNNAME":"東區","LI":"東光里","LIN":"23鄰","STREET":"東安路","SECT":" ","MAREA":" ","LANE":"１５６巷","ALLEY":" ","HOUSE_NO":"２６號","E_COORD97":170813.53,"N_COORD97":2543873.9300000002,"ADDRESS":"東安路１５６巷２６號","OBJECTID":234138},"geometry":{"x":170813.53000000026,"y":2543873.9299999997}},{"attributes":{"ID":234143,"DIS_CODE":0,"TOWNNAME":"永康區","LI":"\u25A0行里","LIN":"26鄰","STREET":"中正南路","SECT":" ","MAREA":" ","LANE":"４０４巷","ALLEY":" ","HOUSE_NO":"１８號","E_COORD97":171118.67000000001,"N_COORD97":2548253.1800000002,"ADDRESS":"中正南路４０４巷１８號","OBJECTID":234139},"geometry":{"x":171118.66999999993,"y":2548253.1799999997}},{"attributes":{"ID":234144,"DIS_CODE":0,"TOWNNAME":"永康區","LI":"龍潭里","LIN":"39鄰","STREET":"永明街","SECT":" ","MAREA":" ","LANE":"２７３巷","ALLEY":" ","HOUSE_NO":"２２號","E_COORD97":174671.25,"N_COORD97":2547277.0899999999,"ADDRESS":"永明街２７３巷２２號","OBJECTID":234140},"geometry":{"x":174671.25,"y":2547277.0899999999}},{"attributes":{"ID":234145,"DIS_CODE":0,"TOWNNAME":"永康區","LI":"新樹里","LIN":"4鄰","STREET":"富強路","SECT":"二段","MAREA":" ","LANE":"３９８巷","ALLEY":" ","HOUSE_NO":"４６號","E_COORD97":175667.09,"N_COORD97":2547633.1400000001,"ADDRESS":"富強路二段３９８巷４６號","OBJECTID":234141},"geometry":{"x":175667.09000000078,"y":2547633.1400000006}},{"attributes":{"ID":234146,"DIS_CODE":0,"TOWNNAME":"永康區","LI":"龍潭里","LIN":"39鄰","STREET":"永明街","SECT":" ","MAREA":" ","LANE":"２３１巷","ALLEY":" ","HOUSE_NO":"５７號","E_COORD97":174562.29999999999,"N_COORD97":2547363.3599999999,"ADDRESS":"永明街２３１巷５７號","OBJECTID":234142},"geometry":{"x":174562.29999999981,"y":2547363.3599999994}},{"attributes":{"ID":234147,"DIS_CODE":0,"TOWNNAME":"永康區","LI":"龍潭里","LIN":"39鄰","STREET":"永明街","SECT":" ","MAREA":" ","LANE":"２１５巷","ALLEY":" ","HOUSE_NO":"３２號","E_COORD97":174535.54999999999,"N_COORD97":2547277.7599999998,"ADDRESS":"永明街２１５巷３２號","OBJECTID":234143},"geometry":{"x":174535.54999999981,"y":2547277.7600000016}},{"attributes":{"ID":234148,"DIS_CODE":0,"TOWNNAME":"永康區","LI":"新樹里","LIN":"4鄰","STREET":"富強路","SECT":"二段","MAREA":" ","LANE":"３２６巷","ALLEY":" ","HOUSE_NO":"２３號","E_COORD97":175696.35999999999,"N_COORD97":2547569.9100000001,"ADDRESS":"富強路二段３２６巷２３號","OBJECTID":234144},"geometry":{"x":175696.36000000034,"y":2547569.9100000001}},{"attributes":{"ID":234149,"DIS_CODE":0,"TOWNNAME":"永康區","LI":"蔦松里","LIN":"4鄰","STREET":"蔦松二街","SECT":" ","MAREA":" ","LANE":"１６２巷","ALLEY":" ","HOUSE_NO":"１５號之２","E_COORD97":173921.51000000001,"N_COORD97":2549382.29,"ADDRESS":"蔦松二街１６２巷１５號之２","OBJECTID":234145},"geometry":{"x":173921.51000000071,"y":2549382.290000001}},{"attributes":{"ID":234150,"DIS_CODE":0,"TOWNNAME":"永康區","LI":"龍潭里","LIN":"25鄰","STREET":"龍昌街","SECT":" ","MAREA":" ","LANE":"４５巷","ALLEY":" ","HOUSE_NO":"２號","E_COORD97":174995.16,"N_COORD97":2547863.8999999999,"ADDRESS":"龍昌街４５巷２號","OBJECTID":234146},"geometry":{"x":174995.16000000108,"y":2547863.9000000022}},{"attributes":{"ID":234151,"DIS_CODE":0,"TOWNNAME":"永康區","LI":"新樹里","LIN":"4鄰","STREET":"富強路","SECT":"二段","MAREA":" ","LANE":"３９８巷","ALLEY":" ","HOUSE_NO":"１９３號之９","E_COORD97":176026.23999999999,"N_COORD97":2547691.3100000001,"ADDRESS":"富強路二段３９８巷１９３號之９","OBJECTID":234147},"geometry":{"x":176026.24000000022,"y":2547691.3100000042}},{"attributes":{"ID":234152,"DIS_CODE":0,"TOWNNAME":"永康區","LI":"網寮里","LIN":"20鄰","STREET":"永二街","SECT":" ","MAREA":" ","LANE":"２４５巷","ALLEY":" ","HOUSE_NO":"２７號之９","E_COORD97":173321.70999999999,"N_COORD97":2546124.6299999999,"ADDRESS":"永二街２４５巷２７號之９","OBJECTID":234148},"geometry":{"x":173321.71000000089,"y":2546124.6300000008}},{"attributes":{"ID":234153,"DIS_CODE":0,"TOWNNAME":"永康區","LI":"網寮里","LIN":"25鄰","STREET":"永春街","SECT":" ","MAREA":" ","LANE":"１０８巷","ALLEY":" ","HOUSE_NO":"９號","E_COORD97":173775.64999999999,"N_COORD97":2546613.54,"ADDRESS":"永春街１０８巷９號","OBJECTID":234149},"geometry":{"x":173775.65000000037,"y":2546613.5400000028}},{"attributes":{"ID":234154,"DIS_CODE":0,"TOWNNAME":"永康區","LI":"龍潭里","LIN":"42鄰","STREET":"永平街","SECT":" ","MAREA":" ","LANE":"７５９巷","ALLEY":" ","HOUSE_NO":"１６號","E_COORD97":174614.17000000001,"N_COORD97":2547090.7400000002,"ADDRESS":"永平街７５９巷１６號","OBJECTID":234150},"geometry":{"x":174614.16999999993,"y":2547090.7400000002}},{"attributes":{"ID":234155,"DIS_CODE":0,"TOWNNAME":"永康區","LI":"復興里","LIN":"25鄰","STREET":"復興路","SECT":" ","MAREA":" ","LANE":"４２３巷","ALLEY":" ","HOUSE_NO":"１０６號","E_COORD97":172225.41,"N_COORD97":2543951.2799999998,"ADDRESS":"復興路４２３巷１０６號","OBJECTID":234151},"geometry":{"x":172225.41000000108,"y":2543951.2800000012}},{"attributes":{"ID":234156,"DIS_CODE":0,"TOWNNAME":"永康區","LI":"網寮里","LIN":"24鄰","STREET":"永春街","SECT":" ","MAREA":" ","LANE":"３６巷","ALLEY":" ","HOUSE_NO":"２９號","E_COORD97":173808.03,"N_COORD97":2546408.9100000001,"ADDRESS":"永春街３６巷２９號","OBJECTID":234152},"geometry":{"x":173808.03000000119,"y":2546408.910000002}},{"attributes":{"ID":234157,"DIS_CODE":0,"TOWNNAME":"永康區","LI":"網寮里","LIN":"25鄰","STREET":"永春街","SECT":" ","MAREA":" ","LANE":"９６巷","ALLEY":" ","HOUSE_NO":"１６號","E_COORD97":173765.79000000001,"N_COORD97":2546529.73,"ADDRESS":"永春街９６巷１６號","OBJECTID":234153},"geometry":{"x":173765.79000000004,"y":2546529.7300000023}},{"attributes":{"ID":234158,"DIS_CODE":0,"TOWNNAME":"永康區","LI":"復興里","LIN":"5鄰","STREET":"復興路","SECT":" ","MAREA":" ","LANE":"４２３巷","ALLEY":" ","HOUSE_NO":"７號","E_COORD97":172125,"N_COORD97":2544279.0299999998,"ADDRESS":"復興路４２３巷７號","OBJECTID":234154},"geometry":{"x":172125,"y":2544279.0300000012}},{"attributes":{"ID":234159,"DIS_CODE":0,"TOWNNAME":"永康區","LI":"網寮里","LIN":"5鄰","STREET":"永二街","SECT":" ","MAREA":" ","LANE":"１４５巷","ALLEY":" ","HOUSE_NO":"９號之２","E_COORD97":173552.20000000001,"N_COORD97":2546421.02,"ADDRESS":"永二街１４５巷９號之２","OBJECTID":234155},"geometry":{"x":173552.20000000112,"y":2546421.0200000014}},{"attributes":{"ID":234160,"DIS_CODE":0,"TOWNNAME":"永康區","LI":"尚頂里","LIN":" ","STREET":"國聖街","SECT":" ","MAREA":" ","LANE":"４３巷","ALLEY":" ","HOUSE_NO":"５３號","E_COORD97":170283.94,"N_COORD97":2547677.48,"ADDRESS":"國聖街４３巷５３號","OBJECTID":234156},"geometry":{"x":170283.94000000227,"y":2547677.4800000023}},{"attributes":{"ID":234161,"DIS_CODE":0,"TOWNNAME":"中西區","LI":"法華里","LIN":"20鄰","STREET":"健康路","SECT":"一段","MAREA":" ","LANE":"１６０巷","ALLEY":" ","HOUSE_NO":"１４號","E_COORD97":168752.94,"N_COORD97":2542490.7400000002,"ADDRESS":"健康路一段１６０巷１４號","OBJECTID":234157},"geometry":{"x":168752.94000000041,"y":2542490.7400000021}},{"attributes":{"ID":234162,"DIS_CODE":0,"TOWNNAME":"安南區","LI":"安順里","LIN":" ","STREET":"安和路","SECT":"四段","MAREA":" ","LANE":"３６巷","ALLEY":" ","HOUSE_NO":"３號","E_COORD97":169987.89000000001,"N_COORD97":2550165.2599999998,"ADDRESS":"安和路四段３６巷３號","OBJECTID":234158},"geometry":{"x":169987.88999999966,"y":2550165.2599999998}},{"attributes":{"ID":234163,"DIS_CODE":0,"TOWNNAME":"安南區","LI":"安順里","LIN":" ","STREET":"安和路","SECT":"四段","MAREA":" ","LANE":"３６巷","ALLEY":" ","HOUSE_NO":"１９８號之１","E_COORD97":170351.73999999999,"N_COORD97":2550152.7999999998,"ADDRESS":"安和路四段３６巷１９８號之１","OBJECTID":234159},"geometry":{"x":170351.74000000115,"y":2550152.8000000045}},{"attributes":{"ID":234164,"DIS_CODE":0,"TOWNNAME":"安南區","LI":"安順里","LIN":" ","STREET":"安和路","SECT":"四段","MAREA":" ","LANE":"３６巷","ALLEY":" ","HOUSE_NO":"２０２號","E_COORD97":170405.13,"N_COORD97":2550138.54,"ADDRESS":"安和路四段３６巷２０２號","OBJECTID":234160},"geometry":{"x":170405.12999999989,"y":2550138.5399999991}},{"attributes":{"ID":234165,"DIS_CODE":0,"TOWNNAME":"安南區","LI":"安順里","LIN":" ","STREET":"安和路","SECT":"四段","MAREA":" ","LANE":"３６巷","ALLEY":" ","HOUSE_NO":"１０１號","E_COORD97":170248.35000000001,"N_COORD97":2550203.4900000002,"ADDRESS":"安和路四段３６巷１０１號","OBJECTID":234161},"geometry":{"x":170248.35000000056,"y":2550203.4900000021}},{"attributes":{"ID":234166,"DIS_CODE":0,"TOWNNAME":"安南區","LI":"安順里","LIN":" ","STREET":"安和路","SECT":"四段","MAREA":" ","LANE":"３６巷","ALLEY":" ","HOUSE_NO":"１７３號之１","E_COORD97":170356.29000000001,"N_COORD97":2550204.3300000001,"ADDRESS":"安和路四段３６巷１７３號之１","OBJECTID":234162},"geometry":{"x":170356.29000000097,"y":2550204.3300000019}},{"attributes":{"ID":234167,"DIS_CODE":0,"TOWNNAME":"安南區","LI":"安順里","LIN":" ","STREET":"安和路","SECT":"四段","MAREA":" ","LANE":"１０６巷","ALLEY":" ","HOUSE_NO":"１３號","E_COORD97":170004.54000000001,"N_COORD97":2550336.7599999998,"ADDRESS":"安和路四段１０６巷１３號","OBJECTID":234163},"geometry":{"x":170004.54000000004,"y":2550336.7600000016}},{"attributes":{"ID":234168,"DIS_CODE":0,"TOWNNAME":"安南區","LI":"安順里","LIN":" ","STREET":"安和路","SECT":"四段","MAREA":" ","LANE":"２５巷","ALLEY":" ","HOUSE_NO":"８號","E_COORD97":169920.20000000001,"N_COORD97":2550166.6099999999,"ADDRESS":"安和路四段２５巷８號","OBJECTID":234164},"geometry":{"x":169920.20000000019,"y":2550166.6100000013}},{"attributes":{"ID":234169,"DIS_CODE":0,"TOWNNAME":"安南區","LI":"安順里","LIN":" ","STREET":"安和路","SECT":"四段","MAREA":" ","LANE":"７５巷","ALLEY":" ","HOUSE_NO":"３３號","E_COORD97":169916.75,"N_COORD97":2550186.7799999998,"ADDRESS":"安和路四段７５巷３３號","OBJECTID":234165},"geometry":{"x":169916.75,"y":2550186.7800000012}},{"attributes":{"ID":234170,"DIS_CODE":0,"TOWNNAME":"安南區","LI":"安順里","LIN":" ","STREET":"安和路","SECT":"四段","MAREA":" ","LANE":"７５巷","ALLEY":" ","HOUSE_NO":"３５號","E_COORD97":169912.34,"N_COORD97":2550180.8700000001,"ADDRESS":"安和路四段７５巷３５號","OBJECTID":234166},"geometry":{"x":169912.33999999985,"y":2550180.8700000029}},{"attributes":{"ID":234171,"DIS_CODE":0,"TOWNNAME":"安南區","LI":"安慶里","LIN":" ","STREET":"怡安路","SECT":"一段","MAREA":" ","LANE":"３１６巷","ALLEY":" ","HOUSE_NO":"２３號","E_COORD97":168924.47,"N_COORD97":2549159.2799999998,"ADDRESS":"怡安路一段３１６巷２３號","OBJECTID":234167},"geometry":{"x":168924.46999999974,"y":2549159.2800000012}},{"attributes":{"ID":234172,"DIS_CODE":0,"TOWNNAME":"安南區","LI":"安慶里","LIN":" ","STREET":"怡安路","SECT":"一段","MAREA":" ","LANE":"２４９巷","ALLEY":" ","HOUSE_NO":"２號","E_COORD97":169020.89000000001,"N_COORD97":2549061.5,"ADDRESS":"怡安路一段２４９巷２號","OBJECTID":234168},"geometry":{"x":169020.8900000006,"y":2549061.5}},{"attributes":{"ID":234173,"DIS_CODE":0,"TOWNNAME":"安南區","LI":"安順里","LIN":"8鄰","STREET":"安和路","SECT":"四段","MAREA":" ","LANE":"８７巷","ALLEY":" ","HOUSE_NO":"１２號","E_COORD97":169867.98999999999,"N_COORD97":2550330.3399999999,"ADDRESS":"安和路四段８７巷１２號","OBJECTID":234169},"geometry":{"x":169867.98999999929,"y":2550330.3399999999}},{"attributes":{"ID":234174,"DIS_CODE":0,"TOWNNAME":"安南區","LI":"安順里","LIN":"8鄰","STREET":"安和路","SECT":"四段","MAREA":" ","LANE":"２５巷","ALLEY":" ","HOUSE_NO":"１０號","E_COORD97":169915.34,"N_COORD97":2550167.8199999998,"ADDRESS":"安和路四段２５巷１０號","OBJECTID":234170},"geometry":{"x":169915.34000000078,"y":2550167.8200000003}},{"attributes":{"ID":234175,"DIS_CODE":0,"TOWNNAME":"安南區","LI":"安順里","LIN":"8鄰","STREET":"安和路","SECT":"四段","MAREA":" ","LANE":"２５巷","ALLEY":" ","HOUSE_NO":"３２號","E_COORD97":169858.12,"N_COORD97":2550185.4199999999,"ADDRESS":"安和路四段２５巷３２號","OBJECTID":234171},"geometry":{"x":169858.12000000011,"y":2550185.4200000018}},{"attributes":{"ID":234176,"DIS_CODE":0,"TOWNNAME":"安南區","LI":"安順里","LIN":"7鄰","STREET":"安和路","SECT":"四段","MAREA":" ","LANE":"２５巷","ALLEY":" ","HOUSE_NO":"７６號","E_COORD97":169757.12,"N_COORD97":2550242.5600000001,"ADDRESS":"安和路四段２５巷７６號","OBJECTID":234172},"geometry":{"x":169757.12000000104,"y":2550242.5600000042}},{"attributes":{"ID":234177,"DIS_CODE":0,"TOWNNAME":"安南區","LI":"安慶里","LIN":" ","STREET":"長溪路","SECT":"一段","MAREA":" ","LANE":"１６８巷","ALLEY":" ","HOUSE_NO":"９５號","E_COORD97":169044.79000000001,"N_COORD97":2548777.6200000001,"ADDRESS":"長溪路一段１６８巷９５號","OBJECTID":234173},"geometry":{"x":169044.79000000004,"y":2548777.6199999992}},{"attributes":{"ID":234178,"DIS_CODE":0,"TOWNNAME":"安南區","LI":"安慶里","LIN":" ","STREET":"長溪路","SECT":"一段","MAREA":" ","LANE":"１６８巷","ALLEY":" ","HOUSE_NO":"７２號","E_COORD97":169084.39000000001,"N_COORD97":2548722.4199999999,"ADDRESS":"長溪路一段１６８巷７２號","OBJECTID":234174},"geometry":{"x":169084.38999999966,"y":2548722.4199999999}},{"attributes":{"ID":234179,"DIS_CODE":0,"TOWNNAME":"安南區","LI":"安慶里","LIN":" ","STREET":"長溪路","SECT":"一段","MAREA":" ","LANE":"１６８巷","ALLEY":" ","HOUSE_NO":"２９５號","E_COORD97":168925.57999999999,"N_COORD97":2548819.25,"ADDRESS":"長溪路一段１６８巷２９５號","OBJECTID":234175},"geometry":{"x":168925.58000000101,"y":2548819.25}},{"attributes":{"ID":234180,"DIS_CODE":0,"TOWNNAME":"安南區","LI":"安慶里","LIN":" ","STREET":"長溪路","SECT":"一段","MAREA":" ","LANE":"１６８巷","ALLEY":" ","HOUSE_NO":"３１１號","E_COORD97":168855.23999999999,"N_COORD97":2548829.4199999999,"ADDRESS":"長溪路一段１６８巷３１１號","OBJECTID":234176},"geometry":{"x":168855.24000000022,"y":2548829.4200000018}},{"attributes":{"ID":234181,"DIS_CODE":0,"TOWNNAME":"安南區","LI":"安慶里","LIN":"13鄰","STREET":"安和路","SECT":"二段","MAREA":" ","LANE":"１１１巷","ALLEY":" ","HOUSE_NO":"４號","E_COORD97":169474.54999999999,"N_COORD97":2548813.25,"ADDRESS":"安和路二段１１１巷４號","OBJECTID":234177},"geometry":{"x":169474.55000000075,"y":2548813.2500000037}},{"attributes":{"ID":234182,"DIS_CODE":0,"TOWNNAME":"安南區","LI":"安慶里","LIN":"14鄰","STREET":"安中路","SECT":"一段","MAREA":" ","LANE":"１１３巷","ALLEY":" ","HOUSE_NO":"８號","E_COORD97":168963.39999999999,"N_COORD97":2548321.8900000001,"ADDRESS":"安中路一段１１３巷８號","OBJECTID":234178},"geometry":{"x":168963.40000000037,"y":2548321.8900000025}},{"attributes":{"ID":234183,"DIS_CODE":0,"TOWNNAME":"安南區","LI":"安慶里","LIN":"14鄰","STREET":"安中路","SECT":"一段","MAREA":" ","LANE":"１１３巷","ALLEY":" ","HOUSE_NO":"１８號","E_COORD97":168963.81,"N_COORD97":2548301.9500000002,"ADDRESS":"安中路一段１１３巷１８號","OBJECTID":234179},"geometry":{"x":168963.81000000052,"y":2548301.9499999993}},{"attributes":{"ID":234184,"DIS_CODE":0,"TOWNNAME":"安南區","LI":"安慶里","LIN":"14鄰","STREET":"安中路","SECT":"一段","MAREA":" ","LANE":"１１３巷","ALLEY":" ","HOUSE_NO":"２２號","E_COORD97":168963.81,"N_COORD97":2548293.6000000001,"ADDRESS":"安中路一段１１３巷２２號","OBJECTID":234180},"geometry":{"x":168963.81000000052,"y":2548293.5999999996}},{"attributes":{"ID":234185,"DIS_CODE":0,"TOWNNAME":"安南區","LI":"安慶里","LIN":"21鄰","STREET":"安中路","SECT":"一段","MAREA":" ","LANE":"１８９巷","ALLEY":" ","HOUSE_NO":"８２號","E_COORD97":168760.95000000001,"N_COORD97":2548282.5699999998,"ADDRESS":"安中路一段１８９巷８２號","OBJECTID":234181},"geometry":{"x":168760.95000000019,"y":2548282.570000004}},{"attributes":{"ID":234186,"DIS_CODE":0,"TOWNNAME":"安南區","LI":"安慶里","LIN":" ","STREET":"長溪路","SECT":"一段","MAREA":" ","LANE":"１６８巷","ALLEY":" ","HOUSE_NO":"１９２號","E_COORD97":169065.23000000001,"N_COORD97":2549010.75,"ADDRESS":"長溪路一段１６８巷１９２號","OBJECTID":234182},"geometry":{"x":169065.23000000138,"y":2549010.7500000019}},{"attributes":{"ID":234187,"DIS_CODE":0,"TOWNNAME":"安南區","LI":"州北里","LIN":"20鄰","STREET":"安昌街","SECT":" ","MAREA":" ","LANE":"１９巷","ALLEY":" ","HOUSE_NO":"９號","E_COORD97":169811.19,"N_COORD97":2552007.3999999999,"ADDRESS":"安昌街１９巷９號","OBJECTID":234183},"geometry":{"x":169811.19000000134,"y":2552007.4000000022}},{"attributes":{"ID":234188,"DIS_CODE":0,"TOWNNAME":"東區","LI":"東安里","LIN":"12鄰","STREET":"長榮路","SECT":"二段","MAREA":" ","LANE":"３２巷","ALLEY":" ","HOUSE_NO":"１４２號之１０","E_COORD97":170173.47,"N_COORD97":2543119.1699999999,"ADDRESS":"長榮路二段３２巷１４２號之１０","OBJECTID":234184},"geometry":{"x":170173.47000000067,"y":2543119.1700000018}},{"attributes":{"ID":234189,"DIS_CODE":0,"TOWNNAME":"東區","LI":"東安里","LIN":"12鄰","STREET":"長榮路","SECT":"二段","MAREA":" ","LANE":"３２巷","ALLEY":" ","HOUSE_NO":"１４２號之１１","E_COORD97":170175.07999999999,"N_COORD97":2543115.4300000002,"ADDRESS":"長榮路二段３２巷１４２號之１１","OBJECTID":234185},"geometry":{"x":170175.08000000007,"y":2543115.4299999997}},{"attributes":{"ID":234190,"DIS_CODE":0,"TOWNNAME":"東區","LI":"龍山里","LIN":"23鄰","STREET":"東門路","SECT":"二段","MAREA":" ","LANE":"１０４巷","ALLEY":" ","HOUSE_NO":"１８號","E_COORD97":170022.75,"N_COORD97":2542904.0800000001,"ADDRESS":"東門路二段１０４巷１８號","OBJECTID":234186},"geometry":{"x":170022.75000000093,"y":2542904.0800000001}},{"attributes":{"ID":234191,"DIS_CODE":0,"TOWNNAME":"鹽水區","LI":"橋南里","LIN":"16鄰","STREET":"月津路","SECT":" ","MAREA":" ","LANE":"７５巷","ALLEY":" ","HOUSE_NO":"２２號","E_COORD97":174947.85999999999,"N_COORD97":2579214.75,"ADDRESS":"月津路７５巷２２號","OBJECTID":234187},"geometry":{"x":174947.8600000022,"y":2579214.7500000037}},{"attributes":{"ID":234192,"DIS_CODE":0,"TOWNNAME":"鹽水區","LI":"橋南里","LIN":"16鄰","STREET":"月津路","SECT":" ","MAREA":" ","LANE":"７５巷","ALLEY":" ","HOUSE_NO":"２３號","E_COORD97":174960.73999999999,"N_COORD97":2579200.6200000001,"ADDRESS":"月津路７５巷２３號","OBJECTID":234188},"geometry":{"x":174960.74000000115,"y":2579200.6200000029}},{"attributes":{"ID":234193,"DIS_CODE":0,"TOWNNAME":"安南區","LI":"州北里","LIN":" ","STREET":"安和路","SECT":"五段","MAREA":" ","LANE":"１７８巷","ALLEY":" ","HOUSE_NO":"１０號","E_COORD97":169882.60999999999,"N_COORD97":2551876.7999999998,"ADDRESS":"安和路五段１７８巷１０號","OBJECTID":234189},"geometry":{"x":169882.6100000022,"y":2551876.8000000026}},{"attributes":{"ID":234194,"DIS_CODE":0,"TOWNNAME":"安南區","LI":"州北里","LIN":" ","STREET":"北安路","SECT":"四段","MAREA":" ","LANE":"４２０巷","ALLEY":" ","HOUSE_NO":"２６號","E_COORD97":169600.13,"N_COORD97":2551596.27,"ADDRESS":"北安路四段４２０巷２６號","OBJECTID":234190},"geometry":{"x":169600.12999999989,"y":2551596.2700000033}},{"attributes":{"ID":234195,"DIS_CODE":0,"TOWNNAME":"安南區","LI":"州北里","LIN":"25鄰","STREET":"安和路","SECT":"五段","MAREA":" ","LANE":"１７１巷","ALLEY":" ","HOUSE_NO":"１９號","E_COORD97":169789.10999999999,"N_COORD97":2551814.1499999999,"ADDRESS":"安和路五段１７１巷１９號","OBJECTID":234191},"geometry":{"x":169789.11000000034,"y":2551814.1500000004}},{"attributes":{"ID":234196,"DIS_CODE":0,"TOWNNAME":"安南區","LI":"州北里","LIN":"25鄰","STREET":"安和路","SECT":"五段","MAREA":" ","LANE":"１７１巷","ALLEY":" ","HOUSE_NO":"２１號","E_COORD97":169784.07000000001,"N_COORD97":2551811.7599999998,"ADDRESS":"安和路五段１７１巷２１號","OBJECTID":234192},"geometry":{"x":169784.0700000003,"y":2551811.7599999998}},{"attributes":{"ID":234197,"DIS_CODE":0,"TOWNNAME":"安南區","LI":"州北里","LIN":"6鄰","STREET":"安和路","SECT":"五段","MAREA":" ","LANE":"１７１巷","ALLEY":" ","HOUSE_NO":"５９號之１","E_COORD97":169725.01999999999,"N_COORD97":2551784.79,"ADDRESS":"安和路五段１７１巷５９號之１","OBJECTID":234193},"geometry":{"x":169725.02000000048,"y":2551784.7899999991}},{"attributes":{"ID":234198,"DIS_CODE":0,"TOWNNAME":"安南區","LI":"州南里","LIN":" ","STREET":"安和路","SECT":"五段","MAREA":" ","LANE":"８１巷","ALLEY":" ","HOUSE_NO":"５號","E_COORD97":169900.44,"N_COORD97":2551665.3900000001,"ADDRESS":"安和路五段８１巷５號","OBJECTID":234194},"geometry":{"x":169900.44000000041,"y":2551665.3900000025}},{"attributes":{"ID":234199,"DIS_CODE":0,"TOWNNAME":"安南區","LI":"州南里","LIN":" ","STREET":"安和路","SECT":"五段","MAREA":" ","LANE":"８１巷","ALLEY":" ","HOUSE_NO":"７號","E_COORD97":169895.76999999999,"N_COORD97":2551663.96,"ADDRESS":"安和路五段８１巷７號","OBJECTID":234195},"geometry":{"x":169895.76999999955,"y":2551663.9600000046}},{"attributes":{"ID":234200,"DIS_CODE":0,"TOWNNAME":"麻豆區","LI":"保安里","LIN":"14鄰","STREET":"興中路","SECT":" ","MAREA":" ","LANE":" ","ALLEY":" ","HOUSE_NO":"１０６號之１","E_COORD97":173349.54000000001,"N_COORD97":2564808.8999999999,"ADDRESS":"興中路１０６號之１","OBJECTID":234196},"geometry":{"x":173349.5400000019,"y":2564808.9000000022}},{"attributes":{"ID":234201,"DIS_CODE":0,"TOWNNAME":"麻豆區","LI":"保安里","LIN":"14鄰","STREET":"興中路","SECT":" ","MAREA":" ","LANE":" ","ALLEY":" ","HOUSE_NO":"１０６號之２","E_COORD97":173342.01000000001,"N_COORD97":2564800.98,"ADDRESS":"興中路１０６號之２","OBJECTID":234197},"geometry":{"x":173342.00999999978,"y":2564800.9800000042}},{"attributes":{"ID":234202,"DIS_CODE":0,"TOWNNAME":"麻豆區","LI":"保安里","LIN":"14鄰","STREET":"興中路","SECT":" ","MAREA":" ","LANE":" ","ALLEY":" ","HOUSE_NO":"１０６號之３","E_COORD97":173342.20999999999,"N_COORD97":2564796.25,"ADDRESS":"興中路１０６號之３","OBJECTID":234198},"geometry":{"x":173342.21000000089,"y":2564796.2500000019}},{"attributes":{"ID":234203,"DIS_CODE":0,"TOWNNAME":"麻豆區","LI":"保安里","LIN":"14鄰","STREET":"興中路","SECT":" ","MAREA":" ","LANE":" ","ALLEY":" ","HOUSE_NO":"１０６號之４","E_COORD97":173342.35000000001,"N_COORD97":2564791.3199999998,"ADDRESS":"興中路１０６號之４","OBJECTID":234199},"geometry":{"x":173342.35000000056,"y":2564791.3200000003}},{"attributes":{"ID":234204,"DIS_CODE":0,"TOWNNAME":"麻豆區","LI":"保安里","LIN":"14鄰","STREET":"興中路","SECT":" ","MAREA":" ","LANE":" ","ALLEY":" ","HOUSE_NO":"１０６號之５","E_COORD97":173342.32999999999,"N_COORD97":2564786.5699999998,"ADDRESS":"興中路１０６號之５","OBJECTID":234200},"geometry":{"x":173342.33000000007,"y":2564786.5699999984}}]}