{"displayFieldName":"TOWNNAME","fieldAliases":{"ID":"ID","DIS_CODE":"DIS_CODE","TOWNNAME":"TOWNNAME","LI":"LI","LIN":"LIN","STREET":"STREET","SECT":"SECT","MAREA":"MAREA","LANE":"LANE","ALLEY":"ALLEY","HOUSE_NO":"HOUSE_NO","E_COORD97":"E_COORD97","N_COORD97":"N_COORD97","ADDRESS":"ADDRESS","OBJECTID":"OBJECTID"},"geometryType":"esriGeometryPoint","spatialReference":{"wkid":102443,"latestWkid":3826},"fields":[{"name":"ID","type":"esriFieldTypeDouble","alias":"ID"},{"name":"DIS_CODE","type":"esriFieldTypeInteger","alias":"DIS_CODE"},{"name":"TOWNNAME","type":"esriFieldTypeString","alias":"TOWNNAME","length":8},{"name":"LI","type":"esriFieldTypeString","alias":"LI","length":8},{"name":"LIN","type":"esriFieldTypeString","alias":"LIN","length":12},{"name":"STREET","type":"esriFieldTypeString","alias":"STREET","length":20},{"name":"SECT","type":"esriFieldTypeString","alias":"SECT","length":8},{"name":"MAREA","type":"esriFieldTypeString","alias":"MAREA","length":12},{"name":"LANE","type":"esriFieldTypeString","alias":"LANE","length":10},{"name":"ALLEY","type":"esriFieldTypeString","alias":"ALLEY","length":10},{"name":"HOUSE_NO","type":"esriFieldTypeString","alias":"HOUSE_NO","length":20},{"name":"E_COORD97","type":"esriFieldTypeDouble","alias":"E_COORD97"},{"name":"N_COORD97","type":"esriFieldTypeDouble","alias":"N_COORD97"},{"name":"ADDRESS","type":"esriFieldTypeString","alias":"ADDRESS","length":50},{"name":"OBJECTID","type":"esriFieldTypeOID","alias":"OBJECTID"}],"features":[{"attributes":{"ID":526028,"DIS_CODE":0,"TOWNNAME":"安平區","LI":"國平里","LIN":"6鄰","STREET":"文平路","SECT":" ","MAREA":" ","LANE":" ","ALLEY":" ","HOUSE_NO":"２０７號三樓之１","E_COORD97":165704,"N_COORD97":2543081.8799999999,"ADDRESS":"文平路２０７號三樓之１","OBJECTID":526001},"geometry":{"x":165704,"y":2543081.8800000008}},{"attributes":{"ID":526029,"DIS_CODE":0,"TOWNNAME":"安平區","LI":"國平里","LIN":"6鄰","STREET":"文平路","SECT":" ","MAREA":" ","LANE":" ","ALLEY":" ","HOUSE_NO":"２０７號三樓之２","E_COORD97":165704,"N_COORD97":2543081.8799999999,"ADDRESS":"文平路２０７號三樓之２","OBJECTID":526002},"geometry":{"x":165704,"y":2543081.8800000008}},{"attributes":{"ID":526030,"DIS_CODE":0,"TOWNNAME":"安平區","LI":"國平里","LIN":"6鄰","STREET":"文平路","SECT":" ","MAREA":" ","LANE":" ","ALLEY":" ","HOUSE_NO":"２０７號三樓之３","E_COORD97":165704,"N_COORD97":2543081.8799999999,"ADDRESS":"文平路２０７號三樓之３","OBJECTID":526003},"geometry":{"x":165704,"y":2543081.8800000008}},{"attributes":{"ID":526031,"DIS_CODE":0,"TOWNNAME":"安平區","LI":"國平里","LIN":"6鄰","STREET":"文平路","SECT":" ","MAREA":" ","LANE":" ","ALLEY":" ","HOUSE_NO":"２０７號三樓之５","E_COORD97":165704,"N_COORD97":2543081.8799999999,"ADDRESS":"文平路２０７號三樓之５","OBJECTID":526004},"geometry":{"x":165704,"y":2543081.8800000008}},{"attributes":{"ID":526032,"DIS_CODE":0,"TOWNNAME":"安平區","LI":"國平里","LIN":"6鄰","STREET":"文平路","SECT":" ","MAREA":" ","LANE":" ","ALLEY":" ","HOUSE_NO":"２０７號四樓之１","E_COORD97":165704,"N_COORD97":2543081.8799999999,"ADDRESS":"文平路２０７號四樓之１","OBJECTID":526005},"geometry":{"x":165704,"y":2543081.8800000008}},{"attributes":{"ID":526033,"DIS_CODE":0,"TOWNNAME":"安平區","LI":"國平里","LIN":"6鄰","STREET":"文平路","SECT":" ","MAREA":" ","LANE":" ","ALLEY":" ","HOUSE_NO":"２０７號四樓之２","E_COORD97":165704,"N_COORD97":2543081.8799999999,"ADDRESS":"文平路２０７號四樓之２","OBJECTID":526006},"geometry":{"x":165704,"y":2543081.8800000008}},{"attributes":{"ID":526034,"DIS_CODE":0,"TOWNNAME":"安平區","LI":"國平里","LIN":"6鄰","STREET":"文平路","SECT":" ","MAREA":" ","LANE":" ","ALLEY":" ","HOUSE_NO":"２０７號四樓之３","E_COORD97":165704,"N_COORD97":2543081.8799999999,"ADDRESS":"文平路２０７號四樓之３","OBJECTID":526007},"geometry":{"x":165704,"y":2543081.8800000008}},{"attributes":{"ID":526035,"DIS_CODE":0,"TOWNNAME":"安平區","LI":"國平里","LIN":"6鄰","STREET":"文平路","SECT":" ","MAREA":" ","LANE":" ","ALLEY":" ","HOUSE_NO":"２０７號四樓之５","E_COORD97":165704,"N_COORD97":2543081.8799999999,"ADDRESS":"文平路２０７號四樓之５","OBJECTID":526008},"geometry":{"x":165704,"y":2543081.8800000008}},{"attributes":{"ID":526036,"DIS_CODE":0,"TOWNNAME":"安平區","LI":"國平里","LIN":"6鄰","STREET":"文平路","SECT":" ","MAREA":" ","LANE":" ","ALLEY":" ","HOUSE_NO":"２０７號五樓之１","E_COORD97":165704,"N_COORD97":2543081.8799999999,"ADDRESS":"文平路２０７號五樓之１","OBJECTID":526009},"geometry":{"x":165704,"y":2543081.8800000008}},{"attributes":{"ID":526037,"DIS_CODE":0,"TOWNNAME":"安平區","LI":"國平里","LIN":"6鄰","STREET":"文平路","SECT":" ","MAREA":" ","LANE":" ","ALLEY":" ","HOUSE_NO":"２０７號五樓之２","E_COORD97":165704,"N_COORD97":2543081.8799999999,"ADDRESS":"文平路２０７號五樓之２","OBJECTID":526010},"geometry":{"x":165704,"y":2543081.8800000008}},{"attributes":{"ID":526038,"DIS_CODE":0,"TOWNNAME":"安平區","LI":"國平里","LIN":"6鄰","STREET":"文平路","SECT":" ","MAREA":" ","LANE":" ","ALLEY":" ","HOUSE_NO":"２０７號五樓之３","E_COORD97":165704,"N_COORD97":2543081.8799999999,"ADDRESS":"文平路２０７號五樓之３","OBJECTID":526011},"geometry":{"x":165704,"y":2543081.8800000008}},{"attributes":{"ID":526039,"DIS_CODE":0,"TOWNNAME":"安平區","LI":"國平里","LIN":"6鄰","STREET":"文平路","SECT":" ","MAREA":" ","LANE":" ","ALLEY":" ","HOUSE_NO":"２０７號五樓之５","E_COORD97":165704,"N_COORD97":2543081.8799999999,"ADDRESS":"文平路２０７號五樓之５","OBJECTID":526012},"geometry":{"x":165704,"y":2543081.8800000008}},{"attributes":{"ID":526040,"DIS_CODE":0,"TOWNNAME":"安平區","LI":"國平里","LIN":"6鄰","STREET":"文平路","SECT":" ","MAREA":" ","LANE":" ","ALLEY":" ","HOUSE_NO":"２０７號六樓之１","E_COORD97":165704,"N_COORD97":2543081.8799999999,"ADDRESS":"文平路２０７號六樓之１","OBJECTID":526013},"geometry":{"x":165704,"y":2543081.8800000008}},{"attributes":{"ID":526041,"DIS_CODE":0,"TOWNNAME":"安平區","LI":"國平里","LIN":"6鄰","STREET":"文平路","SECT":" ","MAREA":" ","LANE":" ","ALLEY":" ","HOUSE_NO":"２０７號六樓之２","E_COORD97":165704,"N_COORD97":2543081.8799999999,"ADDRESS":"文平路２０７號六樓之２","OBJECTID":526014},"geometry":{"x":165704,"y":2543081.8800000008}},{"attributes":{"ID":526042,"DIS_CODE":0,"TOWNNAME":"安平區","LI":"國平里","LIN":"6鄰","STREET":"文平路","SECT":" ","MAREA":" ","LANE":" ","ALLEY":" ","HOUSE_NO":"２０７號六樓之３","E_COORD97":165704,"N_COORD97":2543081.8799999999,"ADDRESS":"文平路２０７號六樓之３","OBJECTID":526015},"geometry":{"x":165704,"y":2543081.8800000008}},{"attributes":{"ID":526043,"DIS_CODE":0,"TOWNNAME":"安平區","LI":"國平里","LIN":"6鄰","STREET":"文平路","SECT":" ","MAREA":" ","LANE":" ","ALLEY":" ","HOUSE_NO":"２０７號六樓之５","E_COORD97":165704,"N_COORD97":2543081.8799999999,"ADDRESS":"文平路２０７號六樓之５","OBJECTID":526016},"geometry":{"x":165704,"y":2543081.8800000008}},{"attributes":{"ID":526044,"DIS_CODE":0,"TOWNNAME":"安平區","LI":"國平里","LIN":"6鄰","STREET":"文平路","SECT":" ","MAREA":" ","LANE":" ","ALLEY":" ","HOUSE_NO":"２０７號七樓之１","E_COORD97":165704,"N_COORD97":2543081.8799999999,"ADDRESS":"文平路２０７號七樓之１","OBJECTID":526017},"geometry":{"x":165704,"y":2543081.8800000008}},{"attributes":{"ID":526045,"DIS_CODE":0,"TOWNNAME":"安平區","LI":"國平里","LIN":"6鄰","STREET":"文平路","SECT":" ","MAREA":" ","LANE":" ","ALLEY":" ","HOUSE_NO":"２０７號七樓之２","E_COORD97":165704,"N_COORD97":2543081.8799999999,"ADDRESS":"文平路２０７號七樓之２","OBJECTID":526018},"geometry":{"x":165704,"y":2543081.8800000008}},{"attributes":{"ID":526046,"DIS_CODE":0,"TOWNNAME":"安平區","LI":"國平里","LIN":"6鄰","STREET":"文平路","SECT":" ","MAREA":" ","LANE":" ","ALLEY":" ","HOUSE_NO":"２０７號七樓之３","E_COORD97":165704,"N_COORD97":2543081.8799999999,"ADDRESS":"文平路２０７號七樓之３","OBJECTID":526019},"geometry":{"x":165704,"y":2543081.8800000008}},{"attributes":{"ID":526047,"DIS_CODE":0,"TOWNNAME":"安平區","LI":"國平里","LIN":"6鄰","STREET":"文平路","SECT":" ","MAREA":" ","LANE":" ","ALLEY":" ","HOUSE_NO":"２０７號七樓之５","E_COORD97":165704,"N_COORD97":2543081.8799999999,"ADDRESS":"文平路２０７號七樓之５","OBJECTID":526020},"geometry":{"x":165704,"y":2543081.8800000008}},{"attributes":{"ID":526048,"DIS_CODE":0,"TOWNNAME":"安平區","LI":"國平里","LIN":"6鄰","STREET":"文平路","SECT":" ","MAREA":" ","LANE":" ","ALLEY":" ","HOUSE_NO":"２０７號八樓之１","E_COORD97":165704,"N_COORD97":2543081.8799999999,"ADDRESS":"文平路２０７號八樓之１","OBJECTID":526021},"geometry":{"x":165704,"y":2543081.8800000008}},{"attributes":{"ID":526049,"DIS_CODE":0,"TOWNNAME":"安平區","LI":"國平里","LIN":"6鄰","STREET":"文平路","SECT":" ","MAREA":" ","LANE":" ","ALLEY":" ","HOUSE_NO":"２０７號八樓之２","E_COORD97":165704,"N_COORD97":2543081.8799999999,"ADDRESS":"文平路２０７號八樓之２","OBJECTID":526022},"geometry":{"x":165704,"y":2543081.8800000008}},{"attributes":{"ID":526050,"DIS_CODE":0,"TOWNNAME":"安平區","LI":"國平里","LIN":"6鄰","STREET":"文平路","SECT":" ","MAREA":" ","LANE":" ","ALLEY":" ","HOUSE_NO":"２０７號八樓之３","E_COORD97":165704,"N_COORD97":2543081.8799999999,"ADDRESS":"文平路２０７號八樓之３","OBJECTID":526023},"geometry":{"x":165704,"y":2543081.8800000008}},{"attributes":{"ID":526051,"DIS_CODE":0,"TOWNNAME":"安平區","LI":"國平里","LIN":"6鄰","STREET":"文平路","SECT":" ","MAREA":" ","LANE":" ","ALLEY":" ","HOUSE_NO":"２０７號八樓之５","E_COORD97":165704,"N_COORD97":2543081.8799999999,"ADDRESS":"文平路２０７號八樓之５","OBJECTID":526024},"geometry":{"x":165704,"y":2543081.8800000008}},{"attributes":{"ID":526052,"DIS_CODE":0,"TOWNNAME":"安平區","LI":"國平里","LIN":"6鄰","STREET":"文平路","SECT":" ","MAREA":" ","LANE":" ","ALLEY":" ","HOUSE_NO":"２０７號九樓之１","E_COORD97":165704,"N_COORD97":2543081.8799999999,"ADDRESS":"文平路２０７號九樓之１","OBJECTID":526025},"geometry":{"x":165704,"y":2543081.8800000008}},{"attributes":{"ID":526053,"DIS_CODE":0,"TOWNNAME":"安平區","LI":"國平里","LIN":"6鄰","STREET":"文平路","SECT":" ","MAREA":" ","LANE":" ","ALLEY":" ","HOUSE_NO":"２０７號九樓之２","E_COORD97":165704,"N_COORD97":2543081.8799999999,"ADDRESS":"文平路２０７號九樓之２","OBJECTID":526026},"geometry":{"x":165704,"y":2543081.8800000008}},{"attributes":{"ID":526054,"DIS_CODE":0,"TOWNNAME":"安平區","LI":"國平里","LIN":"6鄰","STREET":"文平路","SECT":" ","MAREA":" ","LANE":" ","ALLEY":" ","HOUSE_NO":"２０７號九樓之３","E_COORD97":165704,"N_COORD97":2543081.8799999999,"ADDRESS":"文平路２０７號九樓之３","OBJECTID":526027},"geometry":{"x":165704,"y":2543081.8800000008}},{"attributes":{"ID":526055,"DIS_CODE":0,"TOWNNAME":"安平區","LI":"國平里","LIN":"6鄰","STREET":"文平路","SECT":" ","MAREA":" ","LANE":" ","ALLEY":" ","HOUSE_NO":"２０７號九樓之５","E_COORD97":165704,"N_COORD97":2543081.8799999999,"ADDRESS":"文平路２０７號九樓之５","OBJECTID":526028},"geometry":{"x":165704,"y":2543081.8800000008}},{"attributes":{"ID":526056,"DIS_CODE":0,"TOWNNAME":"永康區","LI":"永康里","LIN":"3鄰","STREET":"中山路","SECT":" ","MAREA":" ","LANE":" ","ALLEY":" ","HOUSE_NO":"２７號","E_COORD97":173823.60000000001,"N_COORD97":2547485.5,"ADDRESS":"中山路２７號","OBJECTID":526029},"geometry":{"x":173823.60000000056,"y":2547485.5}},{"attributes":{"ID":526057,"DIS_CODE":0,"TOWNNAME":"安平區","LI":"國平里","LIN":"6鄰","STREET":"文平路","SECT":" ","MAREA":" ","LANE":" ","ALLEY":" ","HOUSE_NO":"２０７號十樓之２","E_COORD97":165704,"N_COORD97":2543081.8799999999,"ADDRESS":"文平路２０７號十樓之２","OBJECTID":526030},"geometry":{"x":165704,"y":2543081.8800000008}},{"attributes":{"ID":526058,"DIS_CODE":0,"TOWNNAME":"安平區","LI":"國平里","LIN":"6鄰","STREET":"文平路","SECT":" ","MAREA":" ","LANE":" ","ALLEY":" ","HOUSE_NO":"２０７號十樓之３","E_COORD97":165704,"N_COORD97":2543081.8799999999,"ADDRESS":"文平路２０７號十樓之３","OBJECTID":526031},"geometry":{"x":165704,"y":2543081.8800000008}},{"attributes":{"ID":526059,"DIS_CODE":0,"TOWNNAME":"安平區","LI":"國平里","LIN":"6鄰","STREET":"文平路","SECT":" ","MAREA":" ","LANE":" ","ALLEY":" ","HOUSE_NO":"２０９號十二樓之５","E_COORD97":165708.66,"N_COORD97":2543117.98,"ADDRESS":"文平路２０９號十二樓之５","OBJECTID":526032},"geometry":{"x":165708.66000000201,"y":2543117.9800000004}},{"attributes":{"ID":526060,"DIS_CODE":0,"TOWNNAME":"安平區","LI":"國平里","LIN":"6鄰","STREET":"文平路","SECT":" ","MAREA":" ","LANE":" ","ALLEY":" ","HOUSE_NO":"２０９號十三樓之１","E_COORD97":165708.66,"N_COORD97":2543117.98,"ADDRESS":"文平路２０９號十三樓之１","OBJECTID":526033},"geometry":{"x":165708.66000000201,"y":2543117.9800000004}},{"attributes":{"ID":526061,"DIS_CODE":0,"TOWNNAME":"安平區","LI":"國平里","LIN":"6鄰","STREET":"文平路","SECT":" ","MAREA":" ","LANE":" ","ALLEY":" ","HOUSE_NO":"２０９號十三樓之２","E_COORD97":165708.66,"N_COORD97":2543117.98,"ADDRESS":"文平路２０９號十三樓之２","OBJECTID":526034},"geometry":{"x":165708.66000000201,"y":2543117.9800000004}},{"attributes":{"ID":526062,"DIS_CODE":0,"TOWNNAME":"安平區","LI":"國平里","LIN":"6鄰","STREET":"文平路","SECT":" ","MAREA":" ","LANE":" ","ALLEY":" ","HOUSE_NO":"２０９號十三樓之３","E_COORD97":165708.66,"N_COORD97":2543117.98,"ADDRESS":"文平路２０９號十三樓之３","OBJECTID":526035},"geometry":{"x":165708.66000000201,"y":2543117.9800000004}},{"attributes":{"ID":526063,"DIS_CODE":0,"TOWNNAME":"安平區","LI":"國平里","LIN":"6鄰","STREET":"文平路","SECT":" ","MAREA":" ","LANE":" ","ALLEY":" ","HOUSE_NO":"２０９號十三樓之５","E_COORD97":165708.66,"N_COORD97":2543117.98,"ADDRESS":"文平路２０９號十三樓之５","OBJECTID":526036},"geometry":{"x":165708.66000000201,"y":2543117.9800000004}},{"attributes":{"ID":526064,"DIS_CODE":0,"TOWNNAME":"安平區","LI":"國平里","LIN":"6鄰","STREET":"文平路","SECT":" ","MAREA":" ","LANE":" ","ALLEY":" ","HOUSE_NO":"２０９號十四樓之１","E_COORD97":165708.66,"N_COORD97":2543117.98,"ADDRESS":"文平路２０９號十四樓之１","OBJECTID":526037},"geometry":{"x":165708.66000000201,"y":2543117.9800000004}},{"attributes":{"ID":526065,"DIS_CODE":0,"TOWNNAME":"安平區","LI":"國平里","LIN":"6鄰","STREET":"文平路","SECT":" ","MAREA":" ","LANE":" ","ALLEY":" ","HOUSE_NO":"２０９號十四樓之２","E_COORD97":165708.66,"N_COORD97":2543117.98,"ADDRESS":"文平路２０９號十四樓之２","OBJECTID":526038},"geometry":{"x":165708.66000000201,"y":2543117.9800000004}},{"attributes":{"ID":526066,"DIS_CODE":0,"TOWNNAME":"安平區","LI":"國平里","LIN":"6鄰","STREET":"文平路","SECT":" ","MAREA":" ","LANE":" ","ALLEY":" ","HOUSE_NO":"２０９號十四樓之３","E_COORD97":165708.66,"N_COORD97":2543117.98,"ADDRESS":"文平路２０９號十四樓之３","OBJECTID":526039},"geometry":{"x":165708.66000000201,"y":2543117.9800000004}},{"attributes":{"ID":526067,"DIS_CODE":0,"TOWNNAME":"安平區","LI":"國平里","LIN":"6鄰","STREET":"文平路","SECT":" ","MAREA":" ","LANE":" ","ALLEY":" ","HOUSE_NO":"２０９號十四樓之５","E_COORD97":165708.66,"N_COORD97":2543117.98,"ADDRESS":"文平路２０９號十四樓之５","OBJECTID":526040},"geometry":{"x":165708.66000000201,"y":2543117.9800000004}},{"attributes":{"ID":526068,"DIS_CODE":0,"TOWNNAME":"安平區","LI":"國平里","LIN":"6鄰","STREET":"文平路","SECT":" ","MAREA":" ","LANE":" ","ALLEY":" ","HOUSE_NO":"２０９號十五樓之１","E_COORD97":165708.66,"N_COORD97":2543117.98,"ADDRESS":"文平路２０９號十五樓之１","OBJECTID":526041},"geometry":{"x":165708.66000000201,"y":2543117.9800000004}},{"attributes":{"ID":526069,"DIS_CODE":0,"TOWNNAME":"安平區","LI":"國平里","LIN":"6鄰","STREET":"文平路","SECT":" ","MAREA":" ","LANE":" ","ALLEY":" ","HOUSE_NO":"２０９號十五樓之２","E_COORD97":165708.66,"N_COORD97":2543117.98,"ADDRESS":"文平路２０９號十五樓之２","OBJECTID":526042},"geometry":{"x":165708.66000000201,"y":2543117.9800000004}},{"attributes":{"ID":526070,"DIS_CODE":0,"TOWNNAME":"安平區","LI":"國平里","LIN":"6鄰","STREET":"文平路","SECT":" ","MAREA":" ","LANE":" ","ALLEY":" ","HOUSE_NO":"２０９號十五樓之３","E_COORD97":165708.66,"N_COORD97":2543117.98,"ADDRESS":"文平路２０９號十五樓之３","OBJECTID":526043},"geometry":{"x":165708.66000000201,"y":2543117.9800000004}},{"attributes":{"ID":526071,"DIS_CODE":0,"TOWNNAME":"安平區","LI":"國平里","LIN":"6鄰","STREET":"文平路","SECT":" ","MAREA":" ","LANE":" ","ALLEY":" ","HOUSE_NO":"２０９號十五樓之５","E_COORD97":165708.66,"N_COORD97":2543117.98,"ADDRESS":"文平路２０９號十五樓之５","OBJECTID":526044},"geometry":{"x":165708.66000000201,"y":2543117.9800000004}},{"attributes":{"ID":526072,"DIS_CODE":0,"TOWNNAME":"安平區","LI":"國平里","LIN":"6鄰","STREET":"文平路","SECT":" ","MAREA":" ","LANE":" ","ALLEY":" ","HOUSE_NO":"２０９號十六樓之１","E_COORD97":165708.66,"N_COORD97":2543117.98,"ADDRESS":"文平路２０９號十六樓之１","OBJECTID":526045},"geometry":{"x":165708.66000000201,"y":2543117.9800000004}},{"attributes":{"ID":526073,"DIS_CODE":0,"TOWNNAME":"安平區","LI":"國平里","LIN":"6鄰","STREET":"文平路","SECT":" ","MAREA":" ","LANE":" ","ALLEY":" ","HOUSE_NO":"２０９號十六樓之２","E_COORD97":165708.66,"N_COORD97":2543117.98,"ADDRESS":"文平路２０９號十六樓之２","OBJECTID":526046},"geometry":{"x":165708.66000000201,"y":2543117.9800000004}},{"attributes":{"ID":526074,"DIS_CODE":0,"TOWNNAME":"安平區","LI":"國平里","LIN":"6鄰","STREET":"文平路","SECT":" ","MAREA":" ","LANE":" ","ALLEY":" ","HOUSE_NO":"２０９號十六樓之３","E_COORD97":165708.66,"N_COORD97":2543117.98,"ADDRESS":"文平路２０９號十六樓之３","OBJECTID":526047},"geometry":{"x":165708.66000000201,"y":2543117.9800000004}},{"attributes":{"ID":526075,"DIS_CODE":0,"TOWNNAME":"安平區","LI":"國平里","LIN":"6鄰","STREET":"文平路","SECT":" ","MAREA":" ","LANE":" ","ALLEY":" ","HOUSE_NO":"２０９號十六樓之５","E_COORD97":165708.66,"N_COORD97":2543117.98,"ADDRESS":"文平路２０９號十六樓之５","OBJECTID":526048},"geometry":{"x":165708.66000000201,"y":2543117.9800000004}},{"attributes":{"ID":526076,"DIS_CODE":0,"TOWNNAME":"安平區","LI":"國平里","LIN":"6鄰","STREET":"文平路","SECT":" ","MAREA":" ","LANE":" ","ALLEY":" ","HOUSE_NO":"２０９號十七樓之１","E_COORD97":165708.66,"N_COORD97":2543117.98,"ADDRESS":"文平路２０９號十七樓之１","OBJECTID":526049},"geometry":{"x":165708.66000000201,"y":2543117.9800000004}},{"attributes":{"ID":526077,"DIS_CODE":0,"TOWNNAME":"安平區","LI":"國平里","LIN":"6鄰","STREET":"文平路","SECT":" ","MAREA":" ","LANE":" ","ALLEY":" ","HOUSE_NO":"２０９號十七樓之２","E_COORD97":165708.66,"N_COORD97":2543117.98,"ADDRESS":"文平路２０９號十七樓之２","OBJECTID":526050},"geometry":{"x":165708.66000000201,"y":2543117.9800000004}},{"attributes":{"ID":526078,"DIS_CODE":0,"TOWNNAME":"安平區","LI":"國平里","LIN":"6鄰","STREET":"文平路","SECT":" ","MAREA":" ","LANE":" ","ALLEY":" ","HOUSE_NO":"２０９號十七樓之３","E_COORD97":165708.66,"N_COORD97":2543117.98,"ADDRESS":"文平路２０９號十七樓之３","OBJECTID":526051},"geometry":{"x":165708.66000000201,"y":2543117.9800000004}},{"attributes":{"ID":526079,"DIS_CODE":0,"TOWNNAME":"安平區","LI":"國平里","LIN":"6鄰","STREET":"文平路","SECT":" ","MAREA":" ","LANE":" ","ALLEY":" ","HOUSE_NO":"２０９號十七樓之５","E_COORD97":165708.66,"N_COORD97":2543117.98,"ADDRESS":"文平路２０９號十七樓之５","OBJECTID":526052},"geometry":{"x":165708.66000000201,"y":2543117.9800000004}},{"attributes":{"ID":526080,"DIS_CODE":0,"TOWNNAME":"安平區","LI":"國平里","LIN":"6鄰","STREET":"文平路","SECT":" ","MAREA":" ","LANE":" ","ALLEY":" ","HOUSE_NO":"２０９號十八樓之１","E_COORD97":165708.66,"N_COORD97":2543117.98,"ADDRESS":"文平路２０９號十八樓之１","OBJECTID":526053},"geometry":{"x":165708.66000000201,"y":2543117.9800000004}},{"attributes":{"ID":526081,"DIS_CODE":0,"TOWNNAME":"安平區","LI":"國平里","LIN":"6鄰","STREET":"文平路","SECT":" ","MAREA":" ","LANE":" ","ALLEY":" ","HOUSE_NO":"２０９號十八樓之２","E_COORD97":165708.66,"N_COORD97":2543117.98,"ADDRESS":"文平路２０９號十八樓之２","OBJECTID":526054},"geometry":{"x":165708.66000000201,"y":2543117.9800000004}},{"attributes":{"ID":526082,"DIS_CODE":0,"TOWNNAME":"安平區","LI":"國平里","LIN":"6鄰","STREET":"文平路","SECT":" ","MAREA":" ","LANE":" ","ALLEY":" ","HOUSE_NO":"２０９號十八樓之３","E_COORD97":165708.66,"N_COORD97":2543117.98,"ADDRESS":"文平路２０９號十八樓之３","OBJECTID":526055},"geometry":{"x":165708.66000000201,"y":2543117.9800000004}},{"attributes":{"ID":526083,"DIS_CODE":0,"TOWNNAME":"新營區","LI":"永生里","LIN":"6鄰","STREET":"富源街","SECT":" ","MAREA":" ","LANE":" ","ALLEY":" ","HOUSE_NO":"２２號四樓之９","E_COORD97":180017.16,"N_COORD97":2577978,"ADDRESS":"富源街２２號四樓之９","OBJECTID":526056},"geometry":{"x":180017.16000000015,"y":2577978}},{"attributes":{"ID":526084,"DIS_CODE":0,"TOWNNAME":"安平區","LI":"國平里","LIN":"6鄰","STREET":"文平路","SECT":" ","MAREA":" ","LANE":" ","ALLEY":" ","HOUSE_NO":"２０９號十八樓之５","E_COORD97":165708.66,"N_COORD97":2543117.98,"ADDRESS":"文平路２０９號十八樓之５","OBJECTID":526057},"geometry":{"x":165708.66000000201,"y":2543117.9800000004}},{"attributes":{"ID":526085,"DIS_CODE":0,"TOWNNAME":"安平區","LI":"國平里","LIN":"6鄰","STREET":"文平路","SECT":" ","MAREA":" ","LANE":" ","ALLEY":" ","HOUSE_NO":"２０９號十九樓之１","E_COORD97":165708.66,"N_COORD97":2543117.98,"ADDRESS":"文平路２０９號十九樓之１","OBJECTID":526058},"geometry":{"x":165708.66000000201,"y":2543117.9800000004}},{"attributes":{"ID":526086,"DIS_CODE":0,"TOWNNAME":"安平區","LI":"國平里","LIN":"6鄰","STREET":"文平路","SECT":" ","MAREA":" ","LANE":" ","ALLEY":" ","HOUSE_NO":"２０９號十九樓之３","E_COORD97":165708.66,"N_COORD97":2543117.98,"ADDRESS":"文平路２０９號十九樓之３","OBJECTID":526059},"geometry":{"x":165708.66000000201,"y":2543117.9800000004}},{"attributes":{"ID":526087,"DIS_CODE":0,"TOWNNAME":"安平區","LI":"國平里","LIN":"6鄰","STREET":"文平路","SECT":" ","MAREA":" ","LANE":" ","ALLEY":" ","HOUSE_NO":"２０９號二十樓之１","E_COORD97":165708.66,"N_COORD97":2543117.98,"ADDRESS":"文平路２０９號二十樓之１","OBJECTID":526060},"geometry":{"x":165708.66000000201,"y":2543117.9800000004}},{"attributes":{"ID":526088,"DIS_CODE":0,"TOWNNAME":"永康區","LI":"甲頂里","LIN":"22鄰","STREET":"中正南路","SECT":" ","MAREA":" ","LANE":" ","ALLEY":" ","HOUSE_NO":"３０號","E_COORD97":169664.70000000001,"N_COORD97":2546655.75,"ADDRESS":"中正南路３０號","OBJECTID":526061},"geometry":{"x":169664.70000000019,"y":2546655.75}},{"attributes":{"ID":526089,"DIS_CODE":0,"TOWNNAME":"永康區","LI":"安康里","LIN":"6鄰","STREET":"大橋一街","SECT":" ","MAREA":" ","LANE":" ","ALLEY":" ","HOUSE_NO":"５１之５號","E_COORD97":170760.38,"N_COORD97":2546337.1299999999,"ADDRESS":"大橋一街５１之５號","OBJECTID":526062},"geometry":{"x":170760.38000000082,"y":2546337.129999999}},{"attributes":{"ID":526090,"DIS_CODE":0,"TOWNNAME":"安平區","LI":"國平里","LIN":"6鄰","STREET":"文平路","SECT":" ","MAREA":" ","LANE":" ","ALLEY":" ","HOUSE_NO":"２０９號二十樓之３","E_COORD97":165708.66,"N_COORD97":2543117.98,"ADDRESS":"文平路２０９號二十樓之３","OBJECTID":526063},"geometry":{"x":165708.66000000201,"y":2543117.9800000004}},{"attributes":{"ID":526091,"DIS_CODE":0,"TOWNNAME":"安平區","LI":"國平里","LIN":"6鄰","STREET":"文平路","SECT":" ","MAREA":" ","LANE":" ","ALLEY":" ","HOUSE_NO":"２０９號二十一樓之１","E_COORD97":165708.66,"N_COORD97":2543117.98,"ADDRESS":"文平路２０９號二十一樓之１","OBJECTID":526064},"geometry":{"x":165708.66000000201,"y":2543117.9800000004}},{"attributes":{"ID":526092,"DIS_CODE":0,"TOWNNAME":"安平區","LI":"國平里","LIN":"6鄰","STREET":"文平路","SECT":" ","MAREA":" ","LANE":" ","ALLEY":" ","HOUSE_NO":"２０９號二十一樓之３","E_COORD97":165708.66,"N_COORD97":2543117.98,"ADDRESS":"文平路２０９號二十一樓之３","OBJECTID":526065},"geometry":{"x":165708.66000000201,"y":2543117.9800000004}},{"attributes":{"ID":526093,"DIS_CODE":0,"TOWNNAME":"安平區","LI":"國平里","LIN":"6鄰","STREET":"文平路","SECT":" ","MAREA":" ","LANE":" ","ALLEY":" ","HOUSE_NO":"２０９號二樓之１","E_COORD97":165708.66,"N_COORD97":2543117.98,"ADDRESS":"文平路２０９號二樓之１","OBJECTID":526066},"geometry":{"x":165708.66000000201,"y":2543117.9800000004}},{"attributes":{"ID":526094,"DIS_CODE":0,"TOWNNAME":"安平區","LI":"國平里","LIN":"6鄰","STREET":"文平路","SECT":" ","MAREA":" ","LANE":" ","ALLEY":" ","HOUSE_NO":"２０９號二樓之３","E_COORD97":165708.66,"N_COORD97":2543117.98,"ADDRESS":"文平路２０９號二樓之３","OBJECTID":526067},"geometry":{"x":165708.66000000201,"y":2543117.9800000004}},{"attributes":{"ID":526095,"DIS_CODE":0,"TOWNNAME":"安平區","LI":"國平里","LIN":"6鄰","STREET":"文平路","SECT":" ","MAREA":" ","LANE":" ","ALLEY":" ","HOUSE_NO":"２０９號二樓之５","E_COORD97":165708.66,"N_COORD97":2543117.98,"ADDRESS":"文平路２０９號二樓之５","OBJECTID":526068},"geometry":{"x":165708.66000000201,"y":2543117.9800000004}},{"attributes":{"ID":526096,"DIS_CODE":0,"TOWNNAME":"安平區","LI":"國平里","LIN":"6鄰","STREET":"文平路","SECT":" ","MAREA":" ","LANE":" ","ALLEY":" ","HOUSE_NO":"２０９號三樓之１","E_COORD97":165708.66,"N_COORD97":2543117.98,"ADDRESS":"文平路２０９號三樓之１","OBJECTID":526069},"geometry":{"x":165708.66000000201,"y":2543117.9800000004}},{"attributes":{"ID":526097,"DIS_CODE":0,"TOWNNAME":"安平區","LI":"國平里","LIN":"6鄰","STREET":"文平路","SECT":" ","MAREA":" ","LANE":" ","ALLEY":" ","HOUSE_NO":"２０９號三樓之２","E_COORD97":165708.66,"N_COORD97":2543117.98,"ADDRESS":"文平路２０９號三樓之２","OBJECTID":526070},"geometry":{"x":165708.66000000201,"y":2543117.9800000004}},{"attributes":{"ID":526098,"DIS_CODE":0,"TOWNNAME":"安平區","LI":"國平里","LIN":"6鄰","STREET":"文平路","SECT":" ","MAREA":" ","LANE":" ","ALLEY":" ","HOUSE_NO":"２０９號三樓之３","E_COORD97":165708.66,"N_COORD97":2543117.98,"ADDRESS":"文平路２０９號三樓之３","OBJECTID":526071},"geometry":{"x":165708.66000000201,"y":2543117.9800000004}},{"attributes":{"ID":526099,"DIS_CODE":0,"TOWNNAME":"安平區","LI":"國平里","LIN":"6鄰","STREET":"文平路","SECT":" ","MAREA":" ","LANE":" ","ALLEY":" ","HOUSE_NO":"２０９號三樓之５","E_COORD97":165708.66,"N_COORD97":2543117.98,"ADDRESS":"文平路２０９號三樓之５","OBJECTID":526072},"geometry":{"x":165708.66000000201,"y":2543117.9800000004}},{"attributes":{"ID":526100,"DIS_CODE":0,"TOWNNAME":"安平區","LI":"國平里","LIN":"6鄰","STREET":"文平路","SECT":" ","MAREA":" ","LANE":" ","ALLEY":" ","HOUSE_NO":"２０９號四樓之１","E_COORD97":165708.66,"N_COORD97":2543117.98,"ADDRESS":"文平路２０９號四樓之１","OBJECTID":526073},"geometry":{"x":165708.66000000201,"y":2543117.9800000004}},{"attributes":{"ID":526101,"DIS_CODE":0,"TOWNNAME":"安平區","LI":"國平里","LIN":"6鄰","STREET":"文平路","SECT":" ","MAREA":" ","LANE":" ","ALLEY":" ","HOUSE_NO":"２０９號四樓之２","E_COORD97":165708.66,"N_COORD97":2543117.98,"ADDRESS":"文平路２０９號四樓之２","OBJECTID":526074},"geometry":{"x":165708.66000000201,"y":2543117.9800000004}},{"attributes":{"ID":526102,"DIS_CODE":0,"TOWNNAME":"安平區","LI":"國平里","LIN":"6鄰","STREET":"文平路","SECT":" ","MAREA":" ","LANE":" ","ALLEY":" ","HOUSE_NO":"２０９號四樓之３","E_COORD97":165708.66,"N_COORD97":2543117.98,"ADDRESS":"文平路２０９號四樓之３","OBJECTID":526075},"geometry":{"x":165708.66000000201,"y":2543117.9800000004}},{"attributes":{"ID":526103,"DIS_CODE":0,"TOWNNAME":"安平區","LI":"國平里","LIN":"6鄰","STREET":"文平路","SECT":" ","MAREA":" ","LANE":" ","ALLEY":" ","HOUSE_NO":"２０９號四樓之５","E_COORD97":165708.66,"N_COORD97":2543117.98,"ADDRESS":"文平路２０９號四樓之５","OBJECTID":526076},"geometry":{"x":165708.66000000201,"y":2543117.9800000004}},{"attributes":{"ID":526104,"DIS_CODE":0,"TOWNNAME":"安平區","LI":"國平里","LIN":"6鄰","STREET":"文平路","SECT":" ","MAREA":" ","LANE":" ","ALLEY":" ","HOUSE_NO":"２０９號五樓之１","E_COORD97":165708.66,"N_COORD97":2543117.98,"ADDRESS":"文平路２０９號五樓之１","OBJECTID":526077},"geometry":{"x":165708.66000000201,"y":2543117.9800000004}},{"attributes":{"ID":526105,"DIS_CODE":0,"TOWNNAME":"安平區","LI":"國平里","LIN":"6鄰","STREET":"文平路","SECT":" ","MAREA":" ","LANE":" ","ALLEY":" ","HOUSE_NO":"２０９號五樓之２","E_COORD97":165708.66,"N_COORD97":2543117.98,"ADDRESS":"文平路２０９號五樓之２","OBJECTID":526078},"geometry":{"x":165708.66000000201,"y":2543117.9800000004}},{"attributes":{"ID":526106,"DIS_CODE":0,"TOWNNAME":"安平區","LI":"國平里","LIN":"6鄰","STREET":"文平路","SECT":" ","MAREA":" ","LANE":" ","ALLEY":" ","HOUSE_NO":"２０９號五樓之３","E_COORD97":165708.66,"N_COORD97":2543117.98,"ADDRESS":"文平路２０９號五樓之３","OBJECTID":526079},"geometry":{"x":165708.66000000201,"y":2543117.9800000004}},{"attributes":{"ID":526107,"DIS_CODE":0,"TOWNNAME":"安平區","LI":"國平里","LIN":"6鄰","STREET":"文平路","SECT":" ","MAREA":" ","LANE":" ","ALLEY":" ","HOUSE_NO":"２０９號五樓之５","E_COORD97":165708.66,"N_COORD97":2543117.98,"ADDRESS":"文平路２０９號五樓之５","OBJECTID":526080},"geometry":{"x":165708.66000000201,"y":2543117.9800000004}},{"attributes":{"ID":526108,"DIS_CODE":0,"TOWNNAME":"安平區","LI":"國平里","LIN":"6鄰","STREET":"文平路","SECT":" ","MAREA":" ","LANE":" ","ALLEY":" ","HOUSE_NO":"２０９號六樓之１","E_COORD97":165708.66,"N_COORD97":2543117.98,"ADDRESS":"文平路２０９號六樓之１","OBJECTID":526081},"geometry":{"x":165708.66000000201,"y":2543117.9800000004}},{"attributes":{"ID":526109,"DIS_CODE":0,"TOWNNAME":"安平區","LI":"國平里","LIN":"6鄰","STREET":"文平路","SECT":" ","MAREA":" ","LANE":" ","ALLEY":" ","HOUSE_NO":"２０９號六樓之２","E_COORD97":165708.66,"N_COORD97":2543117.98,"ADDRESS":"文平路２０９號六樓之２","OBJECTID":526082},"geometry":{"x":165708.66000000201,"y":2543117.9800000004}},{"attributes":{"ID":526110,"DIS_CODE":0,"TOWNNAME":"安平區","LI":"國平里","LIN":"6鄰","STREET":"文平路","SECT":" ","MAREA":" ","LANE":" ","ALLEY":" ","HOUSE_NO":"２０９號六樓之３","E_COORD97":165708.66,"N_COORD97":2543117.98,"ADDRESS":"文平路２０９號六樓之３","OBJECTID":526083},"geometry":{"x":165708.66000000201,"y":2543117.9800000004}},{"attributes":{"ID":526111,"DIS_CODE":0,"TOWNNAME":"安平區","LI":"國平里","LIN":"6鄰","STREET":"文平路","SECT":" ","MAREA":" ","LANE":" ","ALLEY":" ","HOUSE_NO":"２０９號六樓之５","E_COORD97":165708.66,"N_COORD97":2543117.98,"ADDRESS":"文平路２０９號六樓之５","OBJECTID":526084},"geometry":{"x":165708.66000000201,"y":2543117.9800000004}},{"attributes":{"ID":526112,"DIS_CODE":0,"TOWNNAME":"安平區","LI":"國平里","LIN":"6鄰","STREET":"文平路","SECT":" ","MAREA":" ","LANE":" ","ALLEY":" ","HOUSE_NO":"２０９號七樓之１","E_COORD97":165708.66,"N_COORD97":2543117.98,"ADDRESS":"文平路２０９號七樓之１","OBJECTID":526085},"geometry":{"x":165708.66000000201,"y":2543117.9800000004}},{"attributes":{"ID":526113,"DIS_CODE":0,"TOWNNAME":"永康區","LI":"永康里","LIN":"3鄰","STREET":"中山路","SECT":" ","MAREA":" ","LANE":" ","ALLEY":" ","HOUSE_NO":"４６號之１","E_COORD97":173849.12,"N_COORD97":2547515.7999999998,"ADDRESS":"中山路４６號之１","OBJECTID":526086},"geometry":{"x":173849.12000000197,"y":2547515.8000000026}},{"attributes":{"ID":526114,"DIS_CODE":0,"TOWNNAME":"安平區","LI":"國平里","LIN":"6鄰","STREET":"文平路","SECT":" ","MAREA":" ","LANE":" ","ALLEY":" ","HOUSE_NO":"２０９號七樓之３","E_COORD97":165708.66,"N_COORD97":2543117.98,"ADDRESS":"文平路２０９號七樓之３","OBJECTID":526087},"geometry":{"x":165708.66000000201,"y":2543117.9800000004}},{"attributes":{"ID":526115,"DIS_CODE":0,"TOWNNAME":"安平區","LI":"國平里","LIN":"6鄰","STREET":"文平路","SECT":" ","MAREA":" ","LANE":" ","ALLEY":" ","HOUSE_NO":"２０９號七樓之５","E_COORD97":165708.66,"N_COORD97":2543117.98,"ADDRESS":"文平路２０９號七樓之５","OBJECTID":526088},"geometry":{"x":165708.66000000201,"y":2543117.9800000004}},{"attributes":{"ID":526116,"DIS_CODE":0,"TOWNNAME":"安平區","LI":"國平里","LIN":"6鄰","STREET":"文平路","SECT":" ","MAREA":" ","LANE":" ","ALLEY":" ","HOUSE_NO":"２０９號八樓之１","E_COORD97":165708.66,"N_COORD97":2543117.98,"ADDRESS":"文平路２０９號八樓之１","OBJECTID":526089},"geometry":{"x":165708.66000000201,"y":2543117.9800000004}},{"attributes":{"ID":526117,"DIS_CODE":0,"TOWNNAME":"永康區","LI":"永康里","LIN":"21鄰","STREET":"永平街","SECT":" ","MAREA":" ","LANE":" ","ALLEY":" ","HOUSE_NO":"３５號","E_COORD97":173625.60000000001,"N_COORD97":2547127.4500000002,"ADDRESS":"永平街３５號","OBJECTID":526090},"geometry":{"x":173625.60000000056,"y":2547127.4500000011}},{"attributes":{"ID":526118,"DIS_CODE":0,"TOWNNAME":"安平區","LI":"國平里","LIN":"6鄰","STREET":"文平路","SECT":" ","MAREA":" ","LANE":" ","ALLEY":" ","HOUSE_NO":"２０９號八樓之２","E_COORD97":165708.66,"N_COORD97":2543117.98,"ADDRESS":"文平路２０９號八樓之２","OBJECTID":526091},"geometry":{"x":165708.66000000201,"y":2543117.9800000004}},{"attributes":{"ID":526119,"DIS_CODE":0,"TOWNNAME":"安平區","LI":"國平里","LIN":"6鄰","STREET":"文平路","SECT":" ","MAREA":" ","LANE":" ","ALLEY":" ","HOUSE_NO":"２０９號八樓之３","E_COORD97":165708.66,"N_COORD97":2543117.98,"ADDRESS":"文平路２０９號八樓之３","OBJECTID":526092},"geometry":{"x":165708.66000000201,"y":2543117.9800000004}},{"attributes":{"ID":526120,"DIS_CODE":0,"TOWNNAME":"安平區","LI":"國平里","LIN":"6鄰","STREET":"文平路","SECT":" ","MAREA":" ","LANE":" ","ALLEY":" ","HOUSE_NO":"２０９號八樓之５","E_COORD97":165708.66,"N_COORD97":2543117.98,"ADDRESS":"文平路２０９號八樓之５","OBJECTID":526093},"geometry":{"x":165708.66000000201,"y":2543117.9800000004}},{"attributes":{"ID":526121,"DIS_CODE":0,"TOWNNAME":"安平區","LI":"國平里","LIN":"6鄰","STREET":"文平路","SECT":" ","MAREA":" ","LANE":" ","ALLEY":" ","HOUSE_NO":"２０９號九樓之１","E_COORD97":165708.66,"N_COORD97":2543117.98,"ADDRESS":"文平路２０９號九樓之１","OBJECTID":526094},"geometry":{"x":165708.66000000201,"y":2543117.9800000004}},{"attributes":{"ID":526122,"DIS_CODE":0,"TOWNNAME":"安平區","LI":"國平里","LIN":"6鄰","STREET":"文平路","SECT":" ","MAREA":" ","LANE":" ","ALLEY":" ","HOUSE_NO":"２０９號九樓之２","E_COORD97":165708.66,"N_COORD97":2543117.98,"ADDRESS":"文平路２０９號九樓之２","OBJECTID":526095},"geometry":{"x":165708.66000000201,"y":2543117.9800000004}},{"attributes":{"ID":526123,"DIS_CODE":0,"TOWNNAME":"安平區","LI":"國平里","LIN":"6鄰","STREET":"文平路","SECT":" ","MAREA":" ","LANE":" ","ALLEY":" ","HOUSE_NO":"２０９號九樓之３","E_COORD97":165708.66,"N_COORD97":2543117.98,"ADDRESS":"文平路２０９號九樓之３","OBJECTID":526096},"geometry":{"x":165708.66000000201,"y":2543117.9800000004}},{"attributes":{"ID":526124,"DIS_CODE":0,"TOWNNAME":"安平區","LI":"國平里","LIN":"6鄰","STREET":"文平路","SECT":" ","MAREA":" ","LANE":" ","ALLEY":" ","HOUSE_NO":"２０９號九樓之５","E_COORD97":165708.66,"N_COORD97":2543117.98,"ADDRESS":"文平路２０９號九樓之５","OBJECTID":526097},"geometry":{"x":165708.66000000201,"y":2543117.9800000004}},{"attributes":{"ID":526125,"DIS_CODE":0,"TOWNNAME":"安平區","LI":"國平里","LIN":"6鄰","STREET":"文平路","SECT":" ","MAREA":" ","LANE":" ","ALLEY":" ","HOUSE_NO":"２０９號十樓之１","E_COORD97":165708.66,"N_COORD97":2543117.98,"ADDRESS":"文平路２０９號十樓之１","OBJECTID":526098},"geometry":{"x":165708.66000000201,"y":2543117.9800000004}},{"attributes":{"ID":526126,"DIS_CODE":0,"TOWNNAME":"安平區","LI":"國平里","LIN":"6鄰","STREET":"文平路","SECT":" ","MAREA":" ","LANE":" ","ALLEY":" ","HOUSE_NO":"２０９號十樓之２","E_COORD97":165708.66,"N_COORD97":2543117.98,"ADDRESS":"文平路２０９號十樓之２","OBJECTID":526099},"geometry":{"x":165708.66000000201,"y":2543117.9800000004}},{"attributes":{"ID":526127,"DIS_CODE":0,"TOWNNAME":"安平區","LI":"國平里","LIN":"6鄰","STREET":"文平路","SECT":" ","MAREA":" ","LANE":" ","ALLEY":" ","HOUSE_NO":"２０９號十樓之３","E_COORD97":165708.66,"N_COORD97":2543117.98,"ADDRESS":"文平路２０９號十樓之３","OBJECTID":526100},"geometry":{"x":165708.66000000201,"y":2543117.9800000004}},{"attributes":{"ID":526128,"DIS_CODE":0,"TOWNNAME":"安平區","LI":"國平里","LIN":"6鄰","STREET":"文平路","SECT":" ","MAREA":" ","LANE":" ","ALLEY":" ","HOUSE_NO":"２０９號十樓之５","E_COORD97":165708.66,"N_COORD97":2543117.98,"ADDRESS":"文平路２０９號十樓之５","OBJECTID":526101},"geometry":{"x":165708.66000000201,"y":2543117.9800000004}},{"attributes":{"ID":526129,"DIS_CODE":0,"TOWNNAME":"安平區","LI":"國平里","LIN":"6鄰","STREET":"文平路","SECT":" ","MAREA":" ","LANE":" ","ALLEY":" ","HOUSE_NO":"２０９號十一樓之１","E_COORD97":165708.66,"N_COORD97":2543117.98,"ADDRESS":"文平路２０９號十一樓之１","OBJECTID":526102},"geometry":{"x":165708.66000000201,"y":2543117.9800000004}},{"attributes":{"ID":526130,"DIS_CODE":0,"TOWNNAME":"安平區","LI":"國平里","LIN":"6鄰","STREET":"文平路","SECT":" ","MAREA":" ","LANE":" ","ALLEY":" ","HOUSE_NO":"２０９號十一樓之２","E_COORD97":165708.66,"N_COORD97":2543117.98,"ADDRESS":"文平路２０９號十一樓之２","OBJECTID":526103},"geometry":{"x":165708.66000000201,"y":2543117.9800000004}},{"attributes":{"ID":526131,"DIS_CODE":0,"TOWNNAME":"安平區","LI":"國平里","LIN":"6鄰","STREET":"文平路","SECT":" ","MAREA":" ","LANE":" ","ALLEY":" ","HOUSE_NO":"２０９號十一樓之３","E_COORD97":165708.66,"N_COORD97":2543117.98,"ADDRESS":"文平路２０９號十一樓之３","OBJECTID":526104},"geometry":{"x":165708.66000000201,"y":2543117.9800000004}},{"attributes":{"ID":526132,"DIS_CODE":0,"TOWNNAME":"安平區","LI":"國平里","LIN":"6鄰","STREET":"文平路","SECT":" ","MAREA":" ","LANE":" ","ALLEY":" ","HOUSE_NO":"２０９號十一樓之５","E_COORD97":165708.66,"N_COORD97":2543117.98,"ADDRESS":"文平路２０９號十一樓之５","OBJECTID":526105},"geometry":{"x":165708.66000000201,"y":2543117.9800000004}},{"attributes":{"ID":526133,"DIS_CODE":0,"TOWNNAME":"安平區","LI":"國平里","LIN":"6鄰","STREET":"文平路","SECT":" ","MAREA":" ","LANE":" ","ALLEY":" ","HOUSE_NO":"２０９號十二樓之１","E_COORD97":165708.66,"N_COORD97":2543117.98,"ADDRESS":"文平路２０９號十二樓之１","OBJECTID":526106},"geometry":{"x":165708.66000000201,"y":2543117.9800000004}},{"attributes":{"ID":526134,"DIS_CODE":0,"TOWNNAME":"安平區","LI":"國平里","LIN":"6鄰","STREET":"文平路","SECT":" ","MAREA":" ","LANE":" ","ALLEY":" ","HOUSE_NO":"２０９號十二樓之２","E_COORD97":165708.66,"N_COORD97":2543117.98,"ADDRESS":"文平路２０９號十二樓之２","OBJECTID":526107},"geometry":{"x":165708.66000000201,"y":2543117.9800000004}},{"attributes":{"ID":526135,"DIS_CODE":0,"TOWNNAME":"永康區","LI":"永康里","LIN":"38鄰","STREET":"西勢路","SECT":" ","MAREA":" ","LANE":" ","ALLEY":" ","HOUSE_NO":"６９１號","E_COORD97":174491.04000000001,"N_COORD97":2546721.75,"ADDRESS":"西勢路６９１號","OBJECTID":526108},"geometry":{"x":174491.04000000097,"y":2546721.7500000019}},{"attributes":{"ID":526136,"DIS_CODE":0,"TOWNNAME":"安平區","LI":"國平里","LIN":"6鄰","STREET":"文平路","SECT":" ","MAREA":" ","LANE":" ","ALLEY":" ","HOUSE_NO":"２０９號十二樓之３","E_COORD97":165708.66,"N_COORD97":2543117.98,"ADDRESS":"文平路２０９號十二樓之３","OBJECTID":526109},"geometry":{"x":165708.66000000201,"y":2543117.9800000004}},{"attributes":{"ID":526137,"DIS_CODE":0,"TOWNNAME":"新營區","LI":"永生里","LIN":"6鄰","STREET":"富源街","SECT":" ","MAREA":" ","LANE":" ","ALLEY":" ","HOUSE_NO":"２２號三樓之３","E_COORD97":180017.17000000001,"N_COORD97":2577978,"ADDRESS":"富源街２２號三樓之３","OBJECTID":526110},"geometry":{"x":180017.16999999993,"y":2577978}},{"attributes":{"ID":526138,"DIS_CODE":0,"TOWNNAME":"新營區","LI":"民生里","LIN":"6鄰","STREET":"民生路","SECT":" ","MAREA":" ","LANE":" ","ALLEY":" ","HOUSE_NO":"５２號三樓之２","E_COORD97":179329.62,"N_COORD97":2578373.3100000001,"ADDRESS":"民生路５２號三樓之２","OBJECTID":526111},"geometry":{"x":179329.62000000197,"y":2578373.3100000005}},{"attributes":{"ID":526139,"DIS_CODE":0,"TOWNNAME":"新營區","LI":"民生里","LIN":"6鄰","STREET":"民生路","SECT":" ","MAREA":" ","LANE":" ","ALLEY":" ","HOUSE_NO":"５２號七樓之８","E_COORD97":179329.63,"N_COORD97":2578373.3100000001,"ADDRESS":"民生路５２號七樓之８","OBJECTID":526112},"geometry":{"x":179329.63000000082,"y":2578373.3100000005}},{"attributes":{"ID":526140,"DIS_CODE":0,"TOWNNAME":"新營區","LI":"民生里","LIN":"6鄰","STREET":"民生路","SECT":" ","MAREA":" ","LANE":" ","ALLEY":" ","HOUSE_NO":"５２號七樓之１","E_COORD97":179329.48999999999,"N_COORD97":2578373.3100000001,"ADDRESS":"民生路５２號七樓之１","OBJECTID":526113},"geometry":{"x":179329.49000000115,"y":2578373.3100000005}},{"attributes":{"ID":526141,"DIS_CODE":0,"TOWNNAME":"新營區","LI":"民生里","LIN":"6鄰","STREET":"民生路","SECT":" ","MAREA":" ","LANE":" ","ALLEY":" ","HOUSE_NO":"５２號二樓之５","E_COORD97":179329.64000000001,"N_COORD97":2578373.3100000001,"ADDRESS":"民生路５２號二樓之５","OBJECTID":526114},"geometry":{"x":179329.6400000006,"y":2578373.3100000005}},{"attributes":{"ID":526142,"DIS_CODE":0,"TOWNNAME":"新營區","LI":"永生里","LIN":"6鄰","STREET":"富源街","SECT":" ","MAREA":" ","LANE":" ","ALLEY":" ","HOUSE_NO":"２２號三樓之９","E_COORD97":180017.16,"N_COORD97":2577978,"ADDRESS":"富源街２２號三樓之９","OBJECTID":526115},"geometry":{"x":180017.16000000015,"y":2577978}},{"attributes":{"ID":526143,"DIS_CODE":0,"TOWNNAME":"新營區","LI":"民權里","LIN":"6鄰","STREET":"信義街","SECT":" ","MAREA":" ","LANE":" ","ALLEY":" ","HOUSE_NO":"５之１號二樓","E_COORD97":179943.07999999999,"N_COORD97":2578102.3900000001,"ADDRESS":"信義街５之１號二樓","OBJECTID":526116},"geometry":{"x":179943.08000000007,"y":2578102.3900000043}},{"attributes":{"ID":526144,"DIS_CODE":0,"TOWNNAME":"新營區","LI":"永生里","LIN":"6鄰","STREET":"富源街","SECT":" ","MAREA":" ","LANE":" ","ALLEY":" ","HOUSE_NO":"２２號四樓之７","E_COORD97":180017.14999999999,"N_COORD97":2577978,"ADDRESS":"富源街２２號四樓之７","OBJECTID":526117},"geometry":{"x":180017.15000000037,"y":2577978}},{"attributes":{"ID":526145,"DIS_CODE":0,"TOWNNAME":"南區","LI":"新興里","LIN":"6鄰","STREET":"健康路","SECT":"二段","MAREA":" ","LANE":" ","ALLEY":" ","HOUSE_NO":"１號四樓","E_COORD97":167710.82000000001,"N_COORD97":2542433.0299999998,"ADDRESS":"健康路二段１號四樓","OBJECTID":526118},"geometry":{"x":167710.8200000003,"y":2542433.0299999975}},{"attributes":{"ID":526146,"DIS_CODE":0,"TOWNNAME":"南區","LI":"新興里","LIN":"6鄰","STREET":"健康路","SECT":"二段","MAREA":" ","LANE":" ","ALLEY":" ","HOUSE_NO":"３號四樓","E_COORD97":167704.12,"N_COORD97":2542433.5600000001,"ADDRESS":"健康路二段３號四樓","OBJECTID":526119},"geometry":{"x":167704.12000000197,"y":2542433.5600000005}},{"attributes":{"ID":526147,"DIS_CODE":0,"TOWNNAME":"北區","LI":"玉皇里","LIN":"6鄰","STREET":"公園路","SECT":" ","MAREA":" ","LANE":" ","ALLEY":" ","HOUSE_NO":"２５７號七樓之１","E_COORD97":168851.51999999999,"N_COORD97":2544579.2999999998,"ADDRESS":"公園路２５７號七樓之１","OBJECTID":526120},"geometry":{"x":168851.51999999955,"y":2544579.3000000026}},{"attributes":{"ID":526148,"DIS_CODE":0,"TOWNNAME":"北區","LI":"玉皇里","LIN":"6鄰","STREET":"公園路","SECT":" ","MAREA":" ","LANE":" ","ALLEY":" ","HOUSE_NO":"２５７號七樓之２","E_COORD97":168851.51999999999,"N_COORD97":2544579.2999999998,"ADDRESS":"公園路２５７號七樓之２","OBJECTID":526121},"geometry":{"x":168851.51999999955,"y":2544579.3000000026}},{"attributes":{"ID":526149,"DIS_CODE":0,"TOWNNAME":"北區","LI":"玉皇里","LIN":"6鄰","STREET":"公園路","SECT":" ","MAREA":" ","LANE":" ","ALLEY":" ","HOUSE_NO":"２５７號九樓之１","E_COORD97":168851.51999999999,"N_COORD97":2544579.2999999998,"ADDRESS":"公園路２５７號九樓之１","OBJECTID":526122},"geometry":{"x":168851.51999999955,"y":2544579.3000000026}},{"attributes":{"ID":526150,"DIS_CODE":0,"TOWNNAME":"北區","LI":"玉皇里","LIN":"6鄰","STREET":"公園路","SECT":" ","MAREA":" ","LANE":" ","ALLEY":" ","HOUSE_NO":"２５７號九樓之２","E_COORD97":168851.51999999999,"N_COORD97":2544579.2999999998,"ADDRESS":"公園路２５７號九樓之２","OBJECTID":526123},"geometry":{"x":168851.51999999955,"y":2544579.3000000026}},{"attributes":{"ID":526151,"DIS_CODE":0,"TOWNNAME":"北區","LI":"玉皇里","LIN":"6鄰","STREET":"公園路","SECT":" ","MAREA":" ","LANE":" ","ALLEY":" ","HOUSE_NO":"２５７號九樓之３","E_COORD97":168851.51999999999,"N_COORD97":2544579.2999999998,"ADDRESS":"公園路２５７號九樓之３","OBJECTID":526124},"geometry":{"x":168851.51999999955,"y":2544579.3000000026}},{"attributes":{"ID":526152,"DIS_CODE":0,"TOWNNAME":"北區","LI":"玉皇里","LIN":"6鄰","STREET":"公園路","SECT":" ","MAREA":" ","LANE":" ","ALLEY":" ","HOUSE_NO":"２５７號九樓之４","E_COORD97":168851.51999999999,"N_COORD97":2544579.2999999998,"ADDRESS":"公園路２５７號九樓之４","OBJECTID":526125},"geometry":{"x":168851.51999999955,"y":2544579.3000000026}},{"attributes":{"ID":526153,"DIS_CODE":0,"TOWNNAME":"北區","LI":"玉皇里","LIN":"6鄰","STREET":"公園路","SECT":" ","MAREA":" ","LANE":" ","ALLEY":" ","HOUSE_NO":"２５７號二樓之１","E_COORD97":168851.51999999999,"N_COORD97":2544579.2999999998,"ADDRESS":"公園路２５７號二樓之１","OBJECTID":526126},"geometry":{"x":168851.51999999955,"y":2544579.3000000026}},{"attributes":{"ID":526154,"DIS_CODE":0,"TOWNNAME":"北區","LI":"玉皇里","LIN":"6鄰","STREET":"公園路","SECT":" ","MAREA":" ","LANE":" ","ALLEY":" ","HOUSE_NO":"２５７號二樓之２","E_COORD97":168851.51999999999,"N_COORD97":2544579.2999999998,"ADDRESS":"公園路２５７號二樓之２","OBJECTID":526127},"geometry":{"x":168851.51999999955,"y":2544579.3000000026}},{"attributes":{"ID":526155,"DIS_CODE":0,"TOWNNAME":"北區","LI":"玉皇里","LIN":"6鄰","STREET":"公園路","SECT":" ","MAREA":" ","LANE":" ","ALLEY":" ","HOUSE_NO":"２５７號八樓之１","E_COORD97":168851.51999999999,"N_COORD97":2544579.2999999998,"ADDRESS":"公園路２５７號八樓之１","OBJECTID":526128},"geometry":{"x":168851.51999999955,"y":2544579.3000000026}},{"attributes":{"ID":526156,"DIS_CODE":0,"TOWNNAME":"北區","LI":"玉皇里","LIN":"6鄰","STREET":"公園路","SECT":" ","MAREA":" ","LANE":" ","ALLEY":" ","HOUSE_NO":"２５７號八樓之２","E_COORD97":168851.51999999999,"N_COORD97":2544579.2999999998,"ADDRESS":"公園路２５７號八樓之２","OBJECTID":526129},"geometry":{"x":168851.51999999955,"y":2544579.3000000026}},{"attributes":{"ID":526157,"DIS_CODE":0,"TOWNNAME":"北區","LI":"玉皇里","LIN":"6鄰","STREET":"公園路","SECT":" ","MAREA":" ","LANE":" ","ALLEY":" ","HOUSE_NO":"２５７號十樓之１","E_COORD97":168851.51999999999,"N_COORD97":2544579.2999999998,"ADDRESS":"公園路２５７號十樓之１","OBJECTID":526130},"geometry":{"x":168851.51999999955,"y":2544579.3000000026}},{"attributes":{"ID":526158,"DIS_CODE":0,"TOWNNAME":"北區","LI":"玉皇里","LIN":"6鄰","STREET":"公園路","SECT":" ","MAREA":" ","LANE":" ","ALLEY":" ","HOUSE_NO":"２５７號十樓之２","E_COORD97":168851.51999999999,"N_COORD97":2544579.2999999998,"ADDRESS":"公園路２５７號十樓之２","OBJECTID":526131},"geometry":{"x":168851.51999999955,"y":2544579.3000000026}},{"attributes":{"ID":526159,"DIS_CODE":0,"TOWNNAME":"北區","LI":"玉皇里","LIN":"6鄰","STREET":"公園路","SECT":" ","MAREA":" ","LANE":" ","ALLEY":" ","HOUSE_NO":"２５７號三樓之１","E_COORD97":168851.51999999999,"N_COORD97":2544579.2999999998,"ADDRESS":"公園路２５７號三樓之１","OBJECTID":526132},"geometry":{"x":168851.51999999955,"y":2544579.3000000026}},{"attributes":{"ID":526160,"DIS_CODE":0,"TOWNNAME":"北區","LI":"玉皇里","LIN":"6鄰","STREET":"公園路","SECT":" ","MAREA":" ","LANE":" ","ALLEY":" ","HOUSE_NO":"２５７號三樓之２","E_COORD97":168851.51999999999,"N_COORD97":2544579.2999999998,"ADDRESS":"公園路２５７號三樓之２","OBJECTID":526133},"geometry":{"x":168851.51999999955,"y":2544579.3000000026}},{"attributes":{"ID":526161,"DIS_CODE":0,"TOWNNAME":"北區","LI":"玉皇里","LIN":"6鄰","STREET":"公園路","SECT":" ","MAREA":" ","LANE":" ","ALLEY":" ","HOUSE_NO":"２５７號五樓之１","E_COORD97":168851.51999999999,"N_COORD97":2544579.2999999998,"ADDRESS":"公園路２５７號五樓之１","OBJECTID":526134},"geometry":{"x":168851.51999999955,"y":2544579.3000000026}},{"attributes":{"ID":526162,"DIS_CODE":0,"TOWNNAME":"永康區","LI":"永康里","LIN":"36鄰","STREET":"永平街","SECT":" ","MAREA":" ","LANE":" ","ALLEY":" ","HOUSE_NO":"４８號","E_COORD97":174335.31,"N_COORD97":2546849.25,"ADDRESS":"永平街４８號","OBJECTID":526135},"geometry":{"x":174335.30999999959,"y":2546849.25}},{"attributes":{"ID":526163,"DIS_CODE":0,"TOWNNAME":"永康區","LI":"永康里","LIN":"32鄰","STREET":"永康街","SECT":" ","MAREA":" ","LANE":" ","ALLEY":" ","HOUSE_NO":"２５１號","E_COORD97":174302.03,"N_COORD97":2547070.8700000001,"ADDRESS":"永康街２５１號","OBJECTID":526136},"geometry":{"x":174302.03000000026,"y":2547070.8700000048}},{"attributes":{"ID":526164,"DIS_CODE":0,"TOWNNAME":"北區","LI":"玉皇里","LIN":"6鄰","STREET":"公園路","SECT":" ","MAREA":" ","LANE":" ","ALLEY":" ","HOUSE_NO":"２５７號五樓之２","E_COORD97":168851.51999999999,"N_COORD97":2544579.2999999998,"ADDRESS":"公園路２５７號五樓之２","OBJECTID":526137},"geometry":{"x":168851.51999999955,"y":2544579.3000000026}},{"attributes":{"ID":526165,"DIS_CODE":0,"TOWNNAME":"北區","LI":"玉皇里","LIN":"6鄰","STREET":"公園路","SECT":" ","MAREA":" ","LANE":" ","ALLEY":" ","HOUSE_NO":"２５７號六樓之１","E_COORD97":168851.51999999999,"N_COORD97":2544579.2999999998,"ADDRESS":"公園路２５７號六樓之１","OBJECTID":526138},"geometry":{"x":168851.51999999955,"y":2544579.3000000026}},{"attributes":{"ID":526166,"DIS_CODE":0,"TOWNNAME":"北區","LI":"玉皇里","LIN":"6鄰","STREET":"公園路","SECT":" ","MAREA":" ","LANE":" ","ALLEY":" ","HOUSE_NO":"２５７號六樓之２","E_COORD97":168851.51999999999,"N_COORD97":2544579.2999999998,"ADDRESS":"公園路２５７號六樓之２","OBJECTID":526139},"geometry":{"x":168851.51999999955,"y":2544579.3000000026}},{"attributes":{"ID":526167,"DIS_CODE":0,"TOWNNAME":"北區","LI":"玉皇里","LIN":"6鄰","STREET":"公園路","SECT":" ","MAREA":" ","LANE":" ","ALLEY":" ","HOUSE_NO":"２５７號四樓","E_COORD97":168851.51999999999,"N_COORD97":2544579.2999999998,"ADDRESS":"公園路２５７號四樓","OBJECTID":526140},"geometry":{"x":168851.51999999955,"y":2544579.3000000026}},{"attributes":{"ID":526168,"DIS_CODE":0,"TOWNNAME":"北區","LI":"長德里","LIN":"6鄰","STREET":"長北街","SECT":" ","MAREA":" ","LANE":" ","ALLEY":" ","HOUSE_NO":"１３２號二樓之１","E_COORD97":168493.82000000001,"N_COORD97":2544812.98,"ADDRESS":"長北街１３２號二樓之１","OBJECTID":526141},"geometry":{"x":168493.8200000003,"y":2544812.9800000023}},{"attributes":{"ID":526169,"DIS_CODE":0,"TOWNNAME":"北區","LI":"長德里","LIN":"6鄰","STREET":"長北街","SECT":" ","MAREA":" ","LANE":" ","ALLEY":" ","HOUSE_NO":"１３２號二樓之１０","E_COORD97":168493.82000000001,"N_COORD97":2544812.98,"ADDRESS":"長北街１３２號二樓之１０","OBJECTID":526142},"geometry":{"x":168493.8200000003,"y":2544812.9800000023}},{"attributes":{"ID":526170,"DIS_CODE":0,"TOWNNAME":"北區","LI":"長德里","LIN":"6鄰","STREET":"長北街","SECT":" ","MAREA":" ","LANE":" ","ALLEY":" ","HOUSE_NO":"１３２號二樓之１１","E_COORD97":168493.82000000001,"N_COORD97":2544812.98,"ADDRESS":"長北街１３２號二樓之１１","OBJECTID":526143},"geometry":{"x":168493.8200000003,"y":2544812.9800000023}},{"attributes":{"ID":526171,"DIS_CODE":0,"TOWNNAME":"北區","LI":"公園里","LIN":"6鄰","STREET":"富北街","SECT":" ","MAREA":" ","LANE":" ","ALLEY":" ","HOUSE_NO":"７號十四樓","E_COORD97":169138.73000000001,"N_COORD97":2544315.8599999999,"ADDRESS":"富北街７號十四樓","OBJECTID":526144},"geometry":{"x":169138.73000000045,"y":2544315.8599999994}},{"attributes":{"ID":526172,"DIS_CODE":0,"TOWNNAME":"北區","LI":"長德里","LIN":"6鄰","STREET":"長北街","SECT":" ","MAREA":" ","LANE":" ","ALLEY":" ","HOUSE_NO":"１３２號二樓之１４","E_COORD97":168493.82000000001,"N_COORD97":2544812.98,"ADDRESS":"長北街１３２號二樓之１４","OBJECTID":526145},"geometry":{"x":168493.8200000003,"y":2544812.9800000023}},{"attributes":{"ID":526173,"DIS_CODE":0,"TOWNNAME":"北區","LI":"長德里","LIN":"6鄰","STREET":"長北街","SECT":" ","MAREA":" ","LANE":" ","ALLEY":" ","HOUSE_NO":"１３２號二樓之１５","E_COORD97":168493.82000000001,"N_COORD97":2544812.98,"ADDRESS":"長北街１３２號二樓之１５","OBJECTID":526146},"geometry":{"x":168493.8200000003,"y":2544812.9800000023}},{"attributes":{"ID":526174,"DIS_CODE":0,"TOWNNAME":"北區","LI":"長德里","LIN":"6鄰","STREET":"長北街","SECT":" ","MAREA":" ","LANE":" ","ALLEY":" ","HOUSE_NO":"１３２號二樓之２","E_COORD97":168493.82000000001,"N_COORD97":2544812.98,"ADDRESS":"長北街１３２號二樓之２","OBJECTID":526147},"geometry":{"x":168493.8200000003,"y":2544812.9800000023}},{"attributes":{"ID":526175,"DIS_CODE":0,"TOWNNAME":"北區","LI":"長德里","LIN":"6鄰","STREET":"長北街","SECT":" ","MAREA":" ","LANE":" ","ALLEY":" ","HOUSE_NO":"１３２號二樓之３","E_COORD97":168493.82000000001,"N_COORD97":2544812.98,"ADDRESS":"長北街１３２號二樓之３","OBJECTID":526148},"geometry":{"x":168493.8200000003,"y":2544812.9800000023}},{"attributes":{"ID":526176,"DIS_CODE":0,"TOWNNAME":"北區","LI":"長德里","LIN":"6鄰","STREET":"長北街","SECT":" ","MAREA":" ","LANE":" ","ALLEY":" ","HOUSE_NO":"１３２號二樓之５","E_COORD97":168493.82000000001,"N_COORD97":2544812.98,"ADDRESS":"長北街１３２號二樓之５","OBJECTID":526149},"geometry":{"x":168493.8200000003,"y":2544812.9800000023}},{"attributes":{"ID":526177,"DIS_CODE":0,"TOWNNAME":"北區","LI":"長德里","LIN":"6鄰","STREET":"長北街","SECT":" ","MAREA":" ","LANE":" ","ALLEY":" ","HOUSE_NO":"１３２號二樓之６","E_COORD97":168493.82000000001,"N_COORD97":2544812.98,"ADDRESS":"長北街１３２號二樓之６","OBJECTID":526150},"geometry":{"x":168493.8200000003,"y":2544812.9800000023}},{"attributes":{"ID":526178,"DIS_CODE":0,"TOWNNAME":"北區","LI":"長德里","LIN":"6鄰","STREET":"長北街","SECT":" ","MAREA":" ","LANE":" ","ALLEY":" ","HOUSE_NO":"１３２號二樓之７","E_COORD97":168493.82000000001,"N_COORD97":2544812.98,"ADDRESS":"長北街１３２號二樓之７","OBJECTID":526151},"geometry":{"x":168493.8200000003,"y":2544812.9800000023}},{"attributes":{"ID":526179,"DIS_CODE":0,"TOWNNAME":"北區","LI":"長德里","LIN":"6鄰","STREET":"長北街","SECT":" ","MAREA":" ","LANE":" ","ALLEY":" ","HOUSE_NO":"１３２號二樓之８","E_COORD97":168493.82000000001,"N_COORD97":2544812.98,"ADDRESS":"長北街１３２號二樓之８","OBJECTID":526152},"geometry":{"x":168493.8200000003,"y":2544812.9800000023}},{"attributes":{"ID":526180,"DIS_CODE":0,"TOWNNAME":"北區","LI":"長德里","LIN":"6鄰","STREET":"長北街","SECT":" ","MAREA":" ","LANE":" ","ALLEY":" ","HOUSE_NO":"１３２號二樓之９","E_COORD97":168493.82000000001,"N_COORD97":2544812.98,"ADDRESS":"長北街１３２號二樓之９","OBJECTID":526153},"geometry":{"x":168493.8200000003,"y":2544812.9800000023}},{"attributes":{"ID":526181,"DIS_CODE":0,"TOWNNAME":"北區","LI":"長德里","LIN":"6鄰","STREET":"長北街","SECT":" ","MAREA":" ","LANE":" ","ALLEY":" ","HOUSE_NO":"１３２號三樓之１","E_COORD97":168493.82000000001,"N_COORD97":2544812.98,"ADDRESS":"長北街１３２號三樓之１","OBJECTID":526154},"geometry":{"x":168493.8200000003,"y":2544812.9800000023}},{"attributes":{"ID":526182,"DIS_CODE":0,"TOWNNAME":"北區","LI":"公園里","LIN":"6鄰","STREET":"富北街","SECT":" ","MAREA":" ","LANE":" ","ALLEY":" ","HOUSE_NO":"７號八樓","E_COORD97":169138.73000000001,"N_COORD97":2544315.8599999999,"ADDRESS":"富北街７號八樓","OBJECTID":526155},"geometry":{"x":169138.73000000045,"y":2544315.8599999994}},{"attributes":{"ID":526183,"DIS_CODE":0,"TOWNNAME":"北區","LI":"長德里","LIN":"6鄰","STREET":"長北街","SECT":" ","MAREA":" ","LANE":" ","ALLEY":" ","HOUSE_NO":"１３２號三樓之１０","E_COORD97":168493.82000000001,"N_COORD97":2544812.98,"ADDRESS":"長北街１３２號三樓之１０","OBJECTID":526156},"geometry":{"x":168493.8200000003,"y":2544812.9800000023}},{"attributes":{"ID":526184,"DIS_CODE":0,"TOWNNAME":"北區","LI":"長德里","LIN":"6鄰","STREET":"長北街","SECT":" ","MAREA":" ","LANE":" ","ALLEY":" ","HOUSE_NO":"１３２號三樓之１１","E_COORD97":168493.82000000001,"N_COORD97":2544812.98,"ADDRESS":"長北街１３２號三樓之１１","OBJECTID":526157},"geometry":{"x":168493.8200000003,"y":2544812.9800000023}},{"attributes":{"ID":526185,"DIS_CODE":0,"TOWNNAME":"北區","LI":"長德里","LIN":"6鄰","STREET":"長北街","SECT":" ","MAREA":" ","LANE":" ","ALLEY":" ","HOUSE_NO":"１３２號三樓之１２","E_COORD97":168493.82000000001,"N_COORD97":2544812.98,"ADDRESS":"長北街１３２號三樓之１２","OBJECTID":526158},"geometry":{"x":168493.8200000003,"y":2544812.9800000023}},{"attributes":{"ID":526186,"DIS_CODE":0,"TOWNNAME":"北區","LI":"長德里","LIN":"6鄰","STREET":"長北街","SECT":" ","MAREA":" ","LANE":" ","ALLEY":" ","HOUSE_NO":"１３２號三樓之１３","E_COORD97":168493.82000000001,"N_COORD97":2544812.98,"ADDRESS":"長北街１３２號三樓之１３","OBJECTID":526159},"geometry":{"x":168493.8200000003,"y":2544812.9800000023}},{"attributes":{"ID":526187,"DIS_CODE":0,"TOWNNAME":"北區","LI":"長德里","LIN":"6鄰","STREET":"長北街","SECT":" ","MAREA":" ","LANE":" ","ALLEY":" ","HOUSE_NO":"１３２號三樓之１４","E_COORD97":168493.82000000001,"N_COORD97":2544812.98,"ADDRESS":"長北街１３２號三樓之１４","OBJECTID":526160},"geometry":{"x":168493.8200000003,"y":2544812.9800000023}},{"attributes":{"ID":526188,"DIS_CODE":0,"TOWNNAME":"北區","LI":"長德里","LIN":"6鄰","STREET":"長北街","SECT":" ","MAREA":" ","LANE":" ","ALLEY":" ","HOUSE_NO":"１３２號三樓之１５","E_COORD97":168493.82000000001,"N_COORD97":2544812.98,"ADDRESS":"長北街１３２號三樓之１５","OBJECTID":526161},"geometry":{"x":168493.8200000003,"y":2544812.9800000023}},{"attributes":{"ID":526189,"DIS_CODE":0,"TOWNNAME":"永康區","LI":"永康里","LIN":"36鄰","STREET":"永平街","SECT":" ","MAREA":" ","LANE":" ","ALLEY":" ","HOUSE_NO":"５０號","E_COORD97":174339.10999999999,"N_COORD97":2546850.5,"ADDRESS":"永平街５０號","OBJECTID":526162},"geometry":{"x":174339.11000000034,"y":2546850.5}},{"attributes":{"ID":526190,"DIS_CODE":0,"TOWNNAME":"北區","LI":"長德里","LIN":"6鄰","STREET":"長北街","SECT":" ","MAREA":" ","LANE":" ","ALLEY":" ","HOUSE_NO":"１３２號三樓之１６","E_COORD97":168493.82000000001,"N_COORD97":2544812.98,"ADDRESS":"長北街１３２號三樓之１６","OBJECTID":526163},"geometry":{"x":168493.8200000003,"y":2544812.9800000023}},{"attributes":{"ID":526191,"DIS_CODE":0,"TOWNNAME":"北區","LI":"長德里","LIN":"6鄰","STREET":"長北街","SECT":" ","MAREA":" ","LANE":" ","ALLEY":" ","HOUSE_NO":"１３２號三樓之２","E_COORD97":168493.82000000001,"N_COORD97":2544812.98,"ADDRESS":"長北街１３２號三樓之２","OBJECTID":526164},"geometry":{"x":168493.8200000003,"y":2544812.9800000023}},{"attributes":{"ID":526192,"DIS_CODE":0,"TOWNNAME":"北區","LI":"長德里","LIN":"6鄰","STREET":"長北街","SECT":" ","MAREA":" ","LANE":" ","ALLEY":" ","HOUSE_NO":"１３２號三樓之３","E_COORD97":168493.82000000001,"N_COORD97":2544812.98,"ADDRESS":"長北街１３２號三樓之３","OBJECTID":526165},"geometry":{"x":168493.8200000003,"y":2544812.9800000023}},{"attributes":{"ID":526193,"DIS_CODE":0,"TOWNNAME":"北區","LI":"長德里","LIN":"6鄰","STREET":"長北街","SECT":" ","MAREA":" ","LANE":" ","ALLEY":" ","HOUSE_NO":"１３２號三樓之５","E_COORD97":168493.82000000001,"N_COORD97":2544812.98,"ADDRESS":"長北街１３２號三樓之５","OBJECTID":526166},"geometry":{"x":168493.8200000003,"y":2544812.9800000023}},{"attributes":{"ID":526194,"DIS_CODE":0,"TOWNNAME":"北區","LI":"長德里","LIN":"6鄰","STREET":"長北街","SECT":" ","MAREA":" ","LANE":" ","ALLEY":" ","HOUSE_NO":"１３２號三樓之６","E_COORD97":168493.82000000001,"N_COORD97":2544812.98,"ADDRESS":"長北街１３２號三樓之６","OBJECTID":526167},"geometry":{"x":168493.8200000003,"y":2544812.9800000023}},{"attributes":{"ID":526195,"DIS_CODE":0,"TOWNNAME":"北區","LI":"長德里","LIN":"6鄰","STREET":"長北街","SECT":" ","MAREA":" ","LANE":" ","ALLEY":" ","HOUSE_NO":"１３２號三樓之７","E_COORD97":168493.82000000001,"N_COORD97":2544812.98,"ADDRESS":"長北街１３２號三樓之７","OBJECTID":526168},"geometry":{"x":168493.8200000003,"y":2544812.9800000023}},{"attributes":{"ID":526196,"DIS_CODE":0,"TOWNNAME":"北區","LI":"長德里","LIN":"6鄰","STREET":"長北街","SECT":" ","MAREA":" ","LANE":" ","ALLEY":" ","HOUSE_NO":"１３２號三樓之８","E_COORD97":168493.82000000001,"N_COORD97":2544812.98,"ADDRESS":"長北街１３２號三樓之８","OBJECTID":526169},"geometry":{"x":168493.8200000003,"y":2544812.9800000023}},{"attributes":{"ID":526197,"DIS_CODE":0,"TOWNNAME":"北區","LI":"長德里","LIN":"6鄰","STREET":"長北街","SECT":" ","MAREA":" ","LANE":" ","ALLEY":" ","HOUSE_NO":"１３２號三樓之９","E_COORD97":168493.82000000001,"N_COORD97":2544812.98,"ADDRESS":"長北街１３２號三樓之９","OBJECTID":526170},"geometry":{"x":168493.8200000003,"y":2544812.9800000023}},{"attributes":{"ID":526198,"DIS_CODE":0,"TOWNNAME":"北區","LI":"長德里","LIN":"6鄰","STREET":"長北街","SECT":" ","MAREA":" ","LANE":" ","ALLEY":" ","HOUSE_NO":"１３２號五樓之１","E_COORD97":168493.82000000001,"N_COORD97":2544812.98,"ADDRESS":"長北街１３２號五樓之１","OBJECTID":526171},"geometry":{"x":168493.8200000003,"y":2544812.9800000023}},{"attributes":{"ID":526199,"DIS_CODE":0,"TOWNNAME":"北區","LI":"長德里","LIN":"6鄰","STREET":"長北街","SECT":" ","MAREA":" ","LANE":" ","ALLEY":" ","HOUSE_NO":"１３２號五樓之１０","E_COORD97":168493.82000000001,"N_COORD97":2544812.98,"ADDRESS":"長北街１３２號五樓之１０","OBJECTID":526172},"geometry":{"x":168493.8200000003,"y":2544812.9800000023}},{"attributes":{"ID":526200,"DIS_CODE":0,"TOWNNAME":"北區","LI":"長德里","LIN":"6鄰","STREET":"長北街","SECT":" ","MAREA":" ","LANE":" ","ALLEY":" ","HOUSE_NO":"１３２號五樓之１１","E_COORD97":168493.82000000001,"N_COORD97":2544812.98,"ADDRESS":"長北街１３２號五樓之１１","OBJECTID":526173},"geometry":{"x":168493.8200000003,"y":2544812.9800000023}},{"attributes":{"ID":526201,"DIS_CODE":0,"TOWNNAME":"北區","LI":"長德里","LIN":"6鄰","STREET":"長北街","SECT":" ","MAREA":" ","LANE":" ","ALLEY":" ","HOUSE_NO":"１３２號五樓之１２","E_COORD97":168493.82000000001,"N_COORD97":2544812.98,"ADDRESS":"長北街１３２號五樓之１２","OBJECTID":526174},"geometry":{"x":168493.8200000003,"y":2544812.9800000023}},{"attributes":{"ID":526202,"DIS_CODE":0,"TOWNNAME":"北區","LI":"長德里","LIN":"6鄰","STREET":"長北街","SECT":" ","MAREA":" ","LANE":" ","ALLEY":" ","HOUSE_NO":"１３２號五樓之１３","E_COORD97":168493.82000000001,"N_COORD97":2544812.98,"ADDRESS":"長北街１３２號五樓之１３","OBJECTID":526175},"geometry":{"x":168493.8200000003,"y":2544812.9800000023}},{"attributes":{"ID":526203,"DIS_CODE":0,"TOWNNAME":"北區","LI":"長德里","LIN":"6鄰","STREET":"長北街","SECT":" ","MAREA":" ","LANE":" ","ALLEY":" ","HOUSE_NO":"１３２號五樓之１４","E_COORD97":168493.82000000001,"N_COORD97":2544812.98,"ADDRESS":"長北街１３２號五樓之１４","OBJECTID":526176},"geometry":{"x":168493.8200000003,"y":2544812.9800000023}},{"attributes":{"ID":526204,"DIS_CODE":0,"TOWNNAME":"北區","LI":"長德里","LIN":"6鄰","STREET":"長北街","SECT":" ","MAREA":" ","LANE":" ","ALLEY":" ","HOUSE_NO":"１３２號五樓之１５","E_COORD97":168493.82000000001,"N_COORD97":2544812.98,"ADDRESS":"長北街１３２號五樓之１５","OBJECTID":526177},"geometry":{"x":168493.8200000003,"y":2544812.9800000023}},{"attributes":{"ID":526205,"DIS_CODE":0,"TOWNNAME":"北區","LI":"長德里","LIN":"6鄰","STREET":"長北街","SECT":" ","MAREA":" ","LANE":" ","ALLEY":" ","HOUSE_NO":"１３２號五樓之１６","E_COORD97":168493.82000000001,"N_COORD97":2544812.98,"ADDRESS":"長北街１３２號五樓之１６","OBJECTID":526178},"geometry":{"x":168493.8200000003,"y":2544812.9800000023}},{"attributes":{"ID":526206,"DIS_CODE":0,"TOWNNAME":"北區","LI":"長德里","LIN":"6鄰","STREET":"長北街","SECT":" ","MAREA":" ","LANE":" ","ALLEY":" ","HOUSE_NO":"１３２號五樓之１７","E_COORD97":168493.82000000001,"N_COORD97":2544812.98,"ADDRESS":"長北街１３２號五樓之１７","OBJECTID":526179},"geometry":{"x":168493.8200000003,"y":2544812.9800000023}},{"attributes":{"ID":526207,"DIS_CODE":0,"TOWNNAME":"北區","LI":"長德里","LIN":"6鄰","STREET":"長北街","SECT":" ","MAREA":" ","LANE":" ","ALLEY":" ","HOUSE_NO":"１３２號五樓之２","E_COORD97":168493.82000000001,"N_COORD97":2544812.98,"ADDRESS":"長北街１３２號五樓之２","OBJECTID":526180},"geometry":{"x":168493.8200000003,"y":2544812.9800000023}},{"attributes":{"ID":526208,"DIS_CODE":0,"TOWNNAME":"北區","LI":"長德里","LIN":"6鄰","STREET":"長北街","SECT":" ","MAREA":" ","LANE":" ","ALLEY":" ","HOUSE_NO":"１３２號五樓之３","E_COORD97":168493.82000000001,"N_COORD97":2544812.98,"ADDRESS":"長北街１３２號五樓之３","OBJECTID":526181},"geometry":{"x":168493.8200000003,"y":2544812.9800000023}},{"attributes":{"ID":526209,"DIS_CODE":0,"TOWNNAME":"北區","LI":"長德里","LIN":"6鄰","STREET":"長北街","SECT":" ","MAREA":" ","LANE":" ","ALLEY":" ","HOUSE_NO":"１３２號五樓之５","E_COORD97":168493.82000000001,"N_COORD97":2544812.98,"ADDRESS":"長北街１３２號五樓之５","OBJECTID":526182},"geometry":{"x":168493.8200000003,"y":2544812.9800000023}},{"attributes":{"ID":526210,"DIS_CODE":0,"TOWNNAME":"北區","LI":"長德里","LIN":"6鄰","STREET":"長北街","SECT":" ","MAREA":" ","LANE":" ","ALLEY":" ","HOUSE_NO":"１３２號五樓之６","E_COORD97":168493.82000000001,"N_COORD97":2544812.98,"ADDRESS":"長北街１３２號五樓之６","OBJECTID":526183},"geometry":{"x":168493.8200000003,"y":2544812.9800000023}},{"attributes":{"ID":526211,"DIS_CODE":0,"TOWNNAME":"永康區","LI":"永康里","LIN":"12鄰","STREET":"永中街","SECT":" ","MAREA":" ","LANE":" ","ALLEY":" ","HOUSE_NO":"３６號","E_COORD97":173884.45999999999,"N_COORD97":2547095.5699999998,"ADDRESS":"永中街３６號","OBJECTID":526184},"geometry":{"x":173884.46000000089,"y":2547095.5699999984}},{"attributes":{"ID":526212,"DIS_CODE":0,"TOWNNAME":"永康區","LI":"安康里","LIN":"6鄰","STREET":"大橋一街","SECT":" ","MAREA":" ","LANE":" ","ALLEY":" ","HOUSE_NO":"５１之６號","E_COORD97":170764.82000000001,"N_COORD97":2546339.0600000001,"ADDRESS":"大橋一街５１之６號","OBJECTID":526185},"geometry":{"x":170764.82000000123,"y":2546339.0600000005}},{"attributes":{"ID":526213,"DIS_CODE":0,"TOWNNAME":"北區","LI":"長德里","LIN":"6鄰","STREET":"長北街","SECT":" ","MAREA":" ","LANE":" ","ALLEY":" ","HOUSE_NO":"１３２號五樓之７","E_COORD97":168493.82000000001,"N_COORD97":2544812.98,"ADDRESS":"長北街１３２號五樓之７","OBJECTID":526186},"geometry":{"x":168493.8200000003,"y":2544812.9800000023}},{"attributes":{"ID":526214,"DIS_CODE":0,"TOWNNAME":"北區","LI":"長德里","LIN":"6鄰","STREET":"長北街","SECT":" ","MAREA":" ","LANE":" ","ALLEY":" ","HOUSE_NO":"１３２號五樓之８","E_COORD97":168493.82000000001,"N_COORD97":2544812.98,"ADDRESS":"長北街１３２號五樓之８","OBJECTID":526187},"geometry":{"x":168493.8200000003,"y":2544812.9800000023}},{"attributes":{"ID":526215,"DIS_CODE":0,"TOWNNAME":"北區","LI":"長德里","LIN":"6鄰","STREET":"長北街","SECT":" ","MAREA":" ","LANE":" ","ALLEY":" ","HOUSE_NO":"１３２號五樓之９","E_COORD97":168493.82000000001,"N_COORD97":2544812.98,"ADDRESS":"長北街１３２號五樓之９","OBJECTID":526188},"geometry":{"x":168493.8200000003,"y":2544812.9800000023}},{"attributes":{"ID":526216,"DIS_CODE":0,"TOWNNAME":"北區","LI":"長德里","LIN":"6鄰","STREET":"長北街","SECT":" ","MAREA":" ","LANE":" ","ALLEY":" ","HOUSE_NO":"１３２號六樓之１","E_COORD97":168493.82000000001,"N_COORD97":2544812.98,"ADDRESS":"長北街１３２號六樓之１","OBJECTID":526189},"geometry":{"x":168493.8200000003,"y":2544812.9800000023}},{"attributes":{"ID":526217,"DIS_CODE":0,"TOWNNAME":"北區","LI":"長德里","LIN":"6鄰","STREET":"長北街","SECT":" ","MAREA":" ","LANE":" ","ALLEY":" ","HOUSE_NO":"１３２號六樓之１０","E_COORD97":168493.82000000001,"N_COORD97":2544812.98,"ADDRESS":"長北街１３２號六樓之１０","OBJECTID":526190},"geometry":{"x":168493.8200000003,"y":2544812.9800000023}},{"attributes":{"ID":526218,"DIS_CODE":0,"TOWNNAME":"北區","LI":"長德里","LIN":"6鄰","STREET":"長北街","SECT":" ","MAREA":" ","LANE":" ","ALLEY":" ","HOUSE_NO":"１３２號六樓之１１","E_COORD97":168493.82000000001,"N_COORD97":2544812.98,"ADDRESS":"長北街１３２號六樓之１１","OBJECTID":526191},"geometry":{"x":168493.8200000003,"y":2544812.9800000023}},{"attributes":{"ID":526219,"DIS_CODE":0,"TOWNNAME":"北區","LI":"長德里","LIN":"6鄰","STREET":"長北街","SECT":" ","MAREA":" ","LANE":" ","ALLEY":" ","HOUSE_NO":"１３２號六樓之１２","E_COORD97":168493.82000000001,"N_COORD97":2544812.98,"ADDRESS":"長北街１３２號六樓之１２","OBJECTID":526192},"geometry":{"x":168493.8200000003,"y":2544812.9800000023}},{"attributes":{"ID":526220,"DIS_CODE":0,"TOWNNAME":"北區","LI":"長德里","LIN":"6鄰","STREET":"長北街","SECT":" ","MAREA":" ","LANE":" ","ALLEY":" ","HOUSE_NO":"１３２號六樓之１３","E_COORD97":168493.82000000001,"N_COORD97":2544812.98,"ADDRESS":"長北街１３２號六樓之１３","OBJECTID":526193},"geometry":{"x":168493.8200000003,"y":2544812.9800000023}},{"attributes":{"ID":526221,"DIS_CODE":0,"TOWNNAME":"北區","LI":"長德里","LIN":"6鄰","STREET":"長北街","SECT":" ","MAREA":" ","LANE":" ","ALLEY":" ","HOUSE_NO":"１３２號六樓之１４","E_COORD97":168493.82000000001,"N_COORD97":2544812.98,"ADDRESS":"長北街１３２號六樓之１４","OBJECTID":526194},"geometry":{"x":168493.8200000003,"y":2544812.9800000023}},{"attributes":{"ID":526222,"DIS_CODE":0,"TOWNNAME":"北區","LI":"長德里","LIN":"6鄰","STREET":"長北街","SECT":" ","MAREA":" ","LANE":" ","ALLEY":" ","HOUSE_NO":"１３２號六樓之１５","E_COORD97":168493.82000000001,"N_COORD97":2544812.98,"ADDRESS":"長北街１３２號六樓之１５","OBJECTID":526195},"geometry":{"x":168493.8200000003,"y":2544812.9800000023}},{"attributes":{"ID":526223,"DIS_CODE":0,"TOWNNAME":"北區","LI":"長德里","LIN":"6鄰","STREET":"長北街","SECT":" ","MAREA":" ","LANE":" ","ALLEY":" ","HOUSE_NO":"１３２號六樓之１６","E_COORD97":168493.82000000001,"N_COORD97":2544812.98,"ADDRESS":"長北街１３２號六樓之１６","OBJECTID":526196},"geometry":{"x":168493.8200000003,"y":2544812.9800000023}},{"attributes":{"ID":526224,"DIS_CODE":0,"TOWNNAME":"北區","LI":"長德里","LIN":"6鄰","STREET":"長北街","SECT":" ","MAREA":" ","LANE":" ","ALLEY":" ","HOUSE_NO":"１３２號六樓之１７","E_COORD97":168493.82000000001,"N_COORD97":2544812.98,"ADDRESS":"長北街１３２號六樓之１７","OBJECTID":526197},"geometry":{"x":168493.8200000003,"y":2544812.9800000023}},{"attributes":{"ID":526225,"DIS_CODE":0,"TOWNNAME":"北區","LI":"長德里","LIN":"6鄰","STREET":"長北街","SECT":" ","MAREA":" ","LANE":" ","ALLEY":" ","HOUSE_NO":"１３２號六樓之２","E_COORD97":168493.82000000001,"N_COORD97":2544812.98,"ADDRESS":"長北街１３２號六樓之２","OBJECTID":526198},"geometry":{"x":168493.8200000003,"y":2544812.9800000023}},{"attributes":{"ID":526226,"DIS_CODE":0,"TOWNNAME":"北區","LI":"長德里","LIN":"6鄰","STREET":"長北街","SECT":" ","MAREA":" ","LANE":" ","ALLEY":" ","HOUSE_NO":"１３２號六樓之３","E_COORD97":168493.82000000001,"N_COORD97":2544812.98,"ADDRESS":"長北街１３２號六樓之３","OBJECTID":526199},"geometry":{"x":168493.8200000003,"y":2544812.9800000023}},{"attributes":{"ID":526227,"DIS_CODE":0,"TOWNNAME":"北區","LI":"長德里","LIN":"6鄰","STREET":"長北街","SECT":" ","MAREA":" ","LANE":" ","ALLEY":" ","HOUSE_NO":"１３２號六樓之５","E_COORD97":168493.82000000001,"N_COORD97":2544812.98,"ADDRESS":"長北街１３２號六樓之５","OBJECTID":526200},"geometry":{"x":168493.8200000003,"y":2544812.9800000023}}]}