{"displayFieldName":"TOWNNAME","fieldAliases":{"ID":"ID","DIS_CODE":"DIS_CODE","TOWNNAME":"TOWNNAME","LI":"LI","LIN":"LIN","STREET":"STREET","SECT":"SECT","MAREA":"MAREA","LANE":"LANE","ALLEY":"ALLEY","HOUSE_NO":"HOUSE_NO","E_COORD97":"E_COORD97","N_COORD97":"N_COORD97","ADDRESS":"ADDRESS","OBJECTID":"OBJECTID"},"geometryType":"esriGeometryPoint","spatialReference":{"wkid":102443,"latestWkid":3826},"fields":[{"name":"ID","type":"esriFieldTypeDouble","alias":"ID"},{"name":"DIS_CODE","type":"esriFieldTypeInteger","alias":"DIS_CODE"},{"name":"TOWNNAME","type":"esriFieldTypeString","alias":"TOWNNAME","length":8},{"name":"LI","type":"esriFieldTypeString","alias":"LI","length":8},{"name":"LIN","type":"esriFieldTypeString","alias":"LIN","length":12},{"name":"STREET","type":"esriFieldTypeString","alias":"STREET","length":20},{"name":"SECT","type":"esriFieldTypeString","alias":"SECT","length":8},{"name":"MAREA","type":"esriFieldTypeString","alias":"MAREA","length":12},{"name":"LANE","type":"esriFieldTypeString","alias":"LANE","length":10},{"name":"ALLEY","type":"esriFieldTypeString","alias":"ALLEY","length":10},{"name":"HOUSE_NO","type":"esriFieldTypeString","alias":"HOUSE_NO","length":20},{"name":"E_COORD97","type":"esriFieldTypeDouble","alias":"E_COORD97"},{"name":"N_COORD97","type":"esriFieldTypeDouble","alias":"N_COORD97"},{"name":"ADDRESS","type":"esriFieldTypeString","alias":"ADDRESS","length":50},{"name":"OBJECTID","type":"esriFieldTypeOID","alias":"OBJECTID"}],"features":[{"attributes":{"ID":656428,"DIS_CODE":0,"TOWNNAME":"新營區","LI":"新北里","LIN":"31鄰","STREET":"新北六街","SECT":" ","MAREA":" ","LANE":"５巷","ALLEY":"８弄","HOUSE_NO":"３１號","E_COORD97":178780.631303,"N_COORD97":2579104.1214100001,"ADDRESS":"新北六街５巷８弄３１號","OBJECTID":656401},"geometry":{"x":178780.63130300213,"y":2579104.1214140039}},{"attributes":{"ID":656429,"DIS_CODE":0,"TOWNNAME":"新營區","LI":"新北里","LIN":"31鄰","STREET":"新北六街","SECT":" ","MAREA":" ","LANE":"５巷","ALLEY":"８弄","HOUSE_NO":"２９號","E_COORD97":178779.360262,"N_COORD97":2579122.3247400001,"ADDRESS":"新北六街５巷８弄２９號","OBJECTID":656402},"geometry":{"x":178779.36026200093,"y":2579122.3247380033}},{"attributes":{"ID":656430,"DIS_CODE":0,"TOWNNAME":"新營區","LI":"新北里","LIN":"31鄰","STREET":"新北六街","SECT":" ","MAREA":" ","LANE":"５巷","ALLEY":"８弄","HOUSE_NO":"２７號","E_COORD97":178779.78394200001,"N_COORD97":2579127.8280699998,"ADDRESS":"新北六街５巷８弄２７號","OBJECTID":656403},"geometry":{"x":178779.78394200001,"y":2579127.8280680012}},{"attributes":{"ID":656431,"DIS_CODE":0,"TOWNNAME":"新營區","LI":"新北里","LIN":"31鄰","STREET":"新北六街","SECT":" ","MAREA":" ","LANE":"５巷","ALLEY":"８弄","HOUSE_NO":"２５號","E_COORD97":178779.57210200001,"N_COORD97":2579133.3314,"ADDRESS":"新北六街５巷８弄２５號","OBJECTID":656404},"geometry":{"x":178779.57210200001,"y":2579133.3313990012}},{"attributes":{"ID":656432,"DIS_CODE":0,"TOWNNAME":"新營區","LI":"新北里","LIN":"31鄰","STREET":"新北六街","SECT":" ","MAREA":" ","LANE":"５巷","ALLEY":"８弄","HOUSE_NO":"２３號","E_COORD97":178780.20762299999,"N_COORD97":2579138.6230600001,"ADDRESS":"新北六街５巷８弄２３號","OBJECTID":656405},"geometry":{"x":178780.20762300026,"y":2579138.6230630018}},{"attributes":{"ID":656433,"DIS_CODE":0,"TOWNNAME":"新營區","LI":"新北里","LIN":"31鄰","STREET":"新北六街","SECT":" ","MAREA":" ","LANE":"５巷","ALLEY":"８弄","HOUSE_NO":"２１號","E_COORD97":178769.40377199999,"N_COORD97":2579133.9663999998,"ADDRESS":"新北六街５巷８弄２１號","OBJECTID":656406},"geometry":{"x":178769.40377200115,"y":2579133.9663980026}},{"attributes":{"ID":656434,"DIS_CODE":0,"TOWNNAME":"新營區","LI":"新北里","LIN":"31鄰","STREET":"新北六街","SECT":" ","MAREA":" ","LANE":"５巷","ALLEY":"８弄","HOUSE_NO":"１９號","E_COORD97":178769.61561199999,"N_COORD97":2579127.19307,"ADDRESS":"新北六街５巷８弄１９號","OBJECTID":656407},"geometry":{"x":178769.61561200023,"y":2579127.1930689998}},{"attributes":{"ID":656435,"DIS_CODE":0,"TOWNNAME":"新營區","LI":"新北里","LIN":"31鄰","STREET":"新北六街","SECT":" ","MAREA":" ","LANE":"５巷","ALLEY":"８弄","HOUSE_NO":"１７號","E_COORD97":178770.039292,"N_COORD97":2579103.16891,"ADDRESS":"新北六街５巷８弄１７號","OBJECTID":656408},"geometry":{"x":178770.03929200023,"y":2579103.1689149998}},{"attributes":{"ID":656436,"DIS_CODE":0,"TOWNNAME":"新營區","LI":"新北里","LIN":"31鄰","STREET":"新北六街","SECT":" ","MAREA":" ","LANE":"５巷","ALLEY":"８弄","HOUSE_NO":"１５號","E_COORD97":178765.59064800001,"N_COORD97":2579103.5922500002,"ADDRESS":"新北六街５巷８弄１５號","OBJECTID":656409},"geometry":{"x":178765.59064800013,"y":2579103.5922480039}},{"attributes":{"ID":656437,"DIS_CODE":0,"TOWNNAME":"新營區","LI":"新北里","LIN":"31鄰","STREET":"新北六街","SECT":" ","MAREA":" ","LANE":"５巷","ALLEY":"８弄","HOUSE_NO":"１３號","E_COORD97":178762.20120400001,"N_COORD97":2579103.3805800001,"ADDRESS":"新北六街５巷８弄１３號","OBJECTID":656410},"geometry":{"x":178762.20120400097,"y":2579103.3805820011}},{"attributes":{"ID":656438,"DIS_CODE":0,"TOWNNAME":"仁德區","LI":"上崙里","LIN":"28鄰","STREET":"上崙街","SECT":" ","MAREA":" ","LANE":"４０１巷","ALLEY":" ","HOUSE_NO":"３２號","E_COORD97":173037.89296999999,"N_COORD97":2537563.7539300001,"ADDRESS":"上崙街４０１巷３２號","OBJECTID":656411},"geometry":{"x":173037.89297000133,"y":2537563.7539320011}},{"attributes":{"ID":656439,"DIS_CODE":0,"TOWNNAME":"新營區","LI":"新北里","LIN":"31鄰","STREET":"新北六街","SECT":" ","MAREA":" ","LANE":"５巷","ALLEY":"８弄","HOUSE_NO":"１１號","E_COORD97":178757.75255999999,"N_COORD97":2579103.16891,"ADDRESS":"新北六街５巷８弄１１號","OBJECTID":656412},"geometry":{"x":178757.75255999994,"y":2579103.1689149998}},{"attributes":{"ID":656440,"DIS_CODE":0,"TOWNNAME":"新營區","LI":"新北里","LIN":"31鄰","STREET":"新北六街","SECT":" ","MAREA":" ","LANE":"５巷","ALLEY":"８弄","HOUSE_NO":"９號","E_COORD97":178753.303915,"N_COORD97":2579103.16891,"ADDRESS":"新北六街５巷８弄９號","OBJECTID":656413},"geometry":{"x":178753.30391500052,"y":2579103.1689149998}},{"attributes":{"ID":656441,"DIS_CODE":0,"TOWNNAME":"新營區","LI":"新北里","LIN":"31鄰","STREET":"新北六街","SECT":" ","MAREA":" ","LANE":"５巷","ALLEY":"８弄","HOUSE_NO":"７號","E_COORD97":178749.27895099999,"N_COORD97":2579103.5922500002,"ADDRESS":"新北六街５巷８弄７號","OBJECTID":656414},"geometry":{"x":178749.27895100042,"y":2579103.5922480039}},{"attributes":{"ID":656442,"DIS_CODE":0,"TOWNNAME":"新營區","LI":"新北里","LIN":"31鄰","STREET":"新北六街","SECT":" ","MAREA":" ","LANE":"５巷","ALLEY":"８弄","HOUSE_NO":"５號","E_COORD97":178745.042147,"N_COORD97":2579103.3805800001,"ADDRESS":"新北六街５巷８弄５號","OBJECTID":656415},"geometry":{"x":178745.04214700125,"y":2579103.3805820011}},{"attributes":{"ID":656443,"DIS_CODE":0,"TOWNNAME":"新營區","LI":"新北里","LIN":"31鄰","STREET":"新北六街","SECT":" ","MAREA":" ","LANE":"５巷","ALLEY":"８弄","HOUSE_NO":"３號","E_COORD97":178739.95798199999,"N_COORD97":2579104.0155799999,"ADDRESS":"新北六街５巷８弄３號","OBJECTID":656416},"geometry":{"x":178739.95798200089,"y":2579104.0155810025}},{"attributes":{"ID":656444,"DIS_CODE":0,"TOWNNAME":"新營區","LI":"新北里","LIN":"31鄰","STREET":"新北六街","SECT":" ","MAREA":" ","LANE":"５巷","ALLEY":"８弄","HOUSE_NO":"１號","E_COORD97":178735.08565699999,"N_COORD97":2579103.16891,"ADDRESS":"新北六街５巷８弄１號","OBJECTID":656417},"geometry":{"x":178735.08565700147,"y":2579103.1689149998}},{"attributes":{"ID":656445,"DIS_CODE":0,"TOWNNAME":"新營區","LI":"新北里","LIN":"27鄰","STREET":"民生路","SECT":" ","MAREA":" ","LANE":" ","ALLEY":" ","HOUSE_NO":"４１１號","E_COORD97":178735.08565699999,"N_COORD97":2579103.16891,"ADDRESS":"民生路４１１號","OBJECTID":656418},"geometry":{"x":178735.08565700147,"y":2579103.1689149998}},{"attributes":{"ID":656446,"DIS_CODE":0,"TOWNNAME":"新營區","LI":"新北里","LIN":"27鄰","STREET":"民生路","SECT":" ","MAREA":" ","LANE":" ","ALLEY":" ","HOUSE_NO":"４１１號","E_COORD97":178735.08565699999,"N_COORD97":2579103.16891,"ADDRESS":"民生路４１１號","OBJECTID":656419},"geometry":{"x":178735.08565700147,"y":2579103.1689149998}},{"attributes":{"ID":656447,"DIS_CODE":0,"TOWNNAME":"新營區","LI":"新北里","LIN":"27鄰","STREET":"民生路","SECT":" ","MAREA":" ","LANE":" ","ALLEY":" ","HOUSE_NO":"４１１號","E_COORD97":178838.67552300001,"N_COORD97":2579215.06115,"ADDRESS":"民生路４１１號","OBJECTID":656420},"geometry":{"x":178838.67552300077,"y":2579215.0611460023}},{"attributes":{"ID":656448,"DIS_CODE":0,"TOWNNAME":"新營區","LI":"新北里","LIN":"27鄰","STREET":"民生路","SECT":" ","MAREA":" ","LANE":" ","ALLEY":" ","HOUSE_NO":"４０９號","E_COORD97":178843.124167,"N_COORD97":2579210.19282,"ADDRESS":"民生路４０９號","OBJECTID":656421},"geometry":{"x":178843.12416700087,"y":2579210.1928160042}},{"attributes":{"ID":656449,"DIS_CODE":0,"TOWNNAME":"新營區","LI":"新北里","LIN":"27鄰","STREET":"民生路","SECT":" ","MAREA":" ","LANE":" ","ALLEY":" ","HOUSE_NO":"４０７號","E_COORD97":178846.301771,"N_COORD97":2579205.9594899998,"ADDRESS":"民生路４０７號","OBJECTID":656422},"geometry":{"x":178846.30177100003,"y":2579205.9594850019}},{"attributes":{"ID":656450,"DIS_CODE":0,"TOWNNAME":"新營區","LI":"新北里","LIN":"27鄰","STREET":"民生路","SECT":" ","MAREA":" ","LANE":" ","ALLEY":" ","HOUSE_NO":"４０５號","E_COORD97":178850.32673500001,"N_COORD97":2579202.1494900002,"ADDRESS":"民生路４０５號","OBJECTID":656423},"geometry":{"x":178850.32673500013,"y":2579202.1494870018}},{"attributes":{"ID":656451,"DIS_CODE":0,"TOWNNAME":"新營區","LI":"新北里","LIN":"27鄰","STREET":"民生路","SECT":" ","MAREA":" ","LANE":" ","ALLEY":" ","HOUSE_NO":"４０３號","E_COORD97":178853.08065700001,"N_COORD97":2579199.3978200001,"ADDRESS":"民生路４０３號","OBJECTID":656424},"geometry":{"x":178853.08065699972,"y":2579199.3978210017}},{"attributes":{"ID":656452,"DIS_CODE":0,"TOWNNAME":"新營區","LI":"新北里","LIN":"27鄰","STREET":"民生路","SECT":" ","MAREA":" ","LANE":" ","ALLEY":" ","HOUSE_NO":"４０１號","E_COORD97":178856.89378099999,"N_COORD97":2579195.37616,"ADDRESS":"民生路４０１號","OBJECTID":656425},"geometry":{"x":178856.89378100075,"y":2579195.3761570007}},{"attributes":{"ID":656453,"DIS_CODE":0,"TOWNNAME":"新營區","LI":"新北里","LIN":"27鄰","STREET":"民生路","SECT":" ","MAREA":" ","LANE":" ","ALLEY":" ","HOUSE_NO":"３９７號","E_COORD97":178867.48579199999,"N_COORD97":2579184.8986599999,"ADDRESS":"民生路３９７號","OBJECTID":656426},"geometry":{"x":178867.48579200078,"y":2579184.8986629993}},{"attributes":{"ID":656454,"DIS_CODE":0,"TOWNNAME":"新營區","LI":"新北里","LIN":"27鄰","STREET":"民生路","SECT":" ","MAREA":" ","LANE":" ","ALLEY":" ","HOUSE_NO":"３９５號","E_COORD97":178870.87523599999,"N_COORD97":2579180.8769999999,"ADDRESS":"民生路３９５號","OBJECTID":656427},"geometry":{"x":178870.87523599993,"y":2579180.8769979998}},{"attributes":{"ID":656455,"DIS_CODE":0,"TOWNNAME":"新營區","LI":"新北里","LIN":"27鄰","STREET":"民生路","SECT":" ","MAREA":" ","LANE":" ","ALLEY":" ","HOUSE_NO":"３９３號","E_COORD97":178874.26467900001,"N_COORD97":2579176.8553300002,"ADDRESS":"民生路３９３號","OBJECTID":656428},"geometry":{"x":178874.26467899978,"y":2579176.8553340025}},{"attributes":{"ID":656456,"DIS_CODE":0,"TOWNNAME":"新營區","LI":"新北里","LIN":"27鄰","STREET":"民生路","SECT":" ","MAREA":" ","LANE":" ","ALLEY":" ","HOUSE_NO":"３８７號","E_COORD97":178885.91589100001,"N_COORD97":2579163.7320099999,"ADDRESS":"民生路３８７號","OBJECTID":656429},"geometry":{"x":178885.91589100193,"y":2579163.7320070025}},{"attributes":{"ID":656457,"DIS_CODE":0,"TOWNNAME":"仁德區","LI":"仁義里","LIN":"37鄰","STREET":"中正路","SECT":"二段","MAREA":" ","LANE":" ","ALLEY":" ","HOUSE_NO":"７７８號","E_COORD97":173483.10286300001,"N_COORD97":2540155.8534200001,"ADDRESS":"中正路二段７７８號","OBJECTID":656430},"geometry":{"x":173483.10286300071,"y":2540155.8534240015}},{"attributes":{"ID":656458,"DIS_CODE":0,"TOWNNAME":"仁德區","LI":"仁義里","LIN":"37鄰","STREET":"仁義六街","SECT":" ","MAREA":" ","LANE":" ","ALLEY":" ","HOUSE_NO":"１０１號","E_COORD97":173758.15966500001,"N_COORD97":2539946.1976999999,"ADDRESS":"仁義六街１０１號","OBJECTID":656431},"geometry":{"x":173758.15966500062,"y":2539946.197703002}},{"attributes":{"ID":656459,"DIS_CODE":0,"TOWNNAME":"仁德區","LI":"仁義里","LIN":"37鄰","STREET":"仁義六街","SECT":" ","MAREA":" ","LANE":" ","ALLEY":" ","HOUSE_NO":"１１６號","E_COORD97":173735.56756299999,"N_COORD97":2539950.5435899999,"ADDRESS":"仁義六街１１６號","OBJECTID":656432},"geometry":{"x":173735.56756300107,"y":2539950.5435879994}},{"attributes":{"ID":656460,"DIS_CODE":0,"TOWNNAME":"鹽水區","LI":"大豐里","LIN":"2鄰","STREET":" ","SECT":" ","MAREA":"大豐","LANE":" ","ALLEY":" ","HOUSE_NO":"３號","E_COORD97":170467.44264699999,"N_COORD97":2573834.01352,"ADDRESS":"大豐３號","OBJECTID":656433},"geometry":{"x":170467.44264699984,"y":2573834.0135240015}},{"attributes":{"ID":656461,"DIS_CODE":0,"TOWNNAME":"鹽水區","LI":"大豐里","LIN":"1鄰","STREET":" ","SECT":" ","MAREA":"大豐","LANE":" ","ALLEY":" ","HOUSE_NO":"３１號","E_COORD97":170461.176768,"N_COORD97":2573797.8449599999,"ADDRESS":"大豐３１號","OBJECTID":656434},"geometry":{"x":170461.17676800024,"y":2573797.8449639995}},{"attributes":{"ID":656462,"DIS_CODE":0,"TOWNNAME":"鹽水區","LI":"大豐里","LIN":"3鄰","STREET":" ","SECT":" ","MAREA":"大豊","LANE":" ","ALLEY":" ","HOUSE_NO":"１８號","E_COORD97":170548.61577900001,"N_COORD97":2573831.9232800002,"ADDRESS":"大豊１８號","OBJECTID":656435},"geometry":{"x":170548.61577900033,"y":2573831.9232790004}},{"attributes":{"ID":656463,"DIS_CODE":0,"TOWNNAME":"鹽水區","LI":"大豐里","LIN":"4鄰","STREET":" ","SECT":" ","MAREA":"大豊","LANE":" ","ALLEY":" ","HOUSE_NO":"５５號","E_COORD97":170622.31202000001,"N_COORD97":2573682.8041900001,"ADDRESS":"大豊５５號","OBJECTID":656436},"geometry":{"x":170622.31202000007,"y":2573682.8041929994}},{"attributes":{"ID":656464,"DIS_CODE":0,"TOWNNAME":"鹽水區","LI":"大豐里","LIN":"4鄰","STREET":" ","SECT":" ","MAREA":"大豊","LANE":" ","ALLEY":" ","HOUSE_NO":"５７號","E_COORD97":170613.84118799999,"N_COORD97":2573683.4391899998,"ADDRESS":"大豊５７號","OBJECTID":656437},"geometry":{"x":170613.84118800052,"y":2573683.4391920045}},{"attributes":{"ID":656465,"DIS_CODE":0,"TOWNNAME":"鹽水區","LI":"大豐里","LIN":"5鄰","STREET":" ","SECT":" ","MAREA":"大豊","LANE":" ","ALLEY":" ","HOUSE_NO":"６１號","E_COORD97":170606.005668,"N_COORD97":2573701.6425200002,"ADDRESS":"大豊６１號","OBJECTID":656438},"geometry":{"x":170606.00566800125,"y":2573701.6425159983}},{"attributes":{"ID":656466,"DIS_CODE":0,"TOWNNAME":"鹽水區","LI":"大豐里","LIN":"5鄰","STREET":" ","SECT":" ","MAREA":"大豊","LANE":" ","ALLEY":" ","HOUSE_NO":"６２號","E_COORD97":170595.628899,"N_COORD97":2573690.8475199998,"ADDRESS":"大豊６２號","OBJECTID":656439},"geometry":{"x":170595.62889900152,"y":2573690.8475220017}},{"attributes":{"ID":656467,"DIS_CODE":0,"TOWNNAME":"鹽水區","LI":"大豐里","LIN":"6鄰","STREET":" ","SECT":" ","MAREA":"大豊","LANE":" ","ALLEY":" ","HOUSE_NO":"４２號","E_COORD97":170476.19016200001,"N_COORD97":2573741.7533300002,"ADDRESS":"大豊４２號","OBJECTID":656440},"geometry":{"x":170476.19016200025,"y":2573741.7533280011}},{"attributes":{"ID":656468,"DIS_CODE":0,"TOWNNAME":"鹽水區","LI":"大豐里","LIN":"9鄰","STREET":" ","SECT":" ","MAREA":"大豊","LANE":" ","ALLEY":" ","HOUSE_NO":"９０號","E_COORD97":170426.63579299999,"N_COORD97":2573780.0649700002,"ADDRESS":"大豊９０號","OBJECTID":656441},"geometry":{"x":170426.63579300046,"y":2573780.0649740007}},{"attributes":{"ID":656469,"DIS_CODE":0,"TOWNNAME":"仁德區","LI":"仁義里","LIN":"21鄰","STREET":"正義路","SECT":" ","MAREA":" ","LANE":"１５７巷","ALLEY":" ","HOUSE_NO":"１８號","E_COORD97":173804.80570200001,"N_COORD97":2541442.2030400001,"ADDRESS":"正義路１５７巷１８號","OBJECTID":656442},"geometry":{"x":173804.80570199993,"y":2541442.2030449994}},{"attributes":{"ID":656470,"DIS_CODE":0,"TOWNNAME":"仁德區","LI":"仁義里","LIN":"22鄰","STREET":"中山路","SECT":" ","MAREA":" ","LANE":" ","ALLEY":" ","HOUSE_NO":"４４２號","E_COORD97":173657.087363,"N_COORD97":2541301.6564500001,"ADDRESS":"中山路４４２號","OBJECTID":656443},"geometry":{"x":173657.08736300096,"y":2541301.656454999}},{"attributes":{"ID":656471,"DIS_CODE":0,"TOWNNAME":"仁德區","LI":"仁義里","LIN":"22鄰","STREET":"中清一街","SECT":" ","MAREA":" ","LANE":" ","ALLEY":" ","HOUSE_NO":"３２號","E_COORD97":173647.35348399999,"N_COORD97":2541374.8622300001,"ADDRESS":"中清一街３２號","OBJECTID":656444},"geometry":{"x":173647.35348399915,"y":2541374.8622270022}},{"attributes":{"ID":656472,"DIS_CODE":0,"TOWNNAME":"仁德區","LI":"仁義里","LIN":"23鄰","STREET":"中清路","SECT":" ","MAREA":" ","LANE":" ","ALLEY":" ","HOUSE_NO":"１６９號","E_COORD97":173720.576393,"N_COORD97":2541564.6212900002,"ADDRESS":"中清路１６９號","OBJECTID":656445},"geometry":{"x":173720.57639300078,"y":2541564.6212920006}},{"attributes":{"ID":656473,"DIS_CODE":0,"TOWNNAME":"中西區","LI":"青年里","LIN":"10鄰","STREET":"衛民街","SECT":" ","MAREA":" ","LANE":"１２１巷","ALLEY":" ","HOUSE_NO":"１號","E_COORD97":168761.245887,"N_COORD97":2543757.3611099999,"ADDRESS":"衛民街１２１巷１號","OBJECTID":656446},"geometry":{"x":168761.24588700105,"y":2543757.3611090016}},{"attributes":{"ID":656474,"DIS_CODE":0,"TOWNNAME":"新營區","LI":"延平里","LIN":"10鄰","STREET":"成功街","SECT":" ","MAREA":" ","LANE":" ","ALLEY":" ","HOUSE_NO":"４０之１號","E_COORD97":179637.53809300001,"N_COORD97":2577935.25067,"ADDRESS":"成功街４０之１號","OBJECTID":656447},"geometry":{"x":179637.53809300065,"y":2577935.2506719995}},{"attributes":{"ID":656475,"DIS_CODE":0,"TOWNNAME":"新營區","LI":"延平里","LIN":"10鄰","STREET":"成功街","SECT":" ","MAREA":" ","LANE":" ","ALLEY":" ","HOUSE_NO":"４０之２號","E_COORD97":179631.39231600001,"N_COORD97":2577941.389,"ADDRESS":"成功街４０之２號","OBJECTID":656448},"geometry":{"x":179631.39231600054,"y":2577941.3890020009}},{"attributes":{"ID":656476,"DIS_CODE":0,"TOWNNAME":"新營區","LI":"延平里","LIN":"10鄰","STREET":"成功街","SECT":" ","MAREA":" ","LANE":" ","ALLEY":" ","HOUSE_NO":"４０之３號","E_COORD97":179628.00154299999,"N_COORD97":2577945.199,"ADDRESS":"成功街４０之３號","OBJECTID":656449},"geometry":{"x":179628.00154300034,"y":2577945.199000001}},{"attributes":{"ID":656477,"DIS_CODE":0,"TOWNNAME":"新營區","LI":"延平里","LIN":"10鄰","STREET":"成功街","SECT":" ","MAREA":" ","LANE":" ","ALLEY":" ","HOUSE_NO":"４２號","E_COORD97":179625.45846299999,"N_COORD97":2577948.1623300002,"ADDRESS":"成功街４２號","OBJECTID":656450},"geometry":{"x":179625.45846300013,"y":2577948.1623320021}},{"attributes":{"ID":656478,"DIS_CODE":0,"TOWNNAME":"新營區","LI":"延平里","LIN":"10鄰","STREET":"成功街","SECT":" ","MAREA":" ","LANE":" ","ALLEY":" ","HOUSE_NO":"４２之２號","E_COORD97":179619.52460899999,"N_COORD97":2577955.0414999998,"ADDRESS":"成功街４２之２號","OBJECTID":656451},"geometry":{"x":179619.52460900135,"y":2577955.0414950009}},{"attributes":{"ID":656479,"DIS_CODE":0,"TOWNNAME":"新營區","LI":"延平里","LIN":"10鄰","STREET":"成功街","SECT":" ","MAREA":" ","LANE":" ","ALLEY":" ","HOUSE_NO":"４６號","E_COORD97":179615.709989,"N_COORD97":2577959.0631599999,"ADDRESS":"成功街４６號","OBJECTID":656452},"geometry":{"x":179615.70998900011,"y":2577959.063159002}},{"attributes":{"ID":656480,"DIS_CODE":0,"TOWNNAME":"新營區","LI":"延平里","LIN":"10鄰","STREET":"成功街","SECT":" ","MAREA":" ","LANE":" ","ALLEY":" ","HOUSE_NO":"４８號","E_COORD97":179614.43844900001,"N_COORD97":2577962.6614899999,"ADDRESS":"成功街４８號","OBJECTID":656453},"geometry":{"x":179614.43844900094,"y":2577962.6614909992}},{"attributes":{"ID":656481,"DIS_CODE":0,"TOWNNAME":"仁德區","LI":"仁德里","LIN":"16鄰","STREET":"中山路","SECT":" ","MAREA":" ","LANE":"６８７巷","ALLEY":" ","HOUSE_NO":"２８號","E_COORD97":172908.75789000001,"N_COORD97":2541317.1392100002,"ADDRESS":"中山路６８７巷２８號","OBJECTID":656454},"geometry":{"x":172908.75789000094,"y":2541317.1392130014}},{"attributes":{"ID":656482,"DIS_CODE":0,"TOWNNAME":"新營區","LI":"南紙里","LIN":"22鄰","STREET":"建業路","SECT":" ","MAREA":" ","LANE":" ","ALLEY":" ","HOUSE_NO":"２０１號","E_COORD97":178183.29835900001,"N_COORD97":2577499.2474500001,"ADDRESS":"建業路２０１號","OBJECTID":656455},"geometry":{"x":178183.29835900106,"y":2577499.2474540044}},{"attributes":{"ID":656483,"DIS_CODE":0,"TOWNNAME":"仁德區","LI":"仁義里","LIN":"25鄰","STREET":"正義一街","SECT":" ","MAREA":" ","LANE":" ","ALLEY":" ","HOUSE_NO":"５４號","E_COORD97":173449.26457,"N_COORD97":2541379.6247299998,"ADDRESS":"正義一街５４號","OBJECTID":656456},"geometry":{"x":173449.26457000058,"y":2541379.6247249991}},{"attributes":{"ID":656484,"DIS_CODE":0,"TOWNNAME":"仁德區","LI":"仁義里","LIN":"25鄰","STREET":"正義一街","SECT":" ","MAREA":" ","LANE":" ","ALLEY":" ","HOUSE_NO":"５６號","E_COORD97":173458.172208,"N_COORD97":2541379.2013900001,"ADDRESS":"正義一街５６號","OBJECTID":656457},"geometry":{"x":173458.17220800091,"y":2541379.2013920005}},{"attributes":{"ID":656485,"DIS_CODE":0,"TOWNNAME":"仁德區","LI":"仁德里","LIN":"17鄰","STREET":"文華路","SECT":"三段","MAREA":" ","LANE":" ","ALLEY":" ","HOUSE_NO":"４４８號","E_COORD97":172453.67999999999,"N_COORD97":2541301.5699999998,"ADDRESS":"文華路三段４４８號","OBJECTID":656458},"geometry":{"x":172453.68000000063,"y":2541301.570000004}},{"attributes":{"ID":656486,"DIS_CODE":0,"TOWNNAME":"仁德區","LI":"仁德里","LIN":"17鄰","STREET":"文華路","SECT":"三段","MAREA":" ","LANE":"４５８巷","ALLEY":" ","HOUSE_NO":"１０號","E_COORD97":172530.28148800001,"N_COORD97":2541337.5650399998,"ADDRESS":"文華路三段４５８巷１０號","OBJECTID":656459},"geometry":{"x":172530.28148800042,"y":2541337.5650350042}},{"attributes":{"ID":656487,"DIS_CODE":0,"TOWNNAME":"仁德區","LI":"仁德里","LIN":"18鄰","STREET":"文華路","SECT":"三段","MAREA":" ","LANE":"１８９巷","ALLEY":"２７弄","HOUSE_NO":"１６號","E_COORD97":172148.80612299999,"N_COORD97":2540423.58654,"ADDRESS":"文華路三段１８９巷２７弄１６號","OBJECTID":656460},"geometry":{"x":172148.80612299964,"y":2540423.5865429994}},{"attributes":{"ID":656488,"DIS_CODE":0,"TOWNNAME":"仁德區","LI":"仁德里","LIN":"18鄰","STREET":"文華路","SECT":"三段","MAREA":" ","LANE":"１８９巷","ALLEY":"２７弄","HOUSE_NO":"２６號","E_COORD97":172133.975381,"N_COORD97":2540401.4673899999,"ADDRESS":"文華路三段１８９巷２７弄２６號","OBJECTID":656461},"geometry":{"x":172133.9753810009,"y":2540401.4673880003}},{"attributes":{"ID":656489,"DIS_CODE":0,"TOWNNAME":"安南區","LI":"\u25A0南里","LIN":"21鄰","STREET":"環福街","SECT":" ","MAREA":" ","LANE":"２１６巷","ALLEY":"５０弄","HOUSE_NO":"２５號","E_COORD97":170429.484238,"N_COORD97":2552635.3271900001,"ADDRESS":"環福街２１６巷５０弄２５號","OBJECTID":656462},"geometry":{"x":170429.48423800059,"y":2552635.3271900024}},{"attributes":{"ID":656490,"DIS_CODE":0,"TOWNNAME":"仁德區","LI":"仁德里","LIN":"18鄰","STREET":"文華路","SECT":"三段","MAREA":" ","LANE":"１８９巷","ALLEY":" ","HOUSE_NO":"５１號","E_COORD97":172111.51740000001,"N_COORD97":2540464.5440199999,"ADDRESS":"文華路三段１８９巷５１號","OBJECTID":656463},"geometry":{"x":172111.51740000118,"y":2540464.5440209992}},{"attributes":{"ID":656491,"DIS_CODE":0,"TOWNNAME":"安南區","LI":"\u25A0南里","LIN":"3鄰","STREET":"環福街","SECT":" ","MAREA":" ","LANE":" ","ALLEY":" ","HOUSE_NO":"１２３號之２２","E_COORD97":170407.952788,"N_COORD97":2552458.45517,"ADDRESS":"環福街１２３號之２２","OBJECTID":656464},"geometry":{"x":170407.952788,"y":2552458.455175003}},{"attributes":{"ID":656492,"DIS_CODE":0,"TOWNNAME":"安南區","LI":"\u25A0南里","LIN":"3鄰","STREET":"環福街","SECT":" ","MAREA":" ","LANE":" ","ALLEY":" ","HOUSE_NO":"１２３號之２１","E_COORD97":170410.070118,"N_COORD97":2552453.58684,"ADDRESS":"環福街１２３號之２１","OBJECTID":656465},"geometry":{"x":170410.07011800073,"y":2552453.586844001}},{"attributes":{"ID":656493,"DIS_CODE":0,"TOWNNAME":"下營區","LI":"中營里","LIN":"15鄰","STREET":" ","SECT":" ","MAREA":"中營","LANE":" ","ALLEY":" ","HOUSE_NO":"１２８８號之１","E_COORD97":175331.775177,"N_COORD97":2568595.25171,"ADDRESS":"中營１２８８號之１","OBJECTID":656466},"geometry":{"x":175331.77517700009,"y":2568595.251712}},{"attributes":{"ID":656494,"DIS_CODE":0,"TOWNNAME":"安南區","LI":"海佃里","LIN":"22鄰","STREET":"海佃路","SECT":"一段","MAREA":" ","LANE":"３４５巷","ALLEY":" ","HOUSE_NO":"４６號之６","E_COORD97":166977.08241999999,"N_COORD97":2547477.21661,"ADDRESS":"海佃路一段３４５巷４６號之６","OBJECTID":656467},"geometry":{"x":166977.08242000081,"y":2547477.2166079991}},{"attributes":{"ID":656495,"DIS_CODE":0,"TOWNNAME":"永康區","LI":"大灣里","LIN":"31鄰","STREET":"文賢街","SECT":" ","MAREA":" ","LANE":"６８巷","ALLEY":"３６弄","HOUSE_NO":"２９號","E_COORD97":175439.61166,"N_COORD97":2545026.88534,"ADDRESS":"文賢街６８巷３６弄２９號","OBJECTID":656468},"geometry":{"x":175439.61166000087,"y":2545026.8853430022}},{"attributes":{"ID":656496,"DIS_CODE":0,"TOWNNAME":"永康區","LI":"大灣里","LIN":"31鄰","STREET":"文賢街","SECT":" ","MAREA":" ","LANE":"６８巷","ALLEY":"３６弄","HOUSE_NO":"３１號","E_COORD97":175440.671416,"N_COORD97":2545025.1920099999,"ADDRESS":"文賢街６８巷３６弄３１號","OBJECTID":656469},"geometry":{"x":175440.67141599953,"y":2545025.1920099985}},{"attributes":{"ID":656497,"DIS_CODE":0,"TOWNNAME":"下營區","LI":"中營里","LIN":"2鄰","STREET":" ","SECT":" ","MAREA":"中營","LANE":" ","ALLEY":" ","HOUSE_NO":"８６４號","E_COORD97":176125.56272300001,"N_COORD97":2568578.0236800001,"ADDRESS":"中營８６４號","OBJECTID":656470},"geometry":{"x":176125.56272300053,"y":2568578.0236790013}},{"attributes":{"ID":656498,"DIS_CODE":0,"TOWNNAME":"永康區","LI":"大灣里","LIN":"31鄰","STREET":"文賢街","SECT":" ","MAREA":" ","LANE":"６８巷","ALLEY":"３６弄","HOUSE_NO":"３３號","E_COORD97":175441.519222,"N_COORD97":2545022.86368,"ADDRESS":"文賢街６８巷３６弄３３號","OBJECTID":656471},"geometry":{"x":175441.51922199968,"y":2545022.8636780009}},{"attributes":{"ID":656499,"DIS_CODE":0,"TOWNNAME":"永康區","LI":"大灣里","LIN":"31鄰","STREET":"文賢街","SECT":" ","MAREA":" ","LANE":"６８巷","ALLEY":"３６弄","HOUSE_NO":"３５號","E_COORD97":175443.214832,"N_COORD97":2545019.9003499998,"ADDRESS":"文賢街６８巷３６弄３５號","OBJECTID":656472},"geometry":{"x":175443.2148320023,"y":2545019.9003459997}},{"attributes":{"ID":656500,"DIS_CODE":0,"TOWNNAME":"永康區","LI":"大灣里","LIN":"31鄰","STREET":"文賢街","SECT":" ","MAREA":" ","LANE":"６８巷","ALLEY":"３６弄","HOUSE_NO":"３７號","E_COORD97":175444.48654000001,"N_COORD97":2545017.5720099998,"ADDRESS":"文賢街６８巷３６弄３７號","OBJECTID":656473},"geometry":{"x":175444.48654000089,"y":2545017.5720140003}},{"attributes":{"ID":656501,"DIS_CODE":0,"TOWNNAME":"永康區","LI":"大灣里","LIN":"31鄰","STREET":"文賢街","SECT":" ","MAREA":" ","LANE":"６８巷","ALLEY":"３６弄","HOUSE_NO":"３９號","E_COORD97":175445.54629599999,"N_COORD97":2545015.8786800001,"ADDRESS":"文賢街６８巷３６弄３９號","OBJECTID":656474},"geometry":{"x":175445.54629599955,"y":2545015.8786820024}},{"attributes":{"ID":656502,"DIS_CODE":0,"TOWNNAME":"永康區","LI":"大灣里","LIN":"31鄰","STREET":"文賢街","SECT":" ","MAREA":" ","LANE":"６８巷","ALLEY":"３６弄","HOUSE_NO":"４１號","E_COORD97":175445.970199,"N_COORD97":2545013.9736799998,"ADDRESS":"文賢街６８巷３６弄４１號","OBJECTID":656475},"geometry":{"x":175445.97019900009,"y":2545013.9736830033}},{"attributes":{"ID":656503,"DIS_CODE":0,"TOWNNAME":"新營區","LI":"中營里","LIN":"13鄰","STREET":"東山三路","SECT":" ","MAREA":" ","LANE":" ","ALLEY":" ","HOUSE_NO":"１６０號","E_COORD97":181559.42817,"N_COORD97":2579235.99597,"ADDRESS":"東山三路１６０號","OBJECTID":656476},"geometry":{"x":181559.42817000207,"y":2579235.9959710017}},{"attributes":{"ID":656504,"DIS_CODE":0,"TOWNNAME":"仁德區","LI":"成功里","LIN":"12鄰","STREET":"保華路","SECT":" ","MAREA":" ","LANE":" ","ALLEY":" ","HOUSE_NO":"２３７號","E_COORD97":170762.72089,"N_COORD97":2539906.04152,"ADDRESS":"保華路２３７號","OBJECTID":656477},"geometry":{"x":170762.72089000046,"y":2539906.0415240005}},{"attributes":{"ID":656505,"DIS_CODE":0,"TOWNNAME":"仁德區","LI":"成功里","LIN":"12鄰","STREET":"保華路","SECT":" ","MAREA":" ","LANE":" ","ALLEY":" ","HOUSE_NO":"２３７號","E_COORD97":170762.72089,"N_COORD97":2539906.04152,"ADDRESS":"保華路２３７號","OBJECTID":656478},"geometry":{"x":170762.72089000046,"y":2539906.0415240005}},{"attributes":{"ID":656506,"DIS_CODE":0,"TOWNNAME":"關廟區","LI":"深坑里","LIN":"2鄰","STREET":"深坑一街","SECT":" ","MAREA":" ","LANE":" ","ALLEY":" ","HOUSE_NO":"７號","E_COORD97":181838.81417200001,"N_COORD97":2537548.8483600002,"ADDRESS":"深坑一街７號","OBJECTID":656479},"geometry":{"x":181838.81417200062,"y":2537548.8483620007}},{"attributes":{"ID":656507,"DIS_CODE":0,"TOWNNAME":"關廟區","LI":"深坑里","LIN":"2鄰","STREET":"深坑一街","SECT":" ","MAREA":" ","LANE":" ","ALLEY":" ","HOUSE_NO":"９號","E_COORD97":181818.69241700001,"N_COORD97":2537562.1833500001,"ADDRESS":"深坑一街９號","OBJECTID":656480},"geometry":{"x":181818.69241700042,"y":2537562.1833550017}},{"attributes":{"ID":656508,"DIS_CODE":0,"TOWNNAME":"關廟區","LI":"深坑里","LIN":"4鄰","STREET":"深坑一街","SECT":" ","MAREA":" ","LANE":" ","ALLEY":" ","HOUSE_NO":"５６號","E_COORD97":182061.84793799999,"N_COORD97":2537552.2350300001,"ADDRESS":"深坑一街５６號","OBJECTID":656481},"geometry":{"x":182061.84793800116,"y":2537552.2350270003}},{"attributes":{"ID":656509,"DIS_CODE":0,"TOWNNAME":"官田區","LI":"南\u25A0里","LIN":"10鄰","STREET":" ","SECT":" ","MAREA":"南\u25A0","LANE":" ","ALLEY":" ","HOUSE_NO":"１３２號","E_COORD97":179061.81729100001,"N_COORD97":2568303.9770599999,"ADDRESS":"南\u25A0１３２號","OBJECTID":656482},"geometry":{"x":179061.81729099993,"y":2568303.9770590011}},{"attributes":{"ID":656510,"DIS_CODE":0,"TOWNNAME":"關廟區","LI":"深坑里","LIN":"4鄰","STREET":"深坑一街","SECT":" ","MAREA":" ","LANE":" ","ALLEY":" ","HOUSE_NO":"５９號","E_COORD97":182116.07077200001,"N_COORD97":2537612.3483299999,"ADDRESS":"深坑一街５９號","OBJECTID":656483},"geometry":{"x":182116.07077199966,"y":2537612.3483269978}},{"attributes":{"ID":656511,"DIS_CODE":0,"TOWNNAME":"關廟區","LI":"深坑里","LIN":"4鄰","STREET":"深坑一街","SECT":" ","MAREA":" ","LANE":" ","ALLEY":" ","HOUSE_NO":"６５號","E_COORD97":182142.97038099999,"N_COORD97":2537626.9533199999,"ADDRESS":"深坑一街６５號","OBJECTID":656484},"geometry":{"x":182142.97038100008,"y":2537626.9533200003}},{"attributes":{"ID":656512,"DIS_CODE":0,"TOWNNAME":"關廟區","LI":"深坑里","LIN":"4鄰","STREET":"深坑一街","SECT":" ","MAREA":" ","LANE":" ","ALLEY":" ","HOUSE_NO":"７５號","E_COORD97":182176.64784399999,"N_COORD97":2537649.60164,"ADDRESS":"深坑一街７５號","OBJECTID":656485},"geometry":{"x":182176.64784399979,"y":2537649.6016409993}},{"attributes":{"ID":656513,"DIS_CODE":0,"TOWNNAME":"關廟區","LI":"深坑里","LIN":"1鄰","STREET":"深坑一街","SECT":" ","MAREA":" ","LANE":" ","ALLEY":" ","HOUSE_NO":"４０號","E_COORD97":181898.75581999999,"N_COORD97":2537560.91335,"ADDRESS":"深坑一街４０號","OBJECTID":656486},"geometry":{"x":181898.75581999961,"y":2537560.913350001}},{"attributes":{"ID":656514,"DIS_CODE":0,"TOWNNAME":"關廟區","LI":"深坑里","LIN":"2鄰","STREET":"深坑一街","SECT":" ","MAREA":" ","LANE":" ","ALLEY":" ","HOUSE_NO":"４２號","E_COORD97":181911.67610499999,"N_COORD97":2537559.2200199999,"ADDRESS":"深坑一街４２號","OBJECTID":656487},"geometry":{"x":181911.67610500008,"y":2537559.2200230006}},{"attributes":{"ID":656515,"DIS_CODE":0,"TOWNNAME":"關廟區","LI":"深坑里","LIN":"4鄰","STREET":"深坑一街","SECT":" ","MAREA":" ","LANE":"４６巷","ALLEY":" ","HOUSE_NO":"５５號","E_COORD97":181979.87826299999,"N_COORD97":2537467.1450700001,"ADDRESS":"深坑一街４６巷５５號","OBJECTID":656488},"geometry":{"x":181979.8782630004,"y":2537467.1450730022}},{"attributes":{"ID":656516,"DIS_CODE":0,"TOWNNAME":"官田區","LI":"南\u25A0里","LIN":"10鄰","STREET":" ","SECT":" ","MAREA":"南\u25A0","LANE":" ","ALLEY":" ","HOUSE_NO":"１４０號","E_COORD97":179081.519149,"N_COORD97":2568247.6737600002,"ADDRESS":"南\u25A0１４０號","OBJECTID":656489},"geometry":{"x":179081.51914899983,"y":2568247.6737560034}},{"attributes":{"ID":656517,"DIS_CODE":0,"TOWNNAME":"關廟區","LI":"深坑里","LIN":"5鄰","STREET":"深坑一街","SECT":" ","MAREA":" ","LANE":"１３巷","ALLEY":" ","HOUSE_NO":"５６號","E_COORD97":181813.74140699999,"N_COORD97":2537721.3830599999,"ADDRESS":"深坑一街１３巷５６號","OBJECTID":656490},"geometry":{"x":181813.74140700046,"y":2537721.3830600027}},{"attributes":{"ID":656518,"DIS_CODE":0,"TOWNNAME":"關廟區","LI":"深坑里","LIN":"13鄰","STREET":"南雄路","SECT":"一段","MAREA":" ","LANE":"９８巷","ALLEY":" ","HOUSE_NO":"２０５號","E_COORD97":183087.23667499999,"N_COORD97":2537080.1392399999,"ADDRESS":"南雄路一段９８巷２０５號","OBJECTID":656491},"geometry":{"x":183087.23667499982,"y":2537080.1392400004}},{"attributes":{"ID":656519,"DIS_CODE":0,"TOWNNAME":"仁德區","LI":"成功里","LIN":"24鄰","STREET":"保華路","SECT":" ","MAREA":" ","LANE":" ","ALLEY":" ","HOUSE_NO":"２８１號","E_COORD97":170588.29392200001,"N_COORD97":2539967.92753,"ADDRESS":"保華路２８１號","OBJECTID":656492},"geometry":{"x":170588.29392200056,"y":2539967.9275320005}},{"attributes":{"ID":656520,"DIS_CODE":0,"TOWNNAME":"麻豆區","LI":"北勢里","LIN":"15鄰","STREET":" ","SECT":" ","MAREA":"北勢寮","LANE":" ","ALLEY":" ","HOUSE_NO":"５５號","E_COORD97":171390.33521700001,"N_COORD97":2567688.8646200001,"ADDRESS":"北勢寮５５號","OBJECTID":656493},"geometry":{"x":171390.33521699999,"y":2567688.8646230008}},{"attributes":{"ID":656521,"DIS_CODE":0,"TOWNNAME":"下營區","LI":"西連里","LIN":"9鄰","STREET":" ","SECT":" ","MAREA":"西寮","LANE":" ","ALLEY":" ","HOUSE_NO":"４３號","E_COORD97":174605.78181499999,"N_COORD97":2567339.0611,"ADDRESS":"西寮４３號","OBJECTID":656494},"geometry":{"x":174605.78181500081,"y":2567339.0610969998}},{"attributes":{"ID":656522,"DIS_CODE":0,"TOWNNAME":"下營區","LI":"西連里","LIN":"9鄰","STREET":" ","SECT":" ","MAREA":"西寮","LANE":" ","ALLEY":" ","HOUSE_NO":"４４號","E_COORD97":174590.050735,"N_COORD97":2567337.3677599998,"ADDRESS":"西寮４４號","OBJECTID":656495},"geometry":{"x":174590.05073500145,"y":2567337.3677640017}},{"attributes":{"ID":656523,"DIS_CODE":0,"TOWNNAME":"安南區","LI":"\u25A0南里","LIN":"26鄰","STREET":"安昌街","SECT":" ","MAREA":" ","LANE":"３００巷","ALLEY":" ","HOUSE_NO":"５７號","E_COORD97":170270.66457200001,"N_COORD97":2552769.0805799998,"ADDRESS":"安昌街３００巷５７號","OBJECTID":656496},"geometry":{"x":170270.6645720005,"y":2552769.0805750005}},{"attributes":{"ID":656524,"DIS_CODE":0,"TOWNNAME":"東山區","LI":"大客里","LIN":"21鄰","STREET":" ","SECT":" ","MAREA":"凹子\u25A0","LANE":" ","ALLEY":" ","HOUSE_NO":"５６號之７","E_COORD97":190954.95952199999,"N_COORD97":2579809.08733,"ADDRESS":"凹子\u25A0５６號之７","OBJECTID":656497},"geometry":{"x":190954.95952199958,"y":2579809.0873319991}},{"attributes":{"ID":656525,"DIS_CODE":0,"TOWNNAME":"安南區","LI":"\u25A0南里","LIN":"32鄰","STREET":"安昌街","SECT":" ","MAREA":" ","LANE":"１７４巷","ALLEY":" ","HOUSE_NO":"２５號","E_COORD97":170126.050903,"N_COORD97":2552380.8841200001,"ADDRESS":"安昌街１７４巷２５號","OBJECTID":656498},"geometry":{"x":170126.0509030018,"y":2552380.8841180019}},{"attributes":{"ID":656526,"DIS_CODE":0,"TOWNNAME":"東山區","LI":"大客里","LIN":"21鄰","STREET":" ","SECT":" ","MAREA":"凹子\u25A0","LANE":" ","ALLEY":" ","HOUSE_NO":"５６號之４","E_COORD97":190869.13797899999,"N_COORD97":2579800.19734,"ADDRESS":"凹子\u25A0５６號之４","OBJECTID":656499},"geometry":{"x":190869.13797900081,"y":2579800.1973369997}},{"attributes":{"ID":656527,"DIS_CODE":0,"TOWNNAME":"安南區","LI":"\u25A0南里","LIN":"6鄰","STREET":"安昌街","SECT":" ","MAREA":" ","LANE":"１７９巷","ALLEY":" ","HOUSE_NO":"３８號","E_COORD97":170001.34013900001,"N_COORD97":2552463.8574100002,"ADDRESS":"安昌街１７９巷３８號","OBJECTID":656500},"geometry":{"x":170001.34013900068,"y":2552463.8574069999}},{"attributes":{"ID":656528,"DIS_CODE":0,"TOWNNAME":"東山區","LI":"大客里","LIN":"22鄰","STREET":" ","SECT":" ","MAREA":"凹子\u25A0","LANE":" ","ALLEY":" ","HOUSE_NO":"５９號之１１","E_COORD97":190531.33627,"N_COORD97":2579793.0257100002,"ADDRESS":"凹子\u25A0５９號之１１","OBJECTID":656501},"geometry":{"x":190531.33627000172,"y":2579793.0257140025}},{"attributes":{"ID":656529,"DIS_CODE":0,"TOWNNAME":"仁德區","LI":"成功里","LIN":"40鄰","STREET":"虎山一街","SECT":" ","MAREA":" ","LANE":" ","ALLEY":" ","HOUSE_NO":"５０號","E_COORD97":171088.79532500001,"N_COORD97":2538285.2313600001,"ADDRESS":"虎山一街５０號","OBJECTID":656502},"geometry":{"x":171088.79532500077,"y":2538285.2313570026}},{"attributes":{"ID":656530,"DIS_CODE":0,"TOWNNAME":"下營區","LI":"西連里","LIN":"10鄰","STREET":" ","SECT":" ","MAREA":"西寮","LANE":" ","ALLEY":" ","HOUSE_NO":"５７號之１０","E_COORD97":173851.32193400001,"N_COORD97":2567047.2787500001,"ADDRESS":"西寮５７號之１０","OBJECTID":656503},"geometry":{"x":173851.32193400152,"y":2567047.2787540015}},{"attributes":{"ID":656531,"DIS_CODE":0,"TOWNNAME":"安南區","LI":"\u25A0南里","LIN":"11鄰","STREET":"環福街","SECT":" ","MAREA":" ","LANE":"１６１巷","ALLEY":" ","HOUSE_NO":"４８號","E_COORD97":170262.618716,"N_COORD97":2552619.00899,"ADDRESS":"環福街１６１巷４８號","OBJECTID":656504},"geometry":{"x":170262.61871599965,"y":2552619.0089900009}},{"attributes":{"ID":656532,"DIS_CODE":0,"TOWNNAME":"仁德區","LI":"成功里","LIN":"40鄰","STREET":"虎山一街","SECT":" ","MAREA":" ","LANE":" ","ALLEY":" ","HOUSE_NO":"３８號","E_COORD97":171080.96093,"N_COORD97":2538243.3213800001,"ADDRESS":"虎山一街３８號","OBJECTID":656505},"geometry":{"x":171080.96093000099,"y":2538243.3213800006}},{"attributes":{"ID":656533,"DIS_CODE":0,"TOWNNAME":"麻豆區","LI":"北勢里","LIN":"16鄰","STREET":" ","SECT":" ","MAREA":"北勢寮","LANE":" ","ALLEY":" ","HOUSE_NO":"６２號之１０","E_COORD97":171827.85143099999,"N_COORD97":2568425.1467300002,"ADDRESS":"北勢寮６２號之１０","OBJECTID":656506},"geometry":{"x":171827.85143100098,"y":2568425.1467260029}},{"attributes":{"ID":656534,"DIS_CODE":0,"TOWNNAME":"仁德區","LI":"仁義里","LIN":"1鄰","STREET":"中山路","SECT":" ","MAREA":" ","LANE":" ","ALLEY":" ","HOUSE_NO":"２２９號","E_COORD97":174318.80018200001,"N_COORD97":2541185.6014700001,"ADDRESS":"中山路２２９號","OBJECTID":656507},"geometry":{"x":174318.80018200073,"y":2541185.6014750022}},{"attributes":{"ID":656535,"DIS_CODE":0,"TOWNNAME":"東山區","LI":"大客里","LIN":"22鄰","STREET":" ","SECT":" ","MAREA":"凹子\u25A0","LANE":" ","ALLEY":" ","HOUSE_NO":"４１之３０號","E_COORD97":190844.743831,"N_COORD97":2579755.7724000001,"ADDRESS":"凹子\u25A0４１之３０號","OBJECTID":656508},"geometry":{"x":190844.74383100122,"y":2579755.7724000011}},{"attributes":{"ID":656536,"DIS_CODE":0,"TOWNNAME":"麻豆區","LI":"北勢里","LIN":"16鄰","STREET":" ","SECT":" ","MAREA":"北勢寮","LANE":" ","ALLEY":" ","HOUSE_NO":"６２號之６","E_COORD97":171782.93451200001,"N_COORD97":2568522.7250100002,"ADDRESS":"北勢寮６２號之６","OBJECTID":656509},"geometry":{"x":171782.93451200053,"y":2568522.7250059992}},{"attributes":{"ID":656537,"DIS_CODE":0,"TOWNNAME":"麻豆區","LI":"北勢里","LIN":"16鄰","STREET":" ","SECT":" ","MAREA":"北勢寮","LANE":" ","ALLEY":" ","HOUSE_NO":"６２號之５","E_COORD97":171779.120811,"N_COORD97":2568544.52666,"ADDRESS":"北勢寮６２號之５","OBJECTID":656510},"geometry":{"x":171779.12081100047,"y":2568544.5266610011}},{"attributes":{"ID":656538,"DIS_CODE":0,"TOWNNAME":"仁德區","LI":"仁義里","LIN":"1鄰","STREET":"義林七街","SECT":" ","MAREA":" ","LANE":" ","ALLEY":" ","HOUSE_NO":"１３２號","E_COORD97":174348.657657,"N_COORD97":2541136.4948399998,"ADDRESS":"義林七街１３２號","OBJECTID":656511},"geometry":{"x":174348.65765700024,"y":2541136.4948350005}},{"attributes":{"ID":656539,"DIS_CODE":0,"TOWNNAME":"麻豆區","LI":"北勢里","LIN":"16鄰","STREET":" ","SECT":" ","MAREA":"北勢寮","LANE":" ","ALLEY":" ","HOUSE_NO":"６３號之１","E_COORD97":171864.929076,"N_COORD97":2568318.67845,"ADDRESS":"北勢寮６３號之１","OBJECTID":656512},"geometry":{"x":171864.92907600105,"y":2568318.6784499995}},{"attributes":{"ID":656540,"DIS_CODE":0,"TOWNNAME":"仁德區","LI":"仁義里","LIN":"1鄰","STREET":"義林七街","SECT":" ","MAREA":" ","LANE":" ","ALLEY":" ","HOUSE_NO":"１３６號","E_COORD97":174342.93131799999,"N_COORD97":2541138.18817,"ADDRESS":"義林七街１３６號","OBJECTID":656513},"geometry":{"x":174342.93131800182,"y":2541138.1881680023}},{"attributes":{"ID":656541,"DIS_CODE":0,"TOWNNAME":"麻豆區","LI":"北勢里","LIN":"16鄰","STREET":" ","SECT":" ","MAREA":"北勢寮","LANE":" ","ALLEY":" ","HOUSE_NO":"６３號之３","E_COORD97":171699.45684200001,"N_COORD97":2568209.4585099998,"ADDRESS":"北勢寮６３號之３","OBJECTID":656514},"geometry":{"x":171699.45684199966,"y":2568209.458509}},{"attributes":{"ID":656542,"DIS_CODE":0,"TOWNNAME":"仁德區","LI":"仁義里","LIN":"1鄰","STREET":"義林七街","SECT":" ","MAREA":" ","LANE":" ","ALLEY":" ","HOUSE_NO":"１３８號","E_COORD97":174337.84123799999,"N_COORD97":2541139.0348299998,"ADDRESS":"義林七街１３８號","OBJECTID":656515},"geometry":{"x":174337.84123800043,"y":2541139.0348339994}},{"attributes":{"ID":656543,"DIS_CODE":0,"TOWNNAME":"東山區","LI":"大客里","LIN":"18鄰","STREET":" ","SECT":" ","MAREA":"凹子\u25A0","LANE":" ","ALLEY":" ","HOUSE_NO":"３５號","E_COORD97":191112.59180699999,"N_COORD97":2579585.16916,"ADDRESS":"凹子\u25A0３５號","OBJECTID":656516},"geometry":{"x":191112.5918070022,"y":2579585.1691590007}},{"attributes":{"ID":656544,"DIS_CODE":0,"TOWNNAME":"仁德區","LI":"仁義里","LIN":"1鄰","STREET":"義林七街","SECT":" ","MAREA":" ","LANE":" ","ALLEY":" ","HOUSE_NO":"１４０號","E_COORD97":174333.38741900001,"N_COORD97":2541139.8815000001,"ADDRESS":"義林七街１４０號","OBJECTID":656517},"geometry":{"x":174333.3874190012,"y":2541139.881500002}},{"attributes":{"ID":656545,"DIS_CODE":0,"TOWNNAME":"仁德區","LI":"仁義里","LIN":"1鄰","STREET":"義林七街","SECT":" ","MAREA":" ","LANE":" ","ALLEY":" ","HOUSE_NO":"１４２號","E_COORD97":174329.14568700001,"N_COORD97":2541140.0931699998,"ADDRESS":"義林七街１４２號","OBJECTID":656518},"geometry":{"x":174329.14568700176,"y":2541140.0931670032}},{"attributes":{"ID":656546,"DIS_CODE":0,"TOWNNAME":"仁德區","LI":"仁義里","LIN":"1鄰","STREET":"義林七街","SECT":" ","MAREA":" ","LANE":" ","ALLEY":" ","HOUSE_NO":"１４６號","E_COORD97":174324.90395400001,"N_COORD97":2541140.93983,"ADDRESS":"義林七街１４６號","OBJECTID":656519},"geometry":{"x":174324.90395400207,"y":2541140.9398330003}},{"attributes":{"ID":656547,"DIS_CODE":0,"TOWNNAME":"仁德區","LI":"仁義里","LIN":"1鄰","STREET":"義林七街","SECT":" ","MAREA":" ","LANE":" ","ALLEY":" ","HOUSE_NO":"１４８號","E_COORD97":174319.81387499999,"N_COORD97":2541141.5748299998,"ADDRESS":"義林七街１４８號","OBJECTID":656520},"geometry":{"x":174319.81387499999,"y":2541141.5748319998}},{"attributes":{"ID":656548,"DIS_CODE":0,"TOWNNAME":"仁德區","LI":"仁義里","LIN":"1鄰","STREET":"義林七街","SECT":" ","MAREA":" ","LANE":" ","ALLEY":" ","HOUSE_NO":"１５０號","E_COORD97":174313.45127600001,"N_COORD97":2541141.99817,"ADDRESS":"義林七街１５０號","OBJECTID":656521},"geometry":{"x":174313.45127600152,"y":2541141.9981660023}},{"attributes":{"ID":656549,"DIS_CODE":0,"TOWNNAME":"東山區","LI":"東正里","LIN":"11鄰","STREET":" ","SECT":" ","MAREA":"東勢","LANE":" ","ALLEY":" ","HOUSE_NO":"７７號之３","E_COORD97":189306.36334400001,"N_COORD97":2580275.60041,"ADDRESS":"東勢７７號之３","OBJECTID":656522},"geometry":{"x":189306.36334399972,"y":2580275.6004130039}},{"attributes":{"ID":656550,"DIS_CODE":0,"TOWNNAME":"新營區","LI":"南紙里","LIN":"25鄰","STREET":"建業路","SECT":" ","MAREA":" ","LANE":" ","ALLEY":" ","HOUSE_NO":"２５３號","E_COORD97":178050.764047,"N_COORD97":2577503.1103699999,"ADDRESS":"建業路２５３號","OBJECTID":656523},"geometry":{"x":178050.76404699963,"y":2577503.1103690006}},{"attributes":{"ID":656551,"DIS_CODE":0,"TOWNNAME":"新營區","LI":"南紙里","LIN":"25鄰","STREET":"建業路","SECT":" ","MAREA":" ","LANE":" ","ALLEY":" ","HOUSE_NO":"２６３號","E_COORD97":178024.886623,"N_COORD97":2577504.3803699999,"ADDRESS":"建業路２６３號","OBJECTID":656524},"geometry":{"x":178024.88662300073,"y":2577504.3803680018}},{"attributes":{"ID":656552,"DIS_CODE":0,"TOWNNAME":"東山區","LI":"東正里","LIN":"12鄰","STREET":" ","SECT":" ","MAREA":"東勢","LANE":" ","ALLEY":" ","HOUSE_NO":"８３號之１","E_COORD97":189283.265694,"N_COORD97":2580237.9237700002,"ADDRESS":"東勢８３號之１","OBJECTID":656525},"geometry":{"x":189283.26569400169,"y":2580237.9237670042}},{"attributes":{"ID":656553,"DIS_CODE":0,"TOWNNAME":"新營區","LI":"南紙里","LIN":"20鄰","STREET":"建業路","SECT":" ","MAREA":" ","LANE":" ","ALLEY":" ","HOUSE_NO":"２７５號","E_COORD97":177959.98095299999,"N_COORD97":2577512.6353600002,"ADDRESS":"建業路２７５號","OBJECTID":656526},"geometry":{"x":177959.98095299955,"y":2577512.6353639998}},{"attributes":{"ID":656554,"DIS_CODE":0,"TOWNNAME":"新營區","LI":"南紙里","LIN":"20鄰","STREET":"建業路","SECT":" ","MAREA":" ","LANE":" ","ALLEY":" ","HOUSE_NO":"２８５號","E_COORD97":177932.19453899999,"N_COORD97":2577514.8578599999,"ADDRESS":"建業路２８５號","OBJECTID":656527},"geometry":{"x":177932.19453900028,"y":2577514.8578620013}},{"attributes":{"ID":656555,"DIS_CODE":0,"TOWNNAME":"麻豆區","LI":"北勢里","LIN":"16鄰","STREET":" ","SECT":" ","MAREA":"北勢寮","LANE":" ","ALLEY":" ","HOUSE_NO":"６５號之１","E_COORD97":171753.27239599999,"N_COORD97":2568371.4892500001,"ADDRESS":"北勢寮６５號之１","OBJECTID":656528},"geometry":{"x":171753.2723960001,"y":2568371.4892550018}},{"attributes":{"ID":656556,"DIS_CODE":0,"TOWNNAME":"麻豆區","LI":"北勢里","LIN":"17鄰","STREET":" ","SECT":" ","MAREA":"北勢寮","LANE":" ","ALLEY":" ","HOUSE_NO":"７５號","E_COORD97":170658.31656400001,"N_COORD97":2569196.45964,"ADDRESS":"北勢寮７５號","OBJECTID":656529},"geometry":{"x":170658.31656400021,"y":2569196.4596420005}},{"attributes":{"ID":656557,"DIS_CODE":0,"TOWNNAME":"新營區","LI":"南紙里","LIN":"20鄰","STREET":"南紙街","SECT":" ","MAREA":" ","LANE":"１１７巷","ALLEY":" ","HOUSE_NO":"２５號","E_COORD97":177902.49913499999,"N_COORD97":2577496.7603699998,"ADDRESS":"南紙街１１７巷２５號","OBJECTID":656530},"geometry":{"x":177902.49913500156,"y":2577496.7603720017}},{"attributes":{"ID":656558,"DIS_CODE":0,"TOWNNAME":"東山區","LI":"東正里","LIN":"17鄰","STREET":" ","SECT":" ","MAREA":"東勢","LANE":" ","ALLEY":" ","HOUSE_NO":"１１７號","E_COORD97":189212.16352500001,"N_COORD97":2580326.3139200001,"ADDRESS":"東勢１１７號","OBJECTID":656531},"geometry":{"x":189212.16352500115,"y":2580326.3139180001}},{"attributes":{"ID":656559,"DIS_CODE":0,"TOWNNAME":"東山區","LI":"東正里","LIN":"18鄰","STREET":" ","SECT":" ","MAREA":"東勢","LANE":" ","ALLEY":" ","HOUSE_NO":"１２１號之２","E_COORD97":189206.65399300001,"N_COORD97":2580394.4705500002,"ADDRESS":"東勢１２１號之２","OBJECTID":656532},"geometry":{"x":189206.65399299935,"y":2580394.470548002}},{"attributes":{"ID":656560,"DIS_CODE":0,"TOWNNAME":"東山區","LI":"東正里","LIN":"18鄰","STREET":" ","SECT":" ","MAREA":"東勢","LANE":" ","ALLEY":" ","HOUSE_NO":"１２３號之５","E_COORD97":189217.03734099999,"N_COORD97":2580408.86387,"ADDRESS":"東勢１２３號之５","OBJECTID":656533},"geometry":{"x":189217.03734099958,"y":2580408.8638740033}},{"attributes":{"ID":656561,"DIS_CODE":0,"TOWNNAME":"東山區","LI":"東正里","LIN":"19鄰","STREET":" ","SECT":" ","MAREA":"東勢","LANE":" ","ALLEY":" ","HOUSE_NO":"１３２號","E_COORD97":189279.12551899999,"N_COORD97":2580339.2255799999,"ADDRESS":"東勢１３２號","OBJECTID":656534},"geometry":{"x":189279.12551900093,"y":2580339.2255779989}},{"attributes":{"ID":656562,"DIS_CODE":0,"TOWNNAME":"東山區","LI":"嶺南里","LIN":"4鄰","STREET":" ","SECT":" ","MAREA":"牛稠子","LANE":" ","ALLEY":" ","HOUSE_NO":"３３號之７","E_COORD97":192310.962164,"N_COORD97":2572472.03303,"ADDRESS":"牛稠子３３號之７","OBJECTID":656535},"geometry":{"x":192310.96216399968,"y":2572472.0330270026}},{"attributes":{"ID":656563,"DIS_CODE":0,"TOWNNAME":"東山區","LI":"東正里","LIN":"19鄰","STREET":" ","SECT":" ","MAREA":"東勢","LANE":" ","ALLEY":" ","HOUSE_NO":"１３３號","E_COORD97":189286.54219499999,"N_COORD97":2580375.7380599999,"ADDRESS":"東勢１３３號","OBJECTID":656536},"geometry":{"x":189286.54219499975,"y":2580375.7380580045}},{"attributes":{"ID":656564,"DIS_CODE":0,"TOWNNAME":"東山區","LI":"東正里","LIN":"22鄰","STREET":" ","SECT":" ","MAREA":"東勢","LANE":" ","ALLEY":" ","HOUSE_NO":"１５５號之１","E_COORD97":189399.911394,"N_COORD97":2580383.56972,"ADDRESS":"東勢１５５號之１","OBJECTID":656537},"geometry":{"x":189399.91139400098,"y":2580383.569721004}},{"attributes":{"ID":656565,"DIS_CODE":0,"TOWNNAME":"東山區","LI":"東正里","LIN":"23鄰","STREET":" ","SECT":" ","MAREA":"東勢","LANE":" ","ALLEY":" ","HOUSE_NO":"１６５號之１","E_COORD97":189312.394611,"N_COORD97":2580462.3096799999,"ADDRESS":"東勢１６５號之１","OBJECTID":656538},"geometry":{"x":189312.39461100008,"y":2580462.3096779995}},{"attributes":{"ID":656566,"DIS_CODE":0,"TOWNNAME":"麻豆區","LI":"北勢里","LIN":"17鄰","STREET":" ","SECT":" ","MAREA":"北勢寮","LANE":" ","ALLEY":" ","HOUSE_NO":"７５號之２","E_COORD97":170250.886211,"N_COORD97":2568473.6183699998,"ADDRESS":"北勢寮７５號之２","OBJECTID":656539},"geometry":{"x":170250.88621100038,"y":2568473.6183660012}},{"attributes":{"ID":656567,"DIS_CODE":0,"TOWNNAME":"東山區","LI":"東正里","LIN":"23鄰","STREET":" ","SECT":" ","MAREA":"東勢","LANE":" ","ALLEY":" ","HOUSE_NO":"１６５號之８","E_COORD97":189380.83994000001,"N_COORD97":2580505.9129900001,"ADDRESS":"東勢１６５號之８","OBJECTID":656540},"geometry":{"x":189380.83994000033,"y":2580505.9129879996}},{"attributes":{"ID":656568,"DIS_CODE":0,"TOWNNAME":"仁德區","LI":"新田里","LIN":"7鄰","STREET":"新田路","SECT":" ","MAREA":" ","LANE":"９巷","ALLEY":" ","HOUSE_NO":"２之１號","E_COORD97":174423.27065799999,"N_COORD97":2538969.0887799999,"ADDRESS":"新田路９巷２之１號","OBJECTID":656541},"geometry":{"x":174423.2706580013,"y":2538969.0887750033}},{"attributes":{"ID":656569,"DIS_CODE":0,"TOWNNAME":"東山區","LI":"東正里","LIN":"23鄰","STREET":" ","SECT":" ","MAREA":"東勢","LANE":" ","ALLEY":" ","HOUSE_NO":"１６５號之９","E_COORD97":189384.01851600001,"N_COORD97":2580500.6213199999,"ADDRESS":"東勢１６５號之９","OBJECTID":656542},"geometry":{"x":189384.01851600036,"y":2580500.621323999}},{"attributes":{"ID":656570,"DIS_CODE":0,"TOWNNAME":"麻豆區","LI":"北勢里","LIN":"17鄰","STREET":" ","SECT":" ","MAREA":"北勢寮","LANE":" ","ALLEY":" ","HOUSE_NO":"７５號之３","E_COORD97":170283.09079399999,"N_COORD97":2568541.1400000001,"ADDRESS":"北勢寮７５號之３","OBJECTID":656543},"geometry":{"x":170283.09079399984,"y":2568541.1399959996}},{"attributes":{"ID":656571,"DIS_CODE":0,"TOWNNAME":"東山區","LI":"東正里","LIN":"25鄰","STREET":" ","SECT":" ","MAREA":"東勢","LANE":" ","ALLEY":" ","HOUSE_NO":"１８３號之１２","E_COORD97":189257.087394,"N_COORD97":2580622.2488000002,"ADDRESS":"東勢１８３號之１２","OBJECTID":656544},"geometry":{"x":189257.08739400096,"y":2580622.2487979997}},{"attributes":{"ID":656572,"DIS_CODE":0,"TOWNNAME":"東山區","LI":"東正里","LIN":"25鄰","STREET":" ","SECT":" ","MAREA":"東勢","LANE":" ","ALLEY":" ","HOUSE_NO":"１８３號之１３","E_COORD97":189254.75643899999,"N_COORD97":2580618.6504700002,"ADDRESS":"東勢１８３號之１３","OBJECTID":656545},"geometry":{"x":189254.7564390013,"y":2580618.6504670028}},{"attributes":{"ID":656573,"DIS_CODE":0,"TOWNNAME":"東山區","LI":"東正里","LIN":"8鄰","STREET":" ","SECT":" ","MAREA":"東勢","LANE":" ","ALLEY":" ","HOUSE_NO":"５２號","E_COORD97":189402.66615999999,"N_COORD97":2580164.4140499998,"ADDRESS":"東勢５２號","OBJECTID":656546},"geometry":{"x":189402.66616000049,"y":2580164.4140460007}},{"attributes":{"ID":656574,"DIS_CODE":0,"TOWNNAME":"下營區","LI":"西連里","LIN":"10鄰","STREET":" ","SECT":" ","MAREA":"西寮","LANE":" ","ALLEY":" ","HOUSE_NO":"６０號之１","E_COORD97":174587.13748199999,"N_COORD97":2567156.0223699999,"ADDRESS":"西寮６０號之１","OBJECTID":656547},"geometry":{"x":174587.13748200145,"y":2567156.0223699994}},{"attributes":{"ID":656575,"DIS_CODE":0,"TOWNNAME":"仁德區","LI":"新田里","LIN":"9鄰","STREET":"中正路","SECT":" ","MAREA":" ","LANE":"９巷","ALLEY":" ","HOUSE_NO":"２之１號","E_COORD97":174423.27065799999,"N_COORD97":2538969.0887799999,"ADDRESS":"中正路９巷２之１號","OBJECTID":656548},"geometry":{"x":174423.2706580013,"y":2538969.0887750033}},{"attributes":{"ID":656576,"DIS_CODE":0,"TOWNNAME":"仁德區","LI":"新田里","LIN":"9鄰","STREET":"中正路","SECT":"二段","MAREA":" ","LANE":" ","ALLEY":" ","HOUSE_NO":"５１２號","E_COORD97":173376.17584000001,"N_COORD97":2539516.45848,"ADDRESS":"中正路二段５１２號","OBJECTID":656549},"geometry":{"x":173376.17584000062,"y":2539516.4584800042}},{"attributes":{"ID":656577,"DIS_CODE":0,"TOWNNAME":"麻豆區","LI":"北勢里","LIN":"17鄰","STREET":" ","SECT":" ","MAREA":"北勢寮","LANE":" ","ALLEY":" ","HOUSE_NO":"７０號之４","E_COORD97":170283.09079399999,"N_COORD97":2568541.1400000001,"ADDRESS":"北勢寮７０號之４","OBJECTID":656550},"geometry":{"x":170283.09079399984,"y":2568541.1399959996}},{"attributes":{"ID":656578,"DIS_CODE":0,"TOWNNAME":"下營區","LI":"中營里","LIN":"2鄰","STREET":" ","SECT":" ","MAREA":"中營","LANE":" ","ALLEY":" ","HOUSE_NO":"９００號","E_COORD97":176088.908822,"N_COORD97":2568738.3838800001,"ADDRESS":"中營９００號","OBJECTID":656551},"geometry":{"x":176088.90882200003,"y":2568738.3838830013}},{"attributes":{"ID":656579,"DIS_CODE":0,"TOWNNAME":"麻豆區","LI":"北勢里","LIN":"17鄰","STREET":" ","SECT":" ","MAREA":"北勢寮","LANE":" ","ALLEY":" ","HOUSE_NO":"７５號之４","E_COORD97":170676.84725699999,"N_COORD97":2568635.0450200001,"ADDRESS":"北勢寮７５號之４","OBJECTID":656552},"geometry":{"x":170676.84725700039,"y":2568635.045024002}},{"attributes":{"ID":656580,"DIS_CODE":0,"TOWNNAME":"下營區","LI":"中營里","LIN":"2鄰","STREET":" ","SECT":" ","MAREA":"中營","LANE":" ","ALLEY":" ","HOUSE_NO":"８９９之２號","E_COORD97":176086.15448299999,"N_COORD97":2568725.0488900002,"ADDRESS":"中營８９９之２號","OBJECTID":656553},"geometry":{"x":176086.15448300168,"y":2568725.0488910023}},{"attributes":{"ID":656581,"DIS_CODE":0,"TOWNNAME":"東山區","LI":"東正里","LIN":"24鄰","STREET":" ","SECT":" ","MAREA":"東勢","LANE":" ","ALLEY":" ","HOUSE_NO":"１７３號之１","E_COORD97":189213.85876500001,"N_COORD97":2580434.2638599998,"ADDRESS":"東勢１７３號之１","OBJECTID":656554},"geometry":{"x":189213.85876500141,"y":2580434.263860004}},{"attributes":{"ID":656582,"DIS_CODE":0,"TOWNNAME":"東山區","LI":"大客里","LIN":"15鄰","STREET":" ","SECT":" ","MAREA":"凹子\u25A0","LANE":" ","ALLEY":" ","HOUSE_NO":"２１號","E_COORD97":191357.172338,"N_COORD97":2579347.4619499999,"ADDRESS":"凹子\u25A0２１號","OBJECTID":656555},"geometry":{"x":191357.17233800143,"y":2579347.4619470015}},{"attributes":{"ID":656583,"DIS_CODE":0,"TOWNNAME":"東山區","LI":"大客里","LIN":"22鄰","STREET":" ","SECT":" ","MAREA":"凹子\u25A0","LANE":" ","ALLEY":" ","HOUSE_NO":"５９號之７","E_COORD97":190731.16272699999,"N_COORD97":2579817.6291100001,"ADDRESS":"凹子\u25A0５９號之７","OBJECTID":656556},"geometry":{"x":190731.16272700112,"y":2579817.6291130017}},{"attributes":{"ID":656584,"DIS_CODE":0,"TOWNNAME":"下營區","LI":"西連里","LIN":"1鄰","STREET":" ","SECT":" ","MAREA":"連表","LANE":" ","ALLEY":" ","HOUSE_NO":"２號之２","E_COORD97":175026.55051100001,"N_COORD97":2567646.1362700001,"ADDRESS":"連表２號之２","OBJECTID":656557},"geometry":{"x":175026.55051100068,"y":2567646.1362720001}},{"attributes":{"ID":656585,"DIS_CODE":0,"TOWNNAME":"下營區","LI":"西連里","LIN":"2鄰","STREET":" ","SECT":" ","MAREA":"連表","LANE":" ","ALLEY":" ","HOUSE_NO":"１８號之９","E_COORD97":175346.57670000001,"N_COORD97":2568006.6048599998,"ADDRESS":"連表１８號之９","OBJECTID":656558},"geometry":{"x":175346.57670000009,"y":2568006.6048629992}},{"attributes":{"ID":656586,"DIS_CODE":0,"TOWNNAME":"安南區","LI":"南興里","LIN":"1鄰","STREET":"安中路","SECT":"五段","MAREA":" ","LANE":"３８０巷","ALLEY":" ","HOUSE_NO":"９０號","E_COORD97":162897.68746399999,"N_COORD97":2551395.9131800001,"ADDRESS":"安中路五段３８０巷９０號","OBJECTID":656559},"geometry":{"x":162897.68746400066,"y":2551395.9131770022}},{"attributes":{"ID":656587,"DIS_CODE":0,"TOWNNAME":"下營區","LI":"西連里","LIN":"4鄰","STREET":" ","SECT":" ","MAREA":"連表","LANE":" ","ALLEY":" ","HOUSE_NO":"３５之３５號","E_COORD97":175260.98226300001,"N_COORD97":2568254.0430600001,"ADDRESS":"連表３５之３５號","OBJECTID":656560},"geometry":{"x":175260.98226300068,"y":2568254.0430620015}},{"attributes":{"ID":656588,"DIS_CODE":0,"TOWNNAME":"麻豆區","LI":"麻口里","LIN":"4鄰","STREET":" ","SECT":" ","MAREA":"麻豆口","LANE":" ","ALLEY":" ","HOUSE_NO":"９號","E_COORD97":170191.23556500001,"N_COORD97":2564139.46912,"ADDRESS":"麻豆口９號","OBJECTID":656561},"geometry":{"x":170191.23556500021,"y":2564139.4691210017}},{"attributes":{"ID":656589,"DIS_CODE":0,"TOWNNAME":"安南區","LI":"南興里","LIN":"3鄰","STREET":"安興街","SECT":" ","MAREA":" ","LANE":"３８１巷","ALLEY":"７弄","HOUSE_NO":"１３號之５","E_COORD97":163741.44364700001,"N_COORD97":2552264.80437,"ADDRESS":"安興街３８１巷７弄１３號之５","OBJECTID":656562},"geometry":{"x":163741.44364700094,"y":2552264.8043750003}},{"attributes":{"ID":656590,"DIS_CODE":0,"TOWNNAME":"下營區","LI":"中營里","LIN":"2鄰","STREET":" ","SECT":" ","MAREA":"中營","LANE":" ","ALLEY":" ","HOUSE_NO":"９０２之１０號","E_COORD97":175956.67772000001,"N_COORD97":2568893.7927199998,"ADDRESS":"中營９０２之１０號","OBJECTID":656563},"geometry":{"x":175956.67772000097,"y":2568893.792715}},{"attributes":{"ID":656591,"DIS_CODE":0,"TOWNNAME":"麻豆區","LI":"麻口里","LIN":"6鄰","STREET":" ","SECT":" ","MAREA":"麻豆口","LANE":" ","ALLEY":" ","HOUSE_NO":"４６號","E_COORD97":169918.966911,"N_COORD97":2564605.2413699999,"ADDRESS":"麻豆口４６號","OBJECTID":656564},"geometry":{"x":169918.9669110002,"y":2564605.2413700018}},{"attributes":{"ID":656592,"DIS_CODE":0,"TOWNNAME":"麻豆區","LI":"麻口里","LIN":"6鄰","STREET":" ","SECT":" ","MAREA":"麻豆口","LANE":" ","ALLEY":" ","HOUSE_NO":"４６號之１","E_COORD97":169918.966911,"N_COORD97":2564594.6580400001,"ADDRESS":"麻豆口４６號之１","OBJECTID":656565},"geometry":{"x":169918.9669110002,"y":2564594.6580420006}},{"attributes":{"ID":656593,"DIS_CODE":0,"TOWNNAME":"關廟區","LI":"深坑里","LIN":"9鄰","STREET":"深坑三街","SECT":" ","MAREA":" ","LANE":" ","ALLEY":" ","HOUSE_NO":"１１號","E_COORD97":181759.542476,"N_COORD97":2537843.5488300002,"ADDRESS":"深坑三街１１號","OBJECTID":656566},"geometry":{"x":181759.54247600026,"y":2537843.5488320012}},{"attributes":{"ID":656594,"DIS_CODE":0,"TOWNNAME":"安南區","LI":"南興里","LIN":"2鄰","STREET":"安興街","SECT":" ","MAREA":" ","LANE":"３８１巷","ALLEY":" ","HOUSE_NO":"３９號之１","E_COORD97":163688.510385,"N_COORD97":2552233.68939,"ADDRESS":"安興街３８１巷３９號之１","OBJECTID":656567},"geometry":{"x":163688.51038500015,"y":2552233.6893920004}},{"attributes":{"ID":656595,"DIS_CODE":0,"TOWNNAME":"下營區","LI":"中營里","LIN":"2鄰","STREET":" ","SECT":" ","MAREA":"中營","LANE":" ","ALLEY":" ","HOUSE_NO":"９０２號之１","E_COORD97":176029.58459000001,"N_COORD97":2568902.65992,"ADDRESS":"中營９０２號之１","OBJECTID":656568},"geometry":{"x":176029.58459000196,"y":2568902.6599190012}},{"attributes":{"ID":656596,"DIS_CODE":0,"TOWNNAME":"安南區","LI":"南興里","LIN":"10鄰","STREET":"安興街","SECT":" ","MAREA":" ","LANE":"６３２巷","ALLEY":" ","HOUSE_NO":"８９號","E_COORD97":163779.132128,"N_COORD97":2552481.5509199998,"ADDRESS":"安興街６３２巷８９號","OBJECTID":656569},"geometry":{"x":163779.13212800026,"y":2552481.5509240013}},{"attributes":{"ID":656597,"DIS_CODE":0,"TOWNNAME":"善化區","LI":"溪美里","LIN":"18鄰","STREET":" ","SECT":" ","MAREA":"溪尾","LANE":" ","ALLEY":" ","HOUSE_NO":"２１６之３１號","E_COORD97":177313.62951500001,"N_COORD97":2561357.4670000002,"ADDRESS":"溪尾２１６之３１號","OBJECTID":656570},"geometry":{"x":177313.62951500062,"y":2561357.4669959992}},{"attributes":{"ID":656598,"DIS_CODE":0,"TOWNNAME":"善化區","LI":"溪美里","LIN":"18鄰","STREET":" ","SECT":" ","MAREA":"溪尾","LANE":" ","ALLEY":" ","HOUSE_NO":"２１６之３２號","E_COORD97":177308.33123899999,"N_COORD97":2561357.6786600002,"ADDRESS":"溪尾２１６之３２號","OBJECTID":656571},"geometry":{"x":177308.33123900183,"y":2561357.6786620021}},{"attributes":{"ID":656599,"DIS_CODE":0,"TOWNNAME":"善化區","LI":"溪美里","LIN":"18鄰","STREET":" ","SECT":" ","MAREA":"溪尾","LANE":" ","ALLEY":" ","HOUSE_NO":"２１６之３３號","E_COORD97":177299.642066,"N_COORD97":2561357.6786600002,"ADDRESS":"溪尾２１６之３３號","OBJECTID":656572},"geometry":{"x":177299.64206600096,"y":2561357.6786620021}},{"attributes":{"ID":656600,"DIS_CODE":0,"TOWNNAME":"善化區","LI":"溪美里","LIN":"18鄰","STREET":" ","SECT":" ","MAREA":"溪尾","LANE":" ","ALLEY":" ","HOUSE_NO":"２１６之３５號","E_COORD97":177292.224479,"N_COORD97":2561358.31366,"ADDRESS":"溪尾２１６之３５號","OBJECTID":656573},"geometry":{"x":177292.22447900102,"y":2561358.3136620019}},{"attributes":{"ID":656601,"DIS_CODE":0,"TOWNNAME":"善化區","LI":"溪美里","LIN":"18鄰","STREET":" ","SECT":" ","MAREA":"溪尾","LANE":" ","ALLEY":" ","HOUSE_NO":"２１６之３６號","E_COORD97":177284.38303,"N_COORD97":2561357.8903299998,"ADDRESS":"溪尾２１６之３６號","OBJECTID":656574},"geometry":{"x":177284.38303000107,"y":2561357.8903290033}},{"attributes":{"ID":656602,"DIS_CODE":0,"TOWNNAME":"善化區","LI":"溪美里","LIN":"18鄰","STREET":" ","SECT":" ","MAREA":"溪尾","LANE":" ","ALLEY":" ","HOUSE_NO":"２１６之３７號","E_COORD97":177283.53530600001,"N_COORD97":2561331.00868,"ADDRESS":"溪尾２１６之３７號","OBJECTID":656575},"geometry":{"x":177283.53530600015,"y":2561331.0086770002}},{"attributes":{"ID":656603,"DIS_CODE":0,"TOWNNAME":"善化區","LI":"溪美里","LIN":"18鄰","STREET":" ","SECT":" ","MAREA":"溪尾","LANE":" ","ALLEY":" ","HOUSE_NO":"２１６之３８號","E_COORD97":177290.952892,"N_COORD97":2561331.6436800002,"ADDRESS":"溪尾２１６之３８號","OBJECTID":656576},"geometry":{"x":177290.95289200079,"y":2561331.643677}},{"attributes":{"ID":656604,"DIS_CODE":0,"TOWNNAME":"善化區","LI":"溪美里","LIN":"18鄰","STREET":" ","SECT":" ","MAREA":"溪尾","LANE":" ","ALLEY":" ","HOUSE_NO":"２１６之３９號","E_COORD97":177298.58241,"N_COORD97":2561331.00868,"ADDRESS":"溪尾２１６之３９號","OBJECTID":656577},"geometry":{"x":177298.58240999933,"y":2561331.0086770002}},{"attributes":{"ID":656605,"DIS_CODE":0,"TOWNNAME":"善化區","LI":"溪美里","LIN":"18鄰","STREET":" ","SECT":" ","MAREA":"溪尾","LANE":" ","ALLEY":" ","HOUSE_NO":"２１６之４０號","E_COORD97":177307.27158299999,"N_COORD97":2561330.3736800002,"ADDRESS":"溪尾２１６之４０號","OBJECTID":656578},"geometry":{"x":177307.2715830002,"y":2561330.3736770023}},{"attributes":{"ID":656606,"DIS_CODE":0,"TOWNNAME":"善化區","LI":"溪美里","LIN":"18鄰","STREET":" ","SECT":" ","MAREA":"溪尾","LANE":" ","ALLEY":" ","HOUSE_NO":"２１６之４１號","E_COORD97":177314.477239,"N_COORD97":2561330.5853400002,"ADDRESS":"溪尾２１６之４１號","OBJECTID":656579},"geometry":{"x":177314.47723900154,"y":2561330.5853440035}},{"attributes":{"ID":656607,"DIS_CODE":0,"TOWNNAME":"仁德區","LI":"仁義里","LIN":"36鄰","STREET":"勝利路","SECT":" ","MAREA":" ","LANE":" ","ALLEY":" ","HOUSE_NO":"５１之２０號","E_COORD97":173548.51756899999,"N_COORD97":2539961.5502499999,"ADDRESS":"勝利路５１之２０號","OBJECTID":656580},"geometry":{"x":173548.51756900083,"y":2539961.5502480045}},{"attributes":{"ID":656608,"DIS_CODE":0,"TOWNNAME":"仁德區","LI":"仁義里","LIN":"25鄰","STREET":"正義一街","SECT":" ","MAREA":" ","LANE":" ","ALLEY":" ","HOUSE_NO":"６９號","E_COORD97":173544.91513000001,"N_COORD97":2541379.82198,"ADDRESS":"正義一街６９號","OBJECTID":656581},"geometry":{"x":173544.9151299987,"y":2541379.8219830021}},{"attributes":{"ID":656609,"DIS_CODE":0,"TOWNNAME":"仁德區","LI":"仁義里","LIN":"33鄰","STREET":"中正路","SECT":"三段","MAREA":" ","LANE":" ","ALLEY":" ","HOUSE_NO":"２６號","E_COORD97":173315.56862800001,"N_COORD97":2541424.0353700002,"ADDRESS":"中正路三段２６號","OBJECTID":656582},"geometry":{"x":173315.56862799916,"y":2541424.0353689995}},{"attributes":{"ID":656610,"DIS_CODE":0,"TOWNNAME":"仁德區","LI":"仁義里","LIN":"33鄰","STREET":"中正路","SECT":"三段","MAREA":" ","LANE":" ","ALLEY":" ","HOUSE_NO":"２８號","E_COORD97":173316.83974200001,"N_COORD97":2541428.9037000001,"ADDRESS":"中正路三段２８號","OBJECTID":656583},"geometry":{"x":173316.83974200115,"y":2541428.9037000015}},{"attributes":{"ID":656611,"DIS_CODE":0,"TOWNNAME":"西港區","LI":"慶安里","LIN":"1鄰","STREET":" ","SECT":" ","MAREA":"中州","LANE":" ","ALLEY":" ","HOUSE_NO":"１號之２","E_COORD97":166809.35930099999,"N_COORD97":2559669.26248,"ADDRESS":"中州１號之２","OBJECTID":656584},"geometry":{"x":166809.3593009999,"y":2559669.2624820005}},{"attributes":{"ID":656612,"DIS_CODE":0,"TOWNNAME":"西港區","LI":"慶安里","LIN":"1鄰","STREET":" ","SECT":" ","MAREA":"中州","LANE":" ","ALLEY":" ","HOUSE_NO":"１號之３","E_COORD97":166797.92021000001,"N_COORD97":2559649.1541599999,"ADDRESS":"中州１號之３","OBJECTID":656585},"geometry":{"x":166797.92021000199,"y":2559649.1541600022}},{"attributes":{"ID":656613,"DIS_CODE":0,"TOWNNAME":"中西區","LI":"安海里","LIN":"10鄰","STREET":"河中街","SECT":" ","MAREA":" ","LANE":"８巷","ALLEY":" ","HOUSE_NO":"４號","E_COORD97":167291.769313,"N_COORD97":2543901.8809400001,"ADDRESS":"河中街８巷４號","OBJECTID":656586},"geometry":{"x":167291.76931300014,"y":2543901.8809389994}},{"attributes":{"ID":656614,"DIS_CODE":0,"TOWNNAME":"中西區","LI":"安海里","LIN":"10鄰","STREET":"河中街","SECT":" ","MAREA":" ","LANE":" ","ALLEY":" ","HOUSE_NO":"１８號","E_COORD97":167289.014631,"N_COORD97":2543945.4842500002,"ADDRESS":"河中街１８號","OBJECTID":656587},"geometry":{"x":167289.01463100035,"y":2543945.484248003}},{"attributes":{"ID":656615,"DIS_CODE":0,"TOWNNAME":"仁德區","LI":"仁義里","LIN":"25鄰","STREET":"中山路","SECT":" ","MAREA":" ","LANE":" ","ALLEY":" ","HOUSE_NO":"４７０之１號","E_COORD97":173590.32151199999,"N_COORD97":2541310.2524600001,"ADDRESS":"中山路４７０之１號","OBJECTID":656588},"geometry":{"x":173590.32151200064,"y":2541310.2524560019}},{"attributes":{"ID":656616,"DIS_CODE":0,"TOWNNAME":"關廟區","LI":"山西里","LIN":"11鄰","STREET":"南雄路","SECT":"二段","MAREA":" ","LANE":" ","ALLEY":" ","HOUSE_NO":"４１５號","E_COORD97":181110.678873,"N_COORD97":2540644.4270000001,"ADDRESS":"南雄路二段４１５號","OBJECTID":656589},"geometry":{"x":181110.67887300067,"y":2540644.4270009995}},{"attributes":{"ID":656617,"DIS_CODE":0,"TOWNNAME":"仁德區","LI":"土庫里","LIN":"13鄰","STREET":"土庫路","SECT":" ","MAREA":" ","LANE":"２１１巷","ALLEY":" ","HOUSE_NO":"１號八樓之３","E_COORD97":174318.69107900001,"N_COORD97":2542900.9129300001,"ADDRESS":"土庫路２１１巷１號八樓之３","OBJECTID":656590},"geometry":{"x":174318.69107900001,"y":2542900.9129269999}},{"attributes":{"ID":656618,"DIS_CODE":0,"TOWNNAME":"仁德區","LI":"土庫里","LIN":"13鄰","STREET":"土庫路","SECT":" ","MAREA":" ","LANE":"２１１巷","ALLEY":" ","HOUSE_NO":"１號六樓之３","E_COORD97":174318.69107900001,"N_COORD97":2542900.9129300001,"ADDRESS":"土庫路２１１巷１號六樓之３","OBJECTID":656591},"geometry":{"x":174318.69107900001,"y":2542900.9129269999}},{"attributes":{"ID":656619,"DIS_CODE":0,"TOWNNAME":"關廟區","LI":"山西里","LIN":"19鄰","STREET":"崇平路","SECT":" ","MAREA":" ","LANE":" ","ALLEY":" ","HOUSE_NO":"１５５號","E_COORD97":180502.32518000001,"N_COORD97":2540411.7826700001,"ADDRESS":"崇平路１５５號","OBJECTID":656592},"geometry":{"x":180502.32518000063,"y":2540411.7826690003}},{"attributes":{"ID":656620,"DIS_CODE":0,"TOWNNAME":"關廟區","LI":"山西里","LIN":"18鄰","STREET":"崇明街","SECT":" ","MAREA":" ","LANE":" ","ALLEY":" ","HOUSE_NO":"８８號","E_COORD97":180991.96197,"N_COORD97":2540773.30914,"ADDRESS":"崇明街８８號","OBJECTID":656593},"geometry":{"x":180991.96197000053,"y":2540773.3091409989}},{"attributes":{"ID":656621,"DIS_CODE":0,"TOWNNAME":"仁德區","LI":"土庫里","LIN":"19鄰","STREET":"太子二街","SECT":" ","MAREA":" ","LANE":"８８巷","ALLEY":" ","HOUSE_NO":"５９號","E_COORD97":174390.90400099999,"N_COORD97":2543161.0578399999,"ADDRESS":"太子二街８８巷５９號","OBJECTID":656594},"geometry":{"x":174390.90400100034,"y":2543161.0578400027}},{"attributes":{"ID":656622,"DIS_CODE":0,"TOWNNAME":"麻豆區","LI":"麻口里","LIN":"8鄰","STREET":" ","SECT":" ","MAREA":"麻豆口","LANE":" ","ALLEY":" ","HOUSE_NO":"７３號之２","E_COORD97":169864.64227800001,"N_COORD97":2564378.69368,"ADDRESS":"麻豆口７３號之２","OBJECTID":656595},"geometry":{"x":169864.64227800071,"y":2564378.6936750002}},{"attributes":{"ID":656623,"DIS_CODE":0,"TOWNNAME":"仁德區","LI":"仁義里","LIN":"25鄰","STREET":"中山路","SECT":" ","MAREA":" ","LANE":" ","ALLEY":" ","HOUSE_NO":"４７２號","E_COORD97":173587.17086799999,"N_COORD97":2541352.6385499998,"ADDRESS":"中山路４７２號","OBJECTID":656596},"geometry":{"x":173587.17086800095,"y":2541352.6385510024}},{"attributes":{"ID":656624,"DIS_CODE":0,"TOWNNAME":"歸仁區","LI":"六甲里","LIN":"9鄰","STREET":"中正南路","SECT":"一段","MAREA":" ","LANE":" ","ALLEY":" ","HOUSE_NO":"９９９號","E_COORD97":176103.340941,"N_COORD97":2539236.5408200002,"ADDRESS":"中正南路一段９９９號","OBJECTID":656597},"geometry":{"x":176103.3409409998,"y":2539236.5408170018}},{"attributes":{"ID":656625,"DIS_CODE":0,"TOWNNAME":"仁德區","LI":"成功里","LIN":"20鄰","STREET":"成功一街","SECT":" ","MAREA":" ","LANE":" ","ALLEY":" ","HOUSE_NO":"９６號","E_COORD97":170531.55878600001,"N_COORD97":2539830.6662900001,"ADDRESS":"成功一街９６號","OBJECTID":656598},"geometry":{"x":170531.55878600106,"y":2539830.6662870031}},{"attributes":{"ID":656626,"DIS_CODE":0,"TOWNNAME":"仁德區","LI":"成功里","LIN":"20鄰","STREET":"成功一街","SECT":" ","MAREA":" ","LANE":"９０巷","ALLEY":" ","HOUSE_NO":"１號","E_COORD97":170516.626605,"N_COORD97":2539838.3391999998,"ADDRESS":"成功一街９０巷１號","OBJECTID":656599},"geometry":{"x":170516.62660500035,"y":2539838.3391999993}},{"attributes":{"ID":656627,"DIS_CODE":0,"TOWNNAME":"歸仁區","LI":"六甲里","LIN":"22鄰","STREET":"中正南路","SECT":"一段","MAREA":" ","LANE":" ","ALLEY":" ","HOUSE_NO":"９９２號","E_COORD97":176145.926293,"N_COORD97":2539331.2615999999,"ADDRESS":"中正南路一段９９２號","OBJECTID":656600},"geometry":{"x":176145.92629299965,"y":2539331.2615990005}}]}