{"displayFieldName":"TOWNNAME","fieldAliases":{"ID":"ID","DIS_CODE":"DIS_CODE","TOWNNAME":"TOWNNAME","LI":"LI","LIN":"LIN","STREET":"STREET","SECT":"SECT","MAREA":"MAREA","LANE":"LANE","ALLEY":"ALLEY","HOUSE_NO":"HOUSE_NO","E_COORD97":"E_COORD97","N_COORD97":"N_COORD97","ADDRESS":"ADDRESS","OBJECTID":"OBJECTID"},"geometryType":"esriGeometryPoint","spatialReference":{"wkid":102443,"latestWkid":3826},"fields":[{"name":"ID","type":"esriFieldTypeDouble","alias":"ID"},{"name":"DIS_CODE","type":"esriFieldTypeInteger","alias":"DIS_CODE"},{"name":"TOWNNAME","type":"esriFieldTypeString","alias":"TOWNNAME","length":8},{"name":"LI","type":"esriFieldTypeString","alias":"LI","length":8},{"name":"LIN","type":"esriFieldTypeString","alias":"LIN","length":12},{"name":"STREET","type":"esriFieldTypeString","alias":"STREET","length":20},{"name":"SECT","type":"esriFieldTypeString","alias":"SECT","length":8},{"name":"MAREA","type":"esriFieldTypeString","alias":"MAREA","length":12},{"name":"LANE","type":"esriFieldTypeString","alias":"LANE","length":10},{"name":"ALLEY","type":"esriFieldTypeString","alias":"ALLEY","length":10},{"name":"HOUSE_NO","type":"esriFieldTypeString","alias":"HOUSE_NO","length":20},{"name":"E_COORD97","type":"esriFieldTypeDouble","alias":"E_COORD97"},{"name":"N_COORD97","type":"esriFieldTypeDouble","alias":"N_COORD97"},{"name":"ADDRESS","type":"esriFieldTypeString","alias":"ADDRESS","length":50},{"name":"OBJECTID","type":"esriFieldTypeOID","alias":"OBJECTID"}],"features":[{"attributes":{"ID":629828,"DIS_CODE":0,"TOWNNAME":"新市區","LI":"新和里","LIN":"40鄰","STREET":"勝利街","SECT":" ","MAREA":" ","LANE":" ","ALLEY":" ","HOUSE_NO":"２３號","E_COORD97":177327.64999999999,"N_COORD97":2552940.5099999998,"ADDRESS":"勝利街２３號","OBJECTID":629801},"geometry":{"x":177327.65000000224,"y":2552940.5100000035}},{"attributes":{"ID":629829,"DIS_CODE":0,"TOWNNAME":"新市區","LI":"新市里","LIN":"4鄰","STREET":"華興街","SECT":" ","MAREA":" ","LANE":" ","ALLEY":" ","HOUSE_NO":"２０號","E_COORD97":177772.32000000001,"N_COORD97":2553011,"ADDRESS":"華興街２０號","OBJECTID":629802},"geometry":{"x":177772.32000000216,"y":2553011}},{"attributes":{"ID":629830,"DIS_CODE":0,"TOWNNAME":"新市區","LI":"新和里","LIN":"18鄰","STREET":"銘傳街","SECT":" ","MAREA":" ","LANE":" ","ALLEY":" ","HOUSE_NO":"４９號","E_COORD97":177427.89999999999,"N_COORD97":2552663.5,"ADDRESS":"銘傳街４９號","OBJECTID":629803},"geometry":{"x":177427.9000000013,"y":2552663.5000000019}},{"attributes":{"ID":629831,"DIS_CODE":0,"TOWNNAME":"新市區","LI":"新和里","LIN":"38鄰","STREET":"成功街","SECT":" ","MAREA":" ","LANE":" ","ALLEY":" ","HOUSE_NO":"４４號","E_COORD97":177469.92999999999,"N_COORD97":2552724.77,"ADDRESS":"成功街４４號","OBJECTID":629804},"geometry":{"x":177469.93000000063,"y":2552724.7699999996}},{"attributes":{"ID":629832,"DIS_CODE":0,"TOWNNAME":"新市區","LI":"新和里","LIN":"18鄰","STREET":"銘傳街","SECT":" ","MAREA":" ","LANE":" ","ALLEY":" ","HOUSE_NO":"４４號","E_COORD97":177447.45000000001,"N_COORD97":2552673.5,"ADDRESS":"銘傳街４４號","OBJECTID":629805},"geometry":{"x":177447.44999999925,"y":2552673.5000000019}},{"attributes":{"ID":629833,"DIS_CODE":0,"TOWNNAME":"新市區","LI":"新和里","LIN":"20鄰","STREET":"成功街","SECT":" ","MAREA":" ","LANE":" ","ALLEY":" ","HOUSE_NO":"１８號","E_COORD97":177460.37,"N_COORD97":2552620.52,"ADDRESS":"成功街１８號","OBJECTID":629806},"geometry":{"x":177460.37000000104,"y":2552620.5199999996}},{"attributes":{"ID":629834,"DIS_CODE":0,"TOWNNAME":"新市區","LI":"新和里","LIN":"20鄰","STREET":"成功街","SECT":" ","MAREA":" ","LANE":" ","ALLEY":" ","HOUSE_NO":"２０號","E_COORD97":177460.62,"N_COORD97":2552624.77,"ADDRESS":"成功街２０號","OBJECTID":629807},"geometry":{"x":177460.62000000104,"y":2552624.7700000014}},{"attributes":{"ID":629835,"DIS_CODE":0,"TOWNNAME":"新市區","LI":"新市里","LIN":"4鄰","STREET":"華興街","SECT":" ","MAREA":" ","LANE":" ","ALLEY":" ","HOUSE_NO":"１６號","E_COORD97":177780.92999999999,"N_COORD97":2553011.75,"ADDRESS":"華興街１６號","OBJECTID":629808},"geometry":{"x":177780.9299999997,"y":2553011.7500000019}},{"attributes":{"ID":629836,"DIS_CODE":0,"TOWNNAME":"新市區","LI":"新和里","LIN":"38鄰","STREET":"成功街","SECT":" ","MAREA":" ","LANE":" ","ALLEY":" ","HOUSE_NO":"２８號","E_COORD97":177460.92999999999,"N_COORD97":2552641.77,"ADDRESS":"成功街２８號","OBJECTID":629809},"geometry":{"x":177460.93000000063,"y":2552641.7700000014}},{"attributes":{"ID":629837,"DIS_CODE":0,"TOWNNAME":"新市區","LI":"新和里","LIN":"38鄰","STREET":"成功街","SECT":" ","MAREA":" ","LANE":" ","ALLEY":" ","HOUSE_NO":"７８號","E_COORD97":177481.48000000001,"N_COORD97":2552806.27,"ADDRESS":"成功街７８號","OBJECTID":629810},"geometry":{"x":177481.48000000231,"y":2552806.2699999977}},{"attributes":{"ID":629838,"DIS_CODE":0,"TOWNNAME":"新市區","LI":"新和里","LIN":"18鄰","STREET":"銘傳街","SECT":" ","MAREA":" ","LANE":" ","ALLEY":" ","HOUSE_NO":"５３號","E_COORD97":177418.29000000001,"N_COORD97":2552665,"ADDRESS":"銘傳街５３號","OBJECTID":629811},"geometry":{"x":177418.29000000097,"y":2552665}},{"attributes":{"ID":629839,"DIS_CODE":0,"TOWNNAME":"新市區","LI":"新和里","LIN":"18鄰","STREET":"銘傳街","SECT":" ","MAREA":" ","LANE":" ","ALLEY":" ","HOUSE_NO":"４８號","E_COORD97":177439.23999999999,"N_COORD97":2552674.75,"ADDRESS":"銘傳街４８號","OBJECTID":629812},"geometry":{"x":177439.24000000115,"y":2552674.7500000037}},{"attributes":{"ID":629840,"DIS_CODE":0,"TOWNNAME":"新市區","LI":"新和里","LIN":"20鄰","STREET":"成功街","SECT":" ","MAREA":" ","LANE":" ","ALLEY":" ","HOUSE_NO":"１１號","E_COORD97":177447.42999999999,"N_COORD97":2552606.02,"ADDRESS":"成功街１１號","OBJECTID":629813},"geometry":{"x":177447.43000000063,"y":2552606.0200000014}},{"attributes":{"ID":629841,"DIS_CODE":0,"TOWNNAME":"新市區","LI":"新市里","LIN":"4鄰","STREET":"華興街","SECT":" ","MAREA":" ","LANE":" ","ALLEY":" ","HOUSE_NO":"２２號","E_COORD97":177768.28,"N_COORD97":2553010.5,"ADDRESS":"華興街２２號","OBJECTID":629814},"geometry":{"x":177768.28000000119,"y":2553010.5}},{"attributes":{"ID":629842,"DIS_CODE":0,"TOWNNAME":"新市區","LI":"新市里","LIN":"4鄰","STREET":"華興街","SECT":" ","MAREA":" ","LANE":" ","ALLEY":" ","HOUSE_NO":"１８號","E_COORD97":177776.42999999999,"N_COORD97":2553011.25,"ADDRESS":"華興街１８號","OBJECTID":629815},"geometry":{"x":177776.43000000063,"y":2553011.2500000019}},{"attributes":{"ID":629843,"DIS_CODE":0,"TOWNNAME":"新市區","LI":"新和里","LIN":"38鄰","STREET":"成功街","SECT":" ","MAREA":" ","LANE":" ","ALLEY":" ","HOUSE_NO":"４１號","E_COORD97":177458.57000000001,"N_COORD97":2552727.52,"ADDRESS":"成功街４１號","OBJECTID":629816},"geometry":{"x":177458.56999999937,"y":2552727.5200000014}},{"attributes":{"ID":629844,"DIS_CODE":0,"TOWNNAME":"新市區","LI":"新和里","LIN":"20鄰","STREET":"成功街","SECT":" ","MAREA":" ","LANE":" ","ALLEY":" ","HOUSE_NO":"１０號","E_COORD97":177459.87,"N_COORD97":2552602.27,"ADDRESS":"成功街１０號","OBJECTID":629817},"geometry":{"x":177459.87000000197,"y":2552602.2699999996}},{"attributes":{"ID":629845,"DIS_CODE":0,"TOWNNAME":"新市區","LI":"新和里","LIN":"4鄰","STREET":"中正路","SECT":" ","MAREA":" ","LANE":" ","ALLEY":" ","HOUSE_NO":"３９號","E_COORD97":177423.62,"N_COORD97":2552410.5,"ADDRESS":"中正路３９號","OBJECTID":629818},"geometry":{"x":177423.62000000011,"y":2552410.5}},{"attributes":{"ID":629846,"DIS_CODE":0,"TOWNNAME":"新市區","LI":"新和里","LIN":"18鄰","STREET":"銘傳街","SECT":" ","MAREA":" ","LANE":" ","ALLEY":" ","HOUSE_NO":"３８號","E_COORD97":177473.95000000001,"N_COORD97":2552669.75,"ADDRESS":"銘傳街３８號","OBJECTID":629819},"geometry":{"x":177473.95000000019,"y":2552669.75}},{"attributes":{"ID":629847,"DIS_CODE":0,"TOWNNAME":"新市區","LI":"新和里","LIN":"4鄰","STREET":"中正路","SECT":" ","MAREA":" ","LANE":" ","ALLEY":" ","HOUSE_NO":"２５號","E_COORD97":177464.51000000001,"N_COORD97":2552271.75,"ADDRESS":"中正路２５號","OBJECTID":629820},"geometry":{"x":177464.50999999978,"y":2552271.7500000019}},{"attributes":{"ID":629848,"DIS_CODE":0,"TOWNNAME":"新市區","LI":"新和里","LIN":"38鄰","STREET":"成功街","SECT":" ","MAREA":" ","LANE":" ","ALLEY":" ","HOUSE_NO":"３７號","E_COORD97":177457.32000000001,"N_COORD97":2552719.02,"ADDRESS":"成功街３７號","OBJECTID":629821},"geometry":{"x":177457.32000000123,"y":2552719.0199999996}},{"attributes":{"ID":629849,"DIS_CODE":0,"TOWNNAME":"新市區","LI":"新和里","LIN":"20鄰","STREET":"成功街","SECT":" ","MAREA":" ","LANE":" ","ALLEY":" ","HOUSE_NO":"９號","E_COORD97":177442.62,"N_COORD97":2552599.77,"ADDRESS":"成功街９號","OBJECTID":629822},"geometry":{"x":177442.62000000011,"y":2552599.7700000033}},{"attributes":{"ID":629850,"DIS_CODE":0,"TOWNNAME":"新市區","LI":"新和里","LIN":"40鄰","STREET":"信義街","SECT":" ","MAREA":" ","LANE":" ","ALLEY":" ","HOUSE_NO":"７１號","E_COORD97":177208.92999999999,"N_COORD97":2552910.27,"ADDRESS":"信義街７１號","OBJECTID":629823},"geometry":{"x":177208.93000000063,"y":2552910.2699999996}},{"attributes":{"ID":629851,"DIS_CODE":0,"TOWNNAME":"新市區","LI":"新和里","LIN":"17鄰","STREET":"銘傳街","SECT":" ","MAREA":" ","LANE":" ","ALLEY":" ","HOUSE_NO":"９號","E_COORD97":177530.07000000001,"N_COORD97":2552646,"ADDRESS":"銘傳街９號","OBJECTID":629824},"geometry":{"x":177530.07000000123,"y":2552646.0000000037}},{"attributes":{"ID":629852,"DIS_CODE":0,"TOWNNAME":"新市區","LI":"新和里","LIN":"4鄰","STREET":"中正路","SECT":" ","MAREA":" ","LANE":" ","ALLEY":" ","HOUSE_NO":"２９號","E_COORD97":177438.35000000001,"N_COORD97":2552358.25,"ADDRESS":"中正路２９號","OBJECTID":629825},"geometry":{"x":177438.34999999963,"y":2552358.25}},{"attributes":{"ID":629853,"DIS_CODE":0,"TOWNNAME":"新市區","LI":"新和里","LIN":"4鄰","STREET":"中正路","SECT":" ","MAREA":" ","LANE":" ","ALLEY":" ","HOUSE_NO":"５６號","E_COORD97":177466.57000000001,"N_COORD97":2552364.25,"ADDRESS":"中正路５６號","OBJECTID":629826},"geometry":{"x":177466.5700000003,"y":2552364.2500000019}},{"attributes":{"ID":629854,"DIS_CODE":0,"TOWNNAME":"新市區","LI":"新和里","LIN":"4鄰","STREET":"中正路","SECT":" ","MAREA":" ","LANE":" ","ALLEY":" ","HOUSE_NO":"３１號","E_COORD97":177432.82000000001,"N_COORD97":2552393.75,"ADDRESS":"中正路３１號","OBJECTID":629827},"geometry":{"x":177432.8200000003,"y":2552393.7500000019}},{"attributes":{"ID":629855,"DIS_CODE":0,"TOWNNAME":"新市區","LI":"新和里","LIN":"4鄰","STREET":"中正路","SECT":" ","MAREA":" ","LANE":" ","ALLEY":" ","HOUSE_NO":"４０號","E_COORD97":177475.16,"N_COORD97":2552331.75,"ADDRESS":"中正路４０號","OBJECTID":629828},"geometry":{"x":177475.16000000108,"y":2552331.75}},{"attributes":{"ID":629856,"DIS_CODE":0,"TOWNNAME":"新市區","LI":"新和里","LIN":"4鄰","STREET":"中正路","SECT":" ","MAREA":" ","LANE":" ","ALLEY":" ","HOUSE_NO":"４６號","E_COORD97":177472.48999999999,"N_COORD97":2552343.5,"ADDRESS":"中正路４６號","OBJECTID":629829},"geometry":{"x":177472.49000000022,"y":2552343.5}},{"attributes":{"ID":629857,"DIS_CODE":0,"TOWNNAME":"新市區","LI":"新和里","LIN":"4鄰","STREET":"中正路","SECT":" ","MAREA":" ","LANE":" ","ALLEY":" ","HOUSE_NO":"５４號","E_COORD97":177467.66,"N_COORD97":2552359.9900000002,"ADDRESS":"中正路５４號","OBJECTID":629830},"geometry":{"x":177467.66000000015,"y":2552359.9900000002}},{"attributes":{"ID":629858,"DIS_CODE":0,"TOWNNAME":"新市區","LI":"新和里","LIN":"4鄰","STREET":"中正路","SECT":" ","MAREA":" ","LANE":" ","ALLEY":" ","HOUSE_NO":"２７號","E_COORD97":177464.37,"N_COORD97":2552276.25,"ADDRESS":"中正路２７號","OBJECTID":629831},"geometry":{"x":177464.37000000011,"y":2552276.2500000019}},{"attributes":{"ID":629859,"DIS_CODE":0,"TOWNNAME":"新市區","LI":"新和里","LIN":"4鄰","STREET":"中正路","SECT":" ","MAREA":" ","LANE":" ","ALLEY":" ","HOUSE_NO":"３５號","E_COORD97":177429.76000000001,"N_COORD97":2552402,"ADDRESS":"中正路３５號","OBJECTID":629832},"geometry":{"x":177429.76000000164,"y":2552402.0000000037}},{"attributes":{"ID":629860,"DIS_CODE":0,"TOWNNAME":"新市區","LI":"新和里","LIN":"4鄰","STREET":"中正路","SECT":" ","MAREA":" ","LANE":" ","ALLEY":" ","HOUSE_NO":"３４號","E_COORD97":177478.76000000001,"N_COORD97":2552319.25,"ADDRESS":"中正路３４號","OBJECTID":629833},"geometry":{"x":177478.75999999978,"y":2552319.2500000019}},{"attributes":{"ID":629861,"DIS_CODE":0,"TOWNNAME":"新市區","LI":"新和里","LIN":"18鄰","STREET":"銘傳街","SECT":" ","MAREA":" ","LANE":" ","ALLEY":" ","HOUSE_NO":"４１號","E_COORD97":177445.73999999999,"N_COORD97":2552660.5,"ADDRESS":"銘傳街４１號","OBJECTID":629834},"geometry":{"x":177445.74000000209,"y":2552660.5000000019}},{"attributes":{"ID":629862,"DIS_CODE":0,"TOWNNAME":"新市區","LI":"新和里","LIN":"41鄰","STREET":"信義街","SECT":" ","MAREA":" ","LANE":" ","ALLEY":" ","HOUSE_NO":"４７號","E_COORD97":177211.45000000001,"N_COORD97":2552798.52,"ADDRESS":"信義街４７號","OBJECTID":629835},"geometry":{"x":177211.45000000019,"y":2552798.5200000014}},{"attributes":{"ID":629863,"DIS_CODE":0,"TOWNNAME":"新市區","LI":"新和里","LIN":"41鄰","STREET":"光明街","SECT":" ","MAREA":" ","LANE":" ","ALLEY":" ","HOUSE_NO":"４３號","E_COORD97":177109.87,"N_COORD97":2552787.5,"ADDRESS":"光明街４３號","OBJECTID":629836},"geometry":{"x":177109.87000000011,"y":2552787.5}},{"attributes":{"ID":629864,"DIS_CODE":0,"TOWNNAME":"新市區","LI":"新和里","LIN":"4鄰","STREET":"中正路","SECT":" ","MAREA":" ","LANE":" ","ALLEY":" ","HOUSE_NO":"３８號","E_COORD97":177476.32000000001,"N_COORD97":2552327.5,"ADDRESS":"中正路３８號","OBJECTID":629837},"geometry":{"x":177476.32000000123,"y":2552327.5000000037}},{"attributes":{"ID":629865,"DIS_CODE":0,"TOWNNAME":"新市區","LI":"新和里","LIN":"4鄰","STREET":"中正路","SECT":" ","MAREA":" ","LANE":" ","ALLEY":" ","HOUSE_NO":"６２號","E_COORD97":177463.89999999999,"N_COORD97":2552376,"ADDRESS":"中正路６２號","OBJECTID":629838},"geometry":{"x":177463.9000000013,"y":2552376.0000000019}},{"attributes":{"ID":629866,"DIS_CODE":0,"TOWNNAME":"新市區","LI":"新和里","LIN":"4鄰","STREET":"中正路","SECT":" ","MAREA":" ","LANE":" ","ALLEY":" ","HOUSE_NO":"２６號","E_COORD97":177486.76000000001,"N_COORD97":2552291.25,"ADDRESS":"中正路２６號","OBJECTID":629839},"geometry":{"x":177486.75999999978,"y":2552291.25}},{"attributes":{"ID":629867,"DIS_CODE":0,"TOWNNAME":"新市區","LI":"新和里","LIN":"4鄰","STREET":"中正路","SECT":" ","MAREA":" ","LANE":" ","ALLEY":" ","HOUSE_NO":"３０號","E_COORD97":177480.87,"N_COORD97":2552310.5,"ADDRESS":"中正路３０號","OBJECTID":629840},"geometry":{"x":177480.87000000104,"y":2552310.5000000037}},{"attributes":{"ID":629868,"DIS_CODE":0,"TOWNNAME":"新市區","LI":"新和里","LIN":"4鄰","STREET":"中正路","SECT":" ","MAREA":" ","LANE":" ","ALLEY":" ","HOUSE_NO":"３２號","E_COORD97":177479.66,"N_COORD97":2552314.75,"ADDRESS":"中正路３２號","OBJECTID":629841},"geometry":{"x":177479.66000000015,"y":2552314.75}},{"attributes":{"ID":629869,"DIS_CODE":0,"TOWNNAME":"新市區","LI":"新和里","LIN":"4鄰","STREET":"中正路","SECT":" ","MAREA":" ","LANE":" ","ALLEY":" ","HOUSE_NO":"３３號","E_COORD97":177431.67999999999,"N_COORD97":2552398.25,"ADDRESS":"中正路３３號","OBJECTID":629842},"geometry":{"x":177431.6799999997,"y":2552398.2500000019}},{"attributes":{"ID":629870,"DIS_CODE":0,"TOWNNAME":"新市區","LI":"新和里","LIN":"4鄰","STREET":"中正路","SECT":" ","MAREA":" ","LANE":" ","ALLEY":" ","HOUSE_NO":"３６號","E_COORD97":177477.26000000001,"N_COORD97":2552323.5,"ADDRESS":"中正路３６號","OBJECTID":629843},"geometry":{"x":177477.26000000164,"y":2552323.5}},{"attributes":{"ID":629871,"DIS_CODE":0,"TOWNNAME":"新市區","LI":"新和里","LIN":"32鄰","STREET":"華興街","SECT":" ","MAREA":" ","LANE":" ","ALLEY":" ","HOUSE_NO":"１７號","E_COORD97":177780.92000000001,"N_COORD97":2552995.25,"ADDRESS":"華興街１７號","OBJECTID":629844},"geometry":{"x":177780.91999999993,"y":2552995.25}},{"attributes":{"ID":629872,"DIS_CODE":0,"TOWNNAME":"新市區","LI":"新和里","LIN":"41鄰","STREET":"光明街","SECT":" ","MAREA":" ","LANE":" ","ALLEY":" ","HOUSE_NO":"１０號","E_COORD97":177132.09,"N_COORD97":2552715.25,"ADDRESS":"光明街１０號","OBJECTID":629845},"geometry":{"x":177132.08999999985,"y":2552715.2499999981}},{"attributes":{"ID":629873,"DIS_CODE":0,"TOWNNAME":"新市區","LI":"新和里","LIN":"32鄰","STREET":"華興街","SECT":" ","MAREA":" ","LANE":" ","ALLEY":" ","HOUSE_NO":"１１號","E_COORD97":177794.95000000001,"N_COORD97":2552995.75,"ADDRESS":"華興街１１號","OBJECTID":629846},"geometry":{"x":177794.94999999925,"y":2552995.75}},{"attributes":{"ID":629874,"DIS_CODE":0,"TOWNNAME":"永康區","LI":"大橋里","LIN":"4鄰","STREET":"大橋五街","SECT":" ","MAREA":" ","LANE":" ","ALLEY":" ","HOUSE_NO":"１６３號","E_COORD97":171014.66,"N_COORD97":2547015.4900000002,"ADDRESS":"大橋五街１６３號","OBJECTID":629847},"geometry":{"x":171014.66000000201,"y":2547015.4900000021}},{"attributes":{"ID":629875,"DIS_CODE":0,"TOWNNAME":"永康區","LI":"大橋里","LIN":"18鄰","STREET":"大橋二街","SECT":" ","MAREA":" ","LANE":" ","ALLEY":" ","HOUSE_NO":"１１４號","E_COORD97":170962.04000000001,"N_COORD97":2546689.2400000002,"ADDRESS":"大橋二街１１４號","OBJECTID":629848},"geometry":{"x":170962.04000000004,"y":2546689.2400000021}},{"attributes":{"ID":629876,"DIS_CODE":0,"TOWNNAME":"官田區","LI":"隆本里","LIN":"14鄰","STREET":"信義街","SECT":"二段","MAREA":" ","LANE":" ","ALLEY":" ","HOUSE_NO":"１５１號","E_COORD97":179745.23000000001,"N_COORD97":2566363.4100000001,"ADDRESS":"信義街二段１５１號","OBJECTID":629849},"geometry":{"x":179745.23000000138,"y":2566363.4100000001}},{"attributes":{"ID":629877,"DIS_CODE":0,"TOWNNAME":"永康區","LI":"大灣里","LIN":"25鄰","STREET":"民族路","SECT":" ","MAREA":" ","LANE":" ","ALLEY":" ","HOUSE_NO":"２０４號","E_COORD97":175112.39999999999,"N_COORD97":2545090.79,"ADDRESS":"民族路２０４號","OBJECTID":629850},"geometry":{"x":175112.4000000013,"y":2545090.790000001}},{"attributes":{"ID":629878,"DIS_CODE":0,"TOWNNAME":"永康區","LI":"大橋里","LIN":"4鄰","STREET":"大橋五街","SECT":" ","MAREA":" ","LANE":" ","ALLEY":" ","HOUSE_NO":"５７號","E_COORD97":170836.25,"N_COORD97":2546920.9199999999,"ADDRESS":"大橋五街５７號","OBJECTID":629851},"geometry":{"x":170836.25000000093,"y":2546920.9200000018}},{"attributes":{"ID":629879,"DIS_CODE":0,"TOWNNAME":"永康區","LI":"大灣里","LIN":"25鄰","STREET":"民族路","SECT":" ","MAREA":" ","LANE":" ","ALLEY":" ","HOUSE_NO":"２１８號","E_COORD97":175086.78,"N_COORD97":2545121.48,"ADDRESS":"民族路２１８號","OBJECTID":629852},"geometry":{"x":175086.78000000026,"y":2545121.4800000023}},{"attributes":{"ID":629880,"DIS_CODE":0,"TOWNNAME":"永康區","LI":"大橋里","LIN":"4鄰","STREET":"大橋五街","SECT":" ","MAREA":" ","LANE":" ","ALLEY":" ","HOUSE_NO":"１６７號","E_COORD97":171024.48999999999,"N_COORD97":2547022.04,"ADDRESS":"大橋五街１６７號","OBJECTID":629853},"geometry":{"x":171024.49000000115,"y":2547022.0399999991}},{"attributes":{"ID":629881,"DIS_CODE":0,"TOWNNAME":"永康區","LI":"三民里","LIN":"13鄰","STREET":"和平路","SECT":" ","MAREA":" ","LANE":" ","ALLEY":" ","HOUSE_NO":"２８１號","E_COORD97":174479.88,"N_COORD97":2551256.3500000001,"ADDRESS":"和平路２８１號","OBJECTID":629854},"geometry":{"x":174479.88000000082,"y":2551256.3499999978}},{"attributes":{"ID":629882,"DIS_CODE":0,"TOWNNAME":"永康區","LI":"三合里","LIN":"4鄰","STREET":"中華二路","SECT":" ","MAREA":" ","LANE":" ","ALLEY":" ","HOUSE_NO":"９６號","E_COORD97":172063.95999999999,"N_COORD97":2545444.5499999998,"ADDRESS":"中華二路９６號","OBJECTID":629855},"geometry":{"x":172063.96000000089,"y":2545444.5500000007}},{"attributes":{"ID":629883,"DIS_CODE":0,"TOWNNAME":"永康區","LI":"大橋里","LIN":"4鄰","STREET":"大橋五街","SECT":" ","MAREA":" ","LANE":" ","ALLEY":" ","HOUSE_NO":"４７號","E_COORD97":170835.26999999999,"N_COORD97":2546897.3700000001,"ADDRESS":"大橋五街４７號","OBJECTID":629856},"geometry":{"x":170835.27000000142,"y":2546897.370000001}},{"attributes":{"ID":629884,"DIS_CODE":0,"TOWNNAME":"永康區","LI":"大橋里","LIN":"18鄰","STREET":"大橋二街","SECT":" ","MAREA":" ","LANE":" ","ALLEY":" ","HOUSE_NO":"１１６號","E_COORD97":170967.23999999999,"N_COORD97":2546692.7400000002,"ADDRESS":"大橋二街１１６號","OBJECTID":629857},"geometry":{"x":170967.24000000115,"y":2546692.7400000021}},{"attributes":{"ID":629885,"DIS_CODE":0,"TOWNNAME":"永康區","LI":"中興里","LIN":"26鄰","STREET":"中山東路","SECT":" ","MAREA":" ","LANE":" ","ALLEY":" ","HOUSE_NO":"４２２號","E_COORD97":171920.45999999999,"N_COORD97":2545147.9900000002,"ADDRESS":"中山東路４２２號","OBJECTID":629858},"geometry":{"x":171920.45999999996,"y":2545147.9900000021}},{"attributes":{"ID":629886,"DIS_CODE":0,"TOWNNAME":"永康區","LI":"大橋里","LIN":"4鄰","STREET":"大橋五街","SECT":" ","MAREA":" ","LANE":" ","ALLEY":" ","HOUSE_NO":"８３號","E_COORD97":170864.82000000001,"N_COORD97":2546916.6200000001,"ADDRESS":"大橋五街８３號","OBJECTID":629859},"geometry":{"x":170864.82000000123,"y":2546916.6200000048}},{"attributes":{"ID":629887,"DIS_CODE":0,"TOWNNAME":"永康區","LI":"大橋里","LIN":"5鄰","STREET":"大橋三街","SECT":" ","MAREA":" ","LANE":" ","ALLEY":" ","HOUSE_NO":"１９３號","E_COORD97":170851.85000000001,"N_COORD97":2546774.9300000002,"ADDRESS":"大橋三街１９３號","OBJECTID":629860},"geometry":{"x":170851.85000000056,"y":2546774.9300000016}},{"attributes":{"ID":629888,"DIS_CODE":0,"TOWNNAME":"永康區","LI":"大橋里","LIN":"25鄰","STREET":"大橋一街","SECT":" ","MAREA":" ","LANE":" ","ALLEY":" ","HOUSE_NO":"２２７號","E_COORD97":171244.26000000001,"N_COORD97":2546631,"ADDRESS":"大橋一街２２７號","OBJECTID":629861},"geometry":{"x":171244.26000000071,"y":2546631}},{"attributes":{"ID":629889,"DIS_CODE":0,"TOWNNAME":"永康區","LI":"大灣里","LIN":"25鄰","STREET":"民族路","SECT":" ","MAREA":" ","LANE":" ","ALLEY":" ","HOUSE_NO":"２０６號","E_COORD97":175109.20000000001,"N_COORD97":2545094.29,"ADDRESS":"民族路２０６號","OBJECTID":629862},"geometry":{"x":175109.20000000019,"y":2545094.290000001}},{"attributes":{"ID":629890,"DIS_CODE":0,"TOWNNAME":"永康區","LI":"大橋里","LIN":"4鄰","STREET":"大橋五街","SECT":" ","MAREA":" ","LANE":" ","ALLEY":" ","HOUSE_NO":"１４５號","E_COORD97":170977.25,"N_COORD97":2546991.3100000001,"ADDRESS":"大橋五街１４５號","OBJECTID":629863},"geometry":{"x":170977.25000000093,"y":2546991.3100000005}},{"attributes":{"ID":629891,"DIS_CODE":0,"TOWNNAME":"永康區","LI":"三合里","LIN":"13鄰","STREET":"南工街","SECT":" ","MAREA":" ","LANE":" ","ALLEY":" ","HOUSE_NO":"１８３號","E_COORD97":172013.60000000001,"N_COORD97":2545833.3199999998,"ADDRESS":"南工街１８３號","OBJECTID":629864},"geometry":{"x":172013.60000000056,"y":2545833.3200000022}},{"attributes":{"ID":629892,"DIS_CODE":0,"TOWNNAME":"永康區","LI":"大橋里","LIN":"4鄰","STREET":"大橋五街","SECT":" ","MAREA":" ","LANE":" ","ALLEY":" ","HOUSE_NO":"１６５號","E_COORD97":171019.91,"N_COORD97":2547018.9900000002,"ADDRESS":"大橋五街１６５號","OBJECTID":629865},"geometry":{"x":171019.91000000108,"y":2547018.9900000021}},{"attributes":{"ID":629893,"DIS_CODE":0,"TOWNNAME":"永康區","LI":"三合里","LIN":"1鄰","STREET":"中華二路","SECT":" ","MAREA":" ","LANE":" ","ALLEY":" ","HOUSE_NO":"６８號","E_COORD97":172130.20000000001,"N_COORD97":2545587.75,"ADDRESS":"中華二路６８號","OBJECTID":629866},"geometry":{"x":172130.20000000112,"y":2545587.75}},{"attributes":{"ID":629894,"DIS_CODE":0,"TOWNNAME":"永康區","LI":"大橋里","LIN":"4鄰","STREET":"大橋五街","SECT":" ","MAREA":" ","LANE":" ","ALLEY":" ","HOUSE_NO":"５９號","E_COORD97":170834.06,"N_COORD97":2546924.1800000002,"ADDRESS":"大橋五街５９號","OBJECTID":629867},"geometry":{"x":170834.06000000052,"y":2546924.1799999997}},{"attributes":{"ID":629895,"DIS_CODE":0,"TOWNNAME":"永康區","LI":"中興里","LIN":"26鄰","STREET":"中山東路","SECT":" ","MAREA":" ","LANE":" ","ALLEY":" ","HOUSE_NO":"４３２號","E_COORD97":171928.97,"N_COORD97":2545124.9900000002,"ADDRESS":"中山東路４３２號","OBJECTID":629868},"geometry":{"x":171928.96999999881,"y":2545124.9900000002}},{"attributes":{"ID":629896,"DIS_CODE":0,"TOWNNAME":"永康區","LI":"大灣里","LIN":"25鄰","STREET":"民族路","SECT":" ","MAREA":" ","LANE":" ","ALLEY":" ","HOUSE_NO":"２４８號","E_COORD97":175068.91,"N_COORD97":2545176.5099999998,"ADDRESS":"民族路２４８號","OBJECTID":629869},"geometry":{"x":175068.91000000015,"y":2545176.5099999979}},{"attributes":{"ID":629897,"DIS_CODE":0,"TOWNNAME":"永康區","LI":"三合里","LIN":"4鄰","STREET":"中華二路","SECT":" ","MAREA":" ","LANE":" ","ALLEY":" ","HOUSE_NO":"９２號","E_COORD97":172068.06,"N_COORD97":2545444.5499999998,"ADDRESS":"中華二路９２號","OBJECTID":629870},"geometry":{"x":172068.06000000052,"y":2545444.5500000007}},{"attributes":{"ID":629898,"DIS_CODE":0,"TOWNNAME":"永康區","LI":"大橋里","LIN":"5鄰","STREET":"大橋五街","SECT":" ","MAREA":" ","LANE":" ","ALLEY":" ","HOUSE_NO":"１８號","E_COORD97":170789.14999999999,"N_COORD97":2546852.1000000001,"ADDRESS":"大橋五街１８號","OBJECTID":629871},"geometry":{"x":170789.15000000037,"y":2546852.1000000015}},{"attributes":{"ID":629899,"DIS_CODE":0,"TOWNNAME":"永康區","LI":"五王里","LIN":"42鄰","STREET":"中山東路","SECT":" ","MAREA":" ","LANE":" ","ALLEY":" ","HOUSE_NO":"２２號","E_COORD97":171665.89999999999,"N_COORD97":2546121.5,"ADDRESS":"中山東路２２號","OBJECTID":629872},"geometry":{"x":171665.90000000224,"y":2546121.5}},{"attributes":{"ID":629900,"DIS_CODE":0,"TOWNNAME":"永康區","LI":"二王里","LIN":"47鄰","STREET":"南工街","SECT":" ","MAREA":" ","LANE":" ","ALLEY":" ","HOUSE_NO":"２７６號","E_COORD97":171898.42999999999,"N_COORD97":2546006.6800000002,"ADDRESS":"南工街２７６號","OBJECTID":629873},"geometry":{"x":171898.4299999997,"y":2546006.6800000016}},{"attributes":{"ID":629901,"DIS_CODE":0,"TOWNNAME":"永康區","LI":"大橋里","LIN":"4鄰","STREET":"大橋五街","SECT":" ","MAREA":" ","LANE":" ","ALLEY":" ","HOUSE_NO":"１６９號","E_COORD97":171029.41,"N_COORD97":2547024.9900000002,"ADDRESS":"大橋五街１６９號","OBJECTID":629874},"geometry":{"x":171029.41000000015,"y":2547024.9900000039}},{"attributes":{"ID":629902,"DIS_CODE":0,"TOWNNAME":"永康區","LI":"大橋里","LIN":"5鄰","STREET":"大橋五街","SECT":" ","MAREA":" ","LANE":" ","ALLEY":" ","HOUSE_NO":"１２號","E_COORD97":170794.78,"N_COORD97":2546818.1699999999,"ADDRESS":"大橋五街１２號","OBJECTID":629875},"geometry":{"x":170794.78000000026,"y":2546818.1700000018}},{"attributes":{"ID":629903,"DIS_CODE":0,"TOWNNAME":"永康區","LI":"大橋里","LIN":"18鄰","STREET":"大橋二街","SECT":" ","MAREA":" ","LANE":" ","ALLEY":" ","HOUSE_NO":"１０６號","E_COORD97":170944.48999999999,"N_COORD97":2546677.9900000002,"ADDRESS":"大橋二街１０６號","OBJECTID":629876},"geometry":{"x":170944.49000000209,"y":2546677.9900000002}},{"attributes":{"ID":629904,"DIS_CODE":0,"TOWNNAME":"永康區","LI":"三民里","LIN":"13鄰","STREET":"和平路","SECT":" ","MAREA":" ","LANE":" ","ALLEY":" ","HOUSE_NO":"２９１號","E_COORD97":174482.28,"N_COORD97":2551275.5600000001,"ADDRESS":"和平路２９１號","OBJECTID":629877},"geometry":{"x":174482.28000000212,"y":2551275.5600000005}},{"attributes":{"ID":629905,"DIS_CODE":0,"TOWNNAME":"永康區","LI":"大橋里","LIN":"4鄰","STREET":"大橋五街","SECT":" ","MAREA":" ","LANE":" ","ALLEY":" ","HOUSE_NO":"３１號","E_COORD97":170824.67000000001,"N_COORD97":2546894.9199999999,"ADDRESS":"大橋五街３１號","OBJECTID":629878},"geometry":{"x":170824.67000000086,"y":2546894.9199999999}},{"attributes":{"ID":629906,"DIS_CODE":0,"TOWNNAME":"永康區","LI":"大橋里","LIN":"4鄰","STREET":"大橋五街","SECT":" ","MAREA":" ","LANE":" ","ALLEY":" ","HOUSE_NO":"７５號","E_COORD97":170849.10000000001,"N_COORD97":2546929.0099999998,"ADDRESS":"大橋五街７５號","OBJECTID":629879},"geometry":{"x":170849.09999999963,"y":2546929.0099999998}},{"attributes":{"ID":629907,"DIS_CODE":0,"TOWNNAME":"永康區","LI":"大灣里","LIN":"25鄰","STREET":"民族路","SECT":" ","MAREA":" ","LANE":" ","ALLEY":" ","HOUSE_NO":"２１６號","E_COORD97":175094.92000000001,"N_COORD97":2545110.98,"ADDRESS":"民族路２１６號","OBJECTID":629880},"geometry":{"x":175094.92000000086,"y":2545110.9800000023}},{"attributes":{"ID":629908,"DIS_CODE":0,"TOWNNAME":"永康區","LI":"五王里","LIN":"20鄰","STREET":"中華路","SECT":" ","MAREA":" ","LANE":" ","ALLEY":" ","HOUSE_NO":"４５８號","E_COORD97":171350.97,"N_COORD97":2545677.8100000001,"ADDRESS":"中華路４５８號","OBJECTID":629881},"geometry":{"x":171350.9700000016,"y":2545677.8100000024}},{"attributes":{"ID":629909,"DIS_CODE":0,"TOWNNAME":"永康區","LI":"五王里","LIN":"24鄰","STREET":"五福街","SECT":" ","MAREA":" ","LANE":" ","ALLEY":" ","HOUSE_NO":"２０號","E_COORD97":171312.39999999999,"N_COORD97":2545866.0499999998,"ADDRESS":"五福街２０號","OBJECTID":629882},"geometry":{"x":171312.40000000037,"y":2545866.0500000026}},{"attributes":{"ID":629910,"DIS_CODE":0,"TOWNNAME":"永康區","LI":"大橋里","LIN":"4鄰","STREET":"大橋五街","SECT":" ","MAREA":" ","LANE":" ","ALLEY":" ","HOUSE_NO":"７號","E_COORD97":170765.22,"N_COORD97":2546853.2200000002,"ADDRESS":"大橋五街７號","OBJECTID":629883},"geometry":{"x":170765.22000000067,"y":2546853.2200000007}},{"attributes":{"ID":629911,"DIS_CODE":0,"TOWNNAME":"永康區","LI":"五王里","LIN":"42鄰","STREET":"五福街","SECT":" ","MAREA":" ","LANE":" ","ALLEY":" ","HOUSE_NO":"１８９號","E_COORD97":171685.45999999999,"N_COORD97":2546067.8399999999,"ADDRESS":"五福街１８９號","OBJECTID":629884},"geometry":{"x":171685.46000000089,"y":2546067.8400000017}},{"attributes":{"ID":629912,"DIS_CODE":0,"TOWNNAME":"永康區","LI":"二王里","LIN":"41鄰","STREET":"中山南路","SECT":" ","MAREA":" ","LANE":" ","ALLEY":" ","HOUSE_NO":"３１２號","E_COORD97":171630.95000000001,"N_COORD97":2546161.9900000002,"ADDRESS":"中山南路３１２號","OBJECTID":629885},"geometry":{"x":171630.95000000019,"y":2546161.9900000021}},{"attributes":{"ID":629913,"DIS_CODE":0,"TOWNNAME":"永康區","LI":"王行里","LIN":"4鄰","STREET":"育樂街","SECT":" ","MAREA":" ","LANE":" ","ALLEY":" ","HOUSE_NO":"２０４號","E_COORD97":175018.92000000001,"N_COORD97":2548351.6000000001,"ADDRESS":"育樂街２０４號","OBJECTID":629886},"geometry":{"x":175018.92000000086,"y":2548351.5999999996}},{"attributes":{"ID":629914,"DIS_CODE":0,"TOWNNAME":"永康區","LI":"中興里","LIN":"25鄰","STREET":"中華路","SECT":" ","MAREA":" ","LANE":" ","ALLEY":" ","HOUSE_NO":"２１８號之３３","E_COORD97":171657.32999999999,"N_COORD97":2545149.29,"ADDRESS":"中華路２１８號之３３","OBJECTID":629887},"geometry":{"x":171657.32999999914,"y":2545149.2899999991}},{"attributes":{"ID":629915,"DIS_CODE":0,"TOWNNAME":"永康區","LI":"北灣里","LIN":"32鄰","STREET":"大同街","SECT":" ","MAREA":" ","LANE":" ","ALLEY":" ","HOUSE_NO":"８３號","E_COORD97":175130.42000000001,"N_COORD97":2545452.5299999998,"ADDRESS":"大同街８３號","OBJECTID":629888},"geometry":{"x":175130.42000000086,"y":2545452.5299999993}},{"attributes":{"ID":629916,"DIS_CODE":0,"TOWNNAME":"永康區","LI":"五王里","LIN":"42鄰","STREET":"中山東路","SECT":" ","MAREA":" ","LANE":" ","ALLEY":" ","HOUSE_NO":"２號","E_COORD97":171651.76000000001,"N_COORD97":2546153.4900000002,"ADDRESS":"中山東路２號","OBJECTID":629889},"geometry":{"x":171651.75999999978,"y":2546153.4899999984}},{"attributes":{"ID":629917,"DIS_CODE":0,"TOWNNAME":"永康區","LI":"王行里","LIN":"4鄰","STREET":"育樂街","SECT":" ","MAREA":" ","LANE":" ","ALLEY":" ","HOUSE_NO":"２００號","E_COORD97":175027.92999999999,"N_COORD97":2548352.7200000002,"ADDRESS":"育樂街２００號","OBJECTID":629890},"geometry":{"x":175027.9299999997,"y":2548352.7199999988}},{"attributes":{"ID":629918,"DIS_CODE":0,"TOWNNAME":"永康區","LI":"五王里","LIN":"41鄰","STREET":"中山南路","SECT":" ","MAREA":" ","LANE":" ","ALLEY":" ","HOUSE_NO":"２４６號","E_COORD97":171469.54000000001,"N_COORD97":2546070.25,"ADDRESS":"中山南路２４６號","OBJECTID":629891},"geometry":{"x":171469.5400000019,"y":2546070.2500000037}},{"attributes":{"ID":629919,"DIS_CODE":0,"TOWNNAME":"永康區","LI":"北灣里","LIN":"32鄰","STREET":"大同街","SECT":" ","MAREA":" ","LANE":" ","ALLEY":" ","HOUSE_NO":"６３號","E_COORD97":175154.92000000001,"N_COORD97":2545423.9700000002,"ADDRESS":"大同街６３號","OBJECTID":629892},"geometry":{"x":175154.91999999993,"y":2545423.9700000007}},{"attributes":{"ID":629920,"DIS_CODE":0,"TOWNNAME":"永康區","LI":"王行里","LIN":"13鄰","STREET":"王行路","SECT":" ","MAREA":" ","LANE":" ","ALLEY":" ","HOUSE_NO":"１１５８號之１","E_COORD97":175520.91,"N_COORD97":2550293.79,"ADDRESS":"王行路１１５８號之１","OBJECTID":629893},"geometry":{"x":175520.91000000108,"y":2550293.7900000028}},{"attributes":{"ID":629921,"DIS_CODE":0,"TOWNNAME":"永康區","LI":"北灣里","LIN":"25鄰","STREET":"大灣六街","SECT":" ","MAREA":" ","LANE":" ","ALLEY":" ","HOUSE_NO":"７３號","E_COORD97":175047.14999999999,"N_COORD97":2545333.6400000001,"ADDRESS":"大灣六街７３號","OBJECTID":629894},"geometry":{"x":175047.15000000037,"y":2545333.6400000025}},{"attributes":{"ID":629922,"DIS_CODE":0,"TOWNNAME":"永康區","LI":"王行里","LIN":"14鄰","STREET":"經中路","SECT":" ","MAREA":" ","LANE":" ","ALLEY":" ","HOUSE_NO":"１號","E_COORD97":175007.69,"N_COORD97":2549538.75,"ADDRESS":"經中路１號","OBJECTID":629895},"geometry":{"x":175007.69000000041,"y":2549538.7500000037}},{"attributes":{"ID":629923,"DIS_CODE":0,"TOWNNAME":"永康區","LI":"大橋里","LIN":"4鄰","STREET":"大橋五街","SECT":" ","MAREA":" ","LANE":" ","ALLEY":" ","HOUSE_NO":"１２７號","E_COORD97":170919.01000000001,"N_COORD97":2546990.2400000002,"ADDRESS":"大橋五街１２７號","OBJECTID":629896},"geometry":{"x":170919.01000000071,"y":2546990.2400000021}},{"attributes":{"ID":629924,"DIS_CODE":0,"TOWNNAME":"永康區","LI":"北灣里","LIN":"32鄰","STREET":"大同街","SECT":" ","MAREA":" ","LANE":" ","ALLEY":" ","HOUSE_NO":"８５號","E_COORD97":175126.81,"N_COORD97":2545454.2799999998,"ADDRESS":"大同街８５號","OBJECTID":629897},"geometry":{"x":175126.80999999959,"y":2545454.2799999993}},{"attributes":{"ID":629925,"DIS_CODE":0,"TOWNNAME":"永康區","LI":"五王里","LIN":"20鄰","STREET":"成功路","SECT":" ","MAREA":" ","LANE":" ","ALLEY":" ","HOUSE_NO":"１５９號","E_COORD97":171333.22,"N_COORD97":2545757.6099999999,"ADDRESS":"成功路１５９號","OBJECTID":629898},"geometry":{"x":171333.22000000067,"y":2545757.6099999994}},{"attributes":{"ID":629926,"DIS_CODE":0,"TOWNNAME":"永康區","LI":"復國里","LIN":"4鄰","STREET":"復國一路","SECT":" ","MAREA":" ","LANE":" ","ALLEY":" ","HOUSE_NO":"６６號","E_COORD97":172723.04999999999,"N_COORD97":2544855.0299999998,"ADDRESS":"復國一路６６號","OBJECTID":629899},"geometry":{"x":172723.04999999981,"y":2544855.0300000012}},{"attributes":{"ID":629927,"DIS_CODE":0,"TOWNNAME":"永康區","LI":"復國里","LIN":"4鄰","STREET":"復國一路","SECT":" ","MAREA":" ","LANE":" ","ALLEY":" ","HOUSE_NO":"７０號","E_COORD97":172722.34,"N_COORD97":2544874.2200000002,"ADDRESS":"復國一路７０號","OBJECTID":629900},"geometry":{"x":172722.34000000078,"y":2544874.2199999988}},{"attributes":{"ID":629928,"DIS_CODE":0,"TOWNNAME":"永康區","LI":"復華里","LIN":"4鄰","STREET":"復國二路","SECT":" ","MAREA":" ","LANE":" ","ALLEY":" ","HOUSE_NO":"２６７號","E_COORD97":173029.73999999999,"N_COORD97":2546179.0099999998,"ADDRESS":"復國二路２６７號","OBJECTID":629901},"geometry":{"x":173029.74000000209,"y":2546179.0099999998}},{"attributes":{"ID":629929,"DIS_CODE":0,"TOWNNAME":"永康區","LI":"復國里","LIN":"18鄰","STREET":"復華六街","SECT":" ","MAREA":" ","LANE":" ","ALLEY":" ","HOUSE_NO":"３３號","E_COORD97":172805.39999999999,"N_COORD97":2545832.5299999998,"ADDRESS":"復華六街３３號","OBJECTID":629902},"geometry":{"x":172805.4000000013,"y":2545832.5299999993}},{"attributes":{"ID":629930,"DIS_CODE":0,"TOWNNAME":"永康區","LI":"網寮里","LIN":"26鄰","STREET":"永大二路","SECT":" ","MAREA":" ","LANE":" ","ALLEY":" ","HOUSE_NO":"１２４號","E_COORD97":174031.04000000001,"N_COORD97":2546501.2400000002,"ADDRESS":"永大二路１２４號","OBJECTID":629903},"geometry":{"x":174031.0400000019,"y":2546501.2400000039}},{"attributes":{"ID":629931,"DIS_CODE":0,"TOWNNAME":"永康區","LI":"復國里","LIN":"32鄰","STREET":"復華一街","SECT":" ","MAREA":" ","LANE":" ","ALLEY":" ","HOUSE_NO":"１３號","E_COORD97":172659.41,"N_COORD97":2545071.0299999998,"ADDRESS":"復華一街１３號","OBJECTID":629904},"geometry":{"x":172659.41000000108,"y":2545071.0300000031}},{"attributes":{"ID":629932,"DIS_CODE":0,"TOWNNAME":"永康區","LI":"復華里","LIN":"32鄰","STREET":"國華街","SECT":" ","MAREA":" ","LANE":" ","ALLEY":" ","HOUSE_NO":"１６８號","E_COORD97":172553.26000000001,"N_COORD97":2546348.5299999998,"ADDRESS":"國華街１６８號","OBJECTID":629905},"geometry":{"x":172553.26000000071,"y":2546348.5299999993}},{"attributes":{"ID":629933,"DIS_CODE":0,"TOWNNAME":"永康區","LI":"網寮里","LIN":"26鄰","STREET":"永興路","SECT":" ","MAREA":" ","LANE":" ","ALLEY":" ","HOUSE_NO":"１０７號","E_COORD97":173905.70999999999,"N_COORD97":2546555.3399999999,"ADDRESS":"永興路１０７號","OBJECTID":629906},"geometry":{"x":173905.70999999996,"y":2546555.3400000017}},{"attributes":{"ID":629934,"DIS_CODE":0,"TOWNNAME":"永康區","LI":"復國里","LIN":"18鄰","STREET":"復華六街","SECT":" ","MAREA":" ","LANE":" ","ALLEY":" ","HOUSE_NO":"２７號","E_COORD97":172818.84,"N_COORD97":2545831.7799999998,"ADDRESS":"復華六街２７號","OBJECTID":629907},"geometry":{"x":172818.84000000078,"y":2545831.7799999993}},{"attributes":{"ID":629935,"DIS_CODE":0,"TOWNNAME":"永康區","LI":"復國里","LIN":"18鄰","STREET":"國華街","SECT":" ","MAREA":" ","LANE":" ","ALLEY":" ","HOUSE_NO":"７５號","E_COORD97":172840.45999999999,"N_COORD97":2545789.5899999999,"ADDRESS":"國華街７５號","OBJECTID":629908},"geometry":{"x":172840.46000000089,"y":2545789.5899999999}},{"attributes":{"ID":629936,"DIS_CODE":0,"TOWNNAME":"永康區","LI":"復國里","LIN":"13鄰","STREET":"復華三街","SECT":" ","MAREA":" ","LANE":" ","ALLEY":" ","HOUSE_NO":"１７號","E_COORD97":172895.34,"N_COORD97":2545531.2200000002,"ADDRESS":"復華三街１７號","OBJECTID":629909},"geometry":{"x":172895.34000000078,"y":2545531.2200000007}},{"attributes":{"ID":629937,"DIS_CODE":0,"TOWNNAME":"永康區","LI":"復華里","LIN":"4鄰","STREET":"復國二路","SECT":" ","MAREA":" ","LANE":" ","ALLEY":" ","HOUSE_NO":"２６３號","E_COORD97":173028.70000000001,"N_COORD97":2546169.02,"ADDRESS":"復國二路２６３號","OBJECTID":629910},"geometry":{"x":173028.70000000112,"y":2546169.0199999996}},{"attributes":{"ID":629938,"DIS_CODE":0,"TOWNNAME":"永康區","LI":"網寮里","LIN":"20鄰","STREET":"文化路","SECT":" ","MAREA":" ","LANE":" ","ALLEY":" ","HOUSE_NO":"３７１號","E_COORD97":173347.60000000001,"N_COORD97":2546207.5800000001,"ADDRESS":"文化路３７１號","OBJECTID":629911},"geometry":{"x":173347.60000000056,"y":2546207.5800000019}},{"attributes":{"ID":629939,"DIS_CODE":0,"TOWNNAME":"永康區","LI":"勝利里","LIN":"20鄰","STREET":"勝華街","SECT":" ","MAREA":" ","LANE":" ","ALLEY":" ","HOUSE_NO":"１５６號","E_COORD97":171102.63,"N_COORD97":2545164.5099999998,"ADDRESS":"勝華街１５６號","OBJECTID":629912},"geometry":{"x":171102.63000000175,"y":2545164.5100000016}},{"attributes":{"ID":629940,"DIS_CODE":0,"TOWNNAME":"永康區","LI":"復華里","LIN":"32鄰","STREET":"復國一路","SECT":" ","MAREA":" ","LANE":" ","ALLEY":" ","HOUSE_NO":"５５０號","E_COORD97":172519.44,"N_COORD97":2546276.02,"ADDRESS":"復國一路５５０號","OBJECTID":629913},"geometry":{"x":172519.44000000041,"y":2546276.0200000014}},{"attributes":{"ID":629941,"DIS_CODE":0,"TOWNNAME":"永康區","LI":"復華里","LIN":"32鄰","STREET":"國華街","SECT":" ","MAREA":" ","LANE":" ","ALLEY":" ","HOUSE_NO":"１７２號","E_COORD97":172543.82999999999,"N_COORD97":2546350.2799999998,"ADDRESS":"國華街１７２號","OBJECTID":629914},"geometry":{"x":172543.83000000007,"y":2546350.2799999993}},{"attributes":{"ID":629942,"DIS_CODE":0,"TOWNNAME":"永康區","LI":"復華里","LIN":"39鄰","STREET":"復華六街","SECT":" ","MAREA":" ","LANE":" ","ALLEY":" ","HOUSE_NO":"７２號","E_COORD97":172706.13,"N_COORD97":2545857.1299999999,"ADDRESS":"復華六街７２號","OBJECTID":629915},"geometry":{"x":172706.12999999896,"y":2545857.1300000008}},{"attributes":{"ID":629943,"DIS_CODE":0,"TOWNNAME":"永康區","LI":"復華里","LIN":"39鄰","STREET":"復華六街","SECT":" ","MAREA":" ","LANE":" ","ALLEY":" ","HOUSE_NO":"６４號","E_COORD97":172722.54000000001,"N_COORD97":2545856.6299999999,"ADDRESS":"復華六街６４號","OBJECTID":629916},"geometry":{"x":172722.54000000097,"y":2545856.6300000027}},{"attributes":{"ID":629944,"DIS_CODE":0,"TOWNNAME":"永康區","LI":"勝利里","LIN":"39鄰","STREET":"勝華街","SECT":" ","MAREA":" ","LANE":" ","ALLEY":" ","HOUSE_NO":"４３號","E_COORD97":171416.73000000001,"N_COORD97":2545202.5099999998,"ADDRESS":"勝華街４３號","OBJECTID":629917},"geometry":{"x":171416.73000000138,"y":2545202.5099999998}},{"attributes":{"ID":629945,"DIS_CODE":0,"TOWNNAME":"永康區","LI":"復華里","LIN":"32鄰","STREET":"復國一路","SECT":" ","MAREA":" ","LANE":" ","ALLEY":" ","HOUSE_NO":"５３２號","E_COORD97":172547.54999999999,"N_COORD97":2546240.7799999998,"ADDRESS":"復國一路５３２號","OBJECTID":629918},"geometry":{"x":172547.55000000075,"y":2546240.7799999993}},{"attributes":{"ID":629946,"DIS_CODE":0,"TOWNNAME":"永康區","LI":"復國里","LIN":"18鄰","STREET":"復華六街","SECT":" ","MAREA":" ","LANE":" ","ALLEY":" ","HOUSE_NO":"２５號","E_COORD97":172822.95000000001,"N_COORD97":2545831.5299999998,"ADDRESS":"復華六街２５號","OBJECTID":629919},"geometry":{"x":172822.94999999925,"y":2545831.5300000012}},{"attributes":{"ID":629947,"DIS_CODE":0,"TOWNNAME":"永康區","LI":"復國里","LIN":"13鄰","STREET":"復華三街","SECT":" ","MAREA":" ","LANE":" ","ALLEY":" ","HOUSE_NO":"４９號","E_COORD97":172810.31,"N_COORD97":2545537.0699999998,"ADDRESS":"復華三街４９號","OBJECTID":629920},"geometry":{"x":172810.31000000052,"y":2545537.0700000022}},{"attributes":{"ID":629948,"DIS_CODE":0,"TOWNNAME":"永康區","LI":"復國里","LIN":"15鄰","STREET":"復華五街","SECT":" ","MAREA":" ","LANE":" ","ALLEY":" ","HOUSE_NO":"３號","E_COORD97":172892.35999999999,"N_COORD97":2545691.0600000001,"ADDRESS":"復華五街３號","OBJECTID":629921},"geometry":{"x":172892.36000000127,"y":2545691.0600000005}},{"attributes":{"ID":629949,"DIS_CODE":0,"TOWNNAME":"永康區","LI":"網寮里","LIN":"20鄰","STREET":"文化路","SECT":" ","MAREA":" ","LANE":" ","ALLEY":" ","HOUSE_NO":"３２１號","E_COORD97":173434.69,"N_COORD97":2546141.46,"ADDRESS":"文化路３２１號","OBJECTID":629922},"geometry":{"x":173434.69000000041,"y":2546141.4600000028}},{"attributes":{"ID":629950,"DIS_CODE":0,"TOWNNAME":"永康區","LI":"勝利里","LIN":"20鄰","STREET":"勝學路","SECT":" ","MAREA":" ","LANE":" ","ALLEY":" ","HOUSE_NO":"２６６號","E_COORD97":171209.17999999999,"N_COORD97":2545299.8999999999,"ADDRESS":"勝學路２６６號","OBJECTID":629923},"geometry":{"x":171209.18000000063,"y":2545299.8999999985}},{"attributes":{"ID":629951,"DIS_CODE":0,"TOWNNAME":"永康區","LI":"崑山里","LIN":"24鄰","STREET":"大仁街","SECT":" ","MAREA":" ","LANE":" ","ALLEY":" ","HOUSE_NO":"７６號","E_COORD97":173828.64999999999,"N_COORD97":2544725.8300000001,"ADDRESS":"大仁街７６號","OBJECTID":629924},"geometry":{"x":173828.65000000037,"y":2544725.8300000001}},{"attributes":{"ID":629952,"DIS_CODE":0,"TOWNNAME":"永康區","LI":"復國里","LIN":"4鄰","STREET":"復國一路","SECT":" ","MAREA":" ","LANE":" ","ALLEY":" ","HOUSE_NO":"８２號","E_COORD97":172721.88,"N_COORD97":2544898.9700000002,"ADDRESS":"復國一路８２號","OBJECTID":629925},"geometry":{"x":172721.88000000082,"y":2544898.9700000007}},{"attributes":{"ID":629953,"DIS_CODE":0,"TOWNNAME":"永康區","LI":"崑山里","LIN":"18鄰","STREET":"大灣路","SECT":" ","MAREA":" ","LANE":" ","ALLEY":" ","HOUSE_NO":"９０８號","E_COORD97":173703.97,"N_COORD97":2544443.6299999999,"ADDRESS":"大灣路９０８號","OBJECTID":629926},"geometry":{"x":173703.9700000016,"y":2544443.6300000008}},{"attributes":{"ID":629954,"DIS_CODE":0,"TOWNNAME":"永康區","LI":"勝利里","LIN":"20鄰","STREET":"勝華街","SECT":" ","MAREA":" ","LANE":" ","ALLEY":" ","HOUSE_NO":"１２８號","E_COORD97":171256.22,"N_COORD97":2545220.75,"ADDRESS":"勝華街１２８號","OBJECTID":629927},"geometry":{"x":171256.2200000016,"y":2545220.7500000019}},{"attributes":{"ID":629955,"DIS_CODE":0,"TOWNNAME":"永康區","LI":"崑山里","LIN":"13鄰","STREET":"大灣路","SECT":" ","MAREA":" ","LANE":" ","ALLEY":" ","HOUSE_NO":"９９８號","E_COORD97":173490.34,"N_COORD97":2544398.4399999999,"ADDRESS":"大灣路９９８號","OBJECTID":629928},"geometry":{"x":173490.34000000078,"y":2544398.4400000013}},{"attributes":{"ID":629956,"DIS_CODE":0,"TOWNNAME":"永康區","LI":"復國里","LIN":"18鄰","STREET":"國華街","SECT":" ","MAREA":" ","LANE":" ","ALLEY":" ","HOUSE_NO":"２９號","E_COORD97":172823.81,"N_COORD97":2545667.7400000002,"ADDRESS":"國華街２９號","OBJECTID":629929},"geometry":{"x":172823.81000000052,"y":2545667.7400000021}},{"attributes":{"ID":629957,"DIS_CODE":0,"TOWNNAME":"永康區","LI":"崑山里","LIN":"39鄰","STREET":"崑山街","SECT":" ","MAREA":" ","LANE":" ","ALLEY":" ","HOUSE_NO":"１８６號","E_COORD97":174079.39999999999,"N_COORD97":2544970.73,"ADDRESS":"崑山街１８６號","OBJECTID":629930},"geometry":{"x":174079.40000000037,"y":2544970.7300000023}},{"attributes":{"ID":629958,"DIS_CODE":0,"TOWNNAME":"永康區","LI":"埔園里","LIN":"39鄰","STREET":"永大路","SECT":"三段","MAREA":" ","LANE":" ","ALLEY":" ","HOUSE_NO":"２４３號","E_COORD97":174114.16,"N_COORD97":2548142.1899999999,"ADDRESS":"永大路三段２４３號","OBJECTID":629931},"geometry":{"x":174114.16000000108,"y":2548142.1900000013}},{"attributes":{"ID":629959,"DIS_CODE":0,"TOWNNAME":"永康區","LI":"埔園里","LIN":"18鄰","STREET":"龍埔街","SECT":" ","MAREA":" ","LANE":" ","ALLEY":" ","HOUSE_NO":"４７９號之１","E_COORD97":173476.12,"N_COORD97":2548371.79,"ADDRESS":"龍埔街４７９號之１","OBJECTID":629932},"geometry":{"x":173476.12000000197,"y":2548371.790000001}},{"attributes":{"ID":629960,"DIS_CODE":0,"TOWNNAME":"永康區","LI":"勝利里","LIN":"20鄰","STREET":"勝華街","SECT":" ","MAREA":" ","LANE":" ","ALLEY":" ","HOUSE_NO":"８９號","E_COORD97":171270.07000000001,"N_COORD97":2545205.5099999998,"ADDRESS":"勝華街８９號","OBJECTID":629933},"geometry":{"x":171270.07000000123,"y":2545205.5099999998}},{"attributes":{"ID":629961,"DIS_CODE":0,"TOWNNAME":"永康區","LI":"崑山里","LIN":"39鄰","STREET":"崑山街","SECT":" ","MAREA":" ","LANE":" ","ALLEY":" ","HOUSE_NO":"１８８號","E_COORD97":174081.57999999999,"N_COORD97":2544975.98,"ADDRESS":"崑山街１８８號","OBJECTID":629934},"geometry":{"x":174081.58000000194,"y":2544975.9800000004}},{"attributes":{"ID":629962,"DIS_CODE":0,"TOWNNAME":"永康區","LI":"崑山里","LIN":" ","STREET":"永大路","SECT":"一段","MAREA":" ","LANE":" ","ALLEY":" ","HOUSE_NO":"２５７之５號","E_COORD97":173928.26999999999,"N_COORD97":2544314.6000000001,"ADDRESS":"永大路一段２５７之５號","OBJECTID":629935},"geometry":{"x":173928.26999999955,"y":2544314.5999999978}},{"attributes":{"ID":629963,"DIS_CODE":0,"TOWNNAME":"永康區","LI":"埔園里","LIN":"18鄰","STREET":"龍埔街","SECT":" ","MAREA":" ","LANE":" ","ALLEY":" ","HOUSE_NO":"４７９號","E_COORD97":173465.35000000001,"N_COORD97":2548343.9900000002,"ADDRESS":"龍埔街４７９號","OBJECTID":629936},"geometry":{"x":173465.34999999963,"y":2548343.9900000039}},{"attributes":{"ID":629964,"DIS_CODE":0,"TOWNNAME":"永康區","LI":"勝利里","LIN":"20鄰","STREET":"勝華街","SECT":" ","MAREA":" ","LANE":" ","ALLEY":" ","HOUSE_NO":"１０１號","E_COORD97":171245.84,"N_COORD97":2545204.2599999998,"ADDRESS":"勝華街１０１號","OBJECTID":629937},"geometry":{"x":171245.84000000078,"y":2545204.2599999998}},{"attributes":{"ID":629965,"DIS_CODE":0,"TOWNNAME":"永康區","LI":"\u25A0洲里","LIN":"25鄰","STREET":"中正南路","SECT":" ","MAREA":" ","LANE":" ","ALLEY":" ","HOUSE_NO":"４５７號","E_COORD97":170841.72,"N_COORD97":2548102.9100000001,"ADDRESS":"中正南路４５７號","OBJECTID":629938},"geometry":{"x":170841.71999999974,"y":2548102.9100000001}},{"attributes":{"ID":629966,"DIS_CODE":0,"TOWNNAME":"永康區","LI":"\u25A0行里","LIN":"25鄰","STREET":"\u25A0和街","SECT":" ","MAREA":" ","LANE":" ","ALLEY":" ","HOUSE_NO":"２８１號","E_COORD97":171416.47,"N_COORD97":2548544.29,"ADDRESS":"\u25A0和街２８１號","OBJECTID":629939},"geometry":{"x":171416.46999999974,"y":2548544.2900000028}},{"attributes":{"ID":629967,"DIS_CODE":0,"TOWNNAME":"永康區","LI":"崑山里","LIN":" ","STREET":"永大路","SECT":"一段","MAREA":" ","LANE":" ","ALLEY":" ","HOUSE_NO":"７５號","E_COORD97":173888.39999999999,"N_COORD97":2544085.46,"ADDRESS":"永大路一段７５號","OBJECTID":629940},"geometry":{"x":173888.4000000013,"y":2544085.4600000009}},{"attributes":{"ID":629968,"DIS_CODE":0,"TOWNNAME":"永康區","LI":"大橋里","LIN":" ","STREET":"大橋一街","SECT":" ","MAREA":" ","LANE":" ","ALLEY":" ","HOUSE_NO":"２３３號","E_COORD97":171254.70999999999,"N_COORD97":2546637.25,"ADDRESS":"大橋一街２３３號","OBJECTID":629941},"geometry":{"x":171254.71000000183,"y":2546637.2500000019}},{"attributes":{"ID":629969,"DIS_CODE":0,"TOWNNAME":"永康區","LI":"埔園里","LIN":"18鄰","STREET":"龍埔街","SECT":" ","MAREA":" ","LANE":" ","ALLEY":" ","HOUSE_NO":"４７３號","E_COORD97":173509.64999999999,"N_COORD97":2548370.7400000002,"ADDRESS":"龍埔街４７３號","OBJECTID":629942},"geometry":{"x":173509.65000000037,"y":2548370.7400000021}},{"attributes":{"ID":629970,"DIS_CODE":0,"TOWNNAME":"永康區","LI":"\u25A0行里","LIN":"26鄰","STREET":"中正南路","SECT":" ","MAREA":" ","LANE":" ","ALLEY":" ","HOUSE_NO":"３９２號","E_COORD97":171023.35000000001,"N_COORD97":2548261.1499999999,"ADDRESS":"中正南路３９２號","OBJECTID":629943},"geometry":{"x":171023.35000000056,"y":2548261.1500000004}},{"attributes":{"ID":629971,"DIS_CODE":0,"TOWNNAME":"永康區","LI":"\u25A0行里","LIN":"26鄰","STREET":"中正南路","SECT":" ","MAREA":" ","LANE":" ","ALLEY":" ","HOUSE_NO":"３８０號","E_COORD97":171031.54000000001,"N_COORD97":2548219.3900000001,"ADDRESS":"中正南路３８０號","OBJECTID":629944},"geometry":{"x":171031.54000000004,"y":2548219.3900000043}},{"attributes":{"ID":629972,"DIS_CODE":0,"TOWNNAME":"永康區","LI":"\u25A0洲里","LIN":"25鄰","STREET":"中正南路","SECT":" ","MAREA":" ","LANE":" ","ALLEY":" ","HOUSE_NO":"４５５號","E_COORD97":170838.98000000001,"N_COORD97":2548099.6600000001,"ADDRESS":"中正南路４５５號","OBJECTID":629945},"geometry":{"x":170838.98000000045,"y":2548099.660000002}},{"attributes":{"ID":629973,"DIS_CODE":0,"TOWNNAME":"永康區","LI":"勝利里","LIN":"18鄰","STREET":"勝學路","SECT":" ","MAREA":" ","LANE":" ","ALLEY":" ","HOUSE_NO":"１８６號","E_COORD97":171194.64000000001,"N_COORD97":2545094.0099999998,"ADDRESS":"勝學路１８６號","OBJECTID":629946},"geometry":{"x":171194.6400000006,"y":2545094.0099999998}},{"attributes":{"ID":629974,"DIS_CODE":0,"TOWNNAME":"永康區","LI":"勝利里","LIN":"5鄰","STREET":"勝學路","SECT":" ","MAREA":" ","LANE":" ","ALLEY":" ","HOUSE_NO":"５９號","E_COORD97":171139.17000000001,"N_COORD97":2544732.5,"ADDRESS":"勝學路５９號","OBJECTID":629947},"geometry":{"x":171139.16999999993,"y":2544732.5}},{"attributes":{"ID":629975,"DIS_CODE":0,"TOWNNAME":"永康區","LI":"勝利里","LIN":"15鄰","STREET":"勝利街","SECT":" ","MAREA":" ","LANE":" ","ALLEY":" ","HOUSE_NO":"９３號","E_COORD97":171345.51000000001,"N_COORD97":2544850,"ADDRESS":"勝利街９３號","OBJECTID":629948},"geometry":{"x":171345.50999999978,"y":2544850}},{"attributes":{"ID":629976,"DIS_CODE":0,"TOWNNAME":"官田區","LI":"隆本里","LIN":"20鄰","STREET":"勝利路","SECT":" ","MAREA":" ","LANE":" ","ALLEY":" ","HOUSE_NO":"２０２號","E_COORD97":180166.04000000001,"N_COORD97":2566251.3599999999,"ADDRESS":"勝利路２０２號","OBJECTID":629949},"geometry":{"x":180166.04000000097,"y":2566251.3599999994}},{"attributes":{"ID":629977,"DIS_CODE":0,"TOWNNAME":"官田區","LI":"隆本里","LIN":"20鄰","STREET":"勝利路","SECT":" ","MAREA":" ","LANE":" ","ALLEY":" ","HOUSE_NO":"２０６號","E_COORD97":180165.32999999999,"N_COORD97":2566256.6800000002,"ADDRESS":"勝利路２０６號","OBJECTID":629950},"geometry":{"x":180165.33000000007,"y":2566256.6800000034}},{"attributes":{"ID":629978,"DIS_CODE":0,"TOWNNAME":"官田區","LI":"隆本里","LIN":"20鄰","STREET":"勝利路","SECT":" ","MAREA":" ","LANE":" ","ALLEY":" ","HOUSE_NO":"２０８號","E_COORD97":180164.76999999999,"N_COORD97":2566260.8500000001,"ADDRESS":"勝利路２０８號","OBJECTID":629951},"geometry":{"x":180164.76999999955,"y":2566260.8499999996}},{"attributes":{"ID":629979,"DIS_CODE":0,"TOWNNAME":"官田區","LI":"隆本里","LIN":"20鄰","STREET":"勝利路","SECT":" ","MAREA":" ","LANE":" ","ALLEY":" ","HOUSE_NO":"２１０號","E_COORD97":180137.01000000001,"N_COORD97":2566261.1800000002,"ADDRESS":"勝利路２１０號","OBJECTID":629952},"geometry":{"x":180137.01000000164,"y":2566261.1800000016}},{"attributes":{"ID":629980,"DIS_CODE":0,"TOWNNAME":"官田區","LI":"隆本里","LIN":"20鄰","STREET":"勝利路","SECT":" ","MAREA":" ","LANE":" ","ALLEY":" ","HOUSE_NO":"２１２號","E_COORD97":180162.89000000001,"N_COORD97":2566265.0499999998,"ADDRESS":"勝利路２１２號","OBJECTID":629953},"geometry":{"x":180162.88999999966,"y":2566265.0500000007}},{"attributes":{"ID":629981,"DIS_CODE":0,"TOWNNAME":"官田區","LI":"隆本里","LIN":"20鄰","STREET":"勝利路","SECT":" ","MAREA":" ","LANE":" ","ALLEY":" ","HOUSE_NO":"２１６號","E_COORD97":180159.54000000001,"N_COORD97":2566269.23,"ADDRESS":"勝利路２１６號","OBJECTID":629954},"geometry":{"x":180159.54000000097,"y":2566269.2300000004}},{"attributes":{"ID":629982,"DIS_CODE":0,"TOWNNAME":"官田區","LI":"隆本里","LIN":"20鄰","STREET":"勝利路","SECT":" ","MAREA":" ","LANE":" ","ALLEY":" ","HOUSE_NO":"２１８號","E_COORD97":180157.04000000001,"N_COORD97":2566272.5699999998,"ADDRESS":"勝利路２１８號","OBJECTID":629955},"geometry":{"x":180157.04000000004,"y":2566272.5700000022}},{"attributes":{"ID":629983,"DIS_CODE":0,"TOWNNAME":"官田區","LI":"隆本里","LIN":"20鄰","STREET":"勝利路","SECT":" ","MAREA":" ","LANE":" ","ALLEY":" ","HOUSE_NO":"２２０號","E_COORD97":180153.98999999999,"N_COORD97":2566276.8199999998,"ADDRESS":"勝利路２２０號","OBJECTID":629956},"geometry":{"x":180153.99000000022,"y":2566276.820000004}},{"attributes":{"ID":629984,"DIS_CODE":0,"TOWNNAME":"官田區","LI":"隆本里","LIN":"20鄰","STREET":"勝利路","SECT":" ","MAREA":" ","LANE":" ","ALLEY":" ","HOUSE_NO":"２２２號","E_COORD97":180152.10000000001,"N_COORD97":2566279.98,"ADDRESS":"勝利路２２２號","OBJECTID":629957},"geometry":{"x":180152.10000000056,"y":2566279.9800000023}},{"attributes":{"ID":629985,"DIS_CODE":0,"TOWNNAME":"官田區","LI":"隆田里","LIN":"7鄰","STREET":"勝利路","SECT":" ","MAREA":" ","LANE":" ","ALLEY":" ","HOUSE_NO":"１９號","E_COORD97":179914.78,"N_COORD97":2565871.6899999999,"ADDRESS":"勝利路１９號","OBJECTID":629958},"geometry":{"x":179914.78000000026,"y":2565871.6900000013}},{"attributes":{"ID":629986,"DIS_CODE":0,"TOWNNAME":"官田區","LI":"隆田里","LIN":"7鄰","STREET":"勝利路","SECT":" ","MAREA":" ","LANE":" ","ALLEY":" ","HOUSE_NO":"２１號","E_COORD97":179917.56,"N_COORD97":2565874.0800000001,"ADDRESS":"勝利路２１號","OBJECTID":629959},"geometry":{"x":179917.55999999959,"y":2565874.0800000001}},{"attributes":{"ID":629987,"DIS_CODE":0,"TOWNNAME":"官田區","LI":"隆田里","LIN":"15鄰","STREET":"勝利路","SECT":" ","MAREA":" ","LANE":" ","ALLEY":" ","HOUSE_NO":"１８９號","E_COORD97":180171.22,"N_COORD97":2566298.5899999999,"ADDRESS":"勝利路１８９號","OBJECTID":629960},"geometry":{"x":180171.2200000016,"y":2566298.5900000017}},{"attributes":{"ID":629988,"DIS_CODE":0,"TOWNNAME":"官田區","LI":"隆田里","LIN":"15鄰","STREET":"勝利路","SECT":" ","MAREA":" ","LANE":" ","ALLEY":" ","HOUSE_NO":"２０１號","E_COORD97":180127.17000000001,"N_COORD97":2566358.8500000001,"ADDRESS":"勝利路２０１號","OBJECTID":629961},"geometry":{"x":180127.16999999993,"y":2566358.8500000015}},{"attributes":{"ID":629989,"DIS_CODE":0,"TOWNNAME":"官田區","LI":"隆田里","LIN":"15鄰","STREET":"勝利路","SECT":" ","MAREA":" ","LANE":" ","ALLEY":" ","HOUSE_NO":"２０７號","E_COORD97":180118.89000000001,"N_COORD97":2566370.7000000002,"ADDRESS":"勝利路２０７號","OBJECTID":629962},"geometry":{"x":180118.88999999873,"y":2566370.6999999993}},{"attributes":{"ID":629990,"DIS_CODE":0,"TOWNNAME":"官田區","LI":"隆田里","LIN":"15鄰","STREET":"勝利路","SECT":" ","MAREA":" ","LANE":" ","ALLEY":" ","HOUSE_NO":"２０９號","E_COORD97":180116.16,"N_COORD97":2566374.4100000001,"ADDRESS":"勝利路２０９號","OBJECTID":629963},"geometry":{"x":180116.16000000108,"y":2566374.4100000039}},{"attributes":{"ID":629991,"DIS_CODE":0,"TOWNNAME":"官田區","LI":"隆田里","LIN":"15鄰","STREET":"勝利路","SECT":" ","MAREA":" ","LANE":" ","ALLEY":" ","HOUSE_NO":"２１１號","E_COORD97":180113.53,"N_COORD97":2566378.3500000001,"ADDRESS":"勝利路２１１號","OBJECTID":629964},"geometry":{"x":180113.52999999933,"y":2566378.3500000015}},{"attributes":{"ID":629992,"DIS_CODE":0,"TOWNNAME":"官田區","LI":"隆田里","LIN":"15鄰","STREET":"勝利路","SECT":" ","MAREA":" ","LANE":" ","ALLEY":" ","HOUSE_NO":"２１３號","E_COORD97":180110.72,"N_COORD97":2566382.3199999998,"ADDRESS":"勝利路２１３號","OBJECTID":629965},"geometry":{"x":180110.72000000067,"y":2566382.3200000022}},{"attributes":{"ID":629993,"DIS_CODE":0,"TOWNNAME":"官田區","LI":"隆田里","LIN":"15鄰","STREET":"勝利路","SECT":" ","MAREA":" ","LANE":" ","ALLEY":" ","HOUSE_NO":"２１９號","E_COORD97":180101.54999999999,"N_COORD97":2566396.5600000001,"ADDRESS":"勝利路２１９號","OBJECTID":629966},"geometry":{"x":180101.55000000075,"y":2566396.5600000005}},{"attributes":{"ID":629994,"DIS_CODE":0,"TOWNNAME":"官田區","LI":"隆本里","LIN":"21鄰","STREET":"勝利路","SECT":" ","MAREA":" ","LANE":" ","ALLEY":" ","HOUSE_NO":"１９０號","E_COORD97":180172.28,"N_COORD97":2566231.73,"ADDRESS":"勝利路１９０號","OBJECTID":629967},"geometry":{"x":180172.28000000026,"y":2566231.7300000023}},{"attributes":{"ID":629995,"DIS_CODE":0,"TOWNNAME":"官田區","LI":"隆本里","LIN":"21鄰","STREET":"勝利路","SECT":" ","MAREA":" ","LANE":" ","ALLEY":" ","HOUSE_NO":"１９２號","E_COORD97":180171.14999999999,"N_COORD97":2566237.0600000001,"ADDRESS":"勝利路１９２號","OBJECTID":629968},"geometry":{"x":180171.1500000013,"y":2566237.0600000005}},{"attributes":{"ID":629996,"DIS_CODE":0,"TOWNNAME":"官田區","LI":"隆本里","LIN":"21鄰","STREET":"勝利路","SECT":" ","MAREA":" ","LANE":" ","ALLEY":" ","HOUSE_NO":"１９６號","E_COORD97":180171.07000000001,"N_COORD97":2566241.04,"ADDRESS":"勝利路１９６號","OBJECTID":629969},"geometry":{"x":180171.07000000216,"y":2566241.040000001}},{"attributes":{"ID":629997,"DIS_CODE":0,"TOWNNAME":"官田區","LI":"隆本里","LIN":"27鄰","STREET":"勝利路","SECT":" ","MAREA":" ","LANE":" ","ALLEY":" ","HOUSE_NO":"１８號","E_COORD97":179877.07999999999,"N_COORD97":2565875.4300000002,"ADDRESS":"勝利路１８號","OBJECTID":629970},"geometry":{"x":179877.08000000007,"y":2565875.4300000034}},{"attributes":{"ID":629998,"DIS_CODE":0,"TOWNNAME":"官田區","LI":"隆本里","LIN":"27鄰","STREET":"勝利路","SECT":" ","MAREA":" ","LANE":" ","ALLEY":" ","HOUSE_NO":"２０號","E_COORD97":179880.48999999999,"N_COORD97":2565878.6099999999,"ADDRESS":"勝利路２０號","OBJECTID":629971},"geometry":{"x":179880.49000000115,"y":2565878.6100000013}},{"attributes":{"ID":629999,"DIS_CODE":0,"TOWNNAME":"官田區","LI":"隆本里","LIN":"27鄰","STREET":"勝利路","SECT":" ","MAREA":" ","LANE":" ","ALLEY":" ","HOUSE_NO":"２２號","E_COORD97":179883.23999999999,"N_COORD97":2565881.4700000002,"ADDRESS":"勝利路２２號","OBJECTID":629972},"geometry":{"x":179883.24000000209,"y":2565881.4700000007}},{"attributes":{"ID":630000,"DIS_CODE":0,"TOWNNAME":"白河區","LI":"白河里","LIN":"13鄰","STREET":"中山路","SECT":" ","MAREA":" ","LANE":" ","ALLEY":" ","HOUSE_NO":"１００號","E_COORD97":190258.79999999999,"N_COORD97":2583200.54,"ADDRESS":"中山路１００號","OBJECTID":629973},"geometry":{"x":190258.80000000168,"y":2583200.540000001}},{"attributes":{"ID":630001,"DIS_CODE":0,"TOWNNAME":"白河區","LI":"白河里","LIN":"13鄰","STREET":"中山路","SECT":" ","MAREA":" ","LANE":" ","ALLEY":" ","HOUSE_NO":"１０２號","E_COORD97":190261.26000000001,"N_COORD97":2583205.2799999998,"ADDRESS":"中山路１０２號","OBJECTID":629974},"geometry":{"x":190261.26000000071,"y":2583205.2800000012}},{"attributes":{"ID":630002,"DIS_CODE":0,"TOWNNAME":"白河區","LI":"永安里","LIN":"13鄰","STREET":"中山路","SECT":" ","MAREA":" ","LANE":" ","ALLEY":" ","HOUSE_NO":"１３３之１號","E_COORD97":190357.85999999999,"N_COORD97":2583373.8500000001,"ADDRESS":"中山路１３３之１號","OBJECTID":629975},"geometry":{"x":190357.86000000127,"y":2583373.8500000034}},{"attributes":{"ID":630003,"DIS_CODE":0,"TOWNNAME":"白河區","LI":"永安里","LIN":"13鄰","STREET":"中山路","SECT":" ","MAREA":" ","LANE":" ","ALLEY":" ","HOUSE_NO":"１３３之２號","E_COORD97":190360.32000000001,"N_COORD97":2583378.5299999998,"ADDRESS":"中山路１３３之２號","OBJECTID":629976},"geometry":{"x":190360.3200000003,"y":2583378.5299999993}},{"attributes":{"ID":630004,"DIS_CODE":0,"TOWNNAME":"白河區","LI":"永安里","LIN":"13鄰","STREET":"中山路","SECT":" ","MAREA":" ","LANE":" ","ALLEY":" ","HOUSE_NO":"１３３號","E_COORD97":190355.26000000001,"N_COORD97":2583370.5299999998,"ADDRESS":"中山路１３３號","OBJECTID":629977},"geometry":{"x":190355.25999999978,"y":2583370.5299999993}},{"attributes":{"ID":630005,"DIS_CODE":0,"TOWNNAME":"白河區","LI":"永安里","LIN":"13鄰","STREET":"中山路","SECT":" ","MAREA":" ","LANE":" ","ALLEY":" ","HOUSE_NO":"１３５號","E_COORD97":190360.98999999999,"N_COORD97":2583382.3599999999,"ADDRESS":"中山路１３５號","OBJECTID":629978},"geometry":{"x":190360.99000000022,"y":2583382.3599999994}},{"attributes":{"ID":630006,"DIS_CODE":0,"TOWNNAME":"白河區","LI":"永安里","LIN":"13鄰","STREET":"中山路","SECT":" ","MAREA":" ","LANE":" ","ALLEY":" ","HOUSE_NO":"１３７之１號","E_COORD97":190365.31,"N_COORD97":2583388.3300000001,"ADDRESS":"中山路１３７之１號","OBJECTID":629979},"geometry":{"x":190365.31000000145,"y":2583388.3300000019}},{"attributes":{"ID":630007,"DIS_CODE":0,"TOWNNAME":"白河區","LI":"永安里","LIN":"13鄰","STREET":"中山路","SECT":" ","MAREA":" ","LANE":" ","ALLEY":" ","HOUSE_NO":"１３７號","E_COORD97":190362.95000000001,"N_COORD97":2583385.54,"ADDRESS":"中山路１３７號","OBJECTID":629980},"geometry":{"x":190362.95000000019,"y":2583385.5400000028}},{"attributes":{"ID":630008,"DIS_CODE":0,"TOWNNAME":"白河區","LI":"永安里","LIN":"13鄰","STREET":"中山路","SECT":" ","MAREA":" ","LANE":" ","ALLEY":" ","HOUSE_NO":"１３９之２號","E_COORD97":190373.69,"N_COORD97":2583394.1400000001,"ADDRESS":"中山路１３９之２號","OBJECTID":629981},"geometry":{"x":190373.69000000227,"y":2583394.1400000025}},{"attributes":{"ID":630009,"DIS_CODE":0,"TOWNNAME":"白河區","LI":"永安里","LIN":"13鄰","STREET":"中山路","SECT":" ","MAREA":" ","LANE":" ","ALLEY":" ","HOUSE_NO":"１３９號","E_COORD97":190370.98000000001,"N_COORD97":2583390.0600000001,"ADDRESS":"中山路１３９號","OBJECTID":629982},"geometry":{"x":190370.98000000045,"y":2583390.0600000042}},{"attributes":{"ID":630010,"DIS_CODE":0,"TOWNNAME":"白河區","LI":"永安里","LIN":"14鄰","STREET":"中山路","SECT":" ","MAREA":" ","LANE":" ","ALLEY":" ","HOUSE_NO":"１４３號","E_COORD97":190389.32000000001,"N_COORD97":2583413.8500000001,"ADDRESS":"中山路１４３號","OBJECTID":629983},"geometry":{"x":190389.3200000003,"y":2583413.8499999996}},{"attributes":{"ID":630011,"DIS_CODE":0,"TOWNNAME":"白河區","LI":"永安里","LIN":"14鄰","STREET":"中山路","SECT":" ","MAREA":" ","LANE":" ","ALLEY":" ","HOUSE_NO":"１４５號","E_COORD97":190392.64999999999,"N_COORD97":2583420.8999999999,"ADDRESS":"中山路１４５號","OBJECTID":629984},"geometry":{"x":190392.65000000224,"y":2583420.9000000004}},{"attributes":{"ID":630012,"DIS_CODE":0,"TOWNNAME":"白河區","LI":"永安里","LIN":"14鄰","STREET":"中山路","SECT":" ","MAREA":" ","LANE":" ","ALLEY":" ","HOUSE_NO":"１４９號","E_COORD97":190396.26999999999,"N_COORD97":2583428.3599999999,"ADDRESS":"中山路１４９號","OBJECTID":629985},"geometry":{"x":190396.27000000048,"y":2583428.3600000013}},{"attributes":{"ID":630013,"DIS_CODE":0,"TOWNNAME":"白河區","LI":"永安里","LIN":"14鄰","STREET":"中山路","SECT":" ","MAREA":" ","LANE":" ","ALLEY":" ","HOUSE_NO":"１５１號","E_COORD97":190398.63,"N_COORD97":2583431.4199999999,"ADDRESS":"中山路１５１號","OBJECTID":629986},"geometry":{"x":190398.62999999989,"y":2583431.4200000018}},{"attributes":{"ID":630014,"DIS_CODE":0,"TOWNNAME":"白河區","LI":"永安里","LIN":"14鄰","STREET":"中山路","SECT":" ","MAREA":" ","LANE":" ","ALLEY":" ","HOUSE_NO":"１５３號","E_COORD97":190400.35000000001,"N_COORD97":2583435.0899999999,"ADDRESS":"中山路１５３號","OBJECTID":629987},"geometry":{"x":190400.34999999963,"y":2583435.0899999999}},{"attributes":{"ID":630015,"DIS_CODE":0,"TOWNNAME":"白河區","LI":"永安里","LIN":"14鄰","STREET":"中山路","SECT":" ","MAREA":" ","LANE":" ","ALLEY":" ","HOUSE_NO":"１５９號","E_COORD97":190412.72,"N_COORD97":2583480.9500000002,"ADDRESS":"中山路１５９號","OBJECTID":629988},"geometry":{"x":190412.71999999974,"y":2583480.950000003}},{"attributes":{"ID":630016,"DIS_CODE":0,"TOWNNAME":"白河區","LI":"永安里","LIN":"14鄰","STREET":"中山路","SECT":" ","MAREA":" ","LANE":" ","ALLEY":" ","HOUSE_NO":"１６１號","E_COORD97":190415.26000000001,"N_COORD97":2583484.5,"ADDRESS":"中山路１６１號","OBJECTID":629989},"geometry":{"x":190415.26000000071,"y":2583484.5}},{"attributes":{"ID":630017,"DIS_CODE":0,"TOWNNAME":"白河區","LI":"永安里","LIN":"14鄰","STREET":"中山路","SECT":" ","MAREA":" ","LANE":" ","ALLEY":" ","HOUSE_NO":"１６３號","E_COORD97":190418.79999999999,"N_COORD97":2583488.0899999999,"ADDRESS":"中山路１６３號","OBJECTID":629990},"geometry":{"x":190418.80000000075,"y":2583488.0900000017}},{"attributes":{"ID":630018,"DIS_CODE":0,"TOWNNAME":"白河區","LI":"永安里","LIN":"14鄰","STREET":"中山路","SECT":" ","MAREA":" ","LANE":" ","ALLEY":" ","HOUSE_NO":"１６５號","E_COORD97":190422.12,"N_COORD97":2583491.5600000001,"ADDRESS":"中山路１６５號","OBJECTID":629991},"geometry":{"x":190422.12000000104,"y":2583491.5599999987}},{"attributes":{"ID":630019,"DIS_CODE":0,"TOWNNAME":"白河區","LI":"白河里","LIN":"13鄰","STREET":"中山路","SECT":" ","MAREA":" ","LANE":" ","ALLEY":" ","HOUSE_NO":"８８號","E_COORD97":190238.35999999999,"N_COORD97":2583175.6000000001,"ADDRESS":"中山路８８號","OBJECTID":629992},"geometry":{"x":190238.36000000034,"y":2583175.6000000015}},{"attributes":{"ID":630020,"DIS_CODE":0,"TOWNNAME":"白河區","LI":"白河里","LIN":"13鄰","STREET":"中山路","SECT":" ","MAREA":" ","LANE":" ","ALLEY":" ","HOUSE_NO":"９０號","E_COORD97":190240.70999999999,"N_COORD97":2583178.9700000002,"ADDRESS":"中山路９０號","OBJECTID":629993},"geometry":{"x":190240.70999999903,"y":2583178.9700000007}},{"attributes":{"ID":630021,"DIS_CODE":0,"TOWNNAME":"白河區","LI":"白河里","LIN":"13鄰","STREET":"中山路","SECT":" ","MAREA":" ","LANE":" ","ALLEY":" ","HOUSE_NO":"９２號","E_COORD97":190254.85999999999,"N_COORD97":2583171.6800000002,"ADDRESS":"中山路９２號","OBJECTID":629994},"geometry":{"x":190254.86000000034,"y":2583171.6800000034}},{"attributes":{"ID":630022,"DIS_CODE":0,"TOWNNAME":"白河區","LI":"白河里","LIN":"13鄰","STREET":"中山路","SECT":" ","MAREA":" ","LANE":" ","ALLEY":" ","HOUSE_NO":"９４號","E_COORD97":190252.60999999999,"N_COORD97":2583186.21,"ADDRESS":"中山路９４號","OBJECTID":629995},"geometry":{"x":190252.61000000127,"y":2583186.2100000046}},{"attributes":{"ID":630023,"DIS_CODE":0,"TOWNNAME":"白河區","LI":"白河里","LIN":"13鄰","STREET":"中山路","SECT":" ","MAREA":" ","LANE":" ","ALLEY":" ","HOUSE_NO":"９６號","E_COORD97":190254.10999999999,"N_COORD97":2583190.7799999998,"ADDRESS":"中山路９６號","OBJECTID":629996},"geometry":{"x":190254.11000000127,"y":2583190.7800000031}},{"attributes":{"ID":630024,"DIS_CODE":0,"TOWNNAME":"白河區","LI":"白河里","LIN":"13鄰","STREET":"中山路","SECT":" ","MAREA":" ","LANE":" ","ALLEY":" ","HOUSE_NO":"９８號","E_COORD97":190256.56,"N_COORD97":2583196.3199999998,"ADDRESS":"中山路９８號","OBJECTID":629997},"geometry":{"x":190256.55999999959,"y":2583196.3200000022}},{"attributes":{"ID":630025,"DIS_CODE":0,"TOWNNAME":"白河區","LI":"白河里","LIN":"1鄰","STREET":"中山路","SECT":" ","MAREA":" ","LANE":" ","ALLEY":" ","HOUSE_NO":"８號","E_COORD97":190106.56,"N_COORD97":2582906.1800000002,"ADDRESS":"中山路８號","OBJECTID":629998},"geometry":{"x":190106.56000000052,"y":2582906.1799999997}},{"attributes":{"ID":630026,"DIS_CODE":0,"TOWNNAME":"白河區","LI":"永安里","LIN":"1鄰","STREET":"中山路","SECT":" ","MAREA":" ","LANE":" ","ALLEY":" ","HOUSE_NO":"９號","E_COORD97":190122.98999999999,"N_COORD97":2582971.7799999998,"ADDRESS":"中山路９號","OBJECTID":629999},"geometry":{"x":190122.99000000115,"y":2582971.7800000012}},{"attributes":{"ID":630027,"DIS_CODE":0,"TOWNNAME":"白河區","LI":"永安里","LIN":"6鄰","STREET":"中正路","SECT":" ","MAREA":" ","LANE":" ","ALLEY":" ","HOUSE_NO":"１０１號","E_COORD97":189905.12,"N_COORD97":2583098.9100000001,"ADDRESS":"中正路１０１號","OBJECTID":630000},"geometry":{"x":189905.12000000011,"y":2583098.9099999983}}]}