{"displayFieldName":"TOWNNAME","fieldAliases":{"ID":"ID","DIS_CODE":"DIS_CODE","TOWNNAME":"TOWNNAME","LI":"LI","LIN":"LIN","STREET":"STREET","SECT":"SECT","MAREA":"MAREA","LANE":"LANE","ALLEY":"ALLEY","HOUSE_NO":"HOUSE_NO","E_COORD97":"E_COORD97","N_COORD97":"N_COORD97","ADDRESS":"ADDRESS","OBJECTID":"OBJECTID"},"geometryType":"esriGeometryPoint","spatialReference":{"wkid":102443,"latestWkid":3826},"fields":[{"name":"ID","type":"esriFieldTypeDouble","alias":"ID"},{"name":"DIS_CODE","type":"esriFieldTypeInteger","alias":"DIS_CODE"},{"name":"TOWNNAME","type":"esriFieldTypeString","alias":"TOWNNAME","length":8},{"name":"LI","type":"esriFieldTypeString","alias":"LI","length":8},{"name":"LIN","type":"esriFieldTypeString","alias":"LIN","length":12},{"name":"STREET","type":"esriFieldTypeString","alias":"STREET","length":20},{"name":"SECT","type":"esriFieldTypeString","alias":"SECT","length":8},{"name":"MAREA","type":"esriFieldTypeString","alias":"MAREA","length":12},{"name":"LANE","type":"esriFieldTypeString","alias":"LANE","length":10},{"name":"ALLEY","type":"esriFieldTypeString","alias":"ALLEY","length":10},{"name":"HOUSE_NO","type":"esriFieldTypeString","alias":"HOUSE_NO","length":20},{"name":"E_COORD97","type":"esriFieldTypeDouble","alias":"E_COORD97"},{"name":"N_COORD97","type":"esriFieldTypeDouble","alias":"N_COORD97"},{"name":"ADDRESS","type":"esriFieldTypeString","alias":"ADDRESS","length":50},{"name":"OBJECTID","type":"esriFieldTypeOID","alias":"OBJECTID"}],"features":[{"attributes":{"ID":523028,"DIS_CODE":0,"TOWNNAME":"安南區","LI":"頂安里","LIN":"6鄰","STREET":"怡安路","SECT":"一段","MAREA":" ","LANE":" ","ALLEY":" ","HOUSE_NO":"３７６號","E_COORD97":168751.70999999999,"N_COORD97":2549171.3199999998,"ADDRESS":"怡安路一段３７６號","OBJECTID":523001},"geometry":{"x":168751.71000000089,"y":2549171.3200000003}},{"attributes":{"ID":523029,"DIS_CODE":0,"TOWNNAME":"東區","LI":"裕聖里","LIN":"6鄰","STREET":"裕信路","SECT":" ","MAREA":" ","LANE":" ","ALLEY":" ","HOUSE_NO":"３８０之１號","E_COORD97":172582.95000000001,"N_COORD97":2542140.6000000001,"ADDRESS":"裕信路３８０之１號","OBJECTID":523002},"geometry":{"x":172582.95000000112,"y":2542140.5999999996}},{"attributes":{"ID":523030,"DIS_CODE":0,"TOWNNAME":"東區","LI":"裕聖里","LIN":"6鄰","STREET":"裕信路","SECT":" ","MAREA":" ","LANE":" ","ALLEY":" ","HOUSE_NO":"３８０號","E_COORD97":172583.35999999999,"N_COORD97":2542146.8100000001,"ADDRESS":"裕信路３８０號","OBJECTID":523003},"geometry":{"x":172583.36000000127,"y":2542146.8100000005}},{"attributes":{"ID":523031,"DIS_CODE":0,"TOWNNAME":"東區","LI":"裕聖里","LIN":"6鄰","STREET":"裕敬一街","SECT":" ","MAREA":" ","LANE":" ","ALLEY":" ","HOUSE_NO":"１１號","E_COORD97":172553.48999999999,"N_COORD97":2542210.6600000001,"ADDRESS":"裕敬一街１１號","OBJECTID":523004},"geometry":{"x":172553.49000000115,"y":2542210.660000002}},{"attributes":{"ID":523032,"DIS_CODE":0,"TOWNNAME":"東區","LI":"裕聖里","LIN":"6鄰","STREET":"裕敬一街","SECT":" ","MAREA":" ","LANE":" ","ALLEY":" ","HOUSE_NO":"１３號","E_COORD97":172553.66,"N_COORD97":2542205.2599999998,"ADDRESS":"裕敬一街１３號","OBJECTID":523005},"geometry":{"x":172553.65999999922,"y":2542205.2600000035}},{"attributes":{"ID":523033,"DIS_CODE":0,"TOWNNAME":"東區","LI":"裕聖里","LIN":"6鄰","STREET":"裕敬一街","SECT":" ","MAREA":" ","LANE":" ","ALLEY":" ","HOUSE_NO":"１５號","E_COORD97":172553.60000000001,"N_COORD97":2542199.8199999998,"ADDRESS":"裕敬一街１５號","OBJECTID":523006},"geometry":{"x":172553.60000000149,"y":2542199.8200000022}},{"attributes":{"ID":523034,"DIS_CODE":0,"TOWNNAME":"東區","LI":"裕聖里","LIN":"6鄰","STREET":"裕敬一街","SECT":" ","MAREA":" ","LANE":" ","ALLEY":" ","HOUSE_NO":"３７號","E_COORD97":172554.67999999999,"N_COORD97":2542130.1899999999,"ADDRESS":"裕敬一街３７號","OBJECTID":523007},"geometry":{"x":172554.6799999997,"y":2542130.1899999995}},{"attributes":{"ID":523035,"DIS_CODE":0,"TOWNNAME":"東區","LI":"裕聖里","LIN":"6鄰","STREET":"裕敬一街","SECT":" ","MAREA":" ","LANE":" ","ALLEY":" ","HOUSE_NO":"５０號","E_COORD97":172529.94,"N_COORD97":2542095.8199999998,"ADDRESS":"裕敬一街５０號","OBJECTID":523008},"geometry":{"x":172529.94000000041,"y":2542095.8200000003}},{"attributes":{"ID":523036,"DIS_CODE":0,"TOWNNAME":"東區","LI":"裕聖里","LIN":"6鄰","STREET":"裕敬一街","SECT":" ","MAREA":" ","LANE":" ","ALLEY":" ","HOUSE_NO":"５２號","E_COORD97":172531.07999999999,"N_COORD97":2542086.5299999998,"ADDRESS":"裕敬一街５２號","OBJECTID":523009},"geometry":{"x":172531.08000000101,"y":2542086.5299999993}},{"attributes":{"ID":523037,"DIS_CODE":0,"TOWNNAME":"東區","LI":"泉南里","LIN":"6鄰","STREET":"東門路","SECT":"一段","MAREA":" ","LANE":" ","ALLEY":" ","HOUSE_NO":"１０８號","E_COORD97":169421.85999999999,"N_COORD97":2543171.8799999999,"ADDRESS":"東門路一段１０８號","OBJECTID":523010},"geometry":{"x":169421.86000000127,"y":2543171.879999999}},{"attributes":{"ID":523038,"DIS_CODE":0,"TOWNNAME":"東區","LI":"泉南里","LIN":"6鄰","STREET":"東門路","SECT":"一段","MAREA":" ","LANE":" ","ALLEY":" ","HOUSE_NO":"１１０號","E_COORD97":169425.73000000001,"N_COORD97":2543170.46,"ADDRESS":"東門路一段１１０號","OBJECTID":523011},"geometry":{"x":169425.73000000045,"y":2543170.4600000009}},{"attributes":{"ID":523039,"DIS_CODE":0,"TOWNNAME":"東區","LI":"德光里","LIN":"5鄰","STREET":"崇德路","SECT":" ","MAREA":" ","LANE":" ","ALLEY":" ","HOUSE_NO":"９６號","E_COORD97":169868.14999999999,"N_COORD97":2542305.8900000001,"ADDRESS":"崇德路９６號","OBJECTID":523012},"geometry":{"x":169868.15000000037,"y":2542305.8900000006}},{"attributes":{"ID":523040,"DIS_CODE":0,"TOWNNAME":"東區","LI":"德光里","LIN":"20鄰","STREET":"崇明路","SECT":" ","MAREA":" ","LANE":" ","ALLEY":" ","HOUSE_NO":"１３５號","E_COORD97":169841.12,"N_COORD97":2542216.54,"ADDRESS":"崇明路１３５號","OBJECTID":523013},"geometry":{"x":169841.12000000011,"y":2542216.540000001}},{"attributes":{"ID":523041,"DIS_CODE":0,"TOWNNAME":"東區","LI":"德光里","LIN":"20鄰","STREET":"崇明路","SECT":" ","MAREA":" ","LANE":" ","ALLEY":" ","HOUSE_NO":"１３７號","E_COORD97":169845.45999999999,"N_COORD97":2542218.1600000001,"ADDRESS":"崇明路１３７號","OBJECTID":523014},"geometry":{"x":169845.45999999996,"y":2542218.1600000001}},{"attributes":{"ID":523042,"DIS_CODE":0,"TOWNNAME":"南區","LI":"文南里","LIN":"13鄰","STREET":"育南街","SECT":" ","MAREA":" ","LANE":" ","ALLEY":" ","HOUSE_NO":"６５號","E_COORD97":166863.22,"N_COORD97":2542719.3799999999,"ADDRESS":"育南街６５號","OBJECTID":523015},"geometry":{"x":166863.21999999974,"y":2542719.3800000008}},{"attributes":{"ID":523043,"DIS_CODE":0,"TOWNNAME":"東區","LI":"德光里","LIN":"1鄰","STREET":"崇德路","SECT":" ","MAREA":" ","LANE":" ","ALLEY":" ","HOUSE_NO":"６號","E_COORD97":169748.66,"N_COORD97":2542525.8399999999,"ADDRESS":"崇德路６號","OBJECTID":523016},"geometry":{"x":169748.66000000108,"y":2542525.8399999999}},{"attributes":{"ID":523044,"DIS_CODE":0,"TOWNNAME":"東區","LI":"德光里","LIN":"1鄰","STREET":"崇德路","SECT":" ","MAREA":" ","LANE":" ","ALLEY":" ","HOUSE_NO":"８號","E_COORD97":169749.82000000001,"N_COORD97":2542521.6600000001,"ADDRESS":"崇德路８號","OBJECTID":523017},"geometry":{"x":169749.82000000123,"y":2542521.660000002}},{"attributes":{"ID":523045,"DIS_CODE":0,"TOWNNAME":"東區","LI":"德光里","LIN":"6鄰","STREET":"崇明路","SECT":" ","MAREA":" ","LANE":" ","ALLEY":" ","HOUSE_NO":"１３９號","E_COORD97":169868.14999999999,"N_COORD97":2542224.8999999999,"ADDRESS":"崇明路１３９號","OBJECTID":523018},"geometry":{"x":169868.15000000037,"y":2542224.9000000041}},{"attributes":{"ID":523046,"DIS_CODE":0,"TOWNNAME":"麻豆區","LI":"保安里","LIN":"6鄰","STREET":"興中路","SECT":" ","MAREA":" ","LANE":" ","ALLEY":" ","HOUSE_NO":"９１號","E_COORD97":173268.81,"N_COORD97":2564830.52,"ADDRESS":"興中路９１號","OBJECTID":523019},"geometry":{"x":173268.80999999959,"y":2564830.5200000033}},{"attributes":{"ID":523047,"DIS_CODE":0,"TOWNNAME":"麻豆區","LI":"保安里","LIN":"6鄰","STREET":"興中路","SECT":" ","MAREA":" ","LANE":" ","ALLEY":" ","HOUSE_NO":"９３號","E_COORD97":173272.51000000001,"N_COORD97":2564830.6600000001,"ADDRESS":"興中路９３號","OBJECTID":523020},"geometry":{"x":173272.50999999978,"y":2564830.660000002}},{"attributes":{"ID":523048,"DIS_CODE":0,"TOWNNAME":"麻豆區","LI":"保安里","LIN":"6鄰","STREET":"興中路","SECT":" ","MAREA":" ","LANE":" ","ALLEY":" ","HOUSE_NO":"９５號","E_COORD97":173276.66,"N_COORD97":2564830.6200000001,"ADDRESS":"興中路９５號","OBJECTID":523021},"geometry":{"x":173276.66000000108,"y":2564830.620000001}},{"attributes":{"ID":523049,"DIS_CODE":0,"TOWNNAME":"麻豆區","LI":"保安里","LIN":"6鄰","STREET":"興中路","SECT":" ","MAREA":" ","LANE":" ","ALLEY":" ","HOUSE_NO":"９７號","E_COORD97":173280.63,"N_COORD97":2564830.73,"ADDRESS":"興中路９７號","OBJECTID":523022},"geometry":{"x":173280.62999999989,"y":2564830.7300000023}},{"attributes":{"ID":523050,"DIS_CODE":0,"TOWNNAME":"麻豆區","LI":"保安里","LIN":"6鄰","STREET":"興中路","SECT":" ","MAREA":" ","LANE":" ","ALLEY":" ","HOUSE_NO":"９９號","E_COORD97":173284.54000000001,"N_COORD97":2564830.7599999998,"ADDRESS":"興中路９９號","OBJECTID":523023},"geometry":{"x":173284.54000000004,"y":2564830.7599999998}},{"attributes":{"ID":523051,"DIS_CODE":0,"TOWNNAME":"白河區","LI":"外角里","LIN":"6鄰","STREET":"光明街","SECT":" ","MAREA":" ","LANE":" ","ALLEY":" ","HOUSE_NO":"１０號","E_COORD97":190556.72,"N_COORD97":2583299.6400000001,"ADDRESS":"光明街１０號","OBJECTID":523024},"geometry":{"x":190556.71999999974,"y":2583299.6400000025}},{"attributes":{"ID":523052,"DIS_CODE":0,"TOWNNAME":"白河區","LI":"外角里","LIN":"6鄰","STREET":"光明街","SECT":" ","MAREA":" ","LANE":" ","ALLEY":" ","HOUSE_NO":"１１之１號","E_COORD97":190533.5,"N_COORD97":2583285.1099999999,"ADDRESS":"光明街１１之１號","OBJECTID":523025},"geometry":{"x":190533.5,"y":2583285.1100000013}},{"attributes":{"ID":523053,"DIS_CODE":0,"TOWNNAME":"白河區","LI":"外角里","LIN":"6鄰","STREET":"光明街","SECT":" ","MAREA":" ","LANE":" ","ALLEY":" ","HOUSE_NO":"１１號","E_COORD97":190533.23000000001,"N_COORD97":2583281.9100000001,"ADDRESS":"光明街１１號","OBJECTID":523026},"geometry":{"x":190533.23000000138,"y":2583281.9100000001}},{"attributes":{"ID":523054,"DIS_CODE":0,"TOWNNAME":"白河區","LI":"外角里","LIN":"6鄰","STREET":"光明街","SECT":" ","MAREA":" ","LANE":" ","ALLEY":" ","HOUSE_NO":"１２號","E_COORD97":190557.12,"N_COORD97":2583303.4399999999,"ADDRESS":"光明街１２號","OBJECTID":523027},"geometry":{"x":190557.12000000104,"y":2583303.4399999995}},{"attributes":{"ID":523055,"DIS_CODE":0,"TOWNNAME":"白河區","LI":"外角里","LIN":"6鄰","STREET":"光明街","SECT":" ","MAREA":" ","LANE":" ","ALLEY":" ","HOUSE_NO":"１４號","E_COORD97":190557.72,"N_COORD97":2583318.4100000001,"ADDRESS":"光明街１４號","OBJECTID":523028},"geometry":{"x":190557.72000000067,"y":2583318.4100000001}},{"attributes":{"ID":523056,"DIS_CODE":0,"TOWNNAME":"白河區","LI":"外角里","LIN":"6鄰","STREET":"光明街","SECT":" ","MAREA":" ","LANE":" ","ALLEY":" ","HOUSE_NO":"１５號","E_COORD97":190533.66,"N_COORD97":2583289.0600000001,"ADDRESS":"光明街１５號","OBJECTID":523029},"geometry":{"x":190533.66000000108,"y":2583289.0600000024}},{"attributes":{"ID":523057,"DIS_CODE":0,"TOWNNAME":"東區","LI":"德光里","LIN":"5鄰","STREET":"崇德路","SECT":" ","MAREA":" ","LANE":" ","ALLEY":" ","HOUSE_NO":"９８號","E_COORD97":169871.17000000001,"N_COORD97":2542303.73,"ADDRESS":"崇德路９８號","OBJECTID":523030},"geometry":{"x":169871.16999999993,"y":2542303.7300000004}},{"attributes":{"ID":523058,"DIS_CODE":0,"TOWNNAME":"南區","LI":"文南里","LIN":"13鄰","STREET":"文南路","SECT":" ","MAREA":" ","LANE":" ","ALLEY":" ","HOUSE_NO":"１１號","E_COORD97":166912.10000000001,"N_COORD97":2542555.25,"ADDRESS":"文南路１１號","OBJECTID":523031},"geometry":{"x":166912.10000000149,"y":2542555.2500000019}},{"attributes":{"ID":523059,"DIS_CODE":0,"TOWNNAME":"白河區","LI":"外角里","LIN":"6鄰","STREET":"光明街","SECT":" ","MAREA":" ","LANE":" ","ALLEY":" ","HOUSE_NO":"１６號","E_COORD97":190558.70000000001,"N_COORD97":2583322.8999999999,"ADDRESS":"光明街１６號","OBJECTID":523032},"geometry":{"x":190558.70000000112,"y":2583322.9000000004}},{"attributes":{"ID":523060,"DIS_CODE":0,"TOWNNAME":"白河區","LI":"外角里","LIN":"6鄰","STREET":"光明街","SECT":" ","MAREA":" ","LANE":" ","ALLEY":" ","HOUSE_NO":"１８號","E_COORD97":190559.10999999999,"N_COORD97":2583326.54,"ADDRESS":"光明街１８號","OBJECTID":523033},"geometry":{"x":190559.11000000127,"y":2583326.5399999991}},{"attributes":{"ID":523061,"DIS_CODE":0,"TOWNNAME":"白河區","LI":"外角里","LIN":"6鄰","STREET":"光明街","SECT":" ","MAREA":" ","LANE":" ","ALLEY":" ","HOUSE_NO":"１９號","E_COORD97":190535.20000000001,"N_COORD97":2583296.8100000001,"ADDRESS":"光明街１９號","OBJECTID":523034},"geometry":{"x":190535.20000000112,"y":2583296.8100000042}},{"attributes":{"ID":523062,"DIS_CODE":0,"TOWNNAME":"白河區","LI":"外角里","LIN":"6鄰","STREET":"光明街","SECT":" ","MAREA":" ","LANE":" ","ALLEY":" ","HOUSE_NO":"２０號","E_COORD97":190559.54000000001,"N_COORD97":2583331.04,"ADDRESS":"光明街２０號","OBJECTID":523035},"geometry":{"x":190559.54000000097,"y":2583331.0400000028}},{"attributes":{"ID":523063,"DIS_CODE":0,"TOWNNAME":"白河區","LI":"外角里","LIN":"6鄰","STREET":"光明街","SECT":" ","MAREA":" ","LANE":" ","ALLEY":" ","HOUSE_NO":"２１號","E_COORD97":190533.89999999999,"N_COORD97":2583301.29,"ADDRESS":"光明街２１號","OBJECTID":523036},"geometry":{"x":190533.9000000013,"y":2583301.2899999991}},{"attributes":{"ID":523064,"DIS_CODE":0,"TOWNNAME":"白河區","LI":"外角里","LIN":"6鄰","STREET":"光明街","SECT":" ","MAREA":" ","LANE":" ","ALLEY":" ","HOUSE_NO":"２２號","E_COORD97":190560.29000000001,"N_COORD97":2583335.2599999998,"ADDRESS":"光明街２２號","OBJECTID":523037},"geometry":{"x":190560.29000000004,"y":2583335.2600000016}},{"attributes":{"ID":523065,"DIS_CODE":0,"TOWNNAME":"白河區","LI":"外角里","LIN":"6鄰","STREET":"光明街","SECT":" ","MAREA":" ","LANE":" ","ALLEY":" ","HOUSE_NO":"２３號","E_COORD97":190538.53,"N_COORD97":2583318.7999999998,"ADDRESS":"光明街２３號","OBJECTID":523038},"geometry":{"x":190538.53000000026,"y":2583318.8000000026}},{"attributes":{"ID":523066,"DIS_CODE":0,"TOWNNAME":"白河區","LI":"外角里","LIN":"6鄰","STREET":"光明街","SECT":" ","MAREA":" ","LANE":" ","ALLEY":" ","HOUSE_NO":"２４號","E_COORD97":190560.81,"N_COORD97":2583339.8900000001,"ADDRESS":"光明街２４號","OBJECTID":523039},"geometry":{"x":190560.81000000052,"y":2583339.8900000006}},{"attributes":{"ID":523067,"DIS_CODE":0,"TOWNNAME":"白河區","LI":"外角里","LIN":"6鄰","STREET":"光明街","SECT":" ","MAREA":" ","LANE":" ","ALLEY":" ","HOUSE_NO":"２５號","E_COORD97":190538.76999999999,"N_COORD97":2583322.6299999999,"ADDRESS":"光明街２５號","OBJECTID":523040},"geometry":{"x":190538.77000000048,"y":2583322.629999999}},{"attributes":{"ID":523068,"DIS_CODE":0,"TOWNNAME":"白河區","LI":"外角里","LIN":"6鄰","STREET":"光明街","SECT":" ","MAREA":" ","LANE":" ","ALLEY":" ","HOUSE_NO":"２６號","E_COORD97":190561.13,"N_COORD97":2583343.96,"ADDRESS":"光明街２６號","OBJECTID":523041},"geometry":{"x":190561.12999999989,"y":2583343.9600000028}},{"attributes":{"ID":523069,"DIS_CODE":0,"TOWNNAME":"白河區","LI":"外角里","LIN":"6鄰","STREET":"光明街","SECT":" ","MAREA":" ","LANE":" ","ALLEY":" ","HOUSE_NO":"２７號","E_COORD97":190538.76000000001,"N_COORD97":2583326.4199999999,"ADDRESS":"光明街２７號","OBJECTID":523042},"geometry":{"x":190538.76000000164,"y":2583326.4200000018}},{"attributes":{"ID":523070,"DIS_CODE":0,"TOWNNAME":"白河區","LI":"外角里","LIN":"6鄰","STREET":"光明街","SECT":" ","MAREA":" ","LANE":" ","ALLEY":" ","HOUSE_NO":"２８號","E_COORD97":190561.45000000001,"N_COORD97":2583347.9100000001,"ADDRESS":"光明街２８號","OBJECTID":523043},"geometry":{"x":190561.44999999925,"y":2583347.910000002}},{"attributes":{"ID":523071,"DIS_CODE":0,"TOWNNAME":"白河區","LI":"外角里","LIN":"6鄰","STREET":"光明街","SECT":" ","MAREA":" ","LANE":" ","ALLEY":" ","HOUSE_NO":"２９號","E_COORD97":190540.12,"N_COORD97":2583332.75,"ADDRESS":"光明街２９號","OBJECTID":523044},"geometry":{"x":190540.12000000104,"y":2583332.75}},{"attributes":{"ID":523072,"DIS_CODE":0,"TOWNNAME":"白河區","LI":"外角里","LIN":"6鄰","STREET":"光明街","SECT":" ","MAREA":" ","LANE":" ","ALLEY":" ","HOUSE_NO":"３１號","E_COORD97":190540.85000000001,"N_COORD97":2583337.2200000002,"ADDRESS":"光明街３１號","OBJECTID":523045},"geometry":{"x":190540.84999999963,"y":2583337.2200000007}},{"attributes":{"ID":523073,"DIS_CODE":0,"TOWNNAME":"白河區","LI":"外角里","LIN":"6鄰","STREET":"光明街","SECT":" ","MAREA":" ","LANE":" ","ALLEY":" ","HOUSE_NO":"３５號","E_COORD97":190540.82999999999,"N_COORD97":2583347.23,"ADDRESS":"光明街３５號","OBJECTID":523046},"geometry":{"x":190540.83000000101,"y":2583347.2300000004}},{"attributes":{"ID":523074,"DIS_CODE":0,"TOWNNAME":"白河區","LI":"外角里","LIN":"6鄰","STREET":"光明街","SECT":" ","MAREA":" ","LANE":" ","ALLEY":" ","HOUSE_NO":"３７號","E_COORD97":190540.54000000001,"N_COORD97":2583352.1400000001,"ADDRESS":"光明街３７號","OBJECTID":523047},"geometry":{"x":190540.5400000019,"y":2583352.1399999987}},{"attributes":{"ID":523075,"DIS_CODE":0,"TOWNNAME":"白河區","LI":"庄內里","LIN":"6鄰","STREET":"光華路","SECT":" ","MAREA":" ","LANE":" ","ALLEY":" ","HOUSE_NO":"１１０號","E_COORD97":190719.81,"N_COORD97":2583583.4700000002,"ADDRESS":"光華路１１０號","OBJECTID":523048},"geometry":{"x":190719.81000000052,"y":2583583.4700000007}},{"attributes":{"ID":523076,"DIS_CODE":0,"TOWNNAME":"白河區","LI":"庄內里","LIN":"6鄰","STREET":"光華路","SECT":" ","MAREA":" ","LANE":" ","ALLEY":" ","HOUSE_NO":"１１８號","E_COORD97":190718.25,"N_COORD97":2583566.6099999999,"ADDRESS":"光華路１１８號","OBJECTID":523049},"geometry":{"x":190718.25,"y":2583566.6099999994}},{"attributes":{"ID":523077,"DIS_CODE":0,"TOWNNAME":"白河區","LI":"庄內里","LIN":"6鄰","STREET":"光華路","SECT":" ","MAREA":" ","LANE":" ","ALLEY":" ","HOUSE_NO":"８８號","E_COORD97":190712.31,"N_COORD97":2583510.0699999998,"ADDRESS":"光華路８８號","OBJECTID":523050},"geometry":{"x":190712.30999999959,"y":2583510.0700000022}},{"attributes":{"ID":523078,"DIS_CODE":0,"TOWNNAME":"白河區","LI":"庄內里","LIN":"6鄰","STREET":"光華路","SECT":" ","MAREA":" ","LANE":" ","ALLEY":" ","HOUSE_NO":"９０號","E_COORD97":190712.67999999999,"N_COORD97":2583515.3700000001,"ADDRESS":"光華路９０號","OBJECTID":523051},"geometry":{"x":190712.68000000063,"y":2583515.3700000029}},{"attributes":{"ID":523079,"DIS_CODE":0,"TOWNNAME":"永康區","LI":"安康里","LIN":"6鄰","STREET":"大橋一街","SECT":" ","MAREA":" ","LANE":" ","ALLEY":" ","HOUSE_NO":"５５之３號","E_COORD97":170800.10000000001,"N_COORD97":2546358.29,"ADDRESS":"大橋一街５５之３號","OBJECTID":523052},"geometry":{"x":170800.09999999963,"y":2546358.290000001}},{"attributes":{"ID":523080,"DIS_CODE":0,"TOWNNAME":"永康區","LI":"安康里","LIN":"6鄰","STREET":"大橋一街","SECT":" ","MAREA":" ","LANE":" ","ALLEY":" ","HOUSE_NO":"５５之２號","E_COORD97":170795.79999999999,"N_COORD97":2546356.79,"ADDRESS":"大橋一街５５之２號","OBJECTID":523053},"geometry":{"x":170795.79999999981,"y":2546356.7899999991}},{"attributes":{"ID":523081,"DIS_CODE":0,"TOWNNAME":"永康區","LI":"安康里","LIN":"6鄰","STREET":"大橋一街","SECT":" ","MAREA":" ","LANE":" ","ALLEY":" ","HOUSE_NO":"５５號","E_COORD97":170780.25,"N_COORD97":2546348,"ADDRESS":"大橋一街５５號","OBJECTID":523054},"geometry":{"x":170780.25000000093,"y":2546348.0000000019}},{"attributes":{"ID":523082,"DIS_CODE":0,"TOWNNAME":"永康區","LI":"正強里","LIN":"6鄰","STREET":"自強路","SECT":" ","MAREA":" ","LANE":" ","ALLEY":" ","HOUSE_NO":"３３６號","E_COORD97":173429.67999999999,"N_COORD97":2547702.2400000002,"ADDRESS":"自強路３３６號","OBJECTID":523055},"geometry":{"x":173429.68000000156,"y":2547702.2400000021}},{"attributes":{"ID":523083,"DIS_CODE":0,"TOWNNAME":"北區","LI":"元寶里","LIN":"6鄰","STREET":"北園街","SECT":" ","MAREA":" ","LANE":" ","ALLEY":" ","HOUSE_NO":"２６號七樓之１","E_COORD97":170387.19,"N_COORD97":2545704.2200000002,"ADDRESS":"北園街２６號七樓之１","OBJECTID":523056},"geometry":{"x":170387.19000000041,"y":2545704.2200000007}},{"attributes":{"ID":523084,"DIS_CODE":0,"TOWNNAME":"北區","LI":"元寶里","LIN":"6鄰","STREET":"北園街","SECT":" ","MAREA":" ","LANE":" ","ALLEY":" ","HOUSE_NO":"２６號七樓之２","E_COORD97":170387.19,"N_COORD97":2545704.2200000002,"ADDRESS":"北園街２６號七樓之２","OBJECTID":523057},"geometry":{"x":170387.19000000041,"y":2545704.2200000007}},{"attributes":{"ID":523085,"DIS_CODE":0,"TOWNNAME":"北區","LI":"元寶里","LIN":"6鄰","STREET":"北園街","SECT":" ","MAREA":" ","LANE":" ","ALLEY":" ","HOUSE_NO":"２６號七樓之３","E_COORD97":170387.19,"N_COORD97":2545704.2200000002,"ADDRESS":"北園街２６號七樓之３","OBJECTID":523058},"geometry":{"x":170387.19000000041,"y":2545704.2200000007}},{"attributes":{"ID":523086,"DIS_CODE":0,"TOWNNAME":"北區","LI":"元寶里","LIN":"6鄰","STREET":"北園街","SECT":" ","MAREA":" ","LANE":" ","ALLEY":" ","HOUSE_NO":"２６號七樓之５","E_COORD97":170387.19,"N_COORD97":2545704.2200000002,"ADDRESS":"北園街２６號七樓之５","OBJECTID":523059},"geometry":{"x":170387.19000000041,"y":2545704.2200000007}},{"attributes":{"ID":523087,"DIS_CODE":0,"TOWNNAME":"北區","LI":"元寶里","LIN":"6鄰","STREET":"北園街","SECT":" ","MAREA":" ","LANE":" ","ALLEY":" ","HOUSE_NO":"２６號七樓之６","E_COORD97":170387.19,"N_COORD97":2545704.2200000002,"ADDRESS":"北園街２６號七樓之６","OBJECTID":523060},"geometry":{"x":170387.19000000041,"y":2545704.2200000007}},{"attributes":{"ID":523088,"DIS_CODE":0,"TOWNNAME":"北區","LI":"元寶里","LIN":"6鄰","STREET":"北園街","SECT":" ","MAREA":" ","LANE":" ","ALLEY":" ","HOUSE_NO":"２６號七樓之７","E_COORD97":170387.19,"N_COORD97":2545704.2200000002,"ADDRESS":"北園街２６號七樓之７","OBJECTID":523061},"geometry":{"x":170387.19000000041,"y":2545704.2200000007}},{"attributes":{"ID":523089,"DIS_CODE":0,"TOWNNAME":"北區","LI":"元寶里","LIN":"6鄰","STREET":"北園街","SECT":" ","MAREA":" ","LANE":" ","ALLEY":" ","HOUSE_NO":"２６號七樓之８","E_COORD97":170387.19,"N_COORD97":2545704.2200000002,"ADDRESS":"北園街２６號七樓之８","OBJECTID":523062},"geometry":{"x":170387.19000000041,"y":2545704.2200000007}},{"attributes":{"ID":523090,"DIS_CODE":0,"TOWNNAME":"北區","LI":"元寶里","LIN":"6鄰","STREET":"北園街","SECT":" ","MAREA":" ","LANE":" ","ALLEY":" ","HOUSE_NO":"２６號七樓之９","E_COORD97":170387.19,"N_COORD97":2545704.2200000002,"ADDRESS":"北園街２６號七樓之９","OBJECTID":523063},"geometry":{"x":170387.19000000041,"y":2545704.2200000007}},{"attributes":{"ID":523091,"DIS_CODE":0,"TOWNNAME":"北區","LI":"元寶里","LIN":"6鄰","STREET":"北園街","SECT":" ","MAREA":" ","LANE":" ","ALLEY":" ","HOUSE_NO":"２６號九樓之１","E_COORD97":170387.19,"N_COORD97":2545704.2200000002,"ADDRESS":"北園街２６號九樓之１","OBJECTID":523064},"geometry":{"x":170387.19000000041,"y":2545704.2200000007}},{"attributes":{"ID":523092,"DIS_CODE":0,"TOWNNAME":"北區","LI":"元寶里","LIN":"6鄰","STREET":"北園街","SECT":" ","MAREA":" ","LANE":" ","ALLEY":" ","HOUSE_NO":"２６號九樓之２","E_COORD97":170387.19,"N_COORD97":2545704.2200000002,"ADDRESS":"北園街２６號九樓之２","OBJECTID":523065},"geometry":{"x":170387.19000000041,"y":2545704.2200000007}},{"attributes":{"ID":523093,"DIS_CODE":0,"TOWNNAME":"北區","LI":"元寶里","LIN":"6鄰","STREET":"北園街","SECT":" ","MAREA":" ","LANE":" ","ALLEY":" ","HOUSE_NO":"２６號九樓之３","E_COORD97":170387.19,"N_COORD97":2545704.2200000002,"ADDRESS":"北園街２６號九樓之３","OBJECTID":523066},"geometry":{"x":170387.19000000041,"y":2545704.2200000007}},{"attributes":{"ID":523094,"DIS_CODE":0,"TOWNNAME":"北區","LI":"元寶里","LIN":"6鄰","STREET":"北園街","SECT":" ","MAREA":" ","LANE":" ","ALLEY":" ","HOUSE_NO":"２６號九樓之５","E_COORD97":170387.19,"N_COORD97":2545704.2200000002,"ADDRESS":"北園街２６號九樓之５","OBJECTID":523067},"geometry":{"x":170387.19000000041,"y":2545704.2200000007}},{"attributes":{"ID":523095,"DIS_CODE":0,"TOWNNAME":"北區","LI":"元寶里","LIN":"6鄰","STREET":"北園街","SECT":" ","MAREA":" ","LANE":" ","ALLEY":" ","HOUSE_NO":"２６號九樓之６","E_COORD97":170387.19,"N_COORD97":2545704.2200000002,"ADDRESS":"北園街２６號九樓之６","OBJECTID":523068},"geometry":{"x":170387.19000000041,"y":2545704.2200000007}},{"attributes":{"ID":523096,"DIS_CODE":0,"TOWNNAME":"北區","LI":"元寶里","LIN":"6鄰","STREET":"北園街","SECT":" ","MAREA":" ","LANE":" ","ALLEY":" ","HOUSE_NO":"２６號九樓之７","E_COORD97":170387.19,"N_COORD97":2545704.2200000002,"ADDRESS":"北園街２６號九樓之７","OBJECTID":523069},"geometry":{"x":170387.19000000041,"y":2545704.2200000007}},{"attributes":{"ID":523097,"DIS_CODE":0,"TOWNNAME":"北區","LI":"元寶里","LIN":"6鄰","STREET":"北園街","SECT":" ","MAREA":" ","LANE":" ","ALLEY":" ","HOUSE_NO":"２６號九樓之８","E_COORD97":170387.19,"N_COORD97":2545704.2200000002,"ADDRESS":"北園街２６號九樓之８","OBJECTID":523070},"geometry":{"x":170387.19000000041,"y":2545704.2200000007}},{"attributes":{"ID":523098,"DIS_CODE":0,"TOWNNAME":"北區","LI":"元寶里","LIN":"6鄰","STREET":"北園街","SECT":" ","MAREA":" ","LANE":" ","ALLEY":" ","HOUSE_NO":"２６號九樓之９","E_COORD97":170387.19,"N_COORD97":2545704.2200000002,"ADDRESS":"北園街２６號九樓之９","OBJECTID":523071},"geometry":{"x":170387.19000000041,"y":2545704.2200000007}},{"attributes":{"ID":523099,"DIS_CODE":0,"TOWNNAME":"北區","LI":"元寶里","LIN":"6鄰","STREET":"北園街","SECT":" ","MAREA":" ","LANE":" ","ALLEY":" ","HOUSE_NO":"２６號八樓之１","E_COORD97":170387.19,"N_COORD97":2545704.2200000002,"ADDRESS":"北園街２６號八樓之１","OBJECTID":523072},"geometry":{"x":170387.19000000041,"y":2545704.2200000007}},{"attributes":{"ID":523100,"DIS_CODE":0,"TOWNNAME":"東區","LI":"龍山里","LIN":"13鄰","STREET":"府東街","SECT":" ","MAREA":" ","LANE":" ","ALLEY":" ","HOUSE_NO":"１０１號","E_COORD97":169823.14000000001,"N_COORD97":2542923.7999999998,"ADDRESS":"府東街１０１號","OBJECTID":523073},"geometry":{"x":169823.1400000006,"y":2542923.8000000007}},{"attributes":{"ID":523101,"DIS_CODE":0,"TOWNNAME":"東區","LI":"龍山里","LIN":"13鄰","STREET":"府東街","SECT":" ","MAREA":" ","LANE":" ","ALLEY":" ","HOUSE_NO":"１０３號","E_COORD97":169815.97,"N_COORD97":2542925.48,"ADDRESS":"府東街１０３號","OBJECTID":523074},"geometry":{"x":169815.97000000067,"y":2542925.4800000004}},{"attributes":{"ID":523102,"DIS_CODE":0,"TOWNNAME":"東區","LI":"龍山里","LIN":"7鄰","STREET":"長榮路","SECT":"一段","MAREA":" ","LANE":" ","ALLEY":" ","HOUSE_NO":"１９２號","E_COORD97":169859.98999999999,"N_COORD97":2542823.96,"ADDRESS":"長榮路一段１９２號","OBJECTID":523075},"geometry":{"x":169859.99000000115,"y":2542823.9600000009}},{"attributes":{"ID":523103,"DIS_CODE":0,"TOWNNAME":"東區","LI":"龍山里","LIN":"7鄰","STREET":"長榮路","SECT":"一段","MAREA":" ","LANE":" ","ALLEY":" ","HOUSE_NO":"１９４號","E_COORD97":169861.72,"N_COORD97":2542828.9199999999,"ADDRESS":"長榮路一段１９４號","OBJECTID":523076},"geometry":{"x":169861.72000000067,"y":2542828.9200000018}},{"attributes":{"ID":523104,"DIS_CODE":0,"TOWNNAME":"東區","LI":"龍山里","LIN":"7鄰","STREET":"長榮路","SECT":"一段","MAREA":" ","LANE":" ","ALLEY":" ","HOUSE_NO":"１９６號","E_COORD97":169864.53,"N_COORD97":2542837.1299999999,"ADDRESS":"長榮路一段１９６號","OBJECTID":523077},"geometry":{"x":169864.53000000212,"y":2542837.1300000008}},{"attributes":{"ID":523105,"DIS_CODE":0,"TOWNNAME":"東區","LI":"龍山里","LIN":"7鄰","STREET":"長榮路","SECT":"一段","MAREA":" ","LANE":" ","ALLEY":" ","HOUSE_NO":"１９８號","E_COORD97":169868.42000000001,"N_COORD97":2542841.8799999999,"ADDRESS":"長榮路一段１９８號","OBJECTID":523078},"geometry":{"x":169868.42000000086,"y":2542841.8800000008}},{"attributes":{"ID":523106,"DIS_CODE":0,"TOWNNAME":"東區","LI":"龍山里","LIN":"7鄰","STREET":"長榮路","SECT":"一段","MAREA":" ","LANE":" ","ALLEY":" ","HOUSE_NO":"２００號","E_COORD97":169868.64000000001,"N_COORD97":2542845.5499999998,"ADDRESS":"長榮路一段２００號","OBJECTID":523079},"geometry":{"x":169868.6400000006,"y":2542845.5500000026}},{"attributes":{"ID":523107,"DIS_CODE":0,"TOWNNAME":"東區","LI":"龍山里","LIN":"7鄰","STREET":"長榮路","SECT":"一段","MAREA":" ","LANE":" ","ALLEY":" ","HOUSE_NO":"２０２號","E_COORD97":169869.29000000001,"N_COORD97":2542849.2200000002,"ADDRESS":"長榮路一段２０２號","OBJECTID":523080},"geometry":{"x":169869.2900000019,"y":2542849.2200000007}},{"attributes":{"ID":523108,"DIS_CODE":0,"TOWNNAME":"東區","LI":"龍山里","LIN":"7鄰","STREET":"長榮路","SECT":"一段","MAREA":" ","LANE":" ","ALLEY":" ","HOUSE_NO":"２０４號","E_COORD97":169870.37,"N_COORD97":2542853.9700000002,"ADDRESS":"長榮路一段２０４號","OBJECTID":523081},"geometry":{"x":169870.36999999918,"y":2542853.9700000007}},{"attributes":{"ID":523109,"DIS_CODE":0,"TOWNNAME":"東區","LI":"龍山里","LIN":"7鄰","STREET":"長榮路","SECT":"一段","MAREA":" ","LANE":" ","ALLEY":" ","HOUSE_NO":"２０６號","E_COORD97":169871.32999999999,"N_COORD97":2542856.73,"ADDRESS":"長榮路一段２０６號","OBJECTID":523082},"geometry":{"x":169871.33000000101,"y":2542856.7299999986}},{"attributes":{"ID":523110,"DIS_CODE":0,"TOWNNAME":"東區","LI":"龍山里","LIN":"7鄰","STREET":"長榮路","SECT":"一段","MAREA":" ","LANE":" ","ALLEY":" ","HOUSE_NO":"２０８號","E_COORD97":169872.79999999999,"N_COORD97":2542860.8599999999,"ADDRESS":"長榮路一段２０８號","OBJECTID":523083},"geometry":{"x":169872.80000000075,"y":2542860.8599999994}},{"attributes":{"ID":523111,"DIS_CODE":0,"TOWNNAME":"北區","LI":"元寶里","LIN":"6鄰","STREET":"北園街","SECT":" ","MAREA":" ","LANE":" ","ALLEY":" ","HOUSE_NO":"２６號八樓之２","E_COORD97":170387.19,"N_COORD97":2545704.2200000002,"ADDRESS":"北園街２６號八樓之２","OBJECTID":523084},"geometry":{"x":170387.19000000041,"y":2545704.2200000007}},{"attributes":{"ID":523112,"DIS_CODE":0,"TOWNNAME":"北區","LI":"元寶里","LIN":"6鄰","STREET":"北園街","SECT":" ","MAREA":" ","LANE":" ","ALLEY":" ","HOUSE_NO":"２６號八樓之３","E_COORD97":170387.19,"N_COORD97":2545704.2200000002,"ADDRESS":"北園街２６號八樓之３","OBJECTID":523085},"geometry":{"x":170387.19000000041,"y":2545704.2200000007}},{"attributes":{"ID":523113,"DIS_CODE":0,"TOWNNAME":"北區","LI":"元寶里","LIN":"6鄰","STREET":"北園街","SECT":" ","MAREA":" ","LANE":" ","ALLEY":" ","HOUSE_NO":"２６號八樓之５","E_COORD97":170387.19,"N_COORD97":2545704.2200000002,"ADDRESS":"北園街２６號八樓之５","OBJECTID":523086},"geometry":{"x":170387.19000000041,"y":2545704.2200000007}},{"attributes":{"ID":523114,"DIS_CODE":0,"TOWNNAME":"北區","LI":"元寶里","LIN":"6鄰","STREET":"北園街","SECT":" ","MAREA":" ","LANE":" ","ALLEY":" ","HOUSE_NO":"２６號八樓之６","E_COORD97":170387.19,"N_COORD97":2545704.2200000002,"ADDRESS":"北園街２６號八樓之６","OBJECTID":523087},"geometry":{"x":170387.19000000041,"y":2545704.2200000007}},{"attributes":{"ID":523115,"DIS_CODE":0,"TOWNNAME":"北區","LI":"元寶里","LIN":"6鄰","STREET":"北園街","SECT":" ","MAREA":" ","LANE":" ","ALLEY":" ","HOUSE_NO":"２６號八樓之７","E_COORD97":170387.19,"N_COORD97":2545704.2200000002,"ADDRESS":"北園街２６號八樓之７","OBJECTID":523088},"geometry":{"x":170387.19000000041,"y":2545704.2200000007}},{"attributes":{"ID":523116,"DIS_CODE":0,"TOWNNAME":"北區","LI":"元寶里","LIN":"6鄰","STREET":"北園街","SECT":" ","MAREA":" ","LANE":" ","ALLEY":" ","HOUSE_NO":"２６號八樓之８","E_COORD97":170387.19,"N_COORD97":2545704.2200000002,"ADDRESS":"北園街２６號八樓之８","OBJECTID":523089},"geometry":{"x":170387.19000000041,"y":2545704.2200000007}},{"attributes":{"ID":523117,"DIS_CODE":0,"TOWNNAME":"北區","LI":"元寶里","LIN":"6鄰","STREET":"北園街","SECT":" ","MAREA":" ","LANE":" ","ALLEY":" ","HOUSE_NO":"２６號八樓之９","E_COORD97":170387.19,"N_COORD97":2545704.2200000002,"ADDRESS":"北園街２６號八樓之９","OBJECTID":523090},"geometry":{"x":170387.19000000041,"y":2545704.2200000007}},{"attributes":{"ID":523118,"DIS_CODE":0,"TOWNNAME":"北區","LI":"元寶里","LIN":"6鄰","STREET":"北園街","SECT":" ","MAREA":" ","LANE":" ","ALLEY":" ","HOUSE_NO":"２６號十一樓之１","E_COORD97":170387.19,"N_COORD97":2545704.2200000002,"ADDRESS":"北園街２６號十一樓之１","OBJECTID":523091},"geometry":{"x":170387.19000000041,"y":2545704.2200000007}},{"attributes":{"ID":523119,"DIS_CODE":0,"TOWNNAME":"北區","LI":"元寶里","LIN":"6鄰","STREET":"北園街","SECT":" ","MAREA":" ","LANE":" ","ALLEY":" ","HOUSE_NO":"２６號十一樓之２","E_COORD97":170387.19,"N_COORD97":2545704.2200000002,"ADDRESS":"北園街２６號十一樓之２","OBJECTID":523092},"geometry":{"x":170387.19000000041,"y":2545704.2200000007}},{"attributes":{"ID":523120,"DIS_CODE":0,"TOWNNAME":"北區","LI":"元寶里","LIN":"6鄰","STREET":"北園街","SECT":" ","MAREA":" ","LANE":" ","ALLEY":" ","HOUSE_NO":"２６號十一樓之３","E_COORD97":170387.19,"N_COORD97":2545704.2200000002,"ADDRESS":"北園街２６號十一樓之３","OBJECTID":523093},"geometry":{"x":170387.19000000041,"y":2545704.2200000007}},{"attributes":{"ID":523121,"DIS_CODE":0,"TOWNNAME":"北區","LI":"元寶里","LIN":"6鄰","STREET":"北園街","SECT":" ","MAREA":" ","LANE":" ","ALLEY":" ","HOUSE_NO":"２６號十一樓之５","E_COORD97":170387.19,"N_COORD97":2545704.2200000002,"ADDRESS":"北園街２６號十一樓之５","OBJECTID":523094},"geometry":{"x":170387.19000000041,"y":2545704.2200000007}},{"attributes":{"ID":523122,"DIS_CODE":0,"TOWNNAME":"北區","LI":"元寶里","LIN":"6鄰","STREET":"北園街","SECT":" ","MAREA":" ","LANE":" ","ALLEY":" ","HOUSE_NO":"２６號十一樓之６","E_COORD97":170387.19,"N_COORD97":2545704.2200000002,"ADDRESS":"北園街２６號十一樓之６","OBJECTID":523095},"geometry":{"x":170387.19000000041,"y":2545704.2200000007}},{"attributes":{"ID":523123,"DIS_CODE":0,"TOWNNAME":"北區","LI":"元寶里","LIN":"6鄰","STREET":"北園街","SECT":" ","MAREA":" ","LANE":" ","ALLEY":" ","HOUSE_NO":"２６號十一樓之７","E_COORD97":170387.19,"N_COORD97":2545704.2200000002,"ADDRESS":"北園街２６號十一樓之７","OBJECTID":523096},"geometry":{"x":170387.19000000041,"y":2545704.2200000007}},{"attributes":{"ID":523124,"DIS_CODE":0,"TOWNNAME":"北區","LI":"元寶里","LIN":"6鄰","STREET":"北園街","SECT":" ","MAREA":" ","LANE":" ","ALLEY":" ","HOUSE_NO":"２６號十一樓之８","E_COORD97":170387.19,"N_COORD97":2545704.2200000002,"ADDRESS":"北園街２６號十一樓之８","OBJECTID":523097},"geometry":{"x":170387.19000000041,"y":2545704.2200000007}},{"attributes":{"ID":523125,"DIS_CODE":0,"TOWNNAME":"北區","LI":"元寶里","LIN":"6鄰","STREET":"北園街","SECT":" ","MAREA":" ","LANE":" ","ALLEY":" ","HOUSE_NO":"２６號十一樓之９","E_COORD97":170387.19,"N_COORD97":2545704.2200000002,"ADDRESS":"北園街２６號十一樓之９","OBJECTID":523098},"geometry":{"x":170387.19000000041,"y":2545704.2200000007}},{"attributes":{"ID":523126,"DIS_CODE":0,"TOWNNAME":"北區","LI":"元寶里","LIN":"6鄰","STREET":"北園街","SECT":" ","MAREA":" ","LANE":" ","ALLEY":" ","HOUSE_NO":"２６號十二樓之１","E_COORD97":170387.19,"N_COORD97":2545704.2200000002,"ADDRESS":"北園街２６號十二樓之１","OBJECTID":523099},"geometry":{"x":170387.19000000041,"y":2545704.2200000007}},{"attributes":{"ID":523127,"DIS_CODE":0,"TOWNNAME":"東區","LI":"龍山里","LIN":"13鄰","STREET":"府東街","SECT":" ","MAREA":" ","LANE":" ","ALLEY":" ","HOUSE_NO":"１０５號","E_COORD97":169796.81,"N_COORD97":2542944.2999999998,"ADDRESS":"府東街１０５號","OBJECTID":523100},"geometry":{"x":169796.80999999959,"y":2542944.3000000007}},{"attributes":{"ID":523128,"DIS_CODE":0,"TOWNNAME":"北區","LI":"元寶里","LIN":"6鄰","STREET":"北園街","SECT":" ","MAREA":" ","LANE":" ","ALLEY":" ","HOUSE_NO":"２６號十二樓之２","E_COORD97":170387.19,"N_COORD97":2545704.2200000002,"ADDRESS":"北園街２６號十二樓之２","OBJECTID":523101},"geometry":{"x":170387.19000000041,"y":2545704.2200000007}},{"attributes":{"ID":523129,"DIS_CODE":0,"TOWNNAME":"北區","LI":"元寶里","LIN":"6鄰","STREET":"北園街","SECT":" ","MAREA":" ","LANE":" ","ALLEY":" ","HOUSE_NO":"２６號十二樓之３","E_COORD97":170387.19,"N_COORD97":2545704.2200000002,"ADDRESS":"北園街２６號十二樓之３","OBJECTID":523102},"geometry":{"x":170387.19000000041,"y":2545704.2200000007}},{"attributes":{"ID":523130,"DIS_CODE":0,"TOWNNAME":"北區","LI":"元寶里","LIN":"6鄰","STREET":"北園街","SECT":" ","MAREA":" ","LANE":" ","ALLEY":" ","HOUSE_NO":"２６號十二樓之５","E_COORD97":170387.19,"N_COORD97":2545704.2200000002,"ADDRESS":"北園街２６號十二樓之５","OBJECTID":523103},"geometry":{"x":170387.19000000041,"y":2545704.2200000007}},{"attributes":{"ID":523131,"DIS_CODE":0,"TOWNNAME":"北區","LI":"元寶里","LIN":"6鄰","STREET":"北園街","SECT":" ","MAREA":" ","LANE":" ","ALLEY":" ","HOUSE_NO":"２６號十二樓之６","E_COORD97":170387.19,"N_COORD97":2545704.2200000002,"ADDRESS":"北園街２６號十二樓之６","OBJECTID":523104},"geometry":{"x":170387.19000000041,"y":2545704.2200000007}},{"attributes":{"ID":523132,"DIS_CODE":0,"TOWNNAME":"北區","LI":"元寶里","LIN":"6鄰","STREET":"北園街","SECT":" ","MAREA":" ","LANE":" ","ALLEY":" ","HOUSE_NO":"２６號十二樓之７","E_COORD97":170387.19,"N_COORD97":2545704.2200000002,"ADDRESS":"北園街２６號十二樓之７","OBJECTID":523105},"geometry":{"x":170387.19000000041,"y":2545704.2200000007}},{"attributes":{"ID":523133,"DIS_CODE":0,"TOWNNAME":"北區","LI":"元寶里","LIN":"6鄰","STREET":"北園街","SECT":" ","MAREA":" ","LANE":" ","ALLEY":" ","HOUSE_NO":"２６號十二樓之８","E_COORD97":170387.19,"N_COORD97":2545704.2200000002,"ADDRESS":"北園街２６號十二樓之８","OBJECTID":523106},"geometry":{"x":170387.19000000041,"y":2545704.2200000007}},{"attributes":{"ID":523134,"DIS_CODE":0,"TOWNNAME":"北區","LI":"元寶里","LIN":"6鄰","STREET":"北園街","SECT":" ","MAREA":" ","LANE":" ","ALLEY":" ","HOUSE_NO":"２６號十二樓之９","E_COORD97":170387.19,"N_COORD97":2545704.2200000002,"ADDRESS":"北園街２６號十二樓之９","OBJECTID":523107},"geometry":{"x":170387.19000000041,"y":2545704.2200000007}},{"attributes":{"ID":523135,"DIS_CODE":0,"TOWNNAME":"北區","LI":"元寶里","LIN":"6鄰","STREET":"北園街","SECT":" ","MAREA":" ","LANE":" ","ALLEY":" ","HOUSE_NO":"２６號十三樓之１","E_COORD97":170387.19,"N_COORD97":2545704.2200000002,"ADDRESS":"北園街２６號十三樓之１","OBJECTID":523108},"geometry":{"x":170387.19000000041,"y":2545704.2200000007}},{"attributes":{"ID":523136,"DIS_CODE":0,"TOWNNAME":"鹽水區","LI":"武廟里","LIN":"6鄰","STREET":"武廟路","SECT":" ","MAREA":" ","LANE":" ","ALLEY":" ","HOUSE_NO":"８０號五樓","E_COORD97":174924.35000000001,"N_COORD97":2580227.9700000002,"ADDRESS":"武廟路８０號五樓","OBJECTID":523109},"geometry":{"x":174924.34999999963,"y":2580227.9700000025}},{"attributes":{"ID":523137,"DIS_CODE":0,"TOWNNAME":"北區","LI":"元寶里","LIN":"6鄰","STREET":"北園街","SECT":" ","MAREA":" ","LANE":" ","ALLEY":" ","HOUSE_NO":"２６號十三樓之２","E_COORD97":170387.19,"N_COORD97":2545704.2200000002,"ADDRESS":"北園街２６號十三樓之２","OBJECTID":523110},"geometry":{"x":170387.19000000041,"y":2545704.2200000007}},{"attributes":{"ID":523138,"DIS_CODE":0,"TOWNNAME":"北區","LI":"元寶里","LIN":"6鄰","STREET":"北園街","SECT":" ","MAREA":" ","LANE":" ","ALLEY":" ","HOUSE_NO":"２６號十三樓之３","E_COORD97":170387.19,"N_COORD97":2545704.2200000002,"ADDRESS":"北園街２６號十三樓之３","OBJECTID":523111},"geometry":{"x":170387.19000000041,"y":2545704.2200000007}},{"attributes":{"ID":523139,"DIS_CODE":0,"TOWNNAME":"北區","LI":"元寶里","LIN":"6鄰","STREET":"北園街","SECT":" ","MAREA":" ","LANE":" ","ALLEY":" ","HOUSE_NO":"２６號十三樓之５","E_COORD97":170387.19,"N_COORD97":2545704.2200000002,"ADDRESS":"北園街２６號十三樓之５","OBJECTID":523112},"geometry":{"x":170387.19000000041,"y":2545704.2200000007}},{"attributes":{"ID":523140,"DIS_CODE":0,"TOWNNAME":"北區","LI":"元寶里","LIN":"6鄰","STREET":"北園街","SECT":" ","MAREA":" ","LANE":" ","ALLEY":" ","HOUSE_NO":"２６號十三樓之６","E_COORD97":170387.19,"N_COORD97":2545704.2200000002,"ADDRESS":"北園街２６號十三樓之６","OBJECTID":523113},"geometry":{"x":170387.19000000041,"y":2545704.2200000007}},{"attributes":{"ID":523141,"DIS_CODE":0,"TOWNNAME":"北區","LI":"元寶里","LIN":"6鄰","STREET":"北園街","SECT":" ","MAREA":" ","LANE":" ","ALLEY":" ","HOUSE_NO":"２６號十三樓之７","E_COORD97":170387.19,"N_COORD97":2545704.2200000002,"ADDRESS":"北園街２６號十三樓之７","OBJECTID":523114},"geometry":{"x":170387.19000000041,"y":2545704.2200000007}},{"attributes":{"ID":523142,"DIS_CODE":0,"TOWNNAME":"北區","LI":"元寶里","LIN":"6鄰","STREET":"北園街","SECT":" ","MAREA":" ","LANE":" ","ALLEY":" ","HOUSE_NO":"２６號十三樓之８","E_COORD97":170387.19,"N_COORD97":2545704.2200000002,"ADDRESS":"北園街２６號十三樓之８","OBJECTID":523115},"geometry":{"x":170387.19000000041,"y":2545704.2200000007}},{"attributes":{"ID":523143,"DIS_CODE":0,"TOWNNAME":"北區","LI":"元寶里","LIN":"6鄰","STREET":"北園街","SECT":" ","MAREA":" ","LANE":" ","ALLEY":" ","HOUSE_NO":"２６號十三樓之９","E_COORD97":170387.19,"N_COORD97":2545704.2200000002,"ADDRESS":"北園街２６號十三樓之９","OBJECTID":523116},"geometry":{"x":170387.19000000041,"y":2545704.2200000007}},{"attributes":{"ID":523144,"DIS_CODE":0,"TOWNNAME":"北區","LI":"元寶里","LIN":"6鄰","STREET":"北園街","SECT":" ","MAREA":" ","LANE":" ","ALLEY":" ","HOUSE_NO":"２６號十四樓之１","E_COORD97":170387.19,"N_COORD97":2545704.2200000002,"ADDRESS":"北園街２６號十四樓之１","OBJECTID":523117},"geometry":{"x":170387.19000000041,"y":2545704.2200000007}},{"attributes":{"ID":523145,"DIS_CODE":0,"TOWNNAME":"北區","LI":"元寶里","LIN":"6鄰","STREET":"北園街","SECT":" ","MAREA":" ","LANE":" ","ALLEY":" ","HOUSE_NO":"２６號十四樓之２","E_COORD97":170387.19,"N_COORD97":2545704.2200000002,"ADDRESS":"北園街２６號十四樓之２","OBJECTID":523118},"geometry":{"x":170387.19000000041,"y":2545704.2200000007}},{"attributes":{"ID":523146,"DIS_CODE":0,"TOWNNAME":"北區","LI":"元寶里","LIN":"6鄰","STREET":"北園街","SECT":" ","MAREA":" ","LANE":" ","ALLEY":" ","HOUSE_NO":"２６號十四樓之３","E_COORD97":170387.19,"N_COORD97":2545704.2200000002,"ADDRESS":"北園街２６號十四樓之３","OBJECTID":523119},"geometry":{"x":170387.19000000041,"y":2545704.2200000007}},{"attributes":{"ID":523147,"DIS_CODE":0,"TOWNNAME":"北區","LI":"元寶里","LIN":"6鄰","STREET":"北園街","SECT":" ","MAREA":" ","LANE":" ","ALLEY":" ","HOUSE_NO":"２６號十四樓之５","E_COORD97":170387.19,"N_COORD97":2545704.2200000002,"ADDRESS":"北園街２６號十四樓之５","OBJECTID":523120},"geometry":{"x":170387.19000000041,"y":2545704.2200000007}},{"attributes":{"ID":523148,"DIS_CODE":0,"TOWNNAME":"北區","LI":"元寶里","LIN":"6鄰","STREET":"北園街","SECT":" ","MAREA":" ","LANE":" ","ALLEY":" ","HOUSE_NO":"２６號十四樓之６","E_COORD97":170387.19,"N_COORD97":2545704.2200000002,"ADDRESS":"北園街２６號十四樓之６","OBJECTID":523121},"geometry":{"x":170387.19000000041,"y":2545704.2200000007}},{"attributes":{"ID":523149,"DIS_CODE":0,"TOWNNAME":"北區","LI":"元寶里","LIN":"6鄰","STREET":"北園街","SECT":" ","MAREA":" ","LANE":" ","ALLEY":" ","HOUSE_NO":"２６號十四樓之７","E_COORD97":170387.19,"N_COORD97":2545704.2200000002,"ADDRESS":"北園街２６號十四樓之７","OBJECTID":523122},"geometry":{"x":170387.19000000041,"y":2545704.2200000007}},{"attributes":{"ID":523150,"DIS_CODE":0,"TOWNNAME":"北區","LI":"元寶里","LIN":"6鄰","STREET":"北園街","SECT":" ","MAREA":" ","LANE":" ","ALLEY":" ","HOUSE_NO":"２６號十四樓之８","E_COORD97":170387.19,"N_COORD97":2545704.2200000002,"ADDRESS":"北園街２６號十四樓之８","OBJECTID":523123},"geometry":{"x":170387.19000000041,"y":2545704.2200000007}},{"attributes":{"ID":523151,"DIS_CODE":0,"TOWNNAME":"北區","LI":"元寶里","LIN":"6鄰","STREET":"北園街","SECT":" ","MAREA":" ","LANE":" ","ALLEY":" ","HOUSE_NO":"２６號十四樓之９","E_COORD97":170387.19,"N_COORD97":2545704.2200000002,"ADDRESS":"北園街２６號十四樓之９","OBJECTID":523124},"geometry":{"x":170387.19000000041,"y":2545704.2200000007}},{"attributes":{"ID":523152,"DIS_CODE":0,"TOWNNAME":"北區","LI":"元寶里","LIN":"6鄰","STREET":"北園街","SECT":" ","MAREA":" ","LANE":" ","ALLEY":" ","HOUSE_NO":"２６號十樓之１","E_COORD97":170387.19,"N_COORD97":2545704.2200000002,"ADDRESS":"北園街２６號十樓之１","OBJECTID":523125},"geometry":{"x":170387.19000000041,"y":2545704.2200000007}},{"attributes":{"ID":523153,"DIS_CODE":0,"TOWNNAME":"北區","LI":"元寶里","LIN":"6鄰","STREET":"北園街","SECT":" ","MAREA":" ","LANE":" ","ALLEY":" ","HOUSE_NO":"２６號十樓之２","E_COORD97":170387.19,"N_COORD97":2545704.2200000002,"ADDRESS":"北園街２６號十樓之２","OBJECTID":523126},"geometry":{"x":170387.19000000041,"y":2545704.2200000007}},{"attributes":{"ID":523154,"DIS_CODE":0,"TOWNNAME":"北區","LI":"元寶里","LIN":"6鄰","STREET":"北園街","SECT":" ","MAREA":" ","LANE":" ","ALLEY":" ","HOUSE_NO":"２６號十樓之３","E_COORD97":170387.19,"N_COORD97":2545704.2200000002,"ADDRESS":"北園街２６號十樓之３","OBJECTID":523127},"geometry":{"x":170387.19000000041,"y":2545704.2200000007}},{"attributes":{"ID":523155,"DIS_CODE":0,"TOWNNAME":"北區","LI":"元寶里","LIN":"6鄰","STREET":"北園街","SECT":" ","MAREA":" ","LANE":" ","ALLEY":" ","HOUSE_NO":"２６號十樓之５","E_COORD97":170387.19,"N_COORD97":2545704.2200000002,"ADDRESS":"北園街２６號十樓之５","OBJECTID":523128},"geometry":{"x":170387.19000000041,"y":2545704.2200000007}},{"attributes":{"ID":523156,"DIS_CODE":0,"TOWNNAME":"北區","LI":"元寶里","LIN":"6鄰","STREET":"北園街","SECT":" ","MAREA":" ","LANE":" ","ALLEY":" ","HOUSE_NO":"２６號十樓之６","E_COORD97":170387.19,"N_COORD97":2545704.2200000002,"ADDRESS":"北園街２６號十樓之６","OBJECTID":523129},"geometry":{"x":170387.19000000041,"y":2545704.2200000007}},{"attributes":{"ID":523157,"DIS_CODE":0,"TOWNNAME":"北區","LI":"元寶里","LIN":"6鄰","STREET":"北園街","SECT":" ","MAREA":" ","LANE":" ","ALLEY":" ","HOUSE_NO":"２６號十樓之７","E_COORD97":170387.19,"N_COORD97":2545704.2200000002,"ADDRESS":"北園街２６號十樓之７","OBJECTID":523130},"geometry":{"x":170387.19000000041,"y":2545704.2200000007}},{"attributes":{"ID":523158,"DIS_CODE":0,"TOWNNAME":"北區","LI":"元寶里","LIN":"6鄰","STREET":"北園街","SECT":" ","MAREA":" ","LANE":" ","ALLEY":" ","HOUSE_NO":"２６號十樓之８","E_COORD97":170387.19,"N_COORD97":2545704.2200000002,"ADDRESS":"北園街２６號十樓之８","OBJECTID":523131},"geometry":{"x":170387.19000000041,"y":2545704.2200000007}},{"attributes":{"ID":523159,"DIS_CODE":0,"TOWNNAME":"北區","LI":"元寶里","LIN":"6鄰","STREET":"北園街","SECT":" ","MAREA":" ","LANE":" ","ALLEY":" ","HOUSE_NO":"２６號十樓之９","E_COORD97":170387.19,"N_COORD97":2545704.2200000002,"ADDRESS":"北園街２６號十樓之９","OBJECTID":523132},"geometry":{"x":170387.19000000041,"y":2545704.2200000007}},{"attributes":{"ID":523160,"DIS_CODE":0,"TOWNNAME":"北區","LI":"元寶里","LIN":"6鄰","STREET":"北園街","SECT":" ","MAREA":" ","LANE":" ","ALLEY":" ","HOUSE_NO":"２６號三樓之１","E_COORD97":170387.19,"N_COORD97":2545704.2200000002,"ADDRESS":"北園街２６號三樓之１","OBJECTID":523133},"geometry":{"x":170387.19000000041,"y":2545704.2200000007}},{"attributes":{"ID":523161,"DIS_CODE":0,"TOWNNAME":"北區","LI":"元寶里","LIN":"6鄰","STREET":"北園街","SECT":" ","MAREA":" ","LANE":" ","ALLEY":" ","HOUSE_NO":"２６號三樓之２","E_COORD97":170387.19,"N_COORD97":2545704.2200000002,"ADDRESS":"北園街２６號三樓之２","OBJECTID":523134},"geometry":{"x":170387.19000000041,"y":2545704.2200000007}},{"attributes":{"ID":523162,"DIS_CODE":0,"TOWNNAME":"北區","LI":"元寶里","LIN":"6鄰","STREET":"北園街","SECT":" ","MAREA":" ","LANE":" ","ALLEY":" ","HOUSE_NO":"２６號三樓之３","E_COORD97":170387.19,"N_COORD97":2545704.2200000002,"ADDRESS":"北園街２６號三樓之３","OBJECTID":523135},"geometry":{"x":170387.19000000041,"y":2545704.2200000007}},{"attributes":{"ID":523163,"DIS_CODE":0,"TOWNNAME":"北區","LI":"元寶里","LIN":"6鄰","STREET":"北園街","SECT":" ","MAREA":" ","LANE":" ","ALLEY":" ","HOUSE_NO":"２６號三樓之５","E_COORD97":170387.19,"N_COORD97":2545704.2200000002,"ADDRESS":"北園街２６號三樓之５","OBJECTID":523136},"geometry":{"x":170387.19000000041,"y":2545704.2200000007}},{"attributes":{"ID":523164,"DIS_CODE":0,"TOWNNAME":"北區","LI":"元寶里","LIN":"6鄰","STREET":"北園街","SECT":" ","MAREA":" ","LANE":" ","ALLEY":" ","HOUSE_NO":"２６號三樓之６","E_COORD97":170387.19,"N_COORD97":2545704.2200000002,"ADDRESS":"北園街２６號三樓之６","OBJECTID":523137},"geometry":{"x":170387.19000000041,"y":2545704.2200000007}},{"attributes":{"ID":523165,"DIS_CODE":0,"TOWNNAME":"東區","LI":"龍山里","LIN":"13鄰","STREET":"府東街","SECT":" ","MAREA":" ","LANE":" ","ALLEY":" ","HOUSE_NO":"１０７號","E_COORD97":169786.45000000001,"N_COORD97":2542936.1400000001,"ADDRESS":"府東街１０７號","OBJECTID":523138},"geometry":{"x":169786.45000000019,"y":2542936.1400000025}},{"attributes":{"ID":523166,"DIS_CODE":0,"TOWNNAME":"北區","LI":"元寶里","LIN":"6鄰","STREET":"北園街","SECT":" ","MAREA":" ","LANE":" ","ALLEY":" ","HOUSE_NO":"２６號三樓之７","E_COORD97":170387.19,"N_COORD97":2545704.2200000002,"ADDRESS":"北園街２６號三樓之７","OBJECTID":523139},"geometry":{"x":170387.19000000041,"y":2545704.2200000007}},{"attributes":{"ID":523167,"DIS_CODE":0,"TOWNNAME":"北區","LI":"元寶里","LIN":"6鄰","STREET":"北園街","SECT":" ","MAREA":" ","LANE":" ","ALLEY":" ","HOUSE_NO":"２６號三樓之８","E_COORD97":170387.19,"N_COORD97":2545704.2200000002,"ADDRESS":"北園街２６號三樓之８","OBJECTID":523140},"geometry":{"x":170387.19000000041,"y":2545704.2200000007}},{"attributes":{"ID":523168,"DIS_CODE":0,"TOWNNAME":"北區","LI":"元寶里","LIN":"6鄰","STREET":"北園街","SECT":" ","MAREA":" ","LANE":" ","ALLEY":" ","HOUSE_NO":"２６號三樓之９","E_COORD97":170387.19,"N_COORD97":2545704.2200000002,"ADDRESS":"北園街２６號三樓之９","OBJECTID":523141},"geometry":{"x":170387.19000000041,"y":2545704.2200000007}},{"attributes":{"ID":523169,"DIS_CODE":0,"TOWNNAME":"北區","LI":"元寶里","LIN":"6鄰","STREET":"北園街","SECT":" ","MAREA":" ","LANE":" ","ALLEY":" ","HOUSE_NO":"２６號五樓之１","E_COORD97":170387.19,"N_COORD97":2545704.2200000002,"ADDRESS":"北園街２６號五樓之１","OBJECTID":523142},"geometry":{"x":170387.19000000041,"y":2545704.2200000007}},{"attributes":{"ID":523170,"DIS_CODE":0,"TOWNNAME":"北區","LI":"元寶里","LIN":"6鄰","STREET":"北園街","SECT":" ","MAREA":" ","LANE":" ","ALLEY":" ","HOUSE_NO":"２６號五樓之２","E_COORD97":170387.19,"N_COORD97":2545704.2200000002,"ADDRESS":"北園街２６號五樓之２","OBJECTID":523143},"geometry":{"x":170387.19000000041,"y":2545704.2200000007}},{"attributes":{"ID":523171,"DIS_CODE":0,"TOWNNAME":"北區","LI":"元寶里","LIN":"6鄰","STREET":"北園街","SECT":" ","MAREA":" ","LANE":" ","ALLEY":" ","HOUSE_NO":"２６號五樓之３","E_COORD97":170387.19,"N_COORD97":2545704.2200000002,"ADDRESS":"北園街２６號五樓之３","OBJECTID":523144},"geometry":{"x":170387.19000000041,"y":2545704.2200000007}},{"attributes":{"ID":523172,"DIS_CODE":0,"TOWNNAME":"北區","LI":"元寶里","LIN":"6鄰","STREET":"北園街","SECT":" ","MAREA":" ","LANE":" ","ALLEY":" ","HOUSE_NO":"２６號五樓之５","E_COORD97":170387.19,"N_COORD97":2545704.2200000002,"ADDRESS":"北園街２６號五樓之５","OBJECTID":523145},"geometry":{"x":170387.19000000041,"y":2545704.2200000007}},{"attributes":{"ID":523173,"DIS_CODE":0,"TOWNNAME":"北區","LI":"元寶里","LIN":"6鄰","STREET":"北園街","SECT":" ","MAREA":" ","LANE":" ","ALLEY":" ","HOUSE_NO":"２６號五樓之６","E_COORD97":170387.19,"N_COORD97":2545704.2200000002,"ADDRESS":"北園街２６號五樓之６","OBJECTID":523146},"geometry":{"x":170387.19000000041,"y":2545704.2200000007}},{"attributes":{"ID":523174,"DIS_CODE":0,"TOWNNAME":"北區","LI":"元寶里","LIN":"6鄰","STREET":"北園街","SECT":" ","MAREA":" ","LANE":" ","ALLEY":" ","HOUSE_NO":"２６號五樓之７","E_COORD97":170387.19,"N_COORD97":2545704.2200000002,"ADDRESS":"北園街２６號五樓之７","OBJECTID":523147},"geometry":{"x":170387.19000000041,"y":2545704.2200000007}},{"attributes":{"ID":523175,"DIS_CODE":0,"TOWNNAME":"北區","LI":"元寶里","LIN":"6鄰","STREET":"北園街","SECT":" ","MAREA":" ","LANE":" ","ALLEY":" ","HOUSE_NO":"２６號五樓之８","E_COORD97":170387.19,"N_COORD97":2545704.2200000002,"ADDRESS":"北園街２６號五樓之８","OBJECTID":523148},"geometry":{"x":170387.19000000041,"y":2545704.2200000007}},{"attributes":{"ID":523176,"DIS_CODE":0,"TOWNNAME":"北區","LI":"元寶里","LIN":"6鄰","STREET":"北園街","SECT":" ","MAREA":" ","LANE":" ","ALLEY":" ","HOUSE_NO":"２６號五樓之９","E_COORD97":170387.19,"N_COORD97":2545704.2200000002,"ADDRESS":"北園街２６號五樓之９","OBJECTID":523149},"geometry":{"x":170387.19000000041,"y":2545704.2200000007}},{"attributes":{"ID":523177,"DIS_CODE":0,"TOWNNAME":"北區","LI":"元寶里","LIN":"6鄰","STREET":"北園街","SECT":" ","MAREA":" ","LANE":" ","ALLEY":" ","HOUSE_NO":"２６號六樓之１","E_COORD97":170387.19,"N_COORD97":2545704.2200000002,"ADDRESS":"北園街２６號六樓之１","OBJECTID":523150},"geometry":{"x":170387.19000000041,"y":2545704.2200000007}},{"attributes":{"ID":523178,"DIS_CODE":0,"TOWNNAME":"北區","LI":"元寶里","LIN":"6鄰","STREET":"北園街","SECT":" ","MAREA":" ","LANE":" ","ALLEY":" ","HOUSE_NO":"２６號六樓之２","E_COORD97":170387.19,"N_COORD97":2545704.2200000002,"ADDRESS":"北園街２６號六樓之２","OBJECTID":523151},"geometry":{"x":170387.19000000041,"y":2545704.2200000007}},{"attributes":{"ID":523179,"DIS_CODE":0,"TOWNNAME":"北區","LI":"元寶里","LIN":"6鄰","STREET":"北園街","SECT":" ","MAREA":" ","LANE":" ","ALLEY":" ","HOUSE_NO":"２６號六樓之５","E_COORD97":170387.19,"N_COORD97":2545704.2200000002,"ADDRESS":"北園街２６號六樓之５","OBJECTID":523152},"geometry":{"x":170387.19000000041,"y":2545704.2200000007}},{"attributes":{"ID":523180,"DIS_CODE":0,"TOWNNAME":"北區","LI":"元寶里","LIN":"6鄰","STREET":"北園街","SECT":" ","MAREA":" ","LANE":" ","ALLEY":" ","HOUSE_NO":"２６號六樓之６","E_COORD97":170387.19,"N_COORD97":2545704.2200000002,"ADDRESS":"北園街２６號六樓之６","OBJECTID":523153},"geometry":{"x":170387.19000000041,"y":2545704.2200000007}},{"attributes":{"ID":523181,"DIS_CODE":0,"TOWNNAME":"北區","LI":"元寶里","LIN":"6鄰","STREET":"北園街","SECT":" ","MAREA":" ","LANE":" ","ALLEY":" ","HOUSE_NO":"２６號六樓之７","E_COORD97":170387.19,"N_COORD97":2545704.2200000002,"ADDRESS":"北園街２６號六樓之７","OBJECTID":523154},"geometry":{"x":170387.19000000041,"y":2545704.2200000007}},{"attributes":{"ID":523182,"DIS_CODE":0,"TOWNNAME":"北區","LI":"元寶里","LIN":"6鄰","STREET":"北園街","SECT":" ","MAREA":" ","LANE":" ","ALLEY":" ","HOUSE_NO":"２６號六樓之８","E_COORD97":170387.19,"N_COORD97":2545704.2200000002,"ADDRESS":"北園街２６號六樓之８","OBJECTID":523155},"geometry":{"x":170387.19000000041,"y":2545704.2200000007}},{"attributes":{"ID":523183,"DIS_CODE":0,"TOWNNAME":"北區","LI":"元寶里","LIN":"6鄰","STREET":"北園街","SECT":" ","MAREA":" ","LANE":" ","ALLEY":" ","HOUSE_NO":"２６號六樓之９","E_COORD97":170387.19,"N_COORD97":2545704.2200000002,"ADDRESS":"北園街２６號六樓之９","OBJECTID":523156},"geometry":{"x":170387.19000000041,"y":2545704.2200000007}},{"attributes":{"ID":523184,"DIS_CODE":0,"TOWNNAME":"鹽水區","LI":"武廟里","LIN":"6鄰","STREET":"武廟路","SECT":" ","MAREA":" ","LANE":" ","ALLEY":" ","HOUSE_NO":"７６號六樓","E_COORD97":174924.57999999999,"N_COORD97":2580222.1000000001,"ADDRESS":"武廟路７６號六樓","OBJECTID":523157},"geometry":{"x":174924.58000000101,"y":2580222.0999999978}},{"attributes":{"ID":523185,"DIS_CODE":0,"TOWNNAME":"鹽水區","LI":"武廟里","LIN":"6鄰","STREET":"武廟路","SECT":" ","MAREA":" ","LANE":" ","ALLEY":" ","HOUSE_NO":"７６號四樓","E_COORD97":174924.57999999999,"N_COORD97":2580222.1000000001,"ADDRESS":"武廟路７６號四樓","OBJECTID":523158},"geometry":{"x":174924.58000000101,"y":2580222.0999999978}},{"attributes":{"ID":523186,"DIS_CODE":0,"TOWNNAME":"鹽水區","LI":"武廟里","LIN":"6鄰","STREET":"武廟路","SECT":" ","MAREA":" ","LANE":" ","ALLEY":" ","HOUSE_NO":"７６號三樓","E_COORD97":174924.57999999999,"N_COORD97":2580222.1000000001,"ADDRESS":"武廟路７６號三樓","OBJECTID":523159},"geometry":{"x":174924.58000000101,"y":2580222.0999999978}},{"attributes":{"ID":523187,"DIS_CODE":0,"TOWNNAME":"鹽水區","LI":"武廟里","LIN":"6鄰","STREET":"武廟路","SECT":" ","MAREA":" ","LANE":" ","ALLEY":" ","HOUSE_NO":"８２之５號二樓","E_COORD97":174955.84,"N_COORD97":2580239.6000000001,"ADDRESS":"武廟路８２之５號二樓","OBJECTID":523160},"geometry":{"x":174955.83999999985,"y":2580239.6000000015}},{"attributes":{"ID":523188,"DIS_CODE":0,"TOWNNAME":"東區","LI":"龍山里","LIN":"13鄰","STREET":"府東街","SECT":" ","MAREA":" ","LANE":" ","ALLEY":" ","HOUSE_NO":"１１１號","E_COORD97":169793.20000000001,"N_COORD97":2542910.73,"ADDRESS":"府東街１１１號","OBJECTID":523161},"geometry":{"x":169793.20000000019,"y":2542910.7300000004}},{"attributes":{"ID":523189,"DIS_CODE":0,"TOWNNAME":"安平區","LI":"建平里","LIN":"6鄰","STREET":"慶平路","SECT":" ","MAREA":" ","LANE":" ","ALLEY":" ","HOUSE_NO":"１６６號九樓之２","E_COORD97":165942.48999999999,"N_COORD97":2544206.29,"ADDRESS":"慶平路１６６號九樓之２","OBJECTID":523162},"geometry":{"x":165942.49000000115,"y":2544206.2899999991}},{"attributes":{"ID":523190,"DIS_CODE":0,"TOWNNAME":"安平區","LI":"建平里","LIN":"6鄰","STREET":"慶平路","SECT":" ","MAREA":" ","LANE":" ","ALLEY":" ","HOUSE_NO":"１６６號九樓之４","E_COORD97":165942.48999999999,"N_COORD97":2544206.29,"ADDRESS":"慶平路１６６號九樓之４","OBJECTID":523163},"geometry":{"x":165942.49000000115,"y":2544206.2899999991}},{"attributes":{"ID":523191,"DIS_CODE":0,"TOWNNAME":"安平區","LI":"怡平里","LIN":"6鄰","STREET":"慶平路","SECT":" ","MAREA":" ","LANE":" ","ALLEY":" ","HOUSE_NO":"２３４號十樓之１","E_COORD97":165744.56,"N_COORD97":2544194.4399999999,"ADDRESS":"慶平路２３４號十樓之１","OBJECTID":523164},"geometry":{"x":165744.56000000052,"y":2544194.4400000013}},{"attributes":{"ID":523192,"DIS_CODE":0,"TOWNNAME":"安平區","LI":"怡平里","LIN":"6鄰","STREET":"慶平路","SECT":" ","MAREA":" ","LANE":" ","ALLEY":" ","HOUSE_NO":"２３４號六樓之６","E_COORD97":165744.56,"N_COORD97":2544194.4399999999,"ADDRESS":"慶平路２３４號六樓之６","OBJECTID":523165},"geometry":{"x":165744.56000000052,"y":2544194.4400000013}},{"attributes":{"ID":523193,"DIS_CODE":0,"TOWNNAME":"鹽水區","LI":"武廟里","LIN":"6鄰","STREET":"武廟路","SECT":" ","MAREA":" ","LANE":" ","ALLEY":" ","HOUSE_NO":"７６號七樓","E_COORD97":174924.57999999999,"N_COORD97":2580222.1000000001,"ADDRESS":"武廟路７６號七樓","OBJECTID":523166},"geometry":{"x":174924.58000000101,"y":2580222.0999999978}},{"attributes":{"ID":523194,"DIS_CODE":0,"TOWNNAME":"鹽水區","LI":"武廟里","LIN":"6鄰","STREET":"武廟路","SECT":" ","MAREA":" ","LANE":" ","ALLEY":" ","HOUSE_NO":"８０之１號六樓","E_COORD97":174938.56,"N_COORD97":2580228.3900000001,"ADDRESS":"武廟路８０之１號六樓","OBJECTID":523167},"geometry":{"x":174938.55999999959,"y":2580228.3900000025}},{"attributes":{"ID":523195,"DIS_CODE":0,"TOWNNAME":"鹽水區","LI":"武廟里","LIN":"6鄰","STREET":"武廟路","SECT":" ","MAREA":" ","LANE":" ","ALLEY":" ","HOUSE_NO":"８０號之１七樓","E_COORD97":174938.56,"N_COORD97":2580228.3900000001,"ADDRESS":"武廟路８０號之１七樓","OBJECTID":523168},"geometry":{"x":174938.55999999959,"y":2580228.3900000025}},{"attributes":{"ID":523196,"DIS_CODE":0,"TOWNNAME":"鹽水區","LI":"武廟里","LIN":"6鄰","STREET":"武廟路","SECT":" ","MAREA":" ","LANE":" ","ALLEY":" ","HOUSE_NO":"８０號之１二樓","E_COORD97":174938.56,"N_COORD97":2580228.3900000001,"ADDRESS":"武廟路８０號之１二樓","OBJECTID":523169},"geometry":{"x":174938.55999999959,"y":2580228.3900000025}},{"attributes":{"ID":523197,"DIS_CODE":0,"TOWNNAME":"鹽水區","LI":"武廟里","LIN":"6鄰","STREET":"武廟路","SECT":" ","MAREA":" ","LANE":" ","ALLEY":" ","HOUSE_NO":"８０號之１三樓","E_COORD97":174938.56,"N_COORD97":2580228.3900000001,"ADDRESS":"武廟路８０號之１三樓","OBJECTID":523170},"geometry":{"x":174938.55999999959,"y":2580228.3900000025}},{"attributes":{"ID":523198,"DIS_CODE":0,"TOWNNAME":"鹽水區","LI":"武廟里","LIN":"6鄰","STREET":"武廟路","SECT":" ","MAREA":" ","LANE":" ","ALLEY":" ","HOUSE_NO":"８０號之１五樓","E_COORD97":174938.56,"N_COORD97":2580228.3900000001,"ADDRESS":"武廟路８０號之１五樓","OBJECTID":523171},"geometry":{"x":174938.55999999959,"y":2580228.3900000025}},{"attributes":{"ID":523199,"DIS_CODE":0,"TOWNNAME":"鹽水區","LI":"武廟里","LIN":"6鄰","STREET":"武廟路","SECT":" ","MAREA":" ","LANE":" ","ALLEY":" ","HOUSE_NO":"８０號之１六樓","E_COORD97":174938.56,"N_COORD97":2580228.3900000001,"ADDRESS":"武廟路８０號之１六樓","OBJECTID":523172},"geometry":{"x":174938.55999999959,"y":2580228.3900000025}},{"attributes":{"ID":523200,"DIS_CODE":0,"TOWNNAME":"鹽水區","LI":"武廟里","LIN":"6鄰","STREET":"武廟路","SECT":" ","MAREA":" ","LANE":" ","ALLEY":" ","HOUSE_NO":"８０號之１四樓","E_COORD97":174938.56,"N_COORD97":2580228.3900000001,"ADDRESS":"武廟路８０號之１四樓","OBJECTID":523173},"geometry":{"x":174938.55999999959,"y":2580228.3900000025}},{"attributes":{"ID":523201,"DIS_CODE":0,"TOWNNAME":"鹽水區","LI":"武廟里","LIN":"6鄰","STREET":"武廟路","SECT":" ","MAREA":" ","LANE":" ","ALLEY":" ","HOUSE_NO":"８０號七樓","E_COORD97":174924.35000000001,"N_COORD97":2580227.9700000002,"ADDRESS":"武廟路８０號七樓","OBJECTID":523174},"geometry":{"x":174924.34999999963,"y":2580227.9700000025}},{"attributes":{"ID":523202,"DIS_CODE":0,"TOWNNAME":"鹽水區","LI":"武廟里","LIN":"6鄰","STREET":"武廟路","SECT":" ","MAREA":" ","LANE":" ","ALLEY":" ","HOUSE_NO":"８０號三樓","E_COORD97":174924.35000000001,"N_COORD97":2580227.9700000002,"ADDRESS":"武廟路８０號三樓","OBJECTID":523175},"geometry":{"x":174924.34999999963,"y":2580227.9700000025}},{"attributes":{"ID":523203,"DIS_CODE":0,"TOWNNAME":"鹽水區","LI":"武廟里","LIN":"6鄰","STREET":"武廟路","SECT":" ","MAREA":" ","LANE":" ","ALLEY":" ","HOUSE_NO":"８０號六樓","E_COORD97":174924.35000000001,"N_COORD97":2580227.9700000002,"ADDRESS":"武廟路８０號六樓","OBJECTID":523176},"geometry":{"x":174924.34999999963,"y":2580227.9700000025}},{"attributes":{"ID":523204,"DIS_CODE":0,"TOWNNAME":"鹽水區","LI":"武廟里","LIN":"6鄰","STREET":"武廟路","SECT":" ","MAREA":" ","LANE":" ","ALLEY":" ","HOUSE_NO":"８０號四樓","E_COORD97":174924.35000000001,"N_COORD97":2580227.9700000002,"ADDRESS":"武廟路８０號四樓","OBJECTID":523177},"geometry":{"x":174924.34999999963,"y":2580227.9700000025}},{"attributes":{"ID":523205,"DIS_CODE":0,"TOWNNAME":"鹽水區","LI":"武廟里","LIN":"6鄰","STREET":"武廟路","SECT":" ","MAREA":" ","LANE":" ","ALLEY":" ","HOUSE_NO":"８２號之３一樓","E_COORD97":174949.84,"N_COORD97":2580239.6800000002,"ADDRESS":"武廟路８２號之３一樓","OBJECTID":523178},"geometry":{"x":174949.84000000078,"y":2580239.6800000016}},{"attributes":{"ID":523206,"DIS_CODE":0,"TOWNNAME":"鹽水區","LI":"武廟里","LIN":"6鄰","STREET":"武廟路","SECT":" ","MAREA":" ","LANE":" ","ALLEY":" ","HOUSE_NO":"８２號之３七樓","E_COORD97":174949.84,"N_COORD97":2580239.6800000002,"ADDRESS":"武廟路８２號之３七樓","OBJECTID":523179},"geometry":{"x":174949.84000000078,"y":2580239.6800000016}},{"attributes":{"ID":523207,"DIS_CODE":0,"TOWNNAME":"鹽水區","LI":"武廟里","LIN":"6鄰","STREET":"武廟路","SECT":" ","MAREA":" ","LANE":" ","ALLEY":" ","HOUSE_NO":"８２號之３二樓","E_COORD97":174949.84,"N_COORD97":2580239.6800000002,"ADDRESS":"武廟路８２號之３二樓","OBJECTID":523180},"geometry":{"x":174949.84000000078,"y":2580239.6800000016}},{"attributes":{"ID":523208,"DIS_CODE":0,"TOWNNAME":"鹽水區","LI":"武廟里","LIN":"6鄰","STREET":"武廟路","SECT":" ","MAREA":" ","LANE":" ","ALLEY":" ","HOUSE_NO":"８２號之３三樓","E_COORD97":174949.84,"N_COORD97":2580239.6800000002,"ADDRESS":"武廟路８２號之３三樓","OBJECTID":523181},"geometry":{"x":174949.84000000078,"y":2580239.6800000016}},{"attributes":{"ID":523209,"DIS_CODE":0,"TOWNNAME":"鹽水區","LI":"武廟里","LIN":"6鄰","STREET":"武廟路","SECT":" ","MAREA":" ","LANE":" ","ALLEY":" ","HOUSE_NO":"８２號之３五樓","E_COORD97":174949.84,"N_COORD97":2580239.6800000002,"ADDRESS":"武廟路８２號之３五樓","OBJECTID":523182},"geometry":{"x":174949.84000000078,"y":2580239.6800000016}},{"attributes":{"ID":523210,"DIS_CODE":0,"TOWNNAME":"鹽水區","LI":"武廟里","LIN":"6鄰","STREET":"武廟路","SECT":" ","MAREA":" ","LANE":" ","ALLEY":" ","HOUSE_NO":"８２號之３六樓","E_COORD97":174949.84,"N_COORD97":2580239.6800000002,"ADDRESS":"武廟路８２號之３六樓","OBJECTID":523183},"geometry":{"x":174949.84000000078,"y":2580239.6800000016}},{"attributes":{"ID":523211,"DIS_CODE":0,"TOWNNAME":"鹽水區","LI":"武廟里","LIN":"6鄰","STREET":"武廟路","SECT":" ","MAREA":" ","LANE":" ","ALLEY":" ","HOUSE_NO":"８２號之３四樓","E_COORD97":174949.84,"N_COORD97":2580239.6800000002,"ADDRESS":"武廟路８２號之３四樓","OBJECTID":523184},"geometry":{"x":174949.84000000078,"y":2580239.6800000016}},{"attributes":{"ID":523212,"DIS_CODE":0,"TOWNNAME":"鹽水區","LI":"武廟里","LIN":"6鄰","STREET":"武廟路","SECT":" ","MAREA":" ","LANE":" ","ALLEY":" ","HOUSE_NO":"８２之５號五樓","E_COORD97":174955.84,"N_COORD97":2580239.6000000001,"ADDRESS":"武廟路８２之５號五樓","OBJECTID":523185},"geometry":{"x":174955.83999999985,"y":2580239.6000000015}},{"attributes":{"ID":523213,"DIS_CODE":0,"TOWNNAME":"鹽水區","LI":"武廟里","LIN":"6鄰","STREET":"武廟路","SECT":" ","MAREA":" ","LANE":" ","ALLEY":" ","HOUSE_NO":"８２號之５七樓","E_COORD97":174955.84,"N_COORD97":2580239.6000000001,"ADDRESS":"武廟路８２號之５七樓","OBJECTID":523186},"geometry":{"x":174955.83999999985,"y":2580239.6000000015}},{"attributes":{"ID":523214,"DIS_CODE":0,"TOWNNAME":"鹽水區","LI":"武廟里","LIN":"6鄰","STREET":"武廟路","SECT":" ","MAREA":" ","LANE":" ","ALLEY":" ","HOUSE_NO":"８２號之５二樓","E_COORD97":174955.84,"N_COORD97":2580239.6000000001,"ADDRESS":"武廟路８２號之５二樓","OBJECTID":523187},"geometry":{"x":174955.83999999985,"y":2580239.6000000015}},{"attributes":{"ID":523215,"DIS_CODE":0,"TOWNNAME":"鹽水區","LI":"武廟里","LIN":"6鄰","STREET":"武廟路","SECT":" ","MAREA":" ","LANE":" ","ALLEY":" ","HOUSE_NO":"８２號之５三樓","E_COORD97":174955.84,"N_COORD97":2580239.6000000001,"ADDRESS":"武廟路８２號之５三樓","OBJECTID":523188},"geometry":{"x":174955.83999999985,"y":2580239.6000000015}},{"attributes":{"ID":523216,"DIS_CODE":0,"TOWNNAME":"鹽水區","LI":"武廟里","LIN":"6鄰","STREET":"武廟路","SECT":" ","MAREA":" ","LANE":" ","ALLEY":" ","HOUSE_NO":"８２號之５五樓","E_COORD97":174955.84,"N_COORD97":2580239.6000000001,"ADDRESS":"武廟路８２號之５五樓","OBJECTID":523189},"geometry":{"x":174955.83999999985,"y":2580239.6000000015}},{"attributes":{"ID":523217,"DIS_CODE":0,"TOWNNAME":"鹽水區","LI":"武廟里","LIN":"6鄰","STREET":"武廟路","SECT":" ","MAREA":" ","LANE":" ","ALLEY":" ","HOUSE_NO":"８２號之５六樓","E_COORD97":174955.84,"N_COORD97":2580239.6000000001,"ADDRESS":"武廟路８２號之５六樓","OBJECTID":523190},"geometry":{"x":174955.83999999985,"y":2580239.6000000015}},{"attributes":{"ID":523218,"DIS_CODE":0,"TOWNNAME":"東區","LI":"龍山里","LIN":"13鄰","STREET":"府東街","SECT":" ","MAREA":" ","LANE":" ","ALLEY":" ","HOUSE_NO":"９３號","E_COORD97":169855.85000000001,"N_COORD97":2542931.9100000001,"ADDRESS":"府東街９３號","OBJECTID":523191},"geometry":{"x":169855.84999999963,"y":2542931.9100000001}},{"attributes":{"ID":523219,"DIS_CODE":0,"TOWNNAME":"南區","LI":"文南里","LIN":"13鄰","STREET":"文南路","SECT":" ","MAREA":" ","LANE":" ","ALLEY":" ","HOUSE_NO":"１５號","E_COORD97":166912.28,"N_COORD97":2542560.3999999999,"ADDRESS":"文南路１５號","OBJECTID":523192},"geometry":{"x":166912.28000000119,"y":2542560.4000000004}},{"attributes":{"ID":523220,"DIS_CODE":0,"TOWNNAME":"鹽水區","LI":"武廟里","LIN":"6鄰","STREET":"武廟路","SECT":" ","MAREA":" ","LANE":" ","ALLEY":" ","HOUSE_NO":"８２號之５四樓","E_COORD97":174955.84,"N_COORD97":2580239.6000000001,"ADDRESS":"武廟路８２號之５四樓","OBJECTID":523193},"geometry":{"x":174955.83999999985,"y":2580239.6000000015}},{"attributes":{"ID":523221,"DIS_CODE":0,"TOWNNAME":"南區","LI":"再興里","LIN":"6鄰","STREET":"三官路","SECT":" ","MAREA":" ","LANE":" ","ALLEY":" ","HOUSE_NO":"２０號七樓之１","E_COORD97":167323.42999999999,"N_COORD97":2542374.8999999999,"ADDRESS":"三官路２０號七樓之１","OBJECTID":523194},"geometry":{"x":167323.43000000156,"y":2542374.9000000022}},{"attributes":{"ID":523222,"DIS_CODE":0,"TOWNNAME":"南區","LI":"再興里","LIN":"6鄰","STREET":"三官路","SECT":" ","MAREA":" ","LANE":" ","ALLEY":" ","HOUSE_NO":"２０號七樓之２","E_COORD97":167323.42999999999,"N_COORD97":2542374.8999999999,"ADDRESS":"三官路２０號七樓之２","OBJECTID":523195},"geometry":{"x":167323.43000000156,"y":2542374.9000000022}},{"attributes":{"ID":523223,"DIS_CODE":0,"TOWNNAME":"南區","LI":"再興里","LIN":"6鄰","STREET":"三官路","SECT":" ","MAREA":" ","LANE":" ","ALLEY":" ","HOUSE_NO":"２０號七樓之３","E_COORD97":167323.42999999999,"N_COORD97":2542374.8999999999,"ADDRESS":"三官路２０號七樓之３","OBJECTID":523196},"geometry":{"x":167323.43000000156,"y":2542374.9000000022}},{"attributes":{"ID":523224,"DIS_CODE":0,"TOWNNAME":"南區","LI":"再興里","LIN":"6鄰","STREET":"三官路","SECT":" ","MAREA":" ","LANE":" ","ALLEY":" ","HOUSE_NO":"２０號二樓之１","E_COORD97":167323.42999999999,"N_COORD97":2542374.8999999999,"ADDRESS":"三官路２０號二樓之１","OBJECTID":523197},"geometry":{"x":167323.43000000156,"y":2542374.9000000022}},{"attributes":{"ID":523225,"DIS_CODE":0,"TOWNNAME":"南區","LI":"再興里","LIN":"6鄰","STREET":"三官路","SECT":" ","MAREA":" ","LANE":" ","ALLEY":" ","HOUSE_NO":"２０號二樓之２","E_COORD97":167323.42999999999,"N_COORD97":2542374.8999999999,"ADDRESS":"三官路２０號二樓之２","OBJECTID":523198},"geometry":{"x":167323.43000000156,"y":2542374.9000000022}},{"attributes":{"ID":523226,"DIS_CODE":0,"TOWNNAME":"南區","LI":"再興里","LIN":"6鄰","STREET":"三官路","SECT":" ","MAREA":" ","LANE":" ","ALLEY":" ","HOUSE_NO":"２０號三樓之１","E_COORD97":167323.42999999999,"N_COORD97":2542374.8999999999,"ADDRESS":"三官路２０號三樓之１","OBJECTID":523199},"geometry":{"x":167323.43000000156,"y":2542374.9000000022}},{"attributes":{"ID":523227,"DIS_CODE":0,"TOWNNAME":"南區","LI":"再興里","LIN":"6鄰","STREET":"三官路","SECT":" ","MAREA":" ","LANE":" ","ALLEY":" ","HOUSE_NO":"２０號三樓之２","E_COORD97":167323.42999999999,"N_COORD97":2542374.8999999999,"ADDRESS":"三官路２０號三樓之２","OBJECTID":523200},"geometry":{"x":167323.43000000156,"y":2542374.9000000022}}]}