{"displayFieldName":"TOWNNAME","fieldAliases":{"ID":"ID","DIS_CODE":"DIS_CODE","TOWNNAME":"TOWNNAME","LI":"LI","LIN":"LIN","STREET":"STREET","SECT":"SECT","MAREA":"MAREA","LANE":"LANE","ALLEY":"ALLEY","HOUSE_NO":"HOUSE_NO","E_COORD97":"E_COORD97","N_COORD97":"N_COORD97","ADDRESS":"ADDRESS","OBJECTID":"OBJECTID"},"geometryType":"esriGeometryPoint","spatialReference":{"wkid":102443,"latestWkid":3826},"fields":[{"name":"ID","type":"esriFieldTypeDouble","alias":"ID"},{"name":"DIS_CODE","type":"esriFieldTypeInteger","alias":"DIS_CODE"},{"name":"TOWNNAME","type":"esriFieldTypeString","alias":"TOWNNAME","length":8},{"name":"LI","type":"esriFieldTypeString","alias":"LI","length":8},{"name":"LIN","type":"esriFieldTypeString","alias":"LIN","length":12},{"name":"STREET","type":"esriFieldTypeString","alias":"STREET","length":20},{"name":"SECT","type":"esriFieldTypeString","alias":"SECT","length":8},{"name":"MAREA","type":"esriFieldTypeString","alias":"MAREA","length":12},{"name":"LANE","type":"esriFieldTypeString","alias":"LANE","length":10},{"name":"ALLEY","type":"esriFieldTypeString","alias":"ALLEY","length":10},{"name":"HOUSE_NO","type":"esriFieldTypeString","alias":"HOUSE_NO","length":20},{"name":"E_COORD97","type":"esriFieldTypeDouble","alias":"E_COORD97"},{"name":"N_COORD97","type":"esriFieldTypeDouble","alias":"N_COORD97"},{"name":"ADDRESS","type":"esriFieldTypeString","alias":"ADDRESS","length":50},{"name":"OBJECTID","type":"esriFieldTypeOID","alias":"OBJECTID"}],"features":[{"attributes":{"ID":167602,"DIS_CODE":0,"TOWNNAME":"安南區","LI":"海南里","LIN":"4鄰","STREET":"府安路","SECT":"六段","MAREA":" ","LANE":"１０３巷","ALLEY":"７５弄","HOUSE_NO":"８號","E_COORD97":166660.92999999999,"N_COORD97":2546673.4500000002,"ADDRESS":"府安路六段１０３巷７５弄８號","OBJECTID":167601},"geometry":{"x":166660.93000000063,"y":2546673.4499999993}},{"attributes":{"ID":167603,"DIS_CODE":0,"TOWNNAME":"安南區","LI":"海南里","LIN":"4鄰","STREET":"府安路","SECT":"六段","MAREA":" ","LANE":"１０３巷","ALLEY":"７５弄","HOUSE_NO":"９號","E_COORD97":166657.17000000001,"N_COORD97":2546656.1800000002,"ADDRESS":"府安路六段１０３巷７５弄９號","OBJECTID":167602},"geometry":{"x":166657.16999999993,"y":2546656.1799999997}},{"attributes":{"ID":167604,"DIS_CODE":0,"TOWNNAME":"南區","LI":"大成里","LIN":"4鄰","STREET":"西門路","SECT":"一段","MAREA":" ","LANE":"３８０巷","ALLEY":"３０弄","HOUSE_NO":"６號","E_COORD97":167871.17000000001,"N_COORD97":2542376.8999999999,"ADDRESS":"西門路一段３８０巷３０弄６號","OBJECTID":167603},"geometry":{"x":167871.16999999993,"y":2542376.9000000004}},{"attributes":{"ID":167605,"DIS_CODE":0,"TOWNNAME":"南區","LI":"大成里","LIN":"4鄰","STREET":"西門路","SECT":"一段","MAREA":" ","LANE":"３８０巷","ALLEY":"３０弄","HOUSE_NO":"７號","E_COORD97":167894.19,"N_COORD97":2542373.0800000001,"ADDRESS":"西門路一段３８０巷３０弄７號","OBJECTID":167604},"geometry":{"x":167894.19000000134,"y":2542373.0800000019}},{"attributes":{"ID":167606,"DIS_CODE":0,"TOWNNAME":"南區","LI":"大成里","LIN":"4鄰","STREET":"西門路","SECT":"一段","MAREA":" ","LANE":"３８０巷","ALLEY":"３０弄","HOUSE_NO":"８號","E_COORD97":167871.17000000001,"N_COORD97":2542372.0099999998,"ADDRESS":"西門路一段３８０巷３０弄８號","OBJECTID":167605},"geometry":{"x":167871.16999999993,"y":2542372.0099999998}},{"attributes":{"ID":167607,"DIS_CODE":0,"TOWNNAME":"南區","LI":"大成里","LIN":"4鄰","STREET":"西門路","SECT":"一段","MAREA":" ","LANE":"３８０巷","ALLEY":"３０弄","HOUSE_NO":"９號","E_COORD97":167894.19,"N_COORD97":2542368.6099999999,"ADDRESS":"西門路一段３８０巷３０弄９號","OBJECTID":167606},"geometry":{"x":167894.19000000134,"y":2542368.6100000031}},{"attributes":{"ID":167608,"DIS_CODE":0,"TOWNNAME":"南區","LI":"南都里","LIN":"4鄰","STREET":"中華南路","SECT":"二段","MAREA":" ","LANE":"３１５巷","ALLEY":"１０弄","HOUSE_NO":"１０號","E_COORD97":166411.56,"N_COORD97":2540136.1000000001,"ADDRESS":"中華南路二段３１５巷１０弄１０號","OBJECTID":167607},"geometry":{"x":166411.55999999959,"y":2540136.1000000015}},{"attributes":{"ID":167609,"DIS_CODE":0,"TOWNNAME":"南區","LI":"南都里","LIN":"4鄰","STREET":"中華南路","SECT":"二段","MAREA":" ","LANE":"３１５巷","ALLEY":"１０弄","HOUSE_NO":"１２號","E_COORD97":166402.95000000001,"N_COORD97":2540135.7999999998,"ADDRESS":"中華南路二段３１５巷１０弄１２號","OBJECTID":167608},"geometry":{"x":166402.95000000019,"y":2540135.8000000026}},{"attributes":{"ID":167610,"DIS_CODE":0,"TOWNNAME":"南區","LI":"郡南里","LIN":"6鄰","STREET":"永興四街","SECT":" ","MAREA":" ","LANE":" ","ALLEY":" ","HOUSE_NO":"１８號","E_COORD97":167240.20000000001,"N_COORD97":2540577.1099999999,"ADDRESS":"永興四街１８號","OBJECTID":167609},"geometry":{"x":167240.20000000019,"y":2540577.1099999994}},{"attributes":{"ID":167611,"DIS_CODE":0,"TOWNNAME":"將軍區","LI":"忠興里","LIN":"12鄰","STREET":" ","SECT":" ","MAREA":"忠興","LANE":" ","ALLEY":" ","HOUSE_NO":"１２６號","E_COORD97":163737.67000000001,"N_COORD97":2567005.8100000001,"ADDRESS":"忠興１２６號","OBJECTID":167610},"geometry":{"x":163737.66999999993,"y":2567005.8099999987}},{"attributes":{"ID":167612,"DIS_CODE":0,"TOWNNAME":"後壁區","LI":"墨林里","LIN":"13鄰","STREET":" ","SECT":" ","MAREA":"菁寮","LANE":" ","ALLEY":" ","HOUSE_NO":"３２０號之１２","E_COORD97":182206.71737500001,"N_COORD97":2586361.1119900001,"ADDRESS":"菁寮３２０號之１２","OBJECTID":167611},"geometry":{"x":182206.71737500187,"y":2586361.1119930018}},{"attributes":{"ID":167613,"DIS_CODE":0,"TOWNNAME":"後壁區","LI":"墨林里","LIN":"13鄰","STREET":" ","SECT":" ","MAREA":"菁寮","LANE":" ","ALLEY":" ","HOUSE_NO":"３２０號之１３","E_COORD97":182207.995115,"N_COORD97":2586366.0658399998,"ADDRESS":"菁寮３２０號之１３","OBJECTID":167612},"geometry":{"x":182207.99511500169,"y":2586366.0658410024}},{"attributes":{"ID":167614,"DIS_CODE":0,"TOWNNAME":"後壁區","LI":"墨林里","LIN":"13鄰","STREET":" ","SECT":" ","MAREA":"菁寮","LANE":" ","ALLEY":" ","HOUSE_NO":"３２０號之１６","E_COORD97":182215.19151100001,"N_COORD97":2586381.2203199998,"ADDRESS":"菁寮３２０號之１６","OBJECTID":167613},"geometry":{"x":182215.19151100144,"y":2586381.2203160021}},{"attributes":{"ID":167615,"DIS_CODE":0,"TOWNNAME":"將軍區","LI":"長沙里","LIN":"12鄰","STREET":" ","SECT":" ","MAREA":"長沙","LANE":" ","ALLEY":" ","HOUSE_NO":"１００之２號","E_COORD97":157202.22,"N_COORD97":2568747.7000000002,"ADDRESS":"長沙１００之２號","OBJECTID":167614},"geometry":{"x":157202.21999999974,"y":2568747.6999999993}},{"attributes":{"ID":167616,"DIS_CODE":0,"TOWNNAME":"仁德區","LI":"中洲里","LIN":"1鄰","STREET":" ","SECT":" ","MAREA":"中洲","LANE":" ","ALLEY":" ","HOUSE_NO":"４號","E_COORD97":173580.54000000001,"N_COORD97":2534328,"ADDRESS":"中洲４號","OBJECTID":167615},"geometry":{"x":173580.54000000097,"y":2534328.0000000037}},{"attributes":{"ID":167617,"DIS_CODE":0,"TOWNNAME":"將軍區","LI":"長沙里","LIN":"12鄰","STREET":" ","SECT":" ","MAREA":"長沙","LANE":" ","ALLEY":" ","HOUSE_NO":"１００之４號","E_COORD97":157207.44,"N_COORD97":2568756.3999999999,"ADDRESS":"長沙１００之４號","OBJECTID":167616},"geometry":{"x":157207.44000000134,"y":2568756.4000000022}},{"attributes":{"ID":167618,"DIS_CODE":0,"TOWNNAME":"將軍區","LI":"長沙里","LIN":"12鄰","STREET":" ","SECT":" ","MAREA":"長沙","LANE":" ","ALLEY":" ","HOUSE_NO":"１００號","E_COORD97":157231.92999999999,"N_COORD97":2568756.1299999999,"ADDRESS":"長沙１００號","OBJECTID":167617},"geometry":{"x":157231.92999999877,"y":2568756.1300000008}},{"attributes":{"ID":167619,"DIS_CODE":0,"TOWNNAME":"將軍區","LI":"長沙里","LIN":"12鄰","STREET":" ","SECT":" ","MAREA":"長沙","LANE":" ","ALLEY":" ","HOUSE_NO":"１０１之１號","E_COORD97":157192.57000000001,"N_COORD97":2568716.02,"ADDRESS":"長沙１０１之１號","OBJECTID":167618},"geometry":{"x":157192.5700000003,"y":2568716.0200000033}},{"attributes":{"ID":167620,"DIS_CODE":0,"TOWNNAME":"將軍區","LI":"長沙里","LIN":"12鄰","STREET":" ","SECT":" ","MAREA":"長沙","LANE":" ","ALLEY":" ","HOUSE_NO":"１０１之２號","E_COORD97":157193.20000000001,"N_COORD97":2568720.1299999999,"ADDRESS":"長沙１０１之２號","OBJECTID":167619},"geometry":{"x":157193.20000000019,"y":2568720.129999999}},{"attributes":{"ID":167621,"DIS_CODE":0,"TOWNNAME":"將軍區","LI":"長沙里","LIN":"12鄰","STREET":" ","SECT":" ","MAREA":"長沙","LANE":" ","ALLEY":" ","HOUSE_NO":"１０１號","E_COORD97":157193.92000000001,"N_COORD97":2568709.3599999999,"ADDRESS":"長沙１０１號","OBJECTID":167620},"geometry":{"x":157193.92000000086,"y":2568709.3599999994}},{"attributes":{"ID":167622,"DIS_CODE":0,"TOWNNAME":"南區","LI":"南都里","LIN":"4鄰","STREET":"中華南路","SECT":"二段","MAREA":" ","LANE":"３１５巷","ALLEY":"１０弄","HOUSE_NO":"１４號","E_COORD97":166394.66,"N_COORD97":2540135.4900000002,"ADDRESS":"中華南路二段３１５巷１０弄１４號","OBJECTID":167621},"geometry":{"x":166394.66000000015,"y":2540135.4900000002}},{"attributes":{"ID":167623,"DIS_CODE":0,"TOWNNAME":"將軍區","LI":"長沙里","LIN":"12鄰","STREET":" ","SECT":" ","MAREA":"長沙","LANE":" ","ALLEY":" ","HOUSE_NO":"１０２號","E_COORD97":157194.20000000001,"N_COORD97":2568697.6400000001,"ADDRESS":"長沙１０２號","OBJECTID":167622},"geometry":{"x":157194.20000000112,"y":2568697.6400000006}},{"attributes":{"ID":167624,"DIS_CODE":0,"TOWNNAME":"將軍區","LI":"長沙里","LIN":"12鄰","STREET":" ","SECT":" ","MAREA":"長沙","LANE":" ","ALLEY":" ","HOUSE_NO":"１０３號","E_COORD97":157190.88,"N_COORD97":2568684.7000000002,"ADDRESS":"長沙１０３號","OBJECTID":167623},"geometry":{"x":157190.88000000082,"y":2568684.7000000011}},{"attributes":{"ID":167625,"DIS_CODE":0,"TOWNNAME":"將軍區","LI":"長沙里","LIN":"12鄰","STREET":" ","SECT":" ","MAREA":"長沙","LANE":" ","ALLEY":" ","HOUSE_NO":"１０５號","E_COORD97":157181.76999999999,"N_COORD97":2568652.2200000002,"ADDRESS":"長沙１０５號","OBJECTID":167624},"geometry":{"x":157181.76999999955,"y":2568652.2200000025}},{"attributes":{"ID":167626,"DIS_CODE":0,"TOWNNAME":"將軍區","LI":"長沙里","LIN":"12鄰","STREET":" ","SECT":" ","MAREA":"長沙","LANE":" ","ALLEY":" ","HOUSE_NO":"１０６之１號","E_COORD97":157163.07999999999,"N_COORD97":2568640.71,"ADDRESS":"長沙１０６之１號","OBJECTID":167625},"geometry":{"x":157163.08000000007,"y":2568640.7100000009}},{"attributes":{"ID":167627,"DIS_CODE":0,"TOWNNAME":"將軍區","LI":"長沙里","LIN":"12鄰","STREET":" ","SECT":" ","MAREA":"長沙","LANE":" ","ALLEY":" ","HOUSE_NO":"１０６之３號","E_COORD97":157187.82000000001,"N_COORD97":2568645.6000000001,"ADDRESS":"長沙１０６之３號","OBJECTID":167626},"geometry":{"x":157187.82000000123,"y":2568645.6000000015}},{"attributes":{"ID":167628,"DIS_CODE":0,"TOWNNAME":"將軍區","LI":"長沙里","LIN":"12鄰","STREET":" ","SECT":" ","MAREA":"長沙","LANE":" ","ALLEY":" ","HOUSE_NO":"１０６號","E_COORD97":157163,"N_COORD97":2568646.71,"ADDRESS":"長沙１０６號","OBJECTID":167627},"geometry":{"x":157163.00000000093,"y":2568646.7100000009}},{"attributes":{"ID":167629,"DIS_CODE":0,"TOWNNAME":"白河區","LI":"關嶺里","LIN":"12鄰","STREET":" ","SECT":" ","MAREA":"南寮","LANE":" ","ALLEY":" ","HOUSE_NO":"８０號","E_COORD97":196677.07999999999,"N_COORD97":2578003.4399999999,"ADDRESS":"南寮８０號","OBJECTID":167628},"geometry":{"x":196677.08000000101,"y":2578003.4400000013}},{"attributes":{"ID":167630,"DIS_CODE":0,"TOWNNAME":"南區","LI":"南都里","LIN":"4鄰","STREET":"中華南路","SECT":"二段","MAREA":" ","LANE":"３１５巷","ALLEY":"１０弄","HOUSE_NO":"１６號","E_COORD97":166387.29000000001,"N_COORD97":2540135.7999999998,"ADDRESS":"中華南路二段３１５巷１０弄１６號","OBJECTID":167629},"geometry":{"x":166387.2900000019,"y":2540135.8000000026}},{"attributes":{"ID":167631,"DIS_CODE":0,"TOWNNAME":"關廟區","LI":"埤頭里","LIN":"13鄰","STREET":"關新路","SECT":"二段","MAREA":" ","LANE":"４６２巷","ALLEY":"３６弄","HOUSE_NO":"２６號","E_COORD97":179286.465196,"N_COORD97":2545050.0843799999,"ADDRESS":"關新路二段４６２巷３６弄２６號","OBJECTID":167630},"geometry":{"x":179286.46519600134,"y":2545050.084377002}},{"attributes":{"ID":167632,"DIS_CODE":0,"TOWNNAME":"仁德區","LI":"仁愛里","LIN":"12鄰","STREET":" ","SECT":" ","MAREA":"仁愛","LANE":" ","ALLEY":" ","HOUSE_NO":"２５５號","E_COORD97":170297.87805500001,"N_COORD97":2540100.9539999999,"ADDRESS":"仁愛２５５號","OBJECTID":167631},"geometry":{"x":170297.87805500068,"y":2540100.953999998}},{"attributes":{"ID":167633,"DIS_CODE":0,"TOWNNAME":"白河區","LI":"昇安里","LIN":"12鄰","STREET":" ","SECT":" ","MAREA":"埤子頭","LANE":" ","ALLEY":" ","HOUSE_NO":"４５之１０號","E_COORD97":192407.5,"N_COORD97":2585098.8100000001,"ADDRESS":"埤子頭４５之１０號","OBJECTID":167632},"geometry":{"x":192407.50000000093,"y":2585098.8100000024}},{"attributes":{"ID":167634,"DIS_CODE":0,"TOWNNAME":"南區","LI":"南都里","LIN":"4鄰","STREET":"中華南路","SECT":"二段","MAREA":" ","LANE":"３１５巷","ALLEY":"１０弄","HOUSE_NO":"２號","E_COORD97":166445.82000000001,"N_COORD97":2540135.3399999999,"ADDRESS":"中華南路二段３１５巷１０弄２號","OBJECTID":167633},"geometry":{"x":166445.82000000123,"y":2540135.3399999999}},{"attributes":{"ID":167635,"DIS_CODE":0,"TOWNNAME":"白河區","LI":"昇安里","LIN":"12鄰","STREET":" ","SECT":" ","MAREA":"埤子頭","LANE":" ","ALLEY":" ","HOUSE_NO":"４５之１１號","E_COORD97":192407.23000000001,"N_COORD97":2585104.0899999999,"ADDRESS":"埤子頭４５之１１號","OBJECTID":167634},"geometry":{"x":192407.23000000045,"y":2585104.0899999999}},{"attributes":{"ID":167636,"DIS_CODE":0,"TOWNNAME":"白河區","LI":"昇安里","LIN":"12鄰","STREET":" ","SECT":" ","MAREA":"埤子頭","LANE":" ","ALLEY":" ","HOUSE_NO":"４５之１２號","E_COORD97":192406.95999999999,"N_COORD97":2585109.3799999999,"ADDRESS":"埤子頭４５之１２號","OBJECTID":167635},"geometry":{"x":192406.95999999996,"y":2585109.3800000008}},{"attributes":{"ID":167637,"DIS_CODE":0,"TOWNNAME":"白河區","LI":"昇安里","LIN":"12鄰","STREET":" ","SECT":" ","MAREA":"埤子頭","LANE":" ","ALLEY":" ","HOUSE_NO":"４５之５號","E_COORD97":192416.45999999999,"N_COORD97":2585084.9500000002,"ADDRESS":"埤子頭４５之５號","OBJECTID":167636},"geometry":{"x":192416.46000000089,"y":2585084.9500000011}},{"attributes":{"ID":167638,"DIS_CODE":0,"TOWNNAME":"白河區","LI":"昇安里","LIN":"12鄰","STREET":" ","SECT":" ","MAREA":"埤子頭","LANE":" ","ALLEY":" ","HOUSE_NO":"４５之６號","E_COORD97":192412.04999999999,"N_COORD97":2585084.77,"ADDRESS":"埤子頭４５之６號","OBJECTID":167637},"geometry":{"x":192412.05000000075,"y":2585084.7699999996}},{"attributes":{"ID":167639,"DIS_CODE":0,"TOWNNAME":"白河區","LI":"昇安里","LIN":"12鄰","STREET":" ","SECT":" ","MAREA":"埤子頭","LANE":" ","ALLEY":" ","HOUSE_NO":"４５之７號","E_COORD97":192407.64000000001,"N_COORD97":2585084.5899999999,"ADDRESS":"埤子頭４５之７號","OBJECTID":167638},"geometry":{"x":192407.6400000006,"y":2585084.5900000036}},{"attributes":{"ID":167640,"DIS_CODE":0,"TOWNNAME":"永康區","LI":"西勢里","LIN":"15鄰","STREET":"西勢路","SECT":" ","MAREA":" ","LANE":" ","ALLEY":" ","HOUSE_NO":"２８號","E_COORD97":176219.64999999999,"N_COORD97":2546783.0299999998,"ADDRESS":"西勢路２８號","OBJECTID":167639},"geometry":{"x":176219.6500000013,"y":2546783.0300000031}},{"attributes":{"ID":167641,"DIS_CODE":0,"TOWNNAME":"安定區","LI":"新吉里","LIN":"12鄰","STREET":" ","SECT":" ","MAREA":"新吉","LANE":" ","ALLEY":" ","HOUSE_NO":"１０１號之５","E_COORD97":169319.51000000001,"N_COORD97":2553981.2999999998,"ADDRESS":"新吉１０１號之５","OBJECTID":167640},"geometry":{"x":169319.50999999978,"y":2553981.3000000026}},{"attributes":{"ID":167642,"DIS_CODE":0,"TOWNNAME":"安定區","LI":"保西里","LIN":"12鄰","STREET":" ","SECT":" ","MAREA":"安定","LANE":" ","ALLEY":" ","HOUSE_NO":"４６８號","E_COORD97":171831.42000000001,"N_COORD97":2558054.3199999998,"ADDRESS":"安定４６８號","OBJECTID":167641},"geometry":{"x":171831.42000000179,"y":2558054.3200000003}},{"attributes":{"ID":167643,"DIS_CODE":0,"TOWNNAME":"安定區","LI":"保西里","LIN":"12鄰","STREET":" ","SECT":" ","MAREA":"安定","LANE":" ","ALLEY":" ","HOUSE_NO":"４６４號","E_COORD97":171829.01999999999,"N_COORD97":2558038.3199999998,"ADDRESS":"安定４６４號","OBJECTID":167642},"geometry":{"x":171829.02000000048,"y":2558038.320000004}},{"attributes":{"ID":167644,"DIS_CODE":0,"TOWNNAME":"安定區","LI":"安加里","LIN":"12鄰","STREET":" ","SECT":" ","MAREA":"安定","LANE":" ","ALLEY":" ","HOUSE_NO":"２８５之１號","E_COORD97":171632.42000000001,"N_COORD97":2557471.3199999998,"ADDRESS":"安定２８５之１號","OBJECTID":167643},"geometry":{"x":171632.41999999993,"y":2557471.3200000003}},{"attributes":{"ID":167645,"DIS_CODE":0,"TOWNNAME":"安定區","LI":"保西里","LIN":"12鄰","STREET":" ","SECT":" ","MAREA":"安定","LANE":" ","ALLEY":" ","HOUSE_NO":"４６８之１號","E_COORD97":171834.82000000001,"N_COORD97":2558058.3199999998,"ADDRESS":"安定４６８之１號","OBJECTID":167644},"geometry":{"x":171834.82000000123,"y":2558058.3199999984}},{"attributes":{"ID":167646,"DIS_CODE":0,"TOWNNAME":"安定區","LI":"管寮里","LIN":"12鄰","STREET":" ","SECT":" ","MAREA":"管寮","LANE":" ","ALLEY":" ","HOUSE_NO":"１１０號","E_COORD97":170017.19,"N_COORD97":2556321.25,"ADDRESS":"管寮１１０號","OBJECTID":167645},"geometry":{"x":170017.19000000041,"y":2556321.25}},{"attributes":{"ID":167647,"DIS_CODE":0,"TOWNNAME":"安定區","LI":"新吉里","LIN":"12鄰","STREET":" ","SECT":" ","MAREA":"新吉","LANE":" ","ALLEY":" ","HOUSE_NO":"９９號之８","E_COORD97":169395.26999999999,"N_COORD97":2553937.2999999998,"ADDRESS":"新吉９９之８號","OBJECTID":167646},"geometry":{"x":169395.26999999955,"y":2553937.3000000026}},{"attributes":{"ID":167648,"DIS_CODE":0,"TOWNNAME":"安定區","LI":"中榮里","LIN":"12鄰","STREET":" ","SECT":" ","MAREA":"許中營","LANE":" ","ALLEY":" ","HOUSE_NO":"９８號","E_COORD97":172460.14000000001,"N_COORD97":2555464.25,"ADDRESS":"許中營９８號","OBJECTID":167647},"geometry":{"x":172460.14000000153,"y":2555464.25}},{"attributes":{"ID":167649,"DIS_CODE":0,"TOWNNAME":"後壁區","LI":"墨林里","LIN":"13鄰","STREET":" ","SECT":" ","MAREA":"菁寮","LANE":" ","ALLEY":" ","HOUSE_NO":"３２０號之１","E_COORD97":182205.48000000001,"N_COORD97":2586321.52,"ADDRESS":"菁寮３２０號之１","OBJECTID":167648},"geometry":{"x":182205.48000000045,"y":2586321.5199999996}},{"attributes":{"ID":167650,"DIS_CODE":0,"TOWNNAME":"南區","LI":"南都里","LIN":"4鄰","STREET":"中華南路","SECT":"二段","MAREA":" ","LANE":"３１５巷","ALLEY":"１０弄","HOUSE_NO":"４號","E_COORD97":166438.14999999999,"N_COORD97":2540135.3399999999,"ADDRESS":"中華南路二段３１５巷１０弄４號","OBJECTID":167649},"geometry":{"x":166438.1500000013,"y":2540135.3399999999}},{"attributes":{"ID":167651,"DIS_CODE":0,"TOWNNAME":"南區","LI":"南都里","LIN":"4鄰","STREET":"中華南路","SECT":"二段","MAREA":" ","LANE":"３１５巷","ALLEY":"１０弄","HOUSE_NO":"６號","E_COORD97":166429.09,"N_COORD97":2540135.6899999999,"ADDRESS":"中華南路二段３１５巷１０弄６號","OBJECTID":167650},"geometry":{"x":166429.08999999892,"y":2540135.6899999995}},{"attributes":{"ID":167652,"DIS_CODE":0,"TOWNNAME":"南區","LI":"新生里","LIN":"4鄰","STREET":"大同路","SECT":"二段","MAREA":" ","LANE":"１８６巷","ALLEY":"５弄","HOUSE_NO":"６號","E_COORD97":169297.37,"N_COORD97":2541920.0099999998,"ADDRESS":"大同路二段１８６巷５弄６號","OBJECTID":167651},"geometry":{"x":169297.37000000011,"y":2541920.0100000016}},{"attributes":{"ID":167653,"DIS_CODE":0,"TOWNNAME":"南區","LI":"新生里","LIN":"4鄰","STREET":"大同路","SECT":"二段","MAREA":" ","LANE":"１８６巷","ALLEY":"５弄","HOUSE_NO":"８號","E_COORD97":169298.37,"N_COORD97":2541915.1699999999,"ADDRESS":"大同路二段１８６巷５弄８號","OBJECTID":167652},"geometry":{"x":169298.37000000104,"y":2541915.1700000018}},{"attributes":{"ID":167654,"DIS_CODE":0,"TOWNNAME":"南區","LI":"新生里","LIN":"4鄰","STREET":"大同路","SECT":"二段","MAREA":" ","LANE":"１８６巷","ALLEY":"５弄","HOUSE_NO":"１０號","E_COORD97":169299.51000000001,"N_COORD97":2541912.1800000002,"ADDRESS":"大同路二段１８６巷５弄１０號","OBJECTID":167653},"geometry":{"x":169299.50999999885,"y":2541912.1800000016}},{"attributes":{"ID":167655,"DIS_CODE":0,"TOWNNAME":"北區","LI":"國姓里","LIN":"4鄰","STREET":"公園路","SECT":" ","MAREA":" ","LANE":"４５１巷","ALLEY":"６７弄","HOUSE_NO":"１０號","E_COORD97":168815.79000000001,"N_COORD97":2545507.48,"ADDRESS":"公園路４５１巷６７弄１０號","OBJECTID":167654},"geometry":{"x":168815.79000000004,"y":2545507.4800000023}},{"attributes":{"ID":167656,"DIS_CODE":0,"TOWNNAME":"北區","LI":"國姓里","LIN":"4鄰","STREET":"公園路","SECT":" ","MAREA":" ","LANE":"４５１巷","ALLEY":"６７弄","HOUSE_NO":"１０號地下層","E_COORD97":168815.79000000001,"N_COORD97":2545507.48,"ADDRESS":"公園路４５１巷６７弄１０號地下層","OBJECTID":167655},"geometry":{"x":168815.79000000004,"y":2545507.4800000023}},{"attributes":{"ID":167657,"DIS_CODE":0,"TOWNNAME":"北區","LI":"國姓里","LIN":"4鄰","STREET":"公園路","SECT":" ","MAREA":" ","LANE":"４５１巷","ALLEY":"６７弄","HOUSE_NO":"２號","E_COORD97":168841.13,"N_COORD97":2545525.98,"ADDRESS":"公園路４５１巷６７弄２號","OBJECTID":167656},"geometry":{"x":168841.12999999896,"y":2545525.9800000004}},{"attributes":{"ID":167658,"DIS_CODE":0,"TOWNNAME":"北區","LI":"國姓里","LIN":"4鄰","STREET":"公園路","SECT":" ","MAREA":" ","LANE":"４５１巷","ALLEY":"６７弄","HOUSE_NO":"２號之１","E_COORD97":168833.92000000001,"N_COORD97":2545521.27,"ADDRESS":"公園路４５１巷６７弄２號之１","OBJECTID":167657},"geometry":{"x":168833.91999999993,"y":2545521.2700000014}},{"attributes":{"ID":167659,"DIS_CODE":0,"TOWNNAME":"北區","LI":"國姓里","LIN":"4鄰","STREET":"公園路","SECT":" ","MAREA":" ","LANE":"４５１巷","ALLEY":"６７弄","HOUSE_NO":"３號","E_COORD97":168848.62,"N_COORD97":2545504.9500000002,"ADDRESS":"公園路４５１巷６７弄３號","OBJECTID":167658},"geometry":{"x":168848.62000000104,"y":2545504.9499999993}},{"attributes":{"ID":167660,"DIS_CODE":0,"TOWNNAME":"北區","LI":"國姓里","LIN":"4鄰","STREET":"公園路","SECT":" ","MAREA":" ","LANE":"４５１巷","ALLEY":"６７弄","HOUSE_NO":"５號","E_COORD97":168843.35000000001,"N_COORD97":2545503.0099999998,"ADDRESS":"公園路４５１巷６７弄５號","OBJECTID":167659},"geometry":{"x":168843.35000000056,"y":2545503.0100000016}},{"attributes":{"ID":167661,"DIS_CODE":0,"TOWNNAME":"新營區","LI":"新東里","LIN":"14鄰","STREET":"東興六街","SECT":" ","MAREA":" ","LANE":"８９巷","ALLEY":"２０弄","HOUSE_NO":"５號","E_COORD97":180973.46559199999,"N_COORD97":2579329.4043299998,"ADDRESS":"東興六街８９巷２０弄５號","OBJECTID":167660},"geometry":{"x":180973.46559199877,"y":2579329.4043310024}},{"attributes":{"ID":167662,"DIS_CODE":0,"TOWNNAME":"佳里區","LI":"鎮山里","LIN":"12鄰","STREET":"延平路","SECT":" ","MAREA":" ","LANE":" ","ALLEY":" ","HOUSE_NO":"３７號","E_COORD97":165953.59,"N_COORD97":2561654.21,"ADDRESS":"延平路３７號","OBJECTID":167661},"geometry":{"x":165953.59000000078,"y":2561654.2100000028}},{"attributes":{"ID":167663,"DIS_CODE":0,"TOWNNAME":"安南區","LI":"州北里","LIN":"24鄰","STREET":"長和路","SECT":"二段","MAREA":" ","LANE":"１２巷","ALLEY":"２１３弄","HOUSE_NO":"７號","E_COORD97":170333.72,"N_COORD97":2552013.8700000001,"ADDRESS":"長和路二段１２巷２１３弄７號","OBJECTID":167662},"geometry":{"x":170333.71999999974,"y":2552013.8700000048}},{"attributes":{"ID":167664,"DIS_CODE":0,"TOWNNAME":"安南區","LI":"州北里","LIN":"24鄰","STREET":"長和路","SECT":"二段","MAREA":" ","LANE":"１４０巷","ALLEY":"２１３弄","HOUSE_NO":"２０號","E_COORD97":170301.38709999999,"N_COORD97":2551988.2436799998,"ADDRESS":"長和路二段１４０巷２１３弄２０號","OBJECTID":167663},"geometry":{"x":170301.38710000087,"y":2551988.2436800003}},{"attributes":{"ID":167665,"DIS_CODE":0,"TOWNNAME":"關廟區","LI":"埤頭里","LIN":"13鄰","STREET":"關新路","SECT":"二段","MAREA":" ","LANE":"４６２巷","ALLEY":"１６弄","HOUSE_NO":"３號","E_COORD97":179247.69345799999,"N_COORD97":2545106.70518,"ADDRESS":"關新路二段４６２巷１６弄３號","OBJECTID":167664},"geometry":{"x":179247.69345800113,"y":2545106.7051800024}},{"attributes":{"ID":167666,"DIS_CODE":0,"TOWNNAME":"關廟區","LI":"埤頭里","LIN":"13鄰","STREET":"關新路","SECT":"二段","MAREA":" ","LANE":"４６２巷","ALLEY":"１６弄","HOUSE_NO":"２７號","E_COORD97":179241.54930300001,"N_COORD97":2545021.93273,"ADDRESS":"關新路二段４６２巷１６弄２７號","OBJECTID":167665},"geometry":{"x":179241.54930299986,"y":2545021.9327260014}},{"attributes":{"ID":167667,"DIS_CODE":0,"TOWNNAME":"仁德區","LI":"後壁里","LIN":"12鄰","STREET":"德南路","SECT":" ","MAREA":" ","LANE":"２５１巷","ALLEY":"２９弄","HOUSE_NO":"１號","E_COORD97":173825.80401600001,"N_COORD97":2538477.9518900001,"ADDRESS":"德南路２５１巷２９弄１號","OBJECTID":167666},"geometry":{"x":173825.80401599966,"y":2538477.9518930018}},{"attributes":{"ID":167668,"DIS_CODE":0,"TOWNNAME":"仁德區","LI":"後壁里","LIN":"12鄰","STREET":"德南路","SECT":" ","MAREA":" ","LANE":"２５１巷","ALLEY":"２９弄","HOUSE_NO":"３號","E_COORD97":173821.99163100001,"N_COORD97":2538480.2802200001,"ADDRESS":"德南路２５１巷２９弄３號","OBJECTID":167667},"geometry":{"x":173821.9916310003,"y":2538480.2802249994}},{"attributes":{"ID":167669,"DIS_CODE":0,"TOWNNAME":"佳里區","LI":"鎮山里","LIN":"12鄰","STREET":"延平路","SECT":" ","MAREA":" ","LANE":" ","ALLEY":" ","HOUSE_NO":"３９號","E_COORD97":165948.12,"N_COORD97":2561663.4900000002,"ADDRESS":"延平路３９號","OBJECTID":167668},"geometry":{"x":165948.12000000104,"y":2561663.4900000002}},{"attributes":{"ID":167670,"DIS_CODE":0,"TOWNNAME":"後壁區","LI":"墨林里","LIN":"13鄰","STREET":" ","SECT":" ","MAREA":"菁寮","LANE":" ","ALLEY":" ","HOUSE_NO":"３２０號之２","E_COORD97":182205.42999999999,"N_COORD97":2586324.9199999999,"ADDRESS":"菁寮３２０號之２","OBJECTID":167669},"geometry":{"x":182205.42999999877,"y":2586324.9199999999}},{"attributes":{"ID":167671,"DIS_CODE":0,"TOWNNAME":"後壁區","LI":"墨林里","LIN":"13鄰","STREET":" ","SECT":" ","MAREA":"菁寮","LANE":" ","ALLEY":" ","HOUSE_NO":"３２０號之３","E_COORD97":182205.45999999999,"N_COORD97":2586328.46,"ADDRESS":"菁寮３２０號之３","OBJECTID":167670},"geometry":{"x":182205.45999999996,"y":2586328.4600000028}},{"attributes":{"ID":167672,"DIS_CODE":0,"TOWNNAME":"後壁區","LI":"墨林里","LIN":"13鄰","STREET":" ","SECT":" ","MAREA":"菁寮","LANE":" ","ALLEY":" ","HOUSE_NO":"３２０號之５","E_COORD97":182205.34,"N_COORD97":2586335.21,"ADDRESS":"菁寮３２０號之５","OBJECTID":167671},"geometry":{"x":182205.34000000078,"y":2586335.2100000009}},{"attributes":{"ID":167673,"DIS_CODE":0,"TOWNNAME":"後壁區","LI":"墨林里","LIN":"13鄰","STREET":" ","SECT":" ","MAREA":"菁寮","LANE":" ","ALLEY":" ","HOUSE_NO":"３２０號之６","E_COORD97":182206.07999999999,"N_COORD97":2586338.9900000002,"ADDRESS":"菁寮３２０號之６","OBJECTID":167672},"geometry":{"x":182206.08000000007,"y":2586338.9900000002}},{"attributes":{"ID":167674,"DIS_CODE":0,"TOWNNAME":"後壁區","LI":"墨林里","LIN":"13鄰","STREET":" ","SECT":" ","MAREA":"菁寮","LANE":" ","ALLEY":" ","HOUSE_NO":"３２０號之７","E_COORD97":182206.01000000001,"N_COORD97":2586342.5699999998,"ADDRESS":"菁寮３２０號之７","OBJECTID":167673},"geometry":{"x":182206.00999999978,"y":2586342.5699999984}},{"attributes":{"ID":167675,"DIS_CODE":0,"TOWNNAME":"後壁區","LI":"墨林里","LIN":"13鄰","STREET":" ","SECT":" ","MAREA":"菁寮","LANE":" ","ALLEY":" ","HOUSE_NO":"３２０號之９","E_COORD97":182206.17999999999,"N_COORD97":2586350.3500000001,"ADDRESS":"菁寮３２０號之９","OBJECTID":167674},"geometry":{"x":182206.18000000063,"y":2586350.3500000034}},{"attributes":{"ID":167676,"DIS_CODE":0,"TOWNNAME":"後壁區","LI":"墨林里","LIN":"13鄰","STREET":" ","SECT":" ","MAREA":"菁寮","LANE":" ","ALLEY":" ","HOUSE_NO":"３２１號之１","E_COORD97":182189.35999999999,"N_COORD97":2586309.77,"ADDRESS":"菁寮３２１號之１","OBJECTID":167675},"geometry":{"x":182189.36000000034,"y":2586309.7699999996}},{"attributes":{"ID":167677,"DIS_CODE":0,"TOWNNAME":"後壁區","LI":"墨林里","LIN":"13鄰","STREET":" ","SECT":" ","MAREA":"菁寮","LANE":" ","ALLEY":" ","HOUSE_NO":"３２１號之２","E_COORD97":182187.75,"N_COORD97":2586301.4700000002,"ADDRESS":"菁寮３２１號之２","OBJECTID":167676},"geometry":{"x":182187.75,"y":2586301.4700000025}},{"attributes":{"ID":167678,"DIS_CODE":0,"TOWNNAME":"後壁區","LI":"墨林里","LIN":"13鄰","STREET":" ","SECT":" ","MAREA":"菁寮","LANE":" ","ALLEY":" ","HOUSE_NO":"３２１號之４","E_COORD97":182188.57999999999,"N_COORD97":2586293.04,"ADDRESS":"菁寮３２１號之４","OBJECTID":167677},"geometry":{"x":182188.58000000101,"y":2586293.0399999991}},{"attributes":{"ID":167679,"DIS_CODE":0,"TOWNNAME":"後壁區","LI":"墨林里","LIN":"13鄰","STREET":" ","SECT":" ","MAREA":"菁寮","LANE":" ","ALLEY":" ","HOUSE_NO":"３２１號之５","E_COORD97":182189.03,"N_COORD97":2586288.8900000001,"ADDRESS":"菁寮３２１號之５","OBJECTID":167678},"geometry":{"x":182189.03000000119,"y":2586288.8900000006}},{"attributes":{"ID":167680,"DIS_CODE":0,"TOWNNAME":"後壁區","LI":"墨林里","LIN":"13鄰","STREET":" ","SECT":" ","MAREA":"菁寮","LANE":" ","ALLEY":" ","HOUSE_NO":"３２１之６號","E_COORD97":182189.44,"N_COORD97":2586285.0299999998,"ADDRESS":"菁寮３２１之６號","OBJECTID":167679},"geometry":{"x":182189.44000000134,"y":2586285.0300000012}},{"attributes":{"ID":167681,"DIS_CODE":0,"TOWNNAME":"後壁區","LI":"墨林里","LIN":"13鄰","STREET":" ","SECT":" ","MAREA":"菁寮","LANE":" ","ALLEY":" ","HOUSE_NO":"３２１之７號","E_COORD97":182189.48999999999,"N_COORD97":2586281.3100000001,"ADDRESS":"菁寮３２１之７號","OBJECTID":167680},"geometry":{"x":182189.49000000115,"y":2586281.3100000024}},{"attributes":{"ID":167682,"DIS_CODE":0,"TOWNNAME":"佳里區","LI":"忠仁里","LIN":"12鄰","STREET":" ","SECT":" ","MAREA":"忠仁","LANE":" ","ALLEY":" ","HOUSE_NO":"８３號","E_COORD97":166079.22,"N_COORD97":2562303.5899999999,"ADDRESS":"忠仁８３號","OBJECTID":167681},"geometry":{"x":166079.22000000067,"y":2562303.5899999999}},{"attributes":{"ID":167683,"DIS_CODE":0,"TOWNNAME":"佳里區","LI":"忠仁里","LIN":"12鄰","STREET":" ","SECT":" ","MAREA":"忠仁","LANE":" ","ALLEY":" ","HOUSE_NO":"８６號之１","E_COORD97":166084.92000000001,"N_COORD97":2562339.4399999999,"ADDRESS":"忠仁８６號之１","OBJECTID":167682},"geometry":{"x":166084.92000000086,"y":2562339.4400000013}},{"attributes":{"ID":167684,"DIS_CODE":0,"TOWNNAME":"佳里區","LI":"忠仁里","LIN":"12鄰","STREET":" ","SECT":" ","MAREA":"忠仁","LANE":" ","ALLEY":" ","HOUSE_NO":"８６號","E_COORD97":166103.20000000001,"N_COORD97":2562340.9399999999,"ADDRESS":"忠仁８６號","OBJECTID":167683},"geometry":{"x":166103.19999999925,"y":2562340.9399999995}},{"attributes":{"ID":167685,"DIS_CODE":0,"TOWNNAME":"仁德區","LI":"後壁里","LIN":"12鄰","STREET":"德南路","SECT":" ","MAREA":" ","LANE":"２５１巷","ALLEY":"２９弄","HOUSE_NO":"５號","E_COORD97":173817.967447,"N_COORD97":2538483.0318900002,"ADDRESS":"德南路２５１巷２９弄５號","OBJECTID":167684},"geometry":{"x":173817.96744699962,"y":2538483.0318900011}},{"attributes":{"ID":167686,"DIS_CODE":0,"TOWNNAME":"仁德區","LI":"後壁里","LIN":"12鄰","STREET":"德南路","SECT":" ","MAREA":" ","LANE":"２５１巷","ALLEY":"２９弄","HOUSE_NO":"７號","E_COORD97":173814.15506200001,"N_COORD97":2538484.93689,"ADDRESS":"德南路２５１巷２９弄７號","OBJECTID":167685},"geometry":{"x":173814.15506200027,"y":2538484.9368890002}},{"attributes":{"ID":167687,"DIS_CODE":0,"TOWNNAME":"關廟區","LI":"埤頭里","LIN":"13鄰","STREET":"關新路","SECT":"二段","MAREA":" ","LANE":"４６２巷","ALLEY":"１６弄","HOUSE_NO":"１５號","E_COORD97":179243.45611,"N_COORD97":2545071.4627,"ADDRESS":"關新路二段４６２巷１６弄１５號","OBJECTID":167686},"geometry":{"x":179243.45610999968,"y":2545071.4626990017}},{"attributes":{"ID":167688,"DIS_CODE":0,"TOWNNAME":"仁德區","LI":"後壁里","LIN":"12鄰","STREET":"德南路","SECT":" ","MAREA":" ","LANE":"２５１巷","ALLEY":"２９弄","HOUSE_NO":"２３號","E_COORD97":173794.35183900001,"N_COORD97":2538512.40062,"ADDRESS":"德南路２５１巷２９弄２３號","OBJECTID":167687},"geometry":{"x":173794.35183900129,"y":2538512.4006249998}},{"attributes":{"ID":167689,"DIS_CODE":0,"TOWNNAME":"仁德區","LI":"後壁里","LIN":"12鄰","STREET":"德南路","SECT":" ","MAREA":" ","LANE":"２５１巷","ALLEY":"２９弄","HOUSE_NO":"２５號","E_COORD97":173800.28221599999,"N_COORD97":2538520.2322900002,"ADDRESS":"德南路２５１巷２９弄２５號","OBJECTID":167688},"geometry":{"x":173800.28221600037,"y":2538520.2322870046}},{"attributes":{"ID":167690,"DIS_CODE":0,"TOWNNAME":"關廟區","LI":"埤頭里","LIN":"13鄰","STREET":"關新路","SECT":"二段","MAREA":" ","LANE":"４６２巷","ALLEY":"１６弄","HOUSE_NO":"１３號","E_COORD97":179241.76117000001,"N_COORD97":2545084.3743599998,"ADDRESS":"關新路二段４６２巷１６弄１３號","OBJECTID":167689},"geometry":{"x":179241.76117000077,"y":2545084.3743590005}},{"attributes":{"ID":167691,"DIS_CODE":0,"TOWNNAME":"仁德區","LI":"後壁里","LIN":"12鄰","STREET":"德南路","SECT":" ","MAREA":" ","LANE":"２５１巷","ALLEY":"２９弄","HOUSE_NO":"２７號","E_COORD97":173805.57719499999,"N_COORD97":2538526.7939499998,"ADDRESS":"德南路２５１巷２９弄２７號","OBJECTID":167690},"geometry":{"x":173805.57719500083,"y":2538526.7939500008}},{"attributes":{"ID":167692,"DIS_CODE":0,"TOWNNAME":"仁德區","LI":"後壁里","LIN":"12鄰","STREET":"德南路","SECT":" ","MAREA":" ","LANE":"２５１巷","ALLEY":"２９弄","HOUSE_NO":"２９號","E_COORD97":173810.448576,"N_COORD97":2538533.7789500002,"ADDRESS":"德南路２５１巷２９弄２９號","OBJECTID":167691},"geometry":{"x":173810.44857600052,"y":2538533.7789460029}},{"attributes":{"ID":167693,"DIS_CODE":0,"TOWNNAME":"仁德區","LI":"後壁里","LIN":"12鄰","STREET":"德南路","SECT":" ","MAREA":" ","LANE":"２５１巷","ALLEY":"２９弄","HOUSE_NO":"２號","E_COORD97":173832.26389100001,"N_COORD97":2538485.7306400002,"ADDRESS":"德南路２５１巷２９弄２號","OBJECTID":167692},"geometry":{"x":173832.26389099937,"y":2538485.7306389995}},{"attributes":{"ID":167694,"DIS_CODE":0,"TOWNNAME":"仁德區","LI":"後壁里","LIN":"12鄰","STREET":"德南路","SECT":" ","MAREA":" ","LANE":"２５１巷","ALLEY":"２９弄","HOUSE_NO":"６號","E_COORD97":173828.45150600001,"N_COORD97":2538489.3289700001,"ADDRESS":"德南路２５１巷２９弄６號","OBJECTID":167693},"geometry":{"x":173828.45150600001,"y":2538489.328970002}},{"attributes":{"ID":167695,"DIS_CODE":0,"TOWNNAME":"後壁區","LI":"墨林里","LIN":"13鄰","STREET":" ","SECT":" ","MAREA":"菁寮","LANE":" ","ALLEY":" ","HOUSE_NO":"３２１號之８附１","E_COORD97":182179.32000000001,"N_COORD97":2586255.8199999998,"ADDRESS":"菁寮３２１號之８附１","OBJECTID":167694},"geometry":{"x":182179.3200000003,"y":2586255.8200000003}},{"attributes":{"ID":167696,"DIS_CODE":0,"TOWNNAME":"後壁區","LI":"墨林里","LIN":"13鄰","STREET":" ","SECT":" ","MAREA":"菁寮","LANE":" ","ALLEY":" ","HOUSE_NO":"３２１之８號","E_COORD97":182189.66,"N_COORD97":2586277.6000000001,"ADDRESS":"菁寮３２１之８號","OBJECTID":167695},"geometry":{"x":182189.66000000108,"y":2586277.6000000034}},{"attributes":{"ID":167697,"DIS_CODE":0,"TOWNNAME":"後壁區","LI":"墨林里","LIN":"13鄰","STREET":" ","SECT":" ","MAREA":"菁寮","LANE":" ","ALLEY":" ","HOUSE_NO":"３２１號之９","E_COORD97":182190.03,"N_COORD97":2586272.7200000002,"ADDRESS":"菁寮３２１號之９","OBJECTID":167696},"geometry":{"x":182190.03000000026,"y":2586272.7200000007}},{"attributes":{"ID":167698,"DIS_CODE":0,"TOWNNAME":"後壁區","LI":"墨林里","LIN":"13鄰","STREET":" ","SECT":" ","MAREA":"菁寮","LANE":" ","ALLEY":" ","HOUSE_NO":"３２３號之２","E_COORD97":182197.85000000001,"N_COORD97":2586383.0600000001,"ADDRESS":"菁寮３２３號之２","OBJECTID":167697},"geometry":{"x":182197.85000000056,"y":2586383.0600000005}},{"attributes":{"ID":167699,"DIS_CODE":0,"TOWNNAME":"後壁區","LI":"墨林里","LIN":"13鄰","STREET":" ","SECT":" ","MAREA":"菁寮","LANE":" ","ALLEY":" ","HOUSE_NO":"３２３號之３","E_COORD97":182201.12,"N_COORD97":2586383.71,"ADDRESS":"菁寮３２３號之３","OBJECTID":167698},"geometry":{"x":182201.12000000011,"y":2586383.7100000028}},{"attributes":{"ID":167700,"DIS_CODE":0,"TOWNNAME":"後壁區","LI":"墨林里","LIN":"13鄰","STREET":" ","SECT":" ","MAREA":"菁寮","LANE":" ","ALLEY":" ","HOUSE_NO":"３２３號之４","E_COORD97":182204.25,"N_COORD97":2586384.8500000001,"ADDRESS":"菁寮３２３號之４","OBJECTID":167699},"geometry":{"x":182204.25000000093,"y":2586384.8500000015}},{"attributes":{"ID":167701,"DIS_CODE":0,"TOWNNAME":"後壁區","LI":"墨林里","LIN":"13鄰","STREET":" ","SECT":" ","MAREA":"菁寮","LANE":" ","ALLEY":" ","HOUSE_NO":"３２３號","E_COORD97":182190.53,"N_COORD97":2586381.3599999999,"ADDRESS":"菁寮３２３號","OBJECTID":167700},"geometry":{"x":182190.53000000119,"y":2586381.3600000013}},{"attributes":{"ID":167702,"DIS_CODE":0,"TOWNNAME":"後壁區","LI":"墨林里","LIN":"13鄰","STREET":" ","SECT":" ","MAREA":"菁寮","LANE":" ","ALLEY":" ","HOUSE_NO":"３２４號","E_COORD97":182186.10999999999,"N_COORD97":2586380.8700000001,"ADDRESS":"菁寮３２４號","OBJECTID":167701},"geometry":{"x":182186.11000000034,"y":2586380.870000001}},{"attributes":{"ID":167703,"DIS_CODE":0,"TOWNNAME":"後壁區","LI":"墨林里","LIN":"13鄰","STREET":" ","SECT":" ","MAREA":"菁寮","LANE":" ","ALLEY":" ","HOUSE_NO":"３２５號","E_COORD97":182181.20000000001,"N_COORD97":2586380.1400000001,"ADDRESS":"菁寮３２５號","OBJECTID":167702},"geometry":{"x":182181.20000000112,"y":2586380.1400000043}},{"attributes":{"ID":167704,"DIS_CODE":0,"TOWNNAME":"後壁區","LI":"墨林里","LIN":"13鄰","STREET":" ","SECT":" ","MAREA":"菁寮","LANE":" ","ALLEY":" ","HOUSE_NO":"３２７號之１","E_COORD97":182166.12,"N_COORD97":2586376.9300000002,"ADDRESS":"菁寮３２７號之１","OBJECTID":167703},"geometry":{"x":182166.12000000104,"y":2586376.9300000034}},{"attributes":{"ID":167705,"DIS_CODE":0,"TOWNNAME":"後壁區","LI":"墨林里","LIN":"13鄰","STREET":" ","SECT":" ","MAREA":"菁寮","LANE":" ","ALLEY":" ","HOUSE_NO":"３２７號","E_COORD97":182169.47,"N_COORD97":2586377.6400000001,"ADDRESS":"菁寮３２７號","OBJECTID":167704},"geometry":{"x":182169.46999999974,"y":2586377.6400000025}},{"attributes":{"ID":167706,"DIS_CODE":0,"TOWNNAME":"後壁區","LI":"墨林里","LIN":"13鄰","STREET":" ","SECT":" ","MAREA":"菁寮","LANE":" ","ALLEY":" ","HOUSE_NO":"３２９號","E_COORD97":182156.32000000001,"N_COORD97":2586373.1400000001,"ADDRESS":"菁寮３２９號","OBJECTID":167705},"geometry":{"x":182156.32000000123,"y":2586373.1400000043}},{"attributes":{"ID":167707,"DIS_CODE":0,"TOWNNAME":"東區","LI":"龍山里","LIN":"3鄰","STREET":"富德街","SECT":" ","MAREA":" ","LANE":"２５巷","ALLEY":"１弄","HOUSE_NO":"２９號","E_COORD97":170296.28102200001,"N_COORD97":2542808.9229299999,"ADDRESS":"富德街２５巷１弄２９號","OBJECTID":167706},"geometry":{"x":170296.28102200013,"y":2542808.9229320008}},{"attributes":{"ID":167708,"DIS_CODE":0,"TOWNNAME":"仁德區","LI":"後壁里","LIN":"12鄰","STREET":"德南路","SECT":" ","MAREA":" ","LANE":"２５１巷","ALLEY":"２９弄","HOUSE_NO":"８號","E_COORD97":173824.21552299999,"N_COORD97":2538491.8689700002,"ADDRESS":"德南路２５１巷２９弄８號","OBJECTID":167707},"geometry":{"x":173824.21552300081,"y":2538491.8689690009}},{"attributes":{"ID":167709,"DIS_CODE":0,"TOWNNAME":"安南區","LI":"\u25A0田里","LIN":"1鄰","STREET":"\u25A0田路","SECT":" ","MAREA":" ","LANE":"３２９巷","ALLEY":"１０弄","HOUSE_NO":"２１號","E_COORD97":161963.28,"N_COORD97":2548014.4500000002,"ADDRESS":"\u25A0田路３２９巷１０弄２１號","OBJECTID":167708},"geometry":{"x":161963.28000000212,"y":2548014.450000003}},{"attributes":{"ID":167710,"DIS_CODE":0,"TOWNNAME":"後壁區","LI":"墨林里","LIN":"13鄰","STREET":" ","SECT":" ","MAREA":"菁寮","LANE":" ","ALLEY":" ","HOUSE_NO":"３３２號","E_COORD97":182146.44,"N_COORD97":2586370.2599999998,"ADDRESS":"菁寮３３２號","OBJECTID":167709},"geometry":{"x":182146.44000000041,"y":2586370.2599999998}},{"attributes":{"ID":167711,"DIS_CODE":0,"TOWNNAME":"後壁區","LI":"墨林里","LIN":"13鄰","STREET":" ","SECT":" ","MAREA":"菁寮","LANE":" ","ALLEY":" ","HOUSE_NO":"３３３號","E_COORD97":182143.42999999999,"N_COORD97":2586369.0899999999,"ADDRESS":"菁寮３３３號","OBJECTID":167710},"geometry":{"x":182143.43000000063,"y":2586369.089999998}},{"attributes":{"ID":167712,"DIS_CODE":0,"TOWNNAME":"後壁區","LI":"墨林里","LIN":"13鄰","STREET":" ","SECT":" ","MAREA":"菁寮","LANE":" ","ALLEY":" ","HOUSE_NO":"３３８號","E_COORD97":182115.48999999999,"N_COORD97":2586358.29,"ADDRESS":"菁寮３３８號","OBJECTID":167711},"geometry":{"x":182115.49000000022,"y":2586358.290000001}},{"attributes":{"ID":167713,"DIS_CODE":0,"TOWNNAME":"後壁區","LI":"墨林里","LIN":"13鄰","STREET":" ","SECT":" ","MAREA":"菁寮","LANE":" ","ALLEY":" ","HOUSE_NO":"３４１號","E_COORD97":182116.94,"N_COORD97":2586345.3300000001,"ADDRESS":"菁寮３４１號","OBJECTID":167712},"geometry":{"x":182116.94000000134,"y":2586345.3300000019}},{"attributes":{"ID":167714,"DIS_CODE":0,"TOWNNAME":"後壁區","LI":"墨林里","LIN":"13鄰","STREET":" ","SECT":" ","MAREA":"菁寮","LANE":" ","ALLEY":" ","HOUSE_NO":"３４４號之２","E_COORD97":182118.98999999999,"N_COORD97":2586329.3399999999,"ADDRESS":"菁寮３４４號之２","OBJECTID":167713},"geometry":{"x":182118.99000000022,"y":2586329.3399999999}},{"attributes":{"ID":167715,"DIS_CODE":0,"TOWNNAME":"後壁區","LI":"墨林里","LIN":"13鄰","STREET":" ","SECT":" ","MAREA":"菁寮","LANE":" ","ALLEY":" ","HOUSE_NO":"３４４號之３","E_COORD97":182119.64999999999,"N_COORD97":2586326.04,"ADDRESS":"菁寮３４４號之３","OBJECTID":167714},"geometry":{"x":182119.65000000037,"y":2586326.040000001}},{"attributes":{"ID":167716,"DIS_CODE":0,"TOWNNAME":"後壁區","LI":"墨林里","LIN":"13鄰","STREET":" ","SECT":" ","MAREA":"菁寮","LANE":" ","ALLEY":" ","HOUSE_NO":"３４５號之１","E_COORD97":182145.13,"N_COORD97":2586325.2999999998,"ADDRESS":"菁寮３４５號之１","OBJECTID":167715},"geometry":{"x":182145.13000000175,"y":2586325.3000000026}},{"attributes":{"ID":167717,"DIS_CODE":0,"TOWNNAME":"後壁區","LI":"墨林里","LIN":"13鄰","STREET":" ","SECT":" ","MAREA":"菁寮","LANE":" ","ALLEY":" ","HOUSE_NO":"３４５號之２","E_COORD97":182150.04000000001,"N_COORD97":2586325.5,"ADDRESS":"菁寮３４５號之２","OBJECTID":167716},"geometry":{"x":182150.04000000097,"y":2586325.5}},{"attributes":{"ID":167718,"DIS_CODE":0,"TOWNNAME":"後壁區","LI":"墨林里","LIN":"13鄰","STREET":" ","SECT":" ","MAREA":"菁寮","LANE":" ","ALLEY":" ","HOUSE_NO":"３４５號之３","E_COORD97":182154.72,"N_COORD97":2586325.2000000002,"ADDRESS":"菁寮３４５號之３","OBJECTID":167717},"geometry":{"x":182154.72000000067,"y":2586325.2000000011}},{"attributes":{"ID":167719,"DIS_CODE":0,"TOWNNAME":"後壁區","LI":"墨林里","LIN":"13鄰","STREET":" ","SECT":" ","MAREA":"菁寮","LANE":" ","ALLEY":" ","HOUSE_NO":"３４５號","E_COORD97":182137.70999999999,"N_COORD97":2586327.79,"ADDRESS":"菁寮３４５號","OBJECTID":167718},"geometry":{"x":182137.70999999903,"y":2586327.790000001}},{"attributes":{"ID":167720,"DIS_CODE":0,"TOWNNAME":"後壁區","LI":"墨林里","LIN":"13鄰","STREET":" ","SECT":" ","MAREA":"菁寮","LANE":" ","ALLEY":" ","HOUSE_NO":"３４６號之１０","E_COORD97":182100.63,"N_COORD97":2586190.4900000002,"ADDRESS":"菁寮３４６號之１０","OBJECTID":167719},"geometry":{"x":182100.62999999989,"y":2586190.4899999984}},{"attributes":{"ID":167721,"DIS_CODE":0,"TOWNNAME":"後壁區","LI":"墨林里","LIN":"13鄰","STREET":" ","SECT":" ","MAREA":"菁寮","LANE":" ","ALLEY":" ","HOUSE_NO":"３４６號之１２","E_COORD97":182127.54999999999,"N_COORD97":2586185.54,"ADDRESS":"菁寮３４６號之１２","OBJECTID":167720},"geometry":{"x":182127.55000000075,"y":2586185.5399999972}},{"attributes":{"ID":167722,"DIS_CODE":0,"TOWNNAME":"後壁區","LI":"墨林里","LIN":"13鄰","STREET":" ","SECT":" ","MAREA":"菁寮","LANE":" ","ALLEY":" ","HOUSE_NO":"３４６號之１３","E_COORD97":182099.19,"N_COORD97":2586138.04,"ADDRESS":"菁寮３４６號之１３","OBJECTID":167721},"geometry":{"x":182099.19000000041,"y":2586138.0399999991}},{"attributes":{"ID":167723,"DIS_CODE":0,"TOWNNAME":"後壁區","LI":"墨林里","LIN":"13鄰","STREET":" ","SECT":" ","MAREA":"菁寮","LANE":" ","ALLEY":" ","HOUSE_NO":"３４６號之２","E_COORD97":182164.81,"N_COORD97":2586238.6899999999,"ADDRESS":"菁寮３４６號之２","OBJECTID":167722},"geometry":{"x":182164.80999999959,"y":2586238.6899999995}},{"attributes":{"ID":167724,"DIS_CODE":0,"TOWNNAME":"後壁區","LI":"墨林里","LIN":"13鄰","STREET":" ","SECT":" ","MAREA":"菁寮","LANE":" ","ALLEY":" ","HOUSE_NO":"３４６號之３","E_COORD97":182120.47,"N_COORD97":2586253.9500000002,"ADDRESS":"菁寮３４６號之３","OBJECTID":167723},"geometry":{"x":182120.46999999881,"y":2586253.9499999993}},{"attributes":{"ID":167725,"DIS_CODE":0,"TOWNNAME":"後壁區","LI":"墨林里","LIN":"13鄰","STREET":" ","SECT":" ","MAREA":"菁寮","LANE":" ","ALLEY":" ","HOUSE_NO":"３４６號之５","E_COORD97":182143.37,"N_COORD97":2586211.52,"ADDRESS":"菁寮３４６號之５","OBJECTID":167724},"geometry":{"x":182143.37000000011,"y":2586211.5200000014}},{"attributes":{"ID":167726,"DIS_CODE":0,"TOWNNAME":"後壁區","LI":"墨林里","LIN":"13鄰","STREET":" ","SECT":" ","MAREA":"菁寮","LANE":" ","ALLEY":" ","HOUSE_NO":"３４６號之６","E_COORD97":182153.94,"N_COORD97":2586220.7599999998,"ADDRESS":"菁寮３４６號之６","OBJECTID":167725},"geometry":{"x":182153.94000000134,"y":2586220.7599999998}},{"attributes":{"ID":167727,"DIS_CODE":0,"TOWNNAME":"後壁區","LI":"墨林里","LIN":"13鄰","STREET":" ","SECT":" ","MAREA":"菁寮","LANE":" ","ALLEY":" ","HOUSE_NO":"３４６號之７","E_COORD97":182109.69,"N_COORD97":2586239.5499999998,"ADDRESS":"菁寮３４６號之７","OBJECTID":167726},"geometry":{"x":182109.69000000227,"y":2586239.5500000026}},{"attributes":{"ID":167728,"DIS_CODE":0,"TOWNNAME":"後壁區","LI":"墨林里","LIN":"13鄰","STREET":" ","SECT":" ","MAREA":"菁寮","LANE":" ","ALLEY":" ","HOUSE_NO":"３４６號之９","E_COORD97":182100.92999999999,"N_COORD97":2586209.6299999999,"ADDRESS":"菁寮３４６號之９","OBJECTID":167727},"geometry":{"x":182100.93000000063,"y":2586209.6300000008}},{"attributes":{"ID":167729,"DIS_CODE":0,"TOWNNAME":"後壁區","LI":"墨林里","LIN":"13鄰","STREET":" ","SECT":" ","MAREA":"菁寮","LANE":" ","ALLEY":" ","HOUSE_NO":"３４７號","E_COORD97":182178.67000000001,"N_COORD97":2586051.8300000001,"ADDRESS":"菁寮３４７號","OBJECTID":167728},"geometry":{"x":182178.67000000179,"y":2586051.8300000001}},{"attributes":{"ID":167730,"DIS_CODE":0,"TOWNNAME":"後壁區","LI":"竹新里","LIN":"13鄰","STREET":" ","SECT":" ","MAREA":"新厝","LANE":" ","ALLEY":" ","HOUSE_NO":"１０號之２","E_COORD97":179230.89999999999,"N_COORD97":2582090.6000000001,"ADDRESS":"新厝１０號之２","OBJECTID":167729},"geometry":{"x":179230.90000000037,"y":2582090.6000000034}},{"attributes":{"ID":167731,"DIS_CODE":0,"TOWNNAME":"後壁區","LI":"竹新里","LIN":"13鄰","STREET":" ","SECT":" ","MAREA":"新厝","LANE":" ","ALLEY":" ","HOUSE_NO":"１０號之６","E_COORD97":179244.54000000001,"N_COORD97":2582087.0699999998,"ADDRESS":"新厝１０號之６","OBJECTID":167730},"geometry":{"x":179244.54000000004,"y":2582087.0700000003}},{"attributes":{"ID":167732,"DIS_CODE":0,"TOWNNAME":"後壁區","LI":"竹新里","LIN":"13鄰","STREET":" ","SECT":" ","MAREA":"新厝","LANE":" ","ALLEY":" ","HOUSE_NO":"１０號之８","E_COORD97":179243.98000000001,"N_COORD97":2582073.6200000001,"ADDRESS":"新厝１０號之８","OBJECTID":167731},"geometry":{"x":179243.98000000045,"y":2582073.620000001}},{"attributes":{"ID":167733,"DIS_CODE":0,"TOWNNAME":"後壁區","LI":"竹新里","LIN":"13鄰","STREET":" ","SECT":" ","MAREA":"新厝","LANE":" ","ALLEY":" ","HOUSE_NO":"１０號","E_COORD97":179241,"N_COORD97":2582110.75,"ADDRESS":"新厝１０號","OBJECTID":167732},"geometry":{"x":179241.00000000093,"y":2582110.7500000019}},{"attributes":{"ID":167734,"DIS_CODE":0,"TOWNNAME":"佳里區","LI":"忠仁里","LIN":"12鄰","STREET":"忠仁街","SECT":" ","MAREA":" ","LANE":" ","ALLEY":" ","HOUSE_NO":"１８２號","E_COORD97":166039.39999999999,"N_COORD97":2562307.1699999999,"ADDRESS":"忠仁街１８２號","OBJECTID":167733},"geometry":{"x":166039.40000000224,"y":2562307.1699999981}},{"attributes":{"ID":167735,"DIS_CODE":0,"TOWNNAME":"安南區","LI":"\u25A0田里","LIN":"1鄰","STREET":"\u25A0田路","SECT":" ","MAREA":" ","LANE":"３２９巷","ALLEY":"２弄","HOUSE_NO":"１１號","E_COORD97":161962.54000000001,"N_COORD97":2548096.73,"ADDRESS":"\u25A0田路３２９巷２弄１１號","OBJECTID":167734},"geometry":{"x":161962.54000000004,"y":2548096.7300000004}},{"attributes":{"ID":167736,"DIS_CODE":0,"TOWNNAME":"安南區","LI":"安東里","LIN":"7鄰","STREET":"安和路","SECT":"一段","MAREA":" ","LANE":"２８８巷","ALLEY":"１５弄","HOUSE_NO":"２３號","E_COORD97":169333.30809499999,"N_COORD97":2548138.6082100002,"ADDRESS":"安和路一段２８８巷１５弄２３號","OBJECTID":167735},"geometry":{"x":169333.30809499975,"y":2548138.6082119998}},{"attributes":{"ID":167737,"DIS_CODE":0,"TOWNNAME":"安南區","LI":"安東里","LIN":"10鄰","STREET":"安和路","SECT":"一段","MAREA":" ","LANE":"２２０巷","ALLEY":"４７弄","HOUSE_NO":"２５號","E_COORD97":169384.36484600001,"N_COORD97":2548047.5915899999,"ADDRESS":"安和路一段２２０巷４７弄２５號","OBJECTID":167736},"geometry":{"x":169384.36484600138,"y":2548047.5915940013}},{"attributes":{"ID":167738,"DIS_CODE":0,"TOWNNAME":"安南區","LI":"安東里","LIN":"10鄰","STREET":"安和路","SECT":"一段","MAREA":" ","LANE":"２２０巷","ALLEY":"４７弄","HOUSE_NO":"２２號","E_COORD97":169410.52878299999,"N_COORD97":2548035.5266,"ADDRESS":"安和路一段２２０巷４７弄２２號","OBJECTID":167737},"geometry":{"x":169410.52878300101,"y":2548035.5266009979}},{"attributes":{"ID":167739,"DIS_CODE":0,"TOWNNAME":"永康區","LI":"復華里","LIN":"25鄰","STREET":"國華街","SECT":" ","MAREA":" ","LANE":"１３２巷","ALLEY":"７弄","HOUSE_NO":"９號","E_COORD97":172835.41675,"N_COORD97":2546395.8615899999,"ADDRESS":"國華街１３２巷７弄９號","OBJECTID":167738},"geometry":{"x":172835.41675000079,"y":2546395.8615900017}},{"attributes":{"ID":167740,"DIS_CODE":0,"TOWNNAME":"善化區","LI":"小新里","LIN":"7鄰","STREET":"成功路","SECT":" ","MAREA":" ","LANE":"１６９巷","ALLEY":"９６弄","HOUSE_NO":"２３０號","E_COORD97":179590.78698199999,"N_COORD97":2558596.4344000001,"ADDRESS":"成功路１６９巷９６弄２３０號","OBJECTID":167739},"geometry":{"x":179590.78698199987,"y":2558596.4343989994}},{"attributes":{"ID":167741,"DIS_CODE":0,"TOWNNAME":"歸仁區","LI":"七甲里","LIN":"1鄰","STREET":"中正北路","SECT":"二段","MAREA":" ","LANE":"７５巷","ALLEY":"３８弄","HOUSE_NO":"１７９號","E_COORD97":177301.76560899999,"N_COORD97":2542389.1126000001,"ADDRESS":"中正北路二段７５巷３８弄１７９號","OBJECTID":167740},"geometry":{"x":177301.76560899988,"y":2542389.1126049999}},{"attributes":{"ID":167742,"DIS_CODE":0,"TOWNNAME":"歸仁區","LI":"七甲里","LIN":"1鄰","STREET":"中正北路","SECT":"二段","MAREA":" ","LANE":"７５巷","ALLEY":"３８弄","HOUSE_NO":"２９號","E_COORD97":177417.11217499999,"N_COORD97":2542374.2959500002,"ADDRESS":"中正北路二段７５巷３８弄２９號","OBJECTID":167741},"geometry":{"x":177417.1121749999,"y":2542374.295946002}},{"attributes":{"ID":167743,"DIS_CODE":0,"TOWNNAME":"南區","LI":"郡南里","LIN":"6鄰","STREET":"永興四街","SECT":" ","MAREA":" ","LANE":" ","ALLEY":" ","HOUSE_NO":"１９號","E_COORD97":167259.79000000001,"N_COORD97":2540548.3500000001,"ADDRESS":"永興四街１９號","OBJECTID":167742},"geometry":{"x":167259.79000000004,"y":2540548.3499999996}},{"attributes":{"ID":167744,"DIS_CODE":0,"TOWNNAME":"後壁區","LI":"竹新里","LIN":"13鄰","STREET":" ","SECT":" ","MAREA":"新厝","LANE":" ","ALLEY":" ","HOUSE_NO":"１１號","E_COORD97":179225.73999999999,"N_COORD97":2582118.5,"ADDRESS":"新厝１１號","OBJECTID":167743},"geometry":{"x":179225.74000000115,"y":2582118.5000000037}},{"attributes":{"ID":167745,"DIS_CODE":0,"TOWNNAME":"後壁區","LI":"竹新里","LIN":"13鄰","STREET":" ","SECT":" ","MAREA":"新厝","LANE":" ","ALLEY":" ","HOUSE_NO":"１２號","E_COORD97":179211.06,"N_COORD97":2582119.8199999998,"ADDRESS":"新厝１２號","OBJECTID":167744},"geometry":{"x":179211.06000000052,"y":2582119.8199999984}},{"attributes":{"ID":167746,"DIS_CODE":0,"TOWNNAME":"佳里區","LI":"忠仁里","LIN":"12鄰","STREET":"信義一街","SECT":" ","MAREA":" ","LANE":" ","ALLEY":" ","HOUSE_NO":"３５７號","E_COORD97":166184.01999999999,"N_COORD97":2562399.1099999999,"ADDRESS":"信義一街３５７號","OBJECTID":167745},"geometry":{"x":166184.02000000048,"y":2562399.1100000013}},{"attributes":{"ID":167747,"DIS_CODE":0,"TOWNNAME":"佳里區","LI":"忠仁里","LIN":"12鄰","STREET":"信義一街","SECT":" ","MAREA":" ","LANE":" ","ALLEY":" ","HOUSE_NO":"３６５號","E_COORD97":166164.04000000001,"N_COORD97":2562396.3700000001,"ADDRESS":"信義一街３６５號","OBJECTID":167746},"geometry":{"x":166164.04000000097,"y":2562396.3700000029}},{"attributes":{"ID":167748,"DIS_CODE":0,"TOWNNAME":"安南區","LI":"安順里","LIN":"12鄰","STREET":"安和路","SECT":"四段","MAREA":" ","LANE":" ","ALLEY":" ","HOUSE_NO":"３０號","E_COORD97":170006.28,"N_COORD97":2550128.2000000002,"ADDRESS":"安和路四段３０號","OBJECTID":167747},"geometry":{"x":170006.28000000026,"y":2550128.200000003}},{"attributes":{"ID":167749,"DIS_CODE":0,"TOWNNAME":"仁德區","LI":"土庫里","LIN":"2鄰","STREET":"太乙九街","SECT":" ","MAREA":" ","LANE":" ","ALLEY":" ","HOUSE_NO":"７號","E_COORD97":173313.98000000001,"N_COORD97":2542612.7599999998,"ADDRESS":"太乙九街７號","OBJECTID":167748},"geometry":{"x":173313.98000000045,"y":2542612.7600000016}},{"attributes":{"ID":167750,"DIS_CODE":0,"TOWNNAME":"南區","LI":"郡南里","LIN":"6鄰","STREET":"永興四街","SECT":" ","MAREA":" ","LANE":" ","ALLEY":" ","HOUSE_NO":"２０號","E_COORD97":167236.26000000001,"N_COORD97":2540577.46,"ADDRESS":"永興四街２０號","OBJECTID":167749},"geometry":{"x":167236.25999999978,"y":2540577.4600000046}},{"attributes":{"ID":167751,"DIS_CODE":0,"TOWNNAME":"南區","LI":"郡南里","LIN":"6鄰","STREET":"永興四街","SECT":" ","MAREA":" ","LANE":" ","ALLEY":" ","HOUSE_NO":"２１號","E_COORD97":167255.20000000001,"N_COORD97":2540547,"ADDRESS":"永興四街２１號","OBJECTID":167750},"geometry":{"x":167255.20000000112,"y":2540547.0000000019}},{"attributes":{"ID":167752,"DIS_CODE":0,"TOWNNAME":"歸仁區","LI":"七甲里","LIN":"1鄰","STREET":"中正北路","SECT":"二段","MAREA":" ","LANE":"７５巷","ALLEY":"３８弄","HOUSE_NO":"２０２號","E_COORD97":177173.80301,"N_COORD97":2542415.5709199999,"ADDRESS":"中正北路二段７５巷３８弄２０４號","OBJECTID":167751},"geometry":{"x":177173.80300999992,"y":2542415.5709200017}},{"attributes":{"ID":167753,"DIS_CODE":0,"TOWNNAME":"歸仁區","LI":"八甲里","LIN":"1鄰","STREET":"中正北路","SECT":"二段","MAREA":" ","LANE":"７５巷","ALLEY":"３８弄","HOUSE_NO":"２８９號","E_COORD97":177002.69146900001,"N_COORD97":2542378.7409399999,"ADDRESS":"中正北路二段７５巷３８弄２８９號","OBJECTID":167752},"geometry":{"x":177002.69146900065,"y":2542378.740944}},{"attributes":{"ID":167754,"DIS_CODE":0,"TOWNNAME":"歸仁區","LI":"七甲里","LIN":"1鄰","STREET":"中正北路","SECT":"二段","MAREA":" ","LANE":"７５巷","ALLEY":"３８弄","HOUSE_NO":"２８７號","E_COORD97":177017.10978900001,"N_COORD97":2542374.0842800001,"ADDRESS":"中正北路二段７５巷３８弄２８７號","OBJECTID":167753},"geometry":{"x":177017.10978899896,"y":2542374.0842799991}},{"attributes":{"ID":167755,"DIS_CODE":0,"TOWNNAME":"歸仁區","LI":"七甲里","LIN":"1鄰","STREET":"中正北路","SECT":"二段","MAREA":" ","LANE":"７５巷","ALLEY":"３８弄","HOUSE_NO":"３０３號","E_COORD97":176916.97667199999,"N_COORD97":2542376.3067800002,"ADDRESS":"中正北路二段７５巷３８弄３０３號","OBJECTID":167754},"geometry":{"x":176916.97667200025,"y":2542376.3067790009}},{"attributes":{"ID":167756,"DIS_CODE":0,"TOWNNAME":"歸仁區","LI":"七甲里","LIN":"1鄰","STREET":"中正北路","SECT":"二段","MAREA":" ","LANE":"７５巷","ALLEY":"３８弄","HOUSE_NO":"３２３號","E_COORD97":176793.46679100001,"N_COORD97":2542366.5701199998,"ADDRESS":"中正北路二段７５巷３８弄３２３號","OBJECTID":167755},"geometry":{"x":176793.46679100022,"y":2542366.5701170024}},{"attributes":{"ID":167757,"DIS_CODE":0,"TOWNNAME":"關廟區","LI":"下湖里","LIN":"1鄰","STREET":"南雄路","SECT":"二段","MAREA":" ","LANE":"８８０巷","ALLEY":"１６０弄","HOUSE_NO":"２０號","E_COORD97":180792.09397799999,"N_COORD97":2542307.5640699998,"ADDRESS":"南雄路二段８８０巷１６０弄２０號","OBJECTID":167756},"geometry":{"x":180792.09397799987,"y":2542307.5640689991}},{"attributes":{"ID":167758,"DIS_CODE":0,"TOWNNAME":"安南區","LI":"城中里","LIN":"5鄰","STREET":"安中路","SECT":"六段","MAREA":" ","LANE":"５１９巷","ALLEY":"４６弄","HOUSE_NO":"１０號","E_COORD97":160823.681102,"N_COORD97":2551282.2880699998,"ADDRESS":"安中路六段５１９巷４６弄１０號","OBJECTID":167757},"geometry":{"x":160823.68110200204,"y":2551282.2880729996}},{"attributes":{"ID":167759,"DIS_CODE":0,"TOWNNAME":"永康區","LI":"復華里","LIN":"21鄰","STREET":"國華街","SECT":" ","MAREA":" ","LANE":"１３２巷","ALLEY":"１２弄","HOUSE_NO":"１２號","E_COORD97":172884.88150399999,"N_COORD97":2546394.0409400002,"ADDRESS":"國華街１３２巷１２弄１２號","OBJECTID":167758},"geometry":{"x":172884.8815040011,"y":2546394.0409390014}},{"attributes":{"ID":167760,"DIS_CODE":0,"TOWNNAME":"中西區","LI":"光賢里","LIN":"17鄰","STREET":"武聖路","SECT":" ","MAREA":" ","LANE":"１５１巷","ALLEY":"３０弄","HOUSE_NO":"２７號","E_COORD97":166902.47,"N_COORD97":2545106.6099999999,"ADDRESS":"武聖路１５１巷３０弄２７號","OBJECTID":167759},"geometry":{"x":166902.46999999974,"y":2545106.6099999994}},{"attributes":{"ID":167761,"DIS_CODE":0,"TOWNNAME":"中西區","LI":"光賢里","LIN":"17鄰","STREET":"武聖路","SECT":" ","MAREA":" ","LANE":"１５１巷","ALLEY":"３０弄","HOUSE_NO":"２８號","E_COORD97":166918.20000000001,"N_COORD97":2545155.6600000001,"ADDRESS":"武聖路１５１巷３０弄２８號","OBJECTID":167760},"geometry":{"x":166918.20000000019,"y":2545155.6600000039}},{"attributes":{"ID":167762,"DIS_CODE":0,"TOWNNAME":"中西區","LI":"光賢里","LIN":"17鄰","STREET":"武聖路","SECT":" ","MAREA":" ","LANE":"１５１巷","ALLEY":"３０弄","HOUSE_NO":"２９號","E_COORD97":166894.41,"N_COORD97":2545110.8300000001,"ADDRESS":"武聖路１５１巷３０弄２９號","OBJECTID":167761},"geometry":{"x":166894.41000000015,"y":2545110.8300000019}},{"attributes":{"ID":167763,"DIS_CODE":0,"TOWNNAME":"中西區","LI":"光賢里","LIN":"17鄰","STREET":"武聖路","SECT":" ","MAREA":" ","LANE":"１５１巷","ALLEY":"３０弄","HOUSE_NO":"２號","E_COORD97":166975.35999999999,"N_COORD97":2545123.8599999999,"ADDRESS":"武聖路１５１巷３０弄２號","OBJECTID":167762},"geometry":{"x":166975.3600000022,"y":2545123.8600000013}},{"attributes":{"ID":167764,"DIS_CODE":0,"TOWNNAME":"中西區","LI":"光賢里","LIN":"17鄰","STREET":"武聖路","SECT":" ","MAREA":" ","LANE":"１５１巷","ALLEY":"３０弄","HOUSE_NO":"３號","E_COORD97":166945.44,"N_COORD97":2545078.2599999998,"ADDRESS":"武聖路１５１巷３０弄３號","OBJECTID":167763},"geometry":{"x":166945.44000000041,"y":2545078.2600000016}},{"attributes":{"ID":167765,"DIS_CODE":0,"TOWNNAME":"永康區","LI":"復華里","LIN":"21鄰","STREET":"國華街","SECT":" ","MAREA":" ","LANE":"１３２巷","ALLEY":"８弄","HOUSE_NO":"１８號","E_COORD97":172896.08179200001,"N_COORD97":2546331.20664,"ADDRESS":"國華街１３２巷８弄１８號","OBJECTID":167764},"geometry":{"x":172896.08179199975,"y":2546331.2066410035}},{"attributes":{"ID":167766,"DIS_CODE":0,"TOWNNAME":"歸仁區","LI":"西埔里","LIN":"15鄰","STREET":"西埔二街","SECT":" ","MAREA":" ","LANE":"１１０巷","ALLEY":"３１１弄","HOUSE_NO":"２９號","E_COORD97":176466.93423000001,"N_COORD97":2545578.2925499999,"ADDRESS":"西埔二街１１０巷３１１弄２９號","OBJECTID":167765},"geometry":{"x":176466.93422999978,"y":2545578.2925500013}},{"attributes":{"ID":167767,"DIS_CODE":0,"TOWNNAME":"中西區","LI":"光賢里","LIN":"17鄰","STREET":"武聖路","SECT":" ","MAREA":" ","LANE":"１５１巷","ALLEY":"３０弄","HOUSE_NO":"４號","E_COORD97":166969.60999999999,"N_COORD97":2545126.1499999999,"ADDRESS":"武聖路１５１巷３０弄４號","OBJECTID":167766},"geometry":{"x":166969.61000000034,"y":2545126.1500000022}},{"attributes":{"ID":167768,"DIS_CODE":0,"TOWNNAME":"中西區","LI":"光賢里","LIN":"17鄰","STREET":"武聖路","SECT":" ","MAREA":" ","LANE":"１５１巷","ALLEY":"３０弄","HOUSE_NO":"５號","E_COORD97":166940.82999999999,"N_COORD97":2545082.8599999999,"ADDRESS":"武聖路１５１巷３０弄５號","OBJECTID":167767},"geometry":{"x":166940.83000000007,"y":2545082.8600000013}},{"attributes":{"ID":167769,"DIS_CODE":0,"TOWNNAME":"中西區","LI":"光賢里","LIN":"17鄰","STREET":"武聖路","SECT":" ","MAREA":" ","LANE":"１５１巷","ALLEY":"３０弄","HOUSE_NO":"６號","E_COORD97":166967.69,"N_COORD97":2545131.1400000001,"ADDRESS":"武聖路１５１巷３０弄６號","OBJECTID":167768},"geometry":{"x":166967.69000000041,"y":2545131.1400000006}},{"attributes":{"ID":167770,"DIS_CODE":0,"TOWNNAME":"中西區","LI":"光賢里","LIN":"17鄰","STREET":"武聖路","SECT":" ","MAREA":" ","LANE":"１５１巷","ALLEY":"３０弄","HOUSE_NO":"７號","E_COORD97":166937.38,"N_COORD97":2545085.54,"ADDRESS":"武聖路１５１巷３０弄７號","OBJECTID":167769},"geometry":{"x":166937.37999999989,"y":2545085.540000001}},{"attributes":{"ID":167771,"DIS_CODE":0,"TOWNNAME":"中西區","LI":"光賢里","LIN":"17鄰","STREET":"武聖路","SECT":" ","MAREA":" ","LANE":"１５１巷","ALLEY":"３０弄","HOUSE_NO":"８號","E_COORD97":166963.07999999999,"N_COORD97":2545131.8999999999,"ADDRESS":"武聖路１５１巷３０弄８號","OBJECTID":167770},"geometry":{"x":166963.08000000007,"y":2545131.9000000022}},{"attributes":{"ID":167772,"DIS_CODE":0,"TOWNNAME":"南區","LI":"郡南里","LIN":"6鄰","STREET":"永興四街","SECT":" ","MAREA":" ","LANE":" ","ALLEY":" ","HOUSE_NO":"２２號","E_COORD97":167232.32000000001,"N_COORD97":2540574.96,"ADDRESS":"永興四街２２號","OBJECTID":167771},"geometry":{"x":167232.32000000123,"y":2540574.9600000028}},{"attributes":{"ID":167773,"DIS_CODE":0,"TOWNNAME":"仁德區","LI":"仁和里","LIN":"26鄰","STREET":" ","SECT":" ","MAREA":"仁和","LANE":" ","ALLEY":" ","HOUSE_NO":"５１９號","E_COORD97":170449.84175399999,"N_COORD97":2539781.25,"ADDRESS":"仁和５１９號","OBJECTID":167772},"geometry":{"x":170449.84175400063,"y":2539781.2500000037}},{"attributes":{"ID":167774,"DIS_CODE":0,"TOWNNAME":"仁德區","LI":"中洲里","LIN":"1鄰","STREET":" ","SECT":" ","MAREA":"中洲","LANE":" ","ALLEY":" ","HOUSE_NO":"１號之５０","E_COORD97":173647.35999999999,"N_COORD97":2534519.7999999998,"ADDRESS":"中洲１號之５０","OBJECTID":167773},"geometry":{"x":173647.36000000034,"y":2534519.8000000045}},{"attributes":{"ID":167775,"DIS_CODE":0,"TOWNNAME":"後壁區","LI":"竹新里","LIN":"13鄰","STREET":" ","SECT":" ","MAREA":"新厝","LANE":" ","ALLEY":" ","HOUSE_NO":"１號","E_COORD97":179145.51000000001,"N_COORD97":2582154.77,"ADDRESS":"新厝１號","OBJECTID":167774},"geometry":{"x":179145.51000000071,"y":2582154.7700000014}},{"attributes":{"ID":167776,"DIS_CODE":0,"TOWNNAME":"後壁區","LI":"竹新里","LIN":"13鄰","STREET":" ","SECT":" ","MAREA":"新厝","LANE":" ","ALLEY":" ","HOUSE_NO":"２號","E_COORD97":179146.73000000001,"N_COORD97":2582141.54,"ADDRESS":"新厝２號","OBJECTID":167775},"geometry":{"x":179146.73000000138,"y":2582141.540000001}},{"attributes":{"ID":167777,"DIS_CODE":0,"TOWNNAME":"安南區","LI":"安順里","LIN":"12鄰","STREET":"安和路","SECT":"四段","MAREA":" ","LANE":" ","ALLEY":" ","HOUSE_NO":"４０號","E_COORD97":169987.89000000001,"N_COORD97":2550168.48,"ADDRESS":"安和路四段４０號","OBJECTID":167776},"geometry":{"x":169987.88999999966,"y":2550168.4800000042}},{"attributes":{"ID":167778,"DIS_CODE":0,"TOWNNAME":"安南區","LI":"安順里","LIN":"12鄰","STREET":"安和路","SECT":"四段","MAREA":" ","LANE":" ","ALLEY":" ","HOUSE_NO":"４８號","E_COORD97":169974.48000000001,"N_COORD97":2550188.3300000001,"ADDRESS":"安和路四段４８號","OBJECTID":167777},"geometry":{"x":169974.48000000045,"y":2550188.3300000001}},{"attributes":{"ID":167779,"DIS_CODE":0,"TOWNNAME":"安南區","LI":"安順里","LIN":"12鄰","STREET":"安和路","SECT":"四段","MAREA":" ","LANE":" ","ALLEY":" ","HOUSE_NO":"５０號","E_COORD97":169974.97,"N_COORD97":2550191.8100000001,"ADDRESS":"安和路四段５０號","OBJECTID":167778},"geometry":{"x":169974.97000000067,"y":2550191.8100000005}},{"attributes":{"ID":167780,"DIS_CODE":0,"TOWNNAME":"中西區","LI":"光賢里","LIN":"17鄰","STREET":"武聖路","SECT":" ","MAREA":" ","LANE":"１５１巷","ALLEY":"３０弄","HOUSE_NO":"９號","E_COORD97":166933.16,"N_COORD97":2545089.75,"ADDRESS":"武聖路１５１巷３０弄９號","OBJECTID":167779},"geometry":{"x":166933.16000000108,"y":2545089.75}},{"attributes":{"ID":167781,"DIS_CODE":0,"TOWNNAME":"中西區","LI":"光賢里","LIN":"17鄰","STREET":"武聖路","SECT":" ","MAREA":" ","LANE":"１５１巷","ALLEY":"５０弄","HOUSE_NO":"１０號","E_COORD97":166930.09,"N_COORD97":2545115.8100000001,"ADDRESS":"武聖路１５１巷５０弄１０號","OBJECTID":167780},"geometry":{"x":166930.09000000078,"y":2545115.8100000024}},{"attributes":{"ID":167782,"DIS_CODE":0,"TOWNNAME":"永康區","LI":"復華里","LIN":"21鄰","STREET":"國華街","SECT":" ","MAREA":" ","LANE":"１３２巷","ALLEY":"１０弄","HOUSE_NO":"８號","E_COORD97":172875.18894699999,"N_COORD97":2546351.21893,"ADDRESS":"國華街１３２巷１０弄８號","OBJECTID":167781},"geometry":{"x":172875.18894700054,"y":2546351.2189350035}},{"attributes":{"ID":167783,"DIS_CODE":0,"TOWNNAME":"永康區","LI":"復華里","LIN":"21鄰","STREET":"國華街","SECT":" ","MAREA":" ","LANE":"１２３巷","ALLEY":"１０弄","HOUSE_NO":"１號","E_COORD97":172862.480928,"N_COORD97":2546358.10488,"ADDRESS":"國華街１２３巷１０弄１號","OBJECTID":167782},"geometry":{"x":172862.48092800099,"y":2546358.1048850026}},{"attributes":{"ID":167784,"DIS_CODE":0,"TOWNNAME":"後壁區","LI":"竹新里","LIN":"13鄰","STREET":" ","SECT":" ","MAREA":"新厝","LANE":" ","ALLEY":" ","HOUSE_NO":"４號之１８","E_COORD97":178954.60000000001,"N_COORD97":2581968.8399999999,"ADDRESS":"新厝４號之１８","OBJECTID":167783},"geometry":{"x":178954.60000000149,"y":2581968.8399999999}},{"attributes":{"ID":167785,"DIS_CODE":0,"TOWNNAME":"後壁區","LI":"竹新里","LIN":"13鄰","STREET":" ","SECT":" ","MAREA":"新厝","LANE":" ","ALLEY":" ","HOUSE_NO":"４號之１","E_COORD97":179158.82000000001,"N_COORD97":2582112.3300000001,"ADDRESS":"新厝４號之１","OBJECTID":167784},"geometry":{"x":179158.8200000003,"y":2582112.3300000001}},{"attributes":{"ID":167786,"DIS_CODE":0,"TOWNNAME":"後壁區","LI":"竹新里","LIN":"13鄰","STREET":" ","SECT":" ","MAREA":"新厝","LANE":" ","ALLEY":" ","HOUSE_NO":"４號之２","E_COORD97":179168.41,"N_COORD97":2582090.21,"ADDRESS":"新厝４號之２","OBJECTID":167785},"geometry":{"x":179168.41000000201,"y":2582090.2100000009}},{"attributes":{"ID":167787,"DIS_CODE":0,"TOWNNAME":"後壁區","LI":"竹新里","LIN":"13鄰","STREET":" ","SECT":" ","MAREA":"新厝","LANE":" ","ALLEY":" ","HOUSE_NO":"４號之３","E_COORD97":179153.13,"N_COORD97":2582096.1899999999,"ADDRESS":"新厝４號之３","OBJECTID":167786},"geometry":{"x":179153.13000000175,"y":2582096.1899999976}},{"attributes":{"ID":167788,"DIS_CODE":0,"TOWNNAME":"後壁區","LI":"竹新里","LIN":"13鄰","STREET":" ","SECT":" ","MAREA":"新厝","LANE":" ","ALLEY":" ","HOUSE_NO":"４號之６","E_COORD97":179132.09,"N_COORD97":2582120.5,"ADDRESS":"新厝４號之６","OBJECTID":167787},"geometry":{"x":179132.09000000078,"y":2582120.5}},{"attributes":{"ID":167789,"DIS_CODE":0,"TOWNNAME":"後壁區","LI":"竹新里","LIN":"13鄰","STREET":" ","SECT":" ","MAREA":"新厝","LANE":" ","ALLEY":" ","HOUSE_NO":"４號","E_COORD97":179143.89999999999,"N_COORD97":2582099.0499999998,"ADDRESS":"新厝４號","OBJECTID":167788},"geometry":{"x":179143.9000000013,"y":2582099.0500000026}},{"attributes":{"ID":167790,"DIS_CODE":0,"TOWNNAME":"後壁區","LI":"竹新里","LIN":"13鄰","STREET":" ","SECT":" ","MAREA":"新厝","LANE":" ","ALLEY":" ","HOUSE_NO":"５號","E_COORD97":179172.51000000001,"N_COORD97":2582126.6499999999,"ADDRESS":"新厝５號","OBJECTID":167789},"geometry":{"x":179172.51000000164,"y":2582126.6500000004}},{"attributes":{"ID":167791,"DIS_CODE":0,"TOWNNAME":"後壁區","LI":"竹新里","LIN":"13鄰","STREET":" ","SECT":" ","MAREA":"新厝","LANE":" ","ALLEY":" ","HOUSE_NO":"６號之６","E_COORD97":179182.67000000001,"N_COORD97":2582128.6000000001,"ADDRESS":"新厝６號之６","OBJECTID":167790},"geometry":{"x":179182.66999999993,"y":2582128.6000000015}},{"attributes":{"ID":167792,"DIS_CODE":0,"TOWNNAME":"永康區","LI":"復華里","LIN":"21鄰","STREET":"國華街","SECT":" ","MAREA":" ","LANE":"１３２巷","ALLEY":"１０弄","HOUSE_NO":"１０號","E_COORD97":172879.92752999999,"N_COORD97":2546350.7885599998,"ADDRESS":"國華街１３２巷１０弄１０號","OBJECTID":167791},"geometry":{"x":172879.92753000092,"y":2546350.7885630019}},{"attributes":{"ID":167793,"DIS_CODE":0,"TOWNNAME":"永康區","LI":"復華里","LIN":"21鄰","STREET":"國華街","SECT":" ","MAREA":" ","LANE":"１３２巷","ALLEY":"１０弄","HOUSE_NO":"１４號","E_COORD97":172889.18930699999,"N_COORD97":2546350.57338,"ADDRESS":"國華街１３２巷１０弄１４號","OBJECTID":167792},"geometry":{"x":172889.18930700049,"y":2546350.573377002}},{"attributes":{"ID":167794,"DIS_CODE":0,"TOWNNAME":"中西區","LI":"光賢里","LIN":"19鄰","STREET":"武聖路","SECT":" ","MAREA":" ","LANE":"１９７巷","ALLEY":"１０弄","HOUSE_NO":"１０號","E_COORD97":166876.06,"N_COORD97":2545237.52,"ADDRESS":"武聖路１９７巷１０弄１０號","OBJECTID":167793},"geometry":{"x":166876.05999999959,"y":2545237.5200000033}},{"attributes":{"ID":167795,"DIS_CODE":0,"TOWNNAME":"後壁區","LI":"竹新里","LIN":"13鄰","STREET":" ","SECT":" ","MAREA":"新厝","LANE":" ","ALLEY":" ","HOUSE_NO":"８號","E_COORD97":179186.70999999999,"N_COORD97":2582103.9100000001,"ADDRESS":"新厝８號","OBJECTID":167794},"geometry":{"x":179186.71000000089,"y":2582103.910000002}},{"attributes":{"ID":167796,"DIS_CODE":0,"TOWNNAME":"中西區","LI":"光賢里","LIN":"19鄰","STREET":"武聖路","SECT":" ","MAREA":" ","LANE":"１９７巷","ALLEY":"１０弄","HOUSE_NO":"１１號","E_COORD97":166859.48999999999,"N_COORD97":2545214.2999999998,"ADDRESS":"武聖路１９７巷１０弄１１號","OBJECTID":167795},"geometry":{"x":166859.49000000115,"y":2545214.3000000026}},{"attributes":{"ID":167797,"DIS_CODE":0,"TOWNNAME":"中西區","LI":"光賢里","LIN":"19鄰","STREET":"武聖路","SECT":" ","MAREA":" ","LANE":"１９７巷","ALLEY":"１０弄","HOUSE_NO":"１２號","E_COORD97":166871.91,"N_COORD97":2545240.0499999998,"ADDRESS":"武聖路１９７巷１０弄１２號","OBJECTID":167796},"geometry":{"x":166871.91000000108,"y":2545240.0500000026}},{"attributes":{"ID":167798,"DIS_CODE":0,"TOWNNAME":"中西區","LI":"光賢里","LIN":"19鄰","STREET":"武聖路","SECT":" ","MAREA":" ","LANE":"１９７巷","ALLEY":"１０弄","HOUSE_NO":"１３號","E_COORD97":166855.42000000001,"N_COORD97":2545216.6699999999,"ADDRESS":"武聖路１９７巷１０弄１３號","OBJECTID":167797},"geometry":{"x":166855.41999999993,"y":2545216.6700000037}},{"attributes":{"ID":167799,"DIS_CODE":0,"TOWNNAME":"中西區","LI":"光賢里","LIN":"19鄰","STREET":"武聖路","SECT":" ","MAREA":" ","LANE":"１９７巷","ALLEY":"１０弄","HOUSE_NO":"１４號","E_COORD97":166868.45000000001,"N_COORD97":2545243.9700000002,"ADDRESS":"武聖路１９７巷１０弄１４號","OBJECTID":167798},"geometry":{"x":166868.45000000112,"y":2545243.9700000025}},{"attributes":{"ID":167800,"DIS_CODE":0,"TOWNNAME":"中西區","LI":"光賢里","LIN":"19鄰","STREET":"武聖路","SECT":" ","MAREA":" ","LANE":"１９７巷","ALLEY":"１０弄","HOUSE_NO":"１５號","E_COORD97":166851.19,"N_COORD97":2545218.8799999999,"ADDRESS":"武聖路１９７巷１０弄１５號","OBJECTID":167799},"geometry":{"x":166851.19000000227,"y":2545218.8800000008}},{"attributes":{"ID":167801,"DIS_CODE":0,"TOWNNAME":"中西區","LI":"光賢里","LIN":"19鄰","STREET":"武聖路","SECT":" ","MAREA":" ","LANE":"１９７巷","ALLEY":"１０弄","HOUSE_NO":"１６號","E_COORD97":166863.38,"N_COORD97":2545243.2799999998,"ADDRESS":"武聖路１９７巷１０弄１６號","OBJECTID":167800},"geometry":{"x":166863.38000000082,"y":2545243.2800000012}}]}