{"displayFieldName":"TOWNNAME","fieldAliases":{"ID":"ID","DIS_CODE":"DIS_CODE","TOWNNAME":"TOWNNAME","LI":"LI","LIN":"LIN","STREET":"STREET","SECT":"SECT","MAREA":"MAREA","LANE":"LANE","ALLEY":"ALLEY","HOUSE_NO":"HOUSE_NO","E_COORD97":"E_COORD97","N_COORD97":"N_COORD97","ADDRESS":"ADDRESS","OBJECTID":"OBJECTID"},"geometryType":"esriGeometryPoint","spatialReference":{"wkid":102443,"latestWkid":3826},"fields":[{"name":"ID","type":"esriFieldTypeDouble","alias":"ID"},{"name":"DIS_CODE","type":"esriFieldTypeInteger","alias":"DIS_CODE"},{"name":"TOWNNAME","type":"esriFieldTypeString","alias":"TOWNNAME","length":8},{"name":"LI","type":"esriFieldTypeString","alias":"LI","length":8},{"name":"LIN","type":"esriFieldTypeString","alias":"LIN","length":12},{"name":"STREET","type":"esriFieldTypeString","alias":"STREET","length":20},{"name":"SECT","type":"esriFieldTypeString","alias":"SECT","length":8},{"name":"MAREA","type":"esriFieldTypeString","alias":"MAREA","length":12},{"name":"LANE","type":"esriFieldTypeString","alias":"LANE","length":10},{"name":"ALLEY","type":"esriFieldTypeString","alias":"ALLEY","length":10},{"name":"HOUSE_NO","type":"esriFieldTypeString","alias":"HOUSE_NO","length":20},{"name":"E_COORD97","type":"esriFieldTypeDouble","alias":"E_COORD97"},{"name":"N_COORD97","type":"esriFieldTypeDouble","alias":"N_COORD97"},{"name":"ADDRESS","type":"esriFieldTypeString","alias":"ADDRESS","length":50},{"name":"OBJECTID","type":"esriFieldTypeOID","alias":"OBJECTID"}],"features":[{"attributes":{"ID":237605,"DIS_CODE":0,"TOWNNAME":"北區","LI":"正覺里","LIN":"13鄰","STREET":"北安路","SECT":"一段","MAREA":" ","LANE":"６８巷","ALLEY":" ","HOUSE_NO":"３５號","E_COORD97":169209.82999999999,"N_COORD97":2546368.8799999999,"ADDRESS":"北安路一段６８巷３５號","OBJECTID":237601},"geometry":{"x":169209.83000000101,"y":2546368.879999999}},{"attributes":{"ID":237606,"DIS_CODE":0,"TOWNNAME":"北區","LI":"正覺里","LIN":"13鄰","STREET":"北安路","SECT":"一段","MAREA":" ","LANE":"６８巷","ALLEY":" ","HOUSE_NO":"３７號","E_COORD97":169214.47,"N_COORD97":2546366.8799999999,"ADDRESS":"北安路一段６８巷３７號","OBJECTID":237602},"geometry":{"x":169214.46999999974,"y":2546366.8800000027}},{"attributes":{"ID":237607,"DIS_CODE":0,"TOWNNAME":"北區","LI":"正覺里","LIN":"13鄰","STREET":"北安路","SECT":"一段","MAREA":" ","LANE":"６８巷","ALLEY":" ","HOUSE_NO":"３號","E_COORD97":169164.38,"N_COORD97":2546304.6600000001,"ADDRESS":"北安路一段６８巷３號","OBJECTID":237603},"geometry":{"x":169164.37999999989,"y":2546304.6600000001}},{"attributes":{"ID":237608,"DIS_CODE":0,"TOWNNAME":"北區","LI":"正覺里","LIN":"13鄰","STREET":"北安路","SECT":"一段","MAREA":" ","LANE":"６８巷","ALLEY":" ","HOUSE_NO":"４號","E_COORD97":169189.91,"N_COORD97":2546311.0499999998,"ADDRESS":"北安路一段６８巷４號","OBJECTID":237604},"geometry":{"x":169189.91000000015,"y":2546311.0500000026}},{"attributes":{"ID":237609,"DIS_CODE":0,"TOWNNAME":"北區","LI":"正覺里","LIN":"13鄰","STREET":"北安路","SECT":"一段","MAREA":" ","LANE":"６８巷","ALLEY":" ","HOUSE_NO":"５號","E_COORD97":169167.73999999999,"N_COORD97":2546308.21,"ADDRESS":"北安路一段６８巷５號","OBJECTID":237605},"geometry":{"x":169167.74000000022,"y":2546308.2100000009}},{"attributes":{"ID":237610,"DIS_CODE":0,"TOWNNAME":"北區","LI":"正覺里","LIN":"13鄰","STREET":"北安路","SECT":"一段","MAREA":" ","LANE":"６８巷","ALLEY":" ","HOUSE_NO":"６號","E_COORD97":169200.28,"N_COORD97":2546326.4100000001,"ADDRESS":"北安路一段６８巷６號","OBJECTID":237606},"geometry":{"x":169200.28000000119,"y":2546326.4100000001}},{"attributes":{"ID":237611,"DIS_CODE":0,"TOWNNAME":"北區","LI":"正覺里","LIN":"13鄰","STREET":"北安路","SECT":"一段","MAREA":" ","LANE":"６８巷","ALLEY":" ","HOUSE_NO":"７號","E_COORD97":169171.20000000001,"N_COORD97":2546311.2999999998,"ADDRESS":"北安路一段６８巷７號","OBJECTID":237607},"geometry":{"x":169171.20000000019,"y":2546311.2999999989}},{"attributes":{"ID":237612,"DIS_CODE":0,"TOWNNAME":"北區","LI":"正覺里","LIN":"13鄰","STREET":"北安路","SECT":"一段","MAREA":" ","LANE":"６８巷","ALLEY":" ","HOUSE_NO":"８號","E_COORD97":169214.10999999999,"N_COORD97":2546344.21,"ADDRESS":"北安路一段６８巷８號","OBJECTID":237608},"geometry":{"x":169214.11000000034,"y":2546344.2100000028}},{"attributes":{"ID":237613,"DIS_CODE":0,"TOWNNAME":"北區","LI":"正覺里","LIN":"13鄰","STREET":"北安路","SECT":"一段","MAREA":" ","LANE":"６８巷","ALLEY":" ","HOUSE_NO":"９號","E_COORD97":169173.01999999999,"N_COORD97":2546314.21,"ADDRESS":"北安路一段６８巷９號","OBJECTID":237609},"geometry":{"x":169173.01999999955,"y":2546314.2100000009}},{"attributes":{"ID":237614,"DIS_CODE":0,"TOWNNAME":"麻豆區","LI":"\u25A0江里","LIN":"13鄰","STREET":"民權路","SECT":" ","MAREA":" ","LANE":"９１巷","ALLEY":" ","HOUSE_NO":"１號之１","E_COORD97":173450.89999999999,"N_COORD97":2564411.3999999999,"ADDRESS":"民權路９１巷１號之１","OBJECTID":237610},"geometry":{"x":173450.90000000224,"y":2564411.3999999985}},{"attributes":{"ID":237615,"DIS_CODE":0,"TOWNNAME":"中西區","LI":"赤嵌里","LIN":"18鄰","STREET":"忠義路","SECT":"二段","MAREA":" ","LANE":"２３３巷","ALLEY":" ","HOUSE_NO":"５６號","E_COORD97":168343.08037899999,"N_COORD97":2544154.2509300001,"ADDRESS":"忠義路二段２３３巷５６號","OBJECTID":237611},"geometry":{"x":168343.08037900086,"y":2544154.2509320006}},{"attributes":{"ID":237616,"DIS_CODE":0,"TOWNNAME":"麻豆區","LI":"\u25A0江里","LIN":"13鄰","STREET":"民權路","SECT":" ","MAREA":" ","LANE":"９１巷","ALLEY":" ","HOUSE_NO":"１號之２","E_COORD97":173414.73000000001,"N_COORD97":2564379.1499999999,"ADDRESS":"民權路９１巷１號之２","OBJECTID":237612},"geometry":{"x":173414.73000000231,"y":2564379.1500000004}},{"attributes":{"ID":237617,"DIS_CODE":0,"TOWNNAME":"麻豆區","LI":"\u25A0江里","LIN":"13鄰","STREET":"民權路","SECT":" ","MAREA":" ","LANE":"９１巷","ALLEY":" ","HOUSE_NO":"１號之３","E_COORD97":173420.91,"N_COORD97":2564379.77,"ADDRESS":"民權路９１巷１號之３","OBJECTID":237613},"geometry":{"x":173420.91000000015,"y":2564379.7699999996}},{"attributes":{"ID":237618,"DIS_CODE":0,"TOWNNAME":"麻豆區","LI":"\u25A0江里","LIN":"13鄰","STREET":"民權路","SECT":" ","MAREA":" ","LANE":"９１巷","ALLEY":" ","HOUSE_NO":"１號之４","E_COORD97":173426.20999999999,"N_COORD97":2564379.9900000002,"ADDRESS":"民權路９１巷１號之４","OBJECTID":237614},"geometry":{"x":173426.21000000183,"y":2564379.9900000002}},{"attributes":{"ID":237619,"DIS_CODE":0,"TOWNNAME":"麻豆區","LI":"\u25A0江里","LIN":"13鄰","STREET":"民權路","SECT":" ","MAREA":" ","LANE":"９１巷","ALLEY":" ","HOUSE_NO":"１號之６","E_COORD97":173442.69,"N_COORD97":2564380.3399999999,"ADDRESS":"民權路９１巷１號之６","OBJECTID":237615},"geometry":{"x":173442.69000000134,"y":2564380.3399999999}},{"attributes":{"ID":237620,"DIS_CODE":0,"TOWNNAME":"麻豆區","LI":"\u25A0江里","LIN":"13鄰","STREET":"民權路","SECT":" ","MAREA":" ","LANE":"９１巷","ALLEY":" ","HOUSE_NO":"１號之７","E_COORD97":173447.5,"N_COORD97":2564380.3199999998,"ADDRESS":"民權路９１巷１號之７","OBJECTID":237616},"geometry":{"x":173447.5,"y":2564380.3200000003}},{"attributes":{"ID":237621,"DIS_CODE":0,"TOWNNAME":"麻豆區","LI":"\u25A0江里","LIN":"13鄰","STREET":"民權路","SECT":" ","MAREA":" ","LANE":"９１巷","ALLEY":" ","HOUSE_NO":"１號","E_COORD97":173437.32000000001,"N_COORD97":2564414.3999999999,"ADDRESS":"民權路９１巷１號","OBJECTID":237617},"geometry":{"x":173437.3200000003,"y":2564414.4000000004}},{"attributes":{"ID":237622,"DIS_CODE":0,"TOWNNAME":"麻豆區","LI":"\u25A0江里","LIN":"13鄰","STREET":"民權路","SECT":" ","MAREA":" ","LANE":"９１巷","ALLEY":" ","HOUSE_NO":"２號之１１","E_COORD97":173465.57000000001,"N_COORD97":2564362.8999999999,"ADDRESS":"民權路９１巷２號之１１","OBJECTID":237618},"geometry":{"x":173465.57000000123,"y":2564362.9000000004}},{"attributes":{"ID":237623,"DIS_CODE":0,"TOWNNAME":"麻豆區","LI":"\u25A0江里","LIN":"13鄰","STREET":"民權路","SECT":" ","MAREA":" ","LANE":"９１巷","ALLEY":" ","HOUSE_NO":"２號之１２","E_COORD97":173469.79000000001,"N_COORD97":2564363.3399999999,"ADDRESS":"民權路９１巷２號之１２","OBJECTID":237619},"geometry":{"x":173469.7900000019,"y":2564363.3399999999}},{"attributes":{"ID":237624,"DIS_CODE":0,"TOWNNAME":"麻豆區","LI":"\u25A0江里","LIN":"13鄰","STREET":"民權路","SECT":" ","MAREA":" ","LANE":"９１巷","ALLEY":" ","HOUSE_NO":"２號之１３","E_COORD97":173473.64000000001,"N_COORD97":2564363.5099999998,"ADDRESS":"民權路９１巷２號之１３","OBJECTID":237620},"geometry":{"x":173473.63999999966,"y":2564363.5100000016}},{"attributes":{"ID":237625,"DIS_CODE":0,"TOWNNAME":"麻豆區","LI":"\u25A0江里","LIN":"13鄰","STREET":"民權路","SECT":" ","MAREA":" ","LANE":"９１巷","ALLEY":" ","HOUSE_NO":"２號之１４","E_COORD97":173478.04000000001,"N_COORD97":2564364.3500000001,"ADDRESS":"民權路９１巷２號之１４","OBJECTID":237621},"geometry":{"x":173478.04000000004,"y":2564364.3500000015}},{"attributes":{"ID":237626,"DIS_CODE":0,"TOWNNAME":"麻豆區","LI":"\u25A0江里","LIN":"13鄰","STREET":"民權路","SECT":" ","MAREA":" ","LANE":"９１巷","ALLEY":" ","HOUSE_NO":"２號之１５","E_COORD97":173482.57000000001,"N_COORD97":2564364.75,"ADDRESS":"民權路９１巷２號之１５","OBJECTID":237622},"geometry":{"x":173482.57000000123,"y":2564364.7500000037}},{"attributes":{"ID":237627,"DIS_CODE":0,"TOWNNAME":"麻豆區","LI":"\u25A0江里","LIN":"13鄰","STREET":"民權路","SECT":" ","MAREA":" ","LANE":"９１巷","ALLEY":" ","HOUSE_NO":"２號之１６","E_COORD97":173487.23000000001,"N_COORD97":2564365.0099999998,"ADDRESS":"民權路９１巷２號之１６","OBJECTID":237623},"geometry":{"x":173487.23000000045,"y":2564365.0099999998}},{"attributes":{"ID":237628,"DIS_CODE":0,"TOWNNAME":"麻豆區","LI":"\u25A0江里","LIN":"13鄰","STREET":"民權路","SECT":" ","MAREA":" ","LANE":"９１巷","ALLEY":" ","HOUSE_NO":"２號之８","E_COORD97":173447.35999999999,"N_COORD97":2564362.2799999998,"ADDRESS":"民權路９１巷２號之８","OBJECTID":237624},"geometry":{"x":173447.36000000034,"y":2564362.2799999993}},{"attributes":{"ID":237629,"DIS_CODE":0,"TOWNNAME":"麻豆區","LI":"\u25A0江里","LIN":"13鄰","STREET":"民權路","SECT":" ","MAREA":" ","LANE":"９１巷","ALLEY":" ","HOUSE_NO":"４號之１","E_COORD97":173495.60999999999,"N_COORD97":2564365.5299999998,"ADDRESS":"民權路９１巷４號之１","OBJECTID":237625},"geometry":{"x":173495.61000000127,"y":2564365.5300000031}},{"attributes":{"ID":237630,"DIS_CODE":0,"TOWNNAME":"歸仁區","LI":"看東里","LIN":"14鄰","STREET":"忠孝南路","SECT":" ","MAREA":" ","LANE":" ","ALLEY":" ","HOUSE_NO":"９號","E_COORD97":178523.70999999999,"N_COORD97":2540603.6400000001,"ADDRESS":"忠孝南路９號","OBJECTID":237626},"geometry":{"x":178523.71000000183,"y":2540603.6400000025}},{"attributes":{"ID":237631,"DIS_CODE":0,"TOWNNAME":"麻豆區","LI":"\u25A0江里","LIN":"13鄰","STREET":"民權路","SECT":" ","MAREA":" ","LANE":"９１巷","ALLEY":" ","HOUSE_NO":"４號之２","E_COORD97":173500.01999999999,"N_COORD97":2564365.8599999999,"ADDRESS":"民權路９１巷４號之２","OBJECTID":237627},"geometry":{"x":173500.02000000142,"y":2564365.8599999994}},{"attributes":{"ID":237632,"DIS_CODE":0,"TOWNNAME":"麻豆區","LI":"\u25A0江里","LIN":"13鄰","STREET":"民權路","SECT":" ","MAREA":" ","LANE":"９１巷","ALLEY":" ","HOUSE_NO":"４號之３","E_COORD97":173504.31,"N_COORD97":2564366.2000000002,"ADDRESS":"民權路９１巷４號之３","OBJECTID":237628},"geometry":{"x":173504.30999999959,"y":2564366.1999999993}},{"attributes":{"ID":237633,"DIS_CODE":0,"TOWNNAME":"麻豆區","LI":"\u25A0江里","LIN":"13鄰","STREET":"民權路","SECT":" ","MAREA":" ","LANE":"９１巷","ALLEY":" ","HOUSE_NO":"４號之４","E_COORD97":173508.37,"N_COORD97":2564366.4300000002,"ADDRESS":"民權路９１巷４號之４","OBJECTID":237629},"geometry":{"x":173508.37000000197,"y":2564366.4299999978}},{"attributes":{"ID":237634,"DIS_CODE":0,"TOWNNAME":"麻豆區","LI":"\u25A0江里","LIN":"13鄰","STREET":"民權路","SECT":" ","MAREA":" ","LANE":"９１巷","ALLEY":" ","HOUSE_NO":"４號之５","E_COORD97":173512.79999999999,"N_COORD97":2564366.75,"ADDRESS":"民權路９１巷４號之５","OBJECTID":237630},"geometry":{"x":173512.79999999981,"y":2564366.75}},{"attributes":{"ID":237635,"DIS_CODE":0,"TOWNNAME":"麻豆區","LI":"\u25A0江里","LIN":"13鄰","STREET":"民權路","SECT":" ","MAREA":" ","LANE":"９１巷","ALLEY":" ","HOUSE_NO":"４號之６","E_COORD97":173517.14000000001,"N_COORD97":2564366.96,"ADDRESS":"民權路９１巷４號之６","OBJECTID":237631},"geometry":{"x":173517.13999999966,"y":2564366.9600000009}},{"attributes":{"ID":237636,"DIS_CODE":0,"TOWNNAME":"麻豆區","LI":"\u25A0江里","LIN":"13鄰","STREET":"民權路","SECT":" ","MAREA":" ","LANE":"９１巷","ALLEY":" ","HOUSE_NO":"４號之７","E_COORD97":173521.20999999999,"N_COORD97":2564367.3199999998,"ADDRESS":"民權路９１巷４號之７","OBJECTID":237632},"geometry":{"x":173521.21000000183,"y":2564367.3200000003}},{"attributes":{"ID":237637,"DIS_CODE":0,"TOWNNAME":"麻豆區","LI":"\u25A0江里","LIN":"13鄰","STREET":"民權路","SECT":" ","MAREA":" ","LANE":"９１巷","ALLEY":" ","HOUSE_NO":"４號","E_COORD97":173491.39000000001,"N_COORD97":2564365.1400000001,"ADDRESS":"民權路９１巷４號","OBJECTID":237633},"geometry":{"x":173491.3900000006,"y":2564365.1400000006}},{"attributes":{"ID":237638,"DIS_CODE":0,"TOWNNAME":"麻豆區","LI":"\u25A0江里","LIN":"13鄰","STREET":"民權路","SECT":" ","MAREA":" ","LANE":"９１巷","ALLEY":" ","HOUSE_NO":"８號之１","E_COORD97":173565.98999999999,"N_COORD97":2564364.7400000002,"ADDRESS":"民權路９１巷８號之１","OBJECTID":237634},"geometry":{"x":173565.99000000115,"y":2564364.7400000002}},{"attributes":{"ID":237639,"DIS_CODE":0,"TOWNNAME":"麻豆區","LI":"\u25A0江里","LIN":"13鄰","STREET":"民權路","SECT":" ","MAREA":" ","LANE":"９１巷","ALLEY":" ","HOUSE_NO":"８號之２","E_COORD97":173593.39999999999,"N_COORD97":2564366.3199999998,"ADDRESS":"民權路９１巷８號之２","OBJECTID":237635},"geometry":{"x":173593.4000000013,"y":2564366.3200000022}},{"attributes":{"ID":237640,"DIS_CODE":0,"TOWNNAME":"中西區","LI":"西湖里","LIN":"16鄰","STREET":"湖美一街","SECT":" ","MAREA":" ","LANE":"１２１巷","ALLEY":" ","HOUSE_NO":"６號","E_COORD97":166039.70000000001,"N_COORD97":2544899.8700000001,"ADDRESS":"湖美一街１２１巷６號","OBJECTID":237636},"geometry":{"x":166039.70000000112,"y":2544899.870000001}},{"attributes":{"ID":237641,"DIS_CODE":0,"TOWNNAME":"六甲區","LI":"二甲里","LIN":"13鄰","STREET":"民權街","SECT":" ","MAREA":" ","LANE":"２４８巷","ALLEY":" ","HOUSE_NO":"１６號之２","E_COORD97":183056.10000000001,"N_COORD97":2569806.1299999999,"ADDRESS":"民權街２４８巷１６號之２","OBJECTID":237637},"geometry":{"x":183056.10000000056,"y":2569806.1300000027}},{"attributes":{"ID":237642,"DIS_CODE":0,"TOWNNAME":"六甲區","LI":"二甲里","LIN":"13鄰","STREET":"民權街","SECT":" ","MAREA":" ","LANE":"２４８巷","ALLEY":" ","HOUSE_NO":"１６號","E_COORD97":183043.95000000001,"N_COORD97":2569816.73,"ADDRESS":"民權街２４８巷１６號","OBJECTID":237638},"geometry":{"x":183043.95000000112,"y":2569816.7300000004}},{"attributes":{"ID":237643,"DIS_CODE":0,"TOWNNAME":"六甲區","LI":"二甲里","LIN":"13鄰","STREET":"民權街","SECT":" ","MAREA":" ","LANE":"２４８巷","ALLEY":" ","HOUSE_NO":"２１號","E_COORD97":183020.88,"N_COORD97":2569848,"ADDRESS":"民權街２４８巷２１號","OBJECTID":237639},"geometry":{"x":183020.87999999989,"y":2569848}},{"attributes":{"ID":237644,"DIS_CODE":0,"TOWNNAME":"六甲區","LI":"二甲里","LIN":"13鄰","STREET":"民權街","SECT":" ","MAREA":" ","LANE":"２４８巷","ALLEY":" ","HOUSE_NO":"２４號","E_COORD97":183046.23000000001,"N_COORD97":2569832.6699999999,"ADDRESS":"民權街２４８巷２４號","OBJECTID":237640},"geometry":{"x":183046.23000000045,"y":2569832.6699999999}},{"attributes":{"ID":237645,"DIS_CODE":0,"TOWNNAME":"六甲區","LI":"二甲里","LIN":"13鄰","STREET":"民權街","SECT":" ","MAREA":" ","LANE":"２４８巷","ALLEY":" ","HOUSE_NO":"２８號","E_COORD97":183050.98000000001,"N_COORD97":2569848.8199999998,"ADDRESS":"民權街２４８巷２８號","OBJECTID":237641},"geometry":{"x":183050.98000000138,"y":2569848.8200000003}},{"attributes":{"ID":237646,"DIS_CODE":0,"TOWNNAME":"六甲區","LI":"二甲里","LIN":"13鄰","STREET":"民權街","SECT":" ","MAREA":" ","LANE":"２４８巷","ALLEY":" ","HOUSE_NO":"３０號","E_COORD97":183055.01999999999,"N_COORD97":2569868,"ADDRESS":"民權街２４８巷３０號","OBJECTID":237642},"geometry":{"x":183055.01999999955,"y":2569868}},{"attributes":{"ID":237647,"DIS_CODE":0,"TOWNNAME":"六甲區","LI":"二甲里","LIN":"13鄰","STREET":"民權街","SECT":" ","MAREA":" ","LANE":"２４８巷","ALLEY":" ","HOUSE_NO":"３２號","E_COORD97":183074.87,"N_COORD97":2569874.0299999998,"ADDRESS":"民權街２４８巷３２號","OBJECTID":237643},"geometry":{"x":183074.87000000104,"y":2569874.0299999993}},{"attributes":{"ID":237648,"DIS_CODE":0,"TOWNNAME":"六甲區","LI":"二甲里","LIN":"13鄰","STREET":"民權街","SECT":" ","MAREA":" ","LANE":"２４８巷","ALLEY":" ","HOUSE_NO":"３４號","E_COORD97":183073.59,"N_COORD97":2569858.9300000002,"ADDRESS":"民權街２４８巷３４號","OBJECTID":237644},"geometry":{"x":183073.58999999985,"y":2569858.9299999978}},{"attributes":{"ID":237649,"DIS_CODE":0,"TOWNNAME":"六甲區","LI":"甲南里","LIN":"13鄰","STREET":"永安街","SECT":" ","MAREA":" ","LANE":"１３巷","ALLEY":" ","HOUSE_NO":"５號","E_COORD97":183925.70000000001,"N_COORD97":2569815.3900000001,"ADDRESS":"永安街１３巷５號","OBJECTID":237645},"geometry":{"x":183925.70000000112,"y":2569815.3900000006}},{"attributes":{"ID":237650,"DIS_CODE":0,"TOWNNAME":"六甲區","LI":"甲南里","LIN":"13鄰","STREET":"永安街","SECT":" ","MAREA":" ","LANE":"１３巷","ALLEY":" ","HOUSE_NO":"７號","E_COORD97":183915.98999999999,"N_COORD97":2569801.3799999999,"ADDRESS":"永安街１３巷７號","OBJECTID":237646},"geometry":{"x":183915.99000000022,"y":2569801.3800000008}},{"attributes":{"ID":237651,"DIS_CODE":0,"TOWNNAME":"六甲區","LI":"甲南里","LIN":"13鄰","STREET":"永安街","SECT":" ","MAREA":" ","LANE":"１３巷","ALLEY":" ","HOUSE_NO":"９號","E_COORD97":183913.32999999999,"N_COORD97":2569773.8100000001,"ADDRESS":"永安街１３巷９號","OBJECTID":237647},"geometry":{"x":183913.33000000007,"y":2569773.8100000024}},{"attributes":{"ID":237652,"DIS_CODE":0,"TOWNNAME":"六甲區","LI":"甲南里","LIN":"13鄰","STREET":"永安街","SECT":" ","MAREA":" ","LANE":"３巷","ALLEY":" ","HOUSE_NO":"１８號","E_COORD97":183927.38,"N_COORD97":2569780.7999999998,"ADDRESS":"永安街３巷１８號","OBJECTID":237648},"geometry":{"x":183927.38000000082,"y":2569780.8000000026}},{"attributes":{"ID":237653,"DIS_CODE":0,"TOWNNAME":"六甲區","LI":"甲南里","LIN":"13鄰","STREET":"永安街","SECT":" ","MAREA":" ","LANE":"３巷","ALLEY":" ","HOUSE_NO":"２０號","E_COORD97":183919.32000000001,"N_COORD97":2569770.52,"ADDRESS":"永安街３巷２０號","OBJECTID":237649},"geometry":{"x":183919.32000000123,"y":2569770.5200000014}},{"attributes":{"ID":237654,"DIS_CODE":0,"TOWNNAME":"永康區","LI":"埔園里","LIN":"14鄰","STREET":"中山路","SECT":" ","MAREA":" ","LANE":" ","ALLEY":" ","HOUSE_NO":"３１５號","E_COORD97":173604.84,"N_COORD97":2548344.77,"ADDRESS":"中山路３１５號","OBJECTID":237650},"geometry":{"x":173604.83999999892,"y":2548344.7700000033}},{"attributes":{"ID":237655,"DIS_CODE":0,"TOWNNAME":"仁德區","LI":"仁義里","LIN":"16鄰","STREET":"義林路","SECT":" ","MAREA":" ","LANE":"２３３巷","ALLEY":" ","HOUSE_NO":"２３號","E_COORD97":174474.76000000001,"N_COORD97":2541241.0600000001,"ADDRESS":"義林路２３３巷２３號","OBJECTID":237651},"geometry":{"x":174474.75999999978,"y":2541241.0600000042}},{"attributes":{"ID":237656,"DIS_CODE":0,"TOWNNAME":"仁德區","LI":"土庫里","LIN":"16鄰","STREET":"土庫二街","SECT":" ","MAREA":" ","LANE":"３５巷","ALLEY":" ","HOUSE_NO":"９號","E_COORD97":174534.84,"N_COORD97":2542982.4900000002,"ADDRESS":"土庫二街３５巷９號","OBJECTID":237652},"geometry":{"x":174534.83999999985,"y":2542982.4900000002}},{"attributes":{"ID":237657,"DIS_CODE":0,"TOWNNAME":"仁德區","LI":"土庫里","LIN":"16鄰","STREET":"土庫一街","SECT":" ","MAREA":" ","LANE":"８２巷","ALLEY":" ","HOUSE_NO":"２號之１","E_COORD97":174592.48999999999,"N_COORD97":2543021.7999999998,"ADDRESS":"土庫一街８２巷２號之１","OBJECTID":237653},"geometry":{"x":174592.48999999929,"y":2543021.8000000007}},{"attributes":{"ID":237658,"DIS_CODE":0,"TOWNNAME":"仁德區","LI":"仁義里","LIN":"16鄰","STREET":"義林路","SECT":" ","MAREA":" ","LANE":"２４１巷","ALLEY":" ","HOUSE_NO":"６號","E_COORD97":174485.89000000001,"N_COORD97":2541287.7599999998,"ADDRESS":"義林路２４１巷６號","OBJECTID":237654},"geometry":{"x":174485.89000000153,"y":2541287.7600000016}},{"attributes":{"ID":237659,"DIS_CODE":0,"TOWNNAME":"仁德區","LI":"仁義里","LIN":"16鄰","STREET":"義林路","SECT":" ","MAREA":" ","LANE":"２４１巷","ALLEY":" ","HOUSE_NO":"７號","E_COORD97":174481.56,"N_COORD97":2541286.7599999998,"ADDRESS":"義林路２４１巷７號","OBJECTID":237655},"geometry":{"x":174481.56000000052,"y":2541286.7600000016}},{"attributes":{"ID":237660,"DIS_CODE":0,"TOWNNAME":"仁德區","LI":"仁義里","LIN":"16鄰","STREET":"義林路","SECT":" ","MAREA":" ","LANE":"２５６巷","ALLEY":" ","HOUSE_NO":"６號","E_COORD97":174628.95999999999,"N_COORD97":2541486.2599999998,"ADDRESS":"義林路２５６巷６號","OBJECTID":237656},"geometry":{"x":174628.96000000089,"y":2541486.2600000035}},{"attributes":{"ID":237661,"DIS_CODE":0,"TOWNNAME":"仁德區","LI":"成功里","LIN":"4鄰","STREET":"成功三街","SECT":" ","MAREA":" ","LANE":"９３巷","ALLEY":" ","HOUSE_NO":"６號","E_COORD97":171208.73999999999,"N_COORD97":2539791.02,"ADDRESS":"成功三街９３巷６號","OBJECTID":237657},"geometry":{"x":171208.74000000022,"y":2539791.0199999996}},{"attributes":{"ID":237662,"DIS_CODE":0,"TOWNNAME":"永康區","LI":"埔園里","LIN":"14鄰","STREET":"中山路","SECT":" ","MAREA":" ","LANE":" ","ALLEY":" ","HOUSE_NO":"３１１號","E_COORD97":173607.35999999999,"N_COORD97":2548335.52,"ADDRESS":"中山路３１１號","OBJECTID":237658},"geometry":{"x":173607.36000000127,"y":2548335.5199999996}},{"attributes":{"ID":237663,"DIS_CODE":0,"TOWNNAME":"永康區","LI":"埔園里","LIN":"14鄰","STREET":"中山路","SECT":" ","MAREA":" ","LANE":" ","ALLEY":" ","HOUSE_NO":"３１７號之２","E_COORD97":173603.32000000001,"N_COORD97":2548360.5699999998,"ADDRESS":"中山路３１７號之２","OBJECTID":237659},"geometry":{"x":173603.3200000003,"y":2548360.570000004}},{"attributes":{"ID":237664,"DIS_CODE":0,"TOWNNAME":"永康區","LI":"埔園里","LIN":"14鄰","STREET":"中山路","SECT":" ","MAREA":" ","LANE":" ","ALLEY":" ","HOUSE_NO":"２８９號","E_COORD97":173625.37,"N_COORD97":2548276.9900000002,"ADDRESS":"中山路２８９號","OBJECTID":237660},"geometry":{"x":173625.37000000197,"y":2548276.9900000021}},{"attributes":{"ID":237665,"DIS_CODE":0,"TOWNNAME":"永康區","LI":"王行里","LIN":"14鄰","STREET":"興工路","SECT":" ","MAREA":" ","LANE":" ","ALLEY":" ","HOUSE_NO":"２６號","E_COORD97":175202.79999999999,"N_COORD97":2549905.1099999999,"ADDRESS":"興工路２６號","OBJECTID":237661},"geometry":{"x":175202.80000000075,"y":2549905.1100000031}},{"attributes":{"ID":237666,"DIS_CODE":0,"TOWNNAME":"歸仁區","LI":"南保里","LIN":"42鄰","STREET":"保興二街","SECT":" ","MAREA":" ","LANE":" ","ALLEY":" ","HOUSE_NO":"２０號","E_COORD97":176547.67000000001,"N_COORD97":2540970.25,"ADDRESS":"保興二街２０號","OBJECTID":237662},"geometry":{"x":176547.67000000086,"y":2540970.25}},{"attributes":{"ID":237667,"DIS_CODE":0,"TOWNNAME":"東區","LI":"東智里","LIN":"14鄰","STREET":"崇德三十二街","SECT":" ","MAREA":" ","LANE":" ","ALLEY":" ","HOUSE_NO":"９０號","E_COORD97":171005.03,"N_COORD97":2540085.6400000001,"ADDRESS":"崇德三十二街９０號","OBJECTID":237663},"geometry":{"x":171005.03000000026,"y":2540085.6400000025}},{"attributes":{"ID":237668,"DIS_CODE":0,"TOWNNAME":"東區","LI":"東智里","LIN":"14鄰","STREET":"崇德三十二街","SECT":" ","MAREA":" ","LANE":" ","ALLEY":" ","HOUSE_NO":"８８號","E_COORD97":171001.63,"N_COORD97":2540085.2200000002,"ADDRESS":"崇德三十二街８８號","OBJECTID":237664},"geometry":{"x":171001.63000000082,"y":2540085.2200000025}},{"attributes":{"ID":237669,"DIS_CODE":0,"TOWNNAME":"東區","LI":"東智里","LIN":"14鄰","STREET":"崇德三十二街","SECT":" ","MAREA":" ","LANE":" ","ALLEY":" ","HOUSE_NO":"８６號","E_COORD97":170998.23000000001,"N_COORD97":2540084.79,"ADDRESS":"崇德三十二街８６號","OBJECTID":237665},"geometry":{"x":170998.23000000138,"y":2540084.7899999991}},{"attributes":{"ID":237670,"DIS_CODE":0,"TOWNNAME":"仁德區","LI":"土庫里","LIN":"16鄰","STREET":"土庫二街","SECT":" ","MAREA":" ","LANE":" ","ALLEY":" ","HOUSE_NO":"９號","E_COORD97":174420.67000000001,"N_COORD97":2543029.25,"ADDRESS":"土庫二街９號","OBJECTID":237666},"geometry":{"x":174420.67000000086,"y":2543029.2500000037}},{"attributes":{"ID":237671,"DIS_CODE":0,"TOWNNAME":"仁德區","LI":"仁義里","LIN":"16鄰","STREET":"義林路","SECT":" ","MAREA":" ","LANE":"２４１巷","ALLEY":" ","HOUSE_NO":"５號","E_COORD97":174489.56,"N_COORD97":2541288.7599999998,"ADDRESS":"義林路２４１巷５號","OBJECTID":237667},"geometry":{"x":174489.55999999959,"y":2541288.7599999998}},{"attributes":{"ID":237672,"DIS_CODE":0,"TOWNNAME":"仁德區","LI":"仁義里","LIN":"16鄰","STREET":"義林路","SECT":" ","MAREA":" ","LANE":"２５６巷","ALLEY":" ","HOUSE_NO":"１６號","E_COORD97":174675.72,"N_COORD97":2541477.77,"ADDRESS":"義林路２５６巷１６號","OBJECTID":237668},"geometry":{"x":174675.72000000067,"y":2541477.7699999996}},{"attributes":{"ID":237673,"DIS_CODE":0,"TOWNNAME":"仁德區","LI":"仁義里","LIN":"16鄰","STREET":"義林路","SECT":" ","MAREA":" ","LANE":"２５６巷","ALLEY":" ","HOUSE_NO":"１０號","E_COORD97":174647.07000000001,"N_COORD97":2541486.0099999998,"ADDRESS":"義林路２５６巷１０號","OBJECTID":237669},"geometry":{"x":174647.07000000123,"y":2541486.0100000016}},{"attributes":{"ID":237674,"DIS_CODE":0,"TOWNNAME":"仁德區","LI":"仁義里","LIN":"16鄰","STREET":"義林路","SECT":" ","MAREA":" ","LANE":"２５６巷","ALLEY":" ","HOUSE_NO":"１２號","E_COORD97":174653.79000000001,"N_COORD97":2541486.0099999998,"ADDRESS":"義林路２５６巷１２號","OBJECTID":237670},"geometry":{"x":174653.79000000097,"y":2541486.0100000016}},{"attributes":{"ID":237675,"DIS_CODE":0,"TOWNNAME":"仁德區","LI":"土庫里","LIN":"16鄰","STREET":"土庫一街","SECT":" ","MAREA":" ","LANE":"８２巷","ALLEY":" ","HOUSE_NO":"２之１號","E_COORD97":174592.85999999999,"N_COORD97":2543021.7999999998,"ADDRESS":"土庫一街８２巷２之１號","OBJECTID":237671},"geometry":{"x":174592.86000000034,"y":2543021.8000000007}},{"attributes":{"ID":237676,"DIS_CODE":0,"TOWNNAME":"仁德區","LI":"土庫里","LIN":"16鄰","STREET":"土庫一街","SECT":" ","MAREA":" ","LANE":"８２巷","ALLEY":" ","HOUSE_NO":"７號","E_COORD97":174583.81,"N_COORD97":2543001.75,"ADDRESS":"土庫一街８２巷７號","OBJECTID":237672},"geometry":{"x":174583.81000000052,"y":2543001.75}},{"attributes":{"ID":237677,"DIS_CODE":0,"TOWNNAME":"仁德區","LI":"土庫里","LIN":"16鄰","STREET":"土庫一街","SECT":" ","MAREA":" ","LANE":"８１１巷","ALLEY":" ","HOUSE_NO":"２１５號","E_COORD97":174618.57000000001,"N_COORD97":2542335.9900000002,"ADDRESS":"土庫一街８１１巷２１５號","OBJECTID":237673},"geometry":{"x":174618.5700000003,"y":2542335.9899999984}},{"attributes":{"ID":237678,"DIS_CODE":0,"TOWNNAME":"仁德區","LI":"仁義里","LIN":"16鄰","STREET":"義林路","SECT":" ","MAREA":" ","LANE":"２３３巷","ALLEY":" ","HOUSE_NO":"１９號","E_COORD97":174483.67999999999,"N_COORD97":2541242.0600000001,"ADDRESS":"義林路２３３巷１９號","OBJECTID":237674},"geometry":{"x":174483.6799999997,"y":2541242.0600000024}},{"attributes":{"ID":237679,"DIS_CODE":0,"TOWNNAME":"仁德區","LI":"仁義里","LIN":"16鄰","STREET":"義林路","SECT":" ","MAREA":" ","LANE":"２５６巷","ALLEY":" ","HOUSE_NO":"２號","E_COORD97":174610,"N_COORD97":2541486.2599999998,"ADDRESS":"義林路２５６巷２號","OBJECTID":237675},"geometry":{"x":174610.00000000093,"y":2541486.2600000035}},{"attributes":{"ID":237680,"DIS_CODE":0,"TOWNNAME":"六甲區","LI":"甲南里","LIN":"13鄰","STREET":"永安街","SECT":" ","MAREA":" ","LANE":"３巷","ALLEY":" ","HOUSE_NO":"２２號","E_COORD97":183908.38,"N_COORD97":2569759.8900000001,"ADDRESS":"永安街３巷２２號","OBJECTID":237676},"geometry":{"x":183908.38000000082,"y":2569759.8900000025}},{"attributes":{"ID":237681,"DIS_CODE":0,"TOWNNAME":"六甲區","LI":"甲南里","LIN":"13鄰","STREET":"永安街","SECT":" ","MAREA":" ","LANE":"３巷","ALLEY":" ","HOUSE_NO":"６號","E_COORD97":183939.03,"N_COORD97":2569824.1099999999,"ADDRESS":"永安街３巷６號","OBJECTID":237677},"geometry":{"x":183939.03000000026,"y":2569824.1100000013}},{"attributes":{"ID":237682,"DIS_CODE":0,"TOWNNAME":"六甲區","LI":"甲南里","LIN":"13鄰","STREET":"永安街","SECT":" ","MAREA":" ","LANE":"３巷","ALLEY":" ","HOUSE_NO":"８號","E_COORD97":183936.84,"N_COORD97":2569815.1499999999,"ADDRESS":"永安街３巷８號","OBJECTID":237678},"geometry":{"x":183936.83999999985,"y":2569815.1500000022}},{"attributes":{"ID":237683,"DIS_CODE":0,"TOWNNAME":"東區","LI":"東智里","LIN":"14鄰","STREET":"崇德三十二街","SECT":" ","MAREA":" ","LANE":" ","ALLEY":" ","HOUSE_NO":"８４號","E_COORD97":170994.12,"N_COORD97":2540084.5099999998,"ADDRESS":"崇德三十二街８４號","OBJECTID":237679},"geometry":{"x":170994.12000000011,"y":2540084.5100000035}},{"attributes":{"ID":237684,"DIS_CODE":0,"TOWNNAME":"東區","LI":"東智里","LIN":"14鄰","STREET":"崇德三十二街","SECT":" ","MAREA":" ","LANE":" ","ALLEY":" ","HOUSE_NO":"８２號","E_COORD97":170990.01999999999,"N_COORD97":2540084.0899999999,"ADDRESS":"崇德三十二街８２號","OBJECTID":237680},"geometry":{"x":170990.02000000048,"y":2540084.0900000036}},{"attributes":{"ID":237685,"DIS_CODE":0,"TOWNNAME":"東區","LI":"東智里","LIN":"14鄰","STREET":"崇德三十二街","SECT":" ","MAREA":" ","LANE":" ","ALLEY":" ","HOUSE_NO":"１００號","E_COORD97":171024,"N_COORD97":2540086.4900000002,"ADDRESS":"崇德三十二街１００號","OBJECTID":237681},"geometry":{"x":171024.00000000186,"y":2540086.4900000021}},{"attributes":{"ID":237686,"DIS_CODE":0,"TOWNNAME":"東區","LI":"東智里","LIN":"14鄰","STREET":"崇德三十二街","SECT":" ","MAREA":" ","LANE":" ","ALLEY":" ","HOUSE_NO":"８０號","E_COORD97":170986.89999999999,"N_COORD97":2540084.0899999999,"ADDRESS":"崇德三十二街８０號","OBJECTID":237682},"geometry":{"x":170986.90000000037,"y":2540084.0900000036}},{"attributes":{"ID":237687,"DIS_CODE":0,"TOWNNAME":"東區","LI":"東智里","LIN":"14鄰","STREET":"崇德三十二街","SECT":" ","MAREA":" ","LANE":" ","ALLEY":" ","HOUSE_NO":"７８號","E_COORD97":170982.37,"N_COORD97":2540083.7999999998,"ADDRESS":"崇德三十二街７８號","OBJECTID":237683},"geometry":{"x":170982.37000000011,"y":2540083.8000000026}},{"attributes":{"ID":237688,"DIS_CODE":0,"TOWNNAME":"東區","LI":"東智里","LIN":"14鄰","STREET":"崇德三十二街","SECT":" ","MAREA":" ","LANE":" ","ALLEY":" ","HOUSE_NO":"７６號","E_COORD97":170979.12,"N_COORD97":2540083.6600000001,"ADDRESS":"崇德三十二街７６號","OBJECTID":237684},"geometry":{"x":170979.12000000197,"y":2540083.6600000039}},{"attributes":{"ID":237689,"DIS_CODE":0,"TOWNNAME":"東區","LI":"東智里","LIN":"14鄰","STREET":"崇德三十二街","SECT":" ","MAREA":" ","LANE":" ","ALLEY":" ","HOUSE_NO":"７４號","E_COORD97":170975.29000000001,"N_COORD97":2540083.6600000001,"ADDRESS":"崇德三十二街７４號","OBJECTID":237685},"geometry":{"x":170975.29000000097,"y":2540083.6600000039}},{"attributes":{"ID":237690,"DIS_CODE":0,"TOWNNAME":"東區","LI":"東智里","LIN":"14鄰","STREET":"崇德三十二街","SECT":" ","MAREA":" ","LANE":" ","ALLEY":" ","HOUSE_NO":"７２號","E_COORD97":170971.47,"N_COORD97":2540082.9500000002,"ADDRESS":"崇德三十二街７２號","OBJECTID":237686},"geometry":{"x":170971.47000000067,"y":2540082.9499999993}},{"attributes":{"ID":237691,"DIS_CODE":0,"TOWNNAME":"東區","LI":"東智里","LIN":"14鄰","STREET":"崇德三十二街","SECT":" ","MAREA":" ","LANE":" ","ALLEY":" ","HOUSE_NO":"７０號","E_COORD97":170967.64999999999,"N_COORD97":2540082.9500000002,"ADDRESS":"崇德三十二街７０號","OBJECTID":237687},"geometry":{"x":170967.6500000013,"y":2540082.9499999993}},{"attributes":{"ID":237692,"DIS_CODE":0,"TOWNNAME":"仁德區","LI":"保安里","LIN":"12鄰","STREET":"開發七路","SECT":" ","MAREA":" ","LANE":" ","ALLEY":" ","HOUSE_NO":"３號","E_COORD97":173249.19768799999,"N_COORD97":2535847.4974799999,"ADDRESS":"開發七路３號","OBJECTID":237688},"geometry":{"x":173249.19768800028,"y":2535847.497475002}},{"attributes":{"ID":237693,"DIS_CODE":0,"TOWNNAME":"仁德區","LI":"太子里","LIN":"16鄰","STREET":"太興路","SECT":" ","MAREA":" ","LANE":"１２７巷","ALLEY":" ","HOUSE_NO":"１６號","E_COORD97":174064.70999999999,"N_COORD97":2543616.2599999998,"ADDRESS":"太興路１２７巷１６號","OBJECTID":237689},"geometry":{"x":174064.70999999996,"y":2543616.2600000016}},{"attributes":{"ID":237694,"DIS_CODE":0,"TOWNNAME":"安南區","LI":"溪東里","LIN":"16鄰","STREET":"北安路","SECT":"二段","MAREA":" ","LANE":"１２３巷","ALLEY":" ","HOUSE_NO":"３號","E_COORD97":168458.79999999999,"N_COORD97":2547509.0600000001,"ADDRESS":"北安路二段１２３巷３號","OBJECTID":237690},"geometry":{"x":168458.80000000075,"y":2547509.0600000005}},{"attributes":{"ID":237695,"DIS_CODE":0,"TOWNNAME":"安南區","LI":"溪東里","LIN":"16鄰","STREET":"北安路","SECT":"二段","MAREA":" ","LANE":"１２３巷","ALLEY":" ","HOUSE_NO":"５號","E_COORD97":168453.44,"N_COORD97":2547508.5499999998,"ADDRESS":"北安路二段１２３巷５號","OBJECTID":237691},"geometry":{"x":168453.44000000134,"y":2547508.5500000007}},{"attributes":{"ID":237696,"DIS_CODE":0,"TOWNNAME":"安南區","LI":"溪東里","LIN":"16鄰","STREET":"北安路","SECT":"二段","MAREA":" ","LANE":"１２３巷","ALLEY":" ","HOUSE_NO":"９號","E_COORD97":168442.32999999999,"N_COORD97":2547507.6499999999,"ADDRESS":"北安路二段１２３巷９號","OBJECTID":237692},"geometry":{"x":168442.33000000101,"y":2547507.6500000004}},{"attributes":{"ID":237697,"DIS_CODE":0,"TOWNNAME":"安南區","LI":"溪東里","LIN":"16鄰","STREET":"北安路","SECT":"二段","MAREA":" ","LANE":"１２３巷","ALLEY":" ","HOUSE_NO":"１３號","E_COORD97":168422.98999999999,"N_COORD97":2547505.7400000002,"ADDRESS":"北安路二段１２３巷１３號","OBJECTID":237693},"geometry":{"x":168422.99000000022,"y":2547505.7400000021}},{"attributes":{"ID":237698,"DIS_CODE":0,"TOWNNAME":"安南區","LI":"溪東里","LIN":"16鄰","STREET":"北安路","SECT":"二段","MAREA":" ","LANE":"１２３巷","ALLEY":" ","HOUSE_NO":"１５號","E_COORD97":168416.63,"N_COORD97":2547504.29,"ADDRESS":"北安路二段１２３巷１５號","OBJECTID":237694},"geometry":{"x":168416.62999999989,"y":2547504.290000001}},{"attributes":{"ID":237699,"DIS_CODE":0,"TOWNNAME":"安南區","LI":"溪東里","LIN":"16鄰","STREET":"北安路","SECT":"二段","MAREA":" ","LANE":"１２３巷","ALLEY":" ","HOUSE_NO":"１７號","E_COORD97":168411.13,"N_COORD97":2547503.8100000001,"ADDRESS":"北安路二段１２３巷１７號","OBJECTID":237695},"geometry":{"x":168411.13000000082,"y":2547503.8100000005}},{"attributes":{"ID":237700,"DIS_CODE":0,"TOWNNAME":"六甲區","LI":"甲東里","LIN":"13鄰","STREET":"忠孝街","SECT":" ","MAREA":" ","LANE":"１６８巷","ALLEY":" ","HOUSE_NO":"５號之１","E_COORD97":184056.70999999999,"N_COORD97":2569909.21,"ADDRESS":"忠孝街１６８巷５號之１","OBJECTID":237696},"geometry":{"x":184056.71000000183,"y":2569909.2100000046}},{"attributes":{"ID":237701,"DIS_CODE":0,"TOWNNAME":"六甲區","LI":"甲東里","LIN":"13鄰","STREET":"忠孝街","SECT":" ","MAREA":" ","LANE":"１６８巷","ALLEY":" ","HOUSE_NO":"５之２號","E_COORD97":184060.98999999999,"N_COORD97":2569909.2400000002,"ADDRESS":"忠孝街１６８巷５之２號","OBJECTID":237697},"geometry":{"x":184060.99000000115,"y":2569909.2400000021}},{"attributes":{"ID":237702,"DIS_CODE":0,"TOWNNAME":"六甲區","LI":"甲東里","LIN":"13鄰","STREET":"忠孝街","SECT":" ","MAREA":" ","LANE":"１６８巷","ALLEY":" ","HOUSE_NO":"５號之２","E_COORD97":184060.98999999999,"N_COORD97":2569909.2400000002,"ADDRESS":"忠孝街１６８巷５號之２","OBJECTID":237698},"geometry":{"x":184060.99000000115,"y":2569909.2400000021}},{"attributes":{"ID":237703,"DIS_CODE":0,"TOWNNAME":"六甲區","LI":"甲東里","LIN":"13鄰","STREET":"忠孝街","SECT":" ","MAREA":" ","LANE":"１６８巷","ALLEY":" ","HOUSE_NO":"５號","E_COORD97":184052.19,"N_COORD97":2569909.2000000002,"ADDRESS":"忠孝街１６８巷５號","OBJECTID":237699},"geometry":{"x":184052.18999999948,"y":2569909.2000000011}},{"attributes":{"ID":237704,"DIS_CODE":0,"TOWNNAME":"六甲區","LI":"甲東里","LIN":"13鄰","STREET":"忠孝街","SECT":" ","MAREA":" ","LANE":"１６８巷","ALLEY":" ","HOUSE_NO":"７號之１","E_COORD97":184068.89999999999,"N_COORD97":2569909.3900000001,"ADDRESS":"忠孝街１６８巷７號之１","OBJECTID":237700},"geometry":{"x":184068.90000000037,"y":2569909.3900000025}},{"attributes":{"ID":237705,"DIS_CODE":0,"TOWNNAME":"六甲區","LI":"甲東里","LIN":"13鄰","STREET":"忠孝街","SECT":" ","MAREA":" ","LANE":"１６８巷","ALLEY":" ","HOUSE_NO":"７號","E_COORD97":184064.51000000001,"N_COORD97":2569909.3199999998,"ADDRESS":"忠孝街１６８巷７號","OBJECTID":237701},"geometry":{"x":184064.50999999978,"y":2569909.3200000022}},{"attributes":{"ID":237706,"DIS_CODE":0,"TOWNNAME":"六甲區","LI":"甲東里","LIN":"13鄰","STREET":"忠孝街","SECT":" ","MAREA":" ","LANE":"１８２巷","ALLEY":" ","HOUSE_NO":"１０號","E_COORD97":184033.56,"N_COORD97":2569923.7200000002,"ADDRESS":"忠孝街１８２巷１０號","OBJECTID":237702},"geometry":{"x":184033.55999999866,"y":2569923.7200000025}},{"attributes":{"ID":237707,"DIS_CODE":0,"TOWNNAME":"六甲區","LI":"甲東里","LIN":"13鄰","STREET":"忠孝街","SECT":" ","MAREA":" ","LANE":"１８２巷","ALLEY":" ","HOUSE_NO":"１號","E_COORD97":184048.89999999999,"N_COORD97":2569970.5800000001,"ADDRESS":"忠孝街１８２巷１號","OBJECTID":237703},"geometry":{"x":184048.90000000037,"y":2569970.5800000038}},{"attributes":{"ID":237708,"DIS_CODE":0,"TOWNNAME":"六甲區","LI":"甲東里","LIN":"13鄰","STREET":"忠孝街","SECT":" ","MAREA":" ","LANE":"１８２巷","ALLEY":" ","HOUSE_NO":"２號","E_COORD97":184041.28,"N_COORD97":2569943.8500000001,"ADDRESS":"忠孝街１８２巷２號","OBJECTID":237704},"geometry":{"x":184041.27999999933,"y":2569943.8499999996}},{"attributes":{"ID":237709,"DIS_CODE":0,"TOWNNAME":"六甲區","LI":"甲東里","LIN":"13鄰","STREET":"忠孝街","SECT":" ","MAREA":" ","LANE":"１８２巷","ALLEY":" ","HOUSE_NO":"４號","E_COORD97":184041.42000000001,"N_COORD97":2569939.4900000002,"ADDRESS":"忠孝街１８２巷４號","OBJECTID":237705},"geometry":{"x":184041.41999999993,"y":2569939.4900000002}},{"attributes":{"ID":237710,"DIS_CODE":0,"TOWNNAME":"六甲區","LI":"甲東里","LIN":"13鄰","STREET":"忠孝街","SECT":" ","MAREA":" ","LANE":"１８２巷","ALLEY":" ","HOUSE_NO":"６號","E_COORD97":184041.45000000001,"N_COORD97":2569935.8100000001,"ADDRESS":"忠孝街１８２巷６號","OBJECTID":237706},"geometry":{"x":184041.45000000019,"y":2569935.8100000024}},{"attributes":{"ID":237711,"DIS_CODE":0,"TOWNNAME":"六甲區","LI":"甲東里","LIN":"13鄰","STREET":"忠孝街","SECT":" ","MAREA":" ","LANE":"１８２巷","ALLEY":" ","HOUSE_NO":"８號","E_COORD97":184041.5,"N_COORD97":2569931.9399999999,"ADDRESS":"忠孝街１８２巷８號","OBJECTID":237707},"geometry":{"x":184041.50000000093,"y":2569931.9399999995}},{"attributes":{"ID":237712,"DIS_CODE":0,"TOWNNAME":"六甲區","LI":"龍湖里","LIN":"13鄰","STREET":"珊瑚路","SECT":" ","MAREA":" ","LANE":"１９８巷","ALLEY":" ","HOUSE_NO":"２７號","E_COORD97":184709.56,"N_COORD97":2568191.8799999999,"ADDRESS":"珊瑚路１９８巷２７號","OBJECTID":237708},"geometry":{"x":184709.55999999959,"y":2568191.8800000008}},{"attributes":{"ID":237713,"DIS_CODE":0,"TOWNNAME":"六甲區","LI":"龍湖里","LIN":"13鄰","STREET":"珊瑚路","SECT":" ","MAREA":" ","LANE":"１９８巷","ALLEY":" ","HOUSE_NO":"２８號","E_COORD97":184638.56,"N_COORD97":2568118.4100000001,"ADDRESS":"珊瑚路１９８巷２８號","OBJECTID":237709},"geometry":{"x":184638.55999999959,"y":2568118.410000002}},{"attributes":{"ID":237714,"DIS_CODE":0,"TOWNNAME":"東區","LI":"東智里","LIN":"14鄰","STREET":"崇德三十二街","SECT":" ","MAREA":" ","LANE":" ","ALLEY":" ","HOUSE_NO":"６８號","E_COORD97":170964.39000000001,"N_COORD97":2540082.9500000002,"ADDRESS":"崇德三十二街６８號","OBJECTID":237710},"geometry":{"x":170964.38999999966,"y":2540082.9499999993}},{"attributes":{"ID":237715,"DIS_CODE":0,"TOWNNAME":"東區","LI":"東智里","LIN":"14鄰","STREET":"崇德三十二街","SECT":" ","MAREA":" ","LANE":" ","ALLEY":" ","HOUSE_NO":"６６號","E_COORD97":170960.14000000001,"N_COORD97":2540082.5299999998,"ADDRESS":"崇德三十二街６６號","OBJECTID":237711},"geometry":{"x":170960.1400000006,"y":2540082.5299999993}},{"attributes":{"ID":237716,"DIS_CODE":0,"TOWNNAME":"東區","LI":"東智里","LIN":"14鄰","STREET":"崇德三十二街","SECT":" ","MAREA":" ","LANE":" ","ALLEY":" ","HOUSE_NO":"６４號","E_COORD97":170956.88,"N_COORD97":2540082.3900000001,"ADDRESS":"崇德三十二街６４號","OBJECTID":237712},"geometry":{"x":170956.88000000175,"y":2540082.3899999987}},{"attributes":{"ID":237717,"DIS_CODE":0,"TOWNNAME":"歸仁區","LI":"六甲里","LIN":"37鄰","STREET":"六甲八街","SECT":" ","MAREA":" ","LANE":"１９０巷","ALLEY":" ","HOUSE_NO":"４０號","E_COORD97":175388.79120800001,"N_COORD97":2539618.34797,"ADDRESS":"六甲八街１９０巷４０號","OBJECTID":237713},"geometry":{"x":175388.79120799899,"y":2539618.3479670044}},{"attributes":{"ID":237718,"DIS_CODE":0,"TOWNNAME":"東區","LI":"東智里","LIN":"14鄰","STREET":"崇德三十二街","SECT":" ","MAREA":" ","LANE":" ","ALLEY":" ","HOUSE_NO":"６２號","E_COORD97":170953.20000000001,"N_COORD97":2540082.3900000001,"ADDRESS":"崇德三十二街６２號","OBJECTID":237714},"geometry":{"x":170953.20000000205,"y":2540082.3899999987}},{"attributes":{"ID":237719,"DIS_CODE":0,"TOWNNAME":"東區","LI":"東智里","LIN":"14鄰","STREET":"崇德三十二街","SECT":" ","MAREA":" ","LANE":" ","ALLEY":" ","HOUSE_NO":"９８號","E_COORD97":171020.45999999999,"N_COORD97":2540086.4900000002,"ADDRESS":"崇德三十二街９８號","OBJECTID":237715},"geometry":{"x":171020.45999999996,"y":2540086.4900000021}},{"attributes":{"ID":237720,"DIS_CODE":0,"TOWNNAME":"東區","LI":"東智里","LIN":"14鄰","STREET":"崇德三十二街","SECT":" ","MAREA":" ","LANE":" ","ALLEY":" ","HOUSE_NO":"６０號","E_COORD97":170949.38,"N_COORD97":2540081.96,"ADDRESS":"崇德三十二街６０號","OBJECTID":237716},"geometry":{"x":170949.37999999989,"y":2540081.9600000009}},{"attributes":{"ID":237721,"DIS_CODE":0,"TOWNNAME":"東區","LI":"東智里","LIN":"14鄰","STREET":"崇德三十二街","SECT":" ","MAREA":" ","LANE":" ","ALLEY":" ","HOUSE_NO":"５８號","E_COORD97":170945.70000000001,"N_COORD97":2540081.54,"ADDRESS":"崇德三十二街５８號","OBJECTID":237717},"geometry":{"x":170945.70000000019,"y":2540081.540000001}},{"attributes":{"ID":237722,"DIS_CODE":0,"TOWNNAME":"東區","LI":"東智里","LIN":"14鄰","STREET":"崇德三十二街","SECT":" ","MAREA":" ","LANE":" ","ALLEY":" ","HOUSE_NO":"５６號","E_COORD97":170941.88,"N_COORD97":2540081.54,"ADDRESS":"崇德三十二街５６號","OBJECTID":237718},"geometry":{"x":170941.88000000082,"y":2540081.540000001}},{"attributes":{"ID":237723,"DIS_CODE":0,"TOWNNAME":"東區","LI":"東智里","LIN":"14鄰","STREET":"崇德三十二街","SECT":" ","MAREA":" ","LANE":" ","ALLEY":" ","HOUSE_NO":"５４號","E_COORD97":170938.34,"N_COORD97":2540081.54,"ADDRESS":"崇德三十二街５４號","OBJECTID":237719},"geometry":{"x":170938.34000000171,"y":2540081.540000001}},{"attributes":{"ID":237724,"DIS_CODE":0,"TOWNNAME":"六甲區","LI":"龍湖里","LIN":"13鄰","STREET":"珊瑚路","SECT":" ","MAREA":" ","LANE":"１９８巷","ALLEY":" ","HOUSE_NO":"２９號","E_COORD97":184565.82000000001,"N_COORD97":2568079.6400000001,"ADDRESS":"珊瑚路１９８巷２９號","OBJECTID":237720},"geometry":{"x":184565.8200000003,"y":2568079.6400000025}},{"attributes":{"ID":237725,"DIS_CODE":0,"TOWNNAME":"六甲區","LI":"龍湖里","LIN":"13鄰","STREET":"珊瑚路","SECT":" ","MAREA":" ","LANE":"１９８巷","ALLEY":" ","HOUSE_NO":"２號","E_COORD97":184583.54999999999,"N_COORD97":2568225.2599999998,"ADDRESS":"珊瑚路１９８巷２號","OBJECTID":237721},"geometry":{"x":184583.55000000075,"y":2568225.2599999998}},{"attributes":{"ID":237726,"DIS_CODE":0,"TOWNNAME":"六甲區","LI":"龍湖里","LIN":"13鄰","STREET":"珊瑚路","SECT":" ","MAREA":" ","LANE":"１９８巷","ALLEY":" ","HOUSE_NO":"３０號","E_COORD97":184554.84,"N_COORD97":2568071.6499999999,"ADDRESS":"珊瑚路１９８巷３０號","OBJECTID":237722},"geometry":{"x":184554.84000000078,"y":2568071.6500000041}},{"attributes":{"ID":237727,"DIS_CODE":0,"TOWNNAME":"六甲區","LI":"龍湖里","LIN":"13鄰","STREET":"珊瑚路","SECT":" ","MAREA":" ","LANE":"１９８巷","ALLEY":" ","HOUSE_NO":"３１號","E_COORD97":184509.19,"N_COORD97":2568057.0299999998,"ADDRESS":"珊瑚路１９８巷３１號","OBJECTID":237723},"geometry":{"x":184509.19000000041,"y":2568057.0299999993}},{"attributes":{"ID":237728,"DIS_CODE":0,"TOWNNAME":"六甲區","LI":"龍湖里","LIN":"13鄰","STREET":"珊瑚路","SECT":" ","MAREA":" ","LANE":"１９８巷","ALLEY":" ","HOUSE_NO":"３２號","E_COORD97":184483.81,"N_COORD97":2568057.75,"ADDRESS":"珊瑚路１９８巷３２號","OBJECTID":237724},"geometry":{"x":184483.80999999959,"y":2568057.7500000019}},{"attributes":{"ID":237729,"DIS_CODE":0,"TOWNNAME":"六甲區","LI":"龍湖里","LIN":"13鄰","STREET":"珊瑚路","SECT":" ","MAREA":" ","LANE":"１９８巷","ALLEY":" ","HOUSE_NO":"３５號","E_COORD97":184441.79999999999,"N_COORD97":2568035.3999999999,"ADDRESS":"珊瑚路１９８巷３５號","OBJECTID":237725},"geometry":{"x":184441.79999999981,"y":2568035.4000000004}},{"attributes":{"ID":237730,"DIS_CODE":0,"TOWNNAME":"六甲區","LI":"龍湖里","LIN":"13鄰","STREET":"珊瑚路","SECT":" ","MAREA":" ","LANE":"１９８巷","ALLEY":" ","HOUSE_NO":"３６號","E_COORD97":184431.04999999999,"N_COORD97":2568030.98,"ADDRESS":"珊瑚路１９８巷３６號","OBJECTID":237726},"geometry":{"x":184431.05000000075,"y":2568030.9800000004}},{"attributes":{"ID":237731,"DIS_CODE":0,"TOWNNAME":"六甲區","LI":"龍湖里","LIN":"13鄰","STREET":"珊瑚路","SECT":" ","MAREA":" ","LANE":"１９８巷","ALLEY":" ","HOUSE_NO":"３７號","E_COORD97":184421.67999999999,"N_COORD97":2568023.5800000001,"ADDRESS":"珊瑚路１９８巷３７號","OBJECTID":237727},"geometry":{"x":184421.68000000063,"y":2568023.5800000001}},{"attributes":{"ID":237732,"DIS_CODE":0,"TOWNNAME":"六甲區","LI":"龍湖里","LIN":"13鄰","STREET":"珊瑚路","SECT":" ","MAREA":" ","LANE":"１９８巷","ALLEY":" ","HOUSE_NO":"３８號","E_COORD97":184352.97,"N_COORD97":2568066.21,"ADDRESS":"珊瑚路１９８巷３８號","OBJECTID":237728},"geometry":{"x":184352.96999999974,"y":2568066.2100000028}},{"attributes":{"ID":237733,"DIS_CODE":0,"TOWNNAME":"六甲區","LI":"龍湖里","LIN":"13鄰","STREET":"珊瑚路","SECT":" ","MAREA":" ","LANE":"１９８巷","ALLEY":" ","HOUSE_NO":"３９號","E_COORD97":184337.73999999999,"N_COORD97":2568062.0899999999,"ADDRESS":"珊瑚路１９８巷３９號","OBJECTID":237729},"geometry":{"x":184337.74000000022,"y":2568062.0900000017}},{"attributes":{"ID":237734,"DIS_CODE":0,"TOWNNAME":"六甲區","LI":"龍湖里","LIN":"13鄰","STREET":"珊瑚路","SECT":" ","MAREA":" ","LANE":"１９８巷","ALLEY":" ","HOUSE_NO":"４０號","E_COORD97":184340.95999999999,"N_COORD97":2568079.27,"ADDRESS":"珊瑚路１９８巷４０號","OBJECTID":237730},"geometry":{"x":184340.95999999996,"y":2568079.2699999996}},{"attributes":{"ID":237735,"DIS_CODE":0,"TOWNNAME":"六甲區","LI":"龍湖里","LIN":"13鄰","STREET":"珊瑚路","SECT":" ","MAREA":" ","LANE":"１９８巷","ALLEY":" ","HOUSE_NO":"４１號","E_COORD97":184314.09,"N_COORD97":2568091.6099999999,"ADDRESS":"珊瑚路１９８巷４１號","OBJECTID":237731},"geometry":{"x":184314.09000000078,"y":2568091.6100000013}},{"attributes":{"ID":237736,"DIS_CODE":0,"TOWNNAME":"六甲區","LI":"龍湖里","LIN":"13鄰","STREET":"珊瑚路","SECT":" ","MAREA":" ","LANE":"１９８巷","ALLEY":" ","HOUSE_NO":"４２號","E_COORD97":184334.39999999999,"N_COORD97":2568108.1400000001,"ADDRESS":"珊瑚路１９８巷４２號","OBJECTID":237732},"geometry":{"x":184334.4000000013,"y":2568108.1400000006}},{"attributes":{"ID":237737,"DIS_CODE":0,"TOWNNAME":"六甲區","LI":"龍湖里","LIN":"13鄰","STREET":"珊瑚路","SECT":" ","MAREA":" ","LANE":"１９８巷","ALLEY":" ","HOUSE_NO":"４３號","E_COORD97":184332.51000000001,"N_COORD97":2568122.8399999999,"ADDRESS":"珊瑚路１９８巷４３號","OBJECTID":237733},"geometry":{"x":184332.51000000164,"y":2568122.8399999999}},{"attributes":{"ID":237738,"DIS_CODE":0,"TOWNNAME":"六甲區","LI":"龍湖里","LIN":"13鄰","STREET":"珊瑚路","SECT":" ","MAREA":" ","LANE":"１９８巷","ALLEY":" ","HOUSE_NO":"４４號","E_COORD97":184331.23999999999,"N_COORD97":2568152.7799999998,"ADDRESS":"珊瑚路１９８巷４４號","OBJECTID":237734},"geometry":{"x":184331.24000000022,"y":2568152.7799999993}},{"attributes":{"ID":237739,"DIS_CODE":0,"TOWNNAME":"六甲區","LI":"龍湖里","LIN":"13鄰","STREET":"珊瑚路","SECT":" ","MAREA":" ","LANE":"１９８巷","ALLEY":" ","HOUSE_NO":"４５號","E_COORD97":184267.39000000001,"N_COORD97":2568196.3900000001,"ADDRESS":"珊瑚路１９８巷４５號","OBJECTID":237735},"geometry":{"x":184267.3900000006,"y":2568196.3900000025}},{"attributes":{"ID":237740,"DIS_CODE":0,"TOWNNAME":"六甲區","LI":"龍湖里","LIN":"13鄰","STREET":"珊瑚路","SECT":" ","MAREA":" ","LANE":"１９８巷","ALLEY":" ","HOUSE_NO":"４６號","E_COORD97":184483.34,"N_COORD97":2568322.71,"ADDRESS":"珊瑚路１９８巷４６號","OBJECTID":237736},"geometry":{"x":184483.34000000078,"y":2568322.7100000046}},{"attributes":{"ID":237741,"DIS_CODE":0,"TOWNNAME":"六甲區","LI":"六甲里","LIN":"13鄰","STREET":"建國街","SECT":" ","MAREA":" ","LANE":"６巷","ALLEY":" ","HOUSE_NO":"１號","E_COORD97":183768.48999999999,"N_COORD97":2569889.5600000001,"ADDRESS":"建國街６巷１號","OBJECTID":237737},"geometry":{"x":183768.49000000022,"y":2569889.5600000042}},{"attributes":{"ID":237742,"DIS_CODE":0,"TOWNNAME":"六甲區","LI":"甲東里","LIN":"13鄰","STREET":"裕農街","SECT":" ","MAREA":" ","LANE":"２８９巷","ALLEY":" ","HOUSE_NO":"６號","E_COORD97":184081.42999999999,"N_COORD97":2569951.3100000001,"ADDRESS":"裕農街２８９巷６號","OBJECTID":237738},"geometry":{"x":184081.4299999997,"y":2569951.3100000005}},{"attributes":{"ID":237743,"DIS_CODE":0,"TOWNNAME":"安平區","LI":"平通里","LIN":"13鄰","STREET":"平通路","SECT":" ","MAREA":" ","LANE":"５８０巷","ALLEY":" ","HOUSE_NO":"４８號","E_COORD97":164966.09,"N_COORD97":2543948.2599999998,"ADDRESS":"平通路５８０巷４８號","OBJECTID":237739},"geometry":{"x":164966.08999999985,"y":2543948.2600000016}},{"attributes":{"ID":237744,"DIS_CODE":0,"TOWNNAME":"安平區","LI":"平通里","LIN":"13鄰","STREET":"平通路","SECT":" ","MAREA":" ","LANE":"５８０巷","ALLEY":" ","HOUSE_NO":"５０號","E_COORD97":164966.09,"N_COORD97":2543952.4500000002,"ADDRESS":"平通路５８０巷５０號","OBJECTID":237740},"geometry":{"x":164966.08999999985,"y":2543952.4499999974}},{"attributes":{"ID":237745,"DIS_CODE":0,"TOWNNAME":"安平區","LI":"平通里","LIN":"13鄰","STREET":"育平九街","SECT":" ","MAREA":" ","LANE":"１９２巷","ALLEY":" ","HOUSE_NO":"１１號","E_COORD97":164988.09,"N_COORD97":2543917.3700000001,"ADDRESS":"育平九街１９２巷１１號","OBJECTID":237741},"geometry":{"x":164988.08999999985,"y":2543917.370000001}},{"attributes":{"ID":237746,"DIS_CODE":0,"TOWNNAME":"安平區","LI":"平通里","LIN":"13鄰","STREET":"育平九街","SECT":" ","MAREA":" ","LANE":"１９２巷","ALLEY":" ","HOUSE_NO":"１３號","E_COORD97":164990.26999999999,"N_COORD97":2543928.7599999998,"ADDRESS":"育平九街１９２巷１３號","OBJECTID":237742},"geometry":{"x":164990.27000000142,"y":2543928.7600000016}},{"attributes":{"ID":237747,"DIS_CODE":0,"TOWNNAME":"安平區","LI":"平通里","LIN":"13鄰","STREET":"育平九街","SECT":" ","MAREA":" ","LANE":"１９２巷","ALLEY":" ","HOUSE_NO":"１５號","E_COORD97":164990.51000000001,"N_COORD97":2543932.79,"ADDRESS":"育平九街１９２巷１５號","OBJECTID":237743},"geometry":{"x":164990.51000000164,"y":2543932.7899999991}},{"attributes":{"ID":237748,"DIS_CODE":0,"TOWNNAME":"安平區","LI":"平通里","LIN":"13鄰","STREET":"育平九街","SECT":" ","MAREA":" ","LANE":"１９２巷","ALLEY":" ","HOUSE_NO":"１７號","E_COORD97":164990.75,"N_COORD97":2543936.4900000002,"ADDRESS":"育平九街１９２巷１７號","OBJECTID":237744},"geometry":{"x":164990.75000000186,"y":2543936.4900000039}},{"attributes":{"ID":237749,"DIS_CODE":0,"TOWNNAME":"安平區","LI":"平通里","LIN":"13鄰","STREET":"育平九街","SECT":" ","MAREA":" ","LANE":"１９２巷","ALLEY":" ","HOUSE_NO":"１９號","E_COORD97":164990.98999999999,"N_COORD97":2543940.6400000001,"ADDRESS":"育平九街１９２巷１９號","OBJECTID":237745},"geometry":{"x":164990.99000000209,"y":2543940.6400000025}},{"attributes":{"ID":237750,"DIS_CODE":0,"TOWNNAME":"安平區","LI":"平通里","LIN":"13鄰","STREET":"育平九街","SECT":" ","MAREA":" ","LANE":"１９２巷","ALLEY":" ","HOUSE_NO":"１號","E_COORD97":164986.88,"N_COORD97":2543892.2400000002,"ADDRESS":"育平九街１９２巷１號","OBJECTID":237746},"geometry":{"x":164986.88000000082,"y":2543892.2400000021}},{"attributes":{"ID":237751,"DIS_CODE":0,"TOWNNAME":"安平區","LI":"平通里","LIN":"13鄰","STREET":"育平九街","SECT":" ","MAREA":" ","LANE":"１９２巷","ALLEY":" ","HOUSE_NO":"２１號","E_COORD97":164991.16,"N_COORD97":2543944.6699999999,"ADDRESS":"育平九街１９２巷２１號","OBJECTID":237747},"geometry":{"x":164991.16000000015,"y":2543944.6699999999}},{"attributes":{"ID":237752,"DIS_CODE":0,"TOWNNAME":"安平區","LI":"平通里","LIN":"13鄰","STREET":"育平九街","SECT":" ","MAREA":" ","LANE":"１９２巷","ALLEY":" ","HOUSE_NO":"２３號","E_COORD97":164991.79999999999,"N_COORD97":2543948.4100000001,"ADDRESS":"育平九街１９２巷２３號","OBJECTID":237748},"geometry":{"x":164991.79999999888,"y":2543948.410000002}},{"attributes":{"ID":237753,"DIS_CODE":0,"TOWNNAME":"安平區","LI":"平通里","LIN":"13鄰","STREET":"育平九街","SECT":" ","MAREA":" ","LANE":"１９２巷","ALLEY":" ","HOUSE_NO":"２５號","E_COORD97":164992.45000000001,"N_COORD97":2543952.4399999999,"ADDRESS":"育平九街１９２巷２５號","OBJECTID":237749},"geometry":{"x":164992.45000000019,"y":2543952.4399999995}},{"attributes":{"ID":237754,"DIS_CODE":0,"TOWNNAME":"安平區","LI":"平通里","LIN":"13鄰","STREET":"育平九街","SECT":" ","MAREA":" ","LANE":"１９２巷","ALLEY":" ","HOUSE_NO":"２７號","E_COORD97":164992.60999999999,"N_COORD97":2543956.2999999998,"ADDRESS":"育平九街１９２巷２７號","OBJECTID":237750},"geometry":{"x":164992.61000000127,"y":2543956.3000000026}},{"attributes":{"ID":237755,"DIS_CODE":0,"TOWNNAME":"安平區","LI":"平通里","LIN":"13鄰","STREET":"育平九街","SECT":" ","MAREA":" ","LANE":"１９２巷","ALLEY":" ","HOUSE_NO":"２９號","E_COORD97":164992.92999999999,"N_COORD97":2543960.6499999999,"ADDRESS":"育平九街１９２巷２９號","OBJECTID":237751},"geometry":{"x":164992.93000000063,"y":2543960.6500000022}},{"attributes":{"ID":237756,"DIS_CODE":0,"TOWNNAME":"安平區","LI":"平通里","LIN":"13鄰","STREET":"育平九街","SECT":" ","MAREA":" ","LANE":"１９２巷","ALLEY":" ","HOUSE_NO":"３１號","E_COORD97":164993.73999999999,"N_COORD97":2543964.4399999999,"ADDRESS":"育平九街１９２巷３１號","OBJECTID":237752},"geometry":{"x":164993.74000000022,"y":2543964.4400000013}},{"attributes":{"ID":237757,"DIS_CODE":0,"TOWNNAME":"安平區","LI":"平通里","LIN":"13鄰","STREET":"育平九街","SECT":" ","MAREA":" ","LANE":"１９２巷","ALLEY":" ","HOUSE_NO":"３３號","E_COORD97":164994.14000000001,"N_COORD97":2543968.2200000002,"ADDRESS":"育平九街１９２巷３３號","OBJECTID":237753},"geometry":{"x":164994.13999999966,"y":2543968.2200000007}},{"attributes":{"ID":237758,"DIS_CODE":0,"TOWNNAME":"安平區","LI":"平通里","LIN":"13鄰","STREET":"育平九街","SECT":" ","MAREA":" ","LANE":"１９２巷","ALLEY":" ","HOUSE_NO":"３５號","E_COORD97":164994.45999999999,"N_COORD97":2543972.3500000001,"ADDRESS":"育平九街１９２巷３５號","OBJECTID":237754},"geometry":{"x":164994.46000000183,"y":2543972.3499999996}},{"attributes":{"ID":237759,"DIS_CODE":0,"TOWNNAME":"安平區","LI":"平通里","LIN":"13鄰","STREET":"育平九街","SECT":" ","MAREA":" ","LANE":"１９２巷","ALLEY":" ","HOUSE_NO":"３７號","E_COORD97":164994.85999999999,"N_COORD97":2543976.3799999999,"ADDRESS":"育平九街１９２巷３７號","OBJECTID":237755},"geometry":{"x":164994.86000000034,"y":2543976.3800000027}},{"attributes":{"ID":237760,"DIS_CODE":0,"TOWNNAME":"安平區","LI":"平通里","LIN":"13鄰","STREET":"育平九街","SECT":" ","MAREA":" ","LANE":"１９２巷","ALLEY":" ","HOUSE_NO":"３９號","E_COORD97":164994.94,"N_COORD97":2543980.6499999999,"ADDRESS":"育平九街１９２巷３９號","OBJECTID":237756},"geometry":{"x":164994.94000000227,"y":2543980.6500000022}},{"attributes":{"ID":237761,"DIS_CODE":0,"TOWNNAME":"安平區","LI":"平通里","LIN":"13鄰","STREET":"育平九街","SECT":" ","MAREA":" ","LANE":"１９２巷","ALLEY":" ","HOUSE_NO":"３號","E_COORD97":164987.29000000001,"N_COORD97":2543896.8300000001,"ADDRESS":"育平九街１９２巷３號","OBJECTID":237757},"geometry":{"x":164987.29000000097,"y":2543896.8300000038}},{"attributes":{"ID":237762,"DIS_CODE":0,"TOWNNAME":"安平區","LI":"平通里","LIN":"13鄰","STREET":"育平九街","SECT":" ","MAREA":" ","LANE":"１９２巷","ALLEY":" ","HOUSE_NO":"４１號","E_COORD97":164995.19,"N_COORD97":2543984.27,"ADDRESS":"育平九街１９２巷４１號","OBJECTID":237758},"geometry":{"x":164995.19000000134,"y":2543984.2699999996}},{"attributes":{"ID":237763,"DIS_CODE":0,"TOWNNAME":"安平區","LI":"平通里","LIN":"13鄰","STREET":"育平九街","SECT":" ","MAREA":" ","LANE":"１９２巷","ALLEY":" ","HOUSE_NO":"４３號","E_COORD97":164995.35000000001,"N_COORD97":2543992.1299999999,"ADDRESS":"育平九街１９２巷４３號","OBJECTID":237759},"geometry":{"x":164995.35000000056,"y":2543992.1300000008}},{"attributes":{"ID":237764,"DIS_CODE":0,"TOWNNAME":"安平區","LI":"平通里","LIN":"13鄰","STREET":"育平九街","SECT":" ","MAREA":" ","LANE":"１９２巷","ALLEY":" ","HOUSE_NO":"７號","E_COORD97":164987.92999999999,"N_COORD97":2543909.0699999998,"ADDRESS":"育平九街１９２巷７號","OBJECTID":237760},"geometry":{"x":164987.93000000063,"y":2543909.070000004}},{"attributes":{"ID":237765,"DIS_CODE":0,"TOWNNAME":"安平區","LI":"平通里","LIN":"13鄰","STREET":"育平九街","SECT":" ","MAREA":" ","LANE":"１９２巷","ALLEY":" ","HOUSE_NO":"９號","E_COORD97":164988.25,"N_COORD97":2543913.7400000002,"ADDRESS":"育平九街１９２巷９號","OBJECTID":237761},"geometry":{"x":164988.25,"y":2543913.7400000002}},{"attributes":{"ID":237766,"DIS_CODE":0,"TOWNNAME":"安平區","LI":"平通里","LIN":"13鄰","STREET":"健康三街","SECT":" ","MAREA":" ","LANE":"４６０巷","ALLEY":" ","HOUSE_NO":"５９號","E_COORD97":164961.17000000001,"N_COORD97":2543899.98,"ADDRESS":"健康三街４６０巷５９號","OBJECTID":237762},"geometry":{"x":164961.17000000086,"y":2543899.9800000023}},{"attributes":{"ID":237767,"DIS_CODE":0,"TOWNNAME":"安平區","LI":"平通里","LIN":"13鄰","STREET":"健康三街","SECT":" ","MAREA":" ","LANE":"４６０巷","ALLEY":" ","HOUSE_NO":"６０號","E_COORD97":164988.48999999999,"N_COORD97":2543870.2200000002,"ADDRESS":"健康三街４６０巷６０號","OBJECTID":237763},"geometry":{"x":164988.49000000115,"y":2543870.2200000007}},{"attributes":{"ID":237768,"DIS_CODE":0,"TOWNNAME":"安平區","LI":"平通里","LIN":"13鄰","STREET":"健康三街","SECT":" ","MAREA":" ","LANE":"４６０巷","ALLEY":" ","HOUSE_NO":"６１號","E_COORD97":164966.48999999999,"N_COORD97":2543898.8500000001,"ADDRESS":"健康三街４６０巷６１號","OBJECTID":237764},"geometry":{"x":164966.49000000022,"y":2543898.8499999996}},{"attributes":{"ID":237769,"DIS_CODE":0,"TOWNNAME":"安平區","LI":"平通里","LIN":"13鄰","STREET":"健康三街","SECT":" ","MAREA":" ","LANE":"４６０巷","ALLEY":" ","HOUSE_NO":"６３號","E_COORD97":164971.97,"N_COORD97":2543897.96,"ADDRESS":"健康三街４６０巷６３號","OBJECTID":237765},"geometry":{"x":164971.9700000016,"y":2543897.9600000028}},{"attributes":{"ID":237770,"DIS_CODE":0,"TOWNNAME":"安平區","LI":"平通里","LIN":"13鄰","STREET":"健康三街","SECT":" ","MAREA":" ","LANE":"４８２巷","ALLEY":" ","HOUSE_NO":"１１號","E_COORD97":164872.84,"N_COORD97":2543975.2999999998,"ADDRESS":"健康三街４８２巷１１號","OBJECTID":237766},"geometry":{"x":164872.83999999985,"y":2543975.2999999989}},{"attributes":{"ID":237771,"DIS_CODE":0,"TOWNNAME":"安平區","LI":"平通里","LIN":"13鄰","STREET":"健康三街","SECT":" ","MAREA":" ","LANE":"４８２巷","ALLEY":" ","HOUSE_NO":"１３號","E_COORD97":164877.59,"N_COORD97":2543975.1400000001,"ADDRESS":"健康三街４８２巷１３號","OBJECTID":237767},"geometry":{"x":164877.58999999985,"y":2543975.1400000006}},{"attributes":{"ID":237772,"DIS_CODE":0,"TOWNNAME":"安平區","LI":"平通里","LIN":"13鄰","STREET":"健康三街","SECT":" ","MAREA":" ","LANE":"４８２巷","ALLEY":" ","HOUSE_NO":"１５號","E_COORD97":164886.54000000001,"N_COORD97":2543973.6099999999,"ADDRESS":"健康三街４８２巷１５號","OBJECTID":237768},"geometry":{"x":164886.54000000004,"y":2543973.6100000013}},{"attributes":{"ID":237773,"DIS_CODE":0,"TOWNNAME":"安平區","LI":"平通里","LIN":"13鄰","STREET":"健康三街","SECT":" ","MAREA":" ","LANE":"４８２巷","ALLEY":" ","HOUSE_NO":"１６號","E_COORD97":164877.10999999999,"N_COORD97":2543942.52,"ADDRESS":"健康三街４８２巷１６號","OBJECTID":237769},"geometry":{"x":164877.11000000127,"y":2543942.5200000033}},{"attributes":{"ID":237774,"DIS_CODE":0,"TOWNNAME":"安平區","LI":"平通里","LIN":"13鄰","STREET":"健康三街","SECT":" ","MAREA":" ","LANE":"４８２巷","ALLEY":" ","HOUSE_NO":"１８號","E_COORD97":164881.79000000001,"N_COORD97":2543941.5600000001,"ADDRESS":"健康三街４８２巷１８號","OBJECTID":237770},"geometry":{"x":164881.79000000004,"y":2543941.5600000005}},{"attributes":{"ID":237775,"DIS_CODE":0,"TOWNNAME":"安平區","LI":"平通里","LIN":"13鄰","STREET":"健康三街","SECT":" ","MAREA":" ","LANE":"４８２巷","ALLEY":" ","HOUSE_NO":"１號","E_COORD97":164850.59,"N_COORD97":2543978.3599999999,"ADDRESS":"健康三街４８２巷１號","OBJECTID":237771},"geometry":{"x":164850.58999999985,"y":2543978.3600000013}},{"attributes":{"ID":237776,"DIS_CODE":0,"TOWNNAME":"安平區","LI":"平通里","LIN":"13鄰","STREET":"健康三街","SECT":" ","MAREA":" ","LANE":"４８２巷","ALLEY":" ","HOUSE_NO":"２０號","E_COORD97":164886.62,"N_COORD97":2543941.3199999998,"ADDRESS":"健康三街４８２巷２０號","OBJECTID":237772},"geometry":{"x":164886.62000000197,"y":2543941.3200000022}},{"attributes":{"ID":237777,"DIS_CODE":0,"TOWNNAME":"安平區","LI":"平通里","LIN":"13鄰","STREET":"健康三街","SECT":" ","MAREA":" ","LANE":"４８２巷","ALLEY":" ","HOUSE_NO":"２２號","E_COORD97":164891.78,"N_COORD97":2543940.9100000001,"ADDRESS":"健康三街４８２巷２２號","OBJECTID":237773},"geometry":{"x":164891.78000000026,"y":2543940.910000002}},{"attributes":{"ID":237778,"DIS_CODE":0,"TOWNNAME":"安平區","LI":"平通里","LIN":"13鄰","STREET":"健康三街","SECT":" ","MAREA":" ","LANE":"４８２巷","ALLEY":" ","HOUSE_NO":"２４號","E_COORD97":164896.13,"N_COORD97":2543940.3500000001,"ADDRESS":"健康三街４８２巷２４號","OBJECTID":237774},"geometry":{"x":164896.12999999989,"y":2543940.3500000034}},{"attributes":{"ID":237779,"DIS_CODE":0,"TOWNNAME":"安平區","LI":"平通里","LIN":"13鄰","STREET":"健康三街","SECT":" ","MAREA":" ","LANE":"４８２巷","ALLEY":" ","HOUSE_NO":"２６號","E_COORD97":164901.37,"N_COORD97":2543940.1899999999,"ADDRESS":"健康三街４８２巷２６號","OBJECTID":237775},"geometry":{"x":164901.37000000011,"y":2543940.1899999995}},{"attributes":{"ID":237780,"DIS_CODE":0,"TOWNNAME":"安平區","LI":"平通里","LIN":"13鄰","STREET":"健康三街","SECT":" ","MAREA":" ","LANE":"４８２巷","ALLEY":" ","HOUSE_NO":"２８號","E_COORD97":164905.81,"N_COORD97":2543939.8700000001,"ADDRESS":"健康三街４８２巷２８號","OBJECTID":237776},"geometry":{"x":164905.81000000052,"y":2543939.870000001}},{"attributes":{"ID":237781,"DIS_CODE":0,"TOWNNAME":"安平區","LI":"平通里","LIN":"13鄰","STREET":"健康三街","SECT":" ","MAREA":" ","LANE":"４８２巷","ALLEY":" ","HOUSE_NO":"３０號","E_COORD97":164910.89000000001,"N_COORD97":2543939.46,"ADDRESS":"健康三街４８２巷３０號","OBJECTID":237777},"geometry":{"x":164910.88999999966,"y":2543939.4600000009}},{"attributes":{"ID":237782,"DIS_CODE":0,"TOWNNAME":"歸仁區","LI":"西埔里","LIN":"11鄰","STREET":"西埔一街","SECT":" ","MAREA":" ","LANE":"２３０巷","ALLEY":" ","HOUSE_NO":"２４號","E_COORD97":177106.310536,"N_COORD97":2544686.14322,"ADDRESS":"西埔一街２３０巷２４號","OBJECTID":237778},"geometry":{"x":177106.31053600181,"y":2544686.1432160009}},{"attributes":{"ID":237783,"DIS_CODE":0,"TOWNNAME":"安平區","LI":"平通里","LIN":"13鄰","STREET":"健康三街","SECT":" ","MAREA":" ","LANE":"４８２巷","ALLEY":" ","HOUSE_NO":"３１號","E_COORD97":164914.76000000001,"N_COORD97":2543970.1400000001,"ADDRESS":"健康三街４８２巷３１號","OBJECTID":237779},"geometry":{"x":164914.76000000071,"y":2543970.1400000025}},{"attributes":{"ID":237784,"DIS_CODE":0,"TOWNNAME":"安平區","LI":"平通里","LIN":"13鄰","STREET":"健康三街","SECT":" ","MAREA":" ","LANE":"４８２巷","ALLEY":" ","HOUSE_NO":"３２號","E_COORD97":164915.35999999999,"N_COORD97":2543938.7400000002,"ADDRESS":"健康三街４８２巷３２號","OBJECTID":237780},"geometry":{"x":164915.36000000034,"y":2543938.7400000021}},{"attributes":{"ID":237785,"DIS_CODE":0,"TOWNNAME":"安平區","LI":"平通里","LIN":"13鄰","STREET":"健康三街","SECT":" ","MAREA":" ","LANE":"４８２巷","ALLEY":" ","HOUSE_NO":"３４號","E_COORD97":164920.19,"N_COORD97":2543937.9500000002,"ADDRESS":"健康三街４８２巷３４號","OBJECTID":237781},"geometry":{"x":164920.19000000041,"y":2543937.9499999993}},{"attributes":{"ID":237786,"DIS_CODE":0,"TOWNNAME":"安平區","LI":"平通里","LIN":"13鄰","STREET":"健康三街","SECT":" ","MAREA":" ","LANE":"４８２巷","ALLEY":" ","HOUSE_NO":"３７號","E_COORD97":164927.22,"N_COORD97":2543970.25,"ADDRESS":"健康三街４８２巷３７號","OBJECTID":237782},"geometry":{"x":164927.21999999974,"y":2543970.25}},{"attributes":{"ID":237787,"DIS_CODE":0,"TOWNNAME":"安平區","LI":"平通里","LIN":"13鄰","STREET":"健康三街","SECT":" ","MAREA":" ","LANE":"４８２巷","ALLEY":" ","HOUSE_NO":"３號","E_COORD97":164855.01999999999,"N_COORD97":2543978.04,"ADDRESS":"健康三街４８２巷３號","OBJECTID":237783},"geometry":{"x":164855.02000000048,"y":2543978.0399999991}},{"attributes":{"ID":237788,"DIS_CODE":0,"TOWNNAME":"安平區","LI":"平通里","LIN":"13鄰","STREET":"健康三街","SECT":" ","MAREA":" ","LANE":"４８２巷","ALLEY":" ","HOUSE_NO":"５號","E_COORD97":164859.38,"N_COORD97":2543977.48,"ADDRESS":"健康三街４８２巷５號","OBJECTID":237784},"geometry":{"x":164859.38000000082,"y":2543977.4800000042}},{"attributes":{"ID":237789,"DIS_CODE":0,"TOWNNAME":"安平區","LI":"平通里","LIN":"13鄰","STREET":"健康三街","SECT":" ","MAREA":" ","LANE":"４８２巷","ALLEY":" ","HOUSE_NO":"７號","E_COORD97":164864.13,"N_COORD97":2543976.75,"ADDRESS":"健康三街４８２巷７號","OBJECTID":237785},"geometry":{"x":164864.12999999989,"y":2543976.7500000019}},{"attributes":{"ID":237790,"DIS_CODE":0,"TOWNNAME":"安平區","LI":"平通里","LIN":"13鄰","STREET":"健康三街","SECT":" ","MAREA":" ","LANE":"４８２巷","ALLEY":" ","HOUSE_NO":"９號","E_COORD97":164868.32000000001,"N_COORD97":2543975.79,"ADDRESS":"健康三街４８２巷９號","OBJECTID":237786},"geometry":{"x":164868.3200000003,"y":2543975.7899999991}},{"attributes":{"ID":237791,"DIS_CODE":0,"TOWNNAME":"新營區","LI":"王公里","LIN":"13鄰","STREET":"民族路","SECT":" ","MAREA":" ","LANE":"１１４巷","ALLEY":" ","HOUSE_NO":"５８號","E_COORD97":180495.85000000001,"N_COORD97":2579207.1600000001,"ADDRESS":"民族路１１４巷５８號","OBJECTID":237787},"geometry":{"x":180495.85000000056,"y":2579207.1600000001}},{"attributes":{"ID":237792,"DIS_CODE":0,"TOWNNAME":"新營區","LI":"南紙里","LIN":"13鄰","STREET":"太子路","SECT":" ","MAREA":" ","LANE":"２３８巷","ALLEY":" ","HOUSE_NO":"３６號","E_COORD97":177789.48999999999,"N_COORD97":2577935.4700000002,"ADDRESS":"太子路２３８巷３６號","OBJECTID":237788},"geometry":{"x":177789.49000000022,"y":2577935.4699999988}},{"attributes":{"ID":237793,"DIS_CODE":0,"TOWNNAME":"新營區","LI":"南紙里","LIN":"13鄰","STREET":"太子路","SECT":" ","MAREA":" ","LANE":"２３８巷","ALLEY":" ","HOUSE_NO":"６５號","E_COORD97":177756.95000000001,"N_COORD97":2577989.8900000001,"ADDRESS":"太子路２３８巷６５號","OBJECTID":237789},"geometry":{"x":177756.95000000019,"y":2577989.8900000006}},{"attributes":{"ID":237794,"DIS_CODE":0,"TOWNNAME":"佳里區","LI":"六安里","LIN":"8鄰","STREET":"延平路","SECT":" ","MAREA":" ","LANE":"４９８巷","ALLEY":" ","HOUSE_NO":"７號","E_COORD97":165915.14000000001,"N_COORD97":2562912.9700000002,"ADDRESS":"延平路４９８巷７號","OBJECTID":237790},"geometry":{"x":165915.14000000153,"y":2562912.9700000044}},{"attributes":{"ID":237795,"DIS_CODE":0,"TOWNNAME":"新營區","LI":"埤寮里","LIN":"13鄰","STREET":"中正路","SECT":" ","MAREA":" ","LANE":"４７９巷","ALLEY":" ","HOUSE_NO":"３之１號","E_COORD97":179989.73000000001,"N_COORD97":2580476.5299999998,"ADDRESS":"中正路４７９巷３之１號","OBJECTID":237791},"geometry":{"x":179989.73000000045,"y":2580476.5299999975}},{"attributes":{"ID":237796,"DIS_CODE":0,"TOWNNAME":"新營區","LI":"埤寮里","LIN":"13鄰","STREET":"中正路","SECT":" ","MAREA":" ","LANE":"３３５巷","ALLEY":" ","HOUSE_NO":"６號","E_COORD97":180006.79000000001,"N_COORD97":2580088.7799999998,"ADDRESS":"中正路３３５巷６號","OBJECTID":237792},"geometry":{"x":180006.79000000097,"y":2580088.7800000012}},{"attributes":{"ID":237797,"DIS_CODE":0,"TOWNNAME":"新營區","LI":"王公里","LIN":"13鄰","STREET":"民族路","SECT":" ","MAREA":" ","LANE":"１１４巷","ALLEY":" ","HOUSE_NO":"１０號","E_COORD97":180422.17999999999,"N_COORD97":2579204.1899999999,"ADDRESS":"民族路１１４巷１０號","OBJECTID":237793},"geometry":{"x":180422.18000000156,"y":2579204.1899999976}},{"attributes":{"ID":237798,"DIS_CODE":0,"TOWNNAME":"新營區","LI":"埤寮里","LIN":"13鄰","STREET":"中正路","SECT":" ","MAREA":" ","LANE":"４３９巷","ALLEY":" ","HOUSE_NO":"２號","E_COORD97":179909.95000000001,"N_COORD97":2580359.4500000002,"ADDRESS":"中正路４３９巷２號","OBJECTID":237794},"geometry":{"x":179909.95000000019,"y":2580359.4500000011}},{"attributes":{"ID":237799,"DIS_CODE":0,"TOWNNAME":"新營區","LI":"埤寮里","LIN":"13鄰","STREET":"中正路","SECT":" ","MAREA":" ","LANE":"３３５巷","ALLEY":" ","HOUSE_NO":"８號","E_COORD97":180006.87,"N_COORD97":2580094.3199999998,"ADDRESS":"中正路３３５巷８號","OBJECTID":237795},"geometry":{"x":180006.87000000104,"y":2580094.3200000022}},{"attributes":{"ID":237800,"DIS_CODE":0,"TOWNNAME":"新營區","LI":"埤寮里","LIN":"13鄰","STREET":"中正路","SECT":" ","MAREA":" ","LANE":"３３５巷","ALLEY":" ","HOUSE_NO":"２之３號","E_COORD97":180004.17000000001,"N_COORD97":2580075.5699999998,"ADDRESS":"中正路３３５巷２之３號","OBJECTID":237796},"geometry":{"x":180004.17000000086,"y":2580075.5700000022}},{"attributes":{"ID":237801,"DIS_CODE":0,"TOWNNAME":"新市區","LI":"社內里","LIN":"16鄰","STREET":" ","SECT":" ","MAREA":"社內","LANE":" ","ALLEY":" ","HOUSE_NO":"１７３之２號","E_COORD97":176098.76999999999,"N_COORD97":2552889.8399999999,"ADDRESS":"社內１７３之２號","OBJECTID":237797},"geometry":{"x":176098.77000000142,"y":2552889.8399999999}},{"attributes":{"ID":237802,"DIS_CODE":0,"TOWNNAME":"善化區","LI":"溪美里","LIN":"16鄰","STREET":" ","SECT":" ","MAREA":"溪尾","LANE":" ","ALLEY":" ","HOUSE_NO":"１４７號","E_COORD97":176927.87,"N_COORD97":2561325.27,"ADDRESS":"溪尾１４７號","OBJECTID":237798},"geometry":{"x":176927.87000000104,"y":2561325.2699999996}},{"attributes":{"ID":237803,"DIS_CODE":0,"TOWNNAME":"善化區","LI":"田寮里","LIN":"16鄰","STREET":" ","SECT":" ","MAREA":"六分寮","LANE":" ","ALLEY":" ","HOUSE_NO":"１８３號之２","E_COORD97":178933.57000000001,"N_COORD97":2561632.77,"ADDRESS":"六分寮１８３號之２","OBJECTID":237799},"geometry":{"x":178933.57000000216,"y":2561632.7700000014}},{"attributes":{"ID":237804,"DIS_CODE":0,"TOWNNAME":"善化區","LI":"田寮里","LIN":"16鄰","STREET":" ","SECT":" ","MAREA":"六分寮","LANE":" ","ALLEY":" ","HOUSE_NO":"１７６號","E_COORD97":178823.41,"N_COORD97":2561587.25,"ADDRESS":"六分寮１７６號","OBJECTID":237800},"geometry":{"x":178823.41000000108,"y":2561587.25}}]}