{"displayFieldName":"TOWNNAME","fieldAliases":{"ID":"ID","DIS_CODE":"DIS_CODE","TOWNNAME":"TOWNNAME","LI":"LI","LIN":"LIN","STREET":"STREET","SECT":"SECT","MAREA":"MAREA","LANE":"LANE","ALLEY":"ALLEY","HOUSE_NO":"HOUSE_NO","E_COORD97":"E_COORD97","N_COORD97":"N_COORD97","ADDRESS":"ADDRESS","OBJECTID":"OBJECTID"},"geometryType":"esriGeometryPoint","spatialReference":{"wkid":102443,"latestWkid":3826},"fields":[{"name":"ID","type":"esriFieldTypeDouble","alias":"ID"},{"name":"DIS_CODE","type":"esriFieldTypeInteger","alias":"DIS_CODE"},{"name":"TOWNNAME","type":"esriFieldTypeString","alias":"TOWNNAME","length":8},{"name":"LI","type":"esriFieldTypeString","alias":"LI","length":8},{"name":"LIN","type":"esriFieldTypeString","alias":"LIN","length":12},{"name":"STREET","type":"esriFieldTypeString","alias":"STREET","length":20},{"name":"SECT","type":"esriFieldTypeString","alias":"SECT","length":8},{"name":"MAREA","type":"esriFieldTypeString","alias":"MAREA","length":12},{"name":"LANE","type":"esriFieldTypeString","alias":"LANE","length":10},{"name":"ALLEY","type":"esriFieldTypeString","alias":"ALLEY","length":10},{"name":"HOUSE_NO","type":"esriFieldTypeString","alias":"HOUSE_NO","length":20},{"name":"E_COORD97","type":"esriFieldTypeDouble","alias":"E_COORD97"},{"name":"N_COORD97","type":"esriFieldTypeDouble","alias":"N_COORD97"},{"name":"ADDRESS","type":"esriFieldTypeString","alias":"ADDRESS","length":50},{"name":"OBJECTID","type":"esriFieldTypeOID","alias":"OBJECTID"}],"features":[{"attributes":{"ID":373811,"DIS_CODE":0,"TOWNNAME":"北區","LI":"延平里","LIN":"10鄰","STREET":"長榮路","SECT":"五段","MAREA":" ","LANE":"４０１巷","ALLEY":" ","HOUSE_NO":"４６號","E_COORD97":169290.51999999999,"N_COORD97":2545847.5299999998,"ADDRESS":"長榮路五段４０１巷４６號","OBJECTID":373801},"geometry":{"x":169290.51999999955,"y":2545847.5300000031}},{"attributes":{"ID":373812,"DIS_CODE":0,"TOWNNAME":"北區","LI":"延平里","LIN":"10鄰","STREET":"長榮路","SECT":"五段","MAREA":" ","LANE":"４０１巷","ALLEY":" ","HOUSE_NO":"４８號","E_COORD97":169295.67000000001,"N_COORD97":2545846.5,"ADDRESS":"長榮路五段４０１巷４８號","OBJECTID":373802},"geometry":{"x":169295.67000000086,"y":2545846.5000000019}},{"attributes":{"ID":373813,"DIS_CODE":0,"TOWNNAME":"北區","LI":"延平里","LIN":"10鄰","STREET":"長榮路","SECT":"五段","MAREA":" ","LANE":"４０１巷","ALLEY":" ","HOUSE_NO":"５０號","E_COORD97":169299.26999999999,"N_COORD97":2545844.79,"ADDRESS":"長榮路五段４０１巷５０號","OBJECTID":373803},"geometry":{"x":169299.27000000142,"y":2545844.7899999991}},{"attributes":{"ID":373814,"DIS_CODE":0,"TOWNNAME":"北區","LI":"延平里","LIN":"10鄰","STREET":"長榮路","SECT":"五段","MAREA":" ","LANE":"４０１巷","ALLEY":" ","HOUSE_NO":"５２號","E_COORD97":169304.07999999999,"N_COORD97":2545841.5299999998,"ADDRESS":"長榮路五段４０１巷５２號","OBJECTID":373804},"geometry":{"x":169304.08000000007,"y":2545841.5300000012}},{"attributes":{"ID":373815,"DIS_CODE":0,"TOWNNAME":"北區","LI":"延平里","LIN":"10鄰","STREET":"長榮路","SECT":"五段","MAREA":" ","LANE":"４０１巷","ALLEY":" ","HOUSE_NO":"５４號","E_COORD97":169316.10000000001,"N_COORD97":2545839.8100000001,"ADDRESS":"長榮路五段４０１巷５４號","OBJECTID":373805},"geometry":{"x":169316.10000000056,"y":2545839.8100000042}},{"attributes":{"ID":373816,"DIS_CODE":0,"TOWNNAME":"北區","LI":"延平里","LIN":"10鄰","STREET":"長榮路","SECT":"五段","MAREA":" ","LANE":"４０１巷","ALLEY":" ","HOUSE_NO":"５６號","E_COORD97":169315.23999999999,"N_COORD97":2545833.46,"ADDRESS":"長榮路五段４０１巷５６號","OBJECTID":373806},"geometry":{"x":169315.24000000022,"y":2545833.4600000028}},{"attributes":{"ID":373817,"DIS_CODE":0,"TOWNNAME":"北區","LI":"延平里","LIN":"10鄰","STREET":"長榮路","SECT":"五段","MAREA":" ","LANE":"４０１巷","ALLEY":" ","HOUSE_NO":"５８號","E_COORD97":169307.69,"N_COORD97":2545829,"ADDRESS":"長榮路五段４０１巷５８號","OBJECTID":373807},"geometry":{"x":169307.69000000134,"y":2545829.0000000019}},{"attributes":{"ID":373818,"DIS_CODE":0,"TOWNNAME":"北區","LI":"延平里","LIN":"10鄰","STREET":"長榮路","SECT":"五段","MAREA":" ","LANE":"４０１巷","ALLEY":" ","HOUSE_NO":"６０號","E_COORD97":169308.54999999999,"N_COORD97":2545814.0699999998,"ADDRESS":"長榮路五段４０１巷６０號","OBJECTID":373808},"geometry":{"x":169308.55000000075,"y":2545814.0699999984}},{"attributes":{"ID":373819,"DIS_CODE":0,"TOWNNAME":"北區","LI":"延平里","LIN":"10鄰","STREET":"長榮路","SECT":"五段","MAREA":" ","LANE":"４０１巷","ALLEY":" ","HOUSE_NO":"６２號","E_COORD97":169299.10000000001,"N_COORD97":2545815.6200000001,"ADDRESS":"長榮路五段４０１巷６２號","OBJECTID":373809},"geometry":{"x":169299.10000000056,"y":2545815.6200000029}},{"attributes":{"ID":373820,"DIS_CODE":0,"TOWNNAME":"北區","LI":"延平里","LIN":"10鄰","STREET":"長榮路","SECT":"五段","MAREA":" ","LANE":"４０１巷","ALLEY":" ","HOUSE_NO":"６４號","E_COORD97":169306.82999999999,"N_COORD97":2545806.6899999999,"ADDRESS":"長榮路五段４０１巷６４號","OBJECTID":373810},"geometry":{"x":169306.83000000101,"y":2545806.6900000013}},{"attributes":{"ID":373821,"DIS_CODE":0,"TOWNNAME":"北區","LI":"延平里","LIN":"10鄰","STREET":"長榮路","SECT":"五段","MAREA":" ","LANE":"４０１巷","ALLEY":" ","HOUSE_NO":"６６號","E_COORD97":169295.5,"N_COORD97":2545807.5499999998,"ADDRESS":"長榮路五段４０１巷６６號","OBJECTID":373811},"geometry":{"x":169295.50000000093,"y":2545807.5500000007}},{"attributes":{"ID":373822,"DIS_CODE":0,"TOWNNAME":"北區","LI":"延平里","LIN":"10鄰","STREET":"長榮路","SECT":"五段","MAREA":" ","LANE":"４０１巷","ALLEY":" ","HOUSE_NO":"７０號","E_COORD97":169297.89999999999,"N_COORD97":2545799.6200000001,"ADDRESS":"長榮路五段４０１巷７０號","OBJECTID":373812},"geometry":{"x":169297.9000000013,"y":2545799.620000001}},{"attributes":{"ID":373823,"DIS_CODE":0,"TOWNNAME":"北區","LI":"延平里","LIN":"10鄰","STREET":"長榮路","SECT":"五段","MAREA":" ","LANE":"４０１巷","ALLEY":" ","HOUSE_NO":"７３號","E_COORD97":169323.82999999999,"N_COORD97":2545838.1699999999,"ADDRESS":"長榮路五段４０１巷７３號","OBJECTID":373813},"geometry":{"x":169323.83000000101,"y":2545838.1700000018}},{"attributes":{"ID":373824,"DIS_CODE":0,"TOWNNAME":"北區","LI":"延平里","LIN":"10鄰","STREET":"長榮路","SECT":"五段","MAREA":" ","LANE":"４０１巷","ALLEY":" ","HOUSE_NO":"７５號","E_COORD97":169322.45999999999,"N_COORD97":2545830.79,"ADDRESS":"長榮路五段４０１巷７５號","OBJECTID":373814},"geometry":{"x":169322.46000000089,"y":2545830.7899999991}},{"attributes":{"ID":373825,"DIS_CODE":0,"TOWNNAME":"北區","LI":"延平里","LIN":"10鄰","STREET":"長榮路","SECT":"五段","MAREA":" ","LANE":"４０１巷","ALLEY":" ","HOUSE_NO":"７７號","E_COORD97":169329.32999999999,"N_COORD97":2545828.8999999999,"ADDRESS":"長榮路五段４０１巷７７號","OBJECTID":373815},"geometry":{"x":169329.33000000007,"y":2545828.9000000041}},{"attributes":{"ID":373826,"DIS_CODE":0,"TOWNNAME":"北區","LI":"延平里","LIN":"10鄰","STREET":"長榮路","SECT":"五段","MAREA":" ","LANE":"４０１巷","ALLEY":" ","HOUSE_NO":"７９號","E_COORD97":169335.34,"N_COORD97":2545827.5299999998,"ADDRESS":"長榮路五段４０１巷７９號","OBJECTID":373816},"geometry":{"x":169335.34000000078,"y":2545827.5300000012}},{"attributes":{"ID":373827,"DIS_CODE":0,"TOWNNAME":"北區","LI":"延平里","LIN":"10鄰","STREET":"長榮路","SECT":"五段","MAREA":" ","LANE":"４０１巷","ALLEY":" ","HOUSE_NO":"８１號","E_COORD97":169340.32000000001,"N_COORD97":2545825.98,"ADDRESS":"長榮路五段４０１巷８１號","OBJECTID":373817},"geometry":{"x":169340.31999999937,"y":2545825.9800000023}},{"attributes":{"ID":373828,"DIS_CODE":0,"TOWNNAME":"北區","LI":"延平里","LIN":"10鄰","STREET":"長榮路","SECT":"五段","MAREA":" ","LANE":"４０１巷","ALLEY":" ","HOUSE_NO":"８３號","E_COORD97":169345.98000000001,"N_COORD97":2545824.4399999999,"ADDRESS":"長榮路五段４０１巷８３號","OBJECTID":373818},"geometry":{"x":169345.98000000045,"y":2545824.4400000032}},{"attributes":{"ID":373829,"DIS_CODE":0,"TOWNNAME":"北區","LI":"延平里","LIN":"10鄰","STREET":"長榮路","SECT":"五段","MAREA":" ","LANE":"４０１巷","ALLEY":" ","HOUSE_NO":"８５號","E_COORD97":169345.81,"N_COORD97":2545818.7799999998,"ADDRESS":"長榮路五段４０１巷８５號","OBJECTID":373819},"geometry":{"x":169345.80999999959,"y":2545818.7800000031}},{"attributes":{"ID":373830,"DIS_CODE":0,"TOWNNAME":"北區","LI":"延平里","LIN":"10鄰","STREET":"長榮路","SECT":"五段","MAREA":" ","LANE":"４０１巷","ALLEY":" ","HOUSE_NO":"８７號","E_COORD97":169340.82999999999,"N_COORD97":2545820.1499999999,"ADDRESS":"長榮路五段４０１巷８７號","OBJECTID":373820},"geometry":{"x":169340.83000000101,"y":2545820.1500000004}},{"attributes":{"ID":373831,"DIS_CODE":0,"TOWNNAME":"北區","LI":"延平里","LIN":"10鄰","STREET":"長榮路","SECT":"五段","MAREA":" ","LANE":"４０１巷","ALLEY":" ","HOUSE_NO":"８９號","E_COORD97":169334.82000000001,"N_COORD97":2545821.52,"ADDRESS":"長榮路五段４０１巷８９號","OBJECTID":373821},"geometry":{"x":169334.8200000003,"y":2545821.5200000014}},{"attributes":{"ID":373832,"DIS_CODE":0,"TOWNNAME":"北區","LI":"延平里","LIN":"10鄰","STREET":"長榮路","SECT":"五段","MAREA":" ","LANE":"４０１巷","ALLEY":" ","HOUSE_NO":"９１號","E_COORD97":169331.73000000001,"N_COORD97":2545822.5499999998,"ADDRESS":"長榮路五段４０１巷９１號","OBJECTID":373822},"geometry":{"x":169331.73000000138,"y":2545822.5500000026}},{"attributes":{"ID":373833,"DIS_CODE":0,"TOWNNAME":"北區","LI":"延平里","LIN":"10鄰","STREET":"長榮路","SECT":"五段","MAREA":" ","LANE":"４０１巷","ALLEY":" ","HOUSE_NO":"９３號","E_COORD97":169328.29999999999,"N_COORD97":2545823.2400000002,"ADDRESS":"長榮路五段４０１巷９３號","OBJECTID":373823},"geometry":{"x":169328.30000000168,"y":2545823.2400000039}},{"attributes":{"ID":373834,"DIS_CODE":0,"TOWNNAME":"北區","LI":"延平里","LIN":"10鄰","STREET":"長榮路","SECT":"五段","MAREA":" ","LANE":"４０１巷","ALLEY":" ","HOUSE_NO":"９５號","E_COORD97":169322.63,"N_COORD97":2545825.2999999998,"ADDRESS":"長榮路五段４０１巷９５號","OBJECTID":373824},"geometry":{"x":169322.63000000175,"y":2545825.3000000007}},{"attributes":{"ID":373835,"DIS_CODE":0,"TOWNNAME":"北區","LI":"延平里","LIN":"10鄰","STREET":"長榮路","SECT":"五段","MAREA":" ","LANE":"４０１巷","ALLEY":" ","HOUSE_NO":"９７號","E_COORD97":169319.54000000001,"N_COORD97":2545818.6099999999,"ADDRESS":"長榮路五段４０１巷９７號","OBJECTID":373825},"geometry":{"x":169319.54000000004,"y":2545818.6099999994}},{"attributes":{"ID":373836,"DIS_CODE":0,"TOWNNAME":"北區","LI":"延平里","LIN":"10鄰","STREET":"長榮路","SECT":"五段","MAREA":" ","LANE":"４０１巷","ALLEY":" ","HOUSE_NO":"９９號","E_COORD97":169319.19,"N_COORD97":2545816.2000000002,"ADDRESS":"長榮路五段４０１巷９９號","OBJECTID":373826},"geometry":{"x":169319.19000000041,"y":2545816.2000000011}},{"attributes":{"ID":373837,"DIS_CODE":0,"TOWNNAME":"歸仁區","LI":"七甲里","LIN":"10鄰","STREET":"七甲一街","SECT":" ","MAREA":" ","LANE":"１４巷","ALLEY":" ","HOUSE_NO":"６號","E_COORD97":177615.79000000001,"N_COORD97":2542364.6600000001,"ADDRESS":"七甲一街１４巷６號","OBJECTID":373827},"geometry":{"x":177615.79000000004,"y":2542364.6600000001}},{"attributes":{"ID":373838,"DIS_CODE":0,"TOWNNAME":"歸仁區","LI":"文化里","LIN":"10鄰","STREET":"民族北街","SECT":" ","MAREA":" ","LANE":"２３７巷","ALLEY":" ","HOUSE_NO":"２０號","E_COORD97":177455.45000000001,"N_COORD97":2541492.3300000001,"ADDRESS":"民族北街２３７巷２０號","OBJECTID":373828},"geometry":{"x":177455.45000000019,"y":2541492.3300000001}},{"attributes":{"ID":373839,"DIS_CODE":0,"TOWNNAME":"歸仁區","LI":"七甲里","LIN":"10鄰","STREET":"七甲一街","SECT":" ","MAREA":" ","LANE":"１４巷","ALLEY":" ","HOUSE_NO":"１號","E_COORD97":177614.89000000001,"N_COORD97":2542383.6600000001,"ADDRESS":"七甲一街１４巷１號","OBJECTID":373829},"geometry":{"x":177614.88999999966,"y":2542383.660000002}},{"attributes":{"ID":373840,"DIS_CODE":0,"TOWNNAME":"歸仁區","LI":"八甲里","LIN":"10鄰","STREET":"大明街","SECT":" ","MAREA":" ","LANE":"１９巷","ALLEY":" ","HOUSE_NO":"７號","E_COORD97":177766.97,"N_COORD97":2541932.6099999999,"ADDRESS":"大明街１９巷７號","OBJECTID":373830},"geometry":{"x":177766.96999999974,"y":2541932.6100000013}},{"attributes":{"ID":373841,"DIS_CODE":0,"TOWNNAME":"歸仁區","LI":"六甲里","LIN":"10鄰","STREET":"六甲路","SECT":" ","MAREA":" ","LANE":"１５１巷","ALLEY":" ","HOUSE_NO":"２７號","E_COORD97":176138.31,"N_COORD97":2539125.25,"ADDRESS":"六甲路１５１巷２７號","OBJECTID":373831},"geometry":{"x":176138.31000000052,"y":2539125.25}},{"attributes":{"ID":373842,"DIS_CODE":0,"TOWNNAME":"歸仁區","LI":"八甲里","LIN":"10鄰","STREET":"大明街","SECT":" ","MAREA":" ","LANE":"１９巷","ALLEY":" ","HOUSE_NO":"１６號","E_COORD97":177785.72,"N_COORD97":2541934.6099999999,"ADDRESS":"大明街１９巷１６號","OBJECTID":373832},"geometry":{"x":177785.71999999974,"y":2541934.6100000031}},{"attributes":{"ID":373843,"DIS_CODE":0,"TOWNNAME":"歸仁區","LI":"八甲里","LIN":"10鄰","STREET":"大明街","SECT":" ","MAREA":" ","LANE":"１９巷","ALLEY":" ","HOUSE_NO":"２號","E_COORD97":177785.26999999999,"N_COORD97":2541906.6099999999,"ADDRESS":"大明街１９巷２號","OBJECTID":373833},"geometry":{"x":177785.26999999955,"y":2541906.6099999994}},{"attributes":{"ID":373844,"DIS_CODE":0,"TOWNNAME":"歸仁區","LI":"八甲里","LIN":"10鄰","STREET":"大明街","SECT":" ","MAREA":" ","LANE":"１９巷","ALLEY":" ","HOUSE_NO":"１號","E_COORD97":177762.76999999999,"N_COORD97":2541914.6099999999,"ADDRESS":"大明街１９巷１號","OBJECTID":373834},"geometry":{"x":177762.76999999955,"y":2541914.6100000013}},{"attributes":{"ID":373845,"DIS_CODE":0,"TOWNNAME":"歸仁區","LI":"八甲里","LIN":"10鄰","STREET":"大明街","SECT":" ","MAREA":" ","LANE":"１９巷","ALLEY":" ","HOUSE_NO":"３號","E_COORD97":177764.87,"N_COORD97":2541920.6099999999,"ADDRESS":"大明街１９巷３號","OBJECTID":373835},"geometry":{"x":177764.86999999918,"y":2541920.6099999975}},{"attributes":{"ID":373846,"DIS_CODE":0,"TOWNNAME":"歸仁區","LI":"六甲里","LIN":"10鄰","STREET":"六甲路","SECT":" ","MAREA":" ","LANE":"１５１巷","ALLEY":" ","HOUSE_NO":"３８號","E_COORD97":176116.51000000001,"N_COORD97":2539081.25,"ADDRESS":"六甲路１５１巷３８號","OBJECTID":373836},"geometry":{"x":176116.51000000071,"y":2539081.25}},{"attributes":{"ID":373847,"DIS_CODE":0,"TOWNNAME":"歸仁區","LI":"武東里","LIN":"10鄰","STREET":"中正南路","SECT":"二段","MAREA":" ","LANE":"２５８巷","ALLEY":" ","HOUSE_NO":"２１號","E_COORD97":175297.35999999999,"N_COORD97":2535298.2799999998,"ADDRESS":"中正南路二段２５８巷２１號","OBJECTID":373837},"geometry":{"x":175297.36000000127,"y":2535298.2800000031}},{"attributes":{"ID":373848,"DIS_CODE":0,"TOWNNAME":"歸仁區","LI":"武東里","LIN":"10鄰","STREET":"中正南路","SECT":"二段","MAREA":" ","LANE":"２５８巷","ALLEY":" ","HOUSE_NO":"１５號","E_COORD97":175332.26000000001,"N_COORD97":2535289.27,"ADDRESS":"中正南路二段２５８巷１５號","OBJECTID":373838},"geometry":{"x":175332.25999999978,"y":2535289.2700000014}},{"attributes":{"ID":373849,"DIS_CODE":0,"TOWNNAME":"歸仁區","LI":"七甲里","LIN":"10鄰","STREET":"七甲一街","SECT":" ","MAREA":" ","LANE":"１４巷","ALLEY":" ","HOUSE_NO":"３號","E_COORD97":177618.98999999999,"N_COORD97":2542382.6600000001,"ADDRESS":"七甲一街１４巷３號","OBJECTID":373839},"geometry":{"x":177618.99000000115,"y":2542382.660000002}},{"attributes":{"ID":373850,"DIS_CODE":0,"TOWNNAME":"歸仁區","LI":"六甲里","LIN":"10鄰","STREET":"六甲路","SECT":" ","MAREA":" ","LANE":"１５１巷","ALLEY":" ","HOUSE_NO":"３０號","E_COORD97":176122.81,"N_COORD97":2539107.25,"ADDRESS":"六甲路１５１巷３０號","OBJECTID":373840},"geometry":{"x":176122.81000000052,"y":2539107.2500000019}},{"attributes":{"ID":373851,"DIS_CODE":0,"TOWNNAME":"歸仁區","LI":"武東里","LIN":"10鄰","STREET":"中正南路","SECT":"二段","MAREA":" ","LANE":"２５８巷","ALLEY":" ","HOUSE_NO":"１３號","E_COORD97":175383.56,"N_COORD97":2535294.2799999998,"ADDRESS":"中正南路二段２５８巷１３號","OBJECTID":373841},"geometry":{"x":175383.56000000052,"y":2535294.2799999993}},{"attributes":{"ID":373852,"DIS_CODE":0,"TOWNNAME":"歸仁區","LI":"武東里","LIN":"10鄰","STREET":"中正南路","SECT":"二段","MAREA":" ","LANE":"２５８巷","ALLEY":" ","HOUSE_NO":"４３號","E_COORD97":175198.95999999999,"N_COORD97":2535303.2799999998,"ADDRESS":"中正南路二段２５８巷４３號","OBJECTID":373842},"geometry":{"x":175198.95999999996,"y":2535303.2800000012}},{"attributes":{"ID":373853,"DIS_CODE":0,"TOWNNAME":"歸仁區","LI":"八甲里","LIN":"10鄰","STREET":"中正北路","SECT":"一段","MAREA":" ","LANE":"５２５巷","ALLEY":" ","HOUSE_NO":"１７號","E_COORD97":177464.88,"N_COORD97":2542027.4900000002,"ADDRESS":"中正北路一段５２５巷１７號","OBJECTID":373843},"geometry":{"x":177464.88000000082,"y":2542027.4900000039}},{"attributes":{"ID":373854,"DIS_CODE":0,"TOWNNAME":"歸仁區","LI":"八甲里","LIN":"10鄰","STREET":"中正北路","SECT":"一段","MAREA":" ","LANE":"５２５巷","ALLEY":" ","HOUSE_NO":"１２５號","E_COORD97":177090.89999999999,"N_COORD97":2542060.21,"ADDRESS":"中正北路一段５２５巷１２５號","OBJECTID":373844},"geometry":{"x":177090.9000000013,"y":2542060.2100000009}},{"attributes":{"ID":373855,"DIS_CODE":0,"TOWNNAME":"新營區","LI":"大宏里","LIN":"10鄰","STREET":"民治路","SECT":" ","MAREA":" ","LANE":"２９巷","ALLEY":" ","HOUSE_NO":"２２之５號","E_COORD97":180145.45999999999,"N_COORD97":2578757.04,"ADDRESS":"民治路２９巷２２之５號","OBJECTID":373845},"geometry":{"x":180145.45999999996,"y":2578757.0399999991}},{"attributes":{"ID":373856,"DIS_CODE":0,"TOWNNAME":"新營區","LI":"王公里","LIN":"10鄰","STREET":"民族路","SECT":" ","MAREA":" ","LANE":"１０６巷","ALLEY":" ","HOUSE_NO":"１８號","E_COORD97":180409.60000000001,"N_COORD97":2579138.9100000001,"ADDRESS":"民族路１０６巷１８號","OBJECTID":373846},"geometry":{"x":180409.60000000056,"y":2579138.9099999983}},{"attributes":{"ID":373857,"DIS_CODE":0,"TOWNNAME":"新營區","LI":"王公里","LIN":"10鄰","STREET":"民族路","SECT":" ","MAREA":" ","LANE":"１０２巷","ALLEY":" ","HOUSE_NO":"１６號","E_COORD97":180357.35999999999,"N_COORD97":2579124.75,"ADDRESS":"民族路１０２巷１６號","OBJECTID":373847},"geometry":{"x":180357.3600000022,"y":2579124.7500000019}},{"attributes":{"ID":373858,"DIS_CODE":0,"TOWNNAME":"新營區","LI":"新東里","LIN":"10鄰","STREET":"東仁街","SECT":" ","MAREA":" ","LANE":"４２巷","ALLEY":" ","HOUSE_NO":"１７號","E_COORD97":181336.45999999999,"N_COORD97":2579644.1099999999,"ADDRESS":"東仁街４２巷１７號","OBJECTID":373848},"geometry":{"x":181336.46000000089,"y":2579644.1099999994}},{"attributes":{"ID":373859,"DIS_CODE":0,"TOWNNAME":"新營區","LI":"新南里","LIN":"10鄰","STREET":"新北五街","SECT":" ","MAREA":" ","LANE":"１４３巷","ALLEY":" ","HOUSE_NO":"２１號","E_COORD97":178505.97,"N_COORD97":2579091.5,"ADDRESS":"新北五街１４３巷２１號","OBJECTID":373849},"geometry":{"x":178505.96999999974,"y":2579091.5000000019}},{"attributes":{"ID":373860,"DIS_CODE":0,"TOWNNAME":"新營區","LI":"新東里","LIN":"10鄰","STREET":"東仁街","SECT":" ","MAREA":" ","LANE":"８２巷","ALLEY":" ","HOUSE_NO":"１４號","E_COORD97":181359.35999999999,"N_COORD97":2579708.1299999999,"ADDRESS":"東仁街８２巷１４號","OBJECTID":373850},"geometry":{"x":181359.36000000127,"y":2579708.129999999}},{"attributes":{"ID":373861,"DIS_CODE":0,"TOWNNAME":"新營區","LI":"新東里","LIN":"10鄰","STREET":"東仁街","SECT":" ","MAREA":" ","LANE":"８２巷","ALLEY":" ","HOUSE_NO":"１８號","E_COORD97":181366.5,"N_COORD97":2579704.77,"ADDRESS":"東仁街８２巷１８號","OBJECTID":373851},"geometry":{"x":181366.50000000093,"y":2579704.7699999996}},{"attributes":{"ID":373862,"DIS_CODE":0,"TOWNNAME":"新營區","LI":"新東里","LIN":"10鄰","STREET":"東昌街","SECT":" ","MAREA":" ","LANE":"５６巷","ALLEY":" ","HOUSE_NO":"２６號","E_COORD97":181349.41,"N_COORD97":2579505.3799999999,"ADDRESS":"東昌街５６巷２６號","OBJECTID":373852},"geometry":{"x":181349.41000000015,"y":2579505.3800000008}},{"attributes":{"ID":373863,"DIS_CODE":0,"TOWNNAME":"新營區","LI":"大宏里","LIN":"10鄰","STREET":"民治路","SECT":" ","MAREA":" ","LANE":"２９巷","ALLEY":" ","HOUSE_NO":"１號","E_COORD97":180185.01999999999,"N_COORD97":2578846.4900000002,"ADDRESS":"民治路２９巷１號","OBJECTID":373853},"geometry":{"x":180185.01999999955,"y":2578846.4900000002}},{"attributes":{"ID":373864,"DIS_CODE":0,"TOWNNAME":"新營區","LI":"興安里","LIN":"10鄰","STREET":"新進路","SECT":" ","MAREA":" ","LANE":"３４５巷","ALLEY":" ","HOUSE_NO":"１１號","E_COORD97":179891.45000000001,"N_COORD97":2577717.1699999999,"ADDRESS":"新進路３４５巷１１號","OBJECTID":373854},"geometry":{"x":179891.45000000019,"y":2577717.1700000018}},{"attributes":{"ID":373865,"DIS_CODE":0,"TOWNNAME":"新營區","LI":"新東里","LIN":"10鄰","STREET":"東仁街","SECT":" ","MAREA":" ","LANE":"４２巷","ALLEY":" ","HOUSE_NO":"５２號","E_COORD97":181369.19,"N_COORD97":2579617.2799999998,"ADDRESS":"東仁街４２巷５２號","OBJECTID":373855},"geometry":{"x":181369.19000000134,"y":2579617.2800000031}},{"attributes":{"ID":373866,"DIS_CODE":0,"TOWNNAME":"新營區","LI":"新東里","LIN":"10鄰","STREET":"東昌街","SECT":" ","MAREA":" ","LANE":"５６巷","ALLEY":" ","HOUSE_NO":"１號","E_COORD97":181378.64999999999,"N_COORD97":2579548.6699999999,"ADDRESS":"東昌街５６巷１號","OBJECTID":373856},"geometry":{"x":181378.65000000037,"y":2579548.6700000018}},{"attributes":{"ID":373867,"DIS_CODE":0,"TOWNNAME":"新營區","LI":"大宏里","LIN":"10鄰","STREET":"民治路","SECT":" ","MAREA":" ","LANE":"２９巷","ALLEY":" ","HOUSE_NO":"５號","E_COORD97":180185.98999999999,"N_COORD97":2578832.0899999999,"ADDRESS":"民治路２９巷５號","OBJECTID":373857},"geometry":{"x":180185.99000000022,"y":2578832.0899999999}},{"attributes":{"ID":373868,"DIS_CODE":0,"TOWNNAME":"新營區","LI":"興業里","LIN":"10鄰","STREET":"公誠街","SECT":" ","MAREA":" ","LANE":"６巷","ALLEY":" ","HOUSE_NO":"３７號","E_COORD97":180162.47,"N_COORD97":2578010.7000000002,"ADDRESS":"公誠街６巷３７號","OBJECTID":373858},"geometry":{"x":180162.46999999974,"y":2578010.700000003}},{"attributes":{"ID":373869,"DIS_CODE":0,"TOWNNAME":"新營區","LI":"南紙里","LIN":"10鄰","STREET":"南紙街","SECT":" ","MAREA":" ","LANE":"８２巷","ALLEY":" ","HOUSE_NO":"１２號","E_COORD97":177718.16,"N_COORD97":2577590.29,"ADDRESS":"南紙街８２巷１２號","OBJECTID":373859},"geometry":{"x":177718.16000000015,"y":2577590.290000001}},{"attributes":{"ID":373870,"DIS_CODE":0,"TOWNNAME":"新營區","LI":"嘉芳里","LIN":"10鄰","STREET":"嘉芳街","SECT":" ","MAREA":" ","LANE":"２５巷","ALLEY":" ","HOUSE_NO":"４３號","E_COORD97":177037.41,"N_COORD97":2578509.4900000002,"ADDRESS":"嘉芳街２５巷４３號","OBJECTID":373860},"geometry":{"x":177037.40999999922,"y":2578509.4900000021}},{"attributes":{"ID":373871,"DIS_CODE":0,"TOWNNAME":"安平區","LI":"華平里","LIN":"10鄰","STREET":"怡平路","SECT":" ","MAREA":" ","LANE":"４４２巷","ALLEY":" ","HOUSE_NO":"２３號","E_COORD97":165287.34,"N_COORD97":2543891.0800000001,"ADDRESS":"怡平路４４２巷２３號","OBJECTID":373861},"geometry":{"x":165287.34000000078,"y":2543891.0800000001}},{"attributes":{"ID":373872,"DIS_CODE":0,"TOWNNAME":"安平區","LI":"華平里","LIN":"10鄰","STREET":"怡平路","SECT":" ","MAREA":" ","LANE":"４４２巷","ALLEY":" ","HOUSE_NO":"２５號","E_COORD97":165288.01000000001,"N_COORD97":2543894.6000000001,"ADDRESS":"怡平路４４２巷２５號","OBJECTID":373862},"geometry":{"x":165288.00999999978,"y":2543894.6000000034}},{"attributes":{"ID":373873,"DIS_CODE":0,"TOWNNAME":"安平區","LI":"華平里","LIN":"10鄰","STREET":"怡平路","SECT":" ","MAREA":" ","LANE":"４４２巷","ALLEY":" ","HOUSE_NO":"２７號","E_COORD97":165288.17999999999,"N_COORD97":2543898.2799999998,"ADDRESS":"怡平路４４２巷２７號","OBJECTID":373863},"geometry":{"x":165288.18000000063,"y":2543898.2799999993}},{"attributes":{"ID":373874,"DIS_CODE":0,"TOWNNAME":"安平區","LI":"華平里","LIN":"10鄰","STREET":"怡平路","SECT":" ","MAREA":" ","LANE":"４４２巷","ALLEY":" ","HOUSE_NO":"２９號","E_COORD97":165289.35999999999,"N_COORD97":2543903.3100000001,"ADDRESS":"怡平路４４２巷２９號","OBJECTID":373864},"geometry":{"x":165289.36000000127,"y":2543903.3100000005}},{"attributes":{"ID":373875,"DIS_CODE":0,"TOWNNAME":"安平區","LI":"華平里","LIN":"10鄰","STREET":"怡平路","SECT":" ","MAREA":" ","LANE":"４４２巷","ALLEY":" ","HOUSE_NO":"３１號","E_COORD97":165289.35999999999,"N_COORD97":2543906.8199999998,"ADDRESS":"怡平路４４２巷３１號","OBJECTID":373865},"geometry":{"x":165289.36000000127,"y":2543906.8200000003}},{"attributes":{"ID":373876,"DIS_CODE":0,"TOWNNAME":"安平區","LI":"華平里","LIN":"10鄰","STREET":"怡平路","SECT":" ","MAREA":" ","LANE":"４４２巷","ALLEY":" ","HOUSE_NO":"３３號","E_COORD97":165290.03,"N_COORD97":2543910.6699999999,"ADDRESS":"怡平路４４２巷３３號","OBJECTID":373866},"geometry":{"x":165290.03000000026,"y":2543910.6699999999}},{"attributes":{"ID":373877,"DIS_CODE":0,"TOWNNAME":"安平區","LI":"華平里","LIN":"10鄰","STREET":"怡平路","SECT":" ","MAREA":" ","LANE":"４４２巷","ALLEY":" ","HOUSE_NO":"３５號","E_COORD97":165290.35999999999,"N_COORD97":2543915.0299999998,"ADDRESS":"怡平路４４２巷３５號","OBJECTID":373867},"geometry":{"x":165290.3600000022,"y":2543915.0300000031}},{"attributes":{"ID":373878,"DIS_CODE":0,"TOWNNAME":"安平區","LI":"華平里","LIN":"10鄰","STREET":"怡平路","SECT":" ","MAREA":" ","LANE":"４４２巷","ALLEY":" ","HOUSE_NO":"３７號","E_COORD97":165291.20000000001,"N_COORD97":2543918.54,"ADDRESS":"怡平路４４２巷３７號","OBJECTID":373868},"geometry":{"x":165291.19999999925,"y":2543918.540000001}},{"attributes":{"ID":373879,"DIS_CODE":0,"TOWNNAME":"安平區","LI":"華平里","LIN":"10鄰","STREET":"怡平路","SECT":" ","MAREA":" ","LANE":"４４２巷","ALLEY":" ","HOUSE_NO":"３９號","E_COORD97":165291.20000000001,"N_COORD97":2543922.5600000001,"ADDRESS":"怡平路４４２巷３９號","OBJECTID":373869},"geometry":{"x":165291.19999999925,"y":2543922.5600000042}},{"attributes":{"ID":373880,"DIS_CODE":0,"TOWNNAME":"安平區","LI":"華平里","LIN":"10鄰","STREET":"怡平路","SECT":" ","MAREA":" ","LANE":"４４２巷","ALLEY":" ","HOUSE_NO":"４１號","E_COORD97":165292.04000000001,"N_COORD97":2543926.1200000001,"ADDRESS":"怡平路４４２巷４１號","OBJECTID":373870},"geometry":{"x":165292.04000000004,"y":2543926.1200000048}},{"attributes":{"ID":373881,"DIS_CODE":0,"TOWNNAME":"安平區","LI":"金城里","LIN":"10鄰","STREET":"同平路","SECT":" ","MAREA":" ","LANE":"１５６巷","ALLEY":" ","HOUSE_NO":"４號","E_COORD97":163119.51999999999,"N_COORD97":2544022.2000000002,"ADDRESS":"同平路１５６巷４號","OBJECTID":373871},"geometry":{"x":163119.51999999955,"y":2544022.200000003}},{"attributes":{"ID":373882,"DIS_CODE":0,"TOWNNAME":"安平區","LI":"金城里","LIN":"10鄰","STREET":"同平路","SECT":" ","MAREA":" ","LANE":"１５６巷","ALLEY":" ","HOUSE_NO":"６號","E_COORD97":163111.91,"N_COORD97":2544017.1299999999,"ADDRESS":"同平路１５６巷６號","OBJECTID":373872},"geometry":{"x":163111.91000000108,"y":2544017.1300000008}},{"attributes":{"ID":373883,"DIS_CODE":0,"TOWNNAME":"安平區","LI":"金城里","LIN":"10鄰","STREET":"同平路","SECT":" ","MAREA":" ","LANE":"１５６巷","ALLEY":" ","HOUSE_NO":"８號","E_COORD97":163104.14999999999,"N_COORD97":2544014.1200000001,"ADDRESS":"同平路１５６巷８號","OBJECTID":373873},"geometry":{"x":163104.1500000013,"y":2544014.1199999992}},{"attributes":{"ID":373884,"DIS_CODE":0,"TOWNNAME":"安平區","LI":"金城里","LIN":"10鄰","STREET":"同平路","SECT":" ","MAREA":" ","LANE":"１５６巷","ALLEY":" ","HOUSE_NO":"１２號","E_COORD97":163093.35000000001,"N_COORD97":2544013.79,"ADDRESS":"同平路１５６巷１２號","OBJECTID":373874},"geometry":{"x":163093.35000000056,"y":2544013.7899999991}},{"attributes":{"ID":373885,"DIS_CODE":0,"TOWNNAME":"安平區","LI":"金城里","LIN":"10鄰","STREET":"同平路","SECT":" ","MAREA":" ","LANE":"１５６巷","ALLEY":" ","HOUSE_NO":"１４號","E_COORD97":163086.22,"N_COORD97":2544013,"ADDRESS":"同平路１５６巷１４號","OBJECTID":373875},"geometry":{"x":163086.21999999974,"y":2544013}},{"attributes":{"ID":373886,"DIS_CODE":0,"TOWNNAME":"安平區","LI":"金城里","LIN":"10鄰","STREET":"同平路","SECT":" ","MAREA":" ","LANE":"１５６巷","ALLEY":" ","HOUSE_NO":"１６號","E_COORD97":163080.51999999999,"N_COORD97":2544012.6800000002,"ADDRESS":"同平路１５６巷１６號","OBJECTID":373876},"geometry":{"x":163080.51999999955,"y":2544012.6800000034}},{"attributes":{"ID":373887,"DIS_CODE":0,"TOWNNAME":"安平區","LI":"金城里","LIN":"10鄰","STREET":"同平路","SECT":" ","MAREA":" ","LANE":"１５６巷","ALLEY":" ","HOUSE_NO":"１８號","E_COORD97":163074.48999999999,"N_COORD97":2544012.21,"ADDRESS":"同平路１５６巷１８號","OBJECTID":373877},"geometry":{"x":163074.49000000115,"y":2544012.2100000009}},{"attributes":{"ID":373888,"DIS_CODE":0,"TOWNNAME":"安平區","LI":"金城里","LIN":"10鄰","STREET":"同平路","SECT":" ","MAREA":" ","LANE":"１５６巷","ALLEY":" ","HOUSE_NO":"１８號之１","E_COORD97":163069.89999999999,"N_COORD97":2544011.73,"ADDRESS":"同平路１５６巷１８號之１","OBJECTID":373878},"geometry":{"x":163069.9000000013,"y":2544011.7300000004}},{"attributes":{"ID":373889,"DIS_CODE":0,"TOWNNAME":"安平區","LI":"金城里","LIN":"10鄰","STREET":"同平路","SECT":" ","MAREA":" ","LANE":"１５６巷","ALLEY":" ","HOUSE_NO":"２２號","E_COORD97":163062.29000000001,"N_COORD97":2544014.27,"ADDRESS":"同平路１５６巷２２號","OBJECTID":373879},"geometry":{"x":163062.29000000004,"y":2544014.2699999996}},{"attributes":{"ID":373890,"DIS_CODE":0,"TOWNNAME":"安平區","LI":"金城里","LIN":"10鄰","STREET":"同平路","SECT":" ","MAREA":" ","LANE":"１５６巷","ALLEY":" ","HOUSE_NO":"２６號","E_COORD97":163040.5,"N_COORD97":2544007.3599999999,"ADDRESS":"同平路１５６巷２６號","OBJECTID":373880},"geometry":{"x":163040.5,"y":2544007.3599999975}},{"attributes":{"ID":373891,"DIS_CODE":0,"TOWNNAME":"安平區","LI":"金城里","LIN":"10鄰","STREET":"同平路","SECT":" ","MAREA":" ","LANE":"１５６巷","ALLEY":" ","HOUSE_NO":"２８號","E_COORD97":163034.5,"N_COORD97":2544006.25,"ADDRESS":"同平路１５６巷２８號","OBJECTID":373881},"geometry":{"x":163034.50000000186,"y":2544006.2500000019}},{"attributes":{"ID":373892,"DIS_CODE":0,"TOWNNAME":"安平區","LI":"金城里","LIN":"10鄰","STREET":"同平路","SECT":" ","MAREA":" ","LANE":"１５６巷","ALLEY":" ","HOUSE_NO":"３０號","E_COORD97":163028.79000000001,"N_COORD97":2544003.8700000001,"ADDRESS":"同平路１５６巷３０號","OBJECTID":373882},"geometry":{"x":163028.79000000004,"y":2544003.8700000029}},{"attributes":{"ID":373893,"DIS_CODE":0,"TOWNNAME":"安平區","LI":"金城里","LIN":"10鄰","STREET":"同平路","SECT":" ","MAREA":" ","LANE":"１５６巷","ALLEY":" ","HOUSE_NO":"３４號","E_COORD97":163012.63,"N_COORD97":2544003.0800000001,"ADDRESS":"同平路１５６巷３４號","OBJECTID":373883},"geometry":{"x":163012.62999999989,"y":2544003.0800000001}},{"attributes":{"ID":373894,"DIS_CODE":0,"TOWNNAME":"安平區","LI":"金城里","LIN":"10鄰","STREET":"同平路","SECT":" ","MAREA":" ","LANE":"１５６巷","ALLEY":" ","HOUSE_NO":"３６號","E_COORD97":163001.06,"N_COORD97":2543997.8599999999,"ADDRESS":"同平路１５６巷３６號","OBJECTID":373884},"geometry":{"x":163001.05999999959,"y":2543997.8600000013}},{"attributes":{"ID":373895,"DIS_CODE":0,"TOWNNAME":"安平區","LI":"金城里","LIN":"10鄰","STREET":"同平路","SECT":" ","MAREA":" ","LANE":"１５６巷","ALLEY":" ","HOUSE_NO":"３８號","E_COORD97":162995.03,"N_COORD97":2543994.3700000001,"ADDRESS":"同平路１５６巷３８號","OBJECTID":373885},"geometry":{"x":162995.03000000026,"y":2543994.370000001}},{"attributes":{"ID":373896,"DIS_CODE":0,"TOWNNAME":"安平區","LI":"金城里","LIN":"10鄰","STREET":"同平路","SECT":" ","MAREA":" ","LANE":"１５６巷","ALLEY":" ","HOUSE_NO":"４０號","E_COORD97":162990.12,"N_COORD97":2543993.5800000001,"ADDRESS":"同平路１５６巷４０號","OBJECTID":373886},"geometry":{"x":162990.12000000104,"y":2543993.5800000019}},{"attributes":{"ID":373897,"DIS_CODE":0,"TOWNNAME":"安平區","LI":"金城里","LIN":"10鄰","STREET":"同平路","SECT":" ","MAREA":" ","LANE":"１５６巷","ALLEY":" ","HOUSE_NO":"４２號","E_COORD97":162980.92999999999,"N_COORD97":2543995.1699999999,"ADDRESS":"同平路１５６巷４２號","OBJECTID":373887},"geometry":{"x":162980.93000000063,"y":2543995.1699999999}},{"attributes":{"ID":373898,"DIS_CODE":0,"TOWNNAME":"安平區","LI":"金城里","LIN":"10鄰","STREET":"同平路","SECT":" ","MAREA":" ","LANE":"１５６巷","ALLEY":" ","HOUSE_NO":"４４號","E_COORD97":162973.32000000001,"N_COORD97":2543992.1600000001,"ADDRESS":"同平路１５６巷４４號","OBJECTID":373888},"geometry":{"x":162973.32000000216,"y":2543992.1600000001}},{"attributes":{"ID":373899,"DIS_CODE":0,"TOWNNAME":"安平區","LI":"金城里","LIN":"10鄰","STREET":"同平路","SECT":" ","MAREA":" ","LANE":"１５６巷","ALLEY":" ","HOUSE_NO":"４６號","E_COORD97":162963.97,"N_COORD97":2543995.0099999998,"ADDRESS":"同平路１５６巷４６號","OBJECTID":373889},"geometry":{"x":162963.97000000067,"y":2543995.0100000016}},{"attributes":{"ID":373900,"DIS_CODE":0,"TOWNNAME":"安平區","LI":"金城里","LIN":"10鄰","STREET":"同平路","SECT":" ","MAREA":" ","LANE":"１５６巷","ALLEY":" ","HOUSE_NO":"４８號","E_COORD97":162963.17999999999,"N_COORD97":2543985.0299999998,"ADDRESS":"同平路１５６巷４８號","OBJECTID":373890},"geometry":{"x":162963.1799999997,"y":2543985.0299999993}},{"attributes":{"ID":373901,"DIS_CODE":0,"TOWNNAME":"安平區","LI":"國平里","LIN":"10鄰","STREET":"建平一街","SECT":" ","MAREA":" ","LANE":"２３８巷","ALLEY":" ","HOUSE_NO":"１３號","E_COORD97":165393.97,"N_COORD97":2542852.6699999999,"ADDRESS":"建平一街２３８巷１３號","OBJECTID":373891},"geometry":{"x":165393.96999999974,"y":2542852.6699999999}},{"attributes":{"ID":373902,"DIS_CODE":0,"TOWNNAME":"安平區","LI":"國平里","LIN":"10鄰","STREET":"建平一街","SECT":" ","MAREA":" ","LANE":"２３８巷","ALLEY":" ","HOUSE_NO":"２３號","E_COORD97":165395.14999999999,"N_COORD97":2542879.5899999999,"ADDRESS":"建平一街２３８巷２３號","OBJECTID":373892},"geometry":{"x":165395.14999999944,"y":2542879.5899999999}},{"attributes":{"ID":373903,"DIS_CODE":0,"TOWNNAME":"安平區","LI":"國平里","LIN":"10鄰","STREET":"建平一街","SECT":" ","MAREA":" ","LANE":"２３８巷","ALLEY":" ","HOUSE_NO":"２５號","E_COORD97":165397.14000000001,"N_COORD97":2542888.4100000001,"ADDRESS":"建平一街２３８巷２５號","OBJECTID":373893},"geometry":{"x":165397.13999999966,"y":2542888.4100000001}},{"attributes":{"ID":373904,"DIS_CODE":0,"TOWNNAME":"南區","LI":"永寧里","LIN":"10鄰","STREET":"灣裡路","SECT":" ","MAREA":" ","LANE":"２６６巷","ALLEY":" ","HOUSE_NO":"４號","E_COORD97":166070.59,"N_COORD97":2536437.3100000001,"ADDRESS":"灣裡路２６６巷４號","OBJECTID":373894},"geometry":{"x":166070.59000000078,"y":2536437.3100000005}},{"attributes":{"ID":373905,"DIS_CODE":0,"TOWNNAME":"南區","LI":"永寧里","LIN":"10鄰","STREET":"灣裡路","SECT":" ","MAREA":" ","LANE":"２６６巷","ALLEY":" ","HOUSE_NO":"６號","E_COORD97":166057.62,"N_COORD97":2536431.46,"ADDRESS":"灣裡路２６６巷６號","OBJECTID":373895},"geometry":{"x":166057.62000000011,"y":2536431.4600000028}},{"attributes":{"ID":373906,"DIS_CODE":0,"TOWNNAME":"南區","LI":"永寧里","LIN":"10鄰","STREET":"灣裡路","SECT":" ","MAREA":" ","LANE":"２６６巷","ALLEY":" ","HOUSE_NO":"６號之１","E_COORD97":166056.09,"N_COORD97":2536441.1200000001,"ADDRESS":"灣裡路２６６巷６號之１","OBJECTID":373896},"geometry":{"x":166056.08999999985,"y":2536441.1200000029}},{"attributes":{"ID":373907,"DIS_CODE":0,"TOWNNAME":"南區","LI":"永寧里","LIN":"10鄰","STREET":"灣裡路","SECT":" ","MAREA":" ","LANE":"２３８巷","ALLEY":" ","HOUSE_NO":"１號","E_COORD97":166015.79999999999,"N_COORD97":2536468.3599999999,"ADDRESS":"灣裡路２３８巷１號","OBJECTID":373897},"geometry":{"x":166015.80000000168,"y":2536468.3600000013}},{"attributes":{"ID":373908,"DIS_CODE":0,"TOWNNAME":"南區","LI":"永寧里","LIN":"10鄰","STREET":"灣裡路","SECT":" ","MAREA":" ","LANE":"２３８巷","ALLEY":" ","HOUSE_NO":"７號","E_COORD97":166003.26999999999,"N_COORD97":2536466.5099999998,"ADDRESS":"灣裡路２３８巷７號","OBJECTID":373898},"geometry":{"x":166003.26999999955,"y":2536466.5099999998}},{"attributes":{"ID":373909,"DIS_CODE":0,"TOWNNAME":"南區","LI":"永寧里","LIN":"10鄰","STREET":"灣裡路","SECT":" ","MAREA":" ","LANE":"２４６巷","ALLEY":" ","HOUSE_NO":"３號","E_COORD97":166069.57999999999,"N_COORD97":2536463.6099999999,"ADDRESS":"灣裡路２４６巷３號","OBJECTID":373899},"geometry":{"x":166069.58000000007,"y":2536463.6100000013}},{"attributes":{"ID":373910,"DIS_CODE":0,"TOWNNAME":"南區","LI":"永寧里","LIN":"10鄰","STREET":"灣裡路","SECT":" ","MAREA":" ","LANE":"２４６巷","ALLEY":" ","HOUSE_NO":"４號","E_COORD97":166048.72,"N_COORD97":2536477.5800000001,"ADDRESS":"灣裡路２４６巷４號","OBJECTID":373900},"geometry":{"x":166048.72000000067,"y":2536477.5800000019}},{"attributes":{"ID":373911,"DIS_CODE":0,"TOWNNAME":"南區","LI":"永寧里","LIN":"10鄰","STREET":"灣裡路","SECT":" ","MAREA":" ","LANE":"２４６巷","ALLEY":" ","HOUSE_NO":"５號","E_COORD97":166066.26999999999,"N_COORD97":2536462.0800000001,"ADDRESS":"灣裡路２４６巷５號","OBJECTID":373901},"geometry":{"x":166066.26999999955,"y":2536462.0800000001}},{"attributes":{"ID":373912,"DIS_CODE":0,"TOWNNAME":"南區","LI":"荔宅里","LIN":"10鄰","STREET":"大成路","SECT":"一段","MAREA":" ","LANE":"１９３巷","ALLEY":" ","HOUSE_NO":"１２號","E_COORD97":167753.88,"N_COORD97":2541705.0099999998,"ADDRESS":"大成路一段１９３巷１２號","OBJECTID":373902},"geometry":{"x":167753.87999999989,"y":2541705.0100000035}},{"attributes":{"ID":373913,"DIS_CODE":0,"TOWNNAME":"南區","LI":"荔宅里","LIN":"10鄰","STREET":"大成路","SECT":"一段","MAREA":" ","LANE":"１９３巷","ALLEY":" ","HOUSE_NO":"１４號","E_COORD97":167753.88,"N_COORD97":2541700.3799999999,"ADDRESS":"大成路一段１９３巷１４號","OBJECTID":373903},"geometry":{"x":167753.87999999989,"y":2541700.379999999}},{"attributes":{"ID":373914,"DIS_CODE":0,"TOWNNAME":"南區","LI":"喜東里","LIN":"12鄰","STREET":"明興路","SECT":" ","MAREA":" ","LANE":"６５５巷","ALLEY":" ","HOUSE_NO":"１３號","E_COORD97":166058.70000000001,"N_COORD97":2537746.9900000002,"ADDRESS":"明興路６５５巷１３號","OBJECTID":373904},"geometry":{"x":166058.70000000019,"y":2537746.9900000021}},{"attributes":{"ID":373915,"DIS_CODE":0,"TOWNNAME":"南區","LI":"喜東里","LIN":"12鄰","STREET":"明興路","SECT":" ","MAREA":" ","LANE":"６５５巷","ALLEY":" ","HOUSE_NO":"１５號","E_COORD97":166062.22,"N_COORD97":2537744.7000000002,"ADDRESS":"明興路６５５巷１５號","OBJECTID":373905},"geometry":{"x":166062.22000000067,"y":2537744.7000000011}},{"attributes":{"ID":373916,"DIS_CODE":0,"TOWNNAME":"南區","LI":"喜東里","LIN":"12鄰","STREET":"明興路","SECT":" ","MAREA":" ","LANE":"６５５巷","ALLEY":" ","HOUSE_NO":"１７號","E_COORD97":166067.39000000001,"N_COORD97":2537741.8999999999,"ADDRESS":"明興路６５５巷１７號","OBJECTID":373906},"geometry":{"x":166067.38999999966,"y":2537741.9000000004}},{"attributes":{"ID":373917,"DIS_CODE":0,"TOWNNAME":"南區","LI":"鯤鯓里","LIN":"10鄰","STREET":"鯤鯓路","SECT":" ","MAREA":" ","LANE":"１０１巷","ALLEY":" ","HOUSE_NO":"１２號","E_COORD97":165088.20000000001,"N_COORD97":2539955.1800000002,"ADDRESS":"鯤鯓路１０１巷１２號","OBJECTID":373907},"geometry":{"x":165088.20000000112,"y":2539955.1800000016}},{"attributes":{"ID":373918,"DIS_CODE":0,"TOWNNAME":"南區","LI":"鯤鯓里","LIN":"10鄰","STREET":"鯤鯓路","SECT":" ","MAREA":" ","LANE":"１０１巷","ALLEY":" ","HOUSE_NO":"１８號","E_COORD97":165100.51999999999,"N_COORD97":2539933.9900000002,"ADDRESS":"鯤鯓路１０１巷１８號","OBJECTID":373908},"geometry":{"x":165100.52000000048,"y":2539933.9900000021}},{"attributes":{"ID":373919,"DIS_CODE":0,"TOWNNAME":"南區","LI":"鯤鯓里","LIN":"10鄰","STREET":"鯤鯓路","SECT":" ","MAREA":" ","LANE":"１０１巷","ALLEY":" ","HOUSE_NO":"２號","E_COORD97":165080.23000000001,"N_COORD97":2539974.3700000001,"ADDRESS":"鯤鯓路１０１巷２號","OBJECTID":373909},"geometry":{"x":165080.23000000138,"y":2539974.370000001}},{"attributes":{"ID":373920,"DIS_CODE":0,"TOWNNAME":"南區","LI":"鯤鯓里","LIN":"10鄰","STREET":"鯤鯓路","SECT":" ","MAREA":" ","LANE":"１０１巷","ALLEY":" ","HOUSE_NO":"３２號","E_COORD97":165118.16,"N_COORD97":2539878.4900000002,"ADDRESS":"鯤鯓路１０１巷３２號","OBJECTID":373910},"geometry":{"x":165118.16000000015,"y":2539878.4900000021}},{"attributes":{"ID":373921,"DIS_CODE":0,"TOWNNAME":"南區","LI":"鯤鯓里","LIN":"10鄰","STREET":"鯤鯓路","SECT":" ","MAREA":" ","LANE":"１０１巷","ALLEY":" ","HOUSE_NO":"３８號","E_COORD97":165125.41,"N_COORD97":2539860.3199999998,"ADDRESS":"鯤鯓路１０１巷３８號","OBJECTID":373911},"geometry":{"x":165125.41000000201,"y":2539860.3200000022}},{"attributes":{"ID":373922,"DIS_CODE":0,"TOWNNAME":"南區","LI":"鯤鯓里","LIN":"10鄰","STREET":"鯤鯓路","SECT":" ","MAREA":" ","LANE":"１０１巷","ALLEY":" ","HOUSE_NO":"４號","E_COORD97":165082.51999999999,"N_COORD97":2539970.02,"ADDRESS":"鯤鯓路１０１巷４號","OBJECTID":373912},"geometry":{"x":165082.52000000048,"y":2539970.0200000014}},{"attributes":{"ID":373923,"DIS_CODE":0,"TOWNNAME":"南區","LI":"鯤鯓里","LIN":"10鄰","STREET":"鯤鯓路","SECT":" ","MAREA":" ","LANE":"１０１巷","ALLEY":" ","HOUSE_NO":"６號","E_COORD97":165083.85000000001,"N_COORD97":2539966.1600000001,"ADDRESS":"鯤鯓路１０１巷６號","OBJECTID":373913},"geometry":{"x":165083.84999999963,"y":2539966.160000002}},{"attributes":{"ID":373924,"DIS_CODE":0,"TOWNNAME":"南區","LI":"鯤鯓里","LIN":"10鄰","STREET":"鯤鯓路","SECT":" ","MAREA":" ","LANE":"１０１巷","ALLEY":" ","HOUSE_NO":"８號","E_COORD97":165085.17999999999,"N_COORD97":2539963.1400000001,"ADDRESS":"鯤鯓路１０１巷８號","OBJECTID":373914},"geometry":{"x":165085.1799999997,"y":2539963.1400000025}},{"attributes":{"ID":373925,"DIS_CODE":0,"TOWNNAME":"北區","LI":"文成里","LIN":"10鄰","STREET":"文賢路","SECT":" ","MAREA":" ","LANE":"４８０巷","ALLEY":" ","HOUSE_NO":"２９號","E_COORD97":167442.48999999999,"N_COORD97":2545193.1800000002,"ADDRESS":"文賢路４８０巷２９號","OBJECTID":373915},"geometry":{"x":167442.49000000115,"y":2545193.1800000016}},{"attributes":{"ID":373926,"DIS_CODE":0,"TOWNNAME":"南區","LI":"興農里","LIN":"4鄰","STREET":"灣裡路","SECT":" ","MAREA":" ","LANE":"２１１巷","ALLEY":" ","HOUSE_NO":"８０之５號","E_COORD97":166449.22,"N_COORD97":2536582.5299999998,"ADDRESS":"灣裡路２１１巷８０之５號","OBJECTID":373916},"geometry":{"x":166449.22000000067,"y":2536582.5300000012}},{"attributes":{"ID":373927,"DIS_CODE":0,"TOWNNAME":"南區","LI":"大林里","LIN":"9鄰","STREET":"大同路","SECT":"二段","MAREA":" ","LANE":"４８２巷","ALLEY":" ","HOUSE_NO":"１５２號","E_COORD97":169053.25,"N_COORD97":2541566.4300000002,"ADDRESS":"大同路二段４８２巷１５２號","OBJECTID":373917},"geometry":{"x":169053.25000000093,"y":2541566.4300000034}},{"attributes":{"ID":373928,"DIS_CODE":0,"TOWNNAME":"南區","LI":"省躬里","LIN":"5鄰","STREET":"灣裡路","SECT":" ","MAREA":" ","LANE":"８８巷","ALLEY":" ","HOUSE_NO":"３３號","E_COORD97":165858.89000000001,"N_COORD97":2536852.1899999999,"ADDRESS":"灣裡路８８巷３３號","OBJECTID":373918},"geometry":{"x":165858.88999999966,"y":2536852.1900000013}},{"attributes":{"ID":373929,"DIS_CODE":0,"TOWNNAME":"南區","LI":"佛壇里","LIN":"13鄰","STREET":"灣裡路","SECT":" ","MAREA":" ","LANE":"５１６巷","ALLEY":" ","HOUSE_NO":"２號","E_COORD97":166240,"N_COORD97":2535842.6099999999,"ADDRESS":"灣裡路５１６巷２號","OBJECTID":373919},"geometry":{"x":166239.99999999907,"y":2535842.6100000013}},{"attributes":{"ID":373930,"DIS_CODE":0,"TOWNNAME":"南區","LI":"喜東里","LIN":"7鄰","STREET":"喜樹路","SECT":" ","MAREA":" ","LANE":"１５１巷","ALLEY":" ","HOUSE_NO":"８號","E_COORD97":165827.89999999999,"N_COORD97":2537962.8700000001,"ADDRESS":"喜樹路１５１巷８號","OBJECTID":373920},"geometry":{"x":165827.9000000013,"y":2537962.870000001}},{"attributes":{"ID":373931,"DIS_CODE":0,"TOWNNAME":"南區","LI":"喜南里","LIN":"10鄰","STREET":"喜樹路","SECT":" ","MAREA":" ","LANE":"２８８巷","ALLEY":" ","HOUSE_NO":"２４號","E_COORD97":165645.17000000001,"N_COORD97":2537863.73,"ADDRESS":"喜樹路２８８巷２４號","OBJECTID":373921},"geometry":{"x":165645.16999999993,"y":2537863.7300000023}},{"attributes":{"ID":373932,"DIS_CODE":0,"TOWNNAME":"南區","LI":"喜南里","LIN":"10鄰","STREET":"喜樹路","SECT":" ","MAREA":" ","LANE":"２８８巷","ALLEY":" ","HOUSE_NO":"２６號","E_COORD97":165635.64999999999,"N_COORD97":2537861.04,"ADDRESS":"喜樹路２８８巷２６號","OBJECTID":373922},"geometry":{"x":165635.65000000037,"y":2537861.0399999991}},{"attributes":{"ID":373933,"DIS_CODE":0,"TOWNNAME":"南區","LI":"喜南里","LIN":"10鄰","STREET":"喜樹路","SECT":" ","MAREA":" ","LANE":"２８８巷","ALLEY":" ","HOUSE_NO":"３８號","E_COORD97":165624.76999999999,"N_COORD97":2537856.3599999999,"ADDRESS":"喜樹路２８８巷３８號","OBJECTID":373923},"geometry":{"x":165624.77000000048,"y":2537856.3599999994}},{"attributes":{"ID":373934,"DIS_CODE":0,"TOWNNAME":"南區","LI":"竹溪里","LIN":"4鄰","STREET":"體育路","SECT":" ","MAREA":" ","LANE":"４３巷","ALLEY":" ","HOUSE_NO":"１９號","E_COORD97":168775.42000000001,"N_COORD97":2542228.1400000001,"ADDRESS":"體育路４３巷１９號","OBJECTID":373924},"geometry":{"x":168775.42000000086,"y":2542228.1400000025}},{"attributes":{"ID":373935,"DIS_CODE":0,"TOWNNAME":"南區","LI":"竹溪里","LIN":"4鄰","STREET":"體育路","SECT":" ","MAREA":" ","LANE":"４３巷","ALLEY":" ","HOUSE_NO":"２１號","E_COORD97":168786.47,"N_COORD97":2542229.54,"ADDRESS":"體育路４３巷２１號","OBJECTID":373925},"geometry":{"x":168786.47000000067,"y":2542229.5400000028}},{"attributes":{"ID":373936,"DIS_CODE":0,"TOWNNAME":"南區","LI":"喜南里","LIN":"10鄰","STREET":"喜樹路","SECT":" ","MAREA":" ","LANE":"２８８巷","ALLEY":" ","HOUSE_NO":"１９號","E_COORD97":165631.29999999999,"N_COORD97":2537833.9100000001,"ADDRESS":"喜樹路２８８巷１９號","OBJECTID":373926},"geometry":{"x":165631.30000000075,"y":2537833.9100000001}},{"attributes":{"ID":373937,"DIS_CODE":0,"TOWNNAME":"南區","LI":"喜南里","LIN":"10鄰","STREET":"喜樹路","SECT":" ","MAREA":" ","LANE":"２８８巷","ALLEY":" ","HOUSE_NO":"２１號","E_COORD97":165618.20000000001,"N_COORD97":2537834.7999999998,"ADDRESS":"喜樹路２８８巷２１號","OBJECTID":373927},"geometry":{"x":165618.20000000019,"y":2537834.8000000007}},{"attributes":{"ID":373938,"DIS_CODE":0,"TOWNNAME":"南區","LI":"喜南里","LIN":"10鄰","STREET":"喜樹路","SECT":" ","MAREA":" ","LANE":"２８８巷","ALLEY":" ","HOUSE_NO":"２５號","E_COORD97":165631.72,"N_COORD97":2537824.1099999999,"ADDRESS":"喜樹路２８８巷２５號","OBJECTID":373928},"geometry":{"x":165631.72000000067,"y":2537824.1099999994}},{"attributes":{"ID":373939,"DIS_CODE":0,"TOWNNAME":"南區","LI":"喜南里","LIN":"10鄰","STREET":"喜樹路","SECT":" ","MAREA":" ","LANE":"２８８巷","ALLEY":" ","HOUSE_NO":"２７號","E_COORD97":165608.07999999999,"N_COORD97":2537836.4300000002,"ADDRESS":"喜樹路２８８巷２７號","OBJECTID":373929},"geometry":{"x":165608.08000000101,"y":2537836.4299999997}},{"attributes":{"ID":373940,"DIS_CODE":0,"TOWNNAME":"南區","LI":"喜南里","LIN":"10鄰","STREET":"喜樹路","SECT":" ","MAREA":" ","LANE":"２８８巷","ALLEY":" ","HOUSE_NO":"２９號","E_COORD97":165611.19,"N_COORD97":2537830.8500000001,"ADDRESS":"喜樹路２８８巷２９號","OBJECTID":373930},"geometry":{"x":165611.19000000041,"y":2537830.8500000034}},{"attributes":{"ID":373941,"DIS_CODE":0,"TOWNNAME":"南區","LI":"喜南里","LIN":"10鄰","STREET":"喜樹路","SECT":" ","MAREA":" ","LANE":"２８８巷","ALLEY":" ","HOUSE_NO":"３２號","E_COORD97":165638.14999999999,"N_COORD97":2537846.7200000002,"ADDRESS":"喜樹路２８８巷３２號","OBJECTID":373931},"geometry":{"x":165638.1500000013,"y":2537846.7200000025}},{"attributes":{"ID":373942,"DIS_CODE":0,"TOWNNAME":"南區","LI":"喜南里","LIN":"10鄰","STREET":"喜樹路","SECT":" ","MAREA":" ","LANE":"２８８巷","ALLEY":" ","HOUSE_NO":"３３號","E_COORD97":165596.09,"N_COORD97":2537830.8500000001,"ADDRESS":"喜樹路２８８巷３３號","OBJECTID":373932},"geometry":{"x":165596.08999999985,"y":2537830.8500000034}},{"attributes":{"ID":373943,"DIS_CODE":0,"TOWNNAME":"南區","LI":"喜南里","LIN":"10鄰","STREET":"喜樹路","SECT":" ","MAREA":" ","LANE":"２８８巷","ALLEY":" ","HOUSE_NO":"３４號","E_COORD97":165629.60999999999,"N_COORD97":2537841.0099999998,"ADDRESS":"喜樹路２８８巷３４號","OBJECTID":373933},"geometry":{"x":165629.61000000127,"y":2537841.0100000016}},{"attributes":{"ID":373944,"DIS_CODE":0,"TOWNNAME":"南區","LI":"喜南里","LIN":"10鄰","STREET":"喜樹路","SECT":" ","MAREA":" ","LANE":"２８８巷","ALLEY":" ","HOUSE_NO":"３６號","E_COORD97":165626.45999999999,"N_COORD97":2537847.54,"ADDRESS":"喜樹路２８８巷３６號","OBJECTID":373934},"geometry":{"x":165626.45999999996,"y":2537847.5399999991}},{"attributes":{"ID":373945,"DIS_CODE":0,"TOWNNAME":"北區","LI":"五福里","LIN":"10鄰","STREET":"西門路","SECT":"三段","MAREA":" ","LANE":"２４巷","ALLEY":" ","HOUSE_NO":"９號","E_COORD97":168202.5,"N_COORD97":2544531.4399999999,"ADDRESS":"西門路三段２４巷９號","OBJECTID":373935},"geometry":{"x":168202.5,"y":2544531.4399999995}},{"attributes":{"ID":373946,"DIS_CODE":0,"TOWNNAME":"北區","LI":"文成里","LIN":"10鄰","STREET":"文賢路","SECT":" ","MAREA":" ","LANE":"４８０巷","ALLEY":" ","HOUSE_NO":"１０號","E_COORD97":167378.64999999999,"N_COORD97":2545182.54,"ADDRESS":"文賢路４８０巷１０號","OBJECTID":373936},"geometry":{"x":167378.65000000224,"y":2545182.5400000028}},{"attributes":{"ID":373947,"DIS_CODE":0,"TOWNNAME":"北區","LI":"文成里","LIN":"10鄰","STREET":"文賢路","SECT":" ","MAREA":" ","LANE":"４８０巷","ALLEY":" ","HOUSE_NO":"１１號","E_COORD97":167397.79000000001,"N_COORD97":2545197,"ADDRESS":"文賢路４８０巷１１號","OBJECTID":373937},"geometry":{"x":167397.7900000019,"y":2545197}},{"attributes":{"ID":373948,"DIS_CODE":0,"TOWNNAME":"北區","LI":"文成里","LIN":"10鄰","STREET":"文賢路","SECT":" ","MAREA":" ","LANE":"４８０巷","ALLEY":" ","HOUSE_NO":"１９號","E_COORD97":167419.94,"N_COORD97":2545195.3900000001,"ADDRESS":"文賢路４８０巷１９號","OBJECTID":373938},"geometry":{"x":167419.94000000134,"y":2545195.3900000043}},{"attributes":{"ID":373949,"DIS_CODE":0,"TOWNNAME":"北區","LI":"文成里","LIN":"10鄰","STREET":"文賢路","SECT":" ","MAREA":" ","LANE":"４８０巷","ALLEY":" ","HOUSE_NO":"１號","E_COORD97":167365.76999999999,"N_COORD97":2545197.3999999999,"ADDRESS":"文賢路４８０巷１號","OBJECTID":373939},"geometry":{"x":167365.77000000048,"y":2545197.4000000004}},{"attributes":{"ID":373950,"DIS_CODE":0,"TOWNNAME":"北區","LI":"文成里","LIN":"10鄰","STREET":"文賢路","SECT":" ","MAREA":" ","LANE":"４８０巷","ALLEY":" ","HOUSE_NO":"１號之１","E_COORD97":167374.82999999999,"N_COORD97":2545198.2000000002,"ADDRESS":"文賢路４８０巷１號之１","OBJECTID":373940},"geometry":{"x":167374.83000000007,"y":2545198.1999999993}},{"attributes":{"ID":373951,"DIS_CODE":0,"TOWNNAME":"北區","LI":"文成里","LIN":"10鄰","STREET":"文賢路","SECT":" ","MAREA":" ","LANE":"４８０巷","ALLEY":" ","HOUSE_NO":"２０號","E_COORD97":167405.85999999999,"N_COORD97":2545182.54,"ADDRESS":"文賢路４８０巷２０號","OBJECTID":373941},"geometry":{"x":167405.86000000034,"y":2545182.5400000028}},{"attributes":{"ID":373952,"DIS_CODE":0,"TOWNNAME":"北區","LI":"文成里","LIN":"10鄰","STREET":"文賢路","SECT":" ","MAREA":" ","LANE":"４８０巷","ALLEY":" ","HOUSE_NO":"２１號","E_COORD97":167424.97,"N_COORD97":2545194.98,"ADDRESS":"文賢路４８０巷２１號","OBJECTID":373942},"geometry":{"x":167424.9700000016,"y":2545194.9800000023}},{"attributes":{"ID":373953,"DIS_CODE":0,"TOWNNAME":"北區","LI":"文成里","LIN":"10鄰","STREET":"文賢路","SECT":" ","MAREA":" ","LANE":"４８０巷","ALLEY":" ","HOUSE_NO":"２２號","E_COORD97":167413.70999999999,"N_COORD97":2545182.1299999999,"ADDRESS":"文賢路４８０巷２２號","OBJECTID":373943},"geometry":{"x":167413.71000000089,"y":2545182.1300000008}},{"attributes":{"ID":373954,"DIS_CODE":0,"TOWNNAME":"北區","LI":"文成里","LIN":"10鄰","STREET":"文賢路","SECT":" ","MAREA":" ","LANE":"４８０巷","ALLEY":" ","HOUSE_NO":"２３號","E_COORD97":167429.39999999999,"N_COORD97":2545194.7799999998,"ADDRESS":"文賢路４８０巷２３號","OBJECTID":373944},"geometry":{"x":167429.39999999944,"y":2545194.7800000031}},{"attributes":{"ID":373955,"DIS_CODE":0,"TOWNNAME":"北區","LI":"文成里","LIN":"10鄰","STREET":"文賢路","SECT":" ","MAREA":" ","LANE":"４８０巷","ALLEY":" ","HOUSE_NO":"２５號","E_COORD97":167433.82999999999,"N_COORD97":2545194.7799999998,"ADDRESS":"文賢路４８０巷２５號","OBJECTID":373945},"geometry":{"x":167433.83000000101,"y":2545194.7800000031}},{"attributes":{"ID":373956,"DIS_CODE":0,"TOWNNAME":"北區","LI":"文成里","LIN":"10鄰","STREET":"文賢路","SECT":" ","MAREA":" ","LANE":"４８０巷","ALLEY":" ","HOUSE_NO":"２６號","E_COORD97":167420.95999999999,"N_COORD97":2545181.73,"ADDRESS":"文賢路４８０巷２６號","OBJECTID":373946},"geometry":{"x":167420.96000000089,"y":2545181.7300000004}},{"attributes":{"ID":373957,"DIS_CODE":0,"TOWNNAME":"北區","LI":"文成里","LIN":"10鄰","STREET":"文賢路","SECT":" ","MAREA":" ","LANE":"４８０巷","ALLEY":" ","HOUSE_NO":"２７號","E_COORD97":167438.26000000001,"N_COORD97":2545194.1800000002,"ADDRESS":"文賢路４８０巷２７號","OBJECTID":373947},"geometry":{"x":167438.26000000164,"y":2545194.1799999997}},{"attributes":{"ID":373958,"DIS_CODE":0,"TOWNNAME":"北區","LI":"文成里","LIN":"10鄰","STREET":"文賢路","SECT":" ","MAREA":" ","LANE":"４８０巷","ALLEY":" ","HOUSE_NO":"２８號","E_COORD97":167426,"N_COORD97":2545181.1299999999,"ADDRESS":"文賢路４８０巷２８號","OBJECTID":373948},"geometry":{"x":167426,"y":2545181.129999999}},{"attributes":{"ID":373959,"DIS_CODE":0,"TOWNNAME":"北區","LI":"文成里","LIN":"10鄰","STREET":"文賢路","SECT":" ","MAREA":" ","LANE":"４８０巷","ALLEY":" ","HOUSE_NO":"２號","E_COORD97":167361.06,"N_COORD97":2545185.8999999999,"ADDRESS":"文賢路４８０巷２號","OBJECTID":373949},"geometry":{"x":167361.05999999959,"y":2545185.9000000022}},{"attributes":{"ID":373960,"DIS_CODE":0,"TOWNNAME":"北區","LI":"文成里","LIN":"10鄰","STREET":"文賢路","SECT":" ","MAREA":" ","LANE":"４８０巷","ALLEY":" ","HOUSE_NO":"３０號","E_COORD97":167430.01999999999,"N_COORD97":2545181.5299999998,"ADDRESS":"文賢路４８０巷３０號","OBJECTID":373950},"geometry":{"x":167430.02000000048,"y":2545181.5299999993}},{"attributes":{"ID":373961,"DIS_CODE":0,"TOWNNAME":"北區","LI":"文成里","LIN":"10鄰","STREET":"文賢路","SECT":" ","MAREA":" ","LANE":"４８０巷","ALLEY":" ","HOUSE_NO":"３１號","E_COORD97":167454.85999999999,"N_COORD97":2545192.3500000001,"ADDRESS":"文賢路４８０巷３１號","OBJECTID":373951},"geometry":{"x":167454.86000000034,"y":2545192.3500000015}},{"attributes":{"ID":373962,"DIS_CODE":0,"TOWNNAME":"北區","LI":"文成里","LIN":"10鄰","STREET":"文賢路","SECT":" ","MAREA":" ","LANE":"４８０巷","ALLEY":" ","HOUSE_NO":"３２號","E_COORD97":167436.26999999999,"N_COORD97":2545180.73,"ADDRESS":"文賢路４８０巷３２號","OBJECTID":373952},"geometry":{"x":167436.27000000142,"y":2545180.7300000023}},{"attributes":{"ID":373963,"DIS_CODE":0,"TOWNNAME":"北區","LI":"文成里","LIN":"10鄰","STREET":"文賢路","SECT":" ","MAREA":" ","LANE":"４８０巷","ALLEY":" ","HOUSE_NO":"３３號","E_COORD97":167454.85999999999,"N_COORD97":2545198.79,"ADDRESS":"文賢路４８０巷３３號","OBJECTID":373953},"geometry":{"x":167454.86000000034,"y":2545198.790000001}},{"attributes":{"ID":373964,"DIS_CODE":0,"TOWNNAME":"北區","LI":"文成里","LIN":"10鄰","STREET":"文賢路","SECT":" ","MAREA":" ","LANE":"４８０巷","ALLEY":" ","HOUSE_NO":"３４號","E_COORD97":167443.10999999999,"N_COORD97":2545180.3199999998,"ADDRESS":"文賢路４８０巷３４號","OBJECTID":373954},"geometry":{"x":167443.11000000034,"y":2545180.3200000003}},{"attributes":{"ID":373965,"DIS_CODE":0,"TOWNNAME":"北區","LI":"文成里","LIN":"10鄰","STREET":"文賢路","SECT":" ","MAREA":" ","LANE":"４８０巷","ALLEY":" ","HOUSE_NO":"３５號","E_COORD97":167455.06,"N_COORD97":2545202.2000000002,"ADDRESS":"文賢路４８０巷３５號","OBJECTID":373955},"geometry":{"x":167455.06000000052,"y":2545202.200000003}},{"attributes":{"ID":373966,"DIS_CODE":0,"TOWNNAME":"北區","LI":"文成里","LIN":"10鄰","STREET":"文賢路","SECT":" ","MAREA":" ","LANE":"４８０巷","ALLEY":" ","HOUSE_NO":"３７號","E_COORD97":167454.85999999999,"N_COORD97":2545206.23,"ADDRESS":"文賢路４８０巷３７號","OBJECTID":373956},"geometry":{"x":167454.86000000034,"y":2545206.2299999986}},{"attributes":{"ID":373967,"DIS_CODE":0,"TOWNNAME":"北區","LI":"文成里","LIN":"10鄰","STREET":"文賢路","SECT":" ","MAREA":" ","LANE":"４８０巷","ALLEY":" ","HOUSE_NO":"３９號","E_COORD97":167455.67000000001,"N_COORD97":2545210.25,"ADDRESS":"文賢路４８０巷３９號","OBJECTID":373957},"geometry":{"x":167455.66999999993,"y":2545210.2500000019}},{"attributes":{"ID":373968,"DIS_CODE":0,"TOWNNAME":"北區","LI":"文成里","LIN":"10鄰","STREET":"文賢路","SECT":" ","MAREA":" ","LANE":"４８０巷","ALLEY":" ","HOUSE_NO":"３號","E_COORD97":167379.06,"N_COORD97":2545197.2000000002,"ADDRESS":"文賢路４８０巷３號","OBJECTID":373958},"geometry":{"x":167379.06000000052,"y":2545197.1999999993}},{"attributes":{"ID":373969,"DIS_CODE":0,"TOWNNAME":"北區","LI":"文成里","LIN":"10鄰","STREET":"文賢路","SECT":" ","MAREA":" ","LANE":"４８０巷","ALLEY":" ","HOUSE_NO":"４１號","E_COORD97":167474.19,"N_COORD97":2545200.6000000001,"ADDRESS":"文賢路４８０巷４１號","OBJECTID":373959},"geometry":{"x":167474.19000000134,"y":2545200.6000000015}},{"attributes":{"ID":373970,"DIS_CODE":0,"TOWNNAME":"北區","LI":"文成里","LIN":"10鄰","STREET":"文賢路","SECT":" ","MAREA":" ","LANE":"４８０巷","ALLEY":" ","HOUSE_NO":"４５號","E_COORD97":167489.5,"N_COORD97":2545201.7999999998,"ADDRESS":"文賢路４８０巷４５號","OBJECTID":373960},"geometry":{"x":167489.50000000186,"y":2545201.8000000007}},{"attributes":{"ID":373971,"DIS_CODE":0,"TOWNNAME":"北區","LI":"文成里","LIN":"10鄰","STREET":"文賢路","SECT":" ","MAREA":" ","LANE":"４８０巷","ALLEY":" ","HOUSE_NO":"４號","E_COORD97":167365.19,"N_COORD97":2545186.0499999998,"ADDRESS":"文賢路４８０巷４號","OBJECTID":373961},"geometry":{"x":167365.19000000134,"y":2545186.0500000007}},{"attributes":{"ID":373972,"DIS_CODE":0,"TOWNNAME":"北區","LI":"文成里","LIN":"10鄰","STREET":"文賢路","SECT":" ","MAREA":" ","LANE":"４８０巷","ALLEY":" ","HOUSE_NO":"５號","E_COORD97":167383.09,"N_COORD97":2545198,"ADDRESS":"文賢路４８０巷５號","OBJECTID":373962},"geometry":{"x":167383.08999999985,"y":2545198.0000000019}},{"attributes":{"ID":373973,"DIS_CODE":0,"TOWNNAME":"北區","LI":"文成里","LIN":"10鄰","STREET":"文賢路","SECT":" ","MAREA":" ","LANE":"４８０巷","ALLEY":" ","HOUSE_NO":"６號","E_COORD97":167369.01999999999,"N_COORD97":2545185.4399999999,"ADDRESS":"文賢路４８０巷６號","OBJECTID":373963},"geometry":{"x":167369.02000000048,"y":2545185.4399999995}},{"attributes":{"ID":373974,"DIS_CODE":0,"TOWNNAME":"北區","LI":"文成里","LIN":"10鄰","STREET":"文賢路","SECT":" ","MAREA":" ","LANE":"４８０巷","ALLEY":" ","HOUSE_NO":"７號","E_COORD97":167388.12,"N_COORD97":2545197.2000000002,"ADDRESS":"文賢路４８０巷７號","OBJECTID":373964},"geometry":{"x":167388.12000000011,"y":2545197.1999999993}},{"attributes":{"ID":373975,"DIS_CODE":0,"TOWNNAME":"北區","LI":"文成里","LIN":"10鄰","STREET":"文賢路","SECT":" ","MAREA":" ","LANE":"４８０巷","ALLEY":" ","HOUSE_NO":"８號","E_COORD97":167374.51999999999,"N_COORD97":2545182.54,"ADDRESS":"文賢路４８０巷８號","OBJECTID":373965},"geometry":{"x":167374.51999999955,"y":2545182.5400000028}},{"attributes":{"ID":373976,"DIS_CODE":0,"TOWNNAME":"北區","LI":"文成里","LIN":"10鄰","STREET":"文賢路","SECT":" ","MAREA":" ","LANE":"４８０巷","ALLEY":" ","HOUSE_NO":"９號","E_COORD97":167393.16,"N_COORD97":2545197,"ADDRESS":"文賢路４８０巷９號","OBJECTID":373966},"geometry":{"x":167393.16000000015,"y":2545197}},{"attributes":{"ID":373977,"DIS_CODE":0,"TOWNNAME":"北區","LI":"光武里","LIN":"10鄰","STREET":"北門路","SECT":"二段","MAREA":" ","LANE":"５４７巷","ALLEY":" ","HOUSE_NO":"２８號","E_COORD97":169615.53,"N_COORD97":2545718.1200000001,"ADDRESS":"北門路二段５４７巷２８號","OBJECTID":373967},"geometry":{"x":169615.53000000119,"y":2545718.120000001}},{"attributes":{"ID":373978,"DIS_CODE":0,"TOWNNAME":"南區","LI":"喜東里","LIN":"10鄰","STREET":"明興路","SECT":" ","MAREA":" ","LANE":"６１９巷","ALLEY":" ","HOUSE_NO":"３５８號","E_COORD97":166881.84,"N_COORD97":2537911.1200000001,"ADDRESS":"明興路６１９巷３５８號","OBJECTID":373968},"geometry":{"x":166881.84000000171,"y":2537911.120000001}},{"attributes":{"ID":373979,"DIS_CODE":0,"TOWNNAME":"南區","LI":"文華里","LIN":"10鄰","STREET":"建南路","SECT":" ","MAREA":" ","LANE":"１２０巷","ALLEY":" ","HOUSE_NO":"１６號","E_COORD97":167048.37,"N_COORD97":2542895.6200000001,"ADDRESS":"建南路１２０巷１６號","OBJECTID":373969},"geometry":{"x":167048.37000000104,"y":2542895.6200000048}},{"attributes":{"ID":373980,"DIS_CODE":0,"TOWNNAME":"南區","LI":"文華里","LIN":"10鄰","STREET":"建南路","SECT":" ","MAREA":" ","LANE":"１２０巷","ALLEY":" ","HOUSE_NO":"１８號","E_COORD97":167049,"N_COORD97":2542900.1099999999,"ADDRESS":"建南路１２０巷１８號","OBJECTID":373970},"geometry":{"x":167049.00000000093,"y":2542900.1099999994}},{"attributes":{"ID":373981,"DIS_CODE":0,"TOWNNAME":"南區","LI":"文華里","LIN":"10鄰","STREET":"建南路","SECT":" ","MAREA":" ","LANE":"１２０巷","ALLEY":" ","HOUSE_NO":"２０號","E_COORD97":167049.45000000001,"N_COORD97":2542905.4900000002,"ADDRESS":"建南路１２０巷２０號","OBJECTID":373971},"geometry":{"x":167049.45000000112,"y":2542905.4899999984}},{"attributes":{"ID":373982,"DIS_CODE":0,"TOWNNAME":"南區","LI":"文華里","LIN":"10鄰","STREET":"建南路","SECT":" ","MAREA":" ","LANE":"１２０巷","ALLEY":" ","HOUSE_NO":"２２號","E_COORD97":167049.72,"N_COORD97":2542910.0600000001,"ADDRESS":"建南路１２０巷２２號","OBJECTID":373972},"geometry":{"x":167049.71999999974,"y":2542910.0600000024}},{"attributes":{"ID":373983,"DIS_CODE":0,"TOWNNAME":"南區","LI":"建南里","LIN":"10鄰","STREET":"中華南路","SECT":"二段","MAREA":" ","LANE":"１７７巷","ALLEY":" ","HOUSE_NO":"１１１號","E_COORD97":167097.60999999999,"N_COORD97":2539927.7599999998,"ADDRESS":"中華南路二段１７７巷１１１號","OBJECTID":373973},"geometry":{"x":167097.6100000022,"y":2539927.7600000016}},{"attributes":{"ID":373984,"DIS_CODE":0,"TOWNNAME":"南區","LI":"建南里","LIN":"10鄰","STREET":"德興路","SECT":" ","MAREA":" ","LANE":"３１４巷","ALLEY":" ","HOUSE_NO":"１０號","E_COORD97":167173.60000000001,"N_COORD97":2539914.3599999999,"ADDRESS":"德興路３１４巷１０號","OBJECTID":373974},"geometry":{"x":167173.60000000056,"y":2539914.3599999994}},{"attributes":{"ID":373985,"DIS_CODE":0,"TOWNNAME":"南區","LI":"建南里","LIN":"10鄰","STREET":"德興路","SECT":" ","MAREA":" ","LANE":"３１４巷","ALLEY":" ","HOUSE_NO":"１２號","E_COORD97":167170.01000000001,"N_COORD97":2539914.3599999999,"ADDRESS":"德興路３１４巷１２號","OBJECTID":373975},"geometry":{"x":167170.00999999978,"y":2539914.3599999994}},{"attributes":{"ID":373986,"DIS_CODE":0,"TOWNNAME":"南區","LI":"建南里","LIN":"10鄰","STREET":"德興路","SECT":" ","MAREA":" ","LANE":"３１４巷","ALLEY":" ","HOUSE_NO":"１４號","E_COORD97":167165.60999999999,"N_COORD97":2539914.3599999999,"ADDRESS":"德興路３１４巷１４號","OBJECTID":373976},"geometry":{"x":167165.61000000127,"y":2539914.3599999994}},{"attributes":{"ID":373987,"DIS_CODE":0,"TOWNNAME":"南區","LI":"建南里","LIN":"10鄰","STREET":"德興路","SECT":" ","MAREA":" ","LANE":"３１４巷","ALLEY":" ","HOUSE_NO":"１６號","E_COORD97":167161.41,"N_COORD97":2539914.7599999998,"ADDRESS":"德興路３１４巷１６號","OBJECTID":373977},"geometry":{"x":167161.41000000201,"y":2539914.7600000016}},{"attributes":{"ID":373988,"DIS_CODE":0,"TOWNNAME":"南區","LI":"建南里","LIN":"10鄰","STREET":"德興路","SECT":" ","MAREA":" ","LANE":"３１４巷","ALLEY":" ","HOUSE_NO":"１８號","E_COORD97":167157.20999999999,"N_COORD97":2539914.5600000001,"ADDRESS":"德興路３１４巷１８號","OBJECTID":373978},"geometry":{"x":167157.20999999996,"y":2539914.5600000005}},{"attributes":{"ID":373989,"DIS_CODE":0,"TOWNNAME":"南區","LI":"建南里","LIN":"10鄰","STREET":"德興路","SECT":" ","MAREA":" ","LANE":"３１４巷","ALLEY":" ","HOUSE_NO":"２０號","E_COORD97":167153.22,"N_COORD97":2539914.5600000001,"ADDRESS":"德興路３１４巷２０號","OBJECTID":373979},"geometry":{"x":167153.21999999974,"y":2539914.5600000005}},{"attributes":{"ID":373990,"DIS_CODE":0,"TOWNNAME":"南區","LI":"建南里","LIN":"10鄰","STREET":"德興路","SECT":" ","MAREA":" ","LANE":"３１４巷","ALLEY":" ","HOUSE_NO":"２２號","E_COORD97":167149.01999999999,"N_COORD97":2539914.5600000001,"ADDRESS":"德興路３１４巷２２號","OBJECTID":373980},"geometry":{"x":167149.01999999955,"y":2539914.5600000005}},{"attributes":{"ID":373991,"DIS_CODE":0,"TOWNNAME":"南區","LI":"建南里","LIN":"10鄰","STREET":"德興路","SECT":" ","MAREA":" ","LANE":"３１４巷","ALLEY":" ","HOUSE_NO":"４６號","E_COORD97":167081.01999999999,"N_COORD97":2539918.5899999999,"ADDRESS":"德興路３１４巷４６號","OBJECTID":373981},"geometry":{"x":167081.02000000048,"y":2539918.5900000017}},{"attributes":{"ID":373992,"DIS_CODE":0,"TOWNNAME":"南區","LI":"建南里","LIN":"10鄰","STREET":"德興路","SECT":" ","MAREA":" ","LANE":"３１４巷","ALLEY":" ","HOUSE_NO":"４８號","E_COORD97":167075.06,"N_COORD97":2539918.4300000002,"ADDRESS":"德興路３１４巷４８號","OBJECTID":373982},"geometry":{"x":167075.06000000145,"y":2539918.4299999978}},{"attributes":{"ID":373993,"DIS_CODE":0,"TOWNNAME":"南區","LI":"建南里","LIN":"10鄰","STREET":"德興路","SECT":" ","MAREA":" ","LANE":"３１４巷","ALLEY":" ","HOUSE_NO":"４號","E_COORD97":167186.39999999999,"N_COORD97":2539914.1600000001,"ADDRESS":"德興路３１４巷４號","OBJECTID":373983},"geometry":{"x":167186.40000000037,"y":2539914.1600000039}},{"attributes":{"ID":373994,"DIS_CODE":0,"TOWNNAME":"南區","LI":"建南里","LIN":"10鄰","STREET":"德興路","SECT":" ","MAREA":" ","LANE":"３１４巷","ALLEY":" ","HOUSE_NO":"５０號","E_COORD97":167071.39999999999,"N_COORD97":2539918.5899999999,"ADDRESS":"德興路３１４巷５０號","OBJECTID":373984},"geometry":{"x":167071.40000000037,"y":2539918.5900000017}},{"attributes":{"ID":373995,"DIS_CODE":0,"TOWNNAME":"南區","LI":"建南里","LIN":"10鄰","STREET":"德興路","SECT":" ","MAREA":" ","LANE":"３１４巷","ALLEY":" ","HOUSE_NO":"５２號","E_COORD97":167067.12,"N_COORD97":2539918.5899999999,"ADDRESS":"德興路３１４巷５２號","OBJECTID":373985},"geometry":{"x":167067.12000000104,"y":2539918.5900000017}},{"attributes":{"ID":373996,"DIS_CODE":0,"TOWNNAME":"南區","LI":"建南里","LIN":"10鄰","STREET":"德興路","SECT":" ","MAREA":" ","LANE":"３１４巷","ALLEY":" ","HOUSE_NO":"５４號","E_COORD97":167062.69,"N_COORD97":2539918.7400000002,"ADDRESS":"德興路３１４巷５４號","OBJECTID":373986},"geometry":{"x":167062.69000000041,"y":2539918.7400000021}},{"attributes":{"ID":373997,"DIS_CODE":0,"TOWNNAME":"南區","LI":"建南里","LIN":"10鄰","STREET":"德興路","SECT":" ","MAREA":" ","LANE":"３１４巷","ALLEY":" ","HOUSE_NO":"５６號","E_COORD97":167058.10999999999,"N_COORD97":2539919.3500000001,"ADDRESS":"德興路３１４巷５６號","OBJECTID":373987},"geometry":{"x":167058.11000000034,"y":2539919.3500000034}},{"attributes":{"ID":373998,"DIS_CODE":0,"TOWNNAME":"南區","LI":"建南里","LIN":"10鄰","STREET":"德興路","SECT":" ","MAREA":" ","LANE":"３１４巷","ALLEY":" ","HOUSE_NO":"６號","E_COORD97":167181.39999999999,"N_COORD97":2539914.1600000001,"ADDRESS":"德興路３１４巷６號","OBJECTID":373988},"geometry":{"x":167181.40000000037,"y":2539914.1600000039}},{"attributes":{"ID":373999,"DIS_CODE":0,"TOWNNAME":"南區","LI":"建南里","LIN":"10鄰","STREET":"德興路","SECT":" ","MAREA":" ","LANE":"３１４巷","ALLEY":" ","HOUSE_NO":"８號","E_COORD97":167177.79999999999,"N_COORD97":2539914.1600000001,"ADDRESS":"德興路３１４巷８號","OBJECTID":373989},"geometry":{"x":167177.80000000075,"y":2539914.1600000039}},{"attributes":{"ID":374000,"DIS_CODE":0,"TOWNNAME":"北區","LI":"大豐里","LIN":"10鄰","STREET":"和緯路","SECT":"四段","MAREA":" ","LANE":"９５巷","ALLEY":" ","HOUSE_NO":"５１號","E_COORD97":167114.44,"N_COORD97":2545324.7999999998,"ADDRESS":"和緯路四段９５巷５１號","OBJECTID":373990},"geometry":{"x":167114.44000000134,"y":2545324.8000000045}},{"attributes":{"ID":374001,"DIS_CODE":0,"TOWNNAME":"北區","LI":"大豐里","LIN":"10鄰","STREET":"和緯路","SECT":"四段","MAREA":" ","LANE":"９５巷","ALLEY":" ","HOUSE_NO":"５３號","E_COORD97":167113.57000000001,"N_COORD97":2545315.8599999999,"ADDRESS":"和緯路四段９５巷５３號","OBJECTID":373991},"geometry":{"x":167113.57000000123,"y":2545315.8599999994}},{"attributes":{"ID":374002,"DIS_CODE":0,"TOWNNAME":"東區","LI":"大德里","LIN":"10鄰","STREET":"大同路","SECT":"二段","MAREA":" ","LANE":"６１巷","ALLEY":" ","HOUSE_NO":"１１８號五樓","E_COORD97":169432.67999999999,"N_COORD97":2542231.6699999999,"ADDRESS":"大同路二段６１巷１１８號五樓","OBJECTID":373992},"geometry":{"x":169432.68000000063,"y":2542231.6699999999}},{"attributes":{"ID":374003,"DIS_CODE":0,"TOWNNAME":"東區","LI":"大德里","LIN":"10鄰","STREET":"大同路","SECT":"二段","MAREA":" ","LANE":"６１巷","ALLEY":" ","HOUSE_NO":"１１８號四樓","E_COORD97":169432.67999999999,"N_COORD97":2542231.6699999999,"ADDRESS":"大同路二段６１巷１１８號四樓","OBJECTID":373993},"geometry":{"x":169432.68000000063,"y":2542231.6699999999}},{"attributes":{"ID":374004,"DIS_CODE":0,"TOWNNAME":"東區","LI":"大德里","LIN":"10鄰","STREET":"大同路","SECT":"二段","MAREA":" ","LANE":"６１巷","ALLEY":" ","HOUSE_NO":"１２０號三樓","E_COORD97":169428.37,"N_COORD97":2542234.1299999999,"ADDRESS":"大同路二段６１巷１２０號三樓","OBJECTID":373994},"geometry":{"x":169428.37000000104,"y":2542234.129999999}},{"attributes":{"ID":374005,"DIS_CODE":0,"TOWNNAME":"東區","LI":"大德里","LIN":"10鄰","STREET":"大同路","SECT":"二段","MAREA":" ","LANE":"６１巷","ALLEY":" ","HOUSE_NO":"１２０號四樓","E_COORD97":169428.37,"N_COORD97":2542234.1299999999,"ADDRESS":"大同路二段６１巷１２０號四樓","OBJECTID":373995},"geometry":{"x":169428.37000000104,"y":2542234.129999999}},{"attributes":{"ID":374006,"DIS_CODE":0,"TOWNNAME":"東區","LI":"大德里","LIN":"10鄰","STREET":"大同路","SECT":"二段","MAREA":" ","LANE":"６１巷","ALLEY":" ","HOUSE_NO":"１２２號二樓","E_COORD97":169430.42000000001,"N_COORD97":2542243.7599999998,"ADDRESS":"大同路二段６１巷１２２號二樓","OBJECTID":373996},"geometry":{"x":169430.41999999993,"y":2542243.7600000016}},{"attributes":{"ID":374007,"DIS_CODE":0,"TOWNNAME":"東區","LI":"大德里","LIN":"10鄰","STREET":"大同路","SECT":"二段","MAREA":" ","LANE":"６１巷","ALLEY":" ","HOUSE_NO":"１２２號三樓","E_COORD97":169430.42000000001,"N_COORD97":2542243.7599999998,"ADDRESS":"大同路二段６１巷１２２號三樓","OBJECTID":373997},"geometry":{"x":169430.41999999993,"y":2542243.7600000016}},{"attributes":{"ID":374008,"DIS_CODE":0,"TOWNNAME":"東區","LI":"大德里","LIN":"10鄰","STREET":"大同路","SECT":"二段","MAREA":" ","LANE":"６１巷","ALLEY":" ","HOUSE_NO":"１２２號五樓","E_COORD97":169430.42000000001,"N_COORD97":2542243.7599999998,"ADDRESS":"大同路二段６１巷１２２號五樓","OBJECTID":373998},"geometry":{"x":169430.41999999993,"y":2542243.7600000016}},{"attributes":{"ID":374009,"DIS_CODE":0,"TOWNNAME":"東區","LI":"大德里","LIN":"10鄰","STREET":"大同路","SECT":"二段","MAREA":" ","LANE":"６１巷","ALLEY":" ","HOUSE_NO":"１２０號五樓","E_COORD97":169428.37,"N_COORD97":2542234.1299999999,"ADDRESS":"大同路二段６１巷１２０號五樓","OBJECTID":373999},"geometry":{"x":169428.37000000104,"y":2542234.129999999}},{"attributes":{"ID":374010,"DIS_CODE":0,"TOWNNAME":"東區","LI":"大德里","LIN":"10鄰","STREET":"大同路","SECT":"二段","MAREA":" ","LANE":"６１巷","ALLEY":" ","HOUSE_NO":"１２２號四樓","E_COORD97":169430.42000000001,"N_COORD97":2542243.7599999998,"ADDRESS":"大同路二段６１巷１２２號四樓","OBJECTID":374000},"geometry":{"x":169430.41999999993,"y":2542243.7600000016}}]}