{"displayFieldName":"TOWNNAME","fieldAliases":{"ID":"ID","DIS_CODE":"DIS_CODE","TOWNNAME":"TOWNNAME","LI":"LI","LIN":"LIN","STREET":"STREET","SECT":"SECT","MAREA":"MAREA","LANE":"LANE","ALLEY":"ALLEY","HOUSE_NO":"HOUSE_NO","E_COORD97":"E_COORD97","N_COORD97":"N_COORD97","ADDRESS":"ADDRESS","OBJECTID":"OBJECTID"},"geometryType":"esriGeometryPoint","spatialReference":{"wkid":102443,"latestWkid":3826},"fields":[{"name":"ID","type":"esriFieldTypeDouble","alias":"ID"},{"name":"DIS_CODE","type":"esriFieldTypeInteger","alias":"DIS_CODE"},{"name":"TOWNNAME","type":"esriFieldTypeString","alias":"TOWNNAME","length":8},{"name":"LI","type":"esriFieldTypeString","alias":"LI","length":8},{"name":"LIN","type":"esriFieldTypeString","alias":"LIN","length":12},{"name":"STREET","type":"esriFieldTypeString","alias":"STREET","length":20},{"name":"SECT","type":"esriFieldTypeString","alias":"SECT","length":8},{"name":"MAREA","type":"esriFieldTypeString","alias":"MAREA","length":12},{"name":"LANE","type":"esriFieldTypeString","alias":"LANE","length":10},{"name":"ALLEY","type":"esriFieldTypeString","alias":"ALLEY","length":10},{"name":"HOUSE_NO","type":"esriFieldTypeString","alias":"HOUSE_NO","length":20},{"name":"E_COORD97","type":"esriFieldTypeDouble","alias":"E_COORD97"},{"name":"N_COORD97","type":"esriFieldTypeDouble","alias":"N_COORD97"},{"name":"ADDRESS","type":"esriFieldTypeString","alias":"ADDRESS","length":50},{"name":"OBJECTID","type":"esriFieldTypeOID","alias":"OBJECTID"}],"features":[{"attributes":{"ID":400825,"DIS_CODE":0,"TOWNNAME":"安南區","LI":"\u25A0南里","LIN":"11鄰","STREET":"環福街","SECT":" ","MAREA":" ","LANE":"１２５巷","ALLEY":" ","HOUSE_NO":"３６號","E_COORD97":170261.22,"N_COORD97":2552563.3300000001,"ADDRESS":"環福街１２５巷３６號","OBJECTID":400801},"geometry":{"x":170261.22000000067,"y":2552563.3300000019}},{"attributes":{"ID":400826,"DIS_CODE":0,"TOWNNAME":"安南區","LI":"\u25A0南里","LIN":"11鄰","STREET":"環福街","SECT":" ","MAREA":" ","LANE":"１２５巷","ALLEY":" ","HOUSE_NO":"３８號","E_COORD97":170257.22,"N_COORD97":2552563.1200000001,"ADDRESS":"環福街１２５巷３８號","OBJECTID":400802},"geometry":{"x":170257.21999999974,"y":2552563.1200000029}},{"attributes":{"ID":400827,"DIS_CODE":0,"TOWNNAME":"安南區","LI":"\u25A0南里","LIN":"11鄰","STREET":"環福街","SECT":" ","MAREA":" ","LANE":"１２５巷","ALLEY":" ","HOUSE_NO":"４０號","E_COORD97":170253.01999999999,"N_COORD97":2552562.9100000001,"ADDRESS":"環福街１２５巷４０號","OBJECTID":400803},"geometry":{"x":170253.01999999955,"y":2552562.910000002}},{"attributes":{"ID":400828,"DIS_CODE":0,"TOWNNAME":"安南區","LI":"\u25A0南里","LIN":"11鄰","STREET":"環福街","SECT":" ","MAREA":" ","LANE":"１２５巷","ALLEY":" ","HOUSE_NO":"６號","E_COORD97":170341.76000000001,"N_COORD97":2552540.0899999999,"ADDRESS":"環福街１２５巷６號","OBJECTID":400804},"geometry":{"x":170341.75999999978,"y":2552540.0900000036}},{"attributes":{"ID":400829,"DIS_CODE":0,"TOWNNAME":"安南區","LI":"\u25A0南里","LIN":"11鄰","STREET":"環福街","SECT":" ","MAREA":" ","LANE":"１２５巷","ALLEY":" ","HOUSE_NO":"８號","E_COORD97":170335.23999999999,"N_COORD97":2552540.2999999998,"ADDRESS":"環福街１２５巷８號","OBJECTID":400805},"geometry":{"x":170335.24000000022,"y":2552540.3000000026}},{"attributes":{"ID":400830,"DIS_CODE":0,"TOWNNAME":"安南區","LI":"\u25A0南里","LIN":"11鄰","STREET":"環福街","SECT":" ","MAREA":" ","LANE":"１６１巷","ALLEY":" ","HOUSE_NO":"２０號","E_COORD97":170306.38,"N_COORD97":2552576.5499999998,"ADDRESS":"環福街１６１巷２０號","OBJECTID":400806},"geometry":{"x":170306.38000000082,"y":2552576.5500000026}},{"attributes":{"ID":400831,"DIS_CODE":0,"TOWNNAME":"安南區","LI":"\u25A0南里","LIN":"11鄰","STREET":"環福街","SECT":" ","MAREA":" ","LANE":"１６１巷","ALLEY":" ","HOUSE_NO":"２０號之１","E_COORD97":170330.14000000001,"N_COORD97":2552580.0899999999,"ADDRESS":"環福街１６１巷２０號之１","OBJECTID":400807},"geometry":{"x":170330.13999999966,"y":2552580.0899999999}},{"attributes":{"ID":400832,"DIS_CODE":0,"TOWNNAME":"安南區","LI":"\u25A0南里","LIN":"11鄰","STREET":"環福街","SECT":" ","MAREA":" ","LANE":"１６１巷","ALLEY":" ","HOUSE_NO":"２６號","E_COORD97":170301.79000000001,"N_COORD97":2552594.6499999999,"ADDRESS":"環福街１６１巷２６號","OBJECTID":400808},"geometry":{"x":170301.79000000097,"y":2552594.6500000041}},{"attributes":{"ID":400833,"DIS_CODE":0,"TOWNNAME":"安南區","LI":"\u25A0南里","LIN":"11鄰","STREET":"環福街","SECT":" ","MAREA":" ","LANE":"１６１巷","ALLEY":" ","HOUSE_NO":"３０號","E_COORD97":170303.17000000001,"N_COORD97":2552608.7400000002,"ADDRESS":"環福街１６１巷３０號","OBJECTID":400809},"geometry":{"x":170303.16999999993,"y":2552608.7400000021}},{"attributes":{"ID":400834,"DIS_CODE":0,"TOWNNAME":"安南區","LI":"\u25A0南里","LIN":"11鄰","STREET":"環福街","SECT":" ","MAREA":" ","LANE":"１６１巷","ALLEY":" ","HOUSE_NO":"３６號","E_COORD97":170276.32999999999,"N_COORD97":2552592.96,"ADDRESS":"環福街１６１巷３６號","OBJECTID":400810},"geometry":{"x":170276.33000000101,"y":2552592.9600000046}},{"attributes":{"ID":400835,"DIS_CODE":0,"TOWNNAME":"安南區","LI":"\u25A0南里","LIN":"11鄰","STREET":"環福街","SECT":" ","MAREA":" ","LANE":"１６１巷","ALLEY":" ","HOUSE_NO":"５２號","E_COORD97":170256.85999999999,"N_COORD97":2552611.1400000001,"ADDRESS":"環福街１６１巷５２號","OBJECTID":400811},"geometry":{"x":170256.86000000034,"y":2552611.1400000006}},{"attributes":{"ID":400836,"DIS_CODE":0,"TOWNNAME":"安南區","LI":"海東里","LIN":"11鄰","STREET":"海環街","SECT":" ","MAREA":" ","LANE":"３２巷","ALLEY":" ","HOUSE_NO":"７９號","E_COORD97":166512.48000000001,"N_COORD97":2549026.52,"ADDRESS":"海環街３２巷７９號","OBJECTID":400812},"geometry":{"x":166512.48000000138,"y":2549026.5199999996}},{"attributes":{"ID":400837,"DIS_CODE":0,"TOWNNAME":"安南區","LI":"海東里","LIN":"11鄰","STREET":"海環街","SECT":" ","MAREA":" ","LANE":"３２巷","ALLEY":" ","HOUSE_NO":"８１號","E_COORD97":166510.60000000001,"N_COORD97":2549029.4900000002,"ADDRESS":"海環街３２巷８１號","OBJECTID":400813},"geometry":{"x":166510.60000000056,"y":2549029.4900000021}},{"attributes":{"ID":400838,"DIS_CODE":0,"TOWNNAME":"安南區","LI":"海東里","LIN":"11鄰","STREET":"海環街","SECT":" ","MAREA":" ","LANE":"３２巷","ALLEY":" ","HOUSE_NO":"８３號","E_COORD97":166508.64999999999,"N_COORD97":2549032.3399999999,"ADDRESS":"海環街３２巷８３號","OBJECTID":400814},"geometry":{"x":166508.65000000037,"y":2549032.3399999999}},{"attributes":{"ID":400839,"DIS_CODE":0,"TOWNNAME":"安南區","LI":"安慶里","LIN":"11鄰","STREET":"長溪路","SECT":"一段","MAREA":" ","LANE":"１６８巷","ALLEY":" ","HOUSE_NO":"５５號","E_COORD97":169042.35999999999,"N_COORD97":2548688.6899999999,"ADDRESS":"長溪路一段１６８巷５５號","OBJECTID":400815},"geometry":{"x":169042.36000000127,"y":2548688.6900000013}},{"attributes":{"ID":400840,"DIS_CODE":0,"TOWNNAME":"安南區","LI":"\u25A0南里","LIN":"11鄰","STREET":"安昌街","SECT":" ","MAREA":" ","LANE":"２２２巷","ALLEY":" ","HOUSE_NO":"８１號","E_COORD97":170231.92000000001,"N_COORD97":2552651.1299999999,"ADDRESS":"安昌街２２２巷８１號","OBJECTID":400816},"geometry":{"x":170231.91999999993,"y":2552651.1300000008}},{"attributes":{"ID":400841,"DIS_CODE":0,"TOWNNAME":"安南區","LI":"\u25A0南里","LIN":"11鄰","STREET":"安昌街","SECT":" ","MAREA":" ","LANE":"２２２巷","ALLEY":" ","HOUSE_NO":"８３號","E_COORD97":170231.60999999999,"N_COORD97":2552654.1800000002,"ADDRESS":"安昌街２２２巷８３號","OBJECTID":400817},"geometry":{"x":170231.61000000034,"y":2552654.1799999997}},{"attributes":{"ID":400842,"DIS_CODE":0,"TOWNNAME":"新化區","LI":"豐榮里","LIN":"13鄰","STREET":"民治路","SECT":" ","MAREA":" ","LANE":"１３巷","ALLEY":" ","HOUSE_NO":"７號","E_COORD97":178698.45999999999,"N_COORD97":2547980.25,"ADDRESS":"民治路１３巷７號","OBJECTID":400818},"geometry":{"x":178698.46000000089,"y":2547980.2500000019}},{"attributes":{"ID":400843,"DIS_CODE":0,"TOWNNAME":"安南區","LI":"\u25A0南里","LIN":"11鄰","STREET":"安昌街","SECT":" ","MAREA":" ","LANE":"２２２巷","ALLEY":" ","HOUSE_NO":"９４號","E_COORD97":170248.67000000001,"N_COORD97":2552654.8199999998,"ADDRESS":"安昌街２２２巷９４號","OBJECTID":400819},"geometry":{"x":170248.67000000086,"y":2552654.8200000022}},{"attributes":{"ID":400844,"DIS_CODE":0,"TOWNNAME":"安南區","LI":"安西里","LIN":"11鄰","STREET":"安和路","SECT":"一段","MAREA":" ","LANE":"３２１巷","ALLEY":" ","HOUSE_NO":"１８號","E_COORD97":169205.12,"N_COORD97":2548165.4199999999,"ADDRESS":"安和路一段３２１巷１８號","OBJECTID":400820},"geometry":{"x":169205.12000000104,"y":2548165.4200000018}},{"attributes":{"ID":400845,"DIS_CODE":0,"TOWNNAME":"安南區","LI":"安西里","LIN":"11鄰","STREET":"安和路","SECT":"一段","MAREA":" ","LANE":"３２１巷","ALLEY":" ","HOUSE_NO":"４號","E_COORD97":169230.88,"N_COORD97":2548161.8100000001,"ADDRESS":"安和路一段３２１巷４號","OBJECTID":400821},"geometry":{"x":169230.87999999989,"y":2548161.8100000005}},{"attributes":{"ID":400846,"DIS_CODE":0,"TOWNNAME":"安南區","LI":"安和里","LIN":"11鄰","STREET":"安和路","SECT":"一段","MAREA":" ","LANE":"５２巷","ALLEY":" ","HOUSE_NO":"３５號","E_COORD97":169636.75,"N_COORD97":2547549.0800000001,"ADDRESS":"安和路一段５２巷３５號","OBJECTID":400822},"geometry":{"x":169636.75,"y":2547549.0800000001}},{"attributes":{"ID":400847,"DIS_CODE":0,"TOWNNAME":"安南區","LI":"安和里","LIN":"11鄰","STREET":"安和路","SECT":"一段","MAREA":" ","LANE":"５２巷","ALLEY":" ","HOUSE_NO":"３７號","E_COORD97":169641.14999999999,"N_COORD97":2547552.8799999999,"ADDRESS":"安和路一段５２巷３７號","OBJECTID":400823},"geometry":{"x":169641.15000000037,"y":2547552.879999999}},{"attributes":{"ID":400848,"DIS_CODE":0,"TOWNNAME":"安南區","LI":"安和里","LIN":"11鄰","STREET":"安和路","SECT":"一段","MAREA":" ","LANE":"５２巷","ALLEY":" ","HOUSE_NO":"４７號","E_COORD97":169661.13,"N_COORD97":2547571.8500000001,"ADDRESS":"安和路一段５２巷４７號","OBJECTID":400824},"geometry":{"x":169661.12999999989,"y":2547571.8500000015}},{"attributes":{"ID":400849,"DIS_CODE":0,"TOWNNAME":"安南區","LI":"安和里","LIN":"11鄰","STREET":"安和路","SECT":"一段","MAREA":" ","LANE":"５２巷","ALLEY":" ","HOUSE_NO":"７３號","E_COORD97":169719.70999999999,"N_COORD97":2547604.2000000002,"ADDRESS":"安和路一段５２巷７３號","OBJECTID":400825},"geometry":{"x":169719.71000000089,"y":2547604.1999999993}},{"attributes":{"ID":400850,"DIS_CODE":0,"TOWNNAME":"安南區","LI":"安富里","LIN":"11鄰","STREET":"安富街","SECT":" ","MAREA":" ","LANE":"２５１巷","ALLEY":" ","HOUSE_NO":"２１號","E_COORD97":167554.91,"N_COORD97":2547384.5600000001,"ADDRESS":"安富街２５１巷２１號","OBJECTID":400826},"geometry":{"x":167554.91000000108,"y":2547384.5600000024}},{"attributes":{"ID":400851,"DIS_CODE":0,"TOWNNAME":"東區","LI":"崇善里","LIN":"10鄰","STREET":"崇善八街","SECT":" ","MAREA":" ","LANE":"６９巷","ALLEY":" ","HOUSE_NO":"１９號","E_COORD97":171183.09,"N_COORD97":2541452.96,"ADDRESS":"崇善八街６９巷１９號","OBJECTID":400827},"geometry":{"x":171183.09000000078,"y":2541452.9600000028}},{"attributes":{"ID":400852,"DIS_CODE":0,"TOWNNAME":"東區","LI":"崇善里","LIN":"10鄰","STREET":"崇善八街","SECT":" ","MAREA":" ","LANE":"６９巷","ALLEY":" ","HOUSE_NO":"１號","E_COORD97":171214.03,"N_COORD97":2541471.7000000002,"ADDRESS":"崇善八街６９巷１號","OBJECTID":400828},"geometry":{"x":171214.03000000119,"y":2541471.6999999993}},{"attributes":{"ID":400853,"DIS_CODE":0,"TOWNNAME":"東區","LI":"崇善里","LIN":"10鄰","STREET":"崇善八街","SECT":" ","MAREA":" ","LANE":"６９巷","ALLEY":" ","HOUSE_NO":"２０號","E_COORD97":171189.64999999999,"N_COORD97":2541474.8199999998,"ADDRESS":"崇善八街６９巷２０號","OBJECTID":400829},"geometry":{"x":171189.6500000013,"y":2541474.8200000003}},{"attributes":{"ID":400854,"DIS_CODE":0,"TOWNNAME":"東區","LI":"崇善里","LIN":"10鄰","STREET":"崇善八街","SECT":" ","MAREA":" ","LANE":"６９巷","ALLEY":" ","HOUSE_NO":"２２號","E_COORD97":171184.64999999999,"N_COORD97":2541476.0699999998,"ADDRESS":"崇善八街６９巷２２號","OBJECTID":400830},"geometry":{"x":171184.6500000013,"y":2541476.0700000022}},{"attributes":{"ID":400855,"DIS_CODE":0,"TOWNNAME":"東區","LI":"崇善里","LIN":"10鄰","STREET":"崇善八街","SECT":" ","MAREA":" ","LANE":"６９巷","ALLEY":" ","HOUSE_NO":"２４號","E_COORD97":171182.45999999999,"N_COORD97":2541472.0099999998,"ADDRESS":"崇善八街６９巷２４號","OBJECTID":400831},"geometry":{"x":171182.46000000089,"y":2541472.0100000016}},{"attributes":{"ID":400856,"DIS_CODE":0,"TOWNNAME":"東區","LI":"崇善里","LIN":"10鄰","STREET":"崇善八街","SECT":" ","MAREA":" ","LANE":"６９巷","ALLEY":" ","HOUSE_NO":"２８號","E_COORD97":171173.70999999999,"N_COORD97":2541470.1299999999,"ADDRESS":"崇善八街６９巷２８號","OBJECTID":400832},"geometry":{"x":171173.71000000089,"y":2541470.1300000008}},{"attributes":{"ID":400857,"DIS_CODE":0,"TOWNNAME":"善化區","LI":"東關里","LIN":"11鄰","STREET":"中山路","SECT":" ","MAREA":" ","LANE":"４１１巷","ALLEY":" ","HOUSE_NO":"１５號","E_COORD97":177380.19,"N_COORD97":2559052.25,"ADDRESS":"中山路４１１巷１５號","OBJECTID":400833},"geometry":{"x":177380.19000000134,"y":2559052.2500000037}},{"attributes":{"ID":400858,"DIS_CODE":0,"TOWNNAME":"善化區","LI":"東關里","LIN":"11鄰","STREET":"中山路","SECT":" ","MAREA":" ","LANE":"４１１巷","ALLEY":" ","HOUSE_NO":"５號","E_COORD97":177354.25,"N_COORD97":2559068.75,"ADDRESS":"中山路４１１巷５號","OBJECTID":400834},"geometry":{"x":177354.25000000093,"y":2559068.75}},{"attributes":{"ID":400859,"DIS_CODE":0,"TOWNNAME":"善化區","LI":"東關里","LIN":"11鄰","STREET":"中山路","SECT":" ","MAREA":" ","LANE":"４１１巷","ALLEY":" ","HOUSE_NO":"３號","E_COORD97":177356.19,"N_COORD97":2559074.5,"ADDRESS":"中山路４１１巷３號","OBJECTID":400835},"geometry":{"x":177356.18999999948,"y":2559074.5000000019}},{"attributes":{"ID":400860,"DIS_CODE":0,"TOWNNAME":"善化區","LI":"東關里","LIN":"11鄰","STREET":"中山路","SECT":" ","MAREA":" ","LANE":"４１１巷","ALLEY":" ","HOUSE_NO":"１號之１","E_COORD97":177357.91,"N_COORD97":2559079.52,"ADDRESS":"中山路４１１巷１號之１","OBJECTID":400836},"geometry":{"x":177357.91000000201,"y":2559079.5199999996}},{"attributes":{"ID":400861,"DIS_CODE":0,"TOWNNAME":"善化區","LI":"光文里","LIN":"11鄰","STREET":"民權路","SECT":" ","MAREA":" ","LANE":"８７巷","ALLEY":" ","HOUSE_NO":"７號","E_COORD97":178559.59,"N_COORD97":2559020.5099999998,"ADDRESS":"民權路８７巷７號","OBJECTID":400837},"geometry":{"x":178559.58999999985,"y":2559020.5100000016}},{"attributes":{"ID":400862,"DIS_CODE":0,"TOWNNAME":"善化區","LI":"西關里","LIN":"11鄰","STREET":"復興街","SECT":" ","MAREA":" ","LANE":"４８巷","ALLEY":" ","HOUSE_NO":"３號","E_COORD97":176942.35000000001,"N_COORD97":2559110.7599999998,"ADDRESS":"復興街４８巷３號","OBJECTID":400838},"geometry":{"x":176942.3499999987,"y":2559110.7600000016}},{"attributes":{"ID":400863,"DIS_CODE":0,"TOWNNAME":"善化區","LI":"光文里","LIN":"11鄰","STREET":"民權路","SECT":" ","MAREA":" ","LANE":"８７巷","ALLEY":" ","HOUSE_NO":"３號","E_COORD97":178558.34,"N_COORD97":2559028.5099999998,"ADDRESS":"民權路８７巷３號","OBJECTID":400839},"geometry":{"x":178558.34000000171,"y":2559028.5099999998}},{"attributes":{"ID":400864,"DIS_CODE":0,"TOWNNAME":"善化區","LI":"西關里","LIN":"11鄰","STREET":"復興街","SECT":" ","MAREA":" ","LANE":"４８巷","ALLEY":" ","HOUSE_NO":"３號之３","E_COORD97":176917.56,"N_COORD97":2559108.27,"ADDRESS":"復興街４８巷３號之３","OBJECTID":400840},"geometry":{"x":176917.56000000052,"y":2559108.2699999996}},{"attributes":{"ID":400865,"DIS_CODE":0,"TOWNNAME":"善化區","LI":"光文里","LIN":"11鄰","STREET":"民權路","SECT":" ","MAREA":" ","LANE":"８７巷","ALLEY":" ","HOUSE_NO":"８號","E_COORD97":178544.04000000001,"N_COORD97":2559017.7599999998,"ADDRESS":"民權路８７巷８號","OBJECTID":400841},"geometry":{"x":178544.04000000097,"y":2559017.7600000035}},{"attributes":{"ID":400866,"DIS_CODE":0,"TOWNNAME":"善化區","LI":"光文里","LIN":"11鄰","STREET":"民權路","SECT":" ","MAREA":" ","LANE":"６５巷","ALLEY":" ","HOUSE_NO":"６號","E_COORD97":178589.63,"N_COORD97":2559029.2599999998,"ADDRESS":"民權路６５巷６號","OBJECTID":400842},"geometry":{"x":178589.62999999989,"y":2559029.2600000016}},{"attributes":{"ID":400867,"DIS_CODE":0,"TOWNNAME":"善化區","LI":"西關里","LIN":"11鄰","STREET":"復興街","SECT":" ","MAREA":" ","LANE":"４８巷","ALLEY":" ","HOUSE_NO":"４號","E_COORD97":176948.26000000001,"N_COORD97":2559077.7599999998,"ADDRESS":"復興街４８巷４號","OBJECTID":400843},"geometry":{"x":176948.26000000164,"y":2559077.7599999998}},{"attributes":{"ID":400868,"DIS_CODE":0,"TOWNNAME":"善化區","LI":"光文里","LIN":"11鄰","STREET":"民權路","SECT":" ","MAREA":" ","LANE":"８７巷","ALLEY":" ","HOUSE_NO":"４號","E_COORD97":178542.92999999999,"N_COORD97":2559025.7599999998,"ADDRESS":"民權路８７巷４號","OBJECTID":400844},"geometry":{"x":178542.93000000063,"y":2559025.7600000016}},{"attributes":{"ID":400869,"DIS_CODE":0,"TOWNNAME":"永康區","LI":"網寮里","LIN":"11鄰","STREET":"永勝街","SECT":" ","MAREA":" ","LANE":"１５５巷","ALLEY":" ","HOUSE_NO":"２號","E_COORD97":173299.62,"N_COORD97":2546459.2999999998,"ADDRESS":"永勝街１５５巷２號","OBJECTID":400845},"geometry":{"x":173299.62000000011,"y":2546459.3000000007}},{"attributes":{"ID":400870,"DIS_CODE":0,"TOWNNAME":"永康區","LI":"網寮里","LIN":"11鄰","STREET":"永勝街","SECT":" ","MAREA":" ","LANE":"２２２巷","ALLEY":" ","HOUSE_NO":"１２號","E_COORD97":173373.39000000001,"N_COORD97":2546505.7999999998,"ADDRESS":"永勝街２２２巷１２號","OBJECTID":400846},"geometry":{"x":173373.38999999966,"y":2546505.8000000026}},{"attributes":{"ID":400871,"DIS_CODE":0,"TOWNNAME":"永康區","LI":"網寮里","LIN":"11鄰","STREET":"永勝街","SECT":" ","MAREA":" ","LANE":"２２２巷","ALLEY":" ","HOUSE_NO":"３號","E_COORD97":173359.12,"N_COORD97":2546520.27,"ADDRESS":"永勝街２２２巷３號","OBJECTID":400847},"geometry":{"x":173359.11999999918,"y":2546520.2699999996}},{"attributes":{"ID":400872,"DIS_CODE":0,"TOWNNAME":"永康區","LI":"網寮里","LIN":"11鄰","STREET":"永勝街","SECT":" ","MAREA":" ","LANE":"２２２巷","ALLEY":" ","HOUSE_NO":"１號","E_COORD97":173354.13,"N_COORD97":2546522.02,"ADDRESS":"永勝街２２２巷１號","OBJECTID":400848},"geometry":{"x":173354.13000000082,"y":2546522.0199999996}},{"attributes":{"ID":400873,"DIS_CODE":0,"TOWNNAME":"永康區","LI":"龍潭里","LIN":"11鄰","STREET":"龍橋街","SECT":" ","MAREA":" ","LANE":"３巷","ALLEY":" ","HOUSE_NO":"３１號","E_COORD97":174795.85000000001,"N_COORD97":2548286.4199999999,"ADDRESS":"龍橋街３巷３１號","OBJECTID":400849},"geometry":{"x":174795.84999999963,"y":2548286.4200000037}},{"attributes":{"ID":400874,"DIS_CODE":0,"TOWNNAME":"永康區","LI":"龍潭里","LIN":"11鄰","STREET":"龍橋街","SECT":" ","MAREA":" ","LANE":"３巷","ALLEY":" ","HOUSE_NO":"１３號","E_COORD97":174836.01999999999,"N_COORD97":2548295.7000000002,"ADDRESS":"龍橋街３巷１３號","OBJECTID":400850},"geometry":{"x":174836.02000000048,"y":2548295.6999999993}},{"attributes":{"ID":400875,"DIS_CODE":0,"TOWNNAME":"中西區","LI":"安海里","LIN":"13鄰","STREET":"環河街","SECT":" ","MAREA":" ","LANE":" ","ALLEY":" ","HOUSE_NO":"１０８號","E_COORD97":167245.89000000001,"N_COORD97":2544029.79,"ADDRESS":"環河街１０８號","OBJECTID":400851},"geometry":{"x":167245.8900000006,"y":2544029.790000001}},{"attributes":{"ID":400876,"DIS_CODE":0,"TOWNNAME":"永康區","LI":"\u25A0行里","LIN":"11鄰","STREET":"中正路","SECT":" ","MAREA":" ","LANE":"５１９巷","ALLEY":" ","HOUSE_NO":"３號","E_COORD97":172178.16,"N_COORD97":2548662.4900000002,"ADDRESS":"中正路５１９巷３號","OBJECTID":400852},"geometry":{"x":172178.16000000108,"y":2548662.4900000039}},{"attributes":{"ID":400877,"DIS_CODE":0,"TOWNNAME":"永康區","LI":"\u25A0行里","LIN":"11鄰","STREET":"中正路","SECT":" ","MAREA":" ","LANE":"５１９巷","ALLEY":" ","HOUSE_NO":"１０號","E_COORD97":172158.29999999999,"N_COORD97":2548657.4900000002,"ADDRESS":"中正路５１９巷１０號","OBJECTID":400853},"geometry":{"x":172158.30000000075,"y":2548657.4900000021}},{"attributes":{"ID":400878,"DIS_CODE":0,"TOWNNAME":"永康區","LI":"龍潭里","LIN":"11鄰","STREET":"龍橋街","SECT":" ","MAREA":" ","LANE":"３巷","ALLEY":" ","HOUSE_NO":"１７號","E_COORD97":174825.63,"N_COORD97":2548289.1699999999,"ADDRESS":"龍橋街３巷１７號","OBJECTID":400854},"geometry":{"x":174825.63000000082,"y":2548289.1700000018}},{"attributes":{"ID":400879,"DIS_CODE":0,"TOWNNAME":"永康區","LI":"\u25A0行里","LIN":"11鄰","STREET":"中正路","SECT":" ","MAREA":" ","LANE":"５１９巷","ALLEY":" ","HOUSE_NO":"２號","E_COORD97":172175.79999999999,"N_COORD97":2548674.2400000002,"ADDRESS":"中正路５１９巷２號","OBJECTID":400855},"geometry":{"x":172175.79999999981,"y":2548674.2399999984}},{"attributes":{"ID":400880,"DIS_CODE":0,"TOWNNAME":"永康區","LI":"龍潭里","LIN":"11鄰","STREET":"龍橋街","SECT":" ","MAREA":" ","LANE":"３巷","ALLEY":" ","HOUSE_NO":"２５號","E_COORD97":174809.34,"N_COORD97":2548303.75,"ADDRESS":"龍橋街３巷２５號","OBJECTID":400856},"geometry":{"x":174809.34000000078,"y":2548303.75}},{"attributes":{"ID":400881,"DIS_CODE":0,"TOWNNAME":"永康區","LI":"\u25A0行里","LIN":"11鄰","STREET":"中正路","SECT":" ","MAREA":" ","LANE":"５１９巷","ALLEY":" ","HOUSE_NO":"７號","E_COORD97":172168.54999999999,"N_COORD97":2548654.2400000002,"ADDRESS":"中正路５１９巷７號","OBJECTID":400857},"geometry":{"x":172168.54999999981,"y":2548654.2400000039}},{"attributes":{"ID":400882,"DIS_CODE":0,"TOWNNAME":"永康區","LI":"龍潭里","LIN":"11鄰","STREET":"龍橋街","SECT":" ","MAREA":" ","LANE":"３巷","ALLEY":" ","HOUSE_NO":"１１號","E_COORD97":174836.13,"N_COORD97":2548279.8300000001,"ADDRESS":"龍橋街３巷１１號","OBJECTID":400858},"geometry":{"x":174836.13000000082,"y":2548279.8300000001}},{"attributes":{"ID":400883,"DIS_CODE":0,"TOWNNAME":"永康區","LI":"\u25A0行里","LIN":"11鄰","STREET":"中正路","SECT":" ","MAREA":" ","LANE":"５１９巷","ALLEY":" ","HOUSE_NO":"６號","E_COORD97":172166.45999999999,"N_COORD97":2548665.7400000002,"ADDRESS":"中正路５１９巷６號","OBJECTID":400859},"geometry":{"x":172166.45999999996,"y":2548665.7400000021}},{"attributes":{"ID":400884,"DIS_CODE":0,"TOWNNAME":"永康區","LI":"\u25A0行里","LIN":"11鄰","STREET":"中正路","SECT":" ","MAREA":" ","LANE":"５１９巷","ALLEY":" ","HOUSE_NO":"１５號","E_COORD97":172152.45999999999,"N_COORD97":2548630.25,"ADDRESS":"中正路５１９巷１５號","OBJECTID":400860},"geometry":{"x":172152.45999999996,"y":2548630.2500000037}},{"attributes":{"ID":400885,"DIS_CODE":0,"TOWNNAME":"永康區","LI":"\u25A0行里","LIN":"11鄰","STREET":"中正路","SECT":" ","MAREA":" ","LANE":"５１９巷","ALLEY":" ","HOUSE_NO":"１４號","E_COORD97":172149.01000000001,"N_COORD97":2548649.2400000002,"ADDRESS":"中正路５１９巷１４號","OBJECTID":400861},"geometry":{"x":172149.00999999978,"y":2548649.2400000002}},{"attributes":{"ID":400886,"DIS_CODE":0,"TOWNNAME":"永康區","LI":"永康里","LIN":"11鄰","STREET":"中山南路","SECT":" ","MAREA":" ","LANE":"１０５４巷","ALLEY":" ","HOUSE_NO":"３９號","E_COORD97":173744.04000000001,"N_COORD97":2547161.75,"ADDRESS":"中山南路１０５４巷３９號","OBJECTID":400862},"geometry":{"x":173744.04000000004,"y":2547161.75}},{"attributes":{"ID":400887,"DIS_CODE":0,"TOWNNAME":"永康區","LI":"復國里","LIN":"11鄰","STREET":"復國一路","SECT":" ","MAREA":" ","LANE":"２８０巷","ALLEY":" ","HOUSE_NO":"３１號","E_COORD97":172834.48999999999,"N_COORD97":2545510.5299999998,"ADDRESS":"復國一路２８０巷３１號","OBJECTID":400863},"geometry":{"x":172834.49000000022,"y":2545510.5299999993}},{"attributes":{"ID":400888,"DIS_CODE":0,"TOWNNAME":"永康區","LI":"網寮里","LIN":"11鄰","STREET":"永勝街","SECT":" ","MAREA":" ","LANE":"２２２巷","ALLEY":" ","HOUSE_NO":"８號","E_COORD97":173362.39999999999,"N_COORD97":2546509.8100000001,"ADDRESS":"永勝街２２２巷８號","OBJECTID":400864},"geometry":{"x":173362.40000000037,"y":2546509.8100000005}},{"attributes":{"ID":400889,"DIS_CODE":0,"TOWNNAME":"永康區","LI":"網寮里","LIN":"11鄰","STREET":"永勝街","SECT":" ","MAREA":" ","LANE":"２２２巷","ALLEY":" ","HOUSE_NO":"２號","E_COORD97":173352.03,"N_COORD97":2546513.3100000001,"ADDRESS":"永勝街２２２巷２號","OBJECTID":400865},"geometry":{"x":173352.03000000119,"y":2546513.3100000005}},{"attributes":{"ID":400890,"DIS_CODE":0,"TOWNNAME":"永康區","LI":"\u25A0行里","LIN":"11鄰","STREET":"中正路","SECT":" ","MAREA":" ","LANE":"５１９巷","ALLEY":" ","HOUSE_NO":"４號","E_COORD97":172171.32000000001,"N_COORD97":2548670.2400000002,"ADDRESS":"中正路５１９巷４號","OBJECTID":400866},"geometry":{"x":172171.31999999937,"y":2548670.2400000002}},{"attributes":{"ID":400891,"DIS_CODE":0,"TOWNNAME":"佳里區","LI":"六安里","LIN":"11鄰","STREET":"延平路","SECT":" ","MAREA":" ","LANE":"６５２巷","ALLEY":" ","HOUSE_NO":"１０號","E_COORD97":165997.84,"N_COORD97":2563323.9900000002,"ADDRESS":"延平路６５２巷１０號","OBJECTID":400867},"geometry":{"x":165997.83999999985,"y":2563323.9900000021}},{"attributes":{"ID":400892,"DIS_CODE":0,"TOWNNAME":"佳里區","LI":"六安里","LIN":"11鄰","STREET":"延平路","SECT":" ","MAREA":" ","LANE":"６５２巷","ALLEY":" ","HOUSE_NO":"１２號","E_COORD97":166001.45000000001,"N_COORD97":2563322,"ADDRESS":"延平路６５２巷１２號","OBJECTID":400868},"geometry":{"x":166001.45000000019,"y":2563322}},{"attributes":{"ID":400893,"DIS_CODE":0,"TOWNNAME":"佳里區","LI":"六安里","LIN":"11鄰","STREET":"延平路","SECT":" ","MAREA":" ","LANE":"６５２巷","ALLEY":" ","HOUSE_NO":"２５號","E_COORD97":166045.57000000001,"N_COORD97":2563316.1699999999,"ADDRESS":"延平路６５２巷２５號","OBJECTID":400869},"geometry":{"x":166045.57000000123,"y":2563316.1699999999}},{"attributes":{"ID":400894,"DIS_CODE":0,"TOWNNAME":"東區","LI":"崇學里","LIN":"11鄰","STREET":"崇明十一街","SECT":" ","MAREA":" ","LANE":"３１巷","ALLEY":" ","HOUSE_NO":"１９號","E_COORD97":170275.54999999999,"N_COORD97":2541863.96,"ADDRESS":"崇明十一街３１巷１９號","OBJECTID":400870},"geometry":{"x":170275.54999999981,"y":2541863.9600000028}},{"attributes":{"ID":400895,"DIS_CODE":0,"TOWNNAME":"東區","LI":"崇學里","LIN":"11鄰","STREET":"崇明十一街","SECT":" ","MAREA":" ","LANE":"３１巷","ALLEY":" ","HOUSE_NO":"１號","E_COORD97":170303.19,"N_COORD97":2541839.4100000001,"ADDRESS":"崇明十一街３１巷１號","OBJECTID":400871},"geometry":{"x":170303.19000000134,"y":2541839.410000002}},{"attributes":{"ID":400896,"DIS_CODE":0,"TOWNNAME":"東區","LI":"崇學里","LIN":"11鄰","STREET":"崇明十一街","SECT":" ","MAREA":" ","LANE":"３１巷","ALLEY":" ","HOUSE_NO":"２０號","E_COORD97":170262.03,"N_COORD97":2541899.1899999999,"ADDRESS":"崇明十一街３１巷２０號","OBJECTID":400872},"geometry":{"x":170262.03000000026,"y":2541899.1899999995}},{"attributes":{"ID":400897,"DIS_CODE":0,"TOWNNAME":"東區","LI":"崇學里","LIN":"11鄰","STREET":"崇明十一街","SECT":" ","MAREA":" ","LANE":"３１巷","ALLEY":" ","HOUSE_NO":"２１號","E_COORD97":170272.07999999999,"N_COORD97":2541867.4199999999,"ADDRESS":"崇明十一街３１巷２１號","OBJECTID":400873},"geometry":{"x":170272.08000000007,"y":2541867.4199999999}},{"attributes":{"ID":400898,"DIS_CODE":0,"TOWNNAME":"東區","LI":"崇學里","LIN":"11鄰","STREET":"崇明十一街","SECT":" ","MAREA":" ","LANE":"３１巷","ALLEY":" ","HOUSE_NO":"２３號","E_COORD97":170268.37,"N_COORD97":2541870.29,"ADDRESS":"崇明十一街３１巷２３號","OBJECTID":400874},"geometry":{"x":170268.37000000011,"y":2541870.2899999991}},{"attributes":{"ID":400899,"DIS_CODE":0,"TOWNNAME":"東區","LI":"崇學里","LIN":"11鄰","STREET":"崇明十一街","SECT":" ","MAREA":" ","LANE":"３１巷","ALLEY":" ","HOUSE_NO":"２５號","E_COORD97":170265.38,"N_COORD97":2541873.6400000001,"ADDRESS":"崇明十一街３１巷２５號","OBJECTID":400875},"geometry":{"x":170265.38000000082,"y":2541873.6400000006}},{"attributes":{"ID":400900,"DIS_CODE":0,"TOWNNAME":"東區","LI":"崇學里","LIN":"11鄰","STREET":"榮譽街","SECT":" ","MAREA":" ","LANE":"２９０巷","ALLEY":" ","HOUSE_NO":"５６號","E_COORD97":170297.56,"N_COORD97":2541914.4900000002,"ADDRESS":"榮譽街２９０巷５６號","OBJECTID":400876},"geometry":{"x":170297.56000000145,"y":2541914.4900000002}},{"attributes":{"ID":400901,"DIS_CODE":0,"TOWNNAME":"東區","LI":"崇學里","LIN":"11鄰","STREET":"榮譽街","SECT":" ","MAREA":" ","LANE":"２９０巷","ALLEY":" ","HOUSE_NO":"５８號","E_COORD97":170300.20000000001,"N_COORD97":2541912.46,"ADDRESS":"榮譽街２９０巷５８號","OBJECTID":400877},"geometry":{"x":170300.20000000019,"y":2541912.4600000009}},{"attributes":{"ID":400902,"DIS_CODE":0,"TOWNNAME":"永康區","LI":"\u25A0行里","LIN":"11鄰","STREET":"中正路","SECT":" ","MAREA":" ","LANE":"５１９巷","ALLEY":" ","HOUSE_NO":"１６號","E_COORD97":172144.70999999999,"N_COORD97":2548645.2400000002,"ADDRESS":"中正路５１９巷１６號","OBJECTID":400878},"geometry":{"x":172144.71000000183,"y":2548645.2400000021}},{"attributes":{"ID":400903,"DIS_CODE":0,"TOWNNAME":"永康區","LI":"\u25A0洲里","LIN":"11鄰","STREET":"\u25A0行路","SECT":" ","MAREA":" ","LANE":"１４６巷","ALLEY":" ","HOUSE_NO":"３號","E_COORD97":171411.78,"N_COORD97":2549251.3900000001,"ADDRESS":"\u25A0行路１４６巷３號","OBJECTID":400879},"geometry":{"x":171411.78000000026,"y":2549251.3900000025}},{"attributes":{"ID":400904,"DIS_CODE":0,"TOWNNAME":"永康區","LI":"\u25A0行里","LIN":"11鄰","STREET":"中正路","SECT":" ","MAREA":" ","LANE":"５１９巷","ALLEY":" ","HOUSE_NO":"２２號","E_COORD97":172130.42000000001,"N_COORD97":2548632.4900000002,"ADDRESS":"中正路５１９巷２２號","OBJECTID":400880},"geometry":{"x":172130.42000000086,"y":2548632.4900000021}},{"attributes":{"ID":400905,"DIS_CODE":0,"TOWNNAME":"永康區","LI":"成功里","LIN":"11鄰","STREET":"忠孝路","SECT":" ","MAREA":" ","LANE":"１９９巷","ALLEY":" ","HOUSE_NO":"３５號","E_COORD97":172009.89999999999,"N_COORD97":2544849.9900000002,"ADDRESS":"忠孝路１９９巷３５號","OBJECTID":400881},"geometry":{"x":172009.90000000224,"y":2544849.9900000021}},{"attributes":{"ID":400906,"DIS_CODE":0,"TOWNNAME":"新營區","LI":"王公里","LIN":"11鄰","STREET":"義和街","SECT":" ","MAREA":" ","LANE":"２０巷","ALLEY":" ","HOUSE_NO":"２號之１","E_COORD97":180497.64000000001,"N_COORD97":2579093.1400000001,"ADDRESS":"義和街２０巷２號之１","OBJECTID":400882},"geometry":{"x":180497.6400000006,"y":2579093.1400000006}},{"attributes":{"ID":400907,"DIS_CODE":0,"TOWNNAME":"新營區","LI":"興業里","LIN":"11鄰","STREET":"中興路","SECT":" ","MAREA":" ","LANE":"１３巷","ALLEY":" ","HOUSE_NO":"２９號","E_COORD97":180272.26000000001,"N_COORD97":2577977.8300000001,"ADDRESS":"中興路１３巷２９號","OBJECTID":400883},"geometry":{"x":180272.25999999978,"y":2577977.8300000019}},{"attributes":{"ID":400908,"DIS_CODE":0,"TOWNNAME":"安平區","LI":"華平里","LIN":"11鄰","STREET":"怡平路","SECT":" ","MAREA":" ","LANE":"４４２巷","ALLEY":" ","HOUSE_NO":"１０５號之２","E_COORD97":165299.44,"N_COORD97":2544070.5699999998,"ADDRESS":"怡平路４４２巷１０５號之２","OBJECTID":400884},"geometry":{"x":165299.44000000041,"y":2544070.5700000003}},{"attributes":{"ID":400909,"DIS_CODE":0,"TOWNNAME":"安平區","LI":"華平里","LIN":"11鄰","STREET":"怡平路","SECT":" ","MAREA":" ","LANE":"４４２巷","ALLEY":" ","HOUSE_NO":"１０５號之３","E_COORD97":165294.41,"N_COORD97":2544070.7400000002,"ADDRESS":"怡平路４４２巷１０５號之３","OBJECTID":400885},"geometry":{"x":165294.41000000015,"y":2544070.7400000021}},{"attributes":{"ID":400910,"DIS_CODE":0,"TOWNNAME":"安平區","LI":"華平里","LIN":"11鄰","STREET":"怡平路","SECT":" ","MAREA":" ","LANE":"４４２巷","ALLEY":" ","HOUSE_NO":"１０７號之１","E_COORD97":165306.31,"N_COORD97":2544079.4399999999,"ADDRESS":"怡平路４４２巷１０７號之１","OBJECTID":400886},"geometry":{"x":165306.30999999959,"y":2544079.4400000013}},{"attributes":{"ID":400911,"DIS_CODE":0,"TOWNNAME":"安平區","LI":"華平里","LIN":"11鄰","STREET":"怡平路","SECT":" ","MAREA":" ","LANE":"４４２巷","ALLEY":" ","HOUSE_NO":"１０７號之２","E_COORD97":165300.95000000001,"N_COORD97":2544080.1099999999,"ADDRESS":"怡平路４４２巷１０７號之２","OBJECTID":400887},"geometry":{"x":165300.95000000019,"y":2544080.1099999994}},{"attributes":{"ID":400912,"DIS_CODE":0,"TOWNNAME":"安平區","LI":"華平里","LIN":"11鄰","STREET":"怡平路","SECT":" ","MAREA":" ","LANE":"４４２巷","ALLEY":" ","HOUSE_NO":"１０７號之３","E_COORD97":165294.73999999999,"N_COORD97":2544080.9500000002,"ADDRESS":"怡平路４４２巷１０７號之３","OBJECTID":400888},"geometry":{"x":165294.74000000115,"y":2544080.9499999993}},{"attributes":{"ID":400913,"DIS_CODE":0,"TOWNNAME":"安平區","LI":"華平里","LIN":"11鄰","STREET":"怡平路","SECT":" ","MAREA":" ","LANE":"４４２巷","ALLEY":" ","HOUSE_NO":"６１號","E_COORD97":165299.91,"N_COORD97":2543993.1800000002,"ADDRESS":"怡平路４４２巷６１號","OBJECTID":400889},"geometry":{"x":165299.90999999922,"y":2543993.1800000016}},{"attributes":{"ID":400914,"DIS_CODE":0,"TOWNNAME":"安平區","LI":"華平里","LIN":"11鄰","STREET":"怡平路","SECT":" ","MAREA":" ","LANE":"４４２巷","ALLEY":" ","HOUSE_NO":"６３號之１","E_COORD97":165286.48999999999,"N_COORD97":2543996.7000000002,"ADDRESS":"怡平路４４２巷６３號之１","OBJECTID":400890},"geometry":{"x":165286.49000000115,"y":2543996.6999999993}},{"attributes":{"ID":400915,"DIS_CODE":0,"TOWNNAME":"安平區","LI":"華平里","LIN":"11鄰","STREET":"怡平路","SECT":" ","MAREA":" ","LANE":"４４２巷","ALLEY":" ","HOUSE_NO":"６３號之２","E_COORD97":165287.16,"N_COORD97":2544004.73,"ADDRESS":"怡平路４４２巷６３號之２","OBJECTID":400891},"geometry":{"x":165287.16000000108,"y":2544004.7300000004}},{"attributes":{"ID":400916,"DIS_CODE":0,"TOWNNAME":"安平區","LI":"華平里","LIN":"11鄰","STREET":"怡平路","SECT":" ","MAREA":" ","LANE":"４４２巷","ALLEY":" ","HOUSE_NO":"６３號之３","E_COORD97":165288.84,"N_COORD97":2544015.6200000001,"ADDRESS":"怡平路４４２巷６３號之３","OBJECTID":400892},"geometry":{"x":165288.84000000078,"y":2544015.6200000029}},{"attributes":{"ID":400917,"DIS_CODE":0,"TOWNNAME":"安平區","LI":"華平里","LIN":"11鄰","STREET":"怡平路","SECT":" ","MAREA":" ","LANE":"４４２巷","ALLEY":" ","HOUSE_NO":"６３號之４","E_COORD97":165289.17999999999,"N_COORD97":2544026.3300000001,"ADDRESS":"怡平路４４２巷６３號之４","OBJECTID":400893},"geometry":{"x":165289.17999999877,"y":2544026.3300000019}},{"attributes":{"ID":400918,"DIS_CODE":0,"TOWNNAME":"安平區","LI":"金城里","LIN":"11鄰","STREET":"同平路","SECT":" ","MAREA":" ","LANE":"１５６巷","ALLEY":" ","HOUSE_NO":"７號","E_COORD97":163109.75,"N_COORD97":2543977.3500000001,"ADDRESS":"同平路１５６巷７號","OBJECTID":400894},"geometry":{"x":163109.75000000093,"y":2543977.3500000034}},{"attributes":{"ID":400919,"DIS_CODE":0,"TOWNNAME":"安平區","LI":"金城里","LIN":"11鄰","STREET":"同平路","SECT":" ","MAREA":" ","LANE":"１５６巷","ALLEY":" ","HOUSE_NO":"９號","E_COORD97":163094.06,"N_COORD97":2543976.8799999999,"ADDRESS":"同平路１５６巷９號","OBJECTID":400895},"geometry":{"x":163094.05999999959,"y":2543976.8800000008}},{"attributes":{"ID":400920,"DIS_CODE":0,"TOWNNAME":"安平區","LI":"金城里","LIN":"11鄰","STREET":"同平路","SECT":" ","MAREA":" ","LANE":"１５６巷","ALLEY":" ","HOUSE_NO":"１５號","E_COORD97":163085.29000000001,"N_COORD97":2543990.8799999999,"ADDRESS":"同平路１５６巷１５號","OBJECTID":400896},"geometry":{"x":163085.29000000097,"y":2543990.8800000008}},{"attributes":{"ID":400921,"DIS_CODE":0,"TOWNNAME":"安平區","LI":"金城里","LIN":"11鄰","STREET":"同平路","SECT":" ","MAREA":" ","LANE":"１５６巷","ALLEY":" ","HOUSE_NO":"１７號","E_COORD97":163080.37,"N_COORD97":2543990.0899999999,"ADDRESS":"同平路１５６巷１７號","OBJECTID":400897},"geometry":{"x":163080.37000000104,"y":2543990.0900000017}},{"attributes":{"ID":400922,"DIS_CODE":0,"TOWNNAME":"安平區","LI":"金城里","LIN":"11鄰","STREET":"同平路","SECT":" ","MAREA":" ","LANE":"１５６巷","ALLEY":" ","HOUSE_NO":"３１號","E_COORD97":163040.67000000001,"N_COORD97":2543986.29,"ADDRESS":"同平路１５６巷３１號","OBJECTID":400898},"geometry":{"x":163040.67000000086,"y":2543986.2899999991}},{"attributes":{"ID":400923,"DIS_CODE":0,"TOWNNAME":"安平區","LI":"華平里","LIN":"11鄰","STREET":"怡平路","SECT":" ","MAREA":" ","LANE":"４４２巷","ALLEY":" ","HOUSE_NO":"８６號","E_COORD97":165318.38,"N_COORD97":2544029.3599999999,"ADDRESS":"怡平路４４２巷８６號","OBJECTID":400899},"geometry":{"x":165318.37999999989,"y":2544029.3600000013}},{"attributes":{"ID":400924,"DIS_CODE":0,"TOWNNAME":"北區","LI":"中樓里","LIN":"11鄰","STREET":"開元路","SECT":" ","MAREA":" ","LANE":"６６巷","ALLEY":" ","HOUSE_NO":"１１號","E_COORD97":169733.13,"N_COORD97":2545109.6499999999,"ADDRESS":"開元路６６巷１１號","OBJECTID":400900},"geometry":{"x":169733.13000000082,"y":2545109.6500000022}},{"attributes":{"ID":400925,"DIS_CODE":0,"TOWNNAME":"北區","LI":"中樓里","LIN":"11鄰","STREET":"開元路","SECT":" ","MAREA":" ","LANE":"６６巷","ALLEY":" ","HOUSE_NO":"３３號","E_COORD97":169756.73999999999,"N_COORD97":2545032,"ADDRESS":"開元路６６巷３３號","OBJECTID":400901},"geometry":{"x":169756.74000000115,"y":2545032.0000000019}},{"attributes":{"ID":400926,"DIS_CODE":0,"TOWNNAME":"北區","LI":"中樓里","LIN":"11鄰","STREET":"開元路","SECT":" ","MAREA":" ","LANE":"６６巷","ALLEY":" ","HOUSE_NO":"３５號","E_COORD97":169760.59,"N_COORD97":2545020.3599999999,"ADDRESS":"開元路６６巷３５號","OBJECTID":400902},"geometry":{"x":169760.59000000078,"y":2545020.3599999994}},{"attributes":{"ID":400927,"DIS_CODE":0,"TOWNNAME":"北區","LI":"中樓里","LIN":"11鄰","STREET":"開元路","SECT":" ","MAREA":" ","LANE":"６６巷","ALLEY":" ","HOUSE_NO":"３號","E_COORD97":169728.04000000001,"N_COORD97":2545126.6800000002,"ADDRESS":"開元路６６巷３號","OBJECTID":400903},"geometry":{"x":169728.04000000004,"y":2545126.6799999997}},{"attributes":{"ID":400928,"DIS_CODE":0,"TOWNNAME":"北區","LI":"中樓里","LIN":"11鄰","STREET":"開元路","SECT":" ","MAREA":" ","LANE":"６６巷","ALLEY":" ","HOUSE_NO":"５號","E_COORD97":169729.73999999999,"N_COORD97":2545122.1299999999,"ADDRESS":"開元路６６巷５號","OBJECTID":400904},"geometry":{"x":169729.74000000115,"y":2545122.1300000008}},{"attributes":{"ID":400929,"DIS_CODE":0,"TOWNNAME":"北區","LI":"中樓里","LIN":"11鄰","STREET":"開元路","SECT":" ","MAREA":" ","LANE":"６６巷","ALLEY":" ","HOUSE_NO":"７號","E_COORD97":169730.59,"N_COORD97":2545118.5800000001,"ADDRESS":"開元路６６巷７號","OBJECTID":400905},"geometry":{"x":169730.58999999985,"y":2545118.5800000001}},{"attributes":{"ID":400930,"DIS_CODE":0,"TOWNNAME":"北區","LI":"中樓里","LIN":"11鄰","STREET":"開元路","SECT":" ","MAREA":" ","LANE":"６６巷","ALLEY":" ","HOUSE_NO":"９號","E_COORD97":169731.98000000001,"N_COORD97":2545113.96,"ADDRESS":"開元路６６巷９號","OBJECTID":400906},"geometry":{"x":169731.98000000045,"y":2545113.9600000046}},{"attributes":{"ID":400931,"DIS_CODE":0,"TOWNNAME":"東區","LI":"德光里","LIN":"11鄰","STREET":"崇德三街","SECT":" ","MAREA":" ","LANE":"６２巷","ALLEY":" ","HOUSE_NO":"３號","E_COORD97":170295.57999999999,"N_COORD97":2542255.1899999999,"ADDRESS":"崇德三街６２巷３號","OBJECTID":400907},"geometry":{"x":170295.58000000007,"y":2542255.1899999995}},{"attributes":{"ID":400932,"DIS_CODE":0,"TOWNNAME":"歸仁區","LI":"歸南里","LIN":"11鄰","STREET":"民生南街","SECT":"二段","MAREA":" ","LANE":"１９１巷","ALLEY":" ","HOUSE_NO":"１０號","E_COORD97":176123.39000000001,"N_COORD97":2540150.29,"ADDRESS":"民生南街二段１９１巷１０號","OBJECTID":400908},"geometry":{"x":176123.39000000153,"y":2540150.290000001}},{"attributes":{"ID":400933,"DIS_CODE":0,"TOWNNAME":"歸仁區","LI":"歸南里","LIN":"11鄰","STREET":"民生南街","SECT":"二段","MAREA":" ","LANE":"１９１巷","ALLEY":" ","HOUSE_NO":"３９號","E_COORD97":176180.98999999999,"N_COORD97":2540172.29,"ADDRESS":"民生南街二段１９１巷３９號","OBJECTID":400909},"geometry":{"x":176180.99000000209,"y":2540172.2899999991}},{"attributes":{"ID":400934,"DIS_CODE":0,"TOWNNAME":"歸仁區","LI":"南興里","LIN":"11鄰","STREET":"民生二街","SECT":" ","MAREA":" ","LANE":"１４６巷","ALLEY":" ","HOUSE_NO":"２１號","E_COORD97":176008.98999999999,"N_COORD97":2541368.29,"ADDRESS":"民生二街１４６巷２１號","OBJECTID":400910},"geometry":{"x":176008.99000000022,"y":2541368.290000001}},{"attributes":{"ID":400935,"DIS_CODE":0,"TOWNNAME":"歸仁區","LI":"六甲里","LIN":"11鄰","STREET":"中正南路","SECT":"一段","MAREA":" ","LANE":"１２６３巷","ALLEY":" ","HOUSE_NO":"１９號","E_COORD97":175979.41,"N_COORD97":2537735.2799999998,"ADDRESS":"中正南路一段１２６３巷１９號","OBJECTID":400911},"geometry":{"x":175979.41000000015,"y":2537735.2799999993}},{"attributes":{"ID":400936,"DIS_CODE":0,"TOWNNAME":"歸仁區","LI":"七甲里","LIN":"11鄰","STREET":"南丁路","SECT":" ","MAREA":" ","LANE":"７３巷","ALLEY":" ","HOUSE_NO":"６４號","E_COORD97":175948.89000000001,"N_COORD97":2541746.25,"ADDRESS":"南丁路７３巷６４號","OBJECTID":400912},"geometry":{"x":175948.89000000153,"y":2541746.25}},{"attributes":{"ID":400937,"DIS_CODE":0,"TOWNNAME":"歸仁區","LI":"武東里","LIN":"11鄰","STREET":"中正南路","SECT":"二段","MAREA":" ","LANE":"２１４巷","ALLEY":" ","HOUSE_NO":"１２號","E_COORD97":175382.56,"N_COORD97":2535513.2799999998,"ADDRESS":"中正南路二段２１４巷１２號","OBJECTID":400913},"geometry":{"x":175382.55999999959,"y":2535513.2800000012}},{"attributes":{"ID":400938,"DIS_CODE":0,"TOWNNAME":"楠西區","LI":"東勢里","LIN":"11鄰","STREET":"信義路","SECT":" ","MAREA":" ","LANE":"２０７巷","ALLEY":" ","HOUSE_NO":"１６號","E_COORD97":197651.01999999999,"N_COORD97":2563935.27,"ADDRESS":"信義路２０７巷１６號","OBJECTID":400914},"geometry":{"x":197651.01999999955,"y":2563935.2700000014}},{"attributes":{"ID":400939,"DIS_CODE":0,"TOWNNAME":"楠西區","LI":"東勢里","LIN":"11鄰","STREET":"東勢路","SECT":" ","MAREA":" ","LANE":"３９巷","ALLEY":" ","HOUSE_NO":"１３號","E_COORD97":197631.76999999999,"N_COORD97":2564040.29,"ADDRESS":"東勢路３９巷１３號","OBJECTID":400915},"geometry":{"x":197631.77000000048,"y":2564040.2899999991}},{"attributes":{"ID":400940,"DIS_CODE":0,"TOWNNAME":"楠西區","LI":"東勢里","LIN":"11鄰","STREET":"信義路","SECT":" ","MAREA":" ","LANE":"２５５巷","ALLEY":" ","HOUSE_NO":"７號","E_COORD97":197664.37,"N_COORD97":2564032.27,"ADDRESS":"信義路２５５巷７號","OBJECTID":400916},"geometry":{"x":197664.37000000011,"y":2564032.2700000014}},{"attributes":{"ID":400941,"DIS_CODE":0,"TOWNNAME":"新營區","LI":"興業里","LIN":"11鄰","STREET":"中興路","SECT":" ","MAREA":" ","LANE":"１３巷","ALLEY":" ","HOUSE_NO":"２７號","E_COORD97":180263.04999999999,"N_COORD97":2577977.8799999999,"ADDRESS":"中興路１３巷２７號","OBJECTID":400917},"geometry":{"x":180263.04999999981,"y":2577977.879999999}},{"attributes":{"ID":400942,"DIS_CODE":0,"TOWNNAME":"東區","LI":"東智里","LIN":"6鄰","STREET":"德東街","SECT":" ","MAREA":" ","LANE":"１６巷","ALLEY":" ","HOUSE_NO":"４號","E_COORD97":170840.57999999999,"N_COORD97":2540213.9900000002,"ADDRESS":"德東街１６巷４號","OBJECTID":400918},"geometry":{"x":170840.58000000101,"y":2540213.9900000039}},{"attributes":{"ID":400943,"DIS_CODE":0,"TOWNNAME":"安平區","LI":"華平里","LIN":"11鄰","STREET":"怡平路","SECT":" ","MAREA":" ","LANE":"４４２巷","ALLEY":" ","HOUSE_NO":"１１３號地下層","E_COORD97":165315.48000000001,"N_COORD97":2544100.46,"ADDRESS":"怡平路４４２巷１１３號地下層","OBJECTID":400919},"geometry":{"x":165315.48000000138,"y":2544100.4600000028}},{"attributes":{"ID":400944,"DIS_CODE":0,"TOWNNAME":"安平區","LI":"國平里","LIN":"11鄰","STREET":"建平一街","SECT":" ","MAREA":" ","LANE":"２０２巷","ALLEY":" ","HOUSE_NO":"３２號","E_COORD97":165597.73000000001,"N_COORD97":2542870.5699999998,"ADDRESS":"建平一街２０２巷３２號","OBJECTID":400920},"geometry":{"x":165597.73000000045,"y":2542870.5700000003}},{"attributes":{"ID":400945,"DIS_CODE":0,"TOWNNAME":"安平區","LI":"國平里","LIN":"11鄰","STREET":"建平一街","SECT":" ","MAREA":" ","LANE":"２０２巷","ALLEY":" ","HOUSE_NO":"３４號","E_COORD97":165598.73999999999,"N_COORD97":2542877.4300000002,"ADDRESS":"建平一街２０２巷３４號","OBJECTID":400921},"geometry":{"x":165598.74000000115,"y":2542877.4299999997}},{"attributes":{"ID":400946,"DIS_CODE":0,"TOWNNAME":"安平區","LI":"國平里","LIN":"11鄰","STREET":"建平一街","SECT":" ","MAREA":" ","LANE":"２０２巷","ALLEY":" ","HOUSE_NO":"３６號","E_COORD97":165599.75,"N_COORD97":2542887.3599999999,"ADDRESS":"建平一街２０２巷３６號","OBJECTID":400922},"geometry":{"x":165599.75000000093,"y":2542887.3599999994}},{"attributes":{"ID":400947,"DIS_CODE":0,"TOWNNAME":"安平區","LI":"國平里","LIN":"11鄰","STREET":"建平一街","SECT":" ","MAREA":" ","LANE":"２０２巷","ALLEY":" ","HOUSE_NO":"３８號","E_COORD97":165601.23999999999,"N_COORD97":2542899.3900000001,"ADDRESS":"建平一街２０２巷３８號","OBJECTID":400923},"geometry":{"x":165601.23999999929,"y":2542899.3900000006}},{"attributes":{"ID":400948,"DIS_CODE":0,"TOWNNAME":"安平區","LI":"國平里","LIN":"11鄰","STREET":"建平一街","SECT":" ","MAREA":" ","LANE":"２０２巷","ALLEY":" ","HOUSE_NO":"４０號","E_COORD97":165602.66,"N_COORD97":2542910.2000000002,"ADDRESS":"建平一街２０２巷４０號","OBJECTID":400924},"geometry":{"x":165602.66000000015,"y":2542910.200000003}},{"attributes":{"ID":400949,"DIS_CODE":0,"TOWNNAME":"北區","LI":"大道里","LIN":"11鄰","STREET":"北門路","SECT":"二段","MAREA":" ","LANE":"５２７巷","ALLEY":" ","HOUSE_NO":"７號","E_COORD97":169596.32000000001,"N_COORD97":2545592.9500000002,"ADDRESS":"北門路二段５２７巷７號","OBJECTID":400925},"geometry":{"x":169596.31999999937,"y":2545592.9499999993}},{"attributes":{"ID":400950,"DIS_CODE":0,"TOWNNAME":"北區","LI":"大道里","LIN":"11鄰","STREET":"北門路","SECT":"二段","MAREA":" ","LANE":"５２７巷","ALLEY":" ","HOUSE_NO":"９號","E_COORD97":169593.78,"N_COORD97":2545585.0099999998,"ADDRESS":"北門路二段５２７巷９號","OBJECTID":400926},"geometry":{"x":169593.78000000119,"y":2545585.0100000016}},{"attributes":{"ID":400951,"DIS_CODE":0,"TOWNNAME":"北區","LI":"三德里","LIN":"11鄰","STREET":"裕民街","SECT":" ","MAREA":" ","LANE":"６９巷","ALLEY":" ","HOUSE_NO":"１０號","E_COORD97":168445.59,"N_COORD97":2544547.75,"ADDRESS":"裕民街６９巷１０號","OBJECTID":400927},"geometry":{"x":168445.59000000078,"y":2544547.75}},{"attributes":{"ID":400952,"DIS_CODE":0,"TOWNNAME":"北區","LI":"三德里","LIN":"11鄰","STREET":"裕民街","SECT":" ","MAREA":" ","LANE":"６９巷","ALLEY":" ","HOUSE_NO":"１２號","E_COORD97":168442.95000000001,"N_COORD97":2544550.1099999999,"ADDRESS":"裕民街６９巷１２號","OBJECTID":400928},"geometry":{"x":168442.95000000112,"y":2544550.1099999994}},{"attributes":{"ID":400953,"DIS_CODE":0,"TOWNNAME":"北區","LI":"三德里","LIN":"11鄰","STREET":"裕民街","SECT":" ","MAREA":" ","LANE":"６９巷","ALLEY":" ","HOUSE_NO":"２號","E_COORD97":168471.91,"N_COORD97":2544530.0899999999,"ADDRESS":"裕民街６９巷２號","OBJECTID":400929},"geometry":{"x":168471.91000000108,"y":2544530.0900000017}},{"attributes":{"ID":400954,"DIS_CODE":0,"TOWNNAME":"北區","LI":"三德里","LIN":"11鄰","STREET":"裕民街","SECT":" ","MAREA":" ","LANE":"６９巷","ALLEY":" ","HOUSE_NO":"６號","E_COORD97":168456.17000000001,"N_COORD97":2544539.4100000001,"ADDRESS":"裕民街６９巷６號","OBJECTID":400930},"geometry":{"x":168456.17000000179,"y":2544539.4100000001}},{"attributes":{"ID":400955,"DIS_CODE":0,"TOWNNAME":"東區","LI":"東智里","LIN":"8鄰","STREET":"長東街","SECT":" ","MAREA":" ","LANE":"１０８巷","ALLEY":" ","HOUSE_NO":"５３號","E_COORD97":170895,"N_COORD97":2540198.48,"ADDRESS":"長東街１０８巷５３號","OBJECTID":400931},"geometry":{"x":170894.99999999907,"y":2540198.4800000023}},{"attributes":{"ID":400956,"DIS_CODE":0,"TOWNNAME":"東區","LI":"東智里","LIN":"8鄰","STREET":"長東街","SECT":" ","MAREA":" ","LANE":"１０８巷","ALLEY":" ","HOUSE_NO":"５５號","E_COORD97":170888.98999999999,"N_COORD97":2540198.79,"ADDRESS":"長東街１０８巷５５號","OBJECTID":400932},"geometry":{"x":170888.99000000115,"y":2540198.7899999991}},{"attributes":{"ID":400957,"DIS_CODE":0,"TOWNNAME":"北區","LI":"三德里","LIN":"11鄰","STREET":"裕民街","SECT":" ","MAREA":" ","LANE":"８３巷","ALLEY":" ","HOUSE_NO":"１１號","E_COORD97":168460.63,"N_COORD97":2544562.7599999998,"ADDRESS":"裕民街８３巷１１號","OBJECTID":400933},"geometry":{"x":168460.63000000082,"y":2544562.7600000016}},{"attributes":{"ID":400958,"DIS_CODE":0,"TOWNNAME":"北區","LI":"三德里","LIN":"11鄰","STREET":"裕民街","SECT":" ","MAREA":" ","LANE":"８３巷","ALLEY":" ","HOUSE_NO":"１３號","E_COORD97":168463.54999999999,"N_COORD97":2544557.3399999999,"ADDRESS":"裕民街８３巷１３號","OBJECTID":400934},"geometry":{"x":168463.54999999888,"y":2544557.3400000036}},{"attributes":{"ID":400959,"DIS_CODE":0,"TOWNNAME":"北區","LI":"五福里","LIN":"11鄰","STREET":"成功路","SECT":" ","MAREA":" ","LANE":"２３８巷","ALLEY":" ","HOUSE_NO":"２０號","E_COORD97":168313.42999999999,"N_COORD97":2544470.8999999999,"ADDRESS":"成功路２３８巷２０號","OBJECTID":400935},"geometry":{"x":168313.43000000156,"y":2544470.9000000022}},{"attributes":{"ID":400960,"DIS_CODE":0,"TOWNNAME":"北區","LI":"大豐里","LIN":"11鄰","STREET":"和緯路","SECT":"四段","MAREA":" ","LANE":"９５巷","ALLEY":" ","HOUSE_NO":"４２號","E_COORD97":167091.42999999999,"N_COORD97":2545340.5800000001,"ADDRESS":"和緯路四段９５巷４２號","OBJECTID":400936},"geometry":{"x":167091.43000000063,"y":2545340.5800000019}},{"attributes":{"ID":400961,"DIS_CODE":0,"TOWNNAME":"北區","LI":"大豐里","LIN":"11鄰","STREET":"和緯路","SECT":"四段","MAREA":" ","LANE":"９５巷","ALLEY":" ","HOUSE_NO":"４４號","E_COORD97":167090.89999999999,"N_COORD97":2545331.02,"ADDRESS":"和緯路四段９５巷４４號","OBJECTID":400937},"geometry":{"x":167090.9000000013,"y":2545331.0199999996}},{"attributes":{"ID":400962,"DIS_CODE":0,"TOWNNAME":"北區","LI":"大豐里","LIN":"11鄰","STREET":"和緯路","SECT":"四段","MAREA":" ","LANE":"９５巷","ALLEY":" ","HOUSE_NO":"４６號","E_COORD97":167090.45999999999,"N_COORD97":2545327.1299999999,"ADDRESS":"和緯路四段９５巷４６號","OBJECTID":400938},"geometry":{"x":167090.46000000089,"y":2545327.129999999}},{"attributes":{"ID":400963,"DIS_CODE":0,"TOWNNAME":"北區","LI":"大豐里","LIN":"11鄰","STREET":"和緯路","SECT":"四段","MAREA":" ","LANE":"９５巷","ALLEY":" ","HOUSE_NO":"４８號","E_COORD97":167089.84,"N_COORD97":2545317.9199999999,"ADDRESS":"和緯路四段９５巷４８號","OBJECTID":400939},"geometry":{"x":167089.83999999985,"y":2545317.9200000018}},{"attributes":{"ID":400964,"DIS_CODE":0,"TOWNNAME":"北區","LI":"大豐里","LIN":"11鄰","STREET":"和緯路","SECT":"四段","MAREA":" ","LANE":"９５巷","ALLEY":" ","HOUSE_NO":"５０號","E_COORD97":167089.23000000001,"N_COORD97":2545314.3900000001,"ADDRESS":"和緯路四段９５巷５０號","OBJECTID":400940},"geometry":{"x":167089.23000000045,"y":2545314.3900000025}},{"attributes":{"ID":400965,"DIS_CODE":0,"TOWNNAME":"北區","LI":"大豐里","LIN":"11鄰","STREET":"和緯路","SECT":"四段","MAREA":" ","LANE":"９５巷","ALLEY":" ","HOUSE_NO":"５２號","E_COORD97":167088.26000000001,"N_COORD97":2545305.0899999999,"ADDRESS":"和緯路四段９５巷５２號","OBJECTID":400941},"geometry":{"x":167088.25999999978,"y":2545305.0900000036}},{"attributes":{"ID":400966,"DIS_CODE":0,"TOWNNAME":"北區","LI":"大豐里","LIN":"11鄰","STREET":"和緯路","SECT":"四段","MAREA":" ","LANE":"９５巷","ALLEY":" ","HOUSE_NO":"５４號","E_COORD97":167087.12,"N_COORD97":2545301.73,"ADDRESS":"和緯路四段９５巷５４號","OBJECTID":400942},"geometry":{"x":167087.12000000197,"y":2545301.7300000023}},{"attributes":{"ID":400967,"DIS_CODE":0,"TOWNNAME":"北區","LI":"大豐里","LIN":"11鄰","STREET":"和緯路","SECT":"四段","MAREA":" ","LANE":"９５巷","ALLEY":" ","HOUSE_NO":"５６號","E_COORD97":167086.32999999999,"N_COORD97":2545292.4199999999,"ADDRESS":"和緯路四段９５巷５６號","OBJECTID":400943},"geometry":{"x":167086.33000000101,"y":2545292.4199999999}},{"attributes":{"ID":400968,"DIS_CODE":0,"TOWNNAME":"北區","LI":"大豐里","LIN":"11鄰","STREET":"和緯路","SECT":"四段","MAREA":" ","LANE":"９５巷","ALLEY":" ","HOUSE_NO":"５８號","E_COORD97":167086.14999999999,"N_COORD97":2545288.9199999999,"ADDRESS":"和緯路四段９５巷５８號","OBJECTID":400944},"geometry":{"x":167086.1500000013,"y":2545288.9199999999}},{"attributes":{"ID":400969,"DIS_CODE":0,"TOWNNAME":"北區","LI":"大豐里","LIN":"11鄰","STREET":"和緯路","SECT":"四段","MAREA":" ","LANE":"９５巷","ALLEY":" ","HOUSE_NO":"６０號","E_COORD97":167084.07999999999,"N_COORD97":2545280.6499999999,"ADDRESS":"和緯路四段９５巷６０號","OBJECTID":400945},"geometry":{"x":167084.08000000101,"y":2545280.6500000004}},{"attributes":{"ID":400970,"DIS_CODE":0,"TOWNNAME":"北區","LI":"重興里","LIN":"11鄰","STREET":"東豐路","SECT":" ","MAREA":" ","LANE":"４５１巷","ALLEY":" ","HOUSE_NO":"１０號","E_COORD97":170856.73999999999,"N_COORD97":2544744.9300000002,"ADDRESS":"東豐路４５１巷１０號","OBJECTID":400946},"geometry":{"x":170856.74000000115,"y":2544744.9299999997}},{"attributes":{"ID":400971,"DIS_CODE":0,"TOWNNAME":"北區","LI":"重興里","LIN":"11鄰","STREET":"東豐路","SECT":" ","MAREA":" ","LANE":"４５１巷","ALLEY":" ","HOUSE_NO":"１１號","E_COORD97":170899.10999999999,"N_COORD97":2544727.9500000002,"ADDRESS":"東豐路４５１巷１１號","OBJECTID":400947},"geometry":{"x":170899.11000000034,"y":2544727.9499999993}},{"attributes":{"ID":400972,"DIS_CODE":0,"TOWNNAME":"北區","LI":"重興里","LIN":"11鄰","STREET":"東豐路","SECT":" ","MAREA":" ","LANE":"４５１巷","ALLEY":" ","HOUSE_NO":"１２號","E_COORD97":170883.10999999999,"N_COORD97":2544735.0099999998,"ADDRESS":"東豐路４５１巷１２號","OBJECTID":400948},"geometry":{"x":170883.11000000127,"y":2544735.0099999998}},{"attributes":{"ID":400973,"DIS_CODE":0,"TOWNNAME":"北區","LI":"重興里","LIN":"11鄰","STREET":"東豐路","SECT":" ","MAREA":" ","LANE":"４５１巷","ALLEY":" ","HOUSE_NO":"１３號","E_COORD97":170857.48999999999,"N_COORD97":2544816.6699999999,"ADDRESS":"東豐路４５１巷１３號","OBJECTID":400949},"geometry":{"x":170857.49000000022,"y":2544816.6700000018}},{"attributes":{"ID":400974,"DIS_CODE":0,"TOWNNAME":"北區","LI":"重興里","LIN":"11鄰","STREET":"東豐路","SECT":" ","MAREA":" ","LANE":"４５１巷","ALLEY":" ","HOUSE_NO":"１３號之１０","E_COORD97":170878.13,"N_COORD97":2544856.5899999999,"ADDRESS":"東豐路４５１巷１３號之１０","OBJECTID":400950},"geometry":{"x":170878.12999999989,"y":2544856.5899999999}},{"attributes":{"ID":400975,"DIS_CODE":0,"TOWNNAME":"北區","LI":"重興里","LIN":"11鄰","STREET":"東豐路","SECT":" ","MAREA":" ","LANE":"４５１巷","ALLEY":" ","HOUSE_NO":"１３號之２","E_COORD97":170828.32000000001,"N_COORD97":2544803.3799999999,"ADDRESS":"東豐路４５１巷１３號之２","OBJECTID":400951},"geometry":{"x":170828.3200000003,"y":2544803.379999999}},{"attributes":{"ID":400976,"DIS_CODE":0,"TOWNNAME":"北區","LI":"重興里","LIN":"11鄰","STREET":"東豐路","SECT":" ","MAREA":" ","LANE":"４５１巷","ALLEY":" ","HOUSE_NO":"１３號之５","E_COORD97":170857.01999999999,"N_COORD97":2544836.2599999998,"ADDRESS":"東豐路４５１巷１３號之５","OBJECTID":400952},"geometry":{"x":170857.01999999955,"y":2544836.2600000016}},{"attributes":{"ID":400977,"DIS_CODE":0,"TOWNNAME":"北區","LI":"重興里","LIN":"11鄰","STREET":"東豐路","SECT":" ","MAREA":" ","LANE":"４５１巷","ALLEY":" ","HOUSE_NO":"１３號之８","E_COORD97":170880.07000000001,"N_COORD97":2544837.7999999998,"ADDRESS":"東豐路４５１巷１３號之８","OBJECTID":400953},"geometry":{"x":170880.07000000123,"y":2544837.8000000026}},{"attributes":{"ID":400978,"DIS_CODE":0,"TOWNNAME":"北區","LI":"重興里","LIN":"11鄰","STREET":"東豐路","SECT":" ","MAREA":" ","LANE":"４５１巷","ALLEY":" ","HOUSE_NO":"１３號之９","E_COORD97":170882.48999999999,"N_COORD97":2544845.7000000002,"ADDRESS":"東豐路４５１巷１３號之９","OBJECTID":400954},"geometry":{"x":170882.49000000115,"y":2544845.6999999974}},{"attributes":{"ID":400979,"DIS_CODE":0,"TOWNNAME":"北區","LI":"重興里","LIN":"11鄰","STREET":"東豐路","SECT":" ","MAREA":" ","LANE":"４５１巷","ALLEY":" ","HOUSE_NO":"１４號","E_COORD97":170894.64000000001,"N_COORD97":2544743.6499999999,"ADDRESS":"東豐路４５１巷１４號","OBJECTID":400955},"geometry":{"x":170894.63999999966,"y":2544743.6500000022}},{"attributes":{"ID":400980,"DIS_CODE":0,"TOWNNAME":"北區","LI":"重興里","LIN":"11鄰","STREET":"東豐路","SECT":" ","MAREA":" ","LANE":"４５１巷","ALLEY":" ","HOUSE_NO":"１６號","E_COORD97":170899.89000000001,"N_COORD97":2544751.5099999998,"ADDRESS":"東豐路４５１巷１６號","OBJECTID":400956},"geometry":{"x":170899.88999999966,"y":2544751.5099999998}},{"attributes":{"ID":400981,"DIS_CODE":0,"TOWNNAME":"北區","LI":"重興里","LIN":"11鄰","STREET":"東豐路","SECT":" ","MAREA":" ","LANE":"４５１巷","ALLEY":" ","HOUSE_NO":"１６號之２","E_COORD97":170903.04000000001,"N_COORD97":2544757.5299999998,"ADDRESS":"東豐路４５１巷１６號之２","OBJECTID":400957},"geometry":{"x":170903.04000000004,"y":2544757.5299999993}},{"attributes":{"ID":400982,"DIS_CODE":0,"TOWNNAME":"北區","LI":"重興里","LIN":"11鄰","STREET":"東豐路","SECT":" ","MAREA":" ","LANE":"４５１巷","ALLEY":" ","HOUSE_NO":"１８號","E_COORD97":170918.66,"N_COORD97":2544776.8999999999,"ADDRESS":"東豐路４５１巷１８號","OBJECTID":400958},"geometry":{"x":170918.66000000108,"y":2544776.9000000004}},{"attributes":{"ID":400983,"DIS_CODE":0,"TOWNNAME":"北區","LI":"安民里","LIN":"11鄰","STREET":"國華街","SECT":"四段","MAREA":" ","LANE":"９巷","ALLEY":" ","HOUSE_NO":"６號","E_COORD97":167978.79000000001,"N_COORD97":2544594.2599999998,"ADDRESS":"國華街四段９巷６號","OBJECTID":400959},"geometry":{"x":167978.79000000004,"y":2544594.2599999998}},{"attributes":{"ID":400984,"DIS_CODE":0,"TOWNNAME":"新營區","LI":"王公里","LIN":"11鄰","STREET":"義和街","SECT":" ","MAREA":" ","LANE":"８巷","ALLEY":" ","HOUSE_NO":"７之２號","E_COORD97":180480.25,"N_COORD97":2579099.8700000001,"ADDRESS":"義和街８巷７之２號","OBJECTID":400960},"geometry":{"x":180480.25000000093,"y":2579099.8700000048}},{"attributes":{"ID":400985,"DIS_CODE":0,"TOWNNAME":"新營區","LI":"新東里","LIN":"11鄰","STREET":"東泰八街","SECT":" ","MAREA":" ","LANE":"９巷","ALLEY":" ","HOUSE_NO":"６２號","E_COORD97":181258.42999999999,"N_COORD97":2579776.1600000001,"ADDRESS":"東泰八街９巷６２號","OBJECTID":400961},"geometry":{"x":181258.43000000063,"y":2579776.160000002}},{"attributes":{"ID":400986,"DIS_CODE":0,"TOWNNAME":"新營區","LI":"南興里","LIN":"11鄰","STREET":"和平路","SECT":" ","MAREA":" ","LANE":"１０４巷","ALLEY":" ","HOUSE_NO":"３８之２號","E_COORD97":179301.07000000001,"N_COORD97":2577569.4199999999,"ADDRESS":"和平路１０４巷３８之２號","OBJECTID":400962},"geometry":{"x":179301.0700000003,"y":2577569.4200000018}},{"attributes":{"ID":400987,"DIS_CODE":0,"TOWNNAME":"新營區","LI":"新北里","LIN":"11鄰","STREET":"長榮路","SECT":"二段","MAREA":" ","LANE":"２９３巷","ALLEY":" ","HOUSE_NO":"１２號","E_COORD97":179205.56,"N_COORD97":2579741.5299999998,"ADDRESS":"長榮路二段２９３巷１２號","OBJECTID":400963},"geometry":{"x":179205.55999999959,"y":2579741.5300000012}},{"attributes":{"ID":400988,"DIS_CODE":0,"TOWNNAME":"新營區","LI":"南興里","LIN":"11鄰","STREET":"和平路","SECT":" ","MAREA":" ","LANE":"１０２巷","ALLEY":" ","HOUSE_NO":"２７之１號","E_COORD97":179323.67999999999,"N_COORD97":2577593.6800000002,"ADDRESS":"和平路１０２巷２７之１號","OBJECTID":400964},"geometry":{"x":179323.68000000156,"y":2577593.6799999997}},{"attributes":{"ID":400989,"DIS_CODE":0,"TOWNNAME":"歸仁區","LI":"崙頂里","LIN":"11鄰","STREET":"成功路","SECT":"二段","MAREA":" ","LANE":"１３１巷","ALLEY":" ","HOUSE_NO":"３１號","E_COORD97":178059.63,"N_COORD97":2539702.25,"ADDRESS":"成功路二段１３１巷３１號","OBJECTID":400965},"geometry":{"x":178059.63000000175,"y":2539702.25}},{"attributes":{"ID":400990,"DIS_CODE":0,"TOWNNAME":"歸仁區","LI":"許厝里","LIN":"11鄰","STREET":"公園路","SECT":" ","MAREA":" ","LANE":"４９巷","ALLEY":" ","HOUSE_NO":"８號","E_COORD97":178147.26999999999,"N_COORD97":2540533.1000000001,"ADDRESS":"公園路４９巷８號","OBJECTID":400966},"geometry":{"x":178147.27000000048,"y":2540533.0999999996}},{"attributes":{"ID":400991,"DIS_CODE":0,"TOWNNAME":"歸仁區","LI":"南保里","LIN":"11鄰","STREET":"文化十街","SECT":" ","MAREA":" ","LANE":"１０巷","ALLEY":" ","HOUSE_NO":"５４號","E_COORD97":176706.87,"N_COORD97":2541257.2599999998,"ADDRESS":"文化十街１０巷５４號","OBJECTID":400967},"geometry":{"x":176706.87000000011,"y":2541257.2600000016}},{"attributes":{"ID":400992,"DIS_CODE":0,"TOWNNAME":"歸仁區","LI":"六甲里","LIN":"11鄰","STREET":"中正南路","SECT":"一段","MAREA":" ","LANE":"１０４５巷","ALLEY":" ","HOUSE_NO":"２２號","E_COORD97":176021,"N_COORD97":2539100.2799999998,"ADDRESS":"中正南路一段１０４５巷２２號","OBJECTID":400968},"geometry":{"x":176021,"y":2539100.2800000012}},{"attributes":{"ID":400993,"DIS_CODE":0,"TOWNNAME":"歸仁區","LI":"六甲里","LIN":"11鄰","STREET":"中正南路","SECT":"一段","MAREA":" ","LANE":"１０１７巷","ALLEY":" ","HOUSE_NO":"８號","E_COORD97":176025.04999999999,"N_COORD97":2539145.2799999998,"ADDRESS":"中正南路一段１０１７巷８號","OBJECTID":400969},"geometry":{"x":176025.04999999981,"y":2539145.2799999993}},{"attributes":{"ID":400994,"DIS_CODE":0,"TOWNNAME":"歸仁區","LI":"七甲里","LIN":"11鄰","STREET":"丁厝街","SECT":" ","MAREA":" ","LANE":"３５巷","ALLEY":" ","HOUSE_NO":"２號","E_COORD97":175979.67000000001,"N_COORD97":2541932.25,"ADDRESS":"丁厝街３５巷２號","OBJECTID":400970},"geometry":{"x":175979.67000000086,"y":2541932.2500000019}},{"attributes":{"ID":400995,"DIS_CODE":0,"TOWNNAME":"北區","LI":"六甲里","LIN":"11鄰","STREET":"西門路","SECT":"四段","MAREA":" ","LANE":"２００巷","ALLEY":" ","HOUSE_NO":"１號","E_COORD97":168890.23999999999,"N_COORD97":2545658.5899999999,"ADDRESS":"西門路四段２００巷１號","OBJECTID":400971},"geometry":{"x":168890.24000000115,"y":2545658.5900000017}},{"attributes":{"ID":400996,"DIS_CODE":0,"TOWNNAME":"北區","LI":"六甲里","LIN":"11鄰","STREET":"西門路","SECT":"四段","MAREA":" ","LANE":"２００巷","ALLEY":" ","HOUSE_NO":"３號","E_COORD97":168895.31,"N_COORD97":2545673.5499999998,"ADDRESS":"西門路四段２００巷３號","OBJECTID":400972},"geometry":{"x":168895.30999999959,"y":2545673.5500000026}},{"attributes":{"ID":400997,"DIS_CODE":0,"TOWNNAME":"北區","LI":"六甲里","LIN":"11鄰","STREET":"西門路","SECT":"四段","MAREA":" ","LANE":"２００巷","ALLEY":" ","HOUSE_NO":"５號","E_COORD97":168898.67999999999,"N_COORD97":2545687.0299999998,"ADDRESS":"西門路四段２００巷５號","OBJECTID":400973},"geometry":{"x":168898.68000000063,"y":2545687.0299999993}},{"attributes":{"ID":400998,"DIS_CODE":0,"TOWNNAME":"北區","LI":"六甲里","LIN":"11鄰","STREET":"西門路","SECT":"四段","MAREA":" ","LANE":"２００巷","ALLEY":" ","HOUSE_NO":"７號","E_COORD97":168904.17000000001,"N_COORD97":2545701.1499999999,"ADDRESS":"西門路四段２００巷７號","OBJECTID":400974},"geometry":{"x":168904.17000000086,"y":2545701.1500000004}},{"attributes":{"ID":400999,"DIS_CODE":0,"TOWNNAME":"北區","LI":"興北里","LIN":"11鄰","STREET":"公園路","SECT":" ","MAREA":" ","LANE":"６２４巷","ALLEY":" ","HOUSE_NO":"１６號","E_COORD97":169081.94,"N_COORD97":2545314.3300000001,"ADDRESS":"公園路６２４巷１６號","OBJECTID":400975},"geometry":{"x":169081.94000000041,"y":2545314.3300000019}},{"attributes":{"ID":401000,"DIS_CODE":0,"TOWNNAME":"北區","LI":"興北里","LIN":"11鄰","STREET":"公園路","SECT":" ","MAREA":" ","LANE":"６２４巷","ALLEY":" ","HOUSE_NO":"１８號","E_COORD97":169094.67999999999,"N_COORD97":2545309.7999999998,"ADDRESS":"公園路６２４巷１８號","OBJECTID":400976},"geometry":{"x":169094.6799999997,"y":2545309.8000000007}},{"attributes":{"ID":401001,"DIS_CODE":0,"TOWNNAME":"北區","LI":"興北里","LIN":"11鄰","STREET":"公園路","SECT":" ","MAREA":" ","LANE":"６２４巷","ALLEY":" ","HOUSE_NO":"２２號","E_COORD97":169102.89999999999,"N_COORD97":2545310.02,"ADDRESS":"公園路６２４巷２２號","OBJECTID":400977},"geometry":{"x":169102.9000000013,"y":2545310.0200000014}},{"attributes":{"ID":401002,"DIS_CODE":0,"TOWNNAME":"東區","LI":"東聖里","LIN":"9鄰","STREET":"富農街","SECT":"二段","MAREA":" ","LANE":"４３巷","ALLEY":" ","HOUSE_NO":"３０號","E_COORD97":171584.07000000001,"N_COORD97":2542990.5499999998,"ADDRESS":"富農街二段４３巷３０號","OBJECTID":400978},"geometry":{"x":171584.0700000003,"y":2542990.5500000045}},{"attributes":{"ID":401003,"DIS_CODE":0,"TOWNNAME":"北區","LI":"玉皇里","LIN":"11鄰","STREET":"佑民街","SECT":" ","MAREA":" ","LANE":"４２巷","ALLEY":" ","HOUSE_NO":"１９號","E_COORD97":168681.59,"N_COORD97":2544437.4199999999,"ADDRESS":"佑民街４２巷１９號","OBJECTID":400979},"geometry":{"x":168681.58999999985,"y":2544437.4199999999}},{"attributes":{"ID":401004,"DIS_CODE":0,"TOWNNAME":"北區","LI":"玉皇里","LIN":"11鄰","STREET":"佑民街","SECT":" ","MAREA":" ","LANE":"４２巷","ALLEY":" ","HOUSE_NO":"９號","E_COORD97":168667.62,"N_COORD97":2544447.5600000001,"ADDRESS":"佑民街４２巷９號","OBJECTID":400980},"geometry":{"x":168667.62000000104,"y":2544447.5600000005}},{"attributes":{"ID":401005,"DIS_CODE":0,"TOWNNAME":"北區","LI":"玉皇里","LIN":"11鄰","STREET":"成功路","SECT":" ","MAREA":" ","LANE":"６８巷","ALLEY":" ","HOUSE_NO":"６３號","E_COORD97":168721.53,"N_COORD97":2544458.1299999999,"ADDRESS":"成功路６８巷６３號","OBJECTID":400981},"geometry":{"x":168721.53000000026,"y":2544458.129999999}},{"attributes":{"ID":401006,"DIS_CODE":0,"TOWNNAME":"中西區","LI":"安海里","LIN":"13鄰","STREET":"環河街","SECT":" ","MAREA":" ","LANE":" ","ALLEY":" ","HOUSE_NO":"１１０號","E_COORD97":167246.28,"N_COORD97":2544033.9300000002,"ADDRESS":"環河街１１０號","OBJECTID":400982},"geometry":{"x":167246.28000000026,"y":2544033.9299999997}},{"attributes":{"ID":401007,"DIS_CODE":0,"TOWNNAME":"北區","LI":"玉皇里","LIN":"11鄰","STREET":"成功路","SECT":" ","MAREA":" ","LANE":"６８巷","ALLEY":" ","HOUSE_NO":"６５號","E_COORD97":168722.76000000001,"N_COORD97":2544461.9700000002,"ADDRESS":"成功路６８巷６５號","OBJECTID":400983},"geometry":{"x":168722.75999999978,"y":2544461.9700000007}},{"attributes":{"ID":401008,"DIS_CODE":0,"TOWNNAME":"北區","LI":"玉皇里","LIN":"11鄰","STREET":"成功路","SECT":" ","MAREA":" ","LANE":"６８巷","ALLEY":" ","HOUSE_NO":"６７號","E_COORD97":168725.45999999999,"N_COORD97":2544468.1600000001,"ADDRESS":"成功路６８巷６７號","OBJECTID":400984},"geometry":{"x":168725.46000000183,"y":2544468.160000002}},{"attributes":{"ID":401009,"DIS_CODE":0,"TOWNNAME":"北區","LI":"玉皇里","LIN":"11鄰","STREET":"成功路","SECT":" ","MAREA":" ","LANE":"６８巷","ALLEY":" ","HOUSE_NO":"６９號","E_COORD97":168728.95999999999,"N_COORD97":2544476.2799999998,"ADDRESS":"成功路６８巷６９號","OBJECTID":400985},"geometry":{"x":168728.96000000183,"y":2544476.2800000012}},{"attributes":{"ID":401010,"DIS_CODE":0,"TOWNNAME":"北區","LI":"玉皇里","LIN":"11鄰","STREET":"佑民街","SECT":" ","MAREA":" ","LANE":"７８巷","ALLEY":" ","HOUSE_NO":"１１號","E_COORD97":168723.98000000001,"N_COORD97":2544481.6000000001,"ADDRESS":"佑民街７８巷１１號","OBJECTID":400986},"geometry":{"x":168723.98000000045,"y":2544481.6000000015}},{"attributes":{"ID":401011,"DIS_CODE":0,"TOWNNAME":"東區","LI":"東聖里","LIN":"13鄰","STREET":"中華東路","SECT":"二段","MAREA":" ","LANE":"４１巷","ALLEY":" ","HOUSE_NO":"５５號","E_COORD97":171596.45000000001,"N_COORD97":2543106.0299999998,"ADDRESS":"中華東路二段４１巷５５號","OBJECTID":400987},"geometry":{"x":171596.45000000112,"y":2543106.0300000012}},{"attributes":{"ID":401012,"DIS_CODE":0,"TOWNNAME":"東區","LI":"東聖里","LIN":"13鄰","STREET":"中華東路","SECT":"二段","MAREA":" ","LANE":"４１巷","ALLEY":" ","HOUSE_NO":"５７號","E_COORD97":171601.41,"N_COORD97":2543106.6099999999,"ADDRESS":"中華東路二段４１巷５７號","OBJECTID":400988},"geometry":{"x":171601.41000000108,"y":2543106.6099999994}},{"attributes":{"ID":401013,"DIS_CODE":0,"TOWNNAME":"歸仁區","LI":"歸南里","LIN":"11鄰","STREET":"民生南街","SECT":"二段","MAREA":" ","LANE":"１９１巷","ALLEY":" ","HOUSE_NO":"３３號","E_COORD97":176156.81,"N_COORD97":2540168.25,"ADDRESS":"民生南街二段１９１巷３３號","OBJECTID":400989},"geometry":{"x":176156.81000000052,"y":2540168.2500000019}},{"attributes":{"ID":401014,"DIS_CODE":0,"TOWNNAME":"歸仁區","LI":"歸南里","LIN":"11鄰","STREET":"民生南街","SECT":"二段","MAREA":" ","LANE":"１９１巷","ALLEY":" ","HOUSE_NO":"１６號","E_COORD97":176121.81,"N_COORD97":2540151.25,"ADDRESS":"民生南街二段１９１巷１６號","OBJECTID":400990},"geometry":{"x":176121.80999999959,"y":2540151.2500000019}},{"attributes":{"ID":401015,"DIS_CODE":0,"TOWNNAME":"歸仁區","LI":"媽廟里","LIN":"11鄰","STREET":"中正北路","SECT":"三段","MAREA":" ","LANE":"２０５巷","ALLEY":" ","HOUSE_NO":"５８號","E_COORD97":177409.10999999999,"N_COORD97":2543915.7200000002,"ADDRESS":"中正北路三段２０５巷５８號","OBJECTID":400991},"geometry":{"x":177409.11000000034,"y":2543915.7200000025}},{"attributes":{"ID":401016,"DIS_CODE":0,"TOWNNAME":"歸仁區","LI":"南興里","LIN":"11鄰","STREET":"民生二街","SECT":" ","MAREA":" ","LANE":"１４６巷","ALLEY":" ","HOUSE_NO":"２３號","E_COORD97":176001.79000000001,"N_COORD97":2541368.29,"ADDRESS":"民生二街１４６巷２３號","OBJECTID":400992},"geometry":{"x":176001.79000000004,"y":2541368.290000001}},{"attributes":{"ID":401017,"DIS_CODE":0,"TOWNNAME":"歸仁區","LI":"後市里","LIN":"11鄰","STREET":"民權七街","SECT":" ","MAREA":" ","LANE":"９巷","ALLEY":" ","HOUSE_NO":"１號","E_COORD97":177022.82000000001,"N_COORD97":2540749.29,"ADDRESS":"民權七街９巷１號","OBJECTID":400993},"geometry":{"x":177022.8200000003,"y":2540749.2899999991}},{"attributes":{"ID":401018,"DIS_CODE":0,"TOWNNAME":"新營區","LI":"興業里","LIN":"11鄰","STREET":"中興路","SECT":" ","MAREA":" ","LANE":"１３巷","ALLEY":" ","HOUSE_NO":"２５號","E_COORD97":180254.85999999999,"N_COORD97":2577977.9199999999,"ADDRESS":"中興路１３巷２５號","OBJECTID":400994},"geometry":{"x":180254.86000000034,"y":2577977.9199999999}},{"attributes":{"ID":401019,"DIS_CODE":0,"TOWNNAME":"東區","LI":"東聖里","LIN":"15鄰","STREET":"中華東路","SECT":"二段","MAREA":" ","LANE":"７３巷","ALLEY":" ","HOUSE_NO":"１７號","E_COORD97":171474.59,"N_COORD97":2543053.48,"ADDRESS":"中華東路二段７３巷１７號","OBJECTID":400995},"geometry":{"x":171474.59000000078,"y":2543053.4800000023}},{"attributes":{"ID":401020,"DIS_CODE":0,"TOWNNAME":"東區","LI":"東聖里","LIN":"15鄰","STREET":"中華東路","SECT":"二段","MAREA":" ","LANE":"７３巷","ALLEY":" ","HOUSE_NO":"３號","E_COORD97":171455.45999999999,"N_COORD97":2543039.5699999998,"ADDRESS":"中華東路二段７３巷３號","OBJECTID":400996},"geometry":{"x":171455.46000000089,"y":2543039.5700000003}},{"attributes":{"ID":401021,"DIS_CODE":0,"TOWNNAME":"東區","LI":"東聖里","LIN":"15鄰","STREET":"中華東路","SECT":"二段","MAREA":" ","LANE":"７３巷","ALLEY":" ","HOUSE_NO":"５號","E_COORD97":171455.45999999999,"N_COORD97":2543046.2200000002,"ADDRESS":"中華東路二段７３巷５號","OBJECTID":400997},"geometry":{"x":171455.46000000089,"y":2543046.2200000007}},{"attributes":{"ID":401022,"DIS_CODE":0,"TOWNNAME":"東區","LI":"東聖里","LIN":"15鄰","STREET":"中華東路","SECT":"二段","MAREA":" ","LANE":"７３巷","ALLEY":" ","HOUSE_NO":"７號","E_COORD97":171457.16,"N_COORD97":2543053.0099999998,"ADDRESS":"中華東路二段７３巷７號","OBJECTID":400998},"geometry":{"x":171457.16000000108,"y":2543053.0099999998}},{"attributes":{"ID":401023,"DIS_CODE":0,"TOWNNAME":"東區","LI":"東聖里","LIN":"15鄰","STREET":"中華東路","SECT":"二段","MAREA":" ","LANE":"７３巷","ALLEY":" ","HOUSE_NO":"７號之４","E_COORD97":171461.64000000001,"N_COORD97":2543090.5600000001,"ADDRESS":"中華東路二段７３巷７號之４","OBJECTID":400999},"geometry":{"x":171461.64000000153,"y":2543090.5600000005}},{"attributes":{"ID":401024,"DIS_CODE":0,"TOWNNAME":"東區","LI":"東聖里","LIN":"15鄰","STREET":"中華東路","SECT":"二段","MAREA":" ","LANE":"７３巷","ALLEY":" ","HOUSE_NO":"９號","E_COORD97":171472.34,"N_COORD97":2543030.8199999998,"ADDRESS":"中華東路二段７３巷９號","OBJECTID":401000},"geometry":{"x":171472.34000000171,"y":2543030.8200000003}}]}