{"displayFieldName":"TOWNNAME","fieldAliases":{"ID":"ID","DIS_CODE":"DIS_CODE","TOWNNAME":"TOWNNAME","LI":"LI","LIN":"LIN","STREET":"STREET","SECT":"SECT","MAREA":"MAREA","LANE":"LANE","ALLEY":"ALLEY","HOUSE_NO":"HOUSE_NO","E_COORD97":"E_COORD97","N_COORD97":"N_COORD97","ADDRESS":"ADDRESS","OBJECTID":"OBJECTID"},"geometryType":"esriGeometryPoint","spatialReference":{"wkid":102443,"latestWkid":3826},"fields":[{"name":"ID","type":"esriFieldTypeDouble","alias":"ID"},{"name":"DIS_CODE","type":"esriFieldTypeInteger","alias":"DIS_CODE"},{"name":"TOWNNAME","type":"esriFieldTypeString","alias":"TOWNNAME","length":8},{"name":"LI","type":"esriFieldTypeString","alias":"LI","length":8},{"name":"LIN","type":"esriFieldTypeString","alias":"LIN","length":12},{"name":"STREET","type":"esriFieldTypeString","alias":"STREET","length":20},{"name":"SECT","type":"esriFieldTypeString","alias":"SECT","length":8},{"name":"MAREA","type":"esriFieldTypeString","alias":"MAREA","length":12},{"name":"LANE","type":"esriFieldTypeString","alias":"LANE","length":10},{"name":"ALLEY","type":"esriFieldTypeString","alias":"ALLEY","length":10},{"name":"HOUSE_NO","type":"esriFieldTypeString","alias":"HOUSE_NO","length":20},{"name":"E_COORD97","type":"esriFieldTypeDouble","alias":"E_COORD97"},{"name":"N_COORD97","type":"esriFieldTypeDouble","alias":"N_COORD97"},{"name":"ADDRESS","type":"esriFieldTypeString","alias":"ADDRESS","length":50},{"name":"OBJECTID","type":"esriFieldTypeOID","alias":"OBJECTID"}],"features":[{"attributes":{"ID":15601,"DIS_CODE":0,"TOWNNAME":"北門區","LI":"保吉里","LIN":"14鄰","STREET":" ","SECT":" ","MAREA":"蚵寮","LANE":" ","ALLEY":" ","HOUSE_NO":"３６４號之１１","E_COORD97":161390.82999999999,"N_COORD97":2576354.6600000001,"ADDRESS":"蚵寮３６４號之１１","OBJECTID":15601},"geometry":{"x":161390.83000000007,"y":2576354.660000002}},{"attributes":{"ID":15602,"DIS_CODE":0,"TOWNNAME":"北門區","LI":"保吉里","LIN":"14鄰","STREET":" ","SECT":" ","MAREA":"蚵寮","LANE":" ","ALLEY":" ","HOUSE_NO":"３６４之１２２號","E_COORD97":159877.54000000001,"N_COORD97":2575529.6200000001,"ADDRESS":"蚵寮３６４之１２２號","OBJECTID":15602},"geometry":{"x":159877.54000000004,"y":2575529.6200000029}},{"attributes":{"ID":15603,"DIS_CODE":0,"TOWNNAME":"北門區","LI":"保吉里","LIN":"14鄰","STREET":" ","SECT":" ","MAREA":"蚵寮","LANE":" ","ALLEY":" ","HOUSE_NO":"３６４號之１２２","E_COORD97":159877.54000000001,"N_COORD97":2575529.6200000001,"ADDRESS":"蚵寮３６４號之１２２","OBJECTID":15603},"geometry":{"x":159877.54000000004,"y":2575529.6200000029}},{"attributes":{"ID":15604,"DIS_CODE":0,"TOWNNAME":"北門區","LI":"保吉里","LIN":"14鄰","STREET":" ","SECT":" ","MAREA":"蚵寮","LANE":" ","ALLEY":" ","HOUSE_NO":"３６４之１２５號","E_COORD97":159760.39999999999,"N_COORD97":2575692.7400000002,"ADDRESS":"蚵寮３６４之１２５號","OBJECTID":15604},"geometry":{"x":159760.40000000224,"y":2575692.7400000021}},{"attributes":{"ID":15605,"DIS_CODE":0,"TOWNNAME":"北門區","LI":"保吉里","LIN":"14鄰","STREET":" ","SECT":" ","MAREA":"蚵寮","LANE":" ","ALLEY":" ","HOUSE_NO":"３６４號之１２５","E_COORD97":159760.39999999999,"N_COORD97":2575692.7400000002,"ADDRESS":"蚵寮３６４號之１２５","OBJECTID":15605},"geometry":{"x":159760.40000000224,"y":2575692.7400000021}},{"attributes":{"ID":15606,"DIS_CODE":0,"TOWNNAME":"北門區","LI":"保吉里","LIN":"14鄰","STREET":" ","SECT":" ","MAREA":"蚵寮","LANE":" ","ALLEY":" ","HOUSE_NO":"３６４號之１２","E_COORD97":161389.89000000001,"N_COORD97":2576358.8900000001,"ADDRESS":"蚵寮３６４號之１２","OBJECTID":15606},"geometry":{"x":161389.88999999966,"y":2576358.8900000006}},{"attributes":{"ID":15607,"DIS_CODE":0,"TOWNNAME":"北門區","LI":"保吉里","LIN":"14鄰","STREET":" ","SECT":" ","MAREA":"蚵寮","LANE":" ","ALLEY":" ","HOUSE_NO":"３６４號之１３","E_COORD97":161388.79999999999,"N_COORD97":2576363.1299999999,"ADDRESS":"蚵寮３６４號之１３","OBJECTID":15607},"geometry":{"x":161388.79999999981,"y":2576363.1300000027}},{"attributes":{"ID":15608,"DIS_CODE":0,"TOWNNAME":"北門區","LI":"保吉里","LIN":"14鄰","STREET":" ","SECT":" ","MAREA":"蚵寮","LANE":" ","ALLEY":" ","HOUSE_NO":"３６４號之１４","E_COORD97":161387.82000000001,"N_COORD97":2576367.1600000001,"ADDRESS":"蚵寮３６４號之１４","OBJECTID":15608},"geometry":{"x":161387.8200000003,"y":2576367.1600000001}},{"attributes":{"ID":15609,"DIS_CODE":0,"TOWNNAME":"東區","LI":"崇善里","LIN":"24鄰","STREET":"崇善十二街","SECT":" ","MAREA":" ","LANE":"６巷","ALLEY":"１５弄","HOUSE_NO":"３６號","E_COORD97":171317.53,"N_COORD97":2541072.7200000002,"ADDRESS":"崇善十二街６巷１５弄３６號","OBJECTID":15609},"geometry":{"x":171317.53000000119,"y":2541072.7200000007}},{"attributes":{"ID":15610,"DIS_CODE":0,"TOWNNAME":"北門區","LI":"保吉里","LIN":"14鄰","STREET":" ","SECT":" ","MAREA":"蚵寮","LANE":" ","ALLEY":" ","HOUSE_NO":"３６４號之１５０","E_COORD97":159446.84,"N_COORD97":2576521.6499999999,"ADDRESS":"蚵寮３６４號之１５０","OBJECTID":15610},"geometry":{"x":159446.84000000171,"y":2576521.6500000022}},{"attributes":{"ID":15611,"DIS_CODE":0,"TOWNNAME":"北門區","LI":"保吉里","LIN":"14鄰","STREET":" ","SECT":" ","MAREA":"蚵寮","LANE":" ","ALLEY":" ","HOUSE_NO":"３６４之１５１號","E_COORD97":159469.59,"N_COORD97":2576506.02,"ADDRESS":"蚵寮３６４之１５１號","OBJECTID":15611},"geometry":{"x":159469.59000000078,"y":2576506.0199999996}},{"attributes":{"ID":15612,"DIS_CODE":0,"TOWNNAME":"北門區","LI":"保吉里","LIN":"14鄰","STREET":" ","SECT":" ","MAREA":"蚵寮","LANE":" ","ALLEY":" ","HOUSE_NO":"３６４號之１５１","E_COORD97":159469.59,"N_COORD97":2576506.02,"ADDRESS":"蚵寮３６４號之１５１","OBJECTID":15612},"geometry":{"x":159469.59000000078,"y":2576506.0199999996}},{"attributes":{"ID":15613,"DIS_CODE":0,"TOWNNAME":"北門區","LI":"保吉里","LIN":"14鄰","STREET":" ","SECT":" ","MAREA":"蚵寮","LANE":" ","ALLEY":" ","HOUSE_NO":"３６４號之１５","E_COORD97":160663.20999999999,"N_COORD97":2576832.4300000002,"ADDRESS":"蚵寮３６４號之１５","OBJECTID":15613},"geometry":{"x":160663.21000000183,"y":2576832.4299999997}},{"attributes":{"ID":15614,"DIS_CODE":0,"TOWNNAME":"東區","LI":"崇善里","LIN":"24鄰","STREET":"崇善十二街","SECT":" ","MAREA":" ","LANE":"６巷","ALLEY":"１５弄","HOUSE_NO":"４０號","E_COORD97":171323.67000000001,"N_COORD97":2541075.79,"ADDRESS":"崇善十二街６巷１５弄４０號","OBJECTID":15614},"geometry":{"x":171323.66999999993,"y":2541075.790000001}},{"attributes":{"ID":15615,"DIS_CODE":0,"TOWNNAME":"東區","LI":"衛國里","LIN":"24鄰","STREET":"林森路","SECT":"二段","MAREA":" ","LANE":"１９０巷","ALLEY":"１８弄","HOUSE_NO":"５號","E_COORD97":170568.17999999999,"N_COORD97":2543247.6000000001,"ADDRESS":"林森路二段１９０巷１８弄５號","OBJECTID":15615},"geometry":{"x":170568.18000000156,"y":2543247.6000000015}},{"attributes":{"ID":15616,"DIS_CODE":0,"TOWNNAME":"歸仁區","LI":"六甲里","LIN":"40鄰","STREET":"民生南街","SECT":"二段","MAREA":" ","LANE":" ","ALLEY":" ","HOUSE_NO":"７８０號","E_COORD97":176088.54999999999,"N_COORD97":2539356.29,"ADDRESS":"民生南街二段７８０號","OBJECTID":15616},"geometry":{"x":176088.55000000168,"y":2539356.2900000028}},{"attributes":{"ID":15617,"DIS_CODE":0,"TOWNNAME":"歸仁區","LI":"後市里","LIN":"40鄰","STREET":"中山路","SECT":"二段","MAREA":" ","LANE":" ","ALLEY":" ","HOUSE_NO":"１５８號","E_COORD97":177190.23000000001,"N_COORD97":2540845.7400000002,"ADDRESS":"中山路二段１５８號","OBJECTID":15617},"geometry":{"x":177190.23000000138,"y":2540845.7400000002}},{"attributes":{"ID":15618,"DIS_CODE":0,"TOWNNAME":"歸仁區","LI":"南興里","LIN":"40鄰","STREET":"民生六街","SECT":" ","MAREA":" ","LANE":" ","ALLEY":" ","HOUSE_NO":"９號","E_COORD97":176213.44,"N_COORD97":2540835.29,"ADDRESS":"民生六街９號","OBJECTID":15618},"geometry":{"x":176213.44000000041,"y":2540835.290000001}},{"attributes":{"ID":15619,"DIS_CODE":0,"TOWNNAME":"東區","LI":"衛國里","LIN":"24鄰","STREET":"林森路","SECT":"二段","MAREA":" ","LANE":"１９０巷","ALLEY":"１８弄","HOUSE_NO":"７號","E_COORD97":170568.37,"N_COORD97":2543243.96,"ADDRESS":"林森路二段１９０巷１８弄７號","OBJECTID":15619},"geometry":{"x":170568.37000000011,"y":2543243.9600000028}},{"attributes":{"ID":15620,"DIS_CODE":0,"TOWNNAME":"東區","LI":"衛國里","LIN":"24鄰","STREET":"林森路","SECT":"二段","MAREA":" ","LANE":"１９０巷","ALLEY":"１８弄","HOUSE_NO":"９號","E_COORD97":170569.70999999999,"N_COORD97":2543240.6099999999,"ADDRESS":"林森路二段１９０巷１８弄９號","OBJECTID":15620},"geometry":{"x":170569.70999999996,"y":2543240.6100000013}},{"attributes":{"ID":15621,"DIS_CODE":0,"TOWNNAME":"永康區","LI":"西勢里","LIN":"24鄰","STREET":"廣興街","SECT":" ","MAREA":" ","LANE":"３８巷","ALLEY":"２５弄","HOUSE_NO":"５８號","E_COORD97":176077.35000000001,"N_COORD97":2546518.23,"ADDRESS":"廣興街３８巷２５弄５８號","OBJECTID":15621},"geometry":{"x":176077.34999999963,"y":2546518.2299999986}},{"attributes":{"ID":15622,"DIS_CODE":0,"TOWNNAME":"永康區","LI":"西勢里","LIN":"24鄰","STREET":"廣興街","SECT":" ","MAREA":" ","LANE":"３８巷","ALLEY":"２５弄","HOUSE_NO":"７４號","E_COORD97":176081.66,"N_COORD97":2546551.7000000002,"ADDRESS":"廣興街３８巷２５弄７４號","OBJECTID":15622},"geometry":{"x":176081.66000000108,"y":2546551.7000000011}},{"attributes":{"ID":15623,"DIS_CODE":0,"TOWNNAME":"永康區","LI":"西勢里","LIN":"24鄰","STREET":"廣興街","SECT":" ","MAREA":" ","LANE":"３８巷","ALLEY":"４７弄","HOUSE_NO":"１４號","E_COORD97":176083.78,"N_COORD97":2546471.6899999999,"ADDRESS":"廣興街３８巷４７弄１４號","OBJECTID":15623},"geometry":{"x":176083.78000000026,"y":2546471.6900000013}},{"attributes":{"ID":15624,"DIS_CODE":0,"TOWNNAME":"永康區","LI":"西勢里","LIN":"24鄰","STREET":"廣興街","SECT":" ","MAREA":" ","LANE":"３８巷","ALLEY":"４７弄","HOUSE_NO":"１號","E_COORD97":176069.20000000001,"N_COORD97":2546472.8799999999,"ADDRESS":"廣興街３８巷４７弄１號","OBJECTID":15624},"geometry":{"x":176069.20000000019,"y":2546472.8800000008}},{"attributes":{"ID":15625,"DIS_CODE":0,"TOWNNAME":"永康區","LI":"西勢里","LIN":"24鄰","STREET":"廣興街","SECT":" ","MAREA":" ","LANE":"３８巷","ALLEY":"４７弄","HOUSE_NO":"３號","E_COORD97":176072.54000000001,"N_COORD97":2546477.8799999999,"ADDRESS":"廣興街３８巷４７弄３號","OBJECTID":15625},"geometry":{"x":176072.54000000097,"y":2546477.879999999}},{"attributes":{"ID":15626,"DIS_CODE":0,"TOWNNAME":"永康區","LI":"西勢里","LIN":"24鄰","STREET":"廣興街","SECT":" ","MAREA":" ","LANE":"３８巷","ALLEY":"４７弄","HOUSE_NO":"１２號","E_COORD97":176079.67000000001,"N_COORD97":2546465.9399999999,"ADDRESS":"廣興街３８巷４７弄１２號","OBJECTID":15626},"geometry":{"x":176079.67000000086,"y":2546465.9400000013}},{"attributes":{"ID":15627,"DIS_CODE":0,"TOWNNAME":"永康區","LI":"\u25A0行里","LIN":"24鄰","STREET":"中正南路","SECT":" ","MAREA":" ","LANE":"５９２巷","ALLEY":"１１弄","HOUSE_NO":"９號","E_COORD97":171552.51999999999,"N_COORD97":2548689.9399999999,"ADDRESS":"中正南路５９２巷１１弄９號","OBJECTID":15627},"geometry":{"x":171552.52000000048,"y":2548689.9400000013}},{"attributes":{"ID":15628,"DIS_CODE":0,"TOWNNAME":"東區","LI":"衛國里","LIN":"24鄰","STREET":"林森路","SECT":"二段","MAREA":" ","LANE":"１９０巷","ALLEY":"１８弄","HOUSE_NO":"３號","E_COORD97":170562.76999999999,"N_COORD97":2543250.77,"ADDRESS":"林森路二段１９０巷１８弄３號","OBJECTID":15628},"geometry":{"x":170562.77000000048,"y":2543250.7699999996}},{"attributes":{"ID":15629,"DIS_CODE":0,"TOWNNAME":"永康區","LI":"西勢里","LIN":"24鄰","STREET":"廣興街","SECT":" ","MAREA":" ","LANE":"３８巷","ALLEY":"２５弄","HOUSE_NO":"３２號","E_COORD97":176065.60999999999,"N_COORD97":2546481.8799999999,"ADDRESS":"廣興街３８巷２５弄３２號","OBJECTID":15629},"geometry":{"x":176065.61000000127,"y":2546481.8800000027}},{"attributes":{"ID":15630,"DIS_CODE":0,"TOWNNAME":"永康區","LI":"西勢里","LIN":"24鄰","STREET":"廣興街","SECT":" ","MAREA":" ","LANE":"３８巷","ALLEY":"２５弄","HOUSE_NO":"１號","E_COORD97":176018.32000000001,"N_COORD97":2546493.7400000002,"ADDRESS":"廣興街３８巷２５弄１號","OBJECTID":15630},"geometry":{"x":176018.32000000123,"y":2546493.7400000002}},{"attributes":{"ID":15631,"DIS_CODE":0,"TOWNNAME":"北區","LI":"成德里","LIN":"38鄰","STREET":"北成路","SECT":" ","MAREA":" ","LANE":" ","ALLEY":" ","HOUSE_NO":"４４２號","E_COORD97":168144.92999999999,"N_COORD97":2546625.3500000001,"ADDRESS":"北成路４４２號","OBJECTID":15631},"geometry":{"x":168144.9299999997,"y":2546625.3500000034}},{"attributes":{"ID":15632,"DIS_CODE":0,"TOWNNAME":"永康區","LI":"西勢里","LIN":"24鄰","STREET":"廣興街","SECT":" ","MAREA":" ","LANE":"３８巷","ALLEY":"２５弄","HOUSE_NO":"１７號","E_COORD97":176032.32999999999,"N_COORD97":2546519.6600000001,"ADDRESS":"廣興街３８巷２５弄１７號","OBJECTID":15632},"geometry":{"x":176032.33000000007,"y":2546519.660000002}},{"attributes":{"ID":15633,"DIS_CODE":0,"TOWNNAME":"永康區","LI":"尚頂里","LIN":"24鄰","STREET":"南台街","SECT":" ","MAREA":" ","LANE":"５４巷","ALLEY":"４５弄","HOUSE_NO":"９號","E_COORD97":170279.60000000001,"N_COORD97":2547127.2400000002,"ADDRESS":"南台街５４巷４５弄９號","OBJECTID":15633},"geometry":{"x":170279.59999999963,"y":2547127.2400000002}},{"attributes":{"ID":15634,"DIS_CODE":0,"TOWNNAME":"永康區","LI":"西勢里","LIN":"24鄰","STREET":"廣興街","SECT":" ","MAREA":" ","LANE":"３８巷","ALLEY":"７弄","HOUSE_NO":"２號之１","E_COORD97":175971.54999999999,"N_COORD97":2546541.2999999998,"ADDRESS":"廣興街３８巷７弄２號之１","OBJECTID":15634},"geometry":{"x":175971.54999999888,"y":2546541.3000000007}},{"attributes":{"ID":15635,"DIS_CODE":0,"TOWNNAME":"永康區","LI":"\u25A0行里","LIN":"24鄰","STREET":"中正南路","SECT":" ","MAREA":" ","LANE":"５９２巷","ALLEY":"２９弄","HOUSE_NO":"１３號","E_COORD97":171599.42000000001,"N_COORD97":2548628.6899999999,"ADDRESS":"中正南路５９２巷２９弄１３號","OBJECTID":15635},"geometry":{"x":171599.42000000086,"y":2548628.6899999995}},{"attributes":{"ID":15636,"DIS_CODE":0,"TOWNNAME":"永康區","LI":"\u25A0行里","LIN":"24鄰","STREET":"中正南路","SECT":" ","MAREA":" ","LANE":"５９２巷","ALLEY":"２２弄","HOUSE_NO":"８號","E_COORD97":171567.95999999999,"N_COORD97":2548640.6800000002,"ADDRESS":"中正南路５９２巷２２弄８號","OBJECTID":15636},"geometry":{"x":171567.95999999996,"y":2548640.6800000034}},{"attributes":{"ID":15637,"DIS_CODE":0,"TOWNNAME":"永康區","LI":"\u25A0行里","LIN":"24鄰","STREET":"中正南路","SECT":" ","MAREA":" ","LANE":"５９２巷","ALLEY":"２２弄","HOUSE_NO":"１０號","E_COORD97":171572.42000000001,"N_COORD97":2548643.9300000002,"ADDRESS":"中正南路５９２巷２２弄１０號","OBJECTID":15637},"geometry":{"x":171572.42000000086,"y":2548643.9299999997}},{"attributes":{"ID":15638,"DIS_CODE":0,"TOWNNAME":"永康區","LI":"\u25A0行里","LIN":"24鄰","STREET":"中正南路","SECT":" ","MAREA":" ","LANE":"５９２巷","ALLEY":"１１弄","HOUSE_NO":"１５號","E_COORD97":171571.06,"N_COORD97":2548671.6800000002,"ADDRESS":"中正南路５９２巷１１弄１５號","OBJECTID":15638},"geometry":{"x":171571.06000000052,"y":2548671.6800000016}},{"attributes":{"ID":15639,"DIS_CODE":0,"TOWNNAME":"永康區","LI":"\u25A0行里","LIN":"24鄰","STREET":"中正南路","SECT":" ","MAREA":" ","LANE":"５９２巷","ALLEY":"２２弄","HOUSE_NO":"１２號","E_COORD97":171575.51999999999,"N_COORD97":2548647.1800000002,"ADDRESS":"中正南路５９２巷２２弄１２號","OBJECTID":15639},"geometry":{"x":171575.51999999955,"y":2548647.1800000034}},{"attributes":{"ID":15640,"DIS_CODE":0,"TOWNNAME":"永康區","LI":"\u25A0行里","LIN":"24鄰","STREET":"中正南路","SECT":" ","MAREA":" ","LANE":"５９２巷","ALLEY":"２９弄","HOUSE_NO":"１９號","E_COORD97":171610.35999999999,"N_COORD97":2548638.6800000002,"ADDRESS":"中正南路５９２巷２９弄１９號","OBJECTID":15640},"geometry":{"x":171610.36000000127,"y":2548638.6800000016}},{"attributes":{"ID":15641,"DIS_CODE":0,"TOWNNAME":"永康區","LI":"\u25A0行里","LIN":"24鄰","STREET":"中正南路","SECT":" ","MAREA":" ","LANE":"５９２巷","ALLEY":"２９弄","HOUSE_NO":"５號","E_COORD97":171586.62,"N_COORD97":2548607.6899999999,"ADDRESS":"中正南路５９２巷２９弄５號","OBJECTID":15641},"geometry":{"x":171586.62000000104,"y":2548607.6900000013}},{"attributes":{"ID":15642,"DIS_CODE":0,"TOWNNAME":"永康區","LI":"\u25A0行里","LIN":"24鄰","STREET":"中正南路","SECT":" ","MAREA":" ","LANE":"５９２巷","ALLEY":"１１弄","HOUSE_NO":"８號","E_COORD97":171532.88,"N_COORD97":2548678.6800000002,"ADDRESS":"中正南路５９２巷１１弄８號","OBJECTID":15642},"geometry":{"x":171532.87999999989,"y":2548678.6800000016}},{"attributes":{"ID":15643,"DIS_CODE":0,"TOWNNAME":"永康區","LI":"\u25A0行里","LIN":"24鄰","STREET":"中正南路","SECT":" ","MAREA":" ","LANE":"５９２巷","ALLEY":"１１弄","HOUSE_NO":"１７號","E_COORD97":171573.72,"N_COORD97":2548669.1800000002,"ADDRESS":"中正南路５９２巷１１弄１７號","OBJECTID":15643},"geometry":{"x":171573.72000000067,"y":2548669.1800000016}},{"attributes":{"ID":15644,"DIS_CODE":0,"TOWNNAME":"永康區","LI":"\u25A0行里","LIN":"24鄰","STREET":"中正南路","SECT":" ","MAREA":" ","LANE":"５９２巷","ALLEY":"１１弄","HOUSE_NO":"１６號","E_COORD97":171547.92000000001,"N_COORD97":2548665.1800000002,"ADDRESS":"中正南路５９２巷１１弄１６號","OBJECTID":15644},"geometry":{"x":171547.91999999993,"y":2548665.1800000016}},{"attributes":{"ID":15645,"DIS_CODE":0,"TOWNNAME":"永康區","LI":"龍潭里","LIN":"24鄰","STREET":"中山北路","SECT":" ","MAREA":" ","LANE":"２６４巷","ALLEY":"５５弄","HOUSE_NO":"１１號","E_COORD97":174762.54000000001,"N_COORD97":2547423.4900000002,"ADDRESS":"中山北路２６４巷５５弄１１號","OBJECTID":15645},"geometry":{"x":174762.54000000004,"y":2547423.4900000002}},{"attributes":{"ID":15646,"DIS_CODE":0,"TOWNNAME":"永康區","LI":"龍潭里","LIN":"24鄰","STREET":"中山北路","SECT":" ","MAREA":" ","LANE":"３４４巷","ALLEY":"１７弄","HOUSE_NO":"２０號","E_COORD97":175182.35000000001,"N_COORD97":2547622.0899999999,"ADDRESS":"中山北路３４４巷１７弄２０號","OBJECTID":15646},"geometry":{"x":175182.34999999963,"y":2547622.0900000017}},{"attributes":{"ID":15647,"DIS_CODE":0,"TOWNNAME":"仁德區","LI":"上崙里","LIN":"24鄰","STREET":"中正路","SECT":"一段","MAREA":" ","LANE":"７７４巷","ALLEY":"６弄","HOUSE_NO":"１號","E_COORD97":173001.82000000001,"N_COORD97":2537889.27,"ADDRESS":"中正路一段７７４巷６弄１號","OBJECTID":15647},"geometry":{"x":173001.8200000003,"y":2537889.2700000014}},{"attributes":{"ID":15648,"DIS_CODE":0,"TOWNNAME":"仁德區","LI":"上崙里","LIN":"24鄰","STREET":"中正路","SECT":"一段","MAREA":" ","LANE":"７７４巷","ALLEY":"６弄","HOUSE_NO":"１５號","E_COORD97":173010.88,"N_COORD97":2537857.2799999998,"ADDRESS":"中正路一段７７４巷６弄１５號","OBJECTID":15648},"geometry":{"x":173010.87999999989,"y":2537857.2799999993}},{"attributes":{"ID":15649,"DIS_CODE":0,"TOWNNAME":"北門區","LI":"保吉里","LIN":"14鄰","STREET":" ","SECT":" ","MAREA":"蚵寮","LANE":" ","ALLEY":" ","HOUSE_NO":"３６４號之１６","E_COORD97":161385.70000000001,"N_COORD97":2576375.2000000002,"ADDRESS":"蚵寮３６４號之１６","OBJECTID":15649},"geometry":{"x":161385.70000000205,"y":2576375.1999999993}},{"attributes":{"ID":15650,"DIS_CODE":0,"TOWNNAME":"北門區","LI":"保吉里","LIN":"14鄰","STREET":" ","SECT":" ","MAREA":"蚵寮","LANE":" ","ALLEY":" ","HOUSE_NO":"３７０號","E_COORD97":161481.17999999999,"N_COORD97":2576278.23,"ADDRESS":"蚵寮３７０號","OBJECTID":15650},"geometry":{"x":161481.1799999997,"y":2576278.2300000004}},{"attributes":{"ID":15651,"DIS_CODE":0,"TOWNNAME":"北門區","LI":"保吉里","LIN":"14鄰","STREET":" ","SECT":" ","MAREA":"蚵寮","LANE":" ","ALLEY":" ","HOUSE_NO":"３６４號之１７","E_COORD97":161384.44,"N_COORD97":2576379.4300000002,"ADDRESS":"蚵寮３６４號之１７","OBJECTID":15651},"geometry":{"x":161384.44000000134,"y":2576379.4300000016}},{"attributes":{"ID":15652,"DIS_CODE":0,"TOWNNAME":"北門區","LI":"保吉里","LIN":"14鄰","STREET":" ","SECT":" ","MAREA":"蚵寮","LANE":" ","ALLEY":" ","HOUSE_NO":"３６４之１８號","E_COORD97":161383.29000000001,"N_COORD97":2576383.7200000002,"ADDRESS":"蚵寮３６４之１８號","OBJECTID":15652},"geometry":{"x":161383.29000000097,"y":2576383.7200000007}},{"attributes":{"ID":15653,"DIS_CODE":0,"TOWNNAME":"北門區","LI":"保吉里","LIN":"14鄰","STREET":" ","SECT":" ","MAREA":"蚵寮","LANE":" ","ALLEY":" ","HOUSE_NO":"３６４號之１８","E_COORD97":161383.29000000001,"N_COORD97":2576383.7200000002,"ADDRESS":"蚵寮３６４號之１８","OBJECTID":15653},"geometry":{"x":161383.29000000097,"y":2576383.7200000007}},{"attributes":{"ID":15654,"DIS_CODE":0,"TOWNNAME":"北門區","LI":"保吉里","LIN":"14鄰","STREET":" ","SECT":" ","MAREA":"蚵寮","LANE":" ","ALLEY":" ","HOUSE_NO":"３６４號之１９","E_COORD97":161382.19,"N_COORD97":2576387.9500000002,"ADDRESS":"蚵寮３６４號之１９","OBJECTID":15654},"geometry":{"x":161382.19000000041,"y":2576387.9499999993}},{"attributes":{"ID":15655,"DIS_CODE":0,"TOWNNAME":"新營區","LI":"忠政里","LIN":"17鄰","STREET":"府西路","SECT":" ","MAREA":" ","LANE":"２５８巷","ALLEY":"２６弄","HOUSE_NO":"３號","E_COORD97":179898.69,"N_COORD97":2579706.1099999999,"ADDRESS":"府西路２５８巷２６弄３號","OBJECTID":15655},"geometry":{"x":179898.69000000041,"y":2579706.1099999994}},{"attributes":{"ID":15656,"DIS_CODE":0,"TOWNNAME":"安南區","LI":"州北里","LIN":"24鄰","STREET":"安和路","SECT":"五段","MAREA":" ","LANE":"８４巷","ALLEY":"６４弄","HOUSE_NO":"６０號","E_COORD97":170192.12,"N_COORD97":2551770.7400000002,"ADDRESS":"安和路五段８４巷６４弄６０號","OBJECTID":15656},"geometry":{"x":170192.12000000011,"y":2551770.7400000021}},{"attributes":{"ID":15657,"DIS_CODE":0,"TOWNNAME":"安南區","LI":"州北里","LIN":"24鄰","STREET":"長和路","SECT":"二段","MAREA":" ","LANE":"１４０巷","ALLEY":"２１３弄","HOUSE_NO":"５０號","E_COORD97":170250.57999999999,"N_COORD97":2551985.7599999998,"ADDRESS":"長和路二段１４０巷２１３弄５０號","OBJECTID":15657},"geometry":{"x":170250.58000000194,"y":2551985.7599999998}},{"attributes":{"ID":15658,"DIS_CODE":0,"TOWNNAME":"安南區","LI":"州北里","LIN":"24鄰","STREET":"長和路","SECT":"二段","MAREA":" ","LANE":"１４０巷","ALLEY":"２１３弄","HOUSE_NO":"５２號","E_COORD97":170245.32999999999,"N_COORD97":2551989.1099999999,"ADDRESS":"長和路二段１４０巷２１３弄５２號","OBJECTID":15658},"geometry":{"x":170245.33000000194,"y":2551989.1099999994}},{"attributes":{"ID":15659,"DIS_CODE":0,"TOWNNAME":"安南區","LI":"州北里","LIN":"24鄰","STREET":"長和路","SECT":"二段","MAREA":" ","LANE":"１４０巷","ALLEY":"２１３弄","HOUSE_NO":"５６號","E_COORD97":170240.82999999999,"N_COORD97":2551988.98,"ADDRESS":"長和路二段１４０巷２１３弄５６號","OBJECTID":15659},"geometry":{"x":170240.83000000101,"y":2551988.9800000042}},{"attributes":{"ID":15660,"DIS_CODE":0,"TOWNNAME":"安南區","LI":"州北里","LIN":"24鄰","STREET":"長和路","SECT":"二段","MAREA":" ","LANE":"１４０巷","ALLEY":"２１３弄","HOUSE_NO":"５８號","E_COORD97":170236.63,"N_COORD97":2551990.1299999999,"ADDRESS":"長和路二段１４０巷２１３弄５８號","OBJECTID":15660},"geometry":{"x":170236.63000000082,"y":2551990.1300000008}},{"attributes":{"ID":15661,"DIS_CODE":0,"TOWNNAME":"安南區","LI":"州北里","LIN":"24鄰","STREET":"長和路","SECT":"二段","MAREA":" ","LANE":"１４０巷","ALLEY":"２１３弄","HOUSE_NO":"６０號","E_COORD97":170232.13,"N_COORD97":2551990.0099999998,"ADDRESS":"長和路二段１４０巷２１３弄６０號","OBJECTID":15661},"geometry":{"x":170232.12999999989,"y":2551990.0099999998}},{"attributes":{"ID":15662,"DIS_CODE":0,"TOWNNAME":"安南區","LI":"州北里","LIN":"24鄰","STREET":"長和路","SECT":"二段","MAREA":" ","LANE":"１４０巷","ALLEY":"２１３弄","HOUSE_NO":"６２號","E_COORD97":170227.16,"N_COORD97":2551986.3700000001,"ADDRESS":"長和路二段１４０巷２１３弄６２號","OBJECTID":15662},"geometry":{"x":170227.16000000015,"y":2551986.370000001}},{"attributes":{"ID":15663,"DIS_CODE":0,"TOWNNAME":"安南區","LI":"州北里","LIN":"24鄰","STREET":"長和路","SECT":"二段","MAREA":" ","LANE":"１２巷","ALLEY":"２１３弄","HOUSE_NO":"５７號","E_COORD97":170242.29999999999,"N_COORD97":2552003.3599999999,"ADDRESS":"長和路二段１２巷２１３弄５７號","OBJECTID":15663},"geometry":{"x":170242.30000000075,"y":2552003.3600000013}},{"attributes":{"ID":15664,"DIS_CODE":0,"TOWNNAME":"安南區","LI":"州北里","LIN":"24鄰","STREET":"長和路","SECT":"二段","MAREA":" ","LANE":"１２巷","ALLEY":"２１３弄","HOUSE_NO":"５９號","E_COORD97":170235.01000000001,"N_COORD97":2552005.3999999999,"ADDRESS":"長和路二段１２巷２１３弄５９號","OBJECTID":15664},"geometry":{"x":170235.00999999978,"y":2552005.4000000004}},{"attributes":{"ID":15665,"DIS_CODE":0,"TOWNNAME":"安南區","LI":"州北里","LIN":"24鄰","STREET":"長和路","SECT":"二段","MAREA":" ","LANE":"１２巷","ALLEY":"２１３弄","HOUSE_NO":"６１號","E_COORD97":170231.34,"N_COORD97":2552002.3100000001,"ADDRESS":"長和路二段１２巷２１３弄６１號","OBJECTID":15665},"geometry":{"x":170231.33999999985,"y":2552002.3100000005}},{"attributes":{"ID":15666,"DIS_CODE":0,"TOWNNAME":"安南區","LI":"州北里","LIN":"24鄰","STREET":"長和路","SECT":"二段","MAREA":" ","LANE":"１２巷","ALLEY":"２１３弄","HOUSE_NO":"６３號","E_COORD97":170226,"N_COORD97":2552003.3599999999,"ADDRESS":"長和路二段１２巷２１３弄６３號","OBJECTID":15666},"geometry":{"x":170226.00000000093,"y":2552003.3600000013}},{"attributes":{"ID":15667,"DIS_CODE":0,"TOWNNAME":"北門區","LI":"保吉里","LIN":"14鄰","STREET":" ","SECT":" ","MAREA":"蚵寮","LANE":" ","ALLEY":" ","HOUSE_NO":"３６４之２０號","E_COORD97":161381.23000000001,"N_COORD97":2576392.0600000001,"ADDRESS":"蚵寮３６４之２０號","OBJECTID":15667},"geometry":{"x":161381.23000000138,"y":2576392.0600000005}},{"attributes":{"ID":15668,"DIS_CODE":0,"TOWNNAME":"北門區","LI":"保吉里","LIN":"14鄰","STREET":" ","SECT":" ","MAREA":"蚵寮","LANE":" ","ALLEY":" ","HOUSE_NO":"３６４號之２０","E_COORD97":161381.23000000001,"N_COORD97":2576392.0600000001,"ADDRESS":"蚵寮３６４號之２０","OBJECTID":15668},"geometry":{"x":161381.23000000138,"y":2576392.0600000005}},{"attributes":{"ID":15669,"DIS_CODE":0,"TOWNNAME":"北門區","LI":"保吉里","LIN":"14鄰","STREET":" ","SECT":" ","MAREA":"蚵寮","LANE":" ","ALLEY":" ","HOUSE_NO":"３６４號之２１","E_COORD97":161380.19,"N_COORD97":2576396.1099999999,"ADDRESS":"蚵寮３６４號之２１","OBJECTID":15669},"geometry":{"x":161380.19000000041,"y":2576396.1099999994}},{"attributes":{"ID":15670,"DIS_CODE":0,"TOWNNAME":"安南區","LI":"州北里","LIN":"24鄰","STREET":"長和路","SECT":"二段","MAREA":" ","LANE":"１４０巷","ALLEY":"１８５弄","HOUSE_NO":"１１號","E_COORD97":170288.73999999999,"N_COORD97":2551895.1699999999,"ADDRESS":"長和路二段１４０巷１８５弄１１號","OBJECTID":15670},"geometry":{"x":170288.74000000115,"y":2551895.1699999999}},{"attributes":{"ID":15671,"DIS_CODE":0,"TOWNNAME":"東區","LI":"忠孝里","LIN":"40鄰","STREET":"崇明路","SECT":" ","MAREA":" ","LANE":"２６６巷","ALLEY":" ","HOUSE_NO":"４號三樓","E_COORD97":169892.48000000001,"N_COORD97":2542059.71,"ADDRESS":"崇明路２６６巷４號三樓","OBJECTID":15671},"geometry":{"x":169892.48000000138,"y":2542059.7100000009}},{"attributes":{"ID":15672,"DIS_CODE":0,"TOWNNAME":"永康區","LI":"永康里","LIN":"40鄰","STREET":"永大二路","SECT":" ","MAREA":" ","LANE":" ","ALLEY":" ","HOUSE_NO":"５０號六樓之２","E_COORD97":174243.48999999999,"N_COORD97":2546574.3399999999,"ADDRESS":"永大二路５０號六樓之２","OBJECTID":15672},"geometry":{"x":174243.49000000209,"y":2546574.3399999999}},{"attributes":{"ID":15673,"DIS_CODE":0,"TOWNNAME":"永康區","LI":"永康里","LIN":"40鄰","STREET":"永大二路","SECT":" ","MAREA":" ","LANE":" ","ALLEY":" ","HOUSE_NO":"４６號三樓之１","E_COORD97":174255.44,"N_COORD97":2546582.0899999999,"ADDRESS":"永大二路４６號三樓之１","OBJECTID":15673},"geometry":{"x":174255.44000000041,"y":2546582.0899999999}},{"attributes":{"ID":15674,"DIS_CODE":0,"TOWNNAME":"永康區","LI":"永康里","LIN":"40鄰","STREET":"永大二路","SECT":" ","MAREA":" ","LANE":" ","ALLEY":" ","HOUSE_NO":"５０號六樓之１","E_COORD97":174243.35999999999,"N_COORD97":2546574.3399999999,"ADDRESS":"永大二路５０號六樓之１","OBJECTID":15674},"geometry":{"x":174243.36000000127,"y":2546574.3399999999}},{"attributes":{"ID":15675,"DIS_CODE":0,"TOWNNAME":"佳里區","LI":"安西里","LIN":"40鄰","STREET":"佳西路","SECT":" ","MAREA":" ","LANE":" ","ALLEY":" ","HOUSE_NO":"２４９號","E_COORD97":164761.14000000001,"N_COORD97":2562632.6899999999,"ADDRESS":"佳西路２４９號","OBJECTID":15675},"geometry":{"x":164761.1400000006,"y":2562632.6900000013}},{"attributes":{"ID":15676,"DIS_CODE":0,"TOWNNAME":"永康區","LI":"永康里","LIN":"40鄰","STREET":"永大二路","SECT":" ","MAREA":" ","LANE":" ","ALLEY":" ","HOUSE_NO":"４６號九樓之２","E_COORD97":174255.57000000001,"N_COORD97":2546582.0899999999,"ADDRESS":"永大二路４６號九樓之２","OBJECTID":15676},"geometry":{"x":174255.57000000123,"y":2546582.0899999999}},{"attributes":{"ID":15677,"DIS_CODE":0,"TOWNNAME":"永康區","LI":"永康里","LIN":"40鄰","STREET":"永大二路","SECT":" ","MAREA":" ","LANE":" ","ALLEY":" ","HOUSE_NO":"５２號七樓之２","E_COORD97":174255.98000000001,"N_COORD97":2546565.0899999999,"ADDRESS":"永大二路５２號七樓之２","OBJECTID":15677},"geometry":{"x":174255.98000000138,"y":2546565.0899999999}},{"attributes":{"ID":15678,"DIS_CODE":0,"TOWNNAME":"永康區","LI":"永康里","LIN":"40鄰","STREET":"永大二路","SECT":" ","MAREA":" ","LANE":" ","ALLEY":" ","HOUSE_NO":"５２號三樓","E_COORD97":174253.70999999999,"N_COORD97":2546565.0499999998,"ADDRESS":"永大二路５２號三樓","OBJECTID":15678},"geometry":{"x":174253.71000000089,"y":2546565.0500000026}},{"attributes":{"ID":15679,"DIS_CODE":0,"TOWNNAME":"安南區","LI":"州北里","LIN":"24鄰","STREET":"長和路","SECT":"二段","MAREA":" ","LANE":"１４０巷","ALLEY":"１８５弄","HOUSE_NO":"１３號","E_COORD97":170284.17000000001,"N_COORD97":2551895.1099999999,"ADDRESS":"長和路二段１４０巷１８５弄１３號","OBJECTID":15679},"geometry":{"x":170284.17000000086,"y":2551895.1099999975}},{"attributes":{"ID":15680,"DIS_CODE":0,"TOWNNAME":"安南區","LI":"州北里","LIN":"24鄰","STREET":"長和路","SECT":"二段","MAREA":" ","LANE":"１４０巷","ALLEY":"１８５弄","HOUSE_NO":"１５號","E_COORD97":170279.85000000001,"N_COORD97":2551895.0499999998,"ADDRESS":"長和路二段１４０巷１８５弄１５號","OBJECTID":15680},"geometry":{"x":170279.84999999963,"y":2551895.0500000026}},{"attributes":{"ID":15681,"DIS_CODE":0,"TOWNNAME":"新市區","LI":"潭頂里","LIN":"14鄰","STREET":" ","SECT":" ","MAREA":"潭頂","LANE":" ","ALLEY":" ","HOUSE_NO":"５４４號之１","E_COORD97":179867.75,"N_COORD97":2552854.5499999998,"ADDRESS":"潭頂５４４號之１","OBJECTID":15681},"geometry":{"x":179867.75000000186,"y":2552854.5500000026}},{"attributes":{"ID":15682,"DIS_CODE":0,"TOWNNAME":"安南區","LI":"州北里","LIN":"24鄰","STREET":"長和路","SECT":"二段","MAREA":" ","LANE":"１４０巷","ALLEY":"１８５弄","HOUSE_NO":"１７號","E_COORD97":170275.70000000001,"N_COORD97":2551893.3100000001,"ADDRESS":"長和路二段１４０巷１８５弄１７號","OBJECTID":15682},"geometry":{"x":170275.70000000112,"y":2551893.3100000024}},{"attributes":{"ID":15683,"DIS_CODE":0,"TOWNNAME":"安南區","LI":"州北里","LIN":"24鄰","STREET":"長和路","SECT":"二段","MAREA":" ","LANE":"１４０巷","ALLEY":"１８５弄","HOUSE_NO":"１９號","E_COORD97":170271.45000000001,"N_COORD97":2551894.9399999999,"ADDRESS":"長和路二段１４０巷１８５弄１９號","OBJECTID":15683},"geometry":{"x":170271.45000000019,"y":2551894.9399999995}},{"attributes":{"ID":15684,"DIS_CODE":0,"TOWNNAME":"安平區","LI":"港仔里","LIN":"17鄰","STREET":"運河路","SECT":" ","MAREA":" ","LANE":"１３巷","ALLEY":"３弄","HOUSE_NO":"６號","E_COORD97":164140.12,"N_COORD97":2544444.4300000002,"ADDRESS":"運河路１３巷３弄６號","OBJECTID":15684},"geometry":{"x":164140.12000000011,"y":2544444.4299999997}},{"attributes":{"ID":15685,"DIS_CODE":0,"TOWNNAME":"安南區","LI":"州北里","LIN":"24鄰","STREET":"長和路","SECT":"二段","MAREA":" ","LANE":"１４０巷","ALLEY":"１８５弄","HOUSE_NO":"２１號","E_COORD97":170267.25,"N_COORD97":2551894.8900000001,"ADDRESS":"長和路二段１４０巷１８５弄２１號","OBJECTID":15685},"geometry":{"x":170267.25,"y":2551894.8900000043}},{"attributes":{"ID":15686,"DIS_CODE":0,"TOWNNAME":"安南區","LI":"州北里","LIN":"24鄰","STREET":"長和路","SECT":"二段","MAREA":" ","LANE":"１４０巷","ALLEY":"１８５弄","HOUSE_NO":"２３號","E_COORD97":170263.04999999999,"N_COORD97":2551894.8300000001,"ADDRESS":"長和路二段１４０巷１８５弄２３號","OBJECTID":15686},"geometry":{"x":170263.05000000075,"y":2551894.8300000019}},{"attributes":{"ID":15687,"DIS_CODE":0,"TOWNNAME":"安南區","LI":"州北里","LIN":"24鄰","STREET":"長和路","SECT":"二段","MAREA":" ","LANE":"１４０巷","ALLEY":"１８５弄","HOUSE_NO":"２５號","E_COORD97":170258.85000000001,"N_COORD97":2551894.7799999998,"ADDRESS":"長和路二段１４０巷１８５弄２５號","OBJECTID":15687},"geometry":{"x":170258.85000000056,"y":2551894.7800000012}},{"attributes":{"ID":15688,"DIS_CODE":0,"TOWNNAME":"安南區","LI":"州北里","LIN":"24鄰","STREET":"長和路","SECT":"二段","MAREA":" ","LANE":"１４０巷","ALLEY":"１８５弄","HOUSE_NO":"２７號","E_COORD97":170254.64999999999,"N_COORD97":2551894.7200000002,"ADDRESS":"長和路二段１４０巷１８５弄２７號","OBJECTID":15688},"geometry":{"x":170254.65000000037,"y":2551894.7200000007}},{"attributes":{"ID":15689,"DIS_CODE":0,"TOWNNAME":"安南區","LI":"州北里","LIN":"24鄰","STREET":"長和路","SECT":"二段","MAREA":" ","LANE":"１４０巷","ALLEY":"１８５弄","HOUSE_NO":"３３號","E_COORD97":170240.48000000001,"N_COORD97":2551898.3900000001,"ADDRESS":"長和路二段１４０巷１８５弄３３號","OBJECTID":15689},"geometry":{"x":170240.48000000138,"y":2551898.3900000025}},{"attributes":{"ID":15690,"DIS_CODE":0,"TOWNNAME":"安南區","LI":"州北里","LIN":"24鄰","STREET":"長和路","SECT":"二段","MAREA":" ","LANE":"１４０巷","ALLEY":"１８５弄","HOUSE_NO":"５２號","E_COORD97":170232.23000000001,"N_COORD97":2551922.8399999999,"ADDRESS":"長和路二段１４０巷１８５弄５２號","OBJECTID":15690},"geometry":{"x":170232.23000000045,"y":2551922.8400000017}},{"attributes":{"ID":15691,"DIS_CODE":0,"TOWNNAME":"安南區","LI":"州北里","LIN":"24鄰","STREET":"長和路","SECT":"二段","MAREA":" ","LANE":"１４０巷","ALLEY":"１８５弄","HOUSE_NO":"５６號","E_COORD97":170227.45999999999,"N_COORD97":2551923.9100000001,"ADDRESS":"長和路二段１４０巷１８５弄５６號","OBJECTID":15691},"geometry":{"x":170227.46000000183,"y":2551923.9100000001}},{"attributes":{"ID":15692,"DIS_CODE":0,"TOWNNAME":"北門區","LI":"東壁里","LIN":"14鄰","STREET":" ","SECT":" ","MAREA":"蚵寮","LANE":" ","ALLEY":" ","HOUSE_NO":"７４５號","E_COORD97":161686.32999999999,"N_COORD97":2576285.6400000001,"ADDRESS":"蚵寮７４５號","OBJECTID":15692},"geometry":{"x":161686.33000000194,"y":2576285.6400000006}},{"attributes":{"ID":15693,"DIS_CODE":0,"TOWNNAME":"安南區","LI":"州北里","LIN":"24鄰","STREET":"長和路","SECT":"二段","MAREA":" ","LANE":"１４０巷","ALLEY":"１８５弄","HOUSE_NO":"５８號","E_COORD97":170229.48999999999,"N_COORD97":2551939.9900000002,"ADDRESS":"長和路二段１４０巷１８５弄５８號","OBJECTID":15693},"geometry":{"x":170229.49000000115,"y":2551939.9900000002}},{"attributes":{"ID":15694,"DIS_CODE":0,"TOWNNAME":"永康區","LI":"\u25A0行里","LIN":"24鄰","STREET":"中正南路","SECT":" ","MAREA":" ","LANE":"５９２巷","ALLEY":"２９弄","HOUSE_NO":"１５號","E_COORD97":171602.76000000001,"N_COORD97":2548632.1800000002,"ADDRESS":"中正南路５９２巷２９弄１５號","OBJECTID":15694},"geometry":{"x":171602.75999999978,"y":2548632.1799999997}},{"attributes":{"ID":15695,"DIS_CODE":0,"TOWNNAME":"永康區","LI":"\u25A0行里","LIN":"24鄰","STREET":"中正南路","SECT":" ","MAREA":" ","LANE":"５９２巷","ALLEY":"２９弄","HOUSE_NO":"２１號","E_COORD97":171614.17000000001,"N_COORD97":2548642.4300000002,"ADDRESS":"中正南路５９２巷２９弄２１號","OBJECTID":15695},"geometry":{"x":171614.16999999993,"y":2548642.4300000016}},{"attributes":{"ID":15696,"DIS_CODE":0,"TOWNNAME":"永康區","LI":"\u25A0行里","LIN":"24鄰","STREET":"中正南路","SECT":" ","MAREA":" ","LANE":"５９２巷","ALLEY":"２９弄","HOUSE_NO":"１７號","E_COORD97":171606.60000000001,"N_COORD97":2548635.4300000002,"ADDRESS":"中正南路５９２巷２９弄１７號","OBJECTID":15696},"geometry":{"x":171606.60000000056,"y":2548635.4300000034}},{"attributes":{"ID":15697,"DIS_CODE":0,"TOWNNAME":"永康區","LI":"\u25A0行里","LIN":"24鄰","STREET":"中正南路","SECT":" ","MAREA":" ","LANE":"５９２巷","ALLEY":"１１弄","HOUSE_NO":"２號","E_COORD97":171517.56,"N_COORD97":2548682.1800000002,"ADDRESS":"中正南路５９２巷１１弄２號","OBJECTID":15697},"geometry":{"x":171517.55999999959,"y":2548682.1800000016}},{"attributes":{"ID":15698,"DIS_CODE":0,"TOWNNAME":"永康區","LI":"\u25A0行里","LIN":"24鄰","STREET":"中正南路","SECT":" ","MAREA":" ","LANE":"５９２巷","ALLEY":"１１弄","HOUSE_NO":"１２號","E_COORD97":171541.47,"N_COORD97":2548671.4300000002,"ADDRESS":"中正南路５９２巷１１弄１２號","OBJECTID":15698},"geometry":{"x":171541.47000000067,"y":2548671.4299999997}},{"attributes":{"ID":15699,"DIS_CODE":0,"TOWNNAME":"永康區","LI":"\u25A0行里","LIN":"24鄰","STREET":"中正南路","SECT":" ","MAREA":" ","LANE":"５９２巷","ALLEY":"１１弄","HOUSE_NO":"１１號","E_COORD97":171561.76999999999,"N_COORD97":2548686.1899999999,"ADDRESS":"中正南路５９２巷１１弄１１號","OBJECTID":15699},"geometry":{"x":171561.76999999955,"y":2548686.1899999995}},{"attributes":{"ID":15700,"DIS_CODE":0,"TOWNNAME":"永康區","LI":"\u25A0行里","LIN":"24鄰","STREET":"中正南路","SECT":" ","MAREA":" ","LANE":"５９２巷","ALLEY":"１１弄","HOUSE_NO":"２０號","E_COORD97":171555.70999999999,"N_COORD97":2548657.1800000002,"ADDRESS":"中正南路５９２巷１１弄２０號","OBJECTID":15700},"geometry":{"x":171555.70999999996,"y":2548657.1799999978}},{"attributes":{"ID":15701,"DIS_CODE":0,"TOWNNAME":"永康區","LI":"\u25A0行里","LIN":"24鄰","STREET":"中正南路","SECT":" ","MAREA":" ","LANE":"５９２巷","ALLEY":"２２弄","HOUSE_NO":"２號","E_COORD97":171558.06,"N_COORD97":2548631.1699999999,"ADDRESS":"中正南路５９２巷２２弄２號","OBJECTID":15701},"geometry":{"x":171558.05999999959,"y":2548631.1700000018}},{"attributes":{"ID":15702,"DIS_CODE":0,"TOWNNAME":"永康區","LI":"\u25A0行里","LIN":"24鄰","STREET":"中正南路","SECT":" ","MAREA":" ","LANE":"５９２巷","ALLEY":"２２弄","HOUSE_NO":"４號","E_COORD97":171561.97,"N_COORD97":2548633.9300000002,"ADDRESS":"中正南路５９２巷２２弄４號","OBJECTID":15702},"geometry":{"x":171561.97000000067,"y":2548633.9299999997}},{"attributes":{"ID":15703,"DIS_CODE":0,"TOWNNAME":"安南區","LI":"安富里","LIN":"24鄰","STREET":"郡安路","SECT":"五段","MAREA":" ","LANE":"１６４巷","ALLEY":"５弄","HOUSE_NO":"２３號","E_COORD97":167726.41,"N_COORD97":2547678.8399999999,"ADDRESS":"郡安路五段１６４巷５弄２３號","OBJECTID":15703},"geometry":{"x":167726.41000000108,"y":2547678.8399999999}},{"attributes":{"ID":15704,"DIS_CODE":0,"TOWNNAME":"安南區","LI":"安富里","LIN":"24鄰","STREET":"郡安路","SECT":"五段","MAREA":" ","LANE":"１６４巷","ALLEY":"５弄","HOUSE_NO":"２８號","E_COORD97":167740.64000000001,"N_COORD97":2547659.7799999998,"ADDRESS":"郡安路五段１６４巷５弄２８號","OBJECTID":15704},"geometry":{"x":167740.63999999873,"y":2547659.7800000031}},{"attributes":{"ID":15705,"DIS_CODE":0,"TOWNNAME":"安南區","LI":"安富里","LIN":"24鄰","STREET":"郡安路","SECT":"五段","MAREA":" ","LANE":"１６４巷","ALLEY":"６弄","HOUSE_NO":"２０號","E_COORD97":167588.04999999999,"N_COORD97":2547649.6200000001,"ADDRESS":"郡安路五段１６４巷６弄２０號","OBJECTID":15705},"geometry":{"x":167588.05000000075,"y":2547649.6200000029}},{"attributes":{"ID":15706,"DIS_CODE":0,"TOWNNAME":"永康區","LI":"龍潭里","LIN":"24鄰","STREET":"中山北路","SECT":" ","MAREA":" ","LANE":"２６４巷","ALLEY":"１９１弄","HOUSE_NO":"４２號","E_COORD97":174885.57999999999,"N_COORD97":2546986.8399999999,"ADDRESS":"中山北路２６４巷１９１弄４２號","OBJECTID":15706},"geometry":{"x":174885.58000000101,"y":2546986.8399999999}},{"attributes":{"ID":15707,"DIS_CODE":0,"TOWNNAME":"永康區","LI":"龍潭里","LIN":"24鄰","STREET":"中山北路","SECT":" ","MAREA":" ","LANE":"３４４巷","ALLEY":"１７弄","HOUSE_NO":"２２號","E_COORD97":175266.88,"N_COORD97":2547605.7000000002,"ADDRESS":"中山北路３４４巷１７弄２２號","OBJECTID":15707},"geometry":{"x":175266.87999999989,"y":2547605.700000003}},{"attributes":{"ID":15708,"DIS_CODE":0,"TOWNNAME":"永康區","LI":"龍潭里","LIN":"24鄰","STREET":"中山北路","SECT":" ","MAREA":" ","LANE":"２６４巷","ALLEY":"１１弄","HOUSE_NO":"１２號","E_COORD97":174760.12,"N_COORD97":2547608.27,"ADDRESS":"中山北路２６４巷１１弄１２號","OBJECTID":15708},"geometry":{"x":174760.12000000104,"y":2547608.2699999996}},{"attributes":{"ID":15709,"DIS_CODE":0,"TOWNNAME":"東區","LI":"富強里","LIN":"24鄰","STREET":"中華東路","SECT":"二段","MAREA":" ","LANE":"４８巷","ALLEY":"５弄","HOUSE_NO":"１８號","E_COORD97":171340.69,"N_COORD97":2542935.9900000002,"ADDRESS":"中華東路二段４８巷５弄１８號","OBJECTID":15709},"geometry":{"x":171340.69000000134,"y":2542935.9899999984}},{"attributes":{"ID":15710,"DIS_CODE":0,"TOWNNAME":"新市區","LI":"大社里","LIN":"14鄰","STREET":" ","SECT":" ","MAREA":"大社","LANE":" ","ALLEY":" ","HOUSE_NO":"５３８號","E_COORD97":179970.89999999999,"N_COORD97":2554660.75,"ADDRESS":"大社５３８號","OBJECTID":15710},"geometry":{"x":179970.9000000013,"y":2554660.75}},{"attributes":{"ID":15711,"DIS_CODE":0,"TOWNNAME":"東區","LI":"富強里","LIN":"24鄰","STREET":"中華東路","SECT":"二段","MAREA":" ","LANE":"４８巷","ALLEY":"５弄","HOUSE_NO":"１０號","E_COORD97":171340,"N_COORD97":2542962.2200000002,"ADDRESS":"中華東路二段４８巷５弄１０號","OBJECTID":15711},"geometry":{"x":171340.00000000093,"y":2542962.2200000044}},{"attributes":{"ID":15712,"DIS_CODE":0,"TOWNNAME":"東區","LI":"富強里","LIN":"24鄰","STREET":"中華東路","SECT":"二段","MAREA":" ","LANE":"４８巷","ALLEY":"５弄","HOUSE_NO":"１２號","E_COORD97":171338.92999999999,"N_COORD97":2542954.7400000002,"ADDRESS":"中華東路二段４８巷５弄１２號","OBJECTID":15712},"geometry":{"x":171338.9299999997,"y":2542954.7399999984}},{"attributes":{"ID":15713,"DIS_CODE":0,"TOWNNAME":"東區","LI":"富強里","LIN":"24鄰","STREET":"中華東路","SECT":"二段","MAREA":" ","LANE":"４８巷","ALLEY":"５弄","HOUSE_NO":"２４號","E_COORD97":171341.26000000001,"N_COORD97":2542917.0600000001,"ADDRESS":"中華東路二段４８巷５弄２４號","OBJECTID":15713},"geometry":{"x":171341.26000000071,"y":2542917.0600000024}},{"attributes":{"ID":15714,"DIS_CODE":0,"TOWNNAME":"東區","LI":"富強里","LIN":"24鄰","STREET":"中華東路","SECT":"二段","MAREA":" ","LANE":"４８巷","ALLEY":"５弄","HOUSE_NO":"２６號","E_COORD97":171340.54999999999,"N_COORD97":2542910.23,"ADDRESS":"中華東路二段４８巷５弄２６號","OBJECTID":15714},"geometry":{"x":171340.55000000075,"y":2542910.2300000004}},{"attributes":{"ID":15715,"DIS_CODE":0,"TOWNNAME":"東區","LI":"富強里","LIN":"24鄰","STREET":"中華東路","SECT":"二段","MAREA":" ","LANE":"４８巷","ALLEY":"５弄","HOUSE_NO":"２８號","E_COORD97":171340.41,"N_COORD97":2542904.3900000001,"ADDRESS":"中華東路二段４８巷５弄２８號","OBJECTID":15715},"geometry":{"x":171340.41000000108,"y":2542904.3900000025}},{"attributes":{"ID":15716,"DIS_CODE":0,"TOWNNAME":"東區","LI":"富強里","LIN":"24鄰","STREET":"中華東路","SECT":"二段","MAREA":" ","LANE":"４８巷","ALLEY":"５弄","HOUSE_NO":"２號","E_COORD97":171337.5,"N_COORD97":2542988.0600000001,"ADDRESS":"中華東路二段４８巷５弄２號","OBJECTID":15716},"geometry":{"x":171337.50000000186,"y":2542988.0600000024}},{"attributes":{"ID":15717,"DIS_CODE":0,"TOWNNAME":"東區","LI":"富強里","LIN":"24鄰","STREET":"中華東路","SECT":"二段","MAREA":" ","LANE":"４８巷","ALLEY":"５弄","HOUSE_NO":"６號","E_COORD97":171338.20999999999,"N_COORD97":2542978.79,"ADDRESS":"中華東路二段４８巷５弄６號","OBJECTID":15717},"geometry":{"x":171338.21000000089,"y":2542978.790000001}},{"attributes":{"ID":15718,"DIS_CODE":0,"TOWNNAME":"東區","LI":"富強里","LIN":"24鄰","STREET":"中華東路","SECT":"二段","MAREA":" ","LANE":"４８巷","ALLEY":"５弄","HOUSE_NO":"８號","E_COORD97":171339.28,"N_COORD97":2542967.3900000001,"ADDRESS":"中華東路二段４８巷５弄８號","OBJECTID":15718},"geometry":{"x":171339.28000000212,"y":2542967.3900000006}},{"attributes":{"ID":15719,"DIS_CODE":0,"TOWNNAME":"永康區","LI":"北灣里","LIN":"24鄰","STREET":"大灣路","SECT":" ","MAREA":" ","LANE":"３７巷","ALLEY":"２０弄","HOUSE_NO":"６號","E_COORD97":175395.64000000001,"N_COORD97":2545826.75,"ADDRESS":"大灣路３７巷２０弄６號","OBJECTID":15719},"geometry":{"x":175395.63999999966,"y":2545826.7500000019}},{"attributes":{"ID":15720,"DIS_CODE":0,"TOWNNAME":"永康區","LI":"北灣里","LIN":"24鄰","STREET":"大灣路","SECT":" ","MAREA":" ","LANE":"３７巷","ALLEY":"２０弄","HOUSE_NO":"１８號","E_COORD97":175399.63,"N_COORD97":2545798.5,"ADDRESS":"大灣路３７巷２０弄１８號","OBJECTID":15720},"geometry":{"x":175399.62999999989,"y":2545798.5000000019}},{"attributes":{"ID":15721,"DIS_CODE":0,"TOWNNAME":"永康區","LI":"北灣里","LIN":"24鄰","STREET":"大灣路","SECT":" ","MAREA":" ","LANE":"３７巷","ALLEY":"２０弄","HOUSE_NO":"１２號","E_COORD97":175385.45000000001,"N_COORD97":2545814.5,"ADDRESS":"大灣路３７巷２０弄１２號","OBJECTID":15721},"geometry":{"x":175385.45000000019,"y":2545814.5000000037}},{"attributes":{"ID":15722,"DIS_CODE":0,"TOWNNAME":"安平區","LI":"文平里","LIN":"5鄰","STREET":"建平六街","SECT":" ","MAREA":" ","LANE":"８０巷","ALLEY":"１１６弄","HOUSE_NO":"１０號","E_COORD97":166480.17999999999,"N_COORD97":2543166.0600000001,"ADDRESS":"建平六街８０巷１１６弄１０號","OBJECTID":15722},"geometry":{"x":166480.1799999997,"y":2543166.0600000005}},{"attributes":{"ID":15723,"DIS_CODE":0,"TOWNNAME":"北門區","LI":"保吉里","LIN":"14鄰","STREET":" ","SECT":" ","MAREA":"蚵寮","LANE":" ","ALLEY":" ","HOUSE_NO":"３６４號之２２","E_COORD97":161379.20000000001,"N_COORD97":2576400.2200000002,"ADDRESS":"蚵寮３６４號之２２","OBJECTID":15723},"geometry":{"x":161379.20000000112,"y":2576400.2200000007}},{"attributes":{"ID":15724,"DIS_CODE":0,"TOWNNAME":"北門區","LI":"保吉里","LIN":"14鄰","STREET":" ","SECT":" ","MAREA":"蚵寮","LANE":" ","ALLEY":" ","HOUSE_NO":"３６４號之２３","E_COORD97":161378.06,"N_COORD97":2576404.8399999999,"ADDRESS":"蚵寮３６４號之２３","OBJECTID":15724},"geometry":{"x":161378.06000000052,"y":2576404.8400000017}},{"attributes":{"ID":15725,"DIS_CODE":0,"TOWNNAME":"北門區","LI":"保吉里","LIN":"14鄰","STREET":" ","SECT":" ","MAREA":"蚵寮","LANE":" ","ALLEY":" ","HOUSE_NO":"３６４號之２４","E_COORD97":161377.17999999999,"N_COORD97":2576408.9500000002,"ADDRESS":"蚵寮３６４號之２４","OBJECTID":15725},"geometry":{"x":161377.18000000063,"y":2576408.950000003}},{"attributes":{"ID":15726,"DIS_CODE":0,"TOWNNAME":"北門區","LI":"保吉里","LIN":"14鄰","STREET":" ","SECT":" ","MAREA":"蚵寮","LANE":" ","ALLEY":" ","HOUSE_NO":"３６４號之２５","E_COORD97":161376.07999999999,"N_COORD97":2576412.9500000002,"ADDRESS":"蚵寮３６４號之２５","OBJECTID":15726},"geometry":{"x":161376.08000000194,"y":2576412.9500000011}},{"attributes":{"ID":15727,"DIS_CODE":0,"TOWNNAME":"北門區","LI":"保吉里","LIN":"14鄰","STREET":" ","SECT":" ","MAREA":"蚵寮","LANE":" ","ALLEY":" ","HOUSE_NO":"３６４號之２６","E_COORD97":161374.84,"N_COORD97":2576417.1400000001,"ADDRESS":"蚵寮３６４號之２６","OBJECTID":15727},"geometry":{"x":161374.84000000078,"y":2576417.1400000025}},{"attributes":{"ID":15728,"DIS_CODE":0,"TOWNNAME":"北門區","LI":"保吉里","LIN":"14鄰","STREET":" ","SECT":" ","MAREA":"蚵寮","LANE":" ","ALLEY":" ","HOUSE_NO":"３６４號之２７","E_COORD97":161373.75,"N_COORD97":2576421.52,"ADDRESS":"蚵寮３６４號之２７","OBJECTID":15728},"geometry":{"x":161373.75000000093,"y":2576421.5199999996}},{"attributes":{"ID":15729,"DIS_CODE":0,"TOWNNAME":"北門區","LI":"保吉里","LIN":"14鄰","STREET":" ","SECT":" ","MAREA":"蚵寮","LANE":" ","ALLEY":" ","HOUSE_NO":"３６４號之２","E_COORD97":161238.35999999999,"N_COORD97":2576428.5800000001,"ADDRESS":"蚵寮３６４號之２","OBJECTID":15729},"geometry":{"x":161238.36000000034,"y":2576428.5800000001}},{"attributes":{"ID":15730,"DIS_CODE":0,"TOWNNAME":"北門區","LI":"保吉里","LIN":"14鄰","STREET":" ","SECT":" ","MAREA":"蚵寮","LANE":" ","ALLEY":" ","HOUSE_NO":"３６４之３７號","E_COORD97":160766.51000000001,"N_COORD97":2576845.0299999998,"ADDRESS":"蚵寮３６４之３７號","OBJECTID":15730},"geometry":{"x":160766.51000000071,"y":2576845.0299999993}},{"attributes":{"ID":15731,"DIS_CODE":0,"TOWNNAME":"北門區","LI":"保吉里","LIN":"14鄰","STREET":" ","SECT":" ","MAREA":"蚵寮","LANE":" ","ALLEY":" ","HOUSE_NO":"３６４之５１號","E_COORD97":159905.20999999999,"N_COORD97":2576656.9100000001,"ADDRESS":"蚵寮３６４之５１號","OBJECTID":15731},"geometry":{"x":159905.20999999996,"y":2576656.9100000001}},{"attributes":{"ID":15732,"DIS_CODE":0,"TOWNNAME":"北門區","LI":"保吉里","LIN":"14鄰","STREET":" ","SECT":" ","MAREA":"蚵寮","LANE":" ","ALLEY":" ","HOUSE_NO":"３６４之５３號","E_COORD97":159792.42999999999,"N_COORD97":2576666.25,"ADDRESS":"蚵寮３６４之５３號","OBJECTID":15732},"geometry":{"x":159792.43000000063,"y":2576666.2500000019}},{"attributes":{"ID":15733,"DIS_CODE":0,"TOWNNAME":"北門區","LI":"保吉里","LIN":"14鄰","STREET":" ","SECT":" ","MAREA":"蚵寮","LANE":" ","ALLEY":" ","HOUSE_NO":"３６４之５號","E_COORD97":161120.29000000001,"N_COORD97":2576481.0499999998,"ADDRESS":"蚵寮３６４之５號","OBJECTID":15733},"geometry":{"x":161120.28999999911,"y":2576481.0500000045}},{"attributes":{"ID":15734,"DIS_CODE":0,"TOWNNAME":"北門區","LI":"保吉里","LIN":"14鄰","STREET":" ","SECT":" ","MAREA":"蚵寮","LANE":" ","ALLEY":" ","HOUSE_NO":"３６４之６０號","E_COORD97":159937.51000000001,"N_COORD97":2576340.98,"ADDRESS":"蚵寮３６４之６０號","OBJECTID":15734},"geometry":{"x":159937.51000000071,"y":2576340.9800000004}},{"attributes":{"ID":15735,"DIS_CODE":0,"TOWNNAME":"北門區","LI":"保吉里","LIN":"14鄰","STREET":" ","SECT":" ","MAREA":"蚵寮","LANE":" ","ALLEY":" ","HOUSE_NO":"３６４號之６０","E_COORD97":159937.51000000001,"N_COORD97":2576340.98,"ADDRESS":"蚵寮３６４號之６０","OBJECTID":15735},"geometry":{"x":159937.51000000071,"y":2576340.9800000004}},{"attributes":{"ID":15736,"DIS_CODE":0,"TOWNNAME":"北門區","LI":"保吉里","LIN":"14鄰","STREET":" ","SECT":" ","MAREA":"蚵寮","LANE":" ","ALLEY":" ","HOUSE_NO":"３６４之６２號","E_COORD97":159971.67999999999,"N_COORD97":2576213.6400000001,"ADDRESS":"蚵寮３６４之６２號","OBJECTID":15736},"geometry":{"x":159971.68000000063,"y":2576213.6400000025}},{"attributes":{"ID":15737,"DIS_CODE":0,"TOWNNAME":"北門區","LI":"保吉里","LIN":"14鄰","STREET":" ","SECT":" ","MAREA":"蚵寮","LANE":" ","ALLEY":" ","HOUSE_NO":"３６４之７０號","E_COORD97":160160.10999999999,"N_COORD97":2575799.2400000002,"ADDRESS":"蚵寮３６４之７０號","OBJECTID":15737},"geometry":{"x":160160.11000000034,"y":2575799.2400000002}},{"attributes":{"ID":15738,"DIS_CODE":0,"TOWNNAME":"北門區","LI":"保吉里","LIN":"14鄰","STREET":" ","SECT":" ","MAREA":"蚵寮","LANE":" ","ALLEY":" ","HOUSE_NO":"３６４之８８號","E_COORD97":160186.64000000001,"N_COORD97":2576808.9399999999,"ADDRESS":"蚵寮３６４之８８號","OBJECTID":15738},"geometry":{"x":160186.63999999966,"y":2576808.9400000032}},{"attributes":{"ID":15739,"DIS_CODE":0,"TOWNNAME":"北門區","LI":"保吉里","LIN":"14鄰","STREET":" ","SECT":" ","MAREA":"蚵寮","LANE":" ","ALLEY":" ","HOUSE_NO":"３６４號之８８","E_COORD97":160186.64000000001,"N_COORD97":2576808.9399999999,"ADDRESS":"蚵寮３６４號之８８","OBJECTID":15739},"geometry":{"x":160186.63999999966,"y":2576808.9400000032}},{"attributes":{"ID":15740,"DIS_CODE":0,"TOWNNAME":"新市區","LI":"大營里","LIN":"14鄰","STREET":" ","SECT":" ","MAREA":"大營","LANE":" ","ALLEY":" ","HOUSE_NO":"２７１號","E_COORD97":179156.39999999999,"N_COORD97":2555520.25,"ADDRESS":"大營２７１號","OBJECTID":15740},"geometry":{"x":179156.40000000037,"y":2555520.2500000019}},{"attributes":{"ID":15741,"DIS_CODE":0,"TOWNNAME":"北門區","LI":"保吉里","LIN":"14鄰","STREET":" ","SECT":" ","MAREA":"蚵寮","LANE":" ","ALLEY":" ","HOUSE_NO":"３６４號之９０","E_COORD97":160410.32000000001,"N_COORD97":2576060.0099999998,"ADDRESS":"蚵寮３６４號之９０","OBJECTID":15741},"geometry":{"x":160410.32000000216,"y":2576060.0100000016}},{"attributes":{"ID":15742,"DIS_CODE":0,"TOWNNAME":"北門區","LI":"保吉里","LIN":"14鄰","STREET":" ","SECT":" ","MAREA":"蚵寮","LANE":" ","ALLEY":" ","HOUSE_NO":"３６４之９２號","E_COORD97":160501.06,"N_COORD97":2575961.6000000001,"ADDRESS":"蚵寮３６４之９２號","OBJECTID":15742},"geometry":{"x":160501.06000000145,"y":2575961.6000000015}},{"attributes":{"ID":15743,"DIS_CODE":0,"TOWNNAME":"北門區","LI":"保吉里","LIN":"14鄰","STREET":" ","SECT":" ","MAREA":"蚵寮","LANE":" ","ALLEY":" ","HOUSE_NO":"３６４號之９２","E_COORD97":160501.06,"N_COORD97":2575961.6000000001,"ADDRESS":"蚵寮３６４號之９２","OBJECTID":15743},"geometry":{"x":160501.06000000145,"y":2575961.6000000015}},{"attributes":{"ID":15744,"DIS_CODE":0,"TOWNNAME":"北門區","LI":"保吉里","LIN":"14鄰","STREET":" ","SECT":" ","MAREA":"蚵寮","LANE":" ","ALLEY":" ","HOUSE_NO":"３６４之９號","E_COORD97":161393,"N_COORD97":2576345.7999999998,"ADDRESS":"蚵寮３６４之９號","OBJECTID":15744},"geometry":{"x":161393,"y":2576345.8000000007}},{"attributes":{"ID":15745,"DIS_CODE":0,"TOWNNAME":"北門區","LI":"保吉里","LIN":"14鄰","STREET":" ","SECT":" ","MAREA":"蚵寮","LANE":" ","ALLEY":" ","HOUSE_NO":"３６４號","E_COORD97":161408.5,"N_COORD97":2576311.77,"ADDRESS":"蚵寮３６４號","OBJECTID":15745},"geometry":{"x":161408.5,"y":2576311.7699999977}},{"attributes":{"ID":15746,"DIS_CODE":0,"TOWNNAME":"北門區","LI":"保吉里","LIN":"14鄰","STREET":" ","SECT":" ","MAREA":"蚵寮","LANE":" ","ALLEY":" ","HOUSE_NO":"３６５號","E_COORD97":161447.98999999999,"N_COORD97":2576267,"ADDRESS":"蚵寮３６５號","OBJECTID":15746},"geometry":{"x":161447.98999999929,"y":2576267.0000000037}},{"attributes":{"ID":15747,"DIS_CODE":0,"TOWNNAME":"北門區","LI":"保吉里","LIN":"14鄰","STREET":" ","SECT":" ","MAREA":"蚵寮","LANE":" ","ALLEY":" ","HOUSE_NO":"３６７號","E_COORD97":161462.10000000001,"N_COORD97":2576260.1000000001,"ADDRESS":"蚵寮３６７號","OBJECTID":15747},"geometry":{"x":161462.10000000149,"y":2576260.1000000015}},{"attributes":{"ID":15748,"DIS_CODE":0,"TOWNNAME":"北門區","LI":"保吉里","LIN":"14鄰","STREET":" ","SECT":" ","MAREA":"蚵寮","LANE":" ","ALLEY":" ","HOUSE_NO":"３６９號","E_COORD97":161470.67000000001,"N_COORD97":2576275.6400000001,"ADDRESS":"蚵寮３６９號","OBJECTID":15748},"geometry":{"x":161470.67000000086,"y":2576275.6400000006}},{"attributes":{"ID":15749,"DIS_CODE":0,"TOWNNAME":"北門區","LI":"保吉里","LIN":"14鄰","STREET":" ","SECT":" ","MAREA":"蚵寮","LANE":" ","ALLEY":" ","HOUSE_NO":"３７１號","E_COORD97":161489.57000000001,"N_COORD97":2576269.7400000002,"ADDRESS":"蚵寮３７１號","OBJECTID":15749},"geometry":{"x":161489.5700000003,"y":2576269.7400000021}},{"attributes":{"ID":15750,"DIS_CODE":0,"TOWNNAME":"玉井區","LI":"豐里里","LIN":"5鄰","STREET":" ","SECT":" ","MAREA":"豐里","LANE":" ","ALLEY":" ","HOUSE_NO":"４９號","E_COORD97":193154.57000000001,"N_COORD97":2558090.2400000002,"ADDRESS":"豐里４９號","OBJECTID":15750},"geometry":{"x":193154.57000000216,"y":2558090.2400000021}},{"attributes":{"ID":15751,"DIS_CODE":0,"TOWNNAME":"北門區","LI":"保吉里","LIN":"14鄰","STREET":" ","SECT":" ","MAREA":"蚵寮","LANE":" ","ALLEY":" ","HOUSE_NO":"３７３號","E_COORD97":161480.92999999999,"N_COORD97":2576250.6600000001,"ADDRESS":"蚵寮３７３號","OBJECTID":15751},"geometry":{"x":161480.93000000063,"y":2576250.6600000001}},{"attributes":{"ID":15752,"DIS_CODE":0,"TOWNNAME":"北門區","LI":"保吉里","LIN":"14鄰","STREET":" ","SECT":" ","MAREA":"蚵寮","LANE":" ","ALLEY":" ","HOUSE_NO":"３７４號","E_COORD97":161492.35999999999,"N_COORD97":2576236.8100000001,"ADDRESS":"蚵寮３７４號","OBJECTID":15752},"geometry":{"x":161492.36000000034,"y":2576236.8100000005}},{"attributes":{"ID":15753,"DIS_CODE":0,"TOWNNAME":"北門區","LI":"東壁里","LIN":"14鄰","STREET":" ","SECT":" ","MAREA":"蚵寮","LANE":" ","ALLEY":" ","HOUSE_NO":"７４１號","E_COORD97":161659.97,"N_COORD97":2576318.5499999998,"ADDRESS":"蚵寮７４１號","OBJECTID":15753},"geometry":{"x":161659.97000000067,"y":2576318.5500000026}},{"attributes":{"ID":15754,"DIS_CODE":0,"TOWNNAME":"北門區","LI":"東壁里","LIN":"14鄰","STREET":" ","SECT":" ","MAREA":"蚵寮","LANE":" ","ALLEY":" ","HOUSE_NO":"７４３號之２","E_COORD97":161657.73000000001,"N_COORD97":2576287.7999999998,"ADDRESS":"蚵寮７４３號之２","OBJECTID":15754},"geometry":{"x":161657.73000000138,"y":2576287.8000000007}},{"attributes":{"ID":15755,"DIS_CODE":0,"TOWNNAME":"北門區","LI":"東壁里","LIN":"14鄰","STREET":" ","SECT":" ","MAREA":"蚵寮","LANE":" ","ALLEY":" ","HOUSE_NO":"７４３號","E_COORD97":161664.60000000001,"N_COORD97":2576290.1899999999,"ADDRESS":"蚵寮７４３號","OBJECTID":15755},"geometry":{"x":161664.59999999963,"y":2576290.1900000013}},{"attributes":{"ID":15756,"DIS_CODE":0,"TOWNNAME":"北門區","LI":"東壁里","LIN":"14鄰","STREET":" ","SECT":" ","MAREA":"蚵寮","LANE":" ","ALLEY":" ","HOUSE_NO":"７４４號","E_COORD97":161640.38,"N_COORD97":2576281.3199999998,"ADDRESS":"蚵寮７４４號","OBJECTID":15756},"geometry":{"x":161640.38000000082,"y":2576281.3200000003}},{"attributes":{"ID":15757,"DIS_CODE":0,"TOWNNAME":"北門區","LI":"東壁里","LIN":"14鄰","STREET":" ","SECT":" ","MAREA":"蚵寮","LANE":" ","ALLEY":" ","HOUSE_NO":"７４６號","E_COORD97":161681.88,"N_COORD97":2576282.0600000001,"ADDRESS":"蚵寮７４６號","OBJECTID":15757},"geometry":{"x":161681.87999999989,"y":2576282.0600000024}},{"attributes":{"ID":15758,"DIS_CODE":0,"TOWNNAME":"北門區","LI":"東壁里","LIN":"14鄰","STREET":" ","SECT":" ","MAREA":"蚵寮","LANE":" ","ALLEY":" ","HOUSE_NO":"７４９號","E_COORD97":161653.07000000001,"N_COORD97":2576295.0699999998,"ADDRESS":"蚵寮７４９號","OBJECTID":15758},"geometry":{"x":161653.07000000123,"y":2576295.0700000022}},{"attributes":{"ID":15759,"DIS_CODE":0,"TOWNNAME":"北門區","LI":"東壁里","LIN":"14鄰","STREET":" ","SECT":" ","MAREA":"蚵寮","LANE":" ","ALLEY":" ","HOUSE_NO":"７５０號","E_COORD97":161655.60000000001,"N_COORD97":2576275.7200000002,"ADDRESS":"蚵寮７５０號","OBJECTID":15759},"geometry":{"x":161655.60000000056,"y":2576275.7200000007}},{"attributes":{"ID":15760,"DIS_CODE":0,"TOWNNAME":"北門區","LI":"東壁里","LIN":"14鄰","STREET":" ","SECT":" ","MAREA":"蚵寮","LANE":" ","ALLEY":" ","HOUSE_NO":"７５１號","E_COORD97":161652.67000000001,"N_COORD97":2576274.8199999998,"ADDRESS":"蚵寮７５１號","OBJECTID":15760},"geometry":{"x":161652.66999999993,"y":2576274.8199999984}},{"attributes":{"ID":15761,"DIS_CODE":0,"TOWNNAME":"北門區","LI":"永隆里","LIN":"14鄰","STREET":" ","SECT":" ","MAREA":"港北","LANE":" ","ALLEY":" ","HOUSE_NO":"２１號","E_COORD97":160204.20000000001,"N_COORD97":2574589.4500000002,"ADDRESS":"港北２１號","OBJECTID":15761},"geometry":{"x":160204.20000000205,"y":2574589.4500000011}},{"attributes":{"ID":15762,"DIS_CODE":0,"TOWNNAME":"北門區","LI":"永隆里","LIN":"14鄰","STREET":" ","SECT":" ","MAREA":"港北","LANE":" ","ALLEY":" ","HOUSE_NO":"２３號","E_COORD97":160225.14000000001,"N_COORD97":2574583.6699999999,"ADDRESS":"港北２３號","OBJECTID":15762},"geometry":{"x":160225.13999999966,"y":2574583.6699999981}},{"attributes":{"ID":15763,"DIS_CODE":0,"TOWNNAME":"北門區","LI":"永隆里","LIN":"14鄰","STREET":" ","SECT":" ","MAREA":"港北","LANE":" ","ALLEY":" ","HOUSE_NO":"２４號","E_COORD97":160238.82999999999,"N_COORD97":2574589.0800000001,"ADDRESS":"港北２４號","OBJECTID":15763},"geometry":{"x":160238.83000000101,"y":2574589.0800000019}},{"attributes":{"ID":15764,"DIS_CODE":0,"TOWNNAME":"北門區","LI":"錦湖里","LIN":"14鄰","STREET":" ","SECT":" ","MAREA":"渡子頭","LANE":" ","ALLEY":" ","HOUSE_NO":"１３８號之１","E_COORD97":163764.67000000001,"N_COORD97":2578312.9399999999,"ADDRESS":"渡子頭１３８號之１","OBJECTID":15764},"geometry":{"x":163764.67000000086,"y":2578312.9399999995}},{"attributes":{"ID":15765,"DIS_CODE":0,"TOWNNAME":"北門區","LI":"錦湖里","LIN":"14鄰","STREET":" ","SECT":" ","MAREA":"渡子頭","LANE":" ","ALLEY":" ","HOUSE_NO":"１３９號","E_COORD97":163748.60999999999,"N_COORD97":2578345.8199999998,"ADDRESS":"渡子頭１３９號","OBJECTID":15765},"geometry":{"x":163748.61000000127,"y":2578345.8200000003}},{"attributes":{"ID":15766,"DIS_CODE":0,"TOWNNAME":"北門區","LI":"錦湖里","LIN":"14鄰","STREET":" ","SECT":" ","MAREA":"渡子頭","LANE":" ","ALLEY":" ","HOUSE_NO":"１４０號之１","E_COORD97":163752.70999999999,"N_COORD97":2578385.5099999998,"ADDRESS":"渡子頭１４０號之１","OBJECTID":15766},"geometry":{"x":163752.70999999996,"y":2578385.5100000035}},{"attributes":{"ID":15767,"DIS_CODE":0,"TOWNNAME":"北門區","LI":"錦湖里","LIN":"14鄰","STREET":" ","SECT":" ","MAREA":"渡子頭","LANE":" ","ALLEY":" ","HOUSE_NO":"１４０號之６","E_COORD97":163688.44,"N_COORD97":2578434.4500000002,"ADDRESS":"渡子頭１４０號之６","OBJECTID":15767},"geometry":{"x":163688.44000000134,"y":2578434.4499999993}},{"attributes":{"ID":15768,"DIS_CODE":0,"TOWNNAME":"北門區","LI":"錦湖里","LIN":"14鄰","STREET":" ","SECT":" ","MAREA":"渡子頭","LANE":" ","ALLEY":" ","HOUSE_NO":"１４０號","E_COORD97":163738.28,"N_COORD97":2578399.7599999998,"ADDRESS":"渡子頭１４０號","OBJECTID":15768},"geometry":{"x":163738.28000000119,"y":2578399.7599999998}},{"attributes":{"ID":15769,"DIS_CODE":0,"TOWNNAME":"北門區","LI":"錦湖里","LIN":"14鄰","STREET":" ","SECT":" ","MAREA":"渡子頭","LANE":" ","ALLEY":" ","HOUSE_NO":"１４１號之１","E_COORD97":163719.14000000001,"N_COORD97":2578359.7400000002,"ADDRESS":"渡子頭１４１號之１","OBJECTID":15769},"geometry":{"x":163719.13999999966,"y":2578359.7400000002}},{"attributes":{"ID":15770,"DIS_CODE":0,"TOWNNAME":"北門區","LI":"錦湖里","LIN":"14鄰","STREET":" ","SECT":" ","MAREA":"渡子頭","LANE":" ","ALLEY":" ","HOUSE_NO":"１４１號","E_COORD97":163726.19,"N_COORD97":2578344.6299999999,"ADDRESS":"渡子頭１４１號","OBJECTID":15770},"geometry":{"x":163726.19000000041,"y":2578344.6300000008}},{"attributes":{"ID":15771,"DIS_CODE":0,"TOWNNAME":"北門區","LI":"錦湖里","LIN":"14鄰","STREET":" ","SECT":" ","MAREA":"渡子頭","LANE":" ","ALLEY":" ","HOUSE_NO":"１４５號","E_COORD97":163814.10999999999,"N_COORD97":2578280.8999999999,"ADDRESS":"渡子頭１４５號","OBJECTID":15771},"geometry":{"x":163814.11000000127,"y":2578280.9000000004}},{"attributes":{"ID":15772,"DIS_CODE":0,"TOWNNAME":"北門區","LI":"錦湖里","LIN":"14鄰","STREET":" ","SECT":" ","MAREA":"渡子頭","LANE":" ","ALLEY":" ","HOUSE_NO":"１４６之１號","E_COORD97":163831.95000000001,"N_COORD97":2578274.9199999999,"ADDRESS":"渡子頭１４６之１號","OBJECTID":15772},"geometry":{"x":163831.95000000112,"y":2578274.9200000018}},{"attributes":{"ID":15773,"DIS_CODE":0,"TOWNNAME":"北門區","LI":"錦湖里","LIN":"14鄰","STREET":" ","SECT":" ","MAREA":"渡子頭","LANE":" ","ALLEY":" ","HOUSE_NO":"１４６號之１","E_COORD97":163831.95000000001,"N_COORD97":2578274.9199999999,"ADDRESS":"渡子頭１４６號之１","OBJECTID":15773},"geometry":{"x":163831.95000000112,"y":2578274.9200000018}},{"attributes":{"ID":15774,"DIS_CODE":0,"TOWNNAME":"北門區","LI":"錦湖里","LIN":"14鄰","STREET":" ","SECT":" ","MAREA":"渡子頭","LANE":" ","ALLEY":" ","HOUSE_NO":"１４６號","E_COORD97":163848.45000000001,"N_COORD97":2578272.3100000001,"ADDRESS":"渡子頭１４６號","OBJECTID":15774},"geometry":{"x":163848.45000000019,"y":2578272.3100000042}},{"attributes":{"ID":15775,"DIS_CODE":0,"TOWNNAME":"新市區","LI":"潭頂里","LIN":"14鄰","STREET":" ","SECT":" ","MAREA":"潭頂","LANE":" ","ALLEY":" ","HOUSE_NO":"５３８之２號","E_COORD97":180170.09,"N_COORD97":2552810.7999999998,"ADDRESS":"潭頂５３８之２號","OBJECTID":15775},"geometry":{"x":180170.08999999985,"y":2552810.8000000045}},{"attributes":{"ID":15776,"DIS_CODE":0,"TOWNNAME":"新市區","LI":"潭頂里","LIN":"14鄰","STREET":" ","SECT":" ","MAREA":"潭頂","LANE":" ","ALLEY":" ","HOUSE_NO":"５３６之６號","E_COORD97":180237.14000000001,"N_COORD97":2552808.0499999998,"ADDRESS":"潭頂５３６之６號","OBJECTID":15776},"geometry":{"x":180237.13999999966,"y":2552808.0500000007}},{"attributes":{"ID":15777,"DIS_CODE":0,"TOWNNAME":"將軍區","LI":"三吉里","LIN":"8鄰","STREET":" ","SECT":" ","MAREA":"三吉","LANE":" ","ALLEY":" ","HOUSE_NO":"６４號","E_COORD97":161134.78,"N_COORD97":2566903.1299999999,"ADDRESS":"三吉６４號","OBJECTID":15777},"geometry":{"x":161134.78000000119,"y":2566903.129999999}},{"attributes":{"ID":15778,"DIS_CODE":0,"TOWNNAME":"新市區","LI":"大社里","LIN":"14鄰","STREET":" ","SECT":" ","MAREA":"大社","LANE":" ","ALLEY":" ","HOUSE_NO":"５３０號之３","E_COORD97":179839.98999999999,"N_COORD97":2554749.2999999998,"ADDRESS":"大社５３０號之３","OBJECTID":15778},"geometry":{"x":179839.99000000115,"y":2554749.3000000007}},{"attributes":{"ID":15779,"DIS_CODE":0,"TOWNNAME":"新市區","LI":"大社里","LIN":"14鄰","STREET":" ","SECT":" ","MAREA":"大社","LANE":" ","ALLEY":" ","HOUSE_NO":"５３０號之５","E_COORD97":179848.75,"N_COORD97":2554752.7999999998,"ADDRESS":"大社５３０號之５","OBJECTID":15779},"geometry":{"x":179848.75,"y":2554752.8000000007}},{"attributes":{"ID":15780,"DIS_CODE":0,"TOWNNAME":"新市區","LI":"大社里","LIN":"14鄰","STREET":" ","SECT":" ","MAREA":"大社","LANE":" ","ALLEY":" ","HOUSE_NO":"５３０號之８","E_COORD97":179859.67999999999,"N_COORD97":2554757.2999999998,"ADDRESS":"大社５３０號之８","OBJECTID":15780},"geometry":{"x":179859.68000000063,"y":2554757.3000000026}},{"attributes":{"ID":15781,"DIS_CODE":0,"TOWNNAME":"新市區","LI":"大社里","LIN":"14鄰","STREET":" ","SECT":" ","MAREA":"大社","LANE":" ","ALLEY":" ","HOUSE_NO":"５１８之１號","E_COORD97":179917.26000000001,"N_COORD97":2554774.7999999998,"ADDRESS":"大社５１８之１號","OBJECTID":15781},"geometry":{"x":179917.26000000071,"y":2554774.8000000026}},{"attributes":{"ID":15782,"DIS_CODE":0,"TOWNNAME":"新市區","LI":"大社里","LIN":"14鄰","STREET":" ","SECT":" ","MAREA":"大社","LANE":" ","ALLEY":" ","HOUSE_NO":"５３０號之７","E_COORD97":179855.66,"N_COORD97":2554756.0499999998,"ADDRESS":"大社５３０號之７","OBJECTID":15782},"geometry":{"x":179855.66000000108,"y":2554756.0500000026}},{"attributes":{"ID":15783,"DIS_CODE":0,"TOWNNAME":"新市區","LI":"大社里","LIN":"14鄰","STREET":" ","SECT":" ","MAREA":"大社","LANE":" ","ALLEY":" ","HOUSE_NO":"５１８之６號","E_COORD97":179899.59,"N_COORD97":2554772.0499999998,"ADDRESS":"大社５１８之６號","OBJECTID":15783},"geometry":{"x":179899.59000000078,"y":2554772.0499999989}},{"attributes":{"ID":15784,"DIS_CODE":0,"TOWNNAME":"新市區","LI":"大社里","LIN":"14鄰","STREET":" ","SECT":" ","MAREA":"大社","LANE":" ","ALLEY":" ","HOUSE_NO":"５１９號","E_COORD97":179892.20999999999,"N_COORD97":2554791.75,"ADDRESS":"大社５１９號","OBJECTID":15784},"geometry":{"x":179892.21000000089,"y":2554791.7500000019}},{"attributes":{"ID":15785,"DIS_CODE":0,"TOWNNAME":"新市區","LI":"大社里","LIN":"14鄰","STREET":" ","SECT":" ","MAREA":"大社","LANE":" ","ALLEY":" ","HOUSE_NO":"５３０號之１２","E_COORD97":179876.82999999999,"N_COORD97":2554762.5499999998,"ADDRESS":"大社５３０號之１２","OBJECTID":15785},"geometry":{"x":179876.83000000007,"y":2554762.5500000026}},{"attributes":{"ID":15786,"DIS_CODE":0,"TOWNNAME":"新市區","LI":"大社里","LIN":"14鄰","STREET":" ","SECT":" ","MAREA":"大社","LANE":" ","ALLEY":" ","HOUSE_NO":"５３０號之４","E_COORD97":179845.06,"N_COORD97":2554751.7999999998,"ADDRESS":"大社５３０號之４","OBJECTID":15786},"geometry":{"x":179845.06000000052,"y":2554751.8000000026}},{"attributes":{"ID":15787,"DIS_CODE":0,"TOWNNAME":"新市區","LI":"大社里","LIN":"14鄰","STREET":" ","SECT":" ","MAREA":"大社","LANE":" ","ALLEY":" ","HOUSE_NO":"５１８之３號","E_COORD97":179908.35000000001,"N_COORD97":2554773.2999999998,"ADDRESS":"大社５１８之３號","OBJECTID":15787},"geometry":{"x":179908.34999999963,"y":2554773.3000000007}},{"attributes":{"ID":15788,"DIS_CODE":0,"TOWNNAME":"新市區","LI":"大社里","LIN":"14鄰","STREET":" ","SECT":" ","MAREA":"大社","LANE":" ","ALLEY":" ","HOUSE_NO":"５１８之７號","E_COORD97":179895.20000000001,"N_COORD97":2554771.04,"ADDRESS":"大社５１８之７號","OBJECTID":15788},"geometry":{"x":179895.20000000019,"y":2554771.040000001}},{"attributes":{"ID":15789,"DIS_CODE":0,"TOWNNAME":"新市區","LI":"大社里","LIN":"14鄰","STREET":" ","SECT":" ","MAREA":"大社","LANE":" ","ALLEY":" ","HOUSE_NO":"５１８之２號","E_COORD97":179912.76000000001,"N_COORD97":2554774.0499999998,"ADDRESS":"大社５１８之２號","OBJECTID":15789},"geometry":{"x":179912.75999999978,"y":2554774.0500000007}},{"attributes":{"ID":15790,"DIS_CODE":0,"TOWNNAME":"新市區","LI":"大社里","LIN":"14鄰","STREET":" ","SECT":" ","MAREA":"大社","LANE":" ","ALLEY":" ","HOUSE_NO":"５３０之１１號","E_COORD97":179873.01000000001,"N_COORD97":2554761.5499999998,"ADDRESS":"大社５３０之１１號","OBJECTID":15790},"geometry":{"x":179873.01000000071,"y":2554761.5500000007}},{"attributes":{"ID":15791,"DIS_CODE":0,"TOWNNAME":"新市區","LI":"大社里","LIN":"14鄰","STREET":" ","SECT":" ","MAREA":"大社","LANE":" ","ALLEY":" ","HOUSE_NO":"５１８號","E_COORD97":179895.73000000001,"N_COORD97":2554792.25,"ADDRESS":"大社５１８號","OBJECTID":15791},"geometry":{"x":179895.73000000138,"y":2554792.25}},{"attributes":{"ID":15792,"DIS_CODE":0,"TOWNNAME":"新市區","LI":"大營里","LIN":"14鄰","STREET":" ","SECT":" ","MAREA":"大營","LANE":" ","ALLEY":" ","HOUSE_NO":"２６１號","E_COORD97":179304.73000000001,"N_COORD97":2555579,"ADDRESS":"大營２６１號","OBJECTID":15792},"geometry":{"x":179304.73000000045,"y":2555579.0000000019}},{"attributes":{"ID":15793,"DIS_CODE":0,"TOWNNAME":"新市區","LI":"大營里","LIN":"14鄰","STREET":" ","SECT":" ","MAREA":"大營","LANE":" ","ALLEY":" ","HOUSE_NO":"２７２之１號","E_COORD97":179167.56,"N_COORD97":2555505.5499999998,"ADDRESS":"大營２７２之１號","OBJECTID":15793},"geometry":{"x":179167.56000000052,"y":2555505.5500000026}},{"attributes":{"ID":15794,"DIS_CODE":0,"TOWNNAME":"新市區","LI":"大營里","LIN":"14鄰","STREET":" ","SECT":" ","MAREA":"大營","LANE":" ","ALLEY":" ","HOUSE_NO":"２７０之１號","E_COORD97":179183.59,"N_COORD97":2555506.2999999998,"ADDRESS":"大營２７０之１號","OBJECTID":15794},"geometry":{"x":179183.58999999985,"y":2555506.3000000045}},{"attributes":{"ID":15795,"DIS_CODE":0,"TOWNNAME":"新市區","LI":"大營里","LIN":"14鄰","STREET":" ","SECT":" ","MAREA":"大營","LANE":" ","ALLEY":" ","HOUSE_NO":"２７１之１號","E_COORD97":179169.62,"N_COORD97":2555528.5499999998,"ADDRESS":"大營２７１之１號","OBJECTID":15795},"geometry":{"x":179169.62000000011,"y":2555528.5500000026}},{"attributes":{"ID":15796,"DIS_CODE":0,"TOWNNAME":"新市區","LI":"大社里","LIN":"14鄰","STREET":" ","SECT":" ","MAREA":"大社","LANE":" ","ALLEY":" ","HOUSE_NO":"５３０號之１７","E_COORD97":179868.67000000001,"N_COORD97":2554728.5499999998,"ADDRESS":"大社５３０號之１７","OBJECTID":15796},"geometry":{"x":179868.67000000086,"y":2554728.5500000026}},{"attributes":{"ID":15797,"DIS_CODE":0,"TOWNNAME":"新市區","LI":"大營里","LIN":"14鄰","STREET":" ","SECT":" ","MAREA":"大營","LANE":" ","ALLEY":" ","HOUSE_NO":"２５８號","E_COORD97":179295.31,"N_COORD97":2555610.25,"ADDRESS":"大營２５８號","OBJECTID":15797},"geometry":{"x":179295.30999999959,"y":2555610.25}},{"attributes":{"ID":15798,"DIS_CODE":0,"TOWNNAME":"新市區","LI":"大營里","LIN":"14鄰","STREET":" ","SECT":" ","MAREA":"大營","LANE":" ","ALLEY":" ","HOUSE_NO":"２６５之３號","E_COORD97":179268.92999999999,"N_COORD97":2555558.5499999998,"ADDRESS":"大營２６５之３號","OBJECTID":15798},"geometry":{"x":179268.9299999997,"y":2555558.5499999989}},{"attributes":{"ID":15799,"DIS_CODE":0,"TOWNNAME":"新市區","LI":"大營里","LIN":"14鄰","STREET":" ","SECT":" ","MAREA":"大營","LANE":" ","ALLEY":" ","HOUSE_NO":"２７０之３號","E_COORD97":179188.79000000001,"N_COORD97":2555521.5499999998,"ADDRESS":"大營２７０之３號","OBJECTID":15799},"geometry":{"x":179188.79000000004,"y":2555521.5500000045}},{"attributes":{"ID":15800,"DIS_CODE":0,"TOWNNAME":"新市區","LI":"大營里","LIN":"14鄰","STREET":" ","SECT":" ","MAREA":"大營","LANE":" ","ALLEY":" ","HOUSE_NO":"２６３號","E_COORD97":179310.13,"N_COORD97":2555551.25,"ADDRESS":"大營２６３號","OBJECTID":15800},"geometry":{"x":179310.12999999989,"y":2555551.2500000019}}]}