{"displayFieldName":"TOWNNAME","fieldAliases":{"ID":"ID","DIS_CODE":"DIS_CODE","TOWNNAME":"TOWNNAME","LI":"LI","LIN":"LIN","STREET":"STREET","SECT":"SECT","MAREA":"MAREA","LANE":"LANE","ALLEY":"ALLEY","HOUSE_NO":"HOUSE_NO","E_COORD97":"E_COORD97","N_COORD97":"N_COORD97","ADDRESS":"ADDRESS","OBJECTID":"OBJECTID"},"geometryType":"esriGeometryPoint","spatialReference":{"wkid":102443,"latestWkid":3826},"fields":[{"name":"ID","type":"esriFieldTypeDouble","alias":"ID"},{"name":"DIS_CODE","type":"esriFieldTypeInteger","alias":"DIS_CODE"},{"name":"TOWNNAME","type":"esriFieldTypeString","alias":"TOWNNAME","length":8},{"name":"LI","type":"esriFieldTypeString","alias":"LI","length":8},{"name":"LIN","type":"esriFieldTypeString","alias":"LIN","length":12},{"name":"STREET","type":"esriFieldTypeString","alias":"STREET","length":20},{"name":"SECT","type":"esriFieldTypeString","alias":"SECT","length":8},{"name":"MAREA","type":"esriFieldTypeString","alias":"MAREA","length":12},{"name":"LANE","type":"esriFieldTypeString","alias":"LANE","length":10},{"name":"ALLEY","type":"esriFieldTypeString","alias":"ALLEY","length":10},{"name":"HOUSE_NO","type":"esriFieldTypeString","alias":"HOUSE_NO","length":20},{"name":"E_COORD97","type":"esriFieldTypeDouble","alias":"E_COORD97"},{"name":"N_COORD97","type":"esriFieldTypeDouble","alias":"N_COORD97"},{"name":"ADDRESS","type":"esriFieldTypeString","alias":"ADDRESS","length":50},{"name":"OBJECTID","type":"esriFieldTypeOID","alias":"OBJECTID"}],"features":[{"attributes":{"ID":329410,"DIS_CODE":0,"TOWNNAME":"柳營區","LI":"士林里","LIN":"15鄰","STREET":"柳營路","SECT":"一段","MAREA":" ","LANE":"７４１巷","ALLEY":" ","HOUSE_NO":"５號","E_COORD97":179703.10000000001,"N_COORD97":2574762.8100000001,"ADDRESS":"柳營路一段７４１巷５號","OBJECTID":329401},"geometry":{"x":179703.09999999963,"y":2574762.8100000005}},{"attributes":{"ID":329411,"DIS_CODE":0,"TOWNNAME":"柳營區","LI":"士林里","LIN":"15鄰","STREET":"柳營路","SECT":"一段","MAREA":" ","LANE":"７４１巷","ALLEY":" ","HOUSE_NO":"７號","E_COORD97":179696.69,"N_COORD97":2574761.6000000001,"ADDRESS":"柳營路一段７４１巷７號","OBJECTID":329402},"geometry":{"x":179696.69000000041,"y":2574761.6000000015}},{"attributes":{"ID":329412,"DIS_CODE":0,"TOWNNAME":"柳營區","LI":"士林里","LIN":"15鄰","STREET":"柳營路","SECT":"一段","MAREA":" ","LANE":"７４１巷","ALLEY":" ","HOUSE_NO":"９號","E_COORD97":179690.26999999999,"N_COORD97":2574760.3999999999,"ADDRESS":"柳營路一段７４１巷９號","OBJECTID":329403},"geometry":{"x":179690.26999999955,"y":2574760.4000000022}},{"attributes":{"ID":329413,"DIS_CODE":0,"TOWNNAME":"歸仁區","LI":"大潭里","LIN":"15鄰","STREET":"大潭二街","SECT":" ","MAREA":" ","LANE":"３０巷","ALLEY":" ","HOUSE_NO":"２號","E_COORD97":175019.66,"N_COORD97":2534691.25,"ADDRESS":"大潭二街３０巷２號","OBJECTID":329404},"geometry":{"x":175019.66000000015,"y":2534691.25}},{"attributes":{"ID":329414,"DIS_CODE":0,"TOWNNAME":"歸仁區","LI":"大廟里","LIN":"15鄰","STREET":"大廟六街","SECT":" ","MAREA":" ","LANE":"２５３巷","ALLEY":" ","HOUSE_NO":"３３號","E_COORD97":176394.37,"N_COORD97":2544669.25,"ADDRESS":"大廟六街２５３巷３３號","OBJECTID":329405},"geometry":{"x":176394.37000000104,"y":2544669.25}},{"attributes":{"ID":329415,"DIS_CODE":0,"TOWNNAME":"歸仁區","LI":"大潭里","LIN":"15鄰","STREET":"大潭二街","SECT":" ","MAREA":" ","LANE":"３０巷","ALLEY":" ","HOUSE_NO":"２６號","E_COORD97":174988.31,"N_COORD97":2534734.25,"ADDRESS":"大潭二街３０巷２６號","OBJECTID":329406},"geometry":{"x":174988.31000000052,"y":2534734.2500000019}},{"attributes":{"ID":329416,"DIS_CODE":0,"TOWNNAME":"歸仁區","LI":"大廟里","LIN":"15鄰","STREET":"大廟五街","SECT":" ","MAREA":" ","LANE":"１３２巷","ALLEY":" ","HOUSE_NO":"１６號","E_COORD97":176120.32999999999,"N_COORD97":2544434.5299999998,"ADDRESS":"大廟五街１３２巷１６號","OBJECTID":329407},"geometry":{"x":176120.33000000007,"y":2544434.5300000012}},{"attributes":{"ID":329417,"DIS_CODE":0,"TOWNNAME":"歸仁區","LI":"西埔里","LIN":"15鄰","STREET":"西埔二街","SECT":" ","MAREA":" ","LANE":"７０巷","ALLEY":" ","HOUSE_NO":"４２號","E_COORD97":176928.39000000001,"N_COORD97":2544860.3700000001,"ADDRESS":"西埔二街７０巷４２號","OBJECTID":329408},"geometry":{"x":176928.38999999966,"y":2544860.3700000048}},{"attributes":{"ID":329418,"DIS_CODE":0,"TOWNNAME":"歸仁區","LI":"大廟里","LIN":"15鄰","STREET":"大廟五街","SECT":" ","MAREA":" ","LANE":"１３２巷","ALLEY":" ","HOUSE_NO":"２１號","E_COORD97":176140.82999999999,"N_COORD97":2544437.5299999998,"ADDRESS":"大廟五街１３２巷２１號","OBJECTID":329409},"geometry":{"x":176140.83000000007,"y":2544437.5300000012}},{"attributes":{"ID":329419,"DIS_CODE":0,"TOWNNAME":"歸仁區","LI":"大廟里","LIN":"15鄰","STREET":"大廟五街","SECT":" ","MAREA":" ","LANE":"１３２巷","ALLEY":" ","HOUSE_NO":"２號","E_COORD97":176096.57999999999,"N_COORD97":2544444.5299999998,"ADDRESS":"大廟五街１３２巷２號","OBJECTID":329410},"geometry":{"x":176096.58000000007,"y":2544444.5300000012}},{"attributes":{"ID":329420,"DIS_CODE":0,"TOWNNAME":"歸仁區","LI":"大廟里","LIN":"15鄰","STREET":"大廟五街","SECT":" ","MAREA":" ","LANE":"１３２巷","ALLEY":" ","HOUSE_NO":"１２號","E_COORD97":176113.23000000001,"N_COORD97":2544437.5299999998,"ADDRESS":"大廟五街１３２巷１２號","OBJECTID":329411},"geometry":{"x":176113.23000000045,"y":2544437.5300000012}},{"attributes":{"ID":329421,"DIS_CODE":0,"TOWNNAME":"歸仁區","LI":"西埔里","LIN":"15鄰","STREET":"西埔二街","SECT":" ","MAREA":" ","LANE":"７０巷","ALLEY":" ","HOUSE_NO":"５２號","E_COORD97":176918.29000000001,"N_COORD97":2544887.3700000001,"ADDRESS":"西埔二街７０巷５２號","OBJECTID":329412},"geometry":{"x":176918.29000000097,"y":2544887.3700000048}},{"attributes":{"ID":329422,"DIS_CODE":0,"TOWNNAME":"歸仁區","LI":"西埔里","LIN":"15鄰","STREET":"西埔二街","SECT":" ","MAREA":" ","LANE":"７０巷","ALLEY":" ","HOUSE_NO":"３６號","E_COORD97":176915.09,"N_COORD97":2544866.3700000001,"ADDRESS":"西埔二街７０巷３６號","OBJECTID":329413},"geometry":{"x":176915.08999999985,"y":2544866.370000001}},{"attributes":{"ID":329423,"DIS_CODE":0,"TOWNNAME":"東區","LI":"文聖里","LIN":"17鄰","STREET":"裕平路","SECT":" ","MAREA":" ","LANE":" ","ALLEY":" ","HOUSE_NO":"２９２之３號","E_COORD97":172559.44,"N_COORD97":2542793.8900000001,"ADDRESS":"裕平路２９２之３號","OBJECTID":329414},"geometry":{"x":172559.44000000134,"y":2542793.8900000006}},{"attributes":{"ID":329424,"DIS_CODE":0,"TOWNNAME":"東區","LI":"文聖里","LIN":"17鄰","STREET":"裕平路","SECT":" ","MAREA":" ","LANE":" ","ALLEY":" ","HOUSE_NO":"２９２之５號","E_COORD97":172559.85999999999,"N_COORD97":2542787.6000000001,"ADDRESS":"裕平路２９２之５號","OBJECTID":329415},"geometry":{"x":172559.86000000127,"y":2542787.5999999996}},{"attributes":{"ID":329425,"DIS_CODE":0,"TOWNNAME":"東區","LI":"文聖里","LIN":"17鄰","STREET":"裕平路","SECT":" ","MAREA":" ","LANE":" ","ALLEY":" ","HOUSE_NO":"３００號","E_COORD97":172578.51000000001,"N_COORD97":2542811.0699999998,"ADDRESS":"裕平路３００號","OBJECTID":329416},"geometry":{"x":172578.51000000071,"y":2542811.0700000022}},{"attributes":{"ID":329426,"DIS_CODE":0,"TOWNNAME":"東區","LI":"文聖里","LIN":"17鄰","STREET":"裕平路","SECT":" ","MAREA":" ","LANE":" ","ALLEY":" ","HOUSE_NO":"２９２之６號","E_COORD97":172559.23000000001,"N_COORD97":2542780.8900000001,"ADDRESS":"裕平路２９２之６號","OBJECTID":329417},"geometry":{"x":172559.23000000138,"y":2542780.8900000006}},{"attributes":{"ID":329427,"DIS_CODE":0,"TOWNNAME":"東區","LI":"文聖里","LIN":"17鄰","STREET":"裕平路","SECT":" ","MAREA":" ","LANE":" ","ALLEY":" ","HOUSE_NO":"２９２之７號","E_COORD97":172559.44,"N_COORD97":2542773.3500000001,"ADDRESS":"裕平路２９２之７號","OBJECTID":329418},"geometry":{"x":172559.44000000134,"y":2542773.3499999996}},{"attributes":{"ID":329428,"DIS_CODE":0,"TOWNNAME":"東區","LI":"文聖里","LIN":"17鄰","STREET":"裕平路","SECT":" ","MAREA":" ","LANE":" ","ALLEY":" ","HOUSE_NO":"２９２之８號","E_COORD97":172559.01999999999,"N_COORD97":2542766.4300000002,"ADDRESS":"裕平路２９２之８號","OBJECTID":329419},"geometry":{"x":172559.01999999955,"y":2542766.4299999978}},{"attributes":{"ID":329429,"DIS_CODE":0,"TOWNNAME":"麻豆區","LI":"港尾里","LIN":"13鄰","STREET":" ","SECT":" ","MAREA":"客子寮","LANE":" ","ALLEY":" ","HOUSE_NO":"１４號","E_COORD97":169744.92000000001,"N_COORD97":2568309.6200000001,"ADDRESS":"客子寮１４號","OBJECTID":329420},"geometry":{"x":169744.92000000086,"y":2568309.6199999992}},{"attributes":{"ID":329430,"DIS_CODE":0,"TOWNNAME":"麻豆區","LI":"南勢里","LIN":"20鄰","STREET":" ","SECT":" ","MAREA":"南勢","LANE":" ","ALLEY":" ","HOUSE_NO":"４２號","E_COORD97":174391.35999999999,"N_COORD97":2564892.6099999999,"ADDRESS":"南勢４２號","OBJECTID":329421},"geometry":{"x":174391.36000000034,"y":2564892.6099999994}},{"attributes":{"ID":329431,"DIS_CODE":0,"TOWNNAME":"永康區","LI":"龍潭里","LIN":"39鄰","STREET":"永明街","SECT":" ","MAREA":" ","LANE":"１７９巷","ALLEY":" ","HOUSE_NO":"６號","E_COORD97":174447.79999999999,"N_COORD97":2547236.8300000001,"ADDRESS":"永明街１７９巷６號","OBJECTID":329422},"geometry":{"x":174447.80000000168,"y":2547236.8300000019}},{"attributes":{"ID":329432,"DIS_CODE":0,"TOWNNAME":"永康區","LI":"網寮里","LIN":"13鄰","STREET":"永二街","SECT":" ","MAREA":" ","LANE":"２４４巷","ALLEY":" ","HOUSE_NO":"４０號","E_COORD97":173289.87,"N_COORD97":2546583.5699999998,"ADDRESS":"永二街２４４巷４０號","OBJECTID":329423},"geometry":{"x":173289.87000000104,"y":2546583.5699999984}},{"attributes":{"ID":329433,"DIS_CODE":0,"TOWNNAME":"歸仁區","LI":"西埔里","LIN":"15鄰","STREET":"西埔二街","SECT":" ","MAREA":" ","LANE":"７０巷","ALLEY":" ","HOUSE_NO":"７０號","E_COORD97":176930.69,"N_COORD97":2544895.3700000001,"ADDRESS":"西埔二街７０巷７０號","OBJECTID":329424},"geometry":{"x":176930.68999999948,"y":2544895.3700000029}},{"attributes":{"ID":329434,"DIS_CODE":0,"TOWNNAME":"歸仁區","LI":"西埔里","LIN":"15鄰","STREET":"西埔二街","SECT":" ","MAREA":" ","LANE":"７０巷","ALLEY":" ","HOUSE_NO":"６４號","E_COORD97":176943.98999999999,"N_COORD97":2544889.3700000001,"ADDRESS":"西埔二街７０巷６４號","OBJECTID":329425},"geometry":{"x":176943.99000000115,"y":2544889.370000001}},{"attributes":{"ID":329435,"DIS_CODE":0,"TOWNNAME":"歸仁區","LI":"西埔里","LIN":"15鄰","STREET":"西埔二街","SECT":" ","MAREA":" ","LANE":"７０巷","ALLEY":" ","HOUSE_NO":"２２號","E_COORD97":176894.59,"N_COORD97":2544862.3700000001,"ADDRESS":"西埔二街７０巷２２號","OBJECTID":329426},"geometry":{"x":176894.58999999985,"y":2544862.370000001}},{"attributes":{"ID":329436,"DIS_CODE":0,"TOWNNAME":"歸仁區","LI":"西埔里","LIN":"15鄰","STREET":"西埔二街","SECT":" ","MAREA":" ","LANE":"７０巷","ALLEY":" ","HOUSE_NO":"５８號","E_COORD97":176931.59,"N_COORD97":2544883.3700000001,"ADDRESS":"西埔二街７０巷５８號","OBJECTID":329427},"geometry":{"x":176931.59000000078,"y":2544883.370000001}},{"attributes":{"ID":329437,"DIS_CODE":0,"TOWNNAME":"歸仁區","LI":"大廟里","LIN":"15鄰","STREET":"大廟五街","SECT":" ","MAREA":" ","LANE":"１３２巷","ALLEY":" ","HOUSE_NO":"１４號","E_COORD97":176116.23000000001,"N_COORD97":2544435.5299999998,"ADDRESS":"大廟五街１３２巷１４號","OBJECTID":329428},"geometry":{"x":176116.23000000045,"y":2544435.5299999993}},{"attributes":{"ID":329438,"DIS_CODE":0,"TOWNNAME":"歸仁區","LI":"西埔里","LIN":"15鄰","STREET":"西埔二街","SECT":" ","MAREA":" ","LANE":"７０巷","ALLEY":" ","HOUSE_NO":"４０號","E_COORD97":176923.29000000001,"N_COORD97":2544862.3700000001,"ADDRESS":"西埔二街７０巷４０號","OBJECTID":329429},"geometry":{"x":176923.29000000097,"y":2544862.370000001}},{"attributes":{"ID":329439,"DIS_CODE":0,"TOWNNAME":"歸仁區","LI":"西埔里","LIN":"15鄰","STREET":"西埔二街","SECT":" ","MAREA":" ","LANE":"７０巷","ALLEY":" ","HOUSE_NO":"４６之１號","E_COORD97":176939.09,"N_COORD97":2544853.4199999999,"ADDRESS":"西埔二街７０巷４６之１號","OBJECTID":329430},"geometry":{"x":176939.08999999985,"y":2544853.4200000018}},{"attributes":{"ID":329440,"DIS_CODE":0,"TOWNNAME":"歸仁區","LI":"西埔里","LIN":"15鄰","STREET":"西埔二街","SECT":" ","MAREA":" ","LANE":"７０巷","ALLEY":" ","HOUSE_NO":"５０號","E_COORD97":176914.19,"N_COORD97":2544890.3700000001,"ADDRESS":"西埔二街７０巷５０號","OBJECTID":329431},"geometry":{"x":176914.19000000134,"y":2544890.370000001}},{"attributes":{"ID":329441,"DIS_CODE":0,"TOWNNAME":"東區","LI":"文聖里","LIN":"17鄰","STREET":"裕平路","SECT":" ","MAREA":" ","LANE":" ","ALLEY":" ","HOUSE_NO":"２９２之９號","E_COORD97":172559.01999999999,"N_COORD97":2542759.52,"ADDRESS":"裕平路２９２之９號","OBJECTID":329432},"geometry":{"x":172559.01999999955,"y":2542759.5200000014}},{"attributes":{"ID":329442,"DIS_CODE":0,"TOWNNAME":"東區","LI":"文聖里","LIN":"17鄰","STREET":"裕平路","SECT":" ","MAREA":" ","LANE":" ","ALLEY":" ","HOUSE_NO":"２９８號","E_COORD97":172572.85000000001,"N_COORD97":2542811.0699999998,"ADDRESS":"裕平路２９８號","OBJECTID":329433},"geometry":{"x":172572.85000000056,"y":2542811.0700000022}},{"attributes":{"ID":329443,"DIS_CODE":0,"TOWNNAME":"永康區","LI":"龍潭里","LIN":"38鄰","STREET":"中山北路","SECT":" ","MAREA":" ","LANE":"１６４巷","ALLEY":" ","HOUSE_NO":"１０８號","E_COORD97":174513.73999999999,"N_COORD97":2547395.1600000001,"ADDRESS":"中山北路１６４巷１０８號","OBJECTID":329434},"geometry":{"x":174513.74000000115,"y":2547395.1600000001}},{"attributes":{"ID":329444,"DIS_CODE":0,"TOWNNAME":"永康區","LI":"新樹里","LIN":"4鄰","STREET":"富強路","SECT":"二段","MAREA":" ","LANE":"３９８巷","ALLEY":" ","HOUSE_NO":"３２號","E_COORD97":175637.91,"N_COORD97":2547632.6400000001,"ADDRESS":"富強路二段３９８巷３２號","OBJECTID":329435},"geometry":{"x":175637.91000000108,"y":2547632.6400000025}},{"attributes":{"ID":329445,"DIS_CODE":0,"TOWNNAME":"永康區","LI":"龍潭里","LIN":"38鄰","STREET":"中山北路","SECT":" ","MAREA":" ","LANE":"１６４巷","ALLEY":" ","HOUSE_NO":"８０號之１２","E_COORD97":174455.23000000001,"N_COORD97":2547365.7999999998,"ADDRESS":"中山北路１６４巷８０號之１２","OBJECTID":329436},"geometry":{"x":174455.23000000045,"y":2547365.8000000045}},{"attributes":{"ID":329446,"DIS_CODE":0,"TOWNNAME":"歸仁區","LI":"西埔里","LIN":"15鄰","STREET":"西埔二街","SECT":" ","MAREA":" ","LANE":"７０巷","ALLEY":" ","HOUSE_NO":"２５號","E_COORD97":176878.89000000001,"N_COORD97":2544852.25,"ADDRESS":"西埔二街７０巷２５號","OBJECTID":329437},"geometry":{"x":176878.88999999966,"y":2544852.25}},{"attributes":{"ID":329447,"DIS_CODE":0,"TOWNNAME":"歸仁區","LI":"西埔里","LIN":"15鄰","STREET":"西埔二街","SECT":" ","MAREA":" ","LANE":"７０巷","ALLEY":" ","HOUSE_NO":"３８號","E_COORD97":176918.19,"N_COORD97":2544864.3700000001,"ADDRESS":"西埔二街７０巷３８號","OBJECTID":329438},"geometry":{"x":176918.19000000041,"y":2544864.3700000029}},{"attributes":{"ID":329448,"DIS_CODE":0,"TOWNNAME":"歸仁區","LI":"西埔里","LIN":"15鄰","STREET":"西埔二街","SECT":" ","MAREA":" ","LANE":"７０巷","ALLEY":" ","HOUSE_NO":"１１號","E_COORD97":176857.29000000001,"N_COORD97":2544847.25,"ADDRESS":"西埔二街７０巷１１號","OBJECTID":329439},"geometry":{"x":176857.29000000097,"y":2544847.2500000019}},{"attributes":{"ID":329449,"DIS_CODE":0,"TOWNNAME":"歸仁區","LI":"大廟里","LIN":"15鄰","STREET":"大廟五街","SECT":" ","MAREA":" ","LANE":"１３２巷","ALLEY":" ","HOUSE_NO":"１１號","E_COORD97":176121.42999999999,"N_COORD97":2544446.5299999998,"ADDRESS":"大廟五街１３２巷１１號","OBJECTID":329440},"geometry":{"x":176121.42999999877,"y":2544446.5299999993}},{"attributes":{"ID":329450,"DIS_CODE":0,"TOWNNAME":"歸仁區","LI":"大廟里","LIN":"15鄰","STREET":"大廟五街","SECT":" ","MAREA":" ","LANE":"１３２巷","ALLEY":" ","HOUSE_NO":"１８號","E_COORD97":176123.42999999999,"N_COORD97":2544432.5299999998,"ADDRESS":"大廟五街１３２巷１８號","OBJECTID":329441},"geometry":{"x":176123.43000000063,"y":2544432.5299999993}},{"attributes":{"ID":329451,"DIS_CODE":0,"TOWNNAME":"歸仁區","LI":"西埔里","LIN":"15鄰","STREET":"西埔二街","SECT":" ","MAREA":" ","LANE":"７０巷","ALLEY":" ","HOUSE_NO":"１８號","E_COORD97":176894.29000000001,"N_COORD97":2544851.25,"ADDRESS":"西埔二街７０巷１８號","OBJECTID":329442},"geometry":{"x":176894.29000000097,"y":2544851.2500000019}},{"attributes":{"ID":329452,"DIS_CODE":0,"TOWNNAME":"歸仁區","LI":"西埔里","LIN":"15鄰","STREET":"西埔二街","SECT":" ","MAREA":" ","LANE":"７０巷","ALLEY":" ","HOUSE_NO":"６２號","E_COORD97":176939.79000000001,"N_COORD97":2544880.3700000001,"ADDRESS":"西埔二街７０巷６２號","OBJECTID":329443},"geometry":{"x":176939.78999999911,"y":2544880.3699999992}},{"attributes":{"ID":329453,"DIS_CODE":0,"TOWNNAME":"歸仁區","LI":"西埔里","LIN":"15鄰","STREET":"西埔二街","SECT":" ","MAREA":" ","LANE":"７０巷","ALLEY":" ","HOUSE_NO":"２３號","E_COORD97":176872.09,"N_COORD97":2544865.3700000001,"ADDRESS":"西埔二街７０巷２３號","OBJECTID":329444},"geometry":{"x":176872.09000000078,"y":2544865.370000001}},{"attributes":{"ID":329454,"DIS_CODE":0,"TOWNNAME":"歸仁區","LI":"西埔里","LIN":"15鄰","STREET":"西埔二街","SECT":" ","MAREA":" ","LANE":"７０巷","ALLEY":" ","HOUSE_NO":"６號","E_COORD97":176890.84,"N_COORD97":2544832.25,"ADDRESS":"西埔二街７０巷６號","OBJECTID":329445},"geometry":{"x":176890.84000000078,"y":2544832.25}},{"attributes":{"ID":329455,"DIS_CODE":0,"TOWNNAME":"歸仁區","LI":"大廟里","LIN":"15鄰","STREET":"大廟五街","SECT":" ","MAREA":" ","LANE":"１３２巷","ALLEY":" ","HOUSE_NO":"１３號","E_COORD97":176125.53,"N_COORD97":2544445.5299999998,"ADDRESS":"大廟五街１３２巷１３號","OBJECTID":329446},"geometry":{"x":176125.53000000119,"y":2544445.5299999993}},{"attributes":{"ID":329456,"DIS_CODE":0,"TOWNNAME":"歸仁區","LI":"西埔里","LIN":"15鄰","STREET":"西埔二街","SECT":" ","MAREA":" ","LANE":"７０巷","ALLEY":" ","HOUSE_NO":"４６號","E_COORD97":176931.48999999999,"N_COORD97":2544859.3700000001,"ADDRESS":"西埔二街７０巷４６號","OBJECTID":329447},"geometry":{"x":176931.49000000022,"y":2544859.370000001}},{"attributes":{"ID":329457,"DIS_CODE":0,"TOWNNAME":"歸仁區","LI":"西埔里","LIN":"15鄰","STREET":"西埔二街","SECT":" ","MAREA":" ","LANE":"７０巷","ALLEY":" ","HOUSE_NO":"３２號","E_COORD97":176905.89000000001,"N_COORD97":2544870.3700000001,"ADDRESS":"西埔二街７０巷３２號","OBJECTID":329448},"geometry":{"x":176905.88999999966,"y":2544870.3700000048}},{"attributes":{"ID":329458,"DIS_CODE":0,"TOWNNAME":"關廟區","LI":"山西里","LIN":"15鄰","STREET":"忠孝街","SECT":" ","MAREA":" ","LANE":"１５１巷","ALLEY":" ","HOUSE_NO":"３０號","E_COORD97":181022.48999999999,"N_COORD97":2540479.25,"ADDRESS":"忠孝街１５１巷３０號","OBJECTID":329449},"geometry":{"x":181022.49000000209,"y":2540479.25}},{"attributes":{"ID":329459,"DIS_CODE":0,"TOWNNAME":"東區","LI":"文聖里","LIN":"17鄰","STREET":"裕平路","SECT":" ","MAREA":" ","LANE":" ","ALLEY":" ","HOUSE_NO":"３０２號","E_COORD97":172583.95999999999,"N_COORD97":2542810.8599999999,"ADDRESS":"裕平路３０２號","OBJECTID":329450},"geometry":{"x":172583.96000000089,"y":2542810.8600000031}},{"attributes":{"ID":329460,"DIS_CODE":0,"TOWNNAME":"東區","LI":"文聖里","LIN":"17鄰","STREET":"裕平路","SECT":" ","MAREA":" ","LANE":" ","ALLEY":" ","HOUSE_NO":"３０６號","E_COORD97":172589.20000000001,"N_COORD97":2542810.8599999999,"ADDRESS":"裕平路３０６號","OBJECTID":329451},"geometry":{"x":172589.20000000205,"y":2542810.8600000031}},{"attributes":{"ID":329461,"DIS_CODE":0,"TOWNNAME":"南區","LI":"南華里","LIN":"5鄰","STREET":"中華南路","SECT":"二段","MAREA":" ","LANE":" ","ALLEY":" ","HOUSE_NO":"３９８號","E_COORD97":166418.75,"N_COORD97":2540298.3900000001,"ADDRESS":"中華南路二段３９８號","OBJECTID":329452},"geometry":{"x":166418.75000000093,"y":2540298.3900000006}},{"attributes":{"ID":329462,"DIS_CODE":0,"TOWNNAME":"永康區","LI":"龍潭里","LIN":"38鄰","STREET":"中山北路","SECT":" ","MAREA":" ","LANE":"１６４巷","ALLEY":" ","HOUSE_NO":"８２號之１５","E_COORD97":174451.44,"N_COORD97":2547386.9199999999,"ADDRESS":"中山北路１６４巷８２號之１５","OBJECTID":329453},"geometry":{"x":174451.44000000134,"y":2547386.9199999999}},{"attributes":{"ID":329463,"DIS_CODE":0,"TOWNNAME":"關廟區","LI":"山西里","LIN":"15鄰","STREET":"忠孝街","SECT":" ","MAREA":" ","LANE":"１３７巷","ALLEY":" ","HOUSE_NO":"５號","E_COORD97":181035.44,"N_COORD97":2540427.25,"ADDRESS":"忠孝街１３７巷５號","OBJECTID":329454},"geometry":{"x":181035.44000000134,"y":2540427.25}},{"attributes":{"ID":329464,"DIS_CODE":0,"TOWNNAME":"關廟區","LI":"山西里","LIN":"15鄰","STREET":"忠孝街","SECT":" ","MAREA":" ","LANE":"１５１巷","ALLEY":" ","HOUSE_NO":"１５號","E_COORD97":181027.89000000001,"N_COORD97":2540464.25,"ADDRESS":"忠孝街１５１巷１５號","OBJECTID":329455},"geometry":{"x":181027.8900000006,"y":2540464.2500000019}},{"attributes":{"ID":329465,"DIS_CODE":0,"TOWNNAME":"關廟區","LI":"山西里","LIN":"15鄰","STREET":"忠孝街","SECT":" ","MAREA":" ","LANE":"１３７巷","ALLEY":" ","HOUSE_NO":"１號","E_COORD97":181044.34,"N_COORD97":2540423.25,"ADDRESS":"忠孝街１３７巷１號","OBJECTID":329456},"geometry":{"x":181044.33999999985,"y":2540423.2500000019}},{"attributes":{"ID":329466,"DIS_CODE":0,"TOWNNAME":"關廟區","LI":"香洋里","LIN":"15鄰","STREET":"花園一街","SECT":" ","MAREA":" ","LANE":"２７９巷","ALLEY":" ","HOUSE_NO":"３８號","E_COORD97":181424.23999999999,"N_COORD97":2540068.46,"ADDRESS":"花園一街２７９巷３８號","OBJECTID":329457},"geometry":{"x":181424.24000000209,"y":2540068.4600000009}},{"attributes":{"ID":329467,"DIS_CODE":0,"TOWNNAME":"關廟區","LI":"東勢里","LIN":"15鄰","STREET":"東興路","SECT":" ","MAREA":" ","LANE":"１７９巷","ALLEY":" ","HOUSE_NO":"１８號","E_COORD97":181630.92000000001,"N_COORD97":2539628.25,"ADDRESS":"東興路１７９巷１８號","OBJECTID":329458},"geometry":{"x":181630.91999999993,"y":2539628.25}},{"attributes":{"ID":329468,"DIS_CODE":0,"TOWNNAME":"關廟區","LI":"松腳里","LIN":"15鄰","STREET":"民權街","SECT":" ","MAREA":" ","LANE":"４７巷","ALLEY":" ","HOUSE_NO":"２號","E_COORD97":181559.23999999999,"N_COORD97":2539709.29,"ADDRESS":"民權街４７巷２號","OBJECTID":329459},"geometry":{"x":181559.24000000022,"y":2539709.290000001}},{"attributes":{"ID":329469,"DIS_CODE":0,"TOWNNAME":"關廟區","LI":"松腳里","LIN":"15鄰","STREET":"和平路","SECT":" ","MAREA":" ","LANE":"１４５巷","ALLEY":" ","HOUSE_NO":"１０號","E_COORD97":181634.79000000001,"N_COORD97":2539678.25,"ADDRESS":"和平路１４５巷１０號","OBJECTID":329460},"geometry":{"x":181634.79000000004,"y":2539678.25}},{"attributes":{"ID":329470,"DIS_CODE":0,"TOWNNAME":"關廟區","LI":"松腳里","LIN":"15鄰","STREET":"和平路","SECT":" ","MAREA":" ","LANE":"１７７巷","ALLEY":" ","HOUSE_NO":"８號","E_COORD97":181666.14000000001,"N_COORD97":2539755.25,"ADDRESS":"和平路１７７巷８號","OBJECTID":329461},"geometry":{"x":181666.13999999966,"y":2539755.2500000019}},{"attributes":{"ID":329471,"DIS_CODE":0,"TOWNNAME":"關廟區","LI":"北花里","LIN":"15鄰","STREET":"中正路","SECT":" ","MAREA":" ","LANE":"１７７巷","ALLEY":" ","HOUSE_NO":"５號","E_COORD97":183461.26000000001,"N_COORD97":2540871.25,"ADDRESS":"中正路１７７巷５號","OBJECTID":329462},"geometry":{"x":183461.26000000164,"y":2540871.25}},{"attributes":{"ID":329472,"DIS_CODE":0,"TOWNNAME":"北區","LI":"開元里","LIN":"15鄰","STREET":"北園街","SECT":" ","MAREA":" ","LANE":"８７巷","ALLEY":" ","HOUSE_NO":"１７５號","E_COORD97":170158.60999999999,"N_COORD97":2546008.8900000001,"ADDRESS":"北園街８７巷１７５號","OBJECTID":329463},"geometry":{"x":170158.61000000034,"y":2546008.8900000043}},{"attributes":{"ID":329473,"DIS_CODE":0,"TOWNNAME":"北區","LI":"開元里","LIN":"15鄰","STREET":"北園街","SECT":" ","MAREA":" ","LANE":"８７巷","ALLEY":" ","HOUSE_NO":"１７７號","E_COORD97":170159.01999999999,"N_COORD97":2546012.6800000002,"ADDRESS":"北園街８７巷１７７號","OBJECTID":329464},"geometry":{"x":170159.02000000048,"y":2546012.6799999978}},{"attributes":{"ID":329474,"DIS_CODE":0,"TOWNNAME":"北區","LI":"開元里","LIN":"15鄰","STREET":"北園街","SECT":" ","MAREA":" ","LANE":"８７巷","ALLEY":" ","HOUSE_NO":"１７９號","E_COORD97":170159.34,"N_COORD97":2546016.73,"ADDRESS":"北園街８７巷１７９號","OBJECTID":329465},"geometry":{"x":170159.34000000078,"y":2546016.7300000042}},{"attributes":{"ID":329475,"DIS_CODE":0,"TOWNNAME":"安平區","LI":"平通里","LIN":"15鄰","STREET":"健康三街","SECT":" ","MAREA":" ","LANE":"４６０巷","ALLEY":" ","HOUSE_NO":"１０號","E_COORD97":164872.29000000001,"N_COORD97":2543880.1600000001,"ADDRESS":"健康三街４６０巷１０號","OBJECTID":329466},"geometry":{"x":164872.29000000097,"y":2543880.1600000001}},{"attributes":{"ID":329476,"DIS_CODE":0,"TOWNNAME":"安平區","LI":"海頭里","LIN":"15鄰","STREET":"安北路","SECT":" ","MAREA":" ","LANE":"１３１巷","ALLEY":" ","HOUSE_NO":"２６號","E_COORD97":164072.32999999999,"N_COORD97":2544790.04,"ADDRESS":"安北路１３１巷２６號","OBJECTID":329467},"geometry":{"x":164072.33000000101,"y":2544790.040000001}},{"attributes":{"ID":329477,"DIS_CODE":0,"TOWNNAME":"安平區","LI":"海頭里","LIN":"15鄰","STREET":"安北路","SECT":" ","MAREA":" ","LANE":"１４６巷","ALLEY":" ","HOUSE_NO":"１２號","E_COORD97":164082.47,"N_COORD97":2544888.2200000002,"ADDRESS":"安北路１４６巷１２號","OBJECTID":329468},"geometry":{"x":164082.47000000067,"y":2544888.2200000044}},{"attributes":{"ID":329478,"DIS_CODE":0,"TOWNNAME":"安平區","LI":"海頭里","LIN":"15鄰","STREET":"安北路","SECT":" ","MAREA":" ","LANE":"１４６巷","ALLEY":" ","HOUSE_NO":"１４號","E_COORD97":164082.12,"N_COORD97":2544893.3900000001,"ADDRESS":"安北路１４６巷１４號","OBJECTID":329469},"geometry":{"x":164082.12000000104,"y":2544893.3899999987}},{"attributes":{"ID":329479,"DIS_CODE":0,"TOWNNAME":"安平區","LI":"海頭里","LIN":"15鄰","STREET":"安北路","SECT":" ","MAREA":" ","LANE":"１４６巷","ALLEY":" ","HOUSE_NO":"１６號","E_COORD97":164080.29999999999,"N_COORD97":2544899.6200000001,"ADDRESS":"安北路１４６巷１６號","OBJECTID":329470},"geometry":{"x":164080.30000000075,"y":2544899.6200000029}},{"attributes":{"ID":329480,"DIS_CODE":0,"TOWNNAME":"東區","LI":"文聖里","LIN":"17鄰","STREET":"裕信路","SECT":" ","MAREA":" ","LANE":" ","ALLEY":" ","HOUSE_NO":"２７６之１２號","E_COORD97":172531.04000000001,"N_COORD97":2542747.0299999998,"ADDRESS":"裕信路２７６之１２號","OBJECTID":329471},"geometry":{"x":172531.04000000097,"y":2542747.0299999993}},{"attributes":{"ID":329481,"DIS_CODE":0,"TOWNNAME":"永康區","LI":"龍潭里","LIN":"17鄰","STREET":"龍潭街","SECT":" ","MAREA":" ","LANE":"１９３巷","ALLEY":" ","HOUSE_NO":"１０號","E_COORD97":174900.004273,"N_COORD97":2548367.5214999998,"ADDRESS":"龍潭街１９３巷１０號","OBJECTID":329472},"geometry":{"x":174900.00427300204,"y":2548367.5214990024}},{"attributes":{"ID":329482,"DIS_CODE":0,"TOWNNAME":"永康區","LI":"龍潭里","LIN":"14鄰","STREET":"龍中街","SECT":" ","MAREA":" ","LANE":"１７６巷","ALLEY":" ","HOUSE_NO":"４號","E_COORD97":174424.26000000001,"N_COORD97":2548358.9900000002,"ADDRESS":"龍中街１７６巷４號","OBJECTID":329473},"geometry":{"x":174424.26000000164,"y":2548358.9900000021}},{"attributes":{"ID":329483,"DIS_CODE":0,"TOWNNAME":"永康區","LI":"龍潭里","LIN":"17鄰","STREET":"龍潭街","SECT":" ","MAREA":" ","LANE":"１９７巷","ALLEY":" ","HOUSE_NO":"２號","E_COORD97":174925.35000000001,"N_COORD97":2548389.4900000002,"ADDRESS":"龍潭街１９７巷２號","OBJECTID":329474},"geometry":{"x":174925.35000000056,"y":2548389.4900000021}},{"attributes":{"ID":329484,"DIS_CODE":0,"TOWNNAME":"永康區","LI":"網寮里","LIN":"4鄰","STREET":"永二街","SECT":" ","MAREA":" ","LANE":"１３０巷","ALLEY":" ","HOUSE_NO":"１０號","E_COORD97":173441.85999999999,"N_COORD97":2546449.5899999999,"ADDRESS":"永二街１３０巷１０號","OBJECTID":329475},"geometry":{"x":173441.86000000034,"y":2546449.5899999999}},{"attributes":{"ID":329485,"DIS_CODE":0,"TOWNNAME":"永康區","LI":"網寮里","LIN":"5鄰","STREET":"永二街","SECT":" ","MAREA":" ","LANE":"１４５巷","ALLEY":" ","HOUSE_NO":"６號","E_COORD97":173531.82000000001,"N_COORD97":2546416.0299999998,"ADDRESS":"永二街１４５巷６號","OBJECTID":329476},"geometry":{"x":173531.8200000003,"y":2546416.0299999993}},{"attributes":{"ID":329486,"DIS_CODE":0,"TOWNNAME":"永康區","LI":"龍潭里","LIN":"38鄰","STREET":"中山北路","SECT":" ","MAREA":" ","LANE":"１６４巷","ALLEY":" ","HOUSE_NO":"５８號","E_COORD97":174351.95999999999,"N_COORD97":2547390.5299999998,"ADDRESS":"中山北路１６４巷５８號","OBJECTID":329477},"geometry":{"x":174351.96000000089,"y":2547390.5300000012}},{"attributes":{"ID":329487,"DIS_CODE":0,"TOWNNAME":"永康區","LI":"網寮里","LIN":"20鄰","STREET":"永二街","SECT":" ","MAREA":" ","LANE":"２４５巷","ALLEY":" ","HOUSE_NO":"２８號","E_COORD97":173290.34,"N_COORD97":2546142.8100000001,"ADDRESS":"永二街２４５巷２８號","OBJECTID":329478},"geometry":{"x":173290.34000000078,"y":2546142.8100000024}},{"attributes":{"ID":329488,"DIS_CODE":0,"TOWNNAME":"安平區","LI":"海頭里","LIN":"15鄰","STREET":"安北路","SECT":" ","MAREA":" ","LANE":"１４６巷","ALLEY":" ","HOUSE_NO":"１號之１","E_COORD97":164060.32000000001,"N_COORD97":2544880.71,"ADDRESS":"安北路１４６巷１號之１","OBJECTID":329479},"geometry":{"x":164060.32000000123,"y":2544880.7100000009}},{"attributes":{"ID":329489,"DIS_CODE":0,"TOWNNAME":"安平區","LI":"海頭里","LIN":"15鄰","STREET":"安北路","SECT":" ","MAREA":" ","LANE":"１４６巷","ALLEY":" ","HOUSE_NO":"１號之２","E_COORD97":164062.35000000001,"N_COORD97":2544883.9300000002,"ADDRESS":"安北路１４６巷１號之２","OBJECTID":329480},"geometry":{"x":164062.35000000149,"y":2544883.9299999997}},{"attributes":{"ID":329490,"DIS_CODE":0,"TOWNNAME":"安平區","LI":"海頭里","LIN":"15鄰","STREET":"安北路","SECT":" ","MAREA":" ","LANE":"１４６巷","ALLEY":" ","HOUSE_NO":"３號","E_COORD97":164059.95000000001,"N_COORD97":2544897.3900000001,"ADDRESS":"安北路１４６巷３號","OBJECTID":329481},"geometry":{"x":164059.95000000019,"y":2544897.3900000025}},{"attributes":{"ID":329491,"DIS_CODE":0,"TOWNNAME":"安平區","LI":"海頭里","LIN":"15鄰","STREET":"安北路","SECT":" ","MAREA":" ","LANE":"１４６巷","ALLEY":" ","HOUSE_NO":"４號","E_COORD97":164078.60000000001,"N_COORD97":2544877.8700000001,"ADDRESS":"安北路１４６巷４號","OBJECTID":329482},"geometry":{"x":164078.59999999963,"y":2544877.8700000029}},{"attributes":{"ID":329492,"DIS_CODE":0,"TOWNNAME":"安平區","LI":"海頭里","LIN":"15鄰","STREET":"安北路","SECT":" ","MAREA":" ","LANE":"１４６巷","ALLEY":" ","HOUSE_NO":"５號","E_COORD97":164059.57999999999,"N_COORD97":2544904.3799999999,"ADDRESS":"安北路１４６巷５號","OBJECTID":329483},"geometry":{"x":164059.58000000194,"y":2544904.379999999}},{"attributes":{"ID":329493,"DIS_CODE":0,"TOWNNAME":"安平區","LI":"海頭里","LIN":"15鄰","STREET":"安北路","SECT":" ","MAREA":" ","LANE":"１４６巷","ALLEY":" ","HOUSE_NO":"６號","E_COORD97":164083.66,"N_COORD97":2544880.8700000001,"ADDRESS":"安北路１４６巷６號","OBJECTID":329484},"geometry":{"x":164083.66000000108,"y":2544880.8700000048}},{"attributes":{"ID":329494,"DIS_CODE":0,"TOWNNAME":"東區","LI":"文聖里","LIN":"17鄰","STREET":"裕信路","SECT":" ","MAREA":" ","LANE":" ","ALLEY":" ","HOUSE_NO":"２７６之１１號","E_COORD97":172536.67999999999,"N_COORD97":2542746.8999999999,"ADDRESS":"裕信路２７６之１１號","OBJECTID":329485},"geometry":{"x":172536.68000000063,"y":2542746.8999999985}},{"attributes":{"ID":329495,"DIS_CODE":0,"TOWNNAME":"東區","LI":"文聖里","LIN":"17鄰","STREET":"裕信路","SECT":" ","MAREA":" ","LANE":" ","ALLEY":" ","HOUSE_NO":"２７６之８號","E_COORD97":172552.38,"N_COORD97":2542746.8999999999,"ADDRESS":"裕信路２７６之８號","OBJECTID":329486},"geometry":{"x":172552.38000000082,"y":2542746.8999999985}},{"attributes":{"ID":329496,"DIS_CODE":0,"TOWNNAME":"東區","LI":"文聖里","LIN":"17鄰","STREET":"裕信路","SECT":" ","MAREA":" ","LANE":" ","ALLEY":" ","HOUSE_NO":"２７６之６號","E_COORD97":172561.76999999999,"N_COORD97":2542746.7599999998,"ADDRESS":"裕信路２７６之６號","OBJECTID":329487},"geometry":{"x":172561.76999999955,"y":2542746.7599999998}},{"attributes":{"ID":329497,"DIS_CODE":0,"TOWNNAME":"東區","LI":"文聖里","LIN":"17鄰","STREET":"裕信路","SECT":" ","MAREA":" ","LANE":" ","ALLEY":" ","HOUSE_NO":"２７６之５號","E_COORD97":172566.60000000001,"N_COORD97":2542746.6299999999,"ADDRESS":"裕信路２７６之５號","OBJECTID":329488},"geometry":{"x":172566.59999999963,"y":2542746.629999999}},{"attributes":{"ID":329498,"DIS_CODE":0,"TOWNNAME":"東區","LI":"文聖里","LIN":"17鄰","STREET":"裕信路","SECT":" ","MAREA":" ","LANE":" ","ALLEY":" ","HOUSE_NO":"２７６之３號","E_COORD97":172571.97,"N_COORD97":2542746.6299999999,"ADDRESS":"裕信路２７６之３號","OBJECTID":329489},"geometry":{"x":172571.97000000067,"y":2542746.629999999}},{"attributes":{"ID":329499,"DIS_CODE":0,"TOWNNAME":"東區","LI":"文聖里","LIN":"17鄰","STREET":"裕信路","SECT":" ","MAREA":" ","LANE":" ","ALLEY":" ","HOUSE_NO":"２７６之２號","E_COORD97":172576.53,"N_COORD97":2542746.6299999999,"ADDRESS":"裕信路２７６之２號","OBJECTID":329490},"geometry":{"x":172576.53000000026,"y":2542746.629999999}},{"attributes":{"ID":329500,"DIS_CODE":0,"TOWNNAME":"東區","LI":"文聖里","LIN":"17鄰","STREET":"裕信路","SECT":" ","MAREA":" ","LANE":" ","ALLEY":" ","HOUSE_NO":"２７６之１號","E_COORD97":172581.09,"N_COORD97":2542746.7599999998,"ADDRESS":"裕信路２７６之１號","OBJECTID":329491},"geometry":{"x":172581.09000000171,"y":2542746.7599999998}},{"attributes":{"ID":329501,"DIS_CODE":0,"TOWNNAME":"麻豆區","LI":"南勢里","LIN":"19鄰","STREET":" ","SECT":" ","MAREA":"南勢","LANE":" ","ALLEY":" ","HOUSE_NO":"３６號之２","E_COORD97":174386.14999999999,"N_COORD97":2564801.1699999999,"ADDRESS":"南勢３６號之２","OBJECTID":329492},"geometry":{"x":174386.15000000037,"y":2564801.1699999999}},{"attributes":{"ID":329502,"DIS_CODE":0,"TOWNNAME":"永康區","LI":"龍潭里","LIN":"17鄰","STREET":"龍潭街","SECT":" ","MAREA":" ","LANE":"１９７巷","ALLEY":" ","HOUSE_NO":"１０號","E_COORD97":174885.38,"N_COORD97":2548412.8799999999,"ADDRESS":"龍潭街１９７巷１０號","OBJECTID":329493},"geometry":{"x":174885.38000000082,"y":2548412.879999999}},{"attributes":{"ID":329503,"DIS_CODE":0,"TOWNNAME":"麻豆區","LI":"南勢里","LIN":"19鄰","STREET":" ","SECT":" ","MAREA":"南勢","LANE":" ","ALLEY":" ","HOUSE_NO":"３６號之５","E_COORD97":174372.70999999999,"N_COORD97":2564801.2400000002,"ADDRESS":"南勢３６號之５","OBJECTID":329494},"geometry":{"x":174372.71000000089,"y":2564801.2400000002}},{"attributes":{"ID":329504,"DIS_CODE":0,"TOWNNAME":"麻豆區","LI":"南勢里","LIN":"19鄰","STREET":" ","SECT":" ","MAREA":"南勢","LANE":" ","ALLEY":" ","HOUSE_NO":"３６號之６","E_COORD97":174368.20000000001,"N_COORD97":2564801.3700000001,"ADDRESS":"南勢３６號之６","OBJECTID":329495},"geometry":{"x":174368.20000000112,"y":2564801.370000001}},{"attributes":{"ID":329505,"DIS_CODE":0,"TOWNNAME":"永康區","LI":"蔦松里","LIN":"7鄰","STREET":"蔦松一街","SECT":" ","MAREA":" ","LANE":"２２巷","ALLEY":" ","HOUSE_NO":"２６號","E_COORD97":174070.63,"N_COORD97":2549437.79,"ADDRESS":"蔦松一街２２巷２６號","OBJECTID":329496},"geometry":{"x":174070.62999999989,"y":2549437.7899999991}},{"attributes":{"ID":329506,"DIS_CODE":0,"TOWNNAME":"安平區","LI":"海頭里","LIN":"15鄰","STREET":"安北路","SECT":" ","MAREA":" ","LANE":"１４６巷","ALLEY":" ","HOUSE_NO":"７號","E_COORD97":164058.17000000001,"N_COORD97":2544913.1600000001,"ADDRESS":"安北路１４６巷７號","OBJECTID":329497},"geometry":{"x":164058.16999999993,"y":2544913.160000002}},{"attributes":{"ID":329507,"DIS_CODE":0,"TOWNNAME":"麻豆區","LI":"南勢里","LIN":"19鄰","STREET":" ","SECT":" ","MAREA":"南勢","LANE":" ","ALLEY":" ","HOUSE_NO":"３６號之７","E_COORD97":174363.89000000001,"N_COORD97":2564801.1200000001,"ADDRESS":"南勢３６號之７","OBJECTID":329498},"geometry":{"x":174363.89000000153,"y":2564801.1200000029}},{"attributes":{"ID":329508,"DIS_CODE":0,"TOWNNAME":"安平區","LI":"海頭里","LIN":"15鄰","STREET":"安北路","SECT":" ","MAREA":" ","LANE":"１５２巷","ALLEY":" ","HOUSE_NO":"１０號","E_COORD97":164020.67000000001,"N_COORD97":2544927.2599999998,"ADDRESS":"安北路１５２巷１０號","OBJECTID":329499},"geometry":{"x":164020.67000000086,"y":2544927.2599999979}},{"attributes":{"ID":329509,"DIS_CODE":0,"TOWNNAME":"安平區","LI":"海頭里","LIN":"15鄰","STREET":"安北路","SECT":" ","MAREA":" ","LANE":"１５２巷","ALLEY":" ","HOUSE_NO":"１１號","E_COORD97":164021.12,"N_COORD97":2544922.5800000001,"ADDRESS":"安北路１５２巷１１號","OBJECTID":329500},"geometry":{"x":164021.12000000104,"y":2544922.5800000019}},{"attributes":{"ID":329510,"DIS_CODE":0,"TOWNNAME":"安平區","LI":"海頭里","LIN":"15鄰","STREET":"安北路","SECT":" ","MAREA":" ","LANE":"１５２巷","ALLEY":" ","HOUSE_NO":"１２號","E_COORD97":164022.56,"N_COORD97":2544918.4399999999,"ADDRESS":"安北路１５２巷１２號","OBJECTID":329501},"geometry":{"x":164022.56000000052,"y":2544918.4399999995}},{"attributes":{"ID":329511,"DIS_CODE":0,"TOWNNAME":"安平區","LI":"海頭里","LIN":"15鄰","STREET":"安北路","SECT":" ","MAREA":" ","LANE":"１５２巷","ALLEY":" ","HOUSE_NO":"１３號","E_COORD97":164023.54999999999,"N_COORD97":2544912.9500000002,"ADDRESS":"安北路１５２巷１３號","OBJECTID":329502},"geometry":{"x":164023.54999999981,"y":2544912.9500000011}},{"attributes":{"ID":329512,"DIS_CODE":0,"TOWNNAME":"安平區","LI":"海頭里","LIN":"15鄰","STREET":"安北路","SECT":" ","MAREA":" ","LANE":"１５２巷","ALLEY":" ","HOUSE_NO":"１４號","E_COORD97":164024.89999999999,"N_COORD97":2544907.02,"ADDRESS":"安北路１５２巷１４號","OBJECTID":329503},"geometry":{"x":164024.90000000037,"y":2544907.0199999996}},{"attributes":{"ID":329513,"DIS_CODE":0,"TOWNNAME":"安平區","LI":"海頭里","LIN":"15鄰","STREET":"安北路","SECT":" ","MAREA":" ","LANE":"１５２巷","ALLEY":" ","HOUSE_NO":"１５號","E_COORD97":164025.17000000001,"N_COORD97":2544900.7200000002,"ADDRESS":"安北路１５２巷１５號","OBJECTID":329504},"geometry":{"x":164025.17000000086,"y":2544900.7200000007}},{"attributes":{"ID":329514,"DIS_CODE":0,"TOWNNAME":"安平區","LI":"海頭里","LIN":"15鄰","STREET":"安北路","SECT":" ","MAREA":" ","LANE":"１５２巷","ALLEY":" ","HOUSE_NO":"１６號","E_COORD97":164028.85999999999,"N_COORD97":2544890.3599999999,"ADDRESS":"安北路１５２巷１６號","OBJECTID":329505},"geometry":{"x":164028.86000000034,"y":2544890.3600000013}},{"attributes":{"ID":329515,"DIS_CODE":0,"TOWNNAME":"安平區","LI":"海頭里","LIN":"15鄰","STREET":"安北路","SECT":" ","MAREA":" ","LANE":"１５２巷","ALLEY":" ","HOUSE_NO":"１７號","E_COORD97":164029.13,"N_COORD97":2544882.6200000001,"ADDRESS":"安北路１５２巷１７號","OBJECTID":329506},"geometry":{"x":164029.13000000082,"y":2544882.6200000029}},{"attributes":{"ID":329516,"DIS_CODE":0,"TOWNNAME":"安平區","LI":"海頭里","LIN":"15鄰","STREET":"安北路","SECT":" ","MAREA":" ","LANE":"１５２巷","ALLEY":" ","HOUSE_NO":"１號","E_COORD97":164044.70999999999,"N_COORD97":2544876.1000000001,"ADDRESS":"安北路１５２巷１號","OBJECTID":329507},"geometry":{"x":164044.70999999996,"y":2544876.0999999996}},{"attributes":{"ID":329517,"DIS_CODE":0,"TOWNNAME":"安平區","LI":"海頭里","LIN":"15鄰","STREET":"安北路","SECT":" ","MAREA":" ","LANE":"１５２巷","ALLEY":" ","HOUSE_NO":"２號","E_COORD97":164044.57000000001,"N_COORD97":2544881.8999999999,"ADDRESS":"安北路１５２巷２號","OBJECTID":329508},"geometry":{"x":164044.56999999937,"y":2544881.9000000004}},{"attributes":{"ID":329518,"DIS_CODE":0,"TOWNNAME":"安平區","LI":"海頭里","LIN":"15鄰","STREET":"安北路","SECT":" ","MAREA":" ","LANE":"１５２巷","ALLEY":" ","HOUSE_NO":"３號","E_COORD97":164045.13,"N_COORD97":2544887.5499999998,"ADDRESS":"安北路１５２巷３號","OBJECTID":329509},"geometry":{"x":164045.12999999989,"y":2544887.5500000007}},{"attributes":{"ID":329519,"DIS_CODE":0,"TOWNNAME":"東區","LI":"文聖里","LIN":"17鄰","STREET":"裕信路","SECT":" ","MAREA":" ","LANE":" ","ALLEY":" ","HOUSE_NO":"２７６之９號","E_COORD97":172547.01000000001,"N_COORD97":2542746.6299999999,"ADDRESS":"裕信路２７６之９號","OBJECTID":329510},"geometry":{"x":172547.00999999978,"y":2542746.629999999}},{"attributes":{"ID":329520,"DIS_CODE":0,"TOWNNAME":"東區","LI":"文聖里","LIN":"17鄰","STREET":"裕信路","SECT":" ","MAREA":" ","LANE":" ","ALLEY":" ","HOUSE_NO":"２７８之１０號","E_COORD97":172541.64000000001,"N_COORD97":2542733.48,"ADDRESS":"裕信路２７８之１０號","OBJECTID":329511},"geometry":{"x":172541.64000000153,"y":2542733.4800000023}},{"attributes":{"ID":329521,"DIS_CODE":0,"TOWNNAME":"仁德區","LI":"仁愛里","LIN":"4鄰","STREET":" ","SECT":" ","MAREA":"仁愛","LANE":" ","ALLEY":" ","HOUSE_NO":"７４號","E_COORD97":170345.06849999999,"N_COORD97":2539953.8029100001,"ADDRESS":"仁愛７４號","OBJECTID":329512},"geometry":{"x":170345.06850000005,"y":2539953.8029110003}},{"attributes":{"ID":329522,"DIS_CODE":0,"TOWNNAME":"麻豆區","LI":"南勢里","LIN":"25鄰","STREET":" ","SECT":" ","MAREA":"南勢","LANE":" ","ALLEY":" ","HOUSE_NO":"８７號之８","E_COORD97":175397.51999999999,"N_COORD97":2566001.5099999998,"ADDRESS":"南勢８７號之８","OBJECTID":329513},"geometry":{"x":175397.52000000048,"y":2566001.5100000016}},{"attributes":{"ID":329523,"DIS_CODE":0,"TOWNNAME":"仁德區","LI":"一甲里","LIN":"5鄰","STREET":"忠義三街","SECT":" ","MAREA":" ","LANE":"８巷","ALLEY":" ","HOUSE_NO":"１３號","E_COORD97":173646.67999999999,"N_COORD97":2541660.27,"ADDRESS":"忠義三街８巷１３號","OBJECTID":329514},"geometry":{"x":173646.68000000156,"y":2541660.2700000014}},{"attributes":{"ID":329524,"DIS_CODE":0,"TOWNNAME":"仁德區","LI":"大甲里","LIN":"18鄰","STREET":"中正西路","SECT":" ","MAREA":" ","LANE":"５８０巷","ALLEY":" ","HOUSE_NO":"１３號","E_COORD97":168953.95999999999,"N_COORD97":2535697.4900000002,"ADDRESS":"中正西路５８０巷１３號","OBJECTID":329515},"geometry":{"x":168953.95999999996,"y":2535697.4900000002}},{"attributes":{"ID":329525,"DIS_CODE":0,"TOWNNAME":"仁德區","LI":"大甲里","LIN":"20鄰","STREET":"行大街","SECT":" ","MAREA":" ","LANE":"４２２巷","ALLEY":" ","HOUSE_NO":"１號","E_COORD97":169436.16,"N_COORD97":2535307.2400000002,"ADDRESS":"行大街４２２巷１號","OBJECTID":329516},"geometry":{"x":169436.16000000015,"y":2535307.2400000021}},{"attributes":{"ID":329526,"DIS_CODE":0,"TOWNNAME":"麻豆區","LI":"南勢里","LIN":"25鄰","STREET":" ","SECT":" ","MAREA":"南勢","LANE":" ","ALLEY":" ","HOUSE_NO":"８７號之９","E_COORD97":175397.37,"N_COORD97":2566046.2000000002,"ADDRESS":"南勢８７號之９","OBJECTID":329517},"geometry":{"x":175397.37000000104,"y":2566046.200000003}},{"attributes":{"ID":329527,"DIS_CODE":0,"TOWNNAME":"安平區","LI":"海頭里","LIN":"15鄰","STREET":"安北路","SECT":" ","MAREA":" ","LANE":"１５２巷","ALLEY":" ","HOUSE_NO":"４號","E_COORD97":164044.60000000001,"N_COORD97":2544893.3999999999,"ADDRESS":"安北路１５２巷４號","OBJECTID":329518},"geometry":{"x":164044.60000000056,"y":2544893.4000000041}},{"attributes":{"ID":329528,"DIS_CODE":0,"TOWNNAME":"安平區","LI":"海頭里","LIN":"15鄰","STREET":"安北路","SECT":" ","MAREA":" ","LANE":"１５２巷","ALLEY":" ","HOUSE_NO":"７之２號","E_COORD97":164005.20999999999,"N_COORD97":2544949.73,"ADDRESS":"安北路１５２巷７之２號","OBJECTID":329519},"geometry":{"x":164005.21000000089,"y":2544949.7300000023}},{"attributes":{"ID":329529,"DIS_CODE":0,"TOWNNAME":"安平區","LI":"海頭里","LIN":"15鄰","STREET":"安北路","SECT":" ","MAREA":" ","LANE":"１５２巷","ALLEY":" ","HOUSE_NO":"７號之１","E_COORD97":164013.47,"N_COORD97":2544941.9199999999,"ADDRESS":"安北路１５２巷７號之１","OBJECTID":329520},"geometry":{"x":164013.46999999974,"y":2544941.9199999999}},{"attributes":{"ID":329530,"DIS_CODE":0,"TOWNNAME":"麻豆區","LI":"南勢里","LIN":"25鄰","STREET":" ","SECT":" ","MAREA":"南勢","LANE":" ","ALLEY":" ","HOUSE_NO":"８７號","E_COORD97":175435.34,"N_COORD97":2565452.6800000002,"ADDRESS":"南勢８７號","OBJECTID":329521},"geometry":{"x":175435.33999999985,"y":2565452.6799999997}},{"attributes":{"ID":329531,"DIS_CODE":0,"TOWNNAME":"麻豆區","LI":"港尾里","LIN":"13鄰","STREET":" ","SECT":" ","MAREA":"客子寮","LANE":" ","ALLEY":" ","HOUSE_NO":"１８號","E_COORD97":169730.89000000001,"N_COORD97":2568325.2000000002,"ADDRESS":"客子寮１８號","OBJECTID":329522},"geometry":{"x":169730.89000000153,"y":2568325.2000000011}},{"attributes":{"ID":329532,"DIS_CODE":0,"TOWNNAME":"麻豆區","LI":"港尾里","LIN":"15鄰","STREET":" ","SECT":" ","MAREA":"客子寮","LANE":" ","ALLEY":" ","HOUSE_NO":"１００號","E_COORD97":170341.67000000001,"N_COORD97":2568958.5899999999,"ADDRESS":"客子寮１００號","OBJECTID":329523},"geometry":{"x":170341.67000000086,"y":2568958.5899999999}},{"attributes":{"ID":329533,"DIS_CODE":0,"TOWNNAME":"麻豆區","LI":"港尾里","LIN":"15鄰","STREET":" ","SECT":" ","MAREA":"客子寮","LANE":" ","ALLEY":" ","HOUSE_NO":"１０１號","E_COORD97":170345.94,"N_COORD97":2568963.8500000001,"ADDRESS":"客子寮１０１號","OBJECTID":329524},"geometry":{"x":170345.94000000041,"y":2568963.8499999996}},{"attributes":{"ID":329534,"DIS_CODE":0,"TOWNNAME":"安平區","LI":"海頭里","LIN":"15鄰","STREET":"安北路","SECT":" ","MAREA":" ","LANE":"１５２巷","ALLEY":" ","HOUSE_NO":"８號","E_COORD97":164016.44,"N_COORD97":2544936.52,"ADDRESS":"安北路１５２巷８號","OBJECTID":329525},"geometry":{"x":164016.44000000041,"y":2544936.5200000014}},{"attributes":{"ID":329535,"DIS_CODE":0,"TOWNNAME":"麻豆區","LI":"港尾里","LIN":"15鄰","STREET":" ","SECT":" ","MAREA":"客子寮","LANE":" ","ALLEY":" ","HOUSE_NO":"１０２號","E_COORD97":170350.22,"N_COORD97":2568969.1099999999,"ADDRESS":"客子寮１０２號","OBJECTID":329526},"geometry":{"x":170350.21999999974,"y":2568969.1099999975}},{"attributes":{"ID":329536,"DIS_CODE":0,"TOWNNAME":"麻豆區","LI":"港尾里","LIN":"15鄰","STREET":" ","SECT":" ","MAREA":"客子寮","LANE":" ","ALLEY":" ","HOUSE_NO":"１０３號","E_COORD97":170354.48999999999,"N_COORD97":2568974.3700000001,"ADDRESS":"客子寮１０３號","OBJECTID":329527},"geometry":{"x":170354.49000000022,"y":2568974.370000001}},{"attributes":{"ID":329537,"DIS_CODE":0,"TOWNNAME":"安平區","LI":"海頭里","LIN":"15鄰","STREET":"安北路","SECT":" ","MAREA":" ","LANE":"１５２巷","ALLEY":" ","HOUSE_NO":"９號","E_COORD97":164020.48999999999,"N_COORD97":2544931.5699999998,"ADDRESS":"安北路１５２巷９號","OBJECTID":329528},"geometry":{"x":164020.49000000115,"y":2544931.5700000003}},{"attributes":{"ID":329538,"DIS_CODE":0,"TOWNNAME":"麻豆區","LI":"港尾里","LIN":"15鄰","STREET":" ","SECT":" ","MAREA":"客子寮","LANE":" ","ALLEY":" ","HOUSE_NO":"１０５號","E_COORD97":170358.76999999999,"N_COORD97":2568979.6400000001,"ADDRESS":"客子寮１０５號","OBJECTID":329529},"geometry":{"x":170358.77000000142,"y":2568979.6400000006}},{"attributes":{"ID":329539,"DIS_CODE":0,"TOWNNAME":"北區","LI":"長榮里","LIN":"15鄰","STREET":"開元路","SECT":" ","MAREA":" ","LANE":"２４９巷","ALLEY":" ","HOUSE_NO":"５６號","E_COORD97":169849.37,"N_COORD97":2545551.6600000001,"ADDRESS":"開元路２４９巷５６號","OBJECTID":329530},"geometry":{"x":169849.37000000011,"y":2545551.6600000001}},{"attributes":{"ID":329540,"DIS_CODE":0,"TOWNNAME":"東區","LI":"文聖里","LIN":"17鄰","STREET":"裕信路","SECT":" ","MAREA":" ","LANE":" ","ALLEY":" ","HOUSE_NO":"２７８之１１號","E_COORD97":172536.28,"N_COORD97":2542733.48,"ADDRESS":"裕信路２７８之１１號","OBJECTID":329531},"geometry":{"x":172536.28000000119,"y":2542733.4800000023}},{"attributes":{"ID":329541,"DIS_CODE":0,"TOWNNAME":"東區","LI":"文聖里","LIN":"17鄰","STREET":"裕信路","SECT":" ","MAREA":" ","LANE":" ","ALLEY":" ","HOUSE_NO":"２７８之１２號","E_COORD97":172530.91,"N_COORD97":2542733.48,"ADDRESS":"裕信路２７８之１２號","OBJECTID":329532},"geometry":{"x":172530.91000000015,"y":2542733.4800000023}},{"attributes":{"ID":329542,"DIS_CODE":0,"TOWNNAME":"仁德區","LI":"一甲里","LIN":"20鄰","STREET":"太乙三街","SECT":" ","MAREA":" ","LANE":" ","ALLEY":" ","HOUSE_NO":"６號","E_COORD97":173398.48000000001,"N_COORD97":2542429.75,"ADDRESS":"太乙三街６號","OBJECTID":329533},"geometry":{"x":173398.48000000138,"y":2542429.7500000019}},{"attributes":{"ID":329543,"DIS_CODE":0,"TOWNNAME":"仁德區","LI":"仁愛里","LIN":"14鄰","STREET":" ","SECT":" ","MAREA":"仁愛","LANE":" ","ALLEY":" ","HOUSE_NO":"２９４號","E_COORD97":170277.81246099999,"N_COORD97":2539927.1499999999,"ADDRESS":"仁愛２９４號","OBJECTID":329534},"geometry":{"x":170277.81246100087,"y":2539927.1500000004}},{"attributes":{"ID":329544,"DIS_CODE":0,"TOWNNAME":"仁德區","LI":"中生里","LIN":"4鄰","STREET":" ","SECT":" ","MAREA":"中洲","LANE":" ","ALLEY":" ","HOUSE_NO":"１２１號","E_COORD97":172953.60000000001,"N_COORD97":2534281.9900000002,"ADDRESS":"中洲１２１號","OBJECTID":329535},"geometry":{"x":172953.5999999987,"y":2534281.9900000021}},{"attributes":{"ID":329545,"DIS_CODE":0,"TOWNNAME":"仁德區","LI":"土庫里","LIN":"13鄰","STREET":"土庫路","SECT":" ","MAREA":" ","LANE":"２４５巷","ALLEY":" ","HOUSE_NO":"１３號","E_COORD97":174284.88,"N_COORD97":2542839.7400000002,"ADDRESS":"土庫路２４５巷１３號","OBJECTID":329536},"geometry":{"x":174284.88000000082,"y":2542839.7400000039}},{"attributes":{"ID":329546,"DIS_CODE":0,"TOWNNAME":"仁德區","LI":"仁和里","LIN":"26鄰","STREET":" ","SECT":" ","MAREA":"仁和","LANE":" ","ALLEY":" ","HOUSE_NO":"５３６號","E_COORD97":170472.83014999999,"N_COORD97":2539772.25,"ADDRESS":"仁和５３６號","OBJECTID":329537},"geometry":{"x":170472.83014999982,"y":2539772.2500000019}},{"attributes":{"ID":329547,"DIS_CODE":0,"TOWNNAME":"仁德區","LI":"二行里","LIN":"4鄰","STREET":"二行一路","SECT":" ","MAREA":" ","LANE":"８３巷","ALLEY":" ","HOUSE_NO":"２３號","E_COORD97":170320.89999999999,"N_COORD97":2535359,"ADDRESS":"二行一路８３巷２３號","OBJECTID":329538},"geometry":{"x":170320.90000000037,"y":2535359.0000000019}},{"attributes":{"ID":329548,"DIS_CODE":0,"TOWNNAME":"仁德區","LI":"土庫里","LIN":"4鄰","STREET":"中正路","SECT":"三段","MAREA":" ","LANE":"５２３巷","ALLEY":" ","HOUSE_NO":"１１６號","E_COORD97":173526.73000000001,"N_COORD97":2543082.52,"ADDRESS":"中正路三段５２３巷１１６號","OBJECTID":329539},"geometry":{"x":173526.73000000231,"y":2543082.5200000014}},{"attributes":{"ID":329549,"DIS_CODE":0,"TOWNNAME":"仁德區","LI":"中生里","LIN":"5鄰","STREET":" ","SECT":" ","MAREA":"中洲","LANE":" ","ALLEY":" ","HOUSE_NO":"１２９號","E_COORD97":172751.81,"N_COORD97":2534227,"ADDRESS":"中洲１２９號","OBJECTID":329540},"geometry":{"x":172751.80999999959,"y":2534227.0000000019}},{"attributes":{"ID":329550,"DIS_CODE":0,"TOWNNAME":"仁德區","LI":"大甲里","LIN":"18鄰","STREET":"中正西路","SECT":" ","MAREA":" ","LANE":"５８０巷","ALLEY":" ","HOUSE_NO":"１３５號","E_COORD97":168841.48999999999,"N_COORD97":2535886.25,"ADDRESS":"中正西路５８０巷１３５號","OBJECTID":329541},"geometry":{"x":168841.49000000115,"y":2535886.2500000019}},{"attributes":{"ID":329551,"DIS_CODE":0,"TOWNNAME":"仁德區","LI":"仁和里","LIN":"24鄰","STREET":" ","SECT":" ","MAREA":"仁和","LANE":" ","ALLEY":" ","HOUSE_NO":"４８３號","E_COORD97":170380.02905899999,"N_COORD97":2539781.1499999999,"ADDRESS":"仁和４８３號","OBJECTID":329542},"geometry":{"x":170380.02905900218,"y":2539781.1500000004}},{"attributes":{"ID":329552,"DIS_CODE":0,"TOWNNAME":"仁德區","LI":"仁愛里","LIN":"20鄰","STREET":" ","SECT":" ","MAREA":"仁愛","LANE":" ","ALLEY":" ","HOUSE_NO":"４２５號","E_COORD97":170127.783669,"N_COORD97":2540160.9570200001,"ADDRESS":"仁愛４２５號","OBJECTID":329543},"geometry":{"x":170127.78366900142,"y":2540160.9570200015}},{"attributes":{"ID":329553,"DIS_CODE":0,"TOWNNAME":"仁德區","LI":"土庫里","LIN":"13鄰","STREET":"土庫路","SECT":" ","MAREA":" ","LANE":"２１１巷","ALLEY":" ","HOUSE_NO":"７號","E_COORD97":174323.66,"N_COORD97":2542890.25,"ADDRESS":"土庫路２１１巷７號","OBJECTID":329544},"geometry":{"x":174323.66000000201,"y":2542890.2500000037}},{"attributes":{"ID":329554,"DIS_CODE":0,"TOWNNAME":"仁德區","LI":"大甲里","LIN":"18鄰","STREET":"行大街","SECT":" ","MAREA":" ","LANE":"５５５巷","ALLEY":" ","HOUSE_NO":"８號","E_COORD97":169133.51000000001,"N_COORD97":2535444.25,"ADDRESS":"行大街５５５巷８號","OBJECTID":329545},"geometry":{"x":169133.51000000164,"y":2535444.25}},{"attributes":{"ID":329555,"DIS_CODE":0,"TOWNNAME":"仁德區","LI":"大甲里","LIN":"20鄰","STREET":"行大街","SECT":" ","MAREA":" ","LANE":"４２２巷","ALLEY":" ","HOUSE_NO":"７號","E_COORD97":169435.54000000001,"N_COORD97":2535327.25,"ADDRESS":"行大街４２２巷７號","OBJECTID":329546},"geometry":{"x":169435.54000000097,"y":2535327.2500000019}},{"attributes":{"ID":329556,"DIS_CODE":0,"TOWNNAME":"仁德區","LI":"土庫里","LIN":"13鄰","STREET":"土庫路","SECT":" ","MAREA":" ","LANE":"２１１巷","ALLEY":" ","HOUSE_NO":"１２號","E_COORD97":174321.26000000001,"N_COORD97":2542877.9900000002,"ADDRESS":"土庫路２１１巷１２號","OBJECTID":329547},"geometry":{"x":174321.26000000071,"y":2542877.9900000002}},{"attributes":{"ID":329557,"DIS_CODE":0,"TOWNNAME":"仁德區","LI":"仁和里","LIN":"26鄰","STREET":" ","SECT":" ","MAREA":"仁和","LANE":" ","ALLEY":" ","HOUSE_NO":"５２９號","E_COORD97":170450.053629,"N_COORD97":2539772.25,"ADDRESS":"仁和５２９號","OBJECTID":329548},"geometry":{"x":170450.05362900067,"y":2539772.2500000019}},{"attributes":{"ID":329558,"DIS_CODE":0,"TOWNNAME":"仁德區","LI":"中生里","LIN":"4鄰","STREET":" ","SECT":" ","MAREA":"中洲","LANE":" ","ALLEY":" ","HOUSE_NO":"１２０號之５","E_COORD97":172940.10999999999,"N_COORD97":2534259.04,"ADDRESS":"中洲１２０號之５","OBJECTID":329549},"geometry":{"x":172940.11000000034,"y":2534259.040000001}},{"attributes":{"ID":329559,"DIS_CODE":0,"TOWNNAME":"善化區","LI":"坐駕里","LIN":"17鄰","STREET":"興華路","SECT":" ","MAREA":" ","LANE":" ","ALLEY":" ","HOUSE_NO":"２９３號","E_COORD97":177805.70999999999,"N_COORD97":2558498.5,"ADDRESS":"興華路２９３號","OBJECTID":329550},"geometry":{"x":177805.71000000089,"y":2558498.5000000019}},{"attributes":{"ID":329560,"DIS_CODE":0,"TOWNNAME":"仁德區","LI":"中生里","LIN":"4鄰","STREET":" ","SECT":" ","MAREA":"中洲","LANE":" ","ALLEY":" ","HOUSE_NO":"１２０號之３","E_COORD97":172943.76999999999,"N_COORD97":2534244.79,"ADDRESS":"中洲１２０號之３","OBJECTID":329551},"geometry":{"x":172943.76999999955,"y":2534244.790000001}},{"attributes":{"ID":329561,"DIS_CODE":0,"TOWNNAME":"北區","LI":"長榮里","LIN":"15鄰","STREET":"開元路","SECT":" ","MAREA":" ","LANE":"２４９巷","ALLEY":" ","HOUSE_NO":"５８號","E_COORD97":169846.19,"N_COORD97":2545554.3599999999,"ADDRESS":"開元路２４９巷５８號","OBJECTID":329552},"geometry":{"x":169846.19000000041,"y":2545554.3600000013}},{"attributes":{"ID":329562,"DIS_CODE":0,"TOWNNAME":"東區","LI":"文聖里","LIN":"17鄰","STREET":"裕信路","SECT":" ","MAREA":" ","LANE":" ","ALLEY":" ","HOUSE_NO":"２７８之１３號","E_COORD97":172525.67999999999,"N_COORD97":2542733.6099999999,"ADDRESS":"裕信路２７８之１３號","OBJECTID":329553},"geometry":{"x":172525.6799999997,"y":2542733.6099999994}},{"attributes":{"ID":329563,"DIS_CODE":0,"TOWNNAME":"東區","LI":"文聖里","LIN":"17鄰","STREET":"裕信路","SECT":" ","MAREA":" ","LANE":" ","ALLEY":" ","HOUSE_NO":"２７８之１５號","E_COORD97":172519.91,"N_COORD97":2542733.6099999999,"ADDRESS":"裕信路２７８之１５號","OBJECTID":329554},"geometry":{"x":172519.91000000201,"y":2542733.6099999994}},{"attributes":{"ID":329564,"DIS_CODE":0,"TOWNNAME":"安平區","LI":"文平里","LIN":"19鄰","STREET":"健康一街","SECT":" ","MAREA":" ","LANE":" ","ALLEY":" ","HOUSE_NO":"５５號之１","E_COORD97":165925.78083,"N_COORD97":2542787.4379799999,"ADDRESS":"健康一街５５號之１","OBJECTID":329555},"geometry":{"x":165925.7808299996,"y":2542787.4379799999}},{"attributes":{"ID":329565,"DIS_CODE":0,"TOWNNAME":"東區","LI":"文聖里","LIN":"17鄰","STREET":"裕信路","SECT":" ","MAREA":" ","LANE":" ","ALLEY":" ","HOUSE_NO":"２７８之９號","E_COORD97":172546.60999999999,"N_COORD97":2542733.3500000001,"ADDRESS":"裕信路２７８之９號","OBJECTID":329556},"geometry":{"x":172546.61000000127,"y":2542733.3500000034}},{"attributes":{"ID":329566,"DIS_CODE":0,"TOWNNAME":"東區","LI":"文聖里","LIN":"17鄰","STREET":"裕信路","SECT":" ","MAREA":" ","LANE":" ","ALLEY":" ","HOUSE_NO":"２７８之８號","E_COORD97":172551.84,"N_COORD97":2542733.0800000001,"ADDRESS":"裕信路２７８之８號","OBJECTID":329557},"geometry":{"x":172551.83999999985,"y":2542733.0800000019}},{"attributes":{"ID":329567,"DIS_CODE":0,"TOWNNAME":"東區","LI":"文聖里","LIN":"17鄰","STREET":"裕信路","SECT":" ","MAREA":" ","LANE":" ","ALLEY":" ","HOUSE_NO":"２７８之７號","E_COORD97":172556.67000000001,"N_COORD97":2542733.21,"ADDRESS":"裕信路２７８之７號","OBJECTID":329558},"geometry":{"x":172556.66999999993,"y":2542733.2100000028}},{"attributes":{"ID":329568,"DIS_CODE":0,"TOWNNAME":"東區","LI":"文聖里","LIN":"17鄰","STREET":"裕信路","SECT":" ","MAREA":" ","LANE":" ","ALLEY":" ","HOUSE_NO":"２７８之６號","E_COORD97":172561.10000000001,"N_COORD97":2542733.0800000001,"ADDRESS":"裕信路２７８之６號","OBJECTID":329559},"geometry":{"x":172561.10000000056,"y":2542733.0800000019}},{"attributes":{"ID":329569,"DIS_CODE":0,"TOWNNAME":"東區","LI":"文聖里","LIN":"17鄰","STREET":"裕信路","SECT":" ","MAREA":" ","LANE":" ","ALLEY":" ","HOUSE_NO":"２７８之５號","E_COORD97":172565.79000000001,"N_COORD97":2542733.21,"ADDRESS":"裕信路２７８之５號","OBJECTID":329560},"geometry":{"x":172565.79000000004,"y":2542733.2100000028}},{"attributes":{"ID":329570,"DIS_CODE":0,"TOWNNAME":"仁德區","LI":"上崙里","LIN":"20鄰","STREET":"上崙街","SECT":" ","MAREA":" ","LANE":"４１巷","ALLEY":" ","HOUSE_NO":"１３號","E_COORD97":173737.87,"N_COORD97":2538061.25,"ADDRESS":"上崙街４１巷１３號","OBJECTID":329561},"geometry":{"x":173737.87000000104,"y":2538061.25}},{"attributes":{"ID":329571,"DIS_CODE":0,"TOWNNAME":"仁德區","LI":"土庫里","LIN":"13鄰","STREET":"土庫路","SECT":" ","MAREA":" ","LANE":"２４５巷","ALLEY":" ","HOUSE_NO":"２０號","E_COORD97":174285.88,"N_COORD97":2542827,"ADDRESS":"土庫路２４５巷２０號","OBJECTID":329562},"geometry":{"x":174285.87999999989,"y":2542827}},{"attributes":{"ID":329572,"DIS_CODE":0,"TOWNNAME":"仁德區","LI":"一甲里","LIN":"18鄰","STREET":"忠義路","SECT":" ","MAREA":" ","LANE":"２５１巷","ALLEY":" ","HOUSE_NO":"１６號","E_COORD97":173822.44,"N_COORD97":2541792.6600000001,"ADDRESS":"忠義路２５１巷１６號","OBJECTID":329563},"geometry":{"x":173822.44000000134,"y":2541792.6600000039}},{"attributes":{"ID":329573,"DIS_CODE":0,"TOWNNAME":"仁德區","LI":"二行里","LIN":"4鄰","STREET":"二行一路","SECT":" ","MAREA":" ","LANE":"８３巷","ALLEY":" ","HOUSE_NO":"２２號","E_COORD97":170342.54000000001,"N_COORD97":2535365.25,"ADDRESS":"二行一路８３巷２２號","OBJECTID":329564},"geometry":{"x":170342.54000000097,"y":2535365.25}},{"attributes":{"ID":329574,"DIS_CODE":0,"TOWNNAME":"仁德區","LI":"一甲里","LIN":"18鄰","STREET":"忠義路","SECT":" ","MAREA":" ","LANE":"２５１巷","ALLEY":" ","HOUSE_NO":"８號","E_COORD97":173822.29000000001,"N_COORD97":2541809.1499999999,"ADDRESS":"忠義路２５１巷８號","OBJECTID":329565},"geometry":{"x":173822.29000000004,"y":2541809.1500000004}},{"attributes":{"ID":329575,"DIS_CODE":0,"TOWNNAME":"仁德區","LI":"大甲里","LIN":"20鄰","STREET":"行大街","SECT":" ","MAREA":" ","LANE":"４８０巷","ALLEY":" ","HOUSE_NO":"２６號","E_COORD97":169332.29999999999,"N_COORD97":2535406.9900000002,"ADDRESS":"行大街４８０巷２６號","OBJECTID":329566},"geometry":{"x":169332.30000000075,"y":2535406.9900000021}},{"attributes":{"ID":329576,"DIS_CODE":0,"TOWNNAME":"仁德區","LI":"土庫里","LIN":"13鄰","STREET":"土庫路","SECT":" ","MAREA":" ","LANE":" ","ALLEY":" ","HOUSE_NO":"１９３號","E_COORD97":174322.45000000001,"N_COORD97":2542932.5,"ADDRESS":"土庫路１９３號","OBJECTID":329567},"geometry":{"x":174322.45000000112,"y":2542932.5000000037}},{"attributes":{"ID":329577,"DIS_CODE":0,"TOWNNAME":"仁德區","LI":"仁愛里","LIN":"14鄰","STREET":" ","SECT":" ","MAREA":"仁愛","LANE":" ","ALLEY":" ","HOUSE_NO":"３０１號","E_COORD97":170249.84763,"N_COORD97":2539901.2949999999,"ADDRESS":"仁愛３０１號","OBJECTID":329568},"geometry":{"x":170249.84763000067,"y":2539901.2950000037}},{"attributes":{"ID":329578,"DIS_CODE":0,"TOWNNAME":"仁德區","LI":"土庫里","LIN":"4鄰","STREET":"土庫三街","SECT":" ","MAREA":" ","LANE":" ","ALLEY":" ","HOUSE_NO":"２８號","E_COORD97":174126.57999999999,"N_COORD97":2543067.7400000002,"ADDRESS":"土庫三街２８號","OBJECTID":329569},"geometry":{"x":174126.58000000007,"y":2543067.7400000021}},{"attributes":{"ID":329579,"DIS_CODE":0,"TOWNNAME":"仁德區","LI":"中生里","LIN":"13鄰","STREET":" ","SECT":" ","MAREA":"中洲","LANE":" ","ALLEY":" ","HOUSE_NO":"２１５號","E_COORD97":173095.13,"N_COORD97":2534101.25,"ADDRESS":"中洲２１５號","OBJECTID":329570},"geometry":{"x":173095.13000000082,"y":2534101.25}},{"attributes":{"ID":329580,"DIS_CODE":0,"TOWNNAME":"仁德區","LI":"中生里","LIN":"4鄰","STREET":" ","SECT":" ","MAREA":"中洲","LANE":" ","ALLEY":" ","HOUSE_NO":"１１４號之１","E_COORD97":172977.23999999999,"N_COORD97":2534293.0499999998,"ADDRESS":"中洲１１４號之１","OBJECTID":329571},"geometry":{"x":172977.24000000115,"y":2534293.0500000007}},{"attributes":{"ID":329581,"DIS_CODE":0,"TOWNNAME":"仁德區","LI":"土庫里","LIN":"4鄰","STREET":"中正路","SECT":"三段","MAREA":" ","LANE":" ","ALLEY":" ","HOUSE_NO":"５８３號","E_COORD97":173888.17000000001,"N_COORD97":2543166.27,"ADDRESS":"中正路三段５８３號","OBJECTID":329572},"geometry":{"x":173888.17000000086,"y":2543166.2699999996}},{"attributes":{"ID":329582,"DIS_CODE":0,"TOWNNAME":"仁德區","LI":"中生里","LIN":"13鄰","STREET":" ","SECT":" ","MAREA":"中洲","LANE":" ","ALLEY":" ","HOUSE_NO":"２１７號","E_COORD97":173082.07000000001,"N_COORD97":2534072.4900000002,"ADDRESS":"中洲２１７號","OBJECTID":329573},"geometry":{"x":173082.07000000123,"y":2534072.4900000002}},{"attributes":{"ID":329583,"DIS_CODE":0,"TOWNNAME":"仁德區","LI":"上崙里","LIN":"5鄰","STREET":"德善路","SECT":" ","MAREA":" ","LANE":" ","ALLEY":" ","HOUSE_NO":"３９０之１號","E_COORD97":174024.45999999999,"N_COORD97":2538142.5499999998,"ADDRESS":"德善路３９０之１號","OBJECTID":329574},"geometry":{"x":174024.45999999996,"y":2538142.5500000045}},{"attributes":{"ID":329584,"DIS_CODE":0,"TOWNNAME":"仁德區","LI":"中生里","LIN":"13鄰","STREET":" ","SECT":" ","MAREA":"中洲","LANE":" ","ALLEY":" ","HOUSE_NO":"２１２號","E_COORD97":173096.57000000001,"N_COORD97":2534032.7400000002,"ADDRESS":"中洲２１２號","OBJECTID":329575},"geometry":{"x":173096.5700000003,"y":2534032.7400000021}},{"attributes":{"ID":329585,"DIS_CODE":0,"TOWNNAME":"仁德區","LI":"土庫里","LIN":"18鄰","STREET":"土庫一街","SECT":" ","MAREA":" ","LANE":" ","ALLEY":" ","HOUSE_NO":"５４號","E_COORD97":174579.98999999999,"N_COORD97":2543097.75,"ADDRESS":"土庫一街５４號","OBJECTID":329576},"geometry":{"x":174579.99000000022,"y":2543097.7500000019}},{"attributes":{"ID":329586,"DIS_CODE":0,"TOWNNAME":"仁德區","LI":"土庫里","LIN":"18鄰","STREET":"土庫一街","SECT":" ","MAREA":" ","LANE":" ","ALLEY":" ","HOUSE_NO":"７１號","E_COORD97":174588.47,"N_COORD97":2543113.5,"ADDRESS":"土庫一街７１號","OBJECTID":329577},"geometry":{"x":174588.46999999974,"y":2543113.5000000019}},{"attributes":{"ID":329587,"DIS_CODE":0,"TOWNNAME":"仁德區","LI":"土庫里","LIN":"14鄰","STREET":"土庫路","SECT":" ","MAREA":" ","LANE":" ","ALLEY":" ","HOUSE_NO":"１５５號","E_COORD97":174363.29000000001,"N_COORD97":2543052.4900000002,"ADDRESS":"土庫路１５５號","OBJECTID":329578},"geometry":{"x":174363.2900000019,"y":2543052.4900000021}},{"attributes":{"ID":329588,"DIS_CODE":0,"TOWNNAME":"仁德區","LI":"一甲里","LIN":"20鄰","STREET":"太乙六街","SECT":" ","MAREA":" ","LANE":" ","ALLEY":" ","HOUSE_NO":"６６號","E_COORD97":173189.32000000001,"N_COORD97":2542284.2599999998,"ADDRESS":"太乙六街６６號","OBJECTID":329579},"geometry":{"x":173189.32000000123,"y":2542284.2600000016}},{"attributes":{"ID":329589,"DIS_CODE":0,"TOWNNAME":"仁德區","LI":"土庫里","LIN":"5鄰","STREET":"土庫三街","SECT":" ","MAREA":" ","LANE":" ","ALLEY":" ","HOUSE_NO":"２７號","E_COORD97":174144.23000000001,"N_COORD97":2543084.2400000002,"ADDRESS":"土庫三街２７號","OBJECTID":329580},"geometry":{"x":174144.23000000138,"y":2543084.2400000021}},{"attributes":{"ID":329590,"DIS_CODE":0,"TOWNNAME":"仁德區","LI":"中生里","LIN":"4鄰","STREET":" ","SECT":" ","MAREA":"中洲","LANE":" ","ALLEY":" ","HOUSE_NO":"１０７號","E_COORD97":173000.98000000001,"N_COORD97":2534278.4900000002,"ADDRESS":"中洲１０７號","OBJECTID":329581},"geometry":{"x":173000.98000000045,"y":2534278.4900000021}},{"attributes":{"ID":329591,"DIS_CODE":0,"TOWNNAME":"仁德區","LI":"仁愛里","LIN":"20鄰","STREET":" ","SECT":" ","MAREA":"仁愛","LANE":" ","ALLEY":" ","HOUSE_NO":"４２６號","E_COORD97":170128.26038699999,"N_COORD97":2540164.2378500002,"ADDRESS":"仁愛４２６號","OBJECTID":329582},"geometry":{"x":170128.26038699877,"y":2540164.2378520016}},{"attributes":{"ID":329592,"DIS_CODE":0,"TOWNNAME":"仁德區","LI":"中生里","LIN":"4鄰","STREET":" ","SECT":" ","MAREA":"中洲","LANE":" ","ALLEY":" ","HOUSE_NO":"１１５號","E_COORD97":172988.32000000001,"N_COORD97":2534261.2400000002,"ADDRESS":"中洲１１５號","OBJECTID":329583},"geometry":{"x":172988.3200000003,"y":2534261.2400000002}},{"attributes":{"ID":329593,"DIS_CODE":0,"TOWNNAME":"仁德區","LI":"仁和里","LIN":"25鄰","STREET":" ","SECT":" ","MAREA":"仁和","LANE":" ","ALLEY":" ","HOUSE_NO":"５０２號","E_COORD97":170424.41679700001,"N_COORD97":2539781.1499999999,"ADDRESS":"仁和５０２號","OBJECTID":329584},"geometry":{"x":170424.41679699998,"y":2539781.1500000004}},{"attributes":{"ID":329594,"DIS_CODE":0,"TOWNNAME":"仁德區","LI":"仁愛里","LIN":"4鄰","STREET":" ","SECT":" ","MAREA":"仁愛","LANE":" ","ALLEY":" ","HOUSE_NO":"５３號","E_COORD97":170345.05850000001,"N_COORD97":2540037.0925099999,"ADDRESS":"仁愛５３號","OBJECTID":329585},"geometry":{"x":170345.05850000028,"y":2540037.0925050024}},{"attributes":{"ID":329595,"DIS_CODE":0,"TOWNNAME":"仁德區","LI":"中生里","LIN":"13鄰","STREET":" ","SECT":" ","MAREA":"中洲","LANE":" ","ALLEY":" ","HOUSE_NO":"２２６之２６號","E_COORD97":172865.94,"N_COORD97":2534024.5499999998,"ADDRESS":"中洲２２６之２６號","OBJECTID":329586},"geometry":{"x":172865.94000000134,"y":2534024.5500000026}},{"attributes":{"ID":329596,"DIS_CODE":0,"TOWNNAME":"仁德區","LI":"仁和里","LIN":"26鄰","STREET":" ","SECT":" ","MAREA":"仁和","LANE":" ","ALLEY":" ","HOUSE_NO":"５２７號","E_COORD97":170442.90286,"N_COORD97":2539772.25,"ADDRESS":"仁和５２７號","OBJECTID":329587},"geometry":{"x":170442.90286000073,"y":2539772.2500000019}},{"attributes":{"ID":329597,"DIS_CODE":0,"TOWNNAME":"仁德區","LI":"仁和里","LIN":"26鄰","STREET":" ","SECT":" ","MAREA":"仁和","LANE":" ","ALLEY":" ","HOUSE_NO":"５３１號","E_COORD97":170456.40986000001,"N_COORD97":2539772.25,"ADDRESS":"仁和５３１號","OBJECTID":329588},"geometry":{"x":170456.40986000095,"y":2539772.2500000019}},{"attributes":{"ID":329598,"DIS_CODE":0,"TOWNNAME":"北區","LI":"大豐里","LIN":"20鄰","STREET":"大興街","SECT":" ","MAREA":" ","LANE":"２３３巷","ALLEY":" ","HOUSE_NO":"５６號十三樓之１","E_COORD97":166846.79999999999,"N_COORD97":2545498.4500000002,"ADDRESS":"大興街２３３巷５６號十三樓之１","OBJECTID":329589},"geometry":{"x":166846.80000000075,"y":2545498.4499999974}},{"attributes":{"ID":329599,"DIS_CODE":0,"TOWNNAME":"關廟區","LI":"北花里","LIN":"15鄰","STREET":"中正路","SECT":" ","MAREA":" ","LANE":"１７７巷","ALLEY":" ","HOUSE_NO":"３號","E_COORD97":183461.26000000001,"N_COORD97":2540875.25,"ADDRESS":"中正路１７７巷３號","OBJECTID":329590},"geometry":{"x":183461.26000000164,"y":2540875.25}},{"attributes":{"ID":329600,"DIS_CODE":0,"TOWNNAME":"仁德區","LI":"中生里","LIN":"13鄰","STREET":" ","SECT":" ","MAREA":"中洲","LANE":" ","ALLEY":" ","HOUSE_NO":"２２６之２８號","E_COORD97":172909.60000000001,"N_COORD97":2533961.54,"ADDRESS":"中洲２２６之２８號","OBJECTID":329591},"geometry":{"x":172909.60000000149,"y":2533961.540000001}},{"attributes":{"ID":329601,"DIS_CODE":0,"TOWNNAME":"仁德區","LI":"中洲里","LIN":"4鄰","STREET":" ","SECT":" ","MAREA":"中洲","LANE":" ","ALLEY":" ","HOUSE_NO":"３５號","E_COORD97":173207.54000000001,"N_COORD97":2534431.25,"ADDRESS":"中洲３５號","OBJECTID":329592},"geometry":{"x":173207.54000000097,"y":2534431.2500000037}},{"attributes":{"ID":329602,"DIS_CODE":0,"TOWNNAME":"仁德區","LI":"土庫里","LIN":"20鄰","STREET":"太子二街","SECT":" ","MAREA":" ","LANE":"１５６巷","ALLEY":" ","HOUSE_NO":"２０號","E_COORD97":174424.76000000001,"N_COORD97":2543211.2599999998,"ADDRESS":"太子二街１５６巷２０號","OBJECTID":329593},"geometry":{"x":174424.76000000071,"y":2543211.2599999998}},{"attributes":{"ID":329603,"DIS_CODE":0,"TOWNNAME":"仁德區","LI":"土庫里","LIN":"13鄰","STREET":"土庫路","SECT":" ","MAREA":" ","LANE":"２４５巷","ALLEY":" ","HOUSE_NO":"１８號","E_COORD97":174282.12,"N_COORD97":2542826.5,"ADDRESS":"土庫路２４５巷１８號","OBJECTID":329594},"geometry":{"x":174282.12000000104,"y":2542826.5}},{"attributes":{"ID":329604,"DIS_CODE":0,"TOWNNAME":"仁德區","LI":"二行里","LIN":"14鄰","STREET":"中正西路","SECT":" ","MAREA":" ","LANE":"３５３巷","ALLEY":" ","HOUSE_NO":"４１號","E_COORD97":169862.57000000001,"N_COORD97":2535346.5,"ADDRESS":"中正西路３５３巷４１號","OBJECTID":329595},"geometry":{"x":169862.57000000216,"y":2535346.5000000019}},{"attributes":{"ID":329605,"DIS_CODE":0,"TOWNNAME":"北區","LI":"長榮里","LIN":"15鄰","STREET":"開元路","SECT":" ","MAREA":" ","LANE":"２４９巷","ALLEY":" ","HOUSE_NO":"６０號","E_COORD97":169842.85999999999,"N_COORD97":2545557.2200000002,"ADDRESS":"開元路２４９巷６０號","OBJECTID":329596},"geometry":{"x":169842.86000000034,"y":2545557.2200000025}},{"attributes":{"ID":329606,"DIS_CODE":0,"TOWNNAME":"北區","LI":"長榮里","LIN":"15鄰","STREET":"開元路","SECT":" ","MAREA":" ","LANE":"２４９巷","ALLEY":" ","HOUSE_NO":"６２號","E_COORD97":169839.67999999999,"N_COORD97":2545560.2400000002,"ADDRESS":"開元路２４９巷６２號","OBJECTID":329597},"geometry":{"x":169839.68000000063,"y":2545560.2400000021}},{"attributes":{"ID":329607,"DIS_CODE":0,"TOWNNAME":"北區","LI":"長榮里","LIN":"15鄰","STREET":"開元路","SECT":" ","MAREA":" ","LANE":"２４９巷","ALLEY":" ","HOUSE_NO":"６６號","E_COORD97":169829.20999999999,"N_COORD97":2545567.8599999999,"ADDRESS":"開元路２４９巷６６號","OBJECTID":329598},"geometry":{"x":169829.21000000089,"y":2545567.8600000013}},{"attributes":{"ID":329608,"DIS_CODE":0,"TOWNNAME":"新營區","LI":"嘉芳里","LIN":"15鄰","STREET":"復興路","SECT":" ","MAREA":" ","LANE":"１１１２巷","ALLEY":" ","HOUSE_NO":"２６號","E_COORD97":176067.82999999999,"N_COORD97":2578939.5699999998,"ADDRESS":"復興路１１１２巷２６號","OBJECTID":329599},"geometry":{"x":176067.83000000007,"y":2578939.5700000022}},{"attributes":{"ID":329609,"DIS_CODE":0,"TOWNNAME":"新營區","LI":"嘉芳里","LIN":"15鄰","STREET":"復興路","SECT":" ","MAREA":" ","LANE":"１０７０巷","ALLEY":" ","HOUSE_NO":"１８號","E_COORD97":176159.63,"N_COORD97":2578904.77,"ADDRESS":"復興路１０７０巷１８號","OBJECTID":329600},"geometry":{"x":176159.63000000082,"y":2578904.7699999996}}]}