{"displayFieldName":"TOWNNAME","fieldAliases":{"ID":"ID","DIS_CODE":"DIS_CODE","TOWNNAME":"TOWNNAME","LI":"LI","LIN":"LIN","STREET":"STREET","SECT":"SECT","MAREA":"MAREA","LANE":"LANE","ALLEY":"ALLEY","HOUSE_NO":"HOUSE_NO","E_COORD97":"E_COORD97","N_COORD97":"N_COORD97","ADDRESS":"ADDRESS","OBJECTID":"OBJECTID"},"geometryType":"esriGeometryPoint","spatialReference":{"wkid":102443,"latestWkid":3826},"fields":[{"name":"ID","type":"esriFieldTypeDouble","alias":"ID"},{"name":"DIS_CODE","type":"esriFieldTypeInteger","alias":"DIS_CODE"},{"name":"TOWNNAME","type":"esriFieldTypeString","alias":"TOWNNAME","length":8},{"name":"LI","type":"esriFieldTypeString","alias":"LI","length":8},{"name":"LIN","type":"esriFieldTypeString","alias":"LIN","length":12},{"name":"STREET","type":"esriFieldTypeString","alias":"STREET","length":20},{"name":"SECT","type":"esriFieldTypeString","alias":"SECT","length":8},{"name":"MAREA","type":"esriFieldTypeString","alias":"MAREA","length":12},{"name":"LANE","type":"esriFieldTypeString","alias":"LANE","length":10},{"name":"ALLEY","type":"esriFieldTypeString","alias":"ALLEY","length":10},{"name":"HOUSE_NO","type":"esriFieldTypeString","alias":"HOUSE_NO","length":20},{"name":"E_COORD97","type":"esriFieldTypeDouble","alias":"E_COORD97"},{"name":"N_COORD97","type":"esriFieldTypeDouble","alias":"N_COORD97"},{"name":"ADDRESS","type":"esriFieldTypeString","alias":"ADDRESS","length":50},{"name":"OBJECTID","type":"esriFieldTypeOID","alias":"OBJECTID"}],"features":[{"attributes":{"ID":405025,"DIS_CODE":0,"TOWNNAME":"安平區","LI":"怡平里","LIN":"27鄰","STREET":"永華六街","SECT":" ","MAREA":" ","LANE":"２２巷","ALLEY":" ","HOUSE_NO":"１８號","E_COORD97":165652.98999999999,"N_COORD97":2543571.3300000001,"ADDRESS":"永華六街２２巷１８號","OBJECTID":405001},"geometry":{"x":165652.99000000115,"y":2543571.3300000038}},{"attributes":{"ID":405026,"DIS_CODE":0,"TOWNNAME":"安平區","LI":"怡平里","LIN":"27鄰","STREET":"永華六街","SECT":" ","MAREA":" ","LANE":"２２巷","ALLEY":" ","HOUSE_NO":"２０號","E_COORD97":165662.04000000001,"N_COORD97":2543569.5899999999,"ADDRESS":"永華六街２２巷２０號","OBJECTID":405002},"geometry":{"x":165662.04000000097,"y":2543569.5900000017}},{"attributes":{"ID":405027,"DIS_CODE":0,"TOWNNAME":"安平區","LI":"怡平里","LIN":"27鄰","STREET":"永華六街","SECT":" ","MAREA":" ","LANE":"２２巷","ALLEY":" ","HOUSE_NO":"２２號","E_COORD97":165671.09,"N_COORD97":2543568.9500000002,"ADDRESS":"永華六街２２巷２２號","OBJECTID":405003},"geometry":{"x":165671.08999999985,"y":2543568.9499999993}},{"attributes":{"ID":405028,"DIS_CODE":0,"TOWNNAME":"安平區","LI":"怡平里","LIN":"27鄰","STREET":"永華六街","SECT":" ","MAREA":" ","LANE":"２２巷","ALLEY":" ","HOUSE_NO":"２６號","E_COORD97":165680.92999999999,"N_COORD97":2543567.6800000002,"ADDRESS":"永華六街２２巷２６號","OBJECTID":405004},"geometry":{"x":165680.93000000156,"y":2543567.6799999997}},{"attributes":{"ID":405029,"DIS_CODE":0,"TOWNNAME":"安平區","LI":"怡平里","LIN":"27鄰","STREET":"永華六街","SECT":" ","MAREA":" ","LANE":"２２巷","ALLEY":" ","HOUSE_NO":"２８號","E_COORD97":165691.25,"N_COORD97":2543565.9399999999,"ADDRESS":"永華六街２２巷２８號","OBJECTID":405005},"geometry":{"x":165691.25000000093,"y":2543565.9399999995}},{"attributes":{"ID":405030,"DIS_CODE":0,"TOWNNAME":"新營區","LI":"新東里","LIN":"27鄰","STREET":"東光街","SECT":" ","MAREA":" ","LANE":"１巷","ALLEY":" ","HOUSE_NO":"１６號","E_COORD97":180584.47,"N_COORD97":2579568.8900000001,"ADDRESS":"東光街１巷１６號","OBJECTID":405006},"geometry":{"x":180584.46999999974,"y":2579568.8900000006}},{"attributes":{"ID":405031,"DIS_CODE":0,"TOWNNAME":"新營區","LI":"新東里","LIN":"27鄰","STREET":"東光街","SECT":" ","MAREA":" ","LANE":"１巷","ALLEY":" ","HOUSE_NO":"２號","E_COORD97":180588.20999999999,"N_COORD97":2579527.8799999999,"ADDRESS":"東光街１巷２號","OBJECTID":405007},"geometry":{"x":180588.20999999996,"y":2579527.8800000027}},{"attributes":{"ID":405032,"DIS_CODE":0,"TOWNNAME":"新營區","LI":"新東里","LIN":"27鄰","STREET":"東光街","SECT":" ","MAREA":" ","LANE":"４０巷","ALLEY":" ","HOUSE_NO":"６號","E_COORD97":180637.45000000001,"N_COORD97":2579571.96,"ADDRESS":"東光街４０巷６號","OBJECTID":405008},"geometry":{"x":180637.45000000019,"y":2579571.9600000009}},{"attributes":{"ID":405033,"DIS_CODE":0,"TOWNNAME":"新營區","LI":"民榮里","LIN":"27鄰","STREET":"復興路","SECT":" ","MAREA":" ","LANE":"４８９巷","ALLEY":" ","HOUSE_NO":"１６號","E_COORD97":178284.70000000001,"N_COORD97":2578188.8799999999,"ADDRESS":"復興路４８９巷１６號","OBJECTID":405009},"geometry":{"x":178284.70000000019,"y":2578188.8800000027}},{"attributes":{"ID":405034,"DIS_CODE":0,"TOWNNAME":"南區","LI":"開南里","LIN":"27鄰","STREET":"新建路","SECT":" ","MAREA":" ","LANE":"５３巷","ALLEY":" ","HOUSE_NO":"１１號","E_COORD97":166521.32999999999,"N_COORD97":2540747.2599999998,"ADDRESS":"新建路５３巷１１號","OBJECTID":405010},"geometry":{"x":166521.33000000101,"y":2540747.2600000035}},{"attributes":{"ID":405035,"DIS_CODE":0,"TOWNNAME":"南區","LI":"開南里","LIN":"27鄰","STREET":"新建路","SECT":" ","MAREA":" ","LANE":"５３巷","ALLEY":" ","HOUSE_NO":"１號","E_COORD97":166481.45000000001,"N_COORD97":2540747.96,"ADDRESS":"新建路５３巷１號","OBJECTID":405011},"geometry":{"x":166481.45000000205,"y":2540747.9600000028}},{"attributes":{"ID":405036,"DIS_CODE":0,"TOWNNAME":"南區","LI":"開南里","LIN":"27鄰","STREET":"新建路","SECT":" ","MAREA":" ","LANE":"５３巷","ALLEY":" ","HOUSE_NO":"２號","E_COORD97":166497.07999999999,"N_COORD97":2540721.1000000001,"ADDRESS":"新建路５３巷２號","OBJECTID":405012},"geometry":{"x":166497.08000000007,"y":2540721.1000000034}},{"attributes":{"ID":405037,"DIS_CODE":0,"TOWNNAME":"南區","LI":"開南里","LIN":"27鄰","STREET":"新建路","SECT":" ","MAREA":" ","LANE":"５３巷","ALLEY":" ","HOUSE_NO":"３號","E_COORD97":166486.04999999999,"N_COORD97":2540747.2599999998,"ADDRESS":"新建路５３巷３號","OBJECTID":405013},"geometry":{"x":166486.05000000075,"y":2540747.2600000035}},{"attributes":{"ID":405038,"DIS_CODE":0,"TOWNNAME":"南區","LI":"開南里","LIN":"27鄰","STREET":"新建路","SECT":" ","MAREA":" ","LANE":"５３巷","ALLEY":" ","HOUSE_NO":"４號","E_COORD97":166510.88,"N_COORD97":2540721.1000000001,"ADDRESS":"新建路５３巷４號","OBJECTID":405014},"geometry":{"x":166510.88000000082,"y":2540721.1000000034}},{"attributes":{"ID":405039,"DIS_CODE":0,"TOWNNAME":"南區","LI":"開南里","LIN":"27鄰","STREET":"新建路","SECT":" ","MAREA":" ","LANE":"５３巷","ALLEY":" ","HOUSE_NO":"７之２號","E_COORD97":166503.62,"N_COORD97":2540747.6800000002,"ADDRESS":"新建路５３巷７之２號","OBJECTID":405015},"geometry":{"x":166503.62000000011,"y":2540747.6800000034}},{"attributes":{"ID":405040,"DIS_CODE":0,"TOWNNAME":"南區","LI":"開南里","LIN":"27鄰","STREET":"新建路","SECT":" ","MAREA":" ","LANE":"５３巷","ALLEY":" ","HOUSE_NO":"９號","E_COORD97":166516.17000000001,"N_COORD97":2540747.54,"ADDRESS":"新建路５３巷９號","OBJECTID":405016},"geometry":{"x":166516.16999999993,"y":2540747.5399999991}},{"attributes":{"ID":405041,"DIS_CODE":0,"TOWNNAME":"安平區","LI":"建平里","LIN":"27鄰","STREET":"建平八街","SECT":" ","MAREA":" ","LANE":"１０８巷","ALLEY":" ","HOUSE_NO":"４２號","E_COORD97":165855.51999999999,"N_COORD97":2543645.3700000001,"ADDRESS":"建平八街１０８巷４２號","OBJECTID":405017},"geometry":{"x":165855.52000000048,"y":2543645.370000001}},{"attributes":{"ID":405042,"DIS_CODE":0,"TOWNNAME":"安平區","LI":"建平里","LIN":"27鄰","STREET":"建平八街","SECT":" ","MAREA":" ","LANE":"１０８巷","ALLEY":" ","HOUSE_NO":"４６號","E_COORD97":165856.03,"N_COORD97":2543655.04,"ADDRESS":"建平八街１０８巷４６號","OBJECTID":405018},"geometry":{"x":165856.03000000119,"y":2543655.040000001}},{"attributes":{"ID":405043,"DIS_CODE":0,"TOWNNAME":"安平區","LI":"建平里","LIN":"27鄰","STREET":"建平八街","SECT":" ","MAREA":" ","LANE":"１０８巷","ALLEY":" ","HOUSE_NO":"４８號","E_COORD97":165855.20999999999,"N_COORD97":2543659.7200000002,"ADDRESS":"建平八街１０８巷４８號","OBJECTID":405019},"geometry":{"x":165855.20999999996,"y":2543659.7200000007}},{"attributes":{"ID":405044,"DIS_CODE":0,"TOWNNAME":"安平區","LI":"建平里","LIN":"27鄰","STREET":"建平八街","SECT":" ","MAREA":" ","LANE":"１０８巷","ALLEY":" ","HOUSE_NO":"５０號","E_COORD97":165855.79000000001,"N_COORD97":2543663.02,"ADDRESS":"建平八街１０８巷５０號","OBJECTID":405020},"geometry":{"x":165855.79000000097,"y":2543663.0199999996}},{"attributes":{"ID":405045,"DIS_CODE":0,"TOWNNAME":"仁德區","LI":"後壁里","LIN":"10鄰","STREET":"民安路","SECT":"二段","MAREA":" ","LANE":"１８２巷","ALLEY":" ","HOUSE_NO":"３９號","E_COORD97":173751.92999999999,"N_COORD97":2538841.5600000001,"ADDRESS":"民安路二段１８２巷３９號","OBJECTID":405021},"geometry":{"x":173751.93000000063,"y":2538841.5600000024}},{"attributes":{"ID":405046,"DIS_CODE":0,"TOWNNAME":"歸仁區","LI":"南保里","LIN":"27鄰","STREET":"民權北路","SECT":" ","MAREA":" ","LANE":"６１巷","ALLEY":" ","HOUSE_NO":"２０號","E_COORD97":176957.73999999999,"N_COORD97":2541035.29,"ADDRESS":"民權北路６１巷２０號","OBJECTID":405022},"geometry":{"x":176957.74000000115,"y":2541035.290000001}},{"attributes":{"ID":405047,"DIS_CODE":0,"TOWNNAME":"歸仁區","LI":"歸仁里","LIN":"27鄰","STREET":"忠孝北路","SECT":" ","MAREA":" ","LANE":"１２０巷","ALLEY":" ","HOUSE_NO":"３１號","E_COORD97":178427.22,"N_COORD97":2540929.25,"ADDRESS":"忠孝北路１２０巷３１號","OBJECTID":405023},"geometry":{"x":178427.22000000067,"y":2540929.25}},{"attributes":{"ID":405048,"DIS_CODE":0,"TOWNNAME":"玉井區","LI":"玉田里","LIN":"27鄰","STREET":"中山路","SECT":" ","MAREA":" ","LANE":"３巷","ALLEY":" ","HOUSE_NO":"２４號","E_COORD97":194894.10999999999,"N_COORD97":2557794.2400000002,"ADDRESS":"中山路３巷２４號","OBJECTID":405024},"geometry":{"x":194894.11000000127,"y":2557794.2400000002}},{"attributes":{"ID":405049,"DIS_CODE":0,"TOWNNAME":"南區","LI":"大忠里","LIN":"27鄰","STREET":"大同路","SECT":"二段","MAREA":" ","LANE":"４８２巷","ALLEY":" ","HOUSE_NO":"１４９號","E_COORD97":169039.75,"N_COORD97":2541530.6299999999,"ADDRESS":"大同路二段４８２巷１４９號","OBJECTID":405025},"geometry":{"x":169039.75,"y":2541530.6300000008}},{"attributes":{"ID":405050,"DIS_CODE":0,"TOWNNAME":"仁德區","LI":"後壁里","LIN":"18鄰","STREET":"德南路","SECT":" ","MAREA":" ","LANE":"２２巷","ALLEY":" ","HOUSE_NO":"２０號","E_COORD97":173279.32999999999,"N_COORD97":2538747.77,"ADDRESS":"德南路２２巷２０號","OBJECTID":405026},"geometry":{"x":173279.33000000007,"y":2538747.7700000014}},{"attributes":{"ID":405051,"DIS_CODE":0,"TOWNNAME":"新營區","LI":"南紙里","LIN":"27鄰","STREET":"太子路","SECT":" ","MAREA":" ","LANE":"２００巷","ALLEY":" ","HOUSE_NO":"１號","E_COORD97":177893.26000000001,"N_COORD97":2577884.0099999998,"ADDRESS":"太子路２００巷１號","OBJECTID":405027},"geometry":{"x":177893.26000000071,"y":2577884.0100000016}},{"attributes":{"ID":405052,"DIS_CODE":0,"TOWNNAME":"楠西區","LI":"楠西里","LIN":"27鄰","STREET":"博愛路","SECT":" ","MAREA":" ","LANE":"５１巷","ALLEY":" ","HOUSE_NO":"２號","E_COORD97":197376.22,"N_COORD97":2563435.2799999998,"ADDRESS":"博愛路５１巷２號","OBJECTID":405028},"geometry":{"x":197376.22000000067,"y":2563435.2800000012}},{"attributes":{"ID":405053,"DIS_CODE":0,"TOWNNAME":"仁德區","LI":"成功里","LIN":"20鄰","STREET":"保生路","SECT":" ","MAREA":" ","LANE":"１２３巷","ALLEY":" ","HOUSE_NO":"５號","E_COORD97":170620.45999999999,"N_COORD97":2539793.75,"ADDRESS":"保生路１２３巷５號","OBJECTID":405029},"geometry":{"x":170620.45999999996,"y":2539793.75}},{"attributes":{"ID":405054,"DIS_CODE":0,"TOWNNAME":"仁德區","LI":"後壁里","LIN":"32鄰","STREET":"德洋路","SECT":" ","MAREA":" ","LANE":"２０５巷","ALLEY":" ","HOUSE_NO":"２號","E_COORD97":172484.72,"N_COORD97":2539504.52,"ADDRESS":"德洋路２０５巷２號","OBJECTID":405030},"geometry":{"x":172484.71999999974,"y":2539504.5200000033}},{"attributes":{"ID":405055,"DIS_CODE":0,"TOWNNAME":"仁德區","LI":"後壁里","LIN":"7鄰","STREET":"德善二街","SECT":" ","MAREA":" ","LANE":"５１巷","ALLEY":" ","HOUSE_NO":"１４號","E_COORD97":173627.64999999999,"N_COORD97":2539021.5099999998,"ADDRESS":"德善二街５１巷１４號","OBJECTID":405031},"geometry":{"x":173627.6500000013,"y":2539021.5099999998}},{"attributes":{"ID":405056,"DIS_CODE":0,"TOWNNAME":"楠西區","LI":"楠西里","LIN":"27鄰","STREET":"博愛路","SECT":" ","MAREA":" ","LANE":"５１巷","ALLEY":" ","HOUSE_NO":"６６號","E_COORD97":197265.87,"N_COORD97":2562855.2799999998,"ADDRESS":"博愛路５１巷６６號","OBJECTID":405032},"geometry":{"x":197265.87000000011,"y":2562855.2800000031}},{"attributes":{"ID":405057,"DIS_CODE":0,"TOWNNAME":"楠西區","LI":"楠西里","LIN":"27鄰","STREET":"博愛路","SECT":" ","MAREA":" ","LANE":"５１巷","ALLEY":" ","HOUSE_NO":"６號","E_COORD97":197375.51999999999,"N_COORD97":2563429.2799999998,"ADDRESS":"博愛路５１巷６號","OBJECTID":405033},"geometry":{"x":197375.52000000048,"y":2563429.2800000012}},{"attributes":{"ID":405058,"DIS_CODE":0,"TOWNNAME":"學甲區","LI":"慈福里","LIN":"27鄰","STREET":"華宗路","SECT":" ","MAREA":" ","LANE":"４２４巷","ALLEY":" ","HOUSE_NO":"１０號","E_COORD97":166407.03,"N_COORD97":2570380.3900000001,"ADDRESS":"華宗路４２４巷１０號","OBJECTID":405034},"geometry":{"x":166407.03000000119,"y":2570380.3900000025}},{"attributes":{"ID":405059,"DIS_CODE":0,"TOWNNAME":"學甲區","LI":"慈福里","LIN":"27鄰","STREET":"華宗路","SECT":" ","MAREA":" ","LANE":"４２４巷","ALLEY":" ","HOUSE_NO":"１２號","E_COORD97":166411.10000000001,"N_COORD97":2570379.2599999998,"ADDRESS":"華宗路４２４巷１２號","OBJECTID":405035},"geometry":{"x":166411.09999999963,"y":2570379.2600000035}},{"attributes":{"ID":405060,"DIS_CODE":0,"TOWNNAME":"學甲區","LI":"慈福里","LIN":"27鄰","STREET":"華宗路","SECT":" ","MAREA":" ","LANE":"４２４巷","ALLEY":" ","HOUSE_NO":"１號","E_COORD97":166372.73999999999,"N_COORD97":2570400.9700000002,"ADDRESS":"華宗路４２４巷１號","OBJECTID":405036},"geometry":{"x":166372.74000000209,"y":2570400.9700000007}},{"attributes":{"ID":405061,"DIS_CODE":0,"TOWNNAME":"學甲區","LI":"慈福里","LIN":"27鄰","STREET":"華宗路","SECT":" ","MAREA":" ","LANE":"４２４巷","ALLEY":" ","HOUSE_NO":"２２號","E_COORD97":166424.66,"N_COORD97":2570377.8199999998,"ADDRESS":"華宗路４２４巷２２號","OBJECTID":405037},"geometry":{"x":166424.66000000108,"y":2570377.8200000003}},{"attributes":{"ID":405062,"DIS_CODE":0,"TOWNNAME":"學甲區","LI":"慈福里","LIN":"27鄰","STREET":"華宗路","SECT":" ","MAREA":" ","LANE":"４２４巷","ALLEY":" ","HOUSE_NO":"３１號","E_COORD97":166452.95000000001,"N_COORD97":2570392.8100000001,"ADDRESS":"華宗路４２４巷３１號","OBJECTID":405038},"geometry":{"x":166452.95000000112,"y":2570392.8099999987}},{"attributes":{"ID":405063,"DIS_CODE":0,"TOWNNAME":"學甲區","LI":"慈福里","LIN":"27鄰","STREET":"華宗路","SECT":" ","MAREA":" ","LANE":"４２４巷","ALLEY":" ","HOUSE_NO":"３２號","E_COORD97":166451.42000000001,"N_COORD97":2570368.9700000002,"ADDRESS":"華宗路４２４巷３２號","OBJECTID":405039},"geometry":{"x":166451.42000000086,"y":2570368.9700000025}},{"attributes":{"ID":405064,"DIS_CODE":0,"TOWNNAME":"學甲區","LI":"慈福里","LIN":"27鄰","STREET":"華宗路","SECT":" ","MAREA":" ","LANE":"４２４巷","ALLEY":" ","HOUSE_NO":"３４號","E_COORD97":166455.81,"N_COORD97":2570367.9100000001,"ADDRESS":"華宗路４２４巷３４號","OBJECTID":405040},"geometry":{"x":166455.80999999959,"y":2570367.9100000001}},{"attributes":{"ID":405065,"DIS_CODE":0,"TOWNNAME":"學甲區","LI":"慈福里","LIN":"27鄰","STREET":"華宗路","SECT":" ","MAREA":" ","LANE":"４２４巷","ALLEY":" ","HOUSE_NO":"３５號","E_COORD97":166464.14000000001,"N_COORD97":2570391.0099999998,"ADDRESS":"華宗路４２４巷３５號","OBJECTID":405041},"geometry":{"x":166464.13999999873,"y":2570391.0100000035}},{"attributes":{"ID":405066,"DIS_CODE":0,"TOWNNAME":"仁德區","LI":"後壁里","LIN":"4鄰","STREET":"德善一街","SECT":" ","MAREA":" ","LANE":"５巷","ALLEY":" ","HOUSE_NO":"１６號","E_COORD97":173344.70999999999,"N_COORD97":2538975.02,"ADDRESS":"德善一街５巷１６號","OBJECTID":405042},"geometry":{"x":173344.70999999996,"y":2538975.0199999996}},{"attributes":{"ID":405067,"DIS_CODE":0,"TOWNNAME":"學甲區","LI":"慈福里","LIN":"27鄰","STREET":"華宗路","SECT":" ","MAREA":" ","LANE":"４２４巷","ALLEY":" ","HOUSE_NO":"３６號","E_COORD97":166460.16,"N_COORD97":2570367.3799999999,"ADDRESS":"華宗路４２４巷３６號","OBJECTID":405043},"geometry":{"x":166460.16000000108,"y":2570367.3800000027}},{"attributes":{"ID":405068,"DIS_CODE":0,"TOWNNAME":"學甲區","LI":"慈福里","LIN":"27鄰","STREET":"華宗路","SECT":" ","MAREA":" ","LANE":"４２４巷","ALLEY":" ","HOUSE_NO":"３７號","E_COORD97":166467.73000000001,"N_COORD97":2570391.79,"ADDRESS":"華宗路４２４巷３７號","OBJECTID":405044},"geometry":{"x":166467.72999999952,"y":2570391.7900000028}},{"attributes":{"ID":405069,"DIS_CODE":0,"TOWNNAME":"仁德區","LI":"後壁里","LIN":"34鄰","STREET":"德洋二街","SECT":" ","MAREA":" ","LANE":"１１巷","ALLEY":" ","HOUSE_NO":"５號","E_COORD97":172476.63,"N_COORD97":2539375.52,"ADDRESS":"德洋二街１１巷５號","OBJECTID":405045},"geometry":{"x":172476.62999999989,"y":2539375.5200000033}},{"attributes":{"ID":405070,"DIS_CODE":0,"TOWNNAME":"學甲區","LI":"慈福里","LIN":"27鄰","STREET":"華宗路","SECT":" ","MAREA":" ","LANE":"４２４巷","ALLEY":" ","HOUSE_NO":"３８號","E_COORD97":166464.17999999999,"N_COORD97":2570366.27,"ADDRESS":"華宗路４２４巷３８號","OBJECTID":405046},"geometry":{"x":166464.18000000063,"y":2570366.2700000014}},{"attributes":{"ID":405071,"DIS_CODE":0,"TOWNNAME":"學甲區","LI":"慈福里","LIN":"27鄰","STREET":"華宗路","SECT":" ","MAREA":" ","LANE":"４２４巷","ALLEY":" ","HOUSE_NO":"４１號","E_COORD97":166476.98999999999,"N_COORD97":2570387.3799999999,"ADDRESS":"華宗路４２４巷４１號","OBJECTID":405047},"geometry":{"x":166476.99000000022,"y":2570387.3799999971}},{"attributes":{"ID":405072,"DIS_CODE":0,"TOWNNAME":"學甲區","LI":"慈福里","LIN":"27鄰","STREET":"華宗路","SECT":" ","MAREA":" ","LANE":"４２４巷","ALLEY":" ","HOUSE_NO":"４３號","E_COORD97":166480.12,"N_COORD97":2570384.1699999999,"ADDRESS":"華宗路４２４巷４３號","OBJECTID":405048},"geometry":{"x":166480.12000000197,"y":2570384.1700000018}},{"attributes":{"ID":405073,"DIS_CODE":0,"TOWNNAME":"學甲區","LI":"慈福里","LIN":"27鄰","STREET":"華宗路","SECT":" ","MAREA":" ","LANE":"４２４巷","ALLEY":" ","HOUSE_NO":"４５號","E_COORD97":166483.73000000001,"N_COORD97":2570383.3500000001,"ADDRESS":"華宗路４２４巷４５號","OBJECTID":405049},"geometry":{"x":166483.73000000138,"y":2570383.3500000015}},{"attributes":{"ID":405074,"DIS_CODE":0,"TOWNNAME":"學甲區","LI":"慈福里","LIN":"27鄰","STREET":"華宗路","SECT":" ","MAREA":" ","LANE":"４２４巷","ALLEY":" ","HOUSE_NO":"４７號","E_COORD97":166487.76000000001,"N_COORD97":2570382.8500000001,"ADDRESS":"華宗路４２４巷４７號","OBJECTID":405050},"geometry":{"x":166487.76000000071,"y":2570382.8500000015}},{"attributes":{"ID":405075,"DIS_CODE":0,"TOWNNAME":"學甲區","LI":"慈福里","LIN":"27鄰","STREET":"華宗路","SECT":" ","MAREA":" ","LANE":"４２４巷","ALLEY":" ","HOUSE_NO":"６號","E_COORD97":166383.92999999999,"N_COORD97":2570387.2599999998,"ADDRESS":"華宗路４２４巷６號","OBJECTID":405051},"geometry":{"x":166383.9299999997,"y":2570387.2600000016}},{"attributes":{"ID":405076,"DIS_CODE":0,"TOWNNAME":"學甲區","LI":"慈福里","LIN":"27鄰","STREET":"華宗路","SECT":" ","MAREA":" ","LANE":"４２４巷","ALLEY":" ","HOUSE_NO":"７號","E_COORD97":166402.20999999999,"N_COORD97":2570415.25,"ADDRESS":"華宗路４２４巷７號","OBJECTID":405052},"geometry":{"x":166402.21000000089,"y":2570415.25}},{"attributes":{"ID":405077,"DIS_CODE":0,"TOWNNAME":"學甲區","LI":"慈福里","LIN":"27鄰","STREET":"華宗路","SECT":" ","MAREA":" ","LANE":"４２４巷","ALLEY":" ","HOUSE_NO":"８號","E_COORD97":166396.91,"N_COORD97":2570383.8500000001,"ADDRESS":"華宗路４２４巷８號","OBJECTID":405053},"geometry":{"x":166396.91000000201,"y":2570383.8499999996}},{"attributes":{"ID":405078,"DIS_CODE":0,"TOWNNAME":"中西區","LI":"西湖里","LIN":"27鄰","STREET":"湖美街","SECT":" ","MAREA":" ","LANE":"７０巷","ALLEY":" ","HOUSE_NO":"６號三樓之２１","E_COORD97":165982.98000000001,"N_COORD97":2544746.3199999998,"ADDRESS":"湖美街７０巷６號三樓之２１","OBJECTID":405054},"geometry":{"x":165982.98000000231,"y":2544746.3200000003}},{"attributes":{"ID":405079,"DIS_CODE":0,"TOWNNAME":"中西區","LI":"西湖里","LIN":"27鄰","STREET":"湖美街","SECT":" ","MAREA":" ","LANE":"７０巷","ALLEY":" ","HOUSE_NO":"６號五樓之２１","E_COORD97":165982.98000000001,"N_COORD97":2544746.3199999998,"ADDRESS":"湖美街７０巷６號五樓之２１","OBJECTID":405055},"geometry":{"x":165982.98000000231,"y":2544746.3200000003}},{"attributes":{"ID":405080,"DIS_CODE":0,"TOWNNAME":"中西區","LI":"西湖里","LIN":"27鄰","STREET":"湖美街","SECT":" ","MAREA":" ","LANE":"７０巷","ALLEY":" ","HOUSE_NO":"６號六樓之２１","E_COORD97":165982.98000000001,"N_COORD97":2544746.3199999998,"ADDRESS":"湖美街７０巷６號六樓之２１","OBJECTID":405056},"geometry":{"x":165982.98000000231,"y":2544746.3200000003}},{"attributes":{"ID":405081,"DIS_CODE":0,"TOWNNAME":"中西區","LI":"西湖里","LIN":"27鄰","STREET":"湖美街","SECT":" ","MAREA":" ","LANE":"７０巷","ALLEY":" ","HOUSE_NO":"６號四樓之２１","E_COORD97":165982.98000000001,"N_COORD97":2544746.3199999998,"ADDRESS":"湖美街７０巷６號四樓之２１","OBJECTID":405057},"geometry":{"x":165982.98000000231,"y":2544746.3200000003}},{"attributes":{"ID":405082,"DIS_CODE":0,"TOWNNAME":"仁德區","LI":"後壁里","LIN":"17鄰","STREET":"德善路","SECT":" ","MAREA":" ","LANE":"１２巷","ALLEY":" ","HOUSE_NO":"２號","E_COORD97":173269.47,"N_COORD97":2538908.2599999998,"ADDRESS":"德善路１２巷２號","OBJECTID":405058},"geometry":{"x":173269.46999999974,"y":2538908.2599999998}},{"attributes":{"ID":405083,"DIS_CODE":0,"TOWNNAME":"仁德區","LI":"後壁里","LIN":"33鄰","STREET":"德洋二街","SECT":" ","MAREA":" ","LANE":"３９巷","ALLEY":" ","HOUSE_NO":"２２號","E_COORD97":172275.23000000001,"N_COORD97":2539460.0099999998,"ADDRESS":"德洋二街３９巷２２號","OBJECTID":405059},"geometry":{"x":172275.23000000045,"y":2539460.0099999998}},{"attributes":{"ID":405084,"DIS_CODE":0,"TOWNNAME":"仁德區","LI":"後壁里","LIN":"30鄰","STREET":"德洋一街","SECT":" ","MAREA":" ","LANE":"５１巷","ALLEY":" ","HOUSE_NO":"７號","E_COORD97":173103.88,"N_COORD97":2539214.2599999998,"ADDRESS":"德洋一街５１巷７號","OBJECTID":405060},"geometry":{"x":173103.87999999989,"y":2539214.2599999998}},{"attributes":{"ID":405085,"DIS_CODE":0,"TOWNNAME":"仁德區","LI":"後壁里","LIN":"37鄰","STREET":"德洋一街","SECT":" ","MAREA":" ","LANE":"５１巷","ALLEY":" ","HOUSE_NO":"４號","E_COORD97":173125.95000000001,"N_COORD97":2539212.5099999998,"ADDRESS":"德洋一街５１巷４號","OBJECTID":405061},"geometry":{"x":173125.95000000019,"y":2539212.5099999998}},{"attributes":{"ID":405086,"DIS_CODE":0,"TOWNNAME":"永康區","LI":"復華里","LIN":"27鄰","STREET":"復華八街","SECT":" ","MAREA":" ","LANE":"５１巷","ALLEY":" ","HOUSE_NO":"３５號八樓之３","E_COORD97":172702.98000000001,"N_COORD97":2546429.1400000001,"ADDRESS":"復華八街５１巷３５號八樓之３","OBJECTID":405062},"geometry":{"x":172702.98000000138,"y":2546429.1400000025}},{"attributes":{"ID":405087,"DIS_CODE":0,"TOWNNAME":"永康區","LI":"復華里","LIN":"27鄰","STREET":"復華八街","SECT":" ","MAREA":" ","LANE":"５１巷","ALLEY":" ","HOUSE_NO":"３９號六樓之５","E_COORD97":172688,"N_COORD97":2546429.1400000001,"ADDRESS":"復華八街５１巷３９號六樓之５","OBJECTID":405063},"geometry":{"x":172688,"y":2546429.1400000025}},{"attributes":{"ID":405088,"DIS_CODE":0,"TOWNNAME":"永康區","LI":"復華里","LIN":"27鄰","STREET":"復華八街","SECT":" ","MAREA":" ","LANE":"５１巷","ALLEY":" ","HOUSE_NO":"３５號八樓之６","E_COORD97":172702.98999999999,"N_COORD97":2546429.1400000001,"ADDRESS":"復華八街５１巷３５號八樓之６","OBJECTID":405064},"geometry":{"x":172702.99000000115,"y":2546429.1400000025}},{"attributes":{"ID":405089,"DIS_CODE":0,"TOWNNAME":"永康區","LI":"復華里","LIN":"27鄰","STREET":"復華八街","SECT":" ","MAREA":" ","LANE":"５１巷","ALLEY":" ","HOUSE_NO":"３５號二樓之１","E_COORD97":172702.89000000001,"N_COORD97":2546429.1400000001,"ADDRESS":"復華八街５１巷３５號二樓之１","OBJECTID":405065},"geometry":{"x":172702.8900000006,"y":2546429.1400000025}},{"attributes":{"ID":405090,"DIS_CODE":0,"TOWNNAME":"仁德區","LI":"後壁里","LIN":"34鄰","STREET":"德洋二街","SECT":" ","MAREA":" ","LANE":"３１巷","ALLEY":" ","HOUSE_NO":"５號","E_COORD97":172403.10000000001,"N_COORD97":2539387.52,"ADDRESS":"德洋二街３１巷５號","OBJECTID":405066},"geometry":{"x":172403.10000000056,"y":2539387.5199999996}},{"attributes":{"ID":405091,"DIS_CODE":0,"TOWNNAME":"仁德區","LI":"後壁里","LIN":"12鄰","STREET":"德善路","SECT":" ","MAREA":" ","LANE":"２８０巷","ALLEY":" ","HOUSE_NO":"１２號","E_COORD97":173927.29999999999,"N_COORD97":2538475.77,"ADDRESS":"德善路２８０巷１２號","OBJECTID":405067},"geometry":{"x":173927.30000000168,"y":2538475.7700000014}},{"attributes":{"ID":405092,"DIS_CODE":0,"TOWNNAME":"仁德區","LI":"後壁里","LIN":"37鄰","STREET":"民安路","SECT":"一段","MAREA":" ","LANE":"３９２巷","ALLEY":" ","HOUSE_NO":"７號","E_COORD97":173131.07999999999,"N_COORD97":2539323.8300000001,"ADDRESS":"民安路一段３９２巷７號","OBJECTID":405068},"geometry":{"x":173131.08000000101,"y":2539323.8300000019}},{"attributes":{"ID":405093,"DIS_CODE":0,"TOWNNAME":"仁德區","LI":"後壁里","LIN":"28鄰","STREET":"德洋路","SECT":" ","MAREA":" ","LANE":"２５巷","ALLEY":" ","HOUSE_NO":"２２號","E_COORD97":173096.09,"N_COORD97":2538953.27,"ADDRESS":"德洋路２５巷２２號","OBJECTID":405069},"geometry":{"x":173096.08999999985,"y":2538953.2700000033}},{"attributes":{"ID":405094,"DIS_CODE":0,"TOWNNAME":"永康區","LI":"復華里","LIN":"27鄰","STREET":"復華八街","SECT":" ","MAREA":" ","LANE":"５１巷","ALLEY":" ","HOUSE_NO":"３５號四樓之３","E_COORD97":172702.98000000001,"N_COORD97":2546429.1400000001,"ADDRESS":"復華八街５１巷３５號四樓之３","OBJECTID":405070},"geometry":{"x":172702.98000000138,"y":2546429.1400000025}},{"attributes":{"ID":405095,"DIS_CODE":0,"TOWNNAME":"永康區","LI":"復華里","LIN":"27鄰","STREET":"復華八街","SECT":" ","MAREA":" ","LANE":"５１巷","ALLEY":" ","HOUSE_NO":"３５號五樓之２","E_COORD97":172703.01999999999,"N_COORD97":2546429.1400000001,"ADDRESS":"復華八街５１巷３５號五樓之２","OBJECTID":405071},"geometry":{"x":172703.01999999955,"y":2546429.1400000025}},{"attributes":{"ID":405096,"DIS_CODE":0,"TOWNNAME":"永康區","LI":"復華里","LIN":"27鄰","STREET":"復華八街","SECT":" ","MAREA":" ","LANE":"５１巷","ALLEY":" ","HOUSE_NO":"３９號三樓之３","E_COORD97":172687.94,"N_COORD97":2546429.1400000001,"ADDRESS":"復華八街５１巷３９號三樓之３","OBJECTID":405072},"geometry":{"x":172687.94000000134,"y":2546429.1400000025}},{"attributes":{"ID":405097,"DIS_CODE":0,"TOWNNAME":"永康區","LI":"復華里","LIN":"27鄰","STREET":"復華八街","SECT":" ","MAREA":" ","LANE":"５１巷","ALLEY":" ","HOUSE_NO":"３９號三樓之６","E_COORD97":172687.95000000001,"N_COORD97":2546429.1400000001,"ADDRESS":"復華八街５１巷３９號三樓之６","OBJECTID":405073},"geometry":{"x":172687.95000000112,"y":2546429.1400000025}},{"attributes":{"ID":405098,"DIS_CODE":0,"TOWNNAME":"永康區","LI":"復華里","LIN":"27鄰","STREET":"復華八街","SECT":" ","MAREA":" ","LANE":"５１巷","ALLEY":" ","HOUSE_NO":"３５號三樓之６","E_COORD97":172702.98999999999,"N_COORD97":2546429.1400000001,"ADDRESS":"復華八街５１巷３５號三樓之６","OBJECTID":405074},"geometry":{"x":172702.99000000115,"y":2546429.1400000025}},{"attributes":{"ID":405099,"DIS_CODE":0,"TOWNNAME":"永康區","LI":"復華里","LIN":"27鄰","STREET":"復華八街","SECT":" ","MAREA":" ","LANE":"５１巷","ALLEY":" ","HOUSE_NO":"３５號十樓之６","E_COORD97":172702.98999999999,"N_COORD97":2546429.1400000001,"ADDRESS":"復華八街５１巷３５號十樓之６","OBJECTID":405075},"geometry":{"x":172702.99000000115,"y":2546429.1400000025}},{"attributes":{"ID":405100,"DIS_CODE":0,"TOWNNAME":"永康區","LI":"復華里","LIN":"27鄰","STREET":"復華八街","SECT":" ","MAREA":" ","LANE":"５１巷","ALLEY":" ","HOUSE_NO":"３５號四樓之７","E_COORD97":172702.95999999999,"N_COORD97":2546429.1400000001,"ADDRESS":"復華八街５１巷３５號四樓之７","OBJECTID":405076},"geometry":{"x":172702.96000000089,"y":2546429.1400000025}},{"attributes":{"ID":405101,"DIS_CODE":0,"TOWNNAME":"永康區","LI":"復華里","LIN":"27鄰","STREET":"復華八街","SECT":" ","MAREA":" ","LANE":"５１巷","ALLEY":" ","HOUSE_NO":"３５號三樓之１","E_COORD97":172702.89000000001,"N_COORD97":2546429.1400000001,"ADDRESS":"復華八街５１巷３５號三樓之１","OBJECTID":405077},"geometry":{"x":172702.8900000006,"y":2546429.1400000025}},{"attributes":{"ID":405102,"DIS_CODE":0,"TOWNNAME":"永康區","LI":"復華里","LIN":"27鄰","STREET":"復華八街","SECT":" ","MAREA":" ","LANE":"５１巷","ALLEY":" ","HOUSE_NO":"３５號三樓之３","E_COORD97":172702.98000000001,"N_COORD97":2546429.1400000001,"ADDRESS":"復華八街５１巷３５號三樓之３","OBJECTID":405078},"geometry":{"x":172702.98000000138,"y":2546429.1400000025}},{"attributes":{"ID":405103,"DIS_CODE":0,"TOWNNAME":"永康區","LI":"復華里","LIN":"27鄰","STREET":"復華八街","SECT":" ","MAREA":" ","LANE":"５１巷","ALLEY":" ","HOUSE_NO":"３５號四樓之１","E_COORD97":172702.89000000001,"N_COORD97":2546429.1400000001,"ADDRESS":"復華八街５１巷３５號四樓之１","OBJECTID":405079},"geometry":{"x":172702.8900000006,"y":2546429.1400000025}},{"attributes":{"ID":405104,"DIS_CODE":0,"TOWNNAME":"永康區","LI":"復華里","LIN":"27鄰","STREET":"復華八街","SECT":" ","MAREA":" ","LANE":"５１巷","ALLEY":" ","HOUSE_NO":"３５號五樓之６","E_COORD97":172702.98999999999,"N_COORD97":2546429.1400000001,"ADDRESS":"復華八街５１巷３５號五樓之６","OBJECTID":405080},"geometry":{"x":172702.99000000115,"y":2546429.1400000025}},{"attributes":{"ID":405105,"DIS_CODE":0,"TOWNNAME":"永康區","LI":"復華里","LIN":"27鄰","STREET":"復華八街","SECT":" ","MAREA":" ","LANE":"５１巷","ALLEY":" ","HOUSE_NO":"３５號八樓之２","E_COORD97":172703.01999999999,"N_COORD97":2546429.1400000001,"ADDRESS":"復華八街５１巷３５號八樓之２","OBJECTID":405081},"geometry":{"x":172703.01999999955,"y":2546429.1400000025}},{"attributes":{"ID":405106,"DIS_CODE":0,"TOWNNAME":"永康區","LI":"復華里","LIN":"27鄰","STREET":"復華八街","SECT":" ","MAREA":" ","LANE":"５１巷","ALLEY":" ","HOUSE_NO":"３９號十樓之６","E_COORD97":172687.95000000001,"N_COORD97":2546429.1400000001,"ADDRESS":"復華八街５１巷３９號十樓之６","OBJECTID":405082},"geometry":{"x":172687.95000000112,"y":2546429.1400000025}},{"attributes":{"ID":405107,"DIS_CODE":0,"TOWNNAME":"仁德區","LI":"後壁里","LIN":"10鄰","STREET":"民安路","SECT":"二段","MAREA":" ","LANE":"１８２巷","ALLEY":" ","HOUSE_NO":"４３號","E_COORD97":173747.29000000001,"N_COORD97":2538826.0600000001,"ADDRESS":"民安路二段１８２巷４３號","OBJECTID":405083},"geometry":{"x":173747.29000000004,"y":2538826.0600000005}},{"attributes":{"ID":405108,"DIS_CODE":0,"TOWNNAME":"永康區","LI":"復華里","LIN":"27鄰","STREET":"復華八街","SECT":" ","MAREA":" ","LANE":"５１巷","ALLEY":" ","HOUSE_NO":"３９號八樓之７","E_COORD97":172687.92000000001,"N_COORD97":2546429.1400000001,"ADDRESS":"復華八街５１巷３９號八樓之７","OBJECTID":405084},"geometry":{"x":172687.92000000086,"y":2546429.1400000025}},{"attributes":{"ID":405109,"DIS_CODE":0,"TOWNNAME":"永康區","LI":"復華里","LIN":"27鄰","STREET":"復華八街","SECT":" ","MAREA":" ","LANE":"５１巷","ALLEY":" ","HOUSE_NO":"３５號六樓之５","E_COORD97":172703.04000000001,"N_COORD97":2546429.1400000001,"ADDRESS":"復華八街５１巷３５號六樓之５","OBJECTID":405085},"geometry":{"x":172703.04000000004,"y":2546429.1400000025}},{"attributes":{"ID":405110,"DIS_CODE":0,"TOWNNAME":"永康區","LI":"復華里","LIN":"27鄰","STREET":"復華八街","SECT":" ","MAREA":" ","LANE":"５１巷","ALLEY":" ","HOUSE_NO":"３５號六樓之６","E_COORD97":172702.98999999999,"N_COORD97":2546429.1400000001,"ADDRESS":"復華八街５１巷３５號六樓之６","OBJECTID":405086},"geometry":{"x":172702.99000000115,"y":2546429.1400000025}},{"attributes":{"ID":405111,"DIS_CODE":0,"TOWNNAME":"永康區","LI":"復華里","LIN":"27鄰","STREET":"復華八街","SECT":" ","MAREA":" ","LANE":"５１巷","ALLEY":" ","HOUSE_NO":"３５號六樓之７","E_COORD97":172702.95999999999,"N_COORD97":2546429.1400000001,"ADDRESS":"復華八街５１巷３５號六樓之７","OBJECTID":405087},"geometry":{"x":172702.96000000089,"y":2546429.1400000025}},{"attributes":{"ID":405112,"DIS_CODE":0,"TOWNNAME":"永康區","LI":"復華里","LIN":"27鄰","STREET":"復華八街","SECT":" ","MAREA":" ","LANE":"５１巷","ALLEY":" ","HOUSE_NO":"３５號八樓之５","E_COORD97":172703.04000000001,"N_COORD97":2546429.1400000001,"ADDRESS":"復華八街５１巷３５號八樓之５","OBJECTID":405088},"geometry":{"x":172703.04000000004,"y":2546429.1400000025}},{"attributes":{"ID":405113,"DIS_CODE":0,"TOWNNAME":"永康區","LI":"復華里","LIN":"27鄰","STREET":"復華八街","SECT":" ","MAREA":" ","LANE":"５１巷","ALLEY":" ","HOUSE_NO":"３５號三樓之７","E_COORD97":172702.95999999999,"N_COORD97":2546429.1400000001,"ADDRESS":"復華八街５１巷３５號三樓之７","OBJECTID":405089},"geometry":{"x":172702.96000000089,"y":2546429.1400000025}},{"attributes":{"ID":405114,"DIS_CODE":0,"TOWNNAME":"永康區","LI":"復華里","LIN":"27鄰","STREET":"復華八街","SECT":" ","MAREA":" ","LANE":"５１巷","ALLEY":" ","HOUSE_NO":"３５號九樓之２","E_COORD97":172703.01999999999,"N_COORD97":2546429.1400000001,"ADDRESS":"復華八街５１巷３５號九樓之２","OBJECTID":405090},"geometry":{"x":172703.01999999955,"y":2546429.1400000025}},{"attributes":{"ID":405115,"DIS_CODE":0,"TOWNNAME":"永康區","LI":"復華里","LIN":"27鄰","STREET":"復華八街","SECT":" ","MAREA":" ","LANE":"５１巷","ALLEY":" ","HOUSE_NO":"３５號七樓之６","E_COORD97":172702.98999999999,"N_COORD97":2546429.1400000001,"ADDRESS":"復華八街５１巷３５號七樓之６","OBJECTID":405091},"geometry":{"x":172702.99000000115,"y":2546429.1400000025}},{"attributes":{"ID":405116,"DIS_CODE":0,"TOWNNAME":"永康區","LI":"復華里","LIN":"27鄰","STREET":"復華八街","SECT":" ","MAREA":" ","LANE":"５１巷","ALLEY":" ","HOUSE_NO":"３９號十樓之２","E_COORD97":172687.98000000001,"N_COORD97":2546429.1400000001,"ADDRESS":"復華八街５１巷３９號十樓之２","OBJECTID":405092},"geometry":{"x":172687.98000000138,"y":2546429.1400000025}},{"attributes":{"ID":405117,"DIS_CODE":0,"TOWNNAME":"永康區","LI":"復華里","LIN":"27鄰","STREET":"復華八街","SECT":" ","MAREA":" ","LANE":"５１巷","ALLEY":" ","HOUSE_NO":"３５號二樓之３","E_COORD97":172702.98000000001,"N_COORD97":2546429.1400000001,"ADDRESS":"復華八街５１巷３５號二樓之３","OBJECTID":405093},"geometry":{"x":172702.98000000138,"y":2546429.1400000025}},{"attributes":{"ID":405118,"DIS_CODE":0,"TOWNNAME":"永康區","LI":"復華里","LIN":"27鄰","STREET":"復華八街","SECT":" ","MAREA":" ","LANE":"５１巷","ALLEY":" ","HOUSE_NO":"３９號八樓之２","E_COORD97":172687.98000000001,"N_COORD97":2546429.1400000001,"ADDRESS":"復華八街５１巷３９號八樓之２","OBJECTID":405094},"geometry":{"x":172687.98000000138,"y":2546429.1400000025}},{"attributes":{"ID":405119,"DIS_CODE":0,"TOWNNAME":"永康區","LI":"六合里","LIN":"27鄰","STREET":"中華二路","SECT":" ","MAREA":" ","LANE":"３４０巷","ALLEY":" ","HOUSE_NO":"１０號三樓之１","E_COORD97":171258.07999999999,"N_COORD97":2545460.5600000001,"ADDRESS":"中華二路３４０巷１０號三樓之１","OBJECTID":405095},"geometry":{"x":171258.08000000101,"y":2545460.5600000005}},{"attributes":{"ID":405120,"DIS_CODE":0,"TOWNNAME":"仁德區","LI":"後壁里","LIN":"34鄰","STREET":"德洋二街","SECT":" ","MAREA":" ","LANE":"２５巷","ALLEY":" ","HOUSE_NO":"７號","E_COORD97":172418.79000000001,"N_COORD97":2539378.77,"ADDRESS":"德洋二街２５巷７號","OBJECTID":405096},"geometry":{"x":172418.7900000019,"y":2539378.7700000014}},{"attributes":{"ID":405121,"DIS_CODE":0,"TOWNNAME":"仁德區","LI":"後壁里","LIN":"12鄰","STREET":"德善路","SECT":" ","MAREA":" ","LANE":"２８０巷","ALLEY":" ","HOUSE_NO":"１０號","E_COORD97":173931.25,"N_COORD97":2538474.27,"ADDRESS":"德善路２８０巷１０號","OBJECTID":405097},"geometry":{"x":173931.25000000186,"y":2538474.2699999996}},{"attributes":{"ID":405122,"DIS_CODE":0,"TOWNNAME":"仁德區","LI":"太子里","LIN":"29鄰","STREET":"太子四街","SECT":" ","MAREA":" ","LANE":"２５巷","ALLEY":" ","HOUSE_NO":"１７號","E_COORD97":173155.32999999999,"N_COORD97":2543087.4399999999,"ADDRESS":"太子四街２５巷１７號","OBJECTID":405098},"geometry":{"x":173155.33000000007,"y":2543087.4399999995}},{"attributes":{"ID":405123,"DIS_CODE":0,"TOWNNAME":"仁德區","LI":"後壁里","LIN":"40鄰","STREET":"德善二街","SECT":" ","MAREA":" ","LANE":"１７巷","ALLEY":" ","HOUSE_NO":"２２號","E_COORD97":173516.67999999999,"N_COORD97":2538953.27,"ADDRESS":"德善二街１７巷２２號","OBJECTID":405099},"geometry":{"x":173516.68000000063,"y":2538953.2700000033}},{"attributes":{"ID":405124,"DIS_CODE":0,"TOWNNAME":"仁德區","LI":"後壁里","LIN":"37鄰","STREET":"德洋一街","SECT":" ","MAREA":" ","LANE":"８５巷","ALLEY":" ","HOUSE_NO":"１１號","E_COORD97":173146.98000000001,"N_COORD97":2539283.52,"ADDRESS":"德洋一街８５巷１１號","OBJECTID":405100},"geometry":{"x":173146.98000000231,"y":2539283.5199999996}},{"attributes":{"ID":405125,"DIS_CODE":0,"TOWNNAME":"東區","LI":"自強里","LIN":"27鄰","STREET":"中華東路","SECT":"二段","MAREA":" ","LANE":"１３３巷","ALLEY":" ","HOUSE_NO":"１０號三樓","E_COORD97":171404.03,"N_COORD97":2542850.52,"ADDRESS":"中華東路二段１３３巷１０號三樓","OBJECTID":405101},"geometry":{"x":171404.03000000119,"y":2542850.5200000033}},{"attributes":{"ID":405126,"DIS_CODE":0,"TOWNNAME":"東區","LI":"自強里","LIN":"27鄰","STREET":"中華東路","SECT":"二段","MAREA":" ","LANE":"１３３巷","ALLEY":" ","HOUSE_NO":"１０號五樓","E_COORD97":171404.03,"N_COORD97":2542850.52,"ADDRESS":"中華東路二段１３３巷１０號五樓","OBJECTID":405102},"geometry":{"x":171404.03000000119,"y":2542850.5200000033}},{"attributes":{"ID":405127,"DIS_CODE":0,"TOWNNAME":"東區","LI":"自強里","LIN":"27鄰","STREET":"中華東路","SECT":"二段","MAREA":" ","LANE":"１３３巷","ALLEY":" ","HOUSE_NO":"１０號四樓","E_COORD97":171404.03,"N_COORD97":2542850.52,"ADDRESS":"中華東路二段１３３巷１０號四樓","OBJECTID":405103},"geometry":{"x":171404.03000000119,"y":2542850.5200000033}},{"attributes":{"ID":405128,"DIS_CODE":0,"TOWNNAME":"東區","LI":"自強里","LIN":"27鄰","STREET":"中華東路","SECT":"二段","MAREA":" ","LANE":"１３３巷","ALLEY":" ","HOUSE_NO":"１４號三樓","E_COORD97":171413.54999999999,"N_COORD97":2542849.1299999999,"ADDRESS":"中華東路二段１３３巷１４號三樓","OBJECTID":405104},"geometry":{"x":171413.55000000075,"y":2542849.1300000027}},{"attributes":{"ID":405129,"DIS_CODE":0,"TOWNNAME":"六甲區","LI":"甲東里","LIN":"27鄰","STREET":"忠孝街","SECT":" ","MAREA":" ","LANE":"３６巷","ALLEY":" ","HOUSE_NO":"６號","E_COORD97":183864.66,"N_COORD97":2569401.3999999999,"ADDRESS":"忠孝街３６巷６號","OBJECTID":405105},"geometry":{"x":183864.66000000108,"y":2569401.4000000004}},{"attributes":{"ID":405130,"DIS_CODE":0,"TOWNNAME":"東區","LI":"自強里","LIN":"27鄰","STREET":"中華東路","SECT":"二段","MAREA":" ","LANE":"１３３巷","ALLEY":" ","HOUSE_NO":"１４號四樓","E_COORD97":171413.54999999999,"N_COORD97":2542849.1299999999,"ADDRESS":"中華東路二段１３３巷１４號四樓","OBJECTID":405106},"geometry":{"x":171413.55000000075,"y":2542849.1300000027}},{"attributes":{"ID":405131,"DIS_CODE":0,"TOWNNAME":"永康區","LI":"復華里","LIN":"27鄰","STREET":"復華八街","SECT":" ","MAREA":" ","LANE":"５１巷","ALLEY":" ","HOUSE_NO":"３９號六樓之２","E_COORD97":172687.98000000001,"N_COORD97":2546429.1400000001,"ADDRESS":"復華八街５１巷３９號六樓之２","OBJECTID":405107},"geometry":{"x":172687.98000000138,"y":2546429.1400000025}},{"attributes":{"ID":405132,"DIS_CODE":0,"TOWNNAME":"永康區","LI":"復華里","LIN":"27鄰","STREET":"復華八街","SECT":" ","MAREA":" ","LANE":"５１巷","ALLEY":" ","HOUSE_NO":"３５號八樓之７","E_COORD97":172702.95999999999,"N_COORD97":2546429.1400000001,"ADDRESS":"復華八街５１巷３５號八樓之７","OBJECTID":405108},"geometry":{"x":172702.96000000089,"y":2546429.1400000025}},{"attributes":{"ID":405133,"DIS_CODE":0,"TOWNNAME":"永康區","LI":"復華里","LIN":"27鄰","STREET":"復華八街","SECT":" ","MAREA":" ","LANE":"５１巷","ALLEY":" ","HOUSE_NO":"３９號三樓之１","E_COORD97":172687.85000000001,"N_COORD97":2546429.1400000001,"ADDRESS":"復華八街５１巷３９號三樓之１","OBJECTID":405109},"geometry":{"x":172687.85000000056,"y":2546429.1400000025}},{"attributes":{"ID":405134,"DIS_CODE":0,"TOWNNAME":"永康區","LI":"復華里","LIN":"27鄰","STREET":"復華八街","SECT":" ","MAREA":" ","LANE":"５１巷","ALLEY":" ","HOUSE_NO":"３５號四樓之５","E_COORD97":172703.04000000001,"N_COORD97":2546429.1400000001,"ADDRESS":"復華八街５１巷３５號四樓之５","OBJECTID":405110},"geometry":{"x":172703.04000000004,"y":2546429.1400000025}},{"attributes":{"ID":405135,"DIS_CODE":0,"TOWNNAME":"永康區","LI":"復華里","LIN":"27鄰","STREET":"復華八街","SECT":" ","MAREA":" ","LANE":"５１巷","ALLEY":" ","HOUSE_NO":"３５號十樓之３","E_COORD97":172702.98000000001,"N_COORD97":2546429.1400000001,"ADDRESS":"復華八街５１巷３５號十樓之３","OBJECTID":405111},"geometry":{"x":172702.98000000138,"y":2546429.1400000025}},{"attributes":{"ID":405136,"DIS_CODE":0,"TOWNNAME":"永康區","LI":"復華里","LIN":"27鄰","STREET":"復華八街","SECT":" ","MAREA":" ","LANE":"５１巷","ALLEY":" ","HOUSE_NO":"３５號八樓之１","E_COORD97":172702.89000000001,"N_COORD97":2546429.1400000001,"ADDRESS":"復華八街５１巷３５號八樓之１","OBJECTID":405112},"geometry":{"x":172702.8900000006,"y":2546429.1400000025}},{"attributes":{"ID":405137,"DIS_CODE":0,"TOWNNAME":"永康區","LI":"復華里","LIN":"27鄰","STREET":"復華八街","SECT":" ","MAREA":" ","LANE":"５１巷","ALLEY":" ","HOUSE_NO":"３５號六樓之２","E_COORD97":172703.01999999999,"N_COORD97":2546429.1400000001,"ADDRESS":"復華八街５１巷３５號六樓之２","OBJECTID":405113},"geometry":{"x":172703.01999999955,"y":2546429.1400000025}},{"attributes":{"ID":405138,"DIS_CODE":0,"TOWNNAME":"永康區","LI":"復華里","LIN":"27鄰","STREET":"復華八街","SECT":" ","MAREA":" ","LANE":"５１巷","ALLEY":" ","HOUSE_NO":"３９號五樓之１","E_COORD97":172687.85000000001,"N_COORD97":2546429.1400000001,"ADDRESS":"復華八街５１巷３９號五樓之１","OBJECTID":405114},"geometry":{"x":172687.85000000056,"y":2546429.1400000025}},{"attributes":{"ID":405139,"DIS_CODE":0,"TOWNNAME":"永康區","LI":"復華里","LIN":"27鄰","STREET":"復華八街","SECT":" ","MAREA":" ","LANE":"５１巷","ALLEY":" ","HOUSE_NO":"３５號十樓之１","E_COORD97":172702.89000000001,"N_COORD97":2546429.1400000001,"ADDRESS":"復華八街５１巷３５號十樓之１","OBJECTID":405115},"geometry":{"x":172702.8900000006,"y":2546429.1400000025}},{"attributes":{"ID":405140,"DIS_CODE":0,"TOWNNAME":"永康區","LI":"復華里","LIN":"27鄰","STREET":"復華八街","SECT":" ","MAREA":" ","LANE":"５１巷","ALLEY":" ","HOUSE_NO":"３９號七樓之２","E_COORD97":172687.98000000001,"N_COORD97":2546429.1400000001,"ADDRESS":"復華八街５１巷３９號七樓之２","OBJECTID":405116},"geometry":{"x":172687.98000000138,"y":2546429.1400000025}},{"attributes":{"ID":405141,"DIS_CODE":0,"TOWNNAME":"永康區","LI":"復華里","LIN":"27鄰","STREET":"復華八街","SECT":" ","MAREA":" ","LANE":"５１巷","ALLEY":" ","HOUSE_NO":"３９號三樓之５","E_COORD97":172688,"N_COORD97":2546429.1400000001,"ADDRESS":"復華八街５１巷３９號三樓之５","OBJECTID":405117},"geometry":{"x":172688,"y":2546429.1400000025}},{"attributes":{"ID":405142,"DIS_CODE":0,"TOWNNAME":"永康區","LI":"復華里","LIN":"27鄰","STREET":"復華八街","SECT":" ","MAREA":" ","LANE":"５１巷","ALLEY":" ","HOUSE_NO":"３９號四樓之１","E_COORD97":172687.85000000001,"N_COORD97":2546429.1400000001,"ADDRESS":"復華八街５１巷３９號四樓之１","OBJECTID":405118},"geometry":{"x":172687.85000000056,"y":2546429.1400000025}},{"attributes":{"ID":405143,"DIS_CODE":0,"TOWNNAME":"永康區","LI":"復華里","LIN":"27鄰","STREET":"復華八街","SECT":" ","MAREA":" ","LANE":"５１巷","ALLEY":" ","HOUSE_NO":"３９號二樓之５","E_COORD97":172688,"N_COORD97":2546429.1400000001,"ADDRESS":"復華八街５１巷３９號二樓之５","OBJECTID":405119},"geometry":{"x":172688,"y":2546429.1400000025}},{"attributes":{"ID":405144,"DIS_CODE":0,"TOWNNAME":"新營區","LI":"新南里","LIN":"27鄰","STREET":"復興路","SECT":" ","MAREA":" ","LANE":"６２０巷","ALLEY":" ","HOUSE_NO":"６３號四樓之４","E_COORD97":178045.60999999999,"N_COORD97":2578545.6099999999,"ADDRESS":"復興路６２０巷６３號四樓之４","OBJECTID":405120},"geometry":{"x":178045.61000000127,"y":2578545.6099999994}},{"attributes":{"ID":405145,"DIS_CODE":0,"TOWNNAME":"新營區","LI":"大宏里","LIN":"27鄰","STREET":"開元路","SECT":" ","MAREA":" ","LANE":"５９巷","ALLEY":" ","HOUSE_NO":"４０之３號十一樓","E_COORD97":180901.31,"N_COORD97":2578823.27,"ADDRESS":"開元路５９巷４０之３號十一樓","OBJECTID":405121},"geometry":{"x":180901.31000000052,"y":2578823.2699999996}},{"attributes":{"ID":405146,"DIS_CODE":0,"TOWNNAME":"新營區","LI":"新南里","LIN":"27鄰","STREET":"復興路","SECT":" ","MAREA":" ","LANE":"６２０巷","ALLEY":" ","HOUSE_NO":"６３號四樓之２","E_COORD97":178045.70999999999,"N_COORD97":2578545.6099999999,"ADDRESS":"復興路６２０巷６３號四樓之２","OBJECTID":405122},"geometry":{"x":178045.71000000183,"y":2578545.6099999994}},{"attributes":{"ID":405147,"DIS_CODE":0,"TOWNNAME":"新營區","LI":"新南里","LIN":"27鄰","STREET":"復興路","SECT":" ","MAREA":" ","LANE":"６２０巷","ALLEY":" ","HOUSE_NO":"６３號四樓之７","E_COORD97":178045.66,"N_COORD97":2578545.6099999999,"ADDRESS":"復興路６２０巷６３號四樓之７","OBJECTID":405123},"geometry":{"x":178045.66000000015,"y":2578545.6099999994}},{"attributes":{"ID":405148,"DIS_CODE":0,"TOWNNAME":"新營區","LI":"大宏里","LIN":"27鄰","STREET":"開元路","SECT":" ","MAREA":" ","LANE":"５９巷","ALLEY":" ","HOUSE_NO":"４０號七樓","E_COORD97":180897.56,"N_COORD97":2578823.23,"ADDRESS":"開元路５９巷４０號七樓","OBJECTID":405124},"geometry":{"x":180897.56000000145,"y":2578823.2300000023}},{"attributes":{"ID":405149,"DIS_CODE":0,"TOWNNAME":"新營區","LI":"大宏里","LIN":"27鄰","STREET":"開元路","SECT":" ","MAREA":" ","LANE":"５９巷","ALLEY":" ","HOUSE_NO":"４０之２號十一樓","E_COORD97":180901.31,"N_COORD97":2578823.27,"ADDRESS":"開元路５９巷４０之２號十一樓","OBJECTID":405125},"geometry":{"x":180901.31000000052,"y":2578823.2699999996}},{"attributes":{"ID":405150,"DIS_CODE":0,"TOWNNAME":"新營區","LI":"大宏里","LIN":"27鄰","STREET":"開元路","SECT":" ","MAREA":" ","LANE":"５９巷","ALLEY":" ","HOUSE_NO":"４０號八樓","E_COORD97":180897.56,"N_COORD97":2578823.23,"ADDRESS":"開元路５９巷４０號八樓","OBJECTID":405126},"geometry":{"x":180897.56000000145,"y":2578823.2300000023}},{"attributes":{"ID":405151,"DIS_CODE":0,"TOWNNAME":"新營區","LI":"大宏里","LIN":"27鄰","STREET":"開元路","SECT":" ","MAREA":" ","LANE":"５９巷","ALLEY":" ","HOUSE_NO":"４０號五樓","E_COORD97":180897.56,"N_COORD97":2578823.23,"ADDRESS":"開元路５９巷４０號五樓","OBJECTID":405127},"geometry":{"x":180897.56000000145,"y":2578823.2300000023}},{"attributes":{"ID":405152,"DIS_CODE":0,"TOWNNAME":"新營區","LI":"新南里","LIN":"27鄰","STREET":"復興路","SECT":" ","MAREA":" ","LANE":"６２０巷","ALLEY":" ","HOUSE_NO":"６３號三樓之５","E_COORD97":178045.73999999999,"N_COORD97":2578545.6099999999,"ADDRESS":"復興路６２０巷６３號三樓之５","OBJECTID":405128},"geometry":{"x":178045.74000000209,"y":2578545.6099999994}},{"attributes":{"ID":405153,"DIS_CODE":0,"TOWNNAME":"新營區","LI":"新東里","LIN":"27鄰","STREET":"東光街","SECT":" ","MAREA":" ","LANE":"４０巷","ALLEY":" ","HOUSE_NO":"４５號三樓","E_COORD97":180704.92999999999,"N_COORD97":2579623.71,"ADDRESS":"東光街４０巷４５號三樓","OBJECTID":405129},"geometry":{"x":180704.9299999997,"y":2579623.7100000028}},{"attributes":{"ID":405154,"DIS_CODE":0,"TOWNNAME":"新營區","LI":"新東里","LIN":"27鄰","STREET":"東光街","SECT":" ","MAREA":" ","LANE":"４０巷","ALLEY":" ","HOUSE_NO":"４３號二樓","E_COORD97":180706.82999999999,"N_COORD97":2579594.9100000001,"ADDRESS":"東光街４０巷４３號二樓","OBJECTID":405130},"geometry":{"x":180706.83000000101,"y":2579594.910000002}},{"attributes":{"ID":405155,"DIS_CODE":0,"TOWNNAME":"新營區","LI":"大宏里","LIN":"27鄰","STREET":"開元路","SECT":" ","MAREA":" ","LANE":"５９巷","ALLEY":" ","HOUSE_NO":"４０之１號十一樓","E_COORD97":180901.31,"N_COORD97":2578823.27,"ADDRESS":"開元路５９巷４０之１號十一樓","OBJECTID":405131},"geometry":{"x":180901.31000000052,"y":2578823.2699999996}},{"attributes":{"ID":405156,"DIS_CODE":0,"TOWNNAME":"新營區","LI":"新東里","LIN":"27鄰","STREET":"東光街","SECT":" ","MAREA":" ","LANE":"４０巷","ALLEY":" ","HOUSE_NO":"４７號三樓","E_COORD97":180704.92999999999,"N_COORD97":2579623.71,"ADDRESS":"東光街４０巷４７號三樓","OBJECTID":405132},"geometry":{"x":180704.9299999997,"y":2579623.7100000028}},{"attributes":{"ID":405157,"DIS_CODE":0,"TOWNNAME":"新營區","LI":"新東里","LIN":"27鄰","STREET":"東光街","SECT":" ","MAREA":" ","LANE":"４０巷","ALLEY":" ","HOUSE_NO":"３９號二樓","E_COORD97":180706.84,"N_COORD97":2579594.9100000001,"ADDRESS":"東光街４０巷３９號二樓","OBJECTID":405133},"geometry":{"x":180706.84000000078,"y":2579594.910000002}},{"attributes":{"ID":405158,"DIS_CODE":0,"TOWNNAME":"新營區","LI":"大宏里","LIN":"27鄰","STREET":"開元路","SECT":" ","MAREA":" ","LANE":"５９巷","ALLEY":" ","HOUSE_NO":"４０之２號六樓","E_COORD97":180900.06,"N_COORD97":2578823.27,"ADDRESS":"開元路５９巷４０之２號六樓","OBJECTID":405134},"geometry":{"x":180900.06000000052,"y":2578823.2699999996}},{"attributes":{"ID":405159,"DIS_CODE":0,"TOWNNAME":"新營區","LI":"大宏里","LIN":"27鄰","STREET":"開元路","SECT":" ","MAREA":" ","LANE":"５９巷","ALLEY":" ","HOUSE_NO":"４０號十樓","E_COORD97":180897.56,"N_COORD97":2578823.23,"ADDRESS":"開元路５９巷４０號十樓","OBJECTID":405135},"geometry":{"x":180897.56000000145,"y":2578823.2300000023}},{"attributes":{"ID":405160,"DIS_CODE":0,"TOWNNAME":"新營區","LI":"南紙里","LIN":"27鄰","STREET":"復興路","SECT":" ","MAREA":" ","LANE":"６９３巷","ALLEY":" ","HOUSE_NO":"６號二樓之１０","E_COORD97":177898.06,"N_COORD97":2578280.5299999998,"ADDRESS":"復興路６９３巷６號二樓之１０","OBJECTID":405136},"geometry":{"x":177898.05999999959,"y":2578280.5300000012}},{"attributes":{"ID":405161,"DIS_CODE":0,"TOWNNAME":"新營區","LI":"大宏里","LIN":"27鄰","STREET":"開元路","SECT":" ","MAREA":" ","LANE":"５９巷","ALLEY":" ","HOUSE_NO":"４０之１號六樓","E_COORD97":180900.06,"N_COORD97":2578823.27,"ADDRESS":"開元路５９巷４０之１號六樓","OBJECTID":405137},"geometry":{"x":180900.06000000052,"y":2578823.2699999996}},{"attributes":{"ID":405162,"DIS_CODE":0,"TOWNNAME":"新營區","LI":"大宏里","LIN":"27鄰","STREET":"開元路","SECT":" ","MAREA":" ","LANE":"５９巷","ALLEY":" ","HOUSE_NO":"４０之３號四樓","E_COORD97":180900.06,"N_COORD97":2578823.27,"ADDRESS":"開元路５９巷４０之３號四樓","OBJECTID":405138},"geometry":{"x":180900.06000000052,"y":2578823.2699999996}},{"attributes":{"ID":405163,"DIS_CODE":0,"TOWNNAME":"新營區","LI":"新南里","LIN":"27鄰","STREET":"復興路","SECT":" ","MAREA":" ","LANE":"６２０巷","ALLEY":" ","HOUSE_NO":"６３號五樓之５","E_COORD97":178045.73999999999,"N_COORD97":2578545.6099999999,"ADDRESS":"復興路６２０巷６３號五樓之５","OBJECTID":405139},"geometry":{"x":178045.74000000209,"y":2578545.6099999994}},{"attributes":{"ID":405164,"DIS_CODE":0,"TOWNNAME":"東區","LI":"文聖里","LIN":"13鄰","STREET":"裕平路","SECT":" ","MAREA":" ","LANE":"１８８巷","ALLEY":" ","HOUSE_NO":"９號","E_COORD97":172329.84,"N_COORD97":2542798.2799999998,"ADDRESS":"裕平路１８８巷９號","OBJECTID":405140},"geometry":{"x":172329.83999999985,"y":2542798.2800000012}},{"attributes":{"ID":405165,"DIS_CODE":0,"TOWNNAME":"新營區","LI":"新南里","LIN":"27鄰","STREET":"復興路","SECT":" ","MAREA":" ","LANE":"６２０巷","ALLEY":" ","HOUSE_NO":"６３號三樓之６","E_COORD97":178045.69,"N_COORD97":2578545.6099999999,"ADDRESS":"復興路６２０巷６３號三樓之６","OBJECTID":405141},"geometry":{"x":178045.69000000041,"y":2578545.6099999994}},{"attributes":{"ID":405166,"DIS_CODE":0,"TOWNNAME":"北區","LI":"重興里","LIN":"27鄰","STREET":"東豐路","SECT":" ","MAREA":" ","LANE":"４５１巷","ALLEY":" ","HOUSE_NO":"１０５號三樓","E_COORD97":170830.04999999999,"N_COORD97":2544889.0899999999,"ADDRESS":"東豐路４５１巷１０５號三樓","OBJECTID":405142},"geometry":{"x":170830.04999999888,"y":2544889.0900000017}},{"attributes":{"ID":405167,"DIS_CODE":0,"TOWNNAME":"北區","LI":"重興里","LIN":"27鄰","STREET":"東豐路","SECT":" ","MAREA":" ","LANE":"４５１巷","ALLEY":" ","HOUSE_NO":"１０５號四樓","E_COORD97":170830.04999999999,"N_COORD97":2544889.0899999999,"ADDRESS":"東豐路４５１巷１０５號四樓","OBJECTID":405143},"geometry":{"x":170830.04999999888,"y":2544889.0900000017}},{"attributes":{"ID":405168,"DIS_CODE":0,"TOWNNAME":"北區","LI":"重興里","LIN":"27鄰","STREET":"東豐路","SECT":" ","MAREA":" ","LANE":"４５１巷","ALLEY":" ","HOUSE_NO":"１０７號二樓","E_COORD97":170834.26000000001,"N_COORD97":2544896.8399999999,"ADDRESS":"東豐路４５１巷１０７號二樓","OBJECTID":405144},"geometry":{"x":170834.26000000071,"y":2544896.8400000017}},{"attributes":{"ID":405169,"DIS_CODE":0,"TOWNNAME":"北區","LI":"重興里","LIN":"27鄰","STREET":"東豐路","SECT":" ","MAREA":" ","LANE":"４５１巷","ALLEY":" ","HOUSE_NO":"１０７號三樓","E_COORD97":170834.26000000001,"N_COORD97":2544896.8399999999,"ADDRESS":"東豐路４５１巷１０７號三樓","OBJECTID":405145},"geometry":{"x":170834.26000000071,"y":2544896.8400000017}},{"attributes":{"ID":405170,"DIS_CODE":0,"TOWNNAME":"北區","LI":"重興里","LIN":"27鄰","STREET":"東豐路","SECT":" ","MAREA":" ","LANE":"４５１巷","ALLEY":" ","HOUSE_NO":"１０７號四樓","E_COORD97":170834.26000000001,"N_COORD97":2544896.8399999999,"ADDRESS":"東豐路４５１巷１０７號四樓","OBJECTID":405146},"geometry":{"x":170834.26000000071,"y":2544896.8400000017}},{"attributes":{"ID":405171,"DIS_CODE":0,"TOWNNAME":"北區","LI":"重興里","LIN":"27鄰","STREET":"東豐路","SECT":" ","MAREA":" ","LANE":"４５１巷","ALLEY":" ","HOUSE_NO":"１０９號二樓","E_COORD97":170839.42999999999,"N_COORD97":2544904.9900000002,"ADDRESS":"東豐路４５１巷１０９號二樓","OBJECTID":405147},"geometry":{"x":170839.43000000156,"y":2544904.9900000002}},{"attributes":{"ID":405172,"DIS_CODE":0,"TOWNNAME":"北區","LI":"重興里","LIN":"27鄰","STREET":"東豐路","SECT":" ","MAREA":" ","LANE":"４５１巷","ALLEY":" ","HOUSE_NO":"１０９號三樓","E_COORD97":170839.42999999999,"N_COORD97":2544904.9900000002,"ADDRESS":"東豐路４５１巷１０９號三樓","OBJECTID":405148},"geometry":{"x":170839.43000000156,"y":2544904.9900000002}},{"attributes":{"ID":405173,"DIS_CODE":0,"TOWNNAME":"北區","LI":"重興里","LIN":"27鄰","STREET":"東豐路","SECT":" ","MAREA":" ","LANE":"４５１巷","ALLEY":" ","HOUSE_NO":"１０９號四樓","E_COORD97":170839.42999999999,"N_COORD97":2544904.9900000002,"ADDRESS":"東豐路４５１巷１０９號四樓","OBJECTID":405149},"geometry":{"x":170839.43000000156,"y":2544904.9900000002}},{"attributes":{"ID":405174,"DIS_CODE":0,"TOWNNAME":"北區","LI":"重興里","LIN":"27鄰","STREET":"東豐路","SECT":" ","MAREA":" ","LANE":"４５１巷","ALLEY":" ","HOUSE_NO":"１１１號二樓","E_COORD97":170844.70999999999,"N_COORD97":2544913.8599999999,"ADDRESS":"東豐路４５１巷１１１號二樓","OBJECTID":405150},"geometry":{"x":170844.71000000089,"y":2544913.8600000013}},{"attributes":{"ID":405175,"DIS_CODE":0,"TOWNNAME":"北區","LI":"重興里","LIN":"27鄰","STREET":"東豐路","SECT":" ","MAREA":" ","LANE":"４５１巷","ALLEY":" ","HOUSE_NO":"１１１號三樓","E_COORD97":170844.70999999999,"N_COORD97":2544913.8599999999,"ADDRESS":"東豐路４５１巷１１１號三樓","OBJECTID":405151},"geometry":{"x":170844.71000000089,"y":2544913.8600000013}},{"attributes":{"ID":405176,"DIS_CODE":0,"TOWNNAME":"北區","LI":"重興里","LIN":"27鄰","STREET":"東豐路","SECT":" ","MAREA":" ","LANE":"４５１巷","ALLEY":" ","HOUSE_NO":"１１１號四樓","E_COORD97":170844.70999999999,"N_COORD97":2544913.8599999999,"ADDRESS":"東豐路４５１巷１１１號四樓","OBJECTID":405152},"geometry":{"x":170844.71000000089,"y":2544913.8600000013}},{"attributes":{"ID":405177,"DIS_CODE":0,"TOWNNAME":"北區","LI":"重興里","LIN":"27鄰","STREET":"東豐路","SECT":" ","MAREA":" ","LANE":"４５１巷","ALLEY":" ","HOUSE_NO":"１１３號二樓","E_COORD97":170849.07999999999,"N_COORD97":2544922.2799999998,"ADDRESS":"東豐路４５１巷１１３號二樓","OBJECTID":405153},"geometry":{"x":170849.08000000101,"y":2544922.2799999993}},{"attributes":{"ID":405178,"DIS_CODE":0,"TOWNNAME":"北區","LI":"重興里","LIN":"27鄰","STREET":"東豐路","SECT":" ","MAREA":" ","LANE":"４５１巷","ALLEY":" ","HOUSE_NO":"１１３號三樓","E_COORD97":170849.07999999999,"N_COORD97":2544922.2799999998,"ADDRESS":"東豐路４５１巷１１３號三樓","OBJECTID":405154},"geometry":{"x":170849.08000000101,"y":2544922.2799999993}},{"attributes":{"ID":405179,"DIS_CODE":0,"TOWNNAME":"北區","LI":"重興里","LIN":"27鄰","STREET":"東豐路","SECT":" ","MAREA":" ","LANE":"４５１巷","ALLEY":" ","HOUSE_NO":"１１３號四樓","E_COORD97":170849.07999999999,"N_COORD97":2544922.2799999998,"ADDRESS":"東豐路４５１巷１１３號四樓","OBJECTID":405155},"geometry":{"x":170849.08000000101,"y":2544922.2799999993}},{"attributes":{"ID":405180,"DIS_CODE":0,"TOWNNAME":"北區","LI":"重興里","LIN":"27鄰","STREET":"東豐路","SECT":" ","MAREA":" ","LANE":"４５１巷","ALLEY":" ","HOUSE_NO":"１１５號二樓","E_COORD97":170854.56,"N_COORD97":2544930.3300000001,"ADDRESS":"東豐路４５１巷１１５號二樓","OBJECTID":405156},"geometry":{"x":170854.55999999959,"y":2544930.3300000001}},{"attributes":{"ID":405181,"DIS_CODE":0,"TOWNNAME":"北區","LI":"重興里","LIN":"27鄰","STREET":"東豐路","SECT":" ","MAREA":" ","LANE":"４５１巷","ALLEY":" ","HOUSE_NO":"１１５號三樓","E_COORD97":170854.56,"N_COORD97":2544930.3300000001,"ADDRESS":"東豐路４５１巷１１５號三樓","OBJECTID":405157},"geometry":{"x":170854.55999999959,"y":2544930.3300000001}},{"attributes":{"ID":405182,"DIS_CODE":0,"TOWNNAME":"北區","LI":"重興里","LIN":"27鄰","STREET":"東豐路","SECT":" ","MAREA":" ","LANE":"４５１巷","ALLEY":" ","HOUSE_NO":"１１５號四樓","E_COORD97":170854.56,"N_COORD97":2544930.3300000001,"ADDRESS":"東豐路４５１巷１１５號四樓","OBJECTID":405158},"geometry":{"x":170854.55999999959,"y":2544930.3300000001}},{"attributes":{"ID":405183,"DIS_CODE":0,"TOWNNAME":"北區","LI":"重興里","LIN":"27鄰","STREET":"東豐路","SECT":" ","MAREA":" ","LANE":"４５１巷","ALLEY":" ","HOUSE_NO":"１３１號二樓","E_COORD97":170806.57999999999,"N_COORD97":2544891.6299999999,"ADDRESS":"東豐路４５１巷１３１號二樓","OBJECTID":405159},"geometry":{"x":170806.58000000194,"y":2544891.6300000008}},{"attributes":{"ID":405184,"DIS_CODE":0,"TOWNNAME":"北區","LI":"重興里","LIN":"27鄰","STREET":"東豐路","SECT":" ","MAREA":" ","LANE":"４５１巷","ALLEY":" ","HOUSE_NO":"１３１號三樓","E_COORD97":170806.57999999999,"N_COORD97":2544891.6299999999,"ADDRESS":"東豐路４５１巷１３１號三樓","OBJECTID":405160},"geometry":{"x":170806.58000000194,"y":2544891.6300000008}},{"attributes":{"ID":405185,"DIS_CODE":0,"TOWNNAME":"北區","LI":"重興里","LIN":"27鄰","STREET":"東豐路","SECT":" ","MAREA":" ","LANE":"４５１巷","ALLEY":" ","HOUSE_NO":"１３３號二樓","E_COORD97":170811.75,"N_COORD97":2544900.4700000002,"ADDRESS":"東豐路４５１巷１３３號二樓","OBJECTID":405161},"geometry":{"x":170811.75,"y":2544900.4700000025}},{"attributes":{"ID":405186,"DIS_CODE":0,"TOWNNAME":"北區","LI":"重興里","LIN":"27鄰","STREET":"東豐路","SECT":" ","MAREA":" ","LANE":"４５１巷","ALLEY":" ","HOUSE_NO":"１３３號三樓","E_COORD97":170811.75,"N_COORD97":2544900.4700000002,"ADDRESS":"東豐路４５１巷１３３號三樓","OBJECTID":405162},"geometry":{"x":170811.75,"y":2544900.4700000025}},{"attributes":{"ID":405187,"DIS_CODE":0,"TOWNNAME":"北區","LI":"重興里","LIN":"27鄰","STREET":"東豐路","SECT":" ","MAREA":" ","LANE":"４５１巷","ALLEY":" ","HOUSE_NO":"１３３號四樓","E_COORD97":170811.75,"N_COORD97":2544900.4700000002,"ADDRESS":"東豐路４５１巷１３３號四樓","OBJECTID":405163},"geometry":{"x":170811.75,"y":2544900.4700000025}},{"attributes":{"ID":405188,"DIS_CODE":0,"TOWNNAME":"北區","LI":"重興里","LIN":"27鄰","STREET":"東豐路","SECT":" ","MAREA":" ","LANE":"４５１巷","ALLEY":" ","HOUSE_NO":"１３５號二樓","E_COORD97":170817.51999999999,"N_COORD97":2544908.3599999999,"ADDRESS":"東豐路４５１巷１３５號二樓","OBJECTID":405164},"geometry":{"x":170817.51999999955,"y":2544908.3599999994}},{"attributes":{"ID":405189,"DIS_CODE":0,"TOWNNAME":"北區","LI":"和順里","LIN":"27鄰","STREET":"育德二路","SECT":" ","MAREA":" ","LANE":"４１巷","ALLEY":" ","HOUSE_NO":"８號","E_COORD97":168192.45000000001,"N_COORD97":2545340.9399999999,"ADDRESS":"育德二路４１巷８號","OBJECTID":405165},"geometry":{"x":168192.45000000112,"y":2545340.9400000013}},{"attributes":{"ID":405190,"DIS_CODE":0,"TOWNNAME":"北區","LI":"重興里","LIN":"27鄰","STREET":"東豐路","SECT":" ","MAREA":" ","LANE":"４５１巷","ALLEY":" ","HOUSE_NO":"１３５號三樓","E_COORD97":170817.51999999999,"N_COORD97":2544908.3599999999,"ADDRESS":"東豐路４５１巷１３５號三樓","OBJECTID":405166},"geometry":{"x":170817.51999999955,"y":2544908.3599999994}},{"attributes":{"ID":405191,"DIS_CODE":0,"TOWNNAME":"北區","LI":"重興里","LIN":"27鄰","STREET":"東豐路","SECT":" ","MAREA":" ","LANE":"４５１巷","ALLEY":" ","HOUSE_NO":"１３５號四樓","E_COORD97":170817.51999999999,"N_COORD97":2544908.3599999999,"ADDRESS":"東豐路４５１巷１３５號四樓","OBJECTID":405167},"geometry":{"x":170817.51999999955,"y":2544908.3599999994}},{"attributes":{"ID":405192,"DIS_CODE":0,"TOWNNAME":"北區","LI":"重興里","LIN":"27鄰","STREET":"東豐路","SECT":" ","MAREA":" ","LANE":"４５１巷","ALLEY":" ","HOUSE_NO":"１３７號二樓","E_COORD97":170822.20000000001,"N_COORD97":2544917.1800000002,"ADDRESS":"東豐路４５１巷１３７號二樓","OBJECTID":405168},"geometry":{"x":170822.20000000019,"y":2544917.1799999997}},{"attributes":{"ID":405193,"DIS_CODE":0,"TOWNNAME":"中西區","LI":"大涼里","LIN":"13鄰","STREET":"金城街","SECT":" ","MAREA":" ","LANE":" ","ALLEY":" ","HOUSE_NO":"６１號","E_COORD97":166888.07000000001,"N_COORD97":2543689.2400000002,"ADDRESS":"金城街６１號","OBJECTID":405169},"geometry":{"x":166888.07000000123,"y":2543689.2400000002}},{"attributes":{"ID":405194,"DIS_CODE":0,"TOWNNAME":"北區","LI":"重興里","LIN":"27鄰","STREET":"東豐路","SECT":" ","MAREA":" ","LANE":"４５１巷","ALLEY":" ","HOUSE_NO":"１３７號三樓","E_COORD97":170822.20000000001,"N_COORD97":2544917.1800000002,"ADDRESS":"東豐路４５１巷１３７號三樓","OBJECTID":405170},"geometry":{"x":170822.20000000019,"y":2544917.1799999997}},{"attributes":{"ID":405195,"DIS_CODE":0,"TOWNNAME":"北區","LI":"重興里","LIN":"27鄰","STREET":"東豐路","SECT":" ","MAREA":" ","LANE":"４５１巷","ALLEY":" ","HOUSE_NO":"１３７號四樓","E_COORD97":170822.20000000001,"N_COORD97":2544917.1800000002,"ADDRESS":"東豐路４５１巷１３７號四樓","OBJECTID":405171},"geometry":{"x":170822.20000000019,"y":2544917.1799999997}},{"attributes":{"ID":405196,"DIS_CODE":0,"TOWNNAME":"北區","LI":"重興里","LIN":"27鄰","STREET":"東豐路","SECT":" ","MAREA":" ","LANE":"４５１巷","ALLEY":" ","HOUSE_NO":"１３９號二樓","E_COORD97":170826.87,"N_COORD97":2544924.9300000002,"ADDRESS":"東豐路４５１巷１３９號二樓","OBJECTID":405172},"geometry":{"x":170826.87000000104,"y":2544924.9299999997}},{"attributes":{"ID":405197,"DIS_CODE":0,"TOWNNAME":"北區","LI":"重興里","LIN":"27鄰","STREET":"東豐路","SECT":" ","MAREA":" ","LANE":"４５１巷","ALLEY":" ","HOUSE_NO":"１３９號三樓","E_COORD97":170826.87,"N_COORD97":2544924.9300000002,"ADDRESS":"東豐路４５１巷１３９號三樓","OBJECTID":405173},"geometry":{"x":170826.87000000104,"y":2544924.9299999997}},{"attributes":{"ID":405198,"DIS_CODE":0,"TOWNNAME":"北區","LI":"重興里","LIN":"27鄰","STREET":"東豐路","SECT":" ","MAREA":" ","LANE":"４５１巷","ALLEY":" ","HOUSE_NO":"１３９號四樓","E_COORD97":170826.87,"N_COORD97":2544924.9300000002,"ADDRESS":"東豐路４５１巷１３９號四樓","OBJECTID":405174},"geometry":{"x":170826.87000000104,"y":2544924.9299999997}},{"attributes":{"ID":405199,"DIS_CODE":0,"TOWNNAME":"北區","LI":"重興里","LIN":"27鄰","STREET":"東豐路","SECT":" ","MAREA":" ","LANE":"４５１巷","ALLEY":" ","HOUSE_NO":"１４１號二樓","E_COORD97":170831.94,"N_COORD97":2544931.6699999999,"ADDRESS":"東豐路４５１巷１４１號二樓","OBJECTID":405175},"geometry":{"x":170831.94000000134,"y":2544931.6700000037}},{"attributes":{"ID":405200,"DIS_CODE":0,"TOWNNAME":"北區","LI":"重興里","LIN":"27鄰","STREET":"東豐路","SECT":" ","MAREA":" ","LANE":"４５１巷","ALLEY":" ","HOUSE_NO":"１４１號三樓","E_COORD97":170831.94,"N_COORD97":2544931.6699999999,"ADDRESS":"東豐路４５１巷１４１號三樓","OBJECTID":405176},"geometry":{"x":170831.94000000134,"y":2544931.6700000037}},{"attributes":{"ID":405201,"DIS_CODE":0,"TOWNNAME":"北區","LI":"重興里","LIN":"27鄰","STREET":"東豐路","SECT":" ","MAREA":" ","LANE":"４５１巷","ALLEY":" ","HOUSE_NO":"１４１號四樓","E_COORD97":170831.94,"N_COORD97":2544931.6699999999,"ADDRESS":"東豐路４５１巷１４１號四樓","OBJECTID":405177},"geometry":{"x":170831.94000000134,"y":2544931.6700000037}},{"attributes":{"ID":405202,"DIS_CODE":0,"TOWNNAME":"北區","LI":"重興里","LIN":"27鄰","STREET":"東豐路","SECT":" ","MAREA":" ","LANE":"４５１巷","ALLEY":" ","HOUSE_NO":"１４３號二樓","E_COORD97":170836.12,"N_COORD97":2544940.6099999999,"ADDRESS":"東豐路４５１巷１４３號二樓","OBJECTID":405178},"geometry":{"x":170836.12000000011,"y":2544940.6099999994}},{"attributes":{"ID":405203,"DIS_CODE":0,"TOWNNAME":"北區","LI":"重興里","LIN":"27鄰","STREET":"東豐路","SECT":" ","MAREA":" ","LANE":"４５１巷","ALLEY":" ","HOUSE_NO":"１４３號三樓","E_COORD97":170836.12,"N_COORD97":2544940.6099999999,"ADDRESS":"東豐路４５１巷１４３號三樓","OBJECTID":405179},"geometry":{"x":170836.12000000011,"y":2544940.6099999994}},{"attributes":{"ID":405204,"DIS_CODE":0,"TOWNNAME":"北區","LI":"重興里","LIN":"27鄰","STREET":"東豐路","SECT":" ","MAREA":" ","LANE":"４５１巷","ALLEY":" ","HOUSE_NO":"１４３號四樓","E_COORD97":170836.12,"N_COORD97":2544940.6099999999,"ADDRESS":"東豐路４５１巷１４３號四樓","OBJECTID":405180},"geometry":{"x":170836.12000000011,"y":2544940.6099999994}},{"attributes":{"ID":405205,"DIS_CODE":0,"TOWNNAME":"新營區","LI":"新南里","LIN":"27鄰","STREET":"復興路","SECT":" ","MAREA":" ","LANE":"６２０巷","ALLEY":" ","HOUSE_NO":"６３號五樓之８","E_COORD97":178045.73000000001,"N_COORD97":2578545.6099999999,"ADDRESS":"復興路６２０巷６３號五樓之８","OBJECTID":405181},"geometry":{"x":178045.73000000045,"y":2578545.6099999994}},{"attributes":{"ID":405206,"DIS_CODE":0,"TOWNNAME":"新營區","LI":"新東里","LIN":"27鄰","STREET":"東光街","SECT":" ","MAREA":" ","LANE":"４０巷","ALLEY":" ","HOUSE_NO":"４５號二樓","E_COORD97":180704.92999999999,"N_COORD97":2579623.71,"ADDRESS":"東光街４０巷４５號二樓","OBJECTID":405182},"geometry":{"x":180704.9299999997,"y":2579623.7100000028}},{"attributes":{"ID":405207,"DIS_CODE":0,"TOWNNAME":"新營區","LI":"新南里","LIN":"27鄰","STREET":"復興路","SECT":" ","MAREA":" ","LANE":"６２０巷","ALLEY":" ","HOUSE_NO":"６３號二樓之４","E_COORD97":178045.60999999999,"N_COORD97":2578545.6099999999,"ADDRESS":"復興路６２０巷６３號二樓之４","OBJECTID":405183},"geometry":{"x":178045.61000000127,"y":2578545.6099999994}},{"attributes":{"ID":405208,"DIS_CODE":0,"TOWNNAME":"新營區","LI":"南紙里","LIN":"27鄰","STREET":"復興路","SECT":" ","MAREA":" ","LANE":"６９３巷","ALLEY":" ","HOUSE_NO":"６號二樓之３","E_COORD97":177896.85999999999,"N_COORD97":2578280.5299999998,"ADDRESS":"復興路６９３巷６號二樓之３","OBJECTID":405184},"geometry":{"x":177896.86000000034,"y":2578280.5300000012}},{"attributes":{"ID":405209,"DIS_CODE":0,"TOWNNAME":"新營區","LI":"新南里","LIN":"27鄰","STREET":"復興路","SECT":" ","MAREA":" ","LANE":"６２０巷","ALLEY":" ","HOUSE_NO":"６３號四樓之８","E_COORD97":178045.73000000001,"N_COORD97":2578545.6099999999,"ADDRESS":"復興路６２０巷６３號四樓之８","OBJECTID":405185},"geometry":{"x":178045.73000000045,"y":2578545.6099999994}},{"attributes":{"ID":405210,"DIS_CODE":0,"TOWNNAME":"新營區","LI":"新南里","LIN":"27鄰","STREET":"復興路","SECT":" ","MAREA":" ","LANE":"６２０巷","ALLEY":" ","HOUSE_NO":"６３號四樓之５","E_COORD97":178045.73999999999,"N_COORD97":2578545.6099999999,"ADDRESS":"復興路６２０巷６３號四樓之５","OBJECTID":405186},"geometry":{"x":178045.74000000209,"y":2578545.6099999994}},{"attributes":{"ID":405211,"DIS_CODE":0,"TOWNNAME":"新營區","LI":"新東里","LIN":"27鄰","STREET":"東光街","SECT":" ","MAREA":" ","LANE":"４０巷","ALLEY":" ","HOUSE_NO":"３９號五樓","E_COORD97":180706.84,"N_COORD97":2579594.9100000001,"ADDRESS":"東光街４０巷３９號五樓","OBJECTID":405187},"geometry":{"x":180706.84000000078,"y":2579594.910000002}},{"attributes":{"ID":405212,"DIS_CODE":0,"TOWNNAME":"新營區","LI":"新東里","LIN":"27鄰","STREET":"東光街","SECT":" ","MAREA":" ","LANE":"４０巷","ALLEY":" ","HOUSE_NO":"３９號三樓","E_COORD97":180706.84,"N_COORD97":2579594.9100000001,"ADDRESS":"東光街４０巷３９號三樓","OBJECTID":405188},"geometry":{"x":180706.84000000078,"y":2579594.910000002}},{"attributes":{"ID":405213,"DIS_CODE":0,"TOWNNAME":"新營區","LI":"新東里","LIN":"27鄰","STREET":"東光街","SECT":" ","MAREA":" ","LANE":"４０巷","ALLEY":" ","HOUSE_NO":"３９號六樓","E_COORD97":180706.84,"N_COORD97":2579594.9100000001,"ADDRESS":"東光街４０巷３９號六樓","OBJECTID":405189},"geometry":{"x":180706.84000000078,"y":2579594.910000002}},{"attributes":{"ID":405214,"DIS_CODE":0,"TOWNNAME":"新營區","LI":"新東里","LIN":"27鄰","STREET":"東光街","SECT":" ","MAREA":" ","LANE":"４０巷","ALLEY":" ","HOUSE_NO":"４３號六樓","E_COORD97":180706.82999999999,"N_COORD97":2579594.9100000001,"ADDRESS":"東光街４０巷４３號六樓","OBJECTID":405190},"geometry":{"x":180706.83000000101,"y":2579594.910000002}},{"attributes":{"ID":405215,"DIS_CODE":0,"TOWNNAME":"新營區","LI":"新東里","LIN":"27鄰","STREET":"東光街","SECT":" ","MAREA":" ","LANE":"４０巷","ALLEY":" ","HOUSE_NO":"４１號五樓","E_COORD97":180706.82999999999,"N_COORD97":2579594.9100000001,"ADDRESS":"東光街４０巷４１號五樓","OBJECTID":405191},"geometry":{"x":180706.83000000101,"y":2579594.910000002}},{"attributes":{"ID":405216,"DIS_CODE":0,"TOWNNAME":"新營區","LI":"新東里","LIN":"27鄰","STREET":"東光街","SECT":" ","MAREA":" ","LANE":"４０巷","ALLEY":" ","HOUSE_NO":"４３號四樓","E_COORD97":180706.82999999999,"N_COORD97":2579594.9100000001,"ADDRESS":"東光街４０巷４３號四樓","OBJECTID":405192},"geometry":{"x":180706.83000000101,"y":2579594.910000002}},{"attributes":{"ID":405217,"DIS_CODE":0,"TOWNNAME":"新營區","LI":"新東里","LIN":"27鄰","STREET":"東光街","SECT":" ","MAREA":" ","LANE":"４０巷","ALLEY":" ","HOUSE_NO":"４１號三樓","E_COORD97":180706.82999999999,"N_COORD97":2579594.9100000001,"ADDRESS":"東光街４０巷４１號三樓","OBJECTID":405193},"geometry":{"x":180706.83000000101,"y":2579594.910000002}},{"attributes":{"ID":405218,"DIS_CODE":0,"TOWNNAME":"新營區","LI":"新東里","LIN":"27鄰","STREET":"東光街","SECT":" ","MAREA":" ","LANE":"４０巷","ALLEY":" ","HOUSE_NO":"４１號六樓","E_COORD97":180706.82999999999,"N_COORD97":2579594.9100000001,"ADDRESS":"東光街４０巷４１號六樓","OBJECTID":405194},"geometry":{"x":180706.83000000101,"y":2579594.910000002}},{"attributes":{"ID":405219,"DIS_CODE":0,"TOWNNAME":"仁德區","LI":"成功里","LIN":"27鄰","STREET":"成功一街","SECT":" ","MAREA":" ","LANE":"２４巷","ALLEY":" ","HOUSE_NO":"５號","E_COORD97":170499.41,"N_COORD97":2540126.52,"ADDRESS":"成功一街２４巷５號","OBJECTID":405195},"geometry":{"x":170499.41000000108,"y":2540126.5199999996}},{"attributes":{"ID":405220,"DIS_CODE":0,"TOWNNAME":"新營區","LI":"新東里","LIN":"27鄰","STREET":"東光街","SECT":" ","MAREA":" ","LANE":"４０巷","ALLEY":" ","HOUSE_NO":"４１號四樓","E_COORD97":180706.82999999999,"N_COORD97":2579594.9100000001,"ADDRESS":"東光街４０巷４１號四樓","OBJECTID":405196},"geometry":{"x":180706.83000000101,"y":2579594.910000002}},{"attributes":{"ID":405221,"DIS_CODE":0,"TOWNNAME":"新營區","LI":"大宏里","LIN":"27鄰","STREET":"開元路","SECT":" ","MAREA":" ","LANE":"５９巷","ALLEY":" ","HOUSE_NO":"４０號十二樓","E_COORD97":180898.81,"N_COORD97":2578823.23,"ADDRESS":"開元路５９巷４０號十二樓","OBJECTID":405197},"geometry":{"x":180898.80999999959,"y":2578823.2300000023}},{"attributes":{"ID":405222,"DIS_CODE":0,"TOWNNAME":"安平區","LI":"怡平里","LIN":"27鄰","STREET":"永華六街","SECT":" ","MAREA":" ","LANE":"３５巷","ALLEY":" ","HOUSE_NO":"１號六樓之３","E_COORD97":165582.73000000001,"N_COORD97":2543618.5699999998,"ADDRESS":"永華六街３５巷１號六樓之３","OBJECTID":405198},"geometry":{"x":165582.73000000045,"y":2543618.5700000022}},{"attributes":{"ID":405223,"DIS_CODE":0,"TOWNNAME":"安平區","LI":"怡平里","LIN":"27鄰","STREET":"永華六街","SECT":" ","MAREA":" ","LANE":"３５巷","ALLEY":" ","HOUSE_NO":"１號六樓之４","E_COORD97":165582.73000000001,"N_COORD97":2543618.5699999998,"ADDRESS":"永華六街３５巷１號六樓之４","OBJECTID":405199},"geometry":{"x":165582.73000000045,"y":2543618.5700000022}},{"attributes":{"ID":405224,"DIS_CODE":0,"TOWNNAME":"中西區","LI":"大涼里","LIN":"13鄰","STREET":"金城街","SECT":" ","MAREA":" ","LANE":" ","ALLEY":" ","HOUSE_NO":"６３號","E_COORD97":166880.28,"N_COORD97":2543691.5299999998,"ADDRESS":"金城街６３號","OBJECTID":405200},"geometry":{"x":166880.28000000026,"y":2543691.5300000012}}]}