{"displayFieldName":"TOWNNAME","fieldAliases":{"ID":"ID","DIS_CODE":"DIS_CODE","TOWNNAME":"TOWNNAME","LI":"LI","LIN":"LIN","STREET":"STREET","SECT":"SECT","MAREA":"MAREA","LANE":"LANE","ALLEY":"ALLEY","HOUSE_NO":"HOUSE_NO","E_COORD97":"E_COORD97","N_COORD97":"N_COORD97","ADDRESS":"ADDRESS","OBJECTID":"OBJECTID"},"geometryType":"esriGeometryPoint","spatialReference":{"wkid":102443,"latestWkid":3826},"fields":[{"name":"ID","type":"esriFieldTypeDouble","alias":"ID"},{"name":"DIS_CODE","type":"esriFieldTypeInteger","alias":"DIS_CODE"},{"name":"TOWNNAME","type":"esriFieldTypeString","alias":"TOWNNAME","length":8},{"name":"LI","type":"esriFieldTypeString","alias":"LI","length":8},{"name":"LIN","type":"esriFieldTypeString","alias":"LIN","length":12},{"name":"STREET","type":"esriFieldTypeString","alias":"STREET","length":20},{"name":"SECT","type":"esriFieldTypeString","alias":"SECT","length":8},{"name":"MAREA","type":"esriFieldTypeString","alias":"MAREA","length":12},{"name":"LANE","type":"esriFieldTypeString","alias":"LANE","length":10},{"name":"ALLEY","type":"esriFieldTypeString","alias":"ALLEY","length":10},{"name":"HOUSE_NO","type":"esriFieldTypeString","alias":"HOUSE_NO","length":20},{"name":"E_COORD97","type":"esriFieldTypeDouble","alias":"E_COORD97"},{"name":"N_COORD97","type":"esriFieldTypeDouble","alias":"N_COORD97"},{"name":"ADDRESS","type":"esriFieldTypeString","alias":"ADDRESS","length":50},{"name":"OBJECTID","type":"esriFieldTypeOID","alias":"OBJECTID"}],"features":[{"attributes":{"ID":269806,"DIS_CODE":0,"TOWNNAME":"安平區","LI":"國平里","LIN":"3鄰","STREET":"建平五街","SECT":" ","MAREA":" ","LANE":" ","ALLEY":" ","HOUSE_NO":"１９８號","E_COORD97":165553.67999999999,"N_COORD97":2543191.5099999998,"ADDRESS":"建平五街１９８號","OBJECTID":269801},"geometry":{"x":165553.68000000156,"y":2543191.5100000016}},{"attributes":{"ID":269807,"DIS_CODE":0,"TOWNNAME":"安平區","LI":"國平里","LIN":"3鄰","STREET":"建平五街","SECT":" ","MAREA":" ","LANE":" ","ALLEY":" ","HOUSE_NO":"１９６號","E_COORD97":165560.03,"N_COORD97":2543190.5499999998,"ADDRESS":"建平五街１９６號","OBJECTID":269802},"geometry":{"x":165560.03000000026,"y":2543190.5500000045}},{"attributes":{"ID":269808,"DIS_CODE":0,"TOWNNAME":"安南區","LI":"公親里","LIN":"8鄰","STREET":"公學路","SECT":"一段","MAREA":" ","LANE":"１７３巷","ALLEY":" ","HOUSE_NO":"３號","E_COORD97":168109.44,"N_COORD97":2553030.1899999999,"ADDRESS":"公學路一段１７３巷３號","OBJECTID":269803},"geometry":{"x":168109.44000000134,"y":2553030.1899999995}},{"attributes":{"ID":269809,"DIS_CODE":0,"TOWNNAME":"安南區","LI":"溪頂里","LIN":"8鄰","STREET":"惠安街","SECT":" ","MAREA":" ","LANE":"５１巷","ALLEY":" ","HOUSE_NO":"１０號","E_COORD97":168973.04000000001,"N_COORD97":2547458.1800000002,"ADDRESS":"惠安街５１巷１０號","OBJECTID":269804},"geometry":{"x":168973.04000000097,"y":2547458.1800000016}},{"attributes":{"ID":269810,"DIS_CODE":0,"TOWNNAME":"永康區","LI":"王行里","LIN":"8鄰","STREET":"王行路","SECT":" ","MAREA":" ","LANE":"３５１巷","ALLEY":" ","HOUSE_NO":"３９號","E_COORD97":175390.22,"N_COORD97":2548468.3300000001,"ADDRESS":"王行路３５１巷３９號","OBJECTID":269805},"geometry":{"x":175390.21999999974,"y":2548468.3300000019}},{"attributes":{"ID":269811,"DIS_CODE":0,"TOWNNAME":"永康區","LI":"永康里","LIN":"8鄰","STREET":"永中街","SECT":" ","MAREA":" ","LANE":"５３巷","ALLEY":" ","HOUSE_NO":"１７號","E_COORD97":173848.26000000001,"N_COORD97":2547254,"ADDRESS":"永中街５３巷１７號","OBJECTID":269806},"geometry":{"x":173848.26000000071,"y":2547254}},{"attributes":{"ID":269812,"DIS_CODE":0,"TOWNNAME":"永康區","LI":"正強里","LIN":"8鄰","STREET":"正義街","SECT":" ","MAREA":" ","LANE":"７９巷","ALLEY":" ","HOUSE_NO":"２０號","E_COORD97":173492.97,"N_COORD97":2547522.0099999998,"ADDRESS":"正義街７９巷２０號","OBJECTID":269807},"geometry":{"x":173492.96999999974,"y":2547522.0099999998}},{"attributes":{"ID":269813,"DIS_CODE":0,"TOWNNAME":"永康區","LI":"甲頂里","LIN":"8鄰","STREET":"中華路","SECT":" ","MAREA":" ","LANE":"８９５巷","ALLEY":" ","HOUSE_NO":"６號","E_COORD97":170429.07000000001,"N_COORD97":2546689.4500000002,"ADDRESS":"中華路８９５巷６號","OBJECTID":269808},"geometry":{"x":170429.07000000123,"y":2546689.4500000011}},{"attributes":{"ID":269814,"DIS_CODE":0,"TOWNNAME":"永康區","LI":"大橋里","LIN":"8鄰","STREET":"大橋三街","SECT":" ","MAREA":" ","LANE":"１９９巷","ALLEY":" ","HOUSE_NO":"８０號","E_COORD97":170969.57000000001,"N_COORD97":2546889.1699999999,"ADDRESS":"大橋三街１９９巷８０號","OBJECTID":269809},"geometry":{"x":170969.57000000216,"y":2546889.1700000018}},{"attributes":{"ID":269815,"DIS_CODE":0,"TOWNNAME":"永康區","LI":"南灣里","LIN":"8鄰","STREET":"南興路","SECT":" ","MAREA":" ","LANE":"４８巷","ALLEY":" ","HOUSE_NO":"２號","E_COORD97":174259.10999999999,"N_COORD97":2544094.9900000002,"ADDRESS":"南興路４８巷２號","OBJECTID":269810},"geometry":{"x":174259.11000000034,"y":2544094.9900000002}},{"attributes":{"ID":269816,"DIS_CODE":0,"TOWNNAME":"仁德區","LI":"新田里","LIN":"8鄰","STREET":"北保路","SECT":" ","MAREA":" ","LANE":"２１９巷","ALLEY":" ","HOUSE_NO":"４號","E_COORD97":173593.06,"N_COORD97":2539392.25,"ADDRESS":"北保路２１９巷４號","OBJECTID":269811},"geometry":{"x":173593.06000000145,"y":2539392.2500000019}},{"attributes":{"ID":269817,"DIS_CODE":0,"TOWNNAME":"安平區","LI":"文平里","LIN":"3鄰","STREET":"永華二街","SECT":" ","MAREA":" ","LANE":" ","ALLEY":" ","HOUSE_NO":"１９６號","E_COORD97":166404.20999999999,"N_COORD97":2543272.1699999999,"ADDRESS":"永華二街１９６號","OBJECTID":269812},"geometry":{"x":166404.20999999996,"y":2543272.1699999999}},{"attributes":{"ID":269818,"DIS_CODE":0,"TOWNNAME":"仁德區","LI":"新田里","LIN":"8鄰","STREET":"北保路","SECT":" ","MAREA":" ","LANE":"２１９巷","ALLEY":" ","HOUSE_NO":"８號","E_COORD97":173600.79000000001,"N_COORD97":2539392,"ADDRESS":"北保路２１９巷８號","OBJECTID":269813},"geometry":{"x":173600.79000000097,"y":2539392}},{"attributes":{"ID":269819,"DIS_CODE":0,"TOWNNAME":"仁德區","LI":"後壁里","LIN":"8鄰","STREET":"民安路","SECT":"二段","MAREA":" ","LANE":"１３８巷","ALLEY":" ","HOUSE_NO":"２號","E_COORD97":173663.31,"N_COORD97":2539044.8100000001,"ADDRESS":"民安路二段１３８巷２號","OBJECTID":269814},"geometry":{"x":173663.31000000052,"y":2539044.8100000005}},{"attributes":{"ID":269820,"DIS_CODE":0,"TOWNNAME":"安南區","LI":"公\u25A0里","LIN":"8鄰","STREET":"安興街","SECT":" ","MAREA":" ","LANE":"１８１巷","ALLEY":" ","HOUSE_NO":"３０號","E_COORD97":163982.13,"N_COORD97":2551995.4100000001,"ADDRESS":"安興街１８１巷３０號","OBJECTID":269815},"geometry":{"x":163982.12999999989,"y":2551995.4100000001}},{"attributes":{"ID":269821,"DIS_CODE":0,"TOWNNAME":"安南區","LI":"公\u25A0里","LIN":"8鄰","STREET":"安興街","SECT":" ","MAREA":" ","LANE":"１８１巷","ALLEY":" ","HOUSE_NO":"３２號","E_COORD97":163978.51999999999,"N_COORD97":2551992.1299999999,"ADDRESS":"安興街１８１巷３２號","OBJECTID":269816},"geometry":{"x":163978.52000000048,"y":2551992.129999999}},{"attributes":{"ID":269822,"DIS_CODE":0,"TOWNNAME":"安南區","LI":"公\u25A0里","LIN":"8鄰","STREET":"安興街","SECT":" ","MAREA":" ","LANE":"１８１巷","ALLEY":" ","HOUSE_NO":"３４號","E_COORD97":163974.57999999999,"N_COORD97":2551988.8500000001,"ADDRESS":"安興街１８１巷３４號","OBJECTID":269817},"geometry":{"x":163974.58000000007,"y":2551988.8500000034}},{"attributes":{"ID":269823,"DIS_CODE":0,"TOWNNAME":"安南區","LI":"公\u25A0里","LIN":"8鄰","STREET":"安興街","SECT":" ","MAREA":" ","LANE":"１８１巷","ALLEY":" ","HOUSE_NO":"３６號","E_COORD97":163971.95000000001,"N_COORD97":2551985.5699999998,"ADDRESS":"安興街１８１巷３６號","OBJECTID":269818},"geometry":{"x":163971.95000000019,"y":2551985.5700000022}},{"attributes":{"ID":269824,"DIS_CODE":0,"TOWNNAME":"安南區","LI":"公\u25A0里","LIN":"8鄰","STREET":"安興街","SECT":" ","MAREA":" ","LANE":"１８１巷","ALLEY":" ","HOUSE_NO":"３８號","E_COORD97":163969.32999999999,"N_COORD97":2551982.29,"ADDRESS":"安興街１８１巷３８號","OBJECTID":269819},"geometry":{"x":163969.33000000007,"y":2551982.290000001}},{"attributes":{"ID":269825,"DIS_CODE":0,"TOWNNAME":"安南區","LI":"公\u25A0里","LIN":"8鄰","STREET":"安興街","SECT":" ","MAREA":" ","LANE":"１８１巷","ALLEY":" ","HOUSE_NO":"４０號","E_COORD97":163965.39000000001,"N_COORD97":2551980.98,"ADDRESS":"安興街１８１巷４０號","OBJECTID":269820},"geometry":{"x":163965.38999999966,"y":2551980.9800000004}},{"attributes":{"ID":269826,"DIS_CODE":0,"TOWNNAME":"安南區","LI":"公\u25A0里","LIN":"8鄰","STREET":"安興街","SECT":" ","MAREA":" ","LANE":"１８１巷","ALLEY":" ","HOUSE_NO":"４２號","E_COORD97":163962.76000000001,"N_COORD97":2551978.0299999998,"ADDRESS":"安興街１８１巷４２號","OBJECTID":269821},"geometry":{"x":163962.75999999978,"y":2551978.0300000012}},{"attributes":{"ID":269827,"DIS_CODE":0,"TOWNNAME":"安南區","LI":"公\u25A0里","LIN":"8鄰","STREET":"安興街","SECT":" ","MAREA":" ","LANE":"１８１巷","ALLEY":" ","HOUSE_NO":"４４號","E_COORD97":163959.14999999999,"N_COORD97":2551974.75,"ADDRESS":"安興街１８１巷４４號","OBJECTID":269822},"geometry":{"x":163959.15000000037,"y":2551974.75}},{"attributes":{"ID":269828,"DIS_CODE":0,"TOWNNAME":"安南區","LI":"公\u25A0里","LIN":"8鄰","STREET":"安興街","SECT":" ","MAREA":" ","LANE":"１８１巷","ALLEY":" ","HOUSE_NO":"４６號","E_COORD97":163955.54000000001,"N_COORD97":2551971.48,"ADDRESS":"安興街１８１巷４６號","OBJECTID":269823},"geometry":{"x":163955.54000000097,"y":2551971.4800000004}},{"attributes":{"ID":269829,"DIS_CODE":0,"TOWNNAME":"安南區","LI":"公\u25A0里","LIN":"8鄰","STREET":"安興街","SECT":" ","MAREA":" ","LANE":"１８１巷","ALLEY":" ","HOUSE_NO":"４８號","E_COORD97":163952.59,"N_COORD97":2551968.52,"ADDRESS":"安興街１８１巷４８號","OBJECTID":269824},"geometry":{"x":163952.59000000171,"y":2551968.5200000014}},{"attributes":{"ID":269830,"DIS_CODE":0,"TOWNNAME":"安南區","LI":"公\u25A0里","LIN":"8鄰","STREET":"安興街","SECT":" ","MAREA":" ","LANE":"１８１巷","ALLEY":" ","HOUSE_NO":"５２號","E_COORD97":163946.35000000001,"N_COORD97":2551962.6200000001,"ADDRESS":"安興街１８１巷５２號","OBJECTID":269825},"geometry":{"x":163946.34999999963,"y":2551962.6200000029}},{"attributes":{"ID":269831,"DIS_CODE":0,"TOWNNAME":"安南區","LI":"海西里","LIN":"8鄰","STREET":"海中街","SECT":" ","MAREA":" ","LANE":"１０１巷","ALLEY":" ","HOUSE_NO":"１０５號之１","E_COORD97":166196.54000000001,"N_COORD97":2548856.3999999999,"ADDRESS":"海中街１０１巷１０５號之１","OBJECTID":269826},"geometry":{"x":166196.54000000097,"y":2548856.3999999985}},{"attributes":{"ID":269832,"DIS_CODE":0,"TOWNNAME":"安南區","LI":"海西里","LIN":"8鄰","STREET":"海中街","SECT":" ","MAREA":" ","LANE":"１０１巷","ALLEY":" ","HOUSE_NO":"１０５號之２","E_COORD97":166200.76999999999,"N_COORD97":2548859.21,"ADDRESS":"海中街１０１巷１０５號之２","OBJECTID":269827},"geometry":{"x":166200.77000000048,"y":2548859.2100000028}},{"attributes":{"ID":269833,"DIS_CODE":0,"TOWNNAME":"安南區","LI":"海西里","LIN":"8鄰","STREET":"海中街","SECT":" ","MAREA":" ","LANE":"１０１巷","ALLEY":" ","HOUSE_NO":"１０７號","E_COORD97":166193.16,"N_COORD97":2548853.5899999999,"ADDRESS":"海中街１０１巷１０７號","OBJECTID":269828},"geometry":{"x":166193.16000000015,"y":2548853.5899999999}},{"attributes":{"ID":269834,"DIS_CODE":0,"TOWNNAME":"安南區","LI":"海西里","LIN":"8鄰","STREET":"海中街","SECT":" ","MAREA":" ","LANE":"１０１巷","ALLEY":" ","HOUSE_NO":"１０９號","E_COORD97":166189.20999999999,"N_COORD97":2548849.9300000002,"ADDRESS":"海中街１０１巷１０９號","OBJECTID":269829},"geometry":{"x":166189.20999999996,"y":2548849.9300000016}},{"attributes":{"ID":269835,"DIS_CODE":0,"TOWNNAME":"新市區","LI":"新市里","LIN":"8鄰","STREET":"民生路","SECT":" ","MAREA":" ","LANE":"２巷","ALLEY":" ","HOUSE_NO":"１４號","E_COORD97":177398.26999999999,"N_COORD97":2553180.79,"ADDRESS":"民生路２巷１４號","OBJECTID":269830},"geometry":{"x":177398.26999999955,"y":2553180.7899999991}},{"attributes":{"ID":269836,"DIS_CODE":0,"TOWNNAME":"新市區","LI":"新市里","LIN":"8鄰","STREET":"民生路","SECT":" ","MAREA":" ","LANE":"２巷","ALLEY":" ","HOUSE_NO":"１４之１號","E_COORD97":177399.48000000001,"N_COORD97":2553184.5499999998,"ADDRESS":"民生路２巷１４之１號","OBJECTID":269831},"geometry":{"x":177399.48000000045,"y":2553184.5500000007}},{"attributes":{"ID":269837,"DIS_CODE":0,"TOWNNAME":"新市區","LI":"新市里","LIN":"8鄰","STREET":"民生路","SECT":" ","MAREA":" ","LANE":"２巷","ALLEY":" ","HOUSE_NO":"６號","E_COORD97":177399.76999999999,"N_COORD97":2553172.79,"ADDRESS":"民生路２巷６號","OBJECTID":269832},"geometry":{"x":177399.77000000048,"y":2553172.790000001}},{"attributes":{"ID":269838,"DIS_CODE":0,"TOWNNAME":"新市區","LI":"新市里","LIN":"8鄰","STREET":"民生路","SECT":" ","MAREA":" ","LANE":"２巷","ALLEY":" ","HOUSE_NO":"２２號","E_COORD97":177393.92999999999,"N_COORD97":2553199.54,"ADDRESS":"民生路２巷２２號","OBJECTID":269833},"geometry":{"x":177393.9299999997,"y":2553199.5399999991}},{"attributes":{"ID":269839,"DIS_CODE":0,"TOWNNAME":"安南區","LI":"州北里","LIN":"8鄰","STREET":"北安路","SECT":"四段","MAREA":" ","LANE":"４２０巷","ALLEY":" ","HOUSE_NO":"３０號","E_COORD97":169613.13,"N_COORD97":2551601.8199999998,"ADDRESS":"北安路四段４２０巷３０號","OBJECTID":269834},"geometry":{"x":169613.13000000082,"y":2551601.8200000003}},{"attributes":{"ID":269840,"DIS_CODE":0,"TOWNNAME":"安南區","LI":"溪心里","LIN":"8鄰","STREET":"海佃路","SECT":"二段","MAREA":" ","LANE":"７６６巷","ALLEY":" ","HOUSE_NO":"４３號","E_COORD97":166528.10999999999,"N_COORD97":2549680.6899999999,"ADDRESS":"海佃路二段７６６巷４３號","OBJECTID":269835},"geometry":{"x":166528.11000000127,"y":2549680.6899999976}},{"attributes":{"ID":269841,"DIS_CODE":0,"TOWNNAME":"安南區","LI":"州北里","LIN":"8鄰","STREET":"北安路","SECT":"四段","MAREA":" ","LANE":"４２０巷","ALLEY":" ","HOUSE_NO":"３２號","E_COORD97":169617.87,"N_COORD97":2551607.3700000001,"ADDRESS":"北安路四段４２０巷３２號","OBJECTID":269836},"geometry":{"x":169617.87000000197,"y":2551607.3700000048}},{"attributes":{"ID":269842,"DIS_CODE":0,"TOWNNAME":"安南區","LI":"州北里","LIN":"8鄰","STREET":"北安路","SECT":"四段","MAREA":" ","LANE":"４２０巷","ALLEY":" ","HOUSE_NO":"３０之３號","E_COORD97":169589.78,"N_COORD97":2551604.6000000001,"ADDRESS":"北安路四段４２０巷３０之３號","OBJECTID":269837},"geometry":{"x":169589.77999999933,"y":2551604.6000000015}},{"attributes":{"ID":269843,"DIS_CODE":0,"TOWNNAME":"安南區","LI":"國安里","LIN":"8鄰","STREET":"國安街","SECT":" ","MAREA":" ","LANE":"２１０巷","ALLEY":" ","HOUSE_NO":"１７０號","E_COORD97":166532.07999999999,"N_COORD97":2547419.4300000002,"ADDRESS":"國安街２１０巷１７０號","OBJECTID":269838},"geometry":{"x":166532.08000000007,"y":2547419.4300000016}},{"attributes":{"ID":269844,"DIS_CODE":0,"TOWNNAME":"安南區","LI":"國安里","LIN":"8鄰","STREET":"國安街","SECT":" ","MAREA":" ","LANE":"２１０巷","ALLEY":" ","HOUSE_NO":"１７７號","E_COORD97":166515.81,"N_COORD97":2547417.9700000002,"ADDRESS":"國安街２１０巷１７７號","OBJECTID":269839},"geometry":{"x":166515.81000000052,"y":2547417.9700000007}},{"attributes":{"ID":269845,"DIS_CODE":0,"TOWNNAME":"佳里區","LI":"鎮山里","LIN":"8鄰","STREET":"仁愛路","SECT":" ","MAREA":" ","LANE":"１４６巷","ALLEY":" ","HOUSE_NO":"１１號","E_COORD97":166375.73999999999,"N_COORD97":2561440.0099999998,"ADDRESS":"仁愛路１４６巷１１號","OBJECTID":269840},"geometry":{"x":166375.74000000022,"y":2561440.0099999998}},{"attributes":{"ID":269846,"DIS_CODE":0,"TOWNNAME":"佳里區","LI":"鎮山里","LIN":"8鄰","STREET":"仁愛路","SECT":" ","MAREA":" ","LANE":"１４６巷","ALLEY":" ","HOUSE_NO":"１３號","E_COORD97":166376,"N_COORD97":2561444.5699999998,"ADDRESS":"仁愛路１４６巷１３號","OBJECTID":269841},"geometry":{"x":166376.00000000093,"y":2561444.5700000022}},{"attributes":{"ID":269847,"DIS_CODE":0,"TOWNNAME":"佳里區","LI":"鎮山里","LIN":"8鄰","STREET":"仁愛路","SECT":" ","MAREA":" ","LANE":"１４６巷","ALLEY":" ","HOUSE_NO":"１５號","E_COORD97":166376.20999999999,"N_COORD97":2561448.7799999998,"ADDRESS":"仁愛路１４６巷１５號","OBJECTID":269842},"geometry":{"x":166376.21000000089,"y":2561448.7800000012}},{"attributes":{"ID":269848,"DIS_CODE":0,"TOWNNAME":"佳里區","LI":"鎮山里","LIN":"8鄰","STREET":"仁愛路","SECT":" ","MAREA":" ","LANE":"１４６巷","ALLEY":" ","HOUSE_NO":"１７號","E_COORD97":166375.10999999999,"N_COORD97":2561455.4700000002,"ADDRESS":"仁愛路１４６巷１７號","OBJECTID":269843},"geometry":{"x":166375.11000000034,"y":2561455.4700000025}},{"attributes":{"ID":269849,"DIS_CODE":0,"TOWNNAME":"佳里區","LI":"鎮山里","LIN":"8鄰","STREET":"仁愛路","SECT":" ","MAREA":" ","LANE":"１４６巷","ALLEY":" ","HOUSE_NO":"１９號","E_COORD97":166375.32999999999,"N_COORD97":2561459.5,"ADDRESS":"仁愛路１４６巷１９號","OBJECTID":269844},"geometry":{"x":166375.33000000194,"y":2561459.5}},{"attributes":{"ID":269850,"DIS_CODE":0,"TOWNNAME":"佳里區","LI":"鎮山里","LIN":"8鄰","STREET":"仁愛路","SECT":" ","MAREA":" ","LANE":"１４６巷","ALLEY":" ","HOUSE_NO":"１號","E_COORD97":166374.22,"N_COORD97":2561418.1899999999,"ADDRESS":"仁愛路１４６巷１號","OBJECTID":269845},"geometry":{"x":166374.22000000067,"y":2561418.1899999976}},{"attributes":{"ID":269851,"DIS_CODE":0,"TOWNNAME":"佳里區","LI":"鎮山里","LIN":"8鄰","STREET":"仁愛路","SECT":" ","MAREA":" ","LANE":"１４６巷","ALLEY":" ","HOUSE_NO":"２１號","E_COORD97":166375.17999999999,"N_COORD97":2561463.6400000001,"ADDRESS":"仁愛路１４６巷２１號","OBJECTID":269846},"geometry":{"x":166375.1799999997,"y":2561463.6400000006}},{"attributes":{"ID":269852,"DIS_CODE":0,"TOWNNAME":"佳里區","LI":"鎮山里","LIN":"8鄰","STREET":"仁愛路","SECT":" ","MAREA":" ","LANE":"１４６巷","ALLEY":" ","HOUSE_NO":"２３號","E_COORD97":166375.14999999999,"N_COORD97":2561467.9199999999,"ADDRESS":"仁愛路１４６巷２３號","OBJECTID":269847},"geometry":{"x":166375.15000000224,"y":2561467.9199999999}},{"attributes":{"ID":269853,"DIS_CODE":0,"TOWNNAME":"鹽水區","LI":"飯店里","LIN":"3鄰","STREET":" ","SECT":" ","MAREA":"麻油寮","LANE":" ","ALLEY":" ","HOUSE_NO":"５０號","E_COORD97":169388.07000000001,"N_COORD97":2573882.75,"ADDRESS":"麻油寮５０號","OBJECTID":269848},"geometry":{"x":169388.07000000123,"y":2573882.7500000019}},{"attributes":{"ID":269854,"DIS_CODE":0,"TOWNNAME":"鹽水區","LI":"飯店里","LIN":"3鄰","STREET":" ","SECT":" ","MAREA":"麻油寮","LANE":" ","ALLEY":" ","HOUSE_NO":"５１號之１","E_COORD97":169360.76000000001,"N_COORD97":2573940.9100000001,"ADDRESS":"麻油寮５１號之１","OBJECTID":269849},"geometry":{"x":169360.76000000164,"y":2573940.9100000001}},{"attributes":{"ID":269855,"DIS_CODE":0,"TOWNNAME":"鹽水區","LI":"飯店里","LIN":"3鄰","STREET":" ","SECT":" ","MAREA":"麻油寮","LANE":" ","ALLEY":" ","HOUSE_NO":"５１號之２","E_COORD97":169340.20000000001,"N_COORD97":2573957.5099999998,"ADDRESS":"麻油寮５１號之２","OBJECTID":269850},"geometry":{"x":169340.20000000112,"y":2573957.5100000035}},{"attributes":{"ID":269856,"DIS_CODE":0,"TOWNNAME":"鹽水區","LI":"飯店里","LIN":"3鄰","STREET":" ","SECT":" ","MAREA":"麻油寮","LANE":" ","ALLEY":" ","HOUSE_NO":"５１號之３","E_COORD97":169345.35999999999,"N_COORD97":2573961.1000000001,"ADDRESS":"麻油寮５１號之３","OBJECTID":269851},"geometry":{"x":169345.3600000022,"y":2573961.1000000015}},{"attributes":{"ID":269857,"DIS_CODE":0,"TOWNNAME":"鹽水區","LI":"飯店里","LIN":"3鄰","STREET":" ","SECT":" ","MAREA":"麻油寮","LANE":" ","ALLEY":" ","HOUSE_NO":"５１之７號","E_COORD97":169333.92999999999,"N_COORD97":2573954.23,"ADDRESS":"麻油寮５１之７號","OBJECTID":269852},"geometry":{"x":169333.93000000156,"y":2573954.2300000023}},{"attributes":{"ID":269858,"DIS_CODE":0,"TOWNNAME":"鹽水區","LI":"飯店里","LIN":"3鄰","STREET":" ","SECT":" ","MAREA":"麻油寮","LANE":" ","ALLEY":" ","HOUSE_NO":"５１號","E_COORD97":169382.54000000001,"N_COORD97":2573914.1299999999,"ADDRESS":"麻油寮５１號","OBJECTID":269853},"geometry":{"x":169382.54000000004,"y":2573914.129999999}},{"attributes":{"ID":269859,"DIS_CODE":0,"TOWNNAME":"鹽水區","LI":"飯店里","LIN":"3鄰","STREET":" ","SECT":" ","MAREA":"麻油寮","LANE":" ","ALLEY":" ","HOUSE_NO":"５２號","E_COORD97":169396.94,"N_COORD97":2573887.3599999999,"ADDRESS":"麻油寮５２號","OBJECTID":269854},"geometry":{"x":169396.94000000041,"y":2573887.3600000013}},{"attributes":{"ID":269860,"DIS_CODE":0,"TOWNNAME":"鹽水區","LI":"舊營里","LIN":"3鄰","STREET":" ","SECT":" ","MAREA":"舊營","LANE":" ","ALLEY":" ","HOUSE_NO":"１１７號","E_COORD97":174054.39999999999,"N_COORD97":2577727.4399999999,"ADDRESS":"舊營１１７號","OBJECTID":269855},"geometry":{"x":174054.40000000224,"y":2577727.4399999995}},{"attributes":{"ID":269861,"DIS_CODE":0,"TOWNNAME":"鹽水區","LI":"舊營里","LIN":"3鄰","STREET":" ","SECT":" ","MAREA":"舊營","LANE":" ","ALLEY":" ","HOUSE_NO":"１１８號","E_COORD97":174029.20000000001,"N_COORD97":2577746.9399999999,"ADDRESS":"舊營１１８號","OBJECTID":269856},"geometry":{"x":174029.20000000019,"y":2577746.9399999995}},{"attributes":{"ID":269862,"DIS_CODE":0,"TOWNNAME":"鹽水區","LI":"舊營里","LIN":"3鄰","STREET":" ","SECT":" ","MAREA":"舊營","LANE":" ","ALLEY":" ","HOUSE_NO":"２９號","E_COORD97":174178.73000000001,"N_COORD97":2577680.73,"ADDRESS":"舊營２９號","OBJECTID":269857},"geometry":{"x":174178.73000000045,"y":2577680.7300000023}},{"attributes":{"ID":269863,"DIS_CODE":0,"TOWNNAME":"鹽水區","LI":"舊營里","LIN":"3鄰","STREET":" ","SECT":" ","MAREA":"舊營","LANE":" ","ALLEY":" ","HOUSE_NO":"３０號之１","E_COORD97":174167.04999999999,"N_COORD97":2577715.7000000002,"ADDRESS":"舊營３０號之１","OBJECTID":269858},"geometry":{"x":174167.05000000075,"y":2577715.700000003}},{"attributes":{"ID":269864,"DIS_CODE":0,"TOWNNAME":"鹽水區","LI":"舊營里","LIN":"3鄰","STREET":" ","SECT":" ","MAREA":"舊營","LANE":" ","ALLEY":" ","HOUSE_NO":"３０之６號","E_COORD97":174178.13,"N_COORD97":2577737.0899999999,"ADDRESS":"舊營３０之６號","OBJECTID":269859},"geometry":{"x":174178.13000000082,"y":2577737.0899999999}},{"attributes":{"ID":269865,"DIS_CODE":0,"TOWNNAME":"鹽水區","LI":"舊營里","LIN":"3鄰","STREET":" ","SECT":" ","MAREA":"舊營","LANE":" ","ALLEY":" ","HOUSE_NO":"３０號","E_COORD97":174178.54999999999,"N_COORD97":2577711.8700000001,"ADDRESS":"舊營３０號","OBJECTID":269860},"geometry":{"x":174178.55000000075,"y":2577711.870000001}},{"attributes":{"ID":269866,"DIS_CODE":0,"TOWNNAME":"左鎮區","LI":"左鎮里","LIN":"3鄰","STREET":" ","SECT":" ","MAREA":"左鎮","LANE":" ","ALLEY":" ","HOUSE_NO":"６２號之２","E_COORD97":189427.94,"N_COORD97":2549902.2999999998,"ADDRESS":"左鎮６２號之２","OBJECTID":269861},"geometry":{"x":189427.94000000134,"y":2549902.3000000026}},{"attributes":{"ID":269867,"DIS_CODE":0,"TOWNNAME":"善化區","LI":"文昌里","LIN":"15鄰","STREET":"永福路","SECT":" ","MAREA":" ","LANE":" ","ALLEY":" ","HOUSE_NO":"２９號","E_COORD97":177584.32000000001,"N_COORD97":2558872.25,"ADDRESS":"永福路２９號","OBJECTID":269862},"geometry":{"x":177584.32000000123,"y":2558872.2499999981}},{"attributes":{"ID":269868,"DIS_CODE":0,"TOWNNAME":"安平區","LI":"育平里","LIN":"3鄰","STREET":"健康三街","SECT":" ","MAREA":" ","LANE":" ","ALLEY":" ","HOUSE_NO":"２２７號","E_COORD97":164777.38,"N_COORD97":2543473.1299999999,"ADDRESS":"健康三街２２７號","OBJECTID":269863},"geometry":{"x":164777.37999999989,"y":2543473.1300000027}},{"attributes":{"ID":269869,"DIS_CODE":0,"TOWNNAME":"佳里區","LI":"鎮山里","LIN":"8鄰","STREET":"仁愛路","SECT":" ","MAREA":" ","LANE":"１４６巷","ALLEY":" ","HOUSE_NO":"２４號","E_COORD97":166390.76000000001,"N_COORD97":2561440.04,"ADDRESS":"仁愛路１４６巷２４號","OBJECTID":269864},"geometry":{"x":166390.76000000164,"y":2561440.040000001}},{"attributes":{"ID":269870,"DIS_CODE":0,"TOWNNAME":"佳里區","LI":"鎮山里","LIN":"8鄰","STREET":"仁愛路","SECT":" ","MAREA":" ","LANE":"１４６巷","ALLEY":" ","HOUSE_NO":"２５號","E_COORD97":166375.25,"N_COORD97":2561472.2799999998,"ADDRESS":"仁愛路１４６巷２５號","OBJECTID":269865},"geometry":{"x":166375.25,"y":2561472.2800000012}},{"attributes":{"ID":269871,"DIS_CODE":0,"TOWNNAME":"佳里區","LI":"鎮山里","LIN":"8鄰","STREET":"仁愛路","SECT":" ","MAREA":" ","LANE":"１４６巷","ALLEY":" ","HOUSE_NO":"２７號","E_COORD97":166375.53,"N_COORD97":2561476.4300000002,"ADDRESS":"仁愛路１４６巷２７號","OBJECTID":269866},"geometry":{"x":166375.53000000026,"y":2561476.4299999997}},{"attributes":{"ID":269872,"DIS_CODE":0,"TOWNNAME":"安平區","LI":"怡平里","LIN":"3鄰","STREET":"永華六街","SECT":" ","MAREA":" ","LANE":" ","ALLEY":" ","HOUSE_NO":"２１４號地下三層","E_COORD97":165681.85000000001,"N_COORD97":2544203.5099999998,"ADDRESS":"永華六街２１４號地下三層","OBJECTID":269867},"geometry":{"x":165681.85000000056,"y":2544203.5100000035}},{"attributes":{"ID":269873,"DIS_CODE":0,"TOWNNAME":"南區","LI":"大忠里","LIN":"3鄰","STREET":"中華南路","SECT":"一段","MAREA":" ","LANE":" ","ALLEY":" ","HOUSE_NO":"２８號","E_COORD97":169399.72,"N_COORD97":2541443.4300000002,"ADDRESS":"中華南路一段２８號","OBJECTID":269868},"geometry":{"x":169399.71999999974,"y":2541443.4299999997}},{"attributes":{"ID":269874,"DIS_CODE":0,"TOWNNAME":"南區","LI":"大忠里","LIN":"3鄰","STREET":"中華南路","SECT":"一段","MAREA":" ","LANE":" ","ALLEY":" ","HOUSE_NO":"３０號","E_COORD97":169394,"N_COORD97":2541441.8700000001,"ADDRESS":"中華南路一段３０號","OBJECTID":269869},"geometry":{"x":169394.00000000093,"y":2541441.870000001}},{"attributes":{"ID":269875,"DIS_CODE":0,"TOWNNAME":"南區","LI":"大忠里","LIN":"3鄰","STREET":"公英一街","SECT":" ","MAREA":" ","LANE":" ","ALLEY":" ","HOUSE_NO":"１１號","E_COORD97":169466.23000000001,"N_COORD97":2541274.29,"ADDRESS":"公英一街１１號","OBJECTID":269870},"geometry":{"x":169466.23000000045,"y":2541274.2899999991}},{"attributes":{"ID":269876,"DIS_CODE":0,"TOWNNAME":"佳里區","LI":"鎮山里","LIN":"8鄰","STREET":"仁愛路","SECT":" ","MAREA":" ","LANE":"１４６巷","ALLEY":" ","HOUSE_NO":"２８號","E_COORD97":166388.48999999999,"N_COORD97":2561450.1699999999,"ADDRESS":"仁愛路１４６巷２８號","OBJECTID":269871},"geometry":{"x":166388.49000000115,"y":2561450.1700000018}},{"attributes":{"ID":269877,"DIS_CODE":0,"TOWNNAME":"佳里區","LI":"鎮山里","LIN":"8鄰","STREET":"仁愛路","SECT":" ","MAREA":" ","LANE":"１４６巷","ALLEY":" ","HOUSE_NO":"３２號","E_COORD97":166388.53,"N_COORD97":2561458.6200000001,"ADDRESS":"仁愛路１４６巷３２號","OBJECTID":269872},"geometry":{"x":166388.53000000026,"y":2561458.6200000029}},{"attributes":{"ID":269878,"DIS_CODE":0,"TOWNNAME":"佳里區","LI":"鎮山里","LIN":"8鄰","STREET":"仁愛路","SECT":" ","MAREA":" ","LANE":"１４６巷","ALLEY":" ","HOUSE_NO":"３３號","E_COORD97":166375.09,"N_COORD97":2561488.9199999999,"ADDRESS":"仁愛路１４６巷３３號","OBJECTID":269873},"geometry":{"x":166375.09000000078,"y":2561488.9200000018}},{"attributes":{"ID":269879,"DIS_CODE":0,"TOWNNAME":"佳里區","LI":"鎮山里","LIN":"8鄰","STREET":"仁愛路","SECT":" ","MAREA":" ","LANE":"１４６巷","ALLEY":" ","HOUSE_NO":"３４號","E_COORD97":166388.60000000001,"N_COORD97":2561463.0499999998,"ADDRESS":"仁愛路１４６巷３４號","OBJECTID":269874},"geometry":{"x":166388.60000000056,"y":2561463.0500000026}},{"attributes":{"ID":269880,"DIS_CODE":0,"TOWNNAME":"佳里區","LI":"鎮山里","LIN":"8鄰","STREET":"仁愛路","SECT":" ","MAREA":" ","LANE":"１４６巷","ALLEY":" ","HOUSE_NO":"３５號","E_COORD97":166373.88,"N_COORD97":2561494.71,"ADDRESS":"仁愛路１４６巷３５號","OBJECTID":269875},"geometry":{"x":166373.87999999989,"y":2561494.7100000028}},{"attributes":{"ID":269881,"DIS_CODE":0,"TOWNNAME":"佳里區","LI":"鎮山里","LIN":"8鄰","STREET":"仁愛路","SECT":" ","MAREA":" ","LANE":"１４６巷","ALLEY":" ","HOUSE_NO":"３６號","E_COORD97":166388.66,"N_COORD97":2561467.4900000002,"ADDRESS":"仁愛路１４６巷３６號","OBJECTID":269876},"geometry":{"x":166388.66000000108,"y":2561467.4900000002}},{"attributes":{"ID":269882,"DIS_CODE":0,"TOWNNAME":"佳里區","LI":"鎮山里","LIN":"8鄰","STREET":"仁愛路","SECT":" ","MAREA":" ","LANE":"１４６巷","ALLEY":" ","HOUSE_NO":"３７號","E_COORD97":166374.39999999999,"N_COORD97":2561500.4100000001,"ADDRESS":"仁愛路１４６巷３７號","OBJECTID":269877},"geometry":{"x":166374.40000000037,"y":2561500.410000002}},{"attributes":{"ID":269883,"DIS_CODE":0,"TOWNNAME":"東區","LI":"復興里","LIN":"8鄰","STREET":"裕學路","SECT":" ","MAREA":" ","LANE":"１８５巷","ALLEY":" ","HOUSE_NO":"４６號","E_COORD97":171678.97,"N_COORD97":2542749.7200000002,"ADDRESS":"裕學路１８５巷４６號","OBJECTID":269878},"geometry":{"x":171678.97000000067,"y":2542749.7200000025}},{"attributes":{"ID":269884,"DIS_CODE":0,"TOWNNAME":"東區","LI":"復興里","LIN":"8鄰","STREET":"裕學路","SECT":" ","MAREA":" ","LANE":"１８５巷","ALLEY":" ","HOUSE_NO":"４３號","E_COORD97":171702.16,"N_COORD97":2542742.5,"ADDRESS":"裕學路１８５巷４３號","OBJECTID":269879},"geometry":{"x":171702.16000000015,"y":2542742.4999999981}},{"attributes":{"ID":269885,"DIS_CODE":0,"TOWNNAME":"東區","LI":"復興里","LIN":"8鄰","STREET":"裕學路","SECT":" ","MAREA":" ","LANE":"１８５巷","ALLEY":" ","HOUSE_NO":"４５號","E_COORD97":171702.84,"N_COORD97":2542738.4100000001,"ADDRESS":"裕學路１８５巷４５號","OBJECTID":269880},"geometry":{"x":171702.83999999892,"y":2542738.4100000001}},{"attributes":{"ID":269886,"DIS_CODE":0,"TOWNNAME":"東區","LI":"復興里","LIN":"8鄰","STREET":"裕學路","SECT":" ","MAREA":" ","LANE":"１８５巷","ALLEY":" ","HOUSE_NO":"５２號","E_COORD97":171680,"N_COORD97":2542742.5699999998,"ADDRESS":"裕學路１８５巷５２號","OBJECTID":269881},"geometry":{"x":171680.00000000186,"y":2542742.570000004}},{"attributes":{"ID":269887,"DIS_CODE":0,"TOWNNAME":"永康區","LI":"東橋里","LIN":"8鄰","STREET":"大橋一街","SECT":" ","MAREA":" ","LANE":"３２４巷","ALLEY":" ","HOUSE_NO":"１１５號","E_COORD97":171527.20000000001,"N_COORD97":2546389.73,"ADDRESS":"大橋一街３２４巷１１５號","OBJECTID":269882},"geometry":{"x":171527.20000000019,"y":2546389.7300000042}},{"attributes":{"ID":269888,"DIS_CODE":0,"TOWNNAME":"永康區","LI":"東橋里","LIN":"8鄰","STREET":"大橋一街","SECT":" ","MAREA":" ","LANE":"３２４巷","ALLEY":" ","HOUSE_NO":"１２１號","E_COORD97":171535.75,"N_COORD97":2546377.73,"ADDRESS":"大橋一街３２４巷１２１號","OBJECTID":269883},"geometry":{"x":171535.74999999907,"y":2546377.7300000023}},{"attributes":{"ID":269889,"DIS_CODE":0,"TOWNNAME":"永康區","LI":"東灣里","LIN":"8鄰","STREET":"大灣路","SECT":" ","MAREA":" ","LANE":"４３６巷","ALLEY":" ","HOUSE_NO":"９號","E_COORD97":174739.17000000001,"N_COORD97":2544978.5,"ADDRESS":"大灣路４３６巷９號","OBJECTID":269884},"geometry":{"x":174739.17000000086,"y":2544978.5000000019}},{"attributes":{"ID":269890,"DIS_CODE":0,"TOWNNAME":"永康區","LI":"東灣里","LIN":"8鄰","STREET":"大灣路","SECT":" ","MAREA":" ","LANE":"４３６巷","ALLEY":" ","HOUSE_NO":"２３號","E_COORD97":174698.48000000001,"N_COORD97":2544967.8300000001,"ADDRESS":"大灣路４３６巷２３號","OBJECTID":269885},"geometry":{"x":174698.48000000138,"y":2544967.8299999982}},{"attributes":{"ID":269891,"DIS_CODE":0,"TOWNNAME":"永康區","LI":"東橋里","LIN":"8鄰","STREET":"大橋一街","SECT":" ","MAREA":" ","LANE":"３２４巷","ALLEY":" ","HOUSE_NO":"１１９號","E_COORD97":171532.64999999999,"N_COORD97":2546381.48,"ADDRESS":"大橋一街３２４巷１１９號","OBJECTID":269886},"geometry":{"x":171532.6500000013,"y":2546381.4800000023}},{"attributes":{"ID":269892,"DIS_CODE":0,"TOWNNAME":"永康區","LI":"東灣里","LIN":"8鄰","STREET":"大灣路","SECT":" ","MAREA":" ","LANE":"４５０巷","ALLEY":" ","HOUSE_NO":"４號","E_COORD97":174745.91,"N_COORD97":2544958.7799999998,"ADDRESS":"大灣路４５０巷４號","OBJECTID":269887},"geometry":{"x":174745.91000000108,"y":2544958.7800000012}},{"attributes":{"ID":269893,"DIS_CODE":0,"TOWNNAME":"永康區","LI":"東橋里","LIN":"8鄰","STREET":"大橋一街","SECT":" ","MAREA":" ","LANE":"３２４巷","ALLEY":" ","HOUSE_NO":"１０７號","E_COORD97":171515.64999999999,"N_COORD97":2546405.2400000002,"ADDRESS":"大橋一街３２４巷１０７號","OBJECTID":269888},"geometry":{"x":171515.6500000013,"y":2546405.2400000002}},{"attributes":{"ID":269894,"DIS_CODE":0,"TOWNNAME":"永康區","LI":"東橋里","LIN":"8鄰","STREET":"大橋一街","SECT":" ","MAREA":" ","LANE":"３２４巷","ALLEY":" ","HOUSE_NO":"１１３號","E_COORD97":171524.10999999999,"N_COORD97":2546393.48,"ADDRESS":"大橋一街３２４巷１１３號","OBJECTID":269889},"geometry":{"x":171524.11000000127,"y":2546393.4800000004}},{"attributes":{"ID":269895,"DIS_CODE":0,"TOWNNAME":"永康區","LI":"尚頂里","LIN":"8鄰","STREET":"正南一街","SECT":" ","MAREA":" ","LANE":"１１８巷","ALLEY":" ","HOUSE_NO":"３２號","E_COORD97":170994.92000000001,"N_COORD97":2547379.77,"ADDRESS":"正南一街１１８巷３２號","OBJECTID":269890},"geometry":{"x":170994.91999999993,"y":2547379.7700000014}},{"attributes":{"ID":269896,"DIS_CODE":0,"TOWNNAME":"永康區","LI":"尚頂里","LIN":"8鄰","STREET":"正南一街","SECT":" ","MAREA":" ","LANE":"１１８巷","ALLEY":" ","HOUSE_NO":"１６號","E_COORD97":170937.19,"N_COORD97":2547314.7599999998,"ADDRESS":"正南一街１１８巷１６號","OBJECTID":269891},"geometry":{"x":170937.19000000134,"y":2547314.7600000016}},{"attributes":{"ID":269897,"DIS_CODE":0,"TOWNNAME":"永康區","LI":"東灣里","LIN":"8鄰","STREET":"大灣路","SECT":" ","MAREA":" ","LANE":"４３６巷","ALLEY":" ","HOUSE_NO":"１號","E_COORD97":174750.04000000001,"N_COORD97":2544974.7599999998,"ADDRESS":"大灣路４３６巷１號","OBJECTID":269892},"geometry":{"x":174750.04000000097,"y":2544974.7599999979}},{"attributes":{"ID":269898,"DIS_CODE":0,"TOWNNAME":"永康區","LI":"正強里","LIN":"8鄰","STREET":"永正路","SECT":" ","MAREA":" ","LANE":"６５巷","ALLEY":" ","HOUSE_NO":"２號","E_COORD97":173519.17000000001,"N_COORD97":2547449,"ADDRESS":"永正路６５巷２號","OBJECTID":269893},"geometry":{"x":173519.16999999993,"y":2547449.0000000019}},{"attributes":{"ID":269899,"DIS_CODE":0,"TOWNNAME":"安南區","LI":"理想里","LIN":"8鄰","STREET":"海佃路","SECT":"二段","MAREA":" ","LANE":"１５０巷","ALLEY":" ","HOUSE_NO":"１６２號","E_COORD97":167230.86082999999,"N_COORD97":2548482.9580000001,"ADDRESS":"海佃路二段１５０巷１６２號","OBJECTID":269894},"geometry":{"x":167230.86083000153,"y":2548482.9580000024}},{"attributes":{"ID":269900,"DIS_CODE":0,"TOWNNAME":"將軍區","LI":"平沙里","LIN":"2鄰","STREET":" ","SECT":" ","MAREA":"平沙","LANE":" ","ALLEY":" ","HOUSE_NO":"１０號","E_COORD97":157362.42000000001,"N_COORD97":2568586.4500000002,"ADDRESS":"平沙１０號","OBJECTID":269895},"geometry":{"x":157362.41999999993,"y":2568586.4499999993}},{"attributes":{"ID":269901,"DIS_CODE":0,"TOWNNAME":"安南區","LI":"理想里","LIN":"8鄰","STREET":"海佃路","SECT":"二段","MAREA":" ","LANE":"１５０巷","ALLEY":" ","HOUSE_NO":"１６８號","E_COORD97":167234.887193,"N_COORD97":2548489.0963300001,"ADDRESS":"海佃路二段１５０巷１６８號","OBJECTID":269896},"geometry":{"x":167234.88719300088,"y":2548489.0963300001}},{"attributes":{"ID":269902,"DIS_CODE":0,"TOWNNAME":"安南區","LI":"理想里","LIN":"8鄰","STREET":"海佃路","SECT":"二段","MAREA":" ","LANE":"１５０巷","ALLEY":" ","HOUSE_NO":"１７０號","E_COORD97":167236.794418,"N_COORD97":2548493.1179999998,"ADDRESS":"海佃路二段１５０巷１７０號","OBJECTID":269897},"geometry":{"x":167236.79441800062,"y":2548493.1179950014}},{"attributes":{"ID":269903,"DIS_CODE":0,"TOWNNAME":"安南區","LI":"理想里","LIN":"8鄰","STREET":"海佃路","SECT":"二段","MAREA":" ","LANE":"１５０巷","ALLEY":" ","HOUSE_NO":"１７２號","E_COORD97":167238.91355600001,"N_COORD97":2548495.8696599999,"ADDRESS":"海佃路二段１５０巷１７２號","OBJECTID":269898},"geometry":{"x":167238.91355600022,"y":2548495.8696600012}},{"attributes":{"ID":269904,"DIS_CODE":0,"TOWNNAME":"中西區","LI":"萬昌里","LIN":"17鄰","STREET":"青年路","SECT":" ","MAREA":" ","LANE":"１６４巷","ALLEY":" ","HOUSE_NO":"４號","E_COORD97":168984.35000000001,"N_COORD97":2543575.6800000002,"ADDRESS":"青年路１６４巷４號","OBJECTID":269899},"geometry":{"x":168984.35000000056,"y":2543575.6800000016}},{"attributes":{"ID":269905,"DIS_CODE":0,"TOWNNAME":"安南區","LI":"理想里","LIN":"8鄰","STREET":"海佃路","SECT":"二段","MAREA":" ","LANE":"１５０巷","ALLEY":" ","HOUSE_NO":"１７６號","E_COORD97":167241.66843600001,"N_COORD97":2548500.3146600001,"ADDRESS":"海佃路二段１５０巷１７６號","OBJECTID":269900},"geometry":{"x":167241.66843600105,"y":2548500.3146580011}},{"attributes":{"ID":269906,"DIS_CODE":0,"TOWNNAME":"安南區","LI":"淵西里","LIN":"8鄰","STREET":"安中路","SECT":"四段","MAREA":" ","LANE":"３０６巷","ALLEY":" ","HOUSE_NO":"１２７號","E_COORD97":164688.95000000001,"N_COORD97":2550369.7599999998,"ADDRESS":"安中路四段３０６巷１２７號","OBJECTID":269901},"geometry":{"x":164688.95000000019,"y":2550369.7600000016}},{"attributes":{"ID":269907,"DIS_CODE":0,"TOWNNAME":"安南區","LI":"佃東里","LIN":"8鄰","STREET":"公學路","SECT":"四段","MAREA":" ","LANE":"１２６巷","ALLEY":" ","HOUSE_NO":"５０號","E_COORD97":165449.89999999999,"N_COORD97":2551992.5800000001,"ADDRESS":"公學路四段１２６巷５０號","OBJECTID":269902},"geometry":{"x":165449.9000000013,"y":2551992.5800000019}},{"attributes":{"ID":269908,"DIS_CODE":0,"TOWNNAME":"安南區","LI":"學東里","LIN":"8鄰","STREET":"公學路","SECT":"六段","MAREA":" ","LANE":"４７８巷","ALLEY":" ","HOUSE_NO":"１７之１號","E_COORD97":162677.12,"N_COORD97":2553286.2000000002,"ADDRESS":"公學路六段４７８巷１７之１號","OBJECTID":269903},"geometry":{"x":162677.12000000011,"y":2553286.2000000011}},{"attributes":{"ID":269909,"DIS_CODE":0,"TOWNNAME":"安南區","LI":"長安里","LIN":"8鄰","STREET":"公學路","SECT":"二段","MAREA":" ","LANE":"２１９巷","ALLEY":" ","HOUSE_NO":"６號","E_COORD97":167520.20999999999,"N_COORD97":2552093.8599999999,"ADDRESS":"公學路二段２１９巷６號","OBJECTID":269904},"geometry":{"x":167520.21000000183,"y":2552093.8600000031}},{"attributes":{"ID":269910,"DIS_CODE":0,"TOWNNAME":"安南區","LI":"城北里","LIN":"8鄰","STREET":"安明路","SECT":"四段","MAREA":" ","LANE":"８５巷","ALLEY":" ","HOUSE_NO":"２５號","E_COORD97":161532,"N_COORD97":2550684.2400000002,"ADDRESS":"安明路四段８５巷２５號","OBJECTID":269905},"geometry":{"x":161532,"y":2550684.2400000002}},{"attributes":{"ID":269911,"DIS_CODE":0,"TOWNNAME":"安南區","LI":"城北里","LIN":"8鄰","STREET":"安中路","SECT":"六段","MAREA":" ","LANE":"３５１巷","ALLEY":" ","HOUSE_NO":"１０號","E_COORD97":161202.67999999999,"N_COORD97":2551274.5,"ADDRESS":"安中路六段３５１巷１０號","OBJECTID":269906},"geometry":{"x":161202.68000000063,"y":2551274.5000000019}},{"attributes":{"ID":269912,"DIS_CODE":0,"TOWNNAME":"東區","LI":"成大里","LIN":"8鄰","STREET":"民族路","SECT":"一段","MAREA":" ","LANE":"１８巷","ALLEY":" ","HOUSE_NO":"１４號","E_COORD97":169558.19,"N_COORD97":2543900,"ADDRESS":"民族路一段１８巷１４號","OBJECTID":269907},"geometry":{"x":169558.19000000041,"y":2543900.0000000019}},{"attributes":{"ID":269913,"DIS_CODE":0,"TOWNNAME":"東區","LI":"成大里","LIN":"8鄰","STREET":"民族路","SECT":"一段","MAREA":" ","LANE":"１８巷","ALLEY":" ","HOUSE_NO":"１５號","E_COORD97":169534,"N_COORD97":2543917.4199999999,"ADDRESS":"民族路一段１８巷１５號","OBJECTID":269908},"geometry":{"x":169534.00000000093,"y":2543917.4200000018}},{"attributes":{"ID":269914,"DIS_CODE":0,"TOWNNAME":"東區","LI":"泉南里","LIN":"8鄰","STREET":"光華街","SECT":" ","MAREA":" ","LANE":"２２９巷","ALLEY":" ","HOUSE_NO":"７號","E_COORD97":169488.51000000001,"N_COORD97":2543007.29,"ADDRESS":"光華街２２９巷７號","OBJECTID":269909},"geometry":{"x":169488.51000000071,"y":2543007.2899999991}},{"attributes":{"ID":269915,"DIS_CODE":0,"TOWNNAME":"東區","LI":"泉南里","LIN":"8鄰","STREET":"光華街","SECT":" ","MAREA":" ","LANE":"２２９巷","ALLEY":" ","HOUSE_NO":"９號","E_COORD97":169486.07000000001,"N_COORD97":2543003.8999999999,"ADDRESS":"光華街２２９巷９號","OBJECTID":269910},"geometry":{"x":169486.0700000003,"y":2543003.9000000004}},{"attributes":{"ID":269916,"DIS_CODE":0,"TOWNNAME":"安南區","LI":"城東里","LIN":"8鄰","STREET":"城北路","SECT":" ","MAREA":" ","LANE":"１１２巷","ALLEY":" ","HOUSE_NO":"２３之１號","E_COORD97":161078.98999999999,"N_COORD97":2551635.2000000002,"ADDRESS":"城北路１１２巷２３之１號","OBJECTID":269911},"geometry":{"x":161078.99000000115,"y":2551635.1999999993}},{"attributes":{"ID":269917,"DIS_CODE":0,"TOWNNAME":"永康區","LI":"正強里","LIN":"8鄰","STREET":"正義街","SECT":" ","MAREA":" ","LANE":"８９巷","ALLEY":" ","HOUSE_NO":"１３號","E_COORD97":173465.17999999999,"N_COORD97":2547522.7599999998,"ADDRESS":"正義街８９巷１３號","OBJECTID":269912},"geometry":{"x":173465.18000000156,"y":2547522.7600000016}},{"attributes":{"ID":269918,"DIS_CODE":0,"TOWNNAME":"歸仁區","LI":"武東里","LIN":"8鄰","STREET":"武東一街","SECT":" ","MAREA":" ","LANE":"４９巷","ALLEY":" ","HOUSE_NO":"６８號三樓之３","E_COORD97":175800.22,"N_COORD97":2535538.2999999998,"ADDRESS":"武東一街４９巷６８號三樓之３","OBJECTID":269913},"geometry":{"x":175800.21999999974,"y":2535538.3000000026}},{"attributes":{"ID":269919,"DIS_CODE":0,"TOWNNAME":"歸仁區","LI":"武東里","LIN":"8鄰","STREET":"武東一街","SECT":" ","MAREA":" ","LANE":"４９巷","ALLEY":" ","HOUSE_NO":"６６號三樓之５","E_COORD97":175800.28,"N_COORD97":2535538.2999999998,"ADDRESS":"武東一街４９巷６６號三樓之５","OBJECTID":269914},"geometry":{"x":175800.28000000026,"y":2535538.3000000026}},{"attributes":{"ID":269920,"DIS_CODE":0,"TOWNNAME":"東區","LI":"崇明里","LIN":"8鄰","STREET":"大同路","SECT":"二段","MAREA":" ","LANE":"４４９巷","ALLEY":" ","HOUSE_NO":"３號之４二樓之３","E_COORD97":169587.60999999999,"N_COORD97":2541312.0800000001,"ADDRESS":"大同路二段４４９巷３號之４二樓之３","OBJECTID":269915},"geometry":{"x":169587.6099999994,"y":2541312.0800000019}},{"attributes":{"ID":269921,"DIS_CODE":0,"TOWNNAME":"永康區","LI":"勝利里","LIN":"8鄰","STREET":"勝利街","SECT":" ","MAREA":" ","LANE":"２２巷","ALLEY":" ","HOUSE_NO":"２６號","E_COORD97":171275.14000000001,"N_COORD97":2544656.2599999998,"ADDRESS":"勝利街２２巷２６號","OBJECTID":269916},"geometry":{"x":171275.14000000153,"y":2544656.2600000035}},{"attributes":{"ID":269922,"DIS_CODE":0,"TOWNNAME":"永康區","LI":"勝利里","LIN":"8鄰","STREET":"勝利街","SECT":" ","MAREA":" ","LANE":"２２巷","ALLEY":" ","HOUSE_NO":"１６號","E_COORD97":171273.20000000001,"N_COORD97":2544633,"ADDRESS":"勝利街２２巷１６號","OBJECTID":269917},"geometry":{"x":171273.20000000019,"y":2544633}},{"attributes":{"ID":269923,"DIS_CODE":0,"TOWNNAME":"永康區","LI":"勝利里","LIN":"8鄰","STREET":"勝利街","SECT":" ","MAREA":" ","LANE":"２２巷","ALLEY":" ","HOUSE_NO":"２２號","E_COORD97":171274.34,"N_COORD97":2544647.5099999998,"ADDRESS":"勝利街２２巷２２號","OBJECTID":269918},"geometry":{"x":171274.34000000078,"y":2544647.5099999979}},{"attributes":{"ID":269924,"DIS_CODE":0,"TOWNNAME":"北區","LI":"賢北里","LIN":"3鄰","STREET":"中華北路","SECT":"一段","MAREA":" ","LANE":" ","ALLEY":" ","HOUSE_NO":"１１９號","E_COORD97":166490.62,"N_COORD97":2545538.29,"ADDRESS":"中華北路一段１１９號","OBJECTID":269919},"geometry":{"x":166490.62000000104,"y":2545538.290000001}},{"attributes":{"ID":269925,"DIS_CODE":0,"TOWNNAME":"安南區","LI":"安順里","LIN":"18鄰","STREET":"育安街","SECT":" ","MAREA":" ","LANE":" ","ALLEY":" ","HOUSE_NO":"１９４號","E_COORD97":169587.28,"N_COORD97":2549952.3300000001,"ADDRESS":"育安街１９４號","OBJECTID":269920},"geometry":{"x":169587.28000000119,"y":2549952.3300000019}},{"attributes":{"ID":269926,"DIS_CODE":0,"TOWNNAME":"安南區","LI":"新順里","LIN":"13鄰","STREET":"開安路","SECT":" ","MAREA":" ","LANE":" ","ALLEY":" ","HOUSE_NO":"４９號","E_COORD97":170326.45000000001,"N_COORD97":2549667.1299999999,"ADDRESS":"開安路４９號","OBJECTID":269921},"geometry":{"x":170326.45000000112,"y":2549667.1300000027}},{"attributes":{"ID":269927,"DIS_CODE":0,"TOWNNAME":"永康區","LI":"勝利里","LIN":"8鄰","STREET":"勝利街","SECT":" ","MAREA":" ","LANE":"２２巷","ALLEY":" ","HOUSE_NO":"２８號","E_COORD97":171275.35000000001,"N_COORD97":2544660.7599999998,"ADDRESS":"勝利街２２巷２８號","OBJECTID":269922},"geometry":{"x":171275.3499999987,"y":2544660.7600000016}},{"attributes":{"ID":269928,"DIS_CODE":0,"TOWNNAME":"永康區","LI":"勝利里","LIN":"8鄰","STREET":"勝利街","SECT":" ","MAREA":" ","LANE":"２２巷","ALLEY":" ","HOUSE_NO":"３２號","E_COORD97":171276.37,"N_COORD97":2544668.7599999998,"ADDRESS":"勝利街２２巷３２號","OBJECTID":269923},"geometry":{"x":171276.37000000104,"y":2544668.7599999998}},{"attributes":{"ID":269929,"DIS_CODE":0,"TOWNNAME":"永康區","LI":"崑山里","LIN":"8鄰","STREET":"大灣路","SECT":" ","MAREA":" ","LANE":"９５９巷","ALLEY":" ","HOUSE_NO":"９號","E_COORD97":173389.73999999999,"N_COORD97":2544306.7400000002,"ADDRESS":"大灣路９５９巷９號","OBJECTID":269924},"geometry":{"x":173389.74000000115,"y":2544306.7400000002}},{"attributes":{"ID":269930,"DIS_CODE":0,"TOWNNAME":"永康區","LI":"勝利里","LIN":"8鄰","STREET":"勝利街","SECT":" ","MAREA":" ","LANE":"２２巷","ALLEY":" ","HOUSE_NO":"３０號","E_COORD97":171275.81,"N_COORD97":2544664.5099999998,"ADDRESS":"勝利街２２巷３０號","OBJECTID":269925},"geometry":{"x":171275.81000000052,"y":2544664.5099999979}},{"attributes":{"ID":269931,"DIS_CODE":0,"TOWNNAME":"永康區","LI":"大灣里","LIN":"8鄰","STREET":"民族路","SECT":" ","MAREA":" ","LANE":"３９６巷","ALLEY":" ","HOUSE_NO":"１２號","E_COORD97":174793.69,"N_COORD97":2545423.0600000001,"ADDRESS":"民族路３９６巷１２號","OBJECTID":269926},"geometry":{"x":174793.69000000134,"y":2545423.0600000005}},{"attributes":{"ID":269932,"DIS_CODE":0,"TOWNNAME":"永康區","LI":"大灣里","LIN":"8鄰","STREET":"民族路","SECT":" ","MAREA":" ","LANE":"３９６巷","ALLEY":" ","HOUSE_NO":"１１號","E_COORD97":174772.42000000001,"N_COORD97":2545424.0099999998,"ADDRESS":"民族路３９６巷１１號","OBJECTID":269927},"geometry":{"x":174772.42000000179,"y":2545424.0099999979}},{"attributes":{"ID":269933,"DIS_CODE":0,"TOWNNAME":"永康區","LI":"大橋里","LIN":"8鄰","STREET":"大橋三街","SECT":" ","MAREA":" ","LANE":"１９９巷","ALLEY":" ","HOUSE_NO":"８４號","E_COORD97":170973.31,"N_COORD97":2546901.46,"ADDRESS":"大橋三街１９９巷８４號","OBJECTID":269928},"geometry":{"x":170973.30999999959,"y":2546901.4600000028}},{"attributes":{"ID":269934,"DIS_CODE":0,"TOWNNAME":"永康區","LI":"大橋里","LIN":"8鄰","STREET":"大橋三街","SECT":" ","MAREA":" ","LANE":"１９９巷","ALLEY":" ","HOUSE_NO":"１０６號","E_COORD97":171022.98999999999,"N_COORD97":2546911.4900000002,"ADDRESS":"大橋三街１９９巷１０６號","OBJECTID":269929},"geometry":{"x":171022.99000000115,"y":2546911.4900000002}},{"attributes":{"ID":269935,"DIS_CODE":0,"TOWNNAME":"安南區","LI":"新順里","LIN":"13鄰","STREET":"開安路","SECT":" ","MAREA":" ","LANE":" ","ALLEY":" ","HOUSE_NO":"４９號之１","E_COORD97":170330.51999999999,"N_COORD97":2549673.5699999998,"ADDRESS":"開安路４９號之１","OBJECTID":269930},"geometry":{"x":170330.52000000048,"y":2549673.5700000022}},{"attributes":{"ID":269936,"DIS_CODE":0,"TOWNNAME":"安南區","LI":"溪頂里","LIN":"24鄰","STREET":"惠安街","SECT":" ","MAREA":" ","LANE":" ","ALLEY":" ","HOUSE_NO":"４２號之１","E_COORD97":169046.70000000001,"N_COORD97":2547493.4100000001,"ADDRESS":"惠安街４２號之１","OBJECTID":269931},"geometry":{"x":169046.70000000112,"y":2547493.4100000039}},{"attributes":{"ID":269937,"DIS_CODE":0,"TOWNNAME":"安南區","LI":"淵中里","LIN":"17鄰","STREET":"樂安二街","SECT":" ","MAREA":" ","LANE":" ","ALLEY":" ","HOUSE_NO":"１４２號","E_COORD97":165758.5,"N_COORD97":2549761.2000000002,"ADDRESS":"樂安二街１４２號","OBJECTID":269932},"geometry":{"x":165758.5,"y":2549761.1999999993}},{"attributes":{"ID":269938,"DIS_CODE":0,"TOWNNAME":"永康區","LI":"大橋里","LIN":"8鄰","STREET":"大橋三街","SECT":" ","MAREA":" ","LANE":"１９９巷","ALLEY":" ","HOUSE_NO":"１１２號","E_COORD97":171013.28,"N_COORD97":2546925.6000000001,"ADDRESS":"大橋三街１９９巷１１２號","OBJECTID":269933},"geometry":{"x":171013.28000000026,"y":2546925.6000000034}},{"attributes":{"ID":269939,"DIS_CODE":0,"TOWNNAME":"永康區","LI":"大橋里","LIN":"8鄰","STREET":"大橋三街","SECT":" ","MAREA":" ","LANE":"１９９巷","ALLEY":" ","HOUSE_NO":"１０８號","E_COORD97":171020.20000000001,"N_COORD97":2546914.4900000002,"ADDRESS":"大橋三街１９９巷１０８號","OBJECTID":269934},"geometry":{"x":171020.20000000112,"y":2546914.4900000021}},{"attributes":{"ID":269940,"DIS_CODE":0,"TOWNNAME":"東區","LI":"崇德里","LIN":"8鄰","STREET":"崇德七街","SECT":" ","MAREA":" ","LANE":"３０巷","ALLEY":" ","HOUSE_NO":"２號","E_COORD97":170852.26000000001,"N_COORD97":2541798.2799999998,"ADDRESS":"崇德七街３０巷２號","OBJECTID":269935},"geometry":{"x":170852.25999999978,"y":2541798.2800000012}},{"attributes":{"ID":269941,"DIS_CODE":0,"TOWNNAME":"東區","LI":"龍山里","LIN":"8鄰","STREET":"府東街","SECT":" ","MAREA":" ","LANE":"２１巷","ALLEY":" ","HOUSE_NO":"３８號","E_COORD97":170020.84,"N_COORD97":2542790.79,"ADDRESS":"府東街２１巷３８號","OBJECTID":269936},"geometry":{"x":170020.83999999985,"y":2542790.7900000028}},{"attributes":{"ID":269942,"DIS_CODE":0,"TOWNNAME":"東區","LI":"龍山里","LIN":"8鄰","STREET":"府東街","SECT":" ","MAREA":" ","LANE":"２１巷","ALLEY":" ","HOUSE_NO":"１６號","E_COORD97":170022.85999999999,"N_COORD97":2542834.0499999998,"ADDRESS":"府東街２１巷１６號","OBJECTID":269937},"geometry":{"x":170022.86000000034,"y":2542834.0500000007}},{"attributes":{"ID":269943,"DIS_CODE":0,"TOWNNAME":"東區","LI":"龍山里","LIN":"8鄰","STREET":"府東街","SECT":" ","MAREA":" ","LANE":"２１巷","ALLEY":" ","HOUSE_NO":"２５號","E_COORD97":170038.45000000001,"N_COORD97":2542786.7200000002,"ADDRESS":"府東街２１巷２５號","OBJECTID":269938},"geometry":{"x":170038.45000000112,"y":2542786.7200000025}},{"attributes":{"ID":269944,"DIS_CODE":0,"TOWNNAME":"東區","LI":"龍山里","LIN":"8鄰","STREET":"府東街","SECT":" ","MAREA":" ","LANE":"２１巷","ALLEY":" ","HOUSE_NO":"２６號","E_COORD97":170010.34,"N_COORD97":2542802.8900000001,"ADDRESS":"府東街２１巷２６號","OBJECTID":269939},"geometry":{"x":170010.33999999985,"y":2542802.8900000025}},{"attributes":{"ID":269945,"DIS_CODE":0,"TOWNNAME":"東區","LI":"龍山里","LIN":"8鄰","STREET":"府東街","SECT":" ","MAREA":" ","LANE":"２１巷","ALLEY":" ","HOUSE_NO":"３０號","E_COORD97":169992.59,"N_COORD97":2542805.9199999999,"ADDRESS":"府東街２１巷３０號","OBJECTID":269940},"geometry":{"x":169992.59000000171,"y":2542805.9199999999}},{"attributes":{"ID":269946,"DIS_CODE":0,"TOWNNAME":"東區","LI":"龍山里","LIN":"8鄰","STREET":"府東街","SECT":" ","MAREA":" ","LANE":"２１巷","ALLEY":" ","HOUSE_NO":"３２號","E_COORD97":170002.88,"N_COORD97":2542801.0800000001,"ADDRESS":"府東街２１巷３２號","OBJECTID":269941},"geometry":{"x":170002.88000000082,"y":2542801.0800000019}},{"attributes":{"ID":269947,"DIS_CODE":0,"TOWNNAME":"永康區","LI":"大橋里","LIN":"8鄰","STREET":"大橋三街","SECT":" ","MAREA":" ","LANE":"１９９巷","ALLEY":" ","HOUSE_NO":"８６號","E_COORD97":170976.31,"N_COORD97":2546903.46,"ADDRESS":"大橋三街１９９巷８６號","OBJECTID":269942},"geometry":{"x":170976.31000000052,"y":2546903.4600000009}},{"attributes":{"ID":269948,"DIS_CODE":0,"TOWNNAME":"永康區","LI":"大橋里","LIN":"8鄰","STREET":"大橋三街","SECT":" ","MAREA":" ","LANE":"１９９巷","ALLEY":" ","HOUSE_NO":"４６號","E_COORD97":170907.76999999999,"N_COORD97":2546859.8199999998,"ADDRESS":"大橋三街１９９巷４６號","OBJECTID":269943},"geometry":{"x":170907.76999999955,"y":2546859.8200000003}},{"attributes":{"ID":269949,"DIS_CODE":0,"TOWNNAME":"善化區","LI":"東關里","LIN":" ","STREET":"大信路","SECT":" ","MAREA":" ","LANE":" ","ALLEY":" ","HOUSE_NO":"１７之１號","E_COORD97":177511.41,"N_COORD97":2559009.02,"ADDRESS":"大信路１７之１號","OBJECTID":269944},"geometry":{"x":177511.41000000015,"y":2559009.0200000033}},{"attributes":{"ID":269950,"DIS_CODE":0,"TOWNNAME":"善化區","LI":"坐駕里","LIN":" ","STREET":"大成路","SECT":" ","MAREA":" ","LANE":" ","ALLEY":" ","HOUSE_NO":"３９８號","E_COORD97":177835.63,"N_COORD97":2558794.25,"ADDRESS":"大成路３９８號","OBJECTID":269945},"geometry":{"x":177835.62999999989,"y":2558794.2499999981}},{"attributes":{"ID":269951,"DIS_CODE":0,"TOWNNAME":"善化區","LI":"西關里","LIN":"13鄰","STREET":"興農路","SECT":" ","MAREA":" ","LANE":" ","ALLEY":" ","HOUSE_NO":"３０７號","E_COORD97":175667.51000000001,"N_COORD97":2559022.2599999998,"ADDRESS":"興農路３０７號","OBJECTID":269946},"geometry":{"x":175667.51000000071,"y":2559022.2600000016}},{"attributes":{"ID":269952,"DIS_CODE":0,"TOWNNAME":"善化區","LI":"南關里","LIN":"4鄰","STREET":"三民路","SECT":" ","MAREA":" ","LANE":" ","ALLEY":" ","HOUSE_NO":"２２之１號","E_COORD97":177088.42999999999,"N_COORD97":2558906.77,"ADDRESS":"三民路２２之１號","OBJECTID":269947},"geometry":{"x":177088.43000000063,"y":2558906.7700000014}},{"attributes":{"ID":269953,"DIS_CODE":0,"TOWNNAME":"善化區","LI":"光文里","LIN":"18鄰","STREET":"信義路","SECT":" ","MAREA":" ","LANE":" ","ALLEY":" ","HOUSE_NO":"１４１號","E_COORD97":178238.54000000001,"N_COORD97":2558982.75,"ADDRESS":"信義路１４１號","OBJECTID":269948},"geometry":{"x":178238.5400000019,"y":2558982.75}},{"attributes":{"ID":269954,"DIS_CODE":0,"TOWNNAME":"善化區","LI":"西關里","LIN":"13鄰","STREET":"南科北路","SECT":" ","MAREA":" ","LANE":" ","ALLEY":" ","HOUSE_NO":"６６號","E_COORD97":175604.01999999999,"N_COORD97":2558756.5,"ADDRESS":"南科北路６６號","OBJECTID":269949},"geometry":{"x":175604.02000000048,"y":2558756.5000000019}},{"attributes":{"ID":269955,"DIS_CODE":0,"TOWNNAME":"善化區","LI":"坐駕里","LIN":"13鄰","STREET":"自強路","SECT":" ","MAREA":" ","LANE":" ","ALLEY":" ","HOUSE_NO":"４２號","E_COORD97":178187.73000000001,"N_COORD97":2558753,"ADDRESS":"自強路４２號","OBJECTID":269950},"geometry":{"x":178187.73000000045,"y":2558753.0000000019}},{"attributes":{"ID":269956,"DIS_CODE":0,"TOWNNAME":"安南區","LI":"淵中里","LIN":"3鄰","STREET":"本淵路","SECT":" ","MAREA":" ","LANE":" ","ALLEY":" ","HOUSE_NO":"１００號","E_COORD97":165169.86082999999,"N_COORD97":2549975.6869600001,"ADDRESS":"本淵路１００號","OBJECTID":269951},"geometry":{"x":165169.8608300006,"y":2549975.6869610008}},{"attributes":{"ID":269957,"DIS_CODE":0,"TOWNNAME":"安南區","LI":"淵中里","LIN":"3鄰","STREET":"本淵路","SECT":" ","MAREA":" ","LANE":" ","ALLEY":" ","HOUSE_NO":"１０１號","E_COORD97":165128.36290899999,"N_COORD97":2549950.0753100002,"ADDRESS":"本淵路１０１號","OBJECTID":269952},"geometry":{"x":165128.3629090013,"y":2549950.0753080007}},{"attributes":{"ID":269958,"DIS_CODE":0,"TOWNNAME":"安南區","LI":"淵中里","LIN":"3鄰","STREET":"本淵路","SECT":" ","MAREA":" ","LANE":" ","ALLEY":" ","HOUSE_NO":"１０３號","E_COORD97":165118.83532499999,"N_COORD97":2549950.4986399999,"ADDRESS":"本淵路１０３號","OBJECTID":269953},"geometry":{"x":165118.83532499988,"y":2549950.4986409992}},{"attributes":{"ID":269959,"DIS_CODE":0,"TOWNNAME":"安南區","LI":"淵中里","LIN":"3鄰","STREET":"本淵路","SECT":" ","MAREA":" ","LANE":" ","ALLEY":" ","HOUSE_NO":"４０號","E_COORD97":165219.19253999999,"N_COORD97":2549974.6286200001,"ADDRESS":"本淵路４０號","OBJECTID":269954},"geometry":{"x":165219.19254000019,"y":2549974.6286200006}},{"attributes":{"ID":269960,"DIS_CODE":0,"TOWNNAME":"永康區","LI":"勝利里","LIN":"8鄰","STREET":"勝利街","SECT":" ","MAREA":" ","LANE":"２２巷","ALLEY":" ","HOUSE_NO":"４０號","E_COORD97":171288.70999999999,"N_COORD97":2544676.2599999998,"ADDRESS":"勝利街２２巷４０號","OBJECTID":269955},"geometry":{"x":171288.71000000183,"y":2544676.2599999998}},{"attributes":{"ID":269961,"DIS_CODE":0,"TOWNNAME":"永康區","LI":"復國里","LIN":"8鄰","STREET":"復國二路","SECT":" ","MAREA":" ","LANE":"６５巷","ALLEY":" ","HOUSE_NO":"５號","E_COORD97":172812.04000000001,"N_COORD97":2545163.5299999998,"ADDRESS":"復國二路６５巷５號","OBJECTID":269956},"geometry":{"x":172812.03999999911,"y":2545163.5300000012}},{"attributes":{"ID":269962,"DIS_CODE":0,"TOWNNAME":"新營區","LI":"五興里","LIN":"3鄰","STREET":" ","SECT":" ","MAREA":"五間厝","LANE":" ","ALLEY":" ","HOUSE_NO":"３１之２４號","E_COORD97":175715.76000000001,"N_COORD97":2575084.1099999999,"ADDRESS":"五間厝３１之２４號","OBJECTID":269957},"geometry":{"x":175715.75999999978,"y":2575084.1099999994}},{"attributes":{"ID":269963,"DIS_CODE":0,"TOWNNAME":"新營區","LI":"土庫里","LIN":"3鄰","STREET":" ","SECT":" ","MAREA":"土庫","LANE":" ","ALLEY":" ","HOUSE_NO":"２２號","E_COORD97":183135.78,"N_COORD97":2579889.3799999999,"ADDRESS":"土庫２２號","OBJECTID":269958},"geometry":{"x":183135.78000000026,"y":2579889.379999999}},{"attributes":{"ID":269964,"DIS_CODE":0,"TOWNNAME":"新營區","LI":"土庫里","LIN":"3鄰","STREET":" ","SECT":" ","MAREA":"土庫","LANE":" ","ALLEY":" ","HOUSE_NO":"２５號","E_COORD97":183181.81,"N_COORD97":2579891.3900000001,"ADDRESS":"土庫２５號","OBJECTID":269959},"geometry":{"x":183181.81000000052,"y":2579891.3900000006}},{"attributes":{"ID":269965,"DIS_CODE":0,"TOWNNAME":"善化區","LI":"北關里","LIN":"8鄰","STREET":"公園路","SECT":" ","MAREA":" ","LANE":"４３２巷","ALLEY":" ","HOUSE_NO":"７號","E_COORD97":177333.07000000001,"N_COORD97":2559307.9900000002,"ADDRESS":"公園路４３２巷７號","OBJECTID":269960},"geometry":{"x":177333.0700000003,"y":2559307.9900000002}},{"attributes":{"ID":269966,"DIS_CODE":0,"TOWNNAME":"善化區","LI":"北關里","LIN":"8鄰","STREET":"公園路","SECT":" ","MAREA":" ","LANE":"４３２巷","ALLEY":" ","HOUSE_NO":"９號","E_COORD97":177337.48999999999,"N_COORD97":2559307.1400000001,"ADDRESS":"公園路４３２巷９號","OBJECTID":269961},"geometry":{"x":177337.49000000115,"y":2559307.1400000006}},{"attributes":{"ID":269967,"DIS_CODE":0,"TOWNNAME":"善化區","LI":"北關里","LIN":"8鄰","STREET":"公園路","SECT":" ","MAREA":" ","LANE":"４３２巷","ALLEY":" ","HOUSE_NO":"１１號","E_COORD97":177341.91,"N_COORD97":2559306.29,"ADDRESS":"公園路４３２巷１１號","OBJECTID":269962},"geometry":{"x":177341.91000000015,"y":2559306.290000001}},{"attributes":{"ID":269968,"DIS_CODE":0,"TOWNNAME":"善化區","LI":"北關里","LIN":"8鄰","STREET":"公園路","SECT":" ","MAREA":" ","LANE":"４３２巷","ALLEY":" ","HOUSE_NO":"１３號","E_COORD97":177346.32999999999,"N_COORD97":2559305.4300000002,"ADDRESS":"公園路４３２巷１３號","OBJECTID":269963},"geometry":{"x":177346.33000000007,"y":2559305.4300000016}},{"attributes":{"ID":269969,"DIS_CODE":0,"TOWNNAME":"新營區","LI":"土庫里","LIN":"3鄰","STREET":" ","SECT":" ","MAREA":"土庫","LANE":" ","ALLEY":" ","HOUSE_NO":"２４號","E_COORD97":183168.44,"N_COORD97":2579875.9399999999,"ADDRESS":"土庫２４號","OBJECTID":269964},"geometry":{"x":183168.44000000041,"y":2579875.9399999995}},{"attributes":{"ID":269970,"DIS_CODE":0,"TOWNNAME":"善化區","LI":"南關里","LIN":"8鄰","STREET":"自由路","SECT":" ","MAREA":" ","LANE":"１７１巷","ALLEY":" ","HOUSE_NO":"７號","E_COORD97":176987.95000000001,"N_COORD97":2558844.5600000001,"ADDRESS":"自由路１７１巷７號","OBJECTID":269965},"geometry":{"x":176987.95000000019,"y":2558844.5600000024}},{"attributes":{"ID":269971,"DIS_CODE":0,"TOWNNAME":"新營區","LI":"土庫里","LIN":"3鄰","STREET":" ","SECT":" ","MAREA":"土庫","LANE":" ","ALLEY":" ","HOUSE_NO":"２３之８號","E_COORD97":183170.03,"N_COORD97":2579900.3599999999,"ADDRESS":"土庫２３之８號","OBJECTID":269966},"geometry":{"x":183170.03000000212,"y":2579900.3599999994}},{"attributes":{"ID":269972,"DIS_CODE":0,"TOWNNAME":"永康區","LI":"大灣里","LIN":"8鄰","STREET":"大安街","SECT":" ","MAREA":" ","LANE":"３１８巷","ALLEY":" ","HOUSE_NO":"２５號","E_COORD97":174741.60999999999,"N_COORD97":2545549.4900000002,"ADDRESS":"大安街３１８巷２５號","OBJECTID":269967},"geometry":{"x":174741.61000000127,"y":2545549.4900000002}},{"attributes":{"ID":269973,"DIS_CODE":0,"TOWNNAME":"新營區","LI":"太南里","LIN":"3鄰","STREET":" ","SECT":" ","MAREA":"太子宮","LANE":" ","ALLEY":" ","HOUSE_NO":"１５７之２號","E_COORD97":176234.04999999999,"N_COORD97":2577073.8500000001,"ADDRESS":"太子宮１５７之２號","OBJECTID":269968},"geometry":{"x":176234.04999999981,"y":2577073.8499999996}},{"attributes":{"ID":269974,"DIS_CODE":0,"TOWNNAME":"新營區","LI":"太南里","LIN":"3鄰","STREET":" ","SECT":" ","MAREA":"太子宮","LANE":" ","ALLEY":" ","HOUSE_NO":"１５７之１２號","E_COORD97":176279.23999999999,"N_COORD97":2577065.8799999999,"ADDRESS":"太子宮１５７之１２號","OBJECTID":269969},"geometry":{"x":176279.23999999929,"y":2577065.879999999}},{"attributes":{"ID":269975,"DIS_CODE":0,"TOWNNAME":"永康區","LI":"大橋里","LIN":"8鄰","STREET":"大橋三街","SECT":" ","MAREA":" ","LANE":"１９９巷","ALLEY":" ","HOUSE_NO":"９２號之１","E_COORD97":170988.97,"N_COORD97":2546908.7000000002,"ADDRESS":"大橋三街１９９巷９２號之１","OBJECTID":269970},"geometry":{"x":170988.97000000067,"y":2546908.7000000011}},{"attributes":{"ID":269976,"DIS_CODE":0,"TOWNNAME":"永康區","LI":"大橋里","LIN":"8鄰","STREET":"大橋三街","SECT":" ","MAREA":" ","LANE":"１９９巷","ALLEY":" ","HOUSE_NO":"７６號","E_COORD97":170970.13,"N_COORD97":2546880.9199999999,"ADDRESS":"大橋三街１９９巷７６號","OBJECTID":269971},"geometry":{"x":170970.12999999989,"y":2546880.9200000018}},{"attributes":{"ID":269977,"DIS_CODE":0,"TOWNNAME":"安南區","LI":"安富里","LIN":"34鄰","STREET":"府安路","SECT":"五段","MAREA":" ","LANE":" ","ALLEY":" ","HOUSE_NO":"２２６號","E_COORD97":167499.67000000001,"N_COORD97":2546914.5899999999,"ADDRESS":"府安路五段２２６號","OBJECTID":269972},"geometry":{"x":167499.66999999993,"y":2546914.5899999999}},{"attributes":{"ID":269978,"DIS_CODE":0,"TOWNNAME":"安南區","LI":"安富里","LIN":"34鄰","STREET":"府安路","SECT":"五段","MAREA":" ","LANE":" ","ALLEY":" ","HOUSE_NO":"２２０號","E_COORD97":167529.09,"N_COORD97":2546926.3999999999,"ADDRESS":"府安路五段２２０號","OBJECTID":269973},"geometry":{"x":167529.08999999985,"y":2546926.4000000004}},{"attributes":{"ID":269979,"DIS_CODE":0,"TOWNNAME":"安南區","LI":"安富里","LIN":"34鄰","STREET":"府安路","SECT":"五段","MAREA":" ","LANE":" ","ALLEY":" ","HOUSE_NO":"２２１號","E_COORD97":167524.62,"N_COORD97":2546923.8500000001,"ADDRESS":"府安路五段２２１號","OBJECTID":269974},"geometry":{"x":167524.62000000104,"y":2546923.8500000034}},{"attributes":{"ID":269980,"DIS_CODE":0,"TOWNNAME":"新營區","LI":"土庫里","LIN":"3鄰","STREET":" ","SECT":" ","MAREA":"土庫","LANE":" ","ALLEY":" ","HOUSE_NO":"２３號","E_COORD97":183149,"N_COORD97":2579873.8199999998,"ADDRESS":"土庫２３號","OBJECTID":269975},"geometry":{"x":183149,"y":2579873.8200000022}},{"attributes":{"ID":269981,"DIS_CODE":0,"TOWNNAME":"新營區","LI":"土庫里","LIN":"3鄰","STREET":" ","SECT":" ","MAREA":"土庫","LANE":" ","ALLEY":" ","HOUSE_NO":"２３之２號","E_COORD97":183160.70999999999,"N_COORD97":2579873.8199999998,"ADDRESS":"土庫２３之２號","OBJECTID":269976},"geometry":{"x":183160.71000000089,"y":2579873.8200000022}},{"attributes":{"ID":269982,"DIS_CODE":0,"TOWNNAME":"新營區","LI":"土庫里","LIN":"3鄰","STREET":" ","SECT":" ","MAREA":"土庫","LANE":" ","ALLEY":" ","HOUSE_NO":"２２－１號","E_COORD97":183141.63,"N_COORD97":2579877.9900000002,"ADDRESS":"土庫２２－１號","OBJECTID":269977},"geometry":{"x":183141.62999999989,"y":2579877.9900000039}},{"attributes":{"ID":269983,"DIS_CODE":0,"TOWNNAME":"新營區","LI":"五興里","LIN":"3鄰","STREET":" ","SECT":" ","MAREA":"五間厝","LANE":" ","ALLEY":" ","HOUSE_NO":"３１之３６號","E_COORD97":175699.07000000001,"N_COORD97":2575098.0899999999,"ADDRESS":"五間厝３１之３６號","OBJECTID":269978},"geometry":{"x":175699.07000000216,"y":2575098.0899999999}},{"attributes":{"ID":269984,"DIS_CODE":0,"TOWNNAME":"永康區","LI":"大橋里","LIN":"8鄰","STREET":"大橋三街","SECT":" ","MAREA":" ","LANE":"１９９巷","ALLEY":" ","HOUSE_NO":"９０號","E_COORD97":170993.76000000001,"N_COORD97":2546895,"ADDRESS":"大橋三街１９９巷９０號","OBJECTID":269979},"geometry":{"x":170993.76000000071,"y":2546895}},{"attributes":{"ID":269985,"DIS_CODE":0,"TOWNNAME":"新營區","LI":"角帶里","LIN":"3鄰","STREET":" ","SECT":" ","MAREA":"角帶圍","LANE":" ","ALLEY":" ","HOUSE_NO":"３４之２號","E_COORD97":174859.94,"N_COORD97":2575938.0800000001,"ADDRESS":"角帶圍３４之２號","OBJECTID":269980},"geometry":{"x":174859.94000000134,"y":2575938.0800000019}},{"attributes":{"ID":269986,"DIS_CODE":0,"TOWNNAME":"新營區","LI":"姑爺里","LIN":"3鄰","STREET":" ","SECT":" ","MAREA":"姑爺","LANE":" ","ALLEY":" ","HOUSE_NO":"２９之１０號","E_COORD97":174206.73000000001,"N_COORD97":2574601.3799999999,"ADDRESS":"姑爺２９之１０號","OBJECTID":269981},"geometry":{"x":174206.73000000138,"y":2574601.379999999}},{"attributes":{"ID":269987,"DIS_CODE":0,"TOWNNAME":"楠西區","LI":"龜丹里","LIN":"3鄰","STREET":" ","SECT":" ","MAREA":"龜丹","LANE":" ","ALLEY":" ","HOUSE_NO":"３９號之１","E_COORD97":198152.17999999999,"N_COORD97":2559261.2999999998,"ADDRESS":"龜丹３９號之１","OBJECTID":269982},"geometry":{"x":198152.18000000156,"y":2559261.3000000007}},{"attributes":{"ID":269988,"DIS_CODE":0,"TOWNNAME":"楠西區","LI":"密枝里","LIN":"3鄰","STREET":" ","SECT":" ","MAREA":"密枝","LANE":" ","ALLEY":" ","HOUSE_NO":"３１號","E_COORD97":200196.07000000001,"N_COORD97":2566816.2799999998,"ADDRESS":"密枝３１號","OBJECTID":269983},"geometry":{"x":200196.0700000003,"y":2566816.2800000012}},{"attributes":{"ID":269989,"DIS_CODE":0,"TOWNNAME":"楠西區","LI":"照興里","LIN":"3鄰","STREET":" ","SECT":" ","MAREA":"興北","LANE":" ","ALLEY":" ","HOUSE_NO":"２６號","E_COORD97":197020.67000000001,"N_COORD97":2567649.25,"ADDRESS":"興北２６號","OBJECTID":269984},"geometry":{"x":197020.67000000086,"y":2567649.25}},{"attributes":{"ID":269990,"DIS_CODE":0,"TOWNNAME":"永康區","LI":"大灣里","LIN":"8鄰","STREET":"民族路","SECT":" ","MAREA":" ","LANE":"３９６巷","ALLEY":" ","HOUSE_NO":"３０號","E_COORD97":174780.04999999999,"N_COORD97":2545475.6699999999,"ADDRESS":"民族路３９６巷３０號","OBJECTID":269985},"geometry":{"x":174780.05000000168,"y":2545475.6700000018}},{"attributes":{"ID":269991,"DIS_CODE":0,"TOWNNAME":"楠西區","LI":"鹿田里","LIN":"3鄰","STREET":" ","SECT":" ","MAREA":"鹿陶洋","LANE":" ","ALLEY":" ","HOUSE_NO":"３０號","E_COORD97":197645.82000000001,"N_COORD97":2561547.25,"ADDRESS":"鹿陶洋３０號","OBJECTID":269986},"geometry":{"x":197645.82000000123,"y":2561547.2499999981}},{"attributes":{"ID":269992,"DIS_CODE":0,"TOWNNAME":"楠西區","LI":"密枝里","LIN":"3鄰","STREET":" ","SECT":" ","MAREA":"密枝","LANE":" ","ALLEY":" ","HOUSE_NO":"２６號","E_COORD97":200228.87,"N_COORD97":2566806.2799999998,"ADDRESS":"密枝２６號","OBJECTID":269987},"geometry":{"x":200228.87000000011,"y":2566806.2800000012}},{"attributes":{"ID":269993,"DIS_CODE":0,"TOWNNAME":"永康區","LI":"大橋里","LIN":"8鄰","STREET":"大橋三街","SECT":" ","MAREA":" ","LANE":"１９９巷","ALLEY":" ","HOUSE_NO":"１０２號","E_COORD97":171007.29999999999,"N_COORD97":2546905.9199999999,"ADDRESS":"大橋三街１９９巷１０２號","OBJECTID":269988},"geometry":{"x":171007.29999999981,"y":2546905.9199999999}},{"attributes":{"ID":269994,"DIS_CODE":0,"TOWNNAME":"永康區","LI":"大灣里","LIN":"8鄰","STREET":"民族路","SECT":" ","MAREA":" ","LANE":"３９６巷","ALLEY":" ","HOUSE_NO":"１號","E_COORD97":174766.41,"N_COORD97":2545385.29,"ADDRESS":"民族路３９６巷１號","OBJECTID":269989},"geometry":{"x":174766.41000000108,"y":2545385.290000001}},{"attributes":{"ID":269995,"DIS_CODE":0,"TOWNNAME":"楠西區","LI":"密枝里","LIN":"3鄰","STREET":" ","SECT":" ","MAREA":"密枝","LANE":" ","ALLEY":" ","HOUSE_NO":"３０號之１","E_COORD97":200183.29999999999,"N_COORD97":2566825.2999999998,"ADDRESS":"密枝３０號之１","OBJECTID":269990},"geometry":{"x":200183.29999999981,"y":2566825.3000000007}},{"attributes":{"ID":269996,"DIS_CODE":0,"TOWNNAME":"永康區","LI":"大灣里","LIN":"8鄰","STREET":"民族路","SECT":" ","MAREA":" ","LANE":"３９６巷","ALLEY":" ","HOUSE_NO":"１９號","E_COORD97":174754.37,"N_COORD97":2545453.96,"ADDRESS":"民族路３９６巷１９號","OBJECTID":269991},"geometry":{"x":174754.37000000197,"y":2545453.9600000028}},{"attributes":{"ID":269997,"DIS_CODE":0,"TOWNNAME":"楠西區","LI":"照興里","LIN":"3鄰","STREET":" ","SECT":" ","MAREA":"興北","LANE":" ","ALLEY":" ","HOUSE_NO":"２９號","E_COORD97":195518.17000000001,"N_COORD97":2563264.25,"ADDRESS":"興北２９號","OBJECTID":269992},"geometry":{"x":195518.17000000179,"y":2563264.2500000019}},{"attributes":{"ID":269998,"DIS_CODE":0,"TOWNNAME":"安南區","LI":"安富里","LIN":"8鄰","STREET":"郡安路","SECT":"五段","MAREA":" ","LANE":"１８４巷","ALLEY":" ","HOUSE_NO":"１００號","E_COORD97":167508,"N_COORD97":2547502.7599999998,"ADDRESS":"郡安路五段１８４巷１００號","OBJECTID":269993},"geometry":{"x":167507.99999999907,"y":2547502.7599999998}},{"attributes":{"ID":269999,"DIS_CODE":0,"TOWNNAME":"楠西區","LI":"照興里","LIN":"3鄰","STREET":" ","SECT":" ","MAREA":"興北","LANE":" ","ALLEY":" ","HOUSE_NO":"３７號","E_COORD97":195606.67000000001,"N_COORD97":2563204.25,"ADDRESS":"興北３７號","OBJECTID":269994},"geometry":{"x":195606.67000000086,"y":2563204.25}},{"attributes":{"ID":270000,"DIS_CODE":0,"TOWNNAME":"楠西區","LI":"鹿田里","LIN":"3鄰","STREET":" ","SECT":" ","MAREA":"鹿陶洋","LANE":" ","ALLEY":" ","HOUSE_NO":"３４號","E_COORD97":197771.51999999999,"N_COORD97":2561537.25,"ADDRESS":"鹿陶洋３４號","OBJECTID":269995},"geometry":{"x":197771.51999999955,"y":2561537.2500000037}},{"attributes":{"ID":270001,"DIS_CODE":0,"TOWNNAME":"楠西區","LI":"密枝里","LIN":"3鄰","STREET":" ","SECT":" ","MAREA":"密枝","LANE":" ","ALLEY":" ","HOUSE_NO":"２７號之１","E_COORD97":200223.20000000001,"N_COORD97":2566869.2999999998,"ADDRESS":"密枝２７號之１","OBJECTID":269996},"geometry":{"x":200223.20000000112,"y":2566869.3000000007}},{"attributes":{"ID":270002,"DIS_CODE":0,"TOWNNAME":"安南區","LI":"安富里","LIN":"8鄰","STREET":"郡安路","SECT":"五段","MAREA":" ","LANE":"１８４巷","ALLEY":" ","HOUSE_NO":"８８號","E_COORD97":167501.92999999999,"N_COORD97":2547531.3500000001,"ADDRESS":"郡安路五段１８４巷８８號","OBJECTID":269997},"geometry":{"x":167501.93000000063,"y":2547531.3500000015}},{"attributes":{"ID":270003,"DIS_CODE":0,"TOWNNAME":"安南區","LI":"安富里","LIN":"8鄰","STREET":"郡安路","SECT":"五段","MAREA":" ","LANE":"１８４巷","ALLEY":" ","HOUSE_NO":"９３號","E_COORD97":167526.53,"N_COORD97":2547520,"ADDRESS":"郡安路五段１８４巷９３號","OBJECTID":269998},"geometry":{"x":167526.53000000026,"y":2547520.0000000037}},{"attributes":{"ID":270004,"DIS_CODE":0,"TOWNNAME":"北區","LI":"文成里","LIN":"13鄰","STREET":"海安路","SECT":"三段","MAREA":" ","LANE":"３５７巷","ALLEY":" ","HOUSE_NO":"１６號","E_COORD97":167880.07000000001,"N_COORD97":2545479.79,"ADDRESS":"海安路三段３５７巷１６號","OBJECTID":269999},"geometry":{"x":167880.0700000003,"y":2545479.790000001}},{"attributes":{"ID":270005,"DIS_CODE":0,"TOWNNAME":"北區","LI":"文成里","LIN":"13鄰","STREET":"海安路","SECT":"三段","MAREA":" ","LANE":"３５７巷","ALLEY":" ","HOUSE_NO":"１８號","E_COORD97":167875.31,"N_COORD97":2545479.6299999999,"ADDRESS":"海安路三段３５７巷１８號","OBJECTID":270000},"geometry":{"x":167875.31000000052,"y":2545479.629999999}}]}