{"displayFieldName":"TOWNNAME","fieldAliases":{"ID":"ID","DIS_CODE":"DIS_CODE","TOWNNAME":"TOWNNAME","LI":"LI","LIN":"LIN","STREET":"STREET","SECT":"SECT","MAREA":"MAREA","LANE":"LANE","ALLEY":"ALLEY","HOUSE_NO":"HOUSE_NO","E_COORD97":"E_COORD97","N_COORD97":"N_COORD97","ADDRESS":"ADDRESS","OBJECTID":"OBJECTID"},"geometryType":"esriGeometryPoint","spatialReference":{"wkid":102443,"latestWkid":3826},"fields":[{"name":"ID","type":"esriFieldTypeDouble","alias":"ID"},{"name":"DIS_CODE","type":"esriFieldTypeInteger","alias":"DIS_CODE"},{"name":"TOWNNAME","type":"esriFieldTypeString","alias":"TOWNNAME","length":8},{"name":"LI","type":"esriFieldTypeString","alias":"LI","length":8},{"name":"LIN","type":"esriFieldTypeString","alias":"LIN","length":12},{"name":"STREET","type":"esriFieldTypeString","alias":"STREET","length":20},{"name":"SECT","type":"esriFieldTypeString","alias":"SECT","length":8},{"name":"MAREA","type":"esriFieldTypeString","alias":"MAREA","length":12},{"name":"LANE","type":"esriFieldTypeString","alias":"LANE","length":10},{"name":"ALLEY","type":"esriFieldTypeString","alias":"ALLEY","length":10},{"name":"HOUSE_NO","type":"esriFieldTypeString","alias":"HOUSE_NO","length":20},{"name":"E_COORD97","type":"esriFieldTypeDouble","alias":"E_COORD97"},{"name":"N_COORD97","type":"esriFieldTypeDouble","alias":"N_COORD97"},{"name":"ADDRESS","type":"esriFieldTypeString","alias":"ADDRESS","length":50},{"name":"OBJECTID","type":"esriFieldTypeOID","alias":"OBJECTID"}],"features":[{"attributes":{"ID":407625,"DIS_CODE":0,"TOWNNAME":"北區","LI":"成德里","LIN":"22鄰","STREET":"育成路","SECT":" ","MAREA":" ","LANE":"３１７巷","ALLEY":" ","HOUSE_NO":"２２號","E_COORD97":168420.26000000001,"N_COORD97":2546848.7999999998,"ADDRESS":"育成路３１７巷２２號","OBJECTID":407601},"geometry":{"x":168420.26000000071,"y":2546848.8000000026}},{"attributes":{"ID":407626,"DIS_CODE":0,"TOWNNAME":"北區","LI":"成德里","LIN":"22鄰","STREET":"育成路","SECT":" ","MAREA":" ","LANE":"３１７巷","ALLEY":" ","HOUSE_NO":"２６號","E_COORD97":168415.01999999999,"N_COORD97":2546847.21,"ADDRESS":"育成路３１７巷２６號","OBJECTID":407602},"geometry":{"x":168415.02000000048,"y":2546847.2100000009}},{"attributes":{"ID":407627,"DIS_CODE":0,"TOWNNAME":"北區","LI":"成德里","LIN":"22鄰","STREET":"育成路","SECT":" ","MAREA":" ","LANE":"３１７巷","ALLEY":" ","HOUSE_NO":"２８號","E_COORD97":168408.51000000001,"N_COORD97":2546844.9900000002,"ADDRESS":"育成路３１７巷２８號","OBJECTID":407603},"geometry":{"x":168408.51000000071,"y":2546844.9900000002}},{"attributes":{"ID":407628,"DIS_CODE":0,"TOWNNAME":"北區","LI":"成德里","LIN":"22鄰","STREET":"育成路","SECT":" ","MAREA":" ","LANE":"３１７巷","ALLEY":" ","HOUSE_NO":"２號","E_COORD97":168465.13,"N_COORD97":2546860.3900000001,"ADDRESS":"育成路３１７巷２號","OBJECTID":407604},"geometry":{"x":168465.13000000082,"y":2546860.3900000025}},{"attributes":{"ID":407629,"DIS_CODE":0,"TOWNNAME":"北區","LI":"成德里","LIN":"22鄰","STREET":"育成路","SECT":" ","MAREA":" ","LANE":"３１７巷","ALLEY":" ","HOUSE_NO":"３０號","E_COORD97":168401.04999999999,"N_COORD97":2546842.7599999998,"ADDRESS":"育成路３１７巷３０號","OBJECTID":407605},"geometry":{"x":168401.05000000168,"y":2546842.7599999998}},{"attributes":{"ID":407630,"DIS_CODE":0,"TOWNNAME":"北區","LI":"成德里","LIN":"22鄰","STREET":"育成路","SECT":" ","MAREA":" ","LANE":"３１７巷","ALLEY":" ","HOUSE_NO":"３２號","E_COORD97":168391.37,"N_COORD97":2546839.9100000001,"ADDRESS":"育成路３１７巷３２號","OBJECTID":407606},"geometry":{"x":168391.37000000104,"y":2546839.910000002}},{"attributes":{"ID":407631,"DIS_CODE":0,"TOWNNAME":"北區","LI":"成德里","LIN":"22鄰","STREET":"育成路","SECT":" ","MAREA":" ","LANE":"３１７巷","ALLEY":" ","HOUSE_NO":"３６號","E_COORD97":168381.37,"N_COORD97":2546836.5699999998,"ADDRESS":"育成路３１７巷３６號","OBJECTID":407607},"geometry":{"x":168381.37000000011,"y":2546836.5700000003}},{"attributes":{"ID":407632,"DIS_CODE":0,"TOWNNAME":"北區","LI":"成德里","LIN":"22鄰","STREET":"育成路","SECT":" ","MAREA":" ","LANE":"３１７巷","ALLEY":" ","HOUSE_NO":"３８號","E_COORD97":168373.42999999999,"N_COORD97":2546834.1899999999,"ADDRESS":"育成路３１７巷３８號","OBJECTID":407608},"geometry":{"x":168373.43000000063,"y":2546834.1900000013}},{"attributes":{"ID":407633,"DIS_CODE":0,"TOWNNAME":"北區","LI":"成德里","LIN":"22鄰","STREET":"育成路","SECT":" ","MAREA":" ","LANE":"３１７巷","ALLEY":" ","HOUSE_NO":"６號","E_COORD97":168460.60999999999,"N_COORD97":2546858.77,"ADDRESS":"育成路３１７巷６號","OBJECTID":407609},"geometry":{"x":168460.61000000127,"y":2546858.7699999996}},{"attributes":{"ID":407634,"DIS_CODE":0,"TOWNNAME":"北區","LI":"成德里","LIN":"22鄰","STREET":"育成路","SECT":" ","MAREA":" ","LANE":"３１７巷","ALLEY":" ","HOUSE_NO":"８號","E_COORD97":168456.81,"N_COORD97":2546857.8599999999,"ADDRESS":"育成路３１７巷８號","OBJECTID":407610},"geometry":{"x":168456.81000000052,"y":2546857.8599999994}},{"attributes":{"ID":407635,"DIS_CODE":0,"TOWNNAME":"關廟區","LI":"北勢里","LIN":"22鄰","STREET":"仁愛路","SECT":" ","MAREA":" ","LANE":"１７６巷","ALLEY":" ","HOUSE_NO":"８號","E_COORD97":181411.29000000001,"N_COORD97":2540367.2799999998,"ADDRESS":"仁愛路１７６巷８號","OBJECTID":407611},"geometry":{"x":181411.29000000004,"y":2540367.2800000012}},{"attributes":{"ID":407636,"DIS_CODE":0,"TOWNNAME":"關廟區","LI":"北勢里","LIN":"22鄰","STREET":"仁愛路","SECT":" ","MAREA":" ","LANE":"１７６巷","ALLEY":" ","HOUSE_NO":"１２號","E_COORD97":181426.73999999999,"N_COORD97":2540387.2799999998,"ADDRESS":"仁愛路１７６巷１２號","OBJECTID":407612},"geometry":{"x":181426.74000000115,"y":2540387.2800000031}},{"attributes":{"ID":407637,"DIS_CODE":0,"TOWNNAME":"關廟區","LI":"北勢里","LIN":"22鄰","STREET":"仁愛路","SECT":" ","MAREA":" ","LANE":"１７６巷","ALLEY":" ","HOUSE_NO":"１８號","E_COORD97":181435.54000000001,"N_COORD97":2540385.2799999998,"ADDRESS":"仁愛路１７６巷１８號","OBJECTID":407613},"geometry":{"x":181435.5400000019,"y":2540385.2800000012}},{"attributes":{"ID":407638,"DIS_CODE":0,"TOWNNAME":"關廟區","LI":"北勢里","LIN":"22鄰","STREET":"仁愛路","SECT":" ","MAREA":" ","LANE":"１７６巷","ALLEY":" ","HOUSE_NO":"２２號","E_COORD97":181431.34,"N_COORD97":2540356.2799999998,"ADDRESS":"仁愛路１７６巷２２號","OBJECTID":407614},"geometry":{"x":181431.33999999985,"y":2540356.2799999993}},{"attributes":{"ID":407639,"DIS_CODE":0,"TOWNNAME":"關廟區","LI":"北勢里","LIN":"22鄰","STREET":"仁愛路","SECT":" ","MAREA":" ","LANE":"１９８巷","ALLEY":" ","HOUSE_NO":"７號","E_COORD97":181433.19,"N_COORD97":2540448.27,"ADDRESS":"仁愛路１９８巷７號","OBJECTID":407615},"geometry":{"x":181433.19000000227,"y":2540448.2699999977}},{"attributes":{"ID":407640,"DIS_CODE":0,"TOWNNAME":"關廟區","LI":"北勢里","LIN":"22鄰","STREET":"仁愛路","SECT":" ","MAREA":" ","LANE":"１９８巷","ALLEY":" ","HOUSE_NO":"２３號","E_COORD97":181462.04000000001,"N_COORD97":2540423.2799999998,"ADDRESS":"仁愛路１９８巷２３號","OBJECTID":407616},"geometry":{"x":181462.04000000004,"y":2540423.2799999993}},{"attributes":{"ID":407641,"DIS_CODE":0,"TOWNNAME":"關廟區","LI":"北勢里","LIN":"22鄰","STREET":"仁愛路","SECT":" ","MAREA":" ","LANE":"１７６巷","ALLEY":" ","HOUSE_NO":"２０號","E_COORD97":181440.23999999999,"N_COORD97":2540384.27,"ADDRESS":"仁愛路１７６巷２０號","OBJECTID":407617},"geometry":{"x":181440.24000000115,"y":2540384.2700000033}},{"attributes":{"ID":407642,"DIS_CODE":0,"TOWNNAME":"關廟區","LI":"北勢里","LIN":"22鄰","STREET":"仁愛路","SECT":" ","MAREA":" ","LANE":"１７６巷","ALLEY":" ","HOUSE_NO":"２９號","E_COORD97":181440.54000000001,"N_COORD97":2540357.2799999998,"ADDRESS":"仁愛路１７６巷２９號","OBJECTID":407618},"geometry":{"x":181440.53999999911,"y":2540357.2800000012}},{"attributes":{"ID":407643,"DIS_CODE":0,"TOWNNAME":"中西區","LI":"公正里","LIN":"9鄰","STREET":"民族路","SECT":"二段","MAREA":" ","LANE":"５７巷","ALLEY":" ","HOUSE_NO":"１８號","E_COORD97":169029.79000000001,"N_COORD97":2543784.6200000001,"ADDRESS":"民族路二段５７巷１８號","OBJECTID":407619},"geometry":{"x":169029.79000000004,"y":2543784.6200000029}},{"attributes":{"ID":407644,"DIS_CODE":0,"TOWNNAME":"中西區","LI":"公正里","LIN":"9鄰","STREET":"民族路","SECT":"二段","MAREA":" ","LANE":"５７巷","ALLEY":" ","HOUSE_NO":"２０號","E_COORD97":169030.5,"N_COORD97":2543793.6899999999,"ADDRESS":"民族路二段５７巷２０號","OBJECTID":407620},"geometry":{"x":169030.50000000186,"y":2543793.6899999995}},{"attributes":{"ID":407645,"DIS_CODE":0,"TOWNNAME":"中西區","LI":"公正里","LIN":"9鄰","STREET":"民族路","SECT":"二段","MAREA":" ","LANE":"５７巷","ALLEY":" ","HOUSE_NO":"２２號","E_COORD97":169030.5,"N_COORD97":2543797.6000000001,"ADDRESS":"民族路二段５７巷２２號","OBJECTID":407621},"geometry":{"x":169030.50000000186,"y":2543797.6000000015}},{"attributes":{"ID":407646,"DIS_CODE":0,"TOWNNAME":"中西區","LI":"公正里","LIN":"9鄰","STREET":"民族路","SECT":"二段","MAREA":" ","LANE":"５７巷","ALLEY":" ","HOUSE_NO":"２２號之１","E_COORD97":169030.14999999999,"N_COORD97":2543801.6800000002,"ADDRESS":"民族路二段５７巷２２號之１","OBJECTID":407622},"geometry":{"x":169030.1500000013,"y":2543801.6799999997}},{"attributes":{"ID":407647,"DIS_CODE":0,"TOWNNAME":"中西區","LI":"公正里","LIN":"9鄰","STREET":"民族路","SECT":"二段","MAREA":" ","LANE":"５７巷","ALLEY":" ","HOUSE_NO":"２４號","E_COORD97":169031.57000000001,"N_COORD97":2543806.48,"ADDRESS":"民族路二段５７巷２４號","OBJECTID":407623},"geometry":{"x":169031.5700000003,"y":2543806.4800000004}},{"attributes":{"ID":407648,"DIS_CODE":0,"TOWNNAME":"中西區","LI":"公正里","LIN":"9鄰","STREET":"民族路","SECT":"二段","MAREA":" ","LANE":"５７巷","ALLEY":" ","HOUSE_NO":"２６號","E_COORD97":169032.10999999999,"N_COORD97":2543814.48,"ADDRESS":"民族路二段５７巷２６號","OBJECTID":407624},"geometry":{"x":169032.11000000127,"y":2543814.4799999986}},{"attributes":{"ID":407649,"DIS_CODE":0,"TOWNNAME":"歸仁區","LI":"新厝里","LIN":"22鄰","STREET":"大成六街","SECT":" ","MAREA":" ","LANE":"３３巷","ALLEY":" ","HOUSE_NO":"２號","E_COORD97":177594.84,"N_COORD97":2540265.1800000002,"ADDRESS":"大成六街３３巷２號","OBJECTID":407625},"geometry":{"x":177594.83999999985,"y":2540265.1799999997}},{"attributes":{"ID":407650,"DIS_CODE":0,"TOWNNAME":"中西區","LI":"公正里","LIN":"9鄰","STREET":"民族路","SECT":"二段","MAREA":" ","LANE":"５７巷","ALLEY":" ","HOUSE_NO":"２８號","E_COORD97":169048.48000000001,"N_COORD97":2543808.79,"ADDRESS":"民族路二段５７巷２８號","OBJECTID":407626},"geometry":{"x":169048.48000000138,"y":2543808.790000001}},{"attributes":{"ID":407651,"DIS_CODE":0,"TOWNNAME":"中西區","LI":"公正里","LIN":"9鄰","STREET":"民族路","SECT":"二段","MAREA":" ","LANE":"５７巷","ALLEY":" ","HOUSE_NO":"３０號","E_COORD97":169045.10000000001,"N_COORD97":2543794.2200000002,"ADDRESS":"民族路二段５７巷３０號","OBJECTID":407627},"geometry":{"x":169045.10000000056,"y":2543794.2200000025}},{"attributes":{"ID":407652,"DIS_CODE":0,"TOWNNAME":"中西區","LI":"公正里","LIN":"9鄰","STREET":"民族路","SECT":"二段","MAREA":" ","LANE":"５７巷","ALLEY":" ","HOUSE_NO":"３２號","E_COORD97":169044.73999999999,"N_COORD97":2543784.7999999998,"ADDRESS":"民族路二段５７巷３２號","OBJECTID":407628},"geometry":{"x":169044.74000000115,"y":2543784.8000000007}},{"attributes":{"ID":407653,"DIS_CODE":0,"TOWNNAME":"中西區","LI":"公正里","LIN":"9鄰","STREET":"民族路","SECT":"二段","MAREA":" ","LANE":"５７巷","ALLEY":" ","HOUSE_NO":"３６號","E_COORD97":169070.48000000001,"N_COORD97":2543799.2000000002,"ADDRESS":"民族路二段５７巷３６號","OBJECTID":407629},"geometry":{"x":169070.48000000138,"y":2543799.2000000011}},{"attributes":{"ID":407654,"DIS_CODE":0,"TOWNNAME":"中西區","LI":"公正里","LIN":"9鄰","STREET":"民族路","SECT":"二段","MAREA":" ","LANE":"５７巷","ALLEY":" ","HOUSE_NO":"３８號","E_COORD97":169071.44,"N_COORD97":2543811.8199999998,"ADDRESS":"民族路二段５７巷３８號","OBJECTID":407630},"geometry":{"x":169071.44000000041,"y":2543811.8200000003}},{"attributes":{"ID":407655,"DIS_CODE":0,"TOWNNAME":"中西區","LI":"公正里","LIN":"9鄰","STREET":"民族路","SECT":"二段","MAREA":" ","LANE":"５７巷","ALLEY":" ","HOUSE_NO":"３８號之１","E_COORD97":169071.44,"N_COORD97":2543809.8599999999,"ADDRESS":"民族路二段５７巷３８號之１","OBJECTID":407631},"geometry":{"x":169071.44000000041,"y":2543809.8599999994}},{"attributes":{"ID":407656,"DIS_CODE":0,"TOWNNAME":"中西區","LI":"公正里","LIN":"9鄰","STREET":"民族路","SECT":"二段","MAREA":" ","LANE":"５７巷","ALLEY":" ","HOUSE_NO":"３８號之２","E_COORD97":169071.44,"N_COORD97":2543807.73,"ADDRESS":"民族路二段５７巷３８號之２","OBJECTID":407632},"geometry":{"x":169071.44000000041,"y":2543807.7300000023}},{"attributes":{"ID":407657,"DIS_CODE":0,"TOWNNAME":"北區","LI":"成德里","LIN":"22鄰","STREET":"北安路","SECT":"一段","MAREA":" ","LANE":"３４１巷","ALLEY":" ","HOUSE_NO":"３４號","E_COORD97":168436.17000000001,"N_COORD97":2546775.9399999999,"ADDRESS":"北安路一段３４１巷３４號","OBJECTID":407633},"geometry":{"x":168436.17000000086,"y":2546775.9399999995}},{"attributes":{"ID":407658,"DIS_CODE":0,"TOWNNAME":"北區","LI":"成德里","LIN":"22鄰","STREET":"北安路","SECT":"一段","MAREA":" ","LANE":"３４１巷","ALLEY":" ","HOUSE_NO":"３６號","E_COORD97":168430.32999999999,"N_COORD97":2546773.2799999998,"ADDRESS":"北安路一段３４１巷３６號","OBJECTID":407634},"geometry":{"x":168430.33000000101,"y":2546773.2799999993}},{"attributes":{"ID":407659,"DIS_CODE":0,"TOWNNAME":"北區","LI":"成德里","LIN":"22鄰","STREET":"北安路","SECT":"一段","MAREA":" ","LANE":"３４１巷","ALLEY":" ","HOUSE_NO":"３８號","E_COORD97":168424.73999999999,"N_COORD97":2546770.9900000002,"ADDRESS":"北安路一段３４１巷３８號","OBJECTID":407635},"geometry":{"x":168424.74000000022,"y":2546770.9900000039}},{"attributes":{"ID":407660,"DIS_CODE":0,"TOWNNAME":"北區","LI":"成德里","LIN":"22鄰","STREET":"北安路","SECT":"一段","MAREA":" ","LANE":"３４１巷","ALLEY":" ","HOUSE_NO":"４０號","E_COORD97":168413.42999999999,"N_COORD97":2546766.04,"ADDRESS":"北安路一段３４１巷４０號","OBJECTID":407636},"geometry":{"x":168413.43000000156,"y":2546766.0400000028}},{"attributes":{"ID":407661,"DIS_CODE":0,"TOWNNAME":"北區","LI":"成德里","LIN":"22鄰","STREET":"北安路","SECT":"一段","MAREA":" ","LANE":"３４１巷","ALLEY":" ","HOUSE_NO":"４２號","E_COORD97":168399.35999999999,"N_COORD97":2546762.8999999999,"ADDRESS":"北安路一段３４１巷４２號","OBJECTID":407637},"geometry":{"x":168399.3600000022,"y":2546762.9000000022}},{"attributes":{"ID":407662,"DIS_CODE":0,"TOWNNAME":"東區","LI":"裕農里","LIN":"13鄰","STREET":"裕豐街","SECT":" ","MAREA":" ","LANE":"２４２巷","ALLEY":" ","HOUSE_NO":"３號","E_COORD97":170818.14000000001,"N_COORD97":2543259.5499999998,"ADDRESS":"裕豐街２４２巷３號","OBJECTID":407638},"geometry":{"x":170818.1400000006,"y":2543259.5500000026}},{"attributes":{"ID":407663,"DIS_CODE":0,"TOWNNAME":"中西區","LI":"公正里","LIN":"9鄰","STREET":"民族路","SECT":"二段","MAREA":" ","LANE":"５７巷","ALLEY":" ","HOUSE_NO":"３８號之３","E_COORD97":169071.44,"N_COORD97":2543806.1299999999,"ADDRESS":"民族路二段５７巷３８號之３","OBJECTID":407639},"geometry":{"x":169071.44000000041,"y":2543806.1300000008}},{"attributes":{"ID":407664,"DIS_CODE":0,"TOWNNAME":"中西區","LI":"公正里","LIN":"9鄰","STREET":"民族路","SECT":"二段","MAREA":" ","LANE":"５７巷","ALLEY":" ","HOUSE_NO":"３８號之４","E_COORD97":169064.67999999999,"N_COORD97":2543811.6400000001,"ADDRESS":"民族路二段５７巷３８號之４","OBJECTID":407640},"geometry":{"x":169064.68000000063,"y":2543811.6400000025}},{"attributes":{"ID":407665,"DIS_CODE":0,"TOWNNAME":"中西區","LI":"公正里","LIN":"9鄰","STREET":"民族路","SECT":"二段","MAREA":" ","LANE":"５７巷","ALLEY":" ","HOUSE_NO":"３８號之５","E_COORD97":169064.5,"N_COORD97":2543810.2200000002,"ADDRESS":"民族路二段５７巷３８號之５","OBJECTID":407641},"geometry":{"x":169064.50000000093,"y":2543810.2200000025}},{"attributes":{"ID":407666,"DIS_CODE":0,"TOWNNAME":"中西區","LI":"公正里","LIN":"9鄰","STREET":"民族路","SECT":"二段","MAREA":" ","LANE":"５７巷","ALLEY":" ","HOUSE_NO":"３８號之６","E_COORD97":169065.03,"N_COORD97":2543807.73,"ADDRESS":"民族路二段５７巷３８號之６","OBJECTID":407642},"geometry":{"x":169065.03000000119,"y":2543807.7300000023}},{"attributes":{"ID":407667,"DIS_CODE":0,"TOWNNAME":"中西區","LI":"公正里","LIN":"9鄰","STREET":"民族路","SECT":"二段","MAREA":" ","LANE":"５７巷","ALLEY":" ","HOUSE_NO":"３８號之７","E_COORD97":169065.03,"N_COORD97":2543805.9500000002,"ADDRESS":"民族路二段５７巷３８號之７","OBJECTID":407643},"geometry":{"x":169065.03000000119,"y":2543805.9499999993}},{"attributes":{"ID":407668,"DIS_CODE":0,"TOWNNAME":"中西區","LI":"公正里","LIN":"9鄰","STREET":"民族路","SECT":"二段","MAREA":" ","LANE":"５７巷","ALLEY":" ","HOUSE_NO":"３８號之８","E_COORD97":169065.20999999999,"N_COORD97":2543803.8199999998,"ADDRESS":"民族路二段５７巷３８號之８","OBJECTID":407644},"geometry":{"x":169065.21000000089,"y":2543803.8200000003}},{"attributes":{"ID":407669,"DIS_CODE":0,"TOWNNAME":"中西區","LI":"公正里","LIN":"9鄰","STREET":"民族路","SECT":"二段","MAREA":" ","LANE":"５７巷","ALLEY":" ","HOUSE_NO":"４０號","E_COORD97":169069.66,"N_COORD97":2543817.8599999999,"ADDRESS":"民族路二段５７巷４０號","OBJECTID":407645},"geometry":{"x":169069.66000000015,"y":2543817.8600000031}},{"attributes":{"ID":407670,"DIS_CODE":0,"TOWNNAME":"中西區","LI":"公正里","LIN":"9鄰","STREET":"民族路","SECT":"二段","MAREA":" ","LANE":"５７巷","ALLEY":" ","HOUSE_NO":"５號","E_COORD97":169063.25,"N_COORD97":2543839.46,"ADDRESS":"民族路二段５７巷５號","OBJECTID":407646},"geometry":{"x":169063.25000000093,"y":2543839.4600000028}},{"attributes":{"ID":407671,"DIS_CODE":0,"TOWNNAME":"中西區","LI":"公正里","LIN":"9鄰","STREET":"民族路","SECT":"二段","MAREA":" ","LANE":"５７巷","ALLEY":" ","HOUSE_NO":"７號","E_COORD97":169060.57999999999,"N_COORD97":2543831.2799999998,"ADDRESS":"民族路二段５７巷７號","OBJECTID":407647},"geometry":{"x":169060.58000000101,"y":2543831.2799999993}},{"attributes":{"ID":407672,"DIS_CODE":0,"TOWNNAME":"中西區","LI":"公正里","LIN":"9鄰","STREET":"民族路","SECT":"二段","MAREA":" ","LANE":"５７巷","ALLEY":" ","HOUSE_NO":"９號","E_COORD97":169069.48000000001,"N_COORD97":2543828.79,"ADDRESS":"民族路二段５７巷９號","OBJECTID":407648},"geometry":{"x":169069.48000000045,"y":2543828.790000001}},{"attributes":{"ID":407673,"DIS_CODE":0,"TOWNNAME":"中西區","LI":"公正里","LIN":"9鄰","STREET":"民族路","SECT":"二段","MAREA":" ","LANE":"５７巷","ALLEY":" ","HOUSE_NO":"１０號","E_COORD97":169005.23000000001,"N_COORD97":2543810.9300000002,"ADDRESS":"民族路二段５７巷１０號","OBJECTID":407649},"geometry":{"x":169005.23000000045,"y":2543810.9300000034}},{"attributes":{"ID":407674,"DIS_CODE":0,"TOWNNAME":"中西區","LI":"公正里","LIN":"9鄰","STREET":"民族路","SECT":"二段","MAREA":" ","LANE":"５７巷","ALLEY":" ","HOUSE_NO":"１２號","E_COORD97":169011.82000000001,"N_COORD97":2543813.9500000002,"ADDRESS":"民族路二段５７巷１２號","OBJECTID":407650},"geometry":{"x":169011.82000000123,"y":2543813.9500000011}},{"attributes":{"ID":407675,"DIS_CODE":0,"TOWNNAME":"北區","LI":"成德里","LIN":"22鄰","STREET":"北安路","SECT":"一段","MAREA":" ","LANE":"３４１巷","ALLEY":" ","HOUSE_NO":"５０號","E_COORD97":168381.67999999999,"N_COORD97":2546769.9700000002,"ADDRESS":"北安路一段３４１巷５０號","OBJECTID":407651},"geometry":{"x":168381.68000000063,"y":2546769.9700000007}},{"attributes":{"ID":407676,"DIS_CODE":0,"TOWNNAME":"北區","LI":"成德里","LIN":"22鄰","STREET":"北安路","SECT":"一段","MAREA":" ","LANE":"３４１巷","ALLEY":" ","HOUSE_NO":"５２號","E_COORD97":168359.70999999999,"N_COORD97":2546769.8500000001,"ADDRESS":"北安路一段３４１巷５２號","OBJECTID":407652},"geometry":{"x":168359.71000000089,"y":2546769.8499999996}},{"attributes":{"ID":407677,"DIS_CODE":0,"TOWNNAME":"北區","LI":"成德里","LIN":"22鄰","STREET":"北安路","SECT":"一段","MAREA":" ","LANE":"３４１巷","ALLEY":" ","HOUSE_NO":"５４號","E_COORD97":168353.87,"N_COORD97":2546770.1000000001,"ADDRESS":"北安路一段３４１巷５４號","OBJECTID":407653},"geometry":{"x":168353.87000000104,"y":2546770.1000000015}},{"attributes":{"ID":407678,"DIS_CODE":0,"TOWNNAME":"中西區","LI":"公正里","LIN":"9鄰","STREET":"民族路","SECT":"二段","MAREA":" ","LANE":"５７巷","ALLEY":" ","HOUSE_NO":"１２號之１","E_COORD97":169012.17000000001,"N_COORD97":2543807.73,"ADDRESS":"民族路二段５７巷１２號之１","OBJECTID":407654},"geometry":{"x":169012.17000000179,"y":2543807.7300000023}},{"attributes":{"ID":407679,"DIS_CODE":0,"TOWNNAME":"中西區","LI":"公正里","LIN":"9鄰","STREET":"民族路","SECT":"二段","MAREA":" ","LANE":"５７巷","ALLEY":" ","HOUSE_NO":"１２號之２","E_COORD97":169018.04999999999,"N_COORD97":2543807.73,"ADDRESS":"民族路二段５７巷１２號之２","OBJECTID":407655},"geometry":{"x":169018.05000000168,"y":2543807.7300000023}},{"attributes":{"ID":407680,"DIS_CODE":0,"TOWNNAME":"中西區","LI":"公正里","LIN":"9鄰","STREET":"民族路","SECT":"二段","MAREA":" ","LANE":"５７巷","ALLEY":" ","HOUSE_NO":"１２號之３","E_COORD97":169017.51000000001,"N_COORD97":2543813.77,"ADDRESS":"民族路二段５７巷１２號之３","OBJECTID":407656},"geometry":{"x":169017.50999999978,"y":2543813.7699999996}},{"attributes":{"ID":407681,"DIS_CODE":0,"TOWNNAME":"中西區","LI":"公正里","LIN":"9鄰","STREET":"民族路","SECT":"二段","MAREA":" ","LANE":"５７巷","ALLEY":" ","HOUSE_NO":"１２號底層之１","E_COORD97":169011.82000000001,"N_COORD97":2543813.9500000002,"ADDRESS":"民族路二段５７巷１２號底層之１","OBJECTID":407657},"geometry":{"x":169011.82000000123,"y":2543813.9500000011}},{"attributes":{"ID":407682,"DIS_CODE":0,"TOWNNAME":"中西區","LI":"公正里","LIN":"9鄰","STREET":"民族路","SECT":"二段","MAREA":" ","LANE":"５７巷","ALLEY":" ","HOUSE_NO":"１２號底層之２","E_COORD97":169011.82000000001,"N_COORD97":2543813.9500000002,"ADDRESS":"民族路二段５７巷１２號底層之２","OBJECTID":407658},"geometry":{"x":169011.82000000123,"y":2543813.9500000011}},{"attributes":{"ID":407683,"DIS_CODE":0,"TOWNNAME":"北區","LI":"成德里","LIN":"22鄰","STREET":"北安路","SECT":"一段","MAREA":" ","LANE":"３４１巷","ALLEY":" ","HOUSE_NO":"５６號","E_COORD97":168346.89000000001,"N_COORD97":2546770.23,"ADDRESS":"北安路一段３４１巷５６號","OBJECTID":407659},"geometry":{"x":168346.88999999966,"y":2546770.2300000023}},{"attributes":{"ID":407684,"DIS_CODE":0,"TOWNNAME":"北區","LI":"成德里","LIN":"22鄰","STREET":"北安路","SECT":"一段","MAREA":" ","LANE":"３４１巷","ALLEY":" ","HOUSE_NO":"５６號之１","E_COORD97":168338.38,"N_COORD97":2546770.6099999999,"ADDRESS":"北安路一段３４１巷５６號之１","OBJECTID":407660},"geometry":{"x":168338.38000000082,"y":2546770.6100000013}},{"attributes":{"ID":407685,"DIS_CODE":0,"TOWNNAME":"中西區","LI":"公正里","LIN":"9鄰","STREET":"民族路","SECT":"二段","MAREA":" ","LANE":"５７巷","ALLEY":" ","HOUSE_NO":"６號","E_COORD97":169010.20999999999,"N_COORD97":2543836.79,"ADDRESS":"民族路二段５７巷６號","OBJECTID":407661},"geometry":{"x":169010.21000000183,"y":2543836.7899999991}},{"attributes":{"ID":407686,"DIS_CODE":0,"TOWNNAME":"中西區","LI":"公正里","LIN":"9鄰","STREET":"民族路","SECT":"二段","MAREA":" ","LANE":"５７巷","ALLEY":" ","HOUSE_NO":"８號","E_COORD97":169010.92999999999,"N_COORD97":2543826.8399999999,"ADDRESS":"民族路二段５７巷８號","OBJECTID":407662},"geometry":{"x":169010.93000000063,"y":2543826.8399999999}},{"attributes":{"ID":407687,"DIS_CODE":0,"TOWNNAME":"中西區","LI":"公正里","LIN":"14鄰","STREET":"西華南街","SECT":" ","MAREA":" ","LANE":"４５巷","ALLEY":" ","HOUSE_NO":"２號","E_COORD97":168941.16,"N_COORD97":2543845.6400000001,"ADDRESS":"西華南街４５巷２號","OBJECTID":407663},"geometry":{"x":168941.16000000015,"y":2543845.6400000025}},{"attributes":{"ID":407688,"DIS_CODE":0,"TOWNNAME":"中西區","LI":"公正里","LIN":"14鄰","STREET":"西華南街","SECT":" ","MAREA":" ","LANE":"４５巷","ALLEY":" ","HOUSE_NO":"６號","E_COORD97":168935.76999999999,"N_COORD97":2543845.9900000002,"ADDRESS":"西華南街４５巷６號","OBJECTID":407664},"geometry":{"x":168935.76999999955,"y":2543845.9900000021}},{"attributes":{"ID":407689,"DIS_CODE":0,"TOWNNAME":"麻豆區","LI":"油車里","LIN":"22鄰","STREET":"新生北路","SECT":" ","MAREA":" ","LANE":"８２巷","ALLEY":" ","HOUSE_NO":"６８號","E_COORD97":172389.95999999999,"N_COORD97":2565136.1000000001,"ADDRESS":"新生北路８２巷６８號","OBJECTID":407665},"geometry":{"x":172389.95999999996,"y":2565136.1000000015}},{"attributes":{"ID":407690,"DIS_CODE":0,"TOWNNAME":"麻豆區","LI":"油車里","LIN":"22鄰","STREET":"新生北路","SECT":" ","MAREA":" ","LANE":"８２巷","ALLEY":" ","HOUSE_NO":"７０號","E_COORD97":172395.88,"N_COORD97":2565136.02,"ADDRESS":"新生北路８２巷７０號","OBJECTID":407666},"geometry":{"x":172395.87999999989,"y":2565136.0200000014}},{"attributes":{"ID":407691,"DIS_CODE":0,"TOWNNAME":"麻豆區","LI":"油車里","LIN":"22鄰","STREET":"新生北路","SECT":" ","MAREA":" ","LANE":"８２巷","ALLEY":" ","HOUSE_NO":"７２號","E_COORD97":172392.16,"N_COORD97":2565125.4199999999,"ADDRESS":"新生北路８２巷７２號","OBJECTID":407667},"geometry":{"x":172392.16000000015,"y":2565125.4199999999}},{"attributes":{"ID":407692,"DIS_CODE":0,"TOWNNAME":"麻豆區","LI":"油車里","LIN":"22鄰","STREET":"新生北路","SECT":" ","MAREA":" ","LANE":"８２巷","ALLEY":" ","HOUSE_NO":"７４號","E_COORD97":172392.04999999999,"N_COORD97":2565118.9700000002,"ADDRESS":"新生北路８２巷７４號","OBJECTID":407668},"geometry":{"x":172392.05000000075,"y":2565118.9700000007}},{"attributes":{"ID":407693,"DIS_CODE":0,"TOWNNAME":"佳里區","LI":"安西里","LIN":"13鄰","STREET":"長安街","SECT":" ","MAREA":" ","LANE":" ","ALLEY":" ","HOUSE_NO":"８０號","E_COORD97":165434.98000000001,"N_COORD97":2562456.4500000002,"ADDRESS":"長安街８０號","OBJECTID":407669},"geometry":{"x":165434.98000000045,"y":2562456.4499999993}},{"attributes":{"ID":407694,"DIS_CODE":0,"TOWNNAME":"麻豆區","LI":"油車里","LIN":"22鄰","STREET":"新生北路","SECT":" ","MAREA":" ","LANE":"８２巷","ALLEY":" ","HOUSE_NO":"７６號","E_COORD97":172391.95000000001,"N_COORD97":2565112.5099999998,"ADDRESS":"新生北路８２巷７６號","OBJECTID":407670},"geometry":{"x":172391.95000000019,"y":2565112.5100000016}},{"attributes":{"ID":407695,"DIS_CODE":0,"TOWNNAME":"麻豆區","LI":"油車里","LIN":"22鄰","STREET":"新生北路","SECT":" ","MAREA":" ","LANE":"８２巷","ALLEY":" ","HOUSE_NO":"７８號","E_COORD97":172391.95000000001,"N_COORD97":2565107.0899999999,"ADDRESS":"新生北路８２巷７８號","OBJECTID":407671},"geometry":{"x":172391.95000000019,"y":2565107.0899999999}},{"attributes":{"ID":407696,"DIS_CODE":0,"TOWNNAME":"麻豆區","LI":"油車里","LIN":"22鄰","STREET":"新生北路","SECT":" ","MAREA":" ","LANE":"８２巷","ALLEY":" ","HOUSE_NO":"８０號","E_COORD97":172391.73999999999,"N_COORD97":2565099.6000000001,"ADDRESS":"新生北路８２巷８０號","OBJECTID":407672},"geometry":{"x":172391.74000000022,"y":2565099.5999999996}},{"attributes":{"ID":407697,"DIS_CODE":0,"TOWNNAME":"麻豆區","LI":"油車里","LIN":"22鄰","STREET":"新生北路","SECT":" ","MAREA":" ","LANE":"８２巷","ALLEY":" ","HOUSE_NO":"８２號","E_COORD97":172391.64000000001,"N_COORD97":2565093.1499999999,"ADDRESS":"新生北路８２巷８２號","OBJECTID":407673},"geometry":{"x":172391.63999999966,"y":2565093.1500000004}},{"attributes":{"ID":407698,"DIS_CODE":0,"TOWNNAME":"麻豆區","LI":"油車里","LIN":"22鄰","STREET":"新生北路","SECT":" ","MAREA":" ","LANE":"８２巷","ALLEY":" ","HOUSE_NO":"１０４號","E_COORD97":172378.09,"N_COORD97":2565035.1899999999,"ADDRESS":"新生北路８２巷１０４號","OBJECTID":407674},"geometry":{"x":172378.09000000078,"y":2565035.1899999995}},{"attributes":{"ID":407699,"DIS_CODE":0,"TOWNNAME":"麻豆區","LI":"油車里","LIN":"22鄰","STREET":"新生北路","SECT":" ","MAREA":" ","LANE":"８２巷","ALLEY":" ","HOUSE_NO":"１０６號","E_COORD97":172370.19,"N_COORD97":2565034.9900000002,"ADDRESS":"新生北路８２巷１０６號","OBJECTID":407675},"geometry":{"x":172370.19000000041,"y":2565034.9900000039}},{"attributes":{"ID":407700,"DIS_CODE":0,"TOWNNAME":"麻豆區","LI":"油車里","LIN":"22鄰","STREET":"新生北路","SECT":" ","MAREA":" ","LANE":"８２巷","ALLEY":" ","HOUSE_NO":"３４號","E_COORD97":172376.67999999999,"N_COORD97":2565041.4700000002,"ADDRESS":"新生北路８２巷３４號","OBJECTID":407676},"geometry":{"x":172376.6799999997,"y":2565041.4700000007}},{"attributes":{"ID":407701,"DIS_CODE":0,"TOWNNAME":"麻豆區","LI":"油車里","LIN":"22鄰","STREET":"新生北路","SECT":" ","MAREA":" ","LANE":"８２巷","ALLEY":" ","HOUSE_NO":"３６號","E_COORD97":172376.32999999999,"N_COORD97":2565048.6099999999,"ADDRESS":"新生北路８２巷３６號","OBJECTID":407677},"geometry":{"x":172376.33000000194,"y":2565048.6099999994}},{"attributes":{"ID":407702,"DIS_CODE":0,"TOWNNAME":"麻豆區","LI":"油車里","LIN":"22鄰","STREET":"新生北路","SECT":" ","MAREA":" ","LANE":"８２巷","ALLEY":" ","HOUSE_NO":"３８號","E_COORD97":172375.98000000001,"N_COORD97":2565055.75,"ADDRESS":"新生北路８２巷３８號","OBJECTID":407678},"geometry":{"x":172375.98000000138,"y":2565055.75}},{"attributes":{"ID":407703,"DIS_CODE":0,"TOWNNAME":"麻豆區","LI":"油車里","LIN":"22鄰","STREET":"新生北路","SECT":" ","MAREA":" ","LANE":"８２巷","ALLEY":" ","HOUSE_NO":"４０號","E_COORD97":172375.63,"N_COORD97":2565062.8900000001,"ADDRESS":"新生北路８２巷４０號","OBJECTID":407679},"geometry":{"x":172375.63000000175,"y":2565062.8900000043}},{"attributes":{"ID":407704,"DIS_CODE":0,"TOWNNAME":"麻豆區","LI":"油車里","LIN":"22鄰","STREET":"新生北路","SECT":" ","MAREA":" ","LANE":"８２巷","ALLEY":" ","HOUSE_NO":"４２號","E_COORD97":172375.28,"N_COORD97":2565070.0299999998,"ADDRESS":"新生北路８２巷４２號","OBJECTID":407680},"geometry":{"x":172375.28000000119,"y":2565070.0299999993}},{"attributes":{"ID":407705,"DIS_CODE":0,"TOWNNAME":"麻豆區","LI":"油車里","LIN":"22鄰","STREET":"新生北路","SECT":" ","MAREA":" ","LANE":"８２巷","ALLEY":" ","HOUSE_NO":"４６號","E_COORD97":172374.92999999999,"N_COORD97":2565077.1699999999,"ADDRESS":"新生北路８２巷４６號","OBJECTID":407681},"geometry":{"x":172374.9299999997,"y":2565077.1700000037}},{"attributes":{"ID":407706,"DIS_CODE":0,"TOWNNAME":"麻豆區","LI":"油車里","LIN":"22鄰","STREET":"新生北路","SECT":" ","MAREA":" ","LANE":"８２巷","ALLEY":" ","HOUSE_NO":"４８號","E_COORD97":172374.57999999999,"N_COORD97":2565084.3100000001,"ADDRESS":"新生北路８２巷４８號","OBJECTID":407682},"geometry":{"x":172374.58000000194,"y":2565084.3100000024}},{"attributes":{"ID":407707,"DIS_CODE":0,"TOWNNAME":"麻豆區","LI":"油車里","LIN":"22鄰","STREET":"新生北路","SECT":" ","MAREA":" ","LANE":"８２巷","ALLEY":" ","HOUSE_NO":"５０號","E_COORD97":172374.23000000001,"N_COORD97":2565091.4500000002,"ADDRESS":"新生北路８２巷５０號","OBJECTID":407683},"geometry":{"x":172374.23000000138,"y":2565091.4499999974}},{"attributes":{"ID":407708,"DIS_CODE":0,"TOWNNAME":"麻豆區","LI":"油車里","LIN":"22鄰","STREET":"新生北路","SECT":" ","MAREA":" ","LANE":"８２巷","ALLEY":" ","HOUSE_NO":"５２號","E_COORD97":172373.88,"N_COORD97":2565098.5899999999,"ADDRESS":"新生北路８２巷５２號","OBJECTID":407684},"geometry":{"x":172373.87999999896,"y":2565098.5900000017}},{"attributes":{"ID":407709,"DIS_CODE":0,"TOWNNAME":"歸仁區","LI":"南保里","LIN":"22鄰","STREET":"文化街","SECT":"三段","MAREA":" ","LANE":"６１巷","ALLEY":" ","HOUSE_NO":"３９號","E_COORD97":176900.14000000001,"N_COORD97":2541159.3300000001,"ADDRESS":"文化街三段６１巷３９號","OBJECTID":407685},"geometry":{"x":176900.1400000006,"y":2541159.3300000001}},{"attributes":{"ID":407710,"DIS_CODE":0,"TOWNNAME":"歸仁區","LI":"南保里","LIN":"22鄰","STREET":"文化街","SECT":"三段","MAREA":" ","LANE":"６１巷","ALLEY":" ","HOUSE_NO":"３５號","E_COORD97":176908.23999999999,"N_COORD97":2541144.3300000001,"ADDRESS":"文化街三段６１巷３５號","OBJECTID":407686},"geometry":{"x":176908.24000000209,"y":2541144.3300000019}},{"attributes":{"ID":407711,"DIS_CODE":0,"TOWNNAME":"歸仁區","LI":"南保里","LIN":"22鄰","STREET":"文化街","SECT":"三段","MAREA":" ","LANE":"６１巷","ALLEY":" ","HOUSE_NO":"３７號","E_COORD97":176903.23999999999,"N_COORD97":2541159.3300000001,"ADDRESS":"文化街三段６１巷３７號","OBJECTID":407687},"geometry":{"x":176903.24000000209,"y":2541159.3300000001}},{"attributes":{"ID":407712,"DIS_CODE":0,"TOWNNAME":"歸仁區","LI":"南保里","LIN":"22鄰","STREET":"文化街","SECT":"三段","MAREA":" ","LANE":"６１巷","ALLEY":" ","HOUSE_NO":"３１號","E_COORD97":176918.44,"N_COORD97":2541129.3300000001,"ADDRESS":"文化街三段６１巷３１號","OBJECTID":407688},"geometry":{"x":176918.44000000041,"y":2541129.3300000001}},{"attributes":{"ID":407713,"DIS_CODE":0,"TOWNNAME":"歸仁區","LI":"歸仁里","LIN":"22鄰","STREET":"文化二街","SECT":" ","MAREA":" ","LANE":"２６巷","ALLEY":" ","HOUSE_NO":"１４號","E_COORD97":178029.5,"N_COORD97":2541209.2599999998,"ADDRESS":"文化二街２６巷１４號","OBJECTID":407689},"geometry":{"x":178029.5,"y":2541209.2600000016}},{"attributes":{"ID":407714,"DIS_CODE":0,"TOWNNAME":"新營區","LI":"忠政里","LIN":"22鄰","STREET":"府西路","SECT":" ","MAREA":" ","LANE":"２０１巷","ALLEY":" ","HOUSE_NO":"１８號","E_COORD97":179732.35999999999,"N_COORD97":2579541.8900000001,"ADDRESS":"府西路２０１巷１８號","OBJECTID":407690},"geometry":{"x":179732.36000000127,"y":2579541.8900000006}},{"attributes":{"ID":407715,"DIS_CODE":0,"TOWNNAME":"新營區","LI":"新東里","LIN":"22鄰","STREET":"東明街","SECT":" ","MAREA":" ","LANE":"９６巷","ALLEY":" ","HOUSE_NO":"４０號","E_COORD97":180907.95999999999,"N_COORD97":2579834.27,"ADDRESS":"東明街９６巷４０號","OBJECTID":407691},"geometry":{"x":180907.96000000089,"y":2579834.2699999977}},{"attributes":{"ID":407716,"DIS_CODE":0,"TOWNNAME":"新營區","LI":"新南里","LIN":"22鄰","STREET":"復興路","SECT":" ","MAREA":" ","LANE":"６１８巷","ALLEY":" ","HOUSE_NO":"２０號","E_COORD97":178086.51999999999,"N_COORD97":2578440.1299999999,"ADDRESS":"復興路６１８巷２０號","OBJECTID":407692},"geometry":{"x":178086.51999999955,"y":2578440.129999999}},{"attributes":{"ID":407717,"DIS_CODE":0,"TOWNNAME":"新營區","LI":"忠政里","LIN":"22鄰","STREET":"府西路","SECT":" ","MAREA":" ","LANE":"２０１巷","ALLEY":" ","HOUSE_NO":"１４號","E_COORD97":179742.59,"N_COORD97":2579541.8399999999,"ADDRESS":"府西路２０１巷１４號","OBJECTID":407693},"geometry":{"x":179742.58999999985,"y":2579541.8399999999}},{"attributes":{"ID":407718,"DIS_CODE":0,"TOWNNAME":"新營區","LI":"南興里","LIN":"22鄰","STREET":"延平路","SECT":" ","MAREA":" ","LANE":"１４０巷","ALLEY":" ","HOUSE_NO":"５６之５號","E_COORD97":179609.32000000001,"N_COORD97":2577440.6000000001,"ADDRESS":"延平路１４０巷５６之５號","OBJECTID":407694},"geometry":{"x":179609.3200000003,"y":2577440.5999999996}},{"attributes":{"ID":407719,"DIS_CODE":0,"TOWNNAME":"新營區","LI":"南興里","LIN":"22鄰","STREET":"延平路","SECT":" ","MAREA":" ","LANE":"１４０巷","ALLEY":" ","HOUSE_NO":"４３號","E_COORD97":179596.32000000001,"N_COORD97":2577371.9300000002,"ADDRESS":"延平路１４０巷４３號","OBJECTID":407695},"geometry":{"x":179596.32000000216,"y":2577371.9299999978}},{"attributes":{"ID":407720,"DIS_CODE":0,"TOWNNAME":"新營區","LI":"南興里","LIN":"22鄰","STREET":"延平路","SECT":" ","MAREA":" ","LANE":"１４０巷","ALLEY":" ","HOUSE_NO":"３５之３號","E_COORD97":179579.54999999999,"N_COORD97":2577405.2999999998,"ADDRESS":"延平路１４０巷３５之３號","OBJECTID":407696},"geometry":{"x":179579.55000000075,"y":2577405.3000000026}},{"attributes":{"ID":407721,"DIS_CODE":0,"TOWNNAME":"歸仁區","LI":"大廟里","LIN":"22鄰","STREET":"大廟一街","SECT":" ","MAREA":" ","LANE":"３８巷","ALLEY":" ","HOUSE_NO":"５號","E_COORD97":175797.26999999999,"N_COORD97":2544058.25,"ADDRESS":"大廟一街３８巷５號","OBJECTID":407697},"geometry":{"x":175797.27000000048,"y":2544058.25}},{"attributes":{"ID":407722,"DIS_CODE":0,"TOWNNAME":"歸仁區","LI":"看西里","LIN":"22鄰","STREET":"成功七街","SECT":" ","MAREA":" ","LANE":"６５巷","ALLEY":" ","HOUSE_NO":"３２號","E_COORD97":178252.10999999999,"N_COORD97":2539725.3599999999,"ADDRESS":"成功七街６５巷３２號","OBJECTID":407698},"geometry":{"x":178252.11000000127,"y":2539725.3599999975}},{"attributes":{"ID":407723,"DIS_CODE":0,"TOWNNAME":"歸仁區","LI":"南保里","LIN":"22鄰","STREET":"文化街","SECT":"三段","MAREA":" ","LANE":"６１巷","ALLEY":" ","HOUSE_NO":"２９號","E_COORD97":176917.44,"N_COORD97":2541138.3300000001,"ADDRESS":"文化街三段６１巷２９號","OBJECTID":407699},"geometry":{"x":176917.44000000134,"y":2541138.3300000019}},{"attributes":{"ID":407724,"DIS_CODE":0,"TOWNNAME":"關廟區","LI":"北勢里","LIN":"22鄰","STREET":"仁愛路","SECT":" ","MAREA":" ","LANE":"１７６巷","ALLEY":" ","HOUSE_NO":"１７號","E_COORD97":181450.94,"N_COORD97":2540390.2799999998,"ADDRESS":"仁愛路１７６巷１７號","OBJECTID":407700},"geometry":{"x":181450.94000000134,"y":2540390.2799999975}},{"attributes":{"ID":407725,"DIS_CODE":0,"TOWNNAME":"關廟區","LI":"北勢里","LIN":"22鄰","STREET":"仁愛路","SECT":" ","MAREA":" ","LANE":"１７６巷","ALLEY":" ","HOUSE_NO":"９號","E_COORD97":181433.19,"N_COORD97":2540394.2799999998,"ADDRESS":"仁愛路１７６巷９號","OBJECTID":407701},"geometry":{"x":181433.19000000227,"y":2540394.2800000012}},{"attributes":{"ID":407726,"DIS_CODE":0,"TOWNNAME":"東區","LI":"裕農里","LIN":"13鄰","STREET":"裕豐街","SECT":" ","MAREA":" ","LANE":"２４２巷","ALLEY":" ","HOUSE_NO":"５號","E_COORD97":170823.38,"N_COORD97":2543261.8999999999,"ADDRESS":"裕豐街２４２巷５號","OBJECTID":407702},"geometry":{"x":170823.38000000082,"y":2543261.9000000004}},{"attributes":{"ID":407727,"DIS_CODE":0,"TOWNNAME":"關廟區","LI":"北勢里","LIN":"22鄰","STREET":"仁愛路","SECT":" ","MAREA":" ","LANE":"１９８巷","ALLEY":" ","HOUSE_NO":"５號","E_COORD97":181430.89000000001,"N_COORD97":2540443.2799999998,"ADDRESS":"仁愛路１９８巷５號","OBJECTID":407703},"geometry":{"x":181430.88999999966,"y":2540443.2799999993}},{"attributes":{"ID":407728,"DIS_CODE":0,"TOWNNAME":"關廟區","LI":"北勢里","LIN":"22鄰","STREET":"仁愛路","SECT":" ","MAREA":" ","LANE":"１９８巷","ALLEY":" ","HOUSE_NO":"２７號","E_COORD97":181469.73999999999,"N_COORD97":2540421.2799999998,"ADDRESS":"仁愛路１９８巷２７號","OBJECTID":407704},"geometry":{"x":181469.74000000022,"y":2540421.2800000031}},{"attributes":{"ID":407729,"DIS_CODE":0,"TOWNNAME":"關廟區","LI":"北勢里","LIN":"22鄰","STREET":"仁愛路","SECT":" ","MAREA":" ","LANE":"１８６巷","ALLEY":" ","HOUSE_NO":"５號","E_COORD97":181426.69,"N_COORD97":2540416.2799999998,"ADDRESS":"仁愛路１８６巷５號","OBJECTID":407705},"geometry":{"x":181426.69000000134,"y":2540416.2799999993}},{"attributes":{"ID":407730,"DIS_CODE":0,"TOWNNAME":"關廟區","LI":"北勢里","LIN":"22鄰","STREET":"仁愛路","SECT":" ","MAREA":" ","LANE":"１７６巷","ALLEY":" ","HOUSE_NO":"３號","E_COORD97":181420.89000000001,"N_COORD97":2540399.2799999998,"ADDRESS":"仁愛路１７６巷３號","OBJECTID":407706},"geometry":{"x":181420.89000000153,"y":2540399.2799999993}},{"attributes":{"ID":407731,"DIS_CODE":0,"TOWNNAME":"關廟區","LI":"北勢里","LIN":"22鄰","STREET":"仁愛路","SECT":" ","MAREA":" ","LANE":"１７６巷","ALLEY":" ","HOUSE_NO":"１３號","E_COORD97":181442.84,"N_COORD97":2540392.2799999998,"ADDRESS":"仁愛路１７６巷１３號","OBJECTID":407707},"geometry":{"x":181442.83999999985,"y":2540392.2799999993}},{"attributes":{"ID":407732,"DIS_CODE":0,"TOWNNAME":"關廟區","LI":"北勢里","LIN":"22鄰","STREET":"仁愛路","SECT":" ","MAREA":" ","LANE":"１７６巷","ALLEY":" ","HOUSE_NO":"１１號","E_COORD97":181438.64000000001,"N_COORD97":2540393.2799999998,"ADDRESS":"仁愛路１７６巷１１號","OBJECTID":407708},"geometry":{"x":181438.6400000006,"y":2540393.2799999993}},{"attributes":{"ID":407733,"DIS_CODE":0,"TOWNNAME":"關廟區","LI":"北勢里","LIN":"22鄰","STREET":"仁愛路","SECT":" ","MAREA":" ","LANE":"１８６巷","ALLEY":" ","HOUSE_NO":"１１號","E_COORD97":181440.23999999999,"N_COORD97":2540412.2799999998,"ADDRESS":"仁愛路１８６巷１１號","OBJECTID":407709},"geometry":{"x":181440.24000000115,"y":2540412.2800000012}},{"attributes":{"ID":407734,"DIS_CODE":0,"TOWNNAME":"關廟區","LI":"北勢里","LIN":"22鄰","STREET":"仁愛路","SECT":" ","MAREA":" ","LANE":"１７６巷","ALLEY":" ","HOUSE_NO":"１０號","E_COORD97":181413.73999999999,"N_COORD97":2540372.2799999998,"ADDRESS":"仁愛路１７６巷１０號","OBJECTID":407710},"geometry":{"x":181413.74000000022,"y":2540372.2799999993}},{"attributes":{"ID":407735,"DIS_CODE":0,"TOWNNAME":"關廟區","LI":"北勢里","LIN":"22鄰","STREET":"仁愛路","SECT":" ","MAREA":" ","LANE":"１７６巷","ALLEY":" ","HOUSE_NO":"１５號","E_COORD97":181446.73999999999,"N_COORD97":2540391.2799999998,"ADDRESS":"仁愛路１７６巷１５號","OBJECTID":407711},"geometry":{"x":181446.74000000115,"y":2540391.2800000012}},{"attributes":{"ID":407736,"DIS_CODE":0,"TOWNNAME":"關廟區","LI":"北勢里","LIN":"22鄰","STREET":"仁愛路","SECT":" ","MAREA":" ","LANE":"１９８巷","ALLEY":" ","HOUSE_NO":"２１號","E_COORD97":181458.23999999999,"N_COORD97":2540425.2799999998,"ADDRESS":"仁愛路１９８巷２１號","OBJECTID":407712},"geometry":{"x":181458.24000000209,"y":2540425.2800000012}},{"attributes":{"ID":407737,"DIS_CODE":0,"TOWNNAME":"關廟區","LI":"北勢里","LIN":"22鄰","STREET":"仁愛路","SECT":" ","MAREA":" ","LANE":"１７６巷","ALLEY":" ","HOUSE_NO":"２３號","E_COORD97":181448.23999999999,"N_COORD97":2540381.2799999998,"ADDRESS":"仁愛路１７６巷２３號","OBJECTID":407713},"geometry":{"x":181448.24000000115,"y":2540381.2800000012}},{"attributes":{"ID":407738,"DIS_CODE":0,"TOWNNAME":"關廟區","LI":"香洋里","LIN":"22鄰","STREET":"民族街","SECT":" ","MAREA":" ","LANE":"９３巷","ALLEY":" ","HOUSE_NO":"６號","E_COORD97":181368.54000000001,"N_COORD97":2539802.29,"ADDRESS":"民族街９３巷６號","OBJECTID":407714},"geometry":{"x":181368.54000000097,"y":2539802.2899999991}},{"attributes":{"ID":407739,"DIS_CODE":0,"TOWNNAME":"關廟區","LI":"東勢里","LIN":"22鄰","STREET":"東昌街","SECT":" ","MAREA":" ","LANE":"１２３巷","ALLEY":" ","HOUSE_NO":"２０號","E_COORD97":181810.92000000001,"N_COORD97":2539164.25,"ADDRESS":"東昌街１２３巷２０號","OBJECTID":407715},"geometry":{"x":181810.92000000179,"y":2539164.2500000037}},{"attributes":{"ID":407740,"DIS_CODE":0,"TOWNNAME":"關廟區","LI":"東勢里","LIN":"22鄰","STREET":"東昌街","SECT":" ","MAREA":" ","LANE":"１２３巷","ALLEY":" ","HOUSE_NO":"１８號","E_COORD97":181814.42000000001,"N_COORD97":2539165.25,"ADDRESS":"東昌街１２３巷１８號","OBJECTID":407716},"geometry":{"x":181814.42000000086,"y":2539165.2500000019}},{"attributes":{"ID":407741,"DIS_CODE":0,"TOWNNAME":"關廟區","LI":"東勢里","LIN":"22鄰","STREET":"東昌街","SECT":" ","MAREA":" ","LANE":"１２３巷","ALLEY":" ","HOUSE_NO":"１０號","E_COORD97":181825.22,"N_COORD97":2539170.25,"ADDRESS":"東昌街１２３巷１０號","OBJECTID":407717},"geometry":{"x":181825.21999999974,"y":2539170.25}},{"attributes":{"ID":407742,"DIS_CODE":0,"TOWNNAME":"關廟區","LI":"東勢里","LIN":"22鄰","STREET":"東昌街","SECT":" ","MAREA":" ","LANE":"１２３巷","ALLEY":" ","HOUSE_NO":"２５號","E_COORD97":181815.22,"N_COORD97":2539153.25,"ADDRESS":"東昌街１２３巷２５號","OBJECTID":407718},"geometry":{"x":181815.21999999974,"y":2539153.25}},{"attributes":{"ID":407743,"DIS_CODE":0,"TOWNNAME":"關廟區","LI":"東勢里","LIN":"22鄰","STREET":"東昌街","SECT":" ","MAREA":" ","LANE":"１２３巷","ALLEY":" ","HOUSE_NO":"１１號","E_COORD97":181840.92000000001,"N_COORD97":2539165.25,"ADDRESS":"東昌街１２３巷１１號","OBJECTID":407719},"geometry":{"x":181840.91999999993,"y":2539165.2500000019}},{"attributes":{"ID":407744,"DIS_CODE":0,"TOWNNAME":"關廟區","LI":"東勢里","LIN":"22鄰","STREET":"東昌街","SECT":" ","MAREA":" ","LANE":"１２３巷","ALLEY":" ","HOUSE_NO":"３７號","E_COORD97":181781.42000000001,"N_COORD97":2539163.25,"ADDRESS":"東昌街１２３巷３７號","OBJECTID":407720},"geometry":{"x":181781.41999999993,"y":2539163.25}},{"attributes":{"ID":407745,"DIS_CODE":0,"TOWNNAME":"關廟區","LI":"東勢里","LIN":"22鄰","STREET":"東昌街","SECT":" ","MAREA":" ","LANE":"１２３巷","ALLEY":" ","HOUSE_NO":"１９號","E_COORD97":181826.32000000001,"N_COORD97":2539158.25,"ADDRESS":"東昌街１２３巷１９號","OBJECTID":407721},"geometry":{"x":181826.32000000123,"y":2539158.2500000019}},{"attributes":{"ID":407746,"DIS_CODE":0,"TOWNNAME":"南區","LI":"文南里","LIN":"22鄰","STREET":"中華西路","SECT":"一段","MAREA":" ","LANE":"１０９巷","ALLEY":" ","HOUSE_NO":"２８號","E_COORD97":166346.79999999999,"N_COORD97":2542449.3999999999,"ADDRESS":"中華西路一段１０９巷２８號","OBJECTID":407722},"geometry":{"x":166346.80000000075,"y":2542449.4000000022}},{"attributes":{"ID":407747,"DIS_CODE":0,"TOWNNAME":"南區","LI":"建南里","LIN":"22鄰","STREET":"永成路","SECT":"二段","MAREA":" ","LANE":"８２７巷","ALLEY":" ","HOUSE_NO":"２號","E_COORD97":167461.48999999999,"N_COORD97":2540118.23,"ADDRESS":"永成路二段８２７巷２號","OBJECTID":407723},"geometry":{"x":167461.49000000115,"y":2540118.2300000023}},{"attributes":{"ID":407748,"DIS_CODE":0,"TOWNNAME":"南區","LI":"文南里","LIN":"22鄰","STREET":"中華西路","SECT":"一段","MAREA":" ","LANE":"１３７巷","ALLEY":" ","HOUSE_NO":"９號","E_COORD97":166437.79999999999,"N_COORD97":2542466.71,"ADDRESS":"中華西路一段１３７巷９號","OBJECTID":407724},"geometry":{"x":166437.79999999888,"y":2542466.7100000009}},{"attributes":{"ID":407749,"DIS_CODE":0,"TOWNNAME":"北區","LI":"成德里","LIN":"22鄰","STREET":"北安路","SECT":"一段","MAREA":" ","LANE":"３４１巷","ALLEY":" ","HOUSE_NO":"３３號","E_COORD97":168437.28,"N_COORD97":2546757.2000000002,"ADDRESS":"北安路一段３４１巷３３號","OBJECTID":407725},"geometry":{"x":168437.28000000119,"y":2546757.1999999993}},{"attributes":{"ID":407750,"DIS_CODE":0,"TOWNNAME":"北區","LI":"文成里","LIN":"22鄰","STREET":"立賢路","SECT":"二段","MAREA":" ","LANE":"６６巷","ALLEY":" ","HOUSE_NO":"１１號","E_COORD97":167872.45000000001,"N_COORD97":2545597.5499999998,"ADDRESS":"立賢路二段６６巷１１號","OBJECTID":407726},"geometry":{"x":167872.45000000019,"y":2545597.5500000007}},{"attributes":{"ID":407751,"DIS_CODE":0,"TOWNNAME":"北區","LI":"文成里","LIN":"22鄰","STREET":"立賢路","SECT":"二段","MAREA":" ","LANE":"６６巷","ALLEY":" ","HOUSE_NO":"１３號","E_COORD97":167871.81,"N_COORD97":2545602.4700000002,"ADDRESS":"立賢路二段６６巷１３號","OBJECTID":407727},"geometry":{"x":167871.81000000145,"y":2545602.4700000025}},{"attributes":{"ID":407752,"DIS_CODE":0,"TOWNNAME":"北區","LI":"文成里","LIN":"22鄰","STREET":"立賢路","SECT":"二段","MAREA":" ","LANE":"６６巷","ALLEY":" ","HOUSE_NO":"１５號","E_COORD97":167871.01999999999,"N_COORD97":2545607.5499999998,"ADDRESS":"立賢路二段６６巷１５號","OBJECTID":407728},"geometry":{"x":167871.02000000048,"y":2545607.5500000007}},{"attributes":{"ID":407753,"DIS_CODE":0,"TOWNNAME":"北區","LI":"文成里","LIN":"22鄰","STREET":"立賢路","SECT":"二段","MAREA":" ","LANE":"６６巷","ALLEY":" ","HOUSE_NO":"１７號","E_COORD97":167870.85999999999,"N_COORD97":2545613.1099999999,"ADDRESS":"立賢路二段６６巷１７號","OBJECTID":407729},"geometry":{"x":167870.86000000127,"y":2545613.1100000031}},{"attributes":{"ID":407754,"DIS_CODE":0,"TOWNNAME":"中西區","LI":"公正里","LIN":"19鄰","STREET":"中山路","SECT":" ","MAREA":" ","LANE":"８２巷","ALLEY":" ","HOUSE_NO":"１１號","E_COORD97":168799.29000000001,"N_COORD97":2543790.4500000002,"ADDRESS":"中山路８２巷１１號","OBJECTID":407730},"geometry":{"x":168799.29000000004,"y":2543790.4500000011}},{"attributes":{"ID":407755,"DIS_CODE":0,"TOWNNAME":"中西區","LI":"公正里","LIN":"19鄰","STREET":"中山路","SECT":" ","MAREA":" ","LANE":"８２巷","ALLEY":" ","HOUSE_NO":"１３號","E_COORD97":168803.01000000001,"N_COORD97":2543788.1899999999,"ADDRESS":"中山路８２巷１３號","OBJECTID":407731},"geometry":{"x":168803.01000000164,"y":2543788.1899999995}},{"attributes":{"ID":407756,"DIS_CODE":0,"TOWNNAME":"中西區","LI":"公正里","LIN":"19鄰","STREET":"中山路","SECT":" ","MAREA":" ","LANE":"８２巷","ALLEY":" ","HOUSE_NO":"１５號","E_COORD97":168805.91,"N_COORD97":2543784.9700000002,"ADDRESS":"中山路８２巷１５號","OBJECTID":407732},"geometry":{"x":168805.91000000108,"y":2543784.9700000025}},{"attributes":{"ID":407757,"DIS_CODE":0,"TOWNNAME":"佳里區","LI":"安西里","LIN":"13鄰","STREET":"長安街","SECT":" ","MAREA":" ","LANE":" ","ALLEY":" ","HOUSE_NO":"８１號","E_COORD97":165413.20999999999,"N_COORD97":2562444.77,"ADDRESS":"長安街８１號","OBJECTID":407733},"geometry":{"x":165413.21000000183,"y":2562444.7699999996}},{"attributes":{"ID":407758,"DIS_CODE":0,"TOWNNAME":"東區","LI":"裕農里","LIN":"13鄰","STREET":"裕豐街","SECT":" ","MAREA":" ","LANE":"２４２巷","ALLEY":" ","HOUSE_NO":"６號","E_COORD97":170826.79000000001,"N_COORD97":2543245.9399999999,"ADDRESS":"裕豐街２４２巷６號","OBJECTID":407734},"geometry":{"x":170826.79000000004,"y":2543245.9400000013}},{"attributes":{"ID":407759,"DIS_CODE":0,"TOWNNAME":"中西區","LI":"公正里","LIN":"19鄰","STREET":"中山路","SECT":" ","MAREA":" ","LANE":"８２巷","ALLEY":" ","HOUSE_NO":"１７號","E_COORD97":168809.14000000001,"N_COORD97":2543781.9100000001,"ADDRESS":"中山路８２巷１７號","OBJECTID":407735},"geometry":{"x":168809.1400000006,"y":2543781.910000002}},{"attributes":{"ID":407760,"DIS_CODE":0,"TOWNNAME":"中西區","LI":"公正里","LIN":"19鄰","STREET":"中山路","SECT":" ","MAREA":" ","LANE":"８２巷","ALLEY":" ","HOUSE_NO":"１９號","E_COORD97":168813.34,"N_COORD97":2543780.29,"ADDRESS":"中山路８２巷１９號","OBJECTID":407736},"geometry":{"x":168813.34000000078,"y":2543780.2899999991}},{"attributes":{"ID":407761,"DIS_CODE":0,"TOWNNAME":"中西區","LI":"公正里","LIN":"19鄰","STREET":"中山路","SECT":" ","MAREA":" ","LANE":"８２巷","ALLEY":" ","HOUSE_NO":"２１號","E_COORD97":168816.41,"N_COORD97":2543777.8700000001,"ADDRESS":"中山路８２巷２１號","OBJECTID":407737},"geometry":{"x":168816.41000000108,"y":2543777.870000001}},{"attributes":{"ID":407762,"DIS_CODE":0,"TOWNNAME":"中西區","LI":"公正里","LIN":"19鄰","STREET":"衛民街","SECT":" ","MAREA":" ","LANE":"１２４巷","ALLEY":" ","HOUSE_NO":"１１號","E_COORD97":168826.69,"N_COORD97":2543794.8100000001,"ADDRESS":"衛民街１２４巷１１號","OBJECTID":407738},"geometry":{"x":168826.69000000134,"y":2543794.8100000005}},{"attributes":{"ID":407763,"DIS_CODE":0,"TOWNNAME":"中西區","LI":"公正里","LIN":"19鄰","STREET":"衛民街","SECT":" ","MAREA":" ","LANE":"１２４巷","ALLEY":" ","HOUSE_NO":"１５號","E_COORD97":168826.35000000001,"N_COORD97":2543801.8100000001,"ADDRESS":"衛民街１２４巷１５號","OBJECTID":407739},"geometry":{"x":168826.35000000056,"y":2543801.8100000005}},{"attributes":{"ID":407764,"DIS_CODE":0,"TOWNNAME":"中西區","LI":"公正里","LIN":"19鄰","STREET":"衛民街","SECT":" ","MAREA":" ","LANE":"１２４巷","ALLEY":" ","HOUSE_NO":"１７號","E_COORD97":168827.04000000001,"N_COORD97":2543805.5699999998,"ADDRESS":"衛民街１２４巷１７號","OBJECTID":407740},"geometry":{"x":168827.04000000097,"y":2543805.5700000003}},{"attributes":{"ID":407765,"DIS_CODE":0,"TOWNNAME":"北區","LI":"文成里","LIN":"22鄰","STREET":"立賢路","SECT":"二段","MAREA":" ","LANE":"６６巷","ALLEY":" ","HOUSE_NO":"１９號","E_COORD97":167870.70000000001,"N_COORD97":2545618.1899999999,"ADDRESS":"立賢路二段６６巷１９號","OBJECTID":407741},"geometry":{"x":167870.70000000019,"y":2545618.1899999995}},{"attributes":{"ID":407766,"DIS_CODE":0,"TOWNNAME":"北區","LI":"文成里","LIN":"22鄰","STREET":"立賢路","SECT":"二段","MAREA":" ","LANE":"６６巷","ALLEY":" ","HOUSE_NO":"２１號","E_COORD97":167869.75,"N_COORD97":2545623.7400000002,"ADDRESS":"立賢路二段６６巷２１號","OBJECTID":407742},"geometry":{"x":167869.75000000093,"y":2545623.7400000021}},{"attributes":{"ID":407767,"DIS_CODE":0,"TOWNNAME":"北區","LI":"文成里","LIN":"22鄰","STREET":"立賢路","SECT":"二段","MAREA":" ","LANE":"６６巷","ALLEY":" ","HOUSE_NO":"２３號","E_COORD97":167869.42999999999,"N_COORD97":2545629.2999999998,"ADDRESS":"立賢路二段６６巷２３號","OBJECTID":407743},"geometry":{"x":167869.43000000156,"y":2545629.3000000007}},{"attributes":{"ID":407768,"DIS_CODE":0,"TOWNNAME":"北區","LI":"文成里","LIN":"22鄰","STREET":"立賢路","SECT":"二段","MAREA":" ","LANE":"６６巷","ALLEY":" ","HOUSE_NO":"３號","E_COORD97":167874.04000000001,"N_COORD97":2545576.2799999998,"ADDRESS":"立賢路二段６６巷３號","OBJECTID":407744},"geometry":{"x":167874.0400000019,"y":2545576.2799999993}},{"attributes":{"ID":407769,"DIS_CODE":0,"TOWNNAME":"北區","LI":"文成里","LIN":"22鄰","STREET":"立賢路","SECT":"二段","MAREA":" ","LANE":"６６巷","ALLEY":" ","HOUSE_NO":"５號","E_COORD97":167873.72,"N_COORD97":2545581.04,"ADDRESS":"立賢路二段６６巷５號","OBJECTID":407745},"geometry":{"x":167873.71999999974,"y":2545581.0399999991}},{"attributes":{"ID":407770,"DIS_CODE":0,"TOWNNAME":"北區","LI":"文成里","LIN":"22鄰","STREET":"立賢路","SECT":"二段","MAREA":" ","LANE":"６６巷","ALLEY":" ","HOUSE_NO":"７號","E_COORD97":167873.23999999999,"N_COORD97":2545586.6000000001,"ADDRESS":"立賢路二段６６巷７號","OBJECTID":407746},"geometry":{"x":167873.24000000115,"y":2545586.6000000015}},{"attributes":{"ID":407771,"DIS_CODE":0,"TOWNNAME":"北區","LI":"文成里","LIN":"22鄰","STREET":"立賢路","SECT":"二段","MAREA":" ","LANE":"６６巷","ALLEY":" ","HOUSE_NO":"９號","E_COORD97":167873.23999999999,"N_COORD97":2545592.79,"ADDRESS":"立賢路二段６６巷９號","OBJECTID":407747},"geometry":{"x":167873.24000000115,"y":2545592.7899999991}},{"attributes":{"ID":407772,"DIS_CODE":0,"TOWNNAME":"北區","LI":"成功里","LIN":"22鄰","STREET":"北安路","SECT":"一段","MAREA":" ","LANE":"１７６巷","ALLEY":" ","HOUSE_NO":"１６號","E_COORD97":168963.60999999999,"N_COORD97":2546511.2999999998,"ADDRESS":"北安路一段１７６巷１６號","OBJECTID":407748},"geometry":{"x":168963.61000000034,"y":2546511.2999999989}},{"attributes":{"ID":407773,"DIS_CODE":0,"TOWNNAME":"北區","LI":"成功里","LIN":"22鄰","STREET":"北安路","SECT":"一段","MAREA":" ","LANE":"１７６巷","ALLEY":" ","HOUSE_NO":"２８號","E_COORD97":168944.01000000001,"N_COORD97":2546532.3500000001,"ADDRESS":"北安路一段１７６巷２８號","OBJECTID":407749},"geometry":{"x":168944.01000000071,"y":2546532.3499999996}},{"attributes":{"ID":407774,"DIS_CODE":0,"TOWNNAME":"北區","LI":"成功里","LIN":"22鄰","STREET":"北安路","SECT":"一段","MAREA":" ","LANE":"１７６巷","ALLEY":" ","HOUSE_NO":"３０號","E_COORD97":168947.5,"N_COORD97":2546535.3599999999,"ADDRESS":"北安路一段１７６巷３０號","OBJECTID":407750},"geometry":{"x":168947.50000000093,"y":2546535.3599999994}},{"attributes":{"ID":407775,"DIS_CODE":0,"TOWNNAME":"北區","LI":"成功里","LIN":"22鄰","STREET":"北安路","SECT":"一段","MAREA":" ","LANE":"１７６巷","ALLEY":" ","HOUSE_NO":"３２號","E_COORD97":168950.04000000001,"N_COORD97":2546539.1699999999,"ADDRESS":"北安路一段１７６巷３２號","OBJECTID":407751},"geometry":{"x":168950.04000000004,"y":2546539.1700000018}},{"attributes":{"ID":407776,"DIS_CODE":0,"TOWNNAME":"北區","LI":"成功里","LIN":"22鄰","STREET":"北安路","SECT":"一段","MAREA":" ","LANE":"１７６巷","ALLEY":" ","HOUSE_NO":"３４號","E_COORD97":168951.14999999999,"N_COORD97":2546542.8199999998,"ADDRESS":"北安路一段１７６巷３４號","OBJECTID":407752},"geometry":{"x":168951.15000000037,"y":2546542.8200000022}},{"attributes":{"ID":407777,"DIS_CODE":0,"TOWNNAME":"北區","LI":"成功里","LIN":"22鄰","STREET":"北安路","SECT":"一段","MAREA":" ","LANE":"１７６巷","ALLEY":" ","HOUSE_NO":"３６號","E_COORD97":168953.37,"N_COORD97":2546546.1600000001,"ADDRESS":"北安路一段１７６巷３６號","OBJECTID":407753},"geometry":{"x":168953.37000000197,"y":2546546.160000002}},{"attributes":{"ID":407778,"DIS_CODE":0,"TOWNNAME":"北區","LI":"成功里","LIN":"22鄰","STREET":"北安路","SECT":"一段","MAREA":" ","LANE":"１７６巷","ALLEY":" ","HOUSE_NO":"３８號","E_COORD97":168955.75,"N_COORD97":2546549.5699999998,"ADDRESS":"北安路一段１７６巷３８號","OBJECTID":407754},"geometry":{"x":168955.75000000186,"y":2546549.5700000003}},{"attributes":{"ID":407779,"DIS_CODE":0,"TOWNNAME":"北區","LI":"成功里","LIN":"22鄰","STREET":"北安路","SECT":"一段","MAREA":" ","LANE":"１７６巷","ALLEY":" ","HOUSE_NO":"４２號","E_COORD97":168962.42000000001,"N_COORD97":2546564.3300000001,"ADDRESS":"北安路一段１７６巷４２號","OBJECTID":407755},"geometry":{"x":168962.41999999993,"y":2546564.3300000001}},{"attributes":{"ID":407780,"DIS_CODE":0,"TOWNNAME":"北區","LI":"成功里","LIN":"22鄰","STREET":"北安路","SECT":"一段","MAREA":" ","LANE":"１７６巷","ALLEY":" ","HOUSE_NO":"４４號","E_COORD97":168964.48999999999,"N_COORD97":2546567.5099999998,"ADDRESS":"北安路一段１７６巷４４號","OBJECTID":407756},"geometry":{"x":168964.48999999929,"y":2546567.5100000016}},{"attributes":{"ID":407781,"DIS_CODE":0,"TOWNNAME":"北區","LI":"成功里","LIN":"22鄰","STREET":"北安路","SECT":"一段","MAREA":" ","LANE":"１７６巷","ALLEY":" ","HOUSE_NO":"４６號","E_COORD97":168966.23000000001,"N_COORD97":2546570.3700000001,"ADDRESS":"北安路一段１７６巷４６號","OBJECTID":407757},"geometry":{"x":168966.23000000045,"y":2546570.3700000029}},{"attributes":{"ID":407782,"DIS_CODE":0,"TOWNNAME":"北區","LI":"成功里","LIN":"22鄰","STREET":"北安路","SECT":"一段","MAREA":" ","LANE":"１７６巷","ALLEY":" ","HOUSE_NO":"４８號","E_COORD97":168967.98000000001,"N_COORD97":2546573.6200000001,"ADDRESS":"北安路一段１７６巷４８號","OBJECTID":407758},"geometry":{"x":168967.98000000045,"y":2546573.620000001}},{"attributes":{"ID":407783,"DIS_CODE":0,"TOWNNAME":"北區","LI":"成功里","LIN":"22鄰","STREET":"北安路","SECT":"一段","MAREA":" ","LANE":"１７６巷","ALLEY":" ","HOUSE_NO":"５０號","E_COORD97":168970.04000000001,"N_COORD97":2546577.1099999999,"ADDRESS":"北安路一段１７６巷５０號","OBJECTID":407759},"geometry":{"x":168970.04000000004,"y":2546577.1100000013}},{"attributes":{"ID":407784,"DIS_CODE":0,"TOWNNAME":"北區","LI":"成功里","LIN":"22鄰","STREET":"北安路","SECT":"一段","MAREA":" ","LANE":"１７６巷","ALLEY":" ","HOUSE_NO":"５２號","E_COORD97":168971,"N_COORD97":2546580.29,"ADDRESS":"北安路一段１７６巷５２號","OBJECTID":407760},"geometry":{"x":168971.00000000186,"y":2546580.2899999991}},{"attributes":{"ID":407785,"DIS_CODE":0,"TOWNNAME":"北區","LI":"成功里","LIN":"22鄰","STREET":"北安路","SECT":"一段","MAREA":" ","LANE":"１７６巷","ALLEY":" ","HOUSE_NO":"５４號","E_COORD97":168973.38,"N_COORD97":2546583.9399999999,"ADDRESS":"北安路一段１７６巷５４號","OBJECTID":407761},"geometry":{"x":168973.38000000175,"y":2546583.9400000032}},{"attributes":{"ID":407786,"DIS_CODE":0,"TOWNNAME":"北區","LI":"成功里","LIN":"22鄰","STREET":"北安路","SECT":"一段","MAREA":" ","LANE":"１７６巷","ALLEY":" ","HOUSE_NO":"５８號","E_COORD97":168978.29999999999,"N_COORD97":2546592.8300000001,"ADDRESS":"北安路一段１７６巷５８號","OBJECTID":407762},"geometry":{"x":168978.29999999981,"y":2546592.8300000019}},{"attributes":{"ID":407787,"DIS_CODE":0,"TOWNNAME":"北區","LI":"成功里","LIN":"22鄰","STREET":"北安路","SECT":"一段","MAREA":" ","LANE":"１７６巷","ALLEY":" ","HOUSE_NO":"６０號","E_COORD97":168979.57000000001,"N_COORD97":2546596.7999999998,"ADDRESS":"北安路一段１７６巷６０號","OBJECTID":407763},"geometry":{"x":168979.57000000123,"y":2546596.8000000026}},{"attributes":{"ID":407788,"DIS_CODE":0,"TOWNNAME":"北區","LI":"成功里","LIN":"22鄰","STREET":"北安路","SECT":"一段","MAREA":" ","LANE":"１７６巷","ALLEY":" ","HOUSE_NO":"６２號","E_COORD97":168981.63,"N_COORD97":2546599.5800000001,"ADDRESS":"北安路一段１７６巷６２號","OBJECTID":407764},"geometry":{"x":168981.62999999989,"y":2546599.5800000001}},{"attributes":{"ID":407789,"DIS_CODE":0,"TOWNNAME":"佳里區","LI":"安西里","LIN":"13鄰","STREET":"長安街","SECT":" ","MAREA":" ","LANE":" ","ALLEY":" ","HOUSE_NO":"８３號","E_COORD97":165413.47,"N_COORD97":2562448.6400000001,"ADDRESS":"長安街８３號","OBJECTID":407765},"geometry":{"x":165413.47000000067,"y":2562448.6400000025}},{"attributes":{"ID":407790,"DIS_CODE":0,"TOWNNAME":"北區","LI":"成功里","LIN":"22鄰","STREET":"北安路","SECT":"一段","MAREA":" ","LANE":"１７６巷","ALLEY":" ","HOUSE_NO":"６４號","E_COORD97":168983.69,"N_COORD97":2546603.4700000002,"ADDRESS":"北安路一段１７６巷６４號","OBJECTID":407766},"geometry":{"x":168983.68999999948,"y":2546603.4700000025}},{"attributes":{"ID":407791,"DIS_CODE":0,"TOWNNAME":"北區","LI":"成功里","LIN":"22鄰","STREET":"北安路","SECT":"一段","MAREA":" ","LANE":"１７６巷","ALLEY":" ","HOUSE_NO":"６６號","E_COORD97":168984.95999999999,"N_COORD97":2546606.7999999998,"ADDRESS":"北安路一段１７６巷６６號","OBJECTID":407767},"geometry":{"x":168984.96000000183,"y":2546606.8000000026}},{"attributes":{"ID":407792,"DIS_CODE":0,"TOWNNAME":"北區","LI":"成功里","LIN":"22鄰","STREET":"北安路","SECT":"一段","MAREA":" ","LANE":"１７６巷","ALLEY":" ","HOUSE_NO":"６８號","E_COORD97":168986.54999999999,"N_COORD97":2546610.4500000002,"ADDRESS":"北安路一段１７６巷６８號","OBJECTID":407768},"geometry":{"x":168986.55000000075,"y":2546610.4499999974}},{"attributes":{"ID":407793,"DIS_CODE":0,"TOWNNAME":"北區","LI":"成功里","LIN":"22鄰","STREET":"北安路","SECT":"一段","MAREA":" ","LANE":"１７６巷","ALLEY":" ","HOUSE_NO":"７０號","E_COORD97":168989.25,"N_COORD97":2546613.4700000002,"ADDRESS":"北安路一段１７６巷７０號","OBJECTID":407769},"geometry":{"x":168989.25,"y":2546613.4700000025}},{"attributes":{"ID":407794,"DIS_CODE":0,"TOWNNAME":"北區","LI":"成德里","LIN":"22鄰","STREET":"育成路","SECT":" ","MAREA":" ","LANE":"３１７巷","ALLEY":" ","HOUSE_NO":"４２號","E_COORD97":168362.47,"N_COORD97":2546831.3300000001,"ADDRESS":"育成路３１７巷４２號","OBJECTID":407770},"geometry":{"x":168362.4700000016,"y":2546831.3300000001}},{"attributes":{"ID":407795,"DIS_CODE":0,"TOWNNAME":"北區","LI":"成德里","LIN":"22鄰","STREET":"育成路","SECT":" ","MAREA":" ","LANE":"３１７巷","ALLEY":" ","HOUSE_NO":"４６號","E_COORD97":168353.42000000001,"N_COORD97":2546828.79,"ADDRESS":"育成路３１７巷４６號","OBJECTID":407771},"geometry":{"x":168353.42000000086,"y":2546828.7900000028}},{"attributes":{"ID":407796,"DIS_CODE":0,"TOWNNAME":"北區","LI":"成德里","LIN":"22鄰","STREET":"育成路","SECT":" ","MAREA":" ","LANE":"３１７巷","ALLEY":" ","HOUSE_NO":"４８號","E_COORD97":168342.31,"N_COORD97":2546825.6200000001,"ADDRESS":"育成路３１７巷４８號","OBJECTID":407772},"geometry":{"x":168342.30999999959,"y":2546825.6200000029}},{"attributes":{"ID":407797,"DIS_CODE":0,"TOWNNAME":"北區","LI":"成德里","LIN":"22鄰","STREET":"育成路","SECT":" ","MAREA":" ","LANE":"３１７巷","ALLEY":" ","HOUSE_NO":"５０號","E_COORD97":168331.98999999999,"N_COORD97":2546822.2799999998,"ADDRESS":"育成路３１７巷５０號","OBJECTID":407773},"geometry":{"x":168331.99000000022,"y":2546822.2800000031}},{"attributes":{"ID":407798,"DIS_CODE":0,"TOWNNAME":"北區","LI":"文元里","LIN":"22鄰","STREET":"文賢三街","SECT":" ","MAREA":" ","LANE":"１１０巷","ALLEY":" ","HOUSE_NO":"２號","E_COORD97":167845.23000000001,"N_COORD97":2545786.9900000002,"ADDRESS":"文賢三街１１０巷２號","OBJECTID":407774},"geometry":{"x":167845.23000000045,"y":2545786.9900000002}},{"attributes":{"ID":407799,"DIS_CODE":0,"TOWNNAME":"北區","LI":"文元里","LIN":"22鄰","STREET":"文賢三街","SECT":" ","MAREA":" ","LANE":"１１０巷","ALLEY":" ","HOUSE_NO":"３號","E_COORD97":167847.76999999999,"N_COORD97":2545798.4199999999,"ADDRESS":"文賢三街１１０巷３號","OBJECTID":407775},"geometry":{"x":167847.76999999955,"y":2545798.4200000018}},{"attributes":{"ID":407800,"DIS_CODE":0,"TOWNNAME":"北區","LI":"文元里","LIN":"22鄰","STREET":"文賢三街","SECT":" ","MAREA":" ","LANE":"１１０巷","ALLEY":" ","HOUSE_NO":"５號","E_COORD97":167852.37,"N_COORD97":2545798.4199999999,"ADDRESS":"文賢三街１１０巷５號","OBJECTID":407776},"geometry":{"x":167852.37000000104,"y":2545798.4200000018}},{"attributes":{"ID":407801,"DIS_CODE":0,"TOWNNAME":"北區","LI":"文元里","LIN":"22鄰","STREET":"文賢三街","SECT":" ","MAREA":" ","LANE":"１１０巷","ALLEY":" ","HOUSE_NO":"１５號","E_COORD97":167880.31,"N_COORD97":2545800.7200000002,"ADDRESS":"文賢三街１１０巷１５號","OBJECTID":407777},"geometry":{"x":167880.31000000145,"y":2545800.7200000025}},{"attributes":{"ID":407802,"DIS_CODE":0,"TOWNNAME":"北區","LI":"文元里","LIN":"22鄰","STREET":"文賢三街","SECT":" ","MAREA":" ","LANE":"１１０巷","ALLEY":" ","HOUSE_NO":"１３號","E_COORD97":167874.12,"N_COORD97":2545800.0899999999,"ADDRESS":"文賢三街１１０巷１３號","OBJECTID":407778},"geometry":{"x":167874.12000000104,"y":2545800.0900000036}},{"attributes":{"ID":407803,"DIS_CODE":0,"TOWNNAME":"北區","LI":"文元里","LIN":"22鄰","STREET":"文賢三街","SECT":" ","MAREA":" ","LANE":"１１０巷","ALLEY":" ","HOUSE_NO":"１１號","E_COORD97":167868.56,"N_COORD97":2545799.6099999999,"ADDRESS":"文賢三街１１０巷１１號","OBJECTID":407779},"geometry":{"x":167868.56000000052,"y":2545799.6100000031}},{"attributes":{"ID":407804,"DIS_CODE":0,"TOWNNAME":"北區","LI":"文元里","LIN":"22鄰","STREET":"文賢三街","SECT":" ","MAREA":" ","LANE":"１１０巷","ALLEY":" ","HOUSE_NO":"７號","E_COORD97":167856.98000000001,"N_COORD97":2545798.9700000002,"ADDRESS":"文賢三街１１０巷７號","OBJECTID":407780},"geometry":{"x":167856.98000000138,"y":2545798.9700000025}},{"attributes":{"ID":407805,"DIS_CODE":0,"TOWNNAME":"北區","LI":"文元里","LIN":"22鄰","STREET":"文賢三街","SECT":" ","MAREA":" ","LANE":"１１０巷","ALLEY":" ","HOUSE_NO":"１０號","E_COORD97":167857.92999999999,"N_COORD97":2545788.5,"ADDRESS":"文賢三街１１０巷１０號","OBJECTID":407781},"geometry":{"x":167857.93000000063,"y":2545788.5000000019}},{"attributes":{"ID":407806,"DIS_CODE":0,"TOWNNAME":"北區","LI":"文元里","LIN":"22鄰","STREET":"文賢三街","SECT":" ","MAREA":" ","LANE":"１１０巷","ALLEY":" ","HOUSE_NO":"１２號","E_COORD97":167864.75,"N_COORD97":2545788.5,"ADDRESS":"文賢三街１１０巷１２號","OBJECTID":407782},"geometry":{"x":167864.75000000093,"y":2545788.5000000019}},{"attributes":{"ID":407807,"DIS_CODE":0,"TOWNNAME":"北區","LI":"文元里","LIN":"22鄰","STREET":"文賢三街","SECT":" ","MAREA":" ","LANE":"１１０巷","ALLEY":" ","HOUSE_NO":"１６號","E_COORD97":167870.95000000001,"N_COORD97":2545789.4500000002,"ADDRESS":"文賢三街１１０巷１６號","OBJECTID":407783},"geometry":{"x":167870.95000000019,"y":2545789.4499999993}},{"attributes":{"ID":407808,"DIS_CODE":0,"TOWNNAME":"北區","LI":"文元里","LIN":"22鄰","STREET":"文賢三街","SECT":" ","MAREA":" ","LANE":"１１０巷","ALLEY":" ","HOUSE_NO":"１８號","E_COORD97":167876.03,"N_COORD97":2545789.6099999999,"ADDRESS":"文賢三街１１０巷１８號","OBJECTID":407784},"geometry":{"x":167876.03000000212,"y":2545789.6100000013}},{"attributes":{"ID":407809,"DIS_CODE":0,"TOWNNAME":"北區","LI":"文元里","LIN":"22鄰","STREET":"文賢三街","SECT":" ","MAREA":" ","LANE":"１１０巷","ALLEY":" ","HOUSE_NO":"２０號","E_COORD97":167881.26000000001,"N_COORD97":2545789.6099999999,"ADDRESS":"文賢三街１１０巷２０號","OBJECTID":407785},"geometry":{"x":167881.26000000071,"y":2545789.6100000013}},{"attributes":{"ID":407810,"DIS_CODE":0,"TOWNNAME":"北區","LI":"文元里","LIN":"22鄰","STREET":"文賢三街","SECT":" ","MAREA":" ","LANE":"１１０巷","ALLEY":" ","HOUSE_NO":"６號","E_COORD97":167849.67000000001,"N_COORD97":2545787.3900000001,"ADDRESS":"文賢三街１１０巷６號","OBJECTID":407786},"geometry":{"x":167849.67000000086,"y":2545787.3900000006}},{"attributes":{"ID":407811,"DIS_CODE":0,"TOWNNAME":"北區","LI":"文元里","LIN":"22鄰","STREET":"文賢三街","SECT":" ","MAREA":" ","LANE":"１１０巷","ALLEY":" ","HOUSE_NO":"８號","E_COORD97":167853.17000000001,"N_COORD97":2545787.8599999999,"ADDRESS":"文賢三街１１０巷８號","OBJECTID":407787},"geometry":{"x":167853.17000000086,"y":2545787.8600000013}},{"attributes":{"ID":407812,"DIS_CODE":0,"TOWNNAME":"北區","LI":"文元里","LIN":"22鄰","STREET":"文賢三街","SECT":" ","MAREA":" ","LANE":"１１０巷","ALLEY":" ","HOUSE_NO":"９號","E_COORD97":167862.20999999999,"N_COORD97":2545799.29,"ADDRESS":"文賢三街１１０巷９號","OBJECTID":407788},"geometry":{"x":167862.20999999996,"y":2545799.290000001}},{"attributes":{"ID":407813,"DIS_CODE":0,"TOWNNAME":"北區","LI":"成德里","LIN":"22鄰","STREET":"北安路","SECT":"一段","MAREA":" ","LANE":"３４１巷","ALLEY":" ","HOUSE_NO":"５２之１號","E_COORD97":168356.06,"N_COORD97":2546768.9700000002,"ADDRESS":"北安路一段３４１巷５２之１號","OBJECTID":407789},"geometry":{"x":168356.05999999959,"y":2546768.9700000025}},{"attributes":{"ID":407814,"DIS_CODE":0,"TOWNNAME":"北區","LI":"成德里","LIN":"22鄰","STREET":"北安路","SECT":"一段","MAREA":" ","LANE":"３４１巷","ALLEY":" ","HOUSE_NO":"５２之２號","E_COORD97":168351.29999999999,"N_COORD97":2546768.9700000002,"ADDRESS":"北安路一段３４１巷５２之２號","OBJECTID":407790},"geometry":{"x":168351.29999999981,"y":2546768.9700000025}},{"attributes":{"ID":407815,"DIS_CODE":0,"TOWNNAME":"北區","LI":"文元里","LIN":"22鄰","STREET":"和緯路","SECT":"三段","MAREA":" ","LANE":"１８０巷","ALLEY":" ","HOUSE_NO":"７０之１號","E_COORD97":167936.62,"N_COORD97":2545868.29,"ADDRESS":"和緯路三段１８０巷７０之１號","OBJECTID":407791},"geometry":{"x":167936.62000000104,"y":2545868.2899999991}},{"attributes":{"ID":407816,"DIS_CODE":0,"TOWNNAME":"南區","LI":"文南里","LIN":"22鄰","STREET":"中華西路","SECT":"一段","MAREA":" ","LANE":"１０９巷","ALLEY":" ","HOUSE_NO":"１６號","E_COORD97":166376.26000000001,"N_COORD97":2542445.0499999998,"ADDRESS":"中華西路一段１０９巷１６號","OBJECTID":407792},"geometry":{"x":166376.26000000071,"y":2542445.0500000045}},{"attributes":{"ID":407817,"DIS_CODE":0,"TOWNNAME":"北區","LI":"大和里","LIN":"22鄰","STREET":"大港街","SECT":" ","MAREA":" ","LANE":"１２４巷","ALLEY":" ","HOUSE_NO":"１０號","E_COORD97":167005.07999999999,"N_COORD97":2546062.9700000002,"ADDRESS":"大港街１２４巷１０號","OBJECTID":407793},"geometry":{"x":167005.08000000007,"y":2546062.9700000044}},{"attributes":{"ID":407818,"DIS_CODE":0,"TOWNNAME":"北區","LI":"大和里","LIN":"22鄰","STREET":"大港街","SECT":" ","MAREA":" ","LANE":"１２４巷","ALLEY":" ","HOUSE_NO":"１１號","E_COORD97":166983.23999999999,"N_COORD97":2546059.2000000002,"ADDRESS":"大港街１２４巷１１號","OBJECTID":407794},"geometry":{"x":166983.24000000115,"y":2546059.1999999993}},{"attributes":{"ID":407819,"DIS_CODE":0,"TOWNNAME":"北區","LI":"大和里","LIN":"22鄰","STREET":"大港街","SECT":" ","MAREA":" ","LANE":"１２４巷","ALLEY":" ","HOUSE_NO":"１２號","E_COORD97":167003.91,"N_COORD97":2546066.8100000001,"ADDRESS":"大港街１２４巷１２號","OBJECTID":407795},"geometry":{"x":167003.91000000108,"y":2546066.8100000005}},{"attributes":{"ID":407820,"DIS_CODE":0,"TOWNNAME":"北區","LI":"大和里","LIN":"22鄰","STREET":"大港街","SECT":" ","MAREA":" ","LANE":"１２４巷","ALLEY":" ","HOUSE_NO":"１３號","E_COORD97":166982.07000000001,"N_COORD97":2546063.04,"ADDRESS":"大港街１２４巷１３號","OBJECTID":407796},"geometry":{"x":166982.0700000003,"y":2546063.0399999991}},{"attributes":{"ID":407821,"DIS_CODE":0,"TOWNNAME":"北區","LI":"大和里","LIN":"22鄰","STREET":"大港街","SECT":" ","MAREA":" ","LANE":"１２４巷","ALLEY":" ","HOUSE_NO":"１４號","E_COORD97":167002.07999999999,"N_COORD97":2546071.3100000001,"ADDRESS":"大港街１２４巷１４號","OBJECTID":407797},"geometry":{"x":167002.08000000007,"y":2546071.3100000024}},{"attributes":{"ID":407822,"DIS_CODE":0,"TOWNNAME":"北區","LI":"大和里","LIN":"22鄰","STREET":"大港街","SECT":" ","MAREA":" ","LANE":"１２４巷","ALLEY":" ","HOUSE_NO":"１５號","E_COORD97":166980.25,"N_COORD97":2546067.2200000002,"ADDRESS":"大港街１２４巷１５號","OBJECTID":407798},"geometry":{"x":166980.25,"y":2546067.2200000007}},{"attributes":{"ID":407823,"DIS_CODE":0,"TOWNNAME":"北區","LI":"大和里","LIN":"22鄰","STREET":"大港街","SECT":" ","MAREA":" ","LANE":"１２４巷","ALLEY":" ","HOUSE_NO":"１６號","E_COORD97":167000.20000000001,"N_COORD97":2546075.8700000001,"ADDRESS":"大港街１２４巷１６號","OBJECTID":407799},"geometry":{"x":167000.20000000205,"y":2546075.870000001}},{"attributes":{"ID":407824,"DIS_CODE":0,"TOWNNAME":"北區","LI":"大和里","LIN":"22鄰","STREET":"大港街","SECT":" ","MAREA":" ","LANE":"１２４巷","ALLEY":" ","HOUSE_NO":"１７號","E_COORD97":166977.89999999999,"N_COORD97":2546071.3300000001,"ADDRESS":"大港街１２４巷１７號","OBJECTID":407800},"geometry":{"x":166977.90000000037,"y":2546071.3300000019}}]}