{"displayFieldName":"TOWNNAME","fieldAliases":{"ID":"ID","DIS_CODE":"DIS_CODE","TOWNNAME":"TOWNNAME","LI":"LI","LIN":"LIN","STREET":"STREET","SECT":"SECT","MAREA":"MAREA","LANE":"LANE","ALLEY":"ALLEY","HOUSE_NO":"HOUSE_NO","E_COORD97":"E_COORD97","N_COORD97":"N_COORD97","ADDRESS":"ADDRESS","OBJECTID":"OBJECTID"},"geometryType":"esriGeometryPoint","spatialReference":{"wkid":102443,"latestWkid":3826},"fields":[{"name":"ID","type":"esriFieldTypeDouble","alias":"ID"},{"name":"DIS_CODE","type":"esriFieldTypeInteger","alias":"DIS_CODE"},{"name":"TOWNNAME","type":"esriFieldTypeString","alias":"TOWNNAME","length":8},{"name":"LI","type":"esriFieldTypeString","alias":"LI","length":8},{"name":"LIN","type":"esriFieldTypeString","alias":"LIN","length":12},{"name":"STREET","type":"esriFieldTypeString","alias":"STREET","length":20},{"name":"SECT","type":"esriFieldTypeString","alias":"SECT","length":8},{"name":"MAREA","type":"esriFieldTypeString","alias":"MAREA","length":12},{"name":"LANE","type":"esriFieldTypeString","alias":"LANE","length":10},{"name":"ALLEY","type":"esriFieldTypeString","alias":"ALLEY","length":10},{"name":"HOUSE_NO","type":"esriFieldTypeString","alias":"HOUSE_NO","length":20},{"name":"E_COORD97","type":"esriFieldTypeDouble","alias":"E_COORD97"},{"name":"N_COORD97","type":"esriFieldTypeDouble","alias":"N_COORD97"},{"name":"ADDRESS","type":"esriFieldTypeString","alias":"ADDRESS","length":50},{"name":"OBJECTID","type":"esriFieldTypeOID","alias":"OBJECTID"}],"features":[{"attributes":{"ID":573228,"DIS_CODE":0,"TOWNNAME":"六甲區","LI":"二甲里","LIN":"23鄰","STREET":"信義街","SECT":" ","MAREA":" ","LANE":" ","ALLEY":" ","HOUSE_NO":"３０３號","E_COORD97":183362.64000000001,"N_COORD97":2569941.6400000001,"ADDRESS":"信義街３０３號","OBJECTID":573201},"geometry":{"x":183362.6400000006,"y":2569941.6400000025}},{"attributes":{"ID":573229,"DIS_CODE":0,"TOWNNAME":"六甲區","LI":"二甲里","LIN":"23鄰","STREET":"信義街","SECT":" ","MAREA":" ","LANE":" ","ALLEY":" ","HOUSE_NO":"３０５號","E_COORD97":183363.47,"N_COORD97":2569945.9399999999,"ADDRESS":"信義街３０５號","OBJECTID":573202},"geometry":{"x":183363.47000000067,"y":2569945.9399999995}},{"attributes":{"ID":573230,"DIS_CODE":0,"TOWNNAME":"六甲區","LI":"二甲里","LIN":"23鄰","STREET":"信義街","SECT":" ","MAREA":" ","LANE":" ","ALLEY":" ","HOUSE_NO":"３０７號","E_COORD97":183364.60999999999,"N_COORD97":2569949.6899999999,"ADDRESS":"信義街３０７號","OBJECTID":573203},"geometry":{"x":183364.6100000022,"y":2569949.6900000013}},{"attributes":{"ID":573231,"DIS_CODE":0,"TOWNNAME":"六甲區","LI":"二甲里","LIN":"23鄰","STREET":"信義街","SECT":" ","MAREA":" ","LANE":" ","ALLEY":" ","HOUSE_NO":"３０９號","E_COORD97":183365.41,"N_COORD97":2569953.7200000002,"ADDRESS":"信義街３０９號","OBJECTID":573204},"geometry":{"x":183365.41000000015,"y":2569953.7200000025}},{"attributes":{"ID":573232,"DIS_CODE":0,"TOWNNAME":"六甲區","LI":"二甲里","LIN":"23鄰","STREET":"信義街","SECT":" ","MAREA":" ","LANE":" ","ALLEY":" ","HOUSE_NO":"３１１號","E_COORD97":183366.22,"N_COORD97":2569957.71,"ADDRESS":"信義街３１１號","OBJECTID":573205},"geometry":{"x":183366.21999999974,"y":2569957.7100000028}},{"attributes":{"ID":573233,"DIS_CODE":0,"TOWNNAME":"六甲區","LI":"二甲里","LIN":"23鄰","STREET":"信義街","SECT":" ","MAREA":" ","LANE":" ","ALLEY":" ","HOUSE_NO":"３１３號","E_COORD97":183367.09,"N_COORD97":2569961.98,"ADDRESS":"信義街３１３號","OBJECTID":573206},"geometry":{"x":183367.08999999985,"y":2569961.9800000023}},{"attributes":{"ID":573234,"DIS_CODE":0,"TOWNNAME":"六甲區","LI":"二甲里","LIN":"23鄰","STREET":"信義街","SECT":" ","MAREA":" ","LANE":" ","ALLEY":" ","HOUSE_NO":"３１５號","E_COORD97":183367.67999999999,"N_COORD97":2569965.7200000002,"ADDRESS":"信義街３１５號","OBJECTID":573207},"geometry":{"x":183367.6799999997,"y":2569965.7200000007}},{"attributes":{"ID":573235,"DIS_CODE":0,"TOWNNAME":"六甲區","LI":"甲東里","LIN":"23鄰","STREET":"裕農街","SECT":" ","MAREA":" ","LANE":" ","ALLEY":" ","HOUSE_NO":"１２號","E_COORD97":183978.82000000001,"N_COORD97":2569609.4100000001,"ADDRESS":"裕農街１２號","OBJECTID":573208},"geometry":{"x":183978.82000000123,"y":2569609.410000002}},{"attributes":{"ID":573236,"DIS_CODE":0,"TOWNNAME":"六甲區","LI":"甲東里","LIN":"23鄰","STREET":"裕農街","SECT":" ","MAREA":" ","LANE":" ","ALLEY":" ","HOUSE_NO":"１４號","E_COORD97":183990.76999999999,"N_COORD97":2569618.3700000001,"ADDRESS":"裕農街１４號","OBJECTID":573209},"geometry":{"x":183990.76999999955,"y":2569618.3700000029}},{"attributes":{"ID":573237,"DIS_CODE":0,"TOWNNAME":"六甲區","LI":"甲東里","LIN":"23鄰","STREET":"裕農街","SECT":" ","MAREA":" ","LANE":" ","ALLEY":" ","HOUSE_NO":"１８號","E_COORD97":183997.14000000001,"N_COORD97":2569608.8599999999,"ADDRESS":"裕農街１８號","OBJECTID":573210},"geometry":{"x":183997.13999999966,"y":2569608.8600000013}},{"attributes":{"ID":573238,"DIS_CODE":0,"TOWNNAME":"六甲區","LI":"甲東里","LIN":"23鄰","STREET":"裕農街","SECT":" ","MAREA":" ","LANE":" ","ALLEY":" ","HOUSE_NO":"２０號","E_COORD97":183996.97,"N_COORD97":2569593.6800000002,"ADDRESS":"裕農街２０號","OBJECTID":573211},"geometry":{"x":183996.96999999974,"y":2569593.6800000016}},{"attributes":{"ID":573239,"DIS_CODE":0,"TOWNNAME":"六甲區","LI":"甲東里","LIN":"23鄰","STREET":"裕農街","SECT":" ","MAREA":" ","LANE":" ","ALLEY":" ","HOUSE_NO":"２２號","E_COORD97":184005.76999999999,"N_COORD97":2569595.7200000002,"ADDRESS":"裕農街２２號","OBJECTID":573212},"geometry":{"x":184005.77000000048,"y":2569595.7200000007}},{"attributes":{"ID":573240,"DIS_CODE":0,"TOWNNAME":"新營區","LI":"新東里","LIN":"23鄰","STREET":"民治東路","SECT":" ","MAREA":" ","LANE":" ","ALLEY":" ","HOUSE_NO":"１２號","E_COORD97":180734.81,"N_COORD97":2578912.5699999998,"ADDRESS":"民治東路１２號","OBJECTID":573213},"geometry":{"x":180734.81000000145,"y":2578912.5700000022}},{"attributes":{"ID":573241,"DIS_CODE":0,"TOWNNAME":"新營區","LI":"民權里","LIN":"23鄰","STREET":"民權路","SECT":" ","MAREA":" ","LANE":" ","ALLEY":" ","HOUSE_NO":"１０２號","E_COORD97":179639.57000000001,"N_COORD97":2578694.0299999998,"ADDRESS":"民權路１０２號","OBJECTID":573214},"geometry":{"x":179639.5700000003,"y":2578694.0300000012}},{"attributes":{"ID":573242,"DIS_CODE":0,"TOWNNAME":"新營區","LI":"民權里","LIN":"23鄰","STREET":"民治路","SECT":" ","MAREA":" ","LANE":" ","ALLEY":" ","HOUSE_NO":"５５號之２","E_COORD97":179659.67000000001,"N_COORD97":2578830.21,"ADDRESS":"民治路５５號之２","OBJECTID":573215},"geometry":{"x":179659.67000000179,"y":2578830.2100000028}},{"attributes":{"ID":573243,"DIS_CODE":0,"TOWNNAME":"新營區","LI":"民權里","LIN":"23鄰","STREET":"民權路","SECT":" ","MAREA":" ","LANE":" ","ALLEY":" ","HOUSE_NO":"１０４號","E_COORD97":179638.57000000001,"N_COORD97":2578699.5699999998,"ADDRESS":"民權路１０４號","OBJECTID":573216},"geometry":{"x":179638.5700000003,"y":2578699.5700000003}},{"attributes":{"ID":573244,"DIS_CODE":0,"TOWNNAME":"新營區","LI":"大宏里","LIN":"23鄰","STREET":"民治路","SECT":" ","MAREA":" ","LANE":" ","ALLEY":" ","HOUSE_NO":"１號之２１","E_COORD97":180643.47,"N_COORD97":2578825.5699999998,"ADDRESS":"民治路１號之２１","OBJECTID":573217},"geometry":{"x":180643.46999999974,"y":2578825.5700000003}},{"attributes":{"ID":573245,"DIS_CODE":0,"TOWNNAME":"新營區","LI":"王公里","LIN":"23鄰","STREET":"樂仁街","SECT":" ","MAREA":" ","LANE":" ","ALLEY":" ","HOUSE_NO":"４３號","E_COORD97":180515.23000000001,"N_COORD97":2579182.71,"ADDRESS":"樂仁街４３號","OBJECTID":573218},"geometry":{"x":180515.23000000045,"y":2579182.7100000028}},{"attributes":{"ID":573246,"DIS_CODE":0,"TOWNNAME":"新營區","LI":"民生里","LIN":"23鄰","STREET":"公園路","SECT":"一段","MAREA":" ","LANE":" ","ALLEY":" ","HOUSE_NO":"２２號","E_COORD97":179204.57000000001,"N_COORD97":2578451.3599999999,"ADDRESS":"公園路一段２２號","OBJECTID":573219},"geometry":{"x":179204.5700000003,"y":2578451.3600000013}},{"attributes":{"ID":573247,"DIS_CODE":0,"TOWNNAME":"新營區","LI":"大宏里","LIN":"23鄰","STREET":"民治路","SECT":" ","MAREA":" ","LANE":" ","ALLEY":" ","HOUSE_NO":"１號之２８","E_COORD97":180624.07000000001,"N_COORD97":2578802.3999999999,"ADDRESS":"民治路１號之２８","OBJECTID":573220},"geometry":{"x":180624.07000000123,"y":2578802.4000000004}},{"attributes":{"ID":573248,"DIS_CODE":0,"TOWNNAME":"新營區","LI":"南興里","LIN":"23鄰","STREET":"南昌街","SECT":" ","MAREA":" ","LANE":" ","ALLEY":" ","HOUSE_NO":"７９號","E_COORD97":179394,"N_COORD97":2577644.2200000002,"ADDRESS":"南昌街７９號","OBJECTID":573221},"geometry":{"x":179394,"y":2577644.2200000007}},{"attributes":{"ID":573249,"DIS_CODE":0,"TOWNNAME":"新營區","LI":"民權里","LIN":"23鄰","STREET":"民權路","SECT":" ","MAREA":" ","LANE":" ","ALLEY":" ","HOUSE_NO":"１１８號之１","E_COORD97":179628.73000000001,"N_COORD97":2578760.5899999999,"ADDRESS":"民權路１１８號之１","OBJECTID":573222},"geometry":{"x":179628.73000000045,"y":2578760.5899999999}},{"attributes":{"ID":573250,"DIS_CODE":0,"TOWNNAME":"新營區","LI":"南興里","LIN":"23鄰","STREET":"南昌街","SECT":" ","MAREA":" ","LANE":" ","ALLEY":" ","HOUSE_NO":"９９號","E_COORD97":179348.95000000001,"N_COORD97":2577646.6499999999,"ADDRESS":"南昌街９９號","OBJECTID":573223},"geometry":{"x":179348.95000000019,"y":2577646.6500000022}},{"attributes":{"ID":573251,"DIS_CODE":0,"TOWNNAME":"新營區","LI":"民權里","LIN":"23鄰","STREET":"民治路","SECT":" ","MAREA":" ","LANE":" ","ALLEY":" ","HOUSE_NO":"５５號","E_COORD97":179666.60999999999,"N_COORD97":2578830.1200000001,"ADDRESS":"民治路５５號","OBJECTID":573224},"geometry":{"x":179666.61000000034,"y":2578830.1200000048}},{"attributes":{"ID":573252,"DIS_CODE":0,"TOWNNAME":"新營區","LI":"南興里","LIN":"23鄰","STREET":"南昌街","SECT":" ","MAREA":" ","LANE":" ","ALLEY":" ","HOUSE_NO":"８３號","E_COORD97":179381.78,"N_COORD97":2577645.3900000001,"ADDRESS":"南昌街８３號","OBJECTID":573225},"geometry":{"x":179381.78000000119,"y":2577645.3900000025}},{"attributes":{"ID":573253,"DIS_CODE":0,"TOWNNAME":"新營區","LI":"民權里","LIN":"23鄰","STREET":"民權路","SECT":" ","MAREA":" ","LANE":" ","ALLEY":" ","HOUSE_NO":"１０６號","E_COORD97":179637.57999999999,"N_COORD97":2578704.0099999998,"ADDRESS":"民權路１０６號","OBJECTID":573226},"geometry":{"x":179637.58000000007,"y":2578704.0100000035}},{"attributes":{"ID":573254,"DIS_CODE":0,"TOWNNAME":"新營區","LI":"三仙里","LIN":"23鄰","STREET":"育德一街","SECT":" ","MAREA":" ","LANE":" ","ALLEY":" ","HOUSE_NO":"７號","E_COORD97":179575.84,"N_COORD97":2578931.3199999998,"ADDRESS":"育德一街７號","OBJECTID":573227},"geometry":{"x":179575.84000000078,"y":2578931.3200000022}},{"attributes":{"ID":573255,"DIS_CODE":0,"TOWNNAME":"新營區","LI":"新南里","LIN":"23鄰","STREET":"長榮路","SECT":"二段","MAREA":" ","LANE":" ","ALLEY":" ","HOUSE_NO":"１０９６號","E_COORD97":177800.54999999999,"N_COORD97":2578659.7000000002,"ADDRESS":"長榮路二段１０９６號","OBJECTID":573228},"geometry":{"x":177800.54999999981,"y":2578659.7000000011}},{"attributes":{"ID":573256,"DIS_CODE":0,"TOWNNAME":"新營區","LI":"民權里","LIN":"23鄰","STREET":"民權路","SECT":" ","MAREA":" ","LANE":" ","ALLEY":" ","HOUSE_NO":"１００號","E_COORD97":179640.57999999999,"N_COORD97":2578690.7000000002,"ADDRESS":"民權路１００號","OBJECTID":573229},"geometry":{"x":179640.58000000101,"y":2578690.6999999993}},{"attributes":{"ID":573257,"DIS_CODE":0,"TOWNNAME":"新營區","LI":"大宏里","LIN":"23鄰","STREET":"民治路","SECT":" ","MAREA":" ","LANE":" ","ALLEY":" ","HOUSE_NO":"１號之２９","E_COORD97":180622.91,"N_COORD97":2578786.8999999999,"ADDRESS":"民治路１號之２９","OBJECTID":573230},"geometry":{"x":180622.91000000201,"y":2578786.9000000041}},{"attributes":{"ID":573258,"DIS_CODE":0,"TOWNNAME":"新營區","LI":"民生里","LIN":"23鄰","STREET":"公園路","SECT":"一段","MAREA":" ","LANE":" ","ALLEY":" ","HOUSE_NO":"８號","E_COORD97":179231.98999999999,"N_COORD97":2578457.8599999999,"ADDRESS":"公園路一段８號","OBJECTID":573231},"geometry":{"x":179231.99000000022,"y":2578457.8600000013}},{"attributes":{"ID":573259,"DIS_CODE":0,"TOWNNAME":"新營區","LI":"民權里","LIN":"23鄰","STREET":"民治路","SECT":" ","MAREA":" ","LANE":" ","ALLEY":" ","HOUSE_NO":"５９號","E_COORD97":179631.82999999999,"N_COORD97":2578829.1800000002,"ADDRESS":"民治路５９號","OBJECTID":573232},"geometry":{"x":179631.83000000101,"y":2578829.1800000016}},{"attributes":{"ID":573260,"DIS_CODE":0,"TOWNNAME":"新營區","LI":"民權里","LIN":"23鄰","STREET":"民權路","SECT":" ","MAREA":" ","LANE":" ","ALLEY":" ","HOUSE_NO":"１１２號","E_COORD97":179634.57000000001,"N_COORD97":2578717.3100000001,"ADDRESS":"民權路１１２號","OBJECTID":573233},"geometry":{"x":179634.5700000003,"y":2578717.3100000024}},{"attributes":{"ID":573261,"DIS_CODE":0,"TOWNNAME":"新營區","LI":"三仙里","LIN":"23鄰","STREET":"育德一街","SECT":" ","MAREA":" ","LANE":" ","ALLEY":" ","HOUSE_NO":"５號","E_COORD97":179578.89999999999,"N_COORD97":2578931.3100000001,"ADDRESS":"育德一街５號","OBJECTID":573234},"geometry":{"x":179578.90000000224,"y":2578931.3100000024}},{"attributes":{"ID":573262,"DIS_CODE":0,"TOWNNAME":"歸仁區","LI":"八甲里","LIN":"23鄰","STREET":"大德路","SECT":" ","MAREA":" ","LANE":" ","ALLEY":" ","HOUSE_NO":"１０８號","E_COORD97":178138.98999999999,"N_COORD97":2541317.25,"ADDRESS":"大德路１０８號","OBJECTID":573235},"geometry":{"x":178138.99000000209,"y":2541317.2500000037}},{"attributes":{"ID":573263,"DIS_CODE":0,"TOWNNAME":"北區","LI":"文元里","LIN":"23鄰","STREET":"文成三路","SECT":" ","MAREA":" ","LANE":" ","ALLEY":" ","HOUSE_NO":"７２６號","E_COORD97":167870.56,"N_COORD97":2546284.3799999999,"ADDRESS":"文成三路７２６號","OBJECTID":573236},"geometry":{"x":167870.56000000052,"y":2546284.379999999}},{"attributes":{"ID":573264,"DIS_CODE":0,"TOWNNAME":"北區","LI":"文元里","LIN":"23鄰","STREET":"文成三路","SECT":" ","MAREA":" ","LANE":" ","ALLEY":" ","HOUSE_NO":"６８６號","E_COORD97":167935.20999999999,"N_COORD97":2546284.71,"ADDRESS":"文成三路６８６號","OBJECTID":573237},"geometry":{"x":167935.20999999996,"y":2546284.7100000009}},{"attributes":{"ID":573265,"DIS_CODE":0,"TOWNNAME":"歸仁區","LI":"後市里","LIN":"23鄰","STREET":"大通路","SECT":" ","MAREA":" ","LANE":" ","ALLEY":" ","HOUSE_NO":"１４０號","E_COORD97":177500.60000000001,"N_COORD97":2540923.25,"ADDRESS":"大通路１４０號","OBJECTID":573238},"geometry":{"x":177500.60000000056,"y":2540923.25}},{"attributes":{"ID":573266,"DIS_CODE":0,"TOWNNAME":"北區","LI":"文元里","LIN":"23鄰","STREET":"海安路","SECT":"三段","MAREA":" ","LANE":" ","ALLEY":" ","HOUSE_NO":"８３７號","E_COORD97":167994.84,"N_COORD97":2546346.77,"ADDRESS":"海安路三段８３７號","OBJECTID":573239},"geometry":{"x":167994.83999999985,"y":2546346.7699999996}},{"attributes":{"ID":573267,"DIS_CODE":0,"TOWNNAME":"北區","LI":"文元里","LIN":"23鄰","STREET":"文賢三街","SECT":" ","MAREA":" ","LANE":" ","ALLEY":" ","HOUSE_NO":"３１８號","E_COORD97":167812.92999999999,"N_COORD97":2546325.52,"ADDRESS":"文賢三街３１８號","OBJECTID":573240},"geometry":{"x":167812.9299999997,"y":2546325.5199999977}},{"attributes":{"ID":573268,"DIS_CODE":0,"TOWNNAME":"北區","LI":"文元里","LIN":"23鄰","STREET":"文賢三街","SECT":" ","MAREA":" ","LANE":" ","ALLEY":" ","HOUSE_NO":"３１６號","E_COORD97":167813.20000000001,"N_COORD97":2546321.1000000001,"ADDRESS":"文賢三街３１６號","OBJECTID":573241},"geometry":{"x":167813.20000000019,"y":2546321.0999999996}},{"attributes":{"ID":573269,"DIS_CODE":0,"TOWNNAME":"北區","LI":"文元里","LIN":"23鄰","STREET":"文賢三街","SECT":" ","MAREA":" ","LANE":" ","ALLEY":" ","HOUSE_NO":"３１２號","E_COORD97":167813.48000000001,"N_COORD97":2546316.4100000001,"ADDRESS":"文賢三街３１２號","OBJECTID":573242},"geometry":{"x":167813.48000000045,"y":2546316.4100000001}},{"attributes":{"ID":573270,"DIS_CODE":0,"TOWNNAME":"北區","LI":"文元里","LIN":"23鄰","STREET":"文賢三街","SECT":" ","MAREA":" ","LANE":" ","ALLEY":" ","HOUSE_NO":"３１０號","E_COORD97":167813.48000000001,"N_COORD97":2546312,"ADDRESS":"文賢三街３１０號","OBJECTID":573243},"geometry":{"x":167813.48000000045,"y":2546312}},{"attributes":{"ID":573271,"DIS_CODE":0,"TOWNNAME":"北區","LI":"文元里","LIN":"23鄰","STREET":"文賢三街","SECT":" ","MAREA":" ","LANE":" ","ALLEY":" ","HOUSE_NO":"３０８號","E_COORD97":167814.31,"N_COORD97":2546307.8599999999,"ADDRESS":"文賢三街３０８號","OBJECTID":573244},"geometry":{"x":167814.31000000052,"y":2546307.8600000013}},{"attributes":{"ID":573272,"DIS_CODE":0,"TOWNNAME":"北區","LI":"文元里","LIN":"23鄰","STREET":"文賢三街","SECT":" ","MAREA":" ","LANE":" ","ALLEY":" ","HOUSE_NO":"３０６號","E_COORD97":167814.85999999999,"N_COORD97":2546303.7200000002,"ADDRESS":"文賢三街３０６號","OBJECTID":573245},"geometry":{"x":167814.86000000127,"y":2546303.7200000007}},{"attributes":{"ID":573273,"DIS_CODE":0,"TOWNNAME":"歸仁區","LI":"後市里","LIN":"23鄰","STREET":"大通路","SECT":" ","MAREA":" ","LANE":" ","ALLEY":" ","HOUSE_NO":"１４６號","E_COORD97":177492.39999999999,"N_COORD97":2540924.25,"ADDRESS":"大通路１４６號","OBJECTID":573246},"geometry":{"x":177492.4000000013,"y":2540924.2500000019}},{"attributes":{"ID":573274,"DIS_CODE":0,"TOWNNAME":"歸仁區","LI":"後市里","LIN":"23鄰","STREET":"大通路","SECT":" ","MAREA":" ","LANE":" ","ALLEY":" ","HOUSE_NO":"１４８號","E_COORD97":177488.29999999999,"N_COORD97":2540924.25,"ADDRESS":"大通路１４８號","OBJECTID":573247},"geometry":{"x":177488.29999999981,"y":2540924.2500000019}},{"attributes":{"ID":573275,"DIS_CODE":0,"TOWNNAME":"歸仁區","LI":"後市里","LIN":"23鄰","STREET":"大通路","SECT":" ","MAREA":" ","LANE":" ","ALLEY":" ","HOUSE_NO":"１３６號","E_COORD97":177511.79999999999,"N_COORD97":2540921.25,"ADDRESS":"大通路１３６號","OBJECTID":573248},"geometry":{"x":177511.79999999981,"y":2540921.2500000019}},{"attributes":{"ID":573276,"DIS_CODE":0,"TOWNNAME":"南區","LI":"金華里","LIN":"23鄰","STREET":"健康路","SECT":"二段","MAREA":" ","LANE":" ","ALLEY":" ","HOUSE_NO":"２７９號","E_COORD97":166930.59,"N_COORD97":2542465.5299999998,"ADDRESS":"健康路二段２７９號","OBJECTID":573249},"geometry":{"x":166930.58999999985,"y":2542465.5299999993}},{"attributes":{"ID":573277,"DIS_CODE":0,"TOWNNAME":"南區","LI":"金華里","LIN":"23鄰","STREET":"健康路","SECT":"二段","MAREA":" ","LANE":" ","ALLEY":" ","HOUSE_NO":"２８１號","E_COORD97":166907.70000000001,"N_COORD97":2542467.6299999999,"ADDRESS":"健康路二段２８１號","OBJECTID":573250},"geometry":{"x":166907.70000000019,"y":2542467.6300000008}},{"attributes":{"ID":573278,"DIS_CODE":0,"TOWNNAME":"南區","LI":"金華里","LIN":"23鄰","STREET":"健康路","SECT":"二段","MAREA":" ","LANE":" ","ALLEY":" ","HOUSE_NO":"２８７號","E_COORD97":166892.42999999999,"N_COORD97":2542471.8300000001,"ADDRESS":"健康路二段２８７號","OBJECTID":573251},"geometry":{"x":166892.4299999997,"y":2542471.8300000001}},{"attributes":{"ID":573279,"DIS_CODE":0,"TOWNNAME":"南區","LI":"金華里","LIN":"23鄰","STREET":"健康路","SECT":"二段","MAREA":" ","LANE":" ","ALLEY":" ","HOUSE_NO":"２８９號","E_COORD97":166881.64999999999,"N_COORD97":2542470.7799999998,"ADDRESS":"健康路二段２８９號","OBJECTID":573252},"geometry":{"x":166881.65000000037,"y":2542470.7799999993}},{"attributes":{"ID":573280,"DIS_CODE":0,"TOWNNAME":"南區","LI":"金華里","LIN":"23鄰","STREET":"健康路","SECT":"二段","MAREA":" ","LANE":" ","ALLEY":" ","HOUSE_NO":"２９１號","E_COORD97":166875.85999999999,"N_COORD97":2542475.25,"ADDRESS":"健康路二段２９１號","OBJECTID":573253},"geometry":{"x":166875.86000000127,"y":2542475.25}},{"attributes":{"ID":573281,"DIS_CODE":0,"TOWNNAME":"南區","LI":"金華里","LIN":"23鄰","STREET":"健康路","SECT":"二段","MAREA":" ","LANE":" ","ALLEY":" ","HOUSE_NO":"２９３號","E_COORD97":166871.38,"N_COORD97":2542473.4100000001,"ADDRESS":"健康路二段２９３號","OBJECTID":573254},"geometry":{"x":166871.38000000175,"y":2542473.410000002}},{"attributes":{"ID":573282,"DIS_CODE":0,"TOWNNAME":"南區","LI":"金華里","LIN":"23鄰","STREET":"健康路","SECT":"二段","MAREA":" ","LANE":" ","ALLEY":" ","HOUSE_NO":"２９５號","E_COORD97":166866.64999999999,"N_COORD97":2542473.4100000001,"ADDRESS":"健康路二段２９５號","OBJECTID":573255},"geometry":{"x":166866.65000000224,"y":2542473.410000002}},{"attributes":{"ID":573283,"DIS_CODE":0,"TOWNNAME":"南區","LI":"金華里","LIN":"23鄰","STREET":"健康路","SECT":"二段","MAREA":" ","LANE":" ","ALLEY":" ","HOUSE_NO":"２９７號","E_COORD97":166862.17000000001,"N_COORD97":2542474.2000000002,"ADDRESS":"健康路二段２９７號","OBJECTID":573256},"geometry":{"x":166862.16999999993,"y":2542474.2000000011}},{"attributes":{"ID":573284,"DIS_CODE":0,"TOWNNAME":"南區","LI":"金華里","LIN":"23鄰","STREET":"健康路","SECT":"二段","MAREA":" ","LANE":" ","ALLEY":" ","HOUSE_NO":"２９９號","E_COORD97":166857.70000000001,"N_COORD97":2542473.6699999999,"ADDRESS":"健康路二段２９９號","OBJECTID":573257},"geometry":{"x":166857.70000000205,"y":2542473.6700000037}},{"attributes":{"ID":573285,"DIS_CODE":0,"TOWNNAME":"南區","LI":"金華里","LIN":"23鄰","STREET":"健康路","SECT":"二段","MAREA":" ","LANE":" ","ALLEY":" ","HOUSE_NO":"３０１號","E_COORD97":166853.75,"N_COORD97":2542474.9900000002,"ADDRESS":"健康路二段３０１號","OBJECTID":573258},"geometry":{"x":166853.75000000186,"y":2542474.9899999984}},{"attributes":{"ID":573286,"DIS_CODE":0,"TOWNNAME":"南區","LI":"金華里","LIN":"23鄰","STREET":"健康路","SECT":"二段","MAREA":" ","LANE":" ","ALLEY":" ","HOUSE_NO":"３０３號","E_COORD97":166849.01000000001,"N_COORD97":2542474.46,"ADDRESS":"健康路二段３０３號","OBJECTID":573259},"geometry":{"x":166849.01000000071,"y":2542474.4600000009}},{"attributes":{"ID":573287,"DIS_CODE":0,"TOWNNAME":"南區","LI":"金華里","LIN":"23鄰","STREET":"健康路","SECT":"二段","MAREA":" ","LANE":" ","ALLEY":" ","HOUSE_NO":"３０５號","E_COORD97":166844.28,"N_COORD97":2542474.46,"ADDRESS":"健康路二段３０５號","OBJECTID":573260},"geometry":{"x":166844.28000000119,"y":2542474.4600000009}},{"attributes":{"ID":573288,"DIS_CODE":0,"TOWNNAME":"南區","LI":"金華里","LIN":"23鄰","STREET":"健康路","SECT":"二段","MAREA":" ","LANE":" ","ALLEY":" ","HOUSE_NO":"３０７號","E_COORD97":166840.32999999999,"N_COORD97":2542475.5099999998,"ADDRESS":"健康路二段３０７號","OBJECTID":573261},"geometry":{"x":166840.33000000101,"y":2542475.5100000016}},{"attributes":{"ID":573289,"DIS_CODE":0,"TOWNNAME":"南區","LI":"金華里","LIN":"23鄰","STREET":"健康路","SECT":"二段","MAREA":" ","LANE":" ","ALLEY":" ","HOUSE_NO":"３０９號","E_COORD97":166835.07000000001,"N_COORD97":2542476.04,"ADDRESS":"健康路二段３０９號","OBJECTID":573262},"geometry":{"x":166835.07000000216,"y":2542476.0399999991}},{"attributes":{"ID":573290,"DIS_CODE":0,"TOWNNAME":"南區","LI":"金華里","LIN":"23鄰","STREET":"健康路","SECT":"二段","MAREA":" ","LANE":" ","ALLEY":" ","HOUSE_NO":"３１１號","E_COORD97":166830.07000000001,"N_COORD97":2542475.5099999998,"ADDRESS":"健康路二段３１１號","OBJECTID":573263},"geometry":{"x":166830.07000000123,"y":2542475.5100000016}},{"attributes":{"ID":573291,"DIS_CODE":0,"TOWNNAME":"南區","LI":"金華里","LIN":"23鄰","STREET":"健康路","SECT":"二段","MAREA":" ","LANE":" ","ALLEY":" ","HOUSE_NO":"３１３號","E_COORD97":166825.85999999999,"N_COORD97":2542476.04,"ADDRESS":"健康路二段３１３號","OBJECTID":573264},"geometry":{"x":166825.86000000034,"y":2542476.0399999991}},{"attributes":{"ID":573292,"DIS_CODE":0,"TOWNNAME":"南區","LI":"金華里","LIN":"23鄰","STREET":"健康路","SECT":"二段","MAREA":" ","LANE":" ","ALLEY":" ","HOUSE_NO":"３１５號","E_COORD97":166819.79999999999,"N_COORD97":2542475.1299999999,"ADDRESS":"健康路二段３１５號","OBJECTID":573265},"geometry":{"x":166819.80000000075,"y":2542475.129999999}},{"attributes":{"ID":573293,"DIS_CODE":0,"TOWNNAME":"南區","LI":"金華里","LIN":"23鄰","STREET":"健康路","SECT":"二段","MAREA":" ","LANE":" ","ALLEY":" ","HOUSE_NO":"３１７號","E_COORD97":166815.42000000001,"N_COORD97":2542474.9300000002,"ADDRESS":"健康路二段３１７號","OBJECTID":573266},"geometry":{"x":166815.42000000086,"y":2542474.9300000034}},{"attributes":{"ID":573294,"DIS_CODE":0,"TOWNNAME":"南區","LI":"金華里","LIN":"23鄰","STREET":"健康路","SECT":"二段","MAREA":" ","LANE":" ","ALLEY":" ","HOUSE_NO":"３１９號","E_COORD97":166810.45000000001,"N_COORD97":2542475.1299999999,"ADDRESS":"健康路二段３１９號","OBJECTID":573267},"geometry":{"x":166810.45000000112,"y":2542475.129999999}},{"attributes":{"ID":573295,"DIS_CODE":0,"TOWNNAME":"南區","LI":"金華里","LIN":"23鄰","STREET":"健康路","SECT":"二段","MAREA":" ","LANE":" ","ALLEY":" ","HOUSE_NO":"３２１號","E_COORD97":166805.67000000001,"N_COORD97":2542475.73,"ADDRESS":"健康路二段３２１號","OBJECTID":573268},"geometry":{"x":166805.67000000086,"y":2542475.7300000004}},{"attributes":{"ID":573296,"DIS_CODE":0,"TOWNNAME":"南區","LI":"金華里","LIN":"23鄰","STREET":"健康路","SECT":"二段","MAREA":" ","LANE":" ","ALLEY":" ","HOUSE_NO":"３２３號","E_COORD97":166800.5,"N_COORD97":2542477.1200000001,"ADDRESS":"健康路二段３２３號","OBJECTID":573269},"geometry":{"x":166800.5,"y":2542477.120000001}},{"attributes":{"ID":573297,"DIS_CODE":0,"TOWNNAME":"南區","LI":"金華里","LIN":"23鄰","STREET":"健康路","SECT":"二段","MAREA":" ","LANE":" ","ALLEY":" ","HOUSE_NO":"３２５號","E_COORD97":166795.92999999999,"N_COORD97":2542478.5099999998,"ADDRESS":"健康路二段３２５號","OBJECTID":573270},"geometry":{"x":166795.9299999997,"y":2542478.5100000016}},{"attributes":{"ID":573298,"DIS_CODE":0,"TOWNNAME":"南區","LI":"金華里","LIN":"23鄰","STREET":"健康路","SECT":"二段","MAREA":" ","LANE":" ","ALLEY":" ","HOUSE_NO":"３２７號","E_COORD97":166791.35000000001,"N_COORD97":2542479.5,"ADDRESS":"健康路二段３２７號","OBJECTID":573271},"geometry":{"x":166791.34999999963,"y":2542479.5000000019}},{"attributes":{"ID":573299,"DIS_CODE":0,"TOWNNAME":"南區","LI":"金華里","LIN":"23鄰","STREET":"健康路","SECT":"二段","MAREA":" ","LANE":" ","ALLEY":" ","HOUSE_NO":"３２９號","E_COORD97":166786.78,"N_COORD97":2542479.7000000002,"ADDRESS":"健康路二段３２９號","OBJECTID":573272},"geometry":{"x":166786.78000000119,"y":2542479.700000003}},{"attributes":{"ID":573300,"DIS_CODE":0,"TOWNNAME":"南區","LI":"金華里","LIN":"23鄰","STREET":"健康路","SECT":"二段","MAREA":" ","LANE":" ","ALLEY":" ","HOUSE_NO":"３３１號","E_COORD97":166781.41,"N_COORD97":2542480.6899999999,"ADDRESS":"健康路二段３３１號","OBJECTID":573273},"geometry":{"x":166781.41000000015,"y":2542480.6900000013}},{"attributes":{"ID":573301,"DIS_CODE":0,"TOWNNAME":"南區","LI":"金華里","LIN":"23鄰","STREET":"健康路","SECT":"二段","MAREA":" ","LANE":" ","ALLEY":" ","HOUSE_NO":"３３９號","E_COORD97":166762.70999999999,"N_COORD97":2542485.0600000001,"ADDRESS":"健康路二段３３９號","OBJECTID":573274},"geometry":{"x":166762.71000000089,"y":2542485.0600000042}},{"attributes":{"ID":573302,"DIS_CODE":0,"TOWNNAME":"南區","LI":"金華里","LIN":"23鄰","STREET":"健康路","SECT":"二段","MAREA":" ","LANE":" ","ALLEY":" ","HOUSE_NO":"３４１號","E_COORD97":166756.75,"N_COORD97":2542485.2599999998,"ADDRESS":"健康路二段３４１號","OBJECTID":573275},"geometry":{"x":166756.75,"y":2542485.2599999998}},{"attributes":{"ID":573303,"DIS_CODE":0,"TOWNNAME":"南區","LI":"金華里","LIN":"23鄰","STREET":"健康路","SECT":"二段","MAREA":" ","LANE":" ","ALLEY":" ","HOUSE_NO":"３４３號","E_COORD97":166750.78,"N_COORD97":2542485.8599999999,"ADDRESS":"健康路二段３４３號","OBJECTID":573276},"geometry":{"x":166750.78000000119,"y":2542485.8600000013}},{"attributes":{"ID":573304,"DIS_CODE":0,"TOWNNAME":"麻豆區","LI":"大埕里","LIN":"14鄰","STREET":"新興街","SECT":" ","MAREA":" ","LANE":" ","ALLEY":" ","HOUSE_NO":"２號","E_COORD97":172950.54000000001,"N_COORD97":2565192.3199999998,"ADDRESS":"新興街２號","OBJECTID":573277},"geometry":{"x":172950.54000000004,"y":2565192.3200000022}},{"attributes":{"ID":573305,"DIS_CODE":0,"TOWNNAME":"南區","LI":"金華里","LIN":"23鄰","STREET":"健康路","SECT":"二段","MAREA":" ","LANE":" ","ALLEY":" ","HOUSE_NO":"３４５號","E_COORD97":166746.41,"N_COORD97":2542486.6499999999,"ADDRESS":"健康路二段３４５號","OBJECTID":573278},"geometry":{"x":166746.41000000108,"y":2542486.6500000004}},{"attributes":{"ID":573306,"DIS_CODE":0,"TOWNNAME":"南區","LI":"金華里","LIN":"23鄰","STREET":"健康路","SECT":"二段","MAREA":" ","LANE":" ","ALLEY":" ","HOUSE_NO":"３４７號","E_COORD97":166741.23000000001,"N_COORD97":2542486.4500000002,"ADDRESS":"健康路二段３４７號","OBJECTID":573279},"geometry":{"x":166741.23000000138,"y":2542486.4499999993}},{"attributes":{"ID":573307,"DIS_CODE":0,"TOWNNAME":"南區","LI":"金華里","LIN":"23鄰","STREET":"健康路","SECT":"二段","MAREA":" ","LANE":" ","ALLEY":" ","HOUSE_NO":"３４９號","E_COORD97":166736.06,"N_COORD97":2542490.23,"ADDRESS":"健康路二段３４９號","OBJECTID":573280},"geometry":{"x":166736.06000000145,"y":2542490.2300000004}},{"attributes":{"ID":573308,"DIS_CODE":0,"TOWNNAME":"南區","LI":"金華里","LIN":"23鄰","STREET":"健康路","SECT":"二段","MAREA":" ","LANE":" ","ALLEY":" ","HOUSE_NO":"３５１號","E_COORD97":166725.32000000001,"N_COORD97":2542494.9900000002,"ADDRESS":"健康路二段３５１號","OBJECTID":573281},"geometry":{"x":166725.32000000123,"y":2542494.9900000002}},{"attributes":{"ID":573309,"DIS_CODE":0,"TOWNNAME":"南區","LI":"金華里","LIN":"23鄰","STREET":"惠南街","SECT":" ","MAREA":" ","LANE":" ","ALLEY":" ","HOUSE_NO":"１１４號","E_COORD97":166739.42000000001,"N_COORD97":2542423.2400000002,"ADDRESS":"惠南街１１４號","OBJECTID":573282},"geometry":{"x":166739.42000000086,"y":2542423.2400000021}},{"attributes":{"ID":573310,"DIS_CODE":0,"TOWNNAME":"南區","LI":"金華里","LIN":"23鄰","STREET":"惠南街","SECT":" ","MAREA":" ","LANE":" ","ALLEY":" ","HOUSE_NO":"１１６號","E_COORD97":166737.78,"N_COORD97":2542428.0099999998,"ADDRESS":"惠南街１１６號","OBJECTID":573283},"geometry":{"x":166737.78000000026,"y":2542428.0100000016}},{"attributes":{"ID":573311,"DIS_CODE":0,"TOWNNAME":"南區","LI":"金華里","LIN":"23鄰","STREET":"惠南街","SECT":" ","MAREA":" ","LANE":" ","ALLEY":" ","HOUSE_NO":"１１８號","E_COORD97":166737.92000000001,"N_COORD97":2542432.0299999998,"ADDRESS":"惠南街１１８號","OBJECTID":573284},"geometry":{"x":166737.92000000086,"y":2542432.0299999993}},{"attributes":{"ID":573312,"DIS_CODE":0,"TOWNNAME":"南區","LI":"金華里","LIN":"23鄰","STREET":"惠南街","SECT":" ","MAREA":" ","LANE":" ","ALLEY":" ","HOUSE_NO":"１２０號","E_COORD97":166735.98999999999,"N_COORD97":2542435.9100000001,"ADDRESS":"惠南街１２０號","OBJECTID":573285},"geometry":{"x":166735.99000000115,"y":2542435.910000002}},{"attributes":{"ID":573313,"DIS_CODE":0,"TOWNNAME":"南區","LI":"金華里","LIN":"23鄰","STREET":"惠南街","SECT":" ","MAREA":" ","LANE":" ","ALLEY":" ","HOUSE_NO":"１２２號","E_COORD97":166733.75,"N_COORD97":2542440.3799999999,"ADDRESS":"惠南街１２２號","OBJECTID":573286},"geometry":{"x":166733.75000000093,"y":2542440.3799999971}},{"attributes":{"ID":573314,"DIS_CODE":0,"TOWNNAME":"南區","LI":"金華里","LIN":"23鄰","STREET":"惠南街","SECT":" ","MAREA":" ","LANE":" ","ALLEY":" ","HOUSE_NO":"１２４號","E_COORD97":166733.14999999999,"N_COORD97":2542445,"ADDRESS":"惠南街１２４號","OBJECTID":573287},"geometry":{"x":166733.1500000013,"y":2542445.0000000019}},{"attributes":{"ID":573315,"DIS_CODE":0,"TOWNNAME":"南區","LI":"金華里","LIN":"23鄰","STREET":"惠南街","SECT":" ","MAREA":" ","LANE":" ","ALLEY":" ","HOUSE_NO":"１２６號","E_COORD97":166731.35999999999,"N_COORD97":2542449.6099999999,"ADDRESS":"惠南街１２６號","OBJECTID":573288},"geometry":{"x":166731.3600000022,"y":2542449.6100000031}},{"attributes":{"ID":573316,"DIS_CODE":0,"TOWNNAME":"南區","LI":"金華里","LIN":"23鄰","STREET":"惠南街","SECT":" ","MAREA":" ","LANE":" ","ALLEY":" ","HOUSE_NO":"１２８號","E_COORD97":166730.76000000001,"N_COORD97":2542455.2799999998,"ADDRESS":"惠南街１２８號","OBJECTID":573289},"geometry":{"x":166730.75999999978,"y":2542455.2800000031}},{"attributes":{"ID":573317,"DIS_CODE":0,"TOWNNAME":"南區","LI":"金華里","LIN":"23鄰","STREET":"惠南街","SECT":" ","MAREA":" ","LANE":" ","ALLEY":" ","HOUSE_NO":"１３０號","E_COORD97":166730.01999999999,"N_COORD97":2542459.0800000001,"ADDRESS":"惠南街１３０號","OBJECTID":573290},"geometry":{"x":166730.02000000048,"y":2542459.0800000019}},{"attributes":{"ID":573318,"DIS_CODE":0,"TOWNNAME":"南區","LI":"金華里","LIN":"23鄰","STREET":"惠南街","SECT":" ","MAREA":" ","LANE":" ","ALLEY":" ","HOUSE_NO":"１３２號","E_COORD97":166730.01999999999,"N_COORD97":2542464.1400000001,"ADDRESS":"惠南街１３２號","OBJECTID":573291},"geometry":{"x":166730.02000000048,"y":2542464.1399999987}},{"attributes":{"ID":573319,"DIS_CODE":0,"TOWNNAME":"南區","LI":"金華里","LIN":"23鄰","STREET":"惠南街","SECT":" ","MAREA":" ","LANE":" ","ALLEY":" ","HOUSE_NO":"１３４號","E_COORD97":166728.23000000001,"N_COORD97":2542468.9100000001,"ADDRESS":"惠南街１３４號","OBJECTID":573292},"geometry":{"x":166728.23000000045,"y":2542468.9100000039}},{"attributes":{"ID":573320,"DIS_CODE":0,"TOWNNAME":"北區","LI":"長榮里","LIN":"23鄰","STREET":"開元路","SECT":" ","MAREA":" ","LANE":" ","ALLEY":" ","HOUSE_NO":"３０３號","E_COORD97":170179.57000000001,"N_COORD97":2545395.6299999999,"ADDRESS":"開元路３０３號","OBJECTID":573293},"geometry":{"x":170179.57000000216,"y":2545395.6300000027}},{"attributes":{"ID":573321,"DIS_CODE":0,"TOWNNAME":"北區","LI":"長榮里","LIN":"23鄰","STREET":"開元路","SECT":" ","MAREA":" ","LANE":" ","ALLEY":" ","HOUSE_NO":"２７９號","E_COORD97":170146.32000000001,"N_COORD97":2545374.1099999999,"ADDRESS":"開元路２７９號","OBJECTID":573294},"geometry":{"x":170146.32000000123,"y":2545374.1099999994}},{"attributes":{"ID":573322,"DIS_CODE":0,"TOWNNAME":"北區","LI":"長榮里","LIN":"23鄰","STREET":"開元路","SECT":" ","MAREA":" ","LANE":" ","ALLEY":" ","HOUSE_NO":"２８１號","E_COORD97":170149.32999999999,"N_COORD97":2545375.8700000001,"ADDRESS":"開元路２８１號","OBJECTID":573295},"geometry":{"x":170149.33000000101,"y":2545375.8700000048}},{"attributes":{"ID":573323,"DIS_CODE":0,"TOWNNAME":"北區","LI":"長榮里","LIN":"23鄰","STREET":"開元路","SECT":" ","MAREA":" ","LANE":" ","ALLEY":" ","HOUSE_NO":"２８３號","E_COORD97":170152.20000000001,"N_COORD97":2545377.4700000002,"ADDRESS":"開元路２８３號","OBJECTID":573296},"geometry":{"x":170152.20000000112,"y":2545377.4700000007}},{"attributes":{"ID":573324,"DIS_CODE":0,"TOWNNAME":"北區","LI":"長榮里","LIN":"23鄰","STREET":"開元路","SECT":" ","MAREA":" ","LANE":" ","ALLEY":" ","HOUSE_NO":"２８５號","E_COORD97":170154.64999999999,"N_COORD97":2545379.8700000001,"ADDRESS":"開元路２８５號","OBJECTID":573297},"geometry":{"x":170154.65000000037,"y":2545379.8700000029}},{"attributes":{"ID":573325,"DIS_CODE":0,"TOWNNAME":"北區","LI":"長榮里","LIN":"23鄰","STREET":"開元路","SECT":" ","MAREA":" ","LANE":" ","ALLEY":" ","HOUSE_NO":"２８９號","E_COORD97":170157.56,"N_COORD97":2545381.46,"ADDRESS":"開元路２８９號","OBJECTID":573298},"geometry":{"x":170157.56000000052,"y":2545381.459999999}},{"attributes":{"ID":573326,"DIS_CODE":0,"TOWNNAME":"北區","LI":"長榮里","LIN":"23鄰","STREET":"開元路","SECT":" ","MAREA":" ","LANE":" ","ALLEY":" ","HOUSE_NO":"２９１號","E_COORD97":170161.63,"N_COORD97":2545384.0899999999,"ADDRESS":"開元路２９１號","OBJECTID":573299},"geometry":{"x":170161.62999999989,"y":2545384.0900000017}},{"attributes":{"ID":573327,"DIS_CODE":0,"TOWNNAME":"北區","LI":"長榮里","LIN":"23鄰","STREET":"開元路","SECT":" ","MAREA":" ","LANE":" ","ALLEY":" ","HOUSE_NO":"２９９號","E_COORD97":170174.44,"N_COORD97":2545391.6800000002,"ADDRESS":"開元路２９９號","OBJECTID":573300},"geometry":{"x":170174.44000000134,"y":2545391.6799999997}},{"attributes":{"ID":573328,"DIS_CODE":0,"TOWNNAME":"北區","LI":"長榮里","LIN":"23鄰","STREET":"開元路","SECT":" ","MAREA":" ","LANE":" ","ALLEY":" ","HOUSE_NO":"３０１號","E_COORD97":170177.01000000001,"N_COORD97":2545393.77,"ADDRESS":"開元路３０１號","OBJECTID":573301},"geometry":{"x":170177.00999999978,"y":2545393.7699999996}},{"attributes":{"ID":573329,"DIS_CODE":0,"TOWNNAME":"北區","LI":"長榮里","LIN":"23鄰","STREET":"開元路","SECT":" ","MAREA":" ","LANE":" ","ALLEY":" ","HOUSE_NO":"３２３號","E_COORD97":170210.67999999999,"N_COORD97":2545415.5800000001,"ADDRESS":"開元路３２３號","OBJECTID":573302},"geometry":{"x":170210.68000000063,"y":2545415.5800000001}},{"attributes":{"ID":573330,"DIS_CODE":0,"TOWNNAME":"北區","LI":"長榮里","LIN":"23鄰","STREET":"開元路","SECT":" ","MAREA":" ","LANE":" ","ALLEY":" ","HOUSE_NO":"３２５號","E_COORD97":170213.38,"N_COORD97":2545417.46,"ADDRESS":"開元路３２５號","OBJECTID":573303},"geometry":{"x":170213.38000000082,"y":2545417.4600000009}},{"attributes":{"ID":573331,"DIS_CODE":0,"TOWNNAME":"北區","LI":"長榮里","LIN":"23鄰","STREET":"開元路","SECT":" ","MAREA":" ","LANE":" ","ALLEY":" ","HOUSE_NO":"３２７號","E_COORD97":170216.20999999999,"N_COORD97":2545419.2200000002,"ADDRESS":"開元路３２７號","OBJECTID":573304},"geometry":{"x":170216.21000000089,"y":2545419.2200000007}},{"attributes":{"ID":573332,"DIS_CODE":0,"TOWNNAME":"北區","LI":"長榮里","LIN":"23鄰","STREET":"開元路","SECT":" ","MAREA":" ","LANE":" ","ALLEY":" ","HOUSE_NO":"３２９號","E_COORD97":170218.64999999999,"N_COORD97":2545421.04,"ADDRESS":"開元路３２９號","OBJECTID":573305},"geometry":{"x":170218.6500000013,"y":2545421.040000001}},{"attributes":{"ID":573333,"DIS_CODE":0,"TOWNNAME":"北區","LI":"長榮里","LIN":"23鄰","STREET":"開元路","SECT":" ","MAREA":" ","LANE":" ","ALLEY":" ","HOUSE_NO":"３３１號","E_COORD97":170220.89000000001,"N_COORD97":2545423.6600000001,"ADDRESS":"開元路３３１號","OBJECTID":573306},"geometry":{"x":170220.89000000153,"y":2545423.6600000039}},{"attributes":{"ID":573334,"DIS_CODE":0,"TOWNNAME":"六甲區","LI":"甲東里","LIN":"23鄰","STREET":"裕農街","SECT":" ","MAREA":" ","LANE":" ","ALLEY":" ","HOUSE_NO":"２號之１","E_COORD97":183944.12,"N_COORD97":2569642.1200000001,"ADDRESS":"裕農街２號之１","OBJECTID":573307},"geometry":{"x":183944.12000000104,"y":2569642.1200000048}},{"attributes":{"ID":573335,"DIS_CODE":0,"TOWNNAME":"六甲區","LI":"甲東里","LIN":"23鄰","STREET":"裕農街","SECT":" ","MAREA":" ","LANE":" ","ALLEY":" ","HOUSE_NO":"２號之２","E_COORD97":183947.87,"N_COORD97":2569640.3300000001,"ADDRESS":"裕農街２號之２","OBJECTID":573308},"geometry":{"x":183947.87000000104,"y":2569640.3300000019}},{"attributes":{"ID":573336,"DIS_CODE":0,"TOWNNAME":"六甲區","LI":"甲東里","LIN":"23鄰","STREET":"裕農街","SECT":" ","MAREA":" ","LANE":" ","ALLEY":" ","HOUSE_NO":"２號之３","E_COORD97":183951.78,"N_COORD97":2569638.48,"ADDRESS":"裕農街２號之３","OBJECTID":573309},"geometry":{"x":183951.78000000119,"y":2569638.4800000004}},{"attributes":{"ID":573337,"DIS_CODE":0,"TOWNNAME":"六甲區","LI":"甲東里","LIN":"23鄰","STREET":"裕農街","SECT":" ","MAREA":" ","LANE":" ","ALLEY":" ","HOUSE_NO":"２號","E_COORD97":183940.97,"N_COORD97":2569643.9300000002,"ADDRESS":"裕農街２號","OBJECTID":573310},"geometry":{"x":183940.96999999974,"y":2569643.9299999997}},{"attributes":{"ID":573338,"DIS_CODE":0,"TOWNNAME":"六甲區","LI":"甲東里","LIN":"23鄰","STREET":"裕農街","SECT":" ","MAREA":" ","LANE":" ","ALLEY":" ","HOUSE_NO":"６號","E_COORD97":183955.03,"N_COORD97":2569636.1499999999,"ADDRESS":"裕農街６號","OBJECTID":573311},"geometry":{"x":183955.03000000212,"y":2569636.1500000022}},{"attributes":{"ID":573339,"DIS_CODE":0,"TOWNNAME":"六甲區","LI":"甲東里","LIN":"23鄰","STREET":"裕農街","SECT":" ","MAREA":" ","LANE":" ","ALLEY":" ","HOUSE_NO":"８號","E_COORD97":183958.57000000001,"N_COORD97":2569636.2999999998,"ADDRESS":"裕農街８號","OBJECTID":573312},"geometry":{"x":183958.57000000123,"y":2569636.3000000007}},{"attributes":{"ID":573340,"DIS_CODE":0,"TOWNNAME":"關廟區","LI":"北勢里","LIN":"23鄰","STREET":"成功路","SECT":" ","MAREA":" ","LANE":" ","ALLEY":" ","HOUSE_NO":"１６１號","E_COORD97":181514.67000000001,"N_COORD97":2540461.27,"ADDRESS":"成功路１６１號","OBJECTID":573313},"geometry":{"x":181514.67000000086,"y":2540461.2699999996}},{"attributes":{"ID":573341,"DIS_CODE":0,"TOWNNAME":"關廟區","LI":"北勢里","LIN":"23鄰","STREET":"成功路","SECT":" ","MAREA":" ","LANE":" ","ALLEY":" ","HOUSE_NO":"１５５號","E_COORD97":181525.07000000001,"N_COORD97":2540459.27,"ADDRESS":"成功路１５５號","OBJECTID":573314},"geometry":{"x":181525.0700000003,"y":2540459.2700000014}},{"attributes":{"ID":573342,"DIS_CODE":0,"TOWNNAME":"關廟區","LI":"香洋里","LIN":"23鄰","STREET":"民族街","SECT":" ","MAREA":" ","LANE":" ","ALLEY":" ","HOUSE_NO":"１５０號","E_COORD97":181354.59,"N_COORD97":2539854.29,"ADDRESS":"民族街１５０號","OBJECTID":573315},"geometry":{"x":181354.58999999985,"y":2539854.2899999972}},{"attributes":{"ID":573343,"DIS_CODE":0,"TOWNNAME":"關廟區","LI":"香洋里","LIN":"23鄰","STREET":"民族街","SECT":" ","MAREA":" ","LANE":" ","ALLEY":" ","HOUSE_NO":"１３１號","E_COORD97":181291.98999999999,"N_COORD97":2539862.29,"ADDRESS":"民族街１３１號","OBJECTID":573316},"geometry":{"x":181291.99000000209,"y":2539862.290000001}},{"attributes":{"ID":573344,"DIS_CODE":0,"TOWNNAME":"關廟區","LI":"香洋里","LIN":"23鄰","STREET":"民族街","SECT":" ","MAREA":" ","LANE":" ","ALLEY":" ","HOUSE_NO":"１６０號","E_COORD97":181338.09,"N_COORD97":2539860.29,"ADDRESS":"民族街１６０號","OBJECTID":573317},"geometry":{"x":181338.08999999985,"y":2539860.2899999991}},{"attributes":{"ID":573345,"DIS_CODE":0,"TOWNNAME":"關廟區","LI":"香洋里","LIN":"23鄰","STREET":"民族街","SECT":" ","MAREA":" ","LANE":" ","ALLEY":" ","HOUSE_NO":"１３７號","E_COORD97":181283.59,"N_COORD97":2539865.29,"ADDRESS":"民族街１３７號","OBJECTID":573318},"geometry":{"x":181283.58999999985,"y":2539865.290000001}},{"attributes":{"ID":573346,"DIS_CODE":0,"TOWNNAME":"關廟區","LI":"香洋里","LIN":"23鄰","STREET":"中山路","SECT":"一段","MAREA":" ","LANE":" ","ALLEY":" ","HOUSE_NO":"２４５號","E_COORD97":181365.85999999999,"N_COORD97":2539902.2799999998,"ADDRESS":"中山路一段２４５號","OBJECTID":573319},"geometry":{"x":181365.8600000022,"y":2539902.2800000031}},{"attributes":{"ID":573347,"DIS_CODE":0,"TOWNNAME":"北區","LI":"文元里","LIN":"23鄰","STREET":"海安路","SECT":"三段","MAREA":" ","LANE":" ","ALLEY":" ","HOUSE_NO":"８３５號","E_COORD97":167997.51999999999,"N_COORD97":2546340.0899999999,"ADDRESS":"海安路三段８３５號","OBJECTID":573320},"geometry":{"x":167997.52000000142,"y":2546340.0900000017}},{"attributes":{"ID":573348,"DIS_CODE":0,"TOWNNAME":"北區","LI":"文元里","LIN":"23鄰","STREET":"海安路","SECT":"三段","MAREA":" ","LANE":" ","ALLEY":" ","HOUSE_NO":"８１７號","E_COORD97":168000.20999999999,"N_COORD97":2546288.6499999999,"ADDRESS":"海安路三段８１７號","OBJECTID":573321},"geometry":{"x":168000.21000000089,"y":2546288.6500000041}},{"attributes":{"ID":573349,"DIS_CODE":0,"TOWNNAME":"安平區","LI":"育平里","LIN":"23鄰","STREET":"育平四街","SECT":" ","MAREA":" ","LANE":" ","ALLEY":" ","HOUSE_NO":"８１號","E_COORD97":164640.67000000001,"N_COORD97":2543388.52,"ADDRESS":"育平四街８１號","OBJECTID":573322},"geometry":{"x":164640.67000000086,"y":2543388.5199999996}},{"attributes":{"ID":573350,"DIS_CODE":0,"TOWNNAME":"安平區","LI":"育平里","LIN":"23鄰","STREET":"育平四街","SECT":" ","MAREA":" ","LANE":" ","ALLEY":" ","HOUSE_NO":"８３號","E_COORD97":164633.47,"N_COORD97":2543389.6699999999,"ADDRESS":"育平四街８３號","OBJECTID":573323},"geometry":{"x":164633.47000000067,"y":2543389.6700000018}},{"attributes":{"ID":573351,"DIS_CODE":0,"TOWNNAME":"安平區","LI":"育平里","LIN":"23鄰","STREET":"育平四街","SECT":" ","MAREA":" ","LANE":" ","ALLEY":" ","HOUSE_NO":"８５號","E_COORD97":164626.85000000001,"N_COORD97":2543390.96,"ADDRESS":"育平四街８５號","OBJECTID":573324},"geometry":{"x":164626.85000000149,"y":2543390.9600000009}},{"attributes":{"ID":573352,"DIS_CODE":0,"TOWNNAME":"安平區","LI":"育平里","LIN":"23鄰","STREET":"育平四街","SECT":" ","MAREA":" ","LANE":" ","ALLEY":" ","HOUSE_NO":"８７號","E_COORD97":164620.07999999999,"N_COORD97":2543391.9700000002,"ADDRESS":"育平四街８７號","OBJECTID":573325},"geometry":{"x":164620.08000000007,"y":2543391.9700000025}},{"attributes":{"ID":573353,"DIS_CODE":0,"TOWNNAME":"安平區","LI":"育平里","LIN":"23鄰","STREET":"育平四街","SECT":" ","MAREA":" ","LANE":" ","ALLEY":" ","HOUSE_NO":"８９號","E_COORD97":164614.76000000001,"N_COORD97":2543393.2599999998,"ADDRESS":"育平四街８９號","OBJECTID":573326},"geometry":{"x":164614.76000000071,"y":2543393.2600000016}},{"attributes":{"ID":573354,"DIS_CODE":0,"TOWNNAME":"安平區","LI":"育平里","LIN":"23鄰","STREET":"育平路","SECT":" ","MAREA":" ","LANE":" ","ALLEY":" ","HOUSE_NO":"１９２號","E_COORD97":164600.35999999999,"N_COORD97":2543354.5699999998,"ADDRESS":"育平路１９２號","OBJECTID":573327},"geometry":{"x":164600.3599999994,"y":2543354.5700000003}},{"attributes":{"ID":573355,"DIS_CODE":0,"TOWNNAME":"安平區","LI":"育平里","LIN":"23鄰","STREET":"育平路","SECT":" ","MAREA":" ","LANE":" ","ALLEY":" ","HOUSE_NO":"１９４號","E_COORD97":164601.37,"N_COORD97":2543361.48,"ADDRESS":"育平路１９４號","OBJECTID":573328},"geometry":{"x":164601.37000000011,"y":2543361.4800000023}},{"attributes":{"ID":573356,"DIS_CODE":0,"TOWNNAME":"安平區","LI":"育平里","LIN":"23鄰","STREET":"育平路","SECT":" ","MAREA":" ","LANE":" ","ALLEY":" ","HOUSE_NO":"１９６號","E_COORD97":164602.95000000001,"N_COORD97":2543367.8100000001,"ADDRESS":"育平路１９６號","OBJECTID":573329},"geometry":{"x":164602.94999999925,"y":2543367.8100000005}},{"attributes":{"ID":573357,"DIS_CODE":0,"TOWNNAME":"安平區","LI":"育平里","LIN":"23鄰","STREET":"郡平路","SECT":" ","MAREA":" ","LANE":" ","ALLEY":" ","HOUSE_NO":"１８６號","E_COORD97":164656.95000000001,"N_COORD97":2543341.1699999999,"ADDRESS":"郡平路１８６號","OBJECTID":573330},"geometry":{"x":164656.95000000019,"y":2543341.1699999999}},{"attributes":{"ID":573358,"DIS_CODE":0,"TOWNNAME":"安平區","LI":"育平里","LIN":"23鄰","STREET":"郡平路","SECT":" ","MAREA":" ","LANE":" ","ALLEY":" ","HOUSE_NO":"１８８號","E_COORD97":164673.29000000001,"N_COORD97":2543361.6800000002,"ADDRESS":"郡平路１８８號","OBJECTID":573331},"geometry":{"x":164673.29000000004,"y":2543361.6800000034}},{"attributes":{"ID":573359,"DIS_CODE":0,"TOWNNAME":"安平區","LI":"育平里","LIN":"23鄰","STREET":"郡平路","SECT":" ","MAREA":" ","LANE":" ","ALLEY":" ","HOUSE_NO":"１９４號","E_COORD97":164628.72,"N_COORD97":2543344.9100000001,"ADDRESS":"郡平路１９４號","OBJECTID":573332},"geometry":{"x":164628.72000000067,"y":2543344.910000002}},{"attributes":{"ID":573360,"DIS_CODE":0,"TOWNNAME":"新營區","LI":"民權里","LIN":"23鄰","STREET":"民權路","SECT":" ","MAREA":" ","LANE":" ","ALLEY":" ","HOUSE_NO":"１０８號","E_COORD97":179636.57999999999,"N_COORD97":2578708.4399999999,"ADDRESS":"民權路１０８號","OBJECTID":573333},"geometry":{"x":179636.58000000007,"y":2578708.4400000013}},{"attributes":{"ID":573361,"DIS_CODE":0,"TOWNNAME":"新營區","LI":"民權里","LIN":"23鄰","STREET":"民權路","SECT":" ","MAREA":" ","LANE":" ","ALLEY":" ","HOUSE_NO":"１２６號","E_COORD97":179617.60999999999,"N_COORD97":2578807.1000000001,"ADDRESS":"民權路１２６號","OBJECTID":573334},"geometry":{"x":179617.61000000034,"y":2578807.0999999996}},{"attributes":{"ID":573362,"DIS_CODE":0,"TOWNNAME":"新營區","LI":"大宏里","LIN":"23鄰","STREET":"民治路","SECT":" ","MAREA":" ","LANE":" ","ALLEY":" ","HOUSE_NO":"１號之３５","E_COORD97":180608.63,"N_COORD97":2578779.2200000002,"ADDRESS":"民治路１號之３５","OBJECTID":573335},"geometry":{"x":180608.62999999989,"y":2578779.2200000025}},{"attributes":{"ID":573363,"DIS_CODE":0,"TOWNNAME":"新營區","LI":"民權里","LIN":"23鄰","STREET":"民權路","SECT":" ","MAREA":" ","LANE":" ","ALLEY":" ","HOUSE_NO":"１１８號","E_COORD97":179627.60000000001,"N_COORD97":2578756.1099999999,"ADDRESS":"民權路１１８號","OBJECTID":573336},"geometry":{"x":179627.60000000149,"y":2578756.1099999994}},{"attributes":{"ID":573364,"DIS_CODE":0,"TOWNNAME":"新營區","LI":"民權里","LIN":"23鄰","STREET":"民權路","SECT":" ","MAREA":" ","LANE":" ","ALLEY":" ","HOUSE_NO":"１１６號之４","E_COORD97":179662.45000000001,"N_COORD97":2578749.3599999999,"ADDRESS":"民權路１１６號之４","OBJECTID":573337},"geometry":{"x":179662.45000000019,"y":2578749.3600000013}},{"attributes":{"ID":573365,"DIS_CODE":0,"TOWNNAME":"新營區","LI":"民權里","LIN":"23鄰","STREET":"民治路","SECT":" ","MAREA":" ","LANE":" ","ALLEY":" ","HOUSE_NO":"５５號之１","E_COORD97":179663.63,"N_COORD97":2578830.2000000002,"ADDRESS":"民治路５５號之１","OBJECTID":573338},"geometry":{"x":179663.63000000082,"y":2578830.1999999993}},{"attributes":{"ID":573366,"DIS_CODE":0,"TOWNNAME":"新營區","LI":"三仙里","LIN":"23鄰","STREET":"民治路","SECT":" ","MAREA":" ","LANE":" ","ALLEY":" ","HOUSE_NO":"７８號","E_COORD97":179564.37,"N_COORD97":2578838.3599999999,"ADDRESS":"民治路７８號","OBJECTID":573339},"geometry":{"x":179564.37000000104,"y":2578838.3600000013}},{"attributes":{"ID":573367,"DIS_CODE":0,"TOWNNAME":"新營區","LI":"三仙里","LIN":"23鄰","STREET":"民治路","SECT":" ","MAREA":" ","LANE":" ","ALLEY":" ","HOUSE_NO":"７６號之５","E_COORD97":179575.88,"N_COORD97":2578840.5800000001,"ADDRESS":"民治路７６號之５","OBJECTID":573340},"geometry":{"x":179575.88000000082,"y":2578840.5800000019}},{"attributes":{"ID":573368,"DIS_CODE":0,"TOWNNAME":"鹽水區","LI":"橋南里","LIN":"23鄰","STREET":"五福路","SECT":" ","MAREA":" ","LANE":" ","ALLEY":" ","HOUSE_NO":"１３８號","E_COORD97":175907.69,"N_COORD97":2578401.2400000002,"ADDRESS":"五福路１３８號","OBJECTID":573341},"geometry":{"x":175907.69000000134,"y":2578401.2400000039}},{"attributes":{"ID":573369,"DIS_CODE":0,"TOWNNAME":"新營區","LI":"三仙里","LIN":"23鄰","STREET":"民治路","SECT":" ","MAREA":" ","LANE":" ","ALLEY":" ","HOUSE_NO":"７８號之１０","E_COORD97":179559.60000000001,"N_COORD97":2578835.1299999999,"ADDRESS":"民治路７８號之１０","OBJECTID":573342},"geometry":{"x":179559.59999999963,"y":2578835.1300000008}},{"attributes":{"ID":573370,"DIS_CODE":0,"TOWNNAME":"新營區","LI":"王公里","LIN":"23鄰","STREET":"樂仁街","SECT":" ","MAREA":" ","LANE":" ","ALLEY":" ","HOUSE_NO":"４０號","E_COORD97":180532.48999999999,"N_COORD97":2579157.1600000001,"ADDRESS":"樂仁街４０號","OBJECTID":573343},"geometry":{"x":180532.49000000209,"y":2579157.1600000001}},{"attributes":{"ID":573371,"DIS_CODE":0,"TOWNNAME":"新營區","LI":"三仙里","LIN":"23鄰","STREET":"民治路","SECT":" ","MAREA":" ","LANE":" ","ALLEY":" ","HOUSE_NO":"７８號之６","E_COORD97":179544.31,"N_COORD97":2578880.5899999999,"ADDRESS":"民治路７８號之６","OBJECTID":573344},"geometry":{"x":179544.30999999959,"y":2578880.5900000017}},{"attributes":{"ID":573372,"DIS_CODE":0,"TOWNNAME":"新營區","LI":"三仙里","LIN":"23鄰","STREET":"民治路","SECT":" ","MAREA":" ","LANE":" ","ALLEY":" ","HOUSE_NO":"７８號之９","E_COORD97":179527,"N_COORD97":2578900.6099999999,"ADDRESS":"民治路７８號之９","OBJECTID":573345},"geometry":{"x":179527.00000000186,"y":2578900.6100000013}},{"attributes":{"ID":573373,"DIS_CODE":0,"TOWNNAME":"新營區","LI":"新東里","LIN":"23鄰","STREET":"民治東路","SECT":" ","MAREA":" ","LANE":" ","ALLEY":" ","HOUSE_NO":"３０號","E_COORD97":180847.48000000001,"N_COORD97":2578926.4399999999,"ADDRESS":"民治東路３０號","OBJECTID":573346},"geometry":{"x":180847.48000000045,"y":2578926.4399999995}},{"attributes":{"ID":573374,"DIS_CODE":0,"TOWNNAME":"新營區","LI":"新東里","LIN":"23鄰","STREET":"民治東路","SECT":" ","MAREA":" ","LANE":" ","ALLEY":" ","HOUSE_NO":"１６號","E_COORD97":180745.04000000001,"N_COORD97":2578912.52,"ADDRESS":"民治東路１６號","OBJECTID":573347},"geometry":{"x":180745.04000000004,"y":2578912.5199999996}},{"attributes":{"ID":573375,"DIS_CODE":0,"TOWNNAME":"新營區","LI":"三仙里","LIN":"23鄰","STREET":"民治路","SECT":" ","MAREA":" ","LANE":" ","ALLEY":" ","HOUSE_NO":"７８號之１","E_COORD97":179552.16,"N_COORD97":2578834.0499999998,"ADDRESS":"民治路７８號之１","OBJECTID":573348},"geometry":{"x":179552.16000000108,"y":2578834.0500000026}},{"attributes":{"ID":573376,"DIS_CODE":0,"TOWNNAME":"新營區","LI":"新東里","LIN":"23鄰","STREET":"民治東路","SECT":" ","MAREA":" ","LANE":" ","ALLEY":" ","HOUSE_NO":"２２號","E_COORD97":180759.44,"N_COORD97":2578913.5600000001,"ADDRESS":"民治東路２２號","OBJECTID":573349},"geometry":{"x":180759.44000000041,"y":2578913.5600000005}},{"attributes":{"ID":573377,"DIS_CODE":0,"TOWNNAME":"新營區","LI":"新東里","LIN":"23鄰","STREET":"民治東路","SECT":" ","MAREA":" ","LANE":" ","ALLEY":" ","HOUSE_NO":"２６號","E_COORD97":180770.70000000001,"N_COORD97":2578915.7200000002,"ADDRESS":"民治東路２６號","OBJECTID":573350},"geometry":{"x":180770.70000000112,"y":2578915.7200000007}},{"attributes":{"ID":573378,"DIS_CODE":0,"TOWNNAME":"新營區","LI":"三仙里","LIN":"23鄰","STREET":"民治路","SECT":" ","MAREA":" ","LANE":" ","ALLEY":" ","HOUSE_NO":"７８之１６號","E_COORD97":179530.23000000001,"N_COORD97":2578827.52,"ADDRESS":"民治路７８之１６號","OBJECTID":573351},"geometry":{"x":179530.23000000045,"y":2578827.5200000014}},{"attributes":{"ID":573379,"DIS_CODE":0,"TOWNNAME":"新營區","LI":"三仙里","LIN":"23鄰","STREET":"民治路","SECT":" ","MAREA":" ","LANE":" ","ALLEY":" ","HOUSE_NO":"７８號之４","E_COORD97":179554.48000000001,"N_COORD97":2578886.0800000001,"ADDRESS":"民治路７８號之４","OBJECTID":573352},"geometry":{"x":179554.48000000045,"y":2578886.0800000001}},{"attributes":{"ID":573380,"DIS_CODE":0,"TOWNNAME":"新營區","LI":"大宏里","LIN":"23鄰","STREET":"民治路","SECT":" ","MAREA":" ","LANE":" ","ALLEY":" ","HOUSE_NO":"１號之１７","E_COORD97":180642.41,"N_COORD97":2578803.4199999999,"ADDRESS":"民治路１號之１７","OBJECTID":573353},"geometry":{"x":180642.41000000015,"y":2578803.4200000037}},{"attributes":{"ID":573381,"DIS_CODE":0,"TOWNNAME":"新營區","LI":"三仙里","LIN":"23鄰","STREET":"民治路","SECT":" ","MAREA":" ","LANE":" ","ALLEY":" ","HOUSE_NO":"７８號之８","E_COORD97":179562.54999999999,"N_COORD97":2578837.3199999998,"ADDRESS":"民治路７８號之８","OBJECTID":573354},"geometry":{"x":179562.55000000075,"y":2578837.3200000003}},{"attributes":{"ID":573382,"DIS_CODE":0,"TOWNNAME":"新營區","LI":"南紙里","LIN":"23鄰","STREET":"南紙街","SECT":" ","MAREA":" ","LANE":" ","ALLEY":" ","HOUSE_NO":"１１９之５號","E_COORD97":177815.35000000001,"N_COORD97":2577451.4500000002,"ADDRESS":"南紙街１１９之５號","OBJECTID":573355},"geometry":{"x":177815.3499999987,"y":2577451.4499999993}},{"attributes":{"ID":573383,"DIS_CODE":0,"TOWNNAME":"新營區","LI":"王公里","LIN":"23鄰","STREET":"樂仁街","SECT":" ","MAREA":" ","LANE":" ","ALLEY":" ","HOUSE_NO":"４２號","E_COORD97":180532.51999999999,"N_COORD97":2579161.5899999999,"ADDRESS":"樂仁街４２號","OBJECTID":573356},"geometry":{"x":180532.51999999955,"y":2579161.5900000036}},{"attributes":{"ID":573384,"DIS_CODE":0,"TOWNNAME":"新營區","LI":"大宏里","LIN":"23鄰","STREET":"民治路","SECT":" ","MAREA":" ","LANE":" ","ALLEY":" ","HOUSE_NO":"１號之１５","E_COORD97":180622.10000000001,"N_COORD97":2578816.8100000001,"ADDRESS":"民治路１號之１５","OBJECTID":573357},"geometry":{"x":180622.09999999963,"y":2578816.8100000005}},{"attributes":{"ID":573385,"DIS_CODE":0,"TOWNNAME":"新營區","LI":"三仙里","LIN":"23鄰","STREET":"民治路","SECT":" ","MAREA":" ","LANE":" ","ALLEY":" ","HOUSE_NO":"７８號之２","E_COORD97":179569.95000000001,"N_COORD97":2578889.3300000001,"ADDRESS":"民治路７８號之２","OBJECTID":573358},"geometry":{"x":179569.95000000205,"y":2578889.3300000019}},{"attributes":{"ID":573386,"DIS_CODE":0,"TOWNNAME":"東山區","LI":"東中里","LIN":"23鄰","STREET":"永和街","SECT":" ","MAREA":" ","LANE":" ","ALLEY":" ","HOUSE_NO":"１號","E_COORD97":188754.62,"N_COORD97":2579692.1800000002,"ADDRESS":"永和街１號","OBJECTID":573359},"geometry":{"x":188754.62000000011,"y":2579692.1799999997}},{"attributes":{"ID":573387,"DIS_CODE":0,"TOWNNAME":"東山區","LI":"東中里","LIN":"23鄰","STREET":"永和街","SECT":" ","MAREA":" ","LANE":" ","ALLEY":" ","HOUSE_NO":"２號","E_COORD97":188736.23999999999,"N_COORD97":2579694.1899999999,"ADDRESS":"永和街２號","OBJECTID":573360},"geometry":{"x":188736.24000000115,"y":2579694.1900000013}},{"attributes":{"ID":573388,"DIS_CODE":0,"TOWNNAME":"東山區","LI":"東中里","LIN":"23鄰","STREET":"永和街","SECT":" ","MAREA":" ","LANE":" ","ALLEY":" ","HOUSE_NO":"３號","E_COORD97":188753.76999999999,"N_COORD97":2579686.6899999999,"ADDRESS":"永和街３號","OBJECTID":573361},"geometry":{"x":188753.77000000048,"y":2579686.6900000013}},{"attributes":{"ID":573389,"DIS_CODE":0,"TOWNNAME":"北區","LI":"成德里","LIN":"23鄰","STREET":"中華北路","SECT":"二段","MAREA":" ","LANE":" ","ALLEY":" ","HOUSE_NO":"１６０號","E_COORD97":168152.79000000001,"N_COORD97":2546804.8300000001,"ADDRESS":"中華北路二段１６０號","OBJECTID":573362},"geometry":{"x":168152.79000000097,"y":2546804.8300000001}},{"attributes":{"ID":573390,"DIS_CODE":0,"TOWNNAME":"北區","LI":"成德里","LIN":"23鄰","STREET":"中華北路","SECT":"二段","MAREA":" ","LANE":" ","ALLEY":" ","HOUSE_NO":"１６８號","E_COORD97":168180.73999999999,"N_COORD97":2546813.8900000001,"ADDRESS":"中華北路二段１６８號","OBJECTID":573363},"geometry":{"x":168180.74000000022,"y":2546813.8900000025}},{"attributes":{"ID":573391,"DIS_CODE":0,"TOWNNAME":"北區","LI":"成德里","LIN":"23鄰","STREET":"中華北路","SECT":"二段","MAREA":" ","LANE":" ","ALLEY":" ","HOUSE_NO":"１６９號","E_COORD97":168184.73000000001,"N_COORD97":2546815.6499999999,"ADDRESS":"中華北路二段１６９號","OBJECTID":573364},"geometry":{"x":168184.73000000045,"y":2546815.6500000004}},{"attributes":{"ID":573392,"DIS_CODE":0,"TOWNNAME":"北區","LI":"成德里","LIN":"23鄰","STREET":"中華北路","SECT":"二段","MAREA":" ","LANE":" ","ALLEY":" ","HOUSE_NO":"１７０號","E_COORD97":168189.37,"N_COORD97":2546817.0899999999,"ADDRESS":"中華北路二段１７０號","OBJECTID":573365},"geometry":{"x":168189.37000000104,"y":2546817.0900000036}},{"attributes":{"ID":573393,"DIS_CODE":0,"TOWNNAME":"北區","LI":"成德里","LIN":"23鄰","STREET":"中華北路","SECT":"二段","MAREA":" ","LANE":" ","ALLEY":" ","HOUSE_NO":"１７１號","E_COORD97":168194.01000000001,"N_COORD97":2546818.04,"ADDRESS":"中華北路二段１７１號","OBJECTID":573366},"geometry":{"x":168194.00999999978,"y":2546818.040000001}},{"attributes":{"ID":573394,"DIS_CODE":0,"TOWNNAME":"北區","LI":"成德里","LIN":"23鄰","STREET":"中華北路","SECT":"二段","MAREA":" ","LANE":" ","ALLEY":" ","HOUSE_NO":"１７２號","E_COORD97":168198.01000000001,"N_COORD97":2546819.48,"ADDRESS":"中華北路二段１７２號","OBJECTID":573367},"geometry":{"x":168198.01000000071,"y":2546819.4800000023}},{"attributes":{"ID":573395,"DIS_CODE":0,"TOWNNAME":"北區","LI":"成德里","LIN":"23鄰","STREET":"中華北路","SECT":"二段","MAREA":" ","LANE":" ","ALLEY":" ","HOUSE_NO":"１７３號","E_COORD97":168202.17000000001,"N_COORD97":2546820.1200000001,"ADDRESS":"中華北路二段１７３號","OBJECTID":573368},"geometry":{"x":168202.17000000086,"y":2546820.120000001}},{"attributes":{"ID":573396,"DIS_CODE":0,"TOWNNAME":"北區","LI":"成德里","LIN":"23鄰","STREET":"中華北路","SECT":"二段","MAREA":" ","LANE":" ","ALLEY":" ","HOUSE_NO":"１７５號","E_COORD97":168211.60999999999,"N_COORD97":2546822.52,"ADDRESS":"中華北路二段１７５號","OBJECTID":573369},"geometry":{"x":168211.61000000127,"y":2546822.5199999996}},{"attributes":{"ID":573397,"DIS_CODE":0,"TOWNNAME":"北區","LI":"成德里","LIN":"23鄰","STREET":"中華北路","SECT":"二段","MAREA":" ","LANE":" ","ALLEY":" ","HOUSE_NO":"１７６號","E_COORD97":168215.60999999999,"N_COORD97":2546823.48,"ADDRESS":"中華北路二段１７６號","OBJECTID":573370},"geometry":{"x":168215.61000000034,"y":2546823.4800000023}},{"attributes":{"ID":573398,"DIS_CODE":0,"TOWNNAME":"北區","LI":"成德里","LIN":"23鄰","STREET":"中華北路","SECT":"二段","MAREA":" ","LANE":" ","ALLEY":" ","HOUSE_NO":"１７７號","E_COORD97":168219.92000000001,"N_COORD97":2546824.75,"ADDRESS":"中華北路二段１７７號","OBJECTID":573371},"geometry":{"x":168219.91999999993,"y":2546824.75}},{"attributes":{"ID":573399,"DIS_CODE":0,"TOWNNAME":"北區","LI":"成德里","LIN":"23鄰","STREET":"中華北路","SECT":"二段","MAREA":" ","LANE":" ","ALLEY":" ","HOUSE_NO":"１７８號","E_COORD97":168224.23999999999,"N_COORD97":2546826.0299999998,"ADDRESS":"中華北路二段１７８號","OBJECTID":573372},"geometry":{"x":168224.24000000115,"y":2546826.0299999993}},{"attributes":{"ID":573400,"DIS_CODE":0,"TOWNNAME":"北區","LI":"成德里","LIN":"23鄰","STREET":"中華北路","SECT":"二段","MAREA":" ","LANE":" ","ALLEY":" ","HOUSE_NO":"１７９號","E_COORD97":168228.56,"N_COORD97":2546827.6299999999,"ADDRESS":"中華北路二段１７９號","OBJECTID":573373},"geometry":{"x":168228.56000000052,"y":2546827.6300000008}},{"attributes":{"ID":573401,"DIS_CODE":0,"TOWNNAME":"北區","LI":"成德里","LIN":"23鄰","STREET":"中華北路","SECT":"二段","MAREA":" ","LANE":" ","ALLEY":" ","HOUSE_NO":"１９３號","E_COORD97":168281.67000000001,"N_COORD97":2546826.9900000002,"ADDRESS":"中華北路二段１９３號","OBJECTID":573374},"geometry":{"x":168281.67000000179,"y":2546826.9900000002}},{"attributes":{"ID":573402,"DIS_CODE":0,"TOWNNAME":"鹽水區","LI":"橋南里","LIN":"23鄰","STREET":"八德路","SECT":" ","MAREA":" ","LANE":" ","ALLEY":" ","HOUSE_NO":"４７號","E_COORD97":175755.94,"N_COORD97":2578124.27,"ADDRESS":"八德路４７號","OBJECTID":573375},"geometry":{"x":175755.93999999948,"y":2578124.2699999996}},{"attributes":{"ID":573403,"DIS_CODE":0,"TOWNNAME":"鹽水區","LI":"橋南里","LIN":"23鄰","STREET":"五福路","SECT":" ","MAREA":" ","LANE":" ","ALLEY":" ","HOUSE_NO":"１３６號","E_COORD97":175925.17000000001,"N_COORD97":2578382,"ADDRESS":"五福路１３６號","OBJECTID":573376},"geometry":{"x":175925.17000000179,"y":2578382}},{"attributes":{"ID":573404,"DIS_CODE":0,"TOWNNAME":"鹽水區","LI":"橋南里","LIN":"23鄰","STREET":"五福路","SECT":" ","MAREA":" ","LANE":" ","ALLEY":" ","HOUSE_NO":"１４２之１號","E_COORD97":175874.91,"N_COORD97":2578399.8399999999,"ADDRESS":"五福路１４２之１號","OBJECTID":573377},"geometry":{"x":175874.91000000108,"y":2578399.8399999999}},{"attributes":{"ID":573405,"DIS_CODE":0,"TOWNNAME":"鹽水區","LI":"橋南里","LIN":"23鄰","STREET":"五福路","SECT":" ","MAREA":" ","LANE":" ","ALLEY":" ","HOUSE_NO":"１４２號","E_COORD97":175829.75,"N_COORD97":2578358.6800000002,"ADDRESS":"五福路１４２號","OBJECTID":573378},"geometry":{"x":175829.75000000186,"y":2578358.6800000016}},{"attributes":{"ID":573406,"DIS_CODE":0,"TOWNNAME":"鹽水區","LI":"橋南里","LIN":"23鄰","STREET":"五福路","SECT":" ","MAREA":" ","LANE":" ","ALLEY":" ","HOUSE_NO":"１４６號","E_COORD97":175756.14999999999,"N_COORD97":2578373.9500000002,"ADDRESS":"五福路１４６號","OBJECTID":573379},"geometry":{"x":175756.14999999944,"y":2578373.9499999993}},{"attributes":{"ID":573407,"DIS_CODE":0,"TOWNNAME":"鹽水區","LI":"橋南里","LIN":"23鄰","STREET":"五福路","SECT":" ","MAREA":" ","LANE":" ","ALLEY":" ","HOUSE_NO":"１４８號","E_COORD97":175746.31,"N_COORD97":2578366.5699999998,"ADDRESS":"五福路１４８號","OBJECTID":573380},"geometry":{"x":175746.31000000052,"y":2578366.5700000022}},{"attributes":{"ID":573408,"DIS_CODE":0,"TOWNNAME":"鹽水區","LI":"橋南里","LIN":"23鄰","STREET":"五福路","SECT":" ","MAREA":" ","LANE":" ","ALLEY":" ","HOUSE_NO":"１５２號","E_COORD97":175666.94,"N_COORD97":2578367.5099999998,"ADDRESS":"五福路１５２號","OBJECTID":573381},"geometry":{"x":175666.94000000134,"y":2578367.5099999998}},{"attributes":{"ID":573409,"DIS_CODE":0,"TOWNNAME":"鹽水區","LI":"橋南里","LIN":"23鄰","STREET":"五福路","SECT":" ","MAREA":" ","LANE":" ","ALLEY":" ","HOUSE_NO":"１５６號","E_COORD97":175615.19,"N_COORD97":2578380.1000000001,"ADDRESS":"五福路１５６號","OBJECTID":573382},"geometry":{"x":175615.19000000041,"y":2578380.0999999996}},{"attributes":{"ID":573410,"DIS_CODE":0,"TOWNNAME":"關廟區","LI":"北勢里","LIN":"23鄰","STREET":"成功路","SECT":" ","MAREA":" ","LANE":" ","ALLEY":" ","HOUSE_NO":"１６５號","E_COORD97":181505.87,"N_COORD97":2540463.27,"ADDRESS":"成功路１６５號","OBJECTID":573383},"geometry":{"x":181505.87000000011,"y":2540463.2700000014}},{"attributes":{"ID":573411,"DIS_CODE":0,"TOWNNAME":"關廟區","LI":"北勢里","LIN":"23鄰","STREET":"北美街","SECT":" ","MAREA":" ","LANE":" ","ALLEY":" ","HOUSE_NO":"６２號","E_COORD97":181500.44,"N_COORD97":2540443.2999999998,"ADDRESS":"北美街６２號","OBJECTID":573384},"geometry":{"x":181500.44000000041,"y":2540443.3000000026}},{"attributes":{"ID":573412,"DIS_CODE":0,"TOWNNAME":"關廟區","LI":"北勢里","LIN":"23鄰","STREET":"成功路","SECT":" ","MAREA":" ","LANE":" ","ALLEY":" ","HOUSE_NO":"１６３號","E_COORD97":181510.87,"N_COORD97":2540462.27,"ADDRESS":"成功路１６３號","OBJECTID":573385},"geometry":{"x":181510.87000000011,"y":2540462.2700000033}},{"attributes":{"ID":573413,"DIS_CODE":0,"TOWNNAME":"關廟區","LI":"北勢里","LIN":"23鄰","STREET":"北美街","SECT":" ","MAREA":" ","LANE":" ","ALLEY":" ","HOUSE_NO":"６０號","E_COORD97":181497.34,"N_COORD97":2540436.2999999998,"ADDRESS":"北美街６０號","OBJECTID":573386},"geometry":{"x":181497.33999999985,"y":2540436.3000000026}},{"attributes":{"ID":573414,"DIS_CODE":0,"TOWNNAME":"北區","LI":"成功里","LIN":"23鄰","STREET":"北成路","SECT":" ","MAREA":" ","LANE":" ","ALLEY":" ","HOUSE_NO":"７７號","E_COORD97":168974.29999999999,"N_COORD97":2546627.6099999999,"ADDRESS":"北成路７７號","OBJECTID":573387},"geometry":{"x":168974.30000000075,"y":2546627.6100000013}},{"attributes":{"ID":573415,"DIS_CODE":0,"TOWNNAME":"關廟區","LI":"香洋里","LIN":"23鄰","STREET":"中山路","SECT":"一段","MAREA":" ","LANE":" ","ALLEY":" ","HOUSE_NO":"２６５號","E_COORD97":181311.35999999999,"N_COORD97":2539888.2799999998,"ADDRESS":"中山路一段２６５號","OBJECTID":573388},"geometry":{"x":181311.36000000034,"y":2539888.2799999993}},{"attributes":{"ID":573416,"DIS_CODE":0,"TOWNNAME":"關廟區","LI":"香洋里","LIN":"23鄰","STREET":"中山路","SECT":"一段","MAREA":" ","LANE":" ","ALLEY":" ","HOUSE_NO":"２５５號","E_COORD97":181342.85999999999,"N_COORD97":2539908.2799999998,"ADDRESS":"中山路一段２５５號","OBJECTID":573389},"geometry":{"x":181342.86000000127,"y":2539908.2799999993}},{"attributes":{"ID":573417,"DIS_CODE":0,"TOWNNAME":"關廟區","LI":"香洋里","LIN":"23鄰","STREET":"中山路","SECT":"一段","MAREA":" ","LANE":" ","ALLEY":" ","HOUSE_NO":"２７９號","E_COORD97":181294.85999999999,"N_COORD97":2539919.2799999998,"ADDRESS":"中山路一段２７９號","OBJECTID":573390},"geometry":{"x":181294.86000000127,"y":2539919.2800000031}},{"attributes":{"ID":573418,"DIS_CODE":0,"TOWNNAME":"關廟區","LI":"東勢里","LIN":"23鄰","STREET":"東安街","SECT":" ","MAREA":" ","LANE":" ","ALLEY":" ","HOUSE_NO":"２０２號","E_COORD97":181529.67000000001,"N_COORD97":2539379.3199999998,"ADDRESS":"東安街２０２號","OBJECTID":573391},"geometry":{"x":181529.67000000086,"y":2539379.3200000003}},{"attributes":{"ID":573419,"DIS_CODE":0,"TOWNNAME":"關廟區","LI":"香洋里","LIN":"23鄰","STREET":"中山路","SECT":"一段","MAREA":" ","LANE":" ","ALLEY":" ","HOUSE_NO":"２５３號","E_COORD97":181347.85999999999,"N_COORD97":2539907.2799999998,"ADDRESS":"中山路一段２５３號","OBJECTID":573392},"geometry":{"x":181347.86000000127,"y":2539907.2800000012}},{"attributes":{"ID":573420,"DIS_CODE":0,"TOWNNAME":"關廟區","LI":"東勢里","LIN":"23鄰","STREET":"東安街","SECT":" ","MAREA":" ","LANE":" ","ALLEY":" ","HOUSE_NO":"２１０號","E_COORD97":181544.26999999999,"N_COORD97":2539375.3199999998,"ADDRESS":"東安街２１０號","OBJECTID":573393},"geometry":{"x":181544.27000000048,"y":2539375.3200000022}},{"attributes":{"ID":573421,"DIS_CODE":0,"TOWNNAME":"鹽水區","LI":"橋南里","LIN":"23鄰","STREET":"四維路","SECT":" ","MAREA":" ","LANE":" ","ALLEY":" ","HOUSE_NO":"２３２號","E_COORD97":175559.92999999999,"N_COORD97":2578661.4500000002,"ADDRESS":"四維路２３２號","OBJECTID":573394},"geometry":{"x":175559.9299999997,"y":2578661.4500000011}},{"attributes":{"ID":573422,"DIS_CODE":0,"TOWNNAME":"鹽水區","LI":"橋南里","LIN":"23鄰","STREET":"四維路","SECT":" ","MAREA":" ","LANE":" ","ALLEY":" ","HOUSE_NO":"２３４號","E_COORD97":175555.25,"N_COORD97":2578661.0099999998,"ADDRESS":"四維路２３４號","OBJECTID":573395},"geometry":{"x":175555.25000000186,"y":2578661.0100000016}},{"attributes":{"ID":573423,"DIS_CODE":0,"TOWNNAME":"北區","LI":"成功里","LIN":"23鄰","STREET":"北成路","SECT":" ","MAREA":" ","LANE":" ","ALLEY":" ","HOUSE_NO":"７９號","E_COORD97":168961.88,"N_COORD97":2546633.9300000002,"ADDRESS":"北成路７９號","OBJECTID":573396},"geometry":{"x":168961.88000000082,"y":2546633.9299999997}},{"attributes":{"ID":573424,"DIS_CODE":0,"TOWNNAME":"關廟區","LI":"香洋里","LIN":"23鄰","STREET":"民族街","SECT":" ","MAREA":" ","LANE":" ","ALLEY":" ","HOUSE_NO":"１５６號","E_COORD97":181345.79000000001,"N_COORD97":2539857.29,"ADDRESS":"民族街１５６號","OBJECTID":573397},"geometry":{"x":181345.7900000019,"y":2539857.2899999991}},{"attributes":{"ID":573425,"DIS_CODE":0,"TOWNNAME":"關廟區","LI":"東勢里","LIN":"23鄰","STREET":"東安街","SECT":" ","MAREA":" ","LANE":" ","ALLEY":" ","HOUSE_NO":"２０８號","E_COORD97":181540.47,"N_COORD97":2539377.3199999998,"ADDRESS":"東安街２０８號","OBJECTID":573398},"geometry":{"x":181540.46999999974,"y":2539377.3199999984}},{"attributes":{"ID":573426,"DIS_CODE":0,"TOWNNAME":"北區","LI":"成功里","LIN":"23鄰","STREET":"北成路","SECT":" ","MAREA":" ","LANE":" ","ALLEY":" ","HOUSE_NO":"１０７號","E_COORD97":168911.42000000001,"N_COORD97":2546658.48,"ADDRESS":"北成路１０７號","OBJECTID":573399},"geometry":{"x":168911.41999999993,"y":2546658.4800000004}},{"attributes":{"ID":573427,"DIS_CODE":0,"TOWNNAME":"北區","LI":"成功里","LIN":"23鄰","STREET":"北成路","SECT":" ","MAREA":" ","LANE":" ","ALLEY":" ","HOUSE_NO":"１０９號","E_COORD97":168907.10999999999,"N_COORD97":2546660.9399999999,"ADDRESS":"北成路１０９號","OBJECTID":573400},"geometry":{"x":168907.11000000034,"y":2546660.9399999995}}]}