{"displayFieldName":"TOWNNAME","fieldAliases":{"ID":"ID","DIS_CODE":"DIS_CODE","TOWNNAME":"TOWNNAME","LI":"LI","LIN":"LIN","STREET":"STREET","SECT":"SECT","MAREA":"MAREA","LANE":"LANE","ALLEY":"ALLEY","HOUSE_NO":"HOUSE_NO","E_COORD97":"E_COORD97","N_COORD97":"N_COORD97","ADDRESS":"ADDRESS","OBJECTID":"OBJECTID"},"geometryType":"esriGeometryPoint","spatialReference":{"wkid":102443,"latestWkid":3826},"fields":[{"name":"ID","type":"esriFieldTypeDouble","alias":"ID"},{"name":"DIS_CODE","type":"esriFieldTypeInteger","alias":"DIS_CODE"},{"name":"TOWNNAME","type":"esriFieldTypeString","alias":"TOWNNAME","length":8},{"name":"LI","type":"esriFieldTypeString","alias":"LI","length":8},{"name":"LIN","type":"esriFieldTypeString","alias":"LIN","length":12},{"name":"STREET","type":"esriFieldTypeString","alias":"STREET","length":20},{"name":"SECT","type":"esriFieldTypeString","alias":"SECT","length":8},{"name":"MAREA","type":"esriFieldTypeString","alias":"MAREA","length":12},{"name":"LANE","type":"esriFieldTypeString","alias":"LANE","length":10},{"name":"ALLEY","type":"esriFieldTypeString","alias":"ALLEY","length":10},{"name":"HOUSE_NO","type":"esriFieldTypeString","alias":"HOUSE_NO","length":20},{"name":"E_COORD97","type":"esriFieldTypeDouble","alias":"E_COORD97"},{"name":"N_COORD97","type":"esriFieldTypeDouble","alias":"N_COORD97"},{"name":"ADDRESS","type":"esriFieldTypeString","alias":"ADDRESS","length":50},{"name":"OBJECTID","type":"esriFieldTypeOID","alias":"OBJECTID"}],"features":[{"attributes":{"ID":213802,"DIS_CODE":0,"TOWNNAME":"安南區","LI":"四草里","LIN":"1鄰","STREET":"大眾六街","SECT":" ","MAREA":" ","LANE":"１４８巷","ALLEY":" ","HOUSE_NO":"３７號","E_COORD97":160546.333912,"N_COORD97":2546736.4673299999,"ADDRESS":"大眾六街１４８巷３７號","OBJECTID":213801},"geometry":{"x":160546.33391200006,"y":2546736.4673280045}},{"attributes":{"ID":213803,"DIS_CODE":0,"TOWNNAME":"仁德區","LI":"上崙里","LIN":"1鄰","STREET":"德崙路","SECT":" ","MAREA":" ","LANE":"７７巷","ALLEY":" ","HOUSE_NO":"８４號五樓之３","E_COORD97":173598.74978000001,"N_COORD97":2538465.4086500001,"ADDRESS":"德崙路７７巷８４號五樓之３","OBJECTID":213802},"geometry":{"x":173598.74978000019,"y":2538465.4086499996}},{"attributes":{"ID":213804,"DIS_CODE":0,"TOWNNAME":"仁德區","LI":"上崙里","LIN":"4鄰","STREET":"德南路","SECT":" ","MAREA":" ","LANE":"２５２巷","ALLEY":" ","HOUSE_NO":"８號","E_COORD97":173823.44031100001,"N_COORD97":2538340.8127600001,"ADDRESS":"德南路２５２巷８號","OBJECTID":213803},"geometry":{"x":173823.44031100068,"y":2538340.8127580024}},{"attributes":{"ID":213805,"DIS_CODE":0,"TOWNNAME":"仁德區","LI":"上崙里","LIN":"1鄰","STREET":"德崙路","SECT":" ","MAREA":" ","LANE":"７７巷","ALLEY":" ","HOUSE_NO":"８４號五樓之４","E_COORD97":173598.74978000001,"N_COORD97":2538465.4086500001,"ADDRESS":"德崙路７７巷８４號五樓之４","OBJECTID":213804},"geometry":{"x":173598.74978000019,"y":2538465.4086499996}},{"attributes":{"ID":213806,"DIS_CODE":0,"TOWNNAME":"仁德區","LI":"上崙里","LIN":"1鄰","STREET":"德崙路","SECT":" ","MAREA":" ","LANE":"７７巷","ALLEY":" ","HOUSE_NO":"８４號四樓之５","E_COORD97":173598.74978000001,"N_COORD97":2538465.4086500001,"ADDRESS":"德崙路７７巷８４號四樓之５","OBJECTID":213805},"geometry":{"x":173598.74978000019,"y":2538465.4086499996}},{"attributes":{"ID":213807,"DIS_CODE":0,"TOWNNAME":"仁德區","LI":"上崙里","LIN":"4鄰","STREET":"德南路","SECT":" ","MAREA":" ","LANE":"２５２巷","ALLEY":" ","HOUSE_NO":"７號","E_COORD97":173821.10971600001,"N_COORD97":2538345.0460899998,"ADDRESS":"德南路２５２巷７號","OBJECTID":213806},"geometry":{"x":173821.1097160019,"y":2538345.046089001}},{"attributes":{"ID":213808,"DIS_CODE":0,"TOWNNAME":"安南區","LI":"布袋里","LIN":"2鄰","STREET":"長和路","SECT":"四段","MAREA":" ","LANE":"１８４巷","ALLEY":" ","HOUSE_NO":"１０號","E_COORD97":168893.45000000001,"N_COORD97":2551717.0899999999,"ADDRESS":"長和路四段１８４巷１０號","OBJECTID":213807},"geometry":{"x":168893.45000000019,"y":2551717.0900000017}},{"attributes":{"ID":213809,"DIS_CODE":0,"TOWNNAME":"安南區","LI":"布袋里","LIN":"2鄰","STREET":"長和路","SECT":"四段","MAREA":" ","LANE":"１８４巷","ALLEY":" ","HOUSE_NO":"１１號","E_COORD97":168891.14000000001,"N_COORD97":2551721.2599999998,"ADDRESS":"長和路四段１８４巷１１號","OBJECTID":213808},"geometry":{"x":168891.13999999966,"y":2551721.2599999998}},{"attributes":{"ID":213810,"DIS_CODE":0,"TOWNNAME":"安南區","LI":"布袋里","LIN":"2鄰","STREET":"長和路","SECT":"四段","MAREA":" ","LANE":"１８４巷","ALLEY":" ","HOUSE_NO":"１２號","E_COORD97":168888.64999999999,"N_COORD97":2551724.5099999998,"ADDRESS":"長和路四段１８４巷１２號","OBJECTID":213809},"geometry":{"x":168888.65000000037,"y":2551724.5100000016}},{"attributes":{"ID":213811,"DIS_CODE":0,"TOWNNAME":"安南區","LI":"布袋里","LIN":"2鄰","STREET":"長和路","SECT":"四段","MAREA":" ","LANE":"１８４巷","ALLEY":" ","HOUSE_NO":"１３號","E_COORD97":168886.85999999999,"N_COORD97":2551727.96,"ADDRESS":"長和路四段１８４巷１３號","OBJECTID":213810},"geometry":{"x":168886.86000000034,"y":2551727.9600000009}},{"attributes":{"ID":213812,"DIS_CODE":0,"TOWNNAME":"安南區","LI":"布袋里","LIN":"2鄰","STREET":"長和路","SECT":"四段","MAREA":" ","LANE":"１８４巷","ALLEY":" ","HOUSE_NO":"１４號","E_COORD97":168884.62,"N_COORD97":2551731.54,"ADDRESS":"長和路四段１８４巷１４號","OBJECTID":213811},"geometry":{"x":168884.62000000104,"y":2551731.5399999991}},{"attributes":{"ID":213813,"DIS_CODE":0,"TOWNNAME":"仁德區","LI":"中洲里","LIN":"9鄰","STREET":" ","SECT":" ","MAREA":"中洲","LANE":" ","ALLEY":" ","HOUSE_NO":"３０５號","E_COORD97":173406.23999999999,"N_COORD97":2533816.75,"ADDRESS":"中洲３０５號","OBJECTID":213812},"geometry":{"x":173406.24000000115,"y":2533816.75}},{"attributes":{"ID":213814,"DIS_CODE":0,"TOWNNAME":"安南區","LI":"布袋里","LIN":"2鄰","STREET":"長和路","SECT":"四段","MAREA":" ","LANE":"１８４巷","ALLEY":" ","HOUSE_NO":"１５號","E_COORD97":168882.07000000001,"N_COORD97":2551735.3700000001,"ADDRESS":"長和路四段１８４巷１５號","OBJECTID":213813},"geometry":{"x":168882.0700000003,"y":2551735.370000001}},{"attributes":{"ID":213815,"DIS_CODE":0,"TOWNNAME":"安南區","LI":"布袋里","LIN":"2鄰","STREET":"長和路","SECT":"四段","MAREA":" ","LANE":"１８４巷","ALLEY":" ","HOUSE_NO":"１６號","E_COORD97":168879.76999999999,"N_COORD97":2551739.2000000002,"ADDRESS":"長和路四段１８４巷１６號","OBJECTID":213814},"geometry":{"x":168879.76999999955,"y":2551739.2000000011}},{"attributes":{"ID":213816,"DIS_CODE":0,"TOWNNAME":"安南區","LI":"布袋里","LIN":"2鄰","STREET":"長和路","SECT":"四段","MAREA":" ","LANE":"１８４巷","ALLEY":" ","HOUSE_NO":"１７號","E_COORD97":168876.70000000001,"N_COORD97":2551742.0800000001,"ADDRESS":"長和路四段１８４巷１７號","OBJECTID":213815},"geometry":{"x":168876.70000000205,"y":2551742.0800000001}},{"attributes":{"ID":213817,"DIS_CODE":0,"TOWNNAME":"安南區","LI":"東和里","LIN":"2鄰","STREET":"長和路","SECT":"一段","MAREA":" ","LANE":"８７１巷","ALLEY":" ","HOUSE_NO":"９１號","E_COORD97":170736,"N_COORD97":2551299.1699999999,"ADDRESS":"長和路一段８７１巷９１號","OBJECTID":213816},"geometry":{"x":170736.00000000093,"y":2551299.1700000018}},{"attributes":{"ID":213818,"DIS_CODE":0,"TOWNNAME":"安南區","LI":"東和里","LIN":"2鄰","STREET":"長和路","SECT":"一段","MAREA":" ","LANE":"８７１巷","ALLEY":" ","HOUSE_NO":"８７號","E_COORD97":170727.34,"N_COORD97":2551284.27,"ADDRESS":"長和路一段８７１巷８７號","OBJECTID":213817},"geometry":{"x":170727.34000000078,"y":2551284.2700000033}},{"attributes":{"ID":213819,"DIS_CODE":0,"TOWNNAME":"安南區","LI":"東和里","LIN":"2鄰","STREET":"長和路","SECT":"一段","MAREA":" ","LANE":"８７１巷","ALLEY":" ","HOUSE_NO":"６７號","E_COORD97":170723.01000000001,"N_COORD97":2551319.3599999999,"ADDRESS":"長和路一段８７１巷６７號","OBJECTID":213818},"geometry":{"x":170723.00999999978,"y":2551319.3599999994}},{"attributes":{"ID":213820,"DIS_CODE":0,"TOWNNAME":"安南區","LI":"東和里","LIN":"2鄰","STREET":"長和路","SECT":"一段","MAREA":" ","LANE":"８７１巷","ALLEY":" ","HOUSE_NO":"１０６號","E_COORD97":170699.45000000001,"N_COORD97":2551337.6200000001,"ADDRESS":"長和路一段８７１巷１０６號","OBJECTID":213819},"geometry":{"x":170699.45000000112,"y":2551337.6200000048}},{"attributes":{"ID":213821,"DIS_CODE":0,"TOWNNAME":"山上區","LI":"新莊里","LIN":"9鄰","STREET":" ","SECT":" ","MAREA":"大庄","LANE":" ","ALLEY":" ","HOUSE_NO":"３６號","E_COORD97":183906.95999999999,"N_COORD97":2554950.25,"ADDRESS":"大庄３６號","OBJECTID":213820},"geometry":{"x":183906.95999999996,"y":2554950.2500000019}},{"attributes":{"ID":213822,"DIS_CODE":0,"TOWNNAME":"山上區","LI":"明和里","LIN":"9鄰","STREET":" ","SECT":" ","MAREA":"明和","LANE":" ","ALLEY":" ","HOUSE_NO":"１００號","E_COORD97":183218.84,"N_COORD97":2556342.25,"ADDRESS":"明和１００號","OBJECTID":213821},"geometry":{"x":183218.84000000078,"y":2556342.25}},{"attributes":{"ID":213823,"DIS_CODE":0,"TOWNNAME":"山上區","LI":"新莊里","LIN":"9鄰","STREET":" ","SECT":" ","MAREA":"大庄","LANE":" ","ALLEY":" ","HOUSE_NO":"５４號","E_COORD97":183294.35999999999,"N_COORD97":2554472.25,"ADDRESS":"大庄５４號","OBJECTID":213822},"geometry":{"x":183294.36000000034,"y":2554472.2500000019}},{"attributes":{"ID":213824,"DIS_CODE":0,"TOWNNAME":"善化區","LI":"小新里","LIN":"9鄰","STREET":" ","SECT":" ","MAREA":"小新營","LANE":" ","ALLEY":" ","HOUSE_NO":"７３號之１９","E_COORD97":179531.30341399999,"N_COORD97":2558362.6582800001,"ADDRESS":"小新營７３號之１９","OBJECTID":213823},"geometry":{"x":179531.3034140002,"y":2558362.6582810003}},{"attributes":{"ID":213825,"DIS_CODE":0,"TOWNNAME":"山上區","LI":"南洲里","LIN":"9鄰","STREET":" ","SECT":" ","MAREA":"南洲","LANE":" ","ALLEY":" ","HOUSE_NO":"２４之１號","E_COORD97":183802.94936500001,"N_COORD97":2555471.7337000002,"ADDRESS":"南洲２４之１號","OBJECTID":213824},"geometry":{"x":183802.9493650021,"y":2555471.7337040007}},{"attributes":{"ID":213826,"DIS_CODE":0,"TOWNNAME":"善化區","LI":"東隆里","LIN":"9鄰","STREET":" ","SECT":" ","MAREA":"東勢寮","LANE":" ","ALLEY":" ","HOUSE_NO":"２２０號","E_COORD97":179923.85000000001,"N_COORD97":2561380.5099999998,"ADDRESS":"東勢寮２２０號","OBJECTID":213825},"geometry":{"x":179923.84999999963,"y":2561380.5100000016}},{"attributes":{"ID":213827,"DIS_CODE":0,"TOWNNAME":"善化區","LI":"文昌里","LIN":"9鄰","STREET":"平等路","SECT":" ","MAREA":" ","LANE":" ","ALLEY":" ","HOUSE_NO":"１１號","E_COORD97":177301.98000000001,"N_COORD97":2558949.75,"ADDRESS":"平等路１１號","OBJECTID":213826},"geometry":{"x":177301.98000000138,"y":2558949.75}},{"attributes":{"ID":213828,"DIS_CODE":0,"TOWNNAME":"善化區","LI":"坐駕里","LIN":"17鄰","STREET":"興華路","SECT":" ","MAREA":" ","LANE":" ","ALLEY":" ","HOUSE_NO":"２６９之１號","E_COORD97":177886.35999999999,"N_COORD97":2558486.77,"ADDRESS":"興華路２６９之１號","OBJECTID":213827},"geometry":{"x":177886.36000000127,"y":2558486.7700000014}},{"attributes":{"ID":213829,"DIS_CODE":0,"TOWNNAME":"仁德區","LI":"仁義里","LIN":"9鄰","STREET":"仁義一街","SECT":" ","MAREA":" ","LANE":" ","ALLEY":" ","HOUSE_NO":"１２４號","E_COORD97":173593.26000000001,"N_COORD97":2541180.2599999998,"ADDRESS":"仁義一街１２４號","OBJECTID":213828},"geometry":{"x":173593.25999999978,"y":2541180.2599999998}},{"attributes":{"ID":213830,"DIS_CODE":0,"TOWNNAME":"安南區","LI":"布袋里","LIN":"2鄰","STREET":"長和路","SECT":"四段","MAREA":" ","LANE":"１８４巷","ALLEY":" ","HOUSE_NO":"２５號","E_COORD97":168857.32999999999,"N_COORD97":2551771.4900000002,"ADDRESS":"長和路四段１８４巷２５號","OBJECTID":213829},"geometry":{"x":168857.33000000101,"y":2551771.4900000039}},{"attributes":{"ID":213831,"DIS_CODE":0,"TOWNNAME":"安南區","LI":"布袋里","LIN":"2鄰","STREET":"長和路","SECT":"四段","MAREA":" ","LANE":"１８４巷","ALLEY":" ","HOUSE_NO":"２９號","E_COORD97":168847.35999999999,"N_COORD97":2551786.0600000001,"ADDRESS":"長和路四段１８４巷２９號","OBJECTID":213830},"geometry":{"x":168847.36000000127,"y":2551786.0600000024}},{"attributes":{"ID":213832,"DIS_CODE":0,"TOWNNAME":"安南區","LI":"布袋里","LIN":"2鄰","STREET":"長和路","SECT":"四段","MAREA":" ","LANE":"１８４巷","ALLEY":" ","HOUSE_NO":"２號","E_COORD97":168912.62,"N_COORD97":2551687.8700000001,"ADDRESS":"長和路四段１８４巷２號","OBJECTID":213831},"geometry":{"x":168912.61999999918,"y":2551687.870000001}},{"attributes":{"ID":213833,"DIS_CODE":0,"TOWNNAME":"安南區","LI":"布袋里","LIN":"2鄰","STREET":"長和路","SECT":"四段","MAREA":" ","LANE":"１８４巷","ALLEY":" ","HOUSE_NO":"３０號","E_COORD97":168845.13,"N_COORD97":2551789.4399999999,"ADDRESS":"長和路四段１８４巷３０號","OBJECTID":213832},"geometry":{"x":168845.13000000082,"y":2551789.4400000013}},{"attributes":{"ID":213834,"DIS_CODE":0,"TOWNNAME":"仁德區","LI":"後壁里","LIN":"9鄰","STREET":"德善二街","SECT":" ","MAREA":" ","LANE":" ","ALLEY":" ","HOUSE_NO":"５２號","E_COORD97":173669.76000000001,"N_COORD97":2538979.77,"ADDRESS":"德善二街５２號","OBJECTID":213833},"geometry":{"x":173669.76000000164,"y":2538979.7699999996}},{"attributes":{"ID":213835,"DIS_CODE":0,"TOWNNAME":"安南區","LI":"布袋里","LIN":"2鄰","STREET":"長和路","SECT":"四段","MAREA":" ","LANE":"１８４巷","ALLEY":" ","HOUSE_NO":"３１號","E_COORD97":168843.14999999999,"N_COORD97":2551793.1400000001,"ADDRESS":"長和路四段１８４巷３１號","OBJECTID":213834},"geometry":{"x":168843.15000000037,"y":2551793.1400000006}},{"attributes":{"ID":213836,"DIS_CODE":0,"TOWNNAME":"仁德區","LI":"仁德里","LIN":"9鄰","STREET":"仁德二街","SECT":" ","MAREA":" ","LANE":" ","ALLEY":" ","HOUSE_NO":"３７號","E_COORD97":173223.60000000001,"N_COORD97":2541065.52,"ADDRESS":"仁德二街３７號","OBJECTID":213835},"geometry":{"x":173223.60000000056,"y":2541065.5200000014}},{"attributes":{"ID":213837,"DIS_CODE":0,"TOWNNAME":"安南區","LI":"布袋里","LIN":"2鄰","STREET":"長和路","SECT":"四段","MAREA":" ","LANE":"１８４巷","ALLEY":" ","HOUSE_NO":"３２號","E_COORD97":168839.89000000001,"N_COORD97":2551796.7799999998,"ADDRESS":"長和路四段１８４巷３２號","OBJECTID":213836},"geometry":{"x":168839.8900000006,"y":2551796.7800000012}},{"attributes":{"ID":213838,"DIS_CODE":0,"TOWNNAME":"仁德區","LI":"仁愛里","LIN":"9鄰","STREET":" ","SECT":" ","MAREA":"仁愛","LANE":" ","ALLEY":" ","HOUSE_NO":"１７８號","E_COORD97":170274.95242099999,"N_COORD97":2539851.5249999999,"ADDRESS":"仁愛１７８號","OBJECTID":213837},"geometry":{"x":170274.95242100116,"y":2539851.5250000004}},{"attributes":{"ID":213839,"DIS_CODE":0,"TOWNNAME":"仁德區","LI":"仁義里","LIN":"9鄰","STREET":"仁義一街","SECT":" ","MAREA":" ","LANE":" ","ALLEY":" ","HOUSE_NO":"１３４號","E_COORD97":173614.12,"N_COORD97":2541178.2599999998,"ADDRESS":"仁義一街１３４號","OBJECTID":213838},"geometry":{"x":173614.12000000104,"y":2541178.2600000016}},{"attributes":{"ID":213840,"DIS_CODE":0,"TOWNNAME":"仁德區","LI":"上崙里","LIN":"9鄰","STREET":"德善路","SECT":" ","MAREA":" ","LANE":" ","ALLEY":" ","HOUSE_NO":"３２９號","E_COORD97":173977.79000000001,"N_COORD97":2538477.52,"ADDRESS":"德善路３２９號","OBJECTID":213839},"geometry":{"x":173977.79000000004,"y":2538477.5200000014}},{"attributes":{"ID":213841,"DIS_CODE":0,"TOWNNAME":"安南區","LI":"布袋里","LIN":"2鄰","STREET":"長和路","SECT":"四段","MAREA":" ","LANE":"１８４巷","ALLEY":" ","HOUSE_NO":"３３號","E_COORD97":168837.51999999999,"N_COORD97":2551800,"ADDRESS":"長和路四段１８４巷３３號","OBJECTID":213840},"geometry":{"x":168837.51999999955,"y":2551800.0000000019}},{"attributes":{"ID":213842,"DIS_CODE":0,"TOWNNAME":"安南區","LI":"布袋里","LIN":"2鄰","STREET":"長和路","SECT":"四段","MAREA":" ","LANE":"１８４巷","ALLEY":" ","HOUSE_NO":"３４號","E_COORD97":168835.23000000001,"N_COORD97":2551804.0099999998,"ADDRESS":"長和路四段１８４巷３４號","OBJECTID":213841},"geometry":{"x":168835.23000000045,"y":2551804.0099999998}},{"attributes":{"ID":213843,"DIS_CODE":0,"TOWNNAME":"安南區","LI":"布袋里","LIN":"2鄰","STREET":"長和路","SECT":"四段","MAREA":" ","LANE":"１８４巷","ALLEY":" ","HOUSE_NO":"３５號","E_COORD97":168832.79999999999,"N_COORD97":2551807.1400000001,"ADDRESS":"長和路四段１８４巷３５號","OBJECTID":213842},"geometry":{"x":168832.79999999981,"y":2551807.1400000006}},{"attributes":{"ID":213844,"DIS_CODE":0,"TOWNNAME":"安南區","LI":"布袋里","LIN":"2鄰","STREET":"長和路","SECT":"四段","MAREA":" ","LANE":"１８４巷","ALLEY":" ","HOUSE_NO":"３６號","E_COORD97":168830.69,"N_COORD97":2551811.0499999998,"ADDRESS":"長和路四段１８４巷３６號","OBJECTID":213843},"geometry":{"x":168830.69000000041,"y":2551811.0500000007}},{"attributes":{"ID":213845,"DIS_CODE":0,"TOWNNAME":"新營區","LI":"新南里","LIN":"1鄰","STREET":"民治路","SECT":" ","MAREA":" ","LANE":"２３０巷","ALLEY":" ","HOUSE_NO":"４２號","E_COORD97":178733.10579900001,"N_COORD97":2578626.6130300001,"ADDRESS":"民治路２３０巷４２號","OBJECTID":213844},"geometry":{"x":178733.10579899978,"y":2578626.6130270008}},{"attributes":{"ID":213846,"DIS_CODE":0,"TOWNNAME":"安南區","LI":"布袋里","LIN":"2鄰","STREET":"長和路","SECT":"四段","MAREA":" ","LANE":"１８４巷","ALLEY":" ","HOUSE_NO":"８號","E_COORD97":168898.82000000001,"N_COORD97":2551709.73,"ADDRESS":"長和路四段１８４巷８號","OBJECTID":213845},"geometry":{"x":168898.82000000123,"y":2551709.7300000023}},{"attributes":{"ID":213847,"DIS_CODE":0,"TOWNNAME":"安南區","LI":"布袋里","LIN":"2鄰","STREET":"長和路","SECT":"四段","MAREA":" ","LANE":"１８４巷","ALLEY":" ","HOUSE_NO":"２３號","E_COORD97":168862.20000000001,"N_COORD97":2551764.1200000001,"ADDRESS":"長和路四段１８４巷２３號","OBJECTID":213846},"geometry":{"x":168862.20000000112,"y":2551764.120000001}},{"attributes":{"ID":213848,"DIS_CODE":0,"TOWNNAME":"仁德區","LI":"仁義里","LIN":"9鄰","STREET":"仁義一街","SECT":" ","MAREA":" ","LANE":" ","ALLEY":" ","HOUSE_NO":"１４８號","E_COORD97":173644.5,"N_COORD97":2541175.5099999998,"ADDRESS":"仁義一街１４８號","OBJECTID":213847},"geometry":{"x":173644.5,"y":2541175.5099999998}},{"attributes":{"ID":213849,"DIS_CODE":0,"TOWNNAME":"善化區","LI":"東隆里","LIN":"9鄰","STREET":" ","SECT":" ","MAREA":"東勢寮","LANE":" ","ALLEY":" ","HOUSE_NO":"２７０之１號","E_COORD97":179946.45999999999,"N_COORD97":2561140.52,"ADDRESS":"東勢寮２７０之１號","OBJECTID":213848},"geometry":{"x":179946.46000000089,"y":2561140.5199999996}},{"attributes":{"ID":213850,"DIS_CODE":0,"TOWNNAME":"善化區","LI":"田寮里","LIN":" ","STREET":" ","SECT":" ","MAREA":"六分寮","LANE":" ","ALLEY":" ","HOUSE_NO":"９３號","E_COORD97":178632.01999999999,"N_COORD97":2561506.75,"ADDRESS":"六分寮９３號","OBJECTID":213849},"geometry":{"x":178632.02000000048,"y":2561506.7500000037}},{"attributes":{"ID":213851,"DIS_CODE":0,"TOWNNAME":"下營區","LI":"開化里","LIN":"2鄰","STREET":" ","SECT":" ","MAREA":"中營","LANE":" ","ALLEY":" ","HOUSE_NO":"９３號","E_COORD97":175551.53,"N_COORD97":2568132.5,"ADDRESS":"中營９３號","OBJECTID":213850},"geometry":{"x":175551.53000000026,"y":2568132.5}},{"attributes":{"ID":213852,"DIS_CODE":0,"TOWNNAME":"下營區","LI":"開化里","LIN":"2鄰","STREET":" ","SECT":" ","MAREA":"中營","LANE":" ","ALLEY":" ","HOUSE_NO":"９４號","E_COORD97":175564.35000000001,"N_COORD97":2568145.0600000001,"ADDRESS":"中營９４號","OBJECTID":213851},"geometry":{"x":175564.35000000149,"y":2568145.0600000024}},{"attributes":{"ID":213853,"DIS_CODE":0,"TOWNNAME":"下營區","LI":"開化里","LIN":"2鄰","STREET":" ","SECT":" ","MAREA":"中營","LANE":" ","ALLEY":" ","HOUSE_NO":"９５號","E_COORD97":175577.39999999999,"N_COORD97":2568159.2599999998,"ADDRESS":"中營９５號","OBJECTID":213852},"geometry":{"x":175577.4000000013,"y":2568159.2600000016}},{"attributes":{"ID":213854,"DIS_CODE":0,"TOWNNAME":"下營區","LI":"開化里","LIN":"2鄰","STREET":" ","SECT":" ","MAREA":"中營","LANE":" ","ALLEY":" ","HOUSE_NO":"９６號之１","E_COORD97":175551.28,"N_COORD97":2568165.9399999999,"ADDRESS":"中營９６號之１","OBJECTID":213853},"geometry":{"x":175551.28000000026,"y":2568165.9399999995}},{"attributes":{"ID":213855,"DIS_CODE":0,"TOWNNAME":"下營區","LI":"開化里","LIN":"2鄰","STREET":" ","SECT":" ","MAREA":"中營","LANE":" ","ALLEY":" ","HOUSE_NO":"９６號","E_COORD97":175578.01000000001,"N_COORD97":2568175.6600000001,"ADDRESS":"中營９６號","OBJECTID":213854},"geometry":{"x":175578.00999999978,"y":2568175.6600000001}},{"attributes":{"ID":213856,"DIS_CODE":0,"TOWNNAME":"下營區","LI":"開化里","LIN":"2鄰","STREET":" ","SECT":" ","MAREA":"中營","LANE":" ","ALLEY":" ","HOUSE_NO":"９７號","E_COORD97":175559.79999999999,"N_COORD97":2568190.5600000001,"ADDRESS":"中營９７號","OBJECTID":213855},"geometry":{"x":175559.80000000168,"y":2568190.5600000005}},{"attributes":{"ID":213857,"DIS_CODE":0,"TOWNNAME":"下營區","LI":"甲中里","LIN":"2鄰","STREET":" ","SECT":" ","MAREA":"中庄子","LANE":" ","ALLEY":" ","HOUSE_NO":"１１號之１","E_COORD97":175343.51000000001,"N_COORD97":2572239.8999999999,"ADDRESS":"中庄子１１號之１","OBJECTID":213856},"geometry":{"x":175343.51000000071,"y":2572239.8999999985}},{"attributes":{"ID":213858,"DIS_CODE":0,"TOWNNAME":"仁德區","LI":"二行里","LIN":"9鄰","STREET":"行大街","SECT":" ","MAREA":" ","LANE":" ","ALLEY":" ","HOUSE_NO":"６６號","E_COORD97":170179.17999999999,"N_COORD97":2535183.7400000002,"ADDRESS":"行大街６６號","OBJECTID":213857},"geometry":{"x":170179.1799999997,"y":2535183.7400000002}},{"attributes":{"ID":213859,"DIS_CODE":0,"TOWNNAME":"仁德區","LI":"一甲里","LIN":"9鄰","STREET":"中正路","SECT":"三段","MAREA":" ","LANE":" ","ALLEY":" ","HOUSE_NO":"２２２號","E_COORD97":173548.70999999999,"N_COORD97":2541939.02,"ADDRESS":"中正路三段２２２號","OBJECTID":213858},"geometry":{"x":173548.71000000089,"y":2541939.0200000014}},{"attributes":{"ID":213860,"DIS_CODE":0,"TOWNNAME":"安南區","LI":"布袋里","LIN":"2鄰","STREET":"長和路","SECT":"四段","MAREA":" ","LANE":"１８４巷","ALLEY":" ","HOUSE_NO":"２６號","E_COORD97":168855.22,"N_COORD97":2551774.9399999999,"ADDRESS":"長和路四段１８４巷２６號","OBJECTID":213859},"geometry":{"x":168855.21999999974,"y":2551774.9400000013}},{"attributes":{"ID":213861,"DIS_CODE":0,"TOWNNAME":"仁德區","LI":"一甲里","LIN":"9鄰","STREET":"中正路","SECT":"三段","MAREA":" ","LANE":" ","ALLEY":" ","HOUSE_NO":"３３２號","E_COORD97":173857.42000000001,"N_COORD97":2542401.0299999998,"ADDRESS":"中正路三段３３２號","OBJECTID":213860},"geometry":{"x":173857.42000000086,"y":2542401.0300000012}},{"attributes":{"ID":213862,"DIS_CODE":0,"TOWNNAME":"仁德區","LI":"二行里","LIN":"9鄰","STREET":"中正西路","SECT":" ","MAREA":" ","LANE":" ","ALLEY":" ","HOUSE_NO":"２２７號","E_COORD97":170025.29000000001,"N_COORD97":2535382.2400000002,"ADDRESS":"中正西路２２７號","OBJECTID":213861},"geometry":{"x":170025.2900000019,"y":2535382.2400000021}},{"attributes":{"ID":213863,"DIS_CODE":0,"TOWNNAME":"仁德區","LI":"二行里","LIN":"9鄰","STREET":"行大街","SECT":" ","MAREA":" ","LANE":" ","ALLEY":" ","HOUSE_NO":"８０號","E_COORD97":170152.04999999999,"N_COORD97":2535194.2400000002,"ADDRESS":"行大街８０號","OBJECTID":213862},"geometry":{"x":170152.05000000168,"y":2535194.2400000039}},{"attributes":{"ID":213864,"DIS_CODE":0,"TOWNNAME":"安南區","LI":"布袋里","LIN":"2鄰","STREET":"長和路","SECT":"四段","MAREA":" ","LANE":"１８４巷","ALLEY":" ","HOUSE_NO":"２７號","E_COORD97":168852.98999999999,"N_COORD97":2551778.5699999998,"ADDRESS":"長和路四段１８４巷２７號","OBJECTID":213863},"geometry":{"x":168852.99000000115,"y":2551778.5700000022}},{"attributes":{"ID":213865,"DIS_CODE":0,"TOWNNAME":"安南區","LI":"布袋里","LIN":"2鄰","STREET":"長和路","SECT":"四段","MAREA":" ","LANE":"１８４巷","ALLEY":" ","HOUSE_NO":"２８號","E_COORD97":168850.69,"N_COORD97":2551782.7200000002,"ADDRESS":"長和路四段１８４巷２８號","OBJECTID":213864},"geometry":{"x":168850.69000000041,"y":2551782.7200000007}},{"attributes":{"ID":213866,"DIS_CODE":0,"TOWNNAME":"安南區","LI":"布袋里","LIN":"2鄰","STREET":"長和路","SECT":"四段","MAREA":" ","LANE":"１８４巷","ALLEY":" ","HOUSE_NO":"３７號","E_COORD97":168828.89999999999,"N_COORD97":2551814.75,"ADDRESS":"長和路四段１８４巷３７號","OBJECTID":213865},"geometry":{"x":168828.90000000037,"y":2551814.7500000019}},{"attributes":{"ID":213867,"DIS_CODE":0,"TOWNNAME":"安南區","LI":"布袋里","LIN":"2鄰","STREET":"長和路","SECT":"四段","MAREA":" ","LANE":"１８４巷","ALLEY":" ","HOUSE_NO":"３號","E_COORD97":168910.25,"N_COORD97":2551691.27,"ADDRESS":"長和路四段１８４巷３號","OBJECTID":213866},"geometry":{"x":168910.25000000093,"y":2551691.2700000014}},{"attributes":{"ID":213868,"DIS_CODE":0,"TOWNNAME":"安南區","LI":"顯宮里","LIN":"2鄰","STREET":"顯宮二街","SECT":" ","MAREA":" ","LANE":"５８巷","ALLEY":" ","HOUSE_NO":"２７號","E_COORD97":160586.29999999999,"N_COORD97":2548736.7400000002,"ADDRESS":"顯宮二街５８巷２７號","OBJECTID":213867},"geometry":{"x":160586.30000000075,"y":2548736.7400000021}},{"attributes":{"ID":213869,"DIS_CODE":0,"TOWNNAME":"安南區","LI":"顯宮里","LIN":"2鄰","STREET":"顯宮二街","SECT":" ","MAREA":" ","LANE":"５８巷","ALLEY":" ","HOUSE_NO":"２５號","E_COORD97":160581.13,"N_COORD97":2548734.3799999999,"ADDRESS":"顯宮二街５８巷２５號","OBJECTID":213868},"geometry":{"x":160581.13000000082,"y":2548734.3800000008}},{"attributes":{"ID":213870,"DIS_CODE":0,"TOWNNAME":"安南區","LI":"公\u25A0里","LIN":"2鄰","STREET":"安興街","SECT":" ","MAREA":" ","LANE":"４３巷","ALLEY":" ","HOUSE_NO":"１２號","E_COORD97":164335.12,"N_COORD97":2552230.5699999998,"ADDRESS":"安興街４３巷１２號","OBJECTID":213869},"geometry":{"x":164335.12000000011,"y":2552230.5700000003}},{"attributes":{"ID":213871,"DIS_CODE":0,"TOWNNAME":"仁德區","LI":"仁愛里","LIN":"9鄰","STREET":" ","SECT":" ","MAREA":"仁愛","LANE":" ","ALLEY":" ","HOUSE_NO":"１７３號","E_COORD97":170298.99793799999,"N_COORD97":2539837.855,"ADDRESS":"仁愛１７３號","OBJECTID":213870},"geometry":{"x":170298.9979380006,"y":2539837.8550000023}},{"attributes":{"ID":213872,"DIS_CODE":0,"TOWNNAME":"安南區","LI":"海東里","LIN":"16鄰","STREET":"海環街","SECT":" ","MAREA":" ","LANE":"３１巷","ALLEY":" ","HOUSE_NO":"６６號","E_COORD97":166638.10386100001,"N_COORD97":2548805.5889699999,"ADDRESS":"海環街３１巷６６號","OBJECTID":213871},"geometry":{"x":166638.10386100132,"y":2548805.5889740027}},{"attributes":{"ID":213873,"DIS_CODE":0,"TOWNNAME":"歸仁區","LI":"看西里","LIN":"11鄰","STREET":"成功六街","SECT":" ","MAREA":" ","LANE":"３８巷","ALLEY":" ","HOUSE_NO":"１０３號","E_COORD97":178418.81476899999,"N_COORD97":2540300.1262300001,"ADDRESS":"成功六街３８巷１０３號","OBJECTID":213872},"geometry":{"x":178418.81476900075,"y":2540300.1262330003}},{"attributes":{"ID":213874,"DIS_CODE":0,"TOWNNAME":"善化區","LI":"胡厝里","LIN":"24鄰","STREET":" ","SECT":" ","MAREA":"烏橋","LANE":" ","ALLEY":" ","HOUSE_NO":"１２號","E_COORD97":175396.70000000001,"N_COORD97":2558930,"ADDRESS":"烏橋１２號","OBJECTID":213873},"geometry":{"x":175396.70000000112,"y":2558930.0000000019}},{"attributes":{"ID":213875,"DIS_CODE":0,"TOWNNAME":"永康區","LI":"復華里","LIN":"25鄰","STREET":"復華八街","SECT":" ","MAREA":" ","LANE":"６２巷","ALLEY":" ","HOUSE_NO":"７號","E_COORD97":172792.453041,"N_COORD97":2546354.6989799999,"ADDRESS":"復華八街６２巷７號","OBJECTID":213874},"geometry":{"x":172792.45304100215,"y":2546354.6989810038}},{"attributes":{"ID":213876,"DIS_CODE":0,"TOWNNAME":"善化區","LI":"嘉北里","LIN":"1鄰","STREET":" ","SECT":" ","MAREA":"茄拔","LANE":" ","ALLEY":" ","HOUSE_NO":"６之１號","E_COORD97":181219.67999999999,"N_COORD97":2560020.52,"ADDRESS":"茄拔６之１號","OBJECTID":213875},"geometry":{"x":181219.68000000063,"y":2560020.5200000014}},{"attributes":{"ID":213877,"DIS_CODE":0,"TOWNNAME":"永康區","LI":"復華里","LIN":"25鄰","STREET":"復華八街","SECT":" ","MAREA":" ","LANE":"６２巷","ALLEY":" ","HOUSE_NO":"１號","E_COORD97":172780.58660000001,"N_COORD97":2546353.85231,"ADDRESS":"復華八街６２巷１號","OBJECTID":213876},"geometry":{"x":172780.58660000097,"y":2546353.85231}},{"attributes":{"ID":213878,"DIS_CODE":0,"TOWNNAME":"仁德區","LI":"二行里","LIN":"9鄰","STREET":"行大街","SECT":" ","MAREA":" ","LANE":" ","ALLEY":" ","HOUSE_NO":"１０４號","E_COORD97":170131.17999999999,"N_COORD97":2535153.25,"ADDRESS":"行大街１０４號","OBJECTID":213877},"geometry":{"x":170131.18000000063,"y":2535153.2500000037}},{"attributes":{"ID":213879,"DIS_CODE":0,"TOWNNAME":"下營區","LI":"甲中里","LIN":"2鄰","STREET":" ","SECT":" ","MAREA":"中庄子","LANE":" ","ALLEY":" ","HOUSE_NO":"１１號","E_COORD97":175341.38,"N_COORD97":2572254.7200000002,"ADDRESS":"中庄子１１號","OBJECTID":213878},"geometry":{"x":175341.38000000082,"y":2572254.7200000007}},{"attributes":{"ID":213880,"DIS_CODE":0,"TOWNNAME":"下營區","LI":"甲中里","LIN":"2鄰","STREET":" ","SECT":" ","MAREA":"中庄子","LANE":" ","ALLEY":" ","HOUSE_NO":"１２號","E_COORD97":175360.98000000001,"N_COORD97":2572244.3599999999,"ADDRESS":"中庄子１２號","OBJECTID":213879},"geometry":{"x":175360.98000000138,"y":2572244.3600000013}},{"attributes":{"ID":213881,"DIS_CODE":0,"TOWNNAME":"下營區","LI":"甲中里","LIN":"2鄰","STREET":" ","SECT":" ","MAREA":"中庄子","LANE":" ","ALLEY":" ","HOUSE_NO":"１３號之１","E_COORD97":175396.16,"N_COORD97":2572212.3199999998,"ADDRESS":"中庄子１３號之１","OBJECTID":213880},"geometry":{"x":175396.16000000015,"y":2572212.3200000003}},{"attributes":{"ID":213882,"DIS_CODE":0,"TOWNNAME":"下營區","LI":"甲中里","LIN":"2鄰","STREET":" ","SECT":" ","MAREA":"中庄子","LANE":" ","ALLEY":" ","HOUSE_NO":"１３號之２","E_COORD97":175400.54000000001,"N_COORD97":2572184.3599999999,"ADDRESS":"中庄子１３號之２","OBJECTID":213881},"geometry":{"x":175400.53999999911,"y":2572184.3599999994}},{"attributes":{"ID":213883,"DIS_CODE":0,"TOWNNAME":"下營區","LI":"甲中里","LIN":"2鄰","STREET":" ","SECT":" ","MAREA":"中庄子","LANE":" ","ALLEY":" ","HOUSE_NO":"１３之３號","E_COORD97":175376.5,"N_COORD97":2572246.0899999999,"ADDRESS":"中庄子１３之３號","OBJECTID":213882},"geometry":{"x":175376.5,"y":2572246.0900000017}},{"attributes":{"ID":213884,"DIS_CODE":0,"TOWNNAME":"下營區","LI":"甲中里","LIN":"2鄰","STREET":" ","SECT":" ","MAREA":"中庄子","LANE":" ","ALLEY":" ","HOUSE_NO":"１３號","E_COORD97":175378.38,"N_COORD97":2572269.5600000001,"ADDRESS":"中庄子１３號","OBJECTID":213883},"geometry":{"x":175378.38000000082,"y":2572269.5600000042}},{"attributes":{"ID":213885,"DIS_CODE":0,"TOWNNAME":"下營區","LI":"甲中里","LIN":"2鄰","STREET":" ","SECT":" ","MAREA":"中庄子","LANE":" ","ALLEY":" ","HOUSE_NO":"１４號","E_COORD97":175358.54000000001,"N_COORD97":2572264.3700000001,"ADDRESS":"中庄子１４號","OBJECTID":213884},"geometry":{"x":175358.54000000097,"y":2572264.370000001}},{"attributes":{"ID":213886,"DIS_CODE":0,"TOWNNAME":"永康區","LI":"復華里","LIN":"25鄰","STREET":"復華八街","SECT":" ","MAREA":" ","LANE":"６２巷","ALLEY":" ","HOUSE_NO":"３號","E_COORD97":172784.40080999999,"N_COORD97":2546354.2756400001,"ADDRESS":"復華八街６２巷３號","OBJECTID":213885},"geometry":{"x":172784.40080999862,"y":2546354.2756400015}},{"attributes":{"ID":213887,"DIS_CODE":0,"TOWNNAME":"仁德區","LI":"一甲里","LIN":"9鄰","STREET":"中正路","SECT":"三段","MAREA":" ","LANE":" ","ALLEY":" ","HOUSE_NO":"２１８號","E_COORD97":173542.60000000001,"N_COORD97":2541926.77,"ADDRESS":"中正路三段２１８號","OBJECTID":213886},"geometry":{"x":173542.60000000056,"y":2541926.7700000033}},{"attributes":{"ID":213888,"DIS_CODE":0,"TOWNNAME":"安南區","LI":"安東里","LIN":"6鄰","STREET":"安和路","SECT":"一段","MAREA":" ","LANE":"２８８巷","ALLEY":" ","HOUSE_NO":"４６號","E_COORD97":169407.90912699999,"N_COORD97":2548104.2133999998,"ADDRESS":"安和路一段２８８巷４６號","OBJECTID":213887},"geometry":{"x":169407.90912700072,"y":2548104.2133999988}},{"attributes":{"ID":213889,"DIS_CODE":0,"TOWNNAME":"安南區","LI":"安東里","LIN":"6鄰","STREET":"安和路","SECT":"一段","MAREA":" ","LANE":"２８８巷","ALLEY":" ","HOUSE_NO":"３９號","E_COORD97":169391.808242,"N_COORD97":2548111.4100600001,"ADDRESS":"安和路一段２８８巷３９號","OBJECTID":213888},"geometry":{"x":169391.80824200157,"y":2548111.4100630023}},{"attributes":{"ID":213890,"DIS_CODE":0,"TOWNNAME":"永康區","LI":"復華里","LIN":"24鄰","STREET":"復華八街","SECT":" ","MAREA":" ","LANE":"６２巷","ALLEY":" ","HOUSE_NO":"２號","E_COORD97":172776.984295,"N_COORD97":2546347.8198199999,"ADDRESS":"復華八街６２巷２號","OBJECTID":213889},"geometry":{"x":172776.98429500218,"y":2546347.8198180012}},{"attributes":{"ID":213891,"DIS_CODE":0,"TOWNNAME":"永康區","LI":"龍潭里","LIN":"17鄰","STREET":"龍潭街","SECT":" ","MAREA":" ","LANE":"１９３巷","ALLEY":" ","HOUSE_NO":"８號","E_COORD97":174904.03134700001,"N_COORD97":2548366.9923299998,"ADDRESS":"龍潭街１９３巷８號","OBJECTID":213890},"geometry":{"x":174904.03134700004,"y":2548366.9923330043}},{"attributes":{"ID":213892,"DIS_CODE":0,"TOWNNAME":"永康區","LI":"復華里","LIN":"24鄰","STREET":"復華八街","SECT":" ","MAREA":" ","LANE":"６２巷","ALLEY":" ","HOUSE_NO":"１０號","E_COORD97":172794.57204699999,"N_COORD97":2546348.1373200002,"ADDRESS":"復華八街６２巷１０號","OBJECTID":213891},"geometry":{"x":172794.57204699982,"y":2546348.1373180021}},{"attributes":{"ID":213893,"DIS_CODE":0,"TOWNNAME":"仁德區","LI":"一甲里","LIN":"9鄰","STREET":"中正路","SECT":"三段","MAREA":" ","LANE":" ","ALLEY":" ","HOUSE_NO":"２５０號","E_COORD97":173613.76000000001,"N_COORD97":2542040.52,"ADDRESS":"中正路三段２５０號","OBJECTID":213892},"geometry":{"x":173613.75999999885,"y":2542040.5200000033}},{"attributes":{"ID":213894,"DIS_CODE":0,"TOWNNAME":"永康區","LI":"復華里","LIN":"24鄰","STREET":"復華八街","SECT":" ","MAREA":" ","LANE":"６２巷","ALLEY":" ","HOUSE_NO":"８號","E_COORD97":172788.21502800001,"N_COORD97":2546348.5606499999,"ADDRESS":"復華八街６２巷８號","OBJECTID":213893},"geometry":{"x":172788.21502800006,"y":2546348.5606510006}},{"attributes":{"ID":213895,"DIS_CODE":0,"TOWNNAME":"永康區","LI":"復華里","LIN":"24鄰","STREET":"復華八街","SECT":" ","MAREA":" ","LANE":"６２巷","ALLEY":" ","HOUSE_NO":"６號","E_COORD97":172782.70561199999,"N_COORD97":2546348.4548200001,"ADDRESS":"復華八街６２巷６號","OBJECTID":213894},"geometry":{"x":172782.70561200101,"y":2546348.454818001}},{"attributes":{"ID":213896,"DIS_CODE":0,"TOWNNAME":"永康區","LI":"復華里","LIN":"24鄰","STREET":"復華八街","SECT":" ","MAREA":" ","LANE":"６２巷","ALLEY":" ","HOUSE_NO":"１２號","E_COORD97":172799.02196000001,"N_COORD97":2546348.03149,"ADDRESS":"復華八街６２巷１２號","OBJECTID":213895},"geometry":{"x":172799.02195999864,"y":2546348.0314850025}},{"attributes":{"ID":213897,"DIS_CODE":0,"TOWNNAME":"關廟區","LI":"新光里","LIN":"13鄰","STREET":"南寮街","SECT":" ","MAREA":" ","LANE":"２９巷","ALLEY":" ","HOUSE_NO":"５２號","E_COORD97":184347.36326300001,"N_COORD97":2541684.5873500002,"ADDRESS":"南寮街２９巷５２號","OBJECTID":213896},"geometry":{"x":184347.36326300073,"y":2541684.587352002}},{"attributes":{"ID":213898,"DIS_CODE":0,"TOWNNAME":"關廟區","LI":"新光里","LIN":"13鄰","STREET":"南寮街","SECT":" ","MAREA":" ","LANE":"２９巷","ALLEY":" ","HOUSE_NO":"５８號","E_COORD97":184330.413482,"N_COORD97":2541690.1965200002,"ADDRESS":"南寮街２９巷５８號","OBJECTID":213897},"geometry":{"x":184330.41348200198,"y":2541690.1965150014}},{"attributes":{"ID":213899,"DIS_CODE":0,"TOWNNAME":"安南區","LI":"幸福里","LIN":"6鄰","STREET":"國安街","SECT":" ","MAREA":" ","LANE":"１３９巷","ALLEY":" ","HOUSE_NO":"２６號","E_COORD97":166791.50591899999,"N_COORD97":2546870.9373699999,"ADDRESS":"國安街１３９巷２６號","OBJECTID":213898},"geometry":{"x":166791.50591900013,"y":2546870.937373003}},{"attributes":{"ID":213900,"DIS_CODE":0,"TOWNNAME":"下營區","LI":"仁里里","LIN":"5鄰","STREET":"仁南街","SECT":" ","MAREA":" ","LANE":"６巷","ALLEY":" ","HOUSE_NO":"３８號","E_COORD97":174471.27757899999,"N_COORD97":2569743.2102999999,"ADDRESS":"仁南街６巷３８號","OBJECTID":213899},"geometry":{"x":174471.27757900208,"y":2569743.210299002}},{"attributes":{"ID":213901,"DIS_CODE":0,"TOWNNAME":"歸仁區","LI":"看東里","LIN":"6鄰","STREET":"成功路","SECT":"一段","MAREA":" ","LANE":"１８７巷","ALLEY":" ","HOUSE_NO":"５５號","E_COORD97":178508.13558599999,"N_COORD97":2540049.4977000002,"ADDRESS":"成功路一段１８７巷５５號","OBJECTID":213900},"geometry":{"x":178508.13558600005,"y":2540049.4977010004}},{"attributes":{"ID":213902,"DIS_CODE":0,"TOWNNAME":"仁德區","LI":"二行里","LIN":"9鄰","STREET":"行大街","SECT":" ","MAREA":" ","LANE":" ","ALLEY":" ","HOUSE_NO":"１００號","E_COORD97":170153.72,"N_COORD97":2535162.5,"ADDRESS":"行大街１００號","OBJECTID":213901},"geometry":{"x":170153.71999999974,"y":2535162.5000000019}},{"attributes":{"ID":213903,"DIS_CODE":0,"TOWNNAME":"新營區","LI":"新南里","LIN":"1鄰","STREET":"民治路","SECT":" ","MAREA":" ","LANE":"２３０巷","ALLEY":" ","HOUSE_NO":"３６號","E_COORD97":178742.852381,"N_COORD97":2578622.1680299998,"ADDRESS":"民治路２３０巷３６號","OBJECTID":213902},"geometry":{"x":178742.85238100123,"y":2578622.1680290028}},{"attributes":{"ID":213904,"DIS_CODE":0,"TOWNNAME":"仁德區","LI":"中洲里","LIN":"9鄰","STREET":" ","SECT":" ","MAREA":"中洲","LANE":" ","ALLEY":" ","HOUSE_NO":"２９１號之２","E_COORD97":173342.01999999999,"N_COORD97":2534027.54,"ADDRESS":"中洲２９１號之２","OBJECTID":213903},"geometry":{"x":173342.01999999955,"y":2534027.5399999991}},{"attributes":{"ID":213905,"DIS_CODE":0,"TOWNNAME":"下營區","LI":"仁里里","LIN":"5鄰","STREET":"仁中街","SECT":" ","MAREA":" ","LANE":"１９巷","ALLEY":" ","HOUSE_NO":"３６號","E_COORD97":174520.557699,"N_COORD97":2569738.8711399999,"ADDRESS":"仁中街１９巷３６號","OBJECTID":213904},"geometry":{"x":174520.55769900139,"y":2569738.8711350039}},{"attributes":{"ID":213906,"DIS_CODE":0,"TOWNNAME":"仁德區","LI":"中洲里","LIN":"9鄰","STREET":" ","SECT":" ","MAREA":"中洲","LANE":" ","ALLEY":" ","HOUSE_NO":"２８９號","E_COORD97":173298.01000000001,"N_COORD97":2534031.4900000002,"ADDRESS":"中洲２８９號","OBJECTID":213905},"geometry":{"x":173298.00999999978,"y":2534031.4900000002}},{"attributes":{"ID":213907,"DIS_CODE":0,"TOWNNAME":"仁德區","LI":"中生里","LIN":"9鄰","STREET":" ","SECT":" ","MAREA":"中洲","LANE":" ","ALLEY":" ","HOUSE_NO":"１６０號之１","E_COORD97":173163.63,"N_COORD97":2534136.54,"ADDRESS":"中洲１６０號之１","OBJECTID":213906},"geometry":{"x":173163.62999999989,"y":2534136.5399999972}},{"attributes":{"ID":213908,"DIS_CODE":0,"TOWNNAME":"仁德區","LI":"一甲里","LIN":"9鄰","STREET":"中正路","SECT":"三段","MAREA":" ","LANE":" ","ALLEY":" ","HOUSE_NO":"２２８號","E_COORD97":173553.04000000001,"N_COORD97":2541949.52,"ADDRESS":"中正路三段２２８號","OBJECTID":213907},"geometry":{"x":173553.0400000019,"y":2541949.5200000014}},{"attributes":{"ID":213909,"DIS_CODE":0,"TOWNNAME":"仁德區","LI":"二行里","LIN":"9鄰","STREET":"行大街","SECT":" ","MAREA":" ","LANE":" ","ALLEY":" ","HOUSE_NO":"９２號","E_COORD97":170129.53,"N_COORD97":2535187.2400000002,"ADDRESS":"行大街９２號","OBJECTID":213908},"geometry":{"x":170129.53000000119,"y":2535187.2400000002}},{"attributes":{"ID":213910,"DIS_CODE":0,"TOWNNAME":"仁德區","LI":"二行里","LIN":"9鄰","STREET":"行大街","SECT":" ","MAREA":" ","LANE":" ","ALLEY":" ","HOUSE_NO":"１０８號","E_COORD97":170115.85999999999,"N_COORD97":2535149.75,"ADDRESS":"行大街１０８號","OBJECTID":213909},"geometry":{"x":170115.86000000034,"y":2535149.7499999981}},{"attributes":{"ID":213911,"DIS_CODE":0,"TOWNNAME":"仁德區","LI":"一甲里","LIN":"9鄰","STREET":"中正路","SECT":"三段","MAREA":" ","LANE":" ","ALLEY":" ","HOUSE_NO":"２４８號","E_COORD97":173641.14000000001,"N_COORD97":2541992.2799999998,"ADDRESS":"中正路三段２４８號","OBJECTID":213910},"geometry":{"x":173641.13999999966,"y":2541992.2800000012}},{"attributes":{"ID":213912,"DIS_CODE":0,"TOWNNAME":"下營區","LI":"甲中里","LIN":"2鄰","STREET":" ","SECT":" ","MAREA":"中庄子","LANE":" ","ALLEY":" ","HOUSE_NO":"１８號之５","E_COORD97":175244.25,"N_COORD97":2572325.5099999998,"ADDRESS":"中庄子１８號之５","OBJECTID":213911},"geometry":{"x":175244.25,"y":2572325.5099999998}},{"attributes":{"ID":213913,"DIS_CODE":0,"TOWNNAME":"仁德區","LI":"中生里","LIN":"9鄰","STREET":" ","SECT":" ","MAREA":"中洲","LANE":" ","ALLEY":" ","HOUSE_NO":"１６０號之１２","E_COORD97":173165.82999999999,"N_COORD97":2534132.54,"ADDRESS":"中洲１６０號之１２","OBJECTID":213912},"geometry":{"x":173165.83000000007,"y":2534132.5399999991}},{"attributes":{"ID":213914,"DIS_CODE":0,"TOWNNAME":"下營區","LI":"甲中里","LIN":"2鄰","STREET":" ","SECT":" ","MAREA":"中庄子","LANE":" ","ALLEY":" ","HOUSE_NO":"１６號","E_COORD97":175318.48000000001,"N_COORD97":2572284.8500000001,"ADDRESS":"中庄子１６號","OBJECTID":213913},"geometry":{"x":175318.48000000231,"y":2572284.8500000015}},{"attributes":{"ID":213915,"DIS_CODE":0,"TOWNNAME":"下營區","LI":"甲中里","LIN":"2鄰","STREET":" ","SECT":" ","MAREA":"中庄子","LANE":" ","ALLEY":" ","HOUSE_NO":"１７號之２","E_COORD97":175261.37,"N_COORD97":2572245.6800000002,"ADDRESS":"中庄子１７號之２","OBJECTID":213914},"geometry":{"x":175261.37000000104,"y":2572245.6800000016}},{"attributes":{"ID":213916,"DIS_CODE":0,"TOWNNAME":"下營區","LI":"甲中里","LIN":"2鄰","STREET":" ","SECT":" ","MAREA":"中庄子","LANE":" ","ALLEY":" ","HOUSE_NO":"１７號之３","E_COORD97":175219.64999999999,"N_COORD97":2572266.75,"ADDRESS":"中庄子１７號之３","OBJECTID":213915},"geometry":{"x":175219.6500000013,"y":2572266.75}},{"attributes":{"ID":213917,"DIS_CODE":0,"TOWNNAME":"下營區","LI":"甲中里","LIN":"2鄰","STREET":" ","SECT":" ","MAREA":"中庄子","LANE":" ","ALLEY":" ","HOUSE_NO":"１７號","E_COORD97":175284.39999999999,"N_COORD97":2572280.4300000002,"ADDRESS":"中庄子１７號","OBJECTID":213916},"geometry":{"x":175284.40000000037,"y":2572280.4300000016}},{"attributes":{"ID":213918,"DIS_CODE":0,"TOWNNAME":"下營區","LI":"甲中里","LIN":"2鄰","STREET":" ","SECT":" ","MAREA":"中庄子","LANE":" ","ALLEY":" ","HOUSE_NO":"１８號之１０","E_COORD97":175246.89999999999,"N_COORD97":2572313.8199999998,"ADDRESS":"中庄子１８號之１０","OBJECTID":213917},"geometry":{"x":175246.90000000037,"y":2572313.8200000003}},{"attributes":{"ID":213919,"DIS_CODE":0,"TOWNNAME":"下營區","LI":"仁里里","LIN":"5鄰","STREET":"仁中街","SECT":" ","MAREA":" ","LANE":"１９巷","ALLEY":" ","HOUSE_NO":"３２號","E_COORD97":174519.28643599999,"N_COORD97":2569742.8928,"ADDRESS":"仁中街１９巷３２號","OBJECTID":213918},"geometry":{"x":174519.28643599991,"y":2569742.8927989993}},{"attributes":{"ID":213920,"DIS_CODE":0,"TOWNNAME":"關廟區","LI":"龜洞里","LIN":"6鄰","STREET":"南雄南路","SECT":" ","MAREA":" ","LANE":"８８９巷","ALLEY":" ","HOUSE_NO":"１２號","E_COORD97":182364.14000000001,"N_COORD97":2532601.2999999998,"ADDRESS":"南雄南路８８９巷１２號","OBJECTID":213919},"geometry":{"x":182364.1400000006,"y":2532601.3000000026}},{"attributes":{"ID":213921,"DIS_CODE":0,"TOWNNAME":"下營區","LI":"仁里里","LIN":"5鄰","STREET":"仁中街","SECT":" ","MAREA":" ","LANE":"１９巷","ALLEY":" ","HOUSE_NO":"３０號","E_COORD97":174518.01517299999,"N_COORD97":2569747.1261300002,"ADDRESS":"仁中街１９巷３０號","OBJECTID":213920},"geometry":{"x":174518.01517300121,"y":2569747.1261300016}},{"attributes":{"ID":213922,"DIS_CODE":0,"TOWNNAME":"善化區","LI":"坐駕里","LIN":"17鄰","STREET":"興華路","SECT":" ","MAREA":" ","LANE":" ","ALLEY":" ","HOUSE_NO":"２８１號","E_COORD97":177835.95999999999,"N_COORD97":2558503.25,"ADDRESS":"興華路２８１號","OBJECTID":213921},"geometry":{"x":177835.96000000089,"y":2558503.2500000019}},{"attributes":{"ID":213923,"DIS_CODE":0,"TOWNNAME":"善化區","LI":"光文里","LIN":"30鄰","STREET":" ","SECT":" ","MAREA":"北子店","LANE":"５７７巷","ALLEY":" ","HOUSE_NO":"１號","E_COORD97":179325.14000000001,"N_COORD97":2559979.75,"ADDRESS":"北子店５７７巷１號","OBJECTID":213922},"geometry":{"x":179325.13999999966,"y":2559979.75}},{"attributes":{"ID":213924,"DIS_CODE":0,"TOWNNAME":"善化區","LI":"坐駕里","LIN":"17鄰","STREET":"興華路","SECT":" ","MAREA":" ","LANE":" ","ALLEY":" ","HOUSE_NO":"２６９號","E_COORD97":177881.85000000001,"N_COORD97":2558510.25,"ADDRESS":"興華路２６９號","OBJECTID":213923},"geometry":{"x":177881.85000000056,"y":2558510.2500000019}},{"attributes":{"ID":213925,"DIS_CODE":0,"TOWNNAME":"善化區","LI":"田寮里","LIN":"5鄰","STREET":" ","SECT":" ","MAREA":"六分寮","LANE":" ","ALLEY":" ","HOUSE_NO":"６４號之５","E_COORD97":178503.48999999999,"N_COORD97":2561275.02,"ADDRESS":"六分寮６４號之５","OBJECTID":213924},"geometry":{"x":178503.49000000209,"y":2561275.0200000014}},{"attributes":{"ID":213926,"DIS_CODE":0,"TOWNNAME":"善化區","LI":"胡厝里","LIN":"18鄰","STREET":" ","SECT":" ","MAREA":"西衛","LANE":" ","ALLEY":" ","HOUSE_NO":"１５號之７","E_COORD97":174368.95999999999,"N_COORD97":2559414.77,"ADDRESS":"西衛１５號之７","OBJECTID":213925},"geometry":{"x":174368.96000000089,"y":2559414.7700000014}},{"attributes":{"ID":213927,"DIS_CODE":0,"TOWNNAME":"善化區","LI":"嘉北里","LIN":"1鄰","STREET":" ","SECT":" ","MAREA":"茄拔","LANE":" ","ALLEY":" ","HOUSE_NO":"１號之３６","E_COORD97":181176.34,"N_COORD97":2560188.77,"ADDRESS":"茄拔１號之３６","OBJECTID":213926},"geometry":{"x":181176.34000000078,"y":2560188.7700000014}},{"attributes":{"ID":213928,"DIS_CODE":0,"TOWNNAME":"新營區","LI":"新南里","LIN":"1鄰","STREET":"民治路","SECT":" ","MAREA":" ","LANE":"２３０巷","ALLEY":" ","HOUSE_NO":"６號","E_COORD97":178809.80716299999,"N_COORD97":2578577.2947200001,"ADDRESS":"民治路２３０巷６號","OBJECTID":213927},"geometry":{"x":178809.80716300197,"y":2578577.2947200015}},{"attributes":{"ID":213929,"DIS_CODE":0,"TOWNNAME":"善化區","LI":"東昌里","LIN":"1鄰","STREET":" ","SECT":" ","MAREA":"東勢寮","LANE":" ","ALLEY":" ","HOUSE_NO":"１３號之２","E_COORD97":181001.07000000001,"N_COORD97":2561812.27,"ADDRESS":"東勢寮１３號之２","OBJECTID":213928},"geometry":{"x":181001.0700000003,"y":2561812.2700000014}},{"attributes":{"ID":213930,"DIS_CODE":0,"TOWNNAME":"安南區","LI":"淵中里","LIN":"6鄰","STREET":"本田路","SECT":"三段","MAREA":" ","LANE":"３３９巷","ALLEY":" ","HOUSE_NO":"７７之１號","E_COORD97":164522.25007800001,"N_COORD97":2549770.3806699999,"ADDRESS":"本田路三段３３９巷７７之１號","OBJECTID":213929},"geometry":{"x":164522.25007800013,"y":2549770.3806679994}},{"attributes":{"ID":213931,"DIS_CODE":0,"TOWNNAME":"善化區","LI":"嘉北里","LIN":"12鄰","STREET":" ","SECT":" ","MAREA":"茄拔","LANE":" ","ALLEY":" ","HOUSE_NO":"２６４號","E_COORD97":180934.88,"N_COORD97":2559903.7599999998,"ADDRESS":"茄拔２６４號","OBJECTID":213930},"geometry":{"x":180934.88000000082,"y":2559903.7600000016}},{"attributes":{"ID":213932,"DIS_CODE":0,"TOWNNAME":"新化區","LI":"唪口里","LIN":"9鄰","STREET":" ","SECT":" ","MAREA":"唪口","LANE":" ","ALLEY":" ","HOUSE_NO":"１８９號之１","E_COORD97":177903.17999999999,"N_COORD97":2548904.2599999998,"ADDRESS":"唪口１８９號之１","OBJECTID":213931},"geometry":{"x":177903.18000000156,"y":2548904.2600000035}},{"attributes":{"ID":213933,"DIS_CODE":0,"TOWNNAME":"安南區","LI":"淵中里","LIN":"6鄰","STREET":"本田路","SECT":"三段","MAREA":" ","LANE":"３３９巷","ALLEY":" ","HOUSE_NO":"１號","E_COORD97":164483.450434,"N_COORD97":2549563.9328899998,"ADDRESS":"本田路三段３３９巷１號","OBJECTID":213932},"geometry":{"x":164483.45043400116,"y":2549563.9328920003}},{"attributes":{"ID":213934,"DIS_CODE":0,"TOWNNAME":"新化區","LI":"礁坑里","LIN":"9鄰","STREET":" ","SECT":" ","MAREA":"蔡厝仔","LANE":" ","ALLEY":" ","HOUSE_NO":"４２號","E_COORD97":184491.17000000001,"N_COORD97":2548942.25,"ADDRESS":"蔡厝仔４２號","OBJECTID":213933},"geometry":{"x":184491.17000000086,"y":2548942.2500000037}},{"attributes":{"ID":213935,"DIS_CODE":0,"TOWNNAME":"新化區","LI":"唪口里","LIN":"9鄰","STREET":" ","SECT":" ","MAREA":"唪口","LANE":" ","ALLEY":" ","HOUSE_NO":"１９２號","E_COORD97":177881.85000000001,"N_COORD97":2548886.25,"ADDRESS":"唪口１９２號","OBJECTID":213934},"geometry":{"x":177881.85000000056,"y":2548886.25}},{"attributes":{"ID":213936,"DIS_CODE":0,"TOWNNAME":"安南區","LI":"淵中里","LIN":"6鄰","STREET":"本田路","SECT":"三段","MAREA":" ","LANE":"３３９巷","ALLEY":" ","HOUSE_NO":"３號","E_COORD97":164480.48394199999,"N_COORD97":2549584.4645500001,"ADDRESS":"本田路三段３３９巷３號","OBJECTID":213935},"geometry":{"x":164480.48394200113,"y":2549584.4645470027}},{"attributes":{"ID":213937,"DIS_CODE":0,"TOWNNAME":"新化區","LI":"礁坑里","LIN":"9鄰","STREET":" ","SECT":" ","MAREA":"蔡厝仔","LANE":" ","ALLEY":" ","HOUSE_NO":"４號","E_COORD97":184401.42000000001,"N_COORD97":2548737.25,"ADDRESS":"蔡厝仔４號","OBJECTID":213936},"geometry":{"x":184401.42000000086,"y":2548737.25}},{"attributes":{"ID":213938,"DIS_CODE":0,"TOWNNAME":"安南區","LI":"淵中里","LIN":"6鄰","STREET":"本田路","SECT":"三段","MAREA":" ","LANE":"３３９巷","ALLEY":" ","HOUSE_NO":"２１號","E_COORD97":164478.78880499999,"N_COORD97":2549627.0095199998,"ADDRESS":"本田路三段３３９巷２１號","OBJECTID":213937},"geometry":{"x":164478.78880499862,"y":2549627.0095239989}},{"attributes":{"ID":213939,"DIS_CODE":0,"TOWNNAME":"安南區","LI":"淵中里","LIN":"6鄰","STREET":"本田路","SECT":"三段","MAREA":" ","LANE":"３３９巷","ALLEY":" ","HOUSE_NO":"６５號","E_COORD97":164481.543404,"N_COORD97":2549692.09699,"ADDRESS":"本田路三段３３９巷６５號","OBJECTID":213938},"geometry":{"x":164481.54340400081,"y":2549692.0969890002}},{"attributes":{"ID":213940,"DIS_CODE":0,"TOWNNAME":"新化區","LI":"崙頂里","LIN":"9鄰","STREET":" ","SECT":" ","MAREA":"崙子頂","LANE":" ","ALLEY":" ","HOUSE_NO":"３４１號","E_COORD97":176733.73000000001,"N_COORD97":2546853.25,"ADDRESS":"崙子頂３４１號","OBJECTID":213939},"geometry":{"x":176733.73000000045,"y":2546853.2499999981}},{"attributes":{"ID":213941,"DIS_CODE":0,"TOWNNAME":"新化區","LI":"礁坑里","LIN":"9鄰","STREET":" ","SECT":" ","MAREA":"蔡厝仔","LANE":" ","ALLEY":" ","HOUSE_NO":"４６號","E_COORD97":184569.37,"N_COORD97":2548954.25,"ADDRESS":"蔡厝仔４６號","OBJECTID":213940},"geometry":{"x":184569.36999999918,"y":2548954.25}},{"attributes":{"ID":213942,"DIS_CODE":0,"TOWNNAME":"安南區","LI":"淵中里","LIN":"6鄰","STREET":"本田路","SECT":"三段","MAREA":" ","LANE":"３３９巷","ALLEY":" ","HOUSE_NO":"７３號","E_COORD97":164504.45113100001,"N_COORD97":2549745.8273499999,"ADDRESS":"本田路三段３３９巷７３號","OBJECTID":213941},"geometry":{"x":164504.45113100018,"y":2549745.8273480013}},{"attributes":{"ID":213943,"DIS_CODE":0,"TOWNNAME":"安南區","LI":"淵中里","LIN":"6鄰","STREET":"本田路","SECT":"三段","MAREA":" ","LANE":"３３９巷","ALLEY":" ","HOUSE_NO":"７５號","E_COORD97":164509.536544,"N_COORD97":2549753.2356799999,"ADDRESS":"本田路三段３３９巷７５號","OBJECTID":213942},"geometry":{"x":164509.53654400073,"y":2549753.235677002}},{"attributes":{"ID":213944,"DIS_CODE":0,"TOWNNAME":"新化區","LI":"唪口里","LIN":"9鄰","STREET":" ","SECT":" ","MAREA":"唪口","LANE":" ","ALLEY":" ","HOUSE_NO":"２０１號","E_COORD97":177793.54999999999,"N_COORD97":2549142.25,"ADDRESS":"唪口２０１號","OBJECTID":213943},"geometry":{"x":177793.54999999981,"y":2549142.2500000037}},{"attributes":{"ID":213945,"DIS_CODE":0,"TOWNNAME":"新化區","LI":"唪口里","LIN":"9鄰","STREET":" ","SECT":" ","MAREA":"唪口","LANE":" ","ALLEY":" ","HOUSE_NO":"１７７號之１","E_COORD97":177835.49056899999,"N_COORD97":2548971.8450500001,"ADDRESS":"唪口１７７號之１","OBJECTID":213944},"geometry":{"x":177835.49056900013,"y":2548971.8450470008}},{"attributes":{"ID":213946,"DIS_CODE":0,"TOWNNAME":"新化區","LI":"山\u25A0里","LIN":"9鄰","STREET":" ","SECT":" ","MAREA":"五甲勢","LANE":" ","ALLEY":" ","HOUSE_NO":"２３號","E_COORD97":182050.57999999999,"N_COORD97":2545834.25,"ADDRESS":"五甲勢２３號","OBJECTID":213945},"geometry":{"x":182050.57999999914,"y":2545834.2500000019}},{"attributes":{"ID":213947,"DIS_CODE":0,"TOWNNAME":"新化區","LI":"護國里","LIN":"9鄰","STREET":"中山路","SECT":" ","MAREA":" ","LANE":" ","ALLEY":" ","HOUSE_NO":"１２９號","E_COORD97":179454.51000000001,"N_COORD97":2548855.25,"ADDRESS":"中山路１２９號","OBJECTID":213946},"geometry":{"x":179454.51000000071,"y":2548855.2500000019}},{"attributes":{"ID":213948,"DIS_CODE":0,"TOWNNAME":"下營區","LI":"甲中里","LIN":"2鄰","STREET":" ","SECT":" ","MAREA":"中庄子","LANE":" ","ALLEY":" ","HOUSE_NO":"１８號之１","E_COORD97":175265.85000000001,"N_COORD97":2572323.52,"ADDRESS":"中庄子１８號之１","OBJECTID":213947},"geometry":{"x":175265.85000000149,"y":2572323.5200000014}},{"attributes":{"ID":213949,"DIS_CODE":0,"TOWNNAME":"下營區","LI":"甲中里","LIN":"2鄰","STREET":" ","SECT":" ","MAREA":"中庄子","LANE":" ","ALLEY":" ","HOUSE_NO":"１８號之３","E_COORD97":175236.57000000001,"N_COORD97":2572267.0800000001,"ADDRESS":"中庄子１８號之３","OBJECTID":213948},"geometry":{"x":175236.57000000123,"y":2572267.0800000019}},{"attributes":{"ID":213950,"DIS_CODE":0,"TOWNNAME":"下營區","LI":"甲中里","LIN":"2鄰","STREET":" ","SECT":" ","MAREA":"中庄子","LANE":" ","ALLEY":" ","HOUSE_NO":"１８號之４","E_COORD97":175257.29999999999,"N_COORD97":2572282.1400000001,"ADDRESS":"中庄子１８號之４","OBJECTID":213949},"geometry":{"x":175257.29999999981,"y":2572282.1400000006}},{"attributes":{"ID":213951,"DIS_CODE":0,"TOWNNAME":"佳里區","LI":"民安里","LIN":"2鄰","STREET":" ","SECT":" ","MAREA":"同安寮","LANE":" ","ALLEY":" ","HOUSE_NO":"１２號之１","E_COORD97":167025.73000000001,"N_COORD97":2562275.7999999998,"ADDRESS":"同安寮１２號之１","OBJECTID":213950},"geometry":{"x":167025.73000000138,"y":2562275.8000000007}},{"attributes":{"ID":213952,"DIS_CODE":0,"TOWNNAME":"佳里區","LI":"民安里","LIN":"2鄰","STREET":" ","SECT":" ","MAREA":"同安寮","LANE":" ","ALLEY":" ","HOUSE_NO":"１２號之２","E_COORD97":167021.26999999999,"N_COORD97":2562277.3799999999,"ADDRESS":"同安寮１２號之２","OBJECTID":213951},"geometry":{"x":167021.27000000048,"y":2562277.379999999}},{"attributes":{"ID":213953,"DIS_CODE":0,"TOWNNAME":"佳里區","LI":"民安里","LIN":"2鄰","STREET":" ","SECT":" ","MAREA":"同安寮","LANE":" ","ALLEY":" ","HOUSE_NO":"１２號之３","E_COORD97":167008.04000000001,"N_COORD97":2562213.1699999999,"ADDRESS":"同安寮１２號之３","OBJECTID":213952},"geometry":{"x":167008.04000000097,"y":2562213.1700000018}},{"attributes":{"ID":213954,"DIS_CODE":0,"TOWNNAME":"佳里區","LI":"民安里","LIN":"2鄰","STREET":" ","SECT":" ","MAREA":"同安寮","LANE":" ","ALLEY":" ","HOUSE_NO":"１２號之５","E_COORD97":167003.72,"N_COORD97":2562215,"ADDRESS":"同安寮１２號之５","OBJECTID":213953},"geometry":{"x":167003.71999999974,"y":2562215.0000000019}},{"attributes":{"ID":213955,"DIS_CODE":0,"TOWNNAME":"佳里區","LI":"民安里","LIN":"2鄰","STREET":" ","SECT":" ","MAREA":"同安寮","LANE":" ","ALLEY":" ","HOUSE_NO":"１２號","E_COORD97":167036,"N_COORD97":2562283.54,"ADDRESS":"同安寮１２號","OBJECTID":213954},"geometry":{"x":167036,"y":2562283.5400000028}},{"attributes":{"ID":213956,"DIS_CODE":0,"TOWNNAME":"佳里區","LI":"民安里","LIN":"2鄰","STREET":" ","SECT":" ","MAREA":"同安寮","LANE":" ","ALLEY":" ","HOUSE_NO":"１３號","E_COORD97":167041.38,"N_COORD97":2562304.7799999998,"ADDRESS":"同安寮１３號","OBJECTID":213955},"geometry":{"x":167041.38000000082,"y":2562304.7799999993}},{"attributes":{"ID":213957,"DIS_CODE":0,"TOWNNAME":"佳里區","LI":"民安里","LIN":"2鄰","STREET":" ","SECT":" ","MAREA":"同安寮","LANE":" ","ALLEY":" ","HOUSE_NO":"１４號","E_COORD97":167046.95000000001,"N_COORD97":2562320.3500000001,"ADDRESS":"同安寮１４號","OBJECTID":213956},"geometry":{"x":167046.95000000019,"y":2562320.3500000015}},{"attributes":{"ID":213958,"DIS_CODE":0,"TOWNNAME":"佳里區","LI":"民安里","LIN":"2鄰","STREET":" ","SECT":" ","MAREA":"同安寮","LANE":" ","ALLEY":" ","HOUSE_NO":"１９號之１","E_COORD97":167050.17999999999,"N_COORD97":2562260.0499999998,"ADDRESS":"同安寮１９號之１","OBJECTID":213957},"geometry":{"x":167050.1799999997,"y":2562260.0500000007}},{"attributes":{"ID":213959,"DIS_CODE":0,"TOWNNAME":"佳里區","LI":"民安里","LIN":"2鄰","STREET":" ","SECT":" ","MAREA":"同安寮","LANE":" ","ALLEY":" ","HOUSE_NO":"１９號之２","E_COORD97":167042.17000000001,"N_COORD97":2562262.48,"ADDRESS":"同安寮１９號之２","OBJECTID":213958},"geometry":{"x":167042.16999999993,"y":2562262.4800000023}},{"attributes":{"ID":213960,"DIS_CODE":0,"TOWNNAME":"安南區","LI":"淵中里","LIN":"6鄰","STREET":"本田路","SECT":"三段","MAREA":" ","LANE":"３３９巷","ALLEY":" ","HOUSE_NO":"８５號","E_COORD97":164539.413348,"N_COORD97":2549793.4523200002,"ADDRESS":"本田路三段３３９巷８５號","OBJECTID":213959},"geometry":{"x":164539.4133480005,"y":2549793.4523220025}},{"attributes":{"ID":213961,"DIS_CODE":0,"TOWNNAME":"安南區","LI":"淵中里","LIN":"6鄰","STREET":"本田路","SECT":"三段","MAREA":" ","LANE":"３３９巷","ALLEY":" ","HOUSE_NO":"８９號","E_COORD97":164547.88903699999,"N_COORD97":2549803.6123199998,"ADDRESS":"本田路三段３３９巷８９號","OBJECTID":213960},"geometry":{"x":164547.88903700002,"y":2549803.6123159993}},{"attributes":{"ID":213962,"DIS_CODE":0,"TOWNNAME":"安南區","LI":"淵中里","LIN":"6鄰","STREET":"本田路","SECT":"三段","MAREA":" ","LANE":"６８３巷","ALLEY":" ","HOUSE_NO":"１２號","E_COORD97":164938.80370799999,"N_COORD97":2549970.86858,"ADDRESS":"本田路三段６８３巷１２號","OBJECTID":213961},"geometry":{"x":164938.80370800011,"y":2549970.8685800005}},{"attributes":{"ID":213963,"DIS_CODE":0,"TOWNNAME":"安南區","LI":"淵中里","LIN":"6鄰","STREET":"本田路","SECT":"三段","MAREA":" ","LANE":"６８３巷","ALLEY":" ","HOUSE_NO":"１６號","E_COORD97":164943.04155200001,"N_COORD97":2549972.3502500001,"ADDRESS":"本田路三段６８３巷１６號","OBJECTID":213962},"geometry":{"x":164943.04155199975,"y":2549972.350246001}},{"attributes":{"ID":213964,"DIS_CODE":0,"TOWNNAME":"安南區","LI":"淵中里","LIN":"6鄰","STREET":"本田路","SECT":"三段","MAREA":" ","LANE":"６８３巷","ALLEY":" ","HOUSE_NO":"１８號","E_COORD97":164946.431828,"N_COORD97":2549975.1019100002,"ADDRESS":"本田路三段６８３巷１８號","OBJECTID":213963},"geometry":{"x":164946.43182800058,"y":2549975.1019110028}},{"attributes":{"ID":213965,"DIS_CODE":0,"TOWNNAME":"安南區","LI":"淵中里","LIN":"6鄰","STREET":"本田路","SECT":"三段","MAREA":" ","LANE":"６８３巷","ALLEY":" ","HOUSE_NO":"６號","E_COORD97":164946.47805199999,"N_COORD97":2549959.09619,"ADDRESS":"本田路三段６８３巷６號","OBJECTID":213964},"geometry":{"x":164946.47805200052,"y":2549959.0961869992}},{"attributes":{"ID":213966,"DIS_CODE":0,"TOWNNAME":"關廟區","LI":"下湖里","LIN":"6鄰","STREET":"下湖二街","SECT":" ","MAREA":" ","LANE":"９６巷","ALLEY":" ","HOUSE_NO":"２號","E_COORD97":179370.73999999999,"N_COORD97":2543123.25,"ADDRESS":"下湖二街９６巷２號","OBJECTID":213965},"geometry":{"x":179370.74000000022,"y":2543123.25}},{"attributes":{"ID":213967,"DIS_CODE":0,"TOWNNAME":"關廟區","LI":"下湖里","LIN":"6鄰","STREET":"下湖二街","SECT":" ","MAREA":" ","LANE":"９６巷","ALLEY":" ","HOUSE_NO":"２０號","E_COORD97":179428.44,"N_COORD97":2543174.2999999998,"ADDRESS":"下湖二街９６巷２０號","OBJECTID":213966},"geometry":{"x":179428.44000000134,"y":2543174.3000000007}},{"attributes":{"ID":213968,"DIS_CODE":0,"TOWNNAME":"關廟區","LI":"下湖里","LIN":"6鄰","STREET":"下湖二街","SECT":" ","MAREA":" ","LANE":"９６巷","ALLEY":" ","HOUSE_NO":"２５號","E_COORD97":179435.73999999999,"N_COORD97":2543339.2999999998,"ADDRESS":"下湖二街９６巷２５號","OBJECTID":213967},"geometry":{"x":179435.74000000209,"y":2543339.3000000026}},{"attributes":{"ID":213969,"DIS_CODE":0,"TOWNNAME":"下營區","LI":"仁里里","LIN":"5鄰","STREET":"仁中街","SECT":" ","MAREA":" ","LANE":"１９巷","ALLEY":" ","HOUSE_NO":"２８號","E_COORD97":174516.74390999999,"N_COORD97":2569751.7827900001,"ADDRESS":"仁中街１９巷２８號","OBJECTID":213968},"geometry":{"x":174516.74390999973,"y":2569751.7827940024}},{"attributes":{"ID":213970,"DIS_CODE":0,"TOWNNAME":"下營區","LI":"仁里里","LIN":"5鄰","STREET":"仁中街","SECT":" ","MAREA":" ","LANE":"１９巷","ALLEY":" ","HOUSE_NO":"２６號","E_COORD97":174515.89640100001,"N_COORD97":2569756.43946,"ADDRESS":"仁中街１９巷２６號","OBJECTID":213969},"geometry":{"x":174515.89640100207,"y":2569756.4394589998}},{"attributes":{"ID":213971,"DIS_CODE":0,"TOWNNAME":"仁德區","LI":"仁愛里","LIN":"30鄰","STREET":"亞航街","SECT":" ","MAREA":" ","LANE":"１９８巷","ALLEY":" ","HOUSE_NO":"１１號","E_COORD97":170047.32399999999,"N_COORD97":2539089.554,"ADDRESS":"亞航街１９８巷１１號","OBJECTID":213970},"geometry":{"x":170047.32400000002,"y":2539089.5539999977}},{"attributes":{"ID":213972,"DIS_CODE":0,"TOWNNAME":"仁德區","LI":"仁愛里","LIN":"30鄰","STREET":"亞航街","SECT":" ","MAREA":" ","LANE":"１９８巷","ALLEY":" ","HOUSE_NO":"７號","E_COORD97":170045.348,"N_COORD97":2539096.8859999999,"ADDRESS":"亞航街１９８巷７號","OBJECTID":213971},"geometry":{"x":170045.34800000023,"y":2539096.8860000018}},{"attributes":{"ID":213973,"DIS_CODE":0,"TOWNNAME":"佳里區","LI":"民安里","LIN":"2鄰","STREET":" ","SECT":" ","MAREA":"同安寮","LANE":" ","ALLEY":" ","HOUSE_NO":"１９號","E_COORD97":167056.98000000001,"N_COORD97":2562258.0499999998,"ADDRESS":"同安寮１９號","OBJECTID":213972},"geometry":{"x":167056.98000000045,"y":2562258.0500000045}},{"attributes":{"ID":213974,"DIS_CODE":0,"TOWNNAME":"仁德區","LI":"仁愛里","LIN":"30鄰","STREET":"亞航街","SECT":" ","MAREA":" ","LANE":"１９８巷","ALLEY":" ","HOUSE_NO":"１６８號","E_COORD97":170107.80100000001,"N_COORD97":2539122.281,"ADDRESS":"亞航街１９８巷１６８號","OBJECTID":213973},"geometry":{"x":170107.80100000091,"y":2539122.2810000014}},{"attributes":{"ID":213975,"DIS_CODE":0,"TOWNNAME":"下營區","LI":"仁里里","LIN":"5鄰","STREET":"仁中街","SECT":" ","MAREA":" ","LANE":"１９巷","ALLEY":" ","HOUSE_NO":"２２號","E_COORD97":174513.98950600001,"N_COORD97":2569760.4611200001,"ADDRESS":"仁中街１９巷２２號","OBJECTID":213974},"geometry":{"x":174513.98950600158,"y":2569760.4611230008}},{"attributes":{"ID":213976,"DIS_CODE":0,"TOWNNAME":"仁德區","LI":"仁愛里","LIN":"30鄰","STREET":"亞航街","SECT":" ","MAREA":" ","LANE":"１９８巷","ALLEY":" ","HOUSE_NO":"３５號","E_COORD97":170071.23800000001,"N_COORD97":2539050.7650000001,"ADDRESS":"亞航街１９８巷３５號","OBJECTID":213975},"geometry":{"x":170071.2379999999,"y":2539050.7650000006}},{"attributes":{"ID":213977,"DIS_CODE":0,"TOWNNAME":"仁德區","LI":"仁愛里","LIN":"30鄰","STREET":"亞航街","SECT":" ","MAREA":" ","LANE":"１９８巷","ALLEY":" ","HOUSE_NO":"５５號","E_COORD97":170108.31299999999,"N_COORD97":2539058.0669999998,"ADDRESS":"亞航街１９８巷５５號","OBJECTID":213976},"geometry":{"x":170108.31300000008,"y":2539058.0669999998}},{"attributes":{"ID":213978,"DIS_CODE":0,"TOWNNAME":"仁德區","LI":"仁愛里","LIN":"30鄰","STREET":"亞航街","SECT":" ","MAREA":" ","LANE":"１９８巷","ALLEY":" ","HOUSE_NO":"５３號","E_COORD97":170104.606,"N_COORD97":2539057.3369999998,"ADDRESS":"亞航街１９８巷５３號","OBJECTID":213977},"geometry":{"x":170104.60599999968,"y":2539057.3370000031}},{"attributes":{"ID":213979,"DIS_CODE":0,"TOWNNAME":"安南區","LI":"大安里","LIN":"9鄰","STREET":"大安街","SECT":" ","MAREA":" ","LANE":" ","ALLEY":" ","HOUSE_NO":"２１０號","E_COORD97":167409.95999999999,"N_COORD97":2548318.79,"ADDRESS":"大安街２１０號","OBJECTID":213978},"geometry":{"x":167409.96000000183,"y":2548318.7899999991}},{"attributes":{"ID":213980,"DIS_CODE":0,"TOWNNAME":"安南區","LI":"大安里","LIN":"9鄰","STREET":"大安街","SECT":" ","MAREA":" ","LANE":" ","ALLEY":" ","HOUSE_NO":"２１２號","E_COORD97":167412.16,"N_COORD97":2548322.1600000001,"ADDRESS":"大安街２１２號","OBJECTID":213979},"geometry":{"x":167412.15999999922,"y":2548322.1599999983}},{"attributes":{"ID":213981,"DIS_CODE":0,"TOWNNAME":"仁德區","LI":"仁愛里","LIN":"30鄰","STREET":"亞航街","SECT":" ","MAREA":" ","LANE":"１９８巷","ALLEY":" ","HOUSE_NO":"４７號","E_COORD97":170093.48300000001,"N_COORD97":2539055.1460000002,"ADDRESS":"亞航街１９８巷４７號","OBJECTID":213980},"geometry":{"x":170093.48300000001,"y":2539055.1459999997}},{"attributes":{"ID":213982,"DIS_CODE":0,"TOWNNAME":"安平區","LI":"文平里","LIN":"12鄰","STREET":"永華四街","SECT":" ","MAREA":" ","LANE":"２５巷","ALLEY":" ","HOUSE_NO":"８號之４","E_COORD97":165898.80968000001,"N_COORD97":2543248.8269400001,"ADDRESS":"永華四街２５巷８號之４","OBJECTID":213981},"geometry":{"x":165898.80968000181,"y":2543248.8269400038}},{"attributes":{"ID":213983,"DIS_CODE":0,"TOWNNAME":"下營區","LI":"仁里里","LIN":"5鄰","STREET":"仁中街","SECT":" ","MAREA":" ","LANE":"１９巷","ALLEY":" ","HOUSE_NO":"２０號","E_COORD97":174513.56575199999,"N_COORD97":2569765.11779,"ADDRESS":"仁中街１９巷２０號","OBJECTID":213982},"geometry":{"x":174513.56575199962,"y":2569765.1177870017}},{"attributes":{"ID":213984,"DIS_CODE":0,"TOWNNAME":"下營區","LI":"仁里里","LIN":"5鄰","STREET":"仁中街","SECT":" ","MAREA":" ","LANE":"１９巷","ALLEY":" ","HOUSE_NO":"１８號","E_COORD97":174512.50636599999,"N_COORD97":2569770.4094500002,"ADDRESS":"仁中街１９巷１８號","OBJECTID":213983},"geometry":{"x":174512.50636599865,"y":2569770.4094510004}},{"attributes":{"ID":213985,"DIS_CODE":0,"TOWNNAME":"永康區","LI":"復華里","LIN":"4鄰","STREET":"復國二路","SECT":" ","MAREA":" ","LANE":"２４３巷","ALLEY":" ","HOUSE_NO":"２之１號","E_COORD97":172985.07071199999,"N_COORD97":2546122.5805100002,"ADDRESS":"復國二路２４３巷２之１號","OBJECTID":213984},"geometry":{"x":172985.0707119992,"y":2546122.5805100016}},{"attributes":{"ID":213986,"DIS_CODE":0,"TOWNNAME":"仁德區","LI":"太子里","LIN":"44鄰","STREET":"太子路","SECT":" ","MAREA":" ","LANE":"１０１巷","ALLEY":" ","HOUSE_NO":"１２之２號","E_COORD97":174899.654388,"N_COORD97":2543439.12696,"ADDRESS":"太子路１０１巷１２之２號","OBJECTID":213985},"geometry":{"x":174899.65438800026,"y":2543439.1269569993}},{"attributes":{"ID":213987,"DIS_CODE":0,"TOWNNAME":"永康區","LI":"復華里","LIN":"3鄰","STREET":"復國二路","SECT":" ","MAREA":" ","LANE":"３４８巷","ALLEY":" ","HOUSE_NO":"１３號","E_COORD97":173097.801847,"N_COORD97":2546252.8612700002,"ADDRESS":"復國二路３４８巷１３號","OBJECTID":213986},"geometry":{"x":173097.80184700154,"y":2546252.8612730037}},{"attributes":{"ID":213988,"DIS_CODE":0,"TOWNNAME":"安南區","LI":"顯宮里","LIN":"8鄰","STREET":"媽祖宮二街","SECT":" ","MAREA":" ","LANE":"１２６巷","ALLEY":" ","HOUSE_NO":"２２３號","E_COORD97":160522.96273,"N_COORD97":2549173.5554800001,"ADDRESS":"媽祖宮二街１２６巷２２３號","OBJECTID":213987},"geometry":{"x":160522.9627299998,"y":2549173.5554800034}},{"attributes":{"ID":213989,"DIS_CODE":0,"TOWNNAME":"仁德區","LI":"仁愛里","LIN":"30鄰","STREET":"亞航街","SECT":" ","MAREA":" ","LANE":"１９８巷","ALLEY":" ","HOUSE_NO":"１８０號","E_COORD97":170087.36900000001,"N_COORD97":2539122.057,"ADDRESS":"亞航街１９８巷１８０號","OBJECTID":213988},"geometry":{"x":170087.36900000088,"y":2539122.0570000019}},{"attributes":{"ID":213990,"DIS_CODE":0,"TOWNNAME":"仁德區","LI":"仁愛里","LIN":"30鄰","STREET":"亞航街","SECT":" ","MAREA":" ","LANE":"１９８巷","ALLEY":" ","HOUSE_NO":"１號","E_COORD97":170034.24400000001,"N_COORD97":2539121.4759999998,"ADDRESS":"亞航街１９８巷１號","OBJECTID":213989},"geometry":{"x":170034.24399999995,"y":2539121.4759999998}},{"attributes":{"ID":213991,"DIS_CODE":0,"TOWNNAME":"仁德區","LI":"仁愛里","LIN":"30鄰","STREET":"亞航街","SECT":" ","MAREA":" ","LANE":"１９８巷","ALLEY":" ","HOUSE_NO":"６３號","E_COORD97":170094.06,"N_COORD97":2539085.665,"ADDRESS":"亞航街１９８巷６３號","OBJECTID":213990},"geometry":{"x":170094.06000000145,"y":2539085.665000001}},{"attributes":{"ID":213992,"DIS_CODE":0,"TOWNNAME":"仁德區","LI":"仁愛里","LIN":"30鄰","STREET":"亞航街","SECT":" ","MAREA":" ","LANE":"１９８巷","ALLEY":" ","HOUSE_NO":"６９號","E_COORD97":170090.76800000001,"N_COORD97":2539096.4789999998,"ADDRESS":"亞航街１９８巷６９號","OBJECTID":213991},"geometry":{"x":170090.76800000109,"y":2539096.4790000021}},{"attributes":{"ID":213993,"DIS_CODE":0,"TOWNNAME":"仁德區","LI":"仁愛里","LIN":"30鄰","STREET":"亞航街","SECT":" ","MAREA":" ","LANE":"１９８巷","ALLEY":" ","HOUSE_NO":"５１號","E_COORD97":170100.89799999999,"N_COORD97":2539056.6069999998,"ADDRESS":"亞航街１９８巷５１號","OBJECTID":213992},"geometry":{"x":170100.89800000004,"y":2539056.6070000008}},{"attributes":{"ID":213994,"DIS_CODE":0,"TOWNNAME":"仁德區","LI":"仁愛里","LIN":"30鄰","STREET":"亞航街","SECT":" ","MAREA":" ","LANE":"１９８巷","ALLEY":" ","HOUSE_NO":"４９號","E_COORD97":170097.19099999999,"N_COORD97":2539055.8760000002,"ADDRESS":"亞航街１９８巷４９號","OBJECTID":213993},"geometry":{"x":170097.19099999964,"y":2539055.8760000039}},{"attributes":{"ID":213995,"DIS_CODE":0,"TOWNNAME":"仁德區","LI":"仁愛里","LIN":"30鄰","STREET":"亞航街","SECT":" ","MAREA":" ","LANE":"１９８巷","ALLEY":" ","HOUSE_NO":"４５號","E_COORD97":170089.77600000001,"N_COORD97":2539054.4160000002,"ADDRESS":"亞航街１９８巷４５號","OBJECTID":213994},"geometry":{"x":170089.77599999961,"y":2539054.416000003}},{"attributes":{"ID":213996,"DIS_CODE":0,"TOWNNAME":"仁德區","LI":"仁愛里","LIN":"30鄰","STREET":"亞航街","SECT":" ","MAREA":" ","LANE":"１９８巷","ALLEY":" ","HOUSE_NO":"４３號","E_COORD97":170086.068,"N_COORD97":2539053.6860000002,"ADDRESS":"亞航街１９８巷４３號","OBJECTID":213995},"geometry":{"x":170086.06799999997,"y":2539053.6860000007}},{"attributes":{"ID":213997,"DIS_CODE":0,"TOWNNAME":"仁德區","LI":"仁愛里","LIN":"30鄰","STREET":"亞航街","SECT":" ","MAREA":" ","LANE":"１９８巷","ALLEY":" ","HOUSE_NO":"４１號","E_COORD97":170082.361,"N_COORD97":2539052.9559999998,"ADDRESS":"亞航街１９８巷４１號","OBJECTID":213996},"geometry":{"x":170082.36099999957,"y":2539052.9560000021}},{"attributes":{"ID":213998,"DIS_CODE":0,"TOWNNAME":"仁德區","LI":"仁愛里","LIN":"30鄰","STREET":"亞航街","SECT":" ","MAREA":" ","LANE":"１９８巷","ALLEY":" ","HOUSE_NO":"３９號","E_COORD97":170078.65299999999,"N_COORD97":2539052.2250000001,"ADDRESS":"亞航街１９８巷３９號","OBJECTID":213997},"geometry":{"x":170078.65299999993,"y":2539052.2249999996}},{"attributes":{"ID":213999,"DIS_CODE":0,"TOWNNAME":"仁德區","LI":"仁愛里","LIN":"30鄰","STREET":"亞航街","SECT":" ","MAREA":" ","LANE":"１９８巷","ALLEY":" ","HOUSE_NO":"１７８號","E_COORD97":170091.45499999999,"N_COORD97":2539122.102,"ADDRESS":"亞航街１９８巷１７８號","OBJECTID":213998},"geometry":{"x":170091.45500000007,"y":2539122.102}},{"attributes":{"ID":214000,"DIS_CODE":0,"TOWNNAME":"仁德區","LI":"仁愛里","LIN":"30鄰","STREET":"亞航街","SECT":" ","MAREA":" ","LANE":"１９８巷","ALLEY":" ","HOUSE_NO":"１９０號","E_COORD97":170071.02299999999,"N_COORD97":2539121.878,"ADDRESS":"亞航街１９８巷１９０號","OBJECTID":213999},"geometry":{"x":170071.02300000004,"y":2539121.8780000042}},{"attributes":{"ID":214001,"DIS_CODE":0,"TOWNNAME":"仁德區","LI":"仁愛里","LIN":"30鄰","STREET":"亞航街","SECT":" ","MAREA":" ","LANE":"１９８巷","ALLEY":" ","HOUSE_NO":"１９２號","E_COORD97":170066.93599999999,"N_COORD97":2539121.8339999998,"ADDRESS":"亞航街１９８巷１９２號","OBJECTID":214000},"geometry":{"x":170066.93600000162,"y":2539121.8340000007}}]}