{"displayFieldName":"TOWNNAME","fieldAliases":{"ID":"ID","DIS_CODE":"DIS_CODE","TOWNNAME":"TOWNNAME","LI":"LI","LIN":"LIN","STREET":"STREET","SECT":"SECT","MAREA":"MAREA","LANE":"LANE","ALLEY":"ALLEY","HOUSE_NO":"HOUSE_NO","E_COORD97":"E_COORD97","N_COORD97":"N_COORD97","ADDRESS":"ADDRESS","OBJECTID":"OBJECTID"},"geometryType":"esriGeometryPoint","spatialReference":{"wkid":102443,"latestWkid":3826},"fields":[{"name":"ID","type":"esriFieldTypeDouble","alias":"ID"},{"name":"DIS_CODE","type":"esriFieldTypeInteger","alias":"DIS_CODE"},{"name":"TOWNNAME","type":"esriFieldTypeString","alias":"TOWNNAME","length":8},{"name":"LI","type":"esriFieldTypeString","alias":"LI","length":8},{"name":"LIN","type":"esriFieldTypeString","alias":"LIN","length":12},{"name":"STREET","type":"esriFieldTypeString","alias":"STREET","length":20},{"name":"SECT","type":"esriFieldTypeString","alias":"SECT","length":8},{"name":"MAREA","type":"esriFieldTypeString","alias":"MAREA","length":12},{"name":"LANE","type":"esriFieldTypeString","alias":"LANE","length":10},{"name":"ALLEY","type":"esriFieldTypeString","alias":"ALLEY","length":10},{"name":"HOUSE_NO","type":"esriFieldTypeString","alias":"HOUSE_NO","length":20},{"name":"E_COORD97","type":"esriFieldTypeDouble","alias":"E_COORD97"},{"name":"N_COORD97","type":"esriFieldTypeDouble","alias":"N_COORD97"},{"name":"ADDRESS","type":"esriFieldTypeString","alias":"ADDRESS","length":50},{"name":"OBJECTID","type":"esriFieldTypeOID","alias":"OBJECTID"}],"features":[{"attributes":{"ID":130001,"DIS_CODE":0,"TOWNNAME":"柳營區","LI":"神農里","LIN":"4鄰","STREET":" ","SECT":" ","MAREA":"果毅後","LANE":" ","ALLEY":" ","HOUSE_NO":"２６５號之７","E_COORD97":184752.04000000001,"N_COORD97":2572349.96,"ADDRESS":"果毅後２６５號之７","OBJECTID":130001},"geometry":{"x":184752.04000000097,"y":2572349.9600000028}},{"attributes":{"ID":130002,"DIS_CODE":0,"TOWNNAME":"柳營區","LI":"神農里","LIN":"7鄰","STREET":" ","SECT":" ","MAREA":"果毅後","LANE":" ","ALLEY":" ","HOUSE_NO":"２７９號之１","E_COORD97":185289.59,"N_COORD97":2572908.54,"ADDRESS":"果毅後２７９號之１","OBJECTID":130002},"geometry":{"x":185289.58999999985,"y":2572908.5399999991}},{"attributes":{"ID":130003,"DIS_CODE":0,"TOWNNAME":"柳營區","LI":"神農里","LIN":"7鄰","STREET":" ","SECT":" ","MAREA":"果毅後","LANE":" ","ALLEY":" ","HOUSE_NO":"２７９號","E_COORD97":185296.59,"N_COORD97":2572905.25,"ADDRESS":"果毅後２７９號","OBJECTID":130003},"geometry":{"x":185296.59000000171,"y":2572905.2500000037}},{"attributes":{"ID":130004,"DIS_CODE":0,"TOWNNAME":"柳營區","LI":"神農里","LIN":"7鄰","STREET":" ","SECT":" ","MAREA":"果毅後","LANE":" ","ALLEY":" ","HOUSE_NO":"２８０號之１０","E_COORD97":185312.89000000001,"N_COORD97":2572901.9900000002,"ADDRESS":"果毅後２８０號之１０","OBJECTID":130004},"geometry":{"x":185312.88999999966,"y":2572901.9900000021}},{"attributes":{"ID":130005,"DIS_CODE":0,"TOWNNAME":"柳營區","LI":"神農里","LIN":"7鄰","STREET":" ","SECT":" ","MAREA":"果毅後","LANE":" ","ALLEY":" ","HOUSE_NO":"２８０號之１","E_COORD97":185319.89999999999,"N_COORD97":2572900.5299999998,"ADDRESS":"果毅後２８０號之１","OBJECTID":130005},"geometry":{"x":185319.90000000037,"y":2572900.5300000012}},{"attributes":{"ID":130006,"DIS_CODE":0,"TOWNNAME":"柳營區","LI":"神農里","LIN":"7鄰","STREET":" ","SECT":" ","MAREA":"果毅後","LANE":" ","ALLEY":" ","HOUSE_NO":"２８０號","E_COORD97":185304.37,"N_COORD97":2572903.6800000002,"ADDRESS":"果毅後２８０號","OBJECTID":130006},"geometry":{"x":185304.37000000011,"y":2572903.6799999997}},{"attributes":{"ID":130007,"DIS_CODE":0,"TOWNNAME":"柳營區","LI":"神農里","LIN":"7鄰","STREET":" ","SECT":" ","MAREA":"果毅後","LANE":" ","ALLEY":" ","HOUSE_NO":"２８１號","E_COORD97":185289.94,"N_COORD97":2572942.5600000001,"ADDRESS":"果毅後２８１號","OBJECTID":130007},"geometry":{"x":185289.94000000134,"y":2572942.5600000024}},{"attributes":{"ID":130008,"DIS_CODE":0,"TOWNNAME":"玉井區","LI":"三埔里","LIN":"13鄰","STREET":" ","SECT":" ","MAREA":"三埔","LANE":" ","ALLEY":" ","HOUSE_NO":"１之８號","E_COORD97":196838.69,"N_COORD97":2555767.2999999998,"ADDRESS":"三埔１之８號","OBJECTID":130008},"geometry":{"x":196838.69000000041,"y":2555767.3000000045}},{"attributes":{"ID":130009,"DIS_CODE":0,"TOWNNAME":"玉井區","LI":"三埔里","LIN":"13鄰","STREET":" ","SECT":" ","MAREA":"三埔","LANE":" ","ALLEY":" ","HOUSE_NO":"１之６號","E_COORD97":196771.67999999999,"N_COORD97":2556046.2999999998,"ADDRESS":"三埔１之６號","OBJECTID":130009},"geometry":{"x":196771.6799999997,"y":2556046.3000000026}},{"attributes":{"ID":130010,"DIS_CODE":0,"TOWNNAME":"玉井區","LI":"竹圍里","LIN":"4鄰","STREET":" ","SECT":" ","MAREA":"竹圍","LANE":" ","ALLEY":" ","HOUSE_NO":"３０之４６號","E_COORD97":196503.70999999999,"N_COORD97":2558584.5600000001,"ADDRESS":"竹圍３０之４６號","OBJECTID":130010},"geometry":{"x":196503.70999999996,"y":2558584.5600000005}},{"attributes":{"ID":130011,"DIS_CODE":0,"TOWNNAME":"玉井區","LI":"竹圍里","LIN":"4鄰","STREET":" ","SECT":" ","MAREA":"竹圍","LANE":" ","ALLEY":" ","HOUSE_NO":"３０之５６號","E_COORD97":196462.64000000001,"N_COORD97":2558616.2999999998,"ADDRESS":"竹圍３０之５６號","OBJECTID":130011},"geometry":{"x":196462.6400000006,"y":2558616.3000000026}},{"attributes":{"ID":130012,"DIS_CODE":0,"TOWNNAME":"玉井區","LI":"豐里里","LIN":"4鄰","STREET":" ","SECT":" ","MAREA":"豐里","LANE":" ","ALLEY":" ","HOUSE_NO":"４２之１號","E_COORD97":193251.14000000001,"N_COORD97":2558153.5099999998,"ADDRESS":"豐里４２之１號","OBJECTID":130012},"geometry":{"x":193251.13999999966,"y":2558153.5099999998}},{"attributes":{"ID":130013,"DIS_CODE":0,"TOWNNAME":"麻豆區","LI":"總榮里","LIN":" ","STREET":" ","SECT":" ","MAREA":"寮子\u25A0","LANE":" ","ALLEY":" ","HOUSE_NO":"１９０號","E_COORD97":175617.54000000001,"N_COORD97":2565216.8100000001,"ADDRESS":"寮子\u25A0１９０號","OBJECTID":130013},"geometry":{"x":175617.53999999911,"y":2565216.8100000024}},{"attributes":{"ID":130014,"DIS_CODE":0,"TOWNNAME":"麻豆區","LI":"寮部里","LIN":" ","STREET":" ","SECT":" ","MAREA":"寮子\u25A0","LANE":" ","ALLEY":" ","HOUSE_NO":"１號","E_COORD97":176407.03,"N_COORD97":2565470.2799999998,"ADDRESS":"寮子\u25A0１號","OBJECTID":130014},"geometry":{"x":176407.03000000119,"y":2565470.2800000012}},{"attributes":{"ID":130015,"DIS_CODE":0,"TOWNNAME":"麻豆區","LI":"寮部里","LIN":" ","STREET":" ","SECT":" ","MAREA":"寮子\u25A0","LANE":" ","ALLEY":" ","HOUSE_NO":"２２號","E_COORD97":176534.20000000001,"N_COORD97":2565484.7599999998,"ADDRESS":"寮子\u25A0２２號","OBJECTID":130015},"geometry":{"x":176534.20000000112,"y":2565484.7600000016}},{"attributes":{"ID":130016,"DIS_CODE":0,"TOWNNAME":"麻豆區","LI":"寮部里","LIN":" ","STREET":" ","SECT":" ","MAREA":"寮子\u25A0","LANE":" ","ALLEY":" ","HOUSE_NO":"３號","E_COORD97":176499.81,"N_COORD97":2565455.1699999999,"ADDRESS":"寮子\u25A0３號","OBJECTID":130016},"geometry":{"x":176499.80999999959,"y":2565455.1700000018}},{"attributes":{"ID":130017,"DIS_CODE":0,"TOWNNAME":"麻豆區","LI":"寮部里","LIN":" ","STREET":" ","SECT":" ","MAREA":"寮子\u25A0","LANE":" ","ALLEY":" ","HOUSE_NO":"５４之１號","E_COORD97":176942.94,"N_COORD97":2565276.3500000001,"ADDRESS":"寮子\u25A0５４之１號","OBJECTID":130017},"geometry":{"x":176942.94000000134,"y":2565276.3500000015}},{"attributes":{"ID":130018,"DIS_CODE":0,"TOWNNAME":"麻豆區","LI":"寮部里","LIN":" ","STREET":" ","SECT":" ","MAREA":"寮子\u25A0","LANE":" ","ALLEY":" ","HOUSE_NO":"５９之５號","E_COORD97":176860.35999999999,"N_COORD97":2565204.29,"ADDRESS":"寮子\u25A0５９之５號","OBJECTID":130018},"geometry":{"x":176860.36000000127,"y":2565204.2900000028}},{"attributes":{"ID":130019,"DIS_CODE":0,"TOWNNAME":"麻豆區","LI":"寮部里","LIN":" ","STREET":" ","SECT":" ","MAREA":"寮子\u25A0","LANE":" ","ALLEY":" ","HOUSE_NO":"６６之６號","E_COORD97":176919.89999999999,"N_COORD97":2565131.29,"ADDRESS":"寮子\u25A0６６之６號","OBJECTID":130019},"geometry":{"x":176919.9000000013,"y":2565131.290000001}},{"attributes":{"ID":130020,"DIS_CODE":0,"TOWNNAME":"麻豆區","LI":"寮部里","LIN":" ","STREET":" ","SECT":" ","MAREA":"寮子\u25A0","LANE":" ","ALLEY":" ","HOUSE_NO":"７６之２號","E_COORD97":176709.35999999999,"N_COORD97":2565127.5099999998,"ADDRESS":"寮子\u25A0７６之２號","OBJECTID":130020},"geometry":{"x":176709.36000000127,"y":2565127.5099999998}},{"attributes":{"ID":130021,"DIS_CODE":0,"TOWNNAME":"麻豆區","LI":"寮部里","LIN":" ","STREET":" ","SECT":" ","MAREA":"寮子\u25A0","LANE":" ","ALLEY":" ","HOUSE_NO":"９６之１號","E_COORD97":176665.25,"N_COORD97":2565232.1400000001,"ADDRESS":"寮子\u25A0９６之１號","OBJECTID":130021},"geometry":{"x":176665.25,"y":2565232.1400000025}},{"attributes":{"ID":130022,"DIS_CODE":0,"TOWNNAME":"麻豆區","LI":"寮部里","LIN":" ","STREET":" ","SECT":" ","MAREA":"寮子\u25A0","LANE":" ","ALLEY":" ","HOUSE_NO":"９９號","E_COORD97":176702.03,"N_COORD97":2565247.54,"ADDRESS":"寮子\u25A0９９號","OBJECTID":130022},"geometry":{"x":176702.03000000119,"y":2565247.540000001}},{"attributes":{"ID":130023,"DIS_CODE":0,"TOWNNAME":"麻豆區","LI":"寮部里","LIN":" ","STREET":" ","SECT":" ","MAREA":"寮子\u25A0","LANE":" ","ALLEY":" ","HOUSE_NO":"９之２５號","E_COORD97":176893.70000000001,"N_COORD97":2566245.2000000002,"ADDRESS":"寮子\u25A0９之２５號","OBJECTID":130023},"geometry":{"x":176893.70000000112,"y":2566245.1999999993}},{"attributes":{"ID":130024,"DIS_CODE":0,"TOWNNAME":"麻豆區","LI":"磚井里","LIN":" ","STREET":" ","SECT":" ","MAREA":"磚子井","LANE":" ","ALLEY":" ","HOUSE_NO":"１０４之１號","E_COORD97":173348.60999999999,"N_COORD97":2563114.71,"ADDRESS":"磚子井１０４之１號","OBJECTID":130024},"geometry":{"x":173348.61000000034,"y":2563114.7100000009}},{"attributes":{"ID":130025,"DIS_CODE":0,"TOWNNAME":"麻豆區","LI":"磚井里","LIN":" ","STREET":" ","SECT":" ","MAREA":"磚子井","LANE":" ","ALLEY":" ","HOUSE_NO":"１１９號","E_COORD97":172938.92999999999,"N_COORD97":2563271.98,"ADDRESS":"磚子井１１９號","OBJECTID":130025},"geometry":{"x":172938.9299999997,"y":2563271.9800000042}},{"attributes":{"ID":130026,"DIS_CODE":0,"TOWNNAME":"麻豆區","LI":"磚井里","LIN":" ","STREET":" ","SECT":" ","MAREA":"磚子井","LANE":" ","ALLEY":" ","HOUSE_NO":"１３０號","E_COORD97":172816.48000000001,"N_COORD97":2563189.0099999998,"ADDRESS":"磚子井１３０號","OBJECTID":130026},"geometry":{"x":172816.48000000231,"y":2563189.0099999998}},{"attributes":{"ID":130027,"DIS_CODE":0,"TOWNNAME":"麻豆區","LI":"磚井里","LIN":" ","STREET":" ","SECT":" ","MAREA":"磚子井","LANE":" ","ALLEY":" ","HOUSE_NO":"１４０之３８號","E_COORD97":173011.09,"N_COORD97":2563857.9900000002,"ADDRESS":"磚子井１４０之３８號","OBJECTID":130027},"geometry":{"x":173011.08999999985,"y":2563857.9900000002}},{"attributes":{"ID":130028,"DIS_CODE":0,"TOWNNAME":"麻豆區","LI":"磚井里","LIN":" ","STREET":" ","SECT":" ","MAREA":"磚子井","LANE":" ","ALLEY":" ","HOUSE_NO":"２１之１號","E_COORD97":173317.53,"N_COORD97":2563420.6800000002,"ADDRESS":"磚子井２１之１號","OBJECTID":130028},"geometry":{"x":173317.53000000212,"y":2563420.6800000016}},{"attributes":{"ID":130029,"DIS_CODE":0,"TOWNNAME":"麻豆區","LI":"磚井里","LIN":" ","STREET":" ","SECT":" ","MAREA":"磚子井","LANE":" ","ALLEY":" ","HOUSE_NO":"２９之２號","E_COORD97":173424.81,"N_COORD97":2563507.2999999998,"ADDRESS":"磚子井２９之２號","OBJECTID":130029},"geometry":{"x":173424.80999999959,"y":2563507.2999999989}},{"attributes":{"ID":130030,"DIS_CODE":0,"TOWNNAME":"麻豆區","LI":"磚井里","LIN":" ","STREET":" ","SECT":" ","MAREA":"磚子井","LANE":" ","ALLEY":" ","HOUSE_NO":"３０之２號","E_COORD97":173422.73000000001,"N_COORD97":2563455.0899999999,"ADDRESS":"磚子井３０之２號","OBJECTID":130030},"geometry":{"x":173422.73000000045,"y":2563455.0900000017}},{"attributes":{"ID":130031,"DIS_CODE":0,"TOWNNAME":"麻豆區","LI":"磚井里","LIN":" ","STREET":" ","SECT":" ","MAREA":"磚子井","LANE":" ","ALLEY":" ","HOUSE_NO":"３１之１號","E_COORD97":173452.98000000001,"N_COORD97":2563458.5,"ADDRESS":"磚子井３１之１號","OBJECTID":130031},"geometry":{"x":173452.98000000045,"y":2563458.5000000019}},{"attributes":{"ID":130032,"DIS_CODE":0,"TOWNNAME":"學甲區","LI":"慈福里","LIN":"6鄰","STREET":"濟生路","SECT":" ","MAREA":" ","LANE":" ","ALLEY":" ","HOUSE_NO":"５７號","E_COORD97":166497.57999999999,"N_COORD97":2570214.0099999998,"ADDRESS":"濟生路５７號","OBJECTID":130032},"geometry":{"x":166497.58000000101,"y":2570214.0099999998}},{"attributes":{"ID":130033,"DIS_CODE":0,"TOWNNAME":"學甲區","LI":"慈福里","LIN":"6鄰","STREET":"濟生路","SECT":" ","MAREA":" ","LANE":" ","ALLEY":" ","HOUSE_NO":"５９號","E_COORD97":166489.5,"N_COORD97":2570215.7999999998,"ADDRESS":"濟生路５９號","OBJECTID":130033},"geometry":{"x":166489.50000000093,"y":2570215.8000000007}},{"attributes":{"ID":130034,"DIS_CODE":0,"TOWNNAME":"學甲區","LI":"慈福里","LIN":"6鄰","STREET":"濟生路","SECT":" ","MAREA":" ","LANE":" ","ALLEY":" ","HOUSE_NO":"６７號","E_COORD97":166441.44,"N_COORD97":2570212.5899999999,"ADDRESS":"濟生路６７號","OBJECTID":130034},"geometry":{"x":166441.44000000134,"y":2570212.5899999999}},{"attributes":{"ID":130035,"DIS_CODE":0,"TOWNNAME":"中西區","LI":"中正里","LIN":"4鄰","STREET":"正興街","SECT":" ","MAREA":" ","LANE":" ","ALLEY":" ","HOUSE_NO":"１０號","E_COORD97":167851.95999999999,"N_COORD97":2543862.8399999999,"ADDRESS":"正興街１０號","OBJECTID":130035},"geometry":{"x":167851.95999999996,"y":2543862.8400000017}},{"attributes":{"ID":130036,"DIS_CODE":0,"TOWNNAME":"中西區","LI":"中正里","LIN":"5鄰","STREET":"西門路","SECT":"二段","MAREA":" ","LANE":" ","ALLEY":" ","HOUSE_NO":"１８７號","E_COORD97":167879.01999999999,"N_COORD97":2543869.77,"ADDRESS":"西門路二段１８７號","OBJECTID":130036},"geometry":{"x":167879.02000000048,"y":2543869.7700000014}},{"attributes":{"ID":130037,"DIS_CODE":0,"TOWNNAME":"中西區","LI":"中正里","LIN":"5鄰","STREET":"西門路","SECT":"二段","MAREA":" ","LANE":" ","ALLEY":" ","HOUSE_NO":"１８９號","E_COORD97":167879.91,"N_COORD97":2543872.8199999998,"ADDRESS":"西門路二段１８９號","OBJECTID":130037},"geometry":{"x":167879.91000000015,"y":2543872.8200000003}},{"attributes":{"ID":130038,"DIS_CODE":0,"TOWNNAME":"新營區","LI":"嘉芳里","LIN":"11鄰","STREET":"復興路","SECT":" ","MAREA":" ","LANE":"８０３巷","ALLEY":"４弄","HOUSE_NO":"１之１３號","E_COORD97":177092.95000000001,"N_COORD97":2578495.9900000002,"ADDRESS":"復興路８０３巷４弄１之１３號","OBJECTID":130038},"geometry":{"x":177092.95000000019,"y":2578495.9900000021}},{"attributes":{"ID":130039,"DIS_CODE":0,"TOWNNAME":"歸仁區","LI":"武東里","LIN":"11鄰","STREET":"中正南路","SECT":"二段","MAREA":" ","LANE":"２１４巷","ALLEY":"６弄","HOUSE_NO":"３０號","E_COORD97":175473.76000000001,"N_COORD97":2535599.2799999998,"ADDRESS":"中正南路二段２１４巷６弄３０號","OBJECTID":130039},"geometry":{"x":175473.76000000071,"y":2535599.2799999993}},{"attributes":{"ID":130040,"DIS_CODE":0,"TOWNNAME":"北區","LI":"興南里","LIN":"11鄰","STREET":"西門路","SECT":"四段","MAREA":" ","LANE":"１６巷","ALLEY":"３１弄","HOUSE_NO":"４０號","E_COORD97":168858.31,"N_COORD97":2545179.6899999999,"ADDRESS":"西門路四段１６巷３１弄４０號","OBJECTID":130040},"geometry":{"x":168858.31000000145,"y":2545179.6900000013}},{"attributes":{"ID":130041,"DIS_CODE":0,"TOWNNAME":"歸仁區","LI":"大廟里","LIN":"11鄰","STREET":"大廟五街","SECT":" ","MAREA":" ","LANE":"２６巷","ALLEY":"１８弄","HOUSE_NO":"１０號","E_COORD97":176011.07999999999,"N_COORD97":2544159.0899999999,"ADDRESS":"大廟五街２６巷１８弄１０號","OBJECTID":130041},"geometry":{"x":176011.08000000101,"y":2544159.0900000036}},{"attributes":{"ID":130042,"DIS_CODE":0,"TOWNNAME":"北區","LI":"國興里","LIN":"11鄰","STREET":"開元路","SECT":" ","MAREA":" ","LANE":"４４２巷","ALLEY":"２６弄","HOUSE_NO":"１２號","E_COORD97":170712.17000000001,"N_COORD97":2545590.1800000002,"ADDRESS":"開元路４４２巷２６弄１２號","OBJECTID":130042},"geometry":{"x":170712.16999999993,"y":2545590.1800000016}},{"attributes":{"ID":130043,"DIS_CODE":0,"TOWNNAME":"北區","LI":"國興里","LIN":"11鄰","STREET":"開元路","SECT":" ","MAREA":" ","LANE":"４４２巷","ALLEY":"２６弄","HOUSE_NO":"１４號","E_COORD97":170709.29000000001,"N_COORD97":2545593.25,"ADDRESS":"開元路４４２巷２６弄１４號","OBJECTID":130043},"geometry":{"x":170709.29000000004,"y":2545593.2500000019}},{"attributes":{"ID":130044,"DIS_CODE":0,"TOWNNAME":"北區","LI":"國興里","LIN":"11鄰","STREET":"開元路","SECT":" ","MAREA":" ","LANE":"４４２巷","ALLEY":"２６弄","HOUSE_NO":"１６號","E_COORD97":170704.29999999999,"N_COORD97":2545596.71,"ADDRESS":"開元路４４２巷２６弄１６號","OBJECTID":130044},"geometry":{"x":170704.29999999981,"y":2545596.709999999}},{"attributes":{"ID":130045,"DIS_CODE":0,"TOWNNAME":"北區","LI":"國興里","LIN":"11鄰","STREET":"開元路","SECT":" ","MAREA":" ","LANE":"４４２巷","ALLEY":"２６弄","HOUSE_NO":"３６號","E_COORD97":170690.48000000001,"N_COORD97":2545564.23,"ADDRESS":"開元路４４２巷２６弄３６號","OBJECTID":130045},"geometry":{"x":170690.47999999952,"y":2545564.2300000004}},{"attributes":{"ID":130046,"DIS_CODE":0,"TOWNNAME":"北區","LI":"國興里","LIN":"11鄰","STREET":"開元路","SECT":" ","MAREA":" ","LANE":"４４２巷","ALLEY":"２６弄","HOUSE_NO":"３８號","E_COORD97":170686.64000000001,"N_COORD97":2545566.9199999999,"ADDRESS":"開元路４４２巷２６弄３８號","OBJECTID":130046},"geometry":{"x":170686.63999999966,"y":2545566.9199999999}},{"attributes":{"ID":130047,"DIS_CODE":0,"TOWNNAME":"北區","LI":"興南里","LIN":"11鄰","STREET":"西門路","SECT":"四段","MAREA":" ","LANE":"１６巷","ALLEY":"３１弄","HOUSE_NO":"２１２號","E_COORD97":169011.59,"N_COORD97":2545180.1499999999,"ADDRESS":"西門路四段１６巷３１弄２１２號","OBJECTID":130047},"geometry":{"x":169011.59000000078,"y":2545180.1500000022}},{"attributes":{"ID":130048,"DIS_CODE":0,"TOWNNAME":"北區","LI":"興南里","LIN":"11鄰","STREET":"西門路","SECT":"四段","MAREA":" ","LANE":"１６巷","ALLEY":"３１弄","HOUSE_NO":"２１０號","E_COORD97":169011.75,"N_COORD97":2545177.1400000001,"ADDRESS":"西門路四段１６巷３１弄２１０號","OBJECTID":130048},"geometry":{"x":169011.75000000186,"y":2545177.1400000025}},{"attributes":{"ID":130049,"DIS_CODE":0,"TOWNNAME":"北區","LI":"興南里","LIN":"11鄰","STREET":"西門路","SECT":"四段","MAREA":" ","LANE":"１６巷","ALLEY":"３１弄","HOUSE_NO":"２０８號","E_COORD97":169012.07000000001,"N_COORD97":2545173.96,"ADDRESS":"西門路四段１６巷３１弄２０８號","OBJECTID":130049},"geometry":{"x":169012.07000000123,"y":2545173.9600000009}},{"attributes":{"ID":130050,"DIS_CODE":0,"TOWNNAME":"北區","LI":"興南里","LIN":"11鄰","STREET":"西門路","SECT":"四段","MAREA":" ","LANE":"１６巷","ALLEY":"３１弄","HOUSE_NO":"２０６號","E_COORD97":169011.75,"N_COORD97":2545170.79,"ADDRESS":"西門路四段１６巷３１弄２０６號","OBJECTID":130050},"geometry":{"x":169011.75000000186,"y":2545170.7900000028}},{"attributes":{"ID":130051,"DIS_CODE":0,"TOWNNAME":"北區","LI":"興南里","LIN":"11鄰","STREET":"西門路","SECT":"四段","MAREA":" ","LANE":"１６巷","ALLEY":"３１弄","HOUSE_NO":"２０２號","E_COORD97":169012.07000000001,"N_COORD97":2545166.5,"ADDRESS":"西門路四段１６巷３１弄２０２號","OBJECTID":130051},"geometry":{"x":169012.07000000123,"y":2545166.5}},{"attributes":{"ID":130052,"DIS_CODE":0,"TOWNNAME":"麻豆區","LI":"磚井里","LIN":" ","STREET":" ","SECT":" ","MAREA":"磚子井","LANE":" ","ALLEY":" ","HOUSE_NO":"３１之６號","E_COORD97":173481.29000000001,"N_COORD97":2563457.79,"ADDRESS":"磚子井３１之６號","OBJECTID":130052},"geometry":{"x":173481.29000000004,"y":2563457.7899999991}},{"attributes":{"ID":130053,"DIS_CODE":0,"TOWNNAME":"麻豆區","LI":"磚井里","LIN":" ","STREET":" ","SECT":" ","MAREA":"磚子井","LANE":" ","ALLEY":" ","HOUSE_NO":"４４之１號","E_COORD97":173588.39000000001,"N_COORD97":2563463.75,"ADDRESS":"磚子井４４之１號","OBJECTID":130053},"geometry":{"x":173588.38999999966,"y":2563463.7500000019}},{"attributes":{"ID":130054,"DIS_CODE":0,"TOWNNAME":"麻豆區","LI":"磚井里","LIN":" ","STREET":" ","SECT":" ","MAREA":"磚子井","LANE":" ","ALLEY":" ","HOUSE_NO":"５６之１號","E_COORD97":173711.26999999999,"N_COORD97":2563526.4100000001,"ADDRESS":"磚子井５６之１號","OBJECTID":130054},"geometry":{"x":173711.26999999955,"y":2563526.4100000039}},{"attributes":{"ID":130055,"DIS_CODE":0,"TOWNNAME":"麻豆區","LI":"磚井里","LIN":" ","STREET":" ","SECT":" ","MAREA":"磚子井","LANE":" ","ALLEY":" ","HOUSE_NO":"９８之１號","E_COORD97":173441.47,"N_COORD97":2563104.6000000001,"ADDRESS":"磚子井９８之１號","OBJECTID":130055},"geometry":{"x":173441.47000000067,"y":2563104.6000000015}},{"attributes":{"ID":130056,"DIS_CODE":0,"TOWNNAME":"麻豆區","LI":"中民里","LIN":" ","STREET":" ","SECT":" ","MAREA":"謝厝寮","LANE":" ","ALLEY":" ","HOUSE_NO":"１３８號","E_COORD97":171750.79999999999,"N_COORD97":2561066.21,"ADDRESS":"謝厝寮１３８號","OBJECTID":130056},"geometry":{"x":171750.80000000075,"y":2561066.2100000009}},{"attributes":{"ID":130057,"DIS_CODE":0,"TOWNNAME":"麻豆區","LI":"中民里","LIN":" ","STREET":" ","SECT":" ","MAREA":"謝厝寮","LANE":" ","ALLEY":" ","HOUSE_NO":"１４５號","E_COORD97":171633.42999999999,"N_COORD97":2560983.1899999999,"ADDRESS":"謝厝寮１４５號","OBJECTID":130057},"geometry":{"x":171633.43000000063,"y":2560983.1899999995}},{"attributes":{"ID":130058,"DIS_CODE":0,"TOWNNAME":"北區","LI":"興南里","LIN":"11鄰","STREET":"西門路","SECT":"四段","MAREA":" ","LANE":"１６巷","ALLEY":"３１弄","HOUSE_NO":"２００號","E_COORD97":169012.54000000001,"N_COORD97":2545162.8500000001,"ADDRESS":"西門路四段１６巷３１弄２００號","OBJECTID":130058},"geometry":{"x":169012.54000000004,"y":2545162.8499999996}},{"attributes":{"ID":130059,"DIS_CODE":0,"TOWNNAME":"麻豆區","LI":"中民里","LIN":" ","STREET":" ","SECT":" ","MAREA":"謝厝寮","LANE":" ","ALLEY":" ","HOUSE_NO":"１６３之６號","E_COORD97":171690.73000000001,"N_COORD97":2561217.1299999999,"ADDRESS":"謝厝寮１６３之６號","OBJECTID":130059},"geometry":{"x":171690.73000000231,"y":2561217.129999999}},{"attributes":{"ID":130060,"DIS_CODE":0,"TOWNNAME":"麻豆區","LI":"中民里","LIN":"8鄰","STREET":" ","SECT":" ","MAREA":"謝厝寮","LANE":" ","ALLEY":" ","HOUSE_NO":"１６７號之２","E_COORD97":171650.845008,"N_COORD97":2561068.25092,"ADDRESS":"謝厝寮１６７之２號","OBJECTID":130060},"geometry":{"x":171650.8450079998,"y":2561068.250922}},{"attributes":{"ID":130061,"DIS_CODE":0,"TOWNNAME":"麻豆區","LI":"中民里","LIN":" ","STREET":" ","SECT":" ","MAREA":"謝厝寮","LANE":" ","ALLEY":" ","HOUSE_NO":"１８６之１號","E_COORD97":171684.72,"N_COORD97":2561399.6699999999,"ADDRESS":"謝厝寮１８６之１號","OBJECTID":130061},"geometry":{"x":171684.71999999974,"y":2561399.6700000018}},{"attributes":{"ID":130062,"DIS_CODE":0,"TOWNNAME":"麻豆區","LI":"謝安里","LIN":" ","STREET":" ","SECT":" ","MAREA":"謝厝寮","LANE":" ","ALLEY":" ","HOUSE_NO":"２２８號","E_COORD97":171942.04999999999,"N_COORD97":2561208.9900000002,"ADDRESS":"謝厝寮２２８號","OBJECTID":130062},"geometry":{"x":171942.04999999888,"y":2561208.9900000002}},{"attributes":{"ID":130063,"DIS_CODE":0,"TOWNNAME":"北區","LI":"興南里","LIN":"11鄰","STREET":"西門路","SECT":"四段","MAREA":" ","LANE":"１６巷","ALLEY":"３１弄","HOUSE_NO":"１９８號","E_COORD97":169012.85999999999,"N_COORD97":2545159.04,"ADDRESS":"西門路四段１６巷３１弄１９８號","OBJECTID":130063},"geometry":{"x":169012.86000000034,"y":2545159.0400000028}},{"attributes":{"ID":130064,"DIS_CODE":0,"TOWNNAME":"北區","LI":"興南里","LIN":"11鄰","STREET":"西門路","SECT":"四段","MAREA":" ","LANE":"１６巷","ALLEY":"３１弄","HOUSE_NO":"１９６號","E_COORD97":169013.01999999999,"N_COORD97":2545155.7000000002,"ADDRESS":"西門路四段１６巷３１弄１９６號","OBJECTID":130064},"geometry":{"x":169013.02000000048,"y":2545155.7000000011}},{"attributes":{"ID":130065,"DIS_CODE":0,"TOWNNAME":"北區","LI":"興南里","LIN":"11鄰","STREET":"西門路","SECT":"四段","MAREA":" ","LANE":"１６巷","ALLEY":"３１弄","HOUSE_NO":"１９２號","E_COORD97":169013.17999999999,"N_COORD97":2545151.5800000001,"ADDRESS":"西門路四段１６巷３１弄１９２號","OBJECTID":130065},"geometry":{"x":169013.1799999997,"y":2545151.5800000001}},{"attributes":{"ID":130066,"DIS_CODE":0,"TOWNNAME":"北區","LI":"興南里","LIN":"11鄰","STREET":"西門路","SECT":"四段","MAREA":" ","LANE":"１６巷","ALLEY":"３１弄","HOUSE_NO":"１９０號","E_COORD97":169013.01999999999,"N_COORD97":2545147.6099999999,"ADDRESS":"西門路四段１６巷３１弄１９０號","OBJECTID":130066},"geometry":{"x":169013.02000000048,"y":2545147.6099999994}},{"attributes":{"ID":130067,"DIS_CODE":0,"TOWNNAME":"北區","LI":"興南里","LIN":"11鄰","STREET":"西門路","SECT":"四段","MAREA":" ","LANE":"１６巷","ALLEY":"３１弄","HOUSE_NO":"１８８號","E_COORD97":169013.34,"N_COORD97":2545143.3199999998,"ADDRESS":"西門路四段１６巷３１弄１８８號","OBJECTID":130067},"geometry":{"x":169013.34000000078,"y":2545143.3200000003}},{"attributes":{"ID":130068,"DIS_CODE":0,"TOWNNAME":"北區","LI":"興南里","LIN":"11鄰","STREET":"西門路","SECT":"四段","MAREA":" ","LANE":"１６巷","ALLEY":"３１弄","HOUSE_NO":"１８６號","E_COORD97":169013.34,"N_COORD97":2545138.8799999999,"ADDRESS":"西門路四段１６巷３１弄１８６號","OBJECTID":130068},"geometry":{"x":169013.34000000078,"y":2545138.879999999}},{"attributes":{"ID":130069,"DIS_CODE":0,"TOWNNAME":"北區","LI":"振興里","LIN":"11鄰","STREET":"開元路","SECT":" ","MAREA":" ","LANE":"１４８巷","ALLEY":"１０１弄","HOUSE_NO":"７５號","E_COORD97":170138.16,"N_COORD97":2545056.3599999999,"ADDRESS":"開元路１４８巷１０１弄７５號","OBJECTID":130069},"geometry":{"x":170138.16000000201,"y":2545056.3600000013}},{"attributes":{"ID":130070,"DIS_CODE":0,"TOWNNAME":"北區","LI":"振興里","LIN":"11鄰","STREET":"開元路","SECT":" ","MAREA":" ","LANE":"１４８巷","ALLEY":"１０１弄","HOUSE_NO":"７７號","E_COORD97":170133.70999999999,"N_COORD97":2545055.4100000001,"ADDRESS":"開元路１４８巷１０１弄７７號","OBJECTID":130070},"geometry":{"x":170133.70999999996,"y":2545055.4100000001}},{"attributes":{"ID":130071,"DIS_CODE":0,"TOWNNAME":"北區","LI":"振興里","LIN":"11鄰","STREET":"開元路","SECT":" ","MAREA":" ","LANE":"１４８巷","ALLEY":"１０１弄","HOUSE_NO":"７９號","E_COORD97":170129.59,"N_COORD97":2545054.2200000002,"ADDRESS":"開元路１４８巷１０１弄７９號","OBJECTID":130071},"geometry":{"x":170129.58999999985,"y":2545054.2200000044}},{"attributes":{"ID":130072,"DIS_CODE":0,"TOWNNAME":"北區","LI":"振興里","LIN":"11鄰","STREET":"開元路","SECT":" ","MAREA":" ","LANE":"１４８巷","ALLEY":"１０１弄","HOUSE_NO":"８３號","E_COORD97":170162.45000000001,"N_COORD97":2545046.2799999998,"ADDRESS":"開元路１４８巷１０１弄８３號","OBJECTID":130072},"geometry":{"x":170162.45000000112,"y":2545046.2800000012}},{"attributes":{"ID":130073,"DIS_CODE":0,"TOWNNAME":"麻豆區","LI":"謝安里","LIN":" ","STREET":" ","SECT":" ","MAREA":"謝厝寮","LANE":" ","ALLEY":" ","HOUSE_NO":"４４之３號","E_COORD97":172063.23000000001,"N_COORD97":2561110.2200000002,"ADDRESS":"謝厝寮４４之３號","OBJECTID":130073},"geometry":{"x":172063.23000000045,"y":2561110.2200000007}},{"attributes":{"ID":130074,"DIS_CODE":0,"TOWNNAME":"麻豆區","LI":"謝安里","LIN":" ","STREET":" ","SECT":" ","MAREA":"謝厝寮","LANE":" ","ALLEY":" ","HOUSE_NO":"６５之１號","E_COORD97":171866.04000000001,"N_COORD97":2561030.3999999999,"ADDRESS":"謝厝寮６５之１號","OBJECTID":130074},"geometry":{"x":171866.04000000004,"y":2561030.4000000004}},{"attributes":{"ID":130075,"DIS_CODE":0,"TOWNNAME":"麻豆區","LI":"中民里","LIN":" ","STREET":" ","SECT":" ","MAREA":"謝厝寮","LANE":" ","ALLEY":" ","HOUSE_NO":"８２之４號","E_COORD97":171795.07000000001,"N_COORD97":2560981.6899999999,"ADDRESS":"謝厝寮８２之４號","OBJECTID":130075},"geometry":{"x":171795.07000000216,"y":2560981.6900000013}},{"attributes":{"ID":130076,"DIS_CODE":0,"TOWNNAME":"北區","LI":"振興里","LIN":"11鄰","STREET":"開元路","SECT":" ","MAREA":" ","LANE":"１４８巷","ALLEY":"１０１弄","HOUSE_NO":"８５號","E_COORD97":170157.37,"N_COORD97":2545045.9700000002,"ADDRESS":"開元路１４８巷１０１弄８５號","OBJECTID":130076},"geometry":{"x":170157.37000000104,"y":2545045.9700000025}},{"attributes":{"ID":130077,"DIS_CODE":0,"TOWNNAME":"北區","LI":"振興里","LIN":"11鄰","STREET":"開元路","SECT":" ","MAREA":" ","LANE":"１４８巷","ALLEY":"１０１弄","HOUSE_NO":"８７號","E_COORD97":170152.92000000001,"N_COORD97":2545045.4900000002,"ADDRESS":"開元路１４８巷１０１弄８７號","OBJECTID":130077},"geometry":{"x":170152.91999999993,"y":2545045.4900000021}},{"attributes":{"ID":130078,"DIS_CODE":0,"TOWNNAME":"北區","LI":"振興里","LIN":"11鄰","STREET":"開元路","SECT":" ","MAREA":" ","LANE":"１４８巷","ALLEY":"１０１弄","HOUSE_NO":"８９號","E_COORD97":170148,"N_COORD97":2545044.54,"ADDRESS":"開元路１４８巷１０１弄８９號","OBJECTID":130078},"geometry":{"x":170148.00000000093,"y":2545044.540000001}},{"attributes":{"ID":130079,"DIS_CODE":0,"TOWNNAME":"北區","LI":"振興里","LIN":"11鄰","STREET":"開元路","SECT":" ","MAREA":" ","LANE":"１４８巷","ALLEY":"１０１弄","HOUSE_NO":"９１號","E_COORD97":170140.85999999999,"N_COORD97":2545042.79,"ADDRESS":"開元路１４８巷１０１弄９１號","OBJECTID":130079},"geometry":{"x":170140.86000000127,"y":2545042.790000001}},{"attributes":{"ID":130080,"DIS_CODE":0,"TOWNNAME":"北區","LI":"振興里","LIN":"11鄰","STREET":"開元路","SECT":" ","MAREA":" ","LANE":"１４８巷","ALLEY":"１０１弄","HOUSE_NO":"９３號","E_COORD97":170136.25,"N_COORD97":2545042.4700000002,"ADDRESS":"開元路１４８巷１０１弄９３號","OBJECTID":130080},"geometry":{"x":170136.25000000093,"y":2545042.4700000044}},{"attributes":{"ID":130081,"DIS_CODE":0,"TOWNNAME":"北區","LI":"振興里","LIN":"11鄰","STREET":"開元路","SECT":" ","MAREA":" ","LANE":"１４８巷","ALLEY":"１０１弄","HOUSE_NO":"９５號","E_COORD97":170131.32999999999,"N_COORD97":2545041.2000000002,"ADDRESS":"開元路１４８巷１０１弄９５號","OBJECTID":130081},"geometry":{"x":170131.33000000007,"y":2545041.1999999993}},{"attributes":{"ID":130082,"DIS_CODE":0,"TOWNNAME":"北區","LI":"振興里","LIN":"11鄰","STREET":"開元路","SECT":" ","MAREA":" ","LANE":"１４８巷","ALLEY":"１０１弄","HOUSE_NO":"９７號","E_COORD97":170126.89000000001,"N_COORD97":2545040.4100000001,"ADDRESS":"開元路１４８巷１０１弄９７號","OBJECTID":130082},"geometry":{"x":170126.88999999966,"y":2545040.410000002}},{"attributes":{"ID":130083,"DIS_CODE":0,"TOWNNAME":"南區","LI":"金華里","LIN":"11鄰","STREET":"金華路","SECT":"二段","MAREA":" ","LANE":"１４７巷","ALLEY":"３７弄","HOUSE_NO":"３８號","E_COORD97":166893.22,"N_COORD97":2542320.4900000002,"ADDRESS":"金華路二段１４７巷３７弄３８號","OBJECTID":130083},"geometry":{"x":166893.22000000067,"y":2542320.4900000021}},{"attributes":{"ID":130084,"DIS_CODE":0,"TOWNNAME":"南區","LI":"金華里","LIN":"11鄰","STREET":"金華路","SECT":"二段","MAREA":" ","LANE":"１４７巷","ALLEY":"３７弄","HOUSE_NO":"４０號","E_COORD97":166888.75,"N_COORD97":2542320.75,"ADDRESS":"金華路二段１４７巷３７弄４０號","OBJECTID":130084},"geometry":{"x":166888.75,"y":2542320.7500000037}},{"attributes":{"ID":130085,"DIS_CODE":0,"TOWNNAME":"南區","LI":"金華里","LIN":"11鄰","STREET":"金華路","SECT":"二段","MAREA":" ","LANE":"１４７巷","ALLEY":"３７弄","HOUSE_NO":"４２號","E_COORD97":166885.85999999999,"N_COORD97":2542320.4900000002,"ADDRESS":"金華路二段１４７巷３７弄４２號","OBJECTID":130085},"geometry":{"x":166885.86000000127,"y":2542320.4900000021}},{"attributes":{"ID":130086,"DIS_CODE":0,"TOWNNAME":"南區","LI":"金華里","LIN":"11鄰","STREET":"金華路","SECT":"二段","MAREA":" ","LANE":"１４７巷","ALLEY":"３７弄","HOUSE_NO":"４６號","E_COORD97":166880.59,"N_COORD97":2542320.4900000002,"ADDRESS":"金華路二段１４７巷３７弄４６號","OBJECTID":130086},"geometry":{"x":166880.59000000078,"y":2542320.4900000021}},{"attributes":{"ID":130087,"DIS_CODE":0,"TOWNNAME":"南區","LI":"金華里","LIN":"11鄰","STREET":"金華路","SECT":"二段","MAREA":" ","LANE":"１４７巷","ALLEY":"３７弄","HOUSE_NO":"４８號","E_COORD97":166875.59,"N_COORD97":2542319.7000000002,"ADDRESS":"金華路二段１４７巷３７弄４８號","OBJECTID":130087},"geometry":{"x":166875.59000000078,"y":2542319.6999999993}},{"attributes":{"ID":130088,"DIS_CODE":0,"TOWNNAME":"南區","LI":"金華里","LIN":"11鄰","STREET":"金華路","SECT":"二段","MAREA":" ","LANE":"１４７巷","ALLEY":"３７弄","HOUSE_NO":"６號","E_COORD97":166901.12,"N_COORD97":2542367.7799999998,"ADDRESS":"金華路二段１４７巷３７弄６號","OBJECTID":130088},"geometry":{"x":166901.12000000104,"y":2542367.7800000012}},{"attributes":{"ID":130089,"DIS_CODE":0,"TOWNNAME":"南區","LI":"南華里","LIN":"11鄰","STREET":"中華南路","SECT":"二段","MAREA":" ","LANE":"４００巷","ALLEY":"４弄","HOUSE_NO":"１７號","E_COORD97":166493.73000000001,"N_COORD97":2540380.1899999999,"ADDRESS":"中華南路二段４００巷４弄１７號","OBJECTID":130089},"geometry":{"x":166493.73000000138,"y":2540380.1899999995}},{"attributes":{"ID":130090,"DIS_CODE":0,"TOWNNAME":"南區","LI":"南華里","LIN":"11鄰","STREET":"中華南路","SECT":"二段","MAREA":" ","LANE":"４００巷","ALLEY":"４弄","HOUSE_NO":"１９號","E_COORD97":166506.85000000001,"N_COORD97":2540380.7799999998,"ADDRESS":"中華南路二段４００巷４弄１９號","OBJECTID":130090},"geometry":{"x":166506.85000000149,"y":2540380.7800000012}},{"attributes":{"ID":130091,"DIS_CODE":0,"TOWNNAME":"南區","LI":"南華里","LIN":"11鄰","STREET":"中華南路","SECT":"二段","MAREA":" ","LANE":"４００巷","ALLEY":"４弄","HOUSE_NO":"２１號","E_COORD97":166494.20000000001,"N_COORD97":2540388.27,"ADDRESS":"中華南路二段４００巷４弄２１號","OBJECTID":130091},"geometry":{"x":166494.20000000019,"y":2540388.2700000014}},{"attributes":{"ID":130092,"DIS_CODE":0,"TOWNNAME":"南區","LI":"南華里","LIN":"11鄰","STREET":"中華南路","SECT":"二段","MAREA":" ","LANE":"４００巷","ALLEY":"４弄","HOUSE_NO":"２３號","E_COORD97":166507.56,"N_COORD97":2540388.0299999998,"ADDRESS":"中華南路二段４００巷４弄２３號","OBJECTID":130092},"geometry":{"x":166507.56000000052,"y":2540388.0299999993}},{"attributes":{"ID":130093,"DIS_CODE":0,"TOWNNAME":"南區","LI":"南華里","LIN":"11鄰","STREET":"中華南路","SECT":"二段","MAREA":" ","LANE":"４００巷","ALLEY":"４弄","HOUSE_NO":"２５號","E_COORD97":166525.82999999999,"N_COORD97":2540380.6600000001,"ADDRESS":"中華南路二段４００巷４弄２５號","OBJECTID":130093},"geometry":{"x":166525.83000000007,"y":2540380.6600000001}},{"attributes":{"ID":130094,"DIS_CODE":0,"TOWNNAME":"南區","LI":"南華里","LIN":"11鄰","STREET":"中華南路","SECT":"二段","MAREA":" ","LANE":"４００巷","ALLEY":"４弄","HOUSE_NO":"２７號","E_COORD97":166539.42000000001,"N_COORD97":2540380.6600000001,"ADDRESS":"中華南路二段４００巷４弄２７號","OBJECTID":130094},"geometry":{"x":166539.42000000086,"y":2540380.6600000001}},{"attributes":{"ID":130095,"DIS_CODE":0,"TOWNNAME":"南區","LI":"南華里","LIN":"11鄰","STREET":"中華南路","SECT":"二段","MAREA":" ","LANE":"４００巷","ALLEY":"４弄","HOUSE_NO":"２９號","E_COORD97":166525.95000000001,"N_COORD97":2540387.6800000002,"ADDRESS":"中華南路二段４００巷４弄２９號","OBJECTID":130095},"geometry":{"x":166525.95000000112,"y":2540387.6799999997}},{"attributes":{"ID":130096,"DIS_CODE":0,"TOWNNAME":"南區","LI":"南華里","LIN":"11鄰","STREET":"中華南路","SECT":"二段","MAREA":" ","LANE":"４００巷","ALLEY":"４弄","HOUSE_NO":"３１號","E_COORD97":166539.42000000001,"N_COORD97":2540387.4500000002,"ADDRESS":"中華南路二段４００巷４弄３１號","OBJECTID":130096},"geometry":{"x":166539.42000000086,"y":2540387.4500000011}},{"attributes":{"ID":130097,"DIS_CODE":0,"TOWNNAME":"新營區","LI":"南紙里","LIN":"11鄰","STREET":"太子路","SECT":" ","MAREA":" ","LANE":"２００巷","ALLEY":"１７弄","HOUSE_NO":"１３號","E_COORD97":177844.45000000001,"N_COORD97":2577896.4399999999,"ADDRESS":"太子路２００巷１７弄１３號","OBJECTID":130097},"geometry":{"x":177844.45000000112,"y":2577896.4399999995}},{"attributes":{"ID":130098,"DIS_CODE":0,"TOWNNAME":"東區","LI":"東聖里","LIN":"10鄰","STREET":"中華東路","SECT":"二段","MAREA":" ","LANE":"１３３巷","ALLEY":"７７弄","HOUSE_NO":"１１號","E_COORD97":171576.48999999999,"N_COORD97":2542864.21,"ADDRESS":"中華東路二段１３３巷７７弄１１號","OBJECTID":130098},"geometry":{"x":171576.49000000022,"y":2542864.2100000046}},{"attributes":{"ID":130099,"DIS_CODE":0,"TOWNNAME":"東區","LI":"東聖里","LIN":"10鄰","STREET":"中華東路","SECT":"二段","MAREA":" ","LANE":"１３３巷","ALLEY":"７７弄","HOUSE_NO":"１５號","E_COORD97":171576.16,"N_COORD97":2542871.9100000001,"ADDRESS":"中華東路二段１３３巷７７弄１５號","OBJECTID":130099},"geometry":{"x":171576.16000000108,"y":2542871.9100000001}},{"attributes":{"ID":130100,"DIS_CODE":0,"TOWNNAME":"東區","LI":"東聖里","LIN":"10鄰","STREET":"中華東路","SECT":"二段","MAREA":" ","LANE":"１３３巷","ALLEY":"７７弄","HOUSE_NO":"１７號","E_COORD97":171575.91,"N_COORD97":2542876.3999999999,"ADDRESS":"中華東路二段１３３巷７７弄１７號","OBJECTID":130100},"geometry":{"x":171575.91000000108,"y":2542876.4000000022}},{"attributes":{"ID":130101,"DIS_CODE":0,"TOWNNAME":"東區","LI":"東聖里","LIN":"10鄰","STREET":"中華東路","SECT":"二段","MAREA":" ","LANE":"１３３巷","ALLEY":"７７弄","HOUSE_NO":"１９號","E_COORD97":171575.39999999999,"N_COORD97":2542880.25,"ADDRESS":"中華東路二段１３３巷７７弄１９號","OBJECTID":130101},"geometry":{"x":171575.40000000037,"y":2542880.2500000037}},{"attributes":{"ID":130102,"DIS_CODE":0,"TOWNNAME":"東區","LI":"東聖里","LIN":"10鄰","STREET":"中華東路","SECT":"二段","MAREA":" ","LANE":"１３３巷","ALLEY":"７７弄","HOUSE_NO":"１號","E_COORD97":171578,"N_COORD97":2542844.3999999999,"ADDRESS":"中華東路二段１３３巷７７弄１號","OBJECTID":130102},"geometry":{"x":171578,"y":2542844.4000000004}},{"attributes":{"ID":130103,"DIS_CODE":0,"TOWNNAME":"東區","LI":"東聖里","LIN":"10鄰","STREET":"中華東路","SECT":"二段","MAREA":" ","LANE":"１３３巷","ALLEY":"７７弄","HOUSE_NO":"２１號","E_COORD97":171575.07000000001,"N_COORD97":2542883.9300000002,"ADDRESS":"中華東路二段１３３巷７７弄２１號","OBJECTID":130103},"geometry":{"x":171575.07000000123,"y":2542883.9299999997}},{"attributes":{"ID":130104,"DIS_CODE":0,"TOWNNAME":"麻豆區","LI":"中民里","LIN":" ","STREET":" ","SECT":" ","MAREA":"謝厝寮","LANE":" ","ALLEY":" ","HOUSE_NO":"８７之１號","E_COORD97":171947.63,"N_COORD97":2560849.7400000002,"ADDRESS":"謝厝寮８７之１號","OBJECTID":130104},"geometry":{"x":171947.63000000082,"y":2560849.7400000021}},{"attributes":{"ID":130105,"DIS_CODE":0,"TOWNNAME":"麻豆區","LI":"港尾里","LIN":" ","STREET":" ","SECT":" ","MAREA":"謝榜寮","LANE":" ","ALLEY":" ","HOUSE_NO":"１９之１號","E_COORD97":168027.98000000001,"N_COORD97":2566179.1299999999,"ADDRESS":"謝榜寮１９之１號","OBJECTID":130105},"geometry":{"x":168027.98000000138,"y":2566179.1300000008}},{"attributes":{"ID":130106,"DIS_CODE":0,"TOWNNAME":"東區","LI":"東聖里","LIN":"10鄰","STREET":"中華東路","SECT":"二段","MAREA":" ","LANE":"１３３巷","ALLEY":"７７弄","HOUSE_NO":"２３號","E_COORD97":171573.81,"N_COORD97":2542887.2799999998,"ADDRESS":"中華東路二段１３３巷７７弄２３號","OBJECTID":130106},"geometry":{"x":171573.80999999959,"y":2542887.2800000012}},{"attributes":{"ID":130107,"DIS_CODE":0,"TOWNNAME":"東區","LI":"東聖里","LIN":"9鄰","STREET":"富農街","SECT":"二段","MAREA":" ","LANE":"６５巷","ALLEY":"１９弄","HOUSE_NO":"１１號","E_COORD97":171567.70000000001,"N_COORD97":2542968.7999999998,"ADDRESS":"富農街二段６５巷１９弄１１號","OBJECTID":130107},"geometry":{"x":171567.70000000112,"y":2542968.8000000045}},{"attributes":{"ID":130108,"DIS_CODE":0,"TOWNNAME":"麻豆區","LI":"港尾里","LIN":"1鄰","STREET":" ","SECT":" ","MAREA":"謝榜寮","LANE":" ","ALLEY":" ","HOUSE_NO":"１號之１","E_COORD97":168021.29999999999,"N_COORD97":2566377.1299999999,"ADDRESS":"謝榜寮１號之１","OBJECTID":130108},"geometry":{"x":168021.30000000168,"y":2566377.129999999}},{"attributes":{"ID":130109,"DIS_CODE":0,"TOWNNAME":"麻豆區","LI":"港尾里","LIN":" ","STREET":" ","SECT":" ","MAREA":"謝榜寮","LANE":" ","ALLEY":" ","HOUSE_NO":"２２號","E_COORD97":168024.20999999999,"N_COORD97":2566166.77,"ADDRESS":"謝榜寮２２號","OBJECTID":130109},"geometry":{"x":168024.21000000089,"y":2566166.7699999996}},{"attributes":{"ID":130110,"DIS_CODE":0,"TOWNNAME":"麻豆區","LI":"大埕里","LIN":" ","STREET":" ","SECT":" ","MAREA":"\u25A0祖\u25A0","LANE":" ","ALLEY":" ","HOUSE_NO":"１之９號","E_COORD97":173012.75,"N_COORD97":2565222.21,"ADDRESS":"\u25A0祖\u25A0１之９號","OBJECTID":130110},"geometry":{"x":173012.75000000093,"y":2565222.2100000009}},{"attributes":{"ID":130111,"DIS_CODE":0,"TOWNNAME":"麻豆區","LI":"大埕里","LIN":" ","STREET":" ","SECT":" ","MAREA":"\u25A0祖\u25A0","LANE":" ","ALLEY":" ","HOUSE_NO":"４１號","E_COORD97":172787.82000000001,"N_COORD97":2565506.3700000001,"ADDRESS":"\u25A0祖\u25A0４１號","OBJECTID":130111},"geometry":{"x":172787.8200000003,"y":2565506.370000001}},{"attributes":{"ID":130112,"DIS_CODE":0,"TOWNNAME":"麻豆區","LI":"大埕里","LIN":"10鄰","STREET":" ","SECT":" ","MAREA":"\u25A0祖\u25A0","LANE":" ","ALLEY":" ","HOUSE_NO":"４號之３","E_COORD97":173057.39999999999,"N_COORD97":2565207.9199999999,"ADDRESS":"\u25A0祖\u25A0４號之３","OBJECTID":130112},"geometry":{"x":173057.39999999944,"y":2565207.9200000037}},{"attributes":{"ID":130113,"DIS_CODE":0,"TOWNNAME":"麻豆區","LI":"北勢里","LIN":" ","STREET":" ","SECT":" ","MAREA":"\u25A0祖\u25A0","LANE":" ","ALLEY":" ","HOUSE_NO":"７６之１號","E_COORD97":172581.94,"N_COORD97":2566097.1400000001,"ADDRESS":"\u25A0祖\u25A0７６之１號","OBJECTID":130113},"geometry":{"x":172581.94000000041,"y":2566097.1400000006}},{"attributes":{"ID":130114,"DIS_CODE":0,"TOWNNAME":"麻豆區","LI":"南勢里","LIN":"2鄰","STREET":" ","SECT":" ","MAREA":"\u25A0帝\u25A0","LANE":" ","ALLEY":" ","HOUSE_NO":"１９號之２１","E_COORD97":174209.79999999999,"N_COORD97":2565965.98,"ADDRESS":"\u25A0帝\u25A0１９號之２１","OBJECTID":130114},"geometry":{"x":174209.79999999981,"y":2565965.9800000004}},{"attributes":{"ID":130115,"DIS_CODE":0,"TOWNNAME":"麻豆區","LI":"南勢里","LIN":"2鄰","STREET":" ","SECT":" ","MAREA":"\u25A0帝\u25A0","LANE":" ","ALLEY":" ","HOUSE_NO":"１９號之２","E_COORD97":174078,"N_COORD97":2565828.3599999999,"ADDRESS":"\u25A0帝\u25A0１９號之２","OBJECTID":130115},"geometry":{"x":174078,"y":2565828.3600000031}},{"attributes":{"ID":130116,"DIS_CODE":0,"TOWNNAME":"麻豆區","LI":"南勢里","LIN":"4鄰","STREET":" ","SECT":" ","MAREA":"\u25A0帝\u25A0","LANE":" ","ALLEY":" ","HOUSE_NO":"２５號之９","E_COORD97":173748.48999999999,"N_COORD97":2565560.7400000002,"ADDRESS":"\u25A0帝\u25A0２５號之９","OBJECTID":130116},"geometry":{"x":173748.49000000209,"y":2565560.7400000002}},{"attributes":{"ID":130117,"DIS_CODE":0,"TOWNNAME":"鹽水區","LI":"大豐里","LIN":"1鄰","STREET":" ","SECT":" ","MAREA":"大豐","LANE":" ","ALLEY":" ","HOUSE_NO":"２２號","E_COORD97":170530,"N_COORD97":2573806.96,"ADDRESS":"大豐２２號","OBJECTID":130117},"geometry":{"x":170530,"y":2573806.9600000028}},{"attributes":{"ID":130118,"DIS_CODE":0,"TOWNNAME":"麻豆區","LI":"南勢里","LIN":"5鄰","STREET":" ","SECT":" ","MAREA":"\u25A0帝\u25A0","LANE":" ","ALLEY":" ","HOUSE_NO":"２８號之１","E_COORD97":173730.59,"N_COORD97":2565336.4300000002,"ADDRESS":"\u25A0帝\u25A0２８號之１","OBJECTID":130118},"geometry":{"x":173730.59000000078,"y":2565336.4300000034}},{"attributes":{"ID":130119,"DIS_CODE":0,"TOWNNAME":"麻豆區","LI":"南勢里","LIN":"6鄰","STREET":" ","SECT":" ","MAREA":"\u25A0帝\u25A0","LANE":" ","ALLEY":" ","HOUSE_NO":"３３號之１","E_COORD97":173852.48000000001,"N_COORD97":2565146.9900000002,"ADDRESS":"\u25A0帝\u25A0３３號之１","OBJECTID":130119},"geometry":{"x":173852.48000000138,"y":2565146.9900000021}},{"attributes":{"ID":130120,"DIS_CODE":0,"TOWNNAME":"麻豆區","LI":"南勢里","LIN":"6鄰","STREET":" ","SECT":" ","MAREA":"\u25A0帝\u25A0","LANE":" ","ALLEY":" ","HOUSE_NO":"３３號之２","E_COORD97":173815.536421,"N_COORD97":2565190.0265600001,"ADDRESS":"\u25A0帝\u25A0３３號之２","OBJECTID":130120},"geometry":{"x":173815.53642100003,"y":2565190.0265629999}},{"attributes":{"ID":130121,"DIS_CODE":0,"TOWNNAME":"東山區","LI":"南溪里","LIN":"4鄰","STREET":" ","SECT":" ","MAREA":"二重溪","LANE":" ","ALLEY":" ","HOUSE_NO":"３５號之１","E_COORD97":188329.95999999999,"N_COORD97":2574689.4900000002,"ADDRESS":"二重溪３５號之１","OBJECTID":130121},"geometry":{"x":188329.95999999996,"y":2574689.4900000002}},{"attributes":{"ID":130122,"DIS_CODE":0,"TOWNNAME":"東山區","LI":"南溪里","LIN":"4鄰","STREET":" ","SECT":" ","MAREA":"二重溪","LANE":" ","ALLEY":" ","HOUSE_NO":"３５號之２","E_COORD97":188348.17999999999,"N_COORD97":2574637.79,"ADDRESS":"二重溪３５號之２","OBJECTID":130122},"geometry":{"x":188348.1799999997,"y":2574637.790000001}},{"attributes":{"ID":130123,"DIS_CODE":0,"TOWNNAME":"東山區","LI":"南溪里","LIN":"4鄰","STREET":" ","SECT":" ","MAREA":"二重溪","LANE":" ","ALLEY":" ","HOUSE_NO":"３５號之３","E_COORD97":188327.04000000001,"N_COORD97":2574669.6400000001,"ADDRESS":"二重溪３５號之３","OBJECTID":130123},"geometry":{"x":188327.04000000097,"y":2574669.6400000043}},{"attributes":{"ID":130124,"DIS_CODE":0,"TOWNNAME":"東山區","LI":"南溪里","LIN":"4鄰","STREET":" ","SECT":" ","MAREA":"二重溪","LANE":" ","ALLEY":" ","HOUSE_NO":"３５號","E_COORD97":188328.59,"N_COORD97":2574676.46,"ADDRESS":"二重溪３５號","OBJECTID":130124},"geometry":{"x":188328.58999999985,"y":2574676.4600000009}},{"attributes":{"ID":130125,"DIS_CODE":0,"TOWNNAME":"東山區","LI":"南溪里","LIN":"4鄰","STREET":" ","SECT":" ","MAREA":"二重溪","LANE":" ","ALLEY":" ","HOUSE_NO":"３６號之２","E_COORD97":188280.29999999999,"N_COORD97":2574610.3199999998,"ADDRESS":"二重溪３６號之２","OBJECTID":130125},"geometry":{"x":188280.29999999888,"y":2574610.320000004}},{"attributes":{"ID":130126,"DIS_CODE":0,"TOWNNAME":"東山區","LI":"南溪里","LIN":"4鄰","STREET":" ","SECT":" ","MAREA":"二重溪","LANE":" ","ALLEY":" ","HOUSE_NO":"３６號之３","E_COORD97":188330.91,"N_COORD97":2574614.7999999998,"ADDRESS":"二重溪３６號之３","OBJECTID":130126},"geometry":{"x":188330.91000000201,"y":2574614.8000000026}},{"attributes":{"ID":130127,"DIS_CODE":0,"TOWNNAME":"東山區","LI":"南溪里","LIN":"4鄰","STREET":" ","SECT":" ","MAREA":"二重溪","LANE":" ","ALLEY":" ","HOUSE_NO":"３６號之４","E_COORD97":188366.10000000001,"N_COORD97":2574526.52,"ADDRESS":"二重溪３６號之４","OBJECTID":130127},"geometry":{"x":188366.09999999963,"y":2574526.5199999996}},{"attributes":{"ID":130128,"DIS_CODE":0,"TOWNNAME":"東山區","LI":"南溪里","LIN":"4鄰","STREET":" ","SECT":" ","MAREA":"二重溪","LANE":" ","ALLEY":" ","HOUSE_NO":"３６號之５","E_COORD97":188307.97,"N_COORD97":2574617.7999999998,"ADDRESS":"二重溪３６號之５","OBJECTID":130128},"geometry":{"x":188307.9700000016,"y":2574617.8000000045}},{"attributes":{"ID":130129,"DIS_CODE":0,"TOWNNAME":"東山區","LI":"南溪里","LIN":"4鄰","STREET":" ","SECT":" ","MAREA":"二重溪","LANE":" ","ALLEY":" ","HOUSE_NO":"３６號之７","E_COORD97":188254.97,"N_COORD97":2574628.8199999998,"ADDRESS":"二重溪３６號之７","OBJECTID":130129},"geometry":{"x":188254.96999999974,"y":2574628.8200000022}},{"attributes":{"ID":130130,"DIS_CODE":0,"TOWNNAME":"東山區","LI":"南溪里","LIN":"4鄰","STREET":" ","SECT":" ","MAREA":"二重溪","LANE":" ","ALLEY":" ","HOUSE_NO":"３６之８號","E_COORD97":188469.73000000001,"N_COORD97":2574501.8399999999,"ADDRESS":"二重溪３６之８號","OBJECTID":130130},"geometry":{"x":188469.73000000231,"y":2574501.8400000017}},{"attributes":{"ID":130131,"DIS_CODE":0,"TOWNNAME":"東山區","LI":"南溪里","LIN":"4鄰","STREET":" ","SECT":" ","MAREA":"二重溪","LANE":" ","ALLEY":" ","HOUSE_NO":"３６號","E_COORD97":188320.73000000001,"N_COORD97":2574639.8300000001,"ADDRESS":"二重溪３６號","OBJECTID":130131},"geometry":{"x":188320.73000000138,"y":2574639.8300000001}},{"attributes":{"ID":130132,"DIS_CODE":0,"TOWNNAME":"東山區","LI":"南溪里","LIN":"4鄰","STREET":" ","SECT":" ","MAREA":"二重溪","LANE":" ","ALLEY":" ","HOUSE_NO":"３７號","E_COORD97":188284.16,"N_COORD97":2574706.1499999999,"ADDRESS":"二重溪３７號","OBJECTID":130132},"geometry":{"x":188284.16000000108,"y":2574706.1500000004}},{"attributes":{"ID":130133,"DIS_CODE":0,"TOWNNAME":"東山區","LI":"南溪里","LIN":"4鄰","STREET":" ","SECT":" ","MAREA":"二重溪","LANE":" ","ALLEY":" ","HOUSE_NO":"３８號","E_COORD97":188280.25,"N_COORD97":2574739.8300000001,"ADDRESS":"二重溪３８號","OBJECTID":130133},"geometry":{"x":188280.25,"y":2574739.8300000019}},{"attributes":{"ID":130134,"DIS_CODE":0,"TOWNNAME":"東山區","LI":"南溪里","LIN":"4鄰","STREET":" ","SECT":" ","MAREA":"二重溪","LANE":" ","ALLEY":" ","HOUSE_NO":"３９號之１","E_COORD97":188259.42000000001,"N_COORD97":2574765.0600000001,"ADDRESS":"二重溪３９號之１","OBJECTID":130134},"geometry":{"x":188259.42000000179,"y":2574765.0600000042}},{"attributes":{"ID":130135,"DIS_CODE":0,"TOWNNAME":"東山區","LI":"南溪里","LIN":"4鄰","STREET":" ","SECT":" ","MAREA":"二重溪","LANE":" ","ALLEY":" ","HOUSE_NO":"３９號","E_COORD97":188287.57000000001,"N_COORD97":2574771.8799999999,"ADDRESS":"二重溪３９號","OBJECTID":130135},"geometry":{"x":188287.57000000216,"y":2574771.8800000008}},{"attributes":{"ID":130136,"DIS_CODE":0,"TOWNNAME":"東山區","LI":"南溪里","LIN":"4鄰","STREET":" ","SECT":" ","MAREA":"二重溪","LANE":" ","ALLEY":" ","HOUSE_NO":"４０號之１","E_COORD97":188251,"N_COORD97":2574628.5699999998,"ADDRESS":"二重溪４０號之１","OBJECTID":130136},"geometry":{"x":188251.00000000093,"y":2574628.5700000003}},{"attributes":{"ID":130137,"DIS_CODE":0,"TOWNNAME":"東山區","LI":"南溪里","LIN":"4鄰","STREET":" ","SECT":" ","MAREA":"二重溪","LANE":" ","ALLEY":" ","HOUSE_NO":"４０號之３","E_COORD97":188284.06,"N_COORD97":2573990.73,"ADDRESS":"二重溪４０號之３","OBJECTID":130137},"geometry":{"x":188284.06000000052,"y":2573990.7300000042}},{"attributes":{"ID":130138,"DIS_CODE":0,"TOWNNAME":"東山區","LI":"南溪里","LIN":"4鄰","STREET":" ","SECT":" ","MAREA":"二重溪","LANE":" ","ALLEY":" ","HOUSE_NO":"４０號","E_COORD97":188269.60999999999,"N_COORD97":2574783.96,"ADDRESS":"二重溪４０號","OBJECTID":130138},"geometry":{"x":188269.61000000034,"y":2574783.9600000028}},{"attributes":{"ID":130139,"DIS_CODE":0,"TOWNNAME":"東山區","LI":"南溪里","LIN":"1鄰","STREET":" ","SECT":" ","MAREA":"二重溪","LANE":" ","ALLEY":" ","HOUSE_NO":"３號","E_COORD97":189245.79999999999,"N_COORD97":2575533.6899999999,"ADDRESS":"二重溪３號","OBJECTID":130139},"geometry":{"x":189245.80000000075,"y":2575533.6900000013}},{"attributes":{"ID":130140,"DIS_CODE":0,"TOWNNAME":"東山區","LI":"南溪里","LIN":"1鄰","STREET":" ","SECT":" ","MAREA":"二重溪","LANE":" ","ALLEY":" ","HOUSE_NO":"４號","E_COORD97":189275.64999999999,"N_COORD97":2575525.1800000002,"ADDRESS":"二重溪４號","OBJECTID":130140},"geometry":{"x":189275.6500000013,"y":2575525.1799999997}},{"attributes":{"ID":130141,"DIS_CODE":0,"TOWNNAME":"東山區","LI":"南溪里","LIN":"6鄰","STREET":" ","SECT":" ","MAREA":"二重溪","LANE":" ","ALLEY":" ","HOUSE_NO":"５７號","E_COORD97":188368.57999999999,"N_COORD97":2574794.6899999999,"ADDRESS":"二重溪５７號","OBJECTID":130141},"geometry":{"x":188368.58000000194,"y":2574794.6900000013}},{"attributes":{"ID":130142,"DIS_CODE":0,"TOWNNAME":"東山區","LI":"南溪里","LIN":"6鄰","STREET":" ","SECT":" ","MAREA":"二重溪","LANE":" ","ALLEY":" ","HOUSE_NO":"５８號之１","E_COORD97":188349.38,"N_COORD97":2574843.2200000002,"ADDRESS":"二重溪５８號之１","OBJECTID":130142},"geometry":{"x":188349.37999999896,"y":2574843.2200000025}},{"attributes":{"ID":130143,"DIS_CODE":0,"TOWNNAME":"東山區","LI":"南溪里","LIN":"6鄰","STREET":" ","SECT":" ","MAREA":"二重溪","LANE":" ","ALLEY":" ","HOUSE_NO":"５８號","E_COORD97":188360.23000000001,"N_COORD97":2574823.7200000002,"ADDRESS":"二重溪５８號","OBJECTID":130143},"geometry":{"x":188360.23000000138,"y":2574823.7200000007}},{"attributes":{"ID":130144,"DIS_CODE":0,"TOWNNAME":"六甲區","LI":"中社里","LIN":"19鄰","STREET":" ","SECT":" ","MAREA":"林鳳營","LANE":" ","ALLEY":" ","HOUSE_NO":"１９２號","E_COORD97":180326.03,"N_COORD97":2571232.52,"ADDRESS":"林鳳營１９２號","OBJECTID":130144},"geometry":{"x":180326.03000000119,"y":2571232.5200000014}},{"attributes":{"ID":130145,"DIS_CODE":0,"TOWNNAME":"六甲區","LI":"中社里","LIN":"19鄰","STREET":" ","SECT":" ","MAREA":"林鳳營","LANE":" ","ALLEY":" ","HOUSE_NO":"１９３號","E_COORD97":180328.42000000001,"N_COORD97":2571238.3799999999,"ADDRESS":"林鳳營１９３號","OBJECTID":130145},"geometry":{"x":180328.42000000086,"y":2571238.3799999971}},{"attributes":{"ID":130146,"DIS_CODE":0,"TOWNNAME":"東區","LI":"東聖里","LIN":"9鄰","STREET":"富農街","SECT":"二段","MAREA":" ","LANE":"６５巷","ALLEY":"１９弄","HOUSE_NO":"３號","E_COORD97":171564.54000000001,"N_COORD97":2542990.1699999999,"ADDRESS":"富農街二段６５巷１９弄３號","OBJECTID":130146},"geometry":{"x":171564.5400000019,"y":2542990.1700000018}},{"attributes":{"ID":130147,"DIS_CODE":0,"TOWNNAME":"東區","LI":"東聖里","LIN":"9鄰","STREET":"富農街","SECT":"二段","MAREA":" ","LANE":"６５巷","ALLEY":"１９弄","HOUSE_NO":"５號","E_COORD97":171565.28,"N_COORD97":2542984.4100000001,"ADDRESS":"富農街二段６５巷１９弄５號","OBJECTID":130147},"geometry":{"x":171565.28000000119,"y":2542984.4100000039}},{"attributes":{"ID":130148,"DIS_CODE":0,"TOWNNAME":"東區","LI":"東聖里","LIN":"9鄰","STREET":"富農街","SECT":"二段","MAREA":" ","LANE":"６５巷","ALLEY":"１９弄","HOUSE_NO":"７號","E_COORD97":171566.39999999999,"N_COORD97":2542980.3199999998,"ADDRESS":"富農街二段６５巷１９弄７號","OBJECTID":130148},"geometry":{"x":171566.4000000013,"y":2542980.3200000003}},{"attributes":{"ID":130149,"DIS_CODE":0,"TOWNNAME":"東區","LI":"東聖里","LIN":"9鄰","STREET":"富農街","SECT":"二段","MAREA":" ","LANE":"６５巷","ALLEY":"１９弄","HOUSE_NO":"９號","E_COORD97":171567.14000000001,"N_COORD97":2542974.9300000002,"ADDRESS":"富農街二段６５巷１９弄９號","OBJECTID":130149},"geometry":{"x":171567.1400000006,"y":2542974.9300000016}},{"attributes":{"ID":130150,"DIS_CODE":0,"TOWNNAME":"東區","LI":"東聖里","LIN":"10鄰","STREET":"中華東路","SECT":"二段","MAREA":" ","LANE":"１３３巷","ALLEY":"７７弄","HOUSE_NO":"２５號","E_COORD97":171573.64000000001,"N_COORD97":2542891.6299999999,"ADDRESS":"中華東路二段１３３巷７７弄２５號","OBJECTID":130150},"geometry":{"x":171573.64000000153,"y":2542891.629999999}},{"attributes":{"ID":130151,"DIS_CODE":0,"TOWNNAME":"永康區","LI":"東灣里","LIN":"26鄰","STREET":"大灣一街","SECT":" ","MAREA":" ","LANE":" ","ALLEY":" ","HOUSE_NO":"２２８號","E_COORD97":174905.26999999999,"N_COORD97":2544602.4199999999,"ADDRESS":"大灣一街２２８號","OBJECTID":130151},"geometry":{"x":174905.27000000142,"y":2544602.4200000018}},{"attributes":{"ID":130152,"DIS_CODE":0,"TOWNNAME":"東區","LI":"東聖里","LIN":"10鄰","STREET":"中華東路","SECT":"二段","MAREA":" ","LANE":"１３３巷","ALLEY":"７７弄","HOUSE_NO":"２７號","E_COORD97":171573.54999999999,"N_COORD97":2542895.8399999999,"ADDRESS":"中華東路二段１３３巷７７弄２７號","OBJECTID":130152},"geometry":{"x":171573.54999999981,"y":2542895.8399999999}},{"attributes":{"ID":130153,"DIS_CODE":0,"TOWNNAME":"東區","LI":"東聖里","LIN":"10鄰","STREET":"中華東路","SECT":"二段","MAREA":" ","LANE":"１３３巷","ALLEY":"７７弄","HOUSE_NO":"３１號","E_COORD97":171572.42999999999,"N_COORD97":2542904.02,"ADDRESS":"中華東路二段１３３巷７７弄３１號","OBJECTID":130153},"geometry":{"x":171572.43000000063,"y":2542904.0199999996}},{"attributes":{"ID":130154,"DIS_CODE":0,"TOWNNAME":"關廟區","LI":"松腳里","LIN":"11鄰","STREET":"和平路","SECT":" ","MAREA":" ","LANE":"１８６巷","ALLEY":"１１弄","HOUSE_NO":"２號","E_COORD97":181773.09,"N_COORD97":2539662.25,"ADDRESS":"和平路１８６巷１１弄２號","OBJECTID":130154},"geometry":{"x":181773.09000000078,"y":2539662.25}},{"attributes":{"ID":130155,"DIS_CODE":0,"TOWNNAME":"關廟區","LI":"關廟里","LIN":"11鄰","STREET":"大富街","SECT":" ","MAREA":" ","LANE":"３０１巷","ALLEY":"７弄","HOUSE_NO":"６０號","E_COORD97":181021.09,"N_COORD97":2539588.1499999999,"ADDRESS":"大富街３０１巷７弄６０號","OBJECTID":130155},"geometry":{"x":181021.08999999985,"y":2539588.1500000004}},{"attributes":{"ID":130156,"DIS_CODE":0,"TOWNNAME":"北區","LI":"力行里","LIN":"11鄰","STREET":"開南街","SECT":" ","MAREA":" ","LANE":"２７５巷","ALLEY":"２４弄","HOUSE_NO":"４號","E_COORD97":171021.85999999999,"N_COORD97":2545280.1299999999,"ADDRESS":"開南街２７５巷２４弄４號","OBJECTID":130156},"geometry":{"x":171021.8600000022,"y":2545280.1300000027}},{"attributes":{"ID":130157,"DIS_CODE":0,"TOWNNAME":"安平區","LI":"平安里","LIN":"11鄰","STREET":"安平路","SECT":" ","MAREA":" ","LANE":"５００巷","ALLEY":"１７弄","HOUSE_NO":"１１號之２","E_COORD97":165099.17999999999,"N_COORD97":2544383.8599999999,"ADDRESS":"安平路５００巷１７弄１１號之２","OBJECTID":130157},"geometry":{"x":165099.1799999997,"y":2544383.8600000031}},{"attributes":{"ID":130158,"DIS_CODE":0,"TOWNNAME":"安平區","LI":"平安里","LIN":"11鄰","STREET":"安平路","SECT":" ","MAREA":" ","LANE":"５００巷","ALLEY":"１７弄","HOUSE_NO":"１１號之３","E_COORD97":165106.88,"N_COORD97":2544376.9300000002,"ADDRESS":"安平路５００巷１７弄１１號之３","OBJECTID":130158},"geometry":{"x":165106.88000000082,"y":2544376.9300000034}},{"attributes":{"ID":130159,"DIS_CODE":0,"TOWNNAME":"安平區","LI":"平安里","LIN":"11鄰","STREET":"安平路","SECT":" ","MAREA":" ","LANE":"５００巷","ALLEY":"１７弄","HOUSE_NO":"１１號之４","E_COORD97":165098.92000000001,"N_COORD97":2544380.0099999998,"ADDRESS":"安平路５００巷１７弄１１號之４","OBJECTID":130159},"geometry":{"x":165098.91999999993,"y":2544380.0100000035}},{"attributes":{"ID":130160,"DIS_CODE":0,"TOWNNAME":"安平區","LI":"平安里","LIN":"11鄰","STREET":"安平路","SECT":" ","MAREA":" ","LANE":"５００巷","ALLEY":"１７弄","HOUSE_NO":"１１號之５","E_COORD97":165106.48999999999,"N_COORD97":2544373.4700000002,"ADDRESS":"安平路５００巷１７弄１１號之５","OBJECTID":130160},"geometry":{"x":165106.49000000115,"y":2544373.4700000007}},{"attributes":{"ID":130161,"DIS_CODE":0,"TOWNNAME":"安平區","LI":"平安里","LIN":"11鄰","STREET":"安平路","SECT":" ","MAREA":" ","LANE":"５００巷","ALLEY":"１７弄","HOUSE_NO":"１１號之６","E_COORD97":165098.66,"N_COORD97":2544376.4199999999,"ADDRESS":"安平路５００巷１７弄１１號之６","OBJECTID":130161},"geometry":{"x":165098.66000000108,"y":2544376.4199999999}},{"attributes":{"ID":130162,"DIS_CODE":0,"TOWNNAME":"安平區","LI":"平安里","LIN":"11鄰","STREET":"安平路","SECT":" ","MAREA":" ","LANE":"５００巷","ALLEY":"１７弄","HOUSE_NO":"４０號","E_COORD97":165032.04999999999,"N_COORD97":2544427.8500000001,"ADDRESS":"安平路５００巷１７弄４０號","OBJECTID":130162},"geometry":{"x":165032.04999999981,"y":2544427.8499999996}},{"attributes":{"ID":130163,"DIS_CODE":0,"TOWNNAME":"安平區","LI":"平安里","LIN":"11鄰","STREET":"安平路","SECT":" ","MAREA":" ","LANE":"５００巷","ALLEY":"１７弄","HOUSE_NO":"４２號","E_COORD97":165027.04999999999,"N_COORD97":2544427.7200000002,"ADDRESS":"安平路５００巷１７弄４２號","OBJECTID":130163},"geometry":{"x":165027.04999999981,"y":2544427.7200000025}},{"attributes":{"ID":130164,"DIS_CODE":0,"TOWNNAME":"安平區","LI":"平安里","LIN":"11鄰","STREET":"安平路","SECT":" ","MAREA":" ","LANE":"５００巷","ALLEY":"１７弄","HOUSE_NO":"４３號","E_COORD97":165036.42999999999,"N_COORD97":2544410.2599999998,"ADDRESS":"安平路５００巷１７弄４３號","OBJECTID":130164},"geometry":{"x":165036.4299999997,"y":2544410.2600000016}},{"attributes":{"ID":130165,"DIS_CODE":0,"TOWNNAME":"安平區","LI":"平安里","LIN":"11鄰","STREET":"安平路","SECT":" ","MAREA":" ","LANE":"５００巷","ALLEY":"１７弄","HOUSE_NO":"４３號之１","E_COORD97":165030.31,"N_COORD97":2544411.9500000002,"ADDRESS":"安平路５００巷１７弄４３號之１","OBJECTID":130165},"geometry":{"x":165030.30999999959,"y":2544411.9500000011}},{"attributes":{"ID":130166,"DIS_CODE":0,"TOWNNAME":"六甲區","LI":"中社里","LIN":"19鄰","STREET":" ","SECT":" ","MAREA":"林鳳營","LANE":" ","ALLEY":" ","HOUSE_NO":"１９４號","E_COORD97":180336.95000000001,"N_COORD97":2571257.25,"ADDRESS":"林鳳營１９４號","OBJECTID":130166},"geometry":{"x":180336.95000000112,"y":2571257.2499999981}},{"attributes":{"ID":130167,"DIS_CODE":0,"TOWNNAME":"六甲區","LI":"中社里","LIN":"19鄰","STREET":" ","SECT":" ","MAREA":"林鳳營","LANE":" ","ALLEY":" ","HOUSE_NO":"１９５號","E_COORD97":180331.17000000001,"N_COORD97":2571244.3999999999,"ADDRESS":"林鳳營１９５號","OBJECTID":130167},"geometry":{"x":180331.17000000086,"y":2571244.4000000022}},{"attributes":{"ID":130168,"DIS_CODE":0,"TOWNNAME":"六甲區","LI":"中社里","LIN":"19鄰","STREET":" ","SECT":" ","MAREA":"林鳳營","LANE":" ","ALLEY":" ","HOUSE_NO":"１９６號","E_COORD97":180333.85000000001,"N_COORD97":2571250.8399999999,"ADDRESS":"林鳳營１９６號","OBJECTID":130168},"geometry":{"x":180333.84999999963,"y":2571250.8400000017}},{"attributes":{"ID":130169,"DIS_CODE":0,"TOWNNAME":"六甲區","LI":"中社里","LIN":"16鄰","STREET":" ","SECT":" ","MAREA":"林鳳營","LANE":" ","ALLEY":" ","HOUSE_NO":"１３號","E_COORD97":180470.47,"N_COORD97":2571302.1800000002,"ADDRESS":"林鳳營１３號","OBJECTID":130169},"geometry":{"x":180470.46999999974,"y":2571302.1800000016}},{"attributes":{"ID":130170,"DIS_CODE":0,"TOWNNAME":"六甲區","LI":"中社里","LIN":"16鄰","STREET":" ","SECT":" ","MAREA":"林鳳營","LANE":" ","ALLEY":" ","HOUSE_NO":"１５號","E_COORD97":180488.07999999999,"N_COORD97":2571294.9399999999,"ADDRESS":"林鳳營１５號","OBJECTID":130170},"geometry":{"x":180488.08000000101,"y":2571294.9399999995}},{"attributes":{"ID":130171,"DIS_CODE":0,"TOWNNAME":"六甲區","LI":"中社里","LIN":"16鄰","STREET":" ","SECT":" ","MAREA":"林鳳營","LANE":" ","ALLEY":" ","HOUSE_NO":"１６號","E_COORD97":180518.20000000001,"N_COORD97":2571309.3300000001,"ADDRESS":"林鳳營１６號","OBJECTID":130171},"geometry":{"x":180518.20000000112,"y":2571309.3300000019}},{"attributes":{"ID":130172,"DIS_CODE":0,"TOWNNAME":"六甲區","LI":"中社里","LIN":"16鄰","STREET":" ","SECT":" ","MAREA":"林鳳營","LANE":" ","ALLEY":" ","HOUSE_NO":"１７號","E_COORD97":180505.48000000001,"N_COORD97":2571321.0699999998,"ADDRESS":"林鳳營１７號","OBJECTID":130172},"geometry":{"x":180505.48000000045,"y":2571321.0700000022}},{"attributes":{"ID":130173,"DIS_CODE":0,"TOWNNAME":"六甲區","LI":"中社里","LIN":"16鄰","STREET":" ","SECT":" ","MAREA":"林鳳營","LANE":" ","ALLEY":" ","HOUSE_NO":"１８號","E_COORD97":180496.92000000001,"N_COORD97":2571321.04,"ADDRESS":"林鳳營１８號","OBJECTID":130173},"geometry":{"x":180496.91999999993,"y":2571321.0399999991}},{"attributes":{"ID":130174,"DIS_CODE":0,"TOWNNAME":"安平區","LI":"平安里","LIN":"11鄰","STREET":"安平路","SECT":" ","MAREA":" ","LANE":"５００巷","ALLEY":"１７弄","HOUSE_NO":"４４號","E_COORD97":165022.94,"N_COORD97":2544430.1600000001,"ADDRESS":"安平路５００巷１７弄４４號","OBJECTID":130174},"geometry":{"x":165022.94000000134,"y":2544430.1600000039}},{"attributes":{"ID":130175,"DIS_CODE":0,"TOWNNAME":"安平區","LI":"平安里","LIN":"11鄰","STREET":"安平路","SECT":" ","MAREA":" ","LANE":"５００巷","ALLEY":"１７弄","HOUSE_NO":"４５號","E_COORD97":165024.48999999999,"N_COORD97":2544413.3199999998,"ADDRESS":"安平路５００巷１７弄４５號","OBJECTID":130175},"geometry":{"x":165024.49000000022,"y":2544413.3200000022}},{"attributes":{"ID":130176,"DIS_CODE":0,"TOWNNAME":"安平區","LI":"平安里","LIN":"11鄰","STREET":"安平路","SECT":" ","MAREA":" ","LANE":"５００巷","ALLEY":"１７弄","HOUSE_NO":"４５號之１","E_COORD97":165018.07000000001,"N_COORD97":2544414.8500000001,"ADDRESS":"安平路５００巷１７弄４５號之１","OBJECTID":130176},"geometry":{"x":165018.07000000123,"y":2544414.8500000034}},{"attributes":{"ID":130177,"DIS_CODE":0,"TOWNNAME":"安平區","LI":"平安里","LIN":"11鄰","STREET":"安平路","SECT":" ","MAREA":" ","LANE":"５００巷","ALLEY":"１７弄","HOUSE_NO":"５號","E_COORD97":165120.35000000001,"N_COORD97":2544390.52,"ADDRESS":"安平路５００巷１７弄５號","OBJECTID":130177},"geometry":{"x":165120.35000000056,"y":2544390.5200000014}},{"attributes":{"ID":130178,"DIS_CODE":0,"TOWNNAME":"安平區","LI":"平安里","LIN":"11鄰","STREET":"安平路","SECT":" ","MAREA":" ","LANE":"５００巷","ALLEY":"１７弄","HOUSE_NO":"６號","E_COORD97":165118.76000000001,"N_COORD97":2544406.8999999999,"ADDRESS":"安平路５００巷１７弄６號","OBJECTID":130178},"geometry":{"x":165118.75999999978,"y":2544406.9000000004}},{"attributes":{"ID":130179,"DIS_CODE":0,"TOWNNAME":"安平區","LI":"平安里","LIN":"11鄰","STREET":"安平路","SECT":" ","MAREA":" ","LANE":"５００巷","ALLEY":"１７弄","HOUSE_NO":"７號","E_COORD97":165116.89000000001,"N_COORD97":2544391.5499999998,"ADDRESS":"安平路５００巷１７弄７號","OBJECTID":130179},"geometry":{"x":165116.8900000006,"y":2544391.5500000026}},{"attributes":{"ID":130180,"DIS_CODE":0,"TOWNNAME":"安平區","LI":"平安里","LIN":"11鄰","STREET":"安平路","SECT":" ","MAREA":" ","LANE":"５００巷","ALLEY":"１７弄","HOUSE_NO":"８號","E_COORD97":165110.23999999999,"N_COORD97":2544410.1200000001,"ADDRESS":"安平路５００巷１７弄８號","OBJECTID":130180},"geometry":{"x":165110.24000000115,"y":2544410.120000001}},{"attributes":{"ID":130181,"DIS_CODE":0,"TOWNNAME":"安平區","LI":"平安里","LIN":"11鄰","STREET":"安平路","SECT":" ","MAREA":" ","LANE":"５００巷","ALLEY":"１７弄","HOUSE_NO":"９號","E_COORD97":165113.67999999999,"N_COORD97":2544392.1899999999,"ADDRESS":"安平路５００巷１７弄９號","OBJECTID":130181},"geometry":{"x":165113.68000000063,"y":2544392.1900000032}},{"attributes":{"ID":130182,"DIS_CODE":0,"TOWNNAME":"東區","LI":"東聖里","LIN":"13鄰","STREET":"中華東路","SECT":"二段","MAREA":" ","LANE":"４１巷","ALLEY":"４７弄","HOUSE_NO":"３號","E_COORD97":171561.45999999999,"N_COORD97":2543127.5099999998,"ADDRESS":"中華東路二段４１巷４７弄３號","OBJECTID":130182},"geometry":{"x":171561.45999999903,"y":2543127.5099999998}},{"attributes":{"ID":130183,"DIS_CODE":0,"TOWNNAME":"東區","LI":"東聖里","LIN":"13鄰","STREET":"中華東路","SECT":"二段","MAREA":" ","LANE":"４１巷","ALLEY":"４７弄","HOUSE_NO":"１１號","E_COORD97":171593.42999999999,"N_COORD97":2543128.8700000001,"ADDRESS":"中華東路二段４１巷４７弄１１號","OBJECTID":130183},"geometry":{"x":171593.4299999997,"y":2543128.8700000029}},{"attributes":{"ID":130184,"DIS_CODE":0,"TOWNNAME":"東區","LI":"東聖里","LIN":"13鄰","STREET":"中華東路","SECT":"二段","MAREA":" ","LANE":"４１巷","ALLEY":"４７弄","HOUSE_NO":"１２號","E_COORD97":171597.12,"N_COORD97":2543130.8100000001,"ADDRESS":"中華東路二段４１巷４７弄１２號","OBJECTID":130184},"geometry":{"x":171597.12000000011,"y":2543130.8099999987}},{"attributes":{"ID":130185,"DIS_CODE":0,"TOWNNAME":"東區","LI":"東聖里","LIN":"13鄰","STREET":"中華東路","SECT":"二段","MAREA":" ","LANE":"４１巷","ALLEY":"４７弄","HOUSE_NO":"１３號","E_COORD97":171601.29999999999,"N_COORD97":2543128.6699999999,"ADDRESS":"中華東路二段４１巷４７弄１３號","OBJECTID":130185},"geometry":{"x":171601.29999999981,"y":2543128.6700000018}},{"attributes":{"ID":130186,"DIS_CODE":0,"TOWNNAME":"東區","LI":"東聖里","LIN":"12鄰","STREET":"中華東路","SECT":"二段","MAREA":" ","LANE":"１３３巷","ALLEY":"３９弄","HOUSE_NO":"２８號","E_COORD97":171510.09,"N_COORD97":2542924.0899999999,"ADDRESS":"中華東路二段１３３巷３９弄２８號","OBJECTID":130186},"geometry":{"x":171510.09000000078,"y":2542924.0899999999}},{"attributes":{"ID":130187,"DIS_CODE":0,"TOWNNAME":"中西區","LI":"元安里","LIN":"5鄰","STREET":"大德街","SECT":" ","MAREA":" ","LANE":" ","ALLEY":" ","HOUSE_NO":"９７號","E_COORD97":167552.03,"N_COORD97":2543161.7400000002,"ADDRESS":"大德街９７號","OBJECTID":130187},"geometry":{"x":167552.03000000026,"y":2543161.7400000039}},{"attributes":{"ID":130188,"DIS_CODE":0,"TOWNNAME":"北區","LI":"文成里","LIN":"6鄰","STREET":"文賢路","SECT":" ","MAREA":" ","LANE":" ","ALLEY":" ","HOUSE_NO":"５７４號","E_COORD97":167369.45000000001,"N_COORD97":2545428.1400000001,"ADDRESS":"文賢路５７４號","OBJECTID":130188},"geometry":{"x":167369.45000000019,"y":2545428.1400000025}},{"attributes":{"ID":130189,"DIS_CODE":0,"TOWNNAME":"中西區","LI":"郡西里","LIN":"11鄰","STREET":"大勇街","SECT":" ","MAREA":" ","LANE":" ","ALLEY":" ","HOUSE_NO":"６６號","E_COORD97":167284.07000000001,"N_COORD97":2543404.0299999998,"ADDRESS":"大勇街６６號","OBJECTID":130189},"geometry":{"x":167284.06999999937,"y":2543404.0300000012}},{"attributes":{"ID":130190,"DIS_CODE":0,"TOWNNAME":"永康區","LI":"東橋里","LIN":"25鄰","STREET":"中正路","SECT":" ","MAREA":" ","LANE":" ","ALLEY":" ","HOUSE_NO":"２２５號","E_COORD97":173014.73999999999,"N_COORD97":2547979.8500000001,"ADDRESS":"中正路２２５號","OBJECTID":130190},"geometry":{"x":173014.74000000115,"y":2547979.8499999996}},{"attributes":{"ID":130191,"DIS_CODE":0,"TOWNNAME":"永康區","LI":"北灣里","LIN":"11鄰","STREET":"大灣七街","SECT":" ","MAREA":" ","LANE":" ","ALLEY":" ","HOUSE_NO":"６９號","E_COORD97":175064.26000000001,"N_COORD97":2545717.6800000002,"ADDRESS":"大灣七街６９號","OBJECTID":130191},"geometry":{"x":175064.25999999978,"y":2545717.6799999978}},{"attributes":{"ID":130192,"DIS_CODE":0,"TOWNNAME":"永康區","LI":"南灣里","LIN":"18鄰","STREET":"立興街","SECT":" ","MAREA":" ","LANE":" ","ALLEY":" ","HOUSE_NO":"１２６號","E_COORD97":174445.76999999999,"N_COORD97":2544700.2000000002,"ADDRESS":"立興街１２６號","OBJECTID":130192},"geometry":{"x":174445.76999999862,"y":2544700.200000003}},{"attributes":{"ID":130193,"DIS_CODE":0,"TOWNNAME":"永康區","LI":"烏竹里","LIN":"5鄰","STREET":"烏竹街","SECT":" ","MAREA":" ","LANE":" ","ALLEY":" ","HOUSE_NO":"５２號","E_COORD97":174533.09,"N_COORD97":2549334.75,"ADDRESS":"烏竹街５２號","OBJECTID":130193},"geometry":{"x":174533.08999999985,"y":2549334.75}},{"attributes":{"ID":130194,"DIS_CODE":0,"TOWNNAME":"永康區","LI":"埔園里","LIN":"39鄰","STREET":"自強路","SECT":" ","MAREA":" ","LANE":" ","ALLEY":" ","HOUSE_NO":"５９２號","E_COORD97":174038.92999999999,"N_COORD97":2548164.0600000001,"ADDRESS":"自強路５９２號","OBJECTID":130194},"geometry":{"x":174038.93000000063,"y":2548164.0600000042}},{"attributes":{"ID":130195,"DIS_CODE":0,"TOWNNAME":"永康區","LI":"埔園里","LIN":"4鄰","STREET":"聖龍街","SECT":" ","MAREA":" ","LANE":" ","ALLEY":" ","HOUSE_NO":"６１號","E_COORD97":173940.22,"N_COORD97":2547820.7400000002,"ADDRESS":"聖龍街６１號","OBJECTID":130195},"geometry":{"x":173940.22000000067,"y":2547820.7400000021}},{"attributes":{"ID":130196,"DIS_CODE":0,"TOWNNAME":"永康區","LI":"南灣里","LIN":"43鄰","STREET":"大灣路","SECT":" ","MAREA":" ","LANE":" ","ALLEY":" ","HOUSE_NO":"５５９號","E_COORD97":174404.29000000001,"N_COORD97":2544556.25,"ADDRESS":"大灣路５５９號","OBJECTID":130196},"geometry":{"x":174404.29000000097,"y":2544556.2500000019}},{"attributes":{"ID":130197,"DIS_CODE":0,"TOWNNAME":"永康區","LI":"埔園里","LIN":"7鄰","STREET":"中正路","SECT":" ","MAREA":" ","LANE":" ","ALLEY":" ","HOUSE_NO":"１８號","E_COORD97":173691.09,"N_COORD97":2547735.3999999999,"ADDRESS":"中正路１８號","OBJECTID":130197},"geometry":{"x":173691.08999999985,"y":2547735.4000000022}},{"attributes":{"ID":130198,"DIS_CODE":0,"TOWNNAME":"東區","LI":"東聖里","LIN":"12鄰","STREET":"中華東路","SECT":"二段","MAREA":" ","LANE":"１３３巷","ALLEY":"３９弄","HOUSE_NO":"３０號","E_COORD97":171509.89999999999,"N_COORD97":2542933.75,"ADDRESS":"中華東路二段１３３巷３９弄３０號","OBJECTID":130198},"geometry":{"x":171509.90000000224,"y":2542933.75}},{"attributes":{"ID":130199,"DIS_CODE":0,"TOWNNAME":"東區","LI":"東聖里","LIN":"12鄰","STREET":"中華東路","SECT":"二段","MAREA":" ","LANE":"１３３巷","ALLEY":"５７弄","HOUSE_NO":"２７號","E_COORD97":171527.39000000001,"N_COORD97":2542924.6400000001,"ADDRESS":"中華東路二段１３３巷５７弄２７號","OBJECTID":130199},"geometry":{"x":171527.38999999966,"y":2542924.6400000006}},{"attributes":{"ID":130200,"DIS_CODE":0,"TOWNNAME":"東區","LI":"東聖里","LIN":"13鄰","STREET":"中華東路","SECT":"二段","MAREA":" ","LANE":"４１巷","ALLEY":"４７弄","HOUSE_NO":"５號","E_COORD97":171569.32999999999,"N_COORD97":2543127.9900000002,"ADDRESS":"中華東路二段４１巷４７弄５號","OBJECTID":130200},"geometry":{"x":171569.33000000194,"y":2543127.9900000002}}]}