{"displayFieldName":"TOWNNAME","fieldAliases":{"ID":"ID","DIS_CODE":"DIS_CODE","TOWNNAME":"TOWNNAME","LI":"LI","LIN":"LIN","STREET":"STREET","SECT":"SECT","MAREA":"MAREA","LANE":"LANE","ALLEY":"ALLEY","HOUSE_NO":"HOUSE_NO","E_COORD97":"E_COORD97","N_COORD97":"N_COORD97","ADDRESS":"ADDRESS","OBJECTID":"OBJECTID"},"geometryType":"esriGeometryPoint","spatialReference":{"wkid":102443,"latestWkid":3826},"fields":[{"name":"ID","type":"esriFieldTypeDouble","alias":"ID"},{"name":"DIS_CODE","type":"esriFieldTypeInteger","alias":"DIS_CODE"},{"name":"TOWNNAME","type":"esriFieldTypeString","alias":"TOWNNAME","length":8},{"name":"LI","type":"esriFieldTypeString","alias":"LI","length":8},{"name":"LIN","type":"esriFieldTypeString","alias":"LIN","length":12},{"name":"STREET","type":"esriFieldTypeString","alias":"STREET","length":20},{"name":"SECT","type":"esriFieldTypeString","alias":"SECT","length":8},{"name":"MAREA","type":"esriFieldTypeString","alias":"MAREA","length":12},{"name":"LANE","type":"esriFieldTypeString","alias":"LANE","length":10},{"name":"ALLEY","type":"esriFieldTypeString","alias":"ALLEY","length":10},{"name":"HOUSE_NO","type":"esriFieldTypeString","alias":"HOUSE_NO","length":20},{"name":"E_COORD97","type":"esriFieldTypeDouble","alias":"E_COORD97"},{"name":"N_COORD97","type":"esriFieldTypeDouble","alias":"N_COORD97"},{"name":"ADDRESS","type":"esriFieldTypeString","alias":"ADDRESS","length":50},{"name":"OBJECTID","type":"esriFieldTypeOID","alias":"OBJECTID"}],"features":[{"attributes":{"ID":500428,"DIS_CODE":0,"TOWNNAME":"下營區","LI":"後街里","LIN":"15鄰","STREET":"中正北路","SECT":" ","MAREA":" ","LANE":" ","ALLEY":" ","HOUSE_NO":"１３２號","E_COORD97":174460.89999999999,"N_COORD97":2570747.5800000001,"ADDRESS":"中正北路１３２號","OBJECTID":500401},"geometry":{"x":174460.90000000037,"y":2570747.5800000019}},{"attributes":{"ID":500429,"DIS_CODE":0,"TOWNNAME":"鹽水區","LI":"橋南里","LIN":"24鄰","STREET":"行昌路","SECT":" ","MAREA":" ","LANE":" ","ALLEY":" ","HOUSE_NO":"２４號","E_COORD97":174997.19,"N_COORD97":2579351.4500000002,"ADDRESS":"行昌路２４號","OBJECTID":500402},"geometry":{"x":174997.19000000134,"y":2579351.450000003}},{"attributes":{"ID":500430,"DIS_CODE":0,"TOWNNAME":"安南區","LI":"新順里","LIN":"15鄰","STREET":"安豐四街","SECT":" ","MAREA":" ","LANE":" ","ALLEY":" ","HOUSE_NO":"２７號","E_COORD97":169459.35999999999,"N_COORD97":2549797.46,"ADDRESS":"安豐四街２７號","OBJECTID":500403},"geometry":{"x":169459.36000000127,"y":2549797.4600000028}},{"attributes":{"ID":500431,"DIS_CODE":0,"TOWNNAME":"安南區","LI":"新順里","LIN":"15鄰","STREET":"安豐四街","SECT":" ","MAREA":" ","LANE":" ","ALLEY":" ","HOUSE_NO":"２５號","E_COORD97":169453.89999999999,"N_COORD97":2549794.9199999999,"ADDRESS":"安豐四街２５號","OBJECTID":500404},"geometry":{"x":169453.9000000013,"y":2549794.9199999981}},{"attributes":{"ID":500432,"DIS_CODE":0,"TOWNNAME":"安南區","LI":"新順里","LIN":"15鄰","STREET":"安豐四街","SECT":" ","MAREA":" ","LANE":" ","ALLEY":" ","HOUSE_NO":"２３號","E_COORD97":169450.34,"N_COORD97":2549792.5,"ADDRESS":"安豐四街２３號","OBJECTID":500405},"geometry":{"x":169450.34000000078,"y":2549792.5000000019}},{"attributes":{"ID":500433,"DIS_CODE":0,"TOWNNAME":"安南區","LI":"新順里","LIN":"15鄰","STREET":"安豐四街","SECT":" ","MAREA":" ","LANE":" ","ALLEY":" ","HOUSE_NO":"２１號","E_COORD97":169446.53,"N_COORD97":2549789.96,"ADDRESS":"安豐四街２１號","OBJECTID":500406},"geometry":{"x":169446.53000000119,"y":2549789.9600000028}},{"attributes":{"ID":500434,"DIS_CODE":0,"TOWNNAME":"安南區","LI":"新順里","LIN":"15鄰","STREET":"安豐四街","SECT":" ","MAREA":" ","LANE":" ","ALLEY":" ","HOUSE_NO":"１９號","E_COORD97":169443.98999999999,"N_COORD97":2549788.1899999999,"ADDRESS":"安豐四街１９號","OBJECTID":500407},"geometry":{"x":169443.99000000022,"y":2549788.1899999995}},{"attributes":{"ID":500435,"DIS_CODE":0,"TOWNNAME":"安南區","LI":"新順里","LIN":"15鄰","STREET":"安豐四街","SECT":" ","MAREA":" ","LANE":" ","ALLEY":" ","HOUSE_NO":"１７號","E_COORD97":169442.20999999999,"N_COORD97":2549786.4100000001,"ADDRESS":"安豐四街１７號","OBJECTID":500408},"geometry":{"x":169442.20999999996,"y":2549786.410000002}},{"attributes":{"ID":500436,"DIS_CODE":0,"TOWNNAME":"安南區","LI":"新順里","LIN":"15鄰","STREET":"安豐四街","SECT":" ","MAREA":" ","LANE":" ","ALLEY":" ","HOUSE_NO":"１５號","E_COORD97":169440.17999999999,"N_COORD97":2549785.0099999998,"ADDRESS":"安豐四街１５號","OBJECTID":500409},"geometry":{"x":169440.1799999997,"y":2549785.0100000016}},{"attributes":{"ID":500437,"DIS_CODE":0,"TOWNNAME":"安南區","LI":"新順里","LIN":"15鄰","STREET":"安豐三街","SECT":" ","MAREA":" ","LANE":" ","ALLEY":" ","HOUSE_NO":"１７號","E_COORD97":169363.03,"N_COORD97":2549797.8599999999,"ADDRESS":"安豐三街１７號","OBJECTID":500410},"geometry":{"x":169363.03000000119,"y":2549797.8599999994}},{"attributes":{"ID":500438,"DIS_CODE":0,"TOWNNAME":"安南區","LI":"新順里","LIN":"15鄰","STREET":"安豐三街","SECT":" ","MAREA":" ","LANE":" ","ALLEY":" ","HOUSE_NO":"１９號","E_COORD97":169365.82000000001,"N_COORD97":2549799.3799999999,"ADDRESS":"安豐三街１９號","OBJECTID":500411},"geometry":{"x":169365.82000000216,"y":2549799.3800000008}},{"attributes":{"ID":500439,"DIS_CODE":0,"TOWNNAME":"安南區","LI":"新順里","LIN":"15鄰","STREET":"安豐三街","SECT":" ","MAREA":" ","LANE":" ","ALLEY":" ","HOUSE_NO":"２１號","E_COORD97":169369.38,"N_COORD97":2549801.79,"ADDRESS":"安豐三街２１號","OBJECTID":500412},"geometry":{"x":169369.37999999989,"y":2549801.7899999972}},{"attributes":{"ID":500440,"DIS_CODE":0,"TOWNNAME":"安南區","LI":"新順里","LIN":"15鄰","STREET":"安豐三街","SECT":" ","MAREA":" ","LANE":" ","ALLEY":" ","HOUSE_NO":"２３號","E_COORD97":169372.79999999999,"N_COORD97":2549803.9500000002,"ADDRESS":"安豐三街２３號","OBJECTID":500413},"geometry":{"x":169372.80000000075,"y":2549803.9499999993}},{"attributes":{"ID":500441,"DIS_CODE":0,"TOWNNAME":"安南區","LI":"新順里","LIN":"15鄰","STREET":"安豐三街","SECT":" ","MAREA":" ","LANE":" ","ALLEY":" ","HOUSE_NO":"２５號","E_COORD97":169376.35999999999,"N_COORD97":2549806.75,"ADDRESS":"安豐三街２５號","OBJECTID":500414},"geometry":{"x":169376.36000000127,"y":2549806.7500000037}},{"attributes":{"ID":500442,"DIS_CODE":0,"TOWNNAME":"安南區","LI":"新順里","LIN":"15鄰","STREET":"安豐三街","SECT":" ","MAREA":" ","LANE":" ","ALLEY":" ","HOUSE_NO":"２７號","E_COORD97":169380.81,"N_COORD97":2549810.1800000002,"ADDRESS":"安豐三街２７號","OBJECTID":500415},"geometry":{"x":169380.81000000052,"y":2549810.1800000034}},{"attributes":{"ID":500443,"DIS_CODE":0,"TOWNNAME":"安南區","LI":"新順里","LIN":"15鄰","STREET":"安豐三街","SECT":" ","MAREA":" ","LANE":" ","ALLEY":" ","HOUSE_NO":"２９號","E_COORD97":169384.62,"N_COORD97":2549813.8599999999,"ADDRESS":"安豐三街２９號","OBJECTID":500416},"geometry":{"x":169384.62000000104,"y":2549813.8599999994}},{"attributes":{"ID":500444,"DIS_CODE":0,"TOWNNAME":"安南區","LI":"新順里","LIN":"15鄰","STREET":"育安一街","SECT":" ","MAREA":" ","LANE":" ","ALLEY":" ","HOUSE_NO":"６０號","E_COORD97":169337.37,"N_COORD97":2549833.6699999999,"ADDRESS":"育安一街６０號","OBJECTID":500417},"geometry":{"x":169337.37000000011,"y":2549833.6699999999}},{"attributes":{"ID":500445,"DIS_CODE":0,"TOWNNAME":"安南區","LI":"新順里","LIN":"15鄰","STREET":"育安一街","SECT":" ","MAREA":" ","LANE":" ","ALLEY":" ","HOUSE_NO":"７０號","E_COORD97":169351.72,"N_COORD97":2549844.3399999999,"ADDRESS":"育安一街７０號","OBJECTID":500418},"geometry":{"x":169351.71999999974,"y":2549844.3400000017}},{"attributes":{"ID":500446,"DIS_CODE":0,"TOWNNAME":"安南區","LI":"新順里","LIN":"15鄰","STREET":"育安一街","SECT":" ","MAREA":" ","LANE":" ","ALLEY":" ","HOUSE_NO":"７２號","E_COORD97":169355.01999999999,"N_COORD97":2549847.2599999998,"ADDRESS":"育安一街７２號","OBJECTID":500419},"geometry":{"x":169355.01999999955,"y":2549847.2600000016}},{"attributes":{"ID":500447,"DIS_CODE":0,"TOWNNAME":"安南區","LI":"新順里","LIN":"15鄰","STREET":"育安一街","SECT":" ","MAREA":" ","LANE":" ","ALLEY":" ","HOUSE_NO":"６２號","E_COORD97":169340.42000000001,"N_COORD97":2549835.96,"ADDRESS":"育安一街６２號","OBJECTID":500420},"geometry":{"x":169340.41999999993,"y":2549835.9600000009}},{"attributes":{"ID":500448,"DIS_CODE":0,"TOWNNAME":"安南區","LI":"新順里","LIN":"15鄰","STREET":"育安一街","SECT":" ","MAREA":" ","LANE":" ","ALLEY":" ","HOUSE_NO":"６６號","E_COORD97":169344.35999999999,"N_COORD97":2549838.8799999999,"ADDRESS":"育安一街６６號","OBJECTID":500421},"geometry":{"x":169344.36000000127,"y":2549838.8800000008}},{"attributes":{"ID":500449,"DIS_CODE":0,"TOWNNAME":"安南區","LI":"新順里","LIN":"15鄰","STREET":"育安一街","SECT":" ","MAREA":" ","LANE":" ","ALLEY":" ","HOUSE_NO":"６８號","E_COORD97":169347.79000000001,"N_COORD97":2549841.7999999998,"ADDRESS":"育安一街６８號","OBJECTID":500422},"geometry":{"x":169347.79000000097,"y":2549841.8000000026}},{"attributes":{"ID":500450,"DIS_CODE":0,"TOWNNAME":"安南區","LI":"新順里","LIN":"15鄰","STREET":"育安一街","SECT":" ","MAREA":" ","LANE":" ","ALLEY":" ","HOUSE_NO":"７６號","E_COORD97":169358.20000000001,"N_COORD97":2549849.6699999999,"ADDRESS":"育安一街７６號","OBJECTID":500423},"geometry":{"x":169358.20000000205,"y":2549849.6699999999}},{"attributes":{"ID":500451,"DIS_CODE":0,"TOWNNAME":"安南區","LI":"新順里","LIN":"15鄰","STREET":"育安一街","SECT":" ","MAREA":" ","LANE":" ","ALLEY":" ","HOUSE_NO":"７８號","E_COORD97":169361.37,"N_COORD97":2549852.4700000002,"ADDRESS":"育安一街７８號","OBJECTID":500424},"geometry":{"x":169361.37000000011,"y":2549852.4700000007}},{"attributes":{"ID":500452,"DIS_CODE":0,"TOWNNAME":"安南區","LI":"新順里","LIN":"15鄰","STREET":"育安一街","SECT":" ","MAREA":" ","LANE":" ","ALLEY":" ","HOUSE_NO":"８０號","E_COORD97":169364.54999999999,"N_COORD97":2549855.5099999998,"ADDRESS":"育安一街８０號","OBJECTID":500425},"geometry":{"x":169364.55000000075,"y":2549855.5100000035}},{"attributes":{"ID":500453,"DIS_CODE":0,"TOWNNAME":"安南區","LI":"新順里","LIN":"15鄰","STREET":"育安一街","SECT":" ","MAREA":" ","LANE":" ","ALLEY":" ","HOUSE_NO":"８２號","E_COORD97":169367.72,"N_COORD97":2549857.9300000002,"ADDRESS":"育安一街８２號","OBJECTID":500426},"geometry":{"x":169367.7200000016,"y":2549857.9299999997}},{"attributes":{"ID":500454,"DIS_CODE":0,"TOWNNAME":"安南區","LI":"新順里","LIN":"15鄰","STREET":"培安四街","SECT":" ","MAREA":" ","LANE":" ","ALLEY":" ","HOUSE_NO":"６８號","E_COORD97":169452.37,"N_COORD97":2549835.1800000002,"ADDRESS":"培安四街６８號","OBJECTID":500427},"geometry":{"x":169452.37000000104,"y":2549835.1800000016}},{"attributes":{"ID":500455,"DIS_CODE":0,"TOWNNAME":"安南區","LI":"新順里","LIN":"15鄰","STREET":"培安四街","SECT":" ","MAREA":" ","LANE":" ","ALLEY":" ","HOUSE_NO":"７０號","E_COORD97":169455.17000000001,"N_COORD97":2549831.75,"ADDRESS":"培安四街７０號","OBJECTID":500428},"geometry":{"x":169455.17000000086,"y":2549831.7500000019}},{"attributes":{"ID":500456,"DIS_CODE":0,"TOWNNAME":"安南區","LI":"新順里","LIN":"15鄰","STREET":"培安二街","SECT":" ","MAREA":" ","LANE":" ","ALLEY":" ","HOUSE_NO":"９０號","E_COORD97":169342.23999999999,"N_COORD97":2549825.4300000002,"ADDRESS":"培安二街９０號","OBJECTID":500429},"geometry":{"x":169342.24000000022,"y":2549825.4300000034}},{"attributes":{"ID":500457,"DIS_CODE":0,"TOWNNAME":"安南區","LI":"新順里","LIN":"15鄰","STREET":"培安二街","SECT":" ","MAREA":" ","LANE":" ","ALLEY":" ","HOUSE_NO":"８８號","E_COORD97":169347.06,"N_COORD97":2549819.0800000001,"ADDRESS":"培安二街８８號","OBJECTID":500430},"geometry":{"x":169347.06000000052,"y":2549819.0800000019}},{"attributes":{"ID":500458,"DIS_CODE":0,"TOWNNAME":"安南區","LI":"新順里","LIN":"15鄰","STREET":"培安二街","SECT":" ","MAREA":" ","LANE":" ","ALLEY":" ","HOUSE_NO":"８６號","E_COORD97":169351.76000000001,"N_COORD97":2549813.5,"ADDRESS":"培安二街８６號","OBJECTID":500431},"geometry":{"x":169351.75999999978,"y":2549813.5}},{"attributes":{"ID":500459,"DIS_CODE":0,"TOWNNAME":"安南區","LI":"新順里","LIN":"15鄰","STREET":"培安二街","SECT":" ","MAREA":" ","LANE":" ","ALLEY":" ","HOUSE_NO":"８２號","E_COORD97":169355.32000000001,"N_COORD97":2549808.54,"ADDRESS":"培安二街８２號","OBJECTID":500432},"geometry":{"x":169355.3200000003,"y":2549808.540000001}},{"attributes":{"ID":500460,"DIS_CODE":0,"TOWNNAME":"安南區","LI":"海西里","LIN":"15鄰","STREET":"海環街","SECT":" ","MAREA":" ","LANE":" ","ALLEY":" ","HOUSE_NO":"３０８號","E_COORD97":166122.10999999999,"N_COORD97":2548835.3999999999,"ADDRESS":"海環街３０８號","OBJECTID":500433},"geometry":{"x":166122.11000000034,"y":2548835.4000000004}},{"attributes":{"ID":500461,"DIS_CODE":0,"TOWNNAME":"安南區","LI":"理想里","LIN":"15鄰","STREET":"大安街","SECT":" ","MAREA":" ","LANE":" ","ALLEY":" ","HOUSE_NO":"１３５號","E_COORD97":167297.56,"N_COORD97":2548175.2000000002,"ADDRESS":"大安街１３５號","OBJECTID":500434},"geometry":{"x":167297.56000000052,"y":2548175.200000003}},{"attributes":{"ID":500462,"DIS_CODE":0,"TOWNNAME":"安南區","LI":"安順里","LIN":"15鄰","STREET":"育安一街","SECT":" ","MAREA":" ","LANE":" ","ALLEY":" ","HOUSE_NO":"１２９號","E_COORD97":169488.38,"N_COORD97":2550004.3599999999,"ADDRESS":"育安一街１２９號","OBJECTID":500435},"geometry":{"x":169488.37999999989,"y":2550004.3599999994}},{"attributes":{"ID":500463,"DIS_CODE":0,"TOWNNAME":"安南區","LI":"安順里","LIN":"15鄰","STREET":"育安一街","SECT":" ","MAREA":" ","LANE":" ","ALLEY":" ","HOUSE_NO":"１３９號","E_COORD97":169489.81,"N_COORD97":2550038.1699999999,"ADDRESS":"育安一街１３９號","OBJECTID":500436},"geometry":{"x":169489.80999999959,"y":2550038.1700000018}},{"attributes":{"ID":500464,"DIS_CODE":0,"TOWNNAME":"安南區","LI":"安順里","LIN":"15鄰","STREET":"育安一街","SECT":" ","MAREA":" ","LANE":" ","ALLEY":" ","HOUSE_NO":"１３７號","E_COORD97":169489.32999999999,"N_COORD97":2550030.23,"ADDRESS":"育安一街１３７號","OBJECTID":500437},"geometry":{"x":169489.33000000194,"y":2550030.2300000004}},{"attributes":{"ID":500465,"DIS_CODE":0,"TOWNNAME":"安南區","LI":"安順里","LIN":"15鄰","STREET":"育安一街","SECT":" ","MAREA":" ","LANE":" ","ALLEY":" ","HOUSE_NO":"１３５號","E_COORD97":169489.17999999999,"N_COORD97":2550024.04,"ADDRESS":"育安一街１３５號","OBJECTID":500438},"geometry":{"x":169489.1799999997,"y":2550024.0400000028}},{"attributes":{"ID":500466,"DIS_CODE":0,"TOWNNAME":"安南區","LI":"安順里","LIN":"15鄰","STREET":"育安一街","SECT":" ","MAREA":" ","LANE":" ","ALLEY":" ","HOUSE_NO":"１３３號","E_COORD97":169489.17999999999,"N_COORD97":2550018.0099999998,"ADDRESS":"育安一街１３３號","OBJECTID":500439},"geometry":{"x":169489.1799999997,"y":2550018.0100000035}},{"attributes":{"ID":500467,"DIS_CODE":0,"TOWNNAME":"安南區","LI":"安順里","LIN":"15鄰","STREET":"育安一街","SECT":" ","MAREA":" ","LANE":" ","ALLEY":" ","HOUSE_NO":"１３１號","E_COORD97":169488.70000000001,"N_COORD97":2550011.5,"ADDRESS":"育安一街１３１號","OBJECTID":500440},"geometry":{"x":169488.70000000205,"y":2550011.4999999981}},{"attributes":{"ID":500468,"DIS_CODE":0,"TOWNNAME":"安南區","LI":"城東里","LIN":"15鄰","STREET":"安明路","SECT":"四段","MAREA":" ","LANE":" ","ALLEY":" ","HOUSE_NO":"６８７號","E_COORD97":161134.67999999999,"N_COORD97":2551930.2799999998,"ADDRESS":"安明路四段６８７號","OBJECTID":500441},"geometry":{"x":161134.68000000063,"y":2551930.2799999993}},{"attributes":{"ID":500469,"DIS_CODE":0,"TOWNNAME":"安南區","LI":"安慶里","LIN":"15鄰","STREET":"安中路","SECT":"一段","MAREA":" ","LANE":" ","ALLEY":" ","HOUSE_NO":"１６８之１號","E_COORD97":168819.88,"N_COORD97":2548491.8999999999,"ADDRESS":"安中路一段１６８之１號","OBJECTID":500442},"geometry":{"x":168819.88000000082,"y":2548491.9000000022}},{"attributes":{"ID":500470,"DIS_CODE":0,"TOWNNAME":"東區","LI":"東門里","LIN":"15鄰","STREET":"東門路","SECT":"一段","MAREA":" ","LANE":" ","ALLEY":" ","HOUSE_NO":"１５３號","E_COORD97":169510.14999999999,"N_COORD97":2543167.3700000001,"ADDRESS":"東門路一段１５３號","OBJECTID":500443},"geometry":{"x":169510.1500000013,"y":2543167.370000001}},{"attributes":{"ID":500471,"DIS_CODE":0,"TOWNNAME":"東區","LI":"東門里","LIN":"15鄰","STREET":"東門路","SECT":"一段","MAREA":" ","LANE":" ","ALLEY":" ","HOUSE_NO":"１５５號","E_COORD97":169513.95000000001,"N_COORD97":2543166.4199999999,"ADDRESS":"東門路一段１５５號","OBJECTID":500444},"geometry":{"x":169513.94999999925,"y":2543166.4199999999}},{"attributes":{"ID":500472,"DIS_CODE":0,"TOWNNAME":"東區","LI":"東門里","LIN":"15鄰","STREET":"東門路","SECT":"一段","MAREA":" ","LANE":" ","ALLEY":" ","HOUSE_NO":"１５７號","E_COORD97":169517.87,"N_COORD97":2543165.48,"ADDRESS":"東門路一段１５７號","OBJECTID":500445},"geometry":{"x":169517.87000000197,"y":2543165.4800000004}},{"attributes":{"ID":500473,"DIS_CODE":0,"TOWNNAME":"東區","LI":"東門里","LIN":"15鄰","STREET":"東門路","SECT":"一段","MAREA":" ","LANE":" ","ALLEY":" ","HOUSE_NO":"１５９號","E_COORD97":169521.53,"N_COORD97":2543163.9900000002,"ADDRESS":"東門路一段１５９號","OBJECTID":500446},"geometry":{"x":169521.53000000026,"y":2543163.9900000021}},{"attributes":{"ID":500474,"DIS_CODE":0,"TOWNNAME":"東區","LI":"東門里","LIN":"15鄰","STREET":"東榮街","SECT":" ","MAREA":" ","LANE":" ","ALLEY":" ","HOUSE_NO":"１００號","E_COORD97":169524.57000000001,"N_COORD97":2543191.6400000001,"ADDRESS":"東榮街１００號","OBJECTID":500447},"geometry":{"x":169524.5700000003,"y":2543191.6400000006}},{"attributes":{"ID":500475,"DIS_CODE":0,"TOWNNAME":"東區","LI":"東門里","LIN":"15鄰","STREET":"東榮街","SECT":" ","MAREA":" ","LANE":" ","ALLEY":" ","HOUSE_NO":"１０２號","E_COORD97":169524.38,"N_COORD97":2543182.6200000001,"ADDRESS":"東榮街１０２號","OBJECTID":500448},"geometry":{"x":169524.38000000175,"y":2543182.620000001}},{"attributes":{"ID":500476,"DIS_CODE":0,"TOWNNAME":"東區","LI":"東門里","LIN":"15鄰","STREET":"東榮街","SECT":" ","MAREA":" ","LANE":" ","ALLEY":" ","HOUSE_NO":"６２號","E_COORD97":169532.22,"N_COORD97":2543340.5299999998,"ADDRESS":"東榮街６２號","OBJECTID":500449},"geometry":{"x":169532.2200000016,"y":2543340.5299999993}},{"attributes":{"ID":500477,"DIS_CODE":0,"TOWNNAME":"中西區","LI":"光賢里","LIN":"15鄰","STREET":"武聖路","SECT":" ","MAREA":" ","LANE":" ","ALLEY":" ","HOUSE_NO":"１３５號","E_COORD97":167077.41,"N_COORD97":2545158.3399999999,"ADDRESS":"武聖路１３５號","OBJECTID":500450},"geometry":{"x":167077.41000000108,"y":2545158.3400000017}},{"attributes":{"ID":500478,"DIS_CODE":0,"TOWNNAME":"中西區","LI":"光賢里","LIN":"15鄰","STREET":"武聖路","SECT":" ","MAREA":" ","LANE":" ","ALLEY":" ","HOUSE_NO":"１４３號","E_COORD97":167059.76000000001,"N_COORD97":2545166.3900000001,"ADDRESS":"武聖路１４３號","OBJECTID":500451},"geometry":{"x":167059.75999999978,"y":2545166.3900000025}},{"attributes":{"ID":500479,"DIS_CODE":0,"TOWNNAME":"中西區","LI":"光賢里","LIN":"15鄰","STREET":"武聖路","SECT":" ","MAREA":" ","LANE":" ","ALLEY":" ","HOUSE_NO":"１４５號","E_COORD97":167054.01000000001,"N_COORD97":2545169.4500000002,"ADDRESS":"武聖路１４５號","OBJECTID":500452},"geometry":{"x":167054.01000000071,"y":2545169.4499999993}},{"attributes":{"ID":500480,"DIS_CODE":0,"TOWNNAME":"中西區","LI":"光賢里","LIN":"15鄰","STREET":"武聖路","SECT":" ","MAREA":" ","LANE":" ","ALLEY":" ","HOUSE_NO":"１４７號","E_COORD97":167047.10000000001,"N_COORD97":2545168.6800000002,"ADDRESS":"武聖路１４７號","OBJECTID":500453},"geometry":{"x":167047.09999999963,"y":2545168.6800000034}},{"attributes":{"ID":500481,"DIS_CODE":0,"TOWNNAME":"中西區","LI":"光賢里","LIN":"15鄰","STREET":"武聖路","SECT":" ","MAREA":" ","LANE":" ","ALLEY":" ","HOUSE_NO":"１４９號","E_COORD97":167045.57000000001,"N_COORD97":2545174.4300000002,"ADDRESS":"武聖路１４９號","OBJECTID":500454},"geometry":{"x":167045.57000000123,"y":2545174.4300000016}},{"attributes":{"ID":500482,"DIS_CODE":0,"TOWNNAME":"中西區","LI":"開山里","LIN":"15鄰","STREET":"大埔街","SECT":" ","MAREA":" ","LANE":" ","ALLEY":" ","HOUSE_NO":"１８號","E_COORD97":168984.23000000001,"N_COORD97":2543055.5899999999,"ADDRESS":"大埔街１８號","OBJECTID":500455},"geometry":{"x":168984.23000000138,"y":2543055.5899999999}},{"attributes":{"ID":500483,"DIS_CODE":0,"TOWNNAME":"中西區","LI":"開山里","LIN":"15鄰","STREET":"大埔街","SECT":" ","MAREA":" ","LANE":" ","ALLEY":" ","HOUSE_NO":"２０號","E_COORD97":168980.44,"N_COORD97":2543057.77,"ADDRESS":"大埔街２０號","OBJECTID":500456},"geometry":{"x":168980.44000000227,"y":2543057.7699999996}},{"attributes":{"ID":500484,"DIS_CODE":0,"TOWNNAME":"中西區","LI":"開山里","LIN":"15鄰","STREET":"大埔街","SECT":" ","MAREA":" ","LANE":" ","ALLEY":" ","HOUSE_NO":"２２號","E_COORD97":168977.23000000001,"N_COORD97":2543061.5499999998,"ADDRESS":"大埔街２２號","OBJECTID":500457},"geometry":{"x":168977.23000000138,"y":2543061.5500000007}},{"attributes":{"ID":500485,"DIS_CODE":0,"TOWNNAME":"中西區","LI":"開山里","LIN":"15鄰","STREET":"大埔街","SECT":" ","MAREA":" ","LANE":" ","ALLEY":" ","HOUSE_NO":"２４號","E_COORD97":168970.92000000001,"N_COORD97":2543059.9399999999,"ADDRESS":"大埔街２４號","OBJECTID":500458},"geometry":{"x":168970.91999999993,"y":2543059.9399999995}},{"attributes":{"ID":500486,"DIS_CODE":0,"TOWNNAME":"中西區","LI":"開山里","LIN":"15鄰","STREET":"大埔街","SECT":" ","MAREA":" ","LANE":" ","ALLEY":" ","HOUSE_NO":"２６號","E_COORD97":168966.56,"N_COORD97":2543062.4700000002,"ADDRESS":"大埔街２６號","OBJECTID":500459},"geometry":{"x":168966.55999999959,"y":2543062.4700000044}},{"attributes":{"ID":500487,"DIS_CODE":0,"TOWNNAME":"中西區","LI":"開山里","LIN":"15鄰","STREET":"大埔街","SECT":" ","MAREA":" ","LANE":" ","ALLEY":" ","HOUSE_NO":"２８號","E_COORD97":168963,"N_COORD97":2543066.1299999999,"ADDRESS":"大埔街２８號","OBJECTID":500460},"geometry":{"x":168963.00000000093,"y":2543066.1300000027}},{"attributes":{"ID":500488,"DIS_CODE":0,"TOWNNAME":"中西區","LI":"開山里","LIN":"15鄰","STREET":"大埔街","SECT":" ","MAREA":" ","LANE":" ","ALLEY":" ","HOUSE_NO":"２號","E_COORD97":169026.07000000001,"N_COORD97":2543056.5,"ADDRESS":"大埔街２號","OBJECTID":500461},"geometry":{"x":169026.0700000003,"y":2543056.5}},{"attributes":{"ID":500489,"DIS_CODE":0,"TOWNNAME":"中西區","LI":"開山里","LIN":"15鄰","STREET":"大埔街","SECT":" ","MAREA":" ","LANE":" ","ALLEY":" ","HOUSE_NO":"２號之１","E_COORD97":169020.23000000001,"N_COORD97":2543059.3500000001,"ADDRESS":"大埔街２號之１","OBJECTID":500462},"geometry":{"x":169020.23000000045,"y":2543059.3500000015}},{"attributes":{"ID":500490,"DIS_CODE":0,"TOWNNAME":"中西區","LI":"開山里","LIN":"15鄰","STREET":"大埔街","SECT":" ","MAREA":" ","LANE":" ","ALLEY":" ","HOUSE_NO":"２號之２","E_COORD97":169016.01999999999,"N_COORD97":2543061.3900000001,"ADDRESS":"大埔街２號之２","OBJECTID":500463},"geometry":{"x":169016.01999999955,"y":2543061.3900000006}},{"attributes":{"ID":500491,"DIS_CODE":0,"TOWNNAME":"中西區","LI":"開山里","LIN":"15鄰","STREET":"大埔街","SECT":" ","MAREA":" ","LANE":" ","ALLEY":" ","HOUSE_NO":"２號之３","E_COORD97":169011.67999999999,"N_COORD97":2543062.4700000002,"ADDRESS":"大埔街２號之３","OBJECTID":500464},"geometry":{"x":169011.6799999997,"y":2543062.4700000044}},{"attributes":{"ID":500492,"DIS_CODE":0,"TOWNNAME":"中西區","LI":"開山里","LIN":"15鄰","STREET":"大埔街","SECT":" ","MAREA":" ","LANE":" ","ALLEY":" ","HOUSE_NO":"３０號","E_COORD97":168957.38,"N_COORD97":2543064.7599999998,"ADDRESS":"大埔街３０號","OBJECTID":500465},"geometry":{"x":168957.37999999989,"y":2543064.7599999998}},{"attributes":{"ID":500493,"DIS_CODE":0,"TOWNNAME":"中西區","LI":"開山里","LIN":"15鄰","STREET":"大埔街","SECT":" ","MAREA":" ","LANE":" ","ALLEY":" ","HOUSE_NO":"３２號","E_COORD97":168953.37,"N_COORD97":2543066.5899999999,"ADDRESS":"大埔街３２號","OBJECTID":500466},"geometry":{"x":168953.37000000197,"y":2543066.5899999999}},{"attributes":{"ID":500494,"DIS_CODE":0,"TOWNNAME":"中西區","LI":"開山里","LIN":"15鄰","STREET":"大埔街","SECT":" ","MAREA":" ","LANE":" ","ALLEY":" ","HOUSE_NO":"３４號","E_COORD97":168949.76000000001,"N_COORD97":2543068.3300000001,"ADDRESS":"大埔街３４號","OBJECTID":500467},"geometry":{"x":168949.75999999978,"y":2543068.3300000001}},{"attributes":{"ID":500495,"DIS_CODE":0,"TOWNNAME":"中西區","LI":"開山里","LIN":"15鄰","STREET":"大埔街","SECT":" ","MAREA":" ","LANE":" ","ALLEY":" ","HOUSE_NO":"３６號","E_COORD97":168946.42999999999,"N_COORD97":2543071.6499999999,"ADDRESS":"大埔街３６號","OBJECTID":500468},"geometry":{"x":168946.43000000063,"y":2543071.6500000022}},{"attributes":{"ID":500496,"DIS_CODE":0,"TOWNNAME":"中西區","LI":"開山里","LIN":"15鄰","STREET":"大埔街","SECT":" ","MAREA":" ","LANE":" ","ALLEY":" ","HOUSE_NO":"６號","E_COORD97":169007.69,"N_COORD97":2543042.8799999999,"ADDRESS":"大埔街６號","OBJECTID":500469},"geometry":{"x":169007.69000000134,"y":2543042.879999999}},{"attributes":{"ID":500497,"DIS_CODE":0,"TOWNNAME":"中西區","LI":"開山里","LIN":"15鄰","STREET":"大埔街","SECT":" ","MAREA":" ","LANE":" ","ALLEY":" ","HOUSE_NO":"８號","E_COORD97":169004.25,"N_COORD97":2543044.9399999999,"ADDRESS":"大埔街８號","OBJECTID":500470},"geometry":{"x":169004.25,"y":2543044.9400000013}},{"attributes":{"ID":500498,"DIS_CODE":0,"TOWNNAME":"中西區","LI":"開山里","LIN":"15鄰","STREET":"開山路","SECT":" ","MAREA":" ","LANE":" ","ALLEY":" ","HOUSE_NO":"１９７號","E_COORD97":168951.63,"N_COORD97":2543108.7599999998,"ADDRESS":"開山路１９７號","OBJECTID":500471},"geometry":{"x":168951.63000000082,"y":2543108.7599999998}},{"attributes":{"ID":500499,"DIS_CODE":0,"TOWNNAME":"中西區","LI":"開山里","LIN":"15鄰","STREET":"開山路","SECT":" ","MAREA":" ","LANE":" ","ALLEY":" ","HOUSE_NO":"２０１號","E_COORD97":168938.79999999999,"N_COORD97":2543078.6099999999,"ADDRESS":"開山路２０１號","OBJECTID":500472},"geometry":{"x":168938.80000000075,"y":2543078.6100000013}},{"attributes":{"ID":500500,"DIS_CODE":0,"TOWNNAME":"新市區","LI":"港墘里","LIN":"15鄰","STREET":"光華街","SECT":" ","MAREA":" ","LANE":" ","ALLEY":" ","HOUSE_NO":"６９號","E_COORD97":177910.51000000001,"N_COORD97":2552756.5,"ADDRESS":"光華街６９號","OBJECTID":500473},"geometry":{"x":177910.50999999978,"y":2552756.5}},{"attributes":{"ID":500501,"DIS_CODE":0,"TOWNNAME":"白河區","LI":"永安里","LIN":"15鄰","STREET":"三民路","SECT":" ","MAREA":" ","LANE":" ","ALLEY":" ","HOUSE_NO":"４３８之１號","E_COORD97":190182.47,"N_COORD97":2583360.7599999998,"ADDRESS":"三民路４３８之１號","OBJECTID":500474},"geometry":{"x":190182.46999999974,"y":2583360.7600000035}},{"attributes":{"ID":500502,"DIS_CODE":0,"TOWNNAME":"安平區","LI":"漁光里","LIN":"6鄰","STREET":"漁光路","SECT":" ","MAREA":" ","LANE":" ","ALLEY":" ","HOUSE_NO":"１３７號","E_COORD97":163826.60000000001,"N_COORD97":2542057.6899999999,"ADDRESS":"漁光路１３７號","OBJECTID":500475},"geometry":{"x":163826.59999999963,"y":2542057.6899999995}},{"attributes":{"ID":500503,"DIS_CODE":0,"TOWNNAME":"東區","LI":"崇善里","LIN":"15鄰","STREET":"崇善十一街","SECT":" ","MAREA":" ","LANE":" ","ALLEY":" ","HOUSE_NO":"１３號","E_COORD97":171177.23000000001,"N_COORD97":2541201.8799999999,"ADDRESS":"崇善十一街１３號","OBJECTID":500476},"geometry":{"x":171177.23000000231,"y":2541201.879999999}},{"attributes":{"ID":500504,"DIS_CODE":0,"TOWNNAME":"東區","LI":"崇善里","LIN":"15鄰","STREET":"崇善十一街","SECT":" ","MAREA":" ","LANE":" ","ALLEY":" ","HOUSE_NO":"１５號","E_COORD97":171182.56,"N_COORD97":2541204.3199999998,"ADDRESS":"崇善十一街１５號","OBJECTID":500477},"geometry":{"x":171182.56000000145,"y":2541204.3200000003}},{"attributes":{"ID":500505,"DIS_CODE":0,"TOWNNAME":"東區","LI":"崇善里","LIN":"15鄰","STREET":"崇善十一街","SECT":" ","MAREA":" ","LANE":" ","ALLEY":" ","HOUSE_NO":"１７號","E_COORD97":171187,"N_COORD97":2541205.6499999999,"ADDRESS":"崇善十一街１７號","OBJECTID":500478},"geometry":{"x":171187.00000000093,"y":2541205.6500000004}},{"attributes":{"ID":500506,"DIS_CODE":0,"TOWNNAME":"東區","LI":"崇善里","LIN":"15鄰","STREET":"崇善十一街","SECT":" ","MAREA":" ","LANE":" ","ALLEY":" ","HOUSE_NO":"２１號","E_COORD97":171191.89000000001,"N_COORD97":2541207.8700000001,"ADDRESS":"崇善十一街２１號","OBJECTID":500479},"geometry":{"x":171191.88999999966,"y":2541207.870000001}},{"attributes":{"ID":500507,"DIS_CODE":0,"TOWNNAME":"東區","LI":"崇善里","LIN":"15鄰","STREET":"崇善十一街","SECT":" ","MAREA":" ","LANE":" ","ALLEY":" ","HOUSE_NO":"５９號","E_COORD97":171265.51999999999,"N_COORD97":2541259.29,"ADDRESS":"崇善十一街５９號","OBJECTID":500480},"geometry":{"x":171265.51999999955,"y":2541259.290000001}},{"attributes":{"ID":500508,"DIS_CODE":0,"TOWNNAME":"東區","LI":"崇善里","LIN":"15鄰","STREET":"崇善十一街","SECT":" ","MAREA":" ","LANE":" ","ALLEY":" ","HOUSE_NO":"６１號","E_COORD97":171270.17000000001,"N_COORD97":2541259.6200000001,"ADDRESS":"崇善十一街６１號","OBJECTID":500481},"geometry":{"x":171270.17000000179,"y":2541259.6200000029}},{"attributes":{"ID":500509,"DIS_CODE":0,"TOWNNAME":"東區","LI":"崇善里","LIN":"15鄰","STREET":"崇善十一街","SECT":" ","MAREA":" ","LANE":" ","ALLEY":" ","HOUSE_NO":"６３號","E_COORD97":171273.48999999999,"N_COORD97":2541262.2799999998,"ADDRESS":"崇善十一街６３號","OBJECTID":500482},"geometry":{"x":171273.49000000209,"y":2541262.2800000012}},{"attributes":{"ID":500510,"DIS_CODE":0,"TOWNNAME":"東區","LI":"崇善里","LIN":"15鄰","STREET":"崇善十一街","SECT":" ","MAREA":" ","LANE":" ","ALLEY":" ","HOUSE_NO":"６７號","E_COORD97":171281.13,"N_COORD97":2541266.5899999999,"ADDRESS":"崇善十一街６７號","OBJECTID":500483},"geometry":{"x":171281.13000000082,"y":2541266.5899999999}},{"attributes":{"ID":500511,"DIS_CODE":0,"TOWNNAME":"東區","LI":"崇善里","LIN":"15鄰","STREET":"崇善十一街","SECT":" ","MAREA":" ","LANE":" ","ALLEY":" ","HOUSE_NO":"６９號之１","E_COORD97":171287.76999999999,"N_COORD97":2541271.5600000001,"ADDRESS":"崇善十一街６９號之１","OBJECTID":500484},"geometry":{"x":171287.77000000142,"y":2541271.5600000042}},{"attributes":{"ID":500512,"DIS_CODE":0,"TOWNNAME":"東區","LI":"崇善里","LIN":"15鄰","STREET":"崇善十一街","SECT":" ","MAREA":" ","LANE":" ","ALLEY":" ","HOUSE_NO":"６９號之２","E_COORD97":171290.42000000001,"N_COORD97":2541276.54,"ADDRESS":"崇善十一街６９號之２","OBJECTID":500485},"geometry":{"x":171290.41999999899,"y":2541276.5399999991}},{"attributes":{"ID":500513,"DIS_CODE":0,"TOWNNAME":"仁德區","LI":"仁德里","LIN":"43鄰","STREET":"中山路","SECT":" ","MAREA":" ","LANE":"９１０巷","ALLEY":"１３弄","HOUSE_NO":"１號","E_COORD97":172005.32000000001,"N_COORD97":2541782.9900000002,"ADDRESS":"中山路９１０巷１３弄１號","OBJECTID":500486},"geometry":{"x":172005.32000000216,"y":2541782.9900000002}},{"attributes":{"ID":500514,"DIS_CODE":0,"TOWNNAME":"白河區","LI":"永安里","LIN":"15鄰","STREET":"大德街","SECT":" ","MAREA":" ","LANE":" ","ALLEY":" ","HOUSE_NO":"９６號","E_COORD97":189941.85000000001,"N_COORD97":2583653.23,"ADDRESS":"大德街９６號","OBJECTID":500487},"geometry":{"x":189941.85000000056,"y":2583653.2300000042}},{"attributes":{"ID":500515,"DIS_CODE":0,"TOWNNAME":"白河區","LI":"永安里","LIN":"15鄰","STREET":"大德街","SECT":" ","MAREA":" ","LANE":" ","ALLEY":" ","HOUSE_NO":"９８號","E_COORD97":189941.81,"N_COORD97":2583656.9100000001,"ADDRESS":"大德街９８號","OBJECTID":500488},"geometry":{"x":189941.81000000052,"y":2583656.9100000001}},{"attributes":{"ID":500516,"DIS_CODE":0,"TOWNNAME":"安平區","LI":"平通里","LIN":"7鄰","STREET":"慶平路","SECT":" ","MAREA":" ","LANE":" ","ALLEY":" ","HOUSE_NO":"５６５號","E_COORD97":164925.78,"N_COORD97":2544240.6200000001,"ADDRESS":"慶平路５６５號","OBJECTID":500489},"geometry":{"x":164925.78000000026,"y":2544240.620000001}},{"attributes":{"ID":500517,"DIS_CODE":0,"TOWNNAME":"安平區","LI":"平通里","LIN":"7鄰","STREET":"慶平路","SECT":" ","MAREA":" ","LANE":" ","ALLEY":" ","HOUSE_NO":"５６９號","E_COORD97":164907.32999999999,"N_COORD97":2544244.3799999999,"ADDRESS":"慶平路５６９號","OBJECTID":500490},"geometry":{"x":164907.33000000194,"y":2544244.3800000027}},{"attributes":{"ID":500518,"DIS_CODE":0,"TOWNNAME":"安南區","LI":"海東里","LIN":"15鄰","STREET":"海環街","SECT":" ","MAREA":" ","LANE":" ","ALLEY":" ","HOUSE_NO":"４０號","E_COORD97":166648.84,"N_COORD97":2548854.2200000002,"ADDRESS":"海環街４０號","OBJECTID":500491},"geometry":{"x":166648.83999999985,"y":2548854.2200000007}},{"attributes":{"ID":500519,"DIS_CODE":0,"TOWNNAME":"安南區","LI":"海東里","LIN":"15鄰","STREET":"海環街","SECT":" ","MAREA":" ","LANE":" ","ALLEY":" ","HOUSE_NO":"３４號","E_COORD97":166660.51000000001,"N_COORD97":2548862.1499999999,"ADDRESS":"海環街３４號","OBJECTID":500492},"geometry":{"x":166660.51000000071,"y":2548862.1500000022}},{"attributes":{"ID":500520,"DIS_CODE":0,"TOWNNAME":"安南區","LI":"海東里","LIN":"15鄰","STREET":"海環街","SECT":" ","MAREA":" ","LANE":" ","ALLEY":" ","HOUSE_NO":"３６號","E_COORD97":166656.76999999999,"N_COORD97":2548859.0299999998,"ADDRESS":"海環街３６號","OBJECTID":500493},"geometry":{"x":166656.77000000048,"y":2548859.0300000012}},{"attributes":{"ID":500521,"DIS_CODE":0,"TOWNNAME":"安南區","LI":"海東里","LIN":"15鄰","STREET":"海環街","SECT":" ","MAREA":" ","LANE":" ","ALLEY":" ","HOUSE_NO":"３８號","E_COORD97":166652.95000000001,"N_COORD97":2548856.96,"ADDRESS":"海環街３８號","OBJECTID":500494},"geometry":{"x":166652.95000000112,"y":2548856.9600000046}},{"attributes":{"ID":500522,"DIS_CODE":0,"TOWNNAME":"安南區","LI":"海東里","LIN":"15鄰","STREET":"海環街","SECT":" ","MAREA":" ","LANE":" ","ALLEY":" ","HOUSE_NO":"４２號","E_COORD97":166644.92999999999,"N_COORD97":2548852.6299999999,"ADDRESS":"海環街４２號","OBJECTID":500495},"geometry":{"x":166644.9299999997,"y":2548852.629999999}},{"attributes":{"ID":500523,"DIS_CODE":0,"TOWNNAME":"安南區","LI":"海東里","LIN":"15鄰","STREET":"海環街","SECT":" ","MAREA":" ","LANE":" ","ALLEY":" ","HOUSE_NO":"４６號","E_COORD97":166636.79000000001,"N_COORD97":2548848.0299999998,"ADDRESS":"海環街４６號","OBJECTID":500496},"geometry":{"x":166636.79000000097,"y":2548848.0300000031}},{"attributes":{"ID":500524,"DIS_CODE":0,"TOWNNAME":"安南區","LI":"海東里","LIN":"15鄰","STREET":"海環街","SECT":" ","MAREA":" ","LANE":" ","ALLEY":" ","HOUSE_NO":"４８號","E_COORD97":166633.16,"N_COORD97":2548845.3500000001,"ADDRESS":"海環街４８號","OBJECTID":500497},"geometry":{"x":166633.16000000108,"y":2548845.3499999996}},{"attributes":{"ID":500525,"DIS_CODE":0,"TOWNNAME":"安南區","LI":"海東里","LIN":"15鄰","STREET":"海環街","SECT":" ","MAREA":" ","LANE":" ","ALLEY":" ","HOUSE_NO":"５０號","E_COORD97":166629.20999999999,"N_COORD97":2548842.6899999999,"ADDRESS":"海環街５０號","OBJECTID":500498},"geometry":{"x":166629.21000000089,"y":2548842.6899999995}},{"attributes":{"ID":500526,"DIS_CODE":0,"TOWNNAME":"安南區","LI":"海東里","LIN":"15鄰","STREET":"海環街","SECT":" ","MAREA":" ","LANE":" ","ALLEY":" ","HOUSE_NO":"５２號","E_COORD97":166625.28,"N_COORD97":2548840.7599999998,"ADDRESS":"海環街５２號","OBJECTID":500499},"geometry":{"x":166625.28000000119,"y":2548840.7600000016}},{"attributes":{"ID":500527,"DIS_CODE":0,"TOWNNAME":"安南區","LI":"海東里","LIN":"15鄰","STREET":"海環街","SECT":" ","MAREA":" ","LANE":" ","ALLEY":" ","HOUSE_NO":"６０號","E_COORD97":166608.85000000001,"N_COORD97":2548832.71,"ADDRESS":"海環街６０號","OBJECTID":500500},"geometry":{"x":166608.85000000056,"y":2548832.7100000028}},{"attributes":{"ID":500528,"DIS_CODE":0,"TOWNNAME":"安南區","LI":"海東里","LIN":"15鄰","STREET":"海環街","SECT":" ","MAREA":" ","LANE":" ","ALLEY":" ","HOUSE_NO":"６２號","E_COORD97":166604.31,"N_COORD97":2548829.5899999999,"ADDRESS":"海環街６２號","OBJECTID":500501},"geometry":{"x":166604.31000000052,"y":2548829.5899999999}},{"attributes":{"ID":500529,"DIS_CODE":0,"TOWNNAME":"安南區","LI":"海東里","LIN":"15鄰","STREET":"海環街","SECT":" ","MAREA":" ","LANE":" ","ALLEY":" ","HOUSE_NO":"６４號","E_COORD97":166600.60999999999,"N_COORD97":2548827.79,"ADDRESS":"海環街６４號","OBJECTID":500502},"geometry":{"x":166600.61000000034,"y":2548827.7899999991}},{"attributes":{"ID":500530,"DIS_CODE":0,"TOWNNAME":"安南區","LI":"海東里","LIN":"15鄰","STREET":"海環街","SECT":" ","MAREA":" ","LANE":" ","ALLEY":" ","HOUSE_NO":"６６號","E_COORD97":166596.64000000001,"N_COORD97":2548825.8900000001,"ADDRESS":"海環街６６號","OBJECTID":500503},"geometry":{"x":166596.6400000006,"y":2548825.8900000006}},{"attributes":{"ID":500531,"DIS_CODE":0,"TOWNNAME":"安南區","LI":"海東里","LIN":"15鄰","STREET":"海環街","SECT":" ","MAREA":" ","LANE":" ","ALLEY":" ","HOUSE_NO":"６８號","E_COORD97":166591.60000000001,"N_COORD97":2548823.4399999999,"ADDRESS":"海環街６８號","OBJECTID":500504},"geometry":{"x":166591.60000000149,"y":2548823.4399999995}},{"attributes":{"ID":500532,"DIS_CODE":0,"TOWNNAME":"安南區","LI":"海東里","LIN":"15鄰","STREET":"海環街","SECT":" ","MAREA":" ","LANE":" ","ALLEY":" ","HOUSE_NO":"７０號","E_COORD97":166587.82000000001,"N_COORD97":2548820.8599999999,"ADDRESS":"海環街７０號","OBJECTID":500505},"geometry":{"x":166587.82000000123,"y":2548820.8599999994}},{"attributes":{"ID":500533,"DIS_CODE":0,"TOWNNAME":"安南區","LI":"海東里","LIN":"15鄰","STREET":"海環街","SECT":" ","MAREA":" ","LANE":" ","ALLEY":" ","HOUSE_NO":"７８號","E_COORD97":166571.45000000001,"N_COORD97":2548813.4300000002,"ADDRESS":"海環街７８號","OBJECTID":500506},"geometry":{"x":166571.45000000112,"y":2548813.4299999997}},{"attributes":{"ID":500534,"DIS_CODE":0,"TOWNNAME":"安南區","LI":"海東里","LIN":"15鄰","STREET":"海環街","SECT":" ","MAREA":" ","LANE":" ","ALLEY":" ","HOUSE_NO":"８０號","E_COORD97":166567.01000000001,"N_COORD97":2548808.1400000001,"ADDRESS":"海環街８０號","OBJECTID":500507},"geometry":{"x":166567.01000000164,"y":2548808.1400000025}},{"attributes":{"ID":500535,"DIS_CODE":0,"TOWNNAME":"安南區","LI":"海東里","LIN":"15鄰","STREET":"海環街","SECT":" ","MAREA":" ","LANE":" ","ALLEY":" ","HOUSE_NO":"８２號","E_COORD97":166563.14999999999,"N_COORD97":2548805.79,"ADDRESS":"海環街８２號","OBJECTID":500508},"geometry":{"x":166563.14999999944,"y":2548805.790000001}},{"attributes":{"ID":500536,"DIS_CODE":0,"TOWNNAME":"安南區","LI":"海東里","LIN":"15鄰","STREET":"海環街","SECT":" ","MAREA":" ","LANE":" ","ALLEY":" ","HOUSE_NO":"８４號","E_COORD97":166558.92000000001,"N_COORD97":2548804.25,"ADDRESS":"海環街８４號","OBJECTID":500509},"geometry":{"x":166558.91999999993,"y":2548804.2500000019}},{"attributes":{"ID":500537,"DIS_CODE":0,"TOWNNAME":"仁德區","LI":"保安里","LIN":"15鄰","STREET":"文賢路","SECT":"二段","MAREA":" ","LANE":" ","ALLEY":" ","HOUSE_NO":"２號","E_COORD97":171672.23000000001,"N_COORD97":2535845.3300000001,"ADDRESS":"文賢路二段２號","OBJECTID":500510},"geometry":{"x":171672.23000000231,"y":2535845.3300000019}},{"attributes":{"ID":500538,"DIS_CODE":0,"TOWNNAME":"仁德區","LI":"保安里","LIN":"15鄰","STREET":"文賢路","SECT":"二段","MAREA":" ","LANE":" ","ALLEY":" ","HOUSE_NO":"１４號","E_COORD97":171697.48000000001,"N_COORD97":2535831.0699999998,"ADDRESS":"文賢路二段１４號","OBJECTID":500511},"geometry":{"x":171697.48000000231,"y":2535831.0700000022}},{"attributes":{"ID":500539,"DIS_CODE":0,"TOWNNAME":"仁德區","LI":"保安里","LIN":"15鄰","STREET":"文賢路","SECT":"二段","MAREA":" ","LANE":" ","ALLEY":" ","HOUSE_NO":"３０號","E_COORD97":171732.56,"N_COORD97":2535804.0699999998,"ADDRESS":"文賢路二段３０號","OBJECTID":500512},"geometry":{"x":171732.55999999959,"y":2535804.0700000022}},{"attributes":{"ID":500540,"DIS_CODE":0,"TOWNNAME":"仁德區","LI":"仁德里","LIN":"15鄰","STREET":"仁德一街","SECT":" ","MAREA":" ","LANE":" ","ALLEY":" ","HOUSE_NO":"５５號","E_COORD97":173189.37,"N_COORD97":2541304.7599999998,"ADDRESS":"仁德一街５５號","OBJECTID":500513},"geometry":{"x":173189.37000000011,"y":2541304.7600000016}},{"attributes":{"ID":500541,"DIS_CODE":0,"TOWNNAME":"仁德區","LI":"仁德里","LIN":"15鄰","STREET":"中山路","SECT":" ","MAREA":" ","LANE":" ","ALLEY":" ","HOUSE_NO":"６３９號","E_COORD97":173221.14999999999,"N_COORD97":2541326.2400000002,"ADDRESS":"中山路６３９號","OBJECTID":500514},"geometry":{"x":173221.15000000037,"y":2541326.2400000002}},{"attributes":{"ID":500542,"DIS_CODE":0,"TOWNNAME":"仁德區","LI":"仁德里","LIN":"15鄰","STREET":"仁德一街","SECT":" ","MAREA":" ","LANE":" ","ALLEY":" ","HOUSE_NO":"５９號","E_COORD97":173189.70000000001,"N_COORD97":2541313.0099999998,"ADDRESS":"仁德一街５９號","OBJECTID":500515},"geometry":{"x":173189.70000000112,"y":2541313.0100000016}},{"attributes":{"ID":500543,"DIS_CODE":0,"TOWNNAME":"安平區","LI":"漁光里","LIN":"6鄰","STREET":"漁光路","SECT":" ","MAREA":" ","LANE":" ","ALLEY":" ","HOUSE_NO":"１３５號","E_COORD97":163841.92000000001,"N_COORD97":2542054.9399999999,"ADDRESS":"漁光路１３５號","OBJECTID":500516},"geometry":{"x":163841.92000000179,"y":2542054.9400000013}},{"attributes":{"ID":500544,"DIS_CODE":0,"TOWNNAME":"鹽水區","LI":"橋南里","LIN":"15鄰","STREET":"南門路","SECT":" ","MAREA":" ","LANE":" ","ALLEY":" ","HOUSE_NO":"６號","E_COORD97":175030.72,"N_COORD97":2579459.7400000002,"ADDRESS":"南門路６號","OBJECTID":500517},"geometry":{"x":175030.71999999974,"y":2579459.7400000021}},{"attributes":{"ID":500545,"DIS_CODE":0,"TOWNNAME":"安平區","LI":"育平里","LIN":"38鄰","STREET":"府平路","SECT":" ","MAREA":" ","LANE":" ","ALLEY":" ","HOUSE_NO":"４５７號","E_COORD97":164419.39999999999,"N_COORD97":2543113.3700000001,"ADDRESS":"府平路４５７號","OBJECTID":500518},"geometry":{"x":164419.4000000013,"y":2543113.370000001}},{"attributes":{"ID":500546,"DIS_CODE":0,"TOWNNAME":"東區","LI":"崇善里","LIN":"15鄰","STREET":"崇善十一街","SECT":" ","MAREA":" ","LANE":" ","ALLEY":" ","HOUSE_NO":"１１號","E_COORD97":171166.35000000001,"N_COORD97":2541202.9900000002,"ADDRESS":"崇善十一街１１號","OBJECTID":500519},"geometry":{"x":171166.34999999963,"y":2541202.9900000002}},{"attributes":{"ID":500547,"DIS_CODE":0,"TOWNNAME":"安平區","LI":"億載里","LIN":" ","STREET":"郡平路","SECT":" ","MAREA":" ","LANE":" ","ALLEY":" ","HOUSE_NO":"４４８號","E_COORD97":163987.16,"N_COORD97":2543373.77,"ADDRESS":"郡平路４４８號","OBJECTID":500520},"geometry":{"x":163987.16000000015,"y":2543373.7699999996}},{"attributes":{"ID":500548,"DIS_CODE":0,"TOWNNAME":"安平區","LI":"漁光里","LIN":"1鄰","STREET":"漁光路","SECT":" ","MAREA":" ","LANE":" ","ALLEY":" ","HOUSE_NO":"５３之２號","E_COORD97":164115.87,"N_COORD97":2541747.23,"ADDRESS":"漁光路５３之２號","OBJECTID":500521},"geometry":{"x":164115.87000000104,"y":2541747.2300000004}},{"attributes":{"ID":500549,"DIS_CODE":0,"TOWNNAME":"仁德區","LI":"保安里","LIN":"15鄰","STREET":"中正路","SECT":"一段","MAREA":" ","LANE":" ","ALLEY":" ","HOUSE_NO":"２３２號","E_COORD97":171638.37,"N_COORD97":2535826.52,"ADDRESS":"中正路一段２３２號","OBJECTID":500522},"geometry":{"x":171638.37000000011,"y":2535826.5200000014}},{"attributes":{"ID":500550,"DIS_CODE":0,"TOWNNAME":"安平區","LI":"建平里","LIN":" ","STREET":"建平十七街","SECT":" ","MAREA":" ","LANE":" ","ALLEY":" ","HOUSE_NO":"４５號","E_COORD97":166184.39999999999,"N_COORD97":2544221.25,"ADDRESS":"建平十七街４５號","OBJECTID":500523},"geometry":{"x":166184.40000000037,"y":2544221.25}},{"attributes":{"ID":500551,"DIS_CODE":0,"TOWNNAME":"安平區","LI":"建平里","LIN":" ","STREET":"永華路","SECT":"二段","MAREA":" ","LANE":" ","ALLEY":" ","HOUSE_NO":"２０６號","E_COORD97":166151.79000000001,"N_COORD97":2543399.9300000002,"ADDRESS":"永華路二段２０６號","OBJECTID":500524},"geometry":{"x":166151.7900000019,"y":2543399.9299999997}},{"attributes":{"ID":500552,"DIS_CODE":0,"TOWNNAME":"安平區","LI":"建平里","LIN":" ","STREET":"永華路","SECT":"二段","MAREA":" ","LANE":" ","ALLEY":" ","HOUSE_NO":"２０８號","E_COORD97":166103.32000000001,"N_COORD97":2543410.4500000002,"ADDRESS":"永華路二段２０８號","OBJECTID":500525},"geometry":{"x":166103.32000000123,"y":2543410.4500000011}},{"attributes":{"ID":500553,"DIS_CODE":0,"TOWNNAME":"安平區","LI":"華平里","LIN":"29鄰","STREET":"永華八街","SECT":" ","MAREA":" ","LANE":" ","ALLEY":" ","HOUSE_NO":"１４４號","E_COORD97":165149.57000000001,"N_COORD97":2543617.5600000001,"ADDRESS":"永華八街１４４號","OBJECTID":500526},"geometry":{"x":165149.5700000003,"y":2543617.5600000042}},{"attributes":{"ID":500554,"DIS_CODE":0,"TOWNNAME":"安平區","LI":"華平里","LIN":" ","STREET":"華平路","SECT":" ","MAREA":" ","LANE":" ","ALLEY":" ","HOUSE_NO":"５４１之１號","E_COORD97":165461.82999999999,"N_COORD97":2543894.9399999999,"ADDRESS":"華平路５４１之１號","OBJECTID":500527},"geometry":{"x":165461.83000000101,"y":2543894.9399999995}},{"attributes":{"ID":500555,"DIS_CODE":0,"TOWNNAME":"安平區","LI":"建平里","LIN":"6鄰","STREET":"建平十七街","SECT":" ","MAREA":" ","LANE":" ","ALLEY":" ","HOUSE_NO":"１１９號","E_COORD97":165927.57999999999,"N_COORD97":2544237.71,"ADDRESS":"建平十七街１１９號","OBJECTID":500528},"geometry":{"x":165927.58000000007,"y":2544237.7100000028}},{"attributes":{"ID":500556,"DIS_CODE":0,"TOWNNAME":"安平區","LI":"國平里","LIN":"18鄰","STREET":"永華路","SECT":"二段","MAREA":" ","LANE":" ","ALLEY":" ","HOUSE_NO":"７８５號","E_COORD97":164918.54999999999,"N_COORD97":2543525.0600000001,"ADDRESS":"永華路二段７８５號","OBJECTID":500529},"geometry":{"x":164918.54999999981,"y":2543525.0600000005}},{"attributes":{"ID":500557,"DIS_CODE":0,"TOWNNAME":"安平區","LI":"國平里","LIN":"18鄰","STREET":"永華路","SECT":"二段","MAREA":" ","LANE":" ","ALLEY":" ","HOUSE_NO":"７８７號","E_COORD97":164907.75,"N_COORD97":2543526.0299999998,"ADDRESS":"永華路二段７８７號","OBJECTID":500530},"geometry":{"x":164907.75000000186,"y":2543526.0300000012}},{"attributes":{"ID":500558,"DIS_CODE":0,"TOWNNAME":"安平區","LI":"國平里","LIN":"18鄰","STREET":"永華路","SECT":"二段","MAREA":" ","LANE":" ","ALLEY":" ","HOUSE_NO":"７８９號","E_COORD97":164896.38,"N_COORD97":2543526.2200000002,"ADDRESS":"永華路二段７８９號","OBJECTID":500531},"geometry":{"x":164896.37999999896,"y":2543526.2200000025}},{"attributes":{"ID":500559,"DIS_CODE":0,"TOWNNAME":"安平區","LI":"國平里","LIN":"18鄰","STREET":"永華路","SECT":"二段","MAREA":" ","LANE":" ","ALLEY":" ","HOUSE_NO":"７９１號","E_COORD97":164885.78,"N_COORD97":2543529.1099999999,"ADDRESS":"永華路二段７９１號","OBJECTID":500532},"geometry":{"x":164885.78000000212,"y":2543529.1100000013}},{"attributes":{"ID":500560,"DIS_CODE":0,"TOWNNAME":"仁德區","LI":"新田里","LIN":"15鄰","STREET":"中正路","SECT":"二段","MAREA":" ","LANE":" ","ALLEY":" ","HOUSE_NO":"４７４號","E_COORD97":173329.79000000001,"N_COORD97":2539400.5299999998,"ADDRESS":"中正路二段４７４號","OBJECTID":500533},"geometry":{"x":173329.79000000097,"y":2539400.5300000012}},{"attributes":{"ID":500561,"DIS_CODE":0,"TOWNNAME":"仁德區","LI":"太子里","LIN":"15鄰","STREET":"長興路","SECT":" ","MAREA":" ","LANE":" ","ALLEY":" ","HOUSE_NO":"６９號","E_COORD97":174131.82000000001,"N_COORD97":2543748.2599999998,"ADDRESS":"長興路６９號","OBJECTID":500534},"geometry":{"x":174131.82000000123,"y":2543748.2600000016}},{"attributes":{"ID":500562,"DIS_CODE":0,"TOWNNAME":"安平區","LI":"文平里","LIN":"10鄰","STREET":"永華路","SECT":"二段","MAREA":" ","LANE":" ","ALLEY":" ","HOUSE_NO":"１５１號","E_COORD97":166261.81,"N_COORD97":2543326.0499999998,"ADDRESS":"永華路二段１５１號","OBJECTID":500535},"geometry":{"x":166261.81000000052,"y":2543326.0499999989}},{"attributes":{"ID":500563,"DIS_CODE":0,"TOWNNAME":"安平區","LI":"文平里","LIN":"10鄰","STREET":"永華路","SECT":"二段","MAREA":" ","LANE":" ","ALLEY":" ","HOUSE_NO":"３５７號","E_COORD97":166025.87,"N_COORD97":2543358.4100000001,"ADDRESS":"永華路二段３５７號","OBJECTID":500536},"geometry":{"x":166025.87000000197,"y":2543358.410000002}},{"attributes":{"ID":500564,"DIS_CODE":0,"TOWNNAME":"安平區","LI":"文平里","LIN":"27鄰","STREET":"永華二街","SECT":" ","MAREA":" ","LANE":" ","ALLEY":" ","HOUSE_NO":"４９號","E_COORD97":166337.54999999999,"N_COORD97":2542969.6499999999,"ADDRESS":"永華二街４９號","OBJECTID":500537},"geometry":{"x":166337.54999999981,"y":2542969.6500000022}},{"attributes":{"ID":500565,"DIS_CODE":0,"TOWNNAME":"安平區","LI":"文平里","LIN":"27鄰","STREET":"永華二街","SECT":" ","MAREA":" ","LANE":" ","ALLEY":" ","HOUSE_NO":"５３號","E_COORD97":166338.22,"N_COORD97":2542978.8500000001,"ADDRESS":"永華二街５３號","OBJECTID":500538},"geometry":{"x":166338.21999999881,"y":2542978.8500000015}},{"attributes":{"ID":500566,"DIS_CODE":0,"TOWNNAME":"安平區","LI":"國平里","LIN":"22鄰","STREET":"健康三街","SECT":" ","MAREA":" ","LANE":" ","ALLEY":" ","HOUSE_NO":"２３６號","E_COORD97":164801.70000000001,"N_COORD97":2543483.0699999998,"ADDRESS":"健康三街２３６號","OBJECTID":500539},"geometry":{"x":164801.70000000112,"y":2543483.0700000022}},{"attributes":{"ID":500567,"DIS_CODE":0,"TOWNNAME":"安平區","LI":"育平里","LIN":" ","STREET":"郡平路","SECT":" ","MAREA":" ","LANE":" ","ALLEY":" ","HOUSE_NO":"１８１號","E_COORD97":164638.45000000001,"N_COORD97":2543300.3100000001,"ADDRESS":"郡平路１８１號","OBJECTID":500540},"geometry":{"x":164638.45000000019,"y":2543300.3099999987}},{"attributes":{"ID":500568,"DIS_CODE":0,"TOWNNAME":"安平區","LI":"文平里","LIN":" ","STREET":"中華西路","SECT":"二段","MAREA":" ","LANE":" ","ALLEY":" ","HOUSE_NO":"２１號","E_COORD97":166586.70999999999,"N_COORD97":2543073.52,"ADDRESS":"中華西路二段２１號","OBJECTID":500541},"geometry":{"x":166586.71000000089,"y":2543073.5199999996}},{"attributes":{"ID":500569,"DIS_CODE":0,"TOWNNAME":"安平區","LI":"怡平里","LIN":"15鄰","STREET":"建平十一街","SECT":" ","MAREA":" ","LANE":" ","ALLEY":" ","HOUSE_NO":"２５１號","E_COORD97":165737.62,"N_COORD97":2543963.8799999999,"ADDRESS":"建平十一街２５１號","OBJECTID":500542},"geometry":{"x":165737.62000000197,"y":2543963.8800000008}},{"attributes":{"ID":500570,"DIS_CODE":0,"TOWNNAME":"安平區","LI":"怡平里","LIN":"15鄰","STREET":"建平十一街","SECT":" ","MAREA":" ","LANE":" ","ALLEY":" ","HOUSE_NO":"２５３號","E_COORD97":165733.53,"N_COORD97":2543964.1699999999,"ADDRESS":"建平十一街２５３號","OBJECTID":500543},"geometry":{"x":165733.53000000119,"y":2543964.1699999999}},{"attributes":{"ID":500571,"DIS_CODE":0,"TOWNNAME":"安平區","LI":"怡平里","LIN":"15鄰","STREET":"建平十一街","SECT":" ","MAREA":" ","LANE":" ","ALLEY":" ","HOUSE_NO":"２７５號","E_COORD97":165685.32000000001,"N_COORD97":2543971.1699999999,"ADDRESS":"建平十一街２７５號","OBJECTID":500544},"geometry":{"x":165685.3200000003,"y":2543971.1699999999}},{"attributes":{"ID":500572,"DIS_CODE":0,"TOWNNAME":"安平區","LI":"怡平里","LIN":"15鄰","STREET":"建平十一街","SECT":" ","MAREA":" ","LANE":" ","ALLEY":" ","HOUSE_NO":"２８７號","E_COORD97":165658.73000000001,"N_COORD97":2543974.0899999999,"ADDRESS":"建平十一街２８７號","OBJECTID":500545},"geometry":{"x":165658.73000000045,"y":2543974.0900000017}},{"attributes":{"ID":500573,"DIS_CODE":0,"TOWNNAME":"仁德區","LI":"新田里","LIN":"15鄰","STREET":"北保東路","SECT":" ","MAREA":" ","LANE":" ","ALLEY":" ","HOUSE_NO":"１２號","E_COORD97":173386.29000000001,"N_COORD97":2539401.75,"ADDRESS":"北保東路１２號","OBJECTID":500546},"geometry":{"x":173386.29000000004,"y":2539401.7500000019}},{"attributes":{"ID":500574,"DIS_CODE":0,"TOWNNAME":"仁德區","LI":"太子里","LIN":"15鄰","STREET":"長興路","SECT":" ","MAREA":" ","LANE":" ","ALLEY":" ","HOUSE_NO":"７７號","E_COORD97":174135.88,"N_COORD97":2543767.75,"ADDRESS":"長興路７７號","OBJECTID":500547},"geometry":{"x":174135.88000000082,"y":2543767.75}},{"attributes":{"ID":500575,"DIS_CODE":0,"TOWNNAME":"仁德區","LI":"後壁里","LIN":"15鄰","STREET":"德南路","SECT":" ","MAREA":" ","LANE":" ","ALLEY":" ","HOUSE_NO":"１４３號","E_COORD97":173572.23999999999,"N_COORD97":2538610.7599999998,"ADDRESS":"德南路１４３號","OBJECTID":500548},"geometry":{"x":173572.24000000115,"y":2538610.7599999998}},{"attributes":{"ID":500576,"DIS_CODE":0,"TOWNNAME":"安平區","LI":"怡平里","LIN":"4鄰","STREET":"建平十七街","SECT":" ","MAREA":" ","LANE":" ","ALLEY":" ","HOUSE_NO":"２３３號","E_COORD97":165541.92000000001,"N_COORD97":2544215.2400000002,"ADDRESS":"建平十七街２３３號","OBJECTID":500549},"geometry":{"x":165541.91999999993,"y":2544215.2400000002}},{"attributes":{"ID":500577,"DIS_CODE":0,"TOWNNAME":"仁德區","LI":"新田里","LIN":"15鄰","STREET":"中正路","SECT":"二段","MAREA":" ","LANE":" ","ALLEY":" ","HOUSE_NO":"４３８號","E_COORD97":173302.76000000001,"N_COORD97":2539330.27,"ADDRESS":"中正路二段４３８號","OBJECTID":500550},"geometry":{"x":173302.76000000071,"y":2539330.2700000014}},{"attributes":{"ID":500578,"DIS_CODE":0,"TOWNNAME":"仁德區","LI":"新田里","LIN":"15鄰","STREET":"中正路","SECT":"二段","MAREA":" ","LANE":" ","ALLEY":" ","HOUSE_NO":"４７２號","E_COORD97":173328.72,"N_COORD97":2539396.5299999998,"ADDRESS":"中正路二段４７２號","OBJECTID":500551},"geometry":{"x":173328.71999999974,"y":2539396.5300000012}},{"attributes":{"ID":500579,"DIS_CODE":0,"TOWNNAME":"仁德區","LI":"太子里","LIN":"15鄰","STREET":"長興路","SECT":" ","MAREA":" ","LANE":" ","ALLEY":" ","HOUSE_NO":"７５號","E_COORD97":174134.70000000001,"N_COORD97":2543761.2599999998,"ADDRESS":"長興路７５號","OBJECTID":500552},"geometry":{"x":174134.70000000019,"y":2543761.2600000035}},{"attributes":{"ID":500580,"DIS_CODE":0,"TOWNNAME":"安南區","LI":"理想里","LIN":"15鄰","STREET":"大安街","SECT":" ","MAREA":" ","LANE":" ","ALLEY":" ","HOUSE_NO":"１０５號","E_COORD97":167244.84714299999,"N_COORD97":2548107.4800499999,"ADDRESS":"大安街１０５號","OBJECTID":500553},"geometry":{"x":167244.84714299999,"y":2548107.480045002}},{"attributes":{"ID":500581,"DIS_CODE":0,"TOWNNAME":"安南區","LI":"理想里","LIN":"15鄰","STREET":"大安街","SECT":" ","MAREA":" ","LANE":" ","ALLEY":" ","HOUSE_NO":"１１１號","E_COORD97":167251.51000000001,"N_COORD97":2548120.21,"ADDRESS":"大安街１１１號","OBJECTID":500554},"geometry":{"x":167251.50999999978,"y":2548120.2100000028}},{"attributes":{"ID":500582,"DIS_CODE":0,"TOWNNAME":"安南區","LI":"理想里","LIN":"15鄰","STREET":"大安街","SECT":" ","MAREA":" ","LANE":" ","ALLEY":" ","HOUSE_NO":"１１３號","E_COORD97":167253.92999999999,"N_COORD97":2548124.27,"ADDRESS":"大安街１１３號","OBJECTID":500555},"geometry":{"x":167253.93000000156,"y":2548124.2700000033}},{"attributes":{"ID":500583,"DIS_CODE":0,"TOWNNAME":"安南區","LI":"理想里","LIN":"15鄰","STREET":"大安街","SECT":" ","MAREA":" ","LANE":" ","ALLEY":" ","HOUSE_NO":"１１５號","E_COORD97":167255.88,"N_COORD97":2548128.7799999998,"ADDRESS":"大安街１１５號","OBJECTID":500556},"geometry":{"x":167255.87999999989,"y":2548128.7800000012}},{"attributes":{"ID":500584,"DIS_CODE":0,"TOWNNAME":"安南區","LI":"理想里","LIN":"15鄰","STREET":"大安街","SECT":" ","MAREA":" ","LANE":" ","ALLEY":" ","HOUSE_NO":"１２１號","E_COORD97":167266.88,"N_COORD97":2548140.2200000002,"ADDRESS":"大安街１２１號","OBJECTID":500557},"geometry":{"x":167266.88000000082,"y":2548140.2200000025}},{"attributes":{"ID":500585,"DIS_CODE":0,"TOWNNAME":"安南區","LI":"理想里","LIN":"15鄰","STREET":"大安街","SECT":" ","MAREA":" ","LANE":" ","ALLEY":" ","HOUSE_NO":"１２５號","E_COORD97":167270.95000000001,"N_COORD97":2548147.8900000001,"ADDRESS":"大安街１２５號","OBJECTID":500558},"geometry":{"x":167270.95000000019,"y":2548147.8900000006}},{"attributes":{"ID":500586,"DIS_CODE":0,"TOWNNAME":"安南區","LI":"理想里","LIN":"15鄰","STREET":"大安街","SECT":" ","MAREA":" ","LANE":" ","ALLEY":" ","HOUSE_NO":"１２７號","E_COORD97":167272.60999999999,"N_COORD97":2548152.4100000001,"ADDRESS":"大安街１２７號","OBJECTID":500559},"geometry":{"x":167272.61000000127,"y":2548152.410000002}},{"attributes":{"ID":500587,"DIS_CODE":0,"TOWNNAME":"安南區","LI":"理想里","LIN":"15鄰","STREET":"大安街","SECT":" ","MAREA":" ","LANE":" ","ALLEY":" ","HOUSE_NO":"１２９號","E_COORD97":167273.51000000001,"N_COORD97":2548156.4700000002,"ADDRESS":"大安街１２９號","OBJECTID":500560},"geometry":{"x":167273.50999999978,"y":2548156.4700000007}},{"attributes":{"ID":500588,"DIS_CODE":0,"TOWNNAME":"安平區","LI":"育平里","LIN":"39鄰","STREET":"平豐路","SECT":" ","MAREA":" ","LANE":" ","ALLEY":" ","HOUSE_NO":"２４號","E_COORD97":164351.73999999999,"N_COORD97":2542958.6299999999,"ADDRESS":"平豐路２４號","OBJECTID":500561},"geometry":{"x":164351.74000000022,"y":2542958.6300000008}},{"attributes":{"ID":500589,"DIS_CODE":0,"TOWNNAME":"安平區","LI":"億載里","LIN":"17鄰","STREET":"健康四街","SECT":" ","MAREA":" ","LANE":" ","ALLEY":" ","HOUSE_NO":"７６號","E_COORD97":164194.5,"N_COORD97":2543138.6000000001,"ADDRESS":"健康四街７６號","OBJECTID":500562},"geometry":{"x":164194.50000000093,"y":2543138.6000000015}},{"attributes":{"ID":500590,"DIS_CODE":0,"TOWNNAME":"安平區","LI":"億載里","LIN":"17鄰","STREET":"健康四街","SECT":" ","MAREA":" ","LANE":" ","ALLEY":" ","HOUSE_NO":"７８號","E_COORD97":164194.5,"N_COORD97":2543143.4900000002,"ADDRESS":"健康四街７８號","OBJECTID":500563},"geometry":{"x":164194.50000000093,"y":2543143.4900000021}},{"attributes":{"ID":500591,"DIS_CODE":0,"TOWNNAME":"安平區","LI":"億載里","LIN":"6鄰","STREET":"永華十一街","SECT":" ","MAREA":" ","LANE":" ","ALLEY":" ","HOUSE_NO":"１３０號","E_COORD97":164088.17999999999,"N_COORD97":2543730.7200000002,"ADDRESS":"永華十一街１３０號","OBJECTID":500564},"geometry":{"x":164088.18000000063,"y":2543730.7200000007}},{"attributes":{"ID":500592,"DIS_CODE":0,"TOWNNAME":"安平區","LI":"億載里","LIN":"6鄰","STREET":"永華十一街","SECT":" ","MAREA":" ","LANE":" ","ALLEY":" ","HOUSE_NO":"１３２號","E_COORD97":164089.01999999999,"N_COORD97":2543735.7999999998,"ADDRESS":"永華十一街１３２號","OBJECTID":500565},"geometry":{"x":164089.02000000048,"y":2543735.8000000026}},{"attributes":{"ID":500593,"DIS_CODE":0,"TOWNNAME":"安平區","LI":"億載里","LIN":"11鄰","STREET":"郡平路","SECT":" ","MAREA":" ","LANE":" ","ALLEY":" ","HOUSE_NO":"３７８號","E_COORD97":164053.41,"N_COORD97":2543376.79,"ADDRESS":"郡平路３７８號","OBJECTID":500566},"geometry":{"x":164053.41000000015,"y":2543376.7899999991}},{"attributes":{"ID":500594,"DIS_CODE":0,"TOWNNAME":"安平區","LI":"億載里","LIN":" ","STREET":"郡平路","SECT":" ","MAREA":" ","LANE":" ","ALLEY":" ","HOUSE_NO":"３９０號","E_COORD97":164017.81,"N_COORD97":2543374.8500000001,"ADDRESS":"郡平路３９０號","OBJECTID":500567},"geometry":{"x":164017.80999999959,"y":2543374.8500000015}},{"attributes":{"ID":500595,"DIS_CODE":0,"TOWNNAME":"安平區","LI":"億載里","LIN":" ","STREET":"郡平路","SECT":" ","MAREA":" ","LANE":" ","ALLEY":" ","HOUSE_NO":"３８８號","E_COORD97":164032.59,"N_COORD97":2543375.21,"ADDRESS":"郡平路３８８號","OBJECTID":500568},"geometry":{"x":164032.59000000078,"y":2543375.2100000009}},{"attributes":{"ID":500596,"DIS_CODE":0,"TOWNNAME":"安平區","LI":"億載里","LIN":" ","STREET":"光州五街","SECT":" ","MAREA":" ","LANE":" ","ALLEY":" ","HOUSE_NO":"２１號","E_COORD97":163959.04000000001,"N_COORD97":2543306.6699999999,"ADDRESS":"光州五街２１號","OBJECTID":500569},"geometry":{"x":163959.04000000004,"y":2543306.6699999999}},{"attributes":{"ID":500597,"DIS_CODE":0,"TOWNNAME":"安平區","LI":"國平里","LIN":"7鄰","STREET":"建平三街","SECT":" ","MAREA":" ","LANE":" ","ALLEY":" ","HOUSE_NO":"２２２號","E_COORD97":165393.59,"N_COORD97":2542973.6299999999,"ADDRESS":"建平三街２２２號","OBJECTID":500570},"geometry":{"x":165393.59000000078,"y":2542973.629999999}},{"attributes":{"ID":500598,"DIS_CODE":0,"TOWNNAME":"中西區","LI":"西賢里","LIN":"15鄰","STREET":"西賢一街","SECT":" ","MAREA":" ","LANE":" ","ALLEY":" ","HOUSE_NO":"２６０號","E_COORD97":165699.62,"N_COORD97":2545031.8900000001,"ADDRESS":"西賢一街２６０號","OBJECTID":500571},"geometry":{"x":165699.62000000011,"y":2545031.8900000006}},{"attributes":{"ID":500599,"DIS_CODE":0,"TOWNNAME":"中西區","LI":"西賢里","LIN":"15鄰","STREET":"西賢一街","SECT":" ","MAREA":" ","LANE":" ","ALLEY":" ","HOUSE_NO":"２６２號","E_COORD97":165699.29000000001,"N_COORD97":2545037.27,"ADDRESS":"西賢一街２６２號","OBJECTID":500572},"geometry":{"x":165699.29000000097,"y":2545037.2700000014}},{"attributes":{"ID":500600,"DIS_CODE":0,"TOWNNAME":"中西區","LI":"西賢里","LIN":"15鄰","STREET":"西賢一街","SECT":" ","MAREA":" ","LANE":" ","ALLEY":" ","HOUSE_NO":"２６６號","E_COORD97":165698.79999999999,"N_COORD97":2545042.6600000001,"ADDRESS":"西賢一街２６６號","OBJECTID":500573},"geometry":{"x":165698.80000000168,"y":2545042.6600000001}},{"attributes":{"ID":500601,"DIS_CODE":0,"TOWNNAME":"中西區","LI":"西賢里","LIN":"15鄰","STREET":"西賢一街","SECT":" ","MAREA":" ","LANE":" ","ALLEY":" ","HOUSE_NO":"２６８號","E_COORD97":165698.14999999999,"N_COORD97":2545048.3700000001,"ADDRESS":"西賢一街２６８號","OBJECTID":500574},"geometry":{"x":165698.15000000037,"y":2545048.3700000029}},{"attributes":{"ID":500602,"DIS_CODE":0,"TOWNNAME":"中西區","LI":"西賢里","LIN":"15鄰","STREET":"西賢一街","SECT":" ","MAREA":" ","LANE":" ","ALLEY":" ","HOUSE_NO":"２７０號","E_COORD97":165699.78,"N_COORD97":2545059.46,"ADDRESS":"西賢一街２７０號","OBJECTID":500575},"geometry":{"x":165699.78000000119,"y":2545059.4600000046}},{"attributes":{"ID":500603,"DIS_CODE":0,"TOWNNAME":"中西區","LI":"西賢里","LIN":"15鄰","STREET":"和緯路","SECT":"五段","MAREA":" ","LANE":" ","ALLEY":" ","HOUSE_NO":"３２９號","E_COORD97":165786.64999999999,"N_COORD97":2545072.73,"ADDRESS":"和緯路五段３２９號","OBJECTID":500576},"geometry":{"x":165786.65000000037,"y":2545072.7300000004}},{"attributes":{"ID":500604,"DIS_CODE":0,"TOWNNAME":"中西區","LI":"西賢里","LIN":"15鄰","STREET":"和緯路","SECT":"五段","MAREA":" ","LANE":" ","ALLEY":" ","HOUSE_NO":"３３１號","E_COORD97":165776.47,"N_COORD97":2545073.4700000002,"ADDRESS":"和緯路五段３３１號","OBJECTID":500577},"geometry":{"x":165776.46999999974,"y":2545073.4700000025}},{"attributes":{"ID":500605,"DIS_CODE":0,"TOWNNAME":"中西區","LI":"西賢里","LIN":"15鄰","STREET":"和緯路","SECT":"五段","MAREA":" ","LANE":" ","ALLEY":" ","HOUSE_NO":"３４９號","E_COORD97":165729.34,"N_COORD97":2545074.3900000001,"ADDRESS":"和緯路五段３４９號","OBJECTID":500578},"geometry":{"x":165729.34000000078,"y":2545074.3900000025}},{"attributes":{"ID":500606,"DIS_CODE":0,"TOWNNAME":"中西區","LI":"西賢里","LIN":"15鄰","STREET":"和緯路","SECT":"五段","MAREA":" ","LANE":" ","ALLEY":" ","HOUSE_NO":"３５１號","E_COORD97":165724.14999999999,"N_COORD97":2545074.9500000002,"ADDRESS":"和緯路五段３５１號","OBJECTID":500579},"geometry":{"x":165724.15000000224,"y":2545074.950000003}},{"attributes":{"ID":500607,"DIS_CODE":0,"TOWNNAME":"中西區","LI":"西賢里","LIN":"15鄰","STREET":"和緯路","SECT":"五段","MAREA":" ","LANE":" ","ALLEY":" ","HOUSE_NO":"３５３號","E_COORD97":165719.34,"N_COORD97":2545075.3199999998,"ADDRESS":"和緯路五段３５３號","OBJECTID":500580},"geometry":{"x":165719.34000000078,"y":2545075.3200000003}},{"attributes":{"ID":500608,"DIS_CODE":0,"TOWNNAME":"中西區","LI":"西賢里","LIN":"15鄰","STREET":"和緯路","SECT":"五段","MAREA":" ","LANE":" ","ALLEY":" ","HOUSE_NO":"３５５號","E_COORD97":165715.07999999999,"N_COORD97":2545075.5,"ADDRESS":"和緯路五段３５５號","OBJECTID":500581},"geometry":{"x":165715.08000000007,"y":2545075.5000000037}},{"attributes":{"ID":500609,"DIS_CODE":0,"TOWNNAME":"中西區","LI":"西賢里","LIN":"15鄰","STREET":"和緯路","SECT":"五段","MAREA":" ","LANE":" ","ALLEY":" ","HOUSE_NO":"３５７號","E_COORD97":165711.37,"N_COORD97":2545076.0600000001,"ADDRESS":"和緯路五段３５７號","OBJECTID":500582},"geometry":{"x":165711.37000000011,"y":2545076.0600000024}},{"attributes":{"ID":500610,"DIS_CODE":0,"TOWNNAME":"中西區","LI":"西賢里","LIN":"15鄰","STREET":"和緯路","SECT":"五段","MAREA":" ","LANE":" ","ALLEY":" ","HOUSE_NO":"３５９號","E_COORD97":165706.92999999999,"N_COORD97":2545076.2400000002,"ADDRESS":"和緯路五段３５９號","OBJECTID":500583},"geometry":{"x":165706.93000000063,"y":2545076.2400000002}},{"attributes":{"ID":500611,"DIS_CODE":0,"TOWNNAME":"中西區","LI":"西賢里","LIN":"15鄰","STREET":"和緯路","SECT":"五段","MAREA":" ","LANE":" ","ALLEY":" ","HOUSE_NO":"３６１號","E_COORD97":165701.37,"N_COORD97":2545076.2400000002,"ADDRESS":"和緯路五段３６１號","OBJECTID":500584},"geometry":{"x":165701.37000000011,"y":2545076.2400000002}},{"attributes":{"ID":500612,"DIS_CODE":0,"TOWNNAME":"中西區","LI":"西賢里","LIN":"15鄰","STREET":"和緯路","SECT":"五段","MAREA":" ","LANE":" ","ALLEY":" ","HOUSE_NO":"３６３號","E_COORD97":165696.56,"N_COORD97":2545076.2400000002,"ADDRESS":"和緯路五段３６３號","OBJECTID":500585},"geometry":{"x":165696.55999999959,"y":2545076.2400000002}},{"attributes":{"ID":500613,"DIS_CODE":0,"TOWNNAME":"中西區","LI":"藥王里","LIN":"15鄰","STREET":"民權路","SECT":"三段","MAREA":" ","LANE":" ","ALLEY":" ","HOUSE_NO":"３６４號","E_COORD97":166926.17000000001,"N_COORD97":2544367.3900000001,"ADDRESS":"民權路三段３６４號","OBJECTID":500586},"geometry":{"x":166926.17000000086,"y":2544367.3900000006}},{"attributes":{"ID":500614,"DIS_CODE":0,"TOWNNAME":"中西區","LI":"藥王里","LIN":"15鄰","STREET":"民權路","SECT":"三段","MAREA":" ","LANE":" ","ALLEY":" ","HOUSE_NO":"４２８號","E_COORD97":166789.16,"N_COORD97":2544415.77,"ADDRESS":"民權路三段４２８號","OBJECTID":500587},"geometry":{"x":166789.16000000108,"y":2544415.7700000014}},{"attributes":{"ID":500615,"DIS_CODE":0,"TOWNNAME":"中西區","LI":"藥王里","LIN":"15鄰","STREET":"民權路","SECT":"三段","MAREA":" ","LANE":" ","ALLEY":" ","HOUSE_NO":"４３０號","E_COORD97":166781.42000000001,"N_COORD97":2544416.8700000001,"ADDRESS":"民權路三段４３０號","OBJECTID":500588},"geometry":{"x":166781.42000000179,"y":2544416.8700000029}},{"attributes":{"ID":500616,"DIS_CODE":0,"TOWNNAME":"中西區","LI":"藥王里","LIN":"15鄰","STREET":"民權路","SECT":"三段","MAREA":" ","LANE":" ","ALLEY":" ","HOUSE_NO":"４３４號","E_COORD97":166773.69,"N_COORD97":2544417.9700000002,"ADDRESS":"民權路三段４３４號","OBJECTID":500589},"geometry":{"x":166773.69000000134,"y":2544417.9700000007}},{"attributes":{"ID":500617,"DIS_CODE":0,"TOWNNAME":"新營區","LI":"新東里","LIN":"7鄰","STREET":"東學路","SECT":" ","MAREA":" ","LANE":"１４８巷","ALLEY":"１弄","HOUSE_NO":"８號","E_COORD97":181159.07999999999,"N_COORD97":2579320.6699999999,"ADDRESS":"東學路１４８巷１弄８號","OBJECTID":500590},"geometry":{"x":181159.08000000194,"y":2579320.6700000018}},{"attributes":{"ID":500618,"DIS_CODE":0,"TOWNNAME":"永康區","LI":"東橋里","LIN":"15鄰","STREET":"東橋七路","SECT":" ","MAREA":" ","LANE":" ","ALLEY":" ","HOUSE_NO":"１７３號","E_COORD97":171800.75,"N_COORD97":2546788.5499999998,"ADDRESS":"東橋七路１７３號","OBJECTID":500591},"geometry":{"x":171800.75000000093,"y":2546788.5500000026}},{"attributes":{"ID":500619,"DIS_CODE":0,"TOWNNAME":"永康區","LI":"東橋里","LIN":"15鄰","STREET":"東橋七路","SECT":" ","MAREA":" ","LANE":" ","ALLEY":" ","HOUSE_NO":"１７５號","E_COORD97":171798.97,"N_COORD97":2546792.5499999998,"ADDRESS":"東橋七路１７５號","OBJECTID":500592},"geometry":{"x":171798.97000000067,"y":2546792.5500000026}},{"attributes":{"ID":500620,"DIS_CODE":0,"TOWNNAME":"永康區","LI":"東橋里","LIN":"15鄰","STREET":"東橋七路","SECT":" ","MAREA":" ","LANE":" ","ALLEY":" ","HOUSE_NO":"１７７號","E_COORD97":171797.23000000001,"N_COORD97":2546797.2000000002,"ADDRESS":"東橋七路１７７號","OBJECTID":500593},"geometry":{"x":171797.23000000045,"y":2546797.1999999993}},{"attributes":{"ID":500621,"DIS_CODE":0,"TOWNNAME":"永康區","LI":"東橋里","LIN":"15鄰","STREET":"東橋七路","SECT":" ","MAREA":" ","LANE":" ","ALLEY":" ","HOUSE_NO":"１７９號","E_COORD97":171795.48999999999,"N_COORD97":2546801.5899999999,"ADDRESS":"東橋七路１７９號","OBJECTID":500594},"geometry":{"x":171795.49000000209,"y":2546801.5900000017}},{"attributes":{"ID":500622,"DIS_CODE":0,"TOWNNAME":"永康區","LI":"東橋里","LIN":"15鄰","STREET":"東橋二街","SECT":" ","MAREA":" ","LANE":" ","ALLEY":" ","HOUSE_NO":"１１１號","E_COORD97":171825.89999999999,"N_COORD97":2546564.9399999999,"ADDRESS":"東橋二街１１１號","OBJECTID":500595},"geometry":{"x":171825.9000000013,"y":2546564.9400000013}},{"attributes":{"ID":500623,"DIS_CODE":0,"TOWNNAME":"永康區","LI":"東橋里","LIN":"15鄰","STREET":"東橋二街","SECT":" ","MAREA":" ","LANE":" ","ALLEY":" ","HOUSE_NO":"１１３號","E_COORD97":171829.97,"N_COORD97":2546568.1899999999,"ADDRESS":"東橋二街１１３號","OBJECTID":500596},"geometry":{"x":171829.96999999974,"y":2546568.1899999995}},{"attributes":{"ID":500624,"DIS_CODE":0,"TOWNNAME":"永康區","LI":"東橋里","LIN":"15鄰","STREET":"東橋二街","SECT":" ","MAREA":" ","LANE":" ","ALLEY":" ","HOUSE_NO":"１１５號","E_COORD97":171834.20999999999,"N_COORD97":2546571.4399999999,"ADDRESS":"東橋二街１１５號","OBJECTID":500597},"geometry":{"x":171834.20999999996,"y":2546571.4400000013}},{"attributes":{"ID":500625,"DIS_CODE":0,"TOWNNAME":"永康區","LI":"東橋里","LIN":"15鄰","STREET":"東橋二街","SECT":" ","MAREA":" ","LANE":" ","ALLEY":" ","HOUSE_NO":"１１７號","E_COORD97":171838.35999999999,"N_COORD97":2546574.71,"ADDRESS":"東橋二街１１７號","OBJECTID":500598},"geometry":{"x":171838.36000000034,"y":2546574.7100000028}},{"attributes":{"ID":500626,"DIS_CODE":0,"TOWNNAME":"永康區","LI":"東橋里","LIN":"15鄰","STREET":"東橋二街","SECT":" ","MAREA":" ","LANE":" ","ALLEY":" ","HOUSE_NO":"１１９號","E_COORD97":171842.56,"N_COORD97":2546578.1099999999,"ADDRESS":"東橋二街１１９號","OBJECTID":500599},"geometry":{"x":171842.56000000052,"y":2546578.1099999994}},{"attributes":{"ID":500627,"DIS_CODE":0,"TOWNNAME":"永康區","LI":"東橋里","LIN":"15鄰","STREET":"東橋二街","SECT":" ","MAREA":" ","LANE":" ","ALLEY":" ","HOUSE_NO":"１２１號","E_COORD97":171847.54999999999,"N_COORD97":2546582.0099999998,"ADDRESS":"東橋二街１２１號","OBJECTID":500600},"geometry":{"x":171847.55000000075,"y":2546582.0099999998}}]}