{"displayFieldName":"TOWNNAME","fieldAliases":{"ID":"ID","DIS_CODE":"DIS_CODE","TOWNNAME":"TOWNNAME","LI":"LI","LIN":"LIN","STREET":"STREET","SECT":"SECT","MAREA":"MAREA","LANE":"LANE","ALLEY":"ALLEY","HOUSE_NO":"HOUSE_NO","E_COORD97":"E_COORD97","N_COORD97":"N_COORD97","ADDRESS":"ADDRESS","OBJECTID":"OBJECTID"},"geometryType":"esriGeometryPoint","spatialReference":{"wkid":102443,"latestWkid":3826},"fields":[{"name":"ID","type":"esriFieldTypeDouble","alias":"ID"},{"name":"DIS_CODE","type":"esriFieldTypeInteger","alias":"DIS_CODE"},{"name":"TOWNNAME","type":"esriFieldTypeString","alias":"TOWNNAME","length":8},{"name":"LI","type":"esriFieldTypeString","alias":"LI","length":8},{"name":"LIN","type":"esriFieldTypeString","alias":"LIN","length":12},{"name":"STREET","type":"esriFieldTypeString","alias":"STREET","length":20},{"name":"SECT","type":"esriFieldTypeString","alias":"SECT","length":8},{"name":"MAREA","type":"esriFieldTypeString","alias":"MAREA","length":12},{"name":"LANE","type":"esriFieldTypeString","alias":"LANE","length":10},{"name":"ALLEY","type":"esriFieldTypeString","alias":"ALLEY","length":10},{"name":"HOUSE_NO","type":"esriFieldTypeString","alias":"HOUSE_NO","length":20},{"name":"E_COORD97","type":"esriFieldTypeDouble","alias":"E_COORD97"},{"name":"N_COORD97","type":"esriFieldTypeDouble","alias":"N_COORD97"},{"name":"ADDRESS","type":"esriFieldTypeString","alias":"ADDRESS","length":50},{"name":"OBJECTID","type":"esriFieldTypeOID","alias":"OBJECTID"}],"features":[{"attributes":{"ID":428426,"DIS_CODE":0,"TOWNNAME":"永康區","LI":"五王里","LIN":"18鄰","STREET":"成功路","SECT":" ","MAREA":" ","LANE":"１７２巷","ALLEY":" ","HOUSE_NO":"４５號","E_COORD97":171540.60999999999,"N_COORD97":2545693.27,"ADDRESS":"成功路１７２巷４５號","OBJECTID":428401},"geometry":{"x":171540.6100000022,"y":2545693.2700000033}},{"attributes":{"ID":428427,"DIS_CODE":0,"TOWNNAME":"永康區","LI":"三合里","LIN":"20鄰","STREET":"南工街","SECT":" ","MAREA":" ","LANE":"２６９巷","ALLEY":" ","HOUSE_NO":"６號","E_COORD97":171851.54000000001,"N_COORD97":2545974.9900000002,"ADDRESS":"南工街２６９巷６號","OBJECTID":428402},"geometry":{"x":171851.54000000097,"y":2545974.9900000021}},{"attributes":{"ID":428428,"DIS_CODE":0,"TOWNNAME":"永康區","LI":"中興里","LIN":"20鄰","STREET":"中華路","SECT":" ","MAREA":" ","LANE":"２１６巷","ALLEY":" ","HOUSE_NO":"５３號","E_COORD97":171882.04000000001,"N_COORD97":2545165.5,"ADDRESS":"中華路２１６巷５３號","OBJECTID":428403},"geometry":{"x":171882.04000000097,"y":2545165.5}},{"attributes":{"ID":428429,"DIS_CODE":0,"TOWNNAME":"永康區","LI":"中興里","LIN":"13鄰","STREET":"中興街","SECT":" ","MAREA":" ","LANE":"６４巷","ALLEY":" ","HOUSE_NO":"１８號","E_COORD97":172131.07000000001,"N_COORD97":2545303.5,"ADDRESS":"中興街６４巷１８號","OBJECTID":428404},"geometry":{"x":172131.07000000123,"y":2545303.5000000019}},{"attributes":{"ID":428430,"DIS_CODE":0,"TOWNNAME":"永康區","LI":"中興里","LIN":"13鄰","STREET":"中興街","SECT":" ","MAREA":" ","LANE":"５２巷","ALLEY":" ","HOUSE_NO":"３號","E_COORD97":172107.76999999999,"N_COORD97":2545252.2400000002,"ADDRESS":"中興街５２巷３號","OBJECTID":428405},"geometry":{"x":172107.76999999955,"y":2545252.2400000002}},{"attributes":{"ID":428431,"DIS_CODE":0,"TOWNNAME":"永康區","LI":"大灣里","LIN":"14鄰","STREET":"大灣路","SECT":" ","MAREA":" ","LANE":"２８８巷","ALLEY":" ","HOUSE_NO":"２３號","E_COORD97":174849.25,"N_COORD97":2545275.7999999998,"ADDRESS":"大灣路２８８巷２３號","OBJECTID":428406},"geometry":{"x":174849.25,"y":2545275.8000000007}},{"attributes":{"ID":428432,"DIS_CODE":0,"TOWNNAME":"永康區","LI":"王行里","LIN":"4鄰","STREET":"育樂街","SECT":" ","MAREA":" ","LANE":"１３９巷","ALLEY":" ","HOUSE_NO":"１９號","E_COORD97":175109.41,"N_COORD97":2548283.2000000002,"ADDRESS":"育樂街１３９巷１９號","OBJECTID":428407},"geometry":{"x":175109.41000000015,"y":2548283.1999999993}},{"attributes":{"ID":428433,"DIS_CODE":0,"TOWNNAME":"永康區","LI":"大灣里","LIN":"4鄰","STREET":"大同街","SECT":" ","MAREA":" ","LANE":"２１８巷","ALLEY":" ","HOUSE_NO":"１８號","E_COORD97":174864.81,"N_COORD97":2545669.6299999999,"ADDRESS":"大同街２１８巷１８號","OBJECTID":428408},"geometry":{"x":174864.81000000052,"y":2545669.629999999}},{"attributes":{"ID":428434,"DIS_CODE":0,"TOWNNAME":"永康區","LI":"二王里","LIN":"25鄰","STREET":"中山南路","SECT":" ","MAREA":" ","LANE":"５４４巷","ALLEY":" ","HOUSE_NO":"８７號","E_COORD97":172334.76000000001,"N_COORD97":2546278.73,"ADDRESS":"中山南路５４４巷８７號","OBJECTID":428409},"geometry":{"x":172334.76000000071,"y":2546278.7300000023}},{"attributes":{"ID":428435,"DIS_CODE":0,"TOWNNAME":"永康區","LI":"大灣里","LIN":"13鄰","STREET":"大灣路","SECT":" ","MAREA":" ","LANE":"２１５巷","ALLEY":" ","HOUSE_NO":"２０號","E_COORD97":175025.29999999999,"N_COORD97":2545305.5,"ADDRESS":"大灣路２１５巷２０號","OBJECTID":428410},"geometry":{"x":175025.29999999981,"y":2545305.5}},{"attributes":{"ID":428436,"DIS_CODE":0,"TOWNNAME":"永康區","LI":"大橋里","LIN":"13鄰","STREET":"大橋二街","SECT":" ","MAREA":" ","LANE":"２３９巷","ALLEY":" ","HOUSE_NO":"２６號","E_COORD97":171078.60999999999,"N_COORD97":2546879.4900000002,"ADDRESS":"大橋二街２３９巷２６號","OBJECTID":428411},"geometry":{"x":171078.61000000127,"y":2546879.4900000039}},{"attributes":{"ID":428437,"DIS_CODE":0,"TOWNNAME":"永康區","LI":"崑山里","LIN":"5鄰","STREET":"崑大路","SECT":" ","MAREA":" ","LANE":"１５５巷","ALLEY":" ","HOUSE_NO":"１號","E_COORD97":173613.23999999999,"N_COORD97":2544259.4300000002,"ADDRESS":"崑大路１５５巷１號","OBJECTID":428412},"geometry":{"x":173613.24000000115,"y":2544259.4300000016}},{"attributes":{"ID":428438,"DIS_CODE":0,"TOWNNAME":"永康區","LI":"五王里","LIN":"18鄰","STREET":"成功路","SECT":" ","MAREA":" ","LANE":"１７２巷","ALLEY":" ","HOUSE_NO":"７５號","E_COORD97":171547.44,"N_COORD97":2545760.3799999999,"ADDRESS":"成功路１７２巷７５號","OBJECTID":428413},"geometry":{"x":171547.44000000134,"y":2545760.3800000008}},{"attributes":{"ID":428439,"DIS_CODE":0,"TOWNNAME":"永康區","LI":"勝利里","LIN":"18鄰","STREET":"中華一路","SECT":" ","MAREA":" ","LANE":"３２４巷","ALLEY":" ","HOUSE_NO":"２８號","E_COORD97":171234.53,"N_COORD97":2545084.3799999999,"ADDRESS":"中華一路３２４巷２８號","OBJECTID":428414},"geometry":{"x":171234.53000000119,"y":2545084.379999999}},{"attributes":{"ID":428440,"DIS_CODE":0,"TOWNNAME":"永康區","LI":"勝利里","LIN":"24鄰","STREET":"勝利街","SECT":" ","MAREA":" ","LANE":"１１６巷","ALLEY":" ","HOUSE_NO":"１０號","E_COORD97":171392.37,"N_COORD97":2544861.7599999998,"ADDRESS":"勝利街１１６巷１０號","OBJECTID":428415},"geometry":{"x":171392.37000000011,"y":2544861.7599999998}},{"attributes":{"ID":428441,"DIS_CODE":0,"TOWNNAME":"永康區","LI":"崑山里","LIN":"14鄰","STREET":"大灣路","SECT":" ","MAREA":" ","LANE":"９７０巷","ALLEY":" ","HOUSE_NO":"３３號","E_COORD97":173544.85000000001,"N_COORD97":2544498.2200000002,"ADDRESS":"大灣路９７０巷３３號","OBJECTID":428416},"geometry":{"x":173544.84999999963,"y":2544498.2200000044}},{"attributes":{"ID":428442,"DIS_CODE":0,"TOWNNAME":"永康區","LI":"勝利里","LIN":"17鄰","STREET":"中華一路","SECT":" ","MAREA":" ","LANE":"２８３巷","ALLEY":" ","HOUSE_NO":"１６號","E_COORD97":171257.95000000001,"N_COORD97":2544950.2400000002,"ADDRESS":"中華一路２８３巷１６號","OBJECTID":428417},"geometry":{"x":171257.95000000019,"y":2544950.2400000002}},{"attributes":{"ID":428443,"DIS_CODE":0,"TOWNNAME":"永康區","LI":"勝利里","LIN":"18鄰","STREET":"中華一路","SECT":" ","MAREA":" ","LANE":"３２４巷","ALLEY":" ","HOUSE_NO":"２６號","E_COORD97":171234.39000000001,"N_COORD97":2545080.1299999999,"ADDRESS":"中華一路３２４巷２６號","OBJECTID":428418},"geometry":{"x":171234.38999999873,"y":2545080.1300000027}},{"attributes":{"ID":428444,"DIS_CODE":0,"TOWNNAME":"永康區","LI":"勝利里","LIN":"18鄰","STREET":"中華一路","SECT":" ","MAREA":" ","LANE":"３２４巷","ALLEY":" ","HOUSE_NO":"２５號","E_COORD97":171219.89000000001,"N_COORD97":2545081.3799999999,"ADDRESS":"中華一路３２４巷２５號","OBJECTID":428419},"geometry":{"x":171219.8900000006,"y":2545081.379999999}},{"attributes":{"ID":428445,"DIS_CODE":0,"TOWNNAME":"永康區","LI":"崑山里","LIN":"25鄰","STREET":"大仁街","SECT":" ","MAREA":" ","LANE":"５１巷","ALLEY":" ","HOUSE_NO":"２０號","E_COORD97":173729.87,"N_COORD97":2544683.3900000001,"ADDRESS":"大仁街５１巷２０號","OBJECTID":428420},"geometry":{"x":173729.87000000011,"y":2544683.3900000043}},{"attributes":{"ID":428446,"DIS_CODE":0,"TOWNNAME":"永康區","LI":"埔園里","LIN":"39鄰","STREET":"聖龍街","SECT":" ","MAREA":" ","LANE":"１６５巷","ALLEY":" ","HOUSE_NO":"９號","E_COORD97":174273.64000000001,"N_COORD97":2547891.7999999998,"ADDRESS":"聖龍街１６５巷９號","OBJECTID":428421},"geometry":{"x":174273.63999999966,"y":2547891.8000000026}},{"attributes":{"ID":428447,"DIS_CODE":0,"TOWNNAME":"安南區","LI":"原佃里","LIN":"4鄰","STREET":"本原街","SECT":"一段","MAREA":" ","LANE":"９４巷","ALLEY":" ","HOUSE_NO":"１５號","E_COORD97":167978.03,"N_COORD97":2550214.6000000001,"ADDRESS":"本原街一段９４巷１５號","OBJECTID":428422},"geometry":{"x":167978.03000000119,"y":2550214.6000000015}},{"attributes":{"ID":428448,"DIS_CODE":0,"TOWNNAME":"安南區","LI":"原佃里","LIN":"4鄰","STREET":"本原街","SECT":"一段","MAREA":" ","LANE":"７６巷","ALLEY":" ","HOUSE_NO":"１３號","E_COORD97":168048.37,"N_COORD97":2550235.71,"ADDRESS":"本原街一段７６巷１３號","OBJECTID":428423},"geometry":{"x":168048.37000000104,"y":2550235.7100000028}},{"attributes":{"ID":428449,"DIS_CODE":0,"TOWNNAME":"安南區","LI":"原佃里","LIN":"4鄰","STREET":"本原街","SECT":"一段","MAREA":" ","LANE":"７６巷","ALLEY":" ","HOUSE_NO":"１５號","E_COORD97":168047.44,"N_COORD97":2550241.1600000001,"ADDRESS":"本原街一段７６巷１５號","OBJECTID":428424},"geometry":{"x":168047.44000000041,"y":2550241.1600000039}},{"attributes":{"ID":428450,"DIS_CODE":0,"TOWNNAME":"安南區","LI":"原佃里","LIN":"4鄰","STREET":"本原街","SECT":"一段","MAREA":" ","LANE":"９４巷","ALLEY":" ","HOUSE_NO":"７號","E_COORD97":167980.39000000001,"N_COORD97":2550196.6600000001,"ADDRESS":"本原街一段９４巷７號","OBJECTID":428425},"geometry":{"x":167980.3900000006,"y":2550196.6600000001}},{"attributes":{"ID":428451,"DIS_CODE":0,"TOWNNAME":"安南區","LI":"原佃里","LIN":"4鄰","STREET":"本原街","SECT":"一段","MAREA":" ","LANE":"９４巷","ALLEY":" ","HOUSE_NO":"９號","E_COORD97":167980.28,"N_COORD97":2550200.9399999999,"ADDRESS":"本原街一段９４巷９號","OBJECTID":428426},"geometry":{"x":167980.28000000119,"y":2550200.9399999995}},{"attributes":{"ID":428452,"DIS_CODE":0,"TOWNNAME":"安南區","LI":"海西里","LIN":"4鄰","STREET":"海中街","SECT":" ","MAREA":" ","LANE":"１２１巷","ALLEY":" ","HOUSE_NO":"６８號","E_COORD97":166259.38,"N_COORD97":2548998.1000000001,"ADDRESS":"海中街１２１巷６８號","OBJECTID":428427},"geometry":{"x":166259.38000000175,"y":2548998.1000000015}},{"attributes":{"ID":428453,"DIS_CODE":0,"TOWNNAME":"安南區","LI":"安富里","LIN":"19鄰","STREET":"安富街","SECT":" ","MAREA":" ","LANE":"２４５巷","ALLEY":" ","HOUSE_NO":"１１號","E_COORD97":167592.29999999999,"N_COORD97":2547420.1800000002,"ADDRESS":"安富街２４５巷１１號","OBJECTID":428428},"geometry":{"x":167592.30000000168,"y":2547420.1800000016}},{"attributes":{"ID":428454,"DIS_CODE":0,"TOWNNAME":"安南區","LI":"安富里","LIN":"19鄰","STREET":"安富街","SECT":" ","MAREA":" ","LANE":"２４５巷","ALLEY":" ","HOUSE_NO":"１５號","E_COORD97":167595.06,"N_COORD97":2547407.98,"ADDRESS":"安富街２４５巷１５號","OBJECTID":428429},"geometry":{"x":167595.05999999959,"y":2547407.9800000004}},{"attributes":{"ID":428455,"DIS_CODE":0,"TOWNNAME":"安南區","LI":"安富里","LIN":"19鄰","STREET":"安富街","SECT":" ","MAREA":" ","LANE":"２４５巷","ALLEY":" ","HOUSE_NO":"１６號","E_COORD97":167573.20999999999,"N_COORD97":2547405.46,"ADDRESS":"安富街２４５巷１６號","OBJECTID":428430},"geometry":{"x":167573.21000000089,"y":2547405.459999999}},{"attributes":{"ID":428456,"DIS_CODE":0,"TOWNNAME":"安南區","LI":"安富里","LIN":"19鄰","STREET":"安富街","SECT":" ","MAREA":" ","LANE":"２４５巷","ALLEY":" ","HOUSE_NO":"１８號","E_COORD97":167573.54000000001,"N_COORD97":2547401.7999999998,"ADDRESS":"安富街２４５巷１８號","OBJECTID":428431},"geometry":{"x":167573.54000000004,"y":2547401.8000000007}},{"attributes":{"ID":428457,"DIS_CODE":0,"TOWNNAME":"安南區","LI":"安富里","LIN":"19鄰","STREET":"安富街","SECT":" ","MAREA":" ","LANE":"２４５巷","ALLEY":" ","HOUSE_NO":"１９號","E_COORD97":167596.45000000001,"N_COORD97":2547399.4900000002,"ADDRESS":"安富街２４５巷１９號","OBJECTID":428432},"geometry":{"x":167596.45000000019,"y":2547399.4900000021}},{"attributes":{"ID":428458,"DIS_CODE":0,"TOWNNAME":"安南區","LI":"安富里","LIN":"19鄰","STREET":"安富街","SECT":" ","MAREA":" ","LANE":"２４５巷","ALLEY":" ","HOUSE_NO":"２０號","E_COORD97":167574.54000000001,"N_COORD97":2547398.1400000001,"ADDRESS":"安富街２４５巷２０號","OBJECTID":428433},"geometry":{"x":167574.54000000097,"y":2547398.1400000025}},{"attributes":{"ID":428459,"DIS_CODE":0,"TOWNNAME":"安南區","LI":"安富里","LIN":"19鄰","STREET":"安富街","SECT":" ","MAREA":" ","LANE":"２４５巷","ALLEY":" ","HOUSE_NO":"２２號","E_COORD97":167575.20999999999,"N_COORD97":2547394.48,"ADDRESS":"安富街２４５巷２２號","OBJECTID":428434},"geometry":{"x":167575.21000000089,"y":2547394.4800000004}},{"attributes":{"ID":428460,"DIS_CODE":0,"TOWNNAME":"安南區","LI":"安富里","LIN":"19鄰","STREET":"安富街","SECT":" ","MAREA":" ","LANE":"２４５巷","ALLEY":" ","HOUSE_NO":"２號","E_COORD97":167564.88,"N_COORD97":2547439.4900000002,"ADDRESS":"安富街２４５巷２號","OBJECTID":428435},"geometry":{"x":167564.88000000082,"y":2547439.4900000021}},{"attributes":{"ID":428461,"DIS_CODE":0,"TOWNNAME":"安南區","LI":"安富里","LIN":"19鄰","STREET":"安富街","SECT":" ","MAREA":" ","LANE":"２４５巷","ALLEY":" ","HOUSE_NO":"３號","E_COORD97":167586.95999999999,"N_COORD97":2547439.1200000001,"ADDRESS":"安富街２４５巷３號","OBJECTID":428436},"geometry":{"x":167586.96000000089,"y":2547439.1200000029}},{"attributes":{"ID":428462,"DIS_CODE":0,"TOWNNAME":"安南區","LI":"安富里","LIN":"19鄰","STREET":"安富街","SECT":" ","MAREA":" ","LANE":"２４５巷","ALLEY":" ","HOUSE_NO":"５號","E_COORD97":167588.94,"N_COORD97":2547434.1899999999,"ADDRESS":"安富街２４５巷５號","OBJECTID":428437},"geometry":{"x":167588.94000000134,"y":2547434.1900000013}},{"attributes":{"ID":428463,"DIS_CODE":0,"TOWNNAME":"安南區","LI":"安富里","LIN":"19鄰","STREET":"安富街","SECT":" ","MAREA":" ","LANE":"２４５巷","ALLEY":" ","HOUSE_NO":"６號","E_COORD97":167566.54000000001,"N_COORD97":2547430.8399999999,"ADDRESS":"安富街２４５巷６號","OBJECTID":428438},"geometry":{"x":167566.54000000004,"y":2547430.8399999999}},{"attributes":{"ID":428464,"DIS_CODE":0,"TOWNNAME":"安南區","LI":"溪東里","LIN":"3鄰","STREET":"府安路","SECT":"五段","MAREA":" ","LANE":"１１９巷","ALLEY":" ","HOUSE_NO":"４０號","E_COORD97":167966.04000000001,"N_COORD97":2547238.71,"ADDRESS":"府安路五段１１９巷４０號","OBJECTID":428439},"geometry":{"x":167966.04000000097,"y":2547238.7100000028}},{"attributes":{"ID":428465,"DIS_CODE":0,"TOWNNAME":"南區","LI":"文華里","LIN":"25鄰","STREET":"敬南街","SECT":" ","MAREA":" ","LANE":"４０巷","ALLEY":" ","HOUSE_NO":"９號","E_COORD97":166854.37,"N_COORD97":2542891.9300000002,"ADDRESS":"敬南街４０巷９號","OBJECTID":428440},"geometry":{"x":166854.37000000011,"y":2542891.9300000034}},{"attributes":{"ID":428466,"DIS_CODE":0,"TOWNNAME":"安南區","LI":"溪東里","LIN":"3鄰","STREET":"府安路","SECT":"五段","MAREA":" ","LANE":"１１９巷","ALLEY":" ","HOUSE_NO":"４２號","E_COORD97":167965.01000000001,"N_COORD97":2547246.0600000001,"ADDRESS":"府安路五段１１９巷４２號","OBJECTID":428441},"geometry":{"x":167965.00999999978,"y":2547246.0600000024}},{"attributes":{"ID":428467,"DIS_CODE":0,"TOWNNAME":"安南區","LI":"溪東里","LIN":"3鄰","STREET":"府安路","SECT":"五段","MAREA":" ","LANE":"１１９巷","ALLEY":" ","HOUSE_NO":"４６號","E_COORD97":167962.5,"N_COORD97":2547255.8599999999,"ADDRESS":"府安路五段１１９巷４６號","OBJECTID":428442},"geometry":{"x":167962.50000000186,"y":2547255.8600000031}},{"attributes":{"ID":428468,"DIS_CODE":0,"TOWNNAME":"安南區","LI":"溪東里","LIN":"3鄰","STREET":"府安路","SECT":"五段","MAREA":" ","LANE":"１１９巷","ALLEY":" ","HOUSE_NO":"４８號","E_COORD97":167960.32999999999,"N_COORD97":2547262.3599999999,"ADDRESS":"府安路五段１１９巷４８號","OBJECTID":428443},"geometry":{"x":167960.33000000194,"y":2547262.3600000031}},{"attributes":{"ID":428469,"DIS_CODE":0,"TOWNNAME":"安南區","LI":"溪東里","LIN":"3鄰","STREET":"府安路","SECT":"五段","MAREA":" ","LANE":"１１９巷","ALLEY":" ","HOUSE_NO":"５０號","E_COORD97":167958.95000000001,"N_COORD97":2547268.7000000002,"ADDRESS":"府安路五段１１９巷５０號","OBJECTID":428444},"geometry":{"x":167958.95000000019,"y":2547268.6999999993}},{"attributes":{"ID":428470,"DIS_CODE":0,"TOWNNAME":"安南區","LI":"溪東里","LIN":"3鄰","STREET":"府安路","SECT":"五段","MAREA":" ","LANE":"１１９巷","ALLEY":" ","HOUSE_NO":"５２號","E_COORD97":167958.26000000001,"N_COORD97":2547274.8500000001,"ADDRESS":"府安路五段１１９巷５２號","OBJECTID":428445},"geometry":{"x":167958.25999999978,"y":2547274.8499999996}},{"attributes":{"ID":428471,"DIS_CODE":0,"TOWNNAME":"安南區","LI":"溪東里","LIN":"4鄰","STREET":"府安路","SECT":"五段","MAREA":" ","LANE":"９８巷","ALLEY":" ","HOUSE_NO":"４９號","E_COORD97":168028.45999999999,"N_COORD97":2547294.6000000001,"ADDRESS":"府安路五段９８巷４９號","OBJECTID":428446},"geometry":{"x":168028.45999999996,"y":2547294.5999999996}},{"attributes":{"ID":428472,"DIS_CODE":0,"TOWNNAME":"安南區","LI":"溪東里","LIN":"4鄰","STREET":"府安路","SECT":"五段","MAREA":" ","LANE":"９８巷","ALLEY":" ","HOUSE_NO":"５０號","E_COORD97":168043.16,"N_COORD97":2547297.3399999999,"ADDRESS":"府安路五段９８巷５０號","OBJECTID":428447},"geometry":{"x":168043.16000000108,"y":2547297.3400000017}},{"attributes":{"ID":428473,"DIS_CODE":0,"TOWNNAME":"安南區","LI":"溪東里","LIN":"4鄰","STREET":"府安路","SECT":"五段","MAREA":" ","LANE":"９８巷","ALLEY":" ","HOUSE_NO":"５１號","E_COORD97":168028.70000000001,"N_COORD97":2547298.1800000002,"ADDRESS":"府安路五段９８巷５１號","OBJECTID":428448},"geometry":{"x":168028.70000000019,"y":2547298.1800000016}},{"attributes":{"ID":428474,"DIS_CODE":0,"TOWNNAME":"安南區","LI":"溪東里","LIN":"4鄰","STREET":"府安路","SECT":"五段","MAREA":" ","LANE":"９８巷","ALLEY":" ","HOUSE_NO":"５２號","E_COORD97":168042.14999999999,"N_COORD97":2547302.2000000002,"ADDRESS":"府安路五段９８巷５２號","OBJECTID":428449},"geometry":{"x":168042.1500000013,"y":2547302.2000000011}},{"attributes":{"ID":428475,"DIS_CODE":0,"TOWNNAME":"安南區","LI":"溪東里","LIN":"4鄰","STREET":"府安路","SECT":"五段","MAREA":" ","LANE":"９８巷","ALLEY":" ","HOUSE_NO":"５３號","E_COORD97":168027.5,"N_COORD97":2547302.96,"ADDRESS":"府安路五段９８巷５３號","OBJECTID":428450},"geometry":{"x":168027.50000000093,"y":2547302.9600000009}},{"attributes":{"ID":428476,"DIS_CODE":0,"TOWNNAME":"安南區","LI":"溪東里","LIN":"4鄰","STREET":"府安路","SECT":"五段","MAREA":" ","LANE":"９８巷","ALLEY":" ","HOUSE_NO":"５４號","E_COORD97":168042.14999999999,"N_COORD97":2547305.7799999998,"ADDRESS":"府安路五段９８巷５４號","OBJECTID":428451},"geometry":{"x":168042.1500000013,"y":2547305.7799999993}},{"attributes":{"ID":428477,"DIS_CODE":0,"TOWNNAME":"中西區","LI":"西賢里","LIN":"10鄰","STREET":"西賢一街","SECT":" ","MAREA":" ","LANE":"１４８巷","ALLEY":" ","HOUSE_NO":"８號","E_COORD97":165760.13,"N_COORD97":2544694.9100000001,"ADDRESS":"西賢一街１４８巷８號","OBJECTID":428452},"geometry":{"x":165760.13000000082,"y":2544694.9100000001}},{"attributes":{"ID":428478,"DIS_CODE":0,"TOWNNAME":"中西區","LI":"西賢里","LIN":"4鄰","STREET":"湖美街","SECT":" ","MAREA":" ","LANE":"１７７巷","ALLEY":" ","HOUSE_NO":"１３號","E_COORD97":165874.92000000001,"N_COORD97":2544828.6699999999,"ADDRESS":"湖美街１７７巷１３號","OBJECTID":428453},"geometry":{"x":165874.92000000086,"y":2544828.6699999999}},{"attributes":{"ID":428479,"DIS_CODE":0,"TOWNNAME":"中西區","LI":"西賢里","LIN":"4鄰","STREET":"湖美街","SECT":" ","MAREA":" ","LANE":"１７７巷","ALLEY":" ","HOUSE_NO":"１５號","E_COORD97":165870.13,"N_COORD97":2544829.2000000002,"ADDRESS":"湖美街１７７巷１５號","OBJECTID":428454},"geometry":{"x":165870.13000000082,"y":2544829.200000003}},{"attributes":{"ID":428480,"DIS_CODE":0,"TOWNNAME":"中西區","LI":"西賢里","LIN":"4鄰","STREET":"湖美街","SECT":" ","MAREA":" ","LANE":"１７７巷","ALLEY":" ","HOUSE_NO":"１７號","E_COORD97":165864,"N_COORD97":2544826.75,"ADDRESS":"湖美街１７７巷１７號","OBJECTID":428455},"geometry":{"x":165864.00000000093,"y":2544826.7500000019}},{"attributes":{"ID":428481,"DIS_CODE":0,"TOWNNAME":"中西區","LI":"西賢里","LIN":"12鄰","STREET":"西賢一街","SECT":" ","MAREA":" ","LANE":"１８２巷","ALLEY":" ","HOUSE_NO":"２１號","E_COORD97":165763.13,"N_COORD97":2544824.2799999998,"ADDRESS":"西賢一街１８２巷２１號","OBJECTID":428456},"geometry":{"x":165763.13000000082,"y":2544824.2799999993}},{"attributes":{"ID":428482,"DIS_CODE":0,"TOWNNAME":"中西區","LI":"西賢里","LIN":"4鄰","STREET":"湖美街","SECT":" ","MAREA":" ","LANE":"１７７巷","ALLEY":" ","HOUSE_NO":"１９號","E_COORD97":165860.41,"N_COORD97":2544825.3700000001,"ADDRESS":"湖美街１７７巷１９號","OBJECTID":428457},"geometry":{"x":165860.41000000015,"y":2544825.370000001}},{"attributes":{"ID":428483,"DIS_CODE":0,"TOWNNAME":"中西區","LI":"西賢里","LIN":"4鄰","STREET":"湖美街","SECT":" ","MAREA":" ","LANE":"１７７巷","ALLEY":" ","HOUSE_NO":"２１號","E_COORD97":165855.17999999999,"N_COORD97":2544825.6499999999,"ADDRESS":"湖美街１７７巷２１號","OBJECTID":428458},"geometry":{"x":165855.1799999997,"y":2544825.6500000004}},{"attributes":{"ID":428484,"DIS_CODE":0,"TOWNNAME":"中西區","LI":"西賢里","LIN":"4鄰","STREET":"湖美街","SECT":" ","MAREA":" ","LANE":"１７７巷","ALLEY":" ","HOUSE_NO":"２３號","E_COORD97":165849.95000000001,"N_COORD97":2544826.2000000002,"ADDRESS":"湖美街１７７巷２３號","OBJECTID":428459},"geometry":{"x":165849.95000000019,"y":2544826.2000000011}},{"attributes":{"ID":428485,"DIS_CODE":0,"TOWNNAME":"中西區","LI":"西賢里","LIN":"4鄰","STREET":"湖美街","SECT":" ","MAREA":" ","LANE":"１７７巷","ALLEY":" ","HOUSE_NO":"２５號","E_COORD97":165845.54000000001,"N_COORD97":2544827.02,"ADDRESS":"湖美街１７７巷２５號","OBJECTID":428460},"geometry":{"x":165845.54000000097,"y":2544827.0199999977}},{"attributes":{"ID":428486,"DIS_CODE":0,"TOWNNAME":"中西區","LI":"西賢里","LIN":"4鄰","STREET":"湖美街","SECT":" ","MAREA":" ","LANE":"１７７巷","ALLEY":" ","HOUSE_NO":"２７號","E_COORD97":165839.20000000001,"N_COORD97":2544827.5699999998,"ADDRESS":"湖美街１７７巷２７號","OBJECTID":428461},"geometry":{"x":165839.20000000112,"y":2544827.570000004}},{"attributes":{"ID":428487,"DIS_CODE":0,"TOWNNAME":"中西區","LI":"西賢里","LIN":"4鄰","STREET":"湖美街","SECT":" ","MAREA":" ","LANE":"１７７巷","ALLEY":" ","HOUSE_NO":"２９號","E_COORD97":165832.59,"N_COORD97":2544827.2999999998,"ADDRESS":"湖美街１７７巷２９號","OBJECTID":428462},"geometry":{"x":165832.59000000171,"y":2544827.3000000026}},{"attributes":{"ID":428488,"DIS_CODE":0,"TOWNNAME":"中西區","LI":"西賢里","LIN":"4鄰","STREET":"湖美街","SECT":" ","MAREA":" ","LANE":"１７７巷","ALLEY":" ","HOUSE_NO":"３１號","E_COORD97":165826.25,"N_COORD97":2544827.2999999998,"ADDRESS":"湖美街１７７巷３１號","OBJECTID":428463},"geometry":{"x":165826.25,"y":2544827.3000000026}},{"attributes":{"ID":428489,"DIS_CODE":0,"TOWNNAME":"中西區","LI":"西賢里","LIN":"4鄰","STREET":"湖美街","SECT":" ","MAREA":" ","LANE":"１７７巷","ALLEY":" ","HOUSE_NO":"５號","E_COORD97":165894.63,"N_COORD97":2544829.3799999999,"ADDRESS":"湖美街１７７巷５號","OBJECTID":428464},"geometry":{"x":165894.62999999989,"y":2544829.379999999}},{"attributes":{"ID":428490,"DIS_CODE":0,"TOWNNAME":"中西區","LI":"西賢里","LIN":"4鄰","STREET":"湖美街","SECT":" ","MAREA":" ","LANE":"１７７巷","ALLEY":" ","HOUSE_NO":"７號","E_COORD97":165891.07999999999,"N_COORD97":2544829.02,"ADDRESS":"湖美街１７７巷７號","OBJECTID":428465},"geometry":{"x":165891.08000000101,"y":2544829.0199999996}},{"attributes":{"ID":428491,"DIS_CODE":0,"TOWNNAME":"中西區","LI":"西賢里","LIN":"4鄰","STREET":"湖美街","SECT":" ","MAREA":" ","LANE":"１７７巷","ALLEY":" ","HOUSE_NO":"９號","E_COORD97":165885.39999999999,"N_COORD97":2544828.8500000001,"ADDRESS":"湖美街１７７巷９號","OBJECTID":428466},"geometry":{"x":165885.4000000013,"y":2544828.8500000015}},{"attributes":{"ID":428492,"DIS_CODE":0,"TOWNNAME":"中西區","LI":"西賢里","LIN":"5鄰","STREET":"湖美街","SECT":" ","MAREA":" ","LANE":"１９３巷","ALLEY":" ","HOUSE_NO":"３１號","E_COORD97":165862.17000000001,"N_COORD97":2544873.29,"ADDRESS":"湖美街１９３巷３１號","OBJECTID":428467},"geometry":{"x":165862.16999999993,"y":2544873.290000001}},{"attributes":{"ID":428493,"DIS_CODE":0,"TOWNNAME":"中西區","LI":"西賢里","LIN":"13鄰","STREET":"西賢一街","SECT":" ","MAREA":" ","LANE":"２１２巷","ALLEY":" ","HOUSE_NO":"１１號","E_COORD97":165749.51999999999,"N_COORD97":2544892.6200000001,"ADDRESS":"西賢一街２１２巷１１號","OBJECTID":428468},"geometry":{"x":165749.52000000142,"y":2544892.6200000048}},{"attributes":{"ID":428494,"DIS_CODE":0,"TOWNNAME":"中西區","LI":"西賢里","LIN":"13鄰","STREET":"西賢一街","SECT":" ","MAREA":" ","LANE":"２３０巷","ALLEY":" ","HOUSE_NO":"３２號","E_COORD97":165767.92000000001,"N_COORD97":2544899.1000000001,"ADDRESS":"西賢一街２３０巷３２號","OBJECTID":428469},"geometry":{"x":165767.92000000086,"y":2544899.1000000015}},{"attributes":{"ID":428495,"DIS_CODE":0,"TOWNNAME":"中西區","LI":"西賢里","LIN":"13鄰","STREET":"西賢一街","SECT":" ","MAREA":" ","LANE":"２３０巷","ALLEY":" ","HOUSE_NO":"３６號","E_COORD97":165767.70000000001,"N_COORD97":2544893.9199999999,"ADDRESS":"西賢一街２３０巷３６號","OBJECTID":428470},"geometry":{"x":165767.70000000205,"y":2544893.9200000018}},{"attributes":{"ID":428496,"DIS_CODE":0,"TOWNNAME":"中西區","LI":"西賢里","LIN":"13鄰","STREET":"西賢一街","SECT":" ","MAREA":" ","LANE":"２３０巷","ALLEY":" ","HOUSE_NO":"３８號","E_COORD97":165767.48999999999,"N_COORD97":2544887.23,"ADDRESS":"西賢一街２３０巷３８號","OBJECTID":428471},"geometry":{"x":165767.49000000209,"y":2544887.2300000004}},{"attributes":{"ID":428497,"DIS_CODE":0,"TOWNNAME":"永康區","LI":"正強里","LIN":"40鄰","STREET":"四維街","SECT":" ","MAREA":" ","LANE":" ","ALLEY":" ","HOUSE_NO":"１９７號","E_COORD97":173253.53,"N_COORD97":2548469.3199999998,"ADDRESS":"四維街１９７號","OBJECTID":428472},"geometry":{"x":173253.53000000119,"y":2548469.3200000003}},{"attributes":{"ID":428498,"DIS_CODE":0,"TOWNNAME":"中西區","LI":"西賢里","LIN":"14鄰","STREET":"西賢一街","SECT":" ","MAREA":" ","LANE":"２３０巷","ALLEY":" ","HOUSE_NO":"１１號","E_COORD97":165730.39999999999,"N_COORD97":2544956.0899999999,"ADDRESS":"西賢一街２３０巷１１號","OBJECTID":428473},"geometry":{"x":165730.40000000037,"y":2544956.0900000036}},{"attributes":{"ID":428499,"DIS_CODE":0,"TOWNNAME":"中西區","LI":"西賢里","LIN":"14鄰","STREET":"西賢一街","SECT":" ","MAREA":" ","LANE":"２３０巷","ALLEY":" ","HOUSE_NO":"１３號底層之１","E_COORD97":165739.92999999999,"N_COORD97":2544957.48,"ADDRESS":"西賢一街２３０巷１３號底層之１","OBJECTID":428474},"geometry":{"x":165739.9299999997,"y":2544957.4800000042}},{"attributes":{"ID":428500,"DIS_CODE":0,"TOWNNAME":"中西區","LI":"西賢里","LIN":"14鄰","STREET":"西賢一街","SECT":" ","MAREA":" ","LANE":"２３０巷","ALLEY":" ","HOUSE_NO":"３１號","E_COORD97":165806.23999999999,"N_COORD97":2544954.1200000001,"ADDRESS":"西賢一街２３０巷３１號","OBJECTID":428475},"geometry":{"x":165806.24000000022,"y":2544954.1200000029}},{"attributes":{"ID":428501,"DIS_CODE":0,"TOWNNAME":"中西區","LI":"西賢里","LIN":"14鄰","STREET":"西賢一街","SECT":" ","MAREA":" ","LANE":"２３０巷","ALLEY":" ","HOUSE_NO":"３號","E_COORD97":165707.10999999999,"N_COORD97":2544957.6699999999,"ADDRESS":"西賢一街２３０巷３號","OBJECTID":428476},"geometry":{"x":165707.11000000034,"y":2544957.6699999999}},{"attributes":{"ID":428502,"DIS_CODE":0,"TOWNNAME":"中西區","LI":"藥王里","LIN":"4鄰","STREET":"大福街","SECT":" ","MAREA":" ","LANE":"１２巷","ALLEY":" ","HOUSE_NO":"１１號","E_COORD97":167371.87,"N_COORD97":2544343.6699999999,"ADDRESS":"大福街１２巷１１號","OBJECTID":428477},"geometry":{"x":167371.87000000197,"y":2544343.6699999999}},{"attributes":{"ID":428503,"DIS_CODE":0,"TOWNNAME":"中西區","LI":"藥王里","LIN":"4鄰","STREET":"大福街","SECT":" ","MAREA":" ","LANE":"１２巷","ALLEY":" ","HOUSE_NO":"１３號","E_COORD97":167376.47,"N_COORD97":2544341.98,"ADDRESS":"大福街１２巷１３號","OBJECTID":428478},"geometry":{"x":167376.47000000067,"y":2544341.9800000004}},{"attributes":{"ID":428504,"DIS_CODE":0,"TOWNNAME":"中西區","LI":"藥王里","LIN":"4鄰","STREET":"大福街","SECT":" ","MAREA":" ","LANE":"１２巷","ALLEY":" ","HOUSE_NO":"１５號","E_COORD97":167382.51999999999,"N_COORD97":2544344.6400000001,"ADDRESS":"大福街１２巷１５號","OBJECTID":428479},"geometry":{"x":167382.52000000048,"y":2544344.6400000006}},{"attributes":{"ID":428505,"DIS_CODE":0,"TOWNNAME":"中西區","LI":"藥王里","LIN":"4鄰","STREET":"大福街","SECT":" ","MAREA":" ","LANE":"１２巷","ALLEY":" ","HOUSE_NO":"１號","E_COORD97":167349.35999999999,"N_COORD97":2544351.6499999999,"ADDRESS":"大福街１２巷１號","OBJECTID":428480},"geometry":{"x":167349.36000000034,"y":2544351.6500000004}},{"attributes":{"ID":428506,"DIS_CODE":0,"TOWNNAME":"中西區","LI":"藥王里","LIN":"4鄰","STREET":"大福街","SECT":" ","MAREA":" ","LANE":"１２巷","ALLEY":" ","HOUSE_NO":"３號","E_COORD97":167353.95999999999,"N_COORD97":2544350.9300000002,"ADDRESS":"大福街１２巷３號","OBJECTID":428481},"geometry":{"x":167353.95999999903,"y":2544350.9300000016}},{"attributes":{"ID":428507,"DIS_CODE":0,"TOWNNAME":"中西區","LI":"藥王里","LIN":"4鄰","STREET":"大福街","SECT":" ","MAREA":" ","LANE":"１２巷","ALLEY":" ","HOUSE_NO":"５號","E_COORD97":167357.59,"N_COORD97":2544348.5099999998,"ADDRESS":"大福街１２巷５號","OBJECTID":428482},"geometry":{"x":167357.58999999985,"y":2544348.5099999998}},{"attributes":{"ID":428508,"DIS_CODE":0,"TOWNNAME":"中西區","LI":"藥王里","LIN":"4鄰","STREET":"大福街","SECT":" ","MAREA":" ","LANE":"１２巷","ALLEY":" ","HOUSE_NO":"７號","E_COORD97":167362.67000000001,"N_COORD97":2544346.8199999998,"ADDRESS":"大福街１２巷７號","OBJECTID":428483},"geometry":{"x":167362.66999999899,"y":2544346.8200000003}},{"attributes":{"ID":428509,"DIS_CODE":0,"TOWNNAME":"中西區","LI":"藥王里","LIN":"4鄰","STREET":"大福街","SECT":" ","MAREA":" ","LANE":"１２巷","ALLEY":" ","HOUSE_NO":"９號","E_COORD97":167367.03,"N_COORD97":2544344.8799999999,"ADDRESS":"大福街１２巷９號","OBJECTID":428484},"geometry":{"x":167367.03000000026,"y":2544344.879999999}},{"attributes":{"ID":428510,"DIS_CODE":0,"TOWNNAME":"中西區","LI":"藥王里","LIN":"4鄰","STREET":"大福街","SECT":" ","MAREA":" ","LANE":"２４巷","ALLEY":" ","HOUSE_NO":"１０號","E_COORD97":167367.75,"N_COORD97":2544359.6299999999,"ADDRESS":"大福街２４巷１０號","OBJECTID":428485},"geometry":{"x":167367.75000000093,"y":2544359.629999999}},{"attributes":{"ID":428511,"DIS_CODE":0,"TOWNNAME":"中西區","LI":"藥王里","LIN":"4鄰","STREET":"大福街","SECT":" ","MAREA":" ","LANE":"２４巷","ALLEY":" ","HOUSE_NO":"１２號","E_COORD97":167372.10999999999,"N_COORD97":2544357.7000000002,"ADDRESS":"大福街２４巷１２號","OBJECTID":428486},"geometry":{"x":167372.1100000022,"y":2544357.700000003}},{"attributes":{"ID":428512,"DIS_CODE":0,"TOWNNAME":"中西區","LI":"藥王里","LIN":"4鄰","STREET":"大福街","SECT":" ","MAREA":" ","LANE":"２４巷","ALLEY":" ","HOUSE_NO":"１４號","E_COORD97":167376.22,"N_COORD97":2544356.0099999998,"ADDRESS":"大福街２４巷１４號","OBJECTID":428487},"geometry":{"x":167376.22000000067,"y":2544356.0099999979}},{"attributes":{"ID":428513,"DIS_CODE":0,"TOWNNAME":"中西區","LI":"藥王里","LIN":"4鄰","STREET":"大福街","SECT":" ","MAREA":" ","LANE":"２４巷","ALLEY":" ","HOUSE_NO":"１６號","E_COORD97":167381.31,"N_COORD97":2544354.0699999998,"ADDRESS":"大福街２４巷１６號","OBJECTID":428488},"geometry":{"x":167381.30999999959,"y":2544354.0700000022}},{"attributes":{"ID":428514,"DIS_CODE":0,"TOWNNAME":"中西區","LI":"藥王里","LIN":"4鄰","STREET":"大福街","SECT":" ","MAREA":" ","LANE":"２４巷","ALLEY":" ","HOUSE_NO":"１８號","E_COORD97":167386.39000000001,"N_COORD97":2544353.3500000001,"ADDRESS":"大福街２４巷１８號","OBJECTID":428489},"geometry":{"x":167386.39000000153,"y":2544353.3499999996}},{"attributes":{"ID":428515,"DIS_CODE":0,"TOWNNAME":"中西區","LI":"藥王里","LIN":"4鄰","STREET":"大福街","SECT":" ","MAREA":" ","LANE":"２４巷","ALLEY":" ","HOUSE_NO":"２０號","E_COORD97":167390.5,"N_COORD97":2544351.4100000001,"ADDRESS":"大福街２４巷２０號","OBJECTID":428490},"geometry":{"x":167390.5,"y":2544351.410000002}},{"attributes":{"ID":428516,"DIS_CODE":0,"TOWNNAME":"中西區","LI":"藥王里","LIN":"4鄰","STREET":"大福街","SECT":" ","MAREA":" ","LANE":"２４巷","ALLEY":" ","HOUSE_NO":"４號","E_COORD97":167353.95999999999,"N_COORD97":2544363.9900000002,"ADDRESS":"大福街２４巷４號","OBJECTID":428491},"geometry":{"x":167353.95999999903,"y":2544363.9900000021}},{"attributes":{"ID":428517,"DIS_CODE":0,"TOWNNAME":"中西區","LI":"藥王里","LIN":"4鄰","STREET":"大福街","SECT":" ","MAREA":" ","LANE":"２４巷","ALLEY":" ","HOUSE_NO":"８號","E_COORD97":167363.14999999999,"N_COORD97":2544360.1200000001,"ADDRESS":"大福街２４巷８號","OBJECTID":428492},"geometry":{"x":167363.15000000037,"y":2544360.1200000048}},{"attributes":{"ID":428518,"DIS_CODE":0,"TOWNNAME":"中西區","LI":"藥王里","LIN":"4鄰","STREET":"大福街","SECT":" ","MAREA":" ","LANE":"１５巷","ALLEY":" ","HOUSE_NO":"１０號","E_COORD97":167273.12,"N_COORD97":2544380.4300000002,"ADDRESS":"大福街１５巷１０號","OBJECTID":428493},"geometry":{"x":167273.12000000011,"y":2544380.4300000034}},{"attributes":{"ID":428519,"DIS_CODE":0,"TOWNNAME":"中西區","LI":"藥王里","LIN":"3鄰","STREET":"大福街","SECT":" ","MAREA":" ","LANE":"２７巷","ALLEY":" ","HOUSE_NO":"１２號","E_COORD97":167278.31,"N_COORD97":2544408.8799999999,"ADDRESS":"大福街２７巷１２號","OBJECTID":428494},"geometry":{"x":167278.30999999866,"y":2544408.879999999}},{"attributes":{"ID":428520,"DIS_CODE":0,"TOWNNAME":"中西區","LI":"藥王里","LIN":"3鄰","STREET":"大福街","SECT":" ","MAREA":" ","LANE":"２７巷","ALLEY":" ","HOUSE_NO":"１４號","E_COORD97":167273.70999999999,"N_COORD97":2544409.6000000001,"ADDRESS":"大福街２７巷１４號","OBJECTID":428495},"geometry":{"x":167273.70999999996,"y":2544409.6000000034}},{"attributes":{"ID":428521,"DIS_CODE":0,"TOWNNAME":"中西區","LI":"藥王里","LIN":"3鄰","STREET":"大福街","SECT":" ","MAREA":" ","LANE":"２７巷","ALLEY":" ","HOUSE_NO":"１６號","E_COORD97":167269.35000000001,"N_COORD97":2544413.23,"ADDRESS":"大福街２７巷１６號","OBJECTID":428496},"geometry":{"x":167269.34999999963,"y":2544413.2300000042}},{"attributes":{"ID":428522,"DIS_CODE":0,"TOWNNAME":"中西區","LI":"藥王里","LIN":"3鄰","STREET":"大福街","SECT":" ","MAREA":" ","LANE":"２７巷","ALLEY":" ","HOUSE_NO":"１８號","E_COORD97":167257.25,"N_COORD97":2544418.0699999998,"ADDRESS":"大福街２７巷１８號","OBJECTID":428497},"geometry":{"x":167257.25000000186,"y":2544418.0700000022}},{"attributes":{"ID":428523,"DIS_CODE":0,"TOWNNAME":"中西區","LI":"藥王里","LIN":"4鄰","STREET":"大福街","SECT":" ","MAREA":" ","LANE":"１５巷","ALLEY":" ","HOUSE_NO":"１２號","E_COORD97":167268.04000000001,"N_COORD97":2544382.6099999999,"ADDRESS":"大福街１５巷１２號","OBJECTID":428498},"geometry":{"x":167268.04000000004,"y":2544382.6100000013}},{"attributes":{"ID":428524,"DIS_CODE":0,"TOWNNAME":"中西區","LI":"藥王里","LIN":"4鄰","STREET":"大福街","SECT":" ","MAREA":" ","LANE":"１５巷","ALLEY":" ","HOUSE_NO":"１４號","E_COORD97":167263.92999999999,"N_COORD97":2544384.5499999998,"ADDRESS":"大福街１５巷１４號","OBJECTID":428499},"geometry":{"x":167263.9299999997,"y":2544384.5500000026}},{"attributes":{"ID":428525,"DIS_CODE":0,"TOWNNAME":"中西區","LI":"藥王里","LIN":"4鄰","STREET":"大福街","SECT":" ","MAREA":" ","LANE":"１５巷","ALLEY":" ","HOUSE_NO":"１６號","E_COORD97":167258.84,"N_COORD97":2544385.0299999998,"ADDRESS":"大福街１５巷１６號","OBJECTID":428500},"geometry":{"x":167258.84000000078,"y":2544385.0299999993}},{"attributes":{"ID":428526,"DIS_CODE":0,"TOWNNAME":"中西區","LI":"藥王里","LIN":"4鄰","STREET":"大福街","SECT":" ","MAREA":" ","LANE":"１５巷","ALLEY":" ","HOUSE_NO":"１８號","E_COORD97":167254.73000000001,"N_COORD97":2544386,"ADDRESS":"大福街１５巷１８號","OBJECTID":428501},"geometry":{"x":167254.73000000138,"y":2544386}},{"attributes":{"ID":428527,"DIS_CODE":0,"TOWNNAME":"中西區","LI":"藥王里","LIN":"4鄰","STREET":"大福街","SECT":" ","MAREA":" ","LANE":"１５巷","ALLEY":" ","HOUSE_NO":"２０號","E_COORD97":167250.62,"N_COORD97":2544387.6899999999,"ADDRESS":"大福街１５巷２０號","OBJECTID":428502},"geometry":{"x":167250.62000000011,"y":2544387.6899999995}},{"attributes":{"ID":428528,"DIS_CODE":0,"TOWNNAME":"中西區","LI":"藥王里","LIN":"4鄰","STREET":"大福街","SECT":" ","MAREA":" ","LANE":"１５巷","ALLEY":" ","HOUSE_NO":"２２號","E_COORD97":167247.47,"N_COORD97":2544391.3199999998,"ADDRESS":"大福街１５巷２２號","OBJECTID":428503},"geometry":{"x":167247.47000000067,"y":2544391.3200000003}},{"attributes":{"ID":428529,"DIS_CODE":0,"TOWNNAME":"中西區","LI":"藥王里","LIN":"4鄰","STREET":"大福街","SECT":" ","MAREA":" ","LANE":"１５巷","ALLEY":" ","HOUSE_NO":"２４號","E_COORD97":167243.60000000001,"N_COORD97":2544392.29,"ADDRESS":"大福街１５巷２４號","OBJECTID":428504},"geometry":{"x":167243.59999999963,"y":2544392.290000001}},{"attributes":{"ID":428530,"DIS_CODE":0,"TOWNNAME":"中西區","LI":"藥王里","LIN":"4鄰","STREET":"大福街","SECT":" ","MAREA":" ","LANE":"１５巷","ALLEY":" ","HOUSE_NO":"２８號","E_COORD97":167235.37,"N_COORD97":2544395.1899999999,"ADDRESS":"大福街１５巷２８號","OBJECTID":428505},"geometry":{"x":167235.37000000011,"y":2544395.1899999976}},{"attributes":{"ID":428531,"DIS_CODE":0,"TOWNNAME":"中西區","LI":"藥王里","LIN":"4鄰","STREET":"大福街","SECT":" ","MAREA":" ","LANE":"１５巷","ALLEY":" ","HOUSE_NO":"４號","E_COORD97":167286.19,"N_COORD97":2544374.6299999999,"ADDRESS":"大福街１５巷４號","OBJECTID":428506},"geometry":{"x":167286.19000000041,"y":2544374.6299999971}},{"attributes":{"ID":428532,"DIS_CODE":0,"TOWNNAME":"中西區","LI":"藥王里","LIN":"4鄰","STREET":"大福街","SECT":" ","MAREA":" ","LANE":"１５巷","ALLEY":" ","HOUSE_NO":"６號","E_COORD97":167281.59,"N_COORD97":2544376.8100000001,"ADDRESS":"大福街１５巷６號","OBJECTID":428507},"geometry":{"x":167281.58999999985,"y":2544376.8100000024}},{"attributes":{"ID":428533,"DIS_CODE":0,"TOWNNAME":"中西區","LI":"藥王里","LIN":"4鄰","STREET":"大福街","SECT":" ","MAREA":" ","LANE":"１５巷","ALLEY":" ","HOUSE_NO":"８號","E_COORD97":167277.72,"N_COORD97":2544380.1899999999,"ADDRESS":"大福街１５巷８號","OBJECTID":428508},"geometry":{"x":167277.72000000067,"y":2544380.1899999995}},{"attributes":{"ID":428534,"DIS_CODE":0,"TOWNNAME":"中西區","LI":"西賢里","LIN":"6鄰","STREET":"湖美街","SECT":" ","MAREA":" ","LANE":"２１５巷","ALLEY":" ","HOUSE_NO":"８號","E_COORD97":165900.25,"N_COORD97":2544964.1200000001,"ADDRESS":"湖美街２１５巷８號","OBJECTID":428509},"geometry":{"x":165900.25,"y":2544964.1200000029}},{"attributes":{"ID":428535,"DIS_CODE":0,"TOWNNAME":"永康區","LI":"復國里","LIN":"4鄰","STREET":"復國一路","SECT":" ","MAREA":" ","LANE":"６８巷","ALLEY":" ","HOUSE_NO":"２０號","E_COORD97":172774.70999999999,"N_COORD97":2544859.2400000002,"ADDRESS":"復國一路６８巷２０號","OBJECTID":428510},"geometry":{"x":172774.70999999996,"y":2544859.2400000002}},{"attributes":{"ID":428536,"DIS_CODE":0,"TOWNNAME":"永康區","LI":"勝利里","LIN":"20鄰","STREET":"勝利街","SECT":" ","MAREA":" ","LANE":"１９７巷","ALLEY":" ","HOUSE_NO":"４８號","E_COORD97":171232.26000000001,"N_COORD97":2545154,"ADDRESS":"勝利街１９７巷４８號","OBJECTID":428511},"geometry":{"x":171232.26000000164,"y":2545154.0000000019}},{"attributes":{"ID":428537,"DIS_CODE":0,"TOWNNAME":"永康區","LI":"勝利里","LIN":"26鄰","STREET":"勝利街","SECT":" ","MAREA":" ","LANE":"７４巷","ALLEY":" ","HOUSE_NO":"７號","E_COORD97":171380.66,"N_COORD97":2544711.75,"ADDRESS":"勝利街７４巷７號","OBJECTID":428512},"geometry":{"x":171380.66000000201,"y":2544711.7500000019}},{"attributes":{"ID":428538,"DIS_CODE":0,"TOWNNAME":"永康區","LI":"勝利里","LIN":"26鄰","STREET":"勝利街","SECT":" ","MAREA":" ","LANE":"７４巷","ALLEY":" ","HOUSE_NO":"６號","E_COORD97":171375.35000000001,"N_COORD97":2544704.5,"ADDRESS":"勝利街７４巷６號","OBJECTID":428513},"geometry":{"x":171375.3499999987,"y":2544704.5}},{"attributes":{"ID":428539,"DIS_CODE":0,"TOWNNAME":"永康區","LI":"勝利里","LIN":"26鄰","STREET":"勝利街","SECT":" ","MAREA":" ","LANE":"７４巷","ALLEY":" ","HOUSE_NO":"３號","E_COORD97":171368.76000000001,"N_COORD97":2544713,"ADDRESS":"勝利街７４巷３號","OBJECTID":428514},"geometry":{"x":171368.75999999978,"y":2544713.0000000019}},{"attributes":{"ID":428540,"DIS_CODE":0,"TOWNNAME":"永康區","LI":"勝利里","LIN":"34鄰","STREET":"勝利街","SECT":" ","MAREA":" ","LANE":"１巷","ALLEY":" ","HOUSE_NO":"１５號","E_COORD97":171076.13,"N_COORD97":2544598.25,"ADDRESS":"勝利街１巷１５號","OBJECTID":428515},"geometry":{"x":171076.13000000082,"y":2544598.25}},{"attributes":{"ID":428541,"DIS_CODE":0,"TOWNNAME":"永康區","LI":"勝利里","LIN":"34鄰","STREET":"勝利街","SECT":" ","MAREA":" ","LANE":"１巷","ALLEY":" ","HOUSE_NO":"１４號","E_COORD97":171078.72,"N_COORD97":2544595.5,"ADDRESS":"勝利街１巷１４號","OBJECTID":428516},"geometry":{"x":171078.72000000067,"y":2544595.5000000019}},{"attributes":{"ID":428542,"DIS_CODE":0,"TOWNNAME":"永康區","LI":"復國里","LIN":"5鄰","STREET":"復國二路","SECT":" ","MAREA":" ","LANE":"３８巷","ALLEY":" ","HOUSE_NO":"１號","E_COORD97":172843.48000000001,"N_COORD97":2544943.02,"ADDRESS":"復國二路３８巷１號","OBJECTID":428517},"geometry":{"x":172843.48000000231,"y":2544943.0200000014}},{"attributes":{"ID":428543,"DIS_CODE":0,"TOWNNAME":"永康區","LI":"崑山里","LIN":"18鄰","STREET":"大灣路","SECT":" ","MAREA":" ","LANE":"９４２巷","ALLEY":" ","HOUSE_NO":"６號","E_COORD97":173621.26000000001,"N_COORD97":2544453.75,"ADDRESS":"大灣路９４２巷６號","OBJECTID":428518},"geometry":{"x":173621.26000000071,"y":2544453.7500000019}},{"attributes":{"ID":428544,"DIS_CODE":0,"TOWNNAME":"永康區","LI":"崑山里","LIN":"18鄰","STREET":"大灣路","SECT":" ","MAREA":" ","LANE":"８９６巷","ALLEY":" ","HOUSE_NO":"１３號","E_COORD97":173743.45999999999,"N_COORD97":2544520.04,"ADDRESS":"大灣路８９６巷１３號","OBJECTID":428519},"geometry":{"x":173743.46000000089,"y":2544520.0399999991}},{"attributes":{"ID":428545,"DIS_CODE":0,"TOWNNAME":"永康區","LI":"崑山里","LIN":"26鄰","STREET":"大灣路","SECT":" ","MAREA":" ","LANE":"９４２巷","ALLEY":" ","HOUSE_NO":"１６１號","E_COORD97":173710.10000000001,"N_COORD97":2544766,"ADDRESS":"大灣路９４２巷１６１號","OBJECTID":428520},"geometry":{"x":173710.10000000056,"y":2544766}},{"attributes":{"ID":428546,"DIS_CODE":0,"TOWNNAME":"永康區","LI":"復國里","LIN":"13鄰","STREET":"復國二路","SECT":" ","MAREA":" ","LANE":"１１５巷","ALLEY":" ","HOUSE_NO":"５號","E_COORD97":172865.01999999999,"N_COORD97":2545578.9399999999,"ADDRESS":"復國二路１１５巷５號","OBJECTID":428521},"geometry":{"x":172865.02000000048,"y":2545578.9399999995}},{"attributes":{"ID":428547,"DIS_CODE":0,"TOWNNAME":"永康區","LI":"勝利里","LIN":"4鄰","STREET":"勝學路","SECT":" ","MAREA":" ","LANE":"８９巷","ALLEY":" ","HOUSE_NO":"２１號","E_COORD97":171052.12,"N_COORD97":2544830,"ADDRESS":"勝學路８９巷２１號","OBJECTID":428522},"geometry":{"x":171052.12000000197,"y":2544830}},{"attributes":{"ID":428548,"DIS_CODE":0,"TOWNNAME":"永康區","LI":"勝利里","LIN":"26鄰","STREET":"勝利街","SECT":" ","MAREA":" ","LANE":"７４巷","ALLEY":" ","HOUSE_NO":"２８號","E_COORD97":171441.39999999999,"N_COORD97":2544698,"ADDRESS":"勝利街７４巷２８號","OBJECTID":428523},"geometry":{"x":171441.40000000037,"y":2544698}},{"attributes":{"ID":428549,"DIS_CODE":0,"TOWNNAME":"永康區","LI":"勝利里","LIN":"26鄰","STREET":"勝利街","SECT":" ","MAREA":" ","LANE":"７４巷","ALLEY":" ","HOUSE_NO":"１２號","E_COORD97":171394.28,"N_COORD97":2544702.25,"ADDRESS":"勝利街７４巷１２號","OBJECTID":428524},"geometry":{"x":171394.28000000119,"y":2544702.2500000019}},{"attributes":{"ID":428550,"DIS_CODE":0,"TOWNNAME":"永康區","LI":"崑山里","LIN":"39鄰","STREET":"國光三街","SECT":" ","MAREA":" ","LANE":"１０巷","ALLEY":" ","HOUSE_NO":"８號","E_COORD97":174153.22,"N_COORD97":2544893.4199999999,"ADDRESS":"國光三街１０巷８號","OBJECTID":428525},"geometry":{"x":174153.2200000016,"y":2544893.4200000018}},{"attributes":{"ID":428551,"DIS_CODE":0,"TOWNNAME":"永康區","LI":"崑山里","LIN":"20鄰","STREET":"崑山街","SECT":" ","MAREA":" ","LANE":"２１巷","ALLEY":" ","HOUSE_NO":"６號","E_COORD97":173884.48000000001,"N_COORD97":2544579.6699999999,"ADDRESS":"崑山街２１巷６號","OBJECTID":428526},"geometry":{"x":173884.48000000138,"y":2544579.6700000018}},{"attributes":{"ID":428552,"DIS_CODE":0,"TOWNNAME":"永康區","LI":"勝利里","LIN":"26鄰","STREET":"勝利街","SECT":" ","MAREA":" ","LANE":"７４巷","ALLEY":" ","HOUSE_NO":"２號","E_COORD97":171363.17999999999,"N_COORD97":2544706.5,"ADDRESS":"勝利街７４巷２號","OBJECTID":428527},"geometry":{"x":171363.18000000156,"y":2544706.5000000019}},{"attributes":{"ID":428553,"DIS_CODE":0,"TOWNNAME":"永康區","LI":"勝利里","LIN":"26鄰","STREET":"勝利街","SECT":" ","MAREA":" ","LANE":"７４巷","ALLEY":" ","HOUSE_NO":"１５號","E_COORD97":171405.63,"N_COORD97":2544708.5,"ADDRESS":"勝利街７４巷１５號","OBJECTID":428528},"geometry":{"x":171405.62999999989,"y":2544708.5}},{"attributes":{"ID":428554,"DIS_CODE":0,"TOWNNAME":"永康區","LI":"崑山里","LIN":"34鄰","STREET":"大仁街","SECT":" ","MAREA":" ","LANE":"１２５巷","ALLEY":" ","HOUSE_NO":"３０號","E_COORD97":173790.42999999999,"N_COORD97":2544879.9100000001,"ADDRESS":"大仁街１２５巷３０號","OBJECTID":428529},"geometry":{"x":173790.4299999997,"y":2544879.910000002}},{"attributes":{"ID":428555,"DIS_CODE":0,"TOWNNAME":"永康區","LI":"崑山里","LIN":"32鄰","STREET":"大灣路","SECT":" ","MAREA":" ","LANE":"７９８巷","ALLEY":" ","HOUSE_NO":"８８號","E_COORD97":174117.79999999999,"N_COORD97":2544810.8599999999,"ADDRESS":"大灣路７９８巷８８號","OBJECTID":428530},"geometry":{"x":174117.80000000075,"y":2544810.8599999994}},{"attributes":{"ID":428556,"DIS_CODE":0,"TOWNNAME":"永康區","LI":"崑山里","LIN":"32鄰","STREET":"大灣路","SECT":" ","MAREA":" ","LANE":"７９８巷","ALLEY":" ","HOUSE_NO":"８１號","E_COORD97":174104.04000000001,"N_COORD97":2544799.6000000001,"ADDRESS":"大灣路７９８巷８１號","OBJECTID":428531},"geometry":{"x":174104.04000000097,"y":2544799.6000000034}},{"attributes":{"ID":428557,"DIS_CODE":0,"TOWNNAME":"永康區","LI":"崑山里","LIN":"26鄰","STREET":"大灣路","SECT":" ","MAREA":" ","LANE":"９４２巷","ALLEY":" ","HOUSE_NO":"１６３號","E_COORD97":173711.35000000001,"N_COORD97":2544770.25,"ADDRESS":"大灣路９４２巷１６３號","OBJECTID":428532},"geometry":{"x":173711.3499999987,"y":2544770.25}},{"attributes":{"ID":428558,"DIS_CODE":0,"TOWNNAME":"永康區","LI":"崑山里","LIN":"46鄰","STREET":"國光五街","SECT":" ","MAREA":" ","LANE":"２２巷","ALLEY":" ","HOUSE_NO":"５７號","E_COORD97":174249.51999999999,"N_COORD97":2545226.4100000001,"ADDRESS":"國光五街２２巷５７號","OBJECTID":428533},"geometry":{"x":174249.52000000048,"y":2545226.410000002}},{"attributes":{"ID":428559,"DIS_CODE":0,"TOWNNAME":"永康區","LI":"勝利里","LIN":"4鄰","STREET":"勝學路","SECT":" ","MAREA":" ","LANE":"８９巷","ALLEY":" ","HOUSE_NO":"１５號","E_COORD97":171083.48000000001,"N_COORD97":2544827.75,"ADDRESS":"勝學路８９巷１５號","OBJECTID":428534},"geometry":{"x":171083.48000000045,"y":2544827.7500000019}},{"attributes":{"ID":428560,"DIS_CODE":0,"TOWNNAME":"永康區","LI":"崑山里","LIN":"4鄰","STREET":"永大路","SECT":"一段","MAREA":" ","LANE":"２８７巷","ALLEY":" ","HOUSE_NO":"１０９號","E_COORD97":173738.89000000001,"N_COORD97":2544318.7200000002,"ADDRESS":"永大路一段２８７巷１０９號","OBJECTID":428535},"geometry":{"x":173738.8900000006,"y":2544318.7200000025}},{"attributes":{"ID":428561,"DIS_CODE":0,"TOWNNAME":"永康區","LI":"勝利里","LIN":"20鄰","STREET":"勝學路","SECT":" ","MAREA":" ","LANE":"２６９巷","ALLEY":" ","HOUSE_NO":"１３號","E_COORD97":171149.60000000001,"N_COORD97":2545286.5099999998,"ADDRESS":"勝學路２６９巷１３號","OBJECTID":428536},"geometry":{"x":171149.59999999963,"y":2545286.5100000016}},{"attributes":{"ID":428562,"DIS_CODE":0,"TOWNNAME":"永康區","LI":"崑山里","LIN":"32鄰","STREET":"大灣路","SECT":" ","MAREA":" ","LANE":"７９８巷","ALLEY":" ","HOUSE_NO":"９６號","E_COORD97":174123.64999999999,"N_COORD97":2544826.6099999999,"ADDRESS":"大灣路７９８巷９６號","OBJECTID":428537},"geometry":{"x":174123.65000000037,"y":2544826.6100000031}},{"attributes":{"ID":428563,"DIS_CODE":0,"TOWNNAME":"永康區","LI":"復國里","LIN":"5鄰","STREET":"復國二路","SECT":" ","MAREA":" ","LANE":"４０巷","ALLEY":" ","HOUSE_NO":"７號","E_COORD97":172858.53,"N_COORD97":2544995.2799999998,"ADDRESS":"復國二路４０巷７號","OBJECTID":428538},"geometry":{"x":172858.53000000119,"y":2544995.2800000012}},{"attributes":{"ID":428564,"DIS_CODE":0,"TOWNNAME":"永康區","LI":"勝利里","LIN":"20鄰","STREET":"勝利街","SECT":" ","MAREA":" ","LANE":"１９７巷","ALLEY":" ","HOUSE_NO":"５０號","E_COORD97":171217.95000000001,"N_COORD97":2545145.75,"ADDRESS":"勝利街１９７巷５０號","OBJECTID":428539},"geometry":{"x":171217.95000000112,"y":2545145.7500000019}},{"attributes":{"ID":428565,"DIS_CODE":0,"TOWNNAME":"永康區","LI":"勝利里","LIN":"4鄰","STREET":"勝學路","SECT":" ","MAREA":" ","LANE":"８９巷","ALLEY":" ","HOUSE_NO":"１２號","E_COORD97":171093.92999999999,"N_COORD97":2544827,"ADDRESS":"勝學路８９巷１２號","OBJECTID":428540},"geometry":{"x":171093.93000000063,"y":2544827}},{"attributes":{"ID":428566,"DIS_CODE":0,"TOWNNAME":"東區","LI":"大同里","LIN":"14鄰","STREET":"府連路","SECT":" ","MAREA":" ","LANE":"１６５巷","ALLEY":" ","HOUSE_NO":"６號","E_COORD97":169200.39000000001,"N_COORD97":2542864.6299999999,"ADDRESS":"府連路１６５巷６號","OBJECTID":428541},"geometry":{"x":169200.39000000153,"y":2542864.629999999}},{"attributes":{"ID":428567,"DIS_CODE":0,"TOWNNAME":"永康區","LI":"勝利里","LIN":"4鄰","STREET":"勝學路","SECT":" ","MAREA":" ","LANE":"８９巷","ALLEY":" ","HOUSE_NO":"２３號","E_COORD97":171041.54999999999,"N_COORD97":2544831.25,"ADDRESS":"勝學路８９巷２３號","OBJECTID":428542},"geometry":{"x":171041.54999999981,"y":2544831.25}},{"attributes":{"ID":428568,"DIS_CODE":0,"TOWNNAME":"永康區","LI":"復國里","LIN":"5鄰","STREET":"復國二路","SECT":" ","MAREA":" ","LANE":"４０巷","ALLEY":" ","HOUSE_NO":"１２號","E_COORD97":172863.92999999999,"N_COORD97":2544977.2799999998,"ADDRESS":"復國二路４０巷１２號","OBJECTID":428543},"geometry":{"x":172863.93000000063,"y":2544977.2799999993}},{"attributes":{"ID":428569,"DIS_CODE":0,"TOWNNAME":"永康區","LI":"崑山里","LIN":"4鄰","STREET":"永大路","SECT":"一段","MAREA":" ","LANE":"２８７巷","ALLEY":" ","HOUSE_NO":"８５號","E_COORD97":173773.35000000001,"N_COORD97":2544284.5099999998,"ADDRESS":"永大路一段２８７巷８５號","OBJECTID":428544},"geometry":{"x":173773.34999999963,"y":2544284.5099999998}},{"attributes":{"ID":428570,"DIS_CODE":0,"TOWNNAME":"永康區","LI":"崑山里","LIN":"4鄰","STREET":"永大路","SECT":"一段","MAREA":" ","LANE":"２８７巷","ALLEY":" ","HOUSE_NO":"１２７號","E_COORD97":173751.19,"N_COORD97":2544280.8300000001,"ADDRESS":"永大路一段２８７巷１２７號","OBJECTID":428545},"geometry":{"x":173751.19000000134,"y":2544280.8300000019}},{"attributes":{"ID":428571,"DIS_CODE":0,"TOWNNAME":"永康區","LI":"崑山里","LIN":"4鄰","STREET":"永大路","SECT":"一段","MAREA":" ","LANE":"２８７巷","ALLEY":" ","HOUSE_NO":"８７號","E_COORD97":173765.07000000001,"N_COORD97":2544282.1000000001,"ADDRESS":"永大路一段２８７巷８７號","OBJECTID":428546},"geometry":{"x":173765.07000000123,"y":2544282.1000000015}},{"attributes":{"ID":428572,"DIS_CODE":0,"TOWNNAME":"永康區","LI":"崑山里","LIN":"4鄰","STREET":"永大路","SECT":"一段","MAREA":" ","LANE":"２８７巷","ALLEY":" ","HOUSE_NO":"９５號","E_COORD97":173758.03,"N_COORD97":2544306.8500000001,"ADDRESS":"永大路一段２８７巷９５號","OBJECTID":428547},"geometry":{"x":173758.03000000026,"y":2544306.8500000015}},{"attributes":{"ID":428573,"DIS_CODE":0,"TOWNNAME":"永康區","LI":"勝利里","LIN":"4鄰","STREET":"勝學路","SECT":" ","MAREA":" ","LANE":"８９巷","ALLEY":" ","HOUSE_NO":"２２號","E_COORD97":171046.98999999999,"N_COORD97":2544830.75,"ADDRESS":"勝學路８９巷２２號","OBJECTID":428548},"geometry":{"x":171046.99000000115,"y":2544830.7500000019}},{"attributes":{"ID":428574,"DIS_CODE":0,"TOWNNAME":"永康區","LI":"勝利里","LIN":"39鄰","STREET":"勝華街","SECT":" ","MAREA":" ","LANE":"３７巷","ALLEY":" ","HOUSE_NO":"６２號","E_COORD97":171435.81,"N_COORD97":2545081.2599999998,"ADDRESS":"勝華街３７巷６２號","OBJECTID":428549},"geometry":{"x":171435.81000000052,"y":2545081.2600000016}},{"attributes":{"ID":428575,"DIS_CODE":0,"TOWNNAME":"永康區","LI":"復國里","LIN":"5鄰","STREET":"復國二路","SECT":" ","MAREA":" ","LANE":"３８巷","ALLEY":" ","HOUSE_NO":"１５號","E_COORD97":172872.67999999999,"N_COORD97":2544944.27,"ADDRESS":"復國二路３８巷１５號","OBJECTID":428550},"geometry":{"x":172872.68000000063,"y":2544944.2700000033}},{"attributes":{"ID":428576,"DIS_CODE":0,"TOWNNAME":"永康區","LI":"勝利里","LIN":"26鄰","STREET":"勝利街","SECT":" ","MAREA":" ","LANE":"７４巷","ALLEY":" ","HOUSE_NO":"２０號","E_COORD97":171418.53,"N_COORD97":2544698.5,"ADDRESS":"勝利街７４巷２０號","OBJECTID":428551},"geometry":{"x":171418.53000000026,"y":2544698.5}},{"attributes":{"ID":428577,"DIS_CODE":0,"TOWNNAME":"永康區","LI":"勝利里","LIN":"26鄰","STREET":"勝利街","SECT":" ","MAREA":" ","LANE":"７４巷","ALLEY":" ","HOUSE_NO":"２２號","E_COORD97":171428.23000000001,"N_COORD97":2544698.75,"ADDRESS":"勝利街７４巷２２號","OBJECTID":428552},"geometry":{"x":171428.23000000138,"y":2544698.7500000019}},{"attributes":{"ID":428578,"DIS_CODE":0,"TOWNNAME":"永康區","LI":"勝利里","LIN":"26鄰","STREET":"勝利街","SECT":" ","MAREA":" ","LANE":"７４巷","ALLEY":" ","HOUSE_NO":"２３號","E_COORD97":171440.34,"N_COORD97":2544710.25,"ADDRESS":"勝利街７４巷２３號","OBJECTID":428553},"geometry":{"x":171440.34000000078,"y":2544710.25}},{"attributes":{"ID":428579,"DIS_CODE":0,"TOWNNAME":"永康區","LI":"勝利里","LIN":"24鄰","STREET":"勝利街","SECT":" ","MAREA":" ","LANE":"１１６巷","ALLEY":" ","HOUSE_NO":"２７號","E_COORD97":171417.38,"N_COORD97":2544866.5099999998,"ADDRESS":"勝利街１１６巷２７號","OBJECTID":428554},"geometry":{"x":171417.37999999989,"y":2544866.5099999998}},{"attributes":{"ID":428580,"DIS_CODE":0,"TOWNNAME":"永康區","LI":"西灣里","LIN":"4鄰","STREET":"大灣五街","SECT":" ","MAREA":" ","LANE":"３９巷","ALLEY":" ","HOUSE_NO":"１０號","E_COORD97":174739.42000000001,"N_COORD97":2545209.1099999999,"ADDRESS":"大灣五街３９巷１０號","OBJECTID":428555},"geometry":{"x":174739.41999999993,"y":2545209.1099999994}},{"attributes":{"ID":428581,"DIS_CODE":0,"TOWNNAME":"永康區","LI":"南灣里","LIN":"32鄰","STREET":"大灣一街","SECT":" ","MAREA":" ","LANE":"３７巷","ALLEY":" ","HOUSE_NO":"１６號","E_COORD97":174318.13,"N_COORD97":2544856.1099999999,"ADDRESS":"大灣一街３７巷１６號","OBJECTID":428556},"geometry":{"x":174318.12999999989,"y":2544856.1099999994}},{"attributes":{"ID":428582,"DIS_CODE":0,"TOWNNAME":"永康區","LI":"甲頂里","LIN":"13鄰","STREET":"大武街","SECT":" ","MAREA":" ","LANE":"２巷","ALLEY":" ","HOUSE_NO":"５０號","E_COORD97":170377.23999999999,"N_COORD97":2546531.6499999999,"ADDRESS":"大武街２巷５０號","OBJECTID":428557},"geometry":{"x":170377.24000000115,"y":2546531.6500000004}},{"attributes":{"ID":428583,"DIS_CODE":0,"TOWNNAME":"永康區","LI":"王行里","LIN":"8鄰","STREET":"王行路","SECT":" ","MAREA":" ","LANE":"３５１巷","ALLEY":" ","HOUSE_NO":"３２號","E_COORD97":175356.29000000001,"N_COORD97":2548571.73,"ADDRESS":"王行路３５１巷３２號","OBJECTID":428558},"geometry":{"x":175356.29000000004,"y":2548571.7300000004}},{"attributes":{"ID":428584,"DIS_CODE":0,"TOWNNAME":"永康區","LI":"王行里","LIN":"8鄰","STREET":"王行路","SECT":" ","MAREA":" ","LANE":"３５１巷","ALLEY":" ","HOUSE_NO":"３２號","E_COORD97":175377.82000000001,"N_COORD97":2548573.2599999998,"ADDRESS":"王行路３５１巷３２號","OBJECTID":428559},"geometry":{"x":175377.82000000123,"y":2548573.2600000016}},{"attributes":{"ID":428585,"DIS_CODE":0,"TOWNNAME":"永康區","LI":"網寮里","LIN":"4鄰","STREET":"永二街","SECT":" ","MAREA":" ","LANE":"１１８巷","ALLEY":" ","HOUSE_NO":"１０號","E_COORD97":173493.73000000001,"N_COORD97":2546470.3999999999,"ADDRESS":"永二街１１８巷１０號","OBJECTID":428560},"geometry":{"x":173493.73000000045,"y":2546470.4000000022}},{"attributes":{"ID":428586,"DIS_CODE":0,"TOWNNAME":"永康區","LI":"網寮里","LIN":"4鄰","STREET":"永二街","SECT":" ","MAREA":" ","LANE":"１１８巷","ALLEY":" ","HOUSE_NO":"１１號","E_COORD97":173484.34,"N_COORD97":2546466.6699999999,"ADDRESS":"永二街１１８巷１１號","OBJECTID":428561},"geometry":{"x":173484.33999999985,"y":2546466.6699999999}},{"attributes":{"ID":428587,"DIS_CODE":0,"TOWNNAME":"永康區","LI":"網寮里","LIN":"4鄰","STREET":"永二街","SECT":" ","MAREA":" ","LANE":"１１８巷","ALLEY":" ","HOUSE_NO":"１２號","E_COORD97":173490.73999999999,"N_COORD97":2546471.7000000002,"ADDRESS":"永二街１１８巷１２號","OBJECTID":428562},"geometry":{"x":173490.74000000209,"y":2546471.6999999993}},{"attributes":{"ID":428588,"DIS_CODE":0,"TOWNNAME":"永康區","LI":"網寮里","LIN":"4鄰","STREET":"永二街","SECT":" ","MAREA":" ","LANE":"１１８巷","ALLEY":" ","HOUSE_NO":"１３號","E_COORD97":173481.03,"N_COORD97":2546467.9199999999,"ADDRESS":"永二街１１８巷１３號","OBJECTID":428563},"geometry":{"x":173481.03000000119,"y":2546467.9199999999}},{"attributes":{"ID":428589,"DIS_CODE":0,"TOWNNAME":"永康區","LI":"網寮里","LIN":"4鄰","STREET":"永二街","SECT":" ","MAREA":" ","LANE":"１１８巷","ALLEY":" ","HOUSE_NO":"１５號","E_COORD97":173477.75,"N_COORD97":2546469.4399999999,"ADDRESS":"永二街１１８巷１５號","OBJECTID":428564},"geometry":{"x":173477.75,"y":2546469.4400000013}},{"attributes":{"ID":428590,"DIS_CODE":0,"TOWNNAME":"永康區","LI":"網寮里","LIN":"4鄰","STREET":"永二街","SECT":" ","MAREA":" ","LANE":"１１８巷","ALLEY":" ","HOUSE_NO":"１６號","E_COORD97":173487.53,"N_COORD97":2546473.23,"ADDRESS":"永二街１１８巷１６號","OBJECTID":428565},"geometry":{"x":173487.53000000119,"y":2546473.2300000004}},{"attributes":{"ID":428591,"DIS_CODE":0,"TOWNNAME":"永康區","LI":"網寮里","LIN":"4鄰","STREET":"永二街","SECT":" ","MAREA":" ","LANE":"１１８巷","ALLEY":" ","HOUSE_NO":"１７號","E_COORD97":173475.13,"N_COORD97":2546471.27,"ADDRESS":"永二街１１８巷１７號","OBJECTID":428566},"geometry":{"x":173475.12999999989,"y":2546471.2700000014}},{"attributes":{"ID":428592,"DIS_CODE":0,"TOWNNAME":"永康區","LI":"網寮里","LIN":"4鄰","STREET":"永二街","SECT":" ","MAREA":" ","LANE":"１１８巷","ALLEY":" ","HOUSE_NO":"１９號","E_COORD97":173472.14999999999,"N_COORD97":2546472.8300000001,"ADDRESS":"永二街１１８巷１９號","OBJECTID":428567},"geometry":{"x":173472.15000000037,"y":2546472.8300000001}},{"attributes":{"ID":428593,"DIS_CODE":0,"TOWNNAME":"永康區","LI":"網寮里","LIN":"19鄰","STREET":"永二街","SECT":" ","MAREA":" ","LANE":"２３７巷","ALLEY":" ","HOUSE_NO":"３號","E_COORD97":173387.60999999999,"N_COORD97":2546225.1200000001,"ADDRESS":"永二街２３７巷３號","OBJECTID":428568},"geometry":{"x":173387.61000000034,"y":2546225.1200000048}},{"attributes":{"ID":428594,"DIS_CODE":0,"TOWNNAME":"永康區","LI":"網寮里","LIN":"19鄰","STREET":"永二街","SECT":" ","MAREA":" ","LANE":"２３７巷","ALLEY":" ","HOUSE_NO":"５號","E_COORD97":173393.07999999999,"N_COORD97":2546221.9199999999,"ADDRESS":"永二街２３７巷５號","OBJECTID":428569},"geometry":{"x":173393.08000000007,"y":2546221.9200000037}},{"attributes":{"ID":428595,"DIS_CODE":0,"TOWNNAME":"永康區","LI":"網寮里","LIN":"19鄰","STREET":"永二街","SECT":" ","MAREA":" ","LANE":"２３７巷","ALLEY":" ","HOUSE_NO":"６號","E_COORD97":173398.37,"N_COORD97":2546218.4500000002,"ADDRESS":"永二街２３７巷６號","OBJECTID":428570},"geometry":{"x":173398.37000000104,"y":2546218.4500000011}},{"attributes":{"ID":428596,"DIS_CODE":0,"TOWNNAME":"永康區","LI":"永康里","LIN":"42鄰","STREET":"永大二路","SECT":" ","MAREA":" ","LANE":"１０８巷","ALLEY":" ","HOUSE_NO":"１１號","E_COORD97":174098.70999999999,"N_COORD97":2546569.6099999999,"ADDRESS":"永大二路１０８巷１１號","OBJECTID":428571},"geometry":{"x":174098.70999999996,"y":2546569.6100000013}},{"attributes":{"ID":428597,"DIS_CODE":0,"TOWNNAME":"永康區","LI":"二王里","LIN":"10鄰","STREET":"二王路","SECT":" ","MAREA":" ","LANE":"１５５巷","ALLEY":" ","HOUSE_NO":"１７號","E_COORD97":173047.92999999999,"N_COORD97":2546487.52,"ADDRESS":"二王路１５５巷１７號","OBJECTID":428572},"geometry":{"x":173047.9299999997,"y":2546487.5199999996}},{"attributes":{"ID":428598,"DIS_CODE":0,"TOWNNAME":"永康區","LI":"崑山里","LIN":"40鄰","STREET":"國光五街","SECT":" ","MAREA":" ","LANE":" ","ALLEY":" ","HOUSE_NO":"１３號","E_COORD97":174149.82999999999,"N_COORD97":2545072.7000000002,"ADDRESS":"國光五街１３號","OBJECTID":428573},"geometry":{"x":174149.83000000101,"y":2545072.6999999993}},{"attributes":{"ID":428599,"DIS_CODE":0,"TOWNNAME":"永康區","LI":"龍潭里","LIN":"43鄰","STREET":"永平街","SECT":" ","MAREA":" ","LANE":"６８９巷","ALLEY":" ","HOUSE_NO":"７號","E_COORD97":174608.48999999999,"N_COORD97":2546969.5899999999,"ADDRESS":"永平街６８９巷７號","OBJECTID":428574},"geometry":{"x":174608.49000000115,"y":2546969.5900000036}},{"attributes":{"ID":428600,"DIS_CODE":0,"TOWNNAME":"永康區","LI":"西灣里","LIN":"50鄰","STREET":"永華路","SECT":" ","MAREA":" ","LANE":"２７３巷","ALLEY":" ","HOUSE_NO":"１６號","E_COORD97":173980.51999999999,"N_COORD97":2545813.3900000001,"ADDRESS":"永華路２７３巷１６號","OBJECTID":428575},"geometry":{"x":173980.52000000048,"y":2545813.3900000025}},{"attributes":{"ID":428601,"DIS_CODE":0,"TOWNNAME":"永康區","LI":"永康里","LIN":"18鄰","STREET":"永華路","SECT":" ","MAREA":" ","LANE":"４８３巷","ALLEY":" ","HOUSE_NO":"１０號","E_COORD97":174082.19,"N_COORD97":2547158.5800000001,"ADDRESS":"永華路４８３巷１０號","OBJECTID":428576},"geometry":{"x":174082.19000000041,"y":2547158.5800000001}},{"attributes":{"ID":428602,"DIS_CODE":0,"TOWNNAME":"永康區","LI":"永康里","LIN":"18鄰","STREET":"永華路","SECT":" ","MAREA":" ","LANE":"４８３巷","ALLEY":" ","HOUSE_NO":"１１號","E_COORD97":174073.97,"N_COORD97":2547156.3399999999,"ADDRESS":"永華路４８３巷１１號","OBJECTID":428577},"geometry":{"x":174073.97000000067,"y":2547156.3399999999}},{"attributes":{"ID":428603,"DIS_CODE":0,"TOWNNAME":"永康區","LI":"永康里","LIN":"18鄰","STREET":"永華路","SECT":" ","MAREA":" ","LANE":"４８３巷","ALLEY":" ","HOUSE_NO":"１２號","E_COORD97":174079.76999999999,"N_COORD97":2547160.27,"ADDRESS":"永華路４８３巷１２號","OBJECTID":428578},"geometry":{"x":174079.77000000142,"y":2547160.2699999996}},{"attributes":{"ID":428604,"DIS_CODE":0,"TOWNNAME":"永康區","LI":"永康里","LIN":"18鄰","STREET":"永華路","SECT":" ","MAREA":" ","LANE":"４８３巷","ALLEY":" ","HOUSE_NO":"１６號","E_COORD97":174077.01999999999,"N_COORD97":2547162.0699999998,"ADDRESS":"永華路４８３巷１６號","OBJECTID":428579},"geometry":{"x":174077.02000000048,"y":2547162.0700000003}},{"attributes":{"ID":428605,"DIS_CODE":0,"TOWNNAME":"永康區","LI":"永康里","LIN":"18鄰","STREET":"永華路","SECT":" ","MAREA":" ","LANE":"４８３巷","ALLEY":" ","HOUSE_NO":"１８號","E_COORD97":174074.88,"N_COORD97":2547163.7599999998,"ADDRESS":"永華路４８３巷１８號","OBJECTID":428580},"geometry":{"x":174074.88000000082,"y":2547163.7599999998}},{"attributes":{"ID":428606,"DIS_CODE":0,"TOWNNAME":"永康區","LI":"永康里","LIN":"18鄰","STREET":"永華路","SECT":" ","MAREA":" ","LANE":"４８３巷","ALLEY":" ","HOUSE_NO":"１號","E_COORD97":174086.22,"N_COORD97":2547148.29,"ADDRESS":"永華路４８３巷１號","OBJECTID":428581},"geometry":{"x":174086.21999999974,"y":2547148.290000001}},{"attributes":{"ID":428607,"DIS_CODE":0,"TOWNNAME":"永康區","LI":"西灣里","LIN":"39鄰","STREET":"永華路","SECT":" ","MAREA":" ","LANE":"２１２巷","ALLEY":" ","HOUSE_NO":"２８號","E_COORD97":174181.22,"N_COORD97":2545454.5800000001,"ADDRESS":"永華路２１２巷２８號","OBJECTID":428582},"geometry":{"x":174181.21999999974,"y":2545454.5800000038}},{"attributes":{"ID":428608,"DIS_CODE":0,"TOWNNAME":"永康區","LI":"西灣里","LIN":"37鄰","STREET":"永華路","SECT":" ","MAREA":" ","LANE":"２３８巷","ALLEY":" ","HOUSE_NO":"２號","E_COORD97":174122.07000000001,"N_COORD97":2545568.8100000001,"ADDRESS":"永華路２３８巷２號","OBJECTID":428583},"geometry":{"x":174122.0700000003,"y":2545568.8100000042}},{"attributes":{"ID":428609,"DIS_CODE":0,"TOWNNAME":"永康區","LI":"西灣里","LIN":"52鄰","STREET":"永華路","SECT":" ","MAREA":" ","LANE":"３３９巷","ALLEY":" ","HOUSE_NO":"４７號","E_COORD97":173903.26999999999,"N_COORD97":2545919.6499999999,"ADDRESS":"永華路３３９巷４７號","OBJECTID":428584},"geometry":{"x":173903.26999999955,"y":2545919.6500000022}},{"attributes":{"ID":428610,"DIS_CODE":0,"TOWNNAME":"永康區","LI":"西灣里","LIN":"52鄰","STREET":"永華路","SECT":" ","MAREA":" ","LANE":"３３９巷","ALLEY":" ","HOUSE_NO":"４９號","E_COORD97":173897.19,"N_COORD97":2545918.4900000002,"ADDRESS":"永華路３３９巷４９號","OBJECTID":428585},"geometry":{"x":173897.19000000134,"y":2545918.4900000002}},{"attributes":{"ID":428611,"DIS_CODE":0,"TOWNNAME":"永康區","LI":"西灣里","LIN":"52鄰","STREET":"永華路","SECT":" ","MAREA":" ","LANE":"３３９巷","ALLEY":" ","HOUSE_NO":"５１號","E_COORD97":173892.26000000001,"N_COORD97":2545917.04,"ADDRESS":"永華路３３９巷５１號","OBJECTID":428586},"geometry":{"x":173892.26000000071,"y":2545917.0399999991}},{"attributes":{"ID":428612,"DIS_CODE":0,"TOWNNAME":"永康區","LI":"永康里","LIN":"18鄰","STREET":"永華路","SECT":" ","MAREA":" ","LANE":"４８３巷","ALLEY":" ","HOUSE_NO":"２號","E_COORD97":174088.92000000001,"N_COORD97":2547152.8700000001,"ADDRESS":"永華路４８３巷２號","OBJECTID":428587},"geometry":{"x":174088.91999999993,"y":2547152.8700000029}},{"attributes":{"ID":428613,"DIS_CODE":0,"TOWNNAME":"永康區","LI":"五王里","LIN":"17鄰","STREET":"成功路","SECT":" ","MAREA":" ","LANE":"２０４巷","ALLEY":" ","HOUSE_NO":"３８號","E_COORD97":171475.22,"N_COORD97":2545741.9399999999,"ADDRESS":"成功路２０４巷３８號","OBJECTID":428588},"geometry":{"x":171475.22000000067,"y":2545741.9399999995}},{"attributes":{"ID":428614,"DIS_CODE":0,"TOWNNAME":"永康區","LI":"五王里","LIN":"17鄰","STREET":"成功路","SECT":" ","MAREA":" ","LANE":"２０４巷","ALLEY":" ","HOUSE_NO":"４０號","E_COORD97":171478.03,"N_COORD97":2545743.5800000001,"ADDRESS":"成功路２０４巷４０號","OBJECTID":428589},"geometry":{"x":171478.03000000026,"y":2545743.5800000019}},{"attributes":{"ID":428615,"DIS_CODE":0,"TOWNNAME":"永康區","LI":"五王里","LIN":"17鄰","STREET":"成功路","SECT":" ","MAREA":" ","LANE":"２０４巷","ALLEY":" ","HOUSE_NO":"４２號","E_COORD97":171481.03,"N_COORD97":2545745.3700000001,"ADDRESS":"成功路２０４巷４２號","OBJECTID":428590},"geometry":{"x":171481.03000000026,"y":2545745.3700000048}},{"attributes":{"ID":428616,"DIS_CODE":0,"TOWNNAME":"中西區","LI":"西賢里","LIN":"17鄰","STREET":"西賢一街","SECT":" ","MAREA":" ","LANE":"６７巷","ALLEY":" ","HOUSE_NO":"３０號","E_COORD97":165617.07000000001,"N_COORD97":2544627.1099999999,"ADDRESS":"西賢一街６７巷３０號","OBJECTID":428591},"geometry":{"x":165617.0700000003,"y":2544627.1100000013}},{"attributes":{"ID":428617,"DIS_CODE":0,"TOWNNAME":"中西區","LI":"西賢里","LIN":"17鄰","STREET":"西賢一街","SECT":" ","MAREA":" ","LANE":"６７巷","ALLEY":" ","HOUSE_NO":"３２號","E_COORD97":165610.60999999999,"N_COORD97":2544627.46,"ADDRESS":"西賢一街６７巷３２號","OBJECTID":428592},"geometry":{"x":165610.61000000034,"y":2544627.4600000009}},{"attributes":{"ID":428618,"DIS_CODE":0,"TOWNNAME":"中西區","LI":"西賢里","LIN":"17鄰","STREET":"西賢一街","SECT":" ","MAREA":" ","LANE":"６７巷","ALLEY":" ","HOUSE_NO":"３６號","E_COORD97":165605.37,"N_COORD97":2544627.1099999999,"ADDRESS":"西賢一街６７巷３６號","OBJECTID":428593},"geometry":{"x":165605.37000000197,"y":2544627.1100000013}},{"attributes":{"ID":428619,"DIS_CODE":0,"TOWNNAME":"中西區","LI":"西賢里","LIN":"17鄰","STREET":"西賢一街","SECT":" ","MAREA":" ","LANE":"６７巷","ALLEY":" ","HOUSE_NO":"３８號","E_COORD97":165596.98999999999,"N_COORD97":2544626.7599999998,"ADDRESS":"西賢一街６７巷３８號","OBJECTID":428594},"geometry":{"x":165596.99000000115,"y":2544626.7600000016}},{"attributes":{"ID":428620,"DIS_CODE":0,"TOWNNAME":"中西區","LI":"西賢里","LIN":"17鄰","STREET":"西賢一街","SECT":" ","MAREA":" ","LANE":"６７巷","ALLEY":" ","HOUSE_NO":"３號","E_COORD97":165669.34,"N_COORD97":2544603.7400000002,"ADDRESS":"西賢一街６７巷３號","OBJECTID":428595},"geometry":{"x":165669.33999999985,"y":2544603.7400000021}},{"attributes":{"ID":428621,"DIS_CODE":0,"TOWNNAME":"中西區","LI":"西賢里","LIN":"17鄰","STREET":"西賢一街","SECT":" ","MAREA":" ","LANE":"６７巷","ALLEY":" ","HOUSE_NO":"４０號","E_COORD97":165589.66,"N_COORD97":2544626.7599999998,"ADDRESS":"西賢一街６７巷４０號","OBJECTID":428596},"geometry":{"x":165589.66000000015,"y":2544626.7600000016}},{"attributes":{"ID":428622,"DIS_CODE":0,"TOWNNAME":"中西區","LI":"西賢里","LIN":"17鄰","STREET":"西賢一街","SECT":" ","MAREA":" ","LANE":"６７巷","ALLEY":" ","HOUSE_NO":"５號","E_COORD97":165663.23999999999,"N_COORD97":2544603.0899999999,"ADDRESS":"西賢一街６７巷５號","OBJECTID":428597},"geometry":{"x":165663.24000000022,"y":2544603.089999998}},{"attributes":{"ID":428623,"DIS_CODE":0,"TOWNNAME":"中西區","LI":"西賢里","LIN":"17鄰","STREET":"西賢一街","SECT":" ","MAREA":" ","LANE":"６７巷","ALLEY":" ","HOUSE_NO":"６號","E_COORD97":165677.64000000001,"N_COORD97":2544631.6600000001,"ADDRESS":"西賢一街６７巷６號","OBJECTID":428598},"geometry":{"x":165677.64000000153,"y":2544631.660000002}},{"attributes":{"ID":428624,"DIS_CODE":0,"TOWNNAME":"中西區","LI":"西賢里","LIN":"17鄰","STREET":"西賢一街","SECT":" ","MAREA":" ","LANE":"６７巷","ALLEY":" ","HOUSE_NO":"７號","E_COORD97":165656.88,"N_COORD97":2544602.5800000001,"ADDRESS":"西賢一街６７巷７號","OBJECTID":428599},"geometry":{"x":165656.87999999989,"y":2544602.5800000001}},{"attributes":{"ID":428625,"DIS_CODE":0,"TOWNNAME":"中西區","LI":"西賢里","LIN":"17鄰","STREET":"西賢一街","SECT":" ","MAREA":" ","LANE":"６７巷","ALLEY":" ","HOUSE_NO":"８號","E_COORD97":165672.32000000001,"N_COORD97":2544631.02,"ADDRESS":"西賢一街６７巷８號","OBJECTID":428600},"geometry":{"x":165672.32000000123,"y":2544631.0200000014}}]}