{"displayFieldName":"TOWNNAME","fieldAliases":{"ID":"ID","DIS_CODE":"DIS_CODE","TOWNNAME":"TOWNNAME","LI":"LI","LIN":"LIN","STREET":"STREET","SECT":"SECT","MAREA":"MAREA","LANE":"LANE","ALLEY":"ALLEY","HOUSE_NO":"HOUSE_NO","E_COORD97":"E_COORD97","N_COORD97":"N_COORD97","ADDRESS":"ADDRESS","OBJECTID":"OBJECTID"},"geometryType":"esriGeometryPoint","spatialReference":{"wkid":102443,"latestWkid":3826},"fields":[{"name":"ID","type":"esriFieldTypeDouble","alias":"ID"},{"name":"DIS_CODE","type":"esriFieldTypeInteger","alias":"DIS_CODE"},{"name":"TOWNNAME","type":"esriFieldTypeString","alias":"TOWNNAME","length":8},{"name":"LI","type":"esriFieldTypeString","alias":"LI","length":8},{"name":"LIN","type":"esriFieldTypeString","alias":"LIN","length":12},{"name":"STREET","type":"esriFieldTypeString","alias":"STREET","length":20},{"name":"SECT","type":"esriFieldTypeString","alias":"SECT","length":8},{"name":"MAREA","type":"esriFieldTypeString","alias":"MAREA","length":12},{"name":"LANE","type":"esriFieldTypeString","alias":"LANE","length":10},{"name":"ALLEY","type":"esriFieldTypeString","alias":"ALLEY","length":10},{"name":"HOUSE_NO","type":"esriFieldTypeString","alias":"HOUSE_NO","length":20},{"name":"E_COORD97","type":"esriFieldTypeDouble","alias":"E_COORD97"},{"name":"N_COORD97","type":"esriFieldTypeDouble","alias":"N_COORD97"},{"name":"ADDRESS","type":"esriFieldTypeString","alias":"ADDRESS","length":50},{"name":"OBJECTID","type":"esriFieldTypeOID","alias":"OBJECTID"}],"features":[{"attributes":{"ID":555828,"DIS_CODE":0,"TOWNNAME":"中西區","LI":"大涼里","LIN":"21鄰","STREET":"府前二街","SECT":" ","MAREA":" ","LANE":" ","ALLEY":" ","HOUSE_NO":"７０號五樓之８","E_COORD97":166684.92999999999,"N_COORD97":2543908.52,"ADDRESS":"府前二街７０號五樓之８","OBJECTID":555801},"geometry":{"x":166684.93000000063,"y":2543908.5200000033}},{"attributes":{"ID":555829,"DIS_CODE":0,"TOWNNAME":"中西區","LI":"大涼里","LIN":"21鄰","STREET":"府前二街","SECT":" ","MAREA":" ","LANE":" ","ALLEY":" ","HOUSE_NO":"７０號五樓之９","E_COORD97":166684.92999999999,"N_COORD97":2543908.52,"ADDRESS":"府前二街７０號五樓之９","OBJECTID":555802},"geometry":{"x":166684.93000000063,"y":2543908.5200000033}},{"attributes":{"ID":555830,"DIS_CODE":0,"TOWNNAME":"中西區","LI":"大涼里","LIN":"21鄰","STREET":"府前二街","SECT":" ","MAREA":" ","LANE":" ","ALLEY":" ","HOUSE_NO":"７０號六樓之１","E_COORD97":166684.92999999999,"N_COORD97":2543908.52,"ADDRESS":"府前二街７０號六樓之１","OBJECTID":555803},"geometry":{"x":166684.93000000063,"y":2543908.5200000033}},{"attributes":{"ID":555831,"DIS_CODE":0,"TOWNNAME":"中西區","LI":"大涼里","LIN":"21鄰","STREET":"府前二街","SECT":" ","MAREA":" ","LANE":" ","ALLEY":" ","HOUSE_NO":"７０號六樓之１０","E_COORD97":166684.92999999999,"N_COORD97":2543908.52,"ADDRESS":"府前二街７０號六樓之１０","OBJECTID":555804},"geometry":{"x":166684.93000000063,"y":2543908.5200000033}},{"attributes":{"ID":555832,"DIS_CODE":0,"TOWNNAME":"中西區","LI":"大涼里","LIN":"21鄰","STREET":"府前二街","SECT":" ","MAREA":" ","LANE":" ","ALLEY":" ","HOUSE_NO":"７０號六樓之１１","E_COORD97":166684.92999999999,"N_COORD97":2543908.52,"ADDRESS":"府前二街７０號六樓之１１","OBJECTID":555805},"geometry":{"x":166684.93000000063,"y":2543908.5200000033}},{"attributes":{"ID":555833,"DIS_CODE":0,"TOWNNAME":"中西區","LI":"大涼里","LIN":"21鄰","STREET":"府前二街","SECT":" ","MAREA":" ","LANE":" ","ALLEY":" ","HOUSE_NO":"７０號六樓之１２","E_COORD97":166684.92999999999,"N_COORD97":2543908.52,"ADDRESS":"府前二街７０號六樓之１２","OBJECTID":555806},"geometry":{"x":166684.93000000063,"y":2543908.5200000033}},{"attributes":{"ID":555834,"DIS_CODE":0,"TOWNNAME":"中西區","LI":"大涼里","LIN":"21鄰","STREET":"府前二街","SECT":" ","MAREA":" ","LANE":" ","ALLEY":" ","HOUSE_NO":"７０號六樓之１３","E_COORD97":166684.92999999999,"N_COORD97":2543908.52,"ADDRESS":"府前二街７０號六樓之１３","OBJECTID":555807},"geometry":{"x":166684.93000000063,"y":2543908.5200000033}},{"attributes":{"ID":555835,"DIS_CODE":0,"TOWNNAME":"中西區","LI":"大涼里","LIN":"21鄰","STREET":"府前二街","SECT":" ","MAREA":" ","LANE":" ","ALLEY":" ","HOUSE_NO":"７０號六樓之１４","E_COORD97":166684.92999999999,"N_COORD97":2543908.52,"ADDRESS":"府前二街７０號六樓之１４","OBJECTID":555808},"geometry":{"x":166684.93000000063,"y":2543908.5200000033}},{"attributes":{"ID":555836,"DIS_CODE":0,"TOWNNAME":"中西區","LI":"大涼里","LIN":"21鄰","STREET":"府前二街","SECT":" ","MAREA":" ","LANE":" ","ALLEY":" ","HOUSE_NO":"７０號六樓之１５","E_COORD97":166684.92999999999,"N_COORD97":2543908.52,"ADDRESS":"府前二街７０號六樓之１５","OBJECTID":555809},"geometry":{"x":166684.93000000063,"y":2543908.5200000033}},{"attributes":{"ID":555837,"DIS_CODE":0,"TOWNNAME":"中西區","LI":"大涼里","LIN":"21鄰","STREET":"府前二街","SECT":" ","MAREA":" ","LANE":" ","ALLEY":" ","HOUSE_NO":"７０號六樓之１６","E_COORD97":166684.92999999999,"N_COORD97":2543908.52,"ADDRESS":"府前二街７０號六樓之１６","OBJECTID":555810},"geometry":{"x":166684.93000000063,"y":2543908.5200000033}},{"attributes":{"ID":555838,"DIS_CODE":0,"TOWNNAME":"中西區","LI":"大涼里","LIN":"21鄰","STREET":"府前二街","SECT":" ","MAREA":" ","LANE":" ","ALLEY":" ","HOUSE_NO":"７０號六樓之１７","E_COORD97":166684.92999999999,"N_COORD97":2543908.52,"ADDRESS":"府前二街７０號六樓之１７","OBJECTID":555811},"geometry":{"x":166684.93000000063,"y":2543908.5200000033}},{"attributes":{"ID":555839,"DIS_CODE":0,"TOWNNAME":"中西區","LI":"大涼里","LIN":"21鄰","STREET":"府前二街","SECT":" ","MAREA":" ","LANE":" ","ALLEY":" ","HOUSE_NO":"７０號六樓之１８","E_COORD97":166684.92999999999,"N_COORD97":2543908.52,"ADDRESS":"府前二街７０號六樓之１８","OBJECTID":555812},"geometry":{"x":166684.93000000063,"y":2543908.5200000033}},{"attributes":{"ID":555840,"DIS_CODE":0,"TOWNNAME":"中西區","LI":"大涼里","LIN":"21鄰","STREET":"府前二街","SECT":" ","MAREA":" ","LANE":" ","ALLEY":" ","HOUSE_NO":"７０號六樓之１９","E_COORD97":166684.92999999999,"N_COORD97":2543908.52,"ADDRESS":"府前二街７０號六樓之１９","OBJECTID":555813},"geometry":{"x":166684.93000000063,"y":2543908.5200000033}},{"attributes":{"ID":555841,"DIS_CODE":0,"TOWNNAME":"中西區","LI":"大涼里","LIN":"21鄰","STREET":"府前二街","SECT":" ","MAREA":" ","LANE":" ","ALLEY":" ","HOUSE_NO":"７０號六樓之２","E_COORD97":166684.92999999999,"N_COORD97":2543908.52,"ADDRESS":"府前二街７０號六樓之２","OBJECTID":555814},"geometry":{"x":166684.93000000063,"y":2543908.5200000033}},{"attributes":{"ID":555842,"DIS_CODE":0,"TOWNNAME":"中西區","LI":"大涼里","LIN":"21鄰","STREET":"府前二街","SECT":" ","MAREA":" ","LANE":" ","ALLEY":" ","HOUSE_NO":"７０號六樓之２０","E_COORD97":166684.92999999999,"N_COORD97":2543908.52,"ADDRESS":"府前二街７０號六樓之２０","OBJECTID":555815},"geometry":{"x":166684.93000000063,"y":2543908.5200000033}},{"attributes":{"ID":555843,"DIS_CODE":0,"TOWNNAME":"中西區","LI":"大涼里","LIN":"21鄰","STREET":"府前二街","SECT":" ","MAREA":" ","LANE":" ","ALLEY":" ","HOUSE_NO":"７０號六樓之２１","E_COORD97":166684.92999999999,"N_COORD97":2543908.52,"ADDRESS":"府前二街７０號六樓之２１","OBJECTID":555816},"geometry":{"x":166684.93000000063,"y":2543908.5200000033}},{"attributes":{"ID":555844,"DIS_CODE":0,"TOWNNAME":"中西區","LI":"大涼里","LIN":"21鄰","STREET":"府前二街","SECT":" ","MAREA":" ","LANE":" ","ALLEY":" ","HOUSE_NO":"７０號六樓之２２","E_COORD97":166684.92999999999,"N_COORD97":2543908.52,"ADDRESS":"府前二街７０號六樓之２２","OBJECTID":555817},"geometry":{"x":166684.93000000063,"y":2543908.5200000033}},{"attributes":{"ID":555845,"DIS_CODE":0,"TOWNNAME":"中西區","LI":"大涼里","LIN":"21鄰","STREET":"府前二街","SECT":" ","MAREA":" ","LANE":" ","ALLEY":" ","HOUSE_NO":"７０號六樓之２３","E_COORD97":166684.92999999999,"N_COORD97":2543908.52,"ADDRESS":"府前二街７０號六樓之２３","OBJECTID":555818},"geometry":{"x":166684.93000000063,"y":2543908.5200000033}},{"attributes":{"ID":555846,"DIS_CODE":0,"TOWNNAME":"中西區","LI":"大涼里","LIN":"21鄰","STREET":"府前二街","SECT":" ","MAREA":" ","LANE":" ","ALLEY":" ","HOUSE_NO":"７０號六樓之２４","E_COORD97":166684.92999999999,"N_COORD97":2543908.52,"ADDRESS":"府前二街７０號六樓之２４","OBJECTID":555819},"geometry":{"x":166684.93000000063,"y":2543908.5200000033}},{"attributes":{"ID":555847,"DIS_CODE":0,"TOWNNAME":"中西區","LI":"大涼里","LIN":"21鄰","STREET":"府前二街","SECT":" ","MAREA":" ","LANE":" ","ALLEY":" ","HOUSE_NO":"７０號六樓之２５","E_COORD97":166684.92999999999,"N_COORD97":2543908.52,"ADDRESS":"府前二街７０號六樓之２５","OBJECTID":555820},"geometry":{"x":166684.93000000063,"y":2543908.5200000033}},{"attributes":{"ID":555848,"DIS_CODE":0,"TOWNNAME":"中西區","LI":"大涼里","LIN":"21鄰","STREET":"府前二街","SECT":" ","MAREA":" ","LANE":" ","ALLEY":" ","HOUSE_NO":"７０號六樓之２６","E_COORD97":166684.92999999999,"N_COORD97":2543908.52,"ADDRESS":"府前二街７０號六樓之２６","OBJECTID":555821},"geometry":{"x":166684.93000000063,"y":2543908.5200000033}},{"attributes":{"ID":555849,"DIS_CODE":0,"TOWNNAME":"中西區","LI":"大涼里","LIN":"21鄰","STREET":"府前二街","SECT":" ","MAREA":" ","LANE":" ","ALLEY":" ","HOUSE_NO":"７０號六樓之２７","E_COORD97":166684.92999999999,"N_COORD97":2543908.52,"ADDRESS":"府前二街７０號六樓之２７","OBJECTID":555822},"geometry":{"x":166684.93000000063,"y":2543908.5200000033}},{"attributes":{"ID":555850,"DIS_CODE":0,"TOWNNAME":"中西區","LI":"大涼里","LIN":"21鄰","STREET":"府前二街","SECT":" ","MAREA":" ","LANE":" ","ALLEY":" ","HOUSE_NO":"７０號六樓之２８","E_COORD97":166684.92999999999,"N_COORD97":2543908.52,"ADDRESS":"府前二街７０號六樓之２８","OBJECTID":555823},"geometry":{"x":166684.93000000063,"y":2543908.5200000033}},{"attributes":{"ID":555851,"DIS_CODE":0,"TOWNNAME":"中西區","LI":"大涼里","LIN":"21鄰","STREET":"府前二街","SECT":" ","MAREA":" ","LANE":" ","ALLEY":" ","HOUSE_NO":"７０號六樓之２９","E_COORD97":166684.92999999999,"N_COORD97":2543908.52,"ADDRESS":"府前二街７０號六樓之２９","OBJECTID":555824},"geometry":{"x":166684.93000000063,"y":2543908.5200000033}},{"attributes":{"ID":555852,"DIS_CODE":0,"TOWNNAME":"中西區","LI":"大涼里","LIN":"21鄰","STREET":"府前二街","SECT":" ","MAREA":" ","LANE":" ","ALLEY":" ","HOUSE_NO":"７０號六樓之３","E_COORD97":166684.92999999999,"N_COORD97":2543908.52,"ADDRESS":"府前二街７０號六樓之３","OBJECTID":555825},"geometry":{"x":166684.93000000063,"y":2543908.5200000033}},{"attributes":{"ID":555853,"DIS_CODE":0,"TOWNNAME":"中西區","LI":"大涼里","LIN":"21鄰","STREET":"府前二街","SECT":" ","MAREA":" ","LANE":" ","ALLEY":" ","HOUSE_NO":"７０號六樓之３０","E_COORD97":166684.92999999999,"N_COORD97":2543908.52,"ADDRESS":"府前二街７０號六樓之３０","OBJECTID":555826},"geometry":{"x":166684.93000000063,"y":2543908.5200000033}},{"attributes":{"ID":555854,"DIS_CODE":0,"TOWNNAME":"中西區","LI":"大涼里","LIN":"21鄰","STREET":"府前二街","SECT":" ","MAREA":" ","LANE":" ","ALLEY":" ","HOUSE_NO":"７０號六樓之３１","E_COORD97":166684.92999999999,"N_COORD97":2543908.52,"ADDRESS":"府前二街７０號六樓之３１","OBJECTID":555827},"geometry":{"x":166684.93000000063,"y":2543908.5200000033}},{"attributes":{"ID":555855,"DIS_CODE":0,"TOWNNAME":"中西區","LI":"大涼里","LIN":"21鄰","STREET":"府前二街","SECT":" ","MAREA":" ","LANE":" ","ALLEY":" ","HOUSE_NO":"７０號六樓之４","E_COORD97":166684.92999999999,"N_COORD97":2543908.52,"ADDRESS":"府前二街７０號六樓之４","OBJECTID":555828},"geometry":{"x":166684.93000000063,"y":2543908.5200000033}},{"attributes":{"ID":555856,"DIS_CODE":0,"TOWNNAME":"中西區","LI":"大涼里","LIN":"21鄰","STREET":"府前二街","SECT":" ","MAREA":" ","LANE":" ","ALLEY":" ","HOUSE_NO":"７０號六樓之５","E_COORD97":166684.92999999999,"N_COORD97":2543908.52,"ADDRESS":"府前二街７０號六樓之５","OBJECTID":555829},"geometry":{"x":166684.93000000063,"y":2543908.5200000033}},{"attributes":{"ID":555857,"DIS_CODE":0,"TOWNNAME":"中西區","LI":"大涼里","LIN":"21鄰","STREET":"府前二街","SECT":" ","MAREA":" ","LANE":" ","ALLEY":" ","HOUSE_NO":"７０號六樓之６","E_COORD97":166684.92999999999,"N_COORD97":2543908.52,"ADDRESS":"府前二街７０號六樓之６","OBJECTID":555830},"geometry":{"x":166684.93000000063,"y":2543908.5200000033}},{"attributes":{"ID":555858,"DIS_CODE":0,"TOWNNAME":"中西區","LI":"大涼里","LIN":"21鄰","STREET":"府前二街","SECT":" ","MAREA":" ","LANE":" ","ALLEY":" ","HOUSE_NO":"７０號六樓之７","E_COORD97":166684.92999999999,"N_COORD97":2543908.52,"ADDRESS":"府前二街７０號六樓之７","OBJECTID":555831},"geometry":{"x":166684.93000000063,"y":2543908.5200000033}},{"attributes":{"ID":555859,"DIS_CODE":0,"TOWNNAME":"中西區","LI":"大涼里","LIN":"21鄰","STREET":"府前二街","SECT":" ","MAREA":" ","LANE":" ","ALLEY":" ","HOUSE_NO":"７０號六樓之８","E_COORD97":166684.92999999999,"N_COORD97":2543908.52,"ADDRESS":"府前二街７０號六樓之８","OBJECTID":555832},"geometry":{"x":166684.93000000063,"y":2543908.5200000033}},{"attributes":{"ID":555860,"DIS_CODE":0,"TOWNNAME":"中西區","LI":"大涼里","LIN":"21鄰","STREET":"府前二街","SECT":" ","MAREA":" ","LANE":" ","ALLEY":" ","HOUSE_NO":"７０號六樓之９","E_COORD97":166684.92999999999,"N_COORD97":2543908.52,"ADDRESS":"府前二街７０號六樓之９","OBJECTID":555833},"geometry":{"x":166684.93000000063,"y":2543908.5200000033}},{"attributes":{"ID":555861,"DIS_CODE":0,"TOWNNAME":"中西區","LI":"大涼里","LIN":"21鄰","STREET":"府前二街","SECT":" ","MAREA":" ","LANE":" ","ALLEY":" ","HOUSE_NO":"７０號四樓之１","E_COORD97":166684.92999999999,"N_COORD97":2543908.52,"ADDRESS":"府前二街７０號四樓之１","OBJECTID":555834},"geometry":{"x":166684.93000000063,"y":2543908.5200000033}},{"attributes":{"ID":555862,"DIS_CODE":0,"TOWNNAME":"中西區","LI":"大涼里","LIN":"21鄰","STREET":"府前二街","SECT":" ","MAREA":" ","LANE":" ","ALLEY":" ","HOUSE_NO":"７０號四樓之１０","E_COORD97":166684.92999999999,"N_COORD97":2543908.52,"ADDRESS":"府前二街７０號四樓之１０","OBJECTID":555835},"geometry":{"x":166684.93000000063,"y":2543908.5200000033}},{"attributes":{"ID":555863,"DIS_CODE":0,"TOWNNAME":"中西區","LI":"大涼里","LIN":"21鄰","STREET":"府前二街","SECT":" ","MAREA":" ","LANE":" ","ALLEY":" ","HOUSE_NO":"７０號四樓之１１","E_COORD97":166684.92999999999,"N_COORD97":2543908.52,"ADDRESS":"府前二街７０號四樓之１１","OBJECTID":555836},"geometry":{"x":166684.93000000063,"y":2543908.5200000033}},{"attributes":{"ID":555864,"DIS_CODE":0,"TOWNNAME":"中西區","LI":"大涼里","LIN":"21鄰","STREET":"府前二街","SECT":" ","MAREA":" ","LANE":" ","ALLEY":" ","HOUSE_NO":"７０號四樓之１２","E_COORD97":166684.92999999999,"N_COORD97":2543908.52,"ADDRESS":"府前二街７０號四樓之１２","OBJECTID":555837},"geometry":{"x":166684.93000000063,"y":2543908.5200000033}},{"attributes":{"ID":555865,"DIS_CODE":0,"TOWNNAME":"中西區","LI":"大涼里","LIN":"21鄰","STREET":"府前二街","SECT":" ","MAREA":" ","LANE":" ","ALLEY":" ","HOUSE_NO":"７０號四樓之１３","E_COORD97":166684.92999999999,"N_COORD97":2543908.52,"ADDRESS":"府前二街７０號四樓之１３","OBJECTID":555838},"geometry":{"x":166684.93000000063,"y":2543908.5200000033}},{"attributes":{"ID":555866,"DIS_CODE":0,"TOWNNAME":"中西區","LI":"大涼里","LIN":"21鄰","STREET":"府前二街","SECT":" ","MAREA":" ","LANE":" ","ALLEY":" ","HOUSE_NO":"７０號四樓之１４","E_COORD97":166684.92999999999,"N_COORD97":2543908.52,"ADDRESS":"府前二街７０號四樓之１４","OBJECTID":555839},"geometry":{"x":166684.93000000063,"y":2543908.5200000033}},{"attributes":{"ID":555867,"DIS_CODE":0,"TOWNNAME":"中西區","LI":"大涼里","LIN":"21鄰","STREET":"府前二街","SECT":" ","MAREA":" ","LANE":" ","ALLEY":" ","HOUSE_NO":"７０號四樓之１５","E_COORD97":166684.92999999999,"N_COORD97":2543908.52,"ADDRESS":"府前二街７０號四樓之１５","OBJECTID":555840},"geometry":{"x":166684.93000000063,"y":2543908.5200000033}},{"attributes":{"ID":555868,"DIS_CODE":0,"TOWNNAME":"中西區","LI":"大涼里","LIN":"21鄰","STREET":"府前二街","SECT":" ","MAREA":" ","LANE":" ","ALLEY":" ","HOUSE_NO":"７０號四樓之１６","E_COORD97":166684.92999999999,"N_COORD97":2543908.52,"ADDRESS":"府前二街７０號四樓之１６","OBJECTID":555841},"geometry":{"x":166684.93000000063,"y":2543908.5200000033}},{"attributes":{"ID":555869,"DIS_CODE":0,"TOWNNAME":"中西區","LI":"大涼里","LIN":"21鄰","STREET":"府前二街","SECT":" ","MAREA":" ","LANE":" ","ALLEY":" ","HOUSE_NO":"７０號四樓之１７","E_COORD97":166684.92999999999,"N_COORD97":2543908.52,"ADDRESS":"府前二街７０號四樓之１７","OBJECTID":555842},"geometry":{"x":166684.93000000063,"y":2543908.5200000033}},{"attributes":{"ID":555870,"DIS_CODE":0,"TOWNNAME":"中西區","LI":"大涼里","LIN":"21鄰","STREET":"府前二街","SECT":" ","MAREA":" ","LANE":" ","ALLEY":" ","HOUSE_NO":"７０號四樓之１８","E_COORD97":166684.92999999999,"N_COORD97":2543908.52,"ADDRESS":"府前二街７０號四樓之１８","OBJECTID":555843},"geometry":{"x":166684.93000000063,"y":2543908.5200000033}},{"attributes":{"ID":555871,"DIS_CODE":0,"TOWNNAME":"南區","LI":"郡南里","LIN":"22鄰","STREET":"永興二街","SECT":" ","MAREA":" ","LANE":" ","ALLEY":" ","HOUSE_NO":"５號","E_COORD97":167275.04999999999,"N_COORD97":2540641.8199999998,"ADDRESS":"永興二街５號","OBJECTID":555844},"geometry":{"x":167275.04999999981,"y":2540641.8200000003}},{"attributes":{"ID":555872,"DIS_CODE":0,"TOWNNAME":"中西區","LI":"大涼里","LIN":"21鄰","STREET":"府前二街","SECT":" ","MAREA":" ","LANE":" ","ALLEY":" ","HOUSE_NO":"７０號四樓之１９","E_COORD97":166684.92999999999,"N_COORD97":2543908.52,"ADDRESS":"府前二街７０號四樓之１９","OBJECTID":555845},"geometry":{"x":166684.93000000063,"y":2543908.5200000033}},{"attributes":{"ID":555873,"DIS_CODE":0,"TOWNNAME":"中西區","LI":"大涼里","LIN":"21鄰","STREET":"府前二街","SECT":" ","MAREA":" ","LANE":" ","ALLEY":" ","HOUSE_NO":"７０號四樓之２","E_COORD97":166684.92999999999,"N_COORD97":2543908.52,"ADDRESS":"府前二街７０號四樓之２","OBJECTID":555846},"geometry":{"x":166684.93000000063,"y":2543908.5200000033}},{"attributes":{"ID":555874,"DIS_CODE":0,"TOWNNAME":"中西區","LI":"大涼里","LIN":"21鄰","STREET":"府前二街","SECT":" ","MAREA":" ","LANE":" ","ALLEY":" ","HOUSE_NO":"７０號四樓之２０","E_COORD97":166684.92999999999,"N_COORD97":2543908.52,"ADDRESS":"府前二街７０號四樓之２０","OBJECTID":555847},"geometry":{"x":166684.93000000063,"y":2543908.5200000033}},{"attributes":{"ID":555875,"DIS_CODE":0,"TOWNNAME":"中西區","LI":"大涼里","LIN":"21鄰","STREET":"府前二街","SECT":" ","MAREA":" ","LANE":" ","ALLEY":" ","HOUSE_NO":"７０號四樓之２１","E_COORD97":166684.92999999999,"N_COORD97":2543908.52,"ADDRESS":"府前二街７０號四樓之２１","OBJECTID":555848},"geometry":{"x":166684.93000000063,"y":2543908.5200000033}},{"attributes":{"ID":555876,"DIS_CODE":0,"TOWNNAME":"中西區","LI":"大涼里","LIN":"21鄰","STREET":"府前二街","SECT":" ","MAREA":" ","LANE":" ","ALLEY":" ","HOUSE_NO":"７０號四樓之２２","E_COORD97":166684.92999999999,"N_COORD97":2543908.52,"ADDRESS":"府前二街７０號四樓之２２","OBJECTID":555849},"geometry":{"x":166684.93000000063,"y":2543908.5200000033}},{"attributes":{"ID":555877,"DIS_CODE":0,"TOWNNAME":"中西區","LI":"大涼里","LIN":"21鄰","STREET":"府前二街","SECT":" ","MAREA":" ","LANE":" ","ALLEY":" ","HOUSE_NO":"７０號四樓之２３","E_COORD97":166684.92999999999,"N_COORD97":2543908.52,"ADDRESS":"府前二街７０號四樓之２３","OBJECTID":555850},"geometry":{"x":166684.93000000063,"y":2543908.5200000033}},{"attributes":{"ID":555878,"DIS_CODE":0,"TOWNNAME":"中西區","LI":"大涼里","LIN":"21鄰","STREET":"府前二街","SECT":" ","MAREA":" ","LANE":" ","ALLEY":" ","HOUSE_NO":"７０號四樓之２４","E_COORD97":166684.92999999999,"N_COORD97":2543908.52,"ADDRESS":"府前二街７０號四樓之２４","OBJECTID":555851},"geometry":{"x":166684.93000000063,"y":2543908.5200000033}},{"attributes":{"ID":555879,"DIS_CODE":0,"TOWNNAME":"中西區","LI":"大涼里","LIN":"21鄰","STREET":"府前二街","SECT":" ","MAREA":" ","LANE":" ","ALLEY":" ","HOUSE_NO":"７０號四樓之２５","E_COORD97":166684.92999999999,"N_COORD97":2543908.52,"ADDRESS":"府前二街７０號四樓之２５","OBJECTID":555852},"geometry":{"x":166684.93000000063,"y":2543908.5200000033}},{"attributes":{"ID":555880,"DIS_CODE":0,"TOWNNAME":"中西區","LI":"大涼里","LIN":"21鄰","STREET":"府前二街","SECT":" ","MAREA":" ","LANE":" ","ALLEY":" ","HOUSE_NO":"７０號四樓之２６","E_COORD97":166684.92999999999,"N_COORD97":2543908.52,"ADDRESS":"府前二街７０號四樓之２６","OBJECTID":555853},"geometry":{"x":166684.93000000063,"y":2543908.5200000033}},{"attributes":{"ID":555881,"DIS_CODE":0,"TOWNNAME":"中西區","LI":"大涼里","LIN":"21鄰","STREET":"府前二街","SECT":" ","MAREA":" ","LANE":" ","ALLEY":" ","HOUSE_NO":"７０號四樓之２７","E_COORD97":166684.92999999999,"N_COORD97":2543908.52,"ADDRESS":"府前二街７０號四樓之２７","OBJECTID":555854},"geometry":{"x":166684.93000000063,"y":2543908.5200000033}},{"attributes":{"ID":555882,"DIS_CODE":0,"TOWNNAME":"中西區","LI":"大涼里","LIN":"21鄰","STREET":"府前二街","SECT":" ","MAREA":" ","LANE":" ","ALLEY":" ","HOUSE_NO":"７０號四樓之２８","E_COORD97":166684.92999999999,"N_COORD97":2543908.52,"ADDRESS":"府前二街７０號四樓之２８","OBJECTID":555855},"geometry":{"x":166684.93000000063,"y":2543908.5200000033}},{"attributes":{"ID":555883,"DIS_CODE":0,"TOWNNAME":"歸仁區","LI":"文化里","LIN":"21鄰","STREET":"大德路","SECT":" ","MAREA":" ","LANE":" ","ALLEY":" ","HOUSE_NO":"２１１號六樓之１０","E_COORD97":177223.85999999999,"N_COORD97":2541515.3399999999,"ADDRESS":"大德路２１１號六樓之１０","OBJECTID":555856},"geometry":{"x":177223.86000000034,"y":2541515.3399999999}},{"attributes":{"ID":555884,"DIS_CODE":0,"TOWNNAME":"歸仁區","LI":"文化里","LIN":"21鄰","STREET":"大德路","SECT":" ","MAREA":" ","LANE":" ","ALLEY":" ","HOUSE_NO":"２１１號五樓之１３","E_COORD97":177223.87,"N_COORD97":2541515.3399999999,"ADDRESS":"大德路２１１號五樓之１３","OBJECTID":555857},"geometry":{"x":177223.87000000011,"y":2541515.3399999999}},{"attributes":{"ID":555885,"DIS_CODE":0,"TOWNNAME":"歸仁區","LI":"文化里","LIN":"21鄰","STREET":"大德路","SECT":" ","MAREA":" ","LANE":" ","ALLEY":" ","HOUSE_NO":"２１１號五樓之１","E_COORD97":177223.60000000001,"N_COORD97":2541515.3399999999,"ADDRESS":"大德路２１１號五樓之１","OBJECTID":555858},"geometry":{"x":177223.59999999963,"y":2541515.3399999999}},{"attributes":{"ID":555886,"DIS_CODE":0,"TOWNNAME":"歸仁區","LI":"文化里","LIN":"21鄰","STREET":"大德路","SECT":" ","MAREA":" ","LANE":" ","ALLEY":" ","HOUSE_NO":"２１１號八樓之３","E_COORD97":177223.62,"N_COORD97":2541515.3399999999,"ADDRESS":"大德路２１１號八樓之３","OBJECTID":555859},"geometry":{"x":177223.62000000011,"y":2541515.3399999999}},{"attributes":{"ID":555887,"DIS_CODE":0,"TOWNNAME":"歸仁區","LI":"文化里","LIN":"21鄰","STREET":"大德路","SECT":" ","MAREA":" ","LANE":" ","ALLEY":" ","HOUSE_NO":"２１１號五樓之１４","E_COORD97":177223.85000000001,"N_COORD97":2541515.3399999999,"ADDRESS":"大德路２１１號五樓之１４","OBJECTID":555860},"geometry":{"x":177223.85000000149,"y":2541515.3399999999}},{"attributes":{"ID":555888,"DIS_CODE":0,"TOWNNAME":"歸仁區","LI":"文化里","LIN":"21鄰","STREET":"大德路","SECT":" ","MAREA":" ","LANE":" ","ALLEY":" ","HOUSE_NO":"２１１號六樓之５","E_COORD97":177223.63,"N_COORD97":2541515.3399999999,"ADDRESS":"大德路２１１號六樓之５","OBJECTID":555861},"geometry":{"x":177223.62999999989,"y":2541515.3399999999}},{"attributes":{"ID":555889,"DIS_CODE":0,"TOWNNAME":"歸仁區","LI":"文化里","LIN":"21鄰","STREET":"大德路","SECT":" ","MAREA":" ","LANE":" ","ALLEY":" ","HOUSE_NO":"２１１號五樓之１１","E_COORD97":177223.85000000001,"N_COORD97":2541515.3399999999,"ADDRESS":"大德路２１１號五樓之１１","OBJECTID":555862},"geometry":{"x":177223.85000000149,"y":2541515.3399999999}},{"attributes":{"ID":555890,"DIS_CODE":0,"TOWNNAME":"新營區","LI":"興業里","LIN":"21鄰","STREET":"中山路","SECT":" ","MAREA":" ","LANE":" ","ALLEY":" ","HOUSE_NO":"１１７號三樓之２","E_COORD97":180246.53,"N_COORD97":2578201.7400000002,"ADDRESS":"中山路１１７號三樓之２","OBJECTID":555863},"geometry":{"x":180246.53000000119,"y":2578201.7400000021}},{"attributes":{"ID":555891,"DIS_CODE":0,"TOWNNAME":"新營區","LI":"興業里","LIN":"21鄰","STREET":"中山路","SECT":" ","MAREA":" ","LANE":" ","ALLEY":" ","HOUSE_NO":"１１７號十樓之４","E_COORD97":180246.42000000001,"N_COORD97":2578201.7400000002,"ADDRESS":"中山路１１７號十樓之４","OBJECTID":555864},"geometry":{"x":180246.42000000086,"y":2578201.7400000021}},{"attributes":{"ID":555892,"DIS_CODE":0,"TOWNNAME":"新營區","LI":"興業里","LIN":"21鄰","STREET":"中山路","SECT":" ","MAREA":" ","LANE":" ","ALLEY":" ","HOUSE_NO":"１１７號十三樓之４","E_COORD97":180247.67000000001,"N_COORD97":2578201.7400000002,"ADDRESS":"中山路１１７號十三樓之４","OBJECTID":555865},"geometry":{"x":180247.66999999993,"y":2578201.7400000021}},{"attributes":{"ID":555893,"DIS_CODE":0,"TOWNNAME":"新營區","LI":"興業里","LIN":"21鄰","STREET":"中山路","SECT":" ","MAREA":" ","LANE":" ","ALLEY":" ","HOUSE_NO":"１１７號三樓之８","E_COORD97":180246.54000000001,"N_COORD97":2578201.7400000002,"ADDRESS":"中山路１１７號三樓之８","OBJECTID":555866},"geometry":{"x":180246.54000000004,"y":2578201.7400000021}},{"attributes":{"ID":555894,"DIS_CODE":0,"TOWNNAME":"南區","LI":"新興里","LIN":"21鄰","STREET":"三官路","SECT":" ","MAREA":" ","LANE":" ","ALLEY":" ","HOUSE_NO":"１８３號二樓之２","E_COORD97":167269.79000000001,"N_COORD97":2542002.5299999998,"ADDRESS":"三官路１８３號二樓之２","OBJECTID":555867},"geometry":{"x":167269.79000000004,"y":2542002.5299999975}},{"attributes":{"ID":555895,"DIS_CODE":0,"TOWNNAME":"南區","LI":"新興里","LIN":"21鄰","STREET":"三官路","SECT":" ","MAREA":" ","LANE":" ","ALLEY":" ","HOUSE_NO":"１８３號三樓之１","E_COORD97":167269.79000000001,"N_COORD97":2542002.5299999998,"ADDRESS":"三官路１８３號三樓之１","OBJECTID":555868},"geometry":{"x":167269.79000000004,"y":2542002.5299999975}},{"attributes":{"ID":555896,"DIS_CODE":0,"TOWNNAME":"南區","LI":"新興里","LIN":"21鄰","STREET":"三官路","SECT":" ","MAREA":" ","LANE":" ","ALLEY":" ","HOUSE_NO":"１８３號三樓之２","E_COORD97":167269.79000000001,"N_COORD97":2542002.5299999998,"ADDRESS":"三官路１８３號三樓之２","OBJECTID":555869},"geometry":{"x":167269.79000000004,"y":2542002.5299999975}},{"attributes":{"ID":555897,"DIS_CODE":0,"TOWNNAME":"南區","LI":"新興里","LIN":"21鄰","STREET":"三官路","SECT":" ","MAREA":" ","LANE":" ","ALLEY":" ","HOUSE_NO":"１８３號五樓之１","E_COORD97":167269.79000000001,"N_COORD97":2542002.5299999998,"ADDRESS":"三官路１８３號五樓之１","OBJECTID":555870},"geometry":{"x":167269.79000000004,"y":2542002.5299999975}},{"attributes":{"ID":555898,"DIS_CODE":0,"TOWNNAME":"南區","LI":"新興里","LIN":"21鄰","STREET":"三官路","SECT":" ","MAREA":" ","LANE":" ","ALLEY":" ","HOUSE_NO":"１８３號五樓之２","E_COORD97":167269.79000000001,"N_COORD97":2542002.5299999998,"ADDRESS":"三官路１８３號五樓之２","OBJECTID":555871},"geometry":{"x":167269.79000000004,"y":2542002.5299999975}},{"attributes":{"ID":555899,"DIS_CODE":0,"TOWNNAME":"南區","LI":"新興里","LIN":"21鄰","STREET":"三官路","SECT":" ","MAREA":" ","LANE":" ","ALLEY":" ","HOUSE_NO":"１８３號六樓之１","E_COORD97":167269.79000000001,"N_COORD97":2542002.5299999998,"ADDRESS":"三官路１８３號六樓之１","OBJECTID":555872},"geometry":{"x":167269.79000000004,"y":2542002.5299999975}},{"attributes":{"ID":555900,"DIS_CODE":0,"TOWNNAME":"南區","LI":"新興里","LIN":"21鄰","STREET":"三官路","SECT":" ","MAREA":" ","LANE":" ","ALLEY":" ","HOUSE_NO":"１８３號六樓之２","E_COORD97":167269.79000000001,"N_COORD97":2542002.5299999998,"ADDRESS":"三官路１８３號六樓之２","OBJECTID":555873},"geometry":{"x":167269.79000000004,"y":2542002.5299999975}},{"attributes":{"ID":555901,"DIS_CODE":0,"TOWNNAME":"南區","LI":"新興里","LIN":"21鄰","STREET":"三官路","SECT":" ","MAREA":" ","LANE":" ","ALLEY":" ","HOUSE_NO":"１８３號四樓之１","E_COORD97":167269.79000000001,"N_COORD97":2542002.5299999998,"ADDRESS":"三官路１８３號四樓之１","OBJECTID":555874},"geometry":{"x":167269.79000000004,"y":2542002.5299999975}},{"attributes":{"ID":555902,"DIS_CODE":0,"TOWNNAME":"南區","LI":"新興里","LIN":"21鄰","STREET":"三官路","SECT":" ","MAREA":" ","LANE":" ","ALLEY":" ","HOUSE_NO":"１８３號四樓之２","E_COORD97":167269.79000000001,"N_COORD97":2542002.5299999998,"ADDRESS":"三官路１８３號四樓之２","OBJECTID":555875},"geometry":{"x":167269.79000000004,"y":2542002.5299999975}},{"attributes":{"ID":555903,"DIS_CODE":0,"TOWNNAME":"安平區","LI":"國平里","LIN":"21鄰","STREET":"育平五街","SECT":" ","MAREA":" ","LANE":" ","ALLEY":" ","HOUSE_NO":"２５號一樓","E_COORD97":164845.57000000001,"N_COORD97":2543461.0299999998,"ADDRESS":"育平五街２５號一樓","OBJECTID":555876},"geometry":{"x":164845.57000000123,"y":2543461.0300000012}},{"attributes":{"ID":555904,"DIS_CODE":0,"TOWNNAME":"安平區","LI":"怡平里","LIN":"21鄰","STREET":"怡平路","SECT":" ","MAREA":" ","LANE":" ","ALLEY":" ","HOUSE_NO":"３５５號二樓之３","E_COORD97":165721.76999999999,"N_COORD97":2543767.7599999998,"ADDRESS":"怡平路３５５號二樓之３","OBJECTID":555877},"geometry":{"x":165721.76999999955,"y":2543767.7599999979}},{"attributes":{"ID":555905,"DIS_CODE":0,"TOWNNAME":"安平區","LI":"怡平里","LIN":"21鄰","STREET":"怡平路","SECT":" ","MAREA":" ","LANE":" ","ALLEY":" ","HOUSE_NO":"３５５號七樓之１","E_COORD97":165721.76999999999,"N_COORD97":2543767.7599999998,"ADDRESS":"怡平路３５５號七樓之１","OBJECTID":555878},"geometry":{"x":165721.76999999955,"y":2543767.7599999979}},{"attributes":{"ID":555906,"DIS_CODE":0,"TOWNNAME":"安平區","LI":"怡平里","LIN":"21鄰","STREET":"怡平路","SECT":" ","MAREA":" ","LANE":" ","ALLEY":" ","HOUSE_NO":"３５５號七樓之２","E_COORD97":165721.76999999999,"N_COORD97":2543767.7599999998,"ADDRESS":"怡平路３５５號七樓之２","OBJECTID":555879},"geometry":{"x":165721.76999999955,"y":2543767.7599999979}},{"attributes":{"ID":555907,"DIS_CODE":0,"TOWNNAME":"安平區","LI":"怡平里","LIN":"21鄰","STREET":"怡平路","SECT":" ","MAREA":" ","LANE":" ","ALLEY":" ","HOUSE_NO":"３５５號七樓之３","E_COORD97":165721.76999999999,"N_COORD97":2543767.7599999998,"ADDRESS":"怡平路３５５號七樓之３","OBJECTID":555880},"geometry":{"x":165721.76999999955,"y":2543767.7599999979}},{"attributes":{"ID":555908,"DIS_CODE":0,"TOWNNAME":"安平區","LI":"怡平里","LIN":"21鄰","STREET":"怡平路","SECT":" ","MAREA":" ","LANE":" ","ALLEY":" ","HOUSE_NO":"３５５號七樓之４","E_COORD97":165721.76999999999,"N_COORD97":2543767.7599999998,"ADDRESS":"怡平路３５５號七樓之４","OBJECTID":555881},"geometry":{"x":165721.76999999955,"y":2543767.7599999979}},{"attributes":{"ID":555909,"DIS_CODE":0,"TOWNNAME":"安平區","LI":"怡平里","LIN":"21鄰","STREET":"怡平路","SECT":" ","MAREA":" ","LANE":" ","ALLEY":" ","HOUSE_NO":"３５５號九樓之１","E_COORD97":165721.76999999999,"N_COORD97":2543767.7599999998,"ADDRESS":"怡平路３５５號九樓之１","OBJECTID":555882},"geometry":{"x":165721.76999999955,"y":2543767.7599999979}},{"attributes":{"ID":555910,"DIS_CODE":0,"TOWNNAME":"安平區","LI":"怡平里","LIN":"21鄰","STREET":"怡平路","SECT":" ","MAREA":" ","LANE":" ","ALLEY":" ","HOUSE_NO":"３５５號九樓之２","E_COORD97":165721.76999999999,"N_COORD97":2543767.7599999998,"ADDRESS":"怡平路３５５號九樓之２","OBJECTID":555883},"geometry":{"x":165721.76999999955,"y":2543767.7599999979}},{"attributes":{"ID":555911,"DIS_CODE":0,"TOWNNAME":"安平區","LI":"怡平里","LIN":"21鄰","STREET":"怡平路","SECT":" ","MAREA":" ","LANE":" ","ALLEY":" ","HOUSE_NO":"３５５號九樓之３","E_COORD97":165721.76999999999,"N_COORD97":2543767.7599999998,"ADDRESS":"怡平路３５５號九樓之３","OBJECTID":555884},"geometry":{"x":165721.76999999955,"y":2543767.7599999979}},{"attributes":{"ID":555912,"DIS_CODE":0,"TOWNNAME":"安平區","LI":"怡平里","LIN":"21鄰","STREET":"怡平路","SECT":" ","MAREA":" ","LANE":" ","ALLEY":" ","HOUSE_NO":"３５５號九樓之４","E_COORD97":165721.76999999999,"N_COORD97":2543767.7599999998,"ADDRESS":"怡平路３５５號九樓之４","OBJECTID":555885},"geometry":{"x":165721.76999999955,"y":2543767.7599999979}},{"attributes":{"ID":555913,"DIS_CODE":0,"TOWNNAME":"安平區","LI":"怡平里","LIN":"21鄰","STREET":"怡平路","SECT":" ","MAREA":" ","LANE":" ","ALLEY":" ","HOUSE_NO":"３５５號二樓之１","E_COORD97":165721.76999999999,"N_COORD97":2543767.7599999998,"ADDRESS":"怡平路３５５號二樓之１","OBJECTID":555886},"geometry":{"x":165721.76999999955,"y":2543767.7599999979}},{"attributes":{"ID":555914,"DIS_CODE":0,"TOWNNAME":"安平區","LI":"怡平里","LIN":"21鄰","STREET":"怡平路","SECT":" ","MAREA":" ","LANE":" ","ALLEY":" ","HOUSE_NO":"３５５號二樓之２","E_COORD97":165721.76999999999,"N_COORD97":2543767.7599999998,"ADDRESS":"怡平路３５５號二樓之２","OBJECTID":555887},"geometry":{"x":165721.76999999955,"y":2543767.7599999979}},{"attributes":{"ID":555915,"DIS_CODE":0,"TOWNNAME":"安平區","LI":"怡平里","LIN":"21鄰","STREET":"怡平路","SECT":" ","MAREA":" ","LANE":" ","ALLEY":" ","HOUSE_NO":"３５５號二樓之４","E_COORD97":165721.76999999999,"N_COORD97":2543767.7599999998,"ADDRESS":"怡平路３５５號二樓之４","OBJECTID":555888},"geometry":{"x":165721.76999999955,"y":2543767.7599999979}},{"attributes":{"ID":555916,"DIS_CODE":0,"TOWNNAME":"安平區","LI":"怡平里","LIN":"21鄰","STREET":"怡平路","SECT":" ","MAREA":" ","LANE":" ","ALLEY":" ","HOUSE_NO":"３５５號八樓之１","E_COORD97":165721.76999999999,"N_COORD97":2543767.7599999998,"ADDRESS":"怡平路３５５號八樓之１","OBJECTID":555889},"geometry":{"x":165721.76999999955,"y":2543767.7599999979}},{"attributes":{"ID":555917,"DIS_CODE":0,"TOWNNAME":"安平區","LI":"怡平里","LIN":"21鄰","STREET":"怡平路","SECT":" ","MAREA":" ","LANE":" ","ALLEY":" ","HOUSE_NO":"３５５號八樓之２","E_COORD97":165721.76999999999,"N_COORD97":2543767.7599999998,"ADDRESS":"怡平路３５５號八樓之２","OBJECTID":555890},"geometry":{"x":165721.76999999955,"y":2543767.7599999979}},{"attributes":{"ID":555918,"DIS_CODE":0,"TOWNNAME":"安平區","LI":"怡平里","LIN":"21鄰","STREET":"怡平路","SECT":" ","MAREA":" ","LANE":" ","ALLEY":" ","HOUSE_NO":"３５５號八樓之３","E_COORD97":165721.76999999999,"N_COORD97":2543767.7599999998,"ADDRESS":"怡平路３５５號八樓之３","OBJECTID":555891},"geometry":{"x":165721.76999999955,"y":2543767.7599999979}},{"attributes":{"ID":555919,"DIS_CODE":0,"TOWNNAME":"安平區","LI":"怡平里","LIN":"21鄰","STREET":"怡平路","SECT":" ","MAREA":" ","LANE":" ","ALLEY":" ","HOUSE_NO":"３５５號八樓之４","E_COORD97":165721.76999999999,"N_COORD97":2543767.7599999998,"ADDRESS":"怡平路３５５號八樓之４","OBJECTID":555892},"geometry":{"x":165721.76999999955,"y":2543767.7599999979}},{"attributes":{"ID":555920,"DIS_CODE":0,"TOWNNAME":"安平區","LI":"怡平里","LIN":"21鄰","STREET":"怡平路","SECT":" ","MAREA":" ","LANE":" ","ALLEY":" ","HOUSE_NO":"３５５號十樓之１","E_COORD97":165721.76999999999,"N_COORD97":2543767.7599999998,"ADDRESS":"怡平路３５５號十樓之１","OBJECTID":555893},"geometry":{"x":165721.76999999955,"y":2543767.7599999979}},{"attributes":{"ID":555921,"DIS_CODE":0,"TOWNNAME":"安平區","LI":"怡平里","LIN":"21鄰","STREET":"怡平路","SECT":" ","MAREA":" ","LANE":" ","ALLEY":" ","HOUSE_NO":"３５５號十樓之２","E_COORD97":165721.76999999999,"N_COORD97":2543767.7599999998,"ADDRESS":"怡平路３５５號十樓之２","OBJECTID":555894},"geometry":{"x":165721.76999999955,"y":2543767.7599999979}},{"attributes":{"ID":555922,"DIS_CODE":0,"TOWNNAME":"安平區","LI":"怡平里","LIN":"21鄰","STREET":"怡平路","SECT":" ","MAREA":" ","LANE":" ","ALLEY":" ","HOUSE_NO":"３５５號十樓之３","E_COORD97":165721.76999999999,"N_COORD97":2543767.7599999998,"ADDRESS":"怡平路３５５號十樓之３","OBJECTID":555895},"geometry":{"x":165721.76999999955,"y":2543767.7599999979}},{"attributes":{"ID":555923,"DIS_CODE":0,"TOWNNAME":"安平區","LI":"怡平里","LIN":"21鄰","STREET":"怡平路","SECT":" ","MAREA":" ","LANE":" ","ALLEY":" ","HOUSE_NO":"３５５號十樓之４","E_COORD97":165721.76999999999,"N_COORD97":2543767.7599999998,"ADDRESS":"怡平路３５５號十樓之４","OBJECTID":555896},"geometry":{"x":165721.76999999955,"y":2543767.7599999979}},{"attributes":{"ID":555924,"DIS_CODE":0,"TOWNNAME":"安平區","LI":"怡平里","LIN":"21鄰","STREET":"怡平路","SECT":" ","MAREA":" ","LANE":" ","ALLEY":" ","HOUSE_NO":"３５５號三樓之１","E_COORD97":165721.76999999999,"N_COORD97":2543767.7599999998,"ADDRESS":"怡平路３５５號三樓之１","OBJECTID":555897},"geometry":{"x":165721.76999999955,"y":2543767.7599999979}},{"attributes":{"ID":555925,"DIS_CODE":0,"TOWNNAME":"安平區","LI":"怡平里","LIN":"21鄰","STREET":"怡平路","SECT":" ","MAREA":" ","LANE":" ","ALLEY":" ","HOUSE_NO":"３５５號三樓之２","E_COORD97":165721.76999999999,"N_COORD97":2543767.7599999998,"ADDRESS":"怡平路３５５號三樓之２","OBJECTID":555898},"geometry":{"x":165721.76999999955,"y":2543767.7599999979}},{"attributes":{"ID":555926,"DIS_CODE":0,"TOWNNAME":"安平區","LI":"怡平里","LIN":"21鄰","STREET":"怡平路","SECT":" ","MAREA":" ","LANE":" ","ALLEY":" ","HOUSE_NO":"３５５號三樓之３","E_COORD97":165721.76999999999,"N_COORD97":2543767.7599999998,"ADDRESS":"怡平路３５５號三樓之３","OBJECTID":555899},"geometry":{"x":165721.76999999955,"y":2543767.7599999979}},{"attributes":{"ID":555927,"DIS_CODE":0,"TOWNNAME":"安平區","LI":"怡平里","LIN":"21鄰","STREET":"怡平路","SECT":" ","MAREA":" ","LANE":" ","ALLEY":" ","HOUSE_NO":"３５５號三樓之４","E_COORD97":165721.76999999999,"N_COORD97":2543767.7599999998,"ADDRESS":"怡平路３５５號三樓之４","OBJECTID":555900},"geometry":{"x":165721.76999999955,"y":2543767.7599999979}},{"attributes":{"ID":555928,"DIS_CODE":0,"TOWNNAME":"安平區","LI":"怡平里","LIN":"21鄰","STREET":"怡平路","SECT":" ","MAREA":" ","LANE":" ","ALLEY":" ","HOUSE_NO":"３５５號五樓之１","E_COORD97":165721.76999999999,"N_COORD97":2543767.7599999998,"ADDRESS":"怡平路３５５號五樓之１","OBJECTID":555901},"geometry":{"x":165721.76999999955,"y":2543767.7599999979}},{"attributes":{"ID":555929,"DIS_CODE":0,"TOWNNAME":"安平區","LI":"怡平里","LIN":"21鄰","STREET":"怡平路","SECT":" ","MAREA":" ","LANE":" ","ALLEY":" ","HOUSE_NO":"３５５號五樓之２","E_COORD97":165721.76999999999,"N_COORD97":2543767.7599999998,"ADDRESS":"怡平路３５５號五樓之２","OBJECTID":555902},"geometry":{"x":165721.76999999955,"y":2543767.7599999979}},{"attributes":{"ID":555930,"DIS_CODE":0,"TOWNNAME":"安平區","LI":"怡平里","LIN":"21鄰","STREET":"怡平路","SECT":" ","MAREA":" ","LANE":" ","ALLEY":" ","HOUSE_NO":"３５５號五樓之３","E_COORD97":165721.76999999999,"N_COORD97":2543767.7599999998,"ADDRESS":"怡平路３５５號五樓之３","OBJECTID":555903},"geometry":{"x":165721.76999999955,"y":2543767.7599999979}},{"attributes":{"ID":555931,"DIS_CODE":0,"TOWNNAME":"安平區","LI":"怡平里","LIN":"21鄰","STREET":"怡平路","SECT":" ","MAREA":" ","LANE":" ","ALLEY":" ","HOUSE_NO":"３５５號五樓之４","E_COORD97":165721.76999999999,"N_COORD97":2543767.7599999998,"ADDRESS":"怡平路３５５號五樓之４","OBJECTID":555904},"geometry":{"x":165721.76999999955,"y":2543767.7599999979}},{"attributes":{"ID":555932,"DIS_CODE":0,"TOWNNAME":"安平區","LI":"怡平里","LIN":"21鄰","STREET":"怡平路","SECT":" ","MAREA":" ","LANE":" ","ALLEY":" ","HOUSE_NO":"３５５號六樓之１","E_COORD97":165721.76999999999,"N_COORD97":2543767.7599999998,"ADDRESS":"怡平路３５５號六樓之１","OBJECTID":555905},"geometry":{"x":165721.76999999955,"y":2543767.7599999979}},{"attributes":{"ID":555933,"DIS_CODE":0,"TOWNNAME":"安平區","LI":"怡平里","LIN":"21鄰","STREET":"怡平路","SECT":" ","MAREA":" ","LANE":" ","ALLEY":" ","HOUSE_NO":"３５５號六樓之２","E_COORD97":165721.76999999999,"N_COORD97":2543767.7599999998,"ADDRESS":"怡平路３５５號六樓之２","OBJECTID":555906},"geometry":{"x":165721.76999999955,"y":2543767.7599999979}},{"attributes":{"ID":555934,"DIS_CODE":0,"TOWNNAME":"安平區","LI":"怡平里","LIN":"21鄰","STREET":"怡平路","SECT":" ","MAREA":" ","LANE":" ","ALLEY":" ","HOUSE_NO":"３５５號六樓之３","E_COORD97":165721.76999999999,"N_COORD97":2543767.7599999998,"ADDRESS":"怡平路３５５號六樓之３","OBJECTID":555907},"geometry":{"x":165721.76999999955,"y":2543767.7599999979}},{"attributes":{"ID":555935,"DIS_CODE":0,"TOWNNAME":"安平區","LI":"怡平里","LIN":"21鄰","STREET":"怡平路","SECT":" ","MAREA":" ","LANE":" ","ALLEY":" ","HOUSE_NO":"３５５號六樓之５","E_COORD97":165721.76999999999,"N_COORD97":2543767.7599999998,"ADDRESS":"怡平路３５５號六樓之５","OBJECTID":555908},"geometry":{"x":165721.76999999955,"y":2543767.7599999979}},{"attributes":{"ID":555936,"DIS_CODE":0,"TOWNNAME":"安平區","LI":"怡平里","LIN":"21鄰","STREET":"怡平路","SECT":" ","MAREA":" ","LANE":" ","ALLEY":" ","HOUSE_NO":"３５５號四樓之１","E_COORD97":165721.76999999999,"N_COORD97":2543767.7599999998,"ADDRESS":"怡平路３５５號四樓之１","OBJECTID":555909},"geometry":{"x":165721.76999999955,"y":2543767.7599999979}},{"attributes":{"ID":555937,"DIS_CODE":0,"TOWNNAME":"安平區","LI":"怡平里","LIN":"21鄰","STREET":"怡平路","SECT":" ","MAREA":" ","LANE":" ","ALLEY":" ","HOUSE_NO":"３５５號四樓之２","E_COORD97":165721.76999999999,"N_COORD97":2543767.7599999998,"ADDRESS":"怡平路３５５號四樓之２","OBJECTID":555910},"geometry":{"x":165721.76999999955,"y":2543767.7599999979}},{"attributes":{"ID":555938,"DIS_CODE":0,"TOWNNAME":"安平區","LI":"怡平里","LIN":"21鄰","STREET":"怡平路","SECT":" ","MAREA":" ","LANE":" ","ALLEY":" ","HOUSE_NO":"３５５號四樓之３","E_COORD97":165721.76999999999,"N_COORD97":2543767.7599999998,"ADDRESS":"怡平路３５５號四樓之３","OBJECTID":555911},"geometry":{"x":165721.76999999955,"y":2543767.7599999979}},{"attributes":{"ID":555939,"DIS_CODE":0,"TOWNNAME":"安平區","LI":"怡平里","LIN":"21鄰","STREET":"怡平路","SECT":" ","MAREA":" ","LANE":" ","ALLEY":" ","HOUSE_NO":"３５５號四樓之５","E_COORD97":165721.76999999999,"N_COORD97":2543767.7599999998,"ADDRESS":"怡平路３５５號四樓之５","OBJECTID":555912},"geometry":{"x":165721.76999999955,"y":2543767.7599999979}},{"attributes":{"ID":555940,"DIS_CODE":0,"TOWNNAME":"歸仁區","LI":"文化里","LIN":"21鄰","STREET":"大德路","SECT":" ","MAREA":" ","LANE":" ","ALLEY":" ","HOUSE_NO":"２１１號五樓之５","E_COORD97":177223.63,"N_COORD97":2541515.3399999999,"ADDRESS":"大德路２１１號五樓之５","OBJECTID":555913},"geometry":{"x":177223.62999999989,"y":2541515.3399999999}},{"attributes":{"ID":555941,"DIS_CODE":0,"TOWNNAME":"歸仁區","LI":"文化里","LIN":"21鄰","STREET":"大德路","SECT":" ","MAREA":" ","LANE":" ","ALLEY":" ","HOUSE_NO":"２１１號五樓之１２","E_COORD97":177223.87,"N_COORD97":2541515.3399999999,"ADDRESS":"大德路２１１號五樓之１２","OBJECTID":555914},"geometry":{"x":177223.87000000011,"y":2541515.3399999999}},{"attributes":{"ID":555942,"DIS_CODE":0,"TOWNNAME":"歸仁區","LI":"文化里","LIN":"21鄰","STREET":"大德路","SECT":" ","MAREA":" ","LANE":" ","ALLEY":" ","HOUSE_NO":"２１１號七樓之９","E_COORD97":177223.60999999999,"N_COORD97":2541515.3399999999,"ADDRESS":"大德路２１１號七樓之９","OBJECTID":555915},"geometry":{"x":177223.61000000127,"y":2541515.3399999999}},{"attributes":{"ID":555943,"DIS_CODE":0,"TOWNNAME":"歸仁區","LI":"文化里","LIN":"21鄰","STREET":"大德路","SECT":" ","MAREA":" ","LANE":" ","ALLEY":" ","HOUSE_NO":"２１１號六樓之１３","E_COORD97":177223.87,"N_COORD97":2541515.3399999999,"ADDRESS":"大德路２１１號六樓之１３","OBJECTID":555916},"geometry":{"x":177223.87000000011,"y":2541515.3399999999}},{"attributes":{"ID":555944,"DIS_CODE":0,"TOWNNAME":"歸仁區","LI":"文化里","LIN":"21鄰","STREET":"大德路","SECT":" ","MAREA":" ","LANE":" ","ALLEY":" ","HOUSE_NO":"２１１號七樓之２","E_COORD97":177223.62,"N_COORD97":2541515.3399999999,"ADDRESS":"大德路２１１號七樓之２","OBJECTID":555917},"geometry":{"x":177223.62000000011,"y":2541515.3399999999}},{"attributes":{"ID":555945,"DIS_CODE":0,"TOWNNAME":"歸仁區","LI":"文化里","LIN":"21鄰","STREET":"大德路","SECT":" ","MAREA":" ","LANE":" ","ALLEY":" ","HOUSE_NO":"２１１號六樓之９","E_COORD97":177223.60999999999,"N_COORD97":2541515.3399999999,"ADDRESS":"大德路２１１號六樓之９","OBJECTID":555918},"geometry":{"x":177223.61000000127,"y":2541515.3399999999}},{"attributes":{"ID":555946,"DIS_CODE":0,"TOWNNAME":"歸仁區","LI":"文化里","LIN":"21鄰","STREET":"大德路","SECT":" ","MAREA":" ","LANE":" ","ALLEY":" ","HOUSE_NO":"２１１號七樓之１１","E_COORD97":177223.85000000001,"N_COORD97":2541515.3399999999,"ADDRESS":"大德路２１１號七樓之１１","OBJECTID":555919},"geometry":{"x":177223.85000000149,"y":2541515.3399999999}},{"attributes":{"ID":555947,"DIS_CODE":0,"TOWNNAME":"歸仁區","LI":"文化里","LIN":"21鄰","STREET":"大德路","SECT":" ","MAREA":" ","LANE":" ","ALLEY":" ","HOUSE_NO":"２１１號六樓之３","E_COORD97":177223.62,"N_COORD97":2541515.3399999999,"ADDRESS":"大德路２１１號六樓之３","OBJECTID":555920},"geometry":{"x":177223.62000000011,"y":2541515.3399999999}},{"attributes":{"ID":555948,"DIS_CODE":0,"TOWNNAME":"歸仁區","LI":"文化里","LIN":"21鄰","STREET":"大德路","SECT":" ","MAREA":" ","LANE":" ","ALLEY":" ","HOUSE_NO":"２１１號八樓之７","E_COORD97":177223.60999999999,"N_COORD97":2541515.3399999999,"ADDRESS":"大德路２１１號八樓之７","OBJECTID":555921},"geometry":{"x":177223.61000000127,"y":2541515.3399999999}},{"attributes":{"ID":555949,"DIS_CODE":0,"TOWNNAME":"歸仁區","LI":"文化里","LIN":"21鄰","STREET":"大德路","SECT":" ","MAREA":" ","LANE":" ","ALLEY":" ","HOUSE_NO":"２１１號五樓之６","E_COORD97":177223.62,"N_COORD97":2541515.3399999999,"ADDRESS":"大德路２１１號五樓之６","OBJECTID":555922},"geometry":{"x":177223.62000000011,"y":2541515.3399999999}},{"attributes":{"ID":555950,"DIS_CODE":0,"TOWNNAME":"新營區","LI":"興業里","LIN":"21鄰","STREET":"中山路","SECT":" ","MAREA":" ","LANE":" ","ALLEY":" ","HOUSE_NO":"１１７號十三樓之３","E_COORD97":180247.73999999999,"N_COORD97":2578201.7400000002,"ADDRESS":"中山路１１７號十三樓之３","OBJECTID":555923},"geometry":{"x":180247.74000000209,"y":2578201.7400000021}},{"attributes":{"ID":555951,"DIS_CODE":0,"TOWNNAME":"新營區","LI":"興業里","LIN":"21鄰","STREET":"中山路","SECT":" ","MAREA":" ","LANE":" ","ALLEY":" ","HOUSE_NO":"１１７號八樓之８","E_COORD97":180246.54000000001,"N_COORD97":2578201.7400000002,"ADDRESS":"中山路１１７號八樓之８","OBJECTID":555924},"geometry":{"x":180246.54000000004,"y":2578201.7400000021}},{"attributes":{"ID":555952,"DIS_CODE":0,"TOWNNAME":"新營區","LI":"興業里","LIN":"21鄰","STREET":"中山路","SECT":" ","MAREA":" ","LANE":" ","ALLEY":" ","HOUSE_NO":"１１７號十二樓之１","E_COORD97":180247.64999999999,"N_COORD97":2578201.7400000002,"ADDRESS":"中山路１１７號十二樓之１","OBJECTID":555925},"geometry":{"x":180247.6500000013,"y":2578201.7400000021}},{"attributes":{"ID":555953,"DIS_CODE":0,"TOWNNAME":"麻豆區","LI":"\u25A0江里","LIN":"21鄰","STREET":"民生路","SECT":" ","MAREA":" ","LANE":" ","ALLEY":" ","HOUSE_NO":"７６號四樓","E_COORD97":173748.17000000001,"N_COORD97":2564411.4100000001,"ADDRESS":"民生路７６號四樓","OBJECTID":555926},"geometry":{"x":173748.16999999993,"y":2564411.4100000039}},{"attributes":{"ID":555954,"DIS_CODE":0,"TOWNNAME":"新營區","LI":"興業里","LIN":"21鄰","STREET":"中山路","SECT":" ","MAREA":" ","LANE":" ","ALLEY":" ","HOUSE_NO":"１１７號十樓之６","E_COORD97":180246.5,"N_COORD97":2578201.7400000002,"ADDRESS":"中山路１１７號十樓之６","OBJECTID":555927},"geometry":{"x":180246.50000000093,"y":2578201.7400000021}},{"attributes":{"ID":555955,"DIS_CODE":0,"TOWNNAME":"新營區","LI":"興業里","LIN":"21鄰","STREET":"中山路","SECT":" ","MAREA":" ","LANE":" ","ALLEY":" ","HOUSE_NO":"１１７號四樓之７","E_COORD97":180246.47,"N_COORD97":2578201.7400000002,"ADDRESS":"中山路１１７號四樓之７","OBJECTID":555928},"geometry":{"x":180246.47000000067,"y":2578201.7400000021}},{"attributes":{"ID":555956,"DIS_CODE":0,"TOWNNAME":"新營區","LI":"興業里","LIN":"21鄰","STREET":"中山路","SECT":" ","MAREA":" ","LANE":" ","ALLEY":" ","HOUSE_NO":"１１７號十四樓之３","E_COORD97":180247.73999999999,"N_COORD97":2578201.7400000002,"ADDRESS":"中山路１１７號十四樓之３","OBJECTID":555929},"geometry":{"x":180247.74000000209,"y":2578201.7400000021}},{"attributes":{"ID":555957,"DIS_CODE":0,"TOWNNAME":"新營區","LI":"興業里","LIN":"21鄰","STREET":"中山路","SECT":" ","MAREA":" ","LANE":" ","ALLEY":" ","HOUSE_NO":"１１７號十樓之１","E_COORD97":180246.39999999999,"N_COORD97":2578201.7400000002,"ADDRESS":"中山路１１７號十樓之１","OBJECTID":555930},"geometry":{"x":180246.40000000037,"y":2578201.7400000021}},{"attributes":{"ID":555958,"DIS_CODE":0,"TOWNNAME":"新營區","LI":"興業里","LIN":"21鄰","STREET":"中山路","SECT":" ","MAREA":" ","LANE":" ","ALLEY":" ","HOUSE_NO":"１１７號四樓之４","E_COORD97":180246.42000000001,"N_COORD97":2578201.7400000002,"ADDRESS":"中山路１１７號四樓之４","OBJECTID":555931},"geometry":{"x":180246.42000000086,"y":2578201.7400000021}},{"attributes":{"ID":555959,"DIS_CODE":0,"TOWNNAME":"新營區","LI":"興業里","LIN":"21鄰","STREET":"中山路","SECT":" ","MAREA":" ","LANE":" ","ALLEY":" ","HOUSE_NO":"１１７號五樓之５","E_COORD97":180246.54999999999,"N_COORD97":2578201.7400000002,"ADDRESS":"中山路１１７號五樓之５","OBJECTID":555932},"geometry":{"x":180246.54999999981,"y":2578201.7400000021}},{"attributes":{"ID":555960,"DIS_CODE":0,"TOWNNAME":"新營區","LI":"興業里","LIN":"21鄰","STREET":"中山路","SECT":" ","MAREA":" ","LANE":" ","ALLEY":" ","HOUSE_NO":"１１７號六樓之４","E_COORD97":180246.42000000001,"N_COORD97":2578201.7400000002,"ADDRESS":"中山路１１７號六樓之４","OBJECTID":555933},"geometry":{"x":180246.42000000086,"y":2578201.7400000021}},{"attributes":{"ID":555961,"DIS_CODE":0,"TOWNNAME":"新營區","LI":"興業里","LIN":"21鄰","STREET":"中山路","SECT":" ","MAREA":" ","LANE":" ","ALLEY":" ","HOUSE_NO":"１１７號十樓之７","E_COORD97":180246.47,"N_COORD97":2578201.7400000002,"ADDRESS":"中山路１１７號十樓之７","OBJECTID":555934},"geometry":{"x":180246.47000000067,"y":2578201.7400000021}},{"attributes":{"ID":555962,"DIS_CODE":0,"TOWNNAME":"新營區","LI":"興業里","LIN":"21鄰","STREET":"中山路","SECT":" ","MAREA":" ","LANE":" ","ALLEY":" ","HOUSE_NO":"１１７號十四樓之１","E_COORD97":180247.64999999999,"N_COORD97":2578201.7400000002,"ADDRESS":"中山路１１７號十四樓之１","OBJECTID":555935},"geometry":{"x":180247.6500000013,"y":2578201.7400000021}},{"attributes":{"ID":555963,"DIS_CODE":0,"TOWNNAME":"新營區","LI":"興業里","LIN":"21鄰","STREET":"中山路","SECT":" ","MAREA":" ","LANE":" ","ALLEY":" ","HOUSE_NO":"１１７號三樓之７","E_COORD97":180246.47,"N_COORD97":2578201.7400000002,"ADDRESS":"中山路１１７號三樓之７","OBJECTID":555936},"geometry":{"x":180246.47000000067,"y":2578201.7400000021}},{"attributes":{"ID":555964,"DIS_CODE":0,"TOWNNAME":"北區","LI":"六甲里","LIN":"21鄰","STREET":"公園路","SECT":" ","MAREA":" ","LANE":" ","ALLEY":" ","HOUSE_NO":"５９１號之４６七樓之","E_COORD97":169197.85000000001,"N_COORD97":2545961.8900000001,"ADDRESS":"公園路５９１號之４６七樓之４","OBJECTID":555937},"geometry":{"x":169197.85000000056,"y":2545961.8900000025}},{"attributes":{"ID":555965,"DIS_CODE":0,"TOWNNAME":"北區","LI":"六甲里","LIN":"21鄰","STREET":"公園路","SECT":" ","MAREA":" ","LANE":" ","ALLEY":" ","HOUSE_NO":"５９１號之４６七樓之","E_COORD97":169197.85000000001,"N_COORD97":2545961.8900000001,"ADDRESS":"公園路５９１號之４６七樓之５","OBJECTID":555938},"geometry":{"x":169197.85000000056,"y":2545961.8900000025}},{"attributes":{"ID":555966,"DIS_CODE":0,"TOWNNAME":"北區","LI":"六甲里","LIN":"21鄰","STREET":"公園路","SECT":" ","MAREA":" ","LANE":" ","ALLEY":" ","HOUSE_NO":"５９１號之４６七樓之","E_COORD97":169197.85000000001,"N_COORD97":2545961.8900000001,"ADDRESS":"公園路５９１號之４６七樓之６","OBJECTID":555939},"geometry":{"x":169197.85000000056,"y":2545961.8900000025}},{"attributes":{"ID":555967,"DIS_CODE":0,"TOWNNAME":"北區","LI":"六甲里","LIN":"21鄰","STREET":"公園路","SECT":" ","MAREA":" ","LANE":" ","ALLEY":" ","HOUSE_NO":"５９１號之４６七樓之","E_COORD97":169197.85000000001,"N_COORD97":2545961.8900000001,"ADDRESS":"公園路５９１號之４６七樓之７","OBJECTID":555940},"geometry":{"x":169197.85000000056,"y":2545961.8900000025}},{"attributes":{"ID":555968,"DIS_CODE":0,"TOWNNAME":"北區","LI":"六甲里","LIN":"21鄰","STREET":"公園路","SECT":" ","MAREA":" ","LANE":" ","ALLEY":" ","HOUSE_NO":"５９１號之４６七樓之","E_COORD97":169197.85000000001,"N_COORD97":2545961.8900000001,"ADDRESS":"公園路５９１號之４６七樓之８","OBJECTID":555941},"geometry":{"x":169197.85000000056,"y":2545961.8900000025}},{"attributes":{"ID":555969,"DIS_CODE":0,"TOWNNAME":"北區","LI":"六甲里","LIN":"21鄰","STREET":"公園路","SECT":" ","MAREA":" ","LANE":" ","ALLEY":" ","HOUSE_NO":"５９１號之４６七樓之","E_COORD97":169197.85000000001,"N_COORD97":2545961.8900000001,"ADDRESS":"公園路５９１號之４６七樓之９","OBJECTID":555942},"geometry":{"x":169197.85000000056,"y":2545961.8900000025}},{"attributes":{"ID":555970,"DIS_CODE":0,"TOWNNAME":"安平區","LI":"國平里","LIN":"21鄰","STREET":"育平五街","SECT":" ","MAREA":" ","LANE":" ","ALLEY":" ","HOUSE_NO":"２１號五樓","E_COORD97":164843.04000000001,"N_COORD97":2543478.8700000001,"ADDRESS":"育平五街２１號五樓","OBJECTID":555943},"geometry":{"x":164843.0400000019,"y":2543478.870000001}},{"attributes":{"ID":555971,"DIS_CODE":0,"TOWNNAME":"北區","LI":"六甲里","LIN":"21鄰","STREET":"公園路","SECT":" ","MAREA":" ","LANE":" ","ALLEY":" ","HOUSE_NO":"５９１號之４６九樓之","E_COORD97":169197.85000000001,"N_COORD97":2545961.8900000001,"ADDRESS":"公園路５９１號之４６九樓之１","OBJECTID":555944},"geometry":{"x":169197.85000000056,"y":2545961.8900000025}},{"attributes":{"ID":555972,"DIS_CODE":0,"TOWNNAME":"北區","LI":"六甲里","LIN":"21鄰","STREET":"公園路","SECT":" ","MAREA":" ","LANE":" ","ALLEY":" ","HOUSE_NO":"５９１號之４６九樓之","E_COORD97":169197.85000000001,"N_COORD97":2545961.8900000001,"ADDRESS":"公園路５９１號之４６九樓之１０","OBJECTID":555945},"geometry":{"x":169197.85000000056,"y":2545961.8900000025}},{"attributes":{"ID":555973,"DIS_CODE":0,"TOWNNAME":"北區","LI":"六甲里","LIN":"21鄰","STREET":"公園路","SECT":" ","MAREA":" ","LANE":" ","ALLEY":" ","HOUSE_NO":"５９１號之４６九樓之","E_COORD97":169197.85000000001,"N_COORD97":2545961.8900000001,"ADDRESS":"公園路５９１號之４６九樓之１１","OBJECTID":555946},"geometry":{"x":169197.85000000056,"y":2545961.8900000025}},{"attributes":{"ID":555974,"DIS_CODE":0,"TOWNNAME":"北區","LI":"六甲里","LIN":"21鄰","STREET":"公園路","SECT":" ","MAREA":" ","LANE":" ","ALLEY":" ","HOUSE_NO":"５９１號之４６九樓之","E_COORD97":169197.85000000001,"N_COORD97":2545961.8900000001,"ADDRESS":"公園路５９１號之４６九樓之１２","OBJECTID":555947},"geometry":{"x":169197.85000000056,"y":2545961.8900000025}},{"attributes":{"ID":555975,"DIS_CODE":0,"TOWNNAME":"北區","LI":"六甲里","LIN":"21鄰","STREET":"公園路","SECT":" ","MAREA":" ","LANE":" ","ALLEY":" ","HOUSE_NO":"５９１號之４６九樓之","E_COORD97":169197.85000000001,"N_COORD97":2545961.8900000001,"ADDRESS":"公園路５９１號之４６九樓之１３","OBJECTID":555948},"geometry":{"x":169197.85000000056,"y":2545961.8900000025}},{"attributes":{"ID":555976,"DIS_CODE":0,"TOWNNAME":"麻豆區","LI":"\u25A0江里","LIN":"21鄰","STREET":"民生路","SECT":" ","MAREA":" ","LANE":" ","ALLEY":" ","HOUSE_NO":"７２號四樓","E_COORD97":173749.82000000001,"N_COORD97":2564421.8799999999,"ADDRESS":"民生路７２號四樓","OBJECTID":555949},"geometry":{"x":173749.82000000123,"y":2564421.8800000008}},{"attributes":{"ID":555977,"DIS_CODE":0,"TOWNNAME":"北區","LI":"六甲里","LIN":"21鄰","STREET":"公園路","SECT":" ","MAREA":" ","LANE":" ","ALLEY":" ","HOUSE_NO":"５９１號之４６九樓之","E_COORD97":169197.85000000001,"N_COORD97":2545961.8900000001,"ADDRESS":"公園路５９１號之４６九樓之１４","OBJECTID":555950},"geometry":{"x":169197.85000000056,"y":2545961.8900000025}},{"attributes":{"ID":555978,"DIS_CODE":0,"TOWNNAME":"北區","LI":"六甲里","LIN":"21鄰","STREET":"公園路","SECT":" ","MAREA":" ","LANE":" ","ALLEY":" ","HOUSE_NO":"５９１號之４６九樓之","E_COORD97":169197.85000000001,"N_COORD97":2545961.8900000001,"ADDRESS":"公園路５９１號之４６九樓之１５","OBJECTID":555951},"geometry":{"x":169197.85000000056,"y":2545961.8900000025}},{"attributes":{"ID":555979,"DIS_CODE":0,"TOWNNAME":"北區","LI":"六甲里","LIN":"21鄰","STREET":"公園路","SECT":" ","MAREA":" ","LANE":" ","ALLEY":" ","HOUSE_NO":"５９１號之４６九樓之","E_COORD97":169197.85000000001,"N_COORD97":2545961.8900000001,"ADDRESS":"公園路５９１號之４６九樓之１６","OBJECTID":555952},"geometry":{"x":169197.85000000056,"y":2545961.8900000025}},{"attributes":{"ID":555980,"DIS_CODE":0,"TOWNNAME":"北區","LI":"六甲里","LIN":"21鄰","STREET":"公園路","SECT":" ","MAREA":" ","LANE":" ","ALLEY":" ","HOUSE_NO":"５９１號之４６九樓之","E_COORD97":169197.85000000001,"N_COORD97":2545961.8900000001,"ADDRESS":"公園路５９１號之４６九樓之２","OBJECTID":555953},"geometry":{"x":169197.85000000056,"y":2545961.8900000025}},{"attributes":{"ID":555981,"DIS_CODE":0,"TOWNNAME":"北區","LI":"六甲里","LIN":"21鄰","STREET":"公園路","SECT":" ","MAREA":" ","LANE":" ","ALLEY":" ","HOUSE_NO":"５９１號之４６九樓之","E_COORD97":169197.85000000001,"N_COORD97":2545961.8900000001,"ADDRESS":"公園路５９１號之４６九樓之３","OBJECTID":555954},"geometry":{"x":169197.85000000056,"y":2545961.8900000025}},{"attributes":{"ID":555982,"DIS_CODE":0,"TOWNNAME":"北區","LI":"六甲里","LIN":"21鄰","STREET":"公園路","SECT":" ","MAREA":" ","LANE":" ","ALLEY":" ","HOUSE_NO":"５９１號之４６九樓之","E_COORD97":169197.85000000001,"N_COORD97":2545961.8900000001,"ADDRESS":"公園路５９１號之４６九樓之４","OBJECTID":555955},"geometry":{"x":169197.85000000056,"y":2545961.8900000025}},{"attributes":{"ID":555983,"DIS_CODE":0,"TOWNNAME":"北區","LI":"六甲里","LIN":"21鄰","STREET":"公園路","SECT":" ","MAREA":" ","LANE":" ","ALLEY":" ","HOUSE_NO":"５９１號之４６九樓之","E_COORD97":169197.85000000001,"N_COORD97":2545961.8900000001,"ADDRESS":"公園路５９１號之４６九樓之５","OBJECTID":555956},"geometry":{"x":169197.85000000056,"y":2545961.8900000025}},{"attributes":{"ID":555984,"DIS_CODE":0,"TOWNNAME":"北區","LI":"六甲里","LIN":"21鄰","STREET":"公園路","SECT":" ","MAREA":" ","LANE":" ","ALLEY":" ","HOUSE_NO":"５９１號之４６九樓之","E_COORD97":169197.85000000001,"N_COORD97":2545961.8900000001,"ADDRESS":"公園路５９１號之４６九樓之６","OBJECTID":555957},"geometry":{"x":169197.85000000056,"y":2545961.8900000025}},{"attributes":{"ID":555985,"DIS_CODE":0,"TOWNNAME":"北區","LI":"六甲里","LIN":"21鄰","STREET":"公園路","SECT":" ","MAREA":" ","LANE":" ","ALLEY":" ","HOUSE_NO":"５９１號之４６九樓之","E_COORD97":169197.85000000001,"N_COORD97":2545961.8900000001,"ADDRESS":"公園路５９１號之４６九樓之７","OBJECTID":555958},"geometry":{"x":169197.85000000056,"y":2545961.8900000025}},{"attributes":{"ID":555986,"DIS_CODE":0,"TOWNNAME":"北區","LI":"六甲里","LIN":"21鄰","STREET":"公園路","SECT":" ","MAREA":" ","LANE":" ","ALLEY":" ","HOUSE_NO":"５９１號之４６九樓之","E_COORD97":169197.85000000001,"N_COORD97":2545961.8900000001,"ADDRESS":"公園路５９１號之４６九樓之８","OBJECTID":555959},"geometry":{"x":169197.85000000056,"y":2545961.8900000025}},{"attributes":{"ID":555987,"DIS_CODE":0,"TOWNNAME":"北區","LI":"六甲里","LIN":"21鄰","STREET":"公園路","SECT":" ","MAREA":" ","LANE":" ","ALLEY":" ","HOUSE_NO":"５９１號之４６九樓之","E_COORD97":169197.85000000001,"N_COORD97":2545961.8900000001,"ADDRESS":"公園路５９１號之４６九樓之９","OBJECTID":555960},"geometry":{"x":169197.85000000056,"y":2545961.8900000025}},{"attributes":{"ID":555988,"DIS_CODE":0,"TOWNNAME":"北區","LI":"六甲里","LIN":"21鄰","STREET":"公園路","SECT":" ","MAREA":" ","LANE":" ","ALLEY":" ","HOUSE_NO":"５９１號之４６八樓之","E_COORD97":169197.85000000001,"N_COORD97":2545961.8900000001,"ADDRESS":"公園路５９１號之４６八樓之１","OBJECTID":555961},"geometry":{"x":169197.85000000056,"y":2545961.8900000025}},{"attributes":{"ID":555989,"DIS_CODE":0,"TOWNNAME":"北區","LI":"六甲里","LIN":"21鄰","STREET":"公園路","SECT":" ","MAREA":" ","LANE":" ","ALLEY":" ","HOUSE_NO":"５９１號之４６八樓之","E_COORD97":169197.85000000001,"N_COORD97":2545961.8900000001,"ADDRESS":"公園路５９１號之４６八樓之２","OBJECTID":555962},"geometry":{"x":169197.85000000056,"y":2545961.8900000025}},{"attributes":{"ID":555990,"DIS_CODE":0,"TOWNNAME":"北區","LI":"六甲里","LIN":"21鄰","STREET":"公園路","SECT":" ","MAREA":" ","LANE":" ","ALLEY":" ","HOUSE_NO":"５９１號之４６八樓之","E_COORD97":169197.85000000001,"N_COORD97":2545961.8900000001,"ADDRESS":"公園路５９１號之４６八樓之３","OBJECTID":555963},"geometry":{"x":169197.85000000056,"y":2545961.8900000025}},{"attributes":{"ID":555991,"DIS_CODE":0,"TOWNNAME":"北區","LI":"六甲里","LIN":"21鄰","STREET":"公園路","SECT":" ","MAREA":" ","LANE":" ","ALLEY":" ","HOUSE_NO":"５９１號之４６八樓之","E_COORD97":169197.85000000001,"N_COORD97":2545961.8900000001,"ADDRESS":"公園路５９１號之４６八樓之４","OBJECTID":555964},"geometry":{"x":169197.85000000056,"y":2545961.8900000025}},{"attributes":{"ID":555992,"DIS_CODE":0,"TOWNNAME":"安平區","LI":"國平里","LIN":"21鄰","STREET":"育平五街","SECT":" ","MAREA":" ","LANE":" ","ALLEY":" ","HOUSE_NO":"１７號三樓","E_COORD97":164870.59,"N_COORD97":2543465.0499999998,"ADDRESS":"育平五街１７號三樓","OBJECTID":555965},"geometry":{"x":164870.58999999985,"y":2543465.0499999989}},{"attributes":{"ID":555993,"DIS_CODE":0,"TOWNNAME":"北區","LI":"六甲里","LIN":"21鄰","STREET":"公園路","SECT":" ","MAREA":" ","LANE":" ","ALLEY":" ","HOUSE_NO":"５９１號之４６八樓之","E_COORD97":169197.85000000001,"N_COORD97":2545961.8900000001,"ADDRESS":"公園路５９１號之４６八樓之５","OBJECTID":555966},"geometry":{"x":169197.85000000056,"y":2545961.8900000025}},{"attributes":{"ID":555994,"DIS_CODE":0,"TOWNNAME":"北區","LI":"六甲里","LIN":"21鄰","STREET":"公園路","SECT":" ","MAREA":" ","LANE":" ","ALLEY":" ","HOUSE_NO":"５９１號之４６八樓之","E_COORD97":169197.85000000001,"N_COORD97":2545961.8900000001,"ADDRESS":"公園路５９１號之４６八樓之６","OBJECTID":555967},"geometry":{"x":169197.85000000056,"y":2545961.8900000025}},{"attributes":{"ID":555995,"DIS_CODE":0,"TOWNNAME":"北區","LI":"六甲里","LIN":"21鄰","STREET":"公園路","SECT":" ","MAREA":" ","LANE":" ","ALLEY":" ","HOUSE_NO":"５９１號之４６八樓之","E_COORD97":169197.85000000001,"N_COORD97":2545961.8900000001,"ADDRESS":"公園路５９１號之４６八樓之７","OBJECTID":555968},"geometry":{"x":169197.85000000056,"y":2545961.8900000025}},{"attributes":{"ID":555996,"DIS_CODE":0,"TOWNNAME":"北區","LI":"六甲里","LIN":"21鄰","STREET":"公園路","SECT":" ","MAREA":" ","LANE":" ","ALLEY":" ","HOUSE_NO":"５９１號之４６八樓之","E_COORD97":169197.85000000001,"N_COORD97":2545961.8900000001,"ADDRESS":"公園路５９１號之４６八樓之８","OBJECTID":555969},"geometry":{"x":169197.85000000056,"y":2545961.8900000025}},{"attributes":{"ID":555997,"DIS_CODE":0,"TOWNNAME":"北區","LI":"六甲里","LIN":"21鄰","STREET":"公園路","SECT":" ","MAREA":" ","LANE":" ","ALLEY":" ","HOUSE_NO":"５９１號之４６八樓之","E_COORD97":169197.85000000001,"N_COORD97":2545961.8900000001,"ADDRESS":"公園路５９１號之４６八樓之９","OBJECTID":555970},"geometry":{"x":169197.85000000056,"y":2545961.8900000025}},{"attributes":{"ID":555998,"DIS_CODE":0,"TOWNNAME":"北區","LI":"六甲里","LIN":"21鄰","STREET":"公園路","SECT":" ","MAREA":" ","LANE":" ","ALLEY":" ","HOUSE_NO":"５９１號之４６十一樓","E_COORD97":169197.85000000001,"N_COORD97":2545961.8900000001,"ADDRESS":"公園路５９１號之４６十一樓之１","OBJECTID":555971},"geometry":{"x":169197.85000000056,"y":2545961.8900000025}},{"attributes":{"ID":555999,"DIS_CODE":0,"TOWNNAME":"北區","LI":"六甲里","LIN":"21鄰","STREET":"公園路","SECT":" ","MAREA":" ","LANE":" ","ALLEY":" ","HOUSE_NO":"５９１號之４６十一樓","E_COORD97":169197.85000000001,"N_COORD97":2545961.8900000001,"ADDRESS":"公園路５９１號之４６十一樓之１０","OBJECTID":555972},"geometry":{"x":169197.85000000056,"y":2545961.8900000025}},{"attributes":{"ID":556000,"DIS_CODE":0,"TOWNNAME":"北區","LI":"六甲里","LIN":"21鄰","STREET":"公園路","SECT":" ","MAREA":" ","LANE":" ","ALLEY":" ","HOUSE_NO":"５９１號之４６十一樓","E_COORD97":169197.85000000001,"N_COORD97":2545961.8900000001,"ADDRESS":"公園路５９１號之４６十一樓之１１","OBJECTID":555973},"geometry":{"x":169197.85000000056,"y":2545961.8900000025}},{"attributes":{"ID":556001,"DIS_CODE":0,"TOWNNAME":"北區","LI":"六甲里","LIN":"21鄰","STREET":"公園路","SECT":" ","MAREA":" ","LANE":" ","ALLEY":" ","HOUSE_NO":"５９１號之４６十一樓","E_COORD97":169197.85000000001,"N_COORD97":2545961.8900000001,"ADDRESS":"公園路５９１號之４６十一樓之２","OBJECTID":555974},"geometry":{"x":169197.85000000056,"y":2545961.8900000025}},{"attributes":{"ID":556002,"DIS_CODE":0,"TOWNNAME":"北區","LI":"六甲里","LIN":"21鄰","STREET":"公園路","SECT":" ","MAREA":" ","LANE":" ","ALLEY":" ","HOUSE_NO":"５９１號之４６十一樓","E_COORD97":169197.85000000001,"N_COORD97":2545961.8900000001,"ADDRESS":"公園路５９１號之４６十一樓之３","OBJECTID":555975},"geometry":{"x":169197.85000000056,"y":2545961.8900000025}},{"attributes":{"ID":556003,"DIS_CODE":0,"TOWNNAME":"北區","LI":"六甲里","LIN":"21鄰","STREET":"公園路","SECT":" ","MAREA":" ","LANE":" ","ALLEY":" ","HOUSE_NO":"５９１號之４６十一樓","E_COORD97":169197.85000000001,"N_COORD97":2545961.8900000001,"ADDRESS":"公園路５９１號之４６十一樓之４","OBJECTID":555976},"geometry":{"x":169197.85000000056,"y":2545961.8900000025}},{"attributes":{"ID":556004,"DIS_CODE":0,"TOWNNAME":"北區","LI":"六甲里","LIN":"21鄰","STREET":"公園路","SECT":" ","MAREA":" ","LANE":" ","ALLEY":" ","HOUSE_NO":"５９１號之４６十一樓","E_COORD97":169197.85000000001,"N_COORD97":2545961.8900000001,"ADDRESS":"公園路５９１號之４６十一樓之５","OBJECTID":555977},"geometry":{"x":169197.85000000056,"y":2545961.8900000025}},{"attributes":{"ID":556005,"DIS_CODE":0,"TOWNNAME":"北區","LI":"六甲里","LIN":"21鄰","STREET":"公園路","SECT":" ","MAREA":" ","LANE":" ","ALLEY":" ","HOUSE_NO":"５９１號之４６十一樓","E_COORD97":169197.85000000001,"N_COORD97":2545961.8900000001,"ADDRESS":"公園路５９１號之４６十一樓之６","OBJECTID":555978},"geometry":{"x":169197.85000000056,"y":2545961.8900000025}},{"attributes":{"ID":556006,"DIS_CODE":0,"TOWNNAME":"北區","LI":"六甲里","LIN":"21鄰","STREET":"公園路","SECT":" ","MAREA":" ","LANE":" ","ALLEY":" ","HOUSE_NO":"５９１號之４６十一樓","E_COORD97":169197.85000000001,"N_COORD97":2545961.8900000001,"ADDRESS":"公園路５９１號之４６十一樓之７","OBJECTID":555979},"geometry":{"x":169197.85000000056,"y":2545961.8900000025}},{"attributes":{"ID":556007,"DIS_CODE":0,"TOWNNAME":"北區","LI":"六甲里","LIN":"21鄰","STREET":"公園路","SECT":" ","MAREA":" ","LANE":" ","ALLEY":" ","HOUSE_NO":"５９１號之４６十一樓","E_COORD97":169197.85000000001,"N_COORD97":2545961.8900000001,"ADDRESS":"公園路５９１號之４６十一樓之８","OBJECTID":555980},"geometry":{"x":169197.85000000056,"y":2545961.8900000025}},{"attributes":{"ID":556008,"DIS_CODE":0,"TOWNNAME":"北區","LI":"六甲里","LIN":"21鄰","STREET":"公園路","SECT":" ","MAREA":" ","LANE":" ","ALLEY":" ","HOUSE_NO":"５９１號之４６十一樓","E_COORD97":169197.85000000001,"N_COORD97":2545961.8900000001,"ADDRESS":"公園路５９１號之４６十一樓之９","OBJECTID":555981},"geometry":{"x":169197.85000000056,"y":2545961.8900000025}},{"attributes":{"ID":556009,"DIS_CODE":0,"TOWNNAME":"北區","LI":"六甲里","LIN":"21鄰","STREET":"公園路","SECT":" ","MAREA":" ","LANE":" ","ALLEY":" ","HOUSE_NO":"５９１號之４６十二樓","E_COORD97":169197.85000000001,"N_COORD97":2545961.8900000001,"ADDRESS":"公園路５９１號之４６十二樓之１","OBJECTID":555982},"geometry":{"x":169197.85000000056,"y":2545961.8900000025}},{"attributes":{"ID":556010,"DIS_CODE":0,"TOWNNAME":"北區","LI":"六甲里","LIN":"21鄰","STREET":"公園路","SECT":" ","MAREA":" ","LANE":" ","ALLEY":" ","HOUSE_NO":"５９１號之４６十二樓","E_COORD97":169197.85000000001,"N_COORD97":2545961.8900000001,"ADDRESS":"公園路５９１號之４６十二樓之１０","OBJECTID":555983},"geometry":{"x":169197.85000000056,"y":2545961.8900000025}},{"attributes":{"ID":556011,"DIS_CODE":0,"TOWNNAME":"北區","LI":"六甲里","LIN":"21鄰","STREET":"公園路","SECT":" ","MAREA":" ","LANE":" ","ALLEY":" ","HOUSE_NO":"５９１號之４６十二樓","E_COORD97":169197.85000000001,"N_COORD97":2545961.8900000001,"ADDRESS":"公園路５９１號之４６十二樓之１１","OBJECTID":555984},"geometry":{"x":169197.85000000056,"y":2545961.8900000025}},{"attributes":{"ID":556012,"DIS_CODE":0,"TOWNNAME":"北區","LI":"六甲里","LIN":"21鄰","STREET":"公園路","SECT":" ","MAREA":" ","LANE":" ","ALLEY":" ","HOUSE_NO":"５９１號之４６十二樓","E_COORD97":169197.85000000001,"N_COORD97":2545961.8900000001,"ADDRESS":"公園路５９１號之４６十二樓之１２","OBJECTID":555985},"geometry":{"x":169197.85000000056,"y":2545961.8900000025}},{"attributes":{"ID":556013,"DIS_CODE":0,"TOWNNAME":"北區","LI":"六甲里","LIN":"21鄰","STREET":"公園路","SECT":" ","MAREA":" ","LANE":" ","ALLEY":" ","HOUSE_NO":"５９１號之４６十二樓","E_COORD97":169197.85000000001,"N_COORD97":2545961.8900000001,"ADDRESS":"公園路５９１號之４６十二樓之１３","OBJECTID":555986},"geometry":{"x":169197.85000000056,"y":2545961.8900000025}},{"attributes":{"ID":556014,"DIS_CODE":0,"TOWNNAME":"北區","LI":"六甲里","LIN":"21鄰","STREET":"公園路","SECT":" ","MAREA":" ","LANE":" ","ALLEY":" ","HOUSE_NO":"５９１號之４６十二樓","E_COORD97":169197.85000000001,"N_COORD97":2545961.8900000001,"ADDRESS":"公園路５９１號之４６十二樓之２","OBJECTID":555987},"geometry":{"x":169197.85000000056,"y":2545961.8900000025}},{"attributes":{"ID":556015,"DIS_CODE":0,"TOWNNAME":"北區","LI":"六甲里","LIN":"21鄰","STREET":"公園路","SECT":" ","MAREA":" ","LANE":" ","ALLEY":" ","HOUSE_NO":"５９１號之４６十二樓","E_COORD97":169197.85000000001,"N_COORD97":2545961.8900000001,"ADDRESS":"公園路５９１號之４６十二樓之３","OBJECTID":555988},"geometry":{"x":169197.85000000056,"y":2545961.8900000025}},{"attributes":{"ID":556016,"DIS_CODE":0,"TOWNNAME":"北區","LI":"六甲里","LIN":"21鄰","STREET":"公園路","SECT":" ","MAREA":" ","LANE":" ","ALLEY":" ","HOUSE_NO":"５９１號之４６十二樓","E_COORD97":169197.85000000001,"N_COORD97":2545961.8900000001,"ADDRESS":"公園路５９１號之４６十二樓之４","OBJECTID":555989},"geometry":{"x":169197.85000000056,"y":2545961.8900000025}},{"attributes":{"ID":556017,"DIS_CODE":0,"TOWNNAME":"北區","LI":"六甲里","LIN":"21鄰","STREET":"公園路","SECT":" ","MAREA":" ","LANE":" ","ALLEY":" ","HOUSE_NO":"５９１號之４６十二樓","E_COORD97":169197.85000000001,"N_COORD97":2545961.8900000001,"ADDRESS":"公園路５９１號之４６十二樓之５","OBJECTID":555990},"geometry":{"x":169197.85000000056,"y":2545961.8900000025}},{"attributes":{"ID":556018,"DIS_CODE":0,"TOWNNAME":"北區","LI":"六甲里","LIN":"21鄰","STREET":"公園路","SECT":" ","MAREA":" ","LANE":" ","ALLEY":" ","HOUSE_NO":"５９１號之４６十二樓","E_COORD97":169197.85000000001,"N_COORD97":2545961.8900000001,"ADDRESS":"公園路５９１號之４６十二樓之６","OBJECTID":555991},"geometry":{"x":169197.85000000056,"y":2545961.8900000025}},{"attributes":{"ID":556019,"DIS_CODE":0,"TOWNNAME":"北區","LI":"六甲里","LIN":"21鄰","STREET":"公園路","SECT":" ","MAREA":" ","LANE":" ","ALLEY":" ","HOUSE_NO":"５９１號之４６十二樓","E_COORD97":169197.85000000001,"N_COORD97":2545961.8900000001,"ADDRESS":"公園路５９１號之４６十二樓之７","OBJECTID":555992},"geometry":{"x":169197.85000000056,"y":2545961.8900000025}},{"attributes":{"ID":556020,"DIS_CODE":0,"TOWNNAME":"北區","LI":"六甲里","LIN":"21鄰","STREET":"公園路","SECT":" ","MAREA":" ","LANE":" ","ALLEY":" ","HOUSE_NO":"５９１號之４６十二樓","E_COORD97":169197.85000000001,"N_COORD97":2545961.8900000001,"ADDRESS":"公園路５９１號之４６十二樓之８","OBJECTID":555993},"geometry":{"x":169197.85000000056,"y":2545961.8900000025}},{"attributes":{"ID":556021,"DIS_CODE":0,"TOWNNAME":"北區","LI":"六甲里","LIN":"21鄰","STREET":"公園路","SECT":" ","MAREA":" ","LANE":" ","ALLEY":" ","HOUSE_NO":"５９１號之４６十二樓","E_COORD97":169197.85000000001,"N_COORD97":2545961.8900000001,"ADDRESS":"公園路５９１號之４６十二樓之９","OBJECTID":555994},"geometry":{"x":169197.85000000056,"y":2545961.8900000025}},{"attributes":{"ID":556022,"DIS_CODE":0,"TOWNNAME":"北區","LI":"六甲里","LIN":"21鄰","STREET":"公園路","SECT":" ","MAREA":" ","LANE":" ","ALLEY":" ","HOUSE_NO":"５９１號之４６十樓之","E_COORD97":169197.85000000001,"N_COORD97":2545961.8900000001,"ADDRESS":"公園路５９１號之４６十樓之１","OBJECTID":555995},"geometry":{"x":169197.85000000056,"y":2545961.8900000025}},{"attributes":{"ID":556023,"DIS_CODE":0,"TOWNNAME":"北區","LI":"六甲里","LIN":"21鄰","STREET":"公園路","SECT":" ","MAREA":" ","LANE":" ","ALLEY":" ","HOUSE_NO":"５９１號之４６十樓之","E_COORD97":169197.85000000001,"N_COORD97":2545961.8900000001,"ADDRESS":"公園路５９１號之４６十樓之１０","OBJECTID":555996},"geometry":{"x":169197.85000000056,"y":2545961.8900000025}},{"attributes":{"ID":556024,"DIS_CODE":0,"TOWNNAME":"北區","LI":"六甲里","LIN":"21鄰","STREET":"公園路","SECT":" ","MAREA":" ","LANE":" ","ALLEY":" ","HOUSE_NO":"５９１號之４６十樓之","E_COORD97":169197.85000000001,"N_COORD97":2545961.8900000001,"ADDRESS":"公園路５９１號之４６十樓之１１","OBJECTID":555997},"geometry":{"x":169197.85000000056,"y":2545961.8900000025}},{"attributes":{"ID":556025,"DIS_CODE":0,"TOWNNAME":"北區","LI":"六甲里","LIN":"21鄰","STREET":"公園路","SECT":" ","MAREA":" ","LANE":" ","ALLEY":" ","HOUSE_NO":"５９１號之４６十樓之","E_COORD97":169197.85000000001,"N_COORD97":2545961.8900000001,"ADDRESS":"公園路５９１號之４６十樓之１２","OBJECTID":555998},"geometry":{"x":169197.85000000056,"y":2545961.8900000025}},{"attributes":{"ID":556026,"DIS_CODE":0,"TOWNNAME":"北區","LI":"六甲里","LIN":"21鄰","STREET":"公園路","SECT":" ","MAREA":" ","LANE":" ","ALLEY":" ","HOUSE_NO":"５９１號之４６十樓之","E_COORD97":169197.85000000001,"N_COORD97":2545961.8900000001,"ADDRESS":"公園路５９１號之４６十樓之１３","OBJECTID":555999},"geometry":{"x":169197.85000000056,"y":2545961.8900000025}},{"attributes":{"ID":556027,"DIS_CODE":0,"TOWNNAME":"北區","LI":"六甲里","LIN":"21鄰","STREET":"公園路","SECT":" ","MAREA":" ","LANE":" ","ALLEY":" ","HOUSE_NO":"５９１號之４６十樓之","E_COORD97":169197.85000000001,"N_COORD97":2545961.8900000001,"ADDRESS":"公園路５９１號之４６十樓之１４","OBJECTID":556000},"geometry":{"x":169197.85000000056,"y":2545961.8900000025}}]}