{"displayFieldName":"TOWNNAME","fieldAliases":{"ID":"ID","DIS_CODE":"DIS_CODE","TOWNNAME":"TOWNNAME","LI":"LI","LIN":"LIN","STREET":"STREET","SECT":"SECT","MAREA":"MAREA","LANE":"LANE","ALLEY":"ALLEY","HOUSE_NO":"HOUSE_NO","E_COORD97":"E_COORD97","N_COORD97":"N_COORD97","ADDRESS":"ADDRESS","OBJECTID":"OBJECTID"},"geometryType":"esriGeometryPoint","spatialReference":{"wkid":102443,"latestWkid":3826},"fields":[{"name":"ID","type":"esriFieldTypeDouble","alias":"ID"},{"name":"DIS_CODE","type":"esriFieldTypeInteger","alias":"DIS_CODE"},{"name":"TOWNNAME","type":"esriFieldTypeString","alias":"TOWNNAME","length":8},{"name":"LI","type":"esriFieldTypeString","alias":"LI","length":8},{"name":"LIN","type":"esriFieldTypeString","alias":"LIN","length":12},{"name":"STREET","type":"esriFieldTypeString","alias":"STREET","length":20},{"name":"SECT","type":"esriFieldTypeString","alias":"SECT","length":8},{"name":"MAREA","type":"esriFieldTypeString","alias":"MAREA","length":12},{"name":"LANE","type":"esriFieldTypeString","alias":"LANE","length":10},{"name":"ALLEY","type":"esriFieldTypeString","alias":"ALLEY","length":10},{"name":"HOUSE_NO","type":"esriFieldTypeString","alias":"HOUSE_NO","length":20},{"name":"E_COORD97","type":"esriFieldTypeDouble","alias":"E_COORD97"},{"name":"N_COORD97","type":"esriFieldTypeDouble","alias":"N_COORD97"},{"name":"ADDRESS","type":"esriFieldTypeString","alias":"ADDRESS","length":50},{"name":"OBJECTID","type":"esriFieldTypeOID","alias":"OBJECTID"}],"features":[{"attributes":{"ID":69601,"DIS_CODE":0,"TOWNNAME":"安南區","LI":"城東里","LIN":"6鄰","STREET":"城北路","SECT":" ","MAREA":" ","LANE":"１１２巷","ALLEY":"７５弄","HOUSE_NO":"７號","E_COORD97":161186.26000000001,"N_COORD97":2551686.52,"ADDRESS":"城北路１１２巷７５弄７號","OBJECTID":69601},"geometry":{"x":161186.25999999978,"y":2551686.5200000014}},{"attributes":{"ID":69602,"DIS_CODE":0,"TOWNNAME":"安南區","LI":"城東里","LIN":"6鄰","STREET":"城北路","SECT":" ","MAREA":" ","LANE":"１１２巷","ALLEY":"７５弄","HOUSE_NO":"９號","E_COORD97":161186.64999999999,"N_COORD97":2551690.4399999999,"ADDRESS":"城北路１１２巷７５弄９號","OBJECTID":69602},"geometry":{"x":161186.6500000013,"y":2551690.4400000013}},{"attributes":{"ID":69603,"DIS_CODE":0,"TOWNNAME":"官田區","LI":"隆本里","LIN":"6鄰","STREET":"中華路","SECT":"二段","MAREA":" ","LANE":"８３巷","ALLEY":"２弄","HOUSE_NO":"２７號","E_COORD97":179803.10999999999,"N_COORD97":2566803.02,"ADDRESS":"中華路二段８３巷２弄２７號","OBJECTID":69603},"geometry":{"x":179803.11000000127,"y":2566803.0199999996}},{"attributes":{"ID":69604,"DIS_CODE":0,"TOWNNAME":"安南區","LI":"城北里","LIN":"6鄰","STREET":"安中路","SECT":"六段","MAREA":" ","LANE":"５００巷","ALLEY":"２４弄","HOUSE_NO":"１１號","E_COORD97":161107.64999999999,"N_COORD97":2551433.3999999999,"ADDRESS":"安中路六段５００巷２４弄１１號","OBJECTID":69604},"geometry":{"x":161107.65000000037,"y":2551433.4000000041}},{"attributes":{"ID":69605,"DIS_CODE":0,"TOWNNAME":"南區","LI":"同安里","LIN":"1鄰","STREET":"灣裡路","SECT":" ","MAREA":" ","LANE":"３７２巷","ALLEY":"３弄","HOUSE_NO":"１０號","E_COORD97":166112.59,"N_COORD97":2536189.54,"ADDRESS":"灣裡路３７２巷３弄１０號","OBJECTID":69605},"geometry":{"x":166112.59000000078,"y":2536189.540000001}},{"attributes":{"ID":69606,"DIS_CODE":0,"TOWNNAME":"仁德區","LI":"一甲里","LIN":"6鄰","STREET":"忠義路","SECT":" ","MAREA":" ","LANE":"３４１巷","ALLEY":"２５弄","HOUSE_NO":"９號","E_COORD97":173552.60000000001,"N_COORD97":2541804.1899999999,"ADDRESS":"忠義路３４１巷２５弄９號","OBJECTID":69606},"geometry":{"x":173552.60000000056,"y":2541804.1899999995}},{"attributes":{"ID":69607,"DIS_CODE":0,"TOWNNAME":"仁德區","LI":"一甲里","LIN":"6鄰","STREET":"忠義路","SECT":" ","MAREA":" ","LANE":"３４１巷","ALLEY":"２５弄","HOUSE_NO":"１２號","E_COORD97":173542.70000000001,"N_COORD97":2541785.9399999999,"ADDRESS":"忠義路３４１巷２５弄１２號","OBJECTID":69607},"geometry":{"x":173542.70000000019,"y":2541785.9399999995}},{"attributes":{"ID":69608,"DIS_CODE":0,"TOWNNAME":"仁德區","LI":"一甲里","LIN":"6鄰","STREET":"忠義路","SECT":" ","MAREA":" ","LANE":"３４１巷","ALLEY":"２５弄","HOUSE_NO":"１０號","E_COORD97":173538.23000000001,"N_COORD97":2541787.4399999999,"ADDRESS":"忠義路３４１巷２５弄１０號","OBJECTID":69608},"geometry":{"x":173538.23000000045,"y":2541787.4400000013}},{"attributes":{"ID":69609,"DIS_CODE":0,"TOWNNAME":"仁德區","LI":"一甲里","LIN":"6鄰","STREET":"忠義路","SECT":" ","MAREA":" ","LANE":"３４１巷","ALLEY":"２５弄","HOUSE_NO":"１號","E_COORD97":173533.14999999999,"N_COORD97":2541811.1899999999,"ADDRESS":"忠義路３４１巷２５弄１號","OBJECTID":69609},"geometry":{"x":173533.15000000037,"y":2541811.1899999995}},{"attributes":{"ID":69610,"DIS_CODE":0,"TOWNNAME":"仁德區","LI":"一甲里","LIN":"6鄰","STREET":"忠義路","SECT":" ","MAREA":" ","LANE":"３４１巷","ALLEY":"２５弄","HOUSE_NO":"５號","E_COORD97":173542.70000000001,"N_COORD97":2541807.6899999999,"ADDRESS":"忠義路３４１巷２５弄５號","OBJECTID":69610},"geometry":{"x":173542.70000000019,"y":2541807.6899999995}},{"attributes":{"ID":69611,"DIS_CODE":0,"TOWNNAME":"仁德區","LI":"上崙里","LIN":"6鄰","STREET":"德南路","SECT":" ","MAREA":" ","LANE":"３９９巷","ALLEY":"２６弄","HOUSE_NO":"６號","E_COORD97":173982.72,"N_COORD97":2538242.4300000002,"ADDRESS":"德南路３９９巷２６弄６號","OBJECTID":69611},"geometry":{"x":173982.72000000067,"y":2538242.4299999997}},{"attributes":{"ID":69612,"DIS_CODE":0,"TOWNNAME":"仁德區","LI":"一甲里","LIN":"6鄰","STREET":"忠義路","SECT":" ","MAREA":" ","LANE":"３４１巷","ALLEY":"２５弄","HOUSE_NO":"２０號","E_COORD97":173561.66,"N_COORD97":2541779.4399999999,"ADDRESS":"忠義路３４１巷２５弄２０號","OBJECTID":69612},"geometry":{"x":173561.66000000015,"y":2541779.4399999976}},{"attributes":{"ID":69613,"DIS_CODE":0,"TOWNNAME":"仁德區","LI":"上崙里","LIN":"6鄰","STREET":"德南路","SECT":" ","MAREA":" ","LANE":"３９９巷","ALLEY":"２６弄","HOUSE_NO":"７號","E_COORD97":173999.07000000001,"N_COORD97":2538242.02,"ADDRESS":"德南路３９９巷２６弄７號","OBJECTID":69613},"geometry":{"x":173999.07000000123,"y":2538242.0199999996}},{"attributes":{"ID":69614,"DIS_CODE":0,"TOWNNAME":"仁德區","LI":"一甲里","LIN":"6鄰","STREET":"忠義路","SECT":" ","MAREA":" ","LANE":"３４１巷","ALLEY":"２５弄","HOUSE_NO":"１１號","E_COORD97":173558.64999999999,"N_COORD97":2541802.4399999999,"ADDRESS":"忠義路３４１巷２５弄１１號","OBJECTID":69614},"geometry":{"x":173558.65000000037,"y":2541802.4399999995}},{"attributes":{"ID":69615,"DIS_CODE":0,"TOWNNAME":"仁德區","LI":"上崙里","LIN":"6鄰","STREET":"德南路","SECT":" ","MAREA":" ","LANE":"３９９巷","ALLEY":"２６弄","HOUSE_NO":"３號","E_COORD97":173999.87,"N_COORD97":2538250.52,"ADDRESS":"德南路３９９巷２６弄３號","OBJECTID":69615},"geometry":{"x":173999.86999999918,"y":2538250.5200000014}},{"attributes":{"ID":69616,"DIS_CODE":0,"TOWNNAME":"仁德區","LI":"上崙里","LIN":"6鄰","STREET":"德南路","SECT":" ","MAREA":" ","LANE":"３９９巷","ALLEY":"２６弄","HOUSE_NO":"１１之１號","E_COORD97":174001.84,"N_COORD97":2538226.5499999998,"ADDRESS":"德南路３９９巷２６弄１１之１號","OBJECTID":69616},"geometry":{"x":174001.84000000078,"y":2538226.5500000007}},{"attributes":{"ID":69617,"DIS_CODE":0,"TOWNNAME":"仁德區","LI":"上崙里","LIN":"6鄰","STREET":"德南路","SECT":" ","MAREA":" ","LANE":"３９９巷","ALLEY":"２６弄","HOUSE_NO":"２號","E_COORD97":173982.56,"N_COORD97":2538251.1800000002,"ADDRESS":"德南路３９９巷２６弄２號","OBJECTID":69617},"geometry":{"x":173982.55999999959,"y":2538251.1799999997}},{"attributes":{"ID":69618,"DIS_CODE":0,"TOWNNAME":"仁德區","LI":"上崙里","LIN":"6鄰","STREET":"德南路","SECT":" ","MAREA":" ","LANE":"３９９巷","ALLEY":"２６弄","HOUSE_NO":"８號","E_COORD97":173982.48000000001,"N_COORD97":2538237.6800000002,"ADDRESS":"德南路３９９巷２６弄８號","OBJECTID":69618},"geometry":{"x":173982.48000000045,"y":2538237.6799999997}},{"attributes":{"ID":69619,"DIS_CODE":0,"TOWNNAME":"仁德區","LI":"一甲里","LIN":"6鄰","STREET":"忠義路","SECT":" ","MAREA":" ","LANE":"３４１巷","ALLEY":"２５弄","HOUSE_NO":"８號","E_COORD97":173532.07999999999,"N_COORD97":2541789.1899999999,"ADDRESS":"忠義路３４１巷２５弄８號","OBJECTID":69619},"geometry":{"x":173532.08000000007,"y":2541789.1900000013}},{"attributes":{"ID":69620,"DIS_CODE":0,"TOWNNAME":"仁德區","LI":"一甲里","LIN":"6鄰","STREET":"忠義路","SECT":" ","MAREA":" ","LANE":"３４１巷","ALLEY":"２５弄","HOUSE_NO":"１４號","E_COORD97":173547.42000000001,"N_COORD97":2541784.4399999999,"ADDRESS":"忠義路３４１巷２５弄１４號","OBJECTID":69620},"geometry":{"x":173547.42000000086,"y":2541784.4400000013}},{"attributes":{"ID":69621,"DIS_CODE":0,"TOWNNAME":"仁德區","LI":"一甲里","LIN":"6鄰","STREET":"忠義路","SECT":" ","MAREA":" ","LANE":"３４１巷","ALLEY":"２５弄","HOUSE_NO":"７號","E_COORD97":173547.79000000001,"N_COORD97":2541805.9399999999,"ADDRESS":"忠義路３４１巷２５弄７號","OBJECTID":69621},"geometry":{"x":173547.7900000019,"y":2541805.9399999995}},{"attributes":{"ID":69622,"DIS_CODE":0,"TOWNNAME":"仁德區","LI":"一甲里","LIN":"6鄰","STREET":"忠義路","SECT":" ","MAREA":" ","LANE":"３４１巷","ALLEY":"２５弄","HOUSE_NO":"３號","E_COORD97":173537.98000000001,"N_COORD97":2541809.4399999999,"ADDRESS":"忠義路３４１巷２５弄３號","OBJECTID":69622},"geometry":{"x":173537.98000000045,"y":2541809.4399999995}},{"attributes":{"ID":69623,"DIS_CODE":0,"TOWNNAME":"仁德區","LI":"一甲里","LIN":"6鄰","STREET":"忠義路","SECT":" ","MAREA":" ","LANE":"３４１巷","ALLEY":"２５弄","HOUSE_NO":"２號","E_COORD97":173522.42999999999,"N_COORD97":2541792.6899999999,"ADDRESS":"忠義路３４１巷２５弄２號","OBJECTID":69623},"geometry":{"x":173522.4299999997,"y":2541792.6900000013}},{"attributes":{"ID":69624,"DIS_CODE":0,"TOWNNAME":"仁德區","LI":"上崙里","LIN":"6鄰","STREET":"德南路","SECT":" ","MAREA":" ","LANE":"３９９巷","ALLEY":"２６弄","HOUSE_NO":"５號","E_COORD97":173999.70000000001,"N_COORD97":2538246.27,"ADDRESS":"德南路３９９巷２６弄５號","OBJECTID":69624},"geometry":{"x":173999.70000000112,"y":2538246.2700000014}},{"attributes":{"ID":69625,"DIS_CODE":0,"TOWNNAME":"仁德區","LI":"一甲里","LIN":"6鄰","STREET":"忠義路","SECT":" ","MAREA":" ","LANE":"３４１巷","ALLEY":"２５弄","HOUSE_NO":"１８號","E_COORD97":173556.91,"N_COORD97":2541781.1899999999,"ADDRESS":"忠義路３４１巷２５弄１８號","OBJECTID":69625},"geometry":{"x":173556.91000000015,"y":2541781.1899999976}},{"attributes":{"ID":69626,"DIS_CODE":0,"TOWNNAME":"仁德區","LI":"一甲里","LIN":"6鄰","STREET":"忠義路","SECT":" ","MAREA":" ","LANE":"３４１巷","ALLEY":"２５弄","HOUSE_NO":"１６號","E_COORD97":173552.31,"N_COORD97":2541782.6899999999,"ADDRESS":"忠義路３４１巷２５弄１６號","OBJECTID":69626},"geometry":{"x":173552.31000000145,"y":2541782.6900000013}},{"attributes":{"ID":69627,"DIS_CODE":0,"TOWNNAME":"新市區","LI":"豐華里","LIN":"18鄰","STREET":" ","SECT":" ","MAREA":"豐華","LANE":" ","ALLEY":" ","HOUSE_NO":"２８之９號","E_COORD97":173752.57999999999,"N_COORD97":2554053.7599999998,"ADDRESS":"豐華２８之９號","OBJECTID":69627},"geometry":{"x":173752.58000000007,"y":2554053.7599999998}},{"attributes":{"ID":69628,"DIS_CODE":0,"TOWNNAME":"新市區","LI":"大社里","LIN":"26鄰","STREET":" ","SECT":" ","MAREA":"大社","LANE":" ","ALLEY":" ","HOUSE_NO":"６８０之６號","E_COORD97":179868.48999999999,"N_COORD97":2554254.48,"ADDRESS":"大社６８０之６號","OBJECTID":69628},"geometry":{"x":179868.49000000115,"y":2554254.4800000023}},{"attributes":{"ID":69629,"DIS_CODE":0,"TOWNNAME":"新市區","LI":"大社里","LIN":"25鄰","STREET":" ","SECT":" ","MAREA":"大社","LANE":" ","ALLEY":" ","HOUSE_NO":"９１０之１號","E_COORD97":179935.19,"N_COORD97":2554117.75,"ADDRESS":"大社９１０之１號","OBJECTID":69629},"geometry":{"x":179935.19000000134,"y":2554117.75}},{"attributes":{"ID":69630,"DIS_CODE":0,"TOWNNAME":"新市區","LI":"大社里","LIN":"25鄰","STREET":" ","SECT":" ","MAREA":"大社","LANE":" ","ALLEY":" ","HOUSE_NO":"９１８之１１號","E_COORD97":179917.92999999999,"N_COORD97":2554063.3700000001,"ADDRESS":"大社９１８之１１號","OBJECTID":69630},"geometry":{"x":179917.9299999997,"y":2554063.3700000029}},{"attributes":{"ID":69631,"DIS_CODE":0,"TOWNNAME":"新市區","LI":"大社里","LIN":"14鄰","STREET":" ","SECT":" ","MAREA":"大社","LANE":" ","ALLEY":" ","HOUSE_NO":"５３０之２號","E_COORD97":179828.48000000001,"N_COORD97":2554742.25,"ADDRESS":"大社５３０之２號","OBJECTID":69631},"geometry":{"x":179828.48000000138,"y":2554742.25}},{"attributes":{"ID":69632,"DIS_CODE":0,"TOWNNAME":"新市區","LI":"大社里","LIN":"14鄰","STREET":" ","SECT":" ","MAREA":"大社","LANE":" ","ALLEY":" ","HOUSE_NO":"５３０之４號","E_COORD97":179836.45999999999,"N_COORD97":2554745.7400000002,"ADDRESS":"大社５３０之４號","OBJECTID":69632},"geometry":{"x":179836.46000000089,"y":2554745.7400000002}},{"attributes":{"ID":69633,"DIS_CODE":0,"TOWNNAME":"新市區","LI":"大社里","LIN":"14鄰","STREET":" ","SECT":" ","MAREA":"大社","LANE":" ","ALLEY":" ","HOUSE_NO":"５３０之３０號","E_COORD97":179872.64000000001,"N_COORD97":2554713.3999999999,"ADDRESS":"大社５３０之３０號","OBJECTID":69633},"geometry":{"x":179872.63999999966,"y":2554713.4000000022}},{"attributes":{"ID":69634,"DIS_CODE":0,"TOWNNAME":"新市區","LI":"大社里","LIN":"14鄰","STREET":" ","SECT":" ","MAREA":"大社","LANE":" ","ALLEY":" ","HOUSE_NO":"５３０之２５號","E_COORD97":179852.26999999999,"N_COORD97":2554705.5600000001,"ADDRESS":"大社５３０之２５號","OBJECTID":69634},"geometry":{"x":179852.27000000048,"y":2554705.5600000024}},{"attributes":{"ID":69635,"DIS_CODE":0,"TOWNNAME":"新市區","LI":"大營里","LIN":"15鄰","STREET":" ","SECT":" ","MAREA":"大營","LANE":" ","ALLEY":" ","HOUSE_NO":"２８１號之９","E_COORD97":179036.67000000001,"N_COORD97":2555465.3999999999,"ADDRESS":"大營２８１號之９","OBJECTID":69635},"geometry":{"x":179036.67000000086,"y":2555465.4000000022}},{"attributes":{"ID":69636,"DIS_CODE":0,"TOWNNAME":"七股區","LI":"頂山里","LIN":"6鄰","STREET":" ","SECT":" ","MAREA":"頂山","LANE":" ","ALLEY":" ","HOUSE_NO":"５９號","E_COORD97":159026.53,"N_COORD97":2564550.6600000001,"ADDRESS":"頂山５９號","OBJECTID":69636},"geometry":{"x":159026.53000000026,"y":2564550.6600000001}},{"attributes":{"ID":69637,"DIS_CODE":0,"TOWNNAME":"七股區","LI":"頂山里","LIN":"6鄰","STREET":" ","SECT":" ","MAREA":"頂山","LANE":" ","ALLEY":" ","HOUSE_NO":"６１號","E_COORD97":159032.94,"N_COORD97":2564565.0299999998,"ADDRESS":"頂山６１號","OBJECTID":69637},"geometry":{"x":159032.94000000227,"y":2564565.0299999993}},{"attributes":{"ID":69638,"DIS_CODE":0,"TOWNNAME":"七股區","LI":"頂山里","LIN":"6鄰","STREET":" ","SECT":" ","MAREA":"頂山","LANE":" ","ALLEY":" ","HOUSE_NO":"６２號","E_COORD97":158999.39999999999,"N_COORD97":2564569.29,"ADDRESS":"頂山６２號","OBJECTID":69638},"geometry":{"x":158999.40000000224,"y":2564569.2899999991}},{"attributes":{"ID":69639,"DIS_CODE":0,"TOWNNAME":"七股區","LI":"頂山里","LIN":"6鄰","STREET":" ","SECT":" ","MAREA":"頂山","LANE":" ","ALLEY":" ","HOUSE_NO":"６３號","E_COORD97":159031.26999999999,"N_COORD97":2564576.3599999999,"ADDRESS":"頂山６３號","OBJECTID":69639},"geometry":{"x":159031.26999999955,"y":2564576.3599999994}},{"attributes":{"ID":69640,"DIS_CODE":0,"TOWNNAME":"七股區","LI":"玉成里","LIN":"6鄰","STREET":" ","SECT":" ","MAREA":"玉成","LANE":" ","ALLEY":" ","HOUSE_NO":"５６號","E_COORD97":161194.26000000001,"N_COORD97":2559729.8100000001,"ADDRESS":"玉成５６號","OBJECTID":69640},"geometry":{"x":161194.25999999978,"y":2559729.8100000005}},{"attributes":{"ID":69641,"DIS_CODE":0,"TOWNNAME":"七股區","LI":"玉成里","LIN":"6鄰","STREET":" ","SECT":" ","MAREA":"玉成","LANE":" ","ALLEY":" ","HOUSE_NO":"５７號","E_COORD97":161178.07999999999,"N_COORD97":2559724.5800000001,"ADDRESS":"玉成５７號","OBJECTID":69641},"geometry":{"x":161178.08000000101,"y":2559724.5800000038}},{"attributes":{"ID":69642,"DIS_CODE":0,"TOWNNAME":"七股區","LI":"玉成里","LIN":"6鄰","STREET":" ","SECT":" ","MAREA":"玉成","LANE":" ","ALLEY":" ","HOUSE_NO":"５８號之２","E_COORD97":161142.48999999999,"N_COORD97":2559750.7400000002,"ADDRESS":"玉成５８號之２","OBJECTID":69642},"geometry":{"x":161142.49000000022,"y":2559750.7400000039}},{"attributes":{"ID":69643,"DIS_CODE":0,"TOWNNAME":"七股區","LI":"玉成里","LIN":"6鄰","STREET":" ","SECT":" ","MAREA":"玉成","LANE":" ","ALLEY":" ","HOUSE_NO":"５９號","E_COORD97":161145.32000000001,"N_COORD97":2559712.4100000001,"ADDRESS":"玉成５９號","OBJECTID":69643},"geometry":{"x":161145.3200000003,"y":2559712.4100000039}},{"attributes":{"ID":69644,"DIS_CODE":0,"TOWNNAME":"七股區","LI":"竹港里","LIN":"6鄰","STREET":" ","SECT":" ","MAREA":"竹港","LANE":" ","ALLEY":" ","HOUSE_NO":"５２號之１０","E_COORD97":165063.79000000001,"N_COORD97":2556791.6099999999,"ADDRESS":"竹港５２號之１０","OBJECTID":69644},"geometry":{"x":165063.79000000097,"y":2556791.6100000013}},{"attributes":{"ID":69645,"DIS_CODE":0,"TOWNNAME":"七股區","LI":"竹港里","LIN":"6鄰","STREET":" ","SECT":" ","MAREA":"竹港","LANE":" ","ALLEY":" ","HOUSE_NO":"５２號之１１","E_COORD97":165059.35999999999,"N_COORD97":2556792.1499999999,"ADDRESS":"竹港５２號之１１","OBJECTID":69645},"geometry":{"x":165059.36000000034,"y":2556792.1500000022}},{"attributes":{"ID":69646,"DIS_CODE":0,"TOWNNAME":"七股區","LI":"竹港里","LIN":"6鄰","STREET":" ","SECT":" ","MAREA":"竹港","LANE":" ","ALLEY":" ","HOUSE_NO":"５２號之１２","E_COORD97":165054.92000000001,"N_COORD97":2556792.6899999999,"ADDRESS":"竹港５２號之１２","OBJECTID":69646},"geometry":{"x":165054.91999999993,"y":2556792.6899999995}},{"attributes":{"ID":69647,"DIS_CODE":0,"TOWNNAME":"七股區","LI":"竹港里","LIN":"6鄰","STREET":" ","SECT":" ","MAREA":"竹港","LANE":" ","ALLEY":" ","HOUSE_NO":"５２號之１３","E_COORD97":165050.48999999999,"N_COORD97":2556793.23,"ADDRESS":"竹港５２號之１３","OBJECTID":69647},"geometry":{"x":165050.49000000209,"y":2556793.2300000004}},{"attributes":{"ID":69648,"DIS_CODE":0,"TOWNNAME":"新市區","LI":"大社里","LIN":"23鄰","STREET":" ","SECT":" ","MAREA":"大社","LANE":" ","ALLEY":" ","HOUSE_NO":"８５１之１號","E_COORD97":179642.73999999999,"N_COORD97":2554197.04,"ADDRESS":"大社８５１之１號","OBJECTID":69648},"geometry":{"x":179642.74000000115,"y":2554197.0399999991}},{"attributes":{"ID":69649,"DIS_CODE":0,"TOWNNAME":"新市區","LI":"大社里","LIN":"23鄰","STREET":" ","SECT":" ","MAREA":"大社","LANE":" ","ALLEY":" ","HOUSE_NO":"８５１之３號","E_COORD97":179645.64999999999,"N_COORD97":2554188.3300000001,"ADDRESS":"大社８５１之３號","OBJECTID":69649},"geometry":{"x":179645.6500000013,"y":2554188.3300000001}},{"attributes":{"ID":69650,"DIS_CODE":0,"TOWNNAME":"七股區","LI":"竹港里","LIN":"6鄰","STREET":" ","SECT":" ","MAREA":"竹港","LANE":" ","ALLEY":" ","HOUSE_NO":"５２號之１４","E_COORD97":165046.06,"N_COORD97":2556793.77,"ADDRESS":"竹港５２號之１４","OBJECTID":69650},"geometry":{"x":165046.06000000052,"y":2556793.7700000033}},{"attributes":{"ID":69651,"DIS_CODE":0,"TOWNNAME":"七股區","LI":"竹港里","LIN":"6鄰","STREET":" ","SECT":" ","MAREA":"竹港","LANE":" ","ALLEY":" ","HOUSE_NO":"５２號之１９","E_COORD97":165096.76999999999,"N_COORD97":2556806.1499999999,"ADDRESS":"竹港５２號之１９","OBJECTID":69651},"geometry":{"x":165096.76999999955,"y":2556806.1500000022}},{"attributes":{"ID":69652,"DIS_CODE":0,"TOWNNAME":"七股區","LI":"竹港里","LIN":"6鄰","STREET":" ","SECT":" ","MAREA":"竹港","LANE":" ","ALLEY":" ","HOUSE_NO":"５２號之２０","E_COORD97":165091.03,"N_COORD97":2556803.8599999999,"ADDRESS":"竹港５２號之２０","OBJECTID":69652},"geometry":{"x":165091.03000000119,"y":2556803.8600000013}},{"attributes":{"ID":69653,"DIS_CODE":0,"TOWNNAME":"七股區","LI":"竹港里","LIN":"6鄰","STREET":" ","SECT":" ","MAREA":"竹港","LANE":" ","ALLEY":" ","HOUSE_NO":"５２號之２１","E_COORD97":165087.01999999999,"N_COORD97":2556804.4100000001,"ADDRESS":"竹港５２號之２１","OBJECTID":69653},"geometry":{"x":165087.02000000048,"y":2556804.410000002}},{"attributes":{"ID":69654,"DIS_CODE":0,"TOWNNAME":"七股區","LI":"竹港里","LIN":"6鄰","STREET":" ","SECT":" ","MAREA":"竹港","LANE":" ","ALLEY":" ","HOUSE_NO":"５２號之２２","E_COORD97":165083.01999999999,"N_COORD97":2556804.9500000002,"ADDRESS":"竹港５２號之２２","OBJECTID":69654},"geometry":{"x":165083.01999999955,"y":2556804.9499999993}},{"attributes":{"ID":69655,"DIS_CODE":0,"TOWNNAME":"七股區","LI":"竹港里","LIN":"6鄰","STREET":" ","SECT":" ","MAREA":"竹港","LANE":" ","ALLEY":" ","HOUSE_NO":"５２號之２３","E_COORD97":165079.01999999999,"N_COORD97":2556805.5,"ADDRESS":"竹港５２號之２３","OBJECTID":69655},"geometry":{"x":165079.02000000048,"y":2556805.5}},{"attributes":{"ID":69656,"DIS_CODE":0,"TOWNNAME":"七股區","LI":"竹港里","LIN":"6鄰","STREET":" ","SECT":" ","MAREA":"竹港","LANE":" ","ALLEY":" ","HOUSE_NO":"５２號之２６","E_COORD97":165065.10999999999,"N_COORD97":2556808.9199999999,"ADDRESS":"竹港５２號之２６","OBJECTID":69656},"geometry":{"x":165065.11000000127,"y":2556808.9199999999}},{"attributes":{"ID":69657,"DIS_CODE":0,"TOWNNAME":"七股區","LI":"竹港里","LIN":"6鄰","STREET":" ","SECT":" ","MAREA":"竹港","LANE":" ","ALLEY":" ","HOUSE_NO":"５２號之２７","E_COORD97":165060.92999999999,"N_COORD97":2556809.29,"ADDRESS":"竹港５２號之２７","OBJECTID":69657},"geometry":{"x":165060.93000000063,"y":2556809.2899999991}},{"attributes":{"ID":69658,"DIS_CODE":0,"TOWNNAME":"七股區","LI":"竹港里","LIN":"6鄰","STREET":" ","SECT":" ","MAREA":"竹港","LANE":" ","ALLEY":" ","HOUSE_NO":"５２號之２８","E_COORD97":165056.76000000001,"N_COORD97":2556809.6699999999,"ADDRESS":"竹港５２號之２８","OBJECTID":69658},"geometry":{"x":165056.76000000071,"y":2556809.6700000018}},{"attributes":{"ID":69659,"DIS_CODE":0,"TOWNNAME":"七股區","LI":"竹港里","LIN":"6鄰","STREET":" ","SECT":" ","MAREA":"竹港","LANE":" ","ALLEY":" ","HOUSE_NO":"５２號之２","E_COORD97":165117.63,"N_COORD97":2556783.0600000001,"ADDRESS":"竹港５２號之２","OBJECTID":69659},"geometry":{"x":165117.63000000082,"y":2556783.0600000024}},{"attributes":{"ID":69660,"DIS_CODE":0,"TOWNNAME":"七股區","LI":"竹港里","LIN":"6鄰","STREET":" ","SECT":" ","MAREA":"竹港","LANE":" ","ALLEY":" ","HOUSE_NO":"５２號之３０","E_COORD97":165048.39999999999,"N_COORD97":2556810.4300000002,"ADDRESS":"竹港５２號之３０","OBJECTID":69660},"geometry":{"x":165048.4000000013,"y":2556810.4300000016}},{"attributes":{"ID":69661,"DIS_CODE":0,"TOWNNAME":"七股區","LI":"竹港里","LIN":"6鄰","STREET":" ","SECT":" ","MAREA":"竹港","LANE":" ","ALLEY":" ","HOUSE_NO":"５２號之５","E_COORD97":165084.35999999999,"N_COORD97":2556787.0899999999,"ADDRESS":"竹港５２號之５","OBJECTID":69661},"geometry":{"x":165084.36000000127,"y":2556787.0899999999}},{"attributes":{"ID":69662,"DIS_CODE":0,"TOWNNAME":"七股區","LI":"竹港里","LIN":"6鄰","STREET":" ","SECT":" ","MAREA":"竹港","LANE":" ","ALLEY":" ","HOUSE_NO":"５２號之６","E_COORD97":165080.39000000001,"N_COORD97":2556787.6699999999,"ADDRESS":"竹港５２號之６","OBJECTID":69662},"geometry":{"x":165080.38999999966,"y":2556787.6700000037}},{"attributes":{"ID":69663,"DIS_CODE":0,"TOWNNAME":"七股區","LI":"竹港里","LIN":"6鄰","STREET":" ","SECT":" ","MAREA":"竹港","LANE":" ","ALLEY":" ","HOUSE_NO":"５２號之７","E_COORD97":165076.41,"N_COORD97":2556788.25,"ADDRESS":"竹港５２號之７","OBJECTID":69663},"geometry":{"x":165076.41000000201,"y":2556788.2500000019}},{"attributes":{"ID":69664,"DIS_CODE":0,"TOWNNAME":"七股區","LI":"竹港里","LIN":"6鄰","STREET":" ","SECT":" ","MAREA":"竹港","LANE":" ","ALLEY":" ","HOUSE_NO":"５２號之８","E_COORD97":165072.44,"N_COORD97":2556788.8199999998,"ADDRESS":"竹港５２號之８","OBJECTID":69664},"geometry":{"x":165072.44000000041,"y":2556788.8200000022}},{"attributes":{"ID":69665,"DIS_CODE":0,"TOWNNAME":"七股區","LI":"竹港里","LIN":"6鄰","STREET":" ","SECT":" ","MAREA":"竹港","LANE":" ","ALLEY":" ","HOUSE_NO":"５２號之９","E_COORD97":165068.47,"N_COORD97":2556789.3999999999,"ADDRESS":"竹港５２號之９","OBJECTID":69665},"geometry":{"x":165068.46999999974,"y":2556789.4000000004}},{"attributes":{"ID":69666,"DIS_CODE":0,"TOWNNAME":"七股區","LI":"竹港里","LIN":"6鄰","STREET":" ","SECT":" ","MAREA":"竹港","LANE":" ","ALLEY":" ","HOUSE_NO":"５２號","E_COORD97":165088.34,"N_COORD97":2556786.52,"ADDRESS":"竹港５２號","OBJECTID":69666},"geometry":{"x":165088.34000000171,"y":2556786.5200000014}},{"attributes":{"ID":69667,"DIS_CODE":0,"TOWNNAME":"七股區","LI":"竹港里","LIN":"6鄰","STREET":" ","SECT":" ","MAREA":"竹港","LANE":" ","ALLEY":" ","HOUSE_NO":"５３號之１","E_COORD97":165127.92000000001,"N_COORD97":2556748.6800000002,"ADDRESS":"竹港５３號之１","OBJECTID":69667},"geometry":{"x":165127.91999999993,"y":2556748.6799999997}},{"attributes":{"ID":69668,"DIS_CODE":0,"TOWNNAME":"七股區","LI":"竹港里","LIN":"6鄰","STREET":" ","SECT":" ","MAREA":"竹港","LANE":" ","ALLEY":" ","HOUSE_NO":"５３號之２","E_COORD97":165129.14000000001,"N_COORD97":2556758.7999999998,"ADDRESS":"竹港５３號之２","OBJECTID":69668},"geometry":{"x":165129.1400000006,"y":2556758.8000000026}},{"attributes":{"ID":69669,"DIS_CODE":0,"TOWNNAME":"七股區","LI":"竹港里","LIN":"6鄰","STREET":" ","SECT":" ","MAREA":"竹港","LANE":" ","ALLEY":" ","HOUSE_NO":"５３號之３","E_COORD97":165117.91,"N_COORD97":2556707.96,"ADDRESS":"竹港５３號之３","OBJECTID":69669},"geometry":{"x":165117.91000000015,"y":2556707.9600000009}},{"attributes":{"ID":69670,"DIS_CODE":0,"TOWNNAME":"七股區","LI":"竹港里","LIN":"6鄰","STREET":" ","SECT":" ","MAREA":"竹港","LANE":" ","ALLEY":" ","HOUSE_NO":"５３號之４","E_COORD97":165121.41,"N_COORD97":2556724.9700000002,"ADDRESS":"竹港５３號之４","OBJECTID":69670},"geometry":{"x":165121.41000000015,"y":2556724.9700000007}},{"attributes":{"ID":69671,"DIS_CODE":0,"TOWNNAME":"七股區","LI":"竹港里","LIN":"6鄰","STREET":" ","SECT":" ","MAREA":"竹港","LANE":" ","ALLEY":" ","HOUSE_NO":"５３號之５０","E_COORD97":165615.17999999999,"N_COORD97":2556759.9100000001,"ADDRESS":"竹港５３號之５０","OBJECTID":69671},"geometry":{"x":165615.18000000063,"y":2556759.910000002}},{"attributes":{"ID":69672,"DIS_CODE":0,"TOWNNAME":"七股區","LI":"竹港里","LIN":"6鄰","STREET":" ","SECT":" ","MAREA":"竹港","LANE":" ","ALLEY":" ","HOUSE_NO":"５３號之５","E_COORD97":165148.64000000001,"N_COORD97":2556788.7799999998,"ADDRESS":"竹港５３號之５","OBJECTID":69672},"geometry":{"x":165148.63999999966,"y":2556788.7799999993}},{"attributes":{"ID":69673,"DIS_CODE":0,"TOWNNAME":"七股區","LI":"竹港里","LIN":"6鄰","STREET":" ","SECT":" ","MAREA":"竹港","LANE":" ","ALLEY":" ","HOUSE_NO":"５３號之６","E_COORD97":165119.81,"N_COORD97":2556689.6400000001,"ADDRESS":"竹港５３號之６","OBJECTID":69673},"geometry":{"x":165119.80999999959,"y":2556689.6400000006}},{"attributes":{"ID":69674,"DIS_CODE":0,"TOWNNAME":"七股區","LI":"竹港里","LIN":"6鄰","STREET":" ","SECT":" ","MAREA":"竹港","LANE":" ","ALLEY":" ","HOUSE_NO":"５３號","E_COORD97":165099.51000000001,"N_COORD97":2556783.3300000001,"ADDRESS":"竹港５３號","OBJECTID":69674},"geometry":{"x":165099.51000000071,"y":2556783.3299999982}},{"attributes":{"ID":69675,"DIS_CODE":0,"TOWNNAME":"七股區","LI":"竹港里","LIN":"6鄰","STREET":" ","SECT":" ","MAREA":"竹港","LANE":" ","ALLEY":" ","HOUSE_NO":"５４號之１０","E_COORD97":165073.14000000001,"N_COORD97":2556727.4500000002,"ADDRESS":"竹港５４號之１０","OBJECTID":69675},"geometry":{"x":165073.1400000006,"y":2556727.450000003}},{"attributes":{"ID":69676,"DIS_CODE":0,"TOWNNAME":"七股區","LI":"竹港里","LIN":"6鄰","STREET":" ","SECT":" ","MAREA":"竹港","LANE":" ","ALLEY":" ","HOUSE_NO":"５４號之１１","E_COORD97":165072.22,"N_COORD97":2556723.3300000001,"ADDRESS":"竹港５４號之１１","OBJECTID":69676},"geometry":{"x":165072.22000000067,"y":2556723.3300000019}},{"attributes":{"ID":69677,"DIS_CODE":0,"TOWNNAME":"七股區","LI":"竹港里","LIN":"6鄰","STREET":" ","SECT":" ","MAREA":"竹港","LANE":" ","ALLEY":" ","HOUSE_NO":"５４號之５","E_COORD97":165076.59,"N_COORD97":2556744.7200000002,"ADDRESS":"竹港５４號之５","OBJECTID":69677},"geometry":{"x":165076.59000000078,"y":2556744.7200000025}},{"attributes":{"ID":69678,"DIS_CODE":0,"TOWNNAME":"七股區","LI":"竹港里","LIN":"6鄰","STREET":" ","SECT":" ","MAREA":"竹港","LANE":" ","ALLEY":" ","HOUSE_NO":"５４號之７","E_COORD97":165075.67000000001,"N_COORD97":2556740.52,"ADDRESS":"竹港５４號之７","OBJECTID":69678},"geometry":{"x":165075.66999999993,"y":2556740.5199999996}},{"attributes":{"ID":69679,"DIS_CODE":0,"TOWNNAME":"七股區","LI":"竹港里","LIN":"6鄰","STREET":" ","SECT":" ","MAREA":"竹港","LANE":" ","ALLEY":" ","HOUSE_NO":"５４號之８","E_COORD97":165074.73999999999,"N_COORD97":2556736.3199999998,"ADDRESS":"竹港５４號之８","OBJECTID":69679},"geometry":{"x":165074.74000000115,"y":2556736.320000004}},{"attributes":{"ID":69680,"DIS_CODE":0,"TOWNNAME":"七股區","LI":"竹港里","LIN":"6鄰","STREET":" ","SECT":" ","MAREA":"竹港","LANE":" ","ALLEY":" ","HOUSE_NO":"５４號之９","E_COORD97":165073.82000000001,"N_COORD97":2556732.1200000001,"ADDRESS":"竹港５４號之９","OBJECTID":69680},"geometry":{"x":165073.82000000123,"y":2556732.1200000029}},{"attributes":{"ID":69681,"DIS_CODE":0,"TOWNNAME":"北門區","LI":"中樞里","LIN":"6鄰","STREET":" ","SECT":" ","MAREA":"溪底寮","LANE":" ","ALLEY":" ","HOUSE_NO":"４２之６號","E_COORD97":160947.37,"N_COORD97":2571117.9100000001,"ADDRESS":"溪底寮４２之６號","OBJECTID":69681},"geometry":{"x":160947.37000000104,"y":2571117.910000002}},{"attributes":{"ID":69682,"DIS_CODE":0,"TOWNNAME":"北門區","LI":"中樞里","LIN":"6鄰","STREET":" ","SECT":" ","MAREA":"溪底寮","LANE":" ","ALLEY":" ","HOUSE_NO":"４２號之６","E_COORD97":160947.37,"N_COORD97":2571117.9100000001,"ADDRESS":"溪底寮４２號之６","OBJECTID":69682},"geometry":{"x":160947.37000000104,"y":2571117.910000002}},{"attributes":{"ID":69683,"DIS_CODE":0,"TOWNNAME":"北門區","LI":"中樞里","LIN":"6鄰","STREET":" ","SECT":" ","MAREA":"溪底寮","LANE":" ","ALLEY":" ","HOUSE_NO":"４２之７號","E_COORD97":160789.82999999999,"N_COORD97":2571142.75,"ADDRESS":"溪底寮４２之７號","OBJECTID":69683},"geometry":{"x":160789.83000000101,"y":2571142.7500000019}},{"attributes":{"ID":69684,"DIS_CODE":0,"TOWNNAME":"北門區","LI":"中樞里","LIN":"6鄰","STREET":" ","SECT":" ","MAREA":"溪底寮","LANE":" ","ALLEY":" ","HOUSE_NO":"４２號","E_COORD97":160913.87,"N_COORD97":2571222.6299999999,"ADDRESS":"溪底寮４２號","OBJECTID":69684},"geometry":{"x":160913.87000000104,"y":2571222.629999999}},{"attributes":{"ID":69685,"DIS_CODE":0,"TOWNNAME":"北門區","LI":"中樞里","LIN":"6鄰","STREET":" ","SECT":" ","MAREA":"溪底寮","LANE":" ","ALLEY":" ","HOUSE_NO":"４３號","E_COORD97":160776.41,"N_COORD97":2571153.77,"ADDRESS":"溪底寮４３號","OBJECTID":69685},"geometry":{"x":160776.41000000108,"y":2571153.7699999996}},{"attributes":{"ID":69686,"DIS_CODE":0,"TOWNNAME":"北門區","LI":"中樞里","LIN":"6鄰","STREET":" ","SECT":" ","MAREA":"溪底寮","LANE":" ","ALLEY":" ","HOUSE_NO":"４４號之１","E_COORD97":160746.75,"N_COORD97":2571152.21,"ADDRESS":"溪底寮４４號之１","OBJECTID":69686},"geometry":{"x":160746.75000000093,"y":2571152.2100000009}},{"attributes":{"ID":69687,"DIS_CODE":0,"TOWNNAME":"北門區","LI":"中樞里","LIN":"6鄰","STREET":" ","SECT":" ","MAREA":"溪底寮","LANE":" ","ALLEY":" ","HOUSE_NO":"４４號之３","E_COORD97":160714.13,"N_COORD97":2571140.6099999999,"ADDRESS":"溪底寮４４號之３","OBJECTID":69687},"geometry":{"x":160714.12999999989,"y":2571140.6100000013}},{"attributes":{"ID":69688,"DIS_CODE":0,"TOWNNAME":"北門區","LI":"中樞里","LIN":"6鄰","STREET":" ","SECT":" ","MAREA":"溪底寮","LANE":" ","ALLEY":" ","HOUSE_NO":"４４號之６","E_COORD97":160614.57000000001,"N_COORD97":2571149.5499999998,"ADDRESS":"溪底寮４４號之６","OBJECTID":69688},"geometry":{"x":160614.5700000003,"y":2571149.5500000007}},{"attributes":{"ID":69689,"DIS_CODE":0,"TOWNNAME":"北門區","LI":"中樞里","LIN":"6鄰","STREET":" ","SECT":" ","MAREA":"溪底寮","LANE":" ","ALLEY":" ","HOUSE_NO":"４４之８號","E_COORD97":160542.81,"N_COORD97":2571145.0600000001,"ADDRESS":"溪底寮４４之８號","OBJECTID":69689},"geometry":{"x":160542.80999999959,"y":2571145.0600000024}},{"attributes":{"ID":69690,"DIS_CODE":0,"TOWNNAME":"北門區","LI":"中樞里","LIN":"6鄰","STREET":" ","SECT":" ","MAREA":"溪底寮","LANE":" ","ALLEY":" ","HOUSE_NO":"４４號","E_COORD97":160735.31,"N_COORD97":2571136,"ADDRESS":"溪底寮４４號","OBJECTID":69690},"geometry":{"x":160735.31000000052,"y":2571136}},{"attributes":{"ID":69691,"DIS_CODE":0,"TOWNNAME":"北門區","LI":"中樞里","LIN":"6鄰","STREET":" ","SECT":" ","MAREA":"溪底寮","LANE":" ","ALLEY":" ","HOUSE_NO":"４５之１號","E_COORD97":160748.17999999999,"N_COORD97":2571175.8599999999,"ADDRESS":"溪底寮４５之１號","OBJECTID":69691},"geometry":{"x":160748.18000000063,"y":2571175.8600000013}},{"attributes":{"ID":69692,"DIS_CODE":0,"TOWNNAME":"北門區","LI":"中樞里","LIN":"6鄰","STREET":" ","SECT":" ","MAREA":"溪底寮","LANE":" ","ALLEY":" ","HOUSE_NO":"４５號之１","E_COORD97":160748.17999999999,"N_COORD97":2571175.8599999999,"ADDRESS":"溪底寮４５號之１","OBJECTID":69692},"geometry":{"x":160748.18000000063,"y":2571175.8600000013}},{"attributes":{"ID":69693,"DIS_CODE":0,"TOWNNAME":"北門區","LI":"中樞里","LIN":"6鄰","STREET":" ","SECT":" ","MAREA":"溪底寮","LANE":" ","ALLEY":" ","HOUSE_NO":"４５號","E_COORD97":160755.69,"N_COORD97":2571189.5699999998,"ADDRESS":"溪底寮４５號","OBJECTID":69693},"geometry":{"x":160755.69000000134,"y":2571189.5700000003}},{"attributes":{"ID":69694,"DIS_CODE":0,"TOWNNAME":"北門區","LI":"中樞里","LIN":"6鄰","STREET":" ","SECT":" ","MAREA":"溪底寮","LANE":" ","ALLEY":" ","HOUSE_NO":"４６號","E_COORD97":160806.67000000001,"N_COORD97":2571199.8399999999,"ADDRESS":"溪底寮４６號","OBJECTID":69694},"geometry":{"x":160806.66999999993,"y":2571199.8400000017}},{"attributes":{"ID":69695,"DIS_CODE":0,"TOWNNAME":"北門區","LI":"中樞里","LIN":"6鄰","STREET":" ","SECT":" ","MAREA":"溪底寮","LANE":" ","ALLEY":" ","HOUSE_NO":"４７號","E_COORD97":160812.76999999999,"N_COORD97":2571225.9300000002,"ADDRESS":"溪底寮４７號","OBJECTID":69695},"geometry":{"x":160812.76999999955,"y":2571225.9300000016}},{"attributes":{"ID":69696,"DIS_CODE":0,"TOWNNAME":"南區","LI":"興農里","LIN":"6鄰","STREET":"灣裡路","SECT":" ","MAREA":" ","LANE":"２６３巷","ALLEY":"６７弄","HOUSE_NO":"５９之６號","E_COORD97":166281.35000000001,"N_COORD97":2536453.79,"ADDRESS":"灣裡路２６３巷６７弄５９之６號","OBJECTID":69696},"geometry":{"x":166281.35000000149,"y":2536453.7899999972}},{"attributes":{"ID":69697,"DIS_CODE":0,"TOWNNAME":"北門區","LI":"中樞里","LIN":"6鄰","STREET":" ","SECT":" ","MAREA":"溪底寮","LANE":" ","ALLEY":" ","HOUSE_NO":"４８號","E_COORD97":160772.85999999999,"N_COORD97":2571212.5800000001,"ADDRESS":"溪底寮４８號","OBJECTID":69697},"geometry":{"x":160772.8600000022,"y":2571212.5800000019}},{"attributes":{"ID":69698,"DIS_CODE":0,"TOWNNAME":"永康區","LI":"西橋里","LIN":"6鄰","STREET":"中華西街","SECT":" ","MAREA":" ","LANE":"６３巷","ALLEY":"６４弄","HOUSE_NO":"９號","E_COORD97":170642.92999999999,"N_COORD97":2545942.2400000002,"ADDRESS":"中華西街６３巷６４弄９號","OBJECTID":69698},"geometry":{"x":170642.93000000063,"y":2545942.2400000021}},{"attributes":{"ID":69699,"DIS_CODE":0,"TOWNNAME":"南區","LI":"興農里","LIN":"6鄰","STREET":"灣裡路","SECT":" ","MAREA":" ","LANE":"２６３巷","ALLEY":"６７弄","HOUSE_NO":"２７號","E_COORD97":166375.5,"N_COORD97":2536481.6000000001,"ADDRESS":"灣裡路２６３巷６７弄２７號","OBJECTID":69699},"geometry":{"x":166375.5,"y":2536481.5999999996}},{"attributes":{"ID":69700,"DIS_CODE":0,"TOWNNAME":"北門區","LI":"中樞里","LIN":"6鄰","STREET":" ","SECT":" ","MAREA":"溪底寮","LANE":" ","ALLEY":" ","HOUSE_NO":"４９號之１","E_COORD97":160670.72,"N_COORD97":2571204.46,"ADDRESS":"溪底寮４９號之１","OBJECTID":69700},"geometry":{"x":160670.71999999974,"y":2571204.4600000009}},{"attributes":{"ID":69701,"DIS_CODE":0,"TOWNNAME":"北門區","LI":"中樞里","LIN":"6鄰","STREET":" ","SECT":" ","MAREA":"溪底寮","LANE":" ","ALLEY":" ","HOUSE_NO":"４９之２號","E_COORD97":160705.23999999999,"N_COORD97":2571212.23,"ADDRESS":"溪底寮４９之２號","OBJECTID":69701},"geometry":{"x":160705.24000000022,"y":2571212.2300000023}},{"attributes":{"ID":69702,"DIS_CODE":0,"TOWNNAME":"南區","LI":"興農里","LIN":"6鄰","STREET":"灣裡路","SECT":" ","MAREA":" ","LANE":"２６３巷","ALLEY":"６７弄","HOUSE_NO":"２８號","E_COORD97":166411.73999999999,"N_COORD97":2536476.9199999999,"ADDRESS":"灣裡路２６３巷６７弄２８號","OBJECTID":69702},"geometry":{"x":166411.74000000209,"y":2536476.9199999999}},{"attributes":{"ID":69703,"DIS_CODE":0,"TOWNNAME":"北門區","LI":"中樞里","LIN":"6鄰","STREET":" ","SECT":" ","MAREA":"溪底寮","LANE":" ","ALLEY":" ","HOUSE_NO":"４９之３號","E_COORD97":160699.54999999999,"N_COORD97":2571211.6099999999,"ADDRESS":"溪底寮４９之３號","OBJECTID":69703},"geometry":{"x":160699.54999999981,"y":2571211.6100000013}},{"attributes":{"ID":69704,"DIS_CODE":0,"TOWNNAME":"北門區","LI":"中樞里","LIN":"6鄰","STREET":" ","SECT":" ","MAREA":"溪底寮","LANE":" ","ALLEY":" ","HOUSE_NO":"４９號之３","E_COORD97":160699.54999999999,"N_COORD97":2571211.6099999999,"ADDRESS":"溪底寮４９號之３","OBJECTID":69704},"geometry":{"x":160699.54999999981,"y":2571211.6100000013}},{"attributes":{"ID":69705,"DIS_CODE":0,"TOWNNAME":"北門區","LI":"中樞里","LIN":"6鄰","STREET":" ","SECT":" ","MAREA":"溪底寮","LANE":" ","ALLEY":" ","HOUSE_NO":"４９號之４","E_COORD97":160694.39000000001,"N_COORD97":2571210.8599999999,"ADDRESS":"溪底寮４９號之４","OBJECTID":69705},"geometry":{"x":160694.3900000006,"y":2571210.8599999994}},{"attributes":{"ID":69706,"DIS_CODE":0,"TOWNNAME":"南區","LI":"興農里","LIN":"6鄰","STREET":"灣裡路","SECT":" ","MAREA":" ","LANE":"２６３巷","ALLEY":"６７弄","HOUSE_NO":"２９號","E_COORD97":166384.84,"N_COORD97":2536488.3300000001,"ADDRESS":"灣裡路２６３巷６７弄２９號","OBJECTID":69706},"geometry":{"x":166384.83999999985,"y":2536488.3300000001}},{"attributes":{"ID":69707,"DIS_CODE":0,"TOWNNAME":"官田區","LI":"二鎮里","LIN":"6鄰","STREET":" ","SECT":" ","MAREA":"二鎮","LANE":" ","ALLEY":" ","HOUSE_NO":"５１號之２","E_COORD97":181373.87,"N_COORD97":2568320.8599999999,"ADDRESS":"二鎮５１號之２","OBJECTID":69707},"geometry":{"x":181373.87000000011,"y":2568320.8600000013}},{"attributes":{"ID":69708,"DIS_CODE":0,"TOWNNAME":"南區","LI":"興農里","LIN":"6鄰","STREET":"灣裡路","SECT":" ","MAREA":" ","LANE":"２６３巷","ALLEY":"６７弄","HOUSE_NO":"３０號","E_COORD97":166412.10999999999,"N_COORD97":2536473.0699999998,"ADDRESS":"灣裡路２６３巷６７弄３０號","OBJECTID":69708},"geometry":{"x":166412.11000000034,"y":2536473.0700000003}},{"attributes":{"ID":69709,"DIS_CODE":0,"TOWNNAME":"南區","LI":"興農里","LIN":"6鄰","STREET":"灣裡路","SECT":" ","MAREA":" ","LANE":"２６３巷","ALLEY":"６７弄","HOUSE_NO":"３２號","E_COORD97":166412.34,"N_COORD97":2536469.2000000002,"ADDRESS":"灣裡路２６３巷６７弄３２號","OBJECTID":69709},"geometry":{"x":166412.34000000171,"y":2536469.2000000011}},{"attributes":{"ID":69710,"DIS_CODE":0,"TOWNNAME":"六甲區","LI":"甲東里","LIN":"8鄰","STREET":"曾文街","SECT":" ","MAREA":" ","LANE":" ","ALLEY":" ","HOUSE_NO":"２０號","E_COORD97":183931.81,"N_COORD97":2570228.2200000002,"ADDRESS":"曾文街２０號","OBJECTID":69710},"geometry":{"x":183931.80999999959,"y":2570228.2200000025}},{"attributes":{"ID":69711,"DIS_CODE":0,"TOWNNAME":"北門區","LI":"中樞里","LIN":"6鄰","STREET":" ","SECT":" ","MAREA":"溪底寮","LANE":" ","ALLEY":" ","HOUSE_NO":"４９之５號","E_COORD97":160709.54000000001,"N_COORD97":2571213.0299999998,"ADDRESS":"溪底寮４９之５號","OBJECTID":69711},"geometry":{"x":160709.54000000004,"y":2571213.0299999993}},{"attributes":{"ID":69712,"DIS_CODE":0,"TOWNNAME":"北門區","LI":"中樞里","LIN":"6鄰","STREET":" ","SECT":" ","MAREA":"溪底寮","LANE":" ","ALLEY":" ","HOUSE_NO":"４９號之６","E_COORD97":160508.10000000001,"N_COORD97":2571150.3100000001,"ADDRESS":"溪底寮４９號之６","OBJECTID":69712},"geometry":{"x":160508.10000000056,"y":2571150.3100000024}},{"attributes":{"ID":69713,"DIS_CODE":0,"TOWNNAME":"北門區","LI":"中樞里","LIN":"6鄰","STREET":" ","SECT":" ","MAREA":"溪底寮","LANE":" ","ALLEY":" ","HOUSE_NO":"４９號","E_COORD97":160739.34,"N_COORD97":2571216.6899999999,"ADDRESS":"溪底寮４９號","OBJECTID":69713},"geometry":{"x":160739.33999999985,"y":2571216.6900000032}},{"attributes":{"ID":69714,"DIS_CODE":0,"TOWNNAME":"官田區","LI":"二鎮里","LIN":"6鄰","STREET":" ","SECT":" ","MAREA":"二鎮","LANE":" ","ALLEY":" ","HOUSE_NO":"４３號之１","E_COORD97":181313.45000000001,"N_COORD97":2568316.4500000002,"ADDRESS":"二鎮４３號之１","OBJECTID":69714},"geometry":{"x":181313.45000000019,"y":2568316.4500000011}},{"attributes":{"ID":69715,"DIS_CODE":0,"TOWNNAME":"官田區","LI":"二鎮里","LIN":"6鄰","STREET":" ","SECT":" ","MAREA":"二鎮","LANE":" ","ALLEY":" ","HOUSE_NO":"４３號之２","E_COORD97":181310.5,"N_COORD97":2568312.6899999999,"ADDRESS":"二鎮４３號之２","OBJECTID":69715},"geometry":{"x":181310.50000000093,"y":2568312.6900000013}},{"attributes":{"ID":69716,"DIS_CODE":0,"TOWNNAME":"官田區","LI":"二鎮里","LIN":"6鄰","STREET":" ","SECT":" ","MAREA":"二鎮","LANE":" ","ALLEY":" ","HOUSE_NO":"４４號之１","E_COORD97":181301.51000000001,"N_COORD97":2568338.1600000001,"ADDRESS":"二鎮４４號之１","OBJECTID":69716},"geometry":{"x":181301.51000000164,"y":2568338.1600000001}},{"attributes":{"ID":69717,"DIS_CODE":0,"TOWNNAME":"官田區","LI":"二鎮里","LIN":"6鄰","STREET":" ","SECT":" ","MAREA":"二鎮","LANE":" ","ALLEY":" ","HOUSE_NO":"４４號之２","E_COORD97":181304.09,"N_COORD97":2568327.6299999999,"ADDRESS":"二鎮４４號之２","OBJECTID":69717},"geometry":{"x":181304.08999999985,"y":2568327.6299999971}},{"attributes":{"ID":69718,"DIS_CODE":0,"TOWNNAME":"官田區","LI":"二鎮里","LIN":"6鄰","STREET":" ","SECT":" ","MAREA":"二鎮","LANE":" ","ALLEY":" ","HOUSE_NO":"４４號","E_COORD97":181299.70999999999,"N_COORD97":2568347.9100000001,"ADDRESS":"二鎮４４號","OBJECTID":69718},"geometry":{"x":181299.70999999996,"y":2568347.910000002}},{"attributes":{"ID":69719,"DIS_CODE":0,"TOWNNAME":"官田區","LI":"二鎮里","LIN":"6鄰","STREET":" ","SECT":" ","MAREA":"二鎮","LANE":" ","ALLEY":" ","HOUSE_NO":"４５號之１","E_COORD97":181274.89000000001,"N_COORD97":2568347.3799999999,"ADDRESS":"二鎮４５號之１","OBJECTID":69719},"geometry":{"x":181274.88999999966,"y":2568347.3800000008}},{"attributes":{"ID":69720,"DIS_CODE":0,"TOWNNAME":"官田區","LI":"二鎮里","LIN":"6鄰","STREET":" ","SECT":" ","MAREA":"二鎮","LANE":" ","ALLEY":" ","HOUSE_NO":"４５號","E_COORD97":181272.82000000001,"N_COORD97":2568354.4700000002,"ADDRESS":"二鎮４５號","OBJECTID":69720},"geometry":{"x":181272.82000000216,"y":2568354.4700000044}},{"attributes":{"ID":69721,"DIS_CODE":0,"TOWNNAME":"官田區","LI":"二鎮里","LIN":"6鄰","STREET":" ","SECT":" ","MAREA":"二鎮","LANE":" ","ALLEY":" ","HOUSE_NO":"４６號之１","E_COORD97":181311.87,"N_COORD97":2568396.7599999998,"ADDRESS":"二鎮４６號之１","OBJECTID":69721},"geometry":{"x":181311.87000000104,"y":2568396.7600000016}},{"attributes":{"ID":69722,"DIS_CODE":0,"TOWNNAME":"官田區","LI":"二鎮里","LIN":"6鄰","STREET":" ","SECT":" ","MAREA":"二鎮","LANE":" ","ALLEY":" ","HOUSE_NO":"４６號之２","E_COORD97":181305.32000000001,"N_COORD97":2568390.1699999999,"ADDRESS":"二鎮４６號之２","OBJECTID":69722},"geometry":{"x":181305.32000000123,"y":2568390.1700000018}},{"attributes":{"ID":69723,"DIS_CODE":0,"TOWNNAME":"官田區","LI":"二鎮里","LIN":"6鄰","STREET":" ","SECT":" ","MAREA":"二鎮","LANE":" ","ALLEY":" ","HOUSE_NO":"４６號之３","E_COORD97":181310.32000000001,"N_COORD97":2568374.3300000001,"ADDRESS":"二鎮４６號之３","OBJECTID":69723},"geometry":{"x":181310.32000000123,"y":2568374.3300000001}},{"attributes":{"ID":69724,"DIS_CODE":0,"TOWNNAME":"官田區","LI":"二鎮里","LIN":"6鄰","STREET":" ","SECT":" ","MAREA":"二鎮","LANE":" ","ALLEY":" ","HOUSE_NO":"４６號","E_COORD97":181322.78,"N_COORD97":2568364.6899999999,"ADDRESS":"二鎮４６號","OBJECTID":69724},"geometry":{"x":181322.78000000119,"y":2568364.6899999995}},{"attributes":{"ID":69725,"DIS_CODE":0,"TOWNNAME":"官田區","LI":"二鎮里","LIN":"6鄰","STREET":" ","SECT":" ","MAREA":"二鎮","LANE":" ","ALLEY":" ","HOUSE_NO":"４７號","E_COORD97":181326.23999999999,"N_COORD97":2568349.5800000001,"ADDRESS":"二鎮４７號","OBJECTID":69725},"geometry":{"x":181326.24000000115,"y":2568349.5799999982}},{"attributes":{"ID":69726,"DIS_CODE":0,"TOWNNAME":"官田區","LI":"二鎮里","LIN":"6鄰","STREET":" ","SECT":" ","MAREA":"二鎮","LANE":" ","ALLEY":" ","HOUSE_NO":"４８號","E_COORD97":181334.48999999999,"N_COORD97":2568335.8500000001,"ADDRESS":"二鎮４８號","OBJECTID":69726},"geometry":{"x":181334.49000000209,"y":2568335.8499999996}},{"attributes":{"ID":69727,"DIS_CODE":0,"TOWNNAME":"官田區","LI":"二鎮里","LIN":"6鄰","STREET":" ","SECT":" ","MAREA":"二鎮","LANE":" ","ALLEY":" ","HOUSE_NO":"４９號之１","E_COORD97":181335.37,"N_COORD97":2568312.6099999999,"ADDRESS":"二鎮４９號之１","OBJECTID":69727},"geometry":{"x":181335.37000000104,"y":2568312.6100000013}},{"attributes":{"ID":69728,"DIS_CODE":0,"TOWNNAME":"官田區","LI":"二鎮里","LIN":"6鄰","STREET":" ","SECT":" ","MAREA":"二鎮","LANE":" ","ALLEY":" ","HOUSE_NO":"４９號","E_COORD97":181339.84,"N_COORD97":2568314.1099999999,"ADDRESS":"二鎮４９號","OBJECTID":69728},"geometry":{"x":181339.83999999985,"y":2568314.1099999994}},{"attributes":{"ID":69729,"DIS_CODE":0,"TOWNNAME":"北門區","LI":"雙春里","LIN":"6鄰","STREET":" ","SECT":" ","MAREA":"雙春","LANE":" ","ALLEY":" ","HOUSE_NO":"３８號之１","E_COORD97":160894.87,"N_COORD97":2577781.3199999998,"ADDRESS":"雙春３８號之１","OBJECTID":69729},"geometry":{"x":160894.87000000104,"y":2577781.3200000022}},{"attributes":{"ID":69730,"DIS_CODE":0,"TOWNNAME":"北門區","LI":"雙春里","LIN":"6鄰","STREET":" ","SECT":" ","MAREA":"雙春","LANE":" ","ALLEY":" ","HOUSE_NO":"３８號","E_COORD97":160890.07000000001,"N_COORD97":2577767.0499999998,"ADDRESS":"雙春３８號","OBJECTID":69730},"geometry":{"x":160890.07000000123,"y":2577767.0500000026}},{"attributes":{"ID":69731,"DIS_CODE":0,"TOWNNAME":"北門區","LI":"雙春里","LIN":"6鄰","STREET":" ","SECT":" ","MAREA":"雙春","LANE":" ","ALLEY":" ","HOUSE_NO":"３９號","E_COORD97":160896,"N_COORD97":2577795.1099999999,"ADDRESS":"雙春３９號","OBJECTID":69731},"geometry":{"x":160896.00000000093,"y":2577795.1100000013}},{"attributes":{"ID":69732,"DIS_CODE":0,"TOWNNAME":"北門區","LI":"雙春里","LIN":"6鄰","STREET":" ","SECT":" ","MAREA":"雙春","LANE":" ","ALLEY":" ","HOUSE_NO":"４０號","E_COORD97":160906.14000000001,"N_COORD97":2577804.4399999999,"ADDRESS":"雙春４０號","OBJECTID":69732},"geometry":{"x":160906.1400000006,"y":2577804.4399999995}},{"attributes":{"ID":69733,"DIS_CODE":0,"TOWNNAME":"北門區","LI":"雙春里","LIN":"6鄰","STREET":" ","SECT":" ","MAREA":"雙春","LANE":" ","ALLEY":" ","HOUSE_NO":"４１號","E_COORD97":160909.91,"N_COORD97":2577810.2999999998,"ADDRESS":"雙春４１號","OBJECTID":69733},"geometry":{"x":160909.91000000108,"y":2577810.3000000007}},{"attributes":{"ID":69734,"DIS_CODE":0,"TOWNNAME":"北門區","LI":"雙春里","LIN":"6鄰","STREET":" ","SECT":" ","MAREA":"雙春","LANE":" ","ALLEY":" ","HOUSE_NO":"４３號","E_COORD97":160919.19,"N_COORD97":2577802.6200000001,"ADDRESS":"雙春４３號","OBJECTID":69734},"geometry":{"x":160919.19000000041,"y":2577802.6199999992}},{"attributes":{"ID":69735,"DIS_CODE":0,"TOWNNAME":"官田區","LI":"二鎮里","LIN":"6鄰","STREET":" ","SECT":" ","MAREA":"二鎮","LANE":" ","ALLEY":" ","HOUSE_NO":"５０號之１","E_COORD97":181354.70000000001,"N_COORD97":2568319.5099999998,"ADDRESS":"二鎮５０號之１","OBJECTID":69735},"geometry":{"x":181354.70000000019,"y":2568319.5100000035}},{"attributes":{"ID":69736,"DIS_CODE":0,"TOWNNAME":"官田區","LI":"二鎮里","LIN":"6鄰","STREET":" ","SECT":" ","MAREA":"二鎮","LANE":" ","ALLEY":" ","HOUSE_NO":"５０號之２","E_COORD97":181351.01000000001,"N_COORD97":2568318.25,"ADDRESS":"二鎮５０號之２","OBJECTID":69736},"geometry":{"x":181351.01000000071,"y":2568318.2500000037}},{"attributes":{"ID":69737,"DIS_CODE":0,"TOWNNAME":"官田區","LI":"二鎮里","LIN":"6鄰","STREET":" ","SECT":" ","MAREA":"二鎮","LANE":" ","ALLEY":" ","HOUSE_NO":"５０號之３","E_COORD97":181347.42999999999,"N_COORD97":2568316.8199999998,"ADDRESS":"二鎮５０號之３","OBJECTID":69737},"geometry":{"x":181347.4299999997,"y":2568316.8200000003}},{"attributes":{"ID":69738,"DIS_CODE":0,"TOWNNAME":"官田區","LI":"二鎮里","LIN":"6鄰","STREET":" ","SECT":" ","MAREA":"二鎮","LANE":" ","ALLEY":" ","HOUSE_NO":"５０號之４","E_COORD97":181343.79999999999,"N_COORD97":2568315.3399999999,"ADDRESS":"二鎮５０號之４","OBJECTID":69738},"geometry":{"x":181343.80000000168,"y":2568315.3400000017}},{"attributes":{"ID":69739,"DIS_CODE":0,"TOWNNAME":"北門區","LI":"北門里","LIN":"7鄰","STREET":" ","SECT":" ","MAREA":"北門","LANE":" ","ALLEY":" ","HOUSE_NO":"２１１號","E_COORD97":160077.03,"N_COORD97":2574355.6899999999,"ADDRESS":"北門２１１號","OBJECTID":69739},"geometry":{"x":160077.03000000119,"y":2574355.6899999995}},{"attributes":{"ID":69740,"DIS_CODE":0,"TOWNNAME":"官田區","LI":"二鎮里","LIN":"6鄰","STREET":" ","SECT":" ","MAREA":"二鎮","LANE":" ","ALLEY":" ","HOUSE_NO":"５０號","E_COORD97":181357.48999999999,"N_COORD97":2568320.7400000002,"ADDRESS":"二鎮５０號","OBJECTID":69740},"geometry":{"x":181357.49000000022,"y":2568320.7400000002}},{"attributes":{"ID":69741,"DIS_CODE":0,"TOWNNAME":"南區","LI":"興農里","LIN":"6鄰","STREET":"灣裡路","SECT":" ","MAREA":" ","LANE":"２６３巷","ALLEY":"６７弄","HOUSE_NO":"３２號之１","E_COORD97":166412.10999999999,"N_COORD97":2536464.1899999999,"ADDRESS":"灣裡路２６３巷６７弄３２號之１","OBJECTID":69741},"geometry":{"x":166412.11000000034,"y":2536464.1899999995}},{"attributes":{"ID":69742,"DIS_CODE":0,"TOWNNAME":"南區","LI":"興農里","LIN":"6鄰","STREET":"灣裡路","SECT":" ","MAREA":" ","LANE":"２６３巷","ALLEY":"６７弄","HOUSE_NO":"３７號","E_COORD97":166397.79000000001,"N_COORD97":2536511.79,"ADDRESS":"灣裡路２６３巷６７弄３７號","OBJECTID":69742},"geometry":{"x":166397.79000000097,"y":2536511.7900000028}},{"attributes":{"ID":69743,"DIS_CODE":0,"TOWNNAME":"南區","LI":"興農里","LIN":"6鄰","STREET":"灣裡路","SECT":" ","MAREA":" ","LANE":"２６３巷","ALLEY":"６７弄","HOUSE_NO":"３９號","E_COORD97":166404.73000000001,"N_COORD97":2536518.73,"ADDRESS":"灣裡路２６３巷６７弄３９號","OBJECTID":69743},"geometry":{"x":166404.73000000045,"y":2536518.7300000004}},{"attributes":{"ID":69744,"DIS_CODE":0,"TOWNNAME":"官田區","LI":"二鎮里","LIN":"6鄰","STREET":" ","SECT":" ","MAREA":"二鎮","LANE":" ","ALLEY":" ","HOUSE_NO":"５１號之１","E_COORD97":181366.26999999999,"N_COORD97":2568317.8300000001,"ADDRESS":"二鎮５１號之１","OBJECTID":69744},"geometry":{"x":181366.27000000048,"y":2568317.8300000019}},{"attributes":{"ID":69745,"DIS_CODE":0,"TOWNNAME":"官田區","LI":"二鎮里","LIN":"6鄰","STREET":" ","SECT":" ","MAREA":"二鎮","LANE":" ","ALLEY":" ","HOUSE_NO":"５１號","E_COORD97":181370.09,"N_COORD97":2568319.04,"ADDRESS":"二鎮５１號","OBJECTID":69745},"geometry":{"x":181370.08999999985,"y":2568319.040000001}},{"attributes":{"ID":69746,"DIS_CODE":0,"TOWNNAME":"南區","LI":"興農里","LIN":"6鄰","STREET":"灣裡路","SECT":" ","MAREA":" ","LANE":"２６３巷","ALLEY":"６７弄","HOUSE_NO":"４１號","E_COORD97":166410.95000000001,"N_COORD97":2536520.3700000001,"ADDRESS":"灣裡路２６３巷６７弄４１號","OBJECTID":69746},"geometry":{"x":166410.95000000112,"y":2536520.3700000029}},{"attributes":{"ID":69747,"DIS_CODE":0,"TOWNNAME":"南區","LI":"興農里","LIN":"6鄰","STREET":"灣裡路","SECT":" ","MAREA":" ","LANE":"２６３巷","ALLEY":"６７弄","HOUSE_NO":"４３號","E_COORD97":166415.06,"N_COORD97":2536497.4100000001,"ADDRESS":"灣裡路２６３巷６７弄４３號","OBJECTID":69747},"geometry":{"x":166415.05999999959,"y":2536497.4100000001}},{"attributes":{"ID":69748,"DIS_CODE":0,"TOWNNAME":"南區","LI":"興農里","LIN":"6鄰","STREET":"灣裡路","SECT":" ","MAREA":" ","LANE":"２６３巷","ALLEY":"６７弄","HOUSE_NO":"４５號","E_COORD97":166424.59,"N_COORD97":2536498.4500000002,"ADDRESS":"灣裡路２６３巷６７弄４５號","OBJECTID":69748},"geometry":{"x":166424.59000000078,"y":2536498.4500000011}},{"attributes":{"ID":69749,"DIS_CODE":0,"TOWNNAME":"南區","LI":"興農里","LIN":"6鄰","STREET":"灣裡路","SECT":" ","MAREA":" ","LANE":"２６３巷","ALLEY":"６７弄","HOUSE_NO":"４７號","E_COORD97":166430.22,"N_COORD97":2536499.3799999999,"ADDRESS":"灣裡路２６３巷６７弄４７號","OBJECTID":69749},"geometry":{"x":166430.22000000067,"y":2536499.379999999}},{"attributes":{"ID":69750,"DIS_CODE":0,"TOWNNAME":"南區","LI":"興農里","LIN":"6鄰","STREET":"灣裡路","SECT":" ","MAREA":" ","LANE":"２６３巷","ALLEY":"６７弄","HOUSE_NO":"４９號","E_COORD97":166436.12,"N_COORD97":2536501.2599999998,"ADDRESS":"灣裡路２６３巷６７弄４９號","OBJECTID":69750},"geometry":{"x":166436.12000000197,"y":2536501.2599999998}},{"attributes":{"ID":69751,"DIS_CODE":0,"TOWNNAME":"安南區","LI":"\u25A0南里","LIN":"6鄰","STREET":"安昌街","SECT":" ","MAREA":" ","LANE":"２１９巷","ALLEY":"２６弄","HOUSE_NO":"５號","E_COORD97":169978.92999999999,"N_COORD97":2552526.2000000002,"ADDRESS":"安昌街２１９巷２６弄５號","OBJECTID":69751},"geometry":{"x":169978.93000000063,"y":2552526.2000000011}},{"attributes":{"ID":69752,"DIS_CODE":0,"TOWNNAME":"南區","LI":"興農里","LIN":"6鄰","STREET":"灣裡路","SECT":" ","MAREA":" ","LANE":"２６３巷","ALLEY":"６７弄","HOUSE_NO":"５１號","E_COORD97":166444.17000000001,"N_COORD97":2536501.79,"ADDRESS":"灣裡路２６３巷６７弄５１號","OBJECTID":69752},"geometry":{"x":166444.17000000086,"y":2536501.790000001}},{"attributes":{"ID":69753,"DIS_CODE":0,"TOWNNAME":"南區","LI":"興農里","LIN":"6鄰","STREET":"灣裡路","SECT":" ","MAREA":" ","LANE":"２６３巷","ALLEY":"６７弄","HOUSE_NO":"５３號","E_COORD97":166452.48999999999,"N_COORD97":2536503.6699999999,"ADDRESS":"灣裡路２６３巷６７弄５３號","OBJECTID":69753},"geometry":{"x":166452.49000000115,"y":2536503.6700000018}},{"attributes":{"ID":69754,"DIS_CODE":0,"TOWNNAME":"南區","LI":"興農里","LIN":"6鄰","STREET":"灣裡路","SECT":" ","MAREA":" ","LANE":"２６３巷","ALLEY":"６７弄","HOUSE_NO":"５５號","E_COORD97":166447.12,"N_COORD97":2536519.21,"ADDRESS":"灣裡路２６３巷６７弄５５號","OBJECTID":69754},"geometry":{"x":166447.12000000011,"y":2536519.2100000009}},{"attributes":{"ID":69755,"DIS_CODE":0,"TOWNNAME":"南區","LI":"興農里","LIN":"6鄰","STREET":"灣裡路","SECT":" ","MAREA":" ","LANE":"２６３巷","ALLEY":"６７弄","HOUSE_NO":"５７號","E_COORD97":166419.48000000001,"N_COORD97":2536526.4399999999,"ADDRESS":"灣裡路２６３巷６７弄５７號","OBJECTID":69755},"geometry":{"x":166419.48000000138,"y":2536526.4399999995}},{"attributes":{"ID":69756,"DIS_CODE":0,"TOWNNAME":"南區","LI":"興農里","LIN":"6鄰","STREET":"灣裡路","SECT":" ","MAREA":" ","LANE":"２６３巷","ALLEY":"６７弄","HOUSE_NO":"５９號","E_COORD97":166429.67999999999,"N_COORD97":2536529.1200000001,"ADDRESS":"灣裡路２６３巷６７弄５９號","OBJECTID":69756},"geometry":{"x":166429.6799999997,"y":2536529.1200000029}},{"attributes":{"ID":69757,"DIS_CODE":0,"TOWNNAME":"南區","LI":"興農里","LIN":"6鄰","STREET":"灣裡路","SECT":" ","MAREA":" ","LANE":"２６３巷","ALLEY":"６７弄","HOUSE_NO":"７１號","E_COORD97":166478.64000000001,"N_COORD97":2536507.7000000002,"ADDRESS":"灣裡路２６３巷６７弄７１號","OBJECTID":69757},"geometry":{"x":166478.6400000006,"y":2536507.6999999993}},{"attributes":{"ID":69758,"DIS_CODE":0,"TOWNNAME":"南區","LI":"竹溪里","LIN":"5鄰","STREET":"體育路","SECT":" ","MAREA":" ","LANE":"４１巷","ALLEY":"９弄","HOUSE_NO":"５號","E_COORD97":168761.98000000001,"N_COORD97":2542282.3700000001,"ADDRESS":"體育路４１巷９弄５號","OBJECTID":69758},"geometry":{"x":168761.98000000138,"y":2542282.370000001}},{"attributes":{"ID":69759,"DIS_CODE":0,"TOWNNAME":"永康區","LI":"南灣里","LIN":"6鄰","STREET":"大灣路","SECT":" ","MAREA":" ","LANE":"５３７巷","ALLEY":"１７弄","HOUSE_NO":"１６號","E_COORD97":174531.34,"N_COORD97":2544448.3500000001,"ADDRESS":"大灣路５３７巷１７弄１６號","OBJECTID":69759},"geometry":{"x":174531.34000000078,"y":2544448.3499999996}},{"attributes":{"ID":69760,"DIS_CODE":0,"TOWNNAME":"永康區","LI":"南灣里","LIN":"6鄰","STREET":"大灣路","SECT":" ","MAREA":" ","LANE":"５３７巷","ALLEY":"１６弄","HOUSE_NO":"１６號","E_COORD97":174453.42000000001,"N_COORD97":2544440.52,"ADDRESS":"大灣路５３７巷１６弄１６號","OBJECTID":69760},"geometry":{"x":174453.41999999993,"y":2544440.5200000033}},{"attributes":{"ID":69761,"DIS_CODE":0,"TOWNNAME":"永康區","LI":"南灣里","LIN":"6鄰","STREET":"大灣路","SECT":" ","MAREA":" ","LANE":"５３７巷","ALLEY":"１７弄","HOUSE_NO":"１３號","E_COORD97":174525.26000000001,"N_COORD97":2544464.8700000001,"ADDRESS":"大灣路５３７巷１７弄１３號","OBJECTID":69761},"geometry":{"x":174525.25999999978,"y":2544464.8700000029}},{"attributes":{"ID":69762,"DIS_CODE":0,"TOWNNAME":"永康區","LI":"南灣里","LIN":"6鄰","STREET":"大灣路","SECT":" ","MAREA":" ","LANE":"５３７巷","ALLEY":"１６弄","HOUSE_NO":"２１號","E_COORD97":174444.32000000001,"N_COORD97":2544417.4100000001,"ADDRESS":"大灣路５３７巷１６弄２１號","OBJECTID":69762},"geometry":{"x":174444.3200000003,"y":2544417.4100000001}},{"attributes":{"ID":69763,"DIS_CODE":0,"TOWNNAME":"永康區","LI":"南灣里","LIN":"6鄰","STREET":"大灣路","SECT":" ","MAREA":" ","LANE":"５３７巷","ALLEY":"１７弄","HOUSE_NO":"５號","E_COORD97":174508.01999999999,"N_COORD97":2544459.8999999999,"ADDRESS":"大灣路５３７巷１７弄５號","OBJECTID":69763},"geometry":{"x":174508.01999999955,"y":2544459.9000000022}},{"attributes":{"ID":69764,"DIS_CODE":0,"TOWNNAME":"永康區","LI":"南灣里","LIN":"6鄰","STREET":"大灣路","SECT":" ","MAREA":" ","LANE":"５３７巷","ALLEY":"１７弄","HOUSE_NO":"２０號","E_COORD97":174539.69,"N_COORD97":2544450.6000000001,"ADDRESS":"大灣路５３７巷１７弄２０號","OBJECTID":69764},"geometry":{"x":174539.69000000134,"y":2544450.6000000034}},{"attributes":{"ID":69765,"DIS_CODE":0,"TOWNNAME":"永康區","LI":"南灣里","LIN":"6鄰","STREET":"大灣路","SECT":" ","MAREA":" ","LANE":"５３７巷","ALLEY":"１６弄","HOUSE_NO":"８號","E_COORD97":174468.07999999999,"N_COORD97":2544446.02,"ADDRESS":"大灣路５３７巷１６弄８號","OBJECTID":69765},"geometry":{"x":174468.08000000194,"y":2544446.0199999996}},{"attributes":{"ID":69766,"DIS_CODE":0,"TOWNNAME":"永康區","LI":"南灣里","LIN":"6鄰","STREET":"大灣路","SECT":" ","MAREA":" ","LANE":"５３７巷","ALLEY":"１６弄","HOUSE_NO":"６號","E_COORD97":174471.57999999999,"N_COORD97":2544447.27,"ADDRESS":"大灣路５３７巷１６弄６號","OBJECTID":69766},"geometry":{"x":174471.58000000194,"y":2544447.2700000014}},{"attributes":{"ID":69767,"DIS_CODE":0,"TOWNNAME":"永康區","LI":"甲頂里","LIN":"6鄰","STREET":"中正南路","SECT":" ","MAREA":" ","LANE":"１６８巷","ALLEY":"３弄","HOUSE_NO":"９號","E_COORD97":169933.88,"N_COORD97":2546950,"ADDRESS":"中正南路１６８巷３弄９號","OBJECTID":69767},"geometry":{"x":169933.87999999989,"y":2546949.9999999981}},{"attributes":{"ID":69768,"DIS_CODE":0,"TOWNNAME":"永康區","LI":"西橋里","LIN":"6鄰","STREET":"中山南路","SECT":" ","MAREA":" ","LANE":"４３巷","ALLEY":"３７弄","HOUSE_NO":"２號之１","E_COORD97":170667.12,"N_COORD97":2545961.29,"ADDRESS":"中山南路４３巷３７弄２號之１","OBJECTID":69768},"geometry":{"x":170667.11999999918,"y":2545961.290000001}},{"attributes":{"ID":69769,"DIS_CODE":0,"TOWNNAME":"官田區","LI":"二鎮里","LIN":"6鄰","STREET":" ","SECT":" ","MAREA":"二鎮","LANE":" ","ALLEY":" ","HOUSE_NO":"５３號之１","E_COORD97":181361.12,"N_COORD97":2568329.8599999999,"ADDRESS":"二鎮５３號之１","OBJECTID":69769},"geometry":{"x":181361.12000000104,"y":2568329.8599999994}},{"attributes":{"ID":69770,"DIS_CODE":0,"TOWNNAME":"永康區","LI":"西橋里","LIN":"6鄰","STREET":"中華西街","SECT":" ","MAREA":" ","LANE":"６３巷","ALLEY":"６４弄","HOUSE_NO":"１５號","E_COORD97":170650.38,"N_COORD97":2545931.75,"ADDRESS":"中華西街６３巷６４弄１５號","OBJECTID":69770},"geometry":{"x":170650.38000000082,"y":2545931.7500000019}},{"attributes":{"ID":69771,"DIS_CODE":0,"TOWNNAME":"永康區","LI":"西橋里","LIN":"6鄰","STREET":"中山南路","SECT":" ","MAREA":" ","LANE":"４３巷","ALLEY":"３７弄","HOUSE_NO":"２號","E_COORD97":170669.67999999999,"N_COORD97":2545943.9900000002,"ADDRESS":"中山南路４３巷３７弄２號","OBJECTID":69771},"geometry":{"x":170669.67999999877,"y":2545943.9900000021}},{"attributes":{"ID":69772,"DIS_CODE":0,"TOWNNAME":"南區","LI":"府南里","LIN":"6鄰","STREET":"金華路","SECT":"一段","MAREA":" ","LANE":"４８４巷","ALLEY":"９９弄","HOUSE_NO":"２之５０號","E_COORD97":167380.54999999999,"N_COORD97":2541348.54,"ADDRESS":"金華路一段４８４巷９９弄２之５０號","OBJECTID":69772},"geometry":{"x":167380.55000000168,"y":2541348.540000001}},{"attributes":{"ID":69773,"DIS_CODE":0,"TOWNNAME":"南區","LI":"大林里","LIN":"6鄰","STREET":"大同路","SECT":"二段","MAREA":" ","LANE":"４８２巷","ALLEY":"７２弄","HOUSE_NO":"４２號","E_COORD97":169366.53,"N_COORD97":2541510.2400000002,"ADDRESS":"大同路二段４８２巷７２弄４２號","OBJECTID":69773},"geometry":{"x":169366.53000000119,"y":2541510.2400000002}},{"attributes":{"ID":69774,"DIS_CODE":0,"TOWNNAME":"南區","LI":"大林里","LIN":"6鄰","STREET":"大同路","SECT":"二段","MAREA":" ","LANE":"４８２巷","ALLEY":"７２弄","HOUSE_NO":"４６號","E_COORD97":169373.20000000001,"N_COORD97":2541511.6699999999,"ADDRESS":"大同路二段４８２巷７２弄４６號","OBJECTID":69774},"geometry":{"x":169373.20000000019,"y":2541511.6700000018}},{"attributes":{"ID":69775,"DIS_CODE":0,"TOWNNAME":"南區","LI":"大林里","LIN":"6鄰","STREET":"大同路","SECT":"二段","MAREA":" ","LANE":"４８２巷","ALLEY":"７２弄","HOUSE_NO":"４８號","E_COORD97":169381.14000000001,"N_COORD97":2541513.5800000001,"ADDRESS":"大同路二段４８２巷７２弄４８號","OBJECTID":69775},"geometry":{"x":169381.13999999966,"y":2541513.5800000001}},{"attributes":{"ID":69776,"DIS_CODE":0,"TOWNNAME":"下營區","LI":"甲中里","LIN":"6鄰","STREET":" ","SECT":" ","MAREA":"中庄子","LANE":" ","ALLEY":" ","HOUSE_NO":"３７號之１","E_COORD97":175422.06,"N_COORD97":2572409.96,"ADDRESS":"中庄子３７號之１","OBJECTID":69776},"geometry":{"x":175422.06000000145,"y":2572409.9600000046}},{"attributes":{"ID":69777,"DIS_CODE":0,"TOWNNAME":"南區","LI":"大林里","LIN":"6鄰","STREET":"大同路","SECT":"二段","MAREA":" ","LANE":"４８２巷","ALLEY":"７２弄","HOUSE_NO":"５０號","E_COORD97":169388.92000000001,"N_COORD97":2541515.48,"ADDRESS":"大同路二段４８２巷７２弄５０號","OBJECTID":69777},"geometry":{"x":169388.92000000086,"y":2541515.4800000004}},{"attributes":{"ID":69778,"DIS_CODE":0,"TOWNNAME":"南區","LI":"大林里","LIN":"6鄰","STREET":"大同路","SECT":"二段","MAREA":" ","LANE":"４８２巷","ALLEY":"７２弄","HOUSE_NO":"５２號","E_COORD97":169396.85000000001,"N_COORD97":2541518.02,"ADDRESS":"大同路二段４８２巷７２弄５２號","OBJECTID":69778},"geometry":{"x":169396.84999999963,"y":2541518.0200000033}},{"attributes":{"ID":69779,"DIS_CODE":0,"TOWNNAME":"南區","LI":"大林里","LIN":"6鄰","STREET":"大同路","SECT":"二段","MAREA":" ","LANE":"４８２巷","ALLEY":"７２弄","HOUSE_NO":"５６號","E_COORD97":169404,"N_COORD97":2541519.6099999999,"ADDRESS":"大同路二段４８２巷７２弄５６號","OBJECTID":69779},"geometry":{"x":169404.00000000093,"y":2541519.6099999994}},{"attributes":{"ID":69780,"DIS_CODE":0,"TOWNNAME":"南區","LI":"大林里","LIN":"6鄰","STREET":"大同路","SECT":"二段","MAREA":" ","LANE":"４８２巷","ALLEY":"７２弄","HOUSE_NO":"５８號","E_COORD97":169410.35000000001,"N_COORD97":2541520.7200000002,"ADDRESS":"大同路二段４８２巷７２弄５８號","OBJECTID":69780},"geometry":{"x":169410.34999999963,"y":2541520.7200000007}},{"attributes":{"ID":69781,"DIS_CODE":0,"TOWNNAME":"南區","LI":"大林里","LIN":"6鄰","STREET":"大同路","SECT":"二段","MAREA":" ","LANE":"４８２巷","ALLEY":"１０弄","HOUSE_NO":"１１號","E_COORD97":169416.41,"N_COORD97":2541511.1299999999,"ADDRESS":"大同路二段４８２巷１０弄１１號","OBJECTID":69781},"geometry":{"x":169416.41000000108,"y":2541511.1300000008}},{"attributes":{"ID":69782,"DIS_CODE":0,"TOWNNAME":"南區","LI":"大林里","LIN":"6鄰","STREET":"大同路","SECT":"二段","MAREA":" ","LANE":"４８２巷","ALLEY":"１０弄","HOUSE_NO":"９號","E_COORD97":169418.16,"N_COORD97":2541504.6200000001,"ADDRESS":"大同路二段４８２巷１０弄９號","OBJECTID":69782},"geometry":{"x":169418.16000000108,"y":2541504.620000001}},{"attributes":{"ID":69783,"DIS_CODE":0,"TOWNNAME":"南區","LI":"大林里","LIN":"6鄰","STREET":"大同路","SECT":"二段","MAREA":" ","LANE":"４８２巷","ALLEY":"１０弄","HOUSE_NO":"１號","E_COORD97":169416.57999999999,"N_COORD97":2541484.0699999998,"ADDRESS":"大同路二段４８２巷１０弄１號","OBJECTID":69783},"geometry":{"x":169416.58000000101,"y":2541484.0700000003}},{"attributes":{"ID":69784,"DIS_CODE":0,"TOWNNAME":"南區","LI":"大林里","LIN":"6鄰","STREET":"大同路","SECT":"二段","MAREA":" ","LANE":"４８２巷","ALLEY":"１０弄","HOUSE_NO":"３號","E_COORD97":169413.84,"N_COORD97":2541493.48,"ADDRESS":"大同路二段４８２巷１０弄３號","OBJECTID":69784},"geometry":{"x":169413.83999999985,"y":2541493.4800000023}},{"attributes":{"ID":69785,"DIS_CODE":0,"TOWNNAME":"南區","LI":"大林里","LIN":"6鄰","STREET":"大同路","SECT":"二段","MAREA":" ","LANE":"４８２巷","ALLEY":"１０弄","HOUSE_NO":"５號","E_COORD97":169412.39000000001,"N_COORD97":2541500.98,"ADDRESS":"大同路二段４８２巷１０弄５號","OBJECTID":69785},"geometry":{"x":169412.3900000006,"y":2541500.9800000004}},{"attributes":{"ID":69786,"DIS_CODE":0,"TOWNNAME":"南區","LI":"大林里","LIN":"6鄰","STREET":"大同路","SECT":"二段","MAREA":" ","LANE":"４８２巷","ALLEY":"１０弄","HOUSE_NO":"７號","E_COORD97":169408.48000000001,"N_COORD97":2541504.79,"ADDRESS":"大同路二段４８２巷１０弄７號","OBJECTID":69786},"geometry":{"x":169408.48000000045,"y":2541504.7899999991}},{"attributes":{"ID":69787,"DIS_CODE":0,"TOWNNAME":"南區","LI":"大林里","LIN":"6鄰","STREET":"大同路","SECT":"二段","MAREA":" ","LANE":"４８２巷","ALLEY":"１０弄","HOUSE_NO":"１３號","E_COORD97":169409.01000000001,"N_COORD97":2541518.8300000001,"ADDRESS":"大同路二段４８２巷１０弄１３號","OBJECTID":69787},"geometry":{"x":169409.00999999978,"y":2541518.8300000001}},{"attributes":{"ID":69788,"DIS_CODE":0,"TOWNNAME":"南區","LI":"大林里","LIN":"6鄰","STREET":"大同路","SECT":"二段","MAREA":" ","LANE":"４８２巷","ALLEY":"１０弄","HOUSE_NO":"１５號","E_COORD97":169408.60000000001,"N_COORD97":2541524.1899999999,"ADDRESS":"大同路二段４８２巷１０弄１５號","OBJECTID":69788},"geometry":{"x":169408.59999999963,"y":2541524.1900000013}},{"attributes":{"ID":69789,"DIS_CODE":0,"TOWNNAME":"安南區","LI":"佃東里","LIN":"6鄰","STREET":"公學路","SECT":"四段","MAREA":" ","LANE":"１２２巷","ALLEY":"９６弄","HOUSE_NO":"４５號","E_COORD97":165691.26000000001,"N_COORD97":2552324.7000000002,"ADDRESS":"公學路四段１２２巷９６弄４５號","OBJECTID":69789},"geometry":{"x":165691.26000000071,"y":2552324.6999999993}},{"attributes":{"ID":69790,"DIS_CODE":0,"TOWNNAME":"安南區","LI":"佃東里","LIN":"6鄰","STREET":"公學路","SECT":"四段","MAREA":" ","LANE":"１２２巷","ALLEY":"９６弄","HOUSE_NO":"４７號","E_COORD97":165695.59,"N_COORD97":2552321.8199999998,"ADDRESS":"公學路四段１２２巷９６弄４７號","OBJECTID":69790},"geometry":{"x":165695.59000000078,"y":2552321.8199999984}},{"attributes":{"ID":69791,"DIS_CODE":0,"TOWNNAME":"安南區","LI":"佃東里","LIN":"6鄰","STREET":"公學路","SECT":"四段","MAREA":" ","LANE":"１２２巷","ALLEY":"９６弄","HOUSE_NO":"４９號","E_COORD97":165700.57999999999,"N_COORD97":2552324.9199999999,"ADDRESS":"公學路四段１２２巷９６弄４９號","OBJECTID":69791},"geometry":{"x":165700.58000000194,"y":2552324.9200000018}},{"attributes":{"ID":69792,"DIS_CODE":0,"TOWNNAME":"安南區","LI":"佃東里","LIN":"6鄰","STREET":"公學路","SECT":"四段","MAREA":" ","LANE":"１２２巷","ALLEY":"９６弄","HOUSE_NO":"５０號","E_COORD97":165699.14000000001,"N_COORD97":2552296.9100000001,"ADDRESS":"公學路四段１２２巷９６弄５０號","OBJECTID":69792},"geometry":{"x":165699.13999999966,"y":2552296.9100000001}},{"attributes":{"ID":69793,"DIS_CODE":0,"TOWNNAME":"安南區","LI":"佃東里","LIN":"6鄰","STREET":"公學路","SECT":"四段","MAREA":" ","LANE":"１２２巷","ALLEY":"９６弄","HOUSE_NO":"５７號","E_COORD97":165721.89000000001,"N_COORD97":2552322.3700000001,"ADDRESS":"公學路四段１２２巷９６弄５７號","OBJECTID":69793},"geometry":{"x":165721.89000000153,"y":2552322.3700000048}},{"attributes":{"ID":69794,"DIS_CODE":0,"TOWNNAME":"安南區","LI":"佃東里","LIN":"6鄰","STREET":"公學路","SECT":"四段","MAREA":" ","LANE":"１２２巷","ALLEY":"２７２弄","HOUSE_NO":"１８號之５０","E_COORD97":165661.29000000001,"N_COORD97":2552510.4700000002,"ADDRESS":"公學路四段１２２巷２７２弄１８號之５０","OBJECTID":69794},"geometry":{"x":165661.29000000004,"y":2552510.4700000007}},{"attributes":{"ID":69795,"DIS_CODE":0,"TOWNNAME":"安南區","LI":"\u25A0南里","LIN":"6鄰","STREET":"安昌街","SECT":" ","MAREA":" ","LANE":"２１９巷","ALLEY":"２６弄","HOUSE_NO":"１０號","E_COORD97":170001.45999999999,"N_COORD97":2552529.75,"ADDRESS":"安昌街２１９巷２６弄１０號","OBJECTID":69795},"geometry":{"x":170001.45999999996,"y":2552529.7500000019}},{"attributes":{"ID":69796,"DIS_CODE":0,"TOWNNAME":"安南區","LI":"\u25A0南里","LIN":"6鄰","STREET":"安昌街","SECT":" ","MAREA":" ","LANE":"２１９巷","ALLEY":"２６弄","HOUSE_NO":"１１號","E_COORD97":169980.31,"N_COORD97":2552539.75,"ADDRESS":"安昌街２１９巷２６弄１１號","OBJECTID":69796},"geometry":{"x":169980.30999999959,"y":2552539.7500000019}},{"attributes":{"ID":69797,"DIS_CODE":0,"TOWNNAME":"安南區","LI":"\u25A0南里","LIN":"6鄰","STREET":"安昌街","SECT":" ","MAREA":" ","LANE":"２１９巷","ALLEY":"２６弄","HOUSE_NO":"１２號","E_COORD97":170002.45999999999,"N_COORD97":2552534.8900000001,"ADDRESS":"安昌街２１９巷２６弄１２號","OBJECTID":69797},"geometry":{"x":170002.46000000089,"y":2552534.8900000006}},{"attributes":{"ID":69798,"DIS_CODE":0,"TOWNNAME":"安南區","LI":"\u25A0南里","LIN":"6鄰","STREET":"安昌街","SECT":" ","MAREA":" ","LANE":"２１９巷","ALLEY":"２６弄","HOUSE_NO":"１３號","E_COORD97":169981.32000000001,"N_COORD97":2552544.75,"ADDRESS":"安昌街２１９巷２６弄１３號","OBJECTID":69798},"geometry":{"x":169981.32000000216,"y":2552544.75}},{"attributes":{"ID":69799,"DIS_CODE":0,"TOWNNAME":"安南區","LI":"\u25A0南里","LIN":"6鄰","STREET":"安昌街","SECT":" ","MAREA":" ","LANE":"２１９巷","ALLEY":"２６弄","HOUSE_NO":"１４號","E_COORD97":170002.32000000001,"N_COORD97":2552539.7400000002,"ADDRESS":"安昌街２１９巷２６弄１４號","OBJECTID":69799},"geometry":{"x":170002.32000000123,"y":2552539.7400000039}},{"attributes":{"ID":69800,"DIS_CODE":0,"TOWNNAME":"安南區","LI":"\u25A0南里","LIN":"6鄰","STREET":"安昌街","SECT":" ","MAREA":" ","LANE":"２１９巷","ALLEY":"２６弄","HOUSE_NO":"１５號","E_COORD97":169981.53,"N_COORD97":2552549.0800000001,"ADDRESS":"安昌街２１９巷２６弄１５號","OBJECTID":69800},"geometry":{"x":169981.53000000212,"y":2552549.0800000001}}]}