{"displayFieldName":"TOWNNAME","fieldAliases":{"ID":"ID","DIS_CODE":"DIS_CODE","TOWNNAME":"TOWNNAME","LI":"LI","LIN":"LIN","STREET":"STREET","SECT":"SECT","MAREA":"MAREA","LANE":"LANE","ALLEY":"ALLEY","HOUSE_NO":"HOUSE_NO","E_COORD97":"E_COORD97","N_COORD97":"N_COORD97","ADDRESS":"ADDRESS","OBJECTID":"OBJECTID"},"geometryType":"esriGeometryPoint","spatialReference":{"wkid":102443,"latestWkid":3826},"fields":[{"name":"ID","type":"esriFieldTypeDouble","alias":"ID"},{"name":"DIS_CODE","type":"esriFieldTypeInteger","alias":"DIS_CODE"},{"name":"TOWNNAME","type":"esriFieldTypeString","alias":"TOWNNAME","length":8},{"name":"LI","type":"esriFieldTypeString","alias":"LI","length":8},{"name":"LIN","type":"esriFieldTypeString","alias":"LIN","length":12},{"name":"STREET","type":"esriFieldTypeString","alias":"STREET","length":20},{"name":"SECT","type":"esriFieldTypeString","alias":"SECT","length":8},{"name":"MAREA","type":"esriFieldTypeString","alias":"MAREA","length":12},{"name":"LANE","type":"esriFieldTypeString","alias":"LANE","length":10},{"name":"ALLEY","type":"esriFieldTypeString","alias":"ALLEY","length":10},{"name":"HOUSE_NO","type":"esriFieldTypeString","alias":"HOUSE_NO","length":20},{"name":"E_COORD97","type":"esriFieldTypeDouble","alias":"E_COORD97"},{"name":"N_COORD97","type":"esriFieldTypeDouble","alias":"N_COORD97"},{"name":"ADDRESS","type":"esriFieldTypeString","alias":"ADDRESS","length":50},{"name":"OBJECTID","type":"esriFieldTypeOID","alias":"OBJECTID"}],"features":[{"attributes":{"ID":575228,"DIS_CODE":0,"TOWNNAME":"永康區","LI":"南灣里","LIN":"23鄰","STREET":"大灣一街","SECT":" ","MAREA":" ","LANE":" ","ALLEY":" ","HOUSE_NO":"１２號","E_COORD97":174204.82000000001,"N_COORD97":2544795.1099999999,"ADDRESS":"大灣一街１２號","OBJECTID":575201},"geometry":{"x":174204.8200000003,"y":2544795.1099999994}},{"attributes":{"ID":575229,"DIS_CODE":0,"TOWNNAME":"永康區","LI":"東灣里","LIN":"23鄰","STREET":"大灣一街","SECT":" ","MAREA":" ","LANE":" ","ALLEY":" ","HOUSE_NO":"２８３號","E_COORD97":175044.66,"N_COORD97":2544754.8399999999,"ADDRESS":"大灣一街２８３號","OBJECTID":575202},"geometry":{"x":175044.66000000108,"y":2544754.8400000017}},{"attributes":{"ID":575230,"DIS_CODE":0,"TOWNNAME":"永康區","LI":"南灣里","LIN":"23鄰","STREET":"大灣一街","SECT":" ","MAREA":" ","LANE":" ","ALLEY":" ","HOUSE_NO":"２２號","E_COORD97":174230.64000000001,"N_COORD97":2544792.3599999999,"ADDRESS":"大灣一街２２號","OBJECTID":575203},"geometry":{"x":174230.6400000006,"y":2544792.3600000013}},{"attributes":{"ID":575231,"DIS_CODE":0,"TOWNNAME":"永康區","LI":"南灣里","LIN":"23鄰","STREET":"大灣一街","SECT":" ","MAREA":" ","LANE":" ","ALLEY":" ","HOUSE_NO":"８號","E_COORD97":174199.06,"N_COORD97":2544779.6099999999,"ADDRESS":"大灣一街８號","OBJECTID":575204},"geometry":{"x":174199.05999999959,"y":2544779.6100000013}},{"attributes":{"ID":575232,"DIS_CODE":0,"TOWNNAME":"永康區","LI":"東灣里","LIN":"23鄰","STREET":"大灣一街","SECT":" ","MAREA":" ","LANE":" ","ALLEY":" ","HOUSE_NO":"２８９號","E_COORD97":175060.44,"N_COORD97":2544767.04,"ADDRESS":"大灣一街２８９號","OBJECTID":575205},"geometry":{"x":175060.44000000041,"y":2544767.040000001}},{"attributes":{"ID":575233,"DIS_CODE":0,"TOWNNAME":"永康區","LI":"尚頂里","LIN":"23鄰","STREET":"南台街","SECT":" ","MAREA":" ","LANE":" ","ALLEY":" ","HOUSE_NO":"４８號","E_COORD97":170359.14000000001,"N_COORD97":2546977.3100000001,"ADDRESS":"南台街４８號","OBJECTID":575206},"geometry":{"x":170359.13999999966,"y":2546977.3100000024}},{"attributes":{"ID":575234,"DIS_CODE":0,"TOWNNAME":"永康區","LI":"南灣里","LIN":"23鄰","STREET":"大灣一街","SECT":" ","MAREA":" ","LANE":" ","ALLEY":" ","HOUSE_NO":"２０號","E_COORD97":174225.54000000001,"N_COORD97":2544793.1099999999,"ADDRESS":"大灣一街２０號","OBJECTID":575207},"geometry":{"x":174225.54000000004,"y":2544793.1100000013}},{"attributes":{"ID":575235,"DIS_CODE":0,"TOWNNAME":"永康區","LI":"東灣里","LIN":"23鄰","STREET":"大灣二街","SECT":" ","MAREA":" ","LANE":" ","ALLEY":" ","HOUSE_NO":"５８號","E_COORD97":174866.22,"N_COORD97":2544747.2599999998,"ADDRESS":"大灣二街５８號","OBJECTID":575208},"geometry":{"x":174866.21999999974,"y":2544747.2599999998}},{"attributes":{"ID":575236,"DIS_CODE":0,"TOWNNAME":"永康區","LI":"東灣里","LIN":"23鄰","STREET":"大灣二街","SECT":" ","MAREA":" ","LANE":" ","ALLEY":" ","HOUSE_NO":"４０號","E_COORD97":174898.09,"N_COORD97":2544740.0299999998,"ADDRESS":"大灣二街４０號","OBJECTID":575209},"geometry":{"x":174898.08999999985,"y":2544740.0300000012}},{"attributes":{"ID":575237,"DIS_CODE":0,"TOWNNAME":"永康區","LI":"南灣里","LIN":"23鄰","STREET":"大灣一街","SECT":" ","MAREA":" ","LANE":" ","ALLEY":" ","HOUSE_NO":"１６號","E_COORD97":174214.60999999999,"N_COORD97":2544794.1099999999,"ADDRESS":"大灣一街１６號","OBJECTID":575210},"geometry":{"x":174214.61000000127,"y":2544794.1100000013}},{"attributes":{"ID":575238,"DIS_CODE":0,"TOWNNAME":"永康區","LI":"東灣里","LIN":"23鄰","STREET":"大灣二街","SECT":" ","MAREA":" ","LANE":" ","ALLEY":" ","HOUSE_NO":"１０號","E_COORD97":174990.20000000001,"N_COORD97":2544713.1299999999,"ADDRESS":"大灣二街１０號","OBJECTID":575211},"geometry":{"x":174990.20000000112,"y":2544713.129999999}},{"attributes":{"ID":575239,"DIS_CODE":0,"TOWNNAME":"永康區","LI":"東灣里","LIN":"23鄰","STREET":"大灣一街","SECT":" ","MAREA":" ","LANE":" ","ALLEY":" ","HOUSE_NO":"２７９號","E_COORD97":175035.85999999999,"N_COORD97":2544750.3399999999,"ADDRESS":"大灣一街２７９號","OBJECTID":575212},"geometry":{"x":175035.86000000034,"y":2544750.3399999999}},{"attributes":{"ID":575240,"DIS_CODE":0,"TOWNNAME":"新市區","LI":"新市里","LIN":"23鄰","STREET":"復興路","SECT":" ","MAREA":" ","LANE":" ","ALLEY":" ","HOUSE_NO":"８９號","E_COORD97":177797.85000000001,"N_COORD97":2553557.7799999998,"ADDRESS":"復興路８９號","OBJECTID":575213},"geometry":{"x":177797.84999999963,"y":2553557.7799999993}},{"attributes":{"ID":575241,"DIS_CODE":0,"TOWNNAME":"新市區","LI":"新和里","LIN":"23鄰","STREET":"中正路","SECT":" ","MAREA":" ","LANE":" ","ALLEY":" ","HOUSE_NO":"２３４號","E_COORD97":177436.95000000001,"N_COORD97":2552889.5,"ADDRESS":"中正路２３４號","OBJECTID":575214},"geometry":{"x":177436.95000000019,"y":2552889.5}},{"attributes":{"ID":575242,"DIS_CODE":0,"TOWNNAME":"新市區","LI":"港墘里","LIN":"23鄰","STREET":"南昌街","SECT":" ","MAREA":" ","LANE":" ","ALLEY":" ","HOUSE_NO":"１３之８號","E_COORD97":177988.26000000001,"N_COORD97":2552852.5499999998,"ADDRESS":"南昌街１３之８號","OBJECTID":575215},"geometry":{"x":177988.26000000071,"y":2552852.5500000007}},{"attributes":{"ID":575243,"DIS_CODE":0,"TOWNNAME":"新市區","LI":"新和里","LIN":"23鄰","STREET":"中正路","SECT":" ","MAREA":" ","LANE":" ","ALLEY":" ","HOUSE_NO":"１９４號","E_COORD97":177417.76000000001,"N_COORD97":2552767.5,"ADDRESS":"中正路１９４號","OBJECTID":575216},"geometry":{"x":177417.75999999885,"y":2552767.5}},{"attributes":{"ID":575244,"DIS_CODE":0,"TOWNNAME":"新市區","LI":"港墘里","LIN":"23鄰","STREET":"南昌街","SECT":" ","MAREA":" ","LANE":" ","ALLEY":" ","HOUSE_NO":"２３號","E_COORD97":177964.16,"N_COORD97":2552912.5,"ADDRESS":"南昌街２３號","OBJECTID":575217},"geometry":{"x":177964.16000000015,"y":2552912.5}},{"attributes":{"ID":575245,"DIS_CODE":0,"TOWNNAME":"新市區","LI":"新和里","LIN":"23鄰","STREET":"中正路","SECT":" ","MAREA":" ","LANE":" ","ALLEY":" ","HOUSE_NO":"１５１號","E_COORD97":177397.17999999999,"N_COORD97":2552798,"ADDRESS":"中正路１５１號","OBJECTID":575218},"geometry":{"x":177397.1799999997,"y":2552798}},{"attributes":{"ID":575246,"DIS_CODE":0,"TOWNNAME":"新市區","LI":"新和里","LIN":"23鄰","STREET":"中正路","SECT":" ","MAREA":" ","LANE":" ","ALLEY":" ","HOUSE_NO":"２２２之１號","E_COORD97":177428.98999999999,"N_COORD97":2552839.25,"ADDRESS":"中正路２２２之１號","OBJECTID":575219},"geometry":{"x":177428.99000000115,"y":2552839.25}},{"attributes":{"ID":575247,"DIS_CODE":0,"TOWNNAME":"新市區","LI":"新和里","LIN":"23鄰","STREET":"中正路","SECT":" ","MAREA":" ","LANE":" ","ALLEY":" ","HOUSE_NO":"１９６號","E_COORD97":177418.32000000001,"N_COORD97":2552772,"ADDRESS":"中正路１９６號","OBJECTID":575220},"geometry":{"x":177418.32000000123,"y":2552772.0000000019}},{"attributes":{"ID":575248,"DIS_CODE":0,"TOWNNAME":"東區","LI":"大福里","LIN":"23鄰","STREET":"大同路","SECT":"二段","MAREA":" ","LANE":" ","ALLEY":" ","HOUSE_NO":"３３１號","E_COORD97":169478.17000000001,"N_COORD97":2541578.1899999999,"ADDRESS":"大同路二段３３１號","OBJECTID":575221},"geometry":{"x":169478.16999999993,"y":2541578.1900000032}},{"attributes":{"ID":575249,"DIS_CODE":0,"TOWNNAME":"東區","LI":"大福里","LIN":"23鄰","STREET":"大同路","SECT":"二段","MAREA":" ","LANE":" ","ALLEY":" ","HOUSE_NO":"３３５號","E_COORD97":169482.28,"N_COORD97":2541570.5600000001,"ADDRESS":"大同路二段３３５號","OBJECTID":575222},"geometry":{"x":169482.28000000026,"y":2541570.5600000024}},{"attributes":{"ID":575250,"DIS_CODE":0,"TOWNNAME":"東區","LI":"大福里","LIN":"23鄰","STREET":"大同路","SECT":"二段","MAREA":" ","LANE":" ","ALLEY":" ","HOUSE_NO":"３３７號","E_COORD97":169481.79999999999,"N_COORD97":2541566.8500000001,"ADDRESS":"大同路二段３３７號","OBJECTID":575223},"geometry":{"x":169481.79999999981,"y":2541566.8500000034}},{"attributes":{"ID":575251,"DIS_CODE":0,"TOWNNAME":"歸仁區","LI":"南保里","LIN":"18鄰","STREET":"文化十街","SECT":" ","MAREA":" ","LANE":" ","ALLEY":" ","HOUSE_NO":"５號","E_COORD97":176536.29000000001,"N_COORD97":2541220.3300000001,"ADDRESS":"文化十街５號","OBJECTID":575224},"geometry":{"x":176536.29000000004,"y":2541220.3300000001}},{"attributes":{"ID":575252,"DIS_CODE":0,"TOWNNAME":"東區","LI":"大福里","LIN":"23鄰","STREET":"大同路","SECT":"二段","MAREA":" ","LANE":" ","ALLEY":" ","HOUSE_NO":"３３９號","E_COORD97":169484.67000000001,"N_COORD97":2541563.73,"ADDRESS":"大同路二段３３９號","OBJECTID":575225},"geometry":{"x":169484.66999999993,"y":2541563.7300000004}},{"attributes":{"ID":575253,"DIS_CODE":0,"TOWNNAME":"東區","LI":"大福里","LIN":"23鄰","STREET":"大同路","SECT":"二段","MAREA":" ","LANE":" ","ALLEY":" ","HOUSE_NO":"３４１號","E_COORD97":169484.67000000001,"N_COORD97":2541559.5699999998,"ADDRESS":"大同路二段３４１號","OBJECTID":575226},"geometry":{"x":169484.66999999993,"y":2541559.5700000022}},{"attributes":{"ID":575254,"DIS_CODE":0,"TOWNNAME":"東區","LI":"大福里","LIN":"23鄰","STREET":"大同路","SECT":"二段","MAREA":" ","LANE":" ","ALLEY":" ","HOUSE_NO":"３４３號","E_COORD97":169486.23000000001,"N_COORD97":2541556.1899999999,"ADDRESS":"大同路二段３４３號","OBJECTID":575227},"geometry":{"x":169486.23000000045,"y":2541556.1899999995}},{"attributes":{"ID":575255,"DIS_CODE":0,"TOWNNAME":"東區","LI":"大福里","LIN":"23鄰","STREET":"大同路","SECT":"二段","MAREA":" ","LANE":" ","ALLEY":" ","HOUSE_NO":"３４５號","E_COORD97":169486.75,"N_COORD97":2541552.8100000001,"ADDRESS":"大同路二段３４５號","OBJECTID":575228},"geometry":{"x":169486.75000000093,"y":2541552.8100000005}},{"attributes":{"ID":575256,"DIS_CODE":0,"TOWNNAME":"東區","LI":"大福里","LIN":"23鄰","STREET":"大同路","SECT":"二段","MAREA":" ","LANE":" ","ALLEY":" ","HOUSE_NO":"３４７號","E_COORD97":169489.88,"N_COORD97":2541549.75,"ADDRESS":"大同路二段３４７號","OBJECTID":575229},"geometry":{"x":169489.87999999989,"y":2541549.75}},{"attributes":{"ID":575257,"DIS_CODE":0,"TOWNNAME":"東區","LI":"大福里","LIN":"23鄰","STREET":"大同路","SECT":"二段","MAREA":" ","LANE":" ","ALLEY":" ","HOUSE_NO":"３４９號","E_COORD97":169489.32999999999,"N_COORD97":2541546.2799999998,"ADDRESS":"大同路二段３４９號","OBJECTID":575230},"geometry":{"x":169489.33000000194,"y":2541546.2799999993}},{"attributes":{"ID":575258,"DIS_CODE":0,"TOWNNAME":"東區","LI":"大福里","LIN":"23鄰","STREET":"大同路","SECT":"二段","MAREA":" ","LANE":" ","ALLEY":" ","HOUSE_NO":"３５３號","E_COORD97":169489.51999999999,"N_COORD97":2541534.5600000001,"ADDRESS":"大同路二段３５３號","OBJECTID":575231},"geometry":{"x":169489.52000000048,"y":2541534.5600000005}},{"attributes":{"ID":575259,"DIS_CODE":0,"TOWNNAME":"東區","LI":"大福里","LIN":"23鄰","STREET":"大同路","SECT":"二段","MAREA":" ","LANE":" ","ALLEY":" ","HOUSE_NO":"３５５號","E_COORD97":169490.81,"N_COORD97":2541530.9700000002,"ADDRESS":"大同路二段３５５號","OBJECTID":575232},"geometry":{"x":169490.81000000052,"y":2541530.9700000025}},{"attributes":{"ID":575260,"DIS_CODE":0,"TOWNNAME":"東區","LI":"大福里","LIN":"23鄰","STREET":"大同路","SECT":"二段","MAREA":" ","LANE":" ","ALLEY":" ","HOUSE_NO":"３５７號","E_COORD97":169493.12,"N_COORD97":2541526.3399999999,"ADDRESS":"大同路二段３５７號","OBJECTID":575233},"geometry":{"x":169493.12000000104,"y":2541526.3400000036}},{"attributes":{"ID":575261,"DIS_CODE":0,"TOWNNAME":"東區","LI":"大福里","LIN":"23鄰","STREET":"大同路","SECT":"二段","MAREA":" ","LANE":" ","ALLEY":" ","HOUSE_NO":"３５９號","E_COORD97":169495.95000000001,"N_COORD97":2541522.5899999999,"ADDRESS":"大同路二段３５９號","OBJECTID":575234},"geometry":{"x":169495.95000000112,"y":2541522.5900000017}},{"attributes":{"ID":575262,"DIS_CODE":0,"TOWNNAME":"東區","LI":"大福里","LIN":"23鄰","STREET":"大同路","SECT":"二段","MAREA":" ","LANE":" ","ALLEY":" ","HOUSE_NO":"３６１號","E_COORD97":169499.81,"N_COORD97":2541516.1600000001,"ADDRESS":"大同路二段３６１號","OBJECTID":575235},"geometry":{"x":169499.81000000052,"y":2541516.1600000001}},{"attributes":{"ID":575263,"DIS_CODE":0,"TOWNNAME":"東區","LI":"大福里","LIN":"23鄰","STREET":"大同路","SECT":"二段","MAREA":" ","LANE":" ","ALLEY":" ","HOUSE_NO":"３６３號","E_COORD97":169501.35000000001,"N_COORD97":2541510.77,"ADDRESS":"大同路二段３６３號","OBJECTID":575236},"geometry":{"x":169501.35000000056,"y":2541510.7700000014}},{"attributes":{"ID":575264,"DIS_CODE":0,"TOWNNAME":"東區","LI":"大福里","LIN":"23鄰","STREET":"大同路","SECT":"二段","MAREA":" ","LANE":" ","ALLEY":" ","HOUSE_NO":"３６７號","E_COORD97":169503.67000000001,"N_COORD97":2541502.29,"ADDRESS":"大同路二段３６７號","OBJECTID":575237},"geometry":{"x":169503.66999999899,"y":2541502.2900000028}},{"attributes":{"ID":575265,"DIS_CODE":0,"TOWNNAME":"東區","LI":"大福里","LIN":"23鄰","STREET":"大同路","SECT":"二段","MAREA":" ","LANE":" ","ALLEY":" ","HOUSE_NO":"３６９號","E_COORD97":169504.70000000001,"N_COORD97":2541499.73,"ADDRESS":"大同路二段３６９號","OBJECTID":575238},"geometry":{"x":169504.70000000112,"y":2541499.7300000004}},{"attributes":{"ID":575266,"DIS_CODE":0,"TOWNNAME":"東區","LI":"大福里","LIN":"23鄰","STREET":"大同路","SECT":"二段","MAREA":" ","LANE":" ","ALLEY":" ","HOUSE_NO":"３７１號","E_COORD97":169507.01000000001,"N_COORD97":2541495.8700000001,"ADDRESS":"大同路二段３７１號","OBJECTID":575239},"geometry":{"x":169507.01000000071,"y":2541495.870000001}},{"attributes":{"ID":575267,"DIS_CODE":0,"TOWNNAME":"東區","LI":"大福里","LIN":"23鄰","STREET":"大同路","SECT":"二段","MAREA":" ","LANE":" ","ALLEY":" ","HOUSE_NO":"３７３號","E_COORD97":169506.76000000001,"N_COORD97":2541492.2799999998,"ADDRESS":"大同路二段３７３號","OBJECTID":575240},"geometry":{"x":169506.76000000071,"y":2541492.2799999975}},{"attributes":{"ID":575268,"DIS_CODE":0,"TOWNNAME":"東區","LI":"大福里","LIN":"23鄰","STREET":"大同路","SECT":"二段","MAREA":" ","LANE":" ","ALLEY":" ","HOUSE_NO":"３７５號","E_COORD97":169505.20999999999,"N_COORD97":2541487.0699999998,"ADDRESS":"大同路二段３７５號","OBJECTID":575241},"geometry":{"x":169505.21000000183,"y":2541487.0700000003}},{"attributes":{"ID":575269,"DIS_CODE":0,"TOWNNAME":"東區","LI":"大福里","LIN":"23鄰","STREET":"大同路","SECT":"二段","MAREA":" ","LANE":" ","ALLEY":" ","HOUSE_NO":"３７７號","E_COORD97":169503.92999999999,"N_COORD97":2541484.2400000002,"ADDRESS":"大同路二段３７７號","OBJECTID":575242},"geometry":{"x":169503.93000000063,"y":2541484.2400000021}},{"attributes":{"ID":575270,"DIS_CODE":0,"TOWNNAME":"東區","LI":"大福里","LIN":"23鄰","STREET":"大同路","SECT":"二段","MAREA":" ","LANE":" ","ALLEY":" ","HOUSE_NO":"３７９號","E_COORD97":169509.87,"N_COORD97":2541479.8700000001,"ADDRESS":"大同路二段３７９號","OBJECTID":575243},"geometry":{"x":169509.87000000104,"y":2541479.8699999992}},{"attributes":{"ID":575271,"DIS_CODE":0,"TOWNNAME":"下營區","LI":"後街里","LIN":"23鄰","STREET":"大愛街","SECT":" ","MAREA":" ","LANE":" ","ALLEY":" ","HOUSE_NO":"１１號","E_COORD97":174783.57000000001,"N_COORD97":2571084.8599999999,"ADDRESS":"大愛街１１號","OBJECTID":575244},"geometry":{"x":174783.56999999937,"y":2571084.8600000013}},{"attributes":{"ID":575272,"DIS_CODE":0,"TOWNNAME":"下營區","LI":"後街里","LIN":"23鄰","STREET":"大愛街","SECT":" ","MAREA":" ","LANE":" ","ALLEY":" ","HOUSE_NO":"１３號","E_COORD97":174783.17999999999,"N_COORD97":2571088.9399999999,"ADDRESS":"大愛街１３號","OBJECTID":575245},"geometry":{"x":174783.1799999997,"y":2571088.9399999995}},{"attributes":{"ID":575273,"DIS_CODE":0,"TOWNNAME":"下營區","LI":"後街里","LIN":"23鄰","STREET":"大愛街","SECT":" ","MAREA":" ","LANE":" ","ALLEY":" ","HOUSE_NO":"１５號","E_COORD97":174782.94,"N_COORD97":2571093.27,"ADDRESS":"大愛街１５號","OBJECTID":575246},"geometry":{"x":174782.94000000227,"y":2571093.2699999996}},{"attributes":{"ID":575274,"DIS_CODE":0,"TOWNNAME":"下營區","LI":"後街里","LIN":"23鄰","STREET":"大愛街","SECT":" ","MAREA":" ","LANE":" ","ALLEY":" ","HOUSE_NO":"１７號","E_COORD97":174782.70000000001,"N_COORD97":2571097.1499999999,"ADDRESS":"大愛街１７號","OBJECTID":575247},"geometry":{"x":174782.70000000205,"y":2571097.1500000022}},{"attributes":{"ID":575275,"DIS_CODE":0,"TOWNNAME":"下營區","LI":"後街里","LIN":"23鄰","STREET":"大愛街","SECT":" ","MAREA":" ","LANE":" ","ALLEY":" ","HOUSE_NO":"１９號","E_COORD97":174782.22,"N_COORD97":2571101.0699999998,"ADDRESS":"大愛街１９號","OBJECTID":575248},"geometry":{"x":174782.2200000016,"y":2571101.0700000022}},{"attributes":{"ID":575276,"DIS_CODE":0,"TOWNNAME":"下營區","LI":"後街里","LIN":"23鄰","STREET":"大愛街","SECT":" ","MAREA":" ","LANE":" ","ALLEY":" ","HOUSE_NO":"２１號","E_COORD97":174781.97,"N_COORD97":2571105.04,"ADDRESS":"大愛街２１號","OBJECTID":575249},"geometry":{"x":174781.96999999881,"y":2571105.0399999991}},{"attributes":{"ID":575277,"DIS_CODE":0,"TOWNNAME":"下營區","LI":"後街里","LIN":"23鄰","STREET":"大愛街","SECT":" ","MAREA":" ","LANE":" ","ALLEY":" ","HOUSE_NO":"２３號","E_COORD97":174781.54999999999,"N_COORD97":2571109.2799999998,"ADDRESS":"大愛街２３號","OBJECTID":575250},"geometry":{"x":174781.54999999888,"y":2571109.2799999993}},{"attributes":{"ID":575278,"DIS_CODE":0,"TOWNNAME":"下營區","LI":"後街里","LIN":"23鄰","STREET":"大愛街","SECT":" ","MAREA":" ","LANE":" ","ALLEY":" ","HOUSE_NO":"２５號","E_COORD97":174781.47,"N_COORD97":2571113.4300000002,"ADDRESS":"大愛街２５號","OBJECTID":575251},"geometry":{"x":174781.46999999974,"y":2571113.4300000034}},{"attributes":{"ID":575279,"DIS_CODE":0,"TOWNNAME":"下營區","LI":"後街里","LIN":"23鄰","STREET":"大愛街","SECT":" ","MAREA":" ","LANE":" ","ALLEY":" ","HOUSE_NO":"２７號","E_COORD97":174781.20999999999,"N_COORD97":2571117.1099999999,"ADDRESS":"大愛街２７號","OBJECTID":575252},"geometry":{"x":174781.21000000089,"y":2571117.1099999994}},{"attributes":{"ID":575280,"DIS_CODE":0,"TOWNNAME":"下營區","LI":"後街里","LIN":"23鄰","STREET":"大愛街","SECT":" ","MAREA":" ","LANE":" ","ALLEY":" ","HOUSE_NO":"２９號","E_COORD97":174780.81,"N_COORD97":2571121.3599999999,"ADDRESS":"大愛街２９號","OBJECTID":575253},"geometry":{"x":174780.80999999959,"y":2571121.3600000013}},{"attributes":{"ID":575281,"DIS_CODE":0,"TOWNNAME":"下營區","LI":"後街里","LIN":"23鄰","STREET":"大愛街","SECT":" ","MAREA":" ","LANE":" ","ALLEY":" ","HOUSE_NO":"３１號","E_COORD97":174780.41,"N_COORD97":2571125.29,"ADDRESS":"大愛街３１號","OBJECTID":575254},"geometry":{"x":174780.41000000015,"y":2571125.290000001}},{"attributes":{"ID":575282,"DIS_CODE":0,"TOWNNAME":"下營區","LI":"後街里","LIN":"23鄰","STREET":"大愛街","SECT":" ","MAREA":" ","LANE":" ","ALLEY":" ","HOUSE_NO":"３３號","E_COORD97":174780.60000000001,"N_COORD97":2571130.3999999999,"ADDRESS":"大愛街３３號","OBJECTID":575255},"geometry":{"x":174780.59999999963,"y":2571130.4000000004}},{"attributes":{"ID":575283,"DIS_CODE":0,"TOWNNAME":"下營區","LI":"後街里","LIN":"23鄰","STREET":"大愛街","SECT":" ","MAREA":" ","LANE":" ","ALLEY":" ","HOUSE_NO":"３號","E_COORD97":174784.89000000001,"N_COORD97":2571068.8500000001,"ADDRESS":"大愛街３號","OBJECTID":575256},"geometry":{"x":174784.8900000006,"y":2571068.8499999996}},{"attributes":{"ID":575284,"DIS_CODE":0,"TOWNNAME":"下營區","LI":"後街里","LIN":"23鄰","STREET":"大愛街","SECT":" ","MAREA":" ","LANE":" ","ALLEY":" ","HOUSE_NO":"５號","E_COORD97":174784.5,"N_COORD97":2571072.8300000001,"ADDRESS":"大愛街５號","OBJECTID":575257},"geometry":{"x":174784.50000000093,"y":2571072.8300000001}},{"attributes":{"ID":575285,"DIS_CODE":0,"TOWNNAME":"下營區","LI":"後街里","LIN":"23鄰","STREET":"大愛街","SECT":" ","MAREA":" ","LANE":" ","ALLEY":" ","HOUSE_NO":"７號","E_COORD97":174784.28,"N_COORD97":2571076.7799999998,"ADDRESS":"大愛街７號","OBJECTID":575258},"geometry":{"x":174784.28000000119,"y":2571076.7800000031}},{"attributes":{"ID":575286,"DIS_CODE":0,"TOWNNAME":"下營區","LI":"後街里","LIN":"23鄰","STREET":"大愛街","SECT":" ","MAREA":" ","LANE":" ","ALLEY":" ","HOUSE_NO":"９號","E_COORD97":174783.95000000001,"N_COORD97":2571080.7400000002,"ADDRESS":"大愛街９號","OBJECTID":575259},"geometry":{"x":174783.95000000019,"y":2571080.7400000002}},{"attributes":{"ID":575287,"DIS_CODE":0,"TOWNNAME":"永康區","LI":"永康里","LIN":"23鄰","STREET":"中山南路","SECT":" ","MAREA":" ","LANE":" ","ALLEY":" ","HOUSE_NO":"５５９號","E_COORD97":173439.60999999999,"N_COORD97":2547178.5,"ADDRESS":"中山南路５５９號","OBJECTID":575260},"geometry":{"x":173439.61000000127,"y":2547178.5000000019}},{"attributes":{"ID":575288,"DIS_CODE":0,"TOWNNAME":"下營區","LI":"營前里","LIN":"23鄰","STREET":"中山路","SECT":"二段","MAREA":" ","LANE":" ","ALLEY":" ","HOUSE_NO":"１３７號","E_COORD97":174514.32000000001,"N_COORD97":2570113.8100000001,"ADDRESS":"中山路二段１３７號","OBJECTID":575261},"geometry":{"x":174514.32000000123,"y":2570113.8100000005}},{"attributes":{"ID":575289,"DIS_CODE":0,"TOWNNAME":"下營區","LI":"營前里","LIN":"23鄰","STREET":"中山路","SECT":"二段","MAREA":" ","LANE":" ","ALLEY":" ","HOUSE_NO":"１８９號","E_COORD97":174623.19,"N_COORD97":2569877.8500000001,"ADDRESS":"中山路二段１８９號","OBJECTID":575262},"geometry":{"x":174623.19000000041,"y":2569877.8500000015}},{"attributes":{"ID":575290,"DIS_CODE":0,"TOWNNAME":"下營區","LI":"營前里","LIN":"23鄰","STREET":"中山路","SECT":"二段","MAREA":" ","LANE":" ","ALLEY":" ","HOUSE_NO":"１９１號","E_COORD97":174626.79000000001,"N_COORD97":2569871.6600000001,"ADDRESS":"中山路二段１９１號","OBJECTID":575263},"geometry":{"x":174626.79000000097,"y":2569871.6600000039}},{"attributes":{"ID":575291,"DIS_CODE":0,"TOWNNAME":"下營區","LI":"營前里","LIN":"23鄰","STREET":"中山路","SECT":"二段","MAREA":" ","LANE":" ","ALLEY":" ","HOUSE_NO":"１９３號","E_COORD97":174629.48000000001,"N_COORD97":2569862.71,"ADDRESS":"中山路二段１９３號","OBJECTID":575264},"geometry":{"x":174629.48000000045,"y":2569862.7100000028}},{"attributes":{"ID":575292,"DIS_CODE":0,"TOWNNAME":"下營區","LI":"營前里","LIN":"23鄰","STREET":"中山路","SECT":"二段","MAREA":" ","LANE":" ","ALLEY":" ","HOUSE_NO":"１９５號","E_COORD97":174631.26999999999,"N_COORD97":2569857.3900000001,"ADDRESS":"中山路二段１９５號","OBJECTID":575265},"geometry":{"x":174631.27000000048,"y":2569857.3900000025}},{"attributes":{"ID":575293,"DIS_CODE":0,"TOWNNAME":"下營區","LI":"營前里","LIN":"23鄰","STREET":"中山路","SECT":"二段","MAREA":" ","LANE":" ","ALLEY":" ","HOUSE_NO":"１９７號","E_COORD97":174633.98000000001,"N_COORD97":2569851.54,"ADDRESS":"中山路二段１９７號","OBJECTID":575266},"geometry":{"x":174633.98000000138,"y":2569851.540000001}},{"attributes":{"ID":575294,"DIS_CODE":0,"TOWNNAME":"下營區","LI":"營前里","LIN":"23鄰","STREET":"中山路","SECT":"二段","MAREA":" ","LANE":" ","ALLEY":" ","HOUSE_NO":"２０１號","E_COORD97":174643.07999999999,"N_COORD97":2569835.7200000002,"ADDRESS":"中山路二段２０１號","OBJECTID":575267},"geometry":{"x":174643.08000000101,"y":2569835.7200000025}},{"attributes":{"ID":575295,"DIS_CODE":0,"TOWNNAME":"下營區","LI":"營前里","LIN":"23鄰","STREET":"中山路","SECT":"二段","MAREA":" ","LANE":" ","ALLEY":" ","HOUSE_NO":"２０７號","E_COORD97":174646.01999999999,"N_COORD97":2569823.0099999998,"ADDRESS":"中山路二段２０７號","OBJECTID":575268},"geometry":{"x":174646.02000000142,"y":2569823.0100000016}},{"attributes":{"ID":575296,"DIS_CODE":0,"TOWNNAME":"下營區","LI":"營前里","LIN":"23鄰","STREET":"中山路","SECT":"二段","MAREA":" ","LANE":" ","ALLEY":" ","HOUSE_NO":"２０９號","E_COORD97":174658.60999999999,"N_COORD97":2569816.54,"ADDRESS":"中山路二段２０９號","OBJECTID":575269},"geometry":{"x":174658.61000000127,"y":2569816.5399999991}},{"attributes":{"ID":575297,"DIS_CODE":0,"TOWNNAME":"下營區","LI":"營前里","LIN":"23鄰","STREET":"中山路","SECT":"二段","MAREA":" ","LANE":" ","ALLEY":" ","HOUSE_NO":"２１１號","E_COORD97":174665.82000000001,"N_COORD97":2569797.6099999999,"ADDRESS":"中山路二段２１１號","OBJECTID":575270},"geometry":{"x":174665.82000000123,"y":2569797.6100000013}},{"attributes":{"ID":575298,"DIS_CODE":0,"TOWNNAME":"下營區","LI":"營前里","LIN":"23鄰","STREET":"中山路","SECT":"二段","MAREA":" ","LANE":" ","ALLEY":" ","HOUSE_NO":"２１３號","E_COORD97":174667.56,"N_COORD97":2569793.04,"ADDRESS":"中山路二段２１３號","OBJECTID":575271},"geometry":{"x":174667.55999999959,"y":2569793.0399999972}},{"attributes":{"ID":575299,"DIS_CODE":0,"TOWNNAME":"下營區","LI":"營前里","LIN":"23鄰","STREET":"中山路","SECT":"二段","MAREA":" ","LANE":" ","ALLEY":" ","HOUSE_NO":"２１９號","E_COORD97":174670.23000000001,"N_COORD97":2569773.3999999999,"ADDRESS":"中山路二段２１９號","OBJECTID":575272},"geometry":{"x":174670.23000000045,"y":2569773.4000000022}},{"attributes":{"ID":575300,"DIS_CODE":0,"TOWNNAME":"下營區","LI":"營前里","LIN":"23鄰","STREET":"中山路","SECT":"二段","MAREA":" ","LANE":" ","ALLEY":" ","HOUSE_NO":"２２１號","E_COORD97":174692.98000000001,"N_COORD97":2569773.5699999998,"ADDRESS":"中山路二段２２１號","OBJECTID":575273},"geometry":{"x":174692.98000000231,"y":2569773.5700000003}},{"attributes":{"ID":575301,"DIS_CODE":0,"TOWNNAME":"下營區","LI":"營前里","LIN":"23鄰","STREET":"中山路","SECT":"二段","MAREA":" ","LANE":" ","ALLEY":" ","HOUSE_NO":"２４１號","E_COORD97":174708.82000000001,"N_COORD97":2569694.8199999998,"ADDRESS":"中山路二段２４１號","OBJECTID":575274},"geometry":{"x":174708.8200000003,"y":2569694.8200000022}},{"attributes":{"ID":575302,"DIS_CODE":0,"TOWNNAME":"下營區","LI":"營前里","LIN":"23鄰","STREET":"中山路","SECT":"二段","MAREA":" ","LANE":" ","ALLEY":" ","HOUSE_NO":"２４３號","E_COORD97":174723.5,"N_COORD97":2569685.48,"ADDRESS":"中山路二段２４３號","OBJECTID":575275},"geometry":{"x":174723.50000000093,"y":2569685.4800000004}},{"attributes":{"ID":575303,"DIS_CODE":0,"TOWNNAME":"善化區","LI":"東關里","LIN":"20鄰","STREET":"中山路","SECT":" ","MAREA":" ","LANE":" ","ALLEY":" ","HOUSE_NO":"３６５號","E_COORD97":177526.73999999999,"N_COORD97":2559089.5,"ADDRESS":"中山路３６５號","OBJECTID":575276},"geometry":{"x":177526.74000000022,"y":2559089.5}},{"attributes":{"ID":575304,"DIS_CODE":0,"TOWNNAME":"下營區","LI":"仁里里","LIN":"23鄰","STREET":"仁中街","SECT":" ","MAREA":" ","LANE":" ","ALLEY":" ","HOUSE_NO":"７８號","E_COORD97":174444.53,"N_COORD97":2569834.79,"ADDRESS":"仁中街７８號","OBJECTID":575277},"geometry":{"x":174444.53000000026,"y":2569834.7899999991}},{"attributes":{"ID":575305,"DIS_CODE":0,"TOWNNAME":"下營區","LI":"仁里里","LIN":"23鄰","STREET":"仁中街","SECT":" ","MAREA":" ","LANE":" ","ALLEY":" ","HOUSE_NO":"８２號","E_COORD97":174412.04000000001,"N_COORD97":2569841.6200000001,"ADDRESS":"仁中街８２號","OBJECTID":575278},"geometry":{"x":174412.04000000004,"y":2569841.620000001}},{"attributes":{"ID":575306,"DIS_CODE":0,"TOWNNAME":"永康區","LI":"東灣里","LIN":"23鄰","STREET":"大灣一街","SECT":" ","MAREA":" ","LANE":" ","ALLEY":" ","HOUSE_NO":"２９３號","E_COORD97":175074.04999999999,"N_COORD97":2544773.79,"ADDRESS":"大灣一街２９３號","OBJECTID":575279},"geometry":{"x":175074.04999999981,"y":2544773.7899999972}},{"attributes":{"ID":575307,"DIS_CODE":0,"TOWNNAME":"永康區","LI":"東灣里","LIN":"23鄰","STREET":"大灣二街","SECT":" ","MAREA":" ","LANE":" ","ALLEY":" ","HOUSE_NO":"６號","E_COORD97":174995.41,"N_COORD97":2544738.1400000001,"ADDRESS":"大灣二街６號","OBJECTID":575280},"geometry":{"x":174995.41000000108,"y":2544738.1400000006}},{"attributes":{"ID":575308,"DIS_CODE":0,"TOWNNAME":"永康區","LI":"東灣里","LIN":"23鄰","STREET":"大灣二街","SECT":" ","MAREA":" ","LANE":" ","ALLEY":" ","HOUSE_NO":"４６號","E_COORD97":174879.81,"N_COORD97":2544744.0499999998,"ADDRESS":"大灣二街４６號","OBJECTID":575281},"geometry":{"x":174879.81000000052,"y":2544744.0500000026}},{"attributes":{"ID":575309,"DIS_CODE":0,"TOWNNAME":"永康區","LI":"尚頂里","LIN":"23鄰","STREET":"南台街","SECT":" ","MAREA":" ","LANE":" ","ALLEY":" ","HOUSE_NO":"１５號","E_COORD97":170398.23999999999,"N_COORD97":2546941.25,"ADDRESS":"南台街１５號","OBJECTID":575282},"geometry":{"x":170398.24000000022,"y":2546941.25}},{"attributes":{"ID":575310,"DIS_CODE":0,"TOWNNAME":"永康區","LI":"尚頂里","LIN":"23鄰","STREET":"南台街","SECT":" ","MAREA":" ","LANE":" ","ALLEY":" ","HOUSE_NO":"６３號","E_COORD97":170279.89999999999,"N_COORD97":2546986.2400000002,"ADDRESS":"南台街６３號","OBJECTID":575283},"geometry":{"x":170279.9000000013,"y":2546986.2400000039}},{"attributes":{"ID":575311,"DIS_CODE":0,"TOWNNAME":"永康區","LI":"尚頂里","LIN":"23鄰","STREET":"南台街","SECT":" ","MAREA":" ","LANE":" ","ALLEY":" ","HOUSE_NO":"２５號","E_COORD97":170375.92999999999,"N_COORD97":2546950.1600000001,"ADDRESS":"南台街２５號","OBJECTID":575284},"geometry":{"x":170375.9299999997,"y":2546950.160000002}},{"attributes":{"ID":575312,"DIS_CODE":0,"TOWNNAME":"永康區","LI":"尚頂里","LIN":"23鄰","STREET":"南台街","SECT":" ","MAREA":" ","LANE":" ","ALLEY":" ","HOUSE_NO":"２３號","E_COORD97":170379.34,"N_COORD97":2546948.1600000001,"ADDRESS":"南台街２３號","OBJECTID":575285},"geometry":{"x":170379.34000000078,"y":2546948.1600000001}},{"attributes":{"ID":575313,"DIS_CODE":0,"TOWNNAME":"永康區","LI":"尚頂里","LIN":"23鄰","STREET":"南台街","SECT":" ","MAREA":" ","LANE":" ","ALLEY":" ","HOUSE_NO":"５２號之１","E_COORD97":170349.41,"N_COORD97":2546982.8399999999,"ADDRESS":"南台街５２號之１","OBJECTID":575286},"geometry":{"x":170349.41000000015,"y":2546982.8400000017}},{"attributes":{"ID":575314,"DIS_CODE":0,"TOWNNAME":"永康區","LI":"尚頂里","LIN":"23鄰","STREET":"南台街","SECT":" ","MAREA":" ","LANE":" ","ALLEY":" ","HOUSE_NO":"２８號之１","E_COORD97":170425.75,"N_COORD97":2546954.0499999998,"ADDRESS":"南台街２８號之１","OBJECTID":575287},"geometry":{"x":170425.75000000093,"y":2546954.0500000045}},{"attributes":{"ID":575315,"DIS_CODE":0,"TOWNNAME":"永康區","LI":"西灣里","LIN":"23鄰","STREET":"國光七街","SECT":" ","MAREA":" ","LANE":" ","ALLEY":" ","HOUSE_NO":"１７號","E_COORD97":174303.88,"N_COORD97":2545519.7599999998,"ADDRESS":"國光七街１７號","OBJECTID":575288},"geometry":{"x":174303.88000000082,"y":2545519.7599999998}},{"attributes":{"ID":575316,"DIS_CODE":0,"TOWNNAME":"永康區","LI":"正強里","LIN":"23鄰","STREET":"自強路","SECT":" ","MAREA":" ","LANE":" ","ALLEY":" ","HOUSE_NO":"３０３號","E_COORD97":173394.97,"N_COORD97":2547696.25,"ADDRESS":"自強路３０３號","OBJECTID":575289},"geometry":{"x":173394.96999999974,"y":2547696.25}},{"attributes":{"ID":575317,"DIS_CODE":0,"TOWNNAME":"永康區","LI":"正強里","LIN":"23鄰","STREET":"自強路","SECT":" ","MAREA":" ","LANE":" ","ALLEY":" ","HOUSE_NO":"３０５號","E_COORD97":173399.39999999999,"N_COORD97":2547699.8799999999,"ADDRESS":"自強路３０５號","OBJECTID":575290},"geometry":{"x":173399.40000000037,"y":2547699.8800000008}},{"attributes":{"ID":575318,"DIS_CODE":0,"TOWNNAME":"永康區","LI":"北灣里","LIN":"23鄰","STREET":"大灣路","SECT":" ","MAREA":" ","LANE":" ","ALLEY":" ","HOUSE_NO":"３２號","E_COORD97":175309.85999999999,"N_COORD97":2545918.0499999998,"ADDRESS":"大灣路３２號","OBJECTID":575291},"geometry":{"x":175309.86000000034,"y":2545918.0500000026}},{"attributes":{"ID":575319,"DIS_CODE":0,"TOWNNAME":"永康區","LI":"北灣里","LIN":"23鄰","STREET":"大灣路","SECT":" ","MAREA":" ","LANE":" ","ALLEY":" ","HOUSE_NO":"１８號","E_COORD97":175324.92000000001,"N_COORD97":2545944.29,"ADDRESS":"大灣路１８號","OBJECTID":575292},"geometry":{"x":175324.91999999993,"y":2545944.290000001}},{"attributes":{"ID":575320,"DIS_CODE":0,"TOWNNAME":"永康區","LI":"甲頂里","LIN":"23鄰","STREET":"中正南路","SECT":" ","MAREA":" ","LANE":" ","ALLEY":" ","HOUSE_NO":"１０６號","E_COORD97":169674.76999999999,"N_COORD97":2546875.4100000001,"ADDRESS":"中正南路１０６號","OBJECTID":575293},"geometry":{"x":169674.77000000048,"y":2546875.4100000001}},{"attributes":{"ID":575321,"DIS_CODE":0,"TOWNNAME":"永康區","LI":"北灣里","LIN":"23鄰","STREET":"大灣路","SECT":" ","MAREA":" ","LANE":" ","ALLEY":" ","HOUSE_NO":"２２號","E_COORD97":175320.45999999999,"N_COORD97":2545936.7999999998,"ADDRESS":"大灣路２２號","OBJECTID":575294},"geometry":{"x":175320.46000000089,"y":2545936.8000000026}},{"attributes":{"ID":575322,"DIS_CODE":0,"TOWNNAME":"善化區","LI":"光文里","LIN":"23鄰","STREET":"公園路","SECT":" ","MAREA":" ","LANE":" ","ALLEY":" ","HOUSE_NO":"６號","E_COORD97":178351.92000000001,"N_COORD97":2559195.9399999999,"ADDRESS":"公園路６號","OBJECTID":575295},"geometry":{"x":178351.91999999993,"y":2559195.9400000032}},{"attributes":{"ID":575323,"DIS_CODE":0,"TOWNNAME":"永康區","LI":"北灣里","LIN":"23鄰","STREET":"大灣路","SECT":" ","MAREA":" ","LANE":" ","ALLEY":" ","HOUSE_NO":"２０號","E_COORD97":175322.67000000001,"N_COORD97":2545940.29,"ADDRESS":"大灣路２０號","OBJECTID":575296},"geometry":{"x":175322.66999999993,"y":2545940.2900000028}},{"attributes":{"ID":575324,"DIS_CODE":0,"TOWNNAME":"永康區","LI":"北灣里","LIN":"23鄰","STREET":"大灣路","SECT":" ","MAREA":" ","LANE":" ","ALLEY":" ","HOUSE_NO":"１４號","E_COORD97":175329.16,"N_COORD97":2545951.54,"ADDRESS":"大灣路１４號","OBJECTID":575297},"geometry":{"x":175329.16000000108,"y":2545951.5399999991}},{"attributes":{"ID":575325,"DIS_CODE":0,"TOWNNAME":"永康區","LI":"正強里","LIN":"23鄰","STREET":"正強街","SECT":" ","MAREA":" ","LANE":" ","ALLEY":" ","HOUSE_NO":"２２７號","E_COORD97":173288.20000000001,"N_COORD97":2547745.9399999999,"ADDRESS":"正強街２２７號","OBJECTID":575298},"geometry":{"x":173288.20000000112,"y":2547745.9399999995}},{"attributes":{"ID":575326,"DIS_CODE":0,"TOWNNAME":"永康區","LI":"北灣里","LIN":"23鄰","STREET":"大灣路","SECT":" ","MAREA":" ","LANE":" ","ALLEY":" ","HOUSE_NO":"２４號","E_COORD97":175318.26000000001,"N_COORD97":2545932.7999999998,"ADDRESS":"大灣路２４號","OBJECTID":575299},"geometry":{"x":175318.26000000071,"y":2545932.8000000026}},{"attributes":{"ID":575327,"DIS_CODE":0,"TOWNNAME":"永康區","LI":"北灣里","LIN":"23鄰","STREET":"大灣路","SECT":" ","MAREA":" ","LANE":" ","ALLEY":" ","HOUSE_NO":"１６號","E_COORD97":175326.85999999999,"N_COORD97":2545947.79,"ADDRESS":"大灣路１６號","OBJECTID":575300},"geometry":{"x":175326.86000000034,"y":2545947.790000001}},{"attributes":{"ID":575328,"DIS_CODE":0,"TOWNNAME":"佳里區","LI":"六安里","LIN":"23鄰","STREET":"安北路","SECT":" ","MAREA":" ","LANE":" ","ALLEY":" ","HOUSE_NO":"１１６號","E_COORD97":165754.72,"N_COORD97":2563189.96,"ADDRESS":"安北路１１６號","OBJECTID":575301},"geometry":{"x":165754.71999999974,"y":2563189.9600000009}},{"attributes":{"ID":575329,"DIS_CODE":0,"TOWNNAME":"佳里區","LI":"六安里","LIN":"23鄰","STREET":"安北路","SECT":" ","MAREA":" ","LANE":" ","ALLEY":" ","HOUSE_NO":"１１８號","E_COORD97":165772.35000000001,"N_COORD97":2563215.04,"ADDRESS":"安北路１１８號","OBJECTID":575302},"geometry":{"x":165772.34999999963,"y":2563215.0399999991}},{"attributes":{"ID":575330,"DIS_CODE":0,"TOWNNAME":"佳里區","LI":"六安里","LIN":"23鄰","STREET":"安北路","SECT":" ","MAREA":" ","LANE":" ","ALLEY":" ","HOUSE_NO":"１２０號","E_COORD97":165731.41,"N_COORD97":2563231.0800000001,"ADDRESS":"安北路１２０號","OBJECTID":575303},"geometry":{"x":165731.41000000108,"y":2563231.0800000019}},{"attributes":{"ID":575331,"DIS_CODE":0,"TOWNNAME":"佳里區","LI":"六安里","LIN":"23鄰","STREET":"安北路","SECT":" ","MAREA":" ","LANE":" ","ALLEY":" ","HOUSE_NO":"１２２號","E_COORD97":165731.67000000001,"N_COORD97":2563246.6499999999,"ADDRESS":"安北路１２２號","OBJECTID":575304},"geometry":{"x":165731.66999999993,"y":2563246.6500000004}},{"attributes":{"ID":575332,"DIS_CODE":0,"TOWNNAME":"佳里區","LI":"六安里","LIN":"23鄰","STREET":"安北路","SECT":" ","MAREA":" ","LANE":" ","ALLEY":" ","HOUSE_NO":"１５０號","E_COORD97":165659.92999999999,"N_COORD97":2563207.96,"ADDRESS":"安北路１５０號","OBJECTID":575305},"geometry":{"x":165659.9299999997,"y":2563207.959999999}},{"attributes":{"ID":575333,"DIS_CODE":0,"TOWNNAME":"佳里區","LI":"六安里","LIN":"23鄰","STREET":"安北路","SECT":" ","MAREA":" ","LANE":" ","ALLEY":" ","HOUSE_NO":"１９６號","E_COORD97":165404.41,"N_COORD97":2563352.8799999999,"ADDRESS":"安北路１９６號","OBJECTID":575306},"geometry":{"x":165404.41000000015,"y":2563352.8800000008}},{"attributes":{"ID":575334,"DIS_CODE":0,"TOWNNAME":"佳里區","LI":"安西里","LIN":"23鄰","STREET":"安北路","SECT":" ","MAREA":" ","LANE":" ","ALLEY":" ","HOUSE_NO":"２１０號","E_COORD97":165333.87,"N_COORD97":2563154.3599999999,"ADDRESS":"安北路２１０號","OBJECTID":575307},"geometry":{"x":165333.87000000011,"y":2563154.3600000013}},{"attributes":{"ID":575335,"DIS_CODE":0,"TOWNNAME":"佳里區","LI":"安西里","LIN":"23鄰","STREET":"安北路","SECT":" ","MAREA":" ","LANE":" ","ALLEY":" ","HOUSE_NO":"２２０號","E_COORD97":165315.64999999999,"N_COORD97":2563175.8900000001,"ADDRESS":"安北路２２０號","OBJECTID":575308},"geometry":{"x":165315.65000000224,"y":2563175.8900000025}},{"attributes":{"ID":575336,"DIS_CODE":0,"TOWNNAME":"佳里區","LI":"安西里","LIN":"23鄰","STREET":"安北路","SECT":" ","MAREA":" ","LANE":" ","ALLEY":" ","HOUSE_NO":"２２２號","E_COORD97":165310.54999999999,"N_COORD97":2563174.8100000001,"ADDRESS":"安北路２２２號","OBJECTID":575309},"geometry":{"x":165310.55000000168,"y":2563174.8100000042}},{"attributes":{"ID":575337,"DIS_CODE":0,"TOWNNAME":"佳里區","LI":"安西里","LIN":"23鄰","STREET":"安北路","SECT":" ","MAREA":" ","LANE":" ","ALLEY":" ","HOUSE_NO":"２２６號","E_COORD97":165305.45000000001,"N_COORD97":2563173.73,"ADDRESS":"安北路２２６號","OBJECTID":575310},"geometry":{"x":165305.45000000112,"y":2563173.7300000004}},{"attributes":{"ID":575338,"DIS_CODE":0,"TOWNNAME":"佳里區","LI":"安西里","LIN":"23鄰","STREET":"安北路","SECT":" ","MAREA":" ","LANE":" ","ALLEY":" ","HOUSE_NO":"２２８號","E_COORD97":165300.34,"N_COORD97":2563172.6499999999,"ADDRESS":"安北路２２８號","OBJECTID":575311},"geometry":{"x":165300.34000000078,"y":2563172.6500000041}},{"attributes":{"ID":575339,"DIS_CODE":0,"TOWNNAME":"佳里區","LI":"安西里","LIN":"23鄰","STREET":"安北路","SECT":" ","MAREA":" ","LANE":" ","ALLEY":" ","HOUSE_NO":"２３０號","E_COORD97":165295.23999999999,"N_COORD97":2563171.5699999998,"ADDRESS":"安北路２３０號","OBJECTID":575312},"geometry":{"x":165295.24000000115,"y":2563171.5700000003}},{"attributes":{"ID":575340,"DIS_CODE":0,"TOWNNAME":"佳里區","LI":"安西里","LIN":"23鄰","STREET":"安北路","SECT":" ","MAREA":" ","LANE":" ","ALLEY":" ","HOUSE_NO":"２３２號","E_COORD97":165290.14000000001,"N_COORD97":2563170.4900000002,"ADDRESS":"安北路２３２號","OBJECTID":575313},"geometry":{"x":165290.1400000006,"y":2563170.4900000021}},{"attributes":{"ID":575341,"DIS_CODE":0,"TOWNNAME":"佳里區","LI":"安西里","LIN":"23鄰","STREET":"安北路","SECT":" ","MAREA":" ","LANE":" ","ALLEY":" ","HOUSE_NO":"２３６號","E_COORD97":165313.51000000001,"N_COORD97":2563150.04,"ADDRESS":"安北路２３６號","OBJECTID":575314},"geometry":{"x":165313.50999999978,"y":2563150.0399999991}},{"attributes":{"ID":575342,"DIS_CODE":0,"TOWNNAME":"佳里區","LI":"安西里","LIN":"23鄰","STREET":"安北路","SECT":" ","MAREA":" ","LANE":" ","ALLEY":" ","HOUSE_NO":"２３８號","E_COORD97":165319.06,"N_COORD97":2563151.9700000002,"ADDRESS":"安北路２３８號","OBJECTID":575315},"geometry":{"x":165319.06000000052,"y":2563151.9700000025}},{"attributes":{"ID":575343,"DIS_CODE":0,"TOWNNAME":"佳里區","LI":"建南里","LIN":"23鄰","STREET":"成功路","SECT":" ","MAREA":" ","LANE":" ","ALLEY":" ","HOUSE_NO":"１６７號","E_COORD97":165411.54000000001,"N_COORD97":2561233.0499999998,"ADDRESS":"成功路１６７號","OBJECTID":575316},"geometry":{"x":165411.54000000097,"y":2561233.0500000007}},{"attributes":{"ID":575344,"DIS_CODE":0,"TOWNNAME":"佳里區","LI":"建南里","LIN":"23鄰","STREET":"成功路","SECT":" ","MAREA":" ","LANE":" ","ALLEY":" ","HOUSE_NO":"１６９號","E_COORD97":165410.39999999999,"N_COORD97":2561228.5800000001,"ADDRESS":"成功路１６９號","OBJECTID":575317},"geometry":{"x":165410.39999999944,"y":2561228.5800000001}},{"attributes":{"ID":575345,"DIS_CODE":0,"TOWNNAME":"佳里區","LI":"建南里","LIN":"23鄰","STREET":"成功路","SECT":" ","MAREA":" ","LANE":" ","ALLEY":" ","HOUSE_NO":"１７１號","E_COORD97":165409.10000000001,"N_COORD97":2561224.8999999999,"ADDRESS":"成功路１７１號","OBJECTID":575318},"geometry":{"x":165409.10000000056,"y":2561224.9000000041}},{"attributes":{"ID":575346,"DIS_CODE":0,"TOWNNAME":"佳里區","LI":"建南里","LIN":"23鄰","STREET":"成功路","SECT":" ","MAREA":" ","LANE":" ","ALLEY":" ","HOUSE_NO":"１７３號","E_COORD97":165407.57000000001,"N_COORD97":2561221.1899999999,"ADDRESS":"成功路１７３號","OBJECTID":575319},"geometry":{"x":165407.57000000216,"y":2561221.1899999995}},{"attributes":{"ID":575347,"DIS_CODE":0,"TOWNNAME":"佳里區","LI":"建南里","LIN":"23鄰","STREET":"成功路","SECT":" ","MAREA":" ","LANE":" ","ALLEY":" ","HOUSE_NO":"１７５號","E_COORD97":165406.20000000001,"N_COORD97":2561217.6899999999,"ADDRESS":"成功路１７５號","OBJECTID":575320},"geometry":{"x":165406.20000000019,"y":2561217.6899999995}},{"attributes":{"ID":575348,"DIS_CODE":0,"TOWNNAME":"佳里區","LI":"建南里","LIN":"23鄰","STREET":"成功路","SECT":" ","MAREA":" ","LANE":" ","ALLEY":" ","HOUSE_NO":"１７７號","E_COORD97":165404.78,"N_COORD97":2561213.3599999999,"ADDRESS":"成功路１７７號","OBJECTID":575321},"geometry":{"x":165404.78000000119,"y":2561213.3599999994}},{"attributes":{"ID":575349,"DIS_CODE":0,"TOWNNAME":"佳里區","LI":"建南里","LIN":"23鄰","STREET":"成功路","SECT":" ","MAREA":" ","LANE":" ","ALLEY":" ","HOUSE_NO":"１７９號","E_COORD97":165403.91,"N_COORD97":2561209.6099999999,"ADDRESS":"成功路１７９號","OBJECTID":575322},"geometry":{"x":165403.91000000108,"y":2561209.6100000013}},{"attributes":{"ID":575350,"DIS_CODE":0,"TOWNNAME":"佳里區","LI":"建南里","LIN":"23鄰","STREET":"成功路","SECT":" ","MAREA":" ","LANE":" ","ALLEY":" ","HOUSE_NO":"１８１號","E_COORD97":165402.62,"N_COORD97":2561205.8300000001,"ADDRESS":"成功路１８１號","OBJECTID":575323},"geometry":{"x":165402.62000000104,"y":2561205.8300000019}},{"attributes":{"ID":575351,"DIS_CODE":0,"TOWNNAME":"佳里區","LI":"建南里","LIN":"23鄰","STREET":"成功路","SECT":" ","MAREA":" ","LANE":" ","ALLEY":" ","HOUSE_NO":"１８３號","E_COORD97":165401.13,"N_COORD97":2561202.04,"ADDRESS":"成功路１８３號","OBJECTID":575324},"geometry":{"x":165401.12999999989,"y":2561202.0400000028}},{"attributes":{"ID":575352,"DIS_CODE":0,"TOWNNAME":"佳里區","LI":"建南里","LIN":"23鄰","STREET":"成功路","SECT":" ","MAREA":" ","LANE":" ","ALLEY":" ","HOUSE_NO":"１８５號","E_COORD97":165400.03,"N_COORD97":2561198.04,"ADDRESS":"成功路１８５號","OBJECTID":575325},"geometry":{"x":165400.03000000119,"y":2561198.0399999991}},{"attributes":{"ID":575353,"DIS_CODE":0,"TOWNNAME":"佳里區","LI":"建南里","LIN":"23鄰","STREET":"成功路","SECT":" ","MAREA":" ","LANE":" ","ALLEY":" ","HOUSE_NO":"１８７號","E_COORD97":165398.42999999999,"N_COORD97":2561193.8999999999,"ADDRESS":"成功路１８７號","OBJECTID":575326},"geometry":{"x":165398.43000000063,"y":2561193.9000000004}},{"attributes":{"ID":575354,"DIS_CODE":0,"TOWNNAME":"佳里區","LI":"建南里","LIN":"23鄰","STREET":"成功路","SECT":" ","MAREA":" ","LANE":" ","ALLEY":" ","HOUSE_NO":"１８９號","E_COORD97":165397.03,"N_COORD97":2561190.25,"ADDRESS":"成功路１８９號","OBJECTID":575327},"geometry":{"x":165397.03000000026,"y":2561190.25}},{"attributes":{"ID":575355,"DIS_CODE":0,"TOWNNAME":"佳里區","LI":"建南里","LIN":"23鄰","STREET":"成功路","SECT":" ","MAREA":" ","LANE":" ","ALLEY":" ","HOUSE_NO":"１９１號","E_COORD97":165395.67000000001,"N_COORD97":2561186.4399999999,"ADDRESS":"成功路１９１號","OBJECTID":575328},"geometry":{"x":165395.66999999993,"y":2561186.4400000032}},{"attributes":{"ID":575356,"DIS_CODE":0,"TOWNNAME":"佳里區","LI":"建南里","LIN":"23鄰","STREET":"成功路","SECT":" ","MAREA":" ","LANE":" ","ALLEY":" ","HOUSE_NO":"１９３號","E_COORD97":165394.12,"N_COORD97":2561183.1400000001,"ADDRESS":"成功路１９３號","OBJECTID":575329},"geometry":{"x":165394.12000000104,"y":2561183.1400000025}},{"attributes":{"ID":575357,"DIS_CODE":0,"TOWNNAME":"佳里區","LI":"建南里","LIN":"23鄰","STREET":"成功路","SECT":" ","MAREA":" ","LANE":" ","ALLEY":" ","HOUSE_NO":"１９５號","E_COORD97":165393.44,"N_COORD97":2561179.2599999998,"ADDRESS":"成功路１９５號","OBJECTID":575330},"geometry":{"x":165393.44000000227,"y":2561179.2599999998}},{"attributes":{"ID":575358,"DIS_CODE":0,"TOWNNAME":"佳里區","LI":"建南里","LIN":"23鄰","STREET":"成功路","SECT":" ","MAREA":" ","LANE":" ","ALLEY":" ","HOUSE_NO":"１９７號","E_COORD97":165391.75,"N_COORD97":2561175.2999999998,"ADDRESS":"成功路１９７號","OBJECTID":575331},"geometry":{"x":165391.75,"y":2561175.3000000026}},{"attributes":{"ID":575359,"DIS_CODE":0,"TOWNNAME":"佳里區","LI":"建南里","LIN":"23鄰","STREET":"成功路","SECT":" ","MAREA":" ","LANE":" ","ALLEY":" ","HOUSE_NO":"１９９號","E_COORD97":165392.03,"N_COORD97":2561169.9900000002,"ADDRESS":"成功路１９９號","OBJECTID":575332},"geometry":{"x":165392.03000000026,"y":2561169.9900000021}},{"attributes":{"ID":575360,"DIS_CODE":0,"TOWNNAME":"善化區","LI":"坐駕里","LIN":"13鄰","STREET":"建國路","SECT":" ","MAREA":" ","LANE":" ","ALLEY":" ","HOUSE_NO":"７６號","E_COORD97":178030.01000000001,"N_COORD97":2558763.5299999998,"ADDRESS":"建國路７６號","OBJECTID":575333},"geometry":{"x":178030.01000000071,"y":2558763.5299999993}},{"attributes":{"ID":575361,"DIS_CODE":0,"TOWNNAME":"東區","LI":"東門里","LIN":"23鄰","STREET":"東榮街","SECT":" ","MAREA":" ","LANE":" ","ALLEY":" ","HOUSE_NO":"６９號","E_COORD97":169554.98999999999,"N_COORD97":2543339.8100000001,"ADDRESS":"東榮街６９號","OBJECTID":575334},"geometry":{"x":169554.99000000115,"y":2543339.8100000005}},{"attributes":{"ID":575362,"DIS_CODE":0,"TOWNNAME":"東區","LI":"東門里","LIN":"23鄰","STREET":"東榮街","SECT":" ","MAREA":" ","LANE":" ","ALLEY":" ","HOUSE_NO":"７１號","E_COORD97":169555.20999999999,"N_COORD97":2543312.1099999999,"ADDRESS":"東榮街７１號","OBJECTID":575335},"geometry":{"x":169555.21000000089,"y":2543312.1100000013}},{"attributes":{"ID":575363,"DIS_CODE":0,"TOWNNAME":"東區","LI":"東門里","LIN":"23鄰","STREET":"新樓街","SECT":" ","MAREA":" ","LANE":" ","ALLEY":" ","HOUSE_NO":"５０號","E_COORD97":169585.37,"N_COORD97":2543337.7799999998,"ADDRESS":"新樓街５０號","OBJECTID":575336},"geometry":{"x":169585.37000000011,"y":2543337.7800000012}},{"attributes":{"ID":575364,"DIS_CODE":0,"TOWNNAME":"東區","LI":"東門里","LIN":"23鄰","STREET":"新樓街","SECT":" ","MAREA":" ","LANE":" ","ALLEY":" ","HOUSE_NO":"５２號","E_COORD97":169590.92000000001,"N_COORD97":2543338.98,"ADDRESS":"新樓街５２號","OBJECTID":575337},"geometry":{"x":169590.92000000086,"y":2543338.9800000004}},{"attributes":{"ID":575365,"DIS_CODE":0,"TOWNNAME":"東區","LI":"東門里","LIN":"23鄰","STREET":"新樓街","SECT":" ","MAREA":" ","LANE":" ","ALLEY":" ","HOUSE_NO":"５６號","E_COORD97":169600.54999999999,"N_COORD97":2543338.1699999999,"ADDRESS":"新樓街５６號","OBJECTID":575338},"geometry":{"x":169600.54999999981,"y":2543338.1700000037}},{"attributes":{"ID":575366,"DIS_CODE":0,"TOWNNAME":"東區","LI":"東門里","LIN":"23鄰","STREET":"新樓街","SECT":" ","MAREA":" ","LANE":" ","ALLEY":" ","HOUSE_NO":"５８號","E_COORD97":169604.29999999999,"N_COORD97":2543337.5699999998,"ADDRESS":"新樓街５８號","OBJECTID":575339},"geometry":{"x":169604.29999999981,"y":2543337.5700000003}},{"attributes":{"ID":575367,"DIS_CODE":0,"TOWNNAME":"東區","LI":"東門里","LIN":"23鄰","STREET":"新樓街","SECT":" ","MAREA":" ","LANE":" ","ALLEY":" ","HOUSE_NO":"６０號","E_COORD97":169608.57000000001,"N_COORD97":2543337.1899999999,"ADDRESS":"新樓街６０號","OBJECTID":575340},"geometry":{"x":169608.57000000123,"y":2543337.1899999995}},{"attributes":{"ID":575368,"DIS_CODE":0,"TOWNNAME":"東區","LI":"東門里","LIN":"23鄰","STREET":"新樓街","SECT":" ","MAREA":" ","LANE":" ","ALLEY":" ","HOUSE_NO":"６２號","E_COORD97":169613.37,"N_COORD97":2543335.9900000002,"ADDRESS":"新樓街６２號","OBJECTID":575341},"geometry":{"x":169613.37000000104,"y":2543335.9900000002}},{"attributes":{"ID":575369,"DIS_CODE":0,"TOWNNAME":"東區","LI":"東門里","LIN":"23鄰","STREET":"新樓街","SECT":" ","MAREA":" ","LANE":" ","ALLEY":" ","HOUSE_NO":"６６號","E_COORD97":169624.25,"N_COORD97":2543335.3199999998,"ADDRESS":"新樓街６６號","OBJECTID":575342},"geometry":{"x":169624.25000000093,"y":2543335.3200000022}},{"attributes":{"ID":575370,"DIS_CODE":0,"TOWNNAME":"東區","LI":"東門里","LIN":"23鄰","STREET":"新樓街","SECT":" ","MAREA":" ","LANE":" ","ALLEY":" ","HOUSE_NO":"６８號","E_COORD97":169627.53,"N_COORD97":2543335.25,"ADDRESS":"新樓街６８號","OBJECTID":575343},"geometry":{"x":169627.53000000119,"y":2543335.2500000019}},{"attributes":{"ID":575371,"DIS_CODE":0,"TOWNNAME":"東區","LI":"東門里","LIN":"23鄰","STREET":"新樓街","SECT":" ","MAREA":" ","LANE":" ","ALLEY":" ","HOUSE_NO":"７０號","E_COORD97":169631.54000000001,"N_COORD97":2543334.8500000001,"ADDRESS":"新樓街７０號","OBJECTID":575344},"geometry":{"x":169631.54000000004,"y":2543334.8500000015}},{"attributes":{"ID":575372,"DIS_CODE":0,"TOWNNAME":"東區","LI":"東門里","LIN":"23鄰","STREET":"新樓街","SECT":" ","MAREA":" ","LANE":" ","ALLEY":" ","HOUSE_NO":"７２號","E_COORD97":169636.26999999999,"N_COORD97":2543334.52,"ADDRESS":"新樓街７２號","OBJECTID":575345},"geometry":{"x":169636.26999999955,"y":2543334.5199999996}},{"attributes":{"ID":575373,"DIS_CODE":0,"TOWNNAME":"善化區","LI":"南關里","LIN":"4鄰","STREET":"自由路","SECT":" ","MAREA":" ","LANE":" ","ALLEY":" ","HOUSE_NO":"１２４號","E_COORD97":177101.98999999999,"N_COORD97":2558885.4900000002,"ADDRESS":"自由路１２４號","OBJECTID":575346},"geometry":{"x":177101.99000000115,"y":2558885.4900000021}},{"attributes":{"ID":575374,"DIS_CODE":0,"TOWNNAME":"善化區","LI":"東關里","LIN":"17鄰","STREET":"大信路","SECT":" ","MAREA":" ","LANE":" ","ALLEY":" ","HOUSE_NO":"２５號","E_COORD97":177515.79999999999,"N_COORD97":2558974.75,"ADDRESS":"大信路２５號","OBJECTID":575347},"geometry":{"x":177515.79999999981,"y":2558974.7500000019}},{"attributes":{"ID":575375,"DIS_CODE":0,"TOWNNAME":"善化區","LI":"坐駕里","LIN":"10鄰","STREET":"建國路","SECT":" ","MAREA":" ","LANE":" ","ALLEY":" ","HOUSE_NO":"３３號","E_COORD97":178022.14999999999,"N_COORD97":2558565.7799999998,"ADDRESS":"建國路３３號","OBJECTID":575348},"geometry":{"x":178022.15000000037,"y":2558565.7799999993}},{"attributes":{"ID":575376,"DIS_CODE":0,"TOWNNAME":"東區","LI":"東門里","LIN":"23鄰","STREET":"新樓街","SECT":" ","MAREA":" ","LANE":" ","ALLEY":" ","HOUSE_NO":"７４號","E_COORD97":169640.35000000001,"N_COORD97":2543334.2599999998,"ADDRESS":"新樓街７４號","OBJECTID":575349},"geometry":{"x":169640.35000000056,"y":2543334.2600000035}},{"attributes":{"ID":575377,"DIS_CODE":0,"TOWNNAME":"東區","LI":"泉南里","LIN":"23鄰","STREET":"樹林街","SECT":"一段","MAREA":" ","LANE":" ","ALLEY":" ","HOUSE_NO":"１１３號","E_COORD97":169435.76000000001,"N_COORD97":2542980.6200000001,"ADDRESS":"樹林街一段１１３號","OBJECTID":575350},"geometry":{"x":169435.76000000071,"y":2542980.6200000029}},{"attributes":{"ID":575378,"DIS_CODE":0,"TOWNNAME":"東區","LI":"泉南里","LIN":"23鄰","STREET":"樹林街","SECT":"一段","MAREA":" ","LANE":" ","ALLEY":" ","HOUSE_NO":"１１５號","E_COORD97":169431.82000000001,"N_COORD97":2542981.6000000001,"ADDRESS":"樹林街一段１１５號","OBJECTID":575351},"geometry":{"x":169431.8200000003,"y":2542981.5999999996}},{"attributes":{"ID":575379,"DIS_CODE":0,"TOWNNAME":"東區","LI":"泉南里","LIN":"23鄰","STREET":"樹林街","SECT":"一段","MAREA":" ","LANE":" ","ALLEY":" ","HOUSE_NO":"１１７號","E_COORD97":169427.89000000001,"N_COORD97":2542982.8799999999,"ADDRESS":"樹林街一段１１７號","OBJECTID":575352},"geometry":{"x":169427.8900000006,"y":2542982.8799999971}},{"attributes":{"ID":575380,"DIS_CODE":0,"TOWNNAME":"東區","LI":"泉南里","LIN":"23鄰","STREET":"樹林街","SECT":"一段","MAREA":" ","LANE":" ","ALLEY":" ","HOUSE_NO":"１１９號","E_COORD97":169424.45000000001,"N_COORD97":2542984.6499999999,"ADDRESS":"樹林街一段１１９號","OBJECTID":575353},"geometry":{"x":169424.45000000112,"y":2542984.6500000004}},{"attributes":{"ID":575381,"DIS_CODE":0,"TOWNNAME":"東區","LI":"泉南里","LIN":"23鄰","STREET":"樹林街","SECT":"一段","MAREA":" ","LANE":" ","ALLEY":" ","HOUSE_NO":"１２１號","E_COORD97":169419.32999999999,"N_COORD97":2542985.3300000001,"ADDRESS":"樹林街一段１２１號","OBJECTID":575354},"geometry":{"x":169419.33000000007,"y":2542985.3300000019}},{"attributes":{"ID":575382,"DIS_CODE":0,"TOWNNAME":"東區","LI":"泉南里","LIN":"23鄰","STREET":"樹林街","SECT":"一段","MAREA":" ","LANE":" ","ALLEY":" ","HOUSE_NO":"１２３號","E_COORD97":169414.91,"N_COORD97":2542986.3199999998,"ADDRESS":"樹林街一段１２３號","OBJECTID":575355},"geometry":{"x":169414.91000000108,"y":2542986.3200000022}},{"attributes":{"ID":575383,"DIS_CODE":0,"TOWNNAME":"官田區","LI":"二鎮里","LIN":"23鄰","STREET":"工社北街","SECT":" ","MAREA":" ","LANE":" ","ALLEY":" ","HOUSE_NO":"５號","E_COORD97":180853.01999999999,"N_COORD97":2568649.2999999998,"ADDRESS":"工社北街５號","OBJECTID":575356},"geometry":{"x":180853.01999999955,"y":2568649.3000000007}},{"attributes":{"ID":575384,"DIS_CODE":0,"TOWNNAME":"官田區","LI":"二鎮里","LIN":"23鄰","STREET":"工社北街","SECT":" ","MAREA":" ","LANE":" ","ALLEY":" ","HOUSE_NO":"１０９號之１","E_COORD97":181274.10000000001,"N_COORD97":2568764.6899999999,"ADDRESS":"工社北街１０９號之１","OBJECTID":575357},"geometry":{"x":181274.10000000056,"y":2568764.6899999995}},{"attributes":{"ID":575385,"DIS_CODE":0,"TOWNNAME":"官田區","LI":"二鎮里","LIN":"23鄰","STREET":"工社北街","SECT":" ","MAREA":" ","LANE":" ","ALLEY":" ","HOUSE_NO":"１０９號","E_COORD97":181269.29000000001,"N_COORD97":2568763.0899999999,"ADDRESS":"工社北街１０９號","OBJECTID":575358},"geometry":{"x":181269.28999999911,"y":2568763.0900000036}},{"attributes":{"ID":575386,"DIS_CODE":0,"TOWNNAME":"官田區","LI":"二鎮里","LIN":"23鄰","STREET":"工社北街","SECT":" ","MAREA":" ","LANE":" ","ALLEY":" ","HOUSE_NO":"１０號","E_COORD97":180854.88,"N_COORD97":2568679.75,"ADDRESS":"工社北街１０號","OBJECTID":575359},"geometry":{"x":180854.87999999989,"y":2568679.75}},{"attributes":{"ID":575387,"DIS_CODE":0,"TOWNNAME":"官田區","LI":"二鎮里","LIN":"23鄰","STREET":"工社北街","SECT":" ","MAREA":" ","LANE":" ","ALLEY":" ","HOUSE_NO":"１１５號","E_COORD97":181291.35000000001,"N_COORD97":2568767.6899999999,"ADDRESS":"工社北街１１５號","OBJECTID":575360},"geometry":{"x":181291.35000000056,"y":2568767.6899999995}},{"attributes":{"ID":575388,"DIS_CODE":0,"TOWNNAME":"官田區","LI":"二鎮里","LIN":"23鄰","STREET":"工社北街","SECT":" ","MAREA":" ","LANE":" ","ALLEY":" ","HOUSE_NO":"１２７號","E_COORD97":181369.17999999999,"N_COORD97":2568787.54,"ADDRESS":"工社北街１２７號","OBJECTID":575361},"geometry":{"x":181369.1799999997,"y":2568787.540000001}},{"attributes":{"ID":575389,"DIS_CODE":0,"TOWNNAME":"官田區","LI":"二鎮里","LIN":"23鄰","STREET":"工社北街","SECT":" ","MAREA":" ","LANE":" ","ALLEY":" ","HOUSE_NO":"１２９號","E_COORD97":181376.10000000001,"N_COORD97":2568788.0499999998,"ADDRESS":"工社北街１２９號","OBJECTID":575362},"geometry":{"x":181376.10000000056,"y":2568788.0500000045}},{"attributes":{"ID":575390,"DIS_CODE":0,"TOWNNAME":"官田區","LI":"二鎮里","LIN":"23鄰","STREET":"工社北街","SECT":" ","MAREA":" ","LANE":" ","ALLEY":" ","HOUSE_NO":"１２號","E_COORD97":180860.92999999999,"N_COORD97":2568681.3900000001,"ADDRESS":"工社北街１２號","OBJECTID":575363},"geometry":{"x":180860.9299999997,"y":2568681.3900000025}},{"attributes":{"ID":575391,"DIS_CODE":0,"TOWNNAME":"官田區","LI":"二鎮里","LIN":"23鄰","STREET":"工社北街","SECT":" ","MAREA":" ","LANE":" ","ALLEY":" ","HOUSE_NO":"１３３號","E_COORD97":181400.29000000001,"N_COORD97":2568781.9300000002,"ADDRESS":"工社北街１３３號","OBJECTID":575364},"geometry":{"x":181400.29000000097,"y":2568781.9300000016}},{"attributes":{"ID":575392,"DIS_CODE":0,"TOWNNAME":"官田區","LI":"二鎮里","LIN":"23鄰","STREET":"工社北街","SECT":" ","MAREA":" ","LANE":" ","ALLEY":" ","HOUSE_NO":"１３５號之１","E_COORD97":181397.07000000001,"N_COORD97":2568790.71,"ADDRESS":"工社北街１３５號之１","OBJECTID":575365},"geometry":{"x":181397.07000000123,"y":2568790.7100000046}},{"attributes":{"ID":575393,"DIS_CODE":0,"TOWNNAME":"官田區","LI":"二鎮里","LIN":"23鄰","STREET":"工社北街","SECT":" ","MAREA":" ","LANE":" ","ALLEY":" ","HOUSE_NO":"１３５號之２","E_COORD97":181396.76999999999,"N_COORD97":2568795.3300000001,"ADDRESS":"工社北街１３５號之２","OBJECTID":575366},"geometry":{"x":181396.77000000048,"y":2568795.3299999982}},{"attributes":{"ID":575394,"DIS_CODE":0,"TOWNNAME":"官田區","LI":"二鎮里","LIN":"23鄰","STREET":"工社北街","SECT":" ","MAREA":" ","LANE":" ","ALLEY":" ","HOUSE_NO":"１３５號","E_COORD97":181399.35999999999,"N_COORD97":2568786.4300000002,"ADDRESS":"工社北街１３５號","OBJECTID":575367},"geometry":{"x":181399.36000000034,"y":2568786.4299999997}},{"attributes":{"ID":575395,"DIS_CODE":0,"TOWNNAME":"官田區","LI":"二鎮里","LIN":"23鄰","STREET":"工社北街","SECT":" ","MAREA":" ","LANE":" ","ALLEY":" ","HOUSE_NO":"１３７號","E_COORD97":181423.26999999999,"N_COORD97":2568800.3999999999,"ADDRESS":"工社北街１３７號","OBJECTID":575368},"geometry":{"x":181423.27000000142,"y":2568800.4000000022}},{"attributes":{"ID":575396,"DIS_CODE":0,"TOWNNAME":"官田區","LI":"二鎮里","LIN":"23鄰","STREET":"工社北街","SECT":" ","MAREA":" ","LANE":" ","ALLEY":" ","HOUSE_NO":"１３９號之１","E_COORD97":181423.22,"N_COORD97":2568786.4199999999,"ADDRESS":"工社北街１３９號之１","OBJECTID":575369},"geometry":{"x":181423.21999999974,"y":2568786.4199999999}},{"attributes":{"ID":575397,"DIS_CODE":0,"TOWNNAME":"官田區","LI":"二鎮里","LIN":"23鄰","STREET":"工社北街","SECT":" ","MAREA":" ","LANE":" ","ALLEY":" ","HOUSE_NO":"１３９號之２","E_COORD97":181422.57000000001,"N_COORD97":2568790.6699999999,"ADDRESS":"工社北街１３９號之２","OBJECTID":575370},"geometry":{"x":181422.57000000123,"y":2568790.6700000018}},{"attributes":{"ID":575398,"DIS_CODE":0,"TOWNNAME":"官田區","LI":"二鎮里","LIN":"23鄰","STREET":"工社北街","SECT":" ","MAREA":" ","LANE":" ","ALLEY":" ","HOUSE_NO":"１３９號","E_COORD97":181424.35999999999,"N_COORD97":2568796.0600000001,"ADDRESS":"工社北街１３９號","OBJECTID":575371},"geometry":{"x":181424.36000000127,"y":2568796.0600000024}},{"attributes":{"ID":575399,"DIS_CODE":0,"TOWNNAME":"官田區","LI":"二鎮里","LIN":"23鄰","STREET":"工社北街","SECT":" ","MAREA":" ","LANE":" ","ALLEY":" ","HOUSE_NO":"１４０號","E_COORD97":181274.89999999999,"N_COORD97":2568787.1400000001,"ADDRESS":"工社北街１４０號","OBJECTID":575372},"geometry":{"x":181274.9000000013,"y":2568787.1400000043}},{"attributes":{"ID":575400,"DIS_CODE":0,"TOWNNAME":"官田區","LI":"二鎮里","LIN":"23鄰","STREET":"工社北街","SECT":" ","MAREA":" ","LANE":" ","ALLEY":" ","HOUSE_NO":"１４１號","E_COORD97":181440.26999999999,"N_COORD97":2568798.4399999999,"ADDRESS":"工社北街１４１號","OBJECTID":575373},"geometry":{"x":181440.27000000142,"y":2568798.4400000013}},{"attributes":{"ID":575401,"DIS_CODE":0,"TOWNNAME":"官田區","LI":"二鎮里","LIN":"23鄰","STREET":"工社北街","SECT":" ","MAREA":" ","LANE":" ","ALLEY":" ","HOUSE_NO":"１４２號","E_COORD97":181279.81,"N_COORD97":2568788.6000000001,"ADDRESS":"工社北街１４２號","OBJECTID":575374},"geometry":{"x":181279.81000000052,"y":2568788.5999999996}},{"attributes":{"ID":575402,"DIS_CODE":0,"TOWNNAME":"官田區","LI":"二鎮里","LIN":"23鄰","STREET":"工社北街","SECT":" ","MAREA":" ","LANE":" ","ALLEY":" ","HOUSE_NO":"１４４號","E_COORD97":181284.39999999999,"N_COORD97":2568789.9900000002,"ADDRESS":"工社北街１４４號","OBJECTID":575375},"geometry":{"x":181284.40000000224,"y":2568789.9900000002}},{"attributes":{"ID":575403,"DIS_CODE":0,"TOWNNAME":"官田區","LI":"二鎮里","LIN":"23鄰","STREET":"工社北街","SECT":" ","MAREA":" ","LANE":" ","ALLEY":" ","HOUSE_NO":"１４５號","E_COORD97":181456.64000000001,"N_COORD97":2568806.9300000002,"ADDRESS":"工社北街１４５號","OBJECTID":575376},"geometry":{"x":181456.64000000153,"y":2568806.9299999997}},{"attributes":{"ID":575404,"DIS_CODE":0,"TOWNNAME":"官田區","LI":"二鎮里","LIN":"23鄰","STREET":"工社北街","SECT":" ","MAREA":" ","LANE":" ","ALLEY":" ","HOUSE_NO":"１４７號","E_COORD97":181456.42000000001,"N_COORD97":2568801.8900000001,"ADDRESS":"工社北街１４７號","OBJECTID":575377},"geometry":{"x":181456.41999999993,"y":2568801.8900000006}},{"attributes":{"ID":575405,"DIS_CODE":0,"TOWNNAME":"官田區","LI":"二鎮里","LIN":"23鄰","STREET":"工社北街","SECT":" ","MAREA":" ","LANE":" ","ALLEY":" ","HOUSE_NO":"１４９號","E_COORD97":181455.85000000001,"N_COORD97":2568797.2000000002,"ADDRESS":"工社北街１４９號","OBJECTID":575378},"geometry":{"x":181455.85000000056,"y":2568797.2000000011}},{"attributes":{"ID":575406,"DIS_CODE":0,"TOWNNAME":"官田區","LI":"二鎮里","LIN":"23鄰","STREET":"工社北街","SECT":" ","MAREA":" ","LANE":" ","ALLEY":" ","HOUSE_NO":"１５１號","E_COORD97":181455.29999999999,"N_COORD97":2568792.46,"ADDRESS":"工社北街１５１號","OBJECTID":575379},"geometry":{"x":181455.29999999981,"y":2568792.4600000028}},{"attributes":{"ID":575407,"DIS_CODE":0,"TOWNNAME":"官田區","LI":"二鎮里","LIN":"23鄰","STREET":"工社北街","SECT":" ","MAREA":" ","LANE":" ","ALLEY":" ","HOUSE_NO":"１７８號","E_COORD97":181376.98000000001,"N_COORD97":2568810.7999999998,"ADDRESS":"工社北街１７８號","OBJECTID":575380},"geometry":{"x":181376.97999999952,"y":2568810.8000000026}},{"attributes":{"ID":575408,"DIS_CODE":0,"TOWNNAME":"官田區","LI":"二鎮里","LIN":"23鄰","STREET":"工社北街","SECT":" ","MAREA":" ","LANE":" ","ALLEY":" ","HOUSE_NO":"１８２號","E_COORD97":181393.01999999999,"N_COORD97":2568813.1400000001,"ADDRESS":"工社北街１８２號","OBJECTID":575381},"geometry":{"x":181393.02000000048,"y":2568813.1400000006}},{"attributes":{"ID":575409,"DIS_CODE":0,"TOWNNAME":"官田區","LI":"二鎮里","LIN":"23鄰","STREET":"工社北街","SECT":" ","MAREA":" ","LANE":" ","ALLEY":" ","HOUSE_NO":"１８６號","E_COORD97":181410.60999999999,"N_COORD97":2568821.3900000001,"ADDRESS":"工社北街１８６號","OBJECTID":575382},"geometry":{"x":181410.61000000127,"y":2568821.3900000006}},{"attributes":{"ID":575410,"DIS_CODE":0,"TOWNNAME":"官田區","LI":"二鎮里","LIN":"23鄰","STREET":"工社北街","SECT":" ","MAREA":" ","LANE":" ","ALLEY":" ","HOUSE_NO":"１９８號","E_COORD97":181432.98999999999,"N_COORD97":2568819.5699999998,"ADDRESS":"工社北街１９８號","OBJECTID":575383},"geometry":{"x":181432.99000000115,"y":2568819.5700000022}},{"attributes":{"ID":575411,"DIS_CODE":0,"TOWNNAME":"官田區","LI":"二鎮里","LIN":"23鄰","STREET":"工社北街","SECT":" ","MAREA":" ","LANE":" ","ALLEY":" ","HOUSE_NO":"１９號","E_COORD97":180891.57999999999,"N_COORD97":2568659.4900000002,"ADDRESS":"工社北街１９號","OBJECTID":575384},"geometry":{"x":180891.58000000101,"y":2568659.4900000021}},{"attributes":{"ID":575412,"DIS_CODE":0,"TOWNNAME":"官田區","LI":"二鎮里","LIN":"23鄰","STREET":"工社北街","SECT":" ","MAREA":" ","LANE":" ","ALLEY":" ","HOUSE_NO":"２０號","E_COORD97":180885.85000000001,"N_COORD97":2568684.0600000001,"ADDRESS":"工社北街２０號","OBJECTID":575385},"geometry":{"x":180885.85000000056,"y":2568684.0600000024}},{"attributes":{"ID":575413,"DIS_CODE":0,"TOWNNAME":"官田區","LI":"二鎮里","LIN":"23鄰","STREET":"工社北街","SECT":" ","MAREA":" ","LANE":" ","ALLEY":" ","HOUSE_NO":"２１號","E_COORD97":180896.73000000001,"N_COORD97":2568660.9199999999,"ADDRESS":"工社北街２１號","OBJECTID":575386},"geometry":{"x":180896.73000000045,"y":2568660.9199999999}},{"attributes":{"ID":575414,"DIS_CODE":0,"TOWNNAME":"官田區","LI":"二鎮里","LIN":"23鄰","STREET":"工社北街","SECT":" ","MAREA":" ","LANE":" ","ALLEY":" ","HOUSE_NO":"２７號","E_COORD97":180919.16,"N_COORD97":2568666.6099999999,"ADDRESS":"工社北街２７號","OBJECTID":575387},"geometry":{"x":180919.16000000015,"y":2568666.6099999994}},{"attributes":{"ID":575415,"DIS_CODE":0,"TOWNNAME":"官田區","LI":"二鎮里","LIN":"23鄰","STREET":"工社北街","SECT":" ","MAREA":" ","LANE":" ","ALLEY":" ","HOUSE_NO":"２９號","E_COORD97":180924.31,"N_COORD97":2568667.7000000002,"ADDRESS":"工社北街２９號","OBJECTID":575388},"geometry":{"x":180924.30999999959,"y":2568667.7000000011}},{"attributes":{"ID":575416,"DIS_CODE":0,"TOWNNAME":"官田區","LI":"二鎮里","LIN":"23鄰","STREET":"工社北街","SECT":" ","MAREA":" ","LANE":" ","ALLEY":" ","HOUSE_NO":"３號","E_COORD97":180848.32000000001,"N_COORD97":2568648.0800000001,"ADDRESS":"工社北街３號","OBJECTID":575389},"geometry":{"x":180848.3200000003,"y":2568648.0800000038}},{"attributes":{"ID":575417,"DIS_CODE":0,"TOWNNAME":"官田區","LI":"二鎮里","LIN":"23鄰","STREET":"工社北街","SECT":" ","MAREA":" ","LANE":" ","ALLEY":" ","HOUSE_NO":"４０號","E_COORD97":180942.34,"N_COORD97":2568700.6899999999,"ADDRESS":"工社北街４０號","OBJECTID":575390},"geometry":{"x":180942.34000000078,"y":2568700.6899999995}},{"attributes":{"ID":575418,"DIS_CODE":0,"TOWNNAME":"官田區","LI":"二鎮里","LIN":"23鄰","STREET":"工社北街","SECT":" ","MAREA":" ","LANE":" ","ALLEY":" ","HOUSE_NO":"４６號","E_COORD97":180998.66,"N_COORD97":2568715.0899999999,"ADDRESS":"工社北街４６號","OBJECTID":575391},"geometry":{"x":180998.66000000015,"y":2568715.0899999999}},{"attributes":{"ID":575419,"DIS_CODE":0,"TOWNNAME":"官田區","LI":"二鎮里","LIN":"23鄰","STREET":"工社北街","SECT":" ","MAREA":" ","LANE":" ","ALLEY":" ","HOUSE_NO":"４７號","E_COORD97":180981.53,"N_COORD97":2568685.29,"ADDRESS":"工社北街４７號","OBJECTID":575392},"geometry":{"x":180981.53000000212,"y":2568685.2899999991}},{"attributes":{"ID":575420,"DIS_CODE":0,"TOWNNAME":"官田區","LI":"二鎮里","LIN":"23鄰","STREET":"工社北街","SECT":" ","MAREA":" ","LANE":" ","ALLEY":" ","HOUSE_NO":"５０號","E_COORD97":181007.35999999999,"N_COORD97":2568717.6400000001,"ADDRESS":"工社北街５０號","OBJECTID":575393},"geometry":{"x":181007.36000000034,"y":2568717.6400000025}},{"attributes":{"ID":575421,"DIS_CODE":0,"TOWNNAME":"官田區","LI":"二鎮里","LIN":"23鄰","STREET":"工社北街","SECT":" ","MAREA":" ","LANE":" ","ALLEY":" ","HOUSE_NO":"５６號","E_COORD97":181023.64000000001,"N_COORD97":2568721.7599999998,"ADDRESS":"工社北街５６號","OBJECTID":575394},"geometry":{"x":181023.63999999966,"y":2568721.7600000016}},{"attributes":{"ID":575422,"DIS_CODE":0,"TOWNNAME":"官田區","LI":"二鎮里","LIN":"23鄰","STREET":"工社北街","SECT":" ","MAREA":" ","LANE":" ","ALLEY":" ","HOUSE_NO":"６２號","E_COORD97":181047.63,"N_COORD97":2568726.2599999998,"ADDRESS":"工社北街６２號","OBJECTID":575395},"geometry":{"x":181047.62999999989,"y":2568726.2599999998}},{"attributes":{"ID":575423,"DIS_CODE":0,"TOWNNAME":"官田區","LI":"二鎮里","LIN":"23鄰","STREET":"工社北街","SECT":" ","MAREA":" ","LANE":" ","ALLEY":" ","HOUSE_NO":"６６號","E_COORD97":181057.19,"N_COORD97":2568728.8999999999,"ADDRESS":"工社北街６６號","OBJECTID":575396},"geometry":{"x":181057.19000000134,"y":2568728.9000000022}},{"attributes":{"ID":575424,"DIS_CODE":0,"TOWNNAME":"官田區","LI":"二鎮里","LIN":"23鄰","STREET":"工社北街","SECT":" ","MAREA":" ","LANE":" ","ALLEY":" ","HOUSE_NO":"７１號","E_COORD97":181069.14000000001,"N_COORD97":2568698.9700000002,"ADDRESS":"工社北街７１號","OBJECTID":575397},"geometry":{"x":181069.1400000006,"y":2568698.9700000007}},{"attributes":{"ID":575425,"DIS_CODE":0,"TOWNNAME":"官田區","LI":"二鎮里","LIN":"23鄰","STREET":"工社北街","SECT":" ","MAREA":" ","LANE":" ","ALLEY":" ","HOUSE_NO":"７３號","E_COORD97":181068.14000000001,"N_COORD97":2568703.1200000001,"ADDRESS":"工社北街７３號","OBJECTID":575398},"geometry":{"x":181068.13999999966,"y":2568703.1200000048}},{"attributes":{"ID":575426,"DIS_CODE":0,"TOWNNAME":"官田區","LI":"二鎮里","LIN":"23鄰","STREET":"工社北街","SECT":" ","MAREA":" ","LANE":" ","ALLEY":" ","HOUSE_NO":"７５號","E_COORD97":181066.98000000001,"N_COORD97":2568707.1899999999,"ADDRESS":"工社北街７５號","OBJECTID":575399},"geometry":{"x":181066.98000000138,"y":2568707.1899999995}},{"attributes":{"ID":575427,"DIS_CODE":0,"TOWNNAME":"官田區","LI":"二鎮里","LIN":"23鄰","STREET":"工社北街","SECT":" ","MAREA":" ","LANE":" ","ALLEY":" ","HOUSE_NO":"７６號","E_COORD97":181101.35000000001,"N_COORD97":2568741.4900000002,"ADDRESS":"工社北街７６號","OBJECTID":575400},"geometry":{"x":181101.35000000056,"y":2568741.4900000021}}]}