{"displayFieldName":"TOWNNAME","fieldAliases":{"ID":"ID","DIS_CODE":"DIS_CODE","TOWNNAME":"TOWNNAME","LI":"LI","LIN":"LIN","STREET":"STREET","SECT":"SECT","MAREA":"MAREA","LANE":"LANE","ALLEY":"ALLEY","HOUSE_NO":"HOUSE_NO","E_COORD97":"E_COORD97","N_COORD97":"N_COORD97","ADDRESS":"ADDRESS","OBJECTID":"OBJECTID"},"geometryType":"esriGeometryPoint","spatialReference":{"wkid":102443,"latestWkid":3826},"fields":[{"name":"ID","type":"esriFieldTypeDouble","alias":"ID"},{"name":"DIS_CODE","type":"esriFieldTypeInteger","alias":"DIS_CODE"},{"name":"TOWNNAME","type":"esriFieldTypeString","alias":"TOWNNAME","length":8},{"name":"LI","type":"esriFieldTypeString","alias":"LI","length":8},{"name":"LIN","type":"esriFieldTypeString","alias":"LIN","length":12},{"name":"STREET","type":"esriFieldTypeString","alias":"STREET","length":20},{"name":"SECT","type":"esriFieldTypeString","alias":"SECT","length":8},{"name":"MAREA","type":"esriFieldTypeString","alias":"MAREA","length":12},{"name":"LANE","type":"esriFieldTypeString","alias":"LANE","length":10},{"name":"ALLEY","type":"esriFieldTypeString","alias":"ALLEY","length":10},{"name":"HOUSE_NO","type":"esriFieldTypeString","alias":"HOUSE_NO","length":20},{"name":"E_COORD97","type":"esriFieldTypeDouble","alias":"E_COORD97"},{"name":"N_COORD97","type":"esriFieldTypeDouble","alias":"N_COORD97"},{"name":"ADDRESS","type":"esriFieldTypeString","alias":"ADDRESS","length":50},{"name":"OBJECTID","type":"esriFieldTypeOID","alias":"OBJECTID"}],"features":[{"attributes":{"ID":594628,"DIS_CODE":0,"TOWNNAME":"東區","LI":"忠孝里","LIN":"9鄰","STREET":"榮譽街","SECT":" ","MAREA":" ","LANE":" ","ALLEY":" ","HOUSE_NO":"９２號","E_COORD97":169783.92000000001,"N_COORD97":2541703.6899999999,"ADDRESS":"榮譽街９２號","OBJECTID":594601},"geometry":{"x":169783.92000000086,"y":2541703.6900000013}},{"attributes":{"ID":594629,"DIS_CODE":0,"TOWNNAME":"東區","LI":"忠孝里","LIN":"9鄰","STREET":"榮譽街","SECT":" ","MAREA":" ","LANE":" ","ALLEY":" ","HOUSE_NO":"９４號","E_COORD97":169790.89000000001,"N_COORD97":2541706.9300000002,"ADDRESS":"榮譽街９４號","OBJECTID":594602},"geometry":{"x":169790.8900000006,"y":2541706.9300000016}},{"attributes":{"ID":594630,"DIS_CODE":0,"TOWNNAME":"東區","LI":"忠孝里","LIN":"9鄰","STREET":"榮譽街","SECT":" ","MAREA":" ","LANE":" ","ALLEY":" ","HOUSE_NO":"９６號","E_COORD97":169798.5,"N_COORD97":2541710.6499999999,"ADDRESS":"榮譽街９６號","OBJECTID":594603},"geometry":{"x":169798.50000000093,"y":2541710.6500000004}},{"attributes":{"ID":594631,"DIS_CODE":0,"TOWNNAME":"東區","LI":"忠孝里","LIN":"9鄰","STREET":"榮譽街","SECT":" ","MAREA":" ","LANE":" ","ALLEY":" ","HOUSE_NO":"９０號","E_COORD97":169776.63,"N_COORD97":2541700.46,"ADDRESS":"榮譽街９０號","OBJECTID":594604},"geometry":{"x":169776.62999999989,"y":2541700.4600000028}},{"attributes":{"ID":594632,"DIS_CODE":0,"TOWNNAME":"南區","LI":"明興里","LIN":"11鄰","STREET":"永興三街","SECT":" ","MAREA":" ","LANE":" ","ALLEY":" ","HOUSE_NO":"１０１號三樓之３","E_COORD97":167143.01000000001,"N_COORD97":2540604.3500000001,"ADDRESS":"永興三街１０１號三樓之３","OBJECTID":594605},"geometry":{"x":167143.00999999978,"y":2540604.3500000015}},{"attributes":{"ID":594633,"DIS_CODE":0,"TOWNNAME":"南區","LI":"明興里","LIN":"11鄰","STREET":"永興三街","SECT":" ","MAREA":" ","LANE":" ","ALLEY":" ","HOUSE_NO":"１０１號三樓之７","E_COORD97":167143.01000000001,"N_COORD97":2540604.3500000001,"ADDRESS":"永興三街１０１號三樓之７","OBJECTID":594606},"geometry":{"x":167143.00999999978,"y":2540604.3500000015}},{"attributes":{"ID":594634,"DIS_CODE":0,"TOWNNAME":"南區","LI":"明興里","LIN":"11鄰","STREET":"永興三街","SECT":" ","MAREA":" ","LANE":" ","ALLEY":" ","HOUSE_NO":"１０１號三樓之９","E_COORD97":167143.01000000001,"N_COORD97":2540604.3500000001,"ADDRESS":"永興三街１０１號三樓之９","OBJECTID":594607},"geometry":{"x":167143.00999999978,"y":2540604.3500000015}},{"attributes":{"ID":594635,"DIS_CODE":0,"TOWNNAME":"南區","LI":"明興里","LIN":"11鄰","STREET":"永興三街","SECT":" ","MAREA":" ","LANE":" ","ALLEY":" ","HOUSE_NO":"１０１號三樓之１","E_COORD97":167143.01000000001,"N_COORD97":2540604.3500000001,"ADDRESS":"永興三街１０１號三樓之１","OBJECTID":594608},"geometry":{"x":167143.00999999978,"y":2540604.3500000015}},{"attributes":{"ID":594636,"DIS_CODE":0,"TOWNNAME":"南區","LI":"明興里","LIN":"11鄰","STREET":"永興三街","SECT":" ","MAREA":" ","LANE":" ","ALLEY":" ","HOUSE_NO":"１０１號三樓之２","E_COORD97":167143.01000000001,"N_COORD97":2540604.3500000001,"ADDRESS":"永興三街１０１號三樓之２","OBJECTID":594609},"geometry":{"x":167143.00999999978,"y":2540604.3500000015}},{"attributes":{"ID":594637,"DIS_CODE":0,"TOWNNAME":"南區","LI":"明興里","LIN":"11鄰","STREET":"永興三街","SECT":" ","MAREA":" ","LANE":" ","ALLEY":" ","HOUSE_NO":"１０１號三樓之４","E_COORD97":167143.01000000001,"N_COORD97":2540604.3500000001,"ADDRESS":"永興三街１０１號三樓之４","OBJECTID":594610},"geometry":{"x":167143.00999999978,"y":2540604.3500000015}},{"attributes":{"ID":594638,"DIS_CODE":0,"TOWNNAME":"南區","LI":"明興里","LIN":"11鄰","STREET":"永興三街","SECT":" ","MAREA":" ","LANE":" ","ALLEY":" ","HOUSE_NO":"１０１號三樓之５","E_COORD97":167143.01000000001,"N_COORD97":2540604.3500000001,"ADDRESS":"永興三街１０１號三樓之５","OBJECTID":594611},"geometry":{"x":167143.00999999978,"y":2540604.3500000015}},{"attributes":{"ID":594639,"DIS_CODE":0,"TOWNNAME":"南區","LI":"明興里","LIN":"11鄰","STREET":"永興三街","SECT":" ","MAREA":" ","LANE":" ","ALLEY":" ","HOUSE_NO":"１０１號三樓之８","E_COORD97":167143.01000000001,"N_COORD97":2540604.3500000001,"ADDRESS":"永興三街１０１號三樓之８","OBJECTID":594612},"geometry":{"x":167143.00999999978,"y":2540604.3500000015}},{"attributes":{"ID":594640,"DIS_CODE":0,"TOWNNAME":"南區","LI":"明興里","LIN":"11鄰","STREET":"永興三街","SECT":" ","MAREA":" ","LANE":" ","ALLEY":" ","HOUSE_NO":"１０１號三樓之１０","E_COORD97":167143.01000000001,"N_COORD97":2540604.3500000001,"ADDRESS":"永興三街１０１號三樓之１０","OBJECTID":594613},"geometry":{"x":167143.00999999978,"y":2540604.3500000015}},{"attributes":{"ID":594641,"DIS_CODE":0,"TOWNNAME":"南區","LI":"明興里","LIN":"11鄰","STREET":"永興三街","SECT":" ","MAREA":" ","LANE":" ","ALLEY":" ","HOUSE_NO":"１０１號二樓","E_COORD97":167143.01000000001,"N_COORD97":2540604.3500000001,"ADDRESS":"永興三街１０１號二樓","OBJECTID":594614},"geometry":{"x":167143.00999999978,"y":2540604.3500000015}},{"attributes":{"ID":594642,"DIS_CODE":0,"TOWNNAME":"南區","LI":"明興里","LIN":"11鄰","STREET":"永興三街","SECT":" ","MAREA":" ","LANE":" ","ALLEY":" ","HOUSE_NO":"１０１號三樓","E_COORD97":167143.01000000001,"N_COORD97":2540604.3500000001,"ADDRESS":"永興三街１０１號三樓","OBJECTID":594615},"geometry":{"x":167143.00999999978,"y":2540604.3500000015}},{"attributes":{"ID":594643,"DIS_CODE":0,"TOWNNAME":"南區","LI":"明興里","LIN":"11鄰","STREET":"永興三街","SECT":" ","MAREA":" ","LANE":" ","ALLEY":" ","HOUSE_NO":"１０１號三樓之６","E_COORD97":167143.01000000001,"N_COORD97":2540604.3500000001,"ADDRESS":"永興三街１０１號三樓之６","OBJECTID":594616},"geometry":{"x":167143.00999999978,"y":2540604.3500000015}},{"attributes":{"ID":594644,"DIS_CODE":0,"TOWNNAME":"南區","LI":"明興里","LIN":"11鄰","STREET":"永興三街","SECT":" ","MAREA":" ","LANE":" ","ALLEY":" ","HOUSE_NO":"１０１號三樓之１１","E_COORD97":167143.01000000001,"N_COORD97":2540604.3500000001,"ADDRESS":"永興三街１０１號三樓之１１","OBJECTID":594617},"geometry":{"x":167143.00999999978,"y":2540604.3500000015}},{"attributes":{"ID":594645,"DIS_CODE":0,"TOWNNAME":"南區","LI":"明興里","LIN":"11鄰","STREET":"永興三街","SECT":" ","MAREA":" ","LANE":" ","ALLEY":" ","HOUSE_NO":"１０１號三樓之１２","E_COORD97":167143.01000000001,"N_COORD97":2540604.3500000001,"ADDRESS":"永興三街１０１號三樓之１２","OBJECTID":594618},"geometry":{"x":167143.00999999978,"y":2540604.3500000015}},{"attributes":{"ID":594646,"DIS_CODE":0,"TOWNNAME":"北區","LI":"三德里","LIN":"11鄰","STREET":"裕民街","SECT":" ","MAREA":" ","LANE":" ","ALLEY":" ","HOUSE_NO":"５３號二樓","E_COORD97":168483.31,"N_COORD97":2544490.5299999998,"ADDRESS":"裕民街５３號二樓","OBJECTID":594619},"geometry":{"x":168483.30999999959,"y":2544490.5299999993}},{"attributes":{"ID":594647,"DIS_CODE":0,"TOWNNAME":"北區","LI":"三德里","LIN":"11鄰","STREET":"裕民街","SECT":" ","MAREA":" ","LANE":" ","ALLEY":" ","HOUSE_NO":"５３號五樓","E_COORD97":168483.31,"N_COORD97":2544490.5299999998,"ADDRESS":"裕民街５３號五樓","OBJECTID":594620},"geometry":{"x":168483.30999999959,"y":2544490.5299999993}},{"attributes":{"ID":594648,"DIS_CODE":0,"TOWNNAME":"北區","LI":"三德里","LIN":"11鄰","STREET":"裕民街","SECT":" ","MAREA":" ","LANE":" ","ALLEY":" ","HOUSE_NO":"５３號四樓","E_COORD97":168483.31,"N_COORD97":2544490.5299999998,"ADDRESS":"裕民街５３號四樓","OBJECTID":594621},"geometry":{"x":168483.30999999959,"y":2544490.5299999993}},{"attributes":{"ID":594649,"DIS_CODE":0,"TOWNNAME":"北區","LI":"六甲里","LIN":"11鄰","STREET":"西門路","SECT":"四段","MAREA":" ","LANE":" ","ALLEY":" ","HOUSE_NO":"２２６號二樓","E_COORD97":168887.54999999999,"N_COORD97":2545725.0899999999,"ADDRESS":"西門路四段２２６號二樓","OBJECTID":594622},"geometry":{"x":168887.55000000168,"y":2545725.0899999999}},{"attributes":{"ID":594650,"DIS_CODE":0,"TOWNNAME":"北區","LI":"六甲里","LIN":"11鄰","STREET":"西門路","SECT":"四段","MAREA":" ","LANE":" ","ALLEY":" ","HOUSE_NO":"２２６號三樓","E_COORD97":168887.54999999999,"N_COORD97":2545725.0899999999,"ADDRESS":"西門路四段２２６號三樓","OBJECTID":594623},"geometry":{"x":168887.55000000168,"y":2545725.0899999999}},{"attributes":{"ID":594651,"DIS_CODE":0,"TOWNNAME":"北區","LI":"六甲里","LIN":"11鄰","STREET":"西門路","SECT":"四段","MAREA":" ","LANE":" ","ALLEY":" ","HOUSE_NO":"２２６號四樓","E_COORD97":168887.54999999999,"N_COORD97":2545725.0899999999,"ADDRESS":"西門路四段２２６號四樓","OBJECTID":594624},"geometry":{"x":168887.55000000168,"y":2545725.0899999999}},{"attributes":{"ID":594652,"DIS_CODE":0,"TOWNNAME":"北區","LI":"六甲里","LIN":"11鄰","STREET":"西門路","SECT":"四段","MAREA":" ","LANE":" ","ALLEY":" ","HOUSE_NO":"２２６號五樓","E_COORD97":168887.54999999999,"N_COORD97":2545725.0899999999,"ADDRESS":"西門路四段２２６號五樓","OBJECTID":594625},"geometry":{"x":168887.55000000168,"y":2545725.0899999999}},{"attributes":{"ID":594653,"DIS_CODE":0,"TOWNNAME":"東區","LI":"虎尾里","LIN":"5鄰","STREET":"富農街","SECT":"一段","MAREA":" ","LANE":" ","ALLEY":" ","HOUSE_NO":"４２號","E_COORD97":171505.85999999999,"N_COORD97":2542110.0699999998,"ADDRESS":"富農街一段４２號","OBJECTID":594626},"geometry":{"x":171505.86000000034,"y":2542110.0700000022}},{"attributes":{"ID":594654,"DIS_CODE":0,"TOWNNAME":"東區","LI":"崇善里","LIN":"5鄰","STREET":"崇善五街","SECT":" ","MAREA":" ","LANE":" ","ALLEY":" ","HOUSE_NO":"２號","E_COORD97":171019.32999999999,"N_COORD97":2541544.2999999998,"ADDRESS":"崇善五街２號","OBJECTID":594627},"geometry":{"x":171019.33000000007,"y":2541544.3000000007}},{"attributes":{"ID":594655,"DIS_CODE":0,"TOWNNAME":"東區","LI":"崇善里","LIN":"5鄰","STREET":"崇善五街","SECT":" ","MAREA":" ","LANE":" ","ALLEY":" ","HOUSE_NO":"６號","E_COORD97":171027.39999999999,"N_COORD97":2541544.8799999999,"ADDRESS":"崇善五街６號","OBJECTID":594628},"geometry":{"x":171027.4000000013,"y":2541544.879999999}},{"attributes":{"ID":594656,"DIS_CODE":0,"TOWNNAME":"東區","LI":"崇善里","LIN":"5鄰","STREET":"崇善五街","SECT":" ","MAREA":" ","LANE":" ","ALLEY":" ","HOUSE_NO":"８號","E_COORD97":171027.98000000001,"N_COORD97":2541550.0600000001,"ADDRESS":"崇善五街８號","OBJECTID":594629},"geometry":{"x":171027.98000000231,"y":2541550.0600000024}},{"attributes":{"ID":594657,"DIS_CODE":0,"TOWNNAME":"東區","LI":"崇善里","LIN":"5鄰","STREET":"崇善五街","SECT":" ","MAREA":" ","LANE":" ","ALLEY":" ","HOUSE_NO":"１０號","E_COORD97":171032.59,"N_COORD97":2541552.3599999999,"ADDRESS":"崇善五街１０號","OBJECTID":594630},"geometry":{"x":171032.58999999985,"y":2541552.3599999994}},{"attributes":{"ID":594658,"DIS_CODE":0,"TOWNNAME":"東區","LI":"崇善里","LIN":"5鄰","STREET":"崇善五街","SECT":" ","MAREA":" ","LANE":" ","ALLEY":" ","HOUSE_NO":"１２號","E_COORD97":171038.07000000001,"N_COORD97":2541554.3799999999,"ADDRESS":"崇善五街１２號","OBJECTID":594631},"geometry":{"x":171038.07000000123,"y":2541554.379999999}},{"attributes":{"ID":594659,"DIS_CODE":0,"TOWNNAME":"東區","LI":"崇善里","LIN":"5鄰","STREET":"崇善五街","SECT":" ","MAREA":" ","LANE":" ","ALLEY":" ","HOUSE_NO":"１４號","E_COORD97":171042.97,"N_COORD97":2541557.2599999998,"ADDRESS":"崇善五街１４號","OBJECTID":594632},"geometry":{"x":171042.97000000067,"y":2541557.2599999979}},{"attributes":{"ID":594660,"DIS_CODE":0,"TOWNNAME":"東區","LI":"崇善里","LIN":"5鄰","STREET":"崇善五街","SECT":" ","MAREA":" ","LANE":" ","ALLEY":" ","HOUSE_NO":"１６號","E_COORD97":171048.16,"N_COORD97":2541558.9900000002,"ADDRESS":"崇善五街１６號","OBJECTID":594633},"geometry":{"x":171048.16000000015,"y":2541558.9900000002}},{"attributes":{"ID":594661,"DIS_CODE":0,"TOWNNAME":"東區","LI":"崇善里","LIN":"5鄰","STREET":"崇善五街","SECT":" ","MAREA":" ","LANE":" ","ALLEY":" ","HOUSE_NO":"１８號","E_COORD97":171081.78,"N_COORD97":2541558.0099999998,"ADDRESS":"崇善五街１８號","OBJECTID":594634},"geometry":{"x":171081.78000000119,"y":2541558.0099999998}},{"attributes":{"ID":594662,"DIS_CODE":0,"TOWNNAME":"東區","LI":"崇善里","LIN":"5鄰","STREET":"崇善五街","SECT":" ","MAREA":" ","LANE":" ","ALLEY":" ","HOUSE_NO":"２０號","E_COORD97":171053.06,"N_COORD97":2541562.1600000001,"ADDRESS":"崇善五街２０號","OBJECTID":594635},"geometry":{"x":171053.05999999959,"y":2541562.1600000039}},{"attributes":{"ID":594663,"DIS_CODE":0,"TOWNNAME":"東區","LI":"虎尾里","LIN":"18鄰","STREET":"富農街","SECT":"一段","MAREA":" ","LANE":" ","ALLEY":" ","HOUSE_NO":"１４８號","E_COORD97":171525.69,"N_COORD97":2542386.8900000001,"ADDRESS":"富農街一段１４８號","OBJECTID":594636},"geometry":{"x":171525.69000000134,"y":2542386.8900000006}},{"attributes":{"ID":594664,"DIS_CODE":0,"TOWNNAME":"東區","LI":"忠孝里","LIN":"9鄰","STREET":"榮譽街","SECT":" ","MAREA":" ","LANE":" ","ALLEY":" ","HOUSE_NO":"９８號","E_COORD97":169805.47,"N_COORD97":2541714.0499999998,"ADDRESS":"榮譽街９８號","OBJECTID":594637},"geometry":{"x":169805.47000000067,"y":2541714.0500000026}},{"attributes":{"ID":594665,"DIS_CODE":0,"TOWNNAME":"東區","LI":"忠孝里","LIN":"9鄰","STREET":"榮譽街","SECT":" ","MAREA":" ","LANE":" ","ALLEY":" ","HOUSE_NO":"１００號","E_COORD97":169812.60000000001,"N_COORD97":2541717.4500000002,"ADDRESS":"榮譽街１００號","OBJECTID":594638},"geometry":{"x":169812.60000000149,"y":2541717.4499999993}},{"attributes":{"ID":594666,"DIS_CODE":0,"TOWNNAME":"東區","LI":"忠孝里","LIN":"9鄰","STREET":"榮譽街","SECT":" ","MAREA":" ","LANE":" ","ALLEY":" ","HOUSE_NO":"１０２號","E_COORD97":169818.07999999999,"N_COORD97":2541702.1800000002,"ADDRESS":"榮譽街１０２號","OBJECTID":594639},"geometry":{"x":169818.07999999914,"y":2541702.1799999997}},{"attributes":{"ID":594667,"DIS_CODE":0,"TOWNNAME":"東區","LI":"崇善里","LIN":"5鄰","STREET":"崇善五街","SECT":" ","MAREA":" ","LANE":" ","ALLEY":" ","HOUSE_NO":"２４號","E_COORD97":171060.84,"N_COORD97":2541567.9199999999,"ADDRESS":"崇善五街２４號","OBJECTID":594640},"geometry":{"x":171060.84000000078,"y":2541567.9200000018}},{"attributes":{"ID":594668,"DIS_CODE":0,"TOWNNAME":"東區","LI":"崇善里","LIN":"5鄰","STREET":"崇善五街","SECT":" ","MAREA":" ","LANE":" ","ALLEY":" ","HOUSE_NO":"２６號","E_COORD97":171064.59,"N_COORD97":2541565.8999999999,"ADDRESS":"崇善五街２６號","OBJECTID":594641},"geometry":{"x":171064.59000000078,"y":2541565.9000000004}},{"attributes":{"ID":594669,"DIS_CODE":0,"TOWNNAME":"東區","LI":"崇善里","LIN":"5鄰","STREET":"崇善五街","SECT":" ","MAREA":" ","LANE":" ","ALLEY":" ","HOUSE_NO":"２８號","E_COORD97":171067.76000000001,"N_COORD97":2541569.6400000001,"ADDRESS":"崇善五街２８號","OBJECTID":594642},"geometry":{"x":171067.76000000164,"y":2541569.6400000025}},{"attributes":{"ID":594670,"DIS_CODE":0,"TOWNNAME":"東區","LI":"崇善里","LIN":"5鄰","STREET":"崇善五街","SECT":" ","MAREA":" ","LANE":" ","ALLEY":" ","HOUSE_NO":"３０號","E_COORD97":171072.09,"N_COORD97":2541571.6600000001,"ADDRESS":"崇善五街３０號","OBJECTID":594643},"geometry":{"x":171072.08999999985,"y":2541571.6600000001}},{"attributes":{"ID":594671,"DIS_CODE":0,"TOWNNAME":"東區","LI":"後甲里","LIN":"10鄰","STREET":"建東街","SECT":" ","MAREA":" ","LANE":" ","ALLEY":" ","HOUSE_NO":"５８號","E_COORD97":171760.67999999999,"N_COORD97":2543442.4100000001,"ADDRESS":"建東街５８號","OBJECTID":594644},"geometry":{"x":171760.6799999997,"y":2543442.410000002}},{"attributes":{"ID":594672,"DIS_CODE":0,"TOWNNAME":"東區","LI":"崇善里","LIN":"5鄰","STREET":"崇善五街","SECT":" ","MAREA":" ","LANE":" ","ALLEY":" ","HOUSE_NO":"２號地下一層","E_COORD97":171019.32999999999,"N_COORD97":2541544.2999999998,"ADDRESS":"崇善五街２號地下一層","OBJECTID":594645},"geometry":{"x":171019.33000000007,"y":2541544.3000000007}},{"attributes":{"ID":594673,"DIS_CODE":0,"TOWNNAME":"東區","LI":"崇德里","LIN":"20鄰","STREET":"崇明十四街","SECT":" ","MAREA":" ","LANE":" ","ALLEY":" ","HOUSE_NO":"４６號","E_COORD97":170638.54000000001,"N_COORD97":2541607.4300000002,"ADDRESS":"崇明十四街４６號","OBJECTID":594646},"geometry":{"x":170638.54000000004,"y":2541607.4300000016}},{"attributes":{"ID":594674,"DIS_CODE":0,"TOWNNAME":"東區","LI":"虎尾里","LIN":"1鄰","STREET":"東門路","SECT":"三段","MAREA":" ","LANE":" ","ALLEY":" ","HOUSE_NO":"２３９號","E_COORD97":171634.35000000001,"N_COORD97":2541908.1499999999,"ADDRESS":"東門路三段２３９號","OBJECTID":594647},"geometry":{"x":171634.34999999963,"y":2541908.1500000041}},{"attributes":{"ID":594675,"DIS_CODE":0,"TOWNNAME":"東區","LI":"後甲里","LIN":"10鄰","STREET":"建東街","SECT":" ","MAREA":" ","LANE":" ","ALLEY":" ","HOUSE_NO":"６２號","E_COORD97":171759.62,"N_COORD97":2543450.0800000001,"ADDRESS":"建東街６２號","OBJECTID":594648},"geometry":{"x":171759.62000000104,"y":2543450.0800000001}},{"attributes":{"ID":594676,"DIS_CODE":0,"TOWNNAME":"東區","LI":"崇明里","LIN":"11鄰","STREET":"大同路","SECT":"二段","MAREA":" ","LANE":" ","ALLEY":" ","HOUSE_NO":"６０１號","E_COORD97":169603.82000000001,"N_COORD97":2540982.75,"ADDRESS":"大同路二段６０１號","OBJECTID":594649},"geometry":{"x":169603.82000000123,"y":2540982.7500000019}},{"attributes":{"ID":594677,"DIS_CODE":0,"TOWNNAME":"新營區","LI":"民權里","LIN":"11鄰","STREET":"中華路","SECT":" ","MAREA":" ","LANE":" ","ALLEY":" ","HOUSE_NO":"１８之５號六樓之３","E_COORD97":179848.97,"N_COORD97":2578234.6400000001,"ADDRESS":"中華路１８之５號六樓之３","OBJECTID":594650},"geometry":{"x":179848.9700000016,"y":2578234.6400000006}},{"attributes":{"ID":594678,"DIS_CODE":0,"TOWNNAME":"南區","LI":"再興里","LIN":"11鄰","STREET":"仁慈街","SECT":" ","MAREA":" ","LANE":" ","ALLEY":" ","HOUSE_NO":"２７號六樓之１","E_COORD97":167244.85999999999,"N_COORD97":2542127.4399999999,"ADDRESS":"仁慈街２７號六樓之１","OBJECTID":594651},"geometry":{"x":167244.8599999994,"y":2542127.4399999995}},{"attributes":{"ID":594679,"DIS_CODE":0,"TOWNNAME":"南區","LI":"再興里","LIN":"11鄰","STREET":"仁慈街","SECT":" ","MAREA":" ","LANE":" ","ALLEY":" ","HOUSE_NO":"２７號三樓之４","E_COORD97":167244.85999999999,"N_COORD97":2542127.4399999999,"ADDRESS":"仁慈街２７號三樓之４","OBJECTID":594652},"geometry":{"x":167244.8599999994,"y":2542127.4399999995}},{"attributes":{"ID":594680,"DIS_CODE":0,"TOWNNAME":"南區","LI":"再興里","LIN":"11鄰","STREET":"仁慈街","SECT":" ","MAREA":" ","LANE":" ","ALLEY":" ","HOUSE_NO":"２７號七樓之１","E_COORD97":167244.85999999999,"N_COORD97":2542127.4399999999,"ADDRESS":"仁慈街２７號七樓之１","OBJECTID":594653},"geometry":{"x":167244.8599999994,"y":2542127.4399999995}},{"attributes":{"ID":594681,"DIS_CODE":0,"TOWNNAME":"南區","LI":"再興里","LIN":"11鄰","STREET":"仁慈街","SECT":" ","MAREA":" ","LANE":" ","ALLEY":" ","HOUSE_NO":"２７號七樓之１０","E_COORD97":167244.85999999999,"N_COORD97":2542127.4399999999,"ADDRESS":"仁慈街２７號七樓之１０","OBJECTID":594654},"geometry":{"x":167244.8599999994,"y":2542127.4399999995}},{"attributes":{"ID":594682,"DIS_CODE":0,"TOWNNAME":"南區","LI":"再興里","LIN":"11鄰","STREET":"仁慈街","SECT":" ","MAREA":" ","LANE":" ","ALLEY":" ","HOUSE_NO":"２７號七樓之２","E_COORD97":167244.85999999999,"N_COORD97":2542127.4399999999,"ADDRESS":"仁慈街２７號七樓之２","OBJECTID":594655},"geometry":{"x":167244.8599999994,"y":2542127.4399999995}},{"attributes":{"ID":594683,"DIS_CODE":0,"TOWNNAME":"南區","LI":"再興里","LIN":"11鄰","STREET":"仁慈街","SECT":" ","MAREA":" ","LANE":" ","ALLEY":" ","HOUSE_NO":"２７號七樓之３","E_COORD97":167244.85999999999,"N_COORD97":2542127.4399999999,"ADDRESS":"仁慈街２７號七樓之３","OBJECTID":594656},"geometry":{"x":167244.8599999994,"y":2542127.4399999995}},{"attributes":{"ID":594684,"DIS_CODE":0,"TOWNNAME":"南區","LI":"再興里","LIN":"11鄰","STREET":"仁慈街","SECT":" ","MAREA":" ","LANE":" ","ALLEY":" ","HOUSE_NO":"２７號七樓之４","E_COORD97":167244.85999999999,"N_COORD97":2542127.4399999999,"ADDRESS":"仁慈街２７號七樓之４","OBJECTID":594657},"geometry":{"x":167244.8599999994,"y":2542127.4399999995}},{"attributes":{"ID":594685,"DIS_CODE":0,"TOWNNAME":"南區","LI":"再興里","LIN":"11鄰","STREET":"仁慈街","SECT":" ","MAREA":" ","LANE":" ","ALLEY":" ","HOUSE_NO":"２７號七樓之５","E_COORD97":167244.85999999999,"N_COORD97":2542127.4399999999,"ADDRESS":"仁慈街２７號七樓之５","OBJECTID":594658},"geometry":{"x":167244.8599999994,"y":2542127.4399999995}},{"attributes":{"ID":594686,"DIS_CODE":0,"TOWNNAME":"南區","LI":"再興里","LIN":"11鄰","STREET":"仁慈街","SECT":" ","MAREA":" ","LANE":" ","ALLEY":" ","HOUSE_NO":"２７號七樓之６","E_COORD97":167244.85999999999,"N_COORD97":2542127.4399999999,"ADDRESS":"仁慈街２７號七樓之６","OBJECTID":594659},"geometry":{"x":167244.8599999994,"y":2542127.4399999995}},{"attributes":{"ID":594687,"DIS_CODE":0,"TOWNNAME":"南區","LI":"再興里","LIN":"11鄰","STREET":"仁慈街","SECT":" ","MAREA":" ","LANE":" ","ALLEY":" ","HOUSE_NO":"２７號七樓之７","E_COORD97":167244.85999999999,"N_COORD97":2542127.4399999999,"ADDRESS":"仁慈街２７號七樓之７","OBJECTID":594660},"geometry":{"x":167244.8599999994,"y":2542127.4399999995}},{"attributes":{"ID":594688,"DIS_CODE":0,"TOWNNAME":"南區","LI":"再興里","LIN":"11鄰","STREET":"仁慈街","SECT":" ","MAREA":" ","LANE":" ","ALLEY":" ","HOUSE_NO":"２７號七樓之８","E_COORD97":167244.85999999999,"N_COORD97":2542127.4399999999,"ADDRESS":"仁慈街２７號七樓之８","OBJECTID":594661},"geometry":{"x":167244.8599999994,"y":2542127.4399999995}},{"attributes":{"ID":594689,"DIS_CODE":0,"TOWNNAME":"南區","LI":"再興里","LIN":"11鄰","STREET":"仁慈街","SECT":" ","MAREA":" ","LANE":" ","ALLEY":" ","HOUSE_NO":"２７號三樓之１","E_COORD97":167244.85999999999,"N_COORD97":2542127.4399999999,"ADDRESS":"仁慈街２７號三樓之１","OBJECTID":594662},"geometry":{"x":167244.8599999994,"y":2542127.4399999995}},{"attributes":{"ID":594690,"DIS_CODE":0,"TOWNNAME":"南區","LI":"再興里","LIN":"11鄰","STREET":"仁慈街","SECT":" ","MAREA":" ","LANE":" ","ALLEY":" ","HOUSE_NO":"２７號三樓之２","E_COORD97":167244.85999999999,"N_COORD97":2542127.4399999999,"ADDRESS":"仁慈街２７號三樓之２","OBJECTID":594663},"geometry":{"x":167244.8599999994,"y":2542127.4399999995}},{"attributes":{"ID":594691,"DIS_CODE":0,"TOWNNAME":"南區","LI":"再興里","LIN":"11鄰","STREET":"仁慈街","SECT":" ","MAREA":" ","LANE":" ","ALLEY":" ","HOUSE_NO":"２７號三樓之３","E_COORD97":167244.85999999999,"N_COORD97":2542127.4399999999,"ADDRESS":"仁慈街２７號三樓之３","OBJECTID":594664},"geometry":{"x":167244.8599999994,"y":2542127.4399999995}},{"attributes":{"ID":594692,"DIS_CODE":0,"TOWNNAME":"南區","LI":"再興里","LIN":"11鄰","STREET":"仁慈街","SECT":" ","MAREA":" ","LANE":" ","ALLEY":" ","HOUSE_NO":"２７號三樓之５","E_COORD97":167244.85999999999,"N_COORD97":2542127.4399999999,"ADDRESS":"仁慈街２７號三樓之５","OBJECTID":594665},"geometry":{"x":167244.8599999994,"y":2542127.4399999995}},{"attributes":{"ID":594693,"DIS_CODE":0,"TOWNNAME":"南區","LI":"再興里","LIN":"11鄰","STREET":"仁慈街","SECT":" ","MAREA":" ","LANE":" ","ALLEY":" ","HOUSE_NO":"２７號三樓之６","E_COORD97":167244.85999999999,"N_COORD97":2542127.4399999999,"ADDRESS":"仁慈街２７號三樓之６","OBJECTID":594666},"geometry":{"x":167244.8599999994,"y":2542127.4399999995}},{"attributes":{"ID":594694,"DIS_CODE":0,"TOWNNAME":"南區","LI":"再興里","LIN":"11鄰","STREET":"仁慈街","SECT":" ","MAREA":" ","LANE":" ","ALLEY":" ","HOUSE_NO":"２７號三樓之７","E_COORD97":167244.85999999999,"N_COORD97":2542127.4399999999,"ADDRESS":"仁慈街２７號三樓之７","OBJECTID":594667},"geometry":{"x":167244.8599999994,"y":2542127.4399999995}},{"attributes":{"ID":594695,"DIS_CODE":0,"TOWNNAME":"南區","LI":"再興里","LIN":"11鄰","STREET":"仁慈街","SECT":" ","MAREA":" ","LANE":" ","ALLEY":" ","HOUSE_NO":"２７號三樓之８","E_COORD97":167244.85999999999,"N_COORD97":2542127.4399999999,"ADDRESS":"仁慈街２７號三樓之８","OBJECTID":594668},"geometry":{"x":167244.8599999994,"y":2542127.4399999995}},{"attributes":{"ID":594696,"DIS_CODE":0,"TOWNNAME":"南區","LI":"再興里","LIN":"11鄰","STREET":"仁慈街","SECT":" ","MAREA":" ","LANE":" ","ALLEY":" ","HOUSE_NO":"２７號三樓之９","E_COORD97":167244.85999999999,"N_COORD97":2542127.4399999999,"ADDRESS":"仁慈街２７號三樓之９","OBJECTID":594669},"geometry":{"x":167244.8599999994,"y":2542127.4399999995}},{"attributes":{"ID":594697,"DIS_CODE":0,"TOWNNAME":"南區","LI":"再興里","LIN":"11鄰","STREET":"仁慈街","SECT":" ","MAREA":" ","LANE":" ","ALLEY":" ","HOUSE_NO":"２７號五樓之１","E_COORD97":167244.85999999999,"N_COORD97":2542127.4399999999,"ADDRESS":"仁慈街２７號五樓之１","OBJECTID":594670},"geometry":{"x":167244.8599999994,"y":2542127.4399999995}},{"attributes":{"ID":594698,"DIS_CODE":0,"TOWNNAME":"南區","LI":"再興里","LIN":"11鄰","STREET":"仁慈街","SECT":" ","MAREA":" ","LANE":" ","ALLEY":" ","HOUSE_NO":"２７號五樓之１０","E_COORD97":167244.85999999999,"N_COORD97":2542127.4399999999,"ADDRESS":"仁慈街２７號五樓之１０","OBJECTID":594671},"geometry":{"x":167244.8599999994,"y":2542127.4399999995}},{"attributes":{"ID":594699,"DIS_CODE":0,"TOWNNAME":"南區","LI":"再興里","LIN":"11鄰","STREET":"仁慈街","SECT":" ","MAREA":" ","LANE":" ","ALLEY":" ","HOUSE_NO":"２７號五樓之２","E_COORD97":167244.85999999999,"N_COORD97":2542127.4399999999,"ADDRESS":"仁慈街２７號五樓之２","OBJECTID":594672},"geometry":{"x":167244.8599999994,"y":2542127.4399999995}},{"attributes":{"ID":594700,"DIS_CODE":0,"TOWNNAME":"南區","LI":"再興里","LIN":"11鄰","STREET":"仁慈街","SECT":" ","MAREA":" ","LANE":" ","ALLEY":" ","HOUSE_NO":"２７號五樓之３","E_COORD97":167244.85999999999,"N_COORD97":2542127.4399999999,"ADDRESS":"仁慈街２７號五樓之３","OBJECTID":594673},"geometry":{"x":167244.8599999994,"y":2542127.4399999995}},{"attributes":{"ID":594701,"DIS_CODE":0,"TOWNNAME":"南區","LI":"再興里","LIN":"11鄰","STREET":"仁慈街","SECT":" ","MAREA":" ","LANE":" ","ALLEY":" ","HOUSE_NO":"２７號五樓之４","E_COORD97":167244.85999999999,"N_COORD97":2542127.4399999999,"ADDRESS":"仁慈街２７號五樓之４","OBJECTID":594674},"geometry":{"x":167244.8599999994,"y":2542127.4399999995}},{"attributes":{"ID":594702,"DIS_CODE":0,"TOWNNAME":"南區","LI":"再興里","LIN":"11鄰","STREET":"仁慈街","SECT":" ","MAREA":" ","LANE":" ","ALLEY":" ","HOUSE_NO":"２７號五樓之５","E_COORD97":167244.85999999999,"N_COORD97":2542127.4399999999,"ADDRESS":"仁慈街２７號五樓之５","OBJECTID":594675},"geometry":{"x":167244.8599999994,"y":2542127.4399999995}},{"attributes":{"ID":594703,"DIS_CODE":0,"TOWNNAME":"南區","LI":"再興里","LIN":"11鄰","STREET":"仁慈街","SECT":" ","MAREA":" ","LANE":" ","ALLEY":" ","HOUSE_NO":"２７號五樓之６","E_COORD97":167244.85999999999,"N_COORD97":2542127.4399999999,"ADDRESS":"仁慈街２７號五樓之６","OBJECTID":594676},"geometry":{"x":167244.8599999994,"y":2542127.4399999995}},{"attributes":{"ID":594704,"DIS_CODE":0,"TOWNNAME":"南區","LI":"再興里","LIN":"11鄰","STREET":"仁慈街","SECT":" ","MAREA":" ","LANE":" ","ALLEY":" ","HOUSE_NO":"２７號五樓之７","E_COORD97":167244.85999999999,"N_COORD97":2542127.4399999999,"ADDRESS":"仁慈街２７號五樓之７","OBJECTID":594677},"geometry":{"x":167244.8599999994,"y":2542127.4399999995}},{"attributes":{"ID":594705,"DIS_CODE":0,"TOWNNAME":"南區","LI":"再興里","LIN":"11鄰","STREET":"仁慈街","SECT":" ","MAREA":" ","LANE":" ","ALLEY":" ","HOUSE_NO":"２７號五樓之８","E_COORD97":167244.85999999999,"N_COORD97":2542127.4399999999,"ADDRESS":"仁慈街２７號五樓之８","OBJECTID":594678},"geometry":{"x":167244.8599999994,"y":2542127.4399999995}},{"attributes":{"ID":594706,"DIS_CODE":0,"TOWNNAME":"南區","LI":"再興里","LIN":"11鄰","STREET":"仁慈街","SECT":" ","MAREA":" ","LANE":" ","ALLEY":" ","HOUSE_NO":"２７號五樓之９","E_COORD97":167244.85999999999,"N_COORD97":2542127.4399999999,"ADDRESS":"仁慈街２７號五樓之９","OBJECTID":594679},"geometry":{"x":167244.8599999994,"y":2542127.4399999995}},{"attributes":{"ID":594707,"DIS_CODE":0,"TOWNNAME":"南區","LI":"再興里","LIN":"11鄰","STREET":"仁慈街","SECT":" ","MAREA":" ","LANE":" ","ALLEY":" ","HOUSE_NO":"２７號六樓之２","E_COORD97":167244.85999999999,"N_COORD97":2542127.4399999999,"ADDRESS":"仁慈街２７號六樓之２","OBJECTID":594680},"geometry":{"x":167244.8599999994,"y":2542127.4399999995}},{"attributes":{"ID":594708,"DIS_CODE":0,"TOWNNAME":"南區","LI":"再興里","LIN":"11鄰","STREET":"仁慈街","SECT":" ","MAREA":" ","LANE":" ","ALLEY":" ","HOUSE_NO":"２７號六樓之３","E_COORD97":167244.85999999999,"N_COORD97":2542127.4399999999,"ADDRESS":"仁慈街２７號六樓之３","OBJECTID":594681},"geometry":{"x":167244.8599999994,"y":2542127.4399999995}},{"attributes":{"ID":594709,"DIS_CODE":0,"TOWNNAME":"南區","LI":"再興里","LIN":"11鄰","STREET":"仁慈街","SECT":" ","MAREA":" ","LANE":" ","ALLEY":" ","HOUSE_NO":"２７號六樓之４","E_COORD97":167244.85999999999,"N_COORD97":2542127.4399999999,"ADDRESS":"仁慈街２７號六樓之４","OBJECTID":594682},"geometry":{"x":167244.8599999994,"y":2542127.4399999995}},{"attributes":{"ID":594710,"DIS_CODE":0,"TOWNNAME":"南區","LI":"再興里","LIN":"11鄰","STREET":"仁慈街","SECT":" ","MAREA":" ","LANE":" ","ALLEY":" ","HOUSE_NO":"２７號六樓之５","E_COORD97":167244.85999999999,"N_COORD97":2542127.4399999999,"ADDRESS":"仁慈街２７號六樓之５","OBJECTID":594683},"geometry":{"x":167244.8599999994,"y":2542127.4399999995}},{"attributes":{"ID":594711,"DIS_CODE":0,"TOWNNAME":"南區","LI":"再興里","LIN":"11鄰","STREET":"仁慈街","SECT":" ","MAREA":" ","LANE":" ","ALLEY":" ","HOUSE_NO":"２７號六樓之６","E_COORD97":167244.85999999999,"N_COORD97":2542127.4399999999,"ADDRESS":"仁慈街２７號六樓之６","OBJECTID":594684},"geometry":{"x":167244.8599999994,"y":2542127.4399999995}},{"attributes":{"ID":594712,"DIS_CODE":0,"TOWNNAME":"南區","LI":"再興里","LIN":"11鄰","STREET":"仁慈街","SECT":" ","MAREA":" ","LANE":" ","ALLEY":" ","HOUSE_NO":"２７號六樓之７","E_COORD97":167244.85999999999,"N_COORD97":2542127.4399999999,"ADDRESS":"仁慈街２７號六樓之７","OBJECTID":594685},"geometry":{"x":167244.8599999994,"y":2542127.4399999995}},{"attributes":{"ID":594713,"DIS_CODE":0,"TOWNNAME":"南區","LI":"再興里","LIN":"11鄰","STREET":"仁慈街","SECT":" ","MAREA":" ","LANE":" ","ALLEY":" ","HOUSE_NO":"２７號六樓之８","E_COORD97":167244.85999999999,"N_COORD97":2542127.4399999999,"ADDRESS":"仁慈街２７號六樓之８","OBJECTID":594686},"geometry":{"x":167244.8599999994,"y":2542127.4399999995}},{"attributes":{"ID":594714,"DIS_CODE":0,"TOWNNAME":"南區","LI":"再興里","LIN":"11鄰","STREET":"仁慈街","SECT":" ","MAREA":" ","LANE":" ","ALLEY":" ","HOUSE_NO":"２７號六樓之９","E_COORD97":167244.85999999999,"N_COORD97":2542127.4399999999,"ADDRESS":"仁慈街２７號六樓之９","OBJECTID":594687},"geometry":{"x":167244.8599999994,"y":2542127.4399999995}},{"attributes":{"ID":594715,"DIS_CODE":0,"TOWNNAME":"東區","LI":"後甲里","LIN":"10鄰","STREET":"建東街","SECT":" ","MAREA":" ","LANE":" ","ALLEY":" ","HOUSE_NO":"５９號","E_COORD97":171742.92999999999,"N_COORD97":2543448.5,"ADDRESS":"建東街５９號","OBJECTID":594688},"geometry":{"x":171742.93000000156,"y":2543448.5000000019}},{"attributes":{"ID":594716,"DIS_CODE":0,"TOWNNAME":"南區","LI":"再興里","LIN":"11鄰","STREET":"仁慈街","SECT":" ","MAREA":" ","LANE":" ","ALLEY":" ","HOUSE_NO":"２７號四樓之１","E_COORD97":167244.85999999999,"N_COORD97":2542127.4399999999,"ADDRESS":"仁慈街２７號四樓之１","OBJECTID":594689},"geometry":{"x":167244.8599999994,"y":2542127.4399999995}},{"attributes":{"ID":594717,"DIS_CODE":0,"TOWNNAME":"南區","LI":"再興里","LIN":"11鄰","STREET":"仁慈街","SECT":" ","MAREA":" ","LANE":" ","ALLEY":" ","HOUSE_NO":"２７號四樓之２","E_COORD97":167244.85999999999,"N_COORD97":2542127.4399999999,"ADDRESS":"仁慈街２７號四樓之２","OBJECTID":594690},"geometry":{"x":167244.8599999994,"y":2542127.4399999995}},{"attributes":{"ID":594718,"DIS_CODE":0,"TOWNNAME":"南區","LI":"再興里","LIN":"11鄰","STREET":"仁慈街","SECT":" ","MAREA":" ","LANE":" ","ALLEY":" ","HOUSE_NO":"２７號四樓之３","E_COORD97":167244.85999999999,"N_COORD97":2542127.4399999999,"ADDRESS":"仁慈街２７號四樓之３","OBJECTID":594691},"geometry":{"x":167244.8599999994,"y":2542127.4399999995}},{"attributes":{"ID":594719,"DIS_CODE":0,"TOWNNAME":"南區","LI":"再興里","LIN":"11鄰","STREET":"仁慈街","SECT":" ","MAREA":" ","LANE":" ","ALLEY":" ","HOUSE_NO":"２７號四樓之４","E_COORD97":167244.85999999999,"N_COORD97":2542127.4399999999,"ADDRESS":"仁慈街２７號四樓之４","OBJECTID":594692},"geometry":{"x":167244.8599999994,"y":2542127.4399999995}},{"attributes":{"ID":594720,"DIS_CODE":0,"TOWNNAME":"南區","LI":"再興里","LIN":"11鄰","STREET":"仁慈街","SECT":" ","MAREA":" ","LANE":" ","ALLEY":" ","HOUSE_NO":"２７號四樓之５","E_COORD97":167244.85999999999,"N_COORD97":2542127.4399999999,"ADDRESS":"仁慈街２７號四樓之５","OBJECTID":594693},"geometry":{"x":167244.8599999994,"y":2542127.4399999995}},{"attributes":{"ID":594721,"DIS_CODE":0,"TOWNNAME":"南區","LI":"再興里","LIN":"11鄰","STREET":"仁慈街","SECT":" ","MAREA":" ","LANE":" ","ALLEY":" ","HOUSE_NO":"２７號四樓之６","E_COORD97":167244.85999999999,"N_COORD97":2542127.4399999999,"ADDRESS":"仁慈街２７號四樓之６","OBJECTID":594694},"geometry":{"x":167244.8599999994,"y":2542127.4399999995}},{"attributes":{"ID":594722,"DIS_CODE":0,"TOWNNAME":"南區","LI":"再興里","LIN":"11鄰","STREET":"仁慈街","SECT":" ","MAREA":" ","LANE":" ","ALLEY":" ","HOUSE_NO":"２７號四樓之７","E_COORD97":167244.85999999999,"N_COORD97":2542127.4399999999,"ADDRESS":"仁慈街２７號四樓之７","OBJECTID":594695},"geometry":{"x":167244.8599999994,"y":2542127.4399999995}},{"attributes":{"ID":594723,"DIS_CODE":0,"TOWNNAME":"南區","LI":"再興里","LIN":"11鄰","STREET":"仁慈街","SECT":" ","MAREA":" ","LANE":" ","ALLEY":" ","HOUSE_NO":"２７號四樓之８","E_COORD97":167244.85999999999,"N_COORD97":2542127.4399999999,"ADDRESS":"仁慈街２７號四樓之８","OBJECTID":594696},"geometry":{"x":167244.8599999994,"y":2542127.4399999995}},{"attributes":{"ID":594724,"DIS_CODE":0,"TOWNNAME":"南區","LI":"再興里","LIN":"11鄰","STREET":"仁慈街","SECT":" ","MAREA":" ","LANE":" ","ALLEY":" ","HOUSE_NO":"２７號四樓之９","E_COORD97":167244.85999999999,"N_COORD97":2542127.4399999999,"ADDRESS":"仁慈街２７號四樓之９","OBJECTID":594697},"geometry":{"x":167244.8599999994,"y":2542127.4399999995}},{"attributes":{"ID":594725,"DIS_CODE":0,"TOWNNAME":"東區","LI":"後甲里","LIN":"12鄰","STREET":"建東街","SECT":" ","MAREA":" ","LANE":" ","ALLEY":" ","HOUSE_NO":"２７號","E_COORD97":171775.03,"N_COORD97":2543342.5299999998,"ADDRESS":"建東街２７號","OBJECTID":594698},"geometry":{"x":171775.03000000212,"y":2543342.5300000012}},{"attributes":{"ID":594726,"DIS_CODE":0,"TOWNNAME":"東區","LI":"後甲里","LIN":"10鄰","STREET":"建東街","SECT":" ","MAREA":" ","LANE":" ","ALLEY":" ","HOUSE_NO":"４７號","E_COORD97":171742.39999999999,"N_COORD97":2543427.5899999999,"ADDRESS":"建東街４７號","OBJECTID":594699},"geometry":{"x":171742.4000000013,"y":2543427.5900000017}},{"attributes":{"ID":594727,"DIS_CODE":0,"TOWNNAME":"東區","LI":"後甲里","LIN":"10鄰","STREET":"建東街","SECT":" ","MAREA":" ","LANE":" ","ALLEY":" ","HOUSE_NO":"６０號","E_COORD97":171760.14999999999,"N_COORD97":2543446.9100000001,"ADDRESS":"建東街６０號","OBJECTID":594700},"geometry":{"x":171760.15000000037,"y":2543446.910000002}},{"attributes":{"ID":594728,"DIS_CODE":0,"TOWNNAME":"東區","LI":"圍下里","LIN":"9鄰","STREET":"勝利路","SECT":" ","MAREA":" ","LANE":" ","ALLEY":" ","HOUSE_NO":"９３號","E_COORD97":169800.19,"N_COORD97":2543616.75,"ADDRESS":"勝利路９３號","OBJECTID":594701},"geometry":{"x":169800.19000000041,"y":2543616.7500000019}},{"attributes":{"ID":594729,"DIS_CODE":0,"TOWNNAME":"東區","LI":"圍下里","LIN":"9鄰","STREET":"勝利路","SECT":" ","MAREA":" ","LANE":" ","ALLEY":" ","HOUSE_NO":"９３號之１","E_COORD97":169801,"N_COORD97":2543620.2999999998,"ADDRESS":"勝利路９３號之１","OBJECTID":594702},"geometry":{"x":169801,"y":2543620.3000000026}},{"attributes":{"ID":594730,"DIS_CODE":0,"TOWNNAME":"東區","LI":"後甲里","LIN":"29鄰","STREET":"建東街","SECT":" ","MAREA":" ","LANE":" ","ALLEY":" ","HOUSE_NO":"１號","E_COORD97":171782.98000000001,"N_COORD97":2543261.1499999999,"ADDRESS":"建東街１號","OBJECTID":594703},"geometry":{"x":171782.98000000138,"y":2543261.1500000022}},{"attributes":{"ID":594731,"DIS_CODE":0,"TOWNNAME":"東區","LI":"後甲里","LIN":"29鄰","STREET":"建東街","SECT":" ","MAREA":" ","LANE":" ","ALLEY":" ","HOUSE_NO":"３號","E_COORD97":171783.76999999999,"N_COORD97":2543267.5,"ADDRESS":"建東街３號","OBJECTID":594704},"geometry":{"x":171783.76999999955,"y":2543267.5}},{"attributes":{"ID":594732,"DIS_CODE":0,"TOWNNAME":"東區","LI":"後甲里","LIN":"29鄰","STREET":"建東街","SECT":" ","MAREA":" ","LANE":" ","ALLEY":" ","HOUSE_NO":"５號","E_COORD97":171779.53,"N_COORD97":2543276.1000000001,"ADDRESS":"建東街５號","OBJECTID":594705},"geometry":{"x":171779.53000000026,"y":2543276.0999999996}},{"attributes":{"ID":594733,"DIS_CODE":0,"TOWNNAME":"東區","LI":"後甲里","LIN":"10鄰","STREET":"建東街","SECT":" ","MAREA":" ","LANE":" ","ALLEY":" ","HOUSE_NO":"６６號","E_COORD97":171760.14999999999,"N_COORD97":2543457.7599999998,"ADDRESS":"建東街６６號","OBJECTID":594706},"geometry":{"x":171760.15000000037,"y":2543457.7599999998}},{"attributes":{"ID":594734,"DIS_CODE":0,"TOWNNAME":"東區","LI":"後甲里","LIN":"10鄰","STREET":"建東街","SECT":" ","MAREA":" ","LANE":" ","ALLEY":" ","HOUSE_NO":"６８號","E_COORD97":171759.62,"N_COORD97":2543463.8500000001,"ADDRESS":"建東街６８號","OBJECTID":594707},"geometry":{"x":171759.62000000104,"y":2543463.8499999996}},{"attributes":{"ID":594735,"DIS_CODE":0,"TOWNNAME":"東區","LI":"後甲里","LIN":"10鄰","STREET":"建東街","SECT":" ","MAREA":" ","LANE":" ","ALLEY":" ","HOUSE_NO":"７３號","E_COORD97":171742.66,"N_COORD97":2543474.96,"ADDRESS":"建東街７３號","OBJECTID":594708},"geometry":{"x":171742.66000000015,"y":2543474.9600000009}},{"attributes":{"ID":594736,"DIS_CODE":0,"TOWNNAME":"東區","LI":"後甲里","LIN":"10鄰","STREET":"建東街","SECT":" ","MAREA":" ","LANE":" ","ALLEY":" ","HOUSE_NO":"７４號","E_COORD97":171759.62,"N_COORD97":2543474.4300000002,"ADDRESS":"建東街７４號","OBJECTID":594709},"geometry":{"x":171759.62000000104,"y":2543474.4299999997}},{"attributes":{"ID":594737,"DIS_CODE":0,"TOWNNAME":"東區","LI":"後甲里","LIN":"10鄰","STREET":"建東街","SECT":" ","MAREA":" ","LANE":" ","ALLEY":" ","HOUSE_NO":"７５號","E_COORD97":171741.34,"N_COORD97":2543479.2000000002,"ADDRESS":"建東街７５號","OBJECTID":594710},"geometry":{"x":171741.33999999985,"y":2543479.1999999993}},{"attributes":{"ID":594738,"DIS_CODE":0,"TOWNNAME":"東區","LI":"後甲里","LIN":"10鄰","STREET":"建東街","SECT":" ","MAREA":" ","LANE":" ","ALLEY":" ","HOUSE_NO":"７６號","E_COORD97":171759.35999999999,"N_COORD97":2543478.4100000001,"ADDRESS":"建東街７６號","OBJECTID":594711},"geometry":{"x":171759.3600000022,"y":2543478.4100000001}},{"attributes":{"ID":594739,"DIS_CODE":0,"TOWNNAME":"東區","LI":"後甲里","LIN":"10鄰","STREET":"建東街","SECT":" ","MAREA":" ","LANE":" ","ALLEY":" ","HOUSE_NO":"７８號","E_COORD97":171759.09,"N_COORD97":2543482.8999999999,"ADDRESS":"建東街７８號","OBJECTID":594712},"geometry":{"x":171759.09000000078,"y":2543482.9000000041}},{"attributes":{"ID":594740,"DIS_CODE":0,"TOWNNAME":"東區","LI":"後甲里","LIN":"12鄰","STREET":"建東街","SECT":" ","MAREA":" ","LANE":" ","ALLEY":" ","HOUSE_NO":"１７號","E_COORD97":171780.32999999999,"N_COORD97":2543312.6200000001,"ADDRESS":"建東街１７號","OBJECTID":594713},"geometry":{"x":171780.33000000101,"y":2543312.6200000048}},{"attributes":{"ID":594741,"DIS_CODE":0,"TOWNNAME":"歸仁區","LI":"歸仁里","LIN":"11鄰","STREET":"信義北路","SECT":" ","MAREA":" ","LANE":" ","ALLEY":" ","HOUSE_NO":"７７號七樓","E_COORD97":177961.01000000001,"N_COORD97":2540972.48,"ADDRESS":"信義北路７７號七樓","OBJECTID":594714},"geometry":{"x":177961.01000000071,"y":2540972.4800000004}},{"attributes":{"ID":594742,"DIS_CODE":0,"TOWNNAME":"安平區","LI":"育平里","LIN":"11鄰","STREET":"育平五街","SECT":" ","MAREA":" ","LANE":" ","ALLEY":" ","HOUSE_NO":"７３號二樓","E_COORD97":164675.63,"N_COORD97":2543495.9100000001,"ADDRESS":"育平五街７３號二樓","OBJECTID":594715},"geometry":{"x":164675.62999999989,"y":2543495.9099999983}},{"attributes":{"ID":594743,"DIS_CODE":0,"TOWNNAME":"安平區","LI":"育平里","LIN":"11鄰","STREET":"育平五街","SECT":" ","MAREA":" ","LANE":" ","ALLEY":" ","HOUSE_NO":"７７號七樓之１","E_COORD97":164649.44,"N_COORD97":2543485.8900000001,"ADDRESS":"育平五街７７號七樓之１","OBJECTID":594716},"geometry":{"x":164649.44000000134,"y":2543485.8900000006}},{"attributes":{"ID":594744,"DIS_CODE":0,"TOWNNAME":"安平區","LI":"育平里","LIN":"11鄰","STREET":"育平五街","SECT":" ","MAREA":" ","LANE":" ","ALLEY":" ","HOUSE_NO":"７７號七樓之１０","E_COORD97":164649.44,"N_COORD97":2543485.8900000001,"ADDRESS":"育平五街７７號七樓之１０","OBJECTID":594717},"geometry":{"x":164649.44000000134,"y":2543485.8900000006}},{"attributes":{"ID":594745,"DIS_CODE":0,"TOWNNAME":"安平區","LI":"育平里","LIN":"11鄰","STREET":"育平五街","SECT":" ","MAREA":" ","LANE":" ","ALLEY":" ","HOUSE_NO":"７７號七樓之１１","E_COORD97":164649.44,"N_COORD97":2543485.8900000001,"ADDRESS":"育平五街７７號七樓之１１","OBJECTID":594718},"geometry":{"x":164649.44000000134,"y":2543485.8900000006}},{"attributes":{"ID":594746,"DIS_CODE":0,"TOWNNAME":"安平區","LI":"育平里","LIN":"11鄰","STREET":"育平五街","SECT":" ","MAREA":" ","LANE":" ","ALLEY":" ","HOUSE_NO":"７７號七樓之１２","E_COORD97":164649.44,"N_COORD97":2543485.8900000001,"ADDRESS":"育平五街７７號七樓之１２","OBJECTID":594719},"geometry":{"x":164649.44000000134,"y":2543485.8900000006}},{"attributes":{"ID":594747,"DIS_CODE":0,"TOWNNAME":"安平區","LI":"育平里","LIN":"11鄰","STREET":"育平五街","SECT":" ","MAREA":" ","LANE":" ","ALLEY":" ","HOUSE_NO":"７７號七樓之１３","E_COORD97":164649.44,"N_COORD97":2543485.8900000001,"ADDRESS":"育平五街７７號七樓之１３","OBJECTID":594720},"geometry":{"x":164649.44000000134,"y":2543485.8900000006}},{"attributes":{"ID":594748,"DIS_CODE":0,"TOWNNAME":"安平區","LI":"育平里","LIN":"11鄰","STREET":"育平五街","SECT":" ","MAREA":" ","LANE":" ","ALLEY":" ","HOUSE_NO":"７７號七樓之２","E_COORD97":164649.44,"N_COORD97":2543485.8900000001,"ADDRESS":"育平五街７７號七樓之２","OBJECTID":594721},"geometry":{"x":164649.44000000134,"y":2543485.8900000006}},{"attributes":{"ID":594749,"DIS_CODE":0,"TOWNNAME":"安平區","LI":"育平里","LIN":"11鄰","STREET":"育平五街","SECT":" ","MAREA":" ","LANE":" ","ALLEY":" ","HOUSE_NO":"７７號七樓之５","E_COORD97":164649.44,"N_COORD97":2543485.8900000001,"ADDRESS":"育平五街７７號七樓之５","OBJECTID":594722},"geometry":{"x":164649.44000000134,"y":2543485.8900000006}},{"attributes":{"ID":594750,"DIS_CODE":0,"TOWNNAME":"安平區","LI":"育平里","LIN":"11鄰","STREET":"育平五街","SECT":" ","MAREA":" ","LANE":" ","ALLEY":" ","HOUSE_NO":"７７號七樓之６","E_COORD97":164649.44,"N_COORD97":2543485.8900000001,"ADDRESS":"育平五街７７號七樓之６","OBJECTID":594723},"geometry":{"x":164649.44000000134,"y":2543485.8900000006}},{"attributes":{"ID":594751,"DIS_CODE":0,"TOWNNAME":"安平區","LI":"育平里","LIN":"11鄰","STREET":"育平五街","SECT":" ","MAREA":" ","LANE":" ","ALLEY":" ","HOUSE_NO":"７７號七樓之７","E_COORD97":164649.44,"N_COORD97":2543485.8900000001,"ADDRESS":"育平五街７７號七樓之７","OBJECTID":594724},"geometry":{"x":164649.44000000134,"y":2543485.8900000006}},{"attributes":{"ID":594752,"DIS_CODE":0,"TOWNNAME":"安平區","LI":"育平里","LIN":"11鄰","STREET":"育平五街","SECT":" ","MAREA":" ","LANE":" ","ALLEY":" ","HOUSE_NO":"７７號七樓之８","E_COORD97":164649.44,"N_COORD97":2543485.8900000001,"ADDRESS":"育平五街７７號七樓之８","OBJECTID":594725},"geometry":{"x":164649.44000000134,"y":2543485.8900000006}},{"attributes":{"ID":594753,"DIS_CODE":0,"TOWNNAME":"安平區","LI":"育平里","LIN":"11鄰","STREET":"育平五街","SECT":" ","MAREA":" ","LANE":" ","ALLEY":" ","HOUSE_NO":"７７號七樓之９","E_COORD97":164649.44,"N_COORD97":2543485.8900000001,"ADDRESS":"育平五街７７號七樓之９","OBJECTID":594726},"geometry":{"x":164649.44000000134,"y":2543485.8900000006}},{"attributes":{"ID":594754,"DIS_CODE":0,"TOWNNAME":"安平區","LI":"育平里","LIN":"11鄰","STREET":"育平五街","SECT":" ","MAREA":" ","LANE":" ","ALLEY":" ","HOUSE_NO":"７７號九樓之１","E_COORD97":164649.44,"N_COORD97":2543485.8900000001,"ADDRESS":"育平五街７７號九樓之１","OBJECTID":594727},"geometry":{"x":164649.44000000134,"y":2543485.8900000006}},{"attributes":{"ID":594755,"DIS_CODE":0,"TOWNNAME":"安平區","LI":"育平里","LIN":"11鄰","STREET":"育平五街","SECT":" ","MAREA":" ","LANE":" ","ALLEY":" ","HOUSE_NO":"７７號九樓之１０","E_COORD97":164649.44,"N_COORD97":2543485.8900000001,"ADDRESS":"育平五街７７號九樓之１０","OBJECTID":594728},"geometry":{"x":164649.44000000134,"y":2543485.8900000006}},{"attributes":{"ID":594756,"DIS_CODE":0,"TOWNNAME":"安平區","LI":"育平里","LIN":"11鄰","STREET":"育平五街","SECT":" ","MAREA":" ","LANE":" ","ALLEY":" ","HOUSE_NO":"７７號九樓之１１","E_COORD97":164649.44,"N_COORD97":2543485.8900000001,"ADDRESS":"育平五街７７號九樓之１１","OBJECTID":594729},"geometry":{"x":164649.44000000134,"y":2543485.8900000006}},{"attributes":{"ID":594757,"DIS_CODE":0,"TOWNNAME":"安平區","LI":"育平里","LIN":"11鄰","STREET":"育平五街","SECT":" ","MAREA":" ","LANE":" ","ALLEY":" ","HOUSE_NO":"７７號九樓之１２","E_COORD97":164649.44,"N_COORD97":2543485.8900000001,"ADDRESS":"育平五街７７號九樓之１２","OBJECTID":594730},"geometry":{"x":164649.44000000134,"y":2543485.8900000006}},{"attributes":{"ID":594758,"DIS_CODE":0,"TOWNNAME":"安平區","LI":"育平里","LIN":"11鄰","STREET":"育平五街","SECT":" ","MAREA":" ","LANE":" ","ALLEY":" ","HOUSE_NO":"７７號九樓之１３","E_COORD97":164649.44,"N_COORD97":2543485.8900000001,"ADDRESS":"育平五街７７號九樓之１３","OBJECTID":594731},"geometry":{"x":164649.44000000134,"y":2543485.8900000006}},{"attributes":{"ID":594759,"DIS_CODE":0,"TOWNNAME":"安平區","LI":"育平里","LIN":"11鄰","STREET":"育平五街","SECT":" ","MAREA":" ","LANE":" ","ALLEY":" ","HOUSE_NO":"７７號九樓之２","E_COORD97":164649.44,"N_COORD97":2543485.8900000001,"ADDRESS":"育平五街７７號九樓之２","OBJECTID":594732},"geometry":{"x":164649.44000000134,"y":2543485.8900000006}},{"attributes":{"ID":594760,"DIS_CODE":0,"TOWNNAME":"安平區","LI":"育平里","LIN":"11鄰","STREET":"育平五街","SECT":" ","MAREA":" ","LANE":" ","ALLEY":" ","HOUSE_NO":"７７號九樓之３","E_COORD97":164649.44,"N_COORD97":2543485.8900000001,"ADDRESS":"育平五街７７號九樓之３","OBJECTID":594733},"geometry":{"x":164649.44000000134,"y":2543485.8900000006}},{"attributes":{"ID":594761,"DIS_CODE":0,"TOWNNAME":"安平區","LI":"育平里","LIN":"11鄰","STREET":"育平五街","SECT":" ","MAREA":" ","LANE":" ","ALLEY":" ","HOUSE_NO":"７７號九樓之４","E_COORD97":164649.44,"N_COORD97":2543485.8900000001,"ADDRESS":"育平五街７７號九樓之４","OBJECTID":594734},"geometry":{"x":164649.44000000134,"y":2543485.8900000006}},{"attributes":{"ID":594762,"DIS_CODE":0,"TOWNNAME":"安平區","LI":"育平里","LIN":"11鄰","STREET":"育平五街","SECT":" ","MAREA":" ","LANE":" ","ALLEY":" ","HOUSE_NO":"７７號九樓之５","E_COORD97":164649.44,"N_COORD97":2543485.8900000001,"ADDRESS":"育平五街７７號九樓之５","OBJECTID":594735},"geometry":{"x":164649.44000000134,"y":2543485.8900000006}},{"attributes":{"ID":594763,"DIS_CODE":0,"TOWNNAME":"安平區","LI":"育平里","LIN":"11鄰","STREET":"育平五街","SECT":" ","MAREA":" ","LANE":" ","ALLEY":" ","HOUSE_NO":"７７號九樓之６","E_COORD97":164649.44,"N_COORD97":2543485.8900000001,"ADDRESS":"育平五街７７號九樓之６","OBJECTID":594736},"geometry":{"x":164649.44000000134,"y":2543485.8900000006}},{"attributes":{"ID":594764,"DIS_CODE":0,"TOWNNAME":"安平區","LI":"育平里","LIN":"11鄰","STREET":"育平五街","SECT":" ","MAREA":" ","LANE":" ","ALLEY":" ","HOUSE_NO":"７７號九樓之７","E_COORD97":164649.44,"N_COORD97":2543485.8900000001,"ADDRESS":"育平五街７７號九樓之７","OBJECTID":594737},"geometry":{"x":164649.44000000134,"y":2543485.8900000006}},{"attributes":{"ID":594765,"DIS_CODE":0,"TOWNNAME":"安平區","LI":"育平里","LIN":"11鄰","STREET":"育平五街","SECT":" ","MAREA":" ","LANE":" ","ALLEY":" ","HOUSE_NO":"７７號九樓之８","E_COORD97":164649.44,"N_COORD97":2543485.8900000001,"ADDRESS":"育平五街７７號九樓之８","OBJECTID":594738},"geometry":{"x":164649.44000000134,"y":2543485.8900000006}},{"attributes":{"ID":594766,"DIS_CODE":0,"TOWNNAME":"安平區","LI":"育平里","LIN":"11鄰","STREET":"育平五街","SECT":" ","MAREA":" ","LANE":" ","ALLEY":" ","HOUSE_NO":"７７號九樓之９","E_COORD97":164649.44,"N_COORD97":2543485.8900000001,"ADDRESS":"育平五街７７號九樓之９","OBJECTID":594739},"geometry":{"x":164649.44000000134,"y":2543485.8900000006}},{"attributes":{"ID":594767,"DIS_CODE":0,"TOWNNAME":"安平區","LI":"育平里","LIN":"11鄰","STREET":"育平五街","SECT":" ","MAREA":" ","LANE":" ","ALLEY":" ","HOUSE_NO":"７７號二樓之１","E_COORD97":164649.44,"N_COORD97":2543485.8900000001,"ADDRESS":"育平五街７７號二樓之１","OBJECTID":594740},"geometry":{"x":164649.44000000134,"y":2543485.8900000006}},{"attributes":{"ID":594768,"DIS_CODE":0,"TOWNNAME":"安平區","LI":"育平里","LIN":"11鄰","STREET":"育平五街","SECT":" ","MAREA":" ","LANE":" ","ALLEY":" ","HOUSE_NO":"７７號二樓之２","E_COORD97":164649.44,"N_COORD97":2543485.8900000001,"ADDRESS":"育平五街７７號二樓之２","OBJECTID":594741},"geometry":{"x":164649.44000000134,"y":2543485.8900000006}},{"attributes":{"ID":594769,"DIS_CODE":0,"TOWNNAME":"安平區","LI":"育平里","LIN":"11鄰","STREET":"育平五街","SECT":" ","MAREA":" ","LANE":" ","ALLEY":" ","HOUSE_NO":"７７號二樓之３","E_COORD97":164649.44,"N_COORD97":2543485.8900000001,"ADDRESS":"育平五街７７號二樓之３","OBJECTID":594742},"geometry":{"x":164649.44000000134,"y":2543485.8900000006}},{"attributes":{"ID":594770,"DIS_CODE":0,"TOWNNAME":"安平區","LI":"育平里","LIN":"11鄰","STREET":"育平五街","SECT":" ","MAREA":" ","LANE":" ","ALLEY":" ","HOUSE_NO":"７７號二樓之５","E_COORD97":164649.44,"N_COORD97":2543485.8900000001,"ADDRESS":"育平五街７７號二樓之５","OBJECTID":594743},"geometry":{"x":164649.44000000134,"y":2543485.8900000006}},{"attributes":{"ID":594771,"DIS_CODE":0,"TOWNNAME":"安平區","LI":"育平里","LIN":"11鄰","STREET":"育平五街","SECT":" ","MAREA":" ","LANE":" ","ALLEY":" ","HOUSE_NO":"７７號八樓之１","E_COORD97":164649.44,"N_COORD97":2543485.8900000001,"ADDRESS":"育平五街７７號八樓之１","OBJECTID":594744},"geometry":{"x":164649.44000000134,"y":2543485.8900000006}},{"attributes":{"ID":594772,"DIS_CODE":0,"TOWNNAME":"安平區","LI":"育平里","LIN":"11鄰","STREET":"育平五街","SECT":" ","MAREA":" ","LANE":" ","ALLEY":" ","HOUSE_NO":"７７號八樓之１０","E_COORD97":164649.44,"N_COORD97":2543485.8900000001,"ADDRESS":"育平五街７７號八樓之１０","OBJECTID":594745},"geometry":{"x":164649.44000000134,"y":2543485.8900000006}},{"attributes":{"ID":594773,"DIS_CODE":0,"TOWNNAME":"安平區","LI":"育平里","LIN":"11鄰","STREET":"育平五街","SECT":" ","MAREA":" ","LANE":" ","ALLEY":" ","HOUSE_NO":"７７號八樓之１１","E_COORD97":164649.44,"N_COORD97":2543485.8900000001,"ADDRESS":"育平五街７７號八樓之１１","OBJECTID":594746},"geometry":{"x":164649.44000000134,"y":2543485.8900000006}},{"attributes":{"ID":594774,"DIS_CODE":0,"TOWNNAME":"安平區","LI":"育平里","LIN":"11鄰","STREET":"育平五街","SECT":" ","MAREA":" ","LANE":" ","ALLEY":" ","HOUSE_NO":"７７號八樓之１２","E_COORD97":164649.44,"N_COORD97":2543485.8900000001,"ADDRESS":"育平五街７７號八樓之１２","OBJECTID":594747},"geometry":{"x":164649.44000000134,"y":2543485.8900000006}},{"attributes":{"ID":594775,"DIS_CODE":0,"TOWNNAME":"安平區","LI":"育平里","LIN":"11鄰","STREET":"育平五街","SECT":" ","MAREA":" ","LANE":" ","ALLEY":" ","HOUSE_NO":"７７號八樓之１３","E_COORD97":164649.44,"N_COORD97":2543485.8900000001,"ADDRESS":"育平五街７７號八樓之１３","OBJECTID":594748},"geometry":{"x":164649.44000000134,"y":2543485.8900000006}},{"attributes":{"ID":594776,"DIS_CODE":0,"TOWNNAME":"安平區","LI":"育平里","LIN":"11鄰","STREET":"育平五街","SECT":" ","MAREA":" ","LANE":" ","ALLEY":" ","HOUSE_NO":"７７號八樓之２","E_COORD97":164649.44,"N_COORD97":2543485.8900000001,"ADDRESS":"育平五街７７號八樓之２","OBJECTID":594749},"geometry":{"x":164649.44000000134,"y":2543485.8900000006}},{"attributes":{"ID":594777,"DIS_CODE":0,"TOWNNAME":"安平區","LI":"育平里","LIN":"11鄰","STREET":"育平五街","SECT":" ","MAREA":" ","LANE":" ","ALLEY":" ","HOUSE_NO":"７７號八樓之３","E_COORD97":164649.44,"N_COORD97":2543485.8900000001,"ADDRESS":"育平五街７７號八樓之３","OBJECTID":594750},"geometry":{"x":164649.44000000134,"y":2543485.8900000006}},{"attributes":{"ID":594778,"DIS_CODE":0,"TOWNNAME":"安平區","LI":"育平里","LIN":"11鄰","STREET":"育平五街","SECT":" ","MAREA":" ","LANE":" ","ALLEY":" ","HOUSE_NO":"７７號八樓之４","E_COORD97":164649.44,"N_COORD97":2543485.8900000001,"ADDRESS":"育平五街７７號八樓之４","OBJECTID":594751},"geometry":{"x":164649.44000000134,"y":2543485.8900000006}},{"attributes":{"ID":594779,"DIS_CODE":0,"TOWNNAME":"安平區","LI":"育平里","LIN":"11鄰","STREET":"育平五街","SECT":" ","MAREA":" ","LANE":" ","ALLEY":" ","HOUSE_NO":"７７號八樓之５","E_COORD97":164649.44,"N_COORD97":2543485.8900000001,"ADDRESS":"育平五街７７號八樓之５","OBJECTID":594752},"geometry":{"x":164649.44000000134,"y":2543485.8900000006}},{"attributes":{"ID":594780,"DIS_CODE":0,"TOWNNAME":"安平區","LI":"育平里","LIN":"11鄰","STREET":"育平五街","SECT":" ","MAREA":" ","LANE":" ","ALLEY":" ","HOUSE_NO":"７７號八樓之６","E_COORD97":164649.44,"N_COORD97":2543485.8900000001,"ADDRESS":"育平五街７７號八樓之６","OBJECTID":594753},"geometry":{"x":164649.44000000134,"y":2543485.8900000006}},{"attributes":{"ID":594781,"DIS_CODE":0,"TOWNNAME":"安平區","LI":"育平里","LIN":"11鄰","STREET":"育平五街","SECT":" ","MAREA":" ","LANE":" ","ALLEY":" ","HOUSE_NO":"７７號八樓之７","E_COORD97":164649.44,"N_COORD97":2543485.8900000001,"ADDRESS":"育平五街７７號八樓之７","OBJECTID":594754},"geometry":{"x":164649.44000000134,"y":2543485.8900000006}},{"attributes":{"ID":594782,"DIS_CODE":0,"TOWNNAME":"安平區","LI":"育平里","LIN":"11鄰","STREET":"育平五街","SECT":" ","MAREA":" ","LANE":" ","ALLEY":" ","HOUSE_NO":"７７號八樓之８","E_COORD97":164649.44,"N_COORD97":2543485.8900000001,"ADDRESS":"育平五街７７號八樓之８","OBJECTID":594755},"geometry":{"x":164649.44000000134,"y":2543485.8900000006}},{"attributes":{"ID":594783,"DIS_CODE":0,"TOWNNAME":"安平區","LI":"育平里","LIN":"11鄰","STREET":"育平五街","SECT":" ","MAREA":" ","LANE":" ","ALLEY":" ","HOUSE_NO":"７７號八樓之９","E_COORD97":164649.44,"N_COORD97":2543485.8900000001,"ADDRESS":"育平五街７７號八樓之９","OBJECTID":594756},"geometry":{"x":164649.44000000134,"y":2543485.8900000006}},{"attributes":{"ID":594784,"DIS_CODE":0,"TOWNNAME":"安平區","LI":"育平里","LIN":"11鄰","STREET":"育平五街","SECT":" ","MAREA":" ","LANE":" ","ALLEY":" ","HOUSE_NO":"７７號十一樓之１","E_COORD97":164649.44,"N_COORD97":2543485.8900000001,"ADDRESS":"育平五街７７號十一樓之１","OBJECTID":594757},"geometry":{"x":164649.44000000134,"y":2543485.8900000006}},{"attributes":{"ID":594785,"DIS_CODE":0,"TOWNNAME":"安平區","LI":"育平里","LIN":"11鄰","STREET":"育平五街","SECT":" ","MAREA":" ","LANE":" ","ALLEY":" ","HOUSE_NO":"７７號十一樓之１０","E_COORD97":164649.44,"N_COORD97":2543485.8900000001,"ADDRESS":"育平五街７７號十一樓之１０","OBJECTID":594758},"geometry":{"x":164649.44000000134,"y":2543485.8900000006}},{"attributes":{"ID":594786,"DIS_CODE":0,"TOWNNAME":"安平區","LI":"育平里","LIN":"11鄰","STREET":"育平五街","SECT":" ","MAREA":" ","LANE":" ","ALLEY":" ","HOUSE_NO":"７７號十一樓之１１","E_COORD97":164649.44,"N_COORD97":2543485.8900000001,"ADDRESS":"育平五街７７號十一樓之１１","OBJECTID":594759},"geometry":{"x":164649.44000000134,"y":2543485.8900000006}},{"attributes":{"ID":594787,"DIS_CODE":0,"TOWNNAME":"安平區","LI":"育平里","LIN":"11鄰","STREET":"育平五街","SECT":" ","MAREA":" ","LANE":" ","ALLEY":" ","HOUSE_NO":"７７號十一樓之１２","E_COORD97":164649.44,"N_COORD97":2543485.8900000001,"ADDRESS":"育平五街７７號十一樓之１２","OBJECTID":594760},"geometry":{"x":164649.44000000134,"y":2543485.8900000006}},{"attributes":{"ID":594788,"DIS_CODE":0,"TOWNNAME":"安平區","LI":"育平里","LIN":"11鄰","STREET":"育平五街","SECT":" ","MAREA":" ","LANE":" ","ALLEY":" ","HOUSE_NO":"７７號十一樓之１３","E_COORD97":164649.44,"N_COORD97":2543485.8900000001,"ADDRESS":"育平五街７７號十一樓之１３","OBJECTID":594761},"geometry":{"x":164649.44000000134,"y":2543485.8900000006}},{"attributes":{"ID":594789,"DIS_CODE":0,"TOWNNAME":"安平區","LI":"育平里","LIN":"11鄰","STREET":"育平五街","SECT":" ","MAREA":" ","LANE":" ","ALLEY":" ","HOUSE_NO":"７７號十一樓之２","E_COORD97":164649.44,"N_COORD97":2543485.8900000001,"ADDRESS":"育平五街７７號十一樓之２","OBJECTID":594762},"geometry":{"x":164649.44000000134,"y":2543485.8900000006}},{"attributes":{"ID":594790,"DIS_CODE":0,"TOWNNAME":"安平區","LI":"育平里","LIN":"11鄰","STREET":"育平五街","SECT":" ","MAREA":" ","LANE":" ","ALLEY":" ","HOUSE_NO":"７７號十一樓之３","E_COORD97":164649.44,"N_COORD97":2543485.8900000001,"ADDRESS":"育平五街７７號十一樓之３","OBJECTID":594763},"geometry":{"x":164649.44000000134,"y":2543485.8900000006}},{"attributes":{"ID":594791,"DIS_CODE":0,"TOWNNAME":"安平區","LI":"育平里","LIN":"11鄰","STREET":"育平五街","SECT":" ","MAREA":" ","LANE":" ","ALLEY":" ","HOUSE_NO":"７７號十一樓之４","E_COORD97":164649.44,"N_COORD97":2543485.8900000001,"ADDRESS":"育平五街７７號十一樓之４","OBJECTID":594764},"geometry":{"x":164649.44000000134,"y":2543485.8900000006}},{"attributes":{"ID":594792,"DIS_CODE":0,"TOWNNAME":"安平區","LI":"育平里","LIN":"11鄰","STREET":"育平五街","SECT":" ","MAREA":" ","LANE":" ","ALLEY":" ","HOUSE_NO":"７７號十一樓之５","E_COORD97":164649.44,"N_COORD97":2543485.8900000001,"ADDRESS":"育平五街７７號十一樓之５","OBJECTID":594765},"geometry":{"x":164649.44000000134,"y":2543485.8900000006}},{"attributes":{"ID":594793,"DIS_CODE":0,"TOWNNAME":"安平區","LI":"育平里","LIN":"11鄰","STREET":"育平五街","SECT":" ","MAREA":" ","LANE":" ","ALLEY":" ","HOUSE_NO":"７７號十一樓之６","E_COORD97":164649.44,"N_COORD97":2543485.8900000001,"ADDRESS":"育平五街７７號十一樓之６","OBJECTID":594766},"geometry":{"x":164649.44000000134,"y":2543485.8900000006}},{"attributes":{"ID":594794,"DIS_CODE":0,"TOWNNAME":"安平區","LI":"育平里","LIN":"11鄰","STREET":"育平五街","SECT":" ","MAREA":" ","LANE":" ","ALLEY":" ","HOUSE_NO":"７７號十一樓之７","E_COORD97":164649.44,"N_COORD97":2543485.8900000001,"ADDRESS":"育平五街７７號十一樓之７","OBJECTID":594767},"geometry":{"x":164649.44000000134,"y":2543485.8900000006}},{"attributes":{"ID":594795,"DIS_CODE":0,"TOWNNAME":"安平區","LI":"育平里","LIN":"11鄰","STREET":"育平五街","SECT":" ","MAREA":" ","LANE":" ","ALLEY":" ","HOUSE_NO":"７７號十一樓之８","E_COORD97":164649.44,"N_COORD97":2543485.8900000001,"ADDRESS":"育平五街７７號十一樓之８","OBJECTID":594768},"geometry":{"x":164649.44000000134,"y":2543485.8900000006}},{"attributes":{"ID":594796,"DIS_CODE":0,"TOWNNAME":"安平區","LI":"育平里","LIN":"11鄰","STREET":"育平五街","SECT":" ","MAREA":" ","LANE":" ","ALLEY":" ","HOUSE_NO":"７７號十一樓之９","E_COORD97":164649.44,"N_COORD97":2543485.8900000001,"ADDRESS":"育平五街７７號十一樓之９","OBJECTID":594769},"geometry":{"x":164649.44000000134,"y":2543485.8900000006}},{"attributes":{"ID":594797,"DIS_CODE":0,"TOWNNAME":"安平區","LI":"育平里","LIN":"11鄰","STREET":"育平五街","SECT":" ","MAREA":" ","LANE":" ","ALLEY":" ","HOUSE_NO":"７７號十二樓之１","E_COORD97":164649.44,"N_COORD97":2543485.8900000001,"ADDRESS":"育平五街７７號十二樓之１","OBJECTID":594770},"geometry":{"x":164649.44000000134,"y":2543485.8900000006}},{"attributes":{"ID":594798,"DIS_CODE":0,"TOWNNAME":"安平區","LI":"育平里","LIN":"11鄰","STREET":"育平五街","SECT":" ","MAREA":" ","LANE":" ","ALLEY":" ","HOUSE_NO":"７７號十二樓之１０","E_COORD97":164649.44,"N_COORD97":2543485.8900000001,"ADDRESS":"育平五街７７號十二樓之１０","OBJECTID":594771},"geometry":{"x":164649.44000000134,"y":2543485.8900000006}},{"attributes":{"ID":594799,"DIS_CODE":0,"TOWNNAME":"安平區","LI":"育平里","LIN":"11鄰","STREET":"育平五街","SECT":" ","MAREA":" ","LANE":" ","ALLEY":" ","HOUSE_NO":"７７號十二樓之１１","E_COORD97":164649.44,"N_COORD97":2543485.8900000001,"ADDRESS":"育平五街７７號十二樓之１１","OBJECTID":594772},"geometry":{"x":164649.44000000134,"y":2543485.8900000006}},{"attributes":{"ID":594800,"DIS_CODE":0,"TOWNNAME":"安平區","LI":"育平里","LIN":"11鄰","STREET":"育平五街","SECT":" ","MAREA":" ","LANE":" ","ALLEY":" ","HOUSE_NO":"７７號十二樓之１２","E_COORD97":164649.44,"N_COORD97":2543485.8900000001,"ADDRESS":"育平五街７７號十二樓之１２","OBJECTID":594773},"geometry":{"x":164649.44000000134,"y":2543485.8900000006}},{"attributes":{"ID":594801,"DIS_CODE":0,"TOWNNAME":"安平區","LI":"育平里","LIN":"11鄰","STREET":"育平五街","SECT":" ","MAREA":" ","LANE":" ","ALLEY":" ","HOUSE_NO":"７７號十二樓之１３","E_COORD97":164649.44,"N_COORD97":2543485.8900000001,"ADDRESS":"育平五街７７號十二樓之１３","OBJECTID":594774},"geometry":{"x":164649.44000000134,"y":2543485.8900000006}},{"attributes":{"ID":594802,"DIS_CODE":0,"TOWNNAME":"安平區","LI":"育平里","LIN":"11鄰","STREET":"育平五街","SECT":" ","MAREA":" ","LANE":" ","ALLEY":" ","HOUSE_NO":"７７號十二樓之２","E_COORD97":164649.44,"N_COORD97":2543485.8900000001,"ADDRESS":"育平五街７７號十二樓之２","OBJECTID":594775},"geometry":{"x":164649.44000000134,"y":2543485.8900000006}},{"attributes":{"ID":594803,"DIS_CODE":0,"TOWNNAME":"安平區","LI":"育平里","LIN":"11鄰","STREET":"育平五街","SECT":" ","MAREA":" ","LANE":" ","ALLEY":" ","HOUSE_NO":"７７號十二樓之３","E_COORD97":164649.44,"N_COORD97":2543485.8900000001,"ADDRESS":"育平五街７７號十二樓之３","OBJECTID":594776},"geometry":{"x":164649.44000000134,"y":2543485.8900000006}},{"attributes":{"ID":594804,"DIS_CODE":0,"TOWNNAME":"安平區","LI":"育平里","LIN":"11鄰","STREET":"育平五街","SECT":" ","MAREA":" ","LANE":" ","ALLEY":" ","HOUSE_NO":"７７號十二樓之４","E_COORD97":164649.44,"N_COORD97":2543485.8900000001,"ADDRESS":"育平五街７７號十二樓之４","OBJECTID":594777},"geometry":{"x":164649.44000000134,"y":2543485.8900000006}},{"attributes":{"ID":594805,"DIS_CODE":0,"TOWNNAME":"安平區","LI":"育平里","LIN":"11鄰","STREET":"育平五街","SECT":" ","MAREA":" ","LANE":" ","ALLEY":" ","HOUSE_NO":"７７號十二樓之５","E_COORD97":164649.44,"N_COORD97":2543485.8900000001,"ADDRESS":"育平五街７７號十二樓之５","OBJECTID":594778},"geometry":{"x":164649.44000000134,"y":2543485.8900000006}},{"attributes":{"ID":594806,"DIS_CODE":0,"TOWNNAME":"安平區","LI":"育平里","LIN":"11鄰","STREET":"育平五街","SECT":" ","MAREA":" ","LANE":" ","ALLEY":" ","HOUSE_NO":"７７號十二樓之６","E_COORD97":164649.44,"N_COORD97":2543485.8900000001,"ADDRESS":"育平五街７７號十二樓之６","OBJECTID":594779},"geometry":{"x":164649.44000000134,"y":2543485.8900000006}},{"attributes":{"ID":594807,"DIS_CODE":0,"TOWNNAME":"安平區","LI":"育平里","LIN":"11鄰","STREET":"育平五街","SECT":" ","MAREA":" ","LANE":" ","ALLEY":" ","HOUSE_NO":"７７號十二樓之７","E_COORD97":164649.44,"N_COORD97":2543485.8900000001,"ADDRESS":"育平五街７７號十二樓之７","OBJECTID":594780},"geometry":{"x":164649.44000000134,"y":2543485.8900000006}},{"attributes":{"ID":594808,"DIS_CODE":0,"TOWNNAME":"安平區","LI":"育平里","LIN":"11鄰","STREET":"育平五街","SECT":" ","MAREA":" ","LANE":" ","ALLEY":" ","HOUSE_NO":"７７號十二樓之８","E_COORD97":164649.44,"N_COORD97":2543485.8900000001,"ADDRESS":"育平五街７７號十二樓之８","OBJECTID":594781},"geometry":{"x":164649.44000000134,"y":2543485.8900000006}},{"attributes":{"ID":594809,"DIS_CODE":0,"TOWNNAME":"安平區","LI":"育平里","LIN":"11鄰","STREET":"育平五街","SECT":" ","MAREA":" ","LANE":" ","ALLEY":" ","HOUSE_NO":"７７號十二樓之９","E_COORD97":164649.44,"N_COORD97":2543485.8900000001,"ADDRESS":"育平五街７７號十二樓之９","OBJECTID":594782},"geometry":{"x":164649.44000000134,"y":2543485.8900000006}},{"attributes":{"ID":594810,"DIS_CODE":0,"TOWNNAME":"安平區","LI":"育平里","LIN":"11鄰","STREET":"育平五街","SECT":" ","MAREA":" ","LANE":" ","ALLEY":" ","HOUSE_NO":"７７號十三樓之１","E_COORD97":164649.44,"N_COORD97":2543485.8900000001,"ADDRESS":"育平五街７７號十三樓之１","OBJECTID":594783},"geometry":{"x":164649.44000000134,"y":2543485.8900000006}},{"attributes":{"ID":594811,"DIS_CODE":0,"TOWNNAME":"安平區","LI":"育平里","LIN":"11鄰","STREET":"育平五街","SECT":" ","MAREA":" ","LANE":" ","ALLEY":" ","HOUSE_NO":"７７號十三樓之１０","E_COORD97":164649.44,"N_COORD97":2543485.8900000001,"ADDRESS":"育平五街７７號十三樓之１０","OBJECTID":594784},"geometry":{"x":164649.44000000134,"y":2543485.8900000006}},{"attributes":{"ID":594812,"DIS_CODE":0,"TOWNNAME":"安平區","LI":"育平里","LIN":"11鄰","STREET":"育平五街","SECT":" ","MAREA":" ","LANE":" ","ALLEY":" ","HOUSE_NO":"７７號十三樓之１１","E_COORD97":164649.44,"N_COORD97":2543485.8900000001,"ADDRESS":"育平五街７７號十三樓之１１","OBJECTID":594785},"geometry":{"x":164649.44000000134,"y":2543485.8900000006}},{"attributes":{"ID":594813,"DIS_CODE":0,"TOWNNAME":"安平區","LI":"育平里","LIN":"11鄰","STREET":"育平五街","SECT":" ","MAREA":" ","LANE":" ","ALLEY":" ","HOUSE_NO":"７７號十三樓之１２","E_COORD97":164649.44,"N_COORD97":2543485.8900000001,"ADDRESS":"育平五街７７號十三樓之１２","OBJECTID":594786},"geometry":{"x":164649.44000000134,"y":2543485.8900000006}},{"attributes":{"ID":594814,"DIS_CODE":0,"TOWNNAME":"安平區","LI":"育平里","LIN":"11鄰","STREET":"育平五街","SECT":" ","MAREA":" ","LANE":" ","ALLEY":" ","HOUSE_NO":"７７號十三樓之２","E_COORD97":164649.44,"N_COORD97":2543485.8900000001,"ADDRESS":"育平五街７７號十三樓之２","OBJECTID":594787},"geometry":{"x":164649.44000000134,"y":2543485.8900000006}},{"attributes":{"ID":594815,"DIS_CODE":0,"TOWNNAME":"安平區","LI":"育平里","LIN":"11鄰","STREET":"育平五街","SECT":" ","MAREA":" ","LANE":" ","ALLEY":" ","HOUSE_NO":"７７號十三樓之３","E_COORD97":164649.44,"N_COORD97":2543485.8900000001,"ADDRESS":"育平五街７７號十三樓之３","OBJECTID":594788},"geometry":{"x":164649.44000000134,"y":2543485.8900000006}},{"attributes":{"ID":594816,"DIS_CODE":0,"TOWNNAME":"安平區","LI":"育平里","LIN":"11鄰","STREET":"育平五街","SECT":" ","MAREA":" ","LANE":" ","ALLEY":" ","HOUSE_NO":"７７號十三樓之４","E_COORD97":164649.44,"N_COORD97":2543485.8900000001,"ADDRESS":"育平五街７７號十三樓之４","OBJECTID":594789},"geometry":{"x":164649.44000000134,"y":2543485.8900000006}},{"attributes":{"ID":594817,"DIS_CODE":0,"TOWNNAME":"安平區","LI":"育平里","LIN":"11鄰","STREET":"育平五街","SECT":" ","MAREA":" ","LANE":" ","ALLEY":" ","HOUSE_NO":"７７號十三樓之５","E_COORD97":164649.44,"N_COORD97":2543485.8900000001,"ADDRESS":"育平五街７７號十三樓之５","OBJECTID":594790},"geometry":{"x":164649.44000000134,"y":2543485.8900000006}},{"attributes":{"ID":594818,"DIS_CODE":0,"TOWNNAME":"安平區","LI":"育平里","LIN":"11鄰","STREET":"育平五街","SECT":" ","MAREA":" ","LANE":" ","ALLEY":" ","HOUSE_NO":"７７號十三樓之６","E_COORD97":164649.44,"N_COORD97":2543485.8900000001,"ADDRESS":"育平五街７７號十三樓之６","OBJECTID":594791},"geometry":{"x":164649.44000000134,"y":2543485.8900000006}},{"attributes":{"ID":594819,"DIS_CODE":0,"TOWNNAME":"安平區","LI":"育平里","LIN":"11鄰","STREET":"育平五街","SECT":" ","MAREA":" ","LANE":" ","ALLEY":" ","HOUSE_NO":"７７號十三樓之７","E_COORD97":164649.44,"N_COORD97":2543485.8900000001,"ADDRESS":"育平五街７７號十三樓之７","OBJECTID":594792},"geometry":{"x":164649.44000000134,"y":2543485.8900000006}},{"attributes":{"ID":594820,"DIS_CODE":0,"TOWNNAME":"安平區","LI":"育平里","LIN":"11鄰","STREET":"育平五街","SECT":" ","MAREA":" ","LANE":" ","ALLEY":" ","HOUSE_NO":"７７號十三樓之８","E_COORD97":164649.44,"N_COORD97":2543485.8900000001,"ADDRESS":"育平五街７７號十三樓之８","OBJECTID":594793},"geometry":{"x":164649.44000000134,"y":2543485.8900000006}},{"attributes":{"ID":594821,"DIS_CODE":0,"TOWNNAME":"安平區","LI":"育平里","LIN":"11鄰","STREET":"育平五街","SECT":" ","MAREA":" ","LANE":" ","ALLEY":" ","HOUSE_NO":"７７號十三樓之９","E_COORD97":164649.44,"N_COORD97":2543485.8900000001,"ADDRESS":"育平五街７７號十三樓之９","OBJECTID":594794},"geometry":{"x":164649.44000000134,"y":2543485.8900000006}},{"attributes":{"ID":594822,"DIS_CODE":0,"TOWNNAME":"安平區","LI":"育平里","LIN":"11鄰","STREET":"育平五街","SECT":" ","MAREA":" ","LANE":" ","ALLEY":" ","HOUSE_NO":"７７號十樓之１","E_COORD97":164649.44,"N_COORD97":2543485.8900000001,"ADDRESS":"育平五街７７號十樓之１","OBJECTID":594795},"geometry":{"x":164649.44000000134,"y":2543485.8900000006}},{"attributes":{"ID":594823,"DIS_CODE":0,"TOWNNAME":"安平區","LI":"育平里","LIN":"11鄰","STREET":"育平五街","SECT":" ","MAREA":" ","LANE":" ","ALLEY":" ","HOUSE_NO":"７７號十樓之１０","E_COORD97":164649.44,"N_COORD97":2543485.8900000001,"ADDRESS":"育平五街７７號十樓之１０","OBJECTID":594796},"geometry":{"x":164649.44000000134,"y":2543485.8900000006}},{"attributes":{"ID":594824,"DIS_CODE":0,"TOWNNAME":"安平區","LI":"育平里","LIN":"11鄰","STREET":"育平五街","SECT":" ","MAREA":" ","LANE":" ","ALLEY":" ","HOUSE_NO":"７７號十樓之１１","E_COORD97":164649.44,"N_COORD97":2543485.8900000001,"ADDRESS":"育平五街７７號十樓之１１","OBJECTID":594797},"geometry":{"x":164649.44000000134,"y":2543485.8900000006}},{"attributes":{"ID":594825,"DIS_CODE":0,"TOWNNAME":"安平區","LI":"育平里","LIN":"11鄰","STREET":"育平五街","SECT":" ","MAREA":" ","LANE":" ","ALLEY":" ","HOUSE_NO":"７７號十樓之１２","E_COORD97":164649.44,"N_COORD97":2543485.8900000001,"ADDRESS":"育平五街７７號十樓之１２","OBJECTID":594798},"geometry":{"x":164649.44000000134,"y":2543485.8900000006}},{"attributes":{"ID":594826,"DIS_CODE":0,"TOWNNAME":"安平區","LI":"育平里","LIN":"11鄰","STREET":"育平五街","SECT":" ","MAREA":" ","LANE":" ","ALLEY":" ","HOUSE_NO":"７７號十樓之１３","E_COORD97":164649.44,"N_COORD97":2543485.8900000001,"ADDRESS":"育平五街７７號十樓之１３","OBJECTID":594799},"geometry":{"x":164649.44000000134,"y":2543485.8900000006}},{"attributes":{"ID":594827,"DIS_CODE":0,"TOWNNAME":"安平區","LI":"育平里","LIN":"11鄰","STREET":"育平五街","SECT":" ","MAREA":" ","LANE":" ","ALLEY":" ","HOUSE_NO":"７７號十樓之２","E_COORD97":164649.44,"N_COORD97":2543485.8900000001,"ADDRESS":"育平五街７７號十樓之２","OBJECTID":594800},"geometry":{"x":164649.44000000134,"y":2543485.8900000006}}]}