{"displayFieldName":"TOWNNAME","fieldAliases":{"ID":"ID","DIS_CODE":"DIS_CODE","TOWNNAME":"TOWNNAME","LI":"LI","LIN":"LIN","STREET":"STREET","SECT":"SECT","MAREA":"MAREA","LANE":"LANE","ALLEY":"ALLEY","HOUSE_NO":"HOUSE_NO","E_COORD97":"E_COORD97","N_COORD97":"N_COORD97","ADDRESS":"ADDRESS","OBJECTID":"OBJECTID"},"geometryType":"esriGeometryPoint","spatialReference":{"wkid":102443,"latestWkid":3826},"fields":[{"name":"ID","type":"esriFieldTypeDouble","alias":"ID"},{"name":"DIS_CODE","type":"esriFieldTypeInteger","alias":"DIS_CODE"},{"name":"TOWNNAME","type":"esriFieldTypeString","alias":"TOWNNAME","length":8},{"name":"LI","type":"esriFieldTypeString","alias":"LI","length":8},{"name":"LIN","type":"esriFieldTypeString","alias":"LIN","length":12},{"name":"STREET","type":"esriFieldTypeString","alias":"STREET","length":20},{"name":"SECT","type":"esriFieldTypeString","alias":"SECT","length":8},{"name":"MAREA","type":"esriFieldTypeString","alias":"MAREA","length":12},{"name":"LANE","type":"esriFieldTypeString","alias":"LANE","length":10},{"name":"ALLEY","type":"esriFieldTypeString","alias":"ALLEY","length":10},{"name":"HOUSE_NO","type":"esriFieldTypeString","alias":"HOUSE_NO","length":20},{"name":"E_COORD97","type":"esriFieldTypeDouble","alias":"E_COORD97"},{"name":"N_COORD97","type":"esriFieldTypeDouble","alias":"N_COORD97"},{"name":"ADDRESS","type":"esriFieldTypeString","alias":"ADDRESS","length":50},{"name":"OBJECTID","type":"esriFieldTypeOID","alias":"OBJECTID"}],"features":[{"attributes":{"ID":367211,"DIS_CODE":0,"TOWNNAME":"永康區","LI":"東灣里","LIN":"22鄰","STREET":"大灣三街","SECT":" ","MAREA":" ","LANE":"７３巷","ALLEY":" ","HOUSE_NO":"１１７號","E_COORD97":174849.13,"N_COORD97":2544799.04,"ADDRESS":"大灣三街７３巷１１７號","OBJECTID":367201},"geometry":{"x":174849.13000000082,"y":2544799.0399999991}},{"attributes":{"ID":367212,"DIS_CODE":0,"TOWNNAME":"永康區","LI":"埔園里","LIN":"39鄰","STREET":"聖龍街","SECT":" ","MAREA":" ","LANE":"１７９巷","ALLEY":" ","HOUSE_NO":"５０號","E_COORD97":174328.81,"N_COORD97":2547927.3700000001,"ADDRESS":"聖龍街１７９巷５０號","OBJECTID":367202},"geometry":{"x":174328.81000000145,"y":2547927.370000001}},{"attributes":{"ID":367213,"DIS_CODE":0,"TOWNNAME":"善化區","LI":"文正里","LIN":"13鄰","STREET":"中山路","SECT":" ","MAREA":" ","LANE":" ","ALLEY":" ","HOUSE_NO":"５６６號之７","E_COORD97":176784.87,"N_COORD97":2559217.7999999998,"ADDRESS":"中山路５６６號之７","OBJECTID":367203},"geometry":{"x":176784.87000000011,"y":2559217.8000000007}},{"attributes":{"ID":367214,"DIS_CODE":0,"TOWNNAME":"善化區","LI":"文正里","LIN":"13鄰","STREET":"中山路","SECT":" ","MAREA":" ","LANE":" ","ALLEY":" ","HOUSE_NO":"５７０號之５","E_COORD97":176732.07999999999,"N_COORD97":2559212.77,"ADDRESS":"中山路５７０號之５","OBJECTID":367204},"geometry":{"x":176732.08000000007,"y":2559212.7699999996}},{"attributes":{"ID":367215,"DIS_CODE":0,"TOWNNAME":"永康區","LI":"甲頂里","LIN":"13鄰","STREET":"正新街","SECT":" ","MAREA":" ","LANE":"１７巷","ALLEY":" ","HOUSE_NO":"６號","E_COORD97":170341.19,"N_COORD97":2546551.96,"ADDRESS":"正新街１７巷６號","OBJECTID":367205},"geometry":{"x":170341.19000000041,"y":2546551.9600000028}},{"attributes":{"ID":367216,"DIS_CODE":0,"TOWNNAME":"東區","LI":"德高里","LIN":"13鄰","STREET":"崇善路","SECT":" ","MAREA":" ","LANE":"９１３巷","ALLEY":" ","HOUSE_NO":"２０號","E_COORD97":171473.14999999999,"N_COORD97":2540735.3799999999,"ADDRESS":"崇善路９１３巷２０號","OBJECTID":367206},"geometry":{"x":171473.1500000013,"y":2540735.3800000027}},{"attributes":{"ID":367217,"DIS_CODE":0,"TOWNNAME":"永康區","LI":"新樹里","LIN":"12鄰","STREET":"富強路","SECT":"二段","MAREA":" ","LANE":"７７巷","ALLEY":" ","HOUSE_NO":"３４號","E_COORD97":175584.89000000001,"N_COORD97":2546952,"ADDRESS":"富強路二段７７巷３４號","OBJECTID":367207},"geometry":{"x":175584.8900000006,"y":2546952}},{"attributes":{"ID":367218,"DIS_CODE":0,"TOWNNAME":"永康區","LI":"復華里","LIN":"12鄰","STREET":"國華街","SECT":" ","MAREA":" ","LANE":"９８巷","ALLEY":" ","HOUSE_NO":"２號","E_COORD97":172845.69,"N_COORD97":2545957.9900000002,"ADDRESS":"國華街９８巷２號","OBJECTID":367208},"geometry":{"x":172845.69000000134,"y":2545957.9900000021}},{"attributes":{"ID":367219,"DIS_CODE":0,"TOWNNAME":"永康區","LI":"新樹里","LIN":"12鄰","STREET":"富強路","SECT":"二段","MAREA":" ","LANE":"７７巷","ALLEY":" ","HOUSE_NO":"２４號","E_COORD97":175608.45999999999,"N_COORD97":2546954.5,"ADDRESS":"富強路二段７７巷２４號","OBJECTID":367209},"geometry":{"x":175608.46000000089,"y":2546954.5000000019}},{"attributes":{"ID":367220,"DIS_CODE":0,"TOWNNAME":"永康區","LI":"復華里","LIN":"12鄰","STREET":"國華街","SECT":" ","MAREA":" ","LANE":"９８巷","ALLEY":" ","HOUSE_NO":"７號","E_COORD97":172854.12,"N_COORD97":2545971.9900000002,"ADDRESS":"國華街９８巷７號","OBJECTID":367210},"geometry":{"x":172854.12000000197,"y":2545971.9900000021}},{"attributes":{"ID":367221,"DIS_CODE":0,"TOWNNAME":"永康區","LI":"復華里","LIN":"12鄰","STREET":"國華街","SECT":" ","MAREA":" ","LANE":"９８巷","ALLEY":" ","HOUSE_NO":"５號","E_COORD97":172849.89999999999,"N_COORD97":2545971.9900000002,"ADDRESS":"國華街９８巷５號","OBJECTID":367211},"geometry":{"x":172849.90000000037,"y":2545971.9900000021}},{"attributes":{"ID":367222,"DIS_CODE":0,"TOWNNAME":"永康區","LI":"新樹里","LIN":"12鄰","STREET":"富強路","SECT":"二段","MAREA":" ","LANE":"７７巷","ALLEY":" ","HOUSE_NO":"３８號","E_COORD97":175571.41,"N_COORD97":2546950.5,"ADDRESS":"富強路二段７７巷３８號","OBJECTID":367212},"geometry":{"x":175571.41000000108,"y":2546950.5000000019}},{"attributes":{"ID":367223,"DIS_CODE":0,"TOWNNAME":"永康區","LI":"新樹里","LIN":"12鄰","STREET":"富強路","SECT":"二段","MAREA":" ","LANE":"１２１巷","ALLEY":" ","HOUSE_NO":"２５號","E_COORD97":175567.20999999999,"N_COORD97":2547060.54,"ADDRESS":"富強路二段１２１巷２５號","OBJECTID":367213},"geometry":{"x":175567.21000000183,"y":2547060.5399999972}},{"attributes":{"ID":367224,"DIS_CODE":0,"TOWNNAME":"永康區","LI":"復華里","LIN":"12鄰","STREET":"國華街","SECT":" ","MAREA":" ","LANE":"１００巷","ALLEY":" ","HOUSE_NO":"２９號","E_COORD97":172893.42999999999,"N_COORD97":2546041.04,"ADDRESS":"國華街１００巷２９號","OBJECTID":367214},"geometry":{"x":172893.4299999997,"y":2546041.040000001}},{"attributes":{"ID":367225,"DIS_CODE":0,"TOWNNAME":"永康區","LI":"復華里","LIN":"12鄰","STREET":"國華街","SECT":" ","MAREA":" ","LANE":"１００巷","ALLEY":" ","HOUSE_NO":"３８號","E_COORD97":172865.10999999999,"N_COORD97":2546012.54,"ADDRESS":"國華街１００巷３８號","OBJECTID":367215},"geometry":{"x":172865.11000000127,"y":2546012.5399999991}},{"attributes":{"ID":367226,"DIS_CODE":0,"TOWNNAME":"善化區","LI":"文昌里","LIN":"13鄰","STREET":"文昌路","SECT":" ","MAREA":" ","LANE":" ","ALLEY":" ","HOUSE_NO":"１６號","E_COORD97":177516.35999999999,"N_COORD97":2558828.5299999998,"ADDRESS":"文昌路１６號","OBJECTID":367216},"geometry":{"x":177516.36000000127,"y":2558828.5299999993}},{"attributes":{"ID":367227,"DIS_CODE":0,"TOWNNAME":"善化區","LI":"文昌里","LIN":"13鄰","STREET":"文昌路","SECT":" ","MAREA":" ","LANE":" ","ALLEY":" ","HOUSE_NO":"１２號","E_COORD97":177567.60999999999,"N_COORD97":2558835.5299999998,"ADDRESS":"文昌路１２號","OBJECTID":367217},"geometry":{"x":177567.61000000127,"y":2558835.5299999993}},{"attributes":{"ID":367228,"DIS_CODE":0,"TOWNNAME":"安平區","LI":"億載里","LIN":"5鄰","STREET":"永華十一街","SECT":" ","MAREA":" ","LANE":"１１３巷","ALLEY":" ","HOUSE_NO":"５２號","E_COORD97":163938.42999999999,"N_COORD97":2543688.2200000002,"ADDRESS":"永華十一街１１３巷５２號","OBJECTID":367218},"geometry":{"x":163938.43000000063,"y":2543688.2200000025}},{"attributes":{"ID":367229,"DIS_CODE":0,"TOWNNAME":"安平區","LI":"億載里","LIN":"5鄰","STREET":"永華十一街","SECT":" ","MAREA":" ","LANE":"１１３巷","ALLEY":" ","HOUSE_NO":"５８號","E_COORD97":163925.87,"N_COORD97":2543687.04,"ADDRESS":"永華十一街１１３巷５８號","OBJECTID":367219},"geometry":{"x":163925.87000000104,"y":2543687.0399999991}},{"attributes":{"ID":367230,"DIS_CODE":0,"TOWNNAME":"永康區","LI":"復華里","LIN":"12鄰","STREET":"國華街","SECT":" ","MAREA":" ","LANE":"１００巷","ALLEY":" ","HOUSE_NO":"３７號","E_COORD97":172868.20000000001,"N_COORD97":2546015.54,"ADDRESS":"國華街１００巷３７號","OBJECTID":367220},"geometry":{"x":172868.20000000019,"y":2546015.5399999991}},{"attributes":{"ID":367231,"DIS_CODE":0,"TOWNNAME":"永康區","LI":"復華里","LIN":"12鄰","STREET":"國華街","SECT":" ","MAREA":" ","LANE":"１０２巷","ALLEY":" ","HOUSE_NO":"２號","E_COORD97":172831.63,"N_COORD97":2546012.75,"ADDRESS":"國華街１０２巷２號","OBJECTID":367221},"geometry":{"x":172831.63000000175,"y":2546012.7500000037}},{"attributes":{"ID":367232,"DIS_CODE":0,"TOWNNAME":"永康區","LI":"復華里","LIN":"12鄰","STREET":"國華街","SECT":" ","MAREA":" ","LANE":"１００巷","ALLEY":" ","HOUSE_NO":"３２號","E_COORD97":172883.35999999999,"N_COORD97":2546031.79,"ADDRESS":"國華街１００巷３２號","OBJECTID":367222},"geometry":{"x":172883.36000000127,"y":2546031.7900000028}},{"attributes":{"ID":367233,"DIS_CODE":0,"TOWNNAME":"永康區","LI":"復華里","LIN":"12鄰","STREET":"國華街","SECT":" ","MAREA":" ","LANE":"１０２巷","ALLEY":" ","HOUSE_NO":"２８號","E_COORD97":172869.17000000001,"N_COORD97":2546051.9900000002,"ADDRESS":"國華街１０２巷２８號","OBJECTID":367223},"geometry":{"x":172869.17000000086,"y":2546051.9900000039}},{"attributes":{"ID":367234,"DIS_CODE":0,"TOWNNAME":"永康區","LI":"復國里","LIN":"12鄰","STREET":"復國二路","SECT":" ","MAREA":" ","LANE":"１０８巷","ALLEY":" ","HOUSE_NO":"４號","E_COORD97":172871.67000000001,"N_COORD97":2545372.5299999998,"ADDRESS":"復國二路１０８巷４號","OBJECTID":367224},"geometry":{"x":172871.66999999993,"y":2545372.5299999975}},{"attributes":{"ID":367235,"DIS_CODE":0,"TOWNNAME":"永康區","LI":"復國里","LIN":"12鄰","STREET":"復國二路","SECT":" ","MAREA":" ","LANE":"１１０巷","ALLEY":" ","HOUSE_NO":"７號","E_COORD97":172888.76999999999,"N_COORD97":2545416.2799999998,"ADDRESS":"復國二路１１０巷７號","OBJECTID":367225},"geometry":{"x":172888.77000000048,"y":2545416.2800000012}},{"attributes":{"ID":367236,"DIS_CODE":0,"TOWNNAME":"永康區","LI":"復華里","LIN":"12鄰","STREET":"國華街","SECT":" ","MAREA":" ","LANE":"１００巷","ALLEY":" ","HOUSE_NO":"３１號","E_COORD97":172886.97,"N_COORD97":2546035.04,"ADDRESS":"國華街１００巷３１號","OBJECTID":367226},"geometry":{"x":172886.9700000016,"y":2546035.040000001}},{"attributes":{"ID":367237,"DIS_CODE":0,"TOWNNAME":"永康區","LI":"復國里","LIN":"12鄰","STREET":"復國二路","SECT":" ","MAREA":" ","LANE":"１１４巷","ALLEY":" ","HOUSE_NO":"６號","E_COORD97":172890.07999999999,"N_COORD97":2545434.27,"ADDRESS":"復國二路１１４巷６號","OBJECTID":367227},"geometry":{"x":172890.08000000101,"y":2545434.2699999996}},{"attributes":{"ID":367238,"DIS_CODE":0,"TOWNNAME":"永康區","LI":"南灣里","LIN":"2鄰","STREET":"大灣一街","SECT":" ","MAREA":" ","LANE":"１４７巷","ALLEY":" ","HOUSE_NO":"２號","E_COORD97":174685.98000000001,"N_COORD97":2544647.6699999999,"ADDRESS":"大灣一街１４７巷２號","OBJECTID":367228},"geometry":{"x":174685.98000000045,"y":2544647.6700000018}},{"attributes":{"ID":367239,"DIS_CODE":0,"TOWNNAME":"永康區","LI":"復國里","LIN":"12鄰","STREET":"復國二路","SECT":" ","MAREA":" ","LANE":"１１０巷","ALLEY":" ","HOUSE_NO":"４號","E_COORD97":172875.95000000001,"N_COORD97":2545405.0299999998,"ADDRESS":"復國二路１１０巷４號","OBJECTID":367229},"geometry":{"x":172875.95000000112,"y":2545405.0299999993}},{"attributes":{"ID":367240,"DIS_CODE":0,"TOWNNAME":"永康區","LI":"復國里","LIN":"12鄰","STREET":"復國二路","SECT":" ","MAREA":" ","LANE":"１１０巷","ALLEY":" ","HOUSE_NO":"１０號","E_COORD97":172892.38,"N_COORD97":2545403.7799999998,"ADDRESS":"復國二路１１０巷１０號","OBJECTID":367230},"geometry":{"x":172892.37999999989,"y":2545403.7799999993}},{"attributes":{"ID":367241,"DIS_CODE":0,"TOWNNAME":"永康區","LI":"復國里","LIN":"12鄰","STREET":"復國二路","SECT":" ","MAREA":" ","LANE":"１１０巷","ALLEY":" ","HOUSE_NO":"１號","E_COORD97":172871.29000000001,"N_COORD97":2545418.5299999998,"ADDRESS":"復國二路１１０巷１號","OBJECTID":367231},"geometry":{"x":172871.29000000004,"y":2545418.5299999993}},{"attributes":{"ID":367242,"DIS_CODE":0,"TOWNNAME":"永康區","LI":"復國里","LIN":"12鄰","STREET":"復國二路","SECT":" ","MAREA":" ","LANE":"１１０巷","ALLEY":" ","HOUSE_NO":"８號","E_COORD97":172886.06,"N_COORD97":2545404.0299999998,"ADDRESS":"復國二路１１０巷８號","OBJECTID":367232},"geometry":{"x":172886.06000000145,"y":2545404.0300000012}},{"attributes":{"ID":367243,"DIS_CODE":0,"TOWNNAME":"永康區","LI":"復華里","LIN":"12鄰","STREET":"國華街","SECT":" ","MAREA":" ","LANE":"１００巷","ALLEY":" ","HOUSE_NO":"１６號","E_COORD97":172903.45000000001,"N_COORD97":2545995.75,"ADDRESS":"國華街１００巷１６號","OBJECTID":367233},"geometry":{"x":172903.45000000112,"y":2545995.7500000037}},{"attributes":{"ID":367244,"DIS_CODE":0,"TOWNNAME":"永康區","LI":"復國里","LIN":"12鄰","STREET":"復國二路","SECT":" ","MAREA":" ","LANE":"１１８巷","ALLEY":" ","HOUSE_NO":"５號","E_COORD97":172896.23000000001,"N_COORD97":2545481.5299999998,"ADDRESS":"復國二路１１８巷５號","OBJECTID":367234},"geometry":{"x":172896.23000000138,"y":2545481.5300000012}},{"attributes":{"ID":367245,"DIS_CODE":0,"TOWNNAME":"仁德區","LI":"田厝里","LIN":"12鄰","STREET":"田厝二街","SECT":" ","MAREA":" ","LANE":"１２５巷","ALLEY":" ","HOUSE_NO":"８號","E_COORD97":172162.01000000001,"N_COORD97":2537680.7400000002,"ADDRESS":"田厝二街１２５巷８號","OBJECTID":367235},"geometry":{"x":172162.00999999978,"y":2537680.7400000021}},{"attributes":{"ID":367246,"DIS_CODE":0,"TOWNNAME":"仁德區","LI":"仁德里","LIN":"12鄰","STREET":"四維街","SECT":" ","MAREA":" ","LANE":"３１巷","ALLEY":" ","HOUSE_NO":"４號","E_COORD97":173212.01999999999,"N_COORD97":2541499.9900000002,"ADDRESS":"四維街３１巷４號","OBJECTID":367236},"geometry":{"x":173212.02000000048,"y":2541499.9900000021}},{"attributes":{"ID":367247,"DIS_CODE":0,"TOWNNAME":"善化區","LI":"文正里","LIN":"13鄰","STREET":"中山路","SECT":" ","MAREA":" ","LANE":" ","ALLEY":" ","HOUSE_NO":"５６２號之２","E_COORD97":176819.35000000001,"N_COORD97":2559248.77,"ADDRESS":"中山路５６２號之２","OBJECTID":367237},"geometry":{"x":176819.35000000056,"y":2559248.7700000014}},{"attributes":{"ID":367248,"DIS_CODE":0,"TOWNNAME":"善化區","LI":"文正里","LIN":"13鄰","STREET":"中山路","SECT":" ","MAREA":" ","LANE":" ","ALLEY":" ","HOUSE_NO":"５７０號之１","E_COORD97":176740.87,"N_COORD97":2559253.52,"ADDRESS":"中山路５７０號之１","OBJECTID":367238},"geometry":{"x":176740.87000000011,"y":2559253.5200000014}},{"attributes":{"ID":367249,"DIS_CODE":0,"TOWNNAME":"中西區","LI":"水仙里","LIN":"13鄰","STREET":"西門路","SECT":"二段","MAREA":" ","LANE":"３０７巷","ALLEY":" ","HOUSE_NO":"１１號","E_COORD97":167931.66,"N_COORD97":2544163.5899999999,"ADDRESS":"西門路二段３０７巷１１號","OBJECTID":367239},"geometry":{"x":167931.66000000108,"y":2544163.5900000017}},{"attributes":{"ID":367250,"DIS_CODE":0,"TOWNNAME":"安平區","LI":"華平里","LIN":"6鄰","STREET":"怡平路","SECT":" ","MAREA":" ","LANE":"４１０巷","ALLEY":" ","HOUSE_NO":"１０８號","E_COORD97":165446.51000000001,"N_COORD97":2544092.1499999999,"ADDRESS":"怡平路４１０巷１０８號","OBJECTID":367240},"geometry":{"x":165446.51000000164,"y":2544092.1500000022}},{"attributes":{"ID":367251,"DIS_CODE":0,"TOWNNAME":"安平區","LI":"華平里","LIN":"6鄰","STREET":"怡平路","SECT":" ","MAREA":" ","LANE":"４１０巷","ALLEY":" ","HOUSE_NO":"１０９號","E_COORD97":165433.17999999999,"N_COORD97":2544103.8900000001,"ADDRESS":"怡平路４１０巷１０９號","OBJECTID":367241},"geometry":{"x":165433.1799999997,"y":2544103.8900000025}},{"attributes":{"ID":367252,"DIS_CODE":0,"TOWNNAME":"仁德區","LI":"太子里","LIN":"12鄰","STREET":"長興二街","SECT":" ","MAREA":" ","LANE":"７０巷","ALLEY":" ","HOUSE_NO":"１號","E_COORD97":174265.48000000001,"N_COORD97":2543702.25,"ADDRESS":"長興二街７０巷１號","OBJECTID":367242},"geometry":{"x":174265.48000000045,"y":2543702.25}},{"attributes":{"ID":367253,"DIS_CODE":0,"TOWNNAME":"仁德區","LI":"田厝里","LIN":"12鄰","STREET":"田厝二街","SECT":" ","MAREA":" ","LANE":"９６巷","ALLEY":" ","HOUSE_NO":"１９號","E_COORD97":172345.01999999999,"N_COORD97":2537789.4900000002,"ADDRESS":"田厝二街９６巷１９號","OBJECTID":367243},"geometry":{"x":172345.01999999955,"y":2537789.4899999984}},{"attributes":{"ID":367254,"DIS_CODE":0,"TOWNNAME":"善化區","LI":"文正里","LIN":"13鄰","STREET":"中山路","SECT":" ","MAREA":" ","LANE":" ","ALLEY":" ","HOUSE_NO":"５７０號之６","E_COORD97":176740.42999999999,"N_COORD97":2559271.27,"ADDRESS":"中山路５７０號之６","OBJECTID":367244},"geometry":{"x":176740.43000000063,"y":2559271.2699999996}},{"attributes":{"ID":367255,"DIS_CODE":0,"TOWNNAME":"官田區","LI":"隆田里","LIN":"13鄰","STREET":"自強街","SECT":" ","MAREA":" ","LANE":" ","ALLEY":" ","HOUSE_NO":"３８號","E_COORD97":180123.17999999999,"N_COORD97":2565968.3599999999,"ADDRESS":"自強街３８號","OBJECTID":367245},"geometry":{"x":180123.1799999997,"y":2565968.3600000013}},{"attributes":{"ID":367256,"DIS_CODE":0,"TOWNNAME":"官田區","LI":"隆田里","LIN":"13鄰","STREET":"自強街","SECT":" ","MAREA":" ","LANE":" ","ALLEY":" ","HOUSE_NO":"３９號","E_COORD97":180142.48999999999,"N_COORD97":2565944.6499999999,"ADDRESS":"自強街３９號","OBJECTID":367246},"geometry":{"x":180142.49000000022,"y":2565944.6500000004}},{"attributes":{"ID":367257,"DIS_CODE":0,"TOWNNAME":"安南區","LI":"城南里","LIN":"13鄰","STREET":"城西街","SECT":"二段","MAREA":" ","LANE":"２９１巷","ALLEY":" ","HOUSE_NO":"１５號","E_COORD97":159613.79000000001,"N_COORD97":2550914.3500000001,"ADDRESS":"城西街二段２９１巷１５號","OBJECTID":367247},"geometry":{"x":159613.79000000097,"y":2550914.3500000034}},{"attributes":{"ID":367258,"DIS_CODE":0,"TOWNNAME":"安南區","LI":"城南里","LIN":"13鄰","STREET":"城西街","SECT":"二段","MAREA":" ","LANE":"２９１巷","ALLEY":" ","HOUSE_NO":"１７號","E_COORD97":159613.79000000001,"N_COORD97":2550909.5899999999,"ADDRESS":"城西街二段２９１巷１７號","OBJECTID":367248},"geometry":{"x":159613.79000000097,"y":2550909.5900000036}},{"attributes":{"ID":367259,"DIS_CODE":0,"TOWNNAME":"安南區","LI":"城南里","LIN":"13鄰","STREET":"城西街","SECT":"二段","MAREA":" ","LANE":"２９１巷","ALLEY":" ","HOUSE_NO":"１９號","E_COORD97":159612.79000000001,"N_COORD97":2550905.6000000001,"ADDRESS":"城西街二段２９１巷１９號","OBJECTID":367249},"geometry":{"x":159612.79000000004,"y":2550905.6000000034}},{"attributes":{"ID":367260,"DIS_CODE":0,"TOWNNAME":"安南區","LI":"城南里","LIN":"13鄰","STREET":"城西街","SECT":"二段","MAREA":" ","LANE":"２９１巷","ALLEY":" ","HOUSE_NO":"２１號","E_COORD97":159612.29000000001,"N_COORD97":2550901.1099999999,"ADDRESS":"城西街二段２９１巷２１號","OBJECTID":367250},"geometry":{"x":159612.29000000097,"y":2550901.1099999994}},{"attributes":{"ID":367261,"DIS_CODE":0,"TOWNNAME":"中西區","LI":"光賢里","LIN":"12鄰","STREET":"和善街","SECT":" ","MAREA":" ","LANE":"１２５巷","ALLEY":" ","HOUSE_NO":"４０號","E_COORD97":166794.88,"N_COORD97":2544760.1000000001,"ADDRESS":"和善街１２５巷４０號","OBJECTID":367251},"geometry":{"x":166794.87999999989,"y":2544760.1000000015}},{"attributes":{"ID":367262,"DIS_CODE":0,"TOWNNAME":"中西區","LI":"光賢里","LIN":"12鄰","STREET":"和善街","SECT":" ","MAREA":" ","LANE":"１２５巷","ALLEY":" ","HOUSE_NO":"４２號","E_COORD97":166787.51999999999,"N_COORD97":2544760.3599999999,"ADDRESS":"和善街１２５巷４２號","OBJECTID":367252},"geometry":{"x":166787.52000000048,"y":2544760.3600000031}},{"attributes":{"ID":367263,"DIS_CODE":0,"TOWNNAME":"中西區","LI":"光賢里","LIN":"12鄰","STREET":"和善街","SECT":" ","MAREA":" ","LANE":"１２５巷","ALLEY":" ","HOUSE_NO":"４６號","E_COORD97":166787.76999999999,"N_COORD97":2544770.77,"ADDRESS":"和善街１２５巷４６號","OBJECTID":367253},"geometry":{"x":166787.77000000048,"y":2544770.7699999996}},{"attributes":{"ID":367264,"DIS_CODE":0,"TOWNNAME":"中西區","LI":"光賢里","LIN":"12鄰","STREET":"和善街","SECT":" ","MAREA":" ","LANE":"１２５巷","ALLEY":" ","HOUSE_NO":"４８號","E_COORD97":166771.94,"N_COORD97":2544777.0699999998,"ADDRESS":"和善街１２５巷４８號","OBJECTID":367254},"geometry":{"x":166771.94000000134,"y":2544777.0700000022}},{"attributes":{"ID":367265,"DIS_CODE":0,"TOWNNAME":"中西區","LI":"光賢里","LIN":"12鄰","STREET":"和善街","SECT":" ","MAREA":" ","LANE":"１２５巷","ALLEY":" ","HOUSE_NO":"５０號","E_COORD97":166773.53,"N_COORD97":2544760.8799999999,"ADDRESS":"和善街１２５巷５０號","OBJECTID":367255},"geometry":{"x":166773.53000000026,"y":2544760.8800000008}},{"attributes":{"ID":367266,"DIS_CODE":0,"TOWNNAME":"官田區","LI":"隆田里","LIN":"13鄰","STREET":"自強街","SECT":" ","MAREA":" ","LANE":" ","ALLEY":" ","HOUSE_NO":"４０號","E_COORD97":180123.32999999999,"N_COORD97":2565974.1699999999,"ADDRESS":"自強街４０號","OBJECTID":367256},"geometry":{"x":180123.33000000194,"y":2565974.1699999999}},{"attributes":{"ID":367267,"DIS_CODE":0,"TOWNNAME":"官田區","LI":"隆田里","LIN":"13鄰","STREET":"自強街","SECT":" ","MAREA":" ","LANE":" ","ALLEY":" ","HOUSE_NO":"４１號","E_COORD97":180142.79000000001,"N_COORD97":2565948.9300000002,"ADDRESS":"自強街４１號","OBJECTID":367257},"geometry":{"x":180142.79000000097,"y":2565948.9299999997}},{"attributes":{"ID":367268,"DIS_CODE":0,"TOWNNAME":"官田區","LI":"隆田里","LIN":"13鄰","STREET":"自強街","SECT":" ","MAREA":" ","LANE":" ","ALLEY":" ","HOUSE_NO":"４２號之１","E_COORD97":180122.97,"N_COORD97":2565983.7200000002,"ADDRESS":"自強街４２號之１","OBJECTID":367258},"geometry":{"x":180122.96999999974,"y":2565983.7200000025}},{"attributes":{"ID":367269,"DIS_CODE":0,"TOWNNAME":"官田區","LI":"隆田里","LIN":"13鄰","STREET":"自強街","SECT":" ","MAREA":" ","LANE":" ","ALLEY":" ","HOUSE_NO":"４２號","E_COORD97":180123.13,"N_COORD97":2565978.96,"ADDRESS":"自強街４２號","OBJECTID":367259},"geometry":{"x":180123.13000000082,"y":2565978.9600000028}},{"attributes":{"ID":367270,"DIS_CODE":0,"TOWNNAME":"官田區","LI":"隆田里","LIN":"13鄰","STREET":"自強街","SECT":" ","MAREA":" ","LANE":" ","ALLEY":" ","HOUSE_NO":"４３號","E_COORD97":180142.28,"N_COORD97":2565953.1800000002,"ADDRESS":"自強街４３號","OBJECTID":367260},"geometry":{"x":180142.28000000026,"y":2565953.1800000016}},{"attributes":{"ID":367271,"DIS_CODE":0,"TOWNNAME":"中西區","LI":"光賢里","LIN":"12鄰","STREET":"和善街","SECT":" ","MAREA":" ","LANE":"１２５巷","ALLEY":" ","HOUSE_NO":"５２號","E_COORD97":166769.07999999999,"N_COORD97":2544760.8799999999,"ADDRESS":"和善街１２５巷５２號","OBJECTID":367261},"geometry":{"x":166769.08000000101,"y":2544760.8800000008}},{"attributes":{"ID":367272,"DIS_CODE":0,"TOWNNAME":"中西區","LI":"光賢里","LIN":"12鄰","STREET":"和善街","SECT":" ","MAREA":" ","LANE":"１２５巷","ALLEY":" ","HOUSE_NO":"５４號","E_COORD97":166764.39999999999,"N_COORD97":2544760.8599999999,"ADDRESS":"和善街１２５巷５４號","OBJECTID":367262},"geometry":{"x":166764.40000000037,"y":2544760.8600000013}},{"attributes":{"ID":367273,"DIS_CODE":0,"TOWNNAME":"中西區","LI":"光賢里","LIN":"12鄰","STREET":"和善街","SECT":" ","MAREA":" ","LANE":"１２５巷","ALLEY":" ","HOUSE_NO":"５６號","E_COORD97":166758.29000000001,"N_COORD97":2544760.8799999999,"ADDRESS":"和善街１２５巷５６號","OBJECTID":367263},"geometry":{"x":166758.29000000004,"y":2544760.8800000008}},{"attributes":{"ID":367274,"DIS_CODE":0,"TOWNNAME":"善化區","LI":"光文里","LIN":"12鄰","STREET":"民權路","SECT":" ","MAREA":" ","LANE":"３３巷","ALLEY":" ","HOUSE_NO":"１號","E_COORD97":178728.62,"N_COORD97":2559061.3599999999,"ADDRESS":"民權路３３巷１號","OBJECTID":367264},"geometry":{"x":178728.62000000104,"y":2559061.3600000013}},{"attributes":{"ID":367275,"DIS_CODE":0,"TOWNNAME":"善化區","LI":"光文里","LIN":"12鄰","STREET":"民權路","SECT":" ","MAREA":" ","LANE":"３３巷","ALLEY":" ","HOUSE_NO":"２號","E_COORD97":178714.16,"N_COORD97":2559058.2999999998,"ADDRESS":"民權路３３巷２號","OBJECTID":367265},"geometry":{"x":178714.16000000201,"y":2559058.3000000007}},{"attributes":{"ID":367276,"DIS_CODE":0,"TOWNNAME":"善化區","LI":"光文里","LIN":"12鄰","STREET":"民權路","SECT":" ","MAREA":" ","LANE":"３３巷","ALLEY":" ","HOUSE_NO":"５號","E_COORD97":178730.98999999999,"N_COORD97":2559053.0699999998,"ADDRESS":"民權路３３巷５號","OBJECTID":367266},"geometry":{"x":178730.99000000115,"y":2559053.0700000003}},{"attributes":{"ID":367277,"DIS_CODE":0,"TOWNNAME":"善化區","LI":"光文里","LIN":"12鄰","STREET":"民權路","SECT":" ","MAREA":" ","LANE":"３３巷","ALLEY":" ","HOUSE_NO":"６號","E_COORD97":178714.60000000001,"N_COORD97":2559054.02,"ADDRESS":"民權路３３巷６號","OBJECTID":367267},"geometry":{"x":178714.60000000056,"y":2559054.0200000014}},{"attributes":{"ID":367278,"DIS_CODE":0,"TOWNNAME":"善化區","LI":"光文里","LIN":"12鄰","STREET":"民權路","SECT":" ","MAREA":" ","LANE":"３３巷","ALLEY":" ","HOUSE_NO":"７號","E_COORD97":178734.91,"N_COORD97":2559047.9700000002,"ADDRESS":"民權路３３巷７號","OBJECTID":367268},"geometry":{"x":178734.91000000108,"y":2559047.9700000044}},{"attributes":{"ID":367279,"DIS_CODE":0,"TOWNNAME":"善化區","LI":"光文里","LIN":"12鄰","STREET":"民權路","SECT":" ","MAREA":" ","LANE":"３３巷","ALLEY":" ","HOUSE_NO":"８號","E_COORD97":178712.57999999999,"N_COORD97":2559049.5800000001,"ADDRESS":"民權路３３巷８號","OBJECTID":367269},"geometry":{"x":178712.58000000007,"y":2559049.5800000001}},{"attributes":{"ID":367280,"DIS_CODE":0,"TOWNNAME":"善化區","LI":"光文里","LIN":"12鄰","STREET":"民權路","SECT":" ","MAREA":" ","LANE":"３３巷","ALLEY":" ","HOUSE_NO":"１０號","E_COORD97":178716.14999999999,"N_COORD97":2559045.0800000001,"ADDRESS":"民權路３３巷１０號","OBJECTID":367270},"geometry":{"x":178716.15000000224,"y":2559045.0800000001}},{"attributes":{"ID":367281,"DIS_CODE":0,"TOWNNAME":"善化區","LI":"光文里","LIN":"12鄰","STREET":"民權路","SECT":" ","MAREA":" ","LANE":"４１巷","ALLEY":" ","HOUSE_NO":"２號","E_COORD97":178679.39999999999,"N_COORD97":2559053.7999999998,"ADDRESS":"民權路４１巷２號","OBJECTID":367271},"geometry":{"x":178679.4000000013,"y":2559053.8000000026}},{"attributes":{"ID":367282,"DIS_CODE":0,"TOWNNAME":"善化區","LI":"光文里","LIN":"12鄰","STREET":"民權路","SECT":" ","MAREA":" ","LANE":"４１巷","ALLEY":" ","HOUSE_NO":"３號","E_COORD97":178698.63,"N_COORD97":2559052.2400000002,"ADDRESS":"民權路４１巷３號","OBJECTID":367272},"geometry":{"x":178698.62999999896,"y":2559052.2399999984}},{"attributes":{"ID":367283,"DIS_CODE":0,"TOWNNAME":"善化區","LI":"光文里","LIN":"12鄰","STREET":"民權路","SECT":" ","MAREA":" ","LANE":"４１巷","ALLEY":" ","HOUSE_NO":"５號","E_COORD97":178701.89999999999,"N_COORD97":2559048.6299999999,"ADDRESS":"民權路４１巷５號","OBJECTID":367273},"geometry":{"x":178701.90000000037,"y":2559048.6300000027}},{"attributes":{"ID":367284,"DIS_CODE":0,"TOWNNAME":"中西區","LI":"銀同里","LIN":"13鄰","STREET":"開山路","SECT":" ","MAREA":" ","LANE":"２９巷","ALLEY":" ","HOUSE_NO":"１０號","E_COORD97":168624.84,"N_COORD97":2543549.6699999999,"ADDRESS":"開山路２９巷１０號","OBJECTID":367274},"geometry":{"x":168624.84000000078,"y":2543549.6700000018}},{"attributes":{"ID":367285,"DIS_CODE":0,"TOWNNAME":"中西區","LI":"銀同里","LIN":"13鄰","STREET":"開山路","SECT":" ","MAREA":" ","LANE":"２９巷","ALLEY":" ","HOUSE_NO":"１２號","E_COORD97":168625.26000000001,"N_COORD97":2543553.96,"ADDRESS":"開山路２９巷１２號","OBJECTID":367275},"geometry":{"x":168625.26000000071,"y":2543553.959999999}},{"attributes":{"ID":367286,"DIS_CODE":0,"TOWNNAME":"中西區","LI":"銀同里","LIN":"13鄰","STREET":"開山路","SECT":" ","MAREA":" ","LANE":"２９巷","ALLEY":" ","HOUSE_NO":"１４號","E_COORD97":168639.39999999999,"N_COORD97":2543557.8700000001,"ADDRESS":"開山路２９巷１４號","OBJECTID":367276},"geometry":{"x":168639.40000000037,"y":2543557.870000001}},{"attributes":{"ID":367287,"DIS_CODE":0,"TOWNNAME":"中西區","LI":"銀同里","LIN":"13鄰","STREET":"開山路","SECT":" ","MAREA":" ","LANE":"２９巷","ALLEY":" ","HOUSE_NO":"１６號","E_COORD97":168640.23000000001,"N_COORD97":2543562.2999999998,"ADDRESS":"開山路２９巷１６號","OBJECTID":367277},"geometry":{"x":168640.23000000138,"y":2543562.3000000026}},{"attributes":{"ID":367288,"DIS_CODE":0,"TOWNNAME":"中西區","LI":"銀同里","LIN":"13鄰","STREET":"開山路","SECT":" ","MAREA":" ","LANE":"２９巷","ALLEY":" ","HOUSE_NO":"１號","E_COORD97":168597.16,"N_COORD97":2543579.8300000001,"ADDRESS":"開山路２９巷１號","OBJECTID":367278},"geometry":{"x":168597.16000000201,"y":2543579.8300000001}},{"attributes":{"ID":367289,"DIS_CODE":0,"TOWNNAME":"善化區","LI":"光文里","LIN":"12鄰","STREET":"民權路","SECT":" ","MAREA":" ","LANE":"４１巷","ALLEY":" ","HOUSE_NO":"６號","E_COORD97":178682.91,"N_COORD97":2559049.52,"ADDRESS":"民權路４１巷６號","OBJECTID":367279},"geometry":{"x":178682.91000000015,"y":2559049.5199999996}},{"attributes":{"ID":367290,"DIS_CODE":0,"TOWNNAME":"善化區","LI":"光文里","LIN":"12鄰","STREET":"民權路","SECT":" ","MAREA":" ","LANE":"４１巷","ALLEY":" ","HOUSE_NO":"７號","E_COORD97":178700.10000000001,"N_COORD97":2559043.2400000002,"ADDRESS":"民權路４１巷７號","OBJECTID":367280},"geometry":{"x":178700.09999999963,"y":2559043.2400000021}},{"attributes":{"ID":367291,"DIS_CODE":0,"TOWNNAME":"善化區","LI":"光文里","LIN":"12鄰","STREET":"民權路","SECT":" ","MAREA":" ","LANE":"４１巷","ALLEY":" ","HOUSE_NO":"８號","E_COORD97":178683.54000000001,"N_COORD97":2559045.52,"ADDRESS":"民權路４１巷８號","OBJECTID":367281},"geometry":{"x":178683.54000000004,"y":2559045.5199999996}},{"attributes":{"ID":367292,"DIS_CODE":0,"TOWNNAME":"善化區","LI":"光文里","LIN":"12鄰","STREET":"民權路","SECT":" ","MAREA":" ","LANE":"４１巷","ALLEY":" ","HOUSE_NO":"１０號","E_COORD97":178682.14999999999,"N_COORD97":2559040.0899999999,"ADDRESS":"民權路４１巷１０號","OBJECTID":367282},"geometry":{"x":178682.15000000224,"y":2559040.0900000017}},{"attributes":{"ID":367293,"DIS_CODE":0,"TOWNNAME":"中西區","LI":"保安里","LIN":"12鄰","STREET":"國華街","SECT":"二段","MAREA":" ","LANE":"１６３巷","ALLEY":" ","HOUSE_NO":"７號","E_COORD97":167668.39000000001,"N_COORD97":2543646.3999999999,"ADDRESS":"國華街二段１６３巷７號","OBJECTID":367283},"geometry":{"x":167668.3900000006,"y":2543646.4000000022}},{"attributes":{"ID":367294,"DIS_CODE":0,"TOWNNAME":"中西區","LI":"保安里","LIN":"12鄰","STREET":"國華街","SECT":"二段","MAREA":" ","LANE":"１６３巷","ALLEY":" ","HOUSE_NO":"９號","E_COORD97":167660.67000000001,"N_COORD97":2543652.8100000001,"ADDRESS":"國華街二段１６３巷９號","OBJECTID":367284},"geometry":{"x":167660.66999999993,"y":2543652.8100000005}},{"attributes":{"ID":367295,"DIS_CODE":0,"TOWNNAME":"中西區","LI":"保安里","LIN":"12鄰","STREET":"國華街","SECT":"二段","MAREA":" ","LANE":"１６３巷","ALLEY":" ","HOUSE_NO":"１０號","E_COORD97":167659.89999999999,"N_COORD97":2543661.4199999999,"ADDRESS":"國華街二段１６３巷１０號","OBJECTID":367285},"geometry":{"x":167659.90000000037,"y":2543661.4199999999}},{"attributes":{"ID":367296,"DIS_CODE":0,"TOWNNAME":"中西區","LI":"保安里","LIN":"12鄰","STREET":"國華街","SECT":"二段","MAREA":" ","LANE":"１６３巷","ALLEY":" ","HOUSE_NO":"１２號","E_COORD97":167660.01000000001,"N_COORD97":2543660.1499999999,"ADDRESS":"國華街二段１６３巷１２號","OBJECTID":367286},"geometry":{"x":167660.00999999978,"y":2543660.1500000004}},{"attributes":{"ID":367297,"DIS_CODE":0,"TOWNNAME":"中西區","LI":"保安里","LIN":"12鄰","STREET":"國華街","SECT":"二段","MAREA":" ","LANE":"１６３巷","ALLEY":" ","HOUSE_NO":"１４號","E_COORD97":167659.79999999999,"N_COORD97":2543656.98,"ADDRESS":"國華街二段１６３巷１４號","OBJECTID":367287},"geometry":{"x":167659.79999999981,"y":2543656.9800000023}},{"attributes":{"ID":367298,"DIS_CODE":0,"TOWNNAME":"官田區","LI":"隆田里","LIN":"13鄰","STREET":"自強街","SECT":" ","MAREA":" ","LANE":" ","ALLEY":" ","HOUSE_NO":"４５號","E_COORD97":180142.32999999999,"N_COORD97":2565957.4199999999,"ADDRESS":"自強街４５號","OBJECTID":367288},"geometry":{"x":180142.33000000101,"y":2565957.4200000018}},{"attributes":{"ID":367299,"DIS_CODE":0,"TOWNNAME":"官田區","LI":"隆田里","LIN":"13鄰","STREET":"自強街","SECT":" ","MAREA":" ","LANE":" ","ALLEY":" ","HOUSE_NO":"４６號","E_COORD97":180123.04999999999,"N_COORD97":2565988.4700000002,"ADDRESS":"自強街４６號","OBJECTID":367289},"geometry":{"x":180123.04999999888,"y":2565988.4700000025}},{"attributes":{"ID":367300,"DIS_CODE":0,"TOWNNAME":"官田區","LI":"隆田里","LIN":"13鄰","STREET":"自強街","SECT":" ","MAREA":" ","LANE":" ","ALLEY":" ","HOUSE_NO":"４７號","E_COORD97":180142.60999999999,"N_COORD97":2565961.6099999999,"ADDRESS":"自強街４７號","OBJECTID":367290},"geometry":{"x":180142.61000000127,"y":2565961.6099999994}},{"attributes":{"ID":367301,"DIS_CODE":0,"TOWNNAME":"官田區","LI":"隆田里","LIN":"13鄰","STREET":"自強街","SECT":" ","MAREA":" ","LANE":" ","ALLEY":" ","HOUSE_NO":"４９號","E_COORD97":180142.12,"N_COORD97":2565966.0299999998,"ADDRESS":"自強街４９號","OBJECTID":367291},"geometry":{"x":180142.12000000104,"y":2565966.0300000031}},{"attributes":{"ID":367302,"DIS_CODE":0,"TOWNNAME":"官田區","LI":"隆田里","LIN":"13鄰","STREET":"自強街","SECT":" ","MAREA":" ","LANE":" ","ALLEY":" ","HOUSE_NO":"５１號","E_COORD97":180141.92000000001,"N_COORD97":2565969.96,"ADDRESS":"自強街５１號","OBJECTID":367292},"geometry":{"x":180141.92000000086,"y":2565969.9600000009}},{"attributes":{"ID":367303,"DIS_CODE":0,"TOWNNAME":"官田區","LI":"隆田里","LIN":"13鄰","STREET":"自強街","SECT":" ","MAREA":" ","LANE":" ","ALLEY":" ","HOUSE_NO":"５３號","E_COORD97":180141.97,"N_COORD97":2565974.7999999998,"ADDRESS":"自強街５３號","OBJECTID":367293},"geometry":{"x":180141.96999999974,"y":2565974.8000000007}},{"attributes":{"ID":367304,"DIS_CODE":0,"TOWNNAME":"安南區","LI":"溪頂里","LIN":"13鄰","STREET":"惠安街","SECT":" ","MAREA":" ","LANE":"１５１巷","ALLEY":" ","HOUSE_NO":"４號","E_COORD97":168751.03,"N_COORD97":2547358.9399999999,"ADDRESS":"惠安街１５１巷４號","OBJECTID":367294},"geometry":{"x":168751.03000000119,"y":2547358.9399999995}},{"attributes":{"ID":367305,"DIS_CODE":0,"TOWNNAME":"後壁區","LI":"侯伯里","LIN":"13鄰","STREET":" ","SECT":" ","MAREA":"後壁寮","LANE":" ","ALLEY":" ","HOUSE_NO":"１０８號之６０","E_COORD97":185056.5,"N_COORD97":2585372.8199999998,"ADDRESS":"後壁寮１０８號之６０","OBJECTID":367295},"geometry":{"x":185056.5,"y":2585372.8200000022}},{"attributes":{"ID":367306,"DIS_CODE":0,"TOWNNAME":"安南區","LI":"溪頂里","LIN":"13鄰","STREET":"惠安街","SECT":" ","MAREA":" ","LANE":"１５１巷","ALLEY":" ","HOUSE_NO":"６號","E_COORD97":168758.89999999999,"N_COORD97":2547359.2000000002,"ADDRESS":"惠安街１５１巷６號","OBJECTID":367296},"geometry":{"x":168758.9000000013,"y":2547359.2000000011}},{"attributes":{"ID":367307,"DIS_CODE":0,"TOWNNAME":"永康區","LI":"中華里","LIN":"13鄰","STREET":"忠義街","SECT":" ","MAREA":" ","LANE":"１０巷","ALLEY":" ","HOUSE_NO":"５號之１１","E_COORD97":171799.79999999999,"N_COORD97":2544438.0099999998,"ADDRESS":"忠義街１０巷５號之１１","OBJECTID":367297},"geometry":{"x":171799.80000000168,"y":2544438.0100000016}},{"attributes":{"ID":367308,"DIS_CODE":0,"TOWNNAME":"後壁區","LI":"侯伯里","LIN":"13鄰","STREET":" ","SECT":" ","MAREA":"後壁寮","LANE":" ","ALLEY":" ","HOUSE_NO":"１０８號之６１","E_COORD97":185054.5,"N_COORD97":2585368.9500000002,"ADDRESS":"後壁寮１０８號之６１","OBJECTID":367298},"geometry":{"x":185054.5,"y":2585368.9499999993}},{"attributes":{"ID":367309,"DIS_CODE":0,"TOWNNAME":"後壁區","LI":"侯伯里","LIN":"13鄰","STREET":" ","SECT":" ","MAREA":"後壁寮","LANE":" ","ALLEY":" ","HOUSE_NO":"１０８號之６２","E_COORD97":185052.45999999999,"N_COORD97":2585365.1099999999,"ADDRESS":"後壁寮１０８號之６２","OBJECTID":367299},"geometry":{"x":185052.46000000089,"y":2585365.1100000031}},{"attributes":{"ID":367310,"DIS_CODE":0,"TOWNNAME":"永康區","LI":"中華里","LIN":"13鄰","STREET":"忠義街","SECT":" ","MAREA":" ","LANE":"１０巷","ALLEY":" ","HOUSE_NO":"５號之１","E_COORD97":171799,"N_COORD97":2544394.7599999998,"ADDRESS":"忠義街１０巷５號之１","OBJECTID":367300},"geometry":{"x":171799.00000000093,"y":2544394.7599999998}},{"attributes":{"ID":367311,"DIS_CODE":0,"TOWNNAME":"中西區","LI":"保安里","LIN":"12鄰","STREET":"國華街","SECT":"二段","MAREA":" ","LANE":"１６３巷","ALLEY":" ","HOUSE_NO":"１６號","E_COORD97":167654.92000000001,"N_COORD97":2543657.0600000001,"ADDRESS":"國華街二段１６３巷１６號","OBJECTID":367301},"geometry":{"x":167654.92000000086,"y":2543657.0600000005}},{"attributes":{"ID":367312,"DIS_CODE":0,"TOWNNAME":"後壁區","LI":"侯伯里","LIN":"13鄰","STREET":" ","SECT":" ","MAREA":"後壁寮","LANE":" ","ALLEY":" ","HOUSE_NO":"１０８號之６３","E_COORD97":185050.39000000001,"N_COORD97":2585361.48,"ADDRESS":"後壁寮１０８號之６３","OBJECTID":367302},"geometry":{"x":185050.39000000153,"y":2585361.4800000023}},{"attributes":{"ID":367313,"DIS_CODE":0,"TOWNNAME":"中西區","LI":"保安里","LIN":"12鄰","STREET":"國華街","SECT":"二段","MAREA":" ","LANE":"１６３巷","ALLEY":" ","HOUSE_NO":"１８號","E_COORD97":167651.23999999999,"N_COORD97":2543657.8599999999,"ADDRESS":"國華街二段１６３巷１８號","OBJECTID":367303},"geometry":{"x":167651.24000000115,"y":2543657.8599999994}},{"attributes":{"ID":367314,"DIS_CODE":0,"TOWNNAME":"官田區","LI":"隆田里","LIN":"13鄰","STREET":"自強街","SECT":" ","MAREA":" ","LANE":" ","ALLEY":" ","HOUSE_NO":"５４號","E_COORD97":180089.10999999999,"N_COORD97":2566017.1600000001,"ADDRESS":"自強街５４號","OBJECTID":367304},"geometry":{"x":180089.11000000034,"y":2566017.160000002}},{"attributes":{"ID":367315,"DIS_CODE":0,"TOWNNAME":"後壁區","LI":"侯伯里","LIN":"13鄰","STREET":" ","SECT":" ","MAREA":"後壁寮","LANE":" ","ALLEY":" ","HOUSE_NO":"１０８號之６４","E_COORD97":185048.44,"N_COORD97":2585357.79,"ADDRESS":"後壁寮１０８號之６４","OBJECTID":367305},"geometry":{"x":185048.44000000041,"y":2585357.790000001}},{"attributes":{"ID":367316,"DIS_CODE":0,"TOWNNAME":"後壁區","LI":"侯伯里","LIN":"13鄰","STREET":" ","SECT":" ","MAREA":"後壁寮","LANE":" ","ALLEY":" ","HOUSE_NO":"１０８號之６５","E_COORD97":185046,"N_COORD97":2585352.3399999999,"ADDRESS":"後壁寮１０８號之６５","OBJECTID":367306},"geometry":{"x":185046,"y":2585352.3399999999}},{"attributes":{"ID":367317,"DIS_CODE":0,"TOWNNAME":"後壁區","LI":"侯伯里","LIN":"13鄰","STREET":" ","SECT":" ","MAREA":"後壁寮","LANE":" ","ALLEY":" ","HOUSE_NO":"１０８號之６６","E_COORD97":185011.97,"N_COORD97":2585336.6600000001,"ADDRESS":"後壁寮１０８號之６６","OBJECTID":367307},"geometry":{"x":185011.96999999974,"y":2585336.660000002}},{"attributes":{"ID":367318,"DIS_CODE":0,"TOWNNAME":"後壁區","LI":"侯伯里","LIN":"13鄰","STREET":" ","SECT":" ","MAREA":"後壁寮","LANE":" ","ALLEY":" ","HOUSE_NO":"１０８號之６７","E_COORD97":185013.94,"N_COORD97":2585341.0699999998,"ADDRESS":"後壁寮１０８號之６７","OBJECTID":367308},"geometry":{"x":185013.94000000134,"y":2585341.0700000003}},{"attributes":{"ID":367319,"DIS_CODE":0,"TOWNNAME":"後壁區","LI":"侯伯里","LIN":"13鄰","STREET":" ","SECT":" ","MAREA":"後壁寮","LANE":" ","ALLEY":" ","HOUSE_NO":"１０８號之６８","E_COORD97":185016.47,"N_COORD97":2585345.8599999999,"ADDRESS":"後壁寮１０８號之６８","OBJECTID":367309},"geometry":{"x":185016.47000000067,"y":2585345.8599999994}},{"attributes":{"ID":367320,"DIS_CODE":0,"TOWNNAME":"後壁區","LI":"侯伯里","LIN":"13鄰","STREET":" ","SECT":" ","MAREA":"後壁寮","LANE":" ","ALLEY":" ","HOUSE_NO":"１０８號之６９","E_COORD97":185005.17000000001,"N_COORD97":2585345.0800000001,"ADDRESS":"後壁寮１０８號之６９","OBJECTID":367310},"geometry":{"x":185005.17000000086,"y":2585345.0800000001}},{"attributes":{"ID":367321,"DIS_CODE":0,"TOWNNAME":"官田區","LI":"隆田里","LIN":"13鄰","STREET":"自強街","SECT":" ","MAREA":" ","LANE":" ","ALLEY":" ","HOUSE_NO":"５５號","E_COORD97":180141.85999999999,"N_COORD97":2565978.7400000002,"ADDRESS":"自強街５５號","OBJECTID":367311},"geometry":{"x":180141.8599999994,"y":2565978.7399999984}},{"attributes":{"ID":367322,"DIS_CODE":0,"TOWNNAME":"官田區","LI":"隆田里","LIN":"13鄰","STREET":"自強街","SECT":" ","MAREA":" ","LANE":" ","ALLEY":" ","HOUSE_NO":"５７號","E_COORD97":180141.92999999999,"N_COORD97":2565983.1899999999,"ADDRESS":"自強街５７號","OBJECTID":367312},"geometry":{"x":180141.9299999997,"y":2565983.1900000013}},{"attributes":{"ID":367323,"DIS_CODE":0,"TOWNNAME":"官田區","LI":"隆田里","LIN":"13鄰","STREET":"自強街","SECT":" ","MAREA":" ","LANE":" ","ALLEY":" ","HOUSE_NO":"５９號","E_COORD97":180141.75,"N_COORD97":2565987.5899999999,"ADDRESS":"自強街５９號","OBJECTID":367313},"geometry":{"x":180141.75,"y":2565987.5900000017}},{"attributes":{"ID":367324,"DIS_CODE":0,"TOWNNAME":"官田區","LI":"隆田里","LIN":"13鄰","STREET":"自強街","SECT":" ","MAREA":" ","LANE":" ","ALLEY":" ","HOUSE_NO":"６１號","E_COORD97":180144.70000000001,"N_COORD97":2565991.27,"ADDRESS":"自強街６１號","OBJECTID":367314},"geometry":{"x":180144.70000000205,"y":2565991.2699999996}},{"attributes":{"ID":367325,"DIS_CODE":0,"TOWNNAME":"中西區","LI":"保安里","LIN":"12鄰","STREET":"國華街","SECT":"二段","MAREA":" ","LANE":"１６３巷","ALLEY":" ","HOUSE_NO":"２０號","E_COORD97":167651.32999999999,"N_COORD97":2543662.7999999998,"ADDRESS":"國華街二段１６３巷２０號","OBJECTID":367315},"geometry":{"x":167651.33000000007,"y":2543662.8000000007}},{"attributes":{"ID":367326,"DIS_CODE":0,"TOWNNAME":"中西區","LI":"保安里","LIN":"12鄰","STREET":"國華街","SECT":"二段","MAREA":" ","LANE":"１６３巷","ALLEY":" ","HOUSE_NO":"２２號","E_COORD97":167651.85000000001,"N_COORD97":2543665.6499999999,"ADDRESS":"國華街二段１６３巷２２號","OBJECTID":367316},"geometry":{"x":167651.85000000056,"y":2543665.6500000022}},{"attributes":{"ID":367327,"DIS_CODE":0,"TOWNNAME":"後壁區","LI":"侯伯里","LIN":"13鄰","STREET":" ","SECT":" ","MAREA":"後壁寮","LANE":" ","ALLEY":" ","HOUSE_NO":"１０８號之７１","E_COORD97":184997.84,"N_COORD97":2585349.0499999998,"ADDRESS":"後壁寮１０８號之７１","OBJECTID":367317},"geometry":{"x":184997.83999999985,"y":2585349.0500000007}},{"attributes":{"ID":367328,"DIS_CODE":0,"TOWNNAME":"中西區","LI":"保安里","LIN":"12鄰","STREET":"國華街","SECT":"二段","MAREA":" ","LANE":"１６３巷","ALLEY":" ","HOUSE_NO":"２４號","E_COORD97":167652.70000000001,"N_COORD97":2543667.98,"ADDRESS":"國華街二段１６３巷２４號","OBJECTID":367318},"geometry":{"x":167652.70000000205,"y":2543667.9800000004}},{"attributes":{"ID":367329,"DIS_CODE":0,"TOWNNAME":"官田區","LI":"隆田里","LIN":"13鄰","STREET":"自強街","SECT":" ","MAREA":" ","LANE":" ","ALLEY":" ","HOUSE_NO":"６２號","E_COORD97":180113.37,"N_COORD97":2566027.2799999998,"ADDRESS":"自強街６２號","OBJECTID":367319},"geometry":{"x":180113.37000000104,"y":2566027.2799999993}},{"attributes":{"ID":367330,"DIS_CODE":0,"TOWNNAME":"後壁區","LI":"侯伯里","LIN":"13鄰","STREET":" ","SECT":" ","MAREA":"後壁寮","LANE":" ","ALLEY":" ","HOUSE_NO":"１０８號之２８","E_COORD97":185015.14000000001,"N_COORD97":2585416.5899999999,"ADDRESS":"後壁寮１０８號之２８","OBJECTID":367320},"geometry":{"x":185015.1400000006,"y":2585416.5900000036}},{"attributes":{"ID":367331,"DIS_CODE":0,"TOWNNAME":"後壁區","LI":"侯伯里","LIN":"13鄰","STREET":" ","SECT":" ","MAREA":"後壁寮","LANE":" ","ALLEY":" ","HOUSE_NO":"１０８號之２９","E_COORD97":185024.03,"N_COORD97":2585412.3300000001,"ADDRESS":"後壁寮１０８號之２９","OBJECTID":367321},"geometry":{"x":185024.03000000026,"y":2585412.3300000019}},{"attributes":{"ID":367332,"DIS_CODE":0,"TOWNNAME":"中西區","LI":"保安里","LIN":"12鄰","STREET":"國華街","SECT":"二段","MAREA":" ","LANE":"１６３巷","ALLEY":" ","HOUSE_NO":"２６號","E_COORD97":167653.44,"N_COORD97":2543670.52,"ADDRESS":"國華街二段１６３巷２６號","OBJECTID":367322},"geometry":{"x":167653.44000000134,"y":2543670.5199999996}},{"attributes":{"ID":367333,"DIS_CODE":0,"TOWNNAME":"中西區","LI":"保安里","LIN":"12鄰","STREET":"國華街","SECT":"二段","MAREA":" ","LANE":"１６３巷","ALLEY":" ","HOUSE_NO":"２８號","E_COORD97":167647.39999999999,"N_COORD97":2543678.29,"ADDRESS":"國華街二段１６３巷２８號","OBJECTID":367323},"geometry":{"x":167647.40000000037,"y":2543678.2899999991}},{"attributes":{"ID":367334,"DIS_CODE":0,"TOWNNAME":"中西區","LI":"保安里","LIN":"12鄰","STREET":"國華街","SECT":"二段","MAREA":" ","LANE":"１６３巷","ALLEY":" ","HOUSE_NO":"２號","E_COORD97":167660.75,"N_COORD97":2543666.6099999999,"ADDRESS":"國華街二段１６３巷２號","OBJECTID":367324},"geometry":{"x":167660.75000000186,"y":2543666.6099999975}},{"attributes":{"ID":367335,"DIS_CODE":0,"TOWNNAME":"中西區","LI":"保安里","LIN":"12鄰","STREET":"國華街","SECT":"二段","MAREA":" ","LANE":"１６３巷","ALLEY":" ","HOUSE_NO":"３０號","E_COORD97":167642.39999999999,"N_COORD97":2543671.0699999998,"ADDRESS":"國華街二段１６３巷３０號","OBJECTID":367325},"geometry":{"x":167642.40000000037,"y":2543671.0700000003}},{"attributes":{"ID":367336,"DIS_CODE":0,"TOWNNAME":"中西區","LI":"保安里","LIN":"12鄰","STREET":"國華街","SECT":"二段","MAREA":" ","LANE":"１６３巷","ALLEY":" ","HOUSE_NO":"３２號","E_COORD97":167641.66,"N_COORD97":2543667.3799999999,"ADDRESS":"國華街二段１６３巷３２號","OBJECTID":367326},"geometry":{"x":167641.66000000108,"y":2543667.379999999}},{"attributes":{"ID":367337,"DIS_CODE":0,"TOWNNAME":"後壁區","LI":"侯伯里","LIN":"13鄰","STREET":" ","SECT":" ","MAREA":"後壁寮","LANE":" ","ALLEY":" ","HOUSE_NO":"１０８號之５８","E_COORD97":185060.76000000001,"N_COORD97":2585380.1699999999,"ADDRESS":"後壁寮１０８號之５８","OBJECTID":367327},"geometry":{"x":185060.75999999978,"y":2585380.1700000018}},{"attributes":{"ID":367338,"DIS_CODE":0,"TOWNNAME":"後壁區","LI":"侯伯里","LIN":"13鄰","STREET":" ","SECT":" ","MAREA":"後壁寮","LANE":" ","ALLEY":" ","HOUSE_NO":"１０８號之５９","E_COORD97":185058.53,"N_COORD97":2585376.6800000002,"ADDRESS":"後壁寮１０８號之５９","OBJECTID":367328},"geometry":{"x":185058.53000000212,"y":2585376.6800000016}},{"attributes":{"ID":367339,"DIS_CODE":0,"TOWNNAME":"中西區","LI":"保安里","LIN":"12鄰","STREET":"國華街","SECT":"二段","MAREA":" ","LANE":"１６３巷","ALLEY":" ","HOUSE_NO":"３４號","E_COORD97":167641.54999999999,"N_COORD97":2543662.0600000001,"ADDRESS":"國華街二段１６３巷３４號","OBJECTID":367329},"geometry":{"x":167641.55000000168,"y":2543662.0600000024}},{"attributes":{"ID":367340,"DIS_CODE":0,"TOWNNAME":"中西區","LI":"保安里","LIN":"12鄰","STREET":"國華街","SECT":"二段","MAREA":" ","LANE":"１６３巷","ALLEY":" ","HOUSE_NO":"６號","E_COORD97":167660.64999999999,"N_COORD97":2543665.5499999998,"ADDRESS":"國華街二段１６３巷６號","OBJECTID":367330},"geometry":{"x":167660.6500000013,"y":2543665.5500000045}},{"attributes":{"ID":367341,"DIS_CODE":0,"TOWNNAME":"中西區","LI":"保安里","LIN":"12鄰","STREET":"國華街","SECT":"二段","MAREA":" ","LANE":"１６３巷","ALLEY":" ","HOUSE_NO":"８號","E_COORD97":167659.79999999999,"N_COORD97":2543663.75,"ADDRESS":"國華街二段１６３巷８號","OBJECTID":367331},"geometry":{"x":167659.79999999981,"y":2543663.7500000019}},{"attributes":{"ID":367342,"DIS_CODE":0,"TOWNNAME":"中西區","LI":"保安里","LIN":"12鄰","STREET":"中正路","SECT":" ","MAREA":" ","LANE":"２７１巷","ALLEY":" ","HOUSE_NO":"１１號","E_COORD97":167616.51999999999,"N_COORD97":2543705.6899999999,"ADDRESS":"中正路２７１巷１１號","OBJECTID":367332},"geometry":{"x":167616.52000000048,"y":2543705.6899999995}},{"attributes":{"ID":367343,"DIS_CODE":0,"TOWNNAME":"中西區","LI":"保安里","LIN":"12鄰","STREET":"中正路","SECT":" ","MAREA":" ","LANE":"２７１巷","ALLEY":" ","HOUSE_NO":"１３號","E_COORD97":167615.04999999999,"N_COORD97":2543702.5,"ADDRESS":"中正路２７１巷１３號","OBJECTID":367333},"geometry":{"x":167615.05000000075,"y":2543702.5000000019}},{"attributes":{"ID":367344,"DIS_CODE":0,"TOWNNAME":"中西區","LI":"保安里","LIN":"12鄰","STREET":"中正路","SECT":" ","MAREA":" ","LANE":"２７１巷","ALLEY":" ","HOUSE_NO":"１５號","E_COORD97":167614.31,"N_COORD97":2543699.79,"ADDRESS":"中正路２７１巷１５號","OBJECTID":367334},"geometry":{"x":167614.31000000052,"y":2543699.790000001}},{"attributes":{"ID":367345,"DIS_CODE":0,"TOWNNAME":"中西區","LI":"保安里","LIN":"12鄰","STREET":"中正路","SECT":" ","MAREA":" ","LANE":"２７１巷","ALLEY":" ","HOUSE_NO":"１７號","E_COORD97":167614.56,"N_COORD97":2543695.8599999999,"ADDRESS":"中正路２７１巷１７號","OBJECTID":367335},"geometry":{"x":167614.56000000052,"y":2543695.8600000031}},{"attributes":{"ID":367346,"DIS_CODE":0,"TOWNNAME":"中西區","LI":"保安里","LIN":"12鄰","STREET":"中正路","SECT":" ","MAREA":" ","LANE":"２７１巷","ALLEY":" ","HOUSE_NO":"３號","E_COORD97":167620.95000000001,"N_COORD97":2543721.8999999999,"ADDRESS":"中正路２７１巷３號","OBJECTID":367336},"geometry":{"x":167620.95000000112,"y":2543721.9000000004}},{"attributes":{"ID":367347,"DIS_CODE":0,"TOWNNAME":"中西區","LI":"保安里","LIN":"12鄰","STREET":"中正路","SECT":" ","MAREA":" ","LANE":"２７１巷","ALLEY":" ","HOUSE_NO":"５號","E_COORD97":167619.23000000001,"N_COORD97":2543716.25,"ADDRESS":"中正路２７１巷５號","OBJECTID":367337},"geometry":{"x":167619.23000000138,"y":2543716.25}},{"attributes":{"ID":367348,"DIS_CODE":0,"TOWNNAME":"中西區","LI":"保安里","LIN":"12鄰","STREET":"中正路","SECT":" ","MAREA":" ","LANE":"２７１巷","ALLEY":" ","HOUSE_NO":"７號","E_COORD97":167617.26000000001,"N_COORD97":2543711.5800000001,"ADDRESS":"中正路２７１巷７號","OBJECTID":367338},"geometry":{"x":167617.25999999978,"y":2543711.5800000001}},{"attributes":{"ID":367349,"DIS_CODE":0,"TOWNNAME":"中西區","LI":"保安里","LIN":"12鄰","STREET":"友愛街","SECT":" ","MAREA":" ","LANE":"２０６巷","ALLEY":" ","HOUSE_NO":"１０號","E_COORD97":167637.22,"N_COORD97":2543661.0899999999,"ADDRESS":"友愛街２０６巷１０號","OBJECTID":367339},"geometry":{"x":167637.22000000067,"y":2543661.0900000017}},{"attributes":{"ID":367350,"DIS_CODE":0,"TOWNNAME":"中西區","LI":"保安里","LIN":"12鄰","STREET":"友愛街","SECT":" ","MAREA":" ","LANE":"２０６巷","ALLEY":" ","HOUSE_NO":"１２號","E_COORD97":167635.54999999999,"N_COORD97":2543664.4199999999,"ADDRESS":"友愛街２０６巷１２號","OBJECTID":367340},"geometry":{"x":167635.55000000075,"y":2543664.4199999999}},{"attributes":{"ID":367351,"DIS_CODE":0,"TOWNNAME":"後壁區","LI":"烏樹里","LIN":"13鄰","STREET":" ","SECT":" ","MAREA":"烏樹林","LANE":" ","ALLEY":" ","HOUSE_NO":"３３２號","E_COORD97":186477.5,"N_COORD97":2582159.3799999999,"ADDRESS":"烏樹林３３２號","OBJECTID":367341},"geometry":{"x":186477.50000000093,"y":2582159.3800000008}},{"attributes":{"ID":367352,"DIS_CODE":0,"TOWNNAME":"後壁區","LI":"烏樹里","LIN":"13鄰","STREET":" ","SECT":" ","MAREA":"烏樹林","LANE":" ","ALLEY":" ","HOUSE_NO":"３３５號","E_COORD97":186415.37,"N_COORD97":2582269.96,"ADDRESS":"烏樹林３３５號","OBJECTID":367342},"geometry":{"x":186415.37000000011,"y":2582269.9600000028}},{"attributes":{"ID":367353,"DIS_CODE":0,"TOWNNAME":"後壁區","LI":"烏樹里","LIN":"13鄰","STREET":" ","SECT":" ","MAREA":"烏樹林","LANE":" ","ALLEY":" ","HOUSE_NO":"３３６號","E_COORD97":186593.23999999999,"N_COORD97":2582138.3700000001,"ADDRESS":"烏樹林３３６號","OBJECTID":367343},"geometry":{"x":186593.24000000115,"y":2582138.3700000029}},{"attributes":{"ID":367354,"DIS_CODE":0,"TOWNNAME":"後壁區","LI":"烏樹里","LIN":"13鄰","STREET":" ","SECT":" ","MAREA":"烏樹林","LANE":" ","ALLEY":" ","HOUSE_NO":"３４１號","E_COORD97":186477.78,"N_COORD97":2582264.0899999999,"ADDRESS":"烏樹林３４１號","OBJECTID":367344},"geometry":{"x":186477.78000000119,"y":2582264.0900000017}},{"attributes":{"ID":367355,"DIS_CODE":0,"TOWNNAME":"安南區","LI":"頂安里","LIN":"13鄰","STREET":"安中路","SECT":"一段","MAREA":" ","LANE":"３９３巷","ALLEY":" ","HOUSE_NO":"２號","E_COORD97":168317.14999999999,"N_COORD97":2548752.3700000001,"ADDRESS":"安中路一段３９３巷２號","OBJECTID":367345},"geometry":{"x":168317.15000000037,"y":2548752.3700000048}},{"attributes":{"ID":367356,"DIS_CODE":0,"TOWNNAME":"後壁區","LI":"烏樹里","LIN":"13鄰","STREET":" ","SECT":" ","MAREA":"烏樹林","LANE":" ","ALLEY":" ","HOUSE_NO":"３４３號","E_COORD97":186551.22,"N_COORD97":2582237.6299999999,"ADDRESS":"烏樹林３４３號","OBJECTID":367346},"geometry":{"x":186551.21999999974,"y":2582237.629999999}},{"attributes":{"ID":367357,"DIS_CODE":0,"TOWNNAME":"後壁區","LI":"烏樹里","LIN":"13鄰","STREET":" ","SECT":" ","MAREA":"烏樹林","LANE":" ","ALLEY":" ","HOUSE_NO":"３４９號","E_COORD97":186596.22,"N_COORD97":2582235.2200000002,"ADDRESS":"烏樹林３４９號","OBJECTID":367347},"geometry":{"x":186596.22000000067,"y":2582235.2200000007}},{"attributes":{"ID":367358,"DIS_CODE":0,"TOWNNAME":"中西區","LI":"保安里","LIN":"12鄰","STREET":"友愛街","SECT":" ","MAREA":" ","LANE":"２０６巷","ALLEY":" ","HOUSE_NO":"１８號","E_COORD97":167635.37,"N_COORD97":2543672.5499999998,"ADDRESS":"友愛街２０６巷１８號","OBJECTID":367348},"geometry":{"x":167635.37000000104,"y":2543672.5500000026}},{"attributes":{"ID":367359,"DIS_CODE":0,"TOWNNAME":"中西區","LI":"保安里","LIN":"12鄰","STREET":"友愛街","SECT":" ","MAREA":" ","LANE":"２０６巷","ALLEY":" ","HOUSE_NO":"２０號","E_COORD97":167635.37,"N_COORD97":2543675.8799999999,"ADDRESS":"友愛街２０６巷２０號","OBJECTID":367349},"geometry":{"x":167635.37000000104,"y":2543675.8800000008}},{"attributes":{"ID":367360,"DIS_CODE":0,"TOWNNAME":"中西區","LI":"保安里","LIN":"12鄰","STREET":"友愛街","SECT":" ","MAREA":" ","LANE":"２０６巷","ALLEY":" ","HOUSE_NO":"２２號","E_COORD97":167634.81,"N_COORD97":2543678.6600000001,"ADDRESS":"友愛街２０６巷２２號","OBJECTID":367350},"geometry":{"x":167634.81000000052,"y":2543678.660000002}},{"attributes":{"ID":367361,"DIS_CODE":0,"TOWNNAME":"中西區","LI":"保安里","LIN":"12鄰","STREET":"友愛街","SECT":" ","MAREA":" ","LANE":"２０６巷","ALLEY":" ","HOUSE_NO":"２４號","E_COORD97":167635,"N_COORD97":2543681.7999999998,"ADDRESS":"友愛街２０６巷２４號","OBJECTID":367351},"geometry":{"x":167635,"y":2543681.8000000026}},{"attributes":{"ID":367362,"DIS_CODE":0,"TOWNNAME":"中西區","LI":"保安里","LIN":"12鄰","STREET":"友愛街","SECT":" ","MAREA":" ","LANE":"２０６巷","ALLEY":" ","HOUSE_NO":"２６號","E_COORD97":167635,"N_COORD97":2543684.02,"ADDRESS":"友愛街２０６巷２６號","OBJECTID":367352},"geometry":{"x":167635,"y":2543684.0199999996}},{"attributes":{"ID":367363,"DIS_CODE":0,"TOWNNAME":"中西區","LI":"保安里","LIN":"12鄰","STREET":"友愛街","SECT":" ","MAREA":" ","LANE":"２０６巷","ALLEY":" ","HOUSE_NO":"２８號","E_COORD97":167635,"N_COORD97":2543686.4199999999,"ADDRESS":"友愛街２０６巷２８號","OBJECTID":367353},"geometry":{"x":167635,"y":2543686.4200000018}},{"attributes":{"ID":367364,"DIS_CODE":0,"TOWNNAME":"中西區","LI":"保安里","LIN":"12鄰","STREET":"友愛街","SECT":" ","MAREA":" ","LANE":"２０６巷","ALLEY":" ","HOUSE_NO":"３０號","E_COORD97":167632.04000000001,"N_COORD97":2543690.3100000001,"ADDRESS":"友愛街２０６巷３０號","OBJECTID":367354},"geometry":{"x":167632.04000000097,"y":2543690.3100000042}},{"attributes":{"ID":367365,"DIS_CODE":0,"TOWNNAME":"中西區","LI":"保安里","LIN":"12鄰","STREET":"友愛街","SECT":" ","MAREA":" ","LANE":"２０６巷","ALLEY":" ","HOUSE_NO":"４號","E_COORD97":167636.38,"N_COORD97":2543649.71,"ADDRESS":"友愛街２０６巷４號","OBJECTID":367355},"geometry":{"x":167636.38000000082,"y":2543649.7100000009}},{"attributes":{"ID":367366,"DIS_CODE":0,"TOWNNAME":"中西區","LI":"保安里","LIN":"12鄰","STREET":"友愛街","SECT":" ","MAREA":" ","LANE":"２０６巷","ALLEY":" ","HOUSE_NO":"５號","E_COORD97":167622.91,"N_COORD97":2543693.8999999999,"ADDRESS":"友愛街２０６巷５號","OBJECTID":367356},"geometry":{"x":167622.91000000108,"y":2543693.9000000022}},{"attributes":{"ID":367367,"DIS_CODE":0,"TOWNNAME":"中西區","LI":"保安里","LIN":"12鄰","STREET":"友愛街","SECT":" ","MAREA":" ","LANE":"２０６巷","ALLEY":" ","HOUSE_NO":"７號","E_COORD97":167624.63,"N_COORD97":2543707.1600000001,"ADDRESS":"友愛街２０６巷７號","OBJECTID":367357},"geometry":{"x":167624.63000000082,"y":2543707.1600000001}},{"attributes":{"ID":367368,"DIS_CODE":0,"TOWNNAME":"中西區","LI":"保安里","LIN":"12鄰","STREET":"友愛街","SECT":" ","MAREA":" ","LANE":"２０６巷","ALLEY":" ","HOUSE_NO":"９號","E_COORD97":167624.63,"N_COORD97":2543710.1099999999,"ADDRESS":"友愛街２０６巷９號","OBJECTID":367358},"geometry":{"x":167624.63000000082,"y":2543710.1099999994}},{"attributes":{"ID":367369,"DIS_CODE":0,"TOWNNAME":"新市區","LI":"港墘里","LIN":"12鄰","STREET":"中山路","SECT":" ","MAREA":" ","LANE":"１０６巷","ALLEY":" ","HOUSE_NO":"１３號","E_COORD97":178344.73999999999,"N_COORD97":2552779.75,"ADDRESS":"中山路１０６巷１３號","OBJECTID":367359},"geometry":{"x":178344.74000000115,"y":2552779.7499999981}},{"attributes":{"ID":367370,"DIS_CODE":0,"TOWNNAME":"安南區","LI":"溪心里","LIN":"12鄰","STREET":"海佃路","SECT":"二段","MAREA":" ","LANE":"６３６巷","ALLEY":" ","HOUSE_NO":"６號","E_COORD97":166673.62,"N_COORD97":2549357.8199999998,"ADDRESS":"海佃路二段６３６巷６號","OBJECTID":367360},"geometry":{"x":166673.62000000104,"y":2549357.8200000003}},{"attributes":{"ID":367371,"DIS_CODE":0,"TOWNNAME":"安南區","LI":"溪心里","LIN":"12鄰","STREET":"海佃路","SECT":"二段","MAREA":" ","LANE":"６３６巷","ALLEY":" ","HOUSE_NO":"７號","E_COORD97":166647.95000000001,"N_COORD97":2549380.1099999999,"ADDRESS":"海佃路二段６３６巷７號","OBJECTID":367361},"geometry":{"x":166647.95000000112,"y":2549380.1100000013}},{"attributes":{"ID":367372,"DIS_CODE":0,"TOWNNAME":"安南區","LI":"溪心里","LIN":"12鄰","STREET":"海佃路","SECT":"二段","MAREA":" ","LANE":"６３６巷","ALLEY":" ","HOUSE_NO":"８號","E_COORD97":166676.45000000001,"N_COORD97":2549361.46,"ADDRESS":"海佃路二段６３６巷８號","OBJECTID":367362},"geometry":{"x":166676.45000000112,"y":2549361.4600000009}},{"attributes":{"ID":367373,"DIS_CODE":0,"TOWNNAME":"官田區","LI":"隆田里","LIN":"13鄰","STREET":"自強街","SECT":" ","MAREA":" ","LANE":" ","ALLEY":" ","HOUSE_NO":"６３號","E_COORD97":180144.31,"N_COORD97":2565997.48,"ADDRESS":"自強街６３號","OBJECTID":367363},"geometry":{"x":180144.30999999959,"y":2565997.4800000004}},{"attributes":{"ID":367374,"DIS_CODE":0,"TOWNNAME":"安南區","LI":"頂安里","LIN":"13鄰","STREET":"安中路","SECT":"一段","MAREA":" ","LANE":"３７９巷","ALLEY":" ","HOUSE_NO":"２６號","E_COORD97":168347.31,"N_COORD97":2548691.73,"ADDRESS":"安中路一段３７９巷２６號","OBJECTID":367364},"geometry":{"x":168347.30999999959,"y":2548691.7300000042}},{"attributes":{"ID":367375,"DIS_CODE":0,"TOWNNAME":"安南區","LI":"淵東里","LIN":"12鄰","STREET":"海佃路","SECT":"四段","MAREA":" ","LANE":"５５巷","ALLEY":" ","HOUSE_NO":"６號","E_COORD97":165655.85999999999,"N_COORD97":2550602.02,"ADDRESS":"海佃路四段５５巷６號","OBJECTID":367365},"geometry":{"x":165655.86000000034,"y":2550602.0200000014}},{"attributes":{"ID":367376,"DIS_CODE":0,"TOWNNAME":"安南區","LI":"淵東里","LIN":"12鄰","STREET":"海佃路","SECT":"四段","MAREA":" ","LANE":"５５巷","ALLEY":" ","HOUSE_NO":"８號","E_COORD97":165651.56,"N_COORD97":2550600.4900000002,"ADDRESS":"海佃路四段５５巷８號","OBJECTID":367366},"geometry":{"x":165651.56000000052,"y":2550600.4900000002}},{"attributes":{"ID":367377,"DIS_CODE":0,"TOWNNAME":"安南區","LI":"南興里","LIN":"12鄰","STREET":"公學路","SECT":"五段","MAREA":" ","LANE":"６５６巷","ALLEY":" ","HOUSE_NO":"３００號之６６","E_COORD97":164450.32000000001,"N_COORD97":2553595.52,"ADDRESS":"公學路五段６５６巷３００號之６６","OBJECTID":367367},"geometry":{"x":164450.32000000123,"y":2553595.5200000014}},{"attributes":{"ID":367378,"DIS_CODE":0,"TOWNNAME":"安南區","LI":"城東里","LIN":"12鄰","STREET":"城北路","SECT":" ","MAREA":" ","LANE":"１３８巷","ALLEY":" ","HOUSE_NO":"２７號","E_COORD97":161065.47,"N_COORD97":2551698.79,"ADDRESS":"城北路１３８巷２７號","OBJECTID":367368},"geometry":{"x":161065.46999999974,"y":2551698.790000001}},{"attributes":{"ID":367379,"DIS_CODE":0,"TOWNNAME":"安南區","LI":"城東里","LIN":"12鄰","STREET":"城北路","SECT":" ","MAREA":" ","LANE":"１３８巷","ALLEY":" ","HOUSE_NO":"３８號","E_COORD97":161103.32000000001,"N_COORD97":2551678.6600000001,"ADDRESS":"城北路１３８巷３８號","OBJECTID":367369},"geometry":{"x":161103.3200000003,"y":2551678.6600000039}},{"attributes":{"ID":367380,"DIS_CODE":0,"TOWNNAME":"官田區","LI":"隆田里","LIN":"13鄰","STREET":"自強街","SECT":" ","MAREA":" ","LANE":" ","ALLEY":" ","HOUSE_NO":"６４號","E_COORD97":180111.84,"N_COORD97":2566031.98,"ADDRESS":"自強街６４號","OBJECTID":367370},"geometry":{"x":180111.84000000078,"y":2566031.9800000042}},{"attributes":{"ID":367381,"DIS_CODE":0,"TOWNNAME":"官田區","LI":"隆田里","LIN":"13鄰","STREET":"自強街","SECT":" ","MAREA":" ","LANE":" ","ALLEY":" ","HOUSE_NO":"６５號","E_COORD97":180144.17000000001,"N_COORD97":2566001.7000000002,"ADDRESS":"自強街６５號","OBJECTID":367371},"geometry":{"x":180144.16999999993,"y":2566001.6999999974}},{"attributes":{"ID":367382,"DIS_CODE":0,"TOWNNAME":"安平區","LI":"華平里","LIN":"17鄰","STREET":"建平八街","SECT":" ","MAREA":" ","LANE":"４５０巷","ALLEY":" ","HOUSE_NO":"３９號","E_COORD97":165097.23999999999,"N_COORD97":2543713.5699999998,"ADDRESS":"建平八街４５０巷３９號","OBJECTID":367372},"geometry":{"x":165097.24000000022,"y":2543713.5700000022}},{"attributes":{"ID":367383,"DIS_CODE":0,"TOWNNAME":"東區","LI":"新東里","LIN":"13鄰","STREET":"裕農路","SECT":" ","MAREA":" ","LANE":"２９巷","ALLEY":" ","HOUSE_NO":"４２之１號","E_COORD97":170607.48000000001,"N_COORD97":2542958.1299999999,"ADDRESS":"裕農路２９巷４２之１號","OBJECTID":367373},"geometry":{"x":170607.48000000231,"y":2542958.1300000008}},{"attributes":{"ID":367384,"DIS_CODE":0,"TOWNNAME":"永康區","LI":"六合里","LIN":"13鄰","STREET":"六合路","SECT":" ","MAREA":" ","LANE":"４８巷","ALLEY":" ","HOUSE_NO":"１１號","E_COORD97":171201.42000000001,"N_COORD97":2545602.96,"ADDRESS":"六合路４８巷１１號","OBJECTID":367374},"geometry":{"x":171201.42000000086,"y":2545602.9600000028}},{"attributes":{"ID":367385,"DIS_CODE":0,"TOWNNAME":"永康區","LI":"六合里","LIN":"13鄰","STREET":"六合路","SECT":" ","MAREA":" ","LANE":"４８巷","ALLEY":" ","HOUSE_NO":"１３號","E_COORD97":171205.17000000001,"N_COORD97":2545602.71,"ADDRESS":"六合路４８巷１３號","OBJECTID":367375},"geometry":{"x":171205.16999999993,"y":2545602.7100000009}},{"attributes":{"ID":367386,"DIS_CODE":0,"TOWNNAME":"永康區","LI":"六合里","LIN":"13鄰","STREET":"六合路","SECT":" ","MAREA":" ","LANE":"４８巷","ALLEY":" ","HOUSE_NO":"１５號","E_COORD97":171209.98999999999,"N_COORD97":2545602.5,"ADDRESS":"六合路４８巷１５號","OBJECTID":367376},"geometry":{"x":171209.99000000022,"y":2545602.5}},{"attributes":{"ID":367387,"DIS_CODE":0,"TOWNNAME":"永康區","LI":"六合里","LIN":"13鄰","STREET":"六合路","SECT":" ","MAREA":" ","LANE":"４８巷","ALLEY":" ","HOUSE_NO":"１７號","E_COORD97":171215.81,"N_COORD97":2545601.25,"ADDRESS":"六合路４８巷１７號","OBJECTID":367377},"geometry":{"x":171215.80999999959,"y":2545601.25}},{"attributes":{"ID":367388,"DIS_CODE":0,"TOWNNAME":"永康區","LI":"六合里","LIN":"13鄰","STREET":"六合路","SECT":" ","MAREA":" ","LANE":"４８巷","ALLEY":" ","HOUSE_NO":"１９號","E_COORD97":171220.10999999999,"N_COORD97":2545600,"ADDRESS":"六合路４８巷１９號","OBJECTID":367378},"geometry":{"x":171220.1100000022,"y":2545600}},{"attributes":{"ID":367389,"DIS_CODE":0,"TOWNNAME":"永康區","LI":"六合里","LIN":"13鄰","STREET":"六合路","SECT":" ","MAREA":" ","LANE":"４８巷","ALLEY":" ","HOUSE_NO":"１號","E_COORD97":171180.87,"N_COORD97":2545603.46,"ADDRESS":"六合路４８巷１號","OBJECTID":367379},"geometry":{"x":171180.87000000197,"y":2545603.4600000028}},{"attributes":{"ID":367390,"DIS_CODE":0,"TOWNNAME":"永康區","LI":"六合里","LIN":"13鄰","STREET":"六合路","SECT":" ","MAREA":" ","LANE":"４８巷","ALLEY":" ","HOUSE_NO":"２１號","E_COORD97":171224.09,"N_COORD97":2545599.25,"ADDRESS":"六合路４８巷２１號","OBJECTID":367380},"geometry":{"x":171224.08999999985,"y":2545599.2500000037}},{"attributes":{"ID":367391,"DIS_CODE":0,"TOWNNAME":"永康區","LI":"六合里","LIN":"13鄰","STREET":"六合路","SECT":" ","MAREA":" ","LANE":"４８巷","ALLEY":" ","HOUSE_NO":"２３號","E_COORD97":171228.26999999999,"N_COORD97":2545598,"ADDRESS":"六合路４８巷２３號","OBJECTID":367381},"geometry":{"x":171228.26999999955,"y":2545598.0000000019}},{"attributes":{"ID":367392,"DIS_CODE":0,"TOWNNAME":"永康區","LI":"六合里","LIN":"13鄰","STREET":"六合路","SECT":" ","MAREA":" ","LANE":"４８巷","ALLEY":" ","HOUSE_NO":"２５號","E_COORD97":171232.23000000001,"N_COORD97":2545597,"ADDRESS":"六合路４８巷２５號","OBJECTID":367382},"geometry":{"x":171232.23000000045,"y":2545597}},{"attributes":{"ID":367393,"DIS_CODE":0,"TOWNNAME":"安南區","LI":"城東里","LIN":"12鄰","STREET":"城北路","SECT":" ","MAREA":" ","LANE":"１３８巷","ALLEY":" ","HOUSE_NO":"４１號","E_COORD97":161106.42000000001,"N_COORD97":2551707.8700000001,"ADDRESS":"城北路１３８巷４１號","OBJECTID":367383},"geometry":{"x":161106.42000000086,"y":2551707.870000001}},{"attributes":{"ID":367394,"DIS_CODE":0,"TOWNNAME":"安南區","LI":"城東里","LIN":"12鄰","STREET":"城北路","SECT":" ","MAREA":" ","LANE":"１３８巷","ALLEY":" ","HOUSE_NO":"４２號","E_COORD97":161119.60000000001,"N_COORD97":2551683.3799999999,"ADDRESS":"城北路１３８巷４２號","OBJECTID":367384},"geometry":{"x":161119.60000000149,"y":2551683.3800000008}},{"attributes":{"ID":367395,"DIS_CODE":0,"TOWNNAME":"安南區","LI":"城東里","LIN":"12鄰","STREET":"城北路","SECT":" ","MAREA":" ","LANE":"１３８巷","ALLEY":" ","HOUSE_NO":"４４號","E_COORD97":161123.25,"N_COORD97":2551685.7400000002,"ADDRESS":"城北路１３８巷４４號","OBJECTID":367385},"geometry":{"x":161123.25,"y":2551685.7400000021}},{"attributes":{"ID":367396,"DIS_CODE":0,"TOWNNAME":"官田區","LI":"隆田里","LIN":"13鄰","STREET":"自強街","SECT":" ","MAREA":" ","LANE":" ","ALLEY":" ","HOUSE_NO":"６６號","E_COORD97":180111.04999999999,"N_COORD97":2566037.1299999999,"ADDRESS":"自強街６６號","OBJECTID":367386},"geometry":{"x":180111.04999999981,"y":2566037.1300000008}},{"attributes":{"ID":367397,"DIS_CODE":0,"TOWNNAME":"官田區","LI":"隆田里","LIN":"13鄰","STREET":"自強街","SECT":" ","MAREA":" ","LANE":" ","ALLEY":" ","HOUSE_NO":"６７號","E_COORD97":180144.20000000001,"N_COORD97":2566006.04,"ADDRESS":"自強街６７號","OBJECTID":367387},"geometry":{"x":180144.20000000019,"y":2566006.0399999972}},{"attributes":{"ID":367398,"DIS_CODE":0,"TOWNNAME":"官田區","LI":"隆田里","LIN":"13鄰","STREET":"自強街","SECT":" ","MAREA":" ","LANE":" ","ALLEY":" ","HOUSE_NO":"６９號","E_COORD97":180143.60000000001,"N_COORD97":2566010.5,"ADDRESS":"自強街６９號","OBJECTID":367388},"geometry":{"x":180143.60000000056,"y":2566010.5}},{"attributes":{"ID":367399,"DIS_CODE":0,"TOWNNAME":"仁德區","LI":"一甲里","LIN":"13鄰","STREET":"忠義三街","SECT":" ","MAREA":" ","LANE":" ","ALLEY":" ","HOUSE_NO":"２８號","E_COORD97":173629.29999999999,"N_COORD97":2541753.77,"ADDRESS":"忠義三街２８號","OBJECTID":367389},"geometry":{"x":173629.30000000075,"y":2541753.7700000033}},{"attributes":{"ID":367400,"DIS_CODE":0,"TOWNNAME":"北區","LI":"和順里","LIN":"26鄰","STREET":"民德路","SECT":" ","MAREA":" ","LANE":" ","ALLEY":" ","HOUSE_NO":"５０號","E_COORD97":168208.07999999999,"N_COORD97":2545187.6699999999,"ADDRESS":"民德路５０號","OBJECTID":367390},"geometry":{"x":168208.08000000101,"y":2545187.6699999999}},{"attributes":{"ID":367401,"DIS_CODE":0,"TOWNNAME":"仁德區","LI":"一甲里","LIN":"13鄰","STREET":"忠義三街","SECT":" ","MAREA":" ","LANE":" ","ALLEY":" ","HOUSE_NO":"７０號","E_COORD97":173660.19,"N_COORD97":2541841.0099999998,"ADDRESS":"忠義三街７０號","OBJECTID":367391},"geometry":{"x":173660.19000000041,"y":2541841.0100000016}},{"attributes":{"ID":367402,"DIS_CODE":0,"TOWNNAME":"仁德區","LI":"土庫里","LIN":"13鄰","STREET":"中正路","SECT":"三段","MAREA":" ","LANE":" ","ALLEY":" ","HOUSE_NO":"３４６之１號","E_COORD97":173944.62,"N_COORD97":2542508.0499999998,"ADDRESS":"中正路三段３４６之１號","OBJECTID":367392},"geometry":{"x":173944.62000000104,"y":2542508.0500000007}},{"attributes":{"ID":367403,"DIS_CODE":0,"TOWNNAME":"中西區","LI":"三民里","LIN":"13鄰","STREET":"民族路","SECT":"二段","MAREA":" ","LANE":" ","ALLEY":" ","HOUSE_NO":"１３９號","E_COORD97":168764.39999999999,"N_COORD97":2543940.1400000001,"ADDRESS":"民族路二段１３９號","OBJECTID":367393},"geometry":{"x":168764.4000000013,"y":2543940.1400000025}},{"attributes":{"ID":367404,"DIS_CODE":0,"TOWNNAME":"中西區","LI":"三民里","LIN":"13鄰","STREET":"民族路","SECT":"二段","MAREA":" ","LANE":" ","ALLEY":" ","HOUSE_NO":"１４１號","E_COORD97":168761.14000000001,"N_COORD97":2543942.79,"ADDRESS":"民族路二段１４１號","OBJECTID":367394},"geometry":{"x":168761.13999999873,"y":2543942.7899999991}},{"attributes":{"ID":367405,"DIS_CODE":0,"TOWNNAME":"中西區","LI":"三民里","LIN":"13鄰","STREET":"民族路","SECT":"二段","MAREA":" ","LANE":" ","ALLEY":" ","HOUSE_NO":"１４３號","E_COORD97":168748.35000000001,"N_COORD97":2543946.4500000002,"ADDRESS":"民族路二段１４３號","OBJECTID":367395},"geometry":{"x":168748.35000000056,"y":2543946.4500000011}},{"attributes":{"ID":367406,"DIS_CODE":0,"TOWNNAME":"北區","LI":"和順里","LIN":"26鄰","STREET":"民德路","SECT":" ","MAREA":" ","LANE":" ","ALLEY":" ","HOUSE_NO":"５２號","E_COORD97":168204.87,"N_COORD97":2545190.8799999999,"ADDRESS":"民德路５２號","OBJECTID":367396},"geometry":{"x":168204.87000000104,"y":2545190.8800000008}},{"attributes":{"ID":367407,"DIS_CODE":0,"TOWNNAME":"中西區","LI":"三民里","LIN":"13鄰","STREET":"民族路","SECT":"二段","MAREA":" ","LANE":" ","ALLEY":" ","HOUSE_NO":"１４７號","E_COORD97":168735.29999999999,"N_COORD97":2543952.3599999999,"ADDRESS":"民族路二段１４７號","OBJECTID":367397},"geometry":{"x":168735.30000000075,"y":2543952.3599999994}},{"attributes":{"ID":367408,"DIS_CODE":0,"TOWNNAME":"永康區","LI":"六合里","LIN":"13鄰","STREET":"六合路","SECT":" ","MAREA":" ","LANE":"４８巷","ALLEY":" ","HOUSE_NO":"３７號","E_COORD97":171262.70000000001,"N_COORD97":2545590.5,"ADDRESS":"六合路４８巷３７號","OBJECTID":367398},"geometry":{"x":171262.70000000019,"y":2545590.5000000037}},{"attributes":{"ID":367409,"DIS_CODE":0,"TOWNNAME":"安南區","LI":"城東里","LIN":"12鄰","STREET":"城北路","SECT":" ","MAREA":" ","LANE":"１３８巷","ALLEY":" ","HOUSE_NO":"４６號","E_COORD97":161127.28,"N_COORD97":2551687.5099999998,"ADDRESS":"城北路１３８巷４６號","OBJECTID":367399},"geometry":{"x":161127.28000000026,"y":2551687.5100000016}},{"attributes":{"ID":367410,"DIS_CODE":0,"TOWNNAME":"安南區","LI":"城東里","LIN":"12鄰","STREET":"城北路","SECT":" ","MAREA":" ","LANE":"１３８巷","ALLEY":" ","HOUSE_NO":"４８號","E_COORD97":161131.51999999999,"N_COORD97":2551689.48,"ADDRESS":"城北路１３８巷４８號","OBJECTID":367400},"geometry":{"x":161131.51999999955,"y":2551689.4800000004}}]}