{"displayFieldName":"TOWNNAME","fieldAliases":{"ID":"ID","DIS_CODE":"DIS_CODE","TOWNNAME":"TOWNNAME","LI":"LI","LIN":"LIN","STREET":"STREET","SECT":"SECT","MAREA":"MAREA","LANE":"LANE","ALLEY":"ALLEY","HOUSE_NO":"HOUSE_NO","E_COORD97":"E_COORD97","N_COORD97":"N_COORD97","ADDRESS":"ADDRESS","OBJECTID":"OBJECTID"},"geometryType":"esriGeometryPoint","spatialReference":{"wkid":102443,"latestWkid":3826},"fields":[{"name":"ID","type":"esriFieldTypeDouble","alias":"ID"},{"name":"DIS_CODE","type":"esriFieldTypeInteger","alias":"DIS_CODE"},{"name":"TOWNNAME","type":"esriFieldTypeString","alias":"TOWNNAME","length":8},{"name":"LI","type":"esriFieldTypeString","alias":"LI","length":8},{"name":"LIN","type":"esriFieldTypeString","alias":"LIN","length":12},{"name":"STREET","type":"esriFieldTypeString","alias":"STREET","length":20},{"name":"SECT","type":"esriFieldTypeString","alias":"SECT","length":8},{"name":"MAREA","type":"esriFieldTypeString","alias":"MAREA","length":12},{"name":"LANE","type":"esriFieldTypeString","alias":"LANE","length":10},{"name":"ALLEY","type":"esriFieldTypeString","alias":"ALLEY","length":10},{"name":"HOUSE_NO","type":"esriFieldTypeString","alias":"HOUSE_NO","length":20},{"name":"E_COORD97","type":"esriFieldTypeDouble","alias":"E_COORD97"},{"name":"N_COORD97","type":"esriFieldTypeDouble","alias":"N_COORD97"},{"name":"ADDRESS","type":"esriFieldTypeString","alias":"ADDRESS","length":50},{"name":"OBJECTID","type":"esriFieldTypeOID","alias":"OBJECTID"}],"features":[{"attributes":{"ID":531428,"DIS_CODE":0,"TOWNNAME":"官田區","LI":"隆本里","LIN":"30鄰","STREET":"中山路","SECT":"二段","MAREA":" ","LANE":" ","ALLEY":" ","HOUSE_NO":"１６８號","E_COORD97":178831.32000000001,"N_COORD97":2566078.4900000002,"ADDRESS":"中山路二段１６８號","OBJECTID":531401},"geometry":{"x":178831.3200000003,"y":2566078.4900000002}},{"attributes":{"ID":531429,"DIS_CODE":0,"TOWNNAME":"官田區","LI":"隆本里","LIN":"30鄰","STREET":"中山路","SECT":"二段","MAREA":" ","LANE":" ","ALLEY":" ","HOUSE_NO":"１７０號","E_COORD97":178827.13,"N_COORD97":2566080.4300000002,"ADDRESS":"中山路二段１７０號","OBJECTID":531402},"geometry":{"x":178827.12999999989,"y":2566080.4300000016}},{"attributes":{"ID":531430,"DIS_CODE":0,"TOWNNAME":"官田區","LI":"隆本里","LIN":"30鄰","STREET":"中山路","SECT":"二段","MAREA":" ","LANE":" ","ALLEY":" ","HOUSE_NO":"１７６號","E_COORD97":178818.94,"N_COORD97":2566084.4300000002,"ADDRESS":"中山路二段１７６號","OBJECTID":531403},"geometry":{"x":178818.94000000041,"y":2566084.4299999997}},{"attributes":{"ID":531431,"DIS_CODE":0,"TOWNNAME":"官田區","LI":"隆本里","LIN":"30鄰","STREET":"中山路","SECT":"二段","MAREA":" ","LANE":" ","ALLEY":" ","HOUSE_NO":"１７８號","E_COORD97":178812.98999999999,"N_COORD97":2566086.7999999998,"ADDRESS":"中山路二段１７８號","OBJECTID":531404},"geometry":{"x":178812.99000000022,"y":2566086.8000000007}},{"attributes":{"ID":531432,"DIS_CODE":0,"TOWNNAME":"官田區","LI":"隆本里","LIN":"30鄰","STREET":"中山路","SECT":"二段","MAREA":" ","LANE":" ","ALLEY":" ","HOUSE_NO":"１８０號","E_COORD97":178806.84,"N_COORD97":2566087.9900000002,"ADDRESS":"中山路二段１８０號","OBJECTID":531405},"geometry":{"x":178806.83999999985,"y":2566087.9900000002}},{"attributes":{"ID":531433,"DIS_CODE":0,"TOWNNAME":"官田區","LI":"隆田里","LIN":"30鄰","STREET":"中山路","SECT":"二段","MAREA":" ","LANE":" ","ALLEY":" ","HOUSE_NO":"１８１號","E_COORD97":178283.82000000001,"N_COORD97":2566270.8999999999,"ADDRESS":"中山路二段１８１號","OBJECTID":531406},"geometry":{"x":178283.8200000003,"y":2566270.9000000022}},{"attributes":{"ID":531434,"DIS_CODE":0,"TOWNNAME":"官田區","LI":"隆本里","LIN":"30鄰","STREET":"中山路","SECT":"二段","MAREA":" ","LANE":" ","ALLEY":" ","HOUSE_NO":"１８２號","E_COORD97":178802.91,"N_COORD97":2566089.6600000001,"ADDRESS":"中山路二段１８２號","OBJECTID":531407},"geometry":{"x":178802.91000000108,"y":2566089.6600000001}},{"attributes":{"ID":531435,"DIS_CODE":0,"TOWNNAME":"官田區","LI":"隆田里","LIN":"30鄰","STREET":"中山路","SECT":"二段","MAREA":" ","LANE":" ","ALLEY":" ","HOUSE_NO":"１８３號","E_COORD97":178268.37,"N_COORD97":2566278.0899999999,"ADDRESS":"中山路二段１８３號","OBJECTID":531408},"geometry":{"x":178268.36999999918,"y":2566278.0900000036}},{"attributes":{"ID":531436,"DIS_CODE":0,"TOWNNAME":"官田區","LI":"隆本里","LIN":"30鄰","STREET":"中山路","SECT":"二段","MAREA":" ","LANE":" ","ALLEY":" ","HOUSE_NO":"１８６號","E_COORD97":178798.10999999999,"N_COORD97":2566091.77,"ADDRESS":"中山路二段１８６號","OBJECTID":531409},"geometry":{"x":178798.11000000127,"y":2566091.7699999996}},{"attributes":{"ID":531437,"DIS_CODE":0,"TOWNNAME":"官田區","LI":"隆本里","LIN":"30鄰","STREET":"中山路","SECT":"二段","MAREA":" ","LANE":" ","ALLEY":" ","HOUSE_NO":"１８８號","E_COORD97":178793.42999999999,"N_COORD97":2566093.96,"ADDRESS":"中山路二段１８８號","OBJECTID":531410},"geometry":{"x":178793.43000000063,"y":2566093.9600000028}},{"attributes":{"ID":531438,"DIS_CODE":0,"TOWNNAME":"官田區","LI":"隆田里","LIN":"30鄰","STREET":"中山路","SECT":"二段","MAREA":" ","LANE":" ","ALLEY":" ","HOUSE_NO":"１８９號","E_COORD97":178177.76000000001,"N_COORD97":2566320.3199999998,"ADDRESS":"中山路二段１８９號","OBJECTID":531411},"geometry":{"x":178177.76000000071,"y":2566320.3200000003}},{"attributes":{"ID":531439,"DIS_CODE":0,"TOWNNAME":"官田區","LI":"隆本里","LIN":"30鄰","STREET":"中山路","SECT":"二段","MAREA":" ","LANE":" ","ALLEY":" ","HOUSE_NO":"１９０號","E_COORD97":178786.70000000001,"N_COORD97":2566093.79,"ADDRESS":"中山路二段１９０號","OBJECTID":531412},"geometry":{"x":178786.70000000205,"y":2566093.790000001}},{"attributes":{"ID":531440,"DIS_CODE":0,"TOWNNAME":"官田區","LI":"隆田里","LIN":"30鄰","STREET":"中山路","SECT":"二段","MAREA":" ","LANE":" ","ALLEY":" ","HOUSE_NO":"１９１號之１","E_COORD97":178138.88,"N_COORD97":2566325.02,"ADDRESS":"中山路二段１９１號之１","OBJECTID":531413},"geometry":{"x":178138.87999999989,"y":2566325.0199999996}},{"attributes":{"ID":531441,"DIS_CODE":0,"TOWNNAME":"官田區","LI":"隆田里","LIN":"30鄰","STREET":"中山路","SECT":"二段","MAREA":" ","LANE":" ","ALLEY":" ","HOUSE_NO":"１９１號","E_COORD97":178167.57000000001,"N_COORD97":2566320.3999999999,"ADDRESS":"中山路二段１９１號","OBJECTID":531414},"geometry":{"x":178167.57000000123,"y":2566320.4000000041}},{"attributes":{"ID":531442,"DIS_CODE":0,"TOWNNAME":"官田區","LI":"隆本里","LIN":"30鄰","STREET":"中山路","SECT":"二段","MAREA":" ","LANE":" ","ALLEY":" ","HOUSE_NO":"１９２號","E_COORD97":178781.73999999999,"N_COORD97":2566095.5,"ADDRESS":"中山路二段１９２號","OBJECTID":531415},"geometry":{"x":178781.74000000115,"y":2566095.5000000037}},{"attributes":{"ID":531443,"DIS_CODE":0,"TOWNNAME":"官田區","LI":"隆田里","LIN":"30鄰","STREET":"中山路","SECT":"二段","MAREA":" ","LANE":" ","ALLEY":" ","HOUSE_NO":"１９３號","E_COORD97":178121.38,"N_COORD97":2566345.77,"ADDRESS":"中山路二段１９３號","OBJECTID":531416},"geometry":{"x":178121.38000000082,"y":2566345.7700000014}},{"attributes":{"ID":531444,"DIS_CODE":0,"TOWNNAME":"官田區","LI":"隆本里","LIN":"30鄰","STREET":"中山路","SECT":"二段","MAREA":" ","LANE":" ","ALLEY":" ","HOUSE_NO":"１９６號","E_COORD97":178773.07999999999,"N_COORD97":2566097.46,"ADDRESS":"中山路二段１９６號","OBJECTID":531417},"geometry":{"x":178773.08000000007,"y":2566097.4600000028}},{"attributes":{"ID":531445,"DIS_CODE":0,"TOWNNAME":"官田區","LI":"隆田里","LIN":"30鄰","STREET":"中山路","SECT":"二段","MAREA":" ","LANE":" ","ALLEY":" ","HOUSE_NO":"２０１號","E_COORD97":178197.56,"N_COORD97":2566196.8599999999,"ADDRESS":"中山路二段２０１號","OBJECTID":531418},"geometry":{"x":178197.56000000052,"y":2566196.8599999994}},{"attributes":{"ID":531446,"DIS_CODE":0,"TOWNNAME":"官田區","LI":"隆田里","LIN":"30鄰","STREET":"中山路","SECT":"二段","MAREA":" ","LANE":" ","ALLEY":" ","HOUSE_NO":"２０７號","E_COORD97":178068.07999999999,"N_COORD97":2566366.0299999998,"ADDRESS":"中山路二段２０７號","OBJECTID":531419},"geometry":{"x":178068.08000000007,"y":2566366.0300000031}},{"attributes":{"ID":531447,"DIS_CODE":0,"TOWNNAME":"官田區","LI":"隆本里","LIN":"30鄰","STREET":"中山路","SECT":"二段","MAREA":" ","LANE":" ","ALLEY":" ","HOUSE_NO":"２５０號","E_COORD97":178590.47,"N_COORD97":2566178.2599999998,"ADDRESS":"中山路二段２５０號","OBJECTID":531420},"geometry":{"x":178590.46999999974,"y":2566178.2600000035}},{"attributes":{"ID":531448,"DIS_CODE":0,"TOWNNAME":"官田區","LI":"隆本里","LIN":"30鄰","STREET":"中山路","SECT":"二段","MAREA":" ","LANE":" ","ALLEY":" ","HOUSE_NO":"３００號","E_COORD97":178414.17999999999,"N_COORD97":2566261.2400000002,"ADDRESS":"中山路二段３００號","OBJECTID":531421},"geometry":{"x":178414.18000000063,"y":2566261.2400000021}},{"attributes":{"ID":531449,"DIS_CODE":0,"TOWNNAME":"官田區","LI":"隆本里","LIN":"30鄰","STREET":"中山路","SECT":"二段","MAREA":" ","LANE":" ","ALLEY":" ","HOUSE_NO":"３４６號","E_COORD97":178282.64000000001,"N_COORD97":2566322.4500000002,"ADDRESS":"中山路二段３４６號","OBJECTID":531422},"geometry":{"x":178282.63999999966,"y":2566322.450000003}},{"attributes":{"ID":531450,"DIS_CODE":0,"TOWNNAME":"官田區","LI":"隆本里","LIN":"30鄰","STREET":"中山路","SECT":"二段","MAREA":" ","LANE":" ","ALLEY":" ","HOUSE_NO":"３４８號","E_COORD97":178261,"N_COORD97":2566341.1299999999,"ADDRESS":"中山路二段３４８號","OBJECTID":531423},"geometry":{"x":178261.00000000093,"y":2566341.1300000027}},{"attributes":{"ID":531451,"DIS_CODE":0,"TOWNNAME":"官田區","LI":"隆本里","LIN":"30鄰","STREET":"中山路","SECT":"二段","MAREA":" ","LANE":" ","ALLEY":" ","HOUSE_NO":"３７０號","E_COORD97":178156.20999999999,"N_COORD97":2566418.2000000002,"ADDRESS":"中山路二段３７０號","OBJECTID":531424},"geometry":{"x":178156.21000000089,"y":2566418.1999999993}},{"attributes":{"ID":531452,"DIS_CODE":0,"TOWNNAME":"中西區","LI":"西湖里","LIN":"30鄰","STREET":"和緯路","SECT":"五段","MAREA":" ","LANE":" ","ALLEY":" ","HOUSE_NO":"２４３號","E_COORD97":166111.39999999999,"N_COORD97":2545055.4500000002,"ADDRESS":"和緯路五段２４３號","OBJECTID":531425},"geometry":{"x":166111.4000000013,"y":2545055.4500000011}},{"attributes":{"ID":531453,"DIS_CODE":0,"TOWNNAME":"中西區","LI":"西湖里","LIN":"30鄰","STREET":"和緯路","SECT":"五段","MAREA":" ","LANE":" ","ALLEY":" ","HOUSE_NO":"２４５號","E_COORD97":166107.26999999999,"N_COORD97":2545056.2400000002,"ADDRESS":"和緯路五段２４５號","OBJECTID":531426},"geometry":{"x":166107.27000000142,"y":2545056.2400000002}},{"attributes":{"ID":531454,"DIS_CODE":0,"TOWNNAME":"中西區","LI":"西湖里","LIN":"30鄰","STREET":"和緯路","SECT":"五段","MAREA":" ","LANE":" ","ALLEY":" ","HOUSE_NO":"２４７號","E_COORD97":166103.78,"N_COORD97":2545056.8799999999,"ADDRESS":"和緯路五段２４７號","OBJECTID":531427},"geometry":{"x":166103.78000000026,"y":2545056.879999999}},{"attributes":{"ID":531455,"DIS_CODE":0,"TOWNNAME":"中西區","LI":"西湖里","LIN":"30鄰","STREET":"和緯路","SECT":"五段","MAREA":" ","LANE":" ","ALLEY":" ","HOUSE_NO":"２４９號","E_COORD97":166100.28,"N_COORD97":2545057.2000000002,"ADDRESS":"和緯路五段２４９號","OBJECTID":531428},"geometry":{"x":166100.28000000119,"y":2545057.2000000011}},{"attributes":{"ID":531456,"DIS_CODE":0,"TOWNNAME":"中西區","LI":"西湖里","LIN":"30鄰","STREET":"和緯路","SECT":"五段","MAREA":" ","LANE":" ","ALLEY":" ","HOUSE_NO":"２５１號","E_COORD97":166096.47,"N_COORD97":2545057.04,"ADDRESS":"和緯路五段２５１號","OBJECTID":531429},"geometry":{"x":166096.47000000067,"y":2545057.0400000028}},{"attributes":{"ID":531457,"DIS_CODE":0,"TOWNNAME":"中西區","LI":"西湖里","LIN":"30鄰","STREET":"和緯路","SECT":"五段","MAREA":" ","LANE":" ","ALLEY":" ","HOUSE_NO":"２５３號","E_COORD97":166092.66,"N_COORD97":2545057.6699999999,"ADDRESS":"和緯路五段２５３號","OBJECTID":531430},"geometry":{"x":166092.66000000015,"y":2545057.6700000018}},{"attributes":{"ID":531458,"DIS_CODE":0,"TOWNNAME":"永康區","LI":"甲頂里","LIN":"30鄰","STREET":"中正南路","SECT":" ","MAREA":" ","LANE":" ","ALLEY":" ","HOUSE_NO":"１０９號","E_COORD97":169678.67999999999,"N_COORD97":2546979.6099999999,"ADDRESS":"中正南路１０９號","OBJECTID":531431},"geometry":{"x":169678.68000000063,"y":2546979.6100000013}},{"attributes":{"ID":531459,"DIS_CODE":0,"TOWNNAME":"永康區","LI":"甲頂里","LIN":"30鄰","STREET":"中正南路","SECT":" ","MAREA":" ","LANE":" ","ALLEY":" ","HOUSE_NO":"１２３號","E_COORD97":169704.95000000001,"N_COORD97":2546998.9900000002,"ADDRESS":"中正南路１２３號","OBJECTID":531432},"geometry":{"x":169704.95000000019,"y":2546998.9900000021}},{"attributes":{"ID":531460,"DIS_CODE":0,"TOWNNAME":"永康區","LI":"永康里","LIN":"30鄰","STREET":"永華路","SECT":" ","MAREA":" ","LANE":" ","ALLEY":" ","HOUSE_NO":"７３８號","E_COORD97":174121.01999999999,"N_COORD97":2547133.5299999998,"ADDRESS":"永華路７３８號","OBJECTID":531433},"geometry":{"x":174121.02000000048,"y":2547133.5300000012}},{"attributes":{"ID":531461,"DIS_CODE":0,"TOWNNAME":"永康區","LI":"永康里","LIN":"30鄰","STREET":"永明街","SECT":" ","MAREA":" ","LANE":" ","ALLEY":" ","HOUSE_NO":"１３２之１號","E_COORD97":174206.01000000001,"N_COORD97":2547207.3399999999,"ADDRESS":"永明街１３２之１號","OBJECTID":531434},"geometry":{"x":174206.01000000071,"y":2547207.3399999999}},{"attributes":{"ID":531462,"DIS_CODE":0,"TOWNNAME":"永康區","LI":"永康里","LIN":"30鄰","STREET":"永大路","SECT":"二段","MAREA":" ","LANE":" ","ALLEY":" ","HOUSE_NO":"９１３號","E_COORD97":174243.73999999999,"N_COORD97":2547064.3900000001,"ADDRESS":"永大路二段９１３號","OBJECTID":531435},"geometry":{"x":174243.74000000115,"y":2547064.3900000025}},{"attributes":{"ID":531463,"DIS_CODE":0,"TOWNNAME":"新營區","LI":"民生里","LIN":"30鄰","STREET":"民治路","SECT":" ","MAREA":" ","LANE":" ","ALLEY":" ","HOUSE_NO":"２８３號十四樓","E_COORD97":178757.62,"N_COORD97":2578271.9100000001,"ADDRESS":"民治路２８３號十四樓","OBJECTID":531436},"geometry":{"x":178757.62000000011,"y":2578271.910000002}},{"attributes":{"ID":531464,"DIS_CODE":0,"TOWNNAME":"新營區","LI":"民生里","LIN":"30鄰","STREET":"民治路","SECT":" ","MAREA":" ","LANE":" ","ALLEY":" ","HOUSE_NO":"２８５號十一樓","E_COORD97":178757.62,"N_COORD97":2578271.9100000001,"ADDRESS":"民治路２８５號十一樓","OBJECTID":531437},"geometry":{"x":178757.62000000011,"y":2578271.910000002}},{"attributes":{"ID":531465,"DIS_CODE":0,"TOWNNAME":"新營區","LI":"民生里","LIN":"30鄰","STREET":"民治路","SECT":" ","MAREA":" ","LANE":" ","ALLEY":" ","HOUSE_NO":"２８３號四樓","E_COORD97":178756.37,"N_COORD97":2578271.9100000001,"ADDRESS":"民治路２８３號四樓","OBJECTID":531438},"geometry":{"x":178756.37000000011,"y":2578271.910000002}},{"attributes":{"ID":531466,"DIS_CODE":0,"TOWNNAME":"新化區","LI":"東榮里","LIN":"30鄰","STREET":"信義路","SECT":" ","MAREA":" ","LANE":" ","ALLEY":" ","HOUSE_NO":"１６９號七樓之１","E_COORD97":179254.85999999999,"N_COORD97":2548354.2599999998,"ADDRESS":"信義路１６９號七樓之１","OBJECTID":531439},"geometry":{"x":179254.86000000034,"y":2548354.2599999998}},{"attributes":{"ID":531467,"DIS_CODE":0,"TOWNNAME":"新化區","LI":"東榮里","LIN":"30鄰","STREET":"信義路","SECT":" ","MAREA":" ","LANE":" ","ALLEY":" ","HOUSE_NO":"１６９號八樓之３","E_COORD97":179254.88,"N_COORD97":2548354.2599999998,"ADDRESS":"信義路１６９號八樓之３","OBJECTID":531440},"geometry":{"x":179254.88000000175,"y":2548354.2599999998}},{"attributes":{"ID":531468,"DIS_CODE":0,"TOWNNAME":"新化區","LI":"東榮里","LIN":"30鄰","STREET":"信義路","SECT":" ","MAREA":" ","LANE":" ","ALLEY":" ","HOUSE_NO":"１６９號六樓之１４","E_COORD97":179255.10999999999,"N_COORD97":2548354.2599999998,"ADDRESS":"信義路１６９號六樓之１４","OBJECTID":531441},"geometry":{"x":179255.11000000034,"y":2548354.2599999998}},{"attributes":{"ID":531469,"DIS_CODE":0,"TOWNNAME":"新化區","LI":"東榮里","LIN":"30鄰","STREET":"信義路","SECT":" ","MAREA":" ","LANE":" ","ALLEY":" ","HOUSE_NO":"１６９號五樓之１５","E_COORD97":179255.14000000001,"N_COORD97":2548354.2599999998,"ADDRESS":"信義路１６９號五樓之１５","OBJECTID":531442},"geometry":{"x":179255.1400000006,"y":2548354.2599999998}},{"attributes":{"ID":531470,"DIS_CODE":0,"TOWNNAME":"新化區","LI":"東榮里","LIN":"30鄰","STREET":"信義路","SECT":" ","MAREA":" ","LANE":" ","ALLEY":" ","HOUSE_NO":"１６９號五樓之５","E_COORD97":179254.89000000001,"N_COORD97":2548354.2599999998,"ADDRESS":"信義路１６９號五樓之５","OBJECTID":531443},"geometry":{"x":179254.8900000006,"y":2548354.2599999998}},{"attributes":{"ID":531471,"DIS_CODE":0,"TOWNNAME":"新化區","LI":"東榮里","LIN":"30鄰","STREET":"信義路","SECT":" ","MAREA":" ","LANE":" ","ALLEY":" ","HOUSE_NO":"１６９號六樓之５","E_COORD97":179254.89000000001,"N_COORD97":2548354.2599999998,"ADDRESS":"信義路１６９號六樓之５","OBJECTID":531444},"geometry":{"x":179254.8900000006,"y":2548354.2599999998}},{"attributes":{"ID":531472,"DIS_CODE":0,"TOWNNAME":"新化區","LI":"東榮里","LIN":"30鄰","STREET":"信義路","SECT":" ","MAREA":" ","LANE":" ","ALLEY":" ","HOUSE_NO":"１６９號七樓之８","E_COORD97":179254.89000000001,"N_COORD97":2548354.2599999998,"ADDRESS":"信義路１６９號七樓之８","OBJECTID":531445},"geometry":{"x":179254.8900000006,"y":2548354.2599999998}},{"attributes":{"ID":531473,"DIS_CODE":0,"TOWNNAME":"新化區","LI":"東榮里","LIN":"30鄰","STREET":"信義路","SECT":" ","MAREA":" ","LANE":" ","ALLEY":" ","HOUSE_NO":"１６９號七樓之１５","E_COORD97":179255.14000000001,"N_COORD97":2548354.2599999998,"ADDRESS":"信義路１６９號七樓之１５","OBJECTID":531446},"geometry":{"x":179255.1400000006,"y":2548354.2599999998}},{"attributes":{"ID":531474,"DIS_CODE":0,"TOWNNAME":"新化區","LI":"東榮里","LIN":"30鄰","STREET":"信義路","SECT":" ","MAREA":" ","LANE":" ","ALLEY":" ","HOUSE_NO":"１６９號七樓之５","E_COORD97":179254.89000000001,"N_COORD97":2548354.2599999998,"ADDRESS":"信義路１６９號七樓之５","OBJECTID":531447},"geometry":{"x":179254.8900000006,"y":2548354.2599999998}},{"attributes":{"ID":531475,"DIS_CODE":0,"TOWNNAME":"新化區","LI":"東榮里","LIN":"30鄰","STREET":"信義路","SECT":" ","MAREA":" ","LANE":" ","ALLEY":" ","HOUSE_NO":"１６９號六樓之１","E_COORD97":179254.85999999999,"N_COORD97":2548354.2599999998,"ADDRESS":"信義路１６９號六樓之１","OBJECTID":531448},"geometry":{"x":179254.86000000034,"y":2548354.2599999998}},{"attributes":{"ID":531476,"DIS_CODE":0,"TOWNNAME":"新化區","LI":"東榮里","LIN":"30鄰","STREET":"信義路","SECT":" ","MAREA":" ","LANE":" ","ALLEY":" ","HOUSE_NO":"１６９號六樓之３","E_COORD97":179254.88,"N_COORD97":2548354.2599999998,"ADDRESS":"信義路１６９號六樓之３","OBJECTID":531449},"geometry":{"x":179254.88000000175,"y":2548354.2599999998}},{"attributes":{"ID":531477,"DIS_CODE":0,"TOWNNAME":"新化區","LI":"東榮里","LIN":"30鄰","STREET":"信義路","SECT":" ","MAREA":" ","LANE":" ","ALLEY":" ","HOUSE_NO":"１６９號八樓之９","E_COORD97":179254.87,"N_COORD97":2548354.2599999998,"ADDRESS":"信義路１６９號八樓之９","OBJECTID":531450},"geometry":{"x":179254.87000000011,"y":2548354.2599999998}},{"attributes":{"ID":531478,"DIS_CODE":0,"TOWNNAME":"新化區","LI":"東榮里","LIN":"30鄰","STREET":"信義路","SECT":" ","MAREA":" ","LANE":" ","ALLEY":" ","HOUSE_NO":"１６９號六樓之１１","E_COORD97":179255.10999999999,"N_COORD97":2548354.2599999998,"ADDRESS":"信義路１６９號六樓之１１","OBJECTID":531451},"geometry":{"x":179255.11000000034,"y":2548354.2599999998}},{"attributes":{"ID":531479,"DIS_CODE":0,"TOWNNAME":"新化區","LI":"東榮里","LIN":"30鄰","STREET":"信義路","SECT":" ","MAREA":" ","LANE":" ","ALLEY":" ","HOUSE_NO":"１６９號五樓之１１","E_COORD97":179255.10999999999,"N_COORD97":2548354.2599999998,"ADDRESS":"信義路１６９號五樓之１１","OBJECTID":531452},"geometry":{"x":179255.11000000034,"y":2548354.2599999998}},{"attributes":{"ID":531480,"DIS_CODE":0,"TOWNNAME":"新化區","LI":"東榮里","LIN":"30鄰","STREET":"信義路","SECT":" ","MAREA":" ","LANE":" ","ALLEY":" ","HOUSE_NO":"１６９號五樓之３","E_COORD97":179254.88,"N_COORD97":2548354.2599999998,"ADDRESS":"信義路１６９號五樓之３","OBJECTID":531453},"geometry":{"x":179254.88000000175,"y":2548354.2599999998}},{"attributes":{"ID":531481,"DIS_CODE":0,"TOWNNAME":"新化區","LI":"東榮里","LIN":"30鄰","STREET":"信義路","SECT":" ","MAREA":" ","LANE":" ","ALLEY":" ","HOUSE_NO":"１６９號四樓之３","E_COORD97":179254.88,"N_COORD97":2548354.2599999998,"ADDRESS":"信義路１６９號四樓之３","OBJECTID":531454},"geometry":{"x":179254.88000000175,"y":2548354.2599999998}},{"attributes":{"ID":531482,"DIS_CODE":0,"TOWNNAME":"新化區","LI":"東榮里","LIN":"30鄰","STREET":"信義路","SECT":" ","MAREA":" ","LANE":" ","ALLEY":" ","HOUSE_NO":"１６９號六樓之９","E_COORD97":179254.87,"N_COORD97":2548354.2599999998,"ADDRESS":"信義路１６９號六樓之９","OBJECTID":531455},"geometry":{"x":179254.87000000011,"y":2548354.2599999998}},{"attributes":{"ID":531483,"DIS_CODE":0,"TOWNNAME":"新化區","LI":"東榮里","LIN":"30鄰","STREET":"信義路","SECT":" ","MAREA":" ","LANE":" ","ALLEY":" ","HOUSE_NO":"１６９號八樓之１７","E_COORD97":179255.12,"N_COORD97":2548354.2599999998,"ADDRESS":"信義路１６９號八樓之１７","OBJECTID":531456},"geometry":{"x":179255.12000000197,"y":2548354.2599999998}},{"attributes":{"ID":531484,"DIS_CODE":0,"TOWNNAME":"新化區","LI":"東榮里","LIN":"30鄰","STREET":"信義路","SECT":" ","MAREA":" ","LANE":" ","ALLEY":" ","HOUSE_NO":"１６９號八樓之１０","E_COORD97":179255.12,"N_COORD97":2548354.2599999998,"ADDRESS":"信義路１６９號八樓之１０","OBJECTID":531457},"geometry":{"x":179255.12000000197,"y":2548354.2599999998}},{"attributes":{"ID":531485,"DIS_CODE":0,"TOWNNAME":"新化區","LI":"東榮里","LIN":"30鄰","STREET":"信義路","SECT":" ","MAREA":" ","LANE":" ","ALLEY":" ","HOUSE_NO":"１６９號七樓之３","E_COORD97":179254.88,"N_COORD97":2548354.2599999998,"ADDRESS":"信義路１６９號七樓之３","OBJECTID":531458},"geometry":{"x":179254.88000000175,"y":2548354.2599999998}},{"attributes":{"ID":531486,"DIS_CODE":0,"TOWNNAME":"新化區","LI":"東榮里","LIN":"30鄰","STREET":"信義路","SECT":" ","MAREA":" ","LANE":" ","ALLEY":" ","HOUSE_NO":"１６９號七樓之１１","E_COORD97":179255.10999999999,"N_COORD97":2548354.2599999998,"ADDRESS":"信義路１６９號七樓之１１","OBJECTID":531459},"geometry":{"x":179255.11000000034,"y":2548354.2599999998}},{"attributes":{"ID":531487,"DIS_CODE":0,"TOWNNAME":"新化區","LI":"東榮里","LIN":"30鄰","STREET":"信義路","SECT":" ","MAREA":" ","LANE":" ","ALLEY":" ","HOUSE_NO":"１６９號九樓之５","E_COORD97":179254.89000000001,"N_COORD97":2548354.2599999998,"ADDRESS":"信義路１６９號九樓之５","OBJECTID":531460},"geometry":{"x":179254.8900000006,"y":2548354.2599999998}},{"attributes":{"ID":531488,"DIS_CODE":0,"TOWNNAME":"新化區","LI":"東榮里","LIN":"30鄰","STREET":"信義路","SECT":" ","MAREA":" ","LANE":" ","ALLEY":" ","HOUSE_NO":"１６９號六樓之８","E_COORD97":179254.89000000001,"N_COORD97":2548354.2599999998,"ADDRESS":"信義路１６９號六樓之８","OBJECTID":531461},"geometry":{"x":179254.8900000006,"y":2548354.2599999998}},{"attributes":{"ID":531489,"DIS_CODE":0,"TOWNNAME":"新化區","LI":"東榮里","LIN":"30鄰","STREET":"信義路","SECT":" ","MAREA":" ","LANE":" ","ALLEY":" ","HOUSE_NO":"１６９號七樓之１３","E_COORD97":179255.13,"N_COORD97":2548354.2599999998,"ADDRESS":"信義路１６９號七樓之１３","OBJECTID":531462},"geometry":{"x":179255.13000000082,"y":2548354.2599999998}},{"attributes":{"ID":531490,"DIS_CODE":0,"TOWNNAME":"新化區","LI":"東榮里","LIN":"30鄰","STREET":"信義路","SECT":" ","MAREA":" ","LANE":" ","ALLEY":" ","HOUSE_NO":"１６９號七樓之１４","E_COORD97":179255.10999999999,"N_COORD97":2548354.2599999998,"ADDRESS":"信義路１６９號七樓之１４","OBJECTID":531463},"geometry":{"x":179255.11000000034,"y":2548354.2599999998}},{"attributes":{"ID":531491,"DIS_CODE":0,"TOWNNAME":"新化區","LI":"東榮里","LIN":"30鄰","STREET":"信義路","SECT":" ","MAREA":" ","LANE":" ","ALLEY":" ","HOUSE_NO":"１６９號七樓之６","E_COORD97":179254.88,"N_COORD97":2548354.2599999998,"ADDRESS":"信義路１６９號七樓之６","OBJECTID":531464},"geometry":{"x":179254.88000000175,"y":2548354.2599999998}},{"attributes":{"ID":531492,"DIS_CODE":0,"TOWNNAME":"新化區","LI":"東榮里","LIN":"30鄰","STREET":"信義路","SECT":" ","MAREA":" ","LANE":" ","ALLEY":" ","HOUSE_NO":"１６９號七樓之７","E_COORD97":179254.87,"N_COORD97":2548354.2599999998,"ADDRESS":"信義路１６９號七樓之７","OBJECTID":531465},"geometry":{"x":179254.87000000011,"y":2548354.2599999998}},{"attributes":{"ID":531493,"DIS_CODE":0,"TOWNNAME":"新化區","LI":"東榮里","LIN":"30鄰","STREET":"信義路","SECT":" ","MAREA":" ","LANE":" ","ALLEY":" ","HOUSE_NO":"１６９號七樓之１６","E_COORD97":179255.13,"N_COORD97":2548354.2599999998,"ADDRESS":"信義路１６９號七樓之１６","OBJECTID":531466},"geometry":{"x":179255.13000000082,"y":2548354.2599999998}},{"attributes":{"ID":531494,"DIS_CODE":0,"TOWNNAME":"新化區","LI":"東榮里","LIN":"30鄰","STREET":"信義路","SECT":" ","MAREA":" ","LANE":" ","ALLEY":" ","HOUSE_NO":"１６９號七樓之１７","E_COORD97":179255.12,"N_COORD97":2548354.2599999998,"ADDRESS":"信義路１６９號七樓之１７","OBJECTID":531467},"geometry":{"x":179255.12000000197,"y":2548354.2599999998}},{"attributes":{"ID":531495,"DIS_CODE":0,"TOWNNAME":"新化區","LI":"東榮里","LIN":"30鄰","STREET":"信義路","SECT":" ","MAREA":" ","LANE":" ","ALLEY":" ","HOUSE_NO":"１６９號七樓之２","E_COORD97":179254.88,"N_COORD97":2548354.2599999998,"ADDRESS":"信義路１６９號七樓之２","OBJECTID":531468},"geometry":{"x":179254.88000000175,"y":2548354.2599999998}},{"attributes":{"ID":531496,"DIS_CODE":0,"TOWNNAME":"新化區","LI":"東榮里","LIN":"30鄰","STREET":"信義路","SECT":" ","MAREA":" ","LANE":" ","ALLEY":" ","HOUSE_NO":"１６９號六樓之１３","E_COORD97":179255.13,"N_COORD97":2548354.2599999998,"ADDRESS":"信義路１６９號六樓之１３","OBJECTID":531469},"geometry":{"x":179255.13000000082,"y":2548354.2599999998}},{"attributes":{"ID":531497,"DIS_CODE":0,"TOWNNAME":"新化區","LI":"東榮里","LIN":"30鄰","STREET":"信義路","SECT":" ","MAREA":" ","LANE":" ","ALLEY":" ","HOUSE_NO":"１６９號五樓之１６","E_COORD97":179255.13,"N_COORD97":2548354.2599999998,"ADDRESS":"信義路１６９號五樓之１６","OBJECTID":531470},"geometry":{"x":179255.13000000082,"y":2548354.2599999998}},{"attributes":{"ID":531498,"DIS_CODE":0,"TOWNNAME":"新化區","LI":"東榮里","LIN":"30鄰","STREET":"信義路","SECT":" ","MAREA":" ","LANE":" ","ALLEY":" ","HOUSE_NO":"１６９號八樓之７","E_COORD97":179254.87,"N_COORD97":2548354.2599999998,"ADDRESS":"信義路１６９號八樓之７","OBJECTID":531471},"geometry":{"x":179254.87000000011,"y":2548354.2599999998}},{"attributes":{"ID":531499,"DIS_CODE":0,"TOWNNAME":"新化區","LI":"東榮里","LIN":"30鄰","STREET":"信義路","SECT":" ","MAREA":" ","LANE":" ","ALLEY":" ","HOUSE_NO":"１６９號四樓之５","E_COORD97":179254.89000000001,"N_COORD97":2548354.2599999998,"ADDRESS":"信義路１６９號四樓之５","OBJECTID":531472},"geometry":{"x":179254.8900000006,"y":2548354.2599999998}},{"attributes":{"ID":531500,"DIS_CODE":0,"TOWNNAME":"新化區","LI":"東榮里","LIN":"30鄰","STREET":"信義路","SECT":" ","MAREA":" ","LANE":" ","ALLEY":" ","HOUSE_NO":"１６９號五樓之２","E_COORD97":179254.88,"N_COORD97":2548354.2599999998,"ADDRESS":"信義路１６９號五樓之２","OBJECTID":531473},"geometry":{"x":179254.88000000175,"y":2548354.2599999998}},{"attributes":{"ID":531501,"DIS_CODE":0,"TOWNNAME":"新化區","LI":"東榮里","LIN":"30鄰","STREET":"信義路","SECT":" ","MAREA":" ","LANE":" ","ALLEY":" ","HOUSE_NO":"１６９號九樓之２","E_COORD97":179254.88,"N_COORD97":2548354.2599999998,"ADDRESS":"信義路１６９號九樓之２","OBJECTID":531474},"geometry":{"x":179254.88000000175,"y":2548354.2599999998}},{"attributes":{"ID":531502,"DIS_CODE":0,"TOWNNAME":"新化區","LI":"東榮里","LIN":"30鄰","STREET":"信義路","SECT":" ","MAREA":" ","LANE":" ","ALLEY":" ","HOUSE_NO":"１６９號四樓之６","E_COORD97":179254.88,"N_COORD97":2548354.2599999998,"ADDRESS":"信義路１６９號四樓之６","OBJECTID":531475},"geometry":{"x":179254.88000000175,"y":2548354.2599999998}},{"attributes":{"ID":531503,"DIS_CODE":0,"TOWNNAME":"新化區","LI":"東榮里","LIN":"30鄰","STREET":"信義路","SECT":" ","MAREA":" ","LANE":" ","ALLEY":" ","HOUSE_NO":"１６９號九樓之１１","E_COORD97":179255.10999999999,"N_COORD97":2548354.2599999998,"ADDRESS":"信義路１６９號九樓之１１","OBJECTID":531476},"geometry":{"x":179255.11000000034,"y":2548354.2599999998}},{"attributes":{"ID":531504,"DIS_CODE":0,"TOWNNAME":"新化區","LI":"東榮里","LIN":"30鄰","STREET":"信義路","SECT":" ","MAREA":" ","LANE":" ","ALLEY":" ","HOUSE_NO":"１６９號六樓之６","E_COORD97":179254.88,"N_COORD97":2548354.2599999998,"ADDRESS":"信義路１６９號六樓之６","OBJECTID":531477},"geometry":{"x":179254.88000000175,"y":2548354.2599999998}},{"attributes":{"ID":531505,"DIS_CODE":0,"TOWNNAME":"新化區","LI":"東榮里","LIN":"30鄰","STREET":"信義路","SECT":" ","MAREA":" ","LANE":" ","ALLEY":" ","HOUSE_NO":"１６９號四樓之７","E_COORD97":179254.87,"N_COORD97":2548354.2599999998,"ADDRESS":"信義路１６９號四樓之７","OBJECTID":531478},"geometry":{"x":179254.87000000011,"y":2548354.2599999998}},{"attributes":{"ID":531506,"DIS_CODE":0,"TOWNNAME":"新化區","LI":"東榮里","LIN":"30鄰","STREET":"信義路","SECT":" ","MAREA":" ","LANE":" ","ALLEY":" ","HOUSE_NO":"１６９號五樓之１４","E_COORD97":179255.10999999999,"N_COORD97":2548354.2599999998,"ADDRESS":"信義路１６９號五樓之１４","OBJECTID":531479},"geometry":{"x":179255.11000000034,"y":2548354.2599999998}},{"attributes":{"ID":531507,"DIS_CODE":0,"TOWNNAME":"新化區","LI":"東榮里","LIN":"30鄰","STREET":"信義路","SECT":" ","MAREA":" ","LANE":" ","ALLEY":" ","HOUSE_NO":"１６９號五樓之９","E_COORD97":179254.87,"N_COORD97":2548354.2599999998,"ADDRESS":"信義路１６９號五樓之９","OBJECTID":531480},"geometry":{"x":179254.87000000011,"y":2548354.2599999998}},{"attributes":{"ID":531508,"DIS_CODE":0,"TOWNNAME":"新化區","LI":"東榮里","LIN":"30鄰","STREET":"信義路","SECT":" ","MAREA":" ","LANE":" ","ALLEY":" ","HOUSE_NO":"１６９號三樓之１","E_COORD97":179254.85999999999,"N_COORD97":2548354.2599999998,"ADDRESS":"信義路１６９號三樓之１","OBJECTID":531481},"geometry":{"x":179254.86000000034,"y":2548354.2599999998}},{"attributes":{"ID":531509,"DIS_CODE":0,"TOWNNAME":"新化區","LI":"東榮里","LIN":"30鄰","STREET":"信義路","SECT":" ","MAREA":" ","LANE":" ","ALLEY":" ","HOUSE_NO":"１６９號八樓之１３","E_COORD97":179255.13,"N_COORD97":2548354.2599999998,"ADDRESS":"信義路１６９號八樓之１３","OBJECTID":531482},"geometry":{"x":179255.13000000082,"y":2548354.2599999998}},{"attributes":{"ID":531510,"DIS_CODE":0,"TOWNNAME":"新化區","LI":"東榮里","LIN":"30鄰","STREET":"信義路","SECT":" ","MAREA":" ","LANE":" ","ALLEY":" ","HOUSE_NO":"１６９號六樓之２","E_COORD97":179254.88,"N_COORD97":2548354.2599999998,"ADDRESS":"信義路１６９號六樓之２","OBJECTID":531483},"geometry":{"x":179254.88000000175,"y":2548354.2599999998}},{"attributes":{"ID":531511,"DIS_CODE":0,"TOWNNAME":"新化區","LI":"東榮里","LIN":"30鄰","STREET":"信義路","SECT":" ","MAREA":" ","LANE":" ","ALLEY":" ","HOUSE_NO":"１６９號八樓之１２","E_COORD97":179255.13,"N_COORD97":2548354.2599999998,"ADDRESS":"信義路１６９號八樓之１２","OBJECTID":531484},"geometry":{"x":179255.13000000082,"y":2548354.2599999998}},{"attributes":{"ID":531512,"DIS_CODE":0,"TOWNNAME":"新化區","LI":"東榮里","LIN":"30鄰","STREET":"信義路","SECT":" ","MAREA":" ","LANE":" ","ALLEY":" ","HOUSE_NO":"１６９號九樓之６","E_COORD97":179254.88,"N_COORD97":2548354.2599999998,"ADDRESS":"信義路１６９號九樓之６","OBJECTID":531485},"geometry":{"x":179254.88000000175,"y":2548354.2599999998}},{"attributes":{"ID":531513,"DIS_CODE":0,"TOWNNAME":"新化區","LI":"東榮里","LIN":"30鄰","STREET":"信義路","SECT":" ","MAREA":" ","LANE":" ","ALLEY":" ","HOUSE_NO":"１６９號五樓之１０","E_COORD97":179255.12,"N_COORD97":2548354.2599999998,"ADDRESS":"信義路１６９號五樓之１０","OBJECTID":531486},"geometry":{"x":179255.12000000197,"y":2548354.2599999998}},{"attributes":{"ID":531514,"DIS_CODE":0,"TOWNNAME":"新化區","LI":"東榮里","LIN":"30鄰","STREET":"信義路","SECT":" ","MAREA":" ","LANE":" ","ALLEY":" ","HOUSE_NO":"１６９號六樓之１２","E_COORD97":179255.13,"N_COORD97":2548354.2599999998,"ADDRESS":"信義路１６９號六樓之１２","OBJECTID":531487},"geometry":{"x":179255.13000000082,"y":2548354.2599999998}},{"attributes":{"ID":531515,"DIS_CODE":0,"TOWNNAME":"新化區","LI":"東榮里","LIN":"30鄰","STREET":"信義路","SECT":" ","MAREA":" ","LANE":" ","ALLEY":" ","HOUSE_NO":"１６９號八樓之６","E_COORD97":179254.88,"N_COORD97":2548354.2599999998,"ADDRESS":"信義路１６９號八樓之６","OBJECTID":531488},"geometry":{"x":179254.88000000175,"y":2548354.2599999998}},{"attributes":{"ID":531516,"DIS_CODE":0,"TOWNNAME":"新化區","LI":"東榮里","LIN":"30鄰","STREET":"信義路","SECT":" ","MAREA":" ","LANE":" ","ALLEY":" ","HOUSE_NO":"１６９號八樓之１４","E_COORD97":179255.10999999999,"N_COORD97":2548354.2599999998,"ADDRESS":"信義路１６９號八樓之１４","OBJECTID":531489},"geometry":{"x":179255.11000000034,"y":2548354.2599999998}},{"attributes":{"ID":531517,"DIS_CODE":0,"TOWNNAME":"新化區","LI":"東榮里","LIN":"30鄰","STREET":"信義路","SECT":" ","MAREA":" ","LANE":" ","ALLEY":" ","HOUSE_NO":"１６９號五樓之１２","E_COORD97":179255.13,"N_COORD97":2548354.2599999998,"ADDRESS":"信義路１６９號五樓之１２","OBJECTID":531490},"geometry":{"x":179255.13000000082,"y":2548354.2599999998}},{"attributes":{"ID":531518,"DIS_CODE":0,"TOWNNAME":"新化區","LI":"東榮里","LIN":"30鄰","STREET":"信義路","SECT":" ","MAREA":" ","LANE":" ","ALLEY":" ","HOUSE_NO":"１６９號八樓之５","E_COORD97":179254.89000000001,"N_COORD97":2548354.2599999998,"ADDRESS":"信義路１６９號八樓之５","OBJECTID":531491},"geometry":{"x":179254.8900000006,"y":2548354.2599999998}},{"attributes":{"ID":531519,"DIS_CODE":0,"TOWNNAME":"新化區","LI":"東榮里","LIN":"30鄰","STREET":"信義路","SECT":" ","MAREA":" ","LANE":" ","ALLEY":" ","HOUSE_NO":"１６９號九樓之３","E_COORD97":179254.88,"N_COORD97":2548354.2599999998,"ADDRESS":"信義路１６９號九樓之３","OBJECTID":531492},"geometry":{"x":179254.88000000175,"y":2548354.2599999998}},{"attributes":{"ID":531520,"DIS_CODE":0,"TOWNNAME":"新化區","LI":"東榮里","LIN":"30鄰","STREET":"信義路","SECT":" ","MAREA":" ","LANE":" ","ALLEY":" ","HOUSE_NO":"１６９號五樓之１","E_COORD97":179254.85999999999,"N_COORD97":2548354.2599999998,"ADDRESS":"信義路１６９號五樓之１","OBJECTID":531493},"geometry":{"x":179254.86000000034,"y":2548354.2599999998}},{"attributes":{"ID":531521,"DIS_CODE":0,"TOWNNAME":"新化區","LI":"東榮里","LIN":"30鄰","STREET":"信義路","SECT":" ","MAREA":" ","LANE":" ","ALLEY":" ","HOUSE_NO":"１６９號八樓之１６","E_COORD97":179255.13,"N_COORD97":2548354.2599999998,"ADDRESS":"信義路１６９號八樓之１６","OBJECTID":531494},"geometry":{"x":179255.13000000082,"y":2548354.2599999998}},{"attributes":{"ID":531522,"DIS_CODE":0,"TOWNNAME":"新化區","LI":"東榮里","LIN":"30鄰","STREET":"信義路","SECT":" ","MAREA":" ","LANE":" ","ALLEY":" ","HOUSE_NO":"１６９號六樓之１０","E_COORD97":179255.12,"N_COORD97":2548354.2599999998,"ADDRESS":"信義路１６９號六樓之１０","OBJECTID":531495},"geometry":{"x":179255.12000000197,"y":2548354.2599999998}},{"attributes":{"ID":531523,"DIS_CODE":0,"TOWNNAME":"新化區","LI":"東榮里","LIN":"30鄰","STREET":"信義路","SECT":" ","MAREA":" ","LANE":" ","ALLEY":" ","HOUSE_NO":"１６９號五樓之８","E_COORD97":179254.89000000001,"N_COORD97":2548354.2599999998,"ADDRESS":"信義路１６９號五樓之８","OBJECTID":531496},"geometry":{"x":179254.8900000006,"y":2548354.2599999998}},{"attributes":{"ID":531524,"DIS_CODE":0,"TOWNNAME":"新化區","LI":"東榮里","LIN":"30鄰","STREET":"信義路","SECT":" ","MAREA":" ","LANE":" ","ALLEY":" ","HOUSE_NO":"１６９號九樓之７","E_COORD97":179254.87,"N_COORD97":2548354.2599999998,"ADDRESS":"信義路１６９號九樓之７","OBJECTID":531497},"geometry":{"x":179254.87000000011,"y":2548354.2599999998}},{"attributes":{"ID":531525,"DIS_CODE":0,"TOWNNAME":"新化區","LI":"東榮里","LIN":"30鄰","STREET":"信義路","SECT":" ","MAREA":" ","LANE":" ","ALLEY":" ","HOUSE_NO":"１６９號八樓之８","E_COORD97":179254.89000000001,"N_COORD97":2548354.2599999998,"ADDRESS":"信義路１６９號八樓之８","OBJECTID":531498},"geometry":{"x":179254.8900000006,"y":2548354.2599999998}},{"attributes":{"ID":531526,"DIS_CODE":0,"TOWNNAME":"新化區","LI":"東榮里","LIN":"30鄰","STREET":"信義路","SECT":" ","MAREA":" ","LANE":" ","ALLEY":" ","HOUSE_NO":"１６９號三樓之２","E_COORD97":179254.88,"N_COORD97":2548354.2599999998,"ADDRESS":"信義路１６９號三樓之２","OBJECTID":531499},"geometry":{"x":179254.88000000175,"y":2548354.2599999998}},{"attributes":{"ID":531527,"DIS_CODE":0,"TOWNNAME":"新化區","LI":"東榮里","LIN":"30鄰","STREET":"信義路","SECT":" ","MAREA":" ","LANE":" ","ALLEY":" ","HOUSE_NO":"１６９號九樓之９","E_COORD97":179254.87,"N_COORD97":2548354.2599999998,"ADDRESS":"信義路１６９號九樓之９","OBJECTID":531500},"geometry":{"x":179254.87000000011,"y":2548354.2599999998}},{"attributes":{"ID":531528,"DIS_CODE":0,"TOWNNAME":"新化區","LI":"東榮里","LIN":"30鄰","STREET":"信義路","SECT":" ","MAREA":" ","LANE":" ","ALLEY":" ","HOUSE_NO":"１６９號九樓之８","E_COORD97":179254.89000000001,"N_COORD97":2548354.2599999998,"ADDRESS":"信義路１６９號九樓之８","OBJECTID":531501},"geometry":{"x":179254.8900000006,"y":2548354.2599999998}},{"attributes":{"ID":531529,"DIS_CODE":0,"TOWNNAME":"新化區","LI":"東榮里","LIN":"30鄰","STREET":"信義路","SECT":" ","MAREA":" ","LANE":" ","ALLEY":" ","HOUSE_NO":"１６９號八樓之１","E_COORD97":179254.85999999999,"N_COORD97":2548354.2599999998,"ADDRESS":"信義路１６９號八樓之１","OBJECTID":531502},"geometry":{"x":179254.86000000034,"y":2548354.2599999998}},{"attributes":{"ID":531530,"DIS_CODE":0,"TOWNNAME":"新化區","LI":"東榮里","LIN":"30鄰","STREET":"信義路","SECT":" ","MAREA":" ","LANE":" ","ALLEY":" ","HOUSE_NO":"１６９號八樓之２","E_COORD97":179254.88,"N_COORD97":2548354.2599999998,"ADDRESS":"信義路１６９號八樓之２","OBJECTID":531503},"geometry":{"x":179254.88000000175,"y":2548354.2599999998}},{"attributes":{"ID":531531,"DIS_CODE":0,"TOWNNAME":"新化區","LI":"東榮里","LIN":"30鄰","STREET":"信義路","SECT":" ","MAREA":" ","LANE":" ","ALLEY":" ","HOUSE_NO":"１６９號五樓之７","E_COORD97":179254.87,"N_COORD97":2548354.2599999998,"ADDRESS":"信義路１６９號五樓之７","OBJECTID":531504},"geometry":{"x":179254.87000000011,"y":2548354.2599999998}},{"attributes":{"ID":531532,"DIS_CODE":0,"TOWNNAME":"新化區","LI":"東榮里","LIN":"30鄰","STREET":"信義路","SECT":" ","MAREA":" ","LANE":" ","ALLEY":" ","HOUSE_NO":"１６９號五樓之６","E_COORD97":179254.88,"N_COORD97":2548354.2599999998,"ADDRESS":"信義路１６９號五樓之６","OBJECTID":531505},"geometry":{"x":179254.88000000175,"y":2548354.2599999998}},{"attributes":{"ID":531533,"DIS_CODE":0,"TOWNNAME":"新化區","LI":"東榮里","LIN":"30鄰","STREET":"信義路","SECT":" ","MAREA":" ","LANE":" ","ALLEY":" ","HOUSE_NO":"１６９號八樓之１１","E_COORD97":179255.10999999999,"N_COORD97":2548354.2599999998,"ADDRESS":"信義路１６９號八樓之１１","OBJECTID":531506},"geometry":{"x":179255.11000000034,"y":2548354.2599999998}},{"attributes":{"ID":531534,"DIS_CODE":0,"TOWNNAME":"新化區","LI":"東榮里","LIN":"30鄰","STREET":"信義路","SECT":" ","MAREA":" ","LANE":" ","ALLEY":" ","HOUSE_NO":"１６９號九樓之１２","E_COORD97":179255.13,"N_COORD97":2548354.2599999998,"ADDRESS":"信義路１６９號九樓之１２","OBJECTID":531507},"geometry":{"x":179255.13000000082,"y":2548354.2599999998}},{"attributes":{"ID":531535,"DIS_CODE":0,"TOWNNAME":"新化區","LI":"東榮里","LIN":"30鄰","STREET":"信義路","SECT":" ","MAREA":" ","LANE":" ","ALLEY":" ","HOUSE_NO":"１６９號六樓之１６","E_COORD97":179255.13,"N_COORD97":2548354.2599999998,"ADDRESS":"信義路１６９號六樓之１６","OBJECTID":531508},"geometry":{"x":179255.13000000082,"y":2548354.2599999998}},{"attributes":{"ID":531536,"DIS_CODE":0,"TOWNNAME":"新化區","LI":"東榮里","LIN":"30鄰","STREET":"信義路","SECT":" ","MAREA":" ","LANE":" ","ALLEY":" ","HOUSE_NO":"１６９號九樓之１３","E_COORD97":179255.13,"N_COORD97":2548354.2599999998,"ADDRESS":"信義路１６９號九樓之１３","OBJECTID":531509},"geometry":{"x":179255.13000000082,"y":2548354.2599999998}},{"attributes":{"ID":531537,"DIS_CODE":0,"TOWNNAME":"新化區","LI":"東榮里","LIN":"30鄰","STREET":"信義路","SECT":" ","MAREA":" ","LANE":" ","ALLEY":" ","HOUSE_NO":"１６９號八樓之１５","E_COORD97":179255.14000000001,"N_COORD97":2548354.2599999998,"ADDRESS":"信義路１６９號八樓之１５","OBJECTID":531510},"geometry":{"x":179255.1400000006,"y":2548354.2599999998}},{"attributes":{"ID":531538,"DIS_CODE":0,"TOWNNAME":"新化區","LI":"東榮里","LIN":"30鄰","STREET":"信義路","SECT":" ","MAREA":" ","LANE":" ","ALLEY":" ","HOUSE_NO":"１６９號五樓之１３","E_COORD97":179255.13,"N_COORD97":2548354.2599999998,"ADDRESS":"信義路１６９號五樓之１３","OBJECTID":531511},"geometry":{"x":179255.13000000082,"y":2548354.2599999998}},{"attributes":{"ID":531539,"DIS_CODE":0,"TOWNNAME":"永康區","LI":"大橋里","LIN":"30鄰","STREET":"大橋一街","SECT":" ","MAREA":" ","LANE":" ","ALLEY":" ","HOUSE_NO":"２７２號","E_COORD97":171140.14000000001,"N_COORD97":2546534.9199999999,"ADDRESS":"大橋一街２７２號","OBJECTID":531512},"geometry":{"x":171140.1400000006,"y":2546534.9200000018}},{"attributes":{"ID":531540,"DIS_CODE":0,"TOWNNAME":"新化區","LI":"東榮里","LIN":"30鄰","STREET":"信義路","SECT":" ","MAREA":" ","LANE":" ","ALLEY":" ","HOUSE_NO":"１６９號六樓之１５","E_COORD97":179255.14000000001,"N_COORD97":2548354.2599999998,"ADDRESS":"信義路１６９號六樓之１５","OBJECTID":531513},"geometry":{"x":179255.1400000006,"y":2548354.2599999998}},{"attributes":{"ID":531541,"DIS_CODE":0,"TOWNNAME":"新化區","LI":"東榮里","LIN":"30鄰","STREET":"信義路","SECT":" ","MAREA":" ","LANE":" ","ALLEY":" ","HOUSE_NO":"１６９號三樓之３","E_COORD97":179254.88,"N_COORD97":2548354.2599999998,"ADDRESS":"信義路１６９號三樓之３","OBJECTID":531514},"geometry":{"x":179254.88000000175,"y":2548354.2599999998}},{"attributes":{"ID":531542,"DIS_CODE":0,"TOWNNAME":"新化區","LI":"東榮里","LIN":"30鄰","STREET":"信義路","SECT":" ","MAREA":" ","LANE":" ","ALLEY":" ","HOUSE_NO":"１６９號五樓之１７","E_COORD97":179255.12,"N_COORD97":2548354.2599999998,"ADDRESS":"信義路１６９號五樓之１７","OBJECTID":531515},"geometry":{"x":179255.12000000197,"y":2548354.2599999998}},{"attributes":{"ID":531543,"DIS_CODE":0,"TOWNNAME":"新化區","LI":"東榮里","LIN":"30鄰","STREET":"信義路","SECT":" ","MAREA":" ","LANE":" ","ALLEY":" ","HOUSE_NO":"１６９號六樓之１７","E_COORD97":179255.12,"N_COORD97":2548354.2599999998,"ADDRESS":"信義路１６９號六樓之１７","OBJECTID":531516},"geometry":{"x":179255.12000000197,"y":2548354.2599999998}},{"attributes":{"ID":531544,"DIS_CODE":0,"TOWNNAME":"新化區","LI":"東榮里","LIN":"30鄰","STREET":"信義路","SECT":" ","MAREA":" ","LANE":" ","ALLEY":" ","HOUSE_NO":"１６９號四樓之２","E_COORD97":179254.88,"N_COORD97":2548354.2599999998,"ADDRESS":"信義路１６９號四樓之２","OBJECTID":531517},"geometry":{"x":179254.88000000175,"y":2548354.2599999998}},{"attributes":{"ID":531545,"DIS_CODE":0,"TOWNNAME":"新化區","LI":"東榮里","LIN":"30鄰","STREET":"信義路","SECT":" ","MAREA":" ","LANE":" ","ALLEY":" ","HOUSE_NO":"１６９號九樓之１０","E_COORD97":179255.12,"N_COORD97":2548354.2599999998,"ADDRESS":"信義路１６９號九樓之１０","OBJECTID":531518},"geometry":{"x":179255.12000000197,"y":2548354.2599999998}},{"attributes":{"ID":531546,"DIS_CODE":0,"TOWNNAME":"新化區","LI":"東榮里","LIN":"30鄰","STREET":"信義路","SECT":" ","MAREA":" ","LANE":" ","ALLEY":" ","HOUSE_NO":"１６９號九樓之１","E_COORD97":179254.85999999999,"N_COORD97":2548354.2599999998,"ADDRESS":"信義路１６９號九樓之１","OBJECTID":531519},"geometry":{"x":179254.86000000034,"y":2548354.2599999998}},{"attributes":{"ID":531547,"DIS_CODE":0,"TOWNNAME":"新化區","LI":"東榮里","LIN":"30鄰","STREET":"信義路","SECT":" ","MAREA":" ","LANE":" ","ALLEY":" ","HOUSE_NO":"１６９號七樓之１０","E_COORD97":179255.12,"N_COORD97":2548354.2599999998,"ADDRESS":"信義路１６９號七樓之１０","OBJECTID":531520},"geometry":{"x":179255.12000000197,"y":2548354.2599999998}},{"attributes":{"ID":531548,"DIS_CODE":0,"TOWNNAME":"新化區","LI":"東榮里","LIN":"30鄰","STREET":"信義路","SECT":" ","MAREA":" ","LANE":" ","ALLEY":" ","HOUSE_NO":"１６９號四樓之１","E_COORD97":179254.85999999999,"N_COORD97":2548354.2599999998,"ADDRESS":"信義路１６９號四樓之１","OBJECTID":531521},"geometry":{"x":179254.86000000034,"y":2548354.2599999998}},{"attributes":{"ID":531549,"DIS_CODE":0,"TOWNNAME":"永康區","LI":"永康里","LIN":"41鄰","STREET":"永福街","SECT":" ","MAREA":" ","LANE":" ","ALLEY":" ","HOUSE_NO":"９１號","E_COORD97":174273.17999999999,"N_COORD97":2546613.25,"ADDRESS":"永福街９１號","OBJECTID":531522},"geometry":{"x":174273.1799999997,"y":2546613.2500000019}},{"attributes":{"ID":531550,"DIS_CODE":0,"TOWNNAME":"永康區","LI":"永康里","LIN":"34鄰","STREET":"永康街","SECT":" ","MAREA":" ","LANE":" ","ALLEY":" ","HOUSE_NO":"３５０號","E_COORD97":174334.20999999999,"N_COORD97":2547048.8100000001,"ADDRESS":"永康街３５０號","OBJECTID":531523},"geometry":{"x":174334.20999999996,"y":2547048.8100000005}},{"attributes":{"ID":531551,"DIS_CODE":0,"TOWNNAME":"永康區","LI":"永康里","LIN":"17鄰","STREET":"永中街","SECT":" ","MAREA":" ","LANE":" ","ALLEY":" ","HOUSE_NO":"１２６號","E_COORD97":173976.76000000001,"N_COORD97":2547259.5800000001,"ADDRESS":"永中街１２６號","OBJECTID":531524},"geometry":{"x":173976.76000000164,"y":2547259.5800000019}},{"attributes":{"ID":531552,"DIS_CODE":0,"TOWNNAME":"永康區","LI":"永康里","LIN":"15鄰","STREET":"永中街","SECT":" ","MAREA":" ","LANE":" ","ALLEY":" ","HOUSE_NO":"９６號","E_COORD97":173945.35000000001,"N_COORD97":2547202.02,"ADDRESS":"永中街９６號","OBJECTID":531525},"geometry":{"x":173945.35000000149,"y":2547202.0200000014}},{"attributes":{"ID":531553,"DIS_CODE":0,"TOWNNAME":"永康區","LI":"五王里","LIN":"30鄰","STREET":"中山東路","SECT":" ","MAREA":" ","LANE":" ","ALLEY":" ","HOUSE_NO":"１４６號七樓之５","E_COORD97":171727.32000000001,"N_COORD97":2545875.5699999998,"ADDRESS":"中山東路１４６號七樓之５","OBJECTID":531526},"geometry":{"x":171727.32000000216,"y":2545875.5700000022}},{"attributes":{"ID":531554,"DIS_CODE":0,"TOWNNAME":"永康區","LI":"五王里","LIN":"30鄰","STREET":"中山東路","SECT":" ","MAREA":" ","LANE":" ","ALLEY":" ","HOUSE_NO":"１５８號八樓之１","E_COORD97":171741.81,"N_COORD97":2545814.4100000001,"ADDRESS":"中山東路１５８號八樓之１","OBJECTID":531527},"geometry":{"x":171741.81000000145,"y":2545814.4100000001}},{"attributes":{"ID":531555,"DIS_CODE":0,"TOWNNAME":"永康區","LI":"五王里","LIN":"30鄰","STREET":"中山東路","SECT":" ","MAREA":" ","LANE":" ","ALLEY":" ","HOUSE_NO":"１４６號四樓之１","E_COORD97":171727.17000000001,"N_COORD97":2545875.5699999998,"ADDRESS":"中山東路１４６號四樓之１","OBJECTID":531528},"geometry":{"x":171727.16999999993,"y":2545875.5700000022}},{"attributes":{"ID":531556,"DIS_CODE":0,"TOWNNAME":"永康區","LI":"五王里","LIN":"30鄰","STREET":"中山東路","SECT":" ","MAREA":" ","LANE":" ","ALLEY":" ","HOUSE_NO":"１４６號三樓之３","E_COORD97":171727.26999999999,"N_COORD97":2545875.5699999998,"ADDRESS":"中山東路１４６號三樓之３","OBJECTID":531529},"geometry":{"x":171727.27000000048,"y":2545875.5700000022}},{"attributes":{"ID":531557,"DIS_CODE":0,"TOWNNAME":"永康區","LI":"\u25A0行里","LIN":"30鄰","STREET":"新行街","SECT":" ","MAREA":" ","LANE":" ","ALLEY":" ","HOUSE_NO":"１２８號三樓之１","E_COORD97":172350.47,"N_COORD97":2549055.1400000001,"ADDRESS":"新行街１２８號三樓之１","OBJECTID":531530},"geometry":{"x":172350.46999999974,"y":2549055.1400000043}},{"attributes":{"ID":531558,"DIS_CODE":0,"TOWNNAME":"永康區","LI":"\u25A0行里","LIN":"30鄰","STREET":"新行街","SECT":" ","MAREA":" ","LANE":" ","ALLEY":" ","HOUSE_NO":"１２８號三樓之２","E_COORD97":172350.60999999999,"N_COORD97":2549055.1400000001,"ADDRESS":"新行街１２８號三樓之２","OBJECTID":531531},"geometry":{"x":172350.61000000034,"y":2549055.1400000043}},{"attributes":{"ID":531559,"DIS_CODE":0,"TOWNNAME":"永康區","LI":"五王里","LIN":"30鄰","STREET":"中山東路","SECT":" ","MAREA":" ","LANE":" ","ALLEY":" ","HOUSE_NO":"８８號","E_COORD97":171714.70999999999,"N_COORD97":2545981.4300000002,"ADDRESS":"中山東路８８號","OBJECTID":531532},"geometry":{"x":171714.71000000089,"y":2545981.4300000016}},{"attributes":{"ID":531560,"DIS_CODE":0,"TOWNNAME":"永康區","LI":"五王里","LIN":"30鄰","STREET":"中山東路","SECT":" ","MAREA":" ","LANE":" ","ALLEY":" ","HOUSE_NO":"４８號","E_COORD97":171693.10000000001,"N_COORD97":2546052.7000000002,"ADDRESS":"中山東路４８號","OBJECTID":531533},"geometry":{"x":171693.10000000056,"y":2546052.6999999974}},{"attributes":{"ID":531561,"DIS_CODE":0,"TOWNNAME":"永康區","LI":"五王里","LIN":"30鄰","STREET":"中山東路","SECT":" ","MAREA":" ","LANE":" ","ALLEY":" ","HOUSE_NO":"５０號","E_COORD97":171694.89000000001,"N_COORD97":2546047.4500000002,"ADDRESS":"中山東路５０號","OBJECTID":531534},"geometry":{"x":171694.88999999966,"y":2546047.4499999993}},{"attributes":{"ID":531562,"DIS_CODE":0,"TOWNNAME":"永康區","LI":"五王里","LIN":"30鄰","STREET":"中山東路","SECT":" ","MAREA":" ","LANE":" ","ALLEY":" ","HOUSE_NO":"７６號","E_COORD97":171708.07000000001,"N_COORD97":2546002.9399999999,"ADDRESS":"中山東路７６號","OBJECTID":531535},"geometry":{"x":171708.0700000003,"y":2546002.9399999995}},{"attributes":{"ID":531563,"DIS_CODE":0,"TOWNNAME":"永康區","LI":"五王里","LIN":"30鄰","STREET":"中山東路","SECT":" ","MAREA":" ","LANE":" ","ALLEY":" ","HOUSE_NO":"６０號","E_COORD97":171700.82999999999,"N_COORD97":2546030.21,"ADDRESS":"中山東路６０號","OBJECTID":531536},"geometry":{"x":171700.83000000007,"y":2546030.2100000009}},{"attributes":{"ID":531564,"DIS_CODE":0,"TOWNNAME":"永康區","LI":"永康里","LIN":"23鄰","STREET":"中山南路","SECT":" ","MAREA":" ","LANE":" ","ALLEY":" ","HOUSE_NO":"６２５號","E_COORD97":173578.20999999999,"N_COORD97":2547244.5,"ADDRESS":"中山南路６２５號","OBJECTID":531537},"geometry":{"x":173578.20999999996,"y":2547244.5}},{"attributes":{"ID":531565,"DIS_CODE":0,"TOWNNAME":"永康區","LI":"永康里","LIN":"14鄰","STREET":"永康街","SECT":" ","MAREA":" ","LANE":" ","ALLEY":" ","HOUSE_NO":"１４７號","E_COORD97":174003.32999999999,"N_COORD97":2547058.1200000001,"ADDRESS":"永康街１４７號","OBJECTID":531538},"geometry":{"x":174003.33000000007,"y":2547058.120000001}},{"attributes":{"ID":531566,"DIS_CODE":0,"TOWNNAME":"永康區","LI":"五王里","LIN":"30鄰","STREET":"中山東路","SECT":" ","MAREA":" ","LANE":" ","ALLEY":" ","HOUSE_NO":"７８號","E_COORD97":171709.22,"N_COORD97":2545998.6899999999,"ADDRESS":"中山東路７８號","OBJECTID":531539},"geometry":{"x":171709.22000000067,"y":2545998.6899999995}},{"attributes":{"ID":531567,"DIS_CODE":0,"TOWNNAME":"東區","LI":"忠孝里","LIN":"30鄰","STREET":"崇明路","SECT":" ","MAREA":" ","LANE":" ","ALLEY":" ","HOUSE_NO":"３８４號","E_COORD97":170140.53,"N_COORD97":2541838.0299999998,"ADDRESS":"崇明路３８４號","OBJECTID":531540},"geometry":{"x":170140.53000000026,"y":2541838.0300000012}},{"attributes":{"ID":531568,"DIS_CODE":0,"TOWNNAME":"永康區","LI":"五王里","LIN":"30鄰","STREET":"中山東路","SECT":" ","MAREA":" ","LANE":" ","ALLEY":" ","HOUSE_NO":"８２號","E_COORD97":171712.03,"N_COORD97":2545990.1899999999,"ADDRESS":"中山東路８２號","OBJECTID":531541},"geometry":{"x":171712.03000000026,"y":2545990.1900000013}},{"attributes":{"ID":531569,"DIS_CODE":0,"TOWNNAME":"永康區","LI":"大橋里","LIN":"30鄰","STREET":"大橋一街","SECT":" ","MAREA":" ","LANE":" ","ALLEY":" ","HOUSE_NO":"３０８號之７","E_COORD97":171229.22,"N_COORD97":2546581.54,"ADDRESS":"大橋一街３０８號之７","OBJECTID":531542},"geometry":{"x":171229.22000000067,"y":2546581.5399999991}},{"attributes":{"ID":531570,"DIS_CODE":0,"TOWNNAME":"永康區","LI":"五王里","LIN":"30鄰","STREET":"中山東路","SECT":" ","MAREA":" ","LANE":" ","ALLEY":" ","HOUSE_NO":"１１８號","E_COORD97":171730.76999999999,"N_COORD97":2545926.7799999998,"ADDRESS":"中山東路１１８號","OBJECTID":531543},"geometry":{"x":171730.77000000048,"y":2545926.7799999975}},{"attributes":{"ID":531571,"DIS_CODE":0,"TOWNNAME":"永康區","LI":"大橋里","LIN":"30鄰","STREET":"大橋一街","SECT":" ","MAREA":" ","LANE":" ","ALLEY":" ","HOUSE_NO":"３０８號之５","E_COORD97":171224.29999999999,"N_COORD97":2546572.54,"ADDRESS":"大橋一街３０８號之５","OBJECTID":531544},"geometry":{"x":171224.29999999981,"y":2546572.5400000028}},{"attributes":{"ID":531572,"DIS_CODE":0,"TOWNNAME":"永康區","LI":"五王里","LIN":"30鄰","STREET":"中山東路","SECT":" ","MAREA":" ","LANE":" ","ALLEY":" ","HOUSE_NO":"５６號","E_COORD97":171697.64999999999,"N_COORD97":2546038.96,"ADDRESS":"中山東路５６號","OBJECTID":531545},"geometry":{"x":171697.65000000037,"y":2546038.9600000009}},{"attributes":{"ID":531573,"DIS_CODE":0,"TOWNNAME":"永康區","LI":"五王里","LIN":"30鄰","STREET":"中山東路","SECT":" ","MAREA":" ","LANE":" ","ALLEY":" ","HOUSE_NO":"１１６號","E_COORD97":171729.97,"N_COORD97":2545932.2799999998,"ADDRESS":"中山東路１１６號","OBJECTID":531546},"geometry":{"x":171729.96999999974,"y":2545932.2799999993}},{"attributes":{"ID":531574,"DIS_CODE":0,"TOWNNAME":"新營區","LI":"三仙里","LIN":"30鄰","STREET":"育德十一街","SECT":" ","MAREA":" ","LANE":" ","ALLEY":" ","HOUSE_NO":"１１號","E_COORD97":179525.28,"N_COORD97":2579226.1499999999,"ADDRESS":"育德十一街１１號","OBJECTID":531547},"geometry":{"x":179525.27999999933,"y":2579226.1500000041}},{"attributes":{"ID":531575,"DIS_CODE":0,"TOWNNAME":"永康區","LI":"大橋里","LIN":"30鄰","STREET":"大橋一街","SECT":" ","MAREA":" ","LANE":" ","ALLEY":" ","HOUSE_NO":"３０８號之４","E_COORD97":171221.53,"N_COORD97":2546576.54,"ADDRESS":"大橋一街３０８號之４","OBJECTID":531548},"geometry":{"x":171221.53000000026,"y":2546576.540000001}},{"attributes":{"ID":531576,"DIS_CODE":0,"TOWNNAME":"永康區","LI":"五王里","LIN":"30鄰","STREET":"中山東路","SECT":" ","MAREA":" ","LANE":" ","ALLEY":" ","HOUSE_NO":"６６號","E_COORD97":171703.26000000001,"N_COORD97":2546022.46,"ADDRESS":"中山東路６６號","OBJECTID":531549},"geometry":{"x":171703.25999999885,"y":2546022.4600000046}},{"attributes":{"ID":531577,"DIS_CODE":0,"TOWNNAME":"永康區","LI":"大橋里","LIN":"30鄰","STREET":"大橋一街","SECT":" ","MAREA":" ","LANE":" ","ALLEY":" ","HOUSE_NO":"３０８號之１","E_COORD97":171203.64000000001,"N_COORD97":2546589.04,"ADDRESS":"大橋一街３０８號之１","OBJECTID":531550},"geometry":{"x":171203.63999999966,"y":2546589.0399999991}},{"attributes":{"ID":531578,"DIS_CODE":0,"TOWNNAME":"永康區","LI":"大灣里","LIN":"30鄰","STREET":"民族路","SECT":" ","MAREA":" ","LANE":" ","ALLEY":" ","HOUSE_NO":"８號","E_COORD97":175531.69,"N_COORD97":2544600.2799999998,"ADDRESS":"民族路８號","OBJECTID":531551},"geometry":{"x":175531.69000000041,"y":2544600.2799999993}},{"attributes":{"ID":531579,"DIS_CODE":0,"TOWNNAME":"永康區","LI":"大橋里","LIN":"30鄰","STREET":"大橋一街","SECT":" ","MAREA":" ","LANE":" ","ALLEY":" ","HOUSE_NO":"２７０號","E_COORD97":171135.09,"N_COORD97":2546531.6699999999,"ADDRESS":"大橋一街２７０號","OBJECTID":531552},"geometry":{"x":171135.09000000171,"y":2546531.6699999981}},{"attributes":{"ID":531580,"DIS_CODE":0,"TOWNNAME":"永康區","LI":"大灣里","LIN":"30鄰","STREET":"民族路","SECT":" ","MAREA":" ","LANE":" ","ALLEY":" ","HOUSE_NO":"１８號","E_COORD97":175455.12,"N_COORD97":2544720.5299999998,"ADDRESS":"民族路１８號","OBJECTID":531553},"geometry":{"x":175455.12000000104,"y":2544720.5299999993}},{"attributes":{"ID":531581,"DIS_CODE":0,"TOWNNAME":"永康區","LI":"永康里","LIN":"32鄰","STREET":"大同街","SECT":" ","MAREA":" ","LANE":" ","ALLEY":" ","HOUSE_NO":"９６８號","E_COORD97":174410.29999999999,"N_COORD97":2547106.5,"ADDRESS":"大同街９６８號","OBJECTID":531554},"geometry":{"x":174410.29999999888,"y":2547106.5000000019}},{"attributes":{"ID":531582,"DIS_CODE":0,"TOWNNAME":"永康區","LI":"大橋里","LIN":"30鄰","STREET":"大橋一街","SECT":" ","MAREA":" ","LANE":" ","ALLEY":" ","HOUSE_NO":"２６４號","E_COORD97":171118.66,"N_COORD97":2546514.5,"ADDRESS":"大橋一街２６４號","OBJECTID":531555},"geometry":{"x":171118.66000000108,"y":2546514.5}},{"attributes":{"ID":531583,"DIS_CODE":0,"TOWNNAME":"永康區","LI":"崑山里","LIN":"30鄰","STREET":"大仁街","SECT":" ","MAREA":" ","LANE":" ","ALLEY":" ","HOUSE_NO":"１００號","E_COORD97":173866.85000000001,"N_COORD97":2544820.3500000001,"ADDRESS":"大仁街１００號","OBJECTID":531556},"geometry":{"x":173866.84999999963,"y":2544820.3499999996}},{"attributes":{"ID":531584,"DIS_CODE":0,"TOWNNAME":"仁德區","LI":"仁義里","LIN":"30鄰","STREET":"正義路","SECT":" ","MAREA":" ","LANE":" ","ALLEY":" ","HOUSE_NO":"８５號","E_COORD97":173575.23000000001,"N_COORD97":2541446.77,"ADDRESS":"正義路８５號","OBJECTID":531557},"geometry":{"x":173575.23000000045,"y":2541446.7700000014}},{"attributes":{"ID":531585,"DIS_CODE":0,"TOWNNAME":"永康區","LI":"永康里","LIN":"39鄰","STREET":"文化路","SECT":" ","MAREA":" ","LANE":" ","ALLEY":" ","HOUSE_NO":"３４號","E_COORD97":174305.32000000001,"N_COORD97":2546362.5699999998,"ADDRESS":"文化路３４號","OBJECTID":531558},"geometry":{"x":174305.3200000003,"y":2546362.5700000003}},{"attributes":{"ID":531586,"DIS_CODE":0,"TOWNNAME":"中西區","LI":"西湖里","LIN":"30鄰","STREET":"湖美街","SECT":" ","MAREA":" ","LANE":" ","ALLEY":" ","HOUSE_NO":"１０６號","E_COORD97":165945.54000000001,"N_COORD97":2544887.3999999999,"ADDRESS":"湖美街１０６號","OBJECTID":531559},"geometry":{"x":165945.54000000097,"y":2544887.4000000022}},{"attributes":{"ID":531587,"DIS_CODE":0,"TOWNNAME":"中西區","LI":"西湖里","LIN":"30鄰","STREET":"湖美街","SECT":" ","MAREA":" ","LANE":" ","ALLEY":" ","HOUSE_NO":"１０６號之１","E_COORD97":165945,"N_COORD97":2544856.9500000002,"ADDRESS":"湖美街１０６號之１","OBJECTID":531560},"geometry":{"x":165945,"y":2544856.9499999993}},{"attributes":{"ID":531588,"DIS_CODE":0,"TOWNNAME":"中西區","LI":"西湖里","LIN":"30鄰","STREET":"湖美街","SECT":" ","MAREA":" ","LANE":" ","ALLEY":" ","HOUSE_NO":"１０６號之１０","E_COORD97":166007.85000000001,"N_COORD97":2544859.3500000001,"ADDRESS":"湖美街１０６號之１０","OBJECTID":531561},"geometry":{"x":166007.84999999963,"y":2544859.3500000015}},{"attributes":{"ID":531589,"DIS_CODE":0,"TOWNNAME":"中西區","LI":"西湖里","LIN":"30鄰","STREET":"湖美街","SECT":" ","MAREA":" ","LANE":" ","ALLEY":" ","HOUSE_NO":"１０６號之１１","E_COORD97":166014.79999999999,"N_COORD97":2544863.8900000001,"ADDRESS":"湖美街１０６號之１１","OBJECTID":531562},"geometry":{"x":166014.80000000075,"y":2544863.8900000025}},{"attributes":{"ID":531590,"DIS_CODE":0,"TOWNNAME":"中西區","LI":"西湖里","LIN":"30鄰","STREET":"湖美街","SECT":" ","MAREA":" ","LANE":" ","ALLEY":" ","HOUSE_NO":"１０６號之１２","E_COORD97":165957.84,"N_COORD97":2544880.1800000002,"ADDRESS":"湖美街１０６號之１２","OBJECTID":531563},"geometry":{"x":165957.83999999892,"y":2544880.1799999997}},{"attributes":{"ID":531591,"DIS_CODE":0,"TOWNNAME":"中西區","LI":"西湖里","LIN":"30鄰","STREET":"湖美街","SECT":" ","MAREA":" ","LANE":" ","ALLEY":" ","HOUSE_NO":"１０６號之１３","E_COORD97":165964.79000000001,"N_COORD97":2544880.7200000002,"ADDRESS":"湖美街１０６號之１３","OBJECTID":531564},"geometry":{"x":165964.79000000004,"y":2544880.7200000007}},{"attributes":{"ID":531592,"DIS_CODE":0,"TOWNNAME":"中西區","LI":"西湖里","LIN":"30鄰","STREET":"湖美街","SECT":" ","MAREA":" ","LANE":" ","ALLEY":" ","HOUSE_NO":"１０６號之１４","E_COORD97":165972.28,"N_COORD97":2544880.9900000002,"ADDRESS":"湖美街１０６號之１４","OBJECTID":531565},"geometry":{"x":165972.28000000212,"y":2544880.9900000002}},{"attributes":{"ID":531593,"DIS_CODE":0,"TOWNNAME":"中西區","LI":"西湖里","LIN":"30鄰","STREET":"湖美街","SECT":" ","MAREA":" ","LANE":" ","ALLEY":" ","HOUSE_NO":"１０６號之１５","E_COORD97":165979.23000000001,"N_COORD97":2544881.52,"ADDRESS":"湖美街１０６號之１５","OBJECTID":531566},"geometry":{"x":165979.23000000045,"y":2544881.5200000033}},{"attributes":{"ID":531594,"DIS_CODE":0,"TOWNNAME":"中西區","LI":"西湖里","LIN":"30鄰","STREET":"湖美街","SECT":" ","MAREA":" ","LANE":" ","ALLEY":" ","HOUSE_NO":"１０６號之１６","E_COORD97":165986.45000000001,"N_COORD97":2544880.7200000002,"ADDRESS":"湖美街１０６號之１６","OBJECTID":531567},"geometry":{"x":165986.45000000205,"y":2544880.7200000007}},{"attributes":{"ID":531595,"DIS_CODE":0,"TOWNNAME":"中西區","LI":"西湖里","LIN":"30鄰","STREET":"湖美街","SECT":" ","MAREA":" ","LANE":" ","ALLEY":" ","HOUSE_NO":"１０６號之２","E_COORD97":165951.69,"N_COORD97":2544856.9500000002,"ADDRESS":"湖美街１０６號之２","OBJECTID":531568},"geometry":{"x":165951.69000000134,"y":2544856.9499999993}},{"attributes":{"ID":531596,"DIS_CODE":0,"TOWNNAME":"中西區","LI":"西湖里","LIN":"30鄰","STREET":"湖美街","SECT":" ","MAREA":" ","LANE":" ","ALLEY":" ","HOUSE_NO":"１０６號之２０","E_COORD97":166012.13,"N_COORD97":2544895.1400000001,"ADDRESS":"湖美街１０６號之２０","OBJECTID":531569},"geometry":{"x":166012.13000000082,"y":2544895.1400000043}},{"attributes":{"ID":531597,"DIS_CODE":0,"TOWNNAME":"中西區","LI":"西湖里","LIN":"30鄰","STREET":"湖美街","SECT":" ","MAREA":" ","LANE":" ","ALLEY":" ","HOUSE_NO":"１０６號之２１","E_COORD97":166011.85999999999,"N_COORD97":2544901.2799999998,"ADDRESS":"湖美街１０６號之２１","OBJECTID":531570},"geometry":{"x":166011.86000000034,"y":2544901.2800000012}},{"attributes":{"ID":531598,"DIS_CODE":0,"TOWNNAME":"中西區","LI":"西湖里","LIN":"30鄰","STREET":"湖美街","SECT":" ","MAREA":" ","LANE":" ","ALLEY":" ","HOUSE_NO":"１０６號之２２","E_COORD97":165992.34,"N_COORD97":2544897.0099999998,"ADDRESS":"湖美街１０６號之２２","OBJECTID":531571},"geometry":{"x":165992.34000000078,"y":2544897.0099999998}},{"attributes":{"ID":531599,"DIS_CODE":0,"TOWNNAME":"中西區","LI":"西湖里","LIN":"30鄰","STREET":"湖美街","SECT":" ","MAREA":" ","LANE":" ","ALLEY":" ","HOUSE_NO":"１０６號之２３","E_COORD97":165985.64999999999,"N_COORD97":2544897.0099999998,"ADDRESS":"湖美街１０６號之２３","OBJECTID":531572},"geometry":{"x":165985.6500000013,"y":2544897.0099999998}},{"attributes":{"ID":531600,"DIS_CODE":0,"TOWNNAME":"中西區","LI":"西湖里","LIN":"30鄰","STREET":"湖美街","SECT":" ","MAREA":" ","LANE":" ","ALLEY":" ","HOUSE_NO":"１０６號之２４","E_COORD97":165979.76999999999,"N_COORD97":2544896.48,"ADDRESS":"湖美街１０６號之２４","OBJECTID":531573},"geometry":{"x":165979.76999999955,"y":2544896.4800000023}},{"attributes":{"ID":531601,"DIS_CODE":0,"TOWNNAME":"中西區","LI":"西湖里","LIN":"30鄰","STREET":"湖美街","SECT":" ","MAREA":" ","LANE":" ","ALLEY":" ","HOUSE_NO":"１０６號之２５","E_COORD97":165971.75,"N_COORD97":2544896.21,"ADDRESS":"湖美街１０６號之２５","OBJECTID":531574},"geometry":{"x":165971.75,"y":2544896.2100000028}},{"attributes":{"ID":531602,"DIS_CODE":0,"TOWNNAME":"中西區","LI":"西湖里","LIN":"30鄰","STREET":"湖美街","SECT":" ","MAREA":" ","LANE":" ","ALLEY":" ","HOUSE_NO":"１０６號之２６","E_COORD97":165964.53,"N_COORD97":2544895.1400000001,"ADDRESS":"湖美街１０６號之２６","OBJECTID":531575},"geometry":{"x":165964.53000000119,"y":2544895.1400000043}},{"attributes":{"ID":531603,"DIS_CODE":0,"TOWNNAME":"中西區","LI":"西湖里","LIN":"30鄰","STREET":"湖美街","SECT":" ","MAREA":" ","LANE":" ","ALLEY":" ","HOUSE_NO":"１０６號之２７","E_COORD97":165957.57000000001,"N_COORD97":2544895.6699999999,"ADDRESS":"湖美街１０６號之２７","OBJECTID":531576},"geometry":{"x":165957.57000000123,"y":2544895.6700000018}},{"attributes":{"ID":531604,"DIS_CODE":0,"TOWNNAME":"中西區","LI":"西湖里","LIN":"30鄰","STREET":"湖美街","SECT":" ","MAREA":" ","LANE":" ","ALLEY":" ","HOUSE_NO":"１０６號之２８","E_COORD97":165943.13,"N_COORD97":2544917.5800000001,"ADDRESS":"湖美街１０６號之２８","OBJECTID":531577},"geometry":{"x":165943.13000000082,"y":2544917.5800000001}},{"attributes":{"ID":531605,"DIS_CODE":0,"TOWNNAME":"中西區","LI":"西湖里","LIN":"30鄰","STREET":"湖美街","SECT":" ","MAREA":" ","LANE":" ","ALLEY":" ","HOUSE_NO":"１０６號之２９","E_COORD97":165950.35000000001,"N_COORD97":2544917.8399999999,"ADDRESS":"湖美街１０６號之２９","OBJECTID":531578},"geometry":{"x":165950.34999999963,"y":2544917.8400000017}},{"attributes":{"ID":531606,"DIS_CODE":0,"TOWNNAME":"中西區","LI":"西湖里","LIN":"30鄰","STREET":"湖美街","SECT":" ","MAREA":" ","LANE":" ","ALLEY":" ","HOUSE_NO":"１０６號之３","E_COORD97":165958.10999999999,"N_COORD97":2544858.2799999998,"ADDRESS":"湖美街１０６號之３","OBJECTID":531579},"geometry":{"x":165958.11000000034,"y":2544858.2799999993}},{"attributes":{"ID":531607,"DIS_CODE":0,"TOWNNAME":"中西區","LI":"西湖里","LIN":"30鄰","STREET":"湖美街","SECT":" ","MAREA":" ","LANE":" ","ALLEY":" ","HOUSE_NO":"１０６號之３０","E_COORD97":165957.04000000001,"N_COORD97":2544918.1099999999,"ADDRESS":"湖美街１０６號之３０","OBJECTID":531580},"geometry":{"x":165957.04000000097,"y":2544918.1100000031}},{"attributes":{"ID":531608,"DIS_CODE":0,"TOWNNAME":"永康區","LI":"五王里","LIN":"30鄰","STREET":"中山東路","SECT":" ","MAREA":" ","LANE":" ","ALLEY":" ","HOUSE_NO":"１６６號","E_COORD97":171745.23000000001,"N_COORD97":2545841.1600000001,"ADDRESS":"中山東路１６６號","OBJECTID":531581},"geometry":{"x":171745.23000000138,"y":2545841.160000002}},{"attributes":{"ID":531609,"DIS_CODE":0,"TOWNNAME":"中西區","LI":"西湖里","LIN":"30鄰","STREET":"湖美街","SECT":" ","MAREA":" ","LANE":" ","ALLEY":" ","HOUSE_NO":"１０６號之３１","E_COORD97":165963.45999999999,"N_COORD97":2544918.1099999999,"ADDRESS":"湖美街１０６號之３１","OBJECTID":531582},"geometry":{"x":165963.45999999996,"y":2544918.1100000031}},{"attributes":{"ID":531610,"DIS_CODE":0,"TOWNNAME":"中西區","LI":"西湖里","LIN":"30鄰","STREET":"湖美街","SECT":" ","MAREA":" ","LANE":" ","ALLEY":" ","HOUSE_NO":"１０６號之３２","E_COORD97":165970.94,"N_COORD97":2544918.1099999999,"ADDRESS":"湖美街１０６號之３２","OBJECTID":531583},"geometry":{"x":165970.94000000041,"y":2544918.1100000031}},{"attributes":{"ID":531611,"DIS_CODE":0,"TOWNNAME":"中西區","LI":"西湖里","LIN":"30鄰","STREET":"湖美街","SECT":" ","MAREA":" ","LANE":" ","ALLEY":" ","HOUSE_NO":"１０６號之３３","E_COORD97":165977.35999999999,"N_COORD97":2544917.8399999999,"ADDRESS":"湖美街１０６號之３３","OBJECTID":531584},"geometry":{"x":165977.36000000127,"y":2544917.8400000017}},{"attributes":{"ID":531612,"DIS_CODE":0,"TOWNNAME":"中西區","LI":"西湖里","LIN":"30鄰","STREET":"湖美街","SECT":" ","MAREA":" ","LANE":" ","ALLEY":" ","HOUSE_NO":"１０６號之３４","E_COORD97":165988.85999999999,"N_COORD97":2544919.1800000002,"ADDRESS":"湖美街１０６號之３４","OBJECTID":531585},"geometry":{"x":165988.8600000022,"y":2544919.1800000016}},{"attributes":{"ID":531613,"DIS_CODE":0,"TOWNNAME":"中西區","LI":"西湖里","LIN":"30鄰","STREET":"湖美街","SECT":" ","MAREA":" ","LANE":" ","ALLEY":" ","HOUSE_NO":"１０６號之３５","E_COORD97":166007.57999999999,"N_COORD97":2544915.9700000002,"ADDRESS":"湖美街１０６號之３５","OBJECTID":531586},"geometry":{"x":166007.58000000101,"y":2544915.9700000007}},{"attributes":{"ID":531614,"DIS_CODE":0,"TOWNNAME":"永康區","LI":"永康里","LIN":"37鄰","STREET":"西勢路","SECT":" ","MAREA":" ","LANE":" ","ALLEY":" ","HOUSE_NO":"７６２號","E_COORD97":174492.48999999999,"N_COORD97":2546742.5699999998,"ADDRESS":"西勢路７６２號","OBJECTID":531587},"geometry":{"x":174492.48999999929,"y":2546742.5700000003}},{"attributes":{"ID":531615,"DIS_CODE":0,"TOWNNAME":"中西區","LI":"西湖里","LIN":"30鄰","STREET":"湖美街","SECT":" ","MAREA":" ","LANE":" ","ALLEY":" ","HOUSE_NO":"１０６號之４","E_COORD97":165965.60000000001,"N_COORD97":2544858.8199999998,"ADDRESS":"湖美街１０６號之４","OBJECTID":531588},"geometry":{"x":165965.59999999963,"y":2544858.8200000003}},{"attributes":{"ID":531616,"DIS_CODE":0,"TOWNNAME":"中西區","LI":"西湖里","LIN":"30鄰","STREET":"湖美街","SECT":" ","MAREA":" ","LANE":" ","ALLEY":" ","HOUSE_NO":"１０６號之５","E_COORD97":165972.54999999999,"N_COORD97":2544858.2799999998,"ADDRESS":"湖美街１０６號之５","OBJECTID":531589},"geometry":{"x":165972.55000000075,"y":2544858.2799999993}},{"attributes":{"ID":531617,"DIS_CODE":0,"TOWNNAME":"中西區","LI":"西湖里","LIN":"30鄰","STREET":"湖美街","SECT":" ","MAREA":" ","LANE":" ","ALLEY":" ","HOUSE_NO":"１０６號之６","E_COORD97":165979.5,"N_COORD97":2544858.2799999998,"ADDRESS":"湖美街１０６號之６","OBJECTID":531590},"geometry":{"x":165979.50000000093,"y":2544858.2799999993}},{"attributes":{"ID":531618,"DIS_CODE":0,"TOWNNAME":"中西區","LI":"西湖里","LIN":"30鄰","STREET":"湖美街","SECT":" ","MAREA":" ","LANE":" ","ALLEY":" ","HOUSE_NO":"１０６號之７","E_COORD97":165987.51999999999,"N_COORD97":2544859.6200000001,"ADDRESS":"湖美街１０６號之７","OBJECTID":531591},"geometry":{"x":165987.52000000048,"y":2544859.6200000029}},{"attributes":{"ID":531619,"DIS_CODE":0,"TOWNNAME":"中西區","LI":"西湖里","LIN":"30鄰","STREET":"湖美街","SECT":" ","MAREA":" ","LANE":" ","ALLEY":" ","HOUSE_NO":"１０６號之９","E_COORD97":166000.09,"N_COORD97":2544859.0800000001,"ADDRESS":"湖美街１０６號之９","OBJECTID":531592},"geometry":{"x":166000.08999999985,"y":2544859.0800000019}},{"attributes":{"ID":531620,"DIS_CODE":0,"TOWNNAME":"中西區","LI":"西湖里","LIN":"30鄰","STREET":"湖美街","SECT":" ","MAREA":" ","LANE":" ","ALLEY":" ","HOUSE_NO":"１１０號","E_COORD97":165947.41,"N_COORD97":2544944.6699999999,"ADDRESS":"湖美街１１０號","OBJECTID":531593},"geometry":{"x":165947.41000000015,"y":2544944.6699999999}},{"attributes":{"ID":531621,"DIS_CODE":0,"TOWNNAME":"中西區","LI":"西湖里","LIN":"30鄰","STREET":"湖美街","SECT":" ","MAREA":" ","LANE":" ","ALLEY":" ","HOUSE_NO":"１１２號","E_COORD97":165946.07000000001,"N_COORD97":2544949.21,"ADDRESS":"湖美街１１２號","OBJECTID":531594},"geometry":{"x":165946.0700000003,"y":2544949.2100000046}},{"attributes":{"ID":531622,"DIS_CODE":0,"TOWNNAME":"中西區","LI":"西湖里","LIN":"30鄰","STREET":"湖美街","SECT":" ","MAREA":" ","LANE":" ","ALLEY":" ","HOUSE_NO":"１１４號","E_COORD97":165947.14000000001,"N_COORD97":2544954.02,"ADDRESS":"湖美街１１４號","OBJECTID":531595},"geometry":{"x":165947.13999999873,"y":2544954.0200000014}},{"attributes":{"ID":531623,"DIS_CODE":0,"TOWNNAME":"中西區","LI":"西湖里","LIN":"30鄰","STREET":"湖美街","SECT":" ","MAREA":" ","LANE":" ","ALLEY":" ","HOUSE_NO":"１１６號","E_COORD97":165947.67999999999,"N_COORD97":2544959.6299999999,"ADDRESS":"湖美街１１６號","OBJECTID":531596},"geometry":{"x":165947.68000000063,"y":2544959.6300000008}},{"attributes":{"ID":531624,"DIS_CODE":0,"TOWNNAME":"中西區","LI":"西湖里","LIN":"30鄰","STREET":"湖美街","SECT":" ","MAREA":" ","LANE":" ","ALLEY":" ","HOUSE_NO":"１１８號","E_COORD97":165947.41,"N_COORD97":2544965.2400000002,"ADDRESS":"湖美街１１８號","OBJECTID":531597},"geometry":{"x":165947.41000000015,"y":2544965.2399999984}},{"attributes":{"ID":531625,"DIS_CODE":0,"TOWNNAME":"中西區","LI":"西湖里","LIN":"30鄰","STREET":"湖美街","SECT":" ","MAREA":" ","LANE":" ","ALLEY":" ","HOUSE_NO":"１２０號","E_COORD97":165947.95000000001,"N_COORD97":2544969.5099999998,"ADDRESS":"湖美街１２０號","OBJECTID":531598},"geometry":{"x":165947.95000000112,"y":2544969.5099999998}},{"attributes":{"ID":531626,"DIS_CODE":0,"TOWNNAME":"中西區","LI":"西湖里","LIN":"30鄰","STREET":"湖美街","SECT":" ","MAREA":" ","LANE":" ","ALLEY":" ","HOUSE_NO":"１２２號","E_COORD97":165948.75,"N_COORD97":2544974.3199999998,"ADDRESS":"湖美街１２２號","OBJECTID":531599},"geometry":{"x":165948.75000000093,"y":2544974.3200000003}},{"attributes":{"ID":531627,"DIS_CODE":0,"TOWNNAME":"中西區","LI":"西湖里","LIN":"30鄰","STREET":"湖美街","SECT":" ","MAREA":" ","LANE":" ","ALLEY":" ","HOUSE_NO":"１２４號","E_COORD97":165949.01999999999,"N_COORD97":2544979.3900000001,"ADDRESS":"湖美街１２４號","OBJECTID":531600},"geometry":{"x":165949.01999999955,"y":2544979.3900000025}}]}