{"displayFieldName":"TOWNNAME","fieldAliases":{"ID":"ID","DIS_CODE":"DIS_CODE","TOWNNAME":"TOWNNAME","LI":"LI","LIN":"LIN","STREET":"STREET","SECT":"SECT","MAREA":"MAREA","LANE":"LANE","ALLEY":"ALLEY","HOUSE_NO":"HOUSE_NO","E_COORD97":"E_COORD97","N_COORD97":"N_COORD97","ADDRESS":"ADDRESS","OBJECTID":"OBJECTID"},"geometryType":"esriGeometryPoint","spatialReference":{"wkid":102443,"latestWkid":3826},"fields":[{"name":"ID","type":"esriFieldTypeDouble","alias":"ID"},{"name":"DIS_CODE","type":"esriFieldTypeInteger","alias":"DIS_CODE"},{"name":"TOWNNAME","type":"esriFieldTypeString","alias":"TOWNNAME","length":8},{"name":"LI","type":"esriFieldTypeString","alias":"LI","length":8},{"name":"LIN","type":"esriFieldTypeString","alias":"LIN","length":12},{"name":"STREET","type":"esriFieldTypeString","alias":"STREET","length":20},{"name":"SECT","type":"esriFieldTypeString","alias":"SECT","length":8},{"name":"MAREA","type":"esriFieldTypeString","alias":"MAREA","length":12},{"name":"LANE","type":"esriFieldTypeString","alias":"LANE","length":10},{"name":"ALLEY","type":"esriFieldTypeString","alias":"ALLEY","length":10},{"name":"HOUSE_NO","type":"esriFieldTypeString","alias":"HOUSE_NO","length":20},{"name":"E_COORD97","type":"esriFieldTypeDouble","alias":"E_COORD97"},{"name":"N_COORD97","type":"esriFieldTypeDouble","alias":"N_COORD97"},{"name":"ADDRESS","type":"esriFieldTypeString","alias":"ADDRESS","length":50},{"name":"OBJECTID","type":"esriFieldTypeOID","alias":"OBJECTID"}],"features":[{"attributes":{"ID":78001,"DIS_CODE":0,"TOWNNAME":"大內區","LI":"石湖里","LIN":"6鄰","STREET":" ","SECT":" ","MAREA":"石子瀨","LANE":" ","ALLEY":" ","HOUSE_NO":"２７４號之１５","E_COORD97":184042.20999999999,"N_COORD97":2558478.2999999998,"ADDRESS":"石子瀨２７４號之１５","OBJECTID":78001},"geometry":{"x":184042.21000000089,"y":2558478.3000000007}},{"attributes":{"ID":78002,"DIS_CODE":0,"TOWNNAME":"大內區","LI":"石湖里","LIN":"6鄰","STREET":" ","SECT":" ","MAREA":"石子瀨","LANE":" ","ALLEY":" ","HOUSE_NO":"２７４號之１０","E_COORD97":183970.60000000001,"N_COORD97":2558539.2999999998,"ADDRESS":"石子瀨２７４號之１０","OBJECTID":78002},"geometry":{"x":183970.5999999987,"y":2558539.3000000007}},{"attributes":{"ID":78003,"DIS_CODE":0,"TOWNNAME":"大內區","LI":"石湖里","LIN":"6鄰","STREET":" ","SECT":" ","MAREA":"石子瀨","LANE":" ","ALLEY":" ","HOUSE_NO":"２７４之１號","E_COORD97":184000.67000000001,"N_COORD97":2558469.2999999998,"ADDRESS":"石子瀨２７４之１號","OBJECTID":78003},"geometry":{"x":184000.66999999993,"y":2558469.3000000045}},{"attributes":{"ID":78004,"DIS_CODE":0,"TOWNNAME":"新營區","LI":"護鎮里","LIN":" ","STREET":" ","SECT":" ","MAREA":"後鎮","LANE":" ","ALLEY":" ","HOUSE_NO":"４２之１號","E_COORD97":179195.67999999999,"N_COORD97":2581200.1600000001,"ADDRESS":"後鎮４２之１號","OBJECTID":78004},"geometry":{"x":179195.68000000063,"y":2581200.160000002}},{"attributes":{"ID":78005,"DIS_CODE":0,"TOWNNAME":"永康區","LI":"神洲里","LIN":"19鄰","STREET":"忠孝路","SECT":" ","MAREA":" ","LANE":"７６巷","ALLEY":"６３弄","HOUSE_NO":"１４號三樓","E_COORD97":172232.57000000001,"N_COORD97":2545050.0899999999,"ADDRESS":"忠孝路７６巷６３弄１４號三樓","OBJECTID":78005},"geometry":{"x":172232.57000000216,"y":2545050.0899999999}},{"attributes":{"ID":78006,"DIS_CODE":0,"TOWNNAME":"永康區","LI":"神洲里","LIN":"19鄰","STREET":"忠孝路","SECT":" ","MAREA":" ","LANE":"７６巷","ALLEY":"６３弄","HOUSE_NO":"１４號二樓","E_COORD97":172232.57000000001,"N_COORD97":2545050.0899999999,"ADDRESS":"忠孝路７６巷６３弄１４號二樓","OBJECTID":78006},"geometry":{"x":172232.57000000216,"y":2545050.0899999999}},{"attributes":{"ID":78007,"DIS_CODE":0,"TOWNNAME":"仁德區","LI":"保安里","LIN":"19鄰","STREET":"文賢路","SECT":"二段","MAREA":" ","LANE":"１５巷","ALLEY":"１８弄","HOUSE_NO":"１７號三樓之１","E_COORD97":171882.29000000001,"N_COORD97":2535881.3300000001,"ADDRESS":"文賢路二段１５巷１８弄１７號三樓之１","OBJECTID":78007},"geometry":{"x":171882.29000000097,"y":2535881.3300000001}},{"attributes":{"ID":78008,"DIS_CODE":0,"TOWNNAME":"永康區","LI":"西橋里","LIN":"19鄰","STREET":"大橋三街","SECT":" ","MAREA":" ","LANE":"５７巷","ALLEY":"７弄","HOUSE_NO":"４１號五樓之２","E_COORD97":170508.98999999999,"N_COORD97":2546462.1600000001,"ADDRESS":"大橋三街５７巷７弄４１號五樓之２","OBJECTID":78008},"geometry":{"x":170508.99000000209,"y":2546462.160000002}},{"attributes":{"ID":78009,"DIS_CODE":0,"TOWNNAME":"新營區","LI":"太北里","LIN":"18鄰","STREET":" ","SECT":" ","MAREA":"太子宮","LANE":" ","ALLEY":" ","HOUSE_NO":"８之４２號","E_COORD97":176194.95000000001,"N_COORD97":2577265.6200000001,"ADDRESS":"太子宮８之４２號","OBJECTID":78009},"geometry":{"x":176194.95000000112,"y":2577265.620000001}},{"attributes":{"ID":78010,"DIS_CODE":0,"TOWNNAME":"大內區","LI":"石林里","LIN":"6鄰","STREET":" ","SECT":" ","MAREA":"石子瀨","LANE":" ","ALLEY":" ","HOUSE_NO":"１７９號之２","E_COORD97":183956.84,"N_COORD97":2558124.2999999998,"ADDRESS":"石子瀨１７９號之２","OBJECTID":78010},"geometry":{"x":183956.83999999985,"y":2558124.3000000026}},{"attributes":{"ID":78011,"DIS_CODE":0,"TOWNNAME":"永康區","LI":"西勢里","LIN":"19鄰","STREET":"富強路","SECT":"一段","MAREA":" ","LANE":"１８５巷","ALLEY":"２弄","HOUSE_NO":"４２號四樓之４","E_COORD97":175603.35999999999,"N_COORD97":2546515.4300000002,"ADDRESS":"富強路一段１８５巷２弄４２號四樓之４","OBJECTID":78011},"geometry":{"x":175603.36000000034,"y":2546515.4299999997}},{"attributes":{"ID":78012,"DIS_CODE":0,"TOWNNAME":"永康區","LI":"西勢里","LIN":"19鄰","STREET":"富強路","SECT":"一段","MAREA":" ","LANE":"１８５巷","ALLEY":"２弄","HOUSE_NO":"４２號三樓之２","E_COORD97":175603.45999999999,"N_COORD97":2546515.4300000002,"ADDRESS":"富強路一段１８５巷２弄４２號三樓之２","OBJECTID":78012},"geometry":{"x":175603.46000000089,"y":2546515.4299999997}},{"attributes":{"ID":78013,"DIS_CODE":0,"TOWNNAME":"永康區","LI":"西勢里","LIN":"19鄰","STREET":"富強路","SECT":"一段","MAREA":" ","LANE":"１８５巷","ALLEY":"２弄","HOUSE_NO":"４２號六樓之１","E_COORD97":175603.32999999999,"N_COORD97":2546515.4300000002,"ADDRESS":"富強路一段１８５巷２弄４２號六樓之１","OBJECTID":78013},"geometry":{"x":175603.33000000007,"y":2546515.4299999997}},{"attributes":{"ID":78014,"DIS_CODE":0,"TOWNNAME":"永康區","LI":"神洲里","LIN":"19鄰","STREET":"忠孝路","SECT":" ","MAREA":" ","LANE":"７６巷","ALLEY":"６３弄","HOUSE_NO":"１６號三樓","E_COORD97":172223.32000000001,"N_COORD97":2545049.9500000002,"ADDRESS":"忠孝路７６巷６３弄１６號三樓","OBJECTID":78014},"geometry":{"x":172223.3200000003,"y":2545049.9499999993}},{"attributes":{"ID":78015,"DIS_CODE":0,"TOWNNAME":"永康區","LI":"西勢里","LIN":"19鄰","STREET":"富強路","SECT":"一段","MAREA":" ","LANE":"１８５巷","ALLEY":"２弄","HOUSE_NO":"５０號四樓之２","E_COORD97":175613.75,"N_COORD97":2546536.54,"ADDRESS":"富強路一段１８５巷２弄５０號四樓之２","OBJECTID":78015},"geometry":{"x":175613.75,"y":2546536.540000001}},{"attributes":{"ID":78016,"DIS_CODE":0,"TOWNNAME":"永康區","LI":"西勢里","LIN":"19鄰","STREET":"富強路","SECT":"一段","MAREA":" ","LANE":"１８５巷","ALLEY":"２弄","HOUSE_NO":"４２號四樓之２","E_COORD97":175603.45999999999,"N_COORD97":2546515.4300000002,"ADDRESS":"富強路一段１８５巷２弄４２號四樓之２","OBJECTID":78016},"geometry":{"x":175603.46000000089,"y":2546515.4299999997}},{"attributes":{"ID":78017,"DIS_CODE":0,"TOWNNAME":"北區","LI":"大豐里","LIN":"7鄰","STREET":"文賢路","SECT":" ","MAREA":" ","LANE":"３１３巷","ALLEY":" ","HOUSE_NO":"１５號","E_COORD97":167264.26000000001,"N_COORD97":2545241.6499999999,"ADDRESS":"文賢路３１３巷１５號","OBJECTID":78017},"geometry":{"x":167264.26000000071,"y":2545241.6500000022}},{"attributes":{"ID":78018,"DIS_CODE":0,"TOWNNAME":"柳營區","LI":"中埕里","LIN":"8鄰","STREET":"建興街","SECT":" ","MAREA":" ","LANE":" ","ALLEY":" ","HOUSE_NO":"１８號","E_COORD97":179829.72,"N_COORD97":2575019.8599999999,"ADDRESS":"建興街１８號","OBJECTID":78018},"geometry":{"x":179829.71999999974,"y":2575019.8600000013}},{"attributes":{"ID":78019,"DIS_CODE":0,"TOWNNAME":"柳營區","LI":"中埕里","LIN":"8鄰","STREET":"建興街","SECT":" ","MAREA":" ","LANE":" ","ALLEY":" ","HOUSE_NO":"２０號","E_COORD97":179828.94,"N_COORD97":2575026.1299999999,"ADDRESS":"建興街２０號","OBJECTID":78019},"geometry":{"x":179828.94000000041,"y":2575026.129999999}},{"attributes":{"ID":78020,"DIS_CODE":0,"TOWNNAME":"新營區","LI":"民榮里","LIN":"15鄰","STREET":"復興路","SECT":" ","MAREA":" ","LANE":" ","ALLEY":" ","HOUSE_NO":"２１９號","E_COORD97":178891.95999999999,"N_COORD97":2578057.5,"ADDRESS":"復興路２１９號","OBJECTID":78020},"geometry":{"x":178891.96000000089,"y":2578057.5000000019}},{"attributes":{"ID":78021,"DIS_CODE":0,"TOWNNAME":"新營區","LI":"民權里","LIN":"21鄰","STREET":"三民路","SECT":" ","MAREA":" ","LANE":" ","ALLEY":" ","HOUSE_NO":"９１之３號","E_COORD97":179737.73999999999,"N_COORD97":2578431.1600000001,"ADDRESS":"三民路９１之３號","OBJECTID":78021},"geometry":{"x":179737.74000000115,"y":2578431.1600000001}},{"attributes":{"ID":78022,"DIS_CODE":0,"TOWNNAME":"新營區","LI":"民榮里","LIN":"28鄰","STREET":"復興路","SECT":" ","MAREA":" ","LANE":" ","ALLEY":" ","HOUSE_NO":"６７９號","E_COORD97":177985.76000000001,"N_COORD97":2578298.8700000001,"ADDRESS":"復興路６７９號","OBJECTID":78022},"geometry":{"x":177985.76000000164,"y":2578298.870000001}},{"attributes":{"ID":78023,"DIS_CODE":0,"TOWNNAME":"柳營區","LI":"中埕里","LIN":"8鄰","STREET":"建興街","SECT":" ","MAREA":" ","LANE":" ","ALLEY":" ","HOUSE_NO":"２６號","E_COORD97":179829.01000000001,"N_COORD97":2575037.8700000001,"ADDRESS":"建興街２６號","OBJECTID":78023},"geometry":{"x":179829.01000000071,"y":2575037.8699999992}},{"attributes":{"ID":78024,"DIS_CODE":0,"TOWNNAME":"柳營區","LI":"中埕里","LIN":"8鄰","STREET":"建興街","SECT":" ","MAREA":" ","LANE":" ","ALLEY":" ","HOUSE_NO":"２８號","E_COORD97":179828.76000000001,"N_COORD97":2575042.0099999998,"ADDRESS":"建興街２８號","OBJECTID":78024},"geometry":{"x":179828.76000000071,"y":2575042.0099999998}},{"attributes":{"ID":78025,"DIS_CODE":0,"TOWNNAME":"柳營區","LI":"中埕里","LIN":"8鄰","STREET":"建興街","SECT":" ","MAREA":" ","LANE":" ","ALLEY":" ","HOUSE_NO":"３０號","E_COORD97":179828.5,"N_COORD97":2575046.1499999999,"ADDRESS":"建興街３０號","OBJECTID":78025},"geometry":{"x":179828.5,"y":2575046.1500000022}},{"attributes":{"ID":78026,"DIS_CODE":0,"TOWNNAME":"柳營區","LI":"中埕里","LIN":"8鄰","STREET":"建興街","SECT":" ","MAREA":" ","LANE":" ","ALLEY":" ","HOUSE_NO":"３２號","E_COORD97":179828.25,"N_COORD97":2575050.29,"ADDRESS":"建興街３２號","OBJECTID":78026},"geometry":{"x":179828.25,"y":2575050.2900000028}},{"attributes":{"ID":78027,"DIS_CODE":0,"TOWNNAME":"柳營區","LI":"中埕里","LIN":"8鄰","STREET":"建興街","SECT":" ","MAREA":" ","LANE":" ","ALLEY":" ","HOUSE_NO":"３８號","E_COORD97":179829.32000000001,"N_COORD97":2575060.8999999999,"ADDRESS":"建興街３８號","OBJECTID":78027},"geometry":{"x":179829.32000000123,"y":2575060.9000000041}},{"attributes":{"ID":78028,"DIS_CODE":0,"TOWNNAME":"柳營區","LI":"中埕里","LIN":"8鄰","STREET":"建興街","SECT":" ","MAREA":" ","LANE":" ","ALLEY":" ","HOUSE_NO":"４２號","E_COORD97":179827.38,"N_COORD97":2575067.46,"ADDRESS":"建興街４２號","OBJECTID":78028},"geometry":{"x":179827.37999999989,"y":2575067.4600000009}},{"attributes":{"ID":78029,"DIS_CODE":0,"TOWNNAME":"柳營區","LI":"中埕里","LIN":"8鄰","STREET":"建興街","SECT":" ","MAREA":" ","LANE":" ","ALLEY":" ","HOUSE_NO":"４６號","E_COORD97":179827.17000000001,"N_COORD97":2575071.4700000002,"ADDRESS":"建興街４６號","OBJECTID":78029},"geometry":{"x":179827.16999999993,"y":2575071.4700000025}},{"attributes":{"ID":78030,"DIS_CODE":0,"TOWNNAME":"柳營區","LI":"中埕里","LIN":"8鄰","STREET":"建興街","SECT":" ","MAREA":" ","LANE":" ","ALLEY":" ","HOUSE_NO":"４８號","E_COORD97":179826.95999999999,"N_COORD97":2575075.48,"ADDRESS":"建興街４８號","OBJECTID":78030},"geometry":{"x":179826.95999999996,"y":2575075.4800000023}},{"attributes":{"ID":78031,"DIS_CODE":0,"TOWNNAME":"柳營區","LI":"中埕里","LIN":"8鄰","STREET":"建興街","SECT":" ","MAREA":" ","LANE":" ","ALLEY":" ","HOUSE_NO":"５０號","E_COORD97":179826.73999999999,"N_COORD97":2575079.48,"ADDRESS":"建興街５０號","OBJECTID":78031},"geometry":{"x":179826.74000000022,"y":2575079.4800000004}},{"attributes":{"ID":78032,"DIS_CODE":0,"TOWNNAME":"柳營區","LI":"士林里","LIN":"8鄰","STREET":"博愛街","SECT":" ","MAREA":" ","LANE":" ","ALLEY":" ","HOUSE_NO":"３７號","E_COORD97":179517.64999999999,"N_COORD97":2575210.1000000001,"ADDRESS":"博愛街３７號","OBJECTID":78032},"geometry":{"x":179517.65000000037,"y":2575210.0999999996}},{"attributes":{"ID":78033,"DIS_CODE":0,"TOWNNAME":"柳營區","LI":"東昇里","LIN":"8鄰","STREET":"康樂街","SECT":" ","MAREA":" ","LANE":" ","ALLEY":" ","HOUSE_NO":"２０９號","E_COORD97":180060.73000000001,"N_COORD97":2575353.4500000002,"ADDRESS":"康樂街２０９號","OBJECTID":78033},"geometry":{"x":180060.73000000138,"y":2575353.4499999993}},{"attributes":{"ID":78034,"DIS_CODE":0,"TOWNNAME":"柳營區","LI":"東昇里","LIN":"8鄰","STREET":"康樂街","SECT":" ","MAREA":" ","LANE":" ","ALLEY":" ","HOUSE_NO":"２１１號","E_COORD97":180062.04999999999,"N_COORD97":2575348.4199999999,"ADDRESS":"康樂街２１１號","OBJECTID":78034},"geometry":{"x":180062.04999999888,"y":2575348.4200000037}},{"attributes":{"ID":78035,"DIS_CODE":0,"TOWNNAME":"永康區","LI":"西勢里","LIN":"19鄰","STREET":"富強路","SECT":"一段","MAREA":" ","LANE":"１８５巷","ALLEY":"２弄","HOUSE_NO":"５６號三樓之３","E_COORD97":175621.60999999999,"N_COORD97":2546548.6800000002,"ADDRESS":"富強路一段１８５巷２弄５６號三樓之３","OBJECTID":78035},"geometry":{"x":175621.61000000127,"y":2546548.6800000034}},{"attributes":{"ID":78036,"DIS_CODE":0,"TOWNNAME":"永康區","LI":"神洲里","LIN":"19鄰","STREET":"忠孝路","SECT":" ","MAREA":" ","LANE":"７６巷","ALLEY":"６３弄","HOUSE_NO":"１４號四樓","E_COORD97":172232.57000000001,"N_COORD97":2545050.0899999999,"ADDRESS":"忠孝路７６巷６３弄１４號四樓","OBJECTID":78036},"geometry":{"x":172232.57000000216,"y":2545050.0899999999}},{"attributes":{"ID":78037,"DIS_CODE":0,"TOWNNAME":"永康區","LI":"西勢里","LIN":"19鄰","STREET":"富強路","SECT":"一段","MAREA":" ","LANE":"１８５巷","ALLEY":"２弄","HOUSE_NO":"４２號五樓之２","E_COORD97":175603.45999999999,"N_COORD97":2546515.4300000002,"ADDRESS":"富強路一段１８５巷２弄４２號五樓之２","OBJECTID":78037},"geometry":{"x":175603.46000000089,"y":2546515.4299999997}},{"attributes":{"ID":78038,"DIS_CODE":0,"TOWNNAME":"東區","LI":"富裕里","LIN":"19鄰","STREET":"東門路","SECT":"二段","MAREA":" ","LANE":"３０１巷","ALLEY":"５３弄","HOUSE_NO":"２０號四樓","E_COORD97":170868.42999999999,"N_COORD97":2542775.6200000001,"ADDRESS":"東門路二段３０１巷５３弄２０號四樓","OBJECTID":78038},"geometry":{"x":170868.43000000063,"y":2542775.620000001}},{"attributes":{"ID":78039,"DIS_CODE":0,"TOWNNAME":"東區","LI":"富裕里","LIN":"19鄰","STREET":"東門路","SECT":"二段","MAREA":" ","LANE":"３０１巷","ALLEY":"５３弄","HOUSE_NO":"２２號二樓","E_COORD97":170870.98000000001,"N_COORD97":2542784.7000000002,"ADDRESS":"東門路二段３０１巷５３弄２２號二樓","OBJECTID":78039},"geometry":{"x":170870.98000000138,"y":2542784.700000003}},{"attributes":{"ID":78040,"DIS_CODE":0,"TOWNNAME":"東區","LI":"富裕里","LIN":"19鄰","STREET":"東門路","SECT":"二段","MAREA":" ","LANE":"３０１巷","ALLEY":"５３弄","HOUSE_NO":"２２號三樓","E_COORD97":170870.98000000001,"N_COORD97":2542784.7000000002,"ADDRESS":"東門路二段３０１巷５３弄２２號三樓","OBJECTID":78040},"geometry":{"x":170870.98000000138,"y":2542784.700000003}},{"attributes":{"ID":78041,"DIS_CODE":0,"TOWNNAME":"東區","LI":"德光里","LIN":"20鄰","STREET":"崇明六街","SECT":" ","MAREA":" ","LANE":" ","ALLEY":" ","HOUSE_NO":"５６號","E_COORD97":169817.42999999999,"N_COORD97":2542245.6200000001,"ADDRESS":"崇明六街５６號","OBJECTID":78041},"geometry":{"x":169817.43000000063,"y":2542245.6200000029}},{"attributes":{"ID":78042,"DIS_CODE":0,"TOWNNAME":"東區","LI":"龍山里","LIN":"7鄰","STREET":"府東街","SECT":" ","MAREA":" ","LANE":" ","ALLEY":" ","HOUSE_NO":"５１號","E_COORD97":169973.28,"N_COORD97":2542890.8500000001,"ADDRESS":"府東街５１號","OBJECTID":78042},"geometry":{"x":169973.28000000119,"y":2542890.8499999996}},{"attributes":{"ID":78043,"DIS_CODE":0,"TOWNNAME":"東區","LI":"德高里","LIN":"6鄰","STREET":"德高街","SECT":" ","MAREA":" ","LANE":" ","ALLEY":" ","HOUSE_NO":"２９號","E_COORD97":171428.88,"N_COORD97":2540891.2400000002,"ADDRESS":"德高街２９號","OBJECTID":78043},"geometry":{"x":171428.88000000082,"y":2540891.2400000021}},{"attributes":{"ID":78044,"DIS_CODE":0,"TOWNNAME":"東區","LI":"德高里","LIN":"6鄰","STREET":"德高街","SECT":" ","MAREA":" ","LANE":" ","ALLEY":" ","HOUSE_NO":"３１號","E_COORD97":171431.63,"N_COORD97":2540889.0699999998,"ADDRESS":"德高街３１號","OBJECTID":78044},"geometry":{"x":171431.63000000082,"y":2540889.0700000022}},{"attributes":{"ID":78045,"DIS_CODE":0,"TOWNNAME":"東區","LI":"德高里","LIN":"6鄰","STREET":"德高街","SECT":" ","MAREA":" ","LANE":" ","ALLEY":" ","HOUSE_NO":"３３號","E_COORD97":171433.22,"N_COORD97":2540886.3199999998,"ADDRESS":"德高街３３號","OBJECTID":78045},"geometry":{"x":171433.22000000067,"y":2540886.320000004}},{"attributes":{"ID":78046,"DIS_CODE":0,"TOWNNAME":"東區","LI":"德高里","LIN":"6鄰","STREET":"德高街","SECT":" ","MAREA":" ","LANE":" ","ALLEY":" ","HOUSE_NO":"３５號","E_COORD97":171436.41,"N_COORD97":2540883.4300000002,"ADDRESS":"德高街３５號","OBJECTID":78046},"geometry":{"x":171436.41000000015,"y":2540883.4299999997}},{"attributes":{"ID":78047,"DIS_CODE":0,"TOWNNAME":"東區","LI":"德高里","LIN":"6鄰","STREET":"德高街","SECT":" ","MAREA":" ","LANE":" ","ALLEY":" ","HOUSE_NO":"３７號","E_COORD97":171443.51000000001,"N_COORD97":2540878.5,"ADDRESS":"德高街３７號","OBJECTID":78047},"geometry":{"x":171443.50999999978,"y":2540878.5000000019}},{"attributes":{"ID":78048,"DIS_CODE":0,"TOWNNAME":"東區","LI":"德高里","LIN":"6鄰","STREET":"德高街","SECT":" ","MAREA":" ","LANE":" ","ALLEY":" ","HOUSE_NO":"４１號","E_COORD97":171470.87,"N_COORD97":2540901.02,"ADDRESS":"德高街４１號","OBJECTID":78048},"geometry":{"x":171470.87000000197,"y":2540901.0200000033}},{"attributes":{"ID":78049,"DIS_CODE":0,"TOWNNAME":"東區","LI":"富裕里","LIN":"19鄰","STREET":"東門路","SECT":"二段","MAREA":" ","LANE":"３０１巷","ALLEY":"５３弄","HOUSE_NO":"２２號五樓","E_COORD97":170870.98000000001,"N_COORD97":2542784.7000000002,"ADDRESS":"東門路二段３０１巷５３弄２２號五樓","OBJECTID":78049},"geometry":{"x":170870.98000000138,"y":2542784.700000003}},{"attributes":{"ID":78050,"DIS_CODE":0,"TOWNNAME":"安平區","LI":"建平里","LIN":"19鄰","STREET":"怡平路","SECT":" ","MAREA":" ","LANE":"１４０巷","ALLEY":"１７弄","HOUSE_NO":"８號四樓","E_COORD97":165867.44,"N_COORD97":2543825.3500000001,"ADDRESS":"怡平路１４０巷１７弄８號四樓","OBJECTID":78050},"geometry":{"x":165867.44000000041,"y":2543825.3500000015}},{"attributes":{"ID":78051,"DIS_CODE":0,"TOWNNAME":"東區","LI":"富裕里","LIN":"19鄰","STREET":"東門路","SECT":"二段","MAREA":" ","LANE":"３０１巷","ALLEY":"５３弄","HOUSE_NO":"２２號六樓","E_COORD97":170870.98000000001,"N_COORD97":2542784.7000000002,"ADDRESS":"東門路二段３０１巷５３弄２２號六樓","OBJECTID":78051},"geometry":{"x":170870.98000000138,"y":2542784.700000003}},{"attributes":{"ID":78052,"DIS_CODE":0,"TOWNNAME":"東區","LI":"富裕里","LIN":"19鄰","STREET":"東門路","SECT":"二段","MAREA":" ","LANE":"３０１巷","ALLEY":"５３弄","HOUSE_NO":"２２號四樓","E_COORD97":170870.98000000001,"N_COORD97":2542784.7000000002,"ADDRESS":"東門路二段３０１巷５３弄２２號四樓","OBJECTID":78052},"geometry":{"x":170870.98000000138,"y":2542784.700000003}},{"attributes":{"ID":78053,"DIS_CODE":0,"TOWNNAME":"東區","LI":"富裕里","LIN":"19鄰","STREET":"東門路","SECT":"二段","MAREA":" ","LANE":"３０１巷","ALLEY":"５３弄","HOUSE_NO":"２４號二樓","E_COORD97":170871.59,"N_COORD97":2542794.4900000002,"ADDRESS":"東門路二段３０１巷５３弄２４號二樓","OBJECTID":78053},"geometry":{"x":170871.58999999985,"y":2542794.4900000021}},{"attributes":{"ID":78054,"DIS_CODE":0,"TOWNNAME":"新營區","LI":"新南里","LIN":"15鄰","STREET":"民治路","SECT":" ","MAREA":" ","LANE":"３００巷","ALLEY":" ","HOUSE_NO":"１３號","E_COORD97":178766.09,"N_COORD97":2578534.2999999998,"ADDRESS":"民治路３００巷１３號","OBJECTID":78054},"geometry":{"x":178766.08999999985,"y":2578534.3000000026}},{"attributes":{"ID":78055,"DIS_CODE":0,"TOWNNAME":"新營區","LI":"新北里","LIN":"31鄰","STREET":"新北六街","SECT":" ","MAREA":" ","LANE":" ","ALLEY":" ","HOUSE_NO":"６１號","E_COORD97":178777.76999999999,"N_COORD97":2579045.8900000001,"ADDRESS":"新北六街６１號","OBJECTID":78055},"geometry":{"x":178777.77000000048,"y":2579045.8900000025}},{"attributes":{"ID":78056,"DIS_CODE":0,"TOWNNAME":"新營區","LI":"新北里","LIN":"6鄰","STREET":"三興街","SECT":" ","MAREA":" ","LANE":" ","ALLEY":" ","HOUSE_NO":"１８１號","E_COORD97":179375.73000000001,"N_COORD97":2579563.54,"ADDRESS":"三興街１８１號","OBJECTID":78056},"geometry":{"x":179375.73000000138,"y":2579563.5399999991}},{"attributes":{"ID":78057,"DIS_CODE":0,"TOWNNAME":"新營區","LI":"民權里","LIN":" ","STREET":"三民路","SECT":" ","MAREA":" ","LANE":" ","ALLEY":" ","HOUSE_NO":"９５之３號","E_COORD97":179710.10999999999,"N_COORD97":2578427.9700000002,"ADDRESS":"三民路９５之３號","OBJECTID":78057},"geometry":{"x":179710.11000000127,"y":2578427.9700000025}},{"attributes":{"ID":78058,"DIS_CODE":0,"TOWNNAME":"新營區","LI":"民權里","LIN":"7鄰","STREET":"文化街","SECT":" ","MAREA":" ","LANE":" ","ALLEY":" ","HOUSE_NO":"８號","E_COORD97":179827.32000000001,"N_COORD97":2578030.8799999999,"ADDRESS":"文化街８號","OBJECTID":78058},"geometry":{"x":179827.32000000123,"y":2578030.8800000008}},{"attributes":{"ID":78059,"DIS_CODE":0,"TOWNNAME":"東區","LI":"德光里","LIN":"1鄰","STREET":"崇德路","SECT":" ","MAREA":" ","LANE":" ","ALLEY":" ","HOUSE_NO":"２號","E_COORD97":169746.57000000001,"N_COORD97":2542534.2000000002,"ADDRESS":"崇德路２號","OBJECTID":78059},"geometry":{"x":169746.5700000003,"y":2542534.2000000011}},{"attributes":{"ID":78060,"DIS_CODE":0,"TOWNNAME":"新營區","LI":"鐵線里","LIN":"7鄰","STREET":" ","SECT":" ","MAREA":"鐵線橋","LANE":" ","ALLEY":" ","HOUSE_NO":"７０號","E_COORD97":175943.60000000001,"N_COORD97":2573735.1299999999,"ADDRESS":"鐵線橋７０號","OBJECTID":78060},"geometry":{"x":175943.59999999963,"y":2573735.129999999}},{"attributes":{"ID":78061,"DIS_CODE":0,"TOWNNAME":"新營區","LI":"五興里","LIN":"7鄰","STREET":" ","SECT":" ","MAREA":"五間厝","LANE":" ","ALLEY":" ","HOUSE_NO":"８２號","E_COORD97":175743.70000000001,"N_COORD97":2574675.25,"ADDRESS":"五間厝８２號","OBJECTID":78061},"geometry":{"x":175743.70000000019,"y":2574675.2500000019}},{"attributes":{"ID":78062,"DIS_CODE":0,"TOWNNAME":"新營區","LI":"五興里","LIN":"7鄰","STREET":" ","SECT":" ","MAREA":"五間厝","LANE":" ","ALLEY":" ","HOUSE_NO":"８１號","E_COORD97":175696.64000000001,"N_COORD97":2574676.5899999999,"ADDRESS":"五間厝８１號","OBJECTID":78062},"geometry":{"x":175696.6400000006,"y":2574676.5900000017}},{"attributes":{"ID":78063,"DIS_CODE":0,"TOWNNAME":"新營區","LI":"五興里","LIN":"7鄰","STREET":" ","SECT":" ","MAREA":"五間厝","LANE":" ","ALLEY":" ","HOUSE_NO":"８０之２號","E_COORD97":175732.82999999999,"N_COORD97":2574660.9700000002,"ADDRESS":"五間厝８０之２號","OBJECTID":78063},"geometry":{"x":175732.83000000194,"y":2574660.9700000025}},{"attributes":{"ID":78064,"DIS_CODE":0,"TOWNNAME":"東區","LI":"富裕里","LIN":"19鄰","STREET":"東門路","SECT":"二段","MAREA":" ","LANE":"３０１巷","ALLEY":"５３弄","HOUSE_NO":"２４號三樓","E_COORD97":170871.59,"N_COORD97":2542794.4900000002,"ADDRESS":"東門路二段３０１巷５３弄２４號三樓","OBJECTID":78064},"geometry":{"x":170871.58999999985,"y":2542794.4900000021}},{"attributes":{"ID":78065,"DIS_CODE":0,"TOWNNAME":"東區","LI":"富裕里","LIN":"19鄰","STREET":"東門路","SECT":"二段","MAREA":" ","LANE":"３０１巷","ALLEY":"５３弄","HOUSE_NO":"２４號五樓","E_COORD97":170871.59,"N_COORD97":2542794.4900000002,"ADDRESS":"東門路二段３０１巷５３弄２４號五樓","OBJECTID":78065},"geometry":{"x":170871.58999999985,"y":2542794.4900000021}},{"attributes":{"ID":78066,"DIS_CODE":0,"TOWNNAME":"東區","LI":"富裕里","LIN":"19鄰","STREET":"東門路","SECT":"二段","MAREA":" ","LANE":"３０１巷","ALLEY":"５３弄","HOUSE_NO":"２４號六樓","E_COORD97":170871.59,"N_COORD97":2542794.4900000002,"ADDRESS":"東門路二段３０１巷５３弄２４號六樓","OBJECTID":78066},"geometry":{"x":170871.58999999985,"y":2542794.4900000021}},{"attributes":{"ID":78067,"DIS_CODE":0,"TOWNNAME":"佳里區","LI":"六安里","LIN":"19鄰","STREET":"延平路","SECT":" ","MAREA":" ","LANE":"５７７巷","ALLEY":"１弄","HOUSE_NO":"１６號","E_COORD97":165871.89000000001,"N_COORD97":2563500.0099999998,"ADDRESS":"延平路５７７巷１弄１６號","OBJECTID":78067},"geometry":{"x":165871.88999999966,"y":2563500.0099999998}},{"attributes":{"ID":78068,"DIS_CODE":0,"TOWNNAME":"東區","LI":"富裕里","LIN":"19鄰","STREET":"東門路","SECT":"二段","MAREA":" ","LANE":"３０１巷","ALLEY":"５３弄","HOUSE_NO":"２４號四樓","E_COORD97":170871.59,"N_COORD97":2542794.4900000002,"ADDRESS":"東門路二段３０１巷５３弄２４號四樓","OBJECTID":78068},"geometry":{"x":170871.58999999985,"y":2542794.4900000021}},{"attributes":{"ID":78069,"DIS_CODE":0,"TOWNNAME":"新營區","LI":"五興里","LIN":"7鄰","STREET":" ","SECT":" ","MAREA":"五間厝","LANE":" ","ALLEY":" ","HOUSE_NO":"７４之６號","E_COORD97":175888.09,"N_COORD97":2574618.1099999999,"ADDRESS":"五間厝７４之６號","OBJECTID":78069},"geometry":{"x":175888.08999999985,"y":2574618.1100000013}},{"attributes":{"ID":78070,"DIS_CODE":0,"TOWNNAME":"新營區","LI":"五興里","LIN":"7鄰","STREET":" ","SECT":" ","MAREA":"五間厝","LANE":" ","ALLEY":" ","HOUSE_NO":"７９之３號","E_COORD97":175734.51999999999,"N_COORD97":2574598.9500000002,"ADDRESS":"五間厝７９之３號","OBJECTID":78070},"geometry":{"x":175734.52000000048,"y":2574598.9500000011}},{"attributes":{"ID":78071,"DIS_CODE":0,"TOWNNAME":"新營區","LI":"五興里","LIN":"7鄰","STREET":" ","SECT":" ","MAREA":"五間厝","LANE":" ","ALLEY":" ","HOUSE_NO":"８０號","E_COORD97":175734.42999999999,"N_COORD97":2574663.1099999999,"ADDRESS":"五間厝８０號","OBJECTID":78071},"geometry":{"x":175734.4299999997,"y":2574663.1100000013}},{"attributes":{"ID":78072,"DIS_CODE":0,"TOWNNAME":"大內區","LI":"頭社里","LIN":"6鄰","STREET":" ","SECT":" ","MAREA":"頭社","LANE":" ","ALLEY":" ","HOUSE_NO":"８３號之８","E_COORD97":187164.82000000001,"N_COORD97":2560576.2999999998,"ADDRESS":"頭社８３號之８","OBJECTID":78072},"geometry":{"x":187164.8200000003,"y":2560576.3000000026}},{"attributes":{"ID":78073,"DIS_CODE":0,"TOWNNAME":"東區","LI":"富裕里","LIN":"19鄰","STREET":"東門路","SECT":"二段","MAREA":" ","LANE":"３０１巷","ALLEY":"５３弄","HOUSE_NO":"２６號二樓","E_COORD97":170867,"N_COORD97":2542800.7599999998,"ADDRESS":"東門路二段３０１巷５３弄２６號二樓","OBJECTID":78073},"geometry":{"x":170867.00000000093,"y":2542800.7599999998}},{"attributes":{"ID":78074,"DIS_CODE":0,"TOWNNAME":"東區","LI":"富裕里","LIN":"19鄰","STREET":"東門路","SECT":"二段","MAREA":" ","LANE":"３０１巷","ALLEY":"５３弄","HOUSE_NO":"２６號三樓","E_COORD97":170867,"N_COORD97":2542800.7599999998,"ADDRESS":"東門路二段３０１巷５３弄２６號三樓","OBJECTID":78074},"geometry":{"x":170867.00000000093,"y":2542800.7599999998}},{"attributes":{"ID":78075,"DIS_CODE":0,"TOWNNAME":"東區","LI":"富裕里","LIN":"19鄰","STREET":"東門路","SECT":"二段","MAREA":" ","LANE":"３０１巷","ALLEY":"５３弄","HOUSE_NO":"２６號五樓","E_COORD97":170867,"N_COORD97":2542800.7599999998,"ADDRESS":"東門路二段３０１巷５３弄２６號五樓","OBJECTID":78075},"geometry":{"x":170867.00000000093,"y":2542800.7599999998}},{"attributes":{"ID":78076,"DIS_CODE":0,"TOWNNAME":"東區","LI":"富裕里","LIN":"19鄰","STREET":"東門路","SECT":"二段","MAREA":" ","LANE":"３０１巷","ALLEY":"５３弄","HOUSE_NO":"２６號六樓","E_COORD97":170867,"N_COORD97":2542800.7599999998,"ADDRESS":"東門路二段３０１巷５３弄２６號六樓","OBJECTID":78076},"geometry":{"x":170867.00000000093,"y":2542800.7599999998}},{"attributes":{"ID":78077,"DIS_CODE":0,"TOWNNAME":"大內區","LI":"頭社里","LIN":"6鄰","STREET":" ","SECT":" ","MAREA":"頭社","LANE":" ","ALLEY":" ","HOUSE_NO":"８１號之１","E_COORD97":187267.48000000001,"N_COORD97":2560386.2999999998,"ADDRESS":"頭社８１號之１","OBJECTID":78077},"geometry":{"x":187267.48000000045,"y":2560386.3000000026}},{"attributes":{"ID":78078,"DIS_CODE":0,"TOWNNAME":"東區","LI":"富裕里","LIN":"19鄰","STREET":"東門路","SECT":"二段","MAREA":" ","LANE":"３０１巷","ALLEY":"５３弄","HOUSE_NO":"２６號四樓","E_COORD97":170867,"N_COORD97":2542800.7599999998,"ADDRESS":"東門路二段３０１巷５３弄２６號四樓","OBJECTID":78078},"geometry":{"x":170867.00000000093,"y":2542800.7599999998}},{"attributes":{"ID":78079,"DIS_CODE":0,"TOWNNAME":"大內區","LI":"內江里","LIN":"6鄰","STREET":" ","SECT":" ","MAREA":"內庄","LANE":" ","ALLEY":" ","HOUSE_NO":"２８３號之１","E_COORD97":184485.10999999999,"N_COORD97":2557465.2999999998,"ADDRESS":"內庄２８３號之１","OBJECTID":78079},"geometry":{"x":184485.1100000022,"y":2557465.3000000007}},{"attributes":{"ID":78080,"DIS_CODE":0,"TOWNNAME":"大內區","LI":"內江里","LIN":"6鄰","STREET":" ","SECT":" ","MAREA":"內庄","LANE":" ","ALLEY":" ","HOUSE_NO":"２７５號","E_COORD97":184512.28,"N_COORD97":2557448.25,"ADDRESS":"內庄２７５號","OBJECTID":78080},"geometry":{"x":184512.28000000026,"y":2557448.2499999981}},{"attributes":{"ID":78081,"DIS_CODE":0,"TOWNNAME":"新營區","LI":"南興里","LIN":"7鄰","STREET":"和平路","SECT":" ","MAREA":" ","LANE":"９５巷","ALLEY":" ","HOUSE_NO":"１９號","E_COORD97":179486.95000000001,"N_COORD97":2577620.5299999998,"ADDRESS":"和平路９５巷１９號","OBJECTID":78081},"geometry":{"x":179486.95000000205,"y":2577620.5299999993}},{"attributes":{"ID":78082,"DIS_CODE":0,"TOWNNAME":"大內區","LI":"頭社里","LIN":"6鄰","STREET":" ","SECT":" ","MAREA":"頭社","LANE":" ","ALLEY":" ","HOUSE_NO":"７５號之１","E_COORD97":187248.98000000001,"N_COORD97":2560403.2999999998,"ADDRESS":"頭社７５號之１","OBJECTID":78082},"geometry":{"x":187248.98000000045,"y":2560403.3000000026}},{"attributes":{"ID":78083,"DIS_CODE":0,"TOWNNAME":"大內區","LI":"大內里","LIN":"6鄰","STREET":" ","SECT":" ","MAREA":"內庄","LANE":" ","ALLEY":" ","HOUSE_NO":"７９號之４","E_COORD97":184690.09,"N_COORD97":2557591.2999999998,"ADDRESS":"內庄７９號之４","OBJECTID":78083},"geometry":{"x":184690.09000000078,"y":2557591.3000000045}},{"attributes":{"ID":78084,"DIS_CODE":0,"TOWNNAME":"大內區","LI":"大內里","LIN":"6鄰","STREET":" ","SECT":" ","MAREA":"內庄","LANE":" ","ALLEY":" ","HOUSE_NO":"７３號之１","E_COORD97":184648.85999999999,"N_COORD97":2557686.2999999998,"ADDRESS":"內庄７３號之１","OBJECTID":78084},"geometry":{"x":184648.86000000034,"y":2557686.3000000045}},{"attributes":{"ID":78085,"DIS_CODE":0,"TOWNNAME":"大內區","LI":"大內里","LIN":"6鄰","STREET":" ","SECT":" ","MAREA":"內庄","LANE":" ","ALLEY":" ","HOUSE_NO":"７９號之８","E_COORD97":184691.51000000001,"N_COORD97":2557571.2999999998,"ADDRESS":"內庄７９號之８","OBJECTID":78085},"geometry":{"x":184691.50999999978,"y":2557571.3000000026}},{"attributes":{"ID":78086,"DIS_CODE":0,"TOWNNAME":"大內區","LI":"二溪里","LIN":"6鄰","STREET":" ","SECT":" ","MAREA":"二重溪","LANE":" ","ALLEY":" ","HOUSE_NO":"１９５號","E_COORD97":187790.54000000001,"N_COORD97":2558066.3100000001,"ADDRESS":"二重溪１９５號","OBJECTID":78086},"geometry":{"x":187790.54000000004,"y":2558066.3100000024}},{"attributes":{"ID":78087,"DIS_CODE":0,"TOWNNAME":"柳營區","LI":"東昇里","LIN":"8鄰","STREET":"康樂街","SECT":" ","MAREA":" ","LANE":" ","ALLEY":" ","HOUSE_NO":"２１５號","E_COORD97":180058.94,"N_COORD97":2575362.7599999998,"ADDRESS":"康樂街２１５號","OBJECTID":78087},"geometry":{"x":180058.94000000134,"y":2575362.7599999979}},{"attributes":{"ID":78088,"DIS_CODE":0,"TOWNNAME":"柳營區","LI":"東昇里","LIN":"8鄰","STREET":"康樂街","SECT":" ","MAREA":" ","LANE":" ","ALLEY":" ","HOUSE_NO":"２１９號","E_COORD97":180054.5,"N_COORD97":2575370.9900000002,"ADDRESS":"康樂街２１９號","OBJECTID":78088},"geometry":{"x":180054.50000000093,"y":2575370.9900000002}},{"attributes":{"ID":78089,"DIS_CODE":0,"TOWNNAME":"大內區","LI":"曲溪里","LIN":"6鄰","STREET":" ","SECT":" ","MAREA":"二重溪","LANE":" ","ALLEY":" ","HOUSE_NO":"５９號","E_COORD97":187282.98999999999,"N_COORD97":2557620.3100000001,"ADDRESS":"二重溪５９號","OBJECTID":78089},"geometry":{"x":187282.99000000115,"y":2557620.3100000005}},{"attributes":{"ID":78090,"DIS_CODE":0,"TOWNNAME":"永康區","LI":"西橋里","LIN":"19鄰","STREET":"大橋三街","SECT":" ","MAREA":" ","LANE":"５７巷","ALLEY":"７弄","HOUSE_NO":"４１號三樓之５","E_COORD97":170508.89000000001,"N_COORD97":2546462.1600000001,"ADDRESS":"大橋三街５７巷７弄４１號三樓之５","OBJECTID":78090},"geometry":{"x":170508.88999999873,"y":2546462.160000002}},{"attributes":{"ID":78091,"DIS_CODE":0,"TOWNNAME":"永康區","LI":"西勢里","LIN":"19鄰","STREET":"富強路","SECT":"一段","MAREA":" ","LANE":"１８５巷","ALLEY":"２弄","HOUSE_NO":"５０號四樓之３","E_COORD97":175613.70999999999,"N_COORD97":2546536.54,"ADDRESS":"富強路一段１８５巷２弄５０號四樓之３","OBJECTID":78091},"geometry":{"x":175613.71000000089,"y":2546536.540000001}},{"attributes":{"ID":78092,"DIS_CODE":0,"TOWNNAME":"新營區","LI":"舊部里","LIN":"7鄰","STREET":" ","SECT":" ","MAREA":"舊部","LANE":" ","ALLEY":" ","HOUSE_NO":"５４號","E_COORD97":177171.53,"N_COORD97":2575315.4900000002,"ADDRESS":"舊部５４號","OBJECTID":78092},"geometry":{"x":177171.53000000119,"y":2575315.4900000021}},{"attributes":{"ID":78093,"DIS_CODE":0,"TOWNNAME":"楠西區","LI":"鹿田里","LIN":"7鄰","STREET":" ","SECT":" ","MAREA":"油車","LANE":" ","ALLEY":" ","HOUSE_NO":"１４號之１２","E_COORD97":197713.35999999999,"N_COORD97":2561959.2999999998,"ADDRESS":"油車１４號之１２","OBJECTID":78093},"geometry":{"x":197713.36000000127,"y":2561959.3000000026}},{"attributes":{"ID":78094,"DIS_CODE":0,"TOWNNAME":"楠西區","LI":"灣丘里","LIN":"7鄰","STREET":" ","SECT":" ","MAREA":"灣丘","LANE":" ","ALLEY":" ","HOUSE_NO":"６８號","E_COORD97":200437.97,"N_COORD97":2564380.25,"ADDRESS":"灣丘６８號","OBJECTID":78094},"geometry":{"x":200437.96999999974,"y":2564380.25}},{"attributes":{"ID":78095,"DIS_CODE":0,"TOWNNAME":"楠西區","LI":"鹿田里","LIN":"7鄰","STREET":" ","SECT":" ","MAREA":"油車","LANE":" ","ALLEY":" ","HOUSE_NO":"１４號之３２","E_COORD97":197710.26000000001,"N_COORD97":2561880.2999999998,"ADDRESS":"油車１４號之３２","OBJECTID":78095},"geometry":{"x":197710.25999999978,"y":2561880.3000000045}},{"attributes":{"ID":78096,"DIS_CODE":0,"TOWNNAME":"楠西區","LI":"鹿田里","LIN":"7鄰","STREET":" ","SECT":" ","MAREA":"油車","LANE":" ","ALLEY":" ","HOUSE_NO":"１６號之１５","E_COORD97":197744.07999999999,"N_COORD97":2561961.2999999998,"ADDRESS":"油車１６號之１５","OBJECTID":78096},"geometry":{"x":197744.08000000007,"y":2561961.2999999989}},{"attributes":{"ID":78097,"DIS_CODE":0,"TOWNNAME":"楠西區","LI":"鹿田里","LIN":"7鄰","STREET":" ","SECT":" ","MAREA":"油車","LANE":" ","ALLEY":" ","HOUSE_NO":"１４號之３３","E_COORD97":197710.12,"N_COORD97":2561875.2999999998,"ADDRESS":"油車１４號之３３","OBJECTID":78097},"geometry":{"x":197710.12000000011,"y":2561875.3000000007}},{"attributes":{"ID":78098,"DIS_CODE":0,"TOWNNAME":"楠西區","LI":"鹿田里","LIN":"7鄰","STREET":" ","SECT":" ","MAREA":"油車","LANE":" ","ALLEY":" ","HOUSE_NO":"１６號之１１","E_COORD97":197745.03,"N_COORD97":2561979.2999999998,"ADDRESS":"油車１６號之１１","OBJECTID":78098},"geometry":{"x":197745.03000000026,"y":2561979.3000000026}},{"attributes":{"ID":78099,"DIS_CODE":0,"TOWNNAME":"楠西區","LI":"鹿田里","LIN":"7鄰","STREET":" ","SECT":" ","MAREA":"油車","LANE":" ","ALLEY":" ","HOUSE_NO":"１４號之２８","E_COORD97":197711.17000000001,"N_COORD97":2561898.2999999998,"ADDRESS":"油車１４號之２８","OBJECTID":78099},"geometry":{"x":197711.16999999993,"y":2561898.3000000026}},{"attributes":{"ID":78100,"DIS_CODE":0,"TOWNNAME":"楠西區","LI":"鹿田里","LIN":"7鄰","STREET":" ","SECT":" ","MAREA":"油車","LANE":" ","ALLEY":" ","HOUSE_NO":"１６號之７","E_COORD97":197744.64999999999,"N_COORD97":2561997.2999999998,"ADDRESS":"油車１６號之７","OBJECTID":78100},"geometry":{"x":197744.65000000224,"y":2561997.3000000007}},{"attributes":{"ID":78101,"DIS_CODE":0,"TOWNNAME":"安南區","LI":"\u25A0南里","LIN":"28鄰","STREET":"安昌街","SECT":" ","MAREA":" ","LANE":"３２２巷","ALLEY":"２弄","HOUSE_NO":"１６號","E_COORD97":170225.85999999999,"N_COORD97":2552840.75,"ADDRESS":"安昌街３２２巷２弄１６號","OBJECTID":78101},"geometry":{"x":170225.86000000127,"y":2552840.7499999981}},{"attributes":{"ID":78102,"DIS_CODE":0,"TOWNNAME":"楠西區","LI":"鹿田里","LIN":"7鄰","STREET":" ","SECT":" ","MAREA":"油車","LANE":" ","ALLEY":" ","HOUSE_NO":"１５號之３","E_COORD97":197717.17000000001,"N_COORD97":2562047.2999999998,"ADDRESS":"油車１５號之３","OBJECTID":78102},"geometry":{"x":197717.17000000086,"y":2562047.3000000026}},{"attributes":{"ID":78103,"DIS_CODE":0,"TOWNNAME":"永康區","LI":"西勢里","LIN":"19鄰","STREET":"富強路","SECT":"一段","MAREA":" ","LANE":"１８５巷","ALLEY":"２弄","HOUSE_NO":"５０號六樓之３","E_COORD97":175613.70999999999,"N_COORD97":2546536.54,"ADDRESS":"富強路一段１８５巷２弄５０號六樓之３","OBJECTID":78103},"geometry":{"x":175613.71000000089,"y":2546536.540000001}},{"attributes":{"ID":78104,"DIS_CODE":0,"TOWNNAME":"東山區","LI":"東正里","LIN":"7鄰","STREET":" ","SECT":" ","MAREA":"東勢","LANE":" ","ALLEY":" ","HOUSE_NO":"４３號","E_COORD97":189464.94,"N_COORD97":2580183.6899999999,"ADDRESS":"東勢４３號","OBJECTID":78104},"geometry":{"x":189464.93999999948,"y":2580183.6899999995}},{"attributes":{"ID":78105,"DIS_CODE":0,"TOWNNAME":"東山區","LI":"東正里","LIN":"7鄰","STREET":" ","SECT":" ","MAREA":"東勢","LANE":" ","ALLEY":" ","HOUSE_NO":"４４號","E_COORD97":189471.73999999999,"N_COORD97":2580203.8500000001,"ADDRESS":"東勢４４號","OBJECTID":78105},"geometry":{"x":189471.74000000115,"y":2580203.8500000034}},{"attributes":{"ID":78106,"DIS_CODE":0,"TOWNNAME":"東山區","LI":"東正里","LIN":"7鄰","STREET":" ","SECT":" ","MAREA":"東勢","LANE":" ","ALLEY":" ","HOUSE_NO":"４８號","E_COORD97":189450.60999999999,"N_COORD97":2580187.8500000001,"ADDRESS":"東勢４８號","OBJECTID":78106},"geometry":{"x":189450.61000000127,"y":2580187.8500000015}},{"attributes":{"ID":78107,"DIS_CODE":0,"TOWNNAME":"新化區","LI":"礁坑里","LIN":"7鄰","STREET":" ","SECT":" ","MAREA":"三十六崙","LANE":" ","ALLEY":" ","HOUSE_NO":"３６號","E_COORD97":185143.72,"N_COORD97":2549217.25,"ADDRESS":"三十六崙３６號","OBJECTID":78107},"geometry":{"x":185143.72000000067,"y":2549217.2500000019}},{"attributes":{"ID":78108,"DIS_CODE":0,"TOWNNAME":"永康區","LI":"西勢里","LIN":"19鄰","STREET":"富強路","SECT":"一段","MAREA":" ","LANE":"１８５巷","ALLEY":"２弄","HOUSE_NO":"５６號六樓之３","E_COORD97":175621.60999999999,"N_COORD97":2546548.6800000002,"ADDRESS":"富強路一段１８５巷２弄５６號六樓之３","OBJECTID":78108},"geometry":{"x":175621.61000000127,"y":2546548.6800000034}},{"attributes":{"ID":78109,"DIS_CODE":0,"TOWNNAME":"新化區","LI":"\u25A0拔里","LIN":"7鄰","STREET":" ","SECT":" ","MAREA":"\u25A0拔林","LANE":" ","ALLEY":" ","HOUSE_NO":"２８５號","E_COORD97":183601.62,"N_COORD97":2551853.25,"ADDRESS":"\u25A0拔林２８５號","OBJECTID":78109},"geometry":{"x":183601.62000000197,"y":2551853.25}},{"attributes":{"ID":78110,"DIS_CODE":0,"TOWNNAME":"永康區","LI":"西勢里","LIN":"19鄰","STREET":"富強路","SECT":"一段","MAREA":" ","LANE":"１８５巷","ALLEY":"２弄","HOUSE_NO":"４２號六樓之４","E_COORD97":175603.35999999999,"N_COORD97":2546515.4300000002,"ADDRESS":"富強路一段１８５巷２弄４２號六樓之４","OBJECTID":78110},"geometry":{"x":175603.36000000034,"y":2546515.4299999997}},{"attributes":{"ID":78111,"DIS_CODE":0,"TOWNNAME":"永康區","LI":"西橋里","LIN":"19鄰","STREET":"大橋三街","SECT":" ","MAREA":" ","LANE":"５７巷","ALLEY":"７弄","HOUSE_NO":"４１號二樓之３","E_COORD97":170508.95999999999,"N_COORD97":2546462.1600000001,"ADDRESS":"大橋三街５７巷７弄４１號二樓之３","OBJECTID":78111},"geometry":{"x":170508.96000000089,"y":2546462.160000002}},{"attributes":{"ID":78112,"DIS_CODE":0,"TOWNNAME":"新化區","LI":"崙頂里","LIN":"7鄰","STREET":" ","SECT":" ","MAREA":"崙子頂","LANE":" ","ALLEY":" ","HOUSE_NO":"２８７號","E_COORD97":176738.42999999999,"N_COORD97":2547168.25,"ADDRESS":"崙子頂２８７號","OBJECTID":78112},"geometry":{"x":176738.4299999997,"y":2547168.25}},{"attributes":{"ID":78113,"DIS_CODE":0,"TOWNNAME":"永康區","LI":"西勢里","LIN":"19鄰","STREET":"富強路","SECT":"一段","MAREA":" ","LANE":"１８５巷","ALLEY":"２弄","HOUSE_NO":"５６號四樓之１","E_COORD97":175621.51000000001,"N_COORD97":2546548.6800000002,"ADDRESS":"富強路一段１８５巷２弄５６號四樓之１","OBJECTID":78113},"geometry":{"x":175621.51000000071,"y":2546548.6800000034}},{"attributes":{"ID":78114,"DIS_CODE":0,"TOWNNAME":"安南區","LI":"\u25A0南里","LIN":"28鄰","STREET":"安昌街","SECT":" ","MAREA":" ","LANE":"３２２巷","ALLEY":"２弄","HOUSE_NO":"２號","E_COORD97":170244.45999999999,"N_COORD97":2552848.3199999998,"ADDRESS":"安昌街３２２巷２弄２號","OBJECTID":78114},"geometry":{"x":170244.46000000183,"y":2552848.3200000022}},{"attributes":{"ID":78115,"DIS_CODE":0,"TOWNNAME":"新化區","LI":"羊林里","LIN":"7鄰","STREET":" ","SECT":" ","MAREA":"洋子寮","LANE":" ","ALLEY":" ","HOUSE_NO":"１號","E_COORD97":184030.63,"N_COORD97":2550655.25,"ADDRESS":"洋子寮１號","OBJECTID":78115},"geometry":{"x":184030.63000000082,"y":2550655.2500000019}},{"attributes":{"ID":78116,"DIS_CODE":0,"TOWNNAME":"新化區","LI":"協興里","LIN":"7鄰","STREET":"太平街","SECT":" ","MAREA":" ","LANE":" ","ALLEY":" ","HOUSE_NO":"１２５號之２","E_COORD97":178342.48000000001,"N_COORD97":2548672.2599999998,"ADDRESS":"太平街１２５號之２","OBJECTID":78116},"geometry":{"x":178342.48000000045,"y":2548672.2599999998}},{"attributes":{"ID":78117,"DIS_CODE":0,"TOWNNAME":"新化區","LI":"豐榮里","LIN":"7鄰","STREET":"大智路","SECT":" ","MAREA":" ","LANE":" ","ALLEY":" ","HOUSE_NO":"２６９號","E_COORD97":177902.03,"N_COORD97":2547932.25,"ADDRESS":"大智路２６９號","OBJECTID":78117},"geometry":{"x":177902.03000000119,"y":2547932.2500000019}},{"attributes":{"ID":78118,"DIS_CODE":0,"TOWNNAME":"新化區","LI":"唪口里","LIN":"7鄰","STREET":" ","SECT":" ","MAREA":"唪口","LANE":" ","ALLEY":" ","HOUSE_NO":"１１３號","E_COORD97":177946.95000000001,"N_COORD97":2548952.25,"ADDRESS":"唪口１１３號","OBJECTID":78118},"geometry":{"x":177946.95000000019,"y":2548952.2500000037}},{"attributes":{"ID":78119,"DIS_CODE":0,"TOWNNAME":"新化區","LI":"山\u25A0里","LIN":"7鄰","STREET":" ","SECT":" ","MAREA":"頂山\u25A0","LANE":" ","ALLEY":" ","HOUSE_NO":"１５０號之２","E_COORD97":179768.78,"N_COORD97":2546760.2599999998,"ADDRESS":"頂山\u25A0１５０號之２","OBJECTID":78119},"geometry":{"x":179768.78000000026,"y":2546760.2599999998}},{"attributes":{"ID":78120,"DIS_CODE":0,"TOWNNAME":"永康區","LI":"西勢里","LIN":"19鄰","STREET":"富強路","SECT":"一段","MAREA":" ","LANE":"１８５巷","ALLEY":"２弄","HOUSE_NO":"４２號二樓之２","E_COORD97":175603.45999999999,"N_COORD97":2546515.4300000002,"ADDRESS":"富強路一段１８５巷２弄４２號二樓之２","OBJECTID":78120},"geometry":{"x":175603.46000000089,"y":2546515.4299999997}},{"attributes":{"ID":78121,"DIS_CODE":0,"TOWNNAME":"新化區","LI":"唪口里","LIN":"7鄰","STREET":" ","SECT":" ","MAREA":"唪口","LANE":" ","ALLEY":" ","HOUSE_NO":"１１１號之２","E_COORD97":177981.79999999999,"N_COORD97":2548956.2599999998,"ADDRESS":"唪口１１１號之２","OBJECTID":78121},"geometry":{"x":177981.79999999981,"y":2548956.2600000016}},{"attributes":{"ID":78122,"DIS_CODE":0,"TOWNNAME":"新化區","LI":"唪口里","LIN":"7鄰","STREET":" ","SECT":" ","MAREA":"唪口","LANE":" ","ALLEY":" ","HOUSE_NO":"１０６號","E_COORD97":178025.25,"N_COORD97":2548977.25,"ADDRESS":"唪口１０６號","OBJECTID":78122},"geometry":{"x":178025.25000000093,"y":2548977.2500000019}},{"attributes":{"ID":78123,"DIS_CODE":0,"TOWNNAME":"新化區","LI":"礁坑里","LIN":"7鄰","STREET":" ","SECT":" ","MAREA":"三十六崙","LANE":" ","ALLEY":" ","HOUSE_NO":"３３號","E_COORD97":185070.72,"N_COORD97":2549150.25,"ADDRESS":"三十六崙３３號","OBJECTID":78123},"geometry":{"x":185070.72000000067,"y":2549150.2500000019}},{"attributes":{"ID":78124,"DIS_CODE":0,"TOWNNAME":"永康區","LI":"西橋里","LIN":"19鄰","STREET":"大橋三街","SECT":" ","MAREA":" ","LANE":"５７巷","ALLEY":"７弄","HOUSE_NO":"４１號六樓之２","E_COORD97":170508.98999999999,"N_COORD97":2546462.1600000001,"ADDRESS":"大橋三街５７巷７弄４１號六樓之２","OBJECTID":78124},"geometry":{"x":170508.99000000209,"y":2546462.160000002}},{"attributes":{"ID":78125,"DIS_CODE":0,"TOWNNAME":"南區","LI":"南華里","LIN":"19鄰","STREET":"中華南路","SECT":"二段","MAREA":" ","LANE":"３００巷","ALLEY":"２弄","HOUSE_NO":"１７號四樓","E_COORD97":166801.28,"N_COORD97":2540301.73,"ADDRESS":"中華南路二段３００巷２弄１７號四樓","OBJECTID":78125},"geometry":{"x":166801.28000000212,"y":2540301.7300000023}},{"attributes":{"ID":78126,"DIS_CODE":0,"TOWNNAME":"南區","LI":"南華里","LIN":"19鄰","STREET":"中華南路","SECT":"二段","MAREA":" ","LANE":"３００巷","ALLEY":"２弄","HOUSE_NO":"１９號二樓","E_COORD97":166810.79000000001,"N_COORD97":2540300.6200000001,"ADDRESS":"中華南路二段３００巷２弄１９號二樓","OBJECTID":78126},"geometry":{"x":166810.79000000004,"y":2540300.620000001}},{"attributes":{"ID":78127,"DIS_CODE":0,"TOWNNAME":"南區","LI":"南華里","LIN":"19鄰","STREET":"中華南路","SECT":"二段","MAREA":" ","LANE":"３００巷","ALLEY":"２弄","HOUSE_NO":"１９號三樓","E_COORD97":166810.79000000001,"N_COORD97":2540300.6200000001,"ADDRESS":"中華南路二段３００巷２弄１９號三樓","OBJECTID":78127},"geometry":{"x":166810.79000000004,"y":2540300.620000001}},{"attributes":{"ID":78128,"DIS_CODE":0,"TOWNNAME":"新化區","LI":"礁坑里","LIN":"7鄰","STREET":" ","SECT":" ","MAREA":"三十六崙","LANE":" ","ALLEY":" ","HOUSE_NO":"８７號","E_COORD97":185049.32000000001,"N_COORD97":2549254.25,"ADDRESS":"三十六崙８７號","OBJECTID":78128},"geometry":{"x":185049.3200000003,"y":2549254.2500000019}},{"attributes":{"ID":78129,"DIS_CODE":0,"TOWNNAME":"南區","LI":"南華里","LIN":"19鄰","STREET":"中華南路","SECT":"二段","MAREA":" ","LANE":"３００巷","ALLEY":"２弄","HOUSE_NO":"１９號五樓","E_COORD97":166810.79000000001,"N_COORD97":2540300.6200000001,"ADDRESS":"中華南路二段３００巷２弄１９號五樓","OBJECTID":78129},"geometry":{"x":166810.79000000004,"y":2540300.620000001}},{"attributes":{"ID":78130,"DIS_CODE":0,"TOWNNAME":"新化區","LI":"知義里","LIN":"7鄰","STREET":" ","SECT":" ","MAREA":"新和庄","LANE":" ","ALLEY":" ","HOUSE_NO":"９５號","E_COORD97":182153.94,"N_COORD97":2546357.25,"ADDRESS":"新和庄９５號","OBJECTID":78130},"geometry":{"x":182153.94000000134,"y":2546357.25}},{"attributes":{"ID":78131,"DIS_CODE":0,"TOWNNAME":"南區","LI":"南華里","LIN":"19鄰","STREET":"中華南路","SECT":"二段","MAREA":" ","LANE":"３００巷","ALLEY":"２弄","HOUSE_NO":"１９號四樓","E_COORD97":166810.79000000001,"N_COORD97":2540300.6200000001,"ADDRESS":"中華南路二段３００巷２弄１９號四樓","OBJECTID":78131},"geometry":{"x":166810.79000000004,"y":2540300.620000001}},{"attributes":{"ID":78132,"DIS_CODE":0,"TOWNNAME":"南區","LI":"南華里","LIN":"19鄰","STREET":"中華南路","SECT":"二段","MAREA":" ","LANE":"３００巷","ALLEY":"２弄","HOUSE_NO":"１號二樓","E_COORD97":166730.47,"N_COORD97":2540311.52,"ADDRESS":"中華南路二段３００巷２弄１號二樓","OBJECTID":78132},"geometry":{"x":166730.47000000067,"y":2540311.5200000014}},{"attributes":{"ID":78133,"DIS_CODE":0,"TOWNNAME":"新市區","LI":"大營里","LIN":"19鄰","STREET":" ","SECT":" ","MAREA":"豐榮","LANE":" ","ALLEY":" ","HOUSE_NO":"３８號","E_COORD97":178802.29000000001,"N_COORD97":2554454.25,"ADDRESS":"豐榮３８號","OBJECTID":78133},"geometry":{"x":178802.29000000004,"y":2554454.25}},{"attributes":{"ID":78134,"DIS_CODE":0,"TOWNNAME":"新營區","LI":"護鎮里","LIN":"6鄰","STREET":" ","SECT":" ","MAREA":"後鎮","LANE":" ","ALLEY":" ","HOUSE_NO":"６２號之１０","E_COORD97":179008.69,"N_COORD97":2581201.0600000001,"ADDRESS":"後鎮６２之１０號","OBJECTID":78134},"geometry":{"x":179008.69000000041,"y":2581201.0600000024}},{"attributes":{"ID":78135,"DIS_CODE":0,"TOWNNAME":"新化區","LI":"全興里","LIN":"7鄰","STREET":" ","SECT":" ","MAREA":"竹子\u25A0","LANE":" ","ALLEY":" ","HOUSE_NO":"８２號","E_COORD97":177566.38,"N_COORD97":2547764.25,"ADDRESS":"竹子\u25A0８２號","OBJECTID":78135},"geometry":{"x":177566.38000000175,"y":2547764.25}},{"attributes":{"ID":78136,"DIS_CODE":0,"TOWNNAME":"南區","LI":"南華里","LIN":"19鄰","STREET":"中華南路","SECT":"二段","MAREA":" ","LANE":"３００巷","ALLEY":"２弄","HOUSE_NO":"１號三樓","E_COORD97":166730.47,"N_COORD97":2540311.52,"ADDRESS":"中華南路二段３００巷２弄１號三樓","OBJECTID":78136},"geometry":{"x":166730.47000000067,"y":2540311.5200000014}},{"attributes":{"ID":78137,"DIS_CODE":0,"TOWNNAME":"大內區","LI":"二溪里","LIN":"6鄰","STREET":" ","SECT":" ","MAREA":"二重溪","LANE":" ","ALLEY":" ","HOUSE_NO":"２０１號之６","E_COORD97":189326.58105199999,"N_COORD97":2558174.2480600001,"ADDRESS":"二重溪２０１號之６","OBJECTID":78137},"geometry":{"x":189326.58105200063,"y":2558174.2480630018}},{"attributes":{"ID":78138,"DIS_CODE":0,"TOWNNAME":"大內區","LI":"內郭里","LIN":"6鄰","STREET":" ","SECT":" ","MAREA":"內庄","LANE":" ","ALLEY":" ","HOUSE_NO":"２００號","E_COORD97":184836.88,"N_COORD97":2557287.25,"ADDRESS":"內庄２００號","OBJECTID":78138},"geometry":{"x":184836.87999999989,"y":2557287.2500000019}},{"attributes":{"ID":78139,"DIS_CODE":0,"TOWNNAME":"安南區","LI":"\u25A0南里","LIN":"28鄰","STREET":"安昌街","SECT":" ","MAREA":" ","LANE":"３２２巷","ALLEY":"２弄","HOUSE_NO":"６號","E_COORD97":170246.79999999999,"N_COORD97":2552833.8700000001,"ADDRESS":"安昌街３２２巷２弄６號","OBJECTID":78139},"geometry":{"x":170246.79999999981,"y":2552833.870000001}},{"attributes":{"ID":78140,"DIS_CODE":0,"TOWNNAME":"新化區","LI":"護國里","LIN":"7鄰","STREET":"信義路","SECT":" ","MAREA":" ","LANE":" ","ALLEY":" ","HOUSE_NO":"１６２號","E_COORD97":179284.23000000001,"N_COORD97":2548382.25,"ADDRESS":"信義路１６２號","OBJECTID":78140},"geometry":{"x":179284.23000000138,"y":2548382.25}},{"attributes":{"ID":78141,"DIS_CODE":0,"TOWNNAME":"大內區","LI":"二溪里","LIN":"6鄰","STREET":" ","SECT":" ","MAREA":"二重溪","LANE":" ","ALLEY":" ","HOUSE_NO":"１９７號","E_COORD97":187797.04000000001,"N_COORD97":2558026.3100000001,"ADDRESS":"二重溪１９７號","OBJECTID":78141},"geometry":{"x":187797.04000000004,"y":2558026.3100000024}},{"attributes":{"ID":78142,"DIS_CODE":0,"TOWNNAME":"大內區","LI":"石湖里","LIN":"6鄰","STREET":" ","SECT":" ","MAREA":"石子瀨","LANE":" ","ALLEY":" ","HOUSE_NO":"２７４號之２","E_COORD97":183956.04000000001,"N_COORD97":2558504.2999999998,"ADDRESS":"石子瀨２７４號之２","OBJECTID":78142},"geometry":{"x":183956.04000000004,"y":2558504.3000000026}},{"attributes":{"ID":78143,"DIS_CODE":0,"TOWNNAME":"新化區","LI":"崙頂里","LIN":"7鄰","STREET":" ","SECT":" ","MAREA":"崙子頂","LANE":" ","ALLEY":" ","HOUSE_NO":"２９９號","E_COORD97":176816.13,"N_COORD97":2547040.25,"ADDRESS":"崙子頂２９９號","OBJECTID":78143},"geometry":{"x":176816.13000000082,"y":2547040.2500000037}},{"attributes":{"ID":78144,"DIS_CODE":0,"TOWNNAME":"南區","LI":"南華里","LIN":"19鄰","STREET":"中華南路","SECT":"二段","MAREA":" ","LANE":"３００巷","ALLEY":"２弄","HOUSE_NO":"１號五樓","E_COORD97":166730.47,"N_COORD97":2540311.52,"ADDRESS":"中華南路二段３００巷２弄１號五樓","OBJECTID":78144},"geometry":{"x":166730.47000000067,"y":2540311.5200000014}},{"attributes":{"ID":78145,"DIS_CODE":0,"TOWNNAME":"新化區","LI":"全興里","LIN":"7鄰","STREET":" ","SECT":" ","MAREA":"竹子\u25A0","LANE":" ","ALLEY":" ","HOUSE_NO":"９９號","E_COORD97":177415.17999999999,"N_COORD97":2547824.25,"ADDRESS":"竹子\u25A0９９號","OBJECTID":78145},"geometry":{"x":177415.18000000063,"y":2547824.2500000019}},{"attributes":{"ID":78146,"DIS_CODE":0,"TOWNNAME":"新化區","LI":"唪口里","LIN":"7鄰","STREET":" ","SECT":" ","MAREA":"唪口","LANE":" ","ALLEY":" ","HOUSE_NO":"１１２號之３","E_COORD97":177991.48999999999,"N_COORD97":2548939.2599999998,"ADDRESS":"唪口１１２號之３","OBJECTID":78146},"geometry":{"x":177991.49000000209,"y":2548939.2600000016}},{"attributes":{"ID":78147,"DIS_CODE":0,"TOWNNAME":"新化區","LI":"羊林里","LIN":"7鄰","STREET":" ","SECT":" ","MAREA":"洋子寮","LANE":" ","ALLEY":" ","HOUSE_NO":"６號之２","E_COORD97":183849.48000000001,"N_COORD97":2550265.2599999998,"ADDRESS":"洋子寮６號之２","OBJECTID":78147},"geometry":{"x":183849.48000000138,"y":2550265.2600000016}},{"attributes":{"ID":78148,"DIS_CODE":0,"TOWNNAME":"新化區","LI":"\u25A0拔里","LIN":"7鄰","STREET":" ","SECT":" ","MAREA":"\u25A0拔林","LANE":" ","ALLEY":" ","HOUSE_NO":"２７７號","E_COORD97":183512.72,"N_COORD97":2551825.25,"ADDRESS":"\u25A0拔林２７７號","OBJECTID":78148},"geometry":{"x":183512.72000000067,"y":2551825.2500000019}},{"attributes":{"ID":78149,"DIS_CODE":0,"TOWNNAME":"新化區","LI":"唪口里","LIN":"7鄰","STREET":" ","SECT":" ","MAREA":"唪口","LANE":" ","ALLEY":" ","HOUSE_NO":"１０６號之１","E_COORD97":178044.98000000001,"N_COORD97":2548950.2599999998,"ADDRESS":"唪口１０６號之１","OBJECTID":78149},"geometry":{"x":178044.98000000138,"y":2548950.2599999998}},{"attributes":{"ID":78150,"DIS_CODE":0,"TOWNNAME":"新化區","LI":"礁坑里","LIN":"7鄰","STREET":" ","SECT":" ","MAREA":"三十六崙","LANE":" ","ALLEY":" ","HOUSE_NO":"３８號","E_COORD97":185021.22,"N_COORD97":2549148.25,"ADDRESS":"三十六崙３８號","OBJECTID":78150},"geometry":{"x":185021.22000000067,"y":2549148.25}},{"attributes":{"ID":78151,"DIS_CODE":0,"TOWNNAME":"新化區","LI":"大坑里","LIN":"7鄰","STREET":" ","SECT":" ","MAREA":"大坑尾","LANE":" ","ALLEY":" ","HOUSE_NO":"１５９號","E_COORD97":187110.42999999999,"N_COORD97":2545963.25,"ADDRESS":"大坑尾１５９號","OBJECTID":78151},"geometry":{"x":187110.43000000063,"y":2545963.2500000019}},{"attributes":{"ID":78152,"DIS_CODE":0,"TOWNNAME":"新化區","LI":"\u25A0拔里","LIN":"7鄰","STREET":" ","SECT":" ","MAREA":"\u25A0拔林","LANE":" ","ALLEY":" ","HOUSE_NO":"２８２號","E_COORD97":183498.01999999999,"N_COORD97":2551788.25,"ADDRESS":"\u25A0拔林２８２號","OBJECTID":78152},"geometry":{"x":183498.01999999955,"y":2551788.25}},{"attributes":{"ID":78153,"DIS_CODE":0,"TOWNNAME":"新化區","LI":"唪口里","LIN":"7鄰","STREET":" ","SECT":" ","MAREA":"唪口","LANE":" ","ALLEY":" ","HOUSE_NO":"３１號之１","E_COORD97":178028.32999999999,"N_COORD97":2548912.2599999998,"ADDRESS":"唪口３１號之１","OBJECTID":78153},"geometry":{"x":178028.33000000101,"y":2548912.2600000016}},{"attributes":{"ID":78154,"DIS_CODE":0,"TOWNNAME":"新化區","LI":"唪口里","LIN":"7鄰","STREET":" ","SECT":" ","MAREA":"唪口","LANE":" ","ALLEY":" ","HOUSE_NO":"１０３號之１","E_COORD97":177997.28,"N_COORD97":2549001.2599999998,"ADDRESS":"唪口１０３號之１","OBJECTID":78154},"geometry":{"x":177997.28000000026,"y":2549001.2599999998}},{"attributes":{"ID":78155,"DIS_CODE":0,"TOWNNAME":"南區","LI":"南華里","LIN":"19鄰","STREET":"中華南路","SECT":"二段","MAREA":" ","LANE":"３００巷","ALLEY":"２弄","HOUSE_NO":"１號四樓","E_COORD97":166730.47,"N_COORD97":2540311.52,"ADDRESS":"中華南路二段３００巷２弄１號四樓","OBJECTID":78155},"geometry":{"x":166730.47000000067,"y":2540311.5200000014}},{"attributes":{"ID":78156,"DIS_CODE":0,"TOWNNAME":"新化區","LI":"\u25A0拔里","LIN":"7鄰","STREET":" ","SECT":" ","MAREA":"\u25A0拔林","LANE":" ","ALLEY":" ","HOUSE_NO":"２７６號之１","E_COORD97":183506.64999999999,"N_COORD97":2551832.2599999998,"ADDRESS":"\u25A0拔林２７６號之１","OBJECTID":78156},"geometry":{"x":183506.65000000224,"y":2551832.2599999998}},{"attributes":{"ID":78157,"DIS_CODE":0,"TOWNNAME":"新化區","LI":"\u25A0拔里","LIN":"7鄰","STREET":" ","SECT":" ","MAREA":"\u25A0拔林","LANE":" ","ALLEY":" ","HOUSE_NO":"２７２號","E_COORD97":183533.82000000001,"N_COORD97":2551878.25,"ADDRESS":"\u25A0拔林２７２號","OBJECTID":78157},"geometry":{"x":183533.8200000003,"y":2551878.2500000037}},{"attributes":{"ID":78158,"DIS_CODE":0,"TOWNNAME":"南區","LI":"南華里","LIN":"19鄰","STREET":"中華南路","SECT":"二段","MAREA":" ","LANE":"３００巷","ALLEY":"２弄","HOUSE_NO":"２１號二樓","E_COORD97":166818.45999999999,"N_COORD97":2540299.4199999999,"ADDRESS":"中華南路二段３００巷２弄２１號二樓","OBJECTID":78158},"geometry":{"x":166818.46000000183,"y":2540299.4200000018}},{"attributes":{"ID":78159,"DIS_CODE":0,"TOWNNAME":"新化區","LI":"豐榮里","LIN":"7鄰","STREET":" ","SECT":" ","MAREA":"洋子","LANE":" ","ALLEY":" ","HOUSE_NO":"１５５號之１","E_COORD97":177890.91,"N_COORD97":2548072.2599999998,"ADDRESS":"洋子１５５號之１","OBJECTID":78159},"geometry":{"x":177890.91000000108,"y":2548072.2599999998}},{"attributes":{"ID":78160,"DIS_CODE":0,"TOWNNAME":"新化區","LI":"唪口里","LIN":"7鄰","STREET":" ","SECT":" ","MAREA":"唪口","LANE":" ","ALLEY":" ","HOUSE_NO":"１９號","E_COORD97":177928.79999999999,"N_COORD97":2548907.25,"ADDRESS":"唪口１９號","OBJECTID":78160},"geometry":{"x":177928.79999999981,"y":2548907.25}},{"attributes":{"ID":78161,"DIS_CODE":0,"TOWNNAME":"新化區","LI":"豐榮里","LIN":"7鄰","STREET":"大智路","SECT":" ","MAREA":" ","LANE":" ","ALLEY":" ","HOUSE_NO":"３０９號","E_COORD97":177943.82999999999,"N_COORD97":2547869.25,"ADDRESS":"大智路３０９號","OBJECTID":78161},"geometry":{"x":177943.83000000101,"y":2547869.25}},{"attributes":{"ID":78162,"DIS_CODE":0,"TOWNNAME":"大內區","LI":"石湖里","LIN":"6鄰","STREET":" ","SECT":" ","MAREA":"石子瀨","LANE":" ","ALLEY":" ","HOUSE_NO":"２７４號之１８","E_COORD97":184055,"N_COORD97":2558482.2999999998,"ADDRESS":"石子瀨２７４號之１８","OBJECTID":78162},"geometry":{"x":184055.00000000093,"y":2558482.3000000007}},{"attributes":{"ID":78163,"DIS_CODE":0,"TOWNNAME":"大內區","LI":"石城里","LIN":"6鄰","STREET":" ","SECT":" ","MAREA":"石子瀨","LANE":" ","ALLEY":" ","HOUSE_NO":"５４號","E_COORD97":184163.22,"N_COORD97":2558060.25,"ADDRESS":"石子瀨５４號","OBJECTID":78163},"geometry":{"x":184163.2200000016,"y":2558060.2500000019}},{"attributes":{"ID":78164,"DIS_CODE":0,"TOWNNAME":"新化區","LI":"協興里","LIN":"7鄰","STREET":"大新路","SECT":" ","MAREA":" ","LANE":" ","ALLEY":" ","HOUSE_NO":"１６號","E_COORD97":178214.78,"N_COORD97":2548592.25,"ADDRESS":"大新路１６號","OBJECTID":78164},"geometry":{"x":178214.78000000026,"y":2548592.25}},{"attributes":{"ID":78165,"DIS_CODE":0,"TOWNNAME":"南區","LI":"南華里","LIN":"19鄰","STREET":"中華南路","SECT":"二段","MAREA":" ","LANE":"３００巷","ALLEY":"２弄","HOUSE_NO":"２１號三樓","E_COORD97":166818.45999999999,"N_COORD97":2540299.4199999999,"ADDRESS":"中華南路二段３００巷２弄２１號三樓","OBJECTID":78165},"geometry":{"x":166818.46000000183,"y":2540299.4200000018}},{"attributes":{"ID":78166,"DIS_CODE":0,"TOWNNAME":"新化區","LI":"礁坑里","LIN":"7鄰","STREET":" ","SECT":" ","MAREA":"三十六崙","LANE":" ","ALLEY":" ","HOUSE_NO":"３４號","E_COORD97":185090.51999999999,"N_COORD97":2549139.25,"ADDRESS":"三十六崙３４號","OBJECTID":78166},"geometry":{"x":185090.52000000048,"y":2549139.2500000019}},{"attributes":{"ID":78167,"DIS_CODE":0,"TOWNNAME":"新化區","LI":"唪口里","LIN":"7鄰","STREET":" ","SECT":" ","MAREA":"唪口","LANE":" ","ALLEY":" ","HOUSE_NO":"３２號","E_COORD97":178023.70000000001,"N_COORD97":2548929.25,"ADDRESS":"唪口３２號","OBJECTID":78167},"geometry":{"x":178023.70000000019,"y":2548929.2500000019}},{"attributes":{"ID":78168,"DIS_CODE":0,"TOWNNAME":"新化區","LI":"豐榮里","LIN":"7鄰","STREET":" ","SECT":" ","MAREA":"洋子","LANE":" ","ALLEY":" ","HOUSE_NO":"１５３號之１","E_COORD97":177864.91,"N_COORD97":2548082.2599999998,"ADDRESS":"洋子１５３號之１","OBJECTID":78168},"geometry":{"x":177864.91000000201,"y":2548082.2599999998}},{"attributes":{"ID":78169,"DIS_CODE":0,"TOWNNAME":"新化區","LI":"\u25A0拔里","LIN":"7鄰","STREET":" ","SECT":" ","MAREA":"\u25A0拔林","LANE":" ","ALLEY":" ","HOUSE_NO":"２８３號","E_COORD97":183489.51999999999,"N_COORD97":2551772.25,"ADDRESS":"\u25A0拔林２８３號","OBJECTID":78169},"geometry":{"x":183489.51999999955,"y":2551772.25}},{"attributes":{"ID":78170,"DIS_CODE":0,"TOWNNAME":"南區","LI":"南華里","LIN":"19鄰","STREET":"中華南路","SECT":"二段","MAREA":" ","LANE":"３００巷","ALLEY":"２弄","HOUSE_NO":"２１號五樓","E_COORD97":166818.45999999999,"N_COORD97":2540299.4199999999,"ADDRESS":"中華南路二段３００巷２弄２１號五樓","OBJECTID":78170},"geometry":{"x":166818.46000000183,"y":2540299.4200000018}},{"attributes":{"ID":78171,"DIS_CODE":0,"TOWNNAME":"南區","LI":"南華里","LIN":"19鄰","STREET":"中華南路","SECT":"二段","MAREA":" ","LANE":"３００巷","ALLEY":"２弄","HOUSE_NO":"２１號四樓","E_COORD97":166818.45999999999,"N_COORD97":2540299.4199999999,"ADDRESS":"中華南路二段３００巷２弄２１號四樓","OBJECTID":78171},"geometry":{"x":166818.46000000183,"y":2540299.4200000018}},{"attributes":{"ID":78172,"DIS_CODE":0,"TOWNNAME":"新營區","LI":"鐵線里","LIN":"4鄰","STREET":" ","SECT":" ","MAREA":"鐵線橋","LANE":" ","ALLEY":" ","HOUSE_NO":"４５號","E_COORD97":176020.51000000001,"N_COORD97":2573759.1200000001,"ADDRESS":"鐵線橋４５號","OBJECTID":78172},"geometry":{"x":176020.50999999978,"y":2573759.1200000029}},{"attributes":{"ID":78173,"DIS_CODE":0,"TOWNNAME":"新化區","LI":"\u25A0拔里","LIN":"7鄰","STREET":" ","SECT":" ","MAREA":"\u25A0拔林","LANE":" ","ALLEY":" ","HOUSE_NO":"２７１號之３","E_COORD97":183525.47,"N_COORD97":2551889.2599999998,"ADDRESS":"\u25A0拔林２７１號之３","OBJECTID":78173},"geometry":{"x":183525.46999999974,"y":2551889.2600000016}},{"attributes":{"ID":78174,"DIS_CODE":0,"TOWNNAME":"南區","LI":"南華里","LIN":"19鄰","STREET":"中華南路","SECT":"二段","MAREA":" ","LANE":"３００巷","ALLEY":"２弄","HOUSE_NO":"２３號二樓","E_COORD97":166826.60000000001,"N_COORD97":2540298.1299999999,"ADDRESS":"中華南路二段３００巷２弄２３號二樓","OBJECTID":78174},"geometry":{"x":166826.59999999963,"y":2540298.129999999}},{"attributes":{"ID":78175,"DIS_CODE":0,"TOWNNAME":"南區","LI":"南華里","LIN":"19鄰","STREET":"中華南路","SECT":"二段","MAREA":" ","LANE":"３００巷","ALLEY":"２弄","HOUSE_NO":"２３號三樓","E_COORD97":166826.60000000001,"N_COORD97":2540298.1299999999,"ADDRESS":"中華南路二段３００巷２弄２３號三樓","OBJECTID":78175},"geometry":{"x":166826.59999999963,"y":2540298.129999999}},{"attributes":{"ID":78176,"DIS_CODE":0,"TOWNNAME":"新化區","LI":"\u25A0拔里","LIN":"7鄰","STREET":" ","SECT":" ","MAREA":"\u25A0拔林","LANE":" ","ALLEY":" ","HOUSE_NO":"２７３號","E_COORD97":183521.72,"N_COORD97":2551848.25,"ADDRESS":"\u25A0拔林２７３號","OBJECTID":78176},"geometry":{"x":183521.71999999974,"y":2551848.2500000019}},{"attributes":{"ID":78177,"DIS_CODE":0,"TOWNNAME":"新化區","LI":"全興里","LIN":"7鄰","STREET":" ","SECT":" ","MAREA":"竹子\u25A0","LANE":" ","ALLEY":" ","HOUSE_NO":"９３號之１","E_COORD97":177573.70999999999,"N_COORD97":2547928.2599999998,"ADDRESS":"竹子\u25A0９３號之１","OBJECTID":78177},"geometry":{"x":177573.70999999996,"y":2547928.2600000016}},{"attributes":{"ID":78178,"DIS_CODE":0,"TOWNNAME":"南區","LI":"南華里","LIN":"19鄰","STREET":"中華南路","SECT":"二段","MAREA":" ","LANE":"３００巷","ALLEY":"２弄","HOUSE_NO":"２３號五樓","E_COORD97":166826.60000000001,"N_COORD97":2540298.1299999999,"ADDRESS":"中華南路二段３００巷２弄２３號五樓","OBJECTID":78178},"geometry":{"x":166826.59999999963,"y":2540298.129999999}},{"attributes":{"ID":78179,"DIS_CODE":0,"TOWNNAME":"新化區","LI":"\u25A0拔里","LIN":"7鄰","STREET":" ","SECT":" ","MAREA":"\u25A0拔林","LANE":" ","ALLEY":" ","HOUSE_NO":"２８２號之１","E_COORD97":183494.35000000001,"N_COORD97":2551784.2599999998,"ADDRESS":"\u25A0拔林２８２號之１","OBJECTID":78179},"geometry":{"x":183494.35000000149,"y":2551784.2600000016}},{"attributes":{"ID":78180,"DIS_CODE":0,"TOWNNAME":"安南區","LI":"\u25A0南里","LIN":"28鄰","STREET":"安昌街","SECT":" ","MAREA":" ","LANE":"３２２巷","ALLEY":"２弄","HOUSE_NO":"８號","E_COORD97":170242.39000000001,"N_COORD97":2552835.2400000002,"ADDRESS":"安昌街３２２巷２弄８號","OBJECTID":78180},"geometry":{"x":170242.38999999966,"y":2552835.2400000021}},{"attributes":{"ID":78181,"DIS_CODE":0,"TOWNNAME":"大內區","LI":"頭社里","LIN":"6鄰","STREET":" ","SECT":" ","MAREA":"頭社","LANE":" ","ALLEY":" ","HOUSE_NO":"７８之１號","E_COORD97":187218.14000000001,"N_COORD97":2560430.2999999998,"ADDRESS":"頭社７８之１號","OBJECTID":78181},"geometry":{"x":187218.13999999966,"y":2560430.3000000026}},{"attributes":{"ID":78182,"DIS_CODE":0,"TOWNNAME":"大內區","LI":"頭社里","LIN":"6鄰","STREET":" ","SECT":" ","MAREA":"頭社","LANE":" ","ALLEY":" ","HOUSE_NO":"８３號之１１","E_COORD97":187143.03,"N_COORD97":2560941.2999999998,"ADDRESS":"頭社８３號之１１","OBJECTID":78182},"geometry":{"x":187143.03000000026,"y":2560941.3000000026}},{"attributes":{"ID":78183,"DIS_CODE":0,"TOWNNAME":"大內區","LI":"頭社里","LIN":"6鄰","STREET":" ","SECT":" ","MAREA":"頭社","LANE":" ","ALLEY":" ","HOUSE_NO":"８３號之６","E_COORD97":187109.28,"N_COORD97":2560619.2999999998,"ADDRESS":"頭社８３號之６","OBJECTID":78183},"geometry":{"x":187109.28000000026,"y":2560619.3000000026}},{"attributes":{"ID":78184,"DIS_CODE":0,"TOWNNAME":"大內區","LI":"頭社里","LIN":"6鄰","STREET":" ","SECT":" ","MAREA":"頭社","LANE":" ","ALLEY":" ","HOUSE_NO":"７７號之１","E_COORD97":187195.88,"N_COORD97":2560446.2999999998,"ADDRESS":"頭社７７號之１","OBJECTID":78184},"geometry":{"x":187195.88000000082,"y":2560446.3000000026}},{"attributes":{"ID":78185,"DIS_CODE":0,"TOWNNAME":"大內區","LI":"石城里","LIN":"6鄰","STREET":" ","SECT":" ","MAREA":"石子瀨","LANE":" ","ALLEY":" ","HOUSE_NO":"５８號之１","E_COORD97":184156.64999999999,"N_COORD97":2558023.2999999998,"ADDRESS":"石子瀨５８號之１","OBJECTID":78185},"geometry":{"x":184156.6500000013,"y":2558023.3000000026}},{"attributes":{"ID":78186,"DIS_CODE":0,"TOWNNAME":"大內區","LI":"頭社里","LIN":"6鄰","STREET":" ","SECT":" ","MAREA":"頭社","LANE":" ","ALLEY":" ","HOUSE_NO":"８３號之１","E_COORD97":187150.78,"N_COORD97":2560552.2999999998,"ADDRESS":"頭社８３號之１","OBJECTID":78186},"geometry":{"x":187150.78000000119,"y":2560552.3000000026}},{"attributes":{"ID":78187,"DIS_CODE":0,"TOWNNAME":"大內區","LI":"石湖里","LIN":"6鄰","STREET":" ","SECT":" ","MAREA":"石子瀨","LANE":" ","ALLEY":" ","HOUSE_NO":"２７４號之１４","E_COORD97":184038.17999999999,"N_COORD97":2558477.2999999998,"ADDRESS":"石子瀨２７４號之１４","OBJECTID":78187},"geometry":{"x":184038.18000000156,"y":2558477.3000000026}},{"attributes":{"ID":78188,"DIS_CODE":0,"TOWNNAME":"大內區","LI":"石湖里","LIN":"6鄰","STREET":" ","SECT":" ","MAREA":"石子瀨","LANE":" ","ALLEY":" ","HOUSE_NO":"２７４號之７","E_COORD97":183979.78,"N_COORD97":2558478.2999999998,"ADDRESS":"石子瀨２７４號之７","OBJECTID":78188},"geometry":{"x":183979.78000000026,"y":2558478.3000000007}},{"attributes":{"ID":78189,"DIS_CODE":0,"TOWNNAME":"大內區","LI":"頭社里","LIN":"6鄰","STREET":" ","SECT":" ","MAREA":"頭社","LANE":" ","ALLEY":" ","HOUSE_NO":"７５號","E_COORD97":187212.64000000001,"N_COORD97":2560417.25,"ADDRESS":"頭社７５號","OBJECTID":78189},"geometry":{"x":187212.63999999966,"y":2560417.25}},{"attributes":{"ID":78190,"DIS_CODE":0,"TOWNNAME":"新化區","LI":"唪口里","LIN":"7鄰","STREET":" ","SECT":" ","MAREA":"唪口","LANE":" ","ALLEY":" ","HOUSE_NO":"３２號之２","E_COORD97":178036.25,"N_COORD97":2548934.2599999998,"ADDRESS":"唪口３２號之２","OBJECTID":78190},"geometry":{"x":178036.25,"y":2548934.2599999998}},{"attributes":{"ID":78191,"DIS_CODE":0,"TOWNNAME":"南區","LI":"南華里","LIN":"19鄰","STREET":"中華南路","SECT":"二段","MAREA":" ","LANE":"３００巷","ALLEY":"２弄","HOUSE_NO":"２３號四樓","E_COORD97":166826.60000000001,"N_COORD97":2540298.1299999999,"ADDRESS":"中華南路二段３００巷２弄２３號四樓","OBJECTID":78191},"geometry":{"x":166826.59999999963,"y":2540298.129999999}},{"attributes":{"ID":78192,"DIS_CODE":0,"TOWNNAME":"新化區","LI":"礁坑里","LIN":"7鄰","STREET":" ","SECT":" ","MAREA":"三十六崙","LANE":" ","ALLEY":" ","HOUSE_NO":"３２號","E_COORD97":185065.42000000001,"N_COORD97":2549169.25,"ADDRESS":"三十六崙３２號","OBJECTID":78192},"geometry":{"x":185065.41999999993,"y":2549169.2500000037}},{"attributes":{"ID":78193,"DIS_CODE":0,"TOWNNAME":"新營區","LI":"鐵線里","LIN":" ","STREET":" ","SECT":" ","MAREA":"秀才","LANE":" ","ALLEY":" ","HOUSE_NO":"１７之３號","E_COORD97":174732.64999999999,"N_COORD97":2573956.1299999999,"ADDRESS":"秀才１７之３號","OBJECTID":78193},"geometry":{"x":174732.6500000013,"y":2573956.1300000027}},{"attributes":{"ID":78194,"DIS_CODE":0,"TOWNNAME":"新營區","LI":"姑爺里","LIN":"12鄰","STREET":" ","SECT":" ","MAREA":"挖仔","LANE":" ","ALLEY":" ","HOUSE_NO":"５１號","E_COORD97":173987.12,"N_COORD97":2575511.4300000002,"ADDRESS":"挖仔５１號","OBJECTID":78194},"geometry":{"x":173987.12000000104,"y":2575511.4300000016}},{"attributes":{"ID":78195,"DIS_CODE":0,"TOWNNAME":"南區","LI":"南華里","LIN":"19鄰","STREET":"中華南路","SECT":"二段","MAREA":" ","LANE":"３００巷","ALLEY":"２弄","HOUSE_NO":"３號二樓","E_COORD97":166737.13,"N_COORD97":2540310.5,"ADDRESS":"中華南路二段３００巷２弄３號二樓","OBJECTID":78195},"geometry":{"x":166737.12999999989,"y":2540310.5}},{"attributes":{"ID":78196,"DIS_CODE":0,"TOWNNAME":"新營區","LI":"太北里","LIN":"18鄰","STREET":" ","SECT":" ","MAREA":"太子宮","LANE":" ","ALLEY":" ","HOUSE_NO":"８號之４","E_COORD97":176244.12,"N_COORD97":2577187.8500000001,"ADDRESS":"太子宮８號之４","OBJECTID":78196},"geometry":{"x":176244.12000000011,"y":2577187.8500000015}},{"attributes":{"ID":78197,"DIS_CODE":0,"TOWNNAME":"南區","LI":"南華里","LIN":"19鄰","STREET":"中華南路","SECT":"二段","MAREA":" ","LANE":"３００巷","ALLEY":"２弄","HOUSE_NO":"３號三樓","E_COORD97":166737.13,"N_COORD97":2540310.5,"ADDRESS":"中華南路二段３００巷２弄３號三樓","OBJECTID":78197},"geometry":{"x":166737.12999999989,"y":2540310.5}},{"attributes":{"ID":78198,"DIS_CODE":0,"TOWNNAME":"南區","LI":"南華里","LIN":"19鄰","STREET":"中華南路","SECT":"二段","MAREA":" ","LANE":"３００巷","ALLEY":"２弄","HOUSE_NO":"３號五樓","E_COORD97":166737.13,"N_COORD97":2540310.5,"ADDRESS":"中華南路二段３００巷２弄３號五樓","OBJECTID":78198},"geometry":{"x":166737.12999999989,"y":2540310.5}},{"attributes":{"ID":78199,"DIS_CODE":0,"TOWNNAME":"山上區","LI":"明和里","LIN":"19鄰","STREET":" ","SECT":" ","MAREA":"明和","LANE":" ","ALLEY":" ","HOUSE_NO":"５０號","E_COORD97":183338.29000000001,"N_COORD97":2555969.25,"ADDRESS":"明和５０號","OBJECTID":78199},"geometry":{"x":183338.29000000097,"y":2555969.25}},{"attributes":{"ID":78200,"DIS_CODE":0,"TOWNNAME":"南區","LI":"南華里","LIN":"19鄰","STREET":"中華南路","SECT":"二段","MAREA":" ","LANE":"３００巷","ALLEY":"２弄","HOUSE_NO":"３號四樓","E_COORD97":166737.13,"N_COORD97":2540310.5,"ADDRESS":"中華南路二段３００巷２弄３號四樓","OBJECTID":78200},"geometry":{"x":166737.12999999989,"y":2540310.5}}]}