{"displayFieldName":"TOWNNAME","fieldAliases":{"ID":"ID","DIS_CODE":"DIS_CODE","TOWNNAME":"TOWNNAME","LI":"LI","LIN":"LIN","STREET":"STREET","SECT":"SECT","MAREA":"MAREA","LANE":"LANE","ALLEY":"ALLEY","HOUSE_NO":"HOUSE_NO","E_COORD97":"E_COORD97","N_COORD97":"N_COORD97","ADDRESS":"ADDRESS","OBJECTID":"OBJECTID"},"geometryType":"esriGeometryPoint","spatialReference":{"wkid":102443,"latestWkid":3826},"fields":[{"name":"ID","type":"esriFieldTypeDouble","alias":"ID"},{"name":"DIS_CODE","type":"esriFieldTypeInteger","alias":"DIS_CODE"},{"name":"TOWNNAME","type":"esriFieldTypeString","alias":"TOWNNAME","length":8},{"name":"LI","type":"esriFieldTypeString","alias":"LI","length":8},{"name":"LIN","type":"esriFieldTypeString","alias":"LIN","length":12},{"name":"STREET","type":"esriFieldTypeString","alias":"STREET","length":20},{"name":"SECT","type":"esriFieldTypeString","alias":"SECT","length":8},{"name":"MAREA","type":"esriFieldTypeString","alias":"MAREA","length":12},{"name":"LANE","type":"esriFieldTypeString","alias":"LANE","length":10},{"name":"ALLEY","type":"esriFieldTypeString","alias":"ALLEY","length":10},{"name":"HOUSE_NO","type":"esriFieldTypeString","alias":"HOUSE_NO","length":20},{"name":"E_COORD97","type":"esriFieldTypeDouble","alias":"E_COORD97"},{"name":"N_COORD97","type":"esriFieldTypeDouble","alias":"N_COORD97"},{"name":"ADDRESS","type":"esriFieldTypeString","alias":"ADDRESS","length":50},{"name":"OBJECTID","type":"esriFieldTypeOID","alias":"OBJECTID"}],"features":[{"attributes":{"ID":60001,"DIS_CODE":0,"TOWNNAME":"鹽水區","LI":"汫水里","LIN":"4鄰","STREET":" ","SECT":" ","MAREA":"汫水港","LANE":" ","ALLEY":" ","HOUSE_NO":"１２２號之１０","E_COORD97":175787.14999999999,"N_COORD97":2582802.8500000001,"ADDRESS":"汫水港１２２號之１０","OBJECTID":60001},"geometry":{"x":175787.1500000013,"y":2582802.8499999996}},{"attributes":{"ID":60002,"DIS_CODE":0,"TOWNNAME":"鹽水區","LI":"汫水里","LIN":"4鄰","STREET":" ","SECT":" ","MAREA":"汫水港","LANE":" ","ALLEY":" ","HOUSE_NO":"１２２號之１","E_COORD97":175715.53,"N_COORD97":2582841.9100000001,"ADDRESS":"汫水港１２２號之１","OBJECTID":60002},"geometry":{"x":175715.53000000026,"y":2582841.910000002}},{"attributes":{"ID":60003,"DIS_CODE":0,"TOWNNAME":"鹽水區","LI":"汫水里","LIN":"4鄰","STREET":" ","SECT":" ","MAREA":"汫水港","LANE":" ","ALLEY":" ","HOUSE_NO":"１２２號之３","E_COORD97":175737.63,"N_COORD97":2582841.1400000001,"ADDRESS":"汫水港１２２號之３","OBJECTID":60003},"geometry":{"x":175737.63000000082,"y":2582841.1400000025}},{"attributes":{"ID":60004,"DIS_CODE":0,"TOWNNAME":"鹽水區","LI":"汫水里","LIN":"4鄰","STREET":" ","SECT":" ","MAREA":"汫水港","LANE":" ","ALLEY":" ","HOUSE_NO":"１２２號之５","E_COORD97":175751.79000000001,"N_COORD97":2582830.79,"ADDRESS":"汫水港１２２號之５","OBJECTID":60004},"geometry":{"x":175751.79000000097,"y":2582830.7899999972}},{"attributes":{"ID":60005,"DIS_CODE":0,"TOWNNAME":"鹽水區","LI":"汫水里","LIN":"4鄰","STREET":" ","SECT":" ","MAREA":"汫水港","LANE":" ","ALLEY":" ","HOUSE_NO":"１２２號之６","E_COORD97":175752.97,"N_COORD97":2582803.3799999999,"ADDRESS":"汫水港１２２號之６","OBJECTID":60005},"geometry":{"x":175752.96999999974,"y":2582803.3800000027}},{"attributes":{"ID":60006,"DIS_CODE":0,"TOWNNAME":"安南區","LI":"\u25A0南里","LIN":"1鄰","STREET":"安昌街","SECT":" ","MAREA":" ","LANE":"１７４巷","ALLEY":"３９弄","HOUSE_NO":"７７號","E_COORD97":170239.01999999999,"N_COORD97":2552353.0099999998,"ADDRESS":"安昌街１７４巷３９弄７７號","OBJECTID":60006},"geometry":{"x":170239.02000000048,"y":2552353.0099999998}},{"attributes":{"ID":60007,"DIS_CODE":0,"TOWNNAME":"安南區","LI":"\u25A0南里","LIN":"1鄰","STREET":"安昌街","SECT":" ","MAREA":" ","LANE":"１７４巷","ALLEY":"３９弄","HOUSE_NO":"７９號","E_COORD97":170243.10999999999,"N_COORD97":2552353.2599999998,"ADDRESS":"安昌街１７４巷３９弄７９號","OBJECTID":60007},"geometry":{"x":170243.11000000034,"y":2552353.2600000016}},{"attributes":{"ID":60008,"DIS_CODE":0,"TOWNNAME":"安南區","LI":"大安里","LIN":"1鄰","STREET":"大安街","SECT":" ","MAREA":" ","LANE":"２６巷","ALLEY":"４弄","HOUSE_NO":"２號","E_COORD97":167115.73000000001,"N_COORD97":2547902.9700000002,"ADDRESS":"大安街２６巷４弄２號","OBJECTID":60008},"geometry":{"x":167115.73000000138,"y":2547902.9700000007}},{"attributes":{"ID":60009,"DIS_CODE":0,"TOWNNAME":"安南區","LI":"安西里","LIN":"1鄰","STREET":"安和路","SECT":"一段","MAREA":" ","LANE":"１８５巷","ALLEY":"１弄","HOUSE_NO":"４號","E_COORD97":169304.34,"N_COORD97":2547855.27,"ADDRESS":"安和路一段１８５巷１弄４號","OBJECTID":60009},"geometry":{"x":169304.34000000171,"y":2547855.2699999996}},{"attributes":{"ID":60010,"DIS_CODE":0,"TOWNNAME":"安南區","LI":"安西里","LIN":"1鄰","STREET":"安和路","SECT":"一段","MAREA":" ","LANE":"１８５巷","ALLEY":"１弄","HOUSE_NO":"６號","E_COORD97":169306.69,"N_COORD97":2547850.5800000001,"ADDRESS":"安和路一段１８５巷１弄６號","OBJECTID":60010},"geometry":{"x":169306.69000000134,"y":2547850.5800000001}},{"attributes":{"ID":60011,"DIS_CODE":0,"TOWNNAME":"安南區","LI":"安西里","LIN":"1鄰","STREET":"安和路","SECT":"一段","MAREA":" ","LANE":"１８５巷","ALLEY":"１弄","HOUSE_NO":"１４號","E_COORD97":169311.78,"N_COORD97":2547833.7799999998,"ADDRESS":"安和路一段１８５巷１弄１４號","OBJECTID":60011},"geometry":{"x":169311.77999999933,"y":2547833.7800000012}},{"attributes":{"ID":60012,"DIS_CODE":0,"TOWNNAME":"安南區","LI":"安東里","LIN":"1鄰","STREET":"安和路","SECT":"一段","MAREA":" ","LANE":"３４０巷","ALLEY":"１弄","HOUSE_NO":"１號","E_COORD97":169295.97,"N_COORD97":2548168.5,"ADDRESS":"安和路一段３４０巷１弄１號","OBJECTID":60012},"geometry":{"x":169295.96999999974,"y":2548168.5000000019}},{"attributes":{"ID":60013,"DIS_CODE":0,"TOWNNAME":"東區","LI":"新東里","LIN":"1鄰","STREET":"東門路","SECT":"二段","MAREA":" ","LANE":"１６７巷","ALLEY":"６弄","HOUSE_NO":"１號","E_COORD97":170418.64000000001,"N_COORD97":2542893.73,"ADDRESS":"東門路二段１６７巷６弄１號","OBJECTID":60013},"geometry":{"x":170418.63999999966,"y":2542893.7300000004}},{"attributes":{"ID":60014,"DIS_CODE":0,"TOWNNAME":"東區","LI":"新東里","LIN":"1鄰","STREET":"東門路","SECT":"二段","MAREA":" ","LANE":"１６７巷","ALLEY":"６弄","HOUSE_NO":"２號","E_COORD97":170422.14000000001,"N_COORD97":2542876.3199999998,"ADDRESS":"東門路二段１６７巷６弄２號","OBJECTID":60014},"geometry":{"x":170422.13999999966,"y":2542876.320000004}},{"attributes":{"ID":60015,"DIS_CODE":0,"TOWNNAME":"東區","LI":"新東里","LIN":"1鄰","STREET":"東門路","SECT":"二段","MAREA":" ","LANE":"１６７巷","ALLEY":"６弄","HOUSE_NO":"３號","E_COORD97":170424.20999999999,"N_COORD97":2542894.1099999999,"ADDRESS":"東門路二段１６７巷６弄３號","OBJECTID":60015},"geometry":{"x":170424.21000000089,"y":2542894.1100000031}},{"attributes":{"ID":60016,"DIS_CODE":0,"TOWNNAME":"東區","LI":"新東里","LIN":"1鄰","STREET":"東門路","SECT":"二段","MAREA":" ","LANE":"１６７巷","ALLEY":"６弄","HOUSE_NO":"７號","E_COORD97":170434,"N_COORD97":2542894.7999999998,"ADDRESS":"東門路二段１６７巷６弄７號","OBJECTID":60016},"geometry":{"x":170434.00000000186,"y":2542894.8000000026}},{"attributes":{"ID":60017,"DIS_CODE":0,"TOWNNAME":"新化區","LI":"武安里","LIN":"14鄰","STREET":"健康路","SECT":" ","MAREA":" ","LANE":"１０１巷","ALLEY":"３弄","HOUSE_NO":"１號","E_COORD97":178799.53,"N_COORD97":2548129.2599999998,"ADDRESS":"健康路１０１巷３弄１號","OBJECTID":60017},"geometry":{"x":178799.53000000026,"y":2548129.2600000016}},{"attributes":{"ID":60018,"DIS_CODE":0,"TOWNNAME":"永康區","LI":"正強里","LIN":"1鄰","STREET":"中正路","SECT":" ","MAREA":" ","LANE":"１巷","ALLEY":"１弄","HOUSE_NO":"２０號","E_COORD97":173703.60000000001,"N_COORD97":2547592,"ADDRESS":"中正路１巷１弄２０號","OBJECTID":60018},"geometry":{"x":173703.60000000056,"y":2547592.0000000019}},{"attributes":{"ID":60019,"DIS_CODE":0,"TOWNNAME":"歸仁區","LI":"西埔里","LIN":"1鄰","STREET":"和順路","SECT":"一段","MAREA":" ","LANE":"１８８巷","ALLEY":"３８弄","HOUSE_NO":"３１號","E_COORD97":177069.25757099999,"N_COORD97":2543849.29262,"ADDRESS":"和順路一段１８８巷３８弄３１號","OBJECTID":60019},"geometry":{"x":177069.25757100061,"y":2543849.292617999}},{"attributes":{"ID":60020,"DIS_CODE":0,"TOWNNAME":"歸仁區","LI":"西埔里","LIN":"1鄰","STREET":"和順路","SECT":"一段","MAREA":" ","LANE":"２８８巷","ALLEY":"３８弄","HOUSE_NO":"１５號","E_COORD97":176828.75786000001,"N_COORD97":2543856.17178,"ADDRESS":"和順路一段２８８巷３８弄１５號","OBJECTID":60020},"geometry":{"x":176828.75786000118,"y":2543856.1717810016}},{"attributes":{"ID":60021,"DIS_CODE":0,"TOWNNAME":"安南區","LI":"總頭里","LIN":"1鄰","STREET":"北安路","SECT":"三段","MAREA":" ","LANE":"２９５巷","ALLEY":"６０弄","HOUSE_NO":"１號","E_COORD97":168695.01000000001,"N_COORD97":2549792.8500000001,"ADDRESS":"北安路三段２９５巷６０弄１號","OBJECTID":60021},"geometry":{"x":168695.01000000071,"y":2549792.8500000015}},{"attributes":{"ID":60022,"DIS_CODE":0,"TOWNNAME":"永康區","LI":"勝利里","LIN":"1鄰","STREET":"勝利街","SECT":" ","MAREA":" ","LANE":"１巷","ALLEY":"１１弄","HOUSE_NO":"２１號","E_COORD97":171077.73999999999,"N_COORD97":2544645.2599999998,"ADDRESS":"勝利街１巷１１弄２１號","OBJECTID":60022},"geometry":{"x":171077.74000000022,"y":2544645.2599999998}},{"attributes":{"ID":60023,"DIS_CODE":0,"TOWNNAME":"永康區","LI":"勝利里","LIN":"1鄰","STREET":"勝利街","SECT":" ","MAREA":" ","LANE":"１巷","ALLEY":"１１弄","HOUSE_NO":"２６號","E_COORD97":171101.57000000001,"N_COORD97":2544648.2599999998,"ADDRESS":"勝利街１巷１１弄２６號","OBJECTID":60023},"geometry":{"x":171101.5700000003,"y":2544648.2599999998}},{"attributes":{"ID":60024,"DIS_CODE":0,"TOWNNAME":"鹽水區","LI":"汫水里","LIN":"4鄰","STREET":" ","SECT":" ","MAREA":"汫水港","LANE":" ","ALLEY":" ","HOUSE_NO":"１２２號之７","E_COORD97":175754.19,"N_COORD97":2582794.8999999999,"ADDRESS":"汫水港１２２號之７","OBJECTID":60024},"geometry":{"x":175754.19000000041,"y":2582794.9000000022}},{"attributes":{"ID":60025,"DIS_CODE":0,"TOWNNAME":"安南區","LI":"原佃里","LIN":"5鄰","STREET":"本原街","SECT":"一段","MAREA":" ","LANE":"２６２巷","ALLEY":"７５弄","HOUSE_NO":"２之１號","E_COORD97":167682.07000000001,"N_COORD97":2550944.73,"ADDRESS":"本原街一段２６２巷７５弄２之１號","OBJECTID":60025},"geometry":{"x":167682.0700000003,"y":2550944.7300000004}},{"attributes":{"ID":60026,"DIS_CODE":0,"TOWNNAME":"安南區","LI":"原佃里","LIN":"5鄰","STREET":"本原街","SECT":"一段","MAREA":" ","LANE":"２６２巷","ALLEY":"７５弄","HOUSE_NO":"６之１號","E_COORD97":167667.78,"N_COORD97":2550946.7999999998,"ADDRESS":"本原街一段２６２巷７５弄６之１號","OBJECTID":60026},"geometry":{"x":167667.78000000119,"y":2550946.8000000026}},{"attributes":{"ID":60027,"DIS_CODE":0,"TOWNNAME":"安南區","LI":"原佃里","LIN":"5鄰","STREET":"本原街","SECT":"一段","MAREA":" ","LANE":"２６２巷","ALLEY":"７３弄","HOUSE_NO":"２２號","E_COORD97":167614.28,"N_COORD97":2550949.6600000001,"ADDRESS":"本原街一段２６２巷７３弄２２號","OBJECTID":60027},"geometry":{"x":167614.28000000026,"y":2550949.6599999983}},{"attributes":{"ID":60028,"DIS_CODE":0,"TOWNNAME":"安平區","LI":"國平里","LIN":"5鄰","STREET":"建平七街","SECT":" ","MAREA":" ","LANE":"３７０巷","ALLEY":"２１弄","HOUSE_NO":"３號","E_COORD97":165655.81,"N_COORD97":2543111.23,"ADDRESS":"建平七街３７０巷２１弄３號","OBJECTID":60028},"geometry":{"x":165655.80999999959,"y":2543111.2300000042}},{"attributes":{"ID":60029,"DIS_CODE":0,"TOWNNAME":"安南區","LI":"安和里","LIN":"5鄰","STREET":"府安路","SECT":"三段","MAREA":" ","LANE":"２８９巷","ALLEY":" ","HOUSE_NO":"３１號","E_COORD97":169817,"N_COORD97":2547798.23,"ADDRESS":"府安路三段２８９巷３１號","OBJECTID":60029},"geometry":{"x":169817.00000000186,"y":2547798.2300000023}},{"attributes":{"ID":60030,"DIS_CODE":0,"TOWNNAME":"安南區","LI":"安和里","LIN":"5鄰","STREET":"府安路","SECT":"三段","MAREA":" ","LANE":"２８９巷","ALLEY":" ","HOUSE_NO":"３５號","E_COORD97":169802.88,"N_COORD97":2547802.5499999998,"ADDRESS":"府安路三段２８９巷３５號","OBJECTID":60030},"geometry":{"x":169802.88000000082,"y":2547802.5500000026}},{"attributes":{"ID":60031,"DIS_CODE":0,"TOWNNAME":"安平區","LI":"國平里","LIN":"5鄰","STREET":"建平七街","SECT":" ","MAREA":" ","LANE":"３７０巷","ALLEY":"２１弄","HOUSE_NO":"１０號","E_COORD97":165638.62,"N_COORD97":2543125.1299999999,"ADDRESS":"建平七街３７０巷２１弄１０號","OBJECTID":60031},"geometry":{"x":165638.62000000011,"y":2543125.1300000008}},{"attributes":{"ID":60032,"DIS_CODE":0,"TOWNNAME":"安平區","LI":"國平里","LIN":"5鄰","STREET":"建平七街","SECT":" ","MAREA":" ","LANE":"３７０巷","ALLEY":"２１弄","HOUSE_NO":"１４號","E_COORD97":165629.34,"N_COORD97":2543126.2200000002,"ADDRESS":"建平七街３７０巷２１弄１４號","OBJECTID":60032},"geometry":{"x":165629.34000000078,"y":2543126.2200000025}},{"attributes":{"ID":60033,"DIS_CODE":0,"TOWNNAME":"安平區","LI":"國平里","LIN":"5鄰","STREET":"建平七街","SECT":" ","MAREA":" ","LANE":"３７０巷","ALLEY":"２１弄","HOUSE_NO":"１６號","E_COORD97":165625.26999999999,"N_COORD97":2543126.6099999999,"ADDRESS":"建平七街３７０巷２１弄１６號","OBJECTID":60033},"geometry":{"x":165625.26999999955,"y":2543126.6099999994}},{"attributes":{"ID":60034,"DIS_CODE":0,"TOWNNAME":"安平區","LI":"國平里","LIN":"5鄰","STREET":"建平七街","SECT":" ","MAREA":" ","LANE":"３７０巷","ALLEY":"２１弄","HOUSE_NO":"１８號","E_COORD97":165620.31,"N_COORD97":2543127.5299999998,"ADDRESS":"建平七街３７０巷２１弄１８號","OBJECTID":60034},"geometry":{"x":165620.30999999959,"y":2543127.5299999993}},{"attributes":{"ID":60035,"DIS_CODE":0,"TOWNNAME":"安平區","LI":"國平里","LIN":"5鄰","STREET":"建平七街","SECT":" ","MAREA":" ","LANE":"３７０巷","ALLEY":"２１弄","HOUSE_NO":"２０號","E_COORD97":165615.66,"N_COORD97":2543128.1499999999,"ADDRESS":"建平七街３７０巷２１弄２０號","OBJECTID":60035},"geometry":{"x":165615.66000000108,"y":2543128.1500000004}},{"attributes":{"ID":60036,"DIS_CODE":0,"TOWNNAME":"安平區","LI":"國平里","LIN":"5鄰","STREET":"建平七街","SECT":" ","MAREA":" ","LANE":"３７０巷","ALLEY":"２１弄","HOUSE_NO":"２２號","E_COORD97":165611.01000000001,"N_COORD97":2543128.9300000002,"ADDRESS":"建平七街３７０巷２１弄２２號","OBJECTID":60036},"geometry":{"x":165611.01000000164,"y":2543128.9299999997}},{"attributes":{"ID":60037,"DIS_CODE":0,"TOWNNAME":"安平區","LI":"國平里","LIN":"5鄰","STREET":"建平七街","SECT":" ","MAREA":" ","LANE":"３７０巷","ALLEY":"２１弄","HOUSE_NO":"２４號","E_COORD97":165606.20000000001,"N_COORD97":2543129.0800000001,"ADDRESS":"建平七街３７０巷２１弄２４號","OBJECTID":60037},"geometry":{"x":165606.20000000019,"y":2543129.0800000019}},{"attributes":{"ID":60038,"DIS_CODE":0,"TOWNNAME":"安平區","LI":"國平里","LIN":"5鄰","STREET":"建平七街","SECT":" ","MAREA":" ","LANE":"３７０巷","ALLEY":"２１弄","HOUSE_NO":"２６號","E_COORD97":165601.85999999999,"N_COORD97":2543129.7000000002,"ADDRESS":"建平七街３７０巷２１弄２６號","OBJECTID":60038},"geometry":{"x":165601.86000000034,"y":2543129.6999999993}},{"attributes":{"ID":60039,"DIS_CODE":0,"TOWNNAME":"安平區","LI":"國平里","LIN":"5鄰","STREET":"建平七街","SECT":" ","MAREA":" ","LANE":"３７０巷","ALLEY":"２１弄","HOUSE_NO":"２８號","E_COORD97":165597.22,"N_COORD97":2543130.0099999998,"ADDRESS":"建平七街３７０巷２１弄２８號","OBJECTID":60039},"geometry":{"x":165597.21999999974,"y":2543130.0100000016}},{"attributes":{"ID":60040,"DIS_CODE":0,"TOWNNAME":"安平區","LI":"國平里","LIN":"5鄰","STREET":"建平七街","SECT":" ","MAREA":" ","LANE":"３７０巷","ALLEY":"２１弄","HOUSE_NO":"３０號","E_COORD97":165593.19,"N_COORD97":2543130.48,"ADDRESS":"建平七街３７０巷２１弄３０號","OBJECTID":60040},"geometry":{"x":165593.19000000041,"y":2543130.4800000023}},{"attributes":{"ID":60041,"DIS_CODE":0,"TOWNNAME":"安平區","LI":"國平里","LIN":"5鄰","STREET":"建平七街","SECT":" ","MAREA":" ","LANE":"３７０巷","ALLEY":"２１弄","HOUSE_NO":"３２號","E_COORD97":165588.23000000001,"N_COORD97":2543131.25,"ADDRESS":"建平七街３７０巷２１弄３２號","OBJECTID":60041},"geometry":{"x":165588.23000000138,"y":2543131.2500000019}},{"attributes":{"ID":60042,"DIS_CODE":0,"TOWNNAME":"安平區","LI":"國平里","LIN":"5鄰","STREET":"建平七街","SECT":" ","MAREA":" ","LANE":"３７０巷","ALLEY":"２１弄","HOUSE_NO":"４１號","E_COORD97":165581.29999999999,"N_COORD97":2543120.4199999999,"ADDRESS":"建平七街３７０巷２１弄４１號","OBJECTID":60042},"geometry":{"x":165581.29999999981,"y":2543120.4200000018}},{"attributes":{"ID":60043,"DIS_CODE":0,"TOWNNAME":"安平區","LI":"國平里","LIN":"5鄰","STREET":"建平七街","SECT":" ","MAREA":" ","LANE":"３７０巷","ALLEY":"２１弄","HOUSE_NO":"４３號","E_COORD97":165576.72,"N_COORD97":2543120.9100000001,"ADDRESS":"建平七街３７０巷２１弄４３號","OBJECTID":60043},"geometry":{"x":165576.71999999974,"y":2543120.910000002}},{"attributes":{"ID":60044,"DIS_CODE":0,"TOWNNAME":"安平區","LI":"國平里","LIN":"5鄰","STREET":"建平七街","SECT":" ","MAREA":" ","LANE":"３７０巷","ALLEY":"２１弄","HOUSE_NO":"４５號","E_COORD97":165572.78,"N_COORD97":2543121.0699999998,"ADDRESS":"建平七街３７０巷２１弄４５號","OBJECTID":60044},"geometry":{"x":165572.78000000119,"y":2543121.0700000003}},{"attributes":{"ID":60045,"DIS_CODE":0,"TOWNNAME":"安平區","LI":"國平里","LIN":"5鄰","STREET":"建平七街","SECT":" ","MAREA":" ","LANE":"３７０巷","ALLEY":"２１弄","HOUSE_NO":"４７號","E_COORD97":165567.87,"N_COORD97":2543122.0499999998,"ADDRESS":"建平七街３７０巷２１弄４７號","OBJECTID":60045},"geometry":{"x":165567.87000000011,"y":2543122.0500000007}},{"attributes":{"ID":60046,"DIS_CODE":0,"TOWNNAME":"鹽水區","LI":"汫水里","LIN":"4鄰","STREET":" ","SECT":" ","MAREA":"汫水港","LANE":" ","ALLEY":" ","HOUSE_NO":"１２２號之８","E_COORD97":175776.87,"N_COORD97":2582847.0899999999,"ADDRESS":"汫水港１２２號之８","OBJECTID":60046},"geometry":{"x":175776.87000000104,"y":2582847.0900000017}},{"attributes":{"ID":60047,"DIS_CODE":0,"TOWNNAME":"鹽水區","LI":"汫水里","LIN":"4鄰","STREET":" ","SECT":" ","MAREA":"汫水港","LANE":" ","ALLEY":" ","HOUSE_NO":"１２２號之９","E_COORD97":175782.66,"N_COORD97":2582816.0099999998,"ADDRESS":"汫水港１２２號之９","OBJECTID":60047},"geometry":{"x":175782.66000000015,"y":2582816.0099999998}},{"attributes":{"ID":60048,"DIS_CODE":0,"TOWNNAME":"安平區","LI":"國平里","LIN":"5鄰","STREET":"建平七街","SECT":" ","MAREA":" ","LANE":"３７０巷","ALLEY":"２１弄","HOUSE_NO":"４９號","E_COORD97":165564.42999999999,"N_COORD97":2543122.0499999998,"ADDRESS":"建平七街３７０巷２１弄４９號","OBJECTID":60048},"geometry":{"x":165564.43000000063,"y":2543122.0500000007}},{"attributes":{"ID":60049,"DIS_CODE":0,"TOWNNAME":"安平區","LI":"國平里","LIN":"5鄰","STREET":"建平七街","SECT":" ","MAREA":" ","LANE":"３７０巷","ALLEY":"２１弄","HOUSE_NO":"５１號","E_COORD97":165558.85000000001,"N_COORD97":2543122.54,"ADDRESS":"建平七街３７０巷２１弄５１號","OBJECTID":60049},"geometry":{"x":165558.84999999963,"y":2543122.540000001}},{"attributes":{"ID":60050,"DIS_CODE":0,"TOWNNAME":"六甲區","LI":"甲東里","LIN":" ","STREET":"忠孝街","SECT":" ","MAREA":" ","LANE":" ","ALLEY":" ","HOUSE_NO":"８８號","E_COORD97":183905.82000000001,"N_COORD97":2569617.3700000001,"ADDRESS":"忠孝街８８號","OBJECTID":60050},"geometry":{"x":183905.82000000123,"y":2569617.3700000029}},{"attributes":{"ID":60051,"DIS_CODE":0,"TOWNNAME":"鹽水區","LI":"汫水里","LIN":"4鄰","STREET":" ","SECT":" ","MAREA":"汫水港","LANE":" ","ALLEY":" ","HOUSE_NO":"１２４號之１","E_COORD97":175687.28,"N_COORD97":2582825.0299999998,"ADDRESS":"汫水港１２４號之１","OBJECTID":60051},"geometry":{"x":175687.28000000026,"y":2582825.0299999993}},{"attributes":{"ID":60052,"DIS_CODE":0,"TOWNNAME":"鹽水區","LI":"汫水里","LIN":"4鄰","STREET":" ","SECT":" ","MAREA":"汫水港","LANE":" ","ALLEY":" ","HOUSE_NO":"１２４號之２","E_COORD97":175687.10999999999,"N_COORD97":2582821.2799999998,"ADDRESS":"汫水港１２４號之２","OBJECTID":60052},"geometry":{"x":175687.1100000022,"y":2582821.2800000031}},{"attributes":{"ID":60053,"DIS_CODE":0,"TOWNNAME":"鹽水區","LI":"汫水里","LIN":"4鄰","STREET":" ","SECT":" ","MAREA":"汫水港","LANE":" ","ALLEY":" ","HOUSE_NO":"１２４號之３","E_COORD97":175686.73999999999,"N_COORD97":2582816.8599999999,"ADDRESS":"汫水港１２４號之３","OBJECTID":60053},"geometry":{"x":175686.74000000115,"y":2582816.8599999994}},{"attributes":{"ID":60054,"DIS_CODE":0,"TOWNNAME":"鹽水區","LI":"汫水里","LIN":"4鄰","STREET":" ","SECT":" ","MAREA":"汫水港","LANE":" ","ALLEY":" ","HOUSE_NO":"１２４號之４","E_COORD97":175686.98000000001,"N_COORD97":2582812.6800000002,"ADDRESS":"汫水港１２４號之４","OBJECTID":60054},"geometry":{"x":175686.98000000138,"y":2582812.6800000016}},{"attributes":{"ID":60055,"DIS_CODE":0,"TOWNNAME":"鹽水區","LI":"汫水里","LIN":"4鄰","STREET":" ","SECT":" ","MAREA":"汫水港","LANE":" ","ALLEY":" ","HOUSE_NO":"１２４號之５","E_COORD97":175686.72,"N_COORD97":2582808.98,"ADDRESS":"汫水港１２４號之５","OBJECTID":60055},"geometry":{"x":175686.71999999974,"y":2582808.9800000023}},{"attributes":{"ID":60056,"DIS_CODE":0,"TOWNNAME":"安平區","LI":"國平里","LIN":"5鄰","STREET":"建平七街","SECT":" ","MAREA":" ","LANE":"３７０巷","ALLEY":"２１弄","HOUSE_NO":"５３號","E_COORD97":165555.09,"N_COORD97":2543123.0299999998,"ADDRESS":"建平七街３７０巷２１弄５３號","OBJECTID":60056},"geometry":{"x":165555.09000000078,"y":2543123.0300000012}},{"attributes":{"ID":60057,"DIS_CODE":0,"TOWNNAME":"安平區","LI":"國平里","LIN":"5鄰","STREET":"建平七街","SECT":" ","MAREA":" ","LANE":"３７０巷","ALLEY":"２１弄","HOUSE_NO":"５５號","E_COORD97":165550,"N_COORD97":2543123.8500000001,"ADDRESS":"建平七街３７０巷２１弄５５號","OBJECTID":60057},"geometry":{"x":165550,"y":2543123.8500000015}},{"attributes":{"ID":60058,"DIS_CODE":0,"TOWNNAME":"安平區","LI":"國平里","LIN":"5鄰","STREET":"建平七街","SECT":" ","MAREA":" ","LANE":"３７０巷","ALLEY":"２１弄","HOUSE_NO":"５７號","E_COORD97":165546.39999999999,"N_COORD97":2543123.8500000001,"ADDRESS":"建平七街３７０巷２１弄５７號","OBJECTID":60058},"geometry":{"x":165546.4000000013,"y":2543123.8500000015}},{"attributes":{"ID":60059,"DIS_CODE":0,"TOWNNAME":"安平區","LI":"國平里","LIN":"5鄰","STREET":"建平七街","SECT":" ","MAREA":" ","LANE":"３７０巷","ALLEY":"２１弄","HOUSE_NO":"５９號","E_COORD97":165541.81,"N_COORD97":2543124.5099999998,"ADDRESS":"建平七街３７０巷２１弄５９號","OBJECTID":60059},"geometry":{"x":165541.80999999959,"y":2543124.5099999998}},{"attributes":{"ID":60060,"DIS_CODE":0,"TOWNNAME":"安平區","LI":"國平里","LIN":"5鄰","STREET":"建平七街","SECT":" ","MAREA":" ","LANE":"３７０巷","ALLEY":"２１弄","HOUSE_NO":"６１號","E_COORD97":165538.20999999999,"N_COORD97":2543125.1600000001,"ADDRESS":"建平七街３７０巷２１弄６１號","OBJECTID":60060},"geometry":{"x":165538.20999999996,"y":2543125.160000002}},{"attributes":{"ID":60061,"DIS_CODE":0,"TOWNNAME":"安平區","LI":"國平里","LIN":"5鄰","STREET":"建平七街","SECT":" ","MAREA":" ","LANE":"３７０巷","ALLEY":"２１弄","HOUSE_NO":"６３號","E_COORD97":165533.62,"N_COORD97":2543125.98,"ADDRESS":"建平七街３７０巷２１弄６３號","OBJECTID":60061},"geometry":{"x":165533.62000000011,"y":2543125.9800000004}},{"attributes":{"ID":60062,"DIS_CODE":0,"TOWNNAME":"安平區","LI":"國平里","LIN":"5鄰","STREET":"建平七街","SECT":" ","MAREA":" ","LANE":"３７０巷","ALLEY":"２１弄","HOUSE_NO":"６５號","E_COORD97":165528.70000000001,"N_COORD97":2543126.3100000001,"ADDRESS":"建平七街３７０巷２１弄６５號","OBJECTID":60062},"geometry":{"x":165528.70000000205,"y":2543126.3100000005}},{"attributes":{"ID":60063,"DIS_CODE":0,"TOWNNAME":"安平區","LI":"國平里","LIN":"5鄰","STREET":"建平七街","SECT":" ","MAREA":" ","LANE":"３７０巷","ALLEY":"２１弄","HOUSE_NO":"６７號","E_COORD97":165524.76999999999,"N_COORD97":2543126.3100000001,"ADDRESS":"建平七街３７０巷２１弄６７號","OBJECTID":60063},"geometry":{"x":165524.77000000048,"y":2543126.3100000005}},{"attributes":{"ID":60064,"DIS_CODE":0,"TOWNNAME":"安平區","LI":"國平里","LIN":"5鄰","STREET":"建平七街","SECT":" ","MAREA":" ","LANE":"３７０巷","ALLEY":"２１弄","HOUSE_NO":"６９號","E_COORD97":165520.67000000001,"N_COORD97":2543127.1299999999,"ADDRESS":"建平七街３７０巷２１弄６９號","OBJECTID":60064},"geometry":{"x":165520.67000000086,"y":2543127.1300000027}},{"attributes":{"ID":60065,"DIS_CODE":0,"TOWNNAME":"安平區","LI":"國平里","LIN":"5鄰","STREET":"建平七街","SECT":" ","MAREA":" ","LANE":"３７０巷","ALLEY":"２１弄","HOUSE_NO":"７１號","E_COORD97":165516.07999999999,"N_COORD97":2543127.1299999999,"ADDRESS":"建平七街３７０巷２１弄７１號","OBJECTID":60065},"geometry":{"x":165516.08000000101,"y":2543127.1300000027}},{"attributes":{"ID":60066,"DIS_CODE":0,"TOWNNAME":"安平區","LI":"國平里","LIN":"5鄰","STREET":"建平七街","SECT":" ","MAREA":" ","LANE":"３７０巷","ALLEY":"２１弄","HOUSE_NO":"８號","E_COORD97":165643.26000000001,"N_COORD97":2543124.3100000001,"ADDRESS":"建平七街３７０巷２１弄８號","OBJECTID":60066},"geometry":{"x":165643.26000000071,"y":2543124.3100000042}},{"attributes":{"ID":60067,"DIS_CODE":0,"TOWNNAME":"南區","LI":"建南里","LIN":"5鄰","STREET":"德興路","SECT":" ","MAREA":" ","LANE":"２８１巷","ALLEY":"３０弄","HOUSE_NO":"１號","E_COORD97":167320.67000000001,"N_COORD97":2539927.2799999998,"ADDRESS":"德興路２８１巷３０弄１號","OBJECTID":60067},"geometry":{"x":167320.67000000086,"y":2539927.2800000012}},{"attributes":{"ID":60068,"DIS_CODE":0,"TOWNNAME":"安平區","LI":"國平里","LIN":"5鄰","STREET":"建平七街","SECT":" ","MAREA":" ","LANE":"３７０巷","ALLEY":"２１弄","HOUSE_NO":"１號","E_COORD97":165661.81,"N_COORD97":2543109.6000000001,"ADDRESS":"建平七街３７０巷２１弄１號","OBJECTID":60068},"geometry":{"x":165661.81000000052,"y":2543109.5999999996}},{"attributes":{"ID":60069,"DIS_CODE":0,"TOWNNAME":"安平區","LI":"國平里","LIN":"5鄰","STREET":"建平七街","SECT":" ","MAREA":" ","LANE":"３７０巷","ALLEY":"２１弄","HOUSE_NO":"５號","E_COORD97":165650.63,"N_COORD97":2543111.23,"ADDRESS":"建平七街３７０巷２１弄５號","OBJECTID":60069},"geometry":{"x":165650.62999999989,"y":2543111.2300000042}},{"attributes":{"ID":60070,"DIS_CODE":0,"TOWNNAME":"安平區","LI":"國平里","LIN":"5鄰","STREET":"建平七街","SECT":" ","MAREA":" ","LANE":"３７０巷","ALLEY":"２１弄","HOUSE_NO":"１１號","E_COORD97":165637.53,"N_COORD97":2543112.3199999998,"ADDRESS":"建平七街３７０巷２１弄１１號","OBJECTID":60070},"geometry":{"x":165637.53000000119,"y":2543112.3200000003}},{"attributes":{"ID":60071,"DIS_CODE":0,"TOWNNAME":"安平區","LI":"國平里","LIN":"5鄰","STREET":"建平七街","SECT":" ","MAREA":" ","LANE":"３７０巷","ALLEY":"２１弄","HOUSE_NO":"１３號","E_COORD97":165632.07000000001,"N_COORD97":2543112.5899999999,"ADDRESS":"建平七街３７０巷２１弄１３號","OBJECTID":60071},"geometry":{"x":165632.07000000123,"y":2543112.5900000017}},{"attributes":{"ID":60072,"DIS_CODE":0,"TOWNNAME":"安平區","LI":"國平里","LIN":"5鄰","STREET":"建平七街","SECT":" ","MAREA":" ","LANE":"３７０巷","ALLEY":"２１弄","HOUSE_NO":"１５號","E_COORD97":165627.54999999999,"N_COORD97":2543113.1499999999,"ADDRESS":"建平七街３７０巷２１弄１５號","OBJECTID":60072},"geometry":{"x":165627.55000000168,"y":2543113.1500000022}},{"attributes":{"ID":60073,"DIS_CODE":0,"TOWNNAME":"北區","LI":"國姓里","LIN":"8鄰","STREET":"小北路","SECT":" ","MAREA":" ","LANE":" ","ALLEY":" ","HOUSE_NO":"５１號二樓","E_COORD97":168832.01999999999,"N_COORD97":2545282.7200000002,"ADDRESS":"小北路５１號二樓","OBJECTID":60073},"geometry":{"x":168832.02000000048,"y":2545282.7200000025}},{"attributes":{"ID":60074,"DIS_CODE":0,"TOWNNAME":"北區","LI":"國姓里","LIN":"8鄰","STREET":"小北路","SECT":" ","MAREA":" ","LANE":" ","ALLEY":" ","HOUSE_NO":"５１號三樓之１","E_COORD97":168832.01999999999,"N_COORD97":2545282.7200000002,"ADDRESS":"小北路５１號三樓之１","OBJECTID":60074},"geometry":{"x":168832.02000000048,"y":2545282.7200000025}},{"attributes":{"ID":60075,"DIS_CODE":0,"TOWNNAME":"北區","LI":"國姓里","LIN":"8鄰","STREET":"小北路","SECT":" ","MAREA":" ","LANE":" ","ALLEY":" ","HOUSE_NO":"５１號三樓之２","E_COORD97":168832.01999999999,"N_COORD97":2545282.7200000002,"ADDRESS":"小北路５１號三樓之２","OBJECTID":60075},"geometry":{"x":168832.02000000048,"y":2545282.7200000025}},{"attributes":{"ID":60076,"DIS_CODE":0,"TOWNNAME":"北區","LI":"國姓里","LIN":"8鄰","STREET":"小北路","SECT":" ","MAREA":" ","LANE":" ","ALLEY":" ","HOUSE_NO":"５１號四樓","E_COORD97":168832.01999999999,"N_COORD97":2545282.7200000002,"ADDRESS":"小北路５１號四樓","OBJECTID":60076},"geometry":{"x":168832.02000000048,"y":2545282.7200000025}},{"attributes":{"ID":60077,"DIS_CODE":0,"TOWNNAME":"北區","LI":"國姓里","LIN":"8鄰","STREET":"小北路","SECT":" ","MAREA":" ","LANE":" ","ALLEY":" ","HOUSE_NO":"５７號二樓","E_COORD97":168859.32000000001,"N_COORD97":2545300.3799999999,"ADDRESS":"小北路５７號二樓","OBJECTID":60077},"geometry":{"x":168859.32000000123,"y":2545300.3800000008}},{"attributes":{"ID":60078,"DIS_CODE":0,"TOWNNAME":"北區","LI":"國姓里","LIN":"8鄰","STREET":"小北路","SECT":" ","MAREA":" ","LANE":" ","ALLEY":" ","HOUSE_NO":"５７號三樓","E_COORD97":168859.32000000001,"N_COORD97":2545300.3799999999,"ADDRESS":"小北路５７號三樓","OBJECTID":60078},"geometry":{"x":168859.32000000123,"y":2545300.3800000008}},{"attributes":{"ID":60079,"DIS_CODE":0,"TOWNNAME":"北區","LI":"國姓里","LIN":"8鄰","STREET":"小北路","SECT":" ","MAREA":" ","LANE":" ","ALLEY":" ","HOUSE_NO":"５７號五樓","E_COORD97":168859.32000000001,"N_COORD97":2545300.3799999999,"ADDRESS":"小北路５７號五樓","OBJECTID":60079},"geometry":{"x":168859.32000000123,"y":2545300.3800000008}},{"attributes":{"ID":60080,"DIS_CODE":0,"TOWNNAME":"安平區","LI":"國平里","LIN":"5鄰","STREET":"建平七街","SECT":" ","MAREA":" ","LANE":"３７０巷","ALLEY":"２１弄","HOUSE_NO":"１７號","E_COORD97":165623.07000000001,"N_COORD97":2543114.71,"ADDRESS":"建平七街３７０巷２１弄１７號","OBJECTID":60080},"geometry":{"x":165623.07000000123,"y":2543114.7100000009}},{"attributes":{"ID":60081,"DIS_CODE":0,"TOWNNAME":"鹽水區","LI":"汫水里","LIN":"4鄰","STREET":" ","SECT":" ","MAREA":"汫水港","LANE":" ","ALLEY":" ","HOUSE_NO":"１２５號","E_COORD97":175696.57000000001,"N_COORD97":2582800.0299999998,"ADDRESS":"汫水港１２５號","OBJECTID":60081},"geometry":{"x":175696.5700000003,"y":2582800.0300000012}},{"attributes":{"ID":60082,"DIS_CODE":0,"TOWNNAME":"鹽水區","LI":"汫水里","LIN":"4鄰","STREET":" ","SECT":" ","MAREA":"汫水港","LANE":" ","ALLEY":" ","HOUSE_NO":"１２６號之１","E_COORD97":175790.42999999999,"N_COORD97":2582791.1000000001,"ADDRESS":"汫水港１２６號之１","OBJECTID":60082},"geometry":{"x":175790.4299999997,"y":2582791.0999999996}},{"attributes":{"ID":60083,"DIS_CODE":0,"TOWNNAME":"鹽水區","LI":"汫水里","LIN":"1鄰","STREET":" ","SECT":" ","MAREA":"汫水港","LANE":" ","ALLEY":" ","HOUSE_NO":"１２８號之６","E_COORD97":175692.84,"N_COORD97":2582587.8500000001,"ADDRESS":"汫水港１２８號之６","OBJECTID":60083},"geometry":{"x":175692.83999999985,"y":2582587.8500000015}},{"attributes":{"ID":60084,"DIS_CODE":0,"TOWNNAME":"鹽水區","LI":"汫水里","LIN":"1鄰","STREET":" ","SECT":" ","MAREA":"汫水港","LANE":" ","ALLEY":" ","HOUSE_NO":"１２８號之７","E_COORD97":175696.79999999999,"N_COORD97":2582587.6800000002,"ADDRESS":"汫水港１２８號之７","OBJECTID":60084},"geometry":{"x":175696.79999999981,"y":2582587.6799999997}},{"attributes":{"ID":60085,"DIS_CODE":0,"TOWNNAME":"鹽水區","LI":"汫水里","LIN":"1鄰","STREET":" ","SECT":" ","MAREA":"汫水港","LANE":" ","ALLEY":" ","HOUSE_NO":"１２８號","E_COORD97":175684.63,"N_COORD97":2582721.5699999998,"ADDRESS":"汫水港１２８號","OBJECTID":60085},"geometry":{"x":175684.63000000175,"y":2582721.5700000003}},{"attributes":{"ID":60086,"DIS_CODE":0,"TOWNNAME":"鹽水區","LI":"汫水里","LIN":"1鄰","STREET":" ","SECT":" ","MAREA":"汫水港","LANE":" ","ALLEY":" ","HOUSE_NO":"１２９號","E_COORD97":175643.51000000001,"N_COORD97":2582741.1200000001,"ADDRESS":"汫水港１２９號","OBJECTID":60086},"geometry":{"x":175643.51000000071,"y":2582741.120000001}},{"attributes":{"ID":60087,"DIS_CODE":0,"TOWNNAME":"南區","LI":"光明里","LIN":"5鄰","STREET":"鹽埕路","SECT":" ","MAREA":" ","LANE":"２９１巷","ALLEY":"１４弄","HOUSE_NO":"１６１號","E_COORD97":166765.32999999999,"N_COORD97":2541491.5899999999,"ADDRESS":"鹽埕路２９１巷１４弄１６１號","OBJECTID":60087},"geometry":{"x":166765.33000000101,"y":2541491.5900000017}},{"attributes":{"ID":60088,"DIS_CODE":0,"TOWNNAME":"南區","LI":"光明里","LIN":"5鄰","STREET":"鹽埕路","SECT":" ","MAREA":" ","LANE":"２９１巷","ALLEY":"１４弄","HOUSE_NO":"１６３號","E_COORD97":166769.78,"N_COORD97":2541490,"ADDRESS":"鹽埕路２９１巷１４弄１６３號","OBJECTID":60088},"geometry":{"x":166769.78000000119,"y":2541490}},{"attributes":{"ID":60089,"DIS_CODE":0,"TOWNNAME":"南區","LI":"光明里","LIN":"5鄰","STREET":"鹽埕路","SECT":" ","MAREA":" ","LANE":"２９１巷","ALLEY":"１４弄","HOUSE_NO":"１６５號","E_COORD97":166773.92000000001,"N_COORD97":2541488.73,"ADDRESS":"鹽埕路２９１巷１４弄１６５號","OBJECTID":60089},"geometry":{"x":166773.91999999993,"y":2541488.7300000023}},{"attributes":{"ID":60090,"DIS_CODE":0,"TOWNNAME":"南區","LI":"光明里","LIN":"5鄰","STREET":"鹽埕路","SECT":" ","MAREA":" ","LANE":"２９１巷","ALLEY":"１４弄","HOUSE_NO":"１６９號","E_COORD97":166782.51000000001,"N_COORD97":2541485.3900000001,"ADDRESS":"鹽埕路２９１巷１４弄１６９號","OBJECTID":60090},"geometry":{"x":166782.51000000071,"y":2541485.3900000006}},{"attributes":{"ID":60091,"DIS_CODE":0,"TOWNNAME":"南區","LI":"光明里","LIN":"5鄰","STREET":"鹽埕路","SECT":" ","MAREA":" ","LANE":"２９１巷","ALLEY":"１４弄","HOUSE_NO":"１７１號","E_COORD97":166792.69,"N_COORD97":2541475.0600000001,"ADDRESS":"鹽埕路２９１巷１４弄１７１號","OBJECTID":60091},"geometry":{"x":166792.69000000134,"y":2541475.0600000042}},{"attributes":{"ID":60092,"DIS_CODE":0,"TOWNNAME":"南區","LI":"光明里","LIN":"5鄰","STREET":"鹽埕路","SECT":" ","MAREA":" ","LANE":"２９１巷","ALLEY":"１４弄","HOUSE_NO":"１７３號","E_COORD97":166793.95999999999,"N_COORD97":2541478.8700000001,"ADDRESS":"鹽埕路２９１巷１４弄１７３號","OBJECTID":60092},"geometry":{"x":166793.95999999996,"y":2541478.870000001}},{"attributes":{"ID":60093,"DIS_CODE":0,"TOWNNAME":"南區","LI":"光明里","LIN":"5鄰","STREET":"鹽埕路","SECT":" ","MAREA":" ","LANE":"２９１巷","ALLEY":"１４弄","HOUSE_NO":"１７９號","E_COORD97":166798.42000000001,"N_COORD97":2541491.96,"ADDRESS":"鹽埕路２９１巷１４弄１７９號","OBJECTID":60093},"geometry":{"x":166798.42000000179,"y":2541491.9600000009}},{"attributes":{"ID":60094,"DIS_CODE":0,"TOWNNAME":"南區","LI":"光明里","LIN":"5鄰","STREET":"鹽埕路","SECT":" ","MAREA":" ","LANE":"２９１巷","ALLEY":"１４弄","HOUSE_NO":"１８１號","E_COORD97":166799.42999999999,"N_COORD97":2541496.4399999999,"ADDRESS":"鹽埕路２９１巷１４弄１８１號","OBJECTID":60094},"geometry":{"x":166799.4299999997,"y":2541496.4400000013}},{"attributes":{"ID":60095,"DIS_CODE":0,"TOWNNAME":"南區","LI":"光明里","LIN":"5鄰","STREET":"鹽埕路","SECT":" ","MAREA":" ","LANE":"２９１巷","ALLEY":"１４弄","HOUSE_NO":"１８３號","E_COORD97":166801.03,"N_COORD97":2541500.3500000001,"ADDRESS":"鹽埕路２９１巷１４弄１８３號","OBJECTID":60095},"geometry":{"x":166801.03000000026,"y":2541500.3500000015}},{"attributes":{"ID":60096,"DIS_CODE":0,"TOWNNAME":"南區","LI":"光明里","LIN":"5鄰","STREET":"鹽埕路","SECT":" ","MAREA":" ","LANE":"２９１巷","ALLEY":"１４弄","HOUSE_NO":"１８５號","E_COORD97":166803.63,"N_COORD97":2541505.1200000001,"ADDRESS":"鹽埕路２９１巷１４弄１８５號","OBJECTID":60096},"geometry":{"x":166803.63000000175,"y":2541505.120000001}},{"attributes":{"ID":60097,"DIS_CODE":0,"TOWNNAME":"南區","LI":"光明里","LIN":"5鄰","STREET":"鹽埕路","SECT":" ","MAREA":" ","LANE":"２９１巷","ALLEY":"１４弄","HOUSE_NO":"１８７號","E_COORD97":166785.13,"N_COORD97":2541504.9399999999,"ADDRESS":"鹽埕路２９１巷１４弄１８７號","OBJECTID":60097},"geometry":{"x":166785.13000000082,"y":2541504.9400000032}},{"attributes":{"ID":60098,"DIS_CODE":0,"TOWNNAME":"永康區","LI":"二王里","LIN":"35鄰","STREET":"中山南路","SECT":" ","MAREA":" ","LANE":"４９０巷","ALLEY":"２弄","HOUSE_NO":"２７號","E_COORD97":172086.39999999999,"N_COORD97":2546350.73,"ADDRESS":"中山南路４９０巷２弄２７號","OBJECTID":60098},"geometry":{"x":172086.4000000013,"y":2546350.7300000004}},{"attributes":{"ID":60099,"DIS_CODE":0,"TOWNNAME":"南區","LI":"光明里","LIN":"5鄰","STREET":"鹽埕路","SECT":" ","MAREA":" ","LANE":"２９１巷","ALLEY":"１４弄","HOUSE_NO":"１６７號","E_COORD97":166778.20999999999,"N_COORD97":2541487.2999999998,"ADDRESS":"鹽埕路２９１巷１４弄１６７號","OBJECTID":60099},"geometry":{"x":166778.21000000089,"y":2541487.3000000026}},{"attributes":{"ID":60100,"DIS_CODE":0,"TOWNNAME":"南區","LI":"光明里","LIN":"5鄰","STREET":"鹽埕路","SECT":" ","MAREA":" ","LANE":"２９１巷","ALLEY":"１４弄","HOUSE_NO":"１７５號","E_COORD97":166794.07999999999,"N_COORD97":2541485.2999999998,"ADDRESS":"鹽埕路２９１巷１４弄１７５號","OBJECTID":60100},"geometry":{"x":166794.08000000194,"y":2541485.3000000026}},{"attributes":{"ID":60101,"DIS_CODE":0,"TOWNNAME":"七股區","LI":"後港里","LIN":"6鄰","STREET":" ","SECT":" ","MAREA":"港東","LANE":" ","ALLEY":" ","HOUSE_NO":"５７號","E_COORD97":162721.79000000001,"N_COORD97":2565178.6600000001,"ADDRESS":"港東５７號","OBJECTID":60101},"geometry":{"x":162721.79000000004,"y":2565178.6600000001}},{"attributes":{"ID":60102,"DIS_CODE":0,"TOWNNAME":"安平區","LI":"國平里","LIN":"5鄰","STREET":"建平七街","SECT":" ","MAREA":" ","LANE":"３７０巷","ALLEY":"２１弄","HOUSE_NO":"７８號","E_COORD97":165499.10000000001,"N_COORD97":2543144.5899999999,"ADDRESS":"建平七街３７０巷２１弄７８號","OBJECTID":60102},"geometry":{"x":165499.09999999963,"y":2543144.5899999999}},{"attributes":{"ID":60103,"DIS_CODE":0,"TOWNNAME":"安平區","LI":"國平里","LIN":"5鄰","STREET":"建平七街","SECT":" ","MAREA":" ","LANE":"３７０巷","ALLEY":"２１弄","HOUSE_NO":"７６號","E_COORD97":165504.01999999999,"N_COORD97":2543144.27,"ADDRESS":"建平七街３７０巷２１弄７６號","OBJECTID":60103},"geometry":{"x":165504.02000000048,"y":2543144.2700000014}},{"attributes":{"ID":60104,"DIS_CODE":0,"TOWNNAME":"安平區","LI":"國平里","LIN":"5鄰","STREET":"建平七街","SECT":" ","MAREA":" ","LANE":"３７０巷","ALLEY":"２１弄","HOUSE_NO":"８２號","E_COORD97":165490.67999999999,"N_COORD97":2543144.9100000001,"ADDRESS":"建平七街３７０巷２１弄８２號","OBJECTID":60104},"geometry":{"x":165490.6799999997,"y":2543144.910000002}},{"attributes":{"ID":60105,"DIS_CODE":0,"TOWNNAME":"鹽水區","LI":"汫水里","LIN":"1鄰","STREET":" ","SECT":" ","MAREA":"汫水港","LANE":" ","ALLEY":" ","HOUSE_NO":"１３０號之１","E_COORD97":175648.91,"N_COORD97":2582712.3399999999,"ADDRESS":"汫水港１３０號之１","OBJECTID":60105},"geometry":{"x":175648.91000000015,"y":2582712.3399999999}},{"attributes":{"ID":60106,"DIS_CODE":0,"TOWNNAME":"安平區","LI":"平安里","LIN":"5鄰","STREET":"安平路","SECT":" ","MAREA":" ","LANE":"３３６巷","ALLEY":"７弄","HOUSE_NO":"１號","E_COORD97":165652,"N_COORD97":2544359.2599999998,"ADDRESS":"安平路３３６巷７弄１號","OBJECTID":60106},"geometry":{"x":165652.00000000186,"y":2544359.2600000016}},{"attributes":{"ID":60107,"DIS_CODE":0,"TOWNNAME":"安平區","LI":"平安里","LIN":"5鄰","STREET":"安平路","SECT":" ","MAREA":" ","LANE":"３３６巷","ALLEY":"７弄","HOUSE_NO":"３號","E_COORD97":165645.82000000001,"N_COORD97":2544359.5699999998,"ADDRESS":"安平路３３６巷７弄３號","OBJECTID":60107},"geometry":{"x":165645.8200000003,"y":2544359.5699999984}},{"attributes":{"ID":60108,"DIS_CODE":0,"TOWNNAME":"安平區","LI":"平安里","LIN":"5鄰","STREET":"安平路","SECT":" ","MAREA":" ","LANE":"３３６巷","ALLEY":"７弄","HOUSE_NO":"５號","E_COORD97":165640.26999999999,"N_COORD97":2544359.8900000001,"ADDRESS":"安平路３３６巷７弄５號","OBJECTID":60108},"geometry":{"x":165640.26999999955,"y":2544359.8900000006}},{"attributes":{"ID":60109,"DIS_CODE":0,"TOWNNAME":"安平區","LI":"平安里","LIN":"5鄰","STREET":"安平路","SECT":" ","MAREA":" ","LANE":"３３６巷","ALLEY":"７弄","HOUSE_NO":"７號","E_COORD97":165635.35999999999,"N_COORD97":2544359.1000000001,"ADDRESS":"安平路３３６巷７弄７號","OBJECTID":60109},"geometry":{"x":165635.36000000127,"y":2544359.1000000015}},{"attributes":{"ID":60110,"DIS_CODE":0,"TOWNNAME":"安平區","LI":"平安里","LIN":"5鄰","STREET":"安平路","SECT":" ","MAREA":" ","LANE":"３３６巷","ALLEY":"７弄","HOUSE_NO":"９號","E_COORD97":165629.98000000001,"N_COORD97":2544358.46,"ADDRESS":"安平路３３６巷７弄９號","OBJECTID":60110},"geometry":{"x":165629.98000000045,"y":2544358.4600000028}},{"attributes":{"ID":60111,"DIS_CODE":0,"TOWNNAME":"六甲區","LI":"二甲里","LIN":" ","STREET":"信義街","SECT":" ","MAREA":" ","LANE":" ","ALLEY":" ","HOUSE_NO":"３１４號","E_COORD97":183390.64000000001,"N_COORD97":2569956.8700000001,"ADDRESS":"信義街３１４號","OBJECTID":60111},"geometry":{"x":183390.63999999873,"y":2569956.8700000029}},{"attributes":{"ID":60112,"DIS_CODE":0,"TOWNNAME":"六甲區","LI":"二甲里","LIN":" ","STREET":"信義街","SECT":" ","MAREA":" ","LANE":" ","ALLEY":" ","HOUSE_NO":"３２３號","E_COORD97":183372.85999999999,"N_COORD97":2569987.3100000001,"ADDRESS":"信義街３２３號","OBJECTID":60112},"geometry":{"x":183372.8599999994,"y":2569987.3100000024}},{"attributes":{"ID":60113,"DIS_CODE":0,"TOWNNAME":"安平區","LI":"平安里","LIN":"5鄰","STREET":"安平路","SECT":" ","MAREA":" ","LANE":"３３６巷","ALLEY":"７弄","HOUSE_NO":"１１號","E_COORD97":165624.42999999999,"N_COORD97":2544357.8300000001,"ADDRESS":"安平路３３６巷７弄１１號","OBJECTID":60113},"geometry":{"x":165624.4299999997,"y":2544357.8300000038}},{"attributes":{"ID":60114,"DIS_CODE":0,"TOWNNAME":"安平區","LI":"國平里","LIN":"5鄰","STREET":"建平七街","SECT":" ","MAREA":" ","LANE":"３７０巷","ALLEY":"２１弄","HOUSE_NO":"８０號","E_COORD97":165494.97,"N_COORD97":2543144.9100000001,"ADDRESS":"建平七街３７０巷２１弄８０號","OBJECTID":60114},"geometry":{"x":165494.97000000067,"y":2543144.910000002}},{"attributes":{"ID":60115,"DIS_CODE":0,"TOWNNAME":"安南區","LI":"溪心里","LIN":"5鄰","STREET":"本原街","SECT":"二段","MAREA":" ","LANE":"１０６巷","ALLEY":"３６弄","HOUSE_NO":"８號","E_COORD97":166878.07000000001,"N_COORD97":2550847.6699999999,"ADDRESS":"本原街二段１０６巷３６弄８號","OBJECTID":60115},"geometry":{"x":166878.07000000123,"y":2550847.6699999981}},{"attributes":{"ID":60116,"DIS_CODE":0,"TOWNNAME":"安南區","LI":"安慶里","LIN":"5鄰","STREET":"頂安街","SECT":" ","MAREA":" ","LANE":"３７７巷","ALLEY":"６弄","HOUSE_NO":"６號","E_COORD97":169065.54000000001,"N_COORD97":2549331.7000000002,"ADDRESS":"頂安街３７７巷６弄６號","OBJECTID":60116},"geometry":{"x":169065.54000000004,"y":2549331.700000003}},{"attributes":{"ID":60117,"DIS_CODE":0,"TOWNNAME":"安南區","LI":"安慶里","LIN":"5鄰","STREET":"怡安路","SECT":"一段","MAREA":" ","LANE":"２６２巷","ALLEY":"３５弄","HOUSE_NO":"３２號","E_COORD97":168981.51000000001,"N_COORD97":2549263.4900000002,"ADDRESS":"怡安路一段２６２巷３５弄３２號","OBJECTID":60117},"geometry":{"x":168981.51000000071,"y":2549263.4900000021}},{"attributes":{"ID":60118,"DIS_CODE":0,"TOWNNAME":"安南區","LI":"安慶里","LIN":"5鄰","STREET":"怡安路","SECT":"一段","MAREA":" ","LANE":"２６２巷","ALLEY":"３５弄","HOUSE_NO":"３６號","E_COORD97":168980.72,"N_COORD97":2549267.6200000001,"ADDRESS":"怡安路一段２６２巷３５弄３６號","OBJECTID":60118},"geometry":{"x":168980.71999999974,"y":2549267.6200000029}},{"attributes":{"ID":60119,"DIS_CODE":0,"TOWNNAME":"安南區","LI":"安慶里","LIN":"5鄰","STREET":"怡安路","SECT":"一段","MAREA":" ","LANE":"２６２巷","ALLEY":"３５弄","HOUSE_NO":"３８號","E_COORD97":168980.09,"N_COORD97":2549271.27,"ADDRESS":"怡安路一段２６２巷３５弄３８號","OBJECTID":60119},"geometry":{"x":168980.08999999985,"y":2549271.2700000014}},{"attributes":{"ID":60120,"DIS_CODE":0,"TOWNNAME":"安南區","LI":"安慶里","LIN":"5鄰","STREET":"怡安路","SECT":"一段","MAREA":" ","LANE":"２６２巷","ALLEY":"３５弄","HOUSE_NO":"４０號","E_COORD97":168979.29000000001,"N_COORD97":2549275.71,"ADDRESS":"怡安路一段２６２巷３５弄４０號","OBJECTID":60120},"geometry":{"x":168979.2900000019,"y":2549275.7100000046}},{"attributes":{"ID":60121,"DIS_CODE":0,"TOWNNAME":"安南區","LI":"安慶里","LIN":"5鄰","STREET":"怡安路","SECT":"一段","MAREA":" ","LANE":"２６２巷","ALLEY":"３５弄","HOUSE_NO":"４２號","E_COORD97":168978.5,"N_COORD97":2549280.1600000001,"ADDRESS":"怡安路一段２６２巷３５弄４２號","OBJECTID":60121},"geometry":{"x":168978.50000000093,"y":2549280.1600000001}},{"attributes":{"ID":60122,"DIS_CODE":0,"TOWNNAME":"安南區","LI":"安慶里","LIN":"5鄰","STREET":"怡安路","SECT":"一段","MAREA":" ","LANE":"２６２巷","ALLEY":"３５弄","HOUSE_NO":"４６號","E_COORD97":168978.17999999999,"N_COORD97":2549284.4399999999,"ADDRESS":"怡安路一段２６２巷３５弄４６號","OBJECTID":60122},"geometry":{"x":168978.18000000063,"y":2549284.4399999995}},{"attributes":{"ID":60123,"DIS_CODE":0,"TOWNNAME":"歸仁區","LI":"大廟里","LIN":"5鄰","STREET":"和順路","SECT":"二段","MAREA":" ","LANE":"１５１巷","ALLEY":"２２弄","HOUSE_NO":"３１號","E_COORD97":176131.53129799999,"N_COORD97":2543454.7144999998,"ADDRESS":"和順路二段１５１巷２２弄３１號","OBJECTID":60123},"geometry":{"x":176131.53129799943,"y":2543454.7145019993}},{"attributes":{"ID":60124,"DIS_CODE":0,"TOWNNAME":"南區","LI":"建南里","LIN":"5鄰","STREET":"德興路","SECT":" ","MAREA":" ","LANE":"２８１巷","ALLEY":"４６弄","HOUSE_NO":"２號","E_COORD97":167339.06,"N_COORD97":2539918.6600000001,"ADDRESS":"德興路２８１巷４６弄２號","OBJECTID":60124},"geometry":{"x":167339.05999999959,"y":2539918.660000002}},{"attributes":{"ID":60125,"DIS_CODE":0,"TOWNNAME":"南區","LI":"建南里","LIN":"5鄰","STREET":"德興路","SECT":" ","MAREA":" ","LANE":"２８１巷","ALLEY":"５８弄","HOUSE_NO":"１號","E_COORD97":167391.39999999999,"N_COORD97":2539919.5600000001,"ADDRESS":"德興路２８１巷５８弄１號","OBJECTID":60125},"geometry":{"x":167391.40000000037,"y":2539919.5600000024}},{"attributes":{"ID":60126,"DIS_CODE":0,"TOWNNAME":"南區","LI":"建南里","LIN":"5鄰","STREET":"德興路","SECT":" ","MAREA":" ","LANE":"２８１巷","ALLEY":"５８弄","HOUSE_NO":"３號","E_COORD97":167391.94,"N_COORD97":2539913.54,"ADDRESS":"德興路２８１巷５８弄３號","OBJECTID":60126},"geometry":{"x":167391.94000000227,"y":2539913.5399999991}},{"attributes":{"ID":60127,"DIS_CODE":0,"TOWNNAME":"南區","LI":"建南里","LIN":"5鄰","STREET":"德興路","SECT":" ","MAREA":" ","LANE":"２８１巷","ALLEY":"５８弄","HOUSE_NO":"５號","E_COORD97":167393.41,"N_COORD97":2539907.1600000001,"ADDRESS":"德興路２８１巷５８弄５號","OBJECTID":60127},"geometry":{"x":167393.41000000015,"y":2539907.1599999983}},{"attributes":{"ID":60128,"DIS_CODE":0,"TOWNNAME":"南區","LI":"建南里","LIN":"5鄰","STREET":"德興路","SECT":" ","MAREA":" ","LANE":"２８１巷","ALLEY":"５８弄","HOUSE_NO":"７號","E_COORD97":167394.32000000001,"N_COORD97":2539901.3300000001,"ADDRESS":"德興路２８１巷５８弄７號","OBJECTID":60128},"geometry":{"x":167394.32000000216,"y":2539901.3300000001}},{"attributes":{"ID":60129,"DIS_CODE":0,"TOWNNAME":"南區","LI":"建南里","LIN":"5鄰","STREET":"德興路","SECT":" ","MAREA":" ","LANE":"２８１巷","ALLEY":"５８弄","HOUSE_NO":"９號","E_COORD97":167395.04999999999,"N_COORD97":2539895.3100000001,"ADDRESS":"德興路２８１巷５８弄９號","OBJECTID":60129},"geometry":{"x":167395.04999999981,"y":2539895.3100000005}},{"attributes":{"ID":60130,"DIS_CODE":0,"TOWNNAME":"南區","LI":"建南里","LIN":"5鄰","STREET":"德興路","SECT":" ","MAREA":" ","LANE":"２８１巷","ALLEY":"５８弄","HOUSE_NO":"１１號","E_COORD97":167395.78,"N_COORD97":2539889.1099999999,"ADDRESS":"德興路２８１巷５８弄１１號","OBJECTID":60130},"geometry":{"x":167395.78000000026,"y":2539889.1099999994}},{"attributes":{"ID":60131,"DIS_CODE":0,"TOWNNAME":"南區","LI":"建南里","LIN":"5鄰","STREET":"德興路","SECT":" ","MAREA":" ","LANE":"２８１巷","ALLEY":"５８弄","HOUSE_NO":"１３號","E_COORD97":167397.42000000001,"N_COORD97":2539883.0899999999,"ADDRESS":"德興路２８１巷５８弄１３號","OBJECTID":60131},"geometry":{"x":167397.42000000086,"y":2539883.0899999999}},{"attributes":{"ID":60132,"DIS_CODE":0,"TOWNNAME":"鹽水區","LI":"汫水里","LIN":"1鄰","STREET":" ","SECT":" ","MAREA":"汫水港","LANE":" ","ALLEY":" ","HOUSE_NO":"１３３號","E_COORD97":175637.78,"N_COORD97":2582096.6499999999,"ADDRESS":"汫水港１３３號","OBJECTID":60132},"geometry":{"x":175637.78000000026,"y":2582096.6500000004}},{"attributes":{"ID":60133,"DIS_CODE":0,"TOWNNAME":"南區","LI":"建南里","LIN":"5鄰","STREET":"德興路","SECT":" ","MAREA":" ","LANE":"２８１巷","ALLEY":"５８弄","HOUSE_NO":"１５號","E_COORD97":167397.42000000001,"N_COORD97":2539878.1600000001,"ADDRESS":"德興路２８１巷５８弄１５號","OBJECTID":60133},"geometry":{"x":167397.42000000086,"y":2539878.160000002}},{"attributes":{"ID":60134,"DIS_CODE":0,"TOWNNAME":"南區","LI":"建南里","LIN":"5鄰","STREET":"德興路","SECT":" ","MAREA":" ","LANE":"２８１巷","ALLEY":"５８弄","HOUSE_NO":"１７號","E_COORD97":167398.51999999999,"N_COORD97":2539871.96,"ADDRESS":"德興路２８１巷５８弄１７號","OBJECTID":60134},"geometry":{"x":167398.51999999955,"y":2539871.9600000009}},{"attributes":{"ID":60135,"DIS_CODE":0,"TOWNNAME":"六甲區","LI":"二甲里","LIN":" ","STREET":"建工街","SECT":" ","MAREA":" ","LANE":" ","ALLEY":" ","HOUSE_NO":"２１５號","E_COORD97":183013.22,"N_COORD97":2569557.48,"ADDRESS":"建工街２１５號","OBJECTID":60135},"geometry":{"x":183013.21999999974,"y":2569557.4800000004}},{"attributes":{"ID":60136,"DIS_CODE":0,"TOWNNAME":"歸仁區","LI":"辜厝里","LIN":"35鄰","STREET":"大吉二街","SECT":" ","MAREA":" ","LANE":"２６巷","ALLEY":"６８弄","HOUSE_NO":"３號","E_COORD97":177244.48999999999,"N_COORD97":2540409.6800000002,"ADDRESS":"大吉二街２６巷６８弄３號","OBJECTID":60136},"geometry":{"x":177244.49000000115,"y":2540409.6800000016}},{"attributes":{"ID":60137,"DIS_CODE":0,"TOWNNAME":"歸仁區","LI":"辜厝里","LIN":"35鄰","STREET":"大吉二街","SECT":" ","MAREA":" ","LANE":"２６巷","ALLEY":"６８弄","HOUSE_NO":"１號","E_COORD97":177254.69,"N_COORD97":2540406.6800000002,"ADDRESS":"大吉二街２６巷６８弄１號","OBJECTID":60137},"geometry":{"x":177254.69000000227,"y":2540406.6800000016}},{"attributes":{"ID":60138,"DIS_CODE":0,"TOWNNAME":"歸仁區","LI":"辜厝里","LIN":"35鄰","STREET":"大吉二街","SECT":" ","MAREA":" ","LANE":"２６巷","ALLEY":"６８弄","HOUSE_NO":"１３號","E_COORD97":177226.23999999999,"N_COORD97":2540400.6800000002,"ADDRESS":"大吉二街２６巷６８弄１３號","OBJECTID":60138},"geometry":{"x":177226.24000000022,"y":2540400.6799999997}},{"attributes":{"ID":60139,"DIS_CODE":0,"TOWNNAME":"歸仁區","LI":"六甲里","LIN":"35鄰","STREET":"六甲六街","SECT":" ","MAREA":" ","LANE":"１１巷","ALLEY":"３弄","HOUSE_NO":"１０號","E_COORD97":175591.19,"N_COORD97":2539359.6699999999,"ADDRESS":"六甲六街１１巷３弄１０號","OBJECTID":60139},"geometry":{"x":175591.19000000041,"y":2539359.6699999999}},{"attributes":{"ID":60140,"DIS_CODE":0,"TOWNNAME":"歸仁區","LI":"六甲里","LIN":"35鄰","STREET":"六甲六街","SECT":" ","MAREA":" ","LANE":"１１巷","ALLEY":"３弄","HOUSE_NO":"２２號","E_COORD97":175566.59,"N_COORD97":2539361.6699999999,"ADDRESS":"六甲六街１１巷３弄２２號","OBJECTID":60140},"geometry":{"x":175566.59000000078,"y":2539361.6700000018}},{"attributes":{"ID":60141,"DIS_CODE":0,"TOWNNAME":"歸仁區","LI":"六甲里","LIN":"35鄰","STREET":"六甲六街","SECT":" ","MAREA":" ","LANE":"１１巷","ALLEY":"３弄","HOUSE_NO":"２０號","E_COORD97":175570.69,"N_COORD97":2539361.6699999999,"ADDRESS":"六甲六街１１巷３弄２０號","OBJECTID":60141},"geometry":{"x":175570.69000000041,"y":2539361.6700000018}},{"attributes":{"ID":60142,"DIS_CODE":0,"TOWNNAME":"新營區","LI":"民榮里","LIN":"35鄰","STREET":"新進路","SECT":"二段","MAREA":" ","LANE":"４４５巷","ALLEY":"１１弄","HOUSE_NO":"２２號","E_COORD97":178558.95999999999,"N_COORD97":2577989.3199999998,"ADDRESS":"新進路二段４４５巷１１弄２２號","OBJECTID":60142},"geometry":{"x":178558.95999999996,"y":2577989.3200000003}},{"attributes":{"ID":60143,"DIS_CODE":0,"TOWNNAME":"永康區","LI":"龍潭里","LIN":"35鄰","STREET":"自強路","SECT":" ","MAREA":" ","LANE":"８０２巷","ALLEY":"１弄","HOUSE_NO":"３號","E_COORD97":174603.35999999999,"N_COORD97":2548592.02,"ADDRESS":"自強路８０２巷１弄３號","OBJECTID":60143},"geometry":{"x":174603.36000000034,"y":2548592.0200000014}},{"attributes":{"ID":60144,"DIS_CODE":0,"TOWNNAME":"鹽水區","LI":"汫水里","LIN":"1鄰","STREET":" ","SECT":" ","MAREA":"汫水港","LANE":" ","ALLEY":" ","HOUSE_NO":"１３０號之６","E_COORD97":175575.26999999999,"N_COORD97":2582615.1099999999,"ADDRESS":"汫水港１３０號之６","OBJECTID":60144},"geometry":{"x":175575.27000000048,"y":2582615.1099999994}},{"attributes":{"ID":60145,"DIS_CODE":0,"TOWNNAME":"鹽水區","LI":"汫水里","LIN":"1鄰","STREET":" ","SECT":" ","MAREA":"汫水港","LANE":" ","ALLEY":" ","HOUSE_NO":"１３０號之７","E_COORD97":175383.14000000001,"N_COORD97":2582556.4399999999,"ADDRESS":"汫水港１３０號之７","OBJECTID":60145},"geometry":{"x":175383.1400000006,"y":2582556.4400000013}},{"attributes":{"ID":60146,"DIS_CODE":0,"TOWNNAME":"鹽水區","LI":"汫水里","LIN":"1鄰","STREET":" ","SECT":" ","MAREA":"汫水港","LANE":" ","ALLEY":" ","HOUSE_NO":"１３０號之８","E_COORD97":175589.06,"N_COORD97":2582404.77,"ADDRESS":"汫水港１３０號之８","OBJECTID":60146},"geometry":{"x":175589.06000000052,"y":2582404.7700000014}},{"attributes":{"ID":60147,"DIS_CODE":0,"TOWNNAME":"鹽水區","LI":"汫水里","LIN":"1鄰","STREET":" ","SECT":" ","MAREA":"汫水港","LANE":" ","ALLEY":" ","HOUSE_NO":"１３０之９號","E_COORD97":175653.45000000001,"N_COORD97":2582658.3199999998,"ADDRESS":"汫水港１３０之９號","OBJECTID":60147},"geometry":{"x":175653.45000000019,"y":2582658.3200000003}},{"attributes":{"ID":60148,"DIS_CODE":0,"TOWNNAME":"鹽水區","LI":"汫水里","LIN":"1鄰","STREET":" ","SECT":" ","MAREA":"汫水港","LANE":" ","ALLEY":" ","HOUSE_NO":"１３２號之１","E_COORD97":175651.76000000001,"N_COORD97":2582176.3900000001,"ADDRESS":"汫水港１３２號之１","OBJECTID":60148},"geometry":{"x":175651.76000000071,"y":2582176.3900000006}},{"attributes":{"ID":60149,"DIS_CODE":0,"TOWNNAME":"新營區","LI":"五興里","LIN":"8鄰","STREET":" ","SECT":" ","MAREA":"五間厝","LANE":" ","ALLEY":" ","HOUSE_NO":"８８號","E_COORD97":175702.89999999999,"N_COORD97":2574904.7000000002,"ADDRESS":"五間厝８８號","OBJECTID":60149},"geometry":{"x":175702.90000000037,"y":2574904.6999999993}},{"attributes":{"ID":60150,"DIS_CODE":0,"TOWNNAME":"新營區","LI":"五興里","LIN":"1鄰","STREET":" ","SECT":" ","MAREA":"五間厝","LANE":" ","ALLEY":" ","HOUSE_NO":"９號","E_COORD97":175808.62,"N_COORD97":2574832.1800000002,"ADDRESS":"五間厝９號","OBJECTID":60150},"geometry":{"x":175808.61999999918,"y":2574832.1800000016}},{"attributes":{"ID":60151,"DIS_CODE":0,"TOWNNAME":"鹽水區","LI":"汫水里","LIN":"1鄰","STREET":" ","SECT":" ","MAREA":"汫水港","LANE":" ","ALLEY":" ","HOUSE_NO":"１３２之２號","E_COORD97":175672.37,"N_COORD97":2582146.96,"ADDRESS":"汫水港１３２之２號","OBJECTID":60151},"geometry":{"x":175672.37000000011,"y":2582146.9600000046}},{"attributes":{"ID":60152,"DIS_CODE":0,"TOWNNAME":"鹽水區","LI":"汫水里","LIN":"1鄰","STREET":" ","SECT":" ","MAREA":"汫水港","LANE":" ","ALLEY":" ","HOUSE_NO":"１３２號","E_COORD97":175696.39999999999,"N_COORD97":2582158.1699999999,"ADDRESS":"汫水港１３２號","OBJECTID":60152},"geometry":{"x":175696.40000000037,"y":2582158.1700000037}},{"attributes":{"ID":60153,"DIS_CODE":0,"TOWNNAME":"安南區","LI":"東和里","LIN":"5鄰","STREET":"長和路","SECT":"一段","MAREA":" ","LANE":"８２３巷","ALLEY":"３２弄","HOUSE_NO":"１３號","E_COORD97":170838.92000000001,"N_COORD97":2551342.5,"ADDRESS":"長和路一段８２３巷３２弄１３號","OBJECTID":60153},"geometry":{"x":170838.91999999993,"y":2551342.5}},{"attributes":{"ID":60154,"DIS_CODE":0,"TOWNNAME":"安南區","LI":"東和里","LIN":"5鄰","STREET":"長和路","SECT":"一段","MAREA":" ","LANE":"８２３巷","ALLEY":"３２弄","HOUSE_NO":"７號","E_COORD97":170863.45000000001,"N_COORD97":2551341.2999999998,"ADDRESS":"長和路一段８２３巷３２弄７號","OBJECTID":60154},"geometry":{"x":170863.45000000205,"y":2551341.3000000007}},{"attributes":{"ID":60155,"DIS_CODE":0,"TOWNNAME":"安南區","LI":"鹿耳里","LIN":"5鄰","STREET":"北汕尾二路","SECT":" ","MAREA":" ","LANE":"６６１巷","ALLEY":"１９弄","HOUSE_NO":"４號","E_COORD97":160404.73000000001,"N_COORD97":2548540.4199999999,"ADDRESS":"北汕尾二路６６１巷１９弄４號","OBJECTID":60155},"geometry":{"x":160404.73000000138,"y":2548540.4199999999}},{"attributes":{"ID":60156,"DIS_CODE":0,"TOWNNAME":"安南區","LI":"鹿耳里","LIN":"5鄰","STREET":"北汕尾二路","SECT":" ","MAREA":" ","LANE":"６６１巷","ALLEY":"１９弄","HOUSE_NO":"６號","E_COORD97":160401.35000000001,"N_COORD97":2548539.9300000002,"ADDRESS":"北汕尾二路６６１巷１９弄６號","OBJECTID":60156},"geometry":{"x":160401.35000000056,"y":2548539.9299999997}},{"attributes":{"ID":60157,"DIS_CODE":0,"TOWNNAME":"安南區","LI":"鹿耳里","LIN":"5鄰","STREET":"北汕尾二路","SECT":" ","MAREA":" ","LANE":"６６１巷","ALLEY":"１９弄","HOUSE_NO":"８號","E_COORD97":160397.97,"N_COORD97":2548539.9300000002,"ADDRESS":"北汕尾二路６６１巷１９弄８號","OBJECTID":60157},"geometry":{"x":160397.96999999974,"y":2548539.9299999997}},{"attributes":{"ID":60158,"DIS_CODE":0,"TOWNNAME":"鹽水區","LI":"汫水里","LIN":"1鄰","STREET":" ","SECT":" ","MAREA":"汫水港","LANE":" ","ALLEY":" ","HOUSE_NO":"５９號之１１","E_COORD97":175657.28,"N_COORD97":2582957.0499999998,"ADDRESS":"汫水港５９號之１１","OBJECTID":60158},"geometry":{"x":175657.28000000119,"y":2582957.0500000026}},{"attributes":{"ID":60159,"DIS_CODE":0,"TOWNNAME":"鹽水區","LI":"汫水里","LIN":"1鄰","STREET":" ","SECT":" ","MAREA":"汫水港","LANE":" ","ALLEY":" ","HOUSE_NO":"５９號之１２","E_COORD97":175657.54999999999,"N_COORD97":2582962.21,"ADDRESS":"汫水港５９號之１２","OBJECTID":60159},"geometry":{"x":175657.54999999981,"y":2582962.2100000046}},{"attributes":{"ID":60160,"DIS_CODE":0,"TOWNNAME":"鹽水區","LI":"汫水里","LIN":"1鄰","STREET":" ","SECT":" ","MAREA":"汫水港","LANE":" ","ALLEY":" ","HOUSE_NO":"５９號之２","E_COORD97":175635.89000000001,"N_COORD97":2582911.6800000002,"ADDRESS":"汫水港５９號之２","OBJECTID":60160},"geometry":{"x":175635.8900000006,"y":2582911.6800000016}},{"attributes":{"ID":60161,"DIS_CODE":0,"TOWNNAME":"鹽水區","LI":"汫水里","LIN":"1鄰","STREET":" ","SECT":" ","MAREA":"汫水港","LANE":" ","ALLEY":" ","HOUSE_NO":"５９號之３","E_COORD97":175652.20000000001,"N_COORD97":2582937.3199999998,"ADDRESS":"汫水港５９號之３","OBJECTID":60161},"geometry":{"x":175652.19999999925,"y":2582937.320000004}},{"attributes":{"ID":60162,"DIS_CODE":0,"TOWNNAME":"鹽水區","LI":"汫水里","LIN":"1鄰","STREET":" ","SECT":" ","MAREA":"汫水港","LANE":" ","ALLEY":" ","HOUSE_NO":"５９號之４","E_COORD97":175658.98999999999,"N_COORD97":2582910.6299999999,"ADDRESS":"汫水港５９號之４","OBJECTID":60162},"geometry":{"x":175658.99000000209,"y":2582910.6300000008}},{"attributes":{"ID":60163,"DIS_CODE":0,"TOWNNAME":"鹽水區","LI":"汫水里","LIN":"1鄰","STREET":" ","SECT":" ","MAREA":"汫水港","LANE":" ","ALLEY":" ","HOUSE_NO":"５９號之５","E_COORD97":175659.07000000001,"N_COORD97":2582886.8799999999,"ADDRESS":"汫水港５９號之５","OBJECTID":60163},"geometry":{"x":175659.07000000123,"y":2582886.879999999}},{"attributes":{"ID":60164,"DIS_CODE":0,"TOWNNAME":"鹽水區","LI":"汫水里","LIN":"1鄰","STREET":" ","SECT":" ","MAREA":"汫水港","LANE":" ","ALLEY":" ","HOUSE_NO":"５９號之６","E_COORD97":175648.37,"N_COORD97":2582876.3700000001,"ADDRESS":"汫水港５９號之６","OBJECTID":60164},"geometry":{"x":175648.37000000104,"y":2582876.3699999992}},{"attributes":{"ID":60165,"DIS_CODE":0,"TOWNNAME":"鹽水區","LI":"汫水里","LIN":"1鄰","STREET":" ","SECT":" ","MAREA":"汫水港","LANE":" ","ALLEY":" ","HOUSE_NO":"５９號之９","E_COORD97":175635.07000000001,"N_COORD97":2582937.1200000001,"ADDRESS":"汫水港５９號之９","OBJECTID":60165},"geometry":{"x":175635.07000000123,"y":2582937.1200000029}},{"attributes":{"ID":60166,"DIS_CODE":0,"TOWNNAME":"鹽水區","LI":"汫水里","LIN":"1鄰","STREET":" ","SECT":" ","MAREA":"汫水港","LANE":" ","ALLEY":" ","HOUSE_NO":"５９號","E_COORD97":175635.48000000001,"N_COORD97":2582957.27,"ADDRESS":"汫水港５９號","OBJECTID":60166},"geometry":{"x":175635.48000000231,"y":2582957.2700000033}},{"attributes":{"ID":60167,"DIS_CODE":0,"TOWNNAME":"鹽水區","LI":"下中里","LIN":"1鄰","STREET":" ","SECT":" ","MAREA":"二庄","LANE":" ","ALLEY":" ","HOUSE_NO":"１之３號","E_COORD97":173416,"N_COORD97":2580426.8500000001,"ADDRESS":"二庄１之３號","OBJECTID":60167},"geometry":{"x":173416.00000000093,"y":2580426.8499999996}},{"attributes":{"ID":60168,"DIS_CODE":0,"TOWNNAME":"南化區","LI":"小崙里","LIN":"1鄰","STREET":" ","SECT":" ","MAREA":"小崙","LANE":" ","ALLEY":" ","HOUSE_NO":"１號之２３","E_COORD97":196829.70000000001,"N_COORD97":2549498.7999999998,"ADDRESS":"小崙１號之２３","OBJECTID":60168},"geometry":{"x":196829.70000000019,"y":2549498.8000000026}},{"attributes":{"ID":60169,"DIS_CODE":0,"TOWNNAME":"南化區","LI":"北平里","LIN":"1鄰","STREET":" ","SECT":" ","MAREA":"北平","LANE":" ","ALLEY":" ","HOUSE_NO":"６號之２","E_COORD97":196705.51000000001,"N_COORD97":2552207.7999999998,"ADDRESS":"北平６號之２","OBJECTID":60169},"geometry":{"x":196705.50999999978,"y":2552207.8000000026}},{"attributes":{"ID":60170,"DIS_CODE":0,"TOWNNAME":"南化區","LI":"北平里","LIN":"1鄰","STREET":" ","SECT":" ","MAREA":"北平","LANE":" ","ALLEY":" ","HOUSE_NO":"３號之３","E_COORD97":196867.17999999999,"N_COORD97":2551813.7999999998,"ADDRESS":"北平３號之３","OBJECTID":60170},"geometry":{"x":196867.18000000156,"y":2551813.8000000007}},{"attributes":{"ID":60171,"DIS_CODE":0,"TOWNNAME":"南化區","LI":"小崙里","LIN":"1鄰","STREET":" ","SECT":" ","MAREA":"小崙","LANE":" ","ALLEY":" ","HOUSE_NO":"１號之３５","E_COORD97":196882.26000000001,"N_COORD97":2549508.7999999998,"ADDRESS":"小崙１號之３５","OBJECTID":60171},"geometry":{"x":196882.26000000071,"y":2549508.8000000045}},{"attributes":{"ID":60172,"DIS_CODE":0,"TOWNNAME":"南化區","LI":"小崙里","LIN":"1鄰","STREET":" ","SECT":" ","MAREA":"小崙","LANE":" ","ALLEY":" ","HOUSE_NO":"１號之７","E_COORD97":196766.63,"N_COORD97":2549492.7999999998,"ADDRESS":"小崙１號之７","OBJECTID":60172},"geometry":{"x":196766.63000000082,"y":2549492.8000000026}},{"attributes":{"ID":60173,"DIS_CODE":0,"TOWNNAME":"南化區","LI":"北寮里","LIN":"1鄰","STREET":" ","SECT":" ","MAREA":"北寮","LANE":" ","ALLEY":" ","HOUSE_NO":"２之１４號","E_COORD97":197865.29000000001,"N_COORD97":2553005.7999999998,"ADDRESS":"北寮２之１４號","OBJECTID":60173},"geometry":{"x":197865.2900000019,"y":2553005.8000000026}},{"attributes":{"ID":60174,"DIS_CODE":0,"TOWNNAME":"南化區","LI":"北寮里","LIN":"1鄰","STREET":" ","SECT":" ","MAREA":"北寮","LANE":" ","ALLEY":" ","HOUSE_NO":"２之１６號","E_COORD97":197872.69,"N_COORD97":2553000.7999999998,"ADDRESS":"北寮２之１６號","OBJECTID":60174},"geometry":{"x":197872.69000000041,"y":2553000.8000000045}},{"attributes":{"ID":60175,"DIS_CODE":0,"TOWNNAME":"南化區","LI":"小崙里","LIN":"1鄰","STREET":" ","SECT":" ","MAREA":"小崙","LANE":" ","ALLEY":" ","HOUSE_NO":"２號","E_COORD97":196841.92000000001,"N_COORD97":2549673.75,"ADDRESS":"小崙２號","OBJECTID":60175},"geometry":{"x":196841.91999999993,"y":2549673.75}},{"attributes":{"ID":60176,"DIS_CODE":0,"TOWNNAME":"南化區","LI":"北平里","LIN":"1鄰","STREET":" ","SECT":" ","MAREA":"北平","LANE":" ","ALLEY":" ","HOUSE_NO":"１０號","E_COORD97":196479.59,"N_COORD97":2551760.75,"ADDRESS":"北平１０號","OBJECTID":60176},"geometry":{"x":196479.58999999985,"y":2551760.7500000019}},{"attributes":{"ID":60177,"DIS_CODE":0,"TOWNNAME":"南化區","LI":"北平里","LIN":"1鄰","STREET":" ","SECT":" ","MAREA":"北平","LANE":" ","ALLEY":" ","HOUSE_NO":"１２號","E_COORD97":196468.79000000001,"N_COORD97":2551645.75,"ADDRESS":"北平１２號","OBJECTID":60177},"geometry":{"x":196468.79000000097,"y":2551645.7500000019}},{"attributes":{"ID":60178,"DIS_CODE":0,"TOWNNAME":"南化區","LI":"北寮里","LIN":"1鄰","STREET":" ","SECT":" ","MAREA":"北寮","LANE":" ","ALLEY":" ","HOUSE_NO":"２之１７號","E_COORD97":197875.69,"N_COORD97":2552997.7999999998,"ADDRESS":"北寮２之１７號","OBJECTID":60178},"geometry":{"x":197875.69000000134,"y":2552997.8000000026}},{"attributes":{"ID":60179,"DIS_CODE":0,"TOWNNAME":"南化區","LI":"中坑里","LIN":"1鄰","STREET":" ","SECT":" ","MAREA":"中坑","LANE":" ","ALLEY":" ","HOUSE_NO":"４之７號","E_COORD97":195134.95999999999,"N_COORD97":2550521.9100000001,"ADDRESS":"中坑４之７號","OBJECTID":60179},"geometry":{"x":195134.96000000183,"y":2550521.910000002}},{"attributes":{"ID":60180,"DIS_CODE":0,"TOWNNAME":"南化區","LI":"南化里","LIN":"1鄰","STREET":" ","SECT":" ","MAREA":"南化","LANE":" ","ALLEY":" ","HOUSE_NO":"１５之５號","E_COORD97":195168.82999999999,"N_COORD97":2549255.2999999998,"ADDRESS":"南化１５之５號","OBJECTID":60180},"geometry":{"x":195168.83000000101,"y":2549255.3000000026}},{"attributes":{"ID":60181,"DIS_CODE":0,"TOWNNAME":"左鎮區","LI":"澄山里","LIN":"1鄰","STREET":" ","SECT":" ","MAREA":"澄山","LANE":" ","ALLEY":" ","HOUSE_NO":"８號","E_COORD97":188202.34,"N_COORD97":2548354.25,"ADDRESS":"澄山８號","OBJECTID":60181},"geometry":{"x":188202.34000000171,"y":2548354.25}},{"attributes":{"ID":60182,"DIS_CODE":0,"TOWNNAME":"左鎮區","LI":"內庄里","LIN":"1鄰","STREET":" ","SECT":" ","MAREA":"內庄","LANE":" ","ALLEY":" ","HOUSE_NO":"１０號","E_COORD97":190623.42999999999,"N_COORD97":2548535.25,"ADDRESS":"內庄１０號","OBJECTID":60182},"geometry":{"x":190623.4299999997,"y":2548535.2500000037}},{"attributes":{"ID":60183,"DIS_CODE":0,"TOWNNAME":"左鎮區","LI":"睦光里","LIN":"1鄰","STREET":" ","SECT":" ","MAREA":"睦光","LANE":" ","ALLEY":" ","HOUSE_NO":"２號","E_COORD97":190918.39000000001,"N_COORD97":2551674.25,"ADDRESS":"睦光２號","OBJECTID":60183},"geometry":{"x":190918.38999999966,"y":2551674.25}},{"attributes":{"ID":60184,"DIS_CODE":0,"TOWNNAME":"左鎮區","LI":"睦光里","LIN":"1鄰","STREET":" ","SECT":" ","MAREA":"睦光","LANE":" ","ALLEY":" ","HOUSE_NO":"３號之６","E_COORD97":190673.13,"N_COORD97":2551365.2999999998,"ADDRESS":"睦光３號之６","OBJECTID":60184},"geometry":{"x":190673.12999999989,"y":2551365.3000000007}},{"attributes":{"ID":60185,"DIS_CODE":0,"TOWNNAME":"左鎮區","LI":"中正里","LIN":"1鄰","STREET":" ","SECT":" ","MAREA":"中正","LANE":" ","ALLEY":" ","HOUSE_NO":"１４號之１","E_COORD97":189017.79999999999,"N_COORD97":2550599.2999999998,"ADDRESS":"中正１４號之１","OBJECTID":60185},"geometry":{"x":189017.80000000168,"y":2550599.3000000007}},{"attributes":{"ID":60186,"DIS_CODE":0,"TOWNNAME":"左鎮區","LI":"岡林里","LIN":"1鄰","STREET":" ","SECT":" ","MAREA":"岡林","LANE":" ","ALLEY":" ","HOUSE_NO":"１２號之３","E_COORD97":189048.89999999999,"N_COORD97":2545417.2999999998,"ADDRESS":"岡林１２號之３","OBJECTID":60186},"geometry":{"x":189048.9000000013,"y":2545417.3000000026}},{"attributes":{"ID":60187,"DIS_CODE":0,"TOWNNAME":"左鎮區","LI":"澄山里","LIN":"1鄰","STREET":" ","SECT":" ","MAREA":"澄山","LANE":" ","ALLEY":" ","HOUSE_NO":"７號","E_COORD97":188208.34,"N_COORD97":2548372.25,"ADDRESS":"澄山７號","OBJECTID":60187},"geometry":{"x":188208.33999999985,"y":2548372.2499999981}},{"attributes":{"ID":60188,"DIS_CODE":0,"TOWNNAME":"左鎮區","LI":"中正里","LIN":"1鄰","STREET":" ","SECT":" ","MAREA":"中正","LANE":" ","ALLEY":" ","HOUSE_NO":"７號","E_COORD97":188921.31,"N_COORD97":2550626.25,"ADDRESS":"中正７號","OBJECTID":60188},"geometry":{"x":188921.31000000052,"y":2550626.25}},{"attributes":{"ID":60189,"DIS_CODE":0,"TOWNNAME":"左鎮區","LI":"岡林里","LIN":"1鄰","STREET":" ","SECT":" ","MAREA":"岡林","LANE":" ","ALLEY":" ","HOUSE_NO":"８號","E_COORD97":188980.31,"N_COORD97":2545718.25,"ADDRESS":"岡林８號","OBJECTID":60189},"geometry":{"x":188980.31000000145,"y":2545718.2500000019}},{"attributes":{"ID":60190,"DIS_CODE":0,"TOWNNAME":"左鎮區","LI":"岡林里","LIN":"1鄰","STREET":" ","SECT":" ","MAREA":"岡林","LANE":" ","ALLEY":" ","HOUSE_NO":"１５號之２","E_COORD97":189684.63,"N_COORD97":2545484.2999999998,"ADDRESS":"岡林１５號之２","OBJECTID":60190},"geometry":{"x":189684.62999999989,"y":2545484.3000000045}},{"attributes":{"ID":60191,"DIS_CODE":0,"TOWNNAME":"左鎮區","LI":"中正里","LIN":"1鄰","STREET":" ","SECT":" ","MAREA":"中正","LANE":" ","ALLEY":" ","HOUSE_NO":"１４號之７","E_COORD97":189027.78,"N_COORD97":2550628.2999999998,"ADDRESS":"中正１４號之７","OBJECTID":60191},"geometry":{"x":189027.78000000026,"y":2550628.3000000026}},{"attributes":{"ID":60192,"DIS_CODE":0,"TOWNNAME":"左鎮區","LI":"榮和里","LIN":"1鄰","STREET":" ","SECT":" ","MAREA":"菜寮","LANE":" ","ALLEY":" ","HOUSE_NO":"１號之１","E_COORD97":186726.63,"N_COORD97":2551632.2999999998,"ADDRESS":"菜寮１號之１","OBJECTID":60192},"geometry":{"x":186726.62999999989,"y":2551632.3000000026}},{"attributes":{"ID":60193,"DIS_CODE":0,"TOWNNAME":"左鎮區","LI":"岡林里","LIN":"1鄰","STREET":" ","SECT":" ","MAREA":"岡林","LANE":" ","ALLEY":" ","HOUSE_NO":"１０號之３","E_COORD97":188795.70000000001,"N_COORD97":2545714.2999999998,"ADDRESS":"岡林１０號之３","OBJECTID":60193},"geometry":{"x":188795.70000000112,"y":2545714.3000000007}},{"attributes":{"ID":60194,"DIS_CODE":0,"TOWNNAME":"左鎮區","LI":"岡林里","LIN":"1鄰","STREET":" ","SECT":" ","MAREA":"岡林","LANE":" ","ALLEY":" ","HOUSE_NO":"３號之１","E_COORD97":188916.14999999999,"N_COORD97":2546120.2999999998,"ADDRESS":"岡林３號之１","OBJECTID":60194},"geometry":{"x":188916.15000000224,"y":2546120.3000000007}},{"attributes":{"ID":60195,"DIS_CODE":0,"TOWNNAME":"左鎮區","LI":"中正里","LIN":"1鄰","STREET":" ","SECT":" ","MAREA":"中正","LANE":" ","ALLEY":" ","HOUSE_NO":"１４號之２","E_COORD97":189019.42999999999,"N_COORD97":2550604.2999999998,"ADDRESS":"中正１４號之２","OBJECTID":60195},"geometry":{"x":189019.4299999997,"y":2550604.3000000026}},{"attributes":{"ID":60196,"DIS_CODE":0,"TOWNNAME":"左鎮區","LI":"光和里","LIN":"1鄰","STREET":" ","SECT":" ","MAREA":"光和","LANE":" ","ALLEY":" ","HOUSE_NO":"１０號之２","E_COORD97":186693.01000000001,"N_COORD97":2552901.2999999998,"ADDRESS":"光和１０號之２","OBJECTID":60196},"geometry":{"x":186693.01000000071,"y":2552901.3000000007}},{"attributes":{"ID":60197,"DIS_CODE":0,"TOWNNAME":"左鎮區","LI":"草山里","LIN":"1鄰","STREET":" ","SECT":" ","MAREA":"草山","LANE":" ","ALLEY":" ","HOUSE_NO":"２號","E_COORD97":191671.19,"N_COORD97":2545455.25,"ADDRESS":"草山２號","OBJECTID":60197},"geometry":{"x":191671.19000000134,"y":2545455.25}},{"attributes":{"ID":60198,"DIS_CODE":0,"TOWNNAME":"左鎮區","LI":"內庄里","LIN":"1鄰","STREET":" ","SECT":" ","MAREA":"內庄","LANE":" ","ALLEY":" ","HOUSE_NO":"４號之１","E_COORD97":189857.81,"N_COORD97":2548623.2999999998,"ADDRESS":"內庄４號之１","OBJECTID":60198},"geometry":{"x":189857.80999999959,"y":2548623.3000000007}},{"attributes":{"ID":60199,"DIS_CODE":0,"TOWNNAME":"左鎮區","LI":"澄山里","LIN":"1鄰","STREET":" ","SECT":" ","MAREA":"澄山","LANE":" ","ALLEY":" ","HOUSE_NO":"５號","E_COORD97":188186.84,"N_COORD97":2548418.25,"ADDRESS":"澄山５號","OBJECTID":60199},"geometry":{"x":188186.83999999892,"y":2548418.25}},{"attributes":{"ID":60200,"DIS_CODE":0,"TOWNNAME":"左鎮區","LI":"澄山里","LIN":"1鄰","STREET":" ","SECT":" ","MAREA":"澄山","LANE":" ","ALLEY":" ","HOUSE_NO":"４號","E_COORD97":188142.94,"N_COORD97":2548540.25,"ADDRESS":"澄山４號","OBJECTID":60200},"geometry":{"x":188142.94000000134,"y":2548540.25}}]}