{"displayFieldName":"TOWNNAME","fieldAliases":{"ID":"ID","DIS_CODE":"DIS_CODE","TOWNNAME":"TOWNNAME","LI":"LI","LIN":"LIN","STREET":"STREET","SECT":"SECT","MAREA":"MAREA","LANE":"LANE","ALLEY":"ALLEY","HOUSE_NO":"HOUSE_NO","E_COORD97":"E_COORD97","N_COORD97":"N_COORD97","ADDRESS":"ADDRESS","OBJECTID":"OBJECTID"},"geometryType":"esriGeometryPoint","spatialReference":{"wkid":102443,"latestWkid":3826},"fields":[{"name":"ID","type":"esriFieldTypeDouble","alias":"ID"},{"name":"DIS_CODE","type":"esriFieldTypeInteger","alias":"DIS_CODE"},{"name":"TOWNNAME","type":"esriFieldTypeString","alias":"TOWNNAME","length":8},{"name":"LI","type":"esriFieldTypeString","alias":"LI","length":8},{"name":"LIN","type":"esriFieldTypeString","alias":"LIN","length":12},{"name":"STREET","type":"esriFieldTypeString","alias":"STREET","length":20},{"name":"SECT","type":"esriFieldTypeString","alias":"SECT","length":8},{"name":"MAREA","type":"esriFieldTypeString","alias":"MAREA","length":12},{"name":"LANE","type":"esriFieldTypeString","alias":"LANE","length":10},{"name":"ALLEY","type":"esriFieldTypeString","alias":"ALLEY","length":10},{"name":"HOUSE_NO","type":"esriFieldTypeString","alias":"HOUSE_NO","length":20},{"name":"E_COORD97","type":"esriFieldTypeDouble","alias":"E_COORD97"},{"name":"N_COORD97","type":"esriFieldTypeDouble","alias":"N_COORD97"},{"name":"ADDRESS","type":"esriFieldTypeString","alias":"ADDRESS","length":50},{"name":"OBJECTID","type":"esriFieldTypeOID","alias":"OBJECTID"}],"features":[{"attributes":{"ID":643628,"DIS_CODE":0,"TOWNNAME":"關廟區","LI":"北勢里","LIN":"5鄰","STREET":"成功路","SECT":" ","MAREA":" ","LANE":" ","ALLEY":" ","HOUSE_NO":"１０５號","E_COORD97":181596.87,"N_COORD97":2540436.27,"ADDRESS":"成功路１０５號","OBJECTID":643601},"geometry":{"x":181596.87000000104,"y":2540436.2700000014}},{"attributes":{"ID":643629,"DIS_CODE":0,"TOWNNAME":"關廟區","LI":"香洋里","LIN":"26鄰","STREET":"南雄路","SECT":"一段","MAREA":" ","LANE":" ","ALLEY":" ","HOUSE_NO":"１１３８號","E_COORD97":181071.23999999999,"N_COORD97":2539873.2799999998,"ADDRESS":"南雄路一段１１３８號","OBJECTID":643602},"geometry":{"x":181071.24000000022,"y":2539873.2800000012}},{"attributes":{"ID":643630,"DIS_CODE":0,"TOWNNAME":"關廟區","LI":"香洋里","LIN":"24鄰","STREET":"民族街","SECT":" ","MAREA":" ","LANE":" ","ALLEY":" ","HOUSE_NO":"１５５號","E_COORD97":181236.69,"N_COORD97":2539883.29,"ADDRESS":"民族街１５５號","OBJECTID":643603},"geometry":{"x":181236.69000000227,"y":2539883.290000001}},{"attributes":{"ID":643631,"DIS_CODE":0,"TOWNNAME":"關廟區","LI":"松腳里","LIN":"14鄰","STREET":"四維街","SECT":" ","MAREA":" ","LANE":" ","ALLEY":" ","HOUSE_NO":"５１號","E_COORD97":181884.51000000001,"N_COORD97":2539578.25,"ADDRESS":"四維街５１號","OBJECTID":643604},"geometry":{"x":181884.50999999978,"y":2539578.2500000019}},{"attributes":{"ID":643632,"DIS_CODE":0,"TOWNNAME":"關廟區","LI":"松腳里","LIN":"14鄰","STREET":"松安街","SECT":" ","MAREA":" ","LANE":" ","ALLEY":" ","HOUSE_NO":"１１０號","E_COORD97":181909.26999999999,"N_COORD97":2539630.3199999998,"ADDRESS":"松安街１１０號","OBJECTID":643605},"geometry":{"x":181909.26999999955,"y":2539630.3200000003}},{"attributes":{"ID":643633,"DIS_CODE":0,"TOWNNAME":"關廟區","LI":"松腳里","LIN":"4鄰","STREET":"松平街","SECT":" ","MAREA":" ","LANE":" ","ALLEY":" ","HOUSE_NO":"１２號","E_COORD97":182085.42000000001,"N_COORD97":2539733.25,"ADDRESS":"松平街１２號","OBJECTID":643606},"geometry":{"x":182085.41999999899,"y":2539733.25}},{"attributes":{"ID":643634,"DIS_CODE":0,"TOWNNAME":"關廟區","LI":"香洋里","LIN":"5鄰","STREET":"南雄路","SECT":"二段","MAREA":" ","LANE":" ","ALLEY":" ","HOUSE_NO":"１０１號","E_COORD97":181128.69,"N_COORD97":2540273.2799999998,"ADDRESS":"南雄路二段１０１號","OBJECTID":643607},"geometry":{"x":181128.69000000134,"y":2540273.2800000012}},{"attributes":{"ID":643635,"DIS_CODE":0,"TOWNNAME":"關廟區","LI":"香洋里","LIN":"20鄰","STREET":"中央路","SECT":" ","MAREA":" ","LANE":" ","ALLEY":" ","HOUSE_NO":"５５號","E_COORD97":181514.10999999999,"N_COORD97":2539966.3199999998,"ADDRESS":"中央路５５號","OBJECTID":643608},"geometry":{"x":181514.11000000127,"y":2539966.3200000003}},{"attributes":{"ID":643636,"DIS_CODE":0,"TOWNNAME":"關廟區","LI":"香洋里","LIN":"8鄰","STREET":"中央路","SECT":" ","MAREA":" ","LANE":" ","ALLEY":" ","HOUSE_NO":"２６１號","E_COORD97":181014.45999999999,"N_COORD97":2540130.3199999998,"ADDRESS":"中央路２６１號","OBJECTID":643609},"geometry":{"x":181014.46000000089,"y":2540130.320000004}},{"attributes":{"ID":643637,"DIS_CODE":0,"TOWNNAME":"關廟區","LI":"香洋里","LIN":"25鄰","STREET":"南雄路","SECT":"一段","MAREA":" ","LANE":" ","ALLEY":" ","HOUSE_NO":"１１６９號","E_COORD97":181062.32999999999,"N_COORD97":2539970.9399999999,"ADDRESS":"南雄路一段１１６９號","OBJECTID":643610},"geometry":{"x":181062.33000000194,"y":2539970.9399999995}},{"attributes":{"ID":643638,"DIS_CODE":0,"TOWNNAME":"關廟區","LI":"關廟里","LIN":"4鄰","STREET":"正義街","SECT":" ","MAREA":" ","LANE":" ","ALLEY":" ","HOUSE_NO":"３６號","E_COORD97":180836.35999999999,"N_COORD97":2540181.27,"ADDRESS":"正義街３６號","OBJECTID":643611},"geometry":{"x":180836.36000000034,"y":2540181.2700000014}},{"attributes":{"ID":643639,"DIS_CODE":0,"TOWNNAME":"關廟區","LI":"松腳里","LIN":"4鄰","STREET":"松平街","SECT":" ","MAREA":" ","LANE":" ","ALLEY":" ","HOUSE_NO":"２號","E_COORD97":182100.26999999999,"N_COORD97":2539732.25,"ADDRESS":"松平街２號","OBJECTID":643612},"geometry":{"x":182100.27000000048,"y":2539732.25}},{"attributes":{"ID":643640,"DIS_CODE":0,"TOWNNAME":"關廟區","LI":"埤頭里","LIN":"4鄰","STREET":"保東路","SECT":" ","MAREA":" ","LANE":" ","ALLEY":" ","HOUSE_NO":"１２７號","E_COORD97":178764.84,"N_COORD97":2544012.23,"ADDRESS":"保東路１２７號","OBJECTID":643613},"geometry":{"x":178764.83999999985,"y":2544012.2300000004}},{"attributes":{"ID":643641,"DIS_CODE":0,"TOWNNAME":"關廟區","LI":"深坑里","LIN":"14鄰","STREET":"南雄路","SECT":"一段","MAREA":" ","LANE":" ","ALLEY":" ","HOUSE_NO":"３６３號","E_COORD97":181809.17000000001,"N_COORD97":2537483.2999999998,"ADDRESS":"南雄路一段３６３號","OBJECTID":643614},"geometry":{"x":181809.17000000179,"y":2537483.3000000026}},{"attributes":{"ID":643642,"DIS_CODE":0,"TOWNNAME":"關廟區","LI":"關廟里","LIN":"14鄰","STREET":"民生街","SECT":" ","MAREA":" ","LANE":" ","ALLEY":" ","HOUSE_NO":"１０１號","E_COORD97":180892.39000000001,"N_COORD97":2539707.29,"ADDRESS":"民生街１０１號","OBJECTID":643615},"geometry":{"x":180892.3900000006,"y":2539707.2899999991}},{"attributes":{"ID":643643,"DIS_CODE":0,"TOWNNAME":"關廟區","LI":"南花里","LIN":"7鄰","STREET":"四維街","SECT":" ","MAREA":" ","LANE":" ","ALLEY":" ","HOUSE_NO":"３１６號","E_COORD97":181855.85999999999,"N_COORD97":2540155.25,"ADDRESS":"四維街３１６號","OBJECTID":643616},"geometry":{"x":181855.8600000022,"y":2540155.2500000019}},{"attributes":{"ID":643644,"DIS_CODE":0,"TOWNNAME":"關廟區","LI":"松腳里","LIN":"4鄰","STREET":"松平街","SECT":" ","MAREA":" ","LANE":" ","ALLEY":" ","HOUSE_NO":"６號","E_COORD97":182096.47,"N_COORD97":2539732.25,"ADDRESS":"松平街６號","OBJECTID":643617},"geometry":{"x":182096.46999999974,"y":2539732.25}},{"attributes":{"ID":643645,"DIS_CODE":0,"TOWNNAME":"關廟區","LI":"關廟里","LIN":"4鄰","STREET":"正義街","SECT":" ","MAREA":" ","LANE":" ","ALLEY":" ","HOUSE_NO":"５號","E_COORD97":180811.60999999999,"N_COORD97":2540113.27,"ADDRESS":"正義街５號","OBJECTID":643618},"geometry":{"x":180811.6100000022,"y":2540113.2700000014}},{"attributes":{"ID":643646,"DIS_CODE":0,"TOWNNAME":"關廟區","LI":"香洋里","LIN":"4鄰","STREET":"南雄路","SECT":"二段","MAREA":" ","LANE":" ","ALLEY":" ","HOUSE_NO":"１８８號","E_COORD97":181187.39000000001,"N_COORD97":2540472.2799999998,"ADDRESS":"南雄路二段１８８號","OBJECTID":643619},"geometry":{"x":181187.3900000006,"y":2540472.2800000012}},{"attributes":{"ID":643647,"DIS_CODE":0,"TOWNNAME":"關廟區","LI":"香洋里","LIN":"20鄰","STREET":"中央路","SECT":" ","MAREA":" ","LANE":" ","ALLEY":" ","HOUSE_NO":"４７號","E_COORD97":181537.91,"N_COORD97":2539964.3199999998,"ADDRESS":"中央路４７號","OBJECTID":643620},"geometry":{"x":181537.91000000015,"y":2539964.320000004}},{"attributes":{"ID":643648,"DIS_CODE":0,"TOWNNAME":"關廟區","LI":"香洋里","LIN":"25鄰","STREET":"中山路","SECT":"二段","MAREA":" ","LANE":" ","ALLEY":" ","HOUSE_NO":"９９號","E_COORD97":180963.10999999999,"N_COORD97":2540009.2799999998,"ADDRESS":"中山路二段９９號","OBJECTID":643621},"geometry":{"x":180963.11000000127,"y":2540009.2799999993}},{"attributes":{"ID":643649,"DIS_CODE":0,"TOWNNAME":"關廟區","LI":"香洋里","LIN":"4鄰","STREET":"南雄路","SECT":"二段","MAREA":" ","LANE":" ","ALLEY":" ","HOUSE_NO":"１６８號","E_COORD97":181185.89000000001,"N_COORD97":2540425.2799999998,"ADDRESS":"南雄路二段１６８號","OBJECTID":643622},"geometry":{"x":181185.8900000006,"y":2540425.2800000012}},{"attributes":{"ID":643650,"DIS_CODE":0,"TOWNNAME":"關廟區","LI":"香洋里","LIN":"5鄰","STREET":"南雄路","SECT":"二段","MAREA":" ","LANE":" ","ALLEY":" ","HOUSE_NO":"８３號","E_COORD97":181119.04000000001,"N_COORD97":2540228.2799999998,"ADDRESS":"南雄路二段８３號","OBJECTID":643623},"geometry":{"x":181119.04000000097,"y":2540228.2800000012}},{"attributes":{"ID":643651,"DIS_CODE":0,"TOWNNAME":"關廟區","LI":"香洋里","LIN":"4鄰","STREET":"南雄路","SECT":"二段","MAREA":" ","LANE":" ","ALLEY":" ","HOUSE_NO":"１７８號","E_COORD97":181188.19,"N_COORD97":2540445.2799999998,"ADDRESS":"南雄路二段１７８號","OBJECTID":643624},"geometry":{"x":181188.19000000134,"y":2540445.2800000012}},{"attributes":{"ID":643652,"DIS_CODE":0,"TOWNNAME":"關廟區","LI":"香洋里","LIN":"5鄰","STREET":"南雄路","SECT":"二段","MAREA":" ","LANE":" ","ALLEY":" ","HOUSE_NO":"９７號","E_COORD97":181125.54000000001,"N_COORD97":2540263.2799999998,"ADDRESS":"南雄路二段９７號","OBJECTID":643625},"geometry":{"x":181125.54000000097,"y":2540263.2800000012}},{"attributes":{"ID":643653,"DIS_CODE":0,"TOWNNAME":"關廟區","LI":"香洋里","LIN":"20鄰","STREET":"中山路","SECT":"一段","MAREA":" ","LANE":" ","ALLEY":" ","HOUSE_NO":"２０３號","E_COORD97":181471.85999999999,"N_COORD97":2539873.2799999998,"ADDRESS":"中山路一段２０３號","OBJECTID":643626},"geometry":{"x":181471.86000000034,"y":2539873.2800000012}},{"attributes":{"ID":643654,"DIS_CODE":0,"TOWNNAME":"關廟區","LI":"南花里","LIN":"14鄰","STREET":"明德街","SECT":" ","MAREA":" ","LANE":" ","ALLEY":" ","HOUSE_NO":"５８號","E_COORD97":181703.04000000001,"N_COORD97":2540041.27,"ADDRESS":"明德街５８號","OBJECTID":643627},"geometry":{"x":181703.04000000004,"y":2540041.2699999996}},{"attributes":{"ID":643655,"DIS_CODE":0,"TOWNNAME":"關廟區","LI":"埤頭里","LIN":"4鄰","STREET":"保東路","SECT":" ","MAREA":" ","LANE":" ","ALLEY":" ","HOUSE_NO":"１３３號","E_COORD97":178751.73999999999,"N_COORD97":2544012.23,"ADDRESS":"保東路１３３號","OBJECTID":643628},"geometry":{"x":178751.74000000115,"y":2544012.2300000004}},{"attributes":{"ID":643656,"DIS_CODE":0,"TOWNNAME":"關廟區","LI":"香洋里","LIN":"20鄰","STREET":"中央路","SECT":" ","MAREA":" ","LANE":" ","ALLEY":" ","HOUSE_NO":"６７號","E_COORD97":181487.60999999999,"N_COORD97":2539973.3199999998,"ADDRESS":"中央路６７號","OBJECTID":643629},"geometry":{"x":181487.61000000034,"y":2539973.3200000003}},{"attributes":{"ID":643657,"DIS_CODE":0,"TOWNNAME":"關廟區","LI":"香洋里","LIN":"25鄰","STREET":"中山路","SECT":"二段","MAREA":" ","LANE":" ","ALLEY":" ","HOUSE_NO":"１０３號","E_COORD97":180952.85999999999,"N_COORD97":2540011.2799999998,"ADDRESS":"中山路二段１０３號","OBJECTID":643630},"geometry":{"x":180952.86000000127,"y":2540011.2800000012}},{"attributes":{"ID":643658,"DIS_CODE":0,"TOWNNAME":"關廟區","LI":"香洋里","LIN":"20鄰","STREET":"中央路","SECT":" ","MAREA":" ","LANE":" ","ALLEY":" ","HOUSE_NO":"４３號","E_COORD97":181546.01000000001,"N_COORD97":2539966.3199999998,"ADDRESS":"中央路４３號","OBJECTID":643631},"geometry":{"x":181546.01000000071,"y":2539966.3200000003}},{"attributes":{"ID":643659,"DIS_CODE":0,"TOWNNAME":"關廟區","LI":"松腳里","LIN":"14鄰","STREET":"松安街","SECT":" ","MAREA":" ","LANE":" ","ALLEY":" ","HOUSE_NO":"１０２號","E_COORD97":181925.07000000001,"N_COORD97":2539629.3199999998,"ADDRESS":"松安街１０２號","OBJECTID":643632},"geometry":{"x":181925.0700000003,"y":2539629.3200000022}},{"attributes":{"ID":643660,"DIS_CODE":0,"TOWNNAME":"關廟區","LI":"香洋里","LIN":"4鄰","STREET":"南雄路","SECT":"二段","MAREA":" ","LANE":" ","ALLEY":" ","HOUSE_NO":"１８０號","E_COORD97":181187.79000000001,"N_COORD97":2540451.2799999998,"ADDRESS":"南雄路二段１８０號","OBJECTID":643633},"geometry":{"x":181187.79000000004,"y":2540451.2799999993}},{"attributes":{"ID":643661,"DIS_CODE":0,"TOWNNAME":"關廟區","LI":"香洋里","LIN":"20鄰","STREET":"中山路","SECT":"一段","MAREA":" ","LANE":" ","ALLEY":" ","HOUSE_NO":"１７５號","E_COORD97":181537.06,"N_COORD97":2539860.2799999998,"ADDRESS":"中山路一段１７５號","OBJECTID":643634},"geometry":{"x":181537.06000000052,"y":2539860.2799999993}},{"attributes":{"ID":643662,"DIS_CODE":0,"TOWNNAME":"關廟區","LI":"香洋里","LIN":"25鄰","STREET":"南雄路","SECT":"一段","MAREA":" ","LANE":" ","ALLEY":" ","HOUSE_NO":"１１６１號","E_COORD97":181054.73000000001,"N_COORD97":2539943.9399999999,"ADDRESS":"南雄路一段１１６１號","OBJECTID":643635},"geometry":{"x":181054.73000000045,"y":2539943.9399999995}},{"attributes":{"ID":643663,"DIS_CODE":0,"TOWNNAME":"關廟區","LI":"關廟里","LIN":"4鄰","STREET":"文衡路","SECT":" ","MAREA":" ","LANE":" ","ALLEY":" ","HOUSE_NO":"４３號","E_COORD97":180884.69,"N_COORD97":2540172.3300000001,"ADDRESS":"文衡路４３號","OBJECTID":643636},"geometry":{"x":180884.69000000134,"y":2540172.3300000001}},{"attributes":{"ID":643664,"DIS_CODE":0,"TOWNNAME":"關廟區","LI":"埤頭里","LIN":"4鄰","STREET":"保東路","SECT":" ","MAREA":" ","LANE":" ","ALLEY":" ","HOUSE_NO":"１２３號","E_COORD97":178773.23999999999,"N_COORD97":2544012.23,"ADDRESS":"保東路１２３號","OBJECTID":643637},"geometry":{"x":178773.24000000115,"y":2544012.2300000004}},{"attributes":{"ID":643665,"DIS_CODE":0,"TOWNNAME":"關廟區","LI":"香洋里","LIN":"4鄰","STREET":"南雄路","SECT":"二段","MAREA":" ","LANE":" ","ALLEY":" ","HOUSE_NO":"２０２號","E_COORD97":181186.98999999999,"N_COORD97":2540499.2799999998,"ADDRESS":"南雄路二段２０２號","OBJECTID":643638},"geometry":{"x":181186.99000000209,"y":2540499.2800000031}},{"attributes":{"ID":643666,"DIS_CODE":0,"TOWNNAME":"關廟區","LI":"香洋里","LIN":"14鄰","STREET":"仁愛路","SECT":" ","MAREA":" ","LANE":" ","ALLEY":" ","HOUSE_NO":"８號","E_COORD97":181277.69,"N_COORD97":2540078.2799999998,"ADDRESS":"仁愛路８號","OBJECTID":643639},"geometry":{"x":181277.69000000134,"y":2540078.2799999993}},{"attributes":{"ID":643667,"DIS_CODE":0,"TOWNNAME":"關廟區","LI":"南花里","LIN":"8鄰","STREET":"四維街","SECT":" ","MAREA":" ","LANE":" ","ALLEY":" ","HOUSE_NO":"２５１號","E_COORD97":181853.56,"N_COORD97":2540235.25,"ADDRESS":"四維街２５１號","OBJECTID":643640},"geometry":{"x":181853.55999999866,"y":2540235.2499999981}},{"attributes":{"ID":643668,"DIS_CODE":0,"TOWNNAME":"關廟區","LI":"新埔里","LIN":"8鄰","STREET":"新埔三街","SECT":" ","MAREA":" ","LANE":" ","ALLEY":" ","HOUSE_NO":"１１５號","E_COORD97":181198.92000000001,"N_COORD97":2541106.25,"ADDRESS":"新埔三街１１５號","OBJECTID":643641},"geometry":{"x":181198.92000000179,"y":2541106.25}},{"attributes":{"ID":643669,"DIS_CODE":0,"TOWNNAME":"關廟區","LI":"松腳里","LIN":"4鄰","STREET":"松平街","SECT":" ","MAREA":" ","LANE":" ","ALLEY":" ","HOUSE_NO":"１８號","E_COORD97":182077.32000000001,"N_COORD97":2539734.25,"ADDRESS":"松平街１８號","OBJECTID":643642},"geometry":{"x":182077.3200000003,"y":2539734.2500000019}},{"attributes":{"ID":643670,"DIS_CODE":0,"TOWNNAME":"關廟區","LI":"關廟里","LIN":"5鄰","STREET":"文化街","SECT":" ","MAREA":" ","LANE":" ","ALLEY":" ","HOUSE_NO":"１９號","E_COORD97":180717.69,"N_COORD97":2539971.3300000001,"ADDRESS":"文化街１９號","OBJECTID":643643},"geometry":{"x":180717.69000000041,"y":2539971.3300000019}},{"attributes":{"ID":643671,"DIS_CODE":0,"TOWNNAME":"關廟區","LI":"香洋里","LIN":"25鄰","STREET":"南雄路","SECT":"一段","MAREA":" ","LANE":" ","ALLEY":" ","HOUSE_NO":"１１６３號","E_COORD97":181058.92999999999,"N_COORD97":2539956.9399999999,"ADDRESS":"南雄路一段１１６３號","OBJECTID":643644},"geometry":{"x":181058.9299999997,"y":2539956.9400000013}},{"attributes":{"ID":643672,"DIS_CODE":0,"TOWNNAME":"關廟區","LI":"香洋里","LIN":"14鄰","STREET":"仁愛路","SECT":" ","MAREA":" ","LANE":" ","ALLEY":" ","HOUSE_NO":"６８號","E_COORD97":181316.94,"N_COORD97":2540191.2799999998,"ADDRESS":"仁愛路６８號","OBJECTID":643645},"geometry":{"x":181316.94000000134,"y":2540191.2800000012}},{"attributes":{"ID":643673,"DIS_CODE":0,"TOWNNAME":"關廟區","LI":"香洋里","LIN":"20鄰","STREET":"中山路","SECT":"一段","MAREA":" ","LANE":" ","ALLEY":" ","HOUSE_NO":"１８１號","E_COORD97":181522.45999999999,"N_COORD97":2539861.2799999998,"ADDRESS":"中山路一段１８１號","OBJECTID":643646},"geometry":{"x":181522.46000000183,"y":2539861.2799999993}},{"attributes":{"ID":643674,"DIS_CODE":0,"TOWNNAME":"關廟區","LI":"香洋里","LIN":"20鄰","STREET":"中山路","SECT":"一段","MAREA":" ","LANE":" ","ALLEY":" ","HOUSE_NO":"２１１號","E_COORD97":181461.85999999999,"N_COORD97":2539876.2799999998,"ADDRESS":"中山路一段２１１號","OBJECTID":643647},"geometry":{"x":181461.86000000034,"y":2539876.2800000012}},{"attributes":{"ID":643675,"DIS_CODE":0,"TOWNNAME":"關廟區","LI":"香洋里","LIN":"17鄰","STREET":"中央路","SECT":" ","MAREA":" ","LANE":" ","ALLEY":" ","HOUSE_NO":"４０號","E_COORD97":181566.70999999999,"N_COORD97":2539990.3199999998,"ADDRESS":"中央路４０號","OBJECTID":643648},"geometry":{"x":181566.71000000089,"y":2539990.3200000003}},{"attributes":{"ID":643676,"DIS_CODE":0,"TOWNNAME":"關廟區","LI":"南花里","LIN":"8鄰","STREET":"四維街","SECT":" ","MAREA":" ","LANE":" ","ALLEY":" ","HOUSE_NO":"２５５號","E_COORD97":181855.45999999999,"N_COORD97":2540243.25,"ADDRESS":"四維街２５５號","OBJECTID":643649},"geometry":{"x":181855.46000000089,"y":2540243.2500000019}},{"attributes":{"ID":643677,"DIS_CODE":0,"TOWNNAME":"關廟區","LI":"關廟里","LIN":"4鄰","STREET":"正義街","SECT":" ","MAREA":" ","LANE":" ","ALLEY":" ","HOUSE_NO":"６號","E_COORD97":180828.51000000001,"N_COORD97":2540114.27,"ADDRESS":"正義街６號","OBJECTID":643650},"geometry":{"x":180828.50999999885,"y":2540114.2700000014}},{"attributes":{"ID":643678,"DIS_CODE":0,"TOWNNAME":"關廟區","LI":"關廟里","LIN":"5鄰","STREET":"中山路","SECT":"二段","MAREA":" ","LANE":" ","ALLEY":" ","HOUSE_NO":"２０９號","E_COORD97":180421.26000000001,"N_COORD97":2540091.2799999998,"ADDRESS":"中山路二段２０９號","OBJECTID":643651},"geometry":{"x":180421.25999999978,"y":2540091.2799999993}},{"attributes":{"ID":643679,"DIS_CODE":0,"TOWNNAME":"關廟區","LI":"北花里","LIN":"20鄰","STREET":"中正路","SECT":" ","MAREA":" ","LANE":" ","ALLEY":" ","HOUSE_NO":"１１１號","E_COORD97":183594.26000000001,"N_COORD97":2540914.25,"ADDRESS":"中正路１１１號","OBJECTID":643652},"geometry":{"x":183594.26000000071,"y":2540914.2500000019}},{"attributes":{"ID":643680,"DIS_CODE":0,"TOWNNAME":"關廟區","LI":"香洋里","LIN":"20鄰","STREET":"中央路","SECT":" ","MAREA":" ","LANE":" ","ALLEY":" ","HOUSE_NO":"６１號","E_COORD97":181501.51000000001,"N_COORD97":2539968.3199999998,"ADDRESS":"中央路６１號","OBJECTID":643653},"geometry":{"x":181501.50999999885,"y":2539968.3200000022}},{"attributes":{"ID":643681,"DIS_CODE":0,"TOWNNAME":"關廟區","LI":"香洋里","LIN":"13鄰","STREET":"中山路","SECT":"一段","MAREA":" ","LANE":" ","ALLEY":" ","HOUSE_NO":"６２８號","E_COORD97":181120.95999999999,"N_COORD97":2539998.2799999998,"ADDRESS":"中山路一段６２８號","OBJECTID":643654},"geometry":{"x":181120.96000000089,"y":2539998.2800000012}},{"attributes":{"ID":643682,"DIS_CODE":0,"TOWNNAME":"關廟區","LI":"北花里","LIN":"20鄰","STREET":"中正路","SECT":" ","MAREA":" ","LANE":" ","ALLEY":" ","HOUSE_NO":"１０１號","E_COORD97":183616.16,"N_COORD97":2540916.25,"ADDRESS":"中正路１０１號","OBJECTID":643655},"geometry":{"x":183616.16000000015,"y":2540916.25}},{"attributes":{"ID":643683,"DIS_CODE":0,"TOWNNAME":"關廟區","LI":"關廟里","LIN":"13鄰","STREET":"大富街","SECT":" ","MAREA":" ","LANE":" ","ALLEY":" ","HOUSE_NO":"１９９號","E_COORD97":181051.76999999999,"N_COORD97":2539469.25,"ADDRESS":"大富街１９９號","OBJECTID":643656},"geometry":{"x":181051.76999999955,"y":2539469.2500000037}},{"attributes":{"ID":643684,"DIS_CODE":0,"TOWNNAME":"關廟區","LI":"關廟里","LIN":"4鄰","STREET":"文衡路","SECT":" ","MAREA":" ","LANE":" ","ALLEY":" ","HOUSE_NO":"９號","E_COORD97":180878.04000000001,"N_COORD97":2540079.3300000001,"ADDRESS":"文衡路９號","OBJECTID":643657},"geometry":{"x":180878.04000000097,"y":2540079.3300000038}},{"attributes":{"ID":643685,"DIS_CODE":0,"TOWNNAME":"關廟區","LI":"龜洞里","LIN":"5鄰","STREET":"南橋街","SECT":" ","MAREA":" ","LANE":" ","ALLEY":" ","HOUSE_NO":"８０號","E_COORD97":182075.14000000001,"N_COORD97":2532563.2999999998,"ADDRESS":"南橋街８０號","OBJECTID":643658},"geometry":{"x":182075.13999999873,"y":2532563.2999999989}},{"attributes":{"ID":643686,"DIS_CODE":0,"TOWNNAME":"關廟區","LI":"新光里","LIN":"13鄰","STREET":"南寮街","SECT":" ","MAREA":" ","LANE":" ","ALLEY":" ","HOUSE_NO":"２０號","E_COORD97":184329.72,"N_COORD97":2541543.25,"ADDRESS":"南寮街２０號","OBJECTID":643659},"geometry":{"x":184329.72000000067,"y":2541543.25}},{"attributes":{"ID":643687,"DIS_CODE":0,"TOWNNAME":"關廟區","LI":"香洋里","LIN":"4鄰","STREET":"南雄路","SECT":"二段","MAREA":" ","LANE":" ","ALLEY":" ","HOUSE_NO":"２００號","E_COORD97":181186.98999999999,"N_COORD97":2540494.2799999998,"ADDRESS":"南雄路二段２００號","OBJECTID":643660},"geometry":{"x":181186.99000000209,"y":2540494.2799999993}},{"attributes":{"ID":643688,"DIS_CODE":0,"TOWNNAME":"關廟區","LI":"香洋里","LIN":"25鄰","STREET":"中山路","SECT":"二段","MAREA":" ","LANE":" ","ALLEY":" ","HOUSE_NO":"９３號","E_COORD97":180978.51000000001,"N_COORD97":2539984.2799999998,"ADDRESS":"中山路二段９３號","OBJECTID":643661},"geometry":{"x":180978.51000000071,"y":2539984.2800000012}},{"attributes":{"ID":643689,"DIS_CODE":0,"TOWNNAME":"關廟區","LI":"埤頭里","LIN":"4鄰","STREET":"保東路","SECT":" ","MAREA":" ","LANE":" ","ALLEY":" ","HOUSE_NO":"１１７號","E_COORD97":178787.04000000001,"N_COORD97":2544012.23,"ADDRESS":"保東路１１７號","OBJECTID":643662},"geometry":{"x":178787.04000000004,"y":2544012.2300000004}},{"attributes":{"ID":643690,"DIS_CODE":0,"TOWNNAME":"關廟區","LI":"新光里","LIN":"4鄰","STREET":"新光街","SECT":" ","MAREA":" ","LANE":" ","ALLEY":" ","HOUSE_NO":"９６號","E_COORD97":183734.17000000001,"N_COORD97":2541343.2999999998,"ADDRESS":"新光街９６號","OBJECTID":643663},"geometry":{"x":183734.16999999993,"y":2541343.3000000007}},{"attributes":{"ID":643691,"DIS_CODE":0,"TOWNNAME":"關廟區","LI":"香洋里","LIN":"18鄰","STREET":"中央路","SECT":" ","MAREA":" ","LANE":" ","ALLEY":" ","HOUSE_NO":"８號","E_COORD97":181636.06,"N_COORD97":2539989.3199999998,"ADDRESS":"中央路８號","OBJECTID":643664},"geometry":{"x":181636.05999999959,"y":2539989.3200000022}},{"attributes":{"ID":643692,"DIS_CODE":0,"TOWNNAME":"關廟區","LI":"深坑里","LIN":"14鄰","STREET":"南雄路","SECT":"一段","MAREA":" ","LANE":" ","ALLEY":" ","HOUSE_NO":"３６１號","E_COORD97":181811.47,"N_COORD97":2537480.2999999998,"ADDRESS":"南雄路一段３６１號","OBJECTID":643665},"geometry":{"x":181811.46999999974,"y":2537480.3000000026}},{"attributes":{"ID":643693,"DIS_CODE":0,"TOWNNAME":"關廟區","LI":"新埔里","LIN":"8鄰","STREET":"新埔三街","SECT":" ","MAREA":" ","LANE":" ","ALLEY":" ","HOUSE_NO":"１２７號","E_COORD97":181226.22,"N_COORD97":2541107.25,"ADDRESS":"新埔三街１２７號","OBJECTID":643666},"geometry":{"x":181226.22000000067,"y":2541107.2500000019}},{"attributes":{"ID":643694,"DIS_CODE":0,"TOWNNAME":"關廟區","LI":"松腳里","LIN":"4鄰","STREET":"松平街","SECT":" ","MAREA":" ","LANE":" ","ALLEY":" ","HOUSE_NO":"５０號","E_COORD97":182020.92000000001,"N_COORD97":2539735.25,"ADDRESS":"松平街５０號","OBJECTID":643667},"geometry":{"x":182020.91999999993,"y":2539735.2500000019}},{"attributes":{"ID":643695,"DIS_CODE":0,"TOWNNAME":"關廟區","LI":"香洋里","LIN":"25鄰","STREET":"中山路","SECT":"二段","MAREA":" ","LANE":" ","ALLEY":" ","HOUSE_NO":"９７號","E_COORD97":180967.70999999999,"N_COORD97":2540008.2799999998,"ADDRESS":"中山路二段９７號","OBJECTID":643668},"geometry":{"x":180967.70999999996,"y":2540008.2800000012}},{"attributes":{"ID":643696,"DIS_CODE":0,"TOWNNAME":"關廟區","LI":"新光里","LIN":"14鄰","STREET":"新光街","SECT":" ","MAREA":" ","LANE":" ","ALLEY":" ","HOUSE_NO":"１９０號","E_COORD97":184242.87,"N_COORD97":2541669.25,"ADDRESS":"新光街１９０號","OBJECTID":643669},"geometry":{"x":184242.87000000104,"y":2541669.25}},{"attributes":{"ID":643697,"DIS_CODE":0,"TOWNNAME":"關廟區","LI":"新光里","LIN":"13鄰","STREET":"南寮街","SECT":" ","MAREA":" ","LANE":" ","ALLEY":" ","HOUSE_NO":"３５號","E_COORD97":184353.92000000001,"N_COORD97":2541599.25,"ADDRESS":"南寮街３５號","OBJECTID":643670},"geometry":{"x":184353.92000000086,"y":2541599.2500000019}},{"attributes":{"ID":643698,"DIS_CODE":0,"TOWNNAME":"關廟區","LI":"新埔里","LIN":"1鄰","STREET":"新埔一街","SECT":" ","MAREA":" ","LANE":" ","ALLEY":" ","HOUSE_NO":"７１號","E_COORD97":181296.67000000001,"N_COORD97":2540893.25,"ADDRESS":"新埔一街７１號","OBJECTID":643671},"geometry":{"x":181296.66999999993,"y":2540893.2500000037}},{"attributes":{"ID":643699,"DIS_CODE":0,"TOWNNAME":"關廟區","LI":"埤頭里","LIN":"4鄰","STREET":"保東路","SECT":" ","MAREA":" ","LANE":" ","ALLEY":" ","HOUSE_NO":"１３５號","E_COORD97":178747.54000000001,"N_COORD97":2544012.23,"ADDRESS":"保東路１３５號","OBJECTID":643672},"geometry":{"x":178747.54000000097,"y":2544012.2300000004}},{"attributes":{"ID":643700,"DIS_CODE":0,"TOWNNAME":"關廟區","LI":"新埔里","LIN":"4鄰","STREET":"南雄路","SECT":"二段","MAREA":" ","LANE":" ","ALLEY":" ","HOUSE_NO":"５０８號","E_COORD97":181038.89000000001,"N_COORD97":2540876.2799999998,"ADDRESS":"南雄路二段５０８號","OBJECTID":643673},"geometry":{"x":181038.88999999966,"y":2540876.2800000012}},{"attributes":{"ID":643701,"DIS_CODE":0,"TOWNNAME":"關廟區","LI":"關廟里","LIN":"5鄰","STREET":"文化街","SECT":" ","MAREA":" ","LANE":" ","ALLEY":" ","HOUSE_NO":"４１號","E_COORD97":180691.29000000001,"N_COORD97":2539959.3300000001,"ADDRESS":"文化街４１號","OBJECTID":643674},"geometry":{"x":180691.28999999911,"y":2539959.3300000001}},{"attributes":{"ID":643702,"DIS_CODE":0,"TOWNNAME":"關廟區","LI":"香洋里","LIN":"20鄰","STREET":"中山路","SECT":"一段","MAREA":" ","LANE":" ","ALLEY":" ","HOUSE_NO":"１７７號","E_COORD97":181530.95999999999,"N_COORD97":2539860.2799999998,"ADDRESS":"中山路一段１７７號","OBJECTID":643675},"geometry":{"x":181530.96000000183,"y":2539860.2799999993}},{"attributes":{"ID":643703,"DIS_CODE":0,"TOWNNAME":"關廟區","LI":"香洋里","LIN":"14鄰","STREET":"仁愛路","SECT":" ","MAREA":" ","LANE":" ","ALLEY":" ","HOUSE_NO":"８０號","E_COORD97":181323.44,"N_COORD97":2540211.2799999998,"ADDRESS":"仁愛路８０號","OBJECTID":643676},"geometry":{"x":181323.44000000134,"y":2540211.2800000012}},{"attributes":{"ID":643704,"DIS_CODE":0,"TOWNNAME":"關廟區","LI":"香洋里","LIN":"14鄰","STREET":"仁愛路","SECT":" ","MAREA":" ","LANE":" ","ALLEY":" ","HOUSE_NO":"５８號","E_COORD97":181311.94,"N_COORD97":2540175.2799999998,"ADDRESS":"仁愛路５８號","OBJECTID":643677},"geometry":{"x":181311.94000000134,"y":2540175.2799999993}},{"attributes":{"ID":643705,"DIS_CODE":0,"TOWNNAME":"關廟區","LI":"香洋里","LIN":"20鄰","STREET":"中央路","SECT":" ","MAREA":" ","LANE":" ","ALLEY":" ","HOUSE_NO":"３７號","E_COORD97":181558.60999999999,"N_COORD97":2539968.3199999998,"ADDRESS":"中央路３７號","OBJECTID":643678},"geometry":{"x":181558.61000000034,"y":2539968.3200000022}},{"attributes":{"ID":643706,"DIS_CODE":0,"TOWNNAME":"關廟區","LI":"香洋里","LIN":"20鄰","STREET":"中山路","SECT":"一段","MAREA":" ","LANE":" ","ALLEY":" ","HOUSE_NO":"１７９號","E_COORD97":181526.66,"N_COORD97":2539860.2799999998,"ADDRESS":"中山路一段１７９號","OBJECTID":643679},"geometry":{"x":181526.66000000108,"y":2539860.2799999993}},{"attributes":{"ID":643707,"DIS_CODE":0,"TOWNNAME":"關廟區","LI":"香洋里","LIN":"25鄰","STREET":"中山路","SECT":"二段","MAREA":" ","LANE":" ","ALLEY":" ","HOUSE_NO":"１０５號","E_COORD97":180943.26000000001,"N_COORD97":2540013.2799999998,"ADDRESS":"中山路二段１０５號","OBJECTID":643680},"geometry":{"x":180943.25999999978,"y":2540013.2799999993}},{"attributes":{"ID":643708,"DIS_CODE":0,"TOWNNAME":"關廟區","LI":"香洋里","LIN":"14鄰","STREET":"仁愛路","SECT":" ","MAREA":" ","LANE":" ","ALLEY":" ","HOUSE_NO":"６０號","E_COORD97":181313.14000000001,"N_COORD97":2540179.2799999998,"ADDRESS":"仁愛路６０號","OBJECTID":643681},"geometry":{"x":181313.1400000006,"y":2540179.2799999993}},{"attributes":{"ID":643709,"DIS_CODE":0,"TOWNNAME":"關廟區","LI":"香洋里","LIN":"25鄰","STREET":"中山路","SECT":"二段","MAREA":" ","LANE":" ","ALLEY":" ","HOUSE_NO":"１２７號","E_COORD97":180932.16,"N_COORD97":2540015.2799999998,"ADDRESS":"中山路二段１２７號","OBJECTID":643682},"geometry":{"x":180932.16000000108,"y":2540015.2800000012}},{"attributes":{"ID":643710,"DIS_CODE":0,"TOWNNAME":"關廟區","LI":"香洋里","LIN":"14鄰","STREET":"仁愛路","SECT":" ","MAREA":" ","LANE":" ","ALLEY":" ","HOUSE_NO":"６號","E_COORD97":181276.59,"N_COORD97":2540073.2799999998,"ADDRESS":"仁愛路６號","OBJECTID":643683},"geometry":{"x":181276.58999999985,"y":2540073.2800000012}},{"attributes":{"ID":643711,"DIS_CODE":0,"TOWNNAME":"關廟區","LI":"新埔里","LIN":"4鄰","STREET":"南雄路","SECT":"二段","MAREA":" ","LANE":" ","ALLEY":" ","HOUSE_NO":"５００號","E_COORD97":181031.98999999999,"N_COORD97":2540848.2799999998,"ADDRESS":"南雄路二段５００號","OBJECTID":643684},"geometry":{"x":181031.99000000022,"y":2540848.2800000031}},{"attributes":{"ID":643712,"DIS_CODE":0,"TOWNNAME":"關廟區","LI":"埤頭里","LIN":"4鄰","STREET":"保東路","SECT":" ","MAREA":" ","LANE":" ","ALLEY":" ","HOUSE_NO":"１２１號","E_COORD97":178777.84,"N_COORD97":2544013.23,"ADDRESS":"保東路１２１號","OBJECTID":643685},"geometry":{"x":178777.83999999985,"y":2544013.2300000042}},{"attributes":{"ID":643713,"DIS_CODE":0,"TOWNNAME":"關廟區","LI":"埤頭里","LIN":"4鄰","STREET":"保東路","SECT":" ","MAREA":" ","LANE":" ","ALLEY":" ","HOUSE_NO":"１３１號","E_COORD97":178755.94,"N_COORD97":2544012.23,"ADDRESS":"保東路１３１號","OBJECTID":643686},"geometry":{"x":178755.94000000041,"y":2544012.2300000004}},{"attributes":{"ID":643714,"DIS_CODE":0,"TOWNNAME":"關廟區","LI":"香洋里","LIN":"14鄰","STREET":"仁愛路","SECT":" ","MAREA":" ","LANE":" ","ALLEY":" ","HOUSE_NO":"８２號","E_COORD97":181325.44,"N_COORD97":2540216.2799999998,"ADDRESS":"仁愛路８２號","OBJECTID":643687},"geometry":{"x":181325.44000000134,"y":2540216.2799999993}},{"attributes":{"ID":643715,"DIS_CODE":0,"TOWNNAME":"關廟區","LI":"香洋里","LIN":"14鄰","STREET":"仁愛路","SECT":" ","MAREA":" ","LANE":" ","ALLEY":" ","HOUSE_NO":"５０號","E_COORD97":181308.14000000001,"N_COORD97":2540163.2799999998,"ADDRESS":"仁愛路５０號","OBJECTID":643688},"geometry":{"x":181308.1400000006,"y":2540163.2800000031}},{"attributes":{"ID":643716,"DIS_CODE":0,"TOWNNAME":"關廟區","LI":"新埔里","LIN":"1鄰","STREET":"新埔一街","SECT":" ","MAREA":" ","LANE":" ","ALLEY":" ","HOUSE_NO":"２７號","E_COORD97":181255.26999999999,"N_COORD97":2540828.25,"ADDRESS":"新埔一街２７號","OBJECTID":643689},"geometry":{"x":181255.26999999955,"y":2540828.25}},{"attributes":{"ID":643717,"DIS_CODE":0,"TOWNNAME":"關廟區","LI":"關廟里","LIN":"4鄰","STREET":"文衡路","SECT":" ","MAREA":" ","LANE":" ","ALLEY":" ","HOUSE_NO":"１５號","E_COORD97":180880.89000000001,"N_COORD97":2540093.3300000001,"ADDRESS":"文衡路１５號","OBJECTID":643690},"geometry":{"x":180880.8900000006,"y":2540093.3300000019}},{"attributes":{"ID":643718,"DIS_CODE":0,"TOWNNAME":"關廟區","LI":"埤頭里","LIN":"4鄰","STREET":"保東路","SECT":" ","MAREA":" ","LANE":" ","ALLEY":" ","HOUSE_NO":"１２５號","E_COORD97":178769.44,"N_COORD97":2544012.23,"ADDRESS":"保東路１２５號","OBJECTID":643691},"geometry":{"x":178769.44000000041,"y":2544012.2300000004}},{"attributes":{"ID":643719,"DIS_CODE":0,"TOWNNAME":"關廟區","LI":"香洋里","LIN":"17鄰","STREET":"中央路","SECT":" ","MAREA":" ","LANE":" ","ALLEY":" ","HOUSE_NO":"２６號","E_COORD97":181597.01000000001,"N_COORD97":2539985.3199999998,"ADDRESS":"中央路２６號","OBJECTID":643692},"geometry":{"x":181597.01000000071,"y":2539985.3200000022}},{"attributes":{"ID":643720,"DIS_CODE":0,"TOWNNAME":"關廟區","LI":"關廟里","LIN":"4鄰","STREET":"文衡路","SECT":" ","MAREA":" ","LANE":" ","ALLEY":" ","HOUSE_NO":"３３號","E_COORD97":180882.79000000001,"N_COORD97":2540150.3300000001,"ADDRESS":"文衡路３３號","OBJECTID":643693},"geometry":{"x":180882.78999999911,"y":2540150.3300000038}},{"attributes":{"ID":643721,"DIS_CODE":0,"TOWNNAME":"關廟區","LI":"關廟里","LIN":"4鄰","STREET":"文衡路","SECT":" ","MAREA":" ","LANE":" ","ALLEY":" ","HOUSE_NO":"１１號","E_COORD97":180880.09,"N_COORD97":2540084.3300000001,"ADDRESS":"文衡路１１號","OBJECTID":643694},"geometry":{"x":180880.08999999985,"y":2540084.3300000001}},{"attributes":{"ID":643722,"DIS_CODE":0,"TOWNNAME":"關廟區","LI":"新埔里","LIN":"4鄰","STREET":"南雄路","SECT":"二段","MAREA":" ","LANE":" ","ALLEY":" ","HOUSE_NO":"４９０號","E_COORD97":181062.29000000001,"N_COORD97":2540813.2799999998,"ADDRESS":"南雄路二段４９０號","OBJECTID":643695},"geometry":{"x":181062.29000000004,"y":2540813.2799999993}},{"attributes":{"ID":643723,"DIS_CODE":0,"TOWNNAME":"關廟區","LI":"關廟里","LIN":"4鄰","STREET":"文衡路","SECT":" ","MAREA":" ","LANE":" ","ALLEY":" ","HOUSE_NO":"３１號","E_COORD97":180881.98999999999,"N_COORD97":2540145.3300000001,"ADDRESS":"文衡路３１號","OBJECTID":643696},"geometry":{"x":180881.99000000115,"y":2540145.3300000001}},{"attributes":{"ID":643724,"DIS_CODE":0,"TOWNNAME":"關廟區","LI":"埤頭里","LIN":"5鄰","STREET":"關新路","SECT":"一段","MAREA":" ","LANE":" ","ALLEY":" ","HOUSE_NO":"８６５號","E_COORD97":179078.92000000001,"N_COORD97":2543964.2999999998,"ADDRESS":"關新路一段８６５號","OBJECTID":643697},"geometry":{"x":179078.92000000086,"y":2543964.3000000007}},{"attributes":{"ID":643725,"DIS_CODE":0,"TOWNNAME":"關廟區","LI":"香洋里","LIN":"25鄰","STREET":"南雄路","SECT":"一段","MAREA":" ","LANE":" ","ALLEY":" ","HOUSE_NO":"１１６５號","E_COORD97":181060.03,"N_COORD97":2539961.9399999999,"ADDRESS":"南雄路一段１１６５號","OBJECTID":643698},"geometry":{"x":181060.03000000119,"y":2539961.9399999995}},{"attributes":{"ID":643726,"DIS_CODE":0,"TOWNNAME":"關廟區","LI":"南花里","LIN":"4鄰","STREET":"園東街","SECT":" ","MAREA":" ","LANE":" ","ALLEY":" ","HOUSE_NO":"６１號","E_COORD97":182023.56,"N_COORD97":2540066.25,"ADDRESS":"園東街６１號","OBJECTID":643699},"geometry":{"x":182023.56000000052,"y":2540066.2500000037}},{"attributes":{"ID":643727,"DIS_CODE":0,"TOWNNAME":"關廟區","LI":"東勢里","LIN":"26鄰","STREET":"東安街","SECT":" ","MAREA":" ","LANE":" ","ALLEY":" ","HOUSE_NO":"４７號","E_COORD97":181440.51999999999,"N_COORD97":2539769.3199999998,"ADDRESS":"東安街４７號","OBJECTID":643700},"geometry":{"x":181440.52000000048,"y":2539769.3200000003}},{"attributes":{"ID":643728,"DIS_CODE":0,"TOWNNAME":"關廟區","LI":"南花里","LIN":"13鄰","STREET":"花園一街","SECT":" ","MAREA":" ","LANE":" ","ALLEY":" ","HOUSE_NO":"１９６號","E_COORD97":181656.79000000001,"N_COORD97":2540157.25,"ADDRESS":"花園一街１９６號","OBJECTID":643701},"geometry":{"x":181656.79000000004,"y":2540157.2499999981}},{"attributes":{"ID":643729,"DIS_CODE":0,"TOWNNAME":"關廟區","LI":"關廟里","LIN":"13鄰","STREET":"大富街","SECT":" ","MAREA":" ","LANE":" ","ALLEY":" ","HOUSE_NO":"２１５號","E_COORD97":181054.07000000001,"N_COORD97":2539508.25,"ADDRESS":"大富街２１５號","OBJECTID":643702},"geometry":{"x":181054.06999999937,"y":2539508.2500000019}},{"attributes":{"ID":643730,"DIS_CODE":0,"TOWNNAME":"關廟區","LI":"香洋里","LIN":"24鄰","STREET":"民族街","SECT":" ","MAREA":" ","LANE":" ","ALLEY":" ","HOUSE_NO":"１５１號","E_COORD97":181247.48999999999,"N_COORD97":2539879.29,"ADDRESS":"民族街１５１號","OBJECTID":643703},"geometry":{"x":181247.49000000022,"y":2539879.290000001}},{"attributes":{"ID":643731,"DIS_CODE":0,"TOWNNAME":"關廟區","LI":"松腳里","LIN":"4鄰","STREET":"旺萊路","SECT":" ","MAREA":" ","LANE":" ","ALLEY":" ","HOUSE_NO":"３４５號","E_COORD97":182113.54000000001,"N_COORD97":2539760.25,"ADDRESS":"旺萊路３４５號","OBJECTID":643704},"geometry":{"x":182113.53999999911,"y":2539760.25}},{"attributes":{"ID":643732,"DIS_CODE":0,"TOWNNAME":"關廟區","LI":"關廟里","LIN":"4鄰","STREET":"中山路","SECT":"二段","MAREA":" ","LANE":" ","ALLEY":" ","HOUSE_NO":"２４８號","E_COORD97":179957.16,"N_COORD97":2540250.2799999998,"ADDRESS":"中山路二段２４８號","OBJECTID":643705},"geometry":{"x":179957.16000000108,"y":2540250.2799999993}},{"attributes":{"ID":643733,"DIS_CODE":0,"TOWNNAME":"關廟區","LI":"北花里","LIN":"20鄰","STREET":"中正路","SECT":" ","MAREA":" ","LANE":" ","ALLEY":" ","HOUSE_NO":"１２５號","E_COORD97":183562.06,"N_COORD97":2540914.25,"ADDRESS":"中正路１２５號","OBJECTID":643706},"geometry":{"x":183562.05999999959,"y":2540914.2500000019}},{"attributes":{"ID":643734,"DIS_CODE":0,"TOWNNAME":"關廟區","LI":"香洋里","LIN":"24鄰","STREET":"民族街","SECT":" ","MAREA":" ","LANE":" ","ALLEY":" ","HOUSE_NO":"２０８號","E_COORD97":181262.48999999999,"N_COORD97":2539889.29,"ADDRESS":"民族街２０８號","OBJECTID":643707},"geometry":{"x":181262.49000000022,"y":2539889.290000001}},{"attributes":{"ID":643735,"DIS_CODE":0,"TOWNNAME":"關廟區","LI":"松腳里","LIN":"14鄰","STREET":"東興路","SECT":" ","MAREA":" ","LANE":" ","ALLEY":" ","HOUSE_NO":"２３５號","E_COORD97":181816.07000000001,"N_COORD97":2539565.25,"ADDRESS":"東興路２３５號","OBJECTID":643708},"geometry":{"x":181816.07000000123,"y":2539565.2500000019}},{"attributes":{"ID":643736,"DIS_CODE":0,"TOWNNAME":"關廟區","LI":"深坑里","LIN":"4鄰","STREET":"深坑三街","SECT":" ","MAREA":" ","LANE":" ","ALLEY":" ","HOUSE_NO":"９３號","E_COORD97":181873.97,"N_COORD97":2537589.2999999998,"ADDRESS":"深坑三街９３號","OBJECTID":643709},"geometry":{"x":181873.96999999974,"y":2537589.3000000026}},{"attributes":{"ID":643737,"DIS_CODE":0,"TOWNNAME":"關廟區","LI":"南花里","LIN":"13鄰","STREET":"和平路","SECT":" ","MAREA":" ","LANE":" ","ALLEY":" ","HOUSE_NO":"３７８號","E_COORD97":181609.94,"N_COORD97":2540234.25,"ADDRESS":"和平路３７８號","OBJECTID":643710},"geometry":{"x":181609.94000000134,"y":2540234.25}},{"attributes":{"ID":643738,"DIS_CODE":0,"TOWNNAME":"關廟區","LI":"香洋里","LIN":"24鄰","STREET":"民族街","SECT":" ","MAREA":" ","LANE":" ","ALLEY":" ","HOUSE_NO":"２６０號","E_COORD97":181156.48999999999,"N_COORD97":2539914.29,"ADDRESS":"民族街２６０號","OBJECTID":643711},"geometry":{"x":181156.49000000209,"y":2539914.2899999991}},{"attributes":{"ID":643739,"DIS_CODE":0,"TOWNNAME":"關廟區","LI":"香洋里","LIN":"24鄰","STREET":"中山路","SECT":"一段","MAREA":" ","LANE":" ","ALLEY":" ","HOUSE_NO":"３８５號","E_COORD97":181139.76000000001,"N_COORD97":2539967.2799999998,"ADDRESS":"中山路一段３８５號","OBJECTID":643712},"geometry":{"x":181139.75999999978,"y":2539967.2800000012}},{"attributes":{"ID":643740,"DIS_CODE":0,"TOWNNAME":"關廟區","LI":"深坑里","LIN":"7鄰","STREET":"南雄路","SECT":"一段","MAREA":" ","LANE":" ","ALLEY":" ","HOUSE_NO":"４３８號","E_COORD97":181711.26999999999,"N_COORD97":2537706.2999999998,"ADDRESS":"南雄路一段４３８號","OBJECTID":643713},"geometry":{"x":181711.26999999955,"y":2537706.3000000007}},{"attributes":{"ID":643741,"DIS_CODE":0,"TOWNNAME":"關廟區","LI":"關廟里","LIN":"4鄰","STREET":"文衡路","SECT":" ","MAREA":" ","LANE":" ","ALLEY":" ","HOUSE_NO":"４１號","E_COORD97":180884.29000000001,"N_COORD97":2540168.3300000001,"ADDRESS":"文衡路４１號","OBJECTID":643714},"geometry":{"x":180884.29000000004,"y":2540168.3300000019}},{"attributes":{"ID":643742,"DIS_CODE":0,"TOWNNAME":"關廟區","LI":"新埔里","LIN":"5鄰","STREET":"新埔三街","SECT":" ","MAREA":" ","LANE":" ","ALLEY":" ","HOUSE_NO":"２３號","E_COORD97":181146.26999999999,"N_COORD97":2540973.25,"ADDRESS":"新埔三街２３號","OBJECTID":643715},"geometry":{"x":181146.26999999955,"y":2540973.25}},{"attributes":{"ID":643743,"DIS_CODE":0,"TOWNNAME":"關廟區","LI":"關廟里","LIN":"13鄰","STREET":"大富街","SECT":" ","MAREA":" ","LANE":" ","ALLEY":" ","HOUSE_NO":"２０３號","E_COORD97":181052.17000000001,"N_COORD97":2539479.25,"ADDRESS":"大富街２０３號","OBJECTID":643716},"geometry":{"x":181052.17000000086,"y":2539479.2499999981}},{"attributes":{"ID":643744,"DIS_CODE":0,"TOWNNAME":"關廟區","LI":"五甲里","LIN":"8鄰","STREET":"五慧街","SECT":" ","MAREA":" ","LANE":" ","ALLEY":" ","HOUSE_NO":"３８號","E_COORD97":181176.12,"N_COORD97":2539259.25,"ADDRESS":"五慧街３８號","OBJECTID":643717},"geometry":{"x":181176.12000000104,"y":2539259.2500000037}},{"attributes":{"ID":643745,"DIS_CODE":0,"TOWNNAME":"關廟區","LI":"關廟里","LIN":"8鄰","STREET":"民生街","SECT":" ","MAREA":" ","LANE":" ","ALLEY":" ","HOUSE_NO":"１３６號","E_COORD97":180863.29000000001,"N_COORD97":2539770.29,"ADDRESS":"民生街１３６號","OBJECTID":643718},"geometry":{"x":180863.29000000097,"y":2539770.290000001}},{"attributes":{"ID":643746,"DIS_CODE":0,"TOWNNAME":"關廟區","LI":"松腳里","LIN":"7鄰","STREET":"四維街","SECT":" ","MAREA":" ","LANE":" ","ALLEY":" ","HOUSE_NO":"２１８號","E_COORD97":181871.56,"N_COORD97":2539912.25,"ADDRESS":"四維街２１８號","OBJECTID":643719},"geometry":{"x":181871.55999999959,"y":2539912.25}},{"attributes":{"ID":643747,"DIS_CODE":0,"TOWNNAME":"關廟區","LI":"五甲里","LIN":"4鄰","STREET":"南雄路","SECT":"一段","MAREA":" ","LANE":" ","ALLEY":" ","HOUSE_NO":"８５６號","E_COORD97":181351.29000000001,"N_COORD97":2539184.2799999998,"ADDRESS":"南雄路一段８５６號","OBJECTID":643720},"geometry":{"x":181351.29000000097,"y":2539184.2800000012}},{"attributes":{"ID":643748,"DIS_CODE":0,"TOWNNAME":"關廟區","LI":"新埔里","LIN":"7鄰","STREET":"新埔三街","SECT":" ","MAREA":" ","LANE":" ","ALLEY":" ","HOUSE_NO":"７７號","E_COORD97":181108.97,"N_COORD97":2541049.25,"ADDRESS":"新埔三街７７號","OBJECTID":643721},"geometry":{"x":181108.97000000067,"y":2541049.2500000037}},{"attributes":{"ID":643749,"DIS_CODE":0,"TOWNNAME":"關廟區","LI":"關廟里","LIN":"13鄰","STREET":"大富街","SECT":" ","MAREA":" ","LANE":" ","ALLEY":" ","HOUSE_NO":"２０９號","E_COORD97":181052.97,"N_COORD97":2539494.25,"ADDRESS":"大富街２０９號","OBJECTID":643722},"geometry":{"x":181052.97000000067,"y":2539494.2500000019}},{"attributes":{"ID":643750,"DIS_CODE":0,"TOWNNAME":"關廟區","LI":"南花里","LIN":"4鄰","STREET":"園東街","SECT":" ","MAREA":" ","LANE":" ","ALLEY":" ","HOUSE_NO":"５７號","E_COORD97":182032.76000000001,"N_COORD97":2540066.25,"ADDRESS":"園東街５７號","OBJECTID":643723},"geometry":{"x":182032.76000000071,"y":2540066.2500000037}},{"attributes":{"ID":643751,"DIS_CODE":0,"TOWNNAME":"關廟區","LI":"關廟里","LIN":"4鄰","STREET":"中山路","SECT":"二段","MAREA":" ","LANE":" ","ALLEY":" ","HOUSE_NO":"１４２號","E_COORD97":180876.06,"N_COORD97":2540050.2799999998,"ADDRESS":"中山路二段１４２號","OBJECTID":643724},"geometry":{"x":180876.06000000052,"y":2540050.2799999993}},{"attributes":{"ID":643752,"DIS_CODE":0,"TOWNNAME":"關廟區","LI":"香洋里","LIN":"25鄰","STREET":"南雄路","SECT":"一段","MAREA":" ","LANE":" ","ALLEY":" ","HOUSE_NO":"１１５６號","E_COORD97":181073.14000000001,"N_COORD97":2539900.2799999998,"ADDRESS":"南雄路一段１１５６號","OBJECTID":643725},"geometry":{"x":181073.13999999966,"y":2539900.2800000012}},{"attributes":{"ID":643753,"DIS_CODE":0,"TOWNNAME":"關廟區","LI":"關廟里","LIN":"13鄰","STREET":"大仁街","SECT":" ","MAREA":" ","LANE":" ","ALLEY":" ","HOUSE_NO":"１２１號","E_COORD97":181019.97,"N_COORD97":2539388.25,"ADDRESS":"大仁街１２１號","OBJECTID":643726},"geometry":{"x":181019.96999999974,"y":2539388.2500000019}},{"attributes":{"ID":643754,"DIS_CODE":0,"TOWNNAME":"關廟區","LI":"深坑里","LIN":"4鄰","STREET":"深坑一街","SECT":" ","MAREA":" ","LANE":" ","ALLEY":" ","HOUSE_NO":"１９號","E_COORD97":181890.87,"N_COORD97":2537596.2999999998,"ADDRESS":"深坑一街１９號","OBJECTID":643727},"geometry":{"x":181890.87000000011,"y":2537596.3000000026}},{"attributes":{"ID":643755,"DIS_CODE":0,"TOWNNAME":"關廟區","LI":"東勢里","LIN":"20鄰","STREET":"東昌街","SECT":" ","MAREA":" ","LANE":" ","ALLEY":" ","HOUSE_NO":"１２號","E_COORD97":181969.92000000001,"N_COORD97":2539290.25,"ADDRESS":"東昌街１２號","OBJECTID":643728},"geometry":{"x":181969.91999999993,"y":2539290.2500000019}},{"attributes":{"ID":643756,"DIS_CODE":0,"TOWNNAME":"關廟區","LI":"東勢里","LIN":"20鄰","STREET":"東昌街","SECT":" ","MAREA":" ","LANE":" ","ALLEY":" ","HOUSE_NO":"１６號","E_COORD97":181973.32000000001,"N_COORD97":2539288.25,"ADDRESS":"東昌街１６號","OBJECTID":643729},"geometry":{"x":181973.32000000123,"y":2539288.25}},{"attributes":{"ID":643757,"DIS_CODE":0,"TOWNNAME":"關廟區","LI":"香洋里","LIN":"24鄰","STREET":"民族街","SECT":" ","MAREA":" ","LANE":" ","ALLEY":" ","HOUSE_NO":"２６８號","E_COORD97":181144.59,"N_COORD97":2539917.29,"ADDRESS":"民族街２６８號","OBJECTID":643730},"geometry":{"x":181144.58999999985,"y":2539917.2899999991}},{"attributes":{"ID":643758,"DIS_CODE":0,"TOWNNAME":"關廟區","LI":"香洋里","LIN":"24鄰","STREET":"民族街","SECT":" ","MAREA":" ","LANE":" ","ALLEY":" ","HOUSE_NO":"２３６號","E_COORD97":181209.89000000001,"N_COORD97":2539903.29,"ADDRESS":"民族街２３６號","OBJECTID":643731},"geometry":{"x":181209.88999999966,"y":2539903.290000001}},{"attributes":{"ID":643759,"DIS_CODE":0,"TOWNNAME":"關廟區","LI":"五甲里","LIN":"17鄰","STREET":"五義街","SECT":" ","MAREA":" ","LANE":" ","ALLEY":" ","HOUSE_NO":"７０號","E_COORD97":181066.32000000001,"N_COORD97":2539050.27,"ADDRESS":"五義街７０號","OBJECTID":643732},"geometry":{"x":181066.32000000123,"y":2539050.2699999996}},{"attributes":{"ID":643760,"DIS_CODE":0,"TOWNNAME":"關廟區","LI":"北花里","LIN":"20鄰","STREET":"中正路","SECT":" ","MAREA":" ","LANE":" ","ALLEY":" ","HOUSE_NO":"４７號","E_COORD97":183763.10999999999,"N_COORD97":2540933.25,"ADDRESS":"中正路４７號","OBJECTID":643733},"geometry":{"x":183763.11000000127,"y":2540933.25}},{"attributes":{"ID":643761,"DIS_CODE":0,"TOWNNAME":"關廟區","LI":"東勢里","LIN":"20鄰","STREET":"東昌街","SECT":" ","MAREA":" ","LANE":" ","ALLEY":" ","HOUSE_NO":"２７號","E_COORD97":182007.51999999999,"N_COORD97":2539283.25,"ADDRESS":"東昌街２７號","OBJECTID":643734},"geometry":{"x":182007.51999999955,"y":2539283.2500000019}},{"attributes":{"ID":643762,"DIS_CODE":0,"TOWNNAME":"關廟區","LI":"香洋里","LIN":"13鄰","STREET":"中山路","SECT":"一段","MAREA":" ","LANE":" ","ALLEY":" ","HOUSE_NO":"６２６號","E_COORD97":181126.35999999999,"N_COORD97":2539997.2799999998,"ADDRESS":"中山路一段６２６號","OBJECTID":643735},"geometry":{"x":181126.36000000034,"y":2539997.2800000031}},{"attributes":{"ID":643763,"DIS_CODE":0,"TOWNNAME":"關廟區","LI":"香洋里","LIN":"24鄰","STREET":"民族街","SECT":" ","MAREA":" ","LANE":" ","ALLEY":" ","HOUSE_NO":"２１６號","E_COORD97":181244.79000000001,"N_COORD97":2539894.29,"ADDRESS":"民族街２１６號","OBJECTID":643736},"geometry":{"x":181244.79000000097,"y":2539894.2899999991}},{"attributes":{"ID":643764,"DIS_CODE":0,"TOWNNAME":"關廟區","LI":"香洋里","LIN":"24鄰","STREET":"民族街","SECT":" ","MAREA":" ","LANE":" ","ALLEY":" ","HOUSE_NO":"２２０號","E_COORD97":181236.39000000001,"N_COORD97":2539896.29,"ADDRESS":"民族街２２０號","OBJECTID":643737},"geometry":{"x":181236.3900000006,"y":2539896.290000001}},{"attributes":{"ID":643765,"DIS_CODE":0,"TOWNNAME":"關廟區","LI":"關廟里","LIN":"4鄰","STREET":"中山路","SECT":"二段","MAREA":" ","LANE":" ","ALLEY":" ","HOUSE_NO":"２６０號","E_COORD97":179732.26000000001,"N_COORD97":2540297.2799999998,"ADDRESS":"中山路二段２６０號","OBJECTID":643738},"geometry":{"x":179732.26000000071,"y":2540297.2800000012}},{"attributes":{"ID":643766,"DIS_CODE":0,"TOWNNAME":"關廟區","LI":"北花里","LIN":"4鄰","STREET":"中正路","SECT":" ","MAREA":" ","LANE":" ","ALLEY":" ","HOUSE_NO":"７０９號","E_COORD97":181932.66,"N_COORD97":2540385.25,"ADDRESS":"中正路７０９號","OBJECTID":643739},"geometry":{"x":181932.66000000015,"y":2540385.2500000019}},{"attributes":{"ID":643767,"DIS_CODE":0,"TOWNNAME":"關廟區","LI":"東勢里","LIN":"20鄰","STREET":"東昌街","SECT":" ","MAREA":" ","LANE":" ","ALLEY":" ","HOUSE_NO":"１５號","E_COORD97":181986.01999999999,"N_COORD97":2539295.25,"ADDRESS":"東昌街１５號","OBJECTID":643740},"geometry":{"x":181986.01999999862,"y":2539295.25}},{"attributes":{"ID":643768,"DIS_CODE":0,"TOWNNAME":"關廟區","LI":"東勢里","LIN":"20鄰","STREET":"東昌街","SECT":" ","MAREA":" ","LANE":" ","ALLEY":" ","HOUSE_NO":"２６號","E_COORD97":181988.72,"N_COORD97":2539279.25,"ADDRESS":"東昌街２６號","OBJECTID":643741},"geometry":{"x":181988.72000000067,"y":2539279.2499999981}},{"attributes":{"ID":643769,"DIS_CODE":0,"TOWNNAME":"關廟區","LI":"香洋里","LIN":"26鄰","STREET":"南雄路","SECT":"一段","MAREA":" ","LANE":" ","ALLEY":" ","HOUSE_NO":"１１３６號","E_COORD97":181071.23999999999,"N_COORD97":2539861.2799999998,"ADDRESS":"南雄路一段１１３６號","OBJECTID":643742},"geometry":{"x":181071.24000000022,"y":2539861.2799999993}},{"attributes":{"ID":643770,"DIS_CODE":0,"TOWNNAME":"關廟區","LI":"五甲里","LIN":"17鄰","STREET":"五權街","SECT":" ","MAREA":" ","LANE":" ","ALLEY":" ","HOUSE_NO":"３９號","E_COORD97":181094.72,"N_COORD97":2539083.25,"ADDRESS":"五權街３９號","OBJECTID":643743},"geometry":{"x":181094.71999999974,"y":2539083.2500000019}},{"attributes":{"ID":643771,"DIS_CODE":0,"TOWNNAME":"關廟區","LI":"關廟里","LIN":"7鄰","STREET":"民生街","SECT":" ","MAREA":" ","LANE":" ","ALLEY":" ","HOUSE_NO":"１７１號","E_COORD97":180869.39000000001,"N_COORD97":2539901.29,"ADDRESS":"民生街１７１號","OBJECTID":643744},"geometry":{"x":180869.38999999966,"y":2539901.2899999991}},{"attributes":{"ID":643772,"DIS_CODE":0,"TOWNNAME":"關廟區","LI":"北花里","LIN":"15鄰","STREET":"中正路","SECT":" ","MAREA":" ","LANE":" ","ALLEY":" ","HOUSE_NO":"１６９號","E_COORD97":183467.26000000001,"N_COORD97":2540894.25,"ADDRESS":"中正路１６９號","OBJECTID":643745},"geometry":{"x":183467.25999999978,"y":2540894.2500000019}},{"attributes":{"ID":643773,"DIS_CODE":0,"TOWNNAME":"關廟區","LI":"北勢里","LIN":"15鄰","STREET":"北新街","SECT":" ","MAREA":" ","LANE":" ","ALLEY":" ","HOUSE_NO":"８９號","E_COORD97":181331.54000000001,"N_COORD97":2540515.25,"ADDRESS":"北新街８９號","OBJECTID":643746},"geometry":{"x":181331.54000000004,"y":2540515.25}},{"attributes":{"ID":643774,"DIS_CODE":0,"TOWNNAME":"關廟區","LI":"關廟里","LIN":"4鄰","STREET":"正義街","SECT":" ","MAREA":" ","LANE":" ","ALLEY":" ","HOUSE_NO":"１２號","E_COORD97":180831.35999999999,"N_COORD97":2540122.27,"ADDRESS":"正義街１２號","OBJECTID":643747},"geometry":{"x":180831.36000000034,"y":2540122.2699999996}},{"attributes":{"ID":643775,"DIS_CODE":0,"TOWNNAME":"關廟區","LI":"香洋里","LIN":"25鄰","STREET":"南雄路","SECT":"一段","MAREA":" ","LANE":" ","ALLEY":" ","HOUSE_NO":"１１５８號","E_COORD97":181073.94,"N_COORD97":2539905.2799999998,"ADDRESS":"南雄路一段１１５８號","OBJECTID":643748},"geometry":{"x":181073.94000000227,"y":2539905.2799999993}},{"attributes":{"ID":643776,"DIS_CODE":0,"TOWNNAME":"關廟區","LI":"香洋里","LIN":"25鄰","STREET":"中山路","SECT":"二段","MAREA":" ","LANE":" ","ALLEY":" ","HOUSE_NO":"８１號","E_COORD97":180997.70999999999,"N_COORD97":2539955.2799999998,"ADDRESS":"中山路二段８１號","OBJECTID":643749},"geometry":{"x":180997.71000000089,"y":2539955.2799999993}},{"attributes":{"ID":643777,"DIS_CODE":0,"TOWNNAME":"關廟區","LI":"香洋里","LIN":"13鄰","STREET":"中山路","SECT":"一段","MAREA":" ","LANE":" ","ALLEY":" ","HOUSE_NO":"６３０號","E_COORD97":181115.95999999999,"N_COORD97":2539999.2799999998,"ADDRESS":"中山路一段６３０號","OBJECTID":643750},"geometry":{"x":181115.96000000089,"y":2539999.2799999993}},{"attributes":{"ID":643778,"DIS_CODE":0,"TOWNNAME":"關廟區","LI":"香洋里","LIN":"18鄰","STREET":"和平路","SECT":" ","MAREA":" ","LANE":" ","ALLEY":" ","HOUSE_NO":"２８１號","E_COORD97":181635.23999999999,"N_COORD97":2540102.25,"ADDRESS":"和平路２８１號","OBJECTID":643751},"geometry":{"x":181635.24000000115,"y":2540102.25}},{"attributes":{"ID":643779,"DIS_CODE":0,"TOWNNAME":"關廟區","LI":"香洋里","LIN":"25鄰","STREET":"中山路","SECT":"二段","MAREA":" ","LANE":" ","ALLEY":" ","HOUSE_NO":"１２５號","E_COORD97":180936.76000000001,"N_COORD97":2540014.2799999998,"ADDRESS":"中山路二段１２５號","OBJECTID":643752},"geometry":{"x":180936.75999999978,"y":2540014.2800000031}},{"attributes":{"ID":643780,"DIS_CODE":0,"TOWNNAME":"關廟區","LI":"關廟里","LIN":"13鄰","STREET":"大富街","SECT":" ","MAREA":" ","LANE":" ","ALLEY":" ","HOUSE_NO":"１８５號","E_COORD97":181052.17000000001,"N_COORD97":2539369.25,"ADDRESS":"大富街１８５號","OBJECTID":643753},"geometry":{"x":181052.17000000086,"y":2539369.2500000019}},{"attributes":{"ID":643781,"DIS_CODE":0,"TOWNNAME":"關廟區","LI":"北勢里","LIN":"13鄰","STREET":"北安二街","SECT":" ","MAREA":" ","LANE":" ","ALLEY":" ","HOUSE_NO":"２１３號","E_COORD97":181399.73999999999,"N_COORD97":2540716.3199999998,"ADDRESS":"北安二街２１３號","OBJECTID":643754},"geometry":{"x":181399.74000000022,"y":2540716.3200000003}},{"attributes":{"ID":643782,"DIS_CODE":0,"TOWNNAME":"關廟區","LI":"香洋里","LIN":"24鄰","STREET":"民族街","SECT":" ","MAREA":" ","LANE":" ","ALLEY":" ","HOUSE_NO":"２７８號","E_COORD97":181126.59,"N_COORD97":2539923.29,"ADDRESS":"民族街２７８號","OBJECTID":643755},"geometry":{"x":181126.59000000171,"y":2539923.290000001}},{"attributes":{"ID":643783,"DIS_CODE":0,"TOWNNAME":"關廟區","LI":"布袋里","LIN":"7鄰","STREET":"南雄南路","SECT":" ","MAREA":" ","LANE":" ","ALLEY":" ","HOUSE_NO":"４１７號","E_COORD97":183797.04000000001,"N_COORD97":2534618.2999999998,"ADDRESS":"南雄南路４１７號","OBJECTID":643756},"geometry":{"x":183797.0400000019,"y":2534618.3000000045}},{"attributes":{"ID":643784,"DIS_CODE":0,"TOWNNAME":"關廟區","LI":"香洋里","LIN":"15鄰","STREET":"香洋路","SECT":" ","MAREA":" ","LANE":" ","ALLEY":" ","HOUSE_NO":"５６號","E_COORD97":181368.39000000001,"N_COORD97":2540061.25,"ADDRESS":"香洋路５６號","OBJECTID":643757},"geometry":{"x":181368.39000000153,"y":2540061.25}},{"attributes":{"ID":643785,"DIS_CODE":0,"TOWNNAME":"關廟區","LI":"香洋里","LIN":"1鄰","STREET":"中正路","SECT":" ","MAREA":" ","LANE":" ","ALLEY":" ","HOUSE_NO":"９１０號","E_COORD97":181220.95999999999,"N_COORD97":2540276.25,"ADDRESS":"中正路９１０號","OBJECTID":643758},"geometry":{"x":181220.96000000089,"y":2540276.2500000037}},{"attributes":{"ID":643786,"DIS_CODE":0,"TOWNNAME":"關廟區","LI":"南花里","LIN":"14鄰","STREET":"和平路","SECT":" ","MAREA":" ","LANE":" ","ALLEY":" ","HOUSE_NO":"３２６號","E_COORD97":181654.04000000001,"N_COORD97":2540081.25,"ADDRESS":"和平路３２６號","OBJECTID":643759},"geometry":{"x":181654.04000000004,"y":2540081.25}},{"attributes":{"ID":643787,"DIS_CODE":0,"TOWNNAME":"關廟區","LI":"南花里","LIN":"4鄰","STREET":"園東街","SECT":" ","MAREA":" ","LANE":" ","ALLEY":" ","HOUSE_NO":"５３號","E_COORD97":182039.66,"N_COORD97":2540064.25,"ADDRESS":"園東街５３號","OBJECTID":643760},"geometry":{"x":182039.66000000015,"y":2540064.2500000019}},{"attributes":{"ID":643788,"DIS_CODE":0,"TOWNNAME":"關廟區","LI":"香洋里","LIN":"24鄰","STREET":"民族街","SECT":" ","MAREA":" ","LANE":" ","ALLEY":" ","HOUSE_NO":"１５９號","E_COORD97":181225.98999999999,"N_COORD97":2539883.29,"ADDRESS":"民族街１５９號","OBJECTID":643761},"geometry":{"x":181225.99000000209,"y":2539883.290000001}},{"attributes":{"ID":643789,"DIS_CODE":0,"TOWNNAME":"關廟區","LI":"香洋里","LIN":"24鄰","STREET":"民族街","SECT":" ","MAREA":" ","LANE":" ","ALLEY":" ","HOUSE_NO":"２３８號","E_COORD97":181205.29000000001,"N_COORD97":2539904.29,"ADDRESS":"民族街２３８號","OBJECTID":643762},"geometry":{"x":181205.29000000097,"y":2539904.2899999991}},{"attributes":{"ID":643790,"DIS_CODE":0,"TOWNNAME":"新化區","LI":"中央里","LIN":"4鄰","STREET":"大同街","SECT":" ","MAREA":" ","LANE":" ","ALLEY":" ","HOUSE_NO":"１３０號","E_COORD97":178972.82999999999,"N_COORD97":2548397.25,"ADDRESS":"大同街１３０號","OBJECTID":643763},"geometry":{"x":178972.83000000101,"y":2548397.2500000019}},{"attributes":{"ID":643791,"DIS_CODE":0,"TOWNNAME":"新化區","LI":"觀音里","LIN":"4鄰","STREET":"中正路","SECT":" ","MAREA":" ","LANE":" ","ALLEY":" ","HOUSE_NO":"４７７號","E_COORD97":179049.20999999999,"N_COORD97":2548514.25,"ADDRESS":"中正路４７７號","OBJECTID":643764},"geometry":{"x":179049.21000000183,"y":2548514.25}},{"attributes":{"ID":643792,"DIS_CODE":0,"TOWNNAME":"新化區","LI":"唪口里","LIN":"4鄰","STREET":"大德路","SECT":" ","MAREA":" ","LANE":" ","ALLEY":" ","HOUSE_NO":"９０號之１","E_COORD97":178136.81,"N_COORD97":2549482.2599999998,"ADDRESS":"大德路９０號之１","OBJECTID":643765},"geometry":{"x":178136.81000000052,"y":2549482.2600000016}},{"attributes":{"ID":643793,"DIS_CODE":0,"TOWNNAME":"新化區","LI":"協興里","LIN":"4鄰","STREET":"中山路","SECT":" ","MAREA":" ","LANE":" ","ALLEY":" ","HOUSE_NO":"５１８號","E_COORD97":178540.91,"N_COORD97":2548436.25,"ADDRESS":"中山路５１８號","OBJECTID":643766},"geometry":{"x":178540.91000000015,"y":2548436.25}},{"attributes":{"ID":643794,"DIS_CODE":0,"TOWNNAME":"新化區","LI":"武安里","LIN":"4鄰","STREET":"大同街","SECT":" ","MAREA":" ","LANE":" ","ALLEY":" ","HOUSE_NO":"２６號","E_COORD97":179020.28,"N_COORD97":2548163.25,"ADDRESS":"大同街２６號","OBJECTID":643767},"geometry":{"x":179020.28000000212,"y":2548163.2500000019}},{"attributes":{"ID":643795,"DIS_CODE":0,"TOWNNAME":"新化區","LI":"東榮里","LIN":"4鄰","STREET":"信義路","SECT":" ","MAREA":" ","LANE":" ","ALLEY":" ","HOUSE_NO":"４１號","E_COORD97":180665.07999999999,"N_COORD97":2548686.25,"ADDRESS":"信義路４１號","OBJECTID":643768},"geometry":{"x":180665.08000000007,"y":2548686.25}},{"attributes":{"ID":643796,"DIS_CODE":0,"TOWNNAME":"新化區","LI":"太平里","LIN":"14鄰","STREET":"太平街","SECT":" ","MAREA":" ","LANE":" ","ALLEY":" ","HOUSE_NO":"７６號","E_COORD97":178669.97,"N_COORD97":2548760.25,"ADDRESS":"太平街７６號","OBJECTID":643769},"geometry":{"x":178669.97000000067,"y":2548760.2500000019}},{"attributes":{"ID":643797,"DIS_CODE":0,"TOWNNAME":"新化區","LI":"護國里","LIN":"4鄰","STREET":"中山路","SECT":" ","MAREA":" ","LANE":" ","ALLEY":" ","HOUSE_NO":"２１４號","E_COORD97":179148.31,"N_COORD97":2548457.25,"ADDRESS":"中山路２１４號","OBJECTID":643770},"geometry":{"x":179148.31000000052,"y":2548457.2500000037}},{"attributes":{"ID":643798,"DIS_CODE":0,"TOWNNAME":"新化區","LI":"東榮里","LIN":"20鄰","STREET":"信義路","SECT":" ","MAREA":" ","LANE":" ","ALLEY":" ","HOUSE_NO":"１３７號","E_COORD97":179392.42999999999,"N_COORD97":2548414.25,"ADDRESS":"信義路１３７號","OBJECTID":643771},"geometry":{"x":179392.4299999997,"y":2548414.2500000019}},{"attributes":{"ID":643799,"DIS_CODE":0,"TOWNNAME":"新化區","LI":"中央里","LIN":"4鄰","STREET":"中山路","SECT":" ","MAREA":" ","LANE":" ","ALLEY":" ","HOUSE_NO":"２５９號","E_COORD97":179040.10999999999,"N_COORD97":2548415.25,"ADDRESS":"中山路２５９號","OBJECTID":643772},"geometry":{"x":179040.1100000022,"y":2548415.25}},{"attributes":{"ID":643800,"DIS_CODE":0,"TOWNNAME":"新化區","LI":"中央里","LIN":"4鄰","STREET":"中山路","SECT":" ","MAREA":" ","LANE":" ","ALLEY":" ","HOUSE_NO":"２５５號","E_COORD97":179046.70999999999,"N_COORD97":2548416.25,"ADDRESS":"中山路２５５號","OBJECTID":643773},"geometry":{"x":179046.70999999996,"y":2548416.2499999981}},{"attributes":{"ID":643801,"DIS_CODE":0,"TOWNNAME":"新化區","LI":"觀音里","LIN":"4鄰","STREET":"仁愛街","SECT":" ","MAREA":" ","LANE":" ","ALLEY":" ","HOUSE_NO":"６１號","E_COORD97":178988.48000000001,"N_COORD97":2548569.25,"ADDRESS":"仁愛街６１號","OBJECTID":643774},"geometry":{"x":178988.48000000231,"y":2548569.2500000037}},{"attributes":{"ID":643802,"DIS_CODE":0,"TOWNNAME":"新化區","LI":"太平里","LIN":"4鄰","STREET":"民生路","SECT":" ","MAREA":" ","LANE":" ","ALLEY":" ","HOUSE_NO":"２８５號","E_COORD97":178943.01000000001,"N_COORD97":2549145.25,"ADDRESS":"民生路２８５號","OBJECTID":643775},"geometry":{"x":178943.00999999978,"y":2549145.2499999981}},{"attributes":{"ID":643803,"DIS_CODE":0,"TOWNNAME":"新化區","LI":"觀音里","LIN":"4鄰","STREET":"中正路","SECT":" ","MAREA":" ","LANE":" ","ALLEY":" ","HOUSE_NO":"５０９號","E_COORD97":179025.70999999999,"N_COORD97":2548573.25,"ADDRESS":"中正路５０９號","OBJECTID":643776},"geometry":{"x":179025.71000000089,"y":2548573.2500000019}},{"attributes":{"ID":643804,"DIS_CODE":0,"TOWNNAME":"南區","LI":"文南里","LIN":"13鄰","STREET":"育南街","SECT":" ","MAREA":" ","LANE":" ","ALLEY":" ","HOUSE_NO":"４６號","E_COORD97":166878.42999999999,"N_COORD97":2542665.0299999998,"ADDRESS":"育南街４６號","OBJECTID":643777},"geometry":{"x":166878.43000000063,"y":2542665.0300000012}},{"attributes":{"ID":643805,"DIS_CODE":0,"TOWNNAME":"新化區","LI":"知義里","LIN":"14鄰","STREET":"復興路","SECT":" ","MAREA":" ","LANE":" ","ALLEY":" ","HOUSE_NO":"１２５號","E_COORD97":179470.82000000001,"N_COORD97":2547768.25,"ADDRESS":"復興路１２５號","OBJECTID":643778},"geometry":{"x":179470.81999999937,"y":2547768.25}},{"attributes":{"ID":643806,"DIS_CODE":0,"TOWNNAME":"南區","LI":"廣州里","LIN":"4鄰","STREET":"夏林路","SECT":" ","MAREA":" ","LANE":" ","ALLEY":" ","HOUSE_NO":"１號之１","E_COORD97":167479.42999999999,"N_COORD97":2543095.4700000002,"ADDRESS":"夏林路１號之１","OBJECTID":643779},"geometry":{"x":167479.43000000156,"y":2543095.4700000007}},{"attributes":{"ID":643807,"DIS_CODE":0,"TOWNNAME":"東區","LI":"龍山里","LIN":"18鄰","STREET":"東門路","SECT":"一段","MAREA":" ","LANE":" ","ALLEY":" ","HOUSE_NO":"２３８號","E_COORD97":169683.07999999999,"N_COORD97":2543049.8399999999,"ADDRESS":"東門路一段２３８號","OBJECTID":643780},"geometry":{"x":169683.08000000101,"y":2543049.8400000017}},{"attributes":{"ID":643808,"DIS_CODE":0,"TOWNNAME":"南區","LI":"同安里","LIN":"13鄰","STREET":"明興路","SECT":" ","MAREA":" ","LANE":" ","ALLEY":" ","HOUSE_NO":"１３３７號","E_COORD97":166392.35000000001,"N_COORD97":2535959.9500000002,"ADDRESS":"明興路１３３７號","OBJECTID":643781},"geometry":{"x":166392.35000000056,"y":2535959.9499999993}},{"attributes":{"ID":643809,"DIS_CODE":0,"TOWNNAME":"北區","LI":"新勝里","LIN":"4鄰","STREET":"北園街","SECT":" ","MAREA":" ","LANE":" ","ALLEY":" ","HOUSE_NO":"５１號之８","E_COORD97":170252.57000000001,"N_COORD97":2545539.7400000002,"ADDRESS":"北園街５１號之８","OBJECTID":643782},"geometry":{"x":170252.57000000216,"y":2545539.7400000021}},{"attributes":{"ID":643810,"DIS_CODE":0,"TOWNNAME":"北區","LI":"裕民里","LIN":"7鄰","STREET":"成功路","SECT":" ","MAREA":" ","LANE":" ","ALLEY":" ","HOUSE_NO":"５１６號","E_COORD97":167640.62,"N_COORD97":2544668.5600000001,"ADDRESS":"成功路５１６號","OBJECTID":643783},"geometry":{"x":167640.62000000011,"y":2544668.5600000042}},{"attributes":{"ID":643811,"DIS_CODE":0,"TOWNNAME":"北區","LI":"新勝里","LIN":"4鄰","STREET":"北園街","SECT":" ","MAREA":" ","LANE":" ","ALLEY":" ","HOUSE_NO":"１５號","E_COORD97":170355.79999999999,"N_COORD97":2545559.1899999999,"ADDRESS":"北園街１５號","OBJECTID":643784},"geometry":{"x":170355.80000000075,"y":2545559.1900000013}},{"attributes":{"ID":643812,"DIS_CODE":0,"TOWNNAME":"南區","LI":"文南里","LIN":"13鄰","STREET":"文南路","SECT":" ","MAREA":" ","LANE":" ","ALLEY":" ","HOUSE_NO":"５７號","E_COORD97":166917.60999999999,"N_COORD97":2542650.4399999999,"ADDRESS":"文南路５７號","OBJECTID":643785},"geometry":{"x":166917.61000000034,"y":2542650.4399999995}},{"attributes":{"ID":643813,"DIS_CODE":0,"TOWNNAME":"北區","LI":"光武里","LIN":"4鄰","STREET":"長榮路","SECT":"五段","MAREA":" ","LANE":" ","ALLEY":" ","HOUSE_NO":"３６３號","E_COORD97":169585.34,"N_COORD97":2545922.7999999998,"ADDRESS":"長榮路五段３６３號","OBJECTID":643786},"geometry":{"x":169585.33999999985,"y":2545922.8000000026}},{"attributes":{"ID":643814,"DIS_CODE":0,"TOWNNAME":"北區","LI":"光武里","LIN":"4鄰","STREET":"長榮路","SECT":"五段","MAREA":" ","LANE":" ","ALLEY":" ","HOUSE_NO":"３７１號","E_COORD97":169569.17999999999,"N_COORD97":2545926.8100000001,"ADDRESS":"長榮路五段３７１號","OBJECTID":643787},"geometry":{"x":169569.1799999997,"y":2545926.8100000005}},{"attributes":{"ID":643815,"DIS_CODE":0,"TOWNNAME":"北區","LI":"光武里","LIN":"4鄰","STREET":"長榮路","SECT":"五段","MAREA":" ","LANE":" ","ALLEY":" ","HOUSE_NO":"３７９號","E_COORD97":169555.01000000001,"N_COORD97":2545924.4399999999,"ADDRESS":"長榮路五段３７９號","OBJECTID":643788},"geometry":{"x":169555.00999999978,"y":2545924.4399999995}},{"attributes":{"ID":643816,"DIS_CODE":0,"TOWNNAME":"北區","LI":"光武里","LIN":"4鄰","STREET":"長榮路","SECT":"五段","MAREA":" ","LANE":" ","ALLEY":" ","HOUSE_NO":"３８１號","E_COORD97":169545.42999999999,"N_COORD97":2545933.04,"ADDRESS":"長榮路五段３８１號","OBJECTID":643789},"geometry":{"x":169545.4299999997,"y":2545933.040000001}},{"attributes":{"ID":643817,"DIS_CODE":0,"TOWNNAME":"北區","LI":"大道里","LIN":"25鄰","STREET":"旭日街","SECT":" ","MAREA":" ","LANE":" ","ALLEY":" ","HOUSE_NO":"１００號","E_COORD97":169419.10000000001,"N_COORD97":2545684.04,"ADDRESS":"旭日街１００號","OBJECTID":643790},"geometry":{"x":169419.0999999987,"y":2545684.0399999991}},{"attributes":{"ID":643818,"DIS_CODE":0,"TOWNNAME":"北區","LI":"三德里","LIN":"4鄰","STREET":"裕民街","SECT":" ","MAREA":" ","LANE":" ","ALLEY":" ","HOUSE_NO":"８８號","E_COORD97":168494.38,"N_COORD97":2544525.8999999999,"ADDRESS":"裕民街８８號","OBJECTID":643791},"geometry":{"x":168494.38000000082,"y":2544525.9000000004}},{"attributes":{"ID":643819,"DIS_CODE":0,"TOWNNAME":"北區","LI":"成德里","LIN":"18鄰","STREET":"育成路","SECT":" ","MAREA":" ","LANE":" ","ALLEY":" ","HOUSE_NO":"８５號","E_COORD97":168888.64000000001,"N_COORD97":2546395.6699999999,"ADDRESS":"育成路８５號","OBJECTID":643792},"geometry":{"x":168888.6400000006,"y":2546395.6699999999}},{"attributes":{"ID":643820,"DIS_CODE":0,"TOWNNAME":"北區","LI":"文元里","LIN":"25鄰","STREET":"文成三路","SECT":" ","MAREA":" ","LANE":" ","ALLEY":" ","HOUSE_NO":"６９１號","E_COORD97":167721,"N_COORD97":2546244.5499999998,"ADDRESS":"文成三路６９１號","OBJECTID":643793},"geometry":{"x":167721,"y":2546244.5500000007}},{"attributes":{"ID":643821,"DIS_CODE":0,"TOWNNAME":"北區","LI":"文元里","LIN":"25鄰","STREET":"文成三路","SECT":" ","MAREA":" ","LANE":" ","ALLEY":" ","HOUSE_NO":"６９３號","E_COORD97":167716.67000000001,"N_COORD97":2546242.1099999999,"ADDRESS":"文成三路６９３號","OBJECTID":643794},"geometry":{"x":167716.66999999993,"y":2546242.1099999994}},{"attributes":{"ID":643822,"DIS_CODE":0,"TOWNNAME":"南區","LI":"喜東里","LIN":"4鄰","STREET":"明興路","SECT":" ","MAREA":" ","LANE":" ","ALLEY":" ","HOUSE_NO":"５５０號之３","E_COORD97":166156.06,"N_COORD97":2538361.96,"ADDRESS":"明興路５５０號之３","OBJECTID":643795},"geometry":{"x":166156.05999999959,"y":2538361.9600000009}},{"attributes":{"ID":643823,"DIS_CODE":0,"TOWNNAME":"南區","LI":"文南里","LIN":"14鄰","STREET":"永南街","SECT":" ","MAREA":" ","LANE":" ","ALLEY":" ","HOUSE_NO":"３５號","E_COORD97":166808.89999999999,"N_COORD97":2542678.9300000002,"ADDRESS":"永南街３５號","OBJECTID":643796},"geometry":{"x":166808.90000000037,"y":2542678.9300000016}},{"attributes":{"ID":643824,"DIS_CODE":0,"TOWNNAME":"南區","LI":"大忠里","LIN":"17鄰","STREET":"大同路","SECT":"二段","MAREA":" ","LANE":" ","ALLEY":" ","HOUSE_NO":"５５８號之１","E_COORD97":169511.88,"N_COORD97":2541243.7799999998,"ADDRESS":"大同路二段５５８號之１","OBJECTID":643797},"geometry":{"x":169511.87999999989,"y":2541243.7799999993}},{"attributes":{"ID":643825,"DIS_CODE":0,"TOWNNAME":"南區","LI":"新興里","LIN":"4鄰","STREET":"健康路","SECT":"二段","MAREA":" ","LANE":" ","ALLEY":" ","HOUSE_NO":"３６號","E_COORD97":167634.17999999999,"N_COORD97":2542473.9199999999,"ADDRESS":"健康路二段３６號","OBJECTID":643798},"geometry":{"x":167634.18000000063,"y":2542473.9199999999}},{"attributes":{"ID":643826,"DIS_CODE":0,"TOWNNAME":"南區","LI":"大忠里","LIN":"26鄰","STREET":"國民路","SECT":" ","MAREA":" ","LANE":" ","ALLEY":" ","HOUSE_NO":"２００號","E_COORD97":169098.32999999999,"N_COORD97":2540964.1800000002,"ADDRESS":"國民路２００號","OBJECTID":643799},"geometry":{"x":169098.33000000101,"y":2540964.1799999997}},{"attributes":{"ID":643827,"DIS_CODE":0,"TOWNNAME":"南區","LI":"再興里","LIN":"17鄰","STREET":"金華路","SECT":"二段","MAREA":" ","LANE":" ","ALLEY":" ","HOUSE_NO":"１５０號","E_COORD97":167097.70000000001,"N_COORD97":2542214.5299999998,"ADDRESS":"金華路二段１５０號","OBJECTID":643800},"geometry":{"x":167097.70000000019,"y":2542214.5300000012}}]}