{"displayFieldName":"TOWNNAME","fieldAliases":{"ID":"ID","DIS_CODE":"DIS_CODE","TOWNNAME":"TOWNNAME","LI":"LI","LIN":"LIN","STREET":"STREET","SECT":"SECT","MAREA":"MAREA","LANE":"LANE","ALLEY":"ALLEY","HOUSE_NO":"HOUSE_NO","E_COORD97":"E_COORD97","N_COORD97":"N_COORD97","ADDRESS":"ADDRESS","OBJECTID":"OBJECTID"},"geometryType":"esriGeometryPoint","spatialReference":{"wkid":102443,"latestWkid":3826},"fields":[{"name":"ID","type":"esriFieldTypeDouble","alias":"ID"},{"name":"DIS_CODE","type":"esriFieldTypeInteger","alias":"DIS_CODE"},{"name":"TOWNNAME","type":"esriFieldTypeString","alias":"TOWNNAME","length":8},{"name":"LI","type":"esriFieldTypeString","alias":"LI","length":8},{"name":"LIN","type":"esriFieldTypeString","alias":"LIN","length":12},{"name":"STREET","type":"esriFieldTypeString","alias":"STREET","length":20},{"name":"SECT","type":"esriFieldTypeString","alias":"SECT","length":8},{"name":"MAREA","type":"esriFieldTypeString","alias":"MAREA","length":12},{"name":"LANE","type":"esriFieldTypeString","alias":"LANE","length":10},{"name":"ALLEY","type":"esriFieldTypeString","alias":"ALLEY","length":10},{"name":"HOUSE_NO","type":"esriFieldTypeString","alias":"HOUSE_NO","length":20},{"name":"E_COORD97","type":"esriFieldTypeDouble","alias":"E_COORD97"},{"name":"N_COORD97","type":"esriFieldTypeDouble","alias":"N_COORD97"},{"name":"ADDRESS","type":"esriFieldTypeString","alias":"ADDRESS","length":50},{"name":"OBJECTID","type":"esriFieldTypeOID","alias":"OBJECTID"}],"features":[{"attributes":{"ID":216802,"DIS_CODE":0,"TOWNNAME":"北區","LI":"和順里","LIN":"29鄰","STREET":"臨安路","SECT":"二段","MAREA":" ","LANE":"１４３巷","ALLEY":"８０弄","HOUSE_NO":"１號","E_COORD97":167779.22,"N_COORD97":2545066.52,"ADDRESS":"臨安路二段１４３巷８０弄１號","OBJECTID":216801},"geometry":{"x":167779.2200000016,"y":2545066.5199999996}},{"attributes":{"ID":216803,"DIS_CODE":0,"TOWNNAME":"北區","LI":"和順里","LIN":"29鄰","STREET":"臨安路","SECT":"二段","MAREA":" ","LANE":"１４３巷","ALLEY":"８０弄","HOUSE_NO":"３號","E_COORD97":167784.07000000001,"N_COORD97":2545066.8399999999,"ADDRESS":"臨安路二段１４３巷８０弄３號","OBJECTID":216802},"geometry":{"x":167784.0700000003,"y":2545066.8400000017}},{"attributes":{"ID":216804,"DIS_CODE":0,"TOWNNAME":"北區","LI":"和順里","LIN":"29鄰","STREET":"臨安路","SECT":"二段","MAREA":" ","LANE":"１４３巷","ALLEY":"８０弄","HOUSE_NO":"５號","E_COORD97":167788.92999999999,"N_COORD97":2545066.9900000002,"ADDRESS":"臨安路二段１４３巷８０弄５號","OBJECTID":216803},"geometry":{"x":167788.9299999997,"y":2545066.9900000021}},{"attributes":{"ID":216805,"DIS_CODE":0,"TOWNNAME":"北區","LI":"和順里","LIN":"29鄰","STREET":"臨安路","SECT":"二段","MAREA":" ","LANE":"１４３巷","ALLEY":"８０弄","HOUSE_NO":"７號","E_COORD97":167793.78,"N_COORD97":2545067.1499999999,"ADDRESS":"臨安路二段１４３巷８０弄７號","OBJECTID":216804},"geometry":{"x":167793.78000000119,"y":2545067.1500000004}},{"attributes":{"ID":216806,"DIS_CODE":0,"TOWNNAME":"北區","LI":"和順里","LIN":"29鄰","STREET":"臨安路","SECT":"二段","MAREA":" ","LANE":"１４３巷","ALLEY":"８０弄","HOUSE_NO":"９號","E_COORD97":167798.79000000001,"N_COORD97":2545066.9900000002,"ADDRESS":"臨安路二段１４３巷８０弄９號","OBJECTID":216805},"geometry":{"x":167798.79000000004,"y":2545066.9900000021}},{"attributes":{"ID":216807,"DIS_CODE":0,"TOWNNAME":"北區","LI":"和順里","LIN":"29鄰","STREET":"臨安路","SECT":"二段","MAREA":" ","LANE":"１４３巷","ALLEY":"８０弄","HOUSE_NO":"１１號","E_COORD97":167803.64999999999,"N_COORD97":2545067.3100000001,"ADDRESS":"臨安路二段１４３巷８０弄１１號","OBJECTID":216806},"geometry":{"x":167803.65000000037,"y":2545067.3100000024}},{"attributes":{"ID":216808,"DIS_CODE":0,"TOWNNAME":"北區","LI":"和順里","LIN":"29鄰","STREET":"臨安路","SECT":"二段","MAREA":" ","LANE":"１４３巷","ALLEY":"８０弄","HOUSE_NO":"１３號","E_COORD97":167808.34,"N_COORD97":2545067.46,"ADDRESS":"臨安路二段１４３巷８０弄１３號","OBJECTID":216807},"geometry":{"x":167808.33999999985,"y":2545067.4600000028}},{"attributes":{"ID":216809,"DIS_CODE":0,"TOWNNAME":"北區","LI":"和順里","LIN":"29鄰","STREET":"臨安路","SECT":"二段","MAREA":" ","LANE":"１４３巷","ALLEY":"８０弄","HOUSE_NO":"１５號","E_COORD97":167813.20000000001,"N_COORD97":2545067.7799999998,"ADDRESS":"臨安路二段１４３巷８０弄１５號","OBJECTID":216808},"geometry":{"x":167813.20000000019,"y":2545067.7799999993}},{"attributes":{"ID":216810,"DIS_CODE":0,"TOWNNAME":"北區","LI":"和順里","LIN":"29鄰","STREET":"臨安路","SECT":"二段","MAREA":" ","LANE":"１４３巷","ALLEY":"８０弄","HOUSE_NO":"１７號","E_COORD97":167818.20999999999,"N_COORD97":2545067.9300000002,"ADDRESS":"臨安路二段１４３巷８０弄１７號","OBJECTID":216809},"geometry":{"x":167818.20999999996,"y":2545067.9299999997}},{"attributes":{"ID":216811,"DIS_CODE":0,"TOWNNAME":"北區","LI":"和順里","LIN":"29鄰","STREET":"臨安路","SECT":"二段","MAREA":" ","LANE":"１４３巷","ALLEY":"８０弄","HOUSE_NO":"１９號","E_COORD97":167823.06,"N_COORD97":2545068.0899999999,"ADDRESS":"臨安路二段１４３巷８０弄１９號","OBJECTID":216810},"geometry":{"x":167823.06000000052,"y":2545068.0900000017}},{"attributes":{"ID":216812,"DIS_CODE":0,"TOWNNAME":"北區","LI":"和順里","LIN":"29鄰","STREET":"臨安路","SECT":"二段","MAREA":" ","LANE":"１４３巷","ALLEY":"８０弄","HOUSE_NO":"２１號","E_COORD97":167828.23000000001,"N_COORD97":2545068.2400000002,"ADDRESS":"臨安路二段１４３巷８０弄２１號","OBJECTID":216811},"geometry":{"x":167828.23000000138,"y":2545068.2400000021}},{"attributes":{"ID":216813,"DIS_CODE":0,"TOWNNAME":"北區","LI":"和順里","LIN":"29鄰","STREET":"臨安路","SECT":"二段","MAREA":" ","LANE":"１４３巷","ALLEY":"８０弄","HOUSE_NO":"２３號","E_COORD97":167832.92000000001,"N_COORD97":2545068.5600000001,"ADDRESS":"臨安路二段１４３巷８０弄２３號","OBJECTID":216812},"geometry":{"x":167832.92000000086,"y":2545068.5600000042}},{"attributes":{"ID":216814,"DIS_CODE":0,"TOWNNAME":"北區","LI":"和順里","LIN":"29鄰","STREET":"臨安路","SECT":"二段","MAREA":" ","LANE":"１４３巷","ALLEY":"８０弄","HOUSE_NO":"２５號","E_COORD97":167837.47,"N_COORD97":2545068.71,"ADDRESS":"臨安路二段１４３巷８０弄２５號","OBJECTID":216813},"geometry":{"x":167837.47000000067,"y":2545068.7100000028}},{"attributes":{"ID":216815,"DIS_CODE":0,"TOWNNAME":"北區","LI":"和順里","LIN":"29鄰","STREET":"臨安路","SECT":"二段","MAREA":" ","LANE":"１４３巷","ALLEY":"８０弄","HOUSE_NO":"２７號","E_COORD97":167842.48000000001,"N_COORD97":2545068.71,"ADDRESS":"臨安路二段１４３巷８０弄２７號","OBJECTID":216814},"geometry":{"x":167842.48000000045,"y":2545068.7100000028}},{"attributes":{"ID":216816,"DIS_CODE":0,"TOWNNAME":"北區","LI":"和順里","LIN":"29鄰","STREET":"臨安路","SECT":"二段","MAREA":" ","LANE":"１４３巷","ALLEY":"８０弄","HOUSE_NO":"２９號","E_COORD97":167847.32999999999,"N_COORD97":2545068.5600000001,"ADDRESS":"臨安路二段１４３巷８０弄２９號","OBJECTID":216815},"geometry":{"x":167847.33000000101,"y":2545068.5600000042}},{"attributes":{"ID":216817,"DIS_CODE":0,"TOWNNAME":"北區","LI":"和順里","LIN":"29鄰","STREET":"臨安路","SECT":"二段","MAREA":" ","LANE":"１４３巷","ALLEY":"８０弄","HOUSE_NO":"３１號","E_COORD97":167851.87,"N_COORD97":2545068.3999999999,"ADDRESS":"臨安路二段１４３巷８０弄３１號","OBJECTID":216816},"geometry":{"x":167851.87000000104,"y":2545068.4000000004}},{"attributes":{"ID":216818,"DIS_CODE":0,"TOWNNAME":"北區","LI":"和順里","LIN":"29鄰","STREET":"臨安路","SECT":"二段","MAREA":" ","LANE":"１４３巷","ALLEY":"８０弄","HOUSE_NO":"３３號","E_COORD97":167856.41,"N_COORD97":2545068.8700000001,"ADDRESS":"臨安路二段１４３巷８０弄３３號","OBJECTID":216817},"geometry":{"x":167856.41000000201,"y":2545068.870000001}},{"attributes":{"ID":216819,"DIS_CODE":0,"TOWNNAME":"北區","LI":"和順里","LIN":"29鄰","STREET":"臨安路","SECT":"二段","MAREA":" ","LANE":"１４３巷","ALLEY":"８０弄","HOUSE_NO":"３５號","E_COORD97":167861.10999999999,"N_COORD97":2545068.71,"ADDRESS":"臨安路二段１４３巷８０弄３５號","OBJECTID":216818},"geometry":{"x":167861.11000000127,"y":2545068.7100000028}},{"attributes":{"ID":216820,"DIS_CODE":0,"TOWNNAME":"北區","LI":"和順里","LIN":"29鄰","STREET":"臨安路","SECT":"二段","MAREA":" ","LANE":"１４３巷","ALLEY":"８０弄","HOUSE_NO":"３７號","E_COORD97":167866.28,"N_COORD97":2545068.8700000001,"ADDRESS":"臨安路二段１４３巷８０弄３７號","OBJECTID":216819},"geometry":{"x":167866.28000000119,"y":2545068.870000001}},{"attributes":{"ID":216821,"DIS_CODE":0,"TOWNNAME":"仁德區","LI":"後壁里","LIN":"12鄰","STREET":"德南路","SECT":" ","MAREA":" ","LANE":"２０９巷","ALLEY":" ","HOUSE_NO":"４０號","E_COORD97":173793.163875,"N_COORD97":2538527.4707999998,"ADDRESS":"德南路２０９巷４０號","OBJECTID":216820},"geometry":{"x":173793.16387499962,"y":2538527.470795}},{"attributes":{"ID":216822,"DIS_CODE":0,"TOWNNAME":"東區","LI":"文聖里","LIN":"9鄰","STREET":"裕農三街","SECT":" ","MAREA":" ","LANE":" ","ALLEY":" ","HOUSE_NO":"２０７號","E_COORD97":172051.34,"N_COORD97":2542666.1499999999,"ADDRESS":"裕農三街２０７號","OBJECTID":216821},"geometry":{"x":172051.33999999985,"y":2542666.1500000004}},{"attributes":{"ID":216823,"DIS_CODE":0,"TOWNNAME":"龍崎區","LI":"崎頂里","LIN":"2鄰","STREET":" ","SECT":" ","MAREA":"新市子","LANE":" ","ALLEY":" ","HOUSE_NO":"５５號","E_COORD97":184418.22,"N_COORD97":2540523.25,"ADDRESS":"新市子５５號","OBJECTID":216822},"geometry":{"x":184418.22000000067,"y":2540523.25}},{"attributes":{"ID":216824,"DIS_CODE":0,"TOWNNAME":"龍崎區","LI":"崎頂里","LIN":"2鄰","STREET":" ","SECT":" ","MAREA":"新市子","LANE":" ","ALLEY":" ","HOUSE_NO":"３８號","E_COORD97":184299.72,"N_COORD97":2540519.25,"ADDRESS":"新市子３８號","OBJECTID":216823},"geometry":{"x":184299.72000000067,"y":2540519.25}},{"attributes":{"ID":216825,"DIS_CODE":0,"TOWNNAME":"北區","LI":"和順里","LIN":"29鄰","STREET":"臨安路","SECT":"二段","MAREA":" ","LANE":"１４３巷","ALLEY":"８０弄","HOUSE_NO":"３９號","E_COORD97":167870.82000000001,"N_COORD97":2545069.1800000002,"ADDRESS":"臨安路二段１４３巷８０弄３９號","OBJECTID":216824},"geometry":{"x":167870.82000000216,"y":2545069.1799999997}},{"attributes":{"ID":216826,"DIS_CODE":0,"TOWNNAME":"永康區","LI":"龍潭里","LIN":"23鄰","STREET":"龍中街","SECT":" ","MAREA":" ","LANE":" ","ALLEY":" ","HOUSE_NO":"１４２號","E_COORD97":174415.29999999999,"N_COORD97":2548294.5299999998,"ADDRESS":"龍中街１４２號","OBJECTID":216825},"geometry":{"x":174415.29999999981,"y":2548294.5299999993}},{"attributes":{"ID":216827,"DIS_CODE":0,"TOWNNAME":"永康區","LI":"龍潭里","LIN":"16鄰","STREET":"龍橋街","SECT":" ","MAREA":" ","LANE":" ","ALLEY":" ","HOUSE_NO":"２８號","E_COORD97":174857.51000000001,"N_COORD97":2548338.8799999999,"ADDRESS":"龍橋街２８號","OBJECTID":216826},"geometry":{"x":174857.50999999978,"y":2548338.879999999}},{"attributes":{"ID":216828,"DIS_CODE":0,"TOWNNAME":"北區","LI":"和順里","LIN":"29鄰","STREET":"臨安路","SECT":"二段","MAREA":" ","LANE":"１４３巷","ALLEY":"８０弄","HOUSE_NO":"４１號","E_COORD97":167875.20000000001,"N_COORD97":2545069.0299999998,"ADDRESS":"臨安路二段１４３巷８０弄４１號","OBJECTID":216827},"geometry":{"x":167875.20000000112,"y":2545069.0300000012}},{"attributes":{"ID":216829,"DIS_CODE":0,"TOWNNAME":"永康區","LI":"龍潭里","LIN":"21鄰","STREET":"龍潭街","SECT":" ","MAREA":" ","LANE":" ","ALLEY":" ","HOUSE_NO":"３１６號","E_COORD97":174863.22,"N_COORD97":2548485.5899999999,"ADDRESS":"龍潭街３１６號","OBJECTID":216828},"geometry":{"x":174863.21999999974,"y":2548485.5900000017}},{"attributes":{"ID":216830,"DIS_CODE":0,"TOWNNAME":"仁德區","LI":"成功里","LIN":"37鄰","STREET":"保華路","SECT":" ","MAREA":" ","LANE":" ","ALLEY":" ","HOUSE_NO":"１８號","E_COORD97":170736.22,"N_COORD97":2539996.25,"ADDRESS":"保華路１８號","OBJECTID":216829},"geometry":{"x":170736.22000000067,"y":2539996.2500000019}},{"attributes":{"ID":216831,"DIS_CODE":0,"TOWNNAME":"東區","LI":"文聖里","LIN":"9鄰","STREET":"裕農三街","SECT":" ","MAREA":" ","LANE":" ","ALLEY":" ","HOUSE_NO":"２０５號","E_COORD97":172051.34,"N_COORD97":2542671.7200000002,"ADDRESS":"裕農三街２０５號","OBJECTID":216830},"geometry":{"x":172051.33999999985,"y":2542671.7200000025}},{"attributes":{"ID":216832,"DIS_CODE":0,"TOWNNAME":"東區","LI":"文聖里","LIN":"9鄰","STREET":"裕興街","SECT":" ","MAREA":" ","LANE":" ","ALLEY":" ","HOUSE_NO":"７７號","E_COORD97":172068.37,"N_COORD97":2542666.3199999998,"ADDRESS":"裕興街７７號","OBJECTID":216831},"geometry":{"x":172068.37000000011,"y":2542666.320000004}},{"attributes":{"ID":216833,"DIS_CODE":0,"TOWNNAME":"東區","LI":"復興里","LIN":"11鄰","STREET":"裕文路","SECT":" ","MAREA":" ","LANE":" ","ALLEY":" ","HOUSE_NO":"７６號","E_COORD97":172247.64999999999,"N_COORD97":2542543.8500000001,"ADDRESS":"裕文路７６號","OBJECTID":216832},"geometry":{"x":172247.6500000013,"y":2542543.8500000015}},{"attributes":{"ID":216834,"DIS_CODE":0,"TOWNNAME":"北區","LI":"和順里","LIN":"29鄰","STREET":"臨安路","SECT":"二段","MAREA":" ","LANE":"１４３巷","ALLEY":"８０弄","HOUSE_NO":"４３號","E_COORD97":167879.73999999999,"N_COORD97":2545069.3399999999,"ADDRESS":"臨安路二段１４３巷８０弄４３號","OBJECTID":216833},"geometry":{"x":167879.74000000209,"y":2545069.3400000036}},{"attributes":{"ID":216835,"DIS_CODE":0,"TOWNNAME":"北區","LI":"和順里","LIN":"29鄰","STREET":"臨安路","SECT":"二段","MAREA":" ","LANE":"１４３巷","ALLEY":"８０弄","HOUSE_NO":"４５號","E_COORD97":167884.44,"N_COORD97":2545069.5,"ADDRESS":"臨安路二段１４３巷８０弄４５號","OBJECTID":216834},"geometry":{"x":167884.44000000041,"y":2545069.5000000019}},{"attributes":{"ID":216836,"DIS_CODE":0,"TOWNNAME":"北區","LI":"和順里","LIN":"29鄰","STREET":"臨安路","SECT":"二段","MAREA":" ","LANE":"１４３巷","ALLEY":"８０弄","HOUSE_NO":"４７號","E_COORD97":167889.29000000001,"N_COORD97":2545069.8100000001,"ADDRESS":"臨安路二段１４３巷８０弄４７號","OBJECTID":216835},"geometry":{"x":167889.2900000019,"y":2545069.8100000005}},{"attributes":{"ID":216837,"DIS_CODE":0,"TOWNNAME":"北區","LI":"和順里","LIN":"29鄰","STREET":"臨安路","SECT":"二段","MAREA":" ","LANE":"１４３巷","ALLEY":"８０弄","HOUSE_NO":"４９號","E_COORD97":167893.67999999999,"N_COORD97":2545070.2799999998,"ADDRESS":"臨安路二段１４３巷８０弄４９號","OBJECTID":216836},"geometry":{"x":167893.68000000063,"y":2545070.2800000012}},{"attributes":{"ID":216838,"DIS_CODE":0,"TOWNNAME":"北區","LI":"和順里","LIN":"29鄰","STREET":"臨安路","SECT":"二段","MAREA":" ","LANE":"１４３巷","ALLEY":"８０弄","HOUSE_NO":"５１號","E_COORD97":167898.53,"N_COORD97":2545070.4300000002,"ADDRESS":"臨安路二段１４３巷８０弄５１號","OBJECTID":216837},"geometry":{"x":167898.53000000119,"y":2545070.4299999997}},{"attributes":{"ID":216839,"DIS_CODE":0,"TOWNNAME":"北區","LI":"和順里","LIN":"29鄰","STREET":"臨安路","SECT":"二段","MAREA":" ","LANE":"１４３巷","ALLEY":"９０弄","HOUSE_NO":"１號","E_COORD97":167784.82000000001,"N_COORD97":2545115.7400000002,"ADDRESS":"臨安路二段１４３巷９０弄１號","OBJECTID":216838},"geometry":{"x":167784.82000000123,"y":2545115.7400000021}},{"attributes":{"ID":216840,"DIS_CODE":0,"TOWNNAME":"北區","LI":"和順里","LIN":"29鄰","STREET":"臨安路","SECT":"二段","MAREA":" ","LANE":"１４３巷","ALLEY":"９０弄","HOUSE_NO":"２號","E_COORD97":167783.54999999999,"N_COORD97":2545094.52,"ADDRESS":"臨安路二段１４３巷９０弄２號","OBJECTID":216839},"geometry":{"x":167783.54999999981,"y":2545094.5199999996}},{"attributes":{"ID":216841,"DIS_CODE":0,"TOWNNAME":"北區","LI":"和順里","LIN":"29鄰","STREET":"臨安路","SECT":"二段","MAREA":" ","LANE":"１４３巷","ALLEY":"９０弄","HOUSE_NO":"３號","E_COORD97":167793.07000000001,"N_COORD97":2545116.3700000001,"ADDRESS":"臨安路二段１４３巷９０弄３號","OBJECTID":216840},"geometry":{"x":167793.07000000123,"y":2545116.370000001}},{"attributes":{"ID":216842,"DIS_CODE":0,"TOWNNAME":"北區","LI":"和順里","LIN":"29鄰","STREET":"臨安路","SECT":"二段","MAREA":" ","LANE":"１４３巷","ALLEY":"９０弄","HOUSE_NO":"５號","E_COORD97":167800.35999999999,"N_COORD97":2545116.3700000001,"ADDRESS":"臨安路二段１４３巷９０弄５號","OBJECTID":216841},"geometry":{"x":167800.36000000034,"y":2545116.370000001}},{"attributes":{"ID":216843,"DIS_CODE":0,"TOWNNAME":"北區","LI":"和順里","LIN":"29鄰","STREET":"臨安路","SECT":"二段","MAREA":" ","LANE":"１４３巷","ALLEY":"９０弄","HOUSE_NO":"６號","E_COORD97":167793.70000000001,"N_COORD97":2545094.52,"ADDRESS":"臨安路二段１４３巷９０弄６號","OBJECTID":216842},"geometry":{"x":167793.70000000112,"y":2545094.5199999996}},{"attributes":{"ID":216844,"DIS_CODE":0,"TOWNNAME":"北區","LI":"和順里","LIN":"29鄰","STREET":"臨安路","SECT":"二段","MAREA":" ","LANE":"１４３巷","ALLEY":"９０弄","HOUSE_NO":"７號","E_COORD97":167807.66,"N_COORD97":2545116.3700000001,"ADDRESS":"臨安路二段１４３巷９０弄７號","OBJECTID":216843},"geometry":{"x":167807.66000000108,"y":2545116.370000001}},{"attributes":{"ID":216845,"DIS_CODE":0,"TOWNNAME":"北區","LI":"和順里","LIN":"29鄰","STREET":"臨安路","SECT":"二段","MAREA":" ","LANE":"１４３巷","ALLEY":"９０弄","HOUSE_NO":"８號","E_COORD97":167800.67999999999,"N_COORD97":2545094.52,"ADDRESS":"臨安路二段１４３巷９０弄８號","OBJECTID":216844},"geometry":{"x":167800.68000000063,"y":2545094.5199999996}},{"attributes":{"ID":216846,"DIS_CODE":0,"TOWNNAME":"北區","LI":"和順里","LIN":"29鄰","STREET":"臨安路","SECT":"二段","MAREA":" ","LANE":"１４３巷","ALLEY":"９０弄","HOUSE_NO":"９號","E_COORD97":167815.26999999999,"N_COORD97":2545116.3700000001,"ADDRESS":"臨安路二段１４３巷９０弄９號","OBJECTID":216845},"geometry":{"x":167815.26999999955,"y":2545116.370000001}},{"attributes":{"ID":216847,"DIS_CODE":0,"TOWNNAME":"北區","LI":"和順里","LIN":"29鄰","STREET":"臨安路","SECT":"二段","MAREA":" ","LANE":"１４３巷","ALLEY":"９０弄","HOUSE_NO":"１０號","E_COORD97":167807.97,"N_COORD97":2545094.8300000001,"ADDRESS":"臨安路二段１４３巷９０弄１０號","OBJECTID":216846},"geometry":{"x":167807.96999999881,"y":2545094.8300000019}},{"attributes":{"ID":216848,"DIS_CODE":0,"TOWNNAME":"北區","LI":"和順里","LIN":"29鄰","STREET":"臨安路","SECT":"二段","MAREA":" ","LANE":"１４３巷","ALLEY":"９０弄","HOUSE_NO":"１１號","E_COORD97":167821.29000000001,"N_COORD97":2545117.0099999998,"ADDRESS":"臨安路二段１４３巷９０弄１１號","OBJECTID":216847},"geometry":{"x":167821.29000000004,"y":2545117.0100000016}},{"attributes":{"ID":216849,"DIS_CODE":0,"TOWNNAME":"北區","LI":"和順里","LIN":"29鄰","STREET":"臨安路","SECT":"二段","MAREA":" ","LANE":"１４３巷","ALLEY":"９０弄","HOUSE_NO":"１２號","E_COORD97":167815.57999999999,"N_COORD97":2545094.52,"ADDRESS":"臨安路二段１４３巷９０弄１２號","OBJECTID":216848},"geometry":{"x":167815.58000000007,"y":2545094.5199999996}},{"attributes":{"ID":216850,"DIS_CODE":0,"TOWNNAME":"北區","LI":"和順里","LIN":"29鄰","STREET":"臨安路","SECT":"二段","MAREA":" ","LANE":"１４３巷","ALLEY":"９０弄","HOUSE_NO":"１３號","E_COORD97":167829.22,"N_COORD97":2545116.3700000001,"ADDRESS":"臨安路二段１４３巷９０弄１３號","OBJECTID":216849},"geometry":{"x":167829.22000000067,"y":2545116.370000001}},{"attributes":{"ID":216851,"DIS_CODE":0,"TOWNNAME":"仁德區","LI":"後壁里","LIN":"12鄰","STREET":"德南路","SECT":" ","MAREA":" ","LANE":"２０９巷","ALLEY":" ","HOUSE_NO":"４２號","E_COORD97":173788.71465899999,"N_COORD97":2538530.43413,"ADDRESS":"德南路２０９巷４２號","OBJECTID":216850},"geometry":{"x":173788.71465900168,"y":2538530.4341260027}},{"attributes":{"ID":216852,"DIS_CODE":0,"TOWNNAME":"東區","LI":"復興里","LIN":"11鄰","STREET":"裕文路","SECT":" ","MAREA":" ","LANE":" ","ALLEY":" ","HOUSE_NO":"６６號","E_COORD97":172214.73999999999,"N_COORD97":2542548.9199999999,"ADDRESS":"裕文路６６號","OBJECTID":216851},"geometry":{"x":172214.74000000115,"y":2542548.9199999999}},{"attributes":{"ID":216853,"DIS_CODE":0,"TOWNNAME":"龍崎區","LI":"崎頂里","LIN":"2鄰","STREET":" ","SECT":" ","MAREA":"新市子","LANE":" ","ALLEY":" ","HOUSE_NO":"５６號","E_COORD97":184422.92000000001,"N_COORD97":2540524.25,"ADDRESS":"新市子５６號","OBJECTID":216852},"geometry":{"x":184422.91999999993,"y":2540524.2500000019}},{"attributes":{"ID":216854,"DIS_CODE":0,"TOWNNAME":"龍崎區","LI":"崎頂里","LIN":"2鄰","STREET":" ","SECT":" ","MAREA":"新市子","LANE":" ","ALLEY":" ","HOUSE_NO":"３３號","E_COORD97":184319.01999999999,"N_COORD97":2540621.25,"ADDRESS":"新市子３３號","OBJECTID":216853},"geometry":{"x":184319.02000000048,"y":2540621.25}},{"attributes":{"ID":216855,"DIS_CODE":0,"TOWNNAME":"龍崎區","LI":"崎頂里","LIN":"2鄰","STREET":" ","SECT":" ","MAREA":"新市子","LANE":" ","ALLEY":" ","HOUSE_NO":"３７號","E_COORD97":184286.01999999999,"N_COORD97":2540600.25,"ADDRESS":"新市子３７號","OBJECTID":216854},"geometry":{"x":184286.01999999955,"y":2540600.25}},{"attributes":{"ID":216856,"DIS_CODE":0,"TOWNNAME":"永康區","LI":"網寮里","LIN":"24鄰","STREET":"永大一路","SECT":" ","MAREA":" ","LANE":" ","ALLEY":" ","HOUSE_NO":"１５２號","E_COORD97":173882.60999999999,"N_COORD97":2546379.46,"ADDRESS":"永大一路１５２號","OBJECTID":216855},"geometry":{"x":173882.61000000034,"y":2546379.4600000028}},{"attributes":{"ID":216857,"DIS_CODE":0,"TOWNNAME":"永康區","LI":"網寮里","LIN":"15鄰","STREET":"永勝街","SECT":" ","MAREA":" ","LANE":" ","ALLEY":" ","HOUSE_NO":"２０３號","E_COORD97":173350.20000000001,"N_COORD97":2546613.7599999998,"ADDRESS":"永勝街２０３號","OBJECTID":216856},"geometry":{"x":173350.20000000205,"y":2546613.7600000016}},{"attributes":{"ID":216858,"DIS_CODE":0,"TOWNNAME":"北區","LI":"和順里","LIN":"29鄰","STREET":"臨安路","SECT":"二段","MAREA":" ","LANE":"１４３巷","ALLEY":"９０弄","HOUSE_NO":"１６號","E_COORD97":167822.56,"N_COORD97":2545094.8300000001,"ADDRESS":"臨安路二段１４３巷９０弄１６號","OBJECTID":216857},"geometry":{"x":167822.56000000145,"y":2545094.8300000019}},{"attributes":{"ID":216859,"DIS_CODE":0,"TOWNNAME":"永康區","LI":"龍潭里","LIN":"44鄰","STREET":"永平街","SECT":" ","MAREA":" ","LANE":" ","ALLEY":" ","HOUSE_NO":"２８２之２號","E_COORD97":174657.42000000001,"N_COORD97":2547013.54,"ADDRESS":"永平街２８２之２號","OBJECTID":216858},"geometry":{"x":174657.42000000086,"y":2547013.5400000028}},{"attributes":{"ID":216860,"DIS_CODE":0,"TOWNNAME":"永康區","LI":"崑山里","LIN":"37鄰","STREET":"大仁街","SECT":" ","MAREA":" ","LANE":" ","ALLEY":" ","HOUSE_NO":"１６０號","E_COORD97":173921.76999999999,"N_COORD97":2544990.54,"ADDRESS":"大仁街１６０號","OBJECTID":216859},"geometry":{"x":173921.76999999955,"y":2544990.540000001}},{"attributes":{"ID":216861,"DIS_CODE":0,"TOWNNAME":"仁德區","LI":"成功里","LIN":"37鄰","STREET":"保華路","SECT":" ","MAREA":" ","LANE":" ","ALLEY":" ","HOUSE_NO":"２４１號","E_COORD97":170749.73999999999,"N_COORD97":2539963.7400000002,"ADDRESS":"保華路２４１號","OBJECTID":216860},"geometry":{"x":170749.74000000209,"y":2539963.7400000002}},{"attributes":{"ID":216862,"DIS_CODE":0,"TOWNNAME":"北區","LI":"和順里","LIN":"29鄰","STREET":"臨安路","SECT":"二段","MAREA":" ","LANE":"１４３巷","ALLEY":"９０弄","HOUSE_NO":"１７號","E_COORD97":167842.54000000001,"N_COORD97":2545116.6899999999,"ADDRESS":"臨安路二段１４３巷９０弄１７號","OBJECTID":216861},"geometry":{"x":167842.54000000097,"y":2545116.6899999995}},{"attributes":{"ID":216863,"DIS_CODE":0,"TOWNNAME":"北區","LI":"和順里","LIN":"29鄰","STREET":"臨安路","SECT":"二段","MAREA":" ","LANE":"１４３巷","ALLEY":"９０弄","HOUSE_NO":"１８號","E_COORD97":167829.22,"N_COORD97":2545094.8300000001,"ADDRESS":"臨安路二段１４３巷９０弄１８號","OBJECTID":216862},"geometry":{"x":167829.22000000067,"y":2545094.8300000019}},{"attributes":{"ID":216864,"DIS_CODE":0,"TOWNNAME":"南區","LI":"金華里","LIN":"29鄰","STREET":"新孝路","SECT":" ","MAREA":" ","LANE":"１２６巷","ALLEY":"５６弄","HOUSE_NO":"１號","E_COORD97":166657.85999999999,"N_COORD97":2542208.96,"ADDRESS":"新孝路１２６巷５６弄１號","OBJECTID":216863},"geometry":{"x":166657.86000000034,"y":2542208.9600000028}},{"attributes":{"ID":216865,"DIS_CODE":0,"TOWNNAME":"北區","LI":"和順里","LIN":"29鄰","STREET":"臨安路","SECT":"二段","MAREA":" ","LANE":"１４３巷","ALLEY":"９０弄","HOUSE_NO":"１９號","E_COORD97":167850.47,"N_COORD97":2545117.0099999998,"ADDRESS":"臨安路二段１４３巷９０弄１９號","OBJECTID":216864},"geometry":{"x":167850.4700000016,"y":2545117.0100000016}},{"attributes":{"ID":216866,"DIS_CODE":0,"TOWNNAME":"北區","LI":"和順里","LIN":"29鄰","STREET":"臨安路","SECT":"二段","MAREA":" ","LANE":"１４３巷","ALLEY":"９０弄","HOUSE_NO":"２０號","E_COORD97":167835.88,"N_COORD97":2545094.2000000002,"ADDRESS":"臨安路二段１４３巷９０弄２０號","OBJECTID":216865},"geometry":{"x":167835.87999999896,"y":2545094.2000000011}},{"attributes":{"ID":216867,"DIS_CODE":0,"TOWNNAME":"北區","LI":"和順里","LIN":"29鄰","STREET":"臨安路","SECT":"二段","MAREA":" ","LANE":"１４３巷","ALLEY":"９０弄","HOUSE_NO":"２１號","E_COORD97":167858.72,"N_COORD97":2545117.0099999998,"ADDRESS":"臨安路二段１４３巷９０弄２１號","OBJECTID":216866},"geometry":{"x":167858.71999999974,"y":2545117.0100000016}},{"attributes":{"ID":216868,"DIS_CODE":0,"TOWNNAME":"北區","LI":"和順里","LIN":"29鄰","STREET":"臨安路","SECT":"二段","MAREA":" ","LANE":"１４３巷","ALLEY":"９０弄","HOUSE_NO":"２２號","E_COORD97":167842.54000000001,"N_COORD97":2545094.52,"ADDRESS":"臨安路二段１４３巷９０弄２２號","OBJECTID":216867},"geometry":{"x":167842.54000000097,"y":2545094.5199999996}},{"attributes":{"ID":216869,"DIS_CODE":0,"TOWNNAME":"北區","LI":"和順里","LIN":"29鄰","STREET":"臨安路","SECT":"二段","MAREA":" ","LANE":"１４３巷","ALLEY":"９０弄","HOUSE_NO":"２３號","E_COORD97":167866.01000000001,"N_COORD97":2545117.3199999998,"ADDRESS":"臨安路二段１４３巷９０弄２３號","OBJECTID":216868},"geometry":{"x":167866.01000000071,"y":2545117.3199999984}},{"attributes":{"ID":216870,"DIS_CODE":0,"TOWNNAME":"北區","LI":"和順里","LIN":"29鄰","STREET":"臨安路","SECT":"二段","MAREA":" ","LANE":"１４３巷","ALLEY":"９０弄","HOUSE_NO":"２５號","E_COORD97":167873.94,"N_COORD97":2545118.2799999998,"ADDRESS":"臨安路二段１４３巷９０弄２５號","OBJECTID":216869},"geometry":{"x":167873.94000000134,"y":2545118.2800000012}},{"attributes":{"ID":216871,"DIS_CODE":0,"TOWNNAME":"北區","LI":"和順里","LIN":"29鄰","STREET":"臨安路","SECT":"二段","MAREA":" ","LANE":"１４３巷","ALLEY":"９０弄","HOUSE_NO":"２６號","E_COORD97":167851.10000000001,"N_COORD97":2545094.52,"ADDRESS":"臨安路二段１４３巷９０弄２６號","OBJECTID":216870},"geometry":{"x":167851.10000000149,"y":2545094.5199999996}},{"attributes":{"ID":216872,"DIS_CODE":0,"TOWNNAME":"北區","LI":"和順里","LIN":"29鄰","STREET":"臨安路","SECT":"二段","MAREA":" ","LANE":"１４３巷","ALLEY":"９０弄","HOUSE_NO":"２７號","E_COORD97":167882.17999999999,"N_COORD97":2545118.9100000001,"ADDRESS":"臨安路二段１４３巷９０弄２７號","OBJECTID":216871},"geometry":{"x":167882.1799999997,"y":2545118.9100000001}},{"attributes":{"ID":216873,"DIS_CODE":0,"TOWNNAME":"北區","LI":"和順里","LIN":"29鄰","STREET":"臨安路","SECT":"二段","MAREA":" ","LANE":"１４３巷","ALLEY":"９０弄","HOUSE_NO":"２８號","E_COORD97":167858.39999999999,"N_COORD97":2545094.2000000002,"ADDRESS":"臨安路二段１４３巷９０弄２８號","OBJECTID":216872},"geometry":{"x":167858.40000000224,"y":2545094.2000000011}},{"attributes":{"ID":216874,"DIS_CODE":0,"TOWNNAME":"北區","LI":"和順里","LIN":"29鄰","STREET":"臨安路","SECT":"二段","MAREA":" ","LANE":"１４３巷","ALLEY":"９０弄","HOUSE_NO":"２９號","E_COORD97":167893.28,"N_COORD97":2545118.9100000001,"ADDRESS":"臨安路二段１４３巷９０弄２９號","OBJECTID":216873},"geometry":{"x":167893.28000000119,"y":2545118.9100000001}},{"attributes":{"ID":216875,"DIS_CODE":0,"TOWNNAME":"北區","LI":"和順里","LIN":"29鄰","STREET":"臨安路","SECT":"二段","MAREA":" ","LANE":"１４３巷","ALLEY":"９０弄","HOUSE_NO":"３０號","E_COORD97":167866.64000000001,"N_COORD97":2545094.2000000002,"ADDRESS":"臨安路二段１４３巷９０弄３０號","OBJECTID":216874},"geometry":{"x":167866.6400000006,"y":2545094.2000000011}},{"attributes":{"ID":216876,"DIS_CODE":0,"TOWNNAME":"北區","LI":"和順里","LIN":"29鄰","STREET":"臨安路","SECT":"二段","MAREA":" ","LANE":"１４３巷","ALLEY":"９０弄","HOUSE_NO":"３２號","E_COORD97":167874.26000000001,"N_COORD97":2545094.52,"ADDRESS":"臨安路二段１４３巷９０弄３２號","OBJECTID":216875},"geometry":{"x":167874.26000000071,"y":2545094.5199999996}},{"attributes":{"ID":216877,"DIS_CODE":0,"TOWNNAME":"龍崎區","LI":"崎頂里","LIN":"2鄰","STREET":" ","SECT":" ","MAREA":"新市子","LANE":" ","ALLEY":" ","HOUSE_NO":"４１之３號","E_COORD97":184225.42000000001,"N_COORD97":2540549.2999999998,"ADDRESS":"新市子４１之３號","OBJECTID":216876},"geometry":{"x":184225.42000000086,"y":2540549.3000000026}},{"attributes":{"ID":216878,"DIS_CODE":0,"TOWNNAME":"北區","LI":"和順里","LIN":"29鄰","STREET":"臨安路","SECT":"二段","MAREA":" ","LANE":"１４３巷","ALLEY":"９０弄","HOUSE_NO":"３６號","E_COORD97":167881.87,"N_COORD97":2545094.52,"ADDRESS":"臨安路二段１４３巷９０弄３６號","OBJECTID":216877},"geometry":{"x":167881.87000000011,"y":2545094.5199999996}},{"attributes":{"ID":216879,"DIS_CODE":0,"TOWNNAME":"永康區","LI":"網寮里","LIN":"23鄰","STREET":"文化路","SECT":" ","MAREA":" ","LANE":" ","ALLEY":" ","HOUSE_NO":"９６號之１","E_COORD97":174013.81,"N_COORD97":2546278.29,"ADDRESS":"文化路９６號之１","OBJECTID":216878},"geometry":{"x":174013.81000000052,"y":2546278.2899999991}},{"attributes":{"ID":216880,"DIS_CODE":0,"TOWNNAME":"龍崎區","LI":"崎頂里","LIN":"2鄰","STREET":" ","SECT":" ","MAREA":"新市子","LANE":" ","ALLEY":" ","HOUSE_NO":"７０號","E_COORD97":184465.51999999999,"N_COORD97":2540542.25,"ADDRESS":"新市子７０號","OBJECTID":216879},"geometry":{"x":184465.51999999955,"y":2540542.2500000019}},{"attributes":{"ID":216881,"DIS_CODE":0,"TOWNNAME":"龍崎區","LI":"崎頂里","LIN":"2鄰","STREET":" ","SECT":" ","MAREA":"新市子","LANE":" ","ALLEY":" ","HOUSE_NO":"５４號","E_COORD97":184413.62,"N_COORD97":2540521.25,"ADDRESS":"新市子５４號","OBJECTID":216880},"geometry":{"x":184413.62000000197,"y":2540521.2500000019}},{"attributes":{"ID":216882,"DIS_CODE":0,"TOWNNAME":"龍崎區","LI":"崎頂里","LIN":"2鄰","STREET":" ","SECT":" ","MAREA":"新市子","LANE":" ","ALLEY":" ","HOUSE_NO":"５２號","E_COORD97":184399.42000000001,"N_COORD97":2540519.25,"ADDRESS":"新市子５２號","OBJECTID":216881},"geometry":{"x":184399.42000000179,"y":2540519.25}},{"attributes":{"ID":216883,"DIS_CODE":0,"TOWNNAME":"龍崎區","LI":"崎頂里","LIN":"2鄰","STREET":" ","SECT":" ","MAREA":"新市子","LANE":" ","ALLEY":" ","HOUSE_NO":"６５號","E_COORD97":184440.12,"N_COORD97":2540527.25,"ADDRESS":"新市子６５號","OBJECTID":216882},"geometry":{"x":184440.12000000011,"y":2540527.2500000037}},{"attributes":{"ID":216884,"DIS_CODE":0,"TOWNNAME":"龍崎區","LI":"崎頂里","LIN":"2鄰","STREET":" ","SECT":" ","MAREA":"新市子","LANE":" ","ALLEY":" ","HOUSE_NO":"５７號","E_COORD97":184427.12,"N_COORD97":2540526.25,"ADDRESS":"新市子５７號","OBJECTID":216883},"geometry":{"x":184427.12000000197,"y":2540526.25}},{"attributes":{"ID":216885,"DIS_CODE":0,"TOWNNAME":"龍崎區","LI":"崎頂里","LIN":"2鄰","STREET":" ","SECT":" ","MAREA":"新市子","LANE":" ","ALLEY":" ","HOUSE_NO":"７１號","E_COORD97":184470.72,"N_COORD97":2540546.25,"ADDRESS":"新市子７１號","OBJECTID":216884},"geometry":{"x":184470.72000000067,"y":2540546.25}},{"attributes":{"ID":216886,"DIS_CODE":0,"TOWNNAME":"龍崎區","LI":"石\u25A0里","LIN":"2鄰","STREET":" ","SECT":" ","MAREA":"後壁溪","LANE":" ","ALLEY":" ","HOUSE_NO":"２１號","E_COORD97":189755.22,"N_COORD97":2538621.3199999998,"ADDRESS":"後壁溪２１號","OBJECTID":216885},"geometry":{"x":189755.21999999974,"y":2538621.3199999984}},{"attributes":{"ID":216887,"DIS_CODE":0,"TOWNNAME":"佳里區","LI":"蚶寮里","LIN":"2鄰","STREET":" ","SECT":" ","MAREA":"蚶寮","LANE":" ","ALLEY":" ","HOUSE_NO":"１４號","E_COORD97":163886.76999999999,"N_COORD97":2558529.4199999999,"ADDRESS":"蚶寮１４號","OBJECTID":216886},"geometry":{"x":163886.77000000048,"y":2558529.4200000018}},{"attributes":{"ID":216888,"DIS_CODE":0,"TOWNNAME":"龍崎區","LI":"崎頂里","LIN":"2鄰","STREET":" ","SECT":" ","MAREA":"新市子","LANE":" ","ALLEY":" ","HOUSE_NO":"５０號","E_COORD97":184390.01999999999,"N_COORD97":2540518.25,"ADDRESS":"新市子５０號","OBJECTID":216887},"geometry":{"x":184390.02000000142,"y":2540518.2500000019}},{"attributes":{"ID":216889,"DIS_CODE":0,"TOWNNAME":"龍崎區","LI":"崎頂里","LIN":"2鄰","STREET":" ","SECT":" ","MAREA":"新市子","LANE":" ","ALLEY":" ","HOUSE_NO":"４７號","E_COORD97":184441.51999999999,"N_COORD97":2540402.25,"ADDRESS":"新市子４７號","OBJECTID":216888},"geometry":{"x":184441.52000000048,"y":2540402.2500000019}},{"attributes":{"ID":216890,"DIS_CODE":0,"TOWNNAME":"龍崎區","LI":"崎頂里","LIN":"2鄰","STREET":" ","SECT":" ","MAREA":"新市子","LANE":" ","ALLEY":" ","HOUSE_NO":"４８之１號","E_COORD97":184400.12,"N_COORD97":2540443.2999999998,"ADDRESS":"新市子４８之１號","OBJECTID":216889},"geometry":{"x":184400.12000000104,"y":2540443.3000000026}},{"attributes":{"ID":216891,"DIS_CODE":0,"TOWNNAME":"龍崎區","LI":"崎頂里","LIN":"2鄰","STREET":" ","SECT":" ","MAREA":"新市子","LANE":" ","ALLEY":" ","HOUSE_NO":"６５之１號","E_COORD97":184447.32000000001,"N_COORD97":2540529.2999999998,"ADDRESS":"新市子６５之１號","OBJECTID":216890},"geometry":{"x":184447.3200000003,"y":2540529.3000000007}},{"attributes":{"ID":216892,"DIS_CODE":0,"TOWNNAME":"永康區","LI":"北灣里","LIN":"37鄰","STREET":"大同街","SECT":" ","MAREA":" ","LANE":" ","ALLEY":" ","HOUSE_NO":"３５８號","E_COORD97":174752.81,"N_COORD97":2546070.54,"ADDRESS":"大同街３５８號","OBJECTID":216891},"geometry":{"x":174752.81000000052,"y":2546070.5399999991}},{"attributes":{"ID":216893,"DIS_CODE":0,"TOWNNAME":"永康區","LI":"北灣里","LIN":"37鄰","STREET":"大同街","SECT":" ","MAREA":" ","LANE":" ","ALLEY":" ","HOUSE_NO":"２９７號","E_COORD97":174760.45999999999,"N_COORD97":2545962.1899999999,"ADDRESS":"大同街２９７號","OBJECTID":216892},"geometry":{"x":174760.46000000183,"y":2545962.1900000013}},{"attributes":{"ID":216894,"DIS_CODE":0,"TOWNNAME":"永康區","LI":"北灣里","LIN":"37鄰","STREET":"大同街","SECT":" ","MAREA":" ","LANE":" ","ALLEY":" ","HOUSE_NO":"３６６號","E_COORD97":174739.81,"N_COORD97":2546086.2000000002,"ADDRESS":"大同街３６６號","OBJECTID":216893},"geometry":{"x":174739.80999999959,"y":2546086.1999999993}},{"attributes":{"ID":216895,"DIS_CODE":0,"TOWNNAME":"北區","LI":"和順里","LIN":"29鄰","STREET":"臨安路","SECT":"二段","MAREA":" ","LANE":"１４３巷","ALLEY":"９０弄","HOUSE_NO":"３８號","E_COORD97":167893.28,"N_COORD97":2545095.1499999999,"ADDRESS":"臨安路二段１４３巷９０弄３８號","OBJECTID":216894},"geometry":{"x":167893.28000000119,"y":2545095.1500000041}},{"attributes":{"ID":216896,"DIS_CODE":0,"TOWNNAME":"柳營區","LI":"光福里","LIN":"29鄰","STREET":"柳營路","SECT":"一段","MAREA":" ","LANE":"１９８巷","ALLEY":"１６０弄","HOUSE_NO":"１號","E_COORD97":180053.78,"N_COORD97":2573515.2200000002,"ADDRESS":"柳營路一段１９８巷１６０弄１號","OBJECTID":216895},"geometry":{"x":180053.78000000026,"y":2573515.2200000007}},{"attributes":{"ID":216897,"DIS_CODE":0,"TOWNNAME":"南區","LI":"金華里","LIN":"29鄰","STREET":"新孝路","SECT":" ","MAREA":" ","LANE":"１２６巷","ALLEY":"５６弄","HOUSE_NO":"３號","E_COORD97":166663.94,"N_COORD97":2542206.8300000001,"ADDRESS":"新孝路１２６巷５６弄３號","OBJECTID":216896},"geometry":{"x":166663.94000000041,"y":2542206.8300000001}},{"attributes":{"ID":216898,"DIS_CODE":0,"TOWNNAME":"南區","LI":"金華里","LIN":"29鄰","STREET":"新孝路","SECT":" ","MAREA":" ","LANE":"１２６巷","ALLEY":"７６弄","HOUSE_NO":"２號","E_COORD97":166663.13,"N_COORD97":2542222.1000000001,"ADDRESS":"新孝路１２６巷７６弄２號","OBJECTID":216897},"geometry":{"x":166663.13000000082,"y":2542222.0999999996}},{"attributes":{"ID":216899,"DIS_CODE":0,"TOWNNAME":"南區","LI":"金華里","LIN":"29鄰","STREET":"新孝路","SECT":" ","MAREA":" ","LANE":"１２６巷","ALLEY":"７６弄","HOUSE_NO":"４號","E_COORD97":166668.48999999999,"N_COORD97":2542220.1299999999,"ADDRESS":"新孝路１２６巷７６弄４號","OBJECTID":216898},"geometry":{"x":166668.49000000022,"y":2542220.1300000008}},{"attributes":{"ID":216900,"DIS_CODE":0,"TOWNNAME":"六甲區","LI":"甲東里","LIN":"29鄰","STREET":"裕農街","SECT":" ","MAREA":" ","LANE":"２２巷","ALLEY":"３６弄","HOUSE_NO":"２３號","E_COORD97":184077.92999999999,"N_COORD97":2569434.6600000001,"ADDRESS":"裕農街２２巷３６弄２３號","OBJECTID":216899},"geometry":{"x":184077.9299999997,"y":2569434.660000002}},{"attributes":{"ID":216901,"DIS_CODE":0,"TOWNNAME":"安平區","LI":"平通里","LIN":"29鄰","STREET":"育平九街","SECT":" ","MAREA":" ","LANE":"３７２巷","ALLEY":"３３弄","HOUSE_NO":"１號","E_COORD97":164589.60000000001,"N_COORD97":2543847.6499999999,"ADDRESS":"育平九街３７２巷３３弄１號","OBJECTID":216900},"geometry":{"x":164589.60000000149,"y":2543847.6500000022}},{"attributes":{"ID":216902,"DIS_CODE":0,"TOWNNAME":"龍崎區","LI":"中坑里","LIN":"2鄰","STREET":" ","SECT":" ","MAREA":"中坑","LANE":" ","ALLEY":" ","HOUSE_NO":"２３號","E_COORD97":186150.85999999999,"N_COORD97":2538987.2799999998,"ADDRESS":"中坑２３號","OBJECTID":216901},"geometry":{"x":186150.86000000034,"y":2538987.2800000012}},{"attributes":{"ID":216903,"DIS_CODE":0,"TOWNNAME":"安平區","LI":"平通里","LIN":"29鄰","STREET":"育平九街","SECT":" ","MAREA":" ","LANE":"３７２巷","ALLEY":"３３弄","HOUSE_NO":"２０號","E_COORD97":164542.98999999999,"N_COORD97":2543875.1200000001,"ADDRESS":"育平九街３７２巷３３弄２０號","OBJECTID":216902},"geometry":{"x":164542.99000000022,"y":2543875.1199999992}},{"attributes":{"ID":216904,"DIS_CODE":0,"TOWNNAME":"龍崎區","LI":"牛埔里","LIN":"2鄰","STREET":" ","SECT":" ","MAREA":"牛埔","LANE":" ","ALLEY":" ","HOUSE_NO":"１８號","E_COORD97":189438.37,"N_COORD97":2536893.25,"ADDRESS":"牛埔１８號","OBJECTID":216903},"geometry":{"x":189438.37000000104,"y":2536893.2500000019}},{"attributes":{"ID":216905,"DIS_CODE":0,"TOWNNAME":"安平區","LI":"平通里","LIN":"29鄰","STREET":"育平九街","SECT":" ","MAREA":" ","LANE":"３７２巷","ALLEY":"３３弄","HOUSE_NO":"２２號","E_COORD97":164538.5,"N_COORD97":2543874.8300000001,"ADDRESS":"育平九街３７２巷３３弄２２號","OBJECTID":216904},"geometry":{"x":164538.50000000093,"y":2543874.8300000001}},{"attributes":{"ID":216906,"DIS_CODE":0,"TOWNNAME":"龍崎區","LI":"大坪里","LIN":"2鄰","STREET":" ","SECT":" ","MAREA":"番社","LANE":" ","ALLEY":" ","HOUSE_NO":"７之１號","E_COORD97":188317.22,"N_COORD97":2537626.2999999998,"ADDRESS":"番社７之１號","OBJECTID":216905},"geometry":{"x":188317.22000000067,"y":2537626.3000000026}},{"attributes":{"ID":216907,"DIS_CODE":0,"TOWNNAME":"龍崎區","LI":"大坪里","LIN":"2鄰","STREET":" ","SECT":" ","MAREA":"番社","LANE":" ","ALLEY":" ","HOUSE_NO":"６號","E_COORD97":188287.62,"N_COORD97":2537666.25,"ADDRESS":"番社６號","OBJECTID":216906},"geometry":{"x":188287.62000000104,"y":2537666.2500000019}},{"attributes":{"ID":216908,"DIS_CODE":0,"TOWNNAME":"龍崎區","LI":"中坑里","LIN":"2鄰","STREET":" ","SECT":" ","MAREA":"中坑","LANE":" ","ALLEY":" ","HOUSE_NO":"２２之１號","E_COORD97":186249.16,"N_COORD97":2538998.29,"ADDRESS":"中坑２２之１號","OBJECTID":216907},"geometry":{"x":186249.16000000201,"y":2538998.290000001}},{"attributes":{"ID":216909,"DIS_CODE":0,"TOWNNAME":"龍崎區","LI":"大坪里","LIN":"2鄰","STREET":" ","SECT":" ","MAREA":"番社","LANE":" ","ALLEY":" ","HOUSE_NO":"３號","E_COORD97":188251.42000000001,"N_COORD97":2537677.25,"ADDRESS":"番社３號","OBJECTID":216908},"geometry":{"x":188251.42000000086,"y":2537677.2500000019}},{"attributes":{"ID":216910,"DIS_CODE":0,"TOWNNAME":"龍崎區","LI":"牛埔里","LIN":"2鄰","STREET":" ","SECT":" ","MAREA":"牛埔","LANE":" ","ALLEY":" ","HOUSE_NO":"１６之１號","E_COORD97":189470.26999999999,"N_COORD97":2536982.2999999998,"ADDRESS":"牛埔１６之１號","OBJECTID":216909},"geometry":{"x":189470.26999999862,"y":2536982.3000000026}},{"attributes":{"ID":216911,"DIS_CODE":0,"TOWNNAME":"龍崎區","LI":"大坪里","LIN":"2鄰","STREET":" ","SECT":" ","MAREA":"番社","LANE":" ","ALLEY":" ","HOUSE_NO":"１之１號","E_COORD97":188245.32000000001,"N_COORD97":2537677.2999999998,"ADDRESS":"番社１之１號","OBJECTID":216910},"geometry":{"x":188245.32000000216,"y":2537677.3000000026}},{"attributes":{"ID":216912,"DIS_CODE":0,"TOWNNAME":"龍崎區","LI":"中坑里","LIN":"2鄰","STREET":" ","SECT":" ","MAREA":"中坑","LANE":" ","ALLEY":" ","HOUSE_NO":"２４之１號","E_COORD97":186199.26000000001,"N_COORD97":2539003.2999999998,"ADDRESS":"中坑２４之１號","OBJECTID":216911},"geometry":{"x":186199.26000000071,"y":2539003.3000000026}},{"attributes":{"ID":216913,"DIS_CODE":0,"TOWNNAME":"安平區","LI":"平通里","LIN":"29鄰","STREET":"育平九街","SECT":" ","MAREA":" ","LANE":"３７２巷","ALLEY":"３３弄","HOUSE_NO":"２４號","E_COORD97":164534,"N_COORD97":2543875.1200000001,"ADDRESS":"育平九街３７２巷３３弄２４號","OBJECTID":216912},"geometry":{"x":164534,"y":2543875.1199999992}},{"attributes":{"ID":216914,"DIS_CODE":0,"TOWNNAME":"西港區","LI":"竹林里","LIN":"2鄰","STREET":" ","SECT":" ","MAREA":"大竹林","LANE":" ","ALLEY":" ","HOUSE_NO":"１０號","E_COORD97":166122.53,"N_COORD97":2557667.3599999999,"ADDRESS":"大竹林１０號","OBJECTID":216913},"geometry":{"x":166122.53000000026,"y":2557667.3600000031}},{"attributes":{"ID":216915,"DIS_CODE":0,"TOWNNAME":"安平區","LI":"平通里","LIN":"29鄰","STREET":"育平九街","SECT":" ","MAREA":" ","LANE":"３７２巷","ALLEY":"３３弄","HOUSE_NO":"２６號","E_COORD97":164529.56,"N_COORD97":2543874.9399999999,"ADDRESS":"育平九街３７２巷３３弄２６號","OBJECTID":216914},"geometry":{"x":164529.56000000052,"y":2543874.9400000032}},{"attributes":{"ID":216916,"DIS_CODE":0,"TOWNNAME":"安平區","LI":"平通里","LIN":"29鄰","STREET":"育平九街","SECT":" ","MAREA":" ","LANE":"３７２巷","ALLEY":"３３弄","HOUSE_NO":"２７號","E_COORD97":164517.48000000001,"N_COORD97":2543847.48,"ADDRESS":"育平九街３７２巷３３弄２７號","OBJECTID":216915},"geometry":{"x":164517.48000000138,"y":2543847.4800000004}},{"attributes":{"ID":216917,"DIS_CODE":0,"TOWNNAME":"安平區","LI":"平通里","LIN":"29鄰","STREET":"育平九街","SECT":" ","MAREA":" ","LANE":"３７２巷","ALLEY":"３３弄","HOUSE_NO":"２８號","E_COORD97":164525.47,"N_COORD97":2543875.1200000001,"ADDRESS":"育平九街３７２巷３３弄２８號","OBJECTID":216916},"geometry":{"x":164525.46999999974,"y":2543875.1199999992}},{"attributes":{"ID":216918,"DIS_CODE":0,"TOWNNAME":"安平區","LI":"平通里","LIN":"29鄰","STREET":"育平九街","SECT":" ","MAREA":" ","LANE":"３７２巷","ALLEY":"３３弄","HOUSE_NO":"２９號","E_COORD97":164513.07999999999,"N_COORD97":2543847.48,"ADDRESS":"育平九街３７２巷３３弄２９號","OBJECTID":216917},"geometry":{"x":164513.08000000101,"y":2543847.4800000004}},{"attributes":{"ID":216919,"DIS_CODE":0,"TOWNNAME":"西港區","LI":"竹林里","LIN":"2鄰","STREET":" ","SECT":" ","MAREA":"大竹林","LANE":" ","ALLEY":" ","HOUSE_NO":"１１號之２０","E_COORD97":166198.12,"N_COORD97":2557063.1299999999,"ADDRESS":"大竹林１１號之２０","OBJECTID":216918},"geometry":{"x":166198.12000000011,"y":2557063.1300000008}},{"attributes":{"ID":216920,"DIS_CODE":0,"TOWNNAME":"西港區","LI":"竹林里","LIN":"2鄰","STREET":" ","SECT":" ","MAREA":"大竹林","LANE":" ","ALLEY":" ","HOUSE_NO":"１４號之１","E_COORD97":166489.03,"N_COORD97":2557916.4300000002,"ADDRESS":"大竹林１４號之１","OBJECTID":216919},"geometry":{"x":166489.03000000026,"y":2557916.4300000016}},{"attributes":{"ID":216921,"DIS_CODE":0,"TOWNNAME":"安平區","LI":"平通里","LIN":"29鄰","STREET":"育平九街","SECT":" ","MAREA":" ","LANE":"３７２巷","ALLEY":"３３弄","HOUSE_NO":"３０號","E_COORD97":164520.85999999999,"N_COORD97":2543875.52,"ADDRESS":"育平九街３７２巷３３弄３０號","OBJECTID":216920},"geometry":{"x":164520.8600000022,"y":2543875.5200000014}},{"attributes":{"ID":216922,"DIS_CODE":0,"TOWNNAME":"安平區","LI":"平通里","LIN":"29鄰","STREET":"育平九街","SECT":" ","MAREA":" ","LANE":"３７２巷","ALLEY":"３３弄","HOUSE_NO":"３１號","E_COORD97":164508.89999999999,"N_COORD97":2543847.4199999999,"ADDRESS":"育平九街３７２巷３３弄３１號","OBJECTID":216921},"geometry":{"x":164508.9000000013,"y":2543847.4199999999}},{"attributes":{"ID":216923,"DIS_CODE":0,"TOWNNAME":"永康區","LI":"龍潭里","LIN":"14鄰","STREET":"龍安街","SECT":" ","MAREA":" ","LANE":" ","ALLEY":" ","HOUSE_NO":"９７號","E_COORD97":174596.29999999999,"N_COORD97":2548318.9900000002,"ADDRESS":"龍安街９７號","OBJECTID":216922},"geometry":{"x":174596.29999999981,"y":2548318.9900000002}},{"attributes":{"ID":216924,"DIS_CODE":0,"TOWNNAME":"永康區","LI":"龍潭里","LIN":"44鄰","STREET":"永平街","SECT":" ","MAREA":" ","LANE":" ","ALLEY":" ","HOUSE_NO":"２８０之１１號","E_COORD97":174657.84,"N_COORD97":2547031.5499999998,"ADDRESS":"永平街２８０之１１號","OBJECTID":216923},"geometry":{"x":174657.84000000078,"y":2547031.5500000007}},{"attributes":{"ID":216925,"DIS_CODE":0,"TOWNNAME":"永康區","LI":"北灣里","LIN":"37鄰","STREET":"大同街","SECT":" ","MAREA":" ","LANE":" ","ALLEY":" ","HOUSE_NO":"３２５號","E_COORD97":174701.88,"N_COORD97":2546044.0800000001,"ADDRESS":"大同街３２５號","OBJECTID":216924},"geometry":{"x":174701.88000000082,"y":2546044.0800000001}},{"attributes":{"ID":216926,"DIS_CODE":0,"TOWNNAME":"安平區","LI":"平通里","LIN":"29鄰","STREET":"育平九街","SECT":" ","MAREA":" ","LANE":"３７２巷","ALLEY":"３３弄","HOUSE_NO":"３２號","E_COORD97":164516.45000000001,"N_COORD97":2543875.8100000001,"ADDRESS":"育平九街３７２巷３３弄３２號","OBJECTID":216925},"geometry":{"x":164516.45000000019,"y":2543875.8100000005}},{"attributes":{"ID":216927,"DIS_CODE":0,"TOWNNAME":"安平區","LI":"平通里","LIN":"29鄰","STREET":"育平九街","SECT":" ","MAREA":" ","LANE":"３７２巷","ALLEY":"３３弄","HOUSE_NO":"３３號","E_COORD97":164504.67999999999,"N_COORD97":2543847.4199999999,"ADDRESS":"育平九街３７２巷３３弄３３號","OBJECTID":216926},"geometry":{"x":164504.68000000063,"y":2543847.4199999999}},{"attributes":{"ID":216928,"DIS_CODE":0,"TOWNNAME":"安平區","LI":"平通里","LIN":"29鄰","STREET":"育平九街","SECT":" ","MAREA":" ","LANE":"３７２巷","ALLEY":"３３弄","HOUSE_NO":"３４號","E_COORD97":164512.07000000001,"N_COORD97":2543875.5800000001,"ADDRESS":"育平九街３７２巷３３弄３４號","OBJECTID":216927},"geometry":{"x":164512.0700000003,"y":2543875.5800000019}},{"attributes":{"ID":216929,"DIS_CODE":0,"TOWNNAME":"安平區","LI":"平通里","LIN":"29鄰","STREET":"育平九街","SECT":" ","MAREA":" ","LANE":"３７２巷","ALLEY":"３３弄","HOUSE_NO":"３５號","E_COORD97":164500.04999999999,"N_COORD97":2543847.25,"ADDRESS":"育平九街３７２巷３３弄３５號","OBJECTID":216928},"geometry":{"x":164500.04999999981,"y":2543847.2500000019}},{"attributes":{"ID":216930,"DIS_CODE":0,"TOWNNAME":"永康區","LI":"北灣里","LIN":"37鄰","STREET":"大同街","SECT":" ","MAREA":" ","LANE":" ","ALLEY":" ","HOUSE_NO":"３２２號","E_COORD97":174783.20999999999,"N_COORD97":2545961.3799999999,"ADDRESS":"大同街３２２號","OBJECTID":216929},"geometry":{"x":174783.21000000089,"y":2545961.3800000008}},{"attributes":{"ID":216931,"DIS_CODE":0,"TOWNNAME":"安平區","LI":"平通里","LIN":"29鄰","STREET":"育平九街","SECT":" ","MAREA":" ","LANE":"３７２巷","ALLEY":"３３弄","HOUSE_NO":"４１號","E_COORD97":164487.07999999999,"N_COORD97":2543847.2000000002,"ADDRESS":"育平九街３７２巷３３弄４１號","OBJECTID":216930},"geometry":{"x":164487.08000000101,"y":2543847.2000000011}},{"attributes":{"ID":216932,"DIS_CODE":0,"TOWNNAME":"永康區","LI":"北灣里","LIN":"37鄰","STREET":"大同街","SECT":" ","MAREA":" ","LANE":" ","ALLEY":" ","HOUSE_NO":"３４８號","E_COORD97":174764.75,"N_COORD97":2546049.9900000002,"ADDRESS":"大同街３４８號","OBJECTID":216931},"geometry":{"x":174764.75,"y":2546049.9900000021}},{"attributes":{"ID":216933,"DIS_CODE":0,"TOWNNAME":"永康區","LI":"北灣里","LIN":"37鄰","STREET":"大同街","SECT":" ","MAREA":" ","LANE":" ","ALLEY":" ","HOUSE_NO":"３５２號","E_COORD97":174765.87,"N_COORD97":2546072.27,"ADDRESS":"大同街３５２號","OBJECTID":216932},"geometry":{"x":174765.87000000011,"y":2546072.2699999996}},{"attributes":{"ID":216934,"DIS_CODE":0,"TOWNNAME":"永康區","LI":"北灣里","LIN":"37鄰","STREET":"大同街","SECT":" ","MAREA":" ","LANE":" ","ALLEY":" ","HOUSE_NO":"３４０號","E_COORD97":174762.09,"N_COORD97":2546017,"ADDRESS":"大同街３４０號","OBJECTID":216933},"geometry":{"x":174762.08999999985,"y":2546017}},{"attributes":{"ID":216935,"DIS_CODE":0,"TOWNNAME":"安平區","LI":"平通里","LIN":"29鄰","STREET":"育平九街","SECT":" ","MAREA":" ","LANE":"３７２巷","ALLEY":"３３弄","HOUSE_NO":"４２號","E_COORD97":164494.70999999999,"N_COORD97":2543875.23,"ADDRESS":"育平九街３７２巷３３弄４２號","OBJECTID":216934},"geometry":{"x":164494.71000000089,"y":2543875.2300000023}},{"attributes":{"ID":216936,"DIS_CODE":0,"TOWNNAME":"安平區","LI":"平通里","LIN":"29鄰","STREET":"育平九街","SECT":" ","MAREA":" ","LANE":"３７２巷","ALLEY":"３３弄","HOUSE_NO":"４４號","E_COORD97":164490.45000000001,"N_COORD97":2543875.29,"ADDRESS":"育平九街３７２巷３３弄４４號","OBJECTID":216935},"geometry":{"x":164490.45000000019,"y":2543875.2899999972}},{"attributes":{"ID":216937,"DIS_CODE":0,"TOWNNAME":"永康區","LI":"崑山里","LIN":"37鄰","STREET":"國光五街","SECT":" ","MAREA":" ","LANE":" ","ALLEY":" ","HOUSE_NO":"７５號","E_COORD97":173978.60000000001,"N_COORD97":2545128.23,"ADDRESS":"國光五街７５號","OBJECTID":216936},"geometry":{"x":173978.59999999963,"y":2545128.2299999986}},{"attributes":{"ID":216938,"DIS_CODE":0,"TOWNNAME":"安平區","LI":"平通里","LIN":"29鄰","STREET":"育平九街","SECT":" ","MAREA":" ","LANE":"３７２巷","ALLEY":"３３弄","HOUSE_NO":"４６號","E_COORD97":164486.01000000001,"N_COORD97":2543875.0600000001,"ADDRESS":"育平九街３７２巷３３弄４６號","OBJECTID":216937},"geometry":{"x":164486.01000000071,"y":2543875.0599999987}},{"attributes":{"ID":216939,"DIS_CODE":0,"TOWNNAME":"安平區","LI":"平通里","LIN":"29鄰","STREET":"育平九街","SECT":" ","MAREA":" ","LANE":"３７２巷","ALLEY":"３３弄","HOUSE_NO":"４８號","E_COORD97":164481.25,"N_COORD97":2543874.8300000001,"ADDRESS":"育平九街３７２巷３３弄４８號","OBJECTID":216938},"geometry":{"x":164481.25000000093,"y":2543874.8300000001}},{"attributes":{"ID":216940,"DIS_CODE":0,"TOWNNAME":"安平區","LI":"平通里","LIN":"29鄰","STREET":"育平九街","SECT":" ","MAREA":" ","LANE":"３７２巷","ALLEY":"３３弄","HOUSE_NO":"４９號","E_COORD97":164465.29000000001,"N_COORD97":2543848.1200000001,"ADDRESS":"育平九街３７２巷３３弄４９號","OBJECTID":216939},"geometry":{"x":164465.29000000097,"y":2543848.1200000048}},{"attributes":{"ID":216941,"DIS_CODE":0,"TOWNNAME":"安平區","LI":"平通里","LIN":"29鄰","STREET":"育平九街","SECT":" ","MAREA":" ","LANE":"３７２巷","ALLEY":"３３弄","HOUSE_NO":"４號","E_COORD97":164584.95999999999,"N_COORD97":2543875,"ADDRESS":"育平九街３７２巷３３弄４號","OBJECTID":216940},"geometry":{"x":164584.96000000089,"y":2543875.0000000037}},{"attributes":{"ID":216942,"DIS_CODE":0,"TOWNNAME":"安平區","LI":"平通里","LIN":"29鄰","STREET":"育平九街","SECT":" ","MAREA":" ","LANE":"３７２巷","ALLEY":"３３弄","HOUSE_NO":"５０號","E_COORD97":164477.04000000001,"N_COORD97":2543874.8900000001,"ADDRESS":"育平九街３７２巷３３弄５０號","OBJECTID":216941},"geometry":{"x":164477.04000000097,"y":2543874.8900000006}},{"attributes":{"ID":216943,"DIS_CODE":0,"TOWNNAME":"永康區","LI":"崑山里","LIN":"37鄰","STREET":"大仁街","SECT":" ","MAREA":" ","LANE":" ","ALLEY":" ","HOUSE_NO":"１５６號","E_COORD97":173918.42999999999,"N_COORD97":2544981.29,"ADDRESS":"大仁街１５６號","OBJECTID":216942},"geometry":{"x":173918.43000000063,"y":2544981.290000001}},{"attributes":{"ID":216944,"DIS_CODE":0,"TOWNNAME":"西港區","LI":"竹林里","LIN":"2鄰","STREET":" ","SECT":" ","MAREA":"大竹林","LANE":" ","ALLEY":" ","HOUSE_NO":"１４號之２","E_COORD97":166500.70000000001,"N_COORD97":2557905.1600000001,"ADDRESS":"大竹林１４號之２","OBJECTID":216943},"geometry":{"x":166500.70000000112,"y":2557905.160000002}},{"attributes":{"ID":216945,"DIS_CODE":0,"TOWNNAME":"西港區","LI":"竹林里","LIN":"2鄰","STREET":" ","SECT":" ","MAREA":"大竹林","LANE":" ","ALLEY":" ","HOUSE_NO":"１４號之６","E_COORD97":166501.82000000001,"N_COORD97":2557861.52,"ADDRESS":"大竹林１４號之６","OBJECTID":216944},"geometry":{"x":166501.82000000123,"y":2557861.5199999996}},{"attributes":{"ID":216946,"DIS_CODE":0,"TOWNNAME":"西港區","LI":"竹林里","LIN":"2鄰","STREET":" ","SECT":" ","MAREA":"大竹林","LANE":" ","ALLEY":" ","HOUSE_NO":"１５號之１","E_COORD97":166471.09,"N_COORD97":2557940.5899999999,"ADDRESS":"大竹林１５號之１","OBJECTID":216945},"geometry":{"x":166471.08999999985,"y":2557940.5899999999}},{"attributes":{"ID":216947,"DIS_CODE":0,"TOWNNAME":"西港區","LI":"竹林里","LIN":"2鄰","STREET":" ","SECT":" ","MAREA":"大竹林","LANE":" ","ALLEY":" ","HOUSE_NO":"１５之２號","E_COORD97":166463.32999999999,"N_COORD97":2557964.1200000001,"ADDRESS":"大竹林１５之２號","OBJECTID":216946},"geometry":{"x":166463.32999999914,"y":2557964.120000001}},{"attributes":{"ID":216948,"DIS_CODE":0,"TOWNNAME":"西港區","LI":"竹林里","LIN":"2鄰","STREET":" ","SECT":" ","MAREA":"大竹林","LANE":" ","ALLEY":" ","HOUSE_NO":"８號","E_COORD97":166452.23000000001,"N_COORD97":2557720.77,"ADDRESS":"大竹林８號","OBJECTID":216947},"geometry":{"x":166452.23000000045,"y":2557720.7699999996}},{"attributes":{"ID":216949,"DIS_CODE":0,"TOWNNAME":"新化區","LI":"山\u25A0里","LIN":"2鄰","STREET":" ","SECT":" ","MAREA":"頂山\u25A0","LANE":" ","ALLEY":" ","HOUSE_NO":"５９號之８","E_COORD97":179359.23999999999,"N_COORD97":2546571.2599999998,"ADDRESS":"頂山\u25A0５９號之８","OBJECTID":216948},"geometry":{"x":179359.24000000022,"y":2546571.2599999998}},{"attributes":{"ID":216950,"DIS_CODE":0,"TOWNNAME":"新化區","LI":"山\u25A0里","LIN":"2鄰","STREET":" ","SECT":" ","MAREA":"頂山\u25A0","LANE":" ","ALLEY":" ","HOUSE_NO":"６７號","E_COORD97":179474.78,"N_COORD97":2546651.25,"ADDRESS":"頂山\u25A0６７號","OBJECTID":216949},"geometry":{"x":179474.78000000119,"y":2546651.2500000019}},{"attributes":{"ID":216951,"DIS_CODE":0,"TOWNNAME":"新化區","LI":"山\u25A0里","LIN":"2鄰","STREET":" ","SECT":" ","MAREA":"頂山\u25A0","LANE":" ","ALLEY":" ","HOUSE_NO":"７０號","E_COORD97":179491.88,"N_COORD97":2546671.25,"ADDRESS":"頂山\u25A0７０號","OBJECTID":216950},"geometry":{"x":179491.87999999989,"y":2546671.2500000019}},{"attributes":{"ID":216952,"DIS_CODE":0,"TOWNNAME":"新化區","LI":"崙頂里","LIN":"2鄰","STREET":" ","SECT":" ","MAREA":"崙子頂","LANE":" ","ALLEY":" ","HOUSE_NO":"９９號","E_COORD97":176851.78,"N_COORD97":2546813.25,"ADDRESS":"崙子頂９９號","OBJECTID":216951},"geometry":{"x":176851.78000000026,"y":2546813.2500000019}},{"attributes":{"ID":216953,"DIS_CODE":0,"TOWNNAME":"永康區","LI":"蔦松里","LIN":"3鄰","STREET":"中正北路","SECT":" ","MAREA":" ","LANE":" ","ALLEY":" ","HOUSE_NO":"６０３號","E_COORD97":173973.72,"N_COORD97":2549255.4900000002,"ADDRESS":"中正北路６０３號","OBJECTID":216952},"geometry":{"x":173973.72000000067,"y":2549255.4900000002}},{"attributes":{"ID":216954,"DIS_CODE":0,"TOWNNAME":"永康區","LI":"\u25A0行里","LIN":"40鄰","STREET":"永安一街","SECT":" ","MAREA":" ","LANE":" ","ALLEY":" ","HOUSE_NO":"１５號","E_COORD97":172632.59,"N_COORD97":2549382.0600000001,"ADDRESS":"永安一街１５號","OBJECTID":216953},"geometry":{"x":172632.59000000078,"y":2549382.0600000024}},{"attributes":{"ID":216955,"DIS_CODE":0,"TOWNNAME":"學甲區","LI":"中洲里","LIN":"37鄰","STREET":" ","SECT":" ","MAREA":"中洲","LANE":" ","ALLEY":" ","HOUSE_NO":"５００號","E_COORD97":163930.85999999999,"N_COORD97":2571603,"ADDRESS":"中洲５００號","OBJECTID":216954},"geometry":{"x":163930.8600000022,"y":2571603.0000000019}},{"attributes":{"ID":216956,"DIS_CODE":0,"TOWNNAME":"新化區","LI":"山\u25A0里","LIN":"2鄰","STREET":" ","SECT":" ","MAREA":"頂山\u25A0","LANE":" ","ALLEY":" ","HOUSE_NO":"５４號之６０","E_COORD97":179462.67000000001,"N_COORD97":2546546.2599999998,"ADDRESS":"頂山\u25A0５４號之６０","OBJECTID":216955},"geometry":{"x":179462.66999999993,"y":2546546.2600000016}},{"attributes":{"ID":216957,"DIS_CODE":0,"TOWNNAME":"安平區","LI":"平通里","LIN":"29鄰","STREET":"育平九街","SECT":" ","MAREA":" ","LANE":"３７２巷","ALLEY":"３３弄","HOUSE_NO":"５１號","E_COORD97":164460.35000000001,"N_COORD97":2543848.0600000001,"ADDRESS":"育平九街３７２巷３３弄５１號","OBJECTID":216956},"geometry":{"x":164460.34999999963,"y":2543848.0600000042}},{"attributes":{"ID":216958,"DIS_CODE":0,"TOWNNAME":"安平區","LI":"平通里","LIN":"29鄰","STREET":"育平九街","SECT":" ","MAREA":" ","LANE":"３７２巷","ALLEY":"３３弄","HOUSE_NO":"５２號","E_COORD97":164472.72,"N_COORD97":2543875,"ADDRESS":"育平九街３７２巷３３弄５２號","OBJECTID":216957},"geometry":{"x":164472.72000000067,"y":2543875.0000000037}},{"attributes":{"ID":216959,"DIS_CODE":0,"TOWNNAME":"南區","LI":"金華里","LIN":"29鄰","STREET":"新孝路","SECT":" ","MAREA":" ","LANE":"１２６巷","ALLEY":"２弄","HOUSE_NO":"１號","E_COORD97":166628.98999999999,"N_COORD97":2542127.9700000002,"ADDRESS":"新孝路１２６巷２弄１號","OBJECTID":216958},"geometry":{"x":166628.99000000115,"y":2542127.9700000025}},{"attributes":{"ID":216960,"DIS_CODE":0,"TOWNNAME":"南區","LI":"金華里","LIN":"29鄰","STREET":"新孝路","SECT":" ","MAREA":" ","LANE":"１２６巷","ALLEY":"２弄","HOUSE_NO":"３號","E_COORD97":166632.66,"N_COORD97":2542126.7200000002,"ADDRESS":"新孝路１２６巷２弄３號","OBJECTID":216959},"geometry":{"x":166632.66000000108,"y":2542126.7200000007}},{"attributes":{"ID":216961,"DIS_CODE":0,"TOWNNAME":"南區","LI":"金華里","LIN":"29鄰","STREET":"新孝路","SECT":" ","MAREA":" ","LANE":"１２６巷","ALLEY":"２弄","HOUSE_NO":"７號","E_COORD97":166642.48999999999,"N_COORD97":2542127.5299999998,"ADDRESS":"新孝路１２６巷２弄７號","OBJECTID":216960},"geometry":{"x":166642.49000000115,"y":2542127.5299999993}},{"attributes":{"ID":216962,"DIS_CODE":0,"TOWNNAME":"新化區","LI":"山\u25A0里","LIN":"2鄰","STREET":" ","SECT":" ","MAREA":"頂山\u25A0","LANE":" ","ALLEY":" ","HOUSE_NO":"７４號","E_COORD97":179553.78,"N_COORD97":2546624.25,"ADDRESS":"頂山\u25A0７４號","OBJECTID":216961},"geometry":{"x":179553.78000000026,"y":2546624.2500000019}},{"attributes":{"ID":216963,"DIS_CODE":0,"TOWNNAME":"新化區","LI":"山\u25A0里","LIN":"2鄰","STREET":" ","SECT":" ","MAREA":"頂山\u25A0","LANE":" ","ALLEY":" ","HOUSE_NO":"５６號之３","E_COORD97":179383.82999999999,"N_COORD97":2546655.2599999998,"ADDRESS":"頂山\u25A0５６號之３","OBJECTID":216962},"geometry":{"x":179383.83000000007,"y":2546655.2599999998}},{"attributes":{"ID":216964,"DIS_CODE":0,"TOWNNAME":"新化區","LI":"山\u25A0里","LIN":"2鄰","STREET":" ","SECT":" ","MAREA":"頂山\u25A0","LANE":" ","ALLEY":" ","HOUSE_NO":"７２號之１","E_COORD97":179531.01000000001,"N_COORD97":2546674.2599999998,"ADDRESS":"頂山\u25A0７２號之１","OBJECTID":216963},"geometry":{"x":179531.00999999978,"y":2546674.2600000016}},{"attributes":{"ID":216965,"DIS_CODE":0,"TOWNNAME":"新化區","LI":"北勢里","LIN":"2鄰","STREET":" ","SECT":" ","MAREA":"北勢","LANE":" ","ALLEY":" ","HOUSE_NO":"２４號之３","E_COORD97":177418.67999999999,"N_COORD97":2549515.2599999998,"ADDRESS":"北勢２４號之３","OBJECTID":216964},"geometry":{"x":177418.68000000063,"y":2549515.2600000016}},{"attributes":{"ID":216966,"DIS_CODE":0,"TOWNNAME":"安定區","LI":"海寮里","LIN":"2鄰","STREET":" ","SECT":" ","MAREA":"海寮","LANE":" ","ALLEY":" ","HOUSE_NO":"２６號之１","E_COORD97":169475.53,"N_COORD97":2555235.2999999998,"ADDRESS":"海寮２６號之１","OBJECTID":216965},"geometry":{"x":169475.53000000026,"y":2555235.3000000026}},{"attributes":{"ID":216967,"DIS_CODE":0,"TOWNNAME":"安定區","LI":"蘇林里","LIN":"2鄰","STREET":" ","SECT":" ","MAREA":"蘇厝","LANE":" ","ALLEY":" ","HOUSE_NO":"１８號之７","E_COORD97":173474.38,"N_COORD97":2558504.2999999998,"ADDRESS":"蘇厝１８號之７","OBJECTID":216966},"geometry":{"x":173474.38000000082,"y":2558504.3000000026}},{"attributes":{"ID":216968,"DIS_CODE":0,"TOWNNAME":"安定區","LI":"保西里","LIN":"2鄰","STREET":" ","SECT":" ","MAREA":"安定","LANE":" ","ALLEY":" ","HOUSE_NO":"３３９號之２","E_COORD97":171726.98999999999,"N_COORD97":2557618.3199999998,"ADDRESS":"安定３３９號之２","OBJECTID":216967},"geometry":{"x":171726.99000000022,"y":2557618.3200000022}},{"attributes":{"ID":216969,"DIS_CODE":0,"TOWNNAME":"安定區","LI":"蘇厝里","LIN":"2鄰","STREET":" ","SECT":" ","MAREA":"蘇厝","LANE":" ","ALLEY":" ","HOUSE_NO":"２９３之７０號","E_COORD97":173348.26999999999,"N_COORD97":2558330.2999999998,"ADDRESS":"蘇厝２９３之７０號","OBJECTID":216968},"geometry":{"x":173348.27000000048,"y":2558330.3000000045}},{"attributes":{"ID":216970,"DIS_CODE":0,"TOWNNAME":"安定區","LI":"中榮里","LIN":"2鄰","STREET":" ","SECT":" ","MAREA":"許中營","LANE":" ","ALLEY":" ","HOUSE_NO":"１７之１７號","E_COORD97":172489.59,"N_COORD97":2554913.2999999998,"ADDRESS":"許中營１７之１７號","OBJECTID":216969},"geometry":{"x":172489.59000000171,"y":2554913.3000000026}},{"attributes":{"ID":216971,"DIS_CODE":0,"TOWNNAME":"永康區","LI":"崑山里","LIN":"37鄰","STREET":"大仁街","SECT":" ","MAREA":" ","LANE":" ","ALLEY":" ","HOUSE_NO":"１５８號","E_COORD97":173919.98000000001,"N_COORD97":2544986.04,"ADDRESS":"大仁街１５８號","OBJECTID":216970},"geometry":{"x":173919.98000000231,"y":2544986.0400000028}},{"attributes":{"ID":216972,"DIS_CODE":0,"TOWNNAME":"永康區","LI":"北灣里","LIN":"37鄰","STREET":"大同街","SECT":" ","MAREA":" ","LANE":" ","ALLEY":" ","HOUSE_NO":"３８５號","E_COORD97":174699.81,"N_COORD97":2546197.0800000001,"ADDRESS":"大同街３８５號","OBJECTID":216971},"geometry":{"x":174699.80999999959,"y":2546197.0800000038}},{"attributes":{"ID":216973,"DIS_CODE":0,"TOWNNAME":"永康區","LI":"北灣里","LIN":"37鄰","STREET":"大同街","SECT":" ","MAREA":" ","LANE":" ","ALLEY":" ","HOUSE_NO":"３８７號","E_COORD97":174697.22,"N_COORD97":2546202.1099999999,"ADDRESS":"大同街３８７號","OBJECTID":216972},"geometry":{"x":174697.21999999881,"y":2546202.1099999994}},{"attributes":{"ID":216974,"DIS_CODE":0,"TOWNNAME":"安定區","LI":"港南里","LIN":"2鄰","STREET":" ","SECT":" ","MAREA":"港口","LANE":" ","ALLEY":" ","HOUSE_NO":"１２之１號","E_COORD97":171318.38,"N_COORD97":2554203.2999999998,"ADDRESS":"港口１２號之１","OBJECTID":216973},"geometry":{"x":171318.38000000082,"y":2554203.3000000007}},{"attributes":{"ID":216975,"DIS_CODE":0,"TOWNNAME":"安定區","LI":"蘇林里","LIN":"2鄰","STREET":" ","SECT":" ","MAREA":"蘇厝","LANE":" ","ALLEY":" ","HOUSE_NO":"２０之１號","E_COORD97":173540.57000000001,"N_COORD97":2558582.2999999998,"ADDRESS":"蘇厝２０之１號","OBJECTID":216974},"geometry":{"x":173540.5700000003,"y":2558582.3000000026}},{"attributes":{"ID":216976,"DIS_CODE":0,"TOWNNAME":"安定區","LI":"港尾里","LIN":"2鄰","STREET":" ","SECT":" ","MAREA":"下洲子","LANE":" ","ALLEY":" ","HOUSE_NO":"２３號","E_COORD97":172289.19,"N_COORD97":2556581.25,"ADDRESS":"下洲子２３號","OBJECTID":216975},"geometry":{"x":172289.19000000041,"y":2556581.2500000019}},{"attributes":{"ID":216977,"DIS_CODE":0,"TOWNNAME":"安定區","LI":"港口里","LIN":"2鄰","STREET":" ","SECT":" ","MAREA":"港口","LANE":" ","ALLEY":" ","HOUSE_NO":"２４６號之９","E_COORD97":171617.10999999999,"N_COORD97":2554683.2999999998,"ADDRESS":"港口２４６號之９","OBJECTID":216976},"geometry":{"x":171617.11000000127,"y":2554683.3000000026}},{"attributes":{"ID":216978,"DIS_CODE":0,"TOWNNAME":"安定區","LI":"大同里","LIN":"2鄰","STREET":" ","SECT":" ","MAREA":"大同","LANE":" ","ALLEY":" ","HOUSE_NO":"２０號","E_COORD97":170475.37,"N_COORD97":2553873.25,"ADDRESS":"大同２０號","OBJECTID":216977},"geometry":{"x":170475.37000000011,"y":2553873.2500000019}},{"attributes":{"ID":216979,"DIS_CODE":0,"TOWNNAME":"安定區","LI":"港口里","LIN":"2鄰","STREET":" ","SECT":" ","MAREA":"港口","LANE":" ","ALLEY":" ","HOUSE_NO":"２４７號","E_COORD97":171588.39000000001,"N_COORD97":2554634.25,"ADDRESS":"港口２４７號","OBJECTID":216978},"geometry":{"x":171588.38999999966,"y":2554634.2499999981}},{"attributes":{"ID":216980,"DIS_CODE":0,"TOWNNAME":"安定區","LI":"中榮里","LIN":"2鄰","STREET":" ","SECT":" ","MAREA":"許中營","LANE":" ","ALLEY":" ","HOUSE_NO":"２４之１８號","E_COORD97":172927.29000000001,"N_COORD97":2554425.2999999998,"ADDRESS":"許中營２４之１８號","OBJECTID":216979},"geometry":{"x":172927.28999999911,"y":2554425.3000000026}},{"attributes":{"ID":216981,"DIS_CODE":0,"TOWNNAME":"安定區","LI":"中榮里","LIN":"2鄰","STREET":" ","SECT":" ","MAREA":"許中營","LANE":" ","ALLEY":" ","HOUSE_NO":"１７之１２號","E_COORD97":172486.89000000001,"N_COORD97":2554890.2999999998,"ADDRESS":"許中營１７之１２號","OBJECTID":216980},"geometry":{"x":172486.88999999966,"y":2554890.3000000026}},{"attributes":{"ID":216982,"DIS_CODE":0,"TOWNNAME":"永康區","LI":"北灣里","LIN":"37鄰","STREET":"大同街","SECT":" ","MAREA":" ","LANE":" ","ALLEY":" ","HOUSE_NO":"３８９號","E_COORD97":174695.51000000001,"N_COORD97":2546206.1699999999,"ADDRESS":"大同街３８９號","OBJECTID":216981},"geometry":{"x":174695.51000000164,"y":2546206.1699999981}},{"attributes":{"ID":216983,"DIS_CODE":0,"TOWNNAME":"安定區","LI":"海寮里","LIN":"2鄰","STREET":" ","SECT":" ","MAREA":"海寮","LANE":" ","ALLEY":" ","HOUSE_NO":"２５之６號","E_COORD97":169374.48999999999,"N_COORD97":2554809.2999999998,"ADDRESS":"海寮２５之６號","OBJECTID":216982},"geometry":{"x":169374.49000000022,"y":2554809.3000000026}},{"attributes":{"ID":216984,"DIS_CODE":0,"TOWNNAME":"安定區","LI":"港口里","LIN":"2鄰","STREET":" ","SECT":" ","MAREA":"港口","LANE":" ","ALLEY":" ","HOUSE_NO":"２４５號之７","E_COORD97":171594.79999999999,"N_COORD97":2554610.2999999998,"ADDRESS":"港口２４５號之７","OBJECTID":216983},"geometry":{"x":171594.80000000168,"y":2554610.3000000007}},{"attributes":{"ID":216985,"DIS_CODE":0,"TOWNNAME":"安定區","LI":"中榮里","LIN":"2鄰","STREET":" ","SECT":" ","MAREA":"許中營","LANE":" ","ALLEY":" ","HOUSE_NO":"２４之１０號","E_COORD97":172597.09,"N_COORD97":2554499.2999999998,"ADDRESS":"許中營２４之１０號","OBJECTID":216984},"geometry":{"x":172597.09000000078,"y":2554499.3000000045}},{"attributes":{"ID":216986,"DIS_CODE":0,"TOWNNAME":"南區","LI":"金華里","LIN":"29鄰","STREET":"新孝路","SECT":" ","MAREA":" ","LANE":"１２６巷","ALLEY":"５６弄","HOUSE_NO":"１０號","E_COORD97":166646.75,"N_COORD97":2542172.1600000001,"ADDRESS":"新孝路１２６巷５６弄１０號","OBJECTID":216985},"geometry":{"x":166646.75,"y":2542172.1600000039}},{"attributes":{"ID":216987,"DIS_CODE":0,"TOWNNAME":"永康區","LI":"\u25A0行里","LIN":"21鄰","STREET":"正南五街","SECT":" ","MAREA":" ","LANE":" ","ALLEY":" ","HOUSE_NO":"４４６號","E_COORD97":171708.75,"N_COORD97":2548655.9900000002,"ADDRESS":"正南五街４４６號","OBJECTID":216986},"geometry":{"x":171708.75000000186,"y":2548655.9900000039}},{"attributes":{"ID":216988,"DIS_CODE":0,"TOWNNAME":"永康區","LI":"崑山里","LIN":"37鄰","STREET":"大仁街","SECT":" ","MAREA":" ","LANE":" ","ALLEY":" ","HOUSE_NO":"２０８號","E_COORD97":173957.53,"N_COORD97":2545095.1299999999,"ADDRESS":"大仁街２０８號","OBJECTID":216987},"geometry":{"x":173957.53000000026,"y":2545095.1300000008}},{"attributes":{"ID":216989,"DIS_CODE":0,"TOWNNAME":"南區","LI":"金華里","LIN":"29鄰","STREET":"新孝路","SECT":" ","MAREA":" ","LANE":"１２６巷","ALLEY":"５６弄","HOUSE_NO":"１２號","E_COORD97":166643.95000000001,"N_COORD97":2542166.3700000001,"ADDRESS":"新孝路１２６巷５６弄１２號","OBJECTID":216988},"geometry":{"x":166643.95000000019,"y":2542166.3700000029}},{"attributes":{"ID":216990,"DIS_CODE":0,"TOWNNAME":"南區","LI":"金華里","LIN":"29鄰","STREET":"新孝路","SECT":" ","MAREA":" ","LANE":"１２６巷","ALLEY":"５６弄","HOUSE_NO":"１６號","E_COORD97":166661.66,"N_COORD97":2542156.7999999998,"ADDRESS":"新孝路１２６巷５６弄１６號","OBJECTID":216989},"geometry":{"x":166661.66000000108,"y":2542156.8000000007}},{"attributes":{"ID":216991,"DIS_CODE":0,"TOWNNAME":"南區","LI":"金華里","LIN":"29鄰","STREET":"新孝路","SECT":" ","MAREA":" ","LANE":"１２６巷","ALLEY":"５６弄","HOUSE_NO":"１８號","E_COORD97":166662.79999999999,"N_COORD97":2542164.2999999998,"ADDRESS":"新孝路１２６巷５６弄１８號","OBJECTID":216990},"geometry":{"x":166662.79999999981,"y":2542164.3000000007}},{"attributes":{"ID":216992,"DIS_CODE":0,"TOWNNAME":"學甲區","LI":"中洲里","LIN":"37鄰","STREET":" ","SECT":" ","MAREA":"中洲","LANE":" ","ALLEY":" ","HOUSE_NO":"４８７號之１","E_COORD97":163861.95000000001,"N_COORD97":2571616.02,"ADDRESS":"中洲４８７號之１","OBJECTID":216991},"geometry":{"x":163861.95000000019,"y":2571616.0200000014}},{"attributes":{"ID":216993,"DIS_CODE":0,"TOWNNAME":"南區","LI":"金華里","LIN":"29鄰","STREET":"新孝路","SECT":" ","MAREA":" ","LANE":"１２６巷","ALLEY":"５６弄","HOUSE_NO":"２０號","E_COORD97":166664.56,"N_COORD97":2542168.8500000001,"ADDRESS":"新孝路１２６巷５６弄２０號","OBJECTID":216992},"geometry":{"x":166664.55999999959,"y":2542168.8499999996}},{"attributes":{"ID":216994,"DIS_CODE":0,"TOWNNAME":"學甲區","LI":"中洲里","LIN":"37鄰","STREET":" ","SECT":" ","MAREA":"中洲","LANE":" ","ALLEY":" ","HOUSE_NO":"４８７號之２","E_COORD97":163871.09,"N_COORD97":2571615.2200000002,"ADDRESS":"中洲４８７號之２","OBJECTID":216993},"geometry":{"x":163871.09000000171,"y":2571615.2200000025}},{"attributes":{"ID":216995,"DIS_CODE":0,"TOWNNAME":"學甲區","LI":"中洲里","LIN":"37鄰","STREET":" ","SECT":" ","MAREA":"中洲","LANE":" ","ALLEY":" ","HOUSE_NO":"４８７號之３","E_COORD97":163866.95000000001,"N_COORD97":2571615.5600000001,"ADDRESS":"中洲４８７號之３","OBJECTID":216994},"geometry":{"x":163866.95000000019,"y":2571615.5600000042}},{"attributes":{"ID":216996,"DIS_CODE":0,"TOWNNAME":"學甲區","LI":"中洲里","LIN":"37鄰","STREET":" ","SECT":" ","MAREA":"中洲","LANE":" ","ALLEY":" ","HOUSE_NO":"４８７號","E_COORD97":163849.32000000001,"N_COORD97":2571627.9500000002,"ADDRESS":"中洲４８７號","OBJECTID":216995},"geometry":{"x":163849.3200000003,"y":2571627.9499999993}},{"attributes":{"ID":216997,"DIS_CODE":0,"TOWNNAME":"南區","LI":"金華里","LIN":"29鄰","STREET":"新孝路","SECT":" ","MAREA":" ","LANE":"１２６巷","ALLEY":"５６弄","HOUSE_NO":"２２號","E_COORD97":166666.20999999999,"N_COORD97":2542173.29,"ADDRESS":"新孝路１２６巷５６弄２２號","OBJECTID":216996},"geometry":{"x":166666.21000000089,"y":2542173.2899999991}},{"attributes":{"ID":216998,"DIS_CODE":0,"TOWNNAME":"南區","LI":"金華里","LIN":"29鄰","STREET":"新孝路","SECT":" ","MAREA":" ","LANE":"１２６巷","ALLEY":"５６弄","HOUSE_NO":"２６號","E_COORD97":166667.04000000001,"N_COORD97":2542177.5299999998,"ADDRESS":"新孝路１２６巷５６弄２６號","OBJECTID":216997},"geometry":{"x":166667.0400000019,"y":2542177.5299999993}},{"attributes":{"ID":216999,"DIS_CODE":0,"TOWNNAME":"南區","LI":"金華里","LIN":"29鄰","STREET":"新孝路","SECT":" ","MAREA":" ","LANE":"１２６巷","ALLEY":"５６弄","HOUSE_NO":"２８號","E_COORD97":166667.97,"N_COORD97":2542182.0800000001,"ADDRESS":"新孝路１２６巷５６弄２８號","OBJECTID":216998},"geometry":{"x":166667.97000000067,"y":2542182.0800000001}},{"attributes":{"ID":217000,"DIS_CODE":0,"TOWNNAME":"南區","LI":"金華里","LIN":"29鄰","STREET":"新孝路","SECT":" ","MAREA":" ","LANE":"１２６巷","ALLEY":"５６弄","HOUSE_NO":"２號","E_COORD97":166651.20000000001,"N_COORD97":2542186.4300000002,"ADDRESS":"新孝路１２６巷５６弄２號","OBJECTID":216999},"geometry":{"x":166651.20000000112,"y":2542186.4299999997}},{"attributes":{"ID":217001,"DIS_CODE":0,"TOWNNAME":"南區","LI":"金華里","LIN":"29鄰","STREET":"新孝路","SECT":" ","MAREA":" ","LANE":"１２６巷","ALLEY":"５６弄","HOUSE_NO":"６號","E_COORD97":166649.95999999999,"N_COORD97":2542181.6699999999,"ADDRESS":"新孝路１２６巷５６弄６號","OBJECTID":217000},"geometry":{"x":166649.95999999996,"y":2542181.6699999999}}]}