{"displayFieldName":"TOWNNAME","fieldAliases":{"ID":"ID","DIS_CODE":"DIS_CODE","TOWNNAME":"TOWNNAME","LI":"LI","LIN":"LIN","STREET":"STREET","SECT":"SECT","MAREA":"MAREA","LANE":"LANE","ALLEY":"ALLEY","HOUSE_NO":"HOUSE_NO","E_COORD97":"E_COORD97","N_COORD97":"N_COORD97","ADDRESS":"ADDRESS","OBJECTID":"OBJECTID"},"geometryType":"esriGeometryPoint","spatialReference":{"wkid":102443,"latestWkid":3826},"fields":[{"name":"ID","type":"esriFieldTypeDouble","alias":"ID"},{"name":"DIS_CODE","type":"esriFieldTypeInteger","alias":"DIS_CODE"},{"name":"TOWNNAME","type":"esriFieldTypeString","alias":"TOWNNAME","length":8},{"name":"LI","type":"esriFieldTypeString","alias":"LI","length":8},{"name":"LIN","type":"esriFieldTypeString","alias":"LIN","length":12},{"name":"STREET","type":"esriFieldTypeString","alias":"STREET","length":20},{"name":"SECT","type":"esriFieldTypeString","alias":"SECT","length":8},{"name":"MAREA","type":"esriFieldTypeString","alias":"MAREA","length":12},{"name":"LANE","type":"esriFieldTypeString","alias":"LANE","length":10},{"name":"ALLEY","type":"esriFieldTypeString","alias":"ALLEY","length":10},{"name":"HOUSE_NO","type":"esriFieldTypeString","alias":"HOUSE_NO","length":20},{"name":"E_COORD97","type":"esriFieldTypeDouble","alias":"E_COORD97"},{"name":"N_COORD97","type":"esriFieldTypeDouble","alias":"N_COORD97"},{"name":"ADDRESS","type":"esriFieldTypeString","alias":"ADDRESS","length":50},{"name":"OBJECTID","type":"esriFieldTypeOID","alias":"OBJECTID"}],"features":[{"attributes":{"ID":158402,"DIS_CODE":0,"TOWNNAME":"中西區","LI":"仙草里","LIN":"8鄰","STREET":"永福路","SECT":"一段","MAREA":" ","LANE":" ","ALLEY":" ","HOUSE_NO":"８５號","E_COORD97":167971.23999999999,"N_COORD97":2542704.73,"ADDRESS":"永福路一段８５號","OBJECTID":158401},"geometry":{"x":167971.24000000209,"y":2542704.7300000023}},{"attributes":{"ID":158403,"DIS_CODE":0,"TOWNNAME":"中西區","LI":"郡王里","LIN":"7鄰","STREET":"大埔街","SECT":" ","MAREA":" ","LANE":" ","ALLEY":" ","HOUSE_NO":"６７號","E_COORD97":168812.73999999999,"N_COORD97":2543070.48,"ADDRESS":"大埔街６７號","OBJECTID":158402},"geometry":{"x":168812.74000000115,"y":2543070.4800000004}},{"attributes":{"ID":158404,"DIS_CODE":0,"TOWNNAME":"中西區","LI":"五妃里","LIN":"1鄰","STREET":"健康路","SECT":"一段","MAREA":" ","LANE":" ","ALLEY":" ","HOUSE_NO":"２６０號","E_COORD97":168434.81,"N_COORD97":2542451.0699999998,"ADDRESS":"健康路一段２６０號","OBJECTID":158403},"geometry":{"x":168434.81000000052,"y":2542451.070000004}},{"attributes":{"ID":158405,"DIS_CODE":0,"TOWNNAME":"仁德區","LI":"保安里","LIN":"2鄰","STREET":"文賢路","SECT":"一段","MAREA":" ","LANE":"５５４巷","ALLEY":"１０弄","HOUSE_NO":"３號","E_COORD97":171043.57000000001,"N_COORD97":2536891.0800000001,"ADDRESS":"文賢路一段５５４巷１０弄３號","OBJECTID":158404},"geometry":{"x":171043.5700000003,"y":2536891.0800000019}},{"attributes":{"ID":158406,"DIS_CODE":0,"TOWNNAME":"仁德區","LI":"保安里","LIN":"2鄰","STREET":"文賢路","SECT":"一段","MAREA":" ","LANE":"５５４巷","ALLEY":"８弄","HOUSE_NO":"１６號","E_COORD97":171078.53,"N_COORD97":2536941.0699999998,"ADDRESS":"文賢路一段５５４巷８弄１６號","OBJECTID":158405},"geometry":{"x":171078.53000000119,"y":2536941.0700000003}},{"attributes":{"ID":158407,"DIS_CODE":0,"TOWNNAME":"仁德區","LI":"保安里","LIN":"2鄰","STREET":"文賢路","SECT":"一段","MAREA":" ","LANE":"５５４巷","ALLEY":"１０弄","HOUSE_NO":"４號","E_COORD97":171056.17000000001,"N_COORD97":2536895.5800000001,"ADDRESS":"文賢路一段５５４巷１０弄４號","OBJECTID":158406},"geometry":{"x":171056.16999999993,"y":2536895.5800000001}},{"attributes":{"ID":158408,"DIS_CODE":0,"TOWNNAME":"左鎮區","LI":"左鎮里","LIN":"5鄰","STREET":" ","SECT":" ","MAREA":"左鎮","LANE":" ","ALLEY":" ","HOUSE_NO":"４１號","E_COORD97":189416.87,"N_COORD97":2549549.25,"ADDRESS":"左鎮４１號","OBJECTID":158407},"geometry":{"x":189416.87000000104,"y":2549549.2500000019}},{"attributes":{"ID":158409,"DIS_CODE":0,"TOWNNAME":"仁德區","LI":"新田里","LIN":"2鄰","STREET":"新田二街","SECT":" ","MAREA":" ","LANE":"１２０巷","ALLEY":"２７弄","HOUSE_NO":"３號","E_COORD97":174901.72,"N_COORD97":2539944.1499999999,"ADDRESS":"新田二街１２０巷２７弄３號","OBJECTID":158408},"geometry":{"x":174901.71999999974,"y":2539944.1500000004}},{"attributes":{"ID":158410,"DIS_CODE":0,"TOWNNAME":"仁德區","LI":"新田里","LIN":"2鄰","STREET":"新田二街","SECT":" ","MAREA":" ","LANE":"１２０巷","ALLEY":"１１弄","HOUSE_NO":"８號","E_COORD97":174915.70000000001,"N_COORD97":2539926.4100000001,"ADDRESS":"新田二街１２０巷１１弄８號","OBJECTID":158409},"geometry":{"x":174915.70000000112,"y":2539926.410000002}},{"attributes":{"ID":158411,"DIS_CODE":0,"TOWNNAME":"仁德區","LI":"新田里","LIN":"2鄰","STREET":"新田二街","SECT":" ","MAREA":" ","LANE":"１２０巷","ALLEY":"１１弄","HOUSE_NO":"２號","E_COORD97":174928.25,"N_COORD97":2539928.6600000001,"ADDRESS":"新田二街１２０巷１１弄２號","OBJECTID":158410},"geometry":{"x":174928.25000000093,"y":2539928.660000002}},{"attributes":{"ID":158412,"DIS_CODE":0,"TOWNNAME":"官田區","LI":"隆田里","LIN":"2鄰","STREET":"新生街","SECT":" ","MAREA":" ","LANE":"４６巷","ALLEY":"１９弄","HOUSE_NO":"１０１號","E_COORD97":180227.26999999999,"N_COORD97":2565663,"ADDRESS":"新生街４６巷１９弄１０１號","OBJECTID":158411},"geometry":{"x":180227.27000000048,"y":2565663.0000000019}},{"attributes":{"ID":158413,"DIS_CODE":0,"TOWNNAME":"官田區","LI":"隆田里","LIN":"2鄰","STREET":"新生街","SECT":" ","MAREA":" ","LANE":"４６巷","ALLEY":"１９弄","HOUSE_NO":"１０３號","E_COORD97":180231.32999999999,"N_COORD97":2565663.71,"ADDRESS":"新生街４６巷１９弄１０３號","OBJECTID":158412},"geometry":{"x":180231.33000000007,"y":2565663.7100000009}},{"attributes":{"ID":158414,"DIS_CODE":0,"TOWNNAME":"中西區","LI":"大南里","LIN":"6鄰","STREET":"南寧街","SECT":" ","MAREA":" ","LANE":" ","ALLEY":" ","HOUSE_NO":"９４號之１","E_COORD97":168182.44,"N_COORD97":2542862.4500000002,"ADDRESS":"南寧街９４號之１","OBJECTID":158413},"geometry":{"x":168182.44000000134,"y":2542862.4500000011}},{"attributes":{"ID":158415,"DIS_CODE":0,"TOWNNAME":"新市區","LI":"新和里","LIN":"44鄰","STREET":"民權路","SECT":" ","MAREA":" ","LANE":" ","ALLEY":" ","HOUSE_NO":"４之２號","E_COORD97":177388.51999999999,"N_COORD97":2553094.7999999998,"ADDRESS":"民權路４之２號","OBJECTID":158414},"geometry":{"x":177388.51999999955,"y":2553094.8000000007}},{"attributes":{"ID":158416,"DIS_CODE":0,"TOWNNAME":"中西區","LI":"郡王里","LIN":"4鄰","STREET":"開山路","SECT":" ","MAREA":" ","LANE":" ","ALLEY":" ","HOUSE_NO":"１６６號","E_COORD97":168911.01999999999,"N_COORD97":2543052.7799999998,"ADDRESS":"開山路１６６號","OBJECTID":158415},"geometry":{"x":168911.01999999862,"y":2543052.7800000012}},{"attributes":{"ID":158417,"DIS_CODE":0,"TOWNNAME":"仁德區","LI":"成功里","LIN":"44鄰","STREET":"文賢路","SECT":"一段","MAREA":" ","LANE":" ","ALLEY":" ","HOUSE_NO":"８７號","E_COORD97":170297.29000000001,"N_COORD97":2538165.5800000001,"ADDRESS":"文賢路一段８７號","OBJECTID":158416},"geometry":{"x":170297.29000000097,"y":2538165.5800000019}},{"attributes":{"ID":158418,"DIS_CODE":0,"TOWNNAME":"新市區","LI":"新和里","LIN":"44鄰","STREET":"民生路","SECT":" ","MAREA":" ","LANE":" ","ALLEY":" ","HOUSE_NO":"５１號","E_COORD97":177287.23000000001,"N_COORD97":2553182.04,"ADDRESS":"民生路５１號","OBJECTID":158417},"geometry":{"x":177287.23000000138,"y":2553182.040000001}},{"attributes":{"ID":158419,"DIS_CODE":0,"TOWNNAME":"中西區","LI":"郡王里","LIN":"4鄰","STREET":"開山路","SECT":" ","MAREA":" ","LANE":" ","ALLEY":" ","HOUSE_NO":"１６８號","E_COORD97":168902.60000000001,"N_COORD97":2543036.2400000002,"ADDRESS":"開山路１６８號","OBJECTID":158418},"geometry":{"x":168902.60000000056,"y":2543036.2400000039}},{"attributes":{"ID":158420,"DIS_CODE":0,"TOWNNAME":"南區","LI":"郡南里","LIN":"5鄰","STREET":"永吉街","SECT":" ","MAREA":" ","LANE":" ","ALLEY":" ","HOUSE_NO":"３９號","E_COORD97":167292.76000000001,"N_COORD97":2540700.7999999998,"ADDRESS":"永吉街３９號","OBJECTID":158419},"geometry":{"x":167292.76000000071,"y":2540700.8000000026}},{"attributes":{"ID":158421,"DIS_CODE":0,"TOWNNAME":"左鎮區","LI":"左鎮里","LIN":"5鄰","STREET":" ","SECT":" ","MAREA":"左鎮","LANE":" ","ALLEY":" ","HOUSE_NO":"４３號之２","E_COORD97":189384.73999999999,"N_COORD97":2549540.2999999998,"ADDRESS":"左鎮４３號之２","OBJECTID":158420},"geometry":{"x":189384.73999999929,"y":2549540.3000000026}},{"attributes":{"ID":158422,"DIS_CODE":0,"TOWNNAME":"左鎮區","LI":"岡林里","LIN":"5鄰","STREET":" ","SECT":" ","MAREA":"岡林","LANE":" ","ALLEY":" ","HOUSE_NO":"５０號","E_COORD97":190746.35999999999,"N_COORD97":2545673.25,"ADDRESS":"岡林５０號","OBJECTID":158421},"geometry":{"x":190746.36000000034,"y":2545673.25}},{"attributes":{"ID":158423,"DIS_CODE":0,"TOWNNAME":"左鎮區","LI":"澄山里","LIN":"5鄰","STREET":" ","SECT":" ","MAREA":"澄山","LANE":" ","ALLEY":" ","HOUSE_NO":"４９號之１","E_COORD97":188092.32999999999,"N_COORD97":2545937.2999999998,"ADDRESS":"澄山４９號之１","OBJECTID":158422},"geometry":{"x":188092.33000000194,"y":2545937.3000000007}},{"attributes":{"ID":158424,"DIS_CODE":0,"TOWNNAME":"左鎮區","LI":"二寮里","LIN":"5鄰","STREET":" ","SECT":" ","MAREA":"二寮","LANE":" ","ALLEY":" ","HOUSE_NO":"４１號","E_COORD97":188986.23999999999,"N_COORD97":2543545.25,"ADDRESS":"二寮４１號","OBJECTID":158423},"geometry":{"x":188986.24000000022,"y":2543545.2500000019}},{"attributes":{"ID":158425,"DIS_CODE":0,"TOWNNAME":"左鎮區","LI":"睦光里","LIN":"5鄰","STREET":" ","SECT":" ","MAREA":"睦光","LANE":" ","ALLEY":" ","HOUSE_NO":"５０號之７","E_COORD97":190453.14999999999,"N_COORD97":2550130.2999999998,"ADDRESS":"睦光５０號之７","OBJECTID":158424},"geometry":{"x":190453.15000000037,"y":2550130.3000000026}},{"attributes":{"ID":158426,"DIS_CODE":0,"TOWNNAME":"左鎮區","LI":"睦光里","LIN":"5鄰","STREET":" ","SECT":" ","MAREA":"睦光","LANE":" ","ALLEY":" ","HOUSE_NO":"５２號之１","E_COORD97":190456.98000000001,"N_COORD97":2550094.2999999998,"ADDRESS":"睦光５２號之１","OBJECTID":158425},"geometry":{"x":190456.98000000138,"y":2550094.3000000007}},{"attributes":{"ID":158427,"DIS_CODE":0,"TOWNNAME":"左鎮區","LI":"睦光里","LIN":"5鄰","STREET":" ","SECT":" ","MAREA":"睦光","LANE":" ","ALLEY":" ","HOUSE_NO":"５５號之４","E_COORD97":190465.29999999999,"N_COORD97":2550033.2999999998,"ADDRESS":"睦光５５號之４","OBJECTID":158426},"geometry":{"x":190465.29999999981,"y":2550033.3000000007}},{"attributes":{"ID":158428,"DIS_CODE":0,"TOWNNAME":"左鎮區","LI":"二寮里","LIN":"5鄰","STREET":" ","SECT":" ","MAREA":"二寮","LANE":" ","ALLEY":" ","HOUSE_NO":"４８號","E_COORD97":188856.94,"N_COORD97":2544237.25,"ADDRESS":"二寮４８號","OBJECTID":158427},"geometry":{"x":188856.94000000134,"y":2544237.2500000019}},{"attributes":{"ID":158429,"DIS_CODE":0,"TOWNNAME":"左鎮區","LI":"二寮里","LIN":"5鄰","STREET":" ","SECT":" ","MAREA":"二寮","LANE":" ","ALLEY":" ","HOUSE_NO":"４０號","E_COORD97":188965.94,"N_COORD97":2543585.25,"ADDRESS":"二寮４０號","OBJECTID":158428},"geometry":{"x":188965.94000000041,"y":2543585.2500000037}},{"attributes":{"ID":158430,"DIS_CODE":0,"TOWNNAME":"左鎮區","LI":"睦光里","LIN":"5鄰","STREET":" ","SECT":" ","MAREA":"睦光","LANE":" ","ALLEY":" ","HOUSE_NO":"５２號","E_COORD97":190447.64000000001,"N_COORD97":2550098.25,"ADDRESS":"睦光５２號","OBJECTID":158429},"geometry":{"x":190447.63999999966,"y":2550098.2500000037}},{"attributes":{"ID":158431,"DIS_CODE":0,"TOWNNAME":"左鎮區","LI":"睦光里","LIN":"5鄰","STREET":" ","SECT":" ","MAREA":"睦光","LANE":" ","ALLEY":" ","HOUSE_NO":"５５號之３","E_COORD97":190428.26999999999,"N_COORD97":2550012.2999999998,"ADDRESS":"睦光５５號之３","OBJECTID":158430},"geometry":{"x":190428.27000000142,"y":2550012.3000000007}},{"attributes":{"ID":158432,"DIS_CODE":0,"TOWNNAME":"左鎮區","LI":"睦光里","LIN":"5鄰","STREET":" ","SECT":" ","MAREA":"睦光","LANE":" ","ALLEY":" ","HOUSE_NO":"５５號","E_COORD97":190490.04000000001,"N_COORD97":2550086.25,"ADDRESS":"睦光５５號","OBJECTID":158431},"geometry":{"x":190490.04000000097,"y":2550086.25}},{"attributes":{"ID":158433,"DIS_CODE":0,"TOWNNAME":"左鎮區","LI":"睦光里","LIN":"5鄰","STREET":" ","SECT":" ","MAREA":"睦光","LANE":" ","ALLEY":" ","HOUSE_NO":"４６號之５","E_COORD97":190634.53,"N_COORD97":2549978.2999999998,"ADDRESS":"睦光４６號之５","OBJECTID":158432},"geometry":{"x":190634.53000000119,"y":2549978.3000000007}},{"attributes":{"ID":158434,"DIS_CODE":0,"TOWNNAME":"左鎮區","LI":"睦光里","LIN":"5鄰","STREET":" ","SECT":" ","MAREA":"睦光","LANE":" ","ALLEY":" ","HOUSE_NO":"４６號之４","E_COORD97":190564.10000000001,"N_COORD97":2550122.2999999998,"ADDRESS":"睦光４６號之４","OBJECTID":158433},"geometry":{"x":190564.10000000056,"y":2550122.3000000045}},{"attributes":{"ID":158435,"DIS_CODE":0,"TOWNNAME":"左鎮區","LI":"睦光里","LIN":"5鄰","STREET":" ","SECT":" ","MAREA":"睦光","LANE":" ","ALLEY":" ","HOUSE_NO":"５３號","E_COORD97":190473.73999999999,"N_COORD97":2550090.25,"ADDRESS":"睦光５３號","OBJECTID":158434},"geometry":{"x":190473.74000000115,"y":2550090.25}},{"attributes":{"ID":158436,"DIS_CODE":0,"TOWNNAME":"左鎮區","LI":"睦光里","LIN":"5鄰","STREET":" ","SECT":" ","MAREA":"睦光","LANE":" ","ALLEY":" ","HOUSE_NO":"５０號之６","E_COORD97":190458.48000000001,"N_COORD97":2550127.2999999998,"ADDRESS":"睦光５０號之６","OBJECTID":158435},"geometry":{"x":190458.48000000138,"y":2550127.3000000026}},{"attributes":{"ID":158437,"DIS_CODE":0,"TOWNNAME":"左鎮區","LI":"澄山里","LIN":"5鄰","STREET":" ","SECT":" ","MAREA":"澄山","LANE":" ","ALLEY":" ","HOUSE_NO":"５２號之２","E_COORD97":188372.35999999999,"N_COORD97":2545877.2999999998,"ADDRESS":"澄山５２號之２","OBJECTID":158436},"geometry":{"x":188372.36000000127,"y":2545877.2999999989}},{"attributes":{"ID":158438,"DIS_CODE":0,"TOWNNAME":"新市區","LI":"新和里","LIN":"44鄰","STREET":"民權路","SECT":" ","MAREA":" ","LANE":" ","ALLEY":" ","HOUSE_NO":"１４號","E_COORD97":177352.79000000001,"N_COORD97":2553093.29,"ADDRESS":"民權路１４號","OBJECTID":158437},"geometry":{"x":177352.79000000004,"y":2553093.2899999991}},{"attributes":{"ID":158439,"DIS_CODE":0,"TOWNNAME":"左鎮區","LI":"左鎮里","LIN":"5鄰","STREET":" ","SECT":" ","MAREA":"左鎮","LANE":" ","ALLEY":" ","HOUSE_NO":"４３號之３","E_COORD97":189388.89999999999,"N_COORD97":2549532.2999999998,"ADDRESS":"左鎮４３號之３","OBJECTID":158438},"geometry":{"x":189388.89999999944,"y":2549532.3000000045}},{"attributes":{"ID":158440,"DIS_CODE":0,"TOWNNAME":"左鎮區","LI":"澄山里","LIN":"5鄰","STREET":" ","SECT":" ","MAREA":"澄山","LANE":" ","ALLEY":" ","HOUSE_NO":"４８號","E_COORD97":188332.69,"N_COORD97":2546056.25,"ADDRESS":"澄山４８號","OBJECTID":158439},"geometry":{"x":188332.69000000227,"y":2546056.25}},{"attributes":{"ID":158441,"DIS_CODE":0,"TOWNNAME":"左鎮區","LI":"光和里","LIN":"5鄰","STREET":" ","SECT":" ","MAREA":"光和","LANE":" ","ALLEY":" ","HOUSE_NO":"６１號","E_COORD97":186485.34,"N_COORD97":2551120.25,"ADDRESS":"光和６１號","OBJECTID":158440},"geometry":{"x":186485.34000000078,"y":2551120.2500000019}},{"attributes":{"ID":158442,"DIS_CODE":0,"TOWNNAME":"左鎮區","LI":"澄山里","LIN":"5鄰","STREET":" ","SECT":" ","MAREA":"澄山","LANE":" ","ALLEY":" ","HOUSE_NO":"４９號","E_COORD97":188147.39000000001,"N_COORD97":2546005.25,"ADDRESS":"澄山４９號","OBJECTID":158441},"geometry":{"x":188147.39000000153,"y":2546005.25}},{"attributes":{"ID":158443,"DIS_CODE":0,"TOWNNAME":"新市區","LI":"新和里","LIN":"44鄰","STREET":"民生路","SECT":" ","MAREA":" ","LANE":" ","ALLEY":" ","HOUSE_NO":"５９號","E_COORD97":177273.32000000001,"N_COORD97":2553190.29,"ADDRESS":"民生路５９號","OBJECTID":158442},"geometry":{"x":177273.3200000003,"y":2553190.290000001}},{"attributes":{"ID":158444,"DIS_CODE":0,"TOWNNAME":"新市區","LI":"新和里","LIN":"44鄰","STREET":"民生路","SECT":" ","MAREA":" ","LANE":" ","ALLEY":" ","HOUSE_NO":"２８號","E_COORD97":177316.45999999999,"N_COORD97":2553192.04,"ADDRESS":"民生路２８號","OBJECTID":158443},"geometry":{"x":177316.45999999996,"y":2553192.040000001}},{"attributes":{"ID":158445,"DIS_CODE":0,"TOWNNAME":"新市區","LI":"新和里","LIN":"44鄰","STREET":"民權路","SECT":" ","MAREA":" ","LANE":" ","ALLEY":" ","HOUSE_NO":"３６號","E_COORD97":177267.79999999999,"N_COORD97":2553076.79,"ADDRESS":"民權路３６號","OBJECTID":158444},"geometry":{"x":177267.79999999981,"y":2553076.7899999972}},{"attributes":{"ID":158446,"DIS_CODE":0,"TOWNNAME":"左鎮區","LI":"左鎮里","LIN":"5鄰","STREET":" ","SECT":" ","MAREA":"左鎮","LANE":" ","ALLEY":" ","HOUSE_NO":"３９號","E_COORD97":189411.17000000001,"N_COORD97":2549498.25,"ADDRESS":"左鎮３９號","OBJECTID":158445},"geometry":{"x":189411.17000000086,"y":2549498.2500000037}},{"attributes":{"ID":158447,"DIS_CODE":0,"TOWNNAME":"官田區","LI":"隆田里","LIN":"2鄰","STREET":"新生街","SECT":" ","MAREA":" ","LANE":"４６巷","ALLEY":"１９弄","HOUSE_NO":"１０５號","E_COORD97":180235.44,"N_COORD97":2565663.8199999998,"ADDRESS":"新生街４６巷１９弄１０５號","OBJECTID":158446},"geometry":{"x":180235.44000000134,"y":2565663.8200000022}},{"attributes":{"ID":158448,"DIS_CODE":0,"TOWNNAME":"永康區","LI":"龍潭里","LIN":"44鄰","STREET":"永平街","SECT":" ","MAREA":" ","LANE":" ","ALLEY":" ","HOUSE_NO":"２８０之１３號","E_COORD97":174657.84,"N_COORD97":2547031.5499999998,"ADDRESS":"永平街２８０之１３號","OBJECTID":158447},"geometry":{"x":174657.84000000078,"y":2547031.5500000007}},{"attributes":{"ID":158449,"DIS_CODE":0,"TOWNNAME":"左鎮區","LI":"左鎮里","LIN":"5鄰","STREET":" ","SECT":" ","MAREA":"左鎮","LANE":" ","ALLEY":" ","HOUSE_NO":"４０號","E_COORD97":189455.67000000001,"N_COORD97":2549580.25,"ADDRESS":"左鎮４０號","OBJECTID":158448},"geometry":{"x":189455.66999999993,"y":2549580.2500000019}},{"attributes":{"ID":158450,"DIS_CODE":0,"TOWNNAME":"左鎮區","LI":"左鎮里","LIN":"5鄰","STREET":" ","SECT":" ","MAREA":"左鎮","LANE":" ","ALLEY":" ","HOUSE_NO":"４２號","E_COORD97":189449.07000000001,"N_COORD97":2549557.25,"ADDRESS":"左鎮４２號","OBJECTID":158449},"geometry":{"x":189449.07000000123,"y":2549557.2500000019}},{"attributes":{"ID":158451,"DIS_CODE":0,"TOWNNAME":"左鎮區","LI":"岡林里","LIN":"5鄰","STREET":" ","SECT":" ","MAREA":"岡林","LANE":" ","ALLEY":" ","HOUSE_NO":"５８號","E_COORD97":190700.16,"N_COORD97":2545891.25,"ADDRESS":"岡林５８號","OBJECTID":158450},"geometry":{"x":190700.16000000015,"y":2545891.2500000019}},{"attributes":{"ID":158452,"DIS_CODE":0,"TOWNNAME":"官田區","LI":"隆田里","LIN":"2鄰","STREET":"新生街","SECT":" ","MAREA":" ","LANE":"４６巷","ALLEY":"１９弄","HOUSE_NO":"１０７號","E_COORD97":180239.87,"N_COORD97":2565664.1800000002,"ADDRESS":"新生街４６巷１９弄１０７號","OBJECTID":158451},"geometry":{"x":180239.86999999918,"y":2565664.1800000016}},{"attributes":{"ID":158453,"DIS_CODE":0,"TOWNNAME":"官田區","LI":"隆田里","LIN":"2鄰","STREET":"新生街","SECT":" ","MAREA":" ","LANE":"４６巷","ALLEY":"１９弄","HOUSE_NO":"１０９號","E_COORD97":180243.75,"N_COORD97":2565664.0499999998,"ADDRESS":"新生街４６巷１９弄１０９號","OBJECTID":158452},"geometry":{"x":180243.75,"y":2565664.0500000007}},{"attributes":{"ID":158454,"DIS_CODE":0,"TOWNNAME":"官田區","LI":"隆田里","LIN":"2鄰","STREET":"新生街","SECT":" ","MAREA":" ","LANE":"４６巷","ALLEY":"１９弄","HOUSE_NO":"１１號","E_COORD97":180217.42000000001,"N_COORD97":2565558.9199999999,"ADDRESS":"新生街４６巷１９弄１１號","OBJECTID":158453},"geometry":{"x":180217.42000000179,"y":2565558.9199999999}},{"attributes":{"ID":158455,"DIS_CODE":0,"TOWNNAME":"左鎮區","LI":"澄山里","LIN":"5鄰","STREET":" ","SECT":" ","MAREA":"澄山","LANE":" ","ALLEY":" ","HOUSE_NO":"５２號之３","E_COORD97":188373.23000000001,"N_COORD97":2545784.2999999998,"ADDRESS":"澄山５２號之３","OBJECTID":158454},"geometry":{"x":188373.23000000231,"y":2545784.3000000026}},{"attributes":{"ID":158456,"DIS_CODE":0,"TOWNNAME":"官田區","LI":"隆田里","LIN":"2鄰","STREET":"新生街","SECT":" ","MAREA":" ","LANE":"４６巷","ALLEY":"１９弄","HOUSE_NO":"１號","E_COORD97":180216.89000000001,"N_COORD97":2565584.5299999998,"ADDRESS":"新生街４６巷１９弄１號","OBJECTID":158455},"geometry":{"x":180216.88999999966,"y":2565584.5299999993}},{"attributes":{"ID":158457,"DIS_CODE":0,"TOWNNAME":"左鎮區","LI":"左鎮里","LIN":"5鄰","STREET":" ","SECT":" ","MAREA":"左鎮","LANE":" ","ALLEY":" ","HOUSE_NO":"４３號之５","E_COORD97":189382.16,"N_COORD97":2549548.2999999998,"ADDRESS":"左鎮４３號之５","OBJECTID":158456},"geometry":{"x":189382.16000000108,"y":2549548.3000000007}},{"attributes":{"ID":158458,"DIS_CODE":0,"TOWNNAME":"左鎮區","LI":"光和里","LIN":"5鄰","STREET":" ","SECT":" ","MAREA":"光和","LANE":" ","ALLEY":" ","HOUSE_NO":"５８號之１","E_COORD97":186250.48000000001,"N_COORD97":2551292.2999999998,"ADDRESS":"光和５８號之１","OBJECTID":158457},"geometry":{"x":186250.48000000045,"y":2551292.3000000026}},{"attributes":{"ID":158459,"DIS_CODE":0,"TOWNNAME":"左鎮區","LI":"澄山里","LIN":"5鄰","STREET":" ","SECT":" ","MAREA":"澄山","LANE":" ","ALLEY":" ","HOUSE_NO":"４７號","E_COORD97":188297.39000000001,"N_COORD97":2546085.25,"ADDRESS":"澄山４７號","OBJECTID":158458},"geometry":{"x":188297.3900000006,"y":2546085.2500000019}},{"attributes":{"ID":158460,"DIS_CODE":0,"TOWNNAME":"左鎮區","LI":"澄山里","LIN":"5鄰","STREET":" ","SECT":" ","MAREA":"澄山","LANE":" ","ALLEY":" ","HOUSE_NO":"５０號","E_COORD97":188217.98999999999,"N_COORD97":2546007.25,"ADDRESS":"澄山５０號","OBJECTID":158459},"geometry":{"x":188217.99000000022,"y":2546007.2500000019}},{"attributes":{"ID":158461,"DIS_CODE":0,"TOWNNAME":"左鎮區","LI":"澄山里","LIN":"5鄰","STREET":" ","SECT":" ","MAREA":"澄山","LANE":" ","ALLEY":" ","HOUSE_NO":"５７號","E_COORD97":187925.09,"N_COORD97":2545919.25,"ADDRESS":"澄山５７號","OBJECTID":158460},"geometry":{"x":187925.08999999985,"y":2545919.2500000019}},{"attributes":{"ID":158462,"DIS_CODE":0,"TOWNNAME":"新營區","LI":"姑爺里","LIN":"5鄰","STREET":" ","SECT":" ","MAREA":"姑爺","LANE":" ","ALLEY":" ","HOUSE_NO":"４５號","E_COORD97":174179.95000000001,"N_COORD97":2574194.77,"ADDRESS":"姑爺４５號","OBJECTID":158461},"geometry":{"x":174179.95000000112,"y":2574194.7699999996}},{"attributes":{"ID":158463,"DIS_CODE":0,"TOWNNAME":"新營區","LI":"太南里","LIN":"5鄰","STREET":" ","SECT":" ","MAREA":"太子宮","LANE":" ","ALLEY":" ","HOUSE_NO":"３２３號","E_COORD97":176308.20000000001,"N_COORD97":2576835.3100000001,"ADDRESS":"太子宮３２３號","OBJECTID":158462},"geometry":{"x":176308.20000000019,"y":2576835.3100000024}},{"attributes":{"ID":158464,"DIS_CODE":0,"TOWNNAME":"鹽水區","LI":"竹埔里","LIN":"12鄰","STREET":" ","SECT":" ","MAREA":"天保厝","LANE":" ","ALLEY":" ","HOUSE_NO":"６號","E_COORD97":171469.91,"N_COORD97":2573876.7400000002,"ADDRESS":"天保厝６號","OBJECTID":158463},"geometry":{"x":171469.91000000015,"y":2573876.7400000021}},{"attributes":{"ID":158465,"DIS_CODE":0,"TOWNNAME":"官田區","LI":"隆田里","LIN":"2鄰","STREET":"新生街","SECT":" ","MAREA":" ","LANE":"４６巷","ALLEY":"１９弄","HOUSE_NO":"３號","E_COORD97":180216.64999999999,"N_COORD97":2565579.2599999998,"ADDRESS":"新生街４６巷１９弄３號","OBJECTID":158464},"geometry":{"x":180216.6500000013,"y":2565579.2600000016}},{"attributes":{"ID":158466,"DIS_CODE":0,"TOWNNAME":"官田區","LI":"隆田里","LIN":"2鄰","STREET":"新生街","SECT":" ","MAREA":" ","LANE":"４６巷","ALLEY":"１９弄","HOUSE_NO":"５１號","E_COORD97":180216.82000000001,"N_COORD97":2565597.0899999999,"ADDRESS":"新生街４６巷１９弄５１號","OBJECTID":158465},"geometry":{"x":180216.82000000216,"y":2565597.0900000017}},{"attributes":{"ID":158467,"DIS_CODE":0,"TOWNNAME":"官田區","LI":"隆田里","LIN":"2鄰","STREET":"新生街","SECT":" ","MAREA":" ","LANE":"４６巷","ALLEY":"１９弄","HOUSE_NO":"５３號","E_COORD97":180216.60000000001,"N_COORD97":2565601.4100000001,"ADDRESS":"新生街４６巷１９弄５３號","OBJECTID":158466},"geometry":{"x":180216.60000000056,"y":2565601.4100000039}},{"attributes":{"ID":158468,"DIS_CODE":0,"TOWNNAME":"新營區","LI":"埤寮里","LIN":"5鄰","STREET":" ","SECT":" ","MAREA":"埤寮","LANE":" ","ALLEY":" ","HOUSE_NO":"４號","E_COORD97":180145.12,"N_COORD97":2580996.2400000002,"ADDRESS":"埤寮４號","OBJECTID":158467},"geometry":{"x":180145.12000000197,"y":2580996.2400000021}},{"attributes":{"ID":158469,"DIS_CODE":0,"TOWNNAME":"新營區","LI":"埤寮里","LIN":"5鄰","STREET":" ","SECT":" ","MAREA":"埤寮","LANE":" ","ALLEY":" ","HOUSE_NO":"４之６號","E_COORD97":180139.31,"N_COORD97":2580968.6400000001,"ADDRESS":"埤寮４之６號","OBJECTID":158468},"geometry":{"x":180139.30999999959,"y":2580968.6399999987}},{"attributes":{"ID":158470,"DIS_CODE":0,"TOWNNAME":"新營區","LI":"太南里","LIN":"5鄰","STREET":" ","SECT":" ","MAREA":"太子宮","LANE":" ","ALLEY":" ","HOUSE_NO":"２０９之６號","E_COORD97":176215.94,"N_COORD97":2576915.5699999998,"ADDRESS":"太子宮２０９之６號","OBJECTID":158469},"geometry":{"x":176215.94000000134,"y":2576915.5700000022}},{"attributes":{"ID":158471,"DIS_CODE":0,"TOWNNAME":"新營區","LI":"太南里","LIN":"5鄰","STREET":" ","SECT":" ","MAREA":"太子宮","LANE":" ","ALLEY":" ","HOUSE_NO":"２０７之２號","E_COORD97":176264.73999999999,"N_COORD97":2576854.4100000001,"ADDRESS":"太子宮２０７之２號","OBJECTID":158470},"geometry":{"x":176264.74000000115,"y":2576854.410000002}},{"attributes":{"ID":158472,"DIS_CODE":0,"TOWNNAME":"新營區","LI":"埤寮里","LIN":"5鄰","STREET":" ","SECT":" ","MAREA":"埤寮","LANE":" ","ALLEY":" ","HOUSE_NO":"２之１號","E_COORD97":180116.85999999999,"N_COORD97":2580980.9300000002,"ADDRESS":"埤寮２之１號","OBJECTID":158471},"geometry":{"x":180116.86000000127,"y":2580980.9300000016}},{"attributes":{"ID":158473,"DIS_CODE":0,"TOWNNAME":"新營區","LI":"太北里","LIN":"5鄰","STREET":" ","SECT":" ","MAREA":"太子宮","LANE":" ","ALLEY":" ","HOUSE_NO":"４２號之３０","E_COORD97":175815.78,"N_COORD97":2577350.5800000001,"ADDRESS":"太子宮４２號之３０","OBJECTID":158472},"geometry":{"x":175815.78000000026,"y":2577350.5800000001}},{"attributes":{"ID":158474,"DIS_CODE":0,"TOWNNAME":"官田區","LI":"隆田里","LIN":"2鄰","STREET":"新生街","SECT":" ","MAREA":" ","LANE":"４６巷","ALLEY":"１９弄","HOUSE_NO":"５５號","E_COORD97":180215.79999999999,"N_COORD97":2565605.9500000002,"ADDRESS":"新生街４６巷１９弄５５號","OBJECTID":158473},"geometry":{"x":180215.79999999981,"y":2565605.9499999993}},{"attributes":{"ID":158475,"DIS_CODE":0,"TOWNNAME":"官田區","LI":"隆田里","LIN":"2鄰","STREET":"新生街","SECT":" ","MAREA":" ","LANE":"４６巷","ALLEY":"１９弄","HOUSE_NO":"５７號","E_COORD97":180216.31,"N_COORD97":2565609.96,"ADDRESS":"新生街４６巷１９弄５７號","OBJECTID":158474},"geometry":{"x":180216.31000000052,"y":2565609.9600000028}},{"attributes":{"ID":158476,"DIS_CODE":0,"TOWNNAME":"官田區","LI":"隆田里","LIN":"2鄰","STREET":"新生街","SECT":" ","MAREA":" ","LANE":"４６巷","ALLEY":"１９弄","HOUSE_NO":"５９號","E_COORD97":180216.04999999999,"N_COORD97":2565614.46,"ADDRESS":"新生街４６巷１９弄５９號","OBJECTID":158475},"geometry":{"x":180216.04999999981,"y":2565614.4600000009}},{"attributes":{"ID":158477,"DIS_CODE":0,"TOWNNAME":"官田區","LI":"隆田里","LIN":"2鄰","STREET":"新生街","SECT":" ","MAREA":" ","LANE":"４６巷","ALLEY":"１９弄","HOUSE_NO":"５號","E_COORD97":180217.04000000001,"N_COORD97":2565573.8100000001,"ADDRESS":"新生街４６巷１９弄５號","OBJECTID":158476},"geometry":{"x":180217.04000000097,"y":2565573.8100000005}},{"attributes":{"ID":158478,"DIS_CODE":0,"TOWNNAME":"官田區","LI":"隆田里","LIN":"2鄰","STREET":"新生街","SECT":" ","MAREA":" ","LANE":"４６巷","ALLEY":"１９弄","HOUSE_NO":"６１號","E_COORD97":180215.73000000001,"N_COORD97":2565618.5099999998,"ADDRESS":"新生街４６巷１９弄６１號","OBJECTID":158477},"geometry":{"x":180215.72999999952,"y":2565618.5100000016}},{"attributes":{"ID":158479,"DIS_CODE":0,"TOWNNAME":"官田區","LI":"隆田里","LIN":"2鄰","STREET":"新生街","SECT":" ","MAREA":" ","LANE":"４６巷","ALLEY":"１９弄","HOUSE_NO":"６３號","E_COORD97":180215.54999999999,"N_COORD97":2565622.27,"ADDRESS":"新生街４６巷１９弄６３號","OBJECTID":158478},"geometry":{"x":180215.55000000075,"y":2565622.2700000033}},{"attributes":{"ID":158480,"DIS_CODE":0,"TOWNNAME":"新營區","LI":"太南里","LIN":"5鄰","STREET":" ","SECT":" ","MAREA":"太子宮","LANE":" ","ALLEY":" ","HOUSE_NO":"２０７號","E_COORD97":176273.59,"N_COORD97":2576875.3500000001,"ADDRESS":"太子宮２０７號","OBJECTID":158479},"geometry":{"x":176273.59000000078,"y":2576875.3500000015}},{"attributes":{"ID":158481,"DIS_CODE":0,"TOWNNAME":"楠西區","LI":"鹿田里","LIN":"5鄰","STREET":" ","SECT":" ","MAREA":"鹿陶洋","LANE":" ","ALLEY":" ","HOUSE_NO":"７１號","E_COORD97":197806.72,"N_COORD97":2561625.25,"ADDRESS":"鹿陶洋７１號","OBJECTID":158480},"geometry":{"x":197806.72000000067,"y":2561625.2499999981}},{"attributes":{"ID":158482,"DIS_CODE":0,"TOWNNAME":"楠西區","LI":"龜丹里","LIN":"5鄰","STREET":" ","SECT":" ","MAREA":"龜丹","LANE":" ","ALLEY":" ","HOUSE_NO":"５８號之３６","E_COORD97":199596.03,"N_COORD97":2559532.2999999998,"ADDRESS":"龜丹５８號之３６","OBJECTID":158481},"geometry":{"x":199596.03000000026,"y":2559532.3000000007}},{"attributes":{"ID":158483,"DIS_CODE":0,"TOWNNAME":"官田區","LI":"隆田里","LIN":"2鄰","STREET":"新生街","SECT":" ","MAREA":" ","LANE":"４６巷","ALLEY":"１９弄","HOUSE_NO":"６５號","E_COORD97":180215.54999999999,"N_COORD97":2565626.9300000002,"ADDRESS":"新生街４６巷１９弄６５號","OBJECTID":158482},"geometry":{"x":180215.55000000075,"y":2565626.9299999997}},{"attributes":{"ID":158484,"DIS_CODE":0,"TOWNNAME":"官田區","LI":"隆田里","LIN":"2鄰","STREET":"新生街","SECT":" ","MAREA":" ","LANE":"４６巷","ALLEY":"１９弄","HOUSE_NO":"６７號","E_COORD97":180245.29999999999,"N_COORD97":2565642.3100000001,"ADDRESS":"新生街４６巷１９弄６７號","OBJECTID":158483},"geometry":{"x":180245.30000000168,"y":2565642.3100000005}},{"attributes":{"ID":158485,"DIS_CODE":0,"TOWNNAME":"楠西區","LI":"密枝里","LIN":"5鄰","STREET":" ","SECT":" ","MAREA":"密枝","LANE":" ","ALLEY":" ","HOUSE_NO":"５３號之１","E_COORD97":201400.29999999999,"N_COORD97":2568147.2999999998,"ADDRESS":"密枝５３號之１","OBJECTID":158484},"geometry":{"x":201400.30000000075,"y":2568147.3000000007}},{"attributes":{"ID":158486,"DIS_CODE":0,"TOWNNAME":"楠西區","LI":"密枝里","LIN":"5鄰","STREET":" ","SECT":" ","MAREA":"密枝","LANE":" ","ALLEY":" ","HOUSE_NO":"４９號","E_COORD97":201094.97,"N_COORD97":2567776.2799999998,"ADDRESS":"密枝４９號","OBJECTID":158485},"geometry":{"x":201094.97000000067,"y":2567776.2800000012}},{"attributes":{"ID":158487,"DIS_CODE":0,"TOWNNAME":"楠西區","LI":"龜丹里","LIN":"5鄰","STREET":" ","SECT":" ","MAREA":"龜丹","LANE":" ","ALLEY":" ","HOUSE_NO":"５８號之３","E_COORD97":199028.87,"N_COORD97":2559345.2999999998,"ADDRESS":"龜丹５８號之３","OBJECTID":158486},"geometry":{"x":199028.87000000011,"y":2559345.3000000026}},{"attributes":{"ID":158488,"DIS_CODE":0,"TOWNNAME":"楠西區","LI":"龜丹里","LIN":"5鄰","STREET":" ","SECT":" ","MAREA":"龜丹","LANE":" ","ALLEY":" ","HOUSE_NO":"５６號之３","E_COORD97":198841.76999999999,"N_COORD97":2559351.2999999998,"ADDRESS":"龜丹５６號之３","OBJECTID":158487},"geometry":{"x":198841.77000000048,"y":2559351.3000000026}},{"attributes":{"ID":158489,"DIS_CODE":0,"TOWNNAME":"楠西區","LI":"龜丹里","LIN":"5鄰","STREET":" ","SECT":" ","MAREA":"龜丹","LANE":" ","ALLEY":" ","HOUSE_NO":"５４號之１","E_COORD97":198696.98000000001,"N_COORD97":2559346.2999999998,"ADDRESS":"龜丹５４號之１","OBJECTID":158488},"geometry":{"x":198696.98000000138,"y":2559346.3000000007}},{"attributes":{"ID":158490,"DIS_CODE":0,"TOWNNAME":"官田區","LI":"隆田里","LIN":"2鄰","STREET":"新生街","SECT":" ","MAREA":" ","LANE":"４６巷","ALLEY":"１９弄","HOUSE_NO":"６９號","E_COORD97":180240.89999999999,"N_COORD97":2565641.9900000002,"ADDRESS":"新生街４６巷１９弄６９號","OBJECTID":158489},"geometry":{"x":180240.90000000037,"y":2565641.9900000021}},{"attributes":{"ID":158491,"DIS_CODE":0,"TOWNNAME":"楠西區","LI":"照興里","LIN":"5鄰","STREET":" ","SECT":" ","MAREA":"興北","LANE":" ","ALLEY":" ","HOUSE_NO":"６６號","E_COORD97":197286.57000000001,"N_COORD97":2566993.25,"ADDRESS":"興北６６號","OBJECTID":158490},"geometry":{"x":197286.5700000003,"y":2566993.2500000019}},{"attributes":{"ID":158492,"DIS_CODE":0,"TOWNNAME":"楠西區","LI":"照興里","LIN":"5鄰","STREET":" ","SECT":" ","MAREA":"興北","LANE":" ","ALLEY":" ","HOUSE_NO":"７３號之３０","E_COORD97":197683.79999999999,"N_COORD97":2566124.2999999998,"ADDRESS":"興北７３號之３０","OBJECTID":158491},"geometry":{"x":197683.80000000075,"y":2566124.3000000007}},{"attributes":{"ID":158493,"DIS_CODE":0,"TOWNNAME":"官田區","LI":"隆田里","LIN":"2鄰","STREET":"新生街","SECT":" ","MAREA":" ","LANE":"４６巷","ALLEY":"１９弄","HOUSE_NO":"７１號","E_COORD97":180236.76999999999,"N_COORD97":2565641.6699999999,"ADDRESS":"新生街４６巷１９弄７１號","OBJECTID":158492},"geometry":{"x":180236.77000000142,"y":2565641.6700000018}},{"attributes":{"ID":158494,"DIS_CODE":0,"TOWNNAME":"楠西區","LI":"灣丘里","LIN":"5鄰","STREET":" ","SECT":" ","MAREA":"灣丘","LANE":" ","ALLEY":" ","HOUSE_NO":"４９號","E_COORD97":200480.07000000001,"N_COORD97":2564093.25,"ADDRESS":"灣丘４９號","OBJECTID":158493},"geometry":{"x":200480.07000000123,"y":2564093.25}},{"attributes":{"ID":158495,"DIS_CODE":0,"TOWNNAME":"學甲區","LI":"秀昌里","LIN":"5鄰","STREET":" ","SECT":" ","MAREA":"一秀","LANE":" ","ALLEY":" ","HOUSE_NO":"４８號","E_COORD97":165705.51000000001,"N_COORD97":2570966.25,"ADDRESS":"一秀４８號","OBJECTID":158494},"geometry":{"x":165705.50999999978,"y":2570966.2500000019}},{"attributes":{"ID":158496,"DIS_CODE":0,"TOWNNAME":"學甲區","LI":"秀昌里","LIN":"5鄰","STREET":" ","SECT":" ","MAREA":"一秀","LANE":" ","ALLEY":" ","HOUSE_NO":"４９號之１２","E_COORD97":165684.48000000001,"N_COORD97":2570985.6899999999,"ADDRESS":"一秀４９號之１２","OBJECTID":158495},"geometry":{"x":165684.48000000045,"y":2570985.6899999995}},{"attributes":{"ID":158497,"DIS_CODE":0,"TOWNNAME":"學甲區","LI":"秀昌里","LIN":"5鄰","STREET":" ","SECT":" ","MAREA":"一秀","LANE":" ","ALLEY":" ","HOUSE_NO":"４９號之１","E_COORD97":165703.98000000001,"N_COORD97":2570981.1200000001,"ADDRESS":"一秀４９號之１","OBJECTID":158496},"geometry":{"x":165703.98000000138,"y":2570981.120000001}},{"attributes":{"ID":158498,"DIS_CODE":0,"TOWNNAME":"學甲區","LI":"秀昌里","LIN":"5鄰","STREET":" ","SECT":" ","MAREA":"一秀","LANE":" ","ALLEY":" ","HOUSE_NO":"４９號之３","E_COORD97":165705.73999999999,"N_COORD97":2570987.4500000002,"ADDRESS":"一秀４９號之３","OBJECTID":158497},"geometry":{"x":165705.74000000022,"y":2570987.450000003}},{"attributes":{"ID":158499,"DIS_CODE":0,"TOWNNAME":"學甲區","LI":"秀昌里","LIN":"5鄰","STREET":" ","SECT":" ","MAREA":"一秀","LANE":" ","ALLEY":" ","HOUSE_NO":"４９號","E_COORD97":165713.28,"N_COORD97":2570997.02,"ADDRESS":"一秀４９號","OBJECTID":158498},"geometry":{"x":165713.28000000119,"y":2570997.0199999996}},{"attributes":{"ID":158500,"DIS_CODE":0,"TOWNNAME":"學甲區","LI":"秀昌里","LIN":"5鄰","STREET":" ","SECT":" ","MAREA":"一秀","LANE":" ","ALLEY":" ","HOUSE_NO":"５０號之１","E_COORD97":165679.53,"N_COORD97":2570987.2599999998,"ADDRESS":"一秀５０號之１","OBJECTID":158499},"geometry":{"x":165679.53000000119,"y":2570987.2600000016}},{"attributes":{"ID":158501,"DIS_CODE":0,"TOWNNAME":"學甲區","LI":"秀昌里","LIN":"5鄰","STREET":" ","SECT":" ","MAREA":"一秀","LANE":" ","ALLEY":" ","HOUSE_NO":"５０號之２","E_COORD97":165682.57999999999,"N_COORD97":2571007.8300000001,"ADDRESS":"一秀５０號之２","OBJECTID":158500},"geometry":{"x":165682.58000000101,"y":2571007.8300000001}},{"attributes":{"ID":158502,"DIS_CODE":0,"TOWNNAME":"學甲區","LI":"秀昌里","LIN":"5鄰","STREET":" ","SECT":" ","MAREA":"一秀","LANE":" ","ALLEY":" ","HOUSE_NO":"５０號之３","E_COORD97":165678.20000000001,"N_COORD97":2571009.1000000001,"ADDRESS":"一秀５０號之３","OBJECTID":158501},"geometry":{"x":165678.20000000112,"y":2571009.0999999996}},{"attributes":{"ID":158503,"DIS_CODE":0,"TOWNNAME":"學甲區","LI":"秀昌里","LIN":"5鄰","STREET":" ","SECT":" ","MAREA":"一秀","LANE":" ","ALLEY":" ","HOUSE_NO":"５０號之４","E_COORD97":165674.53,"N_COORD97":2571010.23,"ADDRESS":"一秀５０號之４","OBJECTID":158502},"geometry":{"x":165674.53000000119,"y":2571010.2300000004}},{"attributes":{"ID":158504,"DIS_CODE":0,"TOWNNAME":"官田區","LI":"隆田里","LIN":"2鄰","STREET":"新生街","SECT":" ","MAREA":" ","LANE":"４６巷","ALLEY":"１９弄","HOUSE_NO":"７３號","E_COORD97":180232.39000000001,"N_COORD97":2565641.6299999999,"ADDRESS":"新生街４６巷１９弄７３號","OBJECTID":158503},"geometry":{"x":180232.38999999966,"y":2565641.629999999}},{"attributes":{"ID":158505,"DIS_CODE":0,"TOWNNAME":"官田區","LI":"隆田里","LIN":"2鄰","STREET":"新生街","SECT":" ","MAREA":" ","LANE":"４６巷","ALLEY":"１９弄","HOUSE_NO":"７５號","E_COORD97":180227.95000000001,"N_COORD97":2565641.4399999999,"ADDRESS":"新生街４６巷１９弄７５號","OBJECTID":158504},"geometry":{"x":180227.95000000112,"y":2565641.4400000013}},{"attributes":{"ID":158506,"DIS_CODE":0,"TOWNNAME":"官田區","LI":"隆田里","LIN":"2鄰","STREET":"新生街","SECT":" ","MAREA":" ","LANE":"４６巷","ALLEY":"１９弄","HOUSE_NO":"７７號","E_COORD97":180223.42000000001,"N_COORD97":2565641.3599999999,"ADDRESS":"新生街４６巷１９弄７７號","OBJECTID":158505},"geometry":{"x":180223.41999999993,"y":2565641.3599999975}},{"attributes":{"ID":158507,"DIS_CODE":0,"TOWNNAME":"官田區","LI":"隆田里","LIN":"2鄰","STREET":"新生街","SECT":" ","MAREA":" ","LANE":"４６巷","ALLEY":"１９弄","HOUSE_NO":"７９號","E_COORD97":180219.01999999999,"N_COORD97":2565641.1099999999,"ADDRESS":"新生街４６巷１９弄７９號","OBJECTID":158506},"geometry":{"x":180219.01999999955,"y":2565641.1100000013}},{"attributes":{"ID":158508,"DIS_CODE":0,"TOWNNAME":"官田區","LI":"隆田里","LIN":"2鄰","STREET":"新生街","SECT":" ","MAREA":" ","LANE":"４６巷","ALLEY":"１９弄","HOUSE_NO":"７號","E_COORD97":180217.26000000001,"N_COORD97":2565569.1699999999,"ADDRESS":"新生街４６巷１９弄７號","OBJECTID":158507},"geometry":{"x":180217.26000000071,"y":2565569.1700000018}},{"attributes":{"ID":158509,"DIS_CODE":0,"TOWNNAME":"官田區","LI":"隆田里","LIN":"2鄰","STREET":"新生街","SECT":" ","MAREA":" ","LANE":"４６巷","ALLEY":"１９弄","HOUSE_NO":"８１號","E_COORD97":180214.35000000001,"N_COORD97":2565640.77,"ADDRESS":"新生街４６巷１９弄８１號","OBJECTID":158508},"geometry":{"x":180214.35000000056,"y":2565640.7699999996}},{"attributes":{"ID":158510,"DIS_CODE":0,"TOWNNAME":"新化區","LI":"全興里","LIN":"10鄰","STREET":" ","SECT":" ","MAREA":"竹子\u25A0","LANE":" ","ALLEY":" ","HOUSE_NO":"１４８號","E_COORD97":177519.73000000001,"N_COORD97":2547586.25,"ADDRESS":"竹子\u25A0１４８號","OBJECTID":158509},"geometry":{"x":177519.73000000045,"y":2547586.2500000019}},{"attributes":{"ID":158511,"DIS_CODE":0,"TOWNNAME":"官田區","LI":"隆田里","LIN":"2鄰","STREET":"新生街","SECT":" ","MAREA":" ","LANE":"４６巷","ALLEY":"１９弄","HOUSE_NO":"８３號","E_COORD97":180210.07999999999,"N_COORD97":2565640.52,"ADDRESS":"新生街４６巷１９弄８３號","OBJECTID":158510},"geometry":{"x":180210.08000000101,"y":2565640.5199999977}},{"attributes":{"ID":158512,"DIS_CODE":0,"TOWNNAME":"官田區","LI":"隆田里","LIN":"2鄰","STREET":"新生街","SECT":" ","MAREA":" ","LANE":"４６巷","ALLEY":"１９弄","HOUSE_NO":"８５號","E_COORD97":180206.12,"N_COORD97":2565639.8300000001,"ADDRESS":"新生街４６巷１９弄８５號","OBJECTID":158511},"geometry":{"x":180206.12000000197,"y":2565639.8300000019}},{"attributes":{"ID":158513,"DIS_CODE":0,"TOWNNAME":"官田區","LI":"隆田里","LIN":"2鄰","STREET":"新生街","SECT":" ","MAREA":" ","LANE":"４６巷","ALLEY":"１９弄","HOUSE_NO":"８７號","E_COORD97":180237.26999999999,"N_COORD97":2565624.6299999999,"ADDRESS":"新生街４６巷１９弄８７號","OBJECTID":158512},"geometry":{"x":180237.27000000048,"y":2565624.629999999}},{"attributes":{"ID":158514,"DIS_CODE":0,"TOWNNAME":"官田區","LI":"隆田里","LIN":"2鄰","STREET":"新生街","SECT":" ","MAREA":" ","LANE":"４６巷","ALLEY":"１９弄","HOUSE_NO":"８９號","E_COORD97":180237.16,"N_COORD97":2565619.1800000002,"ADDRESS":"新生街４６巷１９弄８９號","OBJECTID":158513},"geometry":{"x":180237.16000000108,"y":2565619.1799999978}},{"attributes":{"ID":158515,"DIS_CODE":0,"TOWNNAME":"官田區","LI":"隆田里","LIN":"2鄰","STREET":"新生街","SECT":" ","MAREA":" ","LANE":"４６巷","ALLEY":"１９弄","HOUSE_NO":"９１號","E_COORD97":180205.84,"N_COORD97":2565662.6299999999,"ADDRESS":"新生街４６巷１９弄９１號","OBJECTID":158514},"geometry":{"x":180205.83999999985,"y":2565662.629999999}},{"attributes":{"ID":158516,"DIS_CODE":0,"TOWNNAME":"官田區","LI":"隆田里","LIN":"2鄰","STREET":"新生街","SECT":" ","MAREA":" ","LANE":"４６巷","ALLEY":"１９弄","HOUSE_NO":"９３號","E_COORD97":180209.94,"N_COORD97":2565662.77,"ADDRESS":"新生街４６巷１９弄９３號","OBJECTID":158515},"geometry":{"x":180209.94000000134,"y":2565662.7700000033}},{"attributes":{"ID":158517,"DIS_CODE":0,"TOWNNAME":"官田區","LI":"隆田里","LIN":"2鄰","STREET":"新生街","SECT":" ","MAREA":" ","LANE":"４６巷","ALLEY":"１９弄","HOUSE_NO":"９５號","E_COORD97":180214.20000000001,"N_COORD97":2565663.1600000001,"ADDRESS":"新生街４６巷１９弄９５號","OBJECTID":158516},"geometry":{"x":180214.20000000205,"y":2565663.1600000001}},{"attributes":{"ID":158518,"DIS_CODE":0,"TOWNNAME":"官田區","LI":"隆田里","LIN":"2鄰","STREET":"新生街","SECT":" ","MAREA":" ","LANE":"４６巷","ALLEY":"１９弄","HOUSE_NO":"９７號","E_COORD97":180218.88,"N_COORD97":2565663.1099999999,"ADDRESS":"新生街４６巷１９弄９７號","OBJECTID":158517},"geometry":{"x":180218.87999999989,"y":2565663.1099999994}},{"attributes":{"ID":158519,"DIS_CODE":0,"TOWNNAME":"官田區","LI":"隆田里","LIN":"2鄰","STREET":"新生街","SECT":" ","MAREA":" ","LANE":"４６巷","ALLEY":"１９弄","HOUSE_NO":"９９號","E_COORD97":180223.10000000001,"N_COORD97":2565662.9700000002,"ADDRESS":"新生街４６巷１９弄９９號","OBJECTID":158518},"geometry":{"x":180223.10000000056,"y":2565662.9700000025}},{"attributes":{"ID":158520,"DIS_CODE":0,"TOWNNAME":"官田區","LI":"隆田里","LIN":"2鄰","STREET":"新生街","SECT":" ","MAREA":" ","LANE":"４６巷","ALLEY":"１９弄","HOUSE_NO":"９號","E_COORD97":180217.29000000001,"N_COORD97":2565564.0099999998,"ADDRESS":"新生街４６巷１９弄９號","OBJECTID":158519},"geometry":{"x":180217.29000000097,"y":2565564.0100000016}},{"attributes":{"ID":158521,"DIS_CODE":0,"TOWNNAME":"官田區","LI":"隆田里","LIN":"2鄰","STREET":"新生街","SECT":" ","MAREA":" ","LANE":"４６巷","ALLEY":"９弄","HOUSE_NO":"１號","E_COORD97":180260.72,"N_COORD97":2565569.6299999999,"ADDRESS":"新生街４６巷９弄１號","OBJECTID":158520},"geometry":{"x":180260.71999999974,"y":2565569.6300000008}},{"attributes":{"ID":158522,"DIS_CODE":0,"TOWNNAME":"官田區","LI":"隆田里","LIN":"2鄰","STREET":"新生街","SECT":" ","MAREA":" ","LANE":"４６巷","ALLEY":"９弄","HOUSE_NO":"２號","E_COORD97":180243.69,"N_COORD97":2565565.2999999998,"ADDRESS":"新生街４６巷９弄２號","OBJECTID":158521},"geometry":{"x":180243.69000000134,"y":2565565.2999999989}},{"attributes":{"ID":158523,"DIS_CODE":0,"TOWNNAME":"官田區","LI":"隆田里","LIN":"2鄰","STREET":"新生街","SECT":" ","MAREA":" ","LANE":"４６巷","ALLEY":"９弄","HOUSE_NO":"３號","E_COORD97":180260.64999999999,"N_COORD97":2565562.46,"ADDRESS":"新生街４６巷９弄３號","OBJECTID":158522},"geometry":{"x":180260.6500000013,"y":2565562.4600000028}},{"attributes":{"ID":158524,"DIS_CODE":0,"TOWNNAME":"官田區","LI":"隆田里","LIN":"2鄰","STREET":"新生街","SECT":" ","MAREA":" ","LANE":"４６巷","ALLEY":"９弄","HOUSE_NO":"６號","E_COORD97":180243.57000000001,"N_COORD97":2565560.2000000002,"ADDRESS":"新生街４６巷９弄６號","OBJECTID":158523},"geometry":{"x":180243.5700000003,"y":2565560.1999999993}},{"attributes":{"ID":158525,"DIS_CODE":0,"TOWNNAME":"新化區","LI":"全興里","LIN":"10鄰","STREET":" ","SECT":" ","MAREA":"竹子\u25A0","LANE":" ","ALLEY":" ","HOUSE_NO":"１５６號","E_COORD97":177502.53,"N_COORD97":2547550.25,"ADDRESS":"竹子\u25A0１５６號","OBJECTID":158524},"geometry":{"x":177502.53000000026,"y":2547550.25}},{"attributes":{"ID":158526,"DIS_CODE":0,"TOWNNAME":"學甲區","LI":"秀昌里","LIN":"5鄰","STREET":" ","SECT":" ","MAREA":"一秀","LANE":" ","ALLEY":" ","HOUSE_NO":"５０號之５","E_COORD97":165669.97,"N_COORD97":2571000.3199999998,"ADDRESS":"一秀５０號之５","OBJECTID":158525},"geometry":{"x":165669.96999999974,"y":2571000.3200000022}},{"attributes":{"ID":158527,"DIS_CODE":0,"TOWNNAME":"學甲區","LI":"秀昌里","LIN":"5鄰","STREET":" ","SECT":" ","MAREA":"一秀","LANE":" ","ALLEY":" ","HOUSE_NO":"５０號之６","E_COORD97":165668.60000000001,"N_COORD97":2570996.7000000002,"ADDRESS":"一秀５０號之６","OBJECTID":158526},"geometry":{"x":165668.59999999963,"y":2570996.7000000011}},{"attributes":{"ID":158528,"DIS_CODE":0,"TOWNNAME":"學甲區","LI":"秀昌里","LIN":"5鄰","STREET":" ","SECT":" ","MAREA":"一秀","LANE":" ","ALLEY":" ","HOUSE_NO":"５０號之７","E_COORD97":165666.85000000001,"N_COORD97":2570992.7400000002,"ADDRESS":"一秀５０號之７","OBJECTID":158527},"geometry":{"x":165666.85000000056,"y":2570992.7400000002}},{"attributes":{"ID":158529,"DIS_CODE":0,"TOWNNAME":"學甲區","LI":"秀昌里","LIN":"5鄰","STREET":" ","SECT":" ","MAREA":"一秀","LANE":" ","ALLEY":" ","HOUSE_NO":"５０號之８","E_COORD97":165665.89000000001,"N_COORD97":2570989.3100000001,"ADDRESS":"一秀５０號之８","OBJECTID":158528},"geometry":{"x":165665.89000000153,"y":2570989.3100000005}},{"attributes":{"ID":158530,"DIS_CODE":0,"TOWNNAME":"學甲區","LI":"秀昌里","LIN":"5鄰","STREET":" ","SECT":" ","MAREA":"一秀","LANE":" ","ALLEY":" ","HOUSE_NO":"５０號之９","E_COORD97":165664.44,"N_COORD97":2570985.4300000002,"ADDRESS":"一秀５０號之９","OBJECTID":158529},"geometry":{"x":165664.44000000041,"y":2570985.4300000016}},{"attributes":{"ID":158531,"DIS_CODE":0,"TOWNNAME":"學甲區","LI":"秀昌里","LIN":"5鄰","STREET":" ","SECT":" ","MAREA":"一秀","LANE":" ","ALLEY":" ","HOUSE_NO":"５２號之１０","E_COORD97":165593.14999999999,"N_COORD97":2571055.5600000001,"ADDRESS":"一秀５２號之１０","OBJECTID":158530},"geometry":{"x":165593.15000000037,"y":2571055.5600000005}},{"attributes":{"ID":158532,"DIS_CODE":0,"TOWNNAME":"學甲區","LI":"秀昌里","LIN":"5鄰","STREET":" ","SECT":" ","MAREA":"一秀","LANE":" ","ALLEY":" ","HOUSE_NO":"５２號之１１","E_COORD97":165578.5,"N_COORD97":2571066.6400000001,"ADDRESS":"一秀５２號之１１","OBJECTID":158531},"geometry":{"x":165578.5,"y":2571066.6400000025}},{"attributes":{"ID":158533,"DIS_CODE":0,"TOWNNAME":"學甲區","LI":"秀昌里","LIN":"5鄰","STREET":" ","SECT":" ","MAREA":"一秀","LANE":" ","ALLEY":" ","HOUSE_NO":"５２號之１２","E_COORD97":165569.76000000001,"N_COORD97":2571070.5699999998,"ADDRESS":"一秀５２號之１２","OBJECTID":158532},"geometry":{"x":165569.75999999978,"y":2571070.5700000022}},{"attributes":{"ID":158534,"DIS_CODE":0,"TOWNNAME":"學甲區","LI":"秀昌里","LIN":"5鄰","STREET":" ","SECT":" ","MAREA":"一秀","LANE":" ","ALLEY":" ","HOUSE_NO":"５２號之１３","E_COORD97":165561.48000000001,"N_COORD97":2571066.8900000001,"ADDRESS":"一秀５２號之１３","OBJECTID":158533},"geometry":{"x":165561.48000000138,"y":2571066.8900000006}},{"attributes":{"ID":158535,"DIS_CODE":0,"TOWNNAME":"永康區","LI":"北灣里","LIN":"2鄰","STREET":"大灣路","SECT":" ","MAREA":" ","LANE":"１１９巷","ALLEY":"５８弄","HOUSE_NO":"１２號之１","E_COORD97":175319.37,"N_COORD97":2545508.5899999999,"ADDRESS":"大灣路１１９巷５８弄１２號之１","OBJECTID":158534},"geometry":{"x":175319.37000000104,"y":2545508.5900000036}},{"attributes":{"ID":158536,"DIS_CODE":0,"TOWNNAME":"永康區","LI":"北灣里","LIN":"2鄰","STREET":"大灣路","SECT":" ","MAREA":" ","LANE":"１１９巷","ALLEY":"５８弄","HOUSE_NO":"２８號","E_COORD97":175295.57999999999,"N_COORD97":2545489.25,"ADDRESS":"大灣路１１９巷５８弄２８號","OBJECTID":158535},"geometry":{"x":175295.58000000101,"y":2545489.25}},{"attributes":{"ID":158537,"DIS_CODE":0,"TOWNNAME":"學甲區","LI":"秀昌里","LIN":"5鄰","STREET":" ","SECT":" ","MAREA":"一秀","LANE":" ","ALLEY":" ","HOUSE_NO":"５２號之１","E_COORD97":165644.20000000001,"N_COORD97":2571041.3199999998,"ADDRESS":"一秀５２號之１","OBJECTID":158536},"geometry":{"x":165644.20000000112,"y":2571041.3200000022}},{"attributes":{"ID":158538,"DIS_CODE":0,"TOWNNAME":"學甲區","LI":"秀昌里","LIN":"5鄰","STREET":" ","SECT":" ","MAREA":"一秀","LANE":" ","ALLEY":" ","HOUSE_NO":"５２號之２３","E_COORD97":165694.41,"N_COORD97":2571035.5600000001,"ADDRESS":"一秀５２號之２３","OBJECTID":158537},"geometry":{"x":165694.41000000015,"y":2571035.5600000042}},{"attributes":{"ID":158539,"DIS_CODE":0,"TOWNNAME":"學甲區","LI":"秀昌里","LIN":"5鄰","STREET":" ","SECT":" ","MAREA":"一秀","LANE":" ","ALLEY":" ","HOUSE_NO":"５２號之２６","E_COORD97":165676.09,"N_COORD97":2571032.4399999999,"ADDRESS":"一秀５２號之２６","OBJECTID":158538},"geometry":{"x":165676.08999999985,"y":2571032.4400000013}},{"attributes":{"ID":158540,"DIS_CODE":0,"TOWNNAME":"學甲區","LI":"秀昌里","LIN":"5鄰","STREET":" ","SECT":" ","MAREA":"一秀","LANE":" ","ALLEY":" ","HOUSE_NO":"５２號之３６","E_COORD97":165618.76000000001,"N_COORD97":2571149.6600000001,"ADDRESS":"一秀５２號之３６","OBJECTID":158539},"geometry":{"x":165618.75999999978,"y":2571149.6600000039}},{"attributes":{"ID":158541,"DIS_CODE":0,"TOWNNAME":"學甲區","LI":"秀昌里","LIN":"5鄰","STREET":" ","SECT":" ","MAREA":"一秀","LANE":" ","ALLEY":" ","HOUSE_NO":"５２號之３７","E_COORD97":165711.92000000001,"N_COORD97":2571044.6099999999,"ADDRESS":"一秀５２號之３７","OBJECTID":158540},"geometry":{"x":165711.92000000086,"y":2571044.6100000013}},{"attributes":{"ID":158542,"DIS_CODE":0,"TOWNNAME":"永康區","LI":"王行里","LIN":"2鄰","STREET":"王行路","SECT":" ","MAREA":" ","LANE":"２０８巷","ALLEY":"１９弄","HOUSE_NO":"６號","E_COORD97":175741.14999999999,"N_COORD97":2548181.6899999999,"ADDRESS":"王行路２０８巷１９弄６號","OBJECTID":158541},"geometry":{"x":175741.15000000224,"y":2548181.6899999995}},{"attributes":{"ID":158543,"DIS_CODE":0,"TOWNNAME":"永康區","LI":"五王里","LIN":"2鄰","STREET":"成功路","SECT":" ","MAREA":" ","LANE":"１７２巷","ALLEY":"８弄","HOUSE_NO":"８號","E_COORD97":171483.76000000001,"N_COORD97":2545603.1499999999,"ADDRESS":"成功路１７２巷８弄８號","OBJECTID":158542},"geometry":{"x":171483.76000000071,"y":2545603.1500000004}},{"attributes":{"ID":158544,"DIS_CODE":0,"TOWNNAME":"永康區","LI":"五王里","LIN":"2鄰","STREET":"成功路","SECT":" ","MAREA":" ","LANE":"１７２巷","ALLEY":"８弄","HOUSE_NO":"２０號","E_COORD97":171498.38,"N_COORD97":2545578.71,"ADDRESS":"成功路１７２巷８弄２０號","OBJECTID":158543},"geometry":{"x":171498.38000000082,"y":2545578.7100000009}},{"attributes":{"ID":158545,"DIS_CODE":0,"TOWNNAME":"永康區","LI":"五王里","LIN":"2鄰","STREET":"成功路","SECT":" ","MAREA":" ","LANE":"１７２巷","ALLEY":"８弄","HOUSE_NO":"２４號","E_COORD97":171503.29999999999,"N_COORD97":2545570.8900000001,"ADDRESS":"成功路１７２巷８弄２４號","OBJECTID":158544},"geometry":{"x":171503.30000000075,"y":2545570.8900000006}},{"attributes":{"ID":158546,"DIS_CODE":0,"TOWNNAME":"東區","LI":"裕農里","LIN":"2鄰","STREET":"裕農路","SECT":" ","MAREA":" ","LANE":"１２１巷","ALLEY":"１弄","HOUSE_NO":"２號","E_COORD97":170805.48000000001,"N_COORD97":2543011.54,"ADDRESS":"裕農路１２１巷１弄２號","OBJECTID":158545},"geometry":{"x":170805.48000000045,"y":2543011.5399999991}},{"attributes":{"ID":158547,"DIS_CODE":0,"TOWNNAME":"新化區","LI":"武安里","LIN":"2鄰","STREET":"正新南路","SECT":" ","MAREA":" ","LANE":"６１巷","ALLEY":"１７弄","HOUSE_NO":"２０號","E_COORD97":179078.12,"N_COORD97":2547996.25,"ADDRESS":"正新南路６１巷１７弄２０號","OBJECTID":158546},"geometry":{"x":179078.12000000011,"y":2547996.2500000037}},{"attributes":{"ID":158548,"DIS_CODE":0,"TOWNNAME":"新化區","LI":"武安里","LIN":"2鄰","STREET":"正新南路","SECT":" ","MAREA":" ","LANE":"６１巷","ALLEY":"１７弄","HOUSE_NO":"１號","E_COORD97":179068.87,"N_COORD97":2547968.25,"ADDRESS":"正新南路６１巷１７弄１號","OBJECTID":158547},"geometry":{"x":179068.87000000104,"y":2547968.25}},{"attributes":{"ID":158549,"DIS_CODE":0,"TOWNNAME":"安南區","LI":"溪心里","LIN":"2鄰","STREET":"海環街","SECT":" ","MAREA":" ","LANE":"７１５巷","ALLEY":"１８弄","HOUSE_NO":"１０號","E_COORD97":166543.03,"N_COORD97":2549367.27,"ADDRESS":"海環街７１５巷１８弄１０號","OBJECTID":158548},"geometry":{"x":166543.03000000026,"y":2549367.2699999996}},{"attributes":{"ID":158550,"DIS_CODE":0,"TOWNNAME":"安南區","LI":"溪心里","LIN":"2鄰","STREET":"海環街","SECT":" ","MAREA":" ","LANE":"７１５巷","ALLEY":"１８弄","HOUSE_NO":"１１號","E_COORD97":166545.92000000001,"N_COORD97":2549396.1000000001,"ADDRESS":"海環街７１５巷１８弄１１號","OBJECTID":158549},"geometry":{"x":166545.92000000086,"y":2549396.0999999996}},{"attributes":{"ID":158551,"DIS_CODE":0,"TOWNNAME":"安南區","LI":"溪心里","LIN":"2鄰","STREET":"海環街","SECT":" ","MAREA":" ","LANE":"７１５巷","ALLEY":"１８弄","HOUSE_NO":"１２號","E_COORD97":166548.82000000001,"N_COORD97":2549371.5699999998,"ADDRESS":"海環街７１５巷１８弄１２號","OBJECTID":158550},"geometry":{"x":166548.82000000123,"y":2549371.5700000022}},{"attributes":{"ID":158552,"DIS_CODE":0,"TOWNNAME":"安南區","LI":"溪心里","LIN":"2鄰","STREET":"海環街","SECT":" ","MAREA":" ","LANE":"７１５巷","ALLEY":"１８弄","HOUSE_NO":"１４號","E_COORD97":166556.76000000001,"N_COORD97":2549378.02,"ADDRESS":"海環街７１５巷１８弄１４號","OBJECTID":158551},"geometry":{"x":166556.76000000164,"y":2549378.0200000014}},{"attributes":{"ID":158553,"DIS_CODE":0,"TOWNNAME":"安南區","LI":"溪心里","LIN":"2鄰","STREET":"海環街","SECT":" ","MAREA":" ","LANE":"７１５巷","ALLEY":"１８弄","HOUSE_NO":"１６號","E_COORD97":166562.26999999999,"N_COORD97":2549383.3999999999,"ADDRESS":"海環街７１５巷１８弄１６號","OBJECTID":158552},"geometry":{"x":166562.27000000048,"y":2549383.4000000022}},{"attributes":{"ID":158554,"DIS_CODE":0,"TOWNNAME":"安南區","LI":"溪心里","LIN":"2鄰","STREET":"海環街","SECT":" ","MAREA":" ","LANE":"７１５巷","ALLEY":"１８弄","HOUSE_NO":"１號","E_COORD97":166513.45000000001,"N_COORD97":2549366.46,"ADDRESS":"海環街７１５巷１８弄１號","OBJECTID":158553},"geometry":{"x":166513.44999999925,"y":2549366.4600000028}},{"attributes":{"ID":158555,"DIS_CODE":0,"TOWNNAME":"安南區","LI":"溪心里","LIN":"2鄰","STREET":"海環街","SECT":" ","MAREA":" ","LANE":"７１５巷","ALLEY":"１８弄","HOUSE_NO":"２號","E_COORD97":166522.84,"N_COORD97":2549348.5800000001,"ADDRESS":"海環街７１５巷１８弄２號","OBJECTID":158554},"geometry":{"x":166522.84000000078,"y":2549348.5800000001}},{"attributes":{"ID":158556,"DIS_CODE":0,"TOWNNAME":"安南區","LI":"溪心里","LIN":"2鄰","STREET":"海環街","SECT":" ","MAREA":" ","LANE":"７１５巷","ALLEY":"１８弄","HOUSE_NO":"３號","E_COORD97":166519.57000000001,"N_COORD97":2549371.73,"ADDRESS":"海環街７１５巷１８弄３號","OBJECTID":158555},"geometry":{"x":166519.56999999937,"y":2549371.7300000004}},{"attributes":{"ID":158557,"DIS_CODE":0,"TOWNNAME":"安南區","LI":"溪心里","LIN":"2鄰","STREET":"海環街","SECT":" ","MAREA":" ","LANE":"７１５巷","ALLEY":"１８弄","HOUSE_NO":"４號","E_COORD97":166527.14999999999,"N_COORD97":2549353.4199999999,"ADDRESS":"海環街７１５巷１８弄４號","OBJECTID":158556},"geometry":{"x":166527.15000000037,"y":2549353.4199999999}},{"attributes":{"ID":158558,"DIS_CODE":0,"TOWNNAME":"安南區","LI":"溪心里","LIN":"2鄰","STREET":"海環街","SECT":" ","MAREA":" ","LANE":"７１５巷","ALLEY":"１８弄","HOUSE_NO":"５號","E_COORD97":166525.82999999999,"N_COORD97":2549375.4199999999,"ADDRESS":"海環街７１５巷１８弄５號","OBJECTID":158557},"geometry":{"x":166525.83000000007,"y":2549375.4200000018}},{"attributes":{"ID":158559,"DIS_CODE":0,"TOWNNAME":"安南區","LI":"溪心里","LIN":"2鄰","STREET":"海環街","SECT":" ","MAREA":" ","LANE":"７１５巷","ALLEY":"１８弄","HOUSE_NO":"６號","E_COORD97":166532.26000000001,"N_COORD97":2549357.8599999999,"ADDRESS":"海環街７１５巷１８弄６號","OBJECTID":158558},"geometry":{"x":166532.25999999978,"y":2549357.8600000031}},{"attributes":{"ID":158560,"DIS_CODE":0,"TOWNNAME":"安南區","LI":"溪心里","LIN":"2鄰","STREET":"海環街","SECT":" ","MAREA":" ","LANE":"７１５巷","ALLEY":"１８弄","HOUSE_NO":"７號","E_COORD97":166530.95999999999,"N_COORD97":2549380.54,"ADDRESS":"海環街７１５巷１８弄７號","OBJECTID":158559},"geometry":{"x":166530.96000000089,"y":2549380.540000001}},{"attributes":{"ID":158561,"DIS_CODE":0,"TOWNNAME":"安南區","LI":"溪心里","LIN":"2鄰","STREET":"海環街","SECT":" ","MAREA":" ","LANE":"７１５巷","ALLEY":"１８弄","HOUSE_NO":"８號","E_COORD97":166537.51000000001,"N_COORD97":2549362.1600000001,"ADDRESS":"海環街７１５巷１８弄８號","OBJECTID":158560},"geometry":{"x":166537.50999999978,"y":2549362.1600000001}},{"attributes":{"ID":158562,"DIS_CODE":0,"TOWNNAME":"安南區","LI":"溪心里","LIN":"2鄰","STREET":"海環街","SECT":" ","MAREA":" ","LANE":"７１５巷","ALLEY":"１８弄","HOUSE_NO":"９號","E_COORD97":166536.37,"N_COORD97":2549384.6699999999,"ADDRESS":"海環街７１５巷１８弄９號","OBJECTID":158561},"geometry":{"x":166536.37000000104,"y":2549384.6700000018}},{"attributes":{"ID":158563,"DIS_CODE":0,"TOWNNAME":"安南區","LI":"溪心里","LIN":"2鄰","STREET":"海環街","SECT":" ","MAREA":" ","LANE":"７１５巷","ALLEY":"１８弄","HOUSE_NO":"１３號","E_COORD97":166550.44,"N_COORD97":2549398.8700000001,"ADDRESS":"海環街７１５巷１８弄１３號","OBJECTID":158562},"geometry":{"x":166550.44000000041,"y":2549398.870000001}},{"attributes":{"ID":158564,"DIS_CODE":0,"TOWNNAME":"學甲區","LI":"秀昌里","LIN":"5鄰","STREET":" ","SECT":" ","MAREA":"一秀","LANE":" ","ALLEY":" ","HOUSE_NO":"５３號之３","E_COORD97":165483.22,"N_COORD97":2571098.6699999999,"ADDRESS":"一秀５３號之３","OBJECTID":158563},"geometry":{"x":165483.21999999974,"y":2571098.6700000037}},{"attributes":{"ID":158565,"DIS_CODE":0,"TOWNNAME":"安南區","LI":"州北里","LIN":"2鄰","STREET":"安和路","SECT":"五段","MAREA":" ","LANE":"１７１巷","ALLEY":"１９１弄","HOUSE_NO":"２９號","E_COORD97":169695.34,"N_COORD97":2551641.2599999998,"ADDRESS":"安和路五段１７１巷１９１弄２９號","OBJECTID":158564},"geometry":{"x":169695.33999999985,"y":2551641.2600000016}},{"attributes":{"ID":158566,"DIS_CODE":0,"TOWNNAME":"東區","LI":"南聖里","LIN":"15鄰","STREET":"裕和路","SECT":" ","MAREA":" ","LANE":" ","ALLEY":" ","HOUSE_NO":"２９１號","E_COORD97":172551.38,"N_COORD97":2543146.9500000002,"ADDRESS":"裕和路２９１號","OBJECTID":158565},"geometry":{"x":172551.37999999989,"y":2543146.9500000011}},{"attributes":{"ID":158567,"DIS_CODE":0,"TOWNNAME":"東區","LI":"南聖里","LIN":"15鄰","STREET":"裕和路","SECT":" ","MAREA":" ","LANE":" ","ALLEY":" ","HOUSE_NO":"２９７號","E_COORD97":172566.03,"N_COORD97":2543146.7599999998,"ADDRESS":"裕和路２９７號","OBJECTID":158566},"geometry":{"x":172566.03000000026,"y":2543146.7599999998}},{"attributes":{"ID":158568,"DIS_CODE":0,"TOWNNAME":"東區","LI":"南聖里","LIN":"15鄰","STREET":"裕和路","SECT":" ","MAREA":" ","LANE":" ","ALLEY":" ","HOUSE_NO":"２９９號","E_COORD97":172572.22,"N_COORD97":2543146.9500000002,"ADDRESS":"裕和路２９９號","OBJECTID":158567},"geometry":{"x":172572.22000000067,"y":2543146.9500000011}},{"attributes":{"ID":158569,"DIS_CODE":0,"TOWNNAME":"東區","LI":"南聖里","LIN":"15鄰","STREET":"裕和路","SECT":" ","MAREA":" ","LANE":" ","ALLEY":" ","HOUSE_NO":"３０１號","E_COORD97":172577.85999999999,"N_COORD97":2543146.5699999998,"ADDRESS":"裕和路３０１號","OBJECTID":158568},"geometry":{"x":172577.86000000034,"y":2543146.5700000022}},{"attributes":{"ID":158570,"DIS_CODE":0,"TOWNNAME":"東區","LI":"南聖里","LIN":"15鄰","STREET":"裕和路","SECT":" ","MAREA":" ","LANE":" ","ALLEY":" ","HOUSE_NO":"３０３號","E_COORD97":172582.92000000001,"N_COORD97":2543146.7599999998,"ADDRESS":"裕和路３０３號","OBJECTID":158569},"geometry":{"x":172582.92000000086,"y":2543146.7599999998}},{"attributes":{"ID":158571,"DIS_CODE":0,"TOWNNAME":"東區","LI":"南聖里","LIN":"15鄰","STREET":"裕和路","SECT":" ","MAREA":" ","LANE":" ","ALLEY":" ","HOUSE_NO":"３０５號","E_COORD97":172587.98999999999,"N_COORD97":2543146.9500000002,"ADDRESS":"裕和路３０５號","OBJECTID":158570},"geometry":{"x":172587.99000000115,"y":2543146.9500000011}},{"attributes":{"ID":158572,"DIS_CODE":0,"TOWNNAME":"學甲區","LI":"秀昌里","LIN":"5鄰","STREET":" ","SECT":" ","MAREA":"一秀","LANE":" ","ALLEY":" ","HOUSE_NO":"５２號之３８","E_COORD97":165712.97,"N_COORD97":2571050.7599999998,"ADDRESS":"一秀５２號之３８","OBJECTID":158571},"geometry":{"x":165712.97000000067,"y":2571050.7600000016}},{"attributes":{"ID":158573,"DIS_CODE":0,"TOWNNAME":"學甲區","LI":"秀昌里","LIN":"5鄰","STREET":" ","SECT":" ","MAREA":"一秀","LANE":" ","ALLEY":" ","HOUSE_NO":"５２號之３９","E_COORD97":165708.34,"N_COORD97":2571045.3100000001,"ADDRESS":"一秀５２號之３９","OBJECTID":158572},"geometry":{"x":165708.33999999985,"y":2571045.3100000024}},{"attributes":{"ID":158574,"DIS_CODE":0,"TOWNNAME":"學甲區","LI":"秀昌里","LIN":"5鄰","STREET":" ","SECT":" ","MAREA":"一秀","LANE":" ","ALLEY":" ","HOUSE_NO":"５２號之４０","E_COORD97":165703.94,"N_COORD97":2571046.27,"ADDRESS":"一秀５２號之４０","OBJECTID":158573},"geometry":{"x":165703.94000000134,"y":2571046.2699999996}},{"attributes":{"ID":158575,"DIS_CODE":0,"TOWNNAME":"學甲區","LI":"秀昌里","LIN":"5鄰","STREET":" ","SECT":" ","MAREA":"一秀","LANE":" ","ALLEY":" ","HOUSE_NO":"５２號之４１","E_COORD97":165699.54000000001,"N_COORD97":2571047.23,"ADDRESS":"一秀５２號之４１","OBJECTID":158574},"geometry":{"x":165699.54000000097,"y":2571047.2300000004}},{"attributes":{"ID":158576,"DIS_CODE":0,"TOWNNAME":"學甲區","LI":"秀昌里","LIN":"5鄰","STREET":" ","SECT":" ","MAREA":"一秀","LANE":" ","ALLEY":" ","HOUSE_NO":"５２號之４２","E_COORD97":165695.44,"N_COORD97":2571048.27,"ADDRESS":"一秀５２號之４２","OBJECTID":158575},"geometry":{"x":165695.44000000134,"y":2571048.2700000014}},{"attributes":{"ID":158577,"DIS_CODE":0,"TOWNNAME":"學甲區","LI":"秀昌里","LIN":"5鄰","STREET":" ","SECT":" ","MAREA":"一秀","LANE":" ","ALLEY":" ","HOUSE_NO":"５２號之４３","E_COORD97":165691.04000000001,"N_COORD97":2571049.23,"ADDRESS":"一秀５２號之４３","OBJECTID":158576},"geometry":{"x":165691.04000000097,"y":2571049.2300000023}},{"attributes":{"ID":158578,"DIS_CODE":0,"TOWNNAME":"學甲區","LI":"秀昌里","LIN":"5鄰","STREET":" ","SECT":" ","MAREA":"一秀","LANE":" ","ALLEY":" ","HOUSE_NO":"５２號之４４","E_COORD97":165686.87,"N_COORD97":2571050.4700000002,"ADDRESS":"一秀５２號之４４","OBJECTID":158577},"geometry":{"x":165686.87000000197,"y":2571050.4700000025}},{"attributes":{"ID":158579,"DIS_CODE":0,"TOWNNAME":"學甲區","LI":"秀昌里","LIN":"5鄰","STREET":" ","SECT":" ","MAREA":"一秀","LANE":" ","ALLEY":" ","HOUSE_NO":"５２號之４５","E_COORD97":165682.47,"N_COORD97":2571051.4199999999,"ADDRESS":"一秀５２號之４５","OBJECTID":158578},"geometry":{"x":165682.47000000067,"y":2571051.4199999999}},{"attributes":{"ID":158580,"DIS_CODE":0,"TOWNNAME":"學甲區","LI":"秀昌里","LIN":"5鄰","STREET":" ","SECT":" ","MAREA":"一秀","LANE":" ","ALLEY":" ","HOUSE_NO":"５２號之４６","E_COORD97":165678.07000000001,"N_COORD97":2571052.3799999999,"ADDRESS":"一秀５２號之４６","OBJECTID":158579},"geometry":{"x":165678.0700000003,"y":2571052.3800000008}},{"attributes":{"ID":158581,"DIS_CODE":0,"TOWNNAME":"學甲區","LI":"秀昌里","LIN":"5鄰","STREET":" ","SECT":" ","MAREA":"一秀","LANE":" ","ALLEY":" ","HOUSE_NO":"５２號之４７","E_COORD97":165673.67999999999,"N_COORD97":2571053.3399999999,"ADDRESS":"一秀５２號之４７","OBJECTID":158580},"geometry":{"x":165673.6799999997,"y":2571053.3400000036}},{"attributes":{"ID":158582,"DIS_CODE":0,"TOWNNAME":"學甲區","LI":"秀昌里","LIN":"5鄰","STREET":" ","SECT":" ","MAREA":"一秀","LANE":" ","ALLEY":" ","HOUSE_NO":"５２號之４８","E_COORD97":165668.94,"N_COORD97":2571054.6200000001,"ADDRESS":"一秀５２號之４８","OBJECTID":158581},"geometry":{"x":165668.94000000041,"y":2571054.620000001}},{"attributes":{"ID":158583,"DIS_CODE":0,"TOWNNAME":"學甲區","LI":"秀昌里","LIN":"5鄰","STREET":" ","SECT":" ","MAREA":"一秀","LANE":" ","ALLEY":" ","HOUSE_NO":"５２號之４９","E_COORD97":165664.54999999999,"N_COORD97":2571055.5800000001,"ADDRESS":"一秀５２號之４９","OBJECTID":158582},"geometry":{"x":165664.54999999981,"y":2571055.5800000019}},{"attributes":{"ID":158584,"DIS_CODE":0,"TOWNNAME":"安南區","LI":"州北里","LIN":"2鄰","STREET":"安和路","SECT":"五段","MAREA":" ","LANE":"１７１巷","ALLEY":"１９１弄","HOUSE_NO":"４１號","E_COORD97":169713.14999999999,"N_COORD97":2551649.75,"ADDRESS":"安和路五段１７１巷１９１弄４１號","OBJECTID":158583},"geometry":{"x":169713.1500000013,"y":2551649.75}},{"attributes":{"ID":158585,"DIS_CODE":0,"TOWNNAME":"學甲區","LI":"秀昌里","LIN":"5鄰","STREET":" ","SECT":" ","MAREA":"一秀","LANE":" ","ALLEY":" ","HOUSE_NO":"５２號之５０","E_COORD97":165659.98999999999,"N_COORD97":2571056.5099999998,"ADDRESS":"一秀５２號之５０","OBJECTID":158584},"geometry":{"x":165659.99000000022,"y":2571056.5100000016}},{"attributes":{"ID":158586,"DIS_CODE":0,"TOWNNAME":"安南區","LI":"州北里","LIN":"2鄰","STREET":"安和路","SECT":"五段","MAREA":" ","LANE":"１７１巷","ALLEY":"１９１弄","HOUSE_NO":"４９號","E_COORD97":169726.01000000001,"N_COORD97":2551653.1099999999,"ADDRESS":"安和路五段１７１巷１９１弄４９號","OBJECTID":158585},"geometry":{"x":169726.00999999978,"y":2551653.1099999994}},{"attributes":{"ID":158587,"DIS_CODE":0,"TOWNNAME":"學甲區","LI":"秀昌里","LIN":"5鄰","STREET":" ","SECT":" ","MAREA":"一秀","LANE":" ","ALLEY":" ","HOUSE_NO":"５２號之５１","E_COORD97":165656.29999999999,"N_COORD97":2571057.8100000001,"ADDRESS":"一秀５２號之５１","OBJECTID":158586},"geometry":{"x":165656.29999999888,"y":2571057.8100000042}},{"attributes":{"ID":158588,"DIS_CODE":0,"TOWNNAME":"永康區","LI":"中興里","LIN":"2鄰","STREET":"忠孝路","SECT":" ","MAREA":" ","LANE":"２３９巷","ALLEY":"９弄","HOUSE_NO":"１２號","E_COORD97":172016.45000000001,"N_COORD97":2545001.5699999998,"ADDRESS":"忠孝路２３９巷９弄１２號","OBJECTID":158587},"geometry":{"x":172016.45000000112,"y":2545001.5700000022}},{"attributes":{"ID":158589,"DIS_CODE":0,"TOWNNAME":"學甲區","LI":"秀昌里","LIN":"5鄰","STREET":" ","SECT":" ","MAREA":"一秀","LANE":" ","ALLEY":" ","HOUSE_NO":"５２號之５２","E_COORD97":165652.06,"N_COORD97":2571059.1000000001,"ADDRESS":"一秀５２號之５２","OBJECTID":158588},"geometry":{"x":165652.05999999959,"y":2571059.1000000015}},{"attributes":{"ID":158590,"DIS_CODE":0,"TOWNNAME":"永康區","LI":"中興里","LIN":"2鄰","STREET":"忠孝路","SECT":" ","MAREA":" ","LANE":"２３９巷","ALLEY":"９弄","HOUSE_NO":"１７號","E_COORD97":172027.26000000001,"N_COORD97":2544988.8700000001,"ADDRESS":"忠孝路２３９巷９弄１７號","OBJECTID":158589},"geometry":{"x":172027.26000000164,"y":2544988.8699999992}},{"attributes":{"ID":158591,"DIS_CODE":0,"TOWNNAME":"永康區","LI":"蔦松里","LIN":"2鄰","STREET":"中正北路","SECT":" ","MAREA":" ","LANE":"５２１巷","ALLEY":"８弄","HOUSE_NO":"８號","E_COORD97":173849.87,"N_COORD97":2549202.25,"ADDRESS":"中正北路５２１巷８弄８號","OBJECTID":158590},"geometry":{"x":173849.87000000104,"y":2549202.25}},{"attributes":{"ID":158592,"DIS_CODE":0,"TOWNNAME":"永康區","LI":"蔦松里","LIN":"2鄰","STREET":"中正北路","SECT":" ","MAREA":" ","LANE":"５２１巷","ALLEY":"８弄","HOUSE_NO":"２０號","E_COORD97":173870.53,"N_COORD97":2549211.25,"ADDRESS":"中正北路５２１巷８弄２０號","OBJECTID":158591},"geometry":{"x":173870.53000000119,"y":2549211.2500000019}},{"attributes":{"ID":158593,"DIS_CODE":0,"TOWNNAME":"永康區","LI":"五王里","LIN":"2鄰","STREET":"成功路","SECT":" ","MAREA":" ","LANE":"１７２巷","ALLEY":"８弄","HOUSE_NO":"２８號","E_COORD97":171507.70000000001,"N_COORD97":2545561.98,"ADDRESS":"成功路１７２巷８弄２８號","OBJECTID":158592},"geometry":{"x":171507.70000000205,"y":2545561.9800000023}},{"attributes":{"ID":158594,"DIS_CODE":0,"TOWNNAME":"學甲區","LI":"秀昌里","LIN":"5鄰","STREET":" ","SECT":" ","MAREA":"一秀","LANE":" ","ALLEY":" ","HOUSE_NO":"５２號之５３","E_COORD97":165647.26999999999,"N_COORD97":2571059.8300000001,"ADDRESS":"一秀５２號之５３","OBJECTID":158593},"geometry":{"x":165647.26999999955,"y":2571059.8300000001}},{"attributes":{"ID":158595,"DIS_CODE":0,"TOWNNAME":"永康區","LI":"東橋里","LIN":"2鄰","STREET":"大橋一街","SECT":" ","MAREA":" ","LANE":"３２４巷","ALLEY":"１６弄","HOUSE_NO":"５號","E_COORD97":171346.09,"N_COORD97":2546593.2799999998,"ADDRESS":"大橋一街３２４巷１６弄５號","OBJECTID":158594},"geometry":{"x":171346.09000000078,"y":2546593.2799999993}},{"attributes":{"ID":158596,"DIS_CODE":0,"TOWNNAME":"永康區","LI":"王行里","LIN":"2鄰","STREET":"王行路","SECT":" ","MAREA":" ","LANE":"２０８巷","ALLEY":"１９弄","HOUSE_NO":"２號","E_COORD97":175742.85000000001,"N_COORD97":2548173.0899999999,"ADDRESS":"王行路２０８巷１９弄２號","OBJECTID":158595},"geometry":{"x":175742.85000000056,"y":2548173.089999998}},{"attributes":{"ID":158597,"DIS_CODE":0,"TOWNNAME":"永康區","LI":"尚頂里","LIN":"2鄰","STREET":"中正南路","SECT":" ","MAREA":" ","LANE":"３４４巷","ALLEY":"１１弄","HOUSE_NO":"８號","E_COORD97":171076.97,"N_COORD97":2547965.8599999999,"ADDRESS":"中正南路３４４巷１１弄８號","OBJECTID":158596},"geometry":{"x":171076.97000000067,"y":2547965.8600000013}},{"attributes":{"ID":158598,"DIS_CODE":0,"TOWNNAME":"永康區","LI":"中興里","LIN":"2鄰","STREET":"忠孝路","SECT":" ","MAREA":" ","LANE":"２３９巷","ALLEY":"９弄","HOUSE_NO":"２號","E_COORD97":172034.56,"N_COORD97":2545004.3900000001,"ADDRESS":"忠孝路２３９巷９弄２號","OBJECTID":158597},"geometry":{"x":172034.55999999959,"y":2545004.3900000006}},{"attributes":{"ID":158599,"DIS_CODE":0,"TOWNNAME":"學甲區","LI":"秀昌里","LIN":"5鄰","STREET":" ","SECT":" ","MAREA":"一秀","LANE":" ","ALLEY":" ","HOUSE_NO":"５２號之５４","E_COORD97":165642.92000000001,"N_COORD97":2571060.79,"ADDRESS":"一秀５２號之５４","OBJECTID":158598},"geometry":{"x":165642.92000000086,"y":2571060.790000001}},{"attributes":{"ID":158600,"DIS_CODE":0,"TOWNNAME":"學甲區","LI":"秀昌里","LIN":"5鄰","STREET":" ","SECT":" ","MAREA":"一秀","LANE":" ","ALLEY":" ","HOUSE_NO":"５２號之５５","E_COORD97":165638.57000000001,"N_COORD97":2571061.75,"ADDRESS":"一秀５２號之５５","OBJECTID":158599},"geometry":{"x":165638.57000000123,"y":2571061.7500000019}},{"attributes":{"ID":158601,"DIS_CODE":0,"TOWNNAME":"學甲區","LI":"秀昌里","LIN":"5鄰","STREET":" ","SECT":" ","MAREA":"一秀","LANE":" ","ALLEY":" ","HOUSE_NO":"５２號之５６","E_COORD97":165634.60999999999,"N_COORD97":2571063.04,"ADDRESS":"一秀５２號之５６","OBJECTID":158600},"geometry":{"x":165634.6100000022,"y":2571063.0399999991}}]}