{"displayFieldName":"TOWNNAME","fieldAliases":{"ID":"ID","DIS_CODE":"DIS_CODE","TOWNNAME":"TOWNNAME","LI":"LI","LIN":"LIN","STREET":"STREET","SECT":"SECT","MAREA":"MAREA","LANE":"LANE","ALLEY":"ALLEY","HOUSE_NO":"HOUSE_NO","E_COORD97":"E_COORD97","N_COORD97":"N_COORD97","ADDRESS":"ADDRESS","OBJECTID":"OBJECTID"},"geometryType":"esriGeometryPoint","spatialReference":{"wkid":102443,"latestWkid":3826},"fields":[{"name":"ID","type":"esriFieldTypeDouble","alias":"ID"},{"name":"DIS_CODE","type":"esriFieldTypeInteger","alias":"DIS_CODE"},{"name":"TOWNNAME","type":"esriFieldTypeString","alias":"TOWNNAME","length":8},{"name":"LI","type":"esriFieldTypeString","alias":"LI","length":8},{"name":"LIN","type":"esriFieldTypeString","alias":"LIN","length":12},{"name":"STREET","type":"esriFieldTypeString","alias":"STREET","length":20},{"name":"SECT","type":"esriFieldTypeString","alias":"SECT","length":8},{"name":"MAREA","type":"esriFieldTypeString","alias":"MAREA","length":12},{"name":"LANE","type":"esriFieldTypeString","alias":"LANE","length":10},{"name":"ALLEY","type":"esriFieldTypeString","alias":"ALLEY","length":10},{"name":"HOUSE_NO","type":"esriFieldTypeString","alias":"HOUSE_NO","length":20},{"name":"E_COORD97","type":"esriFieldTypeDouble","alias":"E_COORD97"},{"name":"N_COORD97","type":"esriFieldTypeDouble","alias":"N_COORD97"},{"name":"ADDRESS","type":"esriFieldTypeString","alias":"ADDRESS","length":50},{"name":"OBJECTID","type":"esriFieldTypeOID","alias":"OBJECTID"}],"features":[{"attributes":{"ID":154802,"DIS_CODE":0,"TOWNNAME":"將軍區","LI":"平沙里","LIN":"5鄰","STREET":" ","SECT":" ","MAREA":"平沙","LANE":" ","ALLEY":" ","HOUSE_NO":"３６之２號","E_COORD97":157383.20999999999,"N_COORD97":2568497.1299999999,"ADDRESS":"平沙３６之２號","OBJECTID":154801},"geometry":{"x":157383.21000000089,"y":2568497.129999999}},{"attributes":{"ID":154803,"DIS_CODE":0,"TOWNNAME":"關廟區","LI":"北花里","LIN":"19鄰","STREET":"花園三街","SECT":" ","MAREA":" ","LANE":" ","ALLEY":" ","HOUSE_NO":"３２號","E_COORD97":181967.23999999999,"N_COORD97":2540472.25,"ADDRESS":"花園三街３２號","OBJECTID":154802},"geometry":{"x":181967.24000000115,"y":2540472.25}},{"attributes":{"ID":154804,"DIS_CODE":0,"TOWNNAME":"關廟區","LI":"五甲里","LIN":"19鄰","STREET":"大仁街","SECT":" ","MAREA":" ","LANE":" ","ALLEY":" ","HOUSE_NO":"１９號","E_COORD97":181163.82000000001,"N_COORD97":2539412.2400000002,"ADDRESS":"大仁街１９號","OBJECTID":154803},"geometry":{"x":181163.8200000003,"y":2539412.2400000021}},{"attributes":{"ID":154805,"DIS_CODE":0,"TOWNNAME":"關廟區","LI":"五甲里","LIN":"19鄰","STREET":"大富街","SECT":" ","MAREA":" ","LANE":" ","ALLEY":" ","HOUSE_NO":"２６２號","E_COORD97":181072.17000000001,"N_COORD97":2539655.25,"ADDRESS":"大富街２６２號","OBJECTID":154804},"geometry":{"x":181072.17000000086,"y":2539655.25}},{"attributes":{"ID":154806,"DIS_CODE":0,"TOWNNAME":"關廟區","LI":"山西里","LIN":"19鄰","STREET":"崇平路","SECT":" ","MAREA":" ","LANE":" ","ALLEY":" ","HOUSE_NO":"１３１號","E_COORD97":180642.67000000001,"N_COORD97":2540405.25,"ADDRESS":"崇平路１３１號","OBJECTID":154805},"geometry":{"x":180642.66999999993,"y":2540405.2500000037}},{"attributes":{"ID":154807,"DIS_CODE":0,"TOWNNAME":"關廟區","LI":"山西里","LIN":"19鄰","STREET":"崇平路","SECT":" ","MAREA":" ","LANE":" ","ALLEY":" ","HOUSE_NO":"８６號","E_COORD97":180758.01999999999,"N_COORD97":2540387.25,"ADDRESS":"崇平路８６號","OBJECTID":154806},"geometry":{"x":180758.01999999955,"y":2540387.25}},{"attributes":{"ID":154808,"DIS_CODE":0,"TOWNNAME":"關廟區","LI":"山西里","LIN":"19鄰","STREET":"崇平路","SECT":" ","MAREA":" ","LANE":" ","ALLEY":" ","HOUSE_NO":"１３３號","E_COORD97":180637.67000000001,"N_COORD97":2540406.25,"ADDRESS":"崇平路１３３號","OBJECTID":154807},"geometry":{"x":180637.66999999993,"y":2540406.2500000019}},{"attributes":{"ID":154809,"DIS_CODE":0,"TOWNNAME":"關廟區","LI":"山西里","LIN":"19鄰","STREET":"崇平路","SECT":" ","MAREA":" ","LANE":" ","ALLEY":" ","HOUSE_NO":"１４０號","E_COORD97":180659.47,"N_COORD97":2540413.25,"ADDRESS":"崇平路１４０號","OBJECTID":154808},"geometry":{"x":180659.47000000067,"y":2540413.2500000019}},{"attributes":{"ID":154810,"DIS_CODE":0,"TOWNNAME":"關廟區","LI":"北勢里","LIN":"19鄰","STREET":"忠孝街","SECT":" ","MAREA":" ","LANE":" ","ALLEY":" ","HOUSE_NO":"２３２號","E_COORD97":181199.94,"N_COORD97":2540772.25,"ADDRESS":"忠孝街２３２號","OBJECTID":154809},"geometry":{"x":181199.94000000134,"y":2540772.2500000019}},{"attributes":{"ID":154811,"DIS_CODE":0,"TOWNNAME":"北區","LI":"長德里","LIN":"2鄰","STREET":"公園南路","SECT":" ","MAREA":" ","LANE":"１５２巷","ALLEY":"３０弄","HOUSE_NO":"５２號","E_COORD97":168677.16,"N_COORD97":2544825.7799999998,"ADDRESS":"公園南路１５２巷３０弄５２號","OBJECTID":154810},"geometry":{"x":168677.16000000108,"y":2544825.7800000012}},{"attributes":{"ID":154812,"DIS_CODE":0,"TOWNNAME":"北區","LI":"長德里","LIN":"2鄰","STREET":"公園南路","SECT":" ","MAREA":" ","LANE":"１５２巷","ALLEY":"３０弄","HOUSE_NO":"５６號","E_COORD97":168668.5,"N_COORD97":2544815.3999999999,"ADDRESS":"公園南路１５２巷３０弄５６號","OBJECTID":154811},"geometry":{"x":168668.5,"y":2544815.4000000041}},{"attributes":{"ID":154813,"DIS_CODE":0,"TOWNNAME":"北區","LI":"長德里","LIN":"2鄰","STREET":"公園南路","SECT":" ","MAREA":" ","LANE":"１５２巷","ALLEY":"３０弄","HOUSE_NO":"５８號","E_COORD97":168666.07000000001,"N_COORD97":2544810.21,"ADDRESS":"公園南路１５２巷３０弄５８號","OBJECTID":154812},"geometry":{"x":168666.07000000123,"y":2544810.2100000046}},{"attributes":{"ID":154814,"DIS_CODE":0,"TOWNNAME":"北區","LI":"長德里","LIN":"2鄰","STREET":"公園南路","SECT":" ","MAREA":" ","LANE":"１５２巷","ALLEY":"１８弄","HOUSE_NO":"１１號","E_COORD97":168665.38,"N_COORD97":2544755.73,"ADDRESS":"公園南路１５２巷１８弄１１號","OBJECTID":154813},"geometry":{"x":168665.38000000082,"y":2544755.7300000042}},{"attributes":{"ID":154815,"DIS_CODE":0,"TOWNNAME":"北區","LI":"長德里","LIN":"2鄰","STREET":"公園南路","SECT":" ","MAREA":" ","LANE":"１５２巷","ALLEY":"１８弄","HOUSE_NO":"１３號","E_COORD97":168664.34,"N_COORD97":2544758.8500000001,"ADDRESS":"公園南路１５２巷１８弄１３號","OBJECTID":154814},"geometry":{"x":168664.33999999985,"y":2544758.8500000015}},{"attributes":{"ID":154816,"DIS_CODE":0,"TOWNNAME":"北區","LI":"長德里","LIN":"2鄰","STREET":"公園南路","SECT":" ","MAREA":" ","LANE":"１５２巷","ALLEY":"１８弄","HOUSE_NO":"１５號","E_COORD97":168667.69,"N_COORD97":2544765.4500000002,"ADDRESS":"公園南路１５２巷１８弄１５號","OBJECTID":154815},"geometry":{"x":168667.69000000041,"y":2544765.4499999993}},{"attributes":{"ID":154817,"DIS_CODE":0,"TOWNNAME":"北區","LI":"長德里","LIN":"2鄰","STREET":"公園南路","SECT":" ","MAREA":" ","LANE":"１５２巷","ALLEY":"１８弄","HOUSE_NO":"１７號","E_COORD97":168666.42000000001,"N_COORD97":2544768.1200000001,"ADDRESS":"公園南路１５２巷１８弄１７號","OBJECTID":154816},"geometry":{"x":168666.42000000179,"y":2544768.1200000029}},{"attributes":{"ID":154818,"DIS_CODE":0,"TOWNNAME":"北區","LI":"長德里","LIN":"2鄰","STREET":"公園南路","SECT":" ","MAREA":" ","LANE":"１５２巷","ALLEY":"１８弄","HOUSE_NO":"１號","E_COORD97":168647.01999999999,"N_COORD97":2544746.3900000001,"ADDRESS":"公園南路１５２巷１８弄１號","OBJECTID":154817},"geometry":{"x":168647.02000000048,"y":2544746.3900000006}},{"attributes":{"ID":154819,"DIS_CODE":0,"TOWNNAME":"北區","LI":"長德里","LIN":"2鄰","STREET":"公園南路","SECT":" ","MAREA":" ","LANE":"１５２巷","ALLEY":"１８弄","HOUSE_NO":"３號","E_COORD97":168644.59,"N_COORD97":2544748.8100000001,"ADDRESS":"公園南路１５２巷１８弄３號","OBJECTID":154818},"geometry":{"x":168644.58999999985,"y":2544748.8100000024}},{"attributes":{"ID":154820,"DIS_CODE":0,"TOWNNAME":"北區","LI":"長德里","LIN":"2鄰","STREET":"公園南路","SECT":" ","MAREA":" ","LANE":"１５２巷","ALLEY":"１８弄","HOUSE_NO":"５號","E_COORD97":168643.20999999999,"N_COORD97":2544751.23,"ADDRESS":"公園南路１５２巷１８弄５號","OBJECTID":154819},"geometry":{"x":168643.21000000089,"y":2544751.2300000004}},{"attributes":{"ID":154821,"DIS_CODE":0,"TOWNNAME":"關廟區","LI":"北花里","LIN":"19鄰","STREET":"花園三街","SECT":" ","MAREA":" ","LANE":" ","ALLEY":" ","HOUSE_NO":"１０號","E_COORD97":182015.64000000001,"N_COORD97":2540453.25,"ADDRESS":"花園三街１０號","OBJECTID":154820},"geometry":{"x":182015.63999999966,"y":2540453.2500000019}},{"attributes":{"ID":154822,"DIS_CODE":0,"TOWNNAME":"關廟區","LI":"東勢里","LIN":"19鄰","STREET":"旺萊路","SECT":" ","MAREA":" ","LANE":" ","ALLEY":" ","HOUSE_NO":"１８８號","E_COORD97":181802.54000000001,"N_COORD97":2539314.25,"ADDRESS":"旺萊路１８８號","OBJECTID":154821},"geometry":{"x":181802.54000000097,"y":2539314.2500000019}},{"attributes":{"ID":154823,"DIS_CODE":0,"TOWNNAME":"新市區","LI":"新市里","LIN":"8鄰","STREET":"中正路","SECT":" ","MAREA":" ","LANE":" ","ALLEY":" ","HOUSE_NO":"２３７之２號","E_COORD97":177449.04000000001,"N_COORD97":2553126.5499999998,"ADDRESS":"中正路２３７之２號","OBJECTID":154822},"geometry":{"x":177449.04000000097,"y":2553126.5500000007}},{"attributes":{"ID":154824,"DIS_CODE":0,"TOWNNAME":"新市區","LI":"新市里","LIN":"34鄰","STREET":"復興路","SECT":" ","MAREA":" ","LANE":" ","ALLEY":" ","HOUSE_NO":"１３０號","E_COORD97":177840.70999999999,"N_COORD97":2553723.7799999998,"ADDRESS":"復興路１３０號","OBJECTID":154823},"geometry":{"x":177840.71000000089,"y":2553723.7799999993}},{"attributes":{"ID":154825,"DIS_CODE":0,"TOWNNAME":"新市區","LI":"新市里","LIN":"24鄰","STREET":"復興路","SECT":" ","MAREA":" ","LANE":" ","ALLEY":" ","HOUSE_NO":"５１號","E_COORD97":177800.87,"N_COORD97":2553435.0299999998,"ADDRESS":"復興路５１號","OBJECTID":154824},"geometry":{"x":177800.87000000104,"y":2553435.0300000031}},{"attributes":{"ID":154826,"DIS_CODE":0,"TOWNNAME":"新市區","LI":"港墘里","LIN":"17鄰","STREET":"南港街","SECT":" ","MAREA":" ","LANE":" ","ALLEY":" ","HOUSE_NO":"３０號","E_COORD97":178180.54999999999,"N_COORD97":2552766.5,"ADDRESS":"南港街３０號","OBJECTID":154825},"geometry":{"x":178180.55000000168,"y":2552766.5}},{"attributes":{"ID":154827,"DIS_CODE":0,"TOWNNAME":"新市區","LI":"港墘里","LIN":"20鄰","STREET":"光華街","SECT":" ","MAREA":" ","LANE":" ","ALLEY":" ","HOUSE_NO":"１５０號","E_COORD97":177909.45999999999,"N_COORD97":2552801.75,"ADDRESS":"光華街１５０號","OBJECTID":154826},"geometry":{"x":177909.45999999996,"y":2552801.7500000019}},{"attributes":{"ID":154828,"DIS_CODE":0,"TOWNNAME":"將軍區","LI":"平沙里","LIN":"5鄰","STREET":" ","SECT":" ","MAREA":"平沙","LANE":" ","ALLEY":" ","HOUSE_NO":"３６之３號","E_COORD97":157379,"N_COORD97":2568497.0600000001,"ADDRESS":"平沙３６之３號","OBJECTID":154827},"geometry":{"x":157379,"y":2568497.0600000024}},{"attributes":{"ID":154829,"DIS_CODE":0,"TOWNNAME":"將軍區","LI":"平沙里","LIN":"5鄰","STREET":" ","SECT":" ","MAREA":"平沙","LANE":" ","ALLEY":" ","HOUSE_NO":"３６之４號","E_COORD97":157374.51000000001,"N_COORD97":2568496.7999999998,"ADDRESS":"平沙３６之４號","OBJECTID":154828},"geometry":{"x":157374.51000000071,"y":2568496.8000000007}},{"attributes":{"ID":154830,"DIS_CODE":0,"TOWNNAME":"將軍區","LI":"平沙里","LIN":"5鄰","STREET":" ","SECT":" ","MAREA":"平沙","LANE":" ","ALLEY":" ","HOUSE_NO":"３６之５號","E_COORD97":157369.95999999999,"N_COORD97":2568496.52,"ADDRESS":"平沙３６之５號","OBJECTID":154829},"geometry":{"x":157369.96000000089,"y":2568496.5200000014}},{"attributes":{"ID":154831,"DIS_CODE":0,"TOWNNAME":"將軍區","LI":"平沙里","LIN":"5鄰","STREET":" ","SECT":" ","MAREA":"平沙","LANE":" ","ALLEY":" ","HOUSE_NO":"３６之６號","E_COORD97":157365.60999999999,"N_COORD97":2568496.1000000001,"ADDRESS":"平沙３６之６號","OBJECTID":154830},"geometry":{"x":157365.61000000127,"y":2568496.1000000015}},{"attributes":{"ID":154832,"DIS_CODE":0,"TOWNNAME":"將軍區","LI":"平沙里","LIN":"5鄰","STREET":" ","SECT":" ","MAREA":"平沙","LANE":" ","ALLEY":" ","HOUSE_NO":"３６之７號","E_COORD97":157360.79000000001,"N_COORD97":2568495.9399999999,"ADDRESS":"平沙３６之７號","OBJECTID":154831},"geometry":{"x":157360.79000000097,"y":2568495.9400000032}},{"attributes":{"ID":154833,"DIS_CODE":0,"TOWNNAME":"將軍區","LI":"平沙里","LIN":"5鄰","STREET":" ","SECT":" ","MAREA":"平沙","LANE":" ","ALLEY":" ","HOUSE_NO":"３６之８號","E_COORD97":157356.51999999999,"N_COORD97":2568496,"ADDRESS":"平沙３６之８號","OBJECTID":154832},"geometry":{"x":157356.51999999955,"y":2568496.0000000037}},{"attributes":{"ID":154834,"DIS_CODE":0,"TOWNNAME":"將軍區","LI":"平沙里","LIN":"5鄰","STREET":" ","SECT":" ","MAREA":"平沙","LANE":" ","ALLEY":" ","HOUSE_NO":"３６之９號","E_COORD97":157351.84,"N_COORD97":2568495.79,"ADDRESS":"平沙３６之９號","OBJECTID":154833},"geometry":{"x":157351.84000000078,"y":2568495.7899999991}},{"attributes":{"ID":154835,"DIS_CODE":0,"TOWNNAME":"將軍區","LI":"平沙里","LIN":"5鄰","STREET":" ","SECT":" ","MAREA":"平沙","LANE":" ","ALLEY":" ","HOUSE_NO":"３６號","E_COORD97":157374.82999999999,"N_COORD97":2568531.23,"ADDRESS":"平沙３６號","OBJECTID":154834},"geometry":{"x":157374.83000000007,"y":2568531.2300000004}},{"attributes":{"ID":154836,"DIS_CODE":0,"TOWNNAME":"將軍區","LI":"平沙里","LIN":"5鄰","STREET":" ","SECT":" ","MAREA":"平沙","LANE":" ","ALLEY":" ","HOUSE_NO":"３８號","E_COORD97":157347.87,"N_COORD97":2568537.5899999999,"ADDRESS":"平沙３８號","OBJECTID":154835},"geometry":{"x":157347.87000000011,"y":2568537.5900000017}},{"attributes":{"ID":154837,"DIS_CODE":0,"TOWNNAME":"將軍區","LI":"平沙里","LIN":"5鄰","STREET":" ","SECT":" ","MAREA":"平沙","LANE":" ","ALLEY":" ","HOUSE_NO":"３９之１號","E_COORD97":157319.01999999999,"N_COORD97":2568526.7400000002,"ADDRESS":"平沙３９之１號","OBJECTID":154836},"geometry":{"x":157319.01999999955,"y":2568526.7400000021}},{"attributes":{"ID":154838,"DIS_CODE":0,"TOWNNAME":"將軍區","LI":"平沙里","LIN":"5鄰","STREET":" ","SECT":" ","MAREA":"平沙","LANE":" ","ALLEY":" ","HOUSE_NO":"４０之１號","E_COORD97":157320.95000000001,"N_COORD97":2568521.0899999999,"ADDRESS":"平沙４０之１號","OBJECTID":154837},"geometry":{"x":157320.95000000112,"y":2568521.0899999999}},{"attributes":{"ID":154839,"DIS_CODE":0,"TOWNNAME":"將軍區","LI":"平沙里","LIN":"5鄰","STREET":" ","SECT":" ","MAREA":"平沙","LANE":" ","ALLEY":" ","HOUSE_NO":"４０號","E_COORD97":157321.97,"N_COORD97":2568517.9199999999,"ADDRESS":"平沙４０號","OBJECTID":154838},"geometry":{"x":157321.97000000067,"y":2568517.9200000018}},{"attributes":{"ID":154840,"DIS_CODE":0,"TOWNNAME":"將軍區","LI":"平沙里","LIN":"5鄰","STREET":" ","SECT":" ","MAREA":"平沙","LANE":" ","ALLEY":" ","HOUSE_NO":"４１之２號","E_COORD97":157331.32999999999,"N_COORD97":2568498.8799999999,"ADDRESS":"平沙４１之２號","OBJECTID":154839},"geometry":{"x":157331.32999999914,"y":2568498.8799999971}},{"attributes":{"ID":154841,"DIS_CODE":0,"TOWNNAME":"將軍區","LI":"平沙里","LIN":"5鄰","STREET":" ","SECT":" ","MAREA":"平沙","LANE":" ","ALLEY":" ","HOUSE_NO":"４１號","E_COORD97":157330.10999999999,"N_COORD97":2568505.9500000002,"ADDRESS":"平沙４１號","OBJECTID":154840},"geometry":{"x":157330.11000000127,"y":2568505.950000003}},{"attributes":{"ID":154842,"DIS_CODE":0,"TOWNNAME":"將軍區","LI":"平沙里","LIN":"5鄰","STREET":" ","SECT":" ","MAREA":"平沙","LANE":" ","ALLEY":" ","HOUSE_NO":"４２號","E_COORD97":157347.85999999999,"N_COORD97":2568518.9100000001,"ADDRESS":"平沙４２號","OBJECTID":154841},"geometry":{"x":157347.86000000034,"y":2568518.9100000001}},{"attributes":{"ID":154843,"DIS_CODE":0,"TOWNNAME":"將軍區","LI":"平沙里","LIN":"5鄰","STREET":" ","SECT":" ","MAREA":"平沙","LANE":" ","ALLEY":" ","HOUSE_NO":"４３之４號","E_COORD97":157361.39999999999,"N_COORD97":2568472.5800000001,"ADDRESS":"平沙４３之４號","OBJECTID":154842},"geometry":{"x":157361.40000000037,"y":2568472.5800000019}},{"attributes":{"ID":154844,"DIS_CODE":0,"TOWNNAME":"將軍區","LI":"平沙里","LIN":"5鄰","STREET":" ","SECT":" ","MAREA":"平沙","LANE":" ","ALLEY":" ","HOUSE_NO":"４３之５號","E_COORD97":157373.23000000001,"N_COORD97":2568456.3900000001,"ADDRESS":"平沙４３之５號","OBJECTID":154843},"geometry":{"x":157373.23000000231,"y":2568456.3900000006}},{"attributes":{"ID":154845,"DIS_CODE":0,"TOWNNAME":"將軍區","LI":"平沙里","LIN":"5鄰","STREET":" ","SECT":" ","MAREA":"平沙","LANE":" ","ALLEY":" ","HOUSE_NO":"４３之７號","E_COORD97":157381.94,"N_COORD97":2568472.6699999999,"ADDRESS":"平沙４３之７號","OBJECTID":154844},"geometry":{"x":157381.94000000227,"y":2568472.6700000018}},{"attributes":{"ID":154846,"DIS_CODE":0,"TOWNNAME":"將軍區","LI":"玉山里","LIN":"5鄰","STREET":" ","SECT":" ","MAREA":"玉山","LANE":" ","ALLEY":" ","HOUSE_NO":"３９號","E_COORD97":160397.23999999999,"N_COORD97":2567742.8399999999,"ADDRESS":"玉山３９號","OBJECTID":154845},"geometry":{"x":160397.24000000115,"y":2567742.8399999999}},{"attributes":{"ID":154847,"DIS_CODE":0,"TOWNNAME":"將軍區","LI":"玉山里","LIN":"5鄰","STREET":" ","SECT":" ","MAREA":"玉山","LANE":" ","ALLEY":" ","HOUSE_NO":"４０號","E_COORD97":160374.89999999999,"N_COORD97":2567740.9500000002,"ADDRESS":"玉山４０號","OBJECTID":154846},"geometry":{"x":160374.9000000013,"y":2567740.9500000011}},{"attributes":{"ID":154848,"DIS_CODE":0,"TOWNNAME":"將軍區","LI":"玉山里","LIN":"5鄰","STREET":" ","SECT":" ","MAREA":"玉山","LANE":" ","ALLEY":" ","HOUSE_NO":"４１號","E_COORD97":160385.42000000001,"N_COORD97":2567708.3399999999,"ADDRESS":"玉山４１號","OBJECTID":154847},"geometry":{"x":160385.42000000179,"y":2567708.3400000017}},{"attributes":{"ID":154849,"DIS_CODE":0,"TOWNNAME":"將軍區","LI":"玉山里","LIN":"5鄰","STREET":" ","SECT":" ","MAREA":"玉山","LANE":" ","ALLEY":" ","HOUSE_NO":"４３之３０號","E_COORD97":160631.67000000001,"N_COORD97":2567478.46,"ADDRESS":"玉山４３之３０號","OBJECTID":154848},"geometry":{"x":160631.67000000086,"y":2567478.4600000009}},{"attributes":{"ID":154850,"DIS_CODE":0,"TOWNNAME":"將軍區","LI":"玉山里","LIN":"5鄰","STREET":" ","SECT":" ","MAREA":"玉山","LANE":" ","ALLEY":" ","HOUSE_NO":"４３之６號","E_COORD97":160375.06,"N_COORD97":2567533.6400000001,"ADDRESS":"玉山４３之６號","OBJECTID":154849},"geometry":{"x":160375.05999999959,"y":2567533.6400000025}},{"attributes":{"ID":154851,"DIS_CODE":0,"TOWNNAME":"將軍區","LI":"玉山里","LIN":"5鄰","STREET":" ","SECT":" ","MAREA":"玉山","LANE":" ","ALLEY":" ","HOUSE_NO":"４３之７號","E_COORD97":160426.98000000001,"N_COORD97":2567503,"ADDRESS":"玉山４３之７號","OBJECTID":154850},"geometry":{"x":160426.98000000138,"y":2567503.0000000019}},{"attributes":{"ID":154852,"DIS_CODE":0,"TOWNNAME":"將軍區","LI":"玉山里","LIN":"5鄰","STREET":" ","SECT":" ","MAREA":"玉山","LANE":" ","ALLEY":" ","HOUSE_NO":"４３號","E_COORD97":160375.31,"N_COORD97":2567686.9300000002,"ADDRESS":"玉山４３號","OBJECTID":154851},"geometry":{"x":160375.30999999959,"y":2567686.9300000016}},{"attributes":{"ID":154853,"DIS_CODE":0,"TOWNNAME":"北區","LI":"長德里","LIN":"2鄰","STREET":"公園南路","SECT":" ","MAREA":" ","LANE":"１５２巷","ALLEY":"１８弄","HOUSE_NO":"７號","E_COORD97":168652.56,"N_COORD97":2544754.6899999999,"ADDRESS":"公園南路１５２巷１８弄７號","OBJECTID":154852},"geometry":{"x":168652.55999999959,"y":2544754.6900000032}},{"attributes":{"ID":154854,"DIS_CODE":0,"TOWNNAME":"將軍區","LI":"玉山里","LIN":"5鄰","STREET":" ","SECT":" ","MAREA":"玉山","LANE":" ","ALLEY":" ","HOUSE_NO":"４４號","E_COORD97":160371.01999999999,"N_COORD97":2567705.3100000001,"ADDRESS":"玉山４４號","OBJECTID":154853},"geometry":{"x":160371.02000000048,"y":2567705.3100000024}},{"attributes":{"ID":154855,"DIS_CODE":0,"TOWNNAME":"北區","LI":"長德里","LIN":"2鄰","STREET":"公園南路","SECT":" ","MAREA":" ","LANE":"１５２巷","ALLEY":"１８弄","HOUSE_NO":"９號","E_COORD97":168667.79999999999,"N_COORD97":2544751.5800000001,"ADDRESS":"公園南路１５２巷１８弄９號","OBJECTID":154854},"geometry":{"x":168667.80000000075,"y":2544751.5800000001}},{"attributes":{"ID":154856,"DIS_CODE":0,"TOWNNAME":"北區","LI":"長德里","LIN":"2鄰","STREET":"公園南路","SECT":" ","MAREA":" ","LANE":"１５２巷","ALLEY":"３０弄","HOUSE_NO":"１０號","E_COORD97":168644.94,"N_COORD97":2544766.7999999998,"ADDRESS":"公園南路１５２巷３０弄１０號","OBJECTID":154855},"geometry":{"x":168644.94000000134,"y":2544766.8000000026}},{"attributes":{"ID":154857,"DIS_CODE":0,"TOWNNAME":"將軍區","LI":"玉山里","LIN":"5鄰","STREET":" ","SECT":" ","MAREA":"玉山","LANE":" ","ALLEY":" ","HOUSE_NO":"４５號","E_COORD97":160366.5,"N_COORD97":2567738.1499999999,"ADDRESS":"玉山４５號","OBJECTID":154856},"geometry":{"x":160366.50000000093,"y":2567738.1500000004}},{"attributes":{"ID":154858,"DIS_CODE":0,"TOWNNAME":"北區","LI":"長德里","LIN":"2鄰","STREET":"公園南路","SECT":" ","MAREA":" ","LANE":"１５２巷","ALLEY":"３０弄","HOUSE_NO":"１２號","E_COORD97":168652.20999999999,"N_COORD97":2544773.3799999999,"ADDRESS":"公園南路１５２巷３０弄１２號","OBJECTID":154857},"geometry":{"x":168652.20999999996,"y":2544773.3800000027}},{"attributes":{"ID":154859,"DIS_CODE":0,"TOWNNAME":"北區","LI":"長德里","LIN":"2鄰","STREET":"公園南路","SECT":" ","MAREA":" ","LANE":"１５２巷","ALLEY":"３０弄","HOUSE_NO":"２號","E_COORD97":168633.85000000001,"N_COORD97":2544741.2000000002,"ADDRESS":"公園南路１５２巷３０弄２號","OBJECTID":154858},"geometry":{"x":168633.84999999963,"y":2544741.2000000011}},{"attributes":{"ID":154860,"DIS_CODE":0,"TOWNNAME":"將軍區","LI":"西和里","LIN":"5鄰","STREET":" ","SECT":" ","MAREA":"西和","LANE":" ","ALLEY":" ","HOUSE_NO":"４３之１號","E_COORD97":163196.67999999999,"N_COORD97":2566405.52,"ADDRESS":"西和４３之１號","OBJECTID":154859},"geometry":{"x":163196.6799999997,"y":2566405.5199999996}},{"attributes":{"ID":154861,"DIS_CODE":0,"TOWNNAME":"北區","LI":"長德里","LIN":"2鄰","STREET":"公園南路","SECT":" ","MAREA":" ","LANE":"１５２巷","ALLEY":"３０弄","HOUSE_NO":"６號","E_COORD97":168636.97,"N_COORD97":2544751.9300000002,"ADDRESS":"公園南路１５２巷３０弄６號","OBJECTID":154860},"geometry":{"x":168636.9700000016,"y":2544751.9299999997}},{"attributes":{"ID":154862,"DIS_CODE":0,"TOWNNAME":"北區","LI":"長德里","LIN":"2鄰","STREET":"公園南路","SECT":" ","MAREA":" ","LANE":"１５２巷","ALLEY":"３０弄","HOUSE_NO":"８號","E_COORD97":168638.35000000001,"N_COORD97":2544760.9199999999,"ADDRESS":"公園南路１５２巷３０弄８號","OBJECTID":154861},"geometry":{"x":168638.35000000056,"y":2544760.9200000018}},{"attributes":{"ID":154863,"DIS_CODE":0,"TOWNNAME":"將軍區","LI":"西和里","LIN":"5鄰","STREET":" ","SECT":" ","MAREA":"西和","LANE":" ","ALLEY":" ","HOUSE_NO":"４３之２號","E_COORD97":163193.45000000001,"N_COORD97":2566408.5899999999,"ADDRESS":"西和４３之２號","OBJECTID":154862},"geometry":{"x":163193.45000000112,"y":2566408.5899999999}},{"attributes":{"ID":154864,"DIS_CODE":0,"TOWNNAME":"將軍區","LI":"西和里","LIN":"5鄰","STREET":" ","SECT":" ","MAREA":"西和","LANE":" ","ALLEY":" ","HOUSE_NO":"４３號","E_COORD97":163192.88,"N_COORD97":2566385.52,"ADDRESS":"西和４３號","OBJECTID":154863},"geometry":{"x":163192.88000000175,"y":2566385.5199999996}},{"attributes":{"ID":154865,"DIS_CODE":0,"TOWNNAME":"將軍區","LI":"西和里","LIN":"5鄰","STREET":" ","SECT":" ","MAREA":"西和","LANE":" ","ALLEY":" ","HOUSE_NO":"４５號","E_COORD97":163153.82000000001,"N_COORD97":2566406.8599999999,"ADDRESS":"西和４５號","OBJECTID":154864},"geometry":{"x":163153.82000000123,"y":2566406.8599999994}},{"attributes":{"ID":154866,"DIS_CODE":0,"TOWNNAME":"北區","LI":"成德里","LIN":"2鄰","STREET":"西門路","SECT":"四段","MAREA":" ","LANE":"７巷","ALLEY":"６２弄","HOUSE_NO":"２號","E_COORD97":168483.54000000001,"N_COORD97":2545305.6499999999,"ADDRESS":"西門路四段７巷６２弄２號","OBJECTID":154865},"geometry":{"x":168483.54000000004,"y":2545305.6500000022}},{"attributes":{"ID":154867,"DIS_CODE":0,"TOWNNAME":"將軍區","LI":"西和里","LIN":"5鄰","STREET":" ","SECT":" ","MAREA":"西和","LANE":" ","ALLEY":" ","HOUSE_NO":"４６之１號","E_COORD97":163173.47,"N_COORD97":2566424.4500000002,"ADDRESS":"西和４６之１號","OBJECTID":154866},"geometry":{"x":163173.4700000016,"y":2566424.4500000011}},{"attributes":{"ID":154868,"DIS_CODE":0,"TOWNNAME":"將軍區","LI":"西和里","LIN":"5鄰","STREET":" ","SECT":" ","MAREA":"西和","LANE":" ","ALLEY":" ","HOUSE_NO":"４７號","E_COORD97":163143.64000000001,"N_COORD97":2566437.48,"ADDRESS":"西和４７號","OBJECTID":154867},"geometry":{"x":163143.6400000006,"y":2566437.4800000004}},{"attributes":{"ID":154869,"DIS_CODE":0,"TOWNNAME":"將軍區","LI":"西和里","LIN":"5鄰","STREET":" ","SECT":" ","MAREA":"西和","LANE":" ","ALLEY":" ","HOUSE_NO":"４８號","E_COORD97":163162.67000000001,"N_COORD97":2566444.4399999999,"ADDRESS":"西和４８號","OBJECTID":154868},"geometry":{"x":163162.67000000086,"y":2566444.4399999976}},{"attributes":{"ID":154870,"DIS_CODE":0,"TOWNNAME":"將軍區","LI":"西和里","LIN":"5鄰","STREET":" ","SECT":" ","MAREA":"西和","LANE":" ","ALLEY":" ","HOUSE_NO":"４９之１號","E_COORD97":163198.17000000001,"N_COORD97":2566440.54,"ADDRESS":"西和４９之１號","OBJECTID":154869},"geometry":{"x":163198.17000000086,"y":2566440.540000001}},{"attributes":{"ID":154871,"DIS_CODE":0,"TOWNNAME":"將軍區","LI":"西和里","LIN":"5鄰","STREET":" ","SECT":" ","MAREA":"西和","LANE":" ","ALLEY":" ","HOUSE_NO":"４９號","E_COORD97":163192.70000000001,"N_COORD97":2566429.5,"ADDRESS":"西和４９號","OBJECTID":154870},"geometry":{"x":163192.70000000205,"y":2566429.5000000019}},{"attributes":{"ID":154872,"DIS_CODE":0,"TOWNNAME":"將軍區","LI":"西華里","LIN":"5鄰","STREET":" ","SECT":" ","MAREA":"西華","LANE":" ","ALLEY":" ","HOUSE_NO":"６５之１０號","E_COORD97":163644.82999999999,"N_COORD97":2566383.02,"ADDRESS":"西華６５之１０號","OBJECTID":154871},"geometry":{"x":163644.83000000101,"y":2566383.0199999977}},{"attributes":{"ID":154873,"DIS_CODE":0,"TOWNNAME":"西港區","LI":"營西里","LIN":"1鄰","STREET":" ","SECT":" ","MAREA":"後營","LANE":" ","ALLEY":" ","HOUSE_NO":"２號","E_COORD97":169475.35999999999,"N_COORD97":2560033.1099999999,"ADDRESS":"後營２號","OBJECTID":154872},"geometry":{"x":169475.36000000034,"y":2560033.1100000013}},{"attributes":{"ID":154874,"DIS_CODE":0,"TOWNNAME":"北區","LI":"成德里","LIN":"2鄰","STREET":"西門路","SECT":"四段","MAREA":" ","LANE":"７巷","ALLEY":"６２弄","HOUSE_NO":"４號","E_COORD97":168486.87,"N_COORD97":2545308.0800000001,"ADDRESS":"西門路四段７巷６２弄４號","OBJECTID":154873},"geometry":{"x":168486.87000000011,"y":2545308.0800000001}},{"attributes":{"ID":154875,"DIS_CODE":0,"TOWNNAME":"關廟區","LI":"松腳里","LIN":"2鄰","STREET":"四維街","SECT":" ","MAREA":" ","LANE":"１４２巷","ALLEY":"１７弄","HOUSE_NO":"６號","E_COORD97":181949.20999999999,"N_COORD97":2539743.25,"ADDRESS":"四維街１４２巷１７弄６號","OBJECTID":154874},"geometry":{"x":181949.20999999996,"y":2539743.25}},{"attributes":{"ID":154876,"DIS_CODE":0,"TOWNNAME":"北區","LI":"力行里","LIN":"2鄰","STREET":"開南街","SECT":" ","MAREA":" ","LANE":"２５７巷","ALLEY":"１弄","HOUSE_NO":"１０號","E_COORD97":170877.79999999999,"N_COORD97":2544959.1699999999,"ADDRESS":"開南街２５７巷１弄１０號","OBJECTID":154875},"geometry":{"x":170877.80000000075,"y":2544959.1700000018}},{"attributes":{"ID":154877,"DIS_CODE":0,"TOWNNAME":"將軍區","LI":"西華里","LIN":"5鄰","STREET":" ","SECT":" ","MAREA":"西華","LANE":" ","ALLEY":" ","HOUSE_NO":"６５之１１號","E_COORD97":163646.42000000001,"N_COORD97":2566378.8700000001,"ADDRESS":"西華６５之１１號","OBJECTID":154876},"geometry":{"x":163646.41999999993,"y":2566378.8700000048}},{"attributes":{"ID":154878,"DIS_CODE":0,"TOWNNAME":"將軍區","LI":"西華里","LIN":"5鄰","STREET":" ","SECT":" ","MAREA":"西華","LANE":" ","ALLEY":" ","HOUSE_NO":"６５之１２號","E_COORD97":163647.92000000001,"N_COORD97":2566374.3599999999,"ADDRESS":"西華６５之１２號","OBJECTID":154877},"geometry":{"x":163647.91999999993,"y":2566374.3600000013}},{"attributes":{"ID":154879,"DIS_CODE":0,"TOWNNAME":"將軍區","LI":"西華里","LIN":"5鄰","STREET":" ","SECT":" ","MAREA":"西華","LANE":" ","ALLEY":" ","HOUSE_NO":"６５之１３號","E_COORD97":163645.07999999999,"N_COORD97":2566364.2200000002,"ADDRESS":"西華６５之１３號","OBJECTID":154878},"geometry":{"x":163645.08000000101,"y":2566364.2200000025}},{"attributes":{"ID":154880,"DIS_CODE":0,"TOWNNAME":"將軍區","LI":"西華里","LIN":"5鄰","STREET":" ","SECT":" ","MAREA":"西華","LANE":" ","ALLEY":" ","HOUSE_NO":"６５之１４號","E_COORD97":163651.41,"N_COORD97":2566364.2799999998,"ADDRESS":"西華６５之１４號","OBJECTID":154879},"geometry":{"x":163651.41000000108,"y":2566364.2800000031}},{"attributes":{"ID":154881,"DIS_CODE":0,"TOWNNAME":"將軍區","LI":"西華里","LIN":"5鄰","STREET":" ","SECT":" ","MAREA":"西華","LANE":" ","ALLEY":" ","HOUSE_NO":"６５之１５號","E_COORD97":163655.89000000001,"N_COORD97":2566364.3799999999,"ADDRESS":"西華６５之１５號","OBJECTID":154880},"geometry":{"x":163655.8900000006,"y":2566364.3800000008}},{"attributes":{"ID":154882,"DIS_CODE":0,"TOWNNAME":"將軍區","LI":"西華里","LIN":"5鄰","STREET":" ","SECT":" ","MAREA":"西華","LANE":" ","ALLEY":" ","HOUSE_NO":"６５之１６號","E_COORD97":163660.23000000001,"N_COORD97":2566364.6400000001,"ADDRESS":"西華６５之１６號","OBJECTID":154881},"geometry":{"x":163660.23000000045,"y":2566364.6400000025}},{"attributes":{"ID":154883,"DIS_CODE":0,"TOWNNAME":"將軍區","LI":"西華里","LIN":"5鄰","STREET":" ","SECT":" ","MAREA":"西華","LANE":" ","ALLEY":" ","HOUSE_NO":"６５之１７號","E_COORD97":163664.54999999999,"N_COORD97":2566364.8100000001,"ADDRESS":"西華６５之１７號","OBJECTID":154882},"geometry":{"x":163664.55000000168,"y":2566364.8100000005}},{"attributes":{"ID":154884,"DIS_CODE":0,"TOWNNAME":"北區","LI":"力行里","LIN":"2鄰","STREET":"開南街","SECT":" ","MAREA":" ","LANE":"２５７巷","ALLEY":"１弄","HOUSE_NO":"１２號","E_COORD97":170874.26000000001,"N_COORD97":2544961.4700000002,"ADDRESS":"開南街２５７巷１弄１２號","OBJECTID":154883},"geometry":{"x":170874.25999999978,"y":2544961.4700000025}},{"attributes":{"ID":154885,"DIS_CODE":0,"TOWNNAME":"將軍區","LI":"西華里","LIN":"5鄰","STREET":" ","SECT":" ","MAREA":"西華","LANE":" ","ALLEY":" ","HOUSE_NO":"６５之１８號","E_COORD97":163669.14000000001,"N_COORD97":2566365.1699999999,"ADDRESS":"西華６５之１８號","OBJECTID":154884},"geometry":{"x":163669.1400000006,"y":2566365.1699999999}},{"attributes":{"ID":154886,"DIS_CODE":0,"TOWNNAME":"將軍區","LI":"西華里","LIN":"5鄰","STREET":" ","SECT":" ","MAREA":"西華","LANE":" ","ALLEY":" ","HOUSE_NO":"６５之１９號","E_COORD97":163673.79000000001,"N_COORD97":2566365.4500000002,"ADDRESS":"西華６５之１９號","OBJECTID":154885},"geometry":{"x":163673.79000000097,"y":2566365.4499999993}},{"attributes":{"ID":154887,"DIS_CODE":0,"TOWNNAME":"將軍區","LI":"西華里","LIN":"5鄰","STREET":" ","SECT":" ","MAREA":"西華","LANE":" ","ALLEY":" ","HOUSE_NO":"６５之２３號","E_COORD97":163674.98000000001,"N_COORD97":2566379.8399999999,"ADDRESS":"西華６５之２３號","OBJECTID":154886},"geometry":{"x":163674.98000000138,"y":2566379.8399999999}},{"attributes":{"ID":154888,"DIS_CODE":0,"TOWNNAME":"北區","LI":"力行里","LIN":"2鄰","STREET":"開南街","SECT":" ","MAREA":" ","LANE":"２５７巷","ALLEY":"１弄","HOUSE_NO":"１４號","E_COORD97":170871.17999999999,"N_COORD97":2544963.7799999998,"ADDRESS":"開南街２５７巷１弄１４號","OBJECTID":154887},"geometry":{"x":170871.1799999997,"y":2544963.7799999993}},{"attributes":{"ID":154889,"DIS_CODE":0,"TOWNNAME":"將軍區","LI":"西華里","LIN":"5鄰","STREET":" ","SECT":" ","MAREA":"西華","LANE":" ","ALLEY":" ","HOUSE_NO":"６５之２４號","E_COORD97":163672.26999999999,"N_COORD97":2566383.5600000001,"ADDRESS":"西華６５之２４號","OBJECTID":154888},"geometry":{"x":163672.26999999955,"y":2566383.5600000005}},{"attributes":{"ID":154890,"DIS_CODE":0,"TOWNNAME":"將軍區","LI":"西華里","LIN":"5鄰","STREET":" ","SECT":" ","MAREA":"西華","LANE":" ","ALLEY":" ","HOUSE_NO":"６５之２５號","E_COORD97":163670.81,"N_COORD97":2566387.7200000002,"ADDRESS":"西華６５之２５號","OBJECTID":154889},"geometry":{"x":163670.80999999959,"y":2566387.7200000025}},{"attributes":{"ID":154891,"DIS_CODE":0,"TOWNNAME":"將軍區","LI":"西華里","LIN":"5鄰","STREET":" ","SECT":" ","MAREA":"西華","LANE":" ","ALLEY":" ","HOUSE_NO":"６５之２６號","E_COORD97":163669.28,"N_COORD97":2566391.9500000002,"ADDRESS":"西華６５之２６號","OBJECTID":154890},"geometry":{"x":163669.28000000119,"y":2566391.9499999993}},{"attributes":{"ID":154892,"DIS_CODE":0,"TOWNNAME":"麻豆區","LI":"寮\u25A0里","LIN":"19鄰","STREET":" ","SECT":" ","MAREA":"寮子\u25A0","LANE":" ","ALLEY":" ","HOUSE_NO":"１５４號","E_COORD97":176442.51000000001,"N_COORD97":2565260.9300000002,"ADDRESS":"寮子\u25A0１５４號","OBJECTID":154891},"geometry":{"x":176442.50999999978,"y":2565260.9299999997}},{"attributes":{"ID":154893,"DIS_CODE":0,"TOWNNAME":"北區","LI":"力行里","LIN":"2鄰","STREET":"開南街","SECT":" ","MAREA":" ","LANE":"２５７巷","ALLEY":"１弄","HOUSE_NO":"１６號","E_COORD97":170867.79999999999,"N_COORD97":2544967.7799999998,"ADDRESS":"開南街２５７巷１弄１６號","OBJECTID":154892},"geometry":{"x":170867.80000000075,"y":2544967.7800000031}},{"attributes":{"ID":154894,"DIS_CODE":0,"TOWNNAME":"將軍區","LI":"西華里","LIN":"5鄰","STREET":" ","SECT":" ","MAREA":"西華","LANE":" ","ALLEY":" ","HOUSE_NO":"６５之２７號","E_COORD97":163667.26999999999,"N_COORD97":2566398.3399999999,"ADDRESS":"西華６５之２７號","OBJECTID":154893},"geometry":{"x":163667.26999999955,"y":2566398.3400000036}},{"attributes":{"ID":154895,"DIS_CODE":0,"TOWNNAME":"將軍區","LI":"西華里","LIN":"5鄰","STREET":" ","SECT":" ","MAREA":"西華","LANE":" ","ALLEY":" ","HOUSE_NO":"６５之３５號","E_COORD97":163654.79999999999,"N_COORD97":2566429.3999999999,"ADDRESS":"西華６５之３５號","OBJECTID":154894},"geometry":{"x":163654.80000000075,"y":2566429.4000000022}},{"attributes":{"ID":154896,"DIS_CODE":0,"TOWNNAME":"將軍區","LI":"西華里","LIN":"5鄰","STREET":" ","SECT":" ","MAREA":"西華","LANE":" ","ALLEY":" ","HOUSE_NO":"６５之３６號","E_COORD97":163653.10999999999,"N_COORD97":2566433.5,"ADDRESS":"西華６５之３６號","OBJECTID":154895},"geometry":{"x":163653.11000000127,"y":2566433.5}},{"attributes":{"ID":154897,"DIS_CODE":0,"TOWNNAME":"將軍區","LI":"西華里","LIN":"5鄰","STREET":" ","SECT":" ","MAREA":"西華","LANE":" ","ALLEY":" ","HOUSE_NO":"６５之３７號","E_COORD97":163651.54000000001,"N_COORD97":2566437.2400000002,"ADDRESS":"西華６５之３７號","OBJECTID":154896},"geometry":{"x":163651.54000000097,"y":2566437.2400000021}},{"attributes":{"ID":154898,"DIS_CODE":0,"TOWNNAME":"將軍區","LI":"西華里","LIN":"5鄰","STREET":" ","SECT":" ","MAREA":"西華","LANE":" ","ALLEY":" ","HOUSE_NO":"６５之３８號","E_COORD97":163650.26999999999,"N_COORD97":2566441.1099999999,"ADDRESS":"西華６５之３８號","OBJECTID":154897},"geometry":{"x":163650.26999999955,"y":2566441.1100000013}},{"attributes":{"ID":154899,"DIS_CODE":0,"TOWNNAME":"將軍區","LI":"西華里","LIN":"5鄰","STREET":" ","SECT":" ","MAREA":"西華","LANE":" ","ALLEY":" ","HOUSE_NO":"６５之３９號","E_COORD97":163648.70000000001,"N_COORD97":2566445.4500000002,"ADDRESS":"西華６５之３９號","OBJECTID":154898},"geometry":{"x":163648.70000000205,"y":2566445.4500000011}},{"attributes":{"ID":154900,"DIS_CODE":0,"TOWNNAME":"北區","LI":"力行里","LIN":"2鄰","STREET":"開南街","SECT":" ","MAREA":" ","LANE":"２５７巷","ALLEY":"１弄","HOUSE_NO":"２號","E_COORD97":170889.95999999999,"N_COORD97":2544949.7999999998,"ADDRESS":"開南街２５７巷１弄２號","OBJECTID":154899},"geometry":{"x":170889.95999999996,"y":2544949.8000000026}},{"attributes":{"ID":154901,"DIS_CODE":0,"TOWNNAME":"將軍區","LI":"西華里","LIN":"5鄰","STREET":" ","SECT":" ","MAREA":"西華","LANE":" ","ALLEY":" ","HOUSE_NO":"６５之４０號","E_COORD97":163647.42999999999,"N_COORD97":2566449.3300000001,"ADDRESS":"西華６５之４０號","OBJECTID":154900},"geometry":{"x":163647.43000000063,"y":2566449.3300000038}},{"attributes":{"ID":154902,"DIS_CODE":0,"TOWNNAME":"北區","LI":"力行里","LIN":"2鄰","STREET":"開南街","SECT":" ","MAREA":" ","LANE":"２５７巷","ALLEY":"１弄","HOUSE_NO":"４號","E_COORD97":170887.48999999999,"N_COORD97":2544952.25,"ADDRESS":"開南街２５７巷１弄４號","OBJECTID":154901},"geometry":{"x":170887.49000000115,"y":2544952.2500000019}},{"attributes":{"ID":154903,"DIS_CODE":0,"TOWNNAME":"將軍區","LI":"西華里","LIN":"5鄰","STREET":" ","SECT":" ","MAREA":"西華","LANE":" ","ALLEY":" ","HOUSE_NO":"６５之４１號","E_COORD97":163645.98000000001,"N_COORD97":2566453.3700000001,"ADDRESS":"西華６５之４１號","OBJECTID":154902},"geometry":{"x":163645.98000000138,"y":2566453.3699999992}},{"attributes":{"ID":154904,"DIS_CODE":0,"TOWNNAME":"將軍區","LI":"西華里","LIN":"5鄰","STREET":" ","SECT":" ","MAREA":"西華","LANE":" ","ALLEY":" ","HOUSE_NO":"６５之４２號","E_COORD97":163644.66,"N_COORD97":2566457.1699999999,"ADDRESS":"西華６５之４２號","OBJECTID":154903},"geometry":{"x":163644.66000000108,"y":2566457.1700000037}},{"attributes":{"ID":154905,"DIS_CODE":0,"TOWNNAME":"將軍區","LI":"西華里","LIN":"5鄰","STREET":" ","SECT":" ","MAREA":"西華","LANE":" ","ALLEY":" ","HOUSE_NO":"６５之４３號","E_COORD97":163643.03,"N_COORD97":2566460.9700000002,"ADDRESS":"西華６５之４３號","OBJECTID":154904},"geometry":{"x":163643.02999999933,"y":2566460.9700000025}},{"attributes":{"ID":154906,"DIS_CODE":0,"TOWNNAME":"關廟區","LI":"東勢里","LIN":"19鄰","STREET":"東仁街","SECT":" ","MAREA":" ","LANE":" ","ALLEY":" ","HOUSE_NO":"６０號","E_COORD97":181829.42000000001,"N_COORD97":2539284.25,"ADDRESS":"東仁街６０號","OBJECTID":154905},"geometry":{"x":181829.41999999899,"y":2539284.2500000019}},{"attributes":{"ID":154907,"DIS_CODE":0,"TOWNNAME":"關廟區","LI":"東勢里","LIN":"19鄰","STREET":"東仁街","SECT":" ","MAREA":" ","LANE":" ","ALLEY":" ","HOUSE_NO":"４３號","E_COORD97":181841.62,"N_COORD97":2539278.25,"ADDRESS":"東仁街４３號","OBJECTID":154906},"geometry":{"x":181841.62000000011,"y":2539278.25}},{"attributes":{"ID":154908,"DIS_CODE":0,"TOWNNAME":"將軍區","LI":"西華里","LIN":"5鄰","STREET":" ","SECT":" ","MAREA":"西華","LANE":" ","ALLEY":" ","HOUSE_NO":"６５之４４號","E_COORD97":163642.64999999999,"N_COORD97":2566465.6099999999,"ADDRESS":"西華６５之４４號","OBJECTID":154907},"geometry":{"x":163642.6500000013,"y":2566465.6099999994}},{"attributes":{"ID":154909,"DIS_CODE":0,"TOWNNAME":"將軍區","LI":"西華里","LIN":"5鄰","STREET":" ","SECT":" ","MAREA":"西華","LANE":" ","ALLEY":" ","HOUSE_NO":"６５之４５號","E_COORD97":163642.48999999999,"N_COORD97":2566470.8599999999,"ADDRESS":"西華６５之４５號","OBJECTID":154908},"geometry":{"x":163642.49000000115,"y":2566470.8599999994}},{"attributes":{"ID":154910,"DIS_CODE":0,"TOWNNAME":"將軍區","LI":"西華里","LIN":"5鄰","STREET":" ","SECT":" ","MAREA":"西華","LANE":" ","ALLEY":" ","HOUSE_NO":"６５之４６號","E_COORD97":163641.14999999999,"N_COORD97":2566475.0499999998,"ADDRESS":"西華６５之４６號","OBJECTID":154909},"geometry":{"x":163641.1500000013,"y":2566475.0500000007}},{"attributes":{"ID":154911,"DIS_CODE":0,"TOWNNAME":"將軍區","LI":"西華里","LIN":"5鄰","STREET":" ","SECT":" ","MAREA":"西華","LANE":" ","ALLEY":" ","HOUSE_NO":"６５之４７號","E_COORD97":163640.17999999999,"N_COORD97":2566479.3900000001,"ADDRESS":"西華６５之４７號","OBJECTID":154910},"geometry":{"x":163640.18000000063,"y":2566479.3900000006}},{"attributes":{"ID":154912,"DIS_CODE":0,"TOWNNAME":"將軍區","LI":"西華里","LIN":"5鄰","STREET":" ","SECT":" ","MAREA":"西華","LANE":" ","ALLEY":" ","HOUSE_NO":"６５之４８號","E_COORD97":163639.60999999999,"N_COORD97":2566483.1400000001,"ADDRESS":"西華６５之４８號","OBJECTID":154911},"geometry":{"x":163639.61000000127,"y":2566483.1400000025}},{"attributes":{"ID":154913,"DIS_CODE":0,"TOWNNAME":"將軍區","LI":"西華里","LIN":"5鄰","STREET":" ","SECT":" ","MAREA":"西華","LANE":" ","ALLEY":" ","HOUSE_NO":"６５之４９號","E_COORD97":163639.01000000001,"N_COORD97":2566487.4300000002,"ADDRESS":"西華６５之４９號","OBJECTID":154912},"geometry":{"x":163639.00999999978,"y":2566487.4299999997}},{"attributes":{"ID":154914,"DIS_CODE":0,"TOWNNAME":"將軍區","LI":"西華里","LIN":"5鄰","STREET":" ","SECT":" ","MAREA":"西華","LANE":" ","ALLEY":" ","HOUSE_NO":"６５之５０號","E_COORD97":163640.42999999999,"N_COORD97":2566496.7799999998,"ADDRESS":"西華６５之５０號","OBJECTID":154913},"geometry":{"x":163640.43000000063,"y":2566496.7800000012}},{"attributes":{"ID":154915,"DIS_CODE":0,"TOWNNAME":"將軍區","LI":"西華里","LIN":"5鄰","STREET":" ","SECT":" ","MAREA":"西華","LANE":" ","ALLEY":" ","HOUSE_NO":"６５之５１號","E_COORD97":163639.98000000001,"N_COORD97":2566500.71,"ADDRESS":"西華６５之５１號","OBJECTID":154914},"geometry":{"x":163639.98000000045,"y":2566500.7100000009}},{"attributes":{"ID":154916,"DIS_CODE":0,"TOWNNAME":"將軍區","LI":"西華里","LIN":"5鄰","STREET":" ","SECT":" ","MAREA":"西華","LANE":" ","ALLEY":" ","HOUSE_NO":"６５之５２號","E_COORD97":163639.64999999999,"N_COORD97":2566504.9100000001,"ADDRESS":"西華６５之５２號","OBJECTID":154915},"geometry":{"x":163639.6500000013,"y":2566504.910000002}},{"attributes":{"ID":154917,"DIS_CODE":0,"TOWNNAME":"將軍區","LI":"西華里","LIN":"5鄰","STREET":" ","SECT":" ","MAREA":"西華","LANE":" ","ALLEY":" ","HOUSE_NO":"６５之５４號","E_COORD97":163621.57999999999,"N_COORD97":2566497.96,"ADDRESS":"西華６５之５４號","OBJECTID":154916},"geometry":{"x":163621.58000000007,"y":2566497.9600000028}},{"attributes":{"ID":154918,"DIS_CODE":0,"TOWNNAME":"關廟區","LI":"東勢里","LIN":"19鄰","STREET":"東仁街","SECT":" ","MAREA":" ","LANE":" ","ALLEY":" ","HOUSE_NO":"９２號","E_COORD97":181823.62,"N_COORD97":2539233.25,"ADDRESS":"東仁街９２號","OBJECTID":154917},"geometry":{"x":181823.62000000104,"y":2539233.2500000019}},{"attributes":{"ID":154919,"DIS_CODE":0,"TOWNNAME":"關廟區","LI":"東勢里","LIN":"19鄰","STREET":"東仁街","SECT":" ","MAREA":" ","LANE":" ","ALLEY":" ","HOUSE_NO":"５７號","E_COORD97":181832.82000000001,"N_COORD97":2539242.25,"ADDRESS":"東仁街５７號","OBJECTID":154918},"geometry":{"x":181832.82000000123,"y":2539242.2500000037}},{"attributes":{"ID":154920,"DIS_CODE":0,"TOWNNAME":"關廟區","LI":"北勢里","LIN":"19鄰","STREET":"北安二街","SECT":" ","MAREA":" ","LANE":" ","ALLEY":" ","HOUSE_NO":"２８３號","E_COORD97":181215.04000000001,"N_COORD97":2540743.3199999998,"ADDRESS":"北安二街２８３號","OBJECTID":154919},"geometry":{"x":181215.03999999911,"y":2540743.3200000003}},{"attributes":{"ID":154921,"DIS_CODE":0,"TOWNNAME":"關廟區","LI":"北勢里","LIN":"19鄰","STREET":"南雄路","SECT":"二段","MAREA":" ","LANE":" ","ALLEY":" ","HOUSE_NO":"２３８號","E_COORD97":181161.29000000001,"N_COORD97":2540602.2799999998,"ADDRESS":"南雄路二段２３８號","OBJECTID":154920},"geometry":{"x":181161.29000000097,"y":2540602.2800000012}},{"attributes":{"ID":154922,"DIS_CODE":0,"TOWNNAME":"關廟區","LI":"北勢里","LIN":"19鄰","STREET":"北安二街","SECT":" ","MAREA":" ","LANE":" ","ALLEY":" ","HOUSE_NO":"２８１號","E_COORD97":181219.64000000001,"N_COORD97":2540743.3199999998,"ADDRESS":"北安二街２８１號","OBJECTID":154921},"geometry":{"x":181219.6400000006,"y":2540743.3200000003}},{"attributes":{"ID":154923,"DIS_CODE":0,"TOWNNAME":"關廟區","LI":"北勢里","LIN":"19鄰","STREET":"南雄路","SECT":"二段","MAREA":" ","LANE":" ","ALLEY":" ","HOUSE_NO":"２４６號","E_COORD97":181157.09,"N_COORD97":2540615.2799999998,"ADDRESS":"南雄路二段２４６號","OBJECTID":154922},"geometry":{"x":181157.09000000171,"y":2540615.2800000012}},{"attributes":{"ID":154924,"DIS_CODE":0,"TOWNNAME":"將軍區","LI":"西華里","LIN":"5鄰","STREET":" ","SECT":" ","MAREA":"西華","LANE":" ","ALLEY":" ","HOUSE_NO":"６５之５５號","E_COORD97":163617.35999999999,"N_COORD97":2566496.3399999999,"ADDRESS":"西華６５之５５號","OBJECTID":154923},"geometry":{"x":163617.3600000022,"y":2566496.339999998}},{"attributes":{"ID":154925,"DIS_CODE":0,"TOWNNAME":"將軍區","LI":"西華里","LIN":"5鄰","STREET":" ","SECT":" ","MAREA":"西華","LANE":" ","ALLEY":" ","HOUSE_NO":"６５之５６號","E_COORD97":163613.94,"N_COORD97":2566494.0899999999,"ADDRESS":"西華６５之５６號","OBJECTID":154924},"geometry":{"x":163613.94000000134,"y":2566494.0899999999}},{"attributes":{"ID":154926,"DIS_CODE":0,"TOWNNAME":"北區","LI":"力行里","LIN":"2鄰","STREET":"開南街","SECT":" ","MAREA":" ","LANE":"２５７巷","ALLEY":"１弄","HOUSE_NO":"６號","E_COORD97":170883.79999999999,"N_COORD97":2544954.4100000001,"ADDRESS":"開南街２５７巷１弄６號","OBJECTID":154925},"geometry":{"x":170883.79999999981,"y":2544954.410000002}},{"attributes":{"ID":154927,"DIS_CODE":0,"TOWNNAME":"北區","LI":"力行里","LIN":"2鄰","STREET":"開南街","SECT":" ","MAREA":" ","LANE":"２５７巷","ALLEY":"１弄","HOUSE_NO":"８號","E_COORD97":170880.72,"N_COORD97":2544956.71,"ADDRESS":"開南街２５７巷１弄８號","OBJECTID":154926},"geometry":{"x":170880.71999999974,"y":2544956.7100000028}},{"attributes":{"ID":154928,"DIS_CODE":0,"TOWNNAME":"安平區","LI":"石門里","LIN":"2鄰","STREET":"安北路","SECT":" ","MAREA":" ","LANE":"１６巷","ALLEY":"３５弄","HOUSE_NO":"１１號","E_COORD97":164725.32000000001,"N_COORD97":2544583.6800000002,"ADDRESS":"安北路１６巷３５弄１１號","OBJECTID":154927},"geometry":{"x":164725.3200000003,"y":2544583.6800000016}},{"attributes":{"ID":154929,"DIS_CODE":0,"TOWNNAME":"安平區","LI":"石門里","LIN":"2鄰","STREET":"安北路","SECT":" ","MAREA":" ","LANE":"１６巷","ALLEY":"３５弄","HOUSE_NO":"１３號","E_COORD97":164721.97,"N_COORD97":2544586.5099999998,"ADDRESS":"安北路１６巷３５弄１３號","OBJECTID":154928},"geometry":{"x":164721.97000000067,"y":2544586.5099999979}},{"attributes":{"ID":154930,"DIS_CODE":0,"TOWNNAME":"東區","LI":"關聖里","LIN":"15鄰","STREET":"裕英街","SECT":" ","MAREA":" ","LANE":" ","ALLEY":" ","HOUSE_NO":"８７號","E_COORD97":172340.20000000001,"N_COORD97":2543030.7000000002,"ADDRESS":"裕英街８７號","OBJECTID":154929},"geometry":{"x":172340.20000000112,"y":2543030.6999999993}},{"attributes":{"ID":154931,"DIS_CODE":0,"TOWNNAME":"安平區","LI":"石門里","LIN":"2鄰","STREET":"安北路","SECT":" ","MAREA":" ","LANE":"１６巷","ALLEY":"３５弄","HOUSE_NO":"１５號","E_COORD97":164719.39000000001,"N_COORD97":2544588.8300000001,"ADDRESS":"安北路１６巷３５弄１５號","OBJECTID":154930},"geometry":{"x":164719.38999999966,"y":2544588.8300000019}},{"attributes":{"ID":154932,"DIS_CODE":0,"TOWNNAME":"安平區","LI":"石門里","LIN":"2鄰","STREET":"安北路","SECT":" ","MAREA":" ","LANE":"１６巷","ALLEY":"３５弄","HOUSE_NO":"１７號","E_COORD97":164717.06,"N_COORD97":2544591.9199999999,"ADDRESS":"安北路１６巷３５弄１７號","OBJECTID":154931},"geometry":{"x":164717.06000000145,"y":2544591.9200000018}},{"attributes":{"ID":154933,"DIS_CODE":0,"TOWNNAME":"安平區","LI":"石門里","LIN":"2鄰","STREET":"安北路","SECT":" ","MAREA":" ","LANE":"１６巷","ALLEY":"３５弄","HOUSE_NO":"１９號","E_COORD97":164708.84,"N_COORD97":2544599.5699999998,"ADDRESS":"安北路１６巷３５弄１９號","OBJECTID":154932},"geometry":{"x":164708.84000000078,"y":2544599.5700000003}},{"attributes":{"ID":154934,"DIS_CODE":0,"TOWNNAME":"將軍區","LI":"西華里","LIN":"5鄰","STREET":" ","SECT":" ","MAREA":"西華","LANE":" ","ALLEY":" ","HOUSE_NO":"６５之５９號","E_COORD97":163596.10000000001,"N_COORD97":2566487.2400000002,"ADDRESS":"西華６５之５９號","OBJECTID":154933},"geometry":{"x":163596.0999999987,"y":2566487.2399999984}},{"attributes":{"ID":154935,"DIS_CODE":0,"TOWNNAME":"關廟區","LI":"東勢里","LIN":"19鄰","STREET":"東仁街","SECT":" ","MAREA":" ","LANE":" ","ALLEY":" ","HOUSE_NO":"４５號","E_COORD97":181837.82000000001,"N_COORD97":2539276.25,"ADDRESS":"東仁街４５號","OBJECTID":154934},"geometry":{"x":181837.82000000123,"y":2539276.2500000037}},{"attributes":{"ID":154936,"DIS_CODE":0,"TOWNNAME":"將軍區","LI":"西華里","LIN":"5鄰","STREET":" ","SECT":" ","MAREA":"西華","LANE":" ","ALLEY":" ","HOUSE_NO":"６５之６０號","E_COORD97":163594.48000000001,"N_COORD97":2566490.8399999999,"ADDRESS":"西華６５之６０號","OBJECTID":154935},"geometry":{"x":163594.48000000231,"y":2566490.8400000017}},{"attributes":{"ID":154937,"DIS_CODE":0,"TOWNNAME":"將軍區","LI":"西華里","LIN":"5鄰","STREET":" ","SECT":" ","MAREA":"西華","LANE":" ","ALLEY":" ","HOUSE_NO":"６５之６１號","E_COORD97":163592.57999999999,"N_COORD97":2566494.9399999999,"ADDRESS":"西華６５之６１號","OBJECTID":154936},"geometry":{"x":163592.58000000101,"y":2566494.9399999995}},{"attributes":{"ID":154938,"DIS_CODE":0,"TOWNNAME":"將軍區","LI":"西華里","LIN":"5鄰","STREET":" ","SECT":" ","MAREA":"西華","LANE":" ","ALLEY":" ","HOUSE_NO":"６５之６２號","E_COORD97":163588.10999999999,"N_COORD97":2566497.4399999999,"ADDRESS":"西華６５之６２號","OBJECTID":154937},"geometry":{"x":163588.11000000034,"y":2566497.4399999995}},{"attributes":{"ID":154939,"DIS_CODE":0,"TOWNNAME":"將軍區","LI":"西華里","LIN":"5鄰","STREET":" ","SECT":" ","MAREA":"西華","LANE":" ","ALLEY":" ","HOUSE_NO":"６５之６３號","E_COORD97":163589.82000000001,"N_COORD97":2566502.7400000002,"ADDRESS":"西華６５之６３號","OBJECTID":154938},"geometry":{"x":163589.8200000003,"y":2566502.7400000021}},{"attributes":{"ID":154940,"DIS_CODE":0,"TOWNNAME":"安平區","LI":"石門里","LIN":"2鄰","STREET":"安北路","SECT":" ","MAREA":" ","LANE":"１６巷","ALLEY":"３５弄","HOUSE_NO":"１號","E_COORD97":164737.95999999999,"N_COORD97":2544570.2799999998,"ADDRESS":"安北路１６巷３５弄１號","OBJECTID":154939},"geometry":{"x":164737.95999999996,"y":2544570.2799999993}},{"attributes":{"ID":154941,"DIS_CODE":0,"TOWNNAME":"安平區","LI":"石門里","LIN":"2鄰","STREET":"安北路","SECT":" ","MAREA":" ","LANE":"１６巷","ALLEY":"３５弄","HOUSE_NO":"２１號","E_COORD97":164707.04000000001,"N_COORD97":2544603.1699999999,"ADDRESS":"安北路１６巷３５弄２１號","OBJECTID":154940},"geometry":{"x":164707.04000000004,"y":2544603.1700000018}},{"attributes":{"ID":154942,"DIS_CODE":0,"TOWNNAME":"安平區","LI":"石門里","LIN":"2鄰","STREET":"安北路","SECT":" ","MAREA":" ","LANE":"１６巷","ALLEY":"３５弄","HOUSE_NO":"２３號","E_COORD97":164704.45999999999,"N_COORD97":2544606.0099999998,"ADDRESS":"安北路１６巷３５弄２３號","OBJECTID":154941},"geometry":{"x":164704.46000000183,"y":2544606.0099999998}},{"attributes":{"ID":154943,"DIS_CODE":0,"TOWNNAME":"安平區","LI":"石門里","LIN":"2鄰","STREET":"安北路","SECT":" ","MAREA":" ","LANE":"１６巷","ALLEY":"３５弄","HOUSE_NO":"２５號","E_COORD97":164701.35999999999,"N_COORD97":2544608.8399999999,"ADDRESS":"安北路１６巷３５弄２５號","OBJECTID":154942},"geometry":{"x":164701.36000000034,"y":2544608.8400000017}},{"attributes":{"ID":154944,"DIS_CODE":0,"TOWNNAME":"安平區","LI":"石門里","LIN":"2鄰","STREET":"安北路","SECT":" ","MAREA":" ","LANE":"１６巷","ALLEY":"３５弄","HOUSE_NO":"２７號","E_COORD97":164698.51999999999,"N_COORD97":2544610.8999999999,"ADDRESS":"安北路１６巷３５弄２７號","OBJECTID":154943},"geometry":{"x":164698.52000000142,"y":2544610.9000000004}},{"attributes":{"ID":154945,"DIS_CODE":0,"TOWNNAME":"安平區","LI":"石門里","LIN":"2鄰","STREET":"安北路","SECT":" ","MAREA":" ","LANE":"１６巷","ALLEY":"３５弄","HOUSE_NO":"２９號","E_COORD97":164695.69,"N_COORD97":2544613.48,"ADDRESS":"安北路１６巷３５弄２９號","OBJECTID":154944},"geometry":{"x":164695.69000000134,"y":2544613.4800000004}},{"attributes":{"ID":154946,"DIS_CODE":0,"TOWNNAME":"安平區","LI":"石門里","LIN":"2鄰","STREET":"安北路","SECT":" ","MAREA":" ","LANE":"１６巷","ALLEY":"３５弄","HOUSE_NO":"３１號","E_COORD97":164693.10999999999,"N_COORD97":2544616.3100000001,"ADDRESS":"安北路１６巷３５弄３１號","OBJECTID":154945},"geometry":{"x":164693.11000000034,"y":2544616.3100000024}},{"attributes":{"ID":154947,"DIS_CODE":0,"TOWNNAME":"安平區","LI":"石門里","LIN":"2鄰","STREET":"安北路","SECT":" ","MAREA":" ","LANE":"１６巷","ALLEY":"３５弄","HOUSE_NO":"３３號","E_COORD97":164690.01000000001,"N_COORD97":2544619.1400000001,"ADDRESS":"安北路１６巷３５弄３３號","OBJECTID":154946},"geometry":{"x":164690.00999999978,"y":2544619.1400000006}},{"attributes":{"ID":154948,"DIS_CODE":0,"TOWNNAME":"安平區","LI":"石門里","LIN":"2鄰","STREET":"安北路","SECT":" ","MAREA":" ","LANE":"１６巷","ALLEY":"３５弄","HOUSE_NO":"３５號","E_COORD97":164687.42999999999,"N_COORD97":2544622.75,"ADDRESS":"安北路１６巷３５弄３５號","OBJECTID":154947},"geometry":{"x":164687.43000000156,"y":2544622.7500000037}},{"attributes":{"ID":154949,"DIS_CODE":0,"TOWNNAME":"安平區","LI":"石門里","LIN":"2鄰","STREET":"安北路","SECT":" ","MAREA":" ","LANE":"１６巷","ALLEY":"３５弄","HOUSE_NO":"３７號","E_COORD97":164680,"N_COORD97":2544628.73,"ADDRESS":"安北路１６巷３５弄３７號","OBJECTID":154948},"geometry":{"x":164680,"y":2544628.7300000004}},{"attributes":{"ID":154950,"DIS_CODE":0,"TOWNNAME":"將軍區","LI":"西華里","LIN":"5鄰","STREET":" ","SECT":" ","MAREA":"西華","LANE":" ","ALLEY":" ","HOUSE_NO":"６５之６４號","E_COORD97":163588.09,"N_COORD97":2566506.5299999998,"ADDRESS":"西華６５之６４號","OBJECTID":154949},"geometry":{"x":163588.09000000171,"y":2566506.5300000012}},{"attributes":{"ID":154951,"DIS_CODE":0,"TOWNNAME":"將軍區","LI":"西華里","LIN":"5鄰","STREET":" ","SECT":" ","MAREA":"西華","LANE":" ","ALLEY":" ","HOUSE_NO":"６５之６５號","E_COORD97":163586.14000000001,"N_COORD97":2566510.6299999999,"ADDRESS":"西華６５之６５號","OBJECTID":154950},"geometry":{"x":163586.1400000006,"y":2566510.6300000027}},{"attributes":{"ID":154952,"DIS_CODE":0,"TOWNNAME":"安平區","LI":"石門里","LIN":"2鄰","STREET":"安北路","SECT":" ","MAREA":" ","LANE":"１６巷","ALLEY":"３５弄","HOUSE_NO":"３９號","E_COORD97":164677.94,"N_COORD97":2544631.5699999998,"ADDRESS":"安北路１６巷３５弄３９號","OBJECTID":154951},"geometry":{"x":164677.94000000227,"y":2544631.5700000022}},{"attributes":{"ID":154953,"DIS_CODE":0,"TOWNNAME":"安平區","LI":"石門里","LIN":"2鄰","STREET":"安北路","SECT":" ","MAREA":" ","LANE":"１６巷","ALLEY":"３５弄","HOUSE_NO":"３號","E_COORD97":164736.14999999999,"N_COORD97":2544572.6000000001,"ADDRESS":"安北路１６巷３５弄３號","OBJECTID":154952},"geometry":{"x":164736.1500000013,"y":2544572.6000000034}},{"attributes":{"ID":154954,"DIS_CODE":0,"TOWNNAME":"安平區","LI":"石門里","LIN":"2鄰","STREET":"安北路","SECT":" ","MAREA":" ","LANE":"１６巷","ALLEY":"３５弄","HOUSE_NO":"４１號","E_COORD97":164674.57999999999,"N_COORD97":2544633.6299999999,"ADDRESS":"安北路１６巷３５弄４１號","OBJECTID":154953},"geometry":{"x":164674.58000000007,"y":2544633.6300000008}},{"attributes":{"ID":154955,"DIS_CODE":0,"TOWNNAME":"安平區","LI":"石門里","LIN":"2鄰","STREET":"安北路","SECT":" ","MAREA":" ","LANE":"１６巷","ALLEY":"３５弄","HOUSE_NO":"４３號","E_COORD97":164671.75,"N_COORD97":2544637.23,"ADDRESS":"安北路１６巷３５弄４３號","OBJECTID":154954},"geometry":{"x":164671.75,"y":2544637.2300000023}},{"attributes":{"ID":154956,"DIS_CODE":0,"TOWNNAME":"安平區","LI":"石門里","LIN":"2鄰","STREET":"安北路","SECT":" ","MAREA":" ","LANE":"１６巷","ALLEY":"３５弄","HOUSE_NO":"４５號","E_COORD97":164669.67999999999,"N_COORD97":2544640.3300000001,"ADDRESS":"安北路１６巷３５弄４５號","OBJECTID":154955},"geometry":{"x":164669.6799999997,"y":2544640.3300000019}},{"attributes":{"ID":154957,"DIS_CODE":0,"TOWNNAME":"安平區","LI":"石門里","LIN":"2鄰","STREET":"安北路","SECT":" ","MAREA":" ","LANE":"１６巷","ALLEY":"３５弄","HOUSE_NO":"４７號","E_COORD97":164666.32999999999,"N_COORD97":2544642.6400000001,"ADDRESS":"安北路１６巷３５弄４７號","OBJECTID":154956},"geometry":{"x":164666.33000000007,"y":2544642.6400000025}},{"attributes":{"ID":154958,"DIS_CODE":0,"TOWNNAME":"安平區","LI":"石門里","LIN":"2鄰","STREET":"安北路","SECT":" ","MAREA":" ","LANE":"１６巷","ALLEY":"３５弄","HOUSE_NO":"４９號","E_COORD97":164664.01000000001,"N_COORD97":2544645.9900000002,"ADDRESS":"安北路１６巷３５弄４９號","OBJECTID":154957},"geometry":{"x":164664.01000000071,"y":2544645.9900000021}},{"attributes":{"ID":154959,"DIS_CODE":0,"TOWNNAME":"東區","LI":"崇信里","LIN":"24鄰","STREET":"崇善一街","SECT":" ","MAREA":" ","LANE":" ","ALLEY":" ","HOUSE_NO":"７８號十二樓","E_COORD97":170831.85999999999,"N_COORD97":2542290.75,"ADDRESS":"崇善一街７８號十二樓","OBJECTID":154958},"geometry":{"x":170831.8599999994,"y":2542290.7500000019}},{"attributes":{"ID":154960,"DIS_CODE":0,"TOWNNAME":"東區","LI":"崇信里","LIN":"24鄰","STREET":"崇善一街","SECT":" ","MAREA":" ","LANE":" ","ALLEY":" ","HOUSE_NO":"７８號十二樓之１","E_COORD97":170831.85999999999,"N_COORD97":2542290.75,"ADDRESS":"崇善一街７８號十二樓之１","OBJECTID":154959},"geometry":{"x":170831.8599999994,"y":2542290.7500000019}},{"attributes":{"ID":154961,"DIS_CODE":0,"TOWNNAME":"東區","LI":"崇信里","LIN":"24鄰","STREET":"崇善一街","SECT":" ","MAREA":" ","LANE":" ","ALLEY":" ","HOUSE_NO":"７８號十二樓之２","E_COORD97":170831.85999999999,"N_COORD97":2542290.75,"ADDRESS":"崇善一街７８號十二樓之２","OBJECTID":154960},"geometry":{"x":170831.8599999994,"y":2542290.7500000019}},{"attributes":{"ID":154962,"DIS_CODE":0,"TOWNNAME":"將軍區","LI":"西華里","LIN":"5鄰","STREET":" ","SECT":" ","MAREA":"西華","LANE":" ","ALLEY":" ","HOUSE_NO":"６５之６６號","E_COORD97":163584.51999999999,"N_COORD97":2566514.7400000002,"ADDRESS":"西華６５之６６號","OBJECTID":154961},"geometry":{"x":163584.51999999955,"y":2566514.7400000039}},{"attributes":{"ID":154963,"DIS_CODE":0,"TOWNNAME":"將軍區","LI":"西華里","LIN":"5鄰","STREET":" ","SECT":" ","MAREA":"西華","LANE":" ","ALLEY":" ","HOUSE_NO":"６５之６７號","E_COORD97":163601.42999999999,"N_COORD97":2566514.4199999999,"ADDRESS":"西華６５之６７號","OBJECTID":154962},"geometry":{"x":163601.43000000063,"y":2566514.4200000018}},{"attributes":{"ID":154964,"DIS_CODE":0,"TOWNNAME":"將軍區","LI":"西華里","LIN":"5鄰","STREET":" ","SECT":" ","MAREA":"西華","LANE":" ","ALLEY":" ","HOUSE_NO":"６５之６８號","E_COORD97":163607.37,"N_COORD97":2566515.0899999999,"ADDRESS":"西華６５之６８號","OBJECTID":154963},"geometry":{"x":163607.37000000104,"y":2566515.089999998}},{"attributes":{"ID":154965,"DIS_CODE":0,"TOWNNAME":"將軍區","LI":"西華里","LIN":"5鄰","STREET":" ","SECT":" ","MAREA":"西華","LANE":" ","ALLEY":" ","HOUSE_NO":"６５之６９號","E_COORD97":163600.42999999999,"N_COORD97":2566465.3700000001,"ADDRESS":"西華６５之６９號","OBJECTID":154964},"geometry":{"x":163600.4299999997,"y":2566465.3700000029}},{"attributes":{"ID":154966,"DIS_CODE":0,"TOWNNAME":"將軍區","LI":"西華里","LIN":"5鄰","STREET":" ","SECT":" ","MAREA":"西華","LANE":" ","ALLEY":" ","HOUSE_NO":"６５之７號","E_COORD97":163640.76000000001,"N_COORD97":2566395.75,"ADDRESS":"西華６５之７號","OBJECTID":154965},"geometry":{"x":163640.75999999978,"y":2566395.7500000037}},{"attributes":{"ID":154967,"DIS_CODE":0,"TOWNNAME":"將軍區","LI":"西華里","LIN":"5鄰","STREET":" ","SECT":" ","MAREA":"西華","LANE":" ","ALLEY":" ","HOUSE_NO":"６５之８號","E_COORD97":163642.26000000001,"N_COORD97":2566391.4199999999,"ADDRESS":"西華６５之８號","OBJECTID":154966},"geometry":{"x":163642.25999999978,"y":2566391.4200000018}},{"attributes":{"ID":154968,"DIS_CODE":0,"TOWNNAME":"將軍區","LI":"西華里","LIN":"5鄰","STREET":" ","SECT":" ","MAREA":"西華","LANE":" ","ALLEY":" ","HOUSE_NO":"６５之９號","E_COORD97":163643.5,"N_COORD97":2566387.5299999998,"ADDRESS":"西華６５之９號","OBJECTID":154967},"geometry":{"x":163643.50000000093,"y":2566387.5300000012}},{"attributes":{"ID":154969,"DIS_CODE":0,"TOWNNAME":"將軍區","LI":"西華里","LIN":"5鄰","STREET":" ","SECT":" ","MAREA":"西華","LANE":" ","ALLEY":" ","HOUSE_NO":"６５號","E_COORD97":163616.69,"N_COORD97":2566365.0600000001,"ADDRESS":"西華６５號","OBJECTID":154968},"geometry":{"x":163616.68999999948,"y":2566365.0600000024}},{"attributes":{"ID":154970,"DIS_CODE":0,"TOWNNAME":"將軍區","LI":"西華里","LIN":"5鄰","STREET":" ","SECT":" ","MAREA":"西華","LANE":" ","ALLEY":" ","HOUSE_NO":"６６號","E_COORD97":163600.22,"N_COORD97":2566374.1800000002,"ADDRESS":"西華６６號","OBJECTID":154969},"geometry":{"x":163600.21999999974,"y":2566374.1799999997}},{"attributes":{"ID":154971,"DIS_CODE":0,"TOWNNAME":"將軍區","LI":"西華里","LIN":"5鄰","STREET":" ","SECT":" ","MAREA":"西華","LANE":" ","ALLEY":" ","HOUSE_NO":"６７之１０號","E_COORD97":163635.04000000001,"N_COORD97":2566530.9300000002,"ADDRESS":"西華６７之１０號","OBJECTID":154970},"geometry":{"x":163635.04000000097,"y":2566530.9300000016}},{"attributes":{"ID":154972,"DIS_CODE":0,"TOWNNAME":"將軍區","LI":"西華里","LIN":"5鄰","STREET":" ","SECT":" ","MAREA":"西華","LANE":" ","ALLEY":" ","HOUSE_NO":"６７之１１號","E_COORD97":163634.94,"N_COORD97":2566535.2999999998,"ADDRESS":"西華６７之１１號","OBJECTID":154971},"geometry":{"x":163634.94000000041,"y":2566535.3000000045}},{"attributes":{"ID":154973,"DIS_CODE":0,"TOWNNAME":"將軍區","LI":"西華里","LIN":"5鄰","STREET":" ","SECT":" ","MAREA":"西華","LANE":" ","ALLEY":" ","HOUSE_NO":"６７之１２號","E_COORD97":163634.88,"N_COORD97":2566539.73,"ADDRESS":"西華６７之１２號","OBJECTID":154972},"geometry":{"x":163634.87999999989,"y":2566539.7300000023}},{"attributes":{"ID":154974,"DIS_CODE":0,"TOWNNAME":"將軍區","LI":"西華里","LIN":"5鄰","STREET":" ","SECT":" ","MAREA":"西華","LANE":" ","ALLEY":" ","HOUSE_NO":"６７之１３號","E_COORD97":163634.94,"N_COORD97":2566544.0299999998,"ADDRESS":"西華６７之１３號","OBJECTID":154973},"geometry":{"x":163634.94000000041,"y":2566544.0299999993}},{"attributes":{"ID":154975,"DIS_CODE":0,"TOWNNAME":"將軍區","LI":"西華里","LIN":"5鄰","STREET":" ","SECT":" ","MAREA":"西華","LANE":" ","ALLEY":" ","HOUSE_NO":"６７之１４號","E_COORD97":163634.87,"N_COORD97":2566548.5099999998,"ADDRESS":"西華６７之１４號","OBJECTID":154974},"geometry":{"x":163634.87000000011,"y":2566548.5099999998}},{"attributes":{"ID":154976,"DIS_CODE":0,"TOWNNAME":"將軍區","LI":"西華里","LIN":"5鄰","STREET":" ","SECT":" ","MAREA":"西華","LANE":" ","ALLEY":" ","HOUSE_NO":"６７之１５號","E_COORD97":163634.51000000001,"N_COORD97":2566552.8700000001,"ADDRESS":"西華６７之１５號","OBJECTID":154975},"geometry":{"x":163634.51000000071,"y":2566552.8700000029}},{"attributes":{"ID":154977,"DIS_CODE":0,"TOWNNAME":"將軍區","LI":"西華里","LIN":"5鄰","STREET":" ","SECT":" ","MAREA":"西華","LANE":" ","ALLEY":" ","HOUSE_NO":"６７之１６號","E_COORD97":163634.75,"N_COORD97":2566557.23,"ADDRESS":"西華６７之１６號","OBJECTID":154976},"geometry":{"x":163634.75000000093,"y":2566557.2300000023}},{"attributes":{"ID":154978,"DIS_CODE":0,"TOWNNAME":"安平區","LI":"石門里","LIN":"2鄰","STREET":"安北路","SECT":" ","MAREA":" ","LANE":"１６巷","ALLEY":"３５弄","HOUSE_NO":"５１號","E_COORD97":164661.69,"N_COORD97":2544649.0800000001,"ADDRESS":"安北路１６巷３５弄５１號","OBJECTID":154977},"geometry":{"x":164661.69000000134,"y":2544649.0800000019}},{"attributes":{"ID":154979,"DIS_CODE":0,"TOWNNAME":"安平區","LI":"石門里","LIN":"2鄰","STREET":"安北路","SECT":" ","MAREA":" ","LANE":"１６巷","ALLEY":"３５弄","HOUSE_NO":"５３號","E_COORD97":164655.5,"N_COORD97":2544652.6899999999,"ADDRESS":"安北路１６巷３５弄５３號","OBJECTID":154978},"geometry":{"x":164655.50000000093,"y":2544652.6899999995}},{"attributes":{"ID":154980,"DIS_CODE":0,"TOWNNAME":"安平區","LI":"石門里","LIN":"2鄰","STREET":"安北路","SECT":" ","MAREA":" ","LANE":"１６巷","ALLEY":"３５弄","HOUSE_NO":"５號","E_COORD97":164734.09,"N_COORD97":2544575.9500000002,"ADDRESS":"安北路１６巷３５弄５號","OBJECTID":154979},"geometry":{"x":164734.09000000171,"y":2544575.9499999993}},{"attributes":{"ID":154981,"DIS_CODE":0,"TOWNNAME":"安平區","LI":"石門里","LIN":"2鄰","STREET":"安北路","SECT":" ","MAREA":" ","LANE":"１６巷","ALLEY":"３５弄","HOUSE_NO":"７號","E_COORD97":164730.48000000001,"N_COORD97":2544578.7799999998,"ADDRESS":"安北路１６巷３５弄７號","OBJECTID":154980},"geometry":{"x":164730.48000000138,"y":2544578.7800000012}},{"attributes":{"ID":154982,"DIS_CODE":0,"TOWNNAME":"安平區","LI":"石門里","LIN":"2鄰","STREET":"安北路","SECT":" ","MAREA":" ","LANE":"１６巷","ALLEY":"３５弄","HOUSE_NO":"９號","E_COORD97":164729.19,"N_COORD97":2544581.1000000001,"ADDRESS":"安北路１６巷３５弄９號","OBJECTID":154981},"geometry":{"x":164729.19000000134,"y":2544581.0999999996}},{"attributes":{"ID":154983,"DIS_CODE":0,"TOWNNAME":"安平區","LI":"西門里","LIN":"2鄰","STREET":"安平路","SECT":" ","MAREA":" ","LANE":"８５０巷","ALLEY":"４弄","HOUSE_NO":"１２號","E_COORD97":163804.48000000001,"N_COORD97":2544633.6400000001,"ADDRESS":"安平路８５０巷４弄１２號","OBJECTID":154982},"geometry":{"x":163804.48000000045,"y":2544633.6400000006}},{"attributes":{"ID":154984,"DIS_CODE":0,"TOWNNAME":"安平區","LI":"西門里","LIN":"2鄰","STREET":"安平路","SECT":" ","MAREA":" ","LANE":"８５０巷","ALLEY":"４弄","HOUSE_NO":"７號","E_COORD97":163803.01000000001,"N_COORD97":2544585.3100000001,"ADDRESS":"安平路８５０巷４弄７號","OBJECTID":154983},"geometry":{"x":163803.00999999978,"y":2544585.3099999987}},{"attributes":{"ID":154985,"DIS_CODE":0,"TOWNNAME":"安平區","LI":"西門里","LIN":"2鄰","STREET":"國勝路","SECT":" ","MAREA":" ","LANE":"３５巷","ALLEY":"９弄","HOUSE_NO":"１號","E_COORD97":163830.64999999999,"N_COORD97":2544622.1299999999,"ADDRESS":"國勝路３５巷９弄１號","OBJECTID":154984},"geometry":{"x":163830.65000000224,"y":2544622.1299999971}},{"attributes":{"ID":154986,"DIS_CODE":0,"TOWNNAME":"安平區","LI":"西門里","LIN":"2鄰","STREET":"國勝路","SECT":" ","MAREA":" ","LANE":"３５巷","ALLEY":"９弄","HOUSE_NO":"２號","E_COORD97":163822.56,"N_COORD97":2544633.2599999998,"ADDRESS":"國勝路３５巷９弄２號","OBJECTID":154985},"geometry":{"x":163822.56000000052,"y":2544633.2600000016}},{"attributes":{"ID":154987,"DIS_CODE":0,"TOWNNAME":"安平區","LI":"西門里","LIN":"2鄰","STREET":"國勝路","SECT":" ","MAREA":" ","LANE":"３５巷","ALLEY":"９弄","HOUSE_NO":"３號","E_COORD97":163831.70000000001,"N_COORD97":2544611.8500000001,"ADDRESS":"國勝路３５巷９弄３號","OBJECTID":154986},"geometry":{"x":163831.69999999925,"y":2544611.8500000015}},{"attributes":{"ID":154988,"DIS_CODE":0,"TOWNNAME":"安平區","LI":"西門里","LIN":"2鄰","STREET":"國勝路","SECT":" ","MAREA":" ","LANE":"３５巷","ALLEY":"９弄","HOUSE_NO":"３號之１","E_COORD97":163830.92000000001,"N_COORD97":2544602.6499999999,"ADDRESS":"國勝路３５巷９弄３號之１","OBJECTID":154987},"geometry":{"x":163830.91999999993,"y":2544602.6500000004}},{"attributes":{"ID":154989,"DIS_CODE":0,"TOWNNAME":"新市區","LI":"港墘里","LIN":"20鄰","STREET":"光華街","SECT":" ","MAREA":" ","LANE":" ","ALLEY":" ","HOUSE_NO":"１３４號","E_COORD97":177923.42000000001,"N_COORD97":2552772.9900000002,"ADDRESS":"光華街１３４號","OBJECTID":154988},"geometry":{"x":177923.41999999993,"y":2552772.9900000021}},{"attributes":{"ID":154990,"DIS_CODE":0,"TOWNNAME":"安平區","LI":"西門里","LIN":"2鄰","STREET":"國勝路","SECT":" ","MAREA":" ","LANE":"３５巷","ALLEY":"９弄","HOUSE_NO":"５號","E_COORD97":163832.22,"N_COORD97":2544597.4700000002,"ADDRESS":"國勝路３５巷９弄５號","OBJECTID":154989},"geometry":{"x":163832.21999999974,"y":2544597.4700000007}},{"attributes":{"ID":154991,"DIS_CODE":0,"TOWNNAME":"歸仁區","LI":"看西里","LIN":"2鄰","STREET":"成功六街","SECT":" ","MAREA":" ","LANE":"１１６巷","ALLEY":"１７弄","HOUSE_NO":"６號","E_COORD97":178456.60999999999,"N_COORD97":2540366.2000000002,"ADDRESS":"成功六街１１６巷１７弄６號","OBJECTID":154990},"geometry":{"x":178456.61000000034,"y":2540366.1999999993}},{"attributes":{"ID":154992,"DIS_CODE":0,"TOWNNAME":"歸仁區","LI":"西埔里","LIN":"2鄰","STREET":"保大路","SECT":"二段","MAREA":" ","LANE":"１４５巷","ALLEY":"１２弄","HOUSE_NO":"１０號","E_COORD97":176913.97,"N_COORD97":2544028.2799999998,"ADDRESS":"保大路二段１４５巷１２弄１０號","OBJECTID":154991},"geometry":{"x":176913.96999999974,"y":2544028.2799999975}},{"attributes":{"ID":154993,"DIS_CODE":0,"TOWNNAME":"新營區","LI":"忠政里","LIN":"2鄰","STREET":"中正路","SECT":" ","MAREA":" ","LANE":"３１巷","ALLEY":"９弄","HOUSE_NO":"１３號","E_COORD97":180081.89000000001,"N_COORD97":2579054.0699999998,"ADDRESS":"中正路３１巷９弄１３號","OBJECTID":154992},"geometry":{"x":180081.8900000006,"y":2579054.0700000022}},{"attributes":{"ID":154994,"DIS_CODE":0,"TOWNNAME":"新營區","LI":"忠政里","LIN":"2鄰","STREET":"中正路","SECT":" ","MAREA":" ","LANE":"３１巷","ALLEY":"９弄","HOUSE_NO":"１２號","E_COORD97":180071.60000000001,"N_COORD97":2579039.73,"ADDRESS":"中正路３１巷９弄１２號","OBJECTID":154993},"geometry":{"x":180071.59999999963,"y":2579039.7300000023}},{"attributes":{"ID":154995,"DIS_CODE":0,"TOWNNAME":"歸仁區","LI":"七甲里","LIN":"2鄰","STREET":"七甲五街","SECT":" ","MAREA":" ","LANE":"１０２巷","ALLEY":"１弄","HOUSE_NO":"３２號","E_COORD97":177138.20000000001,"N_COORD97":2542628.9300000002,"ADDRESS":"七甲五街１０２巷１弄３２號","OBJECTID":154994},"geometry":{"x":177138.20000000019,"y":2542628.9300000016}},{"attributes":{"ID":154996,"DIS_CODE":0,"TOWNNAME":"關廟區","LI":"五甲里","LIN":"2鄰","STREET":"旺萊路","SECT":" ","MAREA":" ","LANE":"１０１巷","ALLEY":"１６弄","HOUSE_NO":"７號","E_COORD97":181670.29000000001,"N_COORD97":2539319.25,"ADDRESS":"旺萊路１０１巷１６弄７號","OBJECTID":154995},"geometry":{"x":181670.29000000097,"y":2539319.25}},{"attributes":{"ID":154997,"DIS_CODE":0,"TOWNNAME":"關廟區","LI":"龜洞里","LIN":"2鄰","STREET":"南雄南路","SECT":" ","MAREA":" ","LANE":"６２２巷","ALLEY":"８弄","HOUSE_NO":"６號","E_COORD97":183365.89000000001,"N_COORD97":2533715.29,"ADDRESS":"南雄南路６２２巷８弄６號","OBJECTID":154996},"geometry":{"x":183365.8900000006,"y":2533715.290000001}},{"attributes":{"ID":154998,"DIS_CODE":0,"TOWNNAME":"關廟區","LI":"龜洞里","LIN":"2鄰","STREET":"南雄南路","SECT":" ","MAREA":" ","LANE":"６２２巷","ALLEY":"８弄","HOUSE_NO":"１８號","E_COORD97":183360.09,"N_COORD97":2533735.2999999998,"ADDRESS":"南雄南路６２２巷８弄１８號","OBJECTID":154997},"geometry":{"x":183360.08999999985,"y":2533735.3000000007}},{"attributes":{"ID":154999,"DIS_CODE":0,"TOWNNAME":"將軍區","LI":"西華里","LIN":"5鄰","STREET":" ","SECT":" ","MAREA":"西華","LANE":" ","ALLEY":" ","HOUSE_NO":"６７之１７號","E_COORD97":163634.92000000001,"N_COORD97":2566561.7200000002,"ADDRESS":"西華６７之１７號","OBJECTID":154998},"geometry":{"x":163634.91999999993,"y":2566561.7200000007}},{"attributes":{"ID":155000,"DIS_CODE":0,"TOWNNAME":"將軍區","LI":"西華里","LIN":"5鄰","STREET":" ","SECT":" ","MAREA":"西華","LANE":" ","ALLEY":" ","HOUSE_NO":"６７之１８號","E_COORD97":163635,"N_COORD97":2566565.8999999999,"ADDRESS":"西華６７之１８號","OBJECTID":154999},"geometry":{"x":163635.00000000093,"y":2566565.9000000022}},{"attributes":{"ID":155001,"DIS_CODE":0,"TOWNNAME":"關廟區","LI":"龜洞里","LIN":"2鄰","STREET":"南雄南路","SECT":" ","MAREA":" ","LANE":"６２２巷","ALLEY":"８弄","HOUSE_NO":"１６號","E_COORD97":183361.29000000001,"N_COORD97":2533732.2999999998,"ADDRESS":"南雄南路６２２巷８弄１６號","OBJECTID":155000},"geometry":{"x":183361.2900000019,"y":2533732.3000000007}}]}