{"displayFieldName":"TOWNNAME","fieldAliases":{"ID":"ID","DIS_CODE":"DIS_CODE","TOWNNAME":"TOWNNAME","LI":"LI","LIN":"LIN","STREET":"STREET","SECT":"SECT","MAREA":"MAREA","LANE":"LANE","ALLEY":"ALLEY","HOUSE_NO":"HOUSE_NO","E_COORD97":"E_COORD97","N_COORD97":"N_COORD97","ADDRESS":"ADDRESS","OBJECTID":"OBJECTID"},"geometryType":"esriGeometryPoint","spatialReference":{"wkid":102443,"latestWkid":3826},"fields":[{"name":"ID","type":"esriFieldTypeDouble","alias":"ID"},{"name":"DIS_CODE","type":"esriFieldTypeInteger","alias":"DIS_CODE"},{"name":"TOWNNAME","type":"esriFieldTypeString","alias":"TOWNNAME","length":8},{"name":"LI","type":"esriFieldTypeString","alias":"LI","length":8},{"name":"LIN","type":"esriFieldTypeString","alias":"LIN","length":12},{"name":"STREET","type":"esriFieldTypeString","alias":"STREET","length":20},{"name":"SECT","type":"esriFieldTypeString","alias":"SECT","length":8},{"name":"MAREA","type":"esriFieldTypeString","alias":"MAREA","length":12},{"name":"LANE","type":"esriFieldTypeString","alias":"LANE","length":10},{"name":"ALLEY","type":"esriFieldTypeString","alias":"ALLEY","length":10},{"name":"HOUSE_NO","type":"esriFieldTypeString","alias":"HOUSE_NO","length":20},{"name":"E_COORD97","type":"esriFieldTypeDouble","alias":"E_COORD97"},{"name":"N_COORD97","type":"esriFieldTypeDouble","alias":"N_COORD97"},{"name":"ADDRESS","type":"esriFieldTypeString","alias":"ADDRESS","length":50},{"name":"OBJECTID","type":"esriFieldTypeOID","alias":"OBJECTID"}],"features":[{"attributes":{"ID":90201,"DIS_CODE":0,"TOWNNAME":"北區","LI":"仁愛里","LIN":"10鄰","STREET":"東豐路","SECT":" ","MAREA":" ","LANE":"２２７巷","ALLEY":"２４弄","HOUSE_NO":"１５號四樓之２６","E_COORD97":170217.23000000001,"N_COORD97":2544981.3199999998,"ADDRESS":"東豐路２２７巷２４弄１５號四樓之２６","OBJECTID":90201},"geometry":{"x":170217.23000000045,"y":2544981.3200000003}},{"attributes":{"ID":90202,"DIS_CODE":0,"TOWNNAME":"將軍區","LI":"廣山里","LIN":"10鄰","STREET":" ","SECT":" ","MAREA":"廣山","LANE":" ","ALLEY":" ","HOUSE_NO":"９３號","E_COORD97":159565.67000000001,"N_COORD97":2568949.9500000002,"ADDRESS":"廣山９３號","OBJECTID":90202},"geometry":{"x":159565.67000000086,"y":2568949.950000003}},{"attributes":{"ID":90203,"DIS_CODE":0,"TOWNNAME":"北區","LI":"仁愛里","LIN":"10鄰","STREET":"東豐路","SECT":" ","MAREA":" ","LANE":"２２７巷","ALLEY":"２４弄","HOUSE_NO":"１５號四樓之２７","E_COORD97":170217.23000000001,"N_COORD97":2544981.3199999998,"ADDRESS":"東豐路２２７巷２４弄１５號四樓之２７","OBJECTID":90203},"geometry":{"x":170217.23000000045,"y":2544981.3200000003}},{"attributes":{"ID":90204,"DIS_CODE":0,"TOWNNAME":"永康區","LI":"埔園里","LIN":"15鄰","STREET":"龍埔街","SECT":" ","MAREA":" ","LANE":" ","ALLEY":" ","HOUSE_NO":"５５０號七樓之３","E_COORD97":173517.20999999999,"N_COORD97":2548397.0499999998,"ADDRESS":"龍埔街５５０號七樓之３","OBJECTID":90204},"geometry":{"x":173517.20999999996,"y":2548397.0500000007}},{"attributes":{"ID":90205,"DIS_CODE":0,"TOWNNAME":"玉井區","LI":"層林里","LIN":"12鄰","STREET":" ","SECT":" ","MAREA":"層林","LANE":" ","ALLEY":" ","HOUSE_NO":"１３５號","E_COORD97":191255.41,"N_COORD97":2554700.25,"ADDRESS":"層林１３５號","OBJECTID":90205},"geometry":{"x":191255.41000000108,"y":2554700.2500000019}},{"attributes":{"ID":90206,"DIS_CODE":0,"TOWNNAME":"玉井區","LI":"層林里","LIN":"12鄰","STREET":" ","SECT":" ","MAREA":"層林","LANE":" ","ALLEY":" ","HOUSE_NO":"１４６之１號","E_COORD97":191048.82000000001,"N_COORD97":2553936.29,"ADDRESS":"層林１４６之１號","OBJECTID":90206},"geometry":{"x":191048.8200000003,"y":2553936.290000001}},{"attributes":{"ID":90207,"DIS_CODE":0,"TOWNNAME":"玉井區","LI":"層林里","LIN":"12鄰","STREET":" ","SECT":" ","MAREA":"層林","LANE":" ","ALLEY":" ","HOUSE_NO":"１４０之３號","E_COORD97":191405.91,"N_COORD97":2554244.29,"ADDRESS":"層林１４０之３號","OBJECTID":90207},"geometry":{"x":191405.91000000201,"y":2554244.290000001}},{"attributes":{"ID":90208,"DIS_CODE":0,"TOWNNAME":"玉井區","LI":"層林里","LIN":"12鄰","STREET":" ","SECT":" ","MAREA":"層林","LANE":" ","ALLEY":" ","HOUSE_NO":"１４８號","E_COORD97":191068.82000000001,"N_COORD97":2553675.25,"ADDRESS":"層林１４８號","OBJECTID":90208},"geometry":{"x":191068.8200000003,"y":2553675.2500000019}},{"attributes":{"ID":90209,"DIS_CODE":0,"TOWNNAME":"玉井區","LI":"望明里","LIN":"12鄰","STREET":" ","SECT":" ","MAREA":"望明","LANE":" ","ALLEY":" ","HOUSE_NO":"１３３之６號","E_COORD97":192821.48000000001,"N_COORD97":2556670.2999999998,"ADDRESS":"望明１３３之６號","OBJECTID":90209},"geometry":{"x":192821.48000000138,"y":2556670.3000000026}},{"attributes":{"ID":90210,"DIS_CODE":0,"TOWNNAME":"玉井區","LI":"豐里里","LIN":"12鄰","STREET":" ","SECT":" ","MAREA":"豐里","LANE":" ","ALLEY":" ","HOUSE_NO":"１２０號","E_COORD97":192796.32000000001,"N_COORD97":2560243.2400000002,"ADDRESS":"豐里１２０號","OBJECTID":90210},"geometry":{"x":192796.3200000003,"y":2560243.2400000021}},{"attributes":{"ID":90211,"DIS_CODE":0,"TOWNNAME":"玉井區","LI":"豐里里","LIN":"12鄰","STREET":" ","SECT":" ","MAREA":"豐里","LANE":" ","ALLEY":" ","HOUSE_NO":"１１３之３號","E_COORD97":192938.82000000001,"N_COORD97":2560287.2999999998,"ADDRESS":"豐里１１３之３號","OBJECTID":90211},"geometry":{"x":192938.8200000003,"y":2560287.3000000026}},{"attributes":{"ID":90212,"DIS_CODE":0,"TOWNNAME":"北區","LI":"仁愛里","LIN":"10鄰","STREET":"東豐路","SECT":" ","MAREA":" ","LANE":"２２７巷","ALLEY":"２４弄","HOUSE_NO":"１５號四樓之２８","E_COORD97":170217.23000000001,"N_COORD97":2544981.3199999998,"ADDRESS":"東豐路２２７巷２４弄１５號四樓之２８","OBJECTID":90212},"geometry":{"x":170217.23000000045,"y":2544981.3200000003}},{"attributes":{"ID":90213,"DIS_CODE":0,"TOWNNAME":"北區","LI":"仁愛里","LIN":"10鄰","STREET":"東豐路","SECT":" ","MAREA":" ","LANE":"２２７巷","ALLEY":"２４弄","HOUSE_NO":"１５號四樓之３","E_COORD97":170217.23000000001,"N_COORD97":2544981.3199999998,"ADDRESS":"東豐路２２７巷２４弄１５號四樓之３","OBJECTID":90213},"geometry":{"x":170217.23000000045,"y":2544981.3200000003}},{"attributes":{"ID":90214,"DIS_CODE":0,"TOWNNAME":"北區","LI":"仁愛里","LIN":"10鄰","STREET":"東豐路","SECT":" ","MAREA":" ","LANE":"２２７巷","ALLEY":"２４弄","HOUSE_NO":"１５號四樓之４","E_COORD97":170217.23000000001,"N_COORD97":2544981.3199999998,"ADDRESS":"東豐路２２７巷２４弄１５號四樓之４","OBJECTID":90214},"geometry":{"x":170217.23000000045,"y":2544981.3200000003}},{"attributes":{"ID":90215,"DIS_CODE":0,"TOWNNAME":"北區","LI":"仁愛里","LIN":"10鄰","STREET":"東豐路","SECT":" ","MAREA":" ","LANE":"２２７巷","ALLEY":"２４弄","HOUSE_NO":"１５號四樓之５","E_COORD97":170217.23000000001,"N_COORD97":2544981.3199999998,"ADDRESS":"東豐路２２７巷２４弄１５號四樓之５","OBJECTID":90215},"geometry":{"x":170217.23000000045,"y":2544981.3200000003}},{"attributes":{"ID":90216,"DIS_CODE":0,"TOWNNAME":"北區","LI":"仁愛里","LIN":"10鄰","STREET":"東豐路","SECT":" ","MAREA":" ","LANE":"２２７巷","ALLEY":"２４弄","HOUSE_NO":"１５號四樓之６","E_COORD97":170217.23000000001,"N_COORD97":2544981.3199999998,"ADDRESS":"東豐路２２７巷２４弄１５號四樓之６","OBJECTID":90216},"geometry":{"x":170217.23000000045,"y":2544981.3200000003}},{"attributes":{"ID":90217,"DIS_CODE":0,"TOWNNAME":"北區","LI":"仁愛里","LIN":"10鄰","STREET":"東豐路","SECT":" ","MAREA":" ","LANE":"２２７巷","ALLEY":"２４弄","HOUSE_NO":"１５號四樓之７","E_COORD97":170217.23000000001,"N_COORD97":2544981.3199999998,"ADDRESS":"東豐路２２７巷２４弄１５號四樓之７","OBJECTID":90217},"geometry":{"x":170217.23000000045,"y":2544981.3200000003}},{"attributes":{"ID":90218,"DIS_CODE":0,"TOWNNAME":"北區","LI":"仁愛里","LIN":"10鄰","STREET":"東豐路","SECT":" ","MAREA":" ","LANE":"２２７巷","ALLEY":"２４弄","HOUSE_NO":"１５號四樓之８","E_COORD97":170217.23000000001,"N_COORD97":2544981.3199999998,"ADDRESS":"東豐路２２７巷２４弄１５號四樓之８","OBJECTID":90218},"geometry":{"x":170217.23000000045,"y":2544981.3200000003}},{"attributes":{"ID":90219,"DIS_CODE":0,"TOWNNAME":"北區","LI":"仁愛里","LIN":"10鄰","STREET":"東豐路","SECT":" ","MAREA":" ","LANE":"２２７巷","ALLEY":"２４弄","HOUSE_NO":"１５號四樓之９","E_COORD97":170217.23000000001,"N_COORD97":2544981.3199999998,"ADDRESS":"東豐路２２７巷２４弄１５號四樓之９","OBJECTID":90219},"geometry":{"x":170217.23000000045,"y":2544981.3200000003}},{"attributes":{"ID":90220,"DIS_CODE":0,"TOWNNAME":"安南區","LI":"淵中里","LIN":"14鄰","STREET":"安中路","SECT":"四段","MAREA":" ","LANE":"１５４巷","ALLEY":"９４弄","HOUSE_NO":"２號","E_COORD97":165087.79999999999,"N_COORD97":2550156.52,"ADDRESS":"安中路四段１５４巷９４弄２號","OBJECTID":90220},"geometry":{"x":165087.79999999981,"y":2550156.5199999996}},{"attributes":{"ID":90221,"DIS_CODE":0,"TOWNNAME":"安南區","LI":"海西里","LIN":"5鄰","STREET":"海中街","SECT":" ","MAREA":" ","LANE":"１２１巷","ALLEY":"１００弄","HOUSE_NO":"１０號","E_COORD97":166202.10999999999,"N_COORD97":2548971.54,"ADDRESS":"海中街１２１巷１００弄１０號","OBJECTID":90221},"geometry":{"x":166202.11000000034,"y":2548971.5399999991}},{"attributes":{"ID":90222,"DIS_CODE":0,"TOWNNAME":"善化區","LI":"文正里","LIN":"14鄰","STREET":"陽明路","SECT":" ","MAREA":" ","LANE":"２２３巷","ALLEY":"３弄","HOUSE_NO":"１４號","E_COORD97":176099.85999999999,"N_COORD97":2559582.7599999998,"ADDRESS":"陽明路２２３巷３弄１４號","OBJECTID":90222},"geometry":{"x":176099.86000000034,"y":2559582.7599999998}},{"attributes":{"ID":90223,"DIS_CODE":0,"TOWNNAME":"南區","LI":"金華里","LIN":"10鄰","STREET":"金華路","SECT":"二段","MAREA":" ","LANE":"１４７巷","ALLEY":"３７弄","HOUSE_NO":"２７號三樓","E_COORD97":166891.91,"N_COORD97":2542291.3199999998,"ADDRESS":"金華路二段１４７巷３７弄２７號三樓","OBJECTID":90223},"geometry":{"x":166891.91000000201,"y":2542291.3200000022}},{"attributes":{"ID":90224,"DIS_CODE":0,"TOWNNAME":"南區","LI":"金華里","LIN":"10鄰","STREET":"金華路","SECT":"二段","MAREA":" ","LANE":"１４７巷","ALLEY":"３７弄","HOUSE_NO":"２７號五樓","E_COORD97":166891.91,"N_COORD97":2542291.3199999998,"ADDRESS":"金華路二段１４７巷３７弄２７號五樓","OBJECTID":90224},"geometry":{"x":166891.91000000201,"y":2542291.3200000022}},{"attributes":{"ID":90225,"DIS_CODE":0,"TOWNNAME":"南區","LI":"金華里","LIN":"10鄰","STREET":"金華路","SECT":"二段","MAREA":" ","LANE":"１４７巷","ALLEY":"３７弄","HOUSE_NO":"２７號四樓","E_COORD97":166891.91,"N_COORD97":2542291.3199999998,"ADDRESS":"金華路二段１４７巷３７弄２７號四樓","OBJECTID":90225},"geometry":{"x":166891.91000000201,"y":2542291.3200000022}},{"attributes":{"ID":90226,"DIS_CODE":0,"TOWNNAME":"南區","LI":"金華里","LIN":"10鄰","STREET":"金華路","SECT":"二段","MAREA":" ","LANE":"１４７巷","ALLEY":"３７弄","HOUSE_NO":"２９號二樓","E_COORD97":166871.64000000001,"N_COORD97":2542291.3199999998,"ADDRESS":"金華路二段１４７巷３７弄２９號二樓","OBJECTID":90226},"geometry":{"x":166871.6400000006,"y":2542291.3200000022}},{"attributes":{"ID":90227,"DIS_CODE":0,"TOWNNAME":"南區","LI":"金華里","LIN":"10鄰","STREET":"金華路","SECT":"二段","MAREA":" ","LANE":"１４７巷","ALLEY":"３７弄","HOUSE_NO":"２９號三樓","E_COORD97":166871.64000000001,"N_COORD97":2542291.3199999998,"ADDRESS":"金華路二段１４７巷３７弄２９號三樓","OBJECTID":90227},"geometry":{"x":166871.6400000006,"y":2542291.3200000022}},{"attributes":{"ID":90228,"DIS_CODE":0,"TOWNNAME":"南區","LI":"金華里","LIN":"10鄰","STREET":"金華路","SECT":"二段","MAREA":" ","LANE":"１４７巷","ALLEY":"３７弄","HOUSE_NO":"２９號五樓","E_COORD97":166871.64000000001,"N_COORD97":2542291.3199999998,"ADDRESS":"金華路二段１４７巷３７弄２９號五樓","OBJECTID":90228},"geometry":{"x":166871.6400000006,"y":2542291.3200000022}},{"attributes":{"ID":90229,"DIS_CODE":0,"TOWNNAME":"南區","LI":"金華里","LIN":"10鄰","STREET":"金華路","SECT":"二段","MAREA":" ","LANE":"１４７巷","ALLEY":"３７弄","HOUSE_NO":"２９號四樓","E_COORD97":166871.64000000001,"N_COORD97":2542291.3199999998,"ADDRESS":"金華路二段１４７巷３７弄２９號四樓","OBJECTID":90229},"geometry":{"x":166871.6400000006,"y":2542291.3200000022}},{"attributes":{"ID":90230,"DIS_CODE":0,"TOWNNAME":"南區","LI":"南華里","LIN":"10鄰","STREET":"中華南路","SECT":"二段","MAREA":" ","LANE":"４００巷","ALLEY":"２弄","HOUSE_NO":"１７號二樓","E_COORD97":166502.42999999999,"N_COORD97":2540333.52,"ADDRESS":"中華南路二段４００巷２弄１７號二樓","OBJECTID":90230},"geometry":{"x":166502.4299999997,"y":2540333.5199999996}},{"attributes":{"ID":90231,"DIS_CODE":0,"TOWNNAME":"將軍區","LI":"廣山里","LIN":"10鄰","STREET":" ","SECT":" ","MAREA":"廣山","LANE":" ","ALLEY":" ","HOUSE_NO":"９４號","E_COORD97":159581.92999999999,"N_COORD97":2568950.04,"ADDRESS":"廣山９４號","OBJECTID":90231},"geometry":{"x":159581.93000000063,"y":2568950.040000001}},{"attributes":{"ID":90232,"DIS_CODE":0,"TOWNNAME":"南區","LI":"南華里","LIN":"10鄰","STREET":"中華南路","SECT":"二段","MAREA":" ","LANE":"４００巷","ALLEY":"２弄","HOUSE_NO":"１７號三樓","E_COORD97":166502.42999999999,"N_COORD97":2540333.52,"ADDRESS":"中華南路二段４００巷２弄１７號三樓","OBJECTID":90232},"geometry":{"x":166502.4299999997,"y":2540333.5199999996}},{"attributes":{"ID":90233,"DIS_CODE":0,"TOWNNAME":"南區","LI":"南華里","LIN":"10鄰","STREET":"中華南路","SECT":"二段","MAREA":" ","LANE":"４００巷","ALLEY":"２弄","HOUSE_NO":"１７號五樓","E_COORD97":166502.42999999999,"N_COORD97":2540333.52,"ADDRESS":"中華南路二段４００巷２弄１７號五樓","OBJECTID":90233},"geometry":{"x":166502.4299999997,"y":2540333.5199999996}},{"attributes":{"ID":90234,"DIS_CODE":0,"TOWNNAME":"南區","LI":"南華里","LIN":"10鄰","STREET":"中華南路","SECT":"二段","MAREA":" ","LANE":"４００巷","ALLEY":"２弄","HOUSE_NO":"１７號四樓","E_COORD97":166502.42999999999,"N_COORD97":2540333.52,"ADDRESS":"中華南路二段４００巷２弄１７號四樓","OBJECTID":90234},"geometry":{"x":166502.4299999997,"y":2540333.5199999996}},{"attributes":{"ID":90235,"DIS_CODE":0,"TOWNNAME":"南區","LI":"南華里","LIN":"10鄰","STREET":"中華南路","SECT":"二段","MAREA":" ","LANE":"４００巷","ALLEY":"２弄","HOUSE_NO":"１９號二樓","E_COORD97":166509.57000000001,"N_COORD97":2540333.7599999998,"ADDRESS":"中華南路二段４００巷２弄１９號二樓","OBJECTID":90235},"geometry":{"x":166509.57000000216,"y":2540333.7600000035}},{"attributes":{"ID":90236,"DIS_CODE":0,"TOWNNAME":"南區","LI":"南華里","LIN":"10鄰","STREET":"中華南路","SECT":"二段","MAREA":" ","LANE":"４００巷","ALLEY":"２弄","HOUSE_NO":"１９號三樓","E_COORD97":166509.57000000001,"N_COORD97":2540333.7599999998,"ADDRESS":"中華南路二段４００巷２弄１９號三樓","OBJECTID":90236},"geometry":{"x":166509.57000000216,"y":2540333.7600000035}},{"attributes":{"ID":90237,"DIS_CODE":0,"TOWNNAME":"南區","LI":"南華里","LIN":"10鄰","STREET":"中華南路","SECT":"二段","MAREA":" ","LANE":"４００巷","ALLEY":"２弄","HOUSE_NO":"１９號五樓","E_COORD97":166509.57000000001,"N_COORD97":2540333.7599999998,"ADDRESS":"中華南路二段４００巷２弄１９號五樓","OBJECTID":90237},"geometry":{"x":166509.57000000216,"y":2540333.7600000035}},{"attributes":{"ID":90238,"DIS_CODE":0,"TOWNNAME":"南區","LI":"南華里","LIN":"10鄰","STREET":"中華南路","SECT":"二段","MAREA":" ","LANE":"４００巷","ALLEY":"２弄","HOUSE_NO":"１９號四樓","E_COORD97":166509.57000000001,"N_COORD97":2540333.7599999998,"ADDRESS":"中華南路二段４００巷２弄１９號四樓","OBJECTID":90238},"geometry":{"x":166509.57000000216,"y":2540333.7600000035}},{"attributes":{"ID":90239,"DIS_CODE":0,"TOWNNAME":"南區","LI":"南華里","LIN":"10鄰","STREET":"中華南路","SECT":"二段","MAREA":" ","LANE":"４００巷","ALLEY":"２弄","HOUSE_NO":"２１號二樓","E_COORD97":166518.48000000001,"N_COORD97":2540333.4100000001,"ADDRESS":"中華南路二段４００巷２弄２１號二樓","OBJECTID":90239},"geometry":{"x":166518.48000000045,"y":2540333.410000002}},{"attributes":{"ID":90240,"DIS_CODE":0,"TOWNNAME":"南區","LI":"南華里","LIN":"10鄰","STREET":"中華南路","SECT":"二段","MAREA":" ","LANE":"４００巷","ALLEY":"２弄","HOUSE_NO":"２１號三樓","E_COORD97":166518.48000000001,"N_COORD97":2540333.4100000001,"ADDRESS":"中華南路二段４００巷２弄２１號三樓","OBJECTID":90240},"geometry":{"x":166518.48000000045,"y":2540333.410000002}},{"attributes":{"ID":90241,"DIS_CODE":0,"TOWNNAME":"北區","LI":"成功里","LIN":"10鄰","STREET":"北成路","SECT":" ","MAREA":" ","LANE":"２０巷","ALLEY":"１弄","HOUSE_NO":"２０號","E_COORD97":169207.91,"N_COORD97":2546632.3900000001,"ADDRESS":"北成路２０巷１弄２０號","OBJECTID":90241},"geometry":{"x":169207.91000000108,"y":2546632.3900000006}},{"attributes":{"ID":90242,"DIS_CODE":0,"TOWNNAME":"南區","LI":"南華里","LIN":"10鄰","STREET":"中華南路","SECT":"二段","MAREA":" ","LANE":"４００巷","ALLEY":"２弄","HOUSE_NO":"２１號五樓","E_COORD97":166518.48000000001,"N_COORD97":2540333.4100000001,"ADDRESS":"中華南路二段４００巷２弄２１號五樓","OBJECTID":90242},"geometry":{"x":166518.48000000045,"y":2540333.410000002}},{"attributes":{"ID":90243,"DIS_CODE":0,"TOWNNAME":"南區","LI":"南華里","LIN":"10鄰","STREET":"中華南路","SECT":"二段","MAREA":" ","LANE":"４００巷","ALLEY":"２弄","HOUSE_NO":"２１號四樓","E_COORD97":166518.48000000001,"N_COORD97":2540333.4100000001,"ADDRESS":"中華南路二段４００巷２弄２１號四樓","OBJECTID":90243},"geometry":{"x":166518.48000000045,"y":2540333.410000002}},{"attributes":{"ID":90244,"DIS_CODE":0,"TOWNNAME":"南區","LI":"南華里","LIN":"10鄰","STREET":"中華南路","SECT":"二段","MAREA":" ","LANE":"４００巷","ALLEY":"２弄","HOUSE_NO":"２３號二樓","E_COORD97":166526.91,"N_COORD97":2540333.8799999999,"ADDRESS":"中華南路二段４００巷２弄２３號二樓","OBJECTID":90244},"geometry":{"x":166526.91000000015,"y":2540333.879999999}},{"attributes":{"ID":90245,"DIS_CODE":0,"TOWNNAME":"南區","LI":"南華里","LIN":"10鄰","STREET":"中華南路","SECT":"二段","MAREA":" ","LANE":"４００巷","ALLEY":"２弄","HOUSE_NO":"２３號三樓","E_COORD97":166526.91,"N_COORD97":2540333.8799999999,"ADDRESS":"中華南路二段４００巷２弄２３號三樓","OBJECTID":90245},"geometry":{"x":166526.91000000015,"y":2540333.879999999}},{"attributes":{"ID":90246,"DIS_CODE":0,"TOWNNAME":"南區","LI":"南華里","LIN":"10鄰","STREET":"中華南路","SECT":"二段","MAREA":" ","LANE":"４００巷","ALLEY":"２弄","HOUSE_NO":"２３號五樓","E_COORD97":166526.91,"N_COORD97":2540333.8799999999,"ADDRESS":"中華南路二段４００巷２弄２３號五樓","OBJECTID":90246},"geometry":{"x":166526.91000000015,"y":2540333.879999999}},{"attributes":{"ID":90247,"DIS_CODE":0,"TOWNNAME":"南區","LI":"南華里","LIN":"10鄰","STREET":"中華南路","SECT":"二段","MAREA":" ","LANE":"４００巷","ALLEY":"２弄","HOUSE_NO":"２３號四樓","E_COORD97":166526.91,"N_COORD97":2540333.8799999999,"ADDRESS":"中華南路二段４００巷２弄２３號四樓","OBJECTID":90247},"geometry":{"x":166526.91000000015,"y":2540333.879999999}},{"attributes":{"ID":90248,"DIS_CODE":0,"TOWNNAME":"南區","LI":"南華里","LIN":"10鄰","STREET":"中華南路","SECT":"二段","MAREA":" ","LANE":"４００巷","ALLEY":"２弄","HOUSE_NO":"２５號二樓","E_COORD97":166535.45999999999,"N_COORD97":2540333.52,"ADDRESS":"中華南路二段４００巷２弄２５號二樓","OBJECTID":90248},"geometry":{"x":166535.46000000089,"y":2540333.5199999996}},{"attributes":{"ID":90249,"DIS_CODE":0,"TOWNNAME":"南區","LI":"南華里","LIN":"10鄰","STREET":"中華南路","SECT":"二段","MAREA":" ","LANE":"４００巷","ALLEY":"２弄","HOUSE_NO":"２５號三樓","E_COORD97":166535.45999999999,"N_COORD97":2540333.52,"ADDRESS":"中華南路二段４００巷２弄２５號三樓","OBJECTID":90249},"geometry":{"x":166535.46000000089,"y":2540333.5199999996}},{"attributes":{"ID":90250,"DIS_CODE":0,"TOWNNAME":"南區","LI":"南華里","LIN":"10鄰","STREET":"中華南路","SECT":"二段","MAREA":" ","LANE":"４００巷","ALLEY":"２弄","HOUSE_NO":"２５號五樓","E_COORD97":166535.45999999999,"N_COORD97":2540333.52,"ADDRESS":"中華南路二段４００巷２弄２５號五樓","OBJECTID":90250},"geometry":{"x":166535.46000000089,"y":2540333.5199999996}},{"attributes":{"ID":90251,"DIS_CODE":0,"TOWNNAME":"南區","LI":"南華里","LIN":"10鄰","STREET":"中華南路","SECT":"二段","MAREA":" ","LANE":"４００巷","ALLEY":"２弄","HOUSE_NO":"２５號四樓","E_COORD97":166535.45999999999,"N_COORD97":2540333.52,"ADDRESS":"中華南路二段４００巷２弄２５號四樓","OBJECTID":90251},"geometry":{"x":166535.46000000089,"y":2540333.5199999996}},{"attributes":{"ID":90252,"DIS_CODE":0,"TOWNNAME":"南區","LI":"南華里","LIN":"10鄰","STREET":"中華南路","SECT":"二段","MAREA":" ","LANE":"４００巷","ALLEY":"２弄","HOUSE_NO":"２７號二樓","E_COORD97":166545.64999999999,"N_COORD97":2540334.1099999999,"ADDRESS":"中華南路二段４００巷２弄２７號二樓","OBJECTID":90252},"geometry":{"x":166545.65000000037,"y":2540334.1100000031}},{"attributes":{"ID":90253,"DIS_CODE":0,"TOWNNAME":"南區","LI":"南華里","LIN":"10鄰","STREET":"中華南路","SECT":"二段","MAREA":" ","LANE":"４００巷","ALLEY":"２弄","HOUSE_NO":"２７號三樓","E_COORD97":166545.64999999999,"N_COORD97":2540334.1099999999,"ADDRESS":"中華南路二段４００巷２弄２７號三樓","OBJECTID":90253},"geometry":{"x":166545.65000000037,"y":2540334.1100000031}},{"attributes":{"ID":90254,"DIS_CODE":0,"TOWNNAME":"南區","LI":"南華里","LIN":"10鄰","STREET":"中華南路","SECT":"二段","MAREA":" ","LANE":"４００巷","ALLEY":"２弄","HOUSE_NO":"２７號五樓","E_COORD97":166545.64999999999,"N_COORD97":2540334.1099999999,"ADDRESS":"中華南路二段４００巷２弄２７號五樓","OBJECTID":90254},"geometry":{"x":166545.65000000037,"y":2540334.1100000031}},{"attributes":{"ID":90255,"DIS_CODE":0,"TOWNNAME":"南區","LI":"南華里","LIN":"10鄰","STREET":"中華南路","SECT":"二段","MAREA":" ","LANE":"４００巷","ALLEY":"２弄","HOUSE_NO":"２７號四樓","E_COORD97":166545.64999999999,"N_COORD97":2540334.1099999999,"ADDRESS":"中華南路二段４００巷２弄２７號四樓","OBJECTID":90255},"geometry":{"x":166545.65000000037,"y":2540334.1100000031}},{"attributes":{"ID":90256,"DIS_CODE":0,"TOWNNAME":"南區","LI":"南華里","LIN":"10鄰","STREET":"中華南路","SECT":"二段","MAREA":" ","LANE":"４００巷","ALLEY":"４弄","HOUSE_NO":"１８號二樓","E_COORD97":166502.31,"N_COORD97":2540353.8900000001,"ADDRESS":"中華南路二段４００巷４弄１８號二樓","OBJECTID":90256},"geometry":{"x":166502.31000000052,"y":2540353.8900000043}},{"attributes":{"ID":90257,"DIS_CODE":0,"TOWNNAME":"南區","LI":"南華里","LIN":"10鄰","STREET":"中華南路","SECT":"二段","MAREA":" ","LANE":"４００巷","ALLEY":"４弄","HOUSE_NO":"１８號三樓","E_COORD97":166502.31,"N_COORD97":2540353.8900000001,"ADDRESS":"中華南路二段４００巷４弄１８號三樓","OBJECTID":90257},"geometry":{"x":166502.31000000052,"y":2540353.8900000043}},{"attributes":{"ID":90258,"DIS_CODE":0,"TOWNNAME":"將軍區","LI":"廣山里","LIN":"10鄰","STREET":" ","SECT":" ","MAREA":"廣山","LANE":" ","ALLEY":" ","HOUSE_NO":"９５號","E_COORD97":159590.72,"N_COORD97":2568993.48,"ADDRESS":"廣山９５號","OBJECTID":90258},"geometry":{"x":159590.71999999974,"y":2568993.4800000004}},{"attributes":{"ID":90259,"DIS_CODE":0,"TOWNNAME":"南區","LI":"南華里","LIN":"10鄰","STREET":"中華南路","SECT":"二段","MAREA":" ","LANE":"４００巷","ALLEY":"４弄","HOUSE_NO":"１８號五樓","E_COORD97":166502.31,"N_COORD97":2540353.8900000001,"ADDRESS":"中華南路二段４００巷４弄１８號五樓","OBJECTID":90259},"geometry":{"x":166502.31000000052,"y":2540353.8900000043}},{"attributes":{"ID":90260,"DIS_CODE":0,"TOWNNAME":"南區","LI":"南華里","LIN":"10鄰","STREET":"中華南路","SECT":"二段","MAREA":" ","LANE":"４００巷","ALLEY":"４弄","HOUSE_NO":"１８號四樓","E_COORD97":166502.31,"N_COORD97":2540353.8900000001,"ADDRESS":"中華南路二段４００巷４弄１８號四樓","OBJECTID":90260},"geometry":{"x":166502.31000000052,"y":2540353.8900000043}},{"attributes":{"ID":90261,"DIS_CODE":0,"TOWNNAME":"南區","LI":"南華里","LIN":"10鄰","STREET":"中華南路","SECT":"二段","MAREA":" ","LANE":"４００巷","ALLEY":"４弄","HOUSE_NO":"２０號二樓","E_COORD97":166510.75,"N_COORD97":2540353.6499999999,"ADDRESS":"中華南路二段４００巷４弄２０號二樓","OBJECTID":90261},"geometry":{"x":166510.75,"y":2540353.6500000004}},{"attributes":{"ID":90262,"DIS_CODE":0,"TOWNNAME":"南區","LI":"南華里","LIN":"10鄰","STREET":"中華南路","SECT":"二段","MAREA":" ","LANE":"４００巷","ALLEY":"４弄","HOUSE_NO":"２０號三樓","E_COORD97":166510.75,"N_COORD97":2540353.6499999999,"ADDRESS":"中華南路二段４００巷４弄２０號三樓","OBJECTID":90262},"geometry":{"x":166510.75,"y":2540353.6500000004}},{"attributes":{"ID":90263,"DIS_CODE":0,"TOWNNAME":"南區","LI":"南華里","LIN":"10鄰","STREET":"中華南路","SECT":"二段","MAREA":" ","LANE":"４００巷","ALLEY":"４弄","HOUSE_NO":"２０號五樓","E_COORD97":166510.75,"N_COORD97":2540353.6499999999,"ADDRESS":"中華南路二段４００巷４弄２０號五樓","OBJECTID":90263},"geometry":{"x":166510.75,"y":2540353.6500000004}},{"attributes":{"ID":90264,"DIS_CODE":0,"TOWNNAME":"南區","LI":"南華里","LIN":"10鄰","STREET":"中華南路","SECT":"二段","MAREA":" ","LANE":"４００巷","ALLEY":"４弄","HOUSE_NO":"２０號四樓","E_COORD97":166510.75,"N_COORD97":2540353.6499999999,"ADDRESS":"中華南路二段４００巷４弄２０號四樓","OBJECTID":90264},"geometry":{"x":166510.75,"y":2540353.6500000004}},{"attributes":{"ID":90265,"DIS_CODE":0,"TOWNNAME":"南區","LI":"南華里","LIN":"10鄰","STREET":"中華南路","SECT":"二段","MAREA":" ","LANE":"４００巷","ALLEY":"４弄","HOUSE_NO":"２２號二樓","E_COORD97":166518.82999999999,"N_COORD97":2540354.1200000001,"ADDRESS":"中華南路二段４００巷４弄２２號二樓","OBJECTID":90265},"geometry":{"x":166518.83000000007,"y":2540354.1200000029}},{"attributes":{"ID":90266,"DIS_CODE":0,"TOWNNAME":"南區","LI":"南華里","LIN":"10鄰","STREET":"中華南路","SECT":"二段","MAREA":" ","LANE":"４００巷","ALLEY":"４弄","HOUSE_NO":"２２號三樓","E_COORD97":166518.82999999999,"N_COORD97":2540354.1200000001,"ADDRESS":"中華南路二段４００巷４弄２２號三樓","OBJECTID":90266},"geometry":{"x":166518.83000000007,"y":2540354.1200000029}},{"attributes":{"ID":90267,"DIS_CODE":0,"TOWNNAME":"南區","LI":"南華里","LIN":"10鄰","STREET":"中華南路","SECT":"二段","MAREA":" ","LANE":"４００巷","ALLEY":"４弄","HOUSE_NO":"２２號五樓","E_COORD97":166518.82999999999,"N_COORD97":2540354.1200000001,"ADDRESS":"中華南路二段４００巷４弄２２號五樓","OBJECTID":90267},"geometry":{"x":166518.83000000007,"y":2540354.1200000029}},{"attributes":{"ID":90268,"DIS_CODE":0,"TOWNNAME":"南區","LI":"南華里","LIN":"10鄰","STREET":"中華南路","SECT":"二段","MAREA":" ","LANE":"４００巷","ALLEY":"４弄","HOUSE_NO":"２２號四樓","E_COORD97":166518.82999999999,"N_COORD97":2540354.1200000001,"ADDRESS":"中華南路二段４００巷４弄２２號四樓","OBJECTID":90268},"geometry":{"x":166518.83000000007,"y":2540354.1200000029}},{"attributes":{"ID":90269,"DIS_CODE":0,"TOWNNAME":"南區","LI":"南華里","LIN":"10鄰","STREET":"中華南路","SECT":"二段","MAREA":" ","LANE":"４００巷","ALLEY":"４弄","HOUSE_NO":"２４號二樓","E_COORD97":166527.38,"N_COORD97":2540354.2400000002,"ADDRESS":"中華南路二段４００巷４弄２４號二樓","OBJECTID":90269},"geometry":{"x":166527.38000000175,"y":2540354.2399999984}},{"attributes":{"ID":90270,"DIS_CODE":0,"TOWNNAME":"南區","LI":"南華里","LIN":"10鄰","STREET":"中華南路","SECT":"二段","MAREA":" ","LANE":"４００巷","ALLEY":"４弄","HOUSE_NO":"２４號三樓","E_COORD97":166527.38,"N_COORD97":2540354.2400000002,"ADDRESS":"中華南路二段４００巷４弄２４號三樓","OBJECTID":90270},"geometry":{"x":166527.38000000175,"y":2540354.2399999984}},{"attributes":{"ID":90271,"DIS_CODE":0,"TOWNNAME":"南區","LI":"南華里","LIN":"10鄰","STREET":"中華南路","SECT":"二段","MAREA":" ","LANE":"４００巷","ALLEY":"４弄","HOUSE_NO":"２４號五樓","E_COORD97":166527.38,"N_COORD97":2540354.2400000002,"ADDRESS":"中華南路二段４００巷４弄２４號五樓","OBJECTID":90271},"geometry":{"x":166527.38000000175,"y":2540354.2399999984}},{"attributes":{"ID":90272,"DIS_CODE":0,"TOWNNAME":"南區","LI":"南華里","LIN":"10鄰","STREET":"中華南路","SECT":"二段","MAREA":" ","LANE":"４００巷","ALLEY":"４弄","HOUSE_NO":"２４號四樓","E_COORD97":166527.38,"N_COORD97":2540354.2400000002,"ADDRESS":"中華南路二段４００巷４弄２４號四樓","OBJECTID":90272},"geometry":{"x":166527.38000000175,"y":2540354.2399999984}},{"attributes":{"ID":90273,"DIS_CODE":0,"TOWNNAME":"南區","LI":"南華里","LIN":"10鄰","STREET":"中華南路","SECT":"二段","MAREA":" ","LANE":"４００巷","ALLEY":"４弄","HOUSE_NO":"２６號二樓","E_COORD97":166535.57999999999,"N_COORD97":2540353.4199999999,"ADDRESS":"中華南路二段４００巷４弄２６號二樓","OBJECTID":90273},"geometry":{"x":166535.58000000007,"y":2540353.4200000018}},{"attributes":{"ID":90274,"DIS_CODE":0,"TOWNNAME":"南區","LI":"南華里","LIN":"10鄰","STREET":"中華南路","SECT":"二段","MAREA":" ","LANE":"４００巷","ALLEY":"４弄","HOUSE_NO":"２６號三樓","E_COORD97":166535.57999999999,"N_COORD97":2540353.4199999999,"ADDRESS":"中華南路二段４００巷４弄２６號三樓","OBJECTID":90274},"geometry":{"x":166535.58000000007,"y":2540353.4200000018}},{"attributes":{"ID":90275,"DIS_CODE":0,"TOWNNAME":"東山區","LI":"東河里","LIN":"12鄰","STREET":" ","SECT":" ","MAREA":"吉貝耍","LANE":" ","ALLEY":" ","HOUSE_NO":"１１２號","E_COORD97":186865.88,"N_COORD97":2577135.0299999998,"ADDRESS":"吉貝耍１１２號","OBJECTID":90275},"geometry":{"x":186865.87999999989,"y":2577135.0300000012}},{"attributes":{"ID":90276,"DIS_CODE":0,"TOWNNAME":"南區","LI":"南華里","LIN":"10鄰","STREET":"中華南路","SECT":"二段","MAREA":" ","LANE":"４００巷","ALLEY":"４弄","HOUSE_NO":"２６號五樓","E_COORD97":166535.57999999999,"N_COORD97":2540353.4199999999,"ADDRESS":"中華南路二段４００巷４弄２６號五樓","OBJECTID":90276},"geometry":{"x":166535.58000000007,"y":2540353.4200000018}},{"attributes":{"ID":90277,"DIS_CODE":0,"TOWNNAME":"南區","LI":"南華里","LIN":"10鄰","STREET":"中華南路","SECT":"二段","MAREA":" ","LANE":"４００巷","ALLEY":"４弄","HOUSE_NO":"２６號四樓","E_COORD97":166535.57999999999,"N_COORD97":2540353.4199999999,"ADDRESS":"中華南路二段４００巷４弄２６號四樓","OBJECTID":90277},"geometry":{"x":166535.58000000007,"y":2540353.4200000018}},{"attributes":{"ID":90278,"DIS_CODE":0,"TOWNNAME":"南區","LI":"南華里","LIN":"10鄰","STREET":"中華南路","SECT":"二段","MAREA":" ","LANE":"４００巷","ALLEY":"４弄","HOUSE_NO":"２８號二樓","E_COORD97":166544.48000000001,"N_COORD97":2540354.2400000002,"ADDRESS":"中華南路二段４００巷４弄２８號二樓","OBJECTID":90278},"geometry":{"x":166544.48000000138,"y":2540354.2399999984}},{"attributes":{"ID":90279,"DIS_CODE":0,"TOWNNAME":"南區","LI":"南華里","LIN":"10鄰","STREET":"中華南路","SECT":"二段","MAREA":" ","LANE":"４００巷","ALLEY":"４弄","HOUSE_NO":"２８號三樓","E_COORD97":166544.48000000001,"N_COORD97":2540354.2400000002,"ADDRESS":"中華南路二段４００巷４弄２８號三樓","OBJECTID":90279},"geometry":{"x":166544.48000000138,"y":2540354.2399999984}},{"attributes":{"ID":90280,"DIS_CODE":0,"TOWNNAME":"南區","LI":"南華里","LIN":"10鄰","STREET":"中華南路","SECT":"二段","MAREA":" ","LANE":"４００巷","ALLEY":"４弄","HOUSE_NO":"２８號五樓","E_COORD97":166544.48000000001,"N_COORD97":2540354.2400000002,"ADDRESS":"中華南路二段４００巷４弄２８號五樓","OBJECTID":90280},"geometry":{"x":166544.48000000138,"y":2540354.2399999984}},{"attributes":{"ID":90281,"DIS_CODE":0,"TOWNNAME":"南區","LI":"南華里","LIN":"10鄰","STREET":"中華南路","SECT":"二段","MAREA":" ","LANE":"４００巷","ALLEY":"４弄","HOUSE_NO":"２８號四樓","E_COORD97":166544.48000000001,"N_COORD97":2540354.2400000002,"ADDRESS":"中華南路二段４００巷４弄２８號四樓","OBJECTID":90281},"geometry":{"x":166544.48000000138,"y":2540354.2399999984}},{"attributes":{"ID":90282,"DIS_CODE":0,"TOWNNAME":"北區","LI":"力行里","LIN":"10鄰","STREET":"開南街","SECT":" ","MAREA":" ","LANE":"２７５巷","ALLEY":"１８弄","HOUSE_NO":"２２號之１二樓","E_COORD97":171034.03,"N_COORD97":2545167.7999999998,"ADDRESS":"開南街２７５巷１８弄２２號之１二樓","OBJECTID":90282},"geometry":{"x":171034.03000000026,"y":2545167.8000000007}},{"attributes":{"ID":90283,"DIS_CODE":0,"TOWNNAME":"北區","LI":"力行里","LIN":"10鄰","STREET":"開南街","SECT":" ","MAREA":" ","LANE":"２７５巷","ALLEY":"１８弄","HOUSE_NO":"２２號之１三樓","E_COORD97":171034.03,"N_COORD97":2545167.7999999998,"ADDRESS":"開南街２７５巷１８弄２２號之１三樓","OBJECTID":90283},"geometry":{"x":171034.03000000026,"y":2545167.8000000007}},{"attributes":{"ID":90284,"DIS_CODE":0,"TOWNNAME":"北區","LI":"力行里","LIN":"10鄰","STREET":"開南街","SECT":" ","MAREA":" ","LANE":"２７５巷","ALLEY":"１８弄","HOUSE_NO":"２２號之１五樓","E_COORD97":171034.03,"N_COORD97":2545167.7999999998,"ADDRESS":"開南街２７５巷１８弄２２號之１五樓","OBJECTID":90284},"geometry":{"x":171034.03000000026,"y":2545167.8000000007}},{"attributes":{"ID":90285,"DIS_CODE":0,"TOWNNAME":"北區","LI":"力行里","LIN":"10鄰","STREET":"開南街","SECT":" ","MAREA":" ","LANE":"２７５巷","ALLEY":"１８弄","HOUSE_NO":"２２號之１四樓","E_COORD97":171034.03,"N_COORD97":2545167.7999999998,"ADDRESS":"開南街２７５巷１８弄２２號之１四樓","OBJECTID":90285},"geometry":{"x":171034.03000000026,"y":2545167.8000000007}},{"attributes":{"ID":90286,"DIS_CODE":0,"TOWNNAME":"玉井區","LI":"望明里","LIN":"12鄰","STREET":" ","SECT":" ","MAREA":"望明","LANE":" ","ALLEY":" ","HOUSE_NO":"１２０號","E_COORD97":193069.29000000001,"N_COORD97":2556321.2400000002,"ADDRESS":"望明１２０號","OBJECTID":90286},"geometry":{"x":193069.29000000004,"y":2556321.2400000021}},{"attributes":{"ID":90287,"DIS_CODE":0,"TOWNNAME":"安平區","LI":"平安里","LIN":"10鄰","STREET":"安平路","SECT":" ","MAREA":" ","LANE":"４４６巷","ALLEY":"１７弄","HOUSE_NO":"１０號二樓之１","E_COORD97":165243.04999999999,"N_COORD97":2544376.6899999999,"ADDRESS":"安平路４４６巷１７弄１０號二樓之１","OBJECTID":90287},"geometry":{"x":165243.05000000075,"y":2544376.6900000013}},{"attributes":{"ID":90288,"DIS_CODE":0,"TOWNNAME":"關廟區","LI":"關廟里","LIN":"8鄰","STREET":"民生街","SECT":" ","MAREA":" ","LANE":" ","ALLEY":" ","HOUSE_NO":"１１６號","E_COORD97":180901.29000000001,"N_COORD97":2539718.29,"ADDRESS":"民生街１１６號","OBJECTID":90288},"geometry":{"x":180901.29000000004,"y":2539718.2899999991}},{"attributes":{"ID":90289,"DIS_CODE":0,"TOWNNAME":"玉井區","LI":"望明里","LIN":"12鄰","STREET":" ","SECT":" ","MAREA":"望明","LANE":" ","ALLEY":" ","HOUSE_NO":"１３３之５號","E_COORD97":192822.17999999999,"N_COORD97":2556666.2999999998,"ADDRESS":"望明１３３之５號","OBJECTID":90289},"geometry":{"x":192822.1799999997,"y":2556666.3000000026}},{"attributes":{"ID":90290,"DIS_CODE":0,"TOWNNAME":"玉井區","LI":"中正里","LIN":"12鄰","STREET":" ","SECT":" ","MAREA":"中正","LANE":" ","ALLEY":" ","HOUSE_NO":"１３７號","E_COORD97":195717.60000000001,"N_COORD97":2560719.25,"ADDRESS":"中正１３７號","OBJECTID":90290},"geometry":{"x":195717.59999999963,"y":2560719.25}},{"attributes":{"ID":90291,"DIS_CODE":0,"TOWNNAME":"玉井區","LI":"中正里","LIN":"12鄰","STREET":" ","SECT":" ","MAREA":"中正","LANE":" ","ALLEY":" ","HOUSE_NO":"１２８號之１","E_COORD97":195540.23999999999,"N_COORD97":2560665.29,"ADDRESS":"中正１２８號之１","OBJECTID":90291},"geometry":{"x":195540.24000000115,"y":2560665.290000001}},{"attributes":{"ID":90292,"DIS_CODE":0,"TOWNNAME":"玉井區","LI":"中正里","LIN":"12鄰","STREET":" ","SECT":" ","MAREA":"中正","LANE":" ","ALLEY":" ","HOUSE_NO":"１３６號之１","E_COORD97":195693.23999999999,"N_COORD97":2560688.29,"ADDRESS":"中正１３６號之１","OBJECTID":90292},"geometry":{"x":195693.24000000115,"y":2560688.2899999972}},{"attributes":{"ID":90293,"DIS_CODE":0,"TOWNNAME":"玉井區","LI":"中正里","LIN":"12鄰","STREET":" ","SECT":" ","MAREA":"中正","LANE":" ","ALLEY":" ","HOUSE_NO":"１３３號","E_COORD97":195660.51000000001,"N_COORD97":2560695.2400000002,"ADDRESS":"中正１３３號","OBJECTID":90293},"geometry":{"x":195660.51000000071,"y":2560695.2400000002}},{"attributes":{"ID":90294,"DIS_CODE":0,"TOWNNAME":"玉井區","LI":"中正里","LIN":"12鄰","STREET":" ","SECT":" ","MAREA":"中正","LANE":" ","ALLEY":" ","HOUSE_NO":"１２８號","E_COORD97":195568.39999999999,"N_COORD97":2560683.2400000002,"ADDRESS":"中正１２８號","OBJECTID":90294},"geometry":{"x":195568.4000000013,"y":2560683.2400000039}},{"attributes":{"ID":90295,"DIS_CODE":0,"TOWNNAME":"玉井區","LI":"中正里","LIN":"12鄰","STREET":" ","SECT":" ","MAREA":"中正","LANE":" ","ALLEY":" ","HOUSE_NO":"１３０號","E_COORD97":195515.29999999999,"N_COORD97":2560645.25,"ADDRESS":"中正１３０號","OBJECTID":90295},"geometry":{"x":195515.29999999981,"y":2560645.25}},{"attributes":{"ID":90296,"DIS_CODE":0,"TOWNNAME":"安平區","LI":"平安里","LIN":"10鄰","STREET":"安平路","SECT":" ","MAREA":" ","LANE":"４４６巷","ALLEY":"１７弄","HOUSE_NO":"１０號二樓之２","E_COORD97":165243.04999999999,"N_COORD97":2544376.6899999999,"ADDRESS":"安平路４４６巷１７弄１０號二樓之２","OBJECTID":90296},"geometry":{"x":165243.05000000075,"y":2544376.6900000013}},{"attributes":{"ID":90297,"DIS_CODE":0,"TOWNNAME":"永康區","LI":"正強里","LIN":"10鄰","STREET":"正義街","SECT":" ","MAREA":" ","LANE":"１０１巷","ALLEY":"２０弄","HOUSE_NO":"８號","E_COORD97":173420.51000000001,"N_COORD97":2547488.6499999999,"ADDRESS":"正義街１０１巷２０弄８號","OBJECTID":90297},"geometry":{"x":173420.50999999885,"y":2547488.6500000041}},{"attributes":{"ID":90298,"DIS_CODE":0,"TOWNNAME":"玉井區","LI":"中正里","LIN":"12鄰","STREET":" ","SECT":" ","MAREA":"中正","LANE":" ","ALLEY":" ","HOUSE_NO":"１３１號","E_COORD97":195623.70999999999,"N_COORD97":2560696.2400000002,"ADDRESS":"中正１３１號","OBJECTID":90298},"geometry":{"x":195623.71000000089,"y":2560696.2400000002}},{"attributes":{"ID":90299,"DIS_CODE":0,"TOWNNAME":"玉井區","LI":"中正里","LIN":"12鄰","STREET":" ","SECT":" ","MAREA":"中正","LANE":" ","ALLEY":" ","HOUSE_NO":"１３６號之２","E_COORD97":195713.07000000001,"N_COORD97":2560686.29,"ADDRESS":"中正１３６號之２","OBJECTID":90299},"geometry":{"x":195713.07000000123,"y":2560686.290000001}},{"attributes":{"ID":90300,"DIS_CODE":0,"TOWNNAME":"安南區","LI":"總頭里","LIN":"10鄰","STREET":"長溪路","SECT":"二段","MAREA":" ","LANE":"５８１巷","ALLEY":"６６弄","HOUSE_NO":"１３號","E_COORD97":168084.63,"N_COORD97":2550559.8900000001,"ADDRESS":"長溪路二段５８１巷６６弄１３號","OBJECTID":90300},"geometry":{"x":168084.62999999989,"y":2550559.8900000025}},{"attributes":{"ID":90301,"DIS_CODE":0,"TOWNNAME":"安南區","LI":"總頭里","LIN":"10鄰","STREET":"長溪路","SECT":"二段","MAREA":" ","LANE":"５８１巷","ALLEY":"６６弄","HOUSE_NO":"１５號","E_COORD97":168077.39999999999,"N_COORD97":2550543.1899999999,"ADDRESS":"長溪路二段５８１巷６６弄１５號","OBJECTID":90301},"geometry":{"x":168077.4000000013,"y":2550543.1900000013}},{"attributes":{"ID":90302,"DIS_CODE":0,"TOWNNAME":"安南區","LI":"總頭里","LIN":"10鄰","STREET":"長溪路","SECT":"二段","MAREA":" ","LANE":"５８１巷","ALLEY":"６６弄","HOUSE_NO":"５號","E_COORD97":168114.47,"N_COORD97":2550568.9199999999,"ADDRESS":"長溪路二段５８１巷６６弄５號","OBJECTID":90302},"geometry":{"x":168114.46999999974,"y":2550568.9200000018}},{"attributes":{"ID":90303,"DIS_CODE":0,"TOWNNAME":"安南區","LI":"總頭里","LIN":"10鄰","STREET":"長溪路","SECT":"二段","MAREA":" ","LANE":"５８１巷","ALLEY":"６６弄","HOUSE_NO":"７號","E_COORD97":168098.20000000001,"N_COORD97":2550570.7200000002,"ADDRESS":"長溪路二段５８１巷６６弄７號","OBJECTID":90303},"geometry":{"x":168098.20000000019,"y":2550570.7200000025}},{"attributes":{"ID":90304,"DIS_CODE":0,"TOWNNAME":"安南區","LI":"總頭里","LIN":"10鄰","STREET":"長溪路","SECT":"二段","MAREA":" ","LANE":"５８１巷","ALLEY":"６６弄","HOUSE_NO":"８號","E_COORD97":168104.98000000001,"N_COORD97":2550599.6299999999,"ADDRESS":"長溪路二段５８１巷６６弄８號","OBJECTID":90304},"geometry":{"x":168104.98000000045,"y":2550599.6300000027}},{"attributes":{"ID":90305,"DIS_CODE":0,"TOWNNAME":"安南區","LI":"原佃里","LIN":"10鄰","STREET":"本原街","SECT":"一段","MAREA":" ","LANE":"４４０巷","ALLEY":"１０弄","HOUSE_NO":"２號","E_COORD97":167457.14999999999,"N_COORD97":2550501.2000000002,"ADDRESS":"本原街一段４４０巷１０弄２號","OBJECTID":90305},"geometry":{"x":167457.1500000013,"y":2550501.200000003}},{"attributes":{"ID":90306,"DIS_CODE":0,"TOWNNAME":"安南區","LI":"原佃里","LIN":"10鄰","STREET":"本原街","SECT":"一段","MAREA":" ","LANE":"４４０巷","ALLEY":"１０弄","HOUSE_NO":"１號","E_COORD97":167459.07999999999,"N_COORD97":2550518.9399999999,"ADDRESS":"本原街一段４４０巷１０弄１號","OBJECTID":90306},"geometry":{"x":167459.08000000101,"y":2550518.9399999995}},{"attributes":{"ID":90307,"DIS_CODE":0,"TOWNNAME":"安南區","LI":"淵西里","LIN":"10鄰","STREET":"安中路","SECT":"四段","MAREA":" ","LANE":"５００巷","ALLEY":"４１弄","HOUSE_NO":"１９號之６１","E_COORD97":163907.38,"N_COORD97":2550756.1200000001,"ADDRESS":"安中路四段５００巷４１弄１９號之６１","OBJECTID":90307},"geometry":{"x":163907.37999999989,"y":2550756.1200000029}},{"attributes":{"ID":90308,"DIS_CODE":0,"TOWNNAME":"安南區","LI":"州北里","LIN":"10鄰","STREET":"安和路","SECT":"五段","MAREA":" ","LANE":"１７１巷","ALLEY":"１１６弄","HOUSE_NO":"３號","E_COORD97":169609.78,"N_COORD97":2551776.4500000002,"ADDRESS":"安和路五段１７１巷１１６弄３號","OBJECTID":90308},"geometry":{"x":169609.78000000026,"y":2551776.4499999993}},{"attributes":{"ID":90309,"DIS_CODE":0,"TOWNNAME":"安南區","LI":"州北里","LIN":"10鄰","STREET":"安和路","SECT":"五段","MAREA":" ","LANE":"１７１巷","ALLEY":"１１６弄","HOUSE_NO":"５號","E_COORD97":169601.92000000001,"N_COORD97":2551772.5299999998,"ADDRESS":"安和路五段１７１巷１１６弄５號","OBJECTID":90309},"geometry":{"x":169601.91999999993,"y":2551772.5299999993}},{"attributes":{"ID":90310,"DIS_CODE":0,"TOWNNAME":"下營區","LI":"營前里","LIN":"10鄰","STREET":"健康路","SECT":" ","MAREA":" ","LANE":"７６巷","ALLEY":"２弄","HOUSE_NO":"１號","E_COORD97":174718.95000000001,"N_COORD97":2570142.1899999999,"ADDRESS":"健康路７６巷２弄１號","OBJECTID":90310},"geometry":{"x":174718.95000000112,"y":2570142.1900000013}},{"attributes":{"ID":90311,"DIS_CODE":0,"TOWNNAME":"下營區","LI":"營前里","LIN":"10鄰","STREET":"健康路","SECT":" ","MAREA":" ","LANE":"７６巷","ALLEY":"２弄","HOUSE_NO":"２號","E_COORD97":174713.82000000001,"N_COORD97":2570140.75,"ADDRESS":"健康路７６巷２弄２號","OBJECTID":90311},"geometry":{"x":174713.8200000003,"y":2570140.75}},{"attributes":{"ID":90312,"DIS_CODE":0,"TOWNNAME":"下營區","LI":"營前里","LIN":"10鄰","STREET":"健康路","SECT":" ","MAREA":" ","LANE":"７６巷","ALLEY":"２弄","HOUSE_NO":"３號","E_COORD97":174708.70999999999,"N_COORD97":2570139.3100000001,"ADDRESS":"健康路７６巷２弄３號","OBJECTID":90312},"geometry":{"x":174708.70999999996,"y":2570139.3100000024}},{"attributes":{"ID":90313,"DIS_CODE":0,"TOWNNAME":"下營區","LI":"營前里","LIN":"10鄰","STREET":"健康路","SECT":" ","MAREA":" ","LANE":"７６巷","ALLEY":"２弄","HOUSE_NO":"５號","E_COORD97":174704.67999999999,"N_COORD97":2570137.9100000001,"ADDRESS":"健康路７６巷２弄５號","OBJECTID":90313},"geometry":{"x":174704.68000000063,"y":2570137.9100000039}},{"attributes":{"ID":90314,"DIS_CODE":0,"TOWNNAME":"下營區","LI":"營前里","LIN":"10鄰","STREET":"健康路","SECT":" ","MAREA":" ","LANE":"７６巷","ALLEY":"２弄","HOUSE_NO":"６號","E_COORD97":174700.39999999999,"N_COORD97":2570136.27,"ADDRESS":"健康路７６巷２弄６號","OBJECTID":90314},"geometry":{"x":174700.4000000013,"y":2570136.2700000014}},{"attributes":{"ID":90315,"DIS_CODE":0,"TOWNNAME":"下營區","LI":"營前里","LIN":"10鄰","STREET":"健康路","SECT":" ","MAREA":" ","LANE":"７６巷","ALLEY":"２弄","HOUSE_NO":"７號","E_COORD97":174695.84,"N_COORD97":2570134.8199999998,"ADDRESS":"健康路７６巷２弄７號","OBJECTID":90315},"geometry":{"x":174695.83999999985,"y":2570134.8199999984}},{"attributes":{"ID":90316,"DIS_CODE":0,"TOWNNAME":"永康區","LI":"中華里","LIN":"15鄰","STREET":"華興街","SECT":" ","MAREA":" ","LANE":" ","ALLEY":" ","HOUSE_NO":"９７號四樓之２６","E_COORD97":171791.70000000001,"N_COORD97":2544563.1299999999,"ADDRESS":"華興街９７號四樓之２６","OBJECTID":90316},"geometry":{"x":171791.70000000019,"y":2544563.129999999}},{"attributes":{"ID":90317,"DIS_CODE":0,"TOWNNAME":"六甲區","LI":"大丘里","LIN":"12鄰","STREET":" ","SECT":" ","MAREA":"南勢坑","LANE":" ","ALLEY":" ","HOUSE_NO":"１０號","E_COORD97":191925.26000000001,"N_COORD97":2567934.98,"ADDRESS":"南勢坑１０號","OBJECTID":90317},"geometry":{"x":191925.26000000164,"y":2567934.9800000023}},{"attributes":{"ID":90318,"DIS_CODE":0,"TOWNNAME":"永康區","LI":"中華里","LIN":"15鄰","STREET":"華興街","SECT":" ","MAREA":" ","LANE":" ","ALLEY":" ","HOUSE_NO":"９７號四樓之２","E_COORD97":171790.48000000001,"N_COORD97":2544563.1299999999,"ADDRESS":"華興街９７號四樓之２","OBJECTID":90318},"geometry":{"x":171790.48000000045,"y":2544563.129999999}},{"attributes":{"ID":90319,"DIS_CODE":0,"TOWNNAME":"六甲區","LI":"大丘里","LIN":"12鄰","STREET":" ","SECT":" ","MAREA":"南勢坑","LANE":" ","ALLEY":" ","HOUSE_NO":"１１號","E_COORD97":192038.20000000001,"N_COORD97":2567764.6200000001,"ADDRESS":"南勢坑１１號","OBJECTID":90319},"geometry":{"x":192038.20000000112,"y":2567764.6200000029}},{"attributes":{"ID":90320,"DIS_CODE":0,"TOWNNAME":"永康區","LI":"中華里","LIN":"15鄰","STREET":"華興街","SECT":" ","MAREA":" ","LANE":" ","ALLEY":" ","HOUSE_NO":"９７號三樓之６","E_COORD97":171790.45000000001,"N_COORD97":2544563.1299999999,"ADDRESS":"華興街９７號三樓之６","OBJECTID":90320},"geometry":{"x":171790.45000000019,"y":2544563.129999999}},{"attributes":{"ID":90321,"DIS_CODE":0,"TOWNNAME":"六甲區","LI":"大丘里","LIN":"12鄰","STREET":" ","SECT":" ","MAREA":"南勢坑","LANE":" ","ALLEY":" ","HOUSE_NO":"１２號之１","E_COORD97":192335.04999999999,"N_COORD97":2567704.7000000002,"ADDRESS":"南勢坑１２號之１","OBJECTID":90321},"geometry":{"x":192335.04999999981,"y":2567704.7000000011}},{"attributes":{"ID":90322,"DIS_CODE":0,"TOWNNAME":"六甲區","LI":"大丘里","LIN":"12鄰","STREET":" ","SECT":" ","MAREA":"南勢坑","LANE":" ","ALLEY":" ","HOUSE_NO":"１號之１","E_COORD97":191530.29000000001,"N_COORD97":2568246.71,"ADDRESS":"南勢坑１號之１","OBJECTID":90322},"geometry":{"x":191530.28999999911,"y":2568246.7100000009}},{"attributes":{"ID":90323,"DIS_CODE":0,"TOWNNAME":"六甲區","LI":"大丘里","LIN":"12鄰","STREET":" ","SECT":" ","MAREA":"南勢坑","LANE":" ","ALLEY":" ","HOUSE_NO":"１號","E_COORD97":191554.44,"N_COORD97":2568240.4900000002,"ADDRESS":"南勢坑１號","OBJECTID":90323},"geometry":{"x":191554.44000000041,"y":2568240.4900000002}},{"attributes":{"ID":90324,"DIS_CODE":0,"TOWNNAME":"六甲區","LI":"大丘里","LIN":"12鄰","STREET":" ","SECT":" ","MAREA":"南勢坑","LANE":" ","ALLEY":" ","HOUSE_NO":"３號","E_COORD97":191662.51999999999,"N_COORD97":2568142.0099999998,"ADDRESS":"南勢坑３號","OBJECTID":90324},"geometry":{"x":191662.52000000048,"y":2568142.0099999998}},{"attributes":{"ID":90325,"DIS_CODE":0,"TOWNNAME":"六甲區","LI":"大丘里","LIN":"12鄰","STREET":" ","SECT":" ","MAREA":"南勢坑","LANE":" ","ALLEY":" ","HOUSE_NO":"４號","E_COORD97":191668.14999999999,"N_COORD97":2568135.7999999998,"ADDRESS":"南勢坑４號","OBJECTID":90325},"geometry":{"x":191668.1500000013,"y":2568135.8000000026}},{"attributes":{"ID":90326,"DIS_CODE":0,"TOWNNAME":"六甲區","LI":"大丘里","LIN":"12鄰","STREET":" ","SECT":" ","MAREA":"南勢坑","LANE":" ","ALLEY":" ","HOUSE_NO":"５號","E_COORD97":191684.63,"N_COORD97":2568164.6899999999,"ADDRESS":"南勢坑５號","OBJECTID":90326},"geometry":{"x":191684.63000000082,"y":2568164.6899999995}},{"attributes":{"ID":90327,"DIS_CODE":0,"TOWNNAME":"六甲區","LI":"大丘里","LIN":"12鄰","STREET":" ","SECT":" ","MAREA":"南勢坑","LANE":" ","ALLEY":" ","HOUSE_NO":"６之１號","E_COORD97":191926.73000000001,"N_COORD97":2567969,"ADDRESS":"南勢坑６之１號","OBJECTID":90327},"geometry":{"x":191926.73000000138,"y":2567969}},{"attributes":{"ID":90328,"DIS_CODE":0,"TOWNNAME":"中西區","LI":"元安里","LIN":"6鄰","STREET":"大德街","SECT":" ","MAREA":" ","LANE":" ","ALLEY":" ","HOUSE_NO":"８８號","E_COORD97":167528.82999999999,"N_COORD97":2543209.8399999999,"ADDRESS":"大德街８８號","OBJECTID":90328},"geometry":{"x":167528.83000000101,"y":2543209.8399999999}},{"attributes":{"ID":90329,"DIS_CODE":0,"TOWNNAME":"六甲區","LI":"大丘里","LIN":"12鄰","STREET":" ","SECT":" ","MAREA":"南勢坑","LANE":" ","ALLEY":" ","HOUSE_NO":"６號之１","E_COORD97":191926.73000000001,"N_COORD97":2567969,"ADDRESS":"南勢坑６號之１","OBJECTID":90329},"geometry":{"x":191926.73000000138,"y":2567969}},{"attributes":{"ID":90330,"DIS_CODE":0,"TOWNNAME":"下營區","LI":"營前里","LIN":"10鄰","STREET":"健康路","SECT":" ","MAREA":" ","LANE":"７６巷","ALLEY":"２弄","HOUSE_NO":"８號","E_COORD97":174691.64000000001,"N_COORD97":2570133.3199999998,"ADDRESS":"健康路７６巷２弄８號","OBJECTID":90330},"geometry":{"x":174691.6400000006,"y":2570133.3200000022}},{"attributes":{"ID":90331,"DIS_CODE":0,"TOWNNAME":"永康區","LI":"王行里","LIN":"10鄰","STREET":"王行路","SECT":" ","MAREA":" ","LANE":"１０１８巷","ALLEY":"３８弄","HOUSE_NO":"２號","E_COORD97":175825.14999999999,"N_COORD97":2550230.2400000002,"ADDRESS":"王行路１０１８巷３８弄２號","OBJECTID":90331},"geometry":{"x":175825.15000000037,"y":2550230.2400000002}},{"attributes":{"ID":90332,"DIS_CODE":0,"TOWNNAME":"永康區","LI":"\u25A0行里","LIN":"10鄰","STREET":"中正路","SECT":" ","MAREA":" ","LANE":"４９５巷","ALLEY":"３弄","HOUSE_NO":"６號","E_COORD97":172206.69,"N_COORD97":2548586.8999999999,"ADDRESS":"中正路４９５巷３弄６號","OBJECTID":90332},"geometry":{"x":172206.69000000134,"y":2548586.9000000022}},{"attributes":{"ID":90333,"DIS_CODE":0,"TOWNNAME":"永康區","LI":"\u25A0行里","LIN":"10鄰","STREET":"中正路","SECT":" ","MAREA":" ","LANE":"４９５巷","ALLEY":"３弄","HOUSE_NO":"１１號","E_COORD97":172225.29000000001,"N_COORD97":2548576.6800000002,"ADDRESS":"中正路４９５巷３弄１１號","OBJECTID":90333},"geometry":{"x":172225.29000000004,"y":2548576.6800000016}},{"attributes":{"ID":90334,"DIS_CODE":0,"TOWNNAME":"永康區","LI":"崑山里","LIN":"10鄰","STREET":"崑大路","SECT":" ","MAREA":" ","LANE":"２０１巷","ALLEY":"２８弄","HOUSE_NO":"９號","E_COORD97":173257.48000000001,"N_COORD97":2544232,"ADDRESS":"崑大路２０１巷２８弄９號","OBJECTID":90334},"geometry":{"x":173257.48000000138,"y":2544232.0000000019}},{"attributes":{"ID":90335,"DIS_CODE":0,"TOWNNAME":"安南區","LI":"佃東里","LIN":"10鄰","STREET":"公學路","SECT":"四段","MAREA":" ","LANE":"１２２巷","ALLEY":"５弄","HOUSE_NO":"１１號","E_COORD97":165572.70000000001,"N_COORD97":2552027.6000000001,"ADDRESS":"公學路四段１２２巷５弄１１號","OBJECTID":90335},"geometry":{"x":165572.70000000205,"y":2552027.5999999978}},{"attributes":{"ID":90336,"DIS_CODE":0,"TOWNNAME":"安南區","LI":"佃東里","LIN":"10鄰","STREET":"公學路","SECT":"四段","MAREA":" ","LANE":"１２２巷","ALLEY":"５弄","HOUSE_NO":"１３號","E_COORD97":165570.42000000001,"N_COORD97":2552030.0499999998,"ADDRESS":"公學路四段１２２巷５弄１３號","OBJECTID":90336},"geometry":{"x":165570.41999999993,"y":2552030.0500000026}},{"attributes":{"ID":90337,"DIS_CODE":0,"TOWNNAME":"安南區","LI":"佃東里","LIN":"10鄰","STREET":"公學路","SECT":"四段","MAREA":" ","LANE":"１２２巷","ALLEY":"５弄","HOUSE_NO":"１號","E_COORD97":165581.17000000001,"N_COORD97":2552014.3300000001,"ADDRESS":"公學路四段１２２巷５弄１號","OBJECTID":90337},"geometry":{"x":165581.17000000179,"y":2552014.3300000019}},{"attributes":{"ID":90338,"DIS_CODE":0,"TOWNNAME":"安南區","LI":"佃東里","LIN":"10鄰","STREET":"公學路","SECT":"四段","MAREA":" ","LANE":"１２２巷","ALLEY":"５弄","HOUSE_NO":"３號","E_COORD97":165579.98000000001,"N_COORD97":2552016.6099999999,"ADDRESS":"公學路四段１２２巷５弄３號","OBJECTID":90338},"geometry":{"x":165579.98000000138,"y":2552016.6099999994}},{"attributes":{"ID":90339,"DIS_CODE":0,"TOWNNAME":"麻豆區","LI":"埤頭里","LIN":"12鄰","STREET":" ","SECT":" ","MAREA":"埤頭","LANE":" ","ALLEY":" ","HOUSE_NO":"１００號","E_COORD97":170867.81,"N_COORD97":2566200.9300000002,"ADDRESS":"埤頭１００號","OBJECTID":90339},"geometry":{"x":170867.81000000052,"y":2566200.9300000034}},{"attributes":{"ID":90340,"DIS_CODE":0,"TOWNNAME":"安南區","LI":"佃東里","LIN":"10鄰","STREET":"公學路","SECT":"四段","MAREA":" ","LANE":"１２２巷","ALLEY":"５弄","HOUSE_NO":"５號","E_COORD97":165578.70999999999,"N_COORD97":2552019.9900000002,"ADDRESS":"公學路四段１２２巷５弄５號","OBJECTID":90340},"geometry":{"x":165578.70999999996,"y":2552019.9900000021}},{"attributes":{"ID":90341,"DIS_CODE":0,"TOWNNAME":"六甲區","LI":"大丘里","LIN":"12鄰","STREET":" ","SECT":" ","MAREA":"南勢坑","LANE":" ","ALLEY":" ","HOUSE_NO":"６號","E_COORD97":191917.70999999999,"N_COORD97":2567982.5099999998,"ADDRESS":"南勢坑６號","OBJECTID":90341},"geometry":{"x":191917.71000000089,"y":2567982.5099999998}},{"attributes":{"ID":90342,"DIS_CODE":0,"TOWNNAME":"安南區","LI":"佃東里","LIN":"10鄰","STREET":"公學路","SECT":"四段","MAREA":" ","LANE":"１２２巷","ALLEY":"５弄","HOUSE_NO":"７號","E_COORD97":165576.76999999999,"N_COORD97":2552022.5299999998,"ADDRESS":"公學路四段１２２巷５弄７號","OBJECTID":90342},"geometry":{"x":165576.77000000142,"y":2552022.5300000012}},{"attributes":{"ID":90343,"DIS_CODE":0,"TOWNNAME":"安南區","LI":"佃東里","LIN":"10鄰","STREET":"公學路","SECT":"四段","MAREA":" ","LANE":"１２２巷","ALLEY":"５弄","HOUSE_NO":"９號","E_COORD97":165574.64999999999,"N_COORD97":2552024.98,"ADDRESS":"公學路四段１２２巷５弄９號","OBJECTID":90343},"geometry":{"x":165574.65000000037,"y":2552024.9800000004}},{"attributes":{"ID":90344,"DIS_CODE":0,"TOWNNAME":"新營區","LI":"民權里","LIN":"15鄰","STREET":"信義街","SECT":" ","MAREA":" ","LANE":" ","ALLEY":" ","HOUSE_NO":"６７之１號七樓","E_COORD97":179898.10999999999,"N_COORD97":2578496.8500000001,"ADDRESS":"信義街６７之１號七樓","OBJECTID":90344},"geometry":{"x":179898.11000000127,"y":2578496.8499999996}},{"attributes":{"ID":90345,"DIS_CODE":0,"TOWNNAME":"新營區","LI":"民權里","LIN":"15鄰","STREET":"信義街","SECT":" ","MAREA":" ","LANE":" ","ALLEY":" ","HOUSE_NO":"６７號二樓","E_COORD97":179895.60999999999,"N_COORD97":2578496.8100000001,"ADDRESS":"信義街６７號二樓","OBJECTID":90345},"geometry":{"x":179895.61000000034,"y":2578496.8100000024}},{"attributes":{"ID":90346,"DIS_CODE":0,"TOWNNAME":"新營區","LI":"民生里","LIN":"15鄰","STREET":"三民路","SECT":" ","MAREA":" ","LANE":" ","ALLEY":" ","HOUSE_NO":"１３１號十樓之１","E_COORD97":179295.64000000001,"N_COORD97":2578269.8100000001,"ADDRESS":"三民路１３１號十樓之１","OBJECTID":90346},"geometry":{"x":179295.6400000006,"y":2578269.8100000024}},{"attributes":{"ID":90347,"DIS_CODE":0,"TOWNNAME":"六甲區","LI":"大丘里","LIN":"12鄰","STREET":" ","SECT":" ","MAREA":"南勢坑","LANE":" ","ALLEY":" ","HOUSE_NO":"７號","E_COORD97":191901.79000000001,"N_COORD97":2567975.6600000001,"ADDRESS":"南勢坑７號","OBJECTID":90347},"geometry":{"x":191901.79000000097,"y":2567975.6600000001}},{"attributes":{"ID":90348,"DIS_CODE":0,"TOWNNAME":"六甲區","LI":"大丘里","LIN":"12鄰","STREET":" ","SECT":" ","MAREA":"南勢坑","LANE":" ","ALLEY":" ","HOUSE_NO":"８號","E_COORD97":191894.45999999999,"N_COORD97":2567952.3900000001,"ADDRESS":"南勢坑８號","OBJECTID":90348},"geometry":{"x":191894.46000000089,"y":2567952.3900000025}},{"attributes":{"ID":90349,"DIS_CODE":0,"TOWNNAME":"六甲區","LI":"大丘里","LIN":"12鄰","STREET":" ","SECT":" ","MAREA":"南勢坑","LANE":" ","ALLEY":" ","HOUSE_NO":"９號","E_COORD97":191903.35000000001,"N_COORD97":2567935.77,"ADDRESS":"南勢坑９號","OBJECTID":90349},"geometry":{"x":191903.34999999963,"y":2567935.7700000014}},{"attributes":{"ID":90350,"DIS_CODE":0,"TOWNNAME":"六甲區","LI":"中社里","LIN":"12鄰","STREET":" ","SECT":" ","MAREA":"港子頭","LANE":" ","ALLEY":" ","HOUSE_NO":"１８號","E_COORD97":181165.39999999999,"N_COORD97":2571269.1000000001,"ADDRESS":"港子頭１８號","OBJECTID":90350},"geometry":{"x":181165.40000000037,"y":2571269.1000000015}},{"attributes":{"ID":90351,"DIS_CODE":0,"TOWNNAME":"六甲區","LI":"中社里","LIN":"12鄰","STREET":" ","SECT":" ","MAREA":"港子頭","LANE":" ","ALLEY":" ","HOUSE_NO":"１９之１號","E_COORD97":181098.26999999999,"N_COORD97":2571339.3300000001,"ADDRESS":"港子頭１９之１號","OBJECTID":90351},"geometry":{"x":181098.27000000048,"y":2571339.3300000019}},{"attributes":{"ID":90352,"DIS_CODE":0,"TOWNNAME":"六甲區","LI":"中社里","LIN":"12鄰","STREET":" ","SECT":" ","MAREA":"港子頭","LANE":" ","ALLEY":" ","HOUSE_NO":"１號","E_COORD97":180985.63,"N_COORD97":2571275.8799999999,"ADDRESS":"港子頭１號","OBJECTID":90352},"geometry":{"x":180985.63000000175,"y":2571275.8800000027}},{"attributes":{"ID":90353,"DIS_CODE":0,"TOWNNAME":"六甲區","LI":"中社里","LIN":"12鄰","STREET":" ","SECT":" ","MAREA":"港子頭","LANE":" ","ALLEY":" ","HOUSE_NO":"２０號","E_COORD97":181015.60999999999,"N_COORD97":2571365.7200000002,"ADDRESS":"港子頭２０號","OBJECTID":90353},"geometry":{"x":181015.61000000127,"y":2571365.7200000007}},{"attributes":{"ID":90354,"DIS_CODE":0,"TOWNNAME":"南區","LI":"新興里","LIN":"15鄰","STREET":"健康路","SECT":"二段","MAREA":" ","LANE":" ","ALLEY":" ","HOUSE_NO":"１１５號二樓","E_COORD97":167405.62,"N_COORD97":2542440.8999999999,"ADDRESS":"健康路二段１１５號二樓","OBJECTID":90354},"geometry":{"x":167405.61999999918,"y":2542440.9000000004}},{"attributes":{"ID":90355,"DIS_CODE":0,"TOWNNAME":"南區","LI":"新昌里","LIN":"13鄰","STREET":"國華街","SECT":"一段","MAREA":" ","LANE":" ","ALLEY":" ","HOUSE_NO":"９３號","E_COORD97":167584.82999999999,"N_COORD97":2542804.6699999999,"ADDRESS":"國華街一段９３號","OBJECTID":90355},"geometry":{"x":167584.83000000007,"y":2542804.6699999999}},{"attributes":{"ID":90356,"DIS_CODE":0,"TOWNNAME":"學甲區","LI":"明宜里","LIN":"15鄰","STREET":"重信路","SECT":" ","MAREA":" ","LANE":" ","ALLEY":" ","HOUSE_NO":"１號九樓之９","E_COORD97":166124.82999999999,"N_COORD97":2570564.8900000001,"ADDRESS":"重信路１號九樓之９","OBJECTID":90356},"geometry":{"x":166124.83000000101,"y":2570564.8900000006}},{"attributes":{"ID":90357,"DIS_CODE":0,"TOWNNAME":"學甲區","LI":"明宜里","LIN":"15鄰","STREET":"重信路","SECT":" ","MAREA":" ","LANE":" ","ALLEY":" ","HOUSE_NO":"１號二樓之１","E_COORD97":166124.82999999999,"N_COORD97":2570564.8900000001,"ADDRESS":"重信路１號二樓之１","OBJECTID":90357},"geometry":{"x":166124.83000000101,"y":2570564.8900000006}},{"attributes":{"ID":90358,"DIS_CODE":0,"TOWNNAME":"歸仁區","LI":"辜厝里","LIN":"15鄰","STREET":"中正南路","SECT":"一段","MAREA":" ","LANE":" ","ALLEY":" ","HOUSE_NO":"１１０號三樓之１","E_COORD97":177511.57999999999,"N_COORD97":2540503.7000000002,"ADDRESS":"中正南路一段１１０號三樓之１","OBJECTID":90358},"geometry":{"x":177511.58000000101,"y":2540503.7000000011}},{"attributes":{"ID":90359,"DIS_CODE":0,"TOWNNAME":"歸仁區","LI":"辜厝里","LIN":"15鄰","STREET":"中正南路","SECT":"一段","MAREA":" ","LANE":" ","ALLEY":" ","HOUSE_NO":"１１０號六樓","E_COORD97":177511.14999999999,"N_COORD97":2540503.6899999999,"ADDRESS":"中正南路一段１１０號六樓","OBJECTID":90359},"geometry":{"x":177511.1500000013,"y":2540503.6900000013}},{"attributes":{"ID":90360,"DIS_CODE":0,"TOWNNAME":"歸仁區","LI":"歸仁里","LIN":"15鄰","STREET":"信義北路","SECT":" ","MAREA":" ","LANE":" ","ALLEY":" ","HOUSE_NO":"９２號四樓","E_COORD97":177999.87,"N_COORD97":2541037.1099999999,"ADDRESS":"信義北路９２號四樓","OBJECTID":90360},"geometry":{"x":177999.87000000011,"y":2541037.1100000013}},{"attributes":{"ID":90361,"DIS_CODE":0,"TOWNNAME":"六甲區","LI":"中社里","LIN":"12鄰","STREET":" ","SECT":" ","MAREA":"港子頭","LANE":" ","ALLEY":" ","HOUSE_NO":"２１號","E_COORD97":181007.92999999999,"N_COORD97":2571376.5800000001,"ADDRESS":"港子頭２１號","OBJECTID":90361},"geometry":{"x":181007.9299999997,"y":2571376.5800000001}},{"attributes":{"ID":90362,"DIS_CODE":0,"TOWNNAME":"六甲區","LI":"中社里","LIN":"12鄰","STREET":" ","SECT":" ","MAREA":"港子頭","LANE":" ","ALLEY":" ","HOUSE_NO":"２２號","E_COORD97":180986.09,"N_COORD97":2571379.77,"ADDRESS":"港子頭２２號","OBJECTID":90362},"geometry":{"x":180986.09000000078,"y":2571379.7700000014}},{"attributes":{"ID":90363,"DIS_CODE":0,"TOWNNAME":"安南區","LI":"佃西里","LIN":"10鄰","STREET":"海佃路","SECT":"四段","MAREA":" ","LANE":"４２０巷","ALLEY":"１３弄","HOUSE_NO":"１０號","E_COORD97":165504.89999999999,"N_COORD97":2551604.1600000001,"ADDRESS":"海佃路四段４２０巷１３弄１０號","OBJECTID":90363},"geometry":{"x":165504.90000000037,"y":2551604.1600000039}},{"attributes":{"ID":90364,"DIS_CODE":0,"TOWNNAME":"安南區","LI":"佃西里","LIN":"10鄰","STREET":"海佃路","SECT":"四段","MAREA":" ","LANE":"４２０巷","ALLEY":"１３弄","HOUSE_NO":"１２號","E_COORD97":165499.34,"N_COORD97":2551604.5600000001,"ADDRESS":"海佃路四段４２０巷１３弄１２號","OBJECTID":90364},"geometry":{"x":165499.34000000078,"y":2551604.5600000005}},{"attributes":{"ID":90365,"DIS_CODE":0,"TOWNNAME":"六甲區","LI":"中社里","LIN":"12鄰","STREET":" ","SECT":" ","MAREA":"港子頭","LANE":" ","ALLEY":" ","HOUSE_NO":"２４號","E_COORD97":180972.76999999999,"N_COORD97":2571354.8300000001,"ADDRESS":"港子頭２４號","OBJECTID":90365},"geometry":{"x":180972.77000000048,"y":2571354.8300000001}},{"attributes":{"ID":90366,"DIS_CODE":0,"TOWNNAME":"六甲區","LI":"中社里","LIN":"12鄰","STREET":" ","SECT":" ","MAREA":"港子頭","LANE":" ","ALLEY":" ","HOUSE_NO":"２６號","E_COORD97":180934.60999999999,"N_COORD97":2571378.96,"ADDRESS":"港子頭２６號","OBJECTID":90366},"geometry":{"x":180934.61000000034,"y":2571378.9600000046}},{"attributes":{"ID":90367,"DIS_CODE":0,"TOWNNAME":"六甲區","LI":"中社里","LIN":"12鄰","STREET":" ","SECT":" ","MAREA":"港子頭","LANE":" ","ALLEY":" ","HOUSE_NO":"３號","E_COORD97":180974.19,"N_COORD97":2571277.6899999999,"ADDRESS":"港子頭３號","OBJECTID":90367},"geometry":{"x":180974.19000000134,"y":2571277.6900000032}},{"attributes":{"ID":90368,"DIS_CODE":0,"TOWNNAME":"六甲區","LI":"中社里","LIN":"12鄰","STREET":" ","SECT":" ","MAREA":"港子頭","LANE":" ","ALLEY":" ","HOUSE_NO":"５號","E_COORD97":180960.04999999999,"N_COORD97":2571281.2000000002,"ADDRESS":"港子頭５號","OBJECTID":90368},"geometry":{"x":180960.04999999981,"y":2571281.2000000011}},{"attributes":{"ID":90369,"DIS_CODE":0,"TOWNNAME":"六甲區","LI":"中社里","LIN":"12鄰","STREET":" ","SECT":" ","MAREA":"港子頭","LANE":" ","ALLEY":" ","HOUSE_NO":"６號","E_COORD97":180945.76999999999,"N_COORD97":2571281.2400000002,"ADDRESS":"港子頭６號","OBJECTID":90369},"geometry":{"x":180945.77000000048,"y":2571281.2399999984}},{"attributes":{"ID":90370,"DIS_CODE":0,"TOWNNAME":"六甲區","LI":"中社里","LIN":"12鄰","STREET":" ","SECT":" ","MAREA":"港子頭","LANE":" ","ALLEY":" ","HOUSE_NO":"７號","E_COORD97":180951.17999999999,"N_COORD97":2571298.6400000001,"ADDRESS":"港子頭７號","OBJECTID":90370},"geometry":{"x":180951.18000000156,"y":2571298.6400000006}},{"attributes":{"ID":90371,"DIS_CODE":0,"TOWNNAME":"安南區","LI":"佃西里","LIN":"10鄰","STREET":"海佃路","SECT":"四段","MAREA":" ","LANE":"４２０巷","ALLEY":"１３弄","HOUSE_NO":"１６號","E_COORD97":165496.17000000001,"N_COORD97":2551599,"ADDRESS":"海佃路四段４２０巷１３弄１６號","OBJECTID":90371},"geometry":{"x":165496.16999999993,"y":2551599.0000000019}},{"attributes":{"ID":90372,"DIS_CODE":0,"TOWNNAME":"六甲區","LI":"中社里","LIN":"12鄰","STREET":" ","SECT":" ","MAREA":"港子頭","LANE":" ","ALLEY":" ","HOUSE_NO":"８號","E_COORD97":180952.29000000001,"N_COORD97":2571305.1899999999,"ADDRESS":"港子頭８號","OBJECTID":90372},"geometry":{"x":180952.28999999911,"y":2571305.1900000013}},{"attributes":{"ID":90373,"DIS_CODE":0,"TOWNNAME":"六甲區","LI":"中社里","LIN":"12鄰","STREET":" ","SECT":" ","MAREA":"港子頭","LANE":" ","ALLEY":" ","HOUSE_NO":"９號","E_COORD97":180952.78,"N_COORD97":2571309.2599999998,"ADDRESS":"港子頭９號","OBJECTID":90373},"geometry":{"x":180952.78000000212,"y":2571309.2600000016}},{"attributes":{"ID":90374,"DIS_CODE":0,"TOWNNAME":"東山區","LI":"聖賢里","LIN":"12鄰","STREET":" ","SECT":" ","MAREA":"田尾","LANE":" ","ALLEY":" ","HOUSE_NO":"２７之２號","E_COORD97":184723.04000000001,"N_COORD97":2578236.5800000001,"ADDRESS":"田尾２７之２號","OBJECTID":90374},"geometry":{"x":184723.04000000097,"y":2578236.5800000019}},{"attributes":{"ID":90375,"DIS_CODE":0,"TOWNNAME":"麻豆區","LI":"埤頭里","LIN":"12鄰","STREET":" ","SECT":" ","MAREA":"埤頭","LANE":" ","ALLEY":" ","HOUSE_NO":"１０１號之１","E_COORD97":170875.10000000001,"N_COORD97":2566161.1299999999,"ADDRESS":"埤頭１０１號之１","OBJECTID":90375},"geometry":{"x":170875.09999999963,"y":2566161.129999999}},{"attributes":{"ID":90376,"DIS_CODE":0,"TOWNNAME":"麻豆區","LI":"埤頭里","LIN":"12鄰","STREET":" ","SECT":" ","MAREA":"埤頭","LANE":" ","ALLEY":" ","HOUSE_NO":"１０１號之２","E_COORD97":170858.47,"N_COORD97":2566182.0699999998,"ADDRESS":"埤頭１０１號之２","OBJECTID":90376},"geometry":{"x":170858.47000000067,"y":2566182.0700000003}},{"attributes":{"ID":90377,"DIS_CODE":0,"TOWNNAME":"麻豆區","LI":"埤頭里","LIN":"12鄰","STREET":" ","SECT":" ","MAREA":"埤頭","LANE":" ","ALLEY":" ","HOUSE_NO":"１０１號","E_COORD97":170877,"N_COORD97":2566185.2599999998,"ADDRESS":"埤頭１０１號","OBJECTID":90377},"geometry":{"x":170877.00000000093,"y":2566185.2600000035}},{"attributes":{"ID":90378,"DIS_CODE":0,"TOWNNAME":"東山區","LI":"南勢里","LIN":"12鄰","STREET":" ","SECT":" ","MAREA":"南勢庄","LANE":" ","ALLEY":" ","HOUSE_NO":"３２號之１","E_COORD97":197117.82000000001,"N_COORD97":2572296.1699999999,"ADDRESS":"南勢庄３２號之１","OBJECTID":90378},"geometry":{"x":197117.82000000216,"y":2572296.1700000018}},{"attributes":{"ID":90379,"DIS_CODE":0,"TOWNNAME":"東山區","LI":"南勢里","LIN":"12鄰","STREET":" ","SECT":" ","MAREA":"南勢庄","LANE":" ","ALLEY":" ","HOUSE_NO":"３２號之２","E_COORD97":197222.92000000001,"N_COORD97":2572324.0800000001,"ADDRESS":"南勢庄３２號之２","OBJECTID":90379},"geometry":{"x":197222.91999999993,"y":2572324.0800000019}},{"attributes":{"ID":90380,"DIS_CODE":0,"TOWNNAME":"東山區","LI":"南勢里","LIN":"12鄰","STREET":" ","SECT":" ","MAREA":"南勢庄","LANE":" ","ALLEY":" ","HOUSE_NO":"３２號之４","E_COORD97":197247.89000000001,"N_COORD97":2572336.1200000001,"ADDRESS":"南勢庄３２號之４","OBJECTID":90380},"geometry":{"x":197247.8900000006,"y":2572336.120000001}},{"attributes":{"ID":90381,"DIS_CODE":0,"TOWNNAME":"東山區","LI":"科里里","LIN":"12鄰","STREET":" ","SECT":" ","MAREA":"科里","LANE":" ","ALLEY":" ","HOUSE_NO":"７３號之１","E_COORD97":191061.57999999999,"N_COORD97":2577464.2999999998,"ADDRESS":"科里７３號之１","OBJECTID":90381},"geometry":{"x":191061.58000000007,"y":2577464.3000000007}},{"attributes":{"ID":90382,"DIS_CODE":0,"TOWNNAME":"東山區","LI":"東原里","LIN":"12鄰","STREET":" ","SECT":" ","MAREA":"班芝花坑","LANE":" ","ALLEY":" ","HOUSE_NO":"１０號之１","E_COORD97":192596.57000000001,"N_COORD97":2575727.1000000001,"ADDRESS":"班芝花坑１０號之１","OBJECTID":90382},"geometry":{"x":192596.5700000003,"y":2575727.1000000015}},{"attributes":{"ID":90383,"DIS_CODE":0,"TOWNNAME":"東山區","LI":"東原里","LIN":"12鄰","STREET":" ","SECT":" ","MAREA":"班芝花坑","LANE":" ","ALLEY":" ","HOUSE_NO":"１０號","E_COORD97":192588.76000000001,"N_COORD97":2575754.4500000002,"ADDRESS":"班芝花坑１０號","OBJECTID":90383},"geometry":{"x":192588.76000000071,"y":2575754.450000003}},{"attributes":{"ID":90384,"DIS_CODE":0,"TOWNNAME":"東山區","LI":"東原里","LIN":"12鄰","STREET":" ","SECT":" ","MAREA":"班芝花坑","LANE":" ","ALLEY":" ","HOUSE_NO":"１１號之１","E_COORD97":192560.98000000001,"N_COORD97":2575732.7200000002,"ADDRESS":"班芝花坑１１號之１","OBJECTID":90384},"geometry":{"x":192560.98000000138,"y":2575732.7200000007}},{"attributes":{"ID":90385,"DIS_CODE":0,"TOWNNAME":"東山區","LI":"東原里","LIN":"12鄰","STREET":" ","SECT":" ","MAREA":"班芝花坑","LANE":" ","ALLEY":" ","HOUSE_NO":"１１號","E_COORD97":192566.92000000001,"N_COORD97":2575752.3500000001,"ADDRESS":"班芝花坑１１號","OBJECTID":90385},"geometry":{"x":192566.92000000179,"y":2575752.3500000015}},{"attributes":{"ID":90386,"DIS_CODE":0,"TOWNNAME":"東山區","LI":"東原里","LIN":"12鄰","STREET":" ","SECT":" ","MAREA":"班芝花坑","LANE":" ","ALLEY":" ","HOUSE_NO":"１２號","E_COORD97":192559.14000000001,"N_COORD97":2575771.79,"ADDRESS":"班芝花坑１２號","OBJECTID":90386},"geometry":{"x":192559.1400000006,"y":2575771.7899999991}},{"attributes":{"ID":90387,"DIS_CODE":0,"TOWNNAME":"東山區","LI":"東原里","LIN":"12鄰","STREET":" ","SECT":" ","MAREA":"班芝花坑","LANE":" ","ALLEY":" ","HOUSE_NO":"１４號","E_COORD97":192522.20000000001,"N_COORD97":2575766.02,"ADDRESS":"班芝花坑１４號","OBJECTID":90387},"geometry":{"x":192522.20000000019,"y":2575766.0200000014}},{"attributes":{"ID":90388,"DIS_CODE":0,"TOWNNAME":"東山區","LI":"東原里","LIN":"12鄰","STREET":" ","SECT":" ","MAREA":"班芝花坑","LANE":" ","ALLEY":" ","HOUSE_NO":"１５號之１","E_COORD97":192502.35000000001,"N_COORD97":2575723.7999999998,"ADDRESS":"班芝花坑１５號之１","OBJECTID":90388},"geometry":{"x":192502.34999999963,"y":2575723.8000000026}},{"attributes":{"ID":90389,"DIS_CODE":0,"TOWNNAME":"麻豆區","LI":"埤頭里","LIN":"12鄰","STREET":" ","SECT":" ","MAREA":"埤頭","LANE":" ","ALLEY":" ","HOUSE_NO":"１０２號之１","E_COORD97":170885.56424499999,"N_COORD97":2566131.2772599999,"ADDRESS":"埤頭１０２號之１","OBJECTID":90389},"geometry":{"x":170885.56424499955,"y":2566131.277263999}},{"attributes":{"ID":90390,"DIS_CODE":0,"TOWNNAME":"麻豆區","LI":"麻口里","LIN":"12鄰","STREET":" ","SECT":" ","MAREA":"番子寮","LANE":" ","ALLEY":" ","HOUSE_NO":"２８號之８","E_COORD97":170430.17000000001,"N_COORD97":2563118.1400000001,"ADDRESS":"番子寮２８號之８","OBJECTID":90390},"geometry":{"x":170430.17000000086,"y":2563118.1400000006}},{"attributes":{"ID":90391,"DIS_CODE":0,"TOWNNAME":"麻豆區","LI":"麻口里","LIN":"12鄰","STREET":" ","SECT":" ","MAREA":"番子寮","LANE":" ","ALLEY":" ","HOUSE_NO":"２８號之９","E_COORD97":170425.48000000001,"N_COORD97":2563117.71,"ADDRESS":"番子寮２８號之９","OBJECTID":90391},"geometry":{"x":170425.48000000045,"y":2563117.7100000009}},{"attributes":{"ID":90392,"DIS_CODE":0,"TOWNNAME":"麻豆區","LI":"麻口里","LIN":"12鄰","STREET":" ","SECT":" ","MAREA":"番子寮","LANE":" ","ALLEY":" ","HOUSE_NO":"２８號","E_COORD97":170448.95999999999,"N_COORD97":2563095.6600000001,"ADDRESS":"番子寮２８號","OBJECTID":90392},"geometry":{"x":170448.95999999996,"y":2563095.660000002}},{"attributes":{"ID":90393,"DIS_CODE":0,"TOWNNAME":"麻豆區","LI":"麻口里","LIN":"12鄰","STREET":" ","SECT":" ","MAREA":"番子寮","LANE":" ","ALLEY":" ","HOUSE_NO":"２９號之１","E_COORD97":170432.31,"N_COORD97":2563190.2400000002,"ADDRESS":"番子寮２９號之１","OBJECTID":90393},"geometry":{"x":170432.31000000052,"y":2563190.2400000021}},{"attributes":{"ID":90394,"DIS_CODE":0,"TOWNNAME":"麻豆區","LI":"麻口里","LIN":"12鄰","STREET":" ","SECT":" ","MAREA":"番子寮","LANE":" ","ALLEY":" ","HOUSE_NO":"２９號","E_COORD97":170422.54999999999,"N_COORD97":2563159.3900000001,"ADDRESS":"番子寮２９號","OBJECTID":90394},"geometry":{"x":170422.54999999981,"y":2563159.3900000006}},{"attributes":{"ID":90395,"DIS_CODE":0,"TOWNNAME":"麻豆區","LI":"麻口里","LIN":"12鄰","STREET":" ","SECT":" ","MAREA":"番子寮","LANE":" ","ALLEY":" ","HOUSE_NO":"３３號","E_COORD97":170491.94,"N_COORD97":2563153.9399999999,"ADDRESS":"番子寮３３號","OBJECTID":90395},"geometry":{"x":170491.94000000041,"y":2563153.9400000013}},{"attributes":{"ID":90396,"DIS_CODE":0,"TOWNNAME":"麻豆區","LI":"麻口里","LIN":"12鄰","STREET":" ","SECT":" ","MAREA":"番子寮","LANE":" ","ALLEY":" ","HOUSE_NO":"３６號之２","E_COORD97":170477.73000000001,"N_COORD97":2563097.8500000001,"ADDRESS":"番子寮３６號之２","OBJECTID":90396},"geometry":{"x":170477.73000000138,"y":2563097.8499999996}},{"attributes":{"ID":90397,"DIS_CODE":0,"TOWNNAME":"麻豆區","LI":"麻口里","LIN":"12鄰","STREET":" ","SECT":" ","MAREA":"番子寮","LANE":" ","ALLEY":" ","HOUSE_NO":"３６號","E_COORD97":170476.78,"N_COORD97":2563126.25,"ADDRESS":"番子寮３６號","OBJECTID":90397},"geometry":{"x":170476.78000000119,"y":2563126.25}},{"attributes":{"ID":90398,"DIS_CODE":0,"TOWNNAME":"麻豆區","LI":"麻口里","LIN":"12鄰","STREET":" ","SECT":" ","MAREA":"番子寮","LANE":" ","ALLEY":" ","HOUSE_NO":"３８號","E_COORD97":170528.06,"N_COORD97":2563114.79,"ADDRESS":"番子寮３８號","OBJECTID":90398},"geometry":{"x":170528.06000000145,"y":2563114.7899999991}},{"attributes":{"ID":90399,"DIS_CODE":0,"TOWNNAME":"歸仁區","LI":"武東里","LIN":"12鄰","STREET":" ","SECT":" ","MAREA":"明德新村","LANE":" ","ALLEY":" ","HOUSE_NO":"８９號","E_COORD97":175243.79000000001,"N_COORD97":2536135.27,"ADDRESS":"明德新村８９號","OBJECTID":90399},"geometry":{"x":175243.79000000097,"y":2536135.2699999996}},{"attributes":{"ID":90400,"DIS_CODE":0,"TOWNNAME":"新化區","LI":"知義里","LIN":"1鄰","STREET":" ","SECT":" ","MAREA":"知母義","LANE":" ","ALLEY":" ","HOUSE_NO":"１４號之１","E_COORD97":179464.10000000001,"N_COORD97":2547018.2599999998,"ADDRESS":"知母義１４號之１","OBJECTID":90400},"geometry":{"x":179464.09999999963,"y":2547018.2599999998}}]}