{"displayFieldName":"TOWNNAME","fieldAliases":{"ID":"ID","DIS_CODE":"DIS_CODE","TOWNNAME":"TOWNNAME","LI":"LI","LIN":"LIN","STREET":"STREET","SECT":"SECT","MAREA":"MAREA","LANE":"LANE","ALLEY":"ALLEY","HOUSE_NO":"HOUSE_NO","E_COORD97":"E_COORD97","N_COORD97":"N_COORD97","ADDRESS":"ADDRESS","OBJECTID":"OBJECTID"},"geometryType":"esriGeometryPoint","spatialReference":{"wkid":102443,"latestWkid":3826},"fields":[{"name":"ID","type":"esriFieldTypeDouble","alias":"ID"},{"name":"DIS_CODE","type":"esriFieldTypeInteger","alias":"DIS_CODE"},{"name":"TOWNNAME","type":"esriFieldTypeString","alias":"TOWNNAME","length":8},{"name":"LI","type":"esriFieldTypeString","alias":"LI","length":8},{"name":"LIN","type":"esriFieldTypeString","alias":"LIN","length":12},{"name":"STREET","type":"esriFieldTypeString","alias":"STREET","length":20},{"name":"SECT","type":"esriFieldTypeString","alias":"SECT","length":8},{"name":"MAREA","type":"esriFieldTypeString","alias":"MAREA","length":12},{"name":"LANE","type":"esriFieldTypeString","alias":"LANE","length":10},{"name":"ALLEY","type":"esriFieldTypeString","alias":"ALLEY","length":10},{"name":"HOUSE_NO","type":"esriFieldTypeString","alias":"HOUSE_NO","length":20},{"name":"E_COORD97","type":"esriFieldTypeDouble","alias":"E_COORD97"},{"name":"N_COORD97","type":"esriFieldTypeDouble","alias":"N_COORD97"},{"name":"ADDRESS","type":"esriFieldTypeString","alias":"ADDRESS","length":50},{"name":"OBJECTID","type":"esriFieldTypeOID","alias":"OBJECTID"}],"features":[{"attributes":{"ID":220802,"DIS_CODE":0,"TOWNNAME":"永康區","LI":"網寮里","LIN":"18鄰","STREET":"永二街","SECT":" ","MAREA":" ","LANE":"１９３巷","ALLEY":"２弄","HOUSE_NO":"１０號","E_COORD97":173446.95000000001,"N_COORD97":2546294.9300000002,"ADDRESS":"永二街１９３巷２弄１０號","OBJECTID":220801},"geometry":{"x":173446.95000000205,"y":2546294.9299999997}},{"attributes":{"ID":220803,"DIS_CODE":0,"TOWNNAME":"永康區","LI":"勝利里","LIN":"20鄰","STREET":"勝利街","SECT":" ","MAREA":" ","LANE":"１９７巷","ALLEY":"４０弄","HOUSE_NO":"８號","E_COORD97":171262.56,"N_COORD97":2545166.5099999998,"ADDRESS":"勝利街１９７巷４０弄８號","OBJECTID":220802},"geometry":{"x":171262.56000000052,"y":2545166.5100000035}},{"attributes":{"ID":220804,"DIS_CODE":0,"TOWNNAME":"永康區","LI":"復興里","LIN":"23鄰","STREET":"復興路","SECT":" ","MAREA":" ","LANE":"２４６巷","ALLEY":"２７弄","HOUSE_NO":"１８號","E_COORD97":172355.48999999999,"N_COORD97":2544493.27,"ADDRESS":"復興路２４６巷２７弄１８號","OBJECTID":220803},"geometry":{"x":172355.49000000115,"y":2544493.2700000033}},{"attributes":{"ID":220805,"DIS_CODE":0,"TOWNNAME":"佳里區","LI":"子龍里","LIN":"4鄰","STREET":" ","SECT":" ","MAREA":"子良廟","LANE":" ","ALLEY":" ","HOUSE_NO":"４５號之１","E_COORD97":168896.38,"N_COORD97":2563903.3599999999,"ADDRESS":"子良廟４５號之１","OBJECTID":220804},"geometry":{"x":168896.37999999989,"y":2563903.3600000013}},{"attributes":{"ID":220806,"DIS_CODE":0,"TOWNNAME":"佳里區","LI":"子龍里","LIN":"4鄰","STREET":" ","SECT":" ","MAREA":"子良廟","LANE":" ","ALLEY":" ","HOUSE_NO":"４５號之２","E_COORD97":168857.22,"N_COORD97":2563921.1899999999,"ADDRESS":"子良廟４５號之２","OBJECTID":220805},"geometry":{"x":168857.21999999974,"y":2563921.1900000013}},{"attributes":{"ID":220807,"DIS_CODE":0,"TOWNNAME":"佳里區","LI":"子龍里","LIN":"14鄰","STREET":" ","SECT":" ","MAREA":"子良廟","LANE":" ","ALLEY":" ","HOUSE_NO":"１７７號","E_COORD97":169079.04000000001,"N_COORD97":2563619.5600000001,"ADDRESS":"子良廟１７７號","OBJECTID":220806},"geometry":{"x":169079.04000000004,"y":2563619.5600000005}},{"attributes":{"ID":220808,"DIS_CODE":0,"TOWNNAME":"佳里區","LI":"子龍里","LIN":"14鄰","STREET":" ","SECT":" ","MAREA":"子良廟","LANE":" ","ALLEY":" ","HOUSE_NO":"１７８號","E_COORD97":169044.07999999999,"N_COORD97":2563621.0499999998,"ADDRESS":"子良廟１７８號","OBJECTID":220807},"geometry":{"x":169044.08000000101,"y":2563621.0500000045}},{"attributes":{"ID":220809,"DIS_CODE":0,"TOWNNAME":"佳里區","LI":"子龍里","LIN":"14鄰","STREET":" ","SECT":" ","MAREA":"子良廟","LANE":" ","ALLEY":" ","HOUSE_NO":"１７９號","E_COORD97":169047.98999999999,"N_COORD97":2563589.4500000002,"ADDRESS":"子良廟１７９號","OBJECTID":220808},"geometry":{"x":169047.99000000115,"y":2563589.4499999974}},{"attributes":{"ID":220810,"DIS_CODE":0,"TOWNNAME":"佳里區","LI":"子龍里","LIN":"16鄰","STREET":" ","SECT":" ","MAREA":"子良廟","LANE":" ","ALLEY":" ","HOUSE_NO":"１７４號","E_COORD97":169106.85000000001,"N_COORD97":2563687.4399999999,"ADDRESS":"子良廟１７４號","OBJECTID":220809},"geometry":{"x":169106.84999999963,"y":2563687.4399999995}},{"attributes":{"ID":220811,"DIS_CODE":0,"TOWNNAME":"佳里區","LI":"子龍里","LIN":"16鄰","STREET":" ","SECT":" ","MAREA":"子良廟","LANE":" ","ALLEY":" ","HOUSE_NO":"１７５號","E_COORD97":169107.51000000001,"N_COORD97":2563671.79,"ADDRESS":"子良廟１７５號","OBJECTID":220810},"geometry":{"x":169107.50999999978,"y":2563671.7899999972}},{"attributes":{"ID":220812,"DIS_CODE":0,"TOWNNAME":"佳里區","LI":"子龍里","LIN":"16鄰","STREET":" ","SECT":" ","MAREA":"子良廟","LANE":" ","ALLEY":" ","HOUSE_NO":"１７６號之１","E_COORD97":169180.57000000001,"N_COORD97":2563420.7599999998,"ADDRESS":"子良廟１７６號之１","OBJECTID":220811},"geometry":{"x":169180.5700000003,"y":2563420.7599999998}},{"attributes":{"ID":220813,"DIS_CODE":0,"TOWNNAME":"佳里區","LI":"子龍里","LIN":"16鄰","STREET":" ","SECT":" ","MAREA":"子良廟","LANE":" ","ALLEY":" ","HOUSE_NO":"１７６號之２","E_COORD97":169295.76999999999,"N_COORD97":2563115.2999999998,"ADDRESS":"子良廟１７６號之２","OBJECTID":220812},"geometry":{"x":169295.76999999955,"y":2563115.3000000026}},{"attributes":{"ID":220814,"DIS_CODE":0,"TOWNNAME":"佳里區","LI":"子龍里","LIN":"16鄰","STREET":" ","SECT":" ","MAREA":"子良廟","LANE":" ","ALLEY":" ","HOUSE_NO":"１７６號之３１","E_COORD97":169202.44,"N_COORD97":2562825.0099999998,"ADDRESS":"子良廟１７６號之３１","OBJECTID":220813},"geometry":{"x":169202.44000000227,"y":2562825.0100000016}},{"attributes":{"ID":220815,"DIS_CODE":0,"TOWNNAME":"佳里區","LI":"子龍里","LIN":"16鄰","STREET":" ","SECT":" ","MAREA":"子良廟","LANE":" ","ALLEY":" ","HOUSE_NO":"１７６號之３２","E_COORD97":169178.35999999999,"N_COORD97":2562781.5699999998,"ADDRESS":"子良廟１７６號之３２","OBJECTID":220814},"geometry":{"x":169178.36000000034,"y":2562781.5700000003}},{"attributes":{"ID":220816,"DIS_CODE":0,"TOWNNAME":"佳里區","LI":"子龍里","LIN":"16鄰","STREET":" ","SECT":" ","MAREA":"子良廟","LANE":" ","ALLEY":" ","HOUSE_NO":"１７６號之３","E_COORD97":169208.09,"N_COORD97":2563314.6499999999,"ADDRESS":"子良廟１７６號之３","OBJECTID":220815},"geometry":{"x":169208.09000000078,"y":2563314.6499999985}},{"attributes":{"ID":220817,"DIS_CODE":0,"TOWNNAME":"佳里區","LI":"子龍里","LIN":"7鄰","STREET":" ","SECT":" ","MAREA":"子良廟","LANE":" ","ALLEY":" ","HOUSE_NO":"２１５號","E_COORD97":168884.73999999999,"N_COORD97":2563719.3500000001,"ADDRESS":"子良廟２１５號","OBJECTID":220816},"geometry":{"x":168884.74000000022,"y":2563719.3499999978}},{"attributes":{"ID":220818,"DIS_CODE":0,"TOWNNAME":"佳里區","LI":"子龍里","LIN":"16鄰","STREET":" ","SECT":" ","MAREA":"子良廟","LANE":" ","ALLEY":" ","HOUSE_NO":"１７６號之４","E_COORD97":169127.79000000001,"N_COORD97":2563586.9500000002,"ADDRESS":"子良廟１７６號之４","OBJECTID":220817},"geometry":{"x":169127.79000000004,"y":2563586.9500000011}},{"attributes":{"ID":220819,"DIS_CODE":0,"TOWNNAME":"永康區","LI":"大灣里","LIN":"28鄰","STREET":"大灣六街","SECT":" ","MAREA":" ","LANE":" ","ALLEY":" ","HOUSE_NO":"１３號","E_COORD97":175293.13,"N_COORD97":2545191.8500000001,"ADDRESS":"大灣六街１３號","OBJECTID":220818},"geometry":{"x":175293.13000000175,"y":2545191.8500000015}},{"attributes":{"ID":220820,"DIS_CODE":0,"TOWNNAME":"永康區","LI":"大灣里","LIN":"28鄰","STREET":"文賢街","SECT":" ","MAREA":" ","LANE":" ","ALLEY":" ","HOUSE_NO":"５９號","E_COORD97":175301.31,"N_COORD97":2545062.96,"ADDRESS":"文賢街５９號","OBJECTID":220819},"geometry":{"x":175301.30999999959,"y":2545062.9600000046}},{"attributes":{"ID":220821,"DIS_CODE":0,"TOWNNAME":"佳里區","LI":"子龍里","LIN":"16鄰","STREET":" ","SECT":" ","MAREA":"子良廟","LANE":" ","ALLEY":" ","HOUSE_NO":"１７６號","E_COORD97":169116.51999999999,"N_COORD97":2563657.04,"ADDRESS":"子良廟１７６號","OBJECTID":220820},"geometry":{"x":169116.52000000048,"y":2563657.040000001}},{"attributes":{"ID":220822,"DIS_CODE":0,"TOWNNAME":"佳里區","LI":"子龍里","LIN":"2鄰","STREET":" ","SECT":" ","MAREA":"子良廟","LANE":" ","ALLEY":" ","HOUSE_NO":"１７號之１","E_COORD97":168820.23000000001,"N_COORD97":2563971.9900000002,"ADDRESS":"子良廟１７號之１","OBJECTID":220821},"geometry":{"x":168820.23000000045,"y":2563971.9900000002}},{"attributes":{"ID":220823,"DIS_CODE":0,"TOWNNAME":"佳里區","LI":"子龍里","LIN":"2鄰","STREET":" ","SECT":" ","MAREA":"子良廟","LANE":" ","ALLEY":" ","HOUSE_NO":"１７號之２","E_COORD97":168841.35000000001,"N_COORD97":2563976.8199999998,"ADDRESS":"子良廟１７號之２","OBJECTID":220822},"geometry":{"x":168841.35000000056,"y":2563976.8200000003}},{"attributes":{"ID":220824,"DIS_CODE":0,"TOWNNAME":"永康區","LI":"復華里","LIN":"34鄰","STREET":"復國一路","SECT":" ","MAREA":" ","LANE":"４７５巷","ALLEY":"６０弄","HOUSE_NO":"８號","E_COORD97":172512.41,"N_COORD97":2546009.0899999999,"ADDRESS":"復國一路４７５巷６０弄８號","OBJECTID":220823},"geometry":{"x":172512.41000000015,"y":2546009.0899999999}},{"attributes":{"ID":220825,"DIS_CODE":0,"TOWNNAME":"永康區","LI":"網寮里","LIN":"17鄰","STREET":"永興路","SECT":" ","MAREA":" ","LANE":"４２７巷","ALLEY":"２弄","HOUSE_NO":"５３號","E_COORD97":173211.10999999999,"N_COORD97":2546826.1000000001,"ADDRESS":"永興路４２７巷２弄５３號","OBJECTID":220824},"geometry":{"x":173211.11000000127,"y":2546826.0999999996}},{"attributes":{"ID":220826,"DIS_CODE":0,"TOWNNAME":"佳里區","LI":"子龍里","LIN":"2鄰","STREET":" ","SECT":" ","MAREA":"子良廟","LANE":" ","ALLEY":" ","HOUSE_NO":"１７號之３","E_COORD97":168846.17000000001,"N_COORD97":2563978.9300000002,"ADDRESS":"子良廟１７號之３","OBJECTID":220825},"geometry":{"x":168846.17000000179,"y":2563978.9299999997}},{"attributes":{"ID":220827,"DIS_CODE":0,"TOWNNAME":"佳里區","LI":"子龍里","LIN":"20鄰","STREET":" ","SECT":" ","MAREA":"子良廟","LANE":" ","ALLEY":" ","HOUSE_NO":"２０５號","E_COORD97":168830.64000000001,"N_COORD97":2563682.8999999999,"ADDRESS":"子良廟２０５號","OBJECTID":220826},"geometry":{"x":168830.63999999873,"y":2563682.9000000041}},{"attributes":{"ID":220828,"DIS_CODE":0,"TOWNNAME":"佳里區","LI":"子龍里","LIN":"20鄰","STREET":" ","SECT":" ","MAREA":"子良廟","LANE":" ","ALLEY":" ","HOUSE_NO":"２０６號","E_COORD97":168847.17999999999,"N_COORD97":2563683.9199999999,"ADDRESS":"子良廟２０６號","OBJECTID":220827},"geometry":{"x":168847.1799999997,"y":2563683.9199999999}},{"attributes":{"ID":220829,"DIS_CODE":0,"TOWNNAME":"佳里區","LI":"子龍里","LIN":"20鄰","STREET":" ","SECT":" ","MAREA":"子良廟","LANE":" ","ALLEY":" ","HOUSE_NO":"２０７號","E_COORD97":168861.32000000001,"N_COORD97":2563684.3500000001,"ADDRESS":"子良廟２０７號","OBJECTID":220828},"geometry":{"x":168861.32000000123,"y":2563684.3499999996}},{"attributes":{"ID":220830,"DIS_CODE":0,"TOWNNAME":"歸仁區","LI":"大廟里","LIN":"23鄰","STREET":"大廟一街","SECT":" ","MAREA":" ","LANE":"３８巷","ALLEY":"２５弄","HOUSE_NO":"１４號","E_COORD97":175727.47,"N_COORD97":2544068.25,"ADDRESS":"大廟一街３８巷２５弄１４號","OBJECTID":220829},"geometry":{"x":175727.46999999974,"y":2544068.2500000019}},{"attributes":{"ID":220831,"DIS_CODE":0,"TOWNNAME":"佳里區","LI":"子龍里","LIN":"20鄰","STREET":" ","SECT":" ","MAREA":"子良廟","LANE":" ","ALLEY":" ","HOUSE_NO":"２０８號","E_COORD97":168872.35000000001,"N_COORD97":2563679.6099999999,"ADDRESS":"子良廟２０８號","OBJECTID":220830},"geometry":{"x":168872.35000000056,"y":2563679.6099999994}},{"attributes":{"ID":220832,"DIS_CODE":0,"TOWNNAME":"佳里區","LI":"子龍里","LIN":"20鄰","STREET":" ","SECT":" ","MAREA":"子良廟","LANE":" ","ALLEY":" ","HOUSE_NO":"２０９號","E_COORD97":168884.37,"N_COORD97":2563686.0800000001,"ADDRESS":"子良廟２０９號","OBJECTID":220831},"geometry":{"x":168884.37000000104,"y":2563686.0800000019}},{"attributes":{"ID":220833,"DIS_CODE":0,"TOWNNAME":"佳里區","LI":"子龍里","LIN":"1鄰","STREET":" ","SECT":" ","MAREA":"子良廟","LANE":" ","ALLEY":" ","HOUSE_NO":"１號之１０","E_COORD97":168567.35000000001,"N_COORD97":2563830.2599999998,"ADDRESS":"子良廟１號之１０","OBJECTID":220832},"geometry":{"x":168567.35000000056,"y":2563830.2600000016}},{"attributes":{"ID":220834,"DIS_CODE":0,"TOWNNAME":"佳里區","LI":"子龍里","LIN":"1鄰","STREET":" ","SECT":" ","MAREA":"子良廟","LANE":" ","ALLEY":" ","HOUSE_NO":"１號之１１","E_COORD97":168560.09,"N_COORD97":2563812.6299999999,"ADDRESS":"子良廟１號之１１","OBJECTID":220833},"geometry":{"x":168560.09000000171,"y":2563812.6300000008}},{"attributes":{"ID":220835,"DIS_CODE":0,"TOWNNAME":"歸仁區","LI":"大廟里","LIN":"23鄰","STREET":"大廟一街","SECT":" ","MAREA":" ","LANE":"３８巷","ALLEY":"５７弄","HOUSE_NO":"７號","E_COORD97":175662.72,"N_COORD97":2544073.2400000002,"ADDRESS":"大廟一街３８巷５７弄７號","OBJECTID":220834},"geometry":{"x":175662.72000000067,"y":2544073.2400000002}},{"attributes":{"ID":220836,"DIS_CODE":0,"TOWNNAME":"佳里區","LI":"子龍里","LIN":"1鄰","STREET":" ","SECT":" ","MAREA":"子良廟","LANE":" ","ALLEY":" ","HOUSE_NO":"１號之１２","E_COORD97":168535.70000000001,"N_COORD97":2563811.9100000001,"ADDRESS":"子良廟１號之１２","OBJECTID":220835},"geometry":{"x":168535.70000000019,"y":2563811.910000002}},{"attributes":{"ID":220837,"DIS_CODE":0,"TOWNNAME":"新營區","LI":"新南里","LIN":"23鄰","STREET":"復興路","SECT":" ","MAREA":" ","LANE":"６２０巷","ALLEY":"３９弄","HOUSE_NO":"３３號之４","E_COORD97":177949.66,"N_COORD97":2578454.1400000001,"ADDRESS":"復興路６２０巷３９弄３３號之４","OBJECTID":220836},"geometry":{"x":177949.66000000201,"y":2578454.1400000025}},{"attributes":{"ID":220838,"DIS_CODE":0,"TOWNNAME":"新營區","LI":"新南里","LIN":"23鄰","STREET":"復興路","SECT":" ","MAREA":" ","LANE":"６２０巷","ALLEY":"１５弄","HOUSE_NO":"６０號","E_COORD97":177914.57999999999,"N_COORD97":2578432.1099999999,"ADDRESS":"復興路６２０巷１５弄６０號","OBJECTID":220837},"geometry":{"x":177914.58000000101,"y":2578432.1100000013}},{"attributes":{"ID":220839,"DIS_CODE":0,"TOWNNAME":"永康區","LI":"網寮里","LIN":"18鄰","STREET":"永二街","SECT":" ","MAREA":" ","LANE":"１９３巷","ALLEY":"１弄","HOUSE_NO":"１號","E_COORD97":173467.54000000001,"N_COORD97":2546314.9900000002,"ADDRESS":"永二街１９３巷１弄１號","OBJECTID":220838},"geometry":{"x":173467.54000000004,"y":2546314.9900000002}},{"attributes":{"ID":220840,"DIS_CODE":0,"TOWNNAME":"永康區","LI":"網寮里","LIN":"15鄰","STREET":"永和街","SECT":" ","MAREA":" ","LANE":"２６０巷","ALLEY":"２６弄","HOUSE_NO":"６號","E_COORD97":173452.28,"N_COORD97":2546640.5,"ADDRESS":"永和街２６０巷２６弄６號","OBJECTID":220839},"geometry":{"x":173452.28000000119,"y":2546640.5}},{"attributes":{"ID":220841,"DIS_CODE":0,"TOWNNAME":"永康區","LI":"大灣里","LIN":"28鄰","STREET":"大灣六街","SECT":" ","MAREA":" ","LANE":"９巷","ALLEY":" ","HOUSE_NO":"８號","E_COORD97":175296.01999999999,"N_COORD97":2545167.0800000001,"ADDRESS":"大灣六街９巷８號","OBJECTID":220840},"geometry":{"x":175296.02000000048,"y":2545167.0800000019}},{"attributes":{"ID":220842,"DIS_CODE":0,"TOWNNAME":"佳里區","LI":"子龍里","LIN":"1鄰","STREET":" ","SECT":" ","MAREA":"子良廟","LANE":" ","ALLEY":" ","HOUSE_NO":"１號之１","E_COORD97":168504.29999999999,"N_COORD97":2563754.7599999998,"ADDRESS":"子良廟１號之１","OBJECTID":220841},"geometry":{"x":168504.30000000168,"y":2563754.7600000016}},{"attributes":{"ID":220843,"DIS_CODE":0,"TOWNNAME":"永康區","LI":"大灣里","LIN":"28鄰","STREET":"大灣六街","SECT":" ","MAREA":" ","LANE":" ","ALLEY":" ","HOUSE_NO":"１１號","E_COORD97":175297.23999999999,"N_COORD97":2545191.8500000001,"ADDRESS":"大灣六街１１號","OBJECTID":220842},"geometry":{"x":175297.24000000022,"y":2545191.8500000015}},{"attributes":{"ID":220844,"DIS_CODE":0,"TOWNNAME":"佳里區","LI":"子龍里","LIN":"1鄰","STREET":" ","SECT":" ","MAREA":"子良廟","LANE":" ","ALLEY":" ","HOUSE_NO":"１號之２","E_COORD97":168597.32999999999,"N_COORD97":2563855.5699999998,"ADDRESS":"子良廟１號之２","OBJECTID":220843},"geometry":{"x":168597.33000000007,"y":2563855.5700000022}},{"attributes":{"ID":220845,"DIS_CODE":0,"TOWNNAME":"佳里區","LI":"子龍里","LIN":"1鄰","STREET":" ","SECT":" ","MAREA":"子良廟","LANE":" ","ALLEY":" ","HOUSE_NO":"１號之３","E_COORD97":168593.92000000001,"N_COORD97":2563852.1499999999,"ADDRESS":"子良廟１號之３","OBJECTID":220844},"geometry":{"x":168593.92000000086,"y":2563852.1500000022}},{"attributes":{"ID":220846,"DIS_CODE":0,"TOWNNAME":"佳里區","LI":"子龍里","LIN":"1鄰","STREET":" ","SECT":" ","MAREA":"子良廟","LANE":" ","ALLEY":" ","HOUSE_NO":"１號之４","E_COORD97":168590.51000000001,"N_COORD97":2563849.04,"ADDRESS":"子良廟１號之４","OBJECTID":220845},"geometry":{"x":168590.50999999978,"y":2563849.0399999991}},{"attributes":{"ID":220847,"DIS_CODE":0,"TOWNNAME":"佳里區","LI":"子龍里","LIN":"1鄰","STREET":" ","SECT":" ","MAREA":"子良廟","LANE":" ","ALLEY":" ","HOUSE_NO":"１號之５","E_COORD97":168587.39999999999,"N_COORD97":2563846.3300000001,"ADDRESS":"子良廟１號之５","OBJECTID":220846},"geometry":{"x":168587.40000000224,"y":2563846.3300000019}},{"attributes":{"ID":220848,"DIS_CODE":0,"TOWNNAME":"佳里區","LI":"子龍里","LIN":"19鄰","STREET":" ","SECT":" ","MAREA":"子良廟","LANE":" ","ALLEY":" ","HOUSE_NO":"１９７號之１","E_COORD97":168822.09,"N_COORD97":2563644.04,"ADDRESS":"子良廟１９７號之１","OBJECTID":220847},"geometry":{"x":168822.08999999985,"y":2563644.040000001}},{"attributes":{"ID":220849,"DIS_CODE":0,"TOWNNAME":"佳里區","LI":"子龍里","LIN":"19鄰","STREET":" ","SECT":" ","MAREA":"子良廟","LANE":" ","ALLEY":" ","HOUSE_NO":"１９８號","E_COORD97":168859.81,"N_COORD97":2563636.4300000002,"ADDRESS":"子良廟１９８號","OBJECTID":220848},"geometry":{"x":168859.80999999959,"y":2563636.4299999997}},{"attributes":{"ID":220850,"DIS_CODE":0,"TOWNNAME":"佳里區","LI":"子龍里","LIN":"19鄰","STREET":" ","SECT":" ","MAREA":"子良廟","LANE":" ","ALLEY":" ","HOUSE_NO":"１９９號","E_COORD97":168885.54000000001,"N_COORD97":2563651.9100000001,"ADDRESS":"子良廟１９９號","OBJECTID":220849},"geometry":{"x":168885.54000000004,"y":2563651.9100000039}},{"attributes":{"ID":220851,"DIS_CODE":0,"TOWNNAME":"佳里區","LI":"子龍里","LIN":"19鄰","STREET":" ","SECT":" ","MAREA":"子良廟","LANE":" ","ALLEY":" ","HOUSE_NO":"２００號","E_COORD97":168871.54999999999,"N_COORD97":2563673.9900000002,"ADDRESS":"子良廟２００號","OBJECTID":220850},"geometry":{"x":168871.54999999981,"y":2563673.9900000002}},{"attributes":{"ID":220852,"DIS_CODE":0,"TOWNNAME":"佳里區","LI":"子龍里","LIN":"7鄰","STREET":" ","SECT":" ","MAREA":"子良廟","LANE":" ","ALLEY":" ","HOUSE_NO":"２１０號","E_COORD97":168881.73999999999,"N_COORD97":2563699.4700000002,"ADDRESS":"子良廟２１０號","OBJECTID":220851},"geometry":{"x":168881.74000000115,"y":2563699.4700000044}},{"attributes":{"ID":220853,"DIS_CODE":0,"TOWNNAME":"佳里區","LI":"子龍里","LIN":"7鄰","STREET":" ","SECT":" ","MAREA":"子良廟","LANE":" ","ALLEY":" ","HOUSE_NO":"２１５號之１","E_COORD97":168869.17000000001,"N_COORD97":2563725.9399999999,"ADDRESS":"子良廟２１５號之１","OBJECTID":220852},"geometry":{"x":168869.16999999993,"y":2563725.9400000013}},{"attributes":{"ID":220854,"DIS_CODE":0,"TOWNNAME":"永康區","LI":"復華里","LIN":"22鄰","STREET":"復華七街","SECT":" ","MAREA":" ","LANE":" ","ALLEY":" ","HOUSE_NO":"９９號","E_COORD97":172810.28,"N_COORD97":2546134.0499999998,"ADDRESS":"復華七街９９號","OBJECTID":220853},"geometry":{"x":172810.28000000026,"y":2546134.0500000026}},{"attributes":{"ID":220855,"DIS_CODE":0,"TOWNNAME":"中西區","LI":"永福里","LIN":"1鄰","STREET":"忠義路","SECT":"二段","MAREA":" ","LANE":" ","ALLEY":" ","HOUSE_NO":"４９號","E_COORD97":168242.42999999999,"N_COORD97":2543545.8599999999,"ADDRESS":"忠義路二段４９號","OBJECTID":220854},"geometry":{"x":168242.43000000063,"y":2543545.8599999994}},{"attributes":{"ID":220856,"DIS_CODE":0,"TOWNNAME":"南區","LI":"建南里","LIN":"23鄰","STREET":"永成路","SECT":"二段","MAREA":" ","LANE":"８２７巷","ALLEY":"２５弄","HOUSE_NO":"５７號","E_COORD97":167460.73999999999,"N_COORD97":2539991.75,"ADDRESS":"永成路二段８２７巷２５弄５７號","OBJECTID":220855},"geometry":{"x":167460.74000000022,"y":2539991.7500000019}},{"attributes":{"ID":220857,"DIS_CODE":0,"TOWNNAME":"南區","LI":"建南里","LIN":"23鄰","STREET":"永成路","SECT":"二段","MAREA":" ","LANE":"８２７巷","ALLEY":"２５弄","HOUSE_NO":"５９號","E_COORD97":167454.39999999999,"N_COORD97":2539991.4500000002,"ADDRESS":"永成路二段８２７巷２５弄５９號","OBJECTID":220856},"geometry":{"x":167454.40000000037,"y":2539991.4499999993}},{"attributes":{"ID":220858,"DIS_CODE":0,"TOWNNAME":"南區","LI":"建南里","LIN":"23鄰","STREET":"永成路","SECT":"二段","MAREA":" ","LANE":"８２７巷","ALLEY":"２５弄","HOUSE_NO":"５號","E_COORD97":167441.88,"N_COORD97":2540077.2999999998,"ADDRESS":"永成路二段８２７巷２５弄５號","OBJECTID":220857},"geometry":{"x":167441.87999999989,"y":2540077.3000000026}},{"attributes":{"ID":220859,"DIS_CODE":0,"TOWNNAME":"南區","LI":"建南里","LIN":"23鄰","STREET":"永成路","SECT":"二段","MAREA":" ","LANE":"８２７巷","ALLEY":"２５弄","HOUSE_NO":"６１號","E_COORD97":167449.31,"N_COORD97":2539991.4500000002,"ADDRESS":"永成路二段８２７巷２５弄６１號","OBJECTID":220858},"geometry":{"x":167449.30999999959,"y":2539991.4499999993}},{"attributes":{"ID":220860,"DIS_CODE":0,"TOWNNAME":"永康區","LI":"勝利里","LIN":"32鄰","STREET":"勝利街","SECT":" ","MAREA":" ","LANE":"３０巷","ALLEY":"７弄","HOUSE_NO":"６４號","E_COORD97":171485.32999999999,"N_COORD97":2544513.2200000002,"ADDRESS":"勝利街３０巷７弄６４號","OBJECTID":220859},"geometry":{"x":171485.33000000101,"y":2544513.2200000025}},{"attributes":{"ID":220861,"DIS_CODE":0,"TOWNNAME":"南區","LI":"建南里","LIN":"23鄰","STREET":"永成路","SECT":"二段","MAREA":" ","LANE":"８２７巷","ALLEY":"２５弄","HOUSE_NO":"６３號","E_COORD97":167444.06,"N_COORD97":2539991.4500000002,"ADDRESS":"永成路二段８２７巷２５弄６３號","OBJECTID":220860},"geometry":{"x":167444.05999999959,"y":2539991.4499999993}},{"attributes":{"ID":220862,"DIS_CODE":0,"TOWNNAME":"南區","LI":"建南里","LIN":"23鄰","STREET":"永成路","SECT":"二段","MAREA":" ","LANE":"８２７巷","ALLEY":"２５弄","HOUSE_NO":"６５號","E_COORD97":167436.48000000001,"N_COORD97":2539993.3900000001,"ADDRESS":"永成路二段８２７巷２５弄６５號","OBJECTID":220861},"geometry":{"x":167436.48000000138,"y":2539993.3900000006}},{"attributes":{"ID":220863,"DIS_CODE":0,"TOWNNAME":"南區","LI":"建南里","LIN":"23鄰","STREET":"永成路","SECT":"二段","MAREA":" ","LANE":"８２７巷","ALLEY":"２５弄","HOUSE_NO":"６７號","E_COORD97":167429.82999999999,"N_COORD97":2539993.3900000001,"ADDRESS":"永成路二段８２７巷２５弄６７號","OBJECTID":220862},"geometry":{"x":167429.83000000101,"y":2539993.3900000006}},{"attributes":{"ID":220864,"DIS_CODE":0,"TOWNNAME":"南區","LI":"建南里","LIN":"23鄰","STREET":"永成路","SECT":"二段","MAREA":" ","LANE":"８２７巷","ALLEY":"２５弄","HOUSE_NO":"７號","E_COORD97":167447.16,"N_COORD97":2540077.54,"ADDRESS":"永成路二段８２７巷２５弄７號","OBJECTID":220863},"geometry":{"x":167447.16000000015,"y":2540077.540000001}},{"attributes":{"ID":220865,"DIS_CODE":0,"TOWNNAME":"南區","LI":"建南里","LIN":"23鄰","STREET":"永成路","SECT":"二段","MAREA":" ","LANE":"８２７巷","ALLEY":"２５弄","HOUSE_NO":"９號","E_COORD97":167452.19,"N_COORD97":2540077.54,"ADDRESS":"永成路二段８２７巷２５弄９號","OBJECTID":220864},"geometry":{"x":167452.19000000041,"y":2540077.540000001}},{"attributes":{"ID":220866,"DIS_CODE":0,"TOWNNAME":"永康區","LI":"復興里","LIN":"24鄰","STREET":"復興路","SECT":" ","MAREA":" ","LANE":"３５６巷","ALLEY":"８０弄","HOUSE_NO":"９６號","E_COORD97":172460.79000000001,"N_COORD97":2544569.2799999998,"ADDRESS":"復興路３５６巷８０弄９６號","OBJECTID":220865},"geometry":{"x":172460.79000000004,"y":2544569.2799999993}},{"attributes":{"ID":220867,"DIS_CODE":0,"TOWNNAME":"永康區","LI":"復興里","LIN":"24鄰","STREET":"復興路","SECT":" ","MAREA":" ","LANE":"３５６巷","ALLEY":"８０弄","HOUSE_NO":"３７號","E_COORD97":172395.73000000001,"N_COORD97":2544557.5299999998,"ADDRESS":"復興路３５６巷８０弄３７號","OBJECTID":220866},"geometry":{"x":172395.73000000045,"y":2544557.5299999993}},{"attributes":{"ID":220868,"DIS_CODE":0,"TOWNNAME":"永康區","LI":"勝利里","LIN":"19鄰","STREET":"勝利街","SECT":" ","MAREA":" ","LANE":"１９７巷","ALLEY":"２５弄","HOUSE_NO":"４２號","E_COORD97":171254.37,"N_COORD97":2545020.0299999998,"ADDRESS":"勝利街１９７巷２５弄４２號","OBJECTID":220867},"geometry":{"x":171254.37000000104,"y":2545020.0300000031}},{"attributes":{"ID":220869,"DIS_CODE":0,"TOWNNAME":"永康區","LI":"復興里","LIN":"24鄰","STREET":"復興路","SECT":" ","MAREA":" ","LANE":"３５６巷","ALLEY":"８０弄","HOUSE_NO":"６號","E_COORD97":172387.34,"N_COORD97":2544545.2799999998,"ADDRESS":"復興路３５６巷８０弄６號","OBJECTID":220868},"geometry":{"x":172387.33999999985,"y":2544545.2800000012}},{"attributes":{"ID":220870,"DIS_CODE":0,"TOWNNAME":"永康區","LI":"網寮里","LIN":"17鄰","STREET":"永興路","SECT":" ","MAREA":" ","LANE":"４２７巷","ALLEY":"２３弄","HOUSE_NO":"１號","E_COORD97":173266.87,"N_COORD97":2546801.1299999999,"ADDRESS":"永興路４２７巷２３弄１號","OBJECTID":220869},"geometry":{"x":173266.87000000011,"y":2546801.129999999}},{"attributes":{"ID":220871,"DIS_CODE":0,"TOWNNAME":"永康區","LI":"勝利里","LIN":"36鄰","STREET":"勝學路","SECT":" ","MAREA":" ","LANE":"８２巷","ALLEY":"２弄","HOUSE_NO":"１３號","E_COORD97":171201.78,"N_COORD97":2544755.0099999998,"ADDRESS":"勝學路８２巷２弄１３號","OBJECTID":220870},"geometry":{"x":171201.78000000026,"y":2544755.0099999998}},{"attributes":{"ID":220872,"DIS_CODE":0,"TOWNNAME":"永康區","LI":"勝利里","LIN":"20鄰","STREET":"勝利街","SECT":" ","MAREA":" ","LANE":"１９７巷","ALLEY":"４０弄","HOUSE_NO":"２８號","E_COORD97":171303.60000000001,"N_COORD97":2545165.2599999998,"ADDRESS":"勝利街１９７巷４０弄２８號","OBJECTID":220871},"geometry":{"x":171303.59999999963,"y":2545165.2600000016}},{"attributes":{"ID":220873,"DIS_CODE":0,"TOWNNAME":"永康區","LI":"網寮里","LIN":"18鄰","STREET":"永二街","SECT":" ","MAREA":" ","LANE":"１９３巷","ALLEY":"１弄","HOUSE_NO":"７號","E_COORD97":173474.48999999999,"N_COORD97":2546327.9900000002,"ADDRESS":"永二街１９３巷１弄７號","OBJECTID":220872},"geometry":{"x":173474.49000000115,"y":2546327.9900000021}},{"attributes":{"ID":220874,"DIS_CODE":0,"TOWNNAME":"佳里區","LI":"子龍里","LIN":"7鄰","STREET":" ","SECT":" ","MAREA":"子良廟","LANE":" ","ALLEY":" ","HOUSE_NO":"２１５號之２","E_COORD97":168882.09,"N_COORD97":2563731.8399999999,"ADDRESS":"子良廟２１５號之２","OBJECTID":220873},"geometry":{"x":168882.09000000171,"y":2563731.8399999999}},{"attributes":{"ID":220875,"DIS_CODE":0,"TOWNNAME":"永康區","LI":"復華里","LIN":"34鄰","STREET":"復國一路","SECT":" ","MAREA":" ","LANE":"４７５巷","ALLEY":"６０弄","HOUSE_NO":"４１號","E_COORD97":172505.75,"N_COORD97":2546043.3300000001,"ADDRESS":"復國一路４７５巷６０弄４１號","OBJECTID":220874},"geometry":{"x":172505.75000000093,"y":2546043.3300000019}},{"attributes":{"ID":220876,"DIS_CODE":0,"TOWNNAME":"永康區","LI":"勝利里","LIN":"3鄰","STREET":"勝利街","SECT":" ","MAREA":" ","LANE":"２巷","ALLEY":"４８弄","HOUSE_NO":"２４號","E_COORD97":171093.01999999999,"N_COORD97":2544732.75,"ADDRESS":"勝利街２巷４８弄２４號","OBJECTID":220875},"geometry":{"x":171093.02000000048,"y":2544732.7500000019}},{"attributes":{"ID":220877,"DIS_CODE":0,"TOWNNAME":"安平區","LI":"平安里","LIN":"23鄰","STREET":"安平路","SECT":" ","MAREA":" ","LANE":"４４６巷","ALLEY":"２５弄","HOUSE_NO":"２４號","E_COORD97":165215.48000000001,"N_COORD97":2544438.1699999999,"ADDRESS":"安平路４４６巷２５弄２４號","OBJECTID":220876},"geometry":{"x":165215.48000000138,"y":2544438.1700000018}},{"attributes":{"ID":220878,"DIS_CODE":0,"TOWNNAME":"安平區","LI":"平安里","LIN":"23鄰","STREET":"安平路","SECT":" ","MAREA":" ","LANE":"４４６巷","ALLEY":"２５弄","HOUSE_NO":"４０號","E_COORD97":165186.64000000001,"N_COORD97":2544443.3999999999,"ADDRESS":"安平路４４６巷２５弄４０號","OBJECTID":220877},"geometry":{"x":165186.6400000006,"y":2544443.4000000022}},{"attributes":{"ID":220879,"DIS_CODE":0,"TOWNNAME":"安平區","LI":"平安里","LIN":"23鄰","STREET":"安平路","SECT":" ","MAREA":" ","LANE":"４４６巷","ALLEY":"２５弄","HOUSE_NO":"４１號","E_COORD97":165203.76000000001,"N_COORD97":2544425.6800000002,"ADDRESS":"安平路４４６巷２５弄４１號","OBJECTID":220878},"geometry":{"x":165203.75999999978,"y":2544425.6799999997}},{"attributes":{"ID":220880,"DIS_CODE":0,"TOWNNAME":"安平區","LI":"平安里","LIN":"23鄰","STREET":"安平路","SECT":" ","MAREA":" ","LANE":"４４６巷","ALLEY":"２５弄","HOUSE_NO":"４２號","E_COORD97":165182.51999999999,"N_COORD97":2544444.5,"ADDRESS":"安平路４４６巷２５弄４２號","OBJECTID":220879},"geometry":{"x":165182.52000000048,"y":2544444.4999999981}},{"attributes":{"ID":220881,"DIS_CODE":0,"TOWNNAME":"永康區","LI":"網寮里","LIN":"18鄰","STREET":"永二街","SECT":" ","MAREA":" ","LANE":"１９３巷","ALLEY":"１弄","HOUSE_NO":"５號","E_COORD97":173471.98999999999,"N_COORD97":2546323.7400000002,"ADDRESS":"永二街１９３巷１弄５號","OBJECTID":220880},"geometry":{"x":173471.98999999929,"y":2546323.7400000002}},{"attributes":{"ID":220882,"DIS_CODE":0,"TOWNNAME":"永康區","LI":"復興里","LIN":"24鄰","STREET":"復興路","SECT":" ","MAREA":" ","LANE":"３５６巷","ALLEY":"８０弄","HOUSE_NO":"８１號","E_COORD97":172452.94,"N_COORD97":2544609.6600000001,"ADDRESS":"復興路３５６巷８０弄８１號","OBJECTID":220881},"geometry":{"x":172452.94000000134,"y":2544609.6599999983}},{"attributes":{"ID":220883,"DIS_CODE":0,"TOWNNAME":"佳里區","LI":"子龍里","LIN":"5鄰","STREET":" ","SECT":" ","MAREA":"子良廟","LANE":" ","ALLEY":" ","HOUSE_NO":"５２號之１","E_COORD97":168801.87,"N_COORD97":2563892.7000000002,"ADDRESS":"子良廟５２號之１","OBJECTID":220882},"geometry":{"x":168801.87000000011,"y":2563892.6999999993}},{"attributes":{"ID":220884,"DIS_CODE":0,"TOWNNAME":"永康區","LI":"復興里","LIN":"30鄰","STREET":"復興路","SECT":" ","MAREA":" ","LANE":"３５６巷","ALLEY":"８０弄","HOUSE_NO":"１０１號","E_COORD97":172482.92000000001,"N_COORD97":2544631.52,"ADDRESS":"復興路３５６巷８０弄１０１號","OBJECTID":220883},"geometry":{"x":172482.92000000086,"y":2544631.5200000014}},{"attributes":{"ID":220885,"DIS_CODE":0,"TOWNNAME":"安平區","LI":"平安里","LIN":"23鄰","STREET":"安平路","SECT":" ","MAREA":" ","LANE":"４４６巷","ALLEY":"２５弄","HOUSE_NO":"４４號","E_COORD97":165179.51000000001,"N_COORD97":2544444.8199999998,"ADDRESS":"安平路４４６巷２５弄４４號","OBJECTID":220884},"geometry":{"x":165179.50999999978,"y":2544444.8200000003}},{"attributes":{"ID":220886,"DIS_CODE":0,"TOWNNAME":"安平區","LI":"平安里","LIN":"23鄰","STREET":"安平路","SECT":" ","MAREA":" ","LANE":"４４６巷","ALLEY":"２５弄","HOUSE_NO":"４５號","E_COORD97":165196.87,"N_COORD97":2544427.2000000002,"ADDRESS":"安平路４４６巷２５弄４５號","OBJECTID":220885},"geometry":{"x":165196.87000000197,"y":2544427.2000000011}},{"attributes":{"ID":220887,"DIS_CODE":0,"TOWNNAME":"安平區","LI":"平安里","LIN":"23鄰","STREET":"安平路","SECT":" ","MAREA":" ","LANE":"４４６巷","ALLEY":"２５弄","HOUSE_NO":"４６號","E_COORD97":165176.66,"N_COORD97":2544445.77,"ADDRESS":"安平路４４６巷２５弄４６號","OBJECTID":220886},"geometry":{"x":165176.66000000108,"y":2544445.7700000033}},{"attributes":{"ID":220888,"DIS_CODE":0,"TOWNNAME":"安平區","LI":"平安里","LIN":"23鄰","STREET":"安平路","SECT":" ","MAREA":" ","LANE":"４４６巷","ALLEY":"２５弄","HOUSE_NO":"４７號","E_COORD97":165193.13,"N_COORD97":2544428.0099999998,"ADDRESS":"安平路４４６巷２５弄４７號","OBJECTID":220887},"geometry":{"x":165193.13000000175,"y":2544428.0100000016}},{"attributes":{"ID":220889,"DIS_CODE":0,"TOWNNAME":"安平區","LI":"平安里","LIN":"23鄰","STREET":"安平路","SECT":" ","MAREA":" ","LANE":"４４６巷","ALLEY":"２５弄","HOUSE_NO":"４９號","E_COORD97":165189.16,"N_COORD97":2544428.6000000001,"ADDRESS":"安平路４４６巷２５弄４９號","OBJECTID":220888},"geometry":{"x":165189.16000000015,"y":2544428.5999999996}},{"attributes":{"ID":220890,"DIS_CODE":0,"TOWNNAME":"安平區","LI":"平安里","LIN":"23鄰","STREET":"安平路","SECT":" ","MAREA":" ","LANE":"４４６巷","ALLEY":"２５弄","HOUSE_NO":"４９號之１","E_COORD97":165185.42000000001,"N_COORD97":2544430.23,"ADDRESS":"安平路４４６巷２５弄４９號之１","OBJECTID":220889},"geometry":{"x":165185.41999999993,"y":2544430.2300000042}},{"attributes":{"ID":220891,"DIS_CODE":0,"TOWNNAME":"安平區","LI":"平安里","LIN":"23鄰","STREET":"安平路","SECT":" ","MAREA":" ","LANE":"４４６巷","ALLEY":"２５弄","HOUSE_NO":"５１號","E_COORD97":165179.81,"N_COORD97":2544431.52,"ADDRESS":"安平路４４６巷２５弄５１號","OBJECTID":220890},"geometry":{"x":165179.81000000145,"y":2544431.5200000014}},{"attributes":{"ID":220892,"DIS_CODE":0,"TOWNNAME":"新營區","LI":"新南里","LIN":"23鄰","STREET":"復興路","SECT":" ","MAREA":" ","LANE":"６２０巷","ALLEY":"３９弄","HOUSE_NO":"４７號","E_COORD97":177918.92000000001,"N_COORD97":2578467.52,"ADDRESS":"復興路６２０巷３９弄４７號","OBJECTID":220891},"geometry":{"x":177918.92000000086,"y":2578467.5200000014}},{"attributes":{"ID":220893,"DIS_CODE":0,"TOWNNAME":"新營區","LI":"新南里","LIN":"23鄰","STREET":"復興路","SECT":" ","MAREA":" ","LANE":"６２０巷","ALLEY":"３９弄","HOUSE_NO":"８９號","E_COORD97":177807.45000000001,"N_COORD97":2578473.6000000001,"ADDRESS":"復興路６２０巷３９弄８９號","OBJECTID":220892},"geometry":{"x":177807.45000000112,"y":2578473.6000000015}},{"attributes":{"ID":220894,"DIS_CODE":0,"TOWNNAME":"南區","LI":"大恩里","LIN":"23鄰","STREET":"大同路","SECT":"二段","MAREA":" ","LANE":"７５０巷","ALLEY":"２８弄","HOUSE_NO":"３號","E_COORD97":169478.48999999999,"N_COORD97":2540739.1499999999,"ADDRESS":"大同路二段７５０巷２８弄３號","OBJECTID":220893},"geometry":{"x":169478.49000000115,"y":2540739.1500000022}},{"attributes":{"ID":220895,"DIS_CODE":0,"TOWNNAME":"佳里區","LI":"子龍里","LIN":"4鄰","STREET":" ","SECT":" ","MAREA":"子良廟","LANE":" ","ALLEY":" ","HOUSE_NO":"４９號","E_COORD97":168844.85000000001,"N_COORD97":2563903.77,"ADDRESS":"子良廟４９號","OBJECTID":220894},"geometry":{"x":168844.85000000056,"y":2563903.7700000014}},{"attributes":{"ID":220896,"DIS_CODE":0,"TOWNNAME":"佳里區","LI":"子龍里","LIN":"4鄰","STREET":" ","SECT":" ","MAREA":"子良廟","LANE":" ","ALLEY":" ","HOUSE_NO":"５０號之１","E_COORD97":168826.42999999999,"N_COORD97":2563931.96,"ADDRESS":"子良廟５０號之１","OBJECTID":220895},"geometry":{"x":168826.4299999997,"y":2563931.9600000028}},{"attributes":{"ID":220897,"DIS_CODE":0,"TOWNNAME":"佳里區","LI":"子龍里","LIN":"4鄰","STREET":" ","SECT":" ","MAREA":"子良廟","LANE":" ","ALLEY":" ","HOUSE_NO":"５０號之２","E_COORD97":168840.75,"N_COORD97":2563902.9399999999,"ADDRESS":"子良廟５０號之２","OBJECTID":220896},"geometry":{"x":168840.75000000093,"y":2563902.9400000013}},{"attributes":{"ID":220898,"DIS_CODE":0,"TOWNNAME":"佳里區","LI":"子龍里","LIN":"4鄰","STREET":" ","SECT":" ","MAREA":"子良廟","LANE":" ","ALLEY":" ","HOUSE_NO":"５０號之３","E_COORD97":168836.34,"N_COORD97":2563902.5,"ADDRESS":"子良廟５０號之３","OBJECTID":220897},"geometry":{"x":168836.34000000171,"y":2563902.5000000019}},{"attributes":{"ID":220899,"DIS_CODE":0,"TOWNNAME":"北區","LI":"文元里","LIN":"23鄰","STREET":"文成三路","SECT":" ","MAREA":" ","LANE":"６８２巷","ALLEY":"２７弄","HOUSE_NO":"１３號","E_COORD97":167887.54000000001,"N_COORD97":2546368.1200000001,"ADDRESS":"文成三路６８２巷２７弄１３號","OBJECTID":220898},"geometry":{"x":167887.5400000019,"y":2546368.1200000029}},{"attributes":{"ID":220900,"DIS_CODE":0,"TOWNNAME":"北區","LI":"文元里","LIN":"23鄰","STREET":"文成三路","SECT":" ","MAREA":" ","LANE":"６８２巷","ALLEY":"２７弄","HOUSE_NO":"１５號","E_COORD97":167881.23999999999,"N_COORD97":2546370.7599999998,"ADDRESS":"文成三路６８２巷２７弄１５號","OBJECTID":220899},"geometry":{"x":167881.23999999929,"y":2546370.7599999998}},{"attributes":{"ID":220901,"DIS_CODE":0,"TOWNNAME":"北區","LI":"文元里","LIN":"23鄰","STREET":"文成三路","SECT":" ","MAREA":" ","LANE":"６８２巷","ALLEY":"２７弄","HOUSE_NO":"１７號","E_COORD97":167876.35999999999,"N_COORD97":2546368.1200000001,"ADDRESS":"文成三路６８２巷２７弄１７號","OBJECTID":220900},"geometry":{"x":167876.36000000127,"y":2546368.1200000029}},{"attributes":{"ID":220902,"DIS_CODE":0,"TOWNNAME":"北區","LI":"文元里","LIN":"23鄰","STREET":"文成三路","SECT":" ","MAREA":" ","LANE":"６８２巷","ALLEY":"２７弄","HOUSE_NO":"１９號","E_COORD97":167871.07000000001,"N_COORD97":2546370.3500000001,"ADDRESS":"文成三路６８２巷２７弄１９號","OBJECTID":220901},"geometry":{"x":167871.07000000123,"y":2546370.3499999996}},{"attributes":{"ID":220903,"DIS_CODE":0,"TOWNNAME":"永康區","LI":"勝利里","LIN":"32鄰","STREET":"勝利街","SECT":" ","MAREA":" ","LANE":"３０巷","ALLEY":"７弄","HOUSE_NO":"７６號","E_COORD97":171506.29000000001,"N_COORD97":2544543.2599999998,"ADDRESS":"勝利街３０巷７弄７６號","OBJECTID":220902},"geometry":{"x":171506.29000000004,"y":2544543.2599999998}},{"attributes":{"ID":220904,"DIS_CODE":0,"TOWNNAME":"永康區","LI":"網寮里","LIN":"17鄰","STREET":"永興路","SECT":" ","MAREA":" ","LANE":"４２７巷","ALLEY":"２弄","HOUSE_NO":"３１號","E_COORD97":173222.22,"N_COORD97":2546821.1800000002,"ADDRESS":"永興路４２７巷２弄３１號","OBJECTID":220903},"geometry":{"x":173222.21999999974,"y":2546821.1800000016}},{"attributes":{"ID":220905,"DIS_CODE":0,"TOWNNAME":"佳里區","LI":"子龍里","LIN":"4鄰","STREET":" ","SECT":" ","MAREA":"子良廟","LANE":" ","ALLEY":" ","HOUSE_NO":"５０號之４","E_COORD97":168831.45000000001,"N_COORD97":2563901.73,"ADDRESS":"子良廟５０號之４","OBJECTID":220904},"geometry":{"x":168831.45000000112,"y":2563901.7300000023}},{"attributes":{"ID":220906,"DIS_CODE":0,"TOWNNAME":"佳里區","LI":"子龍里","LIN":"4鄰","STREET":" ","SECT":" ","MAREA":"子良廟","LANE":" ","ALLEY":" ","HOUSE_NO":"５０號之５","E_COORD97":168827.06,"N_COORD97":2563901.0800000001,"ADDRESS":"子良廟５０號之５","OBJECTID":220905},"geometry":{"x":168827.05999999959,"y":2563901.0800000001}},{"attributes":{"ID":220907,"DIS_CODE":0,"TOWNNAME":"佳里區","LI":"子龍里","LIN":"4鄰","STREET":" ","SECT":" ","MAREA":"子良廟","LANE":" ","ALLEY":" ","HOUSE_NO":"５０號之６","E_COORD97":168785.97,"N_COORD97":2563931.3500000001,"ADDRESS":"子良廟５０號之６","OBJECTID":220906},"geometry":{"x":168785.96999999974,"y":2563931.3500000015}},{"attributes":{"ID":220908,"DIS_CODE":0,"TOWNNAME":"關廟區","LI":"東勢里","LIN":"15鄰","STREET":"東興路","SECT":" ","MAREA":" ","LANE":" ","ALLEY":" ","HOUSE_NO":"１６８號","E_COORD97":181587.67000000001,"N_COORD97":2539555.25,"ADDRESS":"東興路１６８號","OBJECTID":220907},"geometry":{"x":181587.67000000086,"y":2539555.2500000019}},{"attributes":{"ID":220909,"DIS_CODE":0,"TOWNNAME":"關廟區","LI":"松腳里","LIN":"15鄰","STREET":"民權街","SECT":" ","MAREA":" ","LANE":" ","ALLEY":" ","HOUSE_NO":"４１號","E_COORD97":181591.73999999999,"N_COORD97":2539712.29,"ADDRESS":"民權街４１號","OBJECTID":220908},"geometry":{"x":181591.74000000022,"y":2539712.2900000028}},{"attributes":{"ID":220910,"DIS_CODE":0,"TOWNNAME":"佳里區","LI":"子龍里","LIN":"1鄰","STREET":" ","SECT":" ","MAREA":"子良廟","LANE":" ","ALLEY":" ","HOUSE_NO":"４號之１","E_COORD97":168682.48999999999,"N_COORD97":2563954.2599999998,"ADDRESS":"子良廟４號之１","OBJECTID":220909},"geometry":{"x":168682.49000000022,"y":2563954.2600000035}},{"attributes":{"ID":220911,"DIS_CODE":0,"TOWNNAME":"佳里區","LI":"子龍里","LIN":"1鄰","STREET":" ","SECT":" ","MAREA":"子良廟","LANE":" ","ALLEY":" ","HOUSE_NO":"４號","E_COORD97":168652.26999999999,"N_COORD97":2563951.3500000001,"ADDRESS":"子良廟４號","OBJECTID":220910},"geometry":{"x":168652.27000000048,"y":2563951.3500000015}},{"attributes":{"ID":220912,"DIS_CODE":0,"TOWNNAME":"佳里區","LI":"子龍里","LIN":"1鄰","STREET":" ","SECT":" ","MAREA":"子良廟","LANE":" ","ALLEY":" ","HOUSE_NO":"５７號","E_COORD97":168746.56,"N_COORD97":2563912.8799999999,"ADDRESS":"子良廟５７號","OBJECTID":220911},"geometry":{"x":168746.56000000145,"y":2563912.8800000008}},{"attributes":{"ID":220913,"DIS_CODE":0,"TOWNNAME":"仁德區","LI":"太子里","LIN":"28鄰","STREET":"太子五街","SECT":" ","MAREA":" ","LANE":" ","ALLEY":" ","HOUSE_NO":"２６號","E_COORD97":173029.2041,"N_COORD97":2543099.9709299998,"ADDRESS":"太子五街２６號","OBJECTID":220912},"geometry":{"x":173029.20410000067,"y":2543099.9709300026}},{"attributes":{"ID":220914,"DIS_CODE":0,"TOWNNAME":"佳里區","LI":"子龍里","LIN":"6鄰","STREET":" ","SECT":" ","MAREA":"子良廟","LANE":" ","ALLEY":" ","HOUSE_NO":"７６號","E_COORD97":168817.12,"N_COORD97":2563781.23,"ADDRESS":"子良廟７６號","OBJECTID":220913},"geometry":{"x":168817.12000000011,"y":2563781.2300000004}},{"attributes":{"ID":220915,"DIS_CODE":0,"TOWNNAME":"中西區","LI":"永福里","LIN":"7鄰","STREET":"中正路","SECT":" ","MAREA":" ","LANE":" ","ALLEY":" ","HOUSE_NO":"４７號","E_COORD97":168183.34,"N_COORD97":2543613.75,"ADDRESS":"中正路４７號","OBJECTID":220914},"geometry":{"x":168183.33999999985,"y":2543613.7500000019}},{"attributes":{"ID":220916,"DIS_CODE":0,"TOWNNAME":"中西區","LI":"永福里","LIN":"7鄰","STREET":"中正路","SECT":" ","MAREA":" ","LANE":" ","ALLEY":" ","HOUSE_NO":"４９號","E_COORD97":168178.98000000001,"N_COORD97":2543614.7999999998,"ADDRESS":"中正路４９號","OBJECTID":220915},"geometry":{"x":168178.98000000138,"y":2543614.8000000007}},{"attributes":{"ID":220917,"DIS_CODE":0,"TOWNNAME":"善化區","LI":"溪美里","LIN":"20鄰","STREET":" ","SECT":" ","MAREA":"溪尾","LANE":" ","ALLEY":" ","HOUSE_NO":"１７８號之１０","E_COORD97":176900.37,"N_COORD97":2561227.02,"ADDRESS":"溪尾１７８號之１０","OBJECTID":220916},"geometry":{"x":176900.36999999918,"y":2561227.0200000014}},{"attributes":{"ID":220918,"DIS_CODE":0,"TOWNNAME":"善化區","LI":"溪美里","LIN":"20鄰","STREET":" ","SECT":" ","MAREA":"溪尾","LANE":" ","ALLEY":" ","HOUSE_NO":"１７８號之１８","E_COORD97":176872.92999999999,"N_COORD97":2561274.02,"ADDRESS":"溪尾１７８號之１８","OBJECTID":220917},"geometry":{"x":176872.93000000063,"y":2561274.0200000033}},{"attributes":{"ID":220919,"DIS_CODE":0,"TOWNNAME":"佳里區","LI":"子龍里","LIN":"9鄰","STREET":" ","SECT":" ","MAREA":"子良廟","LANE":" ","ALLEY":" ","HOUSE_NO":"４０號之３６","E_COORD97":169440.39000000001,"N_COORD97":2564045.04,"ADDRESS":"子良廟４０號之３６","OBJECTID":220918},"geometry":{"x":169440.38999999966,"y":2564045.0399999991}},{"attributes":{"ID":220920,"DIS_CODE":0,"TOWNNAME":"佳里區","LI":"子龍里","LIN":"9鄰","STREET":" ","SECT":" ","MAREA":"子良廟","LANE":" ","ALLEY":" ","HOUSE_NO":"４０號之３７","E_COORD97":169233.70000000001,"N_COORD97":2564026.0499999998,"ADDRESS":"子良廟４０號之３７","OBJECTID":220919},"geometry":{"x":169233.70000000019,"y":2564026.0500000026}},{"attributes":{"ID":220921,"DIS_CODE":0,"TOWNNAME":"佳里區","LI":"子龍里","LIN":"9鄰","STREET":" ","SECT":" ","MAREA":"子良廟","LANE":" ","ALLEY":" ","HOUSE_NO":"４０號之４２","E_COORD97":169222.75,"N_COORD97":2564008.5,"ADDRESS":"子良廟４０號之４２","OBJECTID":220920},"geometry":{"x":169222.75000000093,"y":2564008.5000000019}},{"attributes":{"ID":220922,"DIS_CODE":0,"TOWNNAME":"永康區","LI":"勝利里","LIN":"20鄰","STREET":"勝利街","SECT":" ","MAREA":" ","LANE":"１９７巷","ALLEY":"４０弄","HOUSE_NO":"１０號","E_COORD97":171267.84,"N_COORD97":2545166.5099999998,"ADDRESS":"勝利街１９７巷４０弄１０號","OBJECTID":220921},"geometry":{"x":171267.84000000078,"y":2545166.5100000035}},{"attributes":{"ID":220923,"DIS_CODE":0,"TOWNNAME":"永康區","LI":"復興里","LIN":"24鄰","STREET":"復興路","SECT":" ","MAREA":" ","LANE":"３５６巷","ALLEY":"８０弄","HOUSE_NO":"３３號","E_COORD97":172428.03,"N_COORD97":2544597.27,"ADDRESS":"復興路３５６巷８０弄３３號","OBJECTID":220922},"geometry":{"x":172428.03000000119,"y":2544597.2699999996}},{"attributes":{"ID":220924,"DIS_CODE":0,"TOWNNAME":"中西區","LI":"永福里","LIN":"7鄰","STREET":"中正路","SECT":" ","MAREA":" ","LANE":" ","ALLEY":" ","HOUSE_NO":"５１號","E_COORD97":168173.39999999999,"N_COORD97":2543615.8599999999,"ADDRESS":"中正路５１號","OBJECTID":220923},"geometry":{"x":168173.40000000037,"y":2543615.8600000013}},{"attributes":{"ID":220925,"DIS_CODE":0,"TOWNNAME":"永康區","LI":"復興里","LIN":"24鄰","STREET":"復興路","SECT":" ","MAREA":" ","LANE":"３５６巷","ALLEY":"８０弄","HOUSE_NO":"７９號","E_COORD97":172449.64999999999,"N_COORD97":2544608.1600000001,"ADDRESS":"復興路３５６巷８０弄７９號","OBJECTID":220924},"geometry":{"x":172449.6500000013,"y":2544608.160000002}},{"attributes":{"ID":220926,"DIS_CODE":0,"TOWNNAME":"永康區","LI":"勝利里","LIN":"19鄰","STREET":"勝利街","SECT":" ","MAREA":" ","LANE":"１９７巷","ALLEY":"３７弄","HOUSE_NO":"５號","E_COORD97":171225.47,"N_COORD97":2545107.2799999998,"ADDRESS":"勝利街１９７巷３７弄５號","OBJECTID":220925},"geometry":{"x":171225.46999999881,"y":2545107.2800000012}},{"attributes":{"ID":220927,"DIS_CODE":0,"TOWNNAME":"永康區","LI":"復興里","LIN":"18鄰","STREET":"復興路","SECT":" ","MAREA":" ","LANE":"３５６巷","ALLEY":"７１弄","HOUSE_NO":"３２號","E_COORD97":172311.17999999999,"N_COORD97":2544523.77,"ADDRESS":"復興路３５６巷７１弄３２號","OBJECTID":220926},"geometry":{"x":172311.18000000063,"y":2544523.7700000033}},{"attributes":{"ID":220928,"DIS_CODE":0,"TOWNNAME":"佳里區","LI":"子龍里","LIN":"9鄰","STREET":" ","SECT":" ","MAREA":"子良廟","LANE":" ","ALLEY":" ","HOUSE_NO":"４０號之４３","E_COORD97":169218.56,"N_COORD97":2564008.27,"ADDRESS":"子良廟４０號之４３","OBJECTID":220927},"geometry":{"x":169218.55999999959,"y":2564008.2700000033}},{"attributes":{"ID":220929,"DIS_CODE":0,"TOWNNAME":"佳里區","LI":"子龍里","LIN":"9鄰","STREET":" ","SECT":" ","MAREA":"子良廟","LANE":" ","ALLEY":" ","HOUSE_NO":"４０號之４５","E_COORD97":169214.13,"N_COORD97":2564007.8900000001,"ADDRESS":"子良廟４０號之４５","OBJECTID":220928},"geometry":{"x":169214.13000000175,"y":2564007.8900000006}},{"attributes":{"ID":220930,"DIS_CODE":0,"TOWNNAME":"佳里區","LI":"子龍里","LIN":"9鄰","STREET":" ","SECT":" ","MAREA":"子良廟","LANE":" ","ALLEY":" ","HOUSE_NO":"４０號之４６","E_COORD97":169210.01999999999,"N_COORD97":2564007.48,"ADDRESS":"子良廟４０號之４６","OBJECTID":220929},"geometry":{"x":169210.02000000048,"y":2564007.4799999986}},{"attributes":{"ID":220931,"DIS_CODE":0,"TOWNNAME":"佳里區","LI":"子龍里","LIN":"9鄰","STREET":" ","SECT":" ","MAREA":"子良廟","LANE":" ","ALLEY":" ","HOUSE_NO":"４０號之４７","E_COORD97":169206.29999999999,"N_COORD97":2564007.2599999998,"ADDRESS":"子良廟４０號之４７","OBJECTID":220930},"geometry":{"x":169206.30000000075,"y":2564007.2599999998}},{"attributes":{"ID":220932,"DIS_CODE":0,"TOWNNAME":"佳里區","LI":"子龍里","LIN":"8鄰","STREET":" ","SECT":" ","MAREA":"子良廟","LANE":" ","ALLEY":" ","HOUSE_NO":"８２號","E_COORD97":168828.63,"N_COORD97":2563789.79,"ADDRESS":"子良廟８２號","OBJECTID":220931},"geometry":{"x":168828.62999999989,"y":2563789.7899999991}},{"attributes":{"ID":220933,"DIS_CODE":0,"TOWNNAME":"佳里區","LI":"子龍里","LIN":"8鄰","STREET":" ","SECT":" ","MAREA":"子良廟","LANE":" ","ALLEY":" ","HOUSE_NO":"８３號","E_COORD97":168843.14999999999,"N_COORD97":2563796.02,"ADDRESS":"子良廟８３號","OBJECTID":220932},"geometry":{"x":168843.15000000037,"y":2563796.0199999996}},{"attributes":{"ID":220934,"DIS_CODE":0,"TOWNNAME":"新營區","LI":"新南里","LIN":"23鄰","STREET":"復興路","SECT":" ","MAREA":" ","LANE":"６２０巷","ALLEY":"１５弄","HOUSE_NO":"５０號","E_COORD97":177932.94,"N_COORD97":2578418.73,"ADDRESS":"復興路６２０巷１５弄５０號","OBJECTID":220933},"geometry":{"x":177932.94000000134,"y":2578418.7300000042}},{"attributes":{"ID":220935,"DIS_CODE":0,"TOWNNAME":"新營區","LI":"新南里","LIN":"23鄰","STREET":"復興路","SECT":" ","MAREA":" ","LANE":"６２０巷","ALLEY":"３９弄","HOUSE_NO":"３３之５號","E_COORD97":177955.10999999999,"N_COORD97":2578453.0099999998,"ADDRESS":"復興路６２０巷３９弄３３之５號","OBJECTID":220934},"geometry":{"x":177955.1100000022,"y":2578453.0099999979}},{"attributes":{"ID":220936,"DIS_CODE":0,"TOWNNAME":"新營區","LI":"新南里","LIN":"23鄰","STREET":"復興路","SECT":" ","MAREA":" ","LANE":"６２０巷","ALLEY":"３９弄","HOUSE_NO":"３３號之２","E_COORD97":177963.14000000001,"N_COORD97":2578469.5800000001,"ADDRESS":"復興路６２０巷３９弄３３號之２","OBJECTID":220935},"geometry":{"x":177963.1400000006,"y":2578469.5800000001}},{"attributes":{"ID":220937,"DIS_CODE":0,"TOWNNAME":"新營區","LI":"新南里","LIN":"23鄰","STREET":"復興路","SECT":" ","MAREA":" ","LANE":"６２０巷","ALLEY":"１５弄","HOUSE_NO":"２６號","E_COORD97":178009.75,"N_COORD97":2578429.4300000002,"ADDRESS":"復興路６２０巷１５弄２６號","OBJECTID":220936},"geometry":{"x":178009.75000000186,"y":2578429.4299999997}},{"attributes":{"ID":220938,"DIS_CODE":0,"TOWNNAME":"永康區","LI":"復華里","LIN":"34鄰","STREET":"復國一路","SECT":" ","MAREA":" ","LANE":"４７５巷","ALLEY":"６０弄","HOUSE_NO":"３７號","E_COORD97":172505.26000000001,"N_COORD97":2546034.8399999999,"ADDRESS":"復國一路４７５巷６０弄３７號","OBJECTID":220937},"geometry":{"x":172505.26000000164,"y":2546034.8399999999}},{"attributes":{"ID":220939,"DIS_CODE":0,"TOWNNAME":"永康區","LI":"永康里","LIN":"23鄰","STREET":"中山南路","SECT":" ","MAREA":" ","LANE":"５９７巷","ALLEY":"９弄","HOUSE_NO":"１６之３號","E_COORD97":173400.45999999999,"N_COORD97":2547266.9500000002,"ADDRESS":"中山南路５９７巷９弄１６之３號","OBJECTID":220938},"geometry":{"x":173400.45999999996,"y":2547266.9499999993}},{"attributes":{"ID":220940,"DIS_CODE":0,"TOWNNAME":"永康區","LI":"光復里","LIN":"23鄰","STREET":"復興路","SECT":" ","MAREA":" ","LANE":"１２８巷","ALLEY":"１弄","HOUSE_NO":"５號","E_COORD97":172702.42999999999,"N_COORD97":2544368.0299999998,"ADDRESS":"復興路１２８巷１弄５號","OBJECTID":220939},"geometry":{"x":172702.43000000156,"y":2544368.0299999993}},{"attributes":{"ID":220941,"DIS_CODE":0,"TOWNNAME":"永康區","LI":"安康里","LIN":"23鄰","STREET":"中華路","SECT":" ","MAREA":" ","LANE":"７０３巷","ALLEY":"３弄","HOUSE_NO":"２０號","E_COORD97":170892.23000000001,"N_COORD97":2546263.9900000002,"ADDRESS":"中華路７０３巷３弄２０號","OBJECTID":220940},"geometry":{"x":170892.22999999952,"y":2546263.9900000002}},{"attributes":{"ID":220942,"DIS_CODE":0,"TOWNNAME":"中西區","LI":"永福里","LIN":"1鄰","STREET":"忠義路","SECT":"二段","MAREA":" ","LANE":" ","ALLEY":" ","HOUSE_NO":"４３號","E_COORD97":168237.60999999999,"N_COORD97":2543525.1099999999,"ADDRESS":"忠義路二段４３號","OBJECTID":220941},"geometry":{"x":168237.61000000034,"y":2543525.1100000013}},{"attributes":{"ID":220943,"DIS_CODE":0,"TOWNNAME":"佳里區","LI":"子龍里","LIN":"8鄰","STREET":" ","SECT":" ","MAREA":"子良廟","LANE":" ","ALLEY":" ","HOUSE_NO":"８４號","E_COORD97":168869.42000000001,"N_COORD97":2563783.5699999998,"ADDRESS":"子良廟８４號","OBJECTID":220942},"geometry":{"x":168869.41999999993,"y":2563783.5700000022}},{"attributes":{"ID":220944,"DIS_CODE":0,"TOWNNAME":"永康區","LI":"復華里","LIN":"34鄰","STREET":"復國一路","SECT":" ","MAREA":" ","LANE":"４７５巷","ALLEY":"６０弄","HOUSE_NO":"２８號","E_COORD97":172514.29000000001,"N_COORD97":2546052.0800000001,"ADDRESS":"復國一路４７５巷６０弄２８號","OBJECTID":220943},"geometry":{"x":172514.29000000097,"y":2546052.0800000019}},{"attributes":{"ID":220945,"DIS_CODE":0,"TOWNNAME":"永康區","LI":"復華里","LIN":"34鄰","STREET":"復國一路","SECT":" ","MAREA":" ","LANE":"４７５巷","ALLEY":"６０弄","HOUSE_NO":"９號","E_COORD97":172514.23999999999,"N_COORD97":2545977.7599999998,"ADDRESS":"復國一路４７５巷６０弄９號","OBJECTID":220944},"geometry":{"x":172514.24000000209,"y":2545977.7599999998}},{"attributes":{"ID":220946,"DIS_CODE":0,"TOWNNAME":"永康區","LI":"復興里","LIN":"24鄰","STREET":"復興路","SECT":" ","MAREA":" ","LANE":"３５６巷","ALLEY":"８０弄","HOUSE_NO":"７７號","E_COORD97":172469.09,"N_COORD97":2544599.77,"ADDRESS":"復興路３５６巷８０弄７７號","OBJECTID":220945},"geometry":{"x":172469.09000000171,"y":2544599.7700000014}},{"attributes":{"ID":220947,"DIS_CODE":0,"TOWNNAME":"佳里區","LI":"子龍里","LIN":"7鄰","STREET":" ","SECT":" ","MAREA":"子良廟","LANE":" ","ALLEY":" ","HOUSE_NO":"７３號之１","E_COORD97":168842.75,"N_COORD97":2563741.3500000001,"ADDRESS":"子良廟７３號之１","OBJECTID":220946},"geometry":{"x":168842.75000000093,"y":2563741.3500000015}},{"attributes":{"ID":220948,"DIS_CODE":0,"TOWNNAME":"佳里區","LI":"子龍里","LIN":"7鄰","STREET":" ","SECT":" ","MAREA":"子良廟","LANE":" ","ALLEY":" ","HOUSE_NO":"７３號","E_COORD97":168829.01999999999,"N_COORD97":2563753.8199999998,"ADDRESS":"子良廟７３號","OBJECTID":220947},"geometry":{"x":168829.01999999955,"y":2563753.8200000003}},{"attributes":{"ID":220949,"DIS_CODE":0,"TOWNNAME":"佳里區","LI":"子龍里","LIN":"7鄰","STREET":" ","SECT":" ","MAREA":"子良廟","LANE":" ","ALLEY":" ","HOUSE_NO":"７４號之１","E_COORD97":168867.42000000001,"N_COORD97":2563746.6600000001,"ADDRESS":"子良廟７４號之１","OBJECTID":220948},"geometry":{"x":168867.41999999993,"y":2563746.660000002}},{"attributes":{"ID":220950,"DIS_CODE":0,"TOWNNAME":"佳里區","LI":"子龍里","LIN":"7鄰","STREET":" ","SECT":" ","MAREA":"子良廟","LANE":" ","ALLEY":" ","HOUSE_NO":"７４號","E_COORD97":168855.92000000001,"N_COORD97":2563748.7000000002,"ADDRESS":"子良廟７４號","OBJECTID":220949},"geometry":{"x":168855.91999999993,"y":2563748.7000000011}},{"attributes":{"ID":220951,"DIS_CODE":0,"TOWNNAME":"永康區","LI":"網寮里","LIN":"17鄰","STREET":"永興路","SECT":" ","MAREA":" ","LANE":"４２７巷","ALLEY":"２弄","HOUSE_NO":"３７號","E_COORD97":173225.10999999999,"N_COORD97":2546802.4199999999,"ADDRESS":"永興路４２７巷２弄３７號","OBJECTID":220950},"geometry":{"x":173225.11000000034,"y":2546802.4200000018}},{"attributes":{"ID":220952,"DIS_CODE":0,"TOWNNAME":"佳里區","LI":"子龍里","LIN":"1鄰","STREET":" ","SECT":" ","MAREA":"子良廟","LANE":" ","ALLEY":" ","HOUSE_NO":"５號之１","E_COORD97":168553.59,"N_COORD97":2563984.7799999998,"ADDRESS":"子良廟５號之１","OBJECTID":220951},"geometry":{"x":168553.59000000078,"y":2563984.7800000012}},{"attributes":{"ID":220953,"DIS_CODE":0,"TOWNNAME":"佳里區","LI":"子龍里","LIN":"1鄰","STREET":" ","SECT":" ","MAREA":"子良廟","LANE":" ","ALLEY":" ","HOUSE_NO":"５號之２","E_COORD97":168579.17999999999,"N_COORD97":2564013.71,"ADDRESS":"子良廟５號之２","OBJECTID":220952},"geometry":{"x":168579.1799999997,"y":2564013.7100000046}},{"attributes":{"ID":220954,"DIS_CODE":0,"TOWNNAME":"佳里區","LI":"子龍里","LIN":"1鄰","STREET":" ","SECT":" ","MAREA":"子良廟","LANE":" ","ALLEY":" ","HOUSE_NO":"５號","E_COORD97":168649.10000000001,"N_COORD97":2563977.71,"ADDRESS":"子良廟５號","OBJECTID":220953},"geometry":{"x":168649.09999999963,"y":2563977.7100000028}},{"attributes":{"ID":220955,"DIS_CODE":0,"TOWNNAME":"下營區","LI":"大屯里","LIN":"4鄰","STREET":" ","SECT":" ","MAREA":"大屯寮","LANE":" ","ALLEY":" ","HOUSE_NO":"３４號","E_COORD97":172007.26999999999,"N_COORD97":2570435.3700000001,"ADDRESS":"大屯寮３４號","OBJECTID":220954},"geometry":{"x":172007.27000000048,"y":2570435.3700000029}},{"attributes":{"ID":220956,"DIS_CODE":0,"TOWNNAME":"下營區","LI":"大屯里","LIN":"4鄰","STREET":" ","SECT":" ","MAREA":"大屯寮","LANE":" ","ALLEY":" ","HOUSE_NO":"３５號","E_COORD97":171986.81,"N_COORD97":2570405.4700000002,"ADDRESS":"大屯寮３５號","OBJECTID":220955},"geometry":{"x":171986.80999999959,"y":2570405.4699999988}},{"attributes":{"ID":220957,"DIS_CODE":0,"TOWNNAME":"下營區","LI":"大屯里","LIN":"5鄰","STREET":" ","SECT":" ","MAREA":"大屯寮","LANE":" ","ALLEY":" ","HOUSE_NO":"３６號之１","E_COORD97":171946.95999999999,"N_COORD97":2570435.5,"ADDRESS":"大屯寮３６號之１","OBJECTID":220956},"geometry":{"x":171946.96000000089,"y":2570435.5000000037}},{"attributes":{"ID":220958,"DIS_CODE":0,"TOWNNAME":"下營區","LI":"大屯里","LIN":"1鄰","STREET":" ","SECT":" ","MAREA":"大屯寮","LANE":" ","ALLEY":" ","HOUSE_NO":"１號之６","E_COORD97":172526.56,"N_COORD97":2570392.7999999998,"ADDRESS":"大屯寮１號之６","OBJECTID":220957},"geometry":{"x":172526.55999999959,"y":2570392.8000000007}},{"attributes":{"ID":220959,"DIS_CODE":0,"TOWNNAME":"下營區","LI":"大屯里","LIN":"1鄰","STREET":" ","SECT":" ","MAREA":"大屯寮","LANE":" ","ALLEY":" ","HOUSE_NO":"１號之７","E_COORD97":172470.70999999999,"N_COORD97":2570544.4700000002,"ADDRESS":"大屯寮１號之７","OBJECTID":220958},"geometry":{"x":172470.71000000089,"y":2570544.4699999988}},{"attributes":{"ID":220960,"DIS_CODE":0,"TOWNNAME":"下營區","LI":"大屯里","LIN":"1鄰","STREET":" ","SECT":" ","MAREA":"大屯寮","LANE":" ","ALLEY":" ","HOUSE_NO":"１號之８","E_COORD97":172453.39999999999,"N_COORD97":2570600.48,"ADDRESS":"大屯寮１號之８","OBJECTID":220959},"geometry":{"x":172453.40000000037,"y":2570600.4800000004}},{"attributes":{"ID":220961,"DIS_CODE":0,"TOWNNAME":"下營區","LI":"大屯里","LIN":"1鄰","STREET":" ","SECT":" ","MAREA":"大屯寮","LANE":" ","ALLEY":" ","HOUSE_NO":"２號之１","E_COORD97":172249.01000000001,"N_COORD97":2570476.0899999999,"ADDRESS":"大屯寮２號之１","OBJECTID":220960},"geometry":{"x":172249.00999999978,"y":2570476.0900000017}},{"attributes":{"ID":220962,"DIS_CODE":0,"TOWNNAME":"永康區","LI":"勝利里","LIN":"30鄰","STREET":"勝利街","SECT":" ","MAREA":" ","LANE":"３０巷","ALLEY":"７弄","HOUSE_NO":"５３號","E_COORD97":171440.32000000001,"N_COORD97":2544561.7599999998,"ADDRESS":"勝利街３０巷７弄５３號","OBJECTID":220961},"geometry":{"x":171440.3200000003,"y":2544561.7600000016}},{"attributes":{"ID":220963,"DIS_CODE":0,"TOWNNAME":"仁德區","LI":"上崙里","LIN":"23鄰","STREET":"德崙路","SECT":" ","MAREA":" ","LANE":"１９６巷","ALLEY":"１６弄","HOUSE_NO":"２１號","E_COORD97":173570.07999999999,"N_COORD97":2538271.3900000001,"ADDRESS":"德崙路１９６巷１６弄２１號","OBJECTID":220962},"geometry":{"x":173570.08000000101,"y":2538271.3900000006}},{"attributes":{"ID":220964,"DIS_CODE":0,"TOWNNAME":"永康區","LI":"埔園里","LIN":"23鄰","STREET":"自強路","SECT":" ","MAREA":" ","LANE":"３７９巷","ALLEY":"３５弄","HOUSE_NO":"２號","E_COORD97":173575.28,"N_COORD97":2547976.25,"ADDRESS":"自強路３７９巷３５弄２號","OBJECTID":220963},"geometry":{"x":173575.28000000212,"y":2547976.2500000019}},{"attributes":{"ID":220965,"DIS_CODE":0,"TOWNNAME":"東區","LI":"崇明里","LIN":"23鄰","STREET":"中華東路","SECT":"三段","MAREA":" ","LANE":"３９９巷","ALLEY":"１８弄","HOUSE_NO":"５號","E_COORD97":170046.20000000001,"N_COORD97":2541474.25,"ADDRESS":"中華東路三段３９９巷１８弄５號","OBJECTID":220964},"geometry":{"x":170046.20000000019,"y":2541474.2500000019}},{"attributes":{"ID":220966,"DIS_CODE":0,"TOWNNAME":"下營區","LI":"大屯里","LIN":"1鄰","STREET":" ","SECT":" ","MAREA":"大屯寮","LANE":" ","ALLEY":" ","HOUSE_NO":"２號之２","E_COORD97":172272.37,"N_COORD97":2570446.1299999999,"ADDRESS":"大屯寮２號之２","OBJECTID":220965},"geometry":{"x":172272.37000000011,"y":2570446.129999999}},{"attributes":{"ID":220967,"DIS_CODE":0,"TOWNNAME":"仁德區","LI":"大甲里","LIN":"23鄰","STREET":"中正西路","SECT":" ","MAREA":" ","LANE":"１１９６巷","ALLEY":"８８０弄","HOUSE_NO":"１２５號","E_COORD97":169593.40693999999,"N_COORD97":2536608.38625,"ADDRESS":"中正西路１１９６巷８８０弄１２５號","OBJECTID":220966},"geometry":{"x":169593.40694000013,"y":2536608.3862539995}},{"attributes":{"ID":220968,"DIS_CODE":0,"TOWNNAME":"永康區","LI":"西橋里","LIN":"23鄰","STREET":"大橋三街","SECT":" ","MAREA":" ","LANE":"５７巷","ALLEY":"１９弄","HOUSE_NO":"２號","E_COORD97":170481.51000000001,"N_COORD97":2546556.96,"ADDRESS":"大橋三街５７巷１９弄２號","OBJECTID":220967},"geometry":{"x":170481.51000000071,"y":2546556.9600000009}},{"attributes":{"ID":220969,"DIS_CODE":0,"TOWNNAME":"永康區","LI":"西勢里","LIN":"23鄰","STREET":"富強路","SECT":"一段","MAREA":" ","LANE":"１９４巷","ALLEY":"２弄","HOUSE_NO":"３號","E_COORD97":175610.38,"N_COORD97":2546321.0299999998,"ADDRESS":"富強路一段１９４巷２弄３號","OBJECTID":220968},"geometry":{"x":175610.38000000082,"y":2546321.0299999993}},{"attributes":{"ID":220970,"DIS_CODE":0,"TOWNNAME":"永康區","LI":"西橋里","LIN":"23鄰","STREET":"大橋三街","SECT":" ","MAREA":" ","LANE":"５７巷","ALLEY":"１９弄","HOUSE_NO":"８６號","E_COORD97":170416.56,"N_COORD97":2546506.9500000002,"ADDRESS":"大橋三街５７巷１９弄８６號","OBJECTID":220969},"geometry":{"x":170416.56000000052,"y":2546506.9500000011}},{"attributes":{"ID":220971,"DIS_CODE":0,"TOWNNAME":"永康區","LI":"安康里","LIN":"23鄰","STREET":"中華路","SECT":" ","MAREA":" ","LANE":"７０３巷","ALLEY":"３弄","HOUSE_NO":"２號","E_COORD97":170871.67999999999,"N_COORD97":2546299.2400000002,"ADDRESS":"中華路７０３巷３弄２號","OBJECTID":220970},"geometry":{"x":170871.68000000063,"y":2546299.2400000021}},{"attributes":{"ID":220972,"DIS_CODE":0,"TOWNNAME":"永康區","LI":"安康里","LIN":"23鄰","STREET":"中華路","SECT":" ","MAREA":" ","LANE":"７０３巷","ALLEY":"３弄","HOUSE_NO":"６號","E_COORD97":170876.09,"N_COORD97":2546290.4900000002,"ADDRESS":"中華路７０３巷３弄６號","OBJECTID":220971},"geometry":{"x":170876.09000000078,"y":2546290.4900000021}},{"attributes":{"ID":220973,"DIS_CODE":0,"TOWNNAME":"永康區","LI":"安康里","LIN":"23鄰","STREET":"中華路","SECT":" ","MAREA":" ","LANE":"７０３巷","ALLEY":"７１弄","HOUSE_NO":"２４號","E_COORD97":170788.72,"N_COORD97":2546214,"ADDRESS":"中華路７０３巷７１弄２４號","OBJECTID":220972},"geometry":{"x":170788.72000000067,"y":2546214}},{"attributes":{"ID":220974,"DIS_CODE":0,"TOWNNAME":"永康區","LI":"龍潭里","LIN":"23鄰","STREET":"自強路","SECT":" ","MAREA":" ","LANE":"７５０巷","ALLEY":"６８弄","HOUSE_NO":"４６號","E_COORD97":174548.23999999999,"N_COORD97":2548330.23,"ADDRESS":"自強路７５０巷６８弄４６號","OBJECTID":220973},"geometry":{"x":174548.24000000022,"y":2548330.2300000023}},{"attributes":{"ID":220975,"DIS_CODE":0,"TOWNNAME":"永康區","LI":"勝利里","LIN":"32鄰","STREET":"勝利街","SECT":" ","MAREA":" ","LANE":"３０巷","ALLEY":"７弄","HOUSE_NO":"８２號","E_COORD97":171493.64000000001,"N_COORD97":2544543.7599999998,"ADDRESS":"勝利街３０巷７弄８２號","OBJECTID":220974},"geometry":{"x":171493.63999999966,"y":2544543.7599999998}},{"attributes":{"ID":220976,"DIS_CODE":0,"TOWNNAME":"下營區","LI":"大屯里","LIN":"1鄰","STREET":" ","SECT":" ","MAREA":"大屯寮","LANE":" ","ALLEY":" ","HOUSE_NO":"２號","E_COORD97":172285.64000000001,"N_COORD97":2570441.04,"ADDRESS":"大屯寮２號","OBJECTID":220975},"geometry":{"x":172285.64000000153,"y":2570441.0400000028}},{"attributes":{"ID":220977,"DIS_CODE":0,"TOWNNAME":"下營區","LI":"大屯里","LIN":"1鄰","STREET":" ","SECT":" ","MAREA":"大屯寮","LANE":" ","ALLEY":" ","HOUSE_NO":"３號之１２","E_COORD97":172268.89000000001,"N_COORD97":2570549.25,"ADDRESS":"大屯寮３號之１２","OBJECTID":220976},"geometry":{"x":172268.8900000006,"y":2570549.2500000019}},{"attributes":{"ID":220978,"DIS_CODE":0,"TOWNNAME":"新市區","LI":"大社里","LIN":"28鄰","STREET":" ","SECT":" ","MAREA":"大社","LANE":" ","ALLEY":" ","HOUSE_NO":"９２９號","E_COORD97":180038.20999999999,"N_COORD97":2554088.75,"ADDRESS":"大社９２９號","OBJECTID":220977},"geometry":{"x":180038.21000000089,"y":2554088.7500000037}},{"attributes":{"ID":220979,"DIS_CODE":0,"TOWNNAME":"永康區","LI":"\u25A0行里","LIN":"23鄰","STREET":"中正南路","SECT":" ","MAREA":" ","LANE":"５９２巷","ALLEY":"３８弄","HOUSE_NO":"１６號","E_COORD97":171645.51000000001,"N_COORD97":2548583.46,"ADDRESS":"中正南路５９２巷３８弄１６號","OBJECTID":220978},"geometry":{"x":171645.50999999978,"y":2548583.4600000028}},{"attributes":{"ID":220980,"DIS_CODE":0,"TOWNNAME":"永康區","LI":"\u25A0行里","LIN":"23鄰","STREET":"中正南路","SECT":" ","MAREA":" ","LANE":"５９２巷","ALLEY":"３８弄","HOUSE_NO":"４０號","E_COORD97":171680.23000000001,"N_COORD97":2548617.21,"ADDRESS":"中正南路５９２巷３８弄４０號","OBJECTID":220979},"geometry":{"x":171680.23000000045,"y":2548617.2100000009}},{"attributes":{"ID":220981,"DIS_CODE":0,"TOWNNAME":"永康區","LI":"\u25A0行里","LIN":"23鄰","STREET":"中正南路","SECT":" ","MAREA":" ","LANE":"５９２巷","ALLEY":"２９弄","HOUSE_NO":"２２號","E_COORD97":171632.72,"N_COORD97":2548627.9399999999,"ADDRESS":"中正南路５９２巷２９弄２２號","OBJECTID":220980},"geometry":{"x":171632.72000000067,"y":2548627.9399999995}},{"attributes":{"ID":220982,"DIS_CODE":0,"TOWNNAME":"永康區","LI":"\u25A0行里","LIN":"23鄰","STREET":"中正南路","SECT":" ","MAREA":" ","LANE":"５９２巷","ALLEY":"３８弄","HOUSE_NO":"２號","E_COORD97":171624.92999999999,"N_COORD97":2548562.4500000002,"ADDRESS":"中正南路５９２巷３８弄２號","OBJECTID":220981},"geometry":{"x":171624.93000000063,"y":2548562.4499999993}},{"attributes":{"ID":220983,"DIS_CODE":0,"TOWNNAME":"善化區","LI":"光文里","LIN":"28鄰","STREET":"公園路","SECT":" ","MAREA":" ","LANE":" ","ALLEY":" ","HOUSE_NO":"１５２之２號","E_COORD97":177877.16,"N_COORD97":2559184.79,"ADDRESS":"公園路１５２之２號","OBJECTID":220982},"geometry":{"x":177877.16000000108,"y":2559184.790000001}},{"attributes":{"ID":220984,"DIS_CODE":0,"TOWNNAME":"永康區","LI":"\u25A0行里","LIN":"23鄰","STREET":"中正南路","SECT":" ","MAREA":" ","LANE":"５９２巷","ALLEY":"２９弄","HOUSE_NO":"１６號","E_COORD97":171621.39999999999,"N_COORD97":2548617.4399999999,"ADDRESS":"中正南路５９２巷２９弄１６號","OBJECTID":220983},"geometry":{"x":171621.40000000037,"y":2548617.4399999995}},{"attributes":{"ID":220985,"DIS_CODE":0,"TOWNNAME":"永康區","LI":"龍潭里","LIN":"23鄰","STREET":"自強路","SECT":" ","MAREA":" ","LANE":"７５０巷","ALLEY":"６８弄","HOUSE_NO":"４９號","E_COORD97":174569.79000000001,"N_COORD97":2548375.8799999999,"ADDRESS":"自強路７５０巷６８弄４９號","OBJECTID":220984},"geometry":{"x":174569.79000000004,"y":2548375.879999999}},{"attributes":{"ID":220986,"DIS_CODE":0,"TOWNNAME":"永康區","LI":"龍潭里","LIN":"23鄰","STREET":"自強路","SECT":" ","MAREA":" ","LANE":"７５０巷","ALLEY":"６８弄","HOUSE_NO":"２６號","E_COORD97":174552.59,"N_COORD97":2548385.79,"ADDRESS":"自強路７５０巷６８弄２６號","OBJECTID":220985},"geometry":{"x":174552.59000000171,"y":2548385.790000001}},{"attributes":{"ID":220987,"DIS_CODE":0,"TOWNNAME":"新市區","LI":"大社里","LIN":"28鄰","STREET":" ","SECT":" ","MAREA":"大社","LANE":" ","ALLEY":" ","HOUSE_NO":"９２１號","E_COORD97":179988.35000000001,"N_COORD97":2554008.5,"ADDRESS":"大社９２１號","OBJECTID":220986},"geometry":{"x":179988.34999999963,"y":2554008.5}},{"attributes":{"ID":220988,"DIS_CODE":0,"TOWNNAME":"新市區","LI":"大社里","LIN":"28鄰","STREET":" ","SECT":" ","MAREA":"大社","LANE":" ","ALLEY":" ","HOUSE_NO":"９２１之７號","E_COORD97":180032.76000000001,"N_COORD97":2553985.0499999998,"ADDRESS":"大社９２１之７號","OBJECTID":220987},"geometry":{"x":180032.75999999978,"y":2553985.0500000007}},{"attributes":{"ID":220989,"DIS_CODE":0,"TOWNNAME":"永康區","LI":"龍潭里","LIN":"23鄰","STREET":"自強路","SECT":" ","MAREA":" ","LANE":"７５０巷","ALLEY":"１８弄","HOUSE_NO":"１號","E_COORD97":174458.29000000001,"N_COORD97":2548443.8599999999,"ADDRESS":"自強路７５０巷１８弄１號","OBJECTID":220988},"geometry":{"x":174458.29000000097,"y":2548443.8600000013}},{"attributes":{"ID":220990,"DIS_CODE":0,"TOWNNAME":"永康區","LI":"龍潭里","LIN":"23鄰","STREET":"自強路","SECT":" ","MAREA":" ","LANE":"７５０巷","ALLEY":"１８弄","HOUSE_NO":"２０號","E_COORD97":174427.29000000001,"N_COORD97":2548444.79,"ADDRESS":"自強路７５０巷１８弄２０號","OBJECTID":220989},"geometry":{"x":174427.29000000004,"y":2548444.7899999991}},{"attributes":{"ID":220991,"DIS_CODE":0,"TOWNNAME":"永康區","LI":"復興里","LIN":"30鄰","STREET":"復興路","SECT":" ","MAREA":" ","LANE":"３５６巷","ALLEY":"８０弄","HOUSE_NO":"９７號","E_COORD97":172490.91,"N_COORD97":2544613.8799999999,"ADDRESS":"復興路３５６巷８０弄９７號","OBJECTID":220990},"geometry":{"x":172490.90999999922,"y":2544613.8800000027}},{"attributes":{"ID":220992,"DIS_CODE":0,"TOWNNAME":"永康區","LI":"\u25A0行里","LIN":"23鄰","STREET":"中正南路","SECT":" ","MAREA":" ","LANE":"５９２巷","ALLEY":"３８弄","HOUSE_NO":"５號","E_COORD97":171621.03,"N_COORD97":2548579.0899999999,"ADDRESS":"中正南路５９２巷３８弄５號","OBJECTID":220991},"geometry":{"x":171621.03000000119,"y":2548579.0899999999}},{"attributes":{"ID":220993,"DIS_CODE":0,"TOWNNAME":"永康區","LI":"永康里","LIN":"23鄰","STREET":"中山南路","SECT":" ","MAREA":" ","LANE":"５９７巷","ALLEY":"９弄","HOUSE_NO":"１１號","E_COORD97":173439.23999999999,"N_COORD97":2547215.2400000002,"ADDRESS":"中山南路５９７巷９弄１１號","OBJECTID":220992},"geometry":{"x":173439.24000000022,"y":2547215.2400000002}},{"attributes":{"ID":220994,"DIS_CODE":0,"TOWNNAME":"永康區","LI":"龍潭里","LIN":"23鄰","STREET":"自強路","SECT":" ","MAREA":" ","LANE":"７５０巷","ALLEY":"６８弄","HOUSE_NO":"１８號","E_COORD97":174552.51999999999,"N_COORD97":2548401.29,"ADDRESS":"自強路７５０巷６８弄１８號","OBJECTID":220993},"geometry":{"x":174552.51999999955,"y":2548401.2899999991}},{"attributes":{"ID":220995,"DIS_CODE":0,"TOWNNAME":"永康區","LI":"龍潭里","LIN":"23鄰","STREET":"自強路","SECT":" ","MAREA":" ","LANE":"７５０巷","ALLEY":"１８弄","HOUSE_NO":"３２號","E_COORD97":174427.98999999999,"N_COORD97":2548431.7400000002,"ADDRESS":"自強路７５０巷１８弄３２號","OBJECTID":220994},"geometry":{"x":174427.99000000022,"y":2548431.7400000021}},{"attributes":{"ID":220996,"DIS_CODE":0,"TOWNNAME":"永康區","LI":"龍潭里","LIN":"23鄰","STREET":"自強路","SECT":" ","MAREA":" ","LANE":"７５０巷","ALLEY":"２８弄","HOUSE_NO":"１７號","E_COORD97":174515.98999999999,"N_COORD97":2548425.9199999999,"ADDRESS":"自強路７５０巷２８弄１７號","OBJECTID":220995},"geometry":{"x":174515.99000000022,"y":2548425.9200000018}},{"attributes":{"ID":220997,"DIS_CODE":0,"TOWNNAME":"永康區","LI":"龍潭里","LIN":"23鄰","STREET":"自強路","SECT":" ","MAREA":" ","LANE":"７５０巷","ALLEY":"２８弄","HOUSE_NO":"５９號","E_COORD97":174481.70999999999,"N_COORD97":2548413.2599999998,"ADDRESS":"自強路７５０巷２８弄５９號","OBJECTID":220996},"geometry":{"x":174481.70999999996,"y":2548413.2600000016}},{"attributes":{"ID":220998,"DIS_CODE":0,"TOWNNAME":"新市區","LI":"大社里","LIN":"28鄰","STREET":" ","SECT":" ","MAREA":"大社","LANE":" ","ALLEY":" ","HOUSE_NO":"９２１之２號","E_COORD97":180040.39999999999,"N_COORD97":2553955.7999999998,"ADDRESS":"大社９２１之２號","OBJECTID":220997},"geometry":{"x":180040.4000000013,"y":2553955.8000000007}},{"attributes":{"ID":220999,"DIS_CODE":0,"TOWNNAME":"下營區","LI":"大屯里","LIN":"3鄰","STREET":" ","SECT":" ","MAREA":"大屯寮","LANE":" ","ALLEY":" ","HOUSE_NO":"２１號之１","E_COORD97":172115.67999999999,"N_COORD97":2570426.6499999999,"ADDRESS":"大屯寮２１號之１","OBJECTID":220998},"geometry":{"x":172115.67999999877,"y":2570426.6500000004}},{"attributes":{"ID":221000,"DIS_CODE":0,"TOWNNAME":"下營區","LI":"大屯里","LIN":"3鄰","STREET":" ","SECT":" ","MAREA":"大屯寮","LANE":" ","ALLEY":" ","HOUSE_NO":"２１號","E_COORD97":172110.79000000001,"N_COORD97":2570442.75,"ADDRESS":"大屯寮２１號","OBJECTID":220999},"geometry":{"x":172110.79000000097,"y":2570442.75}},{"attributes":{"ID":221001,"DIS_CODE":0,"TOWNNAME":"下營區","LI":"大屯里","LIN":"3鄰","STREET":" ","SECT":" ","MAREA":"大屯寮","LANE":" ","ALLEY":" ","HOUSE_NO":"２２號","E_COORD97":172106.17999999999,"N_COORD97":2570449.71,"ADDRESS":"大屯寮２２號","OBJECTID":221000},"geometry":{"x":172106.18000000063,"y":2570449.7100000028}}]}