{"displayFieldName":"TOWNNAME","fieldAliases":{"ID":"ID","DIS_CODE":"DIS_CODE","TOWNNAME":"TOWNNAME","LI":"LI","LIN":"LIN","STREET":"STREET","SECT":"SECT","MAREA":"MAREA","LANE":"LANE","ALLEY":"ALLEY","HOUSE_NO":"HOUSE_NO","E_COORD97":"E_COORD97","N_COORD97":"N_COORD97","ADDRESS":"ADDRESS","OBJECTID":"OBJECTID"},"geometryType":"esriGeometryPoint","spatialReference":{"wkid":102443,"latestWkid":3826},"fields":[{"name":"ID","type":"esriFieldTypeDouble","alias":"ID"},{"name":"DIS_CODE","type":"esriFieldTypeInteger","alias":"DIS_CODE"},{"name":"TOWNNAME","type":"esriFieldTypeString","alias":"TOWNNAME","length":8},{"name":"LI","type":"esriFieldTypeString","alias":"LI","length":8},{"name":"LIN","type":"esriFieldTypeString","alias":"LIN","length":12},{"name":"STREET","type":"esriFieldTypeString","alias":"STREET","length":20},{"name":"SECT","type":"esriFieldTypeString","alias":"SECT","length":8},{"name":"MAREA","type":"esriFieldTypeString","alias":"MAREA","length":12},{"name":"LANE","type":"esriFieldTypeString","alias":"LANE","length":10},{"name":"ALLEY","type":"esriFieldTypeString","alias":"ALLEY","length":10},{"name":"HOUSE_NO","type":"esriFieldTypeString","alias":"HOUSE_NO","length":20},{"name":"E_COORD97","type":"esriFieldTypeDouble","alias":"E_COORD97"},{"name":"N_COORD97","type":"esriFieldTypeDouble","alias":"N_COORD97"},{"name":"ADDRESS","type":"esriFieldTypeString","alias":"ADDRESS","length":50},{"name":"OBJECTID","type":"esriFieldTypeOID","alias":"OBJECTID"}],"features":[{"attributes":{"ID":53601,"DIS_CODE":0,"TOWNNAME":"善化區","LI":"胡家里","LIN":"8鄰","STREET":" ","SECT":" ","MAREA":"胡厝寮","LANE":" ","ALLEY":" ","HOUSE_NO":"６２號","E_COORD97":175421.06,"N_COORD97":2560739.8700000001,"ADDRESS":"胡厝寮６２號","OBJECTID":53601},"geometry":{"x":175421.06000000052,"y":2560739.870000001}},{"attributes":{"ID":53602,"DIS_CODE":0,"TOWNNAME":"善化區","LI":"溪美里","LIN":"8鄰","STREET":" ","SECT":" ","MAREA":"溪尾","LANE":" ","ALLEY":" ","HOUSE_NO":"７３號之１","E_COORD97":176657.70999999999,"N_COORD97":2561277.77,"ADDRESS":"溪尾７３號之１","OBJECTID":53602},"geometry":{"x":176657.71000000089,"y":2561277.7699999996}},{"attributes":{"ID":53603,"DIS_CODE":0,"TOWNNAME":"善化區","LI":"東昌里","LIN":"8鄰","STREET":" ","SECT":" ","MAREA":"東勢寮","LANE":" ","ALLEY":" ","HOUSE_NO":"８３號","E_COORD97":180447.14999999999,"N_COORD97":2561988.7599999998,"ADDRESS":"東勢寮８３號","OBJECTID":53603},"geometry":{"x":180447.1500000013,"y":2561988.7600000016}},{"attributes":{"ID":53604,"DIS_CODE":0,"TOWNNAME":"善化區","LI":"東昌里","LIN":"8鄰","STREET":" ","SECT":" ","MAREA":"東勢寮","LANE":" ","ALLEY":" ","HOUSE_NO":"８５號","E_COORD97":180442.07999999999,"N_COORD97":2561969.0099999998,"ADDRESS":"東勢寮８５號","OBJECTID":53604},"geometry":{"x":180442.08000000101,"y":2561969.0099999979}},{"attributes":{"ID":53605,"DIS_CODE":0,"TOWNNAME":"善化區","LI":"東昌里","LIN":"8鄰","STREET":" ","SECT":" ","MAREA":"東勢寮","LANE":" ","ALLEY":" ","HOUSE_NO":"８６號","E_COORD97":180419.79999999999,"N_COORD97":2561987.0099999998,"ADDRESS":"東勢寮８６號","OBJECTID":53605},"geometry":{"x":180419.80000000168,"y":2561987.0100000016}},{"attributes":{"ID":53606,"DIS_CODE":0,"TOWNNAME":"善化區","LI":"東昌里","LIN":"8鄰","STREET":" ","SECT":" ","MAREA":"東勢寮","LANE":" ","ALLEY":" ","HOUSE_NO":"８８號","E_COORD97":180375.29999999999,"N_COORD97":2561982.2599999998,"ADDRESS":"東勢寮８８號","OBJECTID":53606},"geometry":{"x":180375.29999999981,"y":2561982.2600000016}},{"attributes":{"ID":53607,"DIS_CODE":0,"TOWNNAME":"善化區","LI":"胡厝里","LIN":"8鄰","STREET":" ","SECT":" ","MAREA":"胡厝寮","LANE":" ","ALLEY":" ","HOUSE_NO":"２０８號之１","E_COORD97":175302.20000000001,"N_COORD97":2560324.52,"ADDRESS":"胡厝寮２０８號之１","OBJECTID":53607},"geometry":{"x":175302.20000000112,"y":2560324.5200000033}},{"attributes":{"ID":53608,"DIS_CODE":0,"TOWNNAME":"仁德區","LI":"新田里","LIN":"1鄰","STREET":"新田二街","SECT":" ","MAREA":" ","LANE":"１２０巷","ALLEY":"２２弄","HOUSE_NO":"１３號","E_COORD97":174998.76000000001,"N_COORD97":2539965.2000000002,"ADDRESS":"新田二街１２０巷２２弄１３號","OBJECTID":53608},"geometry":{"x":174998.75999999885,"y":2539965.2000000011}},{"attributes":{"ID":53609,"DIS_CODE":0,"TOWNNAME":"仁德區","LI":"新田里","LIN":"1鄰","STREET":"新田二街","SECT":" ","MAREA":" ","LANE":"１２０巷","ALLEY":"２２弄","HOUSE_NO":"１９號","E_COORD97":174989.42000000001,"N_COORD97":2539985.71,"ADDRESS":"新田二街１２０巷２２弄１９號","OBJECTID":53609},"geometry":{"x":174989.42000000179,"y":2539985.7100000046}},{"attributes":{"ID":53610,"DIS_CODE":0,"TOWNNAME":"仁德區","LI":"新田里","LIN":"1鄰","STREET":"新田二街","SECT":" ","MAREA":" ","LANE":"１２０巷","ALLEY":"２２弄","HOUSE_NO":"１１號","E_COORD97":174991.34,"N_COORD97":2539957.7000000002,"ADDRESS":"新田二街１２０巷２２弄１１號","OBJECTID":53610},"geometry":{"x":174991.33999999985,"y":2539957.7000000011}},{"attributes":{"ID":53611,"DIS_CODE":0,"TOWNNAME":"仁德區","LI":"新田里","LIN":"1鄰","STREET":"新田二街","SECT":" ","MAREA":" ","LANE":"１２０巷","ALLEY":"２２弄","HOUSE_NO":"７號","E_COORD97":174975.17999999999,"N_COORD97":2539956.7000000002,"ADDRESS":"新田二街１２０巷２２弄７號","OBJECTID":53611},"geometry":{"x":174975.1799999997,"y":2539956.6999999993}},{"attributes":{"ID":53612,"DIS_CODE":0,"TOWNNAME":"仁德區","LI":"新田里","LIN":"1鄰","STREET":"新田二街","SECT":" ","MAREA":" ","LANE":"１２０巷","ALLEY":"２２弄","HOUSE_NO":"９號","E_COORD97":174985.78,"N_COORD97":2539955.2000000002,"ADDRESS":"新田二街１２０巷２２弄９號","OBJECTID":53612},"geometry":{"x":174985.78000000212,"y":2539955.2000000011}},{"attributes":{"ID":53613,"DIS_CODE":0,"TOWNNAME":"善化區","LI":"南關里","LIN":"8鄰","STREET":"三民路","SECT":" ","MAREA":" ","LANE":" ","ALLEY":" ","HOUSE_NO":"１７號之２７","E_COORD97":176935.84,"N_COORD97":2558727.02,"ADDRESS":"三民路１７號之２７","OBJECTID":53613},"geometry":{"x":176935.83999999985,"y":2558727.0199999996}},{"attributes":{"ID":53614,"DIS_CODE":0,"TOWNNAME":"善化區","LI":"南關里","LIN":"8鄰","STREET":"三民路","SECT":" ","MAREA":" ","LANE":" ","ALLEY":" ","HOUSE_NO":"１７之１３號","E_COORD97":176945.64999999999,"N_COORD97":2558745.02,"ADDRESS":"三民路１７之１３號","OBJECTID":53614},"geometry":{"x":176945.65000000037,"y":2558745.0200000014}},{"attributes":{"ID":53615,"DIS_CODE":0,"TOWNNAME":"善化區","LI":"南關里","LIN":"8鄰","STREET":"三民路","SECT":" ","MAREA":" ","LANE":" ","ALLEY":" ","HOUSE_NO":"１７號之２５","E_COORD97":176936.37,"N_COORD97":2558731.52,"ADDRESS":"三民路１７號之２５","OBJECTID":53615},"geometry":{"x":176936.37000000104,"y":2558731.5200000014}},{"attributes":{"ID":53616,"DIS_CODE":0,"TOWNNAME":"善化區","LI":"南關里","LIN":"8鄰","STREET":"自由路","SECT":" ","MAREA":" ","LANE":" ","ALLEY":" ","HOUSE_NO":"１４７號","E_COORD97":177003.87,"N_COORD97":2558879.5,"ADDRESS":"自由路１４７號","OBJECTID":53616},"geometry":{"x":177003.87000000197,"y":2558879.5}},{"attributes":{"ID":53617,"DIS_CODE":0,"TOWNNAME":"仁德區","LI":"新田里","LIN":"1鄰","STREET":"新田二街","SECT":" ","MAREA":" ","LANE":"１２０巷","ALLEY":"２２弄","HOUSE_NO":"３１號","E_COORD97":175025.07000000001,"N_COORD97":2539958.4900000002,"ADDRESS":"新田二街１２０巷２２弄３１號","OBJECTID":53617},"geometry":{"x":175025.07000000123,"y":2539958.4900000002}},{"attributes":{"ID":53618,"DIS_CODE":0,"TOWNNAME":"仁德區","LI":"新田里","LIN":"1鄰","STREET":"新田二街","SECT":" ","MAREA":" ","LANE":"１２０巷","ALLEY":"２２弄","HOUSE_NO":"２５號","E_COORD97":175019.41,"N_COORD97":2539971.9900000002,"ADDRESS":"新田二街１２０巷２２弄２５號","OBJECTID":53618},"geometry":{"x":175019.41000000015,"y":2539971.9900000002}},{"attributes":{"ID":53619,"DIS_CODE":0,"TOWNNAME":"仁德區","LI":"新田里","LIN":"1鄰","STREET":"新田二街","SECT":" ","MAREA":" ","LANE":"１１６巷","ALLEY":"２５弄","HOUSE_NO":"６０號","E_COORD97":175097.97,"N_COORD97":2539735.1000000001,"ADDRESS":"新田二街１１６巷２５弄６０號","OBJECTID":53619},"geometry":{"x":175097.97000000067,"y":2539735.1000000015}},{"attributes":{"ID":53620,"DIS_CODE":0,"TOWNNAME":"仁德區","LI":"新田里","LIN":"1鄰","STREET":"新田二街","SECT":" ","MAREA":" ","LANE":"１１６巷","ALLEY":"２５弄","HOUSE_NO":"５５號","E_COORD97":175032.81,"N_COORD97":2539762.1400000001,"ADDRESS":"新田二街１１６巷２５弄５５號","OBJECTID":53620},"geometry":{"x":175032.81000000052,"y":2539762.1400000043}},{"attributes":{"ID":53621,"DIS_CODE":0,"TOWNNAME":"仁德區","LI":"新田里","LIN":"1鄰","STREET":"新田二街","SECT":" ","MAREA":" ","LANE":"１１６巷","ALLEY":"２５弄","HOUSE_NO":"６２號","E_COORD97":175140.53,"N_COORD97":2539737.7400000002,"ADDRESS":"新田二街１１６巷２５弄６２號","OBJECTID":53621},"geometry":{"x":175140.53000000119,"y":2539737.7400000021}},{"attributes":{"ID":53622,"DIS_CODE":0,"TOWNNAME":"仁德區","LI":"新田里","LIN":"1鄰","STREET":"新田二街","SECT":" ","MAREA":" ","LANE":"１１６巷","ALLEY":"２５弄","HOUSE_NO":"７１號","E_COORD97":175140.26000000001,"N_COORD97":2539766.2000000002,"ADDRESS":"新田二街１１６巷２５弄７１號","OBJECTID":53622},"geometry":{"x":175140.26000000071,"y":2539766.1999999993}},{"attributes":{"ID":53623,"DIS_CODE":0,"TOWNNAME":"仁德區","LI":"上崙里","LIN":"1鄰","STREET":"德崙路","SECT":" ","MAREA":" ","LANE":"７７巷","ALLEY":"１２０弄","HOUSE_NO":"２１號","E_COORD97":173664.28,"N_COORD97":2538371.54,"ADDRESS":"德崙路７７巷１２０弄２１號","OBJECTID":53623},"geometry":{"x":173664.28000000026,"y":2538371.5400000028}},{"attributes":{"ID":53624,"DIS_CODE":0,"TOWNNAME":"仁德區","LI":"上崙里","LIN":"1鄰","STREET":"德崙路","SECT":" ","MAREA":" ","LANE":"７７巷","ALLEY":"１２０弄","HOUSE_NO":"２３號","E_COORD97":173668.5,"N_COORD97":2538377.1499999999,"ADDRESS":"德崙路７７巷１２０弄２３號","OBJECTID":53624},"geometry":{"x":173668.50000000186,"y":2538377.1500000004}},{"attributes":{"ID":53625,"DIS_CODE":0,"TOWNNAME":"仁德區","LI":"上崙里","LIN":"1鄰","STREET":"德崙路","SECT":" ","MAREA":" ","LANE":"７７巷","ALLEY":"１２０弄","HOUSE_NO":"２５號","E_COORD97":173672.45999999999,"N_COORD97":2538379.6600000001,"ADDRESS":"德崙路７７巷１２０弄２５號","OBJECTID":53625},"geometry":{"x":173672.46000000089,"y":2538379.660000002}},{"attributes":{"ID":53626,"DIS_CODE":0,"TOWNNAME":"仁德區","LI":"上崙里","LIN":"1鄰","STREET":"德崙路","SECT":" ","MAREA":" ","LANE":"７７巷","ALLEY":"１２０弄","HOUSE_NO":"２７號","E_COORD97":173685.60000000001,"N_COORD97":2538381.9199999999,"ADDRESS":"德崙路７７巷１２０弄２７號","OBJECTID":53626},"geometry":{"x":173685.59999999963,"y":2538381.9199999999}},{"attributes":{"ID":53627,"DIS_CODE":0,"TOWNNAME":"南區","LI":"竹溪里","LIN":"6鄰","STREET":"體育路","SECT":" ","MAREA":" ","LANE":"２１巷","ALLEY":"３４弄","HOUSE_NO":"１２號","E_COORD97":168805.51000000001,"N_COORD97":2542305.21,"ADDRESS":"體育路２１巷３４弄１２號","OBJECTID":53627},"geometry":{"x":168805.50999999978,"y":2542305.2100000028}},{"attributes":{"ID":53628,"DIS_CODE":0,"TOWNNAME":"南區","LI":"大忠里","LIN":"28鄰","STREET":"大同路","SECT":"二段","MAREA":" ","LANE":"４８２巷","ALLEY":"１３３弄","HOUSE_NO":"７０號","E_COORD97":169189.91,"N_COORD97":2541410.6699999999,"ADDRESS":"大同路二段４８２巷１３３弄７０號","OBJECTID":53628},"geometry":{"x":169189.91000000015,"y":2541410.6700000018}},{"attributes":{"ID":53629,"DIS_CODE":0,"TOWNNAME":"南區","LI":"再興里","LIN":"13鄰","STREET":"三官路","SECT":" ","MAREA":" ","LANE":"１７６巷","ALLEY":"５弄","HOUSE_NO":"７號","E_COORD97":167205.69,"N_COORD97":2542033.2200000002,"ADDRESS":"三官路１７６巷５弄７號","OBJECTID":53629},"geometry":{"x":167205.69000000134,"y":2542033.2200000044}},{"attributes":{"ID":53630,"DIS_CODE":0,"TOWNNAME":"南區","LI":"再興里","LIN":"13鄰","STREET":"三官路","SECT":" ","MAREA":" ","LANE":"１７６巷","ALLEY":"５弄","HOUSE_NO":"９號","E_COORD97":167201.19,"N_COORD97":2542033.9500000002,"ADDRESS":"三官路１７６巷５弄９號","OBJECTID":53630},"geometry":{"x":167201.19000000134,"y":2542033.9500000011}},{"attributes":{"ID":53631,"DIS_CODE":0,"TOWNNAME":"南區","LI":"再興里","LIN":"13鄰","STREET":"三官路","SECT":" ","MAREA":" ","LANE":"１７６巷","ALLEY":"５弄","HOUSE_NO":"９號之１","E_COORD97":167195.95000000001,"N_COORD97":2542034.1600000001,"ADDRESS":"三官路１７６巷５弄９號之１","OBJECTID":53631},"geometry":{"x":167195.95000000019,"y":2542034.160000002}},{"attributes":{"ID":53632,"DIS_CODE":0,"TOWNNAME":"安南區","LI":"頂安里","LIN":"1鄰","STREET":"長溪路","SECT":"一段","MAREA":" ","LANE":"４０６巷","ALLEY":"１７弄","HOUSE_NO":"１０號","E_COORD97":168577.76000000001,"N_COORD97":2548999.54,"ADDRESS":"長溪路一段４０６巷１７弄１０號","OBJECTID":53632},"geometry":{"x":168577.76000000071,"y":2548999.5399999991}},{"attributes":{"ID":53633,"DIS_CODE":0,"TOWNNAME":"安南區","LI":"頂安里","LIN":"1鄰","STREET":"長溪路","SECT":"一段","MAREA":" ","LANE":"４０６巷","ALLEY":"１７弄","HOUSE_NO":"１２號","E_COORD97":168570.07999999999,"N_COORD97":2548999.2400000002,"ADDRESS":"長溪路一段４０６巷１７弄１２號","OBJECTID":53633},"geometry":{"x":168570.08000000007,"y":2548999.2400000002}},{"attributes":{"ID":53634,"DIS_CODE":0,"TOWNNAME":"永康區","LI":"二王里","LIN":"1鄰","STREET":"二王路","SECT":" ","MAREA":" ","LANE":"２７巷","ALLEY":"２２弄","HOUSE_NO":"４５號","E_COORD97":173106.63505300001,"N_COORD97":2546683.49413,"ADDRESS":"二王路２７巷２２弄４５號","OBJECTID":53634},"geometry":{"x":173106.63505300228,"y":2546683.4941259995}},{"attributes":{"ID":53635,"DIS_CODE":0,"TOWNNAME":"安南區","LI":"頂安里","LIN":"1鄰","STREET":"長溪路","SECT":"一段","MAREA":" ","LANE":"４０６巷","ALLEY":"１７弄","HOUSE_NO":"６號","E_COORD97":168598.42999999999,"N_COORD97":2548990.1000000001,"ADDRESS":"長溪路一段４０６巷１７弄６號","OBJECTID":53635},"geometry":{"x":168598.43000000063,"y":2548990.1000000034}},{"attributes":{"ID":53636,"DIS_CODE":0,"TOWNNAME":"安南區","LI":"頂安里","LIN":"1鄰","STREET":"長溪路","SECT":"一段","MAREA":" ","LANE":"４０６巷","ALLEY":"２１弄","HOUSE_NO":"１號","E_COORD97":168586.03,"N_COORD97":2548993.3399999999,"ADDRESS":"長溪路一段４０６巷２１弄１號","OBJECTID":53636},"geometry":{"x":168586.03000000026,"y":2548993.3400000017}},{"attributes":{"ID":53637,"DIS_CODE":0,"TOWNNAME":"安南區","LI":"安慶里","LIN":"1鄰","STREET":"長溪路","SECT":"一段","MAREA":" ","LANE":"１６８巷","ALLEY":"２５０弄","HOUSE_NO":"３號","E_COORD97":168889.82000000001,"N_COORD97":2548958.9300000002,"ADDRESS":"長溪路一段１６８巷２５０弄３號","OBJECTID":53637},"geometry":{"x":168889.82000000123,"y":2548958.9300000016}},{"attributes":{"ID":53638,"DIS_CODE":0,"TOWNNAME":"安南區","LI":"安慶里","LIN":"1鄰","STREET":"長溪路","SECT":"一段","MAREA":" ","LANE":"１６８巷","ALLEY":"２６１弄","HOUSE_NO":"１號","E_COORD97":168937,"N_COORD97":2548932.9900000002,"ADDRESS":"長溪路一段１６８巷２６１弄１號","OBJECTID":53638},"geometry":{"x":168937,"y":2548932.9900000002}},{"attributes":{"ID":53639,"DIS_CODE":0,"TOWNNAME":"安南區","LI":"安慶里","LIN":"1鄰","STREET":"長溪路","SECT":"一段","MAREA":" ","LANE":"１６８巷","ALLEY":"２６２弄","HOUSE_NO":"１３號","E_COORD97":168845.14999999999,"N_COORD97":2548924.3500000001,"ADDRESS":"長溪路一段１６８巷２６２弄１３號","OBJECTID":53639},"geometry":{"x":168845.1500000013,"y":2548924.3500000015}},{"attributes":{"ID":53640,"DIS_CODE":0,"TOWNNAME":"安南區","LI":"安慶里","LIN":"1鄰","STREET":"長溪路","SECT":"一段","MAREA":" ","LANE":"１６８巷","ALLEY":"２６２弄","HOUSE_NO":"７號","E_COORD97":168873.19,"N_COORD97":2548921.6200000001,"ADDRESS":"長溪路一段１６８巷２６２弄７號","OBJECTID":53640},"geometry":{"x":168873.19000000041,"y":2548921.6200000029}},{"attributes":{"ID":53641,"DIS_CODE":0,"TOWNNAME":"安南區","LI":"安慶里","LIN":"1鄰","STREET":"長溪路","SECT":"一段","MAREA":" ","LANE":"１６８巷","ALLEY":"２６２弄","HOUSE_NO":"９號","E_COORD97":168854.70999999999,"N_COORD97":2548904.71,"ADDRESS":"長溪路一段１６８巷２６２弄９號","OBJECTID":53641},"geometry":{"x":168854.71000000089,"y":2548904.7100000009}},{"attributes":{"ID":53642,"DIS_CODE":0,"TOWNNAME":"安南區","LI":"佃東里","LIN":"1鄰","STREET":"海佃路","SECT":"四段","MAREA":" ","LANE":"３８８巷","ALLEY":"２弄","HOUSE_NO":"２１號","E_COORD97":165685,"N_COORD97":2551506.3799999999,"ADDRESS":"海佃路四段３８８巷２弄２１號","OBJECTID":53642},"geometry":{"x":165685,"y":2551506.3799999971}},{"attributes":{"ID":53643,"DIS_CODE":0,"TOWNNAME":"安南區","LI":"佃東里","LIN":"1鄰","STREET":"海佃路","SECT":"四段","MAREA":" ","LANE":"３８８巷","ALLEY":"２弄","HOUSE_NO":"２３號","E_COORD97":165690.69,"N_COORD97":2551507.5899999999,"ADDRESS":"海佃路四段３８８巷２弄２３號","OBJECTID":53643},"geometry":{"x":165690.69000000134,"y":2551507.5900000017}},{"attributes":{"ID":53644,"DIS_CODE":0,"TOWNNAME":"安南區","LI":"佃東里","LIN":"1鄰","STREET":"海佃路","SECT":"四段","MAREA":" ","LANE":"３８８巷","ALLEY":"２弄","HOUSE_NO":"２５號","E_COORD97":165693.92999999999,"N_COORD97":2551503.4399999999,"ADDRESS":"海佃路四段３８８巷２弄２５號","OBJECTID":53644},"geometry":{"x":165693.9299999997,"y":2551503.4400000032}},{"attributes":{"ID":53645,"DIS_CODE":0,"TOWNNAME":"玉井區","LI":"中正里","LIN":"8鄰","STREET":"中正路","SECT":" ","MAREA":" ","LANE":" ","ALLEY":" ","HOUSE_NO":"５７５號","E_COORD97":195684.35000000001,"N_COORD97":2558834.25,"ADDRESS":"中正路５７５號","OBJECTID":53645},"geometry":{"x":195684.3499999987,"y":2558834.25}},{"attributes":{"ID":53646,"DIS_CODE":0,"TOWNNAME":"安南區","LI":"佃東里","LIN":"1鄰","STREET":"海佃路","SECT":"四段","MAREA":" ","LANE":"３８８巷","ALLEY":"２弄","HOUSE_NO":"２７號","E_COORD97":165698.70000000001,"N_COORD97":2551504.6499999999,"ADDRESS":"海佃路四段３８８巷２弄２７號","OBJECTID":53646},"geometry":{"x":165698.70000000112,"y":2551504.6500000004}},{"attributes":{"ID":53647,"DIS_CODE":0,"TOWNNAME":"安南區","LI":"佃東里","LIN":"1鄰","STREET":"海佃路","SECT":"四段","MAREA":" ","LANE":"３８８巷","ALLEY":"２弄","HOUSE_NO":"２９號","E_COORD97":165702.35000000001,"N_COORD97":2551500.2999999998,"ADDRESS":"海佃路四段３８８巷２弄２９號","OBJECTID":53647},"geometry":{"x":165702.35000000056,"y":2551500.3000000026}},{"attributes":{"ID":53648,"DIS_CODE":0,"TOWNNAME":"安南區","LI":"佃東里","LIN":"1鄰","STREET":"海佃路","SECT":"四段","MAREA":" ","LANE":"３８８巷","ALLEY":"２弄","HOUSE_NO":"３１號","E_COORD97":165707.53,"N_COORD97":2551501.6099999999,"ADDRESS":"海佃路四段３８８巷２弄３１號","OBJECTID":53648},"geometry":{"x":165707.53000000026,"y":2551501.6099999994}},{"attributes":{"ID":53649,"DIS_CODE":0,"TOWNNAME":"安南區","LI":"佃東里","LIN":"1鄰","STREET":"海佃路","SECT":"四段","MAREA":" ","LANE":"３８８巷","ALLEY":"２弄","HOUSE_NO":"３３號","E_COORD97":165710.76999999999,"N_COORD97":2551497.5600000001,"ADDRESS":"海佃路四段３８８巷２弄３３號","OBJECTID":53649},"geometry":{"x":165710.77000000048,"y":2551497.5600000024}},{"attributes":{"ID":53650,"DIS_CODE":0,"TOWNNAME":"安南區","LI":"佃東里","LIN":"1鄰","STREET":"海佃路","SECT":"四段","MAREA":" ","LANE":"３８８巷","ALLEY":"２弄","HOUSE_NO":"３５號","E_COORD97":165715.95000000001,"N_COORD97":2551498.7799999998,"ADDRESS":"海佃路四段３８８巷２弄３５號","OBJECTID":53650},"geometry":{"x":165715.95000000112,"y":2551498.7800000012}},{"attributes":{"ID":53651,"DIS_CODE":0,"TOWNNAME":"安南區","LI":"佃東里","LIN":"1鄰","STREET":"海佃路","SECT":"四段","MAREA":" ","LANE":"３８８巷","ALLEY":"２弄","HOUSE_NO":"３７號","E_COORD97":165719.19,"N_COORD97":2551494.6200000001,"ADDRESS":"海佃路四段３８８巷２弄３７號","OBJECTID":53651},"geometry":{"x":165719.19000000134,"y":2551494.6200000029}},{"attributes":{"ID":53652,"DIS_CODE":0,"TOWNNAME":"安南區","LI":"佃東里","LIN":"1鄰","STREET":"海佃路","SECT":"四段","MAREA":" ","LANE":"３８８巷","ALLEY":"２弄","HOUSE_NO":"３９號","E_COORD97":165724.57000000001,"N_COORD97":2551495.1299999999,"ADDRESS":"海佃路四段３８８巷２弄３９號","OBJECTID":53652},"geometry":{"x":165724.57000000216,"y":2551495.1300000008}},{"attributes":{"ID":53653,"DIS_CODE":0,"TOWNNAME":"安南區","LI":"佃東里","LIN":"1鄰","STREET":"海佃路","SECT":"四段","MAREA":" ","LANE":"３８８巷","ALLEY":"２弄","HOUSE_NO":"４１號","E_COORD97":165724.76000000001,"N_COORD97":2551510.98,"ADDRESS":"海佃路四段３８８巷２弄４１號","OBJECTID":53653},"geometry":{"x":165724.76000000071,"y":2551510.9800000042}},{"attributes":{"ID":53654,"DIS_CODE":0,"TOWNNAME":"安南區","LI":"佃東里","LIN":"1鄰","STREET":"海佃路","SECT":"四段","MAREA":" ","LANE":"３８８巷","ALLEY":"２弄","HOUSE_NO":"４３號","E_COORD97":165725.78,"N_COORD97":2551516.79,"ADDRESS":"海佃路四段３８８巷２弄４３號","OBJECTID":53654},"geometry":{"x":165725.78000000026,"y":2551516.7899999991}},{"attributes":{"ID":53655,"DIS_CODE":0,"TOWNNAME":"下營區","LI":"營前里","LIN":" ","STREET":"健康路","SECT":" ","MAREA":" ","LANE":" ","ALLEY":" ","HOUSE_NO":"２０１號","E_COORD97":174947.82999999999,"N_COORD97":2570313.6499999999,"ADDRESS":"健康路２０１號","OBJECTID":53655},"geometry":{"x":174947.83000000194,"y":2570313.6500000022}},{"attributes":{"ID":53656,"DIS_CODE":0,"TOWNNAME":"下營區","LI":"新興里","LIN":" ","STREET":"新北街","SECT":" ","MAREA":" ","LANE":" ","ALLEY":" ","HOUSE_NO":"１２８號","E_COORD97":175250.35999999999,"N_COORD97":2571058.3599999999,"ADDRESS":"新北街１２８號","OBJECTID":53656},"geometry":{"x":175250.36000000127,"y":2571058.3599999994}},{"attributes":{"ID":53657,"DIS_CODE":0,"TOWNNAME":"歸仁區","LI":"大廟里","LIN":" ","STREET":"保大路","SECT":"三段","MAREA":" ","LANE":" ","ALLEY":" ","HOUSE_NO":"２５３之２號","E_COORD97":175792.92999999999,"N_COORD97":2544251.2599999998,"ADDRESS":"保大路三段２５３之２號","OBJECTID":53657},"geometry":{"x":175792.93000000063,"y":2544251.2599999998}},{"attributes":{"ID":53658,"DIS_CODE":0,"TOWNNAME":"歸仁區","LI":"大廟里","LIN":" ","STREET":"保大路","SECT":"三段","MAREA":" ","LANE":" ","ALLEY":" ","HOUSE_NO":"１６５之１號","E_COORD97":175995.87,"N_COORD97":2544112.2999999998,"ADDRESS":"保大路三段１６５之１號","OBJECTID":53658},"geometry":{"x":175995.87000000104,"y":2544112.3000000026}},{"attributes":{"ID":53659,"DIS_CODE":0,"TOWNNAME":"歸仁區","LI":"大廟里","LIN":" ","STREET":"保大路","SECT":"三段","MAREA":" ","LANE":" ","ALLEY":" ","HOUSE_NO":"２５５號","E_COORD97":175849.67000000001,"N_COORD97":2544280.2799999998,"ADDRESS":"保大路三段２５５號","OBJECTID":53659},"geometry":{"x":175849.67000000086,"y":2544280.2800000012}},{"attributes":{"ID":53660,"DIS_CODE":0,"TOWNNAME":"歸仁區","LI":"大廟里","LIN":" ","STREET":"保大路","SECT":"三段","MAREA":" ","LANE":" ","ALLEY":" ","HOUSE_NO":"２５３之６號","E_COORD97":175779.37,"N_COORD97":2544279.2999999998,"ADDRESS":"保大路三段２５３之６號","OBJECTID":53660},"geometry":{"x":175779.37000000011,"y":2544279.3000000007}},{"attributes":{"ID":53661,"DIS_CODE":0,"TOWNNAME":"玉井區","LI":"玉田里","LIN":" ","STREET":"神農街","SECT":" ","MAREA":" ","LANE":" ","ALLEY":" ","HOUSE_NO":"２６號","E_COORD97":194887.39000000001,"N_COORD97":2557949.2799999998,"ADDRESS":"神農街２６號","OBJECTID":53661},"geometry":{"x":194887.38999999873,"y":2557949.2800000031}},{"attributes":{"ID":53662,"DIS_CODE":0,"TOWNNAME":"玉井區","LI":"玉田里","LIN":" ","STREET":"中正路","SECT":" ","MAREA":" ","LANE":" ","ALLEY":" ","HOUSE_NO":"２６８號","E_COORD97":195149.45999999999,"N_COORD97":2558277.2400000002,"ADDRESS":"中正路２６８號","OBJECTID":53662},"geometry":{"x":195149.45999999996,"y":2558277.2400000021}},{"attributes":{"ID":53663,"DIS_CODE":0,"TOWNNAME":"玉井區","LI":"玉田里","LIN":"21鄰","STREET":"中華路","SECT":" ","MAREA":" ","LANE":" ","ALLEY":" ","HOUSE_NO":"１４７號","E_COORD97":195091.04999999999,"N_COORD97":2557935.25,"ADDRESS":"中華路１４７號","OBJECTID":53663},"geometry":{"x":195091.04999999981,"y":2557935.25}},{"attributes":{"ID":53664,"DIS_CODE":0,"TOWNNAME":"玉井區","LI":"玉田里","LIN":" ","STREET":"中山路","SECT":" ","MAREA":" ","LANE":" ","ALLEY":" ","HOUSE_NO":"２４２號","E_COORD97":195301.76000000001,"N_COORD97":2557776.2400000002,"ADDRESS":"中山路２４２號","OBJECTID":53664},"geometry":{"x":195301.75999999978,"y":2557776.2400000002}},{"attributes":{"ID":53665,"DIS_CODE":0,"TOWNNAME":"玉井區","LI":"玉田里","LIN":" ","STREET":"中華路","SECT":" ","MAREA":" ","LANE":" ","ALLEY":" ","HOUSE_NO":"６６號","E_COORD97":194951.39999999999,"N_COORD97":2558041.25,"ADDRESS":"中華路６６號","OBJECTID":53665},"geometry":{"x":194951.4000000013,"y":2558041.25}},{"attributes":{"ID":53666,"DIS_CODE":0,"TOWNNAME":"玉井區","LI":"玉田里","LIN":" ","STREET":"中華路","SECT":" ","MAREA":" ","LANE":" ","ALLEY":" ","HOUSE_NO":"２３號","E_COORD97":194933.20999999999,"N_COORD97":2558151.25,"ADDRESS":"中華路２３號","OBJECTID":53666},"geometry":{"x":194933.21000000183,"y":2558151.2500000019}},{"attributes":{"ID":53667,"DIS_CODE":0,"TOWNNAME":"玉井區","LI":"玉田里","LIN":" ","STREET":"中華路","SECT":" ","MAREA":" ","LANE":" ","ALLEY":" ","HOUSE_NO":"５８號","E_COORD97":194935.20999999999,"N_COORD97":2558052.25,"ADDRESS":"中華路５８號","OBJECTID":53667},"geometry":{"x":194935.21000000089,"y":2558052.2500000019}},{"attributes":{"ID":53668,"DIS_CODE":0,"TOWNNAME":"安南區","LI":"城西里","LIN":"1鄰","STREET":"城西街","SECT":"三段","MAREA":" ","LANE":"１巷","ALLEY":"１７７弄","HOUSE_NO":"４０號之５０","E_COORD97":158218.10999999999,"N_COORD97":2550220.0699999998,"ADDRESS":"城西街三段１巷１７７弄４０號之５０","OBJECTID":53668},"geometry":{"x":158218.1100000022,"y":2550220.0700000003}},{"attributes":{"ID":53669,"DIS_CODE":0,"TOWNNAME":"南區","LI":"白雪里","LIN":"18鄰","STREET":"新都路","SECT":" ","MAREA":" ","LANE":"５９０巷","ALLEY":"５弄","HOUSE_NO":"６號","E_COORD97":166870.06,"N_COORD97":2540948.8900000001,"ADDRESS":"新都路５９０巷５弄６號","OBJECTID":53669},"geometry":{"x":166870.06000000052,"y":2540948.8900000006}},{"attributes":{"ID":53670,"DIS_CODE":0,"TOWNNAME":"安南區","LI":"總頭里","LIN":"1鄰","STREET":"長溪路","SECT":"二段","MAREA":" ","LANE":"４１０巷","ALLEY":"１弄","HOUSE_NO":"６１號","E_COORD97":168443.349839,"N_COORD97":2550273.1716100001,"ADDRESS":"長溪路二段４１０巷１弄６１號","OBJECTID":53670},"geometry":{"x":168443.34983900003,"y":2550273.1716129985}},{"attributes":{"ID":53671,"DIS_CODE":0,"TOWNNAME":"安南區","LI":"新順里","LIN":"1鄰","STREET":"安生街","SECT":" ","MAREA":" ","LANE":"１２２巷","ALLEY":"６弄","HOUSE_NO":"３號","E_COORD97":169452.48999999999,"N_COORD97":2549590.9300000002,"ADDRESS":"安生街１２２巷６弄３號","OBJECTID":53671},"geometry":{"x":169452.49000000022,"y":2549590.9299999997}},{"attributes":{"ID":53672,"DIS_CODE":0,"TOWNNAME":"永康區","LI":"新樹里","LIN":"1鄰","STREET":"富強路","SECT":"二段","MAREA":" ","LANE":"２７５巷","ALLEY":"２弄","HOUSE_NO":"１號","E_COORD97":175570.5,"N_COORD97":2547453.73,"ADDRESS":"富強路二段２７５巷２弄１號","OBJECTID":53672},"geometry":{"x":175570.50000000186,"y":2547453.7300000004}},{"attributes":{"ID":53673,"DIS_CODE":0,"TOWNNAME":"永康區","LI":"北灣里","LIN":"1鄰","STREET":"大灣路","SECT":" ","MAREA":" ","LANE":"１１９巷","ALLEY":"２２弄","HOUSE_NO":"１２號","E_COORD97":175192.64999999999,"N_COORD97":2545456.6000000001,"ADDRESS":"大灣路１１９巷２２弄１２號","OBJECTID":53673},"geometry":{"x":175192.65000000037,"y":2545456.5999999996}},{"attributes":{"ID":53674,"DIS_CODE":0,"TOWNNAME":"永康區","LI":"二王里","LIN":"8鄰","STREET":"二王路","SECT":" ","MAREA":" ","LANE":" ","ALLEY":" ","HOUSE_NO":"２６號","E_COORD97":172997.13,"N_COORD97":2546826.25,"ADDRESS":"二王路２６號","OBJECTID":53674},"geometry":{"x":172997.12999999989,"y":2546826.2499999981}},{"attributes":{"ID":53675,"DIS_CODE":0,"TOWNNAME":"永康區","LI":"三合里","LIN":"8鄰","STREET":"南工街","SECT":" ","MAREA":" ","LANE":" ","ALLEY":" ","HOUSE_NO":"１２３號","E_COORD97":172089.82999999999,"N_COORD97":2545764.4900000002,"ADDRESS":"南工街１２３號","OBJECTID":53675},"geometry":{"x":172089.83000000194,"y":2545764.4900000021}},{"attributes":{"ID":53676,"DIS_CODE":0,"TOWNNAME":"中西區","LI":"藥王里","LIN":"1鄰","STREET":" ","SECT":" ","MAREA":"協進市場","LANE":" ","ALLEY":" ","HOUSE_NO":"３０號","E_COORD97":167440.19,"N_COORD97":2544382.46,"ADDRESS":"協進市場３０號","OBJECTID":53676},"geometry":{"x":167440.19000000134,"y":2544382.4600000028}},{"attributes":{"ID":53677,"DIS_CODE":0,"TOWNNAME":"中西區","LI":"藥王里","LIN":"1鄰","STREET":" ","SECT":" ","MAREA":"協進市場","LANE":" ","ALLEY":" ","HOUSE_NO":"３１號","E_COORD97":167443.03,"N_COORD97":2544383.1299999999,"ADDRESS":"協進市場３１號","OBJECTID":53677},"geometry":{"x":167443.03000000026,"y":2544383.1300000008}},{"attributes":{"ID":53678,"DIS_CODE":0,"TOWNNAME":"中西區","LI":"藥王里","LIN":"1鄰","STREET":" ","SECT":" ","MAREA":"協進市場","LANE":" ","ALLEY":" ","HOUSE_NO":"３２號","E_COORD97":167445.92999999999,"N_COORD97":2544383.7999999998,"ADDRESS":"協進市場３２號","OBJECTID":53678},"geometry":{"x":167445.93000000063,"y":2544383.8000000026}},{"attributes":{"ID":53679,"DIS_CODE":0,"TOWNNAME":"永康區","LI":"建國里","LIN":"1鄰","STREET":"大灣路","SECT":" ","MAREA":" ","LANE":"９４２巷","ALLEY":"３７１弄","HOUSE_NO":"１１５號","E_COORD97":173034.09,"N_COORD97":2545449.71,"ADDRESS":"大灣路９４２巷３７１弄１１５號","OBJECTID":53679},"geometry":{"x":173034.09000000078,"y":2545449.7100000009}},{"attributes":{"ID":53680,"DIS_CODE":0,"TOWNNAME":"中西區","LI":"藥王里","LIN":"1鄰","STREET":" ","SECT":" ","MAREA":"協進市場","LANE":" ","ALLEY":" ","HOUSE_NO":"３３號","E_COORD97":167448.39000000001,"N_COORD97":2544384.6899999999,"ADDRESS":"協進市場３３號","OBJECTID":53680},"geometry":{"x":167448.38999999966,"y":2544384.6899999995}},{"attributes":{"ID":53681,"DIS_CODE":0,"TOWNNAME":"永康區","LI":"南灣里","LIN":"1鄰","STREET":"大灣二街","SECT":" ","MAREA":" ","LANE":"７１巷","ALLEY":"１８弄","HOUSE_NO":"２２號","E_COORD97":174743.70999999999,"N_COORD97":2544708.5,"ADDRESS":"大灣二街７１巷１８弄２２號","OBJECTID":53681},"geometry":{"x":174743.71000000089,"y":2544708.5}},{"attributes":{"ID":53682,"DIS_CODE":0,"TOWNNAME":"中西區","LI":"藥王里","LIN":"1鄰","STREET":" ","SECT":" ","MAREA":"協進市場","LANE":" ","ALLEY":" ","HOUSE_NO":"３４號","E_COORD97":167451.22,"N_COORD97":2544385.5099999998,"ADDRESS":"協進市場３４號","OBJECTID":53682},"geometry":{"x":167451.22000000067,"y":2544385.5099999998}},{"attributes":{"ID":53683,"DIS_CODE":0,"TOWNNAME":"永康區","LI":"南灣里","LIN":"1鄰","STREET":"大灣二街","SECT":" ","MAREA":" ","LANE":"７１巷","ALLEY":"１８弄","HOUSE_NO":"３０號","E_COORD97":174723.04999999999,"N_COORD97":2544712.96,"ADDRESS":"大灣二街７１巷１８弄３０號","OBJECTID":53683},"geometry":{"x":174723.05000000075,"y":2544712.9600000009}},{"attributes":{"ID":53684,"DIS_CODE":0,"TOWNNAME":"安平區","LI":"億載里","LIN":"1鄰","STREET":"平豐路","SECT":" ","MAREA":" ","LANE":"３９１巷","ALLEY":"２２弄","HOUSE_NO":"５９號","E_COORD97":164108.76000000001,"N_COORD97":2543856.9199999999,"ADDRESS":"平豐路３９１巷２２弄５９號","OBJECTID":53684},"geometry":{"x":164108.75999999978,"y":2543856.9199999999}},{"attributes":{"ID":53685,"DIS_CODE":0,"TOWNNAME":"安南區","LI":"淵東里","LIN":"1鄰","STREET":"海佃路","SECT":"四段","MAREA":" ","LANE":"１４０巷","ALLEY":"３６弄","HOUSE_NO":"３３號","E_COORD97":165741.38,"N_COORD97":2550784.3799999999,"ADDRESS":"海佃路四段１４０巷３６弄３３號","OBJECTID":53685},"geometry":{"x":165741.38000000082,"y":2550784.3800000027}},{"attributes":{"ID":53686,"DIS_CODE":0,"TOWNNAME":"安南區","LI":"淵東里","LIN":"1鄰","STREET":"海佃路","SECT":"四段","MAREA":" ","LANE":"１４０巷","ALLEY":"３６弄","HOUSE_NO":"３５號","E_COORD97":165746.89999999999,"N_COORD97":2550784.8999999999,"ADDRESS":"海佃路四段１４０巷３６弄３５號","OBJECTID":53686},"geometry":{"x":165746.9000000013,"y":2550784.9000000004}},{"attributes":{"ID":53687,"DIS_CODE":0,"TOWNNAME":"中西區","LI":"藥王里","LIN":"1鄰","STREET":" ","SECT":" ","MAREA":"協進市場","LANE":" ","ALLEY":" ","HOUSE_NO":"３５號","E_COORD97":167454.35999999999,"N_COORD97":2544386.6299999999,"ADDRESS":"協進市場３５號","OBJECTID":53687},"geometry":{"x":167454.36000000034,"y":2544386.6300000008}},{"attributes":{"ID":53688,"DIS_CODE":0,"TOWNNAME":"安南區","LI":"淵東里","LIN":"1鄰","STREET":"海佃路","SECT":"四段","MAREA":" ","LANE":"１４０巷","ALLEY":"３６弄","HOUSE_NO":"３７號","E_COORD97":165751.64000000001,"N_COORD97":2550786.2200000002,"ADDRESS":"海佃路四段１４０巷３６弄３７號","OBJECTID":53688},"geometry":{"x":165751.63999999966,"y":2550786.2200000007}},{"attributes":{"ID":53689,"DIS_CODE":0,"TOWNNAME":"安南區","LI":"淵東里","LIN":"1鄰","STREET":"海佃路","SECT":"四段","MAREA":" ","LANE":"１４０巷","ALLEY":"３６弄","HOUSE_NO":"３９號","E_COORD97":165756.10999999999,"N_COORD97":2550787,"ADDRESS":"海佃路四段１４０巷３６弄３９號","OBJECTID":53689},"geometry":{"x":165756.11000000034,"y":2550787}},{"attributes":{"ID":53690,"DIS_CODE":0,"TOWNNAME":"中西區","LI":"藥王里","LIN":"1鄰","STREET":" ","SECT":" ","MAREA":"協進市場","LANE":" ","ALLEY":" ","HOUSE_NO":"３６號","E_COORD97":167454.28,"N_COORD97":2544390.3500000001,"ADDRESS":"協進市場３６號","OBJECTID":53690},"geometry":{"x":167454.28000000119,"y":2544390.3499999996}},{"attributes":{"ID":53691,"DIS_CODE":0,"TOWNNAME":"中西區","LI":"藥王里","LIN":"1鄰","STREET":" ","SECT":" ","MAREA":"協進市場","LANE":" ","ALLEY":" ","HOUSE_NO":"３８號","E_COORD97":167448.62,"N_COORD97":2544388.3399999999,"ADDRESS":"協進市場３８號","OBJECTID":53691},"geometry":{"x":167448.62000000104,"y":2544388.3400000017}},{"attributes":{"ID":53692,"DIS_CODE":0,"TOWNNAME":"中西區","LI":"藥王里","LIN":"1鄰","STREET":" ","SECT":" ","MAREA":"協進市場","LANE":" ","ALLEY":" ","HOUSE_NO":"３９號","E_COORD97":167445.63,"N_COORD97":2544387.6699999999,"ADDRESS":"協進市場３９號","OBJECTID":53692},"geometry":{"x":167445.62999999989,"y":2544387.6699999999}},{"attributes":{"ID":53693,"DIS_CODE":0,"TOWNNAME":"中西區","LI":"藥王里","LIN":"1鄰","STREET":" ","SECT":" ","MAREA":"協進市場","LANE":" ","ALLEY":" ","HOUSE_NO":"４０號","E_COORD97":167442.73000000001,"N_COORD97":2544386.7799999998,"ADDRESS":"協進市場４０號","OBJECTID":53693},"geometry":{"x":167442.73000000231,"y":2544386.7799999993}},{"attributes":{"ID":53694,"DIS_CODE":0,"TOWNNAME":"中西區","LI":"藥王里","LIN":"1鄰","STREET":" ","SECT":" ","MAREA":"協進市場","LANE":" ","ALLEY":" ","HOUSE_NO":"４１號","E_COORD97":167439.51999999999,"N_COORD97":2544386.0299999998,"ADDRESS":"協進市場４１號","OBJECTID":53694},"geometry":{"x":167439.51999999955,"y":2544386.0300000031}},{"attributes":{"ID":53695,"DIS_CODE":0,"TOWNNAME":"中西區","LI":"藥王里","LIN":"1鄰","STREET":" ","SECT":" ","MAREA":"協進市場","LANE":" ","ALLEY":" ","HOUSE_NO":"４２號","E_COORD97":167436.76000000001,"N_COORD97":2544385.4399999999,"ADDRESS":"協進市場４２號","OBJECTID":53695},"geometry":{"x":167436.76000000071,"y":2544385.4399999995}},{"attributes":{"ID":53696,"DIS_CODE":0,"TOWNNAME":"中西區","LI":"藥王里","LIN":"1鄰","STREET":" ","SECT":" ","MAREA":"協進市場","LANE":" ","ALLEY":" ","HOUSE_NO":"４３號","E_COORD97":167433.85999999999,"N_COORD97":2544385.0699999998,"ADDRESS":"協進市場４３號","OBJECTID":53696},"geometry":{"x":167433.86000000127,"y":2544385.0700000022}},{"attributes":{"ID":53697,"DIS_CODE":0,"TOWNNAME":"中西區","LI":"藥王里","LIN":"1鄰","STREET":" ","SECT":" ","MAREA":"協進市場","LANE":" ","ALLEY":" ","HOUSE_NO":"４４號","E_COORD97":167430.73000000001,"N_COORD97":2544384.6200000001,"ADDRESS":"協進市場４４號","OBJECTID":53697},"geometry":{"x":167430.73000000231,"y":2544384.6200000029}},{"attributes":{"ID":53698,"DIS_CODE":0,"TOWNNAME":"中西區","LI":"藥王里","LIN":"1鄰","STREET":" ","SECT":" ","MAREA":"協進市場","LANE":" ","ALLEY":" ","HOUSE_NO":"４５號","E_COORD97":167427.51999999999,"N_COORD97":2544384.2400000002,"ADDRESS":"協進市場４５號","OBJECTID":53698},"geometry":{"x":167427.51999999955,"y":2544384.2400000002}},{"attributes":{"ID":53699,"DIS_CODE":0,"TOWNNAME":"中西區","LI":"藥王里","LIN":"1鄰","STREET":" ","SECT":" ","MAREA":"協進市場","LANE":" ","ALLEY":" ","HOUSE_NO":"４６號","E_COORD97":167427.07999999999,"N_COORD97":2544388.5699999998,"ADDRESS":"協進市場４６號","OBJECTID":53699},"geometry":{"x":167427.08000000101,"y":2544388.5700000003}},{"attributes":{"ID":53700,"DIS_CODE":0,"TOWNNAME":"中西區","LI":"藥王里","LIN":"1鄰","STREET":" ","SECT":" ","MAREA":"協進市場","LANE":" ","ALLEY":" ","HOUSE_NO":"４７號","E_COORD97":167430.20999999999,"N_COORD97":2544388.6400000001,"ADDRESS":"協進市場４７號","OBJECTID":53700},"geometry":{"x":167430.20999999996,"y":2544388.6400000006}},{"attributes":{"ID":53701,"DIS_CODE":0,"TOWNNAME":"安南區","LI":"淵東里","LIN":"1鄰","STREET":"海佃路","SECT":"四段","MAREA":" ","LANE":"１４０巷","ALLEY":"３６弄","HOUSE_NO":"４１號","E_COORD97":165760.84,"N_COORD97":2550787.5299999998,"ADDRESS":"海佃路四段１４０巷３６弄４１號","OBJECTID":53701},"geometry":{"x":165760.83999999985,"y":2550787.5300000012}},{"attributes":{"ID":53702,"DIS_CODE":0,"TOWNNAME":"安南區","LI":"淵東里","LIN":"1鄰","STREET":"海佃路","SECT":"四段","MAREA":" ","LANE":"１４０巷","ALLEY":"３６弄","HOUSE_NO":"４３號","E_COORD97":165764.78,"N_COORD97":2550788.5800000001,"ADDRESS":"海佃路四段１４０巷３６弄４３號","OBJECTID":53702},"geometry":{"x":165764.78000000026,"y":2550788.5800000019}},{"attributes":{"ID":53703,"DIS_CODE":0,"TOWNNAME":"中西區","LI":"藥王里","LIN":"1鄰","STREET":" ","SECT":" ","MAREA":"協進市場","LANE":" ","ALLEY":" ","HOUSE_NO":"４８號","E_COORD97":167433.19,"N_COORD97":2544388.8599999999,"ADDRESS":"協進市場４８號","OBJECTID":53703},"geometry":{"x":167433.19000000134,"y":2544388.8600000013}},{"attributes":{"ID":53704,"DIS_CODE":0,"TOWNNAME":"安南區","LI":"淵東里","LIN":"1鄰","STREET":"海佃路","SECT":"四段","MAREA":" ","LANE":"１４０巷","ALLEY":"３６弄","HOUSE_NO":"４５號","E_COORD97":165768.98999999999,"N_COORD97":2550789.6299999999,"ADDRESS":"海佃路四段１４０巷３６弄４５號","OBJECTID":53704},"geometry":{"x":165768.99000000022,"y":2550789.6300000027}},{"attributes":{"ID":53705,"DIS_CODE":0,"TOWNNAME":"中西區","LI":"藥王里","LIN":"1鄰","STREET":" ","SECT":" ","MAREA":"協進市場","LANE":" ","ALLEY":" ","HOUSE_NO":"４９號","E_COORD97":167436.01999999999,"N_COORD97":2544389.0899999999,"ADDRESS":"協進市場４９號","OBJECTID":53705},"geometry":{"x":167436.01999999955,"y":2544389.0899999999}},{"attributes":{"ID":53706,"DIS_CODE":0,"TOWNNAME":"安南區","LI":"淵東里","LIN":"1鄰","STREET":"海佃路","SECT":"四段","MAREA":" ","LANE":"１４０巷","ALLEY":"３６弄","HOUSE_NO":"４７號","E_COORD97":165773.45999999999,"N_COORD97":2550790.6800000002,"ADDRESS":"海佃路四段１４０巷３６弄４７號","OBJECTID":53706},"geometry":{"x":165773.45999999996,"y":2550790.6800000016}},{"attributes":{"ID":53707,"DIS_CODE":0,"TOWNNAME":"安南區","LI":"淵東里","LIN":"1鄰","STREET":"海佃路","SECT":"四段","MAREA":" ","LANE":"１４０巷","ALLEY":"３６弄","HOUSE_NO":"４９號","E_COORD97":165774.25,"N_COORD97":2550772.2999999998,"ADDRESS":"海佃路四段１４０巷３６弄４９號","OBJECTID":53707},"geometry":{"x":165774.25000000093,"y":2550772.3000000007}},{"attributes":{"ID":53708,"DIS_CODE":0,"TOWNNAME":"中西區","LI":"藥王里","LIN":"1鄰","STREET":" ","SECT":" ","MAREA":"協進市場","LANE":" ","ALLEY":" ","HOUSE_NO":"５０號","E_COORD97":167438.78,"N_COORD97":2544389.8300000001,"ADDRESS":"協進市場５０號","OBJECTID":53708},"geometry":{"x":167438.78000000212,"y":2544389.8300000019}},{"attributes":{"ID":53709,"DIS_CODE":0,"TOWNNAME":"永康區","LI":"三合里","LIN":"8鄰","STREET":"南工街","SECT":" ","MAREA":" ","LANE":" ","ALLEY":" ","HOUSE_NO":"１０７號","E_COORD97":172090.69,"N_COORD97":2545730.25,"ADDRESS":"南工街１０７號","OBJECTID":53709},"geometry":{"x":172090.69000000041,"y":2545730.25}},{"attributes":{"ID":53710,"DIS_CODE":0,"TOWNNAME":"玉井區","LI":"玉田里","LIN":" ","STREET":"太子街","SECT":" ","MAREA":" ","LANE":" ","ALLEY":" ","HOUSE_NO":"３０號","E_COORD97":194815.17999999999,"N_COORD97":2558018.2599999998,"ADDRESS":"太子街３０號","OBJECTID":53710},"geometry":{"x":194815.18000000063,"y":2558018.2600000016}},{"attributes":{"ID":53711,"DIS_CODE":0,"TOWNNAME":"安南區","LI":"淵東里","LIN":"1鄰","STREET":"海佃路","SECT":"四段","MAREA":" ","LANE":"１４０巷","ALLEY":"３６弄","HOUSE_NO":"５１號","E_COORD97":165769.78,"N_COORD97":2550770.9900000002,"ADDRESS":"海佃路四段１４０巷３６弄５１號","OBJECTID":53711},"geometry":{"x":165769.78000000026,"y":2550770.9900000002}},{"attributes":{"ID":53712,"DIS_CODE":0,"TOWNNAME":"安南區","LI":"淵東里","LIN":"1鄰","STREET":"海佃路","SECT":"四段","MAREA":" ","LANE":"１４０巷","ALLEY":"３６弄","HOUSE_NO":"５３號","E_COORD97":165765.31,"N_COORD97":2550770.2000000002,"ADDRESS":"海佃路四段１４０巷３６弄５３號","OBJECTID":53712},"geometry":{"x":165765.31000000052,"y":2550770.2000000011}},{"attributes":{"ID":53713,"DIS_CODE":0,"TOWNNAME":"玉井區","LI":"玉田里","LIN":" ","STREET":"忠孝街","SECT":" ","MAREA":" ","LANE":" ","ALLEY":" ","HOUSE_NO":"１８７號","E_COORD97":195507.04000000001,"N_COORD97":2558125.25,"ADDRESS":"忠孝街１８７號","OBJECTID":53713},"geometry":{"x":195507.04000000004,"y":2558125.25}},{"attributes":{"ID":53714,"DIS_CODE":0,"TOWNNAME":"玉井區","LI":"玉田里","LIN":" ","STREET":"大智街","SECT":" ","MAREA":" ","LANE":" ","ALLEY":" ","HOUSE_NO":"２９號","E_COORD97":195192.70999999999,"N_COORD97":2558026.25,"ADDRESS":"大智街２９號","OBJECTID":53714},"geometry":{"x":195192.71000000089,"y":2558026.2500000019}},{"attributes":{"ID":53715,"DIS_CODE":0,"TOWNNAME":"玉井區","LI":"玉田里","LIN":" ","STREET":"神農街","SECT":" ","MAREA":" ","LANE":" ","ALLEY":" ","HOUSE_NO":"５０號","E_COORD97":194824.64999999999,"N_COORD97":2557982.2999999998,"ADDRESS":"神農街５０號","OBJECTID":53715},"geometry":{"x":194824.65000000037,"y":2557982.3000000026}},{"attributes":{"ID":53716,"DIS_CODE":0,"TOWNNAME":"玉井區","LI":"玉田里","LIN":" ","STREET":"中華路","SECT":" ","MAREA":" ","LANE":" ","ALLEY":" ","HOUSE_NO":"１００號","E_COORD97":195005.97,"N_COORD97":2557987.2400000002,"ADDRESS":"中華路１００號","OBJECTID":53716},"geometry":{"x":195005.97000000067,"y":2557987.2400000002}},{"attributes":{"ID":53717,"DIS_CODE":0,"TOWNNAME":"安南區","LI":"淵東里","LIN":"1鄰","STREET":"海佃路","SECT":"四段","MAREA":" ","LANE":"１４０巷","ALLEY":"３６弄","HOUSE_NO":"５５號","E_COORD97":165760.84,"N_COORD97":2550768.3700000001,"ADDRESS":"海佃路四段１４０巷３６弄５５號","OBJECTID":53717},"geometry":{"x":165760.83999999985,"y":2550768.370000001}},{"attributes":{"ID":53718,"DIS_CODE":0,"TOWNNAME":"安南區","LI":"淵東里","LIN":"1鄰","STREET":"海佃路","SECT":"四段","MAREA":" ","LANE":"１４０巷","ALLEY":"３６弄","HOUSE_NO":"５７號","E_COORD97":165757.16,"N_COORD97":2550767.3199999998,"ADDRESS":"海佃路四段１４０巷３６弄５７號","OBJECTID":53718},"geometry":{"x":165757.16000000015,"y":2550767.3200000022}},{"attributes":{"ID":53719,"DIS_CODE":0,"TOWNNAME":"安南區","LI":"淵東里","LIN":"1鄰","STREET":"海佃路","SECT":"四段","MAREA":" ","LANE":"１４０巷","ALLEY":"３６弄","HOUSE_NO":"５９號","E_COORD97":165752.16,"N_COORD97":2550765.7400000002,"ADDRESS":"海佃路四段１４０巷３６弄５９號","OBJECTID":53719},"geometry":{"x":165752.16000000015,"y":2550765.7400000002}},{"attributes":{"ID":53720,"DIS_CODE":0,"TOWNNAME":"安南區","LI":"淵東里","LIN":"1鄰","STREET":"海佃路","SECT":"四段","MAREA":" ","LANE":"１４０巷","ALLEY":"３６弄","HOUSE_NO":"６１號","E_COORD97":165747.42999999999,"N_COORD97":2550764.1699999999,"ADDRESS":"海佃路四段１４０巷３６弄６１號","OBJECTID":53720},"geometry":{"x":165747.43000000063,"y":2550764.1700000018}},{"attributes":{"ID":53721,"DIS_CODE":0,"TOWNNAME":"安南區","LI":"淵東里","LIN":"1鄰","STREET":"海佃路","SECT":"四段","MAREA":" ","LANE":"１４０巷","ALLEY":"３６弄","HOUSE_NO":"６３號","E_COORD97":165743.22,"N_COORD97":2550763.3799999999,"ADDRESS":"海佃路四段１４０巷３６弄６３號","OBJECTID":53721},"geometry":{"x":165743.21999999881,"y":2550763.379999999}},{"attributes":{"ID":53722,"DIS_CODE":0,"TOWNNAME":"安南區","LI":"淵西里","LIN":"1鄰","STREET":"安中路","SECT":"四段","MAREA":" ","LANE":"２９０巷","ALLEY":"２９１弄","HOUSE_NO":"１６２號","E_COORD97":164891.22,"N_COORD97":2550510.48,"ADDRESS":"安中路四段２９０巷２９１弄１６２號","OBJECTID":53722},"geometry":{"x":164891.22000000067,"y":2550510.4799999986}},{"attributes":{"ID":53723,"DIS_CODE":0,"TOWNNAME":"安南區","LI":"淵西里","LIN":"1鄰","STREET":"安中路","SECT":"四段","MAREA":" ","LANE":"２９０巷","ALLEY":"２９１弄","HOUSE_NO":"１６６號","E_COORD97":164898.45999999999,"N_COORD97":2550507.5499999998,"ADDRESS":"安中路四段２９０巷２９１弄１６６號","OBJECTID":53723},"geometry":{"x":164898.46000000089,"y":2550507.5500000026}},{"attributes":{"ID":53724,"DIS_CODE":0,"TOWNNAME":"安南區","LI":"淵西里","LIN":"1鄰","STREET":"安中路","SECT":"四段","MAREA":" ","LANE":"２９０巷","ALLEY":"２９１弄","HOUSE_NO":"１６８號","E_COORD97":164902.75,"N_COORD97":2550506.6400000001,"ADDRESS":"安中路四段２９０巷２９１弄１６８號","OBJECTID":53724},"geometry":{"x":164902.75000000093,"y":2550506.6400000025}},{"attributes":{"ID":53725,"DIS_CODE":0,"TOWNNAME":"安南區","LI":"溪北里","LIN":"8鄰","STREET":"府安路","SECT":"四段","MAREA":" ","LANE":" ","ALLEY":" ","HOUSE_NO":"１４號","E_COORD97":169487.42999999999,"N_COORD97":2547336.3199999998,"ADDRESS":"府安路四段１４號","OBJECTID":53725},"geometry":{"x":169487.4299999997,"y":2547336.3200000022}},{"attributes":{"ID":53726,"DIS_CODE":0,"TOWNNAME":"安南區","LI":"溪北里","LIN":"8鄰","STREET":"府安路","SECT":"四段","MAREA":" ","LANE":" ","ALLEY":" ","HOUSE_NO":"２１號","E_COORD97":169447.26000000001,"N_COORD97":2547334,"ADDRESS":"府安路四段２１號","OBJECTID":53726},"geometry":{"x":169447.26000000071,"y":2547334.0000000019}},{"attributes":{"ID":53727,"DIS_CODE":0,"TOWNNAME":"後壁區","LI":"崁頂里","LIN":"1鄰","STREET":" ","SECT":" ","MAREA":"崁頂","LANE":" ","ALLEY":" ","HOUSE_NO":"９號之３","E_COORD97":182654.54999999999,"N_COORD97":2586780.0499999998,"ADDRESS":"崁頂９號之３","OBJECTID":53727},"geometry":{"x":182654.55000000075,"y":2586780.0500000007}},{"attributes":{"ID":53728,"DIS_CODE":0,"TOWNNAME":"玉井區","LI":"玉田里","LIN":" ","STREET":"民族路","SECT":" ","MAREA":" ","LANE":" ","ALLEY":" ","HOUSE_NO":"１０６號","E_COORD97":195204.09,"N_COORD97":2558092.2799999998,"ADDRESS":"民族路１０６號","OBJECTID":53728},"geometry":{"x":195204.09000000078,"y":2558092.2800000012}},{"attributes":{"ID":53729,"DIS_CODE":0,"TOWNNAME":"麻豆區","LI":"小埤里","LIN":"8鄰","STREET":" ","SECT":" ","MAREA":"小埤頭","LANE":" ","ALLEY":" ","HOUSE_NO":"４８號之９","E_COORD97":171384.19,"N_COORD97":2565862.4700000002,"ADDRESS":"小埤頭４８號之９","OBJECTID":53729},"geometry":{"x":171384.19000000227,"y":2565862.4700000044}},{"attributes":{"ID":53730,"DIS_CODE":0,"TOWNNAME":"中西區","LI":"藥王里","LIN":"1鄰","STREET":" ","SECT":" ","MAREA":"協進市場","LANE":" ","ALLEY":" ","HOUSE_NO":"５１號","E_COORD97":167441.82999999999,"N_COORD97":2544390.5,"ADDRESS":"協進市場５１號","OBJECTID":53730},"geometry":{"x":167441.83000000101,"y":2544390.5000000037}},{"attributes":{"ID":53731,"DIS_CODE":0,"TOWNNAME":"中西區","LI":"藥王里","LIN":"1鄰","STREET":" ","SECT":" ","MAREA":"協進市場","LANE":" ","ALLEY":" ","HOUSE_NO":"５２號","E_COORD97":167444.73999999999,"N_COORD97":2544391.02,"ADDRESS":"協進市場５２號","OBJECTID":53731},"geometry":{"x":167444.74000000115,"y":2544391.0200000014}},{"attributes":{"ID":53732,"DIS_CODE":0,"TOWNNAME":"中西區","LI":"藥王里","LIN":"1鄰","STREET":" ","SECT":" ","MAREA":"協進市場","LANE":" ","ALLEY":" ","HOUSE_NO":"５３號","E_COORD97":167447.42000000001,"N_COORD97":2544391.6899999999,"ADDRESS":"協進市場５３號","OBJECTID":53732},"geometry":{"x":167447.41999999899,"y":2544391.6899999976}},{"attributes":{"ID":53733,"DIS_CODE":0,"TOWNNAME":"安南區","LI":"溪心里","LIN":"8鄰","STREET":"海佃路","SECT":"二段","MAREA":" ","LANE":" ","ALLEY":" ","HOUSE_NO":"８２０號","E_COORD97":166420.04000000001,"N_COORD97":2549695.3199999998,"ADDRESS":"海佃路二段８２０號","OBJECTID":53733},"geometry":{"x":166420.04000000097,"y":2549695.3200000022}},{"attributes":{"ID":53734,"DIS_CODE":0,"TOWNNAME":"安南區","LI":"溪心里","LIN":"8鄰","STREET":"海佃路","SECT":"二段","MAREA":" ","LANE":" ","ALLEY":" ","HOUSE_NO":"８２２號","E_COORD97":166418.07999999999,"N_COORD97":2549699.0899999999,"ADDRESS":"海佃路二段８２２號","OBJECTID":53734},"geometry":{"x":166418.08000000101,"y":2549699.0900000036}},{"attributes":{"ID":53735,"DIS_CODE":0,"TOWNNAME":"安南區","LI":"溪心里","LIN":"8鄰","STREET":"海佃路","SECT":"二段","MAREA":" ","LANE":" ","ALLEY":" ","HOUSE_NO":"８２４號","E_COORD97":166414.60999999999,"N_COORD97":2549704.3700000001,"ADDRESS":"海佃路二段８２４號","OBJECTID":53735},"geometry":{"x":166414.61000000127,"y":2549704.370000001}},{"attributes":{"ID":53736,"DIS_CODE":0,"TOWNNAME":"安南區","LI":"溪心里","LIN":"8鄰","STREET":"海佃路","SECT":"二段","MAREA":" ","LANE":" ","ALLEY":" ","HOUSE_NO":"８２６號","E_COORD97":166411.59,"N_COORD97":2549710.3999999999,"ADDRESS":"海佃路二段８２６號","OBJECTID":53736},"geometry":{"x":166411.58999999985,"y":2549710.4000000004}},{"attributes":{"ID":53737,"DIS_CODE":0,"TOWNNAME":"中西區","LI":"藥王里","LIN":"1鄰","STREET":" ","SECT":" ","MAREA":"協進市場","LANE":" ","ALLEY":" ","HOUSE_NO":"５６號","E_COORD97":167453.98000000001,"N_COORD97":2544392.8100000001,"ADDRESS":"協進市場５６號","OBJECTID":53737},"geometry":{"x":167453.98000000045,"y":2544392.8100000024}},{"attributes":{"ID":53738,"DIS_CODE":0,"TOWNNAME":"中西區","LI":"藥王里","LIN":"1鄰","STREET":" ","SECT":" ","MAREA":"協進市場","LANE":" ","ALLEY":" ","HOUSE_NO":"５７號","E_COORD97":167455.70000000001,"N_COORD97":2544391.9900000002,"ADDRESS":"協進市場５７號","OBJECTID":53738},"geometry":{"x":167455.70000000019,"y":2544391.9900000021}},{"attributes":{"ID":53739,"DIS_CODE":0,"TOWNNAME":"安南區","LI":"溪心里","LIN":"8鄰","STREET":"海佃路","SECT":"二段","MAREA":" ","LANE":" ","ALLEY":" ","HOUSE_NO":"８３０號","E_COORD97":166406,"N_COORD97":2549713.7200000002,"ADDRESS":"海佃路二段８３０號","OBJECTID":53739},"geometry":{"x":166406,"y":2549713.7200000025}},{"attributes":{"ID":53740,"DIS_CODE":0,"TOWNNAME":"安南區","LI":"頂安里","LIN":"8鄰","STREET":"怡安路","SECT":"一段","MAREA":" ","LANE":" ","ALLEY":" ","HOUSE_NO":"４３５號","E_COORD97":168613.41,"N_COORD97":2549173.7799999998,"ADDRESS":"怡安路一段４３５號","OBJECTID":53740},"geometry":{"x":168613.41000000015,"y":2549173.7799999993}},{"attributes":{"ID":53741,"DIS_CODE":0,"TOWNNAME":"中西區","LI":"藥王里","LIN":"1鄰","STREET":" ","SECT":" ","MAREA":"協進市場","LANE":" ","ALLEY":" ","HOUSE_NO":"５８號","E_COORD97":167456.14000000001,"N_COORD97":2544395.3399999999,"ADDRESS":"協進市場５８號","OBJECTID":53741},"geometry":{"x":167456.1400000006,"y":2544395.3400000017}},{"attributes":{"ID":53742,"DIS_CODE":0,"TOWNNAME":"安南區","LI":"淵西里","LIN":"1鄰","STREET":"安中路","SECT":"四段","MAREA":" ","LANE":"２９０巷","ALLEY":"２９１弄","HOUSE_NO":"１７０號","E_COORD97":164906.82000000001,"N_COORD97":2550505.29,"ADDRESS":"安中路四段２９０巷２９１弄１７０號","OBJECTID":53742},"geometry":{"x":164906.8200000003,"y":2550505.290000001}},{"attributes":{"ID":53743,"DIS_CODE":0,"TOWNNAME":"安南區","LI":"國安里","LIN":"1鄰","STREET":"國安街","SECT":" ","MAREA":" ","LANE":"１５６巷","ALLEY":"１５弄","HOUSE_NO":"３號","E_COORD97":166704.38,"N_COORD97":2547005.6400000001,"ADDRESS":"國安街１５６巷１５弄３號","OBJECTID":53743},"geometry":{"x":166704.38000000082,"y":2547005.6400000025}},{"attributes":{"ID":53744,"DIS_CODE":0,"TOWNNAME":"安南區","LI":"淵西里","LIN":"1鄰","STREET":"安中路","SECT":"四段","MAREA":" ","LANE":"２９０巷","ALLEY":"２９１弄","HOUSE_NO":"１７２號","E_COORD97":164911.57000000001,"N_COORD97":2550504.3799999999,"ADDRESS":"安中路四段２９０巷２９１弄１７２號","OBJECTID":53744},"geometry":{"x":164911.57000000123,"y":2550504.3800000008}},{"attributes":{"ID":53745,"DIS_CODE":0,"TOWNNAME":"安南區","LI":"淵西里","LIN":"1鄰","STREET":"安中路","SECT":"四段","MAREA":" ","LANE":"２９０巷","ALLEY":"２９１弄","HOUSE_NO":"１７６號","E_COORD97":164915.63,"N_COORD97":2550503.48,"ADDRESS":"安中路四段２９０巷２９１弄１７６號","OBJECTID":53745},"geometry":{"x":164915.63000000082,"y":2550503.4800000004}},{"attributes":{"ID":53746,"DIS_CODE":0,"TOWNNAME":"安南區","LI":"淵西里","LIN":"1鄰","STREET":"安中路","SECT":"四段","MAREA":" ","LANE":"２９０巷","ALLEY":"２９１弄","HOUSE_NO":"１７８號","E_COORD97":164920.14999999999,"N_COORD97":2550503.0299999998,"ADDRESS":"安中路四段２９０巷２９１弄１７８號","OBJECTID":53746},"geometry":{"x":164920.15000000037,"y":2550503.0300000012}},{"attributes":{"ID":53747,"DIS_CODE":0,"TOWNNAME":"安南區","LI":"淵西里","LIN":"1鄰","STREET":"安中路","SECT":"四段","MAREA":" ","LANE":"２９０巷","ALLEY":"２９１弄","HOUSE_NO":"１８０號","E_COORD97":164924.89999999999,"N_COORD97":2550502.3500000001,"ADDRESS":"安中路四段２９０巷２９１弄１８０號","OBJECTID":53747},"geometry":{"x":164924.90000000037,"y":2550502.3499999996}},{"attributes":{"ID":53748,"DIS_CODE":0,"TOWNNAME":"安平區","LI":"平安里","LIN":"20鄰","STREET":"安平路","SECT":" ","MAREA":" ","LANE":"６０６巷","ALLEY":"５３弄","HOUSE_NO":"１０號之１","E_COORD97":164858,"N_COORD97":2544582.5800000001,"ADDRESS":"安平路６０６巷５３弄１０號之１","OBJECTID":53748},"geometry":{"x":164858,"y":2544582.5800000001}},{"attributes":{"ID":53749,"DIS_CODE":0,"TOWNNAME":"安平區","LI":"平安里","LIN":"11鄰","STREET":"安平路","SECT":" ","MAREA":" ","LANE":"５００巷","ALLEY":"１７弄","HOUSE_NO":"１號","E_COORD97":165129.92999999999,"N_COORD97":2544387.1899999999,"ADDRESS":"安平路５００巷１７弄１號","OBJECTID":53749},"geometry":{"x":165129.93000000156,"y":2544387.1899999995}},{"attributes":{"ID":53750,"DIS_CODE":0,"TOWNNAME":"下營區","LI":"後街里","LIN":"1鄰","STREET":"中正北路","SECT":" ","MAREA":" ","LANE":"２８６巷","ALLEY":"１１弄","HOUSE_NO":"２號","E_COORD97":174413.06,"N_COORD97":2571069.3500000001,"ADDRESS":"中正北路２８６巷１１弄２號","OBJECTID":53750},"geometry":{"x":174413.05999999959,"y":2571069.3499999996}},{"attributes":{"ID":53751,"DIS_CODE":0,"TOWNNAME":"下營區","LI":"後街里","LIN":"1鄰","STREET":"中正北路","SECT":" ","MAREA":" ","LANE":"２８６巷","ALLEY":"１１弄","HOUSE_NO":"３號","E_COORD97":174398.95999999999,"N_COORD97":2571089.73,"ADDRESS":"中正北路２８６巷１１弄３號","OBJECTID":53751},"geometry":{"x":174398.95999999996,"y":2571089.7300000023}},{"attributes":{"ID":53752,"DIS_CODE":0,"TOWNNAME":"下營區","LI":"後街里","LIN":"1鄰","STREET":"中正北路","SECT":" ","MAREA":" ","LANE":"２８６巷","ALLEY":"１１弄","HOUSE_NO":"５號","E_COORD97":174404.48999999999,"N_COORD97":2571090.21,"ADDRESS":"中正北路２８６巷１１弄５號","OBJECTID":53752},"geometry":{"x":174404.49000000209,"y":2571090.2100000028}},{"attributes":{"ID":53753,"DIS_CODE":0,"TOWNNAME":"楠西區","LI":"東勢里","LIN":" ","STREET":"水庫路","SECT":" ","MAREA":" ","LANE":" ","ALLEY":" ","HOUSE_NO":"７７號","E_COORD97":197867.82000000001,"N_COORD97":2564460.25,"ADDRESS":"水庫路７７號","OBJECTID":53753},"geometry":{"x":197867.82000000123,"y":2564460.2500000019}},{"attributes":{"ID":53754,"DIS_CODE":0,"TOWNNAME":"楠西區","LI":"東勢里","LIN":" ","STREET":"茄拔路","SECT":" ","MAREA":" ","LANE":" ","ALLEY":" ","HOUSE_NO":"２３號","E_COORD97":197103.79000000001,"N_COORD97":2563808.2799999998,"ADDRESS":"茄拔路２３號","OBJECTID":53754},"geometry":{"x":197103.79000000004,"y":2563808.2800000012}},{"attributes":{"ID":53755,"DIS_CODE":0,"TOWNNAME":"楠西區","LI":"東勢里","LIN":" ","STREET":"水庫路","SECT":" ","MAREA":" ","LANE":" ","ALLEY":" ","HOUSE_NO":"９１號","E_COORD97":197814.82000000001,"N_COORD97":2564473.25,"ADDRESS":"水庫路９１號","OBJECTID":53755},"geometry":{"x":197814.82000000123,"y":2564473.2500000037}},{"attributes":{"ID":53756,"DIS_CODE":0,"TOWNNAME":"楠西區","LI":"東勢里","LIN":" ","STREET":"水庫路","SECT":" ","MAREA":" ","LANE":" ","ALLEY":" ","HOUSE_NO":"６９號","E_COORD97":197880.32000000001,"N_COORD97":2564458.25,"ADDRESS":"水庫路６９號","OBJECTID":53756},"geometry":{"x":197880.3200000003,"y":2564458.25}},{"attributes":{"ID":53757,"DIS_CODE":0,"TOWNNAME":"楠西區","LI":"東勢里","LIN":" ","STREET":"水庫路","SECT":" ","MAREA":" ","LANE":" ","ALLEY":" ","HOUSE_NO":"２４４號","E_COORD97":197720.76999999999,"N_COORD97":2564157.25,"ADDRESS":"水庫路２４４號","OBJECTID":53757},"geometry":{"x":197720.76999999862,"y":2564157.25}},{"attributes":{"ID":53758,"DIS_CODE":0,"TOWNNAME":"中西區","LI":"藥王里","LIN":"1鄰","STREET":" ","SECT":" ","MAREA":"協進市場","LANE":" ","ALLEY":" ","HOUSE_NO":"５９號","E_COORD97":167455.76999999999,"N_COORD97":2544396.46,"ADDRESS":"協進市場５９號","OBJECTID":53758},"geometry":{"x":167455.77000000048,"y":2544396.4600000028}},{"attributes":{"ID":53759,"DIS_CODE":0,"TOWNNAME":"中西區","LI":"藥王里","LIN":"1鄰","STREET":" ","SECT":" ","MAREA":"協進市場","LANE":" ","ALLEY":" ","HOUSE_NO":"６０號","E_COORD97":167454.06,"N_COORD97":2544397.21,"ADDRESS":"協進市場６０號","OBJECTID":53759},"geometry":{"x":167454.05999999959,"y":2544397.2100000028}},{"attributes":{"ID":53760,"DIS_CODE":0,"TOWNNAME":"中西區","LI":"藥王里","LIN":"1鄰","STREET":" ","SECT":" ","MAREA":"協進市場","LANE":" ","ALLEY":" ","HOUSE_NO":"６１號","E_COORD97":167451.45000000001,"N_COORD97":2544396.2400000002,"ADDRESS":"協進市場６１號","OBJECTID":53760},"geometry":{"x":167451.45000000112,"y":2544396.2400000021}},{"attributes":{"ID":53761,"DIS_CODE":0,"TOWNNAME":"中西區","LI":"藥王里","LIN":"1鄰","STREET":" ","SECT":" ","MAREA":"協進市場","LANE":" ","ALLEY":" ","HOUSE_NO":"６２號","E_COORD97":167449.06,"N_COORD97":2544396.98,"ADDRESS":"協進市場６２號","OBJECTID":53761},"geometry":{"x":167449.05999999959,"y":2544396.9800000004}},{"attributes":{"ID":53762,"DIS_CODE":0,"TOWNNAME":"中西區","LI":"藥王里","LIN":"1鄰","STREET":" ","SECT":" ","MAREA":"協進市場","LANE":" ","ALLEY":" ","HOUSE_NO":"６３號","E_COORD97":167446.07999999999,"N_COORD97":2544396.3100000001,"ADDRESS":"協進市場６３號","OBJECTID":53762},"geometry":{"x":167446.08000000007,"y":2544396.3100000024}},{"attributes":{"ID":53763,"DIS_CODE":0,"TOWNNAME":"中西區","LI":"藥王里","LIN":"1鄰","STREET":" ","SECT":" ","MAREA":"協進市場","LANE":" ","ALLEY":" ","HOUSE_NO":"６４號","E_COORD97":167442.95000000001,"N_COORD97":2544396.6800000002,"ADDRESS":"協進市場６４號","OBJECTID":53763},"geometry":{"x":167442.95000000112,"y":2544396.6800000016}},{"attributes":{"ID":53764,"DIS_CODE":0,"TOWNNAME":"下營區","LI":"後街里","LIN":"1鄰","STREET":"中正北路","SECT":" ","MAREA":" ","LANE":"２８６巷","ALLEY":"１１弄","HOUSE_NO":"７號","E_COORD97":174412.14000000001,"N_COORD97":2571089.9500000002,"ADDRESS":"中正北路２８６巷１１弄７號","OBJECTID":53764},"geometry":{"x":174412.1400000006,"y":2571089.9500000011}},{"attributes":{"ID":53765,"DIS_CODE":0,"TOWNNAME":"安南區","LI":"學東里","LIN":"8鄰","STREET":"公學路","SECT":"六段","MAREA":" ","LANE":" ","ALLEY":" ","HOUSE_NO":"４９４號","E_COORD97":162643.32999999999,"N_COORD97":2553218.6800000002,"ADDRESS":"公學路六段４９４號","OBJECTID":53765},"geometry":{"x":162643.33000000007,"y":2553218.6800000016}},{"attributes":{"ID":53766,"DIS_CODE":0,"TOWNNAME":"安南區","LI":"頂安里","LIN":"8鄰","STREET":"頂安街","SECT":" ","MAREA":" ","LANE":" ","ALLEY":" ","HOUSE_NO":"５３０號","E_COORD97":168627.84,"N_COORD97":2549301.1899999999,"ADDRESS":"頂安街５３０號","OBJECTID":53766},"geometry":{"x":168627.84000000171,"y":2549301.1900000032}},{"attributes":{"ID":53767,"DIS_CODE":0,"TOWNNAME":"安南區","LI":"頂安里","LIN":"8鄰","STREET":"頂安街","SECT":" ","MAREA":" ","LANE":" ","ALLEY":" ","HOUSE_NO":"５３２號","E_COORD97":168623.42999999999,"N_COORD97":2549300.8199999998,"ADDRESS":"頂安街５３２號","OBJECTID":53767},"geometry":{"x":168623.4299999997,"y":2549300.8200000003}},{"attributes":{"ID":53768,"DIS_CODE":0,"TOWNNAME":"安南區","LI":"頂安里","LIN":"8鄰","STREET":"頂安街","SECT":" ","MAREA":" ","LANE":" ","ALLEY":" ","HOUSE_NO":"５３４號","E_COORD97":168619.75,"N_COORD97":2549300.8199999998,"ADDRESS":"頂安街５３４號","OBJECTID":53768},"geometry":{"x":168619.75,"y":2549300.8200000003}},{"attributes":{"ID":53769,"DIS_CODE":0,"TOWNNAME":"中西區","LI":"藥王里","LIN":"1鄰","STREET":" ","SECT":" ","MAREA":"協進市場","LANE":" ","ALLEY":" ","HOUSE_NO":"６５號","E_COORD97":167439.75,"N_COORD97":2544396.7599999998,"ADDRESS":"協進市場６５號","OBJECTID":53769},"geometry":{"x":167439.75,"y":2544396.7600000016}},{"attributes":{"ID":53770,"DIS_CODE":0,"TOWNNAME":"安南區","LI":"頂安里","LIN":"8鄰","STREET":"頂安街","SECT":" ","MAREA":" ","LANE":" ","ALLEY":" ","HOUSE_NO":"５３６號","E_COORD97":168615.70000000001,"N_COORD97":2549301.1899999999,"ADDRESS":"頂安街５３６號","OBJECTID":53770},"geometry":{"x":168615.70000000205,"y":2549301.1900000032}},{"attributes":{"ID":53771,"DIS_CODE":0,"TOWNNAME":"安南區","LI":"頂安里","LIN":"8鄰","STREET":"頂安街","SECT":" ","MAREA":" ","LANE":" ","ALLEY":" ","HOUSE_NO":"５３８號","E_COORD97":168611.64999999999,"N_COORD97":2549300.0899999999,"ADDRESS":"頂安街５３８號","OBJECTID":53771},"geometry":{"x":168611.6500000013,"y":2549300.0900000017}},{"attributes":{"ID":53772,"DIS_CODE":0,"TOWNNAME":"安南區","LI":"頂安里","LIN":"8鄰","STREET":"頂安街","SECT":" ","MAREA":" ","LANE":" ","ALLEY":" ","HOUSE_NO":"５４０號","E_COORD97":168607.97,"N_COORD97":2549299.7200000002,"ADDRESS":"頂安街５４０號","OBJECTID":53772},"geometry":{"x":168607.96999999974,"y":2549299.7200000025}},{"attributes":{"ID":53773,"DIS_CODE":0,"TOWNNAME":"安南區","LI":"安東里","LIN":"8鄰","STREET":"安和路","SECT":"一段","MAREA":" ","LANE":" ","ALLEY":" ","HOUSE_NO":"２４２號","E_COORD97":169327.34,"N_COORD97":2547963.1000000001,"ADDRESS":"安和路一段２４２號","OBJECTID":53773},"geometry":{"x":169327.33999999985,"y":2547963.1000000015}},{"attributes":{"ID":53774,"DIS_CODE":0,"TOWNNAME":"中西區","LI":"藥王里","LIN":"1鄰","STREET":" ","SECT":" ","MAREA":"協進市場","LANE":" ","ALLEY":" ","HOUSE_NO":"６６號","E_COORD97":167436.48999999999,"N_COORD97":2544395.9700000002,"ADDRESS":"協進市場６６號","OBJECTID":53774},"geometry":{"x":167436.49000000022,"y":2544395.9700000025}},{"attributes":{"ID":53775,"DIS_CODE":0,"TOWNNAME":"中西區","LI":"藥王里","LIN":"1鄰","STREET":" ","SECT":" ","MAREA":"協進市場","LANE":" ","ALLEY":" ","HOUSE_NO":"６７號","E_COORD97":167432.29000000001,"N_COORD97":2544395.4900000002,"ADDRESS":"協進市場６７號","OBJECTID":53775},"geometry":{"x":167432.29000000097,"y":2544395.4900000021}},{"attributes":{"ID":53776,"DIS_CODE":0,"TOWNNAME":"中西區","LI":"藥王里","LIN":"1鄰","STREET":" ","SECT":" ","MAREA":"協進市場","LANE":" ","ALLEY":" ","HOUSE_NO":"６８號","E_COORD97":167429.45999999999,"N_COORD97":2544395.7200000002,"ADDRESS":"協進市場６８號","OBJECTID":53776},"geometry":{"x":167429.46000000089,"y":2544395.7200000007}},{"attributes":{"ID":53777,"DIS_CODE":0,"TOWNNAME":"中西區","LI":"藥王里","LIN":"1鄰","STREET":" ","SECT":" ","MAREA":"協進市場","LANE":" ","ALLEY":" ","HOUSE_NO":"６９號","E_COORD97":167426.26000000001,"N_COORD97":2544395.3399999999,"ADDRESS":"協進市場６９號","OBJECTID":53777},"geometry":{"x":167426.25999999978,"y":2544395.3400000017}},{"attributes":{"ID":53778,"DIS_CODE":0,"TOWNNAME":"中西區","LI":"藥王里","LIN":"1鄰","STREET":" ","SECT":" ","MAREA":"協進市場","LANE":" ","ALLEY":" ","HOUSE_NO":"７０號","E_COORD97":167425.95999999999,"N_COORD97":2544398.0299999998,"ADDRESS":"協進市場７０號","OBJECTID":53778},"geometry":{"x":167425.96000000089,"y":2544398.0299999993}},{"attributes":{"ID":53779,"DIS_CODE":0,"TOWNNAME":"中西區","LI":"藥王里","LIN":"1鄰","STREET":" ","SECT":" ","MAREA":"協進市場","LANE":" ","ALLEY":" ","HOUSE_NO":"７１號","E_COORD97":167429.45999999999,"N_COORD97":2544398.1699999999,"ADDRESS":"協進市場７１號","OBJECTID":53779},"geometry":{"x":167429.46000000089,"y":2544398.1699999999}},{"attributes":{"ID":53780,"DIS_CODE":0,"TOWNNAME":"中西區","LI":"藥王里","LIN":"1鄰","STREET":" ","SECT":" ","MAREA":"協進市場","LANE":" ","ALLEY":" ","HOUSE_NO":"７２號","E_COORD97":167432.51999999999,"N_COORD97":2544398.25,"ADDRESS":"協進市場７２號","OBJECTID":53780},"geometry":{"x":167432.51999999955,"y":2544398.25}},{"attributes":{"ID":53781,"DIS_CODE":0,"TOWNNAME":"下營區","LI":"後街里","LIN":"1鄰","STREET":"中正北路","SECT":" ","MAREA":" ","LANE":"２８６巷","ALLEY":"１弄","HOUSE_NO":"１１號","E_COORD97":174345.98000000001,"N_COORD97":2571147.1600000001,"ADDRESS":"中正北路２８６巷１弄１１號","OBJECTID":53781},"geometry":{"x":174345.98000000138,"y":2571147.160000002}},{"attributes":{"ID":53782,"DIS_CODE":0,"TOWNNAME":"下營區","LI":"後街里","LIN":"1鄰","STREET":"中正北路","SECT":" ","MAREA":" ","LANE":"２８６巷","ALLEY":"１弄","HOUSE_NO":"２０號","E_COORD97":174340.42999999999,"N_COORD97":2571115.9300000002,"ADDRESS":"中正北路２８６巷１弄２０號","OBJECTID":53782},"geometry":{"x":174340.43000000063,"y":2571115.9299999997}},{"attributes":{"ID":53783,"DIS_CODE":0,"TOWNNAME":"下營區","LI":"後街里","LIN":"1鄰","STREET":"中正北路","SECT":" ","MAREA":" ","LANE":"２８６巷","ALLEY":"１弄","HOUSE_NO":"５０號","E_COORD97":174353.78,"N_COORD97":2571178.9500000002,"ADDRESS":"中正北路２８６巷１弄５０號","OBJECTID":53783},"geometry":{"x":174353.78000000119,"y":2571178.9500000011}},{"attributes":{"ID":53784,"DIS_CODE":0,"TOWNNAME":"中西區","LI":"藥王里","LIN":"1鄰","STREET":" ","SECT":" ","MAREA":"協進市場","LANE":" ","ALLEY":" ","HOUSE_NO":"７３號","E_COORD97":167436.09,"N_COORD97":2544398.3999999999,"ADDRESS":"協進市場７３號","OBJECTID":53784},"geometry":{"x":167436.09000000171,"y":2544398.4000000041}},{"attributes":{"ID":53785,"DIS_CODE":0,"TOWNNAME":"中西區","LI":"藥王里","LIN":"1鄰","STREET":" ","SECT":" ","MAREA":"協進市場","LANE":" ","ALLEY":" ","HOUSE_NO":"７４號","E_COORD97":167439.22,"N_COORD97":2544398.6200000001,"ADDRESS":"協進市場７４號","OBJECTID":53785},"geometry":{"x":167439.22000000067,"y":2544398.6200000029}},{"attributes":{"ID":53786,"DIS_CODE":0,"TOWNNAME":"下營區","LI":"後街里","LIN":"1鄰","STREET":"中正北路","SECT":" ","MAREA":" ","LANE":"２８６巷","ALLEY":"１弄","HOUSE_NO":"５２號","E_COORD97":174341.14000000001,"N_COORD97":2571191.7200000002,"ADDRESS":"中正北路２８６巷１弄５２號","OBJECTID":53786},"geometry":{"x":174341.13999999966,"y":2571191.7200000025}},{"attributes":{"ID":53787,"DIS_CODE":0,"TOWNNAME":"下營區","LI":"後街里","LIN":"1鄰","STREET":"中正北路","SECT":" ","MAREA":" ","LANE":"２８６巷","ALLEY":"１弄","HOUSE_NO":"８號","E_COORD97":174354.45000000001,"N_COORD97":2571081.6499999999,"ADDRESS":"中正北路２８６巷１弄８號","OBJECTID":53787},"geometry":{"x":174354.45000000112,"y":2571081.6500000004}},{"attributes":{"ID":53788,"DIS_CODE":0,"TOWNNAME":"下營區","LI":"後街里","LIN":"1鄰","STREET":"中正北路","SECT":" ","MAREA":" ","LANE":"２８６巷","ALLEY":"９弄","HOUSE_NO":"２６號","E_COORD97":174380.79999999999,"N_COORD97":2571111.3599999999,"ADDRESS":"中正北路２８６巷９弄２６號","OBJECTID":53788},"geometry":{"x":174380.79999999981,"y":2571111.3600000013}},{"attributes":{"ID":53789,"DIS_CODE":0,"TOWNNAME":"中西區","LI":"藥王里","LIN":"1鄰","STREET":" ","SECT":" ","MAREA":"協進市場","LANE":" ","ALLEY":" ","HOUSE_NO":"７５號","E_COORD97":167442.20999999999,"N_COORD97":2544398.77,"ADDRESS":"協進市場７５號","OBJECTID":53789},"geometry":{"x":167442.21000000183,"y":2544398.7700000014}},{"attributes":{"ID":53790,"DIS_CODE":0,"TOWNNAME":"下營區","LI":"後街里","LIN":"1鄰","STREET":"中正北路","SECT":" ","MAREA":" ","LANE":"２８６巷","ALLEY":"９弄","HOUSE_NO":"２號","E_COORD97":174381.54000000001,"N_COORD97":2571065.4500000002,"ADDRESS":"中正北路２８６巷９弄２號","OBJECTID":53790},"geometry":{"x":174381.54000000004,"y":2571065.450000003}},{"attributes":{"ID":53791,"DIS_CODE":0,"TOWNNAME":"下營區","LI":"後街里","LIN":"1鄰","STREET":"中正北路","SECT":" ","MAREA":" ","LANE":"３６０巷","ALLEY":"１９弄","HOUSE_NO":"２３號","E_COORD97":174393.04999999999,"N_COORD97":2571324,"ADDRESS":"中正北路３６０巷１９弄２３號","OBJECTID":53791},"geometry":{"x":174393.04999999981,"y":2571324.0000000019}},{"attributes":{"ID":53792,"DIS_CODE":0,"TOWNNAME":"永康區","LI":"建國里","LIN":"1鄰","STREET":"大灣路","SECT":" ","MAREA":" ","LANE":"９４２巷","ALLEY":"３７１弄","HOUSE_NO":"１０１號","E_COORD97":173063.78,"N_COORD97":2545440.4300000002,"ADDRESS":"大灣路９４２巷３７１弄１０１號","OBJECTID":53792},"geometry":{"x":173063.78000000119,"y":2545440.4299999997}},{"attributes":{"ID":53793,"DIS_CODE":0,"TOWNNAME":"中西區","LI":"藥王里","LIN":"1鄰","STREET":" ","SECT":" ","MAREA":"協進市場","LANE":" ","ALLEY":" ","HOUSE_NO":"７６號","E_COORD97":167445.41,"N_COORD97":2544398.77,"ADDRESS":"協進市場７６號","OBJECTID":53793},"geometry":{"x":167445.41000000015,"y":2544398.7700000014}},{"attributes":{"ID":53794,"DIS_CODE":0,"TOWNNAME":"中西區","LI":"藥王里","LIN":"1鄰","STREET":" ","SECT":" ","MAREA":"協進市場","LANE":" ","ALLEY":" ","HOUSE_NO":"７７號","E_COORD97":167449.44,"N_COORD97":2544398.9900000002,"ADDRESS":"協進市場７７號","OBJECTID":53794},"geometry":{"x":167449.44000000041,"y":2544398.9900000021}},{"attributes":{"ID":53795,"DIS_CODE":0,"TOWNNAME":"永康區","LI":"正強里","LIN":"1鄰","STREET":"中正路","SECT":" ","MAREA":" ","LANE":"１巷","ALLEY":"７弄","HOUSE_NO":"２號","E_COORD97":173715.87,"N_COORD97":2547637.9900000002,"ADDRESS":"中正路１巷７弄２號","OBJECTID":53795},"geometry":{"x":173715.87000000104,"y":2547637.9900000002}},{"attributes":{"ID":53796,"DIS_CODE":0,"TOWNNAME":"永康區","LI":"正強里","LIN":"1鄰","STREET":"中正路","SECT":" ","MAREA":" ","LANE":"１巷","ALLEY":"７弄","HOUSE_NO":"１號","E_COORD97":173714.57000000001,"N_COORD97":2547642.4900000002,"ADDRESS":"中正路１巷７弄１號","OBJECTID":53796},"geometry":{"x":173714.57000000123,"y":2547642.4900000021}},{"attributes":{"ID":53797,"DIS_CODE":0,"TOWNNAME":"永康區","LI":"正強里","LIN":"1鄰","STREET":"中正路","SECT":" ","MAREA":" ","LANE":"１巷","ALLEY":"１弄","HOUSE_NO":"６號","E_COORD97":173740.01999999999,"N_COORD97":2547625.4900000002,"ADDRESS":"中正路１巷１弄６號","OBJECTID":53797},"geometry":{"x":173740.01999999955,"y":2547625.4900000021}},{"attributes":{"ID":53798,"DIS_CODE":0,"TOWNNAME":"永康區","LI":"正強里","LIN":"1鄰","STREET":"中正路","SECT":" ","MAREA":" ","LANE":"１巷","ALLEY":"１弄","HOUSE_NO":"２號","E_COORD97":173733.32000000001,"N_COORD97":2547644.2400000002,"ADDRESS":"中正路１巷１弄２號","OBJECTID":53798},"geometry":{"x":173733.32000000123,"y":2547644.2400000021}},{"attributes":{"ID":53799,"DIS_CODE":0,"TOWNNAME":"永康區","LI":"正強里","LIN":"1鄰","STREET":"中正路","SECT":" ","MAREA":" ","LANE":"１巷","ALLEY":"７弄","HOUSE_NO":"３號","E_COORD97":173717.17999999999,"N_COORD97":2547633.4900000002,"ADDRESS":"中正路１巷７弄３號","OBJECTID":53799},"geometry":{"x":173717.1799999997,"y":2547633.4900000021}},{"attributes":{"ID":53800,"DIS_CODE":0,"TOWNNAME":"安南區","LI":"海東里","LIN":"1鄰","STREET":"海中街","SECT":" ","MAREA":" ","LANE":"１３０巷","ALLEY":"１００弄","HOUSE_NO":"１６之１號","E_COORD97":166618.64999999999,"N_COORD97":2549239.8599999999,"ADDRESS":"海中街１３０巷１００弄１６之１號","OBJECTID":53800},"geometry":{"x":166618.65000000037,"y":2549239.8600000013}}]}