{"displayFieldName":"TOWNNAME","fieldAliases":{"ID":"ID","DIS_CODE":"DIS_CODE","TOWNNAME":"TOWNNAME","LI":"LI","LIN":"LIN","STREET":"STREET","SECT":"SECT","MAREA":"MAREA","LANE":"LANE","ALLEY":"ALLEY","HOUSE_NO":"HOUSE_NO","E_COORD97":"E_COORD97","N_COORD97":"N_COORD97","ADDRESS":"ADDRESS","OBJECTID":"OBJECTID"},"geometryType":"esriGeometryPoint","spatialReference":{"wkid":102443,"latestWkid":3826},"fields":[{"name":"ID","type":"esriFieldTypeDouble","alias":"ID"},{"name":"DIS_CODE","type":"esriFieldTypeInteger","alias":"DIS_CODE"},{"name":"TOWNNAME","type":"esriFieldTypeString","alias":"TOWNNAME","length":8},{"name":"LI","type":"esriFieldTypeString","alias":"LI","length":8},{"name":"LIN","type":"esriFieldTypeString","alias":"LIN","length":12},{"name":"STREET","type":"esriFieldTypeString","alias":"STREET","length":20},{"name":"SECT","type":"esriFieldTypeString","alias":"SECT","length":8},{"name":"MAREA","type":"esriFieldTypeString","alias":"MAREA","length":12},{"name":"LANE","type":"esriFieldTypeString","alias":"LANE","length":10},{"name":"ALLEY","type":"esriFieldTypeString","alias":"ALLEY","length":10},{"name":"HOUSE_NO","type":"esriFieldTypeString","alias":"HOUSE_NO","length":20},{"name":"E_COORD97","type":"esriFieldTypeDouble","alias":"E_COORD97"},{"name":"N_COORD97","type":"esriFieldTypeDouble","alias":"N_COORD97"},{"name":"ADDRESS","type":"esriFieldTypeString","alias":"ADDRESS","length":50},{"name":"OBJECTID","type":"esriFieldTypeOID","alias":"OBJECTID"}],"features":[{"attributes":{"ID":255205,"DIS_CODE":0,"TOWNNAME":"永康區","LI":"五王里","LIN":"31鄰","STREET":"五福街","SECT":" ","MAREA":" ","LANE":"９巷","ALLEY":" ","HOUSE_NO":"１０號","E_COORD97":171272.16,"N_COORD97":2545898,"ADDRESS":"五福街９巷１０號","OBJECTID":255201},"geometry":{"x":171272.16000000201,"y":2545898}},{"attributes":{"ID":255206,"DIS_CODE":0,"TOWNNAME":"永康區","LI":"五王里","LIN":"19鄰","STREET":"成功路","SECT":" ","MAREA":" ","LANE":"１７２巷","ALLEY":" ","HOUSE_NO":"２９號","E_COORD97":171501.73999999999,"N_COORD97":2545674.7599999998,"ADDRESS":"成功路１７２巷２９號","OBJECTID":255202},"geometry":{"x":171501.74000000022,"y":2545674.7600000016}},{"attributes":{"ID":255207,"DIS_CODE":0,"TOWNNAME":"永康區","LI":"三合里","LIN":"21鄰","STREET":"南工街","SECT":" ","MAREA":" ","LANE":"２８９巷","ALLEY":" ","HOUSE_NO":"８號","E_COORD97":171872.67000000001,"N_COORD97":2546035,"ADDRESS":"南工街２８９巷８號","OBJECTID":255203},"geometry":{"x":171872.67000000086,"y":2546035.0000000037}},{"attributes":{"ID":255208,"DIS_CODE":0,"TOWNNAME":"永康區","LI":"大橋里","LIN":"9鄰","STREET":"大橋一街","SECT":" ","MAREA":" ","LANE":"２４７巷","ALLEY":" ","HOUSE_NO":"１２６號","E_COORD97":171081.01999999999,"N_COORD97":2547025.3799999999,"ADDRESS":"大橋一街２４７巷１２６號","OBJECTID":255204},"geometry":{"x":171081.02000000142,"y":2547025.3800000008}},{"attributes":{"ID":255209,"DIS_CODE":0,"TOWNNAME":"永康區","LI":"三合里","LIN":"22鄰","STREET":"南工街","SECT":" ","MAREA":" ","LANE":"３１１巷","ALLEY":" ","HOUSE_NO":"２７號","E_COORD97":171827.76000000001,"N_COORD97":2545971.2400000002,"ADDRESS":"南工街３１１巷２７號","OBJECTID":255205},"geometry":{"x":171827.76000000071,"y":2545971.2400000002}},{"attributes":{"ID":255210,"DIS_CODE":0,"TOWNNAME":"永康區","LI":"五王里","LIN":"18鄰","STREET":"成功路","SECT":" ","MAREA":" ","LANE":"１７２巷","ALLEY":" ","HOUSE_NO":"４７號","E_COORD97":171545.31,"N_COORD97":2545694.52,"ADDRESS":"成功路１７２巷４７號","OBJECTID":255206},"geometry":{"x":171545.31000000145,"y":2545694.5199999996}},{"attributes":{"ID":255211,"DIS_CODE":0,"TOWNNAME":"永康區","LI":"三合里","LIN":"20鄰","STREET":"南工街","SECT":" ","MAREA":" ","LANE":"２６９巷","ALLEY":" ","HOUSE_NO":"４號","E_COORD97":171857.94,"N_COORD97":2545974.9900000002,"ADDRESS":"南工街２６９巷４號","OBJECTID":255207},"geometry":{"x":171857.94000000134,"y":2545974.9900000021}},{"attributes":{"ID":255212,"DIS_CODE":0,"TOWNNAME":"永康區","LI":"五王里","LIN":"42鄰","STREET":"中山東路","SECT":" ","MAREA":" ","LANE":"２０巷","ALLEY":" ","HOUSE_NO":"３號","E_COORD97":171648.45000000001,"N_COORD97":2546108.5,"ADDRESS":"中山東路２０巷３號","OBJECTID":255208},"geometry":{"x":171648.45000000112,"y":2546108.5}},{"attributes":{"ID":255213,"DIS_CODE":0,"TOWNNAME":"永康區","LI":"中興里","LIN":"24鄰","STREET":"中華路","SECT":" ","MAREA":" ","LANE":"２１６巷","ALLEY":" ","HOUSE_NO":"１８號","E_COORD97":171795.48000000001,"N_COORD97":2545141.3399999999,"ADDRESS":"中華路２１６巷１８號","OBJECTID":255209},"geometry":{"x":171795.48000000045,"y":2545141.3400000017}},{"attributes":{"ID":255214,"DIS_CODE":0,"TOWNNAME":"永康區","LI":"崑山里","LIN":"24鄰","STREET":"大仁街","SECT":" ","MAREA":" ","LANE":" ","ALLEY":" ","HOUSE_NO":"４０號","E_COORD97":173814.44,"N_COORD97":2544653.8700000001,"ADDRESS":"大仁街４０號","OBJECTID":255210},"geometry":{"x":173814.44000000041,"y":2544653.8700000029}},{"attributes":{"ID":255215,"DIS_CODE":0,"TOWNNAME":"永康區","LI":"\u25A0行里","LIN":"24鄰","STREET":"中正南路","SECT":" ","MAREA":" ","LANE":" ","ALLEY":" ","HOUSE_NO":"６４０號之２","E_COORD97":171512.28,"N_COORD97":2548753.04,"ADDRESS":"中正南路６４０號之２","OBJECTID":255211},"geometry":{"x":171512.28000000212,"y":2548753.040000001}},{"attributes":{"ID":255216,"DIS_CODE":0,"TOWNNAME":"永康區","LI":"中華里","LIN":"24鄰","STREET":"華興街","SECT":" ","MAREA":" ","LANE":" ","ALLEY":" ","HOUSE_NO":"１３４號","E_COORD97":171755.31,"N_COORD97":2544581.8500000001,"ADDRESS":"華興街１３４號","OBJECTID":255212},"geometry":{"x":171755.30999999866,"y":2544581.8500000015}},{"attributes":{"ID":255217,"DIS_CODE":0,"TOWNNAME":"佳里區","LI":"六安里","LIN":"24鄰","STREET":"延平路","SECT":" ","MAREA":" ","LANE":" ","ALLEY":" ","HOUSE_NO":"４４１號","E_COORD97":165845.91,"N_COORD97":2562929.04,"ADDRESS":"延平路４４１號","OBJECTID":255213},"geometry":{"x":165845.91000000201,"y":2562929.040000001}},{"attributes":{"ID":255218,"DIS_CODE":0,"TOWNNAME":"佳里區","LI":"六安里","LIN":"24鄰","STREET":"延平路","SECT":" ","MAREA":" ","LANE":" ","ALLEY":" ","HOUSE_NO":"４４３號","E_COORD97":165847.28,"N_COORD97":2562932.3700000001,"ADDRESS":"延平路４４３號","OBJECTID":255214},"geometry":{"x":165847.28000000119,"y":2562932.3700000029}},{"attributes":{"ID":255219,"DIS_CODE":0,"TOWNNAME":"佳里區","LI":"六安里","LIN":"24鄰","STREET":"延平路","SECT":" ","MAREA":" ","LANE":" ","ALLEY":" ","HOUSE_NO":"４４５號","E_COORD97":165848.89000000001,"N_COORD97":2562935.6600000001,"ADDRESS":"延平路４４５號","OBJECTID":255215},"geometry":{"x":165848.89000000153,"y":2562935.660000002}},{"attributes":{"ID":255220,"DIS_CODE":0,"TOWNNAME":"佳里區","LI":"六安里","LIN":"24鄰","STREET":"延平路","SECT":" ","MAREA":" ","LANE":" ","ALLEY":" ","HOUSE_NO":"４５１號","E_COORD97":165854.20999999999,"N_COORD97":2562948.0099999998,"ADDRESS":"延平路４５１號","OBJECTID":255216},"geometry":{"x":165854.21000000089,"y":2562948.0099999998}},{"attributes":{"ID":255221,"DIS_CODE":0,"TOWNNAME":"佳里區","LI":"六安里","LIN":"24鄰","STREET":"延平路","SECT":" ","MAREA":" ","LANE":" ","ALLEY":" ","HOUSE_NO":"４５３號","E_COORD97":165855.89999999999,"N_COORD97":2562952.1400000001,"ADDRESS":"延平路４５３號","OBJECTID":255217},"geometry":{"x":165855.90000000037,"y":2562952.1399999987}},{"attributes":{"ID":255222,"DIS_CODE":0,"TOWNNAME":"佳里區","LI":"六安里","LIN":"24鄰","STREET":"延平路","SECT":" ","MAREA":" ","LANE":" ","ALLEY":" ","HOUSE_NO":"４５５號","E_COORD97":165857.76000000001,"N_COORD97":2562956.4500000002,"ADDRESS":"延平路４５５號","OBJECTID":255218},"geometry":{"x":165857.75999999978,"y":2562956.4500000011}},{"attributes":{"ID":255223,"DIS_CODE":0,"TOWNNAME":"佳里區","LI":"六安里","LIN":"24鄰","STREET":"延平路","SECT":" ","MAREA":" ","LANE":" ","ALLEY":" ","HOUSE_NO":"４５７號","E_COORD97":165858.92999999999,"N_COORD97":2562961.04,"ADDRESS":"延平路４５７號","OBJECTID":255219},"geometry":{"x":165858.93000000156,"y":2562961.0399999991}},{"attributes":{"ID":255224,"DIS_CODE":0,"TOWNNAME":"佳里區","LI":"六安里","LIN":"24鄰","STREET":"延平路","SECT":" ","MAREA":" ","LANE":" ","ALLEY":" ","HOUSE_NO":"４６１號","E_COORD97":165861.35999999999,"N_COORD97":2562969.96,"ADDRESS":"延平路４６１號","OBJECTID":255220},"geometry":{"x":165861.36000000034,"y":2562969.9600000009}},{"attributes":{"ID":255225,"DIS_CODE":0,"TOWNNAME":"東區","LI":"崇信里","LIN":"24鄰","STREET":"崇善一街","SECT":" ","MAREA":" ","LANE":" ","ALLEY":" ","HOUSE_NO":"７８號","E_COORD97":170831.85999999999,"N_COORD97":2542290.75,"ADDRESS":"崇善一街７８號","OBJECTID":255221},"geometry":{"x":170831.8599999994,"y":2542290.7500000019}},{"attributes":{"ID":255226,"DIS_CODE":0,"TOWNNAME":"歸仁區","LI":"南保里","LIN":"27鄰","STREET":"民權北路","SECT":" ","MAREA":" ","LANE":"６１巷","ALLEY":" ","HOUSE_NO":"１８號","E_COORD97":176951.95999999999,"N_COORD97":2541034.25,"ADDRESS":"民權北路６１巷１８號","OBJECTID":255222},"geometry":{"x":176951.95999999996,"y":2541034.25}},{"attributes":{"ID":255227,"DIS_CODE":0,"TOWNNAME":"歸仁區","LI":"南保里","LIN":"27鄰","STREET":"民權六街","SECT":" ","MAREA":" ","LANE":"１９巷","ALLEY":" ","HOUSE_NO":"６號","E_COORD97":176928.31,"N_COORD97":2541077.25,"ADDRESS":"民權六街１９巷６號","OBJECTID":255223},"geometry":{"x":176928.30999999959,"y":2541077.2500000019}},{"attributes":{"ID":255228,"DIS_CODE":0,"TOWNNAME":"歸仁區","LI":"後市里","LIN":"27鄰","STREET":"民族北街","SECT":" ","MAREA":" ","LANE":"１７巷","ALLEY":" ","HOUSE_NO":"９號","E_COORD97":177383.13,"N_COORD97":2540864.75,"ADDRESS":"民族北街１７巷９號","OBJECTID":255224},"geometry":{"x":177383.12999999989,"y":2540864.75}},{"attributes":{"ID":255229,"DIS_CODE":0,"TOWNNAME":"永康區","LI":"大橋里","LIN":"3鄰","STREET":"大橋三街","SECT":" ","MAREA":" ","LANE":"１２４巷","ALLEY":" ","HOUSE_NO":"１０號","E_COORD97":170778.64999999999,"N_COORD97":2546663.7400000002,"ADDRESS":"大橋三街１２４巷１０號","OBJECTID":255225},"geometry":{"x":170778.65000000037,"y":2546663.7399999984}},{"attributes":{"ID":255230,"DIS_CODE":0,"TOWNNAME":"永康區","LI":"大灣里","LIN":"11鄰","STREET":"大灣路","SECT":" ","MAREA":" ","LANE":"２４０巷","ALLEY":" ","HOUSE_NO":"３號","E_COORD97":174950.23000000001,"N_COORD97":2545347.71,"ADDRESS":"大灣路２４０巷３號","OBJECTID":255226},"geometry":{"x":174950.23000000045,"y":2545347.7100000028}},{"attributes":{"ID":255231,"DIS_CODE":0,"TOWNNAME":"玉井區","LI":"玉田里","LIN":"27鄰","STREET":"中山路","SECT":" ","MAREA":" ","LANE":"３巷","ALLEY":" ","HOUSE_NO":"３１號","E_COORD97":194877.70999999999,"N_COORD97":2557791.2400000002,"ADDRESS":"中山路３巷３１號","OBJECTID":255227},"geometry":{"x":194877.71000000089,"y":2557791.2400000039}},{"attributes":{"ID":255232,"DIS_CODE":0,"TOWNNAME":"玉井區","LI":"玉田里","LIN":"27鄰","STREET":"中山路","SECT":" ","MAREA":" ","LANE":"３巷","ALLEY":" ","HOUSE_NO":"３６號","E_COORD97":194890.81,"N_COORD97":2557828.25,"ADDRESS":"中山路３巷３６號","OBJECTID":255228},"geometry":{"x":194890.80999999959,"y":2557828.2500000037}},{"attributes":{"ID":255233,"DIS_CODE":0,"TOWNNAME":"玉井區","LI":"玉田里","LIN":"27鄰","STREET":"中山路","SECT":" ","MAREA":" ","LANE":"３巷","ALLEY":" ","HOUSE_NO":"２６號","E_COORD97":194893.51000000001,"N_COORD97":2557799.25,"ADDRESS":"中山路３巷２６號","OBJECTID":255229},"geometry":{"x":194893.50999999885,"y":2557799.2500000019}},{"attributes":{"ID":255234,"DIS_CODE":0,"TOWNNAME":"北區","LI":"實踐里","LIN":"6鄰","STREET":"長榮路","SECT":"五段","MAREA":" ","LANE":"２９８巷","ALLEY":" ","HOUSE_NO":"３２號六樓之１","E_COORD97":169771.17000000001,"N_COORD97":2546012.3900000001,"ADDRESS":"長榮路五段２９８巷３２號六樓之１","OBJECTID":255230},"geometry":{"x":169771.16999999993,"y":2546012.3900000043}},{"attributes":{"ID":255235,"DIS_CODE":0,"TOWNNAME":"安平區","LI":"文平里","LIN":"6鄰","STREET":"建平七街","SECT":" ","MAREA":" ","LANE":" ","ALLEY":" ","HOUSE_NO":"６１號","E_COORD97":166290.60999999999,"N_COORD97":2543216.8100000001,"ADDRESS":"建平七街６１號","OBJECTID":255231},"geometry":{"x":166290.6100000022,"y":2543216.8100000024}},{"attributes":{"ID":255236,"DIS_CODE":0,"TOWNNAME":"東區","LI":"崇信里","LIN":"24鄰","STREET":"崇善一街","SECT":" ","MAREA":" ","LANE":" ","ALLEY":" ","HOUSE_NO":"７８號地下一層","E_COORD97":170831.85999999999,"N_COORD97":2542290.75,"ADDRESS":"崇善一街７８號地下一層","OBJECTID":255232},"geometry":{"x":170831.8599999994,"y":2542290.7500000019}},{"attributes":{"ID":255237,"DIS_CODE":0,"TOWNNAME":"東區","LI":"崇信里","LIN":"24鄰","STREET":"崇善一街","SECT":" ","MAREA":" ","LANE":" ","ALLEY":" ","HOUSE_NO":"７８號地下二層","E_COORD97":170831.85999999999,"N_COORD97":2542290.75,"ADDRESS":"崇善一街７８號地下二層","OBJECTID":255233},"geometry":{"x":170831.8599999994,"y":2542290.7500000019}},{"attributes":{"ID":255238,"DIS_CODE":0,"TOWNNAME":"東區","LI":"新東里","LIN":"24鄰","STREET":"裕農路","SECT":" ","MAREA":" ","LANE":" ","ALLEY":" ","HOUSE_NO":"１３號","E_COORD97":170478.25,"N_COORD97":2542835.73,"ADDRESS":"裕農路１３號","OBJECTID":255234},"geometry":{"x":170478.25000000093,"y":2542835.7300000004}},{"attributes":{"ID":255239,"DIS_CODE":0,"TOWNNAME":"東區","LI":"新東里","LIN":"24鄰","STREET":"裕農路","SECT":" ","MAREA":" ","LANE":" ","ALLEY":" ","HOUSE_NO":"１５號","E_COORD97":170482.73000000001,"N_COORD97":2542837.6699999999,"ADDRESS":"裕農路１５號","OBJECTID":255235},"geometry":{"x":170482.73000000138,"y":2542837.6700000018}},{"attributes":{"ID":255240,"DIS_CODE":0,"TOWNNAME":"東區","LI":"新東里","LIN":"24鄰","STREET":"裕農路","SECT":" ","MAREA":" ","LANE":" ","ALLEY":" ","HOUSE_NO":"１７號","E_COORD97":170487.04999999999,"N_COORD97":2542839.8999999999,"ADDRESS":"裕農路１７號","OBJECTID":255236},"geometry":{"x":170487.04999999981,"y":2542839.9000000022}},{"attributes":{"ID":255241,"DIS_CODE":0,"TOWNNAME":"東區","LI":"新東里","LIN":"24鄰","STREET":"裕農路","SECT":" ","MAREA":" ","LANE":" ","ALLEY":" ","HOUSE_NO":"２１號","E_COORD97":170496.29999999999,"N_COORD97":2542844.6699999999,"ADDRESS":"裕農路２１號","OBJECTID":255237},"geometry":{"x":170496.30000000168,"y":2542844.6700000018}},{"attributes":{"ID":255242,"DIS_CODE":0,"TOWNNAME":"東區","LI":"新東里","LIN":"24鄰","STREET":"裕農路","SECT":" ","MAREA":" ","LANE":" ","ALLEY":" ","HOUSE_NO":"２３號","E_COORD97":170500.62,"N_COORD97":2542846.3100000001,"ADDRESS":"裕農路２３號","OBJECTID":255238},"geometry":{"x":170500.62000000011,"y":2542846.3100000042}},{"attributes":{"ID":255243,"DIS_CODE":0,"TOWNNAME":"玉井區","LI":"玉田里","LIN":"27鄰","STREET":"中山路","SECT":" ","MAREA":" ","LANE":"３巷","ALLEY":" ","HOUSE_NO":"２８號","E_COORD97":194893.10000000001,"N_COORD97":2557804.25,"ADDRESS":"中山路３巷２８號","OBJECTID":255239},"geometry":{"x":194893.10000000056,"y":2557804.2499999981}},{"attributes":{"ID":255244,"DIS_CODE":0,"TOWNNAME":"玉井區","LI":"玉田里","LIN":"27鄰","STREET":"中山路","SECT":" ","MAREA":" ","LANE":"３巷","ALLEY":" ","HOUSE_NO":"３５號","E_COORD97":194875.39999999999,"N_COORD97":2557800.25,"ADDRESS":"中山路３巷３５號","OBJECTID":255240},"geometry":{"x":194875.4000000013,"y":2557800.25}},{"attributes":{"ID":255245,"DIS_CODE":0,"TOWNNAME":"玉井區","LI":"玉田里","LIN":"27鄰","STREET":"中山路","SECT":" ","MAREA":" ","LANE":"３巷","ALLEY":" ","HOUSE_NO":"３３號","E_COORD97":194876.89999999999,"N_COORD97":2557794.2400000002,"ADDRESS":"中山路３巷３３號","OBJECTID":255241},"geometry":{"x":194876.9000000013,"y":2557794.2400000002}},{"attributes":{"ID":255246,"DIS_CODE":0,"TOWNNAME":"玉井區","LI":"玉田里","LIN":"27鄰","STREET":"中山路","SECT":" ","MAREA":" ","LANE":"３巷","ALLEY":" ","HOUSE_NO":"３０號","E_COORD97":194892.60000000001,"N_COORD97":2557810.25,"ADDRESS":"中山路３巷３０號","OBJECTID":255242},"geometry":{"x":194892.59999999963,"y":2557810.25}},{"attributes":{"ID":255247,"DIS_CODE":0,"TOWNNAME":"玉井區","LI":"玉田里","LIN":"27鄰","STREET":"中山路","SECT":" ","MAREA":" ","LANE":"３巷","ALLEY":" ","HOUSE_NO":"３２號","E_COORD97":194891.89999999999,"N_COORD97":2557815.25,"ADDRESS":"中山路３巷３２號","OBJECTID":255243},"geometry":{"x":194891.9000000013,"y":2557815.2500000019}},{"attributes":{"ID":255248,"DIS_CODE":0,"TOWNNAME":"玉井區","LI":"玉田里","LIN":"27鄰","STREET":"中山路","SECT":" ","MAREA":" ","LANE":"３巷","ALLEY":" ","HOUSE_NO":"３７號","E_COORD97":194874.20999999999,"N_COORD97":2557805.25,"ADDRESS":"中山路３巷３７號","OBJECTID":255244},"geometry":{"x":194874.21000000089,"y":2557805.2500000019}},{"attributes":{"ID":255249,"DIS_CODE":0,"TOWNNAME":"歸仁區","LI":"新厝里","LIN":"27鄰","STREET":"中正五街","SECT":" ","MAREA":" ","LANE":"３９巷","ALLEY":" ","HOUSE_NO":"２號","E_COORD97":177082.17000000001,"N_COORD97":2540079.4300000002,"ADDRESS":"中正五街３９巷２號","OBJECTID":255245},"geometry":{"x":177082.16999999993,"y":2540079.4300000016}},{"attributes":{"ID":255250,"DIS_CODE":0,"TOWNNAME":"歸仁區","LI":"媽廟里","LIN":"27鄰","STREET":"保大路","SECT":"一段","MAREA":" ","LANE":"１５２巷","ALLEY":" ","HOUSE_NO":"１５號","E_COORD97":177680.48000000001,"N_COORD97":2544108.7200000002,"ADDRESS":"保大路一段１５２巷１５號","OBJECTID":255246},"geometry":{"x":177680.48000000138,"y":2544108.7200000025}},{"attributes":{"ID":255251,"DIS_CODE":0,"TOWNNAME":"歸仁區","LI":"新厝里","LIN":"27鄰","STREET":"中正南路","SECT":"一段","MAREA":" ","LANE":"４５３巷","ALLEY":" ","HOUSE_NO":"７３號","E_COORD97":177070.51000000001,"N_COORD97":2539967.25,"ADDRESS":"中正南路一段４５３巷７３號","OBJECTID":255247},"geometry":{"x":177070.51000000071,"y":2539967.25}},{"attributes":{"ID":255252,"DIS_CODE":0,"TOWNNAME":"歸仁區","LI":"媽廟里","LIN":"27鄰","STREET":"保大路","SECT":"一段","MAREA":" ","LANE":"１５２巷","ALLEY":" ","HOUSE_NO":"３１號","E_COORD97":177675.38,"N_COORD97":2544233.25,"ADDRESS":"保大路一段１５２巷３１號","OBJECTID":255248},"geometry":{"x":177675.38000000082,"y":2544233.2500000019}},{"attributes":{"ID":255253,"DIS_CODE":0,"TOWNNAME":"北區","LI":"實踐里","LIN":"6鄰","STREET":"長榮路","SECT":"五段","MAREA":" ","LANE":"２９８巷","ALLEY":" ","HOUSE_NO":"３２號六樓之２","E_COORD97":169771.17000000001,"N_COORD97":2546012.3900000001,"ADDRESS":"長榮路五段２９８巷３２號六樓之２","OBJECTID":255249},"geometry":{"x":169771.16999999993,"y":2546012.3900000043}},{"attributes":{"ID":255254,"DIS_CODE":0,"TOWNNAME":"北區","LI":"實踐里","LIN":"6鄰","STREET":"長榮路","SECT":"五段","MAREA":" ","LANE":"２９８巷","ALLEY":" ","HOUSE_NO":"３２號六樓之３","E_COORD97":169771.17000000001,"N_COORD97":2546012.3900000001,"ADDRESS":"長榮路五段２９８巷３２號六樓之３","OBJECTID":255250},"geometry":{"x":169771.16999999993,"y":2546012.3900000043}},{"attributes":{"ID":255255,"DIS_CODE":0,"TOWNNAME":"北區","LI":"實踐里","LIN":"6鄰","STREET":"長榮路","SECT":"五段","MAREA":" ","LANE":"２９８巷","ALLEY":" ","HOUSE_NO":"３２號六樓之５","E_COORD97":169771.17000000001,"N_COORD97":2546012.3900000001,"ADDRESS":"長榮路五段２９８巷３２號六樓之５","OBJECTID":255251},"geometry":{"x":169771.16999999993,"y":2546012.3900000043}},{"attributes":{"ID":255256,"DIS_CODE":0,"TOWNNAME":"北區","LI":"實踐里","LIN":"6鄰","STREET":"長榮路","SECT":"五段","MAREA":" ","LANE":"２９８巷","ALLEY":" ","HOUSE_NO":"３２號七樓之１","E_COORD97":169771.17000000001,"N_COORD97":2546012.3900000001,"ADDRESS":"長榮路五段２９８巷３２號七樓之１","OBJECTID":255252},"geometry":{"x":169771.16999999993,"y":2546012.3900000043}},{"attributes":{"ID":255257,"DIS_CODE":0,"TOWNNAME":"北區","LI":"實踐里","LIN":"6鄰","STREET":"長榮路","SECT":"五段","MAREA":" ","LANE":"２９８巷","ALLEY":" ","HOUSE_NO":"３２號七樓之２","E_COORD97":169771.17000000001,"N_COORD97":2546012.3900000001,"ADDRESS":"長榮路五段２９８巷３２號七樓之２","OBJECTID":255253},"geometry":{"x":169771.16999999993,"y":2546012.3900000043}},{"attributes":{"ID":255258,"DIS_CODE":0,"TOWNNAME":"北區","LI":"實踐里","LIN":"6鄰","STREET":"長榮路","SECT":"五段","MAREA":" ","LANE":"２９８巷","ALLEY":" ","HOUSE_NO":"３２號七樓之３","E_COORD97":169771.17000000001,"N_COORD97":2546012.3900000001,"ADDRESS":"長榮路五段２９８巷３２號七樓之３","OBJECTID":255254},"geometry":{"x":169771.16999999993,"y":2546012.3900000043}},{"attributes":{"ID":255259,"DIS_CODE":0,"TOWNNAME":"東區","LI":"新東里","LIN":"24鄰","STREET":"裕農路","SECT":" ","MAREA":" ","LANE":" ","ALLEY":" ","HOUSE_NO":"２５號","E_COORD97":170504.5,"N_COORD97":2542847.6499999999,"ADDRESS":"裕農路２５號","OBJECTID":255255},"geometry":{"x":170504.5,"y":2542847.6500000022}},{"attributes":{"ID":255260,"DIS_CODE":0,"TOWNNAME":"東區","LI":"新東里","LIN":"24鄰","STREET":"裕農路","SECT":" ","MAREA":" ","LANE":" ","ALLEY":" ","HOUSE_NO":"２７號","E_COORD97":170508.82000000001,"N_COORD97":2542849.73,"ADDRESS":"裕農路２７號","OBJECTID":255256},"geometry":{"x":170508.82000000123,"y":2542849.7300000004}},{"attributes":{"ID":255261,"DIS_CODE":0,"TOWNNAME":"東區","LI":"新東里","LIN":"24鄰","STREET":"裕農路","SECT":" ","MAREA":" ","LANE":" ","ALLEY":" ","HOUSE_NO":"２７號之１地下一層","E_COORD97":170518.48000000001,"N_COORD97":2542855.7599999998,"ADDRESS":"裕農路２７號之１地下一層","OBJECTID":255257},"geometry":{"x":170518.48000000138,"y":2542855.7599999979}},{"attributes":{"ID":255262,"DIS_CODE":0,"TOWNNAME":"安平區","LI":"文平里","LIN":"27鄰","STREET":"永華二街","SECT":" ","MAREA":" ","LANE":" ","ALLEY":" ","HOUSE_NO":"４７號","E_COORD97":166337.26000000001,"N_COORD97":2542965.4300000002,"ADDRESS":"永華二街４７號","OBJECTID":255258},"geometry":{"x":166337.26000000071,"y":2542965.4299999997}},{"attributes":{"ID":255263,"DIS_CODE":0,"TOWNNAME":"安平區","LI":"文平里","LIN":"27鄰","STREET":"永華二街","SECT":" ","MAREA":" ","LANE":" ","ALLEY":" ","HOUSE_NO":"５１號","E_COORD97":166338.03,"N_COORD97":2542974.5299999998,"ADDRESS":"永華二街５１號","OBJECTID":255259},"geometry":{"x":166338.03000000026,"y":2542974.5299999993}},{"attributes":{"ID":255264,"DIS_CODE":0,"TOWNNAME":"東區","LI":"新東里","LIN":"24鄰","STREET":"裕農路","SECT":" ","MAREA":" ","LANE":" ","ALLEY":" ","HOUSE_NO":"２７號之２","E_COORD97":170523.70000000001,"N_COORD97":2542857.2999999998,"ADDRESS":"裕農路２７號之２","OBJECTID":255260},"geometry":{"x":170523.70000000019,"y":2542857.3000000026}},{"attributes":{"ID":255265,"DIS_CODE":0,"TOWNNAME":"東區","LI":"新東里","LIN":"24鄰","STREET":"裕農路","SECT":" ","MAREA":" ","LANE":" ","ALLEY":" ","HOUSE_NO":"２７號之３","E_COORD97":170528.34,"N_COORD97":2542858.8500000001,"ADDRESS":"裕農路２７號之３","OBJECTID":255261},"geometry":{"x":170528.34000000078,"y":2542858.8500000034}},{"attributes":{"ID":255266,"DIS_CODE":0,"TOWNNAME":"東區","LI":"新東里","LIN":"24鄰","STREET":"裕農路","SECT":" ","MAREA":" ","LANE":" ","ALLEY":" ","HOUSE_NO":"２７號之４","E_COORD97":170514.42000000001,"N_COORD97":2542872.9399999999,"ADDRESS":"裕農路２７號之４","OBJECTID":255262},"geometry":{"x":170514.42000000086,"y":2542872.9400000013}},{"attributes":{"ID":255267,"DIS_CODE":0,"TOWNNAME":"東區","LI":"新東里","LIN":"24鄰","STREET":"裕農路","SECT":" ","MAREA":" ","LANE":" ","ALLEY":" ","HOUSE_NO":"２７號之５","E_COORD97":170510.94,"N_COORD97":2542881.6299999999,"ADDRESS":"裕農路２７號之５","OBJECTID":255263},"geometry":{"x":170510.94000000041,"y":2542881.629999999}},{"attributes":{"ID":255268,"DIS_CODE":0,"TOWNNAME":"東區","LI":"新東里","LIN":"24鄰","STREET":"裕農路","SECT":" ","MAREA":" ","LANE":" ","ALLEY":" ","HOUSE_NO":"２７號之６","E_COORD97":170507.66,"N_COORD97":2542890.3199999998,"ADDRESS":"裕農路２７號之６","OBJECTID":255264},"geometry":{"x":170507.66000000201,"y":2542890.3200000022}},{"attributes":{"ID":255269,"DIS_CODE":0,"TOWNNAME":"永康區","LI":"\u25A0洲里","LIN":"24鄰","STREET":"正南二街","SECT":" ","MAREA":" ","LANE":" ","ALLEY":" ","HOUSE_NO":"７２號","E_COORD97":170782.92000000001,"N_COORD97":2548346.73,"ADDRESS":"正南二街７２號","OBJECTID":255265},"geometry":{"x":170782.91999999993,"y":2548346.7300000023}},{"attributes":{"ID":255270,"DIS_CODE":0,"TOWNNAME":"麻豆區","LI":"南勢里","LIN":"27鄰","STREET":" ","SECT":" ","MAREA":"總爺","LANE":" ","ALLEY":" ","HOUSE_NO":"１０４號","E_COORD97":175242.38,"N_COORD97":2565133.7400000002,"ADDRESS":"總爺１０４號","OBJECTID":255266},"geometry":{"x":175242.38000000175,"y":2565133.7400000002}},{"attributes":{"ID":255271,"DIS_CODE":0,"TOWNNAME":"歸仁區","LI":"媽廟里","LIN":"27鄰","STREET":"保大路","SECT":"一段","MAREA":" ","LANE":"１５２巷","ALLEY":" ","HOUSE_NO":"５號","E_COORD97":177696.42999999999,"N_COORD97":2544075.7200000002,"ADDRESS":"保大路一段１５２巷５號","OBJECTID":255267},"geometry":{"x":177696.43000000156,"y":2544075.7200000025}},{"attributes":{"ID":255272,"DIS_CODE":0,"TOWNNAME":"永康區","LI":"中興里","LIN":"20鄰","STREET":"中華路","SECT":" ","MAREA":" ","LANE":"２１６巷","ALLEY":" ","HOUSE_NO":"３７號","E_COORD97":171849.59,"N_COORD97":2545161.75,"ADDRESS":"中華路２１６巷３７號","OBJECTID":255268},"geometry":{"x":171849.58999999985,"y":2545161.7500000037}},{"attributes":{"ID":255273,"DIS_CODE":0,"TOWNNAME":"永康區","LI":"五王里","LIN":"17鄰","STREET":"成功路","SECT":" ","MAREA":" ","LANE":"２０４巷","ALLEY":" ","HOUSE_NO":"３２號","E_COORD97":171468.57999999999,"N_COORD97":2545735.9399999999,"ADDRESS":"成功路２０４巷３２號","OBJECTID":255269},"geometry":{"x":171468.58000000007,"y":2545735.9399999995}},{"attributes":{"ID":255274,"DIS_CODE":0,"TOWNNAME":"永康區","LI":"\u25A0洲里","LIN":"24鄰","STREET":"國聖街","SECT":" ","MAREA":" ","LANE":" ","ALLEY":" ","HOUSE_NO":"２３３號","E_COORD97":170841.39000000001,"N_COORD97":2548456.2400000002,"ADDRESS":"國聖街２３３號","OBJECTID":255270},"geometry":{"x":170841.3900000006,"y":2548456.2400000002}},{"attributes":{"ID":255275,"DIS_CODE":0,"TOWNNAME":"永康區","LI":"\u25A0洲里","LIN":"24鄰","STREET":"正南二街","SECT":" ","MAREA":" ","LANE":" ","ALLEY":" ","HOUSE_NO":"４５號","E_COORD97":170799.95000000001,"N_COORD97":2548298.4199999999,"ADDRESS":"正南二街４５號","OBJECTID":255271},"geometry":{"x":170799.95000000019,"y":2548298.4199999999}},{"attributes":{"ID":255276,"DIS_CODE":0,"TOWNNAME":"永康區","LI":"\u25A0洲里","LIN":"24鄰","STREET":"正南二街","SECT":" ","MAREA":" ","LANE":" ","ALLEY":" ","HOUSE_NO":"３７號","E_COORD97":170828.97,"N_COORD97":2548276.9900000002,"ADDRESS":"正南二街３７號","OBJECTID":255272},"geometry":{"x":170828.9700000016,"y":2548276.9900000021}},{"attributes":{"ID":255277,"DIS_CODE":0,"TOWNNAME":"六甲區","LI":"甲東里","LIN":"27鄰","STREET":"珊瑚路","SECT":" ","MAREA":" ","LANE":"６７巷","ALLEY":" ","HOUSE_NO":"１０號","E_COORD97":183856.86193300001,"N_COORD97":2569372.0402500001,"ADDRESS":"珊瑚路６７巷１０號","OBJECTID":255273},"geometry":{"x":183856.86193300039,"y":2569372.0402540006}},{"attributes":{"ID":255278,"DIS_CODE":0,"TOWNNAME":"永康區","LI":"大橋里","LIN":"29鄰","STREET":"大橋一街","SECT":" ","MAREA":" ","LANE":"２５０巷","ALLEY":" ","HOUSE_NO":"６號","E_COORD97":171081.54999999999,"N_COORD97":2546490.9900000002,"ADDRESS":"大橋一街２５０巷６號","OBJECTID":255274},"geometry":{"x":171081.55000000075,"y":2546490.9900000021}},{"attributes":{"ID":255279,"DIS_CODE":0,"TOWNNAME":"安平區","LI":"怡平里","LIN":"27鄰","STREET":"永華六街","SECT":" ","MAREA":" ","LANE":"２５巷","ALLEY":" ","HOUSE_NO":"２６號","E_COORD97":165533.64999999999,"N_COORD97":2543607.7200000002,"ADDRESS":"永華六街２５巷２６號","OBJECTID":255275},"geometry":{"x":165533.65000000037,"y":2543607.7200000025}},{"attributes":{"ID":255280,"DIS_CODE":0,"TOWNNAME":"北區","LI":"實踐里","LIN":"6鄰","STREET":"長榮路","SECT":"五段","MAREA":" ","LANE":"２９８巷","ALLEY":" ","HOUSE_NO":"３２號七樓之５","E_COORD97":169771.17000000001,"N_COORD97":2546012.3900000001,"ADDRESS":"長榮路五段２９８巷３２號七樓之５","OBJECTID":255276},"geometry":{"x":169771.16999999993,"y":2546012.3900000043}},{"attributes":{"ID":255281,"DIS_CODE":0,"TOWNNAME":"北區","LI":"實踐里","LIN":"6鄰","STREET":"長榮路","SECT":"五段","MAREA":" ","LANE":"２９８巷","ALLEY":" ","HOUSE_NO":"３２號八樓之１","E_COORD97":169771.17000000001,"N_COORD97":2546012.3900000001,"ADDRESS":"長榮路五段２９８巷３２號八樓之１","OBJECTID":255277},"geometry":{"x":169771.16999999993,"y":2546012.3900000043}},{"attributes":{"ID":255282,"DIS_CODE":0,"TOWNNAME":"北區","LI":"實踐里","LIN":"6鄰","STREET":"長榮路","SECT":"五段","MAREA":" ","LANE":"２９８巷","ALLEY":" ","HOUSE_NO":"３２號八樓之２","E_COORD97":169771.17000000001,"N_COORD97":2546012.3900000001,"ADDRESS":"長榮路五段２９８巷３２號八樓之２","OBJECTID":255278},"geometry":{"x":169771.16999999993,"y":2546012.3900000043}},{"attributes":{"ID":255283,"DIS_CODE":0,"TOWNNAME":"北區","LI":"實踐里","LIN":"6鄰","STREET":"長榮路","SECT":"五段","MAREA":" ","LANE":"２９８巷","ALLEY":" ","HOUSE_NO":"３２號八樓之３","E_COORD97":169771.17000000001,"N_COORD97":2546012.3900000001,"ADDRESS":"長榮路五段２９８巷３２號八樓之３","OBJECTID":255279},"geometry":{"x":169771.16999999993,"y":2546012.3900000043}},{"attributes":{"ID":255284,"DIS_CODE":0,"TOWNNAME":"北區","LI":"實踐里","LIN":"6鄰","STREET":"長榮路","SECT":"五段","MAREA":" ","LANE":"２９８巷","ALLEY":" ","HOUSE_NO":"３２號八樓之５","E_COORD97":169771.17000000001,"N_COORD97":2546012.3900000001,"ADDRESS":"長榮路五段２９８巷３２號八樓之５","OBJECTID":255280},"geometry":{"x":169771.16999999993,"y":2546012.3900000043}},{"attributes":{"ID":255285,"DIS_CODE":0,"TOWNNAME":"北區","LI":"實踐里","LIN":"6鄰","STREET":"長榮路","SECT":"五段","MAREA":" ","LANE":"２９８巷","ALLEY":" ","HOUSE_NO":"３２號九樓之１","E_COORD97":169771.17000000001,"N_COORD97":2546012.3900000001,"ADDRESS":"長榮路五段２９８巷３２號九樓之１","OBJECTID":255281},"geometry":{"x":169771.16999999993,"y":2546012.3900000043}},{"attributes":{"ID":255286,"DIS_CODE":0,"TOWNNAME":"北區","LI":"實踐里","LIN":"6鄰","STREET":"長榮路","SECT":"五段","MAREA":" ","LANE":"２９８巷","ALLEY":" ","HOUSE_NO":"３２號九樓之２","E_COORD97":169771.17000000001,"N_COORD97":2546012.3900000001,"ADDRESS":"長榮路五段２９８巷３２號九樓之２","OBJECTID":255282},"geometry":{"x":169771.16999999993,"y":2546012.3900000043}},{"attributes":{"ID":255287,"DIS_CODE":0,"TOWNNAME":"北區","LI":"實踐里","LIN":"6鄰","STREET":"長榮路","SECT":"五段","MAREA":" ","LANE":"２９８巷","ALLEY":" ","HOUSE_NO":"３２號九樓之３","E_COORD97":169771.17000000001,"N_COORD97":2546012.3900000001,"ADDRESS":"長榮路五段２９８巷３２號九樓之３","OBJECTID":255283},"geometry":{"x":169771.16999999993,"y":2546012.3900000043}},{"attributes":{"ID":255288,"DIS_CODE":0,"TOWNNAME":"北區","LI":"實踐里","LIN":"6鄰","STREET":"長榮路","SECT":"五段","MAREA":" ","LANE":"２９８巷","ALLEY":" ","HOUSE_NO":"３２號九樓之５","E_COORD97":169771.17000000001,"N_COORD97":2546012.3900000001,"ADDRESS":"長榮路五段２９８巷３２號九樓之５","OBJECTID":255284},"geometry":{"x":169771.16999999993,"y":2546012.3900000043}},{"attributes":{"ID":255289,"DIS_CODE":0,"TOWNNAME":"北區","LI":"實踐里","LIN":"6鄰","STREET":"長榮路","SECT":"五段","MAREA":" ","LANE":"２９８巷","ALLEY":" ","HOUSE_NO":"３２號十樓之１","E_COORD97":169771.17000000001,"N_COORD97":2546012.3900000001,"ADDRESS":"長榮路五段２９８巷３２號十樓之１","OBJECTID":255285},"geometry":{"x":169771.16999999993,"y":2546012.3900000043}},{"attributes":{"ID":255290,"DIS_CODE":0,"TOWNNAME":"永康區","LI":"\u25A0行里","LIN":"24鄰","STREET":"中正南路","SECT":" ","MAREA":" ","LANE":" ","ALLEY":" ","HOUSE_NO":"６３６號","E_COORD97":171495.14999999999,"N_COORD97":2548739.7400000002,"ADDRESS":"中正南路６３６號","OBJECTID":255286},"geometry":{"x":171495.1500000013,"y":2548739.7400000021}},{"attributes":{"ID":255291,"DIS_CODE":0,"TOWNNAME":"永康區","LI":"\u25A0洲里","LIN":"24鄰","STREET":"正南二街","SECT":" ","MAREA":" ","LANE":" ","ALLEY":" ","HOUSE_NO":"１０２號","E_COORD97":170704.45000000001,"N_COORD97":2548414.1000000001,"ADDRESS":"正南二街１０２號","OBJECTID":255287},"geometry":{"x":170704.45000000112,"y":2548414.1000000015}},{"attributes":{"ID":255292,"DIS_CODE":0,"TOWNNAME":"歸仁區","LI":"崙頂里","LIN":"24鄰","STREET":"崙頂街","SECT":" ","MAREA":" ","LANE":" ","ALLEY":" ","HOUSE_NO":"６０號","E_COORD97":177845.07999999999,"N_COORD97":2539960.25,"ADDRESS":"崙頂街６０號","OBJECTID":255288},"geometry":{"x":177845.08000000101,"y":2539960.25}},{"attributes":{"ID":255293,"DIS_CODE":0,"TOWNNAME":"歸仁區","LI":"崙頂里","LIN":"24鄰","STREET":"崙頂街","SECT":" ","MAREA":" ","LANE":" ","ALLEY":" ","HOUSE_NO":"６４號","E_COORD97":177846.07999999999,"N_COORD97":2539953.25,"ADDRESS":"崙頂街６４號","OBJECTID":255289},"geometry":{"x":177846.08000000007,"y":2539953.25}},{"attributes":{"ID":255294,"DIS_CODE":0,"TOWNNAME":"六甲區","LI":"甲東里","LIN":"27鄰","STREET":"珊瑚路","SECT":" ","MAREA":" ","LANE":"６７巷","ALLEY":" ","HOUSE_NO":"６號","E_COORD97":183818.45999999999,"N_COORD97":2569374.1299999999,"ADDRESS":"珊瑚路６７巷６號","OBJECTID":255290},"geometry":{"x":183818.46000000089,"y":2569374.129999999}},{"attributes":{"ID":255295,"DIS_CODE":0,"TOWNNAME":"六甲區","LI":"甲東里","LIN":"27鄰","STREET":"珊瑚路","SECT":" ","MAREA":" ","LANE":"６７巷","ALLEY":" ","HOUSE_NO":"８號","E_COORD97":183829.23999999999,"N_COORD97":2569393.7599999998,"ADDRESS":"珊瑚路６７巷８號","OBJECTID":255291},"geometry":{"x":183829.24000000022,"y":2569393.7600000016}},{"attributes":{"ID":255296,"DIS_CODE":0,"TOWNNAME":"六甲區","LI":"甲東里","LIN":"27鄰","STREET":"珊瑚路","SECT":" ","MAREA":" ","LANE":"７７巷","ALLEY":" ","HOUSE_NO":"１號","E_COORD97":183841.42999999999,"N_COORD97":2569348.4399999999,"ADDRESS":"珊瑚路７７巷１號","OBJECTID":255292},"geometry":{"x":183841.43000000156,"y":2569348.4400000013}},{"attributes":{"ID":255297,"DIS_CODE":0,"TOWNNAME":"六甲區","LI":"甲東里","LIN":"27鄰","STREET":"珊瑚路","SECT":" ","MAREA":" ","LANE":"８３巷","ALLEY":" ","HOUSE_NO":"２號","E_COORD97":183862.95999999999,"N_COORD97":2569345.1000000001,"ADDRESS":"珊瑚路８３巷２號","OBJECTID":255293},"geometry":{"x":183862.95999999996,"y":2569345.0999999996}},{"attributes":{"ID":255298,"DIS_CODE":0,"TOWNNAME":"六甲區","LI":"甲東里","LIN":"27鄰","STREET":"珊瑚路","SECT":" ","MAREA":" ","LANE":"９３巷","ALLEY":" ","HOUSE_NO":"１號","E_COORD97":183851.84,"N_COORD97":2569321.1200000001,"ADDRESS":"珊瑚路９３巷１號","OBJECTID":255294},"geometry":{"x":183851.83999999985,"y":2569321.1200000029}},{"attributes":{"ID":255299,"DIS_CODE":0,"TOWNNAME":"六甲區","LI":"甲東里","LIN":"27鄰","STREET":"珊瑚路","SECT":" ","MAREA":" ","LANE":"９３巷","ALLEY":" ","HOUSE_NO":"２２號","E_COORD97":183915.57000000001,"N_COORD97":2569368.48,"ADDRESS":"珊瑚路９３巷２２號","OBJECTID":255295},"geometry":{"x":183915.56999999937,"y":2569368.4800000023}},{"attributes":{"ID":255300,"DIS_CODE":0,"TOWNNAME":"北區","LI":"實踐里","LIN":"6鄰","STREET":"長榮路","SECT":"五段","MAREA":" ","LANE":"２９８巷","ALLEY":" ","HOUSE_NO":"３２號十樓之２","E_COORD97":169771.17000000001,"N_COORD97":2546012.3900000001,"ADDRESS":"長榮路五段２９８巷３２號十樓之２","OBJECTID":255296},"geometry":{"x":169771.16999999993,"y":2546012.3900000043}},{"attributes":{"ID":255301,"DIS_CODE":0,"TOWNNAME":"北區","LI":"實踐里","LIN":"6鄰","STREET":"長榮路","SECT":"五段","MAREA":" ","LANE":"２９８巷","ALLEY":" ","HOUSE_NO":"３２號十樓之３","E_COORD97":169771.17000000001,"N_COORD97":2546012.3900000001,"ADDRESS":"長榮路五段２９８巷３２號十樓之３","OBJECTID":255297},"geometry":{"x":169771.16999999993,"y":2546012.3900000043}},{"attributes":{"ID":255302,"DIS_CODE":0,"TOWNNAME":"北區","LI":"實踐里","LIN":"6鄰","STREET":"長榮路","SECT":"五段","MAREA":" ","LANE":"２９８巷","ALLEY":" ","HOUSE_NO":"３２號十一樓之２","E_COORD97":169771.17000000001,"N_COORD97":2546012.3900000001,"ADDRESS":"長榮路五段２９８巷３２號十一樓之２","OBJECTID":255298},"geometry":{"x":169771.16999999993,"y":2546012.3900000043}},{"attributes":{"ID":255303,"DIS_CODE":0,"TOWNNAME":"北區","LI":"實踐里","LIN":"6鄰","STREET":"長榮路","SECT":"五段","MAREA":" ","LANE":"２９８巷","ALLEY":" ","HOUSE_NO":"３２號十一樓之３","E_COORD97":169771.17000000001,"N_COORD97":2546012.3900000001,"ADDRESS":"長榮路五段２９８巷３２號十一樓之３","OBJECTID":255299},"geometry":{"x":169771.16999999993,"y":2546012.3900000043}},{"attributes":{"ID":255304,"DIS_CODE":0,"TOWNNAME":"北區","LI":"實踐里","LIN":"6鄰","STREET":"長榮路","SECT":"五段","MAREA":" ","LANE":"２９８巷","ALLEY":" ","HOUSE_NO":"３２號十一樓之５","E_COORD97":169771.17000000001,"N_COORD97":2546012.3900000001,"ADDRESS":"長榮路五段２９８巷３２號十一樓之５","OBJECTID":255300},"geometry":{"x":169771.16999999993,"y":2546012.3900000043}},{"attributes":{"ID":255305,"DIS_CODE":0,"TOWNNAME":"北區","LI":"實踐里","LIN":"6鄰","STREET":"長榮路","SECT":"五段","MAREA":" ","LANE":"２９８巷","ALLEY":" ","HOUSE_NO":"５０號三樓之１","E_COORD97":169790.28,"N_COORD97":2546051.6800000002,"ADDRESS":"長榮路五段２９８巷５０號三樓之１","OBJECTID":255301},"geometry":{"x":169790.28000000119,"y":2546051.6800000016}},{"attributes":{"ID":255306,"DIS_CODE":0,"TOWNNAME":"北區","LI":"實踐里","LIN":"6鄰","STREET":"長榮路","SECT":"五段","MAREA":" ","LANE":"２９８巷","ALLEY":" ","HOUSE_NO":"５０號三樓之２","E_COORD97":169790.28,"N_COORD97":2546051.6800000002,"ADDRESS":"長榮路五段２９８巷５０號三樓之２","OBJECTID":255302},"geometry":{"x":169790.28000000119,"y":2546051.6800000016}},{"attributes":{"ID":255307,"DIS_CODE":0,"TOWNNAME":"北區","LI":"實踐里","LIN":"6鄰","STREET":"長榮路","SECT":"五段","MAREA":" ","LANE":"２９８巷","ALLEY":" ","HOUSE_NO":"５０號四樓之１","E_COORD97":169790.28,"N_COORD97":2546051.6800000002,"ADDRESS":"長榮路五段２９８巷５０號四樓之１","OBJECTID":255303},"geometry":{"x":169790.28000000119,"y":2546051.6800000016}},{"attributes":{"ID":255308,"DIS_CODE":0,"TOWNNAME":"北區","LI":"實踐里","LIN":"6鄰","STREET":"長榮路","SECT":"五段","MAREA":" ","LANE":"２９８巷","ALLEY":" ","HOUSE_NO":"５０號四樓之２","E_COORD97":169790.28,"N_COORD97":2546051.6800000002,"ADDRESS":"長榮路五段２９８巷５０號四樓之２","OBJECTID":255304},"geometry":{"x":169790.28000000119,"y":2546051.6800000016}},{"attributes":{"ID":255309,"DIS_CODE":0,"TOWNNAME":"新營區","LI":"大宏里","LIN":"24鄰","STREET":"民治路","SECT":" ","MAREA":" ","LANE":" ","ALLEY":" ","HOUSE_NO":"３之６號","E_COORD97":180560.07999999999,"N_COORD97":2578880.2200000002,"ADDRESS":"民治路３之６號","OBJECTID":255305},"geometry":{"x":180560.08000000007,"y":2578880.2200000044}},{"attributes":{"ID":255310,"DIS_CODE":0,"TOWNNAME":"南區","LI":"建南里","LIN":"24鄰","STREET":"明興路","SECT":" ","MAREA":" ","LANE":" ","ALLEY":" ","HOUSE_NO":"１０７號","E_COORD97":166630.73000000001,"N_COORD97":2539887.1299999999,"ADDRESS":"明興路１０７號","OBJECTID":255306},"geometry":{"x":166630.73000000231,"y":2539887.1300000008}},{"attributes":{"ID":255311,"DIS_CODE":0,"TOWNNAME":"南區","LI":"建南里","LIN":"24鄰","STREET":"明興路","SECT":" ","MAREA":" ","LANE":" ","ALLEY":" ","HOUSE_NO":"１１１號","E_COORD97":166628.98000000001,"N_COORD97":2539878.7999999998,"ADDRESS":"明興路１１１號","OBJECTID":255307},"geometry":{"x":166628.98000000231,"y":2539878.8000000007}},{"attributes":{"ID":255312,"DIS_CODE":0,"TOWNNAME":"南區","LI":"建南里","LIN":"24鄰","STREET":"明興路","SECT":" ","MAREA":" ","LANE":" ","ALLEY":" ","HOUSE_NO":"１１３號","E_COORD97":166627.76999999999,"N_COORD97":2539874.6400000001,"ADDRESS":"明興路１１３號","OBJECTID":255308},"geometry":{"x":166627.77000000142,"y":2539874.6400000025}},{"attributes":{"ID":255313,"DIS_CODE":0,"TOWNNAME":"南區","LI":"建南里","LIN":"24鄰","STREET":"明興路","SECT":" ","MAREA":" ","LANE":" ","ALLEY":" ","HOUSE_NO":"１１５號","E_COORD97":166627.66,"N_COORD97":2539870.48,"ADDRESS":"明興路１１５號","OBJECTID":255309},"geometry":{"x":166627.66000000108,"y":2539870.4800000004}},{"attributes":{"ID":255314,"DIS_CODE":0,"TOWNNAME":"南區","LI":"建南里","LIN":"24鄰","STREET":"明興路","SECT":" ","MAREA":" ","LANE":" ","ALLEY":" ","HOUSE_NO":"１１７號","E_COORD97":166627.66,"N_COORD97":2539865.6499999999,"ADDRESS":"明興路１１７號","OBJECTID":255310},"geometry":{"x":166627.66000000108,"y":2539865.6500000004}},{"attributes":{"ID":255315,"DIS_CODE":0,"TOWNNAME":"新營區","LI":"民榮里","LIN":"27鄰","STREET":"復興路","SECT":" ","MAREA":" ","LANE":"４８９巷","ALLEY":" ","HOUSE_NO":"１０號","E_COORD97":178276.54999999999,"N_COORD97":2578196.6699999999,"ADDRESS":"復興路４８９巷１０號","OBJECTID":255311},"geometry":{"x":178276.54999999981,"y":2578196.6699999999}},{"attributes":{"ID":255316,"DIS_CODE":0,"TOWNNAME":"新營區","LI":"新東里","LIN":"27鄰","STREET":"東光街","SECT":" ","MAREA":" ","LANE":"４０巷","ALLEY":" ","HOUSE_NO":"８號","E_COORD97":180642.60000000001,"N_COORD97":2579568.6099999999,"ADDRESS":"東光街４０巷８號","OBJECTID":255312},"geometry":{"x":180642.59999999963,"y":2579568.6100000013}},{"attributes":{"ID":255317,"DIS_CODE":0,"TOWNNAME":"新營區","LI":"新北里","LIN":"27鄰","STREET":"民生路","SECT":" ","MAREA":" ","LANE":"３８５巷","ALLEY":" ","HOUSE_NO":"９號","E_COORD97":178862.89000000001,"N_COORD97":2579148.4700000002,"ADDRESS":"民生路３８５巷９號","OBJECTID":255313},"geometry":{"x":178862.89000000153,"y":2579148.4700000007}},{"attributes":{"ID":255318,"DIS_CODE":0,"TOWNNAME":"永康區","LI":"五王里","LIN":"3鄰","STREET":"成功路","SECT":" ","MAREA":" ","LANE":"１７２巷","ALLEY":" ","HOUSE_NO":"１２號","E_COORD97":171492.51000000001,"N_COORD97":2545642.2599999998,"ADDRESS":"成功路１７２巷１２號","OBJECTID":255314},"geometry":{"x":171492.50999999978,"y":2545642.2599999998}},{"attributes":{"ID":255319,"DIS_CODE":0,"TOWNNAME":"永康區","LI":"中興里","LIN":"5鄰","STREET":"中華路","SECT":" ","MAREA":" ","LANE":"２１４巷","ALLEY":" ","HOUSE_NO":"９號","E_COORD97":171728.12,"N_COORD97":2545063.4199999999,"ADDRESS":"中華路２１４巷９號","OBJECTID":255315},"geometry":{"x":171728.12000000011,"y":2545063.4200000018}},{"attributes":{"ID":255320,"DIS_CODE":0,"TOWNNAME":"永康區","LI":"中興里","LIN":"5鄰","STREET":"中華路","SECT":" ","MAREA":" ","LANE":"２１４巷","ALLEY":" ","HOUSE_NO":"４３號","E_COORD97":171807.54000000001,"N_COORD97":2545069.8799999999,"ADDRESS":"中華路２１４巷４３號","OBJECTID":255316},"geometry":{"x":171807.54000000097,"y":2545069.8800000008}},{"attributes":{"ID":255321,"DIS_CODE":0,"TOWNNAME":"永康區","LI":"大灣里","LIN":"17鄰","STREET":"大灣路","SECT":" ","MAREA":" ","LANE":"３５６巷","ALLEY":" ","HOUSE_NO":"２４號","E_COORD97":174807.78,"N_COORD97":2545153.3399999999,"ADDRESS":"大灣路３５６巷２４號","OBJECTID":255317},"geometry":{"x":174807.78000000212,"y":2545153.3399999999}},{"attributes":{"ID":255322,"DIS_CODE":0,"TOWNNAME":"永康區","LI":"中興里","LIN":"17鄰","STREET":"中華路","SECT":" ","MAREA":" ","LANE":"２８６巷","ALLEY":" ","HOUSE_NO":"５號","E_COORD97":171583.79999999999,"N_COORD97":2545322.25,"ADDRESS":"中華路２８６巷５號","OBJECTID":255318},"geometry":{"x":171583.79999999981,"y":2545322.2500000019}},{"attributes":{"ID":255323,"DIS_CODE":0,"TOWNNAME":"永康區","LI":"大灣里","LIN":"30鄰","STREET":"民族路","SECT":" ","MAREA":" ","LANE":"９６巷","ALLEY":" ","HOUSE_NO":"１號","E_COORD97":175352.42999999999,"N_COORD97":2544837.5299999998,"ADDRESS":"民族路９６巷１號","OBJECTID":255319},"geometry":{"x":175352.43000000063,"y":2544837.5300000012}},{"attributes":{"ID":255324,"DIS_CODE":0,"TOWNNAME":"永康區","LI":"五王里","LIN":"19鄰","STREET":"成功路","SECT":" ","MAREA":" ","LANE":"１７２巷","ALLEY":" ","HOUSE_NO":"７號","E_COORD97":171459.03,"N_COORD97":2545638.0099999998,"ADDRESS":"成功路１７２巷７號","OBJECTID":255320},"geometry":{"x":171459.03000000026,"y":2545638.0100000035}},{"attributes":{"ID":255325,"DIS_CODE":0,"TOWNNAME":"北區","LI":"實踐里","LIN":"6鄰","STREET":"長榮路","SECT":"五段","MAREA":" ","LANE":"２９８巷","ALLEY":" ","HOUSE_NO":"５０號五樓之１","E_COORD97":169790.28,"N_COORD97":2546051.6800000002,"ADDRESS":"長榮路五段２９８巷５０號五樓之１","OBJECTID":255321},"geometry":{"x":169790.28000000119,"y":2546051.6800000016}},{"attributes":{"ID":255326,"DIS_CODE":0,"TOWNNAME":"北區","LI":"實踐里","LIN":"6鄰","STREET":"長榮路","SECT":"五段","MAREA":" ","LANE":"２９８巷","ALLEY":" ","HOUSE_NO":"５０號五樓之２","E_COORD97":169790.28,"N_COORD97":2546051.6800000002,"ADDRESS":"長榮路五段２９８巷５０號五樓之２","OBJECTID":255322},"geometry":{"x":169790.28000000119,"y":2546051.6800000016}},{"attributes":{"ID":255327,"DIS_CODE":0,"TOWNNAME":"北區","LI":"實踐里","LIN":"6鄰","STREET":"長榮路","SECT":"五段","MAREA":" ","LANE":"２９８巷","ALLEY":" ","HOUSE_NO":"５０號六樓之１","E_COORD97":169790.28,"N_COORD97":2546051.6800000002,"ADDRESS":"長榮路五段２９８巷５０號六樓之１","OBJECTID":255323},"geometry":{"x":169790.28000000119,"y":2546051.6800000016}},{"attributes":{"ID":255328,"DIS_CODE":0,"TOWNNAME":"永康區","LI":"\u25A0洲里","LIN":"24鄰","STREET":"國聖街","SECT":" ","MAREA":" ","LANE":" ","ALLEY":" ","HOUSE_NO":"２１７號","E_COORD97":170815.45000000001,"N_COORD97":2548423.25,"ADDRESS":"國聖街２１７號","OBJECTID":255324},"geometry":{"x":170815.45000000019,"y":2548423.2500000037}},{"attributes":{"ID":255329,"DIS_CODE":0,"TOWNNAME":"永康區","LI":"中華里","LIN":"24鄰","STREET":"華興街","SECT":" ","MAREA":" ","LANE":" ","ALLEY":" ","HOUSE_NO":"１８２號","E_COORD97":171640.42999999999,"N_COORD97":2544580.5800000001,"ADDRESS":"華興街１８２號","OBJECTID":255325},"geometry":{"x":171640.4299999997,"y":2544580.5800000019}},{"attributes":{"ID":255330,"DIS_CODE":0,"TOWNNAME":"安南區","LI":"東和里","LIN":"7鄰","STREET":"長和路","SECT":"一段","MAREA":" ","LANE":"２巷","ALLEY":" ","HOUSE_NO":"９８號","E_COORD97":172176.58335100001,"N_COORD97":2550495.0729999999,"ADDRESS":"長和路一段２巷９８號","OBJECTID":255326},"geometry":{"x":172176.58335100021,"y":2550495.0729970001}},{"attributes":{"ID":255331,"DIS_CODE":0,"TOWNNAME":"永康區","LI":"中華里","LIN":"24鄰","STREET":"華興街","SECT":" ","MAREA":" ","LANE":" ","ALLEY":" ","HOUSE_NO":"１７２號","E_COORD97":171660.48000000001,"N_COORD97":2544580.3700000001,"ADDRESS":"華興街１７２號","OBJECTID":255327},"geometry":{"x":171660.48000000138,"y":2544580.3700000029}},{"attributes":{"ID":255332,"DIS_CODE":0,"TOWNNAME":"永康區","LI":"中華里","LIN":"24鄰","STREET":"華興街","SECT":" ","MAREA":" ","LANE":" ","ALLEY":" ","HOUSE_NO":"１６０號","E_COORD97":171685.42000000001,"N_COORD97":2544581.2200000002,"ADDRESS":"華興街１６０號","OBJECTID":255328},"geometry":{"x":171685.41999999899,"y":2544581.2200000007}},{"attributes":{"ID":255333,"DIS_CODE":0,"TOWNNAME":"永康區","LI":"中華里","LIN":"24鄰","STREET":"華興街","SECT":" ","MAREA":" ","LANE":" ","ALLEY":" ","HOUSE_NO":"１８６號","E_COORD97":171631.17000000001,"N_COORD97":2544580.5099999998,"ADDRESS":"華興街１８６號","OBJECTID":255329},"geometry":{"x":171631.16999999899,"y":2544580.5100000016}},{"attributes":{"ID":255334,"DIS_CODE":0,"TOWNNAME":"仁德區","LI":"仁德里","LIN":"24鄰","STREET":"文孝路","SECT":" ","MAREA":" ","LANE":" ","ALLEY":" ","HOUSE_NO":"５７號","E_COORD97":172053.75,"N_COORD97":2541367.3300000001,"ADDRESS":"文孝路５７號","OBJECTID":255330},"geometry":{"x":172053.75000000093,"y":2541367.3300000038}},{"attributes":{"ID":255335,"DIS_CODE":0,"TOWNNAME":"仁德區","LI":"仁德里","LIN":"24鄰","STREET":"文孝路","SECT":" ","MAREA":" ","LANE":" ","ALLEY":" ","HOUSE_NO":"７號","E_COORD97":172118.89999999999,"N_COORD97":2541367.3300000001,"ADDRESS":"文孝路７號","OBJECTID":255331},"geometry":{"x":172118.9000000013,"y":2541367.3300000038}},{"attributes":{"ID":255336,"DIS_CODE":0,"TOWNNAME":"仁德區","LI":"仁德里","LIN":"24鄰","STREET":"文孝路","SECT":" ","MAREA":" ","LANE":" ","ALLEY":" ","HOUSE_NO":"１５號","E_COORD97":172102.95000000001,"N_COORD97":2541376.5800000001,"ADDRESS":"文孝路１５號","OBJECTID":255332},"geometry":{"x":172102.95000000112,"y":2541376.5800000019}},{"attributes":{"ID":255337,"DIS_CODE":0,"TOWNNAME":"仁德區","LI":"仁德里","LIN":"24鄰","STREET":"文孝路","SECT":" ","MAREA":" ","LANE":" ","ALLEY":" ","HOUSE_NO":"３９號","E_COORD97":172055.23000000001,"N_COORD97":2541401.5699999998,"ADDRESS":"文孝路３９號","OBJECTID":255333},"geometry":{"x":172055.23000000231,"y":2541401.5700000022}},{"attributes":{"ID":255338,"DIS_CODE":0,"TOWNNAME":"仁德區","LI":"仁德里","LIN":"24鄰","STREET":"文孝路","SECT":" ","MAREA":" ","LANE":" ","ALLEY":" ","HOUSE_NO":"６７號","E_COORD97":172031.95000000001,"N_COORD97":2541378.8300000001,"ADDRESS":"文孝路６７號","OBJECTID":255334},"geometry":{"x":172031.95000000112,"y":2541378.8300000019}},{"attributes":{"ID":255339,"DIS_CODE":0,"TOWNNAME":"仁德區","LI":"仁義里","LIN":"24鄰","STREET":"正義路","SECT":" ","MAREA":" ","LANE":" ","ALLEY":" ","HOUSE_NO":"１２１號","E_COORD97":173671.60999999999,"N_COORD97":2541433.52,"ADDRESS":"正義路１２１號","OBJECTID":255335},"geometry":{"x":173671.61000000127,"y":2541433.5200000033}},{"attributes":{"ID":255340,"DIS_CODE":0,"TOWNNAME":"永康區","LI":"大橋里","LIN":"3鄰","STREET":"大橋三街","SECT":" ","MAREA":" ","LANE":"１２４巷","ALLEY":" ","HOUSE_NO":"９號之１","E_COORD97":170804.56,"N_COORD97":2546677.79,"ADDRESS":"大橋三街１２４巷９號之１","OBJECTID":255336},"geometry":{"x":170804.56000000052,"y":2546677.7899999991}},{"attributes":{"ID":255341,"DIS_CODE":0,"TOWNNAME":"永康區","LI":"大灣里","LIN":"17鄰","STREET":"大灣路","SECT":" ","MAREA":" ","LANE":"３５６巷","ALLEY":" ","HOUSE_NO":"２６號","E_COORD97":174802.92000000001,"N_COORD97":2545153.8399999999,"ADDRESS":"大灣路３５６巷２６號","OBJECTID":255337},"geometry":{"x":174802.92000000179,"y":2545153.8399999999}},{"attributes":{"ID":255342,"DIS_CODE":0,"TOWNNAME":"永康區","LI":"五王里","LIN":"30鄰","STREET":"中山東路","SECT":" ","MAREA":" ","LANE":"１２０巷","ALLEY":" ","HOUSE_NO":"１號","E_COORD97":171704.85999999999,"N_COORD97":2545877.23,"ADDRESS":"中山東路１２０巷１號","OBJECTID":255338},"geometry":{"x":171704.86000000034,"y":2545877.2300000004}},{"attributes":{"ID":255343,"DIS_CODE":0,"TOWNNAME":"永康區","LI":"五王里","LIN":"19鄰","STREET":"成功路","SECT":" ","MAREA":" ","LANE":"１７２巷","ALLEY":" ","HOUSE_NO":"５號","E_COORD97":171455.07000000001,"N_COORD97":2545635.2599999998,"ADDRESS":"成功路１７２巷５號","OBJECTID":255339},"geometry":{"x":171455.07000000123,"y":2545635.2599999998}},{"attributes":{"ID":255344,"DIS_CODE":0,"TOWNNAME":"新營區","LI":"南興里","LIN":"27鄰","STREET":"建業路","SECT":" ","MAREA":" ","LANE":"１１１巷","ALLEY":" ","HOUSE_NO":"１７號","E_COORD97":178500.89999999999,"N_COORD97":2577418.1600000001,"ADDRESS":"建業路１１１巷１７號","OBJECTID":255340},"geometry":{"x":178500.90000000224,"y":2577418.1600000001}},{"attributes":{"ID":255345,"DIS_CODE":0,"TOWNNAME":"歸仁區","LI":"六甲里","LIN":"27鄰","STREET":"六甲路","SECT":" ","MAREA":" ","LANE":"２２６巷","ALLEY":" ","HOUSE_NO":"１１號","E_COORD97":175909.22,"N_COORD97":2539253.25,"ADDRESS":"六甲路２２６巷１１號","OBJECTID":255341},"geometry":{"x":175909.21999999974,"y":2539253.2500000019}},{"attributes":{"ID":255346,"DIS_CODE":0,"TOWNNAME":"歸仁區","LI":"六甲里","LIN":"27鄰","STREET":"六甲路","SECT":" ","MAREA":" ","LANE":"２２６巷","ALLEY":" ","HOUSE_NO":"９號","E_COORD97":175902.97,"N_COORD97":2539271.25,"ADDRESS":"六甲路２２６巷９號","OBJECTID":255342},"geometry":{"x":175902.97000000067,"y":2539271.25}},{"attributes":{"ID":255347,"DIS_CODE":0,"TOWNNAME":"北區","LI":"實踐里","LIN":"6鄰","STREET":"長榮路","SECT":"五段","MAREA":" ","LANE":"２９８巷","ALLEY":" ","HOUSE_NO":"５０號六樓之２","E_COORD97":169790.28,"N_COORD97":2546051.6800000002,"ADDRESS":"長榮路五段２９８巷５０號六樓之２","OBJECTID":255343},"geometry":{"x":169790.28000000119,"y":2546051.6800000016}},{"attributes":{"ID":255348,"DIS_CODE":0,"TOWNNAME":"北區","LI":"實踐里","LIN":"6鄰","STREET":"長榮路","SECT":"五段","MAREA":" ","LANE":"２９８巷","ALLEY":" ","HOUSE_NO":"５０號七樓之１","E_COORD97":169790.28,"N_COORD97":2546051.6800000002,"ADDRESS":"長榮路五段２９８巷５０號七樓之１","OBJECTID":255344},"geometry":{"x":169790.28000000119,"y":2546051.6800000016}},{"attributes":{"ID":255349,"DIS_CODE":0,"TOWNNAME":"北區","LI":"實踐里","LIN":"6鄰","STREET":"長榮路","SECT":"五段","MAREA":" ","LANE":"２９８巷","ALLEY":" ","HOUSE_NO":"５０號七樓之２","E_COORD97":169790.28,"N_COORD97":2546051.6800000002,"ADDRESS":"長榮路五段２９８巷５０號七樓之２","OBJECTID":255345},"geometry":{"x":169790.28000000119,"y":2546051.6800000016}},{"attributes":{"ID":255350,"DIS_CODE":0,"TOWNNAME":"北區","LI":"實踐里","LIN":"6鄰","STREET":"長榮路","SECT":"五段","MAREA":" ","LANE":"２９８巷","ALLEY":" ","HOUSE_NO":"５０號八樓之１","E_COORD97":169790.28,"N_COORD97":2546051.6800000002,"ADDRESS":"長榮路五段２９８巷５０號八樓之１","OBJECTID":255346},"geometry":{"x":169790.28000000119,"y":2546051.6800000016}},{"attributes":{"ID":255351,"DIS_CODE":0,"TOWNNAME":"北區","LI":"實踐里","LIN":"6鄰","STREET":"長榮路","SECT":"五段","MAREA":" ","LANE":"２９８巷","ALLEY":" ","HOUSE_NO":"５０號八樓之２","E_COORD97":169790.28,"N_COORD97":2546051.6800000002,"ADDRESS":"長榮路五段２９８巷５０號八樓之２","OBJECTID":255347},"geometry":{"x":169790.28000000119,"y":2546051.6800000016}},{"attributes":{"ID":255352,"DIS_CODE":0,"TOWNNAME":"北區","LI":"實踐里","LIN":"6鄰","STREET":"長榮路","SECT":"五段","MAREA":" ","LANE":"２９８巷","ALLEY":" ","HOUSE_NO":"５０號九樓之１","E_COORD97":169790.28,"N_COORD97":2546051.6800000002,"ADDRESS":"長榮路五段２９８巷５０號九樓之１","OBJECTID":255348},"geometry":{"x":169790.28000000119,"y":2546051.6800000016}},{"attributes":{"ID":255353,"DIS_CODE":0,"TOWNNAME":"北區","LI":"實踐里","LIN":"6鄰","STREET":"長榮路","SECT":"五段","MAREA":" ","LANE":"２９８巷","ALLEY":" ","HOUSE_NO":"５０號九樓之２","E_COORD97":169790.28,"N_COORD97":2546051.6800000002,"ADDRESS":"長榮路五段２９８巷５０號九樓之２","OBJECTID":255349},"geometry":{"x":169790.28000000119,"y":2546051.6800000016}},{"attributes":{"ID":255354,"DIS_CODE":0,"TOWNNAME":"北區","LI":"實踐里","LIN":"6鄰","STREET":"長榮路","SECT":"五段","MAREA":" ","LANE":"２９８巷","ALLEY":" ","HOUSE_NO":"５０號十樓之１","E_COORD97":169790.28,"N_COORD97":2546051.6800000002,"ADDRESS":"長榮路五段２９８巷５０號十樓之１","OBJECTID":255350},"geometry":{"x":169790.28000000119,"y":2546051.6800000016}},{"attributes":{"ID":255355,"DIS_CODE":0,"TOWNNAME":"佳里區","LI":"建南里","LIN":"13鄰","STREET":"新生路","SECT":" ","MAREA":" ","LANE":"４４１巷","ALLEY":" ","HOUSE_NO":"６３號","E_COORD97":165224.79060199999,"N_COORD97":2561987.39261,"ADDRESS":"新生路４４１巷６３號","OBJECTID":255351},"geometry":{"x":165224.79060200136,"y":2561987.3926149998}},{"attributes":{"ID":255356,"DIS_CODE":0,"TOWNNAME":"仁德區","LI":"仁德里","LIN":"24鄰","STREET":"文孝路","SECT":" ","MAREA":" ","LANE":" ","ALLEY":" ","HOUSE_NO":"４７號","E_COORD97":172049.66,"N_COORD97":2541380.0800000001,"ADDRESS":"文孝路４７號","OBJECTID":255352},"geometry":{"x":172049.66000000015,"y":2541380.0800000019}},{"attributes":{"ID":255357,"DIS_CODE":0,"TOWNNAME":"仁德區","LI":"仁德里","LIN":"24鄰","STREET":"文孝路","SECT":" ","MAREA":" ","LANE":" ","ALLEY":" ","HOUSE_NO":"１０１號","E_COORD97":172026.03,"N_COORD97":2541417.0699999998,"ADDRESS":"文孝路１０１號","OBJECTID":255353},"geometry":{"x":172026.03000000119,"y":2541417.070000004}},{"attributes":{"ID":255358,"DIS_CODE":0,"TOWNNAME":"仁德區","LI":"仁德里","LIN":"24鄰","STREET":"文孝路","SECT":" ","MAREA":" ","LANE":" ","ALLEY":" ","HOUSE_NO":"８９號","E_COORD97":172029.45999999999,"N_COORD97":2541391.0699999998,"ADDRESS":"文孝路８９號","OBJECTID":255354},"geometry":{"x":172029.46000000183,"y":2541391.0700000022}},{"attributes":{"ID":255359,"DIS_CODE":0,"TOWNNAME":"仁德區","LI":"仁德里","LIN":"24鄰","STREET":"文孝路","SECT":" ","MAREA":" ","LANE":" ","ALLEY":" ","HOUSE_NO":"９號","E_COORD97":172114.75,"N_COORD97":2541369.8300000001,"ADDRESS":"文孝路９號","OBJECTID":255355},"geometry":{"x":172114.75000000093,"y":2541369.8300000001}},{"attributes":{"ID":255360,"DIS_CODE":0,"TOWNNAME":"仁德區","LI":"仁德里","LIN":"24鄰","STREET":"文孝路","SECT":" ","MAREA":" ","LANE":" ","ALLEY":" ","HOUSE_NO":"７３號","E_COORD97":172018.17999999999,"N_COORD97":2541386.0699999998,"ADDRESS":"文孝路７３號","OBJECTID":255356},"geometry":{"x":172018.18000000063,"y":2541386.0700000003}},{"attributes":{"ID":255361,"DIS_CODE":0,"TOWNNAME":"仁德區","LI":"仁德里","LIN":"24鄰","STREET":"文孝路","SECT":" ","MAREA":" ","LANE":" ","ALLEY":" ","HOUSE_NO":"３１號","E_COORD97":172072.04000000001,"N_COORD97":2541393.5699999998,"ADDRESS":"文孝路３１號","OBJECTID":255357},"geometry":{"x":172072.04000000097,"y":2541393.5700000022}},{"attributes":{"ID":255362,"DIS_CODE":0,"TOWNNAME":"仁德區","LI":"大甲里","LIN":"24鄰","STREET":"行大二街","SECT":" ","MAREA":" ","LANE":" ","ALLEY":" ","HOUSE_NO":"６８號","E_COORD97":169655.76000000001,"N_COORD97":2535230,"ADDRESS":"行大二街６８號","OBJECTID":255358},"geometry":{"x":169655.76000000071,"y":2535230.0000000019}},{"attributes":{"ID":255363,"DIS_CODE":0,"TOWNNAME":"仁德區","LI":"大甲里","LIN":"24鄰","STREET":"行大二街","SECT":" ","MAREA":" ","LANE":" ","ALLEY":" ","HOUSE_NO":"１８號","E_COORD97":169704.04000000001,"N_COORD97":2535349.75,"ADDRESS":"行大二街１８號","OBJECTID":255359},"geometry":{"x":169704.04000000004,"y":2535349.7499999981}},{"attributes":{"ID":255364,"DIS_CODE":0,"TOWNNAME":"北區","LI":"和順里","LIN":"27鄰","STREET":"育德二路","SECT":" ","MAREA":" ","LANE":"４１巷","ALLEY":" ","HOUSE_NO":"２２號","E_COORD97":168156.5,"N_COORD97":2545340.4199999999,"ADDRESS":"育德二路４１巷２２號","OBJECTID":255360},"geometry":{"x":168156.50000000093,"y":2545340.4200000037}},{"attributes":{"ID":255365,"DIS_CODE":0,"TOWNNAME":"北區","LI":"和順里","LIN":"27鄰","STREET":"育德二路","SECT":" ","MAREA":" ","LANE":"４１巷","ALLEY":" ","HOUSE_NO":"２６號","E_COORD97":168150.5,"N_COORD97":2545340.4199999999,"ADDRESS":"育德二路４１巷２６號","OBJECTID":255361},"geometry":{"x":168150.49999999907,"y":2545340.4200000037}},{"attributes":{"ID":255366,"DIS_CODE":0,"TOWNNAME":"北區","LI":"實踐里","LIN":"6鄰","STREET":"長榮路","SECT":"五段","MAREA":" ","LANE":"２９８巷","ALLEY":" ","HOUSE_NO":"５０號十樓之２","E_COORD97":169790.28,"N_COORD97":2546051.6800000002,"ADDRESS":"長榮路五段２９８巷５０號十樓之２","OBJECTID":255362},"geometry":{"x":169790.28000000119,"y":2546051.6800000016}},{"attributes":{"ID":255367,"DIS_CODE":0,"TOWNNAME":"北區","LI":"實踐里","LIN":"6鄰","STREET":"長榮路","SECT":"五段","MAREA":" ","LANE":"２９８巷","ALLEY":" ","HOUSE_NO":"５０號十一樓之１","E_COORD97":169790.28,"N_COORD97":2546051.6800000002,"ADDRESS":"長榮路五段２９８巷５０號十一樓之１","OBJECTID":255363},"geometry":{"x":169790.28000000119,"y":2546051.6800000016}},{"attributes":{"ID":255368,"DIS_CODE":0,"TOWNNAME":"柳營區","LI":"光福里","LIN":"27鄰","STREET":" ","SECT":" ","MAREA":"柳營","LANE":" ","ALLEY":" ","HOUSE_NO":"２７６號之１１６","E_COORD97":180092.07000000001,"N_COORD97":2575592.0600000001,"ADDRESS":"柳營２７６號之１１６","OBJECTID":255364},"geometry":{"x":180092.07000000123,"y":2575592.0599999987}},{"attributes":{"ID":255369,"DIS_CODE":0,"TOWNNAME":"柳營區","LI":"光福里","LIN":"27鄰","STREET":" ","SECT":" ","MAREA":"柳營","LANE":" ","ALLEY":" ","HOUSE_NO":"２７６之１１７號","E_COORD97":180096.23000000001,"N_COORD97":2575591.98,"ADDRESS":"柳營２７６之１１７號","OBJECTID":255365},"geometry":{"x":180096.23000000138,"y":2575591.9800000004}},{"attributes":{"ID":255370,"DIS_CODE":0,"TOWNNAME":"北區","LI":"實踐里","LIN":"6鄰","STREET":"長榮路","SECT":"五段","MAREA":" ","LANE":"２９８巷","ALLEY":" ","HOUSE_NO":"５０號十一樓之２","E_COORD97":169790.28,"N_COORD97":2546051.6800000002,"ADDRESS":"長榮路五段２９８巷５０號十一樓之２","OBJECTID":255366},"geometry":{"x":169790.28000000119,"y":2546051.6800000016}},{"attributes":{"ID":255371,"DIS_CODE":0,"TOWNNAME":"北區","LI":"實踐里","LIN":"6鄰","STREET":"長榮路","SECT":"五段","MAREA":" ","LANE":"２９８巷","ALLEY":" ","HOUSE_NO":"５０號十二樓之１","E_COORD97":169790.28,"N_COORD97":2546051.6800000002,"ADDRESS":"長榮路五段２９８巷５０號十二樓之１","OBJECTID":255367},"geometry":{"x":169790.28000000119,"y":2546051.6800000016}},{"attributes":{"ID":255372,"DIS_CODE":0,"TOWNNAME":"北區","LI":"實踐里","LIN":"6鄰","STREET":"長榮路","SECT":"五段","MAREA":" ","LANE":"２９８巷","ALLEY":" ","HOUSE_NO":"５０號十二樓之２","E_COORD97":169790.28,"N_COORD97":2546051.6800000002,"ADDRESS":"長榮路五段２９８巷５０號十二樓之２","OBJECTID":255368},"geometry":{"x":169790.28000000119,"y":2546051.6800000016}},{"attributes":{"ID":255373,"DIS_CODE":0,"TOWNNAME":"仁德區","LI":"大甲里","LIN":"24鄰","STREET":"行大二街","SECT":" ","MAREA":" ","LANE":" ","ALLEY":" ","HOUSE_NO":"２２號","E_COORD97":169702.95000000001,"N_COORD97":2535337.75,"ADDRESS":"行大二街２２號","OBJECTID":255369},"geometry":{"x":169702.95000000112,"y":2535337.7500000019}},{"attributes":{"ID":255374,"DIS_CODE":0,"TOWNNAME":"仁德區","LI":"大甲里","LIN":"24鄰","STREET":"行大二街","SECT":" ","MAREA":" ","LANE":" ","ALLEY":" ","HOUSE_NO":"３２號","E_COORD97":169691.67999999999,"N_COORD97":2535318.2400000002,"ADDRESS":"行大二街３２號","OBJECTID":255370},"geometry":{"x":169691.68000000156,"y":2535318.2400000002}},{"attributes":{"ID":255375,"DIS_CODE":0,"TOWNNAME":"安南區","LI":"公親里","LIN":"6鄰","STREET":"公學路","SECT":"一段","MAREA":" ","LANE":"１２巷","ALLEY":" ","HOUSE_NO":"４４號","E_COORD97":168634.01999999999,"N_COORD97":2553158.4300000002,"ADDRESS":"公學路一段１２巷４４號","OBJECTID":255371},"geometry":{"x":168634.01999999955,"y":2553158.4300000016}},{"attributes":{"ID":255376,"DIS_CODE":0,"TOWNNAME":"北區","LI":"實踐里","LIN":"6鄰","STREET":"長榮路","SECT":"五段","MAREA":" ","LANE":"２９８巷","ALLEY":" ","HOUSE_NO":"３６號","E_COORD97":169772.56,"N_COORD97":2546018.1000000001,"ADDRESS":"長榮路五段２９８巷３６號","OBJECTID":255372},"geometry":{"x":169772.56000000052,"y":2546018.1000000015}},{"attributes":{"ID":255377,"DIS_CODE":0,"TOWNNAME":"北區","LI":"實踐里","LIN":"6鄰","STREET":"長榮路","SECT":"五段","MAREA":" ","LANE":"２９８巷","ALLEY":" ","HOUSE_NO":"３８號","E_COORD97":169773.26000000001,"N_COORD97":2546022.8500000001,"ADDRESS":"長榮路五段２９８巷３８號","OBJECTID":255373},"geometry":{"x":169773.26000000071,"y":2546022.8500000015}},{"attributes":{"ID":255378,"DIS_CODE":0,"TOWNNAME":"北區","LI":"實踐里","LIN":"6鄰","STREET":"長榮路","SECT":"五段","MAREA":" ","LANE":"２９８巷","ALLEY":" ","HOUSE_NO":"４０號","E_COORD97":169774.53,"N_COORD97":2546028.8100000001,"ADDRESS":"長榮路五段２９８巷４０號","OBJECTID":255374},"geometry":{"x":169774.52999999933,"y":2546028.8100000005}},{"attributes":{"ID":255379,"DIS_CODE":0,"TOWNNAME":"北區","LI":"成德里","LIN":"20鄰","STREET":"文成三路","SECT":" ","MAREA":" ","LANE":"２４３巷","ALLEY":" ","HOUSE_NO":"２０號","E_COORD97":168373.51000000001,"N_COORD97":2546262.9399999999,"ADDRESS":"文成三路２４３巷２０號","OBJECTID":255375},"geometry":{"x":168373.50999999978,"y":2546262.9400000013}},{"attributes":{"ID":255380,"DIS_CODE":0,"TOWNNAME":"柳營區","LI":"東昇里","LIN":"27鄰","STREET":" ","SECT":" ","MAREA":"柳營","LANE":" ","ALLEY":" ","HOUSE_NO":"５１２之４６號","E_COORD97":180602.95000000001,"N_COORD97":2575218.77,"ADDRESS":"柳營５１２之４６號","OBJECTID":255376},"geometry":{"x":180602.95000000112,"y":2575218.7699999996}},{"attributes":{"ID":255381,"DIS_CODE":0,"TOWNNAME":"北區","LI":"成德里","LIN":"20鄰","STREET":"文成三路","SECT":" ","MAREA":" ","LANE":"２４３巷","ALLEY":" ","HOUSE_NO":"２２號","E_COORD97":168386.53,"N_COORD97":2546258.3399999999,"ADDRESS":"文成三路２４３巷２２號","OBJECTID":255377},"geometry":{"x":168386.53000000119,"y":2546258.3399999999}},{"attributes":{"ID":255382,"DIS_CODE":0,"TOWNNAME":"歸仁區","LI":"六甲里","LIN":"27鄰","STREET":"六甲路","SECT":" ","MAREA":" ","LANE":"２２６巷","ALLEY":" ","HOUSE_NO":"１３號","E_COORD97":175905.12,"N_COORD97":2539253.25,"ADDRESS":"六甲路２２６巷１３號","OBJECTID":255378},"geometry":{"x":175905.12000000011,"y":2539253.2500000019}},{"attributes":{"ID":255383,"DIS_CODE":0,"TOWNNAME":"北區","LI":"成德里","LIN":"20鄰","STREET":"文成三路","SECT":" ","MAREA":" ","LANE":"２４３巷","ALLEY":" ","HOUSE_NO":"６號","E_COORD97":168361.76000000001,"N_COORD97":2546302.4700000002,"ADDRESS":"文成三路２４３巷６號","OBJECTID":255379},"geometry":{"x":168361.75999999978,"y":2546302.4700000007}},{"attributes":{"ID":255384,"DIS_CODE":0,"TOWNNAME":"北區","LI":"成德里","LIN":"20鄰","STREET":"文成三路","SECT":" ","MAREA":" ","LANE":"２４３巷","ALLEY":" ","HOUSE_NO":"８號","E_COORD97":168363.67000000001,"N_COORD97":2546295.3300000001,"ADDRESS":"文成三路２４３巷８號","OBJECTID":255380},"geometry":{"x":168363.67000000086,"y":2546295.3300000019}},{"attributes":{"ID":255385,"DIS_CODE":0,"TOWNNAME":"北區","LI":"成德里","LIN":"20鄰","STREET":"文成三路","SECT":" ","MAREA":" ","LANE":"２４３巷","ALLEY":" ","HOUSE_NO":"１８號","E_COORD97":168371.60000000001,"N_COORD97":2546269.6099999999,"ADDRESS":"文成三路２４３巷１８號","OBJECTID":255381},"geometry":{"x":168371.60000000149,"y":2546269.6099999994}},{"attributes":{"ID":255386,"DIS_CODE":0,"TOWNNAME":"北區","LI":"成德里","LIN":"20鄰","STREET":"文成三路","SECT":" ","MAREA":" ","LANE":"２４３巷","ALLEY":" ","HOUSE_NO":"１６號","E_COORD97":168369.22,"N_COORD97":2546276.9100000001,"ADDRESS":"文成三路２４３巷１６號","OBJECTID":255382},"geometry":{"x":168369.2200000016,"y":2546276.910000002}},{"attributes":{"ID":255387,"DIS_CODE":0,"TOWNNAME":"北區","LI":"成德里","LIN":"20鄰","STREET":"文成三路","SECT":" ","MAREA":" ","LANE":"２４３巷","ALLEY":" ","HOUSE_NO":"１２號","E_COORD97":168367.32000000001,"N_COORD97":2546283.4199999999,"ADDRESS":"文成三路２４３巷１２號","OBJECTID":255383},"geometry":{"x":168367.31999999937,"y":2546283.4200000018}},{"attributes":{"ID":255388,"DIS_CODE":0,"TOWNNAME":"北區","LI":"成德里","LIN":"20鄰","STREET":"文成三路","SECT":" ","MAREA":" ","LANE":"２４３巷","ALLEY":" ","HOUSE_NO":"１０號","E_COORD97":168365.73000000001,"N_COORD97":2546289.9300000002,"ADDRESS":"文成三路２４３巷１０號","OBJECTID":255384},"geometry":{"x":168365.73000000045,"y":2546289.9300000016}},{"attributes":{"ID":255389,"DIS_CODE":0,"TOWNNAME":"北區","LI":"成德里","LIN":"20鄰","STREET":"文成三路","SECT":" ","MAREA":" ","LANE":"２４３巷","ALLEY":" ","HOUSE_NO":"１號","E_COORD97":168376.67999999999,"N_COORD97":2546314.6899999999,"ADDRESS":"文成三路２４３巷１號","OBJECTID":255385},"geometry":{"x":168376.68000000063,"y":2546314.6900000013}},{"attributes":{"ID":255390,"DIS_CODE":0,"TOWNNAME":"柳營區","LI":"東昇里","LIN":"27鄰","STREET":" ","SECT":" ","MAREA":"柳營","LANE":" ","ALLEY":" ","HOUSE_NO":"５１２之７號","E_COORD97":180603.25,"N_COORD97":2575253.1499999999,"ADDRESS":"柳營５１２之７號","OBJECTID":255386},"geometry":{"x":180603.25,"y":2575253.1500000022}},{"attributes":{"ID":255391,"DIS_CODE":0,"TOWNNAME":"柳營區","LI":"東昇里","LIN":"27鄰","STREET":" ","SECT":" ","MAREA":"柳營","LANE":" ","ALLEY":" ","HOUSE_NO":"５１２號之８０","E_COORD97":180639.41,"N_COORD97":2575293.79,"ADDRESS":"柳營５１２號之８０","OBJECTID":255387},"geometry":{"x":180639.41000000015,"y":2575293.7899999991}},{"attributes":{"ID":255392,"DIS_CODE":0,"TOWNNAME":"柳營區","LI":"東昇里","LIN":"27鄰","STREET":" ","SECT":" ","MAREA":"柳營","LANE":" ","ALLEY":" ","HOUSE_NO":"５１２號之８１","E_COORD97":180635.17999999999,"N_COORD97":2575294.25,"ADDRESS":"柳營５１２號之８１","OBJECTID":255388},"geometry":{"x":180635.1799999997,"y":2575294.25}},{"attributes":{"ID":255393,"DIS_CODE":0,"TOWNNAME":"柳營區","LI":"東昇里","LIN":"27鄰","STREET":" ","SECT":" ","MAREA":"柳營","LANE":" ","ALLEY":" ","HOUSE_NO":"５１２號之８２","E_COORD97":180626.32999999999,"N_COORD97":2575297.5600000001,"ADDRESS":"柳營５１２號之８２","OBJECTID":255389},"geometry":{"x":180626.33000000007,"y":2575297.5600000024}},{"attributes":{"ID":255394,"DIS_CODE":0,"TOWNNAME":"柳營區","LI":"東昇里","LIN":"27鄰","STREET":" ","SECT":" ","MAREA":"柳營","LANE":" ","ALLEY":" ","HOUSE_NO":"５１２號之８","E_COORD97":180603.25,"N_COORD97":2575249.2000000002,"ADDRESS":"柳營５１２號之８","OBJECTID":255390},"geometry":{"x":180603.25,"y":2575249.1999999993}},{"attributes":{"ID":255395,"DIS_CODE":0,"TOWNNAME":"北區","LI":"成德里","LIN":"20鄰","STREET":"文成三路","SECT":" ","MAREA":" ","LANE":"２４３巷","ALLEY":" ","HOUSE_NO":"１５號","E_COORD97":168390.64999999999,"N_COORD97":2546267.3799999999,"ADDRESS":"文成三路２４３巷１５號","OBJECTID":255391},"geometry":{"x":168390.65000000224,"y":2546267.379999999}},{"attributes":{"ID":255396,"DIS_CODE":0,"TOWNNAME":"柳營區","LI":"東昇里","LIN":"27鄰","STREET":" ","SECT":" ","MAREA":"柳營","LANE":" ","ALLEY":" ","HOUSE_NO":"５１２之９號","E_COORD97":180603.25,"N_COORD97":2575245.25,"ADDRESS":"柳營５１２之９號","OBJECTID":255392},"geometry":{"x":180603.25,"y":2575245.2500000019}},{"attributes":{"ID":255397,"DIS_CODE":0,"TOWNNAME":"南區","LI":"白雪里","LIN":"20鄰","STREET":"鹽埕路","SECT":" ","MAREA":" ","LANE":"１６０巷","ALLEY":" ","HOUSE_NO":"１７之１號","E_COORD97":166906.82000000001,"N_COORD97":2541038.9500000002,"ADDRESS":"鹽埕路１６０巷１７之１號","OBJECTID":255393},"geometry":{"x":166906.82000000123,"y":2541038.9499999993}},{"attributes":{"ID":255398,"DIS_CODE":0,"TOWNNAME":"北區","LI":"大道里","LIN":"20鄰","STREET":"和緯路","SECT":"一段","MAREA":" ","LANE":"九六巷","ALLEY":" ","HOUSE_NO":"４２號","E_COORD97":169477.57999999999,"N_COORD97":2545653.1099999999,"ADDRESS":"和緯路一段九六巷４２號","OBJECTID":255394},"geometry":{"x":169477.58000000194,"y":2545653.1099999994}},{"attributes":{"ID":255399,"DIS_CODE":0,"TOWNNAME":"北區","LI":"長榮里","LIN":"20鄰","STREET":"開元路","SECT":" ","MAREA":" ","LANE":"３３３巷","ALLEY":" ","HOUSE_NO":"１號四樓之１","E_COORD97":170211.48999999999,"N_COORD97":2545431.4300000002,"ADDRESS":"開元路３３３巷１號四樓之１","OBJECTID":255395},"geometry":{"x":170211.49000000022,"y":2545431.4300000034}},{"attributes":{"ID":255400,"DIS_CODE":0,"TOWNNAME":"北區","LI":"長榮里","LIN":"20鄰","STREET":"開元路","SECT":" ","MAREA":" ","LANE":"３３３巷","ALLEY":" ","HOUSE_NO":"１號四樓之２","E_COORD97":170211.48999999999,"N_COORD97":2545431.4300000002,"ADDRESS":"開元路３３３巷１號四樓之２","OBJECTID":255396},"geometry":{"x":170211.49000000022,"y":2545431.4300000034}},{"attributes":{"ID":255401,"DIS_CODE":0,"TOWNNAME":"北區","LI":"長榮里","LIN":"20鄰","STREET":"開元路","SECT":" ","MAREA":" ","LANE":"３３３巷","ALLEY":" ","HOUSE_NO":"１號五樓之１","E_COORD97":170211.48999999999,"N_COORD97":2545431.4300000002,"ADDRESS":"開元路３３３巷１號五樓之１","OBJECTID":255397},"geometry":{"x":170211.49000000022,"y":2545431.4300000034}},{"attributes":{"ID":255402,"DIS_CODE":0,"TOWNNAME":"北區","LI":"長榮里","LIN":"20鄰","STREET":"開元路","SECT":" ","MAREA":" ","LANE":"３３３巷","ALLEY":" ","HOUSE_NO":"１號五樓之２","E_COORD97":170211.48999999999,"N_COORD97":2545431.4300000002,"ADDRESS":"開元路３３３巷１號五樓之２","OBJECTID":255398},"geometry":{"x":170211.49000000022,"y":2545431.4300000034}},{"attributes":{"ID":255403,"DIS_CODE":0,"TOWNNAME":"北區","LI":"長榮里","LIN":"20鄰","STREET":"開元路","SECT":" ","MAREA":" ","LANE":"３３３巷","ALLEY":" ","HOUSE_NO":"１號六樓之１","E_COORD97":170211.48999999999,"N_COORD97":2545431.4300000002,"ADDRESS":"開元路３３３巷１號六樓之１","OBJECTID":255399},"geometry":{"x":170211.49000000022,"y":2545431.4300000034}},{"attributes":{"ID":255404,"DIS_CODE":0,"TOWNNAME":"北區","LI":"長榮里","LIN":"20鄰","STREET":"開元路","SECT":" ","MAREA":" ","LANE":"３３３巷","ALLEY":" ","HOUSE_NO":"１號六樓之２","E_COORD97":170211.48999999999,"N_COORD97":2545431.4300000002,"ADDRESS":"開元路３３３巷１號六樓之２","OBJECTID":255400},"geometry":{"x":170211.49000000022,"y":2545431.4300000034}}]}