{"displayFieldName":"TOWNNAME","fieldAliases":{"ID":"ID","DIS_CODE":"DIS_CODE","TOWNNAME":"TOWNNAME","LI":"LI","LIN":"LIN","STREET":"STREET","SECT":"SECT","MAREA":"MAREA","LANE":"LANE","ALLEY":"ALLEY","HOUSE_NO":"HOUSE_NO","E_COORD97":"E_COORD97","N_COORD97":"N_COORD97","ADDRESS":"ADDRESS","OBJECTID":"OBJECTID"},"geometryType":"esriGeometryPoint","spatialReference":{"wkid":102443,"latestWkid":3826},"fields":[{"name":"ID","type":"esriFieldTypeDouble","alias":"ID"},{"name":"DIS_CODE","type":"esriFieldTypeInteger","alias":"DIS_CODE"},{"name":"TOWNNAME","type":"esriFieldTypeString","alias":"TOWNNAME","length":8},{"name":"LI","type":"esriFieldTypeString","alias":"LI","length":8},{"name":"LIN","type":"esriFieldTypeString","alias":"LIN","length":12},{"name":"STREET","type":"esriFieldTypeString","alias":"STREET","length":20},{"name":"SECT","type":"esriFieldTypeString","alias":"SECT","length":8},{"name":"MAREA","type":"esriFieldTypeString","alias":"MAREA","length":12},{"name":"LANE","type":"esriFieldTypeString","alias":"LANE","length":10},{"name":"ALLEY","type":"esriFieldTypeString","alias":"ALLEY","length":10},{"name":"HOUSE_NO","type":"esriFieldTypeString","alias":"HOUSE_NO","length":20},{"name":"E_COORD97","type":"esriFieldTypeDouble","alias":"E_COORD97"},{"name":"N_COORD97","type":"esriFieldTypeDouble","alias":"N_COORD97"},{"name":"ADDRESS","type":"esriFieldTypeString","alias":"ADDRESS","length":50},{"name":"OBJECTID","type":"esriFieldTypeOID","alias":"OBJECTID"}],"features":[{"attributes":{"ID":589028,"DIS_CODE":0,"TOWNNAME":"東區","LI":"泉南里","LIN":"11鄰","STREET":"府連路","SECT":" ","MAREA":" ","LANE":" ","ALLEY":" ","HOUSE_NO":"３３３號","E_COORD97":169596.73999999999,"N_COORD97":2542846.0099999998,"ADDRESS":"府連路３３３號","OBJECTID":589001},"geometry":{"x":169596.74000000022,"y":2542846.0099999998}},{"attributes":{"ID":589029,"DIS_CODE":0,"TOWNNAME":"東區","LI":"泉南里","LIN":"11鄰","STREET":"府連路","SECT":" ","MAREA":" ","LANE":" ","ALLEY":" ","HOUSE_NO":"３３５號","E_COORD97":169601.98999999999,"N_COORD97":2542844.8900000001,"ADDRESS":"府連路３３５號","OBJECTID":589002},"geometry":{"x":169601.99000000209,"y":2542844.8900000006}},{"attributes":{"ID":589030,"DIS_CODE":0,"TOWNNAME":"麻豆區","LI":"東角里","LIN":"11鄰","STREET":"國中街","SECT":" ","MAREA":" ","LANE":" ","ALLEY":" ","HOUSE_NO":"９４號","E_COORD97":173968.62,"N_COORD97":2564555.8599999999,"ADDRESS":"國中街９４號","OBJECTID":589003},"geometry":{"x":173968.62000000104,"y":2564555.8599999994}},{"attributes":{"ID":589031,"DIS_CODE":0,"TOWNNAME":"麻豆區","LI":"東角里","LIN":"11鄰","STREET":"國中街","SECT":" ","MAREA":" ","LANE":" ","ALLEY":" ","HOUSE_NO":"９６號","E_COORD97":173968.89000000001,"N_COORD97":2564550.3999999999,"ADDRESS":"國中街９６號","OBJECTID":589004},"geometry":{"x":173968.89000000153,"y":2564550.3999999985}},{"attributes":{"ID":589032,"DIS_CODE":0,"TOWNNAME":"麻豆區","LI":"東角里","LIN":"11鄰","STREET":"國中街","SECT":" ","MAREA":" ","LANE":" ","ALLEY":" ","HOUSE_NO":"９８號","E_COORD97":173969.35999999999,"N_COORD97":2564546.3300000001,"ADDRESS":"國中街９８號","OBJECTID":589005},"geometry":{"x":173969.36000000034,"y":2564546.3300000001}},{"attributes":{"ID":589033,"DIS_CODE":0,"TOWNNAME":"東區","LI":"中西里","LIN":"11鄰","STREET":"東寧路","SECT":" ","MAREA":" ","LANE":" ","ALLEY":" ","HOUSE_NO":"６號之１","E_COORD97":169860.29999999999,"N_COORD97":2543633.1899999999,"ADDRESS":"東寧路６號之１","OBJECTID":589006},"geometry":{"x":169860.29999999981,"y":2543633.1900000013}},{"attributes":{"ID":589034,"DIS_CODE":0,"TOWNNAME":"麻豆區","LI":"東角里","LIN":"11鄰","STREET":"國中街","SECT":" ","MAREA":" ","LANE":" ","ALLEY":" ","HOUSE_NO":"９０號","E_COORD97":173968.67999999999,"N_COORD97":2564565.0299999998,"ADDRESS":"國中街９０號","OBJECTID":589007},"geometry":{"x":173968.68000000156,"y":2564565.0299999993}},{"attributes":{"ID":589035,"DIS_CODE":0,"TOWNNAME":"安南區","LI":"溪心里","LIN":"11鄰","STREET":"智安四街","SECT":" ","MAREA":" ","LANE":" ","ALLEY":" ","HOUSE_NO":"８號","E_COORD97":166379.01000000001,"N_COORD97":2550066.8399999999,"ADDRESS":"智安四街８號","OBJECTID":589008},"geometry":{"x":166379.01000000071,"y":2550066.8400000036}},{"attributes":{"ID":589036,"DIS_CODE":0,"TOWNNAME":"安南區","LI":"新順里","LIN":"11鄰","STREET":"安豐五街","SECT":" ","MAREA":" ","LANE":" ","ALLEY":" ","HOUSE_NO":"１５２號","E_COORD97":169725.92999999999,"N_COORD97":2549771.4199999999,"ADDRESS":"安豐五街１５２號","OBJECTID":589009},"geometry":{"x":169725.93000000063,"y":2549771.4200000037}},{"attributes":{"ID":589037,"DIS_CODE":0,"TOWNNAME":"白河區","LI":"外角里","LIN":"11鄰","STREET":"三民路","SECT":" ","MAREA":" ","LANE":" ","ALLEY":" ","HOUSE_NO":"１３２號","E_COORD97":191061.87,"N_COORD97":2583300.1899999999,"ADDRESS":"三民路１３２號","OBJECTID":589010},"geometry":{"x":191061.87000000011,"y":2583300.1900000032}},{"attributes":{"ID":589038,"DIS_CODE":0,"TOWNNAME":"永康區","LI":"\u25A0行里","LIN":"11鄰","STREET":"中正路","SECT":" ","MAREA":" ","LANE":" ","ALLEY":" ","HOUSE_NO":"５１３號","E_COORD97":172202.23000000001,"N_COORD97":2548673.7599999998,"ADDRESS":"中正路５１３號","OBJECTID":589011},"geometry":{"x":172202.23000000045,"y":2548673.7600000035}},{"attributes":{"ID":589039,"DIS_CODE":0,"TOWNNAME":"麻豆區","LI":"東角里","LIN":"11鄰","STREET":"國中街","SECT":" ","MAREA":" ","LANE":" ","ALLEY":" ","HOUSE_NO":"１００號","E_COORD97":173969.14000000001,"N_COORD97":2564542.1299999999,"ADDRESS":"國中街１００號","OBJECTID":589012},"geometry":{"x":173969.1400000006,"y":2564542.1300000008}},{"attributes":{"ID":589040,"DIS_CODE":0,"TOWNNAME":"麻豆區","LI":"東角里","LIN":"11鄰","STREET":"國中街","SECT":" ","MAREA":" ","LANE":" ","ALLEY":" ","HOUSE_NO":"１０２號","E_COORD97":173969.47,"N_COORD97":2564537.8599999999,"ADDRESS":"國中街１０２號","OBJECTID":589013},"geometry":{"x":173969.46999999974,"y":2564537.8600000013}},{"attributes":{"ID":589041,"DIS_CODE":0,"TOWNNAME":"麻豆區","LI":"東角里","LIN":"11鄰","STREET":"國中街","SECT":" ","MAREA":" ","LANE":" ","ALLEY":" ","HOUSE_NO":"１０４號","E_COORD97":173969.03,"N_COORD97":2564533.1499999999,"ADDRESS":"國中街１０４號","OBJECTID":589014},"geometry":{"x":173969.03000000119,"y":2564533.1500000022}},{"attributes":{"ID":589042,"DIS_CODE":0,"TOWNNAME":"麻豆區","LI":"東角里","LIN":"11鄰","STREET":"國中街","SECT":" ","MAREA":" ","LANE":" ","ALLEY":" ","HOUSE_NO":"１０６號","E_COORD97":173969.20000000001,"N_COORD97":2564528.1499999999,"ADDRESS":"國中街１０６號","OBJECTID":589015},"geometry":{"x":173969.20000000112,"y":2564528.1500000004}},{"attributes":{"ID":589043,"DIS_CODE":0,"TOWNNAME":"麻豆區","LI":"東角里","LIN":"11鄰","STREET":"國中街","SECT":" ","MAREA":" ","LANE":" ","ALLEY":" ","HOUSE_NO":"１０８號","E_COORD97":173968.95999999999,"N_COORD97":2564524.1899999999,"ADDRESS":"國中街１０８號","OBJECTID":589016},"geometry":{"x":173968.96000000089,"y":2564524.1900000032}},{"attributes":{"ID":589044,"DIS_CODE":0,"TOWNNAME":"麻豆區","LI":"東角里","LIN":"11鄰","STREET":"國中街","SECT":" ","MAREA":" ","LANE":" ","ALLEY":" ","HOUSE_NO":"１１０號","E_COORD97":173968.85000000001,"N_COORD97":2564520.1800000002,"ADDRESS":"國中街１１０號","OBJECTID":589017},"geometry":{"x":173968.84999999963,"y":2564520.1799999997}},{"attributes":{"ID":589045,"DIS_CODE":0,"TOWNNAME":"麻豆區","LI":"東角里","LIN":"11鄰","STREET":"國中街","SECT":" ","MAREA":" ","LANE":" ","ALLEY":" ","HOUSE_NO":"１１２號","E_COORD97":173968.95999999999,"N_COORD97":2564515.2000000002,"ADDRESS":"國中街１１２號","OBJECTID":589018},"geometry":{"x":173968.96000000089,"y":2564515.2000000011}},{"attributes":{"ID":589046,"DIS_CODE":0,"TOWNNAME":"麻豆區","LI":"東角里","LIN":"11鄰","STREET":"國中街","SECT":" ","MAREA":" ","LANE":" ","ALLEY":" ","HOUSE_NO":"１１４號","E_COORD97":173968.76999999999,"N_COORD97":2564511.0800000001,"ADDRESS":"國中街１１４號","OBJECTID":589019},"geometry":{"x":173968.76999999955,"y":2564511.0800000001}},{"attributes":{"ID":589047,"DIS_CODE":0,"TOWNNAME":"麻豆區","LI":"東角里","LIN":"11鄰","STREET":"國中街","SECT":" ","MAREA":" ","LANE":" ","ALLEY":" ","HOUSE_NO":"１２６號之１","E_COORD97":173957.66,"N_COORD97":2564459.1099999999,"ADDRESS":"國中街１２６號之１","OBJECTID":589020},"geometry":{"x":173957.66000000108,"y":2564459.1099999994}},{"attributes":{"ID":589048,"DIS_CODE":0,"TOWNNAME":"麻豆區","LI":"東角里","LIN":"11鄰","STREET":"國中街","SECT":" ","MAREA":" ","LANE":" ","ALLEY":" ","HOUSE_NO":"１２６號之２","E_COORD97":173958.66,"N_COORD97":2564487.7799999998,"ADDRESS":"國中街１２６號之２","OBJECTID":589021},"geometry":{"x":173958.66000000015,"y":2564487.7799999993}},{"attributes":{"ID":589049,"DIS_CODE":0,"TOWNNAME":"麻豆區","LI":"東角里","LIN":"11鄰","STREET":"國中街","SECT":" ","MAREA":" ","LANE":" ","ALLEY":" ","HOUSE_NO":"１２６號之３","E_COORD97":173967.59,"N_COORD97":2564462.6699999999,"ADDRESS":"國中街１２６號之３","OBJECTID":589022},"geometry":{"x":173967.58999999892,"y":2564462.6699999999}},{"attributes":{"ID":589050,"DIS_CODE":0,"TOWNNAME":"麻豆區","LI":"東角里","LIN":"11鄰","STREET":"國中街","SECT":" ","MAREA":" ","LANE":" ","ALLEY":" ","HOUSE_NO":"１２６號","E_COORD97":173948.67999999999,"N_COORD97":2564484.4700000002,"ADDRESS":"國中街１２６號","OBJECTID":589023},"geometry":{"x":173948.68000000063,"y":2564484.4700000007}},{"attributes":{"ID":589051,"DIS_CODE":0,"TOWNNAME":"麻豆區","LI":"東角里","LIN":"11鄰","STREET":"國中街","SECT":" ","MAREA":" ","LANE":" ","ALLEY":" ","HOUSE_NO":"１２８號","E_COORD97":173953.70999999999,"N_COORD97":2564430.7999999998,"ADDRESS":"國中街１２８號","OBJECTID":589024},"geometry":{"x":173953.71000000089,"y":2564430.8000000026}},{"attributes":{"ID":589052,"DIS_CODE":0,"TOWNNAME":"永康區","LI":"\u25A0行里","LIN":"11鄰","STREET":"中正路","SECT":" ","MAREA":" ","LANE":" ","ALLEY":" ","HOUSE_NO":"５１１號","E_COORD97":172205.23000000001,"N_COORD97":2548670.2599999998,"ADDRESS":"中正路５１１號","OBJECTID":589025},"geometry":{"x":172205.23000000138,"y":2548670.2599999979}},{"attributes":{"ID":589053,"DIS_CODE":0,"TOWNNAME":"永康區","LI":"\u25A0行里","LIN":"11鄰","STREET":"中正路","SECT":" ","MAREA":" ","LANE":" ","ALLEY":" ","HOUSE_NO":"５２３號","E_COORD97":172183.70000000001,"N_COORD97":2548692.8300000001,"ADDRESS":"中正路５２３號","OBJECTID":589026},"geometry":{"x":172183.70000000019,"y":2548692.8300000001}},{"attributes":{"ID":589054,"DIS_CODE":0,"TOWNNAME":"永康區","LI":"\u25A0行里","LIN":"11鄰","STREET":"中正路","SECT":" ","MAREA":" ","LANE":" ","ALLEY":" ","HOUSE_NO":"５２１號","E_COORD97":172187.39000000001,"N_COORD97":2548688.3300000001,"ADDRESS":"中正路５２１號","OBJECTID":589027},"geometry":{"x":172187.3900000006,"y":2548688.3300000019}},{"attributes":{"ID":589055,"DIS_CODE":0,"TOWNNAME":"東區","LI":"崇善里","LIN":"6鄰","STREET":"崇善六街","SECT":" ","MAREA":" ","LANE":" ","ALLEY":" ","HOUSE_NO":"５６號","E_COORD97":171150.79000000001,"N_COORD97":2541537.6699999999,"ADDRESS":"崇善六街５６號","OBJECTID":589028},"geometry":{"x":171150.7900000019,"y":2541537.6699999981}},{"attributes":{"ID":589056,"DIS_CODE":0,"TOWNNAME":"東區","LI":"崇善里","LIN":"6鄰","STREET":"崇善六街","SECT":" ","MAREA":" ","LANE":" ","ALLEY":" ","HOUSE_NO":"８號","E_COORD97":171057.16,"N_COORD97":2541494.5,"ADDRESS":"崇善六街８號","OBJECTID":589029},"geometry":{"x":171057.16000000108,"y":2541494.5}},{"attributes":{"ID":589057,"DIS_CODE":0,"TOWNNAME":"永康區","LI":"\u25A0洲里","LIN":"11鄰","STREET":"\u25A0行路","SECT":" ","MAREA":" ","LANE":" ","ALLEY":" ","HOUSE_NO":"１５８號","E_COORD97":171398.12,"N_COORD97":2549225.8500000001,"ADDRESS":"\u25A0行路１５８號","OBJECTID":589030},"geometry":{"x":171398.12000000104,"y":2549225.8500000034}},{"attributes":{"ID":589058,"DIS_CODE":0,"TOWNNAME":"永康區","LI":"\u25A0洲里","LIN":"11鄰","STREET":"\u25A0行路","SECT":" ","MAREA":" ","LANE":" ","ALLEY":" ","HOUSE_NO":"１７０號","E_COORD97":171370.56,"N_COORD97":2549241.3500000001,"ADDRESS":"\u25A0行路１７０號","OBJECTID":589031},"geometry":{"x":171370.56000000145,"y":2549241.3499999996}},{"attributes":{"ID":589059,"DIS_CODE":0,"TOWNNAME":"永康區","LI":"\u25A0洲里","LIN":"11鄰","STREET":"\u25A0行路","SECT":" ","MAREA":" ","LANE":" ","ALLEY":" ","HOUSE_NO":"１３６號","E_COORD97":171463.95000000001,"N_COORD97":2549234.7599999998,"ADDRESS":"\u25A0行路１３６號","OBJECTID":589032},"geometry":{"x":171463.95000000112,"y":2549234.7600000016}},{"attributes":{"ID":589060,"DIS_CODE":0,"TOWNNAME":"永康區","LI":"\u25A0洲里","LIN":"11鄰","STREET":"\u25A0行路","SECT":" ","MAREA":" ","LANE":" ","ALLEY":" ","HOUSE_NO":"１４８號","E_COORD97":171425.37,"N_COORD97":2549223.04,"ADDRESS":"\u25A0行路１４８號","OBJECTID":589033},"geometry":{"x":171425.37000000104,"y":2549223.0399999991}},{"attributes":{"ID":589061,"DIS_CODE":0,"TOWNNAME":"永康區","LI":"\u25A0洲里","LIN":"11鄰","STREET":"\u25A0行路","SECT":" ","MAREA":" ","LANE":" ","ALLEY":" ","HOUSE_NO":"１６８號","E_COORD97":171374.88,"N_COORD97":2549237.3500000001,"ADDRESS":"\u25A0行路１６８號","OBJECTID":589034},"geometry":{"x":171374.87999999989,"y":2549237.3500000015}},{"attributes":{"ID":589062,"DIS_CODE":0,"TOWNNAME":"永康區","LI":"\u25A0洲里","LIN":"11鄰","STREET":"\u25A0行路","SECT":" ","MAREA":" ","LANE":" ","ALLEY":" ","HOUSE_NO":"１５６號","E_COORD97":171402.32000000001,"N_COORD97":2549225.6000000001,"ADDRESS":"\u25A0行路１５６號","OBJECTID":589035},"geometry":{"x":171402.32000000123,"y":2549225.6000000015}},{"attributes":{"ID":589063,"DIS_CODE":0,"TOWNNAME":"永康區","LI":"\u25A0洲里","LIN":"11鄰","STREET":"\u25A0行路","SECT":" ","MAREA":" ","LANE":" ","ALLEY":" ","HOUSE_NO":"１６４號","E_COORD97":171382.54000000001,"N_COORD97":2549230.6000000001,"ADDRESS":"\u25A0行路１６４號","OBJECTID":589036},"geometry":{"x":171382.54000000004,"y":2549230.5999999978}},{"attributes":{"ID":589064,"DIS_CODE":0,"TOWNNAME":"永康區","LI":"\u25A0洲里","LIN":"11鄰","STREET":"\u25A0行路","SECT":" ","MAREA":" ","LANE":" ","ALLEY":" ","HOUSE_NO":"１３５號","E_COORD97":171354.48999999999,"N_COORD97":2549212.3599999999,"ADDRESS":"\u25A0行路１３５號","OBJECTID":589037},"geometry":{"x":171354.49000000022,"y":2549212.3600000013}},{"attributes":{"ID":589065,"DIS_CODE":0,"TOWNNAME":"永康區","LI":"\u25A0洲里","LIN":"11鄰","STREET":"\u25A0行路","SECT":" ","MAREA":" ","LANE":" ","ALLEY":" ","HOUSE_NO":"１２９號","E_COORD97":171374.57999999999,"N_COORD97":2549214.1600000001,"ADDRESS":"\u25A0行路１２９號","OBJECTID":589038},"geometry":{"x":171374.58000000101,"y":2549214.1600000039}},{"attributes":{"ID":589066,"DIS_CODE":0,"TOWNNAME":"永康區","LI":"\u25A0洲里","LIN":"11鄰","STREET":"\u25A0行路","SECT":" ","MAREA":" ","LANE":" ","ALLEY":" ","HOUSE_NO":"１１３號","E_COORD97":171447.88,"N_COORD97":2549209.5,"ADDRESS":"\u25A0行路１１３號","OBJECTID":589039},"geometry":{"x":171447.87999999989,"y":2549209.5000000019}},{"attributes":{"ID":589067,"DIS_CODE":0,"TOWNNAME":"永康區","LI":"\u25A0洲里","LIN":"11鄰","STREET":"\u25A0行路","SECT":" ","MAREA":" ","LANE":" ","ALLEY":" ","HOUSE_NO":"１６６號","E_COORD97":171378.70000000001,"N_COORD97":2549234.1000000001,"ADDRESS":"\u25A0行路１６６號","OBJECTID":589040},"geometry":{"x":171378.70000000205,"y":2549234.1000000034}},{"attributes":{"ID":589068,"DIS_CODE":0,"TOWNNAME":"永康區","LI":"\u25A0洲里","LIN":"11鄰","STREET":"\u25A0行路","SECT":" ","MAREA":" ","LANE":" ","ALLEY":" ","HOUSE_NO":"１４２號","E_COORD97":171450.64999999999,"N_COORD97":2549226.2799999998,"ADDRESS":"\u25A0行路１４２號","OBJECTID":589041},"geometry":{"x":171450.6500000013,"y":2549226.2800000012}},{"attributes":{"ID":589069,"DIS_CODE":0,"TOWNNAME":"東區","LI":"崇善里","LIN":"8鄰","STREET":"崇善七街","SECT":" ","MAREA":" ","LANE":" ","ALLEY":" ","HOUSE_NO":"３４號","E_COORD97":171118.85000000001,"N_COORD97":2541462.79,"ADDRESS":"崇善七街３４號","OBJECTID":589042},"geometry":{"x":171118.84999999963,"y":2541462.790000001}},{"attributes":{"ID":589070,"DIS_CODE":0,"TOWNNAME":"東區","LI":"崇善里","LIN":"8鄰","STREET":"崇善七街","SECT":" ","MAREA":" ","LANE":" ","ALLEY":" ","HOUSE_NO":"３６號","E_COORD97":171122.51000000001,"N_COORD97":2541465.5299999998,"ADDRESS":"崇善七街３６號","OBJECTID":589043},"geometry":{"x":171122.51000000071,"y":2541465.5299999993}},{"attributes":{"ID":589071,"DIS_CODE":0,"TOWNNAME":"東區","LI":"崇善里","LIN":"8鄰","STREET":"崇善七街","SECT":" ","MAREA":" ","LANE":" ","ALLEY":" ","HOUSE_NO":"３８號","E_COORD97":171126.16,"N_COORD97":2541468.27,"ADDRESS":"崇善七街３８號","OBJECTID":589044},"geometry":{"x":171126.16000000015,"y":2541468.2699999996}},{"attributes":{"ID":589072,"DIS_CODE":0,"TOWNNAME":"安南區","LI":"\u25A0南里","LIN":"11鄰","STREET":"環福街","SECT":" ","MAREA":" ","LANE":" ","ALLEY":" ","HOUSE_NO":"１４５號","E_COORD97":170366.48999999999,"N_COORD97":2552520.5600000001,"ADDRESS":"環福街１４５號","OBJECTID":589045},"geometry":{"x":170366.49000000209,"y":2552520.5600000042}},{"attributes":{"ID":589073,"DIS_CODE":0,"TOWNNAME":"安南區","LI":"\u25A0南里","LIN":"11鄰","STREET":"環福街","SECT":" ","MAREA":" ","LANE":" ","ALLEY":" ","HOUSE_NO":"１４７號","E_COORD97":170364.81,"N_COORD97":2552524.1299999999,"ADDRESS":"環福街１４７號","OBJECTID":589046},"geometry":{"x":170364.80999999959,"y":2552524.129999999}},{"attributes":{"ID":589074,"DIS_CODE":0,"TOWNNAME":"安南區","LI":"\u25A0南里","LIN":"11鄰","STREET":"環福街","SECT":" ","MAREA":" ","LANE":" ","ALLEY":" ","HOUSE_NO":"１４９號","E_COORD97":170363.34,"N_COORD97":2552528.3300000001,"ADDRESS":"環福街１４９號","OBJECTID":589047},"geometry":{"x":170363.33999999985,"y":2552528.3299999982}},{"attributes":{"ID":589075,"DIS_CODE":0,"TOWNNAME":"安南區","LI":"\u25A0南里","LIN":"11鄰","STREET":"環福街","SECT":" ","MAREA":" ","LANE":" ","ALLEY":" ","HOUSE_NO":"１５１號","E_COORD97":170361.32000000001,"N_COORD97":2552532.7400000002,"ADDRESS":"環福街１５１號","OBJECTID":589048},"geometry":{"x":170361.32000000123,"y":2552532.7400000039}},{"attributes":{"ID":589076,"DIS_CODE":0,"TOWNNAME":"安南區","LI":"\u25A0南里","LIN":"11鄰","STREET":"環福街","SECT":" ","MAREA":" ","LANE":" ","ALLEY":" ","HOUSE_NO":"１５３號","E_COORD97":170361.73999999999,"N_COORD97":2552540.2999999998,"ADDRESS":"環福街１５３號","OBJECTID":589049},"geometry":{"x":170361.74000000115,"y":2552540.3000000026}},{"attributes":{"ID":589077,"DIS_CODE":0,"TOWNNAME":"安南區","LI":"\u25A0南里","LIN":"11鄰","STREET":"環福街","SECT":" ","MAREA":" ","LANE":" ","ALLEY":" ","HOUSE_NO":"１５５號","E_COORD97":170353.12,"N_COORD97":2552540.9300000002,"ADDRESS":"環福街１５５號","OBJECTID":589050},"geometry":{"x":170353.12000000011,"y":2552540.9300000034}},{"attributes":{"ID":589078,"DIS_CODE":0,"TOWNNAME":"安南區","LI":"\u25A0南里","LIN":"11鄰","STREET":"環福街","SECT":" ","MAREA":" ","LANE":" ","ALLEY":" ","HOUSE_NO":"１５７號","E_COORD97":170347.01999999999,"N_COORD97":2552539.04,"ADDRESS":"環福街１５７號","OBJECTID":589051},"geometry":{"x":170347.02000000142,"y":2552539.0399999991}},{"attributes":{"ID":589079,"DIS_CODE":0,"TOWNNAME":"安南區","LI":"\u25A0南里","LIN":"11鄰","STREET":"環福街","SECT":" ","MAREA":" ","LANE":" ","ALLEY":" ","HOUSE_NO":"１５９號","E_COORD97":170351.01999999999,"N_COORD97":2552555.98,"ADDRESS":"環福街１５９號","OBJECTID":589052},"geometry":{"x":170351.02000000048,"y":2552555.9800000023}},{"attributes":{"ID":589080,"DIS_CODE":0,"TOWNNAME":"安南區","LI":"\u25A0南里","LIN":"11鄰","STREET":"環福街","SECT":" ","MAREA":" ","LANE":" ","ALLEY":" ","HOUSE_NO":"１５９號之１","E_COORD97":170337.98000000001,"N_COORD97":2552557.0299999998,"ADDRESS":"環福街１５９號之１","OBJECTID":589053},"geometry":{"x":170337.98000000231,"y":2552557.0300000031}},{"attributes":{"ID":589081,"DIS_CODE":0,"TOWNNAME":"安南區","LI":"城南里","LIN":"11鄰","STREET":"城西街","SECT":"二段","MAREA":" ","LANE":" ","ALLEY":" ","HOUSE_NO":"１７８號","E_COORD97":159884.16,"N_COORD97":2551074.0800000001,"ADDRESS":"城西街二段１７８號","OBJECTID":589054},"geometry":{"x":159884.16000000108,"y":2551074.0800000001}},{"attributes":{"ID":589082,"DIS_CODE":0,"TOWNNAME":"安南區","LI":"溪心里","LIN":"11鄰","STREET":"智安四街","SECT":" ","MAREA":" ","LANE":" ","ALLEY":" ","HOUSE_NO":"２５號","E_COORD97":166328.82000000001,"N_COORD97":2550063.1200000001,"ADDRESS":"智安四街２５號","OBJECTID":589055},"geometry":{"x":166328.82000000123,"y":2550063.1200000029}},{"attributes":{"ID":589083,"DIS_CODE":0,"TOWNNAME":"安南區","LI":"溪心里","LIN":"11鄰","STREET":"智安四街","SECT":" ","MAREA":" ","LANE":" ","ALLEY":" ","HOUSE_NO":"２７號","E_COORD97":166323.57999999999,"N_COORD97":2550071.71,"ADDRESS":"智安四街２７號","OBJECTID":589056},"geometry":{"x":166323.58000000007,"y":2550071.7100000009}},{"attributes":{"ID":589084,"DIS_CODE":0,"TOWNNAME":"安南區","LI":"溪心里","LIN":"11鄰","STREET":"海佃路","SECT":"三段","MAREA":" ","LANE":" ","ALLEY":" ","HOUSE_NO":"５２之１號","E_COORD97":166301.39999999999,"N_COORD97":2549854.98,"ADDRESS":"海佃路三段５２之１號","OBJECTID":589057},"geometry":{"x":166301.40000000037,"y":2549854.9800000004}},{"attributes":{"ID":589085,"DIS_CODE":0,"TOWNNAME":"安南區","LI":"大安里","LIN":"11鄰","STREET":"大安街","SECT":" ","MAREA":" ","LANE":" ","ALLEY":" ","HOUSE_NO":"２７２號","E_COORD97":167500.60999999999,"N_COORD97":2548454.4500000002,"ADDRESS":"大安街２７２號","OBJECTID":589058},"geometry":{"x":167500.61000000034,"y":2548454.4499999993}},{"attributes":{"ID":589086,"DIS_CODE":0,"TOWNNAME":"安南區","LI":"大安里","LIN":"11鄰","STREET":"理安街","SECT":" ","MAREA":" ","LANE":" ","ALLEY":" ","HOUSE_NO":"２３１號","E_COORD97":167578.26000000001,"N_COORD97":2548386.77,"ADDRESS":"理安街２３１號","OBJECTID":589059},"geometry":{"x":167578.25999999978,"y":2548386.7700000014}},{"attributes":{"ID":589087,"DIS_CODE":0,"TOWNNAME":"安南區","LI":"安西里","LIN":"11鄰","STREET":"安中路","SECT":"一段","MAREA":" ","LANE":" ","ALLEY":" ","HOUSE_NO":"１５號","E_COORD97":169212.87,"N_COORD97":2548191.9900000002,"ADDRESS":"安中路一段１５號","OBJECTID":589060},"geometry":{"x":169212.87000000197,"y":2548191.9900000021}},{"attributes":{"ID":589088,"DIS_CODE":0,"TOWNNAME":"安南區","LI":"安西里","LIN":"11鄰","STREET":"安中路","SECT":"一段","MAREA":" ","LANE":" ","ALLEY":" ","HOUSE_NO":"１３號","E_COORD97":169220.73999999999,"N_COORD97":2548189.1600000001,"ADDRESS":"安中路一段１３號","OBJECTID":589061},"geometry":{"x":169220.74000000115,"y":2548189.1600000001}},{"attributes":{"ID":589089,"DIS_CODE":0,"TOWNNAME":"安南區","LI":"安西里","LIN":"11鄰","STREET":"安中路","SECT":"一段","MAREA":" ","LANE":" ","ALLEY":" ","HOUSE_NO":"３號","E_COORD97":169246.92999999999,"N_COORD97":2548176.46,"ADDRESS":"安中路一段３號","OBJECTID":589062},"geometry":{"x":169246.9299999997,"y":2548176.4600000028}},{"attributes":{"ID":589090,"DIS_CODE":0,"TOWNNAME":"安南區","LI":"安西里","LIN":"11鄰","STREET":"長溪路","SECT":"一段","MAREA":" ","LANE":" ","ALLEY":" ","HOUSE_NO":"２９號","E_COORD97":169212.97,"N_COORD97":2548263.3799999999,"ADDRESS":"長溪路一段２９號","OBJECTID":589063},"geometry":{"x":169212.96999999974,"y":2548263.3800000008}},{"attributes":{"ID":589091,"DIS_CODE":0,"TOWNNAME":"安南區","LI":"安西里","LIN":"11鄰","STREET":"長溪路","SECT":"一段","MAREA":" ","LANE":" ","ALLEY":" ","HOUSE_NO":"３號","E_COORD97":169243.04000000001,"N_COORD97":2548214.6899999999,"ADDRESS":"長溪路一段３號","OBJECTID":589064},"geometry":{"x":169243.04000000004,"y":2548214.6899999995}},{"attributes":{"ID":589092,"DIS_CODE":0,"TOWNNAME":"安南區","LI":"安西里","LIN":"11鄰","STREET":"長溪路","SECT":"一段","MAREA":" ","LANE":" ","ALLEY":" ","HOUSE_NO":"１號","E_COORD97":169245.09,"N_COORD97":2548209.4300000002,"ADDRESS":"長溪路一段１號","OBJECTID":589065},"geometry":{"x":169245.09000000078,"y":2548209.4300000016}},{"attributes":{"ID":589093,"DIS_CODE":0,"TOWNNAME":"善化區","LI":"坐駕里","LIN":"11鄰","STREET":"自強路","SECT":" ","MAREA":" ","LANE":" ","ALLEY":" ","HOUSE_NO":"１３０號","E_COORD97":177944.54000000001,"N_COORD97":2558711,"ADDRESS":"自強路１３０號","OBJECTID":589066},"geometry":{"x":177944.54000000004,"y":2558711}},{"attributes":{"ID":589094,"DIS_CODE":0,"TOWNNAME":"善化區","LI":"南關里","LIN":"11鄰","STREET":"復興街","SECT":" ","MAREA":" ","LANE":" ","ALLEY":" ","HOUSE_NO":"４３號","E_COORD97":177056.39999999999,"N_COORD97":2559004.2599999998,"ADDRESS":"復興街４３號","OBJECTID":589067},"geometry":{"x":177056.39999999944,"y":2559004.2600000035}},{"attributes":{"ID":589095,"DIS_CODE":0,"TOWNNAME":"善化區","LI":"南關里","LIN":"11鄰","STREET":"復興街","SECT":" ","MAREA":" ","LANE":" ","ALLEY":" ","HOUSE_NO":"５１號","E_COORD97":177014.97,"N_COORD97":2558993.5099999998,"ADDRESS":"復興街５１號","OBJECTID":589068},"geometry":{"x":177014.97000000067,"y":2558993.5100000016}},{"attributes":{"ID":589096,"DIS_CODE":0,"TOWNNAME":"善化區","LI":"南關里","LIN":"11鄰","STREET":"復興街","SECT":" ","MAREA":" ","LANE":" ","ALLEY":" ","HOUSE_NO":"４７號之１","E_COORD97":177028.42999999999,"N_COORD97":2559040.02,"ADDRESS":"復興街４７號之１","OBJECTID":589069},"geometry":{"x":177028.43000000156,"y":2559040.0200000014}},{"attributes":{"ID":589097,"DIS_CODE":0,"TOWNNAME":"善化區","LI":"坐駕里","LIN":"11鄰","STREET":"自強路","SECT":" ","MAREA":" ","LANE":" ","ALLEY":" ","HOUSE_NO":"１３９號","E_COORD97":177917.29000000001,"N_COORD97":2558688.5,"ADDRESS":"自強路１３９號","OBJECTID":589070},"geometry":{"x":177917.29000000004,"y":2558688.5000000019}},{"attributes":{"ID":589098,"DIS_CODE":0,"TOWNNAME":"善化區","LI":"坐駕里","LIN":"11鄰","STREET":"自強路","SECT":" ","MAREA":" ","LANE":" ","ALLEY":" ","HOUSE_NO":"１３３號","E_COORD97":177932.79999999999,"N_COORD97":2558692,"ADDRESS":"自強路１３３號","OBJECTID":589071},"geometry":{"x":177932.79999999981,"y":2558692.0000000019}},{"attributes":{"ID":589099,"DIS_CODE":0,"TOWNNAME":"善化區","LI":"東關里","LIN":"11鄰","STREET":"中興路","SECT":" ","MAREA":" ","LANE":" ","ALLEY":" ","HOUSE_NO":"１３７號","E_COORD97":177360.31,"N_COORD97":2559028.5,"ADDRESS":"中興路１３７號","OBJECTID":589072},"geometry":{"x":177360.31000000052,"y":2559028.5}},{"attributes":{"ID":589100,"DIS_CODE":0,"TOWNNAME":"善化區","LI":"東關里","LIN":"11鄰","STREET":"中興路","SECT":" ","MAREA":" ","LANE":" ","ALLEY":" ","HOUSE_NO":"１１６號","E_COORD97":177393.22,"N_COORD97":2559043,"ADDRESS":"中興路１１６號","OBJECTID":589073},"geometry":{"x":177393.22000000067,"y":2559043}},{"attributes":{"ID":589101,"DIS_CODE":0,"TOWNNAME":"善化區","LI":"南關里","LIN":"11鄰","STREET":"復興街","SECT":" ","MAREA":" ","LANE":" ","ALLEY":" ","HOUSE_NO":"４１之３號","E_COORD97":177042.51000000001,"N_COORD97":2559040.27,"ADDRESS":"復興街４１之３號","OBJECTID":589074},"geometry":{"x":177042.50999999978,"y":2559040.2699999996}},{"attributes":{"ID":589102,"DIS_CODE":0,"TOWNNAME":"善化區","LI":"坐駕里","LIN":"11鄰","STREET":"自強路","SECT":" ","MAREA":" ","LANE":" ","ALLEY":" ","HOUSE_NO":"１４１號","E_COORD97":177913.25,"N_COORD97":2558688,"ADDRESS":"自強路１４１號","OBJECTID":589075},"geometry":{"x":177913.25000000186,"y":2558688.0000000019}},{"attributes":{"ID":589103,"DIS_CODE":0,"TOWNNAME":"善化區","LI":"南關里","LIN":"11鄰","STREET":"復興街","SECT":" ","MAREA":" ","LANE":" ","ALLEY":" ","HOUSE_NO":"５１號之３","E_COORD97":177015.53,"N_COORD97":2559014.52,"ADDRESS":"復興街５１號之３","OBJECTID":589076},"geometry":{"x":177015.53000000119,"y":2559014.5199999996}},{"attributes":{"ID":589104,"DIS_CODE":0,"TOWNNAME":"善化區","LI":"坐駕里","LIN":"11鄰","STREET":"自強路","SECT":" ","MAREA":" ","LANE":" ","ALLEY":" ","HOUSE_NO":"１３６號","E_COORD97":177931.72,"N_COORD97":2558709,"ADDRESS":"自強路１３６號","OBJECTID":589077},"geometry":{"x":177931.7200000016,"y":2558709.0000000019}},{"attributes":{"ID":589105,"DIS_CODE":0,"TOWNNAME":"善化區","LI":"東關里","LIN":"11鄰","STREET":"中興路","SECT":" ","MAREA":" ","LANE":" ","ALLEY":" ","HOUSE_NO":"１４１號（９８．１０","E_COORD97":177352.34,"N_COORD97":2559032.75,"ADDRESS":"中興路１４１號（９８．１０月重建）","OBJECTID":589078},"geometry":{"x":177352.33999999985,"y":2559032.7500000019}},{"attributes":{"ID":589106,"DIS_CODE":0,"TOWNNAME":"善化區","LI":"東關里","LIN":"11鄰","STREET":"中山路","SECT":" ","MAREA":" ","LANE":" ","ALLEY":" ","HOUSE_NO":"３９７號","E_COORD97":177392.51000000001,"N_COORD97":2559098.25,"ADDRESS":"中山路３９７號","OBJECTID":589079},"geometry":{"x":177392.51000000164,"y":2559098.25}},{"attributes":{"ID":589107,"DIS_CODE":0,"TOWNNAME":"善化區","LI":"東關里","LIN":"11鄰","STREET":"中興路","SECT":" ","MAREA":" ","LANE":" ","ALLEY":" ","HOUSE_NO":"１１２號","E_COORD97":177401.37,"N_COORD97":2559041.75,"ADDRESS":"中興路１１２號","OBJECTID":589080},"geometry":{"x":177401.37000000104,"y":2559041.7499999981}},{"attributes":{"ID":589108,"DIS_CODE":0,"TOWNNAME":"善化區","LI":"東關里","LIN":"11鄰","STREET":"中山路","SECT":" ","MAREA":" ","LANE":" ","ALLEY":" ","HOUSE_NO":"３９９號","E_COORD97":177388.64999999999,"N_COORD97":2559098.5,"ADDRESS":"中山路３９９號","OBJECTID":589081},"geometry":{"x":177388.64999999944,"y":2559098.5000000019}},{"attributes":{"ID":589109,"DIS_CODE":0,"TOWNNAME":"善化區","LI":"東關里","LIN":"11鄰","STREET":"中興路","SECT":" ","MAREA":" ","LANE":" ","ALLEY":" ","HOUSE_NO":"１１０號","E_COORD97":177406.22,"N_COORD97":2559041,"ADDRESS":"中興路１１０號","OBJECTID":589082},"geometry":{"x":177406.2200000016,"y":2559041.0000000019}},{"attributes":{"ID":589110,"DIS_CODE":0,"TOWNNAME":"善化區","LI":"南關里","LIN":"11鄰","STREET":"復興街","SECT":" ","MAREA":" ","LANE":" ","ALLEY":" ","HOUSE_NO":"４５號","E_COORD97":177043.59,"N_COORD97":2558993.0099999998,"ADDRESS":"復興街４５號","OBJECTID":589083},"geometry":{"x":177043.59000000078,"y":2558993.0100000016}},{"attributes":{"ID":589111,"DIS_CODE":0,"TOWNNAME":"善化區","LI":"南關里","LIN":"11鄰","STREET":"復興街","SECT":" ","MAREA":" ","LANE":" ","ALLEY":" ","HOUSE_NO":"４１號","E_COORD97":177050.78,"N_COORD97":2559019.0099999998,"ADDRESS":"復興街４１號","OBJECTID":589084},"geometry":{"x":177050.78000000119,"y":2559019.0099999998}},{"attributes":{"ID":589112,"DIS_CODE":0,"TOWNNAME":"善化區","LI":"東關里","LIN":"11鄰","STREET":"中興路","SECT":" ","MAREA":" ","LANE":" ","ALLEY":" ","HOUSE_NO":"１２６號","E_COORD97":177374.03,"N_COORD97":2559039.75,"ADDRESS":"中興路１２６號","OBJECTID":589085},"geometry":{"x":177374.03000000026,"y":2559039.7500000019}},{"attributes":{"ID":589113,"DIS_CODE":0,"TOWNNAME":"善化區","LI":"西關里","LIN":"11鄰","STREET":"自由路","SECT":" ","MAREA":" ","LANE":" ","ALLEY":" ","HOUSE_NO":"２５８號","E_COORD97":176871.09,"N_COORD97":2559086,"ADDRESS":"自由路２５８號","OBJECTID":589086},"geometry":{"x":176871.08999999985,"y":2559086.0000000019}},{"attributes":{"ID":589114,"DIS_CODE":0,"TOWNNAME":"善化區","LI":"坐駕里","LIN":"11鄰","STREET":"自強路","SECT":" ","MAREA":" ","LANE":" ","ALLEY":" ","HOUSE_NO":"１３１號","E_COORD97":177937.54999999999,"N_COORD97":2558692,"ADDRESS":"自強路１３１號","OBJECTID":589087},"geometry":{"x":177937.54999999981,"y":2558692.0000000019}},{"attributes":{"ID":589115,"DIS_CODE":0,"TOWNNAME":"善化區","LI":"坐駕里","LIN":"11鄰","STREET":"自強路","SECT":" ","MAREA":" ","LANE":" ","ALLEY":" ","HOUSE_NO":"１３８號","E_COORD97":177927.63,"N_COORD97":2558708.25,"ADDRESS":"自強路１３８號","OBJECTID":589088},"geometry":{"x":177927.63000000082,"y":2558708.25}},{"attributes":{"ID":589116,"DIS_CODE":0,"TOWNNAME":"善化區","LI":"光文里","LIN":"11鄰","STREET":"民權路","SECT":" ","MAREA":" ","LANE":" ","ALLEY":" ","HOUSE_NO":"５９號","E_COORD97":178605.07000000001,"N_COORD97":2559054.0099999998,"ADDRESS":"民權路５９號","OBJECTID":589089},"geometry":{"x":178605.07000000123,"y":2559054.0100000016}},{"attributes":{"ID":589117,"DIS_CODE":0,"TOWNNAME":"善化區","LI":"西關里","LIN":"11鄰","STREET":"自由路","SECT":" ","MAREA":" ","LANE":" ","ALLEY":" ","HOUSE_NO":"２６０號","E_COORD97":176870.98999999999,"N_COORD97":2559091.5,"ADDRESS":"自由路２６０號","OBJECTID":589090},"geometry":{"x":176870.99000000209,"y":2559091.5000000019}},{"attributes":{"ID":589118,"DIS_CODE":0,"TOWNNAME":"善化區","LI":"西關里","LIN":"11鄰","STREET":"自由路","SECT":" ","MAREA":" ","LANE":" ","ALLEY":" ","HOUSE_NO":"２３８號","E_COORD97":176872.26999999999,"N_COORD97":2559036.5,"ADDRESS":"自由路２３８號","OBJECTID":589091},"geometry":{"x":176872.27000000048,"y":2559036.5}},{"attributes":{"ID":589119,"DIS_CODE":0,"TOWNNAME":"善化區","LI":"坐駕里","LIN":"11鄰","STREET":"自強路","SECT":" ","MAREA":" ","LANE":" ","ALLEY":" ","HOUSE_NO":"１１８號","E_COORD97":177969.92999999999,"N_COORD97":2558715,"ADDRESS":"自強路１１８號","OBJECTID":589092},"geometry":{"x":177969.93000000063,"y":2558715.0000000037}},{"attributes":{"ID":589120,"DIS_CODE":0,"TOWNNAME":"善化區","LI":"坐駕里","LIN":"11鄰","STREET":"自強路","SECT":" ","MAREA":" ","LANE":" ","ALLEY":" ","HOUSE_NO":"１２２號","E_COORD97":177961.47,"N_COORD97":2558713.5,"ADDRESS":"自強路１２２號","OBJECTID":589093},"geometry":{"x":177961.46999999974,"y":2558713.5}},{"attributes":{"ID":589121,"DIS_CODE":0,"TOWNNAME":"善化區","LI":"光文里","LIN":"11鄰","STREET":"民權路","SECT":" ","MAREA":" ","LANE":" ","ALLEY":" ","HOUSE_NO":"９５號","E_COORD97":178527.07000000001,"N_COORD97":2559041.5099999998,"ADDRESS":"民權路９５號","OBJECTID":589094},"geometry":{"x":178527.07000000123,"y":2559041.5100000016}},{"attributes":{"ID":589122,"DIS_CODE":0,"TOWNNAME":"善化區","LI":"光文里","LIN":"11鄰","STREET":"民權路","SECT":" ","MAREA":" ","LANE":" ","ALLEY":" ","HOUSE_NO":"８３號","E_COORD97":178554.17999999999,"N_COORD97":2559046.0099999998,"ADDRESS":"民權路８３號","OBJECTID":589095},"geometry":{"x":178554.18000000156,"y":2559046.0099999998}},{"attributes":{"ID":589123,"DIS_CODE":0,"TOWNNAME":"善化區","LI":"西關里","LIN":"11鄰","STREET":"復興街","SECT":" ","MAREA":" ","LANE":" ","ALLEY":" ","HOUSE_NO":"４６之１０號","E_COORD97":176971.14999999999,"N_COORD97":2559072.27,"ADDRESS":"復興街４６之１０號","OBJECTID":589096},"geometry":{"x":176971.15000000037,"y":2559072.2700000014}},{"attributes":{"ID":589124,"DIS_CODE":0,"TOWNNAME":"善化區","LI":"光文里","LIN":"11鄰","STREET":"民權路","SECT":" ","MAREA":" ","LANE":" ","ALLEY":" ","HOUSE_NO":"６０號","E_COORD97":178606.35999999999,"N_COORD97":2559077.5099999998,"ADDRESS":"民權路６０號","OBJECTID":589097},"geometry":{"x":178606.36000000127,"y":2559077.5100000016}},{"attributes":{"ID":589125,"DIS_CODE":0,"TOWNNAME":"善化區","LI":"北關里","LIN":"11鄰","STREET":"文正路","SECT":" ","MAREA":" ","LANE":" ","ALLEY":" ","HOUSE_NO":"１６號","E_COORD97":177185.85999999999,"N_COORD97":2559308.2799999998,"ADDRESS":"文正路１６號","OBJECTID":589098},"geometry":{"x":177185.86000000127,"y":2559308.2799999993}},{"attributes":{"ID":589126,"DIS_CODE":0,"TOWNNAME":"善化區","LI":"坐駕里","LIN":"11鄰","STREET":"自強路","SECT":" ","MAREA":" ","LANE":" ","ALLEY":" ","HOUSE_NO":"１２０號","E_COORD97":177965.63,"N_COORD97":2558714.25,"ADDRESS":"自強路１２０號","OBJECTID":589099},"geometry":{"x":177965.62999999989,"y":2558714.2500000019}},{"attributes":{"ID":589127,"DIS_CODE":0,"TOWNNAME":"善化區","LI":"西關里","LIN":"11鄰","STREET":"復興街","SECT":" ","MAREA":" ","LANE":" ","ALLEY":" ","HOUSE_NO":"５４號","E_COORD97":176920.64999999999,"N_COORD97":2559042.0099999998,"ADDRESS":"復興街５４號","OBJECTID":589100},"geometry":{"x":176920.65000000037,"y":2559042.0099999998}},{"attributes":{"ID":589128,"DIS_CODE":0,"TOWNNAME":"善化區","LI":"光文里","LIN":"11鄰","STREET":"民權路","SECT":" ","MAREA":" ","LANE":" ","ALLEY":" ","HOUSE_NO":"８５號","E_COORD97":178550.07000000001,"N_COORD97":2559045.2599999998,"ADDRESS":"民權路８５號","OBJECTID":589101},"geometry":{"x":178550.0700000003,"y":2559045.2600000035}},{"attributes":{"ID":589129,"DIS_CODE":0,"TOWNNAME":"善化區","LI":"光文里","LIN":"11鄰","STREET":"民權路","SECT":" ","MAREA":" ","LANE":" ","ALLEY":" ","HOUSE_NO":"７７號","E_COORD97":178566.51999999999,"N_COORD97":2559048.0099999998,"ADDRESS":"民權路７７號","OBJECTID":589102},"geometry":{"x":178566.51999999955,"y":2559048.0100000016}},{"attributes":{"ID":589130,"DIS_CODE":0,"TOWNNAME":"善化區","LI":"坐駕里","LIN":"11鄰","STREET":"自強路","SECT":" ","MAREA":" ","LANE":" ","ALLEY":" ","HOUSE_NO":"１２６號","E_COORD97":177952.88,"N_COORD97":2558712.25,"ADDRESS":"自強路１２６號","OBJECTID":589103},"geometry":{"x":177952.88000000175,"y":2558712.25}},{"attributes":{"ID":589131,"DIS_CODE":0,"TOWNNAME":"永康區","LI":"龍潭里","LIN":"11鄰","STREET":"龍橋街","SECT":" ","MAREA":" ","LANE":" ","ALLEY":" ","HOUSE_NO":"１３號","E_COORD97":174857.64999999999,"N_COORD97":2548310.7000000002,"ADDRESS":"龍橋街１３號","OBJECTID":589104},"geometry":{"x":174857.65000000037,"y":2548310.6999999974}},{"attributes":{"ID":589132,"DIS_CODE":0,"TOWNNAME":"麻豆區","LI":"穀興里","LIN":"11鄰","STREET":"中山路","SECT":" ","MAREA":" ","LANE":" ","ALLEY":" ","HOUSE_NO":"１２號","E_COORD97":173022.85000000001,"N_COORD97":2564833.8700000001,"ADDRESS":"中山路１２號","OBJECTID":589105},"geometry":{"x":173022.84999999963,"y":2564833.8700000029}},{"attributes":{"ID":589133,"DIS_CODE":0,"TOWNNAME":"中西區","LI":"法華里","LIN":"11鄰","STREET":"府連路","SECT":" ","MAREA":" ","LANE":" ","ALLEY":" ","HOUSE_NO":"７號","E_COORD97":168954.23999999999,"N_COORD97":2542468.71,"ADDRESS":"府連路７號","OBJECTID":589106},"geometry":{"x":168954.24000000022,"y":2542468.7100000028}},{"attributes":{"ID":589134,"DIS_CODE":0,"TOWNNAME":"中西區","LI":"法華里","LIN":"11鄰","STREET":"府連路","SECT":" ","MAREA":" ","LANE":" ","ALLEY":" ","HOUSE_NO":"９號","E_COORD97":168955.81,"N_COORD97":2542472.2400000002,"ADDRESS":"府連路９號","OBJECTID":589107},"geometry":{"x":168955.80999999959,"y":2542472.2400000002}},{"attributes":{"ID":589135,"DIS_CODE":0,"TOWNNAME":"永康區","LI":"正強里","LIN":"11鄰","STREET":"正強街","SECT":" ","MAREA":" ","LANE":" ","ALLEY":" ","HOUSE_NO":"１３８號","E_COORD97":173343.82999999999,"N_COORD97":2547447.4199999999,"ADDRESS":"正強街１３８號","OBJECTID":589108},"geometry":{"x":173343.83000000007,"y":2547447.4199999999}},{"attributes":{"ID":589136,"DIS_CODE":0,"TOWNNAME":"東區","LI":"復興里","LIN":"11鄰","STREET":"裕忠路","SECT":" ","MAREA":" ","LANE":" ","ALLEY":" ","HOUSE_NO":"２７０號","E_COORD97":172241.10000000001,"N_COORD97":2542519.8500000001,"ADDRESS":"裕忠路２７０號","OBJECTID":589109},"geometry":{"x":172241.09999999963,"y":2542519.8500000015}},{"attributes":{"ID":589137,"DIS_CODE":0,"TOWNNAME":"東區","LI":"崇德里","LIN":"11鄰","STREET":"崇德路","SECT":" ","MAREA":" ","LANE":" ","ALLEY":" ","HOUSE_NO":"５７５號","E_COORD97":170803.54000000001,"N_COORD97":2541476.2999999998,"ADDRESS":"崇德路５７５號","OBJECTID":589110},"geometry":{"x":170803.54000000097,"y":2541476.3000000007}},{"attributes":{"ID":589138,"DIS_CODE":0,"TOWNNAME":"東區","LI":"崇成里","LIN":"11鄰","STREET":"崇德路","SECT":" ","MAREA":" ","LANE":" ","ALLEY":" ","HOUSE_NO":"６２３號之１","E_COORD97":170801.60260300001,"N_COORD97":2541321.2868300001,"ADDRESS":"崇德路６２３號之１","OBJECTID":589111},"geometry":{"x":170801.60260299966,"y":2541321.2868349999}},{"attributes":{"ID":589139,"DIS_CODE":0,"TOWNNAME":"東區","LI":"崇成里","LIN":"11鄰","STREET":"崇德路","SECT":" ","MAREA":" ","LANE":" ","ALLEY":" ","HOUSE_NO":"６３１號","E_COORD97":170808.23000000001,"N_COORD97":2541288.4300000002,"ADDRESS":"崇德路６３１號","OBJECTID":589112},"geometry":{"x":170808.23000000138,"y":2541288.4300000034}},{"attributes":{"ID":589140,"DIS_CODE":0,"TOWNNAME":"東區","LI":"崇成里","LIN":"11鄰","STREET":"崇德路","SECT":" ","MAREA":" ","LANE":" ","ALLEY":" ","HOUSE_NO":"６３３號","E_COORD97":170808.31,"N_COORD97":2541283.8500000001,"ADDRESS":"崇德路６３３號","OBJECTID":589113},"geometry":{"x":170808.31000000052,"y":2541283.8499999996}},{"attributes":{"ID":589141,"DIS_CODE":0,"TOWNNAME":"東區","LI":"崇成里","LIN":"11鄰","STREET":"崇德路","SECT":" ","MAREA":" ","LANE":" ","ALLEY":" ","HOUSE_NO":"６３５號","E_COORD97":170808.31,"N_COORD97":2541279.6800000002,"ADDRESS":"崇德路６３５號","OBJECTID":589114},"geometry":{"x":170808.31000000052,"y":2541279.6799999978}},{"attributes":{"ID":589142,"DIS_CODE":0,"TOWNNAME":"東區","LI":"崇成里","LIN":"11鄰","STREET":"崇德路","SECT":" ","MAREA":" ","LANE":" ","ALLEY":" ","HOUSE_NO":"６３７號","E_COORD97":170808.39000000001,"N_COORD97":2541275.1000000001,"ADDRESS":"崇德路６３７號","OBJECTID":589115},"geometry":{"x":170808.38999999966,"y":2541275.1000000015}},{"attributes":{"ID":589143,"DIS_CODE":0,"TOWNNAME":"東區","LI":"崇成里","LIN":"11鄰","STREET":"崇德路","SECT":" ","MAREA":" ","LANE":" ","ALLEY":" ","HOUSE_NO":"６３９號","E_COORD97":170808.48000000001,"N_COORD97":2541270.52,"ADDRESS":"崇德路６３９號","OBJECTID":589116},"geometry":{"x":170808.48000000045,"y":2541270.5200000033}},{"attributes":{"ID":589144,"DIS_CODE":0,"TOWNNAME":"東區","LI":"崇成里","LIN":"11鄰","STREET":"崇德路","SECT":" ","MAREA":" ","LANE":" ","ALLEY":" ","HOUSE_NO":"６４１號","E_COORD97":170808.48000000001,"N_COORD97":2541265.6099999999,"ADDRESS":"崇德路６４１號","OBJECTID":589117},"geometry":{"x":170808.48000000045,"y":2541265.6099999994}},{"attributes":{"ID":589145,"DIS_CODE":0,"TOWNNAME":"東區","LI":"崇成里","LIN":"11鄰","STREET":"崇德路","SECT":" ","MAREA":" ","LANE":" ","ALLEY":" ","HOUSE_NO":"６４３號","E_COORD97":170808.64000000001,"N_COORD97":2541261.1099999999,"ADDRESS":"崇德路６４３號","OBJECTID":589118},"geometry":{"x":170808.63999999966,"y":2541261.1100000013}},{"attributes":{"ID":589146,"DIS_CODE":0,"TOWNNAME":"東區","LI":"崇成里","LIN":"11鄰","STREET":"崇德路","SECT":" ","MAREA":" ","LANE":" ","ALLEY":" ","HOUSE_NO":"６４５號","E_COORD97":170808.73000000001,"N_COORD97":2541256.6899999999,"ADDRESS":"崇德路６４５號","OBJECTID":589119},"geometry":{"x":170808.73000000045,"y":2541256.6900000013}},{"attributes":{"ID":589147,"DIS_CODE":0,"TOWNNAME":"東區","LI":"崇成里","LIN":"11鄰","STREET":"崇德路","SECT":" ","MAREA":" ","LANE":" ","ALLEY":" ","HOUSE_NO":"６４７號","E_COORD97":170808.23000000001,"N_COORD97":2541251.8599999999,"ADDRESS":"崇德路６４７號","OBJECTID":589120},"geometry":{"x":170808.23000000138,"y":2541251.8600000013}},{"attributes":{"ID":589148,"DIS_CODE":0,"TOWNNAME":"東區","LI":"崇成里","LIN":"11鄰","STREET":"崇德路","SECT":" ","MAREA":" ","LANE":" ","ALLEY":" ","HOUSE_NO":"６４９號","E_COORD97":170808.31,"N_COORD97":2541247.8599999999,"ADDRESS":"崇德路６４９號","OBJECTID":589121},"geometry":{"x":170808.31000000052,"y":2541247.8600000031}},{"attributes":{"ID":589149,"DIS_CODE":0,"TOWNNAME":"東區","LI":"崇成里","LIN":"11鄰","STREET":"崇德路","SECT":" ","MAREA":" ","LANE":" ","ALLEY":" ","HOUSE_NO":"６５７號","E_COORD97":170803.891344,"N_COORD97":2541230.42552,"ADDRESS":"崇德路６５７號","OBJECTID":589122},"geometry":{"x":170803.89134400059,"y":2541230.4255170021}},{"attributes":{"ID":589150,"DIS_CODE":0,"TOWNNAME":"東區","LI":"崇成里","LIN":"11鄰","STREET":"崇德十五街","SECT":" ","MAREA":" ","LANE":" ","ALLEY":" ","HOUSE_NO":"１０１號","E_COORD97":171064.13,"N_COORD97":2541217.8100000001,"ADDRESS":"崇德十五街１０１號","OBJECTID":589123},"geometry":{"x":171064.13000000082,"y":2541217.8100000005}},{"attributes":{"ID":589151,"DIS_CODE":0,"TOWNNAME":"東區","LI":"崇成里","LIN":"11鄰","STREET":"崇德十五街","SECT":" ","MAREA":" ","LANE":" ","ALLEY":" ","HOUSE_NO":"１號","E_COORD97":170828.23000000001,"N_COORD97":2541201.8900000001,"ADDRESS":"崇德十五街１號","OBJECTID":589124},"geometry":{"x":170828.23000000138,"y":2541201.8900000025}},{"attributes":{"ID":589152,"DIS_CODE":0,"TOWNNAME":"東區","LI":"崇成里","LIN":"11鄰","STREET":"崇德十五街","SECT":" ","MAREA":" ","LANE":" ","ALLEY":" ","HOUSE_NO":"５１號","E_COORD97":170933.48999999999,"N_COORD97":2541202.4300000002,"ADDRESS":"崇德十五街５１號","OBJECTID":589125},"geometry":{"x":170933.49000000115,"y":2541202.4299999997}},{"attributes":{"ID":589153,"DIS_CODE":0,"TOWNNAME":"東區","LI":"崇成里","LIN":"11鄰","STREET":"崇德十五街","SECT":" ","MAREA":" ","LANE":" ","ALLEY":" ","HOUSE_NO":"５３號","E_COORD97":170938.03,"N_COORD97":2541202.54,"ADDRESS":"崇德十五街５３號","OBJECTID":589126},"geometry":{"x":170938.03000000119,"y":2541202.540000001}},{"attributes":{"ID":589154,"DIS_CODE":0,"TOWNNAME":"東區","LI":"崇成里","LIN":"11鄰","STREET":"崇德十五街","SECT":" ","MAREA":" ","LANE":" ","ALLEY":" ","HOUSE_NO":"５９號","E_COORD97":170953.73000000001,"N_COORD97":2541203.1899999999,"ADDRESS":"崇德十五街５９號","OBJECTID":589127},"geometry":{"x":170953.73000000138,"y":2541203.1900000013}},{"attributes":{"ID":589155,"DIS_CODE":0,"TOWNNAME":"東區","LI":"崇成里","LIN":"11鄰","STREET":"崇德十五街","SECT":" ","MAREA":" ","LANE":" ","ALLEY":" ","HOUSE_NO":"６３號","E_COORD97":170983.72,"N_COORD97":2541201.8199999998,"ADDRESS":"崇德十五街６３號","OBJECTID":589128},"geometry":{"x":170983.72000000067,"y":2541201.820000004}},{"attributes":{"ID":589156,"DIS_CODE":0,"TOWNNAME":"東區","LI":"崇文里","LIN":"11鄰","STREET":"崇德十八街","SECT":" ","MAREA":" ","LANE":" ","ALLEY":" ","HOUSE_NO":"７４號","E_COORD97":170993.84,"N_COORD97":2541005.5600000001,"ADDRESS":"崇德十八街７４號","OBJECTID":589129},"geometry":{"x":170993.83999999985,"y":2541005.5600000005}},{"attributes":{"ID":589157,"DIS_CODE":0,"TOWNNAME":"東區","LI":"崇文里","LIN":"11鄰","STREET":"崇德十八街","SECT":" ","MAREA":" ","LANE":" ","ALLEY":" ","HOUSE_NO":"７６號","E_COORD97":170997.32999999999,"N_COORD97":2541021.0699999998,"ADDRESS":"崇德十八街７６號","OBJECTID":589130},"geometry":{"x":170997.33000000007,"y":2541021.0700000022}},{"attributes":{"ID":589158,"DIS_CODE":0,"TOWNNAME":"東區","LI":"崇文里","LIN":"11鄰","STREET":"崇德十八街","SECT":" ","MAREA":" ","LANE":" ","ALLEY":" ","HOUSE_NO":"７８號","E_COORD97":171004.70000000001,"N_COORD97":2541020.9700000002,"ADDRESS":"崇德十八街７８號","OBJECTID":589131},"geometry":{"x":171004.70000000112,"y":2541020.9700000007}},{"attributes":{"ID":589159,"DIS_CODE":0,"TOWNNAME":"東區","LI":"崇文里","LIN":"11鄰","STREET":"崇德十八街","SECT":" ","MAREA":" ","LANE":" ","ALLEY":" ","HOUSE_NO":"８０號","E_COORD97":171016.54000000001,"N_COORD97":2541020.77,"ADDRESS":"崇德十八街８０號","OBJECTID":589132},"geometry":{"x":171016.54000000004,"y":2541020.7699999996}},{"attributes":{"ID":589160,"DIS_CODE":0,"TOWNNAME":"東區","LI":"崇文里","LIN":"11鄰","STREET":"崇德十八街","SECT":" ","MAREA":" ","LANE":" ","ALLEY":" ","HOUSE_NO":"８２號","E_COORD97":171020.22,"N_COORD97":2541003.96,"ADDRESS":"崇德十八街８２號","OBJECTID":589133},"geometry":{"x":171020.21999999974,"y":2541003.9600000009}},{"attributes":{"ID":589161,"DIS_CODE":0,"TOWNNAME":"中西區","LI":"安海里","LIN":"11鄰","STREET":"環河街","SECT":" ","MAREA":" ","LANE":" ","ALLEY":" ","HOUSE_NO":"９２號","E_COORD97":167222.76999999999,"N_COORD97":2543931.96,"ADDRESS":"環河街９２號","OBJECTID":589134},"geometry":{"x":167222.77000000142,"y":2543931.9600000028}},{"attributes":{"ID":589162,"DIS_CODE":0,"TOWNNAME":"永康區","LI":"中華里","LIN":"11鄰","STREET":"小東路","SECT":" ","MAREA":" ","LANE":" ","ALLEY":" ","HOUSE_NO":"５６９號","E_COORD97":171761.98000000001,"N_COORD97":2544339.5299999998,"ADDRESS":"小東路５６９號","OBJECTID":589135},"geometry":{"x":171761.98000000231,"y":2544339.5300000012}},{"attributes":{"ID":589163,"DIS_CODE":0,"TOWNNAME":"永康區","LI":"\u25A0洲里","LIN":"11鄰","STREET":"\u25A0行路","SECT":" ","MAREA":" ","LANE":" ","ALLEY":" ","HOUSE_NO":"１４０號","E_COORD97":171456.29999999999,"N_COORD97":2549229.5299999998,"ADDRESS":"\u25A0行路１４０號","OBJECTID":589136},"geometry":{"x":171456.30000000075,"y":2549229.5299999993}},{"attributes":{"ID":589164,"DIS_CODE":0,"TOWNNAME":"永康區","LI":"埔園里","LIN":"11鄰","STREET":"中山路","SECT":" ","MAREA":" ","LANE":" ","ALLEY":" ","HOUSE_NO":"１５９號","E_COORD97":173704.64999999999,"N_COORD97":2547968.5,"ADDRESS":"中山路１５９號","OBJECTID":589137},"geometry":{"x":173704.65000000037,"y":2547968.5000000019}},{"attributes":{"ID":589165,"DIS_CODE":0,"TOWNNAME":"永康區","LI":"烏竹里","LIN":"11鄰","STREET":"竹園二街","SECT":" ","MAREA":" ","LANE":" ","ALLEY":" ","HOUSE_NO":"１７０號","E_COORD97":174576.54999999999,"N_COORD97":2549273.0099999998,"ADDRESS":"竹園二街１７０號","OBJECTID":589138},"geometry":{"x":174576.55000000168,"y":2549273.0100000016}},{"attributes":{"ID":589166,"DIS_CODE":0,"TOWNNAME":"永康區","LI":"崑山里","LIN":"11鄰","STREET":"大灣路","SECT":" ","MAREA":" ","LANE":" ","ALLEY":" ","HOUSE_NO":"１０７２號","E_COORD97":173313.14999999999,"N_COORD97":2544365.3300000001,"ADDRESS":"大灣路１０７２號","OBJECTID":589139},"geometry":{"x":173313.15000000037,"y":2544365.3300000019}},{"attributes":{"ID":589167,"DIS_CODE":0,"TOWNNAME":"永康區","LI":"新樹里","LIN":"11鄰","STREET":"富強路","SECT":"二段","MAREA":" ","LANE":" ","ALLEY":" ","HOUSE_NO":"１２０號","E_COORD97":175663.39000000001,"N_COORD97":2547076.21,"ADDRESS":"富強路二段１２０號","OBJECTID":589140},"geometry":{"x":175663.38999999966,"y":2547076.2100000028}},{"attributes":{"ID":589168,"DIS_CODE":0,"TOWNNAME":"永康區","LI":"中華里","LIN":"11鄰","STREET":"忠義街","SECT":" ","MAREA":" ","LANE":" ","ALLEY":" ","HOUSE_NO":"２號","E_COORD97":171730.89000000001,"N_COORD97":2544358.54,"ADDRESS":"忠義街２號","OBJECTID":589141},"geometry":{"x":171730.88999999966,"y":2544358.5399999972}},{"attributes":{"ID":589169,"DIS_CODE":0,"TOWNNAME":"東區","LI":"崇善里","LIN":"19鄰","STREET":"崇善十一街","SECT":" ","MAREA":" ","LANE":" ","ALLEY":" ","HOUSE_NO":"２０號","E_COORD97":171198.32999999999,"N_COORD97":2541186.1200000001,"ADDRESS":"崇善十一街２０號","OBJECTID":589142},"geometry":{"x":171198.33000000101,"y":2541186.120000001}},{"attributes":{"ID":589170,"DIS_CODE":0,"TOWNNAME":"麻豆區","LI":"中興里","LIN":"11鄰","STREET":"興國路","SECT":" ","MAREA":" ","LANE":" ","ALLEY":" ","HOUSE_NO":"５０號","E_COORD97":172988.10000000001,"N_COORD97":2564284.6600000001,"ADDRESS":"興國路５０號","OBJECTID":589143},"geometry":{"x":172988.10000000056,"y":2564284.660000002}},{"attributes":{"ID":589171,"DIS_CODE":0,"TOWNNAME":"麻豆區","LI":"中興里","LIN":"11鄰","STREET":"興國路","SECT":" ","MAREA":" ","LANE":" ","ALLEY":" ","HOUSE_NO":"５４號","E_COORD97":172979.07999999999,"N_COORD97":2564228.75,"ADDRESS":"興國路５４號","OBJECTID":589144},"geometry":{"x":172979.08000000007,"y":2564228.75}},{"attributes":{"ID":589172,"DIS_CODE":0,"TOWNNAME":"麻豆區","LI":"中興里","LIN":"11鄰","STREET":"興國路","SECT":" ","MAREA":" ","LANE":" ","ALLEY":" ","HOUSE_NO":"５６號之１０","E_COORD97":172944.5,"N_COORD97":2564175.0499999998,"ADDRESS":"興國路５６號之１０","OBJECTID":589145},"geometry":{"x":172944.49999999907,"y":2564175.0500000026}},{"attributes":{"ID":589173,"DIS_CODE":0,"TOWNNAME":"麻豆區","LI":"中興里","LIN":"11鄰","STREET":"興國路","SECT":" ","MAREA":" ","LANE":" ","ALLEY":" ","HOUSE_NO":"５６號之１１","E_COORD97":172947.67999999999,"N_COORD97":2564178.7200000002,"ADDRESS":"興國路５６號之１１","OBJECTID":589146},"geometry":{"x":172947.6799999997,"y":2564178.7200000007}},{"attributes":{"ID":589174,"DIS_CODE":0,"TOWNNAME":"麻豆區","LI":"中興里","LIN":"11鄰","STREET":"興國路","SECT":" ","MAREA":" ","LANE":" ","ALLEY":" ","HOUSE_NO":"５６號之１２","E_COORD97":172929.20000000001,"N_COORD97":2564172.27,"ADDRESS":"興國路５６號之１２","OBJECTID":589147},"geometry":{"x":172929.20000000019,"y":2564172.2700000014}},{"attributes":{"ID":589175,"DIS_CODE":0,"TOWNNAME":"麻豆區","LI":"中興里","LIN":"11鄰","STREET":"興國路","SECT":" ","MAREA":" ","LANE":" ","ALLEY":" ","HOUSE_NO":"５６號之１６","E_COORD97":172936.57999999999,"N_COORD97":2564181.3500000001,"ADDRESS":"興國路５６號之１６","OBJECTID":589148},"geometry":{"x":172936.58000000007,"y":2564181.3500000015}},{"attributes":{"ID":589176,"DIS_CODE":0,"TOWNNAME":"麻豆區","LI":"中興里","LIN":"11鄰","STREET":"興國路","SECT":" ","MAREA":" ","LANE":" ","ALLEY":" ","HOUSE_NO":"５６號之１","E_COORD97":172919.07000000001,"N_COORD97":2564133.2599999998,"ADDRESS":"興國路５６號之１","OBJECTID":589149},"geometry":{"x":172919.07000000216,"y":2564133.2599999998}},{"attributes":{"ID":589177,"DIS_CODE":0,"TOWNNAME":"麻豆區","LI":"中興里","LIN":"11鄰","STREET":"興國路","SECT":" ","MAREA":" ","LANE":" ","ALLEY":" ","HOUSE_NO":"５６號之６","E_COORD97":172932.76999999999,"N_COORD97":2564148.3100000001,"ADDRESS":"興國路５６號之６","OBJECTID":589150},"geometry":{"x":172932.77000000048,"y":2564148.3100000024}},{"attributes":{"ID":589178,"DIS_CODE":0,"TOWNNAME":"麻豆區","LI":"中興里","LIN":"11鄰","STREET":"興國路","SECT":" ","MAREA":" ","LANE":" ","ALLEY":" ","HOUSE_NO":"５６號之７","E_COORD97":172934,"N_COORD97":2564155.8100000001,"ADDRESS":"興國路５６號之７","OBJECTID":589151},"geometry":{"x":172934,"y":2564155.8100000024}},{"attributes":{"ID":589179,"DIS_CODE":0,"TOWNNAME":"麻豆區","LI":"中興里","LIN":"11鄰","STREET":"興國路","SECT":" ","MAREA":" ","LANE":" ","ALLEY":" ","HOUSE_NO":"５６號之８","E_COORD97":172939.07000000001,"N_COORD97":2564167.9199999999,"ADDRESS":"興國路５６號之８","OBJECTID":589152},"geometry":{"x":172939.0700000003,"y":2564167.9200000018}},{"attributes":{"ID":589180,"DIS_CODE":0,"TOWNNAME":"麻豆區","LI":"中興里","LIN":"11鄰","STREET":"興國路","SECT":" ","MAREA":" ","LANE":" ","ALLEY":" ","HOUSE_NO":"５６號之９","E_COORD97":172941.78,"N_COORD97":2564171.3799999999,"ADDRESS":"興國路５６號之９","OBJECTID":589153},"geometry":{"x":172941.78000000119,"y":2564171.379999999}},{"attributes":{"ID":589181,"DIS_CODE":0,"TOWNNAME":"麻豆區","LI":"中興里","LIN":"11鄰","STREET":"興國路","SECT":" ","MAREA":" ","LANE":" ","ALLEY":" ","HOUSE_NO":"５６號","E_COORD97":172965.07000000001,"N_COORD97":2564196.8399999999,"ADDRESS":"興國路５６號","OBJECTID":589154},"geometry":{"x":172965.07000000123,"y":2564196.8399999999}},{"attributes":{"ID":589182,"DIS_CODE":0,"TOWNNAME":"麻豆區","LI":"中興里","LIN":"11鄰","STREET":"興國路","SECT":" ","MAREA":" ","LANE":" ","ALLEY":" ","HOUSE_NO":"５８號","E_COORD97":172873.89000000001,"N_COORD97":2563948.1200000001,"ADDRESS":"興國路５８號","OBJECTID":589155},"geometry":{"x":172873.89000000153,"y":2563948.120000001}},{"attributes":{"ID":589183,"DIS_CODE":0,"TOWNNAME":"麻豆區","LI":"中興里","LIN":"11鄰","STREET":"興國路","SECT":" ","MAREA":" ","LANE":" ","ALLEY":" ","HOUSE_NO":"６０號","E_COORD97":172837.25,"N_COORD97":2563934.0099999998,"ADDRESS":"興國路６０號","OBJECTID":589156},"geometry":{"x":172837.25,"y":2563934.0099999998}},{"attributes":{"ID":589184,"DIS_CODE":0,"TOWNNAME":"佳里區","LI":"安西里","LIN":"11鄰","STREET":"長安街","SECT":" ","MAREA":" ","LANE":" ","ALLEY":" ","HOUSE_NO":"２４號","E_COORD97":165428.47,"N_COORD97":2562289.3999999999,"ADDRESS":"長安街２４號","OBJECTID":589157},"geometry":{"x":165428.47000000067,"y":2562289.4000000041}},{"attributes":{"ID":589185,"DIS_CODE":0,"TOWNNAME":"佳里區","LI":"安西里","LIN":"11鄰","STREET":"長安街","SECT":" ","MAREA":" ","LANE":" ","ALLEY":" ","HOUSE_NO":"３７號","E_COORD97":165409.57999999999,"N_COORD97":2562329.77,"ADDRESS":"長安街３７號","OBJECTID":589158},"geometry":{"x":165409.58000000101,"y":2562329.7699999977}},{"attributes":{"ID":589186,"DIS_CODE":0,"TOWNNAME":"佳里區","LI":"安西里","LIN":"11鄰","STREET":"長安街","SECT":" ","MAREA":" ","LANE":" ","ALLEY":" ","HOUSE_NO":"３９號","E_COORD97":165409.60999999999,"N_COORD97":2562334.6600000001,"ADDRESS":"長安街３９號","OBJECTID":589159},"geometry":{"x":165409.61000000127,"y":2562334.6600000039}},{"attributes":{"ID":589187,"DIS_CODE":0,"TOWNNAME":"佳里區","LI":"安西里","LIN":"11鄰","STREET":"長安街","SECT":" ","MAREA":" ","LANE":" ","ALLEY":" ","HOUSE_NO":"４１號","E_COORD97":165401.66,"N_COORD97":2562342.73,"ADDRESS":"長安街４１號","OBJECTID":589160},"geometry":{"x":165401.65999999922,"y":2562342.7300000023}},{"attributes":{"ID":589188,"DIS_CODE":0,"TOWNNAME":"佳里區","LI":"安西里","LIN":"11鄰","STREET":"長安街","SECT":" ","MAREA":" ","LANE":" ","ALLEY":" ","HOUSE_NO":"４２號","E_COORD97":165425,"N_COORD97":2562329.1600000001,"ADDRESS":"長安街４２號","OBJECTID":589161},"geometry":{"x":165425.00000000093,"y":2562329.160000002}},{"attributes":{"ID":589189,"DIS_CODE":0,"TOWNNAME":"佳里區","LI":"安西里","LIN":"11鄰","STREET":"長安街","SECT":" ","MAREA":" ","LANE":" ","ALLEY":" ","HOUSE_NO":"４３號","E_COORD97":165407.75,"N_COORD97":2562351.9900000002,"ADDRESS":"長安街４３號","OBJECTID":589162},"geometry":{"x":165407.75000000186,"y":2562351.9900000002}},{"attributes":{"ID":589190,"DIS_CODE":0,"TOWNNAME":"佳里區","LI":"安西里","LIN":"11鄰","STREET":"長安街","SECT":" ","MAREA":" ","LANE":" ","ALLEY":" ","HOUSE_NO":"４４號","E_COORD97":165424.95999999999,"N_COORD97":2562334.0499999998,"ADDRESS":"長安街４４號","OBJECTID":589163},"geometry":{"x":165424.96000000183,"y":2562334.0500000026}},{"attributes":{"ID":589191,"DIS_CODE":0,"TOWNNAME":"佳里區","LI":"安西里","LIN":"11鄰","STREET":"長安街","SECT":" ","MAREA":" ","LANE":" ","ALLEY":" ","HOUSE_NO":"４５號","E_COORD97":165406.92999999999,"N_COORD97":2562359.1600000001,"ADDRESS":"長安街４５號","OBJECTID":589164},"geometry":{"x":165406.93000000063,"y":2562359.160000002}},{"attributes":{"ID":589192,"DIS_CODE":0,"TOWNNAME":"佳里區","LI":"安西里","LIN":"11鄰","STREET":"長安街","SECT":" ","MAREA":" ","LANE":" ","ALLEY":" ","HOUSE_NO":"４６號","E_COORD97":165424.51000000001,"N_COORD97":2562339.27,"ADDRESS":"長安街４６號","OBJECTID":589165},"geometry":{"x":165424.51000000164,"y":2562339.2699999996}},{"attributes":{"ID":589193,"DIS_CODE":0,"TOWNNAME":"佳里區","LI":"安西里","LIN":"11鄰","STREET":"長安街","SECT":" ","MAREA":" ","LANE":" ","ALLEY":" ","HOUSE_NO":"４８號","E_COORD97":165424.64999999999,"N_COORD97":2562344.3199999998,"ADDRESS":"長安街４８號","OBJECTID":589166},"geometry":{"x":165424.6500000013,"y":2562344.3200000022}},{"attributes":{"ID":589194,"DIS_CODE":0,"TOWNNAME":"佳里區","LI":"安西里","LIN":"11鄰","STREET":"長安街","SECT":" ","MAREA":" ","LANE":" ","ALLEY":" ","HOUSE_NO":"５０號","E_COORD97":165424.88,"N_COORD97":2562349.3199999998,"ADDRESS":"長安街５０號","OBJECTID":589167},"geometry":{"x":165424.87999999989,"y":2562349.3200000003}},{"attributes":{"ID":589195,"DIS_CODE":0,"TOWNNAME":"佳里區","LI":"安西里","LIN":"11鄰","STREET":"長安街","SECT":" ","MAREA":" ","LANE":" ","ALLEY":" ","HOUSE_NO":"５２號","E_COORD97":165424.92999999999,"N_COORD97":2562354.2599999998,"ADDRESS":"長安街５２號","OBJECTID":589168},"geometry":{"x":165424.93000000156,"y":2562354.2600000035}},{"attributes":{"ID":589196,"DIS_CODE":0,"TOWNNAME":"佳里區","LI":"安西里","LIN":"11鄰","STREET":"長安街","SECT":" ","MAREA":" ","LANE":" ","ALLEY":" ","HOUSE_NO":"５４號","E_COORD97":165425.17000000001,"N_COORD97":2562359.6000000001,"ADDRESS":"長安街５４號","OBJECTID":589169},"geometry":{"x":165425.17000000179,"y":2562359.6000000015}},{"attributes":{"ID":589197,"DIS_CODE":0,"TOWNNAME":"永康區","LI":"烏竹里","LIN":"11鄰","STREET":"竹園二街","SECT":" ","MAREA":" ","LANE":" ","ALLEY":" ","HOUSE_NO":"１９２號","E_COORD97":174603.79999999999,"N_COORD97":2549296.2599999998,"ADDRESS":"竹園二街１９２號","OBJECTID":589170},"geometry":{"x":174603.80000000075,"y":2549296.2599999998}},{"attributes":{"ID":589198,"DIS_CODE":0,"TOWNNAME":"永康區","LI":"\u25A0洲里","LIN":"11鄰","STREET":"\u25A0行路","SECT":" ","MAREA":" ","LANE":" ","ALLEY":" ","HOUSE_NO":"１６０號","E_COORD97":171394.14000000001,"N_COORD97":2549226.6000000001,"ADDRESS":"\u25A0行路１６０號","OBJECTID":589171},"geometry":{"x":171394.1400000006,"y":2549226.5999999996}},{"attributes":{"ID":589199,"DIS_CODE":0,"TOWNNAME":"永康區","LI":"埔園里","LIN":"11鄰","STREET":"自強路","SECT":" ","MAREA":" ","LANE":" ","ALLEY":" ","HOUSE_NO":"３８３號","E_COORD97":173640.54000000001,"N_COORD97":2547879.75,"ADDRESS":"自強路３８３號","OBJECTID":589172},"geometry":{"x":173640.54000000004,"y":2547879.75}},{"attributes":{"ID":589200,"DIS_CODE":0,"TOWNNAME":"東區","LI":"崇學里","LIN":"11鄰","STREET":"崇明十街","SECT":" ","MAREA":" ","LANE":" ","ALLEY":" ","HOUSE_NO":"７４號","E_COORD97":170232.20999999999,"N_COORD97":2541884.6299999999,"ADDRESS":"崇明十街７４號","OBJECTID":589173},"geometry":{"x":170232.20999999996,"y":2541884.629999999}},{"attributes":{"ID":589201,"DIS_CODE":0,"TOWNNAME":"東區","LI":"崇學里","LIN":"11鄰","STREET":"崇明十街","SECT":" ","MAREA":" ","LANE":" ","ALLEY":" ","HOUSE_NO":"７６號","E_COORD97":170234.91,"N_COORD97":2541887.3199999998,"ADDRESS":"崇明十街７６號","OBJECTID":589174},"geometry":{"x":170234.91000000108,"y":2541887.3200000022}},{"attributes":{"ID":589202,"DIS_CODE":0,"TOWNNAME":"東區","LI":"崇學里","LIN":"11鄰","STREET":"崇明十街","SECT":" ","MAREA":" ","LANE":" ","ALLEY":" ","HOUSE_NO":"８０號","E_COORD97":170238.45000000001,"N_COORD97":2541891.8399999999,"ADDRESS":"崇明十街８０號","OBJECTID":589175},"geometry":{"x":170238.45000000112,"y":2541891.8399999999}},{"attributes":{"ID":589203,"DIS_CODE":0,"TOWNNAME":"東區","LI":"崇學里","LIN":"11鄰","STREET":"崇明十街","SECT":" ","MAREA":" ","LANE":" ","ALLEY":" ","HOUSE_NO":"８４號","E_COORD97":170241.82000000001,"N_COORD97":2541897.0600000001,"ADDRESS":"崇明十街８４號","OBJECTID":589176},"geometry":{"x":170241.8200000003,"y":2541897.0600000005}},{"attributes":{"ID":589204,"DIS_CODE":0,"TOWNNAME":"東區","LI":"崇學里","LIN":"11鄰","STREET":"崇明十街","SECT":" ","MAREA":" ","LANE":" ","ALLEY":" ","HOUSE_NO":"８６號","E_COORD97":170247.56,"N_COORD97":2541900.4300000002,"ADDRESS":"崇明十街８６號","OBJECTID":589177},"geometry":{"x":170247.55999999959,"y":2541900.4299999997}},{"attributes":{"ID":589205,"DIS_CODE":0,"TOWNNAME":"東區","LI":"崇學里","LIN":"11鄰","STREET":"崇明十街","SECT":" ","MAREA":" ","LANE":" ","ALLEY":" ","HOUSE_NO":"８８號","E_COORD97":170251.26999999999,"N_COORD97":2541906.5,"ADDRESS":"崇明十街８８號","OBJECTID":589178},"geometry":{"x":170251.26999999955,"y":2541906.5000000019}},{"attributes":{"ID":589206,"DIS_CODE":0,"TOWNNAME":"東區","LI":"崇學里","LIN":"11鄰","STREET":"崇明十街","SECT":" ","MAREA":" ","LANE":" ","ALLEY":" ","HOUSE_NO":"９０號","E_COORD97":170254.81,"N_COORD97":2541909.5299999998,"ADDRESS":"崇明十街９０號","OBJECTID":589179},"geometry":{"x":170254.80999999959,"y":2541909.5299999993}},{"attributes":{"ID":589207,"DIS_CODE":0,"TOWNNAME":"東區","LI":"崇信里","LIN":"11鄰","STREET":"崇信街","SECT":" ","MAREA":" ","LANE":" ","ALLEY":" ","HOUSE_NO":"９６號","E_COORD97":170737.16,"N_COORD97":2542346.4199999999,"ADDRESS":"崇信街９６號","OBJECTID":589180},"geometry":{"x":170737.16000000108,"y":2542346.4200000037}},{"attributes":{"ID":589208,"DIS_CODE":0,"TOWNNAME":"永康區","LI":"\u25A0洲里","LIN":"11鄰","STREET":"\u25A0行路","SECT":" ","MAREA":" ","LANE":" ","ALLEY":" ","HOUSE_NO":"１５０號","E_COORD97":171421.10999999999,"N_COORD97":2549223.48,"ADDRESS":"\u25A0行路１５０號","OBJECTID":589181},"geometry":{"x":171421.11000000034,"y":2549223.4800000023}},{"attributes":{"ID":589209,"DIS_CODE":0,"TOWNNAME":"永康區","LI":"中華里","LIN":"11鄰","STREET":"小東路","SECT":" ","MAREA":" ","LANE":" ","ALLEY":" ","HOUSE_NO":"５７７號","E_COORD97":171777.37,"N_COORD97":2544339.9500000002,"ADDRESS":"小東路５７７號","OBJECTID":589182},"geometry":{"x":171777.37000000011,"y":2544339.9500000011}},{"attributes":{"ID":589210,"DIS_CODE":0,"TOWNNAME":"永康區","LI":"永康里","LIN":"11鄰","STREET":"永平街","SECT":" ","MAREA":" ","LANE":" ","ALLEY":" ","HOUSE_NO":"３９號","E_COORD97":173643.53,"N_COORD97":2547121.4199999999,"ADDRESS":"永平街３９號","OBJECTID":589183},"geometry":{"x":173643.53000000119,"y":2547121.4200000018}},{"attributes":{"ID":589211,"DIS_CODE":0,"TOWNNAME":"佳里區","LI":"鎮山里","LIN":"11鄰","STREET":"崇德街","SECT":" ","MAREA":" ","LANE":" ","ALLEY":" ","HOUSE_NO":"１０１號","E_COORD97":166052.98000000001,"N_COORD97":2561629.8700000001,"ADDRESS":"崇德街１０１號","OBJECTID":589184},"geometry":{"x":166052.98000000138,"y":2561629.8700000029}},{"attributes":{"ID":589212,"DIS_CODE":0,"TOWNNAME":"佳里區","LI":"鎮山里","LIN":"11鄰","STREET":"崇德街","SECT":" ","MAREA":" ","LANE":" ","ALLEY":" ","HOUSE_NO":"１０２號","E_COORD97":166012.39000000001,"N_COORD97":2561641.2799999998,"ADDRESS":"崇德街１０２號","OBJECTID":589185},"geometry":{"x":166012.3900000006,"y":2561641.2799999975}},{"attributes":{"ID":589213,"DIS_CODE":0,"TOWNNAME":"東區","LI":"路東里","LIN":"11鄰","STREET":"林森路","SECT":"一段","MAREA":" ","LANE":" ","ALLEY":" ","HOUSE_NO":"６８號","E_COORD97":169325.26999999999,"N_COORD97":2542403.1299999999,"ADDRESS":"林森路一段６８號","OBJECTID":589186},"geometry":{"x":169325.27000000048,"y":2542403.1300000008}},{"attributes":{"ID":589214,"DIS_CODE":0,"TOWNNAME":"歸仁區","LI":"看東里","LIN":"11鄰","STREET":"忠孝南路","SECT":" ","MAREA":" ","LANE":" ","ALLEY":" ","HOUSE_NO":"１３７號","E_COORD97":178557.70999999999,"N_COORD97":2540310.96,"ADDRESS":"忠孝南路１３７號","OBJECTID":589187},"geometry":{"x":178557.71000000183,"y":2540310.9600000028}},{"attributes":{"ID":589215,"DIS_CODE":0,"TOWNNAME":"歸仁區","LI":"許厝里","LIN":"11鄰","STREET":"公園路","SECT":" ","MAREA":" ","LANE":" ","ALLEY":" ","HOUSE_NO":"４３號","E_COORD97":178157.17000000001,"N_COORD97":2540562.1000000001,"ADDRESS":"公園路４３號","OBJECTID":589188},"geometry":{"x":178157.16999999993,"y":2540562.1000000015}},{"attributes":{"ID":589216,"DIS_CODE":0,"TOWNNAME":"歸仁區","LI":"崙頂里","LIN":"11鄰","STREET":"成功路","SECT":"二段","MAREA":" ","LANE":" ","ALLEY":" ","HOUSE_NO":"１３７號","E_COORD97":177985.07999999999,"N_COORD97":2539716.25,"ADDRESS":"成功路二段１３７號","OBJECTID":589189},"geometry":{"x":177985.08000000007,"y":2539716.25}},{"attributes":{"ID":589217,"DIS_CODE":0,"TOWNNAME":"歸仁區","LI":"看西里","LIN":"11鄰","STREET":"成功六街","SECT":" ","MAREA":" ","LANE":" ","ALLEY":" ","HOUSE_NO":"６４號","E_COORD97":178398.73000000001,"N_COORD97":2540238.8300000001,"ADDRESS":"成功六街６４號","OBJECTID":589190},"geometry":{"x":178398.73000000231,"y":2540238.8300000019}},{"attributes":{"ID":589218,"DIS_CODE":0,"TOWNNAME":"歸仁區","LI":"看西里","LIN":"11鄰","STREET":"成功六街","SECT":" ","MAREA":" ","LANE":" ","ALLEY":" ","HOUSE_NO":"４２號","E_COORD97":178393.42999999999,"N_COORD97":2540196.8300000001,"ADDRESS":"成功六街４２號","OBJECTID":589191},"geometry":{"x":178393.43000000063,"y":2540196.8300000001}},{"attributes":{"ID":589219,"DIS_CODE":0,"TOWNNAME":"歸仁區","LI":"新厝里","LIN":"11鄰","STREET":"公園路","SECT":" ","MAREA":" ","LANE":" ","ALLEY":" ","HOUSE_NO":"２１６號","E_COORD97":177716.13,"N_COORD97":2540426,"ADDRESS":"公園路２１６號","OBJECTID":589192},"geometry":{"x":177716.13000000082,"y":2540426}},{"attributes":{"ID":589220,"DIS_CODE":0,"TOWNNAME":"新營區","LI":"民榮里","LIN":"11鄰","STREET":"復興路","SECT":" ","MAREA":" ","LANE":" ","ALLEY":" ","HOUSE_NO":"１５１號","E_COORD97":179233.31,"N_COORD97":2578010.46,"ADDRESS":"復興路１５１號","OBJECTID":589193},"geometry":{"x":179233.31000000052,"y":2578010.459999999}},{"attributes":{"ID":589221,"DIS_CODE":0,"TOWNNAME":"新營區","LI":"忠政里","LIN":"11鄰","STREET":"中正路","SECT":" ","MAREA":" ","LANE":" ","ALLEY":" ","HOUSE_NO":"４１號","E_COORD97":180080.35000000001,"N_COORD97":2579358.6299999999,"ADDRESS":"中正路４１號","OBJECTID":589194},"geometry":{"x":180080.35000000149,"y":2579358.629999999}},{"attributes":{"ID":589222,"DIS_CODE":0,"TOWNNAME":"南區","LI":"新興里","LIN":"11鄰","STREET":"西門路","SECT":"一段","MAREA":" ","LANE":" ","ALLEY":" ","HOUSE_NO":"４０９號","E_COORD97":167713.32999999999,"N_COORD97":2542303.5099999998,"ADDRESS":"西門路一段４０９號","OBJECTID":589195},"geometry":{"x":167713.33000000101,"y":2542303.5099999998}},{"attributes":{"ID":589223,"DIS_CODE":0,"TOWNNAME":"南區","LI":"新興里","LIN":"11鄰","STREET":"西門路","SECT":"一段","MAREA":" ","LANE":" ","ALLEY":" ","HOUSE_NO":"４１１號","E_COORD97":167714.76000000001,"N_COORD97":2542308.8900000001,"ADDRESS":"西門路一段４１１號","OBJECTID":589196},"geometry":{"x":167714.76000000071,"y":2542308.8900000006}},{"attributes":{"ID":589224,"DIS_CODE":0,"TOWNNAME":"南區","LI":"新興里","LIN":"11鄰","STREET":"西門路","SECT":"一段","MAREA":" ","LANE":" ","ALLEY":" ","HOUSE_NO":"４１３號","E_COORD97":167713.69,"N_COORD97":2542313.1899999999,"ADDRESS":"西門路一段４１３號","OBJECTID":589197},"geometry":{"x":167713.69000000041,"y":2542313.1899999995}},{"attributes":{"ID":589225,"DIS_CODE":0,"TOWNNAME":"南區","LI":"新興里","LIN":"11鄰","STREET":"西門路","SECT":"一段","MAREA":" ","LANE":" ","ALLEY":" ","HOUSE_NO":"４１５號","E_COORD97":167715.12,"N_COORD97":2542318.9199999999,"ADDRESS":"西門路一段４１５號","OBJECTID":589198},"geometry":{"x":167715.12000000011,"y":2542318.9199999999}},{"attributes":{"ID":589226,"DIS_CODE":0,"TOWNNAME":"南區","LI":"新興里","LIN":"11鄰","STREET":"西門路","SECT":"一段","MAREA":" ","LANE":" ","ALLEY":" ","HOUSE_NO":"４１７號","E_COORD97":167712.97,"N_COORD97":2542324.29,"ADDRESS":"西門路一段４１７號","OBJECTID":589199},"geometry":{"x":167712.96999999974,"y":2542324.290000001}},{"attributes":{"ID":589227,"DIS_CODE":0,"TOWNNAME":"南區","LI":"新興里","LIN":"11鄰","STREET":"西門路","SECT":"一段","MAREA":" ","LANE":" ","ALLEY":" ","HOUSE_NO":"４１９號","E_COORD97":167712.60999999999,"N_COORD97":2542330.02,"ADDRESS":"西門路一段４１９號","OBJECTID":589200},"geometry":{"x":167712.61000000034,"y":2542330.0200000014}}]}