{"displayFieldName":"TOWNNAME","fieldAliases":{"ID":"ID","DIS_CODE":"DIS_CODE","TOWNNAME":"TOWNNAME","LI":"LI","LIN":"LIN","STREET":"STREET","SECT":"SECT","MAREA":"MAREA","LANE":"LANE","ALLEY":"ALLEY","HOUSE_NO":"HOUSE_NO","E_COORD97":"E_COORD97","N_COORD97":"N_COORD97","ADDRESS":"ADDRESS","OBJECTID":"OBJECTID"},"geometryType":"esriGeometryPoint","spatialReference":{"wkid":102443,"latestWkid":3826},"fields":[{"name":"ID","type":"esriFieldTypeDouble","alias":"ID"},{"name":"DIS_CODE","type":"esriFieldTypeInteger","alias":"DIS_CODE"},{"name":"TOWNNAME","type":"esriFieldTypeString","alias":"TOWNNAME","length":8},{"name":"LI","type":"esriFieldTypeString","alias":"LI","length":8},{"name":"LIN","type":"esriFieldTypeString","alias":"LIN","length":12},{"name":"STREET","type":"esriFieldTypeString","alias":"STREET","length":20},{"name":"SECT","type":"esriFieldTypeString","alias":"SECT","length":8},{"name":"MAREA","type":"esriFieldTypeString","alias":"MAREA","length":12},{"name":"LANE","type":"esriFieldTypeString","alias":"LANE","length":10},{"name":"ALLEY","type":"esriFieldTypeString","alias":"ALLEY","length":10},{"name":"HOUSE_NO","type":"esriFieldTypeString","alias":"HOUSE_NO","length":20},{"name":"E_COORD97","type":"esriFieldTypeDouble","alias":"E_COORD97"},{"name":"N_COORD97","type":"esriFieldTypeDouble","alias":"N_COORD97"},{"name":"ADDRESS","type":"esriFieldTypeString","alias":"ADDRESS","length":50},{"name":"OBJECTID","type":"esriFieldTypeOID","alias":"OBJECTID"}],"features":[{"attributes":{"ID":453226,"DIS_CODE":0,"TOWNNAME":"北區","LI":"重興里","LIN":"26鄰","STREET":"東豐路","SECT":" ","MAREA":" ","LANE":"４５１巷","ALLEY":" ","HOUSE_NO":"１１９號四樓","E_COORD97":170774.94,"N_COORD97":2544840.8500000001,"ADDRESS":"東豐路４５１巷１１９號四樓","OBJECTID":453201},"geometry":{"x":170774.94000000041,"y":2544840.8499999996}},{"attributes":{"ID":453227,"DIS_CODE":0,"TOWNNAME":"北區","LI":"重興里","LIN":"26鄰","STREET":"東豐路","SECT":" ","MAREA":" ","LANE":"４５１巷","ALLEY":" ","HOUSE_NO":"１２１號二樓","E_COORD97":170779.5,"N_COORD97":2544847.1699999999,"ADDRESS":"東豐路４５１巷１２１號二樓","OBJECTID":453202},"geometry":{"x":170779.5,"y":2544847.1700000018}},{"attributes":{"ID":453228,"DIS_CODE":0,"TOWNNAME":"北區","LI":"重興里","LIN":"26鄰","STREET":"東豐路","SECT":" ","MAREA":" ","LANE":"４５１巷","ALLEY":" ","HOUSE_NO":"１２１號三樓","E_COORD97":170779.5,"N_COORD97":2544847.1699999999,"ADDRESS":"東豐路４５１巷１２１號三樓","OBJECTID":453203},"geometry":{"x":170779.5,"y":2544847.1700000018}},{"attributes":{"ID":453229,"DIS_CODE":0,"TOWNNAME":"北區","LI":"重興里","LIN":"26鄰","STREET":"東豐路","SECT":" ","MAREA":" ","LANE":"４５１巷","ALLEY":" ","HOUSE_NO":"１２１號四樓","E_COORD97":170779.5,"N_COORD97":2544847.1699999999,"ADDRESS":"東豐路４５１巷１２１號四樓","OBJECTID":453204},"geometry":{"x":170779.5,"y":2544847.1700000018}},{"attributes":{"ID":453230,"DIS_CODE":0,"TOWNNAME":"北區","LI":"重興里","LIN":"26鄰","STREET":"東豐路","SECT":" ","MAREA":" ","LANE":"４５１巷","ALLEY":" ","HOUSE_NO":"１２３號二樓","E_COORD97":170784.51000000001,"N_COORD97":2544855.2599999998,"ADDRESS":"東豐路４５１巷１２３號二樓","OBJECTID":453205},"geometry":{"x":170784.50999999885,"y":2544855.2599999998}},{"attributes":{"ID":453231,"DIS_CODE":0,"TOWNNAME":"北區","LI":"重興里","LIN":"26鄰","STREET":"東豐路","SECT":" ","MAREA":" ","LANE":"４５１巷","ALLEY":" ","HOUSE_NO":"１２３號三樓","E_COORD97":170784.51000000001,"N_COORD97":2544855.2599999998,"ADDRESS":"東豐路４５１巷１２３號三樓","OBJECTID":453206},"geometry":{"x":170784.50999999885,"y":2544855.2599999998}},{"attributes":{"ID":453232,"DIS_CODE":0,"TOWNNAME":"北區","LI":"重興里","LIN":"26鄰","STREET":"東豐路","SECT":" ","MAREA":" ","LANE":"４５１巷","ALLEY":" ","HOUSE_NO":"１２３號四樓","E_COORD97":170784.51000000001,"N_COORD97":2544855.2599999998,"ADDRESS":"東豐路４５１巷１２３號四樓","OBJECTID":453207},"geometry":{"x":170784.50999999885,"y":2544855.2599999998}},{"attributes":{"ID":453233,"DIS_CODE":0,"TOWNNAME":"北區","LI":"重興里","LIN":"26鄰","STREET":"東豐路","SECT":" ","MAREA":" ","LANE":"４５１巷","ALLEY":" ","HOUSE_NO":"１２５號二樓","E_COORD97":170788.34,"N_COORD97":2544862.4300000002,"ADDRESS":"東豐路４５１巷１２５號二樓","OBJECTID":453208},"geometry":{"x":170788.34000000078,"y":2544862.4300000016}},{"attributes":{"ID":453234,"DIS_CODE":0,"TOWNNAME":"北區","LI":"重興里","LIN":"26鄰","STREET":"東豐路","SECT":" ","MAREA":" ","LANE":"４５１巷","ALLEY":" ","HOUSE_NO":"１２５號三樓","E_COORD97":170788.34,"N_COORD97":2544862.4300000002,"ADDRESS":"東豐路４５１巷１２５號三樓","OBJECTID":453209},"geometry":{"x":170788.34000000078,"y":2544862.4300000016}},{"attributes":{"ID":453235,"DIS_CODE":0,"TOWNNAME":"北區","LI":"重興里","LIN":"26鄰","STREET":"東豐路","SECT":" ","MAREA":" ","LANE":"４５１巷","ALLEY":" ","HOUSE_NO":"１２５號四樓","E_COORD97":170788.34,"N_COORD97":2544862.4300000002,"ADDRESS":"東豐路４５１巷１２５號四樓","OBJECTID":453210},"geometry":{"x":170788.34000000078,"y":2544862.4300000016}},{"attributes":{"ID":453236,"DIS_CODE":0,"TOWNNAME":"北區","LI":"重興里","LIN":"26鄰","STREET":"東豐路","SECT":" ","MAREA":" ","LANE":"４５１巷","ALLEY":" ","HOUSE_NO":"１２７號二樓","E_COORD97":170793.20000000001,"N_COORD97":2544870.8100000001,"ADDRESS":"東豐路４５１巷１２７號二樓","OBJECTID":453211},"geometry":{"x":170793.20000000019,"y":2544870.8100000024}},{"attributes":{"ID":453237,"DIS_CODE":0,"TOWNNAME":"北區","LI":"重興里","LIN":"26鄰","STREET":"東豐路","SECT":" ","MAREA":" ","LANE":"４５１巷","ALLEY":" ","HOUSE_NO":"１２７號三樓","E_COORD97":170793.20000000001,"N_COORD97":2544870.8100000001,"ADDRESS":"東豐路４５１巷１２７號三樓","OBJECTID":453212},"geometry":{"x":170793.20000000019,"y":2544870.8100000024}},{"attributes":{"ID":453238,"DIS_CODE":0,"TOWNNAME":"北區","LI":"重興里","LIN":"26鄰","STREET":"東豐路","SECT":" ","MAREA":" ","LANE":"４５１巷","ALLEY":" ","HOUSE_NO":"１２７號四樓","E_COORD97":170793.20000000001,"N_COORD97":2544870.8100000001,"ADDRESS":"東豐路４５１巷１２７號四樓","OBJECTID":453213},"geometry":{"x":170793.20000000019,"y":2544870.8100000024}},{"attributes":{"ID":453239,"DIS_CODE":0,"TOWNNAME":"北區","LI":"大豐里","LIN":"26鄰","STREET":"和緯路","SECT":"四段","MAREA":" ","LANE":"９５巷","ALLEY":" ","HOUSE_NO":"３４號二樓","E_COORD97":167097.59,"N_COORD97":2545373.7000000002,"ADDRESS":"和緯路四段９５巷３４號二樓","OBJECTID":453214},"geometry":{"x":167097.59000000078,"y":2545373.6999999993}},{"attributes":{"ID":453240,"DIS_CODE":0,"TOWNNAME":"北區","LI":"大豐里","LIN":"26鄰","STREET":"和緯路","SECT":"四段","MAREA":" ","LANE":"９５巷","ALLEY":" ","HOUSE_NO":"２２號二樓","E_COORD97":167102.25,"N_COORD97":2545409.5699999998,"ADDRESS":"和緯路四段９５巷２２號二樓","OBJECTID":453215},"geometry":{"x":167102.25,"y":2545409.5700000003}},{"attributes":{"ID":453241,"DIS_CODE":0,"TOWNNAME":"北區","LI":"大豐里","LIN":"26鄰","STREET":"和緯路","SECT":"四段","MAREA":" ","LANE":"９５巷","ALLEY":" ","HOUSE_NO":"２２號三樓","E_COORD97":167102.25,"N_COORD97":2545409.5699999998,"ADDRESS":"和緯路四段９５巷２２號三樓","OBJECTID":453216},"geometry":{"x":167102.25,"y":2545409.5700000003}},{"attributes":{"ID":453242,"DIS_CODE":0,"TOWNNAME":"北區","LI":"大豐里","LIN":"26鄰","STREET":"和緯路","SECT":"四段","MAREA":" ","LANE":"９５巷","ALLEY":" ","HOUSE_NO":"２２號五樓","E_COORD97":167102.25,"N_COORD97":2545409.5699999998,"ADDRESS":"和緯路四段９５巷２２號五樓","OBJECTID":453217},"geometry":{"x":167102.25,"y":2545409.5700000003}},{"attributes":{"ID":453243,"DIS_CODE":0,"TOWNNAME":"北區","LI":"和順里","LIN":"38鄰","STREET":"公園南路","SECT":" ","MAREA":" ","LANE":"３７０巷","ALLEY":" ","HOUSE_NO":"５８號","E_COORD97":168272.17999999999,"N_COORD97":2544970.54,"ADDRESS":"公園南路３７０巷５８號","OBJECTID":453218},"geometry":{"x":168272.1799999997,"y":2544970.540000001}},{"attributes":{"ID":453244,"DIS_CODE":0,"TOWNNAME":"北區","LI":"和順里","LIN":"38鄰","STREET":"公園南路","SECT":" ","MAREA":" ","LANE":"３７０巷","ALLEY":" ","HOUSE_NO":"６０號","E_COORD97":168274.01000000001,"N_COORD97":2544967.71,"ADDRESS":"公園南路３７０巷６０號","OBJECTID":453219},"geometry":{"x":168274.01000000164,"y":2544967.7100000028}},{"attributes":{"ID":453245,"DIS_CODE":0,"TOWNNAME":"麻豆區","LI":"巷口里","LIN":"1鄰","STREET":"興南路","SECT":" ","MAREA":" ","LANE":" ","ALLEY":" ","HOUSE_NO":"２號","E_COORD97":173082.07000000001,"N_COORD97":2564723.9700000002,"ADDRESS":"興南路２號","OBJECTID":453220},"geometry":{"x":173082.07000000123,"y":2564723.9700000025}},{"attributes":{"ID":453246,"DIS_CODE":0,"TOWNNAME":"北區","LI":"大豐里","LIN":"26鄰","STREET":"和緯路","SECT":"四段","MAREA":" ","LANE":"９５巷","ALLEY":" ","HOUSE_NO":"２２號四樓","E_COORD97":167102.25,"N_COORD97":2545409.5699999998,"ADDRESS":"和緯路四段９５巷２２號四樓","OBJECTID":453221},"geometry":{"x":167102.25,"y":2545409.5700000003}},{"attributes":{"ID":453247,"DIS_CODE":0,"TOWNNAME":"北區","LI":"大豐里","LIN":"26鄰","STREET":"和緯路","SECT":"四段","MAREA":" ","LANE":"９５巷","ALLEY":" ","HOUSE_NO":"２４號二樓","E_COORD97":167100.75,"N_COORD97":2545405.79,"ADDRESS":"和緯路四段９５巷２４號二樓","OBJECTID":453222},"geometry":{"x":167100.75,"y":2545405.790000001}},{"attributes":{"ID":453248,"DIS_CODE":0,"TOWNNAME":"北區","LI":"大豐里","LIN":"26鄰","STREET":"和緯路","SECT":"四段","MAREA":" ","LANE":"９５巷","ALLEY":" ","HOUSE_NO":"２４號三樓","E_COORD97":167100.75,"N_COORD97":2545405.79,"ADDRESS":"和緯路四段９５巷２４號三樓","OBJECTID":453223},"geometry":{"x":167100.75,"y":2545405.790000001}},{"attributes":{"ID":453249,"DIS_CODE":0,"TOWNNAME":"北區","LI":"大豐里","LIN":"26鄰","STREET":"和緯路","SECT":"四段","MAREA":" ","LANE":"９５巷","ALLEY":" ","HOUSE_NO":"２４號五樓","E_COORD97":167100.75,"N_COORD97":2545405.79,"ADDRESS":"和緯路四段９５巷２４號五樓","OBJECTID":453224},"geometry":{"x":167100.75,"y":2545405.790000001}},{"attributes":{"ID":453250,"DIS_CODE":0,"TOWNNAME":"北區","LI":"大豐里","LIN":"26鄰","STREET":"和緯路","SECT":"四段","MAREA":" ","LANE":"９５巷","ALLEY":" ","HOUSE_NO":"２４號四樓","E_COORD97":167100.75,"N_COORD97":2545405.79,"ADDRESS":"和緯路四段９５巷２４號四樓","OBJECTID":453225},"geometry":{"x":167100.75,"y":2545405.790000001}},{"attributes":{"ID":453251,"DIS_CODE":0,"TOWNNAME":"北區","LI":"大豐里","LIN":"26鄰","STREET":"和緯路","SECT":"四段","MAREA":" ","LANE":"９５巷","ALLEY":" ","HOUSE_NO":"２６號三樓","E_COORD97":167099.78,"N_COORD97":2545396.5499999998,"ADDRESS":"和緯路四段９５巷２６號三樓","OBJECTID":453226},"geometry":{"x":167099.78000000119,"y":2545396.5500000007}},{"attributes":{"ID":453252,"DIS_CODE":0,"TOWNNAME":"北區","LI":"大豐里","LIN":"26鄰","STREET":"和緯路","SECT":"四段","MAREA":" ","LANE":"９５巷","ALLEY":" ","HOUSE_NO":"２６號五樓","E_COORD97":167099.78,"N_COORD97":2545396.5499999998,"ADDRESS":"和緯路四段９５巷２６號五樓","OBJECTID":453227},"geometry":{"x":167099.78000000119,"y":2545396.5500000007}},{"attributes":{"ID":453253,"DIS_CODE":0,"TOWNNAME":"北區","LI":"大豐里","LIN":"26鄰","STREET":"和緯路","SECT":"四段","MAREA":" ","LANE":"９５巷","ALLEY":" ","HOUSE_NO":"２６號四樓","E_COORD97":167099.78,"N_COORD97":2545396.5499999998,"ADDRESS":"和緯路四段９５巷２６號四樓","OBJECTID":453228},"geometry":{"x":167099.78000000119,"y":2545396.5500000007}},{"attributes":{"ID":453254,"DIS_CODE":0,"TOWNNAME":"北區","LI":"大豐里","LIN":"26鄰","STREET":"和緯路","SECT":"四段","MAREA":" ","LANE":"９５巷","ALLEY":" ","HOUSE_NO":"２８號二樓","E_COORD97":167099.42999999999,"N_COORD97":2545392.7599999998,"ADDRESS":"和緯路四段９５巷２８號二樓","OBJECTID":453229},"geometry":{"x":167099.4299999997,"y":2545392.7600000016}},{"attributes":{"ID":453255,"DIS_CODE":0,"TOWNNAME":"北區","LI":"大豐里","LIN":"26鄰","STREET":"和緯路","SECT":"四段","MAREA":" ","LANE":"９５巷","ALLEY":" ","HOUSE_NO":"２８號三樓","E_COORD97":167099.42999999999,"N_COORD97":2545392.7599999998,"ADDRESS":"和緯路四段９５巷２８號三樓","OBJECTID":453230},"geometry":{"x":167099.4299999997,"y":2545392.7600000016}},{"attributes":{"ID":453256,"DIS_CODE":0,"TOWNNAME":"北區","LI":"大豐里","LIN":"26鄰","STREET":"和緯路","SECT":"四段","MAREA":" ","LANE":"９５巷","ALLEY":" ","HOUSE_NO":"２８號五樓","E_COORD97":167099.42999999999,"N_COORD97":2545392.7599999998,"ADDRESS":"和緯路四段９５巷２８號五樓","OBJECTID":453231},"geometry":{"x":167099.4299999997,"y":2545392.7600000016}},{"attributes":{"ID":453257,"DIS_CODE":0,"TOWNNAME":"北區","LI":"大豐里","LIN":"26鄰","STREET":"和緯路","SECT":"四段","MAREA":" ","LANE":"９５巷","ALLEY":" ","HOUSE_NO":"２８號四樓","E_COORD97":167099.42999999999,"N_COORD97":2545392.7599999998,"ADDRESS":"和緯路四段９５巷２８號四樓","OBJECTID":453232},"geometry":{"x":167099.4299999997,"y":2545392.7600000016}},{"attributes":{"ID":453258,"DIS_CODE":0,"TOWNNAME":"北區","LI":"大豐里","LIN":"26鄰","STREET":"和緯路","SECT":"四段","MAREA":" ","LANE":"９５巷","ALLEY":" ","HOUSE_NO":"３０號二樓","E_COORD97":167097.59,"N_COORD97":2545383.8999999999,"ADDRESS":"和緯路四段９５巷３０號二樓","OBJECTID":453233},"geometry":{"x":167097.59000000078,"y":2545383.9000000004}},{"attributes":{"ID":453259,"DIS_CODE":0,"TOWNNAME":"北區","LI":"大豐里","LIN":"26鄰","STREET":"和緯路","SECT":"四段","MAREA":" ","LANE":"９５巷","ALLEY":" ","HOUSE_NO":"３０號三樓","E_COORD97":167097.59,"N_COORD97":2545383.8999999999,"ADDRESS":"和緯路四段９５巷３０號三樓","OBJECTID":453234},"geometry":{"x":167097.59000000078,"y":2545383.9000000004}},{"attributes":{"ID":453260,"DIS_CODE":0,"TOWNNAME":"北區","LI":"大豐里","LIN":"26鄰","STREET":"和緯路","SECT":"四段","MAREA":" ","LANE":"９５巷","ALLEY":" ","HOUSE_NO":"３０號五樓","E_COORD97":167097.59,"N_COORD97":2545383.8999999999,"ADDRESS":"和緯路四段９５巷３０號五樓","OBJECTID":453235},"geometry":{"x":167097.59000000078,"y":2545383.9000000004}},{"attributes":{"ID":453261,"DIS_CODE":0,"TOWNNAME":"北區","LI":"大豐里","LIN":"26鄰","STREET":"和緯路","SECT":"四段","MAREA":" ","LANE":"９５巷","ALLEY":" ","HOUSE_NO":"３０號四樓","E_COORD97":167097.59,"N_COORD97":2545383.8999999999,"ADDRESS":"和緯路四段９５巷３０號四樓","OBJECTID":453236},"geometry":{"x":167097.59000000078,"y":2545383.9000000004}},{"attributes":{"ID":453262,"DIS_CODE":0,"TOWNNAME":"北區","LI":"大豐里","LIN":"26鄰","STREET":"和緯路","SECT":"四段","MAREA":" ","LANE":"９５巷","ALLEY":" ","HOUSE_NO":"３２號二樓","E_COORD97":167097.76000000001,"N_COORD97":2545380.04,"ADDRESS":"和緯路四段９５巷３２號二樓","OBJECTID":453237},"geometry":{"x":167097.76000000071,"y":2545380.040000001}},{"attributes":{"ID":453263,"DIS_CODE":0,"TOWNNAME":"北區","LI":"大豐里","LIN":"26鄰","STREET":"和緯路","SECT":"四段","MAREA":" ","LANE":"９５巷","ALLEY":" ","HOUSE_NO":"３２號三樓","E_COORD97":167097.76000000001,"N_COORD97":2545380.04,"ADDRESS":"和緯路四段９５巷３２號三樓","OBJECTID":453238},"geometry":{"x":167097.76000000071,"y":2545380.040000001}},{"attributes":{"ID":453264,"DIS_CODE":0,"TOWNNAME":"北區","LI":"大豐里","LIN":"26鄰","STREET":"和緯路","SECT":"四段","MAREA":" ","LANE":"９５巷","ALLEY":" ","HOUSE_NO":"３２號五樓","E_COORD97":167097.76000000001,"N_COORD97":2545380.04,"ADDRESS":"和緯路四段９５巷３２號五樓","OBJECTID":453239},"geometry":{"x":167097.76000000071,"y":2545380.040000001}},{"attributes":{"ID":453265,"DIS_CODE":0,"TOWNNAME":"新營區","LI":"新東里","LIN":"26鄰","STREET":"東興三街","SECT":" ","MAREA":" ","LANE":"２２巷","ALLEY":" ","HOUSE_NO":"５０號三樓","E_COORD97":180664,"N_COORD97":2579416.8100000001,"ADDRESS":"東興三街２２巷５０號三樓","OBJECTID":453240},"geometry":{"x":180664,"y":2579416.8100000005}},{"attributes":{"ID":453266,"DIS_CODE":0,"TOWNNAME":"北區","LI":"大豐里","LIN":"26鄰","STREET":"和緯路","SECT":"四段","MAREA":" ","LANE":"９５巷","ALLEY":" ","HOUSE_NO":"３２號四樓","E_COORD97":167097.76000000001,"N_COORD97":2545380.04,"ADDRESS":"和緯路四段９５巷３２號四樓","OBJECTID":453241},"geometry":{"x":167097.76000000071,"y":2545380.040000001}},{"attributes":{"ID":453267,"DIS_CODE":0,"TOWNNAME":"北區","LI":"大豐里","LIN":"26鄰","STREET":"和緯路","SECT":"四段","MAREA":" ","LANE":"９５巷","ALLEY":" ","HOUSE_NO":"３４號三樓","E_COORD97":167097.59,"N_COORD97":2545373.7000000002,"ADDRESS":"和緯路四段９５巷３４號三樓","OBJECTID":453242},"geometry":{"x":167097.59000000078,"y":2545373.6999999993}},{"attributes":{"ID":453268,"DIS_CODE":0,"TOWNNAME":"北區","LI":"大豐里","LIN":"26鄰","STREET":"和緯路","SECT":"四段","MAREA":" ","LANE":"９５巷","ALLEY":" ","HOUSE_NO":"３４號五樓","E_COORD97":167097.59,"N_COORD97":2545373.7000000002,"ADDRESS":"和緯路四段９５巷３４號五樓","OBJECTID":453243},"geometry":{"x":167097.59000000078,"y":2545373.6999999993}},{"attributes":{"ID":453269,"DIS_CODE":0,"TOWNNAME":"北區","LI":"大豐里","LIN":"26鄰","STREET":"和緯路","SECT":"四段","MAREA":" ","LANE":"９５巷","ALLEY":" ","HOUSE_NO":"３４號四樓","E_COORD97":167097.59,"N_COORD97":2545373.7000000002,"ADDRESS":"和緯路四段９５巷３４號四樓","OBJECTID":453244},"geometry":{"x":167097.59000000078,"y":2545373.6999999993}},{"attributes":{"ID":453270,"DIS_CODE":0,"TOWNNAME":"北區","LI":"大豐里","LIN":"26鄰","STREET":"和緯路","SECT":"四段","MAREA":" ","LANE":"９５巷","ALLEY":" ","HOUSE_NO":"３６號二樓","E_COORD97":167093.53,"N_COORD97":2545356.8100000001,"ADDRESS":"和緯路四段９５巷３６號二樓","OBJECTID":453245},"geometry":{"x":167093.53000000119,"y":2545356.8100000024}},{"attributes":{"ID":453271,"DIS_CODE":0,"TOWNNAME":"北區","LI":"大豐里","LIN":"26鄰","STREET":"和緯路","SECT":"四段","MAREA":" ","LANE":"９５巷","ALLEY":" ","HOUSE_NO":"３６號三樓","E_COORD97":167093.53,"N_COORD97":2545356.8100000001,"ADDRESS":"和緯路四段９５巷３６號三樓","OBJECTID":453246},"geometry":{"x":167093.53000000119,"y":2545356.8100000024}},{"attributes":{"ID":453272,"DIS_CODE":0,"TOWNNAME":"北區","LI":"大豐里","LIN":"26鄰","STREET":"和緯路","SECT":"四段","MAREA":" ","LANE":"９５巷","ALLEY":" ","HOUSE_NO":"３６號五樓","E_COORD97":167093.53,"N_COORD97":2545356.8100000001,"ADDRESS":"和緯路四段９５巷３６號五樓","OBJECTID":453247},"geometry":{"x":167093.53000000119,"y":2545356.8100000024}},{"attributes":{"ID":453273,"DIS_CODE":0,"TOWNNAME":"北區","LI":"大豐里","LIN":"26鄰","STREET":"和緯路","SECT":"四段","MAREA":" ","LANE":"９５巷","ALLEY":" ","HOUSE_NO":"３６號四樓","E_COORD97":167093.53,"N_COORD97":2545356.8100000001,"ADDRESS":"和緯路四段９５巷３６號四樓","OBJECTID":453248},"geometry":{"x":167093.53000000119,"y":2545356.8100000024}},{"attributes":{"ID":453274,"DIS_CODE":0,"TOWNNAME":"北區","LI":"大豐里","LIN":"26鄰","STREET":"和緯路","SECT":"四段","MAREA":" ","LANE":"９５巷","ALLEY":" ","HOUSE_NO":"３８號二樓","E_COORD97":167093.01000000001,"N_COORD97":2545353.3900000001,"ADDRESS":"和緯路四段９５巷３８號二樓","OBJECTID":453249},"geometry":{"x":167093.01000000071,"y":2545353.3900000006}},{"attributes":{"ID":453275,"DIS_CODE":0,"TOWNNAME":"北區","LI":"大豐里","LIN":"26鄰","STREET":"和緯路","SECT":"四段","MAREA":" ","LANE":"９５巷","ALLEY":" ","HOUSE_NO":"３８號三樓","E_COORD97":167093.01000000001,"N_COORD97":2545353.3900000001,"ADDRESS":"和緯路四段９５巷３８號三樓","OBJECTID":453250},"geometry":{"x":167093.01000000071,"y":2545353.3900000006}},{"attributes":{"ID":453276,"DIS_CODE":0,"TOWNNAME":"北區","LI":"和順里","LIN":"38鄰","STREET":"公園南路","SECT":" ","MAREA":" ","LANE":"３７０巷","ALLEY":" ","HOUSE_NO":"６２號","E_COORD97":168276.67000000001,"N_COORD97":2544965.3900000001,"ADDRESS":"公園南路３７０巷６２號","OBJECTID":453251},"geometry":{"x":168276.67000000086,"y":2544965.3900000025}},{"attributes":{"ID":453277,"DIS_CODE":0,"TOWNNAME":"北區","LI":"和順里","LIN":"38鄰","STREET":"公園南路","SECT":" ","MAREA":" ","LANE":"３７０巷","ALLEY":" ","HOUSE_NO":"６６號","E_COORD97":168278.84,"N_COORD97":2544962.3900000001,"ADDRESS":"公園南路３７０巷６６號","OBJECTID":453252},"geometry":{"x":168278.84000000078,"y":2544962.3900000025}},{"attributes":{"ID":453278,"DIS_CODE":0,"TOWNNAME":"北區","LI":"大豐里","LIN":"26鄰","STREET":"和緯路","SECT":"四段","MAREA":" ","LANE":"９５巷","ALLEY":" ","HOUSE_NO":"３８號五樓","E_COORD97":167093.01000000001,"N_COORD97":2545353.3900000001,"ADDRESS":"和緯路四段９５巷３８號五樓","OBJECTID":453253},"geometry":{"x":167093.01000000071,"y":2545353.3900000006}},{"attributes":{"ID":453279,"DIS_CODE":0,"TOWNNAME":"北區","LI":"大豐里","LIN":"26鄰","STREET":"和緯路","SECT":"四段","MAREA":" ","LANE":"９５巷","ALLEY":" ","HOUSE_NO":"３８號四樓","E_COORD97":167093.01000000001,"N_COORD97":2545353.3900000001,"ADDRESS":"和緯路四段９５巷３８號四樓","OBJECTID":453254},"geometry":{"x":167093.01000000071,"y":2545353.3900000006}},{"attributes":{"ID":453280,"DIS_CODE":0,"TOWNNAME":"北區","LI":"大豐里","LIN":"26鄰","STREET":"和緯路","SECT":"四段","MAREA":" ","LANE":"９５巷","ALLEY":" ","HOUSE_NO":"４０號二樓","E_COORD97":167091.78,"N_COORD97":2545344.27,"ADDRESS":"和緯路四段９５巷４０號二樓","OBJECTID":453255},"geometry":{"x":167091.78000000119,"y":2545344.2700000033}},{"attributes":{"ID":453281,"DIS_CODE":0,"TOWNNAME":"北區","LI":"大豐里","LIN":"26鄰","STREET":"和緯路","SECT":"四段","MAREA":" ","LANE":"９５巷","ALLEY":" ","HOUSE_NO":"４０號三樓","E_COORD97":167091.78,"N_COORD97":2545344.27,"ADDRESS":"和緯路四段９５巷４０號三樓","OBJECTID":453256},"geometry":{"x":167091.78000000119,"y":2545344.2700000033}},{"attributes":{"ID":453282,"DIS_CODE":0,"TOWNNAME":"北區","LI":"大豐里","LIN":"26鄰","STREET":"和緯路","SECT":"四段","MAREA":" ","LANE":"９５巷","ALLEY":" ","HOUSE_NO":"４０號五樓","E_COORD97":167091.78,"N_COORD97":2545344.27,"ADDRESS":"和緯路四段９５巷４０號五樓","OBJECTID":453257},"geometry":{"x":167091.78000000119,"y":2545344.2700000033}},{"attributes":{"ID":453283,"DIS_CODE":0,"TOWNNAME":"北區","LI":"大豐里","LIN":"26鄰","STREET":"和緯路","SECT":"四段","MAREA":" ","LANE":"９５巷","ALLEY":" ","HOUSE_NO":"４０號四樓","E_COORD97":167091.78,"N_COORD97":2545344.27,"ADDRESS":"和緯路四段９５巷４０號四樓","OBJECTID":453258},"geometry":{"x":167091.78000000119,"y":2545344.2700000033}},{"attributes":{"ID":453284,"DIS_CODE":0,"TOWNNAME":"新營區","LI":"新東里","LIN":"26鄰","STREET":"東興五街","SECT":" ","MAREA":" ","LANE":"２１巷","ALLEY":" ","HOUSE_NO":"４７號二樓","E_COORD97":180602.85000000001,"N_COORD97":2579450.3300000001,"ADDRESS":"東興五街２１巷４７號二樓","OBJECTID":453259},"geometry":{"x":180602.85000000056,"y":2579450.3300000001}},{"attributes":{"ID":453285,"DIS_CODE":0,"TOWNNAME":"安平區","LI":"文平里","LIN":"26鄰","STREET":"永華二街","SECT":" ","MAREA":" ","LANE":"４１巷","ALLEY":" ","HOUSE_NO":"５０號五樓之８","E_COORD97":166215.12,"N_COORD97":2542987.2200000002,"ADDRESS":"永華二街４１巷５０號五樓之８","OBJECTID":453260},"geometry":{"x":166215.12000000011,"y":2542987.2200000025}},{"attributes":{"ID":453286,"DIS_CODE":0,"TOWNNAME":"安平區","LI":"文平里","LIN":"26鄰","STREET":"永華二街","SECT":" ","MAREA":" ","LANE":"４１巷","ALLEY":" ","HOUSE_NO":"５０號五樓之９","E_COORD97":166215.12,"N_COORD97":2542987.2200000002,"ADDRESS":"永華二街４１巷５０號五樓之９","OBJECTID":453261},"geometry":{"x":166215.12000000011,"y":2542987.2200000025}},{"attributes":{"ID":453287,"DIS_CODE":0,"TOWNNAME":"安平區","LI":"文平里","LIN":"26鄰","STREET":"永華二街","SECT":" ","MAREA":" ","LANE":"４１巷","ALLEY":" ","HOUSE_NO":"５０號七樓之８","E_COORD97":166215.12,"N_COORD97":2542987.2200000002,"ADDRESS":"永華二街４１巷５０號七樓之８","OBJECTID":453262},"geometry":{"x":166215.12000000011,"y":2542987.2200000025}},{"attributes":{"ID":453288,"DIS_CODE":0,"TOWNNAME":"安平區","LI":"文平里","LIN":"26鄰","STREET":"永華二街","SECT":" ","MAREA":" ","LANE":"４１巷","ALLEY":" ","HOUSE_NO":"５０號六樓之２","E_COORD97":166215.12,"N_COORD97":2542987.2200000002,"ADDRESS":"永華二街４１巷５０號六樓之２","OBJECTID":453263},"geometry":{"x":166215.12000000011,"y":2542987.2200000025}},{"attributes":{"ID":453289,"DIS_CODE":0,"TOWNNAME":"安平區","LI":"文平里","LIN":"26鄰","STREET":"永華二街","SECT":" ","MAREA":" ","LANE":"４１巷","ALLEY":" ","HOUSE_NO":"５０號六樓之４","E_COORD97":166215.12,"N_COORD97":2542987.2200000002,"ADDRESS":"永華二街４１巷５０號六樓之４","OBJECTID":453264},"geometry":{"x":166215.12000000011,"y":2542987.2200000025}},{"attributes":{"ID":453290,"DIS_CODE":0,"TOWNNAME":"安平區","LI":"文平里","LIN":"26鄰","STREET":"永華二街","SECT":" ","MAREA":" ","LANE":"４１巷","ALLEY":" ","HOUSE_NO":"５０號六樓之５","E_COORD97":166215.12,"N_COORD97":2542987.2200000002,"ADDRESS":"永華二街４１巷５０號六樓之５","OBJECTID":453265},"geometry":{"x":166215.12000000011,"y":2542987.2200000025}},{"attributes":{"ID":453291,"DIS_CODE":0,"TOWNNAME":"安平區","LI":"文平里","LIN":"26鄰","STREET":"永華二街","SECT":" ","MAREA":" ","LANE":"４１巷","ALLEY":" ","HOUSE_NO":"５０號六樓之６","E_COORD97":166215.12,"N_COORD97":2542987.2200000002,"ADDRESS":"永華二街４１巷５０號六樓之６","OBJECTID":453266},"geometry":{"x":166215.12000000011,"y":2542987.2200000025}},{"attributes":{"ID":453292,"DIS_CODE":0,"TOWNNAME":"安平區","LI":"文平里","LIN":"26鄰","STREET":"永華二街","SECT":" ","MAREA":" ","LANE":"４１巷","ALLEY":" ","HOUSE_NO":"５０號六樓之７","E_COORD97":166215.12,"N_COORD97":2542987.2200000002,"ADDRESS":"永華二街４１巷５０號六樓之７","OBJECTID":453267},"geometry":{"x":166215.12000000011,"y":2542987.2200000025}},{"attributes":{"ID":453293,"DIS_CODE":0,"TOWNNAME":"安平區","LI":"文平里","LIN":"26鄰","STREET":"永華二街","SECT":" ","MAREA":" ","LANE":"４１巷","ALLEY":" ","HOUSE_NO":"５０號六樓之８","E_COORD97":166215.12,"N_COORD97":2542987.2200000002,"ADDRESS":"永華二街４１巷５０號六樓之８","OBJECTID":453268},"geometry":{"x":166215.12000000011,"y":2542987.2200000025}},{"attributes":{"ID":453294,"DIS_CODE":0,"TOWNNAME":"安平區","LI":"文平里","LIN":"26鄰","STREET":"永華二街","SECT":" ","MAREA":" ","LANE":"４１巷","ALLEY":" ","HOUSE_NO":"５０號四樓之１","E_COORD97":166215.12,"N_COORD97":2542987.2200000002,"ADDRESS":"永華二街４１巷５０號四樓之１","OBJECTID":453269},"geometry":{"x":166215.12000000011,"y":2542987.2200000025}},{"attributes":{"ID":453295,"DIS_CODE":0,"TOWNNAME":"安平區","LI":"文平里","LIN":"26鄰","STREET":"永華二街","SECT":" ","MAREA":" ","LANE":"４１巷","ALLEY":" ","HOUSE_NO":"５０號四樓之１０","E_COORD97":166215.12,"N_COORD97":2542987.2200000002,"ADDRESS":"永華二街４１巷５０號四樓之１０","OBJECTID":453270},"geometry":{"x":166215.12000000011,"y":2542987.2200000025}},{"attributes":{"ID":453296,"DIS_CODE":0,"TOWNNAME":"安平區","LI":"文平里","LIN":"26鄰","STREET":"永華二街","SECT":" ","MAREA":" ","LANE":"４１巷","ALLEY":" ","HOUSE_NO":"５０號四樓之２","E_COORD97":166215.12,"N_COORD97":2542987.2200000002,"ADDRESS":"永華二街４１巷５０號四樓之２","OBJECTID":453271},"geometry":{"x":166215.12000000011,"y":2542987.2200000025}},{"attributes":{"ID":453297,"DIS_CODE":0,"TOWNNAME":"安平區","LI":"文平里","LIN":"26鄰","STREET":"永華二街","SECT":" ","MAREA":" ","LANE":"４１巷","ALLEY":" ","HOUSE_NO":"５０號四樓之３","E_COORD97":166215.12,"N_COORD97":2542987.2200000002,"ADDRESS":"永華二街４１巷５０號四樓之３","OBJECTID":453272},"geometry":{"x":166215.12000000011,"y":2542987.2200000025}},{"attributes":{"ID":453298,"DIS_CODE":0,"TOWNNAME":"安平區","LI":"文平里","LIN":"26鄰","STREET":"永華二街","SECT":" ","MAREA":" ","LANE":"４１巷","ALLEY":" ","HOUSE_NO":"５０號四樓之４","E_COORD97":166215.12,"N_COORD97":2542987.2200000002,"ADDRESS":"永華二街４１巷５０號四樓之４","OBJECTID":453273},"geometry":{"x":166215.12000000011,"y":2542987.2200000025}},{"attributes":{"ID":453299,"DIS_CODE":0,"TOWNNAME":"北區","LI":"和順里","LIN":"36鄰","STREET":"公園南路","SECT":" ","MAREA":" ","LANE":"３７０巷","ALLEY":" ","HOUSE_NO":"６號","E_COORD97":168199.89000000001,"N_COORD97":2544890.7200000002,"ADDRESS":"公園南路３７０巷６號","OBJECTID":453274},"geometry":{"x":168199.88999999966,"y":2544890.7200000007}},{"attributes":{"ID":453300,"DIS_CODE":0,"TOWNNAME":"北區","LI":"和順里","LIN":"38鄰","STREET":"公園南路","SECT":" ","MAREA":" ","LANE":"３７０巷","ALLEY":" ","HOUSE_NO":"６８號","E_COORD97":168281.5,"N_COORD97":2544959.3999999999,"ADDRESS":"公園南路３７０巷６８號","OBJECTID":453275},"geometry":{"x":168281.50000000093,"y":2544959.4000000004}},{"attributes":{"ID":453301,"DIS_CODE":0,"TOWNNAME":"安平區","LI":"文平里","LIN":"26鄰","STREET":"永華二街","SECT":" ","MAREA":" ","LANE":"４１巷","ALLEY":" ","HOUSE_NO":"５０號四樓之５","E_COORD97":166215.12,"N_COORD97":2542987.2200000002,"ADDRESS":"永華二街４１巷５０號四樓之５","OBJECTID":453276},"geometry":{"x":166215.12000000011,"y":2542987.2200000025}},{"attributes":{"ID":453302,"DIS_CODE":0,"TOWNNAME":"安平區","LI":"文平里","LIN":"26鄰","STREET":"永華二街","SECT":" ","MAREA":" ","LANE":"４１巷","ALLEY":" ","HOUSE_NO":"５０號四樓之６","E_COORD97":166215.12,"N_COORD97":2542987.2200000002,"ADDRESS":"永華二街４１巷５０號四樓之６","OBJECTID":453277},"geometry":{"x":166215.12000000011,"y":2542987.2200000025}},{"attributes":{"ID":453303,"DIS_CODE":0,"TOWNNAME":"安平區","LI":"文平里","LIN":"26鄰","STREET":"永華二街","SECT":" ","MAREA":" ","LANE":"４１巷","ALLEY":" ","HOUSE_NO":"５０號四樓之７","E_COORD97":166215.12,"N_COORD97":2542987.2200000002,"ADDRESS":"永華二街４１巷５０號四樓之７","OBJECTID":453278},"geometry":{"x":166215.12000000011,"y":2542987.2200000025}},{"attributes":{"ID":453304,"DIS_CODE":0,"TOWNNAME":"安平區","LI":"文平里","LIN":"26鄰","STREET":"永華二街","SECT":" ","MAREA":" ","LANE":"４１巷","ALLEY":" ","HOUSE_NO":"５０號四樓之８","E_COORD97":166215.12,"N_COORD97":2542987.2200000002,"ADDRESS":"永華二街４１巷５０號四樓之８","OBJECTID":453279},"geometry":{"x":166215.12000000011,"y":2542987.2200000025}},{"attributes":{"ID":453305,"DIS_CODE":0,"TOWNNAME":"安平區","LI":"文平里","LIN":"26鄰","STREET":"永華二街","SECT":" ","MAREA":" ","LANE":"４１巷","ALLEY":" ","HOUSE_NO":"５０號四樓之９","E_COORD97":166215.12,"N_COORD97":2542987.2200000002,"ADDRESS":"永華二街４１巷５０號四樓之９","OBJECTID":453280},"geometry":{"x":166215.12000000011,"y":2542987.2200000025}},{"attributes":{"ID":453306,"DIS_CODE":0,"TOWNNAME":"安平區","LI":"文平里","LIN":"26鄰","STREET":"永華二街","SECT":" ","MAREA":" ","LANE":"４１巷","ALLEY":" ","HOUSE_NO":"５０號六樓之３","E_COORD97":166215.12,"N_COORD97":2542987.2200000002,"ADDRESS":"永華二街４１巷５０號六樓之３","OBJECTID":453281},"geometry":{"x":166215.12000000011,"y":2542987.2200000025}},{"attributes":{"ID":453307,"DIS_CODE":0,"TOWNNAME":"新營區","LI":"民生里","LIN":"26鄰","STREET":"民生路","SECT":" ","MAREA":" ","LANE":"１６３巷","ALLEY":" ","HOUSE_NO":"４７號四樓之７","E_COORD97":179111.91,"N_COORD97":2578622.4199999999,"ADDRESS":"民生路１６３巷４７號四樓之７","OBJECTID":453282},"geometry":{"x":179111.91000000015,"y":2578622.4199999999}},{"attributes":{"ID":453308,"DIS_CODE":0,"TOWNNAME":"新營區","LI":"新東里","LIN":"26鄰","STREET":"東興三街","SECT":" ","MAREA":" ","LANE":"２２巷","ALLEY":" ","HOUSE_NO":"４２號四樓之１０","E_COORD97":180700.23999999999,"N_COORD97":2579418.9100000001,"ADDRESS":"東興三街２２巷４２號四樓之１０","OBJECTID":453283},"geometry":{"x":180700.23999999929,"y":2579418.9100000001}},{"attributes":{"ID":453309,"DIS_CODE":0,"TOWNNAME":"新營區","LI":"新東里","LIN":"26鄰","STREET":"東興五街","SECT":" ","MAREA":" ","LANE":"２１巷","ALLEY":" ","HOUSE_NO":"４９號六樓","E_COORD97":180602.85000000001,"N_COORD97":2579450.3300000001,"ADDRESS":"東興五街２１巷４９號六樓","OBJECTID":453284},"geometry":{"x":180602.85000000056,"y":2579450.3300000001}},{"attributes":{"ID":453310,"DIS_CODE":0,"TOWNNAME":"新營區","LI":"新東里","LIN":"26鄰","STREET":"東興三街","SECT":" ","MAREA":" ","LANE":"２２巷","ALLEY":" ","HOUSE_NO":"４２號三樓之３","E_COORD97":180699.03,"N_COORD97":2579418.9100000001,"ADDRESS":"東興三街２２巷４２號三樓之３","OBJECTID":453285},"geometry":{"x":180699.03000000119,"y":2579418.9100000001}},{"attributes":{"ID":453311,"DIS_CODE":0,"TOWNNAME":"北區","LI":"和順里","LIN":"38鄰","STREET":"公園南路","SECT":" ","MAREA":" ","LANE":"３７０巷","ALLEY":" ","HOUSE_NO":"７０號","E_COORD97":168283.98999999999,"N_COORD97":2544956.9100000001,"ADDRESS":"公園南路３７０巷７０號","OBJECTID":453286},"geometry":{"x":168283.99000000022,"y":2544956.9100000001}},{"attributes":{"ID":453312,"DIS_CODE":0,"TOWNNAME":"北區","LI":"和順里","LIN":"38鄰","STREET":"公園南路","SECT":" ","MAREA":" ","LANE":"３７０巷","ALLEY":" ","HOUSE_NO":"７２號","E_COORD97":168286.32000000001,"N_COORD97":2544953.75,"ADDRESS":"公園南路３７０巷７２號","OBJECTID":453287},"geometry":{"x":168286.32000000123,"y":2544953.75}},{"attributes":{"ID":453313,"DIS_CODE":0,"TOWNNAME":"北區","LI":"和順里","LIN":"36鄰","STREET":"公園南路","SECT":" ","MAREA":" ","LANE":"３７０巷","ALLEY":" ","HOUSE_NO":"７號","E_COORD97":168181.88,"N_COORD97":2544895.25,"ADDRESS":"公園南路３７０巷７號","OBJECTID":453288},"geometry":{"x":168181.88000000175,"y":2544895.2500000019}},{"attributes":{"ID":453314,"DIS_CODE":0,"TOWNNAME":"北區","LI":"和順里","LIN":"38鄰","STREET":"公園南路","SECT":" ","MAREA":" ","LANE":"３７０巷","ALLEY":" ","HOUSE_NO":"７６號","E_COORD97":168278.5,"N_COORD97":2544948.5099999998,"ADDRESS":"公園南路３７０巷７６號","OBJECTID":453289},"geometry":{"x":168278.50000000093,"y":2544948.5099999998}},{"attributes":{"ID":453315,"DIS_CODE":0,"TOWNNAME":"北區","LI":"和順里","LIN":"38鄰","STREET":"公園南路","SECT":" ","MAREA":" ","LANE":"３７０巷","ALLEY":" ","HOUSE_NO":"７８號","E_COORD97":168273.51000000001,"N_COORD97":2544944.6899999999,"ADDRESS":"公園南路３７０巷７８號","OBJECTID":453290},"geometry":{"x":168273.50999999978,"y":2544944.6900000032}},{"attributes":{"ID":453316,"DIS_CODE":0,"TOWNNAME":"新營區","LI":"新東里","LIN":"26鄰","STREET":"東興三街","SECT":" ","MAREA":" ","LANE":"２２巷","ALLEY":" ","HOUSE_NO":"４２號五樓之４","E_COORD97":180698.95999999999,"N_COORD97":2579418.9100000001,"ADDRESS":"東興三街２２巷４２號五樓之４","OBJECTID":453291},"geometry":{"x":180698.96000000089,"y":2579418.9100000001}},{"attributes":{"ID":453317,"DIS_CODE":0,"TOWNNAME":"新營區","LI":"新東里","LIN":"26鄰","STREET":"東興三街","SECT":" ","MAREA":" ","LANE":"２２巷","ALLEY":" ","HOUSE_NO":"４２號六樓之１０","E_COORD97":180700.23999999999,"N_COORD97":2579418.9100000001,"ADDRESS":"東興三街２２巷４２號六樓之１０","OBJECTID":453292},"geometry":{"x":180700.23999999929,"y":2579418.9100000001}},{"attributes":{"ID":453318,"DIS_CODE":0,"TOWNNAME":"新營區","LI":"新東里","LIN":"26鄰","STREET":"東興三街","SECT":" ","MAREA":" ","LANE":"２２巷","ALLEY":" ","HOUSE_NO":"４２號五樓之２","E_COORD97":180699.07000000001,"N_COORD97":2579418.9100000001,"ADDRESS":"東興三街２２巷４２號五樓之２","OBJECTID":453293},"geometry":{"x":180699.0700000003,"y":2579418.9100000001}},{"attributes":{"ID":453319,"DIS_CODE":0,"TOWNNAME":"新營區","LI":"新東里","LIN":"26鄰","STREET":"東興三街","SECT":" ","MAREA":" ","LANE":"２２巷","ALLEY":" ","HOUSE_NO":"４２號六樓之１１","E_COORD97":180700.17999999999,"N_COORD97":2579418.9100000001,"ADDRESS":"東興三街２２巷４２號六樓之１１","OBJECTID":453294},"geometry":{"x":180700.18000000156,"y":2579418.9100000001}},{"attributes":{"ID":453320,"DIS_CODE":0,"TOWNNAME":"新營區","LI":"新東里","LIN":"26鄰","STREET":"東興三街","SECT":" ","MAREA":" ","LANE":"２２巷","ALLEY":" ","HOUSE_NO":"４２號六樓之９","E_COORD97":180699.01999999999,"N_COORD97":2579418.9100000001,"ADDRESS":"東興三街２２巷４２號六樓之９","OBJECTID":453295},"geometry":{"x":180699.01999999955,"y":2579418.9100000001}},{"attributes":{"ID":453321,"DIS_CODE":0,"TOWNNAME":"新營區","LI":"新東里","LIN":"26鄰","STREET":"東興三街","SECT":" ","MAREA":" ","LANE":"２２巷","ALLEY":" ","HOUSE_NO":"４６號六樓","E_COORD97":180682.47,"N_COORD97":2579416.73,"ADDRESS":"東興三街２２巷４６號六樓","OBJECTID":453296},"geometry":{"x":180682.46999999974,"y":2579416.7300000023}},{"attributes":{"ID":453322,"DIS_CODE":0,"TOWNNAME":"北區","LI":"和順里","LIN":"38鄰","STREET":"公園南路","SECT":" ","MAREA":" ","LANE":"３７０巷","ALLEY":" ","HOUSE_NO":"８０號","E_COORD97":168267.51999999999,"N_COORD97":2544940.5299999998,"ADDRESS":"公園南路３７０巷８０號","OBJECTID":453297},"geometry":{"x":168267.52000000048,"y":2544940.5299999993}},{"attributes":{"ID":453323,"DIS_CODE":0,"TOWNNAME":"新營區","LI":"新東里","LIN":"26鄰","STREET":"東興三街","SECT":" ","MAREA":" ","LANE":"２２巷","ALLEY":" ","HOUSE_NO":"４２號五樓之１０","E_COORD97":180700.23999999999,"N_COORD97":2579418.9100000001,"ADDRESS":"東興三街２２巷４２號五樓之１０","OBJECTID":453298},"geometry":{"x":180700.23999999929,"y":2579418.9100000001}},{"attributes":{"ID":453324,"DIS_CODE":0,"TOWNNAME":"新營區","LI":"新東里","LIN":"26鄰","STREET":"東興三街","SECT":" ","MAREA":" ","LANE":"２２巷","ALLEY":" ","HOUSE_NO":"４２號三樓之１０","E_COORD97":180700.23999999999,"N_COORD97":2579418.9100000001,"ADDRESS":"東興三街２２巷４２號三樓之１０","OBJECTID":453299},"geometry":{"x":180700.23999999929,"y":2579418.9100000001}},{"attributes":{"ID":453325,"DIS_CODE":0,"TOWNNAME":"新營區","LI":"新東里","LIN":"26鄰","STREET":"東興三街","SECT":" ","MAREA":" ","LANE":"２２巷","ALLEY":" ","HOUSE_NO":"４２號五樓之１","E_COORD97":180698.92999999999,"N_COORD97":2579418.9100000001,"ADDRESS":"東興三街２２巷４２號五樓之１","OBJECTID":453300},"geometry":{"x":180698.93000000063,"y":2579418.9100000001}},{"attributes":{"ID":453326,"DIS_CODE":0,"TOWNNAME":"新營區","LI":"新東里","LIN":"26鄰","STREET":"東興三街","SECT":" ","MAREA":" ","LANE":"２２巷","ALLEY":" ","HOUSE_NO":"４８號六樓","E_COORD97":180682.47,"N_COORD97":2579416.73,"ADDRESS":"東興三街２２巷４８號六樓","OBJECTID":453301},"geometry":{"x":180682.46999999974,"y":2579416.7300000023}},{"attributes":{"ID":453327,"DIS_CODE":0,"TOWNNAME":"新營區","LI":"新東里","LIN":"26鄰","STREET":"東興三街","SECT":" ","MAREA":" ","LANE":"２２巷","ALLEY":" ","HOUSE_NO":"４８號五樓","E_COORD97":180682.47,"N_COORD97":2579416.73,"ADDRESS":"東興三街２２巷４８號五樓","OBJECTID":453302},"geometry":{"x":180682.46999999974,"y":2579416.7300000023}},{"attributes":{"ID":453328,"DIS_CODE":0,"TOWNNAME":"新營區","LI":"新東里","LIN":"26鄰","STREET":"東興三街","SECT":" ","MAREA":" ","LANE":"２２巷","ALLEY":" ","HOUSE_NO":"４２號六樓之７","E_COORD97":180699.01000000001,"N_COORD97":2579418.9100000001,"ADDRESS":"東興三街２２巷４２號六樓之７","OBJECTID":453303},"geometry":{"x":180699.00999999978,"y":2579418.9100000001}},{"attributes":{"ID":453329,"DIS_CODE":0,"TOWNNAME":"新營區","LI":"新東里","LIN":"26鄰","STREET":"東興三街","SECT":" ","MAREA":" ","LANE":"２２巷","ALLEY":" ","HOUSE_NO":"４２號四樓之５","E_COORD97":180699.09,"N_COORD97":2579418.9100000001,"ADDRESS":"東興三街２２巷４２號四樓之５","OBJECTID":453304},"geometry":{"x":180699.08999999985,"y":2579418.9100000001}},{"attributes":{"ID":453330,"DIS_CODE":0,"TOWNNAME":"新營區","LI":"新東里","LIN":"26鄰","STREET":"東興三街","SECT":" ","MAREA":" ","LANE":"２２巷","ALLEY":" ","HOUSE_NO":"４２號四樓之３","E_COORD97":180699.03,"N_COORD97":2579418.9100000001,"ADDRESS":"東興三街２２巷４２號四樓之３","OBJECTID":453305},"geometry":{"x":180699.03000000119,"y":2579418.9100000001}},{"attributes":{"ID":453331,"DIS_CODE":0,"TOWNNAME":"新營區","LI":"新東里","LIN":"26鄰","STREET":"東興三街","SECT":" ","MAREA":" ","LANE":"２２巷","ALLEY":" ","HOUSE_NO":"４２號六樓之３","E_COORD97":180699.03,"N_COORD97":2579418.9100000001,"ADDRESS":"東興三街２２巷４２號六樓之３","OBJECTID":453306},"geometry":{"x":180699.03000000119,"y":2579418.9100000001}},{"attributes":{"ID":453332,"DIS_CODE":0,"TOWNNAME":"新營區","LI":"新東里","LIN":"26鄰","STREET":"東興三街","SECT":" ","MAREA":" ","LANE":"２２巷","ALLEY":" ","HOUSE_NO":"４２號五樓之８","E_COORD97":180699.07999999999,"N_COORD97":2579418.9100000001,"ADDRESS":"東興三街２２巷４２號五樓之８","OBJECTID":453307},"geometry":{"x":180699.08000000007,"y":2579418.9100000001}},{"attributes":{"ID":453333,"DIS_CODE":0,"TOWNNAME":"新營區","LI":"新東里","LIN":"26鄰","STREET":"東興三街","SECT":" ","MAREA":" ","LANE":"２２巷","ALLEY":" ","HOUSE_NO":"４２號五樓之７","E_COORD97":180699.01000000001,"N_COORD97":2579418.9100000001,"ADDRESS":"東興三街２２巷４２號五樓之７","OBJECTID":453308},"geometry":{"x":180699.00999999978,"y":2579418.9100000001}},{"attributes":{"ID":453334,"DIS_CODE":0,"TOWNNAME":"北區","LI":"和順里","LIN":"39鄰","STREET":"公園南路","SECT":" ","MAREA":" ","LANE":"３７０巷","ALLEY":" ","HOUSE_NO":"８２號","E_COORD97":168263.01999999999,"N_COORD97":2544937.04,"ADDRESS":"公園南路３７０巷８２號","OBJECTID":453309},"geometry":{"x":168263.01999999955,"y":2544937.0399999991}},{"attributes":{"ID":453335,"DIS_CODE":0,"TOWNNAME":"東區","LI":"龍山里","LIN":"17鄰","STREET":"崇學路","SECT":" ","MAREA":" ","LANE":"２３９巷","ALLEY":" ","HOUSE_NO":"１號","E_COORD97":170469.89000000001,"N_COORD97":2542432.0800000001,"ADDRESS":"崇學路２３９巷１號","OBJECTID":453310},"geometry":{"x":170469.88999999873,"y":2542432.0800000001}},{"attributes":{"ID":453336,"DIS_CODE":0,"TOWNNAME":"北區","LI":"和順里","LIN":"36鄰","STREET":"公園南路","SECT":" ","MAREA":" ","LANE":"３７０巷","ALLEY":" ","HOUSE_NO":"８號","E_COORD97":168201.92999999999,"N_COORD97":2544896.27,"ADDRESS":"公園南路３７０巷８號","OBJECTID":453311},"geometry":{"x":168201.93000000063,"y":2544896.2699999996}},{"attributes":{"ID":453337,"DIS_CODE":0,"TOWNNAME":"新營區","LI":"新東里","LIN":"26鄰","STREET":"東興五街","SECT":" ","MAREA":" ","LANE":"２１巷","ALLEY":" ","HOUSE_NO":"４１號五樓","E_COORD97":180645.82000000001,"N_COORD97":2579452.3399999999,"ADDRESS":"東興五街２１巷４１號五樓","OBJECTID":453312},"geometry":{"x":180645.82000000123,"y":2579452.3400000017}},{"attributes":{"ID":453338,"DIS_CODE":0,"TOWNNAME":"新營區","LI":"新東里","LIN":"26鄰","STREET":"東興五街","SECT":" ","MAREA":" ","LANE":"２１巷","ALLEY":" ","HOUSE_NO":"３９號四樓","E_COORD97":180645.82999999999,"N_COORD97":2579452.3399999999,"ADDRESS":"東興五街２１巷３９號四樓","OBJECTID":453313},"geometry":{"x":180645.83000000101,"y":2579452.3400000017}},{"attributes":{"ID":453339,"DIS_CODE":0,"TOWNNAME":"新營區","LI":"新東里","LIN":"26鄰","STREET":"東興五街","SECT":" ","MAREA":" ","LANE":"２１巷","ALLEY":" ","HOUSE_NO":"４１號四樓","E_COORD97":180645.82000000001,"N_COORD97":2579452.3399999999,"ADDRESS":"東興五街２１巷４１號四樓","OBJECTID":453314},"geometry":{"x":180645.82000000123,"y":2579452.3400000017}},{"attributes":{"ID":453340,"DIS_CODE":0,"TOWNNAME":"新營區","LI":"新東里","LIN":"26鄰","STREET":"東興五街","SECT":" ","MAREA":" ","LANE":"２１巷","ALLEY":" ","HOUSE_NO":"３７號五樓","E_COORD97":180664.25,"N_COORD97":2579453.3599999999,"ADDRESS":"東興五街２１巷３７號五樓","OBJECTID":453315},"geometry":{"x":180664.25,"y":2579453.3599999994}},{"attributes":{"ID":453341,"DIS_CODE":0,"TOWNNAME":"新營區","LI":"新東里","LIN":"26鄰","STREET":"東興五街","SECT":" ","MAREA":" ","LANE":"２１巷","ALLEY":" ","HOUSE_NO":"３３號二樓","E_COORD97":180681.64000000001,"N_COORD97":2579453.2799999998,"ADDRESS":"東興五街２１巷３３號二樓","OBJECTID":453316},"geometry":{"x":180681.63999999966,"y":2579453.2799999993}},{"attributes":{"ID":453342,"DIS_CODE":0,"TOWNNAME":"新營區","LI":"新東里","LIN":"26鄰","STREET":"東興五街","SECT":" ","MAREA":" ","LANE":"２１巷","ALLEY":" ","HOUSE_NO":"３７號六樓","E_COORD97":180664.25,"N_COORD97":2579453.3599999999,"ADDRESS":"東興五街２１巷３７號六樓","OBJECTID":453317},"geometry":{"x":180664.25,"y":2579453.3599999994}},{"attributes":{"ID":453343,"DIS_CODE":0,"TOWNNAME":"新營區","LI":"新東里","LIN":"26鄰","STREET":"東興五街","SECT":" ","MAREA":" ","LANE":"２１巷","ALLEY":" ","HOUSE_NO":"３３號三樓","E_COORD97":180681.64000000001,"N_COORD97":2579453.2799999998,"ADDRESS":"東興五街２１巷３３號三樓","OBJECTID":453318},"geometry":{"x":180681.63999999966,"y":2579453.2799999993}},{"attributes":{"ID":453344,"DIS_CODE":0,"TOWNNAME":"新營區","LI":"新東里","LIN":"26鄰","STREET":"東興五街","SECT":" ","MAREA":" ","LANE":"２１巷","ALLEY":" ","HOUSE_NO":"４１號三樓","E_COORD97":180645.82000000001,"N_COORD97":2579452.3399999999,"ADDRESS":"東興五街２１巷４１號三樓","OBJECTID":453319},"geometry":{"x":180645.82000000123,"y":2579452.3400000017}},{"attributes":{"ID":453345,"DIS_CODE":0,"TOWNNAME":"新營區","LI":"新東里","LIN":"26鄰","STREET":"東興三街","SECT":" ","MAREA":" ","LANE":"２２巷","ALLEY":" ","HOUSE_NO":"６６號六樓","E_COORD97":180604.66,"N_COORD97":2579414.8700000001,"ADDRESS":"東興三街２２巷６６號六樓","OBJECTID":453320},"geometry":{"x":180604.66000000108,"y":2579414.8700000048}},{"attributes":{"ID":453346,"DIS_CODE":0,"TOWNNAME":"新營區","LI":"新東里","LIN":"26鄰","STREET":"東興五街","SECT":" ","MAREA":" ","LANE":"２１巷","ALLEY":" ","HOUSE_NO":"３７號四樓","E_COORD97":180664.25,"N_COORD97":2579453.3599999999,"ADDRESS":"東興五街２１巷３７號四樓","OBJECTID":453321},"geometry":{"x":180664.25,"y":2579453.3599999994}},{"attributes":{"ID":453347,"DIS_CODE":0,"TOWNNAME":"新營區","LI":"新東里","LIN":"26鄰","STREET":"東興三街","SECT":" ","MAREA":" ","LANE":"２２巷","ALLEY":" ","HOUSE_NO":"６８號五樓","E_COORD97":180604.66,"N_COORD97":2579414.8700000001,"ADDRESS":"東興三街２２巷６８號五樓","OBJECTID":453322},"geometry":{"x":180604.66000000108,"y":2579414.8700000048}},{"attributes":{"ID":453348,"DIS_CODE":0,"TOWNNAME":"新營區","LI":"新東里","LIN":"26鄰","STREET":"東興三街","SECT":" ","MAREA":" ","LANE":"２２巷","ALLEY":" ","HOUSE_NO":"６６號四樓","E_COORD97":180604.66,"N_COORD97":2579414.8700000001,"ADDRESS":"東興三街２２巷６６號四樓","OBJECTID":453323},"geometry":{"x":180604.66000000108,"y":2579414.8700000048}},{"attributes":{"ID":453349,"DIS_CODE":0,"TOWNNAME":"新營區","LI":"新東里","LIN":"26鄰","STREET":"東興五街","SECT":" ","MAREA":" ","LANE":"２１巷","ALLEY":" ","HOUSE_NO":"４３號二樓","E_COORD97":180620.25,"N_COORD97":2579451.3500000001,"ADDRESS":"東興五街２１巷４３號二樓","OBJECTID":453324},"geometry":{"x":180620.25,"y":2579451.3500000015}},{"attributes":{"ID":453350,"DIS_CODE":0,"TOWNNAME":"新營區","LI":"新東里","LIN":"26鄰","STREET":"東興五街","SECT":" ","MAREA":" ","LANE":"２１巷","ALLEY":" ","HOUSE_NO":"３５號六樓","E_COORD97":180664.25,"N_COORD97":2579453.3599999999,"ADDRESS":"東興五街２１巷３５號六樓","OBJECTID":453325},"geometry":{"x":180664.25,"y":2579453.3599999994}},{"attributes":{"ID":453351,"DIS_CODE":0,"TOWNNAME":"新營區","LI":"新東里","LIN":"26鄰","STREET":"東興三街","SECT":" ","MAREA":" ","LANE":"２２巷","ALLEY":" ","HOUSE_NO":"５８號五樓","E_COORD97":180646.62,"N_COORD97":2579415.79,"ADDRESS":"東興三街２２巷５８號五樓","OBJECTID":453326},"geometry":{"x":180646.62000000011,"y":2579415.7899999991}},{"attributes":{"ID":453352,"DIS_CODE":0,"TOWNNAME":"新營區","LI":"新東里","LIN":"26鄰","STREET":"東興三街","SECT":" ","MAREA":" ","LANE":"２２巷","ALLEY":" ","HOUSE_NO":"５２號五樓","E_COORD97":180664,"N_COORD97":2579416.8100000001,"ADDRESS":"東興三街２２巷５２號五樓","OBJECTID":453327},"geometry":{"x":180664,"y":2579416.8100000005}},{"attributes":{"ID":453353,"DIS_CODE":0,"TOWNNAME":"新營區","LI":"新東里","LIN":"26鄰","STREET":"東興三街","SECT":" ","MAREA":" ","LANE":"２２巷","ALLEY":" ","HOUSE_NO":"５６號六樓","E_COORD97":180646.62,"N_COORD97":2579415.79,"ADDRESS":"東興三街２２巷５６號六樓","OBJECTID":453328},"geometry":{"x":180646.62000000011,"y":2579415.7899999991}},{"attributes":{"ID":453354,"DIS_CODE":0,"TOWNNAME":"中西區","LI":"三民里","LIN":"1鄰","STREET":"中山路","SECT":" ","MAREA":" ","LANE":" ","ALLEY":" ","HOUSE_NO":"９號","E_COORD97":168548.17000000001,"N_COORD97":2543727.3500000001,"ADDRESS":"中山路９號","OBJECTID":453329},"geometry":{"x":168548.17000000086,"y":2543727.3500000015}},{"attributes":{"ID":453355,"DIS_CODE":0,"TOWNNAME":"新營區","LI":"新東里","LIN":"26鄰","STREET":"東興三街","SECT":" ","MAREA":" ","LANE":"２２巷","ALLEY":" ","HOUSE_NO":"６６號三樓","E_COORD97":180604.66,"N_COORD97":2579414.8700000001,"ADDRESS":"東興三街２２巷６６號三樓","OBJECTID":453330},"geometry":{"x":180604.66000000108,"y":2579414.8700000048}},{"attributes":{"ID":453356,"DIS_CODE":0,"TOWNNAME":"新營區","LI":"新東里","LIN":"26鄰","STREET":"東興三街","SECT":" ","MAREA":" ","LANE":"２２巷","ALLEY":" ","HOUSE_NO":"５０號二樓","E_COORD97":180664,"N_COORD97":2579416.8100000001,"ADDRESS":"東興三街２２巷５０號二樓","OBJECTID":453331},"geometry":{"x":180664,"y":2579416.8100000005}},{"attributes":{"ID":453357,"DIS_CODE":0,"TOWNNAME":"新營區","LI":"新東里","LIN":"26鄰","STREET":"東興五街","SECT":" ","MAREA":" ","LANE":"２１巷","ALLEY":" ","HOUSE_NO":"４９號四樓","E_COORD97":180602.85000000001,"N_COORD97":2579450.3300000001,"ADDRESS":"東興五街２１巷４９號四樓","OBJECTID":453332},"geometry":{"x":180602.85000000056,"y":2579450.3300000001}},{"attributes":{"ID":453358,"DIS_CODE":0,"TOWNNAME":"新營區","LI":"新東里","LIN":"26鄰","STREET":"東興五街","SECT":" ","MAREA":" ","LANE":"２１巷","ALLEY":" ","HOUSE_NO":"３１號六樓","E_COORD97":180681.64000000001,"N_COORD97":2579453.2799999998,"ADDRESS":"東興五街２１巷３１號六樓","OBJECTID":453333},"geometry":{"x":180681.63999999966,"y":2579453.2799999993}},{"attributes":{"ID":453359,"DIS_CODE":0,"TOWNNAME":"新營區","LI":"新東里","LIN":"26鄰","STREET":"東興五街","SECT":" ","MAREA":" ","LANE":"２１巷","ALLEY":" ","HOUSE_NO":"４５號二樓","E_COORD97":180620.25,"N_COORD97":2579451.3500000001,"ADDRESS":"東興五街２１巷４５號二樓","OBJECTID":453334},"geometry":{"x":180620.25,"y":2579451.3500000015}},{"attributes":{"ID":453360,"DIS_CODE":0,"TOWNNAME":"新營區","LI":"新東里","LIN":"26鄰","STREET":"東興五街","SECT":" ","MAREA":" ","LANE":"２１巷","ALLEY":" ","HOUSE_NO":"４５號四樓","E_COORD97":180620.25,"N_COORD97":2579451.3500000001,"ADDRESS":"東興五街２１巷４５號四樓","OBJECTID":453335},"geometry":{"x":180620.25,"y":2579451.3500000015}},{"attributes":{"ID":453361,"DIS_CODE":0,"TOWNNAME":"新營區","LI":"新東里","LIN":"26鄰","STREET":"東興五街","SECT":" ","MAREA":" ","LANE":"２１巷","ALLEY":" ","HOUSE_NO":"３９號六樓","E_COORD97":180645.82999999999,"N_COORD97":2579452.3399999999,"ADDRESS":"東興五街２１巷３９號六樓","OBJECTID":453336},"geometry":{"x":180645.83000000101,"y":2579452.3400000017}},{"attributes":{"ID":453362,"DIS_CODE":0,"TOWNNAME":"新營區","LI":"新東里","LIN":"26鄰","STREET":"東興五街","SECT":" ","MAREA":" ","LANE":"２１巷","ALLEY":" ","HOUSE_NO":"３５號二樓","E_COORD97":180664.25,"N_COORD97":2579453.3599999999,"ADDRESS":"東興五街２１巷３５號二樓","OBJECTID":453337},"geometry":{"x":180664.25,"y":2579453.3599999994}},{"attributes":{"ID":453363,"DIS_CODE":0,"TOWNNAME":"新營區","LI":"新東里","LIN":"26鄰","STREET":"東興五街","SECT":" ","MAREA":" ","LANE":"２１巷","ALLEY":" ","HOUSE_NO":"３９號三樓","E_COORD97":180645.82999999999,"N_COORD97":2579452.3399999999,"ADDRESS":"東興五街２１巷３９號三樓","OBJECTID":453338},"geometry":{"x":180645.83000000101,"y":2579452.3400000017}},{"attributes":{"ID":453364,"DIS_CODE":0,"TOWNNAME":"新營區","LI":"新東里","LIN":"26鄰","STREET":"東興三街","SECT":" ","MAREA":" ","LANE":"２２巷","ALLEY":" ","HOUSE_NO":"６０號六樓","E_COORD97":180622.06,"N_COORD97":2579415.8999999999,"ADDRESS":"東興三街２２巷６０號六樓","OBJECTID":453339},"geometry":{"x":180622.06000000052,"y":2579415.9000000004}},{"attributes":{"ID":453365,"DIS_CODE":0,"TOWNNAME":"東區","LI":"崇文里","LIN":"40鄰","STREET":"生產路","SECT":" ","MAREA":" ","LANE":" ","ALLEY":" ","HOUSE_NO":"２７５號二樓","E_COORD97":170911.67999999999,"N_COORD97":2540618.3100000001,"ADDRESS":"生產路２７５號二樓","OBJECTID":453340},"geometry":{"x":170911.6799999997,"y":2540618.3100000005}},{"attributes":{"ID":453366,"DIS_CODE":0,"TOWNNAME":"新營區","LI":"新東里","LIN":"26鄰","STREET":"東興三街","SECT":" ","MAREA":" ","LANE":"２２巷","ALLEY":" ","HOUSE_NO":"６０號二樓","E_COORD97":180622.06,"N_COORD97":2579415.8999999999,"ADDRESS":"東興三街２２巷６０號二樓","OBJECTID":453341},"geometry":{"x":180622.06000000052,"y":2579415.9000000004}},{"attributes":{"ID":453367,"DIS_CODE":0,"TOWNNAME":"新營區","LI":"新東里","LIN":"26鄰","STREET":"東興三街","SECT":" ","MAREA":" ","LANE":"２２巷","ALLEY":" ","HOUSE_NO":"５０號四樓","E_COORD97":180664,"N_COORD97":2579416.8100000001,"ADDRESS":"東興三街２２巷５０號四樓","OBJECTID":453342},"geometry":{"x":180664,"y":2579416.8100000005}},{"attributes":{"ID":453368,"DIS_CODE":0,"TOWNNAME":"永康區","LI":"正強里","LIN":"26鄰","STREET":"中正路","SECT":" ","MAREA":" ","LANE":"１５５巷","ALLEY":" ","HOUSE_NO":"７號","E_COORD97":173251.64000000001,"N_COORD97":2547865.3999999999,"ADDRESS":"中正路１５５巷７號","OBJECTID":453343},"geometry":{"x":173251.63999999966,"y":2547865.4000000004}},{"attributes":{"ID":453369,"DIS_CODE":0,"TOWNNAME":"永康區","LI":"永康里","LIN":"26鄰","STREET":"永明街","SECT":" ","MAREA":" ","LANE":"５３巷","ALLEY":" ","HOUSE_NO":"３１號","E_COORD97":174140.34,"N_COORD97":2547392.6099999999,"ADDRESS":"永明街５３巷３１號","OBJECTID":453344},"geometry":{"x":174140.33999999985,"y":2547392.6099999994}},{"attributes":{"ID":453370,"DIS_CODE":0,"TOWNNAME":"永康區","LI":"永康里","LIN":"26鄰","STREET":"永明街","SECT":" ","MAREA":" ","LANE":"５３巷","ALLEY":" ","HOUSE_NO":"２１號","E_COORD97":174130.70000000001,"N_COORD97":2547370.6200000001,"ADDRESS":"永明街５３巷２１號","OBJECTID":453345},"geometry":{"x":174130.70000000112,"y":2547370.6199999992}},{"attributes":{"ID":453371,"DIS_CODE":0,"TOWNNAME":"永康區","LI":"永康里","LIN":"26鄰","STREET":"永明街","SECT":" ","MAREA":" ","LANE":"６９巷","ALLEY":" ","HOUSE_NO":"２６號","E_COORD97":174192.64000000001,"N_COORD97":2547311.9900000002,"ADDRESS":"永明街６９巷２６號","OBJECTID":453346},"geometry":{"x":174192.64000000153,"y":2547311.9900000002}},{"attributes":{"ID":453372,"DIS_CODE":0,"TOWNNAME":"永康區","LI":"永康里","LIN":"26鄰","STREET":"永明街","SECT":" ","MAREA":" ","LANE":"６９巷","ALLEY":" ","HOUSE_NO":"２０號","E_COORD97":174193.39999999999,"N_COORD97":2547302.2400000002,"ADDRESS":"永明街６９巷２０號","OBJECTID":453347},"geometry":{"x":174193.40000000224,"y":2547302.2400000021}},{"attributes":{"ID":453373,"DIS_CODE":0,"TOWNNAME":"永康區","LI":"正強里","LIN":"26鄰","STREET":"中正路","SECT":" ","MAREA":" ","LANE":"１５５巷","ALLEY":" ","HOUSE_NO":"１１號","E_COORD97":173241.92999999999,"N_COORD97":2547864.1499999999,"ADDRESS":"中正路１５５巷１１號","OBJECTID":453348},"geometry":{"x":173241.93000000063,"y":2547864.1500000004}},{"attributes":{"ID":453374,"DIS_CODE":0,"TOWNNAME":"永康區","LI":"永康里","LIN":"26鄰","STREET":"永明街","SECT":" ","MAREA":" ","LANE":"５３巷","ALLEY":" ","HOUSE_NO":"３９號","E_COORD97":174146.23999999999,"N_COORD97":2547408.6099999999,"ADDRESS":"永明街５３巷３９號","OBJECTID":453349},"geometry":{"x":174146.24000000022,"y":2547408.6099999994}},{"attributes":{"ID":453375,"DIS_CODE":0,"TOWNNAME":"永康區","LI":"正強里","LIN":"26鄰","STREET":"中正路","SECT":" ","MAREA":" ","LANE":"１５５巷","ALLEY":" ","HOUSE_NO":"５號","E_COORD97":173257.37,"N_COORD97":2547865.8999999999,"ADDRESS":"中正路１５５巷５號","OBJECTID":453350},"geometry":{"x":173257.36999999918,"y":2547865.9000000004}},{"attributes":{"ID":453376,"DIS_CODE":0,"TOWNNAME":"永康區","LI":"永康里","LIN":"26鄰","STREET":"永明街","SECT":" ","MAREA":" ","LANE":"５３巷","ALLEY":" ","HOUSE_NO":"３５號","E_COORD97":174143.23999999999,"N_COORD97":2547400.8599999999,"ADDRESS":"永明街５３巷３５號","OBJECTID":453351},"geometry":{"x":174143.24000000022,"y":2547400.8599999994}},{"attributes":{"ID":453377,"DIS_CODE":0,"TOWNNAME":"安南區","LI":"安慶里","LIN":"26鄰","STREET":"長溪路","SECT":"一段","MAREA":" ","LANE":"１２３巷","ALLEY":" ","HOUSE_NO":"２４號","E_COORD97":169039.95000000001,"N_COORD97":2548442.1800000002,"ADDRESS":"長溪路一段１２３巷２４號","OBJECTID":453352},"geometry":{"x":169039.95000000112,"y":2548442.1799999997}},{"attributes":{"ID":453378,"DIS_CODE":0,"TOWNNAME":"安南區","LI":"安慶里","LIN":"26鄰","STREET":"長溪路","SECT":"一段","MAREA":" ","LANE":"１２３巷","ALLEY":" ","HOUSE_NO":"３０號","E_COORD97":169026.32999999999,"N_COORD97":2548440.3399999999,"ADDRESS":"長溪路一段１２３巷３０號","OBJECTID":453353},"geometry":{"x":169026.33000000007,"y":2548440.3400000017}},{"attributes":{"ID":453379,"DIS_CODE":0,"TOWNNAME":"安南區","LI":"安慶里","LIN":"26鄰","STREET":"長溪路","SECT":"一段","MAREA":" ","LANE":"１２３巷","ALLEY":" ","HOUSE_NO":"３２號","E_COORD97":169018.19,"N_COORD97":2548440.6099999999,"ADDRESS":"長溪路一段１２３巷３２號","OBJECTID":453354},"geometry":{"x":169018.19000000134,"y":2548440.6100000031}},{"attributes":{"ID":453380,"DIS_CODE":0,"TOWNNAME":"下營區","LI":"營前里","LIN":"26鄰","STREET":"健康路","SECT":" ","MAREA":" ","LANE":"２００巷","ALLEY":" ","HOUSE_NO":"２號","E_COORD97":174939.85000000001,"N_COORD97":2570168.98,"ADDRESS":"健康路２００巷２號","OBJECTID":453355},"geometry":{"x":174939.84999999963,"y":2570168.9800000023}},{"attributes":{"ID":453381,"DIS_CODE":0,"TOWNNAME":"下營區","LI":"營前里","LIN":"26鄰","STREET":"健康路","SECT":" ","MAREA":" ","LANE":"２００巷","ALLEY":" ","HOUSE_NO":"６號","E_COORD97":174939.66,"N_COORD97":2570164.46,"ADDRESS":"健康路２００巷６號","OBJECTID":453356},"geometry":{"x":174939.66000000108,"y":2570164.4600000009}},{"attributes":{"ID":453382,"DIS_CODE":0,"TOWNNAME":"下營區","LI":"營前里","LIN":"26鄰","STREET":"健康路","SECT":" ","MAREA":" ","LANE":"２００巷","ALLEY":" ","HOUSE_NO":"８號","E_COORD97":174939.73000000001,"N_COORD97":2570160.25,"ADDRESS":"健康路２００巷８號","OBJECTID":453357},"geometry":{"x":174939.73000000045,"y":2570160.2500000019}},{"attributes":{"ID":453383,"DIS_CODE":0,"TOWNNAME":"永康區","LI":"正強里","LIN":"26鄰","STREET":"中正路","SECT":" ","MAREA":" ","LANE":"１５５巷","ALLEY":" ","HOUSE_NO":"２號","E_COORD97":173231.07999999999,"N_COORD97":2547874.25,"ADDRESS":"中正路１５５巷２號","OBJECTID":453358},"geometry":{"x":173231.08000000101,"y":2547874.2500000037}},{"attributes":{"ID":453384,"DIS_CODE":0,"TOWNNAME":"永康區","LI":"正強里","LIN":"26鄰","STREET":"中正路","SECT":" ","MAREA":" ","LANE":"１５５巷","ALLEY":" ","HOUSE_NO":"１５號","E_COORD97":173231.20000000001,"N_COORD97":2547862.8999999999,"ADDRESS":"中正路１５５巷１５號","OBJECTID":453359},"geometry":{"x":173231.20000000019,"y":2547862.9000000004}},{"attributes":{"ID":453385,"DIS_CODE":0,"TOWNNAME":"永康區","LI":"龍潭里","LIN":"26鄰","STREET":"龍昌街","SECT":" ","MAREA":" ","LANE":"６６巷","ALLEY":" ","HOUSE_NO":"２８號","E_COORD97":175092.25,"N_COORD97":2547903.4399999999,"ADDRESS":"龍昌街６６巷２８號","OBJECTID":453360},"geometry":{"x":175092.24999999907,"y":2547903.4400000013}},{"attributes":{"ID":453386,"DIS_CODE":0,"TOWNNAME":"東區","LI":"崇信里","LIN":"26鄰","STREET":"崇學路","SECT":" ","MAREA":" ","LANE":"２３０巷","ALLEY":" ","HOUSE_NO":"１００號","E_COORD97":170611.14000000001,"N_COORD97":2542302.1899999999,"ADDRESS":"崇學路２３０巷１００號","OBJECTID":453361},"geometry":{"x":170611.1400000006,"y":2542302.1899999995}},{"attributes":{"ID":453387,"DIS_CODE":0,"TOWNNAME":"中西區","LI":"三民里","LIN":"1鄰","STREET":"公園路","SECT":" ","MAREA":" ","LANE":" ","ALLEY":" ","HOUSE_NO":"８號","E_COORD97":168537.31,"N_COORD97":2543797.0699999998,"ADDRESS":"公園路８號","OBJECTID":453362},"geometry":{"x":168537.30999999959,"y":2543797.070000004}},{"attributes":{"ID":453388,"DIS_CODE":0,"TOWNNAME":"東區","LI":"崇信里","LIN":"26鄰","STREET":"崇學路","SECT":" ","MAREA":" ","LANE":"２３０巷","ALLEY":" ","HOUSE_NO":"１０２號","E_COORD97":170609.87,"N_COORD97":2542297.0800000001,"ADDRESS":"崇學路２３０巷１０２號","OBJECTID":453363},"geometry":{"x":170609.87000000104,"y":2542297.0800000001}},{"attributes":{"ID":453389,"DIS_CODE":0,"TOWNNAME":"東區","LI":"崇信里","LIN":"26鄰","STREET":"崇學路","SECT":" ","MAREA":" ","LANE":"２３０巷","ALLEY":" ","HOUSE_NO":"１０４號","E_COORD97":170608.66,"N_COORD97":2542292.79,"ADDRESS":"崇學路２３０巷１０４號","OBJECTID":453364},"geometry":{"x":170608.66000000015,"y":2542292.790000001}},{"attributes":{"ID":453390,"DIS_CODE":0,"TOWNNAME":"東區","LI":"崇信里","LIN":"26鄰","STREET":"崇學路","SECT":" ","MAREA":" ","LANE":"２３０巷","ALLEY":" ","HOUSE_NO":"１０６號","E_COORD97":170603.67000000001,"N_COORD97":2542287.1600000001,"ADDRESS":"崇學路２３０巷１０６號","OBJECTID":453365},"geometry":{"x":170603.66999999993,"y":2542287.1600000001}},{"attributes":{"ID":453391,"DIS_CODE":0,"TOWNNAME":"東區","LI":"崇信里","LIN":"26鄰","STREET":"崇學路","SECT":" ","MAREA":" ","LANE":"２３０巷","ALLEY":" ","HOUSE_NO":"１０８號","E_COORD97":170598.07999999999,"N_COORD97":2542281.0600000001,"ADDRESS":"崇學路２３０巷１０８號","OBJECTID":453366},"geometry":{"x":170598.08000000194,"y":2542281.0600000005}},{"attributes":{"ID":453392,"DIS_CODE":0,"TOWNNAME":"東區","LI":"崇信里","LIN":"26鄰","STREET":"崇學路","SECT":" ","MAREA":" ","LANE":"２３０巷","ALLEY":" ","HOUSE_NO":"１１６號","E_COORD97":170594.06,"N_COORD97":2542275.6499999999,"ADDRESS":"崇學路２３０巷１１６號","OBJECTID":453367},"geometry":{"x":170594.05999999959,"y":2542275.6500000022}},{"attributes":{"ID":453393,"DIS_CODE":0,"TOWNNAME":"東區","LI":"崇信里","LIN":"26鄰","STREET":"崇學路","SECT":" ","MAREA":" ","LANE":"２３０巷","ALLEY":" ","HOUSE_NO":"１１８號","E_COORD97":170591.26999999999,"N_COORD97":2542271.8100000001,"ADDRESS":"崇學路２３０巷１１８號","OBJECTID":453368},"geometry":{"x":170591.27000000048,"y":2542271.8100000005}},{"attributes":{"ID":453394,"DIS_CODE":0,"TOWNNAME":"東區","LI":"崇信里","LIN":"26鄰","STREET":"崇學路","SECT":" ","MAREA":" ","LANE":"２３０巷","ALLEY":" ","HOUSE_NO":"１２０號","E_COORD97":170587.60000000001,"N_COORD97":2542267.7999999998,"ADDRESS":"崇學路２３０巷１２０號","OBJECTID":453369},"geometry":{"x":170587.60000000056,"y":2542267.8000000026}},{"attributes":{"ID":453395,"DIS_CODE":0,"TOWNNAME":"東區","LI":"崇信里","LIN":"26鄰","STREET":"崇學路","SECT":" ","MAREA":" ","LANE":"２３０巷","ALLEY":" ","HOUSE_NO":"１２２號","E_COORD97":170584.28,"N_COORD97":2542264.3100000001,"ADDRESS":"崇學路２３０巷１２２號","OBJECTID":453370},"geometry":{"x":170584.28000000026,"y":2542264.3100000024}},{"attributes":{"ID":453396,"DIS_CODE":0,"TOWNNAME":"佳里區","LI":"六安里","LIN":"26鄰","STREET":"林園街","SECT":" ","MAREA":" ","LANE":"１９０巷","ALLEY":" ","HOUSE_NO":"１７號","E_COORD97":165576.85000000001,"N_COORD97":2562944.0600000001,"ADDRESS":"林園街１９０巷１７號","OBJECTID":453371},"geometry":{"x":165576.85000000056,"y":2562944.0600000024}},{"attributes":{"ID":453397,"DIS_CODE":0,"TOWNNAME":"佳里區","LI":"六安里","LIN":"26鄰","STREET":"林園街","SECT":" ","MAREA":" ","LANE":"１９０巷","ALLEY":" ","HOUSE_NO":"１９號","E_COORD97":165576.51000000001,"N_COORD97":2562948.54,"ADDRESS":"林園街１９０巷１９號","OBJECTID":453372},"geometry":{"x":165576.50999999978,"y":2562948.540000001}},{"attributes":{"ID":453398,"DIS_CODE":0,"TOWNNAME":"佳里區","LI":"六安里","LIN":"26鄰","STREET":"林園街","SECT":" ","MAREA":" ","LANE":"１９０巷","ALLEY":" ","HOUSE_NO":"１號","E_COORD97":165584.95999999999,"N_COORD97":2562913.9100000001,"ADDRESS":"林園街１９０巷１號","OBJECTID":453373},"geometry":{"x":165584.96000000089,"y":2562913.910000002}},{"attributes":{"ID":453399,"DIS_CODE":0,"TOWNNAME":"佳里區","LI":"六安里","LIN":"26鄰","STREET":"林園街","SECT":" ","MAREA":" ","LANE":"１９０巷","ALLEY":" ","HOUSE_NO":"２１號","E_COORD97":165576.35999999999,"N_COORD97":2562964.1800000002,"ADDRESS":"林園街１９０巷２１號","OBJECTID":453374},"geometry":{"x":165576.36000000034,"y":2562964.1799999997}},{"attributes":{"ID":453400,"DIS_CODE":0,"TOWNNAME":"佳里區","LI":"六安里","LIN":"26鄰","STREET":"林園街","SECT":" ","MAREA":" ","LANE":"１９０巷","ALLEY":" ","HOUSE_NO":"２３號","E_COORD97":165574.12,"N_COORD97":2562971.4900000002,"ADDRESS":"林園街１９０巷２３號","OBJECTID":453375},"geometry":{"x":165574.12000000011,"y":2562971.4900000021}},{"attributes":{"ID":453401,"DIS_CODE":0,"TOWNNAME":"佳里區","LI":"六安里","LIN":"26鄰","STREET":"林園街","SECT":" ","MAREA":" ","LANE":"１９０巷","ALLEY":" ","HOUSE_NO":"３號","E_COORD97":165584.70000000001,"N_COORD97":2562918.25,"ADDRESS":"林園街１９０巷３號","OBJECTID":453376},"geometry":{"x":165584.70000000205,"y":2562918.2500000019}},{"attributes":{"ID":453402,"DIS_CODE":0,"TOWNNAME":"佳里區","LI":"六安里","LIN":"26鄰","STREET":"林園街","SECT":" ","MAREA":" ","LANE":"１９０巷","ALLEY":" ","HOUSE_NO":"５號","E_COORD97":165583.73000000001,"N_COORD97":2562922.5299999998,"ADDRESS":"林園街１９０巷５號","OBJECTID":453377},"geometry":{"x":165583.73000000138,"y":2562922.5300000012}},{"attributes":{"ID":453403,"DIS_CODE":0,"TOWNNAME":"佳里區","LI":"六安里","LIN":"26鄰","STREET":"林園街","SECT":" ","MAREA":" ","LANE":"１９０巷","ALLEY":" ","HOUSE_NO":"７號","E_COORD97":165583.26000000001,"N_COORD97":2562927.1400000001,"ADDRESS":"林園街１９０巷７號","OBJECTID":453378},"geometry":{"x":165583.25999999978,"y":2562927.1400000006}},{"attributes":{"ID":453404,"DIS_CODE":0,"TOWNNAME":"佳里區","LI":"六安里","LIN":"26鄰","STREET":"林園街","SECT":" ","MAREA":" ","LANE":"２０４巷","ALLEY":" ","HOUSE_NO":"１１號","E_COORD97":165551,"N_COORD97":2562943.5099999998,"ADDRESS":"林園街２０４巷１１號","OBJECTID":453379},"geometry":{"x":165551.00000000093,"y":2562943.5100000016}},{"attributes":{"ID":453405,"DIS_CODE":0,"TOWNNAME":"佳里區","LI":"六安里","LIN":"26鄰","STREET":"林園街","SECT":" ","MAREA":" ","LANE":"２０４巷","ALLEY":" ","HOUSE_NO":"１３號","E_COORD97":165550.44,"N_COORD97":2562948.1800000002,"ADDRESS":"林園街２０４巷１３號","OBJECTID":453380},"geometry":{"x":165550.44000000041,"y":2562948.1800000016}},{"attributes":{"ID":453406,"DIS_CODE":0,"TOWNNAME":"佳里區","LI":"六安里","LIN":"26鄰","STREET":"林園街","SECT":" ","MAREA":" ","LANE":"２０４巷","ALLEY":" ","HOUSE_NO":"１５號","E_COORD97":165549.92999999999,"N_COORD97":2562952.3900000001,"ADDRESS":"林園街２０４巷１５號","OBJECTID":453381},"geometry":{"x":165549.9299999997,"y":2562952.3900000025}},{"attributes":{"ID":453407,"DIS_CODE":0,"TOWNNAME":"佳里區","LI":"六安里","LIN":"26鄰","STREET":"林園街","SECT":" ","MAREA":" ","LANE":"２０４巷","ALLEY":" ","HOUSE_NO":"１７號","E_COORD97":165549.31,"N_COORD97":2562957.0099999998,"ADDRESS":"林園街２０４巷１７號","OBJECTID":453382},"geometry":{"x":165549.31000000145,"y":2562957.0100000016}},{"attributes":{"ID":453408,"DIS_CODE":0,"TOWNNAME":"佳里區","LI":"六安里","LIN":"26鄰","STREET":"林園街","SECT":" ","MAREA":" ","LANE":"２０４巷","ALLEY":" ","HOUSE_NO":"１９號","E_COORD97":165549,"N_COORD97":2562961.29,"ADDRESS":"林園街２０４巷１９號","OBJECTID":453383},"geometry":{"x":165549.00000000093,"y":2562961.290000001}},{"attributes":{"ID":453409,"DIS_CODE":0,"TOWNNAME":"佳里區","LI":"六安里","LIN":"26鄰","STREET":"林園街","SECT":" ","MAREA":" ","LANE":"２０４巷","ALLEY":" ","HOUSE_NO":"１號","E_COORD97":165553.91,"N_COORD97":2562921.6600000001,"ADDRESS":"林園街２０４巷１號","OBJECTID":453384},"geometry":{"x":165553.91000000015,"y":2562921.660000002}},{"attributes":{"ID":453410,"DIS_CODE":0,"TOWNNAME":"佳里區","LI":"六安里","LIN":"26鄰","STREET":"林園街","SECT":" ","MAREA":" ","LANE":"２０４巷","ALLEY":" ","HOUSE_NO":"２１號","E_COORD97":165548.73000000001,"N_COORD97":2562965.96,"ADDRESS":"林園街２０４巷２１號","OBJECTID":453385},"geometry":{"x":165548.73000000045,"y":2562965.9600000009}},{"attributes":{"ID":453411,"DIS_CODE":0,"TOWNNAME":"安平區","LI":"文平里","LIN":"26鄰","STREET":"永華二街","SECT":" ","MAREA":" ","LANE":"４１巷","ALLEY":" ","HOUSE_NO":"１２號","E_COORD97":166301.59,"N_COORD97":2542967.4700000002,"ADDRESS":"永華二街４１巷１２號","OBJECTID":453386},"geometry":{"x":166301.58999999985,"y":2542967.4700000044}},{"attributes":{"ID":453412,"DIS_CODE":0,"TOWNNAME":"安平區","LI":"文平里","LIN":"26鄰","STREET":"永華二街","SECT":" ","MAREA":" ","LANE":"４１巷","ALLEY":" ","HOUSE_NO":"１４號","E_COORD97":166297.47,"N_COORD97":2542967.6699999999,"ADDRESS":"永華二街４１巷１４號","OBJECTID":453387},"geometry":{"x":166297.46999999974,"y":2542967.6699999999}},{"attributes":{"ID":453413,"DIS_CODE":0,"TOWNNAME":"安平區","LI":"文平里","LIN":"26鄰","STREET":"永華二街","SECT":" ","MAREA":" ","LANE":"４１巷","ALLEY":" ","HOUSE_NO":"１６號","E_COORD97":166292.76999999999,"N_COORD97":2542968.5299999998,"ADDRESS":"永華二街４１巷１６號","OBJECTID":453388},"geometry":{"x":166292.77000000048,"y":2542968.5299999993}},{"attributes":{"ID":453414,"DIS_CODE":0,"TOWNNAME":"安平區","LI":"文平里","LIN":"26鄰","STREET":"永華二街","SECT":" ","MAREA":" ","LANE":"４１巷","ALLEY":" ","HOUSE_NO":"１８號","E_COORD97":166288.73999999999,"N_COORD97":2542969.0099999998,"ADDRESS":"永華二街４１巷１８號","OBJECTID":453389},"geometry":{"x":166288.74000000022,"y":2542969.0099999998}},{"attributes":{"ID":453415,"DIS_CODE":0,"TOWNNAME":"安平區","LI":"文平里","LIN":"26鄰","STREET":"永華二街","SECT":" ","MAREA":" ","LANE":"４１巷","ALLEY":" ","HOUSE_NO":"２０號","E_COORD97":166284.70999999999,"N_COORD97":2542969.2000000002,"ADDRESS":"永華二街４１巷２０號","OBJECTID":453390},"geometry":{"x":166284.71000000089,"y":2542969.2000000011}},{"attributes":{"ID":453416,"DIS_CODE":0,"TOWNNAME":"安平區","LI":"文平里","LIN":"26鄰","STREET":"永華二街","SECT":" ","MAREA":" ","LANE":"４１巷","ALLEY":" ","HOUSE_NO":"２２號","E_COORD97":166279.82000000001,"N_COORD97":2542969.8700000001,"ADDRESS":"永華二街４１巷２２號","OBJECTID":453391},"geometry":{"x":166279.8200000003,"y":2542969.8700000029}},{"attributes":{"ID":453417,"DIS_CODE":0,"TOWNNAME":"六甲區","LI":"二甲里","LIN":"26鄰","STREET":"中華路","SECT":" ","MAREA":" ","LANE":"１３４巷","ALLEY":" ","HOUSE_NO":"５號","E_COORD97":183132.14999999999,"N_COORD97":2569312.1499999999,"ADDRESS":"中華路１３４巷５號","OBJECTID":453392},"geometry":{"x":183132.15000000224,"y":2569312.1500000004}},{"attributes":{"ID":453418,"DIS_CODE":0,"TOWNNAME":"安平區","LI":"文平里","LIN":"26鄰","STREET":"永華二街","SECT":" ","MAREA":" ","LANE":"４１巷","ALLEY":" ","HOUSE_NO":"２４號","E_COORD97":166275.89000000001,"N_COORD97":2542970.6400000001,"ADDRESS":"永華二街４１巷２４號","OBJECTID":453393},"geometry":{"x":166275.88999999966,"y":2542970.6400000025}},{"attributes":{"ID":453419,"DIS_CODE":0,"TOWNNAME":"安平區","LI":"文平里","LIN":"26鄰","STREET":"永華二街","SECT":" ","MAREA":" ","LANE":"４１巷","ALLEY":" ","HOUSE_NO":"２６號","E_COORD97":166272.14999999999,"N_COORD97":2542971.5899999999,"ADDRESS":"永華二街４１巷２６號","OBJECTID":453394},"geometry":{"x":166272.1500000013,"y":2542971.5899999999}},{"attributes":{"ID":453420,"DIS_CODE":0,"TOWNNAME":"安平區","LI":"文平里","LIN":"26鄰","STREET":"永華二街","SECT":" ","MAREA":" ","LANE":"４１巷","ALLEY":" ","HOUSE_NO":"２８號","E_COORD97":166267.26000000001,"N_COORD97":2542972.1699999999,"ADDRESS":"永華二街４１巷２８號","OBJECTID":453395},"geometry":{"x":166267.26000000071,"y":2542972.1700000037}},{"attributes":{"ID":453421,"DIS_CODE":0,"TOWNNAME":"安平區","LI":"文平里","LIN":"26鄰","STREET":"永華二街","SECT":" ","MAREA":" ","LANE":"４１巷","ALLEY":" ","HOUSE_NO":"２號","E_COORD97":166322.69,"N_COORD97":2542965.75,"ADDRESS":"永華二街４１巷２號","OBJECTID":453396},"geometry":{"x":166322.69000000134,"y":2542965.7500000019}},{"attributes":{"ID":453422,"DIS_CODE":0,"TOWNNAME":"六甲區","LI":"六甲里","LIN":"26鄰","STREET":"中正路","SECT":" ","MAREA":" ","LANE":"６７３巷","ALLEY":" ","HOUSE_NO":"１４號","E_COORD97":183761.82999999999,"N_COORD97":2570295.1600000001,"ADDRESS":"中正路６７３巷１４號","OBJECTID":453397},"geometry":{"x":183761.83000000101,"y":2570295.1599999983}},{"attributes":{"ID":453423,"DIS_CODE":0,"TOWNNAME":"六甲區","LI":"六甲里","LIN":"26鄰","STREET":"中正路","SECT":" ","MAREA":" ","LANE":"６７３巷","ALLEY":" ","HOUSE_NO":"１６號","E_COORD97":183763.59,"N_COORD97":2570298.9900000002,"ADDRESS":"中正路６７３巷１６號","OBJECTID":453398},"geometry":{"x":183763.58999999985,"y":2570298.9900000002}},{"attributes":{"ID":453424,"DIS_CODE":0,"TOWNNAME":"六甲區","LI":"六甲里","LIN":"26鄰","STREET":"中正路","SECT":" ","MAREA":" ","LANE":"６７３巷","ALLEY":" ","HOUSE_NO":"１８號","E_COORD97":183764.82000000001,"N_COORD97":2570303.2000000002,"ADDRESS":"中正路６７３巷１８號","OBJECTID":453399},"geometry":{"x":183764.82000000216,"y":2570303.1999999993}},{"attributes":{"ID":453425,"DIS_CODE":0,"TOWNNAME":"六甲區","LI":"六甲里","LIN":"26鄰","STREET":"中正路","SECT":" ","MAREA":" ","LANE":"６７３巷","ALLEY":" ","HOUSE_NO":"２０號","E_COORD97":183765.67999999999,"N_COORD97":2570307.3700000001,"ADDRESS":"中正路６７３巷２０號","OBJECTID":453400},"geometry":{"x":183765.68000000063,"y":2570307.370000001}}]}