{"displayFieldName":"TOWNNAME","fieldAliases":{"ID":"ID","DIS_CODE":"DIS_CODE","TOWNNAME":"TOWNNAME","LI":"LI","LIN":"LIN","STREET":"STREET","SECT":"SECT","MAREA":"MAREA","LANE":"LANE","ALLEY":"ALLEY","HOUSE_NO":"HOUSE_NO","E_COORD97":"E_COORD97","N_COORD97":"N_COORD97","ADDRESS":"ADDRESS","OBJECTID":"OBJECTID"},"geometryType":"esriGeometryPoint","spatialReference":{"wkid":102443,"latestWkid":3826},"fields":[{"name":"ID","type":"esriFieldTypeDouble","alias":"ID"},{"name":"DIS_CODE","type":"esriFieldTypeInteger","alias":"DIS_CODE"},{"name":"TOWNNAME","type":"esriFieldTypeString","alias":"TOWNNAME","length":8},{"name":"LI","type":"esriFieldTypeString","alias":"LI","length":8},{"name":"LIN","type":"esriFieldTypeString","alias":"LIN","length":12},{"name":"STREET","type":"esriFieldTypeString","alias":"STREET","length":20},{"name":"SECT","type":"esriFieldTypeString","alias":"SECT","length":8},{"name":"MAREA","type":"esriFieldTypeString","alias":"MAREA","length":12},{"name":"LANE","type":"esriFieldTypeString","alias":"LANE","length":10},{"name":"ALLEY","type":"esriFieldTypeString","alias":"ALLEY","length":10},{"name":"HOUSE_NO","type":"esriFieldTypeString","alias":"HOUSE_NO","length":20},{"name":"E_COORD97","type":"esriFieldTypeDouble","alias":"E_COORD97"},{"name":"N_COORD97","type":"esriFieldTypeDouble","alias":"N_COORD97"},{"name":"ADDRESS","type":"esriFieldTypeString","alias":"ADDRESS","length":50},{"name":"OBJECTID","type":"esriFieldTypeOID","alias":"OBJECTID"}],"features":[{"attributes":{"ID":108401,"DIS_CODE":0,"TOWNNAME":"安定區","LI":"港南里","LIN":"1鄰","STREET":" ","SECT":" ","MAREA":"港口","LANE":" ","ALLEY":" ","HOUSE_NO":"８號之２","E_COORD97":171176.45999999999,"N_COORD97":2554343.2999999998,"ADDRESS":"港口８號之２","OBJECTID":108401},"geometry":{"x":171176.45999999996,"y":2554343.3000000045}},{"attributes":{"ID":108402,"DIS_CODE":0,"TOWNNAME":"安定區","LI":"港南里","LIN":"1鄰","STREET":" ","SECT":" ","MAREA":"港口","LANE":" ","ALLEY":" ","HOUSE_NO":"５之２號","E_COORD97":171087.39000000001,"N_COORD97":2554298.2999999998,"ADDRESS":"港口５之２號","OBJECTID":108402},"geometry":{"x":171087.3900000006,"y":2554298.3000000007}},{"attributes":{"ID":108403,"DIS_CODE":0,"TOWNNAME":"安定區","LI":"港南里","LIN":"1鄰","STREET":" ","SECT":" ","MAREA":"港口","LANE":" ","ALLEY":" ","HOUSE_NO":"９之２號","E_COORD97":171232.98999999999,"N_COORD97":2554292.2999999998,"ADDRESS":"港口９之２號","OBJECTID":108403},"geometry":{"x":171232.99000000115,"y":2554292.2999999989}},{"attributes":{"ID":108404,"DIS_CODE":0,"TOWNNAME":"安定區","LI":"中榮里","LIN":"1鄰","STREET":" ","SECT":" ","MAREA":"許中營","LANE":" ","ALLEY":" ","HOUSE_NO":"３之６號","E_COORD97":172196.10000000001,"N_COORD97":2554990.1600000001,"ADDRESS":"許中營３之６號","OBJECTID":108404},"geometry":{"x":172196.10000000056,"y":2554990.1600000001}},{"attributes":{"ID":108405,"DIS_CODE":0,"TOWNNAME":"安定區","LI":"中榮里","LIN":"1鄰","STREET":" ","SECT":" ","MAREA":"許中營","LANE":" ","ALLEY":" ","HOUSE_NO":"３之７號","E_COORD97":172192.51999999999,"N_COORD97":2554999.3900000001,"ADDRESS":"許中營３之７號","OBJECTID":108405},"geometry":{"x":172192.51999999955,"y":2554999.3900000006}},{"attributes":{"ID":108406,"DIS_CODE":0,"TOWNNAME":"安定區","LI":"新吉里","LIN":"1鄰","STREET":" ","SECT":" ","MAREA":"新吉","LANE":" ","ALLEY":" ","HOUSE_NO":"１之１２號","E_COORD97":169120.42999999999,"N_COORD97":2554357.0099999998,"ADDRESS":"新吉１之１２號","OBJECTID":108406},"geometry":{"x":169120.43000000156,"y":2554357.0099999998}},{"attributes":{"ID":108407,"DIS_CODE":0,"TOWNNAME":"安定區","LI":"港南里","LIN":"1鄰","STREET":" ","SECT":" ","MAREA":"港口","LANE":" ","ALLEY":" ","HOUSE_NO":"５之１９號","E_COORD97":171023.39999999999,"N_COORD97":2554283.3100000001,"ADDRESS":"港口５之１９號","OBJECTID":108407},"geometry":{"x":171023.40000000224,"y":2554283.3100000024}},{"attributes":{"ID":108408,"DIS_CODE":0,"TOWNNAME":"新市區","LI":"社內里","LIN":"1鄰","STREET":" ","SECT":" ","MAREA":"社內","LANE":" ","ALLEY":" ","HOUSE_NO":"１２之１號","E_COORD97":176763.97,"N_COORD97":2553008.5499999998,"ADDRESS":"社內１２之１號","OBJECTID":108408},"geometry":{"x":176763.97000000067,"y":2553008.5500000007}},{"attributes":{"ID":108409,"DIS_CODE":0,"TOWNNAME":"新市區","LI":"潭頂里","LIN":"1鄰","STREET":" ","SECT":" ","MAREA":"潭頂","LANE":" ","ALLEY":" ","HOUSE_NO":"１１號","E_COORD97":181794.69,"N_COORD97":2552650.5,"ADDRESS":"潭頂１１號","OBJECTID":108409},"geometry":{"x":181794.69000000134,"y":2552650.5000000019}},{"attributes":{"ID":108410,"DIS_CODE":0,"TOWNNAME":"安定區","LI":"新吉里","LIN":"1鄰","STREET":" ","SECT":" ","MAREA":"新吉","LANE":" ","ALLEY":" ","HOUSE_NO":"７之１２號","E_COORD97":169164.16,"N_COORD97":2554490.6800000002,"ADDRESS":"新吉７之１２號","OBJECTID":108410},"geometry":{"x":169164.16000000108,"y":2554490.6799999997}},{"attributes":{"ID":108411,"DIS_CODE":0,"TOWNNAME":"新市區","LI":"新和里","LIN":"1鄰","STREET":"中華路","SECT":" ","MAREA":" ","LANE":" ","ALLEY":" ","HOUSE_NO":"１５號","E_COORD97":177311.64999999999,"N_COORD97":2551970,"ADDRESS":"中華路１５號","OBJECTID":108411},"geometry":{"x":177311.65000000037,"y":2551970}},{"attributes":{"ID":108412,"DIS_CODE":0,"TOWNNAME":"下營區","LI":"下營里","LIN":"1鄰","STREET":"復興街","SECT":" ","MAREA":" ","LANE":" ","ALLEY":" ","HOUSE_NO":"３０號","E_COORD97":174689.59,"N_COORD97":2570434.2400000002,"ADDRESS":"復興街３０號","OBJECTID":108412},"geometry":{"x":174689.58999999985,"y":2570434.2400000021}},{"attributes":{"ID":108413,"DIS_CODE":0,"TOWNNAME":"東區","LI":"成大里","LIN":"1鄰","STREET":"東寧路","SECT":"西段","MAREA":" ","LANE":" ","ALLEY":" ","HOUSE_NO":"１０號","E_COORD97":169686.45999999999,"N_COORD97":2543676.4100000001,"ADDRESS":"東寧路西段１０號","OBJECTID":108413},"geometry":{"x":169686.45999999996,"y":2543676.410000002}},{"attributes":{"ID":108414,"DIS_CODE":0,"TOWNNAME":"東區","LI":"成大里","LIN":"1鄰","STREET":"東寧路","SECT":"西段","MAREA":" ","LANE":" ","ALLEY":" ","HOUSE_NO":"１２號","E_COORD97":169680.44,"N_COORD97":2543676.6899999999,"ADDRESS":"東寧路西段１２號","OBJECTID":108414},"geometry":{"x":169680.44000000227,"y":2543676.6900000032}},{"attributes":{"ID":108415,"DIS_CODE":0,"TOWNNAME":"永康區","LI":"甲頂里","LIN":" ","STREET":"大武街","SECT":" ","MAREA":" ","LANE":"５９７巷","ALLEY":"３４弄","HOUSE_NO":"１３號","E_COORD97":170285.64999999999,"N_COORD97":2546537.25,"ADDRESS":"大武街５９７巷３４弄１３號","OBJECTID":108415},"geometry":{"x":170285.65000000037,"y":2546537.25}},{"attributes":{"ID":108416,"DIS_CODE":0,"TOWNNAME":"永康區","LI":"\u25A0行里","LIN":"35鄰","STREET":"中正北路","SECT":" ","MAREA":" ","LANE":"１７７巷","ALLEY":"１１弄","HOUSE_NO":"３號","E_COORD97":172363.28,"N_COORD97":2549169.79,"ADDRESS":"中正北路１７７巷１１弄３號","OBJECTID":108416},"geometry":{"x":172363.28000000212,"y":2549169.7899999991}},{"attributes":{"ID":108417,"DIS_CODE":0,"TOWNNAME":"永康區","LI":"\u25A0行里","LIN":"40鄰","STREET":"永安路","SECT":" ","MAREA":" ","LANE":"１０５巷","ALLEY":"４０弄","HOUSE_NO":"４２號","E_COORD97":172681.79000000001,"N_COORD97":2549341.2599999998,"ADDRESS":"永安路１０５巷４０弄４２號","OBJECTID":108417},"geometry":{"x":172681.79000000097,"y":2549341.2599999998}},{"attributes":{"ID":108418,"DIS_CODE":0,"TOWNNAME":"永康區","LI":"大橋里","LIN":" ","STREET":"大橋一街","SECT":" ","MAREA":" ","LANE":"２３３巷","ALLEY":"２弄","HOUSE_NO":"１７號","E_COORD97":171180.14000000001,"N_COORD97":2546637.5,"ADDRESS":"大橋一街２３３巷２弄１７號","OBJECTID":108418},"geometry":{"x":171180.13999999873,"y":2546637.5}},{"attributes":{"ID":108419,"DIS_CODE":0,"TOWNNAME":"永康區","LI":"建國里","LIN":" ","STREET":"復興路","SECT":" ","MAREA":" ","LANE":"６４巷","ALLEY":"２１弄","HOUSE_NO":"２３之２號","E_COORD97":172596.29999999999,"N_COORD97":2544674.7999999998,"ADDRESS":"復興路６４巷２１弄２３之２號","OBJECTID":108419},"geometry":{"x":172596.29999999981,"y":2544674.8000000026}},{"attributes":{"ID":108420,"DIS_CODE":0,"TOWNNAME":"永康區","LI":"五王里","LIN":" ","STREET":"中華路","SECT":" ","MAREA":" ","LANE":"２０６巷","ALLEY":"３０弄","HOUSE_NO":"３號","E_COORD97":171640.54000000001,"N_COORD97":2545578.7999999998,"ADDRESS":"中華路２０６巷３０弄３號","OBJECTID":108420},"geometry":{"x":171640.54000000004,"y":2545578.8000000007}},{"attributes":{"ID":108421,"DIS_CODE":0,"TOWNNAME":"永康區","LI":"甲頂里","LIN":" ","STREET":"中正南路","SECT":" ","MAREA":" ","LANE":"５２巷","ALLEY":"１３弄","HOUSE_NO":"７０號","E_COORD97":169712.09,"N_COORD97":2546778.6699999999,"ADDRESS":"中正南路５２巷１３弄７０號","OBJECTID":108421},"geometry":{"x":169712.08999999985,"y":2546778.6699999999}},{"attributes":{"ID":108422,"DIS_CODE":0,"TOWNNAME":"永康區","LI":"復興里","LIN":" ","STREET":"復興路","SECT":" ","MAREA":" ","LANE":"２７７巷","ALLEY":"７８弄","HOUSE_NO":"２５號","E_COORD97":172278.67000000001,"N_COORD97":2544118.27,"ADDRESS":"復興路２７７巷７８弄２５號","OBJECTID":108422},"geometry":{"x":172278.66999999993,"y":2544118.2700000014}},{"attributes":{"ID":108423,"DIS_CODE":0,"TOWNNAME":"永康區","LI":"二王里","LIN":" ","STREET":"南工街","SECT":" ","MAREA":" ","LANE":"２１２巷","ALLEY":"１３弄","HOUSE_NO":"１８之１號","E_COORD97":172177.60999999999,"N_COORD97":2546010.1200000001,"ADDRESS":"南工街２１２巷１３弄１８之１號","OBJECTID":108423},"geometry":{"x":172177.61000000034,"y":2546010.120000001}},{"attributes":{"ID":108424,"DIS_CODE":0,"TOWNNAME":"北區","LI":"大港里","LIN":"9鄰","STREET":"大興街","SECT":" ","MAREA":" ","LANE":"２８０巷","ALLEY":"２０弄","HOUSE_NO":"１１號","E_COORD97":166620.29000000001,"N_COORD97":2545738.8300000001,"ADDRESS":"大興街２８０巷２０弄１１號","OBJECTID":108424},"geometry":{"x":166620.29000000097,"y":2545738.8300000019}},{"attributes":{"ID":108425,"DIS_CODE":0,"TOWNNAME":"新市區","LI":"社內里","LIN":"1鄰","STREET":" ","SECT":" ","MAREA":"社內","LANE":" ","ALLEY":" ","HOUSE_NO":"６之８號","E_COORD97":176852.67000000001,"N_COORD97":2553014.5499999998,"ADDRESS":"社內６之８號","OBJECTID":108425},"geometry":{"x":176852.67000000086,"y":2553014.5500000007}},{"attributes":{"ID":108426,"DIS_CODE":0,"TOWNNAME":"北區","LI":"大港里","LIN":"9鄰","STREET":"大興街","SECT":" ","MAREA":" ","LANE":"２８０巷","ALLEY":"２０弄","HOUSE_NO":"１３號","E_COORD97":166624.39000000001,"N_COORD97":2545740.21,"ADDRESS":"大興街２８０巷２０弄１３號","OBJECTID":108426},"geometry":{"x":166624.3900000006,"y":2545740.2100000028}},{"attributes":{"ID":108427,"DIS_CODE":0,"TOWNNAME":"北區","LI":"大港里","LIN":"9鄰","STREET":"大興街","SECT":" ","MAREA":" ","LANE":"２８０巷","ALLEY":"２０弄","HOUSE_NO":"１５號","E_COORD97":166628.97,"N_COORD97":2545740.75,"ADDRESS":"大興街２８０巷２０弄１５號","OBJECTID":108427},"geometry":{"x":166628.97000000067,"y":2545740.75}},{"attributes":{"ID":108428,"DIS_CODE":0,"TOWNNAME":"北區","LI":"大港里","LIN":"9鄰","STREET":"大興街","SECT":" ","MAREA":" ","LANE":"２８０巷","ALLEY":"２０弄","HOUSE_NO":"１７號","E_COORD97":166632.22,"N_COORD97":2545741.7799999998,"ADDRESS":"大興街２８０巷２０弄１７號","OBJECTID":108428},"geometry":{"x":166632.22000000067,"y":2545741.7800000012}},{"attributes":{"ID":108429,"DIS_CODE":0,"TOWNNAME":"北區","LI":"大港里","LIN":"9鄰","STREET":"大興街","SECT":" ","MAREA":" ","LANE":"２８０巷","ALLEY":"２０弄","HOUSE_NO":"１９號","E_COORD97":166636.70999999999,"N_COORD97":2545743,"ADDRESS":"大興街２８０巷２０弄１９號","OBJECTID":108429},"geometry":{"x":166636.70999999996,"y":2545742.9999999981}},{"attributes":{"ID":108430,"DIS_CODE":0,"TOWNNAME":"北區","LI":"大港里","LIN":"9鄰","STREET":"大興街","SECT":" ","MAREA":" ","LANE":"２８０巷","ALLEY":"２０弄","HOUSE_NO":"１號","E_COORD97":166603.82000000001,"N_COORD97":2545735.9700000002,"ADDRESS":"大興街２８０巷２０弄１號","OBJECTID":108430},"geometry":{"x":166603.8200000003,"y":2545735.9700000007}},{"attributes":{"ID":108431,"DIS_CODE":0,"TOWNNAME":"新市區","LI":"大社里","LIN":"1鄰","STREET":" ","SECT":" ","MAREA":"大社","LANE":" ","ALLEY":" ","HOUSE_NO":"８２號","E_COORD97":180416.42999999999,"N_COORD97":2554292.75,"ADDRESS":"大社８２號","OBJECTID":108431},"geometry":{"x":180416.4299999997,"y":2554292.7500000019}},{"attributes":{"ID":108432,"DIS_CODE":0,"TOWNNAME":"新市區","LI":"潭頂里","LIN":"1鄰","STREET":" ","SECT":" ","MAREA":"潭頂","LANE":" ","ALLEY":" ","HOUSE_NO":"５號","E_COORD97":181981.56,"N_COORD97":2552914.25,"ADDRESS":"潭頂５號","OBJECTID":108432},"geometry":{"x":181981.56000000052,"y":2552914.25}},{"attributes":{"ID":108433,"DIS_CODE":0,"TOWNNAME":"鹽水區","LI":"大莊里","LIN":"9鄰","STREET":" ","SECT":" ","MAREA":"大莊","LANE":" ","ALLEY":" ","HOUSE_NO":"１４號之４","E_COORD97":172907.45999999999,"N_COORD97":2576955.3500000001,"ADDRESS":"大莊１４號之４","OBJECTID":108433},"geometry":{"x":172907.46000000183,"y":2576955.3499999978}},{"attributes":{"ID":108434,"DIS_CODE":0,"TOWNNAME":"鹽水區","LI":"大莊里","LIN":"9鄰","STREET":" ","SECT":" ","MAREA":"大莊","LANE":" ","ALLEY":" ","HOUSE_NO":"１４之６號","E_COORD97":172877.37,"N_COORD97":2576963.4399999999,"ADDRESS":"大莊１４之６號","OBJECTID":108434},"geometry":{"x":172877.37000000011,"y":2576963.4399999995}},{"attributes":{"ID":108435,"DIS_CODE":0,"TOWNNAME":"鹽水區","LI":"大莊里","LIN":"9鄰","STREET":" ","SECT":" ","MAREA":"大莊","LANE":" ","ALLEY":" ","HOUSE_NO":"１４之７號","E_COORD97":173351.45999999999,"N_COORD97":2577012.5499999998,"ADDRESS":"大莊１４之７號","OBJECTID":108435},"geometry":{"x":173351.45999999996,"y":2577012.5500000007}},{"attributes":{"ID":108436,"DIS_CODE":0,"TOWNNAME":"鹽水區","LI":"大莊里","LIN":"9鄰","STREET":" ","SECT":" ","MAREA":"大莊","LANE":" ","ALLEY":" ","HOUSE_NO":"１４之８號","E_COORD97":173103.17000000001,"N_COORD97":2577049.3199999998,"ADDRESS":"大莊１４之８號","OBJECTID":108436},"geometry":{"x":173103.17000000086,"y":2577049.3200000022}},{"attributes":{"ID":108437,"DIS_CODE":0,"TOWNNAME":"鹽水區","LI":"大莊里","LIN":"9鄰","STREET":" ","SECT":" ","MAREA":"大莊","LANE":" ","ALLEY":" ","HOUSE_NO":"１４之９號","E_COORD97":172934.98000000001,"N_COORD97":2576976.23,"ADDRESS":"大莊１４之９號","OBJECTID":108437},"geometry":{"x":172934.98000000231,"y":2576976.2300000004}},{"attributes":{"ID":108438,"DIS_CODE":0,"TOWNNAME":"鹽水區","LI":"大莊里","LIN":"9鄰","STREET":" ","SECT":" ","MAREA":"大莊","LANE":" ","ALLEY":" ","HOUSE_NO":"１號之１０","E_COORD97":172896.07000000001,"N_COORD97":2577212.9199999999,"ADDRESS":"大莊１號之１０","OBJECTID":108438},"geometry":{"x":172896.07000000123,"y":2577212.9199999981}},{"attributes":{"ID":108439,"DIS_CODE":0,"TOWNNAME":"鹽水區","LI":"大莊里","LIN":"9鄰","STREET":" ","SECT":" ","MAREA":"大莊","LANE":" ","ALLEY":" ","HOUSE_NO":"１之１１號","E_COORD97":172911.95000000001,"N_COORD97":2577225.4399999999,"ADDRESS":"大莊１之１１號","OBJECTID":108439},"geometry":{"x":172911.95000000112,"y":2577225.4399999995}},{"attributes":{"ID":108440,"DIS_CODE":0,"TOWNNAME":"鹽水區","LI":"大莊里","LIN":"9鄰","STREET":" ","SECT":" ","MAREA":"大莊","LANE":" ","ALLEY":" ","HOUSE_NO":"１之１２號","E_COORD97":172915.91,"N_COORD97":2577227.5800000001,"ADDRESS":"大莊１之１２號","OBJECTID":108440},"geometry":{"x":172915.91000000015,"y":2577227.5800000001}},{"attributes":{"ID":108441,"DIS_CODE":0,"TOWNNAME":"鹽水區","LI":"大莊里","LIN":"9鄰","STREET":" ","SECT":" ","MAREA":"大莊","LANE":" ","ALLEY":" ","HOUSE_NO":"１之１３號","E_COORD97":172959.47,"N_COORD97":2577259.1899999999,"ADDRESS":"大莊１之１３號","OBJECTID":108441},"geometry":{"x":172959.46999999974,"y":2577259.1900000013}},{"attributes":{"ID":108442,"DIS_CODE":0,"TOWNNAME":"安南區","LI":"安東里","LIN":"1鄰","STREET":"安和路","SECT":"一段","MAREA":" ","LANE":" ","ALLEY":" ","HOUSE_NO":"３６８號","E_COORD97":169306.59,"N_COORD97":2548213.6099999999,"ADDRESS":"安和路一段３６８號","OBJECTID":108442},"geometry":{"x":169306.59000000078,"y":2548213.6100000031}},{"attributes":{"ID":108443,"DIS_CODE":0,"TOWNNAME":"北區","LI":"大港里","LIN":"9鄰","STREET":"大興街","SECT":" ","MAREA":" ","LANE":"２８０巷","ALLEY":"２０弄","HOUSE_NO":"２１號","E_COORD97":166640.20999999999,"N_COORD97":2545743.7400000002,"ADDRESS":"大興街２８０巷２０弄２１號","OBJECTID":108443},"geometry":{"x":166640.20999999996,"y":2545743.7400000002}},{"attributes":{"ID":108444,"DIS_CODE":0,"TOWNNAME":"北區","LI":"大港里","LIN":"9鄰","STREET":"大興街","SECT":" ","MAREA":" ","LANE":"２８０巷","ALLEY":"２０弄","HOUSE_NO":"２３號","E_COORD97":166644,"N_COORD97":2545744.6000000001,"ADDRESS":"大興街２８０巷２０弄２３號","OBJECTID":108444},"geometry":{"x":166644.00000000093,"y":2545744.5999999996}},{"attributes":{"ID":108445,"DIS_CODE":0,"TOWNNAME":"北區","LI":"大港里","LIN":"9鄰","STREET":"大興街","SECT":" ","MAREA":" ","LANE":"２８０巷","ALLEY":"２０弄","HOUSE_NO":"２５號","E_COORD97":166648.89000000001,"N_COORD97":2545745.5299999998,"ADDRESS":"大興街２８０巷２０弄２５號","OBJECTID":108445},"geometry":{"x":166648.88999999966,"y":2545745.5300000031}},{"attributes":{"ID":108446,"DIS_CODE":0,"TOWNNAME":"北區","LI":"大港里","LIN":"9鄰","STREET":"大興街","SECT":" ","MAREA":" ","LANE":"２８０巷","ALLEY":"２０弄","HOUSE_NO":"２７號","E_COORD97":166652.94,"N_COORD97":2545746.3799999999,"ADDRESS":"大興街２８０巷２０弄２７號","OBJECTID":108446},"geometry":{"x":166652.94000000227,"y":2545746.3800000027}},{"attributes":{"ID":108447,"DIS_CODE":0,"TOWNNAME":"北區","LI":"大港里","LIN":"9鄰","STREET":"大興街","SECT":" ","MAREA":" ","LANE":"２８０巷","ALLEY":"２０弄","HOUSE_NO":"３號","E_COORD97":166608.04999999999,"N_COORD97":2545735.54,"ADDRESS":"大興街２８０巷２０弄３號","OBJECTID":108447},"geometry":{"x":166608.05000000075,"y":2545735.540000001}},{"attributes":{"ID":108448,"DIS_CODE":0,"TOWNNAME":"北區","LI":"大港里","LIN":"9鄰","STREET":"大興街","SECT":" ","MAREA":" ","LANE":"２８０巷","ALLEY":"２０弄","HOUSE_NO":"５號","E_COORD97":166610.57000000001,"N_COORD97":2545736.25,"ADDRESS":"大興街２８０巷２０弄５號","OBJECTID":108448},"geometry":{"x":166610.5700000003,"y":2545736.2500000019}},{"attributes":{"ID":108449,"DIS_CODE":0,"TOWNNAME":"北區","LI":"大港里","LIN":"9鄰","STREET":"大興街","SECT":" ","MAREA":" ","LANE":"２８０巷","ALLEY":"２０弄","HOUSE_NO":"７號","E_COORD97":166613.67000000001,"N_COORD97":2545737.1699999999,"ADDRESS":"大興街２８０巷２０弄７號","OBJECTID":108449},"geometry":{"x":166613.67000000086,"y":2545737.1699999999}},{"attributes":{"ID":108450,"DIS_CODE":0,"TOWNNAME":"北區","LI":"大港里","LIN":"9鄰","STREET":"大興街","SECT":" ","MAREA":" ","LANE":"２８０巷","ALLEY":"２０弄","HOUSE_NO":"９號","E_COORD97":166616.54999999999,"N_COORD97":2545738.0099999998,"ADDRESS":"大興街２８０巷２０弄９號","OBJECTID":108450},"geometry":{"x":166616.55000000075,"y":2545738.0099999998}},{"attributes":{"ID":108451,"DIS_CODE":0,"TOWNNAME":"北區","LI":"大和里","LIN":"9鄰","STREET":"文賢路","SECT":" ","MAREA":" ","LANE":"７３５巷","ALLEY":"１０弄","HOUSE_NO":"１０號","E_COORD97":167289.87,"N_COORD97":2546195.02,"ADDRESS":"文賢路７３５巷１０弄１０號","OBJECTID":108451},"geometry":{"x":167289.87000000011,"y":2546195.0200000014}},{"attributes":{"ID":108452,"DIS_CODE":0,"TOWNNAME":"安南區","LI":"安東里","LIN":"1鄰","STREET":"安和路","SECT":"一段","MAREA":" ","LANE":" ","ALLEY":" ","HOUSE_NO":"３７２號","E_COORD97":169308.41,"N_COORD97":2548226.1099999999,"ADDRESS":"安和路一段３７２號","OBJECTID":108452},"geometry":{"x":169308.41000000015,"y":2548226.1099999994}},{"attributes":{"ID":108453,"DIS_CODE":0,"TOWNNAME":"安南區","LI":"安西里","LIN":"1鄰","STREET":"安和路","SECT":"一段","MAREA":" ","LANE":" ","ALLEY":" ","HOUSE_NO":"１６１號","E_COORD97":169356.79000000001,"N_COORD97":2547824.3999999999,"ADDRESS":"安和路一段１６１號","OBJECTID":108453},"geometry":{"x":169356.79000000004,"y":2547824.4000000004}},{"attributes":{"ID":108454,"DIS_CODE":0,"TOWNNAME":"安南區","LI":"安順里","LIN":"1鄰","STREET":"總安街","SECT":"一段","MAREA":" ","LANE":" ","ALLEY":" ","HOUSE_NO":"１８號","E_COORD97":169900.76000000001,"N_COORD97":2550114.7400000002,"ADDRESS":"總安街一段１８號","OBJECTID":108454},"geometry":{"x":169900.75999999978,"y":2550114.7400000002}},{"attributes":{"ID":108455,"DIS_CODE":0,"TOWNNAME":"安南區","LI":"安西里","LIN":"1鄰","STREET":"安和路","SECT":"一段","MAREA":" ","LANE":" ","ALLEY":" ","HOUSE_NO":"１６３號","E_COORD97":169356,"N_COORD97":2547829.0899999999,"ADDRESS":"安和路一段１６３號","OBJECTID":108455},"geometry":{"x":169356.00000000093,"y":2547829.0900000017}},{"attributes":{"ID":108456,"DIS_CODE":0,"TOWNNAME":"安南區","LI":"安西里","LIN":"1鄰","STREET":"安和路","SECT":"一段","MAREA":" ","LANE":" ","ALLEY":" ","HOUSE_NO":"１６７號","E_COORD97":169353.64999999999,"N_COORD97":2547837.29,"ADDRESS":"安和路一段１６７號","OBJECTID":108456},"geometry":{"x":169353.65000000224,"y":2547837.2899999991}},{"attributes":{"ID":108457,"DIS_CODE":0,"TOWNNAME":"下營區","LI":"西連里","LIN":"1鄰","STREET":" ","SECT":" ","MAREA":"連表","LANE":" ","ALLEY":" ","HOUSE_NO":"７號之１","E_COORD97":174931.17999999999,"N_COORD97":2567699.04,"ADDRESS":"連表７號之１","OBJECTID":108457},"geometry":{"x":174931.1799999997,"y":2567699.040000001}},{"attributes":{"ID":108458,"DIS_CODE":0,"TOWNNAME":"安南區","LI":"安西里","LIN":"1鄰","STREET":"安和路","SECT":"一段","MAREA":" ","LANE":" ","ALLEY":" ","HOUSE_NO":"１６９號","E_COORD97":169352.09,"N_COORD97":2547841.98,"ADDRESS":"安和路一段１６９號","OBJECTID":108458},"geometry":{"x":169352.09000000078,"y":2547841.9800000004}},{"attributes":{"ID":108459,"DIS_CODE":0,"TOWNNAME":"安南區","LI":"安西里","LIN":"1鄰","STREET":"安和路","SECT":"一段","MAREA":" ","LANE":" ","ALLEY":" ","HOUSE_NO":"１８１號","E_COORD97":169337.22,"N_COORD97":2547865.8199999998,"ADDRESS":"安和路一段１８１號","OBJECTID":108459},"geometry":{"x":169337.2200000016,"y":2547865.8200000003}},{"attributes":{"ID":108460,"DIS_CODE":0,"TOWNNAME":"安南區","LI":"安西里","LIN":"1鄰","STREET":"安和路","SECT":"一段","MAREA":" ","LANE":" ","ALLEY":" ","HOUSE_NO":"１８３號","E_COORD97":169334.87,"N_COORD97":2547868.1699999999,"ADDRESS":"安和路一段１８３號","OBJECTID":108460},"geometry":{"x":169334.87000000197,"y":2547868.1700000018}},{"attributes":{"ID":108461,"DIS_CODE":0,"TOWNNAME":"鹽水區","LI":"大莊里","LIN":"9鄰","STREET":" ","SECT":" ","MAREA":"大莊","LANE":" ","ALLEY":" ","HOUSE_NO":"１之１５號","E_COORD97":172962.19,"N_COORD97":2577261.7000000002,"ADDRESS":"大莊１之１５號","OBJECTID":108461},"geometry":{"x":172962.19000000041,"y":2577261.7000000011}},{"attributes":{"ID":108462,"DIS_CODE":0,"TOWNNAME":"鹽水區","LI":"大莊里","LIN":"9鄰","STREET":" ","SECT":" ","MAREA":"大莊","LANE":" ","ALLEY":" ","HOUSE_NO":"１號之１５","E_COORD97":172962.19,"N_COORD97":2577261.7000000002,"ADDRESS":"大莊１號之１５","OBJECTID":108462},"geometry":{"x":172962.19000000041,"y":2577261.7000000011}},{"attributes":{"ID":108463,"DIS_CODE":0,"TOWNNAME":"鹽水區","LI":"大莊里","LIN":"9鄰","STREET":" ","SECT":" ","MAREA":"大莊","LANE":" ","ALLEY":" ","HOUSE_NO":"１號之１６","E_COORD97":173129.13,"N_COORD97":2577397.3100000001,"ADDRESS":"大莊１號之１６","OBJECTID":108463},"geometry":{"x":173129.13000000082,"y":2577397.3100000005}},{"attributes":{"ID":108464,"DIS_CODE":0,"TOWNNAME":"鹽水區","LI":"大莊里","LIN":"9鄰","STREET":" ","SECT":" ","MAREA":"大莊","LANE":" ","ALLEY":" ","HOUSE_NO":"１號之１７","E_COORD97":173137.31,"N_COORD97":2577402.9500000002,"ADDRESS":"大莊１號之１７","OBJECTID":108464},"geometry":{"x":173137.31000000052,"y":2577402.9500000011}},{"attributes":{"ID":108465,"DIS_CODE":0,"TOWNNAME":"鹽水區","LI":"大莊里","LIN":"9鄰","STREET":" ","SECT":" ","MAREA":"大莊","LANE":" ","ALLEY":" ","HOUSE_NO":"１號之１８","E_COORD97":173056.59,"N_COORD97":2577331.04,"ADDRESS":"大莊１號之１８","OBJECTID":108465},"geometry":{"x":173056.58999999985,"y":2577331.040000001}},{"attributes":{"ID":108466,"DIS_CODE":0,"TOWNNAME":"鹽水區","LI":"大莊里","LIN":"9鄰","STREET":" ","SECT":" ","MAREA":"大莊","LANE":" ","ALLEY":" ","HOUSE_NO":"１號之１９","E_COORD97":172709.5,"N_COORD97":2577086.8599999999,"ADDRESS":"大莊１號之１９","OBJECTID":108466},"geometry":{"x":172709.50000000093,"y":2577086.8599999994}},{"attributes":{"ID":108467,"DIS_CODE":0,"TOWNNAME":"鹽水區","LI":"大莊里","LIN":"9鄰","STREET":" ","SECT":" ","MAREA":"大莊","LANE":" ","ALLEY":" ","HOUSE_NO":"１號之１","E_COORD97":172815.82000000001,"N_COORD97":2577172.5600000001,"ADDRESS":"大莊１號之１","OBJECTID":108467},"geometry":{"x":172815.82000000123,"y":2577172.5600000024}},{"attributes":{"ID":108468,"DIS_CODE":0,"TOWNNAME":"鹽水區","LI":"大莊里","LIN":"9鄰","STREET":" ","SECT":" ","MAREA":"大莊","LANE":" ","ALLEY":" ","HOUSE_NO":"１之２０號","E_COORD97":172629.25,"N_COORD97":2577165.3100000001,"ADDRESS":"大莊１之２０號","OBJECTID":108468},"geometry":{"x":172629.25000000186,"y":2577165.3100000024}},{"attributes":{"ID":108469,"DIS_CODE":0,"TOWNNAME":"鹽水區","LI":"大莊里","LIN":"9鄰","STREET":" ","SECT":" ","MAREA":"大莊","LANE":" ","ALLEY":" ","HOUSE_NO":"１之２３號","E_COORD97":172762.54999999999,"N_COORD97":2577205.2000000002,"ADDRESS":"大莊１之２３號","OBJECTID":108469},"geometry":{"x":172762.54999999888,"y":2577205.2000000011}},{"attributes":{"ID":108470,"DIS_CODE":0,"TOWNNAME":"鹽水區","LI":"大莊里","LIN":"9鄰","STREET":" ","SECT":" ","MAREA":"大莊","LANE":" ","ALLEY":" ","HOUSE_NO":"１號之２","E_COORD97":172857.97,"N_COORD97":2577170.75,"ADDRESS":"大莊１號之２","OBJECTID":108470},"geometry":{"x":172857.96999999881,"y":2577170.7500000019}},{"attributes":{"ID":108471,"DIS_CODE":0,"TOWNNAME":"鹽水區","LI":"大莊里","LIN":"9鄰","STREET":" ","SECT":" ","MAREA":"大莊","LANE":" ","ALLEY":" ","HOUSE_NO":"１之３號","E_COORD97":172869.04999999999,"N_COORD97":2577205.0800000001,"ADDRESS":"大莊１之３號","OBJECTID":108471},"geometry":{"x":172869.04999999981,"y":2577205.0800000001}},{"attributes":{"ID":108472,"DIS_CODE":0,"TOWNNAME":"鹽水區","LI":"大莊里","LIN":"9鄰","STREET":" ","SECT":" ","MAREA":"大莊","LANE":" ","ALLEY":" ","HOUSE_NO":"１號之４","E_COORD97":173124.35000000001,"N_COORD97":2577379.0099999998,"ADDRESS":"大莊１號之４","OBJECTID":108472},"geometry":{"x":173124.34999999963,"y":2577379.0100000016}},{"attributes":{"ID":108473,"DIS_CODE":0,"TOWNNAME":"鹽水區","LI":"大莊里","LIN":"9鄰","STREET":" ","SECT":" ","MAREA":"大莊","LANE":" ","ALLEY":" ","HOUSE_NO":"１之５號","E_COORD97":172955.82000000001,"N_COORD97":2577255.9900000002,"ADDRESS":"大莊１之５號","OBJECTID":108473},"geometry":{"x":172955.8200000003,"y":2577255.9900000002}},{"attributes":{"ID":108474,"DIS_CODE":0,"TOWNNAME":"鹽水區","LI":"大莊里","LIN":"9鄰","STREET":" ","SECT":" ","MAREA":"大莊","LANE":" ","ALLEY":" ","HOUSE_NO":"１號之５","E_COORD97":172955.82000000001,"N_COORD97":2577255.9900000002,"ADDRESS":"大莊１號之５","OBJECTID":108474},"geometry":{"x":172955.8200000003,"y":2577255.9900000002}},{"attributes":{"ID":108475,"DIS_CODE":0,"TOWNNAME":"鹽水區","LI":"大莊里","LIN":"9鄰","STREET":" ","SECT":" ","MAREA":"大莊","LANE":" ","ALLEY":" ","HOUSE_NO":"１之６號","E_COORD97":173162.84,"N_COORD97":2577406.9199999999,"ADDRESS":"大莊１之６號","OBJECTID":108475},"geometry":{"x":173162.84000000078,"y":2577406.9200000018}},{"attributes":{"ID":108476,"DIS_CODE":0,"TOWNNAME":"北區","LI":"大和里","LIN":"9鄰","STREET":"文賢路","SECT":" ","MAREA":" ","LANE":"７３５巷","ALLEY":"１０弄","HOUSE_NO":"１１號","E_COORD97":167269.60000000001,"N_COORD97":2546195.23,"ADDRESS":"文賢路７３５巷１０弄１１號","OBJECTID":108476},"geometry":{"x":167269.5999999987,"y":2546195.2300000004}},{"attributes":{"ID":108477,"DIS_CODE":0,"TOWNNAME":"北區","LI":"大和里","LIN":"9鄰","STREET":"文賢路","SECT":" ","MAREA":" ","LANE":"７３５巷","ALLEY":"１０弄","HOUSE_NO":"１２號","E_COORD97":167288.60999999999,"N_COORD97":2546198.3900000001,"ADDRESS":"文賢路７３５巷１０弄１２號","OBJECTID":108477},"geometry":{"x":167288.61000000034,"y":2546198.3900000006}},{"attributes":{"ID":108478,"DIS_CODE":0,"TOWNNAME":"北區","LI":"大和里","LIN":"9鄰","STREET":"文賢路","SECT":" ","MAREA":" ","LANE":"７３５巷","ALLEY":"１０弄","HOUSE_NO":"１３號","E_COORD97":167268.34,"N_COORD97":2546199.23,"ADDRESS":"文賢路７３５巷１０弄１３號","OBJECTID":108478},"geometry":{"x":167268.34000000171,"y":2546199.2300000004}},{"attributes":{"ID":108479,"DIS_CODE":0,"TOWNNAME":"北區","LI":"大和里","LIN":"9鄰","STREET":"文賢路","SECT":" ","MAREA":" ","LANE":"７３５巷","ALLEY":"１０弄","HOUSE_NO":"１４號","E_COORD97":167286.98999999999,"N_COORD97":2546202.3900000001,"ADDRESS":"文賢路７３５巷１０弄１４號","OBJECTID":108479},"geometry":{"x":167286.99000000115,"y":2546202.3900000043}},{"attributes":{"ID":108480,"DIS_CODE":0,"TOWNNAME":"北區","LI":"大和里","LIN":"9鄰","STREET":"文賢路","SECT":" ","MAREA":" ","LANE":"７３５巷","ALLEY":"１０弄","HOUSE_NO":"１５號","E_COORD97":167266.73000000001,"N_COORD97":2546203.1600000001,"ADDRESS":"文賢路７３５巷１０弄１５號","OBJECTID":108480},"geometry":{"x":167266.73000000138,"y":2546203.1599999983}},{"attributes":{"ID":108481,"DIS_CODE":0,"TOWNNAME":"北區","LI":"大和里","LIN":"9鄰","STREET":"文賢路","SECT":" ","MAREA":" ","LANE":"７３５巷","ALLEY":"１０弄","HOUSE_NO":"１６號","E_COORD97":167284.45999999999,"N_COORD97":2546206.8300000001,"ADDRESS":"文賢路７３５巷１０弄１６號","OBJECTID":108481},"geometry":{"x":167284.45999999903,"y":2546206.8300000019}},{"attributes":{"ID":108482,"DIS_CODE":0,"TOWNNAME":"北區","LI":"大和里","LIN":"9鄰","STREET":"文賢路","SECT":" ","MAREA":" ","LANE":"７３５巷","ALLEY":"１０弄","HOUSE_NO":"１７號","E_COORD97":167264.97,"N_COORD97":2546207.79,"ADDRESS":"文賢路７３５巷１０弄１７號","OBJECTID":108482},"geometry":{"x":167264.96999999974,"y":2546207.7899999991}},{"attributes":{"ID":108483,"DIS_CODE":0,"TOWNNAME":"北區","LI":"大和里","LIN":"9鄰","STREET":"文賢路","SECT":" ","MAREA":" ","LANE":"７３５巷","ALLEY":"１０弄","HOUSE_NO":"１８號","E_COORD97":167283.12,"N_COORD97":2546210.5600000001,"ADDRESS":"文賢路７３５巷１０弄１８號","OBJECTID":108483},"geometry":{"x":167283.12000000011,"y":2546210.5600000005}},{"attributes":{"ID":108484,"DIS_CODE":0,"TOWNNAME":"北區","LI":"大和里","LIN":"9鄰","STREET":"文賢路","SECT":" ","MAREA":" ","LANE":"７３５巷","ALLEY":"１０弄","HOUSE_NO":"１９號","E_COORD97":167263.63,"N_COORD97":2546211.6099999999,"ADDRESS":"文賢路７３５巷１０弄１９號","OBJECTID":108484},"geometry":{"x":167263.63000000082,"y":2546211.6099999994}},{"attributes":{"ID":108485,"DIS_CODE":0,"TOWNNAME":"鹽水區","LI":"大莊里","LIN":"9鄰","STREET":" ","SECT":" ","MAREA":"大莊","LANE":" ","ALLEY":" ","HOUSE_NO":"１號之６","E_COORD97":173162.84,"N_COORD97":2577406.9199999999,"ADDRESS":"大莊１號之６","OBJECTID":108485},"geometry":{"x":173162.84000000078,"y":2577406.9200000018}},{"attributes":{"ID":108486,"DIS_CODE":0,"TOWNNAME":"鹽水區","LI":"大莊里","LIN":"9鄰","STREET":" ","SECT":" ","MAREA":"大莊","LANE":" ","ALLEY":" ","HOUSE_NO":"１號之８","E_COORD97":172830.60999999999,"N_COORD97":2577262.7200000002,"ADDRESS":"大莊１號之８","OBJECTID":108486},"geometry":{"x":172830.6100000022,"y":2577262.7200000044}},{"attributes":{"ID":108487,"DIS_CODE":0,"TOWNNAME":"北區","LI":"大和里","LIN":"9鄰","STREET":"文賢路","SECT":" ","MAREA":" ","LANE":"７３５巷","ALLEY":"１０弄","HOUSE_NO":"１號","E_COORD97":167278.62,"N_COORD97":2546175.6899999999,"ADDRESS":"文賢路７３５巷１０弄１號","OBJECTID":108487},"geometry":{"x":167278.62000000197,"y":2546175.6900000013}},{"attributes":{"ID":108488,"DIS_CODE":0,"TOWNNAME":"鹽水區","LI":"大莊里","LIN":"9鄰","STREET":" ","SECT":" ","MAREA":"大莊","LANE":" ","ALLEY":" ","HOUSE_NO":"１之９號","E_COORD97":173090.32000000001,"N_COORD97":2577428.8100000001,"ADDRESS":"大莊１之９號","OBJECTID":108488},"geometry":{"x":173090.32000000216,"y":2577428.8100000024}},{"attributes":{"ID":108489,"DIS_CODE":0,"TOWNNAME":"鹽水區","LI":"大莊里","LIN":"9鄰","STREET":" ","SECT":" ","MAREA":"大莊","LANE":" ","ALLEY":" ","HOUSE_NO":"２２號","E_COORD97":172795.94,"N_COORD97":2576932.7000000002,"ADDRESS":"大莊２２號","OBJECTID":108489},"geometry":{"x":172795.94000000041,"y":2576932.700000003}},{"attributes":{"ID":108490,"DIS_CODE":0,"TOWNNAME":"鹽水區","LI":"大莊里","LIN":"9鄰","STREET":" ","SECT":" ","MAREA":"大莊","LANE":" ","ALLEY":" ","HOUSE_NO":"２號之４","E_COORD97":172618.12,"N_COORD97":2576998.0299999998,"ADDRESS":"大莊２號之４","OBJECTID":108490},"geometry":{"x":172618.12000000011,"y":2576998.0300000031}},{"attributes":{"ID":108491,"DIS_CODE":0,"TOWNNAME":"鹽水區","LI":"大莊里","LIN":"9鄰","STREET":" ","SECT":" ","MAREA":"大莊","LANE":" ","ALLEY":" ","HOUSE_NO":"２號之５","E_COORD97":172622.01999999999,"N_COORD97":2577001.6499999999,"ADDRESS":"大莊２號之５","OBJECTID":108491},"geometry":{"x":172622.02000000048,"y":2577001.6499999985}},{"attributes":{"ID":108492,"DIS_CODE":0,"TOWNNAME":"北區","LI":"大和里","LIN":"9鄰","STREET":"文賢路","SECT":" ","MAREA":" ","LANE":"７３５巷","ALLEY":"１０弄","HOUSE_NO":"１號之１","E_COORD97":167280.10000000001,"N_COORD97":2546169.3100000001,"ADDRESS":"文賢路７３５巷１０弄１號之１","OBJECTID":108492},"geometry":{"x":167280.10000000056,"y":2546169.3100000024}},{"attributes":{"ID":108493,"DIS_CODE":0,"TOWNNAME":"北區","LI":"大和里","LIN":"9鄰","STREET":"文賢路","SECT":" ","MAREA":" ","LANE":"７３５巷","ALLEY":"１０弄","HOUSE_NO":"２０號","E_COORD97":167281.09,"N_COORD97":2546214.4900000002,"ADDRESS":"文賢路７３５巷１０弄２０號","OBJECTID":108493},"geometry":{"x":167281.08999999985,"y":2546214.4899999984}},{"attributes":{"ID":108494,"DIS_CODE":0,"TOWNNAME":"鹽水區","LI":"大莊里","LIN":"9鄰","STREET":" ","SECT":" ","MAREA":"大莊","LANE":" ","ALLEY":" ","HOUSE_NO":"２號","E_COORD97":172604.60999999999,"N_COORD97":2576986.3799999999,"ADDRESS":"大莊２號","OBJECTID":108494},"geometry":{"x":172604.61000000034,"y":2576986.3800000008}},{"attributes":{"ID":108495,"DIS_CODE":0,"TOWNNAME":"鹽水區","LI":"大莊里","LIN":"9鄰","STREET":" ","SECT":" ","MAREA":"大莊","LANE":" ","ALLEY":" ","HOUSE_NO":"３號","E_COORD97":172586.44,"N_COORD97":2576980.6200000001,"ADDRESS":"大莊３號","OBJECTID":108495},"geometry":{"x":172586.44000000134,"y":2576980.6200000029}},{"attributes":{"ID":108496,"DIS_CODE":0,"TOWNNAME":"鹽水區","LI":"大莊里","LIN":"9鄰","STREET":" ","SECT":" ","MAREA":"大莊","LANE":" ","ALLEY":" ","HOUSE_NO":"４號之１０","E_COORD97":172747.47,"N_COORD97":2577042.8999999999,"ADDRESS":"大莊４號之１０","OBJECTID":108496},"geometry":{"x":172747.46999999974,"y":2577042.9000000004}},{"attributes":{"ID":108497,"DIS_CODE":0,"TOWNNAME":"鹽水區","LI":"大莊里","LIN":"9鄰","STREET":" ","SECT":" ","MAREA":"大莊","LANE":" ","ALLEY":" ","HOUSE_NO":"４之１１號","E_COORD97":173354.98000000001,"N_COORD97":2577447.1800000002,"ADDRESS":"大莊４之１１號","OBJECTID":108497},"geometry":{"x":173354.98000000045,"y":2577447.1799999997}},{"attributes":{"ID":108498,"DIS_CODE":0,"TOWNNAME":"鹽水區","LI":"大豐里","LIN":"9鄰","STREET":" ","SECT":" ","MAREA":"大豐","LANE":" ","ALLEY":" ","HOUSE_NO":"９３號","E_COORD97":170394.57999999999,"N_COORD97":2573810.48,"ADDRESS":"大豐９３號","OBJECTID":108498},"geometry":{"x":170394.58000000194,"y":2573810.4800000023}},{"attributes":{"ID":108499,"DIS_CODE":0,"TOWNNAME":"鹽水區","LI":"大豐里","LIN":"9鄰","STREET":" ","SECT":" ","MAREA":"大豐","LANE":" ","ALLEY":" ","HOUSE_NO":"９５號","E_COORD97":170407.26000000001,"N_COORD97":2573773.6099999999,"ADDRESS":"大豐９５號","OBJECTID":108499},"geometry":{"x":170407.26000000071,"y":2573773.6100000031}},{"attributes":{"ID":108500,"DIS_CODE":0,"TOWNNAME":"鹽水區","LI":"大豐里","LIN":"9鄰","STREET":" ","SECT":" ","MAREA":"大豐","LANE":" ","ALLEY":" ","HOUSE_NO":"９６號","E_COORD97":170389.39000000001,"N_COORD97":2573784.71,"ADDRESS":"大豐９６號","OBJECTID":108500},"geometry":{"x":170389.3900000006,"y":2573784.7100000046}},{"attributes":{"ID":108501,"DIS_CODE":0,"TOWNNAME":"麻豆區","LI":"麻口里","LIN":"9鄰","STREET":" ","SECT":" ","MAREA":"麻豆口","LANE":" ","ALLEY":" ","HOUSE_NO":"８７號之１","E_COORD97":169852.42999999999,"N_COORD97":2564190.3999999999,"ADDRESS":"麻豆口８７號之１","OBJECTID":108501},"geometry":{"x":169852.4299999997,"y":2564190.4000000004}},{"attributes":{"ID":108502,"DIS_CODE":0,"TOWNNAME":"麻豆區","LI":"麻口里","LIN":"9鄰","STREET":" ","SECT":" ","MAREA":"麻豆口","LANE":" ","ALLEY":" ","HOUSE_NO":"８７號之２","E_COORD97":169851.64000000001,"N_COORD97":2564184.96,"ADDRESS":"麻豆口８７號之２","OBJECTID":108502},"geometry":{"x":169851.6400000006,"y":2564184.9600000028}},{"attributes":{"ID":108503,"DIS_CODE":0,"TOWNNAME":"麻豆區","LI":"麻口里","LIN":"9鄰","STREET":" ","SECT":" ","MAREA":"麻豆口","LANE":" ","ALLEY":" ","HOUSE_NO":"８８號之１","E_COORD97":169845.42999999999,"N_COORD97":2564170.73,"ADDRESS":"麻豆口８８號之１","OBJECTID":108503},"geometry":{"x":169845.4299999997,"y":2564170.7300000004}},{"attributes":{"ID":108504,"DIS_CODE":0,"TOWNNAME":"麻豆區","LI":"麻口里","LIN":"9鄰","STREET":" ","SECT":" ","MAREA":"麻豆口","LANE":" ","ALLEY":" ","HOUSE_NO":"８８號","E_COORD97":169863,"N_COORD97":2564156.8399999999,"ADDRESS":"麻豆口８８號","OBJECTID":108504},"geometry":{"x":169863.00000000093,"y":2564156.8399999999}},{"attributes":{"ID":108505,"DIS_CODE":0,"TOWNNAME":"麻豆區","LI":"麻口里","LIN":"9鄰","STREET":" ","SECT":" ","MAREA":"麻豆口","LANE":" ","ALLEY":" ","HOUSE_NO":"８９號","E_COORD97":169900.10000000001,"N_COORD97":2564163.5699999998,"ADDRESS":"麻豆口８９號","OBJECTID":108505},"geometry":{"x":169900.09999999963,"y":2564163.5700000022}},{"attributes":{"ID":108506,"DIS_CODE":0,"TOWNNAME":"麻豆區","LI":"麻口里","LIN":"9鄰","STREET":" ","SECT":" ","MAREA":"麻豆口","LANE":" ","ALLEY":" ","HOUSE_NO":"９０號","E_COORD97":169920.51999999999,"N_COORD97":2564091.5899999999,"ADDRESS":"麻豆口９０號","OBJECTID":108506},"geometry":{"x":169920.52000000048,"y":2564091.5900000017}},{"attributes":{"ID":108507,"DIS_CODE":0,"TOWNNAME":"麻豆區","LI":"麻口里","LIN":"9鄰","STREET":" ","SECT":" ","MAREA":"麻豆口","LANE":" ","ALLEY":" ","HOUSE_NO":"９１號之１","E_COORD97":169958.54000000001,"N_COORD97":2564096.3500000001,"ADDRESS":"麻豆口９１號之１","OBJECTID":108507},"geometry":{"x":169958.54000000004,"y":2564096.3500000015}},{"attributes":{"ID":108508,"DIS_CODE":0,"TOWNNAME":"麻豆區","LI":"麻口里","LIN":"9鄰","STREET":" ","SECT":" ","MAREA":"麻豆口","LANE":" ","ALLEY":" ","HOUSE_NO":"９１號之２","E_COORD97":169963.60000000001,"N_COORD97":2564097.2599999998,"ADDRESS":"麻豆口９１號之２","OBJECTID":108508},"geometry":{"x":169963.60000000056,"y":2564097.2600000016}},{"attributes":{"ID":108509,"DIS_CODE":0,"TOWNNAME":"麻豆區","LI":"麻口里","LIN":"9鄰","STREET":" ","SECT":" ","MAREA":"麻豆口","LANE":" ","ALLEY":" ","HOUSE_NO":"９１號之３","E_COORD97":169977.14999999999,"N_COORD97":2564098.2599999998,"ADDRESS":"麻豆口９１號之３","OBJECTID":108509},"geometry":{"x":169977.15000000037,"y":2564098.2600000016}},{"attributes":{"ID":108510,"DIS_CODE":0,"TOWNNAME":"麻豆區","LI":"麻口里","LIN":"9鄰","STREET":" ","SECT":" ","MAREA":"麻豆口","LANE":" ","ALLEY":" ","HOUSE_NO":"９１號","E_COORD97":169948.42999999999,"N_COORD97":2564093.3599999999,"ADDRESS":"麻豆口９１號","OBJECTID":108510},"geometry":{"x":169948.43000000063,"y":2564093.3600000013}},{"attributes":{"ID":108511,"DIS_CODE":0,"TOWNNAME":"麻豆區","LI":"麻口里","LIN":"9鄰","STREET":" ","SECT":" ","MAREA":"麻豆口","LANE":" ","ALLEY":" ","HOUSE_NO":"９２號之２","E_COORD97":170011.26999999999,"N_COORD97":2564106.6099999999,"ADDRESS":"麻豆口９２號之２","OBJECTID":108511},"geometry":{"x":170011.27000000142,"y":2564106.6099999994}},{"attributes":{"ID":108512,"DIS_CODE":0,"TOWNNAME":"麻豆區","LI":"麻口里","LIN":"9鄰","STREET":" ","SECT":" ","MAREA":"麻豆口","LANE":" ","ALLEY":" ","HOUSE_NO":"９２號","E_COORD97":169998.82999999999,"N_COORD97":2564104.23,"ADDRESS":"麻豆口９２號","OBJECTID":108512},"geometry":{"x":169998.83000000007,"y":2564104.2299999986}},{"attributes":{"ID":108513,"DIS_CODE":0,"TOWNNAME":"麻豆區","LI":"麻口里","LIN":"9鄰","STREET":" ","SECT":" ","MAREA":"麻豆口","LANE":" ","ALLEY":" ","HOUSE_NO":"９３號","E_COORD97":169979.60999999999,"N_COORD97":2564215.7599999998,"ADDRESS":"麻豆口９３號","OBJECTID":108513},"geometry":{"x":169979.61000000127,"y":2564215.7600000016}},{"attributes":{"ID":108514,"DIS_CODE":0,"TOWNNAME":"麻豆區","LI":"麻口里","LIN":"9鄰","STREET":" ","SECT":" ","MAREA":"麻豆口","LANE":" ","ALLEY":" ","HOUSE_NO":"９５號之２","E_COORD97":170029.07000000001,"N_COORD97":2564220.1899999999,"ADDRESS":"麻豆口９５號之２","OBJECTID":108514},"geometry":{"x":170029.07000000123,"y":2564220.1900000013}},{"attributes":{"ID":108515,"DIS_CODE":0,"TOWNNAME":"麻豆區","LI":"麻口里","LIN":"9鄰","STREET":" ","SECT":" ","MAREA":"麻豆口","LANE":" ","ALLEY":" ","HOUSE_NO":"９６號之１","E_COORD97":170017.45999999999,"N_COORD97":2564144.98,"ADDRESS":"麻豆口９６號之１","OBJECTID":108515},"geometry":{"x":170017.46000000089,"y":2564144.9800000023}},{"attributes":{"ID":108516,"DIS_CODE":0,"TOWNNAME":"麻豆區","LI":"麻口里","LIN":"9鄰","STREET":" ","SECT":" ","MAREA":"麻豆口","LANE":" ","ALLEY":" ","HOUSE_NO":"９６號之２","E_COORD97":170021.92999999999,"N_COORD97":2564170.6699999999,"ADDRESS":"麻豆口９６號之２","OBJECTID":108516},"geometry":{"x":170021.9299999997,"y":2564170.6699999999}},{"attributes":{"ID":108517,"DIS_CODE":0,"TOWNNAME":"麻豆區","LI":"麻口里","LIN":"9鄰","STREET":" ","SECT":" ","MAREA":"麻豆口","LANE":" ","ALLEY":" ","HOUSE_NO":"９６號","E_COORD97":170016.75,"N_COORD97":2564193.8799999999,"ADDRESS":"麻豆口９６號","OBJECTID":108517},"geometry":{"x":170016.75,"y":2564193.8800000008}},{"attributes":{"ID":108518,"DIS_CODE":0,"TOWNNAME":"麻豆區","LI":"麻口里","LIN":"9鄰","STREET":" ","SECT":" ","MAREA":"麻豆口","LANE":" ","ALLEY":" ","HOUSE_NO":"９７號之１","E_COORD97":170065.73000000001,"N_COORD97":2564220.1800000002,"ADDRESS":"麻豆口９７號之１","OBJECTID":108518},"geometry":{"x":170065.73000000138,"y":2564220.1800000016}},{"attributes":{"ID":108519,"DIS_CODE":0,"TOWNNAME":"麻豆區","LI":"麻口里","LIN":"9鄰","STREET":" ","SECT":" ","MAREA":"麻豆口","LANE":" ","ALLEY":" ","HOUSE_NO":"９７號","E_COORD97":170057.54999999999,"N_COORD97":2564206.0699999998,"ADDRESS":"麻豆口９７號","OBJECTID":108519},"geometry":{"x":170057.55000000075,"y":2564206.0700000003}},{"attributes":{"ID":108520,"DIS_CODE":0,"TOWNNAME":"北區","LI":"大和里","LIN":"9鄰","STREET":"文賢路","SECT":" ","MAREA":" ","LANE":"７３５巷","ALLEY":"１０弄","HOUSE_NO":"２１號","E_COORD97":167261.88,"N_COORD97":2546215.2599999998,"ADDRESS":"文賢路７３５巷１０弄２１號","OBJECTID":108520},"geometry":{"x":167261.88000000082,"y":2546215.2599999998}},{"attributes":{"ID":108521,"DIS_CODE":0,"TOWNNAME":"北區","LI":"大和里","LIN":"9鄰","STREET":"文賢路","SECT":" ","MAREA":" ","LANE":"７３５巷","ALLEY":"１０弄","HOUSE_NO":"２２號","E_COORD97":167279.12,"N_COORD97":2546218.4199999999,"ADDRESS":"文賢路７３５巷１０弄２２號","OBJECTID":108521},"geometry":{"x":167279.12000000104,"y":2546218.4200000037}},{"attributes":{"ID":108522,"DIS_CODE":0,"TOWNNAME":"北區","LI":"大和里","LIN":"9鄰","STREET":"文賢路","SECT":" ","MAREA":" ","LANE":"７３５巷","ALLEY":"１０弄","HOUSE_NO":"２３號","E_COORD97":167259.56,"N_COORD97":2546219.6099999999,"ADDRESS":"文賢路７３５巷１０弄２３號","OBJECTID":108522},"geometry":{"x":167259.55999999959,"y":2546219.6099999975}},{"attributes":{"ID":108523,"DIS_CODE":0,"TOWNNAME":"北區","LI":"大和里","LIN":"9鄰","STREET":"文賢路","SECT":" ","MAREA":" ","LANE":"７３５巷","ALLEY":"１０弄","HOUSE_NO":"２４號","E_COORD97":167277.29000000001,"N_COORD97":2546222.8500000001,"ADDRESS":"文賢路７３５巷１０弄２４號","OBJECTID":108523},"geometry":{"x":167277.2900000019,"y":2546222.8500000015}},{"attributes":{"ID":108524,"DIS_CODE":0,"TOWNNAME":"北區","LI":"大和里","LIN":"9鄰","STREET":"文賢路","SECT":" ","MAREA":" ","LANE":"７３５巷","ALLEY":"１０弄","HOUSE_NO":"２５號","E_COORD97":167257.73999999999,"N_COORD97":2546223.6099999999,"ADDRESS":"文賢路７３５巷１０弄２５號","OBJECTID":108524},"geometry":{"x":167257.74000000115,"y":2546223.6100000013}},{"attributes":{"ID":108525,"DIS_CODE":0,"TOWNNAME":"北區","LI":"大和里","LIN":"9鄰","STREET":"文賢路","SECT":" ","MAREA":" ","LANE":"７３５巷","ALLEY":"１０弄","HOUSE_NO":"２６號","E_COORD97":167275.82000000001,"N_COORD97":2546226.8500000001,"ADDRESS":"文賢路７３５巷１０弄２６號","OBJECTID":108525},"geometry":{"x":167275.82000000216,"y":2546226.8500000015}},{"attributes":{"ID":108526,"DIS_CODE":0,"TOWNNAME":"北區","LI":"大和里","LIN":"9鄰","STREET":"文賢路","SECT":" ","MAREA":" ","LANE":"７３５巷","ALLEY":"１０弄","HOUSE_NO":"２７號","E_COORD97":167256.60999999999,"N_COORD97":2546227.6299999999,"ADDRESS":"文賢路７３５巷１０弄２７號","OBJECTID":108526},"geometry":{"x":167256.61000000034,"y":2546227.6300000008}},{"attributes":{"ID":108527,"DIS_CODE":0,"TOWNNAME":"安南區","LI":"安順里","LIN":"1鄰","STREET":"總安街","SECT":"一段","MAREA":" ","LANE":" ","ALLEY":" ","HOUSE_NO":"９號","E_COORD97":169917.16,"N_COORD97":2550085.6099999999,"ADDRESS":"總安街一段９號","OBJECTID":108527},"geometry":{"x":169917.16000000015,"y":2550085.6100000013}},{"attributes":{"ID":108528,"DIS_CODE":0,"TOWNNAME":"麻豆區","LI":"麻口里","LIN":"9鄰","STREET":" ","SECT":" ","MAREA":"麻豆口","LANE":" ","ALLEY":" ","HOUSE_NO":"９８號之１","E_COORD97":170084.17999999999,"N_COORD97":2564203.5899999999,"ADDRESS":"麻豆口９８號之１","OBJECTID":108528},"geometry":{"x":170084.1799999997,"y":2564203.5900000017}},{"attributes":{"ID":108529,"DIS_CODE":0,"TOWNNAME":"麻豆區","LI":"麻口里","LIN":"9鄰","STREET":" ","SECT":" ","MAREA":"麻豆口","LANE":" ","ALLEY":" ","HOUSE_NO":"９８號","E_COORD97":170072.32999999999,"N_COORD97":2564189.73,"ADDRESS":"麻豆口９８號","OBJECTID":108529},"geometry":{"x":170072.32999999914,"y":2564189.7300000023}},{"attributes":{"ID":108530,"DIS_CODE":0,"TOWNNAME":"麻豆區","LI":"港尾里","LIN":"9鄰","STREET":" ","SECT":" ","MAREA":"港子尾","LANE":" ","ALLEY":" ","HOUSE_NO":"５４號","E_COORD97":168430.56,"N_COORD97":2567156.8199999998,"ADDRESS":"港子尾５４號","OBJECTID":108530},"geometry":{"x":168430.55999999959,"y":2567156.8200000003}},{"attributes":{"ID":108531,"DIS_CODE":0,"TOWNNAME":"北區","LI":"大和里","LIN":"9鄰","STREET":"文賢路","SECT":" ","MAREA":" ","LANE":"７３５巷","ALLEY":"１０弄","HOUSE_NO":"２８號","E_COORD97":167273.70999999999,"N_COORD97":2546230.5,"ADDRESS":"文賢路７３５巷１０弄２８號","OBJECTID":108531},"geometry":{"x":167273.70999999996,"y":2546230.5}},{"attributes":{"ID":108532,"DIS_CODE":0,"TOWNNAME":"北區","LI":"大和里","LIN":"9鄰","STREET":"文賢路","SECT":" ","MAREA":" ","LANE":"７３５巷","ALLEY":"１０弄","HOUSE_NO":"２９號","E_COORD97":167254.42999999999,"N_COORD97":2546231.5699999998,"ADDRESS":"文賢路７３５巷１０弄２９號","OBJECTID":108532},"geometry":{"x":167254.43000000063,"y":2546231.5700000022}},{"attributes":{"ID":108533,"DIS_CODE":0,"TOWNNAME":"永康區","LI":"中華里","LIN":"19鄰","STREET":"小東路","SECT":" ","MAREA":" ","LANE":"４７７巷","ALLEY":"４６弄","HOUSE_NO":"３號之２３","E_COORD97":171647.26999999999,"N_COORD97":2544536.3999999999,"ADDRESS":"小東路４７７巷４６弄３號之２３","OBJECTID":108533},"geometry":{"x":171647.27000000142,"y":2544536.4000000004}},{"attributes":{"ID":108534,"DIS_CODE":0,"TOWNNAME":"北區","LI":"大和里","LIN":"9鄰","STREET":"文賢路","SECT":" ","MAREA":" ","LANE":"７３５巷","ALLEY":"１０弄","HOUSE_NO":"２號","E_COORD97":167297.73000000001,"N_COORD97":2546179.1400000001,"ADDRESS":"文賢路７３５巷１０弄２號","OBJECTID":108534},"geometry":{"x":167297.73000000045,"y":2546179.1400000006}},{"attributes":{"ID":108535,"DIS_CODE":0,"TOWNNAME":"北區","LI":"大和里","LIN":"9鄰","STREET":"文賢路","SECT":" ","MAREA":" ","LANE":"７３５巷","ALLEY":"１０弄","HOUSE_NO":"３０號","E_COORD97":167272.16,"N_COORD97":2546234.2400000002,"ADDRESS":"文賢路７３５巷１０弄３０號","OBJECTID":108535},"geometry":{"x":167272.16000000108,"y":2546234.2400000021}},{"attributes":{"ID":108536,"DIS_CODE":0,"TOWNNAME":"北區","LI":"大和里","LIN":"9鄰","STREET":"文賢路","SECT":" ","MAREA":" ","LANE":"７３５巷","ALLEY":"１０弄","HOUSE_NO":"３１號","E_COORD97":167253.23999999999,"N_COORD97":2546235.9199999999,"ADDRESS":"文賢路７３５巷１０弄３１號","OBJECTID":108536},"geometry":{"x":167253.24000000115,"y":2546235.9200000018}},{"attributes":{"ID":108537,"DIS_CODE":0,"TOWNNAME":"北區","LI":"大和里","LIN":"9鄰","STREET":"文賢路","SECT":" ","MAREA":" ","LANE":"７３５巷","ALLEY":"１０弄","HOUSE_NO":"３２號","E_COORD97":167270.26000000001,"N_COORD97":2546238.6600000001,"ADDRESS":"文賢路７３５巷１０弄３２號","OBJECTID":108537},"geometry":{"x":167270.25999999978,"y":2546238.660000002}},{"attributes":{"ID":108538,"DIS_CODE":0,"TOWNNAME":"歸仁區","LI":"後市里","LIN":"41鄰","STREET":"中山八街","SECT":" ","MAREA":" ","LANE":"５巷","ALLEY":" ","HOUSE_NO":"２號","E_COORD97":177193.38,"N_COORD97":2540917.7400000002,"ADDRESS":"中山八街５巷２號","OBJECTID":108538},"geometry":{"x":177193.38000000175,"y":2540917.7400000021}},{"attributes":{"ID":108539,"DIS_CODE":0,"TOWNNAME":"安平區","LI":"石門里","LIN":"8鄰","STREET":"安北路","SECT":" ","MAREA":" ","LANE":" ","ALLEY":" ","HOUSE_NO":"７８號","E_COORD97":164510.92000000001,"N_COORD97":2544673.5600000001,"ADDRESS":"安北路７８號","OBJECTID":108539},"geometry":{"x":164510.91999999993,"y":2544673.5600000024}},{"attributes":{"ID":108540,"DIS_CODE":0,"TOWNNAME":"安平區","LI":"石門里","LIN":"8鄰","STREET":"安北路","SECT":" ","MAREA":" ","LANE":" ","ALLEY":" ","HOUSE_NO":"８０號","E_COORD97":164506.01000000001,"N_COORD97":2544675.3599999999,"ADDRESS":"安北路８０號","OBJECTID":108540},"geometry":{"x":164506.01000000071,"y":2544675.3599999975}},{"attributes":{"ID":108541,"DIS_CODE":0,"TOWNNAME":"安平區","LI":"西門里","LIN":"8鄰","STREET":"安北路","SECT":" ","MAREA":" ","LANE":" ","ALLEY":" ","HOUSE_NO":"１８６號","E_COORD97":163764.60000000001,"N_COORD97":2544797.02,"ADDRESS":"安北路１８６號","OBJECTID":108541},"geometry":{"x":163764.60000000056,"y":2544797.0200000014}},{"attributes":{"ID":108542,"DIS_CODE":0,"TOWNNAME":"安平區","LI":"西門里","LIN":"8鄰","STREET":"安北路","SECT":" ","MAREA":" ","LANE":" ","ALLEY":" ","HOUSE_NO":"１８８號","E_COORD97":163742,"N_COORD97":2544792.5899999999,"ADDRESS":"安北路１８８號","OBJECTID":108542},"geometry":{"x":163742.00000000093,"y":2544792.5899999999}},{"attributes":{"ID":108543,"DIS_CODE":0,"TOWNNAME":"安平區","LI":"西門里","LIN":"8鄰","STREET":"安北路","SECT":" ","MAREA":" ","LANE":" ","ALLEY":" ","HOUSE_NO":"１９０號","E_COORD97":163732.29000000001,"N_COORD97":2544789.5800000001,"ADDRESS":"安北路１９０號","OBJECTID":108543},"geometry":{"x":163732.29000000004,"y":2544789.5800000001}},{"attributes":{"ID":108544,"DIS_CODE":0,"TOWNNAME":"安平區","LI":"西門里","LIN":"8鄰","STREET":"安北路","SECT":" ","MAREA":" ","LANE":" ","ALLEY":" ","HOUSE_NO":"１９２號","E_COORD97":163727.60000000001,"N_COORD97":2544788.0800000001,"ADDRESS":"安北路１９２號","OBJECTID":108544},"geometry":{"x":163727.60000000056,"y":2544788.0800000019}},{"attributes":{"ID":108545,"DIS_CODE":0,"TOWNNAME":"北區","LI":"大和里","LIN":"9鄰","STREET":"文賢路","SECT":" ","MAREA":" ","LANE":"７３５巷","ALLEY":"１０弄","HOUSE_NO":"３３號","E_COORD97":167251.41,"N_COORD97":2546240.29,"ADDRESS":"文賢路７３５巷１０弄３３號","OBJECTID":108545},"geometry":{"x":167251.41000000108,"y":2546240.290000001}},{"attributes":{"ID":108546,"DIS_CODE":0,"TOWNNAME":"北區","LI":"大和里","LIN":"9鄰","STREET":"文賢路","SECT":" ","MAREA":" ","LANE":"７３５巷","ALLEY":"１０弄","HOUSE_NO":"３４號","E_COORD97":167268.72,"N_COORD97":2546242.5899999999,"ADDRESS":"文賢路７３５巷１０弄３４號","OBJECTID":108546},"geometry":{"x":167268.71999999974,"y":2546242.5899999999}},{"attributes":{"ID":108547,"DIS_CODE":0,"TOWNNAME":"下營區","LI":"西連里","LIN":"1鄰","STREET":" ","SECT":" ","MAREA":"連表","LANE":" ","ALLEY":" ","HOUSE_NO":"１號之１０","E_COORD97":175260.85999999999,"N_COORD97":2567673.4500000002,"ADDRESS":"連表１號之１０","OBJECTID":108547},"geometry":{"x":175260.86000000034,"y":2567673.4499999993}},{"attributes":{"ID":108548,"DIS_CODE":0,"TOWNNAME":"下營區","LI":"西連里","LIN":"1鄰","STREET":" ","SECT":" ","MAREA":"連表","LANE":" ","ALLEY":" ","HOUSE_NO":"１號之１１","E_COORD97":175251.42000000001,"N_COORD97":2567658.0499999998,"ADDRESS":"連表１號之１１","OBJECTID":108548},"geometry":{"x":175251.41999999993,"y":2567658.0500000007}},{"attributes":{"ID":108549,"DIS_CODE":0,"TOWNNAME":"下營區","LI":"西連里","LIN":"1鄰","STREET":" ","SECT":" ","MAREA":"連表","LANE":" ","ALLEY":" ","HOUSE_NO":"１號之１５","E_COORD97":175353.42000000001,"N_COORD97":2567665.7999999998,"ADDRESS":"連表１號之１５","OBJECTID":108549},"geometry":{"x":175353.41999999993,"y":2567665.8000000026}},{"attributes":{"ID":108550,"DIS_CODE":0,"TOWNNAME":"下營區","LI":"西連里","LIN":"1鄰","STREET":" ","SECT":" ","MAREA":"連表","LANE":" ","ALLEY":" ","HOUSE_NO":"１號之１","E_COORD97":175079.01000000001,"N_COORD97":2567610.1099999999,"ADDRESS":"連表１號之１","OBJECTID":108550},"geometry":{"x":175079.01000000071,"y":2567610.1100000013}},{"attributes":{"ID":108551,"DIS_CODE":0,"TOWNNAME":"下營區","LI":"西連里","LIN":"1鄰","STREET":" ","SECT":" ","MAREA":"連表","LANE":" ","ALLEY":" ","HOUSE_NO":"１號之２１","E_COORD97":175191.42000000001,"N_COORD97":2567416.6499999999,"ADDRESS":"連表１號之２１","OBJECTID":108551},"geometry":{"x":175191.42000000086,"y":2567416.6500000004}},{"attributes":{"ID":108552,"DIS_CODE":0,"TOWNNAME":"下營區","LI":"西連里","LIN":"1鄰","STREET":" ","SECT":" ","MAREA":"連表","LANE":" ","ALLEY":" ","HOUSE_NO":"１號之２７","E_COORD97":175371.76999999999,"N_COORD97":2567199.4300000002,"ADDRESS":"連表１號之２７","OBJECTID":108552},"geometry":{"x":175371.77000000048,"y":2567199.4299999997}},{"attributes":{"ID":108553,"DIS_CODE":0,"TOWNNAME":"下營區","LI":"西連里","LIN":"1鄰","STREET":" ","SECT":" ","MAREA":"連表","LANE":" ","ALLEY":" ","HOUSE_NO":"１號","E_COORD97":175070.94,"N_COORD97":2567629.1299999999,"ADDRESS":"連表１號","OBJECTID":108553},"geometry":{"x":175070.94000000041,"y":2567629.129999999}},{"attributes":{"ID":108554,"DIS_CODE":0,"TOWNNAME":"下營區","LI":"西連里","LIN":"1鄰","STREET":" ","SECT":" ","MAREA":"連表","LANE":" ","ALLEY":" ","HOUSE_NO":"２號之１１","E_COORD97":175384.20000000001,"N_COORD97":2567783.98,"ADDRESS":"連表２號之１１","OBJECTID":108554},"geometry":{"x":175384.20000000019,"y":2567783.9800000004}},{"attributes":{"ID":108555,"DIS_CODE":0,"TOWNNAME":"下營區","LI":"西連里","LIN":"1鄰","STREET":" ","SECT":" ","MAREA":"連表","LANE":" ","ALLEY":" ","HOUSE_NO":"２號","E_COORD97":175047.84,"N_COORD97":2567642.5299999998,"ADDRESS":"連表２號","OBJECTID":108555},"geometry":{"x":175047.84000000078,"y":2567642.5299999993}},{"attributes":{"ID":108556,"DIS_CODE":0,"TOWNNAME":"下營區","LI":"西連里","LIN":"1鄰","STREET":" ","SECT":" ","MAREA":"連表","LANE":" ","ALLEY":" ","HOUSE_NO":"３號之１","E_COORD97":175110.48999999999,"N_COORD97":2567684.0499999998,"ADDRESS":"連表３號之１","OBJECTID":108556},"geometry":{"x":175110.49000000022,"y":2567684.0500000026}},{"attributes":{"ID":108557,"DIS_CODE":0,"TOWNNAME":"下營區","LI":"西連里","LIN":"1鄰","STREET":" ","SECT":" ","MAREA":"連表","LANE":" ","ALLEY":" ","HOUSE_NO":"３號之２","E_COORD97":175090.38,"N_COORD97":2567709.3900000001,"ADDRESS":"連表３號之２","OBJECTID":108557},"geometry":{"x":175090.38000000082,"y":2567709.3900000006}},{"attributes":{"ID":108558,"DIS_CODE":0,"TOWNNAME":"北區","LI":"大和里","LIN":"9鄰","STREET":"文賢路","SECT":" ","MAREA":" ","LANE":"７３５巷","ALLEY":"１０弄","HOUSE_NO":"３５號","E_COORD97":167248.95999999999,"N_COORD97":2546244.5,"ADDRESS":"文賢路７３５巷１０弄３５號","OBJECTID":108558},"geometry":{"x":167248.96000000183,"y":2546244.5}},{"attributes":{"ID":108559,"DIS_CODE":0,"TOWNNAME":"下營區","LI":"西連里","LIN":"1鄰","STREET":" ","SECT":" ","MAREA":"連表","LANE":" ","ALLEY":" ","HOUSE_NO":"３號之６","E_COORD97":175062.70000000001,"N_COORD97":2567697.9300000002,"ADDRESS":"連表３號之６","OBJECTID":108559},"geometry":{"x":175062.70000000112,"y":2567697.9299999997}},{"attributes":{"ID":108560,"DIS_CODE":0,"TOWNNAME":"下營區","LI":"西連里","LIN":"1鄰","STREET":" ","SECT":" ","MAREA":"連表","LANE":" ","ALLEY":" ","HOUSE_NO":"３號","E_COORD97":175067.14000000001,"N_COORD97":2567663.73,"ADDRESS":"連表３號","OBJECTID":108560},"geometry":{"x":175067.13999999966,"y":2567663.7300000004}},{"attributes":{"ID":108561,"DIS_CODE":0,"TOWNNAME":"下營區","LI":"西連里","LIN":"1鄰","STREET":" ","SECT":" ","MAREA":"連表","LANE":" ","ALLEY":" ","HOUSE_NO":"４號","E_COORD97":175045.85000000001,"N_COORD97":2567703.0800000001,"ADDRESS":"連表４號","OBJECTID":108561},"geometry":{"x":175045.85000000056,"y":2567703.0800000019}},{"attributes":{"ID":108562,"DIS_CODE":0,"TOWNNAME":"下營區","LI":"西連里","LIN":"1鄰","STREET":" ","SECT":" ","MAREA":"連表","LANE":" ","ALLEY":" ","HOUSE_NO":"５號","E_COORD97":174964.59,"N_COORD97":2567668.5499999998,"ADDRESS":"連表５號","OBJECTID":108562},"geometry":{"x":174964.59000000171,"y":2567668.5500000007}},{"attributes":{"ID":108563,"DIS_CODE":0,"TOWNNAME":"下營區","LI":"西連里","LIN":"1鄰","STREET":" ","SECT":" ","MAREA":"連表","LANE":" ","ALLEY":" ","HOUSE_NO":"６號之１０","E_COORD97":174837.45000000001,"N_COORD97":2567526.9700000002,"ADDRESS":"連表６號之１０","OBJECTID":108563},"geometry":{"x":174837.45000000112,"y":2567526.9700000007}},{"attributes":{"ID":108564,"DIS_CODE":0,"TOWNNAME":"下營區","LI":"西連里","LIN":"1鄰","STREET":" ","SECT":" ","MAREA":"連表","LANE":" ","ALLEY":" ","HOUSE_NO":"６號之１","E_COORD97":174786.44,"N_COORD97":2567591.8599999999,"ADDRESS":"連表６號之１","OBJECTID":108564},"geometry":{"x":174786.44000000227,"y":2567591.8600000013}},{"attributes":{"ID":108565,"DIS_CODE":0,"TOWNNAME":"下營區","LI":"西連里","LIN":"1鄰","STREET":" ","SECT":" ","MAREA":"連表","LANE":" ","ALLEY":" ","HOUSE_NO":"７號之２","E_COORD97":174925.22,"N_COORD97":2567698.52,"ADDRESS":"連表７號之２","OBJECTID":108565},"geometry":{"x":174925.22000000067,"y":2567698.5200000033}},{"attributes":{"ID":108566,"DIS_CODE":0,"TOWNNAME":"將軍區","LI":"長沙里","LIN":"1鄰","STREET":" ","SECT":" ","MAREA":"長沙","LANE":" ","ALLEY":" ","HOUSE_NO":"１號","E_COORD97":157415.53,"N_COORD97":2568647.5899999999,"ADDRESS":"長沙１號","OBJECTID":108566},"geometry":{"x":157415.53000000119,"y":2568647.589999998}},{"attributes":{"ID":108567,"DIS_CODE":0,"TOWNNAME":"歸仁區","LI":"許厝里","LIN":"36鄰","STREET":"公園路","SECT":" ","MAREA":" ","LANE":" ","ALLEY":" ","HOUSE_NO":"１５８號","E_COORD97":177831.53,"N_COORD97":2540463.8199999998,"ADDRESS":"公園路１５８號","OBJECTID":108567},"geometry":{"x":177831.53000000026,"y":2540463.8200000022}},{"attributes":{"ID":108568,"DIS_CODE":0,"TOWNNAME":"歸仁區","LI":"後市里","LIN":"8鄰","STREET":"中山五街","SECT":" ","MAREA":" ","LANE":" ","ALLEY":" ","HOUSE_NO":"４９號","E_COORD97":177101.59,"N_COORD97":2540690.25,"ADDRESS":"中山五街４９號","OBJECTID":108568},"geometry":{"x":177101.58999999985,"y":2540690.2500000019}},{"attributes":{"ID":108569,"DIS_CODE":0,"TOWNNAME":"南區","LI":"白雪里","LIN":" ","STREET":"鹽埕路","SECT":" ","MAREA":" ","LANE":" ","ALLEY":" ","HOUSE_NO":"１００號之３","E_COORD97":166799.54999999999,"N_COORD97":2540942.8799999999,"ADDRESS":"鹽埕路１００號之３","OBJECTID":108569},"geometry":{"x":166799.55000000075,"y":2540942.8800000008}},{"attributes":{"ID":108570,"DIS_CODE":0,"TOWNNAME":"南區","LI":"白雪里","LIN":" ","STREET":"鹽埕路","SECT":" ","MAREA":" ","LANE":" ","ALLEY":" ","HOUSE_NO":"１０８號之１","E_COORD97":166810.64000000001,"N_COORD97":2540965.9199999999,"ADDRESS":"鹽埕路１０８號之１","OBJECTID":108570},"geometry":{"x":166810.6400000006,"y":2540965.9199999999}},{"attributes":{"ID":108571,"DIS_CODE":0,"TOWNNAME":"北區","LI":"大和里","LIN":"9鄰","STREET":"文賢路","SECT":" ","MAREA":" ","LANE":"７３５巷","ALLEY":"１０弄","HOUSE_NO":"３６號","E_COORD97":167267.17000000001,"N_COORD97":2546247.0299999998,"ADDRESS":"文賢路７３５巷１０弄３６號","OBJECTID":108571},"geometry":{"x":167267.16999999993,"y":2546247.0299999993}},{"attributes":{"ID":108572,"DIS_CODE":0,"TOWNNAME":"北區","LI":"大和里","LIN":"9鄰","STREET":"文賢路","SECT":" ","MAREA":" ","LANE":"７３５巷","ALLEY":"１０弄","HOUSE_NO":"３７號","E_COORD97":167247.97,"N_COORD97":2546248.2799999998,"ADDRESS":"文賢路７３５巷１０弄３７號","OBJECTID":108572},"geometry":{"x":167247.96999999974,"y":2546248.2799999993}},{"attributes":{"ID":108573,"DIS_CODE":0,"TOWNNAME":"北區","LI":"大和里","LIN":"9鄰","STREET":"文賢路","SECT":" ","MAREA":" ","LANE":"７３５巷","ALLEY":"１０弄","HOUSE_NO":"３８號","E_COORD97":167264.70999999999,"N_COORD97":2546251.7999999998,"ADDRESS":"文賢路７３５巷１０弄３８號","OBJECTID":108573},"geometry":{"x":167264.71000000089,"y":2546251.8000000026}},{"attributes":{"ID":108574,"DIS_CODE":0,"TOWNNAME":"北區","LI":"大和里","LIN":"9鄰","STREET":"文賢路","SECT":" ","MAREA":" ","LANE":"７３５巷","ALLEY":"１０弄","HOUSE_NO":"３９號","E_COORD97":167246.14999999999,"N_COORD97":2546253.0699999998,"ADDRESS":"文賢路７３５巷１０弄３９號","OBJECTID":108574},"geometry":{"x":167246.15000000037,"y":2546253.0700000022}},{"attributes":{"ID":108575,"DIS_CODE":0,"TOWNNAME":"北區","LI":"大和里","LIN":"9鄰","STREET":"文賢路","SECT":" ","MAREA":" ","LANE":"７３５巷","ALLEY":"１０弄","HOUSE_NO":"３號","E_COORD97":167276.37,"N_COORD97":2546179.0600000001,"ADDRESS":"文賢路７３５巷１０弄３號","OBJECTID":108575},"geometry":{"x":167276.37000000011,"y":2546179.0600000005}},{"attributes":{"ID":108576,"DIS_CODE":0,"TOWNNAME":"北區","LI":"大和里","LIN":"9鄰","STREET":"文賢路","SECT":" ","MAREA":" ","LANE":"７３５巷","ALLEY":"１０弄","HOUSE_NO":"４０號","E_COORD97":167262.73999999999,"N_COORD97":2546256.6600000001,"ADDRESS":"文賢路７３５巷１０弄４０號","OBJECTID":108576},"geometry":{"x":167262.74000000209,"y":2546256.6600000001}},{"attributes":{"ID":108577,"DIS_CODE":0,"TOWNNAME":"北區","LI":"大和里","LIN":"9鄰","STREET":"文賢路","SECT":" ","MAREA":" ","LANE":"７３５巷","ALLEY":"１０弄","HOUSE_NO":"４號","E_COORD97":167295.41,"N_COORD97":2546183.1400000001,"ADDRESS":"文賢路７３５巷１０弄４號","OBJECTID":108577},"geometry":{"x":167295.41000000201,"y":2546183.1400000006}},{"attributes":{"ID":108578,"DIS_CODE":0,"TOWNNAME":"北區","LI":"大和里","LIN":"9鄰","STREET":"文賢路","SECT":" ","MAREA":" ","LANE":"７３５巷","ALLEY":"１０弄","HOUSE_NO":"５號","E_COORD97":167275.47,"N_COORD97":2546183.5699999998,"ADDRESS":"文賢路７３５巷１０弄５號","OBJECTID":108578},"geometry":{"x":167275.46999999974,"y":2546183.5699999984}},{"attributes":{"ID":108579,"DIS_CODE":0,"TOWNNAME":"北區","LI":"大和里","LIN":"9鄰","STREET":"文賢路","SECT":" ","MAREA":" ","LANE":"７３５巷","ALLEY":"１０弄","HOUSE_NO":"６號","E_COORD97":167293.87,"N_COORD97":2546186.6499999999,"ADDRESS":"文賢路７３５巷１０弄６號","OBJECTID":108579},"geometry":{"x":167293.87000000197,"y":2546186.6500000041}},{"attributes":{"ID":108580,"DIS_CODE":0,"TOWNNAME":"北區","LI":"大和里","LIN":"9鄰","STREET":"文賢路","SECT":" ","MAREA":" ","LANE":"７３５巷","ALLEY":"１０弄","HOUSE_NO":"７號","E_COORD97":167273.98999999999,"N_COORD97":2546187.8500000001,"ADDRESS":"文賢路７３５巷１０弄７號","OBJECTID":108580},"geometry":{"x":167273.99000000022,"y":2546187.8500000034}},{"attributes":{"ID":108581,"DIS_CODE":0,"TOWNNAME":"六甲區","LI":"大丘里","LIN":"1鄰","STREET":" ","SECT":" ","MAREA":"中坑","LANE":" ","ALLEY":" ","HOUSE_NO":"１５號","E_COORD97":195523.70000000001,"N_COORD97":2568187.52,"ADDRESS":"中坑１５號","OBJECTID":108581},"geometry":{"x":195523.70000000112,"y":2568187.5200000014}},{"attributes":{"ID":108582,"DIS_CODE":0,"TOWNNAME":"北區","LI":"大和里","LIN":"9鄰","STREET":"文賢路","SECT":" ","MAREA":" ","LANE":"７３５巷","ALLEY":"１０弄","HOUSE_NO":"８號","E_COORD97":167291.06,"N_COORD97":2546191,"ADDRESS":"文賢路７３５巷１０弄８號","OBJECTID":108582},"geometry":{"x":167291.06000000052,"y":2546191.0000000019}},{"attributes":{"ID":108583,"DIS_CODE":0,"TOWNNAME":"北區","LI":"大和里","LIN":"9鄰","STREET":"文賢路","SECT":" ","MAREA":" ","LANE":"７３５巷","ALLEY":"１０弄","HOUSE_NO":"９號","E_COORD97":167272.23999999999,"N_COORD97":2546191.9199999999,"ADDRESS":"文賢路７３５巷１０弄９號","OBJECTID":108583},"geometry":{"x":167272.24000000022,"y":2546191.9200000018}},{"attributes":{"ID":108584,"DIS_CODE":0,"TOWNNAME":"關廟區","LI":"深坑里","LIN":"9鄰","STREET":"深坑三街","SECT":" ","MAREA":" ","LANE":"２５巷","ALLEY":"３弄","HOUSE_NO":"８號","E_COORD97":181819.47,"N_COORD97":2537854.2999999998,"ADDRESS":"深坑三街２５巷３弄８號","OBJECTID":108584},"geometry":{"x":181819.47000000067,"y":2537854.3000000007}},{"attributes":{"ID":108585,"DIS_CODE":0,"TOWNNAME":"關廟區","LI":"深坑里","LIN":"9鄰","STREET":"深坑三街","SECT":" ","MAREA":" ","LANE":"２５巷","ALLEY":"３１弄","HOUSE_NO":"１６號","E_COORD97":181788.97,"N_COORD97":2537892.2799999998,"ADDRESS":"深坑三街２５巷３１弄１６號","OBJECTID":108585},"geometry":{"x":181788.97000000067,"y":2537892.2800000012}},{"attributes":{"ID":108586,"DIS_CODE":0,"TOWNNAME":"關廟區","LI":"關廟里","LIN":"9鄰","STREET":"大富街","SECT":" ","MAREA":" ","LANE":"３０１巷","ALLEY":"２７弄","HOUSE_NO":"４２號","E_COORD97":180972.84,"N_COORD97":2539618.1499999999,"ADDRESS":"大富街３０１巷２７弄４２號","OBJECTID":108586},"geometry":{"x":180972.84000000078,"y":2539618.1500000004}},{"attributes":{"ID":108587,"DIS_CODE":0,"TOWNNAME":"關廟區","LI":"深坑里","LIN":"9鄰","STREET":"深坑三街","SECT":" ","MAREA":" ","LANE":"２５巷","ALLEY":"３弄","HOUSE_NO":"３０號","E_COORD97":181756.76999999999,"N_COORD97":2537876.2799999998,"ADDRESS":"深坑三街２５巷３弄３０號","OBJECTID":108587},"geometry":{"x":181756.76999999955,"y":2537876.2800000012}},{"attributes":{"ID":108588,"DIS_CODE":0,"TOWNNAME":"南區","LI":"白雪里","LIN":" ","STREET":"鹽埕路","SECT":" ","MAREA":" ","LANE":" ","ALLEY":" ","HOUSE_NO":"１１０號","E_COORD97":166795.84,"N_COORD97":2540961.3300000001,"ADDRESS":"鹽埕路１１０號","OBJECTID":108588},"geometry":{"x":166795.84000000078,"y":2540961.3300000019}},{"attributes":{"ID":108589,"DIS_CODE":0,"TOWNNAME":"將軍區","LI":"長榮里","LIN":"1鄰","STREET":" ","SECT":" ","MAREA":"長榮","LANE":" ","ALLEY":" ","HOUSE_NO":"１０號","E_COORD97":163865.06,"N_COORD97":2566460.1099999999,"ADDRESS":"長榮１０號","OBJECTID":108589},"geometry":{"x":163865.06000000052,"y":2566460.1099999994}},{"attributes":{"ID":108590,"DIS_CODE":0,"TOWNNAME":"將軍區","LI":"長榮里","LIN":"1鄰","STREET":" ","SECT":" ","MAREA":"長榮","LANE":" ","ALLEY":" ","HOUSE_NO":"１１號","E_COORD97":163863.70999999999,"N_COORD97":2566456.2400000002,"ADDRESS":"長榮１１號","OBJECTID":108590},"geometry":{"x":163863.71000000183,"y":2566456.2400000002}},{"attributes":{"ID":108591,"DIS_CODE":0,"TOWNNAME":"將軍區","LI":"長榮里","LIN":"1鄰","STREET":" ","SECT":" ","MAREA":"長榮","LANE":" ","ALLEY":" ","HOUSE_NO":"１２號","E_COORD97":163860.79999999999,"N_COORD97":2566447.9300000002,"ADDRESS":"長榮１２號","OBJECTID":108591},"geometry":{"x":163860.79999999981,"y":2566447.9299999997}},{"attributes":{"ID":108592,"DIS_CODE":0,"TOWNNAME":"新營區","LI":"新東里","LIN":"1鄰","STREET":"開元路","SECT":" ","MAREA":" ","LANE":" ","ALLEY":" ","HOUSE_NO":"２２３號","E_COORD97":181720.14999999999,"N_COORD97":2579590.1899999999,"ADDRESS":"開元路２２３號","OBJECTID":108592},"geometry":{"x":181720.1500000013,"y":2579590.1899999995}},{"attributes":{"ID":108593,"DIS_CODE":0,"TOWNNAME":"新營區","LI":"大宏里","LIN":"1鄰","STREET":"民族路","SECT":" ","MAREA":" ","LANE":" ","ALLEY":" ","HOUSE_NO":"６２號","E_COORD97":180349.01999999999,"N_COORD97":2578871.1899999999,"ADDRESS":"民族路６２號","OBJECTID":108593},"geometry":{"x":180349.02000000048,"y":2578871.1899999995}},{"attributes":{"ID":108594,"DIS_CODE":0,"TOWNNAME":"新營區","LI":"護鎮里","LIN":"1鄰","STREET":"建國路","SECT":" ","MAREA":" ","LANE":" ","ALLEY":" ","HOUSE_NO":"１４６號","E_COORD97":179629.20999999999,"N_COORD97":2581031.9199999999,"ADDRESS":"建國路１４６號","OBJECTID":108594},"geometry":{"x":179629.21000000089,"y":2581031.9200000018}},{"attributes":{"ID":108595,"DIS_CODE":0,"TOWNNAME":"關廟區","LI":"深坑里","LIN":"9鄰","STREET":"深坑三街","SECT":" ","MAREA":" ","LANE":"２５巷","ALLEY":"３弄","HOUSE_NO":"１６號","E_COORD97":181794.57000000001,"N_COORD97":2537861.2999999998,"ADDRESS":"深坑三街２５巷３弄１６號","OBJECTID":108595},"geometry":{"x":181794.5700000003,"y":2537861.3000000007}},{"attributes":{"ID":108596,"DIS_CODE":0,"TOWNNAME":"關廟區","LI":"埤頭里","LIN":"9鄰","STREET":"關新路","SECT":"二段","MAREA":" ","LANE":"５１巷","ALLEY":"１１弄","HOUSE_NO":"１６號","E_COORD97":179035.92000000001,"N_COORD97":2544133.2999999998,"ADDRESS":"關新路二段５１巷１１弄１６號","OBJECTID":108596},"geometry":{"x":179035.92000000179,"y":2544133.3000000007}},{"attributes":{"ID":108597,"DIS_CODE":0,"TOWNNAME":"關廟區","LI":"埤頭里","LIN":"9鄰","STREET":"關新路","SECT":"二段","MAREA":" ","LANE":"５１巷","ALLEY":"１１弄","HOUSE_NO":"９號","E_COORD97":179045.51999999999,"N_COORD97":2544139.2999999998,"ADDRESS":"關新路二段５１巷１１弄９號","OBJECTID":108597},"geometry":{"x":179045.52000000048,"y":2544139.3000000026}},{"attributes":{"ID":108598,"DIS_CODE":0,"TOWNNAME":"關廟區","LI":"南花里","LIN":"9鄰","STREET":"花園一街","SECT":" ","MAREA":" ","LANE":"１２１巷","ALLEY":"１弄","HOUSE_NO":"５號","E_COORD97":181825.69,"N_COORD97":2540153.25,"ADDRESS":"花園一街１２１巷１弄５號","OBJECTID":108598},"geometry":{"x":181825.69000000041,"y":2540153.25}},{"attributes":{"ID":108599,"DIS_CODE":0,"TOWNNAME":"永康區","LI":"\u25A0洲里","LIN":"34鄰","STREET":"洲尾街","SECT":" ","MAREA":" ","LANE":"１９１巷","ALLEY":"１１弄","HOUSE_NO":"５號","E_COORD97":170829.31,"N_COORD97":2548974.4700000002,"ADDRESS":"洲尾街１９１巷１１弄５號","OBJECTID":108599},"geometry":{"x":170829.30999999959,"y":2548974.4700000007}},{"attributes":{"ID":108600,"DIS_CODE":0,"TOWNNAME":"新營區","LI":"新北里","LIN":"1鄰","STREET":"周武街","SECT":" ","MAREA":" ","LANE":" ","ALLEY":" ","HOUSE_NO":"３６號","E_COORD97":179399.09,"N_COORD97":2578913.3399999999,"ADDRESS":"周武街３６號","OBJECTID":108600},"geometry":{"x":179399.09000000171,"y":2578913.3400000017}}]}