{"displayFieldName":"TOWNNAME","fieldAliases":{"ID":"ID","DIS_CODE":"DIS_CODE","TOWNNAME":"TOWNNAME","LI":"LI","LIN":"LIN","STREET":"STREET","SECT":"SECT","MAREA":"MAREA","LANE":"LANE","ALLEY":"ALLEY","HOUSE_NO":"HOUSE_NO","E_COORD97":"E_COORD97","N_COORD97":"N_COORD97","ADDRESS":"ADDRESS","OBJECTID":"OBJECTID"},"geometryType":"esriGeometryPoint","spatialReference":{"wkid":102443,"latestWkid":3826},"fields":[{"name":"ID","type":"esriFieldTypeDouble","alias":"ID"},{"name":"DIS_CODE","type":"esriFieldTypeInteger","alias":"DIS_CODE"},{"name":"TOWNNAME","type":"esriFieldTypeString","alias":"TOWNNAME","length":8},{"name":"LI","type":"esriFieldTypeString","alias":"LI","length":8},{"name":"LIN","type":"esriFieldTypeString","alias":"LIN","length":12},{"name":"STREET","type":"esriFieldTypeString","alias":"STREET","length":20},{"name":"SECT","type":"esriFieldTypeString","alias":"SECT","length":8},{"name":"MAREA","type":"esriFieldTypeString","alias":"MAREA","length":12},{"name":"LANE","type":"esriFieldTypeString","alias":"LANE","length":10},{"name":"ALLEY","type":"esriFieldTypeString","alias":"ALLEY","length":10},{"name":"HOUSE_NO","type":"esriFieldTypeString","alias":"HOUSE_NO","length":20},{"name":"E_COORD97","type":"esriFieldTypeDouble","alias":"E_COORD97"},{"name":"N_COORD97","type":"esriFieldTypeDouble","alias":"N_COORD97"},{"name":"ADDRESS","type":"esriFieldTypeString","alias":"ADDRESS","length":50},{"name":"OBJECTID","type":"esriFieldTypeOID","alias":"OBJECTID"}],"features":[{"attributes":{"ID":272606,"DIS_CODE":0,"TOWNNAME":"大內區","LI":"內江里","LIN":"3鄰","STREET":" ","SECT":" ","MAREA":"內庄","LANE":" ","ALLEY":" ","HOUSE_NO":"２４５號之２","E_COORD97":184674.14999999999,"N_COORD97":2557387.2999999998,"ADDRESS":"內庄２４５號之２","OBJECTID":272601},"geometry":{"x":184674.15000000037,"y":2557387.3000000007}},{"attributes":{"ID":272607,"DIS_CODE":0,"TOWNNAME":"大內區","LI":"環湖里","LIN":"3鄰","STREET":" ","SECT":" ","MAREA":"環湖","LANE":" ","ALLEY":" ","HOUSE_NO":"２２號之３","E_COORD97":190677.47,"N_COORD97":2560497.2999999998,"ADDRESS":"環湖２２號之３","OBJECTID":272602},"geometry":{"x":190677.46999999974,"y":2560497.3000000026}},{"attributes":{"ID":272608,"DIS_CODE":0,"TOWNNAME":"大內區","LI":"石城里","LIN":"3鄰","STREET":" ","SECT":" ","MAREA":"石子瀨","LANE":" ","ALLEY":" ","HOUSE_NO":"２２號之１","E_COORD97":184249.45000000001,"N_COORD97":2557941.2999999998,"ADDRESS":"石子瀨２２號之１","OBJECTID":272603},"geometry":{"x":184249.45000000112,"y":2557941.3000000026}},{"attributes":{"ID":272609,"DIS_CODE":0,"TOWNNAME":"大內區","LI":"曲溪里","LIN":"3鄰","STREET":" ","SECT":" ","MAREA":"二重溪","LANE":" ","ALLEY":" ","HOUSE_NO":"２７號之１","E_COORD97":187436.82999999999,"N_COORD97":2557620.3100000001,"ADDRESS":"二重溪２７號之１","OBJECTID":272604},"geometry":{"x":187436.83000000101,"y":2557620.3100000005}},{"attributes":{"ID":272610,"DIS_CODE":0,"TOWNNAME":"大內區","LI":"頭社里","LIN":"3鄰","STREET":" ","SECT":" ","MAREA":"頭社","LANE":" ","ALLEY":" ","HOUSE_NO":"４０號之１","E_COORD97":187127.67999999999,"N_COORD97":2560322.2999999998,"ADDRESS":"頭社４０號之１","OBJECTID":272605},"geometry":{"x":187127.6799999997,"y":2560322.3000000007}},{"attributes":{"ID":272611,"DIS_CODE":0,"TOWNNAME":"大內區","LI":"頭社里","LIN":"3鄰","STREET":" ","SECT":" ","MAREA":"頭社","LANE":" ","ALLEY":" ","HOUSE_NO":"４１號之４","E_COORD97":187182.89999999999,"N_COORD97":2560357.2999999998,"ADDRESS":"頭社４１號之４","OBJECTID":272606},"geometry":{"x":187182.90000000037,"y":2560357.3000000007}},{"attributes":{"ID":272612,"DIS_CODE":0,"TOWNNAME":"大內區","LI":"頭社里","LIN":"3鄰","STREET":" ","SECT":" ","MAREA":"頭社","LANE":" ","ALLEY":" ","HOUSE_NO":"３２號","E_COORD97":187069.54000000001,"N_COORD97":2560283.25,"ADDRESS":"頭社３２號","OBJECTID":272607},"geometry":{"x":187069.54000000004,"y":2560283.2500000019}},{"attributes":{"ID":272613,"DIS_CODE":0,"TOWNNAME":"大內區","LI":"內江里","LIN":"3鄰","STREET":" ","SECT":" ","MAREA":"內庄","LANE":" ","ALLEY":" ","HOUSE_NO":"２４２號","E_COORD97":184686.38,"N_COORD97":2557409.25,"ADDRESS":"內庄２４２號","OBJECTID":272608},"geometry":{"x":184686.38000000082,"y":2557409.2500000019}},{"attributes":{"ID":272614,"DIS_CODE":0,"TOWNNAME":"大內區","LI":"頭社里","LIN":"3鄰","STREET":" ","SECT":" ","MAREA":"頭社","LANE":" ","ALLEY":" ","HOUSE_NO":"４２號之１","E_COORD97":187183.07999999999,"N_COORD97":2560309.2999999998,"ADDRESS":"頭社４２號之１","OBJECTID":272609},"geometry":{"x":187183.08000000007,"y":2560309.3000000007}},{"attributes":{"ID":272615,"DIS_CODE":0,"TOWNNAME":"大內區","LI":"環湖里","LIN":"3鄰","STREET":" ","SECT":" ","MAREA":"環湖","LANE":" ","ALLEY":" ","HOUSE_NO":"２３號之２","E_COORD97":190713.91,"N_COORD97":2560535.2999999998,"ADDRESS":"環湖２３號之２","OBJECTID":272610},"geometry":{"x":190713.91000000015,"y":2560535.3000000026}},{"attributes":{"ID":272616,"DIS_CODE":0,"TOWNNAME":"大內區","LI":"內郭里","LIN":"3鄰","STREET":" ","SECT":" ","MAREA":"內庄","LANE":" ","ALLEY":" ","HOUSE_NO":"１７１號","E_COORD97":184773.57999999999,"N_COORD97":2557379.25,"ADDRESS":"內庄１７１號","OBJECTID":272611},"geometry":{"x":184773.58000000101,"y":2557379.25}},{"attributes":{"ID":272617,"DIS_CODE":0,"TOWNNAME":"大內區","LI":"二溪里","LIN":"3鄰","STREET":" ","SECT":" ","MAREA":"二重溪","LANE":" ","ALLEY":" ","HOUSE_NO":"１５２之３號","E_COORD97":187749.54000000001,"N_COORD97":2557936.3100000001,"ADDRESS":"二重溪１５２之３號","OBJECTID":272612},"geometry":{"x":187749.54000000004,"y":2557936.3100000005}},{"attributes":{"ID":272618,"DIS_CODE":0,"TOWNNAME":"大內區","LI":"內郭里","LIN":"3鄰","STREET":" ","SECT":" ","MAREA":"內庄","LANE":" ","ALLEY":" ","HOUSE_NO":"１７２號之５","E_COORD97":184747.57000000001,"N_COORD97":2557409.2999999998,"ADDRESS":"內庄１７２號之５","OBJECTID":272613},"geometry":{"x":184747.5700000003,"y":2557409.3000000026}},{"attributes":{"ID":272619,"DIS_CODE":0,"TOWNNAME":"大內區","LI":"二溪里","LIN":"3鄰","STREET":" ","SECT":" ","MAREA":"二重溪","LANE":" ","ALLEY":" ","HOUSE_NO":"１６２號","E_COORD97":187735.94,"N_COORD97":2558081.3100000001,"ADDRESS":"二重溪１６２號","OBJECTID":272614},"geometry":{"x":187735.94000000227,"y":2558081.3100000005}},{"attributes":{"ID":272620,"DIS_CODE":0,"TOWNNAME":"大內區","LI":"石城里","LIN":"3鄰","STREET":" ","SECT":" ","MAREA":"石子瀨","LANE":" ","ALLEY":" ","HOUSE_NO":"２８號","E_COORD97":184286.72,"N_COORD97":2557985.25,"ADDRESS":"石子瀨２８號","OBJECTID":272615},"geometry":{"x":184286.71999999974,"y":2557985.2500000019}},{"attributes":{"ID":272621,"DIS_CODE":0,"TOWNNAME":"大內區","LI":"環湖里","LIN":"3鄰","STREET":" ","SECT":" ","MAREA":"環湖","LANE":" ","ALLEY":" ","HOUSE_NO":"２４號之１","E_COORD97":190606.67999999999,"N_COORD97":2560627.2999999998,"ADDRESS":"環湖２４號之１","OBJECTID":272616},"geometry":{"x":190606.6799999997,"y":2560627.3000000026}},{"attributes":{"ID":272622,"DIS_CODE":0,"TOWNNAME":"大內區","LI":"大內里","LIN":"3鄰","STREET":" ","SECT":" ","MAREA":"內庄","LANE":" ","ALLEY":" ","HOUSE_NO":"３８號","E_COORD97":184602.13,"N_COORD97":2557478.25,"ADDRESS":"內庄３８號","OBJECTID":272617},"geometry":{"x":184602.13000000082,"y":2557478.25}},{"attributes":{"ID":272623,"DIS_CODE":0,"TOWNNAME":"安南區","LI":"總頭里","LIN":"7鄰","STREET":"長溪路","SECT":"二段","MAREA":" ","LANE":"５９８巷","ALLEY":" ","HOUSE_NO":"４０號","E_COORD97":168344.09,"N_COORD97":2550737.9300000002,"ADDRESS":"長溪路二段５９８巷４０號","OBJECTID":272618},"geometry":{"x":168344.08999999985,"y":2550737.9300000016}},{"attributes":{"ID":272624,"DIS_CODE":0,"TOWNNAME":"大內區","LI":"二溪里","LIN":"3鄰","STREET":" ","SECT":" ","MAREA":"二重溪","LANE":" ","ALLEY":" ","HOUSE_NO":"１５２之６號","E_COORD97":187754.64000000001,"N_COORD97":2557926.3100000001,"ADDRESS":"二重溪１５２之６號","OBJECTID":272619},"geometry":{"x":187754.6400000006,"y":2557926.3100000005}},{"attributes":{"ID":272625,"DIS_CODE":0,"TOWNNAME":"大內區","LI":"二溪里","LIN":"3鄰","STREET":" ","SECT":" ","MAREA":"二重溪","LANE":" ","ALLEY":" ","HOUSE_NO":"１５４號之２","E_COORD97":187933.41,"N_COORD97":2558002.3100000001,"ADDRESS":"二重溪１５４號之２","OBJECTID":272620},"geometry":{"x":187933.41000000015,"y":2558002.3100000024}},{"attributes":{"ID":272626,"DIS_CODE":0,"TOWNNAME":"大內區","LI":"二溪里","LIN":"3鄰","STREET":" ","SECT":" ","MAREA":"二重溪","LANE":" ","ALLEY":" ","HOUSE_NO":"１５５號之４","E_COORD97":187747.70000000001,"N_COORD97":2557978.3100000001,"ADDRESS":"二重溪１５５號之４","OBJECTID":272621},"geometry":{"x":187747.70000000112,"y":2557978.3100000024}},{"attributes":{"ID":272627,"DIS_CODE":0,"TOWNNAME":"安南區","LI":"總頭里","LIN":"7鄰","STREET":"長溪路","SECT":"二段","MAREA":" ","LANE":"５９８巷","ALLEY":" ","HOUSE_NO":"４１號","E_COORD97":168333.60999999999,"N_COORD97":2550785.29,"ADDRESS":"長溪路二段５９８巷４１號","OBJECTID":272622},"geometry":{"x":168333.61000000127,"y":2550785.2900000028}},{"attributes":{"ID":272628,"DIS_CODE":0,"TOWNNAME":"安南區","LI":"總頭里","LIN":"7鄰","STREET":"長溪路","SECT":"二段","MAREA":" ","LANE":"５９８巷","ALLEY":" ","HOUSE_NO":"４２號","E_COORD97":168347.95000000001,"N_COORD97":2550739.5800000001,"ADDRESS":"長溪路二段５９８巷４２號","OBJECTID":272623},"geometry":{"x":168347.95000000112,"y":2550739.5800000001}},{"attributes":{"ID":272629,"DIS_CODE":0,"TOWNNAME":"安南區","LI":"總頭里","LIN":"7鄰","STREET":"長溪路","SECT":"二段","MAREA":" ","LANE":"５９８巷","ALLEY":" ","HOUSE_NO":"４９號","E_COORD97":168347.39999999999,"N_COORD97":2550781.9900000002,"ADDRESS":"長溪路二段５９８巷４９號","OBJECTID":272624},"geometry":{"x":168347.4000000013,"y":2550781.9900000021}},{"attributes":{"ID":272630,"DIS_CODE":0,"TOWNNAME":"安南區","LI":"總頭里","LIN":"7鄰","STREET":"長溪路","SECT":"二段","MAREA":" ","LANE":"５９８巷","ALLEY":" ","HOUSE_NO":"５２號","E_COORD97":168368.89999999999,"N_COORD97":2550745.6299999999,"ADDRESS":"長溪路二段５９８巷５２號","OBJECTID":272625},"geometry":{"x":168368.9000000013,"y":2550745.6300000027}},{"attributes":{"ID":272631,"DIS_CODE":0,"TOWNNAME":"安南區","LI":"總頭里","LIN":"7鄰","STREET":"長溪路","SECT":"二段","MAREA":" ","LANE":"５９８巷","ALLEY":" ","HOUSE_NO":"５３號","E_COORD97":168362.29000000001,"N_COORD97":2550786.9399999999,"ADDRESS":"長溪路二段５９８巷５３號","OBJECTID":272626},"geometry":{"x":168362.2900000019,"y":2550786.9399999995}},{"attributes":{"ID":272632,"DIS_CODE":0,"TOWNNAME":"安南區","LI":"總頭里","LIN":"7鄰","STREET":"長溪路","SECT":"二段","MAREA":" ","LANE":"５９８巷","ALLEY":" ","HOUSE_NO":"６號","E_COORD97":168271.51999999999,"N_COORD97":2550692.7400000002,"ADDRESS":"長溪路二段５９８巷６號","OBJECTID":272627},"geometry":{"x":168271.51999999955,"y":2550692.7400000021}},{"attributes":{"ID":272633,"DIS_CODE":0,"TOWNNAME":"歸仁區","LI":"南保里","LIN":"34鄰","STREET":"民權六街","SECT":" ","MAREA":" ","LANE":"８１巷","ALLEY":" ","HOUSE_NO":"８號","E_COORD97":176769.98999999999,"N_COORD97":2541063.29,"ADDRESS":"民權六街８１巷８號","OBJECTID":272628},"geometry":{"x":176769.99000000115,"y":2541063.2899999991}},{"attributes":{"ID":272634,"DIS_CODE":0,"TOWNNAME":"東區","LI":"東光里","LIN":"3鄰","STREET":"東興路","SECT":" ","MAREA":" ","LANE":"４０巷","ALLEY":" ","HOUSE_NO":"３號","E_COORD97":170969.39000000001,"N_COORD97":2543510.7200000002,"ADDRESS":"東興路４０巷３號","OBJECTID":272629},"geometry":{"x":170969.38999999966,"y":2543510.7200000007}},{"attributes":{"ID":272635,"DIS_CODE":0,"TOWNNAME":"新營區","LI":"民榮里","LIN":"32鄰","STREET":"太子路","SECT":" ","MAREA":" ","LANE":" ","ALLEY":" ","HOUSE_NO":"８９號","E_COORD97":178232.85000000001,"N_COORD97":2578029.6600000001,"ADDRESS":"太子路８９號","OBJECTID":272630},"geometry":{"x":178232.85000000056,"y":2578029.660000002}},{"attributes":{"ID":272636,"DIS_CODE":0,"TOWNNAME":"新營區","LI":"好平里","LIN":"8鄰","STREET":"長春街","SECT":" ","MAREA":" ","LANE":" ","ALLEY":" ","HOUSE_NO":"１６０號","E_COORD97":179506.56,"N_COORD97":2577824.21,"ADDRESS":"長春街１６０號","OBJECTID":272631},"geometry":{"x":179506.56000000052,"y":2577824.2100000009}},{"attributes":{"ID":272637,"DIS_CODE":0,"TOWNNAME":"安南區","LI":"總頭里","LIN":"7鄰","STREET":"長溪路","SECT":"二段","MAREA":" ","LANE":"５９８巷","ALLEY":" ","HOUSE_NO":"９６號","E_COORD97":168462.54999999999,"N_COORD97":2550868.3999999999,"ADDRESS":"長溪路二段５９８巷９６號","OBJECTID":272632},"geometry":{"x":168462.55000000075,"y":2550868.4000000022}},{"attributes":{"ID":272638,"DIS_CODE":0,"TOWNNAME":"安南區","LI":"長安里","LIN":"7鄰","STREET":"長溪路","SECT":"三段","MAREA":" ","LANE":"４５９巷","ALLEY":" ","HOUSE_NO":"１５號","E_COORD97":167557.37,"N_COORD97":2552088.2999999998,"ADDRESS":"長溪路三段４５９巷１５號","OBJECTID":272633},"geometry":{"x":167557.37000000104,"y":2552088.3000000007}},{"attributes":{"ID":272639,"DIS_CODE":0,"TOWNNAME":"安南區","LI":"長安里","LIN":"7鄰","STREET":"長溪路","SECT":"三段","MAREA":" ","LANE":"４５９巷","ALLEY":" ","HOUSE_NO":"１７號","E_COORD97":167550.60999999999,"N_COORD97":2552083.75,"ADDRESS":"長溪路三段４５９巷１７號","OBJECTID":272634},"geometry":{"x":167550.61000000127,"y":2552083.75}},{"attributes":{"ID":272640,"DIS_CODE":0,"TOWNNAME":"安南區","LI":"淵西里","LIN":"7鄰","STREET":"安中路","SECT":"四段","MAREA":" ","LANE":"３２０巷","ALLEY":" ","HOUSE_NO":"１０１號","E_COORD97":164650.10999999999,"N_COORD97":2550423.7999999998,"ADDRESS":"安中路四段３２０巷１０１號","OBJECTID":272635},"geometry":{"x":164650.11000000127,"y":2550423.7999999989}},{"attributes":{"ID":272641,"DIS_CODE":0,"TOWNNAME":"安南區","LI":"淵西里","LIN":"7鄰","STREET":"安中路","SECT":"四段","MAREA":" ","LANE":"３２０巷","ALLEY":" ","HOUSE_NO":"９９號","E_COORD97":164645.79000000001,"N_COORD97":2550425.7599999998,"ADDRESS":"安中路四段３２０巷９９號","OBJECTID":272636},"geometry":{"x":164645.79000000004,"y":2550425.7599999998}},{"attributes":{"ID":272642,"DIS_CODE":0,"TOWNNAME":"中西區","LI":"協進里","LIN":"6鄰","STREET":"西寧街","SECT":" ","MAREA":" ","LANE":" ","ALLEY":" ","HOUSE_NO":"９８號","E_COORD97":167002.06,"N_COORD97":2544263.4399999999,"ADDRESS":"西寧街９８號","OBJECTID":272637},"geometry":{"x":167002.06000000145,"y":2544263.4399999995}},{"attributes":{"ID":272643,"DIS_CODE":0,"TOWNNAME":"東區","LI":"南聖里","LIN":"3鄰","STREET":"富農街","SECT":"二段","MAREA":" ","LANE":" ","ALLEY":" ","HOUSE_NO":"１１０號","E_COORD97":171640.76999999999,"N_COORD97":2543095.8799999999,"ADDRESS":"富農街二段１１０號","OBJECTID":272638},"geometry":{"x":171640.77000000048,"y":2543095.8800000008}},{"attributes":{"ID":272644,"DIS_CODE":0,"TOWNNAME":"東區","LI":"南聖里","LIN":"3鄰","STREET":"富農街","SECT":"二段","MAREA":" ","LANE":" ","ALLEY":" ","HOUSE_NO":"１２８號","E_COORD97":171645.60999999999,"N_COORD97":2543138.3700000001,"ADDRESS":"富農街二段１２８號","OBJECTID":272639},"geometry":{"x":171645.6100000022,"y":2543138.3700000029}},{"attributes":{"ID":272645,"DIS_CODE":0,"TOWNNAME":"東區","LI":"南聖里","LIN":"3鄰","STREET":"富農街","SECT":"二段","MAREA":" ","LANE":" ","ALLEY":" ","HOUSE_NO":"１３０號","E_COORD97":171646.10999999999,"N_COORD97":2543145.04,"ADDRESS":"富農街二段１３０號","OBJECTID":272640},"geometry":{"x":171646.11000000127,"y":2543145.0400000028}},{"attributes":{"ID":272646,"DIS_CODE":0,"TOWNNAME":"東區","LI":"大學里","LIN":"4鄰","STREET":"大學路","SECT":" ","MAREA":" ","LANE":" ","ALLEY":" ","HOUSE_NO":"１４號","E_COORD97":170085.79999999999,"N_COORD97":2544043.0600000001,"ADDRESS":"大學路１４號","OBJECTID":272641},"geometry":{"x":170085.79999999981,"y":2544043.0600000005}},{"attributes":{"ID":272647,"DIS_CODE":0,"TOWNNAME":"安南區","LI":"溪頂里","LIN":"7鄰","STREET":"府安路","SECT":"四段","MAREA":" ","LANE":"１８５巷","ALLEY":" ","HOUSE_NO":"２４號","E_COORD97":168664.06,"N_COORD97":2547297.0699999998,"ADDRESS":"府安路四段１８５巷２４號","OBJECTID":272642},"geometry":{"x":168664.06000000052,"y":2547297.0700000022}},{"attributes":{"ID":272648,"DIS_CODE":0,"TOWNNAME":"歸仁區","LI":"後市里","LIN":"15鄰","STREET":"民族南街","SECT":" ","MAREA":" ","LANE":"１８巷","ALLEY":" ","HOUSE_NO":"７０號","E_COORD97":177274.94,"N_COORD97":2540763.5499999998,"ADDRESS":"民族南街１８巷７０號","OBJECTID":272643},"geometry":{"x":177274.94000000227,"y":2540763.5500000026}},{"attributes":{"ID":272649,"DIS_CODE":0,"TOWNNAME":"歸仁區","LI":"南保里","LIN":"47鄰","STREET":"民權十街","SECT":" ","MAREA":" ","LANE":"６３巷","ALLEY":" ","HOUSE_NO":"４２號","E_COORD97":176764.51000000001,"N_COORD97":2540635.2999999998,"ADDRESS":"民權十街６３巷４２號","OBJECTID":272644},"geometry":{"x":176764.50999999978,"y":2540635.3000000007}},{"attributes":{"ID":272650,"DIS_CODE":0,"TOWNNAME":"安南區","LI":"城東里","LIN":"7鄰","STREET":"城北路","SECT":" ","MAREA":" ","LANE":"９８巷","ALLEY":" ","HOUSE_NO":"８５號","E_COORD97":161160.95000000001,"N_COORD97":2551560.98,"ADDRESS":"城北路９８巷８５號","OBJECTID":272645},"geometry":{"x":161160.95000000112,"y":2551560.9800000004}},{"attributes":{"ID":272651,"DIS_CODE":0,"TOWNNAME":"安南區","LI":"淵東里","LIN":"7鄰","STREET":"本原街","SECT":"三段","MAREA":" ","LANE":"２３１巷","ALLEY":" ","HOUSE_NO":"５號","E_COORD97":165410.22,"N_COORD97":2550270.5299999998,"ADDRESS":"本原街三段２３１巷５號","OBJECTID":272646},"geometry":{"x":165410.22000000067,"y":2550270.5299999993}},{"attributes":{"ID":272652,"DIS_CODE":0,"TOWNNAME":"安南區","LI":"淵東里","LIN":"7鄰","STREET":"本原街","SECT":"三段","MAREA":" ","LANE":"２３１巷","ALLEY":" ","HOUSE_NO":"７號","E_COORD97":165412.53,"N_COORD97":2550266.27,"ADDRESS":"本原街三段２３１巷７號","OBJECTID":272647},"geometry":{"x":165412.53000000026,"y":2550266.2699999996}},{"attributes":{"ID":272653,"DIS_CODE":0,"TOWNNAME":"安南區","LI":"淵中里","LIN":"7鄰","STREET":"安中路","SECT":"四段","MAREA":" ","LANE":"２１０巷","ALLEY":" ","HOUSE_NO":"８０號","E_COORD97":164933.92000000001,"N_COORD97":2550209.21,"ADDRESS":"安中路四段２１０巷８０號","OBJECTID":272648},"geometry":{"x":164933.92000000086,"y":2550209.2100000028}},{"attributes":{"ID":272654,"DIS_CODE":0,"TOWNNAME":"安南區","LI":"淵中里","LIN":"7鄰","STREET":"安中路","SECT":"四段","MAREA":" ","LANE":"２１０巷","ALLEY":" ","HOUSE_NO":"８２號","E_COORD97":164937.60999999999,"N_COORD97":2550211.73,"ADDRESS":"安中路四段２１０巷８２號","OBJECTID":272649},"geometry":{"x":164937.61000000034,"y":2550211.7300000023}},{"attributes":{"ID":272655,"DIS_CODE":0,"TOWNNAME":"安南區","LI":"淵中里","LIN":"7鄰","STREET":"安中路","SECT":"四段","MAREA":" ","LANE":"２１０巷","ALLEY":" ","HOUSE_NO":"８４號","E_COORD97":164941.04000000001,"N_COORD97":2550213.98,"ADDRESS":"安中路四段２１０巷８４號","OBJECTID":272650},"geometry":{"x":164941.04000000004,"y":2550213.9800000023}},{"attributes":{"ID":272656,"DIS_CODE":0,"TOWNNAME":"東區","LI":"大學里","LIN":"4鄰","STREET":"大學路","SECT":" ","MAREA":" ","LANE":" ","ALLEY":" ","HOUSE_NO":"１６號","E_COORD97":170102.73999999999,"N_COORD97":2544052.8399999999,"ADDRESS":"大學路１６號","OBJECTID":272651},"geometry":{"x":170102.74000000115,"y":2544052.8400000017}},{"attributes":{"ID":272657,"DIS_CODE":0,"TOWNNAME":"大內區","LI":"環湖里","LIN":"3鄰","STREET":" ","SECT":" ","MAREA":"環湖","LANE":" ","ALLEY":" ","HOUSE_NO":"２７號","E_COORD97":190555.44,"N_COORD97":2560654.25,"ADDRESS":"環湖２７號","OBJECTID":272652},"geometry":{"x":190555.44000000134,"y":2560654.25}},{"attributes":{"ID":272658,"DIS_CODE":0,"TOWNNAME":"大內區","LI":"環湖里","LIN":"3鄰","STREET":" ","SECT":" ","MAREA":"環湖","LANE":" ","ALLEY":" ","HOUSE_NO":"２７號之２","E_COORD97":190594.81,"N_COORD97":2560701.2999999998,"ADDRESS":"環湖２７號之２","OBJECTID":272653},"geometry":{"x":190594.81000000052,"y":2560701.3000000026}},{"attributes":{"ID":272659,"DIS_CODE":0,"TOWNNAME":"大內區","LI":"環湖里","LIN":"3鄰","STREET":" ","SECT":" ","MAREA":"環湖","LANE":" ","ALLEY":" ","HOUSE_NO":"２３號之５","E_COORD97":190627.23000000001,"N_COORD97":2560588.2999999998,"ADDRESS":"環湖２３號之５","OBJECTID":272654},"geometry":{"x":190627.23000000045,"y":2560588.3000000045}},{"attributes":{"ID":272660,"DIS_CODE":0,"TOWNNAME":"大內區","LI":"環湖里","LIN":"3鄰","STREET":" ","SECT":" ","MAREA":"環湖","LANE":" ","ALLEY":" ","HOUSE_NO":"２２號之７","E_COORD97":190708.04999999999,"N_COORD97":2560431.2999999998,"ADDRESS":"環湖２２號之７","OBJECTID":272655},"geometry":{"x":190708.05000000168,"y":2560431.3000000007}},{"attributes":{"ID":272661,"DIS_CODE":0,"TOWNNAME":"大內區","LI":"環湖里","LIN":"3鄰","STREET":" ","SECT":" ","MAREA":"環湖","LANE":" ","ALLEY":" ","HOUSE_NO":"２３號之１２","E_COORD97":190682.95999999999,"N_COORD97":2560565.2999999998,"ADDRESS":"環湖２３號之１２","OBJECTID":272656},"geometry":{"x":190682.95999999996,"y":2560565.3000000026}},{"attributes":{"ID":272662,"DIS_CODE":0,"TOWNNAME":"大內區","LI":"環湖里","LIN":"3鄰","STREET":" ","SECT":" ","MAREA":"環湖","LANE":" ","ALLEY":" ","HOUSE_NO":"２３號之８","E_COORD97":190690.12,"N_COORD97":2560548.2999999998,"ADDRESS":"環湖２３號之８","OBJECTID":272657},"geometry":{"x":190690.12000000011,"y":2560548.3000000026}},{"attributes":{"ID":272663,"DIS_CODE":0,"TOWNNAME":"大內區","LI":"環湖里","LIN":"3鄰","STREET":" ","SECT":" ","MAREA":"環湖","LANE":" ","ALLEY":" ","HOUSE_NO":"２４號之３","E_COORD97":190577.97,"N_COORD97":2560616.2999999998,"ADDRESS":"環湖２４號之３","OBJECTID":272658},"geometry":{"x":190577.9700000016,"y":2560616.3000000026}},{"attributes":{"ID":272664,"DIS_CODE":0,"TOWNNAME":"東區","LI":"大學里","LIN":"4鄰","STREET":"大學路","SECT":" ","MAREA":" ","LANE":" ","ALLEY":" ","HOUSE_NO":"１６號之２","E_COORD97":170111.12,"N_COORD97":2544051.9700000002,"ADDRESS":"大學路１６號之２","OBJECTID":272659},"geometry":{"x":170111.11999999918,"y":2544051.9700000007}},{"attributes":{"ID":272665,"DIS_CODE":0,"TOWNNAME":"東區","LI":"大學里","LIN":"4鄰","STREET":"大學路","SECT":" ","MAREA":" ","LANE":" ","ALLEY":" ","HOUSE_NO":"１６號之３","E_COORD97":170115.66,"N_COORD97":2544051.7000000002,"ADDRESS":"大學路１６號之３","OBJECTID":272660},"geometry":{"x":170115.66000000015,"y":2544051.6999999993}},{"attributes":{"ID":272666,"DIS_CODE":0,"TOWNNAME":"安南區","LI":"淵中里","LIN":"7鄰","STREET":"安中路","SECT":"四段","MAREA":" ","LANE":"２１０巷","ALLEY":" ","HOUSE_NO":"８６號","E_COORD97":164944.82999999999,"N_COORD97":2550216.77,"ADDRESS":"安中路四段２１０巷８６號","OBJECTID":272661},"geometry":{"x":164944.83000000101,"y":2550216.7700000014}},{"attributes":{"ID":272667,"DIS_CODE":0,"TOWNNAME":"安南區","LI":"淵中里","LIN":"7鄰","STREET":"安中路","SECT":"四段","MAREA":" ","LANE":"２１０巷","ALLEY":" ","HOUSE_NO":"８８號","E_COORD97":164949.23999999999,"N_COORD97":2550218.9399999999,"ADDRESS":"安中路四段２１０巷８８號","OBJECTID":272662},"geometry":{"x":164949.24000000115,"y":2550218.9400000013}},{"attributes":{"ID":272668,"DIS_CODE":0,"TOWNNAME":"大內區","LI":"環湖里","LIN":"3鄰","STREET":" ","SECT":" ","MAREA":"環湖","LANE":" ","ALLEY":" ","HOUSE_NO":"３４號","E_COORD97":190538.14000000001,"N_COORD97":2560697.25,"ADDRESS":"環湖３４號","OBJECTID":272663},"geometry":{"x":190538.1400000006,"y":2560697.2500000019}},{"attributes":{"ID":272669,"DIS_CODE":0,"TOWNNAME":"大內區","LI":"環湖里","LIN":"3鄰","STREET":" ","SECT":" ","MAREA":"環湖","LANE":" ","ALLEY":" ","HOUSE_NO":"３０號之２","E_COORD97":190513.41,"N_COORD97":2560657.2999999998,"ADDRESS":"環湖３０號之２","OBJECTID":272664},"geometry":{"x":190513.41000000108,"y":2560657.3000000026}},{"attributes":{"ID":272670,"DIS_CODE":0,"TOWNNAME":"大內區","LI":"石湖里","LIN":"3鄰","STREET":" ","SECT":" ","MAREA":"石子瀨","LANE":" ","ALLEY":" ","HOUSE_NO":"２５７號","E_COORD97":184069.76999999999,"N_COORD97":2558362.25,"ADDRESS":"石子瀨２５７號","OBJECTID":272665},"geometry":{"x":184069.77000000048,"y":2558362.25}},{"attributes":{"ID":272671,"DIS_CODE":0,"TOWNNAME":"大內區","LI":"環湖里","LIN":"3鄰","STREET":" ","SECT":" ","MAREA":"環湖","LANE":" ","ALLEY":" ","HOUSE_NO":"２２號之６","E_COORD97":190706.57999999999,"N_COORD97":2560469.2999999998,"ADDRESS":"環湖２２號之６","OBJECTID":272666},"geometry":{"x":190706.58000000101,"y":2560469.3000000007}},{"attributes":{"ID":272672,"DIS_CODE":0,"TOWNNAME":"安南區","LI":"淵中里","LIN":"7鄰","STREET":"安中路","SECT":"四段","MAREA":" ","LANE":"２１０巷","ALLEY":" ","HOUSE_NO":"９０號","E_COORD97":164952.94,"N_COORD97":2550220.4700000002,"ADDRESS":"安中路四段２１０巷９０號","OBJECTID":272667},"geometry":{"x":164952.94000000134,"y":2550220.4700000025}},{"attributes":{"ID":272673,"DIS_CODE":0,"TOWNNAME":"安南區","LI":"溪頂里","LIN":"7鄰","STREET":"府安路","SECT":"四段","MAREA":" ","LANE":"１８５巷","ALLEY":" ","HOUSE_NO":"２６號","E_COORD97":168659.47,"N_COORD97":2547296.25,"ADDRESS":"府安路四段１８５巷２６號","OBJECTID":272668},"geometry":{"x":168659.47000000067,"y":2547296.25}},{"attributes":{"ID":272674,"DIS_CODE":0,"TOWNNAME":"大內區","LI":"環湖里","LIN":"3鄰","STREET":" ","SECT":" ","MAREA":"環湖","LANE":" ","ALLEY":" ","HOUSE_NO":"２４號之２","E_COORD97":190632.10999999999,"N_COORD97":2560621.2999999998,"ADDRESS":"環湖２４號之２","OBJECTID":272669},"geometry":{"x":190632.11000000127,"y":2560621.3000000007}},{"attributes":{"ID":272675,"DIS_CODE":0,"TOWNNAME":"大內區","LI":"環湖里","LIN":"3鄰","STREET":" ","SECT":" ","MAREA":"環湖","LANE":" ","ALLEY":" ","HOUSE_NO":"２９號之１","E_COORD97":190514.98000000001,"N_COORD97":2560687.2999999998,"ADDRESS":"環湖２９號之１","OBJECTID":272670},"geometry":{"x":190514.98000000045,"y":2560687.3000000026}},{"attributes":{"ID":272676,"DIS_CODE":0,"TOWNNAME":"中西區","LI":"保安里","LIN":"7鄰","STREET":"府前路","SECT":"二段","MAREA":" ","LANE":"４０巷","ALLEY":" ","HOUSE_NO":"３號","E_COORD97":167620.73999999999,"N_COORD97":2543513.9100000001,"ADDRESS":"府前路二段４０巷３號","OBJECTID":272671},"geometry":{"x":167620.74000000115,"y":2543513.910000002}},{"attributes":{"ID":272677,"DIS_CODE":0,"TOWNNAME":"中西區","LI":"保安里","LIN":"7鄰","STREET":"府前路","SECT":"二段","MAREA":" ","LANE":"４０巷","ALLEY":" ","HOUSE_NO":"１１號","E_COORD97":167627.37,"N_COORD97":2543530.8500000001,"ADDRESS":"府前路二段４０巷１１號","OBJECTID":272672},"geometry":{"x":167627.37000000011,"y":2543530.8500000015}},{"attributes":{"ID":272678,"DIS_CODE":0,"TOWNNAME":"中西區","LI":"保安里","LIN":"7鄰","STREET":"府前路","SECT":"二段","MAREA":" ","LANE":"４０巷","ALLEY":" ","HOUSE_NO":"５號","E_COORD97":167625.01999999999,"N_COORD97":2543516.1400000001,"ADDRESS":"府前路二段４０巷５號","OBJECTID":272673},"geometry":{"x":167625.02000000048,"y":2543516.1400000025}},{"attributes":{"ID":272679,"DIS_CODE":0,"TOWNNAME":"永康區","LI":"尚頂里","LIN":"3鄰","STREET":"中正二街","SECT":" ","MAREA":" ","LANE":" ","ALLEY":" ","HOUSE_NO":"１７８號","E_COORD97":171412.19,"N_COORD97":2547727.4300000002,"ADDRESS":"中正二街１７８號","OBJECTID":272674},"geometry":{"x":171412.19000000041,"y":2547727.4300000016}},{"attributes":{"ID":272680,"DIS_CODE":0,"TOWNNAME":"永康區","LI":"尚頂里","LIN":"3鄰","STREET":"中正二街","SECT":" ","MAREA":" ","LANE":" ","ALLEY":" ","HOUSE_NO":"１７２號","E_COORD97":171397.38,"N_COORD97":2547718.4300000002,"ADDRESS":"中正二街１７２號","OBJECTID":272675},"geometry":{"x":171397.37999999989,"y":2547718.4299999997}},{"attributes":{"ID":272681,"DIS_CODE":0,"TOWNNAME":"永康區","LI":"\u25A0行里","LIN":"3鄰","STREET":"中正路","SECT":" ","MAREA":" ","LANE":" ","ALLEY":" ","HOUSE_NO":"９００號","E_COORD97":172032.87,"N_COORD97":2548873.79,"ADDRESS":"中正路９００號","OBJECTID":272676},"geometry":{"x":172032.87000000011,"y":2548873.790000001}},{"attributes":{"ID":272682,"DIS_CODE":0,"TOWNNAME":"永康區","LI":"\u25A0洲里","LIN":"3鄰","STREET":"\u25A0洲二街","SECT":" ","MAREA":" ","LANE":" ","ALLEY":" ","HOUSE_NO":"１７６號","E_COORD97":171683.07999999999,"N_COORD97":2549352.46,"ADDRESS":"\u25A0洲二街１７６號","OBJECTID":272677},"geometry":{"x":171683.08000000101,"y":2549352.4600000028}},{"attributes":{"ID":272683,"DIS_CODE":0,"TOWNNAME":"中西區","LI":"保安里","LIN":"7鄰","STREET":"府前路","SECT":"二段","MAREA":" ","LANE":"４０巷","ALLEY":" ","HOUSE_NO":"７號","E_COORD97":167625.14000000001,"N_COORD97":2543522.5499999998,"ADDRESS":"府前路二段４０巷７號","OBJECTID":272678},"geometry":{"x":167625.13999999966,"y":2543522.5500000007}},{"attributes":{"ID":272684,"DIS_CODE":0,"TOWNNAME":"中西區","LI":"保安里","LIN":"7鄰","STREET":"府前路","SECT":"二段","MAREA":" ","LANE":"４０巷","ALLEY":" ","HOUSE_NO":"１５號","E_COORD97":167625.84,"N_COORD97":2543536.9900000002,"ADDRESS":"府前路二段４０巷１５號","OBJECTID":272679},"geometry":{"x":167625.83999999985,"y":2543536.9900000021}},{"attributes":{"ID":272685,"DIS_CODE":0,"TOWNNAME":"歸仁區","LI":"歸南里","LIN":"14鄰","STREET":"民生南街","SECT":"二段","MAREA":" ","LANE":"２７７巷","ALLEY":" ","HOUSE_NO":"６號","E_COORD97":176107.35999999999,"N_COORD97":2539972.25,"ADDRESS":"民生南街二段２７７巷６號","OBJECTID":272680},"geometry":{"x":176107.3600000022,"y":2539972.2500000019}},{"attributes":{"ID":272686,"DIS_CODE":0,"TOWNNAME":"歸仁區","LI":"媽廟里","LIN":"1鄰","STREET":"媽廟一街","SECT":" ","MAREA":" ","LANE":"７２巷","ALLEY":" ","HOUSE_NO":"２６號","E_COORD97":177186.88,"N_COORD97":2543486.7200000002,"ADDRESS":"媽廟一街７２巷２６號","OBJECTID":272681},"geometry":{"x":177186.88000000082,"y":2543486.7200000007}},{"attributes":{"ID":272687,"DIS_CODE":0,"TOWNNAME":"永康區","LI":"復國里","LIN":"7鄰","STREET":"復國一路","SECT":" ","MAREA":" ","LANE":"１５０巷","ALLEY":" ","HOUSE_NO":"２６號","E_COORD97":172795.17999999999,"N_COORD97":2545069.3199999998,"ADDRESS":"復國一路１５０巷２６號","OBJECTID":272682},"geometry":{"x":172795.1799999997,"y":2545069.3200000003}},{"attributes":{"ID":272688,"DIS_CODE":0,"TOWNNAME":"永康區","LI":"復國里","LIN":"7鄰","STREET":"復國一路","SECT":" ","MAREA":" ","LANE":"１５０巷","ALLEY":" ","HOUSE_NO":"９號","E_COORD97":172768.92999999999,"N_COORD97":2545086.8100000001,"ADDRESS":"復國一路１５０巷９號","OBJECTID":272683},"geometry":{"x":172768.93000000063,"y":2545086.8100000005}},{"attributes":{"ID":272689,"DIS_CODE":0,"TOWNNAME":"永康區","LI":"新樹里","LIN":"7鄰","STREET":"西勢路","SECT":" ","MAREA":" ","LANE":"２２８巷","ALLEY":" ","HOUSE_NO":"５１號","E_COORD97":175741.01000000001,"N_COORD97":2546927.5800000001,"ADDRESS":"西勢路２２８巷５１號","OBJECTID":272684},"geometry":{"x":175741.00999999978,"y":2546927.5800000019}},{"attributes":{"ID":272690,"DIS_CODE":0,"TOWNNAME":"永康區","LI":"復國里","LIN":"7鄰","STREET":"復國一路","SECT":" ","MAREA":" ","LANE":"１５０巷","ALLEY":" ","HOUSE_NO":"５號","E_COORD97":172758.42999999999,"N_COORD97":2545086.5600000001,"ADDRESS":"復國一路１５０巷５號","OBJECTID":272685},"geometry":{"x":172758.43000000063,"y":2545086.5600000024}},{"attributes":{"ID":272691,"DIS_CODE":0,"TOWNNAME":"歸仁區","LI":"歸仁里","LIN":"5鄰","STREET":"和平三街","SECT":" ","MAREA":" ","LANE":"１１巷","ALLEY":" ","HOUSE_NO":"７號","E_COORD97":177804.59,"N_COORD97":2540978.04,"ADDRESS":"和平三街１１巷７號","OBJECTID":272686},"geometry":{"x":177804.59000000078,"y":2540978.0399999991}},{"attributes":{"ID":272692,"DIS_CODE":0,"TOWNNAME":"大內區","LI":"大內里","LIN":"3鄰","STREET":" ","SECT":" ","MAREA":"內庄","LANE":" ","ALLEY":" ","HOUSE_NO":"３３號","E_COORD97":184626.23000000001,"N_COORD97":2557455.25,"ADDRESS":"內庄３３號","OBJECTID":272687},"geometry":{"x":184626.23000000045,"y":2557455.2500000037}},{"attributes":{"ID":272693,"DIS_CODE":0,"TOWNNAME":"安南區","LI":"城西里","LIN":"7鄰","STREET":"城西街","SECT":"三段","MAREA":" ","LANE":"５０１巷","ALLEY":" ","HOUSE_NO":"２３２之１號","E_COORD97":157358.32000000001,"N_COORD97":2549962.5800000001,"ADDRESS":"城西街三段５０１巷２３２之１號","OBJECTID":272688},"geometry":{"x":157358.3200000003,"y":2549962.5800000001}},{"attributes":{"ID":272694,"DIS_CODE":0,"TOWNNAME":"佳里區","LI":"建南里","LIN":"7鄰","STREET":"建南街","SECT":" ","MAREA":" ","LANE":"１７９巷","ALLEY":" ","HOUSE_NO":"１１號","E_COORD97":165661.97,"N_COORD97":2562206.0899999999,"ADDRESS":"建南街１７９巷１１號","OBJECTID":272689},"geometry":{"x":165661.9700000016,"y":2562206.0900000036}},{"attributes":{"ID":272695,"DIS_CODE":0,"TOWNNAME":"佳里區","LI":"建南里","LIN":"7鄰","STREET":"建南街","SECT":" ","MAREA":" ","LANE":"１７９巷","ALLEY":" ","HOUSE_NO":"１３號","E_COORD97":165660.67999999999,"N_COORD97":2562213.3799999999,"ADDRESS":"建南街１７９巷１３號","OBJECTID":272690},"geometry":{"x":165660.68000000063,"y":2562213.3800000027}},{"attributes":{"ID":272696,"DIS_CODE":0,"TOWNNAME":"佳里區","LI":"建南里","LIN":"7鄰","STREET":"建南街","SECT":" ","MAREA":" ","LANE":"１７９巷","ALLEY":" ","HOUSE_NO":"１５號","E_COORD97":165659.51000000001,"N_COORD97":2562219.8700000001,"ADDRESS":"建南街１７９巷１５號","OBJECTID":272691},"geometry":{"x":165659.50999999978,"y":2562219.8700000029}},{"attributes":{"ID":272697,"DIS_CODE":0,"TOWNNAME":"佳里區","LI":"建南里","LIN":"7鄰","STREET":"建南街","SECT":" ","MAREA":" ","LANE":"１７９巷","ALLEY":" ","HOUSE_NO":"１號","E_COORD97":165690.04999999999,"N_COORD97":2562186.6200000001,"ADDRESS":"建南街１７９巷１號","OBJECTID":272692},"geometry":{"x":165690.04999999981,"y":2562186.6199999992}},{"attributes":{"ID":272698,"DIS_CODE":0,"TOWNNAME":"佳里區","LI":"建南里","LIN":"7鄰","STREET":"建南街","SECT":" ","MAREA":" ","LANE":"１７９巷","ALLEY":" ","HOUSE_NO":"２號","E_COORD97":165680.37,"N_COORD97":2562199.23,"ADDRESS":"建南街１７９巷２號","OBJECTID":272693},"geometry":{"x":165680.37000000104,"y":2562199.2300000042}},{"attributes":{"ID":272699,"DIS_CODE":0,"TOWNNAME":"麻豆區","LI":"大埕里","LIN":"13鄰","STREET":"平等路","SECT":" ","MAREA":" ","LANE":" ","ALLEY":" ","HOUSE_NO":"７５號","E_COORD97":173035.25,"N_COORD97":2565096.5800000001,"ADDRESS":"平等路７５號","OBJECTID":272694},"geometry":{"x":173035.25000000093,"y":2565096.5800000019}},{"attributes":{"ID":272700,"DIS_CODE":0,"TOWNNAME":"大內區","LI":"石城里","LIN":"3鄰","STREET":" ","SECT":" ","MAREA":"石子瀨","LANE":" ","ALLEY":" ","HOUSE_NO":"２３號","E_COORD97":184274.42000000001,"N_COORD97":2557922.25,"ADDRESS":"石子瀨２３號","OBJECTID":272695},"geometry":{"x":184274.42000000086,"y":2557922.25}},{"attributes":{"ID":272701,"DIS_CODE":0,"TOWNNAME":"大內區","LI":"二溪里","LIN":"3鄰","STREET":" ","SECT":" ","MAREA":"二重溪","LANE":" ","ALLEY":" ","HOUSE_NO":"１５５之７號","E_COORD97":187721.73999999999,"N_COORD97":2558000.3100000001,"ADDRESS":"二重溪１５５之７號","OBJECTID":272696},"geometry":{"x":187721.73999999929,"y":2558000.3100000005}},{"attributes":{"ID":272702,"DIS_CODE":0,"TOWNNAME":"大內區","LI":"二溪里","LIN":"3鄰","STREET":" ","SECT":" ","MAREA":"二重溪","LANE":" ","ALLEY":" ","HOUSE_NO":"１５５號之２","E_COORD97":187756.01000000001,"N_COORD97":2557981.3100000001,"ADDRESS":"二重溪１５５號之２","OBJECTID":272697},"geometry":{"x":187756.00999999978,"y":2557981.3100000024}},{"attributes":{"ID":272703,"DIS_CODE":0,"TOWNNAME":"大內區","LI":"內郭里","LIN":"3鄰","STREET":" ","SECT":" ","MAREA":"內庄","LANE":" ","ALLEY":" ","HOUSE_NO":"１７２號之８","E_COORD97":184730.06,"N_COORD97":2557413.2999999998,"ADDRESS":"內庄１７２號之８","OBJECTID":272698},"geometry":{"x":184730.05999999959,"y":2557413.3000000026}},{"attributes":{"ID":272704,"DIS_CODE":0,"TOWNNAME":"佳里區","LI":"建南里","LIN":"7鄰","STREET":"建南街","SECT":" ","MAREA":" ","LANE":"１７９巷","ALLEY":" ","HOUSE_NO":"３號","E_COORD97":165677.44,"N_COORD97":2562186.5099999998,"ADDRESS":"建南街１７９巷３號","OBJECTID":272699},"geometry":{"x":165677.44000000041,"y":2562186.5100000016}},{"attributes":{"ID":272705,"DIS_CODE":0,"TOWNNAME":"佳里區","LI":"建南里","LIN":"7鄰","STREET":"建南街","SECT":" ","MAREA":" ","LANE":"１７９巷","ALLEY":" ","HOUSE_NO":"４號","E_COORD97":165676.32000000001,"N_COORD97":2562209.4900000002,"ADDRESS":"建南街１７９巷４號","OBJECTID":272700},"geometry":{"x":165676.3200000003,"y":2562209.4900000002}},{"attributes":{"ID":272706,"DIS_CODE":0,"TOWNNAME":"歸仁區","LI":"媽廟里","LIN":"1鄰","STREET":"媽廟一街","SECT":" ","MAREA":" ","LANE":"７２巷","ALLEY":" ","HOUSE_NO":"７７號","E_COORD97":177021.12,"N_COORD97":2543412.7200000002,"ADDRESS":"媽廟一街７２巷７７號","OBJECTID":272701},"geometry":{"x":177021.12000000104,"y":2543412.7200000007}},{"attributes":{"ID":272707,"DIS_CODE":0,"TOWNNAME":"歸仁區","LI":"崙頂里","LIN":"21鄰","STREET":"大成路","SECT":" ","MAREA":" ","LANE":"１８２巷","ALLEY":" ","HOUSE_NO":"９號","E_COORD97":177734.22,"N_COORD97":2540135.25,"ADDRESS":"大成路１８２巷９號","OBJECTID":272702},"geometry":{"x":177734.22000000067,"y":2540135.2500000019}},{"attributes":{"ID":272708,"DIS_CODE":0,"TOWNNAME":"歸仁區","LI":"許厝里","LIN":"14鄰","STREET":"中山路","SECT":"一段","MAREA":" ","LANE":"３８２巷","ALLEY":" ","HOUSE_NO":"３２號","E_COORD97":178146.20000000001,"N_COORD97":2540796.27,"ADDRESS":"中山路一段３８２巷３２號","OBJECTID":272703},"geometry":{"x":178146.20000000112,"y":2540796.2699999996}},{"attributes":{"ID":272709,"DIS_CODE":0,"TOWNNAME":"白河區","LI":"永安里","LIN":"15鄰","STREET":"三民路","SECT":" ","MAREA":" ","LANE":" ","ALLEY":" ","HOUSE_NO":"４９９號","E_COORD97":189791.42999999999,"N_COORD97":2583476.7200000002,"ADDRESS":"三民路４９９號","OBJECTID":272704},"geometry":{"x":189791.42999999877,"y":2583476.7200000007}},{"attributes":{"ID":272710,"DIS_CODE":0,"TOWNNAME":"大內區","LI":"曲溪里","LIN":"3鄰","STREET":" ","SECT":" ","MAREA":"二重溪","LANE":" ","ALLEY":" ","HOUSE_NO":"３４之２號","E_COORD97":187771.89000000001,"N_COORD97":2557372.3100000001,"ADDRESS":"二重溪３４之２號","OBJECTID":272705},"geometry":{"x":187771.8900000006,"y":2557372.3100000024}},{"attributes":{"ID":272711,"DIS_CODE":0,"TOWNNAME":"大內區","LI":"曲溪里","LIN":"3鄰","STREET":" ","SECT":" ","MAREA":"二重溪","LANE":" ","ALLEY":" ","HOUSE_NO":"３２號","E_COORD97":187399.09,"N_COORD97":2557536.3100000001,"ADDRESS":"二重溪３２號","OBJECTID":272706},"geometry":{"x":187399.09000000078,"y":2557536.3100000005}},{"attributes":{"ID":272712,"DIS_CODE":0,"TOWNNAME":"大內區","LI":"石城里","LIN":"3鄰","STREET":" ","SECT":" ","MAREA":"石子瀨","LANE":" ","ALLEY":" ","HOUSE_NO":"２６之５號","E_COORD97":184448.32000000001,"N_COORD97":2558023.2999999998,"ADDRESS":"石子瀨２６之５號","OBJECTID":272707},"geometry":{"x":184448.32000000123,"y":2558023.3000000026}},{"attributes":{"ID":272713,"DIS_CODE":0,"TOWNNAME":"大內區","LI":"石湖里","LIN":"3鄰","STREET":" ","SECT":" ","MAREA":"石子瀨","LANE":" ","ALLEY":" ","HOUSE_NO":"２５５號","E_COORD97":184046.67000000001,"N_COORD97":2558389.25,"ADDRESS":"石子瀨２５５號","OBJECTID":272708},"geometry":{"x":184046.66999999993,"y":2558389.2500000019}},{"attributes":{"ID":272714,"DIS_CODE":0,"TOWNNAME":"歸仁區","LI":"許厝里","LIN":"14鄰","STREET":"中山路","SECT":"一段","MAREA":" ","LANE":"３８２巷","ALLEY":" ","HOUSE_NO":"２５號","E_COORD97":178145.10000000001,"N_COORD97":2540768.27,"ADDRESS":"中山路一段３８２巷２５號","OBJECTID":272709},"geometry":{"x":178145.10000000056,"y":2540768.2700000014}},{"attributes":{"ID":272715,"DIS_CODE":0,"TOWNNAME":"安南區","LI":"州北里","LIN":"7鄰","STREET":"安和路","SECT":"五段","MAREA":" ","LANE":"３３６巷","ALLEY":" ","HOUSE_NO":"６號","E_COORD97":169712.92000000001,"N_COORD97":2552190.6099999999,"ADDRESS":"安和路五段３３６巷６號","OBJECTID":272710},"geometry":{"x":169712.92000000086,"y":2552190.6100000013}},{"attributes":{"ID":272716,"DIS_CODE":0,"TOWNNAME":"安南區","LI":"州北里","LIN":"7鄰","STREET":"安和路","SECT":"五段","MAREA":" ","LANE":"３３６巷","ALLEY":" ","HOUSE_NO":"７號","E_COORD97":169708.59,"N_COORD97":2552223.02,"ADDRESS":"安和路五段３３６巷７號","OBJECTID":272711},"geometry":{"x":169708.58999999985,"y":2552223.0200000014}},{"attributes":{"ID":272717,"DIS_CODE":0,"TOWNNAME":"安南區","LI":"州北里","LIN":"7鄰","STREET":"安和路","SECT":"五段","MAREA":" ","LANE":"３３６巷","ALLEY":" ","HOUSE_NO":"８號","E_COORD97":169717.42999999999,"N_COORD97":2552191.5099999998,"ADDRESS":"安和路五段３３６巷８號","OBJECTID":272712},"geometry":{"x":169717.43000000063,"y":2552191.5100000035}},{"attributes":{"ID":272718,"DIS_CODE":0,"TOWNNAME":"安南區","LI":"州北里","LIN":"7鄰","STREET":"安和路","SECT":"五段","MAREA":" ","LANE":"３３６巷","ALLEY":" ","HOUSE_NO":"９號","E_COORD97":169712.51999999999,"N_COORD97":2552224.5899999999,"ADDRESS":"安和路五段３３６巷９號","OBJECTID":272713},"geometry":{"x":169712.51999999955,"y":2552224.589999998}},{"attributes":{"ID":272719,"DIS_CODE":0,"TOWNNAME":"安南區","LI":"佃西里","LIN":"7鄰","STREET":"公學路","SECT":"四段","MAREA":" ","LANE":"２５７巷","ALLEY":" ","HOUSE_NO":"２３號","E_COORD97":165533.04999999999,"N_COORD97":2551832.02,"ADDRESS":"公學路四段２５７巷２３號","OBJECTID":272714},"geometry":{"x":165533.05000000075,"y":2551832.0200000014}},{"attributes":{"ID":272720,"DIS_CODE":0,"TOWNNAME":"安南區","LI":"佃西里","LIN":"7鄰","STREET":"公學路","SECT":"四段","MAREA":" ","LANE":"２５７巷","ALLEY":" ","HOUSE_NO":"１５號","E_COORD97":165515.89999999999,"N_COORD97":2551829.6600000001,"ADDRESS":"公學路四段２５７巷１５號","OBJECTID":272715},"geometry":{"x":165515.9000000013,"y":2551829.660000002}},{"attributes":{"ID":272721,"DIS_CODE":0,"TOWNNAME":"安南區","LI":"佃西里","LIN":"7鄰","STREET":"公學路","SECT":"四段","MAREA":" ","LANE":"２５７巷","ALLEY":" ","HOUSE_NO":"１７號","E_COORD97":165520.51999999999,"N_COORD97":2551825.6400000001,"ADDRESS":"公學路四段２５７巷１７號","OBJECTID":272716},"geometry":{"x":165520.51999999955,"y":2551825.6400000025}},{"attributes":{"ID":272722,"DIS_CODE":0,"TOWNNAME":"安南區","LI":"佃西里","LIN":"7鄰","STREET":"公學路","SECT":"四段","MAREA":" ","LANE":"２５７巷","ALLEY":" ","HOUSE_NO":"１９號","E_COORD97":165527.73000000001,"N_COORD97":2551825.0499999998,"ADDRESS":"公學路四段２５７巷１９號","OBJECTID":272717},"geometry":{"x":165527.73000000138,"y":2551825.0500000007}},{"attributes":{"ID":272723,"DIS_CODE":0,"TOWNNAME":"安南區","LI":"佃西里","LIN":"7鄰","STREET":"公學路","SECT":"四段","MAREA":" ","LANE":"２５７巷","ALLEY":" ","HOUSE_NO":"２１號","E_COORD97":165532.82000000001,"N_COORD97":2551822.6899999999,"ADDRESS":"公學路四段２５７巷２１號","OBJECTID":272718},"geometry":{"x":165532.8200000003,"y":2551822.6899999995}},{"attributes":{"ID":272724,"DIS_CODE":0,"TOWNNAME":"安南區","LI":"佃西里","LIN":"7鄰","STREET":"公學路","SECT":"四段","MAREA":" ","LANE":"２５７巷","ALLEY":" ","HOUSE_NO":"２５號","E_COORD97":165533.76000000001,"N_COORD97":2551836.6299999999,"ADDRESS":"公學路四段２５７巷２５號","OBJECTID":272719},"geometry":{"x":165533.75999999978,"y":2551836.629999999}},{"attributes":{"ID":272725,"DIS_CODE":0,"TOWNNAME":"安南區","LI":"佃西里","LIN":"7鄰","STREET":"公學路","SECT":"四段","MAREA":" ","LANE":"２５７巷","ALLEY":" ","HOUSE_NO":"２７號","E_COORD97":165534.82999999999,"N_COORD97":2551842.77,"ADDRESS":"公學路四段２５７巷２７號","OBJECTID":272720},"geometry":{"x":165534.83000000101,"y":2551842.7699999996}},{"attributes":{"ID":272726,"DIS_CODE":0,"TOWNNAME":"安南區","LI":"佃西里","LIN":"7鄰","STREET":"公學路","SECT":"四段","MAREA":" ","LANE":"２５７巷","ALLEY":" ","HOUSE_NO":"３３號","E_COORD97":165554.34,"N_COORD97":2551838.3300000001,"ADDRESS":"公學路四段２５７巷３３號","OBJECTID":272721},"geometry":{"x":165554.33999999985,"y":2551838.3300000019}},{"attributes":{"ID":272727,"DIS_CODE":0,"TOWNNAME":"安南區","LI":"佃西里","LIN":"7鄰","STREET":"公學路","SECT":"四段","MAREA":" ","LANE":"２５７巷","ALLEY":" ","HOUSE_NO":"３５號","E_COORD97":165550.32000000001,"N_COORD97":2551834.6600000001,"ADDRESS":"公學路四段２５７巷３５號","OBJECTID":272722},"geometry":{"x":165550.32000000123,"y":2551834.6600000039}},{"attributes":{"ID":272728,"DIS_CODE":0,"TOWNNAME":"大內區","LI":"二溪里","LIN":"3鄰","STREET":" ","SECT":" ","MAREA":"二重溪","LANE":" ","ALLEY":" ","HOUSE_NO":"１５４號之３４","E_COORD97":188993.14999999999,"N_COORD97":2557658.3100000001,"ADDRESS":"二重溪１５４號之３４","OBJECTID":272723},"geometry":{"x":188993.1500000013,"y":2557658.3100000005}},{"attributes":{"ID":272729,"DIS_CODE":0,"TOWNNAME":"中西區","LI":"協進里","LIN":"6鄰","STREET":"西寧街","SECT":" ","MAREA":" ","LANE":" ","ALLEY":" ","HOUSE_NO":"８４號","E_COORD97":167014.41,"N_COORD97":2544249.29,"ADDRESS":"西寧街８４號","OBJECTID":272724},"geometry":{"x":167014.41000000108,"y":2544249.290000001}},{"attributes":{"ID":272730,"DIS_CODE":0,"TOWNNAME":"麻豆區","LI":"大埕里","LIN":"13鄰","STREET":"平等路","SECT":" ","MAREA":" ","LANE":" ","ALLEY":" ","HOUSE_NO":"７７號","E_COORD97":173035.82999999999,"N_COORD97":2565100.5699999998,"ADDRESS":"平等路７７號","OBJECTID":272725},"geometry":{"x":173035.83000000101,"y":2565100.5700000003}},{"attributes":{"ID":272731,"DIS_CODE":0,"TOWNNAME":"善化區","LI":"光文里","LIN":" ","STREET":"建業路","SECT":" ","MAREA":" ","LANE":" ","ALLEY":" ","HOUSE_NO":"１４０號","E_COORD97":178810.88,"N_COORD97":2559772.5299999998,"ADDRESS":"建業路１４０號","OBJECTID":272726},"geometry":{"x":178810.88000000082,"y":2559772.5300000012}},{"attributes":{"ID":272732,"DIS_CODE":0,"TOWNNAME":"善化區","LI":"文正里","LIN":"13鄰","STREET":"中山路","SECT":" ","MAREA":" ","LANE":" ","ALLEY":" ","HOUSE_NO":"５７０號","E_COORD97":176691.03,"N_COORD97":2559207,"ADDRESS":"中山路５７０號","OBJECTID":272727},"geometry":{"x":176691.03000000212,"y":2559207.0000000019}},{"attributes":{"ID":272733,"DIS_CODE":0,"TOWNNAME":"善化區","LI":"文正里","LIN":"13鄰","STREET":"中山路","SECT":" ","MAREA":" ","LANE":" ","ALLEY":" ","HOUSE_NO":"５７０號之３","E_COORD97":176741.13,"N_COORD97":2559214.02,"ADDRESS":"中山路５７０號之３","OBJECTID":272728},"geometry":{"x":176741.13000000082,"y":2559214.0200000014}},{"attributes":{"ID":272734,"DIS_CODE":0,"TOWNNAME":"善化區","LI":"光文里","LIN":"24鄰","STREET":"信義路","SECT":" ","MAREA":" ","LANE":" ","ALLEY":" ","HOUSE_NO":"１９０號","E_COORD97":178221.37,"N_COORD97":2559195.5,"ADDRESS":"信義路１９０號","OBJECTID":272729},"geometry":{"x":178221.37000000104,"y":2559195.5}},{"attributes":{"ID":272735,"DIS_CODE":0,"TOWNNAME":"善化區","LI":"文昌里","LIN":"14鄰","STREET":"新興街","SECT":" ","MAREA":" ","LANE":" ","ALLEY":" ","HOUSE_NO":"１５號","E_COORD97":177596.97,"N_COORD97":2558955,"ADDRESS":"新興街１５號","OBJECTID":272730},"geometry":{"x":177596.96999999974,"y":2558955}},{"attributes":{"ID":272736,"DIS_CODE":0,"TOWNNAME":"安南區","LI":"佃西里","LIN":"7鄰","STREET":"公學路","SECT":"四段","MAREA":" ","LANE":"２５７巷","ALLEY":" ","HOUSE_NO":"３７號","E_COORD97":165551.51000000001,"N_COORD97":2551828.9900000002,"ADDRESS":"公學路四段２５７巷３７號","OBJECTID":272731},"geometry":{"x":165551.51000000164,"y":2551828.9899999984}},{"attributes":{"ID":272737,"DIS_CODE":0,"TOWNNAME":"安南區","LI":"佃西里","LIN":"7鄰","STREET":"公學路","SECT":"四段","MAREA":" ","LANE":"２５７巷","ALLEY":" ","HOUSE_NO":"３９號","E_COORD97":165548.31,"N_COORD97":2551821.2000000002,"ADDRESS":"公學路四段２５７巷３９號","OBJECTID":272732},"geometry":{"x":165548.31000000052,"y":2551821.2000000011}},{"attributes":{"ID":272738,"DIS_CODE":0,"TOWNNAME":"安南區","LI":"佃西里","LIN":"7鄰","STREET":"公學路","SECT":"四段","MAREA":" ","LANE":"２５７巷","ALLEY":" ","HOUSE_NO":"４１號","E_COORD97":165550.79999999999,"N_COORD97":2551819.0699999998,"ADDRESS":"公學路四段２５７巷４１號","OBJECTID":272733},"geometry":{"x":165550.79999999981,"y":2551819.0700000022}},{"attributes":{"ID":272739,"DIS_CODE":0,"TOWNNAME":"安南區","LI":"佃西里","LIN":"7鄰","STREET":"海佃路","SECT":"四段","MAREA":" ","LANE":"３８８巷","ALLEY":" ","HOUSE_NO":"１０１號","E_COORD97":165585.29999999999,"N_COORD97":2551850.3199999998,"ADDRESS":"海佃路四段３８８巷１０１號","OBJECTID":272734},"geometry":{"x":165585.30000000168,"y":2551850.3200000003}},{"attributes":{"ID":272740,"DIS_CODE":0,"TOWNNAME":"安南區","LI":"佃西里","LIN":"7鄰","STREET":"海佃路","SECT":"四段","MAREA":" ","LANE":"３８８巷","ALLEY":" ","HOUSE_NO":"４５號","E_COORD97":165580.01000000001,"N_COORD97":2551666.7799999998,"ADDRESS":"海佃路四段３８８巷４５號","OBJECTID":272735},"geometry":{"x":165580.00999999978,"y":2551666.7799999975}},{"attributes":{"ID":272741,"DIS_CODE":0,"TOWNNAME":"安南區","LI":"佃西里","LIN":"7鄰","STREET":"海佃路","SECT":"四段","MAREA":" ","LANE":"３８８巷","ALLEY":" ","HOUSE_NO":"４７號","E_COORD97":165582.12,"N_COORD97":2551675.6400000001,"ADDRESS":"海佃路四段３８８巷４７號","OBJECTID":272736},"geometry":{"x":165582.12000000104,"y":2551675.6400000006}},{"attributes":{"ID":272742,"DIS_CODE":0,"TOWNNAME":"安南區","LI":"佃西里","LIN":"7鄰","STREET":"海佃路","SECT":"四段","MAREA":" ","LANE":"３８８巷","ALLEY":" ","HOUSE_NO":"４９號","E_COORD97":165584.70000000001,"N_COORD97":2551683.75,"ADDRESS":"海佃路四段３８８巷４９號","OBJECTID":272737},"geometry":{"x":165584.70000000205,"y":2551683.75}},{"attributes":{"ID":272743,"DIS_CODE":0,"TOWNNAME":"歸仁區","LI":"歸南里","LIN":"25鄰","STREET":"民生十街","SECT":" ","MAREA":" ","LANE":"８巷","ALLEY":" ","HOUSE_NO":"７號","E_COORD97":176079.95999999999,"N_COORD97":2540229.25,"ADDRESS":"民生十街８巷７號","OBJECTID":272738},"geometry":{"x":176079.96000000089,"y":2540229.2500000019}},{"attributes":{"ID":272744,"DIS_CODE":0,"TOWNNAME":"安南區","LI":"佃西里","LIN":"7鄰","STREET":"海佃路","SECT":"四段","MAREA":" ","LANE":"３８８巷","ALLEY":" ","HOUSE_NO":"６９號","E_COORD97":165581.60000000001,"N_COORD97":2551754.71,"ADDRESS":"海佃路四段３８８巷６９號","OBJECTID":272739},"geometry":{"x":165581.60000000056,"y":2551754.7100000028}},{"attributes":{"ID":272745,"DIS_CODE":0,"TOWNNAME":"安南區","LI":"佃西里","LIN":"7鄰","STREET":"海佃路","SECT":"四段","MAREA":" ","LANE":"３８８巷","ALLEY":" ","HOUSE_NO":"７１號","E_COORD97":165582.12,"N_COORD97":2551760.6600000001,"ADDRESS":"海佃路四段３８８巷７１號","OBJECTID":272740},"geometry":{"x":165582.12000000104,"y":2551760.660000002}},{"attributes":{"ID":272746,"DIS_CODE":0,"TOWNNAME":"安南區","LI":"佃西里","LIN":"7鄰","STREET":"海佃路","SECT":"四段","MAREA":" ","LANE":"３８８巷","ALLEY":" ","HOUSE_NO":"７７號","E_COORD97":165581.45999999999,"N_COORD97":2551774.4100000001,"ADDRESS":"海佃路四段３８８巷７７號","OBJECTID":272741},"geometry":{"x":165581.46000000089,"y":2551774.4100000001}},{"attributes":{"ID":272747,"DIS_CODE":0,"TOWNNAME":"安南區","LI":"佃西里","LIN":"7鄰","STREET":"海佃路","SECT":"四段","MAREA":" ","LANE":"３８８巷","ALLEY":" ","HOUSE_NO":"８３號","E_COORD97":165583.98000000001,"N_COORD97":2551791.0099999998,"ADDRESS":"海佃路四段３８８巷８３號","OBJECTID":272742},"geometry":{"x":165583.98000000045,"y":2551791.0099999998}},{"attributes":{"ID":272748,"DIS_CODE":0,"TOWNNAME":"安南區","LI":"佃西里","LIN":"7鄰","STREET":"海佃路","SECT":"四段","MAREA":" ","LANE":"３８８巷","ALLEY":" ","HOUSE_NO":"８５號","E_COORD97":165583.70999999999,"N_COORD97":2551796.7000000002,"ADDRESS":"海佃路四段３８８巷８５號","OBJECTID":272743},"geometry":{"x":165583.70999999996,"y":2551796.7000000011}},{"attributes":{"ID":272749,"DIS_CODE":0,"TOWNNAME":"安南區","LI":"佃西里","LIN":"7鄰","STREET":"海佃路","SECT":"四段","MAREA":" ","LANE":"３８８巷","ALLEY":" ","HOUSE_NO":"８５號之１","E_COORD97":165583.57999999999,"N_COORD97":2551800.3999999999,"ADDRESS":"海佃路四段３８８巷８５號之１","OBJECTID":272744},"geometry":{"x":165583.58000000194,"y":2551800.4000000022}},{"attributes":{"ID":272750,"DIS_CODE":0,"TOWNNAME":"安南區","LI":"佃西里","LIN":"7鄰","STREET":"海佃路","SECT":"四段","MAREA":" ","LANE":"３８８巷","ALLEY":" ","HOUSE_NO":"８７號","E_COORD97":165583.45000000001,"N_COORD97":2551810.98,"ADDRESS":"海佃路四段３８８巷８７號","OBJECTID":272745},"geometry":{"x":165583.45000000112,"y":2551810.9800000004}},{"attributes":{"ID":272751,"DIS_CODE":0,"TOWNNAME":"安南區","LI":"佃西里","LIN":"7鄰","STREET":"海佃路","SECT":"四段","MAREA":" ","LANE":"３８８巷","ALLEY":" ","HOUSE_NO":"９１號","E_COORD97":165581.20000000001,"N_COORD97":2551819.9700000002,"ADDRESS":"海佃路四段３８８巷９１號","OBJECTID":272746},"geometry":{"x":165581.20000000205,"y":2551819.9700000025}},{"attributes":{"ID":272752,"DIS_CODE":0,"TOWNNAME":"安南區","LI":"佃西里","LIN":"7鄰","STREET":"海佃路","SECT":"四段","MAREA":" ","LANE":"３８８巷","ALLEY":" ","HOUSE_NO":"９５號","E_COORD97":165581.73000000001,"N_COORD97":2551831.2799999998,"ADDRESS":"海佃路四段３８８巷９５號","OBJECTID":272747},"geometry":{"x":165581.73000000138,"y":2551831.2800000012}},{"attributes":{"ID":272753,"DIS_CODE":0,"TOWNNAME":"歸仁區","LI":"歸南里","LIN":"15鄰","STREET":"民生十一街","SECT":" ","MAREA":" ","LANE":"３１巷","ALLEY":" ","HOUSE_NO":"１３號","E_COORD97":176168.70999999999,"N_COORD97":2539766.25,"ADDRESS":"民生十一街３１巷１３號","OBJECTID":272748},"geometry":{"x":176168.70999999996,"y":2539766.25}},{"attributes":{"ID":272754,"DIS_CODE":0,"TOWNNAME":"東區","LI":"崇學里","LIN":"7鄰","STREET":"崇善路","SECT":" ","MAREA":" ","LANE":"１８２巷","ALLEY":" ","HOUSE_NO":"３號","E_COORD97":170569.72,"N_COORD97":2542140.0099999998,"ADDRESS":"崇善路１８２巷３號","OBJECTID":272749},"geometry":{"x":170569.72000000067,"y":2542140.0100000016}},{"attributes":{"ID":272755,"DIS_CODE":0,"TOWNNAME":"東區","LI":"成大里","LIN":"7鄰","STREET":"民族路","SECT":"一段","MAREA":" ","LANE":"４１巷","ALLEY":" ","HOUSE_NO":"１號","E_COORD97":169453.34,"N_COORD97":2543848.48,"ADDRESS":"民族路一段４１巷１號","OBJECTID":272750},"geometry":{"x":169453.33999999892,"y":2543848.4800000042}},{"attributes":{"ID":272756,"DIS_CODE":0,"TOWNNAME":"東區","LI":"成大里","LIN":"7鄰","STREET":"民族路","SECT":"一段","MAREA":" ","LANE":"４１巷","ALLEY":" ","HOUSE_NO":"２號","E_COORD97":169460.60999999999,"N_COORD97":2543854.2400000002,"ADDRESS":"民族路一段４１巷２號","OBJECTID":272751},"geometry":{"x":169460.6100000022,"y":2543854.2400000021}},{"attributes":{"ID":272757,"DIS_CODE":0,"TOWNNAME":"東區","LI":"成大里","LIN":"7鄰","STREET":"民族路","SECT":"一段","MAREA":" ","LANE":"４１巷","ALLEY":" ","HOUSE_NO":"３號","E_COORD97":169452.92000000001,"N_COORD97":2543840.5899999999,"ADDRESS":"民族路一段４１巷３號","OBJECTID":272752},"geometry":{"x":169452.92000000179,"y":2543840.5900000036}},{"attributes":{"ID":272758,"DIS_CODE":0,"TOWNNAME":"善化區","LI":"文昌里","LIN":"20鄰","STREET":"中正路","SECT":" ","MAREA":" ","LANE":" ","ALLEY":" ","HOUSE_NO":"１９６號","E_COORD97":177714.39000000001,"N_COORD97":2558262,"ADDRESS":"中正路１９６號","OBJECTID":272753},"geometry":{"x":177714.38999999966,"y":2558262.0000000019}},{"attributes":{"ID":272759,"DIS_CODE":0,"TOWNNAME":"善化區","LI":"文正里","LIN":"13鄰","STREET":"中山路","SECT":" ","MAREA":" ","LANE":" ","ALLEY":" ","HOUSE_NO":"５５６號","E_COORD97":176833.31,"N_COORD97":2559286.25,"ADDRESS":"中山路５５６號","OBJECTID":272754},"geometry":{"x":176833.31000000052,"y":2559286.2500000037}},{"attributes":{"ID":272760,"DIS_CODE":0,"TOWNNAME":"東區","LI":"成大里","LIN":"7鄰","STREET":"民族路","SECT":"一段","MAREA":" ","LANE":"４１巷","ALLEY":" ","HOUSE_NO":"４號","E_COORD97":169458.69,"N_COORD97":2543845.4900000002,"ADDRESS":"民族路一段４１巷４號","OBJECTID":272755},"geometry":{"x":169458.69000000134,"y":2543845.4900000021}},{"attributes":{"ID":272761,"DIS_CODE":0,"TOWNNAME":"安南區","LI":"安東里","LIN":"7鄰","STREET":"安和路","SECT":"一段","MAREA":" ","LANE":"２８８巷","ALLEY":" ","HOUSE_NO":"９號","E_COORD97":169334.92000000001,"N_COORD97":2548068.6299999999,"ADDRESS":"安和路一段２８８巷９號","OBJECTID":272756},"geometry":{"x":169334.92000000086,"y":2548068.6300000008}},{"attributes":{"ID":272762,"DIS_CODE":0,"TOWNNAME":"安南區","LI":"安西里","LIN":"7鄰","STREET":"安和路","SECT":"一段","MAREA":" ","LANE":"２８５巷","ALLEY":" ","HOUSE_NO":"３６號","E_COORD97":169170.49643999999,"N_COORD97":2548074.7616699999,"ADDRESS":"安和路一段２８５巷３６號","OBJECTID":272757},"geometry":{"x":169170.49644000083,"y":2548074.7616719995}},{"attributes":{"ID":272763,"DIS_CODE":0,"TOWNNAME":"安南區","LI":"安西里","LIN":"7鄰","STREET":"安和路","SECT":"一段","MAREA":" ","LANE":"３２１巷","ALLEY":" ","HOUSE_NO":"３１號","E_COORD97":169179.67999999999,"N_COORD97":2548112.0499999998,"ADDRESS":"安和路一段３２１巷３１號","OBJECTID":272758},"geometry":{"x":169179.68000000156,"y":2548112.0500000007}},{"attributes":{"ID":272764,"DIS_CODE":0,"TOWNNAME":"安南區","LI":"安西里","LIN":"7鄰","STREET":"安和路","SECT":"一段","MAREA":" ","LANE":"３２１巷","ALLEY":" ","HOUSE_NO":"４３號","E_COORD97":169139.37,"N_COORD97":2548099.9300000002,"ADDRESS":"安和路一段３２１巷４３號","OBJECTID":272759},"geometry":{"x":169139.37000000011,"y":2548099.9300000016}},{"attributes":{"ID":272765,"DIS_CODE":0,"TOWNNAME":"安南區","LI":"安西里","LIN":"7鄰","STREET":"安和路","SECT":"一段","MAREA":" ","LANE":"３２１巷","ALLEY":" ","HOUSE_NO":"５９號","E_COORD97":169094.75,"N_COORD97":2548065.54,"ADDRESS":"安和路一段３２１巷５９號","OBJECTID":272760},"geometry":{"x":169094.75000000186,"y":2548065.540000001}},{"attributes":{"ID":272766,"DIS_CODE":0,"TOWNNAME":"安南區","LI":"安西里","LIN":"7鄰","STREET":"安和路","SECT":"一段","MAREA":" ","LANE":"３２１巷","ALLEY":" ","HOUSE_NO":"７８號","E_COORD97":169084.19,"N_COORD97":2548105.0099999998,"ADDRESS":"安和路一段３２１巷７８號","OBJECTID":272761},"geometry":{"x":169084.19000000134,"y":2548105.0099999998}},{"attributes":{"ID":272767,"DIS_CODE":0,"TOWNNAME":"安南區","LI":"安東里","LIN":"7鄰","STREET":"安和路","SECT":"一段","MAREA":" ","LANE":"２８８巷","ALLEY":" ","HOUSE_NO":"１３號","E_COORD97":169342.95000000001,"N_COORD97":2548071.6600000001,"ADDRESS":"安和路一段２８８巷１３號","OBJECTID":272762},"geometry":{"x":169342.95000000205,"y":2548071.6600000039}},{"attributes":{"ID":272768,"DIS_CODE":0,"TOWNNAME":"安南區","LI":"溪頂里","LIN":"3鄰","STREET":"府安路","SECT":"四段","MAREA":" ","LANE":" ","ALLEY":" ","HOUSE_NO":"１１０號","E_COORD97":169034.42000000001,"N_COORD97":2547272.6200000001,"ADDRESS":"府安路四段１１０號","OBJECTID":272763},"geometry":{"x":169034.42000000086,"y":2547272.6200000048}},{"attributes":{"ID":272769,"DIS_CODE":0,"TOWNNAME":"安南區","LI":"溪頂里","LIN":"3鄰","STREET":"府安路","SECT":"四段","MAREA":" ","LANE":" ","ALLEY":" ","HOUSE_NO":"１１１號","E_COORD97":169030.32999999999,"N_COORD97":2547272.9399999999,"ADDRESS":"府安路四段１１１號","OBJECTID":272764},"geometry":{"x":169030.33000000101,"y":2547272.9400000013}},{"attributes":{"ID":272770,"DIS_CODE":0,"TOWNNAME":"安南區","LI":"溪頂里","LIN":"3鄰","STREET":"府安路","SECT":"四段","MAREA":" ","LANE":" ","ALLEY":" ","HOUSE_NO":"１１２號","E_COORD97":169026.23999999999,"N_COORD97":2547273.3700000001,"ADDRESS":"府安路四段１１２號","OBJECTID":272765},"geometry":{"x":169026.24000000115,"y":2547273.370000001}},{"attributes":{"ID":272771,"DIS_CODE":0,"TOWNNAME":"安南區","LI":"溪頂里","LIN":"3鄰","STREET":"府安路","SECT":"四段","MAREA":" ","LANE":" ","ALLEY":" ","HOUSE_NO":"１１３號","E_COORD97":169022.25,"N_COORD97":2547272.9399999999,"ADDRESS":"府安路四段１１３號","OBJECTID":272766},"geometry":{"x":169022.25000000093,"y":2547272.9400000013}},{"attributes":{"ID":272772,"DIS_CODE":0,"TOWNNAME":"麻豆區","LI":"東角里","LIN":"3鄰","STREET":"忠孝路","SECT":" ","MAREA":" ","LANE":" ","ALLEY":" ","HOUSE_NO":"４０號","E_COORD97":173585.45000000001,"N_COORD97":2564977.8599999999,"ADDRESS":"忠孝路４０號","OBJECTID":272767},"geometry":{"x":173585.45000000019,"y":2564977.8600000013}},{"attributes":{"ID":272773,"DIS_CODE":0,"TOWNNAME":"麻豆區","LI":"大埕里","LIN":"3鄰","STREET":"忠孝路","SECT":" ","MAREA":" ","LANE":" ","ALLEY":" ","HOUSE_NO":"８號之１０","E_COORD97":173126.06,"N_COORD97":2564977.4700000002,"ADDRESS":"忠孝路８號之１０","OBJECTID":272768},"geometry":{"x":173126.05999999959,"y":2564977.4699999988}},{"attributes":{"ID":272774,"DIS_CODE":0,"TOWNNAME":"麻豆區","LI":"大埕里","LIN":"3鄰","STREET":"忠孝路","SECT":" ","MAREA":" ","LANE":" ","ALLEY":" ","HOUSE_NO":"８號之１１","E_COORD97":173120.32999999999,"N_COORD97":2564979.25,"ADDRESS":"忠孝路８號之１１","OBJECTID":272769},"geometry":{"x":173120.32999999914,"y":2564979.2500000019}},{"attributes":{"ID":272775,"DIS_CODE":0,"TOWNNAME":"東山區","LI":"科里里","LIN":"17鄰","STREET":" ","SECT":" ","MAREA":"枋子林","LANE":" ","ALLEY":" ","HOUSE_NO":"６２號","E_COORD97":188169.64241900001,"N_COORD97":2576842.1947599999,"ADDRESS":"枋子林６２號","OBJECTID":272770},"geometry":{"x":188169.64241900109,"y":2576842.1947600022}},{"attributes":{"ID":272776,"DIS_CODE":0,"TOWNNAME":"安南區","LI":"安東里","LIN":"7鄰","STREET":"安和路","SECT":"一段","MAREA":" ","LANE":"２８８巷","ALLEY":" ","HOUSE_NO":"１３號之１","E_COORD97":169345.98999999999,"N_COORD97":2548074.8399999999,"ADDRESS":"安和路一段２８８巷１３號之１","OBJECTID":272771},"geometry":{"x":169345.99000000209,"y":2548074.8400000017}},{"attributes":{"ID":272777,"DIS_CODE":0,"TOWNNAME":"安南區","LI":"安西里","LIN":"7鄰","STREET":"安和路","SECT":"一段","MAREA":" ","LANE":"３２１巷","ALLEY":" ","HOUSE_NO":"６１號","E_COORD97":169093.19,"N_COORD97":2548081.1699999999,"ADDRESS":"安和路一段３２１巷６１號","OBJECTID":272772},"geometry":{"x":169093.19000000041,"y":2548081.1700000037}},{"attributes":{"ID":272778,"DIS_CODE":0,"TOWNNAME":"安南區","LI":"溪北里","LIN":"7鄰","STREET":"安和路","SECT":"一段","MAREA":" ","LANE":"１５巷","ALLEY":" ","HOUSE_NO":"３５號","E_COORD97":169459.17000000001,"N_COORD97":2547347.4300000002,"ADDRESS":"安和路一段１５巷３５號","OBJECTID":272773},"geometry":{"x":169459.16999999993,"y":2547347.4300000016}},{"attributes":{"ID":272779,"DIS_CODE":0,"TOWNNAME":"安南區","LI":"溪北里","LIN":"7鄰","STREET":"安和路","SECT":"一段","MAREA":" ","LANE":"１５巷","ALLEY":" ","HOUSE_NO":"２３號","E_COORD97":169491.44,"N_COORD97":2547355.1499999999,"ADDRESS":"安和路一段１５巷２３號","OBJECTID":272774},"geometry":{"x":169491.44000000134,"y":2547355.1500000004}},{"attributes":{"ID":272780,"DIS_CODE":0,"TOWNNAME":"安南區","LI":"溪北里","LIN":"7鄰","STREET":"安和路","SECT":"一段","MAREA":" ","LANE":"１５巷","ALLEY":" ","HOUSE_NO":"２４號","E_COORD97":169479.62,"N_COORD97":2547379.4100000001,"ADDRESS":"安和路一段１５巷２４號","OBJECTID":272775},"geometry":{"x":169479.62000000104,"y":2547379.410000002}},{"attributes":{"ID":272781,"DIS_CODE":0,"TOWNNAME":"安南區","LI":"溪北里","LIN":"7鄰","STREET":"安和路","SECT":"一段","MAREA":" ","LANE":"１５巷","ALLEY":" ","HOUSE_NO":"２５號","E_COORD97":169485.78,"N_COORD97":2547354.75,"ADDRESS":"安和路一段１５巷２５號","OBJECTID":272776},"geometry":{"x":169485.78000000026,"y":2547354.75}},{"attributes":{"ID":272782,"DIS_CODE":0,"TOWNNAME":"麻豆區","LI":"大埕里","LIN":"3鄰","STREET":"忠孝路","SECT":" ","MAREA":" ","LANE":" ","ALLEY":" ","HOUSE_NO":"８號之１２","E_COORD97":173169.97,"N_COORD97":2564976.5600000001,"ADDRESS":"忠孝路８號之１２","OBJECTID":272777},"geometry":{"x":173169.9700000016,"y":2564976.5600000005}},{"attributes":{"ID":272783,"DIS_CODE":0,"TOWNNAME":"安南區","LI":"溪北里","LIN":"7鄰","STREET":"安和路","SECT":"一段","MAREA":" ","LANE":"１５巷","ALLEY":" ","HOUSE_NO":"２６號","E_COORD97":169475.48000000001,"N_COORD97":2547376.1000000001,"ADDRESS":"安和路一段１５巷２６號","OBJECTID":272778},"geometry":{"x":169475.48000000138,"y":2547376.0999999978}},{"attributes":{"ID":272784,"DIS_CODE":0,"TOWNNAME":"安南區","LI":"溪北里","LIN":"7鄰","STREET":"安和路","SECT":"一段","MAREA":" ","LANE":"１５巷","ALLEY":" ","HOUSE_NO":"２７號","E_COORD97":169480.76000000001,"N_COORD97":2547352.9500000002,"ADDRESS":"安和路一段１５巷２７號","OBJECTID":272779},"geometry":{"x":169480.75999999978,"y":2547352.9499999974}},{"attributes":{"ID":272785,"DIS_CODE":0,"TOWNNAME":"麻豆區","LI":"大埕里","LIN":"3鄰","STREET":"忠孝路","SECT":" ","MAREA":" ","LANE":" ","ALLEY":" ","HOUSE_NO":"８號之５","E_COORD97":173143.95999999999,"N_COORD97":2564975.4300000002,"ADDRESS":"忠孝路８號之５","OBJECTID":272780},"geometry":{"x":173143.96000000089,"y":2564975.4299999997}},{"attributes":{"ID":272786,"DIS_CODE":0,"TOWNNAME":"安南區","LI":"溪北里","LIN":"7鄰","STREET":"安和路","SECT":"一段","MAREA":" ","LANE":"１５巷","ALLEY":" ","HOUSE_NO":"２８號","E_COORD97":169467.35999999999,"N_COORD97":2547371.9399999999,"ADDRESS":"安和路一段１５巷２８號","OBJECTID":272781},"geometry":{"x":169467.3600000022,"y":2547371.9400000013}},{"attributes":{"ID":272787,"DIS_CODE":0,"TOWNNAME":"安南區","LI":"溪北里","LIN":"7鄰","STREET":"安和路","SECT":"一段","MAREA":" ","LANE":"１５巷","ALLEY":" ","HOUSE_NO":"２９號","E_COORD97":169474.53,"N_COORD97":2547351.3399999999,"ADDRESS":"安和路一段１５巷２９號","OBJECTID":272782},"geometry":{"x":169474.53000000212,"y":2547351.3400000036}},{"attributes":{"ID":272788,"DIS_CODE":0,"TOWNNAME":"安南區","LI":"溪北里","LIN":"7鄰","STREET":"安和路","SECT":"一段","MAREA":" ","LANE":"１５巷","ALLEY":" ","HOUSE_NO":"３０號","E_COORD97":169457.78,"N_COORD97":2547369.2799999998,"ADDRESS":"安和路一段１５巷３０號","OBJECTID":272783},"geometry":{"x":169457.78000000212,"y":2547369.2800000012}},{"attributes":{"ID":272789,"DIS_CODE":0,"TOWNNAME":"歸仁區","LI":"媽廟里","LIN":"4鄰","STREET":"和順路","SECT":"一段","MAREA":" ","LANE":"１１巷","ALLEY":" ","HOUSE_NO":"３２號","E_COORD97":177467.72,"N_COORD97":2543646.7200000002,"ADDRESS":"和順路一段１１巷３２號","OBJECTID":272784},"geometry":{"x":177467.72000000067,"y":2543646.7200000007}},{"attributes":{"ID":272790,"DIS_CODE":0,"TOWNNAME":"安南區","LI":"溪北里","LIN":"7鄰","STREET":"安和路","SECT":"一段","MAREA":" ","LANE":"１５巷","ALLEY":" ","HOUSE_NO":"３３號","E_COORD97":169465.39000000001,"N_COORD97":2547349.3399999999,"ADDRESS":"安和路一段１５巷３３號","OBJECTID":272785},"geometry":{"x":169465.3900000006,"y":2547349.3400000017}},{"attributes":{"ID":272791,"DIS_CODE":0,"TOWNNAME":"安南區","LI":"溪北里","LIN":"7鄰","STREET":"安和路","SECT":"一段","MAREA":" ","LANE":"１５巷","ALLEY":" ","HOUSE_NO":"３７號","E_COORD97":169453.14000000001,"N_COORD97":2547346.3300000001,"ADDRESS":"安和路一段１５巷３７號","OBJECTID":272786},"geometry":{"x":169453.1400000006,"y":2547346.3300000019}},{"attributes":{"ID":272792,"DIS_CODE":0,"TOWNNAME":"安南區","LI":"溪北里","LIN":"7鄰","STREET":"安和路","SECT":"一段","MAREA":" ","LANE":"１５巷","ALLEY":" ","HOUSE_NO":"３９號","E_COORD97":169448.92000000001,"N_COORD97":2547345.2799999998,"ADDRESS":"安和路一段１５巷３９號","OBJECTID":272787},"geometry":{"x":169448.91999999993,"y":2547345.2800000012}},{"attributes":{"ID":272793,"DIS_CODE":0,"TOWNNAME":"歸仁區","LI":"許厝里","LIN":"7鄰","STREET":"仁愛八街","SECT":" ","MAREA":" ","LANE":"１７巷","ALLEY":" ","HOUSE_NO":"３號","E_COORD97":178214.85999999999,"N_COORD97":2540607.4199999999,"ADDRESS":"仁愛八街１７巷３號","OBJECTID":272788},"geometry":{"x":178214.86000000127,"y":2540607.4200000037}},{"attributes":{"ID":272794,"DIS_CODE":0,"TOWNNAME":"歸仁區","LI":"新厝里","LIN":"18鄰","STREET":"中正南路","SECT":"一段","MAREA":" ","LANE":"１５３巷","ALLEY":" ","HOUSE_NO":"６號","E_COORD97":177463.06,"N_COORD97":2540392.25,"ADDRESS":"中正南路一段１５３巷６號","OBJECTID":272789},"geometry":{"x":177463.06000000145,"y":2540392.2500000019}},{"attributes":{"ID":272795,"DIS_CODE":0,"TOWNNAME":"東山區","LI":"科里里","LIN":"17鄰","STREET":" ","SECT":" ","MAREA":"枋子林","LANE":" ","ALLEY":" ","HOUSE_NO":"６５號","E_COORD97":188156.080866,"N_COORD97":2576822.5097699999,"ADDRESS":"枋子林６５號","OBJECTID":272790},"geometry":{"x":188156.08086600062,"y":2576822.5097700022}},{"attributes":{"ID":272796,"DIS_CODE":0,"TOWNNAME":"麻豆區","LI":"北勢里","LIN":"3鄰","STREET":" ","SECT":" ","MAREA":"加輦邦","LANE":" ","ALLEY":" ","HOUSE_NO":"２４號之１","E_COORD97":173248.32999999999,"N_COORD97":2566292.3799999999,"ADDRESS":"加輦邦２４號之１","OBJECTID":272791},"geometry":{"x":173248.33000000101,"y":2566292.3800000008}},{"attributes":{"ID":272797,"DIS_CODE":0,"TOWNNAME":"新營區","LI":"大宏里","LIN":"4鄰","STREET":"民族路","SECT":" ","MAREA":" ","LANE":" ","ALLEY":" ","HOUSE_NO":"２１號之２","E_COORD97":180257.74100000001,"N_COORD97":2578595.05112,"ADDRESS":"民族路２１號之２","OBJECTID":272792},"geometry":{"x":180257.74100000132,"y":2578595.0511200018}},{"attributes":{"ID":272798,"DIS_CODE":0,"TOWNNAME":"歸仁區","LI":"辜厝里","LIN":"42鄰","STREET":"民權南路","SECT":" ","MAREA":" ","LANE":"１９１巷","ALLEY":" ","HOUSE_NO":"９號","E_COORD97":177015.89999999999,"N_COORD97":2540385.02,"ADDRESS":"民權南路１９１巷９號","OBJECTID":272793},"geometry":{"x":177015.90000000224,"y":2540385.0199999996}},{"attributes":{"ID":272799,"DIS_CODE":0,"TOWNNAME":"歸仁區","LI":"辜厝里","LIN":"47鄰","STREET":"民權九街","SECT":" ","MAREA":" ","LANE":"５６巷","ALLEY":" ","HOUSE_NO":"１５號","E_COORD97":177082.87,"N_COORD97":2540294.0299999998,"ADDRESS":"民權九街５６巷１５號","OBJECTID":272794},"geometry":{"x":177082.87000000011,"y":2540294.0300000031}},{"attributes":{"ID":272800,"DIS_CODE":0,"TOWNNAME":"新營區","LI":"新北里","LIN":"7鄰","STREET":"三興街","SECT":" ","MAREA":" ","LANE":"３０１巷","ALLEY":" ","HOUSE_NO":"３７號","E_COORD97":179228.01000000001,"N_COORD97":2579712.6299999999,"ADDRESS":"三興街３０１巷３７號","OBJECTID":272795},"geometry":{"x":179228.00999999978,"y":2579712.6299999971}},{"attributes":{"ID":272801,"DIS_CODE":0,"TOWNNAME":"新營區","LI":"延平里","LIN":"7鄰","STREET":"復興路","SECT":" ","MAREA":" ","LANE":"２９巷","ALLEY":" ","HOUSE_NO":"２９號","E_COORD97":179684.98999999999,"N_COORD97":2577950.71,"ADDRESS":"復興路２９巷２９號","OBJECTID":272796},"geometry":{"x":179684.99000000209,"y":2577950.7100000009}},{"attributes":{"ID":272802,"DIS_CODE":0,"TOWNNAME":"安平區","LI":"文平里","LIN":"7鄰","STREET":"建平六街","SECT":" ","MAREA":" ","LANE":"１１０巷","ALLEY":" ","HOUSE_NO":"１０號","E_COORD97":166226.84,"N_COORD97":2543143.9199999999,"ADDRESS":"建平六街１１０巷１０號","OBJECTID":272797},"geometry":{"x":166226.83999999985,"y":2543143.9200000018}},{"attributes":{"ID":272803,"DIS_CODE":0,"TOWNNAME":"安平區","LI":"文平里","LIN":"7鄰","STREET":"建平六街","SECT":" ","MAREA":" ","LANE":"１１０巷","ALLEY":" ","HOUSE_NO":"１２號","E_COORD97":166227.51000000001,"N_COORD97":2543151.0800000001,"ADDRESS":"建平六街１１０巷１２號","OBJECTID":272798},"geometry":{"x":166227.50999999978,"y":2543151.0800000001}},{"attributes":{"ID":272804,"DIS_CODE":0,"TOWNNAME":"安平區","LI":"國平里","LIN":"7鄰","STREET":"建平三街","SECT":" ","MAREA":" ","LANE":"１７８巷","ALLEY":" ","HOUSE_NO":"１１號","E_COORD97":165459.12,"N_COORD97":2542992.6699999999,"ADDRESS":"建平三街１７８巷１１號","OBJECTID":272799},"geometry":{"x":165459.12000000011,"y":2542992.6700000018}},{"attributes":{"ID":272805,"DIS_CODE":0,"TOWNNAME":"安平區","LI":"國平里","LIN":"7鄰","STREET":"建平三街","SECT":" ","MAREA":" ","LANE":"１７８巷","ALLEY":" ","HOUSE_NO":"１３號","E_COORD97":165459.76999999999,"N_COORD97":2542996.5299999998,"ADDRESS":"建平三街１７８巷１３號","OBJECTID":272800},"geometry":{"x":165459.77000000142,"y":2542996.5300000012}}]}